{"displayFieldName":"TOWNNAME","fieldAliases":{"ID":"ID","DIS_CODE":"DIS_CODE","TOWNNAME":"TOWNNAME","LI":"LI","LIN":"LIN","STREET":"STREET","SECT":"SECT","MAREA":"MAREA","LANE":"LANE","ALLEY":"ALLEY","HOUSE_NO":"HOUSE_NO","E_COORD97":"E_COORD97","N_COORD97":"N_COORD97","ADDRESS":"ADDRESS","OBJECTID":"OBJECTID"},"geometryType":"esriGeometryPoint","spatialReference":{"wkid":102443,"latestWkid":3826},"fields":[{"name":"ID","type":"esriFieldTypeDouble","alias":"ID"},{"name":"DIS_CODE","type":"esriFieldTypeInteger","alias":"DIS_CODE"},{"name":"TOWNNAME","type":"esriFieldTypeString","alias":"TOWNNAME","length":8},{"name":"LI","type":"esriFieldTypeString","alias":"LI","length":8},{"name":"LIN","type":"esriFieldTypeString","alias":"LIN","length":12},{"name":"STREET","type":"esriFieldTypeString","alias":"STREET","length":20},{"name":"SECT","type":"esriFieldTypeString","alias":"SECT","length":8},{"name":"MAREA","type":"esriFieldTypeString","alias":"MAREA","length":12},{"name":"LANE","type":"esriFieldTypeString","alias":"LANE","length":10},{"name":"ALLEY","type":"esriFieldTypeString","alias":"ALLEY","length":10},{"name":"HOUSE_NO","type":"esriFieldTypeString","alias":"HOUSE_NO","length":20},{"name":"E_COORD97","type":"esriFieldTypeDouble","alias":"E_COORD97"},{"name":"N_COORD97","type":"esriFieldTypeDouble","alias":"N_COORD97"},{"name":"ADDRESS","type":"esriFieldTypeString","alias":"ADDRESS","length":50},{"name":"OBJECTID","type":"esriFieldTypeOID","alias":"OBJECTID"}],"features":[{"attributes":{"ID":198602,"DIS_CODE":0,"TOWNNAME":"善化區","LI":"田寮里","LIN":"3鄰","STREET":" ","SECT":" ","MAREA":"六分寮","LANE":" ","ALLEY":" ","HOUSE_NO":"３９號之１２","E_COORD97":178349.82000000001,"N_COORD97":2561089.27,"ADDRESS":"六分寮３９號之１２","OBJECTID":198601},"geometry":{"x":178349.8200000003,"y":2561089.2700000033}},{"attributes":{"ID":198603,"DIS_CODE":0,"TOWNNAME":"善化區","LI":"田寮里","LIN":"3鄰","STREET":" ","SECT":" ","MAREA":"六分寮","LANE":" ","ALLEY":" ","HOUSE_NO":"３９號之１７","E_COORD97":178337.13,"N_COORD97":2561049.02,"ADDRESS":"六分寮３９號之１７","OBJECTID":198602},"geometry":{"x":178337.12999999989,"y":2561049.0199999996}},{"attributes":{"ID":198604,"DIS_CODE":0,"TOWNNAME":"善化區","LI":"田寮里","LIN":"3鄰","STREET":" ","SECT":" ","MAREA":"六分寮","LANE":" ","ALLEY":" ","HOUSE_NO":"４０之２４號","E_COORD97":178371.70999999999,"N_COORD97":2561100.77,"ADDRESS":"六分寮４０之２４號","OBJECTID":198603},"geometry":{"x":178371.71000000089,"y":2561100.7700000014}},{"attributes":{"ID":198605,"DIS_CODE":0,"TOWNNAME":"善化區","LI":"田寮里","LIN":"3鄰","STREET":" ","SECT":" ","MAREA":"六分寮","LANE":" ","ALLEY":" ","HOUSE_NO":"３８號","E_COORD97":178360.54999999999,"N_COORD97":2561156.75,"ADDRESS":"六分寮３８號","OBJECTID":198604},"geometry":{"x":178360.55000000075,"y":2561156.75}},{"attributes":{"ID":198606,"DIS_CODE":0,"TOWNNAME":"善化區","LI":"田寮里","LIN":"3鄰","STREET":" ","SECT":" ","MAREA":"六分寮","LANE":" ","ALLEY":" ","HOUSE_NO":"４０之１７號","E_COORD97":178307.70999999999,"N_COORD97":2561106.02,"ADDRESS":"六分寮４０之１７號","OBJECTID":198605},"geometry":{"x":178307.70999999996,"y":2561106.0200000014}},{"attributes":{"ID":198607,"DIS_CODE":0,"TOWNNAME":"善化區","LI":"田寮里","LIN":"3鄰","STREET":" ","SECT":" ","MAREA":"六分寮","LANE":" ","ALLEY":" ","HOUSE_NO":"３９號之１５","E_COORD97":178289.56,"N_COORD97":2561101.77,"ADDRESS":"六分寮３９號之１５","OBJECTID":198606},"geometry":{"x":178289.55999999959,"y":2561101.7699999996}},{"attributes":{"ID":198608,"DIS_CODE":0,"TOWNNAME":"善化區","LI":"田寮里","LIN":"3鄰","STREET":" ","SECT":" ","MAREA":"六分寮","LANE":" ","ALLEY":" ","HOUSE_NO":"３７之１號","E_COORD97":178310.34,"N_COORD97":2561150.77,"ADDRESS":"六分寮３７之１號","OBJECTID":198607},"geometry":{"x":178310.33999999985,"y":2561150.7700000014}},{"attributes":{"ID":198609,"DIS_CODE":0,"TOWNNAME":"北區","LI":"長德里","LIN":"9鄰","STREET":"西門路","SECT":"三段","MAREA":" ","LANE":" ","ALLEY":" ","HOUSE_NO":"２２８號","E_COORD97":168460.56,"N_COORD97":2544902.8599999999,"ADDRESS":"西門路三段２２８號","OBJECTID":198608},"geometry":{"x":168460.56000000052,"y":2544902.8600000031}},{"attributes":{"ID":198610,"DIS_CODE":0,"TOWNNAME":"北區","LI":"三德里","LIN":"9鄰","STREET":"公園南路","SECT":" ","MAREA":" ","LANE":" ","ALLEY":" ","HOUSE_NO":"２３７號","E_COORD97":168509.64000000001,"N_COORD97":2544714.1200000001,"ADDRESS":"公園南路２３７號","OBJECTID":198609},"geometry":{"x":168509.63999999966,"y":2544714.1200000029}},{"attributes":{"ID":198611,"DIS_CODE":0,"TOWNNAME":"玉井區","LI":"望明里","LIN":"9鄰","STREET":" ","SECT":" ","MAREA":"劉陳","LANE":" ","ALLEY":" ","HOUSE_NO":"５４號","E_COORD97":193454.20000000001,"N_COORD97":2556081.25,"ADDRESS":"劉陳５４號","OBJECTID":198610},"geometry":{"x":193454.20000000112,"y":2556081.25}},{"attributes":{"ID":198612,"DIS_CODE":0,"TOWNNAME":"玉井區","LI":"豐里里","LIN":"9鄰","STREET":" ","SECT":" ","MAREA":"豐里","LANE":" ","ALLEY":" ","HOUSE_NO":"９３號","E_COORD97":192797.95999999999,"N_COORD97":2559947.2400000002,"ADDRESS":"豐里９３號","OBJECTID":198611},"geometry":{"x":192797.96000000089,"y":2559947.2399999984}},{"attributes":{"ID":198613,"DIS_CODE":0,"TOWNNAME":"玉井區","LI":"望明里","LIN":"9鄰","STREET":" ","SECT":" ","MAREA":"劉陳","LANE":" ","ALLEY":" ","HOUSE_NO":"３６號","E_COORD97":193439.89999999999,"N_COORD97":2556044.25,"ADDRESS":"劉陳３６號","OBJECTID":198612},"geometry":{"x":193439.90000000037,"y":2556044.25}},{"attributes":{"ID":198614,"DIS_CODE":0,"TOWNNAME":"玉井區","LI":"沙田里","LIN":"9鄰","STREET":" ","SECT":" ","MAREA":"沙田","LANE":" ","ALLEY":" ","HOUSE_NO":"３７之５號","E_COORD97":196877.07000000001,"N_COORD97":2556091.29,"ADDRESS":"沙田３７之５號","OBJECTID":198613},"geometry":{"x":196877.07000000216,"y":2556091.2900000028}},{"attributes":{"ID":198615,"DIS_CODE":0,"TOWNNAME":"玉井區","LI":"沙田里","LIN":"9鄰","STREET":" ","SECT":" ","MAREA":"沙田","LANE":" ","ALLEY":" ","HOUSE_NO":"４２之１號","E_COORD97":197046.76000000001,"N_COORD97":2556675.2999999998,"ADDRESS":"沙田４２之１號","OBJECTID":198614},"geometry":{"x":197046.76000000071,"y":2556675.3000000007}},{"attributes":{"ID":198616,"DIS_CODE":0,"TOWNNAME":"安南區","LI":"淵中里","LIN":"18鄰","STREET":"安中路","SECT":"四段","MAREA":" ","LANE":"１９７巷","ALLEY":"１９弄","HOUSE_NO":"３號","E_COORD97":164786.45000000001,"N_COORD97":2550021.1299999999,"ADDRESS":"安中路四段１９７巷１９弄３號","OBJECTID":198615},"geometry":{"x":164786.45000000112,"y":2550021.1300000008}},{"attributes":{"ID":198617,"DIS_CODE":0,"TOWNNAME":"安南區","LI":"淵中里","LIN":"18鄰","STREET":"安中路","SECT":"四段","MAREA":" ","LANE":"１９７巷","ALLEY":"１９弄","HOUSE_NO":"５號","E_COORD97":164790.10000000001,"N_COORD97":2550019.0600000001,"ADDRESS":"安中路四段１９７巷１９弄５號","OBJECTID":198616},"geometry":{"x":164790.10000000056,"y":2550019.0600000024}},{"attributes":{"ID":198618,"DIS_CODE":0,"TOWNNAME":"善化區","LI":"胡家里","LIN":"3鄰","STREET":" ","SECT":" ","MAREA":"胡厝寮","LANE":" ","ALLEY":" ","HOUSE_NO":"２９號之６","E_COORD97":175513.38,"N_COORD97":2560467.77,"ADDRESS":"胡厝寮２９號之６","OBJECTID":198617},"geometry":{"x":175513.37999999896,"y":2560467.7699999996}},{"attributes":{"ID":198619,"DIS_CODE":0,"TOWNNAME":"善化區","LI":"田寮里","LIN":"3鄰","STREET":" ","SECT":" ","MAREA":"六分寮","LANE":" ","ALLEY":" ","HOUSE_NO":"３７號之１１","E_COORD97":178299.73000000001,"N_COORD97":2561122.52,"ADDRESS":"六分寮３７號之１１","OBJECTID":198618},"geometry":{"x":178299.73000000045,"y":2561122.5200000014}},{"attributes":{"ID":198620,"DIS_CODE":0,"TOWNNAME":"善化區","LI":"田寮里","LIN":"3鄰","STREET":" ","SECT":" ","MAREA":"六分寮","LANE":" ","ALLEY":" ","HOUSE_NO":"４０之１６號","E_COORD97":178312.76000000001,"N_COORD97":2561106.52,"ADDRESS":"六分寮４０之１６號","OBJECTID":198619},"geometry":{"x":178312.75999999978,"y":2561106.5199999996}},{"attributes":{"ID":198621,"DIS_CODE":0,"TOWNNAME":"安南區","LI":"淵中里","LIN":"18鄰","STREET":"安中路","SECT":"四段","MAREA":" ","LANE":"１９７巷","ALLEY":"１９弄","HOUSE_NO":"７號","E_COORD97":164792.79999999999,"N_COORD97":2550017.79,"ADDRESS":"安中路四段１９７巷１９弄７號","OBJECTID":198620},"geometry":{"x":164792.79999999981,"y":2550017.7899999991}},{"attributes":{"ID":198622,"DIS_CODE":0,"TOWNNAME":"善化區","LI":"田寮里","LIN":"3鄰","STREET":" ","SECT":" ","MAREA":"六分寮","LANE":" ","ALLEY":" ","HOUSE_NO":"３７號","E_COORD97":178318.70999999999,"N_COORD97":2561175.5,"ADDRESS":"六分寮３７號","OBJECTID":198621},"geometry":{"x":178318.71000000089,"y":2561175.5}},{"attributes":{"ID":198623,"DIS_CODE":0,"TOWNNAME":"善化區","LI":"田寮里","LIN":"3鄰","STREET":" ","SECT":" ","MAREA":"六分寮","LANE":" ","ALLEY":" ","HOUSE_NO":"３６號之５","E_COORD97":178330.54000000001,"N_COORD97":2561191.02,"ADDRESS":"六分寮３６號之５","OBJECTID":198622},"geometry":{"x":178330.54000000097,"y":2561191.0199999996}},{"attributes":{"ID":198624,"DIS_CODE":0,"TOWNNAME":"善化區","LI":"田寮里","LIN":"3鄰","STREET":" ","SECT":" ","MAREA":"六分寮","LANE":" ","ALLEY":" ","HOUSE_NO":"３９號之６０","E_COORD97":178196.20000000001,"N_COORD97":2560869.52,"ADDRESS":"六分寮３９號之６０","OBJECTID":198623},"geometry":{"x":178196.20000000019,"y":2560869.5199999996}},{"attributes":{"ID":198625,"DIS_CODE":0,"TOWNNAME":"善化區","LI":"田寮里","LIN":"3鄰","STREET":" ","SECT":" ","MAREA":"六分寮","LANE":" ","ALLEY":" ","HOUSE_NO":"３７號之３","E_COORD97":178340.26000000001,"N_COORD97":2561176.27,"ADDRESS":"六分寮３７號之３","OBJECTID":198624},"geometry":{"x":178340.26000000071,"y":2561176.2699999996}},{"attributes":{"ID":198626,"DIS_CODE":0,"TOWNNAME":"善化區","LI":"牛庄里","LIN":"3鄰","STREET":" ","SECT":" ","MAREA":"牛庄","LANE":" ","ALLEY":" ","HOUSE_NO":"２９之９號","E_COORD97":180658.48999999999,"N_COORD97":2560623.77,"ADDRESS":"牛庄２９之９號","OBJECTID":198625},"geometry":{"x":180658.49000000115,"y":2560623.7699999996}},{"attributes":{"ID":198627,"DIS_CODE":0,"TOWNNAME":"善化區","LI":"田寮里","LIN":"3鄰","STREET":" ","SECT":" ","MAREA":"六分寮","LANE":" ","ALLEY":" ","HOUSE_NO":"３６號之２","E_COORD97":178328.72,"N_COORD97":2561199.27,"ADDRESS":"六分寮３６號之２","OBJECTID":198626},"geometry":{"x":178328.72000000067,"y":2561199.2700000014}},{"attributes":{"ID":198628,"DIS_CODE":0,"TOWNNAME":"安南區","LI":"淵中里","LIN":"18鄰","STREET":"安中路","SECT":"四段","MAREA":" ","LANE":"１９７巷","ALLEY":"１９弄","HOUSE_NO":"９號","E_COORD97":164795.98000000001,"N_COORD97":2550016.52,"ADDRESS":"安中路四段１９７巷１９弄９號","OBJECTID":198627},"geometry":{"x":164795.98000000045,"y":2550016.5199999996}},{"attributes":{"ID":198629,"DIS_CODE":0,"TOWNNAME":"安南區","LI":"淵中里","LIN":"18鄰","STREET":"安中路","SECT":"四段","MAREA":" ","LANE":"１９７巷","ALLEY":"１９弄","HOUSE_NO":"１１號","E_COORD97":164799.63,"N_COORD97":2550015.0899999999,"ADDRESS":"安中路四段１９７巷１９弄１１號","OBJECTID":198628},"geometry":{"x":164799.62999999989,"y":2550015.0900000017}},{"attributes":{"ID":198630,"DIS_CODE":0,"TOWNNAME":"安南區","LI":"淵中里","LIN":"18鄰","STREET":"安中路","SECT":"四段","MAREA":" ","LANE":"１９７巷","ALLEY":"１９弄","HOUSE_NO":"１３號","E_COORD97":164803.75,"N_COORD97":2550013.5099999998,"ADDRESS":"安中路四段１９７巷１９弄１３號","OBJECTID":198629},"geometry":{"x":164803.75,"y":2550013.5099999998}},{"attributes":{"ID":198631,"DIS_CODE":0,"TOWNNAME":"善化區","LI":"嘉北里","LIN":"3鄰","STREET":" ","SECT":" ","MAREA":"茄拔","LANE":" ","ALLEY":" ","HOUSE_NO":"２１號之１","E_COORD97":181116.17000000001,"N_COORD97":2559900.52,"ADDRESS":"茄拔２１號之１","OBJECTID":198630},"geometry":{"x":181116.17000000086,"y":2559900.5199999977}},{"attributes":{"ID":198632,"DIS_CODE":0,"TOWNNAME":"善化區","LI":"胡厝里","LIN":"3鄰","STREET":" ","SECT":" ","MAREA":"胡厝寮","LANE":" ","ALLEY":" ","HOUSE_NO":"１８８號","E_COORD97":175184.57999999999,"N_COORD97":2560462.5,"ADDRESS":"胡厝寮１８８號","OBJECTID":198631},"geometry":{"x":175184.58000000007,"y":2560462.5}},{"attributes":{"ID":198633,"DIS_CODE":0,"TOWNNAME":"安南區","LI":"淵中里","LIN":"18鄰","STREET":"安中路","SECT":"四段","MAREA":" ","LANE":"１９７巷","ALLEY":"１９弄","HOUSE_NO":"１５號","E_COORD97":164807.25,"N_COORD97":2550011.7599999998,"ADDRESS":"安中路四段１９７巷１９弄１５號","OBJECTID":198632},"geometry":{"x":164807.25,"y":2550011.7599999998}},{"attributes":{"ID":198634,"DIS_CODE":0,"TOWNNAME":"安南區","LI":"淵中里","LIN":"18鄰","STREET":"安中路","SECT":"四段","MAREA":" ","LANE":"１９７巷","ALLEY":"１９弄","HOUSE_NO":"１７號","E_COORD97":164810.73999999999,"N_COORD97":2550010.0099999998,"ADDRESS":"安中路四段１９７巷１９弄１７號","OBJECTID":198633},"geometry":{"x":164810.74000000022,"y":2550010.0099999998}},{"attributes":{"ID":198635,"DIS_CODE":0,"TOWNNAME":"安南區","LI":"淵中里","LIN":"18鄰","STREET":"安中路","SECT":"四段","MAREA":" ","LANE":"１９７巷","ALLEY":"１９弄","HOUSE_NO":"１９號","E_COORD97":164814.54999999999,"N_COORD97":2550008.4300000002,"ADDRESS":"安中路四段１９７巷１９弄１９號","OBJECTID":198634},"geometry":{"x":164814.55000000075,"y":2550008.4300000034}},{"attributes":{"ID":198636,"DIS_CODE":0,"TOWNNAME":"善化區","LI":"胡厝里","LIN":"3鄰","STREET":" ","SECT":" ","MAREA":"胡厝寮","LANE":" ","ALLEY":" ","HOUSE_NO":"１８８號之１","E_COORD97":175189.53,"N_COORD97":2560468.77,"ADDRESS":"胡厝寮１８８號之１","OBJECTID":198635},"geometry":{"x":175189.53000000119,"y":2560468.7700000033}},{"attributes":{"ID":198637,"DIS_CODE":0,"TOWNNAME":"新營區","LI":"民生里","LIN":"9鄰","STREET":"復興路","SECT":" ","MAREA":" ","LANE":" ","ALLEY":" ","HOUSE_NO":"１４６號","E_COORD97":179268.23000000001,"N_COORD97":2578041.2999999998,"ADDRESS":"復興路１４６號","OBJECTID":198636},"geometry":{"x":179268.23000000231,"y":2578041.3000000007}},{"attributes":{"ID":198638,"DIS_CODE":0,"TOWNNAME":"新營區","LI":"護鎮里","LIN":"9鄰","STREET":"建國路","SECT":" ","MAREA":" ","LANE":" ","ALLEY":" ","HOUSE_NO":"２９５號","E_COORD97":179044.23000000001,"N_COORD97":2581015.8900000001,"ADDRESS":"建國路２９５號","OBJECTID":198637},"geometry":{"x":179044.23000000045,"y":2581015.8900000025}},{"attributes":{"ID":198639,"DIS_CODE":0,"TOWNNAME":"新營區","LI":"新東里","LIN":"9鄰","STREET":"東泰二街","SECT":" ","MAREA":" ","LANE":" ","ALLEY":" ","HOUSE_NO":"９號","E_COORD97":181174.29999999999,"N_COORD97":2579556.1600000001,"ADDRESS":"東泰二街９號","OBJECTID":198638},"geometry":{"x":181174.30000000168,"y":2579556.160000002}},{"attributes":{"ID":198640,"DIS_CODE":0,"TOWNNAME":"學甲區","LI":"新達里","LIN":"9鄰","STREET":"新興路","SECT":" ","MAREA":" ","LANE":" ","ALLEY":" ","HOUSE_NO":"６２號","E_COORD97":166608,"N_COORD97":2570615.8900000001,"ADDRESS":"新興路６２號","OBJECTID":198639},"geometry":{"x":166608.00000000186,"y":2570615.8900000006}},{"attributes":{"ID":198641,"DIS_CODE":0,"TOWNNAME":"東區","LI":"忠孝里","LIN":"33鄰","STREET":"崇明二街","SECT":" ","MAREA":" ","LANE":" ","ALLEY":" ","HOUSE_NO":"１號","E_COORD97":169530.73999999999,"N_COORD97":2542392.1099999999,"ADDRESS":"崇明二街１號","OBJECTID":198640},"geometry":{"x":169530.74000000209,"y":2542392.1100000031}},{"attributes":{"ID":198642,"DIS_CODE":0,"TOWNNAME":"南區","LI":"南都里","LIN":"9鄰","STREET":"中華南路","SECT":"二段","MAREA":" ","LANE":" ","ALLEY":" ","HOUSE_NO":"２４１號","E_COORD97":166722.34,"N_COORD97":2540233.4199999999,"ADDRESS":"中華南路二段２４１號","OBJECTID":198641},"geometry":{"x":166722.33999999892,"y":2540233.4199999999}},{"attributes":{"ID":198643,"DIS_CODE":0,"TOWNNAME":"安南區","LI":"淵中里","LIN":"18鄰","STREET":"安中路","SECT":"四段","MAREA":" ","LANE":"１９７巷","ALLEY":"１９弄","HOUSE_NO":"２１號","E_COORD97":164818.35999999999,"N_COORD97":2550007.3199999998,"ADDRESS":"安中路四段１９７巷１９弄２１號","OBJECTID":198642},"geometry":{"x":164818.36000000034,"y":2550007.3200000022}},{"attributes":{"ID":198644,"DIS_CODE":0,"TOWNNAME":"安南區","LI":"淵中里","LIN":"18鄰","STREET":"安中路","SECT":"四段","MAREA":" ","LANE":"１９７巷","ALLEY":"１９弄","HOUSE_NO":"２７號","E_COORD97":164829.79000000001,"N_COORD97":2550001.9199999999,"ADDRESS":"安中路四段１９７巷１９弄２７號","OBJECTID":198643},"geometry":{"x":164829.79000000097,"y":2550001.9200000037}},{"attributes":{"ID":198645,"DIS_CODE":0,"TOWNNAME":"安南區","LI":"淵中里","LIN":"18鄰","STREET":"安中路","SECT":"四段","MAREA":" ","LANE":"１９７巷","ALLEY":"１９弄","HOUSE_NO":"２９號","E_COORD97":164833.60000000001,"N_COORD97":2550000.1699999999,"ADDRESS":"安中路四段１９７巷１９弄２９號","OBJECTID":198644},"geometry":{"x":164833.5999999987,"y":2550000.1700000037}},{"attributes":{"ID":198646,"DIS_CODE":0,"TOWNNAME":"安南區","LI":"淵中里","LIN":"18鄰","STREET":"安中路","SECT":"四段","MAREA":" ","LANE":"１９７巷","ALLEY":"１９弄","HOUSE_NO":"３１號","E_COORD97":164837.73000000001,"N_COORD97":2549998.1099999999,"ADDRESS":"安中路四段１９７巷１９弄３１號","OBJECTID":198645},"geometry":{"x":164837.73000000138,"y":2549998.1100000013}},{"attributes":{"ID":198647,"DIS_CODE":0,"TOWNNAME":"安南區","LI":"淵中里","LIN":"18鄰","STREET":"安中路","SECT":"四段","MAREA":" ","LANE":"１９７巷","ALLEY":"１９弄","HOUSE_NO":"３３號","E_COORD97":164841.38,"N_COORD97":2549996.6800000002,"ADDRESS":"安中路四段１９７巷１９弄３３號","OBJECTID":198646},"geometry":{"x":164841.38000000082,"y":2549996.6800000034}},{"attributes":{"ID":198648,"DIS_CODE":0,"TOWNNAME":"安南區","LI":"淵中里","LIN":"18鄰","STREET":"安中路","SECT":"四段","MAREA":" ","LANE":"１９７巷","ALLEY":"１９弄","HOUSE_NO":"３５號","E_COORD97":164846.14000000001,"N_COORD97":2549994.9300000002,"ADDRESS":"安中路四段１９７巷１９弄３５號","OBJECTID":198647},"geometry":{"x":164846.1400000006,"y":2549994.9300000034}},{"attributes":{"ID":198649,"DIS_CODE":0,"TOWNNAME":"安南區","LI":"淵中里","LIN":"18鄰","STREET":"安中路","SECT":"四段","MAREA":" ","LANE":"１９７巷","ALLEY":"１９弄","HOUSE_NO":"３７號","E_COORD97":164850.26999999999,"N_COORD97":2549993.0299999998,"ADDRESS":"安中路四段１９７巷１９弄３７號","OBJECTID":198648},"geometry":{"x":164850.27000000048,"y":2549993.0299999993}},{"attributes":{"ID":198650,"DIS_CODE":0,"TOWNNAME":"安南區","LI":"淵中里","LIN":"18鄰","STREET":"安中路","SECT":"四段","MAREA":" ","LANE":"１９７巷","ALLEY":"１９弄","HOUSE_NO":"３９號","E_COORD97":164854.23999999999,"N_COORD97":2549991.1200000001,"ADDRESS":"安中路四段１９７巷１９弄３９號","OBJECTID":198649},"geometry":{"x":164854.24000000115,"y":2549991.120000001}},{"attributes":{"ID":198651,"DIS_CODE":0,"TOWNNAME":"安南區","LI":"淵中里","LIN":"18鄰","STREET":"安中路","SECT":"四段","MAREA":" ","LANE":"１９７巷","ALLEY":"１９弄","HOUSE_NO":"４１號","E_COORD97":164859,"N_COORD97":2549988.2599999998,"ADDRESS":"安中路四段１９７巷１９弄４１號","OBJECTID":198650},"geometry":{"x":164859.00000000093,"y":2549988.2599999998}},{"attributes":{"ID":198652,"DIS_CODE":0,"TOWNNAME":"安南區","LI":"淵中里","LIN":"18鄰","STREET":"安中路","SECT":"四段","MAREA":" ","LANE":"１９７巷","ALLEY":"１９弄","HOUSE_NO":"４３號","E_COORD97":164863.44,"N_COORD97":2549986.52,"ADDRESS":"安中路四段１９７巷１９弄４３號","OBJECTID":198651},"geometry":{"x":164863.44000000134,"y":2549986.5199999996}},{"attributes":{"ID":198653,"DIS_CODE":0,"TOWNNAME":"安南區","LI":"淵中里","LIN":"18鄰","STREET":"安中路","SECT":"四段","MAREA":" ","LANE":"１９７巷","ALLEY":"１９弄","HOUSE_NO":"４５號","E_COORD97":164868.04999999999,"N_COORD97":2549984.4500000002,"ADDRESS":"安中路四段１９７巷１９弄４５號","OBJECTID":198652},"geometry":{"x":164868.04999999888,"y":2549984.4500000011}},{"attributes":{"ID":198654,"DIS_CODE":0,"TOWNNAME":"南區","LI":"南都里","LIN":"9鄰","STREET":"中華南路","SECT":"二段","MAREA":" ","LANE":" ","ALLEY":" ","HOUSE_NO":"２４７號之１","E_COORD97":166668.59,"N_COORD97":2540167.71,"ADDRESS":"中華南路二段２４７號之１","OBJECTID":198653},"geometry":{"x":166668.59000000078,"y":2540167.7100000009}},{"attributes":{"ID":198655,"DIS_CODE":0,"TOWNNAME":"楠西區","LI":"灣丘里","LIN":"9鄰","STREET":" ","SECT":" ","MAREA":"香蕉山","LANE":" ","ALLEY":" ","HOUSE_NO":"１１號","E_COORD97":202759.59,"N_COORD97":2564474.25,"ADDRESS":"香蕉山１１號","OBJECTID":198654},"geometry":{"x":202759.59000000078,"y":2564474.2500000019}},{"attributes":{"ID":198656,"DIS_CODE":0,"TOWNNAME":"善化區","LI":"嘉北里","LIN":"3鄰","STREET":" ","SECT":" ","MAREA":"茄拔","LANE":" ","ALLEY":" ","HOUSE_NO":"２７號","E_COORD97":181124.06,"N_COORD97":2559823.2599999998,"ADDRESS":"茄拔２７號","OBJECTID":198655},"geometry":{"x":181124.05999999959,"y":2559823.2599999998}},{"attributes":{"ID":198657,"DIS_CODE":0,"TOWNNAME":"善化區","LI":"嘉北里","LIN":"3鄰","STREET":" ","SECT":" ","MAREA":"茄拔","LANE":" ","ALLEY":" ","HOUSE_NO":"２８號之３","E_COORD97":181089.48000000001,"N_COORD97":2559814.27,"ADDRESS":"茄拔２８號之３","OBJECTID":198656},"geometry":{"x":181089.48000000138,"y":2559814.2700000033}},{"attributes":{"ID":198658,"DIS_CODE":0,"TOWNNAME":"後壁區","LI":"新東里","LIN":"14鄰","STREET":" ","SECT":" ","MAREA":"新港東","LANE":" ","ALLEY":" ","HOUSE_NO":"１４７號之１６９","E_COORD97":181326.06,"N_COORD97":2582263.4500000002,"ADDRESS":"新港東１４７號之１６９","OBJECTID":198657},"geometry":{"x":181326.05999999959,"y":2582263.4499999993}},{"attributes":{"ID":198659,"DIS_CODE":0,"TOWNNAME":"後壁區","LI":"新東里","LIN":"14鄰","STREET":" ","SECT":" ","MAREA":"新港東","LANE":" ","ALLEY":" ","HOUSE_NO":"１４７號之１６","E_COORD97":181320.76999999999,"N_COORD97":2582120.6699999999,"ADDRESS":"新港東１４７號之１６","OBJECTID":198658},"geometry":{"x":181320.76999999955,"y":2582120.6700000037}},{"attributes":{"ID":198660,"DIS_CODE":0,"TOWNNAME":"善化區","LI":"嘉北里","LIN":"3鄰","STREET":" ","SECT":" ","MAREA":"茄拔","LANE":" ","ALLEY":" ","HOUSE_NO":"２０號","E_COORD97":181136.84,"N_COORD97":2559934.7599999998,"ADDRESS":"茄拔２０號","OBJECTID":198659},"geometry":{"x":181136.84000000078,"y":2559934.7600000016}},{"attributes":{"ID":198661,"DIS_CODE":0,"TOWNNAME":"善化區","LI":"東隆里","LIN":"3鄰","STREET":" ","SECT":" ","MAREA":"東勢寮","LANE":" ","ALLEY":" ","HOUSE_NO":"１４３號之１","E_COORD97":180179.64000000001,"N_COORD97":2561873.27,"ADDRESS":"東勢寮１４３號之１","OBJECTID":198660},"geometry":{"x":180179.63999999966,"y":2561873.2700000014}},{"attributes":{"ID":198662,"DIS_CODE":0,"TOWNNAME":"善化區","LI":"東隆里","LIN":"3鄰","STREET":" ","SECT":" ","MAREA":"東勢寮","LANE":" ","ALLEY":" ","HOUSE_NO":"１４４號之２","E_COORD97":180163.67000000001,"N_COORD97":2561869.77,"ADDRESS":"東勢寮１４４號之２","OBJECTID":198661},"geometry":{"x":180163.67000000086,"y":2561869.7700000014}},{"attributes":{"ID":198663,"DIS_CODE":0,"TOWNNAME":"善化區","LI":"胡家里","LIN":"3鄰","STREET":" ","SECT":" ","MAREA":"胡厝寮","LANE":" ","ALLEY":" ","HOUSE_NO":"２６號之１","E_COORD97":175581.54999999999,"N_COORD97":2560572.27,"ADDRESS":"胡厝寮２６號之１","OBJECTID":198662},"geometry":{"x":175581.54999999981,"y":2560572.2699999996}},{"attributes":{"ID":198664,"DIS_CODE":0,"TOWNNAME":"善化區","LI":"胡家里","LIN":"3鄰","STREET":" ","SECT":" ","MAREA":"胡厝寮","LANE":" ","ALLEY":" ","HOUSE_NO":"２０號之１","E_COORD97":175533.60999999999,"N_COORD97":2560666.0099999998,"ADDRESS":"胡厝寮２０號之１","OBJECTID":198663},"geometry":{"x":175533.61000000034,"y":2560666.0099999998}},{"attributes":{"ID":198665,"DIS_CODE":0,"TOWNNAME":"善化區","LI":"東昌里","LIN":"3鄰","STREET":" ","SECT":" ","MAREA":"東勢寮","LANE":" ","ALLEY":" ","HOUSE_NO":"３５號之２","E_COORD97":180775.75,"N_COORD97":2561863.02,"ADDRESS":"東勢寮３５號之２","OBJECTID":198664},"geometry":{"x":180775.75,"y":2561863.0199999996}},{"attributes":{"ID":198666,"DIS_CODE":0,"TOWNNAME":"善化區","LI":"嘉北里","LIN":"3鄰","STREET":" ","SECT":" ","MAREA":"茄拔","LANE":" ","ALLEY":" ","HOUSE_NO":"１９號之２","E_COORD97":181202.92000000001,"N_COORD97":2559903.52,"ADDRESS":"茄拔１９號之２","OBJECTID":198665},"geometry":{"x":181202.92000000086,"y":2559903.5199999996}},{"attributes":{"ID":198667,"DIS_CODE":0,"TOWNNAME":"善化區","LI":"胡厝里","LIN":"3鄰","STREET":" ","SECT":" ","MAREA":"胡厝寮","LANE":" ","ALLEY":" ","HOUSE_NO":"１８９號","E_COORD97":175170.64000000001,"N_COORD97":2560457.25,"ADDRESS":"胡厝寮１８９號","OBJECTID":198666},"geometry":{"x":175170.63999999873,"y":2560457.2500000019}},{"attributes":{"ID":198668,"DIS_CODE":0,"TOWNNAME":"學甲區","LI":"平和里","LIN":"9鄰","STREET":" ","SECT":" ","MAREA":"學甲寮","LANE":" ","ALLEY":" ","HOUSE_NO":"８３號","E_COORD97":169636.44,"N_COORD97":2573372.6299999999,"ADDRESS":"學甲寮８３號","OBJECTID":198667},"geometry":{"x":169636.44000000227,"y":2573372.6299999971}},{"attributes":{"ID":198669,"DIS_CODE":0,"TOWNNAME":"學甲區","LI":"平和里","LIN":"9鄰","STREET":" ","SECT":" ","MAREA":"學甲寮","LANE":" ","ALLEY":" ","HOUSE_NO":"８４號","E_COORD97":169657.67999999999,"N_COORD97":2573359.7799999998,"ADDRESS":"學甲寮８４號","OBJECTID":198668},"geometry":{"x":169657.67999999877,"y":2573359.7800000012}},{"attributes":{"ID":198670,"DIS_CODE":0,"TOWNNAME":"善化區","LI":"胡厝里","LIN":"3鄰","STREET":" ","SECT":" ","MAREA":"胡厝寮","LANE":" ","ALLEY":" ","HOUSE_NO":"１８７號","E_COORD97":175205.25,"N_COORD97":2560484.25,"ADDRESS":"胡厝寮１８７號","OBJECTID":198669},"geometry":{"x":175205.25,"y":2560484.2500000019}},{"attributes":{"ID":198671,"DIS_CODE":0,"TOWNNAME":"善化區","LI":"東昌里","LIN":"3鄰","STREET":" ","SECT":" ","MAREA":"東勢寮","LANE":" ","ALLEY":" ","HOUSE_NO":"３２號之１","E_COORD97":180756.89999999999,"N_COORD97":2561953.52,"ADDRESS":"東勢寮３２號之１","OBJECTID":198670},"geometry":{"x":180756.90000000037,"y":2561953.5200000014}},{"attributes":{"ID":198672,"DIS_CODE":0,"TOWNNAME":"善化區","LI":"胡家里","LIN":"3鄰","STREET":" ","SECT":" ","MAREA":"胡厝寮","LANE":" ","ALLEY":" ","HOUSE_NO":"４１２號","E_COORD97":175629.95999999999,"N_COORD97":2560315,"ADDRESS":"胡厝寮４１２號","OBJECTID":198671},"geometry":{"x":175629.96000000183,"y":2560315.0000000037}},{"attributes":{"ID":198673,"DIS_CODE":0,"TOWNNAME":"善化區","LI":"東隆里","LIN":"3鄰","STREET":" ","SECT":" ","MAREA":"東勢寮","LANE":" ","ALLEY":" ","HOUSE_NO":"１４８之２號","E_COORD97":180108.20999999999,"N_COORD97":2561872.52,"ADDRESS":"東勢寮１４８之２號","OBJECTID":198672},"geometry":{"x":180108.20999999996,"y":2561872.5199999996}},{"attributes":{"ID":198674,"DIS_CODE":0,"TOWNNAME":"善化區","LI":"胡家里","LIN":"3鄰","STREET":" ","SECT":" ","MAREA":"胡厝寮","LANE":" ","ALLEY":" ","HOUSE_NO":"４１５號","E_COORD97":175646.70999999999,"N_COORD97":2560280.25,"ADDRESS":"胡厝寮４１５號","OBJECTID":198673},"geometry":{"x":175646.70999999996,"y":2560280.2500000019}},{"attributes":{"ID":198675,"DIS_CODE":0,"TOWNNAME":"善化區","LI":"東隆里","LIN":"3鄰","STREET":" ","SECT":" ","MAREA":"東勢寮","LANE":" ","ALLEY":" ","HOUSE_NO":"１４８號","E_COORD97":180119.64999999999,"N_COORD97":2561873.7599999998,"ADDRESS":"東勢寮１４８號","OBJECTID":198674},"geometry":{"x":180119.65000000224,"y":2561873.7600000016}},{"attributes":{"ID":198676,"DIS_CODE":0,"TOWNNAME":"善化區","LI":"嘉北里","LIN":"3鄰","STREET":" ","SECT":" ","MAREA":"茄拔","LANE":" ","ALLEY":" ","HOUSE_NO":"２８號之２","E_COORD97":181090.34,"N_COORD97":2559820.02,"ADDRESS":"茄拔２８號之２","OBJECTID":198675},"geometry":{"x":181090.33999999985,"y":2559820.0200000014}},{"attributes":{"ID":198677,"DIS_CODE":0,"TOWNNAME":"善化區","LI":"東隆里","LIN":"3鄰","STREET":" ","SECT":" ","MAREA":"東勢寮","LANE":" ","ALLEY":" ","HOUSE_NO":"１４９之２號","E_COORD97":180087.60000000001,"N_COORD97":2561858.27,"ADDRESS":"東勢寮１４９之２號","OBJECTID":198676},"geometry":{"x":180087.60000000056,"y":2561858.2699999996}},{"attributes":{"ID":198678,"DIS_CODE":0,"TOWNNAME":"善化區","LI":"胡厝里","LIN":"3鄰","STREET":" ","SECT":" ","MAREA":"胡厝寮","LANE":" ","ALLEY":" ","HOUSE_NO":"１８５號","E_COORD97":175214.92999999999,"N_COORD97":2560519.5,"ADDRESS":"胡厝寮１８５號","OBJECTID":198677},"geometry":{"x":175214.93000000063,"y":2560519.5000000019}},{"attributes":{"ID":198679,"DIS_CODE":0,"TOWNNAME":"善化區","LI":"胡家里","LIN":"3鄰","STREET":" ","SECT":" ","MAREA":"胡厝寮","LANE":" ","ALLEY":" ","HOUSE_NO":"２０號之３","E_COORD97":175487.5,"N_COORD97":2560668.27,"ADDRESS":"胡厝寮２０號之３","OBJECTID":198678},"geometry":{"x":175487.50000000093,"y":2560668.2699999996}},{"attributes":{"ID":198680,"DIS_CODE":0,"TOWNNAME":"善化區","LI":"胡家里","LIN":"3鄰","STREET":" ","SECT":" ","MAREA":"胡厝寮","LANE":" ","ALLEY":" ","HOUSE_NO":"４１８號","E_COORD97":175682.82999999999,"N_COORD97":2560250.75,"ADDRESS":"胡厝寮４１８號","OBJECTID":198679},"geometry":{"x":175682.83000000007,"y":2560250.75}},{"attributes":{"ID":198681,"DIS_CODE":0,"TOWNNAME":"善化區","LI":"東隆里","LIN":"3鄰","STREET":" ","SECT":" ","MAREA":"東勢寮","LANE":" ","ALLEY":" ","HOUSE_NO":"１４４號之１","E_COORD97":180168.67000000001,"N_COORD97":2561870.02,"ADDRESS":"東勢寮１４４號之１","OBJECTID":198680},"geometry":{"x":180168.67000000086,"y":2561870.0199999996}},{"attributes":{"ID":198682,"DIS_CODE":0,"TOWNNAME":"善化區","LI":"東昌里","LIN":"3鄰","STREET":" ","SECT":" ","MAREA":"東勢寮","LANE":" ","ALLEY":" ","HOUSE_NO":"３５號之１","E_COORD97":180771.20999999999,"N_COORD97":2561849.77,"ADDRESS":"東勢寮３５號之１","OBJECTID":198681},"geometry":{"x":180771.20999999996,"y":2561849.7700000014}},{"attributes":{"ID":198683,"DIS_CODE":0,"TOWNNAME":"善化區","LI":"胡家里","LIN":"3鄰","STREET":" ","SECT":" ","MAREA":"胡厝寮","LANE":" ","ALLEY":" ","HOUSE_NO":"５２０號","E_COORD97":175868.45999999999,"N_COORD97":2560007.75,"ADDRESS":"胡厝寮５２０號","OBJECTID":198682},"geometry":{"x":175868.45999999996,"y":2560007.75}},{"attributes":{"ID":198684,"DIS_CODE":0,"TOWNNAME":"善化區","LI":"嘉北里","LIN":"3鄰","STREET":" ","SECT":" ","MAREA":"茄拔","LANE":" ","ALLEY":" ","HOUSE_NO":"２１號之４","E_COORD97":181120.19,"N_COORD97":2559911.77,"ADDRESS":"茄拔２１號之４","OBJECTID":198683},"geometry":{"x":181120.19000000134,"y":2559911.7699999996}},{"attributes":{"ID":198685,"DIS_CODE":0,"TOWNNAME":"善化區","LI":"嘉北里","LIN":"3鄰","STREET":" ","SECT":" ","MAREA":"茄拔","LANE":" ","ALLEY":" ","HOUSE_NO":"２５號之１","E_COORD97":181138.19,"N_COORD97":2559864.77,"ADDRESS":"茄拔２５號之１","OBJECTID":198684},"geometry":{"x":181138.18999999948,"y":2559864.7699999996}},{"attributes":{"ID":198686,"DIS_CODE":0,"TOWNNAME":"安南區","LI":"淵中里","LIN":"18鄰","STREET":"安中路","SECT":"四段","MAREA":" ","LANE":"１９７巷","ALLEY":"１９弄","HOUSE_NO":"４７號","E_COORD97":164872.48999999999,"N_COORD97":2549982.23,"ADDRESS":"安中路四段１９７巷１９弄４７號","OBJECTID":198685},"geometry":{"x":164872.49000000209,"y":2549982.2300000004}},{"attributes":{"ID":198687,"DIS_CODE":0,"TOWNNAME":"安南區","LI":"淵中里","LIN":"18鄰","STREET":"安中路","SECT":"四段","MAREA":" ","LANE":"１９７巷","ALLEY":"１９弄","HOUSE_NO":"４９號","E_COORD97":164877.57000000001,"N_COORD97":2549980.0099999998,"ADDRESS":"安中路四段１９７巷１９弄４９號","OBJECTID":198686},"geometry":{"x":164877.57000000123,"y":2549980.0099999998}},{"attributes":{"ID":198688,"DIS_CODE":0,"TOWNNAME":"安南區","LI":"淵中里","LIN":"18鄰","STREET":"安中路","SECT":"四段","MAREA":" ","LANE":"１９７巷","ALLEY":"１９弄","HOUSE_NO":"５１號","E_COORD97":164883.29000000001,"N_COORD97":2549977.46,"ADDRESS":"安中路四段１９７巷１９弄５１號","OBJECTID":198687},"geometry":{"x":164883.29000000004,"y":2549977.4600000009}},{"attributes":{"ID":198689,"DIS_CODE":0,"TOWNNAME":"南區","LI":"明亮里","LIN":"18鄰","STREET":"金華路","SECT":"一段","MAREA":" ","LANE":"３５２巷","ALLEY":"７５弄","HOUSE_NO":"１號","E_COORD97":167195.92000000001,"N_COORD97":2541146.1699999999,"ADDRESS":"金華路一段３５２巷７５弄１號","OBJECTID":198688},"geometry":{"x":167195.91999999993,"y":2541146.1700000018}},{"attributes":{"ID":198690,"DIS_CODE":0,"TOWNNAME":"南區","LI":"明亮里","LIN":"18鄰","STREET":"金華路","SECT":"一段","MAREA":" ","LANE":"３５２巷","ALLEY":"７５弄","HOUSE_NO":"２號","E_COORD97":167202.98000000001,"N_COORD97":2541137.5800000001,"ADDRESS":"金華路一段３５２巷７５弄２號","OBJECTID":198689},"geometry":{"x":167202.98000000045,"y":2541137.5800000001}},{"attributes":{"ID":198691,"DIS_CODE":0,"TOWNNAME":"南區","LI":"明亮里","LIN":"18鄰","STREET":"金華路","SECT":"一段","MAREA":" ","LANE":"３５２巷","ALLEY":"７５弄","HOUSE_NO":"３號","E_COORD97":167198.98999999999,"N_COORD97":2541149.8500000001,"ADDRESS":"金華路一段３５２巷７５弄３號","OBJECTID":198690},"geometry":{"x":167198.99000000115,"y":2541149.8500000034}},{"attributes":{"ID":198692,"DIS_CODE":0,"TOWNNAME":"新營區","LI":"南興里","LIN":"15鄰","STREET":"建業路","SECT":" ","MAREA":" ","LANE":" ","ALLEY":" ","HOUSE_NO":"１０６號","E_COORD97":179236.95000000001,"N_COORD97":2577489.9399999999,"ADDRESS":"建業路１０６號","OBJECTID":198691},"geometry":{"x":179236.95000000019,"y":2577489.9399999995}},{"attributes":{"ID":198693,"DIS_CODE":0,"TOWNNAME":"善化區","LI":"嘉北里","LIN":"3鄰","STREET":" ","SECT":" ","MAREA":"茄拔","LANE":" ","ALLEY":" ","HOUSE_NO":"２１之６號","E_COORD97":181127.44,"N_COORD97":2559893.02,"ADDRESS":"茄拔２１之６號","OBJECTID":198692},"geometry":{"x":181127.44000000041,"y":2559893.0199999996}},{"attributes":{"ID":198694,"DIS_CODE":0,"TOWNNAME":"善化區","LI":"東隆里","LIN":"3鄰","STREET":" ","SECT":" ","MAREA":"東勢寮","LANE":" ","ALLEY":" ","HOUSE_NO":"１４８之３號","E_COORD97":180098.17000000001,"N_COORD97":2561882.77,"ADDRESS":"東勢寮１４８之３號","OBJECTID":198693},"geometry":{"x":180098.16999999993,"y":2561882.7700000014}},{"attributes":{"ID":198695,"DIS_CODE":0,"TOWNNAME":"善化區","LI":"胡家里","LIN":"3鄰","STREET":" ","SECT":" ","MAREA":"胡厝寮","LANE":" ","ALLEY":" ","HOUSE_NO":"４１６號","E_COORD97":175673.45999999999,"N_COORD97":2560277.5,"ADDRESS":"胡厝寮４１６號","OBJECTID":198694},"geometry":{"x":175673.45999999996,"y":2560277.4999999981}},{"attributes":{"ID":198696,"DIS_CODE":0,"TOWNNAME":"善化區","LI":"嘉北里","LIN":"3鄰","STREET":" ","SECT":" ","MAREA":"茄拔","LANE":" ","ALLEY":" ","HOUSE_NO":"１９號","E_COORD97":181193.45999999999,"N_COORD97":2559926.5099999998,"ADDRESS":"茄拔１９號","OBJECTID":198695},"geometry":{"x":181193.45999999996,"y":2559926.5100000016}},{"attributes":{"ID":198697,"DIS_CODE":0,"TOWNNAME":"善化區","LI":"胡家里","LIN":"3鄰","STREET":" ","SECT":" ","MAREA":"胡厝寮","LANE":" ","ALLEY":" ","HOUSE_NO":"２６號之２","E_COORD97":175579.51000000001,"N_COORD97":2560596.52,"ADDRESS":"胡厝寮２６號之２","OBJECTID":198696},"geometry":{"x":175579.50999999978,"y":2560596.5200000014}},{"attributes":{"ID":198698,"DIS_CODE":0,"TOWNNAME":"麻豆區","LI":"小埤里","LIN":"3鄰","STREET":" ","SECT":" ","MAREA":"小埤頭","LANE":" ","ALLEY":" ","HOUSE_NO":"２號之３１","E_COORD97":171294.13,"N_COORD97":2565814.2999999998,"ADDRESS":"小埤頭２號之３１","OBJECTID":198697},"geometry":{"x":171294.13000000175,"y":2565814.3000000026}},{"attributes":{"ID":198699,"DIS_CODE":0,"TOWNNAME":"六甲區","LI":"中社里","LIN":"9鄰","STREET":" ","SECT":" ","MAREA":"中社","LANE":" ","ALLEY":" ","HOUSE_NO":"４３５號","E_COORD97":180900.85999999999,"N_COORD97":2570825.5899999999,"ADDRESS":"中社４３５號","OBJECTID":198698},"geometry":{"x":180900.86000000034,"y":2570825.5900000017}},{"attributes":{"ID":198700,"DIS_CODE":0,"TOWNNAME":"麻豆區","LI":"小埤里","LIN":"3鄰","STREET":" ","SECT":" ","MAREA":"小埤頭","LANE":" ","ALLEY":" ","HOUSE_NO":"２號之９","E_COORD97":171317.20999999999,"N_COORD97":2565817.8900000001,"ADDRESS":"小埤頭２號之９","OBJECTID":198699},"geometry":{"x":171317.20999999996,"y":2565817.8900000006}},{"attributes":{"ID":198701,"DIS_CODE":0,"TOWNNAME":"麻豆區","LI":"小埤里","LIN":"3鄰","STREET":" ","SECT":" ","MAREA":"小埤頭","LANE":" ","ALLEY":" ","HOUSE_NO":"２號","E_COORD97":171316.67000000001,"N_COORD97":2565847.9300000002,"ADDRESS":"小埤頭２號","OBJECTID":198700},"geometry":{"x":171316.67000000086,"y":2565847.9299999997}},{"attributes":{"ID":198702,"DIS_CODE":0,"TOWNNAME":"麻豆區","LI":"小埤里","LIN":"3鄰","STREET":" ","SECT":" ","MAREA":"小埤頭","LANE":" ","ALLEY":" ","HOUSE_NO":"３號之２","E_COORD97":171290.20999999999,"N_COORD97":2565838.2799999998,"ADDRESS":"小埤頭３號之２","OBJECTID":198701},"geometry":{"x":171290.20999999903,"y":2565838.2799999993}},{"attributes":{"ID":198703,"DIS_CODE":0,"TOWNNAME":"麻豆區","LI":"小埤里","LIN":"3鄰","STREET":" ","SECT":" ","MAREA":"小埤頭","LANE":" ","ALLEY":" ","HOUSE_NO":"３號之３","E_COORD97":171290.07999999999,"N_COORD97":2565842.9399999999,"ADDRESS":"小埤頭３號之３","OBJECTID":198702},"geometry":{"x":171290.08000000101,"y":2565842.9399999995}},{"attributes":{"ID":198704,"DIS_CODE":0,"TOWNNAME":"麻豆區","LI":"小埤里","LIN":"3鄰","STREET":" ","SECT":" ","MAREA":"小埤頭","LANE":" ","ALLEY":" ","HOUSE_NO":"３號","E_COORD97":171282.62,"N_COORD97":2565867.0899999999,"ADDRESS":"小埤頭３號","OBJECTID":198703},"geometry":{"x":171282.62000000197,"y":2565867.0899999999}},{"attributes":{"ID":198705,"DIS_CODE":0,"TOWNNAME":"南區","LI":"明亮里","LIN":"18鄰","STREET":"金華路","SECT":"一段","MAREA":" ","LANE":"３５２巷","ALLEY":"７５弄","HOUSE_NO":"４號","E_COORD97":167207.59,"N_COORD97":2541141.2599999998,"ADDRESS":"金華路一段３５２巷７５弄４號","OBJECTID":198704},"geometry":{"x":167207.59000000078,"y":2541141.2600000016}},{"attributes":{"ID":198706,"DIS_CODE":0,"TOWNNAME":"南區","LI":"明亮里","LIN":"18鄰","STREET":"金華路","SECT":"一段","MAREA":" ","LANE":"３５２巷","ALLEY":"７５弄","HOUSE_NO":"５號","E_COORD97":167202.37,"N_COORD97":2541152.9199999999,"ADDRESS":"金華路一段３５２巷７５弄５號","OBJECTID":198705},"geometry":{"x":167202.37000000197,"y":2541152.9199999981}},{"attributes":{"ID":198707,"DIS_CODE":0,"TOWNNAME":"南區","LI":"明亮里","LIN":"18鄰","STREET":"金華路","SECT":"一段","MAREA":" ","LANE":"３５２巷","ALLEY":"７５弄","HOUSE_NO":"６號","E_COORD97":167217.73000000001,"N_COORD97":2541133.8999999999,"ADDRESS":"金華路一段３５２巷７５弄６號","OBJECTID":198706},"geometry":{"x":167217.73000000138,"y":2541133.9000000022}},{"attributes":{"ID":198708,"DIS_CODE":0,"TOWNNAME":"麻豆區","LI":"小埤里","LIN":"3鄰","STREET":" ","SECT":" ","MAREA":"小埤頭","LANE":" ","ALLEY":" ","HOUSE_NO":"５號之１","E_COORD97":171359.54999999999,"N_COORD97":2565925.27,"ADDRESS":"小埤頭５號之１","OBJECTID":198707},"geometry":{"x":171359.55000000075,"y":2565925.2700000014}},{"attributes":{"ID":198709,"DIS_CODE":0,"TOWNNAME":"麻豆區","LI":"小埤里","LIN":"3鄰","STREET":" ","SECT":" ","MAREA":"小埤頭","LANE":" ","ALLEY":" ","HOUSE_NO":"５號之２","E_COORD97":171358.34,"N_COORD97":2565930.2200000002,"ADDRESS":"小埤頭５號之２","OBJECTID":198708},"geometry":{"x":171358.33999999985,"y":2565930.2200000025}},{"attributes":{"ID":198710,"DIS_CODE":0,"TOWNNAME":"麻豆區","LI":"小埤里","LIN":"3鄰","STREET":" ","SECT":" ","MAREA":"小埤頭","LANE":" ","ALLEY":" ","HOUSE_NO":"５號之４","E_COORD97":171349.07000000001,"N_COORD97":2565918.1400000001,"ADDRESS":"小埤頭５號之４","OBJECTID":198709},"geometry":{"x":171349.0700000003,"y":2565918.1400000006}},{"attributes":{"ID":198711,"DIS_CODE":0,"TOWNNAME":"麻豆區","LI":"小埤里","LIN":"3鄰","STREET":" ","SECT":" ","MAREA":"小埤頭","LANE":" ","ALLEY":" ","HOUSE_NO":"５號之６","E_COORD97":171355.67000000001,"N_COORD97":2565935.75,"ADDRESS":"小埤頭５號之６","OBJECTID":198710},"geometry":{"x":171355.67000000086,"y":2565935.7500000019}},{"attributes":{"ID":198712,"DIS_CODE":0,"TOWNNAME":"新市區","LI":"大營里","LIN":"3鄰","STREET":" ","SECT":" ","MAREA":"大營","LANE":" ","ALLEY":" ","HOUSE_NO":"３５號","E_COORD97":179755.10000000001,"N_COORD97":2555493,"ADDRESS":"大營３５號","OBJECTID":198711},"geometry":{"x":179755.10000000056,"y":2555493}},{"attributes":{"ID":198713,"DIS_CODE":0,"TOWNNAME":"新市區","LI":"潭頂里","LIN":"3鄰","STREET":" ","SECT":" ","MAREA":"潭頂","LANE":" ","ALLEY":" ","HOUSE_NO":"１７０之１號","E_COORD97":180880.28,"N_COORD97":2552830.5499999998,"ADDRESS":"潭頂１７０之１號","OBJECTID":198712},"geometry":{"x":180880.28000000119,"y":2552830.5500000026}},{"attributes":{"ID":198714,"DIS_CODE":0,"TOWNNAME":"新市區","LI":"潭頂里","LIN":"3鄰","STREET":" ","SECT":" ","MAREA":"潭頂","LANE":" ","ALLEY":" ","HOUSE_NO":"１６６之１５號","E_COORD97":180933.20000000001,"N_COORD97":2552827.5499999998,"ADDRESS":"潭頂１６６之１５號","OBJECTID":198713},"geometry":{"x":180933.20000000112,"y":2552827.5500000026}},{"attributes":{"ID":198715,"DIS_CODE":0,"TOWNNAME":"南區","LI":"明亮里","LIN":"18鄰","STREET":"金華路","SECT":"一段","MAREA":" ","LANE":"３５２巷","ALLEY":"７５弄","HOUSE_NO":"７號","E_COORD97":167206.06,"N_COORD97":2541155.9900000002,"ADDRESS":"金華路一段３５２巷７５弄７號","OBJECTID":198714},"geometry":{"x":167206.06000000052,"y":2541155.9900000002}},{"attributes":{"ID":198716,"DIS_CODE":0,"TOWNNAME":"南區","LI":"明亮里","LIN":"18鄰","STREET":"金華路","SECT":"一段","MAREA":" ","LANE":"３５２巷","ALLEY":"７５弄","HOUSE_NO":"８號","E_COORD97":167221.72,"N_COORD97":2541131.4399999999,"ADDRESS":"金華路一段３５２巷７５弄８號","OBJECTID":198715},"geometry":{"x":167221.72000000067,"y":2541131.4399999995}},{"attributes":{"ID":198717,"DIS_CODE":0,"TOWNNAME":"南區","LI":"明亮里","LIN":"18鄰","STREET":"金華路","SECT":"一段","MAREA":" ","LANE":"３５２巷","ALLEY":"７５弄","HOUSE_NO":"９號","E_COORD97":167210.04999999999,"N_COORD97":2541159.3599999999,"ADDRESS":"金華路一段３５２巷７５弄９號","OBJECTID":198716},"geometry":{"x":167210.05000000075,"y":2541159.3599999994}},{"attributes":{"ID":198718,"DIS_CODE":0,"TOWNNAME":"南區","LI":"明亮里","LIN":"18鄰","STREET":"金華路","SECT":"一段","MAREA":" ","LANE":"３５２巷","ALLEY":"７５弄","HOUSE_NO":"１０號","E_COORD97":167224.17999999999,"N_COORD97":2541128.6800000002,"ADDRESS":"金華路一段３５２巷７５弄１０號","OBJECTID":198717},"geometry":{"x":167224.18000000063,"y":2541128.6800000016}},{"attributes":{"ID":198719,"DIS_CODE":0,"TOWNNAME":"南區","LI":"明亮里","LIN":"18鄰","STREET":"金華路","SECT":"一段","MAREA":" ","LANE":"３５２巷","ALLEY":"７５弄","HOUSE_NO":"１２號","E_COORD97":167227.87,"N_COORD97":2541126.23,"ADDRESS":"金華路一段３５２巷７５弄１２號","OBJECTID":198718},"geometry":{"x":167227.87000000104,"y":2541126.2300000004}},{"attributes":{"ID":198720,"DIS_CODE":0,"TOWNNAME":"南區","LI":"新生里","LIN":"9鄰","STREET":"大同路","SECT":"二段","MAREA":" ","LANE":"１６４巷","ALLEY":" ","HOUSE_NO":"２號","E_COORD97":169321.23000000001,"N_COORD97":2542047.3700000001,"ADDRESS":"大同路二段１６４巷２號","OBJECTID":198719},"geometry":{"x":169321.23000000138,"y":2542047.3700000029}},{"attributes":{"ID":198721,"DIS_CODE":0,"TOWNNAME":"柳營區","LI":"東昇里","LIN":"15鄰","STREET":"東南五街","SECT":" ","MAREA":" ","LANE":" ","ALLEY":" ","HOUSE_NO":"１２號","E_COORD97":180393.23999999999,"N_COORD97":2575175.2599999998,"ADDRESS":"東南五街１２號","OBJECTID":198720},"geometry":{"x":180393.24000000022,"y":2575175.2599999998}},{"attributes":{"ID":198722,"DIS_CODE":0,"TOWNNAME":"柳營區","LI":"東昇里","LIN":"15鄰","STREET":"東南五街","SECT":" ","MAREA":" ","LANE":" ","ALLEY":" ","HOUSE_NO":"１６號","E_COORD97":180385.60999999999,"N_COORD97":2575185.5099999998,"ADDRESS":"東南五街１６號","OBJECTID":198721},"geometry":{"x":180385.61000000034,"y":2575185.5100000016}},{"attributes":{"ID":198723,"DIS_CODE":0,"TOWNNAME":"柳營區","LI":"東昇里","LIN":"15鄰","STREET":"東南五街","SECT":" ","MAREA":" ","LANE":" ","ALLEY":" ","HOUSE_NO":"２６號","E_COORD97":180380.88,"N_COORD97":2575221.8199999998,"ADDRESS":"東南五街２６號","OBJECTID":198722},"geometry":{"x":180380.88000000082,"y":2575221.8200000022}},{"attributes":{"ID":198724,"DIS_CODE":0,"TOWNNAME":"安定區","LI":"海寮里","LIN":"3鄰","STREET":" ","SECT":" ","MAREA":"海寮","LANE":" ","ALLEY":" ","HOUSE_NO":"３０之９號","E_COORD97":169670.48999999999,"N_COORD97":2554749.2999999998,"ADDRESS":"海寮３０之９號","OBJECTID":198723},"geometry":{"x":169670.49000000115,"y":2554749.3000000007}},{"attributes":{"ID":198725,"DIS_CODE":0,"TOWNNAME":"安定區","LI":"中榮里","LIN":"3鄰","STREET":" ","SECT":" ","MAREA":"許中營","LANE":" ","ALLEY":" ","HOUSE_NO":"３０之２１號","E_COORD97":172444.89000000001,"N_COORD97":2554944.2999999998,"ADDRESS":"許中營３０之２１號","OBJECTID":198724},"geometry":{"x":172444.89000000153,"y":2554944.3000000026}},{"attributes":{"ID":198726,"DIS_CODE":0,"TOWNNAME":"安定區","LI":"港口里","LIN":"3鄰","STREET":" ","SECT":" ","MAREA":"港口","LANE":" ","ALLEY":" ","HOUSE_NO":"２６３之２號","E_COORD97":171564.95999999999,"N_COORD97":2554666.2999999998,"ADDRESS":"港口２６３號之２","OBJECTID":198725},"geometry":{"x":171564.96000000183,"y":2554666.3000000026}},{"attributes":{"ID":198727,"DIS_CODE":0,"TOWNNAME":"安定區","LI":"保西里","LIN":"3鄰","STREET":" ","SECT":" ","MAREA":"安定","LANE":" ","ALLEY":" ","HOUSE_NO":"３２８號","E_COORD97":171670.82000000001,"N_COORD97":2557608.3199999998,"ADDRESS":"安定３２８號","OBJECTID":198726},"geometry":{"x":171670.8200000003,"y":2557608.3200000022}},{"attributes":{"ID":198728,"DIS_CODE":0,"TOWNNAME":"安定區","LI":"海寮里","LIN":"3鄰","STREET":" ","SECT":" ","MAREA":"海寮","LANE":" ","ALLEY":" ","HOUSE_NO":"３０之８號","E_COORD97":169511.29000000001,"N_COORD97":2555272.2999999998,"ADDRESS":"海寮３０之８號","OBJECTID":198727},"geometry":{"x":169511.29000000004,"y":2555272.3000000045}},{"attributes":{"ID":198729,"DIS_CODE":0,"TOWNNAME":"安定區","LI":"港尾里","LIN":"3鄰","STREET":" ","SECT":" ","MAREA":"港子尾","LANE":" ","ALLEY":" ","HOUSE_NO":"１之９號","E_COORD97":171571.84,"N_COORD97":2556271.2999999998,"ADDRESS":"港子尾１之９號","OBJECTID":198728},"geometry":{"x":171571.83999999985,"y":2556271.3000000007}},{"attributes":{"ID":198730,"DIS_CODE":0,"TOWNNAME":"柳營區","LI":"東昇里","LIN":"15鄰","STREET":"東南五街","SECT":" ","MAREA":" ","LANE":" ","ALLEY":" ","HOUSE_NO":"２號","E_COORD97":180398.59,"N_COORD97":2575158.6400000001,"ADDRESS":"東南五街２號","OBJECTID":198729},"geometry":{"x":180398.58999999985,"y":2575158.6400000025}},{"attributes":{"ID":198731,"DIS_CODE":0,"TOWNNAME":"柳營區","LI":"東昇里","LIN":"15鄰","STREET":"東南五街","SECT":" ","MAREA":" ","LANE":" ","ALLEY":" ","HOUSE_NO":"３０號","E_COORD97":180381.13,"N_COORD97":2575230.6200000001,"ADDRESS":"東南五街３０號","OBJECTID":198730},"geometry":{"x":180381.13000000082,"y":2575230.6200000029}},{"attributes":{"ID":198732,"DIS_CODE":0,"TOWNNAME":"柳營區","LI":"東昇里","LIN":"15鄰","STREET":"東南五街","SECT":" ","MAREA":" ","LANE":" ","ALLEY":" ","HOUSE_NO":"３２號","E_COORD97":180380.89999999999,"N_COORD97":2575238.71,"ADDRESS":"東南五街３２號","OBJECTID":198731},"geometry":{"x":180380.9000000013,"y":2575238.7100000009}},{"attributes":{"ID":198733,"DIS_CODE":0,"TOWNNAME":"六甲區","LI":"中社里","LIN":"9鄰","STREET":" ","SECT":" ","MAREA":"中社","LANE":" ","ALLEY":" ","HOUSE_NO":"３１７號","E_COORD97":180993.41,"N_COORD97":2570813.1299999999,"ADDRESS":"中社３１７號","OBJECTID":198732},"geometry":{"x":180993.41000000015,"y":2570813.1300000027}},{"attributes":{"ID":198734,"DIS_CODE":0,"TOWNNAME":"新營區","LI":"五興里","LIN":"9鄰","STREET":" ","SECT":" ","MAREA":"五間厝","LANE":" ","ALLEY":" ","HOUSE_NO":"１０１號之１０","E_COORD97":175627.66,"N_COORD97":2574892.9700000002,"ADDRESS":"五間厝１０１號之１０","OBJECTID":198733},"geometry":{"x":175627.66000000108,"y":2574892.9700000007}},{"attributes":{"ID":198735,"DIS_CODE":0,"TOWNNAME":"安定區","LI":"安加里","LIN":"3鄰","STREET":" ","SECT":" ","MAREA":"安定","LANE":" ","ALLEY":" ","HOUSE_NO":"１８１號","E_COORD97":171869.42000000001,"N_COORD97":2557594.3199999998,"ADDRESS":"安定１８１號","OBJECTID":198734},"geometry":{"x":171869.42000000086,"y":2557594.320000004}},{"attributes":{"ID":198736,"DIS_CODE":0,"TOWNNAME":"安定區","LI":"六嘉里","LIN":"3鄰","STREET":" ","SECT":" ","MAREA":"六塊寮","LANE":" ","ALLEY":" ","HOUSE_NO":"２１號之２","E_COORD97":170080.19,"N_COORD97":2553438.2999999998,"ADDRESS":"六塊寮２１號之２","OBJECTID":198735},"geometry":{"x":170080.19000000041,"y":2553438.3000000045}},{"attributes":{"ID":198737,"DIS_CODE":0,"TOWNNAME":"安定區","LI":"安加里","LIN":"3鄰","STREET":" ","SECT":" ","MAREA":"安定","LANE":" ","ALLEY":" ","HOUSE_NO":"１８８號","E_COORD97":171859.42000000001,"N_COORD97":2557664.3199999998,"ADDRESS":"安定１８８號","OBJECTID":198736},"geometry":{"x":171859.41999999993,"y":2557664.3200000003}},{"attributes":{"ID":198738,"DIS_CODE":0,"TOWNNAME":"南區","LI":"明亮里","LIN":"18鄰","STREET":"金華路","SECT":"一段","MAREA":" ","LANE":"３５２巷","ALLEY":"７５弄","HOUSE_NO":"１４號","E_COORD97":167230.94,"N_COORD97":2541123.46,"ADDRESS":"金華路一段３５２巷７５弄１４號","OBJECTID":198737},"geometry":{"x":167230.94000000227,"y":2541123.4600000046}},{"attributes":{"ID":198739,"DIS_CODE":0,"TOWNNAME":"南區","LI":"明亮里","LIN":"18鄰","STREET":"金華路","SECT":"一段","MAREA":" ","LANE":"３５２巷","ALLEY":"７５弄","HOUSE_NO":"１６號","E_COORD97":167234.62,"N_COORD97":2541121.0099999998,"ADDRESS":"金華路一段３５２巷７５弄１６號","OBJECTID":198738},"geometry":{"x":167234.62000000104,"y":2541121.0099999998}},{"attributes":{"ID":198740,"DIS_CODE":0,"TOWNNAME":"南區","LI":"明亮里","LIN":"18鄰","STREET":"金華路","SECT":"一段","MAREA":" ","LANE":"３５２巷","ALLEY":"７５弄","HOUSE_NO":"１８號","E_COORD97":167238.31,"N_COORD97":2541129.29,"ADDRESS":"金華路一段３５２巷７５弄１８號","OBJECTID":198739},"geometry":{"x":167238.31000000052,"y":2541129.2900000028}},{"attributes":{"ID":198741,"DIS_CODE":0,"TOWNNAME":"南區","LI":"明亮里","LIN":"18鄰","STREET":"金華路","SECT":"一段","MAREA":" ","LANE":"３５２巷","ALLEY":"７５弄","HOUSE_NO":"２０號","E_COORD97":167233.70000000001,"N_COORD97":2541132.98,"ADDRESS":"金華路一段３５２巷７５弄２０號","OBJECTID":198740},"geometry":{"x":167233.70000000019,"y":2541132.9800000042}},{"attributes":{"ID":198742,"DIS_CODE":0,"TOWNNAME":"南區","LI":"明亮里","LIN":"18鄰","STREET":"金華路","SECT":"一段","MAREA":" ","LANE":"３５２巷","ALLEY":"７５弄","HOUSE_NO":"２２號","E_COORD97":167230.63,"N_COORD97":2541135.4300000002,"ADDRESS":"金華路一段３５２巷７５弄２２號","OBJECTID":198741},"geometry":{"x":167230.62999999989,"y":2541135.4299999997}},{"attributes":{"ID":198743,"DIS_CODE":0,"TOWNNAME":"南區","LI":"明亮里","LIN":"18鄰","STREET":"金華路","SECT":"一段","MAREA":" ","LANE":"３５２巷","ALLEY":"７５弄","HOUSE_NO":"２４號","E_COORD97":167227.25,"N_COORD97":2541138.5,"ADDRESS":"金華路一段３５２巷７５弄２４號","OBJECTID":198742},"geometry":{"x":167227.25000000093,"y":2541138.5}},{"attributes":{"ID":198744,"DIS_CODE":0,"TOWNNAME":"南區","LI":"明亮里","LIN":"18鄰","STREET":"金華路","SECT":"一段","MAREA":" ","LANE":"３５２巷","ALLEY":"７５弄","HOUSE_NO":"２６號","E_COORD97":167224.48999999999,"N_COORD97":2541140.6499999999,"ADDRESS":"金華路一段３５２巷７５弄２６號","OBJECTID":198743},"geometry":{"x":167224.49000000022,"y":2541140.6500000004}},{"attributes":{"ID":198745,"DIS_CODE":0,"TOWNNAME":"南區","LI":"明亮里","LIN":"18鄰","STREET":"金華路","SECT":"一段","MAREA":" ","LANE":"３５２巷","ALLEY":"７５弄","HOUSE_NO":"２８號","E_COORD97":167219.88,"N_COORD97":2541145.5499999998,"ADDRESS":"金華路一段３５２巷７５弄２８號","OBJECTID":198744},"geometry":{"x":167219.87999999989,"y":2541145.5500000007}},{"attributes":{"ID":198746,"DIS_CODE":0,"TOWNNAME":"南區","LI":"明亮里","LIN":"18鄰","STREET":"金華路","SECT":"一段","MAREA":" ","LANE":"３５２巷","ALLEY":"７５弄","HOUSE_NO":"３２號","E_COORD97":167239.85000000001,"N_COORD97":2541157.52,"ADDRESS":"金華路一段３５２巷７５弄３２號","OBJECTID":198745},"geometry":{"x":167239.85000000056,"y":2541157.5199999996}},{"attributes":{"ID":198747,"DIS_CODE":0,"TOWNNAME":"南區","LI":"明亮里","LIN":"18鄰","STREET":"金華路","SECT":"一段","MAREA":" ","LANE":"３５２巷","ALLEY":"７５弄","HOUSE_NO":"３４號","E_COORD97":167242.92000000001,"N_COORD97":2541155.0600000001,"ADDRESS":"金華路一段３５２巷７５弄３４號","OBJECTID":198746},"geometry":{"x":167242.92000000086,"y":2541155.0600000005}},{"attributes":{"ID":198748,"DIS_CODE":0,"TOWNNAME":"南區","LI":"明亮里","LIN":"18鄰","STREET":"金華路","SECT":"一段","MAREA":" ","LANE":"３５２巷","ALLEY":"７５弄","HOUSE_NO":"３６號","E_COORD97":167246.60999999999,"N_COORD97":2541153.2200000002,"ADDRESS":"金華路一段３５２巷７５弄３６號","OBJECTID":198747},"geometry":{"x":167246.6100000022,"y":2541153.2200000025}},{"attributes":{"ID":198749,"DIS_CODE":0,"TOWNNAME":"南區","LI":"明亮里","LIN":"18鄰","STREET":"金華路","SECT":"一段","MAREA":" ","LANE":"３５２巷","ALLEY":"７５弄","HOUSE_NO":"３８號","E_COORD97":167249.37,"N_COORD97":2541149.8500000001,"ADDRESS":"金華路一段３５２巷７５弄３８號","OBJECTID":198748},"geometry":{"x":167249.37000000011,"y":2541149.8500000034}},{"attributes":{"ID":198750,"DIS_CODE":0,"TOWNNAME":"南區","LI":"明亮里","LIN":"18鄰","STREET":"金華路","SECT":"一段","MAREA":" ","LANE":"３５２巷","ALLEY":"７５弄","HOUSE_NO":"４０號","E_COORD97":167252.44,"N_COORD97":2541147.3900000001,"ADDRESS":"金華路一段３５２巷７５弄４０號","OBJECTID":198749},"geometry":{"x":167252.44000000041,"y":2541147.3900000043}},{"attributes":{"ID":198751,"DIS_CODE":0,"TOWNNAME":"南區","LI":"明亮里","LIN":"18鄰","STREET":"金華路","SECT":"一段","MAREA":" ","LANE":"３５２巷","ALLEY":"７５弄","HOUSE_NO":"４２號","E_COORD97":167253.98000000001,"N_COORD97":2541159.9700000002,"ADDRESS":"金華路一段３５２巷７５弄４２號","OBJECTID":198750},"geometry":{"x":167253.98000000045,"y":2541159.9700000007}},{"attributes":{"ID":198752,"DIS_CODE":0,"TOWNNAME":"南區","LI":"明亮里","LIN":"18鄰","STREET":"金華路","SECT":"一段","MAREA":" ","LANE":"３５２巷","ALLEY":"７５弄","HOUSE_NO":"４６號","E_COORD97":167248.76000000001,"N_COORD97":2541171.6299999999,"ADDRESS":"金華路一段３５２巷７５弄４６號","OBJECTID":198751},"geometry":{"x":167248.76000000071,"y":2541171.6300000008}},{"attributes":{"ID":198753,"DIS_CODE":0,"TOWNNAME":"柳營區","LI":"東昇里","LIN":"15鄰","STREET":"東南五街","SECT":" ","MAREA":" ","LANE":" ","ALLEY":" ","HOUSE_NO":"３６號","E_COORD97":180381.07000000001,"N_COORD97":2575242.73,"ADDRESS":"東南五街３６號","OBJECTID":198752},"geometry":{"x":180381.0700000003,"y":2575242.7300000023}},{"attributes":{"ID":198754,"DIS_CODE":0,"TOWNNAME":"柳營區","LI":"東昇里","LIN":"15鄰","STREET":"東南五街","SECT":" ","MAREA":" ","LANE":" ","ALLEY":" ","HOUSE_NO":"４６號","E_COORD97":180389.97,"N_COORD97":2575263.0899999999,"ADDRESS":"東南五街４６號","OBJECTID":198753},"geometry":{"x":180389.97000000067,"y":2575263.0900000017}},{"attributes":{"ID":198755,"DIS_CODE":0,"TOWNNAME":"南區","LI":"彰南里","LIN":"15鄰","STREET":"新信路","SECT":" ","MAREA":" ","LANE":" ","ALLEY":" ","HOUSE_NO":"３號之２","E_COORD97":166169.85000000001,"N_COORD97":2541517.2599999998,"ADDRESS":"新信路３號之２","OBJECTID":198754},"geometry":{"x":166169.85000000056,"y":2541517.2600000016}},{"attributes":{"ID":198756,"DIS_CODE":0,"TOWNNAME":"南區","LI":"彰南里","LIN":"15鄰","STREET":"中華西路","SECT":"一段","MAREA":" ","LANE":" ","ALLEY":" ","HOUSE_NO":"６３號","E_COORD97":166253.66,"N_COORD97":2541446.8500000001,"ADDRESS":"中華西路一段６３號","OBJECTID":198755},"geometry":{"x":166253.66000000015,"y":2541446.8499999996}},{"attributes":{"ID":198757,"DIS_CODE":0,"TOWNNAME":"南區","LI":"彰南里","LIN":"15鄰","STREET":"新義路","SECT":" ","MAREA":" ","LANE":" ","ALLEY":" ","HOUSE_NO":"１０號","E_COORD97":165991.17000000001,"N_COORD97":2541291.4199999999,"ADDRESS":"新義路１０號","OBJECTID":198756},"geometry":{"x":165991.16999999993,"y":2541291.4199999999}},{"attributes":{"ID":198758,"DIS_CODE":0,"TOWNNAME":"南區","LI":"彰南里","LIN":"15鄰","STREET":"新義路","SECT":" ","MAREA":" ","LANE":" ","ALLEY":" ","HOUSE_NO":"１０號之１","E_COORD97":165963.67000000001,"N_COORD97":2541304.21,"ADDRESS":"新義路１０號之１","OBJECTID":198757},"geometry":{"x":165963.66999999993,"y":2541304.2100000009}},{"attributes":{"ID":198759,"DIS_CODE":0,"TOWNNAME":"南區","LI":"彰南里","LIN":"15鄰","STREET":"新義路","SECT":" ","MAREA":" ","LANE":" ","ALLEY":" ","HOUSE_NO":"１２號","E_COORD97":165928.57999999999,"N_COORD97":2541305.1600000001,"ADDRESS":"新義路１２號","OBJECTID":198758},"geometry":{"x":165928.58000000007,"y":2541305.160000002}},{"attributes":{"ID":198760,"DIS_CODE":0,"TOWNNAME":"南區","LI":"彰南里","LIN":"15鄰","STREET":"新義路","SECT":" ","MAREA":" ","LANE":" ","ALLEY":" ","HOUSE_NO":"１６號","E_COORD97":165837.13,"N_COORD97":2541312.48,"ADDRESS":"新義路１６號","OBJECTID":198759},"geometry":{"x":165837.12999999989,"y":2541312.4800000042}},{"attributes":{"ID":198761,"DIS_CODE":0,"TOWNNAME":"南區","LI":"彰南里","LIN":"15鄰","STREET":"新義路","SECT":" ","MAREA":" ","LANE":" ","ALLEY":" ","HOUSE_NO":"１８號","E_COORD97":165793.16,"N_COORD97":2541308.8199999998,"ADDRESS":"新義路１８號","OBJECTID":198760},"geometry":{"x":165793.16000000015,"y":2541308.8200000003}},{"attributes":{"ID":198762,"DIS_CODE":0,"TOWNNAME":"南區","LI":"彰南里","LIN":"15鄰","STREET":"新義路","SECT":" ","MAREA":" ","LANE":" ","ALLEY":" ","HOUSE_NO":"２２號","E_COORD97":165704.39999999999,"N_COORD97":2541319.3999999999,"ADDRESS":"新義路２２號","OBJECTID":198761},"geometry":{"x":165704.4000000013,"y":2541319.4000000004}},{"attributes":{"ID":198763,"DIS_CODE":0,"TOWNNAME":"安平區","LI":"文平里","LIN":"9鄰","STREET":"建平七街","SECT":" ","MAREA":" ","LANE":" ","ALLEY":" ","HOUSE_NO":"２０８號","E_COORD97":166036.66,"N_COORD97":2543278.27,"ADDRESS":"建平七街２０８號","OBJECTID":198762},"geometry":{"x":166036.66000000015,"y":2543278.2699999996}},{"attributes":{"ID":198764,"DIS_CODE":0,"TOWNNAME":"新營區","LI":"太南里","LIN":"9鄰","STREET":" ","SECT":" ","MAREA":"太子宮","LANE":" ","ALLEY":" ","HOUSE_NO":"２３９之１號","E_COORD97":175955.07999999999,"N_COORD97":2576914.6499999999,"ADDRESS":"太子宮２３９之１號","OBJECTID":198763},"geometry":{"x":175955.08000000101,"y":2576914.6500000022}},{"attributes":{"ID":198765,"DIS_CODE":0,"TOWNNAME":"玉井區","LI":"望明里","LIN":"9鄰","STREET":" ","SECT":" ","MAREA":"劉陳","LANE":" ","ALLEY":" ","HOUSE_NO":"１３０號","E_COORD97":193522.85999999999,"N_COORD97":2556240.2400000002,"ADDRESS":"劉陳１３０號","OBJECTID":198764},"geometry":{"x":193522.86000000127,"y":2556240.2400000002}},{"attributes":{"ID":198766,"DIS_CODE":0,"TOWNNAME":"安定區","LI":"大同里","LIN":"3鄰","STREET":" ","SECT":" ","MAREA":"大同","LANE":" ","ALLEY":" ","HOUSE_NO":"２７號","E_COORD97":170482.37,"N_COORD97":2553908.25,"ADDRESS":"大同２７號","OBJECTID":198765},"geometry":{"x":170482.36999999918,"y":2553908.25}},{"attributes":{"ID":198767,"DIS_CODE":0,"TOWNNAME":"安定區","LI":"大同里","LIN":"3鄰","STREET":" ","SECT":" ","MAREA":"大同","LANE":" ","ALLEY":" ","HOUSE_NO":"３１號","E_COORD97":170430.67000000001,"N_COORD97":2553904.25,"ADDRESS":"大同３１號","OBJECTID":198766},"geometry":{"x":170430.66999999993,"y":2553904.25}},{"attributes":{"ID":198768,"DIS_CODE":0,"TOWNNAME":"安定區","LI":"大同里","LIN":"3鄰","STREET":" ","SECT":" ","MAREA":"大同","LANE":" ","ALLEY":" ","HOUSE_NO":"２５之１號","E_COORD97":170503.87,"N_COORD97":2553929.2999999998,"ADDRESS":"大同２５之１號","OBJECTID":198767},"geometry":{"x":170503.87000000011,"y":2553929.3000000007}},{"attributes":{"ID":198769,"DIS_CODE":0,"TOWNNAME":"安定區","LI":"安定里","LIN":"3鄰","STREET":" ","SECT":" ","MAREA":"安定","LANE":" ","ALLEY":" ","HOUSE_NO":"４號","E_COORD97":172640.92000000001,"N_COORD97":2558070.3199999998,"ADDRESS":"安定４號","OBJECTID":198768},"geometry":{"x":172640.91999999993,"y":2558070.3200000022}},{"attributes":{"ID":198770,"DIS_CODE":0,"TOWNNAME":"安定區","LI":"中榮里","LIN":"3鄰","STREET":" ","SECT":" ","MAREA":"許中營","LANE":" ","ALLEY":" ","HOUSE_NO":"３５之８號","E_COORD97":172419.54000000001,"N_COORD97":2554992.2999999998,"ADDRESS":"許中營３５之８號","OBJECTID":198769},"geometry":{"x":172419.54000000097,"y":2554992.3000000026}},{"attributes":{"ID":198771,"DIS_CODE":0,"TOWNNAME":"安定區","LI":"大同里","LIN":"3鄰","STREET":" ","SECT":" ","MAREA":"大同","LANE":" ","ALLEY":" ","HOUSE_NO":"３５號","E_COORD97":170487.47,"N_COORD97":2553946.25,"ADDRESS":"大同３５號","OBJECTID":198770},"geometry":{"x":170487.46999999974,"y":2553946.2500000037}},{"attributes":{"ID":198772,"DIS_CODE":0,"TOWNNAME":"安定區","LI":"中榮里","LIN":"3鄰","STREET":" ","SECT":" ","MAREA":"許中營","LANE":" ","ALLEY":" ","HOUSE_NO":"３５之２號","E_COORD97":172451.94,"N_COORD97":2555005.2999999998,"ADDRESS":"許中營３５之２號","OBJECTID":198771},"geometry":{"x":172451.94000000041,"y":2555005.3000000026}},{"attributes":{"ID":198773,"DIS_CODE":0,"TOWNNAME":"安定區","LI":"港尾里","LIN":"3鄰","STREET":" ","SECT":" ","MAREA":"港子尾","LANE":" ","ALLEY":" ","HOUSE_NO":"１５之１２號","E_COORD97":171651.64000000001,"N_COORD97":2556108.2999999998,"ADDRESS":"港子尾１５之１２號","OBJECTID":198772},"geometry":{"x":171651.64000000153,"y":2556108.3000000007}},{"attributes":{"ID":198774,"DIS_CODE":0,"TOWNNAME":"安定區","LI":"安定里","LIN":"3鄰","STREET":" ","SECT":" ","MAREA":"安定","LANE":" ","ALLEY":" ","HOUSE_NO":"２之８號","E_COORD97":172727.12,"N_COORD97":2558049.3199999998,"ADDRESS":"安定２之８號","OBJECTID":198773},"geometry":{"x":172727.12000000104,"y":2558049.3200000022}},{"attributes":{"ID":198775,"DIS_CODE":0,"TOWNNAME":"安定區","LI":"六嘉里","LIN":"3鄰","STREET":" ","SECT":" ","MAREA":"六塊寮","LANE":" ","ALLEY":" ","HOUSE_NO":"２２號之１５","E_COORD97":170032.16,"N_COORD97":2553500.2999999998,"ADDRESS":"六塊寮２２號之１５","OBJECTID":198774},"geometry":{"x":170032.16000000108,"y":2553500.3000000026}},{"attributes":{"ID":198776,"DIS_CODE":0,"TOWNNAME":"安定區","LI":"港尾里","LIN":"3鄰","STREET":" ","SECT":" ","MAREA":"港子尾","LANE":" ","ALLEY":" ","HOUSE_NO":"１２之４號","E_COORD97":171637.69,"N_COORD97":2556171.2999999998,"ADDRESS":"港子尾１２之４號","OBJECTID":198775},"geometry":{"x":171637.69000000041,"y":2556171.3000000026}},{"attributes":{"ID":198777,"DIS_CODE":0,"TOWNNAME":"安定區","LI":"大同里","LIN":"3鄰","STREET":" ","SECT":" ","MAREA":"大同","LANE":" ","ALLEY":" ","HOUSE_NO":"３０號","E_COORD97":170448.26999999999,"N_COORD97":2553883.25,"ADDRESS":"大同３０號","OBJECTID":198776},"geometry":{"x":170448.26999999955,"y":2553883.2500000019}},{"attributes":{"ID":198778,"DIS_CODE":0,"TOWNNAME":"安定區","LI":"安定里","LIN":"3鄰","STREET":" ","SECT":" ","MAREA":"安定","LANE":" ","ALLEY":" ","HOUSE_NO":"１之５號","E_COORD97":173164.22,"N_COORD97":2557587.3199999998,"ADDRESS":"安定１之５號","OBJECTID":198777},"geometry":{"x":173164.21999999974,"y":2557587.320000004}},{"attributes":{"ID":198779,"DIS_CODE":0,"TOWNNAME":"南區","LI":"明亮里","LIN":"18鄰","STREET":"金華路","SECT":"一段","MAREA":" ","LANE":"３５２巷","ALLEY":"７５弄","HOUSE_NO":"４８號","E_COORD97":167245.67999999999,"N_COORD97":2541166.1099999999,"ADDRESS":"金華路一段３５２巷７５弄４８號","OBJECTID":198778},"geometry":{"x":167245.68000000063,"y":2541166.1100000013}},{"attributes":{"ID":198780,"DIS_CODE":0,"TOWNNAME":"南區","LI":"省躬里","LIN":"18鄰","STREET":"灣裡路","SECT":" ","MAREA":" ","LANE":"８８巷","ALLEY":"５２弄","HOUSE_NO":"２８號","E_COORD97":165761.53,"N_COORD97":2536788.0299999998,"ADDRESS":"灣裡路８８巷５２弄２８號","OBJECTID":198779},"geometry":{"x":165761.53000000026,"y":2536788.0299999975}},{"attributes":{"ID":198781,"DIS_CODE":0,"TOWNNAME":"東區","LI":"大德里","LIN":"18鄰","STREET":"立德十一路","SECT":" ","MAREA":" ","LANE":"５５巷","ALLEY":"３８弄","HOUSE_NO":"１０號","E_COORD97":169518.78,"N_COORD97":2542191.5299999998,"ADDRESS":"立德十一路５５巷３８弄１０號","OBJECTID":198780},"geometry":{"x":169518.78000000212,"y":2542191.5299999993}},{"attributes":{"ID":198782,"DIS_CODE":0,"TOWNNAME":"東區","LI":"大德里","LIN":"18鄰","STREET":"立德十一路","SECT":" ","MAREA":" ","LANE":"５５巷","ALLEY":"３８弄","HOUSE_NO":"１５號","E_COORD97":169510.06,"N_COORD97":2542208.29,"ADDRESS":"立德十一路５５巷３８弄１５號","OBJECTID":198781},"geometry":{"x":169510.06000000052,"y":2542208.290000001}},{"attributes":{"ID":198783,"DIS_CODE":0,"TOWNNAME":"東區","LI":"大德里","LIN":"18鄰","STREET":"立德十一路","SECT":" ","MAREA":" ","LANE":"５５巷","ALLEY":"３８弄","HOUSE_NO":"１７號","E_COORD97":169507.42999999999,"N_COORD97":2542215.9399999999,"ADDRESS":"立德十一路５５巷３８弄１７號","OBJECTID":198782},"geometry":{"x":169507.43000000063,"y":2542215.9399999995}},{"attributes":{"ID":198784,"DIS_CODE":0,"TOWNNAME":"東區","LI":"大德里","LIN":"18鄰","STREET":"立德十一路","SECT":" ","MAREA":" ","LANE":"５５巷","ALLEY":"３８弄","HOUSE_NO":"１８號","E_COORD97":169504.79999999999,"N_COORD97":2542225.1200000001,"ADDRESS":"立德十一路５５巷３８弄１８號","OBJECTID":198783},"geometry":{"x":169504.80000000075,"y":2542225.1200000029}},{"attributes":{"ID":198785,"DIS_CODE":0,"TOWNNAME":"東區","LI":"大德里","LIN":"18鄰","STREET":"立德十一路","SECT":" ","MAREA":" ","LANE":"５５巷","ALLEY":"３８弄","HOUSE_NO":"１９號","E_COORD97":169503.29000000001,"N_COORD97":2542228.79,"ADDRESS":"立德十一路５５巷３８弄１９號","OBJECTID":198784},"geometry":{"x":169503.29000000097,"y":2542228.790000001}},{"attributes":{"ID":198786,"DIS_CODE":0,"TOWNNAME":"安定區","LI":"港口里","LIN":"3鄰","STREET":" ","SECT":" ","MAREA":"港口","LANE":" ","ALLEY":" ","HOUSE_NO":"２５３號之２７","E_COORD97":171691.25,"N_COORD97":2554882.2999999998,"ADDRESS":"港口２５３號之２７","OBJECTID":198785},"geometry":{"x":171691.25,"y":2554882.3000000045}},{"attributes":{"ID":198787,"DIS_CODE":0,"TOWNNAME":"安定區","LI":"港尾里","LIN":"3鄰","STREET":" ","SECT":" ","MAREA":"港子尾","LANE":" ","ALLEY":" ","HOUSE_NO":"１之１號","E_COORD97":171584.94,"N_COORD97":2556254.2999999998,"ADDRESS":"港子尾１之１號","OBJECTID":198786},"geometry":{"x":171584.94000000134,"y":2556254.3000000007}},{"attributes":{"ID":198788,"DIS_CODE":0,"TOWNNAME":"東區","LI":"大德里","LIN":"18鄰","STREET":"立德十一路","SECT":" ","MAREA":" ","LANE":"５５巷","ALLEY":"３８弄","HOUSE_NO":"１２號","E_COORD97":169522.82999999999,"N_COORD97":2542205.5899999999,"ADDRESS":"立德十一路５５巷３８弄１２號","OBJECTID":198787},"geometry":{"x":169522.83000000007,"y":2542205.5899999999}},{"attributes":{"ID":198789,"DIS_CODE":0,"TOWNNAME":"安定區","LI":"港口里","LIN":"3鄰","STREET":" ","SECT":" ","MAREA":"港口","LANE":" ","ALLEY":" ","HOUSE_NO":"２５２號之１２","E_COORD97":171543.81,"N_COORD97":2554766.2999999998,"ADDRESS":"港口２５２號之１２","OBJECTID":198788},"geometry":{"x":171543.81000000052,"y":2554766.3000000007}},{"attributes":{"ID":198790,"DIS_CODE":0,"TOWNNAME":"安定區","LI":"港尾里","LIN":"3鄰","STREET":" ","SECT":" ","MAREA":"港子尾","LANE":" ","ALLEY":" ","HOUSE_NO":"１５號之７","E_COORD97":171638.60000000001,"N_COORD97":2556140.2999999998,"ADDRESS":"港子尾１５號之７","OBJECTID":198789},"geometry":{"x":171638.60000000056,"y":2556140.3000000045}},{"attributes":{"ID":198791,"DIS_CODE":0,"TOWNNAME":"東區","LI":"大德里","LIN":"18鄰","STREET":"立德十一路","SECT":" ","MAREA":" ","LANE":"５５巷","ALLEY":"３８弄","HOUSE_NO":"１３號","E_COORD97":169516.67000000001,"N_COORD97":2542205.8100000001,"ADDRESS":"立德十一路５５巷３８弄１３號","OBJECTID":198790},"geometry":{"x":169516.66999999993,"y":2542205.8100000024}},{"attributes":{"ID":198792,"DIS_CODE":0,"TOWNNAME":"安定區","LI":"港尾里","LIN":"3鄰","STREET":" ","SECT":" ","MAREA":"港子尾","LANE":" ","ALLEY":" ","HOUSE_NO":"１之５號","E_COORD97":171483.23999999999,"N_COORD97":2556302.2999999998,"ADDRESS":"港子尾１之５號","OBJECTID":198791},"geometry":{"x":171483.24000000022,"y":2556302.3000000007}},{"attributes":{"ID":198793,"DIS_CODE":0,"TOWNNAME":"歸仁區","LI":"南興里","LIN":"9鄰","STREET":"文化街","SECT":"三段","MAREA":" ","LANE":" ","ALLEY":" ","HOUSE_NO":"３９０號","E_COORD97":176067.23999999999,"N_COORD97":2541208.3300000001,"ADDRESS":"文化街三段３９０號","OBJECTID":198792},"geometry":{"x":176067.24000000022,"y":2541208.3300000038}},{"attributes":{"ID":198794,"DIS_CODE":0,"TOWNNAME":"東區","LI":"大德里","LIN":"18鄰","STREET":"立德十一路","SECT":" ","MAREA":" ","LANE":"５５巷","ALLEY":"３８弄","HOUSE_NO":"１４號","E_COORD97":169511.48999999999,"N_COORD97":2542201.1400000001,"ADDRESS":"立德十一路５５巷３８弄１４號","OBJECTID":198793},"geometry":{"x":169511.49000000022,"y":2542201.1400000025}},{"attributes":{"ID":198795,"DIS_CODE":0,"TOWNNAME":"東區","LI":"崇信里","LIN":"18鄰","STREET":"崇善一街","SECT":" ","MAREA":" ","LANE":"３巷","ALLEY":"６弄","HOUSE_NO":"３號","E_COORD97":170656.63,"N_COORD97":2542193.7000000002,"ADDRESS":"崇善一街３巷６弄３號","OBJECTID":198794},"geometry":{"x":170656.62999999896,"y":2542193.6999999993}},{"attributes":{"ID":198796,"DIS_CODE":0,"TOWNNAME":"北區","LI":"公園里","LIN":"9鄰","STREET":"公園南路","SECT":" ","MAREA":" ","LANE":" ","ALLEY":" ","HOUSE_NO":"３９號","E_COORD97":169181.16,"N_COORD97":2544518.52,"ADDRESS":"公園南路３９號","OBJECTID":198795},"geometry":{"x":169181.16000000108,"y":2544518.5200000033}},{"attributes":{"ID":198797,"DIS_CODE":0,"TOWNNAME":"北區","LI":"公園里","LIN":"9鄰","STREET":"公園南路","SECT":" ","MAREA":" ","LANE":" ","ALLEY":" ","HOUSE_NO":"４１號","E_COORD97":169169.48999999999,"N_COORD97":2544512.6800000002,"ADDRESS":"公園南路４１號","OBJECTID":198796},"geometry":{"x":169169.49000000022,"y":2544512.6799999997}},{"attributes":{"ID":198798,"DIS_CODE":0,"TOWNNAME":"安定區","LI":"港尾里","LIN":"3鄰","STREET":" ","SECT":" ","MAREA":"港子尾","LANE":" ","ALLEY":" ","HOUSE_NO":"１５之１５號","E_COORD97":171688.73999999999,"N_COORD97":2556197.2999999998,"ADDRESS":"港子尾１５之１５號","OBJECTID":198797},"geometry":{"x":171688.74000000209,"y":2556197.3000000007}},{"attributes":{"ID":198799,"DIS_CODE":0,"TOWNNAME":"安定區","LI":"港口里","LIN":"3鄰","STREET":" ","SECT":" ","MAREA":"港口","LANE":" ","ALLEY":" ","HOUSE_NO":"２５３號之３１","E_COORD97":171687.98000000001,"N_COORD97":2554865.2999999998,"ADDRESS":"港口２５３號之３１","OBJECTID":198798},"geometry":{"x":171687.98000000138,"y":2554865.3000000045}},{"attributes":{"ID":198800,"DIS_CODE":0,"TOWNNAME":"安定區","LI":"港口里","LIN":"3鄰","STREET":" ","SECT":" ","MAREA":"港口","LANE":" ","ALLEY":" ","HOUSE_NO":"２５２號之１１","E_COORD97":171544.48000000001,"N_COORD97":2554762.2999999998,"ADDRESS":"港口２５２號之１１","OBJECTID":198799},"geometry":{"x":171544.48000000045,"y":2554762.3000000007}},{"attributes":{"ID":198801,"DIS_CODE":0,"TOWNNAME":"北區","LI":"公園里","LIN":"9鄰","STREET":"公園南路","SECT":" ","MAREA":" ","LANE":" ","ALLEY":" ","HOUSE_NO":"４７號","E_COORD97":169170.23999999999,"N_COORD97":2544523.8700000001,"ADDRESS":"公園南路４７號","OBJECTID":198800},"geometry":{"x":169170.24000000115,"y":2544523.870000001}}]}