{"displayFieldName":"TOWNNAME","fieldAliases":{"ID":"ID","DIS_CODE":"DIS_CODE","TOWNNAME":"TOWNNAME","LI":"LI","LIN":"LIN","STREET":"STREET","SECT":"SECT","MAREA":"MAREA","LANE":"LANE","ALLEY":"ALLEY","HOUSE_NO":"HOUSE_NO","E_COORD97":"E_COORD97","N_COORD97":"N_COORD97","ADDRESS":"ADDRESS","OBJECTID":"OBJECTID"},"geometryType":"esriGeometryPoint","spatialReference":{"wkid":102443,"latestWkid":3826},"fields":[{"name":"ID","type":"esriFieldTypeDouble","alias":"ID"},{"name":"DIS_CODE","type":"esriFieldTypeInteger","alias":"DIS_CODE"},{"name":"TOWNNAME","type":"esriFieldTypeString","alias":"TOWNNAME","length":8},{"name":"LI","type":"esriFieldTypeString","alias":"LI","length":8},{"name":"LIN","type":"esriFieldTypeString","alias":"LIN","length":12},{"name":"STREET","type":"esriFieldTypeString","alias":"STREET","length":20},{"name":"SECT","type":"esriFieldTypeString","alias":"SECT","length":8},{"name":"MAREA","type":"esriFieldTypeString","alias":"MAREA","length":12},{"name":"LANE","type":"esriFieldTypeString","alias":"LANE","length":10},{"name":"ALLEY","type":"esriFieldTypeString","alias":"ALLEY","length":10},{"name":"HOUSE_NO","type":"esriFieldTypeString","alias":"HOUSE_NO","length":20},{"name":"E_COORD97","type":"esriFieldTypeDouble","alias":"E_COORD97"},{"name":"N_COORD97","type":"esriFieldTypeDouble","alias":"N_COORD97"},{"name":"ADDRESS","type":"esriFieldTypeString","alias":"ADDRESS","length":50},{"name":"OBJECTID","type":"esriFieldTypeOID","alias":"OBJECTID"}],"features":[{"attributes":{"ID":36201,"DIS_CODE":0,"TOWNNAME":"龍崎區","LI":"土崎里","LIN":"7鄰","STREET":" ","SECT":" ","MAREA":"土崎","LANE":" ","ALLEY":" ","HOUSE_NO":"２７號","E_COORD97":188188.17000000001,"N_COORD97":2542425.25,"ADDRESS":"土崎２７號","OBJECTID":36201},"geometry":{"x":188188.17000000179,"y":2542425.25}},{"attributes":{"ID":36202,"DIS_CODE":0,"TOWNNAME":"龍崎區","LI":"土崎里","LIN":"7鄰","STREET":" ","SECT":" ","MAREA":"土崎","LANE":" ","ALLEY":" ","HOUSE_NO":"２８之２號","E_COORD97":188156.26999999999,"N_COORD97":2542296.2999999998,"ADDRESS":"土崎２８之２號","OBJECTID":36202},"geometry":{"x":188156.26999999955,"y":2542296.3000000007}},{"attributes":{"ID":36203,"DIS_CODE":0,"TOWNNAME":"龍崎區","LI":"土崎里","LIN":"7鄰","STREET":" ","SECT":" ","MAREA":"土崎","LANE":" ","ALLEY":" ","HOUSE_NO":"２６號","E_COORD97":188246.07000000001,"N_COORD97":2542555.25,"ADDRESS":"土崎２６號","OBJECTID":36203},"geometry":{"x":188246.0700000003,"y":2542555.2500000019}},{"attributes":{"ID":36204,"DIS_CODE":0,"TOWNNAME":"龍崎區","LI":"中坑里","LIN":"7鄰","STREET":" ","SECT":" ","MAREA":"大溪","LANE":" ","ALLEY":" ","HOUSE_NO":"１７號之１","E_COORD97":184141.20000000001,"N_COORD97":2538163.3100000001,"ADDRESS":"大溪１７號之１","OBJECTID":36204},"geometry":{"x":184141.20000000019,"y":2538163.3100000005}},{"attributes":{"ID":36205,"DIS_CODE":0,"TOWNNAME":"龍崎區","LI":"土崎里","LIN":"7鄰","STREET":" ","SECT":" ","MAREA":"土崎","LANE":" ","ALLEY":" ","HOUSE_NO":"２８號","E_COORD97":188127.47,"N_COORD97":2542287.25,"ADDRESS":"土崎２８號","OBJECTID":36205},"geometry":{"x":188127.46999999974,"y":2542287.2500000019}},{"attributes":{"ID":36206,"DIS_CODE":0,"TOWNNAME":"龍崎區","LI":"牛埔里","LIN":"7鄰","STREET":" ","SECT":" ","MAREA":"烏山頭","LANE":" ","ALLEY":" ","HOUSE_NO":"７號","E_COORD97":191063.29000000001,"N_COORD97":2537381.25,"ADDRESS":"烏山頭７號","OBJECTID":36206},"geometry":{"x":191063.29000000097,"y":2537381.2500000019}},{"attributes":{"ID":36207,"DIS_CODE":0,"TOWNNAME":"龍崎區","LI":"牛埔里","LIN":"7鄰","STREET":" ","SECT":" ","MAREA":"烏山頭","LANE":" ","ALLEY":" ","HOUSE_NO":"１號","E_COORD97":191000.89000000001,"N_COORD97":2537623.25,"ADDRESS":"烏山頭１號","OBJECTID":36207},"geometry":{"x":191000.8900000006,"y":2537623.25}},{"attributes":{"ID":36208,"DIS_CODE":0,"TOWNNAME":"龍崎區","LI":"土崎里","LIN":"7鄰","STREET":" ","SECT":" ","MAREA":"土崎","LANE":" ","ALLEY":" ","HOUSE_NO":"２８之１號","E_COORD97":188272.17000000001,"N_COORD97":2542316.2999999998,"ADDRESS":"土崎２８之１號","OBJECTID":36208},"geometry":{"x":188272.16999999993,"y":2542316.3000000007}},{"attributes":{"ID":36209,"DIS_CODE":0,"TOWNNAME":"龍崎區","LI":"中坑里","LIN":"7鄰","STREET":" ","SECT":" ","MAREA":"大溪","LANE":" ","ALLEY":" ","HOUSE_NO":"１４號","E_COORD97":184244.87,"N_COORD97":2538075.3100000001,"ADDRESS":"大溪１４號","OBJECTID":36209},"geometry":{"x":184244.87000000011,"y":2538075.3100000005}},{"attributes":{"ID":36210,"DIS_CODE":0,"TOWNNAME":"龍崎區","LI":"牛埔里","LIN":"7鄰","STREET":" ","SECT":" ","MAREA":"烏山頭","LANE":" ","ALLEY":" ","HOUSE_NO":"５號","E_COORD97":191026.79000000001,"N_COORD97":2537415.25,"ADDRESS":"烏山頭５號","OBJECTID":36210},"geometry":{"x":191026.79000000004,"y":2537415.2500000019}},{"attributes":{"ID":36211,"DIS_CODE":0,"TOWNNAME":"龍崎區","LI":"楠坑里","LIN":"7鄰","STREET":" ","SECT":" ","MAREA":"楠坑","LANE":" ","ALLEY":" ","HOUSE_NO":"１３號","E_COORD97":183972.69,"N_COORD97":2535460.2799999998,"ADDRESS":"楠坑１３號","OBJECTID":36211},"geometry":{"x":183972.69000000227,"y":2535460.2799999993}},{"attributes":{"ID":36212,"DIS_CODE":0,"TOWNNAME":"龍崎區","LI":"崎頂里","LIN":"7鄰","STREET":" ","SECT":" ","MAREA":"新市子","LANE":" ","ALLEY":" ","HOUSE_NO":"２３３號","E_COORD97":184405.87,"N_COORD97":2540793.25,"ADDRESS":"新市子２３３號","OBJECTID":36212},"geometry":{"x":184405.87000000104,"y":2540793.25}},{"attributes":{"ID":36213,"DIS_CODE":0,"TOWNNAME":"龍崎區","LI":"崎頂里","LIN":"7鄰","STREET":" ","SECT":" ","MAREA":"新市子","LANE":" ","ALLEY":" ","HOUSE_NO":"２５９號","E_COORD97":184436.17000000001,"N_COORD97":2540917.25,"ADDRESS":"新市子２５９號","OBJECTID":36213},"geometry":{"x":184436.16999999993,"y":2540917.2500000019}},{"attributes":{"ID":36214,"DIS_CODE":0,"TOWNNAME":"東區","LI":"富裕里","LIN":"8鄰","STREET":"裕農路","SECT":" ","MAREA":" ","LANE":"２８８巷","ALLEY":"６０弄","HOUSE_NO":"８４號","E_COORD97":170900.10999999999,"N_COORD97":2542798.73,"ADDRESS":"裕農路２８８巷６０弄８４號","OBJECTID":36214},"geometry":{"x":170900.11000000127,"y":2542798.7300000004}},{"attributes":{"ID":36215,"DIS_CODE":0,"TOWNNAME":"龍崎區","LI":"崎頂里","LIN":"7鄰","STREET":" ","SECT":" ","MAREA":"新市子","LANE":" ","ALLEY":" ","HOUSE_NO":"２２５之１號","E_COORD97":184414.17000000001,"N_COORD97":2540704.2999999998,"ADDRESS":"新市子２２５之１號","OBJECTID":36215},"geometry":{"x":184414.16999999993,"y":2540704.3000000026}},{"attributes":{"ID":36216,"DIS_CODE":0,"TOWNNAME":"龍崎區","LI":"崎頂里","LIN":"7鄰","STREET":" ","SECT":" ","MAREA":"新市子","LANE":" ","ALLEY":" ","HOUSE_NO":"２３８號","E_COORD97":184435.07000000001,"N_COORD97":2540822.25,"ADDRESS":"新市子２３８號","OBJECTID":36216},"geometry":{"x":184435.07000000123,"y":2540822.2500000037}},{"attributes":{"ID":36217,"DIS_CODE":0,"TOWNNAME":"龍崎區","LI":"崎頂里","LIN":"7鄰","STREET":" ","SECT":" ","MAREA":"新市子","LANE":" ","ALLEY":" ","HOUSE_NO":"２２２號","E_COORD97":184377.26999999999,"N_COORD97":2540654.25,"ADDRESS":"新市子２２２號","OBJECTID":36217},"geometry":{"x":184377.26999999955,"y":2540654.25}},{"attributes":{"ID":36218,"DIS_CODE":0,"TOWNNAME":"龍崎區","LI":"崎頂里","LIN":"7鄰","STREET":" ","SECT":" ","MAREA":"新市子","LANE":" ","ALLEY":" ","HOUSE_NO":"２２５號","E_COORD97":184386.26999999999,"N_COORD97":2540723.25,"ADDRESS":"新市子２２５號","OBJECTID":36218},"geometry":{"x":184386.26999999955,"y":2540723.25}},{"attributes":{"ID":36219,"DIS_CODE":0,"TOWNNAME":"東區","LI":"富裕里","LIN":"8鄰","STREET":"裕農路","SECT":" ","MAREA":" ","LANE":"２８８巷","ALLEY":"６０弄","HOUSE_NO":"９４號","E_COORD97":170908.44,"N_COORD97":2542804.7799999998,"ADDRESS":"裕農路２８８巷６０弄９４號","OBJECTID":36219},"geometry":{"x":170908.44000000134,"y":2542804.7800000012}},{"attributes":{"ID":36220,"DIS_CODE":0,"TOWNNAME":"龍崎區","LI":"崎頂里","LIN":"7鄰","STREET":" ","SECT":" ","MAREA":"新市子","LANE":" ","ALLEY":" ","HOUSE_NO":"２６４之４號","E_COORD97":184380.07000000001,"N_COORD97":2540916.2999999998,"ADDRESS":"新市子２６４之４號","OBJECTID":36220},"geometry":{"x":184380.06999999937,"y":2540916.3000000007}},{"attributes":{"ID":36221,"DIS_CODE":0,"TOWNNAME":"東區","LI":"富裕里","LIN":"8鄰","STREET":"裕農路","SECT":" ","MAREA":" ","LANE":"２８８巷","ALLEY":"６０弄","HOUSE_NO":"９６號","E_COORD97":170909.20999999999,"N_COORD97":2542800.8700000001,"ADDRESS":"裕農路２８８巷６０弄９６號","OBJECTID":36221},"geometry":{"x":170909.21000000089,"y":2542800.870000001}},{"attributes":{"ID":36222,"DIS_CODE":0,"TOWNNAME":"東區","LI":"富裕里","LIN":"8鄰","STREET":"裕農路","SECT":" ","MAREA":" ","LANE":"２８８巷","ALLEY":"６０弄","HOUSE_NO":"１０２號","E_COORD97":170910.09,"N_COORD97":2542788.4199999999,"ADDRESS":"裕農路２８８巷６０弄１０２號","OBJECTID":36222},"geometry":{"x":170910.09000000078,"y":2542788.4200000018}},{"attributes":{"ID":36223,"DIS_CODE":0,"TOWNNAME":"歸仁區","LI":"看東里","LIN":"14鄰","STREET":"中山路","SECT":"一段","MAREA":" ","LANE":" ","ALLEY":" ","HOUSE_NO":"２９１號","E_COORD97":178554.34,"N_COORD97":2540628.6499999999,"ADDRESS":"中山路一段２９１號","OBJECTID":36223},"geometry":{"x":178554.33999999985,"y":2540628.6500000004}},{"attributes":{"ID":36224,"DIS_CODE":0,"TOWNNAME":"歸仁區","LI":"文化里","LIN":"14鄰","STREET":"文化北二街","SECT":" ","MAREA":" ","LANE":" ","ALLEY":" ","HOUSE_NO":"６號","E_COORD97":177229.66,"N_COORD97":2541436.3399999999,"ADDRESS":"文化北二街６號","OBJECTID":36224},"geometry":{"x":177229.66000000108,"y":2541436.3400000017}},{"attributes":{"ID":36225,"DIS_CODE":0,"TOWNNAME":"歸仁區","LI":"看東里","LIN":"14鄰","STREET":"中山一街","SECT":" ","MAREA":" ","LANE":" ","ALLEY":" ","HOUSE_NO":"８號","E_COORD97":178596.48999999999,"N_COORD97":2540595.6400000001,"ADDRESS":"中山一街８號","OBJECTID":36225},"geometry":{"x":178596.49000000022,"y":2540595.6400000006}},{"attributes":{"ID":36226,"DIS_CODE":0,"TOWNNAME":"玉井區","LI":"望明里","LIN":"14鄰","STREET":" ","SECT":" ","MAREA":"望明","LANE":" ","ALLEY":" ","HOUSE_NO":"１５２之２號","E_COORD97":192649.59,"N_COORD97":2556038.2999999998,"ADDRESS":"望明１５２之２號","OBJECTID":36226},"geometry":{"x":192649.58999999985,"y":2556038.2999999989}},{"attributes":{"ID":36227,"DIS_CODE":0,"TOWNNAME":"玉井區","LI":"望明里","LIN":"14鄰","STREET":" ","SECT":" ","MAREA":"望明","LANE":" ","ALLEY":" ","HOUSE_NO":"１５２之１號","E_COORD97":192693.67999999999,"N_COORD97":2555994.29,"ADDRESS":"望明１５２之１號","OBJECTID":36227},"geometry":{"x":192693.68000000156,"y":2555994.290000001}},{"attributes":{"ID":36228,"DIS_CODE":0,"TOWNNAME":"玉井區","LI":"層林里","LIN":"14鄰","STREET":" ","SECT":" ","MAREA":"層林","LANE":" ","ALLEY":" ","HOUSE_NO":"１３號之１","E_COORD97":193646.79000000001,"N_COORD97":2554260.29,"ADDRESS":"層林１３號之１","OBJECTID":36228},"geometry":{"x":193646.79000000097,"y":2554260.2900000028}},{"attributes":{"ID":36229,"DIS_CODE":0,"TOWNNAME":"東區","LI":"富裕里","LIN":"8鄰","STREET":"裕農路","SECT":" ","MAREA":" ","LANE":"２８８巷","ALLEY":"６０弄","HOUSE_NO":"１０４號","E_COORD97":170910.64000000001,"N_COORD97":2542785.0099999998,"ADDRESS":"裕農路２８８巷６０弄１０４號","OBJECTID":36229},"geometry":{"x":170910.63999999873,"y":2542785.0099999998}},{"attributes":{"ID":36230,"DIS_CODE":0,"TOWNNAME":"玉井區","LI":"豐里里","LIN":"14鄰","STREET":" ","SECT":" ","MAREA":"豐里","LANE":" ","ALLEY":" ","HOUSE_NO":"１４６之５號","E_COORD97":193227.41,"N_COORD97":2561603.29,"ADDRESS":"豐里１４６之５號","OBJECTID":36230},"geometry":{"x":193227.41000000108,"y":2561603.2899999991}},{"attributes":{"ID":36231,"DIS_CODE":0,"TOWNNAME":"玉井區","LI":"望明里","LIN":"14鄰","STREET":" ","SECT":" ","MAREA":"望明","LANE":" ","ALLEY":" ","HOUSE_NO":"１４９號","E_COORD97":192842.98000000001,"N_COORD97":2556265.25,"ADDRESS":"望明１４９號","OBJECTID":36231},"geometry":{"x":192842.98000000045,"y":2556265.2500000037}},{"attributes":{"ID":36232,"DIS_CODE":0,"TOWNNAME":"玉井區","LI":"豐里里","LIN":"14鄰","STREET":" ","SECT":" ","MAREA":"豐里","LANE":" ","ALLEY":" ","HOUSE_NO":"１４３之２號","E_COORD97":193339.51000000001,"N_COORD97":2561260.2999999998,"ADDRESS":"豐里１４３之２號","OBJECTID":36232},"geometry":{"x":193339.51000000071,"y":2561260.3000000026}},{"attributes":{"ID":36233,"DIS_CODE":0,"TOWNNAME":"玉井區","LI":"望明里","LIN":"14鄰","STREET":" ","SECT":" ","MAREA":"望明","LANE":" ","ALLEY":" ","HOUSE_NO":"１４５號","E_COORD97":192793.17999999999,"N_COORD97":2556333.2400000002,"ADDRESS":"望明１４５號","OBJECTID":36233},"geometry":{"x":192793.1799999997,"y":2556333.2400000039}},{"attributes":{"ID":36234,"DIS_CODE":0,"TOWNNAME":"玉井區","LI":"中正里","LIN":"14鄰","STREET":" ","SECT":" ","MAREA":"中正","LANE":" ","ALLEY":" ","HOUSE_NO":"１５３號之２","E_COORD97":196019.17000000001,"N_COORD97":2560909.2999999998,"ADDRESS":"中正１５３號之２","OBJECTID":36234},"geometry":{"x":196019.16999999993,"y":2560909.3000000007}},{"attributes":{"ID":36235,"DIS_CODE":0,"TOWNNAME":"玉井區","LI":"中正里","LIN":"14鄰","STREET":" ","SECT":" ","MAREA":"中正","LANE":" ","ALLEY":" ","HOUSE_NO":"１４７號之１","E_COORD97":195972.04000000001,"N_COORD97":2560817.2999999998,"ADDRESS":"中正１４７號之１","OBJECTID":36235},"geometry":{"x":195972.04000000097,"y":2560817.3000000007}},{"attributes":{"ID":36236,"DIS_CODE":0,"TOWNNAME":"玉井區","LI":"中正里","LIN":"14鄰","STREET":" ","SECT":" ","MAREA":"中正","LANE":" ","ALLEY":" ","HOUSE_NO":"１５５號","E_COORD97":196044.79999999999,"N_COORD97":2560904.2400000002,"ADDRESS":"中正１５５號","OBJECTID":36236},"geometry":{"x":196044.80000000075,"y":2560904.2400000021}},{"attributes":{"ID":36237,"DIS_CODE":0,"TOWNNAME":"玉井區","LI":"中正里","LIN":"14鄰","STREET":" ","SECT":" ","MAREA":"中正","LANE":" ","ALLEY":" ","HOUSE_NO":"１５２號","E_COORD97":196032.89999999999,"N_COORD97":2560880.2400000002,"ADDRESS":"中正１５２號","OBJECTID":36237},"geometry":{"x":196032.9000000013,"y":2560880.2400000021}},{"attributes":{"ID":36238,"DIS_CODE":0,"TOWNNAME":"玉井區","LI":"中正里","LIN":"14鄰","STREET":" ","SECT":" ","MAREA":"中正","LANE":" ","ALLEY":" ","HOUSE_NO":"１５６號","E_COORD97":196036.89999999999,"N_COORD97":2560920.25,"ADDRESS":"中正１５６號","OBJECTID":36238},"geometry":{"x":196036.90000000037,"y":2560920.2500000037}},{"attributes":{"ID":36239,"DIS_CODE":0,"TOWNNAME":"東區","LI":"富裕里","LIN":"8鄰","STREET":"裕農路","SECT":" ","MAREA":" ","LANE":"２８８巷","ALLEY":"６０弄","HOUSE_NO":"１０６號","E_COORD97":170911.20000000001,"N_COORD97":2542781.27,"ADDRESS":"裕農路２８８巷６０弄１０６號","OBJECTID":36239},"geometry":{"x":170911.20000000112,"y":2542781.2700000033}},{"attributes":{"ID":36240,"DIS_CODE":0,"TOWNNAME":"東區","LI":"富裕里","LIN":"8鄰","STREET":"裕農路","SECT":" ","MAREA":" ","LANE":"２８８巷","ALLEY":"６０弄","HOUSE_NO":"１０８號","E_COORD97":170912.19,"N_COORD97":2542776.7400000002,"ADDRESS":"裕農路２８８巷６０弄１０８號","OBJECTID":36240},"geometry":{"x":170912.19000000041,"y":2542776.7400000021}},{"attributes":{"ID":36241,"DIS_CODE":0,"TOWNNAME":"東區","LI":"富裕里","LIN":"8鄰","STREET":"裕農路","SECT":" ","MAREA":" ","LANE":"２８８巷","ALLEY":"６０弄","HOUSE_NO":"１１０號","E_COORD97":170912.51999999999,"N_COORD97":2542773.6099999999,"ADDRESS":"裕農路２８８巷６０弄１１０號","OBJECTID":36241},"geometry":{"x":170912.51999999955,"y":2542773.6099999994}},{"attributes":{"ID":36242,"DIS_CODE":0,"TOWNNAME":"東區","LI":"富裕里","LIN":"8鄰","STREET":"裕農路","SECT":" ","MAREA":" ","LANE":"２８８巷","ALLEY":"６０弄","HOUSE_NO":"１１２號","E_COORD97":170912.85000000001,"N_COORD97":2542768.71,"ADDRESS":"裕農路２８８巷６０弄１１２號","OBJECTID":36242},"geometry":{"x":170912.85000000056,"y":2542768.7100000009}},{"attributes":{"ID":36243,"DIS_CODE":0,"TOWNNAME":"玉井區","LI":"中正里","LIN":"14鄰","STREET":" ","SECT":" ","MAREA":"中正","LANE":" ","ALLEY":" ","HOUSE_NO":"１５７號","E_COORD97":196039.60000000001,"N_COORD97":2560985.2400000002,"ADDRESS":"中正１５７號","OBJECTID":36243},"geometry":{"x":196039.60000000056,"y":2560985.2400000021}},{"attributes":{"ID":36244,"DIS_CODE":0,"TOWNNAME":"玉井區","LI":"中正里","LIN":"14鄰","STREET":" ","SECT":" ","MAREA":"中正","LANE":" ","ALLEY":" ","HOUSE_NO":"１５７之３號","E_COORD97":196029.78,"N_COORD97":2560955.3100000001,"ADDRESS":"中正１５７之３號","OBJECTID":36244},"geometry":{"x":196029.78000000212,"y":2560955.3100000024}},{"attributes":{"ID":36245,"DIS_CODE":0,"TOWNNAME":"東區","LI":"富裕里","LIN":"8鄰","STREET":"裕農路","SECT":" ","MAREA":" ","LANE":"２８８巷","ALLEY":"６０弄","HOUSE_NO":"１１４號","E_COORD97":170913.29999999999,"N_COORD97":2542763.7799999998,"ADDRESS":"裕農路２８８巷６０弄１１４號","OBJECTID":36245},"geometry":{"x":170913.30000000168,"y":2542763.7800000031}},{"attributes":{"ID":36246,"DIS_CODE":0,"TOWNNAME":"玉井區","LI":"竹圍里","LIN":"14鄰","STREET":" ","SECT":" ","MAREA":"竹圍","LANE":" ","ALLEY":" ","HOUSE_NO":"１４１之５號","E_COORD97":197081,"N_COORD97":2559980.6899999999,"ADDRESS":"竹圍１４１之５號","OBJECTID":36246},"geometry":{"x":197081.00000000093,"y":2559980.6899999976}},{"attributes":{"ID":36247,"DIS_CODE":0,"TOWNNAME":"玉井區","LI":"竹圍里","LIN":"14鄰","STREET":" ","SECT":" ","MAREA":"竹圍","LANE":" ","ALLEY":" ","HOUSE_NO":"１８１之５號","E_COORD97":196535.98000000001,"N_COORD97":2559764.5299999998,"ADDRESS":"竹圍１８１之５號","OBJECTID":36247},"geometry":{"x":196535.98000000138,"y":2559764.5299999993}},{"attributes":{"ID":36248,"DIS_CODE":0,"TOWNNAME":"東區","LI":"富裕里","LIN":"8鄰","STREET":"裕農路","SECT":" ","MAREA":" ","LANE":"２８８巷","ALLEY":"６０弄","HOUSE_NO":"１１６號","E_COORD97":170914.07999999999,"N_COORD97":2542759.5899999999,"ADDRESS":"裕農路２８８巷６０弄１１６號","OBJECTID":36248},"geometry":{"x":170914.08000000101,"y":2542759.5900000017}},{"attributes":{"ID":36249,"DIS_CODE":0,"TOWNNAME":"東區","LI":"富裕里","LIN":"8鄰","STREET":"裕農路","SECT":" ","MAREA":" ","LANE":"２８８巷","ALLEY":"６０弄","HOUSE_NO":"１１８號","E_COORD97":170914.29000000001,"N_COORD97":2542754.52,"ADDRESS":"裕農路２８８巷６０弄１１８號","OBJECTID":36249},"geometry":{"x":170914.29000000097,"y":2542754.5199999996}},{"attributes":{"ID":36250,"DIS_CODE":0,"TOWNNAME":"東區","LI":"富裕里","LIN":"8鄰","STREET":"裕農路","SECT":" ","MAREA":" ","LANE":"２８８巷","ALLEY":"６０弄","HOUSE_NO":"１２０號","E_COORD97":170914.14000000001,"N_COORD97":2542750.7999999998,"ADDRESS":"裕農路２８８巷６０弄１２０號","OBJECTID":36250},"geometry":{"x":170914.14000000153,"y":2542750.8000000007}},{"attributes":{"ID":36251,"DIS_CODE":0,"TOWNNAME":"東區","LI":"富裕里","LIN":"8鄰","STREET":"裕農路","SECT":" ","MAREA":" ","LANE":"２８８巷","ALLEY":"６０弄","HOUSE_NO":"１２２號","E_COORD97":170914.39999999999,"N_COORD97":2542746.3900000001,"ADDRESS":"裕農路２８８巷６０弄１２２號","OBJECTID":36251},"geometry":{"x":170914.40000000037,"y":2542746.3900000006}},{"attributes":{"ID":36252,"DIS_CODE":0,"TOWNNAME":"東區","LI":"南聖里","LIN":"8鄰","STREET":"裕農路","SECT":" ","MAREA":" ","LANE":"７２６巷","ALLEY":"７弄","HOUSE_NO":"１號","E_COORD97":171881.10000000001,"N_COORD97":2543176.5499999998,"ADDRESS":"裕農路７２６巷７弄１號","OBJECTID":36252},"geometry":{"x":171881.10000000056,"y":2543176.5500000007}},{"attributes":{"ID":36253,"DIS_CODE":0,"TOWNNAME":"東區","LI":"南聖里","LIN":"8鄰","STREET":"裕農路","SECT":" ","MAREA":" ","LANE":"７２６巷","ALLEY":"７弄","HOUSE_NO":"７號","E_COORD97":171897.92999999999,"N_COORD97":2543178.9500000002,"ADDRESS":"裕農路７２６巷７弄７號","OBJECTID":36253},"geometry":{"x":171897.93000000063,"y":2543178.9499999993}},{"attributes":{"ID":36254,"DIS_CODE":0,"TOWNNAME":"東區","LI":"南聖里","LIN":"8鄰","STREET":"裕農路","SECT":" ","MAREA":" ","LANE":"７２６巷","ALLEY":"９弄","HOUSE_NO":"４號","E_COORD97":171881.73999999999,"N_COORD97":2543133.2999999998,"ADDRESS":"裕農路７２６巷９弄４號","OBJECTID":36254},"geometry":{"x":171881.74000000022,"y":2543133.3000000007}},{"attributes":{"ID":36255,"DIS_CODE":0,"TOWNNAME":"東區","LI":"南聖里","LIN":"8鄰","STREET":"裕農路","SECT":" ","MAREA":" ","LANE":"７２６巷","ALLEY":"９弄","HOUSE_NO":"６號","E_COORD97":171887.03,"N_COORD97":2543131.21,"ADDRESS":"裕農路７２６巷９弄６號","OBJECTID":36255},"geometry":{"x":171887.03000000119,"y":2543131.2100000009}},{"attributes":{"ID":36256,"DIS_CODE":0,"TOWNNAME":"東區","LI":"南聖里","LIN":"8鄰","STREET":"裕農路","SECT":" ","MAREA":" ","LANE":"７２６巷","ALLEY":"９弄","HOUSE_NO":"１０號","E_COORD97":171901.45999999999,"N_COORD97":2543132.8199999998,"ADDRESS":"裕農路７２６巷９弄１０號","OBJECTID":36256},"geometry":{"x":171901.45999999996,"y":2543132.8200000003}},{"attributes":{"ID":36257,"DIS_CODE":0,"TOWNNAME":"安南區","LI":"城東里","LIN":"8鄰","STREET":"城北路","SECT":" ","MAREA":" ","LANE":"１１２巷","ALLEY":"４３弄","HOUSE_NO":"９號","E_COORD97":161076.57000000001,"N_COORD97":2551652.27,"ADDRESS":"城北路１１２巷４３弄９號","OBJECTID":36257},"geometry":{"x":161076.57000000123,"y":2551652.2699999996}},{"attributes":{"ID":36258,"DIS_CODE":0,"TOWNNAME":"東山區","LI":"三榮里","LIN":"14鄰","STREET":" ","SECT":" ","MAREA":"下寮子","LANE":" ","ALLEY":" ","HOUSE_NO":"１６號之１","E_COORD97":187450.25,"N_COORD97":2581169.3999999999,"ADDRESS":"下寮子１６號之１","OBJECTID":36258},"geometry":{"x":187450.25000000186,"y":2581169.4000000004}},{"attributes":{"ID":36259,"DIS_CODE":0,"TOWNNAME":"安南區","LI":"公\u25A0里","LIN":"8鄰","STREET":"安興街","SECT":" ","MAREA":" ","LANE":"１８１巷","ALLEY":"１０７弄","HOUSE_NO":"２３號","E_COORD97":163947.26000000001,"N_COORD97":2551868.02,"ADDRESS":"安興街１８１巷１０７弄２３號","OBJECTID":36259},"geometry":{"x":163947.25999999978,"y":2551868.0199999996}},{"attributes":{"ID":36260,"DIS_CODE":0,"TOWNNAME":"歸仁區","LI":"六甲里","LIN":"14鄰","STREET":"六甲一街","SECT":" ","MAREA":" ","LANE":" ","ALLEY":" ","HOUSE_NO":"７號","E_COORD97":175844.57999999999,"N_COORD97":2539178.25,"ADDRESS":"六甲一街７號","OBJECTID":36260},"geometry":{"x":175844.58000000194,"y":2539178.2500000019}},{"attributes":{"ID":36261,"DIS_CODE":0,"TOWNNAME":"東山區","LI":"三榮里","LIN":"14鄰","STREET":" ","SECT":" ","MAREA":"下寮子","LANE":" ","ALLEY":" ","HOUSE_NO":"１６號","E_COORD97":187424.26999999999,"N_COORD97":2581171.77,"ADDRESS":"下寮子１６號","OBJECTID":36261},"geometry":{"x":187424.27000000142,"y":2581171.7700000014}},{"attributes":{"ID":36262,"DIS_CODE":0,"TOWNNAME":"東山區","LI":"三榮里","LIN":"14鄰","STREET":" ","SECT":" ","MAREA":"下寮子","LANE":" ","ALLEY":" ","HOUSE_NO":"１７號","E_COORD97":187444.82999999999,"N_COORD97":2581124.7999999998,"ADDRESS":"下寮子１７號","OBJECTID":36262},"geometry":{"x":187444.83000000194,"y":2581124.8000000026}},{"attributes":{"ID":36263,"DIS_CODE":0,"TOWNNAME":"東山區","LI":"三榮里","LIN":"14鄰","STREET":" ","SECT":" ","MAREA":"下寮子","LANE":" ","ALLEY":" ","HOUSE_NO":"１８號","E_COORD97":187474.39999999999,"N_COORD97":2581144.7000000002,"ADDRESS":"下寮子１８號","OBJECTID":36263},"geometry":{"x":187474.40000000037,"y":2581144.7000000011}},{"attributes":{"ID":36264,"DIS_CODE":0,"TOWNNAME":"東山區","LI":"三榮里","LIN":"14鄰","STREET":" ","SECT":" ","MAREA":"下寮子","LANE":" ","ALLEY":" ","HOUSE_NO":"２０號","E_COORD97":187520.12,"N_COORD97":2581039.1800000002,"ADDRESS":"下寮子２０號","OBJECTID":36264},"geometry":{"x":187520.12000000011,"y":2581039.1800000016}},{"attributes":{"ID":36265,"DIS_CODE":0,"TOWNNAME":"歸仁區","LI":"新厝里","LIN":"14鄰","STREET":"公園十街","SECT":" ","MAREA":" ","LANE":" ","ALLEY":" ","HOUSE_NO":"５號","E_COORD97":177681.37,"N_COORD97":2540433.3399999999,"ADDRESS":"公園十街５號","OBJECTID":36265},"geometry":{"x":177681.37000000011,"y":2540433.3399999999}},{"attributes":{"ID":36266,"DIS_CODE":0,"TOWNNAME":"龍崎區","LI":"崎頂里","LIN":"7鄰","STREET":" ","SECT":" ","MAREA":"新市子","LANE":" ","ALLEY":" ","HOUSE_NO":"２４０號","E_COORD97":184426.97,"N_COORD97":2540846.25,"ADDRESS":"新市子２４０號","OBJECTID":36266},"geometry":{"x":184426.96999999974,"y":2540846.2500000019}},{"attributes":{"ID":36267,"DIS_CODE":0,"TOWNNAME":"龍崎區","LI":"崎頂里","LIN":"7鄰","STREET":" ","SECT":" ","MAREA":"新市子","LANE":" ","ALLEY":" ","HOUSE_NO":"２３２號","E_COORD97":184429.37,"N_COORD97":2540790.25,"ADDRESS":"新市子２３２號","OBJECTID":36267},"geometry":{"x":184429.37000000104,"y":2540790.25}},{"attributes":{"ID":36268,"DIS_CODE":0,"TOWNNAME":"龍崎區","LI":"崎頂里","LIN":"7鄰","STREET":" ","SECT":" ","MAREA":"新市子","LANE":" ","ALLEY":" ","HOUSE_NO":"２７０號","E_COORD97":184400.26999999999,"N_COORD97":2540881.25,"ADDRESS":"新市子２７０號","OBJECTID":36268},"geometry":{"x":184400.27000000048,"y":2540881.2500000019}},{"attributes":{"ID":36269,"DIS_CODE":0,"TOWNNAME":"龍崎區","LI":"崎頂里","LIN":"7鄰","STREET":" ","SECT":" ","MAREA":"新市子","LANE":" ","ALLEY":" ","HOUSE_NO":"２３４號","E_COORD97":184409.87,"N_COORD97":2540804.25,"ADDRESS":"新市子２３４號","OBJECTID":36269},"geometry":{"x":184409.87000000011,"y":2540804.25}},{"attributes":{"ID":36270,"DIS_CODE":0,"TOWNNAME":"龍崎區","LI":"崎頂里","LIN":"7鄰","STREET":" ","SECT":" ","MAREA":"新市子","LANE":" ","ALLEY":" ","HOUSE_NO":"２７６號","E_COORD97":184391.17000000001,"N_COORD97":2540818.25,"ADDRESS":"新市子２７６號","OBJECTID":36270},"geometry":{"x":184391.17000000086,"y":2540818.25}},{"attributes":{"ID":36271,"DIS_CODE":0,"TOWNNAME":"龍崎區","LI":"崎頂里","LIN":"7鄰","STREET":" ","SECT":" ","MAREA":"新市子","LANE":" ","ALLEY":" ","HOUSE_NO":"２７０之１號","E_COORD97":184402.57000000001,"N_COORD97":2540876.2999999998,"ADDRESS":"新市子２７０之１號","OBJECTID":36271},"geometry":{"x":184402.57000000123,"y":2540876.3000000007}},{"attributes":{"ID":36272,"DIS_CODE":0,"TOWNNAME":"龍崎區","LI":"崎頂里","LIN":"7鄰","STREET":" ","SECT":" ","MAREA":"新市子","LANE":" ","ALLEY":" ","HOUSE_NO":"２５１號","E_COORD97":184513.97,"N_COORD97":2541302.25,"ADDRESS":"新市子２５１號","OBJECTID":36272},"geometry":{"x":184513.96999999974,"y":2541302.25}},{"attributes":{"ID":36273,"DIS_CODE":0,"TOWNNAME":"龍崎區","LI":"崎頂里","LIN":"7鄰","STREET":" ","SECT":" ","MAREA":"新市子","LANE":" ","ALLEY":" ","HOUSE_NO":"２３７號","E_COORD97":184432.07000000001,"N_COORD97":2540815.25,"ADDRESS":"新市子２３７號","OBJECTID":36273},"geometry":{"x":184432.0700000003,"y":2540815.2500000037}},{"attributes":{"ID":36274,"DIS_CODE":0,"TOWNNAME":"龍崎區","LI":"崎頂里","LIN":"7鄰","STREET":" ","SECT":" ","MAREA":"新市子","LANE":" ","ALLEY":" ","HOUSE_NO":"２２４號","E_COORD97":184384.57000000001,"N_COORD97":2540706.25,"ADDRESS":"新市子２２４號","OBJECTID":36274},"geometry":{"x":184384.5700000003,"y":2540706.25}},{"attributes":{"ID":36275,"DIS_CODE":0,"TOWNNAME":"龍崎區","LI":"崎頂里","LIN":"7鄰","STREET":" ","SECT":" ","MAREA":"新市子","LANE":" ","ALLEY":" ","HOUSE_NO":"２６４之３號","E_COORD97":184383.26999999999,"N_COORD97":2540923.2999999998,"ADDRESS":"新市子２６４之３號","OBJECTID":36275},"geometry":{"x":184383.27000000048,"y":2540923.3000000007}},{"attributes":{"ID":36276,"DIS_CODE":0,"TOWNNAME":"龍崎區","LI":"崎頂里","LIN":"7鄰","STREET":" ","SECT":" ","MAREA":"新市子","LANE":" ","ALLEY":" ","HOUSE_NO":"２２１號","E_COORD97":184377.26999999999,"N_COORD97":2540648.25,"ADDRESS":"新市子２２１號","OBJECTID":36276},"geometry":{"x":184377.26999999955,"y":2540648.25}},{"attributes":{"ID":36277,"DIS_CODE":0,"TOWNNAME":"龍崎區","LI":"崎頂里","LIN":"7鄰","STREET":" ","SECT":" ","MAREA":"新市子","LANE":" ","ALLEY":" ","HOUSE_NO":"２２３號","E_COORD97":184383.07000000001,"N_COORD97":2540695.25,"ADDRESS":"新市子２２３號","OBJECTID":36277},"geometry":{"x":184383.0700000003,"y":2540695.25}},{"attributes":{"ID":36278,"DIS_CODE":0,"TOWNNAME":"龍崎區","LI":"崎頂里","LIN":"7鄰","STREET":" ","SECT":" ","MAREA":"新市子","LANE":" ","ALLEY":" ","HOUSE_NO":"２４３號","E_COORD97":184428.07000000001,"N_COORD97":2540864.25,"ADDRESS":"新市子２４３號","OBJECTID":36278},"geometry":{"x":184428.07000000123,"y":2540864.2500000019}},{"attributes":{"ID":36279,"DIS_CODE":0,"TOWNNAME":"龍崎區","LI":"崎頂里","LIN":"7鄰","STREET":" ","SECT":" ","MAREA":"新市子","LANE":" ","ALLEY":" ","HOUSE_NO":"２３５號","E_COORD97":184411.67000000001,"N_COORD97":2540810.25,"ADDRESS":"新市子２３５號","OBJECTID":36279},"geometry":{"x":184411.67000000086,"y":2540810.25}},{"attributes":{"ID":36280,"DIS_CODE":0,"TOWNNAME":"龍崎區","LI":"崎頂里","LIN":"7鄰","STREET":" ","SECT":" ","MAREA":"新市子","LANE":" ","ALLEY":" ","HOUSE_NO":"２６５之５號","E_COORD97":184399.17000000001,"N_COORD97":2540908.2999999998,"ADDRESS":"新市子２６５之５號","OBJECTID":36280},"geometry":{"x":184399.16999999993,"y":2540908.3000000026}},{"attributes":{"ID":36281,"DIS_CODE":0,"TOWNNAME":"龍崎區","LI":"崎頂里","LIN":"7鄰","STREET":" ","SECT":" ","MAREA":"新市子","LANE":" ","ALLEY":" ","HOUSE_NO":"２８０號","E_COORD97":184366.97,"N_COORD97":2540718.25,"ADDRESS":"新市子２８０號","OBJECTID":36281},"geometry":{"x":184366.97000000067,"y":2540718.2500000019}},{"attributes":{"ID":36282,"DIS_CODE":0,"TOWNNAME":"龍崎區","LI":"崎頂里","LIN":"7鄰","STREET":" ","SECT":" ","MAREA":"新市子","LANE":" ","ALLEY":" ","HOUSE_NO":"２１９號","E_COORD97":184397.76999999999,"N_COORD97":2540637.25,"ADDRESS":"新市子２１９號","OBJECTID":36282},"geometry":{"x":184397.76999999955,"y":2540637.2500000019}},{"attributes":{"ID":36283,"DIS_CODE":0,"TOWNNAME":"龍崎區","LI":"崎頂里","LIN":"7鄰","STREET":" ","SECT":" ","MAREA":"新市子","LANE":" ","ALLEY":" ","HOUSE_NO":"２６５之３號","E_COORD97":184402.17000000001,"N_COORD97":2540918.2999999998,"ADDRESS":"新市子２６５之３號","OBJECTID":36283},"geometry":{"x":184402.16999999993,"y":2540918.3000000026}},{"attributes":{"ID":36284,"DIS_CODE":0,"TOWNNAME":"龍崎區","LI":"崎頂里","LIN":"7鄰","STREET":" ","SECT":" ","MAREA":"新市子","LANE":" ","ALLEY":" ","HOUSE_NO":"２７７號","E_COORD97":184359.97,"N_COORD97":2540748.25,"ADDRESS":"新市子２７７號","OBJECTID":36284},"geometry":{"x":184359.9700000016,"y":2540748.2500000019}},{"attributes":{"ID":36285,"DIS_CODE":0,"TOWNNAME":"南區","LI":"喜東里","LIN":"8鄰","STREET":"喜樹路","SECT":" ","MAREA":" ","LANE":"１５１巷","ALLEY":"５９弄","HOUSE_NO":"１０號","E_COORD97":165989.92000000001,"N_COORD97":2538017.79,"ADDRESS":"喜樹路１５１巷５９弄１０號","OBJECTID":36285},"geometry":{"x":165989.92000000086,"y":2538017.790000001}},{"attributes":{"ID":36286,"DIS_CODE":0,"TOWNNAME":"南區","LI":"喜東里","LIN":"8鄰","STREET":"喜樹路","SECT":" ","MAREA":" ","LANE":"１５１巷","ALLEY":"５９弄","HOUSE_NO":"１１號","E_COORD97":165967.91,"N_COORD97":2538024.1299999999,"ADDRESS":"喜樹路１５１巷５９弄１１號","OBJECTID":36286},"geometry":{"x":165967.91000000201,"y":2538024.129999999}},{"attributes":{"ID":36287,"DIS_CODE":0,"TOWNNAME":"南區","LI":"喜東里","LIN":"8鄰","STREET":"喜樹路","SECT":" ","MAREA":" ","LANE":"１５１巷","ALLEY":"５９弄","HOUSE_NO":"１２號","E_COORD97":165989.92000000001,"N_COORD97":2538022.5099999998,"ADDRESS":"喜樹路１５１巷５９弄１２號","OBJECTID":36287},"geometry":{"x":165989.92000000086,"y":2538022.5099999998}},{"attributes":{"ID":36288,"DIS_CODE":0,"TOWNNAME":"南區","LI":"喜東里","LIN":"8鄰","STREET":"喜樹路","SECT":" ","MAREA":" ","LANE":"１５１巷","ALLEY":"５９弄","HOUSE_NO":"１３號","E_COORD97":165968.22,"N_COORD97":2538028.0299999998,"ADDRESS":"喜樹路１５１巷５９弄１３號","OBJECTID":36288},"geometry":{"x":165968.21999999974,"y":2538028.0299999993}},{"attributes":{"ID":36289,"DIS_CODE":0,"TOWNNAME":"南區","LI":"喜東里","LIN":"8鄰","STREET":"喜樹路","SECT":" ","MAREA":" ","LANE":"１５１巷","ALLEY":"５９弄","HOUSE_NO":"１４號","E_COORD97":165991.45999999999,"N_COORD97":2538027.23,"ADDRESS":"喜樹路１５１巷５９弄１４號","OBJECTID":36289},"geometry":{"x":165991.46000000089,"y":2538027.2300000023}},{"attributes":{"ID":36290,"DIS_CODE":0,"TOWNNAME":"南區","LI":"喜東里","LIN":"8鄰","STREET":"喜樹路","SECT":" ","MAREA":" ","LANE":"１５１巷","ALLEY":"５９弄","HOUSE_NO":"１５號","E_COORD97":165968.73000000001,"N_COORD97":2538032.8599999999,"ADDRESS":"喜樹路１５１巷５９弄１５號","OBJECTID":36290},"geometry":{"x":165968.73000000045,"y":2538032.8599999994}},{"attributes":{"ID":36291,"DIS_CODE":0,"TOWNNAME":"南區","LI":"喜東里","LIN":"8鄰","STREET":"喜樹路","SECT":" ","MAREA":" ","LANE":"１５１巷","ALLEY":"５９弄","HOUSE_NO":"１６號","E_COORD97":165991.35999999999,"N_COORD97":2538031.0299999998,"ADDRESS":"喜樹路１５１巷５９弄１６號","OBJECTID":36291},"geometry":{"x":165991.36000000127,"y":2538031.0299999993}},{"attributes":{"ID":36292,"DIS_CODE":0,"TOWNNAME":"南區","LI":"喜東里","LIN":"8鄰","STREET":"喜樹路","SECT":" ","MAREA":" ","LANE":"１５１巷","ALLEY":"５９弄","HOUSE_NO":"１７號","E_COORD97":165968.82999999999,"N_COORD97":2538037.79,"ADDRESS":"喜樹路１５１巷５９弄１７號","OBJECTID":36292},"geometry":{"x":165968.83000000101,"y":2538037.790000001}},{"attributes":{"ID":36293,"DIS_CODE":0,"TOWNNAME":"龍崎區","LI":"中坑里","LIN":"7鄰","STREET":" ","SECT":" ","MAREA":"大溪","LANE":" ","ALLEY":" ","HOUSE_NO":"１７號","E_COORD97":184118.76999999999,"N_COORD97":2538161.3100000001,"ADDRESS":"大溪１７號","OBJECTID":36293},"geometry":{"x":184118.77000000142,"y":2538161.3100000024}},{"attributes":{"ID":36294,"DIS_CODE":0,"TOWNNAME":"龍崎區","LI":"牛埔里","LIN":"7鄰","STREET":" ","SECT":" ","MAREA":"烏山頭","LANE":" ","ALLEY":" ","HOUSE_NO":"３號","E_COORD97":191031.19,"N_COORD97":2537430.25,"ADDRESS":"烏山頭３號","OBJECTID":36294},"geometry":{"x":191031.19000000041,"y":2537430.25}},{"attributes":{"ID":36295,"DIS_CODE":0,"TOWNNAME":"龍崎區","LI":"中坑里","LIN":"7鄰","STREET":" ","SECT":" ","MAREA":"大溪","LANE":" ","ALLEY":" ","HOUSE_NO":"９之１號","E_COORD97":184388.92000000001,"N_COORD97":2537889.3100000001,"ADDRESS":"大溪９之１號","OBJECTID":36295},"geometry":{"x":184388.91999999993,"y":2537889.3099999987}},{"attributes":{"ID":36296,"DIS_CODE":0,"TOWNNAME":"龍崎區","LI":"牛埔里","LIN":"7鄰","STREET":" ","SECT":" ","MAREA":"烏山頭","LANE":" ","ALLEY":" ","HOUSE_NO":"６號","E_COORD97":191037.29000000001,"N_COORD97":2537383.25,"ADDRESS":"烏山頭６號","OBJECTID":36296},"geometry":{"x":191037.29000000097,"y":2537383.25}},{"attributes":{"ID":36297,"DIS_CODE":0,"TOWNNAME":"龍崎區","LI":"大坪里","LIN":"7鄰","STREET":" ","SECT":" ","MAREA":"大坪","LANE":" ","ALLEY":" ","HOUSE_NO":"１５號","E_COORD97":187693.26999999999,"N_COORD97":2536506.25,"ADDRESS":"大坪１５號","OBJECTID":36297},"geometry":{"x":187693.26999999955,"y":2536506.2500000037}},{"attributes":{"ID":36298,"DIS_CODE":0,"TOWNNAME":"南區","LI":"喜東里","LIN":"8鄰","STREET":"喜樹路","SECT":" ","MAREA":" ","LANE":"１５１巷","ALLEY":"５９弄","HOUSE_NO":"１８號","E_COORD97":165991.87,"N_COORD97":2538036.0699999998,"ADDRESS":"喜樹路１５１巷５９弄１８號","OBJECTID":36298},"geometry":{"x":165991.87000000197,"y":2538036.0700000003}},{"attributes":{"ID":36299,"DIS_CODE":0,"TOWNNAME":"南區","LI":"喜東里","LIN":"8鄰","STREET":"喜樹路","SECT":" ","MAREA":" ","LANE":"１５１巷","ALLEY":"５９弄","HOUSE_NO":"１９號","E_COORD97":165968.73000000001,"N_COORD97":2538042.2000000002,"ADDRESS":"喜樹路１５１巷５９弄１９號","OBJECTID":36299},"geometry":{"x":165968.73000000045,"y":2538042.2000000011}},{"attributes":{"ID":36300,"DIS_CODE":0,"TOWNNAME":"南區","LI":"喜東里","LIN":"8鄰","STREET":"喜樹路","SECT":" ","MAREA":" ","LANE":"１５１巷","ALLEY":"５９弄","HOUSE_NO":"１號","E_COORD97":165967.81,"N_COORD97":2538001.2200000002,"ADDRESS":"喜樹路１５１巷５９弄１號","OBJECTID":36300},"geometry":{"x":165967.80999999959,"y":2538001.2200000007}},{"attributes":{"ID":36301,"DIS_CODE":0,"TOWNNAME":"南區","LI":"喜東里","LIN":"8鄰","STREET":"喜樹路","SECT":" ","MAREA":" ","LANE":"１５１巷","ALLEY":"５９弄","HOUSE_NO":"２０號","E_COORD97":165991.56,"N_COORD97":2538040.6899999999,"ADDRESS":"喜樹路１５１巷５９弄２０號","OBJECTID":36301},"geometry":{"x":165991.55999999959,"y":2538040.6899999995}},{"attributes":{"ID":36302,"DIS_CODE":0,"TOWNNAME":"西港區","LI":"竹林里","LIN":"7鄰","STREET":" ","SECT":" ","MAREA":"大竹林","LANE":" ","ALLEY":" ","HOUSE_NO":"５６號之１２","E_COORD97":166802.14999999999,"N_COORD97":2558479.5600000001,"ADDRESS":"大竹林５６號之１２","OBJECTID":36302},"geometry":{"x":166802.14999999944,"y":2558479.5600000005}},{"attributes":{"ID":36303,"DIS_CODE":0,"TOWNNAME":"西港區","LI":"竹林里","LIN":"7鄰","STREET":" ","SECT":" ","MAREA":"大竹林","LANE":" ","ALLEY":" ","HOUSE_NO":"５６之１３號","E_COORD97":166949.73999999999,"N_COORD97":2558453.2799999998,"ADDRESS":"大竹林５６之１３號","OBJECTID":36303},"geometry":{"x":166949.74000000115,"y":2558453.2799999993}},{"attributes":{"ID":36304,"DIS_CODE":0,"TOWNNAME":"西港區","LI":"竹林里","LIN":"7鄰","STREET":" ","SECT":" ","MAREA":"大竹林","LANE":" ","ALLEY":" ","HOUSE_NO":"５６之１５號","E_COORD97":166819.95999999999,"N_COORD97":2558372.8700000001,"ADDRESS":"大竹林５６之１５號","OBJECTID":36304},"geometry":{"x":166819.95999999903,"y":2558372.870000001}},{"attributes":{"ID":36305,"DIS_CODE":0,"TOWNNAME":"西港區","LI":"竹林里","LIN":"7鄰","STREET":" ","SECT":" ","MAREA":"大竹林","LANE":" ","ALLEY":" ","HOUSE_NO":"５６之１８號","E_COORD97":166922.56,"N_COORD97":2558241.7400000002,"ADDRESS":"大竹林５６之１８號","OBJECTID":36305},"geometry":{"x":166922.56000000145,"y":2558241.7400000002}},{"attributes":{"ID":36306,"DIS_CODE":0,"TOWNNAME":"西港區","LI":"竹林里","LIN":"7鄰","STREET":" ","SECT":" ","MAREA":"大竹林","LANE":" ","ALLEY":" ","HOUSE_NO":"５６號之１","E_COORD97":166657.25,"N_COORD97":2558267.7599999998,"ADDRESS":"大竹林５６號之１","OBJECTID":36306},"geometry":{"x":166657.25000000186,"y":2558267.7599999998}},{"attributes":{"ID":36307,"DIS_CODE":0,"TOWNNAME":"南區","LI":"喜東里","LIN":"8鄰","STREET":"喜樹路","SECT":" ","MAREA":" ","LANE":"１５１巷","ALLEY":"５９弄","HOUSE_NO":"２１號","E_COORD97":165970.48000000001,"N_COORD97":2538046.9199999999,"ADDRESS":"喜樹路１５１巷５９弄２１號","OBJECTID":36307},"geometry":{"x":165970.48000000045,"y":2538046.9199999999}},{"attributes":{"ID":36308,"DIS_CODE":0,"TOWNNAME":"南區","LI":"喜東里","LIN":"8鄰","STREET":"喜樹路","SECT":" ","MAREA":" ","LANE":"１５１巷","ALLEY":"５９弄","HOUSE_NO":"２３號","E_COORD97":165969.97,"N_COORD97":2538051.5499999998,"ADDRESS":"喜樹路１５１巷５９弄２３號","OBJECTID":36308},"geometry":{"x":165969.96999999974,"y":2538051.5500000026}},{"attributes":{"ID":36309,"DIS_CODE":0,"TOWNNAME":"南區","LI":"喜東里","LIN":"8鄰","STREET":"喜樹路","SECT":" ","MAREA":" ","LANE":"１５１巷","ALLEY":"５９弄","HOUSE_NO":"２４號","E_COORD97":165993,"N_COORD97":2538050.3799999999,"ADDRESS":"喜樹路１５１巷５９弄２４號","OBJECTID":36309},"geometry":{"x":165993.00000000093,"y":2538050.3800000027}},{"attributes":{"ID":36310,"DIS_CODE":0,"TOWNNAME":"南區","LI":"喜東里","LIN":"8鄰","STREET":"喜樹路","SECT":" ","MAREA":" ","LANE":"１５１巷","ALLEY":"５９弄","HOUSE_NO":"２５號","E_COORD97":165970.98999999999,"N_COORD97":2538055.8599999999,"ADDRESS":"喜樹路１５１巷５９弄２５號","OBJECTID":36310},"geometry":{"x":165970.99000000209,"y":2538055.8599999994}},{"attributes":{"ID":36311,"DIS_CODE":0,"TOWNNAME":"南區","LI":"喜東里","LIN":"8鄰","STREET":"喜樹路","SECT":" ","MAREA":" ","LANE":"１５１巷","ALLEY":"５９弄","HOUSE_NO":"２６號","E_COORD97":165993.20999999999,"N_COORD97":2538054.6400000001,"ADDRESS":"喜樹路１５１巷５９弄２６號","OBJECTID":36311},"geometry":{"x":165993.21000000089,"y":2538054.6400000025}},{"attributes":{"ID":36312,"DIS_CODE":0,"TOWNNAME":"西港區","LI":"竹林里","LIN":"7鄰","STREET":" ","SECT":" ","MAREA":"大竹林","LANE":" ","ALLEY":" ","HOUSE_NO":"６３號","E_COORD97":166794.01000000001,"N_COORD97":2558186.1800000002,"ADDRESS":"大竹林６３號","OBJECTID":36312},"geometry":{"x":166794.00999999885,"y":2558186.1799999997}},{"attributes":{"ID":36313,"DIS_CODE":0,"TOWNNAME":"南區","LI":"喜東里","LIN":"8鄰","STREET":"喜樹路","SECT":" ","MAREA":" ","LANE":"１５１巷","ALLEY":"５９弄","HOUSE_NO":"２７號","E_COORD97":165971.10000000001,"N_COORD97":2538060.79,"ADDRESS":"喜樹路１５１巷５９弄２７號","OBJECTID":36313},"geometry":{"x":165971.0999999987,"y":2538060.7899999972}},{"attributes":{"ID":36314,"DIS_CODE":0,"TOWNNAME":"南區","LI":"喜東里","LIN":"8鄰","STREET":"喜樹路","SECT":" ","MAREA":" ","LANE":"１５１巷","ALLEY":"５９弄","HOUSE_NO":"２８號","E_COORD97":165993.10999999999,"N_COORD97":2538059.4700000002,"ADDRESS":"喜樹路１５１巷５９弄２８號","OBJECTID":36314},"geometry":{"x":165993.11000000034,"y":2538059.4700000025}},{"attributes":{"ID":36315,"DIS_CODE":0,"TOWNNAME":"西港區","LI":"竹林里","LIN":"7鄰","STREET":" ","SECT":" ","MAREA":"大竹林","LANE":" ","ALLEY":" ","HOUSE_NO":"５６號之２０","E_COORD97":166735.89000000001,"N_COORD97":2558674.8199999998,"ADDRESS":"大竹林５６號之２０","OBJECTID":36315},"geometry":{"x":166735.8900000006,"y":2558674.8200000003}},{"attributes":{"ID":36316,"DIS_CODE":0,"TOWNNAME":"西港區","LI":"竹林里","LIN":"7鄰","STREET":" ","SECT":" ","MAREA":"大竹林","LANE":" ","ALLEY":" ","HOUSE_NO":"５６號之２３","E_COORD97":166522,"N_COORD97":2558675.2400000002,"ADDRESS":"大竹林５６號之２３","OBJECTID":36316},"geometry":{"x":166522.00000000093,"y":2558675.2400000002}},{"attributes":{"ID":36317,"DIS_CODE":0,"TOWNNAME":"西港區","LI":"竹林里","LIN":"7鄰","STREET":" ","SECT":" ","MAREA":"大竹林","LANE":" ","ALLEY":" ","HOUSE_NO":"５６之２７號","E_COORD97":166796.66,"N_COORD97":2558849.6000000001,"ADDRESS":"大竹林５６之２７號","OBJECTID":36317},"geometry":{"x":166796.66000000015,"y":2558849.6000000015}},{"attributes":{"ID":36318,"DIS_CODE":0,"TOWNNAME":"西港區","LI":"竹林里","LIN":"7鄰","STREET":" ","SECT":" ","MAREA":"大竹林","LANE":" ","ALLEY":" ","HOUSE_NO":"５６號之２","E_COORD97":166700.01999999999,"N_COORD97":2558460.1899999999,"ADDRESS":"大竹林５６號之２","OBJECTID":36318},"geometry":{"x":166700.01999999955,"y":2558460.1900000013}},{"attributes":{"ID":36319,"DIS_CODE":0,"TOWNNAME":"西港區","LI":"竹林里","LIN":"7鄰","STREET":" ","SECT":" ","MAREA":"大竹林","LANE":" ","ALLEY":" ","HOUSE_NO":"５６號之５","E_COORD97":166559.84,"N_COORD97":2558483.48,"ADDRESS":"大竹林５６號之５","OBJECTID":36319},"geometry":{"x":166559.84000000171,"y":2558483.4800000004}},{"attributes":{"ID":36320,"DIS_CODE":0,"TOWNNAME":"西港區","LI":"竹林里","LIN":"7鄰","STREET":" ","SECT":" ","MAREA":"大竹林","LANE":" ","ALLEY":" ","HOUSE_NO":"５６之６號","E_COORD97":166660.97,"N_COORD97":2558451.3399999999,"ADDRESS":"大竹林５６之６號","OBJECTID":36320},"geometry":{"x":166660.97000000067,"y":2558451.3400000036}},{"attributes":{"ID":36321,"DIS_CODE":0,"TOWNNAME":"西港區","LI":"竹林里","LIN":"7鄰","STREET":" ","SECT":" ","MAREA":"大竹林","LANE":" ","ALLEY":" ","HOUSE_NO":"５６之７號","E_COORD97":166896.20999999999,"N_COORD97":2558421.4199999999,"ADDRESS":"大竹林５６之７號","OBJECTID":36321},"geometry":{"x":166896.20999999996,"y":2558421.4200000018}},{"attributes":{"ID":36322,"DIS_CODE":0,"TOWNNAME":"西港區","LI":"竹林里","LIN":"7鄰","STREET":" ","SECT":" ","MAREA":"大竹林","LANE":" ","ALLEY":" ","HOUSE_NO":"５６之９號","E_COORD97":166919.10000000001,"N_COORD97":2558347.52,"ADDRESS":"大竹林５６之９號","OBJECTID":36322},"geometry":{"x":166919.10000000056,"y":2558347.5199999996}},{"attributes":{"ID":36323,"DIS_CODE":0,"TOWNNAME":"西港區","LI":"竹林里","LIN":"7鄰","STREET":" ","SECT":" ","MAREA":"大竹林","LANE":" ","ALLEY":" ","HOUSE_NO":"５６號","E_COORD97":166678.92000000001,"N_COORD97":2558292.7599999998,"ADDRESS":"大竹林５６號","OBJECTID":36323},"geometry":{"x":166678.91999999993,"y":2558292.7600000016}},{"attributes":{"ID":36324,"DIS_CODE":0,"TOWNNAME":"西港區","LI":"竹林里","LIN":"7鄰","STREET":" ","SECT":" ","MAREA":"大竹林","LANE":" ","ALLEY":" ","HOUSE_NO":"５７之１０號","E_COORD97":166713,"N_COORD97":2558238.8100000001,"ADDRESS":"大竹林５７之１０號","OBJECTID":36324},"geometry":{"x":166713.00000000186,"y":2558238.8100000042}},{"attributes":{"ID":36325,"DIS_CODE":0,"TOWNNAME":"西港區","LI":"竹林里","LIN":"7鄰","STREET":" ","SECT":" ","MAREA":"大竹林","LANE":" ","ALLEY":" ","HOUSE_NO":"５７號之１","E_COORD97":166710.91,"N_COORD97":2558216.0499999998,"ADDRESS":"大竹林５７號之１","OBJECTID":36325},"geometry":{"x":166710.91000000108,"y":2558216.0500000007}},{"attributes":{"ID":36326,"DIS_CODE":0,"TOWNNAME":"西港區","LI":"竹林里","LIN":"7鄰","STREET":" ","SECT":" ","MAREA":"大竹林","LANE":" ","ALLEY":" ","HOUSE_NO":"５７號之２","E_COORD97":166711.89000000001,"N_COORD97":2558266.9900000002,"ADDRESS":"大竹林５７號之２","OBJECTID":36326},"geometry":{"x":166711.89000000153,"y":2558266.9900000002}},{"attributes":{"ID":36327,"DIS_CODE":0,"TOWNNAME":"西港區","LI":"竹林里","LIN":"7鄰","STREET":" ","SECT":" ","MAREA":"大竹林","LANE":" ","ALLEY":" ","HOUSE_NO":"５７號之３","E_COORD97":166682.45999999999,"N_COORD97":2558256.46,"ADDRESS":"大竹林５７號之３","OBJECTID":36327},"geometry":{"x":166682.45999999996,"y":2558256.4600000028}},{"attributes":{"ID":36328,"DIS_CODE":0,"TOWNNAME":"西港區","LI":"竹林里","LIN":"7鄰","STREET":" ","SECT":" ","MAREA":"大竹林","LANE":" ","ALLEY":" ","HOUSE_NO":"５７號之６","E_COORD97":166689.84,"N_COORD97":2558220.75,"ADDRESS":"大竹林５７號之６","OBJECTID":36328},"geometry":{"x":166689.83999999985,"y":2558220.75}},{"attributes":{"ID":36329,"DIS_CODE":0,"TOWNNAME":"西港區","LI":"竹林里","LIN":"7鄰","STREET":" ","SECT":" ","MAREA":"大竹林","LANE":" ","ALLEY":" ","HOUSE_NO":"５７號之８","E_COORD97":166708.48000000001,"N_COORD97":2558291.3199999998,"ADDRESS":"大竹林５７號之８","OBJECTID":36329},"geometry":{"x":166708.47999999952,"y":2558291.3200000003}},{"attributes":{"ID":36330,"DIS_CODE":0,"TOWNNAME":"西港區","LI":"竹林里","LIN":"7鄰","STREET":" ","SECT":" ","MAREA":"大竹林","LANE":" ","ALLEY":" ","HOUSE_NO":"５７號之９","E_COORD97":166753.85999999999,"N_COORD97":2558270.7400000002,"ADDRESS":"大竹林５７號之９","OBJECTID":36330},"geometry":{"x":166753.86000000127,"y":2558270.7400000021}},{"attributes":{"ID":36331,"DIS_CODE":0,"TOWNNAME":"南區","LI":"喜東里","LIN":"8鄰","STREET":"喜樹路","SECT":" ","MAREA":" ","LANE":"１５１巷","ALLEY":"５９弄","HOUSE_NO":"２９號","E_COORD97":165971.10000000001,"N_COORD97":2538065.6099999999,"ADDRESS":"喜樹路１５１巷５９弄２９號","OBJECTID":36331},"geometry":{"x":165971.0999999987,"y":2538065.6099999994}},{"attributes":{"ID":36332,"DIS_CODE":0,"TOWNNAME":"南區","LI":"喜東里","LIN":"8鄰","STREET":"喜樹路","SECT":" ","MAREA":" ","LANE":"１５１巷","ALLEY":"５９弄","HOUSE_NO":"２號","E_COORD97":165988.67999999999,"N_COORD97":2537999.9700000002,"ADDRESS":"喜樹路１５１巷５９弄２號","OBJECTID":36332},"geometry":{"x":165988.6799999997,"y":2537999.9700000007}},{"attributes":{"ID":36333,"DIS_CODE":0,"TOWNNAME":"南區","LI":"喜東里","LIN":"8鄰","STREET":"喜樹路","SECT":" ","MAREA":" ","LANE":"１５１巷","ALLEY":"５９弄","HOUSE_NO":"３０號","E_COORD97":165993.51999999999,"N_COORD97":2538064.8100000001,"ADDRESS":"喜樹路１５１巷５９弄３０號","OBJECTID":36333},"geometry":{"x":165993.51999999955,"y":2538064.8100000005}},{"attributes":{"ID":36334,"DIS_CODE":0,"TOWNNAME":"南區","LI":"喜東里","LIN":"8鄰","STREET":"喜樹路","SECT":" ","MAREA":" ","LANE":"１５１巷","ALLEY":"５９弄","HOUSE_NO":"３１號","E_COORD97":165970.98999999999,"N_COORD97":2538069.8300000001,"ADDRESS":"喜樹路１５１巷５９弄３１號","OBJECTID":36334},"geometry":{"x":165970.99000000209,"y":2538069.8300000019}},{"attributes":{"ID":36335,"DIS_CODE":0,"TOWNNAME":"南區","LI":"喜東里","LIN":"8鄰","STREET":"喜樹路","SECT":" ","MAREA":" ","LANE":"１５１巷","ALLEY":"５９弄","HOUSE_NO":"３２號","E_COORD97":165993.31,"N_COORD97":2538069.1200000001,"ADDRESS":"喜樹路１５１巷５９弄３２號","OBJECTID":36335},"geometry":{"x":165993.30999999959,"y":2538069.1200000029}},{"attributes":{"ID":36336,"DIS_CODE":0,"TOWNNAME":"南區","LI":"喜東里","LIN":"8鄰","STREET":"喜樹路","SECT":" ","MAREA":" ","LANE":"１５１巷","ALLEY":"５９弄","HOUSE_NO":"３３號","E_COORD97":165971.29999999999,"N_COORD97":2538074.6499999999,"ADDRESS":"喜樹路１５１巷５９弄３３號","OBJECTID":36336},"geometry":{"x":165971.29999999981,"y":2538074.6500000022}},{"attributes":{"ID":36337,"DIS_CODE":0,"TOWNNAME":"六甲區","LI":"甲東里","LIN":"8鄰","STREET":"四維街","SECT":" ","MAREA":" ","LANE":" ","ALLEY":" ","HOUSE_NO":"２１號","E_COORD97":183954.92999999999,"N_COORD97":2570192.4500000002,"ADDRESS":"四維街２１號","OBJECTID":36337},"geometry":{"x":183954.93000000156,"y":2570192.4499999993}},{"attributes":{"ID":36338,"DIS_CODE":0,"TOWNNAME":"西港區","LI":"竹林里","LIN":"7鄰","STREET":" ","SECT":" ","MAREA":"大竹林","LANE":" ","ALLEY":" ","HOUSE_NO":"５７號","E_COORD97":166691.85999999999,"N_COORD97":2558239.9900000002,"ADDRESS":"大竹林５７號","OBJECTID":36338},"geometry":{"x":166691.86000000034,"y":2558239.9900000002}},{"attributes":{"ID":36339,"DIS_CODE":0,"TOWNNAME":"西港區","LI":"竹林里","LIN":"7鄰","STREET":" ","SECT":" ","MAREA":"大竹林","LANE":" ","ALLEY":" ","HOUSE_NO":"５８號","E_COORD97":166740.23000000001,"N_COORD97":2558175.5099999998,"ADDRESS":"大竹林５８號","OBJECTID":36339},"geometry":{"x":166740.23000000045,"y":2558175.5100000035}},{"attributes":{"ID":36340,"DIS_CODE":0,"TOWNNAME":"西港區","LI":"竹林里","LIN":"7鄰","STREET":" ","SECT":" ","MAREA":"大竹林","LANE":" ","ALLEY":" ","HOUSE_NO":"５９號","E_COORD97":166735.73000000001,"N_COORD97":2558193.5899999999,"ADDRESS":"大竹林５９號","OBJECTID":36340},"geometry":{"x":166735.73000000231,"y":2558193.5899999999}},{"attributes":{"ID":36341,"DIS_CODE":0,"TOWNNAME":"西港區","LI":"竹林里","LIN":"7鄰","STREET":" ","SECT":" ","MAREA":"大竹林","LANE":" ","ALLEY":" ","HOUSE_NO":"６０號","E_COORD97":166756.82999999999,"N_COORD97":2558177.8199999998,"ADDRESS":"大竹林６０號","OBJECTID":36341},"geometry":{"x":166756.83000000101,"y":2558177.8200000022}},{"attributes":{"ID":36342,"DIS_CODE":0,"TOWNNAME":"西港區","LI":"竹林里","LIN":"7鄰","STREET":" ","SECT":" ","MAREA":"大竹林","LANE":" ","ALLEY":" ","HOUSE_NO":"６１號","E_COORD97":166776.04999999999,"N_COORD97":2558170.75,"ADDRESS":"大竹林６１號","OBJECTID":36342},"geometry":{"x":166776.05000000075,"y":2558170.7500000037}},{"attributes":{"ID":36343,"DIS_CODE":0,"TOWNNAME":"南區","LI":"喜東里","LIN":"8鄰","STREET":"喜樹路","SECT":" ","MAREA":" ","LANE":"１５１巷","ALLEY":"５９弄","HOUSE_NO":"３４號","E_COORD97":165993.41,"N_COORD97":2538073.6400000001,"ADDRESS":"喜樹路１５１巷５９弄３４號","OBJECTID":36343},"geometry":{"x":165993.41000000201,"y":2538073.6399999987}},{"attributes":{"ID":36344,"DIS_CODE":0,"TOWNNAME":"南區","LI":"喜東里","LIN":"8鄰","STREET":"喜樹路","SECT":" ","MAREA":" ","LANE":"１５１巷","ALLEY":"５９弄","HOUSE_NO":"３５號","E_COORD97":165971.41,"N_COORD97":2538079.3799999999,"ADDRESS":"喜樹路１５１巷５９弄３５號","OBJECTID":36344},"geometry":{"x":165971.41000000201,"y":2538079.379999999}},{"attributes":{"ID":36345,"DIS_CODE":0,"TOWNNAME":"南區","LI":"喜東里","LIN":"8鄰","STREET":"喜樹路","SECT":" ","MAREA":" ","LANE":"１５１巷","ALLEY":"５９弄","HOUSE_NO":"３６號","E_COORD97":165993.62,"N_COORD97":2538079.1899999999,"ADDRESS":"喜樹路１５１巷５９弄３６號","OBJECTID":36345},"geometry":{"x":165993.62000000197,"y":2538079.1900000032}},{"attributes":{"ID":36346,"DIS_CODE":0,"TOWNNAME":"西港區","LI":"竹林里","LIN":"7鄰","STREET":" ","SECT":" ","MAREA":"大竹林","LANE":" ","ALLEY":" ","HOUSE_NO":"６２號","E_COORD97":166786.92000000001,"N_COORD97":2558160.0800000001,"ADDRESS":"大竹林６２號","OBJECTID":36346},"geometry":{"x":166786.92000000086,"y":2558160.0800000001}},{"attributes":{"ID":36347,"DIS_CODE":0,"TOWNNAME":"西港區","LI":"竹林里","LIN":"7鄰","STREET":" ","SECT":" ","MAREA":"大竹林","LANE":" ","ALLEY":" ","HOUSE_NO":"６４號之１","E_COORD97":166815.39999999999,"N_COORD97":2558204.6899999999,"ADDRESS":"大竹林６４號之１","OBJECTID":36347},"geometry":{"x":166815.40000000037,"y":2558204.6900000013}},{"attributes":{"ID":36348,"DIS_CODE":0,"TOWNNAME":"西港區","LI":"竹林里","LIN":"7鄰","STREET":" ","SECT":" ","MAREA":"大竹林","LANE":" ","ALLEY":" ","HOUSE_NO":"６４之２號","E_COORD97":166815.20999999999,"N_COORD97":2558233.5800000001,"ADDRESS":"大竹林６４之２號","OBJECTID":36348},"geometry":{"x":166815.21000000089,"y":2558233.5800000019}},{"attributes":{"ID":36349,"DIS_CODE":0,"TOWNNAME":"南區","LI":"喜東里","LIN":"8鄰","STREET":"喜樹路","SECT":" ","MAREA":" ","LANE":"１５１巷","ALLEY":"５９弄","HOUSE_NO":"３７號","E_COORD97":165971.20000000001,"N_COORD97":2538084.3100000001,"ADDRESS":"喜樹路１５１巷５９弄３７號","OBJECTID":36349},"geometry":{"x":165971.20000000205,"y":2538084.3100000024}},{"attributes":{"ID":36350,"DIS_CODE":0,"TOWNNAME":"南區","LI":"喜東里","LIN":"8鄰","STREET":"喜樹路","SECT":" ","MAREA":" ","LANE":"１５１巷","ALLEY":"５９弄","HOUSE_NO":"３８號","E_COORD97":166004.01000000001,"N_COORD97":2538080.6299999999,"ADDRESS":"喜樹路１５１巷５９弄３８號","OBJECTID":36350},"geometry":{"x":166004.00999999978,"y":2538080.629999999}},{"attributes":{"ID":36351,"DIS_CODE":0,"TOWNNAME":"南區","LI":"喜東里","LIN":"8鄰","STREET":"喜樹路","SECT":" ","MAREA":" ","LANE":"１５１巷","ALLEY":"５９弄","HOUSE_NO":"３號","E_COORD97":165967.5,"N_COORD97":2538005.8500000001,"ADDRESS":"喜樹路１５１巷５９弄３號","OBJECTID":36351},"geometry":{"x":165967.50000000093,"y":2538005.8499999996}},{"attributes":{"ID":36352,"DIS_CODE":0,"TOWNNAME":"南區","LI":"喜東里","LIN":"8鄰","STREET":"喜樹路","SECT":" ","MAREA":" ","LANE":"１５１巷","ALLEY":"５９弄","HOUSE_NO":"４號","E_COORD97":165989.51000000001,"N_COORD97":2538003.6699999999,"ADDRESS":"喜樹路１５１巷５９弄４號","OBJECTID":36352},"geometry":{"x":165989.51000000071,"y":2538003.6699999999}},{"attributes":{"ID":36353,"DIS_CODE":0,"TOWNNAME":"南區","LI":"喜東里","LIN":"8鄰","STREET":"喜樹路","SECT":" ","MAREA":" ","LANE":"１５１巷","ALLEY":"５９弄","HOUSE_NO":"５號","E_COORD97":165967.81,"N_COORD97":2538010.2599999998,"ADDRESS":"喜樹路１５１巷５９弄５號","OBJECTID":36353},"geometry":{"x":165967.80999999959,"y":2538010.2599999998}},{"attributes":{"ID":36354,"DIS_CODE":0,"TOWNNAME":"南區","LI":"喜東里","LIN":"8鄰","STREET":"喜樹路","SECT":" ","MAREA":" ","LANE":"１５１巷","ALLEY":"５９弄","HOUSE_NO":"６號","E_COORD97":165989.70999999999,"N_COORD97":2538008.3399999999,"ADDRESS":"喜樹路１５１巷５９弄６號","OBJECTID":36354},"geometry":{"x":165989.71000000089,"y":2538008.3400000017}},{"attributes":{"ID":36355,"DIS_CODE":0,"TOWNNAME":"南區","LI":"喜東里","LIN":"8鄰","STREET":"喜樹路","SECT":" ","MAREA":" ","LANE":"１５１巷","ALLEY":"５９弄","HOUSE_NO":"７號","E_COORD97":165967.81,"N_COORD97":2538014.4700000002,"ADDRESS":"喜樹路１５１巷５９弄７號","OBJECTID":36355},"geometry":{"x":165967.80999999959,"y":2538014.4700000025}},{"attributes":{"ID":36356,"DIS_CODE":0,"TOWNNAME":"南區","LI":"喜東里","LIN":"8鄰","STREET":"喜樹路","SECT":" ","MAREA":" ","LANE":"１５１巷","ALLEY":"５９弄","HOUSE_NO":"８號","E_COORD97":165990.01999999999,"N_COORD97":2538013.4700000002,"ADDRESS":"喜樹路１５１巷５９弄８號","OBJECTID":36356},"geometry":{"x":165990.01999999955,"y":2538013.4700000007}},{"attributes":{"ID":36357,"DIS_CODE":0,"TOWNNAME":"南區","LI":"喜東里","LIN":"8鄰","STREET":"喜樹路","SECT":" ","MAREA":" ","LANE":"１５１巷","ALLEY":"５９弄","HOUSE_NO":"９號","E_COORD97":165967.60000000001,"N_COORD97":2538019.2000000002,"ADDRESS":"喜樹路１５１巷５９弄９號","OBJECTID":36357},"geometry":{"x":165967.59999999963,"y":2538019.2000000011}},{"attributes":{"ID":36358,"DIS_CODE":0,"TOWNNAME":"永康區","LI":"神洲里","LIN":"8鄰","STREET":"忠孝路","SECT":" ","MAREA":" ","LANE":"６巷","ALLEY":"１９弄","HOUSE_NO":"３號","E_COORD97":172209.62,"N_COORD97":2544590.5,"ADDRESS":"忠孝路６巷１９弄３號","OBJECTID":36358},"geometry":{"x":172209.62000000011,"y":2544590.5000000037}},{"attributes":{"ID":36359,"DIS_CODE":0,"TOWNNAME":"永康區","LI":"神洲里","LIN":"8鄰","STREET":"忠孝路","SECT":" ","MAREA":" ","LANE":"６巷","ALLEY":"２５弄","HOUSE_NO":"１０號","E_COORD97":172254.06,"N_COORD97":2544592.2400000002,"ADDRESS":"忠孝路６巷２５弄１０號","OBJECTID":36359},"geometry":{"x":172254.06000000052,"y":2544592.2399999984}},{"attributes":{"ID":36360,"DIS_CODE":0,"TOWNNAME":"麻豆區","LI":"東角里","LIN":"14鄰","STREET":"同仁街","SECT":" ","MAREA":" ","LANE":" ","ALLEY":" ","HOUSE_NO":"１０號之１","E_COORD97":173780.13,"N_COORD97":2564666.8399999999,"ADDRESS":"同仁街１０號之１","OBJECTID":36360},"geometry":{"x":173780.13000000082,"y":2564666.8400000017}},{"attributes":{"ID":36361,"DIS_CODE":0,"TOWNNAME":"西港區","LI":"竹林里","LIN":"7鄰","STREET":" ","SECT":" ","MAREA":"大竹林","LANE":" ","ALLEY":" ","HOUSE_NO":"６４號","E_COORD97":166816.29999999999,"N_COORD97":2558172.1499999999,"ADDRESS":"大竹林６４號","OBJECTID":36361},"geometry":{"x":166816.30000000075,"y":2558172.1500000022}},{"attributes":{"ID":36362,"DIS_CODE":0,"TOWNNAME":"新化區","LI":"山\u25A0里","LIN":"7鄰","STREET":" ","SECT":" ","MAREA":"頂山\u25A0","LANE":" ","ALLEY":" ","HOUSE_NO":"１４８號","E_COORD97":179744.13,"N_COORD97":2546755.25,"ADDRESS":"頂山\u25A0１４８號","OBJECTID":36362},"geometry":{"x":179744.12999999989,"y":2546755.2500000037}},{"attributes":{"ID":36363,"DIS_CODE":0,"TOWNNAME":"新化區","LI":"山\u25A0里","LIN":"7鄰","STREET":" ","SECT":" ","MAREA":"頂山\u25A0","LANE":" ","ALLEY":" ","HOUSE_NO":"１３號","E_COORD97":179664.78,"N_COORD97":2546801.25,"ADDRESS":"頂山\u25A0１３號","OBJECTID":36363},"geometry":{"x":179664.78000000119,"y":2546801.25}},{"attributes":{"ID":36364,"DIS_CODE":0,"TOWNNAME":"麻豆區","LI":"東角里","LIN":"14鄰","STREET":"同仁街","SECT":" ","MAREA":" ","LANE":" ","ALLEY":" ","HOUSE_NO":"１０號之２","E_COORD97":173780.37,"N_COORD97":2564662.9199999999,"ADDRESS":"同仁街１０號之２","OBJECTID":36364},"geometry":{"x":173780.37000000104,"y":2564662.9200000018}},{"attributes":{"ID":36365,"DIS_CODE":0,"TOWNNAME":"麻豆區","LI":"東角里","LIN":"14鄰","STREET":"同仁街","SECT":" ","MAREA":" ","LANE":" ","ALLEY":" ","HOUSE_NO":"１０號之３","E_COORD97":173780.87,"N_COORD97":2564658.73,"ADDRESS":"同仁街１０號之３","OBJECTID":36365},"geometry":{"x":173780.87000000011,"y":2564658.7300000004}},{"attributes":{"ID":36366,"DIS_CODE":0,"TOWNNAME":"西港區","LI":"營西里","LIN":"7鄰","STREET":" ","SECT":" ","MAREA":"後營","LANE":" ","ALLEY":" ","HOUSE_NO":"６６號","E_COORD97":169617.31,"N_COORD97":2560268.3999999999,"ADDRESS":"後營６６號","OBJECTID":36366},"geometry":{"x":169617.30999999959,"y":2560268.3999999985}},{"attributes":{"ID":36367,"DIS_CODE":0,"TOWNNAME":"安定區","LI":"安加里","LIN":"7鄰","STREET":" ","SECT":" ","MAREA":"安定","LANE":" ","ALLEY":" ","HOUSE_NO":"２１７號之５","E_COORD97":171757.33400800001,"N_COORD97":2557458.14029,"ADDRESS":"安定２１７號之５","OBJECTID":36367},"geometry":{"x":171757.33400800172,"y":2557458.1402900014}},{"attributes":{"ID":36368,"DIS_CODE":0,"TOWNNAME":"安定區","LI":"海寮里","LIN":"7鄰","STREET":" ","SECT":" ","MAREA":"海寮","LANE":" ","ALLEY":" ","HOUSE_NO":"６７號之１","E_COORD97":169373.32999999999,"N_COORD97":2555434.2999999998,"ADDRESS":"海寮６７號之１","OBJECTID":36368},"geometry":{"x":169373.33000000007,"y":2555434.3000000007}},{"attributes":{"ID":36369,"DIS_CODE":0,"TOWNNAME":"安定區","LI":"安加里","LIN":"7鄰","STREET":" ","SECT":" ","MAREA":"安定","LANE":" ","ALLEY":" ","HOUSE_NO":"２１９之２號","E_COORD97":171747.98787800001,"N_COORD97":2557420.3313500001,"ADDRESS":"安定２１９之２號","OBJECTID":36369},"geometry":{"x":171747.9878780013,"y":2557420.3313520011}},{"attributes":{"ID":36370,"DIS_CODE":0,"TOWNNAME":"安定區","LI":"安加里","LIN":"7鄰","STREET":" ","SECT":" ","MAREA":"安定","LANE":" ","ALLEY":" ","HOUSE_NO":"２１９號之８","E_COORD97":171798.29999999999,"N_COORD97":2557423.3199999998,"ADDRESS":"安定２１９號之８","OBJECTID":36370},"geometry":{"x":171798.30000000075,"y":2557423.3200000003}},{"attributes":{"ID":36371,"DIS_CODE":0,"TOWNNAME":"安定區","LI":"六嘉里","LIN":"7鄰","STREET":" ","SECT":" ","MAREA":"六塊寮","LANE":" ","ALLEY":" ","HOUSE_NO":"６３之７號","E_COORD97":170178.12,"N_COORD97":2553290.2999999998,"ADDRESS":"六塊寮６３之７號","OBJECTID":36371},"geometry":{"x":170178.12000000104,"y":2553290.3000000026}},{"attributes":{"ID":36372,"DIS_CODE":0,"TOWNNAME":"永康區","LI":"神洲里","LIN":"8鄰","STREET":"忠孝路","SECT":" ","MAREA":" ","LANE":"６巷","ALLEY":"１５弄","HOUSE_NO":"１０號","E_COORD97":172193.73000000001,"N_COORD97":2544628.4900000002,"ADDRESS":"忠孝路６巷１５弄１０號","OBJECTID":36372},"geometry":{"x":172193.73000000045,"y":2544628.4900000021}},{"attributes":{"ID":36373,"DIS_CODE":0,"TOWNNAME":"永康區","LI":"神洲里","LIN":"8鄰","STREET":"忠孝路","SECT":" ","MAREA":" ","LANE":"６巷","ALLEY":"２５弄","HOUSE_NO":"１號","E_COORD97":172235.17000000001,"N_COORD97":2544573.75,"ADDRESS":"忠孝路６巷２５弄１號","OBJECTID":36373},"geometry":{"x":172235.17000000086,"y":2544573.75}},{"attributes":{"ID":36374,"DIS_CODE":0,"TOWNNAME":"永康區","LI":"神洲里","LIN":"8鄰","STREET":"忠孝路","SECT":" ","MAREA":" ","LANE":"６巷","ALLEY":"２５弄","HOUSE_NO":"６號","E_COORD97":172248.10000000001,"N_COORD97":2544581.25,"ADDRESS":"忠孝路６巷２５弄６號","OBJECTID":36374},"geometry":{"x":172248.09999999963,"y":2544581.25}},{"attributes":{"ID":36375,"DIS_CODE":0,"TOWNNAME":"永康區","LI":"神洲里","LIN":"8鄰","STREET":"忠孝路","SECT":" ","MAREA":" ","LANE":"６巷","ALLEY":"１９弄","HOUSE_NO":"４號","E_COORD97":172220.14999999999,"N_COORD97":2544585.75,"ADDRESS":"忠孝路６巷１９弄４號","OBJECTID":36375},"geometry":{"x":172220.15000000224,"y":2544585.7500000019}},{"attributes":{"ID":36376,"DIS_CODE":0,"TOWNNAME":"佳里區","LI":"通興里","LIN":"7鄰","STREET":" ","SECT":" ","MAREA":"埔頂","LANE":" ","ALLEY":" ","HOUSE_NO":"１２號之１","E_COORD97":163604.01000000001,"N_COORD97":2560517.9100000001,"ADDRESS":"埔頂１２號之１","OBJECTID":36376},"geometry":{"x":163604.01000000071,"y":2560517.9100000001}},{"attributes":{"ID":36377,"DIS_CODE":0,"TOWNNAME":"佳里區","LI":"通興里","LIN":"7鄰","STREET":" ","SECT":" ","MAREA":"埔頂","LANE":" ","ALLEY":" ","HOUSE_NO":"１２號之２","E_COORD97":163599.63,"N_COORD97":2560519.6499999999,"ADDRESS":"埔頂１２號之２","OBJECTID":36377},"geometry":{"x":163599.63000000175,"y":2560519.6500000004}},{"attributes":{"ID":36378,"DIS_CODE":0,"TOWNNAME":"佳里區","LI":"通興里","LIN":"7鄰","STREET":" ","SECT":" ","MAREA":"埔頂","LANE":" ","ALLEY":" ","HOUSE_NO":"１２號之５","E_COORD97":163592.64999999999,"N_COORD97":2560538.1499999999,"ADDRESS":"埔頂１２號之５","OBJECTID":36378},"geometry":{"x":163592.65000000037,"y":2560538.1500000041}},{"attributes":{"ID":36379,"DIS_CODE":0,"TOWNNAME":"佳里區","LI":"通興里","LIN":"7鄰","STREET":" ","SECT":" ","MAREA":"埔頂","LANE":" ","ALLEY":" ","HOUSE_NO":"１２號之６","E_COORD97":163586.87,"N_COORD97":2560540.5,"ADDRESS":"埔頂１２號之６","OBJECTID":36379},"geometry":{"x":163586.87000000104,"y":2560540.5}},{"attributes":{"ID":36380,"DIS_CODE":0,"TOWNNAME":"佳里區","LI":"通興里","LIN":"7鄰","STREET":" ","SECT":" ","MAREA":"埔頂","LANE":" ","ALLEY":" ","HOUSE_NO":"１２號","E_COORD97":163616.66,"N_COORD97":2560530.0899999999,"ADDRESS":"埔頂１２號","OBJECTID":36380},"geometry":{"x":163616.66000000201,"y":2560530.0899999999}},{"attributes":{"ID":36381,"DIS_CODE":0,"TOWNNAME":"佳里區","LI":"通興里","LIN":"7鄰","STREET":" ","SECT":" ","MAREA":"埔頂","LANE":" ","ALLEY":" ","HOUSE_NO":"４號之１","E_COORD97":163695.79000000001,"N_COORD97":2560515.8300000001,"ADDRESS":"埔頂４號之１","OBJECTID":36381},"geometry":{"x":163695.79000000097,"y":2560515.8300000001}},{"attributes":{"ID":36382,"DIS_CODE":0,"TOWNNAME":"佳里區","LI":"通興里","LIN":"7鄰","STREET":" ","SECT":" ","MAREA":"埔頂","LANE":" ","ALLEY":" ","HOUSE_NO":"４號之２","E_COORD97":163695.91,"N_COORD97":2560505.1499999999,"ADDRESS":"埔頂４號之２","OBJECTID":36382},"geometry":{"x":163695.91000000015,"y":2560505.1500000022}},{"attributes":{"ID":36383,"DIS_CODE":0,"TOWNNAME":"佳里區","LI":"蚶寮里","LIN":"7鄰","STREET":" ","SECT":" ","MAREA":"蚶寮","LANE":" ","ALLEY":" ","HOUSE_NO":"６７號之５","E_COORD97":163490.85999999999,"N_COORD97":2558775.9900000002,"ADDRESS":"蚶寮６７號之５","OBJECTID":36383},"geometry":{"x":163490.86000000127,"y":2558775.9900000039}},{"attributes":{"ID":36384,"DIS_CODE":0,"TOWNNAME":"佳里區","LI":"蚶寮里","LIN":"7鄰","STREET":" ","SECT":" ","MAREA":"蚶寮","LANE":" ","ALLEY":" ","HOUSE_NO":"６７號之６","E_COORD97":163527.59,"N_COORD97":2558752.3900000001,"ADDRESS":"蚶寮６７號之６","OBJECTID":36384},"geometry":{"x":163527.59000000078,"y":2558752.3900000006}},{"attributes":{"ID":36385,"DIS_CODE":0,"TOWNNAME":"佳里區","LI":"蚶寮里","LIN":"7鄰","STREET":" ","SECT":" ","MAREA":"蚶寮","LANE":" ","ALLEY":" ","HOUSE_NO":"６７號之７","E_COORD97":163440.10000000001,"N_COORD97":2558742.3300000001,"ADDRESS":"蚶寮６７號之７","OBJECTID":36385},"geometry":{"x":163440.09999999963,"y":2558742.3300000001}},{"attributes":{"ID":36386,"DIS_CODE":0,"TOWNNAME":"永康區","LI":"神洲里","LIN":"8鄰","STREET":"忠孝路","SECT":" ","MAREA":" ","LANE":"６巷","ALLEY":"１５弄","HOUSE_NO":"６號","E_COORD97":172196.42000000001,"N_COORD97":2544609.4900000002,"ADDRESS":"忠孝路６巷１５弄６號","OBJECTID":36386},"geometry":{"x":172196.42000000086,"y":2544609.4900000002}},{"attributes":{"ID":36387,"DIS_CODE":0,"TOWNNAME":"永康區","LI":"神洲里","LIN":"8鄰","STREET":"忠孝路","SECT":" ","MAREA":" ","LANE":"６巷","ALLEY":"１９弄","HOUSE_NO":"１０號","E_COORD97":172228.20999999999,"N_COORD97":2544603.3900000001,"ADDRESS":"忠孝路６巷１９弄１０號","OBJECTID":36387},"geometry":{"x":172228.21000000089,"y":2544603.3900000025}},{"attributes":{"ID":36388,"DIS_CODE":0,"TOWNNAME":"佳里區","LI":"頂\u25A0里","LIN":"7鄰","STREET":" ","SECT":" ","MAREA":"頂\u25A0","LANE":" ","ALLEY":" ","HOUSE_NO":"７４號之２","E_COORD97":163077.54999999999,"N_COORD97":2563727.04,"ADDRESS":"頂\u25A0７４號之２","OBJECTID":36388},"geometry":{"x":163077.54999999981,"y":2563727.0399999991}},{"attributes":{"ID":36389,"DIS_CODE":0,"TOWNNAME":"佳里區","LI":"頂\u25A0里","LIN":"7鄰","STREET":" ","SECT":" ","MAREA":"頂\u25A0","LANE":" ","ALLEY":" ","HOUSE_NO":"７４號之３","E_COORD97":163077.22,"N_COORD97":2563731.2599999998,"ADDRESS":"頂\u25A0７４號之３","OBJECTID":36389},"geometry":{"x":163077.22000000067,"y":2563731.2600000016}},{"attributes":{"ID":36390,"DIS_CODE":0,"TOWNNAME":"佳里區","LI":"頂\u25A0里","LIN":"7鄰","STREET":" ","SECT":" ","MAREA":"頂\u25A0","LANE":" ","ALLEY":" ","HOUSE_NO":"７４號","E_COORD97":163078.78,"N_COORD97":2563718.71,"ADDRESS":"頂\u25A0７４號","OBJECTID":36390},"geometry":{"x":163078.78000000212,"y":2563718.7100000046}},{"attributes":{"ID":36391,"DIS_CODE":0,"TOWNNAME":"永康區","LI":"神洲里","LIN":"8鄰","STREET":"忠孝路","SECT":" ","MAREA":" ","LANE":"６巷","ALLEY":"１５弄","HOUSE_NO":"１２號","E_COORD97":172194,"N_COORD97":2544633.4900000002,"ADDRESS":"忠孝路６巷１５弄１２號","OBJECTID":36391},"geometry":{"x":172194.00000000093,"y":2544633.4900000002}},{"attributes":{"ID":36392,"DIS_CODE":0,"TOWNNAME":"佳里區","LI":"頂\u25A0里","LIN":"7鄰","STREET":" ","SECT":" ","MAREA":"頂\u25A0","LANE":" ","ALLEY":" ","HOUSE_NO":"７５號","E_COORD97":163093.98000000001,"N_COORD97":2563710.5800000001,"ADDRESS":"頂\u25A0７５號","OBJECTID":36392},"geometry":{"x":163093.98000000045,"y":2563710.5800000001}},{"attributes":{"ID":36393,"DIS_CODE":0,"TOWNNAME":"佳里區","LI":"頂\u25A0里","LIN":"7鄰","STREET":" ","SECT":" ","MAREA":"頂\u25A0","LANE":" ","ALLEY":" ","HOUSE_NO":"７６號","E_COORD97":163085.20000000001,"N_COORD97":2563712.79,"ADDRESS":"頂\u25A0７６號","OBJECTID":36393},"geometry":{"x":163085.20000000019,"y":2563712.7900000028}},{"attributes":{"ID":36394,"DIS_CODE":0,"TOWNNAME":"永康區","LI":"東橋里","LIN":"8鄰","STREET":"大橋一街","SECT":" ","MAREA":" ","LANE":"３２４巷","ALLEY":"１０５弄","HOUSE_NO":"１４號","E_COORD97":171500.57999999999,"N_COORD97":2546458.79,"ADDRESS":"大橋一街３２４巷１０５弄１４號","OBJECTID":36394},"geometry":{"x":171500.58000000101,"y":2546458.7899999972}},{"attributes":{"ID":36395,"DIS_CODE":0,"TOWNNAME":"佳里區","LI":"頂\u25A0里","LIN":"7鄰","STREET":" ","SECT":" ","MAREA":"頂\u25A0","LANE":" ","ALLEY":" ","HOUSE_NO":"７７號","E_COORD97":163080.59,"N_COORD97":2563712.79,"ADDRESS":"頂\u25A0７７號","OBJECTID":36395},"geometry":{"x":163080.58999999985,"y":2563712.7900000028}},{"attributes":{"ID":36396,"DIS_CODE":0,"TOWNNAME":"佳里區","LI":"頂\u25A0里","LIN":"7鄰","STREET":" ","SECT":" ","MAREA":"頂\u25A0","LANE":" ","ALLEY":" ","HOUSE_NO":"７８號之２","E_COORD97":163104.47,"N_COORD97":2563695.04,"ADDRESS":"頂\u25A0７８號之２","OBJECTID":36396},"geometry":{"x":163104.47000000067,"y":2563695.040000001}},{"attributes":{"ID":36397,"DIS_CODE":0,"TOWNNAME":"佳里區","LI":"頂\u25A0里","LIN":"7鄰","STREET":" ","SECT":" ","MAREA":"頂\u25A0","LANE":" ","ALLEY":" ","HOUSE_NO":"７８號","E_COORD97":163076.51999999999,"N_COORD97":2563712.5600000001,"ADDRESS":"頂\u25A0７８號","OBJECTID":36397},"geometry":{"x":163076.52000000048,"y":2563712.5600000042}},{"attributes":{"ID":36398,"DIS_CODE":0,"TOWNNAME":"佳里區","LI":"頂\u25A0里","LIN":"7鄰","STREET":" ","SECT":" ","MAREA":"頂\u25A0","LANE":" ","ALLEY":" ","HOUSE_NO":"８１號之１","E_COORD97":163081.23000000001,"N_COORD97":2563693.6000000001,"ADDRESS":"頂\u25A0８１號之１","OBJECTID":36398},"geometry":{"x":163081.23000000138,"y":2563693.5999999996}},{"attributes":{"ID":36399,"DIS_CODE":0,"TOWNNAME":"六甲區","LI":"甲東里","LIN":"14鄰","STREET":"忠孝街","SECT":" ","MAREA":" ","LANE":" ","ALLEY":" ","HOUSE_NO":"１６８號","E_COORD97":184005.41,"N_COORD97":2569893.1699999999,"ADDRESS":"忠孝街１６８號","OBJECTID":36399},"geometry":{"x":184005.41000000108,"y":2569893.1700000018}},{"attributes":{"ID":36400,"DIS_CODE":0,"TOWNNAME":"佳里區","LI":"頂\u25A0里","LIN":"7鄰","STREET":" ","SECT":" ","MAREA":"頂\u25A0","LANE":" ","ALLEY":" ","HOUSE_NO":"８２號之１","E_COORD97":163075.51999999999,"N_COORD97":2563693.8399999999,"ADDRESS":"頂\u25A0８２號之１","OBJECTID":36400},"geometry":{"x":163075.51999999955,"y":2563693.8400000017}}]}