{"displayFieldName":"TOWNNAME","fieldAliases":{"ID":"ID","DIS_CODE":"DIS_CODE","TOWNNAME":"TOWNNAME","LI":"LI","LIN":"LIN","STREET":"STREET","SECT":"SECT","MAREA":"MAREA","LANE":"LANE","ALLEY":"ALLEY","HOUSE_NO":"HOUSE_NO","E_COORD97":"E_COORD97","N_COORD97":"N_COORD97","ADDRESS":"ADDRESS","OBJECTID":"OBJECTID"},"geometryType":"esriGeometryPoint","spatialReference":{"wkid":102443,"latestWkid":3826},"fields":[{"name":"ID","type":"esriFieldTypeDouble","alias":"ID"},{"name":"DIS_CODE","type":"esriFieldTypeInteger","alias":"DIS_CODE"},{"name":"TOWNNAME","type":"esriFieldTypeString","alias":"TOWNNAME","length":8},{"name":"LI","type":"esriFieldTypeString","alias":"LI","length":8},{"name":"LIN","type":"esriFieldTypeString","alias":"LIN","length":12},{"name":"STREET","type":"esriFieldTypeString","alias":"STREET","length":20},{"name":"SECT","type":"esriFieldTypeString","alias":"SECT","length":8},{"name":"MAREA","type":"esriFieldTypeString","alias":"MAREA","length":12},{"name":"LANE","type":"esriFieldTypeString","alias":"LANE","length":10},{"name":"ALLEY","type":"esriFieldTypeString","alias":"ALLEY","length":10},{"name":"HOUSE_NO","type":"esriFieldTypeString","alias":"HOUSE_NO","length":20},{"name":"E_COORD97","type":"esriFieldTypeDouble","alias":"E_COORD97"},{"name":"N_COORD97","type":"esriFieldTypeDouble","alias":"N_COORD97"},{"name":"ADDRESS","type":"esriFieldTypeString","alias":"ADDRESS","length":50},{"name":"OBJECTID","type":"esriFieldTypeOID","alias":"OBJECTID"}],"features":[{"attributes":{"ID":579428,"DIS_CODE":0,"TOWNNAME":"安南區","LI":"淵中里","LIN":"16鄰","STREET":"本田路","SECT":"三段","MAREA":" ","LANE":" ","ALLEY":" ","HOUSE_NO":"７２８之１２號","E_COORD97":165053.52423000001,"N_COORD97":2549927.2123699998,"ADDRESS":"本田路三段７２８之１２號","OBJECTID":579401},"geometry":{"x":165053.52422999963,"y":2549927.2123720031}},{"attributes":{"ID":579429,"DIS_CODE":0,"TOWNNAME":"南區","LI":"白雪里","LIN":"16鄰","STREET":"金華路","SECT":"一段","MAREA":" ","LANE":" ","ALLEY":" ","HOUSE_NO":"１５９號","E_COORD97":166917.53,"N_COORD97":2540687.46,"ADDRESS":"金華路一段１５９號","OBJECTID":579402},"geometry":{"x":166917.53000000026,"y":2540687.4600000028}},{"attributes":{"ID":579430,"DIS_CODE":0,"TOWNNAME":"南區","LI":"白雪里","LIN":"16鄰","STREET":"金華路","SECT":"一段","MAREA":" ","LANE":" ","ALLEY":" ","HOUSE_NO":"１６１號","E_COORD97":166917.54999999999,"N_COORD97":2540691.7599999998,"ADDRESS":"金華路一段１６１號","OBJECTID":579403},"geometry":{"x":166917.54999999888,"y":2540691.7599999998}},{"attributes":{"ID":579431,"DIS_CODE":0,"TOWNNAME":"南區","LI":"白雪里","LIN":"16鄰","STREET":"金華路","SECT":"一段","MAREA":" ","LANE":" ","ALLEY":" ","HOUSE_NO":"１６３號","E_COORD97":166915.82000000001,"N_COORD97":2540695.75,"ADDRESS":"金華路一段１６３號","OBJECTID":579404},"geometry":{"x":166915.8200000003,"y":2540695.75}},{"attributes":{"ID":579432,"DIS_CODE":0,"TOWNNAME":"麻豆區","LI":"大埕里","LIN":"12鄰","STREET":"平等路","SECT":" ","MAREA":" ","LANE":" ","ALLEY":" ","HOUSE_NO":"１０號之１１","E_COORD97":173089.14000000001,"N_COORD97":2565135.5299999998,"ADDRESS":"平等路１０號之１１","OBJECTID":579405},"geometry":{"x":173089.14000000153,"y":2565135.5300000012}},{"attributes":{"ID":579433,"DIS_CODE":0,"TOWNNAME":"麻豆區","LI":"大埕里","LIN":"12鄰","STREET":"平等路","SECT":" ","MAREA":" ","LANE":" ","ALLEY":" ","HOUSE_NO":"１０號之１２","E_COORD97":173093.92000000001,"N_COORD97":2565133.9399999999,"ADDRESS":"平等路１０號之１２","OBJECTID":579406},"geometry":{"x":173093.91999999993,"y":2565133.9400000013}},{"attributes":{"ID":579434,"DIS_CODE":0,"TOWNNAME":"麻豆區","LI":"大埕里","LIN":"12鄰","STREET":"平等路","SECT":" ","MAREA":" ","LANE":" ","ALLEY":" ","HOUSE_NO":"１０號之１","E_COORD97":173059.31,"N_COORD97":2565118.1499999999,"ADDRESS":"平等路１０號之１","OBJECTID":579407},"geometry":{"x":173059.31000000052,"y":2565118.1500000004}},{"attributes":{"ID":579435,"DIS_CODE":0,"TOWNNAME":"麻豆區","LI":"大埕里","LIN":"12鄰","STREET":"平等路","SECT":" ","MAREA":" ","LANE":" ","ALLEY":" ","HOUSE_NO":"１０號之２","E_COORD97":173059.70999999999,"N_COORD97":2565122.4199999999,"ADDRESS":"平等路１０號之２","OBJECTID":579408},"geometry":{"x":173059.70999999996,"y":2565122.4199999999}},{"attributes":{"ID":579436,"DIS_CODE":0,"TOWNNAME":"南區","LI":"白雪里","LIN":"16鄰","STREET":"金華路","SECT":"一段","MAREA":" ","LANE":" ","ALLEY":" ","HOUSE_NO":"１６９號","E_COORD97":166919.38,"N_COORD97":2540711.3799999999,"ADDRESS":"金華路一段１６９號","OBJECTID":579409},"geometry":{"x":166919.38000000082,"y":2540711.3799999971}},{"attributes":{"ID":579437,"DIS_CODE":0,"TOWNNAME":"南區","LI":"白雪里","LIN":"16鄰","STREET":"金華路","SECT":"一段","MAREA":" ","LANE":" ","ALLEY":" ","HOUSE_NO":"１７５號","E_COORD97":166923.06,"N_COORD97":2540726.3199999998,"ADDRESS":"金華路一段１７５號","OBJECTID":579410},"geometry":{"x":166923.06000000052,"y":2540726.3200000003}},{"attributes":{"ID":579438,"DIS_CODE":0,"TOWNNAME":"南區","LI":"白雪里","LIN":"16鄰","STREET":"金華路","SECT":"一段","MAREA":" ","LANE":" ","ALLEY":" ","HOUSE_NO":"１７７號","E_COORD97":166923.79999999999,"N_COORD97":2540730.3799999999,"ADDRESS":"金華路一段１７７號","OBJECTID":579411},"geometry":{"x":166923.79999999981,"y":2540730.379999999}},{"attributes":{"ID":579439,"DIS_CODE":0,"TOWNNAME":"南區","LI":"白雪里","LIN":"16鄰","STREET":"金華路","SECT":"一段","MAREA":" ","LANE":" ","ALLEY":" ","HOUSE_NO":"１７９號","E_COORD97":166923.42999999999,"N_COORD97":2540733.7000000002,"ADDRESS":"金華路一段１７９號","OBJECTID":579412},"geometry":{"x":166923.43000000156,"y":2540733.700000003}},{"attributes":{"ID":579440,"DIS_CODE":0,"TOWNNAME":"南區","LI":"白雪里","LIN":"16鄰","STREET":"金華路","SECT":"一段","MAREA":" ","LANE":" ","ALLEY":" ","HOUSE_NO":"１８１號","E_COORD97":166923.06,"N_COORD97":2540742.1800000002,"ADDRESS":"金華路一段１８１號","OBJECTID":579413},"geometry":{"x":166923.06000000052,"y":2540742.1800000016}},{"attributes":{"ID":579441,"DIS_CODE":0,"TOWNNAME":"南區","LI":"白雪里","LIN":"16鄰","STREET":"金華路","SECT":"一段","MAREA":" ","LANE":" ","ALLEY":" ","HOUSE_NO":"１８３號","E_COORD97":166922.44,"N_COORD97":2540747.0299999998,"ADDRESS":"金華路一段１８３號","OBJECTID":579414},"geometry":{"x":166922.44000000227,"y":2540747.0299999993}},{"attributes":{"ID":579442,"DIS_CODE":0,"TOWNNAME":"南區","LI":"白雪里","LIN":"16鄰","STREET":"金華路","SECT":"一段","MAREA":" ","LANE":" ","ALLEY":" ","HOUSE_NO":"１８７號","E_COORD97":166922.44,"N_COORD97":2540756.9300000002,"ADDRESS":"金華路一段１８７號","OBJECTID":579415},"geometry":{"x":166922.44000000227,"y":2540756.9300000016}},{"attributes":{"ID":579443,"DIS_CODE":0,"TOWNNAME":"南區","LI":"白雪里","LIN":"16鄰","STREET":"金華路","SECT":"一段","MAREA":" ","LANE":" ","ALLEY":" ","HOUSE_NO":"１９３號","E_COORD97":166921.76999999999,"N_COORD97":2540766.0699999998,"ADDRESS":"金華路一段１９３號","OBJECTID":579416},"geometry":{"x":166921.77000000048,"y":2540766.070000004}},{"attributes":{"ID":579444,"DIS_CODE":0,"TOWNNAME":"南區","LI":"白雪里","LIN":"16鄰","STREET":"金華路","SECT":"一段","MAREA":" ","LANE":" ","ALLEY":" ","HOUSE_NO":"１９５號","E_COORD97":166928.28,"N_COORD97":2540782.7999999998,"ADDRESS":"金華路一段１９５號","OBJECTID":579417},"geometry":{"x":166928.28000000026,"y":2540782.8000000026}},{"attributes":{"ID":579445,"DIS_CODE":0,"TOWNNAME":"南區","LI":"白雪里","LIN":"16鄰","STREET":"金華路","SECT":"一段","MAREA":" ","LANE":" ","ALLEY":" ","HOUSE_NO":"１９９號","E_COORD97":166928.44,"N_COORD97":2540795.5600000001,"ADDRESS":"金華路一段１９９號","OBJECTID":579418},"geometry":{"x":166928.44000000041,"y":2540795.5600000005}},{"attributes":{"ID":579446,"DIS_CODE":0,"TOWNNAME":"南區","LI":"白雪里","LIN":"16鄰","STREET":"金華路","SECT":"一段","MAREA":" ","LANE":" ","ALLEY":" ","HOUSE_NO":"２０１號","E_COORD97":166930.85999999999,"N_COORD97":2540809.98,"ADDRESS":"金華路一段２０１號","OBJECTID":579419},"geometry":{"x":166930.86000000034,"y":2540809.9800000004}},{"attributes":{"ID":579447,"DIS_CODE":0,"TOWNNAME":"南區","LI":"白雪里","LIN":"16鄰","STREET":"金華路","SECT":"一段","MAREA":" ","LANE":" ","ALLEY":" ","HOUSE_NO":"２２３號","E_COORD97":166938.26999999999,"N_COORD97":2540847.1000000001,"ADDRESS":"金華路一段２２３號","OBJECTID":579420},"geometry":{"x":166938.27000000048,"y":2540847.1000000015}},{"attributes":{"ID":579448,"DIS_CODE":0,"TOWNNAME":"南區","LI":"白雪里","LIN":"16鄰","STREET":"金華路","SECT":"一段","MAREA":" ","LANE":" ","ALLEY":" ","HOUSE_NO":"２２５號","E_COORD97":166939.14999999999,"N_COORD97":2540850.75,"ADDRESS":"金華路一段２２５號","OBJECTID":579421},"geometry":{"x":166939.15000000037,"y":2540850.7500000019}},{"attributes":{"ID":579449,"DIS_CODE":0,"TOWNNAME":"南區","LI":"白雪里","LIN":"16鄰","STREET":"金華路","SECT":"一段","MAREA":" ","LANE":" ","ALLEY":" ","HOUSE_NO":"２２７號","E_COORD97":166937.54000000001,"N_COORD97":2540857.9100000001,"ADDRESS":"金華路一段２２７號","OBJECTID":579422},"geometry":{"x":166937.54000000004,"y":2540857.9100000001}},{"attributes":{"ID":579450,"DIS_CODE":0,"TOWNNAME":"南區","LI":"白雪里","LIN":"16鄰","STREET":"金華路","SECT":"一段","MAREA":" ","LANE":" ","ALLEY":" ","HOUSE_NO":"２３１號","E_COORD97":166935.64000000001,"N_COORD97":2540863.75,"ADDRESS":"金華路一段２３１號","OBJECTID":579423},"geometry":{"x":166935.64000000153,"y":2540863.7500000019}},{"attributes":{"ID":579451,"DIS_CODE":0,"TOWNNAME":"南區","LI":"白雪里","LIN":"16鄰","STREET":"金華路","SECT":"一段","MAREA":" ","LANE":" ","ALLEY":" ","HOUSE_NO":"２３３號","E_COORD97":166936.95999999999,"N_COORD97":2540870.3799999999,"ADDRESS":"金華路一段２３３號","OBJECTID":579424},"geometry":{"x":166936.95999999903,"y":2540870.379999999}},{"attributes":{"ID":579452,"DIS_CODE":0,"TOWNNAME":"南區","LI":"白雪里","LIN":"16鄰","STREET":"金華路","SECT":"一段","MAREA":" ","LANE":" ","ALLEY":" ","HOUSE_NO":"２６１號","E_COORD97":166947.82999999999,"N_COORD97":2540952.23,"ADDRESS":"金華路一段２６１號","OBJECTID":579425},"geometry":{"x":166947.83000000007,"y":2540952.2300000023}},{"attributes":{"ID":579453,"DIS_CODE":0,"TOWNNAME":"東區","LI":"南聖里","LIN":"16鄰","STREET":"裕信一街","SECT":" ","MAREA":" ","LANE":" ","ALLEY":" ","HOUSE_NO":"３７號","E_COORD97":172664.23999999999,"N_COORD97":2543273.1600000001,"ADDRESS":"裕信一街３７號","OBJECTID":579426},"geometry":{"x":172664.24000000115,"y":2543273.1600000001}},{"attributes":{"ID":579454,"DIS_CODE":0,"TOWNNAME":"南區","LI":"府南里","LIN":"16鄰","STREET":"大成路","SECT":"二段","MAREA":" ","LANE":" ","ALLEY":" ","HOUSE_NO":"２２９號","E_COORD97":167111.63,"N_COORD97":2541721.27,"ADDRESS":"大成路二段２２９號","OBJECTID":579427},"geometry":{"x":167111.62999999989,"y":2541721.2700000014}},{"attributes":{"ID":579455,"DIS_CODE":0,"TOWNNAME":"南區","LI":"府南里","LIN":"16鄰","STREET":"大成路","SECT":"二段","MAREA":" ","LANE":" ","ALLEY":" ","HOUSE_NO":"２３１號","E_COORD97":167107.23999999999,"N_COORD97":2541721.3599999999,"ADDRESS":"大成路二段２３１號","OBJECTID":579428},"geometry":{"x":167107.24000000115,"y":2541721.3599999994}},{"attributes":{"ID":579456,"DIS_CODE":0,"TOWNNAME":"南區","LI":"府南里","LIN":"16鄰","STREET":"大成路","SECT":"二段","MAREA":" ","LANE":" ","ALLEY":" ","HOUSE_NO":"２３７號","E_COORD97":167091.16,"N_COORD97":2541721,"ADDRESS":"大成路二段２３７號","OBJECTID":579429},"geometry":{"x":167091.16000000015,"y":2541721}},{"attributes":{"ID":579457,"DIS_CODE":0,"TOWNNAME":"南區","LI":"府南里","LIN":"16鄰","STREET":"大成路","SECT":"二段","MAREA":" ","LANE":" ","ALLEY":" ","HOUSE_NO":"２３９號","E_COORD97":167085.67999999999,"N_COORD97":2541721.1800000002,"ADDRESS":"大成路二段２３９號","OBJECTID":579430},"geometry":{"x":167085.6799999997,"y":2541721.1800000016}},{"attributes":{"ID":579458,"DIS_CODE":0,"TOWNNAME":"南區","LI":"府南里","LIN":"16鄰","STREET":"大成路","SECT":"二段","MAREA":" ","LANE":" ","ALLEY":" ","HOUSE_NO":"２４１號","E_COORD97":167080.56,"N_COORD97":2541722.1800000002,"ADDRESS":"大成路二段２４１號","OBJECTID":579431},"geometry":{"x":167080.56000000052,"y":2541722.1800000016}},{"attributes":{"ID":579459,"DIS_CODE":0,"TOWNNAME":"東區","LI":"德光里","LIN":"16鄰","STREET":"德光街","SECT":" ","MAREA":" ","LANE":" ","ALLEY":" ","HOUSE_NO":"６０號之１","E_COORD97":170241.81,"N_COORD97":2542382.7400000002,"ADDRESS":"德光街６０號之１","OBJECTID":579432},"geometry":{"x":170241.81000000052,"y":2542382.7400000021}},{"attributes":{"ID":579460,"DIS_CODE":0,"TOWNNAME":"東區","LI":"德光里","LIN":"16鄰","STREET":"德光街","SECT":" ","MAREA":" ","LANE":" ","ALLEY":" ","HOUSE_NO":"６０號之２","E_COORD97":170229.92999999999,"N_COORD97":2542368.3100000001,"ADDRESS":"德光街６０號之２","OBJECTID":579433},"geometry":{"x":170229.9299999997,"y":2542368.3100000042}},{"attributes":{"ID":579461,"DIS_CODE":0,"TOWNNAME":"東區","LI":"德光里","LIN":"16鄰","STREET":"德光街","SECT":" ","MAREA":" ","LANE":" ","ALLEY":" ","HOUSE_NO":"６０號之３","E_COORD97":170234.17000000001,"N_COORD97":2542365.0899999999,"ADDRESS":"德光街６０號之３","OBJECTID":579434},"geometry":{"x":170234.16999999993,"y":2542365.0899999999}},{"attributes":{"ID":579462,"DIS_CODE":0,"TOWNNAME":"東區","LI":"關聖里","LIN":"16鄰","STREET":"裕平一街","SECT":" ","MAREA":" ","LANE":" ","ALLEY":" ","HOUSE_NO":"１０１號","E_COORD97":172358.87,"N_COORD97":2542965.6699999999,"ADDRESS":"裕平一街１０１號","OBJECTID":579435},"geometry":{"x":172358.87000000011,"y":2542965.6700000018}},{"attributes":{"ID":579463,"DIS_CODE":0,"TOWNNAME":"東區","LI":"關聖里","LIN":"16鄰","STREET":"裕平一街","SECT":" ","MAREA":" ","LANE":" ","ALLEY":" ","HOUSE_NO":"１０３號","E_COORD97":172354.48999999999,"N_COORD97":2542967.5800000001,"ADDRESS":"裕平一街１０３號","OBJECTID":579436},"geometry":{"x":172354.49000000022,"y":2542967.5800000019}},{"attributes":{"ID":579464,"DIS_CODE":0,"TOWNNAME":"東區","LI":"關聖里","LIN":"16鄰","STREET":"裕平一街","SECT":" ","MAREA":" ","LANE":" ","ALLEY":" ","HOUSE_NO":"１０５號","E_COORD97":172349.28,"N_COORD97":2542965.5299999998,"ADDRESS":"裕平一街１０５號","OBJECTID":579437},"geometry":{"x":172349.28000000026,"y":2542965.5300000031}},{"attributes":{"ID":579465,"DIS_CODE":0,"TOWNNAME":"東區","LI":"關聖里","LIN":"16鄰","STREET":"裕平一街","SECT":" ","MAREA":" ","LANE":" ","ALLEY":" ","HOUSE_NO":"１０７號","E_COORD97":172344.07999999999,"N_COORD97":2542967.5800000001,"ADDRESS":"裕平一街１０７號","OBJECTID":579438},"geometry":{"x":172344.08000000194,"y":2542967.5800000019}},{"attributes":{"ID":579466,"DIS_CODE":0,"TOWNNAME":"東區","LI":"關聖里","LIN":"16鄰","STREET":"裕平一街","SECT":" ","MAREA":" ","LANE":" ","ALLEY":" ","HOUSE_NO":"１０９號","E_COORD97":172337.91,"N_COORD97":2542964.5699999998,"ADDRESS":"裕平一街１０９號","OBJECTID":579439},"geometry":{"x":172337.91000000015,"y":2542964.5700000022}},{"attributes":{"ID":579467,"DIS_CODE":0,"TOWNNAME":"東區","LI":"關聖里","LIN":"16鄰","STREET":"裕平一街","SECT":" ","MAREA":" ","LANE":" ","ALLEY":" ","HOUSE_NO":"１１１號","E_COORD97":172326.67999999999,"N_COORD97":2542963.8900000001,"ADDRESS":"裕平一街１１１號","OBJECTID":579440},"geometry":{"x":172326.68000000063,"y":2542963.8900000006}},{"attributes":{"ID":579468,"DIS_CODE":0,"TOWNNAME":"東區","LI":"關聖里","LIN":"16鄰","STREET":"裕平一街","SECT":" ","MAREA":" ","LANE":" ","ALLEY":" ","HOUSE_NO":"１１３號","E_COORD97":172325.31,"N_COORD97":2542971.6899999999,"ADDRESS":"裕平一街１１３號","OBJECTID":579441},"geometry":{"x":172325.31000000052,"y":2542971.6900000013}},{"attributes":{"ID":579469,"DIS_CODE":0,"TOWNNAME":"東區","LI":"關聖里","LIN":"16鄰","STREET":"裕平一街","SECT":" ","MAREA":" ","LANE":" ","ALLEY":" ","HOUSE_NO":"１１５號","E_COORD97":172326.26999999999,"N_COORD97":2542977.5800000001,"ADDRESS":"裕平一街１１５號","OBJECTID":579442},"geometry":{"x":172326.26999999955,"y":2542977.5800000019}},{"attributes":{"ID":579470,"DIS_CODE":0,"TOWNNAME":"東區","LI":"關聖里","LIN":"16鄰","STREET":"裕平一街","SECT":" ","MAREA":" ","LANE":" ","ALLEY":" ","HOUSE_NO":"１１７號","E_COORD97":172326.26999999999,"N_COORD97":2542984.6899999999,"ADDRESS":"裕平一街１１７號","OBJECTID":579443},"geometry":{"x":172326.26999999955,"y":2542984.6899999976}},{"attributes":{"ID":579471,"DIS_CODE":0,"TOWNNAME":"東區","LI":"關聖里","LIN":"16鄰","STREET":"裕平一街","SECT":" ","MAREA":" ","LANE":" ","ALLEY":" ","HOUSE_NO":"１１９號","E_COORD97":172336.95999999999,"N_COORD97":2542984.6899999999,"ADDRESS":"裕平一街１１９號","OBJECTID":579444},"geometry":{"x":172336.96000000089,"y":2542984.6899999976}},{"attributes":{"ID":579472,"DIS_CODE":0,"TOWNNAME":"東區","LI":"關聖里","LIN":"16鄰","STREET":"裕平一街","SECT":" ","MAREA":" ","LANE":" ","ALLEY":" ","HOUSE_NO":"１２１號","E_COORD97":172343.89000000001,"N_COORD97":2542981.1099999999,"ADDRESS":"裕平一街１２１號","OBJECTID":579445},"geometry":{"x":172343.8900000006,"y":2542981.1099999994}},{"attributes":{"ID":579473,"DIS_CODE":0,"TOWNNAME":"東區","LI":"關聖里","LIN":"16鄰","STREET":"裕平一街","SECT":" ","MAREA":" ","LANE":" ","ALLEY":" ","HOUSE_NO":"１２３號","E_COORD97":172349.32999999999,"N_COORD97":2542984.1099999999,"ADDRESS":"裕平一街１２３號","OBJECTID":579446},"geometry":{"x":172349.33000000101,"y":2542984.1099999994}},{"attributes":{"ID":579474,"DIS_CODE":0,"TOWNNAME":"東區","LI":"關聖里","LIN":"16鄰","STREET":"裕平一街","SECT":" ","MAREA":" ","LANE":" ","ALLEY":" ","HOUSE_NO":"１２５號","E_COORD97":172354.45999999999,"N_COORD97":2542982.4199999999,"ADDRESS":"裕平一街１２５號","OBJECTID":579447},"geometry":{"x":172354.45999999996,"y":2542982.4199999999}},{"attributes":{"ID":579475,"DIS_CODE":0,"TOWNNAME":"東區","LI":"關聖里","LIN":"16鄰","STREET":"裕平一街","SECT":" ","MAREA":" ","LANE":" ","ALLEY":" ","HOUSE_NO":"１２７號","E_COORD97":172358.84,"N_COORD97":2542984.4199999999,"ADDRESS":"裕平一街１２７號","OBJECTID":579448},"geometry":{"x":172358.83999999892,"y":2542984.4200000018}},{"attributes":{"ID":579476,"DIS_CODE":0,"TOWNNAME":"東區","LI":"關聖里","LIN":"16鄰","STREET":"裕平一街","SECT":" ","MAREA":" ","LANE":" ","ALLEY":" ","HOUSE_NO":"１２９號","E_COORD97":172364.16,"N_COORD97":2542981.79,"ADDRESS":"裕平一街１２９號","OBJECTID":579449},"geometry":{"x":172364.16000000108,"y":2542981.790000001}},{"attributes":{"ID":579477,"DIS_CODE":0,"TOWNNAME":"東區","LI":"關聖里","LIN":"16鄰","STREET":"裕平一街","SECT":" ","MAREA":" ","LANE":" ","ALLEY":" ","HOUSE_NO":"１３１號","E_COORD97":172369.67000000001,"N_COORD97":2542984.73,"ADDRESS":"裕平一街１３１號","OBJECTID":579450},"geometry":{"x":172369.66999999993,"y":2542984.7300000004}},{"attributes":{"ID":579478,"DIS_CODE":0,"TOWNNAME":"東區","LI":"關聖里","LIN":"16鄰","STREET":"裕平一街","SECT":" ","MAREA":" ","LANE":" ","ALLEY":" ","HOUSE_NO":"７９號","E_COORD97":172325.72,"N_COORD97":2542951.2999999998,"ADDRESS":"裕平一街７９號","OBJECTID":579451},"geometry":{"x":172325.7200000016,"y":2542951.3000000007}},{"attributes":{"ID":579479,"DIS_CODE":0,"TOWNNAME":"東區","LI":"關聖里","LIN":"16鄰","STREET":"裕平一街","SECT":" ","MAREA":" ","LANE":" ","ALLEY":" ","HOUSE_NO":"８１號","E_COORD97":172326.95999999999,"N_COORD97":2542959.1000000001,"ADDRESS":"裕平一街８１號","OBJECTID":579452},"geometry":{"x":172326.95999999996,"y":2542959.1000000015}},{"attributes":{"ID":579480,"DIS_CODE":0,"TOWNNAME":"東區","LI":"關聖里","LIN":"16鄰","STREET":"裕平一街","SECT":" ","MAREA":" ","LANE":" ","ALLEY":" ","HOUSE_NO":"８３號","E_COORD97":172337.64000000001,"N_COORD97":2542958.4100000001,"ADDRESS":"裕平一街８３號","OBJECTID":579453},"geometry":{"x":172337.63999999966,"y":2542958.410000002}},{"attributes":{"ID":579481,"DIS_CODE":0,"TOWNNAME":"東區","LI":"關聖里","LIN":"16鄰","STREET":"裕平一街","SECT":" ","MAREA":" ","LANE":" ","ALLEY":" ","HOUSE_NO":"８５號","E_COORD97":172344.07999999999,"N_COORD97":2542955.6800000002,"ADDRESS":"裕平一街８５號","OBJECTID":579454},"geometry":{"x":172344.08000000194,"y":2542955.6800000016}},{"attributes":{"ID":579482,"DIS_CODE":0,"TOWNNAME":"東區","LI":"關聖里","LIN":"16鄰","STREET":"裕平一街","SECT":" ","MAREA":" ","LANE":" ","ALLEY":" ","HOUSE_NO":"８７號","E_COORD97":172349.01000000001,"N_COORD97":2542957.73,"ADDRESS":"裕平一街８７號","OBJECTID":579455},"geometry":{"x":172349.00999999978,"y":2542957.7300000004}},{"attributes":{"ID":579483,"DIS_CODE":0,"TOWNNAME":"東區","LI":"關聖里","LIN":"16鄰","STREET":"裕平一街","SECT":" ","MAREA":" ","LANE":" ","ALLEY":" ","HOUSE_NO":"８９號","E_COORD97":172354.07999999999,"N_COORD97":2542955.3999999999,"ADDRESS":"裕平一街８９號","OBJECTID":579456},"geometry":{"x":172354.07999999914,"y":2542955.4000000022}},{"attributes":{"ID":579484,"DIS_CODE":0,"TOWNNAME":"東區","LI":"關聖里","LIN":"16鄰","STREET":"裕平一街","SECT":" ","MAREA":" ","LANE":" ","ALLEY":" ","HOUSE_NO":"９１號","E_COORD97":172359.28,"N_COORD97":2542957.73,"ADDRESS":"裕平一街９１號","OBJECTID":579457},"geometry":{"x":172359.28000000026,"y":2542957.7300000004}},{"attributes":{"ID":579485,"DIS_CODE":0,"TOWNNAME":"東區","LI":"關聖里","LIN":"16鄰","STREET":"裕平一街","SECT":" ","MAREA":" ","LANE":" ","ALLEY":" ","HOUSE_NO":"９３號","E_COORD97":172363.94,"N_COORD97":2542955.6800000002,"ADDRESS":"裕平一街９３號","OBJECTID":579458},"geometry":{"x":172363.94000000227,"y":2542955.6800000016}},{"attributes":{"ID":579486,"DIS_CODE":0,"TOWNNAME":"東區","LI":"關聖里","LIN":"16鄰","STREET":"裕平一街","SECT":" ","MAREA":" ","LANE":" ","ALLEY":" ","HOUSE_NO":"９５號","E_COORD97":172369.14999999999,"N_COORD97":2542957.73,"ADDRESS":"裕平一街９５號","OBJECTID":579459},"geometry":{"x":172369.14999999944,"y":2542957.7300000004}},{"attributes":{"ID":579487,"DIS_CODE":0,"TOWNNAME":"東區","LI":"關聖里","LIN":"16鄰","STREET":"裕平一街","SECT":" ","MAREA":" ","LANE":" ","ALLEY":" ","HOUSE_NO":"９７號","E_COORD97":172368.73999999999,"N_COORD97":2542965.5299999998,"ADDRESS":"裕平一街９７號","OBJECTID":579460},"geometry":{"x":172368.74000000115,"y":2542965.5300000031}},{"attributes":{"ID":579488,"DIS_CODE":0,"TOWNNAME":"東區","LI":"關聖里","LIN":"16鄰","STREET":"裕平一街","SECT":" ","MAREA":" ","LANE":" ","ALLEY":" ","HOUSE_NO":"９９號","E_COORD97":172364.07999999999,"N_COORD97":2542967.5800000001,"ADDRESS":"裕平一街９９號","OBJECTID":579461},"geometry":{"x":172364.08000000007,"y":2542967.5800000019}},{"attributes":{"ID":579489,"DIS_CODE":0,"TOWNNAME":"東區","LI":"南聖里","LIN":"16鄰","STREET":"裕和五街","SECT":" ","MAREA":" ","LANE":" ","ALLEY":" ","HOUSE_NO":"３１號","E_COORD97":172829.23000000001,"N_COORD97":2543269.2400000002,"ADDRESS":"裕和五街３１號","OBJECTID":579462},"geometry":{"x":172829.23000000045,"y":2543269.2400000002}},{"attributes":{"ID":579490,"DIS_CODE":0,"TOWNNAME":"東區","LI":"南聖里","LIN":"16鄰","STREET":"裕信一街","SECT":" ","MAREA":" ","LANE":" ","ALLEY":" ","HOUSE_NO":"１１號","E_COORD97":172653.66,"N_COORD97":2543259.1899999999,"ADDRESS":"裕信一街１１號","OBJECTID":579463},"geometry":{"x":172653.65999999922,"y":2543259.1899999995}},{"attributes":{"ID":579491,"DIS_CODE":0,"TOWNNAME":"東區","LI":"南聖里","LIN":"16鄰","STREET":"裕信一街","SECT":" ","MAREA":" ","LANE":" ","ALLEY":" ","HOUSE_NO":"１３號","E_COORD97":172658.95000000001,"N_COORD97":2543255.7000000002,"ADDRESS":"裕信一街１３號","OBJECTID":579464},"geometry":{"x":172658.95000000112,"y":2543255.6999999974}},{"attributes":{"ID":579492,"DIS_CODE":0,"TOWNNAME":"東區","LI":"南聖里","LIN":"16鄰","STREET":"裕信一街","SECT":" ","MAREA":" ","LANE":" ","ALLEY":" ","HOUSE_NO":"１５號","E_COORD97":172663.64000000001,"N_COORD97":2543259.6899999999,"ADDRESS":"裕信一街１５號","OBJECTID":579465},"geometry":{"x":172663.64000000153,"y":2543259.6900000032}},{"attributes":{"ID":579493,"DIS_CODE":0,"TOWNNAME":"東區","LI":"南聖里","LIN":"16鄰","STREET":"裕信一街","SECT":" ","MAREA":" ","LANE":" ","ALLEY":" ","HOUSE_NO":"１７號","E_COORD97":172668.73999999999,"N_COORD97":2543255.7000000002,"ADDRESS":"裕信一街１７號","OBJECTID":579466},"geometry":{"x":172668.74000000115,"y":2543255.6999999974}},{"attributes":{"ID":579494,"DIS_CODE":0,"TOWNNAME":"東區","LI":"南聖里","LIN":"16鄰","STREET":"裕信一街","SECT":" ","MAREA":" ","LANE":" ","ALLEY":" ","HOUSE_NO":"１９號","E_COORD97":172673.92999999999,"N_COORD97":2543259.1899999999,"ADDRESS":"裕信一街１９號","OBJECTID":579467},"geometry":{"x":172673.93000000063,"y":2543259.1899999995}},{"attributes":{"ID":579495,"DIS_CODE":0,"TOWNNAME":"東區","LI":"南聖里","LIN":"16鄰","STREET":"裕信一街","SECT":" ","MAREA":" ","LANE":" ","ALLEY":" ","HOUSE_NO":"１號","E_COORD97":172624.04999999999,"N_COORD97":2543259.3399999999,"ADDRESS":"裕信一街１號","OBJECTID":579468},"geometry":{"x":172624.05000000075,"y":2543259.3400000017}},{"attributes":{"ID":579496,"DIS_CODE":0,"TOWNNAME":"東區","LI":"南聖里","LIN":"16鄰","STREET":"裕信一街","SECT":" ","MAREA":" ","LANE":" ","ALLEY":" ","HOUSE_NO":"２１號","E_COORD97":172678.92000000001,"N_COORD97":2543255.8900000001,"ADDRESS":"裕信一街２１號","OBJECTID":579469},"geometry":{"x":172678.92000000179,"y":2543255.8900000043}},{"attributes":{"ID":579497,"DIS_CODE":0,"TOWNNAME":"東區","LI":"南聖里","LIN":"16鄰","STREET":"裕信一街","SECT":" ","MAREA":" ","LANE":" ","ALLEY":" ","HOUSE_NO":"２３號","E_COORD97":172683.42000000001,"N_COORD97":2543258.8900000001,"ADDRESS":"裕信一街２３號","OBJECTID":579470},"geometry":{"x":172683.41999999993,"y":2543258.8900000006}},{"attributes":{"ID":579498,"DIS_CODE":0,"TOWNNAME":"東區","LI":"南聖里","LIN":"16鄰","STREET":"裕信一街","SECT":" ","MAREA":" ","LANE":" ","ALLEY":" ","HOUSE_NO":"２５號","E_COORD97":172689.91,"N_COORD97":2543255.8900000001,"ADDRESS":"裕信一街２５號","OBJECTID":579471},"geometry":{"x":172689.91000000108,"y":2543255.8900000043}},{"attributes":{"ID":579499,"DIS_CODE":0,"TOWNNAME":"東區","LI":"南聖里","LIN":"16鄰","STREET":"裕信一街","SECT":" ","MAREA":" ","LANE":" ","ALLEY":" ","HOUSE_NO":"２７號","E_COORD97":172688.70999999999,"N_COORD97":2543270.6600000001,"ADDRESS":"裕信一街２７號","OBJECTID":579472},"geometry":{"x":172688.70999999903,"y":2543270.6600000039}},{"attributes":{"ID":579500,"DIS_CODE":0,"TOWNNAME":"東區","LI":"南聖里","LIN":"16鄰","STREET":"裕信一街","SECT":" ","MAREA":" ","LANE":" ","ALLEY":" ","HOUSE_NO":"２９號","E_COORD97":172683.62,"N_COORD97":2543272.1600000001,"ADDRESS":"裕信一街２９號","OBJECTID":579473},"geometry":{"x":172683.62000000104,"y":2543272.160000002}},{"attributes":{"ID":579501,"DIS_CODE":0,"TOWNNAME":"東區","LI":"南聖里","LIN":"16鄰","STREET":"裕信一街","SECT":" ","MAREA":" ","LANE":" ","ALLEY":" ","HOUSE_NO":"３１號","E_COORD97":172678.92000000001,"N_COORD97":2543269.6699999999,"ADDRESS":"裕信一街３１號","OBJECTID":579474},"geometry":{"x":172678.92000000179,"y":2543269.6699999999}},{"attributes":{"ID":579502,"DIS_CODE":0,"TOWNNAME":"東區","LI":"南聖里","LIN":"16鄰","STREET":"裕信一街","SECT":" ","MAREA":" ","LANE":" ","ALLEY":" ","HOUSE_NO":"３３號","E_COORD97":172673.92999999999,"N_COORD97":2543272.6600000001,"ADDRESS":"裕信一街３３號","OBJECTID":579475},"geometry":{"x":172673.93000000063,"y":2543272.6600000001}},{"attributes":{"ID":579503,"DIS_CODE":0,"TOWNNAME":"東區","LI":"南聖里","LIN":"16鄰","STREET":"裕信一街","SECT":" ","MAREA":" ","LANE":" ","ALLEY":" ","HOUSE_NO":"３５號","E_COORD97":172669.23999999999,"N_COORD97":2543270.6600000001,"ADDRESS":"裕信一街３５號","OBJECTID":579476},"geometry":{"x":172669.24000000115,"y":2543270.6600000039}},{"attributes":{"ID":579504,"DIS_CODE":0,"TOWNNAME":"東區","LI":"南聖里","LIN":"16鄰","STREET":"裕信一街","SECT":" ","MAREA":" ","LANE":" ","ALLEY":" ","HOUSE_NO":"３９號","E_COORD97":172658.95000000001,"N_COORD97":2543270.96,"ADDRESS":"裕信一街３９號","OBJECTID":579477},"geometry":{"x":172658.95000000112,"y":2543270.9600000028}},{"attributes":{"ID":579505,"DIS_CODE":0,"TOWNNAME":"東區","LI":"南聖里","LIN":"16鄰","STREET":"裕信一街","SECT":" ","MAREA":" ","LANE":" ","ALLEY":" ","HOUSE_NO":"３號","E_COORD97":172629.01999999999,"N_COORD97":2543256.2200000002,"ADDRESS":"裕信一街３號","OBJECTID":579478},"geometry":{"x":172629.02000000048,"y":2543256.2200000007}},{"attributes":{"ID":579506,"DIS_CODE":0,"TOWNNAME":"東區","LI":"南聖里","LIN":"16鄰","STREET":"裕信一街","SECT":" ","MAREA":" ","LANE":" ","ALLEY":" ","HOUSE_NO":"４１號","E_COORD97":172654.26000000001,"N_COORD97":2543273.3599999999,"ADDRESS":"裕信一街４１號","OBJECTID":579479},"geometry":{"x":172654.25999999885,"y":2543273.3600000013}},{"attributes":{"ID":579507,"DIS_CODE":0,"TOWNNAME":"東區","LI":"南聖里","LIN":"16鄰","STREET":"裕信一街","SECT":" ","MAREA":" ","LANE":" ","ALLEY":" ","HOUSE_NO":"４３號","E_COORD97":172688.91,"N_COORD97":2543289.8900000001,"ADDRESS":"裕信一街４３號","OBJECTID":579480},"geometry":{"x":172688.91000000015,"y":2543289.8900000043}},{"attributes":{"ID":579508,"DIS_CODE":0,"TOWNNAME":"東區","LI":"南聖里","LIN":"16鄰","STREET":"裕信一街","SECT":" ","MAREA":" ","LANE":" ","ALLEY":" ","HOUSE_NO":"４５號","E_COORD97":172683.60000000001,"N_COORD97":2543292.8399999999,"ADDRESS":"裕信一街４５號","OBJECTID":579481},"geometry":{"x":172683.59999999963,"y":2543292.8400000036}},{"attributes":{"ID":579509,"DIS_CODE":0,"TOWNNAME":"東區","LI":"南聖里","LIN":"16鄰","STREET":"裕信一街","SECT":" ","MAREA":" ","LANE":" ","ALLEY":" ","HOUSE_NO":"４７號","E_COORD97":172678.53,"N_COORD97":2543290.6000000001,"ADDRESS":"裕信一街４７號","OBJECTID":579482},"geometry":{"x":172678.53000000212,"y":2543290.5999999978}},{"attributes":{"ID":579510,"DIS_CODE":0,"TOWNNAME":"東區","LI":"南聖里","LIN":"16鄰","STREET":"裕信一街","SECT":" ","MAREA":" ","LANE":" ","ALLEY":" ","HOUSE_NO":"４９號","E_COORD97":172673.81,"N_COORD97":2543293.4300000002,"ADDRESS":"裕信一街４９號","OBJECTID":579483},"geometry":{"x":172673.80999999959,"y":2543293.4300000016}},{"attributes":{"ID":579511,"DIS_CODE":0,"TOWNNAME":"東區","LI":"南聖里","LIN":"16鄰","STREET":"裕信一街","SECT":" ","MAREA":" ","LANE":" ","ALLEY":" ","HOUSE_NO":"５１號","E_COORD97":172669.20999999999,"N_COORD97":2543289.8900000001,"ADDRESS":"裕信一街５１號","OBJECTID":579484},"geometry":{"x":172669.21000000089,"y":2543289.8900000043}},{"attributes":{"ID":579512,"DIS_CODE":0,"TOWNNAME":"東區","LI":"南聖里","LIN":"16鄰","STREET":"裕信一街","SECT":" ","MAREA":" ","LANE":" ","ALLEY":" ","HOUSE_NO":"５３號","E_COORD97":172663.54999999999,"N_COORD97":2543293.1899999999,"ADDRESS":"裕信一街５３號","OBJECTID":579485},"geometry":{"x":172663.54999999981,"y":2543293.1899999995}},{"attributes":{"ID":579513,"DIS_CODE":0,"TOWNNAME":"東區","LI":"南聖里","LIN":"16鄰","STREET":"裕信一街","SECT":" ","MAREA":" ","LANE":" ","ALLEY":" ","HOUSE_NO":"５５號","E_COORD97":172659.19,"N_COORD97":2543289.8900000001,"ADDRESS":"裕信一街５５號","OBJECTID":579486},"geometry":{"x":172659.19000000134,"y":2543289.8900000043}},{"attributes":{"ID":579514,"DIS_CODE":0,"TOWNNAME":"東區","LI":"南聖里","LIN":"16鄰","STREET":"裕信一街","SECT":" ","MAREA":" ","LANE":" ","ALLEY":" ","HOUSE_NO":"５７號","E_COORD97":172654.47,"N_COORD97":2543292.8399999999,"ADDRESS":"裕信一街５７號","OBJECTID":579487},"geometry":{"x":172654.46999999974,"y":2543292.8400000036}},{"attributes":{"ID":579515,"DIS_CODE":0,"TOWNNAME":"東區","LI":"南聖里","LIN":"16鄰","STREET":"裕信一街","SECT":" ","MAREA":" ","LANE":" ","ALLEY":" ","HOUSE_NO":"５９號","E_COORD97":172689.14000000001,"N_COORD97":2543302.2599999998,"ADDRESS":"裕信一街５９號","OBJECTID":579488},"geometry":{"x":172689.1400000006,"y":2543302.2599999998}},{"attributes":{"ID":579516,"DIS_CODE":0,"TOWNNAME":"東區","LI":"南聖里","LIN":"16鄰","STREET":"裕信一街","SECT":" ","MAREA":" ","LANE":" ","ALLEY":" ","HOUSE_NO":"５號","E_COORD97":172633.34,"N_COORD97":2543258.8799999999,"ADDRESS":"裕信一街５號","OBJECTID":579489},"geometry":{"x":172633.33999999985,"y":2543258.8800000008}},{"attributes":{"ID":579517,"DIS_CODE":0,"TOWNNAME":"東區","LI":"南聖里","LIN":"16鄰","STREET":"裕信一街","SECT":" ","MAREA":" ","LANE":" ","ALLEY":" ","HOUSE_NO":"６１號","E_COORD97":172684.19,"N_COORD97":2543305.4399999999,"ADDRESS":"裕信一街６１號","OBJECTID":579490},"geometry":{"x":172684.19000000041,"y":2543305.4400000032}},{"attributes":{"ID":579518,"DIS_CODE":0,"TOWNNAME":"東區","LI":"南聖里","LIN":"16鄰","STREET":"裕信一街","SECT":" ","MAREA":" ","LANE":" ","ALLEY":" ","HOUSE_NO":"６３號","E_COORD97":172678.88,"N_COORD97":2543302.2599999998,"ADDRESS":"裕信一街６３號","OBJECTID":579491},"geometry":{"x":172678.87999999989,"y":2543302.2599999998}},{"attributes":{"ID":579519,"DIS_CODE":0,"TOWNNAME":"東區","LI":"南聖里","LIN":"16鄰","STREET":"裕信一街","SECT":" ","MAREA":" ","LANE":" ","ALLEY":" ","HOUSE_NO":"６５號","E_COORD97":172674.17000000001,"N_COORD97":2543304.6200000001,"ADDRESS":"裕信一街６５號","OBJECTID":579492},"geometry":{"x":172674.17000000086,"y":2543304.620000001}},{"attributes":{"ID":579520,"DIS_CODE":0,"TOWNNAME":"東區","LI":"南聖里","LIN":"16鄰","STREET":"裕信一街","SECT":" ","MAREA":" ","LANE":" ","ALLEY":" ","HOUSE_NO":"６７號","E_COORD97":172669.20999999999,"N_COORD97":2543303.2000000002,"ADDRESS":"裕信一街６７號","OBJECTID":579493},"geometry":{"x":172669.21000000089,"y":2543303.1999999974}},{"attributes":{"ID":579521,"DIS_CODE":0,"TOWNNAME":"東區","LI":"南聖里","LIN":"16鄰","STREET":"裕信一街","SECT":" ","MAREA":" ","LANE":" ","ALLEY":" ","HOUSE_NO":"６９號","E_COORD97":172664.14000000001,"N_COORD97":2543305.21,"ADDRESS":"裕信一街６９號","OBJECTID":579494},"geometry":{"x":172664.1400000006,"y":2543305.2100000046}},{"attributes":{"ID":579522,"DIS_CODE":0,"TOWNNAME":"東區","LI":"南聖里","LIN":"16鄰","STREET":"裕信一街","SECT":" ","MAREA":" ","LANE":" ","ALLEY":" ","HOUSE_NO":"７１號","E_COORD97":172659.42000000001,"N_COORD97":2543302.6200000001,"ADDRESS":"裕信一街７１號","OBJECTID":579495},"geometry":{"x":172659.41999999993,"y":2543302.6200000048}},{"attributes":{"ID":579523,"DIS_CODE":0,"TOWNNAME":"東區","LI":"南聖里","LIN":"16鄰","STREET":"裕信一街","SECT":" ","MAREA":" ","LANE":" ","ALLEY":" ","HOUSE_NO":"７３號","E_COORD97":172654.47,"N_COORD97":2543304.8500000001,"ADDRESS":"裕信一街７３號","OBJECTID":579496},"geometry":{"x":172654.46999999974,"y":2543304.8499999996}},{"attributes":{"ID":579524,"DIS_CODE":0,"TOWNNAME":"東區","LI":"南聖里","LIN":"16鄰","STREET":"裕信一街","SECT":" ","MAREA":" ","LANE":" ","ALLEY":" ","HOUSE_NO":"７５號","E_COORD97":172688.91,"N_COORD97":2543325.4700000002,"ADDRESS":"裕信一街７５號","OBJECTID":579497},"geometry":{"x":172688.91000000015,"y":2543325.4700000007}},{"attributes":{"ID":579525,"DIS_CODE":0,"TOWNNAME":"東區","LI":"南聖里","LIN":"16鄰","STREET":"裕信一街","SECT":" ","MAREA":" ","LANE":" ","ALLEY":" ","HOUSE_NO":"７７號","E_COORD97":172683.82999999999,"N_COORD97":2543322.5299999998,"ADDRESS":"裕信一街７７號","OBJECTID":579498},"geometry":{"x":172683.83000000101,"y":2543322.5300000012}},{"attributes":{"ID":579526,"DIS_CODE":0,"TOWNNAME":"東區","LI":"南聖里","LIN":"16鄰","STREET":"裕信一街","SECT":" ","MAREA":" ","LANE":" ","ALLEY":" ","HOUSE_NO":"７９號","E_COORD97":172678.88,"N_COORD97":2543327.0099999998,"ADDRESS":"裕信一街７９號","OBJECTID":579499},"geometry":{"x":172678.87999999989,"y":2543327.0100000016}},{"attributes":{"ID":579527,"DIS_CODE":0,"TOWNNAME":"東區","LI":"南聖里","LIN":"16鄰","STREET":"裕信路","SECT":" ","MAREA":" ","LANE":" ","ALLEY":" ","HOUSE_NO":"３５號","E_COORD97":172618.54000000001,"N_COORD97":2543255.6699999999,"ADDRESS":"裕信路３５號","OBJECTID":579500},"geometry":{"x":172618.54000000004,"y":2543255.6699999999}},{"attributes":{"ID":579528,"DIS_CODE":0,"TOWNNAME":"東區","LI":"南聖里","LIN":"16鄰","STREET":"裕義路","SECT":" ","MAREA":" ","LANE":" ","ALLEY":" ","HOUSE_NO":"１１８號","E_COORD97":172863.82000000001,"N_COORD97":2543153.25,"ADDRESS":"裕義路１１８號","OBJECTID":579501},"geometry":{"x":172863.82000000123,"y":2543153.25}},{"attributes":{"ID":579529,"DIS_CODE":0,"TOWNNAME":"東區","LI":"南聖里","LIN":"16鄰","STREET":"裕義路","SECT":" ","MAREA":" ","LANE":" ","ALLEY":" ","HOUSE_NO":"６６號","E_COORD97":172857.95000000001,"N_COORD97":2543271.1499999999,"ADDRESS":"裕義路６６號","OBJECTID":579502},"geometry":{"x":172857.95000000019,"y":2543271.1500000041}},{"attributes":{"ID":579530,"DIS_CODE":0,"TOWNNAME":"東區","LI":"南聖里","LIN":"16鄰","STREET":"裕誠街","SECT":" ","MAREA":" ","LANE":" ","ALLEY":" ","HOUSE_NO":"３６０號","E_COORD97":172730.35000000001,"N_COORD97":2543328.1299999999,"ADDRESS":"裕誠街３６０號","OBJECTID":579503},"geometry":{"x":172730.35000000056,"y":2543328.1300000008}},{"attributes":{"ID":579531,"DIS_CODE":0,"TOWNNAME":"東區","LI":"裕聖里","LIN":"16鄰","STREET":"裕敬路","SECT":" ","MAREA":" ","LANE":" ","ALLEY":" ","HOUSE_NO":"１５２號","E_COORD97":172357.47,"N_COORD97":2542239.1400000001,"ADDRESS":"裕敬路１５２號","OBJECTID":579504},"geometry":{"x":172357.46999999974,"y":2542239.1400000006}},{"attributes":{"ID":579532,"DIS_CODE":0,"TOWNNAME":"東區","LI":"裕聖里","LIN":"16鄰","STREET":"裕敬路","SECT":" ","MAREA":" ","LANE":" ","ALLEY":" ","HOUSE_NO":"１５６號","E_COORD97":172362.72,"N_COORD97":2542238.8300000001,"ADDRESS":"裕敬路１５６號","OBJECTID":579505},"geometry":{"x":172362.71999999974,"y":2542238.8300000038}},{"attributes":{"ID":579533,"DIS_CODE":0,"TOWNNAME":"東區","LI":"裕聖里","LIN":"16鄰","STREET":"裕敬路","SECT":" ","MAREA":" ","LANE":" ","ALLEY":" ","HOUSE_NO":"１５８號","E_COORD97":172367.98000000001,"N_COORD97":2542238.52,"ADDRESS":"裕敬路１５８號","OBJECTID":579506},"geometry":{"x":172367.98000000045,"y":2542238.5200000014}},{"attributes":{"ID":579534,"DIS_CODE":0,"TOWNNAME":"東區","LI":"裕聖里","LIN":"16鄰","STREET":"裕敬路","SECT":" ","MAREA":" ","LANE":" ","ALLEY":" ","HOUSE_NO":"１６０號","E_COORD97":172372.29999999999,"N_COORD97":2542238.6800000002,"ADDRESS":"裕敬路１６０號","OBJECTID":579507},"geometry":{"x":172372.29999999981,"y":2542238.6799999997}},{"attributes":{"ID":579535,"DIS_CODE":0,"TOWNNAME":"東區","LI":"裕聖里","LIN":"16鄰","STREET":"裕敬路","SECT":" ","MAREA":" ","LANE":" ","ALLEY":" ","HOUSE_NO":"１６２號","E_COORD97":172373.39000000001,"N_COORD97":2542226.1600000001,"ADDRESS":"裕敬路１６２號","OBJECTID":579508},"geometry":{"x":172373.38999999966,"y":2542226.1599999983}},{"attributes":{"ID":579536,"DIS_CODE":0,"TOWNNAME":"東區","LI":"裕聖里","LIN":"16鄰","STREET":"裕敬路","SECT":" ","MAREA":" ","LANE":" ","ALLEY":" ","HOUSE_NO":"１６６號","E_COORD97":172368.75,"N_COORD97":2542225.8500000001,"ADDRESS":"裕敬路１６６號","OBJECTID":579509},"geometry":{"x":172368.75000000093,"y":2542225.8500000015}},{"attributes":{"ID":579537,"DIS_CODE":0,"TOWNNAME":"東區","LI":"裕聖里","LIN":"16鄰","STREET":"裕敬路","SECT":" ","MAREA":" ","LANE":" ","ALLEY":" ","HOUSE_NO":"１６８號","E_COORD97":172363.64999999999,"N_COORD97":2542226.3199999998,"ADDRESS":"裕敬路１６８號","OBJECTID":579510},"geometry":{"x":172363.65000000037,"y":2542226.3200000022}},{"attributes":{"ID":579538,"DIS_CODE":0,"TOWNNAME":"東區","LI":"裕聖里","LIN":"16鄰","STREET":"裕敬路","SECT":" ","MAREA":" ","LANE":" ","ALLEY":" ","HOUSE_NO":"１７０號","E_COORD97":172357.47,"N_COORD97":2542226.1600000001,"ADDRESS":"裕敬路１７０號","OBJECTID":579511},"geometry":{"x":172357.46999999974,"y":2542226.1599999983}},{"attributes":{"ID":579539,"DIS_CODE":0,"TOWNNAME":"東區","LI":"裕聖里","LIN":"16鄰","STREET":"裕敬路","SECT":" ","MAREA":" ","LANE":" ","ALLEY":" ","HOUSE_NO":"１７２號","E_COORD97":172357.47,"N_COORD97":2542214.27,"ADDRESS":"裕敬路１７２號","OBJECTID":579512},"geometry":{"x":172357.46999999974,"y":2542214.2699999996}},{"attributes":{"ID":579540,"DIS_CODE":0,"TOWNNAME":"東區","LI":"裕聖里","LIN":"16鄰","STREET":"裕敬路","SECT":" ","MAREA":" ","LANE":" ","ALLEY":" ","HOUSE_NO":"１７６號","E_COORD97":172363.81,"N_COORD97":2542214.1099999999,"ADDRESS":"裕敬路１７６號","OBJECTID":579513},"geometry":{"x":172363.80999999959,"y":2542214.1099999994}},{"attributes":{"ID":579541,"DIS_CODE":0,"TOWNNAME":"東區","LI":"裕聖里","LIN":"16鄰","STREET":"裕敬路","SECT":" ","MAREA":" ","LANE":" ","ALLEY":" ","HOUSE_NO":"１７８號","E_COORD97":172368.75,"N_COORD97":2542213.96,"ADDRESS":"裕敬路１７８號","OBJECTID":579514},"geometry":{"x":172368.75000000093,"y":2542213.9600000009}},{"attributes":{"ID":579542,"DIS_CODE":0,"TOWNNAME":"東區","LI":"裕聖里","LIN":"16鄰","STREET":"裕敬路","SECT":" ","MAREA":" ","LANE":" ","ALLEY":" ","HOUSE_NO":"１８０號","E_COORD97":172374.47,"N_COORD97":2542213.96,"ADDRESS":"裕敬路１８０號","OBJECTID":579515},"geometry":{"x":172374.46999999974,"y":2542213.9600000009}},{"attributes":{"ID":579543,"DIS_CODE":0,"TOWNNAME":"東區","LI":"裕聖里","LIN":"16鄰","STREET":"裕敬路","SECT":" ","MAREA":" ","LANE":" ","ALLEY":" ","HOUSE_NO":"１８２號","E_COORD97":172375.54999999999,"N_COORD97":2542202.9900000002,"ADDRESS":"裕敬路１８２號","OBJECTID":579516},"geometry":{"x":172375.54999999981,"y":2542202.9900000002}},{"attributes":{"ID":579544,"DIS_CODE":0,"TOWNNAME":"東區","LI":"裕聖里","LIN":"16鄰","STREET":"裕敬路","SECT":" ","MAREA":" ","LANE":" ","ALLEY":" ","HOUSE_NO":"１８６號","E_COORD97":172370.14000000001,"N_COORD97":2542202.9900000002,"ADDRESS":"裕敬路１８６號","OBJECTID":579517},"geometry":{"x":172370.13999999966,"y":2542202.9900000002}},{"attributes":{"ID":579545,"DIS_CODE":0,"TOWNNAME":"東區","LI":"裕聖里","LIN":"16鄰","STREET":"裕敬路","SECT":" ","MAREA":" ","LANE":" ","ALLEY":" ","HOUSE_NO":"１８８號","E_COORD97":172363.95999999999,"N_COORD97":2542203.1400000001,"ADDRESS":"裕敬路１８８號","OBJECTID":579518},"geometry":{"x":172363.96000000089,"y":2542203.1399999987}},{"attributes":{"ID":579546,"DIS_CODE":0,"TOWNNAME":"東區","LI":"裕聖里","LIN":"16鄰","STREET":"裕敬路","SECT":" ","MAREA":" ","LANE":" ","ALLEY":" ","HOUSE_NO":"１９０號","E_COORD97":172357.78,"N_COORD97":2542203.4500000002,"ADDRESS":"裕敬路１９０號","OBJECTID":579519},"geometry":{"x":172357.78000000026,"y":2542203.4500000011}},{"attributes":{"ID":579547,"DIS_CODE":0,"TOWNNAME":"東區","LI":"裕聖里","LIN":"16鄰","STREET":"裕敬路","SECT":" ","MAREA":" ","LANE":" ","ALLEY":" ","HOUSE_NO":"１９２號","E_COORD97":172357.78,"N_COORD97":2542189.8500000001,"ADDRESS":"裕敬路１９２號","OBJECTID":579520},"geometry":{"x":172357.78000000026,"y":2542189.8499999996}},{"attributes":{"ID":579548,"DIS_CODE":0,"TOWNNAME":"東區","LI":"裕聖里","LIN":"16鄰","STREET":"裕敬路","SECT":" ","MAREA":" ","LANE":" ","ALLEY":" ","HOUSE_NO":"１９６號","E_COORD97":172364.10999999999,"N_COORD97":2542190.0099999998,"ADDRESS":"裕敬路１９６號","OBJECTID":579521},"geometry":{"x":172364.11000000034,"y":2542190.0100000035}},{"attributes":{"ID":579549,"DIS_CODE":0,"TOWNNAME":"東區","LI":"裕聖里","LIN":"16鄰","STREET":"裕敬路","SECT":" ","MAREA":" ","LANE":" ","ALLEY":" ","HOUSE_NO":"１９８號","E_COORD97":172370.60000000001,"N_COORD97":2542189.54,"ADDRESS":"裕敬路１９８號","OBJECTID":579522},"geometry":{"x":172370.60000000149,"y":2542189.540000001}},{"attributes":{"ID":579550,"DIS_CODE":0,"TOWNNAME":"東區","LI":"裕聖里","LIN":"16鄰","STREET":"裕敬路","SECT":" ","MAREA":" ","LANE":" ","ALLEY":" ","HOUSE_NO":"２００號","E_COORD97":172375.85999999999,"N_COORD97":2542189.54,"ADDRESS":"裕敬路２００號","OBJECTID":579523},"geometry":{"x":172375.86000000034,"y":2542189.540000001}},{"attributes":{"ID":579551,"DIS_CODE":0,"TOWNNAME":"東區","LI":"裕聖里","LIN":"16鄰","STREET":"裕敬路","SECT":" ","MAREA":" ","LANE":" ","ALLEY":" ","HOUSE_NO":"２０２號","E_COORD97":172380.17999999999,"N_COORD97":2542189.54,"ADDRESS":"裕敬路２０２號","OBJECTID":579524},"geometry":{"x":172380.18000000156,"y":2542189.540000001}},{"attributes":{"ID":579552,"DIS_CODE":0,"TOWNNAME":"東區","LI":"裕聖里","LIN":"16鄰","STREET":"裕敬路","SECT":" ","MAREA":" ","LANE":" ","ALLEY":" ","HOUSE_NO":"２０６號","E_COORD97":172385.75,"N_COORD97":2542189.3900000001,"ADDRESS":"裕敬路２０６號","OBJECTID":579525},"geometry":{"x":172385.75000000093,"y":2542189.3900000025}},{"attributes":{"ID":579553,"DIS_CODE":0,"TOWNNAME":"東區","LI":"裕聖里","LIN":"16鄰","STREET":"裕敬路","SECT":" ","MAREA":" ","LANE":" ","ALLEY":" ","HOUSE_NO":"２０８號","E_COORD97":172390.69,"N_COORD97":2542189.0800000001,"ADDRESS":"裕敬路２０８號","OBJECTID":579526},"geometry":{"x":172390.69000000041,"y":2542189.0800000001}},{"attributes":{"ID":579554,"DIS_CODE":0,"TOWNNAME":"東區","LI":"裕聖里","LIN":"16鄰","STREET":"裕敬路","SECT":" ","MAREA":" ","LANE":" ","ALLEY":" ","HOUSE_NO":"２１０號","E_COORD97":172393.32000000001,"N_COORD97":2542189.0800000001,"ADDRESS":"裕敬路２１０號","OBJECTID":579527},"geometry":{"x":172393.3200000003,"y":2542189.0800000001}},{"attributes":{"ID":579555,"DIS_CODE":0,"TOWNNAME":"東區","LI":"裕聖里","LIN":"16鄰","STREET":"裕敬路","SECT":" ","MAREA":" ","LANE":" ","ALLEY":" ","HOUSE_NO":"２１２號","E_COORD97":172397.48999999999,"N_COORD97":2542189.3900000001,"ADDRESS":"裕敬路２１２號","OBJECTID":579528},"geometry":{"x":172397.49000000115,"y":2542189.3900000025}},{"attributes":{"ID":579556,"DIS_CODE":0,"TOWNNAME":"東區","LI":"裕聖里","LIN":"16鄰","STREET":"裕敬路","SECT":" ","MAREA":" ","LANE":" ","ALLEY":" ","HOUSE_NO":"２１６號","E_COORD97":172397.79999999999,"N_COORD97":2542203.29,"ADDRESS":"裕敬路２１６號","OBJECTID":579529},"geometry":{"x":172397.79999999981,"y":2542203.2899999991}},{"attributes":{"ID":579557,"DIS_CODE":0,"TOWNNAME":"東區","LI":"裕聖里","LIN":"16鄰","STREET":"裕敬路","SECT":" ","MAREA":" ","LANE":" ","ALLEY":" ","HOUSE_NO":"２１８號","E_COORD97":172393.94,"N_COORD97":2542203.29,"ADDRESS":"裕敬路２１８號","OBJECTID":579530},"geometry":{"x":172393.94000000041,"y":2542203.2899999991}},{"attributes":{"ID":579558,"DIS_CODE":0,"TOWNNAME":"東區","LI":"裕聖里","LIN":"16鄰","STREET":"裕敬路","SECT":" ","MAREA":" ","LANE":" ","ALLEY":" ","HOUSE_NO":"２２０號","E_COORD97":172390.69,"N_COORD97":2542203.29,"ADDRESS":"裕敬路２２０號","OBJECTID":579531},"geometry":{"x":172390.69000000041,"y":2542203.2899999991}},{"attributes":{"ID":579559,"DIS_CODE":0,"TOWNNAME":"東區","LI":"裕聖里","LIN":"16鄰","STREET":"裕敬路","SECT":" ","MAREA":" ","LANE":" ","ALLEY":" ","HOUSE_NO":"２２２號","E_COORD97":172385.75,"N_COORD97":2542203.29,"ADDRESS":"裕敬路２２２號","OBJECTID":579532},"geometry":{"x":172385.75000000093,"y":2542203.2899999991}},{"attributes":{"ID":579560,"DIS_CODE":0,"TOWNNAME":"東區","LI":"裕聖里","LIN":"16鄰","STREET":"裕敬路","SECT":" ","MAREA":" ","LANE":" ","ALLEY":" ","HOUSE_NO":"２２６號","E_COORD97":172384.20000000001,"N_COORD97":2542214.4199999999,"ADDRESS":"裕敬路２２６號","OBJECTID":579533},"geometry":{"x":172384.20000000112,"y":2542214.4200000037}},{"attributes":{"ID":579561,"DIS_CODE":0,"TOWNNAME":"東區","LI":"裕聖里","LIN":"16鄰","STREET":"裕敬路","SECT":" ","MAREA":" ","LANE":" ","ALLEY":" ","HOUSE_NO":"２２８號","E_COORD97":172389.92000000001,"N_COORD97":2542214.73,"ADDRESS":"裕敬路２２８號","OBJECTID":579534},"geometry":{"x":172389.91999999993,"y":2542214.7300000004}},{"attributes":{"ID":579562,"DIS_CODE":0,"TOWNNAME":"東區","LI":"裕聖里","LIN":"16鄰","STREET":"裕敬路","SECT":" ","MAREA":" ","LANE":" ","ALLEY":" ","HOUSE_NO":"２３０號","E_COORD97":172395.01999999999,"N_COORD97":2542214.5699999998,"ADDRESS":"裕敬路２３０號","OBJECTID":579535},"geometry":{"x":172395.02000000048,"y":2542214.5700000022}},{"attributes":{"ID":579563,"DIS_CODE":0,"TOWNNAME":"東區","LI":"裕聖里","LIN":"16鄰","STREET":"裕敬路","SECT":" ","MAREA":" ","LANE":" ","ALLEY":" ","HOUSE_NO":"２３２號","E_COORD97":172398.26000000001,"N_COORD97":2542214.5699999998,"ADDRESS":"裕敬路２３２號","OBJECTID":579536},"geometry":{"x":172398.25999999978,"y":2542214.5700000022}},{"attributes":{"ID":579564,"DIS_CODE":0,"TOWNNAME":"東區","LI":"裕聖里","LIN":"16鄰","STREET":"裕敬路","SECT":" ","MAREA":" ","LANE":" ","ALLEY":" ","HOUSE_NO":"２３６號","E_COORD97":172398.26000000001,"N_COORD97":2542226.1600000001,"ADDRESS":"裕敬路２３６號","OBJECTID":579537},"geometry":{"x":172398.25999999978,"y":2542226.1599999983}},{"attributes":{"ID":579565,"DIS_CODE":0,"TOWNNAME":"東區","LI":"裕聖里","LIN":"16鄰","STREET":"裕敬路","SECT":" ","MAREA":" ","LANE":" ","ALLEY":" ","HOUSE_NO":"２３８號","E_COORD97":172394.54999999999,"N_COORD97":2542226.1600000001,"ADDRESS":"裕敬路２３８號","OBJECTID":579538},"geometry":{"x":172394.54999999981,"y":2542226.1599999983}},{"attributes":{"ID":579566,"DIS_CODE":0,"TOWNNAME":"東區","LI":"裕聖里","LIN":"16鄰","STREET":"裕敬路","SECT":" ","MAREA":" ","LANE":" ","ALLEY":" ","HOUSE_NO":"２４０號","E_COORD97":172388.98999999999,"N_COORD97":2542226.0099999998,"ADDRESS":"裕敬路２４０號","OBJECTID":579539},"geometry":{"x":172388.99000000209,"y":2542226.0099999998}},{"attributes":{"ID":579567,"DIS_CODE":0,"TOWNNAME":"東區","LI":"裕聖里","LIN":"16鄰","STREET":"裕敬路","SECT":" ","MAREA":" ","LANE":" ","ALLEY":" ","HOUSE_NO":"２４２號","E_COORD97":172383.26999999999,"N_COORD97":2542226.1600000001,"ADDRESS":"裕敬路２４２號","OBJECTID":579540},"geometry":{"x":172383.27000000048,"y":2542226.1599999983}},{"attributes":{"ID":579568,"DIS_CODE":0,"TOWNNAME":"東區","LI":"裕聖里","LIN":"16鄰","STREET":"裕敬路","SECT":" ","MAREA":" ","LANE":" ","ALLEY":" ","HOUSE_NO":"２４６號","E_COORD97":172383.12,"N_COORD97":2542238.6800000002,"ADDRESS":"裕敬路２４６號","OBJECTID":579541},"geometry":{"x":172383.12000000104,"y":2542238.6799999997}},{"attributes":{"ID":579569,"DIS_CODE":0,"TOWNNAME":"東區","LI":"裕聖里","LIN":"16鄰","STREET":"裕敬路","SECT":" ","MAREA":" ","LANE":" ","ALLEY":" ","HOUSE_NO":"２４８號","E_COORD97":172388.22,"N_COORD97":2542238.6800000002,"ADDRESS":"裕敬路２４８號","OBJECTID":579542},"geometry":{"x":172388.21999999974,"y":2542238.6799999997}},{"attributes":{"ID":579570,"DIS_CODE":0,"TOWNNAME":"東區","LI":"裕聖里","LIN":"16鄰","STREET":"裕敬路","SECT":" ","MAREA":" ","LANE":" ","ALLEY":" ","HOUSE_NO":"２５０號","E_COORD97":172393.32000000001,"N_COORD97":2542238.8300000001,"ADDRESS":"裕敬路２５０號","OBJECTID":579543},"geometry":{"x":172393.3200000003,"y":2542238.8300000038}},{"attributes":{"ID":579571,"DIS_CODE":0,"TOWNNAME":"東區","LI":"裕聖里","LIN":"16鄰","STREET":"裕敬路","SECT":" ","MAREA":" ","LANE":" ","ALLEY":" ","HOUSE_NO":"２５２號","E_COORD97":172397.79999999999,"N_COORD97":2542238.2200000002,"ADDRESS":"裕敬路２５２號","OBJECTID":579544},"geometry":{"x":172397.79999999981,"y":2542238.2200000025}},{"attributes":{"ID":579572,"DIS_CODE":0,"TOWNNAME":"東區","LI":"大同里","LIN":"16鄰","STREET":"府連路","SECT":" ","MAREA":" ","LANE":" ","ALLEY":" ","HOUSE_NO":"１４６號","E_COORD97":169157.10000000001,"N_COORD97":2542804.6000000001,"ADDRESS":"府連路１４６號","OBJECTID":579545},"geometry":{"x":169157.10000000056,"y":2542804.5999999996}},{"attributes":{"ID":579573,"DIS_CODE":0,"TOWNNAME":"仁德區","LI":"大甲里","LIN":"16鄰","STREET":"行大街","SECT":" ","MAREA":" ","LANE":" ","ALLEY":" ","HOUSE_NO":"４１１號","E_COORD97":169489.97,"N_COORD97":2535232.25,"ADDRESS":"行大街４１１號","OBJECTID":579546},"geometry":{"x":169489.97000000067,"y":2535232.2500000019}},{"attributes":{"ID":579574,"DIS_CODE":0,"TOWNNAME":"仁德區","LI":"保安里","LIN":"16鄰","STREET":"中正路","SECT":"一段","MAREA":" ","LANE":" ","ALLEY":" ","HOUSE_NO":"９７號","E_COORD97":171220.63,"N_COORD97":2535605.52,"ADDRESS":"中正路一段９７號","OBJECTID":579547},"geometry":{"x":171220.62999999989,"y":2535605.5200000033}},{"attributes":{"ID":579575,"DIS_CODE":0,"TOWNNAME":"仁德區","LI":"成功里","LIN":"16鄰","STREET":"成功二街","SECT":" ","MAREA":" ","LANE":" ","ALLEY":" ","HOUSE_NO":"２８５號","E_COORD97":170889.59,"N_COORD97":2539337.5099999998,"ADDRESS":"成功二街２８５號","OBJECTID":579548},"geometry":{"x":170889.59000000078,"y":2539337.5099999998}},{"attributes":{"ID":579576,"DIS_CODE":0,"TOWNNAME":"仁德區","LI":"保安里","LIN":"16鄰","STREET":"中正路","SECT":"一段","MAREA":" ","LANE":" ","ALLEY":" ","HOUSE_NO":"１６８號","E_COORD97":171538.29999999999,"N_COORD97":2535720.02,"ADDRESS":"中正路一段１６８號","OBJECTID":579549},"geometry":{"x":171538.29999999981,"y":2535720.0199999996}},{"attributes":{"ID":579577,"DIS_CODE":0,"TOWNNAME":"仁德區","LI":"保安里","LIN":"16鄰","STREET":"中正路","SECT":"一段","MAREA":" ","LANE":" ","ALLEY":" ","HOUSE_NO":"１６２號","E_COORD97":171528.87,"N_COORD97":2535708.52,"ADDRESS":"中正路一段１６２號","OBJECTID":579550},"geometry":{"x":171528.87000000104,"y":2535708.5200000014}},{"attributes":{"ID":579578,"DIS_CODE":0,"TOWNNAME":"仁德區","LI":"後壁里","LIN":"16鄰","STREET":"德善路","SECT":" ","MAREA":" ","LANE":" ","ALLEY":" ","HOUSE_NO":"７４號","E_COORD97":173386.79000000001,"N_COORD97":2538850.27,"ADDRESS":"德善路７４號","OBJECTID":579551},"geometry":{"x":173386.7900000019,"y":2538850.2699999996}},{"attributes":{"ID":579579,"DIS_CODE":0,"TOWNNAME":"仁德區","LI":"新田里","LIN":"16鄰","STREET":"北保東路","SECT":" ","MAREA":" ","LANE":" ","ALLEY":" ","HOUSE_NO":"２８號","E_COORD97":173439.39999999999,"N_COORD97":2539376,"ADDRESS":"北保東路２８號","OBJECTID":579552},"geometry":{"x":173439.4000000013,"y":2539376.0000000037}},{"attributes":{"ID":579580,"DIS_CODE":0,"TOWNNAME":"仁德區","LI":"保安里","LIN":"16鄰","STREET":"中正路","SECT":"一段","MAREA":" ","LANE":" ","ALLEY":" ","HOUSE_NO":"１５８號","E_COORD97":171523.76000000001,"N_COORD97":2535702.02,"ADDRESS":"中正路一段１５８號","OBJECTID":579553},"geometry":{"x":171523.76000000164,"y":2535702.0199999996}},{"attributes":{"ID":579581,"DIS_CODE":0,"TOWNNAME":"仁德區","LI":"保安里","LIN":"16鄰","STREET":"中正路","SECT":"一段","MAREA":" ","LANE":" ","ALLEY":" ","HOUSE_NO":"１８１號","E_COORD97":171516.89999999999,"N_COORD97":2535731.02,"ADDRESS":"中正路一段１８１號","OBJECTID":579554},"geometry":{"x":171516.9000000013,"y":2535731.0200000033}},{"attributes":{"ID":579582,"DIS_CODE":0,"TOWNNAME":"仁德區","LI":"仁義里","LIN":"16鄰","STREET":"林頂街","SECT":" ","MAREA":" ","LANE":" ","ALLEY":" ","HOUSE_NO":"３４號","E_COORD97":174455.95000000001,"N_COORD97":2541302.4900000002,"ADDRESS":"林頂街３４號","OBJECTID":579555},"geometry":{"x":174455.95000000112,"y":2541302.4900000021}},{"attributes":{"ID":579583,"DIS_CODE":0,"TOWNNAME":"仁德區","LI":"一甲里","LIN":"16鄰","STREET":"中清路","SECT":" ","MAREA":" ","LANE":" ","ALLEY":" ","HOUSE_NO":"２５１號","E_COORD97":173729,"N_COORD97":2541762.5499999998,"ADDRESS":"中清路２５１號","OBJECTID":579556},"geometry":{"x":173729,"y":2541762.5500000007}},{"attributes":{"ID":579584,"DIS_CODE":0,"TOWNNAME":"仁德區","LI":"仁義里","LIN":"16鄰","STREET":"中山路","SECT":" ","MAREA":" ","LANE":" ","ALLEY":" ","HOUSE_NO":"２０２號之１","E_COORD97":174416.92999999999,"N_COORD97":2541246.7999999998,"ADDRESS":"中山路２０２號之１","OBJECTID":579557},"geometry":{"x":174416.93000000063,"y":2541246.8000000026}},{"attributes":{"ID":579585,"DIS_CODE":0,"TOWNNAME":"仁德區","LI":"一甲里","LIN":"16鄰","STREET":"中清路","SECT":" ","MAREA":" ","LANE":" ","ALLEY":" ","HOUSE_NO":"２６７號","E_COORD97":173737.39000000001,"N_COORD97":2541807.29,"ADDRESS":"中清路２６７號","OBJECTID":579558},"geometry":{"x":173737.3900000006,"y":2541807.2900000028}},{"attributes":{"ID":579586,"DIS_CODE":0,"TOWNNAME":"佳里區","LI":"東寧里","LIN":"16鄰","STREET":"新生路","SECT":" ","MAREA":" ","LANE":" ","ALLEY":" ","HOUSE_NO":"６４號","E_COORD97":166032.89000000001,"N_COORD97":2562375.9300000002,"ADDRESS":"新生路６４號","OBJECTID":579559},"geometry":{"x":166032.88999999966,"y":2562375.9299999997}},{"attributes":{"ID":579587,"DIS_CODE":0,"TOWNNAME":"佳里區","LI":"東寧里","LIN":"16鄰","STREET":"新生路","SECT":" ","MAREA":" ","LANE":" ","ALLEY":" ","HOUSE_NO":"７４號","E_COORD97":165993.72,"N_COORD97":2562359.8500000001,"ADDRESS":"新生路７４號","OBJECTID":579560},"geometry":{"x":165993.71999999974,"y":2562359.8499999978}},{"attributes":{"ID":579588,"DIS_CODE":0,"TOWNNAME":"佳里區","LI":"東寧里","LIN":"16鄰","STREET":"新生路","SECT":" ","MAREA":" ","LANE":" ","ALLEY":" ","HOUSE_NO":"７６號","E_COORD97":165988.14999999999,"N_COORD97":2562357.52,"ADDRESS":"新生路７６號","OBJECTID":579561},"geometry":{"x":165988.15000000037,"y":2562357.5199999996}},{"attributes":{"ID":579589,"DIS_CODE":0,"TOWNNAME":"佳里區","LI":"東寧里","LIN":"16鄰","STREET":"新生路","SECT":" ","MAREA":" ","LANE":" ","ALLEY":" ","HOUSE_NO":"７８號","E_COORD97":165984.41,"N_COORD97":2562356.1400000001,"ADDRESS":"新生路７８號","OBJECTID":579562},"geometry":{"x":165984.41000000015,"y":2562356.1400000025}},{"attributes":{"ID":579590,"DIS_CODE":0,"TOWNNAME":"佳里區","LI":"東寧里","LIN":"16鄰","STREET":"新生路","SECT":" ","MAREA":" ","LANE":" ","ALLEY":" ","HOUSE_NO":"８０號","E_COORD97":165980.31,"N_COORD97":2562354.5899999999,"ADDRESS":"新生路８０號","OBJECTID":579563},"geometry":{"x":165980.31000000052,"y":2562354.5899999999}},{"attributes":{"ID":579591,"DIS_CODE":0,"TOWNNAME":"佳里區","LI":"安西里","LIN":"16鄰","STREET":"義民街","SECT":" ","MAREA":" ","LANE":" ","ALLEY":" ","HOUSE_NO":"３７８號","E_COORD97":165158.89999999999,"N_COORD97":2562397.1899999999,"ADDRESS":"義民街３７８號","OBJECTID":579564},"geometry":{"x":165158.90000000037,"y":2562397.1899999995}},{"attributes":{"ID":579592,"DIS_CODE":0,"TOWNNAME":"佳里區","LI":"東寧里","LIN":"16鄰","STREET":"義民街","SECT":" ","MAREA":" ","LANE":" ","ALLEY":" ","HOUSE_NO":"４９號","E_COORD97":166027.45000000001,"N_COORD97":2562425.2200000002,"ADDRESS":"義民街４９號","OBJECTID":579565},"geometry":{"x":166027.45000000112,"y":2562425.2200000007}},{"attributes":{"ID":579593,"DIS_CODE":0,"TOWNNAME":"佳里區","LI":"東寧里","LIN":"16鄰","STREET":"義民街","SECT":" ","MAREA":" ","LANE":" ","ALLEY":" ","HOUSE_NO":"５１號","E_COORD97":166022.67999999999,"N_COORD97":2562423.9500000002,"ADDRESS":"義民街５１號","OBJECTID":579566},"geometry":{"x":166022.6799999997,"y":2562423.9500000011}},{"attributes":{"ID":579594,"DIS_CODE":0,"TOWNNAME":"佳里區","LI":"東寧里","LIN":"16鄰","STREET":"義民街","SECT":" ","MAREA":" ","LANE":" ","ALLEY":" ","HOUSE_NO":"５３號","E_COORD97":166017.63,"N_COORD97":2562423.1200000001,"ADDRESS":"義民街５３號","OBJECTID":579567},"geometry":{"x":166017.63000000082,"y":2562423.120000001}},{"attributes":{"ID":579595,"DIS_CODE":0,"TOWNNAME":"佳里區","LI":"東寧里","LIN":"16鄰","STREET":"義民街","SECT":" ","MAREA":" ","LANE":" ","ALLEY":" ","HOUSE_NO":"５５號","E_COORD97":166012.89999999999,"N_COORD97":2562422.5899999999,"ADDRESS":"義民街５５號","OBJECTID":579568},"geometry":{"x":166012.9000000013,"y":2562422.5899999999}},{"attributes":{"ID":579596,"DIS_CODE":0,"TOWNNAME":"佳里區","LI":"東寧里","LIN":"16鄰","STREET":"義民街","SECT":" ","MAREA":" ","LANE":" ","ALLEY":" ","HOUSE_NO":"５７號","E_COORD97":166006.79999999999,"N_COORD97":2562421.6800000002,"ADDRESS":"義民街５７號","OBJECTID":579569},"geometry":{"x":166006.79999999981,"y":2562421.6799999997}},{"attributes":{"ID":579597,"DIS_CODE":0,"TOWNNAME":"佳里區","LI":"東寧里","LIN":"16鄰","STREET":"義民街","SECT":" ","MAREA":" ","LANE":" ","ALLEY":" ","HOUSE_NO":"５９號","E_COORD97":165998.09,"N_COORD97":2562419.3199999998,"ADDRESS":"義民街５９號","OBJECTID":579570},"geometry":{"x":165998.08999999985,"y":2562419.3200000022}},{"attributes":{"ID":579598,"DIS_CODE":0,"TOWNNAME":"永康區","LI":"永康里","LIN":"16鄰","STREET":"永中街","SECT":" ","MAREA":" ","LANE":" ","ALLEY":" ","HOUSE_NO":"１１６號","E_COORD97":173966.70000000001,"N_COORD97":2547239.8300000001,"ADDRESS":"永中街１１６號","OBJECTID":579571},"geometry":{"x":173966.70000000019,"y":2547239.8300000038}},{"attributes":{"ID":579599,"DIS_CODE":0,"TOWNNAME":"永康區","LI":"光復里","LIN":"16鄰","STREET":"復興路","SECT":" ","MAREA":" ","LANE":" ","ALLEY":" ","HOUSE_NO":"１１６號","E_COORD97":172759.42999999999,"N_COORD97":2544345.5299999998,"ADDRESS":"復興路１１６號","OBJECTID":579572},"geometry":{"x":172759.4299999997,"y":2544345.5300000031}},{"attributes":{"ID":579600,"DIS_CODE":0,"TOWNNAME":"西港區","LI":"西港里","LIN":"16鄰","STREET":"中山路","SECT":" ","MAREA":" ","LANE":" ","ALLEY":" ","HOUSE_NO":"２８８號","E_COORD97":168424.57999999999,"N_COORD97":2557889.5600000001,"ADDRESS":"中山路２８８號","OBJECTID":579573},"geometry":{"x":168424.58000000007,"y":2557889.5600000005}},{"attributes":{"ID":579601,"DIS_CODE":0,"TOWNNAME":"西港區","LI":"西港里","LIN":"16鄰","STREET":"中山路","SECT":" ","MAREA":" ","LANE":" ","ALLEY":" ","HOUSE_NO":"３０４號","E_COORD97":168437.95999999999,"N_COORD97":2557918.1099999999,"ADDRESS":"中山路３０４號","OBJECTID":579574},"geometry":{"x":168437.96000000089,"y":2557918.1100000013}},{"attributes":{"ID":579602,"DIS_CODE":0,"TOWNNAME":"永康區","LI":"烏竹里","LIN":"16鄰","STREET":"龍橋街","SECT":" ","MAREA":" ","LANE":" ","ALLEY":" ","HOUSE_NO":"２１２號","E_COORD97":174600.22,"N_COORD97":2548799.0299999998,"ADDRESS":"龍橋街２１２號","OBJECTID":579575},"geometry":{"x":174600.21999999974,"y":2548799.0299999993}},{"attributes":{"ID":579603,"DIS_CODE":0,"TOWNNAME":"永康區","LI":"大灣里","LIN":"16鄰","STREET":"大灣路","SECT":" ","MAREA":" ","LANE":" ","ALLEY":" ","HOUSE_NO":"３３４號","E_COORD97":174861.97,"N_COORD97":2545166.0299999998,"ADDRESS":"大灣路３３４號","OBJECTID":579576},"geometry":{"x":174861.97000000067,"y":2545166.0300000031}},{"attributes":{"ID":579604,"DIS_CODE":0,"TOWNNAME":"永康區","LI":"東灣里","LIN":"16鄰","STREET":"大灣三街","SECT":" ","MAREA":" ","LANE":" ","ALLEY":" ","HOUSE_NO":"９３號","E_COORD97":174812.98999999999,"N_COORD97":2544974.1899999999,"ADDRESS":"大灣三街９３號","OBJECTID":579577},"geometry":{"x":174812.99000000209,"y":2544974.1899999995}},{"attributes":{"ID":579605,"DIS_CODE":0,"TOWNNAME":"永康區","LI":"網寮里","LIN":"16鄰","STREET":"永勝街","SECT":" ","MAREA":" ","LANE":" ","ALLEY":" ","HOUSE_NO":"２３９號","E_COORD97":173396.64000000001,"N_COORD97":2546702.75,"ADDRESS":"永勝街２３９號","OBJECTID":579578},"geometry":{"x":173396.6400000006,"y":2546702.75}},{"attributes":{"ID":579606,"DIS_CODE":0,"TOWNNAME":"永康區","LI":"網寮里","LIN":"16鄰","STREET":"永勝街","SECT":" ","MAREA":" ","LANE":" ","ALLEY":" ","HOUSE_NO":"２５７號","E_COORD97":173414.32000000001,"N_COORD97":2546755.0099999998,"ADDRESS":"永勝街２５７號","OBJECTID":579579},"geometry":{"x":173414.32000000123,"y":2546755.0099999998}},{"attributes":{"ID":579607,"DIS_CODE":0,"TOWNNAME":"永康區","LI":"西灣里","LIN":"16鄰","STREET":"大灣五街","SECT":" ","MAREA":" ","LANE":" ","ALLEY":" ","HOUSE_NO":"１１８號","E_COORD97":174624.39999999999,"N_COORD97":2545312.2000000002,"ADDRESS":"大灣五街１１８號","OBJECTID":579580},"geometry":{"x":174624.4000000013,"y":2545312.1999999993}},{"attributes":{"ID":579608,"DIS_CODE":0,"TOWNNAME":"永康區","LI":"東灣里","LIN":"16鄰","STREET":"大灣三街","SECT":" ","MAREA":" ","LANE":" ","ALLEY":" ","HOUSE_NO":"７０號","E_COORD97":174882.42000000001,"N_COORD97":2544964.2799999998,"ADDRESS":"大灣三街７０號","OBJECTID":579581},"geometry":{"x":174882.41999999993,"y":2544964.2800000031}},{"attributes":{"ID":579609,"DIS_CODE":0,"TOWNNAME":"永康區","LI":"中興里","LIN":"16鄰","STREET":"中華二路","SECT":" ","MAREA":" ","LANE":" ","ALLEY":" ","HOUSE_NO":"１４９號","E_COORD97":171957.32999999999,"N_COORD97":2545425.9900000002,"ADDRESS":"中華二路１４９號","OBJECTID":579582},"geometry":{"x":171957.33000000007,"y":2545425.9900000021}},{"attributes":{"ID":579610,"DIS_CODE":0,"TOWNNAME":"永康區","LI":"北灣里","LIN":"16鄰","STREET":"文賢街","SECT":" ","MAREA":" ","LANE":" ","ALLEY":" ","HOUSE_NO":"３６６號","E_COORD97":174871.42999999999,"N_COORD97":2545820.02,"ADDRESS":"文賢街３６６號","OBJECTID":579583},"geometry":{"x":174871.4299999997,"y":2545820.0199999996}},{"attributes":{"ID":579611,"DIS_CODE":0,"TOWNNAME":"永康區","LI":"埔園里","LIN":"16鄰","STREET":"八德街","SECT":" ","MAREA":" ","LANE":" ","ALLEY":" ","HOUSE_NO":"４０６號","E_COORD97":173419.56,"N_COORD97":2548556.73,"ADDRESS":"八德街４０６號","OBJECTID":579584},"geometry":{"x":173419.55999999959,"y":2548556.7300000023}},{"attributes":{"ID":579612,"DIS_CODE":0,"TOWNNAME":"永康區","LI":"南灣里","LIN":"16鄰","STREET":"立興街","SECT":" ","MAREA":" ","LANE":" ","ALLEY":" ","HOUSE_NO":"９９號","E_COORD97":174501.01000000001,"N_COORD97":2544718.98,"ADDRESS":"立興街９９號","OBJECTID":579585},"geometry":{"x":174501.01000000071,"y":2544718.9800000004}},{"attributes":{"ID":579613,"DIS_CODE":0,"TOWNNAME":"永康區","LI":"埔園里","LIN":"16鄰","STREET":"中山路","SECT":" ","MAREA":" ","LANE":" ","ALLEY":" ","HOUSE_NO":"４３７號","E_COORD97":173518.88,"N_COORD97":2548664.5,"ADDRESS":"中山路４３７號","OBJECTID":579586},"geometry":{"x":173518.88000000082,"y":2548664.5}},{"attributes":{"ID":579614,"DIS_CODE":0,"TOWNNAME":"永康區","LI":"烏竹里","LIN":"16鄰","STREET":"龍橋街","SECT":" ","MAREA":" ","LANE":" ","ALLEY":" ","HOUSE_NO":"２５８號","E_COORD97":174585.25,"N_COORD97":2548897.7400000002,"ADDRESS":"龍橋街２５８號","OBJECTID":579587},"geometry":{"x":174585.25,"y":2548897.7400000002}},{"attributes":{"ID":579615,"DIS_CODE":0,"TOWNNAME":"永康區","LI":"烏竹里","LIN":"16鄰","STREET":"龍橋街","SECT":" ","MAREA":" ","LANE":" ","ALLEY":" ","HOUSE_NO":"２６０號","E_COORD97":174584.48000000001,"N_COORD97":2548901.4900000002,"ADDRESS":"龍橋街２６０號","OBJECTID":579588},"geometry":{"x":174584.48000000231,"y":2548901.4900000021}},{"attributes":{"ID":579616,"DIS_CODE":0,"TOWNNAME":"永康區","LI":"烏竹里","LIN":"16鄰","STREET":"龍橋街","SECT":" ","MAREA":" ","LANE":" ","ALLEY":" ","HOUSE_NO":"２１０號","E_COORD97":174604.26999999999,"N_COORD97":2548787.3399999999,"ADDRESS":"龍橋街２１０號","OBJECTID":579589},"geometry":{"x":174604.27000000048,"y":2548787.3399999999}},{"attributes":{"ID":579617,"DIS_CODE":0,"TOWNNAME":"永康區","LI":"南灣里","LIN":"16鄰","STREET":"大灣一街","SECT":" ","MAREA":" ","LANE":" ","ALLEY":" ","HOUSE_NO":"１１５號","E_COORD97":174532.51000000001,"N_COORD97":2544705.9700000002,"ADDRESS":"大灣一街１１５號","OBJECTID":579590},"geometry":{"x":174532.50999999978,"y":2544705.9700000007}},{"attributes":{"ID":579618,"DIS_CODE":0,"TOWNNAME":"永康區","LI":"埔園里","LIN":"16鄰","STREET":"八德街","SECT":" ","MAREA":" ","LANE":" ","ALLEY":" ","HOUSE_NO":"３９８號","E_COORD97":173433.17000000001,"N_COORD97":2548558.6499999999,"ADDRESS":"八德街３９８號","OBJECTID":579591},"geometry":{"x":173433.16999999899,"y":2548558.6500000004}},{"attributes":{"ID":579619,"DIS_CODE":0,"TOWNNAME":"永康區","LI":"烏竹里","LIN":"16鄰","STREET":"龍橋街","SECT":" ","MAREA":" ","LANE":" ","ALLEY":" ","HOUSE_NO":"２５６號","E_COORD97":174586.10000000001,"N_COORD97":2548894.2400000002,"ADDRESS":"龍橋街２５６號","OBJECTID":579592},"geometry":{"x":174586.10000000149,"y":2548894.2400000002}},{"attributes":{"ID":579620,"DIS_CODE":0,"TOWNNAME":"永康區","LI":"烏竹里","LIN":"16鄰","STREET":"龍橋街","SECT":" ","MAREA":" ","LANE":" ","ALLEY":" ","HOUSE_NO":"２５２號","E_COORD97":174595.34,"N_COORD97":2548887.48,"ADDRESS":"龍橋街２５２號","OBJECTID":579593},"geometry":{"x":174595.34000000078,"y":2548887.4800000023}},{"attributes":{"ID":579621,"DIS_CODE":0,"TOWNNAME":"永康區","LI":"烏竹里","LIN":"16鄰","STREET":"龍橋街","SECT":" ","MAREA":" ","LANE":" ","ALLEY":" ","HOUSE_NO":"２３２號","E_COORD97":174592.51999999999,"N_COORD97":2548847.8300000001,"ADDRESS":"龍橋街２３２號","OBJECTID":579594},"geometry":{"x":174592.52000000048,"y":2548847.8300000019}},{"attributes":{"ID":579622,"DIS_CODE":0,"TOWNNAME":"南區","LI":"明興里","LIN":"16鄰","STREET":"德興路","SECT":" ","MAREA":" ","LANE":" ","ALLEY":" ","HOUSE_NO":"１７０號","E_COORD97":167192.22,"N_COORD97":2540333.0499999998,"ADDRESS":"德興路１７０號","OBJECTID":579595},"geometry":{"x":167192.21999999974,"y":2540333.0500000026}},{"attributes":{"ID":579623,"DIS_CODE":0,"TOWNNAME":"南區","LI":"明興里","LIN":"16鄰","STREET":"德興路","SECT":" ","MAREA":" ","LANE":" ","ALLEY":" ","HOUSE_NO":"１７２號","E_COORD97":167192.29999999999,"N_COORD97":2540327.8500000001,"ADDRESS":"德興路１７２號","OBJECTID":579596},"geometry":{"x":167192.30000000168,"y":2540327.8499999996}},{"attributes":{"ID":579624,"DIS_CODE":0,"TOWNNAME":"南區","LI":"明興里","LIN":"16鄰","STREET":"德興路","SECT":" ","MAREA":" ","LANE":" ","ALLEY":" ","HOUSE_NO":"１７４號","E_COORD97":167192.04999999999,"N_COORD97":2540323.5600000001,"ADDRESS":"德興路１７４號","OBJECTID":579597},"geometry":{"x":167192.04999999981,"y":2540323.5600000024}},{"attributes":{"ID":579625,"DIS_CODE":0,"TOWNNAME":"南區","LI":"明興里","LIN":"16鄰","STREET":"德興路","SECT":" ","MAREA":" ","LANE":" ","ALLEY":" ","HOUSE_NO":"１７６號","E_COORD97":167190.98000000001,"N_COORD97":2540318.3599999999,"ADDRESS":"德興路１７６號","OBJECTID":579598},"geometry":{"x":167190.98000000045,"y":2540318.3599999994}},{"attributes":{"ID":579626,"DIS_CODE":0,"TOWNNAME":"新化區","LI":"東榮里","LIN":"16鄰","STREET":"中興路","SECT":" ","MAREA":" ","LANE":" ","ALLEY":" ","HOUSE_NO":"６８０號","E_COORD97":179612.31,"N_COORD97":2548108.25,"ADDRESS":"中興路６８０號","OBJECTID":579599},"geometry":{"x":179612.30999999959,"y":2548108.2500000019}},{"attributes":{"ID":579627,"DIS_CODE":0,"TOWNNAME":"新化區","LI":"協興里","LIN":"16鄰","STREET":"中山路","SECT":" ","MAREA":" ","LANE":" ","ALLEY":" ","HOUSE_NO":"８４２號之１６","E_COORD97":177472.51000000001,"N_COORD97":2548374.2599999998,"ADDRESS":"中山路８４２號之１６","OBJECTID":579600},"geometry":{"x":177472.51000000071,"y":2548374.2599999998}}]}