{"displayFieldName":"TOWNNAME","fieldAliases":{"ID":"ID","DIS_CODE":"DIS_CODE","TOWNNAME":"TOWNNAME","LI":"LI","LIN":"LIN","STREET":"STREET","SECT":"SECT","MAREA":"MAREA","LANE":"LANE","ALLEY":"ALLEY","HOUSE_NO":"HOUSE_NO","E_COORD97":"E_COORD97","N_COORD97":"N_COORD97","ADDRESS":"ADDRESS","OBJECTID":"OBJECTID"},"geometryType":"esriGeometryPoint","spatialReference":{"wkid":102443,"latestWkid":3826},"fields":[{"name":"ID","type":"esriFieldTypeDouble","alias":"ID"},{"name":"DIS_CODE","type":"esriFieldTypeInteger","alias":"DIS_CODE"},{"name":"TOWNNAME","type":"esriFieldTypeString","alias":"TOWNNAME","length":8},{"name":"LI","type":"esriFieldTypeString","alias":"LI","length":8},{"name":"LIN","type":"esriFieldTypeString","alias":"LIN","length":12},{"name":"STREET","type":"esriFieldTypeString","alias":"STREET","length":20},{"name":"SECT","type":"esriFieldTypeString","alias":"SECT","length":8},{"name":"MAREA","type":"esriFieldTypeString","alias":"MAREA","length":12},{"name":"LANE","type":"esriFieldTypeString","alias":"LANE","length":10},{"name":"ALLEY","type":"esriFieldTypeString","alias":"ALLEY","length":10},{"name":"HOUSE_NO","type":"esriFieldTypeString","alias":"HOUSE_NO","length":20},{"name":"E_COORD97","type":"esriFieldTypeDouble","alias":"E_COORD97"},{"name":"N_COORD97","type":"esriFieldTypeDouble","alias":"N_COORD97"},{"name":"ADDRESS","type":"esriFieldTypeString","alias":"ADDRESS","length":50},{"name":"OBJECTID","type":"esriFieldTypeOID","alias":"OBJECTID"}],"features":[{"attributes":{"ID":138201,"DIS_CODE":0,"TOWNNAME":"東區","LI":"崇誨里","LIN":"27鄰","STREET":"裕豐街","SECT":" ","MAREA":" ","LANE":"１８５巷","ALLEY":"１２弄","HOUSE_NO":"１８號四樓之２","E_COORD97":170741.48999999999,"N_COORD97":2543261.54,"ADDRESS":"裕豐街１８５巷１２弄１８號四樓之２","OBJECTID":138201},"geometry":{"x":170741.49000000115,"y":2543261.540000001}},{"attributes":{"ID":138202,"DIS_CODE":0,"TOWNNAME":"東區","LI":"崇誨里","LIN":"27鄰","STREET":"裕豐街","SECT":" ","MAREA":" ","LANE":"１８５巷","ALLEY":"１２弄","HOUSE_NO":"１８號四樓之３","E_COORD97":170742.17000000001,"N_COORD97":2543259.3700000001,"ADDRESS":"裕豐街１８５巷１２弄１８號四樓之３","OBJECTID":138202},"geometry":{"x":170742.16999999993,"y":2543259.370000001}},{"attributes":{"ID":138203,"DIS_CODE":0,"TOWNNAME":"北門區","LI":"錦湖里","LIN":" ","STREET":" ","SECT":" ","MAREA":"渡子頭","LANE":" ","ALLEY":" ","HOUSE_NO":"３６之６號","E_COORD97":165197.63,"N_COORD97":2577292.8700000001,"ADDRESS":"渡子頭３６之６號","OBJECTID":138203},"geometry":{"x":165197.62999999989,"y":2577292.8700000048}},{"attributes":{"ID":138204,"DIS_CODE":0,"TOWNNAME":"東區","LI":"崇誨里","LIN":"27鄰","STREET":"裕豐街","SECT":" ","MAREA":" ","LANE":"１８５巷","ALLEY":"１２弄","HOUSE_NO":"１８號四樓之４","E_COORD97":170748.10999999999,"N_COORD97":2543261.6499999999,"ADDRESS":"裕豐街１８５巷１２弄１８號四樓之４","OBJECTID":138204},"geometry":{"x":170748.11000000034,"y":2543261.6500000022}},{"attributes":{"ID":138205,"DIS_CODE":0,"TOWNNAME":"東區","LI":"崇誨里","LIN":"27鄰","STREET":"裕豐街","SECT":" ","MAREA":" ","LANE":"１８５巷","ALLEY":"１２弄","HOUSE_NO":"１８號四樓之５","E_COORD97":170747.20000000001,"N_COORD97":2543264.0499999998,"ADDRESS":"裕豐街１８５巷１２弄１８號四樓之５","OBJECTID":138205},"geometry":{"x":170747.20000000112,"y":2543264.0500000007}},{"attributes":{"ID":138206,"DIS_CODE":0,"TOWNNAME":"東區","LI":"崇誨里","LIN":"27鄰","STREET":"裕豐街","SECT":" ","MAREA":" ","LANE":"１８５巷","ALLEY":"１２弄","HOUSE_NO":"１８號四樓之６","E_COORD97":170746.39999999999,"N_COORD97":2543266.4500000002,"ADDRESS":"裕豐街１８５巷１２弄１８號四樓之６","OBJECTID":138206},"geometry":{"x":170746.40000000037,"y":2543266.4499999993}},{"attributes":{"ID":138207,"DIS_CODE":0,"TOWNNAME":"東區","LI":"崇誨里","LIN":"27鄰","STREET":"裕豐街","SECT":" ","MAREA":" ","LANE":"１８５巷","ALLEY":"１２弄","HOUSE_NO":"１８號四樓之７","E_COORD97":170745.82999999999,"N_COORD97":2543268.1600000001,"ADDRESS":"裕豐街１８５巷１２弄１８號四樓之７","OBJECTID":138207},"geometry":{"x":170745.83000000101,"y":2543268.160000002}},{"attributes":{"ID":138208,"DIS_CODE":0,"TOWNNAME":"東區","LI":"崇誨里","LIN":"27鄰","STREET":"裕豐街","SECT":" ","MAREA":" ","LANE":"１８５巷","ALLEY":"１２弄","HOUSE_NO":"１８號五樓之２","E_COORD97":170741.48999999999,"N_COORD97":2543261.54,"ADDRESS":"裕豐街１８５巷１２弄１８號五樓之２","OBJECTID":138208},"geometry":{"x":170741.49000000115,"y":2543261.540000001}},{"attributes":{"ID":138209,"DIS_CODE":0,"TOWNNAME":"東區","LI":"崇誨里","LIN":"27鄰","STREET":"裕豐街","SECT":" ","MAREA":" ","LANE":"１８５巷","ALLEY":"１２弄","HOUSE_NO":"１８號五樓之４","E_COORD97":170748.10999999999,"N_COORD97":2543261.6499999999,"ADDRESS":"裕豐街１８５巷１２弄１８號五樓之４","OBJECTID":138209},"geometry":{"x":170748.11000000034,"y":2543261.6500000022}},{"attributes":{"ID":138210,"DIS_CODE":0,"TOWNNAME":"東區","LI":"崇誨里","LIN":"27鄰","STREET":"裕豐街","SECT":" ","MAREA":" ","LANE":"１８５巷","ALLEY":"１２弄","HOUSE_NO":"１８號五樓之５","E_COORD97":170747.20000000001,"N_COORD97":2543264.0499999998,"ADDRESS":"裕豐街１８５巷１２弄１８號五樓之５","OBJECTID":138210},"geometry":{"x":170747.20000000112,"y":2543264.0500000007}},{"attributes":{"ID":138211,"DIS_CODE":0,"TOWNNAME":"東區","LI":"崇誨里","LIN":"27鄰","STREET":"裕豐街","SECT":" ","MAREA":" ","LANE":"１８５巷","ALLEY":"１２弄","HOUSE_NO":"１８號五樓之６","E_COORD97":170746.39999999999,"N_COORD97":2543266.4500000002,"ADDRESS":"裕豐街１８５巷１２弄１８號五樓之６","OBJECTID":138211},"geometry":{"x":170746.40000000037,"y":2543266.4499999993}},{"attributes":{"ID":138212,"DIS_CODE":0,"TOWNNAME":"東區","LI":"崇誨里","LIN":"27鄰","STREET":"裕豐街","SECT":" ","MAREA":" ","LANE":"１８５巷","ALLEY":"１２弄","HOUSE_NO":"１８號五樓之７","E_COORD97":170745.82999999999,"N_COORD97":2543268.1600000001,"ADDRESS":"裕豐街１８５巷１２弄１８號五樓之７","OBJECTID":138212},"geometry":{"x":170745.83000000101,"y":2543268.160000002}},{"attributes":{"ID":138213,"DIS_CODE":0,"TOWNNAME":"永康區","LI":"復興里","LIN":"27鄰","STREET":"復興路","SECT":" ","MAREA":" ","LANE":"２７７巷","ALLEY":"１６弄","HOUSE_NO":"６號","E_COORD97":172306.01000000001,"N_COORD97":2544228.52,"ADDRESS":"復興路２７７巷１６弄６號","OBJECTID":138213},"geometry":{"x":172306.01000000071,"y":2544228.5200000014}},{"attributes":{"ID":138214,"DIS_CODE":0,"TOWNNAME":"北門區","LI":"錦湖里","LIN":" ","STREET":" ","SECT":" ","MAREA":"渡子頭","LANE":" ","ALLEY":" ","HOUSE_NO":"９６之１號","E_COORD97":164900.95999999999,"N_COORD97":2577632.9900000002,"ADDRESS":"渡子頭９６之１號","OBJECTID":138214},"geometry":{"x":164900.95999999996,"y":2577632.9900000002}},{"attributes":{"ID":138215,"DIS_CODE":0,"TOWNNAME":"永康區","LI":"崑山里","LIN":"27鄰","STREET":"大灣路","SECT":" ","MAREA":" ","LANE":"９４２巷","ALLEY":"７１弄","HOUSE_NO":"３２２之１號","E_COORD97":173482.06,"N_COORD97":2544699.7000000002,"ADDRESS":"大灣路９４２巷７１弄３２２之１號","OBJECTID":138215},"geometry":{"x":173482.05999999959,"y":2544699.6999999993}},{"attributes":{"ID":138216,"DIS_CODE":0,"TOWNNAME":"北門區","LI":"錦湖里","LIN":" ","STREET":" ","SECT":" ","MAREA":"渡子頭","LANE":" ","ALLEY":" ","HOUSE_NO":"３６之７號","E_COORD97":165208.37,"N_COORD97":2577286.3500000001,"ADDRESS":"渡子頭３６之７號","OBJECTID":138216},"geometry":{"x":165208.37000000011,"y":2577286.3499999996}},{"attributes":{"ID":138217,"DIS_CODE":0,"TOWNNAME":"北門區","LI":"錦湖里","LIN":" ","STREET":" ","SECT":" ","MAREA":"渡子頭","LANE":" ","ALLEY":" ","HOUSE_NO":"５０之９號","E_COORD97":165192.76999999999,"N_COORD97":2577566.46,"ADDRESS":"渡子頭５０之９號","OBJECTID":138217},"geometry":{"x":165192.76999999955,"y":2577566.4600000046}},{"attributes":{"ID":138218,"DIS_CODE":0,"TOWNNAME":"北門區","LI":"錦湖里","LIN":" ","STREET":" ","SECT":" ","MAREA":"渡子頭","LANE":" ","ALLEY":" ","HOUSE_NO":"５１６之１號","E_COORD97":162104.45000000001,"N_COORD97":2578314.3599999999,"ADDRESS":"渡子頭５１６之１號","OBJECTID":138218},"geometry":{"x":162104.45000000205,"y":2578314.3599999994}},{"attributes":{"ID":138219,"DIS_CODE":0,"TOWNNAME":"北門區","LI":"錦湖里","LIN":" ","STREET":" ","SECT":" ","MAREA":"渡子頭","LANE":" ","ALLEY":" ","HOUSE_NO":"６５之１號","E_COORD97":164999.70999999999,"N_COORD97":2577567.9399999999,"ADDRESS":"渡子頭６５之１號","OBJECTID":138219},"geometry":{"x":164999.71000000089,"y":2577567.9399999995}},{"attributes":{"ID":138220,"DIS_CODE":0,"TOWNNAME":"南區","LI":"喜東里","LIN":"6鄰","STREET":"喜樹路","SECT":" ","MAREA":" ","LANE":" ","ALLEY":" ","HOUSE_NO":"１２５號","E_COORD97":165896.51000000001,"N_COORD97":2538205.5299999998,"ADDRESS":"喜樹路１２５號","OBJECTID":138220},"geometry":{"x":165896.51000000071,"y":2538205.5300000031}},{"attributes":{"ID":138221,"DIS_CODE":0,"TOWNNAME":"南區","LI":"喜東里","LIN":"6鄰","STREET":"喜樹路","SECT":" ","MAREA":" ","LANE":" ","ALLEY":" ","HOUSE_NO":"１２９號","E_COORD97":165895.29000000001,"N_COORD97":2538198.0899999999,"ADDRESS":"喜樹路１２９號","OBJECTID":138221},"geometry":{"x":165895.29000000004,"y":2538198.0899999999}},{"attributes":{"ID":138222,"DIS_CODE":0,"TOWNNAME":"永康區","LI":"埔園里","LIN":"6鄰","STREET":"中山路","SECT":" ","MAREA":" ","LANE":" ","ALLEY":" ","HOUSE_NO":"１７０號","E_COORD97":173764.26999999999,"N_COORD97":2547831.71,"ADDRESS":"中山路１７０號","OBJECTID":138222},"geometry":{"x":173764.26999999955,"y":2547831.7100000028}},{"attributes":{"ID":138223,"DIS_CODE":0,"TOWNNAME":"永康區","LI":"崑山里","LIN":"27鄰","STREET":"大灣路","SECT":" ","MAREA":" ","LANE":"９４２巷","ALLEY":"７１弄","HOUSE_NO":"２８４號","E_COORD97":173518.60000000001,"N_COORD97":2544694.04,"ADDRESS":"大灣路９４２巷７１弄２８４號","OBJECTID":138223},"geometry":{"x":173518.60000000056,"y":2544694.0399999991}},{"attributes":{"ID":138224,"DIS_CODE":0,"TOWNNAME":"永康區","LI":"崑山里","LIN":"27鄰","STREET":"大灣路","SECT":" ","MAREA":" ","LANE":"９４２巷","ALLEY":"７１弄","HOUSE_NO":"３０２號","E_COORD97":173487.76999999999,"N_COORD97":2544659.04,"ADDRESS":"大灣路９４２巷７１弄３０２號","OBJECTID":138224},"geometry":{"x":173487.76999999955,"y":2544659.0399999991}},{"attributes":{"ID":138225,"DIS_CODE":0,"TOWNNAME":"永康區","LI":"崑山里","LIN":"27鄰","STREET":"大灣路","SECT":" ","MAREA":" ","LANE":"９４２巷","ALLEY":"７１弄","HOUSE_NO":"３００號","E_COORD97":173502.03,"N_COORD97":2544649.1000000001,"ADDRESS":"大灣路９４２巷７１弄３００號","OBJECTID":138225},"geometry":{"x":173502.03000000026,"y":2544649.0999999996}},{"attributes":{"ID":138226,"DIS_CODE":0,"TOWNNAME":"永康區","LI":"大灣里","LIN":"27鄰","STREET":"大灣六街","SECT":" ","MAREA":" ","LANE":"８０巷","ALLEY":"３６弄","HOUSE_NO":"２１號","E_COORD97":175297.69,"N_COORD97":2545269.9500000002,"ADDRESS":"大灣六街８０巷３６弄２１號","OBJECTID":138226},"geometry":{"x":175297.69000000041,"y":2545269.9499999993}},{"attributes":{"ID":138227,"DIS_CODE":0,"TOWNNAME":"永康區","LI":"大灣里","LIN":"27鄰","STREET":"大灣六街","SECT":" ","MAREA":" ","LANE":"８０巷","ALLEY":"３６弄","HOUSE_NO":"１７號","E_COORD97":175289.20999999999,"N_COORD97":2545270.4500000002,"ADDRESS":"大灣六街８０巷３６弄１７號","OBJECTID":138227},"geometry":{"x":175289.21000000183,"y":2545270.4499999993}},{"attributes":{"ID":138228,"DIS_CODE":0,"TOWNNAME":"永康區","LI":"大灣里","LIN":"27鄰","STREET":"大灣六街","SECT":" ","MAREA":" ","LANE":"８０巷","ALLEY":"３０弄","HOUSE_NO":"２號","E_COORD97":175229.09,"N_COORD97":2545285.9300000002,"ADDRESS":"大灣六街８０巷３０弄２號","OBJECTID":138228},"geometry":{"x":175229.09000000078,"y":2545285.9300000016}},{"attributes":{"ID":138229,"DIS_CODE":0,"TOWNNAME":"永康區","LI":"大灣里","LIN":"27鄰","STREET":"大灣六街","SECT":" ","MAREA":" ","LANE":"８０巷","ALLEY":"３０弄","HOUSE_NO":"１６號","E_COORD97":175230.44,"N_COORD97":2545263.6699999999,"ADDRESS":"大灣六街８０巷３０弄１６號","OBJECTID":138229},"geometry":{"x":175230.43999999948,"y":2545263.6699999981}},{"attributes":{"ID":138230,"DIS_CODE":0,"TOWNNAME":"永康區","LI":"大灣里","LIN":"27鄰","STREET":"大灣六街","SECT":" ","MAREA":" ","LANE":"８０巷","ALLEY":"３０弄","HOUSE_NO":"８號","E_COORD97":175228.98000000001,"N_COORD97":2545277.1800000002,"ADDRESS":"大灣六街８０巷３０弄８號","OBJECTID":138230},"geometry":{"x":175228.98000000138,"y":2545277.1800000034}},{"attributes":{"ID":138231,"DIS_CODE":0,"TOWNNAME":"永康區","LI":"大灣里","LIN":"27鄰","STREET":"大灣六街","SECT":" ","MAREA":" ","LANE":"８０巷","ALLEY":"３６弄","HOUSE_NO":"１６號","E_COORD97":175283.53,"N_COORD97":2545250.1800000002,"ADDRESS":"大灣六街８０巷３６弄１６號","OBJECTID":138231},"geometry":{"x":175283.53000000026,"y":2545250.1800000034}},{"attributes":{"ID":138232,"DIS_CODE":0,"TOWNNAME":"永康區","LI":"大灣里","LIN":"27鄰","STREET":"大灣六街","SECT":" ","MAREA":" ","LANE":"８０巷","ALLEY":"３６弄","HOUSE_NO":"２９號","E_COORD97":175314.85000000001,"N_COORD97":2545268.7000000002,"ADDRESS":"大灣六街８０巷３６弄２９號","OBJECTID":138232},"geometry":{"x":175314.84999999963,"y":2545268.6999999993}},{"attributes":{"ID":138233,"DIS_CODE":0,"TOWNNAME":"永康區","LI":"大灣里","LIN":"27鄰","STREET":"大灣六街","SECT":" ","MAREA":" ","LANE":"８０巷","ALLEY":"３６弄","HOUSE_NO":"１９號","E_COORD97":175293.20999999999,"N_COORD97":2545270.2000000002,"ADDRESS":"大灣六街８０巷３６弄１９號","OBJECTID":138233},"geometry":{"x":175293.21000000089,"y":2545270.2000000011}},{"attributes":{"ID":138234,"DIS_CODE":0,"TOWNNAME":"山上區","LI":"新莊里","LIN":"6鄰","STREET":" ","SECT":" ","MAREA":"大庄","LANE":" ","ALLEY":" ","HOUSE_NO":"２之５號","E_COORD97":184012.51000000001,"N_COORD97":2554973.2999999998,"ADDRESS":"大庄２之５號","OBJECTID":138234},"geometry":{"x":184012.51000000071,"y":2554973.3000000007}},{"attributes":{"ID":138235,"DIS_CODE":0,"TOWNNAME":"北門區","LI":"錦湖里","LIN":" ","STREET":" ","SECT":" ","MAREA":"渡子頭","LANE":" ","ALLEY":" ","HOUSE_NO":"６７之１號","E_COORD97":165041.72,"N_COORD97":2577537.9700000002,"ADDRESS":"渡子頭６７之１號","OBJECTID":138235},"geometry":{"x":165041.72000000067,"y":2577537.9700000007}},{"attributes":{"ID":138236,"DIS_CODE":0,"TOWNNAME":"北門區","LI":"錦湖里","LIN":" ","STREET":" ","SECT":" ","MAREA":"渡子頭","LANE":" ","ALLEY":" ","HOUSE_NO":"７０之１號","E_COORD97":165001.57000000001,"N_COORD97":2577525.9300000002,"ADDRESS":"渡子頭７０之１號","OBJECTID":138236},"geometry":{"x":165001.57000000123,"y":2577525.9300000016}},{"attributes":{"ID":138237,"DIS_CODE":0,"TOWNNAME":"北門區","LI":"錦湖里","LIN":" ","STREET":" ","SECT":" ","MAREA":"渡子頭","LANE":" ","ALLEY":" ","HOUSE_NO":"７５號","E_COORD97":165015.63,"N_COORD97":2577436.4900000002,"ADDRESS":"渡子頭７５號","OBJECTID":138237},"geometry":{"x":165015.63000000082,"y":2577436.4899999984}},{"attributes":{"ID":138238,"DIS_CODE":0,"TOWNNAME":"北門區","LI":"錦湖里","LIN":" ","STREET":" ","SECT":" ","MAREA":"渡子頭","LANE":" ","ALLEY":" ","HOUSE_NO":"７７之７號","E_COORD97":164927.81,"N_COORD97":2577504.1200000001,"ADDRESS":"渡子頭７７之７號","OBJECTID":138238},"geometry":{"x":164927.81000000052,"y":2577504.120000001}},{"attributes":{"ID":138239,"DIS_CODE":0,"TOWNNAME":"北門區","LI":"錦湖里","LIN":" ","STREET":" ","SECT":" ","MAREA":"渡子頭","LANE":" ","ALLEY":" ","HOUSE_NO":"８２之２號","E_COORD97":164817.98999999999,"N_COORD97":2577511.8900000001,"ADDRESS":"渡子頭８２之２號","OBJECTID":138239},"geometry":{"x":164817.99000000022,"y":2577511.8900000006}},{"attributes":{"ID":138240,"DIS_CODE":0,"TOWNNAME":"北門區","LI":"錦湖里","LIN":" ","STREET":" ","SECT":" ","MAREA":"渡子頭","LANE":" ","ALLEY":" ","HOUSE_NO":"９０之１號","E_COORD97":164969.32000000001,"N_COORD97":2577567.6400000001,"ADDRESS":"渡子頭９０之１號","OBJECTID":138240},"geometry":{"x":164969.32000000123,"y":2577567.6400000006}},{"attributes":{"ID":138241,"DIS_CODE":0,"TOWNNAME":"永康區","LI":"大灣里","LIN":"27鄰","STREET":"大灣六街","SECT":" ","MAREA":" ","LANE":"８０巷","ALLEY":"３６弄","HOUSE_NO":"２５號","E_COORD97":175306.37,"N_COORD97":2545269.2000000002,"ADDRESS":"大灣六街８０巷３６弄２５號","OBJECTID":138241},"geometry":{"x":175306.37000000011,"y":2545269.1999999993}},{"attributes":{"ID":138242,"DIS_CODE":0,"TOWNNAME":"東區","LI":"裕農里","LIN":"27鄰","STREET":"東寧路","SECT":" ","MAREA":" ","LANE":"４２８巷","ALLEY":"２弄","HOUSE_NO":"３號","E_COORD97":170939.70000000001,"N_COORD97":2543289.6499999999,"ADDRESS":"東寧路４２８巷２弄３號","OBJECTID":138242},"geometry":{"x":170939.70000000205,"y":2543289.6500000004}},{"attributes":{"ID":138243,"DIS_CODE":0,"TOWNNAME":"北門區","LI":"錦湖里","LIN":" ","STREET":" ","SECT":" ","MAREA":"渡子頭","LANE":" ","ALLEY":" ","HOUSE_NO":"９１之５號","E_COORD97":164919.07999999999,"N_COORD97":2577577.1299999999,"ADDRESS":"渡子頭９１之５號","OBJECTID":138243},"geometry":{"x":164919.08000000194,"y":2577577.1300000008}},{"attributes":{"ID":138244,"DIS_CODE":0,"TOWNNAME":"東區","LI":"裕農里","LIN":"27鄰","STREET":"東寧路","SECT":" ","MAREA":" ","LANE":"４２８巷","ALLEY":"２弄","HOUSE_NO":"７號","E_COORD97":170927.47,"N_COORD97":2543289.6499999999,"ADDRESS":"東寧路４２８巷２弄７號","OBJECTID":138244},"geometry":{"x":170927.47000000067,"y":2543289.6500000004}},{"attributes":{"ID":138245,"DIS_CODE":0,"TOWNNAME":"東區","LI":"裕農里","LIN":"27鄰","STREET":"東寧路","SECT":" ","MAREA":" ","LANE":"４２８巷","ALLEY":"２弄","HOUSE_NO":"１號","E_COORD97":170945.97,"N_COORD97":2543288,"ADDRESS":"東寧路４２８巷２弄１號","OBJECTID":138245},"geometry":{"x":170945.9700000016,"y":2543288}},{"attributes":{"ID":138246,"DIS_CODE":0,"TOWNNAME":"東區","LI":"裕農里","LIN":"27鄰","STREET":"東寧路","SECT":" ","MAREA":" ","LANE":"４２８巷","ALLEY":"２弄","HOUSE_NO":"５號","E_COORD97":170933.09,"N_COORD97":2543289.6499999999,"ADDRESS":"東寧路４２８巷２弄５號","OBJECTID":138246},"geometry":{"x":170933.08999999985,"y":2543289.6500000004}},{"attributes":{"ID":138247,"DIS_CODE":0,"TOWNNAME":"永康區","LI":"二王里","LIN":"27鄰","STREET":"中山南路","SECT":" ","MAREA":" ","LANE":"５４４巷","ALLEY":"６０弄","HOUSE_NO":"３號","E_COORD97":172317.20999999999,"N_COORD97":2546344.5899999999,"ADDRESS":"中山南路５４４巷６０弄３號","OBJECTID":138247},"geometry":{"x":172317.20999999996,"y":2546344.5899999999}},{"attributes":{"ID":138248,"DIS_CODE":0,"TOWNNAME":"北門區","LI":"鯤江里","LIN":" ","STREET":" ","SECT":" ","MAREA":"新圍","LANE":" ","ALLEY":" ","HOUSE_NO":"１７之１號","E_COORD97":163171.79000000001,"N_COORD97":2576950.54,"ADDRESS":"新圍１７之１號","OBJECTID":138248},"geometry":{"x":163171.79000000097,"y":2576950.5400000028}},{"attributes":{"ID":138249,"DIS_CODE":0,"TOWNNAME":"北門區","LI":"鯤江里","LIN":" ","STREET":" ","SECT":" ","MAREA":"新圍","LANE":" ","ALLEY":" ","HOUSE_NO":"４０之２號","E_COORD97":163187.92999999999,"N_COORD97":2576815.3700000001,"ADDRESS":"新圍４０之２號","OBJECTID":138249},"geometry":{"x":163187.93000000063,"y":2576815.3700000029}},{"attributes":{"ID":138250,"DIS_CODE":0,"TOWNNAME":"北門區","LI":"鯤江里","LIN":" ","STREET":" ","SECT":" ","MAREA":"新圍","LANE":" ","ALLEY":" ","HOUSE_NO":"４０之３號","E_COORD97":163177.12,"N_COORD97":2576832.1200000001,"ADDRESS":"新圍４０之３號","OBJECTID":138250},"geometry":{"x":163177.12000000011,"y":2576832.120000001}},{"attributes":{"ID":138251,"DIS_CODE":0,"TOWNNAME":"永康區","LI":"烏竹里","LIN":"6鄰","STREET":"龍橋街","SECT":" ","MAREA":" ","LANE":" ","ALLEY":" ","HOUSE_NO":"４２９號","E_COORD97":174406.73000000001,"N_COORD97":2549250.6299999999,"ADDRESS":"龍橋街４２９號","OBJECTID":138251},"geometry":{"x":174406.73000000138,"y":2549250.6300000008}},{"attributes":{"ID":138252,"DIS_CODE":0,"TOWNNAME":"永康區","LI":"二王里","LIN":"27鄰","STREET":"中山南路","SECT":" ","MAREA":" ","LANE":"５４４巷","ALLEY":"６０弄","HOUSE_NO":"１號","E_COORD97":172323.20999999999,"N_COORD97":2546344.3399999999,"ADDRESS":"中山南路５４４巷６０弄１號","OBJECTID":138252},"geometry":{"x":172323.21000000089,"y":2546344.3400000036}},{"attributes":{"ID":138253,"DIS_CODE":0,"TOWNNAME":"永康區","LI":"大灣里","LIN":"27鄰","STREET":"大灣六街","SECT":" ","MAREA":" ","LANE":"８０巷","ALLEY":"３６弄","HOUSE_NO":"２６號","E_COORD97":175300.67000000001,"N_COORD97":2545248.9300000002,"ADDRESS":"大灣六街８０巷３６弄２６號","OBJECTID":138253},"geometry":{"x":175300.66999999993,"y":2545248.9300000016}},{"attributes":{"ID":138254,"DIS_CODE":0,"TOWNNAME":"永康區","LI":"大灣里","LIN":"27鄰","STREET":"大灣六街","SECT":" ","MAREA":" ","LANE":"８０巷","ALLEY":"３６弄","HOUSE_NO":"８號","E_COORD97":175267.57999999999,"N_COORD97":2545249.8900000001,"ADDRESS":"大灣六街８０巷３６弄８號","OBJECTID":138254},"geometry":{"x":175267.58000000007,"y":2545249.8900000025}},{"attributes":{"ID":138255,"DIS_CODE":0,"TOWNNAME":"永康區","LI":"大灣里","LIN":"27鄰","STREET":"大灣六街","SECT":" ","MAREA":" ","LANE":"８０巷","ALLEY":"３６弄","HOUSE_NO":"２３號","E_COORD97":175301.94,"N_COORD97":2545269.4500000002,"ADDRESS":"大灣六街８０巷３６弄２３號","OBJECTID":138255},"geometry":{"x":175301.94000000134,"y":2545269.4500000011}},{"attributes":{"ID":138256,"DIS_CODE":0,"TOWNNAME":"永康區","LI":"大灣里","LIN":"27鄰","STREET":"大灣六街","SECT":" ","MAREA":" ","LANE":"８０巷","ALLEY":"３６弄","HOUSE_NO":"２８號","E_COORD97":175304.73999999999,"N_COORD97":2545246.9300000002,"ADDRESS":"大灣六街８０巷３６弄２８號","OBJECTID":138256},"geometry":{"x":175304.74000000115,"y":2545246.9299999997}},{"attributes":{"ID":138257,"DIS_CODE":0,"TOWNNAME":"永康區","LI":"崑山里","LIN":"27鄰","STREET":"大灣路","SECT":" ","MAREA":" ","LANE":"９４２巷","ALLEY":"７１弄","HOUSE_NO":"２７２號","E_COORD97":173534.20999999999,"N_COORD97":2544736.3300000001,"ADDRESS":"大灣路９４２巷７１弄２７２號","OBJECTID":138257},"geometry":{"x":173534.20999999996,"y":2544736.3300000001}},{"attributes":{"ID":138258,"DIS_CODE":0,"TOWNNAME":"仁德區","LI":"仁德里","LIN":"27鄰","STREET":"淨修街","SECT":" ","MAREA":" ","LANE":"１７５巷","ALLEY":"３０弄","HOUSE_NO":"２１號","E_COORD97":171993.29000000001,"N_COORD97":2541187.6800000002,"ADDRESS":"淨修街１７５巷３０弄２１號","OBJECTID":138258},"geometry":{"x":171993.2900000019,"y":2541187.6799999997}},{"attributes":{"ID":138259,"DIS_CODE":0,"TOWNNAME":"永康區","LI":"埔園里","LIN":"6鄰","STREET":"中山路","SECT":" ","MAREA":" ","LANE":" ","ALLEY":" ","HOUSE_NO":"２１０號","E_COORD97":173742.82000000001,"N_COORD97":2547926.4900000002,"ADDRESS":"中山路２１０號","OBJECTID":138259},"geometry":{"x":173742.82000000216,"y":2547926.4900000002}},{"attributes":{"ID":138260,"DIS_CODE":0,"TOWNNAME":"新市區","LI":"新和里","LIN":"27鄰","STREET":"忠孝街","SECT":" ","MAREA":" ","LANE":"１７９巷","ALLEY":"１弄","HOUSE_NO":"１號","E_COORD97":177693.87,"N_COORD97":2552775.25,"ADDRESS":"忠孝街１７９巷１弄１號","OBJECTID":138260},"geometry":{"x":177693.87000000197,"y":2552775.25}},{"attributes":{"ID":138261,"DIS_CODE":0,"TOWNNAME":"新市區","LI":"新市里","LIN":"27鄰","STREET":"復興路","SECT":" ","MAREA":" ","LANE":"６巷","ALLEY":"１９弄","HOUSE_NO":"２７號","E_COORD97":177878.29000000001,"N_COORD97":2553421.5299999998,"ADDRESS":"復興路６巷１９弄２７號","OBJECTID":138261},"geometry":{"x":177878.29000000004,"y":2553421.5300000031}},{"attributes":{"ID":138262,"DIS_CODE":0,"TOWNNAME":"麻豆區","LI":"中興里","LIN":"6鄰","STREET":"中興街","SECT":" ","MAREA":" ","LANE":" ","ALLEY":" ","HOUSE_NO":"４７號","E_COORD97":172911.16,"N_COORD97":2564535.7000000002,"ADDRESS":"中興街４７號","OBJECTID":138262},"geometry":{"x":172911.16000000015,"y":2564535.6999999993}},{"attributes":{"ID":138263,"DIS_CODE":0,"TOWNNAME":"南區","LI":"再興里","LIN":" ","STREET":"仁慈街","SECT":" ","MAREA":" ","LANE":" ","ALLEY":" ","HOUSE_NO":"６９號之１","E_COORD97":167154.57000000001,"N_COORD97":2542124.5899999999,"ADDRESS":"仁慈街６９號之１","OBJECTID":138263},"geometry":{"x":167154.5700000003,"y":2542124.5899999999}},{"attributes":{"ID":138264,"DIS_CODE":0,"TOWNNAME":"新市區","LI":"新和里","LIN":"27鄰","STREET":"永福街","SECT":" ","MAREA":" ","LANE":"１６巷","ALLEY":"１弄","HOUSE_NO":"８號","E_COORD97":177760.14999999999,"N_COORD97":2552730.75,"ADDRESS":"永福街１６巷１弄８號","OBJECTID":138264},"geometry":{"x":177760.1500000013,"y":2552730.75}},{"attributes":{"ID":138265,"DIS_CODE":0,"TOWNNAME":"新市區","LI":"新和里","LIN":"27鄰","STREET":"永福街","SECT":" ","MAREA":" ","LANE":"１６巷","ALLEY":"１弄","HOUSE_NO":"７號","E_COORD97":177757.51000000001,"N_COORD97":2552718.5,"ADDRESS":"永福街１６巷１弄７號","OBJECTID":138265},"geometry":{"x":177757.51000000071,"y":2552718.5000000019}},{"attributes":{"ID":138266,"DIS_CODE":0,"TOWNNAME":"新市區","LI":"新和里","LIN":"27鄰","STREET":"永福街","SECT":" ","MAREA":" ","LANE":"１６巷","ALLEY":"１弄","HOUSE_NO":"１０號","E_COORD97":177750.89999999999,"N_COORD97":2552733,"ADDRESS":"永福街１６巷１弄１０號","OBJECTID":138266},"geometry":{"x":177750.90000000037,"y":2552733}},{"attributes":{"ID":138267,"DIS_CODE":0,"TOWNNAME":"南區","LI":"再興里","LIN":" ","STREET":"仁慈街","SECT":" ","MAREA":" ","LANE":" ","ALLEY":" ","HOUSE_NO":"６９號之２","E_COORD97":167154.57000000001,"N_COORD97":2542124.5899999999,"ADDRESS":"仁慈街６９號之２","OBJECTID":138267},"geometry":{"x":167154.5700000003,"y":2542124.5899999999}},{"attributes":{"ID":138268,"DIS_CODE":0,"TOWNNAME":"新市區","LI":"新和里","LIN":"27鄰","STREET":"永福街","SECT":" ","MAREA":" ","LANE":"１６巷","ALLEY":"１弄","HOUSE_NO":"９號","E_COORD97":177746.26000000001,"N_COORD97":2552720.75,"ADDRESS":"永福街１６巷１弄９號","OBJECTID":138268},"geometry":{"x":177746.25999999978,"y":2552720.75}},{"attributes":{"ID":138269,"DIS_CODE":0,"TOWNNAME":"新市區","LI":"新和里","LIN":"27鄰","STREET":"永福街","SECT":" ","MAREA":" ","LANE":"１６巷","ALLEY":"５１弄","HOUSE_NO":"５號","E_COORD97":177769.01000000001,"N_COORD97":2552809,"ADDRESS":"永福街１６巷５１弄５號","OBJECTID":138269},"geometry":{"x":177769.01000000071,"y":2552809.0000000019}},{"attributes":{"ID":138270,"DIS_CODE":0,"TOWNNAME":"新市區","LI":"新和里","LIN":"27鄰","STREET":"永福街","SECT":" ","MAREA":" ","LANE":"１６巷","ALLEY":"２弄","HOUSE_NO":"５號","E_COORD97":177766.01000000001,"N_COORD97":2552739.25,"ADDRESS":"永福街１６巷２弄５號","OBJECTID":138270},"geometry":{"x":177766.01000000071,"y":2552739.2500000037}},{"attributes":{"ID":138271,"DIS_CODE":0,"TOWNNAME":"新市區","LI":"新和里","LIN":"27鄰","STREET":"永福街","SECT":" ","MAREA":" ","LANE":"１６巷","ALLEY":"２弄","HOUSE_NO":"７號","E_COORD97":177761.56,"N_COORD97":2552740.25,"ADDRESS":"永福街１６巷２弄７號","OBJECTID":138271},"geometry":{"x":177761.56000000145,"y":2552740.2500000019}},{"attributes":{"ID":138272,"DIS_CODE":0,"TOWNNAME":"新市區","LI":"新和里","LIN":"27鄰","STREET":"忠孝街","SECT":" ","MAREA":" ","LANE":"１７９巷","ALLEY":"１弄","HOUSE_NO":"２號","E_COORD97":177681.01000000001,"N_COORD97":2552778,"ADDRESS":"忠孝街１７９巷１弄２號","OBJECTID":138272},"geometry":{"x":177681.01000000071,"y":2552777.9999999981}},{"attributes":{"ID":138273,"DIS_CODE":0,"TOWNNAME":"南區","LI":"再興里","LIN":" ","STREET":"仁慈街","SECT":" ","MAREA":" ","LANE":" ","ALLEY":" ","HOUSE_NO":"６９號之３","E_COORD97":167154.57000000001,"N_COORD97":2542124.5899999999,"ADDRESS":"仁慈街６９號之３","OBJECTID":138273},"geometry":{"x":167154.5700000003,"y":2542124.5899999999}},{"attributes":{"ID":138274,"DIS_CODE":0,"TOWNNAME":"永康區","LI":"埔園里","LIN":"6鄰","STREET":"自強路","SECT":" ","MAREA":" ","LANE":" ","ALLEY":" ","HOUSE_NO":"４６６號","E_COORD97":173771.89000000001,"N_COORD97":2547951.9900000002,"ADDRESS":"自強路４６６號","OBJECTID":138274},"geometry":{"x":173771.88999999966,"y":2547951.9900000021}},{"attributes":{"ID":138275,"DIS_CODE":0,"TOWNNAME":"永康區","LI":"烏竹里","LIN":"6鄰","STREET":"龍橋街","SECT":" ","MAREA":" ","LANE":" ","ALLEY":" ","HOUSE_NO":"４５６號","E_COORD97":174446.45999999999,"N_COORD97":2549308.52,"ADDRESS":"龍橋街４５６號","OBJECTID":138275},"geometry":{"x":174446.45999999996,"y":2549308.5199999996}},{"attributes":{"ID":138276,"DIS_CODE":0,"TOWNNAME":"安南區","LI":"溪心里","LIN":"15鄰","STREET":"本原街","SECT":"二段","MAREA":" ","LANE":" ","ALLEY":" ","HOUSE_NO":"５２１號","E_COORD97":165896.67999999999,"N_COORD97":2550503.4399999999,"ADDRESS":"本原街二段５２１號","OBJECTID":138276},"geometry":{"x":165896.68000000063,"y":2550503.4400000013}},{"attributes":{"ID":138277,"DIS_CODE":0,"TOWNNAME":"安南區","LI":"溪心里","LIN":"15鄰","STREET":"本原街","SECT":"二段","MAREA":" ","LANE":" ","ALLEY":" ","HOUSE_NO":"５２３號","E_COORD97":165893.66,"N_COORD97":2550501.5299999998,"ADDRESS":"本原街二段５２３號","OBJECTID":138277},"geometry":{"x":165893.66000000108,"y":2550501.5299999993}},{"attributes":{"ID":138278,"DIS_CODE":0,"TOWNNAME":"北門區","LI":"中樞里","LIN":" ","STREET":" ","SECT":" ","MAREA":"溪底寮","LANE":" ","ALLEY":" ","HOUSE_NO":"１０７號","E_COORD97":160233.07999999999,"N_COORD97":2570022.4100000001,"ADDRESS":"溪底寮１０７號","OBJECTID":138278},"geometry":{"x":160233.08000000007,"y":2570022.4100000039}},{"attributes":{"ID":138279,"DIS_CODE":0,"TOWNNAME":"北門區","LI":"中樞里","LIN":" ","STREET":" ","SECT":" ","MAREA":"溪底寮","LANE":" ","ALLEY":" ","HOUSE_NO":"１９之１號","E_COORD97":161076.45999999999,"N_COORD97":2571243.9300000002,"ADDRESS":"溪底寮１９之１號","OBJECTID":138279},"geometry":{"x":161076.45999999996,"y":2571243.9300000016}},{"attributes":{"ID":138280,"DIS_CODE":0,"TOWNNAME":"北門區","LI":"中樞里","LIN":" ","STREET":" ","SECT":" ","MAREA":"溪底寮","LANE":" ","ALLEY":" ","HOUSE_NO":"２３號","E_COORD97":161170.70999999999,"N_COORD97":2571191.2999999998,"ADDRESS":"溪底寮２３號","OBJECTID":138280},"geometry":{"x":161170.71000000089,"y":2571191.3000000026}},{"attributes":{"ID":138281,"DIS_CODE":0,"TOWNNAME":"北門區","LI":"中樞里","LIN":" ","STREET":" ","SECT":" ","MAREA":"溪底寮","LANE":" ","ALLEY":" ","HOUSE_NO":"２之１號","E_COORD97":161223.64999999999,"N_COORD97":2571271.2000000002,"ADDRESS":"溪底寮２之１號","OBJECTID":138281},"geometry":{"x":161223.6500000013,"y":2571271.2000000011}},{"attributes":{"ID":138282,"DIS_CODE":0,"TOWNNAME":"北門區","LI":"中樞里","LIN":" ","STREET":" ","SECT":" ","MAREA":"溪底寮","LANE":" ","ALLEY":" ","HOUSE_NO":"３５號","E_COORD97":160976.39000000001,"N_COORD97":2571193.2599999998,"ADDRESS":"溪底寮３５號","OBJECTID":138282},"geometry":{"x":160976.38999999966,"y":2571193.2600000016}},{"attributes":{"ID":138283,"DIS_CODE":0,"TOWNNAME":"北門區","LI":"中樞里","LIN":" ","STREET":" ","SECT":" ","MAREA":"溪底寮","LANE":" ","ALLEY":" ","HOUSE_NO":"４０之１號","E_COORD97":160946.17999999999,"N_COORD97":2571253.02,"ADDRESS":"溪底寮４０之１號","OBJECTID":138283},"geometry":{"x":160946.18000000156,"y":2571253.0200000014}},{"attributes":{"ID":138284,"DIS_CODE":0,"TOWNNAME":"新市區","LI":"新和里","LIN":"27鄰","STREET":"永福街","SECT":" ","MAREA":" ","LANE":"１６巷","ALLEY":"２弄","HOUSE_NO":"３號","E_COORD97":177776.14999999999,"N_COORD97":2552737.25,"ADDRESS":"永福街１６巷２弄３號","OBJECTID":138284},"geometry":{"x":177776.15000000037,"y":2552737.2500000019}},{"attributes":{"ID":138285,"DIS_CODE":0,"TOWNNAME":"山上區","LI":"新莊里","LIN":"6鄰","STREET":" ","SECT":" ","MAREA":"大庄","LANE":" ","ALLEY":" ","HOUSE_NO":"２號之１５","E_COORD97":183969.25,"N_COORD97":2555223.2999999998,"ADDRESS":"大庄２號之１５","OBJECTID":138285},"geometry":{"x":183969.25,"y":2555223.3000000007}},{"attributes":{"ID":138286,"DIS_CODE":0,"TOWNNAME":"北門區","LI":"中樞里","LIN":" ","STREET":" ","SECT":" ","MAREA":"溪底寮","LANE":" ","ALLEY":" ","HOUSE_NO":"４４之５號","E_COORD97":160618.10999999999,"N_COORD97":2571147.8700000001,"ADDRESS":"溪底寮４４之５號","OBJECTID":138286},"geometry":{"x":160618.11000000034,"y":2571147.870000001}},{"attributes":{"ID":138287,"DIS_CODE":0,"TOWNNAME":"北門區","LI":"中樞里","LIN":" ","STREET":" ","SECT":" ","MAREA":"溪底寮","LANE":" ","ALLEY":" ","HOUSE_NO":"４６之１號","E_COORD97":160779.98999999999,"N_COORD97":2571188.77,"ADDRESS":"溪底寮４６之１號","OBJECTID":138287},"geometry":{"x":160779.99000000022,"y":2571188.7699999996}},{"attributes":{"ID":138288,"DIS_CODE":0,"TOWNNAME":"北門區","LI":"中樞里","LIN":" ","STREET":" ","SECT":" ","MAREA":"溪底寮","LANE":" ","ALLEY":" ","HOUSE_NO":"６２之１號","E_COORD97":161038.04000000001,"N_COORD97":2571281.7999999998,"ADDRESS":"溪底寮６２之１號","OBJECTID":138288},"geometry":{"x":161038.04000000097,"y":2571281.8000000045}},{"attributes":{"ID":138289,"DIS_CODE":0,"TOWNNAME":"北門區","LI":"北門里","LIN":" ","STREET":" ","SECT":" ","MAREA":"舊埕","LANE":" ","ALLEY":" ","HOUSE_NO":"４５之５號","E_COORD97":160462.01000000001,"N_COORD97":2574073.0699999998,"ADDRESS":"舊埕４５之５號","OBJECTID":138289},"geometry":{"x":160462.00999999978,"y":2574073.070000004}},{"attributes":{"ID":138290,"DIS_CODE":0,"TOWNNAME":"北門區","LI":"北門里","LIN":" ","STREET":" ","SECT":" ","MAREA":"舊埕","LANE":" ","ALLEY":" ","HOUSE_NO":"７８之３號","E_COORD97":160405.34,"N_COORD97":2574281.4100000001,"ADDRESS":"舊埕７８之３號","OBJECTID":138290},"geometry":{"x":160405.34000000078,"y":2574281.410000002}},{"attributes":{"ID":138291,"DIS_CODE":0,"TOWNNAME":"北門區","LI":"雙春里","LIN":" ","STREET":" ","SECT":" ","MAREA":"雙春","LANE":" ","ALLEY":" ","HOUSE_NO":"１６之２號","E_COORD97":160945.29999999999,"N_COORD97":2577798.5600000001,"ADDRESS":"雙春１６之２號","OBJECTID":138291},"geometry":{"x":160945.29999999981,"y":2577798.5600000005}},{"attributes":{"ID":138292,"DIS_CODE":0,"TOWNNAME":"北門區","LI":"雙春里","LIN":" ","STREET":" ","SECT":" ","MAREA":"雙春","LANE":" ","ALLEY":" ","HOUSE_NO":"２１之２號","E_COORD97":160930.29999999999,"N_COORD97":2577807.5600000001,"ADDRESS":"雙春２１之２號","OBJECTID":138292},"geometry":{"x":160930.30000000168,"y":2577807.5600000024}},{"attributes":{"ID":138293,"DIS_CODE":0,"TOWNNAME":"新市區","LI":"新和里","LIN":"27鄰","STREET":"永福街","SECT":" ","MAREA":" ","LANE":"１６巷","ALLEY":"２弄","HOUSE_NO":"９號","E_COORD97":177751.10999999999,"N_COORD97":2552742.5,"ADDRESS":"永福街１６巷２弄９號","OBJECTID":138293},"geometry":{"x":177751.11000000034,"y":2552742.5000000019}},{"attributes":{"ID":138294,"DIS_CODE":0,"TOWNNAME":"北門區","LI":"雙春里","LIN":" ","STREET":" ","SECT":" ","MAREA":"雙春","LANE":" ","ALLEY":" ","HOUSE_NO":"３７之６號","E_COORD97":159261.76000000001,"N_COORD97":2578397.46,"ADDRESS":"雙春３７之６號","OBJECTID":138294},"geometry":{"x":159261.75999999978,"y":2578397.4600000028}},{"attributes":{"ID":138295,"DIS_CODE":0,"TOWNNAME":"七股區","LI":"大寮里","LIN":" ","STREET":" ","SECT":" ","MAREA":"大寮","LANE":" ","ALLEY":" ","HOUSE_NO":"４２號","E_COORD97":163152.42000000001,"N_COORD97":2560961.3399999999,"ADDRESS":"大寮４２號","OBJECTID":138295},"geometry":{"x":163152.42000000086,"y":2560961.3400000017}},{"attributes":{"ID":138296,"DIS_CODE":0,"TOWNNAME":"七股區","LI":"大埕里","LIN":" ","STREET":" ","SECT":" ","MAREA":"大埕","LANE":" ","ALLEY":" ","HOUSE_NO":"１１７之１號","E_COORD97":162766.64999999999,"N_COORD97":2561463.54,"ADDRESS":"大埕１１７之１號","OBJECTID":138296},"geometry":{"x":162766.6500000013,"y":2561463.540000001}},{"attributes":{"ID":138297,"DIS_CODE":0,"TOWNNAME":"七股區","LI":"大埕里","LIN":" ","STREET":" ","SECT":" ","MAREA":"大埕","LANE":" ","ALLEY":" ","HOUSE_NO":"２５８號","E_COORD97":162182.20999999999,"N_COORD97":2560446.1600000001,"ADDRESS":"大埕２５８號","OBJECTID":138297},"geometry":{"x":162182.21000000089,"y":2560446.1599999983}},{"attributes":{"ID":138298,"DIS_CODE":0,"TOWNNAME":"七股區","LI":"大埕里","LIN":" ","STREET":" ","SECT":" ","MAREA":"大埕","LANE":" ","ALLEY":" ","HOUSE_NO":"２６１號","E_COORD97":162171.14000000001,"N_COORD97":2560437.4300000002,"ADDRESS":"大埕２６１號","OBJECTID":138298},"geometry":{"x":162171.1400000006,"y":2560437.4300000034}},{"attributes":{"ID":138299,"DIS_CODE":0,"TOWNNAME":"永康區","LI":"二王里","LIN":"27鄰","STREET":"中山南路","SECT":" ","MAREA":" ","LANE":"５４４巷","ALLEY":"６０弄","HOUSE_NO":"７號","E_COORD97":172305.56,"N_COORD97":2546343.8399999999,"ADDRESS":"中山南路５４４巷６０弄７號","OBJECTID":138299},"geometry":{"x":172305.55999999959,"y":2546343.8399999999}},{"attributes":{"ID":138300,"DIS_CODE":0,"TOWNNAME":"永康區","LI":"大灣里","LIN":"27鄰","STREET":"大灣六街","SECT":" ","MAREA":" ","LANE":"８０巷","ALLEY":"３６弄","HOUSE_NO":"３０號","E_COORD97":175309.07999999999,"N_COORD97":2545249.04,"ADDRESS":"大灣六街８０巷３６弄３０號","OBJECTID":138300},"geometry":{"x":175309.08000000101,"y":2545249.0399999991}},{"attributes":{"ID":138301,"DIS_CODE":0,"TOWNNAME":"永康區","LI":"大灣里","LIN":"27鄰","STREET":"大灣六街","SECT":" ","MAREA":" ","LANE":"８０巷","ALLEY":"３６弄","HOUSE_NO":"１８號","E_COORD97":175288.03,"N_COORD97":2545249.6800000002,"ADDRESS":"大灣六街８０巷３６弄１８號","OBJECTID":138301},"geometry":{"x":175288.03000000119,"y":2545249.6799999997}},{"attributes":{"ID":138302,"DIS_CODE":0,"TOWNNAME":"永康區","LI":"二王里","LIN":"27鄰","STREET":"中山南路","SECT":" ","MAREA":" ","LANE":"５４４巷","ALLEY":"６０弄","HOUSE_NO":"１１號","E_COORD97":172294.91,"N_COORD97":2546343.8399999999,"ADDRESS":"中山南路５４４巷６０弄１１號","OBJECTID":138302},"geometry":{"x":172294.91000000108,"y":2546343.8399999999}},{"attributes":{"ID":138303,"DIS_CODE":0,"TOWNNAME":"永康區","LI":"大灣里","LIN":"27鄰","STREET":"大灣六街","SECT":" ","MAREA":" ","LANE":"８０巷","ALLEY":"３６弄","HOUSE_NO":"５號","E_COORD97":175261.01999999999,"N_COORD97":2545273.2000000002,"ADDRESS":"大灣六街８０巷３６弄５號","OBJECTID":138303},"geometry":{"x":175261.01999999955,"y":2545273.200000003}},{"attributes":{"ID":138304,"DIS_CODE":0,"TOWNNAME":"永康區","LI":"大灣里","LIN":"27鄰","STREET":"大灣六街","SECT":" ","MAREA":" ","LANE":"８０巷","ALLEY":"３６弄","HOUSE_NO":"２０號","E_COORD97":175291.92999999999,"N_COORD97":2545249.6800000002,"ADDRESS":"大灣六街８０巷３６弄２０號","OBJECTID":138304},"geometry":{"x":175291.9299999997,"y":2545249.6799999997}},{"attributes":{"ID":138305,"DIS_CODE":0,"TOWNNAME":"永康區","LI":"大灣里","LIN":"27鄰","STREET":"大灣六街","SECT":" ","MAREA":" ","LANE":"８０巷","ALLEY":"３６弄","HOUSE_NO":"１３號","E_COORD97":175280.39999999999,"N_COORD97":2545270.7000000002,"ADDRESS":"大灣六街８０巷３６弄１３號","OBJECTID":138305},"geometry":{"x":175280.4000000013,"y":2545270.7000000011}},{"attributes":{"ID":138306,"DIS_CODE":0,"TOWNNAME":"北區","LI":"成德里","LIN":"15鄰","STREET":"育賢街","SECT":" ","MAREA":" ","LANE":" ","ALLEY":" ","HOUSE_NO":"７０號","E_COORD97":168773.01999999999,"N_COORD97":2545994.5299999998,"ADDRESS":"育賢街７０號","OBJECTID":138306},"geometry":{"x":168773.01999999955,"y":2545994.5300000012}},{"attributes":{"ID":138307,"DIS_CODE":0,"TOWNNAME":"北區","LI":"成德里","LIN":"15鄰","STREET":"育賢街","SECT":" ","MAREA":" ","LANE":" ","ALLEY":" ","HOUSE_NO":"６８號","E_COORD97":168769.53,"N_COORD97":2545986.27,"ADDRESS":"育賢街６８號","OBJECTID":138307},"geometry":{"x":168769.53000000212,"y":2545986.2700000014}},{"attributes":{"ID":138308,"DIS_CODE":0,"TOWNNAME":"北區","LI":"成德里","LIN":"15鄰","STREET":"育賢街","SECT":" ","MAREA":" ","LANE":" ","ALLEY":" ","HOUSE_NO":"６２號","E_COORD97":168765.23999999999,"N_COORD97":2545969.4399999999,"ADDRESS":"育賢街６２號","OBJECTID":138308},"geometry":{"x":168765.24000000115,"y":2545969.4399999995}},{"attributes":{"ID":138309,"DIS_CODE":0,"TOWNNAME":"北區","LI":"成德里","LIN":"15鄰","STREET":"育賢街","SECT":" ","MAREA":" ","LANE":" ","ALLEY":" ","HOUSE_NO":"３２號","E_COORD97":168774.29000000001,"N_COORD97":2545923.8799999999,"ADDRESS":"育賢街３２號","OBJECTID":138309},"geometry":{"x":168774.2900000019,"y":2545923.8800000008}},{"attributes":{"ID":138310,"DIS_CODE":0,"TOWNNAME":"北區","LI":"成德里","LIN":"15鄰","STREET":"育賢街","SECT":" ","MAREA":" ","LANE":" ","ALLEY":" ","HOUSE_NO":"３８號","E_COORD97":168777.79000000001,"N_COORD97":2545940.23,"ADDRESS":"育賢街３８號","OBJECTID":138310},"geometry":{"x":168777.79000000097,"y":2545940.2300000023}},{"attributes":{"ID":138311,"DIS_CODE":0,"TOWNNAME":"北區","LI":"成德里","LIN":"15鄰","STREET":"育賢街","SECT":" ","MAREA":" ","LANE":" ","ALLEY":" ","HOUSE_NO":"４０號","E_COORD97":168780.64000000001,"N_COORD97":2545946.4199999999,"ADDRESS":"育賢街４０號","OBJECTID":138311},"geometry":{"x":168780.6400000006,"y":2545946.4199999999}},{"attributes":{"ID":138312,"DIS_CODE":0,"TOWNNAME":"北區","LI":"文元里","LIN":"15鄰","STREET":"文賢路","SECT":" ","MAREA":" ","LANE":" ","ALLEY":" ","HOUSE_NO":"９８０號","E_COORD97":167381.82000000001,"N_COORD97":2545795.6699999999,"ADDRESS":"文賢路９８０號","OBJECTID":138312},"geometry":{"x":167381.8200000003,"y":2545795.6699999999}},{"attributes":{"ID":138313,"DIS_CODE":0,"TOWNNAME":"北區","LI":"文元里","LIN":"15鄰","STREET":"文成路","SECT":" ","MAREA":" ","LANE":" ","ALLEY":" ","HOUSE_NO":"７６５號","E_COORD97":167500.39999999999,"N_COORD97":2545856.2000000002,"ADDRESS":"文成路７６５號","OBJECTID":138313},"geometry":{"x":167500.40000000037,"y":2545856.200000003}},{"attributes":{"ID":138314,"DIS_CODE":0,"TOWNNAME":"北區","LI":"正覺里","LIN":"15鄰","STREET":"正覺街","SECT":" ","MAREA":" ","LANE":" ","ALLEY":" ","HOUSE_NO":"１２０之１號","E_COORD97":169368.51999999999,"N_COORD97":2546600.52,"ADDRESS":"正覺街１２０之１號","OBJECTID":138314},"geometry":{"x":169368.51999999955,"y":2546600.5200000033}},{"attributes":{"ID":138315,"DIS_CODE":0,"TOWNNAME":"北區","LI":"力行里","LIN":"15鄰","STREET":"力行三街","SECT":" ","MAREA":" ","LANE":" ","ALLEY":" ","HOUSE_NO":"５號","E_COORD97":170970.19,"N_COORD97":2545361.9300000002,"ADDRESS":"力行三街５號","OBJECTID":138315},"geometry":{"x":170970.19000000041,"y":2545361.9299999997}},{"attributes":{"ID":138316,"DIS_CODE":0,"TOWNNAME":"北區","LI":"成德里","LIN":"15鄰","STREET":"文成路","SECT":" ","MAREA":" ","LANE":" ","ALLEY":" ","HOUSE_NO":"１１０號","E_COORD97":168708.84,"N_COORD97":2545917.54,"ADDRESS":"文成路１１０號","OBJECTID":138316},"geometry":{"x":168708.83999999985,"y":2545917.5399999991}},{"attributes":{"ID":138317,"DIS_CODE":0,"TOWNNAME":"北區","LI":"成德里","LIN":"15鄰","STREET":"文成路","SECT":" ","MAREA":" ","LANE":" ","ALLEY":" ","HOUSE_NO":"１１２號","E_COORD97":168705.98000000001,"N_COORD97":2545917.2200000002,"ADDRESS":"文成路１１２號","OBJECTID":138317},"geometry":{"x":168705.98000000138,"y":2545917.2200000007}},{"attributes":{"ID":138318,"DIS_CODE":0,"TOWNNAME":"永康區","LI":"大灣里","LIN":"27鄰","STREET":"大灣六街","SECT":" ","MAREA":" ","LANE":"８０巷","ALLEY":"３６弄","HOUSE_NO":"１１號","E_COORD97":175275.94,"N_COORD97":2545270.7000000002,"ADDRESS":"大灣六街８０巷３６弄１１號","OBJECTID":138318},"geometry":{"x":175275.94000000041,"y":2545270.7000000011}},{"attributes":{"ID":138319,"DIS_CODE":0,"TOWNNAME":"永康區","LI":"大灣里","LIN":"27鄰","STREET":"大灣六街","SECT":" ","MAREA":" ","LANE":"８０巷","ALLEY":"３６弄","HOUSE_NO":"１２號","E_COORD97":175279.26999999999,"N_COORD97":2545250.4300000002,"ADDRESS":"大灣六街８０巷３６弄１２號","OBJECTID":138319},"geometry":{"x":175279.26999999955,"y":2545250.4299999997}},{"attributes":{"ID":138320,"DIS_CODE":0,"TOWNNAME":"永康區","LI":"大灣里","LIN":"27鄰","STREET":"大灣六街","SECT":" ","MAREA":" ","LANE":"８０巷","ALLEY":"３６弄","HOUSE_NO":"６號","E_COORD97":175261.78,"N_COORD97":2545250.3900000001,"ADDRESS":"大灣六街８０巷３６弄６號","OBJECTID":138320},"geometry":{"x":175261.78000000026,"y":2545250.3900000025}},{"attributes":{"ID":138321,"DIS_CODE":0,"TOWNNAME":"永康區","LI":"大灣里","LIN":"27鄰","STREET":"大灣六街","SECT":" ","MAREA":" ","LANE":"８０巷","ALLEY":"３６弄","HOUSE_NO":"３８號","E_COORD97":175322.35999999999,"N_COORD97":2545248.04,"ADDRESS":"大灣六街８０巷３６弄３８號","OBJECTID":138321},"geometry":{"x":175322.36000000034,"y":2545248.040000001}},{"attributes":{"ID":138322,"DIS_CODE":0,"TOWNNAME":"永康區","LI":"二王里","LIN":"27鄰","STREET":"中山南路","SECT":" ","MAREA":" ","LANE":"５４４巷","ALLEY":"６０弄","HOUSE_NO":"１３號","E_COORD97":172289.51000000001,"N_COORD97":2546344.0899999999,"ADDRESS":"中山南路５４４巷６０弄１３號","OBJECTID":138322},"geometry":{"x":172289.50999999978,"y":2546344.0900000017}},{"attributes":{"ID":138323,"DIS_CODE":0,"TOWNNAME":"永康區","LI":"大灣里","LIN":"27鄰","STREET":"大灣六街","SECT":" ","MAREA":" ","LANE":"８０巷","ALLEY":"３６弄","HOUSE_NO":"７號","E_COORD97":175265.32000000001,"N_COORD97":2545273.2000000002,"ADDRESS":"大灣六街８０巷３６弄７號","OBJECTID":138323},"geometry":{"x":175265.32000000123,"y":2545273.200000003}},{"attributes":{"ID":138324,"DIS_CODE":0,"TOWNNAME":"永康區","LI":"大灣里","LIN":"27鄰","STREET":"大灣六街","SECT":" ","MAREA":" ","LANE":"８０巷","ALLEY":"３６弄","HOUSE_NO":"１５號","E_COORD97":175284.79999999999,"N_COORD97":2545270.4500000002,"ADDRESS":"大灣六街８０巷３６弄１５號","OBJECTID":138324},"geometry":{"x":175284.79999999981,"y":2545270.4499999993}},{"attributes":{"ID":138325,"DIS_CODE":0,"TOWNNAME":"永康區","LI":"二王里","LIN":"27鄰","STREET":"中山南路","SECT":" ","MAREA":" ","LANE":"５４４巷","ALLEY":"６０弄","HOUSE_NO":"９號","E_COORD97":172299.70999999999,"N_COORD97":2546344.0899999999,"ADDRESS":"中山南路５４４巷６０弄９號","OBJECTID":138325},"geometry":{"x":172299.71000000089,"y":2546344.0900000017}},{"attributes":{"ID":138326,"DIS_CODE":0,"TOWNNAME":"新市區","LI":"社內里","LIN":"6鄰","STREET":" ","SECT":" ","MAREA":"社內","LANE":" ","ALLEY":" ","HOUSE_NO":"５９之３號","E_COORD97":176744.76000000001,"N_COORD97":2552676.7999999998,"ADDRESS":"社內５９之３號","OBJECTID":138326},"geometry":{"x":176744.75999999885,"y":2552676.8000000026}},{"attributes":{"ID":138327,"DIS_CODE":0,"TOWNNAME":"新市區","LI":"社內里","LIN":"6鄰","STREET":" ","SECT":" ","MAREA":"社內","LANE":" ","ALLEY":" ","HOUSE_NO":"５８號","E_COORD97":176704.04000000001,"N_COORD97":2552588.25,"ADDRESS":"社內５８號","OBJECTID":138327},"geometry":{"x":176704.04000000004,"y":2552588.2500000019}},{"attributes":{"ID":138328,"DIS_CODE":0,"TOWNNAME":"山上區","LI":"新莊里","LIN":"6鄰","STREET":" ","SECT":" ","MAREA":"大庄","LANE":" ","ALLEY":" ","HOUSE_NO":"１號之３６","E_COORD97":184141.79999999999,"N_COORD97":2555006.2999999998,"ADDRESS":"大庄１號之３６","OBJECTID":138328},"geometry":{"x":184141.79999999981,"y":2555006.3000000007}},{"attributes":{"ID":138329,"DIS_CODE":0,"TOWNNAME":"永康區","LI":"中興里","LIN":"27鄰","STREET":"中興街","SECT":" ","MAREA":" ","LANE":"９１巷","ALLEY":"２７弄","HOUSE_NO":"１號之８","E_COORD97":171961.62,"N_COORD97":2545318.79,"ADDRESS":"中興街９１巷２７弄１號之８","OBJECTID":138329},"geometry":{"x":171961.62000000011,"y":2545318.7899999991}},{"attributes":{"ID":138330,"DIS_CODE":0,"TOWNNAME":"山上區","LI":"新莊里","LIN":"6鄰","STREET":" ","SECT":" ","MAREA":"大庄","LANE":" ","ALLEY":" ","HOUSE_NO":"２之７號","E_COORD97":184018.70999999999,"N_COORD97":2554979.2999999998,"ADDRESS":"大庄２之７號","OBJECTID":138330},"geometry":{"x":184018.70999999996,"y":2554979.3000000007}},{"attributes":{"ID":138331,"DIS_CODE":0,"TOWNNAME":"七股區","LI":"大埕里","LIN":" ","STREET":" ","SECT":" ","MAREA":"大埕","LANE":" ","ALLEY":" ","HOUSE_NO":"４１０號","E_COORD97":161989.73999999999,"N_COORD97":2559977.79,"ADDRESS":"大埕４１０號","OBJECTID":138331},"geometry":{"x":161989.74000000022,"y":2559977.790000001}},{"attributes":{"ID":138332,"DIS_CODE":0,"TOWNNAME":"永康區","LI":"中興里","LIN":"27鄰","STREET":"中興街","SECT":" ","MAREA":" ","LANE":"６９巷","ALLEY":"８弄","HOUSE_NO":"１號","E_COORD97":172017.04000000001,"N_COORD97":2545314.5,"ADDRESS":"中興街６９巷８弄１號","OBJECTID":138332},"geometry":{"x":172017.0400000019,"y":2545314.5}},{"attributes":{"ID":138333,"DIS_CODE":0,"TOWNNAME":"山上區","LI":"新莊里","LIN":"6鄰","STREET":" ","SECT":" ","MAREA":"大庄","LANE":" ","ALLEY":" ","HOUSE_NO":"２之１１號","E_COORD97":184035.06,"N_COORD97":2554991.2999999998,"ADDRESS":"大庄２之１１號","OBJECTID":138333},"geometry":{"x":184035.05999999959,"y":2554991.3000000026}},{"attributes":{"ID":138334,"DIS_CODE":0,"TOWNNAME":"山上區","LI":"新莊里","LIN":"6鄰","STREET":" ","SECT":" ","MAREA":"大庄","LANE":" ","ALLEY":" ","HOUSE_NO":"２之１號","E_COORD97":184003.01000000001,"N_COORD97":2554964.2999999998,"ADDRESS":"大庄２之１號","OBJECTID":138334},"geometry":{"x":184003.00999999978,"y":2554964.3000000026}},{"attributes":{"ID":138335,"DIS_CODE":0,"TOWNNAME":"山上區","LI":"山上里","LIN":"6鄰","STREET":" ","SECT":" ","MAREA":"山上","LANE":" ","ALLEY":" ","HOUSE_NO":"１０７號","E_COORD97":184266.91,"N_COORD97":2555741.25,"ADDRESS":"山上１０７號","OBJECTID":138335},"geometry":{"x":184266.91000000015,"y":2555741.2500000019}},{"attributes":{"ID":138336,"DIS_CODE":0,"TOWNNAME":"山上區","LI":"新莊里","LIN":"6鄰","STREET":" ","SECT":" ","MAREA":"大庄","LANE":" ","ALLEY":" ","HOUSE_NO":"１之３２號","E_COORD97":184159.16,"N_COORD97":2555020.2999999998,"ADDRESS":"大庄１之３２號","OBJECTID":138336},"geometry":{"x":184159.16000000108,"y":2555020.3000000007}},{"attributes":{"ID":138337,"DIS_CODE":0,"TOWNNAME":"山上區","LI":"新莊里","LIN":"6鄰","STREET":" ","SECT":" ","MAREA":"大庄","LANE":" ","ALLEY":" ","HOUSE_NO":"１之４５號","E_COORD97":184170.66,"N_COORD97":2555002.2999999998,"ADDRESS":"大庄１之４５號","OBJECTID":138337},"geometry":{"x":184170.66000000015,"y":2555002.3000000026}},{"attributes":{"ID":138338,"DIS_CODE":0,"TOWNNAME":"山上區","LI":"新莊里","LIN":"6鄰","STREET":" ","SECT":" ","MAREA":"大庄","LANE":" ","ALLEY":" ","HOUSE_NO":"９號","E_COORD97":183926.41,"N_COORD97":2554873.25,"ADDRESS":"大庄９號","OBJECTID":138338},"geometry":{"x":183926.41000000015,"y":2554873.2500000019}},{"attributes":{"ID":138339,"DIS_CODE":0,"TOWNNAME":"山上區","LI":"南洲里","LIN":"6鄰","STREET":" ","SECT":" ","MAREA":"南洲","LANE":" ","ALLEY":" ","HOUSE_NO":"１６５號","E_COORD97":183847.54000000001,"N_COORD97":2555714.25,"ADDRESS":"南洲１６５號","OBJECTID":138339},"geometry":{"x":183847.54000000004,"y":2555714.2500000019}},{"attributes":{"ID":138340,"DIS_CODE":0,"TOWNNAME":"山上區","LI":"新莊里","LIN":"6鄰","STREET":" ","SECT":" ","MAREA":"大庄","LANE":" ","ALLEY":" ","HOUSE_NO":"１之９號","E_COORD97":184136.41,"N_COORD97":2555062.2999999998,"ADDRESS":"大庄１之９號","OBJECTID":138340},"geometry":{"x":184136.41000000015,"y":2555062.3000000045}},{"attributes":{"ID":138341,"DIS_CODE":0,"TOWNNAME":"山上區","LI":"新莊里","LIN":"6鄰","STREET":" ","SECT":" ","MAREA":"大庄","LANE":" ","ALLEY":" ","HOUSE_NO":"１之２２號","E_COORD97":184145.26000000001,"N_COORD97":2555025.2999999998,"ADDRESS":"大庄１之２２號","OBJECTID":138341},"geometry":{"x":184145.25999999978,"y":2555025.3000000026}},{"attributes":{"ID":138342,"DIS_CODE":0,"TOWNNAME":"南區","LI":"再興里","LIN":"20鄰","STREET":"金華路","SECT":"二段","MAREA":" ","LANE":" ","ALLEY":" ","HOUSE_NO":"６４號","E_COORD97":167079.79999999999,"N_COORD97":2541974.6099999999,"ADDRESS":"金華路二段６４號","OBJECTID":138342},"geometry":{"x":167079.79999999981,"y":2541974.6099999994}},{"attributes":{"ID":138343,"DIS_CODE":0,"TOWNNAME":"永康區","LI":"中興里","LIN":"27鄰","STREET":"中興街","SECT":" ","MAREA":" ","LANE":"９１巷","ALLEY":"２７弄","HOUSE_NO":"２４號","E_COORD97":171938.67000000001,"N_COORD97":2545335.7400000002,"ADDRESS":"中興街９１巷２７弄２４號","OBJECTID":138343},"geometry":{"x":171938.67000000086,"y":2545335.7400000021}},{"attributes":{"ID":138344,"DIS_CODE":0,"TOWNNAME":"永康區","LI":"中興里","LIN":"27鄰","STREET":"中興街","SECT":" ","MAREA":" ","LANE":"９１巷","ALLEY":"２７弄","HOUSE_NO":"１號","E_COORD97":171997.78,"N_COORD97":2545316.5800000001,"ADDRESS":"中興街９１巷２７弄１號","OBJECTID":138344},"geometry":{"x":171997.78000000119,"y":2545316.5800000019}},{"attributes":{"ID":138345,"DIS_CODE":0,"TOWNNAME":"永康區","LI":"中興里","LIN":"27鄰","STREET":"中興街","SECT":" ","MAREA":" ","LANE":"６９巷","ALLEY":"８弄","HOUSE_NO":"４號","E_COORD97":172027.82000000001,"N_COORD97":2545303.75,"ADDRESS":"中興街６９巷８弄４號","OBJECTID":138345},"geometry":{"x":172027.82000000123,"y":2545303.75}},{"attributes":{"ID":138346,"DIS_CODE":0,"TOWNNAME":"山上區","LI":"新莊里","LIN":"6鄰","STREET":" ","SECT":" ","MAREA":"大庄","LANE":" ","ALLEY":" ","HOUSE_NO":"１之４３號","E_COORD97":184166.56,"N_COORD97":2554998.2999999998,"ADDRESS":"大庄１之４３號","OBJECTID":138346},"geometry":{"x":184166.56000000052,"y":2554998.3000000026}},{"attributes":{"ID":138347,"DIS_CODE":0,"TOWNNAME":"山上區","LI":"玉\u25A0里","LIN":"6鄰","STREET":" ","SECT":" ","MAREA":"中坑","LANE":" ","ALLEY":" ","HOUSE_NO":"１９號","E_COORD97":187600.82470999999,"N_COORD97":2554969.4914600002,"ADDRESS":"中坑１９號","OBJECTID":138347},"geometry":{"x":187600.82471000217,"y":2554969.4914630018}},{"attributes":{"ID":138348,"DIS_CODE":0,"TOWNNAME":"七股區","LI":"十份里","LIN":" ","STREET":" ","SECT":" ","MAREA":"海埔","LANE":" ","ALLEY":" ","HOUSE_NO":"２９號","E_COORD97":153326.66,"N_COORD97":2556675.7799999998,"ADDRESS":"海埔２９號","OBJECTID":138348},"geometry":{"x":153326.66000000015,"y":2556675.7800000012}},{"attributes":{"ID":138349,"DIS_CODE":0,"TOWNNAME":"山上區","LI":"新莊里","LIN":"6鄰","STREET":" ","SECT":" ","MAREA":"大庄","LANE":" ","ALLEY":" ","HOUSE_NO":"１之２３號","E_COORD97":184149.16,"N_COORD97":2555030.2999999998,"ADDRESS":"大庄１之２３號","OBJECTID":138349},"geometry":{"x":184149.16000000108,"y":2555030.3000000007}},{"attributes":{"ID":138350,"DIS_CODE":0,"TOWNNAME":"永康區","LI":"中興里","LIN":"27鄰","STREET":"中興街","SECT":" ","MAREA":" ","LANE":"９１巷","ALLEY":"２７弄","HOUSE_NO":"８號","E_COORD97":171994.37,"N_COORD97":2545298.6200000001,"ADDRESS":"中興街９１巷２７弄８號","OBJECTID":138350},"geometry":{"x":171994.37000000011,"y":2545298.620000001}},{"attributes":{"ID":138351,"DIS_CODE":0,"TOWNNAME":"永康區","LI":"中興里","LIN":"27鄰","STREET":"中興街","SECT":" ","MAREA":" ","LANE":"９１巷","ALLEY":"２７弄","HOUSE_NO":"１號之４","E_COORD97":171979.01000000001,"N_COORD97":2545317.79,"ADDRESS":"中興街９１巷２７弄１號之４","OBJECTID":138351},"geometry":{"x":171979.00999999978,"y":2545317.790000001}},{"attributes":{"ID":138352,"DIS_CODE":0,"TOWNNAME":"山上區","LI":"新莊里","LIN":"6鄰","STREET":" ","SECT":" ","MAREA":"大庄","LANE":" ","ALLEY":" ","HOUSE_NO":"１之１９號","E_COORD97":184125.85999999999,"N_COORD97":2555010.2999999998,"ADDRESS":"大庄１之１９號","OBJECTID":138352},"geometry":{"x":184125.86000000127,"y":2555010.3000000007}},{"attributes":{"ID":138353,"DIS_CODE":0,"TOWNNAME":"山上區","LI":"新莊里","LIN":"6鄰","STREET":" ","SECT":" ","MAREA":"大庄","LANE":" ","ALLEY":" ","HOUSE_NO":"２之６號","E_COORD97":184015.41,"N_COORD97":2554976.2999999998,"ADDRESS":"大庄２之６號","OBJECTID":138353},"geometry":{"x":184015.41000000108,"y":2554976.3000000007}},{"attributes":{"ID":138354,"DIS_CODE":0,"TOWNNAME":"山上區","LI":"新莊里","LIN":"6鄰","STREET":" ","SECT":" ","MAREA":"大庄","LANE":" ","ALLEY":" ","HOUSE_NO":"１之２４號","E_COORD97":184156.56,"N_COORD97":2555036.2999999998,"ADDRESS":"大庄１之２４號","OBJECTID":138354},"geometry":{"x":184156.56000000052,"y":2555036.3000000026}},{"attributes":{"ID":138355,"DIS_CODE":0,"TOWNNAME":"山上區","LI":"新莊里","LIN":"6鄰","STREET":" ","SECT":" ","MAREA":"大庄","LANE":" ","ALLEY":" ","HOUSE_NO":"１之３５號","E_COORD97":184146.16,"N_COORD97":2555010.2999999998,"ADDRESS":"大庄１之３５號","OBJECTID":138355},"geometry":{"x":184146.16000000108,"y":2555010.3000000007}},{"attributes":{"ID":138356,"DIS_CODE":0,"TOWNNAME":"山上區","LI":"新莊里","LIN":"6鄰","STREET":" ","SECT":" ","MAREA":"大庄","LANE":" ","ALLEY":" ","HOUSE_NO":"１之３４號","E_COORD97":184150.85999999999,"N_COORD97":2555013.2999999998,"ADDRESS":"大庄１之３４號","OBJECTID":138356},"geometry":{"x":184150.86000000034,"y":2555013.3000000007}},{"attributes":{"ID":138357,"DIS_CODE":0,"TOWNNAME":"山上區","LI":"新莊里","LIN":"6鄰","STREET":" ","SECT":" ","MAREA":"大庄","LANE":" ","ALLEY":" ","HOUSE_NO":"１之５號","E_COORD97":184112.91,"N_COORD97":2555043.2999999998,"ADDRESS":"大庄１之５號","OBJECTID":138357},"geometry":{"x":184112.91000000015,"y":2555043.3000000026}},{"attributes":{"ID":138358,"DIS_CODE":0,"TOWNNAME":"山上區","LI":"新莊里","LIN":"6鄰","STREET":" ","SECT":" ","MAREA":"大庄","LANE":" ","ALLEY":" ","HOUSE_NO":"１之３８號","E_COORD97":184130.56,"N_COORD97":2555002.2999999998,"ADDRESS":"大庄１之３８號","OBJECTID":138358},"geometry":{"x":184130.56000000052,"y":2555002.3000000026}},{"attributes":{"ID":138359,"DIS_CODE":0,"TOWNNAME":"山上區","LI":"新莊里","LIN":"6鄰","STREET":" ","SECT":" ","MAREA":"大庄","LANE":" ","ALLEY":" ","HOUSE_NO":"６之５號","E_COORD97":183931.70999999999,"N_COORD97":2554908.2999999998,"ADDRESS":"大庄６之５號","OBJECTID":138359},"geometry":{"x":183931.71000000089,"y":2554908.3000000007}},{"attributes":{"ID":138360,"DIS_CODE":0,"TOWNNAME":"山上區","LI":"新莊里","LIN":"6鄰","STREET":" ","SECT":" ","MAREA":"大庄","LANE":" ","ALLEY":" ","HOUSE_NO":"１之４號","E_COORD97":184107.81,"N_COORD97":2555039.2999999998,"ADDRESS":"大庄１之４號","OBJECTID":138360},"geometry":{"x":184107.80999999959,"y":2555039.3000000026}},{"attributes":{"ID":138361,"DIS_CODE":0,"TOWNNAME":"山上區","LI":"新莊里","LIN":"6鄰","STREET":" ","SECT":" ","MAREA":"大庄","LANE":" ","ALLEY":" ","HOUSE_NO":"２之２號","E_COORD97":184005.60999999999,"N_COORD97":2554967.2999999998,"ADDRESS":"大庄２之２號","OBJECTID":138361},"geometry":{"x":184005.61000000127,"y":2554967.3000000045}},{"attributes":{"ID":138362,"DIS_CODE":0,"TOWNNAME":"山上區","LI":"新莊里","LIN":"6鄰","STREET":" ","SECT":" ","MAREA":"大庄","LANE":" ","ALLEY":" ","HOUSE_NO":"９之１０號","E_COORD97":183966.26000000001,"N_COORD97":2554904.2999999998,"ADDRESS":"大庄９之１０號","OBJECTID":138362},"geometry":{"x":183966.25999999885,"y":2554904.3000000026}},{"attributes":{"ID":138363,"DIS_CODE":0,"TOWNNAME":"山上區","LI":"新莊里","LIN":"6鄰","STREET":" ","SECT":" ","MAREA":"大庄","LANE":" ","ALLEY":" ","HOUSE_NO":"１之８號","E_COORD97":184130.01000000001,"N_COORD97":2555056.2999999998,"ADDRESS":"大庄１之８號","OBJECTID":138363},"geometry":{"x":184130.00999999978,"y":2555056.3000000026}},{"attributes":{"ID":138364,"DIS_CODE":0,"TOWNNAME":"山上區","LI":"玉\u25A0里","LIN":"6鄰","STREET":" ","SECT":" ","MAREA":"中坑","LANE":" ","ALLEY":" ","HOUSE_NO":"２０號","E_COORD97":187581.970153,"N_COORD97":2554971.0789600001,"ADDRESS":"中坑２０號","OBJECTID":138364},"geometry":{"x":187581.97015300114,"y":2554971.0789620001}},{"attributes":{"ID":138365,"DIS_CODE":0,"TOWNNAME":"七股區","LI":"大埕里","LIN":" ","STREET":" ","SECT":" ","MAREA":"大埕","LANE":" ","ALLEY":" ","HOUSE_NO":"２７１號","E_COORD97":162143.45999999999,"N_COORD97":2560565.4900000002,"ADDRESS":"大埕２７１號","OBJECTID":138365},"geometry":{"x":162143.46000000089,"y":2560565.4900000002}},{"attributes":{"ID":138366,"DIS_CODE":0,"TOWNNAME":"七股區","LI":"大埕里","LIN":" ","STREET":" ","SECT":" ","MAREA":"大埕","LANE":" ","ALLEY":" ","HOUSE_NO":"２８號","E_COORD97":163175.20999999999,"N_COORD97":2561400.0899999999,"ADDRESS":"大埕２８號","OBJECTID":138366},"geometry":{"x":163175.20999999996,"y":2561400.0900000017}},{"attributes":{"ID":138367,"DIS_CODE":0,"TOWNNAME":"七股區","LI":"大埕里","LIN":" ","STREET":" ","SECT":" ","MAREA":"大埕","LANE":" ","ALLEY":" ","HOUSE_NO":"３５１之４４號","E_COORD97":161966.73999999999,"N_COORD97":2560097.3500000001,"ADDRESS":"大埕３５１之４４號","OBJECTID":138367},"geometry":{"x":161966.73999999929,"y":2560097.3499999996}},{"attributes":{"ID":138368,"DIS_CODE":0,"TOWNNAME":"七股區","LI":"大埕里","LIN":" ","STREET":" ","SECT":" ","MAREA":"大埕","LANE":" ","ALLEY":" ","HOUSE_NO":"３５２之２７號","E_COORD97":161996.26000000001,"N_COORD97":2560178.0800000001,"ADDRESS":"大埕３５２之２７號","OBJECTID":138368},"geometry":{"x":161996.25999999978,"y":2560178.0800000001}},{"attributes":{"ID":138369,"DIS_CODE":0,"TOWNNAME":"七股區","LI":"大埕里","LIN":" ","STREET":" ","SECT":" ","MAREA":"大埕","LANE":" ","ALLEY":" ","HOUSE_NO":"７２號","E_COORD97":162987.91,"N_COORD97":2561073.77,"ADDRESS":"大埕７２號","OBJECTID":138369},"geometry":{"x":162987.91000000201,"y":2561073.7700000014}},{"attributes":{"ID":138370,"DIS_CODE":0,"TOWNNAME":"七股區","LI":"中寮里","LIN":"8鄰","STREET":" ","SECT":" ","MAREA":"中寮","LANE":" ","ALLEY":" ","HOUSE_NO":"６４之２號","E_COORD97":158742.018507,"N_COORD97":2561597.98,"ADDRESS":"中寮６４之２號","OBJECTID":138370},"geometry":{"x":158742.01850700192,"y":2561597.979998}},{"attributes":{"ID":138371,"DIS_CODE":0,"TOWNNAME":"七股區","LI":"大潭里","LIN":" ","STREET":" ","SECT":" ","MAREA":"台潭","LANE":" ","ALLEY":" ","HOUSE_NO":"１４之２１號","E_COORD97":161378.38,"N_COORD97":2565246.0099999998,"ADDRESS":"台潭１４之２１號","OBJECTID":138371},"geometry":{"x":161378.37999999989,"y":2565246.0100000016}},{"attributes":{"ID":138372,"DIS_CODE":0,"TOWNNAME":"七股區","LI":"大潭里","LIN":" ","STREET":" ","SECT":" ","MAREA":"台潭","LANE":" ","ALLEY":" ","HOUSE_NO":"１６４號","E_COORD97":160978.59,"N_COORD97":2565461.5600000001,"ADDRESS":"台潭１６４號","OBJECTID":138372},"geometry":{"x":160978.58999999985,"y":2565461.5599999987}},{"attributes":{"ID":138373,"DIS_CODE":0,"TOWNNAME":"七股區","LI":"大潭里","LIN":" ","STREET":" ","SECT":" ","MAREA":"台潭","LANE":" ","ALLEY":" ","HOUSE_NO":"１６號","E_COORD97":161260.64000000001,"N_COORD97":2565315.8100000001,"ADDRESS":"台潭１６號","OBJECTID":138373},"geometry":{"x":161260.6400000006,"y":2565315.8100000024}},{"attributes":{"ID":138374,"DIS_CODE":0,"TOWNNAME":"七股區","LI":"大潭里","LIN":" ","STREET":" ","SECT":" ","MAREA":"台潭","LANE":" ","ALLEY":" ","HOUSE_NO":"１之１號","E_COORD97":161537.29000000001,"N_COORD97":2565006.54,"ADDRESS":"台潭１之１號","OBJECTID":138374},"geometry":{"x":161537.28999999911,"y":2565006.540000001}},{"attributes":{"ID":138375,"DIS_CODE":0,"TOWNNAME":"七股區","LI":"大潭里","LIN":" ","STREET":" ","SECT":" ","MAREA":"台潭","LANE":" ","ALLEY":" ","HOUSE_NO":"３３號","E_COORD97":161128.88,"N_COORD97":2565366.6600000001,"ADDRESS":"台潭３３號","OBJECTID":138375},"geometry":{"x":161128.88000000082,"y":2565366.660000002}},{"attributes":{"ID":138376,"DIS_CODE":0,"TOWNNAME":"七股區","LI":"大潭里","LIN":" ","STREET":" ","SECT":" ","MAREA":"台潭","LANE":" ","ALLEY":" ","HOUSE_NO":"３４之１號","E_COORD97":161057.62,"N_COORD97":2565373.04,"ADDRESS":"台潭３４之１號","OBJECTID":138376},"geometry":{"x":161057.62000000104,"y":2565373.040000001}},{"attributes":{"ID":138377,"DIS_CODE":0,"TOWNNAME":"七股區","LI":"大潭里","LIN":" ","STREET":" ","SECT":" ","MAREA":"台潭","LANE":" ","ALLEY":" ","HOUSE_NO":"４０號","E_COORD97":161000.34,"N_COORD97":2565383.7200000002,"ADDRESS":"台潭４０號","OBJECTID":138377},"geometry":{"x":161000.34000000078,"y":2565383.7200000025}},{"attributes":{"ID":138378,"DIS_CODE":0,"TOWNNAME":"七股區","LI":"永吉里","LIN":" ","STREET":" ","SECT":" ","MAREA":"永吉","LANE":" ","ALLEY":" ","HOUSE_NO":"１６之２號","E_COORD97":160689.69,"N_COORD97":2555173.2400000002,"ADDRESS":"永吉１６之２號","OBJECTID":138378},"geometry":{"x":160689.69000000134,"y":2555173.2400000002}},{"attributes":{"ID":138379,"DIS_CODE":0,"TOWNNAME":"七股區","LI":"永吉里","LIN":" ","STREET":" ","SECT":" ","MAREA":"永吉","LANE":" ","ALLEY":" ","HOUSE_NO":"１７之２號","E_COORD97":160979.64999999999,"N_COORD97":2554932.4700000002,"ADDRESS":"永吉１７之２號","OBJECTID":138379},"geometry":{"x":160979.6500000013,"y":2554932.4700000025}},{"attributes":{"ID":138380,"DIS_CODE":0,"TOWNNAME":"永康區","LI":"中興里","LIN":"27鄰","STREET":"中興街","SECT":" ","MAREA":" ","LANE":"９１巷","ALLEY":"２７弄","HOUSE_NO":"７號","E_COORD97":172003.25,"N_COORD97":2545297.1800000002,"ADDRESS":"中興街９１巷２７弄７號","OBJECTID":138380},"geometry":{"x":172003.25,"y":2545297.1799999997}},{"attributes":{"ID":138381,"DIS_CODE":0,"TOWNNAME":"永康區","LI":"中興里","LIN":"27鄰","STREET":"中興街","SECT":" ","MAREA":" ","LANE":"９１巷","ALLEY":"２７弄","HOUSE_NO":"７號之１","E_COORD97":172001.28,"N_COORD97":2545297.73,"ADDRESS":"中興街９１巷２７弄７號之１","OBJECTID":138381},"geometry":{"x":172001.28000000026,"y":2545297.7299999986}},{"attributes":{"ID":138382,"DIS_CODE":0,"TOWNNAME":"安南區","LI":"安慶里","LIN":"27鄰","STREET":"安和路","SECT":"一段","MAREA":" ","LANE":"４５９巷","ALLEY":"３６弄","HOUSE_NO":"２３號","E_COORD97":169238.82000000001,"N_COORD97":2548592.5699999998,"ADDRESS":"安和路一段４５９巷３６弄２３號","OBJECTID":138382},"geometry":{"x":169238.82000000216,"y":2548592.5700000022}},{"attributes":{"ID":138383,"DIS_CODE":0,"TOWNNAME":"安南區","LI":"安慶里","LIN":"27鄰","STREET":"安和路","SECT":"一段","MAREA":" ","LANE":"４５９巷","ALLEY":"３６弄","HOUSE_NO":"２５號","E_COORD97":169238.42999999999,"N_COORD97":2548597.3900000001,"ADDRESS":"安和路一段４５９巷３６弄２５號","OBJECTID":138383},"geometry":{"x":169238.4299999997,"y":2548597.3900000025}},{"attributes":{"ID":138384,"DIS_CODE":0,"TOWNNAME":"鹽水區","LI":"田寮里","LIN":"5鄰","STREET":" ","SECT":" ","MAREA":"田寮","LANE":" ","ALLEY":" ","HOUSE_NO":"６１號","E_COORD97":171143.89999999999,"N_COORD97":2575201.6499999999,"ADDRESS":"田寮６１號","OBJECTID":138384},"geometry":{"x":171143.9000000013,"y":2575201.6500000041}},{"attributes":{"ID":138385,"DIS_CODE":0,"TOWNNAME":"永康區","LI":"二王里","LIN":"17鄰","STREET":"忠孝路","SECT":" ","MAREA":" ","LANE":"３８０巷","ALLEY":"１３弄","HOUSE_NO":"２２號","E_COORD97":172569.32999999999,"N_COORD97":2546463.3199999998,"ADDRESS":"忠孝路３８０巷１３弄２２號","OBJECTID":138385},"geometry":{"x":172569.33000000007,"y":2546463.3199999984}},{"attributes":{"ID":138386,"DIS_CODE":0,"TOWNNAME":"永康區","LI":"二王里","LIN":"17鄰","STREET":"忠孝路","SECT":" ","MAREA":" ","LANE":"３８０巷","ALLEY":"１３弄","HOUSE_NO":"２６號","E_COORD97":172573.35000000001,"N_COORD97":2546463.3199999998,"ADDRESS":"忠孝路３８０巷１３弄２６號","OBJECTID":138386},"geometry":{"x":172573.34999999963,"y":2546463.3199999984}},{"attributes":{"ID":138387,"DIS_CODE":0,"TOWNNAME":"七股區","LI":"永吉里","LIN":" ","STREET":" ","SECT":" ","MAREA":"永吉","LANE":" ","ALLEY":" ","HOUSE_NO":"３５之１號","E_COORD97":160816.29000000001,"N_COORD97":2554949.8900000001,"ADDRESS":"永吉３５之１號","OBJECTID":138387},"geometry":{"x":160816.29000000004,"y":2554949.8900000025}},{"attributes":{"ID":138388,"DIS_CODE":0,"TOWNNAME":"七股區","LI":"永吉里","LIN":" ","STREET":" ","SECT":" ","MAREA":"永吉","LANE":" ","ALLEY":" ","HOUSE_NO":"５１之７８號","E_COORD97":160485.62,"N_COORD97":2554951.0099999998,"ADDRESS":"永吉５１之７８號","OBJECTID":138388},"geometry":{"x":160485.62000000011,"y":2554951.0100000035}},{"attributes":{"ID":138389,"DIS_CODE":0,"TOWNNAME":"七股區","LI":"永吉里","LIN":" ","STREET":" ","SECT":" ","MAREA":"永吉","LANE":" ","ALLEY":" ","HOUSE_NO":"７５之２號","E_COORD97":160739.91,"N_COORD97":2554837.2799999998,"ADDRESS":"永吉７５之２號","OBJECTID":138389},"geometry":{"x":160739.90999999922,"y":2554837.2800000012}},{"attributes":{"ID":138390,"DIS_CODE":0,"TOWNNAME":"永康區","LI":"二王里","LIN":"17鄰","STREET":"忠孝路","SECT":" ","MAREA":" ","LANE":"３８０巷","ALLEY":"１３弄","HOUSE_NO":"２８號","E_COORD97":172577.57000000001,"N_COORD97":2546463.2599999998,"ADDRESS":"忠孝路３８０巷１３弄２８號","OBJECTID":138390},"geometry":{"x":172577.5700000003,"y":2546463.2600000035}},{"attributes":{"ID":138391,"DIS_CODE":0,"TOWNNAME":"永康區","LI":"二王里","LIN":"17鄰","STREET":"忠孝路","SECT":" ","MAREA":" ","LANE":"３８０巷","ALLEY":"１３弄","HOUSE_NO":"３０號","E_COORD97":172581.45999999999,"N_COORD97":2546463.3199999998,"ADDRESS":"忠孝路３８０巷１３弄３０號","OBJECTID":138391},"geometry":{"x":172581.45999999996,"y":2546463.3199999984}},{"attributes":{"ID":138392,"DIS_CODE":0,"TOWNNAME":"善化區","LI":"光文里","LIN":"6鄰","STREET":" ","SECT":" ","MAREA":"北子店","LANE":"２２８巷","ALLEY":" ","HOUSE_NO":"５號","E_COORD97":179219.19,"N_COORD97":2559567.5,"ADDRESS":"北子店２２８巷５號","OBJECTID":138392},"geometry":{"x":179219.18999999948,"y":2559567.5}},{"attributes":{"ID":138393,"DIS_CODE":0,"TOWNNAME":"善化區","LI":"光文里","LIN":"6鄰","STREET":" ","SECT":" ","MAREA":"北子店","LANE":"２２８巷","ALLEY":" ","HOUSE_NO":"１４號","E_COORD97":179209.25,"N_COORD97":2559561.5,"ADDRESS":"北子店２２８巷１４號","OBJECTID":138393},"geometry":{"x":179209.25,"y":2559561.5}},{"attributes":{"ID":138394,"DIS_CODE":0,"TOWNNAME":"山上區","LI":"山上里","LIN":"6鄰","STREET":" ","SECT":" ","MAREA":"山上","LANE":" ","ALLEY":" ","HOUSE_NO":"１２７之２號","E_COORD97":184310.31,"N_COORD97":2555815.2999999998,"ADDRESS":"山上１２７之２號","OBJECTID":138394},"geometry":{"x":184310.31000000052,"y":2555815.3000000026}},{"attributes":{"ID":138395,"DIS_CODE":0,"TOWNNAME":"安南區","LI":"安慶里","LIN":"27鄰","STREET":"安和路","SECT":"一段","MAREA":" ","LANE":"４５９巷","ALLEY":"３６弄","HOUSE_NO":"２７號","E_COORD97":169237.70999999999,"N_COORD97":2548601.5899999999,"ADDRESS":"安和路一段４５９巷３６弄２７號","OBJECTID":138395},"geometry":{"x":169237.71000000089,"y":2548601.5900000017}},{"attributes":{"ID":138396,"DIS_CODE":0,"TOWNNAME":"東區","LI":"崇成里","LIN":"24鄰","STREET":"崇明二十三街","SECT":" ","MAREA":" ","LANE":" ","ALLEY":" ","HOUSE_NO":"７號四樓","E_COORD97":170655,"N_COORD97":2540884,"ADDRESS":"崇明二十三街７號四樓","OBJECTID":138396},"geometry":{"x":170655.00000000093,"y":2540884}},{"attributes":{"ID":138397,"DIS_CODE":0,"TOWNNAME":"山上區","LI":"山上里","LIN":"6鄰","STREET":" ","SECT":" ","MAREA":"山上","LANE":" ","ALLEY":" ","HOUSE_NO":"１０９號","E_COORD97":184265.51000000001,"N_COORD97":2555748.25,"ADDRESS":"山上１０９號","OBJECTID":138397},"geometry":{"x":184265.51000000071,"y":2555748.25}},{"attributes":{"ID":138398,"DIS_CODE":0,"TOWNNAME":"山上區","LI":"山上里","LIN":"6鄰","STREET":" ","SECT":" ","MAREA":"山上","LANE":" ","ALLEY":" ","HOUSE_NO":"１３１號","E_COORD97":184367.01000000001,"N_COORD97":2555895.25,"ADDRESS":"山上１３１號","OBJECTID":138398},"geometry":{"x":184367.01000000071,"y":2555895.25}},{"attributes":{"ID":138399,"DIS_CODE":0,"TOWNNAME":"善化區","LI":"牛庄里","LIN":"6鄰","STREET":" ","SECT":" ","MAREA":"牛庄","LANE":" ","ALLEY":" ","HOUSE_NO":"６９之３號","E_COORD97":180172.22,"N_COORD97":2560125.77,"ADDRESS":"牛庄６９之３號","OBJECTID":138399},"geometry":{"x":180172.21999999974,"y":2560125.7699999996}},{"attributes":{"ID":138400,"DIS_CODE":0,"TOWNNAME":"仁德區","LI":"後壁里","LIN":"6鄰","STREET":"德善路","SECT":" ","MAREA":" ","LANE":" ","ALLEY":" ","HOUSE_NO":"１５３號","E_COORD97":173529.17000000001,"N_COORD97":2538842.0099999998,"ADDRESS":"德善路１５３號","OBJECTID":138400},"geometry":{"x":173529.16999999993,"y":2538842.0099999998}}]}