{"displayFieldName":"TOWNNAME","fieldAliases":{"ID":"ID","DIS_CODE":"DIS_CODE","TOWNNAME":"TOWNNAME","LI":"LI","LIN":"LIN","STREET":"STREET","SECT":"SECT","MAREA":"MAREA","LANE":"LANE","ALLEY":"ALLEY","HOUSE_NO":"HOUSE_NO","E_COORD97":"E_COORD97","N_COORD97":"N_COORD97","ADDRESS":"ADDRESS","OBJECTID":"OBJECTID"},"geometryType":"esriGeometryPoint","spatialReference":{"wkid":102443,"latestWkid":3826},"fields":[{"name":"ID","type":"esriFieldTypeDouble","alias":"ID"},{"name":"DIS_CODE","type":"esriFieldTypeInteger","alias":"DIS_CODE"},{"name":"TOWNNAME","type":"esriFieldTypeString","alias":"TOWNNAME","length":8},{"name":"LI","type":"esriFieldTypeString","alias":"LI","length":8},{"name":"LIN","type":"esriFieldTypeString","alias":"LIN","length":12},{"name":"STREET","type":"esriFieldTypeString","alias":"STREET","length":20},{"name":"SECT","type":"esriFieldTypeString","alias":"SECT","length":8},{"name":"MAREA","type":"esriFieldTypeString","alias":"MAREA","length":12},{"name":"LANE","type":"esriFieldTypeString","alias":"LANE","length":10},{"name":"ALLEY","type":"esriFieldTypeString","alias":"ALLEY","length":10},{"name":"HOUSE_NO","type":"esriFieldTypeString","alias":"HOUSE_NO","length":20},{"name":"E_COORD97","type":"esriFieldTypeDouble","alias":"E_COORD97"},{"name":"N_COORD97","type":"esriFieldTypeDouble","alias":"N_COORD97"},{"name":"ADDRESS","type":"esriFieldTypeString","alias":"ADDRESS","length":50},{"name":"OBJECTID","type":"esriFieldTypeOID","alias":"OBJECTID"}],"features":[{"attributes":{"ID":171002,"DIS_CODE":0,"TOWNNAME":"新營區","LI":"南紙里","LIN":"25鄰","STREET":"建業路","SECT":" ","MAREA":" ","LANE":"２２７巷","ALLEY":"２弄","HOUSE_NO":"６號","E_COORD97":178096.91,"N_COORD97":2577477.6899999999,"ADDRESS":"建業路２２７巷２弄６號","OBJECTID":171001},"geometry":{"x":178096.90999999922,"y":2577477.6899999995}},{"attributes":{"ID":171003,"DIS_CODE":0,"TOWNNAME":"新營區","LI":"民榮里","LIN":"38鄰","STREET":"太子路","SECT":" ","MAREA":" ","LANE":"５３巷","ALLEY":"６弄","HOUSE_NO":"５之３號","E_COORD97":178330.89000000001,"N_COORD97":2577960.5800000001,"ADDRESS":"太子路５３巷６弄５之３號","OBJECTID":171002},"geometry":{"x":178330.8900000006,"y":2577960.5800000001}},{"attributes":{"ID":171004,"DIS_CODE":0,"TOWNNAME":"新營區","LI":"新南里","LIN":"25鄰","STREET":"復興路","SECT":" ","MAREA":" ","LANE":"６２０巷","ALLEY":"６４弄","HOUSE_NO":"３０號","E_COORD97":178116.13,"N_COORD97":2578530.6899999999,"ADDRESS":"復興路６２０巷６４弄３０號","OBJECTID":171003},"geometry":{"x":178116.13000000082,"y":2578530.6900000013}},{"attributes":{"ID":171005,"DIS_CODE":0,"TOWNNAME":"新營區","LI":"忠政里","LIN":"26鄰","STREET":"府西路","SECT":" ","MAREA":" ","LANE":"１３７巷","ALLEY":"１２弄","HOUSE_NO":"４號","E_COORD97":179759.98000000001,"N_COORD97":2579357.9300000002,"ADDRESS":"府西路１３７巷１２弄４號","OBJECTID":171004},"geometry":{"x":179759.98000000231,"y":2579357.9299999997}},{"attributes":{"ID":171006,"DIS_CODE":0,"TOWNNAME":"新營區","LI":"新東里","LIN":"20鄰","STREET":"東學路","SECT":" ","MAREA":" ","LANE":"４７巷","ALLEY":"１弄","HOUSE_NO":"１號","E_COORD97":180876.94,"N_COORD97":2579390.3199999998,"ADDRESS":"東學路４７巷１弄１號","OBJECTID":171005},"geometry":{"x":180876.94000000041,"y":2579390.3200000003}},{"attributes":{"ID":171007,"DIS_CODE":0,"TOWNNAME":"安南區","LI":"\u25A0田里","LIN":"1鄰","STREET":"大眾路","SECT":" ","MAREA":" ","LANE":"１０１巷","ALLEY":"１２７弄","HOUSE_NO":"１２號","E_COORD97":162018.52969699999,"N_COORD97":2547464.48868,"ADDRESS":"大眾路１０１巷１２７弄１２號","OBJECTID":171006},"geometry":{"x":162018.52969700098,"y":2547464.4886770025}},{"attributes":{"ID":171008,"DIS_CODE":0,"TOWNNAME":"新營區","LI":"忠政里","LIN":"26鄰","STREET":"府西路","SECT":" ","MAREA":" ","LANE":"１３７巷","ALLEY":"２６弄","HOUSE_NO":"６號","E_COORD97":179721.01999999999,"N_COORD97":2579353.6800000002,"ADDRESS":"府西路１３７巷２６弄６號","OBJECTID":171007},"geometry":{"x":179721.01999999955,"y":2579353.6799999978}},{"attributes":{"ID":171009,"DIS_CODE":0,"TOWNNAME":"新營區","LI":"新南里","LIN":"24鄰","STREET":"隋唐街","SECT":" ","MAREA":" ","LANE":"２９５巷","ALLEY":"４１弄","HOUSE_NO":"１７號","E_COORD97":178214.51000000001,"N_COORD97":2578479.3700000001,"ADDRESS":"隋唐街２９５巷４１弄１７號","OBJECTID":171008},"geometry":{"x":178214.50999999885,"y":2578479.3700000048}},{"attributes":{"ID":171010,"DIS_CODE":0,"TOWNNAME":"新營區","LI":"民榮里","LIN":"32鄰","STREET":"太子路","SECT":" ","MAREA":" ","LANE":"５３巷","ALLEY":"１弄","HOUSE_NO":"２２號","E_COORD97":178271.67999999999,"N_COORD97":2578021.7200000002,"ADDRESS":"太子路５３巷１弄２２號","OBJECTID":171009},"geometry":{"x":178271.68000000063,"y":2578021.7200000007}},{"attributes":{"ID":171011,"DIS_CODE":0,"TOWNNAME":"新營區","LI":"南紙里","LIN":"26鄰","STREET":"建業路","SECT":" ","MAREA":" ","LANE":"２２７巷","ALLEY":"２２弄","HOUSE_NO":"４號","E_COORD97":178098.53,"N_COORD97":2577374.7000000002,"ADDRESS":"建業路２２７巷２２弄４號","OBJECTID":171010},"geometry":{"x":178098.53000000119,"y":2577374.7000000011}},{"attributes":{"ID":171012,"DIS_CODE":0,"TOWNNAME":"新營區","LI":"民榮里","LIN":"32鄰","STREET":"太子路","SECT":" ","MAREA":" ","LANE":"５３巷","ALLEY":"１弄","HOUSE_NO":"８號","E_COORD97":178297.10000000001,"N_COORD97":2578035.9900000002,"ADDRESS":"太子路５３巷１弄８號","OBJECTID":171011},"geometry":{"x":178297.10000000056,"y":2578035.9900000002}},{"attributes":{"ID":171013,"DIS_CODE":0,"TOWNNAME":"新營區","LI":"民榮里","LIN":"38鄰","STREET":"太子路","SECT":" ","MAREA":" ","LANE":"５３巷","ALLEY":"６弄","HOUSE_NO":"３１之３號","E_COORD97":178238.98000000001,"N_COORD97":2577930.02,"ADDRESS":"太子路５３巷６弄３１之３號","OBJECTID":171012},"geometry":{"x":178238.98000000045,"y":2577930.0199999996}},{"attributes":{"ID":171014,"DIS_CODE":0,"TOWNNAME":"新營區","LI":"忠政里","LIN":"26鄰","STREET":"府西路","SECT":" ","MAREA":" ","LANE":"１３７巷","ALLEY":"２６弄","HOUSE_NO":"１７號","E_COORD97":179711.14000000001,"N_COORD97":2579380.3100000001,"ADDRESS":"府西路１３７巷２６弄１７號","OBJECTID":171013},"geometry":{"x":179711.1400000006,"y":2579380.3100000005}},{"attributes":{"ID":171015,"DIS_CODE":0,"TOWNNAME":"新營區","LI":"新南里","LIN":"17鄰","STREET":"隋唐街","SECT":" ","MAREA":" ","LANE":"１１５巷","ALLEY":"７弄","HOUSE_NO":"８號","E_COORD97":178514.12,"N_COORD97":2578496.7400000002,"ADDRESS":"隋唐街１１５巷７弄８號","OBJECTID":171014},"geometry":{"x":178514.12000000011,"y":2578496.7400000021}},{"attributes":{"ID":171016,"DIS_CODE":0,"TOWNNAME":"安南區","LI":"\u25A0田里","LIN":"1鄰","STREET":"大眾路","SECT":" ","MAREA":" ","LANE":"１０１巷","ALLEY":"１２７弄","HOUSE_NO":"１６號","E_COORD97":162019.16508999999,"N_COORD97":2547471.2620100002,"ADDRESS":"大眾路１０１巷１２７弄１６號","OBJECTID":171015},"geometry":{"x":162019.16509000026,"y":2547471.2620069999}},{"attributes":{"ID":171017,"DIS_CODE":0,"TOWNNAME":"新營區","LI":"民榮里","LIN":"38鄰","STREET":"太子路","SECT":" ","MAREA":" ","LANE":"５３巷","ALLEY":"６弄","HOUSE_NO":"２９之４號","E_COORD97":178244.07999999999,"N_COORD97":2577931.1099999999,"ADDRESS":"太子路５３巷６弄２９之４號","OBJECTID":171016},"geometry":{"x":178244.08000000101,"y":2577931.1100000013}},{"attributes":{"ID":171018,"DIS_CODE":0,"TOWNNAME":"新營區","LI":"新東里","LIN":"4鄰","STREET":"東大街","SECT":" ","MAREA":" ","LANE":"５２巷","ALLEY":"２弄","HOUSE_NO":"１號","E_COORD97":181058.75,"N_COORD97":2579117.04,"ADDRESS":"東大街５２巷２弄１號","OBJECTID":171017},"geometry":{"x":181058.75,"y":2579117.0400000028}},{"attributes":{"ID":171019,"DIS_CODE":0,"TOWNNAME":"新營區","LI":"民榮里","LIN":"38鄰","STREET":"太子路","SECT":" ","MAREA":" ","LANE":"５３巷","ALLEY":"６弄","HOUSE_NO":"２７號之２","E_COORD97":178252.01999999999,"N_COORD97":2577929.96,"ADDRESS":"太子路５３巷６弄２７號之２","OBJECTID":171018},"geometry":{"x":178252.02000000048,"y":2577929.9600000028}},{"attributes":{"ID":171020,"DIS_CODE":0,"TOWNNAME":"新營區","LI":"新南里","LIN":"25鄰","STREET":"復興路","SECT":" ","MAREA":" ","LANE":"６２０巷","ALLEY":"３８弄","HOUSE_NO":"９號","E_COORD97":178072.04999999999,"N_COORD97":2578475.6299999999,"ADDRESS":"復興路６２０巷３８弄９號","OBJECTID":171019},"geometry":{"x":178072.05000000168,"y":2578475.6300000008}},{"attributes":{"ID":171021,"DIS_CODE":0,"TOWNNAME":"新營區","LI":"南紙里","LIN":"26鄰","STREET":"建業路","SECT":" ","MAREA":" ","LANE":"２２７巷","ALLEY":"２２弄","HOUSE_NO":"８號","E_COORD97":178088.29000000001,"N_COORD97":2577375.8500000001,"ADDRESS":"建業路２２７巷２２弄８號","OBJECTID":171020},"geometry":{"x":178088.29000000097,"y":2577375.8499999978}},{"attributes":{"ID":171022,"DIS_CODE":0,"TOWNNAME":"新營區","LI":"民榮里","LIN":" ","STREET":"復興路","SECT":" ","MAREA":" ","LANE":"５１１巷","ALLEY":"６５弄","HOUSE_NO":"４號","E_COORD97":178112.32999999999,"N_COORD97":2578112.1899999999,"ADDRESS":"復興路５１１巷６５弄４號","OBJECTID":171021},"geometry":{"x":178112.33000000007,"y":2578112.1899999995}},{"attributes":{"ID":171023,"DIS_CODE":0,"TOWNNAME":"新營區","LI":"南紙里","LIN":"26鄰","STREET":"建業路","SECT":" ","MAREA":" ","LANE":"２２７巷","ALLEY":"２２弄","HOUSE_NO":"２１號","E_COORD97":178053.64999999999,"N_COORD97":2577358.2999999998,"ADDRESS":"建業路２２７巷２２弄２１號","OBJECTID":171022},"geometry":{"x":178053.6500000013,"y":2577358.3000000026}},{"attributes":{"ID":171024,"DIS_CODE":0,"TOWNNAME":"新營區","LI":"新南里","LIN":"26鄰","STREET":"復興路","SECT":" ","MAREA":" ","LANE":"６２０巷","ALLEY":"６１弄","HOUSE_NO":"３號","E_COORD97":178015.07999999999,"N_COORD97":2578515.7799999998,"ADDRESS":"復興路６２０巷６１弄３號","OBJECTID":171023},"geometry":{"x":178015.08000000101,"y":2578515.7800000012}},{"attributes":{"ID":171025,"DIS_CODE":0,"TOWNNAME":"安南區","LI":"\u25A0田里","LIN":"1鄰","STREET":"大眾路","SECT":" ","MAREA":" ","LANE":"１０１巷","ALLEY":"１２７弄","HOUSE_NO":"１８號","E_COORD97":162020.43587700001,"N_COORD97":2547477.4003400002,"ADDRESS":"大眾路１０１巷１２７弄１８號","OBJECTID":171024},"geometry":{"x":162020.43587700091,"y":2547477.4003370013}},{"attributes":{"ID":171026,"DIS_CODE":0,"TOWNNAME":"新營區","LI":"南紙里","LIN":"7鄰","STREET":"建業路","SECT":" ","MAREA":" ","LANE":"２６９巷","ALLEY":"２０弄","HOUSE_NO":"５號","E_COORD97":177962.57999999999,"N_COORD97":2577409.6800000002,"ADDRESS":"建業路２６９巷２０弄５號","OBJECTID":171025},"geometry":{"x":177962.58000000101,"y":2577409.6799999997}},{"attributes":{"ID":171027,"DIS_CODE":0,"TOWNNAME":"安南區","LI":"\u25A0田里","LIN":"1鄰","STREET":"大眾路","SECT":" ","MAREA":" ","LANE":"１０１巷","ALLEY":"１２７弄","HOUSE_NO":"２０號","E_COORD97":162021.07126999999,"N_COORD97":2547483.1153299999,"ADDRESS":"大眾路１０１巷１２７弄２０號","OBJECTID":171026},"geometry":{"x":162021.07127000112,"y":2547483.1153340004}},{"attributes":{"ID":171028,"DIS_CODE":0,"TOWNNAME":"新營區","LI":"新北里","LIN":"18鄰","STREET":"金華路","SECT":"二段","MAREA":" ","LANE":"１巷","ALLEY":"２弄","HOUSE_NO":"７號","E_COORD97":178990.04000000001,"N_COORD97":2578990.6000000001,"ADDRESS":"金華路二段１巷２弄７號","OBJECTID":171027},"geometry":{"x":178990.04000000097,"y":2578990.5999999996}},{"attributes":{"ID":171029,"DIS_CODE":0,"TOWNNAME":"新營區","LI":"民榮里","LIN":"38鄰","STREET":"太子路","SECT":" ","MAREA":" ","LANE":"５３巷","ALLEY":"６弄","HOUSE_NO":"１１號之２","E_COORD97":178307.29000000001,"N_COORD97":2577950.73,"ADDRESS":"太子路５３巷６弄１１號之２","OBJECTID":171028},"geometry":{"x":178307.29000000004,"y":2577950.7300000042}},{"attributes":{"ID":171030,"DIS_CODE":0,"TOWNNAME":"新化區","LI":"全興里","LIN":"12鄰","STREET":" ","SECT":" ","MAREA":"竹子\u25A0","LANE":" ","ALLEY":" ","HOUSE_NO":"２４７號之１４５","E_COORD97":178219.09,"N_COORD97":2546792.2599999998,"ADDRESS":"竹子\u25A0２４７號之１４５","OBJECTID":171029},"geometry":{"x":178219.08999999985,"y":2546792.2600000035}},{"attributes":{"ID":171031,"DIS_CODE":0,"TOWNNAME":"新營區","LI":"南紙里","LIN":"26鄰","STREET":"建業路","SECT":" ","MAREA":" ","LANE":"２２７巷","ALLEY":"２２弄","HOUSE_NO":"３４號","E_COORD97":178025.13,"N_COORD97":2577379.4900000002,"ADDRESS":"建業路２２７巷２２弄３４號","OBJECTID":171030},"geometry":{"x":178025.12999999989,"y":2577379.4900000021}},{"attributes":{"ID":171032,"DIS_CODE":0,"TOWNNAME":"新營區","LI":"民榮里","LIN":"36鄰","STREET":"新進路","SECT":"二段","MAREA":" ","LANE":"４４５巷","ALLEY":"２５弄","HOUSE_NO":"２９號","E_COORD97":178505.42000000001,"N_COORD97":2577916.4900000002,"ADDRESS":"新進路二段４４５巷２５弄２９號","OBJECTID":171031},"geometry":{"x":178505.42000000086,"y":2577916.4900000002}},{"attributes":{"ID":171033,"DIS_CODE":0,"TOWNNAME":"新營區","LI":"民榮里","LIN":" ","STREET":"太子路","SECT":" ","MAREA":" ","LANE":"５３巷","ALLEY":"１弄","HOUSE_NO":"１３號","E_COORD97":178288.98000000001,"N_COORD97":2578017.21,"ADDRESS":"太子路５３巷１弄１３號","OBJECTID":171032},"geometry":{"x":178288.98000000138,"y":2578017.2100000028}},{"attributes":{"ID":171034,"DIS_CODE":0,"TOWNNAME":"安南區","LI":"\u25A0田里","LIN":"1鄰","STREET":"大眾路","SECT":" ","MAREA":" ","LANE":"１０１巷","ALLEY":"１２７弄","HOUSE_NO":"２２號","E_COORD97":162022.130259,"N_COORD97":2547488.19533,"ADDRESS":"大眾路１０１巷１２７弄２２號","OBJECTID":171033},"geometry":{"x":162022.13025899976,"y":2547488.1953309998}},{"attributes":{"ID":171035,"DIS_CODE":0,"TOWNNAME":"新營區","LI":"民榮里","LIN":"39鄰","STREET":"太子路","SECT":" ","MAREA":" ","LANE":"５３巷","ALLEY":"７弄","HOUSE_NO":"２９號","E_COORD97":178296.64000000001,"N_COORD97":2577894.25,"ADDRESS":"太子路５３巷７弄２９號","OBJECTID":171034},"geometry":{"x":178296.64000000153,"y":2577894.25}},{"attributes":{"ID":171036,"DIS_CODE":0,"TOWNNAME":"新營區","LI":"新南里","LIN":"25鄰","STREET":"復興路","SECT":" ","MAREA":" ","LANE":"６２０巷","ALLEY":"３８弄","HOUSE_NO":"１號","E_COORD97":178052.64999999999,"N_COORD97":2578476.8300000001,"ADDRESS":"復興路６２０巷３８弄１號","OBJECTID":171035},"geometry":{"x":178052.65000000037,"y":2578476.8300000001}},{"attributes":{"ID":171037,"DIS_CODE":0,"TOWNNAME":"新營區","LI":"新南里","LIN":"25鄰","STREET":"復興路","SECT":" ","MAREA":" ","LANE":"６２０巷","ALLEY":"３８弄","HOUSE_NO":"１３號","E_COORD97":178081.51000000001,"N_COORD97":2578475.5899999999,"ADDRESS":"復興路６２０巷３８弄１３號","OBJECTID":171036},"geometry":{"x":178081.51000000071,"y":2578475.5899999999}},{"attributes":{"ID":171038,"DIS_CODE":0,"TOWNNAME":"將軍區","LI":"長榮里","LIN":"13鄰","STREET":" ","SECT":" ","MAREA":"長榮","LANE":" ","ALLEY":" ","HOUSE_NO":"２２７之６號","E_COORD97":163709.73999999999,"N_COORD97":2566084.3100000001,"ADDRESS":"長榮２２７之６號","OBJECTID":171037},"geometry":{"x":163709.74000000115,"y":2566084.3100000024}},{"attributes":{"ID":171039,"DIS_CODE":0,"TOWNNAME":"將軍區","LI":"長榮里","LIN":"13鄰","STREET":" ","SECT":" ","MAREA":"長榮","LANE":" ","ALLEY":" ","HOUSE_NO":"２２７之７號","E_COORD97":163709.76000000001,"N_COORD97":2566079.52,"ADDRESS":"長榮２２７之７號","OBJECTID":171038},"geometry":{"x":163709.75999999978,"y":2566079.5200000014}},{"attributes":{"ID":171040,"DIS_CODE":0,"TOWNNAME":"將軍區","LI":"長榮里","LIN":"13鄰","STREET":" ","SECT":" ","MAREA":"長榮","LANE":" ","ALLEY":" ","HOUSE_NO":"２２７號","E_COORD97":163715.17000000001,"N_COORD97":2566112.8700000001,"ADDRESS":"長榮２２７號","OBJECTID":171039},"geometry":{"x":163715.17000000086,"y":2566112.870000001}},{"attributes":{"ID":171041,"DIS_CODE":0,"TOWNNAME":"將軍區","LI":"長榮里","LIN":"13鄰","STREET":" ","SECT":" ","MAREA":"長榮","LANE":" ","ALLEY":" ","HOUSE_NO":"２２８之１號","E_COORD97":163686.41,"N_COORD97":2566108.3700000001,"ADDRESS":"長榮２２８之１號","OBJECTID":171040},"geometry":{"x":163686.41000000108,"y":2566108.3700000029}},{"attributes":{"ID":171042,"DIS_CODE":0,"TOWNNAME":"安南區","LI":"\u25A0田里","LIN":"1鄰","STREET":"大眾路","SECT":" ","MAREA":" ","LANE":"１０１巷","ALLEY":"１２７弄","HOUSE_NO":"２６號","E_COORD97":162022.765652,"N_COORD97":2547493.06366,"ADDRESS":"大眾路１０１巷１２７弄２６號","OBJECTID":171041},"geometry":{"x":162022.76565200184,"y":2547493.0636620019}},{"attributes":{"ID":171043,"DIS_CODE":0,"TOWNNAME":"新營區","LI":"民榮里","LIN":"38鄰","STREET":"太子路","SECT":" ","MAREA":" ","LANE":"５３巷","ALLEY":"６弄","HOUSE_NO":"２５號","E_COORD97":178256.92999999999,"N_COORD97":2577932.0899999999,"ADDRESS":"太子路５３巷６弄２５號","OBJECTID":171042},"geometry":{"x":178256.9299999997,"y":2577932.0900000017}},{"attributes":{"ID":171044,"DIS_CODE":0,"TOWNNAME":"新營區","LI":"民榮里","LIN":"39鄰","STREET":"太子路","SECT":" ","MAREA":" ","LANE":"５３巷","ALLEY":"８弄","HOUSE_NO":"１６號","E_COORD97":178336.38,"N_COORD97":2577878.54,"ADDRESS":"太子路５３巷８弄１６號","OBJECTID":171043},"geometry":{"x":178336.38000000082,"y":2577878.5399999991}},{"attributes":{"ID":171045,"DIS_CODE":0,"TOWNNAME":"新營區","LI":"新東里","LIN":"4鄰","STREET":"東大街","SECT":" ","MAREA":" ","LANE":"５２巷","ALLEY":"２弄","HOUSE_NO":"６號","E_COORD97":181047.57000000001,"N_COORD97":2579129.27,"ADDRESS":"東大街５２巷２弄６號","OBJECTID":171044},"geometry":{"x":181047.57000000123,"y":2579129.2700000033}},{"attributes":{"ID":171046,"DIS_CODE":0,"TOWNNAME":"新營區","LI":"南紙里","LIN":"25鄰","STREET":"建業路","SECT":" ","MAREA":" ","LANE":"２２７巷","ALLEY":"２弄","HOUSE_NO":"１２號","E_COORD97":178080.76999999999,"N_COORD97":2577478.8900000001,"ADDRESS":"建業路２２７巷２弄１２號","OBJECTID":171045},"geometry":{"x":178080.77000000048,"y":2577478.8900000025}},{"attributes":{"ID":171047,"DIS_CODE":0,"TOWNNAME":"安南區","LI":"安富里","LIN":"21鄰","STREET":"郡安路","SECT":"五段","MAREA":" ","LANE":"１６４巷","ALLEY":"１１弄","HOUSE_NO":"２之１號","E_COORD97":167691.87035000001,"N_COORD97":2547544.67771,"ADDRESS":"郡安路五段１６４巷１１弄２之１號","OBJECTID":171046},"geometry":{"x":167691.87035000045,"y":2547544.6777100004}},{"attributes":{"ID":171048,"DIS_CODE":0,"TOWNNAME":"新營區","LI":"南紙里","LIN":"26鄰","STREET":"建業路","SECT":" ","MAREA":" ","LANE":"２２７巷","ALLEY":"２２弄","HOUSE_NO":"７號","E_COORD97":178087.14000000001,"N_COORD97":2577357.02,"ADDRESS":"建業路２２７巷２２弄７號","OBJECTID":171047},"geometry":{"x":178087.1400000006,"y":2577357.0199999996}},{"attributes":{"ID":171049,"DIS_CODE":0,"TOWNNAME":"將軍區","LI":"長榮里","LIN":"13鄰","STREET":" ","SECT":" ","MAREA":"長榮","LANE":" ","ALLEY":" ","HOUSE_NO":"２２８之２號","E_COORD97":163686.38,"N_COORD97":2566103.2599999998,"ADDRESS":"長榮２２８之２號","OBJECTID":171048},"geometry":{"x":163686.38000000082,"y":2566103.2599999998}},{"attributes":{"ID":171050,"DIS_CODE":0,"TOWNNAME":"將軍區","LI":"長榮里","LIN":"13鄰","STREET":" ","SECT":" ","MAREA":"長榮","LANE":" ","ALLEY":" ","HOUSE_NO":"２２８之３號","E_COORD97":163686.35999999999,"N_COORD97":2566098.1400000001,"ADDRESS":"長榮２２８之３號","OBJECTID":171049},"geometry":{"x":163686.36000000034,"y":2566098.1400000006}},{"attributes":{"ID":171051,"DIS_CODE":0,"TOWNNAME":"將軍區","LI":"長榮里","LIN":"13鄰","STREET":" ","SECT":" ","MAREA":"長榮","LANE":" ","ALLEY":" ","HOUSE_NO":"２２８之４號","E_COORD97":163686.32999999999,"N_COORD97":2566093.0299999998,"ADDRESS":"長榮２２８之４號","OBJECTID":171050},"geometry":{"x":163686.33000000007,"y":2566093.0299999993}},{"attributes":{"ID":171052,"DIS_CODE":0,"TOWNNAME":"將軍區","LI":"長榮里","LIN":"13鄰","STREET":" ","SECT":" ","MAREA":"長榮","LANE":" ","ALLEY":" ","HOUSE_NO":"２２８之５號","E_COORD97":163686.29999999999,"N_COORD97":2566087.9100000001,"ADDRESS":"長榮２２８之５號","OBJECTID":171051},"geometry":{"x":163686.29999999981,"y":2566087.9100000001}},{"attributes":{"ID":171053,"DIS_CODE":0,"TOWNNAME":"將軍區","LI":"長榮里","LIN":"13鄰","STREET":" ","SECT":" ","MAREA":"長榮","LANE":" ","ALLEY":" ","HOUSE_NO":"２２８之６號","E_COORD97":163686.28,"N_COORD97":2566082.7999999998,"ADDRESS":"長榮２２８之６號","OBJECTID":171052},"geometry":{"x":163686.28000000119,"y":2566082.8000000007}},{"attributes":{"ID":171054,"DIS_CODE":0,"TOWNNAME":"將軍區","LI":"長榮里","LIN":"13鄰","STREET":" ","SECT":" ","MAREA":"長榮","LANE":" ","ALLEY":" ","HOUSE_NO":"２２８之７號","E_COORD97":163686.25,"N_COORD97":2566077.6899999999,"ADDRESS":"長榮２２８之７號","OBJECTID":171053},"geometry":{"x":163686.25000000093,"y":2566077.6900000013}},{"attributes":{"ID":171055,"DIS_CODE":0,"TOWNNAME":"將軍區","LI":"長榮里","LIN":"13鄰","STREET":" ","SECT":" ","MAREA":"長榮","LANE":" ","ALLEY":" ","HOUSE_NO":"２２８號","E_COORD97":163686.42999999999,"N_COORD97":2566113.48,"ADDRESS":"長榮２２８號","OBJECTID":171054},"geometry":{"x":163686.43000000063,"y":2566113.4800000023}},{"attributes":{"ID":171056,"DIS_CODE":0,"TOWNNAME":"將軍區","LI":"長榮里","LIN":"13鄰","STREET":" ","SECT":" ","MAREA":"長榮","LANE":" ","ALLEY":" ","HOUSE_NO":"２２９之１０號","E_COORD97":163665.66,"N_COORD97":2566074.8700000001,"ADDRESS":"長榮２２９之１０號","OBJECTID":171055},"geometry":{"x":163665.66000000015,"y":2566074.8700000029}},{"attributes":{"ID":171057,"DIS_CODE":0,"TOWNNAME":"新營區","LI":"民榮里","LIN":"32鄰","STREET":"太子路","SECT":" ","MAREA":" ","LANE":"５３巷","ALLEY":"１弄","HOUSE_NO":"２６號","E_COORD97":178263.48000000001,"N_COORD97":2578017.3300000001,"ADDRESS":"太子路５３巷１弄２６號","OBJECTID":171056},"geometry":{"x":178263.48000000138,"y":2578017.3300000038}},{"attributes":{"ID":171058,"DIS_CODE":0,"TOWNNAME":"新營區","LI":"新北里","LIN":"25鄰","STREET":"民治路","SECT":" ","MAREA":" ","LANE":"１５６巷","ALLEY":"１５弄","HOUSE_NO":"２２號","E_COORD97":179043.38,"N_COORD97":2578753.3599999999,"ADDRESS":"民治路１５６巷１５弄２２號","OBJECTID":171057},"geometry":{"x":179043.38000000082,"y":2578753.3600000013}},{"attributes":{"ID":171059,"DIS_CODE":0,"TOWNNAME":"南區","LI":"大恩里","LIN":"13鄰","STREET":"國民路","SECT":" ","MAREA":" ","LANE":"１６５巷","ALLEY":"２２弄","HOUSE_NO":"２７號","E_COORD97":169077.73000000001,"N_COORD97":2540834.3900000001,"ADDRESS":"國民路１６５巷２２弄２７號","OBJECTID":171058},"geometry":{"x":169077.73000000045,"y":2540834.3900000006}},{"attributes":{"ID":171060,"DIS_CODE":0,"TOWNNAME":"將軍區","LI":"長榮里","LIN":"13鄰","STREET":" ","SECT":" ","MAREA":"長榮","LANE":" ","ALLEY":" ","HOUSE_NO":"２２９之１號","E_COORD97":163665.54999999999,"N_COORD97":2566109.4300000002,"ADDRESS":"長榮２２９之１號","OBJECTID":171059},"geometry":{"x":163665.54999999981,"y":2566109.4300000034}},{"attributes":{"ID":171061,"DIS_CODE":0,"TOWNNAME":"將軍區","LI":"長榮里","LIN":"13鄰","STREET":" ","SECT":" ","MAREA":"長榮","LANE":" ","ALLEY":" ","HOUSE_NO":"２２９之２號","E_COORD97":163665.53,"N_COORD97":2566105.0899999999,"ADDRESS":"長榮２２９之２號","OBJECTID":171060},"geometry":{"x":163665.53000000119,"y":2566105.0900000036}},{"attributes":{"ID":171062,"DIS_CODE":0,"TOWNNAME":"將軍區","LI":"長榮里","LIN":"13鄰","STREET":" ","SECT":" ","MAREA":"長榮","LANE":" ","ALLEY":" ","HOUSE_NO":"２２９之３號","E_COORD97":163665.51999999999,"N_COORD97":2566100.7400000002,"ADDRESS":"長榮２２９之３號","OBJECTID":171061},"geometry":{"x":163665.51999999955,"y":2566100.7399999984}},{"attributes":{"ID":171063,"DIS_CODE":0,"TOWNNAME":"將軍區","LI":"長榮里","LIN":"13鄰","STREET":" ","SECT":" ","MAREA":"長榮","LANE":" ","ALLEY":" ","HOUSE_NO":"２２９之５號","E_COORD97":163665.51000000001,"N_COORD97":2566096.3999999999,"ADDRESS":"長榮２２９之５號","OBJECTID":171062},"geometry":{"x":163665.51000000071,"y":2566096.4000000004}},{"attributes":{"ID":171064,"DIS_CODE":0,"TOWNNAME":"南區","LI":"大恩里","LIN":"13鄰","STREET":"國民路","SECT":" ","MAREA":" ","LANE":"１６５巷","ALLEY":"２２弄","HOUSE_NO":"２９號","E_COORD97":169072.69,"N_COORD97":2540835.3500000001,"ADDRESS":"國民路１６５巷２２弄２９號","OBJECTID":171063},"geometry":{"x":169072.69000000134,"y":2540835.3500000015}},{"attributes":{"ID":171065,"DIS_CODE":0,"TOWNNAME":"將軍區","LI":"長榮里","LIN":"13鄰","STREET":" ","SECT":" ","MAREA":"長榮","LANE":" ","ALLEY":" ","HOUSE_NO":"２２９之６號","E_COORD97":163665.5,"N_COORD97":2566092.0600000001,"ADDRESS":"長榮２２９之６號","OBJECTID":171064},"geometry":{"x":163665.50000000093,"y":2566092.0600000005}},{"attributes":{"ID":171066,"DIS_CODE":0,"TOWNNAME":"將軍區","LI":"長榮里","LIN":"13鄰","STREET":" ","SECT":" ","MAREA":"長榮","LANE":" ","ALLEY":" ","HOUSE_NO":"２２９之７號","E_COORD97":163665.48000000001,"N_COORD97":2566087.7200000002,"ADDRESS":"長榮２２９之７號","OBJECTID":171065},"geometry":{"x":163665.48000000045,"y":2566087.7200000007}},{"attributes":{"ID":171067,"DIS_CODE":0,"TOWNNAME":"南區","LI":"大恩里","LIN":"13鄰","STREET":"國民路","SECT":" ","MAREA":" ","LANE":"１６５巷","ALLEY":"２２弄","HOUSE_NO":"３號","E_COORD97":169137.04000000001,"N_COORD97":2540816.79,"ADDRESS":"國民路１６５巷２２弄３號","OBJECTID":171066},"geometry":{"x":169137.0400000019,"y":2540816.7899999991}},{"attributes":{"ID":171068,"DIS_CODE":0,"TOWNNAME":"將軍區","LI":"長榮里","LIN":"13鄰","STREET":" ","SECT":" ","MAREA":"長榮","LANE":" ","ALLEY":" ","HOUSE_NO":"２２９之８號","E_COORD97":163665.47,"N_COORD97":2566083.3799999999,"ADDRESS":"長榮２２９之８號","OBJECTID":171067},"geometry":{"x":163665.47000000067,"y":2566083.3800000008}},{"attributes":{"ID":171069,"DIS_CODE":0,"TOWNNAME":"將軍區","LI":"長榮里","LIN":"13鄰","STREET":" ","SECT":" ","MAREA":"長榮","LANE":" ","ALLEY":" ","HOUSE_NO":"２２９之９號","E_COORD97":163665.45999999999,"N_COORD97":2566079.04,"ADDRESS":"長榮２２９之９號","OBJECTID":171068},"geometry":{"x":163665.46000000183,"y":2566079.040000001}},{"attributes":{"ID":171070,"DIS_CODE":0,"TOWNNAME":"將軍區","LI":"長榮里","LIN":"13鄰","STREET":" ","SECT":" ","MAREA":"長榮","LANE":" ","ALLEY":" ","HOUSE_NO":"２２９號","E_COORD97":163670.10999999999,"N_COORD97":2566114.1499999999,"ADDRESS":"長榮２２９號","OBJECTID":171069},"geometry":{"x":163670.11000000127,"y":2566114.1500000004}},{"attributes":{"ID":171071,"DIS_CODE":0,"TOWNNAME":"將軍區","LI":"長榮里","LIN":"13鄰","STREET":" ","SECT":" ","MAREA":"長榮","LANE":" ","ALLEY":" ","HOUSE_NO":"２３０之１０號","E_COORD97":163642.25,"N_COORD97":2566074.1400000001,"ADDRESS":"長榮２３０之１０號","OBJECTID":171070},"geometry":{"x":163642.25,"y":2566074.1400000006}},{"attributes":{"ID":171072,"DIS_CODE":0,"TOWNNAME":"將軍區","LI":"長榮里","LIN":"13鄰","STREET":" ","SECT":" ","MAREA":"長榮","LANE":" ","ALLEY":" ","HOUSE_NO":"２３０之１號","E_COORD97":163642.01999999999,"N_COORD97":2566108.5600000001,"ADDRESS":"長榮２３０之１號","OBJECTID":171071},"geometry":{"x":163642.01999999955,"y":2566108.5600000005}},{"attributes":{"ID":171073,"DIS_CODE":0,"TOWNNAME":"學甲區","LI":"三慶里","LIN":"7鄰","STREET":" ","SECT":" ","MAREA":"頂洲","LANE":" ","ALLEY":" ","HOUSE_NO":"８９號","E_COORD97":168528.35000000001,"N_COORD97":2576340.4500000002,"ADDRESS":"頂洲８９號","OBJECTID":171072},"geometry":{"x":168528.35000000056,"y":2576340.4499999993}},{"attributes":{"ID":171074,"DIS_CODE":0,"TOWNNAME":"將軍區","LI":"長榮里","LIN":"13鄰","STREET":" ","SECT":" ","MAREA":"長榮","LANE":" ","ALLEY":" ","HOUSE_NO":"２３０之２號","E_COORD97":163642.39000000001,"N_COORD97":2566104.0600000001,"ADDRESS":"長榮２３０之２號","OBJECTID":171073},"geometry":{"x":163642.3900000006,"y":2566104.0600000024}},{"attributes":{"ID":171075,"DIS_CODE":0,"TOWNNAME":"將軍區","LI":"長榮里","LIN":"13鄰","STREET":" ","SECT":" ","MAREA":"長榮","LANE":" ","ALLEY":" ","HOUSE_NO":"２３０之３號","E_COORD97":163642.09,"N_COORD97":2566099.8799999999,"ADDRESS":"長榮２３０之３號","OBJECTID":171074},"geometry":{"x":163642.08999999985,"y":2566099.8800000008}},{"attributes":{"ID":171076,"DIS_CODE":0,"TOWNNAME":"將軍區","LI":"長榮里","LIN":"13鄰","STREET":" ","SECT":" ","MAREA":"長榮","LANE":" ","ALLEY":" ","HOUSE_NO":"２３０之５號","E_COORD97":163642.29999999999,"N_COORD97":2566095.6499999999,"ADDRESS":"長榮２３０之５號","OBJECTID":171075},"geometry":{"x":163642.29999999981,"y":2566095.6500000022}},{"attributes":{"ID":171077,"DIS_CODE":0,"TOWNNAME":"將軍區","LI":"長榮里","LIN":"13鄰","STREET":" ","SECT":" ","MAREA":"長榮","LANE":" ","ALLEY":" ","HOUSE_NO":"２３０之６號","E_COORD97":163642.29999999999,"N_COORD97":2566090.9700000002,"ADDRESS":"長榮２３０之６號","OBJECTID":171076},"geometry":{"x":163642.29999999981,"y":2566090.9700000025}},{"attributes":{"ID":171078,"DIS_CODE":0,"TOWNNAME":"將軍區","LI":"長榮里","LIN":"13鄰","STREET":" ","SECT":" ","MAREA":"長榮","LANE":" ","ALLEY":" ","HOUSE_NO":"２３０之７號","E_COORD97":163642.20999999999,"N_COORD97":2566086.7999999998,"ADDRESS":"長榮２３０之７號","OBJECTID":171077},"geometry":{"x":163642.21000000089,"y":2566086.8000000007}},{"attributes":{"ID":171079,"DIS_CODE":0,"TOWNNAME":"南區","LI":"大恩里","LIN":"13鄰","STREET":"國民路","SECT":" ","MAREA":" ","LANE":"１６５巷","ALLEY":"２２弄","HOUSE_NO":"５號","E_COORD97":169132.17000000001,"N_COORD97":2540818.1899999999,"ADDRESS":"國民路１６５巷２２弄５號","OBJECTID":171078},"geometry":{"x":169132.16999999993,"y":2540818.1899999995}},{"attributes":{"ID":171080,"DIS_CODE":0,"TOWNNAME":"南區","LI":"大恩里","LIN":"13鄰","STREET":"國民路","SECT":" ","MAREA":" ","LANE":"１６５巷","ALLEY":"２２弄","HOUSE_NO":"７號","E_COORD97":169126.91,"N_COORD97":2540819.3700000001,"ADDRESS":"國民路１６５巷２２弄７號","OBJECTID":171079},"geometry":{"x":169126.91000000108,"y":2540819.3700000029}},{"attributes":{"ID":171081,"DIS_CODE":0,"TOWNNAME":"安南區","LI":"溪北里","LIN":"12鄰","STREET":"文安街","SECT":" ","MAREA":" ","LANE":" ","ALLEY":" ","HOUSE_NO":"４７號","E_COORD97":169389.89000000001,"N_COORD97":2547482.6000000001,"ADDRESS":"文安街４７號","OBJECTID":171080},"geometry":{"x":169389.88999999966,"y":2547482.6000000015}},{"attributes":{"ID":171082,"DIS_CODE":0,"TOWNNAME":"安南區","LI":"溪北里","LIN":"12鄰","STREET":"文安街","SECT":" ","MAREA":" ","LANE":" ","ALLEY":" ","HOUSE_NO":"４９號","E_COORD97":169385,"N_COORD97":2547480.8799999999,"ADDRESS":"文安街４９號","OBJECTID":171081},"geometry":{"x":169385.00000000093,"y":2547480.879999999}},{"attributes":{"ID":171083,"DIS_CODE":0,"TOWNNAME":"安南區","LI":"溪北里","LIN":"12鄰","STREET":"文安街","SECT":" ","MAREA":" ","LANE":" ","ALLEY":" ","HOUSE_NO":"５１號","E_COORD97":169377.89000000001,"N_COORD97":2547469.3199999998,"ADDRESS":"文安街５１號","OBJECTID":171082},"geometry":{"x":169377.88999999966,"y":2547469.3200000003}},{"attributes":{"ID":171084,"DIS_CODE":0,"TOWNNAME":"將軍區","LI":"長榮里","LIN":"13鄰","STREET":" ","SECT":" ","MAREA":"長榮","LANE":" ","ALLEY":" ","HOUSE_NO":"２３０之８號","E_COORD97":163642.57999999999,"N_COORD97":2566082.7599999998,"ADDRESS":"長榮２３０之８號","OBJECTID":171083},"geometry":{"x":163642.58000000194,"y":2566082.7599999998}},{"attributes":{"ID":171085,"DIS_CODE":0,"TOWNNAME":"將軍區","LI":"長榮里","LIN":"13鄰","STREET":" ","SECT":" ","MAREA":"長榮","LANE":" ","ALLEY":" ","HOUSE_NO":"２３０之９號","E_COORD97":163642.26000000001,"N_COORD97":2566078.5299999998,"ADDRESS":"長榮２３０之９號","OBJECTID":171084},"geometry":{"x":163642.25999999978,"y":2566078.5300000012}},{"attributes":{"ID":171086,"DIS_CODE":0,"TOWNNAME":"將軍區","LI":"長榮里","LIN":"13鄰","STREET":" ","SECT":" ","MAREA":"長榮","LANE":" ","ALLEY":" ","HOUSE_NO":"２３０號","E_COORD97":163642.28,"N_COORD97":2566113.1699999999,"ADDRESS":"長榮２３０號","OBJECTID":171085},"geometry":{"x":163642.28000000119,"y":2566113.1699999999}},{"attributes":{"ID":171087,"DIS_CODE":0,"TOWNNAME":"將軍區","LI":"將貴里","LIN":"13鄰","STREET":" ","SECT":" ","MAREA":"將榮","LANE":" ","ALLEY":" ","HOUSE_NO":"１８號","E_COORD97":161892.78,"N_COORD97":2568508.0800000001,"ADDRESS":"將榮１８號","OBJECTID":171086},"geometry":{"x":161892.78000000119,"y":2568508.0800000001}},{"attributes":{"ID":171088,"DIS_CODE":0,"TOWNNAME":"將軍區","LI":"將貴里","LIN":"13鄰","STREET":" ","SECT":" ","MAREA":"將榮","LANE":" ","ALLEY":" ","HOUSE_NO":"１９號","E_COORD97":161891.88,"N_COORD97":2568493.9300000002,"ADDRESS":"將榮１９號","OBJECTID":171087},"geometry":{"x":161891.87999999989,"y":2568493.9300000016}},{"attributes":{"ID":171089,"DIS_CODE":0,"TOWNNAME":"將軍區","LI":"將富里","LIN":"13鄰","STREET":" ","SECT":" ","MAREA":"將榮","LANE":" ","ALLEY":" ","HOUSE_NO":"８５號","E_COORD97":161955.23999999999,"N_COORD97":2568732.48,"ADDRESS":"將榮８５號","OBJECTID":171088},"geometry":{"x":161955.24000000115,"y":2568732.4800000004}},{"attributes":{"ID":171090,"DIS_CODE":0,"TOWNNAME":"將軍區","LI":"將富里","LIN":"13鄰","STREET":" ","SECT":" ","MAREA":"將榮","LANE":" ","ALLEY":" ","HOUSE_NO":"８６號","E_COORD97":161952.5,"N_COORD97":2568747.1699999999,"ADDRESS":"將榮８６號","OBJECTID":171089},"geometry":{"x":161952.5,"y":2568747.1700000018}},{"attributes":{"ID":171091,"DIS_CODE":0,"TOWNNAME":"將軍區","LI":"將富里","LIN":"13鄰","STREET":" ","SECT":" ","MAREA":"將榮","LANE":" ","ALLEY":" ","HOUSE_NO":"８７號","E_COORD97":161933.66,"N_COORD97":2568732.3100000001,"ADDRESS":"將榮８７號","OBJECTID":171090},"geometry":{"x":161933.66000000108,"y":2568732.3100000024}},{"attributes":{"ID":171092,"DIS_CODE":0,"TOWNNAME":"將軍區","LI":"保源里","LIN":"13鄰","STREET":" ","SECT":" ","MAREA":"源頭","LANE":" ","ALLEY":" ","HOUSE_NO":"２３之１號","E_COORD97":164515.78,"N_COORD97":2567869.9500000002,"ADDRESS":"源頭２３之１號","OBJECTID":171091},"geometry":{"x":164515.78000000026,"y":2567869.9500000011}},{"attributes":{"ID":171093,"DIS_CODE":0,"TOWNNAME":"將軍區","LI":"保源里","LIN":"13鄰","STREET":" ","SECT":" ","MAREA":"源頭","LANE":" ","ALLEY":" ","HOUSE_NO":"２３號","E_COORD97":164535.54999999999,"N_COORD97":2567866.4100000001,"ADDRESS":"源頭２３號","OBJECTID":171092},"geometry":{"x":164535.54999999981,"y":2567866.4100000039}},{"attributes":{"ID":171094,"DIS_CODE":0,"TOWNNAME":"安南區","LI":"溪北里","LIN":"12鄰","STREET":"文安街","SECT":" ","MAREA":" ","LANE":" ","ALLEY":" ","HOUSE_NO":"５７號","E_COORD97":169366.54999999999,"N_COORD97":2547465.77,"ADDRESS":"文安街５７號","OBJECTID":171093},"geometry":{"x":169366.54999999981,"y":2547465.7699999996}},{"attributes":{"ID":171095,"DIS_CODE":0,"TOWNNAME":"安南區","LI":"溪北里","LIN":"12鄰","STREET":"文安街","SECT":" ","MAREA":" ","LANE":" ","ALLEY":" ","HOUSE_NO":"５９號","E_COORD97":169362.54999999999,"N_COORD97":2547464,"ADDRESS":"文安街５９號","OBJECTID":171094},"geometry":{"x":169362.55000000075,"y":2547464}},{"attributes":{"ID":171096,"DIS_CODE":0,"TOWNNAME":"南區","LI":"大恩里","LIN":"13鄰","STREET":"國民路","SECT":" ","MAREA":" ","LANE":"１６５巷","ALLEY":"２２弄","HOUSE_NO":"９號","E_COORD97":169122.29999999999,"N_COORD97":2540820.5499999998,"ADDRESS":"國民路１６５巷２２弄９號","OBJECTID":171095},"geometry":{"x":169122.29999999981,"y":2540820.5499999989}},{"attributes":{"ID":171097,"DIS_CODE":0,"TOWNNAME":"南區","LI":"大恩里","LIN":"10鄰","STREET":"國民路","SECT":" ","MAREA":" ","LANE":"１６５巷","ALLEY":"３５弄","HOUSE_NO":"３８號","E_COORD97":169299.67000000001,"N_COORD97":2540734.2400000002,"ADDRESS":"國民路１６５巷３５弄３８號","OBJECTID":171096},"geometry":{"x":169299.66999999993,"y":2540734.2400000039}},{"attributes":{"ID":171098,"DIS_CODE":0,"TOWNNAME":"南區","LI":"大恩里","LIN":"10鄰","STREET":"國民路","SECT":" ","MAREA":" ","LANE":"１６５巷","ALLEY":"３５弄","HOUSE_NO":"４０號","E_COORD97":169306.22,"N_COORD97":2540731.3500000001,"ADDRESS":"國民路１６５巷３５弄４０號","OBJECTID":171097},"geometry":{"x":169306.21999999974,"y":2540731.3499999996}},{"attributes":{"ID":171099,"DIS_CODE":0,"TOWNNAME":"南區","LI":"大恩里","LIN":"10鄰","STREET":"國民路","SECT":" ","MAREA":" ","LANE":"１６５巷","ALLEY":"３５弄","HOUSE_NO":"４２號","E_COORD97":169314.92000000001,"N_COORD97":2540729.4199999999,"ADDRESS":"國民路１６５巷３５弄４２號","OBJECTID":171098},"geometry":{"x":169314.91999999993,"y":2540729.4200000037}},{"attributes":{"ID":171100,"DIS_CODE":0,"TOWNNAME":"南區","LI":"大恩里","LIN":"10鄰","STREET":"國民路","SECT":" ","MAREA":" ","LANE":"１６５巷","ALLEY":"３５弄","HOUSE_NO":"４３號","E_COORD97":169303.97,"N_COORD97":2540753.23,"ADDRESS":"國民路１６５巷３５弄４３號","OBJECTID":171099},"geometry":{"x":169303.97000000067,"y":2540753.2300000004}},{"attributes":{"ID":171101,"DIS_CODE":0,"TOWNNAME":"南區","LI":"大恩里","LIN":"10鄰","STREET":"國民路","SECT":" ","MAREA":" ","LANE":"１６５巷","ALLEY":"３５弄","HOUSE_NO":"４５號","E_COORD97":169308.26000000001,"N_COORD97":2540751.9500000002,"ADDRESS":"國民路１６５巷３５弄４５號","OBJECTID":171100},"geometry":{"x":169308.26000000071,"y":2540751.950000003}},{"attributes":{"ID":171102,"DIS_CODE":0,"TOWNNAME":"安南區","LI":"溪北里","LIN":"12鄰","STREET":"文安街","SECT":" ","MAREA":" ","LANE":" ","ALLEY":" ","HOUSE_NO":"６１號","E_COORD97":169358.98999999999,"N_COORD97":2547462.8900000001,"ADDRESS":"文安街６１號","OBJECTID":171101},"geometry":{"x":169358.99000000022,"y":2547462.8900000006}},{"attributes":{"ID":171103,"DIS_CODE":0,"TOWNNAME":"將軍區","LI":"保源里","LIN":"13鄰","STREET":" ","SECT":" ","MAREA":"源頭","LANE":" ","ALLEY":" ","HOUSE_NO":"２４號","E_COORD97":164549.67999999999,"N_COORD97":2567886.2000000002,"ADDRESS":"源頭２４號","OBJECTID":171102},"geometry":{"x":164549.6799999997,"y":2567886.1999999993}},{"attributes":{"ID":171104,"DIS_CODE":0,"TOWNNAME":"將軍區","LI":"保源里","LIN":"13鄰","STREET":" ","SECT":" ","MAREA":"源頭","LANE":" ","ALLEY":" ","HOUSE_NO":"２５號","E_COORD97":164590.37,"N_COORD97":2567876.8399999999,"ADDRESS":"源頭２５號","OBJECTID":171103},"geometry":{"x":164590.37000000104,"y":2567876.8400000017}},{"attributes":{"ID":171105,"DIS_CODE":0,"TOWNNAME":"將軍區","LI":"保源里","LIN":"13鄰","STREET":" ","SECT":" ","MAREA":"源頭","LANE":" ","ALLEY":" ","HOUSE_NO":"２７之１號","E_COORD97":164561.67000000001,"N_COORD97":2567898.8900000001,"ADDRESS":"源頭２７之１號","OBJECTID":171104},"geometry":{"x":164561.66999999993,"y":2567898.8900000025}},{"attributes":{"ID":171106,"DIS_CODE":0,"TOWNNAME":"將軍區","LI":"保源里","LIN":"13鄰","STREET":" ","SECT":" ","MAREA":"源頭","LANE":" ","ALLEY":" ","HOUSE_NO":"２７之２號","E_COORD97":164563.79999999999,"N_COORD97":2567914.5299999998,"ADDRESS":"源頭２７之２號","OBJECTID":171105},"geometry":{"x":164563.80000000075,"y":2567914.5299999993}},{"attributes":{"ID":171107,"DIS_CODE":0,"TOWNNAME":"將軍區","LI":"保源里","LIN":"13鄰","STREET":" ","SECT":" ","MAREA":"源頭","LANE":" ","ALLEY":" ","HOUSE_NO":"２７號","E_COORD97":164589.34,"N_COORD97":2567909.3700000001,"ADDRESS":"源頭２７號","OBJECTID":171106},"geometry":{"x":164589.33999999985,"y":2567909.3700000029}},{"attributes":{"ID":171108,"DIS_CODE":0,"TOWNNAME":"將軍區","LI":"保源里","LIN":"13鄰","STREET":" ","SECT":" ","MAREA":"源頭","LANE":" ","ALLEY":" ","HOUSE_NO":"２８之３號","E_COORD97":164255.20999999999,"N_COORD97":2567939.4199999999,"ADDRESS":"源頭２８之３號","OBJECTID":171107},"geometry":{"x":164255.21000000183,"y":2567939.4199999999}},{"attributes":{"ID":171109,"DIS_CODE":0,"TOWNNAME":"將軍區","LI":"保源里","LIN":"13鄰","STREET":" ","SECT":" ","MAREA":"源頭","LANE":" ","ALLEY":" ","HOUSE_NO":"２８號","E_COORD97":164530.66,"N_COORD97":2567906.04,"ADDRESS":"源頭２８號","OBJECTID":171108},"geometry":{"x":164530.66000000108,"y":2567906.040000001}},{"attributes":{"ID":171110,"DIS_CODE":0,"TOWNNAME":"將軍區","LI":"保源里","LIN":"13鄰","STREET":" ","SECT":" ","MAREA":"源頭","LANE":" ","ALLEY":" ","HOUSE_NO":"２９之２號","E_COORD97":164261.94,"N_COORD97":2568005.0699999998,"ADDRESS":"源頭２９之１號","OBJECTID":171109},"geometry":{"x":164261.94000000041,"y":2568005.0700000022}},{"attributes":{"ID":171111,"DIS_CODE":0,"TOWNNAME":"佳里區","LI":"三協里","LIN":"13鄰","STREET":" ","SECT":" ","MAREA":"後庄","LANE":" ","ALLEY":" ","HOUSE_NO":"５５號","E_COORD97":168509.79000000001,"N_COORD97":2564893.9399999999,"ADDRESS":"後庄５５號","OBJECTID":171110},"geometry":{"x":168509.7900000019,"y":2564893.9399999995}},{"attributes":{"ID":171112,"DIS_CODE":0,"TOWNNAME":"將軍區","LI":"保源里","LIN":"13鄰","STREET":" ","SECT":" ","MAREA":"源頭","LANE":" ","ALLEY":" ","HOUSE_NO":"３０之２號","E_COORD97":164532.37,"N_COORD97":2567925.9900000002,"ADDRESS":"源頭３０之２號","OBJECTID":171111},"geometry":{"x":164532.37000000197,"y":2567925.9900000002}},{"attributes":{"ID":171113,"DIS_CODE":0,"TOWNNAME":"將軍區","LI":"保源里","LIN":"13鄰","STREET":" ","SECT":" ","MAREA":"源頭","LANE":" ","ALLEY":" ","HOUSE_NO":"３０號","E_COORD97":164548.39000000001,"N_COORD97":2567940.73,"ADDRESS":"源頭３０號","OBJECTID":171112},"geometry":{"x":164548.38999999966,"y":2567940.7300000004}},{"attributes":{"ID":171114,"DIS_CODE":0,"TOWNNAME":"將軍區","LI":"廣山里","LIN":"13鄰","STREET":" ","SECT":" ","MAREA":"廣山","LANE":" ","ALLEY":" ","HOUSE_NO":"１２４號","E_COORD97":159572.35999999999,"N_COORD97":2569196.2999999998,"ADDRESS":"廣山１２４號","OBJECTID":171113},"geometry":{"x":159572.36000000034,"y":2569196.2999999989}},{"attributes":{"ID":171115,"DIS_CODE":0,"TOWNNAME":"安南區","LI":"安慶里","LIN":"12鄰","STREET":"長溪路","SECT":"一段","MAREA":" ","LANE":" ","ALLEY":" ","HOUSE_NO":"９９號","E_COORD97":169118.32000000001,"N_COORD97":2548393.8900000001,"ADDRESS":"長溪路一段９９號","OBJECTID":171114},"geometry":{"x":169118.32000000216,"y":2548393.8900000025}},{"attributes":{"ID":171116,"DIS_CODE":0,"TOWNNAME":"安南區","LI":"新順里","LIN":"12鄰","STREET":"安生街","SECT":" ","MAREA":" ","LANE":" ","ALLEY":" ","HOUSE_NO":"１４號","E_COORD97":169715.20000000001,"N_COORD97":2549469.2400000002,"ADDRESS":"安生街１４號","OBJECTID":171115},"geometry":{"x":169715.20000000019,"y":2549469.2400000021}},{"attributes":{"ID":171117,"DIS_CODE":0,"TOWNNAME":"安南區","LI":"新順里","LIN":"12鄰","STREET":"安生街","SECT":" ","MAREA":" ","LANE":" ","ALLEY":" ","HOUSE_NO":"１６號","E_COORD97":169712.39999999999,"N_COORD97":2549472.8100000001,"ADDRESS":"安生街１６號","OBJECTID":171116},"geometry":{"x":169712.40000000037,"y":2549472.8100000005}},{"attributes":{"ID":171118,"DIS_CODE":0,"TOWNNAME":"安南區","LI":"新順里","LIN":"12鄰","STREET":"安生街","SECT":" ","MAREA":" ","LANE":" ","ALLEY":" ","HOUSE_NO":"１８號","E_COORD97":169707.81,"N_COORD97":2549471.79,"ADDRESS":"安生街１８號","OBJECTID":171117},"geometry":{"x":169707.81000000052,"y":2549471.7899999991}},{"attributes":{"ID":171119,"DIS_CODE":0,"TOWNNAME":"安南區","LI":"新順里","LIN":"12鄰","STREET":"安生街","SECT":" ","MAREA":" ","LANE":" ","ALLEY":" ","HOUSE_NO":"２０號","E_COORD97":169703.73000000001,"N_COORD97":2549475.3500000001,"ADDRESS":"安生街２０號","OBJECTID":171118},"geometry":{"x":169703.73000000045,"y":2549475.3499999996}},{"attributes":{"ID":171120,"DIS_CODE":0,"TOWNNAME":"安南區","LI":"新順里","LIN":"12鄰","STREET":"安生街","SECT":" ","MAREA":" ","LANE":" ","ALLEY":" ","HOUSE_NO":"２２號","E_COORD97":169699.39999999999,"N_COORD97":2549474.8399999999,"ADDRESS":"安生街２２號","OBJECTID":171119},"geometry":{"x":169699.40000000224,"y":2549474.8400000017}},{"attributes":{"ID":171121,"DIS_CODE":0,"TOWNNAME":"南區","LI":"大恩里","LIN":"11鄰","STREET":"國民路","SECT":" ","MAREA":" ","LANE":"１６５巷","ALLEY":"３５弄","HOUSE_NO":"２５號","E_COORD97":169255.89999999999,"N_COORD97":2540769.3599999999,"ADDRESS":"國民路１６５巷３５弄２５號","OBJECTID":171120},"geometry":{"x":169255.9000000013,"y":2540769.3599999994}},{"attributes":{"ID":171122,"DIS_CODE":0,"TOWNNAME":"南區","LI":"大恩里","LIN":"11鄰","STREET":"國民路","SECT":" ","MAREA":" ","LANE":"１６５巷","ALLEY":"３５弄","HOUSE_NO":"２７號","E_COORD97":169260.51999999999,"N_COORD97":2540767.5299999998,"ADDRESS":"國民路１６５巷３５弄２７號","OBJECTID":171121},"geometry":{"x":169260.52000000048,"y":2540767.5299999993}},{"attributes":{"ID":171123,"DIS_CODE":0,"TOWNNAME":"南區","LI":"大恩里","LIN":"11鄰","STREET":"國民路","SECT":" ","MAREA":" ","LANE":"１６５巷","ALLEY":"３５弄","HOUSE_NO":"２８號","E_COORD97":169252.53,"N_COORD97":2540752.6499999999,"ADDRESS":"國民路１６５巷３５弄２８號","OBJECTID":171122},"geometry":{"x":169252.53000000212,"y":2540752.6500000022}},{"attributes":{"ID":171124,"DIS_CODE":0,"TOWNNAME":"南區","LI":"大恩里","LIN":"11鄰","STREET":"國民路","SECT":" ","MAREA":" ","LANE":"１６５巷","ALLEY":"３５弄","HOUSE_NO":"２９號","E_COORD97":169265.23999999999,"N_COORD97":2540765.3900000001,"ADDRESS":"國民路１６５巷３５弄２９號","OBJECTID":171123},"geometry":{"x":169265.24000000115,"y":2540765.3900000025}},{"attributes":{"ID":171125,"DIS_CODE":0,"TOWNNAME":"南區","LI":"大恩里","LIN":"11鄰","STREET":"國民路","SECT":" ","MAREA":" ","LANE":"１６５巷","ALLEY":"３５弄","HOUSE_NO":"３０號","E_COORD97":169265.23999999999,"N_COORD97":2540744.3900000001,"ADDRESS":"國民路１６５巷３５弄３０號","OBJECTID":171124},"geometry":{"x":169265.24000000115,"y":2540744.3900000025}},{"attributes":{"ID":171126,"DIS_CODE":0,"TOWNNAME":"將軍區","LI":"廣山里","LIN":"13鄰","STREET":" ","SECT":" ","MAREA":"廣山","LANE":" ","ALLEY":" ","HOUSE_NO":"１３３號","E_COORD97":159464.85999999999,"N_COORD97":2569162.9500000002,"ADDRESS":"廣山１３３號","OBJECTID":171125},"geometry":{"x":159464.86000000127,"y":2569162.9499999993}},{"attributes":{"ID":171127,"DIS_CODE":0,"TOWNNAME":"將軍區","LI":"鯤溟里","LIN":"13鄰","STREET":" ","SECT":" ","MAREA":"鯤溟","LANE":" ","ALLEY":" ","HOUSE_NO":"１００之１號","E_COORD97":156483.41,"N_COORD97":2565521.1000000001,"ADDRESS":"鯤溟１００之１號","OBJECTID":171126},"geometry":{"x":156483.41000000201,"y":2565521.0999999996}},{"attributes":{"ID":171128,"DIS_CODE":0,"TOWNNAME":"將軍區","LI":"鯤溟里","LIN":"13鄰","STREET":" ","SECT":" ","MAREA":"鯤溟","LANE":" ","ALLEY":" ","HOUSE_NO":"１００號","E_COORD97":156500.91,"N_COORD97":2565522.79,"ADDRESS":"鯤溟１００號","OBJECTID":171127},"geometry":{"x":156500.91000000108,"y":2565522.7899999991}},{"attributes":{"ID":171129,"DIS_CODE":0,"TOWNNAME":"將軍區","LI":"鯤溟里","LIN":"13鄰","STREET":" ","SECT":" ","MAREA":"鯤溟","LANE":" ","ALLEY":" ","HOUSE_NO":"１０１之１號","E_COORD97":156482.56,"N_COORD97":2565529.5899999999,"ADDRESS":"鯤溟１０１之１號","OBJECTID":171128},"geometry":{"x":156482.56000000052,"y":2565529.5900000017}},{"attributes":{"ID":171130,"DIS_CODE":0,"TOWNNAME":"將軍區","LI":"鯤溟里","LIN":"13鄰","STREET":" ","SECT":" ","MAREA":"鯤溟","LANE":" ","ALLEY":" ","HOUSE_NO":"１０１之２號","E_COORD97":156467.59,"N_COORD97":2565524.7599999998,"ADDRESS":"鯤溟１０１之２號","OBJECTID":171129},"geometry":{"x":156467.58999999985,"y":2565524.7600000016}},{"attributes":{"ID":171131,"DIS_CODE":0,"TOWNNAME":"將軍區","LI":"鯤溟里","LIN":"13鄰","STREET":" ","SECT":" ","MAREA":"鯤溟","LANE":" ","ALLEY":" ","HOUSE_NO":"１０１號","E_COORD97":156502.31,"N_COORD97":2565532.8100000001,"ADDRESS":"鯤溟１０１號","OBJECTID":171130},"geometry":{"x":156502.31000000052,"y":2565532.8100000024}},{"attributes":{"ID":171132,"DIS_CODE":0,"TOWNNAME":"將軍區","LI":"鯤溟里","LIN":"13鄰","STREET":" ","SECT":" ","MAREA":"鯤溟","LANE":" ","ALLEY":" ","HOUSE_NO":"１０２之１號","E_COORD97":156503.95999999999,"N_COORD97":2565547.6499999999,"ADDRESS":"鯤溟１０２之１號","OBJECTID":171131},"geometry":{"x":156503.96000000089,"y":2565547.6500000004}},{"attributes":{"ID":171133,"DIS_CODE":0,"TOWNNAME":"將軍區","LI":"鯤溟里","LIN":"13鄰","STREET":" ","SECT":" ","MAREA":"鯤溟","LANE":" ","ALLEY":" ","HOUSE_NO":"１０２號","E_COORD97":156496.23999999999,"N_COORD97":2565544.9399999999,"ADDRESS":"鯤溟１０２號","OBJECTID":171132},"geometry":{"x":156496.24000000022,"y":2565544.9399999995}},{"attributes":{"ID":171134,"DIS_CODE":0,"TOWNNAME":"將軍區","LI":"鯤溟里","LIN":"13鄰","STREET":" ","SECT":" ","MAREA":"鯤溟","LANE":" ","ALLEY":" ","HOUSE_NO":"９４之１０號","E_COORD97":156472.54999999999,"N_COORD97":2565390.6400000001,"ADDRESS":"鯤溟９４之１０號","OBJECTID":171133},"geometry":{"x":156472.55000000075,"y":2565390.6400000025}},{"attributes":{"ID":171135,"DIS_CODE":0,"TOWNNAME":"將軍區","LI":"鯤溟里","LIN":"13鄰","STREET":" ","SECT":" ","MAREA":"鯤溟","LANE":" ","ALLEY":" ","HOUSE_NO":"９４之１１號","E_COORD97":156477.13,"N_COORD97":2565389.27,"ADDRESS":"鯤溟９４之１１號","OBJECTID":171134},"geometry":{"x":156477.13000000082,"y":2565389.2700000014}},{"attributes":{"ID":171136,"DIS_CODE":0,"TOWNNAME":"將軍區","LI":"鯤溟里","LIN":"13鄰","STREET":" ","SECT":" ","MAREA":"鯤溟","LANE":" ","ALLEY":" ","HOUSE_NO":"９４之１２號","E_COORD97":156481.73000000001,"N_COORD97":2565387.3300000001,"ADDRESS":"鯤溟９４之１２號","OBJECTID":171135},"geometry":{"x":156481.73000000138,"y":2565387.3300000001}},{"attributes":{"ID":171137,"DIS_CODE":0,"TOWNNAME":"南區","LI":"大恩里","LIN":"11鄰","STREET":"國民路","SECT":" ","MAREA":" ","LANE":"１６５巷","ALLEY":"３５弄","HOUSE_NO":"３１號","E_COORD97":169269.64000000001,"N_COORD97":2540764.21,"ADDRESS":"國民路１６５巷３５弄３１號","OBJECTID":171136},"geometry":{"x":169269.63999999966,"y":2540764.2100000009}},{"attributes":{"ID":171138,"DIS_CODE":0,"TOWNNAME":"南區","LI":"大恩里","LIN":"11鄰","STREET":"國民路","SECT":" ","MAREA":" ","LANE":"１６５巷","ALLEY":"３５弄","HOUSE_NO":"３２號","E_COORD97":169271.14999999999,"N_COORD97":2540742.3500000001,"ADDRESS":"國民路１６５巷３５弄３２號","OBJECTID":171137},"geometry":{"x":169271.1500000013,"y":2540742.3499999996}},{"attributes":{"ID":171139,"DIS_CODE":0,"TOWNNAME":"南區","LI":"大恩里","LIN":"11鄰","STREET":"國民路","SECT":" ","MAREA":" ","LANE":"１６５巷","ALLEY":"３５弄","HOUSE_NO":"３３號","E_COORD97":169274.48000000001,"N_COORD97":2540762.1699999999,"ADDRESS":"國民路１６５巷３５弄３３號","OBJECTID":171138},"geometry":{"x":169274.48000000045,"y":2540762.1700000018}},{"attributes":{"ID":171140,"DIS_CODE":0,"TOWNNAME":"南區","LI":"大恩里","LIN":"11鄰","STREET":"國民路","SECT":" ","MAREA":" ","LANE":"１６５巷","ALLEY":"３５弄","HOUSE_NO":"３４號","E_COORD97":169279.95000000001,"N_COORD97":2540739.8799999999,"ADDRESS":"國民路１６５巷３５弄３４號","OBJECTID":171139},"geometry":{"x":169279.95000000019,"y":2540739.8800000008}},{"attributes":{"ID":171141,"DIS_CODE":0,"TOWNNAME":"南區","LI":"大恩里","LIN":"18鄰","STREET":"國民路","SECT":" ","MAREA":" ","LANE":"１６５巷","ALLEY":"３５弄","HOUSE_NO":"４號","E_COORD97":169189.10999999999,"N_COORD97":2540767.1499999999,"ADDRESS":"國民路１６５巷３５弄４號","OBJECTID":171140},"geometry":{"x":169189.11000000034,"y":2540767.1500000022}},{"attributes":{"ID":171142,"DIS_CODE":0,"TOWNNAME":"南區","LI":"大恩里","LIN":"13鄰","STREET":"國民路","SECT":" ","MAREA":" ","LANE":"１６５巷","ALLEY":"３６弄","HOUSE_NO":"１０號","E_COORD97":169118.14000000001,"N_COORD97":2540807.3999999999,"ADDRESS":"國民路１６５巷３６弄１０號","OBJECTID":171141},"geometry":{"x":169118.13999999966,"y":2540807.4000000004}},{"attributes":{"ID":171143,"DIS_CODE":0,"TOWNNAME":"安南區","LI":"新順里","LIN":"12鄰","STREET":"安生街","SECT":" ","MAREA":" ","LANE":" ","ALLEY":" ","HOUSE_NO":"２４號","E_COORD97":169692.26000000001,"N_COORD97":2549487.3199999998,"ADDRESS":"安生街２４號","OBJECTID":171142},"geometry":{"x":169692.25999999978,"y":2549487.3200000003}},{"attributes":{"ID":171144,"DIS_CODE":0,"TOWNNAME":"將軍區","LI":"鯤溟里","LIN":"13鄰","STREET":" ","SECT":" ","MAREA":"鯤溟","LANE":" ","ALLEY":" ","HOUSE_NO":"９４之１３號","E_COORD97":156486.20000000001,"N_COORD97":2565386.4300000002,"ADDRESS":"鯤溟９４之１３號","OBJECTID":171143},"geometry":{"x":156486.20000000019,"y":2565386.4299999997}},{"attributes":{"ID":171145,"DIS_CODE":0,"TOWNNAME":"將軍區","LI":"鯤溟里","LIN":"13鄰","STREET":" ","SECT":" ","MAREA":"鯤溟","LANE":" ","ALLEY":" ","HOUSE_NO":"９４之１４號","E_COORD97":156490.63,"N_COORD97":2565385.1299999999,"ADDRESS":"鯤溟９４之１４號","OBJECTID":171144},"geometry":{"x":156490.63000000082,"y":2565385.1300000027}},{"attributes":{"ID":171146,"DIS_CODE":0,"TOWNNAME":"將軍區","LI":"鯤溟里","LIN":"13鄰","STREET":" ","SECT":" ","MAREA":"鯤溟","LANE":" ","ALLEY":" ","HOUSE_NO":"９４之１５號","E_COORD97":156495.23000000001,"N_COORD97":2565383.73,"ADDRESS":"鯤溟９４之１５號","OBJECTID":171145},"geometry":{"x":156495.23000000138,"y":2565383.7300000023}},{"attributes":{"ID":171147,"DIS_CODE":0,"TOWNNAME":"將軍區","LI":"鯤溟里","LIN":"13鄰","STREET":" ","SECT":" ","MAREA":"鯤溟","LANE":" ","ALLEY":" ","HOUSE_NO":"９４之１號","E_COORD97":156472.95999999999,"N_COORD97":2565429.46,"ADDRESS":"鯤溟９４之１號","OBJECTID":171146},"geometry":{"x":156472.96000000089,"y":2565429.4600000028}},{"attributes":{"ID":171148,"DIS_CODE":0,"TOWNNAME":"南區","LI":"大恩里","LIN":"13鄰","STREET":"國民路","SECT":" ","MAREA":" ","LANE":"１６５巷","ALLEY":"３６弄","HOUSE_NO":"１１號","E_COORD97":169108.04999999999,"N_COORD97":2540790.7200000002,"ADDRESS":"國民路１６５巷３６弄１１號","OBJECTID":171147},"geometry":{"x":169108.05000000075,"y":2540790.7200000025}},{"attributes":{"ID":171149,"DIS_CODE":0,"TOWNNAME":"南區","LI":"大恩里","LIN":"13鄰","STREET":"國民路","SECT":" ","MAREA":" ","LANE":"１６５巷","ALLEY":"３６弄","HOUSE_NO":"１２號","E_COORD97":169113.09,"N_COORD97":2540808.6800000002,"ADDRESS":"國民路１６５巷３６弄１２號","OBJECTID":171148},"geometry":{"x":169113.09000000078,"y":2540808.6800000034}},{"attributes":{"ID":171150,"DIS_CODE":0,"TOWNNAME":"南區","LI":"大恩里","LIN":"13鄰","STREET":"國民路","SECT":" ","MAREA":" ","LANE":"１６５巷","ALLEY":"３６弄","HOUSE_NO":"１３號","E_COORD97":169103.10999999999,"N_COORD97":2540792.1200000001,"ADDRESS":"國民路１６５巷３６弄１３號","OBJECTID":171149},"geometry":{"x":169103.11000000127,"y":2540792.120000001}},{"attributes":{"ID":171151,"DIS_CODE":0,"TOWNNAME":"南區","LI":"大恩里","LIN":"13鄰","STREET":"國民路","SECT":" ","MAREA":" ","LANE":"１６５巷","ALLEY":"３６弄","HOUSE_NO":"１４號","E_COORD97":169108.26000000001,"N_COORD97":2540809.8599999999,"ADDRESS":"國民路１６５巷３６弄１４號","OBJECTID":171150},"geometry":{"x":169108.26000000071,"y":2540809.8599999994}},{"attributes":{"ID":171152,"DIS_CODE":0,"TOWNNAME":"南區","LI":"大恩里","LIN":"13鄰","STREET":"國民路","SECT":" ","MAREA":" ","LANE":"１６５巷","ALLEY":"３６弄","HOUSE_NO":"１５號","E_COORD97":169098.10000000001,"N_COORD97":2540793.8799999999,"ADDRESS":"國民路１６５巷３６弄１５號","OBJECTID":171151},"geometry":{"x":169098.09999999963,"y":2540793.8800000008}},{"attributes":{"ID":171153,"DIS_CODE":0,"TOWNNAME":"南區","LI":"大恩里","LIN":"13鄰","STREET":"國民路","SECT":" ","MAREA":" ","LANE":"１６５巷","ALLEY":"３６弄","HOUSE_NO":"１６號","E_COORD97":169102.79000000001,"N_COORD97":2540811.3700000001,"ADDRESS":"國民路１６５巷３６弄１６號","OBJECTID":171152},"geometry":{"x":169102.79000000004,"y":2540811.370000001}},{"attributes":{"ID":171154,"DIS_CODE":0,"TOWNNAME":"將軍區","LI":"鯤溟里","LIN":"13鄰","STREET":" ","SECT":" ","MAREA":"鯤溟","LANE":" ","ALLEY":" ","HOUSE_NO":"９４之２號","E_COORD97":156472.73000000001,"N_COORD97":2565433.8700000001,"ADDRESS":"鯤溟９４之２號","OBJECTID":171153},"geometry":{"x":156472.73000000045,"y":2565433.8700000029}},{"attributes":{"ID":171155,"DIS_CODE":0,"TOWNNAME":"將軍區","LI":"鯤溟里","LIN":"13鄰","STREET":" ","SECT":" ","MAREA":"鯤溟","LANE":" ","ALLEY":" ","HOUSE_NO":"９４之３號","E_COORD97":156472.76999999999,"N_COORD97":2565425.02,"ADDRESS":"鯤溟９４之３號","OBJECTID":171154},"geometry":{"x":156472.76999999955,"y":2565425.0200000014}},{"attributes":{"ID":171156,"DIS_CODE":0,"TOWNNAME":"將軍區","LI":"鯤溟里","LIN":"13鄰","STREET":" ","SECT":" ","MAREA":"鯤溟","LANE":" ","ALLEY":" ","HOUSE_NO":"９４之４號","E_COORD97":156478.38,"N_COORD97":2565416.1600000001,"ADDRESS":"鯤溟９４之４號","OBJECTID":171155},"geometry":{"x":156478.38000000082,"y":2565416.1600000001}},{"attributes":{"ID":171157,"DIS_CODE":0,"TOWNNAME":"將軍區","LI":"鯤溟里","LIN":"13鄰","STREET":" ","SECT":" ","MAREA":"鯤溟","LANE":" ","ALLEY":" ","HOUSE_NO":"９５之１號","E_COORD97":156497.60000000001,"N_COORD97":2565460.9199999999,"ADDRESS":"鯤溟９５之１號","OBJECTID":171156},"geometry":{"x":156497.60000000056,"y":2565460.9199999999}},{"attributes":{"ID":171158,"DIS_CODE":0,"TOWNNAME":"安南區","LI":"新順里","LIN":"12鄰","STREET":"安和路","SECT":"三段","MAREA":" ","LANE":"７３巷","ALLEY":" ","HOUSE_NO":"２６號","E_COORD97":169724.70999999999,"N_COORD97":2549536.5099999998,"ADDRESS":"安和路三段７３巷２６號","OBJECTID":171157},"geometry":{"x":169724.71000000089,"y":2549536.5099999979}},{"attributes":{"ID":171159,"DIS_CODE":0,"TOWNNAME":"安南區","LI":"新順里","LIN":"15鄰","STREET":"安豐三街","SECT":" ","MAREA":" ","LANE":" ","ALLEY":" ","HOUSE_NO":"４３號","E_COORD97":169429.95999999999,"N_COORD97":2549848.04,"ADDRESS":"安豐三街４３號","OBJECTID":171158},"geometry":{"x":169429.95999999996,"y":2549848.040000001}},{"attributes":{"ID":171160,"DIS_CODE":0,"TOWNNAME":"安南區","LI":"新順里","LIN":"15鄰","STREET":"安豐三街","SECT":" ","MAREA":" ","LANE":" ","ALLEY":" ","HOUSE_NO":"４５號","E_COORD97":169436.79999999999,"N_COORD97":2549854.0899999999,"ADDRESS":"安豐三街４５號","OBJECTID":171159},"geometry":{"x":169436.80000000168,"y":2549854.0899999999}},{"attributes":{"ID":171161,"DIS_CODE":0,"TOWNNAME":"將軍區","LI":"鯤溟里","LIN":"13鄰","STREET":" ","SECT":" ","MAREA":"鯤溟","LANE":" ","ALLEY":" ","HOUSE_NO":"９６之１號","E_COORD97":156488.12,"N_COORD97":2565465.48,"ADDRESS":"鯤溟９６之１號","OBJECTID":171160},"geometry":{"x":156488.12000000011,"y":2565465.4800000042}},{"attributes":{"ID":171162,"DIS_CODE":0,"TOWNNAME":"將軍區","LI":"鯤溟里","LIN":"13鄰","STREET":" ","SECT":" ","MAREA":"鯤溟","LANE":" ","ALLEY":" ","HOUSE_NO":"９６之２號","E_COORD97":156487.44,"N_COORD97":2565475.9100000001,"ADDRESS":"鯤溟９６之２號","OBJECTID":171161},"geometry":{"x":156487.44000000134,"y":2565475.9100000039}},{"attributes":{"ID":171163,"DIS_CODE":0,"TOWNNAME":"將軍區","LI":"鯤溟里","LIN":"13鄰","STREET":" ","SECT":" ","MAREA":"鯤溟","LANE":" ","ALLEY":" ","HOUSE_NO":"９６之３號","E_COORD97":156487.85999999999,"N_COORD97":2565470.77,"ADDRESS":"鯤溟９６之３號","OBJECTID":171162},"geometry":{"x":156487.86000000127,"y":2565470.7700000014}},{"attributes":{"ID":171164,"DIS_CODE":0,"TOWNNAME":"將軍區","LI":"鯤溟里","LIN":"13鄰","STREET":" ","SECT":" ","MAREA":"鯤溟","LANE":" ","ALLEY":" ","HOUSE_NO":"９６號","E_COORD97":156508.92000000001,"N_COORD97":2565474.54,"ADDRESS":"鯤溟９６號","OBJECTID":171163},"geometry":{"x":156508.92000000086,"y":2565474.540000001}},{"attributes":{"ID":171165,"DIS_CODE":0,"TOWNNAME":"將軍區","LI":"鯤溟里","LIN":"13鄰","STREET":" ","SECT":" ","MAREA":"鯤溟","LANE":" ","ALLEY":" ","HOUSE_NO":"９７之１號","E_COORD97":156504.63,"N_COORD97":2565485.8500000001,"ADDRESS":"鯤溟９７之１號","OBJECTID":171164},"geometry":{"x":156504.62999999989,"y":2565485.8500000034}},{"attributes":{"ID":171166,"DIS_CODE":0,"TOWNNAME":"將軍區","LI":"鯤溟里","LIN":"13鄰","STREET":" ","SECT":" ","MAREA":"鯤溟","LANE":" ","ALLEY":" ","HOUSE_NO":"９８之２號","E_COORD97":156481.54999999999,"N_COORD97":2565500.2400000002,"ADDRESS":"鯤溟９８之２號","OBJECTID":171165},"geometry":{"x":156481.54999999981,"y":2565500.2400000002}},{"attributes":{"ID":171167,"DIS_CODE":0,"TOWNNAME":"將軍區","LI":"鯤溟里","LIN":"13鄰","STREET":" ","SECT":" ","MAREA":"鯤溟","LANE":" ","ALLEY":" ","HOUSE_NO":"９８之３號","E_COORD97":156481.07999999999,"N_COORD97":2565504.2599999998,"ADDRESS":"鯤溟９８之３號","OBJECTID":171166},"geometry":{"x":156481.08000000101,"y":2565504.2600000016}},{"attributes":{"ID":171168,"DIS_CODE":0,"TOWNNAME":"將軍區","LI":"鯤溟里","LIN":"13鄰","STREET":" ","SECT":" ","MAREA":"鯤溟","LANE":" ","ALLEY":" ","HOUSE_NO":"９８之５號","E_COORD97":156498.60999999999,"N_COORD97":2565505.3599999999,"ADDRESS":"鯤溟９８之５號","OBJECTID":171167},"geometry":{"x":156498.61000000034,"y":2565505.3599999994}},{"attributes":{"ID":171169,"DIS_CODE":0,"TOWNNAME":"將軍區","LI":"鯤溟里","LIN":"13鄰","STREET":" ","SECT":" ","MAREA":"鯤溟","LANE":" ","ALLEY":" ","HOUSE_NO":"９８之６號","E_COORD97":156497.94,"N_COORD97":2565510.4399999999,"ADDRESS":"鯤溟９８之６號","OBJECTID":171168},"geometry":{"x":156497.94000000041,"y":2565510.4400000013}},{"attributes":{"ID":171170,"DIS_CODE":0,"TOWNNAME":"將軍區","LI":"鯤溟里","LIN":"13鄰","STREET":" ","SECT":" ","MAREA":"鯤溟","LANE":" ","ALLEY":" ","HOUSE_NO":"９８號","E_COORD97":156498.98999999999,"N_COORD97":2565499.73,"ADDRESS":"鯤溟９８號","OBJECTID":171169},"geometry":{"x":156498.99000000115,"y":2565499.7300000004}},{"attributes":{"ID":171171,"DIS_CODE":0,"TOWNNAME":"將軍區","LI":"鯤溟里","LIN":"13鄰","STREET":" ","SECT":" ","MAREA":"鯤溟","LANE":" ","ALLEY":" ","HOUSE_NO":"９９之１號","E_COORD97":156465.79999999999,"N_COORD97":2565494.6400000001,"ADDRESS":"鯤溟９９之１號","OBJECTID":171170},"geometry":{"x":156465.80000000075,"y":2565494.6400000006}},{"attributes":{"ID":171172,"DIS_CODE":0,"TOWNNAME":"將軍區","LI":"鯤溟里","LIN":"13鄰","STREET":" ","SECT":" ","MAREA":"鯤溟","LANE":" ","ALLEY":" ","HOUSE_NO":"９９之３號","E_COORD97":156467.56,"N_COORD97":2565474,"ADDRESS":"鯤溟９９之３號","OBJECTID":171171},"geometry":{"x":156467.55999999959,"y":2565474}},{"attributes":{"ID":171173,"DIS_CODE":0,"TOWNNAME":"將軍區","LI":"鯤溟里","LIN":"13鄰","STREET":" ","SECT":" ","MAREA":"鯤溟","LANE":" ","ALLEY":" ","HOUSE_NO":"９９之４號","E_COORD97":156468.42999999999,"N_COORD97":2565466.3599999999,"ADDRESS":"鯤溟９９之４號","OBJECTID":171172},"geometry":{"x":156468.4299999997,"y":2565466.3600000013}},{"attributes":{"ID":171174,"DIS_CODE":0,"TOWNNAME":"將軍區","LI":"鯤溟里","LIN":"13鄰","STREET":" ","SECT":" ","MAREA":"鯤溟","LANE":" ","ALLEY":" ","HOUSE_NO":"９９之５號","E_COORD97":156466.09,"N_COORD97":2565483.3999999999,"ADDRESS":"鯤溟９９之５號","OBJECTID":171173},"geometry":{"x":156466.08999999985,"y":2565483.4000000022}},{"attributes":{"ID":171175,"DIS_CODE":0,"TOWNNAME":"將軍區","LI":"鯤溟里","LIN":"13鄰","STREET":" ","SECT":" ","MAREA":"鯤溟","LANE":" ","ALLEY":" ","HOUSE_NO":"９９之６號","E_COORD97":156472.07000000001,"N_COORD97":2565451.3599999999,"ADDRESS":"鯤溟９９之６號","OBJECTID":171174},"geometry":{"x":156472.0700000003,"y":2565451.3599999994}},{"attributes":{"ID":171176,"DIS_CODE":0,"TOWNNAME":"將軍區","LI":"鯤溟里","LIN":"13鄰","STREET":" ","SECT":" ","MAREA":"鯤溟","LANE":" ","ALLEY":" ","HOUSE_NO":"９９之７號","E_COORD97":156466.01999999999,"N_COORD97":2565488.4399999999,"ADDRESS":"鯤溟９９之７號","OBJECTID":171175},"geometry":{"x":156466.01999999955,"y":2565488.4399999976}},{"attributes":{"ID":171177,"DIS_CODE":0,"TOWNNAME":"將軍區","LI":"鯤溟里","LIN":"13鄰","STREET":" ","SECT":" ","MAREA":"鯤溟","LANE":" ","ALLEY":" ","HOUSE_NO":"９９號","E_COORD97":156466.63,"N_COORD97":2565508.46,"ADDRESS":"鯤溟９９號","OBJECTID":171176},"geometry":{"x":156466.63000000082,"y":2565508.4600000028}},{"attributes":{"ID":171178,"DIS_CODE":0,"TOWNNAME":"將軍區","LI":"鯤鯓里","LIN":"13鄰","STREET":" ","SECT":" ","MAREA":"鯤鯓","LANE":" ","ALLEY":" ","HOUSE_NO":"１６３號","E_COORD97":156763.59,"N_COORD97":2565594.5299999998,"ADDRESS":"鯤鯓１６３號","OBJECTID":171177},"geometry":{"x":156763.59000000078,"y":2565594.5300000012}},{"attributes":{"ID":171179,"DIS_CODE":0,"TOWNNAME":"新營區","LI":"忠政里","LIN":"1鄰","STREET":"中正路","SECT":" ","MAREA":" ","LANE":" ","ALLEY":" ","HOUSE_NO":"２９號之１","E_COORD97":180081.79000000001,"N_COORD97":2578999.8599999999,"ADDRESS":"中正路２９號之１","OBJECTID":171178},"geometry":{"x":180081.79000000097,"y":2578999.8600000031}},{"attributes":{"ID":171180,"DIS_CODE":0,"TOWNNAME":"安南區","LI":"新順里","LIN":"15鄰","STREET":"培安二街","SECT":" ","MAREA":" ","LANE":" ","ALLEY":" ","HOUSE_NO":"５２號","E_COORD97":169400.17999999999,"N_COORD97":2549751.9500000002,"ADDRESS":"培安二街５２號","OBJECTID":171179},"geometry":{"x":169400.18000000156,"y":2549751.9499999993}},{"attributes":{"ID":171181,"DIS_CODE":0,"TOWNNAME":"安南區","LI":"新順里","LIN":"15鄰","STREET":"培安二街","SECT":" ","MAREA":" ","LANE":" ","ALLEY":" ","HOUSE_NO":"５６號","E_COORD97":169397.48000000001,"N_COORD97":2549755.6499999999,"ADDRESS":"培安二街５６號","OBJECTID":171180},"geometry":{"x":169397.48000000138,"y":2549755.6500000004}},{"attributes":{"ID":171182,"DIS_CODE":0,"TOWNNAME":"新化區","LI":"全興里","LIN":"12鄰","STREET":" ","SECT":" ","MAREA":"竹子\u25A0","LANE":" ","ALLEY":" ","HOUSE_NO":"２４７號之１４１","E_COORD97":178227.76000000001,"N_COORD97":2546792.2599999998,"ADDRESS":"竹子\u25A0２４７號之１４１","OBJECTID":171181},"geometry":{"x":178227.75999999978,"y":2546792.2600000035}},{"attributes":{"ID":171183,"DIS_CODE":0,"TOWNNAME":"安南區","LI":"新順里","LIN":"12鄰","STREET":"育安四街","SECT":" ","MAREA":" ","LANE":" ","ALLEY":" ","HOUSE_NO":"３２號","E_COORD97":169709.45999999999,"N_COORD97":2549578.79,"ADDRESS":"育安四街３２號","OBJECTID":171182},"geometry":{"x":169709.46000000089,"y":2549578.790000001}},{"attributes":{"ID":171184,"DIS_CODE":0,"TOWNNAME":"南區","LI":"大恩里","LIN":"13鄰","STREET":"國民路","SECT":" ","MAREA":" ","LANE":"１６５巷","ALLEY":"３６弄","HOUSE_NO":"１７號","E_COORD97":169093.48999999999,"N_COORD97":2540794.7400000002,"ADDRESS":"國民路１６５巷３６弄１７號","OBJECTID":171183},"geometry":{"x":169093.49000000209,"y":2540794.7400000002}},{"attributes":{"ID":171185,"DIS_CODE":0,"TOWNNAME":"南區","LI":"大恩里","LIN":"13鄰","STREET":"國民路","SECT":" ","MAREA":" ","LANE":"１６５巷","ALLEY":"３６弄","HOUSE_NO":"１８號","E_COORD97":169098.28,"N_COORD97":2540812.3300000001,"ADDRESS":"國民路１６５巷３６弄１８號","OBJECTID":171184},"geometry":{"x":169098.28000000212,"y":2540812.3300000019}},{"attributes":{"ID":171186,"DIS_CODE":0,"TOWNNAME":"南區","LI":"大恩里","LIN":"10鄰","STREET":"國民路","SECT":" ","MAREA":" ","LANE":"１６５巷","ALLEY":"３５弄","HOUSE_NO":"４６號","E_COORD97":169328.13,"N_COORD97":2540725.3399999999,"ADDRESS":"國民路１６５巷３５弄４６號","OBJECTID":171185},"geometry":{"x":169328.13000000082,"y":2540725.3399999999}},{"attributes":{"ID":171187,"DIS_CODE":0,"TOWNNAME":"南區","LI":"大恩里","LIN":"10鄰","STREET":"國民路","SECT":" ","MAREA":" ","LANE":"１６５巷","ALLEY":"３５弄","HOUSE_NO":"４７號","E_COORD97":169313.51999999999,"N_COORD97":2540750.77,"ADDRESS":"國民路１６５巷３５弄４７號","OBJECTID":171186},"geometry":{"x":169313.52000000048,"y":2540750.7700000014}},{"attributes":{"ID":171188,"DIS_CODE":0,"TOWNNAME":"南區","LI":"大恩里","LIN":"10鄰","STREET":"國民路","SECT":" ","MAREA":" ","LANE":"１６５巷","ALLEY":"３５弄","HOUSE_NO":"４８號","E_COORD97":169333.70999999999,"N_COORD97":2540722.8700000001,"ADDRESS":"國民路１６５巷３５弄４８號","OBJECTID":171187},"geometry":{"x":169333.70999999996,"y":2540722.870000001}},{"attributes":{"ID":171189,"DIS_CODE":0,"TOWNNAME":"南區","LI":"大恩里","LIN":"20鄰","STREET":"國民路","SECT":" ","MAREA":" ","LANE":"１６５巷","ALLEY":"３６弄","HOUSE_NO":"３３號","E_COORD97":169051.60999999999,"N_COORD97":2540808.25,"ADDRESS":"國民路１６５巷３６弄３３號","OBJECTID":171188},"geometry":{"x":169051.61000000034,"y":2540808.2499999981}},{"attributes":{"ID":171190,"DIS_CODE":0,"TOWNNAME":"南區","LI":"大恩里","LIN":"20鄰","STREET":"國民路","SECT":" ","MAREA":" ","LANE":"１６５巷","ALLEY":"３６弄","HOUSE_NO":"３４號","E_COORD97":169057.14999999999,"N_COORD97":2540826.3900000001,"ADDRESS":"國民路１６５巷３６弄３４號","OBJECTID":171189},"geometry":{"x":169057.1500000013,"y":2540826.3900000025}},{"attributes":{"ID":171191,"DIS_CODE":0,"TOWNNAME":"南區","LI":"大恩里","LIN":"20鄰","STREET":"國民路","SECT":" ","MAREA":" ","LANE":"１６５巷","ALLEY":"３６弄","HOUSE_NO":"３５號","E_COORD97":169045.70000000001,"N_COORD97":2540809.3300000001,"ADDRESS":"國民路１６５巷３６弄３５號","OBJECTID":171190},"geometry":{"x":169045.70000000019,"y":2540809.3300000019}},{"attributes":{"ID":171192,"DIS_CODE":0,"TOWNNAME":"南區","LI":"大恩里","LIN":"13鄰","STREET":"國民路","SECT":" ","MAREA":" ","LANE":"１６５巷","ALLEY":"３６弄","HOUSE_NO":"１９號","E_COORD97":169087.69,"N_COORD97":2540796.3500000001,"ADDRESS":"國民路１６５巷３６弄１９號","OBJECTID":171191},"geometry":{"x":169087.69000000134,"y":2540796.3499999996}},{"attributes":{"ID":171193,"DIS_CODE":0,"TOWNNAME":"新化區","LI":"全興里","LIN":"12鄰","STREET":" ","SECT":" ","MAREA":"竹子\u25A0","LANE":" ","ALLEY":" ","HOUSE_NO":"２４７號之１３９","E_COORD97":178232.17999999999,"N_COORD97":2546792.2599999998,"ADDRESS":"竹子\u25A0２４７號之１３９","OBJECTID":171192},"geometry":{"x":178232.18000000063,"y":2546792.2600000035}},{"attributes":{"ID":171194,"DIS_CODE":0,"TOWNNAME":"南區","LI":"大恩里","LIN":"13鄰","STREET":"國民路","SECT":" ","MAREA":" ","LANE":"１６５巷","ALLEY":"３６弄","HOUSE_NO":"１號","E_COORD97":169132.95999999999,"N_COORD97":2540783.6400000001,"ADDRESS":"國民路１６５巷３６弄１號","OBJECTID":171193},"geometry":{"x":169132.96000000089,"y":2540783.6400000025}},{"attributes":{"ID":171195,"DIS_CODE":0,"TOWNNAME":"南區","LI":"大恩里","LIN":"13鄰","STREET":"國民路","SECT":" ","MAREA":" ","LANE":"１６５巷","ALLEY":"３６弄","HOUSE_NO":"２０號","E_COORD97":169093.23000000001,"N_COORD97":2540814.7999999998,"ADDRESS":"國民路１６５巷３６弄２０號","OBJECTID":171194},"geometry":{"x":169093.23000000045,"y":2540814.8000000007}},{"attributes":{"ID":171196,"DIS_CODE":0,"TOWNNAME":"南區","LI":"大恩里","LIN":"13鄰","STREET":"國民路","SECT":" ","MAREA":" ","LANE":"１６５巷","ALLEY":"３６弄","HOUSE_NO":"２１號","E_COORD97":169083.17999999999,"N_COORD97":2540797.6299999999,"ADDRESS":"國民路１６５巷３６弄２１號","OBJECTID":171195},"geometry":{"x":169083.18000000156,"y":2540797.629999999}},{"attributes":{"ID":171197,"DIS_CODE":0,"TOWNNAME":"南區","LI":"大恩里","LIN":"13鄰","STREET":"國民路","SECT":" ","MAREA":" ","LANE":"１６５巷","ALLEY":"３６弄","HOUSE_NO":"２２號","E_COORD97":169088.5,"N_COORD97":2540815.7599999998,"ADDRESS":"國民路１６５巷３６弄２２號","OBJECTID":171196},"geometry":{"x":169088.50000000093,"y":2540815.7600000016}},{"attributes":{"ID":171198,"DIS_CODE":0,"TOWNNAME":"新化區","LI":"全興里","LIN":"12鄰","STREET":" ","SECT":" ","MAREA":"竹子\u25A0","LANE":" ","ALLEY":" ","HOUSE_NO":"２４７號之７１","E_COORD97":178291.60999999999,"N_COORD97":2546877.25,"ADDRESS":"竹子\u25A0２４７號之７１","OBJECTID":171197},"geometry":{"x":178291.61000000127,"y":2546877.2500000037}},{"attributes":{"ID":171199,"DIS_CODE":0,"TOWNNAME":"南區","LI":"大恩里","LIN":"13鄰","STREET":"國民路","SECT":" ","MAREA":" ","LANE":"１６５巷","ALLEY":"３６弄","HOUSE_NO":"２３號","E_COORD97":169078.67000000001,"N_COORD97":2540799.7799999998,"ADDRESS":"國民路１６５巷３６弄２３號","OBJECTID":171198},"geometry":{"x":169078.67000000086,"y":2540799.7799999993}},{"attributes":{"ID":171200,"DIS_CODE":0,"TOWNNAME":"南區","LI":"大恩里","LIN":"17鄰","STREET":"國民路","SECT":" ","MAREA":" ","LANE":"１６５巷","ALLEY":"７弄","HOUSE_NO":"１０號","E_COORD97":169236.25,"N_COORD97":2540821.71,"ADDRESS":"國民路１６５巷７弄１０號","OBJECTID":171199},"geometry":{"x":169236.25000000093,"y":2540821.7100000009}},{"attributes":{"ID":171201,"DIS_CODE":0,"TOWNNAME":"新化區","LI":"全興里","LIN":"12鄰","STREET":" ","SECT":" ","MAREA":"竹子\u25A0","LANE":" ","ALLEY":" ","HOUSE_NO":"２４７號之１３５","E_COORD97":178241.79000000001,"N_COORD97":2546792.2599999998,"ADDRESS":"竹子\u25A0２４７號之１３５","OBJECTID":171200},"geometry":{"x":178241.7900000019,"y":2546792.2600000035}}]}