{"displayFieldName":"TOWNNAME","fieldAliases":{"ID":"ID","DIS_CODE":"DIS_CODE","TOWNNAME":"TOWNNAME","LI":"LI","LIN":"LIN","STREET":"STREET","SECT":"SECT","MAREA":"MAREA","LANE":"LANE","ALLEY":"ALLEY","HOUSE_NO":"HOUSE_NO","E_COORD97":"E_COORD97","N_COORD97":"N_COORD97","ADDRESS":"ADDRESS","OBJECTID":"OBJECTID"},"geometryType":"esriGeometryPoint","spatialReference":{"wkid":102443,"latestWkid":3826},"fields":[{"name":"ID","type":"esriFieldTypeDouble","alias":"ID"},{"name":"DIS_CODE","type":"esriFieldTypeInteger","alias":"DIS_CODE"},{"name":"TOWNNAME","type":"esriFieldTypeString","alias":"TOWNNAME","length":8},{"name":"LI","type":"esriFieldTypeString","alias":"LI","length":8},{"name":"LIN","type":"esriFieldTypeString","alias":"LIN","length":12},{"name":"STREET","type":"esriFieldTypeString","alias":"STREET","length":20},{"name":"SECT","type":"esriFieldTypeString","alias":"SECT","length":8},{"name":"MAREA","type":"esriFieldTypeString","alias":"MAREA","length":12},{"name":"LANE","type":"esriFieldTypeString","alias":"LANE","length":10},{"name":"ALLEY","type":"esriFieldTypeString","alias":"ALLEY","length":10},{"name":"HOUSE_NO","type":"esriFieldTypeString","alias":"HOUSE_NO","length":20},{"name":"E_COORD97","type":"esriFieldTypeDouble","alias":"E_COORD97"},{"name":"N_COORD97","type":"esriFieldTypeDouble","alias":"N_COORD97"},{"name":"ADDRESS","type":"esriFieldTypeString","alias":"ADDRESS","length":50},{"name":"OBJECTID","type":"esriFieldTypeOID","alias":"OBJECTID"}],"features":[{"attributes":{"ID":151602,"DIS_CODE":0,"TOWNNAME":"後壁區","LI":"平安里","LIN":"5鄰","STREET":" ","SECT":" ","MAREA":"葯店口","LANE":" ","ALLEY":" ","HOUSE_NO":"５６號之２附９","E_COORD97":181848.17999999999,"N_COORD97":2584587.73,"ADDRESS":"葯店口５６號之２附９","OBJECTID":151601},"geometry":{"x":181848.18000000063,"y":2584587.7300000004}},{"attributes":{"ID":151603,"DIS_CODE":0,"TOWNNAME":"後壁區","LI":"平安里","LIN":"5鄰","STREET":" ","SECT":" ","MAREA":"葯店口","LANE":" ","ALLEY":" ","HOUSE_NO":"５６號之３","E_COORD97":181851.63,"N_COORD97":2584627.6200000001,"ADDRESS":"葯店口５６號之３","OBJECTID":151602},"geometry":{"x":181851.62999999989,"y":2584627.6200000048}},{"attributes":{"ID":151604,"DIS_CODE":0,"TOWNNAME":"後壁區","LI":"平安里","LIN":"5鄰","STREET":" ","SECT":" ","MAREA":"葯店口","LANE":" ","ALLEY":" ","HOUSE_NO":"５６號之５","E_COORD97":181744.53,"N_COORD97":2584548.4199999999,"ADDRESS":"葯店口５６號之５","OBJECTID":151603},"geometry":{"x":181744.53000000119,"y":2584548.4199999999}},{"attributes":{"ID":151605,"DIS_CODE":0,"TOWNNAME":"後壁區","LI":"平安里","LIN":"5鄰","STREET":" ","SECT":" ","MAREA":"葯店口","LANE":" ","ALLEY":" ","HOUSE_NO":"５６號之６","E_COORD97":181702.35999999999,"N_COORD97":2584489.27,"ADDRESS":"葯店口５６號之６","OBJECTID":151604},"geometry":{"x":181702.36000000127,"y":2584489.2699999977}},{"attributes":{"ID":151606,"DIS_CODE":0,"TOWNNAME":"永康區","LI":"正強里","LIN":"7鄰","STREET":"自強路","SECT":" ","MAREA":" ","LANE":"３３０巷","ALLEY":"２１弄","HOUSE_NO":"２２號","E_COORD97":173484.54999999999,"N_COORD97":2547629.2400000002,"ADDRESS":"自強路３３０巷２１弄２２號","OBJECTID":151605},"geometry":{"x":173484.54999999981,"y":2547629.2400000002}},{"attributes":{"ID":151607,"DIS_CODE":0,"TOWNNAME":"永康區","LI":"成功里","LIN":"41鄰","STREET":"中華路","SECT":" ","MAREA":" ","LANE":"１５４巷","ALLEY":"１弄","HOUSE_NO":"４號","E_COORD97":171666.17000000001,"N_COORD97":2544923.6200000001,"ADDRESS":"中華路１５４巷１弄４號","OBJECTID":151606},"geometry":{"x":171666.16999999993,"y":2544923.6200000029}},{"attributes":{"ID":151608,"DIS_CODE":0,"TOWNNAME":"永康區","LI":"東橋里","LIN":"13鄰","STREET":"中山南路","SECT":" ","MAREA":" ","LANE":"２３１巷","ALLEY":"２弄","HOUSE_NO":"４號","E_COORD97":171650.41,"N_COORD97":2546240,"ADDRESS":"中山南路２３１巷２弄４號","OBJECTID":151607},"geometry":{"x":171650.41000000108,"y":2546240}},{"attributes":{"ID":151609,"DIS_CODE":0,"TOWNNAME":"永康區","LI":"北灣里","LIN":"35鄰","STREET":"大灣路","SECT":" ","MAREA":" ","LANE":"４０巷","ALLEY":"５８弄","HOUSE_NO":"４１號之２","E_COORD97":175119.56,"N_COORD97":2546143.6200000001,"ADDRESS":"大灣路４０巷５８弄４１號之２","OBJECTID":151608},"geometry":{"x":175119.55999999959,"y":2546143.6200000048}},{"attributes":{"ID":151610,"DIS_CODE":0,"TOWNNAME":"永康區","LI":"正強里","LIN":"19鄰","STREET":"中山南路","SECT":" ","MAREA":" ","LANE":"４７１巷","ALLEY":"３９弄","HOUSE_NO":"６號","E_COORD97":173175.26999999999,"N_COORD97":2547199.2400000002,"ADDRESS":"中山南路４７１巷３９弄６號","OBJECTID":151609},"geometry":{"x":173175.27000000048,"y":2547199.2400000002}},{"attributes":{"ID":151611,"DIS_CODE":0,"TOWNNAME":"永康區","LI":"正強里","LIN":"14鄰","STREET":"正強街","SECT":" ","MAREA":" ","LANE":"１１１巷","ALLEY":"１５弄","HOUSE_NO":"１８號","E_COORD97":173248.03,"N_COORD97":2547369.8799999999,"ADDRESS":"正強街１１１巷１５弄１８號","OBJECTID":151610},"geometry":{"x":173248.03000000212,"y":2547369.879999999}},{"attributes":{"ID":151612,"DIS_CODE":0,"TOWNNAME":"安南區","LI":"布袋里","LIN":"3鄰","STREET":"長和路","SECT":"四段","MAREA":" ","LANE":"２３１巷","ALLEY":"６０弄","HOUSE_NO":"４１號","E_COORD97":168757.31,"N_COORD97":2551504.1499999999,"ADDRESS":"長和路四段２３１巷６０弄４１號","OBJECTID":151611},"geometry":{"x":168757.31000000052,"y":2551504.1500000022}},{"attributes":{"ID":151613,"DIS_CODE":0,"TOWNNAME":"後壁區","LI":"平安里","LIN":"5鄰","STREET":" ","SECT":" ","MAREA":"葯店口","LANE":" ","ALLEY":" ","HOUSE_NO":"５６號之７","E_COORD97":181772.56,"N_COORD97":2584568.6200000001,"ADDRESS":"葯店口５６號之７","OBJECTID":151612},"geometry":{"x":181772.56000000052,"y":2584568.620000001}},{"attributes":{"ID":151614,"DIS_CODE":0,"TOWNNAME":"安南區","LI":"鹿耳里","LIN":"3鄰","STREET":"北汕尾二路","SECT":" ","MAREA":" ","LANE":"６６１巷","ALLEY":"２３弄","HOUSE_NO":"４號","E_COORD97":160404.75,"N_COORD97":2548572.5800000001,"ADDRESS":"北汕尾二路６６１巷２３弄４號","OBJECTID":151613},"geometry":{"x":160404.75,"y":2548572.5800000001}},{"attributes":{"ID":151615,"DIS_CODE":0,"TOWNNAME":"安南區","LI":"鹿耳里","LIN":"3鄰","STREET":"北汕尾二路","SECT":" ","MAREA":" ","LANE":"６６１巷","ALLEY":"２３弄","HOUSE_NO":"６號","E_COORD97":160400.42999999999,"N_COORD97":2548572.4500000002,"ADDRESS":"北汕尾二路６６１巷２３弄６號","OBJECTID":151614},"geometry":{"x":160400.43000000156,"y":2548572.4499999993}},{"attributes":{"ID":151616,"DIS_CODE":0,"TOWNNAME":"永康區","LI":"尚頂里","LIN":"25鄰","STREET":"中正南路","SECT":" ","MAREA":" ","LANE":"２１０巷","ALLEY":"１２弄","HOUSE_NO":"２６號","E_COORD97":170201.54000000001,"N_COORD97":2547070,"ADDRESS":"中正南路２１０巷１２弄２６號","OBJECTID":151615},"geometry":{"x":170201.5400000019,"y":2547070.0000000019}},{"attributes":{"ID":151617,"DIS_CODE":0,"TOWNNAME":"永康區","LI":"西勢里","LIN":"31鄰","STREET":"富強路","SECT":"一段","MAREA":" ","LANE":"９３巷","ALLEY":"１０弄","HOUSE_NO":"１３號","E_COORD97":175440.66,"N_COORD97":2546272.6899999999,"ADDRESS":"富強路一段９３巷１０弄１３號","OBJECTID":151616},"geometry":{"x":175440.66000000201,"y":2546272.6899999995}},{"attributes":{"ID":151618,"DIS_CODE":0,"TOWNNAME":"永康區","LI":"西勢里","LIN":"22鄰","STREET":"富強路","SECT":"一段","MAREA":" ","LANE":"１９４巷","ALLEY":"５弄","HOUSE_NO":"３２號","E_COORD97":175696.04000000001,"N_COORD97":2546317.1299999999,"ADDRESS":"富強路一段１９４巷５弄３２號","OBJECTID":151617},"geometry":{"x":175696.04000000097,"y":2546317.129999999}},{"attributes":{"ID":151619,"DIS_CODE":0,"TOWNNAME":"安南區","LI":"溪心里","LIN":"3鄰","STREET":"安中路","SECT":"二段","MAREA":" ","LANE":"３３６巷","ALLEY":"３７弄","HOUSE_NO":"１號","E_COORD97":166453.72,"N_COORD97":2549839.6099999999,"ADDRESS":"安中路二段３３６巷３７弄１號","OBJECTID":151618},"geometry":{"x":166453.7200000016,"y":2549839.6099999994}},{"attributes":{"ID":151620,"DIS_CODE":0,"TOWNNAME":"安南區","LI":"溪心里","LIN":"3鄰","STREET":"安中路","SECT":"二段","MAREA":" ","LANE":"３３６巷","ALLEY":"３７弄","HOUSE_NO":"３號","E_COORD97":166449.91,"N_COORD97":2549840.8799999999,"ADDRESS":"安中路二段３３６巷３７弄３號","OBJECTID":151619},"geometry":{"x":166449.91000000108,"y":2549840.879999999}},{"attributes":{"ID":151621,"DIS_CODE":0,"TOWNNAME":"安南區","LI":"溪心里","LIN":"3鄰","STREET":"安中路","SECT":"二段","MAREA":" ","LANE":"３３６巷","ALLEY":"３７弄","HOUSE_NO":"５號","E_COORD97":166446.10000000001,"N_COORD97":2549841.9900000002,"ADDRESS":"安中路二段３３６巷３７弄５號","OBJECTID":151620},"geometry":{"x":166446.10000000056,"y":2549841.9900000002}},{"attributes":{"ID":151622,"DIS_CODE":0,"TOWNNAME":"安南區","LI":"溪心里","LIN":"3鄰","STREET":"安中路","SECT":"二段","MAREA":" ","LANE":"３３６巷","ALLEY":"３７弄","HOUSE_NO":"７號","E_COORD97":166441.81,"N_COORD97":2549842.9500000002,"ADDRESS":"安中路二段３３６巷３７弄７號","OBJECTID":151621},"geometry":{"x":166441.81000000052,"y":2549842.9500000011}},{"attributes":{"ID":151623,"DIS_CODE":0,"TOWNNAME":"永康區","LI":"永康里","LIN":"36鄰","STREET":"永平街","SECT":" ","MAREA":" ","LANE":"５６巷","ALLEY":"１弄","HOUSE_NO":"３號","E_COORD97":174377.47,"N_COORD97":2546837.1800000002,"ADDRESS":"永平街５６巷１弄３號","OBJECTID":151622},"geometry":{"x":174377.47000000067,"y":2546837.1800000016}},{"attributes":{"ID":151624,"DIS_CODE":0,"TOWNNAME":"後壁區","LI":"平安里","LIN":"5鄰","STREET":" ","SECT":" ","MAREA":"葯店口","LANE":" ","ALLEY":" ","HOUSE_NO":"５６號之８","E_COORD97":181704.39000000001,"N_COORD97":2584460.6000000001,"ADDRESS":"葯店口５６號之８","OBJECTID":151623},"geometry":{"x":181704.3900000006,"y":2584460.6000000015}},{"attributes":{"ID":151625,"DIS_CODE":0,"TOWNNAME":"後壁區","LI":"平安里","LIN":"5鄰","STREET":" ","SECT":" ","MAREA":"葯店口","LANE":" ","ALLEY":" ","HOUSE_NO":"５６號之９","E_COORD97":181696.10999999999,"N_COORD97":2584461.9300000002,"ADDRESS":"葯店口５６號之９","OBJECTID":151624},"geometry":{"x":181696.11000000034,"y":2584461.9300000016}},{"attributes":{"ID":151626,"DIS_CODE":0,"TOWNNAME":"後壁區","LI":"平安里","LIN":"5鄰","STREET":" ","SECT":" ","MAREA":"葯店口","LANE":" ","ALLEY":" ","HOUSE_NO":"５６號","E_COORD97":181930.48999999999,"N_COORD97":2584637.1200000001,"ADDRESS":"葯店口５６號","OBJECTID":151625},"geometry":{"x":181930.49000000022,"y":2584637.120000001}},{"attributes":{"ID":151627,"DIS_CODE":0,"TOWNNAME":"後壁區","LI":"平安里","LIN":"5鄰","STREET":" ","SECT":" ","MAREA":"葯店口","LANE":" ","ALLEY":" ","HOUSE_NO":"５７號之１０","E_COORD97":181907.42000000001,"N_COORD97":2584656.8599999999,"ADDRESS":"葯店口５７號之１０","OBJECTID":151626},"geometry":{"x":181907.41999999899,"y":2584656.8599999994}},{"attributes":{"ID":151628,"DIS_CODE":0,"TOWNNAME":"後壁區","LI":"平安里","LIN":"5鄰","STREET":" ","SECT":" ","MAREA":"葯店口","LANE":" ","ALLEY":" ","HOUSE_NO":"５７號之１１","E_COORD97":181908.60999999999,"N_COORD97":2584652.9700000002,"ADDRESS":"葯店口５７號之１１","OBJECTID":151627},"geometry":{"x":181908.61000000127,"y":2584652.9700000025}},{"attributes":{"ID":151629,"DIS_CODE":0,"TOWNNAME":"永康區","LI":"正強里","LIN":"18鄰","STREET":"自強路","SECT":" ","MAREA":" ","LANE":"１８８巷","ALLEY":"６２弄","HOUSE_NO":"２６號","E_COORD97":173135.39000000001,"N_COORD97":2547294.0699999998,"ADDRESS":"自強路１８８巷６２弄２６號","OBJECTID":151628},"geometry":{"x":173135.3900000006,"y":2547294.0700000022}},{"attributes":{"ID":151630,"DIS_CODE":0,"TOWNNAME":"永康區","LI":"西勢里","LIN":"7鄰","STREET":"富強路","SECT":"一段","MAREA":" ","LANE":"２７９巷","ALLEY":"１３弄","HOUSE_NO":"１３號","E_COORD97":175621.73999999999,"N_COORD97":2546577.6200000001,"ADDRESS":"富強路一段２７９巷１３弄１３號","OBJECTID":151629},"geometry":{"x":175621.74000000115,"y":2546577.6200000048}},{"attributes":{"ID":151631,"DIS_CODE":0,"TOWNNAME":"永康區","LI":"西橋里","LIN":"11鄰","STREET":"中華西街","SECT":" ","MAREA":" ","LANE":"１２７巷","ALLEY":"３０弄","HOUSE_NO":"１４號","E_COORD97":170525.91,"N_COORD97":2546165.1000000001,"ADDRESS":"中華西街１２７巷３０弄１４號","OBJECTID":151630},"geometry":{"x":170525.91000000015,"y":2546165.0999999996}},{"attributes":{"ID":151632,"DIS_CODE":0,"TOWNNAME":"安南區","LI":"溪心里","LIN":"3鄰","STREET":"安中路","SECT":"二段","MAREA":" ","LANE":"３３６巷","ALLEY":"３７弄","HOUSE_NO":"９號","E_COORD97":166437.53,"N_COORD97":2549844.2200000002,"ADDRESS":"安中路二段３３６巷３７弄９號","OBJECTID":151631},"geometry":{"x":166437.53000000119,"y":2549844.2200000007}},{"attributes":{"ID":151633,"DIS_CODE":0,"TOWNNAME":"安南區","LI":"溪心里","LIN":"3鄰","STREET":"安中路","SECT":"二段","MAREA":" ","LANE":"３３６巷","ALLEY":"３７弄","HOUSE_NO":"１１號","E_COORD97":166433.72,"N_COORD97":2549845.6400000001,"ADDRESS":"安中路二段３３６巷３７弄１１號","OBJECTID":151632},"geometry":{"x":166433.72000000067,"y":2549845.6400000025}},{"attributes":{"ID":151634,"DIS_CODE":0,"TOWNNAME":"安南區","LI":"溪心里","LIN":"3鄰","STREET":"安中路","SECT":"二段","MAREA":" ","LANE":"３３６巷","ALLEY":"３７弄","HOUSE_NO":"１３號","E_COORD97":166429.42999999999,"N_COORD97":2549846.7599999998,"ADDRESS":"安中路二段３３６巷３７弄１３號","OBJECTID":151633},"geometry":{"x":166429.4299999997,"y":2549846.7599999979}},{"attributes":{"ID":151635,"DIS_CODE":0,"TOWNNAME":"安南區","LI":"溪心里","LIN":"3鄰","STREET":"安中路","SECT":"二段","MAREA":" ","LANE":"３３６巷","ALLEY":"３７弄","HOUSE_NO":"１５號","E_COORD97":166425.94,"N_COORD97":2549848.3399999999,"ADDRESS":"安中路二段３３６巷３７弄１５號","OBJECTID":151634},"geometry":{"x":166425.94000000134,"y":2549848.3399999999}},{"attributes":{"ID":151636,"DIS_CODE":0,"TOWNNAME":"安南區","LI":"溪心里","LIN":"3鄰","STREET":"安中路","SECT":"二段","MAREA":" ","LANE":"３３６巷","ALLEY":"３７弄","HOUSE_NO":"１７號","E_COORD97":166421.64999999999,"N_COORD97":2549849.9300000002,"ADDRESS":"安中路二段３３６巷３７弄１７號","OBJECTID":151635},"geometry":{"x":166421.6500000013,"y":2549849.9300000016}},{"attributes":{"ID":151637,"DIS_CODE":0,"TOWNNAME":"安南區","LI":"溪心里","LIN":"3鄰","STREET":"安中路","SECT":"二段","MAREA":" ","LANE":"３３６巷","ALLEY":"３７弄","HOUSE_NO":"１９號","E_COORD97":166417.37,"N_COORD97":2549850.5699999998,"ADDRESS":"安中路二段３３６巷３７弄１９號","OBJECTID":151636},"geometry":{"x":166417.37000000197,"y":2549850.5700000003}},{"attributes":{"ID":151638,"DIS_CODE":0,"TOWNNAME":"安南區","LI":"溪心里","LIN":"3鄰","STREET":"安中路","SECT":"二段","MAREA":" ","LANE":"３３６巷","ALLEY":"３７弄","HOUSE_NO":"２１號","E_COORD97":166411.17999999999,"N_COORD97":2549853.2599999998,"ADDRESS":"安中路二段３３６巷３７弄２１號","OBJECTID":151637},"geometry":{"x":166411.1799999997,"y":2549853.2599999998}},{"attributes":{"ID":151639,"DIS_CODE":0,"TOWNNAME":"安南區","LI":"溪心里","LIN":"3鄰","STREET":"安中路","SECT":"二段","MAREA":" ","LANE":"３３６巷","ALLEY":"３７弄","HOUSE_NO":"２號","E_COORD97":166457.69,"N_COORD97":2549850.0899999999,"ADDRESS":"安中路二段３３６巷３７弄２號","OBJECTID":151638},"geometry":{"x":166457.69000000041,"y":2549850.0899999999}},{"attributes":{"ID":151640,"DIS_CODE":0,"TOWNNAME":"安南區","LI":"溪心里","LIN":"3鄰","STREET":"安中路","SECT":"二段","MAREA":" ","LANE":"３３６巷","ALLEY":"３７弄","HOUSE_NO":"６號","E_COORD97":166453.39999999999,"N_COORD97":2549851.2000000002,"ADDRESS":"安中路二段３３６巷３７弄６號","OBJECTID":151639},"geometry":{"x":166453.4000000013,"y":2549851.2000000011}},{"attributes":{"ID":151641,"DIS_CODE":0,"TOWNNAME":"後壁區","LI":"平安里","LIN":"5鄰","STREET":" ","SECT":" ","MAREA":"葯店口","LANE":" ","ALLEY":" ","HOUSE_NO":"５７號之１２","E_COORD97":181910.13,"N_COORD97":2584649.0899999999,"ADDRESS":"葯店口５７號之１２","OBJECTID":151640},"geometry":{"x":181910.13000000082,"y":2584649.0899999999}},{"attributes":{"ID":151642,"DIS_CODE":0,"TOWNNAME":"後壁區","LI":"平安里","LIN":"5鄰","STREET":" ","SECT":" ","MAREA":"葯店口","LANE":" ","ALLEY":" ","HOUSE_NO":"５７號之１","E_COORD97":181886.69,"N_COORD97":2584677.4700000002,"ADDRESS":"葯店口５７號之１","OBJECTID":151641},"geometry":{"x":181886.69000000134,"y":2584677.4700000025}},{"attributes":{"ID":151643,"DIS_CODE":0,"TOWNNAME":"後壁區","LI":"平安里","LIN":"5鄰","STREET":" ","SECT":" ","MAREA":"葯店口","LANE":" ","ALLEY":" ","HOUSE_NO":"５７號之２","E_COORD97":181880.34,"N_COORD97":2584655,"ADDRESS":"葯店口５７號之２","OBJECTID":151642},"geometry":{"x":181880.33999999985,"y":2584655.0000000019}},{"attributes":{"ID":151644,"DIS_CODE":0,"TOWNNAME":"後壁區","LI":"平安里","LIN":"5鄰","STREET":" ","SECT":" ","MAREA":"葯店口","LANE":" ","ALLEY":" ","HOUSE_NO":"５７號之４","E_COORD97":181883.19,"N_COORD97":2584647.7799999998,"ADDRESS":"葯店口５７號之４","OBJECTID":151643},"geometry":{"x":181883.19000000134,"y":2584647.7799999993}},{"attributes":{"ID":151645,"DIS_CODE":0,"TOWNNAME":"後壁區","LI":"平安里","LIN":"5鄰","STREET":" ","SECT":" ","MAREA":"葯店口","LANE":" ","ALLEY":" ","HOUSE_NO":"５７號之５","E_COORD97":181884.60999999999,"N_COORD97":2584643.7599999998,"ADDRESS":"葯店口５７號之５","OBJECTID":151644},"geometry":{"x":181884.6100000022,"y":2584643.7600000016}},{"attributes":{"ID":151646,"DIS_CODE":0,"TOWNNAME":"後壁區","LI":"新東里","LIN":"5鄰","STREET":" ","SECT":" ","MAREA":"新港東","LANE":" ","ALLEY":" ","HOUSE_NO":"４７號","E_COORD97":181464.85999999999,"N_COORD97":2581850.8500000001,"ADDRESS":"新港東４７號","OBJECTID":151645},"geometry":{"x":181464.86000000127,"y":2581850.8499999996}},{"attributes":{"ID":151647,"DIS_CODE":0,"TOWNNAME":"後壁區","LI":"新東里","LIN":"5鄰","STREET":" ","SECT":" ","MAREA":"新港東","LANE":" ","ALLEY":" ","HOUSE_NO":"５７號","E_COORD97":181494.47,"N_COORD97":2581861.8300000001,"ADDRESS":"新港東５７號","OBJECTID":151646},"geometry":{"x":181494.46999999974,"y":2581861.8300000001}},{"attributes":{"ID":151648,"DIS_CODE":0,"TOWNNAME":"後壁區","LI":"新東里","LIN":"5鄰","STREET":" ","SECT":" ","MAREA":"新港東","LANE":" ","ALLEY":" ","HOUSE_NO":"４６號之２","E_COORD97":181450.79000000001,"N_COORD97":2581838.9700000002,"ADDRESS":"新港東４６號之２","OBJECTID":151647},"geometry":{"x":181450.7900000019,"y":2581838.9700000025}},{"attributes":{"ID":151649,"DIS_CODE":0,"TOWNNAME":"後壁區","LI":"新東里","LIN":"5鄰","STREET":" ","SECT":" ","MAREA":"新港東","LANE":" ","ALLEY":" ","HOUSE_NO":"４６號","E_COORD97":181450.91,"N_COORD97":2581851.6400000001,"ADDRESS":"新港東４６號","OBJECTID":151648},"geometry":{"x":181450.91000000108,"y":2581851.6400000025}},{"attributes":{"ID":151650,"DIS_CODE":0,"TOWNNAME":"後壁區","LI":"新東里","LIN":"5鄰","STREET":" ","SECT":" ","MAREA":"新港東","LANE":" ","ALLEY":" ","HOUSE_NO":"４７號之１","E_COORD97":181466.57999999999,"N_COORD97":2581835.6899999999,"ADDRESS":"新港東４７號之１","OBJECTID":151649},"geometry":{"x":181466.58000000101,"y":2581835.6900000013}},{"attributes":{"ID":151651,"DIS_CODE":0,"TOWNNAME":"後壁區","LI":"新東里","LIN":"5鄰","STREET":" ","SECT":" ","MAREA":"新港東","LANE":" ","ALLEY":" ","HOUSE_NO":"４９號之１","E_COORD97":181489.42999999999,"N_COORD97":2581904.2200000002,"ADDRESS":"新港東４９號之１","OBJECTID":151650},"geometry":{"x":181489.4299999997,"y":2581904.2200000044}},{"attributes":{"ID":151652,"DIS_CODE":0,"TOWNNAME":"後壁區","LI":"新東里","LIN":"5鄰","STREET":" ","SECT":" ","MAREA":"新港東","LANE":" ","ALLEY":" ","HOUSE_NO":"４９號","E_COORD97":181482.5,"N_COORD97":2581891.0600000001,"ADDRESS":"新港東４９號","OBJECTID":151651},"geometry":{"x":181482.5,"y":2581891.0600000005}},{"attributes":{"ID":151653,"DIS_CODE":0,"TOWNNAME":"後壁區","LI":"新東里","LIN":"5鄰","STREET":" ","SECT":" ","MAREA":"新港東","LANE":" ","ALLEY":" ","HOUSE_NO":"５０號","E_COORD97":181499.45000000001,"N_COORD97":2581920.7599999998,"ADDRESS":"新港東５０號","OBJECTID":151652},"geometry":{"x":181499.45000000112,"y":2581920.7600000016}},{"attributes":{"ID":151654,"DIS_CODE":0,"TOWNNAME":"後壁區","LI":"新東里","LIN":"5鄰","STREET":" ","SECT":" ","MAREA":"新港東","LANE":" ","ALLEY":" ","HOUSE_NO":"５３號","E_COORD97":181509.89999999999,"N_COORD97":2581937.9199999999,"ADDRESS":"新港東５３號","OBJECTID":151653},"geometry":{"x":181509.9000000013,"y":2581937.9199999999}},{"attributes":{"ID":151655,"DIS_CODE":0,"TOWNNAME":"後壁區","LI":"新東里","LIN":"5鄰","STREET":" ","SECT":" ","MAREA":"新港東","LANE":" ","ALLEY":" ","HOUSE_NO":"５４號","E_COORD97":181513.39999999999,"N_COORD97":2581923.2000000002,"ADDRESS":"新港東５４號","OBJECTID":151654},"geometry":{"x":181513.4000000013,"y":2581923.200000003}},{"attributes":{"ID":151656,"DIS_CODE":0,"TOWNNAME":"後壁區","LI":"新東里","LIN":"5鄰","STREET":" ","SECT":" ","MAREA":"新港東","LANE":" ","ALLEY":" ","HOUSE_NO":"５５號","E_COORD97":181512.70000000001,"N_COORD97":2581898.7000000002,"ADDRESS":"新港東５５號","OBJECTID":151655},"geometry":{"x":181512.70000000205,"y":2581898.6999999993}},{"attributes":{"ID":151657,"DIS_CODE":0,"TOWNNAME":"後壁區","LI":"新東里","LIN":"5鄰","STREET":" ","SECT":" ","MAREA":"新港東","LANE":" ","ALLEY":" ","HOUSE_NO":"５８號之１","E_COORD97":181495.16,"N_COORD97":2581844.8700000001,"ADDRESS":"新港東５８號之１","OBJECTID":151656},"geometry":{"x":181495.16000000015,"y":2581844.870000001}},{"attributes":{"ID":151658,"DIS_CODE":0,"TOWNNAME":"後壁區","LI":"新東里","LIN":"5鄰","STREET":" ","SECT":" ","MAREA":"新港東","LANE":" ","ALLEY":" ","HOUSE_NO":"５８號","E_COORD97":181477.12,"N_COORD97":2581844.7999999998,"ADDRESS":"新港東５８號","OBJECTID":151657},"geometry":{"x":181477.12000000011,"y":2581844.8000000007}},{"attributes":{"ID":151659,"DIS_CODE":0,"TOWNNAME":"後壁區","LI":"新東里","LIN":"5鄰","STREET":" ","SECT":" ","MAREA":"新港東","LANE":" ","ALLEY":" ","HOUSE_NO":"５９號","E_COORD97":181478.92000000001,"N_COORD97":2581831.73,"ADDRESS":"新港東５９號","OBJECTID":151658},"geometry":{"x":181478.92000000086,"y":2581831.7300000004}},{"attributes":{"ID":151660,"DIS_CODE":0,"TOWNNAME":"後壁區","LI":"平安里","LIN":"5鄰","STREET":" ","SECT":" ","MAREA":"葯店口","LANE":" ","ALLEY":" ","HOUSE_NO":"５３號之１４","E_COORD97":181921.14000000001,"N_COORD97":2584558.54,"ADDRESS":"葯店口５３號之１４","OBJECTID":151659},"geometry":{"x":181921.1400000006,"y":2584558.5400000028}},{"attributes":{"ID":151661,"DIS_CODE":0,"TOWNNAME":"後壁區","LI":"平安里","LIN":"5鄰","STREET":" ","SECT":" ","MAREA":"葯店口","LANE":" ","ALLEY":" ","HOUSE_NO":"５３號之１５","E_COORD97":181924.29999999999,"N_COORD97":2584555.3900000001,"ADDRESS":"葯店口５３號之１５","OBJECTID":151660},"geometry":{"x":181924.30000000075,"y":2584555.3900000025}},{"attributes":{"ID":151662,"DIS_CODE":0,"TOWNNAME":"後壁區","LI":"平安里","LIN":"5鄰","STREET":" ","SECT":" ","MAREA":"葯店口","LANE":" ","ALLEY":" ","HOUSE_NO":"５３號之１６","E_COORD97":181927.07000000001,"N_COORD97":2584552.5299999998,"ADDRESS":"葯店口５３號之１６","OBJECTID":151661},"geometry":{"x":181927.0700000003,"y":2584552.5300000012}},{"attributes":{"ID":151663,"DIS_CODE":0,"TOWNNAME":"後壁區","LI":"平安里","LIN":"5鄰","STREET":" ","SECT":" ","MAREA":"葯店口","LANE":" ","ALLEY":" ","HOUSE_NO":"５３號之１７","E_COORD97":181929.88,"N_COORD97":2584549.2799999998,"ADDRESS":"葯店口５３號之１７","OBJECTID":151662},"geometry":{"x":181929.88000000175,"y":2584549.2799999993}},{"attributes":{"ID":151664,"DIS_CODE":0,"TOWNNAME":"後壁區","LI":"平安里","LIN":"5鄰","STREET":" ","SECT":" ","MAREA":"葯店口","LANE":" ","ALLEY":" ","HOUSE_NO":"５３號之１８","E_COORD97":181932.34,"N_COORD97":2584544.8599999999,"ADDRESS":"葯店口５３號之１８","OBJECTID":151663},"geometry":{"x":181932.34000000078,"y":2584544.8599999994}},{"attributes":{"ID":151665,"DIS_CODE":0,"TOWNNAME":"後壁區","LI":"平安里","LIN":"5鄰","STREET":" ","SECT":" ","MAREA":"葯店口","LANE":" ","ALLEY":" ","HOUSE_NO":"５３號之１","E_COORD97":181966.39999999999,"N_COORD97":2584599.73,"ADDRESS":"葯店口５３號之１","OBJECTID":151664},"geometry":{"x":181966.4000000013,"y":2584599.7300000023}},{"attributes":{"ID":151666,"DIS_CODE":0,"TOWNNAME":"後壁區","LI":"平安里","LIN":"5鄰","STREET":" ","SECT":" ","MAREA":"葯店口","LANE":" ","ALLEY":" ","HOUSE_NO":"５３號之２","E_COORD97":181944.32999999999,"N_COORD97":2584591.1400000001,"ADDRESS":"葯店口５３號之２","OBJECTID":151665},"geometry":{"x":181944.33000000101,"y":2584591.1400000025}},{"attributes":{"ID":151667,"DIS_CODE":0,"TOWNNAME":"後壁區","LI":"平安里","LIN":"5鄰","STREET":" ","SECT":" ","MAREA":"葯店口","LANE":" ","ALLEY":" ","HOUSE_NO":"５３號之３","E_COORD97":181915.57000000001,"N_COORD97":2584602.4700000002,"ADDRESS":"葯店口５３號之３","OBJECTID":151666},"geometry":{"x":181915.57000000123,"y":2584602.4700000025}},{"attributes":{"ID":151668,"DIS_CODE":0,"TOWNNAME":"後壁區","LI":"平安里","LIN":"5鄰","STREET":" ","SECT":" ","MAREA":"葯店口","LANE":" ","ALLEY":" ","HOUSE_NO":"５３號之５","E_COORD97":181987.76999999999,"N_COORD97":2584549.3599999999,"ADDRESS":"葯店口５３號之５","OBJECTID":151667},"geometry":{"x":181987.77000000142,"y":2584549.3599999994}},{"attributes":{"ID":151669,"DIS_CODE":0,"TOWNNAME":"後壁區","LI":"平安里","LIN":"5鄰","STREET":" ","SECT":" ","MAREA":"葯店口","LANE":" ","ALLEY":" ","HOUSE_NO":"５７號之７","E_COORD97":181903.01000000001,"N_COORD97":2584668.4500000002,"ADDRESS":"葯店口５７號之７","OBJECTID":151668},"geometry":{"x":181903.00999999978,"y":2584668.4500000011}},{"attributes":{"ID":151670,"DIS_CODE":0,"TOWNNAME":"後壁區","LI":"平安里","LIN":"5鄰","STREET":" ","SECT":" ","MAREA":"葯店口","LANE":" ","ALLEY":" ","HOUSE_NO":"５７號之８","E_COORD97":181904.5,"N_COORD97":2584664.6099999999,"ADDRESS":"葯店口５７號之８","OBJECTID":151669},"geometry":{"x":181904.5,"y":2584664.6100000013}},{"attributes":{"ID":151671,"DIS_CODE":0,"TOWNNAME":"後壁區","LI":"平安里","LIN":"5鄰","STREET":" ","SECT":" ","MAREA":"葯店口","LANE":" ","ALLEY":" ","HOUSE_NO":"５７號之９","E_COORD97":181905.85000000001,"N_COORD97":2584660.8599999999,"ADDRESS":"葯店口５７號之９","OBJECTID":151670},"geometry":{"x":181905.8499999987,"y":2584660.8599999994}},{"attributes":{"ID":151672,"DIS_CODE":0,"TOWNNAME":"後壁區","LI":"平安里","LIN":"5鄰","STREET":" ","SECT":" ","MAREA":"葯店口","LANE":" ","ALLEY":" ","HOUSE_NO":"５７號","E_COORD97":181879.17999999999,"N_COORD97":2584658.75,"ADDRESS":"葯店口５７號","OBJECTID":151671},"geometry":{"x":181879.18000000063,"y":2584658.75}},{"attributes":{"ID":151673,"DIS_CODE":0,"TOWNNAME":"後壁區","LI":"平安里","LIN":"5鄰","STREET":" ","SECT":" ","MAREA":"葯店口","LANE":" ","ALLEY":" ","HOUSE_NO":"５８號之１","E_COORD97":181863.92000000001,"N_COORD97":2584710.0699999998,"ADDRESS":"葯店口５８號之１","OBJECTID":151672},"geometry":{"x":181863.92000000086,"y":2584710.0700000022}},{"attributes":{"ID":151674,"DIS_CODE":0,"TOWNNAME":"後壁區","LI":"平安里","LIN":"5鄰","STREET":" ","SECT":" ","MAREA":"葯店口","LANE":" ","ALLEY":" ","HOUSE_NO":"５８號之２","E_COORD97":181870.17999999999,"N_COORD97":2584736.5600000001,"ADDRESS":"葯店口５８號之２","OBJECTID":151673},"geometry":{"x":181870.18000000063,"y":2584736.5600000024}},{"attributes":{"ID":151675,"DIS_CODE":0,"TOWNNAME":"後壁區","LI":"平安里","LIN":"5鄰","STREET":" ","SECT":" ","MAREA":"葯店口","LANE":" ","ALLEY":" ","HOUSE_NO":"５８號","E_COORD97":181871.06,"N_COORD97":2584725.9500000002,"ADDRESS":"葯店口５８號","OBJECTID":151674},"geometry":{"x":181871.06000000052,"y":2584725.9500000011}},{"attributes":{"ID":151676,"DIS_CODE":0,"TOWNNAME":"後壁區","LI":"平安里","LIN":"5鄰","STREET":" ","SECT":" ","MAREA":"葯店口","LANE":" ","ALLEY":" ","HOUSE_NO":"５９號之１","E_COORD97":181829.31,"N_COORD97":2584733.77,"ADDRESS":"葯店口５９號之１","OBJECTID":151675},"geometry":{"x":181829.30999999959,"y":2584733.7700000033}},{"attributes":{"ID":151677,"DIS_CODE":0,"TOWNNAME":"後壁區","LI":"平安里","LIN":"5鄰","STREET":" ","SECT":" ","MAREA":"葯店口","LANE":" ","ALLEY":" ","HOUSE_NO":"５９號之２","E_COORD97":181832.88,"N_COORD97":2584722.3500000001,"ADDRESS":"葯店口５９號之２","OBJECTID":151676},"geometry":{"x":181832.87999999989,"y":2584722.3499999996}},{"attributes":{"ID":151678,"DIS_CODE":0,"TOWNNAME":"後壁區","LI":"平安里","LIN":"5鄰","STREET":" ","SECT":" ","MAREA":"葯店口","LANE":" ","ALLEY":" ","HOUSE_NO":"５９號之３","E_COORD97":181832.29999999999,"N_COORD97":2584718.5899999999,"ADDRESS":"葯店口５９號之３","OBJECTID":151677},"geometry":{"x":181832.30000000075,"y":2584718.5900000017}},{"attributes":{"ID":151679,"DIS_CODE":0,"TOWNNAME":"後壁區","LI":"平安里","LIN":"5鄰","STREET":" ","SECT":" ","MAREA":"葯店口","LANE":" ","ALLEY":" ","HOUSE_NO":"５９號","E_COORD97":181850.48000000001,"N_COORD97":2584730.1800000002,"ADDRESS":"葯店口５９號","OBJECTID":151678},"geometry":{"x":181850.48000000138,"y":2584730.1799999997}},{"attributes":{"ID":151680,"DIS_CODE":0,"TOWNNAME":"後壁區","LI":"平安里","LIN":"5鄰","STREET":" ","SECT":" ","MAREA":"葯店口","LANE":" ","ALLEY":" ","HOUSE_NO":"６０號之１５","E_COORD97":181869.85999999999,"N_COORD97":2584806.5499999998,"ADDRESS":"葯店口６０號之１５","OBJECTID":151679},"geometry":{"x":181869.86000000127,"y":2584806.5500000007}},{"attributes":{"ID":151681,"DIS_CODE":0,"TOWNNAME":"後壁區","LI":"平安里","LIN":"5鄰","STREET":" ","SECT":" ","MAREA":"葯店口","LANE":" ","ALLEY":" ","HOUSE_NO":"６０號之１","E_COORD97":181846.59,"N_COORD97":2584757.3199999998,"ADDRESS":"葯店口６０號之１","OBJECTID":151680},"geometry":{"x":181846.58999999985,"y":2584757.3200000003}},{"attributes":{"ID":151682,"DIS_CODE":0,"TOWNNAME":"後壁區","LI":"平安里","LIN":"5鄰","STREET":" ","SECT":" ","MAREA":"葯店口","LANE":" ","ALLEY":" ","HOUSE_NO":"６０號之２","E_COORD97":181851.98000000001,"N_COORD97":2584773.3100000001,"ADDRESS":"葯店口６０號之２","OBJECTID":151681},"geometry":{"x":181851.98000000138,"y":2584773.3100000024}},{"attributes":{"ID":151683,"DIS_CODE":0,"TOWNNAME":"後壁區","LI":"平安里","LIN":"5鄰","STREET":" ","SECT":" ","MAREA":"葯店口","LANE":" ","ALLEY":" ","HOUSE_NO":"６０號之３","E_COORD97":181878.84,"N_COORD97":2584778.0699999998,"ADDRESS":"葯店口６０號之３","OBJECTID":151682},"geometry":{"x":181878.83999999985,"y":2584778.0700000022}},{"attributes":{"ID":151684,"DIS_CODE":0,"TOWNNAME":"後壁區","LI":"平安里","LIN":"5鄰","STREET":" ","SECT":" ","MAREA":"葯店口","LANE":" ","ALLEY":" ","HOUSE_NO":"６０號之４","E_COORD97":181885.07999999999,"N_COORD97":2584786.9500000002,"ADDRESS":"葯店口６０號之４","OBJECTID":151683},"geometry":{"x":181885.08000000101,"y":2584786.9500000011}},{"attributes":{"ID":151685,"DIS_CODE":0,"TOWNNAME":"後壁區","LI":"平安里","LIN":"5鄰","STREET":" ","SECT":" ","MAREA":"葯店口","LANE":" ","ALLEY":" ","HOUSE_NO":"６０號之５","E_COORD97":181857.82999999999,"N_COORD97":2584787.2200000002,"ADDRESS":"葯店口６０號之５","OBJECTID":151684},"geometry":{"x":181857.83000000101,"y":2584787.2200000025}},{"attributes":{"ID":151686,"DIS_CODE":0,"TOWNNAME":"後壁區","LI":"平安里","LIN":"5鄰","STREET":" ","SECT":" ","MAREA":"葯店口","LANE":" ","ALLEY":" ","HOUSE_NO":"６０號","E_COORD97":181863.54999999999,"N_COORD97":2584761.04,"ADDRESS":"葯店口６０號","OBJECTID":151685},"geometry":{"x":181863.54999999981,"y":2584761.0399999991}},{"attributes":{"ID":151687,"DIS_CODE":0,"TOWNNAME":"後壁區","LI":"平安里","LIN":"5鄰","STREET":" ","SECT":" ","MAREA":"葯店口","LANE":" ","ALLEY":" ","HOUSE_NO":"６１號","E_COORD97":181861.85999999999,"N_COORD97":2584792.0499999998,"ADDRESS":"葯店口６１號","OBJECTID":151686},"geometry":{"x":181861.86000000034,"y":2584792.0500000026}},{"attributes":{"ID":151688,"DIS_CODE":0,"TOWNNAME":"後壁區","LI":"平安里","LIN":"5鄰","STREET":" ","SECT":" ","MAREA":"葯店口","LANE":" ","ALLEY":" ","HOUSE_NO":"６２號之１","E_COORD97":181890.69,"N_COORD97":2584793.1200000001,"ADDRESS":"葯店口６２號之１","OBJECTID":151687},"geometry":{"x":181890.69000000041,"y":2584793.120000001}},{"attributes":{"ID":151689,"DIS_CODE":0,"TOWNNAME":"後壁區","LI":"平安里","LIN":"5鄰","STREET":" ","SECT":" ","MAREA":"葯店口","LANE":" ","ALLEY":" ","HOUSE_NO":"６３號之２","E_COORD97":181882.48000000001,"N_COORD97":2584821.98,"ADDRESS":"葯店口６３號之２","OBJECTID":151688},"geometry":{"x":181882.48000000138,"y":2584821.9800000023}},{"attributes":{"ID":151690,"DIS_CODE":0,"TOWNNAME":"後壁區","LI":"平安里","LIN":"5鄰","STREET":" ","SECT":" ","MAREA":"葯店口","LANE":" ","ALLEY":" ","HOUSE_NO":"６３號之３","E_COORD97":181879.76999999999,"N_COORD97":2584817.96,"ADDRESS":"葯店口６３號之３","OBJECTID":151689},"geometry":{"x":181879.77000000048,"y":2584817.9600000009}},{"attributes":{"ID":151691,"DIS_CODE":0,"TOWNNAME":"後壁區","LI":"平安里","LIN":"5鄰","STREET":" ","SECT":" ","MAREA":"葯店口","LANE":" ","ALLEY":" ","HOUSE_NO":"６３號","E_COORD97":181901.13,"N_COORD97":2584837.8799999999,"ADDRESS":"葯店口６３號","OBJECTID":151690},"geometry":{"x":181901.13000000082,"y":2584837.8800000008}},{"attributes":{"ID":151692,"DIS_CODE":0,"TOWNNAME":"佳里區","LI":"子龍里","LIN":"5鄰","STREET":" ","SECT":" ","MAREA":"子良廟","LANE":" ","ALLEY":" ","HOUSE_NO":"５５號之１","E_COORD97":168775.39999999999,"N_COORD97":2563897.52,"ADDRESS":"子良廟５５號之１","OBJECTID":151691},"geometry":{"x":168775.39999999944,"y":2563897.5199999996}},{"attributes":{"ID":151693,"DIS_CODE":0,"TOWNNAME":"佳里區","LI":"子龍里","LIN":"5鄰","STREET":" ","SECT":" ","MAREA":"子良廟","LANE":" ","ALLEY":" ","HOUSE_NO":"５５號之２","E_COORD97":168771.26999999999,"N_COORD97":2563897.27,"ADDRESS":"子良廟５５號之２","OBJECTID":151692},"geometry":{"x":168771.26999999955,"y":2563897.2700000014}},{"attributes":{"ID":151694,"DIS_CODE":0,"TOWNNAME":"佳里區","LI":"子龍里","LIN":"5鄰","STREET":" ","SECT":" ","MAREA":"子良廟","LANE":" ","ALLEY":" ","HOUSE_NO":"５５號之４","E_COORD97":168762.79000000001,"N_COORD97":2563896.5699999998,"ADDRESS":"子良廟５５號之４","OBJECTID":151693},"geometry":{"x":168762.79000000097,"y":2563896.5700000022}},{"attributes":{"ID":151695,"DIS_CODE":0,"TOWNNAME":"佳里區","LI":"子龍里","LIN":"5鄰","STREET":" ","SECT":" ","MAREA":"子良廟","LANE":" ","ALLEY":" ","HOUSE_NO":"５５號之５","E_COORD97":168757.26999999999,"N_COORD97":2563896.3399999999,"ADDRESS":"子良廟５５號之５","OBJECTID":151694},"geometry":{"x":168757.27000000048,"y":2563896.3400000036}},{"attributes":{"ID":151696,"DIS_CODE":0,"TOWNNAME":"佳里區","LI":"子龍里","LIN":"5鄰","STREET":" ","SECT":" ","MAREA":"子良廟","LANE":" ","ALLEY":" ","HOUSE_NO":"５５號","E_COORD97":168780.39000000001,"N_COORD97":2563897.3799999999,"ADDRESS":"子良廟５５號","OBJECTID":151695},"geometry":{"x":168780.3900000006,"y":2563897.379999999}},{"attributes":{"ID":151697,"DIS_CODE":0,"TOWNNAME":"佳里區","LI":"子龍里","LIN":"5鄰","STREET":" ","SECT":" ","MAREA":"子良廟","LANE":" ","ALLEY":" ","HOUSE_NO":"５６號之１０","E_COORD97":168733.69,"N_COORD97":2563891.3999999999,"ADDRESS":"子良廟５６號之１０","OBJECTID":151696},"geometry":{"x":168733.69000000134,"y":2563891.4000000004}},{"attributes":{"ID":151698,"DIS_CODE":0,"TOWNNAME":"佳里區","LI":"子龍里","LIN":"5鄰","STREET":" ","SECT":" ","MAREA":"子良廟","LANE":" ","ALLEY":" ","HOUSE_NO":"５６號之６","E_COORD97":168749.17000000001,"N_COORD97":2563895.3100000001,"ADDRESS":"子良廟５６號之６","OBJECTID":151697},"geometry":{"x":168749.16999999993,"y":2563895.3100000024}},{"attributes":{"ID":151699,"DIS_CODE":0,"TOWNNAME":"佳里區","LI":"子龍里","LIN":"5鄰","STREET":" ","SECT":" ","MAREA":"子良廟","LANE":" ","ALLEY":" ","HOUSE_NO":"５６號之７","E_COORD97":168743.60000000001,"N_COORD97":2563894.3700000001,"ADDRESS":"子良廟５６號之７","OBJECTID":151698},"geometry":{"x":168743.60000000056,"y":2563894.3700000029}},{"attributes":{"ID":151700,"DIS_CODE":0,"TOWNNAME":"佳里區","LI":"子龍里","LIN":"5鄰","STREET":" ","SECT":" ","MAREA":"子良廟","LANE":" ","ALLEY":" ","HOUSE_NO":"５８號之１","E_COORD97":168780.01000000001,"N_COORD97":2563862.8500000001,"ADDRESS":"子良廟５８號之１","OBJECTID":151699},"geometry":{"x":168780.01000000071,"y":2563862.8500000015}},{"attributes":{"ID":151701,"DIS_CODE":0,"TOWNNAME":"佳里區","LI":"子龍里","LIN":"5鄰","STREET":" ","SECT":" ","MAREA":"子良廟","LANE":" ","ALLEY":" ","HOUSE_NO":"５８號之３","E_COORD97":168771.39999999999,"N_COORD97":2563862.2599999998,"ADDRESS":"子良廟５８號之３","OBJECTID":151700},"geometry":{"x":168771.40000000037,"y":2563862.2599999998}},{"attributes":{"ID":151702,"DIS_CODE":0,"TOWNNAME":"佳里區","LI":"子龍里","LIN":"5鄰","STREET":" ","SECT":" ","MAREA":"子良廟","LANE":" ","ALLEY":" ","HOUSE_NO":"５８號之４","E_COORD97":168767.38,"N_COORD97":2563862.3300000001,"ADDRESS":"子良廟５８號之４","OBJECTID":151701},"geometry":{"x":168767.38000000082,"y":2563862.3299999982}},{"attributes":{"ID":151703,"DIS_CODE":0,"TOWNNAME":"佳里區","LI":"子龍里","LIN":"5鄰","STREET":" ","SECT":" ","MAREA":"子良廟","LANE":" ","ALLEY":" ","HOUSE_NO":"５８號之５","E_COORD97":168763.32999999999,"N_COORD97":2563862.0299999998,"ADDRESS":"子良廟５８號之５","OBJECTID":151702},"geometry":{"x":168763.33000000007,"y":2563862.0300000012}},{"attributes":{"ID":151704,"DIS_CODE":0,"TOWNNAME":"佳里區","LI":"子龍里","LIN":"5鄰","STREET":" ","SECT":" ","MAREA":"子良廟","LANE":" ","ALLEY":" ","HOUSE_NO":"５８號","E_COORD97":168789.25,"N_COORD97":2563864.7799999998,"ADDRESS":"子良廟５８號","OBJECTID":151703},"geometry":{"x":168789.25,"y":2563864.7799999993}},{"attributes":{"ID":151705,"DIS_CODE":0,"TOWNNAME":"佳里區","LI":"子龍里","LIN":"5鄰","STREET":" ","SECT":" ","MAREA":"子良廟","LANE":" ","ALLEY":" ","HOUSE_NO":"５９號之１","E_COORD97":168758.97,"N_COORD97":2563861.5499999998,"ADDRESS":"子良廟５９號之１","OBJECTID":151704},"geometry":{"x":168758.96999999881,"y":2563861.5499999989}},{"attributes":{"ID":151706,"DIS_CODE":0,"TOWNNAME":"佳里區","LI":"子龍里","LIN":"5鄰","STREET":" ","SECT":" ","MAREA":"子良廟","LANE":" ","ALLEY":" ","HOUSE_NO":"５９號","E_COORD97":168754.85999999999,"N_COORD97":2563861.52,"ADDRESS":"子良廟５９號","OBJECTID":151705},"geometry":{"x":168754.86000000034,"y":2563861.5200000014}},{"attributes":{"ID":151707,"DIS_CODE":0,"TOWNNAME":"佳里區","LI":"子龍里","LIN":"5鄰","STREET":" ","SECT":" ","MAREA":"子良廟","LANE":" ","ALLEY":" ","HOUSE_NO":"６１號","E_COORD97":168747.32999999999,"N_COORD97":2563856.4199999999,"ADDRESS":"子良廟６１號","OBJECTID":151706},"geometry":{"x":168747.33000000101,"y":2563856.4200000018}},{"attributes":{"ID":151708,"DIS_CODE":0,"TOWNNAME":"佳里區","LI":"子龍里","LIN":"5鄰","STREET":" ","SECT":" ","MAREA":"子良廟","LANE":" ","ALLEY":" ","HOUSE_NO":"６２號之１","E_COORD97":168732.87,"N_COORD97":2563826.7200000002,"ADDRESS":"子良廟６２號之１","OBJECTID":151707},"geometry":{"x":168732.87000000011,"y":2563826.7200000044}},{"attributes":{"ID":151709,"DIS_CODE":0,"TOWNNAME":"佳里區","LI":"子龍里","LIN":"5鄰","STREET":" ","SECT":" ","MAREA":"子良廟","LANE":" ","ALLEY":" ","HOUSE_NO":"６２號之２","E_COORD97":168728.35000000001,"N_COORD97":2563850.79,"ADDRESS":"子良廟６２號之２","OBJECTID":151708},"geometry":{"x":168728.35000000056,"y":2563850.7899999991}},{"attributes":{"ID":151710,"DIS_CODE":0,"TOWNNAME":"佳里區","LI":"子龍里","LIN":"5鄰","STREET":" ","SECT":" ","MAREA":"子良廟","LANE":" ","ALLEY":" ","HOUSE_NO":"６２號之３","E_COORD97":168733.54000000001,"N_COORD97":2563859.2200000002,"ADDRESS":"子良廟６２號之３","OBJECTID":151709},"geometry":{"x":168733.5400000019,"y":2563859.2200000007}},{"attributes":{"ID":151711,"DIS_CODE":0,"TOWNNAME":"佳里區","LI":"子龍里","LIN":"5鄰","STREET":" ","SECT":" ","MAREA":"子良廟","LANE":" ","ALLEY":" ","HOUSE_NO":"６２號","E_COORD97":168718.26000000001,"N_COORD97":2563843.6899999999,"ADDRESS":"子良廟６２號","OBJECTID":151710},"geometry":{"x":168718.26000000164,"y":2563843.6900000013}},{"attributes":{"ID":151712,"DIS_CODE":0,"TOWNNAME":"佳里區","LI":"子龍里","LIN":"5鄰","STREET":" ","SECT":" ","MAREA":"子良廟","LANE":" ","ALLEY":" ","HOUSE_NO":"９０號之１","E_COORD97":168875.67999999999,"N_COORD97":2563827.1200000001,"ADDRESS":"子良廟９０號之１","OBJECTID":151711},"geometry":{"x":168875.6799999997,"y":2563827.120000001}},{"attributes":{"ID":151713,"DIS_CODE":0,"TOWNNAME":"佳里區","LI":"子龍里","LIN":"5鄰","STREET":" ","SECT":" ","MAREA":"子良廟","LANE":" ","ALLEY":" ","HOUSE_NO":"９０號之２","E_COORD97":168871.70999999999,"N_COORD97":2563811.52,"ADDRESS":"子良廟９０號之２","OBJECTID":151712},"geometry":{"x":168871.71000000089,"y":2563811.5200000014}},{"attributes":{"ID":151714,"DIS_CODE":0,"TOWNNAME":"佳里區","LI":"子龍里","LIN":"5鄰","STREET":" ","SECT":" ","MAREA":"子良廟","LANE":" ","ALLEY":" ","HOUSE_NO":"９０號","E_COORD97":168873.63,"N_COORD97":2563803.1699999999,"ADDRESS":"子良廟９０號","OBJECTID":151713},"geometry":{"x":168873.63000000082,"y":2563803.1700000018}},{"attributes":{"ID":151715,"DIS_CODE":0,"TOWNNAME":"佳里區","LI":"子龍里","LIN":"5鄰","STREET":" ","SECT":" ","MAREA":"子良廟","LANE":" ","ALLEY":" ","HOUSE_NO":"９１號之１","E_COORD97":168880.19,"N_COORD97":2563871.23,"ADDRESS":"子良廟９１號之１","OBJECTID":151714},"geometry":{"x":168880.19000000041,"y":2563871.2300000023}},{"attributes":{"ID":151716,"DIS_CODE":0,"TOWNNAME":"佳里區","LI":"子龍里","LIN":"5鄰","STREET":" ","SECT":" ","MAREA":"子良廟","LANE":" ","ALLEY":" ","HOUSE_NO":"９１號之２","E_COORD97":168875.20999999999,"N_COORD97":2563871.0800000001,"ADDRESS":"子良廟９１號之２","OBJECTID":151715},"geometry":{"x":168875.21000000089,"y":2563871.0800000038}},{"attributes":{"ID":151717,"DIS_CODE":0,"TOWNNAME":"佳里區","LI":"子龍里","LIN":"5鄰","STREET":" ","SECT":" ","MAREA":"子良廟","LANE":" ","ALLEY":" ","HOUSE_NO":"９１號之３","E_COORD97":168869.98000000001,"N_COORD97":2563871.1000000001,"ADDRESS":"子良廟９１號之３","OBJECTID":151716},"geometry":{"x":168869.98000000231,"y":2563871.1000000015}},{"attributes":{"ID":151718,"DIS_CODE":0,"TOWNNAME":"佳里區","LI":"子龍里","LIN":"5鄰","STREET":" ","SECT":" ","MAREA":"子良廟","LANE":" ","ALLEY":" ","HOUSE_NO":"９１號","E_COORD97":168872.62,"N_COORD97":2563842.3300000001,"ADDRESS":"子良廟９１號","OBJECTID":151717},"geometry":{"x":168872.62000000104,"y":2563842.3300000038}},{"attributes":{"ID":151719,"DIS_CODE":0,"TOWNNAME":"佳里區","LI":"子龍里","LIN":"5鄰","STREET":" ","SECT":" ","MAREA":"子良廟","LANE":" ","ALLEY":" ","HOUSE_NO":"９２號之１","E_COORD97":168851.19,"N_COORD97":2563826.77,"ADDRESS":"子良廟９２號之１","OBJECTID":151718},"geometry":{"x":168851.19000000041,"y":2563826.7700000014}},{"attributes":{"ID":151720,"DIS_CODE":0,"TOWNNAME":"佳里區","LI":"子龍里","LIN":"5鄰","STREET":" ","SECT":" ","MAREA":"子良廟","LANE":" ","ALLEY":" ","HOUSE_NO":"９２號之２","E_COORD97":168876.34,"N_COORD97":2563833.8199999998,"ADDRESS":"子良廟９２號之２","OBJECTID":151719},"geometry":{"x":168876.33999999985,"y":2563833.8200000022}},{"attributes":{"ID":151721,"DIS_CODE":0,"TOWNNAME":"佳里區","LI":"子龍里","LIN":"5鄰","STREET":" ","SECT":" ","MAREA":"子良廟","LANE":" ","ALLEY":" ","HOUSE_NO":"９２號","E_COORD97":168849.23000000001,"N_COORD97":2563820.5499999998,"ADDRESS":"子良廟９２號","OBJECTID":151720},"geometry":{"x":168849.23000000045,"y":2563820.5500000007}},{"attributes":{"ID":151722,"DIS_CODE":0,"TOWNNAME":"佳里區","LI":"子龍里","LIN":"5鄰","STREET":" ","SECT":" ","MAREA":"子良廟","LANE":" ","ALLEY":" ","HOUSE_NO":"９３號","E_COORD97":168862.38,"N_COORD97":2563844.1000000001,"ADDRESS":"子良廟９３號","OBJECTID":151721},"geometry":{"x":168862.38000000082,"y":2563844.1000000015}},{"attributes":{"ID":151723,"DIS_CODE":0,"TOWNNAME":"佳里區","LI":"子龍里","LIN":"5鄰","STREET":" ","SECT":" ","MAREA":"子良廟","LANE":" ","ALLEY":" ","HOUSE_NO":"９４號之１","E_COORD97":168832.81,"N_COORD97":2563861.3300000001,"ADDRESS":"子良廟９４號之１","OBJECTID":151722},"geometry":{"x":168832.80999999866,"y":2563861.3300000001}},{"attributes":{"ID":151724,"DIS_CODE":0,"TOWNNAME":"佳里區","LI":"子龍里","LIN":"5鄰","STREET":" ","SECT":" ","MAREA":"子良廟","LANE":" ","ALLEY":" ","HOUSE_NO":"９４號","E_COORD97":168849.20999999999,"N_COORD97":2563861.1000000001,"ADDRESS":"子良廟９４號","OBJECTID":151723},"geometry":{"x":168849.21000000183,"y":2563861.1000000015}},{"attributes":{"ID":151725,"DIS_CODE":0,"TOWNNAME":"佳里區","LI":"子龍里","LIN":"5鄰","STREET":" ","SECT":" ","MAREA":"子良廟","LANE":" ","ALLEY":" ","HOUSE_NO":"９５號","E_COORD97":168897.16,"N_COORD97":2563870.2999999998,"ADDRESS":"子良廟９５號","OBJECTID":151724},"geometry":{"x":168897.15999999922,"y":2563870.3000000045}},{"attributes":{"ID":151726,"DIS_CODE":0,"TOWNNAME":"佳里區","LI":"子龍里","LIN":"5鄰","STREET":" ","SECT":" ","MAREA":"子良廟","LANE":" ","ALLEY":" ","HOUSE_NO":"９６號","E_COORD97":168906.64999999999,"N_COORD97":2563858.1000000001,"ADDRESS":"子良廟９６號","OBJECTID":151725},"geometry":{"x":168906.6500000013,"y":2563858.1000000015}},{"attributes":{"ID":151727,"DIS_CODE":0,"TOWNNAME":"佳里區","LI":"子龍里","LIN":"5鄰","STREET":" ","SECT":" ","MAREA":"子良廟","LANE":" ","ALLEY":" ","HOUSE_NO":"９８號之１","E_COORD97":168929.17000000001,"N_COORD97":2563874.48,"ADDRESS":"子良廟９８號之１","OBJECTID":151726},"geometry":{"x":168929.17000000179,"y":2563874.4800000004}},{"attributes":{"ID":151728,"DIS_CODE":0,"TOWNNAME":"安南區","LI":"溪心里","LIN":"3鄰","STREET":"安中路","SECT":"二段","MAREA":" ","LANE":"３３６巷","ALLEY":"３７弄","HOUSE_NO":"８號","E_COORD97":166449.28,"N_COORD97":2549851.9900000002,"ADDRESS":"安中路二段３３６巷３７弄８號","OBJECTID":151727},"geometry":{"x":166449.28000000119,"y":2549851.9900000002}},{"attributes":{"ID":151729,"DIS_CODE":0,"TOWNNAME":"安南區","LI":"溪心里","LIN":"3鄰","STREET":"安中路","SECT":"二段","MAREA":" ","LANE":"３３６巷","ALLEY":"３７弄","HOUSE_NO":"１０號","E_COORD97":166445.47,"N_COORD97":2549853.4199999999,"ADDRESS":"安中路二段３３６巷３７弄１０號","OBJECTID":151728},"geometry":{"x":166445.47000000067,"y":2549853.4200000018}},{"attributes":{"ID":151730,"DIS_CODE":0,"TOWNNAME":"佳里區","LI":"子龍里","LIN":"5鄰","STREET":" ","SECT":" ","MAREA":"子良廟","LANE":" ","ALLEY":" ","HOUSE_NO":"９８號之２","E_COORD97":168924.28,"N_COORD97":2563874.3700000001,"ADDRESS":"子良廟９８號之２","OBJECTID":151729},"geometry":{"x":168924.28000000119,"y":2563874.3700000029}},{"attributes":{"ID":151731,"DIS_CODE":0,"TOWNNAME":"佳里區","LI":"子龍里","LIN":"5鄰","STREET":" ","SECT":" ","MAREA":"子良廟","LANE":" ","ALLEY":" ","HOUSE_NO":"９８號之３","E_COORD97":168918.92000000001,"N_COORD97":2563874.29,"ADDRESS":"子良廟９８號之３","OBJECTID":151730},"geometry":{"x":168918.92000000179,"y":2563874.2899999991}},{"attributes":{"ID":151732,"DIS_CODE":0,"TOWNNAME":"新化區","LI":"唪口里","LIN":"5鄰","STREET":" ","SECT":" ","MAREA":"唪口","LANE":" ","ALLEY":" ","HOUSE_NO":"３７號","E_COORD97":178103,"N_COORD97":2548919.25,"ADDRESS":"唪口３７號","OBJECTID":151731},"geometry":{"x":178103.00000000186,"y":2548919.2500000019}},{"attributes":{"ID":151733,"DIS_CODE":0,"TOWNNAME":"下營區","LI":"大屯里","LIN":"5鄰","STREET":" ","SECT":" ","MAREA":"大屯寮","LANE":" ","ALLEY":" ","HOUSE_NO":"４２號之３","E_COORD97":171801.42999999999,"N_COORD97":2570395.3100000001,"ADDRESS":"大屯寮４２號之３","OBJECTID":151732},"geometry":{"x":171801.4299999997,"y":2570395.3100000005}},{"attributes":{"ID":151734,"DIS_CODE":0,"TOWNNAME":"下營區","LI":"大屯里","LIN":"5鄰","STREET":" ","SECT":" ","MAREA":"大屯寮","LANE":" ","ALLEY":" ","HOUSE_NO":"４３號之６","E_COORD97":171805.57999999999,"N_COORD97":2570370.2400000002,"ADDRESS":"大屯寮４３號之６","OBJECTID":151733},"geometry":{"x":171805.58000000101,"y":2570370.2400000021}},{"attributes":{"ID":151735,"DIS_CODE":0,"TOWNNAME":"下營區","LI":"大屯里","LIN":"5鄰","STREET":" ","SECT":" ","MAREA":"大屯寮","LANE":" ","ALLEY":" ","HOUSE_NO":"４３號之７","E_COORD97":171810.17000000001,"N_COORD97":2570370.48,"ADDRESS":"大屯寮４３號之７","OBJECTID":151734},"geometry":{"x":171810.16999999993,"y":2570370.4800000004}},{"attributes":{"ID":151736,"DIS_CODE":0,"TOWNNAME":"下營區","LI":"大屯里","LIN":"5鄰","STREET":" ","SECT":" ","MAREA":"大屯寮","LANE":" ","ALLEY":" ","HOUSE_NO":"４４號","E_COORD97":171765.47,"N_COORD97":2570391.6499999999,"ADDRESS":"大屯寮４４號","OBJECTID":151735},"geometry":{"x":171765.47000000067,"y":2570391.6500000022}},{"attributes":{"ID":151737,"DIS_CODE":0,"TOWNNAME":"下營區","LI":"大屯里","LIN":"5鄰","STREET":" ","SECT":" ","MAREA":"大屯寮","LANE":" ","ALLEY":" ","HOUSE_NO":"４５號之１１","E_COORD97":172103.63,"N_COORD97":2569820.9199999999,"ADDRESS":"大屯寮４５號之１１","OBJECTID":151736},"geometry":{"x":172103.62999999989,"y":2569820.9199999999}},{"attributes":{"ID":151738,"DIS_CODE":0,"TOWNNAME":"下營區","LI":"大屯里","LIN":"5鄰","STREET":" ","SECT":" ","MAREA":"大屯寮","LANE":" ","ALLEY":" ","HOUSE_NO":"４５號之１６","E_COORD97":172235.23000000001,"N_COORD97":2569712.8500000001,"ADDRESS":"大屯寮４５號之１６","OBJECTID":151737},"geometry":{"x":172235.23000000138,"y":2569712.8499999996}},{"attributes":{"ID":151739,"DIS_CODE":0,"TOWNNAME":"下營區","LI":"大屯里","LIN":"5鄰","STREET":" ","SECT":" ","MAREA":"大屯寮","LANE":" ","ALLEY":" ","HOUSE_NO":"４５號之１７","E_COORD97":171695.39000000001,"N_COORD97":2570074.5299999998,"ADDRESS":"大屯寮４５號之１７","OBJECTID":151738},"geometry":{"x":171695.38999999966,"y":2570074.5299999993}},{"attributes":{"ID":151740,"DIS_CODE":0,"TOWNNAME":"下營區","LI":"大屯里","LIN":"5鄰","STREET":" ","SECT":" ","MAREA":"大屯寮","LANE":" ","ALLEY":" ","HOUSE_NO":"４５號之１９","E_COORD97":171730.41,"N_COORD97":2570054.6699999999,"ADDRESS":"大屯寮４５號之１９","OBJECTID":151739},"geometry":{"x":171730.41000000108,"y":2570054.6700000018}},{"attributes":{"ID":151741,"DIS_CODE":0,"TOWNNAME":"下營區","LI":"大屯里","LIN":"5鄰","STREET":" ","SECT":" ","MAREA":"大屯寮","LANE":" ","ALLEY":" ","HOUSE_NO":"４５號之１","E_COORD97":171669.26999999999,"N_COORD97":2570079.1400000001,"ADDRESS":"大屯寮４５號之１","OBJECTID":151740},"geometry":{"x":171669.27000000142,"y":2570079.1400000043}},{"attributes":{"ID":151742,"DIS_CODE":0,"TOWNNAME":"下營區","LI":"大屯里","LIN":"5鄰","STREET":" ","SECT":" ","MAREA":"大屯寮","LANE":" ","ALLEY":" ","HOUSE_NO":"４５號之２","E_COORD97":171760.97,"N_COORD97":2569970.27,"ADDRESS":"大屯寮４５號之２","OBJECTID":151741},"geometry":{"x":171760.96999999974,"y":2569970.2699999996}},{"attributes":{"ID":151743,"DIS_CODE":0,"TOWNNAME":"下營區","LI":"大屯里","LIN":"5鄰","STREET":" ","SECT":" ","MAREA":"大屯寮","LANE":" ","ALLEY":" ","HOUSE_NO":"４５號之３","E_COORD97":171647.54999999999,"N_COORD97":2569818.7000000002,"ADDRESS":"大屯寮４５號之３","OBJECTID":151742},"geometry":{"x":171647.55000000075,"y":2569818.6999999993}},{"attributes":{"ID":151744,"DIS_CODE":0,"TOWNNAME":"下營區","LI":"大屯里","LIN":"5鄰","STREET":" ","SECT":" ","MAREA":"大屯寮","LANE":" ","ALLEY":" ","HOUSE_NO":"４５之５號","E_COORD97":171686.37,"N_COORD97":2570075.21,"ADDRESS":"大屯寮４５之５號","OBJECTID":151743},"geometry":{"x":171686.37000000104,"y":2570075.209999999}},{"attributes":{"ID":151745,"DIS_CODE":0,"TOWNNAME":"下營區","LI":"大屯里","LIN":"5鄰","STREET":" ","SECT":" ","MAREA":"大屯寮","LANE":" ","ALLEY":" ","HOUSE_NO":"４５號之６","E_COORD97":172016.81,"N_COORD97":2569824.1899999999,"ADDRESS":"大屯寮４５號之６","OBJECTID":151744},"geometry":{"x":172016.81000000052,"y":2569824.1900000013}},{"attributes":{"ID":151746,"DIS_CODE":0,"TOWNNAME":"下營區","LI":"大屯里","LIN":"5鄰","STREET":" ","SECT":" ","MAREA":"大屯寮","LANE":" ","ALLEY":" ","HOUSE_NO":"４５號之７","E_COORD97":172182.98000000001,"N_COORD97":2569827.0299999998,"ADDRESS":"大屯寮４５號之７","OBJECTID":151745},"geometry":{"x":172182.98000000138,"y":2569827.0299999993}},{"attributes":{"ID":151747,"DIS_CODE":0,"TOWNNAME":"下營區","LI":"大屯里","LIN":"5鄰","STREET":" ","SECT":" ","MAREA":"大屯寮","LANE":" ","ALLEY":" ","HOUSE_NO":"４５號之８","E_COORD97":171878.07000000001,"N_COORD97":2569667.3700000001,"ADDRESS":"大屯寮４５號之８","OBJECTID":151746},"geometry":{"x":171878.06999999937,"y":2569667.370000001}},{"attributes":{"ID":151748,"DIS_CODE":0,"TOWNNAME":"下營區","LI":"大屯里","LIN":"5鄰","STREET":" ","SECT":" ","MAREA":"大屯寮","LANE":" ","ALLEY":" ","HOUSE_NO":"４５號之９","E_COORD97":171830.92000000001,"N_COORD97":2569730.4500000002,"ADDRESS":"大屯寮４５號之９","OBJECTID":151747},"geometry":{"x":171830.91999999993,"y":2569730.4500000011}},{"attributes":{"ID":151749,"DIS_CODE":0,"TOWNNAME":"下營區","LI":"大屯里","LIN":"5鄰","STREET":" ","SECT":" ","MAREA":"大屯寮","LANE":" ","ALLEY":" ","HOUSE_NO":"４７號之１","E_COORD97":171754.88,"N_COORD97":2570380.04,"ADDRESS":"大屯寮４７號之１","OBJECTID":151748},"geometry":{"x":171754.87999999989,"y":2570380.0400000028}},{"attributes":{"ID":151750,"DIS_CODE":0,"TOWNNAME":"下營區","LI":"大屯里","LIN":"5鄰","STREET":" ","SECT":" ","MAREA":"大屯寮","LANE":" ","ALLEY":" ","HOUSE_NO":"４７號之６","E_COORD97":171723.48999999999,"N_COORD97":2570386.2200000002,"ADDRESS":"大屯寮４７號之６","OBJECTID":151749},"geometry":{"x":171723.49000000115,"y":2570386.2200000007}},{"attributes":{"ID":151751,"DIS_CODE":0,"TOWNNAME":"下營區","LI":"大屯里","LIN":"5鄰","STREET":" ","SECT":" ","MAREA":"大屯寮","LANE":" ","ALLEY":" ","HOUSE_NO":"４７號","E_COORD97":171742.06,"N_COORD97":2570388.1499999999,"ADDRESS":"大屯寮４７號","OBJECTID":151750},"geometry":{"x":171742.06000000052,"y":2570388.1500000022}},{"attributes":{"ID":151752,"DIS_CODE":0,"TOWNNAME":"下營區","LI":"大屯里","LIN":"5鄰","STREET":" ","SECT":" ","MAREA":"大屯寮","LANE":" ","ALLEY":" ","HOUSE_NO":"４８號之１３","E_COORD97":170659.51999999999,"N_COORD97":2570379.9900000002,"ADDRESS":"大屯寮４８號之１３","OBJECTID":151751},"geometry":{"x":170659.52000000048,"y":2570379.9900000002}},{"attributes":{"ID":151753,"DIS_CODE":0,"TOWNNAME":"下營區","LI":"大屯里","LIN":"5鄰","STREET":" ","SECT":" ","MAREA":"大屯寮","LANE":" ","ALLEY":" ","HOUSE_NO":"４８號之１５","E_COORD97":170491.13,"N_COORD97":2570292.3900000001,"ADDRESS":"大屯寮４８號之１５","OBJECTID":151752},"geometry":{"x":170491.13000000082,"y":2570292.3900000025}},{"attributes":{"ID":151754,"DIS_CODE":0,"TOWNNAME":"下營區","LI":"大屯里","LIN":"5鄰","STREET":" ","SECT":" ","MAREA":"大屯寮","LANE":" ","ALLEY":" ","HOUSE_NO":"４８號之１６","E_COORD97":170920.76999999999,"N_COORD97":2570432.7400000002,"ADDRESS":"大屯寮４８號之１６","OBJECTID":151753},"geometry":{"x":170920.76999999955,"y":2570432.7400000002}},{"attributes":{"ID":151755,"DIS_CODE":0,"TOWNNAME":"下營區","LI":"大屯里","LIN":"5鄰","STREET":" ","SECT":" ","MAREA":"大屯寮","LANE":" ","ALLEY":" ","HOUSE_NO":"４８號之１７","E_COORD97":171165.92000000001,"N_COORD97":2570306.3500000001,"ADDRESS":"大屯寮４８號之１７","OBJECTID":151754},"geometry":{"x":171165.92000000086,"y":2570306.3499999996}},{"attributes":{"ID":151756,"DIS_CODE":0,"TOWNNAME":"下營區","LI":"大屯里","LIN":"5鄰","STREET":" ","SECT":" ","MAREA":"大屯寮","LANE":" ","ALLEY":" ","HOUSE_NO":"４８之２１號","E_COORD97":171588.79999999999,"N_COORD97":2569788.5699999998,"ADDRESS":"大屯寮４８之２１號","OBJECTID":151755},"geometry":{"x":171588.79999999981,"y":2569788.5700000022}},{"attributes":{"ID":151757,"DIS_CODE":0,"TOWNNAME":"下營區","LI":"大屯里","LIN":"5鄰","STREET":" ","SECT":" ","MAREA":"大屯寮","LANE":" ","ALLEY":" ","HOUSE_NO":"４８之２６號","E_COORD97":171438.01000000001,"N_COORD97":2569673.6099999999,"ADDRESS":"大屯寮４８之２６號","OBJECTID":151756},"geometry":{"x":171438.01000000071,"y":2569673.6099999994}},{"attributes":{"ID":151758,"DIS_CODE":0,"TOWNNAME":"下營區","LI":"大屯里","LIN":"5鄰","STREET":" ","SECT":" ","MAREA":"大屯寮","LANE":" ","ALLEY":" ","HOUSE_NO":"４８之２８號","E_COORD97":171406.95999999999,"N_COORD97":2569712.5,"ADDRESS":"大屯寮４８之２８號","OBJECTID":151757},"geometry":{"x":171406.95999999996,"y":2569712.5}},{"attributes":{"ID":151759,"DIS_CODE":0,"TOWNNAME":"下營區","LI":"大屯里","LIN":"5鄰","STREET":" ","SECT":" ","MAREA":"大屯寮","LANE":" ","ALLEY":" ","HOUSE_NO":"４８號之２","E_COORD97":171399.35000000001,"N_COORD97":2570362.6200000001,"ADDRESS":"大屯寮４８號之２","OBJECTID":151758},"geometry":{"x":171399.35000000056,"y":2570362.6200000029}},{"attributes":{"ID":151760,"DIS_CODE":0,"TOWNNAME":"下營區","LI":"大屯里","LIN":"5鄰","STREET":" ","SECT":" ","MAREA":"大屯寮","LANE":" ","ALLEY":" ","HOUSE_NO":"４８號之３５","E_COORD97":170775.31,"N_COORD97":2570136.3999999999,"ADDRESS":"大屯寮４８號之３５","OBJECTID":151759},"geometry":{"x":170775.30999999959,"y":2570136.4000000004}},{"attributes":{"ID":151761,"DIS_CODE":0,"TOWNNAME":"下營區","LI":"大屯里","LIN":"5鄰","STREET":" ","SECT":" ","MAREA":"大屯寮","LANE":" ","ALLEY":" ","HOUSE_NO":"４８號","E_COORD97":171658.06,"N_COORD97":2570393.79,"ADDRESS":"大屯寮４８號","OBJECTID":151760},"geometry":{"x":171658.05999999959,"y":2570393.7899999991}},{"attributes":{"ID":151762,"DIS_CODE":0,"TOWNNAME":"新市區","LI":"豐華里","LIN":"5鄰","STREET":" ","SECT":" ","MAREA":"豐華","LANE":" ","ALLEY":" ","HOUSE_NO":"４０號","E_COORD97":173820.76999999999,"N_COORD97":2554386,"ADDRESS":"豐華４０號","OBJECTID":151761},"geometry":{"x":173820.77000000048,"y":2554386.0000000019}},{"attributes":{"ID":151763,"DIS_CODE":0,"TOWNNAME":"新市區","LI":"大營里","LIN":"5鄰","STREET":" ","SECT":" ","MAREA":"大營","LANE":" ","ALLEY":" ","HOUSE_NO":"７８之１１號","E_COORD97":179632.89999999999,"N_COORD97":2555488.7999999998,"ADDRESS":"大營７８之１１號","OBJECTID":151762},"geometry":{"x":179632.90000000037,"y":2555488.8000000007}},{"attributes":{"ID":151764,"DIS_CODE":0,"TOWNNAME":"新市區","LI":"三舍里","LIN":"5鄰","STREET":" ","SECT":" ","MAREA":"三舍","LANE":" ","ALLEY":" ","HOUSE_NO":"１１２號","E_COORD97":177981.09,"N_COORD97":2554584,"ADDRESS":"三舍１１２號","OBJECTID":151763},"geometry":{"x":177981.08999999985,"y":2554584}},{"attributes":{"ID":151765,"DIS_CODE":0,"TOWNNAME":"新市區","LI":"大社里","LIN":"5鄰","STREET":" ","SECT":" ","MAREA":"大社","LANE":" ","ALLEY":" ","HOUSE_NO":"１９０之８號","E_COORD97":180222.48000000001,"N_COORD97":2554341.5499999998,"ADDRESS":"大社１９０之８號","OBJECTID":151764},"geometry":{"x":180222.48000000045,"y":2554341.5500000045}},{"attributes":{"ID":151766,"DIS_CODE":0,"TOWNNAME":"新市區","LI":"大社里","LIN":"5鄰","STREET":" ","SECT":" ","MAREA":"大社","LANE":" ","ALLEY":" ","HOUSE_NO":"１５９號","E_COORD97":180135.95999999999,"N_COORD97":2554280.5,"ADDRESS":"大社１５９號","OBJECTID":151765},"geometry":{"x":180135.96000000089,"y":2554280.5000000019}},{"attributes":{"ID":151767,"DIS_CODE":0,"TOWNNAME":"新市區","LI":"大營里","LIN":"5鄰","STREET":" ","SECT":" ","MAREA":"大營","LANE":" ","ALLEY":" ","HOUSE_NO":"７８之２４號","E_COORD97":179633.39999999999,"N_COORD97":2555442.0499999998,"ADDRESS":"大營７８之２４號","OBJECTID":151766},"geometry":{"x":179633.4000000013,"y":2555442.0500000007}},{"attributes":{"ID":151768,"DIS_CODE":0,"TOWNNAME":"新市區","LI":"大營里","LIN":"5鄰","STREET":" ","SECT":" ","MAREA":"大營","LANE":" ","ALLEY":" ","HOUSE_NO":"７８之２９號","E_COORD97":179641.48999999999,"N_COORD97":2555452.7999999998,"ADDRESS":"大營７８之２９號","OBJECTID":151767},"geometry":{"x":179641.49000000115,"y":2555452.8000000026}},{"attributes":{"ID":151769,"DIS_CODE":0,"TOWNNAME":"新市區","LI":"大社里","LIN":"5鄰","STREET":" ","SECT":" ","MAREA":"大社","LANE":" ","ALLEY":" ","HOUSE_NO":"１８９號","E_COORD97":180219.45999999999,"N_COORD97":2554378.5,"ADDRESS":"大社１８９號","OBJECTID":151768},"geometry":{"x":180219.46000000089,"y":2554378.5000000037}},{"attributes":{"ID":151770,"DIS_CODE":0,"TOWNNAME":"新市區","LI":"大社里","LIN":"5鄰","STREET":" ","SECT":" ","MAREA":"大社","LANE":" ","ALLEY":" ","HOUSE_NO":"１４８號","E_COORD97":180152.92000000001,"N_COORD97":2554228.25,"ADDRESS":"大社１４８號","OBJECTID":151769},"geometry":{"x":180152.92000000179,"y":2554228.2500000019}},{"attributes":{"ID":151771,"DIS_CODE":0,"TOWNNAME":"新市區","LI":"大營里","LIN":"5鄰","STREET":" ","SECT":" ","MAREA":"大營","LANE":" ","ALLEY":" ","HOUSE_NO":"６８號","E_COORD97":179521.54000000001,"N_COORD97":2555587.5,"ADDRESS":"大營６８號","OBJECTID":151770},"geometry":{"x":179521.54000000004,"y":2555587.5}},{"attributes":{"ID":151772,"DIS_CODE":0,"TOWNNAME":"新市區","LI":"三舍里","LIN":"5鄰","STREET":" ","SECT":" ","MAREA":"三舍","LANE":" ","ALLEY":" ","HOUSE_NO":"１０９號","E_COORD97":177998.95000000001,"N_COORD97":2554584.25,"ADDRESS":"三舍１０９號","OBJECTID":151771},"geometry":{"x":177998.95000000112,"y":2554584.2500000019}},{"attributes":{"ID":151773,"DIS_CODE":0,"TOWNNAME":"新市區","LI":"大社里","LIN":"5鄰","STREET":" ","SECT":" ","MAREA":"大社","LANE":" ","ALLEY":" ","HOUSE_NO":"１９０之１０號","E_COORD97":180215.42999999999,"N_COORD97":2554337.7999999998,"ADDRESS":"大社１９０之１０號","OBJECTID":151772},"geometry":{"x":180215.43000000156,"y":2554337.8000000026}},{"attributes":{"ID":151774,"DIS_CODE":0,"TOWNNAME":"新市區","LI":"永就里","LIN":"5鄰","STREET":" ","SECT":" ","MAREA":"永就","LANE":" ","ALLEY":" ","HOUSE_NO":"４９之３７號","E_COORD97":178158.37,"N_COORD97":2551293.0499999998,"ADDRESS":"永就４９之３７號","OBJECTID":151773},"geometry":{"x":178158.37000000197,"y":2551293.0500000007}},{"attributes":{"ID":151775,"DIS_CODE":0,"TOWNNAME":"新市區","LI":"大營里","LIN":"5鄰","STREET":" ","SECT":" ","MAREA":"大營","LANE":" ","ALLEY":" ","HOUSE_NO":"７８之３３號","E_COORD97":179650.64999999999,"N_COORD97":2555453.7999999998,"ADDRESS":"大營７８之３３號","OBJECTID":151774},"geometry":{"x":179650.6500000013,"y":2555453.8000000007}},{"attributes":{"ID":151776,"DIS_CODE":0,"TOWNNAME":"新市區","LI":"大營里","LIN":"5鄰","STREET":" ","SECT":" ","MAREA":"大營","LANE":" ","ALLEY":" ","HOUSE_NO":"７８之１７號","E_COORD97":179648.79000000001,"N_COORD97":2555488.5499999998,"ADDRESS":"大營７８之１７號","OBJECTID":151775},"geometry":{"x":179648.7900000019,"y":2555488.5500000026}},{"attributes":{"ID":151777,"DIS_CODE":0,"TOWNNAME":"新市區","LI":"大營里","LIN":"5鄰","STREET":" ","SECT":" ","MAREA":"大營","LANE":" ","ALLEY":" ","HOUSE_NO":"８２之３號","E_COORD97":179550.84,"N_COORD97":2555452.5499999998,"ADDRESS":"大營８２之３號","OBJECTID":151776},"geometry":{"x":179550.83999999985,"y":2555452.5500000007}},{"attributes":{"ID":151778,"DIS_CODE":0,"TOWNNAME":"新市區","LI":"大社里","LIN":"5鄰","STREET":" ","SECT":" ","MAREA":"大社","LANE":" ","ALLEY":" ","HOUSE_NO":"１９０之９號","E_COORD97":180218.13,"N_COORD97":2554339.5499999998,"ADDRESS":"大社１９０之９號","OBJECTID":151777},"geometry":{"x":180218.13000000082,"y":2554339.5500000026}},{"attributes":{"ID":151779,"DIS_CODE":0,"TOWNNAME":"新市區","LI":"大營里","LIN":"5鄰","STREET":" ","SECT":" ","MAREA":"大營","LANE":" ","ALLEY":" ","HOUSE_NO":"７８之１９號","E_COORD97":179654.23999999999,"N_COORD97":2555488.5499999998,"ADDRESS":"大營７８之１９號","OBJECTID":151778},"geometry":{"x":179654.24000000022,"y":2555488.5500000026}},{"attributes":{"ID":151780,"DIS_CODE":0,"TOWNNAME":"新市區","LI":"大營里","LIN":"5鄰","STREET":" ","SECT":" ","MAREA":"大營","LANE":" ","ALLEY":" ","HOUSE_NO":"６７號","E_COORD97":179516.48999999999,"N_COORD97":2555607.5,"ADDRESS":"大營６７號","OBJECTID":151779},"geometry":{"x":179516.49000000022,"y":2555607.5}},{"attributes":{"ID":151781,"DIS_CODE":0,"TOWNNAME":"新市區","LI":"大營里","LIN":"5鄰","STREET":" ","SECT":" ","MAREA":"大營","LANE":" ","ALLEY":" ","HOUSE_NO":"７８之２２號","E_COORD97":179666.54000000001,"N_COORD97":2555479.0499999998,"ADDRESS":"大營７８之２２號","OBJECTID":151780},"geometry":{"x":179666.54000000097,"y":2555479.0500000026}},{"attributes":{"ID":151782,"DIS_CODE":0,"TOWNNAME":"新市區","LI":"大社里","LIN":"5鄰","STREET":" ","SECT":" ","MAREA":"大社","LANE":" ","ALLEY":" ","HOUSE_NO":"１５８之１號","E_COORD97":180139.12,"N_COORD97":2554266.7999999998,"ADDRESS":"大社１５８之１號","OBJECTID":151781},"geometry":{"x":180139.12000000011,"y":2554266.8000000026}},{"attributes":{"ID":151783,"DIS_CODE":0,"TOWNNAME":"新市區","LI":"大營里","LIN":"5鄰","STREET":" ","SECT":" ","MAREA":"大營","LANE":" ","ALLEY":" ","HOUSE_NO":"７９之２０號","E_COORD97":179827.48999999999,"N_COORD97":2555459.2999999998,"ADDRESS":"大營７９之２０號","OBJECTID":151782},"geometry":{"x":179827.49000000115,"y":2555459.3000000026}},{"attributes":{"ID":151784,"DIS_CODE":0,"TOWNNAME":"新市區","LI":"永就里","LIN":"5鄰","STREET":" ","SECT":" ","MAREA":"永就","LANE":" ","ALLEY":" ","HOUSE_NO":"５２之３號","E_COORD97":178348.76000000001,"N_COORD97":2551401.2999999998,"ADDRESS":"永就５２之３號","OBJECTID":151783},"geometry":{"x":178348.76000000071,"y":2551401.3000000026}},{"attributes":{"ID":151785,"DIS_CODE":0,"TOWNNAME":"新市區","LI":"大社里","LIN":"5鄰","STREET":" ","SECT":" ","MAREA":"大社","LANE":" ","ALLEY":" ","HOUSE_NO":"１９０之７號","E_COORD97":180226.79000000001,"N_COORD97":2554343.5499999998,"ADDRESS":"大社１９０之７號","OBJECTID":151784},"geometry":{"x":180226.78999999911,"y":2554343.5500000007}},{"attributes":{"ID":151786,"DIS_CODE":0,"TOWNNAME":"新市區","LI":"大營里","LIN":"5鄰","STREET":" ","SECT":" ","MAREA":"大營","LANE":" ","ALLEY":" ","HOUSE_NO":"８２之５號","E_COORD97":179553.84,"N_COORD97":2555444.5499999998,"ADDRESS":"大營８２之５號","OBJECTID":151785},"geometry":{"x":179553.84000000078,"y":2555444.5500000026}},{"attributes":{"ID":151787,"DIS_CODE":0,"TOWNNAME":"新市區","LI":"大營里","LIN":"5鄰","STREET":" ","SECT":" ","MAREA":"大營","LANE":" ","ALLEY":" ","HOUSE_NO":"７８之１３號","E_COORD97":179638.20000000001,"N_COORD97":2555488.7999999998,"ADDRESS":"大營７８之１３號","OBJECTID":151786},"geometry":{"x":179638.20000000112,"y":2555488.8000000007}},{"attributes":{"ID":151788,"DIS_CODE":0,"TOWNNAME":"七股區","LI":"七股里","LIN":"5鄰","STREET":" ","SECT":" ","MAREA":"七股","LANE":" ","ALLEY":" ","HOUSE_NO":"４９號","E_COORD97":160899.32999999999,"N_COORD97":2559365.0800000001,"ADDRESS":"七股４９號","OBJECTID":151787},"geometry":{"x":160899.33000000007,"y":2559365.0799999982}},{"attributes":{"ID":151789,"DIS_CODE":0,"TOWNNAME":"七股區","LI":"七股里","LIN":"5鄰","STREET":" ","SECT":" ","MAREA":"七股","LANE":" ","ALLEY":" ","HOUSE_NO":"５２號之２","E_COORD97":160840.57999999999,"N_COORD97":2559334.0299999998,"ADDRESS":"七股５２號之２","OBJECTID":151788},"geometry":{"x":160840.58000000194,"y":2559334.0299999975}},{"attributes":{"ID":151790,"DIS_CODE":0,"TOWNNAME":"七股區","LI":"七股里","LIN":"5鄰","STREET":" ","SECT":" ","MAREA":"七股","LANE":" ","ALLEY":" ","HOUSE_NO":"５２號之３","E_COORD97":160845.97,"N_COORD97":2559291.77,"ADDRESS":"七股５２號之３","OBJECTID":151789},"geometry":{"x":160845.9700000016,"y":2559291.7699999996}},{"attributes":{"ID":151791,"DIS_CODE":0,"TOWNNAME":"七股區","LI":"七股里","LIN":"5鄰","STREET":" ","SECT":" ","MAREA":"七股","LANE":" ","ALLEY":" ","HOUSE_NO":"５２號","E_COORD97":160869.64999999999,"N_COORD97":2559338.1899999999,"ADDRESS":"七股５２號","OBJECTID":151790},"geometry":{"x":160869.6500000013,"y":2559338.1900000013}},{"attributes":{"ID":151792,"DIS_CODE":0,"TOWNNAME":"七股區","LI":"七股里","LIN":"5鄰","STREET":" ","SECT":" ","MAREA":"七股","LANE":" ","ALLEY":" ","HOUSE_NO":"５５號之１","E_COORD97":160947.35000000001,"N_COORD97":2559303.25,"ADDRESS":"七股５５號之１","OBJECTID":151791},"geometry":{"x":160947.35000000056,"y":2559303.2500000037}},{"attributes":{"ID":151793,"DIS_CODE":0,"TOWNNAME":"七股區","LI":"七股里","LIN":"5鄰","STREET":" ","SECT":" ","MAREA":"七股","LANE":" ","ALLEY":" ","HOUSE_NO":"５５號之２","E_COORD97":160963.63,"N_COORD97":2559295.02,"ADDRESS":"七股５５號之２","OBJECTID":151792},"geometry":{"x":160963.63000000175,"y":2559295.0200000014}},{"attributes":{"ID":151794,"DIS_CODE":0,"TOWNNAME":"七股區","LI":"竹橋里","LIN":"5鄰","STREET":" ","SECT":" ","MAREA":"竹橋","LANE":" ","ALLEY":" ","HOUSE_NO":"７１號","E_COORD97":164026.45999999999,"N_COORD97":2555798.3999999999,"ADDRESS":"竹橋７１號","OBJECTID":151793},"geometry":{"x":164026.46000000183,"y":2555798.4000000022}},{"attributes":{"ID":151795,"DIS_CODE":0,"TOWNNAME":"七股區","LI":"七股里","LIN":"5鄰","STREET":" ","SECT":" ","MAREA":"七股","LANE":" ","ALLEY":" ","HOUSE_NO":"５５號之３","E_COORD97":160919.29999999999,"N_COORD97":2559305.73,"ADDRESS":"七股５５號之３","OBJECTID":151794},"geometry":{"x":160919.29999999981,"y":2559305.7300000004}},{"attributes":{"ID":151796,"DIS_CODE":0,"TOWNNAME":"七股區","LI":"七股里","LIN":"5鄰","STREET":" ","SECT":" ","MAREA":"七股","LANE":" ","ALLEY":" ","HOUSE_NO":"５５號","E_COORD97":160946.67000000001,"N_COORD97":2559271.4300000002,"ADDRESS":"七股５５號","OBJECTID":151795},"geometry":{"x":160946.67000000086,"y":2559271.4300000016}},{"attributes":{"ID":151797,"DIS_CODE":0,"TOWNNAME":"七股區","LI":"十份里","LIN":"5鄰","STREET":" ","SECT":" ","MAREA":"十份","LANE":" ","ALLEY":" ","HOUSE_NO":"２５號之１０","E_COORD97":158381.81,"N_COORD97":2554973.96,"ADDRESS":"十份２５號之１０","OBJECTID":151796},"geometry":{"x":158381.80999999959,"y":2554973.9600000028}},{"attributes":{"ID":151798,"DIS_CODE":0,"TOWNNAME":"七股區","LI":"十份里","LIN":"5鄰","STREET":" ","SECT":" ","MAREA":"十份","LANE":" ","ALLEY":" ","HOUSE_NO":"２５號之１１","E_COORD97":158382.14000000001,"N_COORD97":2554994.0499999998,"ADDRESS":"十份２５號之１１","OBJECTID":151797},"geometry":{"x":158382.1400000006,"y":2554994.0500000026}},{"attributes":{"ID":151799,"DIS_CODE":0,"TOWNNAME":"七股區","LI":"十份里","LIN":"5鄰","STREET":" ","SECT":" ","MAREA":"十份","LANE":" ","ALLEY":" ","HOUSE_NO":"２５號之１２","E_COORD97":158381.76999999999,"N_COORD97":2554989.5099999998,"ADDRESS":"十份２５號之１２","OBJECTID":151798},"geometry":{"x":158381.76999999955,"y":2554989.5100000016}},{"attributes":{"ID":151800,"DIS_CODE":0,"TOWNNAME":"七股區","LI":"十份里","LIN":"5鄰","STREET":" ","SECT":" ","MAREA":"十份","LANE":" ","ALLEY":" ","HOUSE_NO":"２５號之１３","E_COORD97":158381.39000000001,"N_COORD97":2554984.9700000002,"ADDRESS":"十份２５號之１３","OBJECTID":151799},"geometry":{"x":158381.38999999966,"y":2554984.9700000007}},{"attributes":{"ID":151801,"DIS_CODE":0,"TOWNNAME":"七股區","LI":"十份里","LIN":"5鄰","STREET":" ","SECT":" ","MAREA":"十份","LANE":" ","ALLEY":" ","HOUSE_NO":"２５號之１４","E_COORD97":158381.01999999999,"N_COORD97":2554980.4300000002,"ADDRESS":"十份２５號之１４","OBJECTID":151800},"geometry":{"x":158381.02000000048,"y":2554980.4299999997}}]}