{"displayFieldName":"TOWNNAME","fieldAliases":{"ID":"ID","DIS_CODE":"DIS_CODE","TOWNNAME":"TOWNNAME","LI":"LI","LIN":"LIN","STREET":"STREET","SECT":"SECT","MAREA":"MAREA","LANE":"LANE","ALLEY":"ALLEY","HOUSE_NO":"HOUSE_NO","E_COORD97":"E_COORD97","N_COORD97":"N_COORD97","ADDRESS":"ADDRESS","OBJECTID":"OBJECTID"},"geometryType":"esriGeometryPoint","spatialReference":{"wkid":102443,"latestWkid":3826},"fields":[{"name":"ID","type":"esriFieldTypeDouble","alias":"ID"},{"name":"DIS_CODE","type":"esriFieldTypeInteger","alias":"DIS_CODE"},{"name":"TOWNNAME","type":"esriFieldTypeString","alias":"TOWNNAME","length":8},{"name":"LI","type":"esriFieldTypeString","alias":"LI","length":8},{"name":"LIN","type":"esriFieldTypeString","alias":"LIN","length":12},{"name":"STREET","type":"esriFieldTypeString","alias":"STREET","length":20},{"name":"SECT","type":"esriFieldTypeString","alias":"SECT","length":8},{"name":"MAREA","type":"esriFieldTypeString","alias":"MAREA","length":12},{"name":"LANE","type":"esriFieldTypeString","alias":"LANE","length":10},{"name":"ALLEY","type":"esriFieldTypeString","alias":"ALLEY","length":10},{"name":"HOUSE_NO","type":"esriFieldTypeString","alias":"HOUSE_NO","length":20},{"name":"E_COORD97","type":"esriFieldTypeDouble","alias":"E_COORD97"},{"name":"N_COORD97","type":"esriFieldTypeDouble","alias":"N_COORD97"},{"name":"ADDRESS","type":"esriFieldTypeString","alias":"ADDRESS","length":50},{"name":"OBJECTID","type":"esriFieldTypeOID","alias":"OBJECTID"}],"features":[{"attributes":{"ID":654428,"DIS_CODE":0,"TOWNNAME":"仁德區","LI":"新田里","LIN":"17鄰","STREET":"北保東路","SECT":" ","MAREA":" ","LANE":"４６巷","ALLEY":" ","HOUSE_NO":"２５號","E_COORD97":173546.42254,"N_COORD97":2539323.6291700001,"ADDRESS":"北保東路４６巷２５號","OBJECTID":654401},"geometry":{"x":173546.42254000064,"y":2539323.6291700006}},{"attributes":{"ID":654429,"DIS_CODE":0,"TOWNNAME":"鹽水區","LI":"大豐里","LIN":"9鄰","STREET":" ","SECT":" ","MAREA":"大豊","LANE":" ","ALLEY":" ","HOUSE_NO":"９２號","E_COORD97":170385.80436499999,"N_COORD97":2573860.855,"ADDRESS":"大豊９２號","OBJECTID":654402},"geometry":{"x":170385.80436499976,"y":2573860.8549990021}},{"attributes":{"ID":654430,"DIS_CODE":0,"TOWNNAME":"仁德區","LI":"上崙里","LIN":"15鄰","STREET":"德崙路","SECT":" ","MAREA":" ","LANE":" ","ALLEY":" ","HOUSE_NO":"３９０之１號","E_COORD97":174060.971926,"N_COORD97":2538097.6681400002,"ADDRESS":"德崙路３９０之１號","OBJECTID":654403},"geometry":{"x":174060.97192599997,"y":2538097.668141}},{"attributes":{"ID":654431,"DIS_CODE":0,"TOWNNAME":"安南區","LI":"溪心里","LIN":"11鄰","STREET":"海佃路","SECT":"三段","MAREA":" ","LANE":" ","ALLEY":" ","HOUSE_NO":"２７號之３","E_COORD97":166335.24754499999,"N_COORD97":2549890.1503599999,"ADDRESS":"海佃路三段２７號之３","OBJECTID":654404},"geometry":{"x":166335.2475450011,"y":2549890.1503640004}},{"attributes":{"ID":654432,"DIS_CODE":0,"TOWNNAME":"仁德區","LI":"上崙里","LIN":"15鄰","STREET":"德崙路","SECT":" ","MAREA":" ","LANE":"３９６巷","ALLEY":" ","HOUSE_NO":"２號","E_COORD97":174069.87056000001,"N_COORD97":2538068.3523200001,"ADDRESS":"德崙路３９６巷２號","OBJECTID":654405},"geometry":{"x":174069.87055999972,"y":2538068.3523229994}},{"attributes":{"ID":654433,"DIS_CODE":0,"TOWNNAME":"鹽水區","LI":"大豐里","LIN":"9鄰","STREET":" ","SECT":" ","MAREA":"大豐","LANE":" ","ALLEY":" ","HOUSE_NO":"８９號","E_COORD97":170437.71188300001,"N_COORD97":2573780.5275400002,"ADDRESS":"大豐８９號","OBJECTID":654406},"geometry":{"x":170437.7118830001,"y":2573780.5275420006}},{"attributes":{"ID":654434,"DIS_CODE":0,"TOWNNAME":"仁德區","LI":"新田里","LIN":"17鄰","STREET":"北保東路","SECT":" ","MAREA":" ","LANE":"４６巷","ALLEY":" ","HOUSE_NO":"８號","E_COORD97":173479.90670600001,"N_COORD97":2539334.0008299998,"ADDRESS":"北保東路４６巷８號","OBJECTID":654407},"geometry":{"x":173479.90670599975,"y":2539334.0008320007}},{"attributes":{"ID":654435,"DIS_CODE":0,"TOWNNAME":"鹽水區","LI":"大豐里","LIN":"9鄰","STREET":" ","SECT":" ","MAREA":"大豐","LANE":" ","ALLEY":" ","HOUSE_NO":"８７號","E_COORD97":170439.618689,"N_COORD97":2573772.0608799998,"ADDRESS":"大豐８７號","OBJECTID":654408},"geometry":{"x":170439.61868899968,"y":2573772.0608799998}},{"attributes":{"ID":654436,"DIS_CODE":0,"TOWNNAME":"仁德區","LI":"後壁里","LIN":"13鄰","STREET":"德善路","SECT":" ","MAREA":" ","LANE":"１０８巷","ALLEY":" ","HOUSE_NO":"１３號","E_COORD97":173487.74010600001,"N_COORD97":2538809.8618800002,"ADDRESS":"德善路１０８巷１３號","OBJECTID":654409},"geometry":{"x":173487.74010599963,"y":2538809.8618780002}},{"attributes":{"ID":654437,"DIS_CODE":0,"TOWNNAME":"仁德區","LI":"仁義里","LIN":"12鄰","STREET":"中山路","SECT":" ","MAREA":" ","LANE":"１０巷","ALLEY":" ","HOUSE_NO":"１６號","E_COORD97":175283.071631,"N_COORD97":2541312.7910099998,"ADDRESS":"中山路１０巷１６號","OBJECTID":654410},"geometry":{"x":175283.07163099945,"y":2541312.7910110019}},{"attributes":{"ID":654438,"DIS_CODE":0,"TOWNNAME":"安南區","LI":"城南里","LIN":"16鄰","STREET":"青砂街","SECT":"一段","MAREA":" ","LANE":"２８１巷","ALLEY":" ","HOUSE_NO":"１７５號","E_COORD97":160206.06051499999,"N_COORD97":2552240.75141,"ADDRESS":"青砂街一段２８１巷１７５號","OBJECTID":654411},"geometry":{"x":160206.06051499955,"y":2552240.7514060028}},{"attributes":{"ID":654439,"DIS_CODE":0,"TOWNNAME":"仁德區","LI":"土庫里","LIN":"4鄰","STREET":"中正路","SECT":"三段","MAREA":" ","LANE":"５２３巷","ALLEY":" ","HOUSE_NO":"８７號","E_COORD97":173627.93199300001,"N_COORD97":2543059.4190199999,"ADDRESS":"中正路三段５２３巷８７號","OBJECTID":654412},"geometry":{"x":173627.93199299928,"y":2543059.4190229997}},{"attributes":{"ID":654440,"DIS_CODE":0,"TOWNNAME":"善化區","LI":"光文里","LIN":"28鄰","STREET":"建國路","SECT":" ","MAREA":" ","LANE":"２３１巷","ALLEY":" ","HOUSE_NO":"３６號","E_COORD97":177826.95951700001,"N_COORD97":2559217.55913,"ADDRESS":"建國路２３１巷３６號","OBJECTID":654413},"geometry":{"x":177826.95951700117,"y":2559217.5591289997}},{"attributes":{"ID":654441,"DIS_CODE":0,"TOWNNAME":"鹽水區","LI":"大豐里","LIN":"10鄰","STREET":" ","SECT":" ","MAREA":"大豊","LANE":" ","ALLEY":" ","HOUSE_NO":"１０１之１號","E_COORD97":170327.75269200001,"N_COORD97":2573710.9950799998,"ADDRESS":"大豊１０１之１號","OBJECTID":654414},"geometry":{"x":170327.75269200187,"y":2573710.9950790014}},{"attributes":{"ID":654442,"DIS_CODE":0,"TOWNNAME":"仁德區","LI":"仁義里","LIN":"12鄰","STREET":"中山路","SECT":" ","MAREA":" ","LANE":"１０巷","ALLEY":" ","HOUSE_NO":"１８號","E_COORD97":175164.09103099999,"N_COORD97":2541268.3410399999,"ADDRESS":"中山路１０巷１８號","OBJECTID":654415},"geometry":{"x":175164.09103100002,"y":2541268.341035001}},{"attributes":{"ID":654443,"DIS_CODE":0,"TOWNNAME":"善化區","LI":"光文里","LIN":"28鄰","STREET":"建國路","SECT":" ","MAREA":" ","LANE":"２３１巷","ALLEY":" ","HOUSE_NO":"３８號","E_COORD97":177821.45299200001,"N_COORD97":2559215.8657999998,"ADDRESS":"建國路２３１巷３８號","OBJECTID":654416},"geometry":{"x":177821.45299200062,"y":2559215.8657960016}},{"attributes":{"ID":654444,"DIS_CODE":0,"TOWNNAME":"下營區","LI":"中營里","LIN":"13鄰","STREET":" ","SECT":" ","MAREA":"中營","LANE":" ","ALLEY":" ","HOUSE_NO":"１１９７號","E_COORD97":175977.56182100001,"N_COORD97":2568297.27079,"ADDRESS":"中營１１９７號","OBJECTID":654417},"geometry":{"x":175977.56182100158,"y":2568297.2707880009}},{"attributes":{"ID":654445,"DIS_CODE":0,"TOWNNAME":"仁德區","LI":"仁義里","LIN":"12鄰","STREET":"中山路","SECT":" ","MAREA":" ","LANE":"１０巷","ALLEY":" ","HOUSE_NO":"５５之１號","E_COORD97":175074.802559,"N_COORD97":2541217.3294000002,"ADDRESS":"中山路１０巷５５之１號","OBJECTID":654418},"geometry":{"x":175074.80255900044,"y":2541217.3293960039}},{"attributes":{"ID":654446,"DIS_CODE":0,"TOWNNAME":"仁德區","LI":"土庫里","LIN":"5鄰","STREET":"土庫六街","SECT":" ","MAREA":" ","LANE":"７５巷","ALLEY":" ","HOUSE_NO":"１６號","E_COORD97":174117.89931000001,"N_COORD97":2543229.7047600001,"ADDRESS":"土庫六街７５巷１６號","OBJECTID":654419},"geometry":{"x":174117.89931000117,"y":2543229.7047640029}},{"attributes":{"ID":654447,"DIS_CODE":0,"TOWNNAME":"仁德區","LI":"土庫里","LIN":"5鄰","STREET":"土庫六街","SECT":" ","MAREA":" ","LANE":"７５巷","ALLEY":" ","HOUSE_NO":"２０號","E_COORD97":174119.38149299999,"N_COORD97":2543205.99811,"ADDRESS":"土庫六街７５巷２０號","OBJECTID":654420},"geometry":{"x":174119.38149300124,"y":2543205.9981100019}},{"attributes":{"ID":654448,"DIS_CODE":0,"TOWNNAME":"安南區","LI":"溪心里","LIN":"11鄰","STREET":"安吉路","SECT":"一段","MAREA":" ","LANE":" ","ALLEY":" ","HOUSE_NO":"６７９號","E_COORD97":166968.686712,"N_COORD97":2550405.8095800001,"ADDRESS":"安吉路一段６７９號","OBJECTID":654421},"geometry":{"x":166968.68671200052,"y":2550405.809580002}},{"attributes":{"ID":654449,"DIS_CODE":0,"TOWNNAME":"仁德區","LI":"仁義里","LIN":"12鄰","STREET":"中山路","SECT":" ","MAREA":" ","LANE":" ","ALLEY":" ","HOUSE_NO":"１６之１號","E_COORD97":175197.91884900001,"N_COORD97":2541131.3927799999,"ADDRESS":"中山路１６之１號","OBJECTID":654422},"geometry":{"x":175197.91884899978,"y":2541131.3927759975}},{"attributes":{"ID":654450,"DIS_CODE":0,"TOWNNAME":"仁德區","LI":"新田里","LIN":"17鄰","STREET":"民安路","SECT":"二段","MAREA":" ","LANE":"８１巷","ALLEY":" ","HOUSE_NO":"１６號","E_COORD97":173574.525475,"N_COORD97":2539251.31012,"ADDRESS":"民安路二段８１巷１６號","OBJECTID":654423},"geometry":{"x":173574.52547500003,"y":2539251.3101250026}},{"attributes":{"ID":654451,"DIS_CODE":0,"TOWNNAME":"仁德區","LI":"土庫里","LIN":"16鄰","STREET":"土庫一街","SECT":" ","MAREA":" ","LANE":"７１１巷","ALLEY":" ","HOUSE_NO":"１２號","E_COORD97":174705.984383,"N_COORD97":2542805.5605100002,"ADDRESS":"土庫一街７１１巷１２號","OBJECTID":654424},"geometry":{"x":174705.98438300099,"y":2542805.5605110005}},{"attributes":{"ID":654452,"DIS_CODE":0,"TOWNNAME":"安南區","LI":"溪心里","LIN":"3鄰","STREET":"安中路","SECT":"二段","MAREA":" ","LANE":"２９６巷","ALLEY":" ","HOUSE_NO":"１９９號之１２５","E_COORD97":166689.98637900001,"N_COORD97":2550314.5415400001,"ADDRESS":"安中路二段２９６巷１９９號之１２５","OBJECTID":654425},"geometry":{"x":166689.98637900129,"y":2550314.5415440015}},{"attributes":{"ID":654453,"DIS_CODE":0,"TOWNNAME":"仁德區","LI":"仁義里","LIN":"12鄰","STREET":"中山路","SECT":" ","MAREA":" ","LANE":" ","ALLEY":" ","HOUSE_NO":"１６號","E_COORD97":175172.52579700001,"N_COORD97":2541119.5615099999,"ADDRESS":"中山路１６號","OBJECTID":654426},"geometry":{"x":175172.52579700109,"y":2541119.5615110006}},{"attributes":{"ID":654454,"DIS_CODE":0,"TOWNNAME":"仁德區","LI":"後壁里","LIN":"13鄰","STREET":"德善路","SECT":" ","MAREA":" ","LANE":"１３４巷","ALLEY":"８弄","HOUSE_NO":"８號","E_COORD97":173516.465211,"N_COORD97":2538797.38093,"ADDRESS":"德善路１３４巷８弄８號","OBJECTID":654427},"geometry":{"x":173516.46521100216,"y":2538797.3809250016}},{"attributes":{"ID":654455,"DIS_CODE":0,"TOWNNAME":"仁德區","LI":"後壁里","LIN":"13鄰","STREET":"德善路","SECT":" ","MAREA":" ","LANE":"１３４巷","ALLEY":"８弄","HOUSE_NO":"１０號","E_COORD97":173513.072445,"N_COORD97":2538778.1192700001,"ADDRESS":"德善路１３４巷８弄１０號","OBJECTID":654428},"geometry":{"x":173513.07244500052,"y":2538778.1192689985}},{"attributes":{"ID":654456,"DIS_CODE":0,"TOWNNAME":"仁德區","LI":"新田里","LIN":"17鄰","STREET":"民安路","SECT":"二段","MAREA":" ","LANE":"８１巷","ALLEY":" ","HOUSE_NO":"１８號","E_COORD97":173582.78699600001,"N_COORD97":2539252.4742899998,"ADDRESS":"民安路二段８１巷１８號","OBJECTID":654429},"geometry":{"x":173582.78699600138,"y":2539252.4742910024}},{"attributes":{"ID":654457,"DIS_CODE":0,"TOWNNAME":"下營區","LI":"中營里","LIN":"14鄰","STREET":" ","SECT":" ","MAREA":"中營","LANE":" ","ALLEY":" ","HOUSE_NO":"１２１３號","E_COORD97":175912.60829,"N_COORD97":2568287.7832499999,"ADDRESS":"中營１２１３號","OBJECTID":654430},"geometry":{"x":175912.60829000175,"y":2568287.7832540013}},{"attributes":{"ID":654458,"DIS_CODE":0,"TOWNNAME":"下營區","LI":"中營里","LIN":"14鄰","STREET":" ","SECT":" ","MAREA":"中營","LANE":" ","ALLEY":" ","HOUSE_NO":"１２１５號","E_COORD97":175911.54892900001,"N_COORD97":2568299.8482499998,"ADDRESS":"中營１２１５號","OBJECTID":654431},"geometry":{"x":175911.5489290012,"y":2568299.8482479975}},{"attributes":{"ID":654459,"DIS_CODE":0,"TOWNNAME":"鹽水區","LI":"大豐里","LIN":"10鄰","STREET":" ","SECT":" ","MAREA":"大豊","LANE":" ","ALLEY":" ","HOUSE_NO":"１０１號","E_COORD97":170336.75698199999,"N_COORD97":2573713.6144500002,"ADDRESS":"大豊１０１號","OBJECTID":654432},"geometry":{"x":170336.75698199961,"y":2573713.6144530009}},{"attributes":{"ID":654460,"DIS_CODE":0,"TOWNNAME":"鹽水區","LI":"大豐里","LIN":"10鄰","STREET":" ","SECT":" ","MAREA":"大豊","LANE":" ","ALLEY":" ","HOUSE_NO":"１０３號","E_COORD97":170337.39258399999,"N_COORD97":2573763.6735899998,"ADDRESS":"大豊１０３號","OBJECTID":654433},"geometry":{"x":170337.39258400165,"y":2573763.6735929996}},{"attributes":{"ID":654461,"DIS_CODE":0,"TOWNNAME":"仁德區","LI":"新田里","LIN":"17鄰","STREET":"民安路","SECT":"二段","MAREA":" ","LANE":"８１巷","ALLEY":" ","HOUSE_NO":"２１號","E_COORD97":173561.81544199999,"N_COORD97":2539275.2284499998,"ADDRESS":"民安路二段８１巷２１號","OBJECTID":654434},"geometry":{"x":173561.81544199865,"y":2539275.2284460012}},{"attributes":{"ID":654462,"DIS_CODE":0,"TOWNNAME":"仁德區","LI":"仁義里","LIN":"12鄰","STREET":"中山路","SECT":" ","MAREA":" ","LANE":"２巷","ALLEY":" ","HOUSE_NO":"３號","E_COORD97":175293.52122,"N_COORD97":2541154.27483,"ADDRESS":"中山路２巷３號","OBJECTID":654435},"geometry":{"x":175293.52122000139,"y":2541154.2748260014}},{"attributes":{"ID":654463,"DIS_CODE":0,"TOWNNAME":"仁德區","LI":"新田里","LIN":"17鄰","STREET":"民安路","SECT":"二段","MAREA":" ","LANE":"８１巷","ALLEY":" ","HOUSE_NO":"２３號","E_COORD97":173567.11128899999,"N_COORD97":2539275.0167800002,"ADDRESS":"民安路二段８１巷２３號","OBJECTID":654436},"geometry":{"x":173567.11128900014,"y":2539275.0167789999}},{"attributes":{"ID":654464,"DIS_CODE":0,"TOWNNAME":"仁德區","LI":"後壁里","LIN":"14鄰","STREET":"德善路","SECT":" ","MAREA":" ","LANE":"１３４巷","ALLEY":" ","HOUSE_NO":"１３號","E_COORD97":173581.51091000001,"N_COORD97":2538787.3796799998,"ADDRESS":"德善路１３４巷１３號","OBJECTID":654437},"geometry":{"x":173581.51091000065,"y":2538787.3796810023}},{"attributes":{"ID":654465,"DIS_CODE":0,"TOWNNAME":"仁德區","LI":"新田里","LIN":"17鄰","STREET":"民安路","SECT":"二段","MAREA":" ","LANE":"８１巷","ALLEY":" ","HOUSE_NO":"２５號","E_COORD97":173571.771634,"N_COORD97":2539274.3817799999,"ADDRESS":"民安路二段８１巷２５號","OBJECTID":654438},"geometry":{"x":173571.77163399942,"y":2539274.3817800004}},{"attributes":{"ID":654466,"DIS_CODE":0,"TOWNNAME":"仁德區","LI":"新田里","LIN":"17鄰","STREET":"民安路","SECT":"二段","MAREA":" ","LANE":"８１巷","ALLEY":" ","HOUSE_NO":"２７號","E_COORD97":173576.85564699999,"N_COORD97":2539274.8051100001,"ADDRESS":"民安路二段８１巷２７號","OBJECTID":654439},"geometry":{"x":173576.85564699955,"y":2539274.8051129989}},{"attributes":{"ID":654467,"DIS_CODE":0,"TOWNNAME":"仁德區","LI":"仁義里","LIN":"12鄰","STREET":"中山路","SECT":" ","MAREA":" ","LANE":"４０巷","ALLEY":" ","HOUSE_NO":"５號","E_COORD97":174945.38101400001,"N_COORD97":2541228.56978,"ADDRESS":"中山路４０巷５號","OBJECTID":654440},"geometry":{"x":174945.38101399969,"y":2541228.5697849989}},{"attributes":{"ID":654468,"DIS_CODE":0,"TOWNNAME":"仁德區","LI":"新田里","LIN":"17鄰","STREET":"民安路","SECT":"二段","MAREA":" ","LANE":"８１巷","ALLEY":" ","HOUSE_NO":"２９號","E_COORD97":173582.15149399999,"N_COORD97":2539274.1701099998,"ADDRESS":"民安路二段８１巷２９號","OBJECTID":654441},"geometry":{"x":173582.15149400104,"y":2539274.1701130029}},{"attributes":{"ID":654469,"DIS_CODE":0,"TOWNNAME":"仁德區","LI":"新田里","LIN":"17鄰","STREET":"民安路","SECT":"二段","MAREA":" ","LANE":"８１巷","ALLEY":" ","HOUSE_NO":"３１號","E_COORD97":173587.235507,"N_COORD97":2539274.1701099998,"ADDRESS":"民安路二段８１巷３１號","OBJECTID":654442},"geometry":{"x":173587.23550700117,"y":2539274.1701130029}},{"attributes":{"ID":654470,"DIS_CODE":0,"TOWNNAME":"仁德區","LI":"土庫里","LIN":"8鄰","STREET":"土庫路","SECT":" ","MAREA":" ","LANE":" ","ALLEY":" ","HOUSE_NO":"１２之２號","E_COORD97":174200.771756,"N_COORD97":2543372.00666,"ADDRESS":"土庫路１２之２號","OBJECTID":654443},"geometry":{"x":174200.77175599989,"y":2543372.0066630002}},{"attributes":{"ID":654471,"DIS_CODE":0,"TOWNNAME":"鹽水區","LI":"大豐里","LIN":"10鄰","STREET":" ","SECT":" ","MAREA":"大豊","LANE":" ","ALLEY":" ","HOUSE_NO":"８３號","E_COORD97":170360.698,"N_COORD97":2573740.8136,"ADDRESS":"大豊８３號","OBJECTID":654444},"geometry":{"x":170360.69800000079,"y":2573740.8136049993}},{"attributes":{"ID":654472,"DIS_CODE":0,"TOWNNAME":"仁德區","LI":"仁義里","LIN":"12鄰","STREET":"中山路","SECT":" ","MAREA":" ","LANE":" ","ALLEY":" ","HOUSE_NO":"４２號","E_COORD97":174932.01955600001,"N_COORD97":2541141.3631699998,"ADDRESS":"中山路４２號","OBJECTID":654445},"geometry":{"x":174932.01955600083,"y":2541141.3631660026}},{"attributes":{"ID":654473,"DIS_CODE":0,"TOWNNAME":"仁德區","LI":"仁義里","LIN":"12鄰","STREET":"中山路","SECT":" ","MAREA":" ","LANE":"４８巷","ALLEY":" ","HOUSE_NO":"２號","E_COORD97":174875.60451199999,"N_COORD97":2541217.1397899999,"ADDRESS":"中山路４８巷２號","OBJECTID":654446},"geometry":{"x":174875.60451200046,"y":2541217.1397920009}},{"attributes":{"ID":654474,"DIS_CODE":0,"TOWNNAME":"仁德區","LI":"一甲里","LIN":"17鄰","STREET":"中清路","SECT":" ","MAREA":" ","LANE":"２４８巷","ALLEY":"１６弄","HOUSE_NO":"１８號","E_COORD97":173803.52516799999,"N_COORD97":2541729.0754900002,"ADDRESS":"中清路２４８巷１６弄１８號","OBJECTID":654447},"geometry":{"x":173803.52516800072,"y":2541729.0754889995}},{"attributes":{"ID":654475,"DIS_CODE":0,"TOWNNAME":"仁德區","LI":"一甲里","LIN":"17鄰","STREET":"中清路","SECT":" ","MAREA":" ","LANE":"２４８巷","ALLEY":" ","HOUSE_NO":"３８號","E_COORD97":173883.41454699999,"N_COORD97":2541726.6413199999,"ADDRESS":"中清路２４８巷３８號","OBJECTID":654448},"geometry":{"x":173883.41454700008,"y":2541726.6413230002}},{"attributes":{"ID":654476,"DIS_CODE":0,"TOWNNAME":"仁德區","LI":"一甲里","LIN":"20鄰","STREET":"太乙三街","SECT":" ","MAREA":" ","LANE":" ","ALLEY":" ","HOUSE_NO":"４８號","E_COORD97":173328.427054,"N_COORD97":2542323.5410000002,"ADDRESS":"太乙三街４８號","OBJECTID":654449},"geometry":{"x":173328.42705400195,"y":2542323.5410010014}},{"attributes":{"ID":654477,"DIS_CODE":0,"TOWNNAME":"仁德區","LI":"一甲里","LIN":"20鄰","STREET":"太乙三街","SECT":" ","MAREA":" ","LANE":" ","ALLEY":" ","HOUSE_NO":"４６號","E_COORD97":173329.69850299999,"N_COORD97":2542337.2993299998,"ADDRESS":"太乙三街４６號","OBJECTID":654450},"geometry":{"x":173329.6985029988,"y":2542337.2993270028}},{"attributes":{"ID":654478,"DIS_CODE":0,"TOWNNAME":"仁德區","LI":"一甲里","LIN":"20鄰","STREET":"太乙三街","SECT":" ","MAREA":" ","LANE":" ","ALLEY":" ","HOUSE_NO":"４０號","E_COORD97":173332.877125,"N_COORD97":2542349.7876499998,"ADDRESS":"太乙三街４０號","OBJECTID":654451},"geometry":{"x":173332.87712500151,"y":2542349.7876539994}},{"attributes":{"ID":654479,"DIS_CODE":0,"TOWNNAME":"仁德區","LI":"一甲里","LIN":"20鄰","STREET":"太乙三街","SECT":" ","MAREA":" ","LANE":" ","ALLEY":" ","HOUSE_NO":"２６號","E_COORD97":173341.56536000001,"N_COORD97":2542408.8426199998,"ADDRESS":"太乙三街２６號","OBJECTID":654452},"geometry":{"x":173341.56535999943,"y":2542408.8426220026}},{"attributes":{"ID":654480,"DIS_CODE":0,"TOWNNAME":"仁德區","LI":"一甲里","LIN":"20鄰","STREET":"太乙三街","SECT":" ","MAREA":" ","LANE":" ","ALLEY":" ","HOUSE_NO":"２２號","E_COORD97":173343.89635,"N_COORD97":2542417.7326199999,"ADDRESS":"太乙三街２２號","OBJECTID":654453},"geometry":{"x":173343.89635000005,"y":2542417.7326170001}},{"attributes":{"ID":654481,"DIS_CODE":0,"TOWNNAME":"善化區","LI":"光文里","LIN":"28鄰","STREET":"建國路","SECT":" ","MAREA":" ","LANE":"２５１巷","ALLEY":" ","HOUSE_NO":"５號","E_COORD97":177878.99710400001,"N_COORD97":2559247.2865599999,"ADDRESS":"建國路２５１巷５號","OBJECTID":654454},"geometry":{"x":177878.99710400216,"y":2559247.2865570001}},{"attributes":{"ID":654482,"DIS_CODE":0,"TOWNNAME":"善化區","LI":"光文里","LIN":"28鄰","STREET":"建國路","SECT":" ","MAREA":" ","LANE":"２５１巷","ALLEY":" ","HOUSE_NO":"９號","E_COORD97":177870.310241,"N_COORD97":2559247.0748899998,"ADDRESS":"建國路２５１巷９號","OBJECTID":654455},"geometry":{"x":177870.31024100073,"y":2559247.0748899989}},{"attributes":{"ID":654483,"DIS_CODE":0,"TOWNNAME":"善化區","LI":"光文里","LIN":"28鄰","STREET":"建國路","SECT":" ","MAREA":" ","LANE":"２５１巷","ALLEY":" ","HOUSE_NO":"１１號","E_COORD97":177866.32015499999,"N_COORD97":2559244.7639799998,"ADDRESS":"建國路２５１巷１１號","OBJECTID":654456},"geometry":{"x":177866.32015500031,"y":2559244.7639760021}},{"attributes":{"ID":654484,"DIS_CODE":0,"TOWNNAME":"善化區","LI":"光文里","LIN":"28鄰","STREET":"建國路","SECT":" ","MAREA":" ","LANE":"２５１巷","ALLEY":" ","HOUSE_NO":"１３號","E_COORD97":177862.08266099999,"N_COORD97":2559242.85898,"ADDRESS":"建國路２５１巷１３號","OBJECTID":654457},"geometry":{"x":177862.08266100101,"y":2559242.858977003}},{"attributes":{"ID":654485,"DIS_CODE":0,"TOWNNAME":"善化區","LI":"光文里","LIN":"28鄰","STREET":"建國路","SECT":" ","MAREA":" ","LANE":"２５１巷","ALLEY":" ","HOUSE_NO":"１５號","E_COORD97":177857.209542,"N_COORD97":2559243.07064,"ADDRESS":"建國路２５１巷１５號","OBJECTID":654458},"geometry":{"x":177857.20954199973,"y":2559243.0706440005}},{"attributes":{"ID":654486,"DIS_CODE":0,"TOWNNAME":"善化區","LI":"光文里","LIN":"28鄰","STREET":"建國路","SECT":" ","MAREA":" ","LANE":"２５１巷","ALLEY":" ","HOUSE_NO":"１７號","E_COORD97":177853.183923,"N_COORD97":2559243.7056399998,"ADDRESS":"建國路２５１巷１７號","OBJECTID":654459},"geometry":{"x":177853.18392300047,"y":2559243.7056430001}},{"attributes":{"ID":654487,"DIS_CODE":0,"TOWNNAME":"善化區","LI":"光文里","LIN":"28鄰","STREET":"建國路","SECT":" ","MAREA":" ","LANE":"２５１巷","ALLEY":" ","HOUSE_NO":"１９號","E_COORD97":177847.67517999999,"N_COORD97":2559242.2239799998,"ADDRESS":"建國路２５１巷１９號","OBJECTID":654460},"geometry":{"x":177847.67518000118,"y":2559242.2239769995}},{"attributes":{"ID":654488,"DIS_CODE":0,"TOWNNAME":"善化區","LI":"光文里","LIN":"28鄰","STREET":"建國路","SECT":" ","MAREA":" ","LANE":"２５１巷","ALLEY":" ","HOUSE_NO":"２１號","E_COORD97":177844.28518499999,"N_COORD97":2559243.07064,"ADDRESS":"建國路２５１巷２１號","OBJECTID":654461},"geometry":{"x":177844.28518499993,"y":2559243.0706440005}},{"attributes":{"ID":654489,"DIS_CODE":0,"TOWNNAME":"善化區","LI":"光文里","LIN":"28鄰","STREET":"建國路","SECT":" ","MAREA":" ","LANE":"２５１巷","ALLEY":" ","HOUSE_NO":"２３號","E_COORD97":177840.04769000001,"N_COORD97":2559240.31898,"ADDRESS":"建國路２５１巷２３號","OBJECTID":654462},"geometry":{"x":177840.04769000132,"y":2559240.3189780042}},{"attributes":{"ID":654490,"DIS_CODE":0,"TOWNNAME":"善化區","LI":"光文里","LIN":"28鄰","STREET":"建國路","SECT":" ","MAREA":" ","LANE":"２５１巷","ALLEY":" ","HOUSE_NO":"７號","E_COORD97":177874.795143,"N_COORD97":2559248.5739699998,"ADDRESS":"建國路２５１巷７號","OBJECTID":654463},"geometry":{"x":177874.79514299892,"y":2559248.5739740022}},{"attributes":{"ID":654491,"DIS_CODE":0,"TOWNNAME":"善化區","LI":"光文里","LIN":"28鄰","STREET":"華中街","SECT":" ","MAREA":" ","LANE":" ","ALLEY":" ","HOUSE_NO":"２８號","E_COORD97":177824.36896200001,"N_COORD97":2559233.7573199999,"ADDRESS":"華中街２８號","OBJECTID":654464},"geometry":{"x":177824.36896200012,"y":2559233.7573150024}},{"attributes":{"ID":654492,"DIS_CODE":0,"TOWNNAME":"善化區","LI":"光文里","LIN":"28鄰","STREET":"華中街","SECT":" ","MAREA":" ","LANE":" ","ALLEY":" ","HOUSE_NO":"３０號","E_COORD97":177822.46208900001,"N_COORD97":2559238.8373099999,"ADDRESS":"華中街３０號","OBJECTID":654465},"geometry":{"x":177822.46208900213,"y":2559238.837313002}},{"attributes":{"ID":654493,"DIS_CODE":0,"TOWNNAME":"善化區","LI":"光文里","LIN":"28鄰","STREET":"華中街","SECT":" ","MAREA":" ","LANE":" ","ALLEY":" ","HOUSE_NO":"３２號","E_COORD97":177823.94521199999,"N_COORD97":2559243.9173099999,"ADDRESS":"華中街３２號","OBJECTID":654466},"geometry":{"x":177823.94521200005,"y":2559243.9173100013}},{"attributes":{"ID":654494,"DIS_CODE":0,"TOWNNAME":"善化區","LI":"光文里","LIN":"28鄰","STREET":"華中街","SECT":" ","MAREA":" ","LANE":" ","ALLEY":" ","HOUSE_NO":"３６號","E_COORD97":177823.309588,"N_COORD97":2559248.1506400001,"ADDRESS":"華中街３６號","OBJECTID":654467},"geometry":{"x":177823.30958800018,"y":2559248.1506409999}},{"attributes":{"ID":654495,"DIS_CODE":0,"TOWNNAME":"善化區","LI":"光文里","LIN":"28鄰","STREET":"和平路","SECT":" ","MAREA":" ","LANE":" ","ALLEY":" ","HOUSE_NO":"２３３之７號","E_COORD97":178026.709313,"N_COORD97":2559342.23642,"ADDRESS":"和平路２３３之７號","OBJECTID":654468},"geometry":{"x":178026.70931300055,"y":2559342.2364230026}},{"attributes":{"ID":654496,"DIS_CODE":0,"TOWNNAME":"仁德區","LI":"土庫里","LIN":"4鄰","STREET":"中正路","SECT":"三段","MAREA":" ","LANE":"５２３巷","ALLEY":" ","HOUSE_NO":"１０１號","E_COORD97":173480.89603999999,"N_COORD97":2543060.4773599999,"ADDRESS":"中正路三段５２３巷１０１號","OBJECTID":654469},"geometry":{"x":173480.89604000095,"y":2543060.4773549996}},{"attributes":{"ID":654497,"DIS_CODE":0,"TOWNNAME":"安南區","LI":"城東里","LIN":"13鄰","STREET":"城安路","SECT":" ","MAREA":" ","LANE":" ","ALLEY":" ","HOUSE_NO":"７３號","E_COORD97":160664.02416900001,"N_COORD97":2551896.42404,"ADDRESS":"城安路７３號","OBJECTID":654470},"geometry":{"x":160664.0241690008,"y":2551896.4240390006}},{"attributes":{"ID":654498,"DIS_CODE":0,"TOWNNAME":"安南區","LI":"城東里","LIN":"13鄰","STREET":"城安二街","SECT":" ","MAREA":" ","LANE":" ","ALLEY":" ","HOUSE_NO":"１２號","E_COORD97":160744.27099300001,"N_COORD97":2551811.7574200002,"ADDRESS":"城安二街１２號","OBJECTID":654471},"geometry":{"x":160744.2709929999,"y":2551811.7574179992}},{"attributes":{"ID":654499,"DIS_CODE":0,"TOWNNAME":"安南區","LI":"城東里","LIN":"13鄰","STREET":"城安二街","SECT":" ","MAREA":" ","LANE":" ","ALLEY":" ","HOUSE_NO":"１６號","E_COORD97":160738.34246799999,"N_COORD97":2551816.41408,"ADDRESS":"城安二街１６號","OBJECTID":654472},"geometry":{"x":160738.34246800095,"y":2551816.414082}},{"attributes":{"ID":654500,"DIS_CODE":0,"TOWNNAME":"安南區","LI":"城東里","LIN":"13鄰","STREET":"城安二街","SECT":" ","MAREA":" ","LANE":" ","ALLEY":" ","HOUSE_NO":"１８號","E_COORD97":160735.58993799999,"N_COORD97":2551807.9474200001,"ADDRESS":"城安二街１８號","OBJECTID":654473},"geometry":{"x":160735.58993800171,"y":2551807.947420001}},{"attributes":{"ID":654501,"DIS_CODE":0,"TOWNNAME":"安南區","LI":"城東里","LIN":"1鄰","STREET":"台江大道","SECT":"五段","MAREA":" ","LANE":" ","ALLEY":" ","HOUSE_NO":"５００號","E_COORD97":161554.14988800001,"N_COORD97":2552008.3956499998,"ADDRESS":"台江大道五段５００號","OBJECTID":654474},"geometry":{"x":161554.14988800138,"y":2552008.395645}},{"attributes":{"ID":654502,"DIS_CODE":0,"TOWNNAME":"仁德區","LI":"土庫里","LIN":"3鄰","STREET":"土庫路","SECT":" ","MAREA":" ","LANE":" ","ALLEY":" ","HOUSE_NO":"１２６之１號","E_COORD97":174345.09061300001,"N_COORD97":2543004.7561400002,"ADDRESS":"土庫路１２６之１號","OBJECTID":654475},"geometry":{"x":174345.09061300196,"y":2543004.756136002}},{"attributes":{"ID":654503,"DIS_CODE":0,"TOWNNAME":"西港區","LI":"南海里","LIN":"19鄰","STREET":" ","SECT":" ","MAREA":"中港","LANE":" ","ALLEY":" ","HOUSE_NO":"２０號","E_COORD97":167300.96809000001,"N_COORD97":2556533.8186400002,"ADDRESS":"中港２０號","OBJECTID":654476},"geometry":{"x":167300.96808999963,"y":2556533.818640003}},{"attributes":{"ID":654504,"DIS_CODE":0,"TOWNNAME":"安南區","LI":"佃西里","LIN":"3鄰","STREET":"公學路","SECT":"四段","MAREA":" ","LANE":" ","ALLEY":" ","HOUSE_NO":"２５０號","E_COORD97":165445.31825899999,"N_COORD97":2551881.5736600002,"ADDRESS":"公學路四段２５０號","OBJECTID":654477},"geometry":{"x":165445.31825899985,"y":2551881.5736570023}},{"attributes":{"ID":654505,"DIS_CODE":0,"TOWNNAME":"楠西區","LI":"密枝里","LIN":"3鄰","STREET":" ","SECT":" ","MAREA":"密枝","LANE":" ","ALLEY":" ","HOUSE_NO":"３２號之２","E_COORD97":200178,"N_COORD97":2566846,"ADDRESS":"密枝３２號之２","OBJECTID":654478},"geometry":{"x":200178.00000000093,"y":2566846.0000000019}},{"attributes":{"ID":654506,"DIS_CODE":0,"TOWNNAME":"楠西區","LI":"密枝里","LIN":"3鄰","STREET":" ","SECT":" ","MAREA":"密枝","LANE":" ","ALLEY":" ","HOUSE_NO":"３２號之５","E_COORD97":200185,"N_COORD97":2566865,"ADDRESS":"密枝３２號之５","OBJECTID":654479},"geometry":{"x":200185.00000000093,"y":2566864.9999999981}},{"attributes":{"ID":654507,"DIS_CODE":0,"TOWNNAME":"楠西區","LI":"密枝里","LIN":"3鄰","STREET":" ","SECT":" ","MAREA":"密枝","LANE":" ","ALLEY":" ","HOUSE_NO":"３２號之７","E_COORD97":200156,"N_COORD97":2566868,"ADDRESS":"密枝３２號之７","OBJECTID":654480},"geometry":{"x":200156.00000000093,"y":2566868}},{"attributes":{"ID":654508,"DIS_CODE":0,"TOWNNAME":"楠西區","LI":"密枝里","LIN":"3鄰","STREET":" ","SECT":" ","MAREA":"密枝","LANE":" ","ALLEY":" ","HOUSE_NO":"３２號之３","E_COORD97":200158,"N_COORD97":2566893,"ADDRESS":"密枝３２號之３","OBJECTID":654481},"geometry":{"x":200158.00000000093,"y":2566893.0000000019}},{"attributes":{"ID":654509,"DIS_CODE":0,"TOWNNAME":"楠西區","LI":"密枝里","LIN":"3鄰","STREET":" ","SECT":" ","MAREA":"密枝","LANE":" ","ALLEY":" ","HOUSE_NO":"３２號之６","E_COORD97":200152,"N_COORD97":2566860,"ADDRESS":"密枝３２號之６","OBJECTID":654482},"geometry":{"x":200152,"y":2566860.0000000019}},{"attributes":{"ID":654510,"DIS_CODE":0,"TOWNNAME":"楠西區","LI":"密枝里","LIN":"3鄰","STREET":" ","SECT":" ","MAREA":"密枝","LANE":" ","ALLEY":" ","HOUSE_NO":"３２號之８","E_COORD97":200142,"N_COORD97":2566879,"ADDRESS":"密枝３２號之８","OBJECTID":654483},"geometry":{"x":200142,"y":2566879.0000000037}},{"attributes":{"ID":654511,"DIS_CODE":0,"TOWNNAME":"楠西區","LI":"密枝里","LIN":"3鄰","STREET":" ","SECT":" ","MAREA":"密枝","LANE":" ","ALLEY":" ","HOUSE_NO":"３２號之９","E_COORD97":200138,"N_COORD97":2566890,"ADDRESS":"密枝３２號之９","OBJECTID":654484},"geometry":{"x":200138,"y":2566890.0000000019}},{"attributes":{"ID":654512,"DIS_CODE":0,"TOWNNAME":"楠西區","LI":"密枝里","LIN":"3鄰","STREET":" ","SECT":" ","MAREA":"密枝","LANE":" ","ALLEY":" ","HOUSE_NO":"３３號之２","E_COORD97":200193,"N_COORD97":2566897,"ADDRESS":"密枝３３號之２","OBJECTID":654485},"geometry":{"x":200193.00000000186,"y":2566897.0000000019}},{"attributes":{"ID":654513,"DIS_CODE":0,"TOWNNAME":"佳里區","LI":"興化里","LIN":"1鄰","STREET":" ","SECT":" ","MAREA":"佳里興","LANE":" ","ALLEY":" ","HOUSE_NO":"３８２號之５","E_COORD97":165344.50638100001,"N_COORD97":2565717.13099,"ADDRESS":"佳里興３８２號之５","OBJECTID":654486},"geometry":{"x":165344.50638100039,"y":2565717.1309930012}},{"attributes":{"ID":654514,"DIS_CODE":0,"TOWNNAME":"永康區","LI":"二王里","LIN":"3鄰","STREET":"二王路","SECT":" ","MAREA":" ","LANE":"１３５巷","ALLEY":"５３弄","HOUSE_NO":"１３號","E_COORD97":173094.447151,"N_COORD97":2546622.0309199998,"ADDRESS":"二王路１３５巷５３弄１３號","OBJECTID":654487},"geometry":{"x":173094.44715100061,"y":2546622.0309240036}},{"attributes":{"ID":654515,"DIS_CODE":0,"TOWNNAME":"永康區","LI":"二王里","LIN":"3鄰","STREET":"二王路","SECT":" ","MAREA":" ","LANE":"１３５巷","ALLEY":"５３弄","HOUSE_NO":"５號","E_COORD97":173099.745933,"N_COORD97":2546607.0025999998,"ADDRESS":"二王路１３５巷５３弄５號","OBJECTID":654488},"geometry":{"x":173099.74593300186,"y":2546607.0025990028}},{"attributes":{"ID":654516,"DIS_CODE":0,"TOWNNAME":"永康區","LI":"二王里","LIN":"3鄰","STREET":"二王路","SECT":" ","MAREA":" ","LANE":"１３５巷","ALLEY":"５３弄","HOUSE_NO":"９號","E_COORD97":173096.77861499999,"N_COORD97":2546614.4109299998,"ADDRESS":"二王路１３５巷５３弄９號","OBJECTID":654489},"geometry":{"x":173096.77861499973,"y":2546614.4109279998}},{"attributes":{"ID":654517,"DIS_CODE":0,"TOWNNAME":"永康區","LI":"二王里","LIN":"3鄰","STREET":"二王路","SECT":" ","MAREA":" ","LANE":"１３５巷","ALLEY":"５３弄","HOUSE_NO":"７號","E_COORD97":173098.050323,"N_COORD97":2546611.0242599999,"ADDRESS":"二王路１３５巷５３弄７號","OBJECTID":654490},"geometry":{"x":173098.05032300111,"y":2546611.0242629983}},{"attributes":{"ID":654518,"DIS_CODE":0,"TOWNNAME":"下營區","LI":"後街里","LIN":"1鄰","STREET":"中正北路","SECT":" ","MAREA":" ","LANE":"３６０巷","ALLEY":" ","HOUSE_NO":"３３號","E_COORD97":174381.471846,"N_COORD97":2571290.8146299999,"ADDRESS":"中正北路３６０巷３３號","OBJECTID":654491},"geometry":{"x":174381.47184600215,"y":2571290.8146269992}},{"attributes":{"ID":654519,"DIS_CODE":0,"TOWNNAME":"官田區","LI":"南\u25A0里","LIN":"13鄰","STREET":" ","SECT":" ","MAREA":"三結義","LANE":" ","ALLEY":" ","HOUSE_NO":"２０號之２","E_COORD97":180373.149947,"N_COORD97":2569607.7889100001,"ADDRESS":"三結義２０號之２","OBJECTID":654492},"geometry":{"x":180373.14994699974,"y":2569607.788912002}},{"attributes":{"ID":654520,"DIS_CODE":0,"TOWNNAME":"官田區","LI":"南\u25A0里","LIN":"13鄰","STREET":" ","SECT":" ","MAREA":"三結義","LANE":" ","ALLEY":" ","HOUSE_NO":"２０號之３","E_COORD97":180283.32642500001,"N_COORD97":2569665.3622099999,"ADDRESS":"三結義２０號之３","OBJECTID":654493},"geometry":{"x":180283.32642500009,"y":2569665.3622140009}},{"attributes":{"ID":654521,"DIS_CODE":0,"TOWNNAME":"仁德區","LI":"上崙里","LIN":"16鄰","STREET":"德崙路","SECT":" ","MAREA":" ","LANE":"３７８巷","ALLEY":" ","HOUSE_NO":"２號","E_COORD97":174059.912564,"N_COORD97":2538046.8681700001,"ADDRESS":"德崙路３７８巷２號","OBJECTID":654494},"geometry":{"x":174059.91256400105,"y":2538046.8681680001}},{"attributes":{"ID":654522,"DIS_CODE":0,"TOWNNAME":"仁德區","LI":"上崙里","LIN":"19鄰","STREET":"上崙一街","SECT":" ","MAREA":" ","LANE":" ","ALLEY":" ","HOUSE_NO":"５７號","E_COORD97":173862.848551,"N_COORD97":2537995.4331999999,"ADDRESS":"上崙一街５７號","OBJECTID":654495},"geometry":{"x":173862.84855100047,"y":2537995.4331960045}},{"attributes":{"ID":654523,"DIS_CODE":0,"TOWNNAME":"安南區","LI":"溪心里","LIN":"6鄰","STREET":"本原街","SECT":"二段","MAREA":" ","LANE":"１０６巷","ALLEY":"２３弄","HOUSE_NO":"２８號","E_COORD97":166727.251395,"N_COORD97":2550869.14121,"ADDRESS":"本原街二段１０６巷２３弄２８號","OBJECTID":654496},"geometry":{"x":166727.25139500108,"y":2550869.141210001}},{"attributes":{"ID":654524,"DIS_CODE":0,"TOWNNAME":"安南區","LI":"溪心里","LIN":"5鄰","STREET":"本原街","SECT":"二段","MAREA":" ","LANE":"１０６巷","ALLEY":" ","HOUSE_NO":"２號之６","E_COORD97":166818.50833700001,"N_COORD97":2550778.6537600001,"ADDRESS":"本原街二段１０６巷２號之６","OBJECTID":654497},"geometry":{"x":166818.50833700132,"y":2550778.653758999}},{"attributes":{"ID":654525,"DIS_CODE":0,"TOWNNAME":"安南區","LI":"溪心里","LIN":"5鄰","STREET":"本原街","SECT":"二段","MAREA":" ","LANE":"１０６巷","ALLEY":" ","HOUSE_NO":"２號之８","E_COORD97":166828.98912300001,"N_COORD97":2550781.5112600001,"ADDRESS":"本原街二段１０６巷２號之８","OBJECTID":654498},"geometry":{"x":166828.98912299983,"y":2550781.5112570021}},{"attributes":{"ID":654526,"DIS_CODE":0,"TOWNNAME":"麻豆區","LI":"新建里","LIN":"1鄰","STREET":"中山路","SECT":" ","MAREA":" ","LANE":" ","ALLEY":" ","HOUSE_NO":"１１１號之１","E_COORD97":172744.09671499999,"N_COORD97":2564809.3484999998,"ADDRESS":"中山路１１１號之１","OBJECTID":654499},"geometry":{"x":172744.09671499953,"y":2564809.3485030029}},{"attributes":{"ID":654527,"DIS_CODE":0,"TOWNNAME":"麻豆區","LI":"新建里","LIN":"1鄰","STREET":"仁愛路","SECT":" ","MAREA":" ","LANE":" ","ALLEY":" ","HOUSE_NO":"２０號","E_COORD97":172749.81682899999,"N_COORD97":2564783.9485200001,"ADDRESS":"仁愛路２０號","OBJECTID":654500},"geometry":{"x":172749.81682899967,"y":2564783.9485170022}},{"attributes":{"ID":654528,"DIS_CODE":0,"TOWNNAME":"麻豆區","LI":"新建里","LIN":"3鄰","STREET":"興民街","SECT":" ","MAREA":" ","LANE":" ","ALLEY":" ","HOUSE_NO":"５７號","E_COORD97":172647.91406000001,"N_COORD97":2564974.6600799998,"ADDRESS":"興民街５７號","OBJECTID":654501},"geometry":{"x":172647.91406000219,"y":2564974.6600800026}},{"attributes":{"ID":654529,"DIS_CODE":0,"TOWNNAME":"下營區","LI":"後街里","LIN":"13鄰","STREET":"中正北路","SECT":" ","MAREA":" ","LANE":"８６巷","ALLEY":" ","HOUSE_NO":"１２號","E_COORD97":174549.03326500001,"N_COORD97":2570692.7086900002,"ADDRESS":"中正北路８６巷１２號","OBJECTID":654502},"geometry":{"x":174549.03326499928,"y":2570692.7086859997}},{"attributes":{"ID":654530,"DIS_CODE":0,"TOWNNAME":"下營區","LI":"賀建里","LIN":"17鄰","STREET":" ","SECT":" ","MAREA":"下橋頭","LANE":" ","ALLEY":" ","HOUSE_NO":"１２號之２","E_COORD97":176532.115437,"N_COORD97":2570258.24425,"ADDRESS":"下橋頭１２號之２","OBJECTID":654503},"geometry":{"x":176532.11543700099,"y":2570258.2442499995}},{"attributes":{"ID":654531,"DIS_CODE":0,"TOWNNAME":"下營區","LI":"開化里","LIN":"18鄰","STREET":" ","SECT":" ","MAREA":"中營","LANE":" ","ALLEY":" ","HOUSE_NO":"１４１之２號","E_COORD97":175448.85577299999,"N_COORD97":2567881.5627700002,"ADDRESS":"中營１４１之２號","OBJECTID":654504},"geometry":{"x":175448.85577300098,"y":2567881.5627720002}},{"attributes":{"ID":654532,"DIS_CODE":0,"TOWNNAME":"仁德區","LI":"上崙里","LIN":"19鄰","STREET":"德崙路","SECT":" ","MAREA":" ","LANE":"３１６巷","ALLEY":" ","HOUSE_NO":"３４號","E_COORD97":173876.83212000001,"N_COORD97":2538043.1639999999,"ADDRESS":"德崙路３１６巷３４號","OBJECTID":654505},"geometry":{"x":173876.83212000132,"y":2538043.1640030015}},{"attributes":{"ID":654533,"DIS_CODE":0,"TOWNNAME":"仁德區","LI":"上崙里","LIN":"20鄰","STREET":"上崙一街","SECT":" ","MAREA":" ","LANE":" ","ALLEY":" ","HOUSE_NO":"１６號","E_COORD97":173818.779121,"N_COORD97":2538071.4214900001,"ADDRESS":"上崙一街１６號","OBJECTID":654506},"geometry":{"x":173818.77912100032,"y":2538071.4214880038}},{"attributes":{"ID":654534,"DIS_CODE":0,"TOWNNAME":"麻豆區","LI":"北勢里","LIN":"1鄰","STREET":" ","SECT":" ","MAREA":"加輦邦","LANE":" ","ALLEY":" ","HOUSE_NO":"１號之３８","E_COORD97":174284.54676900001,"N_COORD97":2566457.91438,"ADDRESS":"加輦邦１號之３８","OBJECTID":654507},"geometry":{"x":174284.54676899966,"y":2566457.9143819995}},{"attributes":{"ID":654535,"DIS_CODE":0,"TOWNNAME":"下營區","LI":"開化里","LIN":"1鄰","STREET":" ","SECT":" ","MAREA":"中營","LANE":" ","ALLEY":" ","HOUSE_NO":"１２號","E_COORD97":175437.62679899999,"N_COORD97":2568414.7511200001,"ADDRESS":"中營１２號","OBJECTID":654508},"geometry":{"x":175437.62679900043,"y":2568414.7511180025}},{"attributes":{"ID":654536,"DIS_CODE":0,"TOWNNAME":"仁德區","LI":"上崙里","LIN":"20鄰","STREET":"上崙一街","SECT":" ","MAREA":" ","LANE":"８２巷","ALLEY":" ","HOUSE_NO":"２號","E_COORD97":173814.770537,"N_COORD97":2537953.9493499999,"ADDRESS":"上崙一街８２巷２號","OBJECTID":654509},"geometry":{"x":173814.77053700015,"y":2537953.9493460022}},{"attributes":{"ID":654537,"DIS_CODE":0,"TOWNNAME":"仁德區","LI":"上崙里","LIN":"20鄰","STREET":"上崙一街","SECT":" ","MAREA":" ","LANE":"８２巷","ALLEY":" ","HOUSE_NO":"６號","E_COORD97":173810.321219,"N_COORD97":2537953.7376799998,"ADDRESS":"上崙一街８２巷６號","OBJECTID":654510},"geometry":{"x":173810.32121900097,"y":2537953.7376799993}},{"attributes":{"ID":654538,"DIS_CODE":0,"TOWNNAME":"仁德區","LI":"上崙里","LIN":"20鄰","STREET":"上崙一街","SECT":" ","MAREA":" ","LANE":"８２巷","ALLEY":" ","HOUSE_NO":"８號","E_COORD97":173806.083774,"N_COORD97":2537952.6793499999,"ADDRESS":"上崙一街８２巷８號","OBJECTID":654511},"geometry":{"x":173806.08377400134,"y":2537952.679347001}},{"attributes":{"ID":654539,"DIS_CODE":0,"TOWNNAME":"仁德區","LI":"上崙里","LIN":"20鄰","STREET":"上崙一街","SECT":" ","MAREA":" ","LANE":"８２巷","ALLEY":" ","HOUSE_NO":"１０號","E_COORD97":173800.99883999999,"N_COORD97":2537952.6793499999,"ADDRESS":"上崙一街８２巷１０號","OBJECTID":654512},"geometry":{"x":173800.99883999955,"y":2537952.679347001}},{"attributes":{"ID":654540,"DIS_CODE":0,"TOWNNAME":"下營區","LI":"賀建里","LIN":"16鄰","STREET":" ","SECT":" ","MAREA":"下橋頭","LANE":" ","ALLEY":" ","HOUSE_NO":"１號之８","E_COORD97":176869.49742699999,"N_COORD97":2570670.57069,"ADDRESS":"下橋頭１號之８","OBJECTID":654513},"geometry":{"x":176869.49742700066,"y":2570670.5706940033}},{"attributes":{"ID":654541,"DIS_CODE":0,"TOWNNAME":"仁德區","LI":"上崙里","LIN":"20鄰","STREET":"上崙一街","SECT":" ","MAREA":" ","LANE":"８２巷","ALLEY":" ","HOUSE_NO":"１２號","E_COORD97":173797.145338,"N_COORD97":2537952.23043,"ADDRESS":"上崙一街８２巷１２號","OBJECTID":654514},"geometry":{"x":173797.1453379998,"y":2537952.2304280009}},{"attributes":{"ID":654542,"DIS_CODE":0,"TOWNNAME":"仁德區","LI":"上崙里","LIN":"20鄰","STREET":"上崙一街","SECT":" ","MAREA":" ","LANE":"８２巷","ALLEY":" ","HOUSE_NO":"１６號","E_COORD97":173792.90789199999,"N_COORD97":2537952.6537600001,"ADDRESS":"上崙一街８２巷１６號","OBJECTID":654515},"geometry":{"x":173792.90789199993,"y":2537952.6537609994}},{"attributes":{"ID":654543,"DIS_CODE":0,"TOWNNAME":"仁德區","LI":"上崙里","LIN":"20鄰","STREET":"上崙一街","SECT":" ","MAREA":" ","LANE":"８２巷","ALLEY":" ","HOUSE_NO":"１８號","E_COORD97":173788.458575,"N_COORD97":2537951.8070999999,"ADDRESS":"上崙一街８２巷１８號","OBJECTID":654516},"geometry":{"x":173788.45857500099,"y":2537951.8070950024}},{"attributes":{"ID":654544,"DIS_CODE":0,"TOWNNAME":"仁德區","LI":"上崙里","LIN":"20鄰","STREET":"上崙一街","SECT":" ","MAREA":" ","LANE":"８２巷","ALLEY":" ","HOUSE_NO":"２０號","E_COORD97":173784.43300200001,"N_COORD97":2537951.8070999999,"ADDRESS":"上崙一街８２巷２０號","OBJECTID":654517},"geometry":{"x":173784.43300200067,"y":2537951.8070950024}},{"attributes":{"ID":654545,"DIS_CODE":0,"TOWNNAME":"仁德區","LI":"上崙里","LIN":"20鄰","STREET":"上崙一街","SECT":" ","MAREA":" ","LANE":"８２巷","ALLEY":" ","HOUSE_NO":"１號","E_COORD97":173814.942607,"N_COORD97":2537946.30376,"ADDRESS":"上崙一街８２巷１號","OBJECTID":654518},"geometry":{"x":173814.9426070014,"y":2537946.3037649989}},{"attributes":{"ID":654546,"DIS_CODE":0,"TOWNNAME":"仁德區","LI":"上崙里","LIN":"20鄰","STREET":"上崙一街","SECT":" ","MAREA":" ","LANE":"８２巷","ALLEY":" ","HOUSE_NO":"３號","E_COORD97":173811.76452299999,"N_COORD97":2537946.9387599998,"ADDRESS":"上崙一街８２巷３號","OBJECTID":654519},"geometry":{"x":173811.76452299953,"y":2537946.9387640003}},{"attributes":{"ID":654547,"DIS_CODE":0,"TOWNNAME":"仁德區","LI":"上崙里","LIN":"20鄰","STREET":"上崙一街","SECT":" ","MAREA":" ","LANE":"８２巷","ALLEY":" ","HOUSE_NO":"５號","E_COORD97":173806.46771699999,"N_COORD97":2537946.30376,"ADDRESS":"上崙一街８２巷５號","OBJECTID":654520},"geometry":{"x":173806.46771700215,"y":2537946.3037649989}},{"attributes":{"ID":654548,"DIS_CODE":0,"TOWNNAME":"仁德區","LI":"上崙里","LIN":"20鄰","STREET":"上崙一街","SECT":" ","MAREA":" ","LANE":"８２巷","ALLEY":" ","HOUSE_NO":"７號","E_COORD97":173803.28963300001,"N_COORD97":2537946.30376,"ADDRESS":"上崙一街８２巷７號","OBJECTID":654521},"geometry":{"x":173803.28963300027,"y":2537946.3037649989}},{"attributes":{"ID":654549,"DIS_CODE":0,"TOWNNAME":"仁德區","LI":"上崙里","LIN":"20鄰","STREET":"上崙一街","SECT":" ","MAREA":" ","LANE":"８２巷","ALLEY":" ","HOUSE_NO":"９號","E_COORD97":173797.99282700001,"N_COORD97":2537945.6687699999,"ADDRESS":"上崙一街８２巷９號","OBJECTID":654522},"geometry":{"x":173797.9928270001,"y":2537945.6687650047}},{"attributes":{"ID":654550,"DIS_CODE":0,"TOWNNAME":"仁德區","LI":"上崙里","LIN":"20鄰","STREET":"上崙一街","SECT":" ","MAREA":" ","LANE":"８２巷","ALLEY":" ","HOUSE_NO":"１１號","E_COORD97":173794.814743,"N_COORD97":2537944.6104299999,"ADDRESS":"上崙一街８２巷１１號","OBJECTID":654523},"geometry":{"x":173794.81474300008,"y":2537944.6104320008}},{"attributes":{"ID":654551,"DIS_CODE":0,"TOWNNAME":"仁德區","LI":"上崙里","LIN":"20鄰","STREET":"上崙一街","SECT":" ","MAREA":" ","LANE":"８２巷","ALLEY":" ","HOUSE_NO":"１３號","E_COORD97":173790.365425,"N_COORD97":2537943.7637700001,"ADDRESS":"上崙一街８２巷１３號","OBJECTID":654524},"geometry":{"x":173790.36542500183,"y":2537943.763766}},{"attributes":{"ID":654552,"DIS_CODE":0,"TOWNNAME":"仁德區","LI":"上崙里","LIN":"20鄰","STREET":"上崙一街","SECT":" ","MAREA":" ","LANE":"８２巷","ALLEY":" ","HOUSE_NO":"１５號","E_COORD97":173785.492363,"N_COORD97":2537943.3404299999,"ADDRESS":"上崙一街８２巷１５號","OBJECTID":654525},"geometry":{"x":173785.49236300122,"y":2537943.3404330015}},{"attributes":{"ID":654553,"DIS_CODE":0,"TOWNNAME":"仁德區","LI":"上崙里","LIN":"20鄰","STREET":"上崙一街","SECT":" ","MAREA":" ","LANE":"８２巷","ALLEY":" ","HOUSE_NO":"１７號","E_COORD97":173781.25491799999,"N_COORD97":2537938.89543,"ADDRESS":"上崙一街８２巷１７號","OBJECTID":654526},"geometry":{"x":173781.25491800066,"y":2537938.8954350017}},{"attributes":{"ID":654554,"DIS_CODE":0,"TOWNNAME":"仁德區","LI":"上崙里","LIN":"20鄰","STREET":"上崙一街","SECT":" ","MAREA":" ","LANE":"８２巷","ALLEY":" ","HOUSE_NO":"１９號","E_COORD97":173775.95811199999,"N_COORD97":2537939.1071000001,"ADDRESS":"上崙一街８２巷１９號","OBJECTID":654527},"geometry":{"x":173775.95811200142,"y":2537939.1071019992}},{"attributes":{"ID":654555,"DIS_CODE":0,"TOWNNAME":"仁德區","LI":"上崙里","LIN":"20鄰","STREET":"上崙一街","SECT":" ","MAREA":" ","LANE":"８２巷","ALLEY":" ","HOUSE_NO":"２２號","E_COORD97":173778.712451,"N_COORD97":2537952.23043,"ADDRESS":"上崙一街８２巷２２號","OBJECTID":654528},"geometry":{"x":173778.71245099977,"y":2537952.2304280009}},{"attributes":{"ID":654556,"DIS_CODE":0,"TOWNNAME":"仁德區","LI":"上崙里","LIN":"20鄰","STREET":"上崙一街","SECT":" ","MAREA":" ","LANE":"８２巷","ALLEY":" ","HOUSE_NO":"２６號","E_COORD97":173772.56815599999,"N_COORD97":2537952.23043,"ADDRESS":"上崙一街８２巷２６號","OBJECTID":654529},"geometry":{"x":173772.56815600209,"y":2537952.2304280009}},{"attributes":{"ID":654557,"DIS_CODE":0,"TOWNNAME":"麻豆區","LI":"油車里","LIN":"17鄰","STREET":"新生北路","SECT":" ","MAREA":" ","LANE":" ","ALLEY":" ","HOUSE_NO":"１９２號","E_COORD97":172309.36207999999,"N_COORD97":2565432.2403500001,"ADDRESS":"新生北路１９２號","OBJECTID":654530},"geometry":{"x":172309.36208000127,"y":2565432.2403539997}},{"attributes":{"ID":654558,"DIS_CODE":0,"TOWNNAME":"仁德區","LI":"上崙里","LIN":"20鄰","STREET":"上崙一街","SECT":" ","MAREA":" ","LANE":"８２巷","ALLEY":" ","HOUSE_NO":"３０號","E_COORD97":173760.279565,"N_COORD97":2537946.5154300001,"ADDRESS":"上崙一街８２巷３０號","OBJECTID":654531},"geometry":{"x":173760.27956500184,"y":2537946.5154310018}},{"attributes":{"ID":654559,"DIS_CODE":0,"TOWNNAME":"仁德區","LI":"上崙里","LIN":"20鄰","STREET":"上崙一街","SECT":" ","MAREA":" ","LANE":"８２巷","ALLEY":" ","HOUSE_NO":"３２號","E_COORD97":173756.04211899999,"N_COORD97":2537947.1504299999,"ADDRESS":"上崙一街８２巷３２號","OBJECTID":654532},"geometry":{"x":173756.04211900011,"y":2537947.1504310016}},{"attributes":{"ID":654560,"DIS_CODE":0,"TOWNNAME":"仁德區","LI":"上崙里","LIN":"20鄰","STREET":"上崙一街","SECT":" ","MAREA":" ","LANE":"８２巷","ALLEY":" ","HOUSE_NO":"３６號","E_COORD97":173749.89782400001,"N_COORD97":2537945.2454300001,"ADDRESS":"上崙一街８２巷３６號","OBJECTID":654533},"geometry":{"x":173749.89782399964,"y":2537945.2454320006}},{"attributes":{"ID":654561,"DIS_CODE":0,"TOWNNAME":"仁德區","LI":"上崙里","LIN":"20鄰","STREET":"上崙一街","SECT":" ","MAREA":" ","LANE":"８２巷","ALLEY":" ","HOUSE_NO":"３８號","E_COORD97":173746.295996,"N_COORD97":2537945.2454300001,"ADDRESS":"上崙一街８２巷３８號","OBJECTID":654534},"geometry":{"x":173746.29599600099,"y":2537945.2454320006}},{"attributes":{"ID":654562,"DIS_CODE":0,"TOWNNAME":"麻豆區","LI":"油車里","LIN":"17鄰","STREET":"新生北路","SECT":" ","MAREA":" ","LANE":" ","ALLEY":" ","HOUSE_NO":"１９２號二樓","E_COORD97":172311.48080300001,"N_COORD97":2565432.6636899998,"ADDRESS":"新生北路１９２號二樓","OBJECTID":654535},"geometry":{"x":172311.48080300074,"y":2565432.6636870038}},{"attributes":{"ID":654563,"DIS_CODE":0,"TOWNNAME":"新市區","LI":"大洲里","LIN":"5鄰","STREET":" ","SECT":" ","MAREA":"大洲","LANE":" ","ALLEY":" ","HOUSE_NO":"４５之２０號","E_COORD97":174125.88951499999,"N_COORD97":2552486.54177,"ADDRESS":"大洲４５之２０號","OBJECTID":654536},"geometry":{"x":174125.88951500133,"y":2552486.5417650007}},{"attributes":{"ID":654564,"DIS_CODE":0,"TOWNNAME":"仁德區","LI":"上崙里","LIN":"20鄰","STREET":"上崙一街","SECT":" ","MAREA":" ","LANE":"８２巷","ALLEY":" ","HOUSE_NO":"４０號","E_COORD97":173740.78731700001,"N_COORD97":2537944.8221,"ADDRESS":"上崙一街８２巷４０號","OBJECTID":654537},"geometry":{"x":173740.78731700219,"y":2537944.8220990021}},{"attributes":{"ID":654565,"DIS_CODE":0,"TOWNNAME":"仁德區","LI":"上崙里","LIN":"20鄰","STREET":"上崙一街","SECT":" ","MAREA":" ","LANE":"８２巷","ALLEY":" ","HOUSE_NO":"４２號","E_COORD97":173734.219277,"N_COORD97":2537943.3404299999,"ADDRESS":"上崙一街８２巷４２號","OBJECTID":654538},"geometry":{"x":173734.21927700005,"y":2537943.3404330015}},{"attributes":{"ID":654566,"DIS_CODE":0,"TOWNNAME":"仁德區","LI":"上崙里","LIN":"20鄰","STREET":"上崙一街","SECT":" ","MAREA":" ","LANE":"８２巷","ALLEY":" ","HOUSE_NO":"２３號","E_COORD97":173761.76267,"N_COORD97":2537935.9320999999,"ADDRESS":"上崙一街８２巷２３號","OBJECTID":654539},"geometry":{"x":173761.76267000102,"y":2537935.932103999}},{"attributes":{"ID":654567,"DIS_CODE":0,"TOWNNAME":"仁德區","LI":"上崙里","LIN":"20鄰","STREET":"上崙一街","SECT":" ","MAREA":" ","LANE":"８２巷","ALLEY":" ","HOUSE_NO":"２５號","E_COORD97":173756.67773600001,"N_COORD97":2537936.3554400001,"ADDRESS":"上崙一街８２巷２５號","OBJECTID":654540},"geometry":{"x":173756.67773600109,"y":2537936.3554370031}},{"attributes":{"ID":654568,"DIS_CODE":0,"TOWNNAME":"仁德區","LI":"上崙里","LIN":"20鄰","STREET":"上崙一街","SECT":" ","MAREA":" ","LANE":"８２巷","ALLEY":" ","HOUSE_NO":"２７號","E_COORD97":173750.53344100001,"N_COORD97":2537935.7204399998,"ADDRESS":"上崙一街８２巷２７號","OBJECTID":654541},"geometry":{"x":173750.53344100062,"y":2537935.7204370033}},{"attributes":{"ID":654569,"DIS_CODE":0,"TOWNNAME":"仁德區","LI":"上崙里","LIN":"20鄰","STREET":"上崙一街","SECT":" ","MAREA":" ","LANE":"８２巷","ALLEY":" ","HOUSE_NO":"２９號","E_COORD97":173745.44850699999,"N_COORD97":2537935.5087700002,"ADDRESS":"上崙一街８２巷２９號","OBJECTID":654542},"geometry":{"x":173745.44850700069,"y":2537935.5087710004}},{"attributes":{"ID":654570,"DIS_CODE":0,"TOWNNAME":"仁德區","LI":"上崙里","LIN":"20鄰","STREET":"上崙一街","SECT":" ","MAREA":" ","LANE":"８２巷","ALLEY":" ","HOUSE_NO":"３１號","E_COORD97":173741.21106100001,"N_COORD97":2537935.7204399998,"ADDRESS":"上崙一街８２巷３１號","OBJECTID":654543},"geometry":{"x":173741.21106100082,"y":2537935.7204370033}},{"attributes":{"ID":654571,"DIS_CODE":0,"TOWNNAME":"仁德區","LI":"上崙里","LIN":"20鄰","STREET":"上崙一街","SECT":" ","MAREA":" ","LANE":"８２巷","ALLEY":" ","HOUSE_NO":"３３號","E_COORD97":173736.76174399999,"N_COORD97":2537935.0854400001,"ADDRESS":"上崙一街８２巷３３號","OBJECTID":654544},"geometry":{"x":173736.76174400188,"y":2537935.0854380019}},{"attributes":{"ID":654572,"DIS_CODE":0,"TOWNNAME":"麻豆區","LI":"油車里","LIN":"17鄰","STREET":"新生北路","SECT":" ","MAREA":" ","LANE":"１９６巷","ALLEY":" ","HOUSE_NO":"２號","E_COORD97":172323.11173900001,"N_COORD97":2565435.1795100002,"ADDRESS":"新生北路１９６巷２號","OBJECTID":654545},"geometry":{"x":172323.11173900124,"y":2565435.1795119997}},{"attributes":{"ID":654573,"DIS_CODE":0,"TOWNNAME":"仁德區","LI":"上崙里","LIN":"20鄰","STREET":"上崙街","SECT":" ","MAREA":" ","LANE":"１６１巷","ALLEY":" ","HOUSE_NO":"３８號","E_COORD97":173688.87861399999,"N_COORD97":2537725.6413799999,"ADDRESS":"上崙街１６１巷３８號","OBJECTID":654546},"geometry":{"x":173688.87861400098,"y":2537725.6413840037}},{"attributes":{"ID":654574,"DIS_CODE":0,"TOWNNAME":"麻豆區","LI":"油車里","LIN":"17鄰","STREET":"新生北路","SECT":" ","MAREA":" ","LANE":"１９６巷","ALLEY":" ","HOUSE_NO":"６號","E_COORD97":172329.25603399999,"N_COORD97":2565435.1795100002,"ADDRESS":"新生北路１９６巷６號","OBJECTID":654547},"geometry":{"x":172329.25603400171,"y":2565435.1795119997}},{"attributes":{"ID":654575,"DIS_CODE":0,"TOWNNAME":"麻豆區","LI":"油車里","LIN":"17鄰","STREET":"新生北路","SECT":" ","MAREA":" ","LANE":"１９６巷","ALLEY":" ","HOUSE_NO":"８號","E_COORD97":172335.824074,"N_COORD97":2565435.1795100002,"ADDRESS":"新生北路１９６巷８號","OBJECTID":654548},"geometry":{"x":172335.82407400012,"y":2565435.1795119997}},{"attributes":{"ID":654576,"DIS_CODE":0,"TOWNNAME":"麻豆區","LI":"油車里","LIN":"17鄰","STREET":"新生北路","SECT":" ","MAREA":" ","LANE":"１９６巷","ALLEY":" ","HOUSE_NO":"１０號","E_COORD97":172342.180242,"N_COORD97":2565434.9678400001,"ADDRESS":"新生北路１９６巷１０號","OBJECTID":654549},"geometry":{"x":172342.18024200015,"y":2565434.9678450022}},{"attributes":{"ID":654577,"DIS_CODE":0,"TOWNNAME":"麻豆區","LI":"油車里","LIN":"17鄰","STREET":"新生北路","SECT":" ","MAREA":" ","LANE":"１９６巷","ALLEY":" ","HOUSE_NO":"１６號","E_COORD97":172354.892578,"N_COORD97":2565434.5445099999,"ADDRESS":"新生北路１９６巷１６號","OBJECTID":654550},"geometry":{"x":172354.89257800113,"y":2565434.5445119999}},{"attributes":{"ID":654578,"DIS_CODE":0,"TOWNNAME":"鹽水區","LI":"汫水里","LIN":"12鄰","STREET":" ","SECT":" ","MAREA":"溪州寮","LANE":" ","ALLEY":" ","HOUSE_NO":"４號","E_COORD97":176511.848111,"N_COORD97":2580890.6490000002,"ADDRESS":"溪州寮４號","OBJECTID":654551},"geometry":{"x":176511.84811099991,"y":2580890.6490030028}},{"attributes":{"ID":654579,"DIS_CODE":0,"TOWNNAME":"下營區","LI":"賀建里","LIN":"16鄰","STREET":" ","SECT":" ","MAREA":"下橋頭","LANE":" ","ALLEY":" ","HOUSE_NO":"１號之１１","E_COORD97":176911.24632899999,"N_COORD97":2570870.59559,"ADDRESS":"下橋頭１號之１１","OBJECTID":654552},"geometry":{"x":176911.24632900115,"y":2570870.595586}},{"attributes":{"ID":654580,"DIS_CODE":0,"TOWNNAME":"麻豆區","LI":"油車里","LIN":"17鄰","STREET":"新生北路","SECT":" ","MAREA":" ","LANE":"１９６巷","ALLEY":" ","HOUSE_NO":"１號","E_COORD97":172321.862544,"N_COORD97":2565460.4978399999,"ADDRESS":"新生北路１９６巷１號","OBJECTID":654553},"geometry":{"x":172321.86254400015,"y":2565460.4978390019}},{"attributes":{"ID":654581,"DIS_CODE":0,"TOWNNAME":"仁德區","LI":"上崙里","LIN":"20鄰","STREET":"崑崙路","SECT":" ","MAREA":" ","LANE":"５２１巷","ALLEY":" ","HOUSE_NO":"６５號","E_COORD97":173536.11871499999,"N_COORD97":2537625.73477,"ADDRESS":"崑崙路５２１巷６５號","OBJECTID":654554},"geometry":{"x":173536.11871500034,"y":2537625.7347710002}},{"attributes":{"ID":654582,"DIS_CODE":0,"TOWNNAME":"仁德區","LI":"上崙里","LIN":"20鄰","STREET":"崑崙路","SECT":" ","MAREA":" ","LANE":"５２１巷","ALLEY":" ","HOUSE_NO":"６７號","E_COORD97":173539.296799,"N_COORD97":2537619.8081100001,"ADDRESS":"崑崙路５２１巷６７號","OBJECTID":654555},"geometry":{"x":173539.29679900035,"y":2537619.8081080001}},{"attributes":{"ID":654583,"DIS_CODE":0,"TOWNNAME":"鹽水區","LI":"汫水里","LIN":"12鄰","STREET":" ","SECT":" ","MAREA":"溪州寮","LANE":" ","ALLEY":" ","HOUSE_NO":"３之３號","E_COORD97":177392.58097000001,"N_COORD97":2581433.0445400001,"ADDRESS":"溪州寮３之３號","OBJECTID":654556},"geometry":{"x":177392.58097000141,"y":2581433.0445399992}},{"attributes":{"ID":654584,"DIS_CODE":0,"TOWNNAME":"東區","LI":"大學里","LIN":"8鄰","STREET":"大學路","SECT":" ","MAREA":" ","LANE":"１８巷","ALLEY":" ","HOUSE_NO":"１６號之１","E_COORD97":170125.854991,"N_COORD97":2543914.40417,"ADDRESS":"大學路１８巷１６號之１","OBJECTID":654557},"geometry":{"x":170125.85499100108,"y":2543914.4041729998}},{"attributes":{"ID":654585,"DIS_CODE":0,"TOWNNAME":"麻豆區","LI":"油車里","LIN":"17鄰","STREET":"新生北路","SECT":" ","MAREA":" ","LANE":"１９６巷","ALLEY":" ","HOUSE_NO":"１２號","E_COORD97":172347.71095899999,"N_COORD97":2565434.88619,"ADDRESS":"新生北路１９６巷１２號","OBJECTID":654558},"geometry":{"x":172347.71095900051,"y":2565434.886186}},{"attributes":{"ID":654586,"DIS_CODE":0,"TOWNNAME":"麻豆區","LI":"油車里","LIN":"17鄰","STREET":"新生北路","SECT":" ","MAREA":" ","LANE":"１９６巷","ALLEY":" ","HOUSE_NO":"３號","E_COORD97":172327.79496699999,"N_COORD97":2565460.18034,"ADDRESS":"新生北路１９６巷３號","OBJECTID":654559},"geometry":{"x":172327.7949670013,"y":2565460.1803390048}},{"attributes":{"ID":654587,"DIS_CODE":0,"TOWNNAME":"麻豆區","LI":"油車里","LIN":"17鄰","STREET":"新生北路","SECT":" ","MAREA":" ","LANE":"１９６巷","ALLEY":" ","HOUSE_NO":"５號","E_COORD97":172333.939262,"N_COORD97":2565459.7570099998,"ADDRESS":"新生北路１９６巷５號","OBJECTID":654560},"geometry":{"x":172333.93926200178,"y":2565459.7570060007}},{"attributes":{"ID":654588,"DIS_CODE":0,"TOWNNAME":"麻豆區","LI":"油車里","LIN":"17鄰","STREET":"新生北路","SECT":" ","MAREA":" ","LANE":"１９６巷","ALLEY":" ","HOUSE_NO":"７號","E_COORD97":172340.29543,"N_COORD97":2565459.1220100001,"ADDRESS":"新生北路１９６巷７號","OBJECTID":654561},"geometry":{"x":172340.29543000087,"y":2565459.122006001}},{"attributes":{"ID":654589,"DIS_CODE":0,"TOWNNAME":"麻豆區","LI":"油車里","LIN":"17鄰","STREET":"新生北路","SECT":" ","MAREA":" ","LANE":"１９６巷","ALLEY":" ","HOUSE_NO":"９號","E_COORD97":172347.28721499999,"N_COORD97":2565459.7570099998,"ADDRESS":"新生北路１９６巷９號","OBJECTID":654562},"geometry":{"x":172347.28721500095,"y":2565459.7570060007}},{"attributes":{"ID":654590,"DIS_CODE":0,"TOWNNAME":"麻豆區","LI":"油車里","LIN":"17鄰","STREET":"新生北路","SECT":" ","MAREA":" ","LANE":"１９６巷","ALLEY":" ","HOUSE_NO":"１１號","E_COORD97":172353.21963800001,"N_COORD97":2565458.9103399999,"ADDRESS":"新生北路１９６巷１１號","OBJECTID":654563},"geometry":{"x":172353.21963800211,"y":2565458.9103399999}},{"attributes":{"ID":654591,"DIS_CODE":0,"TOWNNAME":"官田區","LI":"南\u25A0里","LIN":"9鄰","STREET":" ","SECT":" ","MAREA":"南\u25A0","LANE":" ","ALLEY":" ","HOUSE_NO":"１２３號之６","E_COORD97":179332.758756,"N_COORD97":2569391.8830200001,"ADDRESS":"南\u25A0１２３號之６","OBJECTID":654564},"geometry":{"x":179332.75875600055,"y":2569391.8830159996}},{"attributes":{"ID":654592,"DIS_CODE":0,"TOWNNAME":"官田區","LI":"南\u25A0里","LIN":"9鄰","STREET":" ","SECT":" ","MAREA":"南\u25A0","LANE":" ","ALLEY":" ","HOUSE_NO":"１２３號之７","E_COORD97":179330.640277,"N_COORD97":2569381.0940299998,"ADDRESS":"南\u25A0１２３號之７","OBJECTID":654565},"geometry":{"x":179330.64027700108,"y":2569381.0940340012}},{"attributes":{"ID":654593,"DIS_CODE":0,"TOWNNAME":"官田區","LI":"南\u25A0里","LIN":"9鄰","STREET":" ","SECT":" ","MAREA":"南\u25A0","LANE":" ","ALLEY":" ","HOUSE_NO":"１２３號之８","E_COORD97":179325.344079,"N_COORD97":2569346.3747100001,"ADDRESS":"南\u25A0１２３號之８","OBJECTID":654566},"geometry":{"x":179325.34407899994,"y":2569346.3747070003}},{"attributes":{"ID":654594,"DIS_CODE":0,"TOWNNAME":"仁德區","LI":"上崙里","LIN":"21鄰","STREET":"德崙路","SECT":" ","MAREA":" ","LANE":" ","ALLEY":" ","HOUSE_NO":"２６０號","E_COORD97":173723.83753600001,"N_COORD97":2538182.7352999998,"ADDRESS":"德崙路２６０號","OBJECTID":654567},"geometry":{"x":173723.83753600065,"y":2538182.7353040017}},{"attributes":{"ID":654595,"DIS_CODE":0,"TOWNNAME":"東區","LI":"大學里","LIN":"8鄰","STREET":"大學路","SECT":" ","MAREA":" ","LANE":"１８巷","ALLEY":" ","HOUSE_NO":"７號","E_COORD97":170134.078278,"N_COORD97":2543974.9542200002,"ADDRESS":"大學路１８巷７號","OBJECTID":654568},"geometry":{"x":170134.07827799954,"y":2543974.9542200007}},{"attributes":{"ID":654596,"DIS_CODE":0,"TOWNNAME":"東區","LI":"大學里","LIN":"8鄰","STREET":"大學路","SECT":" ","MAREA":" ","LANE":"１８巷","ALLEY":" ","HOUSE_NO":"３０號之１","E_COORD97":170149.75693100001,"N_COORD97":2543798.00098,"ADDRESS":"大學路１８巷３０號之１","OBJECTID":654569},"geometry":{"x":170149.75693100225,"y":2543798.0009829998}},{"attributes":{"ID":654597,"DIS_CODE":0,"TOWNNAME":"東區","LI":"大學里","LIN":"8鄰","STREET":"大學路","SECT":" ","MAREA":" ","LANE":"１８巷","ALLEY":" ","HOUSE_NO":"３０號之２","E_COORD97":170154.8419,"N_COORD97":2543797.5776499999,"ADDRESS":"大學路１８巷３０號之２","OBJECTID":654570},"geometry":{"x":170154.84190000035,"y":2543797.5776500013}},{"attributes":{"ID":654598,"DIS_CODE":0,"TOWNNAME":"東區","LI":"大學里","LIN":"8鄰","STREET":"大學路","SECT":" ","MAREA":" ","LANE":"１８巷","ALLEY":" ","HOUSE_NO":"３０號之３","E_COORD97":170163.52872199999,"N_COORD97":2543797.78932,"ADDRESS":"大學路１８巷３０號之３","OBJECTID":654571},"geometry":{"x":170163.52872200031,"y":2543797.7893160023}},{"attributes":{"ID":654599,"DIS_CODE":0,"TOWNNAME":"鹽水區","LI":"岸內里","LIN":"4鄰","STREET":" ","SECT":" ","MAREA":"岸內","LANE":" ","ALLEY":" ","HOUSE_NO":"１９號","E_COORD97":174797.444109,"N_COORD97":2581198.5386399999,"ADDRESS":"岸內１９號","OBJECTID":654572},"geometry":{"x":174797.44410900213,"y":2581198.5386430006}},{"attributes":{"ID":654600,"DIS_CODE":0,"TOWNNAME":"仁德區","LI":"上崙里","LIN":"24鄰","STREET":"中正路","SECT":"一段","MAREA":" ","LANE":"７７４巷","ALLEY":" ","HOUSE_NO":"１０號","E_COORD97":173018.514788,"N_COORD97":2537900.5837900001,"ADDRESS":"中正路一段７７４巷１０號","OBJECTID":654573},"geometry":{"x":173018.51478800084,"y":2537900.5837890022}},{"attributes":{"ID":654601,"DIS_CODE":0,"TOWNNAME":"仁德區","LI":"上崙里","LIN":"24鄰","STREET":"中正路","SECT":"一段","MAREA":" ","LANE":"７７４巷","ALLEY":" ","HOUSE_NO":"１９號","E_COORD97":173046.90567000001,"N_COORD97":2537928.9471100001,"ADDRESS":"中正路一段７７４巷１９號","OBJECTID":654574},"geometry":{"x":173046.90567000024,"y":2537928.9471070003}},{"attributes":{"ID":654602,"DIS_CODE":0,"TOWNNAME":"鹽水區","LI":"岸內里","LIN":"6鄰","STREET":" ","SECT":" ","MAREA":"岸內","LANE":" ","ALLEY":" ","HOUSE_NO":"１８號","E_COORD97":174731.69,"N_COORD97":2581040.5295600002,"ADDRESS":"岸內１８號","OBJECTID":654575},"geometry":{"x":174731.69000000041,"y":2581040.5295610018}},{"attributes":{"ID":654603,"DIS_CODE":0,"TOWNNAME":"楠西區","LI":"密枝里","LIN":"3鄰","STREET":" ","SECT":" ","MAREA":"密枝","LANE":" ","ALLEY":" ","HOUSE_NO":"３４號","E_COORD97":200050.31766299999,"N_COORD97":2567648.6236100001,"ADDRESS":"密枝３４號","OBJECTID":654576},"geometry":{"x":200050.3176630009,"y":2567648.6236149985}},{"attributes":{"ID":654604,"DIS_CODE":0,"TOWNNAME":"仁德區","LI":"上崙里","LIN":"24鄰","STREET":"中正路","SECT":"一段","MAREA":" ","LANE":" ","ALLEY":" ","HOUSE_NO":"７９２號","E_COORD97":173002.51030299999,"N_COORD97":2537934.4504399998,"ADDRESS":"中正路一段７９２號","OBJECTID":654577},"geometry":{"x":173002.51030299999,"y":2537934.4504380021}},{"attributes":{"ID":654605,"DIS_CODE":0,"TOWNNAME":"中西區","LI":"水仙里","LIN":"6鄰","STREET":"海安路","SECT":"二段","MAREA":" ","LANE":"１２８巷","ALLEY":" ","HOUSE_NO":"３８號","E_COORD97":167717.54928000001,"N_COORD97":2544067.8338000001,"ADDRESS":"海安路二段１２８巷３８號","OBJECTID":654578},"geometry":{"x":167717.54928000085,"y":2544067.8338010013}},{"attributes":{"ID":654606,"DIS_CODE":0,"TOWNNAME":"仁德區","LI":"上崙里","LIN":"24鄰","STREET":"中正路","SECT":"一段","MAREA":" ","LANE":" ","ALLEY":" ","HOUSE_NO":"８０２號","E_COORD97":173007.171493,"N_COORD97":2537950.3254300002,"ADDRESS":"中正路一段８０２號","OBJECTID":654579},"geometry":{"x":173007.17149300128,"y":2537950.325429}},{"attributes":{"ID":654607,"DIS_CODE":0,"TOWNNAME":"仁德區","LI":"上崙里","LIN":"24鄰","STREET":"中正路","SECT":"一段","MAREA":" ","LANE":" ","ALLEY":" ","HOUSE_NO":"８０６號","E_COORD97":173003.99340899999,"N_COORD97":2537956.4637600002,"ADDRESS":"中正路一段８０６號","OBJECTID":654580},"geometry":{"x":173003.99340900127,"y":2537956.4637590032}},{"attributes":{"ID":654608,"DIS_CODE":0,"TOWNNAME":"仁德區","LI":"上崙里","LIN":"24鄰","STREET":"中正路","SECT":"一段","MAREA":" ","LANE":" ","ALLEY":" ","HOUSE_NO":"８０８號","E_COORD97":173002.08655899999,"N_COORD97":2537962.17876,"ADDRESS":"中正路一段８０８號","OBJECTID":654581},"geometry":{"x":173002.08655900136,"y":2537962.1787560005}},{"attributes":{"ID":654609,"DIS_CODE":0,"TOWNNAME":"安定區","LI":"安加里","LIN":"9鄰","STREET":" ","SECT":" ","MAREA":"安定","LANE":" ","ALLEY":" ","HOUSE_NO":"２５６之８３號","E_COORD97":172122.35483900001,"N_COORD97":2557309.7527700001,"ADDRESS":"安定２５６之８３號","OBJECTID":654582},"geometry":{"x":172122.35483899992,"y":2557309.7527740002}},{"attributes":{"ID":654610,"DIS_CODE":0,"TOWNNAME":"仁德區","LI":"上崙里","LIN":"24鄰","STREET":"中正路","SECT":"一段","MAREA":" ","LANE":" ","ALLEY":" ","HOUSE_NO":"８１０號","E_COORD97":173004.205281,"N_COORD97":2537968.9520899998,"ADDRESS":"中正路一段８１０號","OBJECTID":654583},"geometry":{"x":173004.20528100152,"y":2537968.9520860035}},{"attributes":{"ID":654611,"DIS_CODE":0,"TOWNNAME":"仁德區","LI":"上崙里","LIN":"24鄰","STREET":"中正路","SECT":"一段","MAREA":" ","LANE":" ","ALLEY":" ","HOUSE_NO":"８１２號","E_COORD97":173006.53587600001,"N_COORD97":2537974.8787500001,"ADDRESS":"中正路一段８１２號","OBJECTID":654584},"geometry":{"x":173006.5358760003,"y":2537974.8787489999}},{"attributes":{"ID":654612,"DIS_CODE":0,"TOWNNAME":"仁德區","LI":"上崙里","LIN":"24鄰","STREET":"中正路","SECT":"一段","MAREA":" ","LANE":" ","ALLEY":" ","HOUSE_NO":"８２０號","E_COORD97":173015.01076599999,"N_COORD97":2538001.1253999998,"ADDRESS":"中正路一段８２０號","OBJECTID":654585},"geometry":{"x":173015.01076600049,"y":2538001.1254019998}},{"attributes":{"ID":654613,"DIS_CODE":0,"TOWNNAME":"楠西區","LI":"密枝里","LIN":"3鄰","STREET":" ","SECT":" ","MAREA":"密枝","LANE":" ","ALLEY":" ","HOUSE_NO":"３５號之１","E_COORD97":200088.030925,"N_COORD97":2567652.01028,"ADDRESS":"密枝３５號之１","OBJECTID":654586},"geometry":{"x":200088.03092500195,"y":2567652.01028}},{"attributes":{"ID":654614,"DIS_CODE":0,"TOWNNAME":"仁德區","LI":"上崙里","LIN":"25鄰","STREET":"上崙街","SECT":" ","MAREA":" ","LANE":" ","ALLEY":" ","HOUSE_NO":"２１６號","E_COORD97":173351.46391300001,"N_COORD97":2537806.4980100002,"ADDRESS":"上崙街２１６號","OBJECTID":654587},"geometry":{"x":173351.46391300019,"y":2537806.4980069995}},{"attributes":{"ID":654615,"DIS_CODE":0,"TOWNNAME":"楠西區","LI":"密枝里","LIN":"3鄰","STREET":" ","SECT":" ","MAREA":"密枝","LANE":" ","ALLEY":" ","HOUSE_NO":"３５號之３","E_COORD97":200032.308521,"N_COORD97":2567719.3202399998,"ADDRESS":"密枝３５號之３","OBJECTID":654588},"geometry":{"x":200032.30852099974,"y":2567719.3202430028}},{"attributes":{"ID":654616,"DIS_CODE":0,"TOWNNAME":"仁德區","LI":"上崙里","LIN":"27鄰","STREET":"上崙街","SECT":" ","MAREA":" ","LANE":"３１５巷","ALLEY":" ","HOUSE_NO":"９８號","E_COORD97":173290.44470200001,"N_COORD97":2537562.8698,"ADDRESS":"上崙街３１５巷９８號","OBJECTID":654589},"geometry":{"x":173290.44470200129,"y":2537562.8698050026}},{"attributes":{"ID":654617,"DIS_CODE":0,"TOWNNAME":"中西區","LI":"普濟里","LIN":"15鄰","STREET":"海安路","SECT":"二段","MAREA":" ","LANE":"３２９巷","ALLEY":" ","HOUSE_NO":"２２號","E_COORD97":167990.017005,"N_COORD97":2544470.6352499998,"ADDRESS":"海安路二段３２９巷２２號","OBJECTID":654590},"geometry":{"x":167990.01700500119,"y":2544470.6352500021}},{"attributes":{"ID":654618,"DIS_CODE":0,"TOWNNAME":"東山區","LI":"東正里","LIN":"1鄰","STREET":" ","SECT":" ","MAREA":"東勢","LANE":" ","ALLEY":" ","HOUSE_NO":"１號之１７","E_COORD97":189392.12115299999,"N_COORD97":2579561.6813699999,"ADDRESS":"東勢１號之１７","OBJECTID":654591},"geometry":{"x":189392.12115299981,"y":2579561.6813740004}},{"attributes":{"ID":654619,"DIS_CODE":0,"TOWNNAME":"東山區","LI":"東正里","LIN":"1鄰","STREET":" ","SECT":" ","MAREA":"東勢","LANE":" ","ALLEY":" ","HOUSE_NO":"１號之３１","E_COORD97":189607.470501,"N_COORD97":2579836.8478899999,"ADDRESS":"東勢１號之３１","OBJECTID":654592},"geometry":{"x":189607.47050100099,"y":2579836.8478919994}},{"attributes":{"ID":654620,"DIS_CODE":0,"TOWNNAME":"東山區","LI":"東正里","LIN":"1鄰","STREET":" ","SECT":" ","MAREA":"東勢","LANE":" ","ALLEY":" ","HOUSE_NO":"１號之３０","E_COORD97":189651.32422899999,"N_COORD97":2579821.18457,"ADDRESS":"東勢１號之３０","OBJECTID":654593},"geometry":{"x":189651.32422900107,"y":2579821.1845679991}},{"attributes":{"ID":654621,"DIS_CODE":0,"TOWNNAME":"東山區","LI":"東正里","LIN":"1鄰","STREET":" ","SECT":" ","MAREA":"東勢","LANE":" ","ALLEY":" ","HOUSE_NO":"５號之１","E_COORD97":189171.369534,"N_COORD97":2580074.33776,"ADDRESS":"東勢５號之１","OBJECTID":654594},"geometry":{"x":189171.36953399982,"y":2580074.3377640005}},{"attributes":{"ID":654622,"DIS_CODE":0,"TOWNNAME":"東山區","LI":"東正里","LIN":"1鄰","STREET":" ","SECT":" ","MAREA":"東勢","LANE":" ","ALLEY":" ","HOUSE_NO":"１１號之４","E_COORD97":189359.601601,"N_COORD97":2580102.9127500001,"ADDRESS":"東勢１１號之４","OBJECTID":654595},"geometry":{"x":189359.60160100181,"y":2580102.9127489999}},{"attributes":{"ID":654623,"DIS_CODE":0,"TOWNNAME":"東山區","LI":"東正里","LIN":"1鄰","STREET":" ","SECT":" ","MAREA":"東勢","LANE":" ","ALLEY":" ","HOUSE_NO":"２１號之３","E_COORD97":189413.62431000001,"N_COORD97":2580058.4627700001,"ADDRESS":"東勢２１號之３","OBJECTID":654596},"geometry":{"x":189413.6243100008,"y":2580058.4627730027}},{"attributes":{"ID":654624,"DIS_CODE":0,"TOWNNAME":"東山區","LI":"東正里","LIN":"1鄰","STREET":" ","SECT":" ","MAREA":"東勢","LANE":" ","ALLEY":" ","HOUSE_NO":"２１之７號","E_COORD97":189435.44524,"N_COORD97":2580072.0094300001,"ADDRESS":"東勢２１之７號","OBJECTID":654597},"geometry":{"x":189435.44524000119,"y":2580072.0094300024}},{"attributes":{"ID":654625,"DIS_CODE":0,"TOWNNAME":"東山區","LI":"東正里","LIN":"1鄰","STREET":" ","SECT":" ","MAREA":"東勢","LANE":" ","ALLEY":" ","HOUSE_NO":"２１號之１","E_COORD97":189467.435165,"N_COORD97":2580054.0177799999,"ADDRESS":"東勢２１號之１","OBJECTID":654598},"geometry":{"x":189467.43516500108,"y":2580054.0177749991}},{"attributes":{"ID":654626,"DIS_CODE":0,"TOWNNAME":"東山區","LI":"東正里","LIN":"1鄰","STREET":" ","SECT":" ","MAREA":"東勢","LANE":" ","ALLEY":" ","HOUSE_NO":"１之３２號","E_COORD97":189315.75545600001,"N_COORD97":2579853.59228,"ADDRESS":"東勢１之３２號","OBJECTID":654599},"geometry":{"x":189315.7554560015,"y":2579853.5922830012}},{"attributes":{"ID":654627,"DIS_CODE":0,"TOWNNAME":"東山區","LI":"東正里","LIN":"1鄰","STREET":" ","SECT":" ","MAREA":"東勢","LANE":" ","ALLEY":" ","HOUSE_NO":"３１號之１","E_COORD97":189524.53733799999,"N_COORD97":2580174.2671099999,"ADDRESS":"東勢３１號之１","OBJECTID":654600},"geometry":{"x":189524.53733800072,"y":2580174.2671099994}}]}