{"displayFieldName":"TOWNNAME","fieldAliases":{"ID":"ID","DIS_CODE":"DIS_CODE","TOWNNAME":"TOWNNAME","LI":"LI","LIN":"LIN","STREET":"STREET","SECT":"SECT","MAREA":"MAREA","LANE":"LANE","ALLEY":"ALLEY","HOUSE_NO":"HOUSE_NO","E_COORD97":"E_COORD97","N_COORD97":"N_COORD97","ADDRESS":"ADDRESS","OBJECTID":"OBJECTID"},"geometryType":"esriGeometryPoint","spatialReference":{"wkid":102443,"latestWkid":3826},"fields":[{"name":"ID","type":"esriFieldTypeDouble","alias":"ID"},{"name":"DIS_CODE","type":"esriFieldTypeInteger","alias":"DIS_CODE"},{"name":"TOWNNAME","type":"esriFieldTypeString","alias":"TOWNNAME","length":8},{"name":"LI","type":"esriFieldTypeString","alias":"LI","length":8},{"name":"LIN","type":"esriFieldTypeString","alias":"LIN","length":12},{"name":"STREET","type":"esriFieldTypeString","alias":"STREET","length":20},{"name":"SECT","type":"esriFieldTypeString","alias":"SECT","length":8},{"name":"MAREA","type":"esriFieldTypeString","alias":"MAREA","length":12},{"name":"LANE","type":"esriFieldTypeString","alias":"LANE","length":10},{"name":"ALLEY","type":"esriFieldTypeString","alias":"ALLEY","length":10},{"name":"HOUSE_NO","type":"esriFieldTypeString","alias":"HOUSE_NO","length":20},{"name":"E_COORD97","type":"esriFieldTypeDouble","alias":"E_COORD97"},{"name":"N_COORD97","type":"esriFieldTypeDouble","alias":"N_COORD97"},{"name":"ADDRESS","type":"esriFieldTypeString","alias":"ADDRESS","length":50},{"name":"OBJECTID","type":"esriFieldTypeOID","alias":"OBJECTID"}],"features":[{"attributes":{"ID":423226,"DIS_CODE":0,"TOWNNAME":"官田區","LI":"隆本里","LIN":"19鄰","STREET":"勝利路","SECT":" ","MAREA":" ","LANE":"２７６巷","ALLEY":" ","HOUSE_NO":"２號","E_COORD97":180068.17000000001,"N_COORD97":2566381.27,"ADDRESS":"勝利路２７６巷２號","OBJECTID":423201},"geometry":{"x":180068.17000000179,"y":2566381.2699999977}},{"attributes":{"ID":423227,"DIS_CODE":0,"TOWNNAME":"官田區","LI":"隆田里","LIN":"4鄰","STREET":"新生街","SECT":" ","MAREA":" ","LANE":"９３巷","ALLEY":" ","HOUSE_NO":"１１號","E_COORD97":180175.17000000001,"N_COORD97":2565678.6299999999,"ADDRESS":"新生街９３巷１１號","OBJECTID":423202},"geometry":{"x":180175.17000000086,"y":2565678.629999999}},{"attributes":{"ID":423228,"DIS_CODE":0,"TOWNNAME":"官田區","LI":"隆田里","LIN":"4鄰","STREET":"新生街","SECT":" ","MAREA":" ","LANE":"９３巷","ALLEY":" ","HOUSE_NO":"１３號","E_COORD97":180174.91,"N_COORD97":2565682.48,"ADDRESS":"新生街９３巷１３號","OBJECTID":423203},"geometry":{"x":180174.91000000015,"y":2565682.4800000042}},{"attributes":{"ID":423229,"DIS_CODE":0,"TOWNNAME":"官田區","LI":"隆田里","LIN":"4鄰","STREET":"新生街","SECT":" ","MAREA":" ","LANE":"９３巷","ALLEY":" ","HOUSE_NO":"１５號","E_COORD97":180174.94,"N_COORD97":2565686.48,"ADDRESS":"新生街９３巷１５號","OBJECTID":423204},"geometry":{"x":180174.94000000041,"y":2565686.4800000023}},{"attributes":{"ID":423230,"DIS_CODE":0,"TOWNNAME":"官田區","LI":"隆田里","LIN":"4鄰","STREET":"新生街","SECT":" ","MAREA":" ","LANE":"９３巷","ALLEY":" ","HOUSE_NO":"１７號","E_COORD97":180174.95999999999,"N_COORD97":2565690.1499999999,"ADDRESS":"新生街９３巷１７號","OBJECTID":423205},"geometry":{"x":180174.96000000089,"y":2565690.1500000004}},{"attributes":{"ID":423231,"DIS_CODE":0,"TOWNNAME":"官田區","LI":"隆田里","LIN":"4鄰","STREET":"新生街","SECT":" ","MAREA":" ","LANE":"９３巷","ALLEY":" ","HOUSE_NO":"１９號","E_COORD97":180174.25,"N_COORD97":2565693.75,"ADDRESS":"新生街９３巷１９號","OBJECTID":423206},"geometry":{"x":180174.25,"y":2565693.7500000037}},{"attributes":{"ID":423232,"DIS_CODE":0,"TOWNNAME":"官田區","LI":"隆田里","LIN":"4鄰","STREET":"新生街","SECT":" ","MAREA":" ","LANE":"９３巷","ALLEY":" ","HOUSE_NO":"２號","E_COORD97":180191.13,"N_COORD97":2565689.7999999998,"ADDRESS":"新生街９３巷２號","OBJECTID":423207},"geometry":{"x":180191.13000000082,"y":2565689.8000000007}},{"attributes":{"ID":423233,"DIS_CODE":0,"TOWNNAME":"官田區","LI":"隆田里","LIN":"4鄰","STREET":"新生街","SECT":" ","MAREA":" ","LANE":"９３巷","ALLEY":" ","HOUSE_NO":"４號","E_COORD97":180184.54000000001,"N_COORD97":2565688.9500000002,"ADDRESS":"新生街９３巷４號","OBJECTID":423208},"geometry":{"x":180184.5400000019,"y":2565688.9500000011}},{"attributes":{"ID":423234,"DIS_CODE":0,"TOWNNAME":"官田區","LI":"隆田里","LIN":"4鄰","STREET":"新生街","SECT":" ","MAREA":" ","LANE":"９３巷","ALLEY":" ","HOUSE_NO":"５號","E_COORD97":180188.16,"N_COORD97":2565677.2400000002,"ADDRESS":"新生街９３巷５號","OBJECTID":423209},"geometry":{"x":180188.16000000015,"y":2565677.2400000039}},{"attributes":{"ID":423235,"DIS_CODE":0,"TOWNNAME":"官田區","LI":"隆田里","LIN":"4鄰","STREET":"新生街","SECT":" ","MAREA":" ","LANE":"９３巷","ALLEY":" ","HOUSE_NO":"７號","E_COORD97":180182.20999999999,"N_COORD97":2565676.27,"ADDRESS":"新生街９３巷７號","OBJECTID":423210},"geometry":{"x":180182.21000000089,"y":2565676.2700000033}},{"attributes":{"ID":423236,"DIS_CODE":0,"TOWNNAME":"官田區","LI":"隆田里","LIN":"4鄰","STREET":"新生街","SECT":" ","MAREA":" ","LANE":"９３巷","ALLEY":" ","HOUSE_NO":"９號","E_COORD97":180175.60000000001,"N_COORD97":2565673.71,"ADDRESS":"新生街９３巷９號","OBJECTID":423211},"geometry":{"x":180175.60000000056,"y":2565673.7100000009}},{"attributes":{"ID":423237,"DIS_CODE":0,"TOWNNAME":"官田區","LI":"隆本里","LIN":"15鄰","STREET":"興隆街","SECT":" ","MAREA":" ","LANE":"２２０巷","ALLEY":" ","HOUSE_NO":"１１號","E_COORD97":179630.16,"N_COORD97":2566372.8500000001,"ADDRESS":"興隆街２２０巷１１號","OBJECTID":423212},"geometry":{"x":179630.16000000108,"y":2566372.8499999996}},{"attributes":{"ID":423238,"DIS_CODE":0,"TOWNNAME":"新市區","LI":"新和里","LIN":"4鄰","STREET":"中正路","SECT":" ","MAREA":" ","LANE":"２３巷","ALLEY":" ","HOUSE_NO":"２１號","E_COORD97":177107.51000000001,"N_COORD97":2552018.25,"ADDRESS":"中正路２３巷２１號","OBJECTID":423213},"geometry":{"x":177107.50999999978,"y":2552018.2500000019}},{"attributes":{"ID":423239,"DIS_CODE":0,"TOWNNAME":"永康區","LI":"北灣里","LIN":"39鄰","STREET":"大同街","SECT":" ","MAREA":" ","LANE":"７４０巷","ALLEY":" ","HOUSE_NO":"６８號","E_COORD97":174684.42999999999,"N_COORD97":2546659.2200000002,"ADDRESS":"大同街７４０巷６８號","OBJECTID":423214},"geometry":{"x":174684.43000000063,"y":2546659.2200000025}},{"attributes":{"ID":423240,"DIS_CODE":0,"TOWNNAME":"永康區","LI":"北灣里","LIN":"38鄰","STREET":"大灣路","SECT":" ","MAREA":" ","LANE":"４０巷","ALLEY":" ","HOUSE_NO":"２０７號","E_COORD97":174809.54000000001,"N_COORD97":2546337.2000000002,"ADDRESS":"大灣路４０巷２０７號","OBJECTID":423215},"geometry":{"x":174809.54000000097,"y":2546337.1999999993}},{"attributes":{"ID":423241,"DIS_CODE":0,"TOWNNAME":"永康區","LI":"北灣里","LIN":"18鄰","STREET":"文賢街","SECT":" ","MAREA":" ","LANE":"４２２巷","ALLEY":" ","HOUSE_NO":"１５號","E_COORD97":174670.29000000001,"N_COORD97":2545868.4199999999,"ADDRESS":"文賢街４２２巷１５號","OBJECTID":423216},"geometry":{"x":174670.29000000097,"y":2545868.4199999999}},{"attributes":{"ID":423242,"DIS_CODE":0,"TOWNNAME":"永康區","LI":"北灣里","LIN":"20鄰","STREET":"大安街","SECT":" ","MAREA":" ","LANE":"４６８巷","ALLEY":" ","HOUSE_NO":"７號","E_COORD97":174617.91,"N_COORD97":2545949.5699999998,"ADDRESS":"大安街４６８巷７號","OBJECTID":423217},"geometry":{"x":174617.91000000015,"y":2545949.5699999984}},{"attributes":{"ID":423243,"DIS_CODE":0,"TOWNNAME":"永康區","LI":"北灣里","LIN":"39鄰","STREET":"大同街","SECT":" ","MAREA":" ","LANE":"７４０巷","ALLEY":" ","HOUSE_NO":"１６號","E_COORD97":174592.04999999999,"N_COORD97":2546634.2200000002,"ADDRESS":"大同街７４０巷１６號","OBJECTID":423218},"geometry":{"x":174592.05000000075,"y":2546634.2200000044}},{"attributes":{"ID":423244,"DIS_CODE":0,"TOWNNAME":"永康區","LI":"北灣里","LIN":"41鄰","STREET":"大灣路","SECT":" ","MAREA":" ","LANE":"７４巷","ALLEY":" ","HOUSE_NO":"８號","E_COORD97":175173.31,"N_COORD97":2545786.75,"ADDRESS":"大灣路７４巷８號","OBJECTID":423219},"geometry":{"x":175173.31000000052,"y":2545786.7500000019}},{"attributes":{"ID":423245,"DIS_CODE":0,"TOWNNAME":"永康區","LI":"正強里","LIN":"4鄰","STREET":"中正路","SECT":" ","MAREA":" ","LANE":"５５巷","ALLEY":" ","HOUSE_NO":"７號","E_COORD97":173583.48000000001,"N_COORD97":2547757.2999999998,"ADDRESS":"中正路５５巷７號","OBJECTID":423220},"geometry":{"x":173583.48000000045,"y":2547757.3000000026}},{"attributes":{"ID":423246,"DIS_CODE":0,"TOWNNAME":"歸仁區","LI":"沙崙里","LIN":"4鄰","STREET":" ","SECT":" ","MAREA":"沙崙","LANE":" ","ALLEY":" ","HOUSE_NO":"３５５號","E_COORD97":179269.463062,"N_COORD97":2538186.4228400001,"ADDRESS":"沙崙３５５號","OBJECTID":423221},"geometry":{"x":179269.46306200046,"y":2538186.422836002}},{"attributes":{"ID":423247,"DIS_CODE":0,"TOWNNAME":"永康區","LI":"正強里","LIN":"4鄰","STREET":"中正路","SECT":" ","MAREA":" ","LANE":"５５巷","ALLEY":" ","HOUSE_NO":"３號","E_COORD97":173590.23999999999,"N_COORD97":2547763.2999999998,"ADDRESS":"中正路５５巷３號","OBJECTID":423222},"geometry":{"x":173590.24000000022,"y":2547763.3000000026}},{"attributes":{"ID":423248,"DIS_CODE":0,"TOWNNAME":"永康區","LI":"北灣里","LIN":"18鄰","STREET":"文賢街","SECT":" ","MAREA":" ","LANE":"４２２巷","ALLEY":" ","HOUSE_NO":"３８號","E_COORD97":174660.84,"N_COORD97":2545885.0699999998,"ADDRESS":"文賢街４２２巷３８號","OBJECTID":423223},"geometry":{"x":174660.83999999985,"y":2545885.0700000003}},{"attributes":{"ID":423249,"DIS_CODE":0,"TOWNNAME":"永康區","LI":"北灣里","LIN":"20鄰","STREET":"北興路","SECT":" ","MAREA":" ","LANE":"３２巷","ALLEY":" ","HOUSE_NO":"１７號","E_COORD97":174674.07000000001,"N_COORD97":2545985.98,"ADDRESS":"北興路３２巷１７號","OBJECTID":423224},"geometry":{"x":174674.07000000123,"y":2545985.9800000023}},{"attributes":{"ID":423250,"DIS_CODE":0,"TOWNNAME":"永康區","LI":"北灣里","LIN":"20鄰","STREET":"大安街","SECT":" ","MAREA":" ","LANE":"４５０巷","ALLEY":" ","HOUSE_NO":"１號","E_COORD97":174612.89000000001,"N_COORD97":2545914.5699999998,"ADDRESS":"大安街４５０巷１號","OBJECTID":423225},"geometry":{"x":174612.88999999966,"y":2545914.5700000003}},{"attributes":{"ID":423251,"DIS_CODE":0,"TOWNNAME":"永康區","LI":"北灣里","LIN":"39鄰","STREET":"大同街","SECT":" ","MAREA":" ","LANE":"７４０巷","ALLEY":" ","HOUSE_NO":"２８號","E_COORD97":174614.41,"N_COORD97":2546639.9700000002,"ADDRESS":"大同街７４０巷２８號","OBJECTID":423226},"geometry":{"x":174614.41000000015,"y":2546639.9700000025}},{"attributes":{"ID":423252,"DIS_CODE":0,"TOWNNAME":"永康區","LI":"北灣里","LIN":"41鄰","STREET":"大灣路","SECT":" ","MAREA":" ","LANE":"７４巷","ALLEY":" ","HOUSE_NO":"６號","E_COORD97":175197.29000000001,"N_COORD97":2545788.75,"ADDRESS":"大灣路７４巷６號","OBJECTID":423227},"geometry":{"x":175197.2900000019,"y":2545788.7499999981}},{"attributes":{"ID":423253,"DIS_CODE":0,"TOWNNAME":"永康區","LI":"正強里","LIN":"4鄰","STREET":"中正路","SECT":" ","MAREA":" ","LANE":"５５巷","ALLEY":" ","HOUSE_NO":"５號","E_COORD97":173587.09,"N_COORD97":2547760.5499999998,"ADDRESS":"中正路５５巷５號","OBJECTID":423228},"geometry":{"x":173587.09000000078,"y":2547760.5500000007}},{"attributes":{"ID":423254,"DIS_CODE":0,"TOWNNAME":"永康區","LI":"北灣里","LIN":"18鄰","STREET":"大安街","SECT":" ","MAREA":" ","LANE":"４５０巷","ALLEY":" ","HOUSE_NO":"１０號","E_COORD97":174668.89999999999,"N_COORD97":2545918.46,"ADDRESS":"大安街４５０巷１０號","OBJECTID":423229},"geometry":{"x":174668.90000000037,"y":2545918.4600000028}},{"attributes":{"ID":423255,"DIS_CODE":0,"TOWNNAME":"永康區","LI":"北灣里","LIN":"18鄰","STREET":"文賢街","SECT":" ","MAREA":" ","LANE":"４２２巷","ALLEY":" ","HOUSE_NO":"５０號","E_COORD97":174647.67000000001,"N_COORD97":2545897.3300000001,"ADDRESS":"文賢街４２２巷５０號","OBJECTID":423230},"geometry":{"x":174647.67000000086,"y":2545897.3300000019}},{"attributes":{"ID":423256,"DIS_CODE":0,"TOWNNAME":"永康區","LI":"北灣里","LIN":"18鄰","STREET":"文賢街","SECT":" ","MAREA":" ","LANE":"４２２巷","ALLEY":" ","HOUSE_NO":"２８號","E_COORD97":174692.04000000001,"N_COORD97":2545881.1800000002,"ADDRESS":"文賢街４２２巷２８號","OBJECTID":423231},"geometry":{"x":174692.0400000019,"y":2545881.1800000016}},{"attributes":{"ID":423257,"DIS_CODE":0,"TOWNNAME":"永康區","LI":"北灣里","LIN":"20鄰","STREET":"大安街","SECT":" ","MAREA":" ","LANE":"４５０巷","ALLEY":" ","HOUSE_NO":"５號","E_COORD97":174626.59,"N_COORD97":2545903.8199999998,"ADDRESS":"大安街４５０巷５號","OBJECTID":423232},"geometry":{"x":174626.58999999985,"y":2545903.8199999984}},{"attributes":{"ID":423258,"DIS_CODE":0,"TOWNNAME":"北區","LI":"五福里","LIN":"13鄰","STREET":"自強街","SECT":" ","MAREA":" ","LANE":" ","ALLEY":" ","HOUSE_NO":"１３號","E_COORD97":168210.29999999999,"N_COORD97":2544476.6800000002,"ADDRESS":"自強街１３號","OBJECTID":423233},"geometry":{"x":168210.29999999981,"y":2544476.6799999997}},{"attributes":{"ID":423259,"DIS_CODE":0,"TOWNNAME":"永康區","LI":"北灣里","LIN":"18鄰","STREET":"文賢街","SECT":" ","MAREA":" ","LANE":"４２２巷","ALLEY":" ","HOUSE_NO":"３６號","E_COORD97":174666.54000000001,"N_COORD97":2545885.5699999998,"ADDRESS":"文賢街４２２巷３６號","OBJECTID":423234},"geometry":{"x":174666.53999999911,"y":2545885.570000004}},{"attributes":{"ID":423260,"DIS_CODE":0,"TOWNNAME":"永康區","LI":"永康里","LIN":"26鄰","STREET":"永明街","SECT":" ","MAREA":" ","LANE":"５３巷","ALLEY":" ","HOUSE_NO":"２５號","E_COORD97":174134.39999999999,"N_COORD97":2547379.8700000001,"ADDRESS":"永明街５３巷２５號","OBJECTID":423235},"geometry":{"x":174134.4000000013,"y":2547379.8700000029}},{"attributes":{"ID":423261,"DIS_CODE":0,"TOWNNAME":"永康區","LI":"永康里","LIN":"39鄰","STREET":"永大路","SECT":"二段","MAREA":" ","LANE":"６３３巷","ALLEY":" ","HOUSE_NO":"１１號","E_COORD97":174359.66,"N_COORD97":2546408.02,"ADDRESS":"永大路二段６３３巷１１號","OBJECTID":423236},"geometry":{"x":174359.66000000108,"y":2546408.0200000014}},{"attributes":{"ID":423262,"DIS_CODE":0,"TOWNNAME":"永康區","LI":"永康里","LIN":"39鄰","STREET":"永大路","SECT":"二段","MAREA":" ","LANE":"６７７巷","ALLEY":" ","HOUSE_NO":"３號","E_COORD97":174365.06,"N_COORD97":2546533.7799999998,"ADDRESS":"永大路二段６７７巷３號","OBJECTID":423237},"geometry":{"x":174365.06000000052,"y":2546533.7800000031}},{"attributes":{"ID":423263,"DIS_CODE":0,"TOWNNAME":"永康區","LI":"北灣里","LIN":"4鄰","STREET":"信義街","SECT":" ","MAREA":" ","LANE":"４４巷","ALLEY":" ","HOUSE_NO":"１８號","E_COORD97":175489.23000000001,"N_COORD97":2545724.6699999999,"ADDRESS":"信義街４４巷１８號","OBJECTID":423238},"geometry":{"x":175489.23000000045,"y":2545724.6699999999}},{"attributes":{"ID":423264,"DIS_CODE":0,"TOWNNAME":"永康區","LI":"北灣里","LIN":"18鄰","STREET":"文賢街","SECT":" ","MAREA":" ","LANE":"４２２巷","ALLEY":" ","HOUSE_NO":"２號","E_COORD97":174727.19,"N_COORD97":2545834.7000000002,"ADDRESS":"文賢街４２２巷２號","OBJECTID":423239},"geometry":{"x":174727.19000000227,"y":2545834.6999999993}},{"attributes":{"ID":423265,"DIS_CODE":0,"TOWNNAME":"永康區","LI":"北灣里","LIN":"4鄰","STREET":"信義街","SECT":" ","MAREA":" ","LANE":"４４巷","ALLEY":" ","HOUSE_NO":"２０號","E_COORD97":175489.07000000001,"N_COORD97":2545728.4199999999,"ADDRESS":"信義街４４巷２０號","OBJECTID":423240},"geometry":{"x":175489.07000000123,"y":2545728.4199999999}},{"attributes":{"ID":423266,"DIS_CODE":0,"TOWNNAME":"永康區","LI":"北灣里","LIN":"20鄰","STREET":"大安街","SECT":" ","MAREA":" ","LANE":"４５０巷","ALLEY":" ","HOUSE_NO":"３８號","E_COORD97":174707.20999999999,"N_COORD97":2545986.6099999999,"ADDRESS":"大安街４５０巷３８號","OBJECTID":423241},"geometry":{"x":174707.20999999996,"y":2545986.6100000013}},{"attributes":{"ID":423267,"DIS_CODE":0,"TOWNNAME":"永康區","LI":"永康里","LIN":"26鄰","STREET":"永明街","SECT":" ","MAREA":" ","LANE":"６９巷","ALLEY":" ","HOUSE_NO":"８號","E_COORD97":174187.06,"N_COORD97":2547285.4900000002,"ADDRESS":"永明街６９巷８號","OBJECTID":423242},"geometry":{"x":174187.06000000052,"y":2547285.4900000002}},{"attributes":{"ID":423268,"DIS_CODE":0,"TOWNNAME":"永康區","LI":"永康里","LIN":"39鄰","STREET":"永福街","SECT":" ","MAREA":" ","LANE":"２１巷","ALLEY":" ","HOUSE_NO":"３０號","E_COORD97":174255.57000000001,"N_COORD97":2546427.96,"ADDRESS":"永福街２１巷３０號","OBJECTID":423243},"geometry":{"x":174255.57000000123,"y":2546427.9600000009}},{"attributes":{"ID":423269,"DIS_CODE":0,"TOWNNAME":"永康區","LI":"北灣里","LIN":"39鄰","STREET":"永大路","SECT":"二段","MAREA":" ","LANE":"９８６巷","ALLEY":" ","HOUSE_NO":"２０號","E_COORD97":174543,"N_COORD97":2546355.8399999999,"ADDRESS":"永大路二段９８６巷２０號","OBJECTID":423244},"geometry":{"x":174543,"y":2546355.8400000017}},{"attributes":{"ID":423270,"DIS_CODE":0,"TOWNNAME":"永康區","LI":"中興里","LIN":"4鄰","STREET":"中華路","SECT":" ","MAREA":" ","LANE":"２１２巷","ALLEY":" ","HOUSE_NO":"４３號","E_COORD97":171811.64999999999,"N_COORD97":2545027.4900000002,"ADDRESS":"中華路２１２巷４３號","OBJECTID":423245},"geometry":{"x":171811.65000000224,"y":2545027.4900000002}},{"attributes":{"ID":423271,"DIS_CODE":0,"TOWNNAME":"永康區","LI":"五王里","LIN":"38鄰","STREET":"中華路","SECT":" ","MAREA":" ","LANE":"５７８巷","ALLEY":" ","HOUSE_NO":"１７號之５２","E_COORD97":171333.70000000001,"N_COORD97":2545989.54,"ADDRESS":"中華路５７８巷１７號之５２","OBJECTID":423246},"geometry":{"x":171333.70000000112,"y":2545989.5400000028}},{"attributes":{"ID":423272,"DIS_CODE":0,"TOWNNAME":"永康區","LI":"五王里","LIN":"39鄰","STREET":"中華路","SECT":" ","MAREA":" ","LANE":"５７８巷","ALLEY":" ","HOUSE_NO":"１７號之８０","E_COORD97":171333.62,"N_COORD97":2545989.54,"ADDRESS":"中華路５７８巷１７號之８０","OBJECTID":423247},"geometry":{"x":171333.62000000104,"y":2545989.5400000028}},{"attributes":{"ID":423273,"DIS_CODE":0,"TOWNNAME":"永康區","LI":"五王里","LIN":"39鄰","STREET":"中華路","SECT":" ","MAREA":" ","LANE":"５７８巷","ALLEY":" ","HOUSE_NO":"１７號之７６","E_COORD97":171333.67000000001,"N_COORD97":2545989.54,"ADDRESS":"中華路５７８巷１７號之７６","OBJECTID":423248},"geometry":{"x":171333.67000000086,"y":2545989.5400000028}},{"attributes":{"ID":423274,"DIS_CODE":0,"TOWNNAME":"永康區","LI":"正強里","LIN":"4鄰","STREET":"中正路","SECT":" ","MAREA":" ","LANE":"５５巷","ALLEY":" ","HOUSE_NO":"１３號","E_COORD97":173575.91,"N_COORD97":2547768,"ADDRESS":"中正路５５巷１３號","OBJECTID":423249},"geometry":{"x":173575.91000000201,"y":2547768.0000000019}},{"attributes":{"ID":423275,"DIS_CODE":0,"TOWNNAME":"永康區","LI":"北灣里","LIN":"20鄰","STREET":"北興路","SECT":" ","MAREA":" ","LANE":"３２巷","ALLEY":" ","HOUSE_NO":"５號","E_COORD97":174671.10000000001,"N_COORD97":2546012.3199999998,"ADDRESS":"北興路３２巷５號","OBJECTID":423250},"geometry":{"x":174671.10000000056,"y":2546012.3199999984}},{"attributes":{"ID":423276,"DIS_CODE":0,"TOWNNAME":"永康區","LI":"北灣里","LIN":"39鄰","STREET":"大同街","SECT":" ","MAREA":" ","LANE":"６３９巷","ALLEY":" ","HOUSE_NO":"１６號","E_COORD97":174485.39999999999,"N_COORD97":2546466.4700000002,"ADDRESS":"大同街６３９巷１６號","OBJECTID":423251},"geometry":{"x":174485.4000000013,"y":2546466.4700000044}},{"attributes":{"ID":423277,"DIS_CODE":0,"TOWNNAME":"永康區","LI":"王行里","LIN":"13鄰","STREET":"王行路","SECT":" ","MAREA":" ","LANE":"１０３２巷","ALLEY":" ","HOUSE_NO":"６號","E_COORD97":175817.10999999999,"N_COORD97":2550162.7000000002,"ADDRESS":"王行路１０３２巷６號","OBJECTID":423252},"geometry":{"x":175817.11000000034,"y":2550162.7000000011}},{"attributes":{"ID":423278,"DIS_CODE":0,"TOWNNAME":"永康區","LI":"正強里","LIN":"4鄰","STREET":"中正路","SECT":" ","MAREA":" ","LANE":"５５巷","ALLEY":" ","HOUSE_NO":"３３號","E_COORD97":173561.82000000001,"N_COORD97":2547708.7400000002,"ADDRESS":"中正路５５巷３３號","OBJECTID":423253},"geometry":{"x":173561.82000000123,"y":2547708.7400000021}},{"attributes":{"ID":423279,"DIS_CODE":0,"TOWNNAME":"永康區","LI":"北灣里","LIN":"18鄰","STREET":"文賢街","SECT":" ","MAREA":" ","LANE":"４２２巷","ALLEY":" ","HOUSE_NO":"１０號","E_COORD97":174721.35999999999,"N_COORD97":2545849.1899999999,"ADDRESS":"文賢街４２２巷１０號","OBJECTID":423254},"geometry":{"x":174721.36000000127,"y":2545849.1899999995}},{"attributes":{"ID":423280,"DIS_CODE":0,"TOWNNAME":"永康區","LI":"北灣里","LIN":"39鄰","STREET":"大同街","SECT":" ","MAREA":" ","LANE":"７４０巷","ALLEY":" ","HOUSE_NO":"５０號","E_COORD97":174653.63,"N_COORD97":2546650.4700000002,"ADDRESS":"大同街７４０巷５０號","OBJECTID":423255},"geometry":{"x":174653.62999999989,"y":2546650.4700000025}},{"attributes":{"ID":423281,"DIS_CODE":0,"TOWNNAME":"永康區","LI":"北灣里","LIN":"18鄰","STREET":"文賢街","SECT":" ","MAREA":" ","LANE":"４２２巷","ALLEY":" ","HOUSE_NO":"１８號","E_COORD97":174747.76000000001,"N_COORD97":2545869.6800000002,"ADDRESS":"文賢街４２２巷１８號","OBJECTID":423256},"geometry":{"x":174747.75999999978,"y":2545869.6799999997}},{"attributes":{"ID":423282,"DIS_CODE":0,"TOWNNAME":"永康區","LI":"北灣里","LIN":"20鄰","STREET":"北興路","SECT":" ","MAREA":" ","LANE":"３２巷","ALLEY":" ","HOUSE_NO":"９號","E_COORD97":174672.14999999999,"N_COORD97":2546004.0699999998,"ADDRESS":"北興路３２巷９號","OBJECTID":423257},"geometry":{"x":174672.1500000013,"y":2546004.070000004}},{"attributes":{"ID":423283,"DIS_CODE":0,"TOWNNAME":"永康區","LI":"王行里","LIN":"4鄰","STREET":"育樂街","SECT":" ","MAREA":" ","LANE":"１８３巷","ALLEY":" ","HOUSE_NO":"６號","E_COORD97":174989.82000000001,"N_COORD97":2548254.7400000002,"ADDRESS":"育樂街１８３巷６號","OBJECTID":423258},"geometry":{"x":174989.8200000003,"y":2548254.7400000021}},{"attributes":{"ID":423284,"DIS_CODE":0,"TOWNNAME":"永康區","LI":"北灣里","LIN":"39鄰","STREET":"大同街","SECT":" ","MAREA":" ","LANE":"６３９巷","ALLEY":" ","HOUSE_NO":"１２號","E_COORD97":174494.64999999999,"N_COORD97":2546467.7799999998,"ADDRESS":"大同街６３９巷１２號","OBJECTID":423259},"geometry":{"x":174494.65000000037,"y":2546467.7800000012}},{"attributes":{"ID":423285,"DIS_CODE":0,"TOWNNAME":"永康區","LI":"北灣里","LIN":"39鄰","STREET":"大同街","SECT":" ","MAREA":" ","LANE":"７４０巷","ALLEY":" ","HOUSE_NO":"６６號","E_COORD97":174680.10999999999,"N_COORD97":2546657.9700000002,"ADDRESS":"大同街７４０巷６６號","OBJECTID":423260},"geometry":{"x":174680.1100000022,"y":2546657.9700000007}},{"attributes":{"ID":423286,"DIS_CODE":0,"TOWNNAME":"新市區","LI":"新和里","LIN":"39鄰","STREET":"中正路","SECT":" ","MAREA":" ","LANE":"１９５巷","ALLEY":" ","HOUSE_NO":"６之１號","E_COORD97":177339.51999999999,"N_COORD97":2552904.2999999998,"ADDRESS":"中正路１９５巷６之１號","OBJECTID":423261},"geometry":{"x":177339.51999999862,"y":2552904.3000000007}},{"attributes":{"ID":423287,"DIS_CODE":0,"TOWNNAME":"新市區","LI":"新和里","LIN":"39鄰","STREET":"中正路","SECT":" ","MAREA":" ","LANE":"１９５巷","ALLEY":" ","HOUSE_NO":"１５號","E_COORD97":177339.37,"N_COORD97":2552885.25,"ADDRESS":"中正路１９５巷１５號","OBJECTID":423262},"geometry":{"x":177339.37000000011,"y":2552885.2500000037}},{"attributes":{"ID":423288,"DIS_CODE":0,"TOWNNAME":"新市區","LI":"新和里","LIN":"42鄰","STREET":"勝利街","SECT":" ","MAREA":" ","LANE":"１２巷","ALLEY":" ","HOUSE_NO":"６號","E_COORD97":177382.39999999999,"N_COORD97":2552980.2599999998,"ADDRESS":"勝利街１２巷６號","OBJECTID":423263},"geometry":{"x":177382.4000000013,"y":2552980.2600000016}},{"attributes":{"ID":423289,"DIS_CODE":0,"TOWNNAME":"新市區","LI":"港墘里","LIN":"17鄰","STREET":"華美街","SECT":" ","MAREA":" ","LANE":"６巷","ALLEY":" ","HOUSE_NO":"２６號","E_COORD97":178152.73999999999,"N_COORD97":2552675.9100000001,"ADDRESS":"華美街６巷２６號","OBJECTID":423264},"geometry":{"x":178152.74000000115,"y":2552675.9100000001}},{"attributes":{"ID":423290,"DIS_CODE":0,"TOWNNAME":"新市區","LI":"港墘里","LIN":"17鄰","STREET":"華美街","SECT":" ","MAREA":" ","LANE":"６巷","ALLEY":" ","HOUSE_NO":"２８號","E_COORD97":178157.19,"N_COORD97":2552676.6000000001,"ADDRESS":"華美街６巷２８號","OBJECTID":423265},"geometry":{"x":178157.19000000134,"y":2552676.6000000015}},{"attributes":{"ID":423291,"DIS_CODE":0,"TOWNNAME":"新市區","LI":"港墘里","LIN":"17鄰","STREET":"華美街","SECT":" ","MAREA":" ","LANE":"６巷","ALLEY":" ","HOUSE_NO":"３０號","E_COORD97":178162.09,"N_COORD97":2552677.1699999999,"ADDRESS":"華美街６巷３０號","OBJECTID":423266},"geometry":{"x":178162.09000000078,"y":2552677.1699999999}},{"attributes":{"ID":423292,"DIS_CODE":0,"TOWNNAME":"新市區","LI":"港墘里","LIN":"17鄰","STREET":"華美街","SECT":" ","MAREA":" ","LANE":"６巷","ALLEY":" ","HOUSE_NO":"３２號","E_COORD97":178166.35000000001,"N_COORD97":2552677.6699999999,"ADDRESS":"華美街６巷３２號","OBJECTID":423267},"geometry":{"x":178166.35000000149,"y":2552677.6699999999}},{"attributes":{"ID":423293,"DIS_CODE":0,"TOWNNAME":"新市區","LI":"港墘里","LIN":"17鄰","STREET":"華美街","SECT":" ","MAREA":" ","LANE":"６巷","ALLEY":" ","HOUSE_NO":"３６號","E_COORD97":178170.94,"N_COORD97":2552678.4900000002,"ADDRESS":"華美街６巷３６號","OBJECTID":423268},"geometry":{"x":178170.94000000041,"y":2552678.4900000021}},{"attributes":{"ID":423294,"DIS_CODE":0,"TOWNNAME":"新市區","LI":"港墘里","LIN":"17鄰","STREET":"華美街","SECT":" ","MAREA":" ","LANE":"６巷","ALLEY":" ","HOUSE_NO":"３８號","E_COORD97":178175.76999999999,"N_COORD97":2552679.1800000002,"ADDRESS":"華美街６巷３８號","OBJECTID":423269},"geometry":{"x":178175.77000000048,"y":2552679.1800000016}},{"attributes":{"ID":423295,"DIS_CODE":0,"TOWNNAME":"新市區","LI":"新和里","LIN":"46鄰","STREET":"和平街","SECT":" ","MAREA":" ","LANE":"２０８巷","ALLEY":" ","HOUSE_NO":"１８號","E_COORD97":177349.76999999999,"N_COORD97":2553340.7400000002,"ADDRESS":"和平街２０８巷１８號","OBJECTID":423270},"geometry":{"x":177349.77000000142,"y":2553340.7400000021}},{"attributes":{"ID":423296,"DIS_CODE":0,"TOWNNAME":"新市區","LI":"新市里","LIN":"7鄰","STREET":"中正路","SECT":" ","MAREA":" ","LANE":"２６８巷","ALLEY":" ","HOUSE_NO":"１１號","E_COORD97":177497.01999999999,"N_COORD97":2553044.0899999999,"ADDRESS":"中正路２６８巷１１號","OBJECTID":423271},"geometry":{"x":177497.01999999955,"y":2553044.0899999999}},{"attributes":{"ID":423297,"DIS_CODE":0,"TOWNNAME":"新市區","LI":"新市里","LIN":"7鄰","STREET":"中正路","SECT":" ","MAREA":" ","LANE":"２６８巷","ALLEY":" ","HOUSE_NO":"１３號","E_COORD97":177500.94,"N_COORD97":2553047.1600000001,"ADDRESS":"中正路２６８巷１３號","OBJECTID":423272},"geometry":{"x":177500.94000000134,"y":2553047.1600000001}},{"attributes":{"ID":423298,"DIS_CODE":0,"TOWNNAME":"新市區","LI":"新市里","LIN":"7鄰","STREET":"中正路","SECT":" ","MAREA":" ","LANE":"２６８巷","ALLEY":" ","HOUSE_NO":"１５號","E_COORD97":177505.84,"N_COORD97":2553045.7599999998,"ADDRESS":"中正路２６８巷１５號","OBJECTID":423273},"geometry":{"x":177505.84000000078,"y":2553045.7599999998}},{"attributes":{"ID":423299,"DIS_CODE":0,"TOWNNAME":"新市區","LI":"永就里","LIN":"6鄰","STREET":"中華路","SECT":" ","MAREA":" ","LANE":"５３巷","ALLEY":" ","HOUSE_NO":"１９號","E_COORD97":177751.60000000001,"N_COORD97":2551613.25,"ADDRESS":"中華路５３巷１９號","OBJECTID":423274},"geometry":{"x":177751.60000000056,"y":2551613.25}},{"attributes":{"ID":423300,"DIS_CODE":0,"TOWNNAME":"新市區","LI":"港墘里","LIN":"12鄰","STREET":"中山路","SECT":" ","MAREA":" ","LANE":"１０６巷","ALLEY":" ","HOUSE_NO":"１０號","E_COORD97":178317.34,"N_COORD97":2552801.8900000001,"ADDRESS":"中山路１０６巷１０號","OBJECTID":423275},"geometry":{"x":178317.33999999985,"y":2552801.8900000006}},{"attributes":{"ID":423301,"DIS_CODE":0,"TOWNNAME":"東區","LI":"東明里","LIN":"13鄰","STREET":"東安路","SECT":" ","MAREA":" ","LANE":"９２巷","ALLEY":" ","HOUSE_NO":"１號","E_COORD97":170750.34,"N_COORD97":2543728.8500000001,"ADDRESS":"東安路９２巷１號","OBJECTID":423276},"geometry":{"x":170750.34000000171,"y":2543728.8499999996}},{"attributes":{"ID":423302,"DIS_CODE":0,"TOWNNAME":"東區","LI":"中西里","LIN":"4鄰","STREET":"勝利路","SECT":" ","MAREA":" ","LANE":"１２巷","ALLEY":" ","HOUSE_NO":"７號","E_COORD97":169893.67999999999,"N_COORD97":2543406.4300000002,"ADDRESS":"勝利路１２巷７號","OBJECTID":423277},"geometry":{"x":169893.68000000063,"y":2543406.4299999997}},{"attributes":{"ID":423303,"DIS_CODE":0,"TOWNNAME":"東區","LI":"中西里","LIN":"4鄰","STREET":"勝利路","SECT":" ","MAREA":" ","LANE":"１２巷","ALLEY":" ","HOUSE_NO":"９號","E_COORD97":169889.64000000001,"N_COORD97":2543405.7000000002,"ADDRESS":"勝利路１２巷９號","OBJECTID":423278},"geometry":{"x":169889.63999999966,"y":2543405.7000000011}},{"attributes":{"ID":423304,"DIS_CODE":0,"TOWNNAME":"東區","LI":"崇德里","LIN":"20鄰","STREET":"崇明十四街","SECT":" ","MAREA":" ","LANE":"６０巷","ALLEY":" ","HOUSE_NO":"８號","E_COORD97":170662.04000000001,"N_COORD97":2541607.79,"ADDRESS":"崇明十四街６０巷８號","OBJECTID":423279},"geometry":{"x":170662.04000000004,"y":2541607.790000001}},{"attributes":{"ID":423305,"DIS_CODE":0,"TOWNNAME":"東區","LI":"關聖里","LIN":"4鄰","STREET":"裕農路","SECT":" ","MAREA":" ","LANE":"６６８巷","ALLEY":" ","HOUSE_NO":"７１之２號","E_COORD97":171764.91,"N_COORD97":2542900.5800000001,"ADDRESS":"裕農路６６８巷７１之２號","OBJECTID":423280},"geometry":{"x":171764.91000000015,"y":2542900.5800000001}},{"attributes":{"ID":423306,"DIS_CODE":0,"TOWNNAME":"東區","LI":"東門里","LIN":"7鄰","STREET":"前鋒路","SECT":" ","MAREA":" ","LANE":"５６巷","ALLEY":" ","HOUSE_NO":"１２號","E_COORD97":169367.31,"N_COORD97":2543481.4300000002,"ADDRESS":"前鋒路５６巷１２號","OBJECTID":423281},"geometry":{"x":169367.31000000052,"y":2543481.4299999997}},{"attributes":{"ID":423307,"DIS_CODE":0,"TOWNNAME":"東區","LI":"東門里","LIN":"6鄰","STREET":"青年路","SECT":" ","MAREA":" ","LANE":"２６４巷","ALLEY":" ","HOUSE_NO":"１０號","E_COORD97":169249.82999999999,"N_COORD97":2543512.77,"ADDRESS":"青年路２６４巷１０號","OBJECTID":423282},"geometry":{"x":169249.83000000007,"y":2543512.7699999996}},{"attributes":{"ID":423308,"DIS_CODE":0,"TOWNNAME":"東區","LI":"東門里","LIN":"6鄰","STREET":"青年路","SECT":" ","MAREA":" ","LANE":"２６４巷","ALLEY":" ","HOUSE_NO":"１１號","E_COORD97":169256.47,"N_COORD97":2543497.0699999998,"ADDRESS":"青年路２６４巷１１號","OBJECTID":423283},"geometry":{"x":169256.47000000067,"y":2543497.0700000003}},{"attributes":{"ID":423309,"DIS_CODE":0,"TOWNNAME":"東區","LI":"東門里","LIN":"6鄰","STREET":"青年路","SECT":" ","MAREA":" ","LANE":"２６４巷","ALLEY":" ","HOUSE_NO":"１５號","E_COORD97":169250.20999999999,"N_COORD97":2543498.8100000001,"ADDRESS":"青年路２６４巷１５號","OBJECTID":423284},"geometry":{"x":169250.20999999996,"y":2543498.8100000024}},{"attributes":{"ID":423310,"DIS_CODE":0,"TOWNNAME":"東區","LI":"東門里","LIN":"6鄰","STREET":"青年路","SECT":" ","MAREA":" ","LANE":"２６４巷","ALLEY":" ","HOUSE_NO":"１６號","E_COORD97":169282.04000000001,"N_COORD97":2543512.4500000002,"ADDRESS":"青年路２６４巷１６號","OBJECTID":423285},"geometry":{"x":169282.04000000004,"y":2543512.4500000011}},{"attributes":{"ID":423311,"DIS_CODE":0,"TOWNNAME":"東區","LI":"東門里","LIN":"6鄰","STREET":"青年路","SECT":" ","MAREA":" ","LANE":"２６４巷","ALLEY":" ","HOUSE_NO":"１７號","E_COORD97":169276.82999999999,"N_COORD97":2543513.96,"ADDRESS":"青年路２６４巷１７號","OBJECTID":423286},"geometry":{"x":169276.83000000007,"y":2543513.9600000028}},{"attributes":{"ID":423312,"DIS_CODE":0,"TOWNNAME":"東區","LI":"東門里","LIN":"6鄰","STREET":"青年路","SECT":" ","MAREA":" ","LANE":"２６４巷","ALLEY":" ","HOUSE_NO":"９號","E_COORD97":169259.87,"N_COORD97":2543509.4199999999,"ADDRESS":"青年路２６４巷９號","OBJECTID":423287},"geometry":{"x":169259.87000000011,"y":2543509.4200000037}},{"attributes":{"ID":423313,"DIS_CODE":0,"TOWNNAME":"東區","LI":"大同里","LIN":"25鄰","STREET":"大同路","SECT":"一段","MAREA":" ","LANE":"２７５巷","ALLEY":" ","HOUSE_NO":"５號","E_COORD97":169188.75,"N_COORD97":2542565.75,"ADDRESS":"大同路一段２７５巷５號","OBJECTID":423288},"geometry":{"x":169188.75000000093,"y":2542565.7500000019}},{"attributes":{"ID":423314,"DIS_CODE":0,"TOWNNAME":"新市區","LI":"社內里","LIN":"2鄰","STREET":" ","SECT":" ","MAREA":"社內","LANE":" ","ALLEY":" ","HOUSE_NO":"２８之２３號","E_COORD97":176743.40098499999,"N_COORD97":2552820.3242000001,"ADDRESS":"社內２８之２３號","OBJECTID":423289},"geometry":{"x":176743.40098499972,"y":2552820.3241990004}},{"attributes":{"ID":423315,"DIS_CODE":0,"TOWNNAME":"東區","LI":"大同里","LIN":"25鄰","STREET":"大同路","SECT":"一段","MAREA":" ","LANE":"２７５巷","ALLEY":" ","HOUSE_NO":"７３號","E_COORD97":169281.67000000001,"N_COORD97":2542606.1600000001,"ADDRESS":"大同路一段２７５巷７３號","OBJECTID":423290},"geometry":{"x":169281.67000000179,"y":2542606.1600000039}},{"attributes":{"ID":423316,"DIS_CODE":0,"TOWNNAME":"東區","LI":"大同里","LIN":"25鄰","STREET":"大同路","SECT":"一段","MAREA":" ","LANE":"２７５巷","ALLEY":" ","HOUSE_NO":"７５號","E_COORD97":169281.76999999999,"N_COORD97":2542618.3199999998,"ADDRESS":"大同路一段２７５巷７５號","OBJECTID":423291},"geometry":{"x":169281.76999999955,"y":2542618.3200000003}},{"attributes":{"ID":423317,"DIS_CODE":0,"TOWNNAME":"東區","LI":"大同里","LIN":"25鄰","STREET":"大同路","SECT":"一段","MAREA":" ","LANE":"２７５巷","ALLEY":" ","HOUSE_NO":"７７號","E_COORD97":169277.70999999999,"N_COORD97":2542625.27,"ADDRESS":"大同路一段２７５巷７７號","OBJECTID":423292},"geometry":{"x":169277.70999999996,"y":2542625.2700000033}},{"attributes":{"ID":423318,"DIS_CODE":0,"TOWNNAME":"東區","LI":"大同里","LIN":"25鄰","STREET":"大同路","SECT":"一段","MAREA":" ","LANE":"２７５巷","ALLEY":" ","HOUSE_NO":"７號","E_COORD97":169194.39000000001,"N_COORD97":2542567.46,"ADDRESS":"大同路一段２７５巷７號","OBJECTID":423293},"geometry":{"x":169194.38999999966,"y":2542567.459999999}},{"attributes":{"ID":423319,"DIS_CODE":0,"TOWNNAME":"東區","LI":"大同里","LIN":"25鄰","STREET":"大同路","SECT":"一段","MAREA":" ","LANE":"２７５巷","ALLEY":" ","HOUSE_NO":"９號","E_COORD97":169199.85999999999,"N_COORD97":2542567.46,"ADDRESS":"大同路一段２７５巷９號","OBJECTID":423294},"geometry":{"x":169199.86000000127,"y":2542567.459999999}},{"attributes":{"ID":423320,"DIS_CODE":0,"TOWNNAME":"東區","LI":"大同里","LIN":"27鄰","STREET":"大同路","SECT":"一段","MAREA":" ","LANE":"３２９巷","ALLEY":" ","HOUSE_NO":"６號","E_COORD97":169262.19,"N_COORD97":2542476.6299999999,"ADDRESS":"大同路一段３２９巷６號","OBJECTID":423295},"geometry":{"x":169262.19000000134,"y":2542476.6300000008}},{"attributes":{"ID":423321,"DIS_CODE":0,"TOWNNAME":"東區","LI":"大同里","LIN":"27鄰","STREET":"大同路","SECT":"一段","MAREA":" ","LANE":"３２９巷","ALLEY":" ","HOUSE_NO":"８號","E_COORD97":169262.97,"N_COORD97":2542480.8199999998,"ADDRESS":"大同路一段３２９巷８號","OBJECTID":423296},"geometry":{"x":169262.97000000067,"y":2542480.8200000022}},{"attributes":{"ID":423322,"DIS_CODE":0,"TOWNNAME":"中西區","LI":"西賢里","LIN":"24鄰","STREET":"西賢二街","SECT":" ","MAREA":" ","LANE":"１４１巷","ALLEY":" ","HOUSE_NO":"５號","E_COORD97":165542.89999999999,"N_COORD97":2544665.4399999999,"ADDRESS":"西賢二街１４１巷５號","OBJECTID":423297},"geometry":{"x":165542.9000000013,"y":2544665.4400000013}},{"attributes":{"ID":423323,"DIS_CODE":0,"TOWNNAME":"中西區","LI":"西賢里","LIN":"25鄰","STREET":"西賢五街","SECT":" ","MAREA":" ","LANE":"３６巷","ALLEY":" ","HOUSE_NO":"１８號","E_COORD97":165229.66,"N_COORD97":2544598.0299999998,"ADDRESS":"西賢五街３６巷１８號","OBJECTID":423298},"geometry":{"x":165229.66000000108,"y":2544598.0299999993}},{"attributes":{"ID":423324,"DIS_CODE":0,"TOWNNAME":"中西區","LI":"西賢里","LIN":"25鄰","STREET":"西賢五街","SECT":" ","MAREA":" ","LANE":"３６巷","ALLEY":" ","HOUSE_NO":"２號","E_COORD97":165217.35999999999,"N_COORD97":2544578.02,"ADDRESS":"西賢五街３６巷２號","OBJECTID":423299},"geometry":{"x":165217.36000000034,"y":2544578.0199999996}},{"attributes":{"ID":423325,"DIS_CODE":0,"TOWNNAME":"中西區","LI":"西賢里","LIN":"25鄰","STREET":"西賢五街","SECT":" ","MAREA":" ","LANE":"３６巷","ALLEY":" ","HOUSE_NO":"６號","E_COORD97":165219.19,"N_COORD97":2544581.0499999998,"ADDRESS":"西賢五街３６巷６號","OBJECTID":423300},"geometry":{"x":165219.19000000134,"y":2544581.0500000026}},{"attributes":{"ID":423326,"DIS_CODE":0,"TOWNNAME":"中西區","LI":"西賢里","LIN":"25鄰","STREET":"西賢五街","SECT":" ","MAREA":" ","LANE":"３６巷","ALLEY":" ","HOUSE_NO":"８號","E_COORD97":165219.79999999999,"N_COORD97":2544585.71,"ADDRESS":"西賢五街３６巷８號","OBJECTID":423301},"geometry":{"x":165219.80000000075,"y":2544585.7100000009}},{"attributes":{"ID":423327,"DIS_CODE":0,"TOWNNAME":"中西區","LI":"西賢里","LIN":"25鄰","STREET":"西賢五街","SECT":" ","MAREA":" ","LANE":"３６巷","ALLEY":" ","HOUSE_NO":"１號","E_COORD97":165224.39999999999,"N_COORD97":2544621.8100000001,"ADDRESS":"西賢五街３６巷１號","OBJECTID":423302},"geometry":{"x":165224.4000000013,"y":2544621.8100000005}},{"attributes":{"ID":423328,"DIS_CODE":0,"TOWNNAME":"中西區","LI":"西賢里","LIN":"25鄰","STREET":"西賢五街","SECT":" ","MAREA":" ","LANE":"３６巷","ALLEY":" ","HOUSE_NO":"３號","E_COORD97":165229.32000000001,"N_COORD97":2544621.96,"ADDRESS":"西賢五街３６巷３號","OBJECTID":423303},"geometry":{"x":165229.3200000003,"y":2544621.959999999}},{"attributes":{"ID":423329,"DIS_CODE":0,"TOWNNAME":"中西區","LI":"西賢里","LIN":"29鄰","STREET":"西賢五街","SECT":" ","MAREA":" ","LANE":"６５巷","ALLEY":" ","HOUSE_NO":"１０號","E_COORD97":165192.26000000001,"N_COORD97":2544719.5499999998,"ADDRESS":"西賢五街６５巷１０號","OBJECTID":423304},"geometry":{"x":165192.26000000164,"y":2544719.5499999989}},{"attributes":{"ID":423330,"DIS_CODE":0,"TOWNNAME":"中西區","LI":"西賢里","LIN":"29鄰","STREET":"西賢五街","SECT":" ","MAREA":" ","LANE":"６５巷","ALLEY":" ","HOUSE_NO":"１１號","E_COORD97":165171.67999999999,"N_COORD97":2544699.54,"ADDRESS":"西賢五街６５巷１１號","OBJECTID":423305},"geometry":{"x":165171.6799999997,"y":2544699.5399999991}},{"attributes":{"ID":423331,"DIS_CODE":0,"TOWNNAME":"中西區","LI":"西賢里","LIN":"29鄰","STREET":"西賢五街","SECT":" ","MAREA":" ","LANE":"６５巷","ALLEY":" ","HOUSE_NO":"１２號","E_COORD97":165188.26999999999,"N_COORD97":2544720.5499999998,"ADDRESS":"西賢五街６５巷１２號","OBJECTID":423306},"geometry":{"x":165188.26999999955,"y":2544720.5500000026}},{"attributes":{"ID":423332,"DIS_CODE":0,"TOWNNAME":"中西區","LI":"西賢里","LIN":"29鄰","STREET":"西賢五街","SECT":" ","MAREA":" ","LANE":"６５巷","ALLEY":" ","HOUSE_NO":"１３號","E_COORD97":165167.94,"N_COORD97":2544701.0299999998,"ADDRESS":"西賢五街６５巷１３號","OBJECTID":423307},"geometry":{"x":165167.94000000227,"y":2544701.0299999993}},{"attributes":{"ID":423333,"DIS_CODE":0,"TOWNNAME":"中西區","LI":"西賢里","LIN":"31鄰","STREET":"西賢六街","SECT":" ","MAREA":" ","LANE":"１３巷","ALLEY":" ","HOUSE_NO":"１號","E_COORD97":165040.29999999999,"N_COORD97":2544638.4300000002,"ADDRESS":"西賢六街１３巷１號","OBJECTID":423308},"geometry":{"x":165040.29999999981,"y":2544638.4300000016}},{"attributes":{"ID":423334,"DIS_CODE":0,"TOWNNAME":"中西區","LI":"民權里","LIN":"7鄰","STREET":"民權路","SECT":"三段","MAREA":" ","LANE":"１４３巷","ALLEY":" ","HOUSE_NO":"２７號","E_COORD97":167500.07000000001,"N_COORD97":2544172.8399999999,"ADDRESS":"民權路三段１４３巷２７號","OBJECTID":423309},"geometry":{"x":167500.07000000123,"y":2544172.8399999999}},{"attributes":{"ID":423335,"DIS_CODE":0,"TOWNNAME":"中西區","LI":"民權里","LIN":"7鄰","STREET":"民權路","SECT":"三段","MAREA":" ","LANE":"１４３巷","ALLEY":" ","HOUSE_NO":"２９號","E_COORD97":167492.17999999999,"N_COORD97":2544176.5099999998,"ADDRESS":"民權路三段１４３巷２９號","OBJECTID":423310},"geometry":{"x":167492.1799999997,"y":2544176.5100000035}},{"attributes":{"ID":423336,"DIS_CODE":0,"TOWNNAME":"中西區","LI":"民權里","LIN":"7鄰","STREET":"民權路","SECT":"三段","MAREA":" ","LANE":"１４３巷","ALLEY":" ","HOUSE_NO":"３３號","E_COORD97":167482.37,"N_COORD97":2544177.0600000001,"ADDRESS":"民權路三段１４３巷３３號","OBJECTID":423311},"geometry":{"x":167482.37000000104,"y":2544177.0600000042}},{"attributes":{"ID":423337,"DIS_CODE":0,"TOWNNAME":"中西區","LI":"民權里","LIN":"7鄰","STREET":"民權路","SECT":"三段","MAREA":" ","LANE":"１４３巷","ALLEY":" ","HOUSE_NO":"３５號","E_COORD97":167473.82999999999,"N_COORD97":2544177.6299999999,"ADDRESS":"民權路三段１４３巷３５號","OBJECTID":423312},"geometry":{"x":167473.83000000194,"y":2544177.629999999}},{"attributes":{"ID":423338,"DIS_CODE":0,"TOWNNAME":"中西區","LI":"民權里","LIN":"7鄰","STREET":"民權路","SECT":"三段","MAREA":" ","LANE":"１４３巷","ALLEY":" ","HOUSE_NO":"３７號","E_COORD97":167460.14857200001,"N_COORD97":2544180.0578800002,"ADDRESS":"民權路三段１４３巷３７號","OBJECTID":423313},"geometry":{"x":167460.14857199974,"y":2544180.0578830019}},{"attributes":{"ID":423339,"DIS_CODE":0,"TOWNNAME":"中西區","LI":"民權里","LIN":"7鄰","STREET":"和平街","SECT":" ","MAREA":" ","LANE":"１１８巷","ALLEY":" ","HOUSE_NO":"４號","E_COORD97":167460.99548400001,"N_COORD97":2544170.74456,"ADDRESS":"和平街１１８巷４號","OBJECTID":423314},"geometry":{"x":167460.995484001,"y":2544170.7445550002}},{"attributes":{"ID":423340,"DIS_CODE":0,"TOWNNAME":"中西區","LI":"民權里","LIN":"7鄰","STREET":"和平街","SECT":" ","MAREA":" ","LANE":"１１８巷","ALLEY":" ","HOUSE_NO":"６號","E_COORD97":167460.572028,"N_COORD97":2544173.7078900002,"ADDRESS":"和平街１１８巷６號","OBJECTID":423315},"geometry":{"x":167460.57202800084,"y":2544173.7078869976}},{"attributes":{"ID":423341,"DIS_CODE":0,"TOWNNAME":"中西區","LI":"民權里","LIN":"4鄰","STREET":"和平街","SECT":" ","MAREA":" ","LANE":"１２７巷","ALLEY":" ","HOUSE_NO":"１１號","E_COORD97":167559.07307499999,"N_COORD97":2544129.0699999998,"ADDRESS":"和平街１２７巷１１號","OBJECTID":423316},"geometry":{"x":167559.0730750002,"y":2544129.0699960012}},{"attributes":{"ID":423342,"DIS_CODE":0,"TOWNNAME":"中西區","LI":"民權里","LIN":"4鄰","STREET":"和平街","SECT":" ","MAREA":" ","LANE":"１２７巷","ALLEY":" ","HOUSE_NO":"１號","E_COORD97":167566.92999999999,"N_COORD97":2544143.1299999999,"ADDRESS":"和平街１２７巷１號","OBJECTID":423317},"geometry":{"x":167566.9299999997,"y":2544143.129999999}},{"attributes":{"ID":423343,"DIS_CODE":0,"TOWNNAME":"中西區","LI":"民權里","LIN":"4鄰","STREET":"和平街","SECT":" ","MAREA":" ","LANE":"１２７巷","ALLEY":" ","HOUSE_NO":"３號","E_COORD97":167565.23999999999,"N_COORD97":2544142.0699999998,"ADDRESS":"和平街１２７巷３號","OBJECTID":423318},"geometry":{"x":167565.24000000022,"y":2544142.0700000003}},{"attributes":{"ID":423344,"DIS_CODE":0,"TOWNNAME":"中西區","LI":"民權里","LIN":"4鄰","STREET":"和平街","SECT":" ","MAREA":" ","LANE":"１２７巷","ALLEY":" ","HOUSE_NO":"５號","E_COORD97":167564.39000000001,"N_COORD97":2544139.75,"ADDRESS":"和平街１２７巷５號","OBJECTID":423319},"geometry":{"x":167564.39000000153,"y":2544139.75}},{"attributes":{"ID":423345,"DIS_CODE":0,"TOWNNAME":"中西區","LI":"民權里","LIN":"4鄰","STREET":"和平街","SECT":" ","MAREA":" ","LANE":"１２７巷","ALLEY":" ","HOUSE_NO":"７號","E_COORD97":167563.48000000001,"N_COORD97":2544135.6000000001,"ADDRESS":"和平街１２７巷７號","OBJECTID":423320},"geometry":{"x":167563.48000000138,"y":2544135.6000000015}},{"attributes":{"ID":423346,"DIS_CODE":0,"TOWNNAME":"中西區","LI":"民權里","LIN":"4鄰","STREET":"和平街","SECT":" ","MAREA":" ","LANE":"１２７巷","ALLEY":" ","HOUSE_NO":"９號","E_COORD97":167560.97862800001,"N_COORD97":2544132.4566600001,"ADDRESS":"和平街１２７巷９號","OBJECTID":423321},"geometry":{"x":167560.97862800024,"y":2544132.4566610027}},{"attributes":{"ID":423347,"DIS_CODE":0,"TOWNNAME":"中西區","LI":"協和里","LIN":"6鄰","STREET":"文賢路","SECT":" ","MAREA":" ","LANE":"６７巷","ALLEY":" ","HOUSE_NO":"３４號","E_COORD97":167303.34,"N_COORD97":2544587.02,"ADDRESS":"文賢路６７巷３４號","OBJECTID":423322},"geometry":{"x":167303.33999999985,"y":2544587.0200000014}},{"attributes":{"ID":423348,"DIS_CODE":0,"TOWNNAME":"中西區","LI":"協和里","LIN":"6鄰","STREET":"文賢路","SECT":" ","MAREA":" ","LANE":"６７巷","ALLEY":" ","HOUSE_NO":"３８號","E_COORD97":167295.39000000001,"N_COORD97":2544583.5499999998,"ADDRESS":"文賢路６７巷３８號","OBJECTID":423323},"geometry":{"x":167295.3900000006,"y":2544583.5500000007}},{"attributes":{"ID":423349,"DIS_CODE":0,"TOWNNAME":"中西區","LI":"協和里","LIN":"6鄰","STREET":"臨安路","SECT":"一段","MAREA":" ","LANE":"１４６巷","ALLEY":" ","HOUSE_NO":"１０號","E_COORD97":167276,"N_COORD97":2544580.98,"ADDRESS":"臨安路一段１４６巷１０號","OBJECTID":423324},"geometry":{"x":167276.00000000093,"y":2544580.9800000042}},{"attributes":{"ID":423350,"DIS_CODE":0,"TOWNNAME":"中西區","LI":"協和里","LIN":"6鄰","STREET":"臨安路","SECT":"一段","MAREA":" ","LANE":"１４６巷","ALLEY":" ","HOUSE_NO":"１２號","E_COORD97":167278.28,"N_COORD97":2544585.3900000001,"ADDRESS":"臨安路一段１４６巷１２號","OBJECTID":423325},"geometry":{"x":167278.28000000119,"y":2544585.3900000025}},{"attributes":{"ID":423351,"DIS_CODE":0,"TOWNNAME":"中西區","LI":"協和里","LIN":"6鄰","STREET":"臨安路","SECT":"一段","MAREA":" ","LANE":"１４６巷","ALLEY":" ","HOUSE_NO":"１３號","E_COORD97":167267.32000000001,"N_COORD97":2544596.98,"ADDRESS":"臨安路一段１４６巷１３號","OBJECTID":423326},"geometry":{"x":167267.32000000216,"y":2544596.9800000004}},{"attributes":{"ID":423352,"DIS_CODE":0,"TOWNNAME":"中西區","LI":"協和里","LIN":"6鄰","STREET":"臨安路","SECT":"一段","MAREA":" ","LANE":"１４６巷","ALLEY":" ","HOUSE_NO":"１４號","E_COORD97":167282.29000000001,"N_COORD97":2544588.0699999998,"ADDRESS":"臨安路一段１４６巷１４號","OBJECTID":423327},"geometry":{"x":167282.28999999911,"y":2544588.0700000022}},{"attributes":{"ID":423353,"DIS_CODE":0,"TOWNNAME":"中西區","LI":"協和里","LIN":"6鄰","STREET":"臨安路","SECT":"一段","MAREA":" ","LANE":"１４６巷","ALLEY":" ","HOUSE_NO":"１６號","E_COORD97":167285.64000000001,"N_COORD97":2544591.1299999999,"ADDRESS":"臨安路一段１４６巷１６號","OBJECTID":423328},"geometry":{"x":167285.63999999966,"y":2544591.129999999}},{"attributes":{"ID":423354,"DIS_CODE":0,"TOWNNAME":"中西區","LI":"協和里","LIN":"6鄰","STREET":"臨安路","SECT":"一段","MAREA":" ","LANE":"１４６巷","ALLEY":" ","HOUSE_NO":"１８號","E_COORD97":167287.91,"N_COORD97":2544595.5499999998,"ADDRESS":"臨安路一段１４６巷１８號","OBJECTID":423329},"geometry":{"x":167287.91000000015,"y":2544595.5500000026}},{"attributes":{"ID":423355,"DIS_CODE":0,"TOWNNAME":"中西區","LI":"協和里","LIN":"6鄰","STREET":"臨安路","SECT":"一段","MAREA":" ","LANE":"１４６巷","ALLEY":" ","HOUSE_NO":"２０號","E_COORD97":167291.26000000001,"N_COORD97":2544599.1600000001,"ADDRESS":"臨安路一段１４６巷２０號","OBJECTID":423330},"geometry":{"x":167291.26000000071,"y":2544599.1600000001}},{"attributes":{"ID":423356,"DIS_CODE":0,"TOWNNAME":"中西區","LI":"協和里","LIN":"6鄰","STREET":"臨安路","SECT":"一段","MAREA":" ","LANE":"１４６巷","ALLEY":" ","HOUSE_NO":"２１號","E_COORD97":167278.04999999999,"N_COORD97":2544608.48,"ADDRESS":"臨安路一段１４６巷２１號","OBJECTID":423331},"geometry":{"x":167278.04999999981,"y":2544608.4800000023}},{"attributes":{"ID":423357,"DIS_CODE":0,"TOWNNAME":"中西區","LI":"協和里","LIN":"6鄰","STREET":"臨安路","SECT":"一段","MAREA":" ","LANE":"１４６巷","ALLEY":" ","HOUSE_NO":"２２號","E_COORD97":167294.34,"N_COORD97":2544601.1600000001,"ADDRESS":"臨安路一段１４６巷２２號","OBJECTID":423332},"geometry":{"x":167294.34000000078,"y":2544601.160000002}},{"attributes":{"ID":423358,"DIS_CODE":0,"TOWNNAME":"中西區","LI":"協和里","LIN":"8鄰","STREET":"協和街","SECT":" ","MAREA":" ","LANE":"２００巷","ALLEY":" ","HOUSE_NO":"１號","E_COORD97":167323.07000000001,"N_COORD97":2544729.7799999998,"ADDRESS":"協和街２００巷１號","OBJECTID":423333},"geometry":{"x":167323.06999999937,"y":2544729.7799999993}},{"attributes":{"ID":423359,"DIS_CODE":0,"TOWNNAME":"中西區","LI":"民主里","LIN":"4鄰","STREET":"友愛街","SECT":" ","MAREA":" ","LANE":"３３１巷","ALLEY":" ","HOUSE_NO":"１號","E_COORD97":167469.26000000001,"N_COORD97":2543627.3900000001,"ADDRESS":"友愛街３３１巷１號","OBJECTID":423334},"geometry":{"x":167469.26000000071,"y":2543627.3900000006}},{"attributes":{"ID":423360,"DIS_CODE":0,"TOWNNAME":"中西區","LI":"民主里","LIN":"4鄰","STREET":"友愛街","SECT":" ","MAREA":" ","LANE":"３３１巷","ALLEY":" ","HOUSE_NO":"３號","E_COORD97":167469.66,"N_COORD97":2543625.1000000001,"ADDRESS":"友愛街３３１巷３號","OBJECTID":423335},"geometry":{"x":167469.66000000015,"y":2543625.0999999996}},{"attributes":{"ID":423361,"DIS_CODE":0,"TOWNNAME":"中西區","LI":"民主里","LIN":"4鄰","STREET":"友愛街","SECT":" ","MAREA":" ","LANE":"３３１巷","ALLEY":" ","HOUSE_NO":"５號","E_COORD97":167469.54999999999,"N_COORD97":2543620.25,"ADDRESS":"友愛街３３１巷５號","OBJECTID":423336},"geometry":{"x":167469.54999999981,"y":2543620.2500000019}},{"attributes":{"ID":423362,"DIS_CODE":0,"TOWNNAME":"中西區","LI":"民主里","LIN":"4鄰","STREET":"友愛街","SECT":" ","MAREA":" ","LANE":"３０９巷","ALLEY":" ","HOUSE_NO":"１０號","E_COORD97":167503.26999999999,"N_COORD97":2543638.8199999998,"ADDRESS":"友愛街３０９巷１０號","OBJECTID":423337},"geometry":{"x":167503.26999999955,"y":2543638.8200000003}},{"attributes":{"ID":423363,"DIS_CODE":0,"TOWNNAME":"中西區","LI":"民主里","LIN":"4鄰","STREET":"友愛街","SECT":" ","MAREA":" ","LANE":"３０９巷","ALLEY":" ","HOUSE_NO":"１２號","E_COORD97":167498.39000000001,"N_COORD97":2543638.9100000001,"ADDRESS":"友愛街３０９巷１２號","OBJECTID":423338},"geometry":{"x":167498.39000000153,"y":2543638.910000002}},{"attributes":{"ID":423364,"DIS_CODE":0,"TOWNNAME":"中西區","LI":"民主里","LIN":"4鄰","STREET":"友愛街","SECT":" ","MAREA":" ","LANE":"３０９巷","ALLEY":" ","HOUSE_NO":"１４號","E_COORD97":167499.29999999999,"N_COORD97":2543628.5800000001,"ADDRESS":"友愛街３０９巷１４號","OBJECTID":423339},"geometry":{"x":167499.30000000075,"y":2543628.5800000019}},{"attributes":{"ID":423365,"DIS_CODE":0,"TOWNNAME":"中西區","LI":"民主里","LIN":"4鄰","STREET":"友愛街","SECT":" ","MAREA":" ","LANE":"３０９巷","ALLEY":" ","HOUSE_NO":"１６號","E_COORD97":167507.17000000001,"N_COORD97":2543629.52,"ADDRESS":"友愛街３０９巷１６號","OBJECTID":423340},"geometry":{"x":167507.17000000086,"y":2543629.5199999996}},{"attributes":{"ID":423366,"DIS_CODE":0,"TOWNNAME":"中西區","LI":"民主里","LIN":"4鄰","STREET":"友愛街","SECT":" ","MAREA":" ","LANE":"３０９巷","ALLEY":" ","HOUSE_NO":"１８號","E_COORD97":167514.17000000001,"N_COORD97":2543625.1000000001,"ADDRESS":"友愛街３０９巷１８號","OBJECTID":423341},"geometry":{"x":167514.17000000086,"y":2543625.0999999996}},{"attributes":{"ID":423367,"DIS_CODE":0,"TOWNNAME":"中西區","LI":"民主里","LIN":"4鄰","STREET":"友愛街","SECT":" ","MAREA":" ","LANE":"３０９巷","ALLEY":" ","HOUSE_NO":"２０號","E_COORD97":167512.37,"N_COORD97":2543619.4700000002,"ADDRESS":"友愛街３０９巷２０號","OBJECTID":423342},"geometry":{"x":167512.36999999918,"y":2543619.4700000025}},{"attributes":{"ID":423368,"DIS_CODE":0,"TOWNNAME":"中西區","LI":"民主里","LIN":"4鄰","STREET":"友愛街","SECT":" ","MAREA":" ","LANE":"３０９巷","ALLEY":" ","HOUSE_NO":"２號","E_COORD97":167509.04000000001,"N_COORD97":2543646.9300000002,"ADDRESS":"友愛街３０９巷２號","OBJECTID":423343},"geometry":{"x":167509.04000000004,"y":2543646.9299999997}},{"attributes":{"ID":423369,"DIS_CODE":0,"TOWNNAME":"中西區","LI":"民主里","LIN":"4鄰","STREET":"友愛街","SECT":" ","MAREA":" ","LANE":"３０９巷","ALLEY":" ","HOUSE_NO":"４號","E_COORD97":167509.97,"N_COORD97":2543642.8300000001,"ADDRESS":"友愛街３０９巷４號","OBJECTID":423344},"geometry":{"x":167509.97000000067,"y":2543642.8300000019}},{"attributes":{"ID":423370,"DIS_CODE":0,"TOWNNAME":"中西區","LI":"民主里","LIN":"4鄰","STREET":"友愛街","SECT":" ","MAREA":" ","LANE":"３０９巷","ALLEY":" ","HOUSE_NO":"８號","E_COORD97":167507.38,"N_COORD97":2543637.23,"ADDRESS":"友愛街３０９巷８號","OBJECTID":423345},"geometry":{"x":167507.38000000082,"y":2543637.2300000023}},{"attributes":{"ID":423371,"DIS_CODE":0,"TOWNNAME":"中西區","LI":"民主里","LIN":"4鄰","STREET":"友愛街","SECT":" ","MAREA":" ","LANE":"３０９巷","ALLEY":" ","HOUSE_NO":"１號","E_COORD97":167521.88,"N_COORD97":2543637.0099999998,"ADDRESS":"友愛街３０９巷１號","OBJECTID":423346},"geometry":{"x":167521.87999999989,"y":2543637.0099999998}},{"attributes":{"ID":423372,"DIS_CODE":0,"TOWNNAME":"中西區","LI":"民主里","LIN":"4鄰","STREET":"友愛街","SECT":" ","MAREA":" ","LANE":"３０９巷","ALLEY":" ","HOUSE_NO":"１號之１","E_COORD97":167522.20000000001,"N_COORD97":2543630.8199999998,"ADDRESS":"友愛街３０９巷１號之１","OBJECTID":423347},"geometry":{"x":167522.20000000205,"y":2543630.8200000003}},{"attributes":{"ID":423373,"DIS_CODE":0,"TOWNNAME":"中西區","LI":"民主里","LIN":"4鄰","STREET":"友愛街","SECT":" ","MAREA":" ","LANE":"３０９巷","ALLEY":" ","HOUSE_NO":"３號","E_COORD97":167522.91,"N_COORD97":2543625.6699999999,"ADDRESS":"友愛街３０９巷３號","OBJECTID":423348},"geometry":{"x":167522.91000000108,"y":2543625.6699999999}},{"attributes":{"ID":423374,"DIS_CODE":0,"TOWNNAME":"永康區","LI":"崑山里","LIN":"32鄰","STREET":"崑山街","SECT":" ","MAREA":" ","LANE":"１３６巷","ALLEY":" ","HOUSE_NO":"２８號","E_COORD97":174071.48999999999,"N_COORD97":2544807.46,"ADDRESS":"崑山街１３６巷２８號","OBJECTID":423349},"geometry":{"x":174071.49000000022,"y":2544807.4600000009}},{"attributes":{"ID":423375,"DIS_CODE":0,"TOWNNAME":"永康區","LI":"西灣里","LIN":"26鄰","STREET":"國光八街","SECT":" ","MAREA":" ","LANE":"４１巷","ALLEY":" ","HOUSE_NO":"１１號","E_COORD97":174351.92000000001,"N_COORD97":2545732.1200000001,"ADDRESS":"國光八街４１巷１１號","OBJECTID":423350},"geometry":{"x":174351.91999999899,"y":2545732.120000001}},{"attributes":{"ID":423376,"DIS_CODE":0,"TOWNNAME":"永康區","LI":"網寮里","LIN":"18鄰","STREET":"永大一路","SECT":" ","MAREA":" ","LANE":"３３６巷","ALLEY":" ","HOUSE_NO":"１號","E_COORD97":173548.98000000001,"N_COORD97":2546244.8199999998,"ADDRESS":"永大一路３３６巷１號","OBJECTID":423351},"geometry":{"x":173548.98000000138,"y":2546244.8200000003}},{"attributes":{"ID":423377,"DIS_CODE":0,"TOWNNAME":"永康區","LI":"網寮里","LIN":"18鄰","STREET":"永大一路","SECT":" ","MAREA":" ","LANE":"３３６巷","ALLEY":" ","HOUSE_NO":"３號","E_COORD97":173539.38,"N_COORD97":2546250.2000000002,"ADDRESS":"永大一路３３６巷３號","OBJECTID":423352},"geometry":{"x":173539.38000000082,"y":2546250.2000000011}},{"attributes":{"ID":423378,"DIS_CODE":0,"TOWNNAME":"永康區","LI":"西勢里","LIN":"23鄰","STREET":"富強路","SECT":"一段","MAREA":" ","LANE":"１６８巷","ALLEY":" ","HOUSE_NO":"５８號","E_COORD97":175655.88,"N_COORD97":2546198.1099999999,"ADDRESS":"富強路一段１６８巷５８號","OBJECTID":423353},"geometry":{"x":175655.88000000175,"y":2546198.1099999994}},{"attributes":{"ID":423379,"DIS_CODE":0,"TOWNNAME":"永康區","LI":"正強里","LIN":"33鄰","STREET":"四維街","SECT":" ","MAREA":" ","LANE":"７９巷","ALLEY":" ","HOUSE_NO":"５號","E_COORD97":173345.94,"N_COORD97":2548084.7599999998,"ADDRESS":"四維街７９巷５號","OBJECTID":423354},"geometry":{"x":173345.94000000134,"y":2548084.7600000016}},{"attributes":{"ID":423380,"DIS_CODE":0,"TOWNNAME":"永康區","LI":"永康里","LIN":"42鄰","STREET":"永大二路","SECT":" ","MAREA":" ","LANE":"１０８巷","ALLEY":" ","HOUSE_NO":"６１號","E_COORD97":174124.67999999999,"N_COORD97":2546655.1600000001,"ADDRESS":"永大二路１０８巷６１號","OBJECTID":423355},"geometry":{"x":174124.68000000156,"y":2546655.160000002}},{"attributes":{"ID":423381,"DIS_CODE":0,"TOWNNAME":"永康區","LI":"王行里","LIN":"8鄰","STREET":"王行路","SECT":" ","MAREA":" ","LANE":"３５１巷","ALLEY":" ","HOUSE_NO":"４１號","E_COORD97":175360.12,"N_COORD97":2548473.7400000002,"ADDRESS":"王行路３５１巷４１號","OBJECTID":423356},"geometry":{"x":175360.12000000104,"y":2548473.7400000002}},{"attributes":{"ID":423382,"DIS_CODE":0,"TOWNNAME":"永康區","LI":"網寮里","LIN":"3鄰","STREET":"永和街","SECT":" ","MAREA":" ","LANE":"２３８巷","ALLEY":" ","HOUSE_NO":"１２號","E_COORD97":173486.54000000001,"N_COORD97":2546597.0600000001,"ADDRESS":"永和街２３８巷１２號","OBJECTID":423357},"geometry":{"x":173486.54000000004,"y":2546597.0600000005}},{"attributes":{"ID":423383,"DIS_CODE":0,"TOWNNAME":"永康區","LI":"網寮里","LIN":"3鄰","STREET":"永和街","SECT":" ","MAREA":" ","LANE":"２３８巷","ALLEY":" ","HOUSE_NO":"１６號","E_COORD97":173490.07000000001,"N_COORD97":2546603.3900000001,"ADDRESS":"永和街２３８巷１６號","OBJECTID":423358},"geometry":{"x":173490.0700000003,"y":2546603.3900000025}},{"attributes":{"ID":423384,"DIS_CODE":0,"TOWNNAME":"永康區","LI":"網寮里","LIN":"3鄰","STREET":"永和街","SECT":" ","MAREA":" ","LANE":"２３８巷","ALLEY":" ","HOUSE_NO":"１８號","E_COORD97":173493.98999999999,"N_COORD97":2546608.5699999998,"ADDRESS":"永和街２３８巷１８號","OBJECTID":423359},"geometry":{"x":173493.98999999929,"y":2546608.5700000022}},{"attributes":{"ID":423385,"DIS_CODE":0,"TOWNNAME":"永康區","LI":"崑山里","LIN":"25鄰","STREET":"大灣路","SECT":" ","MAREA":" ","LANE":"９４２巷","ALLEY":" ","HOUSE_NO":"９６號","E_COORD97":173718.92000000001,"N_COORD97":2544738.3100000001,"ADDRESS":"大灣路９４２巷９６號","OBJECTID":423360},"geometry":{"x":173718.91999999993,"y":2544738.3100000042}},{"attributes":{"ID":423386,"DIS_CODE":0,"TOWNNAME":"永康區","LI":"崑山里","LIN":"25鄰","STREET":"大仁街","SECT":" ","MAREA":" ","LANE":"７１巷","ALLEY":" ","HOUSE_NO":"２６號","E_COORD97":173741.98999999999,"N_COORD97":2544730.0699999998,"ADDRESS":"大仁街７１巷２６號","OBJECTID":423361},"geometry":{"x":173741.99000000115,"y":2544730.0700000022}},{"attributes":{"ID":423387,"DIS_CODE":0,"TOWNNAME":"佳里區","LI":"東寧里","LIN":"7鄰","STREET":"中山路","SECT":" ","MAREA":" ","LANE":"３４６巷","ALLEY":" ","HOUSE_NO":"３１號之１","E_COORD97":165799.47,"N_COORD97":2562455.71,"ADDRESS":"中山路３４６巷３１號之１","OBJECTID":423362},"geometry":{"x":165799.47000000067,"y":2562455.7100000009}},{"attributes":{"ID":423388,"DIS_CODE":0,"TOWNNAME":"永康區","LI":"建國里","LIN":"32鄰","STREET":"復興路","SECT":" ","MAREA":" ","LANE":"３３巷","ALLEY":" ","HOUSE_NO":"６２號","E_COORD97":172999,"N_COORD97":2544230.1699999999,"ADDRESS":"復興路３３巷６２號","OBJECTID":423363},"geometry":{"x":172999.00000000093,"y":2544230.1700000018}},{"attributes":{"ID":423389,"DIS_CODE":0,"TOWNNAME":"永康區","LI":"正強里","LIN":"32鄰","STREET":"四維街","SECT":" ","MAREA":" ","LANE":"５１巷","ALLEY":" ","HOUSE_NO":"２號","E_COORD97":173365.17000000001,"N_COORD97":2548066.25,"ADDRESS":"四維街５１巷２號","OBJECTID":423364},"geometry":{"x":173365.16999999993,"y":2548066.25}},{"attributes":{"ID":423390,"DIS_CODE":0,"TOWNNAME":"永康區","LI":"正強里","LIN":"32鄰","STREET":"四維街","SECT":" ","MAREA":" ","LANE":"５１巷","ALLEY":" ","HOUSE_NO":"６號","E_COORD97":173356.62,"N_COORD97":2548066.9500000002,"ADDRESS":"四維街５１巷６號","OBJECTID":423365},"geometry":{"x":173356.62000000104,"y":2548066.9499999993}},{"attributes":{"ID":423391,"DIS_CODE":0,"TOWNNAME":"永康區","LI":"正強里","LIN":"32鄰","STREET":"四維街","SECT":" ","MAREA":" ","LANE":"５１巷","ALLEY":" ","HOUSE_NO":"８號","E_COORD97":173351.16,"N_COORD97":2548063.29,"ADDRESS":"四維街５１巷８號","OBJECTID":423366},"geometry":{"x":173351.16000000108,"y":2548063.290000001}},{"attributes":{"ID":423392,"DIS_CODE":0,"TOWNNAME":"永康區","LI":"正強里","LIN":"32鄰","STREET":"四維街","SECT":" ","MAREA":" ","LANE":"５１巷","ALLEY":" ","HOUSE_NO":"１０號","E_COORD97":173344.64999999999,"N_COORD97":2548063.3599999999,"ADDRESS":"四維街５１巷１０號","OBJECTID":423367},"geometry":{"x":173344.6500000013,"y":2548063.3600000013}},{"attributes":{"ID":423393,"DIS_CODE":0,"TOWNNAME":"永康區","LI":"正強里","LIN":"32鄰","STREET":"四維街","SECT":" ","MAREA":" ","LANE":"５１巷","ALLEY":" ","HOUSE_NO":"１２號","E_COORD97":173338.75,"N_COORD97":2548061.6000000001,"ADDRESS":"四維街５１巷１２號","OBJECTID":423368},"geometry":{"x":173338.75,"y":2548061.6000000015}},{"attributes":{"ID":423394,"DIS_CODE":0,"TOWNNAME":"永康區","LI":"正強里","LIN":"32鄰","STREET":"四維街","SECT":" ","MAREA":" ","LANE":"５１巷","ALLEY":" ","HOUSE_NO":"１６號","E_COORD97":173334.25,"N_COORD97":2548058.23,"ADDRESS":"四維街５１巷１６號","OBJECTID":423369},"geometry":{"x":173334.25,"y":2548058.2300000023}},{"attributes":{"ID":423395,"DIS_CODE":0,"TOWNNAME":"永康區","LI":"正強里","LIN":"32鄰","STREET":"四維街","SECT":" ","MAREA":" ","LANE":"５１巷","ALLEY":" ","HOUSE_NO":"１８號","E_COORD97":173326.20999999999,"N_COORD97":2548058.7799999998,"ADDRESS":"四維街５１巷１８號","OBJECTID":423370},"geometry":{"x":173326.21000000183,"y":2548058.7799999993}},{"attributes":{"ID":423396,"DIS_CODE":0,"TOWNNAME":"永康區","LI":"正強里","LIN":"32鄰","STREET":"四維街","SECT":" ","MAREA":" ","LANE":"５１巷","ALLEY":" ","HOUSE_NO":"２０號","E_COORD97":173314.67000000001,"N_COORD97":2548046.6800000002,"ADDRESS":"四維街５１巷２０號","OBJECTID":423371},"geometry":{"x":173314.67000000179,"y":2548046.6799999997}},{"attributes":{"ID":423397,"DIS_CODE":0,"TOWNNAME":"永康區","LI":"三民里","LIN":"6鄰","STREET":"三民街","SECT":" ","MAREA":" ","LANE":"９０巷","ALLEY":" ","HOUSE_NO":"２１５號","E_COORD97":173339.42000000001,"N_COORD97":2550480.2999999998,"ADDRESS":"三民街９０巷２１５號","OBJECTID":423372},"geometry":{"x":173339.41999999993,"y":2550480.3000000007}},{"attributes":{"ID":423398,"DIS_CODE":0,"TOWNNAME":"永康區","LI":"正強里","LIN":"33鄰","STREET":"四維街","SECT":" ","MAREA":" ","LANE":"７９巷","ALLEY":" ","HOUSE_NO":"１號","E_COORD97":173359.94,"N_COORD97":2548087.1499999999,"ADDRESS":"四維街７９巷１號","OBJECTID":423373},"geometry":{"x":173359.94000000041,"y":2548087.1500000004}},{"attributes":{"ID":423399,"DIS_CODE":0,"TOWNNAME":"永康區","LI":"正強里","LIN":"33鄰","STREET":"四維街","SECT":" ","MAREA":" ","LANE":"７９巷","ALLEY":" ","HOUSE_NO":"３號","E_COORD97":173352.12,"N_COORD97":2548086.6099999999,"ADDRESS":"四維街７９巷３號","OBJECTID":423374},"geometry":{"x":173352.12000000011,"y":2548086.6099999994}},{"attributes":{"ID":423400,"DIS_CODE":0,"TOWNNAME":"永康區","LI":"正強里","LIN":"33鄰","STREET":"四維街","SECT":" ","MAREA":" ","LANE":"７９巷","ALLEY":" ","HOUSE_NO":"１３號","E_COORD97":173313.85999999999,"N_COORD97":2548078.6800000002,"ADDRESS":"四維街７９巷１３號","OBJECTID":423375},"geometry":{"x":173313.8600000022,"y":2548078.6800000016}},{"attributes":{"ID":423401,"DIS_CODE":0,"TOWNNAME":"永康區","LI":"崑山里","LIN":"48鄰","STREET":"國光六街","SECT":" ","MAREA":" ","LANE":"３７巷","ALLEY":" ","HOUSE_NO":"２１號","E_COORD97":174207.72,"N_COORD97":2545200.3900000001,"ADDRESS":"國光六街３７巷２１號","OBJECTID":423376},"geometry":{"x":174207.72000000067,"y":2545200.3900000006}},{"attributes":{"ID":423402,"DIS_CODE":0,"TOWNNAME":"永康區","LI":"崑山里","LIN":"48鄰","STREET":"國光六街","SECT":" ","MAREA":" ","LANE":"３７巷","ALLEY":" ","HOUSE_NO":"２３號","E_COORD97":174208.26999999999,"N_COORD97":2545195.3100000001,"ADDRESS":"國光六街３７巷２３號","OBJECTID":423377},"geometry":{"x":174208.26999999955,"y":2545195.3100000005}},{"attributes":{"ID":423403,"DIS_CODE":0,"TOWNNAME":"永康區","LI":"南灣里","LIN":"8鄰","STREET":"南興路","SECT":" ","MAREA":" ","LANE":"４８巷","ALLEY":" ","HOUSE_NO":"４６號","E_COORD97":174548.47,"N_COORD97":2544136.8199999998,"ADDRESS":"南興路４８巷４６號","OBJECTID":423378},"geometry":{"x":174548.47000000067,"y":2544136.8200000003}},{"attributes":{"ID":423404,"DIS_CODE":0,"TOWNNAME":"佳里區","LI":"東寧里","LIN":"4鄰","STREET":"中山路","SECT":" ","MAREA":" ","LANE":"３１０巷","ALLEY":" ","HOUSE_NO":"１０號","E_COORD97":165765.26000000001,"N_COORD97":2562391.52,"ADDRESS":"中山路３１０巷１０號","OBJECTID":423379},"geometry":{"x":165765.26000000164,"y":2562391.5199999996}},{"attributes":{"ID":423405,"DIS_CODE":0,"TOWNNAME":"佳里區","LI":"東寧里","LIN":"4鄰","STREET":"中山路","SECT":" ","MAREA":" ","LANE":"３１０巷","ALLEY":" ","HOUSE_NO":"１１號","E_COORD97":165769.06,"N_COORD97":2562392,"ADDRESS":"中山路３１０巷１１號","OBJECTID":423380},"geometry":{"x":165769.05999999959,"y":2562392}},{"attributes":{"ID":423406,"DIS_CODE":0,"TOWNNAME":"佳里區","LI":"東寧里","LIN":"4鄰","STREET":"中山路","SECT":" ","MAREA":" ","LANE":"３１０巷","ALLEY":" ","HOUSE_NO":"１２號","E_COORD97":165772.67000000001,"N_COORD97":2562392.6200000001,"ADDRESS":"中山路３１０巷１２號","OBJECTID":423381},"geometry":{"x":165772.67000000179,"y":2562392.620000001}},{"attributes":{"ID":423407,"DIS_CODE":0,"TOWNNAME":"佳里區","LI":"東寧里","LIN":"4鄰","STREET":"中山路","SECT":" ","MAREA":" ","LANE":"３１０巷","ALLEY":" ","HOUSE_NO":"１３號","E_COORD97":165776.64000000001,"N_COORD97":2562393.0899999999,"ADDRESS":"中山路３１０巷１３號","OBJECTID":423382},"geometry":{"x":165776.6400000006,"y":2562393.0900000017}},{"attributes":{"ID":423408,"DIS_CODE":0,"TOWNNAME":"佳里區","LI":"東寧里","LIN":"4鄰","STREET":"中山路","SECT":" ","MAREA":" ","LANE":"３１０巷","ALLEY":" ","HOUSE_NO":"１４號","E_COORD97":165780.35999999999,"N_COORD97":2562393.48,"ADDRESS":"中山路３１０巷１４號","OBJECTID":423383},"geometry":{"x":165780.3600000022,"y":2562393.4800000004}},{"attributes":{"ID":423409,"DIS_CODE":0,"TOWNNAME":"佳里區","LI":"東寧里","LIN":"4鄰","STREET":"中山路","SECT":" ","MAREA":" ","LANE":"３１０巷","ALLEY":" ","HOUSE_NO":"１５號","E_COORD97":165783.73000000001,"N_COORD97":2562393.9100000001,"ADDRESS":"中山路３１０巷１５號","OBJECTID":423384},"geometry":{"x":165783.73000000138,"y":2562393.9099999983}},{"attributes":{"ID":423410,"DIS_CODE":0,"TOWNNAME":"佳里區","LI":"東寧里","LIN":"4鄰","STREET":"中山路","SECT":" ","MAREA":" ","LANE":"３１０巷","ALLEY":" ","HOUSE_NO":"１６號","E_COORD97":165786.47,"N_COORD97":2562394.4399999999,"ADDRESS":"中山路３１０巷１６號","OBJECTID":423385},"geometry":{"x":165786.47000000067,"y":2562394.4400000013}},{"attributes":{"ID":423411,"DIS_CODE":0,"TOWNNAME":"佳里區","LI":"東寧里","LIN":"4鄰","STREET":"中山路","SECT":" ","MAREA":" ","LANE":"３１０巷","ALLEY":" ","HOUSE_NO":"１７號","E_COORD97":165789.82999999999,"N_COORD97":2562394.73,"ADDRESS":"中山路３１０巷１７號","OBJECTID":423386},"geometry":{"x":165789.83000000007,"y":2562394.7300000004}},{"attributes":{"ID":423412,"DIS_CODE":0,"TOWNNAME":"佳里區","LI":"東寧里","LIN":"4鄰","STREET":"中山路","SECT":" ","MAREA":" ","LANE":"３１０巷","ALLEY":" ","HOUSE_NO":"１８號","E_COORD97":165793.78,"N_COORD97":2562395.5600000001,"ADDRESS":"中山路３１０巷１８號","OBJECTID":423387},"geometry":{"x":165793.78000000026,"y":2562395.5600000005}},{"attributes":{"ID":423413,"DIS_CODE":0,"TOWNNAME":"佳里區","LI":"東寧里","LIN":"4鄰","STREET":"中山路","SECT":" ","MAREA":" ","LANE":"３１０巷","ALLEY":" ","HOUSE_NO":"１號","E_COORD97":165730.92999999999,"N_COORD97":2562387.29,"ADDRESS":"中山路３１０巷１號","OBJECTID":423388},"geometry":{"x":165730.9299999997,"y":2562387.2900000028}},{"attributes":{"ID":423414,"DIS_CODE":0,"TOWNNAME":"佳里區","LI":"東寧里","LIN":"4鄰","STREET":"中山路","SECT":" ","MAREA":" ","LANE":"３１０巷","ALLEY":" ","HOUSE_NO":"２０號","E_COORD97":165797.54000000001,"N_COORD97":2562392.9500000002,"ADDRESS":"中山路３１０巷２０號","OBJECTID":423389},"geometry":{"x":165797.5400000019,"y":2562392.950000003}},{"attributes":{"ID":423415,"DIS_CODE":0,"TOWNNAME":"佳里區","LI":"東寧里","LIN":"4鄰","STREET":"中山路","SECT":" ","MAREA":" ","LANE":"３１０巷","ALLEY":" ","HOUSE_NO":"２１號","E_COORD97":165796.62,"N_COORD97":2562396.6299999999,"ADDRESS":"中山路３１０巷２１號","OBJECTID":423390},"geometry":{"x":165796.62000000011,"y":2562396.629999999}},{"attributes":{"ID":423416,"DIS_CODE":0,"TOWNNAME":"佳里區","LI":"東寧里","LIN":"4鄰","STREET":"中山路","SECT":" ","MAREA":" ","LANE":"３１０巷","ALLEY":" ","HOUSE_NO":"２２號","E_COORD97":165795.78,"N_COORD97":2562400.25,"ADDRESS":"中山路３１０巷２２號","OBJECTID":423391},"geometry":{"x":165795.78000000026,"y":2562400.25}},{"attributes":{"ID":423417,"DIS_CODE":0,"TOWNNAME":"佳里區","LI":"東寧里","LIN":"4鄰","STREET":"中山路","SECT":" ","MAREA":" ","LANE":"３１０巷","ALLEY":" ","HOUSE_NO":"２號","E_COORD97":165734.51999999999,"N_COORD97":2562387.9100000001,"ADDRESS":"中山路３１０巷２號","OBJECTID":423392},"geometry":{"x":165734.52000000048,"y":2562387.910000002}},{"attributes":{"ID":423418,"DIS_CODE":0,"TOWNNAME":"佳里區","LI":"東寧里","LIN":"4鄰","STREET":"中山路","SECT":" ","MAREA":" ","LANE":"３１０巷","ALLEY":" ","HOUSE_NO":"３號","E_COORD97":165738.54000000001,"N_COORD97":2562388.6200000001,"ADDRESS":"中山路３１０巷３號","OBJECTID":423393},"geometry":{"x":165738.54000000097,"y":2562388.620000001}},{"attributes":{"ID":423419,"DIS_CODE":0,"TOWNNAME":"佳里區","LI":"東寧里","LIN":"4鄰","STREET":"中山路","SECT":" ","MAREA":" ","LANE":"３１０巷","ALLEY":" ","HOUSE_NO":"４號","E_COORD97":165742.32000000001,"N_COORD97":2562388.9399999999,"ADDRESS":"中山路３１０巷４號","OBJECTID":423394},"geometry":{"x":165742.32000000123,"y":2562388.9399999995}},{"attributes":{"ID":423420,"DIS_CODE":0,"TOWNNAME":"佳里區","LI":"東寧里","LIN":"4鄰","STREET":"中山路","SECT":" ","MAREA":" ","LANE":"３１０巷","ALLEY":" ","HOUSE_NO":"５號","E_COORD97":165746.25,"N_COORD97":2562389.3399999999,"ADDRESS":"中山路３１０巷５號","OBJECTID":423395},"geometry":{"x":165746.25,"y":2562389.3399999999}},{"attributes":{"ID":423421,"DIS_CODE":0,"TOWNNAME":"佳里區","LI":"東寧里","LIN":"4鄰","STREET":"中山路","SECT":" ","MAREA":" ","LANE":"３１０巷","ALLEY":" ","HOUSE_NO":"６號","E_COORD97":165750.22,"N_COORD97":2562389.7799999998,"ADDRESS":"中山路３１０巷６號","OBJECTID":423396},"geometry":{"x":165750.2200000016,"y":2562389.7799999993}},{"attributes":{"ID":423422,"DIS_CODE":0,"TOWNNAME":"佳里區","LI":"東寧里","LIN":"4鄰","STREET":"中山路","SECT":" ","MAREA":" ","LANE":"３１０巷","ALLEY":" ","HOUSE_NO":"７號","E_COORD97":165753.70999999999,"N_COORD97":2562390.1400000001,"ADDRESS":"中山路３１０巷７號","OBJECTID":423397},"geometry":{"x":165753.70999999903,"y":2562390.1400000025}},{"attributes":{"ID":423423,"DIS_CODE":0,"TOWNNAME":"佳里區","LI":"建南里","LIN":"4鄰","STREET":"中和街","SECT":" ","MAREA":" ","LANE":"１０１巷","ALLEY":" ","HOUSE_NO":"３號","E_COORD97":165568.89000000001,"N_COORD97":2562340.7999999998,"ADDRESS":"中和街１０１巷３號","OBJECTID":423398},"geometry":{"x":165568.88999999966,"y":2562340.8000000007}},{"attributes":{"ID":423424,"DIS_CODE":0,"TOWNNAME":"佳里區","LI":"建南里","LIN":"4鄰","STREET":"中和街","SECT":" ","MAREA":" ","LANE":"１０１巷","ALLEY":" ","HOUSE_NO":"５號","E_COORD97":165564.23000000001,"N_COORD97":2562340.71,"ADDRESS":"中和街１０１巷５號","OBJECTID":423399},"geometry":{"x":165564.22999999952,"y":2562340.7100000009}},{"attributes":{"ID":423425,"DIS_CODE":0,"TOWNNAME":"佳里區","LI":"忠仁里","LIN":"1鄰","STREET":"中山路","SECT":" ","MAREA":" ","LANE":"７４巷","ALLEY":" ","HOUSE_NO":"１號","E_COORD97":165758.88,"N_COORD97":2562265.4399999999,"ADDRESS":"中山路７４巷１號","OBJECTID":423400},"geometry":{"x":165758.87999999989,"y":2562265.4400000013}}]}