{"displayFieldName":"TOWNNAME","fieldAliases":{"ID":"ID","DIS_CODE":"DIS_CODE","TOWNNAME":"TOWNNAME","LI":"LI","LIN":"LIN","STREET":"STREET","SECT":"SECT","MAREA":"MAREA","LANE":"LANE","ALLEY":"ALLEY","HOUSE_NO":"HOUSE_NO","E_COORD97":"E_COORD97","N_COORD97":"N_COORD97","ADDRESS":"ADDRESS","OBJECTID":"OBJECTID"},"geometryType":"esriGeometryPoint","spatialReference":{"wkid":102443,"latestWkid":3826},"fields":[{"name":"ID","type":"esriFieldTypeDouble","alias":"ID"},{"name":"DIS_CODE","type":"esriFieldTypeInteger","alias":"DIS_CODE"},{"name":"TOWNNAME","type":"esriFieldTypeString","alias":"TOWNNAME","length":8},{"name":"LI","type":"esriFieldTypeString","alias":"LI","length":8},{"name":"LIN","type":"esriFieldTypeString","alias":"LIN","length":12},{"name":"STREET","type":"esriFieldTypeString","alias":"STREET","length":20},{"name":"SECT","type":"esriFieldTypeString","alias":"SECT","length":8},{"name":"MAREA","type":"esriFieldTypeString","alias":"MAREA","length":12},{"name":"LANE","type":"esriFieldTypeString","alias":"LANE","length":10},{"name":"ALLEY","type":"esriFieldTypeString","alias":"ALLEY","length":10},{"name":"HOUSE_NO","type":"esriFieldTypeString","alias":"HOUSE_NO","length":20},{"name":"E_COORD97","type":"esriFieldTypeDouble","alias":"E_COORD97"},{"name":"N_COORD97","type":"esriFieldTypeDouble","alias":"N_COORD97"},{"name":"ADDRESS","type":"esriFieldTypeString","alias":"ADDRESS","length":50},{"name":"OBJECTID","type":"esriFieldTypeOID","alias":"OBJECTID"}],"features":[{"attributes":{"ID":185802,"DIS_CODE":0,"TOWNNAME":"永康區","LI":"北灣里","LIN":"36鄰","STREET":"大灣路","SECT":" ","MAREA":" ","LANE":"４０巷","ALLEY":"１３８弄","HOUSE_NO":"２３號","E_COORD97":174915.78,"N_COORD97":2546337.5099999998,"ADDRESS":"大灣路４０巷１３８弄２３號","OBJECTID":185801},"geometry":{"x":174915.78000000026,"y":2546337.5100000016}},{"attributes":{"ID":185803,"DIS_CODE":0,"TOWNNAME":"後壁區","LI":"土溝里","LIN":"11鄰","STREET":" ","SECT":" ","MAREA":"土溝","LANE":" ","ALLEY":" ","HOUSE_NO":"１０３號之９","E_COORD97":187654.07999999999,"N_COORD97":2585499.2999999998,"ADDRESS":"土溝１０３號之９","OBJECTID":185802},"geometry":{"x":187654.08000000101,"y":2585499.3000000007}},{"attributes":{"ID":185804,"DIS_CODE":0,"TOWNNAME":"後壁區","LI":"土溝里","LIN":"11鄰","STREET":" ","SECT":" ","MAREA":"土溝","LANE":" ","ALLEY":" ","HOUSE_NO":"１０３號","E_COORD97":187593.84,"N_COORD97":2585752.2200000002,"ADDRESS":"土溝１０３號","OBJECTID":185803},"geometry":{"x":187593.84000000078,"y":2585752.2200000044}},{"attributes":{"ID":185805,"DIS_CODE":0,"TOWNNAME":"永康區","LI":"北灣里","LIN":"36鄰","STREET":"大灣路","SECT":" ","MAREA":" ","LANE":"４０巷","ALLEY":"１３８弄","HOUSE_NO":"２５號","E_COORD97":174918.63,"N_COORD97":2546340.5299999998,"ADDRESS":"大灣路４０巷１３８弄２５號","OBJECTID":185804},"geometry":{"x":174918.63000000082,"y":2546340.5300000012}},{"attributes":{"ID":185806,"DIS_CODE":0,"TOWNNAME":"永康區","LI":"北灣里","LIN":"36鄰","STREET":"大灣路","SECT":" ","MAREA":" ","LANE":"４０巷","ALLEY":"１３８弄","HOUSE_NO":"２６號","E_COORD97":174947.35999999999,"N_COORD97":2546352.3599999999,"ADDRESS":"大灣路４０巷１３８弄２６號","OBJECTID":185805},"geometry":{"x":174947.36000000034,"y":2546352.3599999994}},{"attributes":{"ID":185807,"DIS_CODE":0,"TOWNNAME":"永康區","LI":"北灣里","LIN":"36鄰","STREET":"大灣路","SECT":" ","MAREA":" ","LANE":"４０巷","ALLEY":"１３８弄","HOUSE_NO":"２７號","E_COORD97":174921.51000000001,"N_COORD97":2546343.73,"ADDRESS":"大灣路４０巷１３８弄２７號","OBJECTID":185806},"geometry":{"x":174921.51000000071,"y":2546343.7300000023}},{"attributes":{"ID":185808,"DIS_CODE":0,"TOWNNAME":"永康區","LI":"北灣里","LIN":"36鄰","STREET":"大灣路","SECT":" ","MAREA":" ","LANE":"４０巷","ALLEY":"１３８弄","HOUSE_NO":"２９號","E_COORD97":174907.09,"N_COORD97":2546343.2999999998,"ADDRESS":"大灣路４０巷１３８弄２９號","OBJECTID":185807},"geometry":{"x":174907.09000000078,"y":2546343.3000000026}},{"attributes":{"ID":185809,"DIS_CODE":0,"TOWNNAME":"永康區","LI":"北灣里","LIN":"36鄰","STREET":"大灣路","SECT":" ","MAREA":" ","LANE":"４０巷","ALLEY":"１３８弄","HOUSE_NO":"２號","E_COORD97":174898.32999999999,"N_COORD97":2546298.04,"ADDRESS":"大灣路４０巷１３８弄２號","OBJECTID":185808},"geometry":{"x":174898.33000000007,"y":2546298.0400000028}},{"attributes":{"ID":185810,"DIS_CODE":0,"TOWNNAME":"永康區","LI":"北灣里","LIN":"36鄰","STREET":"大灣路","SECT":" ","MAREA":" ","LANE":"４０巷","ALLEY":"１３８弄","HOUSE_NO":"３３號","E_COORD97":174930.66,"N_COORD97":2546352.52,"ADDRESS":"大灣路４０巷１３８弄３３號","OBJECTID":185809},"geometry":{"x":174930.66000000108,"y":2546352.5199999996}},{"attributes":{"ID":185811,"DIS_CODE":0,"TOWNNAME":"永康區","LI":"北灣里","LIN":"36鄰","STREET":"大灣路","SECT":" ","MAREA":" ","LANE":"４０巷","ALLEY":"１３８弄","HOUSE_NO":"３３號","E_COORD97":174933.39000000001,"N_COORD97":2546355.4399999999,"ADDRESS":"大灣路４０巷１３８弄３３號","OBJECTID":185810},"geometry":{"x":174933.39000000153,"y":2546355.4399999995}},{"attributes":{"ID":185812,"DIS_CODE":0,"TOWNNAME":"永康區","LI":"北灣里","LIN":"36鄰","STREET":"大灣路","SECT":" ","MAREA":" ","LANE":"４０巷","ALLEY":"１３８弄","HOUSE_NO":"３５號","E_COORD97":174935.82999999999,"N_COORD97":2546358.1699999999,"ADDRESS":"大灣路４０巷１３８弄３５號","OBJECTID":185811},"geometry":{"x":174935.82999999914,"y":2546358.1699999999}},{"attributes":{"ID":185813,"DIS_CODE":0,"TOWNNAME":"永康區","LI":"北灣里","LIN":"36鄰","STREET":"大灣路","SECT":" ","MAREA":" ","LANE":"４０巷","ALLEY":"１３８弄","HOUSE_NO":"３７號","E_COORD97":174938.56,"N_COORD97":2546361.0800000001,"ADDRESS":"大灣路４０巷１３８弄３７號","OBJECTID":185812},"geometry":{"x":174938.55999999959,"y":2546361.0800000019}},{"attributes":{"ID":185814,"DIS_CODE":0,"TOWNNAME":"南區","LI":"大林里","LIN":"10鄰","STREET":"國民路","SECT":" ","MAREA":" ","LANE":"５３２巷","ALLEY":" ","HOUSE_NO":"２號","E_COORD97":168590.73000000001,"N_COORD97":2541589.7400000002,"ADDRESS":"國民路５３２巷２號","OBJECTID":185813},"geometry":{"x":168590.73000000138,"y":2541589.7400000021}},{"attributes":{"ID":185815,"DIS_CODE":0,"TOWNNAME":"玉井區","LI":"玉田里","LIN":"24鄰","STREET":"新興街","SECT":" ","MAREA":" ","LANE":" ","ALLEY":" ","HOUSE_NO":"４１號","E_COORD97":195084.62,"N_COORD97":2557884.2400000002,"ADDRESS":"新興街４１號","OBJECTID":185814},"geometry":{"x":195084.61999999918,"y":2557884.2400000021}},{"attributes":{"ID":185816,"DIS_CODE":0,"TOWNNAME":"玉井區","LI":"玉田里","LIN":"24鄰","STREET":"中華路","SECT":" ","MAREA":" ","LANE":" ","ALLEY":" ","HOUSE_NO":"１９６號","E_COORD97":195190.45999999999,"N_COORD97":2557811.25,"ADDRESS":"中華路１９６號","OBJECTID":185815},"geometry":{"x":195190.45999999996,"y":2557811.2500000037}},{"attributes":{"ID":185817,"DIS_CODE":0,"TOWNNAME":"永康區","LI":"北灣里","LIN":"36鄰","STREET":"大灣路","SECT":" ","MAREA":" ","LANE":"４０巷","ALLEY":"１３８弄","HOUSE_NO":"３號","E_COORD97":174887.17000000001,"N_COORD97":2546307.8300000001,"ADDRESS":"大灣路４０巷１３８弄３號","OBJECTID":185816},"geometry":{"x":174887.16999999993,"y":2546307.8300000019}},{"attributes":{"ID":185818,"DIS_CODE":0,"TOWNNAME":"安南區","LI":"新順里","LIN":"10鄰","STREET":"安和路","SECT":"二段","MAREA":" ","LANE":" ","ALLEY":" ","HOUSE_NO":"２２８號","E_COORD97":169661.89999999999,"N_COORD97":2549066.7999999998,"ADDRESS":"安和路二段２２８號","OBJECTID":185817},"geometry":{"x":169661.90000000037,"y":2549066.8000000007}},{"attributes":{"ID":185819,"DIS_CODE":0,"TOWNNAME":"安南區","LI":"安西里","LIN":"10鄰","STREET":"安和路","SECT":"一段","MAREA":" ","LANE":" ","ALLEY":" ","HOUSE_NO":"３５５號","E_COORD97":169284.62,"N_COORD97":2548257.9700000002,"ADDRESS":"安和路一段３５５號","OBJECTID":185818},"geometry":{"x":169284.62000000104,"y":2548257.9700000025}},{"attributes":{"ID":185820,"DIS_CODE":0,"TOWNNAME":"安南區","LI":"淵西里","LIN":"10鄰","STREET":"安中路","SECT":"四段","MAREA":" ","LANE":" ","ALLEY":" ","HOUSE_NO":"３２２號","E_COORD97":164400.10999999999,"N_COORD97":2550288.5699999998,"ADDRESS":"安中路四段３２２號","OBJECTID":185819},"geometry":{"x":164400.11000000034,"y":2550288.5700000003}},{"attributes":{"ID":185821,"DIS_CODE":0,"TOWNNAME":"安南區","LI":"淵西里","LIN":"10鄰","STREET":"安中路","SECT":"四段","MAREA":" ","LANE":" ","ALLEY":" ","HOUSE_NO":"３２２號之１","E_COORD97":164395.57000000001,"N_COORD97":2550289.8599999999,"ADDRESS":"安中路四段３２２號之１","OBJECTID":185820},"geometry":{"x":164395.57000000216,"y":2550289.8600000031}},{"attributes":{"ID":185822,"DIS_CODE":0,"TOWNNAME":"永康區","LI":"北灣里","LIN":"36鄰","STREET":"大灣路","SECT":" ","MAREA":" ","LANE":"４０巷","ALLEY":"１３８弄","HOUSE_NO":"５號","E_COORD97":174889.66,"N_COORD97":2546311.1400000001,"ADDRESS":"大灣路４０巷１３８弄５號","OBJECTID":185821},"geometry":{"x":174889.66000000201,"y":2546311.1400000006}},{"attributes":{"ID":185823,"DIS_CODE":0,"TOWNNAME":"永康區","LI":"北灣里","LIN":"36鄰","STREET":"大灣路","SECT":" ","MAREA":" ","LANE":"４０巷","ALLEY":"１３８弄","HOUSE_NO":"６號","E_COORD97":174906.39000000001,"N_COORD97":2546306.6600000001,"ADDRESS":"大灣路４０巷１３８弄６號","OBJECTID":185822},"geometry":{"x":174906.39000000153,"y":2546306.660000002}},{"attributes":{"ID":185824,"DIS_CODE":0,"TOWNNAME":"大內區","LI":"環湖里","LIN":"3鄰","STREET":" ","SECT":" ","MAREA":"環湖","LANE":" ","ALLEY":" ","HOUSE_NO":"３０號","E_COORD97":190508.64000000001,"N_COORD97":2560661.25,"ADDRESS":"環湖３０號","OBJECTID":185823},"geometry":{"x":190508.63999999966,"y":2560661.25}},{"attributes":{"ID":185825,"DIS_CODE":0,"TOWNNAME":"永康區","LI":"北灣里","LIN":"36鄰","STREET":"大灣路","SECT":" ","MAREA":" ","LANE":"４０巷","ALLEY":"１３８弄","HOUSE_NO":"７號","E_COORD97":174892.35999999999,"N_COORD97":2546314.1600000001,"ADDRESS":"大灣路４０巷１３８弄７號","OBJECTID":185824},"geometry":{"x":174892.36000000127,"y":2546314.1600000001}},{"attributes":{"ID":185826,"DIS_CODE":0,"TOWNNAME":"永康區","LI":"北灣里","LIN":"36鄰","STREET":"大灣路","SECT":" ","MAREA":" ","LANE":"４０巷","ALLEY":"１３８弄","HOUSE_NO":"８號","E_COORD97":174913.53,"N_COORD97":2546314.7999999998,"ADDRESS":"大灣路４０巷１３８弄８號","OBJECTID":185825},"geometry":{"x":174913.53000000119,"y":2546314.8000000045}},{"attributes":{"ID":185827,"DIS_CODE":0,"TOWNNAME":"永康區","LI":"北灣里","LIN":"36鄰","STREET":"大灣路","SECT":" ","MAREA":" ","LANE":"４０巷","ALLEY":"１３８弄","HOUSE_NO":"９號","E_COORD97":174895.16,"N_COORD97":2546317.3199999998,"ADDRESS":"大灣路４０巷１３８弄９號","OBJECTID":185826},"geometry":{"x":174895.16000000108,"y":2546317.3200000003}},{"attributes":{"ID":185828,"DIS_CODE":0,"TOWNNAME":"永康區","LI":"\u25A0行里","LIN":"36鄰","STREET":"三村一街","SECT":" ","MAREA":" ","LANE":"１３８巷","ALLEY":"１８弄","HOUSE_NO":"８號","E_COORD97":172079.89999999999,"N_COORD97":2549279.9900000002,"ADDRESS":"三村一街１３８巷１８弄８號","OBJECTID":185827},"geometry":{"x":172079.9000000013,"y":2549279.9900000021}},{"attributes":{"ID":185829,"DIS_CODE":0,"TOWNNAME":"永康區","LI":"\u25A0行里","LIN":"36鄰","STREET":"三村一街","SECT":" ","MAREA":" ","LANE":"１３８巷","ALLEY":"４８弄","HOUSE_NO":"２６號","E_COORD97":172117.70000000001,"N_COORD97":2549332.4399999999,"ADDRESS":"三村一街１３８巷４８弄２６號","OBJECTID":185828},"geometry":{"x":172117.70000000019,"y":2549332.4399999995}},{"attributes":{"ID":185830,"DIS_CODE":0,"TOWNNAME":"永康區","LI":"東灣里","LIN":"36鄰","STREET":"民族路","SECT":" ","MAREA":" ","LANE":"２７３巷","ALLEY":"２３弄","HOUSE_NO":"６號","E_COORD97":175079.34,"N_COORD97":2544934.29,"ADDRESS":"民族路２７３巷２３弄６號","OBJECTID":185829},"geometry":{"x":175079.33999999985,"y":2544934.290000001}},{"attributes":{"ID":185831,"DIS_CODE":0,"TOWNNAME":"南區","LI":"大忠里","LIN":"36鄰","STREET":"國民路","SECT":" ","MAREA":" ","LANE":"２７０巷","ALLEY":"２２弄","HOUSE_NO":"８號","E_COORD97":169066.57000000001,"N_COORD97":2541480.3700000001,"ADDRESS":"國民路２７０巷２２弄８號","OBJECTID":185830},"geometry":{"x":169066.57000000123,"y":2541480.3700000029}},{"attributes":{"ID":185832,"DIS_CODE":0,"TOWNNAME":"永康區","LI":"龍潭里","LIN":"36鄰","STREET":"中山北路","SECT":" ","MAREA":" ","LANE":"１６４巷","ALLEY":"１５８弄","HOUSE_NO":"５號","E_COORD97":174648.20999999999,"N_COORD97":2547389.04,"ADDRESS":"中山北路１６４巷１５８弄５號","OBJECTID":185831},"geometry":{"x":174648.20999999996,"y":2547389.0399999991}},{"attributes":{"ID":185833,"DIS_CODE":0,"TOWNNAME":"永康區","LI":"龍潭里","LIN":"36鄰","STREET":"中山北路","SECT":" ","MAREA":" ","LANE":"１６４巷","ALLEY":"１６０弄","HOUSE_NO":"４９號","E_COORD97":174700.01999999999,"N_COORD97":2547310.2400000002,"ADDRESS":"中山北路１６４巷１６０弄４９號","OBJECTID":185832},"geometry":{"x":174700.01999999955,"y":2547310.2400000002}},{"attributes":{"ID":185834,"DIS_CODE":0,"TOWNNAME":"永康區","LI":"崑山里","LIN":"36鄰","STREET":"大灣路","SECT":" ","MAREA":" ","LANE":"９４２巷","ALLEY":"１９４弄","HOUSE_NO":"７號","E_COORD97":173839.82999999999,"N_COORD97":2544979.5899999999,"ADDRESS":"大灣路９４２巷１９４弄７號","OBJECTID":185833},"geometry":{"x":173839.83000000101,"y":2544979.5900000036}},{"attributes":{"ID":185835,"DIS_CODE":0,"TOWNNAME":"永康區","LI":"崑山里","LIN":"36鄰","STREET":"大灣路","SECT":" ","MAREA":" ","LANE":"９４２巷","ALLEY":"１９４弄","HOUSE_NO":"９號","E_COORD97":173860.09,"N_COORD97":2544976.3799999999,"ADDRESS":"大灣路９４２巷１９４弄９號","OBJECTID":185834},"geometry":{"x":173860.08999999985,"y":2544976.379999999}},{"attributes":{"ID":185836,"DIS_CODE":0,"TOWNNAME":"仁德區","LI":"後壁里","LIN":"36鄰","STREET":"民安路","SECT":"一段","MAREA":" ","LANE":"３１０巷","ALLEY":"３４弄","HOUSE_NO":"２０號","E_COORD97":172705.29999999999,"N_COORD97":2539451.9399999999,"ADDRESS":"民安路一段３１０巷３４弄２０號","OBJECTID":185835},"geometry":{"x":172705.30000000075,"y":2539451.9400000013}},{"attributes":{"ID":185837,"DIS_CODE":0,"TOWNNAME":"仁德區","LI":"後壁里","LIN":"36鄰","STREET":"民安路","SECT":"一段","MAREA":" ","LANE":"３１０巷","ALLEY":"３４弄","HOUSE_NO":"１號","E_COORD97":172724.62,"N_COORD97":2539414.9399999999,"ADDRESS":"民安路一段３１０巷３４弄１號","OBJECTID":185836},"geometry":{"x":172724.62000000011,"y":2539414.9399999995}},{"attributes":{"ID":185838,"DIS_CODE":0,"TOWNNAME":"仁德區","LI":"後壁里","LIN":"36鄰","STREET":"民安路","SECT":"一段","MAREA":" ","LANE":"３１０巷","ALLEY":"３４弄","HOUSE_NO":"７號","E_COORD97":172704.19,"N_COORD97":2539424.9399999999,"ADDRESS":"民安路一段３１０巷３４弄７號","OBJECTID":185837},"geometry":{"x":172704.19000000041,"y":2539424.9400000013}},{"attributes":{"ID":185839,"DIS_CODE":0,"TOWNNAME":"仁德區","LI":"太子里","LIN":"36鄰","STREET":"長興一街","SECT":" ","MAREA":" ","LANE":"４０巷","ALLEY":"１９弄","HOUSE_NO":"２號","E_COORD97":174513.76000000001,"N_COORD97":2543872.25,"ADDRESS":"長興一街４０巷１９弄２號","OBJECTID":185838},"geometry":{"x":174513.75999999978,"y":2543872.25}},{"attributes":{"ID":185840,"DIS_CODE":0,"TOWNNAME":"仁德區","LI":"後壁里","LIN":"36鄰","STREET":"民安路","SECT":"一段","MAREA":" ","LANE":"３１０巷","ALLEY":"２９弄","HOUSE_NO":"９號","E_COORD97":172822.64999999999,"N_COORD97":2539433.9399999999,"ADDRESS":"民安路一段３１０巷２９弄９號","OBJECTID":185839},"geometry":{"x":172822.6500000013,"y":2539433.9400000013}},{"attributes":{"ID":185841,"DIS_CODE":0,"TOWNNAME":"仁德區","LI":"後壁里","LIN":"36鄰","STREET":"民安路","SECT":"一段","MAREA":" ","LANE":"３１０巷","ALLEY":"２９弄","HOUSE_NO":"７號","E_COORD97":172818.94,"N_COORD97":2539436.4399999999,"ADDRESS":"民安路一段３１０巷２９弄７號","OBJECTID":185840},"geometry":{"x":172818.94000000134,"y":2539436.4399999995}},{"attributes":{"ID":185842,"DIS_CODE":0,"TOWNNAME":"仁德區","LI":"後壁里","LIN":"36鄰","STREET":"民安路","SECT":"一段","MAREA":" ","LANE":"３１０巷","ALLEY":"３１弄","HOUSE_NO":"５號","E_COORD97":172787.45000000001,"N_COORD97":2539408.7000000002,"ADDRESS":"民安路一段３１０巷３１弄５號","OBJECTID":185841},"geometry":{"x":172787.45000000205,"y":2539408.7000000011}},{"attributes":{"ID":185843,"DIS_CODE":0,"TOWNNAME":"玉井區","LI":"玉田里","LIN":"36鄰","STREET":"玉安街","SECT":" ","MAREA":" ","LANE":"３０巷","ALLEY":"２１弄","HOUSE_NO":"２號","E_COORD97":195133.45999999999,"N_COORD97":2558348.3199999998,"ADDRESS":"玉安街３０巷２１弄２號","OBJECTID":185842},"geometry":{"x":195133.46000000089,"y":2558348.3200000022}},{"attributes":{"ID":185844,"DIS_CODE":0,"TOWNNAME":"玉井區","LI":"玉田里","LIN":"36鄰","STREET":"玉安街","SECT":" ","MAREA":" ","LANE":"３０巷","ALLEY":"２１弄","HOUSE_NO":"１６號","E_COORD97":195147.01000000001,"N_COORD97":2558366.3199999998,"ADDRESS":"玉安街３０巷２１弄１６號","OBJECTID":185843},"geometry":{"x":195147.01000000071,"y":2558366.3200000003}},{"attributes":{"ID":185845,"DIS_CODE":0,"TOWNNAME":"後壁區","LI":"土溝里","LIN":"11鄰","STREET":" ","SECT":" ","MAREA":"土溝","LANE":" ","ALLEY":" ","HOUSE_NO":"１０４號之１","E_COORD97":187607.32000000001,"N_COORD97":2585771.1400000001,"ADDRESS":"土溝１０４號之１","OBJECTID":185844},"geometry":{"x":187607.3200000003,"y":2585771.1400000025}},{"attributes":{"ID":185846,"DIS_CODE":0,"TOWNNAME":"後壁區","LI":"土溝里","LIN":"11鄰","STREET":" ","SECT":" ","MAREA":"土溝","LANE":" ","ALLEY":" ","HOUSE_NO":"１０５號","E_COORD97":187572.38,"N_COORD97":2585785.4199999999,"ADDRESS":"土溝１０５號","OBJECTID":185845},"geometry":{"x":187572.37999999989,"y":2585785.4200000018}},{"attributes":{"ID":185847,"DIS_CODE":0,"TOWNNAME":"後壁區","LI":"土溝里","LIN":"11鄰","STREET":" ","SECT":" ","MAREA":"土溝","LANE":" ","ALLEY":" ","HOUSE_NO":"１０６號之１","E_COORD97":187563.07000000001,"N_COORD97":2585788.3100000001,"ADDRESS":"土溝１０６號之１","OBJECTID":185846},"geometry":{"x":187563.0700000003,"y":2585788.3100000005}},{"attributes":{"ID":185848,"DIS_CODE":0,"TOWNNAME":"玉井區","LI":"玉田里","LIN":"36鄰","STREET":"玉安街","SECT":" ","MAREA":" ","LANE":"３０巷","ALLEY":"２１弄","HOUSE_NO":"２０號","E_COORD97":195151.70999999999,"N_COORD97":2558374.3100000001,"ADDRESS":"玉安街３０巷２１弄２０號","OBJECTID":185847},"geometry":{"x":195151.70999999903,"y":2558374.3100000042}},{"attributes":{"ID":185849,"DIS_CODE":0,"TOWNNAME":"南區","LI":"大忠里","LIN":"36鄰","STREET":"國民路","SECT":" ","MAREA":" ","LANE":"２７０巷","ALLEY":"２２弄","HOUSE_NO":"１６號","E_COORD97":169078.31,"N_COORD97":2541467.5899999999,"ADDRESS":"國民路２７０巷２２弄１６號","OBJECTID":185848},"geometry":{"x":169078.30999999959,"y":2541467.5900000017}},{"attributes":{"ID":185850,"DIS_CODE":0,"TOWNNAME":"南區","LI":"大忠里","LIN":"36鄰","STREET":"國民路","SECT":" ","MAREA":" ","LANE":"２７０巷","ALLEY":"２２弄","HOUSE_NO":"２６號","E_COORD97":169095.03,"N_COORD97":2541449.1200000001,"ADDRESS":"國民路２７０巷２２弄２６號","OBJECTID":185849},"geometry":{"x":169095.03000000119,"y":2541449.1200000029}},{"attributes":{"ID":185851,"DIS_CODE":0,"TOWNNAME":"南區","LI":"大忠里","LIN":"36鄰","STREET":"國民路","SECT":" ","MAREA":" ","LANE":"２７０巷","ALLEY":"２２弄","HOUSE_NO":"２８號","E_COORD97":169097.39000000001,"N_COORD97":2541445.8500000001,"ADDRESS":"國民路２７０巷２２弄２８號","OBJECTID":185850},"geometry":{"x":169097.3900000006,"y":2541445.8500000015}},{"attributes":{"ID":185852,"DIS_CODE":0,"TOWNNAME":"南區","LI":"大忠里","LIN":"36鄰","STREET":"國民路","SECT":" ","MAREA":" ","LANE":"２７０巷","ALLEY":"２２弄","HOUSE_NO":"２號","E_COORD97":169057.38,"N_COORD97":2541491.5699999998,"ADDRESS":"國民路２７０巷２２弄２號","OBJECTID":185851},"geometry":{"x":169057.37999999989,"y":2541491.570000004}},{"attributes":{"ID":185853,"DIS_CODE":0,"TOWNNAME":"南區","LI":"大忠里","LIN":"36鄰","STREET":"國民路","SECT":" ","MAREA":" ","LANE":"２７０巷","ALLEY":"２２弄","HOUSE_NO":"３０號","E_COORD97":169100.92000000001,"N_COORD97":2541442.4900000002,"ADDRESS":"國民路２７０巷２２弄３０號","OBJECTID":185852},"geometry":{"x":169100.92000000086,"y":2541442.4900000021}},{"attributes":{"ID":185854,"DIS_CODE":0,"TOWNNAME":"南區","LI":"大忠里","LIN":"36鄰","STREET":"國民路","SECT":" ","MAREA":" ","LANE":"２７０巷","ALLEY":"２２弄","HOUSE_NO":"３２號","E_COORD97":169103.81,"N_COORD97":2541439.6099999999,"ADDRESS":"國民路２７０巷２２弄３２號","OBJECTID":185853},"geometry":{"x":169103.80999999959,"y":2541439.6100000031}},{"attributes":{"ID":185855,"DIS_CODE":0,"TOWNNAME":"南區","LI":"大忠里","LIN":"36鄰","STREET":"國民路","SECT":" ","MAREA":" ","LANE":"２７０巷","ALLEY":"２２弄","HOUSE_NO":"３４號","E_COORD97":169106.20000000001,"N_COORD97":2541436.21,"ADDRESS":"國民路２７０巷２２弄３４號","OBJECTID":185854},"geometry":{"x":169106.20000000112,"y":2541436.2100000009}},{"attributes":{"ID":185856,"DIS_CODE":0,"TOWNNAME":"南區","LI":"大忠里","LIN":"36鄰","STREET":"國民路","SECT":" ","MAREA":" ","LANE":"２７０巷","ALLEY":"２２弄","HOUSE_NO":"３６號","E_COORD97":169109.42999999999,"N_COORD97":2541432.9900000002,"ADDRESS":"國民路２７０巷２２弄３６號","OBJECTID":185855},"geometry":{"x":169109.4299999997,"y":2541432.9900000002}},{"attributes":{"ID":185857,"DIS_CODE":0,"TOWNNAME":"南區","LI":"大忠里","LIN":"36鄰","STREET":"國民路","SECT":" ","MAREA":" ","LANE":"２７０巷","ALLEY":"２２弄","HOUSE_NO":"３８號","E_COORD97":169112.48999999999,"N_COORD97":2541429.9300000002,"ADDRESS":"國民路２７０巷２２弄３８號","OBJECTID":185856},"geometry":{"x":169112.49000000115,"y":2541429.9299999997}},{"attributes":{"ID":185858,"DIS_CODE":0,"TOWNNAME":"南區","LI":"大忠里","LIN":"36鄰","STREET":"國民路","SECT":" ","MAREA":" ","LANE":"２７０巷","ALLEY":"２２弄","HOUSE_NO":"４０號","E_COORD97":169115.04999999999,"N_COORD97":2541426.71,"ADDRESS":"國民路２７０巷２２弄４０號","OBJECTID":185857},"geometry":{"x":169115.05000000075,"y":2541426.7100000046}},{"attributes":{"ID":185859,"DIS_CODE":0,"TOWNNAME":"南區","LI":"大忠里","LIN":"36鄰","STREET":"國民路","SECT":" ","MAREA":" ","LANE":"２７０巷","ALLEY":"２２弄","HOUSE_NO":"４２號","E_COORD97":169117.60000000001,"N_COORD97":2541422.9700000002,"ADDRESS":"國民路２７０巷２２弄４２號","OBJECTID":185858},"geometry":{"x":169117.60000000056,"y":2541422.9700000025}},{"attributes":{"ID":185860,"DIS_CODE":0,"TOWNNAME":"南區","LI":"大忠里","LIN":"36鄰","STREET":"國民路","SECT":" ","MAREA":" ","LANE":"２７０巷","ALLEY":"２２弄","HOUSE_NO":"４４號","E_COORD97":169120.66,"N_COORD97":2541419.5800000001,"ADDRESS":"國民路２７０巷２２弄４４號","OBJECTID":185859},"geometry":{"x":169120.66000000015,"y":2541419.5800000001}},{"attributes":{"ID":185861,"DIS_CODE":0,"TOWNNAME":"南區","LI":"大忠里","LIN":"36鄰","STREET":"國民路","SECT":" ","MAREA":" ","LANE":"２７０巷","ALLEY":"２２弄","HOUSE_NO":"４６號","E_COORD97":169123.56,"N_COORD97":2541416.5299999998,"ADDRESS":"國民路２７０巷２２弄４６號","OBJECTID":185860},"geometry":{"x":169123.56000000052,"y":2541416.5300000012}},{"attributes":{"ID":185862,"DIS_CODE":0,"TOWNNAME":"南區","LI":"大忠里","LIN":"36鄰","STREET":"國民路","SECT":" ","MAREA":" ","LANE":"２７０巷","ALLEY":"２２弄","HOUSE_NO":"４８號","E_COORD97":169126.39999999999,"N_COORD97":2541412.8999999999,"ADDRESS":"國民路２７０巷２２弄４８號","OBJECTID":185861},"geometry":{"x":169126.40000000224,"y":2541412.9000000022}},{"attributes":{"ID":185863,"DIS_CODE":0,"TOWNNAME":"南區","LI":"大忠里","LIN":"36鄰","STREET":"國民路","SECT":" ","MAREA":" ","LANE":"２７０巷","ALLEY":"２２弄","HOUSE_NO":"４號","E_COORD97":169060.03,"N_COORD97":2541488.1099999999,"ADDRESS":"國民路２７０巷２２弄４號","OBJECTID":185862},"geometry":{"x":169060.03000000119,"y":2541488.1100000013}},{"attributes":{"ID":185864,"DIS_CODE":0,"TOWNNAME":"南區","LI":"大忠里","LIN":"36鄰","STREET":"國民路","SECT":" ","MAREA":" ","LANE":"２７０巷","ALLEY":"２２弄","HOUSE_NO":"５０號","E_COORD97":169129.09,"N_COORD97":2541409.8300000001,"ADDRESS":"國民路２７０巷２２弄５０號","OBJECTID":185863},"geometry":{"x":169129.08999999985,"y":2541409.8300000001}},{"attributes":{"ID":185865,"DIS_CODE":0,"TOWNNAME":"善化區","LI":"文昌里","LIN":"10鄰","STREET":"大同路","SECT":" ","MAREA":" ","LANE":" ","ALLEY":" ","HOUSE_NO":"３４０號","E_COORD97":177383.51000000001,"N_COORD97":2558905.75,"ADDRESS":"大同路３４０號","OBJECTID":185864},"geometry":{"x":177383.50999999978,"y":2558905.75}},{"attributes":{"ID":185866,"DIS_CODE":0,"TOWNNAME":"仁德區","LI":"仁義里","LIN":"26鄰","STREET":"中山路","SECT":" ","MAREA":" ","LANE":" ","ALLEY":" ","HOUSE_NO":"５８４號","E_COORD97":173302.20999999999,"N_COORD97":2541344.75,"ADDRESS":"中山路５８４號","OBJECTID":185865},"geometry":{"x":173302.20999999996,"y":2541344.7500000019}},{"attributes":{"ID":185867,"DIS_CODE":0,"TOWNNAME":"仁德區","LI":"上崙里","LIN":"26鄰","STREET":"中正路","SECT":"一段","MAREA":" ","LANE":" ","ALLEY":" ","HOUSE_NO":"７０６號","E_COORD97":172906.45999999999,"N_COORD97":2537677.27,"ADDRESS":"中正路一段７０６號","OBJECTID":185866},"geometry":{"x":172906.46000000089,"y":2537677.2699999996}},{"attributes":{"ID":185868,"DIS_CODE":0,"TOWNNAME":"善化區","LI":"牛庄里","LIN":"10鄰","STREET":" ","SECT":" ","MAREA":"牛庄","LANE":" ","ALLEY":" ","HOUSE_NO":"１１３號之１","E_COORD97":180073.32000000001,"N_COORD97":2559904.77,"ADDRESS":"牛庄１１３號之１","OBJECTID":185867},"geometry":{"x":180073.32000000123,"y":2559904.7699999996}},{"attributes":{"ID":185869,"DIS_CODE":0,"TOWNNAME":"善化區","LI":"溪美里","LIN":"10鄰","STREET":" ","SECT":" ","MAREA":"溪尾","LANE":" ","ALLEY":" ","HOUSE_NO":"９１之６號","E_COORD97":176783.62,"N_COORD97":2561391.52,"ADDRESS":"溪尾９１之６號","OBJECTID":185868},"geometry":{"x":176783.62000000197,"y":2561391.5199999996}},{"attributes":{"ID":185870,"DIS_CODE":0,"TOWNNAME":"善化區","LI":"東昌里","LIN":"10鄰","STREET":" ","SECT":" ","MAREA":"東勢寮","LANE":" ","ALLEY":" ","HOUSE_NO":"１１０之１號","E_COORD97":180205.20000000001,"N_COORD97":2561828.27,"ADDRESS":"東勢寮１１０之１號","OBJECTID":185869},"geometry":{"x":180205.20000000019,"y":2561828.2700000033}},{"attributes":{"ID":185871,"DIS_CODE":0,"TOWNNAME":"善化區","LI":"東昌里","LIN":"10鄰","STREET":" ","SECT":" ","MAREA":"東勢寮","LANE":" ","ALLEY":" ","HOUSE_NO":"９５之１號","E_COORD97":180238.79999999999,"N_COORD97":2561815.77,"ADDRESS":"東勢寮９５之１號","OBJECTID":185870},"geometry":{"x":180238.80000000075,"y":2561815.7700000014}},{"attributes":{"ID":185872,"DIS_CODE":0,"TOWNNAME":"善化區","LI":"什乃里","LIN":"10鄰","STREET":" ","SECT":" ","MAREA":"什乃","LANE":" ","ALLEY":" ","HOUSE_NO":"９６之４號","E_COORD97":176209.76000000001,"N_COORD97":2560288.27,"ADDRESS":"什乃９６之４號","OBJECTID":185871},"geometry":{"x":176209.76000000071,"y":2560288.2699999996}},{"attributes":{"ID":185873,"DIS_CODE":0,"TOWNNAME":"善化區","LI":"什乃里","LIN":"10鄰","STREET":" ","SECT":" ","MAREA":"什乃","LANE":" ","ALLEY":" ","HOUSE_NO":"１２８號","E_COORD97":176510.64000000001,"N_COORD97":2560121.25,"ADDRESS":"什乃１２８號","OBJECTID":185872},"geometry":{"x":176510.6400000006,"y":2560121.2500000019}},{"attributes":{"ID":185874,"DIS_CODE":0,"TOWNNAME":"善化區","LI":"什乃里","LIN":"10鄰","STREET":" ","SECT":" ","MAREA":"什乃","LANE":" ","ALLEY":" ","HOUSE_NO":"１６６號","E_COORD97":176759.29000000001,"N_COORD97":2559895,"ADDRESS":"什乃１６６號","OBJECTID":185873},"geometry":{"x":176759.29000000097,"y":2559895.0000000019}},{"attributes":{"ID":185875,"DIS_CODE":0,"TOWNNAME":"善化區","LI":"什乃里","LIN":"10鄰","STREET":" ","SECT":" ","MAREA":"什乃","LANE":" ","ALLEY":" ","HOUSE_NO":"１３６之１號","E_COORD97":176652.23000000001,"N_COORD97":2560109.52,"ADDRESS":"什乃１３６之１號","OBJECTID":185874},"geometry":{"x":176652.23000000045,"y":2560109.5199999996}},{"attributes":{"ID":185876,"DIS_CODE":0,"TOWNNAME":"善化區","LI":"什乃里","LIN":"10鄰","STREET":" ","SECT":" ","MAREA":"什乃","LANE":" ","ALLEY":" ","HOUSE_NO":"１４５之６號","E_COORD97":177079.04000000001,"N_COORD97":2559961.52,"ADDRESS":"什乃１４５之６號","OBJECTID":185875},"geometry":{"x":177079.0400000019,"y":2559961.5199999996}},{"attributes":{"ID":185877,"DIS_CODE":0,"TOWNNAME":"善化區","LI":"什乃里","LIN":"10鄰","STREET":" ","SECT":" ","MAREA":"什乃","LANE":" ","ALLEY":" ","HOUSE_NO":"１４５之２號","E_COORD97":177082.23000000001,"N_COORD97":2559945.02,"ADDRESS":"什乃１４５之２號","OBJECTID":185876},"geometry":{"x":177082.23000000138,"y":2559945.0200000033}},{"attributes":{"ID":185878,"DIS_CODE":0,"TOWNNAME":"善化區","LI":"什乃里","LIN":"10鄰","STREET":" ","SECT":" ","MAREA":"什乃","LANE":" ","ALLEY":" ","HOUSE_NO":"１０４之９號","E_COORD97":176306.81,"N_COORD97":2560184.02,"ADDRESS":"什乃１０４之９號","OBJECTID":185877},"geometry":{"x":176306.80999999959,"y":2560184.0199999996}},{"attributes":{"ID":185879,"DIS_CODE":0,"TOWNNAME":"善化區","LI":"什乃里","LIN":"10鄰","STREET":" ","SECT":" ","MAREA":"什乃","LANE":" ","ALLEY":" ","HOUSE_NO":"９６之９號","E_COORD97":176188.51999999999,"N_COORD97":2560298.77,"ADDRESS":"什乃９６之９號","OBJECTID":185878},"geometry":{"x":176188.52000000142,"y":2560298.7699999996}},{"attributes":{"ID":185880,"DIS_CODE":0,"TOWNNAME":"善化區","LI":"什乃里","LIN":"10鄰","STREET":" ","SECT":" ","MAREA":"什乃","LANE":" ","ALLEY":" ","HOUSE_NO":"１０４號之２","E_COORD97":176275.17999999999,"N_COORD97":2560172.77,"ADDRESS":"什乃１０４號之２","OBJECTID":185879},"geometry":{"x":176275.1799999997,"y":2560172.7699999996}},{"attributes":{"ID":185881,"DIS_CODE":0,"TOWNNAME":"善化區","LI":"什乃里","LIN":"10鄰","STREET":" ","SECT":" ","MAREA":"什乃","LANE":" ","ALLEY":" ","HOUSE_NO":"９３號","E_COORD97":176148.57000000001,"N_COORD97":2560294.5,"ADDRESS":"什乃９３號","OBJECTID":185880},"geometry":{"x":176148.57000000123,"y":2560294.4999999981}},{"attributes":{"ID":185882,"DIS_CODE":0,"TOWNNAME":"善化區","LI":"什乃里","LIN":"10鄰","STREET":" ","SECT":" ","MAREA":"什乃","LANE":" ","ALLEY":" ","HOUSE_NO":"１０４號之４","E_COORD97":176278.42999999999,"N_COORD97":2560164.52,"ADDRESS":"什乃１０４號之４","OBJECTID":185881},"geometry":{"x":176278.4299999997,"y":2560164.5199999996}},{"attributes":{"ID":185883,"DIS_CODE":0,"TOWNNAME":"善化區","LI":"坐駕里","LIN":"10鄰","STREET":"建國路","SECT":" ","MAREA":" ","LANE":" ","ALLEY":" ","HOUSE_NO":"３５號","E_COORD97":178021.31,"N_COORD97":2558570.2799999998,"ADDRESS":"建國路３５號","OBJECTID":185882},"geometry":{"x":178021.31000000052,"y":2558570.2800000012}},{"attributes":{"ID":185884,"DIS_CODE":0,"TOWNNAME":"善化區","LI":"小新里","LIN":"10鄰","STREET":" ","SECT":" ","MAREA":"小新營","LANE":" ","ALLEY":" ","HOUSE_NO":"８４號之１","E_COORD97":179515.88,"N_COORD97":2558214.77,"ADDRESS":"小新營８４號之１","OBJECTID":185883},"geometry":{"x":179515.88000000175,"y":2558214.7700000014}},{"attributes":{"ID":185885,"DIS_CODE":0,"TOWNNAME":"善化區","LI":"小新里","LIN":"10鄰","STREET":" ","SECT":" ","MAREA":"小新營","LANE":" ","ALLEY":" ","HOUSE_NO":"８３號之１","E_COORD97":179482.47,"N_COORD97":2558249.02,"ADDRESS":"小新營８３號之１","OBJECTID":185884},"geometry":{"x":179482.46999999974,"y":2558249.0199999996}},{"attributes":{"ID":185886,"DIS_CODE":0,"TOWNNAME":"南區","LI":"大忠里","LIN":"36鄰","STREET":"國民路","SECT":" ","MAREA":" ","LANE":"２７０巷","ALLEY":"２２弄","HOUSE_NO":"５２號","E_COORD97":169131.98000000001,"N_COORD97":2541406.5699999998,"ADDRESS":"國民路２７０巷２２弄５２號","OBJECTID":185885},"geometry":{"x":169131.98000000045,"y":2541406.5699999984}},{"attributes":{"ID":185887,"DIS_CODE":0,"TOWNNAME":"善化區","LI":"什乃里","LIN":"10鄰","STREET":" ","SECT":" ","MAREA":"什乃","LANE":" ","ALLEY":" ","HOUSE_NO":"９２號之１０","E_COORD97":176018.98999999999,"N_COORD97":2560174.27,"ADDRESS":"什乃９２號之１０","OBJECTID":185886},"geometry":{"x":176018.99000000115,"y":2560174.2700000014}},{"attributes":{"ID":185888,"DIS_CODE":0,"TOWNNAME":"善化區","LI":"小新里","LIN":"10鄰","STREET":" ","SECT":" ","MAREA":"小新營","LANE":" ","ALLEY":" ","HOUSE_NO":"８３之３號","E_COORD97":179478.48999999999,"N_COORD97":2558268.77,"ADDRESS":"小新營８３之３號","OBJECTID":185887},"geometry":{"x":179478.49000000115,"y":2558268.7700000014}},{"attributes":{"ID":185889,"DIS_CODE":0,"TOWNNAME":"善化區","LI":"小新里","LIN":"10鄰","STREET":" ","SECT":" ","MAREA":"小新營","LANE":" ","ALLEY":" ","HOUSE_NO":"８０號之５","E_COORD97":179449.31,"N_COORD97":2558366.52,"ADDRESS":"小新營８０號之５","OBJECTID":185888},"geometry":{"x":179449.30999999959,"y":2558366.5200000014}},{"attributes":{"ID":185890,"DIS_CODE":0,"TOWNNAME":"南區","LI":"大忠里","LIN":"36鄰","STREET":"國民路","SECT":" ","MAREA":" ","LANE":"２７０巷","ALLEY":"２２弄","HOUSE_NO":"５４號","E_COORD97":169135.44,"N_COORD97":2541403.6899999999,"ADDRESS":"國民路２７０巷２２弄５４號","OBJECTID":185889},"geometry":{"x":169135.44000000134,"y":2541403.6899999995}},{"attributes":{"ID":185891,"DIS_CODE":0,"TOWNNAME":"善化區","LI":"什乃里","LIN":"10鄰","STREET":" ","SECT":" ","MAREA":"什乃","LANE":" ","ALLEY":" ","HOUSE_NO":"９４之２３號","E_COORD97":176192.67000000001,"N_COORD97":2560234.52,"ADDRESS":"什乃９４之２３號","OBJECTID":185890},"geometry":{"x":176192.66999999993,"y":2560234.5200000014}},{"attributes":{"ID":185892,"DIS_CODE":0,"TOWNNAME":"善化區","LI":"什乃里","LIN":"10鄰","STREET":" ","SECT":" ","MAREA":"什乃","LANE":" ","ALLEY":" ","HOUSE_NO":"１０４之１號","E_COORD97":176273.79000000001,"N_COORD97":2560176.77,"ADDRESS":"什乃１０４之１號","OBJECTID":185891},"geometry":{"x":176273.7900000019,"y":2560176.7699999996}},{"attributes":{"ID":185893,"DIS_CODE":0,"TOWNNAME":"善化區","LI":"什乃里","LIN":"10鄰","STREET":" ","SECT":" ","MAREA":"什乃","LANE":" ","ALLEY":" ","HOUSE_NO":"１３０號","E_COORD97":176545.98999999999,"N_COORD97":2560107.25,"ADDRESS":"什乃１３０號","OBJECTID":185892},"geometry":{"x":176545.99000000115,"y":2560107.2500000019}},{"attributes":{"ID":185894,"DIS_CODE":0,"TOWNNAME":"官田區","LI":"西庄里","LIN":"10鄰","STREET":" ","SECT":" ","MAREA":"西庄","LANE":" ","ALLEY":" ","HOUSE_NO":"７７號","E_COORD97":177964.37,"N_COORD97":2565084.9399999999,"ADDRESS":"西庄７７號","OBJECTID":185893},"geometry":{"x":177964.37000000011,"y":2565084.9399999976}},{"attributes":{"ID":185895,"DIS_CODE":0,"TOWNNAME":"善化區","LI":"什乃里","LIN":"10鄰","STREET":" ","SECT":" ","MAREA":"什乃","LANE":" ","ALLEY":" ","HOUSE_NO":"１８０號之２","E_COORD97":176858.07000000001,"N_COORD97":2559952.52,"ADDRESS":"什乃１８０號之２","OBJECTID":185894},"geometry":{"x":176858.0700000003,"y":2559952.5200000014}},{"attributes":{"ID":185896,"DIS_CODE":0,"TOWNNAME":"善化區","LI":"什乃里","LIN":"10鄰","STREET":" ","SECT":" ","MAREA":"什乃","LANE":" ","ALLEY":" ","HOUSE_NO":"１０８號","E_COORD97":176331.98000000001,"N_COORD97":2560088,"ADDRESS":"什乃１０８號","OBJECTID":185895},"geometry":{"x":176331.98000000045,"y":2560088.0000000037}},{"attributes":{"ID":185897,"DIS_CODE":0,"TOWNNAME":"善化區","LI":"什乃里","LIN":"10鄰","STREET":" ","SECT":" ","MAREA":"什乃","LANE":" ","ALLEY":" ","HOUSE_NO":"１０４之７號","E_COORD97":176298.32999999999,"N_COORD97":2560180.77,"ADDRESS":"什乃１０４之７號","OBJECTID":185896},"geometry":{"x":176298.33000000007,"y":2560180.7700000014}},{"attributes":{"ID":185898,"DIS_CODE":0,"TOWNNAME":"善化區","LI":"什乃里","LIN":"10鄰","STREET":" ","SECT":" ","MAREA":"什乃","LANE":" ","ALLEY":" ","HOUSE_NO":"１０５之１１號","E_COORD97":176328.92000000001,"N_COORD97":2560167.02,"ADDRESS":"什乃１０５之１１號","OBJECTID":185897},"geometry":{"x":176328.92000000086,"y":2560167.0199999996}},{"attributes":{"ID":185899,"DIS_CODE":0,"TOWNNAME":"善化區","LI":"什乃里","LIN":"10鄰","STREET":" ","SECT":" ","MAREA":"什乃","LANE":" ","ALLEY":" ","HOUSE_NO":"１８０號","E_COORD97":177046.51999999999,"N_COORD97":2559855.75,"ADDRESS":"什乃１８０號","OBJECTID":185898},"geometry":{"x":177046.52000000048,"y":2559855.7500000037}},{"attributes":{"ID":185900,"DIS_CODE":0,"TOWNNAME":"南區","LI":"大忠里","LIN":"36鄰","STREET":"國民路","SECT":" ","MAREA":" ","LANE":"２７０巷","ALLEY":"２２弄","HOUSE_NO":"５６號","E_COORD97":169138.14000000001,"N_COORD97":2541400.4300000002,"ADDRESS":"國民路２７０巷２２弄５６號","OBJECTID":185899},"geometry":{"x":169138.1400000006,"y":2541400.4300000034}},{"attributes":{"ID":185901,"DIS_CODE":0,"TOWNNAME":"南區","LI":"大忠里","LIN":"36鄰","STREET":"國民路","SECT":" ","MAREA":" ","LANE":"２７０巷","ALLEY":"２２弄","HOUSE_NO":"５８號","E_COORD97":169141.01999999999,"N_COORD97":2541397.1699999999,"ADDRESS":"國民路２７０巷２２弄５８號","OBJECTID":185900},"geometry":{"x":169141.01999999955,"y":2541397.1699999999}},{"attributes":{"ID":185902,"DIS_CODE":0,"TOWNNAME":"善化區","LI":"什乃里","LIN":"10鄰","STREET":" ","SECT":" ","MAREA":"什乃","LANE":" ","ALLEY":" ","HOUSE_NO":"９４之６號","E_COORD97":176225.48999999999,"N_COORD97":2560244.02,"ADDRESS":"什乃９４之６號","OBJECTID":185901},"geometry":{"x":176225.49000000115,"y":2560244.0200000014}},{"attributes":{"ID":185903,"DIS_CODE":0,"TOWNNAME":"善化區","LI":"什乃里","LIN":"10鄰","STREET":" ","SECT":" ","MAREA":"什乃","LANE":" ","ALLEY":" ","HOUSE_NO":"１０５號之１４","E_COORD97":176341.92000000001,"N_COORD97":2560172.02,"ADDRESS":"什乃１０５號之１４","OBJECTID":185902},"geometry":{"x":176341.91999999993,"y":2560172.0200000033}},{"attributes":{"ID":185904,"DIS_CODE":0,"TOWNNAME":"善化區","LI":"什乃里","LIN":"10鄰","STREET":" ","SECT":" ","MAREA":"什乃","LANE":" ","ALLEY":" ","HOUSE_NO":"１０５之４號","E_COORD97":176297.95000000001,"N_COORD97":2560156.77,"ADDRESS":"什乃１０５之４號","OBJECTID":185903},"geometry":{"x":176297.95000000019,"y":2560156.7700000033}},{"attributes":{"ID":185905,"DIS_CODE":0,"TOWNNAME":"善化區","LI":"什乃里","LIN":"10鄰","STREET":" ","SECT":" ","MAREA":"什乃","LANE":" ","ALLEY":" ","HOUSE_NO":"１０５之９號","E_COORD97":176319.51000000001,"N_COORD97":2560164.27,"ADDRESS":"什乃１０５之９號","OBJECTID":185904},"geometry":{"x":176319.51000000164,"y":2560164.2700000014}},{"attributes":{"ID":185906,"DIS_CODE":0,"TOWNNAME":"善化區","LI":"什乃里","LIN":"10鄰","STREET":" ","SECT":" ","MAREA":"什乃","LANE":" ","ALLEY":" ","HOUSE_NO":"９４號之５","E_COORD97":176224.60999999999,"N_COORD97":2560249.52,"ADDRESS":"什乃９４號之５","OBJECTID":185905},"geometry":{"x":176224.61000000127,"y":2560249.5199999996}},{"attributes":{"ID":185907,"DIS_CODE":0,"TOWNNAME":"善化區","LI":"什乃里","LIN":"10鄰","STREET":" ","SECT":" ","MAREA":"什乃","LANE":" ","ALLEY":" ","HOUSE_NO":"９６之１號","E_COORD97":176213.32000000001,"N_COORD97":2560276.77,"ADDRESS":"什乃９６之１號","OBJECTID":185906},"geometry":{"x":176213.32000000123,"y":2560276.7700000014}},{"attributes":{"ID":185908,"DIS_CODE":0,"TOWNNAME":"善化區","LI":"什乃里","LIN":"10鄰","STREET":" ","SECT":" ","MAREA":"什乃","LANE":" ","ALLEY":" ","HOUSE_NO":"１２０號","E_COORD97":176772.01999999999,"N_COORD97":2560036.75,"ADDRESS":"什乃１２０號","OBJECTID":185907},"geometry":{"x":176772.02000000048,"y":2560036.7500000019}},{"attributes":{"ID":185909,"DIS_CODE":0,"TOWNNAME":"善化區","LI":"什乃里","LIN":"10鄰","STREET":" ","SECT":" ","MAREA":"什乃","LANE":" ","ALLEY":" ","HOUSE_NO":"１００之３號","E_COORD97":176250.67000000001,"N_COORD97":2560158.52,"ADDRESS":"什乃１００之３號","OBJECTID":185908},"geometry":{"x":176250.67000000179,"y":2560158.5200000033}},{"attributes":{"ID":185910,"DIS_CODE":0,"TOWNNAME":"南區","LI":"大忠里","LIN":"36鄰","STREET":"國民路","SECT":" ","MAREA":" ","LANE":"２７０巷","ALLEY":"２２弄","HOUSE_NO":"６０號","E_COORD97":169143.53,"N_COORD97":2541393.9100000001,"ADDRESS":"國民路２７０巷２２弄６０號","OBJECTID":185909},"geometry":{"x":169143.53000000026,"y":2541393.9099999983}},{"attributes":{"ID":185911,"DIS_CODE":0,"TOWNNAME":"善化區","LI":"什乃里","LIN":"10鄰","STREET":" ","SECT":" ","MAREA":"什乃","LANE":" ","ALLEY":" ","HOUSE_NO":"９４之３號","E_COORD97":176204.76999999999,"N_COORD97":2560260.52,"ADDRESS":"什乃９４之３號","OBJECTID":185910},"geometry":{"x":176204.76999999955,"y":2560260.5200000014}},{"attributes":{"ID":185912,"DIS_CODE":0,"TOWNNAME":"善化區","LI":"什乃里","LIN":"10鄰","STREET":" ","SECT":" ","MAREA":"什乃","LANE":" ","ALLEY":" ","HOUSE_NO":"１０４之８號","E_COORD97":176302.85000000001,"N_COORD97":2560182.27,"ADDRESS":"什乃１０４之８號","OBJECTID":185911},"geometry":{"x":176302.84999999963,"y":2560182.2699999996}},{"attributes":{"ID":185913,"DIS_CODE":0,"TOWNNAME":"善化區","LI":"什乃里","LIN":"10鄰","STREET":" ","SECT":" ","MAREA":"什乃","LANE":" ","ALLEY":" ","HOUSE_NO":"１２７號","E_COORD97":176658.01999999999,"N_COORD97":2560062.75,"ADDRESS":"什乃１２７號","OBJECTID":185912},"geometry":{"x":176658.01999999862,"y":2560062.7500000019}},{"attributes":{"ID":185914,"DIS_CODE":0,"TOWNNAME":"善化區","LI":"文昌里","LIN":"10鄰","STREET":"大同路","SECT":" ","MAREA":" ","LANE":" ","ALLEY":" ","HOUSE_NO":"２５０號","E_COORD97":177412.29000000001,"N_COORD97":2558826,"ADDRESS":"大同路２５０號","OBJECTID":185913},"geometry":{"x":177412.29000000004,"y":2558826}},{"attributes":{"ID":185915,"DIS_CODE":0,"TOWNNAME":"善化區","LI":"什乃里","LIN":"10鄰","STREET":" ","SECT":" ","MAREA":"什乃","LANE":" ","ALLEY":" ","HOUSE_NO":"１０５之１０號","E_COORD97":176324.57000000001,"N_COORD97":2560165.77,"ADDRESS":"什乃１０５之１０號","OBJECTID":185914},"geometry":{"x":176324.57000000216,"y":2560165.7699999996}},{"attributes":{"ID":185916,"DIS_CODE":0,"TOWNNAME":"善化區","LI":"什乃里","LIN":"10鄰","STREET":" ","SECT":" ","MAREA":"什乃","LANE":" ","ALLEY":" ","HOUSE_NO":"９４之９號","E_COORD97":176227.13,"N_COORD97":2560236.02,"ADDRESS":"什乃９４之９號","OBJECTID":185915},"geometry":{"x":176227.13000000175,"y":2560236.0199999996}},{"attributes":{"ID":185917,"DIS_CODE":0,"TOWNNAME":"善化區","LI":"文昌里","LIN":"10鄰","STREET":"大同路","SECT":" ","MAREA":" ","LANE":" ","ALLEY":" ","HOUSE_NO":"３３４號","E_COORD97":177388.29999999999,"N_COORD97":2558893,"ADDRESS":"大同路３３４號","OBJECTID":185916},"geometry":{"x":177388.29999999981,"y":2558893}},{"attributes":{"ID":185918,"DIS_CODE":0,"TOWNNAME":"善化區","LI":"什乃里","LIN":"10鄰","STREET":" ","SECT":" ","MAREA":"什乃","LANE":" ","ALLEY":" ","HOUSE_NO":"９６之２號","E_COORD97":176211.95999999999,"N_COORD97":2560280.27,"ADDRESS":"什乃９６之２號","OBJECTID":185917},"geometry":{"x":176211.96000000089,"y":2560280.2700000014}},{"attributes":{"ID":185919,"DIS_CODE":0,"TOWNNAME":"南區","LI":"大忠里","LIN":"36鄰","STREET":"國民路","SECT":" ","MAREA":" ","LANE":"２７０巷","ALLEY":"２２弄","HOUSE_NO":"６２號","E_COORD97":169146.69,"N_COORD97":2541390.71,"ADDRESS":"國民路２７０巷２２弄６２號","OBJECTID":185918},"geometry":{"x":169146.69000000134,"y":2541390.7100000028}},{"attributes":{"ID":185920,"DIS_CODE":0,"TOWNNAME":"南區","LI":"大忠里","LIN":"36鄰","STREET":"國民路","SECT":" ","MAREA":" ","LANE":"２７０巷","ALLEY":"２２弄","HOUSE_NO":"６４號","E_COORD97":169149.98000000001,"N_COORD97":2541387.3799999999,"ADDRESS":"國民路２７０巷２２弄６４號","OBJECTID":185919},"geometry":{"x":169149.98000000138,"y":2541387.3800000008}},{"attributes":{"ID":185921,"DIS_CODE":0,"TOWNNAME":"南區","LI":"大忠里","LIN":"36鄰","STREET":"國民路","SECT":" ","MAREA":" ","LANE":"２７０巷","ALLEY":"２２弄","HOUSE_NO":"６６號","E_COORD97":169152.45000000001,"N_COORD97":2541383.7799999998,"ADDRESS":"國民路２７０巷２２弄６６號","OBJECTID":185920},"geometry":{"x":169152.45000000019,"y":2541383.7799999975}},{"attributes":{"ID":185922,"DIS_CODE":0,"TOWNNAME":"南區","LI":"大忠里","LIN":"36鄰","STREET":"國民路","SECT":" ","MAREA":" ","LANE":"２７０巷","ALLEY":"２２弄","HOUSE_NO":"６８號","E_COORD97":169155.67999999999,"N_COORD97":2541380.5499999998,"ADDRESS":"國民路２７０巷２２弄６８號","OBJECTID":185921},"geometry":{"x":169155.6799999997,"y":2541380.5500000026}},{"attributes":{"ID":185923,"DIS_CODE":0,"TOWNNAME":"南區","LI":"大忠里","LIN":"36鄰","STREET":"國民路","SECT":" ","MAREA":" ","LANE":"２７０巷","ALLEY":"２２弄","HOUSE_NO":"７０號","E_COORD97":169158.72,"N_COORD97":2541376.3900000001,"ADDRESS":"國民路２７０巷２２弄７０號","OBJECTID":185922},"geometry":{"x":169158.71999999974,"y":2541376.3900000006}},{"attributes":{"ID":185924,"DIS_CODE":0,"TOWNNAME":"南區","LI":"大忠里","LIN":"36鄰","STREET":"國民路","SECT":" ","MAREA":" ","LANE":"２７０巷","ALLEY":"２２弄","HOUSE_NO":"７２號","E_COORD97":169162.70999999999,"N_COORD97":2541373.1699999999,"ADDRESS":"國民路２７０巷２２弄７２號","OBJECTID":185923},"geometry":{"x":169162.70999999903,"y":2541373.1700000018}},{"attributes":{"ID":185925,"DIS_CODE":0,"TOWNNAME":"南區","LI":"大忠里","LIN":"36鄰","STREET":"國民路","SECT":" ","MAREA":" ","LANE":"２７０巷","ALLEY":"２２弄","HOUSE_NO":"７４號","E_COORD97":169165.37,"N_COORD97":2541369,"ADDRESS":"國民路２７０巷２２弄７４號","OBJECTID":185924},"geometry":{"x":169165.37000000197,"y":2541369}},{"attributes":{"ID":185926,"DIS_CODE":0,"TOWNNAME":"南區","LI":"大忠里","LIN":"36鄰","STREET":"國民路","SECT":" ","MAREA":" ","LANE":"２７０巷","ALLEY":"２２弄","HOUSE_NO":"７６號","E_COORD97":169168.98000000001,"N_COORD97":2541365.5899999999,"ADDRESS":"國民路２７０巷２２弄７６號","OBJECTID":185925},"geometry":{"x":169168.98000000138,"y":2541365.5900000036}},{"attributes":{"ID":185927,"DIS_CODE":0,"TOWNNAME":"新營區","LI":"民榮里","LIN":"36鄰","STREET":"新進路","SECT":"二段","MAREA":" ","LANE":"４４５巷","ALLEY":"２５弄","HOUSE_NO":"５９號","E_COORD97":178449.01000000001,"N_COORD97":2577896.8300000001,"ADDRESS":"新進路二段４４５巷２５弄５９號","OBJECTID":185926},"geometry":{"x":178449.01000000071,"y":2577896.8300000019}},{"attributes":{"ID":185928,"DIS_CODE":0,"TOWNNAME":"新營區","LI":"民榮里","LIN":"36鄰","STREET":"新進路","SECT":"二段","MAREA":" ","LANE":"４４５巷","ALLEY":"２５弄","HOUSE_NO":"７１號","E_COORD97":178457.13,"N_COORD97":2577881.2799999998,"ADDRESS":"新進路二段４４５巷２５弄７１號","OBJECTID":185927},"geometry":{"x":178457.13000000082,"y":2577881.2800000031}},{"attributes":{"ID":185929,"DIS_CODE":0,"TOWNNAME":"新營區","LI":"民榮里","LIN":"36鄰","STREET":"新進路","SECT":"二段","MAREA":" ","LANE":"４４５巷","ALLEY":"２５弄","HOUSE_NO":"１９號","E_COORD97":178537.10999999999,"N_COORD97":2577926.3100000001,"ADDRESS":"新進路二段４４５巷２５弄１９號","OBJECTID":185928},"geometry":{"x":178537.11000000127,"y":2577926.3099999987}},{"attributes":{"ID":185930,"DIS_CODE":0,"TOWNNAME":"永康區","LI":"北灣里","LIN":"36鄰","STREET":"大灣路","SECT":" ","MAREA":" ","LANE":"４０巷","ALLEY":"１５８弄","HOUSE_NO":"３０號","E_COORD97":174899.60999999999,"N_COORD97":2546359.1299999999,"ADDRESS":"大灣路４０巷１５８弄３０號","OBJECTID":185929},"geometry":{"x":174899.61000000034,"y":2546359.1300000008}},{"attributes":{"ID":185931,"DIS_CODE":0,"TOWNNAME":"永康區","LI":"北灣里","LIN":"36鄰","STREET":"大灣路","SECT":" ","MAREA":" ","LANE":"４０巷","ALLEY":"１３０弄","HOUSE_NO":"７號","E_COORD97":174925.32000000001,"N_COORD97":2546304.4199999999,"ADDRESS":"大灣路４０巷１３０弄７號","OBJECTID":185930},"geometry":{"x":174925.3200000003,"y":2546304.4200000018}},{"attributes":{"ID":185932,"DIS_CODE":0,"TOWNNAME":"永康區","LI":"北灣里","LIN":"36鄰","STREET":"大灣路","SECT":" ","MAREA":" ","LANE":"４０巷","ALLEY":"１３０弄","HOUSE_NO":"８號","E_COORD97":174931.31,"N_COORD97":2546298.9100000001,"ADDRESS":"大灣路４０巷１３０弄８號","OBJECTID":185931},"geometry":{"x":174931.31000000052,"y":2546298.9100000001}},{"attributes":{"ID":185933,"DIS_CODE":0,"TOWNNAME":"永康區","LI":"北灣里","LIN":"36鄰","STREET":"大灣路","SECT":" ","MAREA":" ","LANE":"４０巷","ALLEY":"１３０弄","HOUSE_NO":"１５號","E_COORD97":174945.85999999999,"N_COORD97":2546325.1699999999,"ADDRESS":"大灣路４０巷１３０弄１５號","OBJECTID":185932},"geometry":{"x":174945.86000000034,"y":2546325.1700000037}},{"attributes":{"ID":185934,"DIS_CODE":0,"TOWNNAME":"永康區","LI":"北灣里","LIN":"36鄰","STREET":"大灣路","SECT":" ","MAREA":" ","LANE":"４０巷","ALLEY":"１８２弄","HOUSE_NO":"６號","E_COORD97":174837.23999999999,"N_COORD97":2546366.8300000001,"ADDRESS":"大灣路４０巷１８２弄６號","OBJECTID":185933},"geometry":{"x":174837.24000000115,"y":2546366.8300000001}},{"attributes":{"ID":185935,"DIS_CODE":0,"TOWNNAME":"永康區","LI":"北灣里","LIN":"36鄰","STREET":"大灣路","SECT":" ","MAREA":" ","LANE":"４０巷","ALLEY":"１８２弄","HOUSE_NO":"５號","E_COORD97":174823.16,"N_COORD97":2546381,"ADDRESS":"大灣路４０巷１８２弄５號","OBJECTID":185934},"geometry":{"x":174823.16000000015,"y":2546381.0000000019}},{"attributes":{"ID":185936,"DIS_CODE":0,"TOWNNAME":"永康區","LI":"北灣里","LIN":"36鄰","STREET":"大灣路","SECT":" ","MAREA":" ","LANE":"４０巷","ALLEY":"１５８弄","HOUSE_NO":"６號","E_COORD97":174868.17000000001,"N_COORD97":2546326.8900000001,"ADDRESS":"大灣路４０巷１５８弄６號","OBJECTID":185935},"geometry":{"x":174868.17000000086,"y":2546326.8900000006}},{"attributes":{"ID":185937,"DIS_CODE":0,"TOWNNAME":"永康區","LI":"永康里","LIN":"36鄰","STREET":"永平街","SECT":" ","MAREA":" ","LANE":"５６巷","ALLEY":"１弄","HOUSE_NO":"１０號","E_COORD97":174391.5,"N_COORD97":2546829.7999999998,"ADDRESS":"永平街５６巷１弄１０號","OBJECTID":185936},"geometry":{"x":174391.5,"y":2546829.8000000007}},{"attributes":{"ID":185938,"DIS_CODE":0,"TOWNNAME":"永康區","LI":"永康里","LIN":"36鄰","STREET":"永平街","SECT":" ","MAREA":" ","LANE":"５６巷","ALLEY":"１弄","HOUSE_NO":"１６號","E_COORD97":174400.67999999999,"N_COORD97":2546832.75,"ADDRESS":"永平街５６巷１弄１６號","OBJECTID":185937},"geometry":{"x":174400.6799999997,"y":2546832.75}},{"attributes":{"ID":185939,"DIS_CODE":0,"TOWNNAME":"永康區","LI":"北灣里","LIN":"36鄰","STREET":"大灣路","SECT":" ","MAREA":" ","LANE":"４０巷","ALLEY":"１３０弄","HOUSE_NO":"１４號","E_COORD97":174946.60000000001,"N_COORD97":2546315.8500000001,"ADDRESS":"大灣路４０巷１３０弄１４號","OBJECTID":185938},"geometry":{"x":174946.59999999963,"y":2546315.8499999996}},{"attributes":{"ID":185940,"DIS_CODE":0,"TOWNNAME":"永康區","LI":"北灣里","LIN":"36鄰","STREET":"大灣路","SECT":" ","MAREA":" ","LANE":"４０巷","ALLEY":"１５８弄","HOUSE_NO":"２６號","E_COORD97":174893.53,"N_COORD97":2546352.1200000001,"ADDRESS":"大灣路４０巷１５８弄２６號","OBJECTID":185939},"geometry":{"x":174893.53000000026,"y":2546352.120000001}},{"attributes":{"ID":185941,"DIS_CODE":0,"TOWNNAME":"永康區","LI":"北灣里","LIN":"36鄰","STREET":"大灣路","SECT":" ","MAREA":" ","LANE":"４０巷","ALLEY":"１５８弄","HOUSE_NO":"２１號","E_COORD97":174895.45999999999,"N_COORD97":2546382.0800000001,"ADDRESS":"大灣路４０巷１５８弄２１號","OBJECTID":185940},"geometry":{"x":174895.45999999996,"y":2546382.0800000001}},{"attributes":{"ID":185942,"DIS_CODE":0,"TOWNNAME":"永康區","LI":"北灣里","LIN":"36鄰","STREET":"大灣路","SECT":" ","MAREA":" ","LANE":"４０巷","ALLEY":"１５８弄","HOUSE_NO":"５號","E_COORD97":174861.42000000001,"N_COORD97":2546347.7799999998,"ADDRESS":"大灣路４０巷１５８弄５號","OBJECTID":185941},"geometry":{"x":174861.42000000086,"y":2546347.7800000012}},{"attributes":{"ID":185943,"DIS_CODE":0,"TOWNNAME":"仁德區","LI":"仁德里","LIN":"39鄰","STREET":"文宏一街","SECT":" ","MAREA":" ","LANE":" ","ALLEY":" ","HOUSE_NO":"６３號","E_COORD97":172441.32000000001,"N_COORD97":2541817.0699999998,"ADDRESS":"文宏一街６３號","OBJECTID":185942},"geometry":{"x":172441.32000000123,"y":2541817.070000004}},{"attributes":{"ID":185944,"DIS_CODE":0,"TOWNNAME":"仁德區","LI":"土庫里","LIN":"18鄰","STREET":"土庫一街","SECT":" ","MAREA":" ","LANE":" ","ALLEY":" ","HOUSE_NO":"４２號","E_COORD97":174557.34,"N_COORD97":2543116.75,"ADDRESS":"土庫一街４２號","OBJECTID":185943},"geometry":{"x":174557.33999999985,"y":2543116.75}},{"attributes":{"ID":185945,"DIS_CODE":0,"TOWNNAME":"仁德區","LI":"一甲里","LIN":"20鄰","STREET":"太乙六街","SECT":" ","MAREA":" ","LANE":" ","ALLEY":" ","HOUSE_NO":"３２號","E_COORD97":173198.82999999999,"N_COORD97":2542437.25,"ADDRESS":"太乙六街３２號","OBJECTID":185944},"geometry":{"x":173198.83000000101,"y":2542437.2500000019}},{"attributes":{"ID":185946,"DIS_CODE":0,"TOWNNAME":"仁德區","LI":"二行里","LIN":"20鄰","STREET":"行大街","SECT":" ","MAREA":" ","LANE":" ","ALLEY":" ","HOUSE_NO":"２４６號","E_COORD97":169807.51000000001,"N_COORD97":2535154.5,"ADDRESS":"行大街２４６號","OBJECTID":185945},"geometry":{"x":169807.50999999978,"y":2535154.5}},{"attributes":{"ID":185947,"DIS_CODE":0,"TOWNNAME":"仁德區","LI":"二行里","LIN":"20鄰","STREET":"行大街","SECT":" ","MAREA":" ","LANE":" ","ALLEY":" ","HOUSE_NO":"２３４號","E_COORD97":169821.45000000001,"N_COORD97":2535125,"ADDRESS":"行大街２３４號","OBJECTID":185946},"geometry":{"x":169821.45000000112,"y":2535125.0000000019}},{"attributes":{"ID":185948,"DIS_CODE":0,"TOWNNAME":"仁德區","LI":"上崙里","LIN":"26鄰","STREET":"中正路","SECT":"一段","MAREA":" ","LANE":" ","ALLEY":" ","HOUSE_NO":"７３８號","E_COORD97":172944.32000000001,"N_COORD97":2537777.77,"ADDRESS":"中正路一段７３８號","OBJECTID":185947},"geometry":{"x":172944.31999999937,"y":2537777.7700000014}},{"attributes":{"ID":185949,"DIS_CODE":0,"TOWNNAME":"仁德區","LI":"上崙里","LIN":"20鄰","STREET":"上崙一街","SECT":" ","MAREA":" ","LANE":" ","ALLEY":" ","HOUSE_NO":"１０號","E_COORD97":173810.09,"N_COORD97":2538092.2400000002,"ADDRESS":"上崙一街１０號","OBJECTID":185948},"geometry":{"x":173810.09000000171,"y":2538092.2400000002}},{"attributes":{"ID":185950,"DIS_CODE":0,"TOWNNAME":"安南區","LI":"新順里","LIN":"10鄰","STREET":"安和路","SECT":"二段","MAREA":" ","LANE":" ","ALLEY":" ","HOUSE_NO":"２８２號","E_COORD97":169685.76000000001,"N_COORD97":2549144.8100000001,"ADDRESS":"安和路二段２８２號","OBJECTID":185949},"geometry":{"x":169685.75999999978,"y":2549144.8100000005}},{"attributes":{"ID":185951,"DIS_CODE":0,"TOWNNAME":"安南區","LI":"新順里","LIN":"10鄰","STREET":"安和路","SECT":"二段","MAREA":" ","LANE":" ","ALLEY":" ","HOUSE_NO":"２８４號","E_COORD97":169689.01999999999,"N_COORD97":2549160.7400000002,"ADDRESS":"安和路二段２８４號","OBJECTID":185950},"geometry":{"x":169689.01999999955,"y":2549160.7400000021}},{"attributes":{"ID":185952,"DIS_CODE":0,"TOWNNAME":"安南區","LI":"新順里","LIN":"10鄰","STREET":"安和路","SECT":"二段","MAREA":" ","LANE":" ","ALLEY":" ","HOUSE_NO":"２３１號","E_COORD97":169615.73999999999,"N_COORD97":2549077.9199999999,"ADDRESS":"安和路二段２３１號","OBJECTID":185951},"geometry":{"x":169615.74000000115,"y":2549077.9200000018}},{"attributes":{"ID":185953,"DIS_CODE":0,"TOWNNAME":"安南區","LI":"新順里","LIN":"10鄰","STREET":"安和路","SECT":"二段","MAREA":" ","LANE":" ","ALLEY":" ","HOUSE_NO":"２３３號","E_COORD97":169618.42000000001,"N_COORD97":2549083.04,"ADDRESS":"安和路二段２３３號","OBJECTID":185952},"geometry":{"x":169618.41999999993,"y":2549083.040000001}},{"attributes":{"ID":185954,"DIS_CODE":0,"TOWNNAME":"安南區","LI":"新順里","LIN":"10鄰","STREET":"安和路","SECT":"二段","MAREA":" ","LANE":" ","ALLEY":" ","HOUSE_NO":"２３５號","E_COORD97":169621.35000000001,"N_COORD97":2549089.3799999999,"ADDRESS":"安和路二段２３５號","OBJECTID":185953},"geometry":{"x":169621.35000000056,"y":2549089.3800000027}},{"attributes":{"ID":185955,"DIS_CODE":0,"TOWNNAME":"安南區","LI":"新順里","LIN":"10鄰","STREET":"安和路","SECT":"二段","MAREA":" ","LANE":" ","ALLEY":" ","HOUSE_NO":"２３７號","E_COORD97":169624.04000000001,"N_COORD97":2549096.4500000002,"ADDRESS":"安和路二段２３７號","OBJECTID":185954},"geometry":{"x":169624.04000000097,"y":2549096.4500000011}},{"attributes":{"ID":185956,"DIS_CODE":0,"TOWNNAME":"安南區","LI":"新順里","LIN":"10鄰","STREET":"安和路","SECT":"二段","MAREA":" ","LANE":" ","ALLEY":" ","HOUSE_NO":"２３９號","E_COORD97":169626.48000000001,"N_COORD97":2549102.5499999998,"ADDRESS":"安和路二段２３９號","OBJECTID":185955},"geometry":{"x":169626.48000000138,"y":2549102.5500000007}},{"attributes":{"ID":185957,"DIS_CODE":0,"TOWNNAME":"永康區","LI":"北灣里","LIN":"36鄰","STREET":"大灣路","SECT":" ","MAREA":" ","LANE":"４０巷","ALLEY":"１５８弄","HOUSE_NO":"７號","E_COORD97":174864.42999999999,"N_COORD97":2546351.2799999998,"ADDRESS":"大灣路４０巷１５８弄７號","OBJECTID":185956},"geometry":{"x":174864.43000000063,"y":2546351.2800000012}},{"attributes":{"ID":185958,"DIS_CODE":0,"TOWNNAME":"永康區","LI":"北灣里","LIN":"36鄰","STREET":"大灣路","SECT":" ","MAREA":" ","LANE":"４０巷","ALLEY":"１３０弄","HOUSE_NO":"１９號","E_COORD97":174956.95000000001,"N_COORD97":2546336.7799999998,"ADDRESS":"大灣路４０巷１３０弄１９號","OBJECTID":185957},"geometry":{"x":174956.95000000019,"y":2546336.7799999993}},{"attributes":{"ID":185959,"DIS_CODE":0,"TOWNNAME":"永康區","LI":"北灣里","LIN":"36鄰","STREET":"大灣路","SECT":" ","MAREA":" ","LANE":"４０巷","ALLEY":"１３０弄","HOUSE_NO":"２２號","E_COORD97":174965.79999999999,"N_COORD97":2546336.71,"ADDRESS":"大灣路４０巷１３０弄２２號","OBJECTID":185958},"geometry":{"x":174965.79999999981,"y":2546336.7100000028}},{"attributes":{"ID":185960,"DIS_CODE":0,"TOWNNAME":"永康區","LI":"北灣里","LIN":"36鄰","STREET":"大灣路","SECT":" ","MAREA":" ","LANE":"４０巷","ALLEY":"１５８弄","HOUSE_NO":"２７號","E_COORD97":174905.04999999999,"N_COORD97":2546391.3300000001,"ADDRESS":"大灣路４０巷１５８弄２７號","OBJECTID":185959},"geometry":{"x":174905.04999999981,"y":2546391.3300000001}},{"attributes":{"ID":185961,"DIS_CODE":0,"TOWNNAME":"南化區","LI":"小崙里","LIN":"3鄰","STREET":" ","SECT":" ","MAREA":"小崙","LANE":" ","ALLEY":" ","HOUSE_NO":"２６號","E_COORD97":197354.97,"N_COORD97":2550522.75,"ADDRESS":"小崙２６號","OBJECTID":185960},"geometry":{"x":197354.96999999974,"y":2550522.7500000019}},{"attributes":{"ID":185962,"DIS_CODE":0,"TOWNNAME":"永康區","LI":"北灣里","LIN":"36鄰","STREET":"大灣路","SECT":" ","MAREA":" ","LANE":"４０巷","ALLEY":"１３０弄","HOUSE_NO":"１號","E_COORD97":174910.26000000001,"N_COORD97":2546287.9100000001,"ADDRESS":"大灣路４０巷１３０弄１號","OBJECTID":185961},"geometry":{"x":174910.25999999978,"y":2546287.910000002}},{"attributes":{"ID":185963,"DIS_CODE":0,"TOWNNAME":"永康區","LI":"北灣里","LIN":"36鄰","STREET":"大灣路","SECT":" ","MAREA":" ","LANE":"４０巷","ALLEY":"１３０弄","HOUSE_NO":"４號","E_COORD97":174921.57999999999,"N_COORD97":2546288.1600000001,"ADDRESS":"大灣路４０巷１３０弄４號","OBJECTID":185962},"geometry":{"x":174921.58000000007,"y":2546288.1600000039}},{"attributes":{"ID":185964,"DIS_CODE":0,"TOWNNAME":"永康區","LI":"北灣里","LIN":"36鄰","STREET":"大灣路","SECT":" ","MAREA":" ","LANE":"４０巷","ALLEY":"１８２弄","HOUSE_NO":"１號","E_COORD97":174815.79999999999,"N_COORD97":2546372.75,"ADDRESS":"大灣路４０巷１８２弄１號","OBJECTID":185963},"geometry":{"x":174815.80000000075,"y":2546372.7500000019}},{"attributes":{"ID":185965,"DIS_CODE":0,"TOWNNAME":"永康區","LI":"永康里","LIN":"36鄰","STREET":"永平街","SECT":" ","MAREA":" ","LANE":"５６巷","ALLEY":"１弄","HOUSE_NO":"２０號","E_COORD97":174411.63,"N_COORD97":2546835.3599999999,"ADDRESS":"永平街５６巷１弄２０號","OBJECTID":185964},"geometry":{"x":174411.63000000175,"y":2546835.3600000031}},{"attributes":{"ID":185966,"DIS_CODE":0,"TOWNNAME":"永康區","LI":"永康里","LIN":"36鄰","STREET":"永平街","SECT":" ","MAREA":" ","LANE":"５６巷","ALLEY":"１弄","HOUSE_NO":"６號","E_COORD97":174380.51999999999,"N_COORD97":2546827.54,"ADDRESS":"永平街５６巷１弄６號","OBJECTID":185965},"geometry":{"x":174380.52000000048,"y":2546827.540000001}},{"attributes":{"ID":185967,"DIS_CODE":0,"TOWNNAME":"永康區","LI":"北灣里","LIN":"36鄰","STREET":"大灣路","SECT":" ","MAREA":" ","LANE":"４０巷","ALLEY":"１５８弄","HOUSE_NO":"３８號","E_COORD97":174909.39000000001,"N_COORD97":2546371.7999999998,"ADDRESS":"大灣路４０巷１５８弄３８號","OBJECTID":185966},"geometry":{"x":174909.38999999966,"y":2546371.8000000007}},{"attributes":{"ID":185968,"DIS_CODE":0,"TOWNNAME":"永康區","LI":"埔園里","LIN":"36鄰","STREET":"永大路","SECT":"三段","MAREA":" ","LANE":"３６０巷","ALLEY":"７弄","HOUSE_NO":"１９號","E_COORD97":174177.28,"N_COORD97":2548252.02,"ADDRESS":"永大路三段３６０巷７弄１９號","OBJECTID":185967},"geometry":{"x":174177.28000000119,"y":2548252.0200000014}},{"attributes":{"ID":185969,"DIS_CODE":0,"TOWNNAME":"永康區","LI":"崑山里","LIN":"36鄰","STREET":"大灣路","SECT":" ","MAREA":" ","LANE":"９４２巷","ALLEY":"１９４弄","HOUSE_NO":"１５號","E_COORD97":173872.73000000001,"N_COORD97":2544971.6600000001,"ADDRESS":"大灣路９４２巷１９４弄１５號","OBJECTID":185968},"geometry":{"x":173872.73000000138,"y":2544971.6600000001}},{"attributes":{"ID":185970,"DIS_CODE":0,"TOWNNAME":"永康區","LI":"勝利里","LIN":"36鄰","STREET":"勝學路","SECT":" ","MAREA":" ","LANE":"８２巷","ALLEY":"２弄","HOUSE_NO":"１１號","E_COORD97":171201.78,"N_COORD97":2544759.0099999998,"ADDRESS":"勝學路８２巷２弄１１號","OBJECTID":185969},"geometry":{"x":171201.78000000026,"y":2544759.0099999998}},{"attributes":{"ID":185971,"DIS_CODE":0,"TOWNNAME":"永康區","LI":"埔園里","LIN":"36鄰","STREET":"永大路","SECT":"三段","MAREA":" ","LANE":"３６０巷","ALLEY":"２１弄","HOUSE_NO":"１７號","E_COORD97":174242.81,"N_COORD97":2548231.5899999999,"ADDRESS":"永大路三段３６０巷２１弄１７號","OBJECTID":185970},"geometry":{"x":174242.81000000052,"y":2548231.5900000017}},{"attributes":{"ID":185972,"DIS_CODE":0,"TOWNNAME":"玉井區","LI":"玉田里","LIN":"36鄰","STREET":"玉安街","SECT":" ","MAREA":" ","LANE":"３０巷","ALLEY":"２１弄","HOUSE_NO":"６號","E_COORD97":195135.37,"N_COORD97":2558352.3199999998,"ADDRESS":"玉安街３０巷２１弄６號","OBJECTID":185971},"geometry":{"x":195135.37000000011,"y":2558352.3200000003}},{"attributes":{"ID":185973,"DIS_CODE":0,"TOWNNAME":"玉井區","LI":"玉田里","LIN":"36鄰","STREET":"玉安街","SECT":" ","MAREA":" ","LANE":"３０巷","ALLEY":"２１弄","HOUSE_NO":"１０號","E_COORD97":195140.92000000001,"N_COORD97":2558359.3199999998,"ADDRESS":"玉安街３０巷２１弄１０號","OBJECTID":185972},"geometry":{"x":195140.92000000086,"y":2558359.3200000003}},{"attributes":{"ID":185974,"DIS_CODE":0,"TOWNNAME":"玉井區","LI":"玉田里","LIN":"36鄰","STREET":"玉安街","SECT":" ","MAREA":" ","LANE":"３０巷","ALLEY":"２１弄","HOUSE_NO":"１２號","E_COORD97":195144.70999999999,"N_COORD97":2558364.3199999998,"ADDRESS":"玉安街３０巷２１弄１２號","OBJECTID":185973},"geometry":{"x":195144.70999999996,"y":2558364.3200000022}},{"attributes":{"ID":185975,"DIS_CODE":0,"TOWNNAME":"玉井區","LI":"玉田里","LIN":"36鄰","STREET":"玉安街","SECT":" ","MAREA":" ","LANE":"３０巷","ALLEY":"２１弄","HOUSE_NO":"１８號","E_COORD97":195149.32000000001,"N_COORD97":2558370.3100000001,"ADDRESS":"玉安街３０巷２１弄１８號","OBJECTID":185974},"geometry":{"x":195149.3200000003,"y":2558370.3100000005}},{"attributes":{"ID":185976,"DIS_CODE":0,"TOWNNAME":"東區","LI":"德光里","LIN":"7鄰","STREET":"崇德路","SECT":" ","MAREA":" ","LANE":" ","ALLEY":" ","HOUSE_NO":"１３２號","E_COORD97":169978.57999999999,"N_COORD97":2542224.4100000001,"ADDRESS":"崇德路１３２號","OBJECTID":185975},"geometry":{"x":169978.58000000007,"y":2542224.4100000001}},{"attributes":{"ID":185977,"DIS_CODE":0,"TOWNNAME":"後壁區","LI":"土溝里","LIN":"11鄰","STREET":" ","SECT":" ","MAREA":"土溝","LANE":" ","ALLEY":" ","HOUSE_NO":"１０７號之３","E_COORD97":187565.91,"N_COORD97":2585727.8700000001,"ADDRESS":"土溝１０７號之３","OBJECTID":185976},"geometry":{"x":187565.91000000015,"y":2585727.8700000048}},{"attributes":{"ID":185978,"DIS_CODE":0,"TOWNNAME":"後壁區","LI":"土溝里","LIN":"11鄰","STREET":" ","SECT":" ","MAREA":"土溝","LANE":" ","ALLEY":" ","HOUSE_NO":"１０７號之４","E_COORD97":187544.62,"N_COORD97":2585729.9199999999,"ADDRESS":"土溝１０７號之４","OBJECTID":185977},"geometry":{"x":187544.62000000197,"y":2585729.9200000037}},{"attributes":{"ID":185979,"DIS_CODE":0,"TOWNNAME":"後壁區","LI":"土溝里","LIN":"11鄰","STREET":" ","SECT":" ","MAREA":"土溝","LANE":" ","ALLEY":" ","HOUSE_NO":"１０７號之５","E_COORD97":187559.35999999999,"N_COORD97":2585704.4500000002,"ADDRESS":"土溝１０７號之５","OBJECTID":185978},"geometry":{"x":187559.36000000034,"y":2585704.4499999993}},{"attributes":{"ID":185980,"DIS_CODE":0,"TOWNNAME":"後壁區","LI":"土溝里","LIN":"11鄰","STREET":" ","SECT":" ","MAREA":"土溝","LANE":" ","ALLEY":" ","HOUSE_NO":"１０７號之７","E_COORD97":187562.60000000001,"N_COORD97":2585690.6800000002,"ADDRESS":"土溝１０７號之７","OBJECTID":185979},"geometry":{"x":187562.59999999963,"y":2585690.6800000034}},{"attributes":{"ID":185981,"DIS_CODE":0,"TOWNNAME":"後壁區","LI":"土溝里","LIN":"11鄰","STREET":" ","SECT":" ","MAREA":"土溝","LANE":" ","ALLEY":" ","HOUSE_NO":"１０７號之８","E_COORD97":187546.04000000001,"N_COORD97":2585683.0899999999,"ADDRESS":"土溝１０７號之８","OBJECTID":185980},"geometry":{"x":187546.04000000004,"y":2585683.0899999999}},{"attributes":{"ID":185982,"DIS_CODE":0,"TOWNNAME":"白河區","LI":"玉豐里","LIN":"10鄰","STREET":" ","SECT":" ","MAREA":"海豐厝","LANE":" ","ALLEY":" ","HOUSE_NO":"８６號","E_COORD97":190340.92000000001,"N_COORD97":2586363.1499999999,"ADDRESS":"海豐厝８６號","OBJECTID":185981},"geometry":{"x":190340.91999999993,"y":2586363.1500000022}},{"attributes":{"ID":185983,"DIS_CODE":0,"TOWNNAME":"白河區","LI":"玉豐里","LIN":"10鄰","STREET":" ","SECT":" ","MAREA":"海豐厝","LANE":" ","ALLEY":" ","HOUSE_NO":"８７之８號","E_COORD97":190373.48999999999,"N_COORD97":2586302.8799999999,"ADDRESS":"海豐厝８７之８號","OBJECTID":185982},"geometry":{"x":190373.49000000115,"y":2586302.8800000008}},{"attributes":{"ID":185984,"DIS_CODE":0,"TOWNNAME":"新營區","LI":"永生里","LIN":"5鄰","STREET":"中山路","SECT":" ","MAREA":" ","LANE":" ","ALLEY":" ","HOUSE_NO":"１９３號","E_COORD97":179955.67603,"N_COORD97":2578028.23538,"ADDRESS":"中山路１９３號","OBJECTID":185983},"geometry":{"x":179955.67603000067,"y":2578028.2353840005}},{"attributes":{"ID":185985,"DIS_CODE":0,"TOWNNAME":"官田區","LI":"東庄里","LIN":"10鄰","STREET":" ","SECT":" ","MAREA":"西庄","LANE":" ","ALLEY":" ","HOUSE_NO":"１５８號之１０","E_COORD97":178271.72558599999,"N_COORD97":2564915.3191900002,"ADDRESS":"西庄１５８號之１０","OBJECTID":185984},"geometry":{"x":178271.7255859999,"y":2564915.3191919997}},{"attributes":{"ID":185986,"DIS_CODE":0,"TOWNNAME":"官田區","LI":"東庄里","LIN":"10鄰","STREET":" ","SECT":" ","MAREA":"西庄","LANE":" ","ALLEY":" ","HOUSE_NO":"１５８號之１１","E_COORD97":178405.29000000001,"N_COORD97":2564859.8500000001,"ADDRESS":"西庄１５８號之１１","OBJECTID":185985},"geometry":{"x":178405.29000000097,"y":2564859.8500000015}},{"attributes":{"ID":185987,"DIS_CODE":0,"TOWNNAME":"官田區","LI":"東庄里","LIN":"10鄰","STREET":" ","SECT":" ","MAREA":"西庄","LANE":" ","ALLEY":" ","HOUSE_NO":"１５８號之１２","E_COORD97":178402.04999999999,"N_COORD97":2564862.9300000002,"ADDRESS":"西庄１５８號之１２","OBJECTID":185986},"geometry":{"x":178402.04999999981,"y":2564862.9300000016}},{"attributes":{"ID":185988,"DIS_CODE":0,"TOWNNAME":"官田區","LI":"東庄里","LIN":"10鄰","STREET":" ","SECT":" ","MAREA":"西庄","LANE":" ","ALLEY":" ","HOUSE_NO":"１５８號之１３","E_COORD97":178434.60999999999,"N_COORD97":2564868.9900000002,"ADDRESS":"西庄１５８號之１３","OBJECTID":185987},"geometry":{"x":178434.61000000034,"y":2564868.9900000021}},{"attributes":{"ID":185989,"DIS_CODE":0,"TOWNNAME":"玉井區","LI":"玉田里","LIN":"36鄰","STREET":"玉安街","SECT":" ","MAREA":" ","LANE":"３０巷","ALLEY":"２１弄","HOUSE_NO":"８號","E_COORD97":195136.95999999999,"N_COORD97":2558355.3199999998,"ADDRESS":"玉安街３０巷２１弄８號","OBJECTID":185988},"geometry":{"x":195136.96000000089,"y":2558355.3200000003}},{"attributes":{"ID":185990,"DIS_CODE":0,"TOWNNAME":"永康區","LI":"永康里","LIN":"36鄰","STREET":"永平街","SECT":" ","MAREA":" ","LANE":"５６巷","ALLEY":"１弄","HOUSE_NO":"２２號","E_COORD97":174417.14000000001,"N_COORD97":2546836.8599999999,"ADDRESS":"永平街５６巷１弄２２號","OBJECTID":185989},"geometry":{"x":174417.1400000006,"y":2546836.8600000013}},{"attributes":{"ID":185991,"DIS_CODE":0,"TOWNNAME":"北區","LI":"大港里","LIN":"36鄰","STREET":"大興街","SECT":" ","MAREA":" ","LANE":"６０２巷","ALLEY":"１弄","HOUSE_NO":"１０號","E_COORD97":165815.44,"N_COORD97":2545413.2400000002,"ADDRESS":"大興街６０２巷１弄１０號","OBJECTID":185990},"geometry":{"x":165815.44000000227,"y":2545413.2400000021}},{"attributes":{"ID":185992,"DIS_CODE":0,"TOWNNAME":"北區","LI":"大港里","LIN":"36鄰","STREET":"大興街","SECT":" ","MAREA":" ","LANE":"６０２巷","ALLEY":"１弄","HOUSE_NO":"１２號","E_COORD97":165811.09,"N_COORD97":2545411.1099999999,"ADDRESS":"大興街６０２巷１弄１２號","OBJECTID":185991},"geometry":{"x":165811.09000000078,"y":2545411.1100000013}},{"attributes":{"ID":185993,"DIS_CODE":0,"TOWNNAME":"北區","LI":"大港里","LIN":"36鄰","STREET":"大興街","SECT":" ","MAREA":" ","LANE":"６０２巷","ALLEY":"１弄","HOUSE_NO":"１４號","E_COORD97":165807.47,"N_COORD97":2545409.4100000001,"ADDRESS":"大興街６０２巷１弄１４號","OBJECTID":185992},"geometry":{"x":165807.46999999974,"y":2545409.410000002}},{"attributes":{"ID":185994,"DIS_CODE":0,"TOWNNAME":"南化區","LI":"東和里","LIN":"3鄰","STREET":" ","SECT":" ","MAREA":"東和","LANE":" ","ALLEY":" ","HOUSE_NO":"２１號","E_COORD97":195284.17000000001,"N_COORD97":2546420.75,"ADDRESS":"東和２１號","OBJECTID":185993},"geometry":{"x":195284.16999999899,"y":2546420.7500000019}},{"attributes":{"ID":185995,"DIS_CODE":0,"TOWNNAME":"玉井區","LI":"玉田里","LIN":"24鄰","STREET":"新興街","SECT":" ","MAREA":" ","LANE":" ","ALLEY":" ","HOUSE_NO":"２８號","E_COORD97":195087.32000000001,"N_COORD97":2557862.2400000002,"ADDRESS":"新興街２８號","OBJECTID":185994},"geometry":{"x":195087.32000000123,"y":2557862.2399999984}},{"attributes":{"ID":185996,"DIS_CODE":0,"TOWNNAME":"玉井區","LI":"玉田里","LIN":"24鄰","STREET":"新興街","SECT":" ","MAREA":" ","LANE":" ","ALLEY":" ","HOUSE_NO":"２７號","E_COORD97":195069.82000000001,"N_COORD97":2557860.2400000002,"ADDRESS":"新興街２７號","OBJECTID":185995},"geometry":{"x":195069.8200000003,"y":2557860.2400000021}},{"attributes":{"ID":185997,"DIS_CODE":0,"TOWNNAME":"官田區","LI":"東庄里","LIN":"10鄰","STREET":" ","SECT":" ","MAREA":"西庄","LANE":" ","ALLEY":" ","HOUSE_NO":"１５８號之１５","E_COORD97":178282.13,"N_COORD97":2564890.1800000002,"ADDRESS":"西庄１５８號之１５","OBJECTID":185996},"geometry":{"x":178282.13000000082,"y":2564890.1799999997}},{"attributes":{"ID":185998,"DIS_CODE":0,"TOWNNAME":"官田區","LI":"東庄里","LIN":"10鄰","STREET":" ","SECT":" ","MAREA":"西庄","LANE":" ","ALLEY":" ","HOUSE_NO":"１５８號之１","E_COORD97":178243.33535199999,"N_COORD97":2564977.4433200001,"ADDRESS":"西庄１５８號之１","OBJECTID":185997},"geometry":{"x":178243.33535200078,"y":2564977.4433250017}},{"attributes":{"ID":185999,"DIS_CODE":0,"TOWNNAME":"官田區","LI":"東庄里","LIN":"10鄰","STREET":" ","SECT":" ","MAREA":"西庄","LANE":" ","ALLEY":" ","HOUSE_NO":"１５８號之２","E_COORD97":178232.106379,"N_COORD97":2564981.2533200001,"ADDRESS":"西庄１５８號之２","OBJECTID":185998},"geometry":{"x":178232.1063790014,"y":2564981.2533229999}},{"attributes":{"ID":186000,"DIS_CODE":0,"TOWNNAME":"後壁區","LI":"土溝里","LIN":"11鄰","STREET":" ","SECT":" ","MAREA":"土溝","LANE":" ","ALLEY":" ","HOUSE_NO":"１０８號之１１","E_COORD97":187479.82000000001,"N_COORD97":2585643.27,"ADDRESS":"土溝１０８號之１１","OBJECTID":185999},"geometry":{"x":187479.8200000003,"y":2585643.2700000014}},{"attributes":{"ID":186001,"DIS_CODE":0,"TOWNNAME":"後壁區","LI":"土溝里","LIN":"11鄰","STREET":" ","SECT":" ","MAREA":"土溝","LANE":" ","ALLEY":" ","HOUSE_NO":"１０８號之１２","E_COORD97":187476.63,"N_COORD97":2585605.3900000001,"ADDRESS":"土溝１０８號之１２","OBJECTID":186000},"geometry":{"x":187476.63000000082,"y":2585605.3900000043}}]}