{"displayFieldName":"TOWNNAME","fieldAliases":{"ID":"ID","DIS_CODE":"DIS_CODE","TOWNNAME":"TOWNNAME","LI":"LI","LIN":"LIN","STREET":"STREET","SECT":"SECT","MAREA":"MAREA","LANE":"LANE","ALLEY":"ALLEY","HOUSE_NO":"HOUSE_NO","E_COORD97":"E_COORD97","N_COORD97":"N_COORD97","ADDRESS":"ADDRESS","OBJECTID":"OBJECTID"},"geometryType":"esriGeometryPoint","spatialReference":{"wkid":102443,"latestWkid":3826},"fields":[{"name":"ID","type":"esriFieldTypeDouble","alias":"ID"},{"name":"DIS_CODE","type":"esriFieldTypeInteger","alias":"DIS_CODE"},{"name":"TOWNNAME","type":"esriFieldTypeString","alias":"TOWNNAME","length":8},{"name":"LI","type":"esriFieldTypeString","alias":"LI","length":8},{"name":"LIN","type":"esriFieldTypeString","alias":"LIN","length":12},{"name":"STREET","type":"esriFieldTypeString","alias":"STREET","length":20},{"name":"SECT","type":"esriFieldTypeString","alias":"SECT","length":8},{"name":"MAREA","type":"esriFieldTypeString","alias":"MAREA","length":12},{"name":"LANE","type":"esriFieldTypeString","alias":"LANE","length":10},{"name":"ALLEY","type":"esriFieldTypeString","alias":"ALLEY","length":10},{"name":"HOUSE_NO","type":"esriFieldTypeString","alias":"HOUSE_NO","length":20},{"name":"E_COORD97","type":"esriFieldTypeDouble","alias":"E_COORD97"},{"name":"N_COORD97","type":"esriFieldTypeDouble","alias":"N_COORD97"},{"name":"ADDRESS","type":"esriFieldTypeString","alias":"ADDRESS","length":50},{"name":"OBJECTID","type":"esriFieldTypeOID","alias":"OBJECTID"}],"features":[{"attributes":{"ID":256205,"DIS_CODE":0,"TOWNNAME":"東區","LI":"東門里","LIN":"24鄰","STREET":"東榮街","SECT":" ","MAREA":" ","LANE":" ","ALLEY":" ","HOUSE_NO":"１１７號","E_COORD97":169546.60999999999,"N_COORD97":2543224.3500000001,"ADDRESS":"東榮街１１７號","OBJECTID":256201},"geometry":{"x":169546.61000000034,"y":2543224.3499999996}},{"attributes":{"ID":256206,"DIS_CODE":0,"TOWNNAME":"東區","LI":"東門里","LIN":"24鄰","STREET":"東榮街","SECT":" ","MAREA":" ","LANE":" ","ALLEY":" ","HOUSE_NO":"１１９號","E_COORD97":169541.67999999999,"N_COORD97":2543225.1400000001,"ADDRESS":"東榮街１１９號","OBJECTID":256202},"geometry":{"x":169541.6799999997,"y":2543225.1400000025}},{"attributes":{"ID":256207,"DIS_CODE":0,"TOWNNAME":"東區","LI":"東門里","LIN":"24鄰","STREET":"東榮街","SECT":" ","MAREA":" ","LANE":" ","ALLEY":" ","HOUSE_NO":"１２１號","E_COORD97":169541.13,"N_COORD97":2543218.4300000002,"ADDRESS":"東榮街１２１號","OBJECTID":256203},"geometry":{"x":169541.12999999989,"y":2543218.4300000016}},{"attributes":{"ID":256208,"DIS_CODE":0,"TOWNNAME":"東區","LI":"東門里","LIN":"24鄰","STREET":"東榮街","SECT":" ","MAREA":" ","LANE":" ","ALLEY":" ","HOUSE_NO":"１２３號","E_COORD97":169541.04000000001,"N_COORD97":2543211.3100000001,"ADDRESS":"東榮街１２３號","OBJECTID":256204},"geometry":{"x":169541.04000000097,"y":2543211.3100000005}},{"attributes":{"ID":256209,"DIS_CODE":0,"TOWNNAME":"東區","LI":"東門里","LIN":"24鄰","STREET":"東榮街","SECT":" ","MAREA":" ","LANE":" ","ALLEY":" ","HOUSE_NO":"１２５號","E_COORD97":169539.59,"N_COORD97":2543205.5899999999,"ADDRESS":"東榮街１２５號","OBJECTID":256205},"geometry":{"x":169539.58999999985,"y":2543205.5899999999}},{"attributes":{"ID":256210,"DIS_CODE":0,"TOWNNAME":"東區","LI":"東門里","LIN":"24鄰","STREET":"東榮街","SECT":" ","MAREA":" ","LANE":" ","ALLEY":" ","HOUSE_NO":"１２９號","E_COORD97":169553.73000000001,"N_COORD97":2543221.5299999998,"ADDRESS":"東榮街１２９號","OBJECTID":256206},"geometry":{"x":169553.73000000138,"y":2543221.5299999993}},{"attributes":{"ID":256211,"DIS_CODE":0,"TOWNNAME":"東區","LI":"東門里","LIN":"24鄰","STREET":"東榮街","SECT":" ","MAREA":" ","LANE":" ","ALLEY":" ","HOUSE_NO":"１３１號","E_COORD97":169551.14999999999,"N_COORD97":2543214.2799999998,"ADDRESS":"東榮街１３１號","OBJECTID":256207},"geometry":{"x":169551.15000000037,"y":2543214.2799999993}},{"attributes":{"ID":256212,"DIS_CODE":0,"TOWNNAME":"東區","LI":"東門里","LIN":"24鄰","STREET":"東榮街","SECT":" ","MAREA":" ","LANE":" ","ALLEY":" ","HOUSE_NO":"１３３號","E_COORD97":169549.76999999999,"N_COORD97":2543209.3799999999,"ADDRESS":"東榮街１３３號","OBJECTID":256208},"geometry":{"x":169549.76999999955,"y":2543209.379999999}},{"attributes":{"ID":256213,"DIS_CODE":0,"TOWNNAME":"東區","LI":"東門里","LIN":"24鄰","STREET":"東榮街","SECT":" ","MAREA":" ","LANE":" ","ALLEY":" ","HOUSE_NO":"１３５號","E_COORD97":169548.31,"N_COORD97":2543205.4300000002,"ADDRESS":"東榮街１３５號","OBJECTID":256209},"geometry":{"x":169548.31000000145,"y":2543205.4300000016}},{"attributes":{"ID":256214,"DIS_CODE":0,"TOWNNAME":"永康區","LI":"埔園里","LIN":"27鄰","STREET":"埔東街","SECT":" ","MAREA":" ","LANE":" ","ALLEY":" ","HOUSE_NO":"８７號","E_COORD97":173781.89000000001,"N_COORD97":2548249.9900000002,"ADDRESS":"埔東街８７號","OBJECTID":256210},"geometry":{"x":173781.88999999966,"y":2548249.9900000021}},{"attributes":{"ID":256215,"DIS_CODE":0,"TOWNNAME":"南區","LI":"明亮里","LIN":"27鄰","STREET":"金華路","SECT":"一段","MAREA":" ","LANE":"４８４巷","ALLEY":" ","HOUSE_NO":"１２０號","E_COORD97":167247.82000000001,"N_COORD97":2541329.5899999999,"ADDRESS":"金華路一段４８４巷１２０號","OBJECTID":256211},"geometry":{"x":167247.8200000003,"y":2541329.5900000017}},{"attributes":{"ID":256216,"DIS_CODE":0,"TOWNNAME":"東區","LI":"中西里","LIN":"27鄰","STREET":"東寧路","SECT":" ","MAREA":" ","LANE":"１２０巷","ALLEY":" ","HOUSE_NO":"７３號","E_COORD97":170249.07000000001,"N_COORD97":2543465.7400000002,"ADDRESS":"東寧路１２０巷７３號","OBJECTID":256212},"geometry":{"x":170249.07000000216,"y":2543465.7400000002}},{"attributes":{"ID":256217,"DIS_CODE":0,"TOWNNAME":"東區","LI":"中西里","LIN":"27鄰","STREET":"東寧路","SECT":" ","MAREA":" ","LANE":"１２０巷","ALLEY":" ","HOUSE_NO":"８１號","E_COORD97":170279.12572000001,"N_COORD97":2543470.8305799998,"ADDRESS":"東寧路１２０巷８１號","OBJECTID":256213},"geometry":{"x":170279.12571999989,"y":2543470.8305770028}},{"attributes":{"ID":256218,"DIS_CODE":0,"TOWNNAME":"東區","LI":"中西里","LIN":"27鄰","STREET":"東寧路","SECT":" ","MAREA":" ","LANE":"１２０巷","ALLEY":" ","HOUSE_NO":"８５號","E_COORD97":170302.94,"N_COORD97":2543465.1600000001,"ADDRESS":"東寧路１２０巷８５號","OBJECTID":256214},"geometry":{"x":170302.94000000134,"y":2543465.160000002}},{"attributes":{"ID":256219,"DIS_CODE":0,"TOWNNAME":"東區","LI":"中西里","LIN":"27鄰","STREET":"東寧路","SECT":" ","MAREA":" ","LANE":"１２０巷","ALLEY":" ","HOUSE_NO":"８７號","E_COORD97":170281.20999999999,"N_COORD97":2543459.8500000001,"ADDRESS":"東寧路１２０巷８７號","OBJECTID":256215},"geometry":{"x":170281.20999999996,"y":2543459.8500000015}},{"attributes":{"ID":256220,"DIS_CODE":0,"TOWNNAME":"東區","LI":"中西里","LIN":"27鄰","STREET":"東寧路","SECT":" ","MAREA":" ","LANE":"１２０巷","ALLEY":" ","HOUSE_NO":"８９號","E_COORD97":170271.48000000001,"N_COORD97":2543457.79,"ADDRESS":"東寧路１２０巷８９號","OBJECTID":256216},"geometry":{"x":170271.48000000045,"y":2543457.7899999991}},{"attributes":{"ID":256221,"DIS_CODE":0,"TOWNNAME":"東區","LI":"中西里","LIN":"27鄰","STREET":"東寧路","SECT":" ","MAREA":" ","LANE":"１２０巷","ALLEY":" ","HOUSE_NO":"９１號","E_COORD97":170262.04000000001,"N_COORD97":2543456.8700000001,"ADDRESS":"東寧路１２０巷９１號","OBJECTID":256217},"geometry":{"x":170262.04000000004,"y":2543456.8700000048}},{"attributes":{"ID":256222,"DIS_CODE":0,"TOWNNAME":"東區","LI":"中西里","LIN":"27鄰","STREET":"東寧路","SECT":" ","MAREA":" ","LANE":"１２０巷","ALLEY":" ","HOUSE_NO":"９７號","E_COORD97":170247.48999999999,"N_COORD97":2543454.02,"ADDRESS":"東寧路１２０巷９７號","OBJECTID":256218},"geometry":{"x":170247.49000000022,"y":2543454.0200000033}},{"attributes":{"ID":256223,"DIS_CODE":0,"TOWNNAME":"東區","LI":"中西里","LIN":"27鄰","STREET":"東寧路","SECT":" ","MAREA":" ","LANE":"１２０巷","ALLEY":" ","HOUSE_NO":"９９號","E_COORD97":170248.67000000001,"N_COORD97":2543445.8700000001,"ADDRESS":"東寧路１２０巷９９號","OBJECTID":256219},"geometry":{"x":170248.67000000086,"y":2543445.870000001}},{"attributes":{"ID":256224,"DIS_CODE":0,"TOWNNAME":"東區","LI":"忠孝里","LIN":"27鄰","STREET":"榮譽街","SECT":" ","MAREA":" ","LANE":"８４巷","ALLEY":" ","HOUSE_NO":"１９號","E_COORD97":169800.60999999999,"N_COORD97":2541670.8599999999,"ADDRESS":"榮譽街８４巷１９號","OBJECTID":256220},"geometry":{"x":169800.61000000034,"y":2541670.8599999994}},{"attributes":{"ID":256225,"DIS_CODE":0,"TOWNNAME":"永康區","LI":"西勢里","LIN":"17鄰","STREET":"富強路","SECT":"一段","MAREA":" ","LANE":"２５４巷","ALLEY":" ","HOUSE_NO":"３３號","E_COORD97":175767.76999999999,"N_COORD97":2546414.2400000002,"ADDRESS":"富強路一段２５４巷３３號","OBJECTID":256221},"geometry":{"x":175767.76999999955,"y":2546414.2400000021}},{"attributes":{"ID":256226,"DIS_CODE":0,"TOWNNAME":"永康區","LI":"西勢里","LIN":"17鄰","STREET":"富強路","SECT":"一段","MAREA":" ","LANE":"２５４巷","ALLEY":" ","HOUSE_NO":"３５號","E_COORD97":175771.04000000001,"N_COORD97":2546411.1499999999,"ADDRESS":"富強路一段２５４巷３５號","OBJECTID":256222},"geometry":{"x":175771.04000000097,"y":2546411.1500000022}},{"attributes":{"ID":256227,"DIS_CODE":0,"TOWNNAME":"永康區","LI":"西勢里","LIN":"17鄰","STREET":"富強路","SECT":"一段","MAREA":" ","LANE":"２５４巷","ALLEY":" ","HOUSE_NO":"３７號","E_COORD97":175774.29999999999,"N_COORD97":2546408.0499999998,"ADDRESS":"富強路一段２５４巷３７號","OBJECTID":256223},"geometry":{"x":175774.29999999981,"y":2546408.0500000045}},{"attributes":{"ID":256228,"DIS_CODE":0,"TOWNNAME":"永康區","LI":"西勢里","LIN":"17鄰","STREET":"富強路","SECT":"一段","MAREA":" ","LANE":"２５４巷","ALLEY":" ","HOUSE_NO":"３９號","E_COORD97":175777.57000000001,"N_COORD97":2546404.9500000002,"ADDRESS":"富強路一段２５４巷３９號","OBJECTID":256224},"geometry":{"x":175777.57000000123,"y":2546404.9500000011}},{"attributes":{"ID":256229,"DIS_CODE":0,"TOWNNAME":"永康區","LI":"西勢里","LIN":"17鄰","STREET":"富強路","SECT":"一段","MAREA":" ","LANE":"２５４巷","ALLEY":" ","HOUSE_NO":"４１號","E_COORD97":175780.82999999999,"N_COORD97":2546401.8599999999,"ADDRESS":"富強路一段２５４巷４１號","OBJECTID":256225},"geometry":{"x":175780.83000000101,"y":2546401.8600000013}},{"attributes":{"ID":256230,"DIS_CODE":0,"TOWNNAME":"永康區","LI":"東橋里","LIN":"17鄰","STREET":"東橋二街","SECT":" ","MAREA":" ","LANE":"７１巷","ALLEY":" ","HOUSE_NO":"１７號","E_COORD97":171688.04000000001,"N_COORD97":2546534.1600000001,"ADDRESS":"東橋二街７１巷１７號","OBJECTID":256226},"geometry":{"x":171688.04000000004,"y":2546534.1600000001}},{"attributes":{"ID":256231,"DIS_CODE":0,"TOWNNAME":"永康區","LI":"東橋里","LIN":"17鄰","STREET":"東橋二街","SECT":" ","MAREA":" ","LANE":"７１巷","ALLEY":" ","HOUSE_NO":"１９號","E_COORD97":171684.48000000001,"N_COORD97":2546540.27,"ADDRESS":"東橋二街７１巷１９號","OBJECTID":256227},"geometry":{"x":171684.48000000138,"y":2546540.2699999996}},{"attributes":{"ID":256232,"DIS_CODE":0,"TOWNNAME":"永康區","LI":"東橋里","LIN":"17鄰","STREET":"東橋二街","SECT":" ","MAREA":" ","LANE":"７１巷","ALLEY":" ","HOUSE_NO":"２１號","E_COORD97":171679.54000000001,"N_COORD97":2546544.7599999998,"ADDRESS":"東橋二街７１巷２１號","OBJECTID":256228},"geometry":{"x":171679.54000000004,"y":2546544.7600000035}},{"attributes":{"ID":256233,"DIS_CODE":0,"TOWNNAME":"永康區","LI":"東橋里","LIN":"17鄰","STREET":"東橋二街","SECT":" ","MAREA":" ","LANE":"７１巷","ALLEY":" ","HOUSE_NO":"２３號","E_COORD97":171677.41,"N_COORD97":2546552.3900000001,"ADDRESS":"東橋二街７１巷２３號","OBJECTID":256229},"geometry":{"x":171677.41000000201,"y":2546552.3900000025}},{"attributes":{"ID":256234,"DIS_CODE":0,"TOWNNAME":"永康區","LI":"東橋里","LIN":"17鄰","STREET":"東橋二街","SECT":" ","MAREA":" ","LANE":"７１巷","ALLEY":" ","HOUSE_NO":"２５號","E_COORD97":171673.88,"N_COORD97":2546558.4500000002,"ADDRESS":"東橋二街７１巷２５號","OBJECTID":256230},"geometry":{"x":171673.88000000175,"y":2546558.4499999993}},{"attributes":{"ID":256235,"DIS_CODE":0,"TOWNNAME":"永康區","LI":"東橋里","LIN":"17鄰","STREET":"東橋二街","SECT":" ","MAREA":" ","LANE":"７１巷","ALLEY":" ","HOUSE_NO":"２７號","E_COORD97":171675.29000000001,"N_COORD97":2546567.9500000002,"ADDRESS":"東橋二街７１巷２７號","OBJECTID":256231},"geometry":{"x":171675.29000000097,"y":2546567.9500000011}},{"attributes":{"ID":256236,"DIS_CODE":0,"TOWNNAME":"東區","LI":"東門里","LIN":"24鄰","STREET":"東榮街","SECT":" ","MAREA":" ","LANE":" ","ALLEY":" ","HOUSE_NO":"１３７號","E_COORD97":169546.42000000001,"N_COORD97":2543200.5299999998,"ADDRESS":"東榮街１３７號","OBJECTID":256232},"geometry":{"x":169546.42000000086,"y":2543200.5300000012}},{"attributes":{"ID":256237,"DIS_CODE":0,"TOWNNAME":"東區","LI":"東門里","LIN":"24鄰","STREET":"東榮街","SECT":" ","MAREA":" ","LANE":" ","ALLEY":" ","HOUSE_NO":"１３９號","E_COORD97":169544.09,"N_COORD97":2543197.0099999998,"ADDRESS":"東榮街１３９號","OBJECTID":256233},"geometry":{"x":169544.09000000078,"y":2543197.0100000016}},{"attributes":{"ID":256238,"DIS_CODE":0,"TOWNNAME":"東區","LI":"東門里","LIN":"24鄰","STREET":"東榮街","SECT":" ","MAREA":" ","LANE":" ","ALLEY":" ","HOUSE_NO":"１３９號之１","E_COORD97":169539,"N_COORD97":2543195.6099999999,"ADDRESS":"東榮街１３９號之１","OBJECTID":256234},"geometry":{"x":169539.00000000186,"y":2543195.6100000031}},{"attributes":{"ID":256239,"DIS_CODE":0,"TOWNNAME":"東區","LI":"東門里","LIN":"24鄰","STREET":"東榮街","SECT":" ","MAREA":" ","LANE":" ","ALLEY":" ","HOUSE_NO":"９３號","E_COORD97":169548.54999999999,"N_COORD97":2543287.46,"ADDRESS":"東榮街９３號","OBJECTID":256235},"geometry":{"x":169548.55000000168,"y":2543287.4600000028}},{"attributes":{"ID":256240,"DIS_CODE":0,"TOWNNAME":"東區","LI":"東門里","LIN":"24鄰","STREET":"東榮街","SECT":" ","MAREA":" ","LANE":" ","ALLEY":" ","HOUSE_NO":"９５號","E_COORD97":169548.20000000001,"N_COORD97":2543281.6000000001,"ADDRESS":"東榮街９５號","OBJECTID":256236},"geometry":{"x":169548.20000000112,"y":2543281.6000000015}},{"attributes":{"ID":256241,"DIS_CODE":0,"TOWNNAME":"東區","LI":"東門里","LIN":"24鄰","STREET":"東榮街","SECT":" ","MAREA":" ","LANE":" ","ALLEY":" ","HOUSE_NO":"９７號","E_COORD97":169547.42999999999,"N_COORD97":2543275.6699999999,"ADDRESS":"東榮街９７號","OBJECTID":256237},"geometry":{"x":169547.4299999997,"y":2543275.6699999999}},{"attributes":{"ID":256242,"DIS_CODE":0,"TOWNNAME":"東區","LI":"東門里","LIN":"24鄰","STREET":"東榮街","SECT":" ","MAREA":" ","LANE":" ","ALLEY":" ","HOUSE_NO":"９９號","E_COORD97":169547.60000000001,"N_COORD97":2543272.1499999999,"ADDRESS":"東榮街９９號","OBJECTID":256238},"geometry":{"x":169547.59999999963,"y":2543272.1500000022}},{"attributes":{"ID":256243,"DIS_CODE":0,"TOWNNAME":"安平區","LI":"國平里","LIN":"32鄰","STREET":"育平二街","SECT":" ","MAREA":" ","LANE":" ","ALLEY":" ","HOUSE_NO":"５５號","E_COORD97":164797.89000000001,"N_COORD97":2542922.9199999999,"ADDRESS":"育平二街５５號","OBJECTID":256239},"geometry":{"x":164797.89000000153,"y":2542922.9200000037}},{"attributes":{"ID":256244,"DIS_CODE":0,"TOWNNAME":"永康區","LI":"西勢里","LIN":"24鄰","STREET":"廣興街","SECT":" ","MAREA":" ","LANE":" ","ALLEY":" ","HOUSE_NO":"４０號五樓","E_COORD97":175939.48999999999,"N_COORD97":2546571.6299999999,"ADDRESS":"廣興街４０號五樓","OBJECTID":256240},"geometry":{"x":175939.49000000022,"y":2546571.6299999971}},{"attributes":{"ID":256245,"DIS_CODE":0,"TOWNNAME":"安平區","LI":"國平里","LIN":"32鄰","STREET":"育平二街","SECT":" ","MAREA":" ","LANE":" ","ALLEY":" ","HOUSE_NO":"５３號","E_COORD97":164793.87,"N_COORD97":2542923.3700000001,"ADDRESS":"育平二街５３號","OBJECTID":256241},"geometry":{"x":164793.87000000104,"y":2542923.370000001}},{"attributes":{"ID":256246,"DIS_CODE":0,"TOWNNAME":"官田區","LI":"隆田里","LIN":"24鄰","STREET":"中山路","SECT":"二段","MAREA":" ","LANE":" ","ALLEY":" ","HOUSE_NO":"１１號","E_COORD97":179100.03,"N_COORD97":2565925.5600000001,"ADDRESS":"中山路二段１１號","OBJECTID":256242},"geometry":{"x":179100.03000000119,"y":2565925.5600000005}},{"attributes":{"ID":256247,"DIS_CODE":0,"TOWNNAME":"新市區","LI":"大社里","LIN":"27鄰","STREET":" ","SECT":" ","MAREA":"大社","LANE":" ","ALLEY":" ","HOUSE_NO":"７２４號","E_COORD97":180006.73000000001,"N_COORD97":2554277.75,"ADDRESS":"大社７２４號","OBJECTID":256243},"geometry":{"x":180006.73000000045,"y":2554277.75}},{"attributes":{"ID":256248,"DIS_CODE":0,"TOWNNAME":"新市區","LI":"港墘里","LIN":"27鄰","STREET":"華美街","SECT":" ","MAREA":" ","LANE":"４９巷","ALLEY":" ","HOUSE_NO":"２２號","E_COORD97":178070.45000000001,"N_COORD97":2552980.5499999998,"ADDRESS":"華美街４９巷２２號","OBJECTID":256244},"geometry":{"x":178070.45000000112,"y":2552980.5500000007}},{"attributes":{"ID":256249,"DIS_CODE":0,"TOWNNAME":"新市區","LI":"港墘里","LIN":"27鄰","STREET":"華美街","SECT":" ","MAREA":" ","LANE":"４９巷","ALLEY":" ","HOUSE_NO":"１４號","E_COORD97":178086.79000000001,"N_COORD97":2552978.0499999998,"ADDRESS":"華美街４９巷１４號","OBJECTID":256245},"geometry":{"x":178086.79000000004,"y":2552978.0500000007}},{"attributes":{"ID":256250,"DIS_CODE":0,"TOWNNAME":"新市區","LI":"港墘里","LIN":"27鄰","STREET":"華美街","SECT":" ","MAREA":" ","LANE":"４９巷","ALLEY":" ","HOUSE_NO":"７號","E_COORD97":178120.67000000001,"N_COORD97":2552960.0499999998,"ADDRESS":"華美街４９巷７號","OBJECTID":256246},"geometry":{"x":178120.67000000086,"y":2552960.0500000007}},{"attributes":{"ID":256251,"DIS_CODE":0,"TOWNNAME":"新市區","LI":"港墘里","LIN":"27鄰","STREET":"華美街","SECT":" ","MAREA":" ","LANE":"４９巷","ALLEY":" ","HOUSE_NO":"２８號","E_COORD97":178057.73000000001,"N_COORD97":2552982.5499999998,"ADDRESS":"華美街４９巷２８號","OBJECTID":256247},"geometry":{"x":178057.73000000045,"y":2552982.5500000026}},{"attributes":{"ID":256252,"DIS_CODE":0,"TOWNNAME":"新市區","LI":"港墘里","LIN":"27鄰","STREET":"華美街","SECT":" ","MAREA":" ","LANE":"４９巷","ALLEY":" ","HOUSE_NO":"３２號","E_COORD97":178049.34,"N_COORD97":2552983.7999999998,"ADDRESS":"華美街４９巷３２號","OBJECTID":256248},"geometry":{"x":178049.33999999985,"y":2552983.8000000045}},{"attributes":{"ID":256253,"DIS_CODE":0,"TOWNNAME":"新市區","LI":"港墘里","LIN":"27鄰","STREET":"華美街","SECT":" ","MAREA":" ","LANE":"４９巷","ALLEY":" ","HOUSE_NO":"１２號","E_COORD97":178090.98000000001,"N_COORD97":2552977.5499999998,"ADDRESS":"華美街４９巷１２號","OBJECTID":256249},"geometry":{"x":178090.98000000045,"y":2552977.5500000007}},{"attributes":{"ID":256254,"DIS_CODE":0,"TOWNNAME":"新市區","LI":"港墘里","LIN":"27鄰","STREET":"華美街","SECT":" ","MAREA":" ","LANE":"４９巷","ALLEY":" ","HOUSE_NO":"２４號","E_COORD97":178066.04000000001,"N_COORD97":2552981.29,"ADDRESS":"華美街４９巷２４號","OBJECTID":256250},"geometry":{"x":178066.04000000097,"y":2552981.2899999991}},{"attributes":{"ID":256255,"DIS_CODE":0,"TOWNNAME":"安南區","LI":"\u25A0南里","LIN":"27鄰","STREET":"環福街","SECT":" ","MAREA":" ","LANE":"２５４巷","ALLEY":" ","HOUSE_NO":"１０號","E_COORD97":170214.48999999999,"N_COORD97":2552693.9900000002,"ADDRESS":"環福街２５４巷１０號","OBJECTID":256251},"geometry":{"x":170214.49000000115,"y":2552693.9900000039}},{"attributes":{"ID":256256,"DIS_CODE":0,"TOWNNAME":"安南區","LI":"\u25A0南里","LIN":"27鄰","STREET":"環福街","SECT":" ","MAREA":" ","LANE":"２５４巷","ALLEY":" ","HOUSE_NO":"１４號","E_COORD97":170210.20999999999,"N_COORD97":2552708.0299999998,"ADDRESS":"環福街２５４巷１４號","OBJECTID":256252},"geometry":{"x":170210.20999999996,"y":2552708.0299999993}},{"attributes":{"ID":256257,"DIS_CODE":0,"TOWNNAME":"永康區","LI":"東灣里","LIN":"27鄰","STREET":"民族路","SECT":" ","MAREA":" ","LANE":"１４５巷","ALLEY":" ","HOUSE_NO":"１１１號","E_COORD97":175087.60000000001,"N_COORD97":2544661.0800000001,"ADDRESS":"民族路１４５巷１１１號","OBJECTID":256253},"geometry":{"x":175087.59999999963,"y":2544661.0800000038}},{"attributes":{"ID":256258,"DIS_CODE":0,"TOWNNAME":"永康區","LI":"東灣里","LIN":"27鄰","STREET":"民族路","SECT":" ","MAREA":" ","LANE":"１４５巷","ALLEY":" ","HOUSE_NO":"１２１號","E_COORD97":175070.81,"N_COORD97":2544650.5699999998,"ADDRESS":"民族路１４５巷１２１號","OBJECTID":256254},"geometry":{"x":175070.80999999959,"y":2544650.5700000003}},{"attributes":{"ID":256259,"DIS_CODE":0,"TOWNNAME":"永康區","LI":"埔園里","LIN":"27鄰","STREET":"埔園街","SECT":" ","MAREA":" ","LANE":"２０３巷","ALLEY":" ","HOUSE_NO":"１號","E_COORD97":173734.89000000001,"N_COORD97":2548211.3199999998,"ADDRESS":"埔園街２０３巷１號","OBJECTID":256255},"geometry":{"x":173734.89000000153,"y":2548211.3200000003}},{"attributes":{"ID":256260,"DIS_CODE":0,"TOWNNAME":"永康區","LI":"東灣里","LIN":"27鄰","STREET":"民族路","SECT":" ","MAREA":" ","LANE":"１４５巷","ALLEY":" ","HOUSE_NO":"１１３號","E_COORD97":175083.97,"N_COORD97":2544658.8300000001,"ADDRESS":"民族路１４５巷１１３號","OBJECTID":256256},"geometry":{"x":175083.97000000067,"y":2544658.8300000001}},{"attributes":{"ID":256261,"DIS_CODE":0,"TOWNNAME":"永康區","LI":"東灣里","LIN":"27鄰","STREET":"民族路","SECT":" ","MAREA":" ","LANE":"１４５巷","ALLEY":" ","HOUSE_NO":"１０９號","E_COORD97":175091.22,"N_COORD97":2544663.0800000001,"ADDRESS":"民族路１４５巷１０９號","OBJECTID":256257},"geometry":{"x":175091.22000000067,"y":2544663.0800000001}},{"attributes":{"ID":256262,"DIS_CODE":0,"TOWNNAME":"永康區","LI":"埔園里","LIN":"27鄰","STREET":"龍埔街","SECT":" ","MAREA":" ","LANE":"３７９巷","ALLEY":" ","HOUSE_NO":"９號","E_COORD97":173766.54000000001,"N_COORD97":2548286.4700000002,"ADDRESS":"龍埔街３７９巷９號","OBJECTID":256258},"geometry":{"x":173766.5400000019,"y":2548286.4700000007}},{"attributes":{"ID":256263,"DIS_CODE":0,"TOWNNAME":"官田區","LI":"隆田里","LIN":"24鄰","STREET":"中山路","SECT":"二段","MAREA":" ","LANE":" ","ALLEY":" ","HOUSE_NO":"１５號","E_COORD97":179091.81,"N_COORD97":2565928.8399999999,"ADDRESS":"中山路二段１５號","OBJECTID":256259},"geometry":{"x":179091.80999999959,"y":2565928.8399999999}},{"attributes":{"ID":256264,"DIS_CODE":0,"TOWNNAME":"官田區","LI":"隆田里","LIN":"24鄰","STREET":"中山路","SECT":"二段","MAREA":" ","LANE":" ","ALLEY":" ","HOUSE_NO":"１７號","E_COORD97":179087.60000000001,"N_COORD97":2565930.52,"ADDRESS":"中山路二段１７號","OBJECTID":256260},"geometry":{"x":179087.60000000056,"y":2565930.5200000014}},{"attributes":{"ID":256265,"DIS_CODE":0,"TOWNNAME":"官田區","LI":"隆田里","LIN":"24鄰","STREET":"中山路","SECT":"二段","MAREA":" ","LANE":" ","ALLEY":" ","HOUSE_NO":"１９號","E_COORD97":179083.01000000001,"N_COORD97":2565932.3500000001,"ADDRESS":"中山路二段１９號","OBJECTID":256261},"geometry":{"x":179083.01000000071,"y":2565932.3499999996}},{"attributes":{"ID":256266,"DIS_CODE":0,"TOWNNAME":"安平區","LI":"國平里","LIN":"32鄰","STREET":"育平二街","SECT":" ","MAREA":" ","LANE":" ","ALLEY":" ","HOUSE_NO":"５７號","E_COORD97":164802.14000000001,"N_COORD97":2542921.8100000001,"ADDRESS":"育平二街５７號","OBJECTID":256262},"geometry":{"x":164802.13999999966,"y":2542921.8100000024}},{"attributes":{"ID":256267,"DIS_CODE":0,"TOWNNAME":"安平區","LI":"怡平里","LIN":"25鄰","STREET":"永華路","SECT":"二段","MAREA":" ","LANE":" ","ALLEY":" ","HOUSE_NO":"４７２號","E_COORD97":165538.89999999999,"N_COORD97":2543510.3399999999,"ADDRESS":"永華路二段４７２號","OBJECTID":256263},"geometry":{"x":165538.90000000037,"y":2543510.3400000017}},{"attributes":{"ID":256268,"DIS_CODE":0,"TOWNNAME":"永康區","LI":"安康里","LIN":"24鄰","STREET":"大橋一街","SECT":" ","MAREA":" ","LANE":" ","ALLEY":" ","HOUSE_NO":"７６號","E_COORD97":170729.20000000001,"N_COORD97":2546294.7400000002,"ADDRESS":"大橋一街７６號","OBJECTID":256264},"geometry":{"x":170729.20000000019,"y":2546294.7400000021}},{"attributes":{"ID":256269,"DIS_CODE":0,"TOWNNAME":"永康區","LI":"北灣里","LIN":"24鄰","STREET":"大灣路","SECT":" ","MAREA":" ","LANE":" ","ALLEY":" ","HOUSE_NO":"３３號","E_COORD97":175327.23999999999,"N_COORD97":2545878.4399999999,"ADDRESS":"大灣路３３號","OBJECTID":256265},"geometry":{"x":175327.24000000115,"y":2545878.4399999976}},{"attributes":{"ID":256270,"DIS_CODE":0,"TOWNNAME":"永康區","LI":"安康里","LIN":"24鄰","STREET":"大橋一街","SECT":" ","MAREA":" ","LANE":" ","ALLEY":" ","HOUSE_NO":"８０號","E_COORD97":170736.04000000001,"N_COORD97":2546282.9900000002,"ADDRESS":"大橋一街８０號","OBJECTID":256266},"geometry":{"x":170736.04000000097,"y":2546282.9900000021}},{"attributes":{"ID":256271,"DIS_CODE":0,"TOWNNAME":"永康區","LI":"安康里","LIN":"24鄰","STREET":"大橋一街","SECT":" ","MAREA":" ","LANE":" ","ALLEY":" ","HOUSE_NO":"９６號","E_COORD97":170761.94,"N_COORD97":2546298.2400000002,"ADDRESS":"大橋一街９６號","OBJECTID":256267},"geometry":{"x":170761.93999999948,"y":2546298.2400000021}},{"attributes":{"ID":256272,"DIS_CODE":0,"TOWNNAME":"永康區","LI":"北灣里","LIN":"24鄰","STREET":"大灣路","SECT":" ","MAREA":" ","LANE":" ","ALLEY":" ","HOUSE_NO":"２１號","E_COORD97":175341.23999999999,"N_COORD97":2545903.6099999999,"ADDRESS":"大灣路２１號","OBJECTID":256268},"geometry":{"x":175341.24000000022,"y":2545903.6099999994}},{"attributes":{"ID":256273,"DIS_CODE":0,"TOWNNAME":"永康區","LI":"安康里","LIN":"24鄰","STREET":"大橋一街","SECT":" ","MAREA":" ","LANE":" ","ALLEY":" ","HOUSE_NO":"９８號","E_COORD97":170764.56,"N_COORD97":2546292.9900000002,"ADDRESS":"大橋一街９８號","OBJECTID":256269},"geometry":{"x":170764.56000000052,"y":2546292.9900000021}},{"attributes":{"ID":256274,"DIS_CODE":0,"TOWNNAME":"安平區","LI":"漁光里","LIN":"5鄰","STREET":"漁光路","SECT":" ","MAREA":" ","LANE":" ","ALLEY":" ","HOUSE_NO":"１２５號","E_COORD97":163981.64999999999,"N_COORD97":2542007.3300000001,"ADDRESS":"漁光路１２５號","OBJECTID":256270},"geometry":{"x":163981.6500000013,"y":2542007.3300000001}},{"attributes":{"ID":256275,"DIS_CODE":0,"TOWNNAME":"安平區","LI":"國平里","LIN":"18鄰","STREET":"永華路","SECT":"二段","MAREA":" ","LANE":" ","ALLEY":" ","HOUSE_NO":"６７５號","E_COORD97":165128.47,"N_COORD97":2543457.4900000002,"ADDRESS":"永華路二段６７５號","OBJECTID":256271},"geometry":{"x":165128.47000000067,"y":2543457.4900000002}},{"attributes":{"ID":256276,"DIS_CODE":0,"TOWNNAME":"永康區","LI":"安康里","LIN":"24鄰","STREET":"大橋一街","SECT":" ","MAREA":" ","LANE":" ","ALLEY":" ","HOUSE_NO":"１００號","E_COORD97":170781.07999999999,"N_COORD97":2546301.25,"ADDRESS":"大橋一街１００號","OBJECTID":256272},"geometry":{"x":170781.08000000194,"y":2546301.2500000019}},{"attributes":{"ID":256277,"DIS_CODE":0,"TOWNNAME":"永康區","LI":"安康里","LIN":"24鄰","STREET":"大橋一街","SECT":" ","MAREA":" ","LANE":" ","ALLEY":" ","HOUSE_NO":"９４號","E_COORD97":170758.73999999999,"N_COORD97":2546304,"ADDRESS":"大橋一街９４號","OBJECTID":256273},"geometry":{"x":170758.74000000115,"y":2546304.0000000019}},{"attributes":{"ID":256278,"DIS_CODE":0,"TOWNNAME":"仁德區","LI":"仁愛里","LIN":"27鄰","STREET":"亞航街","SECT":" ","MAREA":" ","LANE":"２５巷","ALLEY":" ","HOUSE_NO":"３８號","E_COORD97":169872.92739900001,"N_COORD97":2539352.08727,"ADDRESS":"亞航街２５巷３８號","OBJECTID":256274},"geometry":{"x":169872.92739900015,"y":2539352.0872649997}},{"attributes":{"ID":256279,"DIS_CODE":0,"TOWNNAME":"永康區","LI":"建國里","LIN":"27鄰","STREET":" ","SECT":" ","MAREA":"慈光九村","LANE":" ","ALLEY":" ","HOUSE_NO":"２２號","E_COORD97":172858.12,"N_COORD97":2544242,"ADDRESS":"慈光九村２２號","OBJECTID":256275},"geometry":{"x":172858.12000000104,"y":2544242.0000000019}},{"attributes":{"ID":256280,"DIS_CODE":0,"TOWNNAME":"仁德區","LI":"仁愛里","LIN":"27鄰","STREET":"大同路","SECT":"三段","MAREA":" ","LANE":" ","ALLEY":" ","HOUSE_NO":"５７９號","E_COORD97":169921.28,"N_COORD97":2538938.1200000001,"ADDRESS":"大同路三段５７９號","OBJECTID":256276},"geometry":{"x":169921.28000000026,"y":2538938.120000001}},{"attributes":{"ID":256281,"DIS_CODE":0,"TOWNNAME":"永康區","LI":"建國里","LIN":"27鄰","STREET":" ","SECT":" ","MAREA":"慈光九村","LANE":" ","ALLEY":" ","HOUSE_NO":"２５號","E_COORD97":172831.67999999999,"N_COORD97":2544244,"ADDRESS":"慈光九村２５號","OBJECTID":256277},"geometry":{"x":172831.68000000063,"y":2544244}},{"attributes":{"ID":256282,"DIS_CODE":0,"TOWNNAME":"永康區","LI":"東灣里","LIN":"27鄰","STREET":"民族路","SECT":" ","MAREA":" ","LANE":"１４５巷","ALLEY":" ","HOUSE_NO":"９３號","E_COORD97":175117.20000000001,"N_COORD97":2544679.8300000001,"ADDRESS":"民族路１４５巷９３號","OBJECTID":256278},"geometry":{"x":175117.20000000112,"y":2544679.8300000038}},{"attributes":{"ID":256283,"DIS_CODE":0,"TOWNNAME":"永康區","LI":"東灣里","LIN":"27鄰","STREET":"大灣一街","SECT":" ","MAREA":" ","LANE":"３１２巷","ALLEY":" ","HOUSE_NO":"８號","E_COORD97":175051.57999999999,"N_COORD97":2544684.4100000001,"ADDRESS":"大灣一街３１２巷８號","OBJECTID":256279},"geometry":{"x":175051.58000000101,"y":2544684.410000002}},{"attributes":{"ID":256284,"DIS_CODE":0,"TOWNNAME":"永康區","LI":"東灣里","LIN":"27鄰","STREET":"民族路","SECT":" ","MAREA":" ","LANE":"１４５巷","ALLEY":" ","HOUSE_NO":"９９號","E_COORD97":175107.12,"N_COORD97":2544673.5800000001,"ADDRESS":"民族路１４５巷９９號","OBJECTID":256280},"geometry":{"x":175107.12000000104,"y":2544673.5800000001}},{"attributes":{"ID":256285,"DIS_CODE":0,"TOWNNAME":"新市區","LI":"港墘里","LIN":"27鄰","STREET":"南昌街","SECT":" ","MAREA":" ","LANE":"３８巷","ALLEY":" ","HOUSE_NO":"２號","E_COORD97":178032.57000000001,"N_COORD97":2552933.75,"ADDRESS":"南昌街３８巷２號","OBJECTID":256281},"geometry":{"x":178032.5700000003,"y":2552933.7500000019}},{"attributes":{"ID":256286,"DIS_CODE":0,"TOWNNAME":"仁德區","LI":"上崙里","LIN":"27鄰","STREET":"上崙街","SECT":" ","MAREA":" ","LANE":"４０１巷","ALLEY":" ","HOUSE_NO":"２５號","E_COORD97":173114.82999999999,"N_COORD97":2537577.2400000002,"ADDRESS":"上崙街４０１巷２５號","OBJECTID":256282},"geometry":{"x":173114.83000000007,"y":2537577.2400000002}},{"attributes":{"ID":256287,"DIS_CODE":0,"TOWNNAME":"永康區","LI":"安康里","LIN":"24鄰","STREET":"大橋一街","SECT":" ","MAREA":" ","LANE":" ","ALLEY":" ","HOUSE_NO":"９０號","E_COORD97":170751.14999999999,"N_COORD97":2546284.7400000002,"ADDRESS":"大橋一街９０號","OBJECTID":256283},"geometry":{"x":170751.1500000013,"y":2546284.7400000021}},{"attributes":{"ID":256288,"DIS_CODE":0,"TOWNNAME":"永康區","LI":"永康里","LIN":"24鄰","STREET":"永正路","SECT":" ","MAREA":" ","LANE":" ","ALLEY":" ","HOUSE_NO":"２３號","E_COORD97":173560.92999999999,"N_COORD97":2547317.8599999999,"ADDRESS":"永正路２３號","OBJECTID":256284},"geometry":{"x":173560.93000000063,"y":2547317.8600000013}},{"attributes":{"ID":256289,"DIS_CODE":0,"TOWNNAME":"永康區","LI":"北灣里","LIN":"24鄰","STREET":"大灣路","SECT":" ","MAREA":" ","LANE":" ","ALLEY":" ","HOUSE_NO":"１９號","E_COORD97":175345.44,"N_COORD97":2545911.1099999999,"ADDRESS":"大灣路１９號","OBJECTID":256285},"geometry":{"x":175345.44000000041,"y":2545911.1099999975}},{"attributes":{"ID":256290,"DIS_CODE":0,"TOWNNAME":"永康區","LI":"永康里","LIN":"24鄰","STREET":"永正路","SECT":" ","MAREA":" ","LANE":" ","ALLEY":" ","HOUSE_NO":"１９號","E_COORD97":173559.84,"N_COORD97":2547309.73,"ADDRESS":"永正路１９號","OBJECTID":256286},"geometry":{"x":173559.84000000078,"y":2547309.7300000023}},{"attributes":{"ID":256291,"DIS_CODE":0,"TOWNNAME":"永康區","LI":"永康里","LIN":"24鄰","STREET":"永正路","SECT":" ","MAREA":" ","LANE":" ","ALLEY":" ","HOUSE_NO":"５７號","E_COORD97":173514.37,"N_COORD97":2547400.2400000002,"ADDRESS":"永正路５７號","OBJECTID":256287},"geometry":{"x":173514.37000000011,"y":2547400.2400000021}},{"attributes":{"ID":256292,"DIS_CODE":0,"TOWNNAME":"新營區","LI":"三仙里","LIN":"24鄰","STREET":"三興街","SECT":" ","MAREA":" ","LANE":" ","ALLEY":" ","HOUSE_NO":"５２之２號四樓之１","E_COORD97":179451.88,"N_COORD97":2578890.6899999999,"ADDRESS":"三興街５２之２號四樓之１","OBJECTID":256288},"geometry":{"x":179451.88000000082,"y":2578890.6900000013}},{"attributes":{"ID":256293,"DIS_CODE":0,"TOWNNAME":"新營區","LI":"三仙里","LIN":"24鄰","STREET":"三興街","SECT":" ","MAREA":" ","LANE":" ","ALLEY":" ","HOUSE_NO":"５２之２號六樓之２","E_COORD97":179452.01000000001,"N_COORD97":2578890.6899999999,"ADDRESS":"三興街５２之２號六樓之２","OBJECTID":256289},"geometry":{"x":179452.00999999885,"y":2578890.6900000013}},{"attributes":{"ID":256294,"DIS_CODE":0,"TOWNNAME":"新營區","LI":"忠政里","LIN":"24鄰","STREET":"健康路","SECT":" ","MAREA":" ","LANE":" ","ALLEY":" ","HOUSE_NO":"２９０號二樓之１","E_COORD97":179676.26000000001,"N_COORD97":2579613.1200000001,"ADDRESS":"健康路２９０號二樓之１","OBJECTID":256290},"geometry":{"x":179676.26000000071,"y":2579613.1199999992}},{"attributes":{"ID":256295,"DIS_CODE":0,"TOWNNAME":"白河區","LI":"永安里","LIN":"16鄰","STREET":"四維街","SECT":" ","MAREA":" ","LANE":" ","ALLEY":" ","HOUSE_NO":"１２之２號","E_COORD97":190023.911903,"N_COORD97":2583219.6702800002,"ADDRESS":"四維街１２之２號","OBJECTID":256291},"geometry":{"x":190023.91190300044,"y":2583219.670276003}},{"attributes":{"ID":256296,"DIS_CODE":0,"TOWNNAME":"永康區","LI":"東橋里","LIN":"17鄰","STREET":"東橋三路","SECT":" ","MAREA":" ","LANE":"４１２巷","ALLEY":" ","HOUSE_NO":"１號","E_COORD97":171402.01999999999,"N_COORD97":2547051.7000000002,"ADDRESS":"東橋三路４１２巷１號","OBJECTID":256292},"geometry":{"x":171402.02000000048,"y":2547051.6999999993}},{"attributes":{"ID":256297,"DIS_CODE":0,"TOWNNAME":"新市區","LI":"新和里","LIN":"22鄰","STREET":" ","SECT":" ","MAREA":"社皮","LANE":" ","ALLEY":" ","HOUSE_NO":"１７之１號","E_COORD97":176975.64999999999,"N_COORD97":2552474.5499999998,"ADDRESS":"社皮１７之１號","OBJECTID":256293},"geometry":{"x":176975.6500000013,"y":2552474.5500000026}},{"attributes":{"ID":256298,"DIS_CODE":0,"TOWNNAME":"新市區","LI":"新和里","LIN":"22鄰","STREET":" ","SECT":" ","MAREA":"社皮","LANE":" ","ALLEY":" ","HOUSE_NO":"１１號之１","E_COORD97":177080.67000000001,"N_COORD97":2552541.0499999998,"ADDRESS":"社皮１１號之１","OBJECTID":256294},"geometry":{"x":177080.66999999993,"y":2552541.0500000007}},{"attributes":{"ID":256299,"DIS_CODE":0,"TOWNNAME":"永康區","LI":"東橋里","LIN":"17鄰","STREET":"東橋三路","SECT":" ","MAREA":" ","LANE":"４１２巷","ALLEY":" ","HOUSE_NO":"３號","E_COORD97":171406.82999999999,"N_COORD97":2547057.04,"ADDRESS":"東橋三路４１２巷３號","OBJECTID":256295},"geometry":{"x":171406.83000000101,"y":2547057.0399999991}},{"attributes":{"ID":256300,"DIS_CODE":0,"TOWNNAME":"永康區","LI":"東橋里","LIN":"17鄰","STREET":"東橋三路","SECT":" ","MAREA":" ","LANE":"４１２巷","ALLEY":" ","HOUSE_NO":"５號","E_COORD97":171411.72,"N_COORD97":2547059.3199999998,"ADDRESS":"東橋三路４１２巷５號","OBJECTID":256296},"geometry":{"x":171411.71999999974,"y":2547059.3200000003}},{"attributes":{"ID":256301,"DIS_CODE":0,"TOWNNAME":"永康區","LI":"東橋里","LIN":"17鄰","STREET":"東橋三路","SECT":" ","MAREA":" ","LANE":"４１２巷","ALLEY":" ","HOUSE_NO":"７號","E_COORD97":171415.94,"N_COORD97":2547061.9399999999,"ADDRESS":"東橋三路４１２巷７號","OBJECTID":256297},"geometry":{"x":171415.94000000041,"y":2547061.9400000032}},{"attributes":{"ID":256302,"DIS_CODE":0,"TOWNNAME":"永康區","LI":"東橋里","LIN":"17鄰","STREET":"東橋三路","SECT":" ","MAREA":" ","LANE":"４１２巷","ALLEY":" ","HOUSE_NO":"９號","E_COORD97":171420.16,"N_COORD97":2547064.5600000001,"ADDRESS":"東橋三路４１２巷９號","OBJECTID":256298},"geometry":{"x":171420.16000000108,"y":2547064.5600000005}},{"attributes":{"ID":256303,"DIS_CODE":0,"TOWNNAME":"永康區","LI":"東橋里","LIN":"17鄰","STREET":"東橋三路","SECT":" ","MAREA":" ","LANE":"４１２巷","ALLEY":" ","HOUSE_NO":"１１號","E_COORD97":171424.98999999999,"N_COORD97":2547067.5499999998,"ADDRESS":"東橋三路４１２巷１１號","OBJECTID":256299},"geometry":{"x":171424.99000000115,"y":2547067.5500000026}},{"attributes":{"ID":256304,"DIS_CODE":0,"TOWNNAME":"永康區","LI":"東橋里","LIN":"17鄰","STREET":"東橋三路","SECT":" ","MAREA":" ","LANE":"４１２巷","ALLEY":" ","HOUSE_NO":"１３號","E_COORD97":171429.82000000001,"N_COORD97":2547070.5499999998,"ADDRESS":"東橋三路４１２巷１３號","OBJECTID":256300},"geometry":{"x":171429.8200000003,"y":2547070.5500000026}},{"attributes":{"ID":256305,"DIS_CODE":0,"TOWNNAME":"永康區","LI":"東橋里","LIN":"17鄰","STREET":"東橋三路","SECT":" ","MAREA":" ","LANE":"４１２巷","ALLEY":" ","HOUSE_NO":"１５號","E_COORD97":171434.04000000001,"N_COORD97":2547073.1699999999,"ADDRESS":"東橋三路４１２巷１５號","OBJECTID":256301},"geometry":{"x":171434.0400000019,"y":2547073.1699999999}},{"attributes":{"ID":256306,"DIS_CODE":0,"TOWNNAME":"永康區","LI":"東橋里","LIN":"17鄰","STREET":"東橋三路","SECT":" ","MAREA":" ","LANE":"４１２巷","ALLEY":" ","HOUSE_NO":"１７號","E_COORD97":171438.26999999999,"N_COORD97":2547075.7799999998,"ADDRESS":"東橋三路４１２巷１７號","OBJECTID":256302},"geometry":{"x":171438.26999999955,"y":2547075.7799999993}},{"attributes":{"ID":256307,"DIS_CODE":0,"TOWNNAME":"永康區","LI":"東橋里","LIN":"17鄰","STREET":"東橋三路","SECT":" ","MAREA":" ","LANE":"４１２巷","ALLEY":" ","HOUSE_NO":"１９號","E_COORD97":171442.51999999999,"N_COORD97":2547078.4199999999,"ADDRESS":"東橋三路４１２巷１９號","OBJECTID":256303},"geometry":{"x":171442.52000000048,"y":2547078.4199999999}},{"attributes":{"ID":256308,"DIS_CODE":0,"TOWNNAME":"永康區","LI":"東橋里","LIN":"17鄰","STREET":"東橋三路","SECT":" ","MAREA":" ","LANE":"４１２巷","ALLEY":" ","HOUSE_NO":"２１號","E_COORD97":171447.39000000001,"N_COORD97":2547082.2000000002,"ADDRESS":"東橋三路４１２巷２１號","OBJECTID":256304},"geometry":{"x":171447.38999999966,"y":2547082.1999999993}},{"attributes":{"ID":256309,"DIS_CODE":0,"TOWNNAME":"永康區","LI":"東橋里","LIN":"17鄰","STREET":"東橋三路","SECT":" ","MAREA":" ","LANE":"４１２巷","ALLEY":" ","HOUSE_NO":"２３號","E_COORD97":171452.35999999999,"N_COORD97":2547084.52,"ADDRESS":"東橋三路４１２巷２３號","OBJECTID":256305},"geometry":{"x":171452.3600000022,"y":2547084.5199999996}},{"attributes":{"ID":256310,"DIS_CODE":0,"TOWNNAME":"永康區","LI":"東橋里","LIN":"17鄰","STREET":"東橋三路","SECT":" ","MAREA":" ","LANE":"４１２巷","ALLEY":" ","HOUSE_NO":"２５號","E_COORD97":171456.57999999999,"N_COORD97":2547087.1400000001,"ADDRESS":"東橋三路４１２巷２５號","OBJECTID":256306},"geometry":{"x":171456.58000000101,"y":2547087.1400000006}},{"attributes":{"ID":256311,"DIS_CODE":0,"TOWNNAME":"永康區","LI":"東橋里","LIN":"17鄰","STREET":"東橋三路","SECT":" ","MAREA":" ","LANE":"４１２巷","ALLEY":" ","HOUSE_NO":"２７號","E_COORD97":171460.79999999999,"N_COORD97":2547089.7599999998,"ADDRESS":"東橋三路４１２巷２７號","OBJECTID":256307},"geometry":{"x":171460.80000000168,"y":2547089.7599999998}},{"attributes":{"ID":256312,"DIS_CODE":0,"TOWNNAME":"永康區","LI":"東橋里","LIN":"17鄰","STREET":"東橋三路","SECT":" ","MAREA":" ","LANE":"４１２巷","ALLEY":" ","HOUSE_NO":"２９號","E_COORD97":171465.56,"N_COORD97":2547093.4700000002,"ADDRESS":"東橋三路４１２巷２９號","OBJECTID":256308},"geometry":{"x":171465.56000000145,"y":2547093.4700000044}},{"attributes":{"ID":256313,"DIS_CODE":0,"TOWNNAME":"永康區","LI":"東橋里","LIN":"17鄰","STREET":"東橋三路","SECT":" ","MAREA":" ","LANE":"４１２巷","ALLEY":" ","HOUSE_NO":"３１號","E_COORD97":171470.45999999999,"N_COORD97":2547095.75,"ADDRESS":"東橋三路４１２巷３１號","OBJECTID":256309},"geometry":{"x":171470.46000000089,"y":2547095.7500000019}},{"attributes":{"ID":256314,"DIS_CODE":0,"TOWNNAME":"新營區","LI":"忠政里","LIN":"24鄰","STREET":"健康路","SECT":" ","MAREA":" ","LANE":" ","ALLEY":" ","HOUSE_NO":"２９０號二樓之１０","E_COORD97":179677.57000000001,"N_COORD97":2579613.1200000001,"ADDRESS":"健康路２９０號二樓之１０","OBJECTID":256310},"geometry":{"x":179677.5700000003,"y":2579613.1199999992}},{"attributes":{"ID":256315,"DIS_CODE":0,"TOWNNAME":"南區","LI":"文南里","LIN":"22鄰","STREET":"中華西路","SECT":"一段","MAREA":" ","LANE":"１０９巷","ALLEY":" ","HOUSE_NO":"８號","E_COORD97":166390.59,"N_COORD97":2542442.9100000001,"ADDRESS":"中華西路一段１０９巷８號","OBJECTID":256311},"geometry":{"x":166390.59000000078,"y":2542442.910000002}},{"attributes":{"ID":256316,"DIS_CODE":0,"TOWNNAME":"南區","LI":"文南里","LIN":"22鄰","STREET":"中華西路","SECT":"一段","MAREA":" ","LANE":"１３７巷","ALLEY":" ","HOUSE_NO":"１號","E_COORD97":166468.60000000001,"N_COORD97":2542466.27,"ADDRESS":"中華西路一段１３７巷１號","OBJECTID":256312},"geometry":{"x":166468.60000000056,"y":2542466.2700000014}},{"attributes":{"ID":256317,"DIS_CODE":0,"TOWNNAME":"南區","LI":"文南里","LIN":"22鄰","STREET":"中華西路","SECT":"一段","MAREA":" ","LANE":"１３７巷","ALLEY":" ","HOUSE_NO":"３號","E_COORD97":166464.32999999999,"N_COORD97":2542466.98,"ADDRESS":"中華西路一段１３７巷３號","OBJECTID":256313},"geometry":{"x":166464.33000000007,"y":2542466.9800000004}},{"attributes":{"ID":256318,"DIS_CODE":0,"TOWNNAME":"南區","LI":"文南里","LIN":"22鄰","STREET":"中華西路","SECT":"一段","MAREA":" ","LANE":"１３７巷","ALLEY":" ","HOUSE_NO":"５號","E_COORD97":166459.78,"N_COORD97":2542466.98,"ADDRESS":"中華西路一段１３７巷５號","OBJECTID":256314},"geometry":{"x":166459.78000000026,"y":2542466.9800000004}},{"attributes":{"ID":256319,"DIS_CODE":0,"TOWNNAME":"南區","LI":"文南里","LIN":"22鄰","STREET":"中華西路","SECT":"一段","MAREA":" ","LANE":"１３７巷","ALLEY":" ","HOUSE_NO":"７號","E_COORD97":166454.17000000001,"N_COORD97":2542467.25,"ADDRESS":"中華西路一段１３７巷７號","OBJECTID":256315},"geometry":{"x":166454.17000000179,"y":2542467.2500000019}},{"attributes":{"ID":256320,"DIS_CODE":0,"TOWNNAME":"永康區","LI":"東橋里","LIN":"17鄰","STREET":"東橋三路","SECT":" ","MAREA":" ","LANE":"４１２巷","ALLEY":" ","HOUSE_NO":"３３號","E_COORD97":171474.67999999999,"N_COORD97":2547098.3700000001,"ADDRESS":"東橋三路４１２巷３３號","OBJECTID":256316},"geometry":{"x":171474.6799999997,"y":2547098.3700000029}},{"attributes":{"ID":256321,"DIS_CODE":0,"TOWNNAME":"永康區","LI":"東橋里","LIN":"17鄰","STREET":"東橋三路","SECT":" ","MAREA":" ","LANE":"４１２巷","ALLEY":" ","HOUSE_NO":"３５號","E_COORD97":171480.51000000001,"N_COORD97":2547100.3799999999,"ADDRESS":"東橋三路４１２巷３５號","OBJECTID":256317},"geometry":{"x":171480.50999999978,"y":2547100.3800000008}},{"attributes":{"ID":256322,"DIS_CODE":0,"TOWNNAME":"永康區","LI":"東橋里","LIN":"17鄰","STREET":"東橋三路","SECT":" ","MAREA":" ","LANE":"４１２巷","ALLEY":" ","HOUSE_NO":"２號","E_COORD97":171413.39000000001,"N_COORD97":2547034.0499999998,"ADDRESS":"東橋三路４１２巷２號","OBJECTID":256318},"geometry":{"x":171413.38999999966,"y":2547034.0500000007}},{"attributes":{"ID":256323,"DIS_CODE":0,"TOWNNAME":"永康區","LI":"東橋里","LIN":"17鄰","STREET":"東橋三路","SECT":" ","MAREA":" ","LANE":"４１２巷","ALLEY":" ","HOUSE_NO":"６號","E_COORD97":171418.48000000001,"N_COORD97":2547037.9199999999,"ADDRESS":"東橋三路４１２巷６號","OBJECTID":256319},"geometry":{"x":171418.48000000138,"y":2547037.9199999999}},{"attributes":{"ID":256324,"DIS_CODE":0,"TOWNNAME":"永康區","LI":"東橋里","LIN":"17鄰","STREET":"東橋三路","SECT":" ","MAREA":" ","LANE":"４１２巷","ALLEY":" ","HOUSE_NO":"８號","E_COORD97":171422.22,"N_COORD97":2547040.2400000002,"ADDRESS":"東橋三路４１２巷８號","OBJECTID":256320},"geometry":{"x":171422.2200000016,"y":2547040.2400000039}},{"attributes":{"ID":256325,"DIS_CODE":0,"TOWNNAME":"永康區","LI":"東橋里","LIN":"17鄰","STREET":"東橋三路","SECT":" ","MAREA":" ","LANE":"４１２巷","ALLEY":" ","HOUSE_NO":"１０號","E_COORD97":171427.89999999999,"N_COORD97":2547041.1099999999,"ADDRESS":"東橋三路４１２巷１０號","OBJECTID":256321},"geometry":{"x":171427.90000000037,"y":2547041.1100000013}},{"attributes":{"ID":256326,"DIS_CODE":0,"TOWNNAME":"永康區","LI":"東橋里","LIN":"17鄰","STREET":"東橋三路","SECT":" ","MAREA":" ","LANE":"４１２巷","ALLEY":" ","HOUSE_NO":"１２號","E_COORD97":171431.95000000001,"N_COORD97":2547046.2799999998,"ADDRESS":"東橋三路４１２巷１２號","OBJECTID":256322},"geometry":{"x":171431.95000000112,"y":2547046.2800000012}},{"attributes":{"ID":256327,"DIS_CODE":0,"TOWNNAME":"永康區","LI":"東橋里","LIN":"17鄰","STREET":"東橋三路","SECT":" ","MAREA":" ","LANE":"４１２巷","ALLEY":" ","HOUSE_NO":"１６號","E_COORD97":171435.69,"N_COORD97":2547048.6000000001,"ADDRESS":"東橋三路４１２巷１６號","OBJECTID":256323},"geometry":{"x":171435.69000000134,"y":2547048.6000000015}},{"attributes":{"ID":256328,"DIS_CODE":0,"TOWNNAME":"永康區","LI":"東橋里","LIN":"17鄰","STREET":"東橋三路","SECT":" ","MAREA":" ","LANE":"４１２巷","ALLEY":" ","HOUSE_NO":"１８號","E_COORD97":171441.37,"N_COORD97":2547049.4700000002,"ADDRESS":"東橋三路４１２巷１８號","OBJECTID":256324},"geometry":{"x":171441.37000000011,"y":2547049.4700000044}},{"attributes":{"ID":256329,"DIS_CODE":0,"TOWNNAME":"永康區","LI":"東橋里","LIN":"17鄰","STREET":"東橋三路","SECT":" ","MAREA":" ","LANE":"４１２巷","ALLEY":" ","HOUSE_NO":"２０號","E_COORD97":171445.42000000001,"N_COORD97":2547054.6299999999,"ADDRESS":"東橋三路４１２巷２０號","OBJECTID":256325},"geometry":{"x":171445.42000000086,"y":2547054.6300000008}},{"attributes":{"ID":256330,"DIS_CODE":0,"TOWNNAME":"仁德區","LI":"仁愛里","LIN":"27鄰","STREET":"亞航街","SECT":" ","MAREA":" ","LANE":" ","ALLEY":" ","HOUSE_NO":"４３號","E_COORD97":169893.26527900001,"N_COORD97":2539242.8511999999,"ADDRESS":"亞航街４３號","OBJECTID":256326},"geometry":{"x":169893.26527899969,"y":2539242.8512020018}},{"attributes":{"ID":256331,"DIS_CODE":0,"TOWNNAME":"歸仁區","LI":"辜厝里","LIN":"24鄰","STREET":"大順街","SECT":" ","MAREA":" ","LANE":" ","ALLEY":" ","HOUSE_NO":"４９號七樓之２","E_COORD97":177399.92999999999,"N_COORD97":2540595.1600000001,"ADDRESS":"大順街４９號七樓之２","OBJECTID":256327},"geometry":{"x":177399.93000000063,"y":2540595.1600000001}},{"attributes":{"ID":256332,"DIS_CODE":0,"TOWNNAME":"歸仁區","LI":"辜厝里","LIN":"24鄰","STREET":"大順街","SECT":" ","MAREA":" ","LANE":" ","ALLEY":" ","HOUSE_NO":"４９號六樓之１","E_COORD97":177399.91,"N_COORD97":2540595.1600000001,"ADDRESS":"大順街４９號六樓之１","OBJECTID":256328},"geometry":{"x":177399.91000000015,"y":2540595.1600000001}},{"attributes":{"ID":256333,"DIS_CODE":0,"TOWNNAME":"安平區","LI":"國平里","LIN":"24鄰","STREET":"建平七街","SECT":" ","MAREA":" ","LANE":" ","ALLEY":" ","HOUSE_NO":"６７７號七樓之１","E_COORD97":164850.32999999999,"N_COORD97":2543412.3599999999,"ADDRESS":"建平七街６７７號七樓之１","OBJECTID":256329},"geometry":{"x":164850.33000000101,"y":2543412.3600000013}},{"attributes":{"ID":256334,"DIS_CODE":0,"TOWNNAME":"安平區","LI":"國平里","LIN":"24鄰","STREET":"建平七街","SECT":" ","MAREA":" ","LANE":" ","ALLEY":" ","HOUSE_NO":"６７７號七樓之１０","E_COORD97":164850.32999999999,"N_COORD97":2543412.3599999999,"ADDRESS":"建平七街６７７號七樓之１０","OBJECTID":256330},"geometry":{"x":164850.33000000101,"y":2543412.3600000013}},{"attributes":{"ID":256335,"DIS_CODE":0,"TOWNNAME":"玉井區","LI":"玉井里","LIN":"14鄰","STREET":"中正路","SECT":" ","MAREA":" ","LANE":" ","ALLEY":" ","HOUSE_NO":"１４２號","E_COORD97":194898,"N_COORD97":2558199.1499999999,"ADDRESS":"中正路１４２號","OBJECTID":256331},"geometry":{"x":194898.00000000093,"y":2558199.1500000022}},{"attributes":{"ID":256336,"DIS_CODE":0,"TOWNNAME":"永康區","LI":"建國里","LIN":"27鄰","STREET":" ","SECT":" ","MAREA":"慈光九村","LANE":" ","ALLEY":" ","HOUSE_NO":"２７號","E_COORD97":172813.64999999999,"N_COORD97":2544245,"ADDRESS":"慈光九村２７號","OBJECTID":256332},"geometry":{"x":172813.6500000013,"y":2544245.0000000019}},{"attributes":{"ID":256337,"DIS_CODE":0,"TOWNNAME":"永康區","LI":"建國里","LIN":"27鄰","STREET":" ","SECT":" ","MAREA":"慈光九村","LANE":" ","ALLEY":" ","HOUSE_NO":"２４號","E_COORD97":172839.76000000001,"N_COORD97":2544243.5,"ADDRESS":"慈光九村２４號","OBJECTID":256333},"geometry":{"x":172839.76000000071,"y":2544243.5}},{"attributes":{"ID":256338,"DIS_CODE":0,"TOWNNAME":"安南區","LI":"溪頂里","LIN":"27鄰","STREET":"郡安路","SECT":"四段","MAREA":" ","LANE":"２７８巷","ALLEY":" ","HOUSE_NO":"５號","E_COORD97":168584.48999999999,"N_COORD97":2547625.5800000001,"ADDRESS":"郡安路四段２７８巷５號","OBJECTID":256334},"geometry":{"x":168584.49000000022,"y":2547625.5800000019}},{"attributes":{"ID":256339,"DIS_CODE":0,"TOWNNAME":"安南區","LI":"溪頂里","LIN":"27鄰","STREET":"郡安路","SECT":"四段","MAREA":" ","LANE":"２７８巷","ALLEY":" ","HOUSE_NO":"７號","E_COORD97":168585.79999999999,"N_COORD97":2547617.4700000002,"ADDRESS":"郡安路四段２７８巷７號","OBJECTID":256335},"geometry":{"x":168585.80000000168,"y":2547617.4700000007}},{"attributes":{"ID":256340,"DIS_CODE":0,"TOWNNAME":"安南區","LI":"溪頂里","LIN":"27鄰","STREET":"郡安路","SECT":"四段","MAREA":" ","LANE":"２７８巷","ALLEY":" ","HOUSE_NO":"９號","E_COORD97":168587.10999999999,"N_COORD97":2547608.77,"ADDRESS":"郡安路四段２７８巷９號","OBJECTID":256336},"geometry":{"x":168587.11000000034,"y":2547608.7699999977}},{"attributes":{"ID":256341,"DIS_CODE":0,"TOWNNAME":"永康區","LI":"東灣里","LIN":"27鄰","STREET":"大灣一街","SECT":" ","MAREA":" ","LANE":"３１２巷","ALLEY":" ","HOUSE_NO":"１０號","E_COORD97":175055.03,"N_COORD97":2544680.9100000001,"ADDRESS":"大灣一街３１２巷１０號","OBJECTID":256337},"geometry":{"x":175055.02999999933,"y":2544680.910000002}},{"attributes":{"ID":256342,"DIS_CODE":0,"TOWNNAME":"永康區","LI":"東灣里","LIN":"27鄰","STREET":"大灣一街","SECT":" ","MAREA":" ","LANE":"３１２巷","ALLEY":" ","HOUSE_NO":"１９號","E_COORD97":175078.16,"N_COORD97":2544675.4700000002,"ADDRESS":"大灣一街３１２巷１９號","OBJECTID":256338},"geometry":{"x":175078.16000000108,"y":2544675.4700000007}},{"attributes":{"ID":256343,"DIS_CODE":0,"TOWNNAME":"安平區","LI":"國平里","LIN":"24鄰","STREET":"建平七街","SECT":" ","MAREA":" ","LANE":" ","ALLEY":" ","HOUSE_NO":"６７７號七樓之１１","E_COORD97":164850.32999999999,"N_COORD97":2543412.3599999999,"ADDRESS":"建平七街６７７號七樓之１１","OBJECTID":256339},"geometry":{"x":164850.33000000101,"y":2543412.3600000013}},{"attributes":{"ID":256344,"DIS_CODE":0,"TOWNNAME":"安平區","LI":"國平里","LIN":"24鄰","STREET":"建平七街","SECT":" ","MAREA":" ","LANE":" ","ALLEY":" ","HOUSE_NO":"６７７號七樓之２","E_COORD97":164850.32999999999,"N_COORD97":2543412.3599999999,"ADDRESS":"建平七街６７７號七樓之２","OBJECTID":256340},"geometry":{"x":164850.33000000101,"y":2543412.3600000013}},{"attributes":{"ID":256345,"DIS_CODE":0,"TOWNNAME":"安平區","LI":"國平里","LIN":"24鄰","STREET":"建平七街","SECT":" ","MAREA":" ","LANE":" ","ALLEY":" ","HOUSE_NO":"６７７號七樓之３","E_COORD97":164850.32999999999,"N_COORD97":2543412.3599999999,"ADDRESS":"建平七街６７７號七樓之３","OBJECTID":256341},"geometry":{"x":164850.33000000101,"y":2543412.3600000013}},{"attributes":{"ID":256346,"DIS_CODE":0,"TOWNNAME":"安平區","LI":"國平里","LIN":"24鄰","STREET":"建平七街","SECT":" ","MAREA":" ","LANE":" ","ALLEY":" ","HOUSE_NO":"６７７號七樓之４","E_COORD97":164850.32999999999,"N_COORD97":2543412.3599999999,"ADDRESS":"建平七街６７７號七樓之４","OBJECTID":256342},"geometry":{"x":164850.33000000101,"y":2543412.3600000013}},{"attributes":{"ID":256347,"DIS_CODE":0,"TOWNNAME":"南區","LI":"廣州里","LIN":"27鄰","STREET":"夏林路","SECT":" ","MAREA":" ","LANE":" ","ALLEY":" ","HOUSE_NO":"３２號","E_COORD97":167440.04999999999,"N_COORD97":2542738.6699999999,"ADDRESS":"夏林路３２號","OBJECTID":256343},"geometry":{"x":167440.05000000075,"y":2542738.6700000018}},{"attributes":{"ID":256348,"DIS_CODE":0,"TOWNNAME":"永康區","LI":"西勢里","LIN":"27鄰","STREET":"廣興街","SECT":" ","MAREA":" ","LANE":"３８巷","ALLEY":" ","HOUSE_NO":"３２號","E_COORD97":176029.88,"N_COORD97":2546439.7400000002,"ADDRESS":"廣興街３８巷３２號","OBJECTID":256344},"geometry":{"x":176029.87999999989,"y":2546439.7400000002}},{"attributes":{"ID":256349,"DIS_CODE":0,"TOWNNAME":"永康區","LI":"西灣里","LIN":"27鄰","STREET":"公園路","SECT":" ","MAREA":" ","LANE":"６３巷","ALLEY":" ","HOUSE_NO":"５１號","E_COORD97":174370.95000000001,"N_COORD97":2545822.6699999999,"ADDRESS":"公園路６３巷５１號","OBJECTID":256345},"geometry":{"x":174370.95000000112,"y":2545822.6699999999}},{"attributes":{"ID":256350,"DIS_CODE":0,"TOWNNAME":"永康區","LI":"西勢里","LIN":"27鄰","STREET":"廣興街","SECT":" ","MAREA":" ","LANE":"３８巷","ALLEY":" ","HOUSE_NO":"３０號","E_COORD97":176026.45000000001,"N_COORD97":2546442.2400000002,"ADDRESS":"廣興街３８巷３０號","OBJECTID":256346},"geometry":{"x":176026.45000000019,"y":2546442.2400000002}},{"attributes":{"ID":256351,"DIS_CODE":0,"TOWNNAME":"南區","LI":"文南里","LIN":"27鄰","STREET":"健康路","SECT":"二段","MAREA":" ","LANE":"５３３巷","ALLEY":" ","HOUSE_NO":"１０號","E_COORD97":166193.82999999999,"N_COORD97":2542528.73,"ADDRESS":"健康路二段５３３巷１０號","OBJECTID":256347},"geometry":{"x":166193.83000000194,"y":2542528.7300000023}},{"attributes":{"ID":256352,"DIS_CODE":0,"TOWNNAME":"永康區","LI":"東橋里","LIN":"17鄰","STREET":"東橋三路","SECT":" ","MAREA":" ","LANE":"４１２巷","ALLEY":" ","HOUSE_NO":"２２號","E_COORD97":171449.16,"N_COORD97":2547056.9500000002,"ADDRESS":"東橋三路４１２巷２２號","OBJECTID":256348},"geometry":{"x":171449.16000000108,"y":2547056.9499999993}},{"attributes":{"ID":256353,"DIS_CODE":0,"TOWNNAME":"永康區","LI":"東橋里","LIN":"17鄰","STREET":"東橋三路","SECT":" ","MAREA":" ","LANE":"４１２巷","ALLEY":" ","HOUSE_NO":"２６號","E_COORD97":171454.89000000001,"N_COORD97":2547057.8500000001,"ADDRESS":"東橋三路４１２巷２６號","OBJECTID":256349},"geometry":{"x":171454.89000000153,"y":2547057.8499999996}},{"attributes":{"ID":256354,"DIS_CODE":0,"TOWNNAME":"安平區","LI":"國平里","LIN":"24鄰","STREET":"建平七街","SECT":" ","MAREA":" ","LANE":" ","ALLEY":" ","HOUSE_NO":"６７７號七樓之５","E_COORD97":164850.32999999999,"N_COORD97":2543412.3599999999,"ADDRESS":"建平七街６７７號七樓之５","OBJECTID":256350},"geometry":{"x":164850.33000000101,"y":2543412.3600000013}},{"attributes":{"ID":256355,"DIS_CODE":0,"TOWNNAME":"安平區","LI":"國平里","LIN":"24鄰","STREET":"建平七街","SECT":" ","MAREA":" ","LANE":" ","ALLEY":" ","HOUSE_NO":"６７７號七樓之６","E_COORD97":164850.32999999999,"N_COORD97":2543412.3599999999,"ADDRESS":"建平七街６７７號七樓之６","OBJECTID":256351},"geometry":{"x":164850.33000000101,"y":2543412.3600000013}},{"attributes":{"ID":256356,"DIS_CODE":0,"TOWNNAME":"安平區","LI":"國平里","LIN":"24鄰","STREET":"建平七街","SECT":" ","MAREA":" ","LANE":" ","ALLEY":" ","HOUSE_NO":"６７７號七樓之７","E_COORD97":164850.32999999999,"N_COORD97":2543412.3599999999,"ADDRESS":"建平七街６７７號七樓之７","OBJECTID":256352},"geometry":{"x":164850.33000000101,"y":2543412.3600000013}},{"attributes":{"ID":256357,"DIS_CODE":0,"TOWNNAME":"安平區","LI":"國平里","LIN":"24鄰","STREET":"建平七街","SECT":" ","MAREA":" ","LANE":" ","ALLEY":" ","HOUSE_NO":"６７７號七樓之８","E_COORD97":164850.32999999999,"N_COORD97":2543412.3599999999,"ADDRESS":"建平七街６７７號七樓之８","OBJECTID":256353},"geometry":{"x":164850.33000000101,"y":2543412.3600000013}},{"attributes":{"ID":256358,"DIS_CODE":0,"TOWNNAME":"關廟區","LI":"香洋里","LIN":"6鄰","STREET":"忠孝街","SECT":" ","MAREA":" ","LANE":"９０巷","ALLEY":" ","HOUSE_NO":"６號","E_COORD97":181030.72267700001,"N_COORD97":2540209.59876,"ADDRESS":"忠孝街９０巷６號","OBJECTID":256354},"geometry":{"x":181030.7226770008,"y":2540209.5987580009}},{"attributes":{"ID":256359,"DIS_CODE":0,"TOWNNAME":"南區","LI":"文南里","LIN":"27鄰","STREET":"中華西路","SECT":"一段","MAREA":" ","LANE":"１３７巷","ALLEY":" ","HOUSE_NO":"７２號","E_COORD97":166286.95999999999,"N_COORD97":2542500.7400000002,"ADDRESS":"中華西路一段１３７巷７２號","OBJECTID":256355},"geometry":{"x":166286.95999999996,"y":2542500.7400000039}},{"attributes":{"ID":256360,"DIS_CODE":0,"TOWNNAME":"永康區","LI":"東橋里","LIN":"17鄰","STREET":"東橋三路","SECT":" ","MAREA":" ","LANE":"４１２巷","ALLEY":" ","HOUSE_NO":"２８號","E_COORD97":171459.07000000001,"N_COORD97":2547063.0899999999,"ADDRESS":"東橋三路４１２巷２８號","OBJECTID":256356},"geometry":{"x":171459.0700000003,"y":2547063.0899999999}},{"attributes":{"ID":256361,"DIS_CODE":0,"TOWNNAME":"永康區","LI":"東橋里","LIN":"17鄰","STREET":"東橋三路","SECT":" ","MAREA":" ","LANE":"４１２巷","ALLEY":" ","HOUSE_NO":"３０號","E_COORD97":171464.78,"N_COORD97":2547063.9900000002,"ADDRESS":"東橋三路４１２巷３０號","OBJECTID":256357},"geometry":{"x":171464.78000000212,"y":2547063.9900000021}},{"attributes":{"ID":256362,"DIS_CODE":0,"TOWNNAME":"永康區","LI":"東橋里","LIN":"17鄰","STREET":"東橋三路","SECT":" ","MAREA":" ","LANE":"４１２巷","ALLEY":" ","HOUSE_NO":"３２號","E_COORD97":171468.09,"N_COORD97":2547068.6800000002,"ADDRESS":"東橋三路４１２巷３２號","OBJECTID":256358},"geometry":{"x":171468.09000000078,"y":2547068.6800000016}},{"attributes":{"ID":256363,"DIS_CODE":0,"TOWNNAME":"永康區","LI":"東橋里","LIN":"17鄰","STREET":"東橋三路","SECT":" ","MAREA":" ","LANE":"４１２巷","ALLEY":" ","HOUSE_NO":"３６號","E_COORD97":171471.82000000001,"N_COORD97":2547071,"ADDRESS":"東橋三路４１２巷３６號","OBJECTID":256359},"geometry":{"x":171471.82000000123,"y":2547071}},{"attributes":{"ID":256364,"DIS_CODE":0,"TOWNNAME":"永康區","LI":"東橋里","LIN":"17鄰","STREET":"東橋三路","SECT":" ","MAREA":" ","LANE":"４１２巷","ALLEY":" ","HOUSE_NO":"３８號","E_COORD97":171478.26000000001,"N_COORD97":2547071.5899999999,"ADDRESS":"東橋三路４１２巷３８號","OBJECTID":256360},"geometry":{"x":171478.26000000071,"y":2547071.5900000036}},{"attributes":{"ID":256365,"DIS_CODE":0,"TOWNNAME":"永康區","LI":"東橋里","LIN":"17鄰","STREET":"東橋三路","SECT":" ","MAREA":" ","LANE":"４１２巷","ALLEY":" ","HOUSE_NO":"４０號","E_COORD97":171482.29000000001,"N_COORD97":2547077.4900000002,"ADDRESS":"東橋三路４１２巷４０號","OBJECTID":256361},"geometry":{"x":171482.29000000004,"y":2547077.4900000021}},{"attributes":{"ID":256366,"DIS_CODE":0,"TOWNNAME":"永康區","LI":"東橋里","LIN":"17鄰","STREET":"東橋三路","SECT":" ","MAREA":" ","LANE":"４１２巷","ALLEY":" ","HOUSE_NO":"４２號","E_COORD97":171486.03,"N_COORD97":2547079.8100000001,"ADDRESS":"東橋三路４１２巷４２號","OBJECTID":256362},"geometry":{"x":171486.03000000026,"y":2547079.8100000005}},{"attributes":{"ID":256367,"DIS_CODE":0,"TOWNNAME":"永康區","LI":"東橋里","LIN":"17鄰","STREET":"東橋三路","SECT":" ","MAREA":" ","LANE":"４１２巷","ALLEY":" ","HOUSE_NO":"４６號","E_COORD97":171491.92000000001,"N_COORD97":2547082.2200000002,"ADDRESS":"東橋三路４１２巷４６號","OBJECTID":256363},"geometry":{"x":171491.91999999993,"y":2547082.2200000025}},{"attributes":{"ID":256368,"DIS_CODE":0,"TOWNNAME":"永康區","LI":"東橋里","LIN":"17鄰","STREET":"東橋三路","SECT":" ","MAREA":" ","LANE":"４３０巷","ALLEY":" ","HOUSE_NO":"１號","E_COORD97":171385.54000000001,"N_COORD97":2547081.8500000001,"ADDRESS":"東橋三路４３０巷１號","OBJECTID":256364},"geometry":{"x":171385.54000000097,"y":2547081.8499999996}},{"attributes":{"ID":256369,"DIS_CODE":0,"TOWNNAME":"永康區","LI":"東橋里","LIN":"17鄰","STREET":"東橋三路","SECT":" ","MAREA":" ","LANE":"４３０巷","ALLEY":" ","HOUSE_NO":"３號","E_COORD97":171390.20999999999,"N_COORD97":2547084.8100000001,"ADDRESS":"東橋三路４３０巷３號","OBJECTID":256365},"geometry":{"x":171390.20999999903,"y":2547084.8100000024}},{"attributes":{"ID":256370,"DIS_CODE":0,"TOWNNAME":"永康區","LI":"東橋里","LIN":"17鄰","STREET":"東橋三路","SECT":" ","MAREA":" ","LANE":"４３０巷","ALLEY":" ","HOUSE_NO":"５號","E_COORD97":171395.53,"N_COORD97":2547083.8700000001,"ADDRESS":"東橋三路４３０巷５號","OBJECTID":256366},"geometry":{"x":171395.53000000119,"y":2547083.870000001}},{"attributes":{"ID":256371,"DIS_CODE":0,"TOWNNAME":"永康區","LI":"東橋里","LIN":"17鄰","STREET":"東橋三路","SECT":" ","MAREA":" ","LANE":"４３０巷","ALLEY":" ","HOUSE_NO":"７號","E_COORD97":171397.76999999999,"N_COORD97":2547086.8500000001,"ADDRESS":"東橋三路４３０巷７號","OBJECTID":256367},"geometry":{"x":171397.76999999955,"y":2547086.8500000015}},{"attributes":{"ID":256372,"DIS_CODE":0,"TOWNNAME":"永康區","LI":"東橋里","LIN":"17鄰","STREET":"東橋三路","SECT":" ","MAREA":" ","LANE":"４３０巷","ALLEY":" ","HOUSE_NO":"９號","E_COORD97":171402.31,"N_COORD97":2547089.6699999999,"ADDRESS":"東橋三路４３０巷９號","OBJECTID":256368},"geometry":{"x":171402.30999999959,"y":2547089.6699999999}},{"attributes":{"ID":256373,"DIS_CODE":0,"TOWNNAME":"永康區","LI":"東橋里","LIN":"17鄰","STREET":"東橋三路","SECT":" ","MAREA":" ","LANE":"４３０巷","ALLEY":" ","HOUSE_NO":"１１號","E_COORD97":171405.07000000001,"N_COORD97":2547092.9700000002,"ADDRESS":"東橋三路４３０巷１１號","OBJECTID":256369},"geometry":{"x":171405.06999999937,"y":2547092.9700000007}},{"attributes":{"ID":256374,"DIS_CODE":0,"TOWNNAME":"安平區","LI":"國平里","LIN":"24鄰","STREET":"建平七街","SECT":" ","MAREA":" ","LANE":" ","ALLEY":" ","HOUSE_NO":"６７７號七樓之９","E_COORD97":164850.32999999999,"N_COORD97":2543412.3599999999,"ADDRESS":"建平七街６７７號七樓之９","OBJECTID":256370},"geometry":{"x":164850.33000000101,"y":2543412.3600000013}},{"attributes":{"ID":256375,"DIS_CODE":0,"TOWNNAME":"仁德區","LI":"仁愛里","LIN":"27鄰","STREET":"大同路","SECT":"三段","MAREA":" ","LANE":" ","ALLEY":" ","HOUSE_NO":"５９７號","E_COORD97":169927.95000000001,"N_COORD97":2538902.7200000002,"ADDRESS":"大同路三段５９７號","OBJECTID":256371},"geometry":{"x":169927.95000000112,"y":2538902.7200000007}},{"attributes":{"ID":256376,"DIS_CODE":0,"TOWNNAME":"仁德區","LI":"仁愛里","LIN":"27鄰","STREET":"大同路","SECT":"三段","MAREA":" ","LANE":" ","ALLEY":" ","HOUSE_NO":"４３５號","E_COORD97":169862.43294,"N_COORD97":2539180.2140299999,"ADDRESS":"大同路三段４３５號","OBJECTID":256372},"geometry":{"x":169862.43294000067,"y":2539180.2140249982}},{"attributes":{"ID":256377,"DIS_CODE":0,"TOWNNAME":"仁德區","LI":"仁愛里","LIN":"27鄰","STREET":"大同路","SECT":"三段","MAREA":" ","LANE":" ","ALLEY":" ","HOUSE_NO":"５９１號","E_COORD97":169925.95000000001,"N_COORD97":2538914.2200000002,"ADDRESS":"大同路三段５９１號","OBJECTID":256373},"geometry":{"x":169925.95000000205,"y":2538914.2200000044}},{"attributes":{"ID":256378,"DIS_CODE":0,"TOWNNAME":"仁德區","LI":"仁愛里","LIN":"27鄰","STREET":"大同路","SECT":"三段","MAREA":" ","LANE":" ","ALLEY":" ","HOUSE_NO":"５９５號","E_COORD97":169927.31,"N_COORD97":2538906.4199999999,"ADDRESS":"大同路三段５９５號","OBJECTID":256374},"geometry":{"x":169927.30999999959,"y":2538906.4200000018}},{"attributes":{"ID":256379,"DIS_CODE":0,"TOWNNAME":"仁德區","LI":"仁愛里","LIN":"27鄰","STREET":"大同路","SECT":"三段","MAREA":" ","LANE":" ","ALLEY":" ","HOUSE_NO":"６０３號","E_COORD97":169930.51999999999,"N_COORD97":2538888.9500000002,"ADDRESS":"大同路三段６０３號","OBJECTID":256375},"geometry":{"x":169930.52000000048,"y":2538888.9500000011}},{"attributes":{"ID":256380,"DIS_CODE":0,"TOWNNAME":"仁德區","LI":"仁愛里","LIN":"27鄰","STREET":"大同路","SECT":"三段","MAREA":" ","LANE":" ","ALLEY":" ","HOUSE_NO":"６０７號","E_COORD97":169965.93164600001,"N_COORD97":2538885.2337699998,"ADDRESS":"大同路三段６０７號","OBJECTID":256376},"geometry":{"x":169965.93164599966,"y":2538885.2337680012}},{"attributes":{"ID":256381,"DIS_CODE":0,"TOWNNAME":"東區","LI":"忠孝里","LIN":"27鄰","STREET":"榮譽街","SECT":" ","MAREA":" ","LANE":"８４巷","ALLEY":" ","HOUSE_NO":"１號","E_COORD97":169754.26000000001,"N_COORD97":2541668.0800000001,"ADDRESS":"榮譽街８４巷１號","OBJECTID":256377},"geometry":{"x":169754.26000000071,"y":2541668.0800000019}},{"attributes":{"ID":256382,"DIS_CODE":0,"TOWNNAME":"東區","LI":"忠孝里","LIN":"27鄰","STREET":"榮譽街","SECT":" ","MAREA":" ","LANE":"８４巷","ALLEY":" ","HOUSE_NO":"５號","E_COORD97":169770.25,"N_COORD97":2541675.75,"ADDRESS":"榮譽街８４巷５號","OBJECTID":256378},"geometry":{"x":169770.25000000093,"y":2541675.75}},{"attributes":{"ID":256383,"DIS_CODE":0,"TOWNNAME":"東區","LI":"忠孝里","LIN":"27鄰","STREET":"榮譽街","SECT":" ","MAREA":" ","LANE":"８４巷","ALLEY":" ","HOUSE_NO":"７號","E_COORD97":169778.35999999999,"N_COORD97":2541679.7999999998,"ADDRESS":"榮譽街８４巷７號","OBJECTID":256379},"geometry":{"x":169778.36000000127,"y":2541679.8000000007}},{"attributes":{"ID":256384,"DIS_CODE":0,"TOWNNAME":"仁德區","LI":"上崙里","LIN":"27鄰","STREET":"上崙街","SECT":" ","MAREA":" ","LANE":"４０１巷","ALLEY":" ","HOUSE_NO":"１３號","E_COORD97":173084.84,"N_COORD97":2537581.9900000002,"ADDRESS":"上崙街４０１巷１３號","OBJECTID":256380},"geometry":{"x":173084.84000000078,"y":2537581.9900000002}},{"attributes":{"ID":256385,"DIS_CODE":0,"TOWNNAME":"永康區","LI":"東橋里","LIN":"17鄰","STREET":"東橋三路","SECT":" ","MAREA":" ","LANE":"４３０巷","ALLEY":" ","HOUSE_NO":"１３號","E_COORD97":171408.10999999999,"N_COORD97":2547095.9100000001,"ADDRESS":"東橋三路４３０巷１３號","OBJECTID":256381},"geometry":{"x":171408.11000000034,"y":2547095.9100000001}},{"attributes":{"ID":256386,"DIS_CODE":0,"TOWNNAME":"永康區","LI":"東橋里","LIN":"17鄰","STREET":"東橋三路","SECT":" ","MAREA":" ","LANE":"４３０巷","ALLEY":" ","HOUSE_NO":"１５號","E_COORD97":171413.23000000001,"N_COORD97":2547096.4399999999,"ADDRESS":"東橋三路４３０巷１５號","OBJECTID":256382},"geometry":{"x":171413.23000000138,"y":2547096.4400000013}},{"attributes":{"ID":256387,"DIS_CODE":0,"TOWNNAME":"永康區","LI":"東橋里","LIN":"17鄰","STREET":"東橋三路","SECT":" ","MAREA":" ","LANE":"４３０巷","ALLEY":" ","HOUSE_NO":"１７號","E_COORD97":171416.72,"N_COORD97":2547097.02,"ADDRESS":"東橋三路４３０巷１７號","OBJECTID":256383},"geometry":{"x":171416.71999999974,"y":2547097.0199999996}},{"attributes":{"ID":256388,"DIS_CODE":0,"TOWNNAME":"永康區","LI":"東橋里","LIN":"17鄰","STREET":"東橋三路","SECT":" ","MAREA":" ","LANE":"４３０巷","ALLEY":" ","HOUSE_NO":"１９號","E_COORD97":171419.60999999999,"N_COORD97":2547100.3999999999,"ADDRESS":"東橋三路４３０巷１９號","OBJECTID":256384},"geometry":{"x":171419.61000000034,"y":2547100.4000000041}},{"attributes":{"ID":256389,"DIS_CODE":0,"TOWNNAME":"永康區","LI":"東橋里","LIN":"17鄰","STREET":"東橋三路","SECT":" ","MAREA":" ","LANE":"４３０巷","ALLEY":" ","HOUSE_NO":"２１號","E_COORD97":171423.54999999999,"N_COORD97":2547102.8399999999,"ADDRESS":"東橋三路４３０巷２１號","OBJECTID":256385},"geometry":{"x":171423.55000000168,"y":2547102.8399999999}},{"attributes":{"ID":256390,"DIS_CODE":0,"TOWNNAME":"永康區","LI":"東橋里","LIN":"17鄰","STREET":"東橋三路","SECT":" ","MAREA":" ","LANE":"４３０巷","ALLEY":" ","HOUSE_NO":"２３號","E_COORD97":171427.73000000001,"N_COORD97":2547103.8399999999,"ADDRESS":"東橋三路４３０巷２３號","OBJECTID":256386},"geometry":{"x":171427.73000000045,"y":2547103.8400000036}},{"attributes":{"ID":256391,"DIS_CODE":0,"TOWNNAME":"永康區","LI":"東橋里","LIN":"17鄰","STREET":"東橋三路","SECT":" ","MAREA":" ","LANE":"４３０巷","ALLEY":" ","HOUSE_NO":"２５號","E_COORD97":171430.10999999999,"N_COORD97":2547109.5600000001,"ADDRESS":"東橋三路４３０巷２５號","OBJECTID":256387},"geometry":{"x":171430.11000000034,"y":2547109.5600000042}},{"attributes":{"ID":256392,"DIS_CODE":0,"TOWNNAME":"永康區","LI":"東橋里","LIN":"17鄰","STREET":"東橋三路","SECT":" ","MAREA":" ","LANE":"４３０巷","ALLEY":" ","HOUSE_NO":"２７號","E_COORD97":171435.29000000001,"N_COORD97":2547110.1200000001,"ADDRESS":"東橋三路４３０巷２７號","OBJECTID":256388},"geometry":{"x":171435.29000000004,"y":2547110.1200000029}},{"attributes":{"ID":256393,"DIS_CODE":0,"TOWNNAME":"永康區","LI":"東橋里","LIN":"17鄰","STREET":"東橋三路","SECT":" ","MAREA":" ","LANE":"４３０巷","ALLEY":" ","HOUSE_NO":"２９號","E_COORD97":171438.85999999999,"N_COORD97":2547110.75,"ADDRESS":"東橋三路４３０巷２９號","OBJECTID":256389},"geometry":{"x":171438.8600000022,"y":2547110.75}},{"attributes":{"ID":256394,"DIS_CODE":0,"TOWNNAME":"永康區","LI":"東橋里","LIN":"17鄰","STREET":"東橋三路","SECT":" ","MAREA":" ","LANE":"４３０巷","ALLEY":" ","HOUSE_NO":"３１號","E_COORD97":171441.07999999999,"N_COORD97":2547116.3599999999,"ADDRESS":"東橋三路４３０巷３１號","OBJECTID":256390},"geometry":{"x":171441.08000000101,"y":2547116.3599999975}},{"attributes":{"ID":256395,"DIS_CODE":0,"TOWNNAME":"永康區","LI":"東橋里","LIN":"17鄰","STREET":"東橋三路","SECT":" ","MAREA":" ","LANE":"４３０巷","ALLEY":" ","HOUSE_NO":"３３號","E_COORD97":171445.01999999999,"N_COORD97":2547118.8100000001,"ADDRESS":"東橋三路４３０巷３３號","OBJECTID":256391},"geometry":{"x":171445.01999999955,"y":2547118.8100000024}},{"attributes":{"ID":256396,"DIS_CODE":0,"TOWNNAME":"永康區","LI":"東橋里","LIN":"17鄰","STREET":"東橋三路","SECT":" ","MAREA":" ","LANE":"４３０巷","ALLEY":" ","HOUSE_NO":"３５號","E_COORD97":171450.56,"N_COORD97":2547118,"ADDRESS":"東橋三路４３０巷３５號","OBJECTID":256392},"geometry":{"x":171450.56000000052,"y":2547118}},{"attributes":{"ID":256397,"DIS_CODE":0,"TOWNNAME":"安平區","LI":"國平里","LIN":"24鄰","STREET":"建平七街","SECT":" ","MAREA":" ","LANE":" ","ALLEY":" ","HOUSE_NO":"６７７號九樓之１","E_COORD97":164850.32999999999,"N_COORD97":2543412.3599999999,"ADDRESS":"建平七街６７７號九樓之１","OBJECTID":256393},"geometry":{"x":164850.33000000101,"y":2543412.3600000013}},{"attributes":{"ID":256398,"DIS_CODE":0,"TOWNNAME":"安平區","LI":"國平里","LIN":"24鄰","STREET":"建平七街","SECT":" ","MAREA":" ","LANE":" ","ALLEY":" ","HOUSE_NO":"６７７號九樓之１０","E_COORD97":164850.32999999999,"N_COORD97":2543412.3599999999,"ADDRESS":"建平七街６７７號九樓之１０","OBJECTID":256394},"geometry":{"x":164850.33000000101,"y":2543412.3600000013}},{"attributes":{"ID":256399,"DIS_CODE":0,"TOWNNAME":"安平區","LI":"國平里","LIN":"24鄰","STREET":"建平七街","SECT":" ","MAREA":" ","LANE":" ","ALLEY":" ","HOUSE_NO":"６７７號九樓之１１","E_COORD97":164850.32999999999,"N_COORD97":2543412.3599999999,"ADDRESS":"建平七街６７７號九樓之１１","OBJECTID":256395},"geometry":{"x":164850.33000000101,"y":2543412.3600000013}},{"attributes":{"ID":256400,"DIS_CODE":0,"TOWNNAME":"安平區","LI":"國平里","LIN":"24鄰","STREET":"建平七街","SECT":" ","MAREA":" ","LANE":" ","ALLEY":" ","HOUSE_NO":"６７７號九樓之２","E_COORD97":164850.32999999999,"N_COORD97":2543412.3599999999,"ADDRESS":"建平七街６７７號九樓之２","OBJECTID":256396},"geometry":{"x":164850.33000000101,"y":2543412.3600000013}},{"attributes":{"ID":256401,"DIS_CODE":0,"TOWNNAME":"安平區","LI":"國平里","LIN":"24鄰","STREET":"建平七街","SECT":" ","MAREA":" ","LANE":" ","ALLEY":" ","HOUSE_NO":"６７７號九樓之３","E_COORD97":164850.32999999999,"N_COORD97":2543412.3599999999,"ADDRESS":"建平七街６７７號九樓之３","OBJECTID":256397},"geometry":{"x":164850.33000000101,"y":2543412.3600000013}},{"attributes":{"ID":256402,"DIS_CODE":0,"TOWNNAME":"安平區","LI":"國平里","LIN":"24鄰","STREET":"建平七街","SECT":" ","MAREA":" ","LANE":" ","ALLEY":" ","HOUSE_NO":"６７７號九樓之４","E_COORD97":164850.32999999999,"N_COORD97":2543412.3599999999,"ADDRESS":"建平七街６７７號九樓之４","OBJECTID":256398},"geometry":{"x":164850.33000000101,"y":2543412.3600000013}},{"attributes":{"ID":256403,"DIS_CODE":0,"TOWNNAME":"安平區","LI":"國平里","LIN":"24鄰","STREET":"建平七街","SECT":" ","MAREA":" ","LANE":" ","ALLEY":" ","HOUSE_NO":"６７７號九樓之５","E_COORD97":164850.32999999999,"N_COORD97":2543412.3599999999,"ADDRESS":"建平七街６７７號九樓之５","OBJECTID":256399},"geometry":{"x":164850.33000000101,"y":2543412.3600000013}},{"attributes":{"ID":256404,"DIS_CODE":0,"TOWNNAME":"安平區","LI":"國平里","LIN":"24鄰","STREET":"建平七街","SECT":" ","MAREA":" ","LANE":" ","ALLEY":" ","HOUSE_NO":"６７７號九樓之６","E_COORD97":164850.32999999999,"N_COORD97":2543412.3599999999,"ADDRESS":"建平七街６７７號九樓之６","OBJECTID":256400},"geometry":{"x":164850.33000000101,"y":2543412.3600000013}}]}