{"displayFieldName":"TOWNNAME","fieldAliases":{"ID":"ID","DIS_CODE":"DIS_CODE","TOWNNAME":"TOWNNAME","LI":"LI","LIN":"LIN","STREET":"STREET","SECT":"SECT","MAREA":"MAREA","LANE":"LANE","ALLEY":"ALLEY","HOUSE_NO":"HOUSE_NO","E_COORD97":"E_COORD97","N_COORD97":"N_COORD97","ADDRESS":"ADDRESS","OBJECTID":"OBJECTID"},"geometryType":"esriGeometryPoint","spatialReference":{"wkid":102443,"latestWkid":3826},"fields":[{"name":"ID","type":"esriFieldTypeDouble","alias":"ID"},{"name":"DIS_CODE","type":"esriFieldTypeInteger","alias":"DIS_CODE"},{"name":"TOWNNAME","type":"esriFieldTypeString","alias":"TOWNNAME","length":8},{"name":"LI","type":"esriFieldTypeString","alias":"LI","length":8},{"name":"LIN","type":"esriFieldTypeString","alias":"LIN","length":12},{"name":"STREET","type":"esriFieldTypeString","alias":"STREET","length":20},{"name":"SECT","type":"esriFieldTypeString","alias":"SECT","length":8},{"name":"MAREA","type":"esriFieldTypeString","alias":"MAREA","length":12},{"name":"LANE","type":"esriFieldTypeString","alias":"LANE","length":10},{"name":"ALLEY","type":"esriFieldTypeString","alias":"ALLEY","length":10},{"name":"HOUSE_NO","type":"esriFieldTypeString","alias":"HOUSE_NO","length":20},{"name":"E_COORD97","type":"esriFieldTypeDouble","alias":"E_COORD97"},{"name":"N_COORD97","type":"esriFieldTypeDouble","alias":"N_COORD97"},{"name":"ADDRESS","type":"esriFieldTypeString","alias":"ADDRESS","length":50},{"name":"OBJECTID","type":"esriFieldTypeOID","alias":"OBJECTID"}],"features":[{"attributes":{"ID":165002,"DIS_CODE":0,"TOWNNAME":"新市區","LI":"新和里","LIN":"39鄰","STREET":"中正路","SECT":" ","MAREA":" ","LANE":"２６８巷","ALLEY":"１２弄","HOUSE_NO":"６號","E_COORD97":177504.70000000001,"N_COORD97":2552995.75,"ADDRESS":"中正路２６８巷１２弄６號","OBJECTID":165001},"geometry":{"x":177504.70000000019,"y":2552995.75}},{"attributes":{"ID":165003,"DIS_CODE":0,"TOWNNAME":"新市區","LI":"新和里","LIN":"26鄰","STREET":"永福街","SECT":" ","MAREA":" ","LANE":"１６巷","ALLEY":"１８弄","HOUSE_NO":"５號","E_COORD97":177823.32000000001,"N_COORD97":2552728.25,"ADDRESS":"永福街１６巷１８弄５號","OBJECTID":165002},"geometry":{"x":177823.32000000123,"y":2552728.25}},{"attributes":{"ID":165004,"DIS_CODE":0,"TOWNNAME":"東區","LI":"復興里","LIN":"17鄰","STREET":"東成街","SECT":" ","MAREA":" ","LANE":"１３１巷","ALLEY":"１２弄","HOUSE_NO":"１０號","E_COORD97":171720.25,"N_COORD97":2542333.3199999998,"ADDRESS":"東成街１３１巷１２弄１０號","OBJECTID":165003},"geometry":{"x":171720.25,"y":2542333.3200000003}},{"attributes":{"ID":165005,"DIS_CODE":0,"TOWNNAME":"東區","LI":"復興里","LIN":"17鄰","STREET":"東成街","SECT":" ","MAREA":" ","LANE":"１３１巷","ALLEY":"１２弄","HOUSE_NO":"１２號","E_COORD97":171739.76999999999,"N_COORD97":2542328.5499999998,"ADDRESS":"東成街１３１巷１２弄１２號","OBJECTID":165004},"geometry":{"x":171739.76999999955,"y":2542328.5500000007}},{"attributes":{"ID":165006,"DIS_CODE":0,"TOWNNAME":"東區","LI":"復興里","LIN":"17鄰","STREET":"東成街","SECT":" ","MAREA":" ","LANE":"１３１巷","ALLEY":"１２弄","HOUSE_NO":"１４號","E_COORD97":171741.35999999999,"N_COORD97":2542334.1099999999,"ADDRESS":"東成街１３１巷１２弄１４號","OBJECTID":165005},"geometry":{"x":171741.36000000127,"y":2542334.1099999994}},{"attributes":{"ID":165007,"DIS_CODE":0,"TOWNNAME":"東區","LI":"復興里","LIN":"17鄰","STREET":"東成街","SECT":" ","MAREA":" ","LANE":"１３１巷","ALLEY":"１２弄","HOUSE_NO":"１６號","E_COORD97":171742.14999999999,"N_COORD97":2542340.8700000001,"ADDRESS":"東成街１３１巷１２弄１６號","OBJECTID":165006},"geometry":{"x":171742.15000000224,"y":2542340.870000001}},{"attributes":{"ID":165008,"DIS_CODE":0,"TOWNNAME":"東區","LI":"復興里","LIN":"17鄰","STREET":"東成街","SECT":" ","MAREA":" ","LANE":"１３１巷","ALLEY":"１２弄","HOUSE_NO":"１８號","E_COORD97":171738.57000000001,"N_COORD97":2542351.21,"ADDRESS":"東成街１３１巷１２弄１８號","OBJECTID":165007},"geometry":{"x":171738.5700000003,"y":2542351.2100000009}},{"attributes":{"ID":165009,"DIS_CODE":0,"TOWNNAME":"東區","LI":"復興里","LIN":"17鄰","STREET":"東成街","SECT":" ","MAREA":" ","LANE":"１３１巷","ALLEY":"１２弄","HOUSE_NO":"２０號","E_COORD97":171743.35000000001,"N_COORD97":2542350.4199999999,"ADDRESS":"東成街１３１巷１２弄２０號","OBJECTID":165008},"geometry":{"x":171743.35000000149,"y":2542350.4200000018}},{"attributes":{"ID":165010,"DIS_CODE":0,"TOWNNAME":"東區","LI":"復興里","LIN":"17鄰","STREET":"東成街","SECT":" ","MAREA":" ","LANE":"１３１巷","ALLEY":"１２弄","HOUSE_NO":"２２號","E_COORD97":171748.92000000001,"N_COORD97":2542350.02,"ADDRESS":"東成街１３１巷１２弄２２號","OBJECTID":165009},"geometry":{"x":171748.92000000086,"y":2542350.0200000014}},{"attributes":{"ID":165011,"DIS_CODE":0,"TOWNNAME":"東區","LI":"復興里","LIN":"17鄰","STREET":"東成街","SECT":" ","MAREA":" ","LANE":"１３１巷","ALLEY":"１２弄","HOUSE_NO":"２４號","E_COORD97":171754.5,"N_COORD97":2542350.4199999999,"ADDRESS":"東成街１３１巷１２弄２４號","OBJECTID":165010},"geometry":{"x":171754.50000000186,"y":2542350.4200000018}},{"attributes":{"ID":165012,"DIS_CODE":0,"TOWNNAME":"東區","LI":"復興里","LIN":"17鄰","STREET":"東成街","SECT":" ","MAREA":" ","LANE":"１３１巷","ALLEY":"１２弄","HOUSE_NO":"２６號","E_COORD97":171759.28,"N_COORD97":2542349.6200000001,"ADDRESS":"東成街１３１巷１２弄２６號","OBJECTID":165011},"geometry":{"x":171759.28000000026,"y":2542349.6200000048}},{"attributes":{"ID":165013,"DIS_CODE":0,"TOWNNAME":"東區","LI":"復興里","LIN":"17鄰","STREET":"東成街","SECT":" ","MAREA":" ","LANE":"１３１巷","ALLEY":"１２弄","HOUSE_NO":"２７號","E_COORD97":171764.45999999999,"N_COORD97":2542374.6800000002,"ADDRESS":"東成街１３１巷１２弄２７號","OBJECTID":165012},"geometry":{"x":171764.45999999996,"y":2542374.6799999997}},{"attributes":{"ID":165014,"DIS_CODE":0,"TOWNNAME":"東區","LI":"復興里","LIN":"17鄰","STREET":"東成街","SECT":" ","MAREA":" ","LANE":"１３１巷","ALLEY":"１２弄","HOUSE_NO":"２號","E_COORD97":171714.67999999999,"N_COORD97":2542351.6099999999,"ADDRESS":"東成街１３１巷１２弄２號","OBJECTID":165013},"geometry":{"x":171714.68000000063,"y":2542351.6100000031}},{"attributes":{"ID":165015,"DIS_CODE":0,"TOWNNAME":"東區","LI":"復興里","LIN":"17鄰","STREET":"東成街","SECT":" ","MAREA":" ","LANE":"１３１巷","ALLEY":"１２弄","HOUSE_NO":"３０號","E_COORD97":171758.48000000001,"N_COORD97":2542340.48,"ADDRESS":"東成街１３１巷１２弄３０號","OBJECTID":165014},"geometry":{"x":171758.47999999952,"y":2542340.4800000023}},{"attributes":{"ID":165016,"DIS_CODE":0,"TOWNNAME":"東區","LI":"復興里","LIN":"17鄰","STREET":"東成街","SECT":" ","MAREA":" ","LANE":"１３１巷","ALLEY":"１２弄","HOUSE_NO":"３２號","E_COORD97":171758.88,"N_COORD97":2542334.9100000001,"ADDRESS":"東成街１３１巷１２弄３２號","OBJECTID":165015},"geometry":{"x":171758.88000000082,"y":2542334.910000002}},{"attributes":{"ID":165017,"DIS_CODE":0,"TOWNNAME":"東區","LI":"復興里","LIN":"17鄰","STREET":"東成街","SECT":" ","MAREA":" ","LANE":"１３１巷","ALLEY":"１２弄","HOUSE_NO":"３６號","E_COORD97":171776.39999999999,"N_COORD97":2542330.1400000001,"ADDRESS":"東成街１３１巷１２弄３６號","OBJECTID":165016},"geometry":{"x":171776.4000000013,"y":2542330.1400000025}},{"attributes":{"ID":165018,"DIS_CODE":0,"TOWNNAME":"東區","LI":"復興里","LIN":"17鄰","STREET":"東成街","SECT":" ","MAREA":" ","LANE":"１３１巷","ALLEY":"１２弄","HOUSE_NO":"３８號","E_COORD97":171780.38,"N_COORD97":2542334.9100000001,"ADDRESS":"東成街１３１巷１２弄３８號","OBJECTID":165017},"geometry":{"x":171780.37999999989,"y":2542334.910000002}},{"attributes":{"ID":165019,"DIS_CODE":0,"TOWNNAME":"東區","LI":"復興里","LIN":"17鄰","STREET":"東成街","SECT":" ","MAREA":" ","LANE":"１３１巷","ALLEY":"１２弄","HOUSE_NO":"４號","E_COORD97":171720.64999999999,"N_COORD97":2542350.02,"ADDRESS":"東成街１３１巷１２弄４號","OBJECTID":165018},"geometry":{"x":171720.6500000013,"y":2542350.0200000014}},{"attributes":{"ID":165020,"DIS_CODE":0,"TOWNNAME":"東區","LI":"復興里","LIN":"17鄰","STREET":"東成街","SECT":" ","MAREA":" ","LANE":"１３１巷","ALLEY":"１２弄","HOUSE_NO":"８號","E_COORD97":171720.25,"N_COORD97":2542339.2799999998,"ADDRESS":"東成街１３１巷１２弄８號","OBJECTID":165019},"geometry":{"x":171720.25,"y":2542339.2799999993}},{"attributes":{"ID":165021,"DIS_CODE":0,"TOWNNAME":"東區","LI":"復興里","LIN":"22鄰","STREET":"自由路","SECT":"三段","MAREA":" ","LANE":"１５５巷","ALLEY":" ","HOUSE_NO":"２８號","E_COORD97":171714.38,"N_COORD97":2542420.6499999999,"ADDRESS":"自由路三段１５５巷２８號","OBJECTID":165020},"geometry":{"x":171714.37999999989,"y":2542420.6500000022}},{"attributes":{"ID":165022,"DIS_CODE":0,"TOWNNAME":"東區","LI":"復興里","LIN":"22鄰","STREET":"自由路","SECT":"三段","MAREA":" ","LANE":"１５５巷","ALLEY":" ","HOUSE_NO":"２６號","E_COORD97":171718.76000000001,"N_COORD97":2542417.0699999998,"ADDRESS":"自由路三段１５５巷２６號","OBJECTID":165021},"geometry":{"x":171718.76000000164,"y":2542417.070000004}},{"attributes":{"ID":165023,"DIS_CODE":0,"TOWNNAME":"東區","LI":"復興里","LIN":"22鄰","STREET":"自由路","SECT":"三段","MAREA":" ","LANE":"１５５巷","ALLEY":" ","HOUSE_NO":"２２號","E_COORD97":171723.14000000001,"N_COORD97":2542419.8599999999,"ADDRESS":"自由路三段１５５巷２２號","OBJECTID":165022},"geometry":{"x":171723.1400000006,"y":2542419.8599999994}},{"attributes":{"ID":165024,"DIS_CODE":0,"TOWNNAME":"下營區","LI":"新興里","LIN":"4鄰","STREET":"中山路","SECT":"一段","MAREA":" ","LANE":"４１３巷","ALLEY":"２８弄","HOUSE_NO":"１０３號","E_COORD97":175662.14999999999,"N_COORD97":2571250.7200000002,"ADDRESS":"中山路一段４１３巷２８弄１０３號","OBJECTID":165023},"geometry":{"x":175662.1500000013,"y":2571250.7200000007}},{"attributes":{"ID":165025,"DIS_CODE":0,"TOWNNAME":"下營區","LI":"新興里","LIN":"4鄰","STREET":"中山路","SECT":"一段","MAREA":" ","LANE":"４１３巷","ALLEY":"２８弄","HOUSE_NO":"１０７號","E_COORD97":175673.20000000001,"N_COORD97":2571251.5099999998,"ADDRESS":"中山路一段４１３巷２８弄１０７號","OBJECTID":165024},"geometry":{"x":175673.20000000112,"y":2571251.5099999998}},{"attributes":{"ID":165026,"DIS_CODE":0,"TOWNNAME":"下營區","LI":"新興里","LIN":"4鄰","STREET":"中山路","SECT":"一段","MAREA":" ","LANE":"７４１巷","ALLEY":"２７弄","HOUSE_NO":"１號","E_COORD97":176086.75,"N_COORD97":2571505.0699999998,"ADDRESS":"中山路一段７４１巷２７弄１號","OBJECTID":165025},"geometry":{"x":176086.75,"y":2571505.0700000003}},{"attributes":{"ID":165027,"DIS_CODE":0,"TOWNNAME":"下營區","LI":"營前里","LIN":"22鄰","STREET":"中正南路","SECT":" ","MAREA":" ","LANE":"２０５巷","ALLEY":"１２弄","HOUSE_NO":"１０號","E_COORD97":174755.35999999999,"N_COORD97":2569976,"ADDRESS":"中正南路２０５巷１２弄１０號","OBJECTID":165026},"geometry":{"x":174755.36000000127,"y":2569976}},{"attributes":{"ID":165028,"DIS_CODE":0,"TOWNNAME":"學甲區","LI":"三慶里","LIN":"12鄰","STREET":" ","SECT":" ","MAREA":"頂洲","LANE":" ","ALLEY":" ","HOUSE_NO":"１６５號","E_COORD97":168333.25,"N_COORD97":2576537.5800000001,"ADDRESS":"頂洲１６５號","OBJECTID":165027},"geometry":{"x":168333.25,"y":2576537.5800000038}},{"attributes":{"ID":165029,"DIS_CODE":0,"TOWNNAME":"七股區","LI":"大埕里","LIN":"20鄰","STREET":" ","SECT":" ","MAREA":"大埕","LANE":" ","ALLEY":" ","HOUSE_NO":"２８號之６６","E_COORD97":163057.59,"N_COORD97":2561404.2000000002,"ADDRESS":"大埕２８號之６６","OBJECTID":165028},"geometry":{"x":163057.59000000171,"y":2561404.1999999993}},{"attributes":{"ID":165030,"DIS_CODE":0,"TOWNNAME":"七股區","LI":"大埕里","LIN":"20鄰","STREET":" ","SECT":" ","MAREA":"大埕","LANE":" ","ALLEY":" ","HOUSE_NO":"２８號之６７","E_COORD97":163056.84,"N_COORD97":2561408.9500000002,"ADDRESS":"大埕２８號之６７","OBJECTID":165029},"geometry":{"x":163056.83999999985,"y":2561408.9499999993}},{"attributes":{"ID":165031,"DIS_CODE":0,"TOWNNAME":"下營區","LI":"營前里","LIN":"22鄰","STREET":"中正南路","SECT":" ","MAREA":" ","LANE":"２０５巷","ALLEY":"１２弄","HOUSE_NO":"２號","E_COORD97":174775.42999999999,"N_COORD97":2569983.9900000002,"ADDRESS":"中正南路２０５巷１２弄２號","OBJECTID":165030},"geometry":{"x":174775.42999999877,"y":2569983.9900000002}},{"attributes":{"ID":165032,"DIS_CODE":0,"TOWNNAME":"下營區","LI":"營前里","LIN":"22鄰","STREET":"中正南路","SECT":" ","MAREA":" ","LANE":"２０５巷","ALLEY":"１２弄","HOUSE_NO":"５號","E_COORD97":174776.73000000001,"N_COORD97":2569970.2400000002,"ADDRESS":"中正南路２０５巷１２弄５號","OBJECTID":165031},"geometry":{"x":174776.73000000138,"y":2569970.2400000021}},{"attributes":{"ID":165033,"DIS_CODE":0,"TOWNNAME":"下營區","LI":"營前里","LIN":"22鄰","STREET":"中正南路","SECT":" ","MAREA":" ","LANE":"２０５巷","ALLEY":"１２弄","HOUSE_NO":"６號","E_COORD97":174768.85000000001,"N_COORD97":2569981.3999999999,"ADDRESS":"中正南路２０５巷１２弄６號","OBJECTID":165032},"geometry":{"x":174768.84999999963,"y":2569981.4000000004}},{"attributes":{"ID":165034,"DIS_CODE":0,"TOWNNAME":"下營區","LI":"營前里","LIN":"22鄰","STREET":"中正南路","SECT":" ","MAREA":" ","LANE":"２０５巷","ALLEY":"１２弄","HOUSE_NO":"７號","E_COORD97":174770.19,"N_COORD97":2569967.6499999999,"ADDRESS":"中正南路２０５巷１２弄７號","OBJECTID":165033},"geometry":{"x":174770.19000000134,"y":2569967.6500000022}},{"attributes":{"ID":165035,"DIS_CODE":0,"TOWNNAME":"下營區","LI":"營前里","LIN":"22鄰","STREET":"中正南路","SECT":" ","MAREA":" ","LANE":"２０５巷","ALLEY":"１２弄","HOUSE_NO":"８號","E_COORD97":174762.32999999999,"N_COORD97":2569979,"ADDRESS":"中正南路２０５巷１２弄８號","OBJECTID":165034},"geometry":{"x":174762.33000000007,"y":2569979.0000000019}},{"attributes":{"ID":165036,"DIS_CODE":0,"TOWNNAME":"永康區","LI":"東橋里","LIN":"24鄰","STREET":"中正路","SECT":" ","MAREA":" ","LANE":"２１７巷","ALLEY":"３弄","HOUSE_NO":"２４號","E_COORD97":172893.01999999999,"N_COORD97":2547865,"ADDRESS":"中正路２１７巷３弄２４號","OBJECTID":165035},"geometry":{"x":172893.01999999862,"y":2547865}},{"attributes":{"ID":165037,"DIS_CODE":0,"TOWNNAME":"七股區","LI":"大埕里","LIN":"20鄰","STREET":" ","SECT":" ","MAREA":"大埕","LANE":" ","ALLEY":" ","HOUSE_NO":"２８號之６８","E_COORD97":163044.69,"N_COORD97":2561352.5299999998,"ADDRESS":"大埕２８號之６８","OBJECTID":165036},"geometry":{"x":163044.69000000041,"y":2561352.5300000012}},{"attributes":{"ID":165038,"DIS_CODE":0,"TOWNNAME":"七股區","LI":"大埕里","LIN":"20鄰","STREET":" ","SECT":" ","MAREA":"大埕","LANE":" ","ALLEY":" ","HOUSE_NO":"２８號之６９","E_COORD97":163043.95000000001,"N_COORD97":2561357.2400000002,"ADDRESS":"大埕２８號之６９","OBJECTID":165037},"geometry":{"x":163043.95000000112,"y":2561357.2400000002}},{"attributes":{"ID":165039,"DIS_CODE":0,"TOWNNAME":"七股區","LI":"大埕里","LIN":"20鄰","STREET":" ","SECT":" ","MAREA":"大埕","LANE":" ","ALLEY":" ","HOUSE_NO":"２８號之６","E_COORD97":163154.67999999999,"N_COORD97":2561381.2200000002,"ADDRESS":"大埕２８號之６","OBJECTID":165038},"geometry":{"x":163154.6799999997,"y":2561381.2200000007}},{"attributes":{"ID":165040,"DIS_CODE":0,"TOWNNAME":"七股區","LI":"大埕里","LIN":"20鄰","STREET":" ","SECT":" ","MAREA":"大埕","LANE":" ","ALLEY":" ","HOUSE_NO":"２８號之７０","E_COORD97":163043.22,"N_COORD97":2561361.9399999999,"ADDRESS":"大埕２８號之７０","OBJECTID":165039},"geometry":{"x":163043.22000000067,"y":2561361.9399999995}},{"attributes":{"ID":165041,"DIS_CODE":0,"TOWNNAME":"七股區","LI":"大埕里","LIN":"20鄰","STREET":" ","SECT":" ","MAREA":"大埕","LANE":" ","ALLEY":" ","HOUSE_NO":"２８號之７１","E_COORD97":163042.48000000001,"N_COORD97":2561366.6499999999,"ADDRESS":"大埕２８號之７１","OBJECTID":165040},"geometry":{"x":163042.48000000138,"y":2561366.6500000022}},{"attributes":{"ID":165042,"DIS_CODE":0,"TOWNNAME":"七股區","LI":"大埕里","LIN":"20鄰","STREET":" ","SECT":" ","MAREA":"大埕","LANE":" ","ALLEY":" ","HOUSE_NO":"２８號之７２","E_COORD97":163041.73999999999,"N_COORD97":2561371.3500000001,"ADDRESS":"大埕２８號之７２","OBJECTID":165041},"geometry":{"x":163041.74000000115,"y":2561371.3500000015}},{"attributes":{"ID":165043,"DIS_CODE":0,"TOWNNAME":"永康區","LI":"東灣里","LIN":"34鄰","STREET":"民族路","SECT":" ","MAREA":" ","LANE":"１８１巷","ALLEY":"１弄","HOUSE_NO":"２號","E_COORD97":175233.03,"N_COORD97":2544844.6099999999,"ADDRESS":"民族路１８１巷１弄２號","OBJECTID":165042},"geometry":{"x":175233.02999999933,"y":2544844.6100000013}},{"attributes":{"ID":165044,"DIS_CODE":0,"TOWNNAME":"永康區","LI":"東橋里","LIN":"13鄰","STREET":"中山南路","SECT":" ","MAREA":" ","LANE":"２３１巷","ALLEY":"２０弄","HOUSE_NO":"８號","E_COORD97":171650.97,"N_COORD97":2546268.0800000001,"ADDRESS":"中山南路２３１巷２０弄８號","OBJECTID":165043},"geometry":{"x":171650.96999999881,"y":2546268.0800000038}},{"attributes":{"ID":165045,"DIS_CODE":0,"TOWNNAME":"永康區","LI":"尚頂里","LIN":"4鄰","STREET":"正南一街","SECT":" ","MAREA":" ","LANE":"１９０巷","ALLEY":"２７弄","HOUSE_NO":"６號","E_COORD97":170770.38,"N_COORD97":2547494.23,"ADDRESS":"正南一街１９０巷２７弄６號","OBJECTID":165044},"geometry":{"x":170770.38000000175,"y":2547494.2300000004}},{"attributes":{"ID":165046,"DIS_CODE":0,"TOWNNAME":"永康區","LI":"尚頂里","LIN":"25鄰","STREET":"中正南路","SECT":" ","MAREA":" ","LANE":"２１０巷","ALLEY":"１２弄","HOUSE_NO":"１８號","E_COORD97":170188.22,"N_COORD97":2547083.4900000002,"ADDRESS":"中正南路２１０巷１２弄１８號","OBJECTID":165045},"geometry":{"x":170188.2200000016,"y":2547083.4900000021}},{"attributes":{"ID":165047,"DIS_CODE":0,"TOWNNAME":"永康區","LI":"尚頂里","LIN":"18鄰","STREET":"南台街","SECT":" ","MAREA":" ","LANE":"５４巷","ALLEY":"１８弄","HOUSE_NO":"１４號","E_COORD97":170372.63,"N_COORD97":2547112.9900000002,"ADDRESS":"南台街５４巷１８弄１４號","OBJECTID":165046},"geometry":{"x":170372.63000000082,"y":2547112.9899999984}},{"attributes":{"ID":165048,"DIS_CODE":0,"TOWNNAME":"北門區","LI":"北門里","LIN":"20鄰","STREET":" ","SECT":" ","MAREA":"舊埕","LANE":" ","ALLEY":" ","HOUSE_NO":"９７之１號","E_COORD97":160432.26000000001,"N_COORD97":2574240.4399999999,"ADDRESS":"舊埕９７之１號","OBJECTID":165047},"geometry":{"x":160432.26000000071,"y":2574240.4400000013}},{"attributes":{"ID":165049,"DIS_CODE":0,"TOWNNAME":"永康區","LI":"西灣里","LIN":"26鄰","STREET":"國光七街","SECT":" ","MAREA":" ","LANE":"６巷","ALLEY":"１１弄","HOUSE_NO":"９號","E_COORD97":174359.60000000001,"N_COORD97":2545634.25,"ADDRESS":"國光七街６巷１１弄９號","OBJECTID":165048},"geometry":{"x":174359.60000000056,"y":2545634.2500000019}},{"attributes":{"ID":165050,"DIS_CODE":0,"TOWNNAME":"永康區","LI":"尚頂里","LIN":"4鄰","STREET":"正南一街","SECT":" ","MAREA":" ","LANE":"１９０巷","ALLEY":"２７弄","HOUSE_NO":"２號","E_COORD97":170757.26000000001,"N_COORD97":2547487.0699999998,"ADDRESS":"正南一街１９０巷２７弄２號","OBJECTID":165049},"geometry":{"x":170757.25999999978,"y":2547487.0700000022}},{"attributes":{"ID":165051,"DIS_CODE":0,"TOWNNAME":"永康區","LI":"西灣里","LIN":"26鄰","STREET":"國光七街","SECT":" ","MAREA":" ","LANE":"６巷","ALLEY":"１１弄","HOUSE_NO":"７號","E_COORD97":174363.81,"N_COORD97":2545633.5,"ADDRESS":"國光七街６巷１１弄７號","OBJECTID":165050},"geometry":{"x":174363.80999999959,"y":2545633.5}},{"attributes":{"ID":165052,"DIS_CODE":0,"TOWNNAME":"七股區","LI":"大埕里","LIN":"20鄰","STREET":" ","SECT":" ","MAREA":"大埕","LANE":" ","ALLEY":" ","HOUSE_NO":"２８號之７３","E_COORD97":163041,"N_COORD97":2561376.0600000001,"ADDRESS":"大埕２８號之７３","OBJECTID":165051},"geometry":{"x":163041,"y":2561376.0600000005}},{"attributes":{"ID":165053,"DIS_CODE":0,"TOWNNAME":"七股區","LI":"大埕里","LIN":"20鄰","STREET":" ","SECT":" ","MAREA":"大埕","LANE":" ","ALLEY":" ","HOUSE_NO":"２８號之７５","E_COORD97":163039.51999999999,"N_COORD97":2561385.48,"ADDRESS":"大埕２８號之７５","OBJECTID":165052},"geometry":{"x":163039.52000000048,"y":2561385.4800000004}},{"attributes":{"ID":165054,"DIS_CODE":0,"TOWNNAME":"七股區","LI":"大埕里","LIN":"20鄰","STREET":" ","SECT":" ","MAREA":"大埕","LANE":" ","ALLEY":" ","HOUSE_NO":"２８號之７６","E_COORD97":163038.78,"N_COORD97":2561390.1800000002,"ADDRESS":"大埕２８號之７６","OBJECTID":165053},"geometry":{"x":163038.78000000119,"y":2561390.1799999997}},{"attributes":{"ID":165055,"DIS_CODE":0,"TOWNNAME":"七股區","LI":"大埕里","LIN":"20鄰","STREET":" ","SECT":" ","MAREA":"大埕","LANE":" ","ALLEY":" ","HOUSE_NO":"２８號之７７","E_COORD97":163038.04000000001,"N_COORD97":2561394.8900000001,"ADDRESS":"大埕２８號之７７","OBJECTID":165054},"geometry":{"x":163038.04000000097,"y":2561394.8900000025}},{"attributes":{"ID":165056,"DIS_CODE":0,"TOWNNAME":"七股區","LI":"大埕里","LIN":"20鄰","STREET":" ","SECT":" ","MAREA":"大埕","LANE":" ","ALLEY":" ","HOUSE_NO":"２８號之７８","E_COORD97":163037.29999999999,"N_COORD97":2561399.5899999999,"ADDRESS":"大埕２８號之７８","OBJECTID":165055},"geometry":{"x":163037.30000000168,"y":2561399.5900000017}},{"attributes":{"ID":165057,"DIS_CODE":0,"TOWNNAME":"七股區","LI":"大埕里","LIN":"20鄰","STREET":" ","SECT":" ","MAREA":"大埕","LANE":" ","ALLEY":" ","HOUSE_NO":"２８號之７９","E_COORD97":163036.56,"N_COORD97":2561404.2999999998,"ADDRESS":"大埕２８號之７９","OBJECTID":165056},"geometry":{"x":163036.55999999959,"y":2561404.3000000007}},{"attributes":{"ID":165058,"DIS_CODE":0,"TOWNNAME":"七股區","LI":"大埕里","LIN":"20鄰","STREET":" ","SECT":" ","MAREA":"大埕","LANE":" ","ALLEY":" ","HOUSE_NO":"２８號之７","E_COORD97":163154.38,"N_COORD97":2561388.75,"ADDRESS":"大埕２８號之７","OBJECTID":165057},"geometry":{"x":163154.38000000082,"y":2561388.7500000019}},{"attributes":{"ID":165059,"DIS_CODE":0,"TOWNNAME":"七股區","LI":"大埕里","LIN":"20鄰","STREET":" ","SECT":" ","MAREA":"大埕","LANE":" ","ALLEY":" ","HOUSE_NO":"２８號之８","E_COORD97":163153.35999999999,"N_COORD97":2561394.54,"ADDRESS":"大埕２８號之８","OBJECTID":165058},"geometry":{"x":163153.36000000127,"y":2561394.5399999991}},{"attributes":{"ID":165060,"DIS_CODE":0,"TOWNNAME":"七股區","LI":"大埕里","LIN":"20鄰","STREET":" ","SECT":" ","MAREA":"大埕","LANE":" ","ALLEY":" ","HOUSE_NO":"２８號之９","E_COORD97":163152.54999999999,"N_COORD97":2561400.7599999998,"ADDRESS":"大埕２８號之９","OBJECTID":165059},"geometry":{"x":163152.54999999888,"y":2561400.7599999998}},{"attributes":{"ID":165061,"DIS_CODE":0,"TOWNNAME":"七股區","LI":"大埕里","LIN":"20鄰","STREET":" ","SECT":" ","MAREA":"大埕","LANE":" ","ALLEY":" ","HOUSE_NO":"２９號之１０","E_COORD97":163114.92999999999,"N_COORD97":2561294.3100000001,"ADDRESS":"大埕２９號之１０","OBJECTID":165060},"geometry":{"x":163114.93000000063,"y":2561294.3100000024}},{"attributes":{"ID":165062,"DIS_CODE":0,"TOWNNAME":"七股區","LI":"大埕里","LIN":"20鄰","STREET":" ","SECT":" ","MAREA":"大埕","LANE":" ","ALLEY":" ","HOUSE_NO":"２９號之１１","E_COORD97":163114.20999999999,"N_COORD97":2561299.3500000001,"ADDRESS":"大埕２９號之１１","OBJECTID":165061},"geometry":{"x":163114.20999999996,"y":2561299.3500000015}},{"attributes":{"ID":165063,"DIS_CODE":0,"TOWNNAME":"七股區","LI":"大埕里","LIN":"20鄰","STREET":" ","SECT":" ","MAREA":"大埕","LANE":" ","ALLEY":" ","HOUSE_NO":"２９號之１２","E_COORD97":163113.12,"N_COORD97":2561305.52,"ADDRESS":"大埕２９號之１２","OBJECTID":165062},"geometry":{"x":163113.12000000011,"y":2561305.5200000014}},{"attributes":{"ID":165064,"DIS_CODE":0,"TOWNNAME":"七股區","LI":"大埕里","LIN":"20鄰","STREET":" ","SECT":" ","MAREA":"大埕","LANE":" ","ALLEY":" ","HOUSE_NO":"２９號之１３","E_COORD97":163112.48999999999,"N_COORD97":2561310.8599999999,"ADDRESS":"大埕２９號之１３","OBJECTID":165063},"geometry":{"x":163112.49000000022,"y":2561310.8599999994}},{"attributes":{"ID":165065,"DIS_CODE":0,"TOWNNAME":"七股區","LI":"大埕里","LIN":"20鄰","STREET":" ","SECT":" ","MAREA":"大埕","LANE":" ","ALLEY":" ","HOUSE_NO":"２９號之１４","E_COORD97":163111.35000000001,"N_COORD97":2561317.6000000001,"ADDRESS":"大埕２９號之１４","OBJECTID":165064},"geometry":{"x":163111.35000000149,"y":2561317.6000000034}},{"attributes":{"ID":165066,"DIS_CODE":0,"TOWNNAME":"七股區","LI":"大埕里","LIN":"20鄰","STREET":" ","SECT":" ","MAREA":"大埕","LANE":" ","ALLEY":" ","HOUSE_NO":"２９號之１５","E_COORD97":163110.5,"N_COORD97":2561322.7200000002,"ADDRESS":"大埕２９號之１５","OBJECTID":165065},"geometry":{"x":163110.5,"y":2561322.7200000025}},{"attributes":{"ID":165067,"DIS_CODE":0,"TOWNNAME":"七股區","LI":"大埕里","LIN":"20鄰","STREET":" ","SECT":" ","MAREA":"大埕","LANE":" ","ALLEY":" ","HOUSE_NO":"２９號之１６","E_COORD97":163092.59,"N_COORD97":2561290.54,"ADDRESS":"大埕２９號之１６","OBJECTID":165066},"geometry":{"x":163092.58999999985,"y":2561290.540000001}},{"attributes":{"ID":165068,"DIS_CODE":0,"TOWNNAME":"七股區","LI":"大埕里","LIN":"20鄰","STREET":" ","SECT":" ","MAREA":"大埕","LANE":" ","ALLEY":" ","HOUSE_NO":"２９號之１７","E_COORD97":163091.67999999999,"N_COORD97":2561296.5,"ADDRESS":"大埕２９號之１７","OBJECTID":165067},"geometry":{"x":163091.6799999997,"y":2561296.5000000019}},{"attributes":{"ID":165069,"DIS_CODE":0,"TOWNNAME":"七股區","LI":"大埕里","LIN":"20鄰","STREET":" ","SECT":" ","MAREA":"大埕","LANE":" ","ALLEY":" ","HOUSE_NO":"２９號之１８","E_COORD97":163090.76999999999,"N_COORD97":2561302.46,"ADDRESS":"大埕２９號之１８","OBJECTID":165068},"geometry":{"x":163090.76999999955,"y":2561302.4600000009}},{"attributes":{"ID":165070,"DIS_CODE":0,"TOWNNAME":"七股區","LI":"大埕里","LIN":"20鄰","STREET":" ","SECT":" ","MAREA":"大埕","LANE":" ","ALLEY":" ","HOUSE_NO":"２９號之１９","E_COORD97":163089.85999999999,"N_COORD97":2561308.4199999999,"ADDRESS":"大埕２９號之１９","OBJECTID":165069},"geometry":{"x":163089.86000000034,"y":2561308.4199999999}},{"attributes":{"ID":165071,"DIS_CODE":0,"TOWNNAME":"七股區","LI":"大埕里","LIN":"20鄰","STREET":" ","SECT":" ","MAREA":"大埕","LANE":" ","ALLEY":" ","HOUSE_NO":"２９號之１","E_COORD97":163160.13,"N_COORD97":2561346.1899999999,"ADDRESS":"大埕２９號之１","OBJECTID":165070},"geometry":{"x":163160.12999999989,"y":2561346.1899999995}},{"attributes":{"ID":165072,"DIS_CODE":0,"TOWNNAME":"七股區","LI":"大埕里","LIN":"20鄰","STREET":" ","SECT":" ","MAREA":"大埕","LANE":" ","ALLEY":" ","HOUSE_NO":"２９號之２０","E_COORD97":163088.95000000001,"N_COORD97":2561314.3700000001,"ADDRESS":"大埕２９號之２０","OBJECTID":165071},"geometry":{"x":163088.95000000019,"y":2561314.3700000029}},{"attributes":{"ID":165073,"DIS_CODE":0,"TOWNNAME":"七股區","LI":"大埕里","LIN":"20鄰","STREET":" ","SECT":" ","MAREA":"大埕","LANE":" ","ALLEY":" ","HOUSE_NO":"２９號之２１","E_COORD97":163088.03,"N_COORD97":2561320.3300000001,"ADDRESS":"大埕２９號之２１","OBJECTID":165072},"geometry":{"x":163088.03000000026,"y":2561320.3300000019}},{"attributes":{"ID":165074,"DIS_CODE":0,"TOWNNAME":"永康區","LI":"東橋里","LIN":"4鄰","STREET":"大橋一街","SECT":" ","MAREA":" ","LANE":"３２４巷","ALLEY":"６１弄","HOUSE_NO":"２號","E_COORD97":171419.32000000001,"N_COORD97":2546563.2799999998,"ADDRESS":"大橋一街３２４巷６１弄２號","OBJECTID":165073},"geometry":{"x":171419.32000000123,"y":2546563.2799999993}},{"attributes":{"ID":165075,"DIS_CODE":0,"TOWNNAME":"永康區","LI":"尚頂里","LIN":"26鄰","STREET":"南台街","SECT":" ","MAREA":" ","LANE":"５４巷","ALLEY":"１０弄","HOUSE_NO":"７號","E_COORD97":170362.95999999999,"N_COORD97":2547041.75,"ADDRESS":"南台街５４巷１０弄７號","OBJECTID":165074},"geometry":{"x":170362.95999999903,"y":2547041.75}},{"attributes":{"ID":165076,"DIS_CODE":0,"TOWNNAME":"永康區","LI":"東橋里","LIN":"26鄰","STREET":"中正路","SECT":" ","MAREA":" ","LANE":"２７９巷","ALLEY":"２弄","HOUSE_NO":"３號","E_COORD97":172715.37,"N_COORD97":2547990.75,"ADDRESS":"中正路２７９巷２弄３號","OBJECTID":165075},"geometry":{"x":172715.37000000104,"y":2547990.7500000019}},{"attributes":{"ID":165077,"DIS_CODE":0,"TOWNNAME":"永康區","LI":"尚頂里","LIN":"18鄰","STREET":"南台街","SECT":" ","MAREA":" ","LANE":"５４巷","ALLEY":"１６弄","HOUSE_NO":"１號","E_COORD97":170363.10000000001,"N_COORD97":2547087.2400000002,"ADDRESS":"南台街５４巷１６弄１號","OBJECTID":165076},"geometry":{"x":170363.09999999963,"y":2547087.2400000002}},{"attributes":{"ID":165078,"DIS_CODE":0,"TOWNNAME":"永康區","LI":"尚頂里","LIN":"26鄰","STREET":"南台街","SECT":" ","MAREA":" ","LANE":"５４巷","ALLEY":"１０弄","HOUSE_NO":"４１號","E_COORD97":170414.54000000001,"N_COORD97":2547080.2400000002,"ADDRESS":"南台街５４巷１０弄４１號","OBJECTID":165077},"geometry":{"x":170414.54000000004,"y":2547080.2400000002}},{"attributes":{"ID":165079,"DIS_CODE":0,"TOWNNAME":"永康區","LI":"尚頂里","LIN":"26鄰","STREET":"南台街","SECT":" ","MAREA":" ","LANE":"５４巷","ALLEY":"１０弄","HOUSE_NO":"３號","E_COORD97":170360.26999999999,"N_COORD97":2547034,"ADDRESS":"南台街５４巷１０弄３號","OBJECTID":165078},"geometry":{"x":170360.26999999955,"y":2547034}},{"attributes":{"ID":165080,"DIS_CODE":0,"TOWNNAME":"永康區","LI":"尚頂里","LIN":"32鄰","STREET":"中正南路","SECT":" ","MAREA":" ","LANE":"２３５巷","ALLEY":"６弄","HOUSE_NO":"２號之１","E_COORD97":170075.48000000001,"N_COORD97":2547418.4199999999,"ADDRESS":"中正南路２３５巷６弄２號之１","OBJECTID":165079},"geometry":{"x":170075.48000000138,"y":2547418.4200000037}},{"attributes":{"ID":165081,"DIS_CODE":0,"TOWNNAME":"永康區","LI":"尚頂里","LIN":"25鄰","STREET":"中正南路","SECT":" ","MAREA":" ","LANE":"２１０巷","ALLEY":"３２弄","HOUSE_NO":"８號","E_COORD97":170201.19,"N_COORD97":2547105.4900000002,"ADDRESS":"中正南路２１０巷３２弄８號","OBJECTID":165080},"geometry":{"x":170201.19000000134,"y":2547105.4900000002}},{"attributes":{"ID":165082,"DIS_CODE":0,"TOWNNAME":"永康區","LI":"西灣里","LIN":"46鄰","STREET":"永華路","SECT":" ","MAREA":" ","LANE":"２０１巷","ALLEY":"３２弄","HOUSE_NO":"５０號","E_COORD97":173993.26000000001,"N_COORD97":2545690.5800000001,"ADDRESS":"永華路２０１巷３２弄５０號","OBJECTID":165081},"geometry":{"x":173993.25999999978,"y":2545690.5800000001}},{"attributes":{"ID":165083,"DIS_CODE":0,"TOWNNAME":"永康區","LI":"尚頂里","LIN":"18鄰","STREET":"南台街","SECT":" ","MAREA":" ","LANE":"５４巷","ALLEY":"１８弄","HOUSE_NO":"２５號","E_COORD97":170394.23000000001,"N_COORD97":2547131,"ADDRESS":"南台街５４巷１８弄２５號","OBJECTID":165082},"geometry":{"x":170394.23000000138,"y":2547131.0000000019}},{"attributes":{"ID":165084,"DIS_CODE":0,"TOWNNAME":"永康區","LI":"西灣里","LIN":"26鄰","STREET":"國光七街","SECT":" ","MAREA":" ","LANE":"６巷","ALLEY":"１１弄","HOUSE_NO":"５號","E_COORD97":174367.79000000001,"N_COORD97":2545632.25,"ADDRESS":"國光七街６巷１１弄５號","OBJECTID":165083},"geometry":{"x":174367.79000000004,"y":2545632.25}},{"attributes":{"ID":165085,"DIS_CODE":0,"TOWNNAME":"永康區","LI":"西灣里","LIN":"46鄰","STREET":"永華路","SECT":" ","MAREA":" ","LANE":"２０１巷","ALLEY":"３２弄","HOUSE_NO":"４０號","E_COORD97":174013.51000000001,"N_COORD97":2545696.3300000001,"ADDRESS":"永華路２０１巷３２弄４０號","OBJECTID":165084},"geometry":{"x":174013.50999999978,"y":2545696.3300000001}},{"attributes":{"ID":165086,"DIS_CODE":0,"TOWNNAME":"永康區","LI":"西灣里","LIN":"46鄰","STREET":"永華路","SECT":" ","MAREA":" ","LANE":"２０１巷","ALLEY":"３２弄","HOUSE_NO":"４２號","E_COORD97":174009.31,"N_COORD97":2545695.0800000001,"ADDRESS":"永華路２０１巷３２弄４２號","OBJECTID":165085},"geometry":{"x":174009.30999999959,"y":2545695.0799999982}},{"attributes":{"ID":165087,"DIS_CODE":0,"TOWNNAME":"永康區","LI":"尚頂里","LIN":"18鄰","STREET":"南台街","SECT":" ","MAREA":" ","LANE":"５４巷","ALLEY":"１８弄","HOUSE_NO":"１號","E_COORD97":170342.5,"N_COORD97":2547114.7400000002,"ADDRESS":"南台街５４巷１８弄１號","OBJECTID":165086},"geometry":{"x":170342.50000000186,"y":2547114.7399999984}},{"attributes":{"ID":165088,"DIS_CODE":0,"TOWNNAME":"永康區","LI":"東橋里","LIN":"26鄰","STREET":"中正路","SECT":" ","MAREA":" ","LANE":"２７９巷","ALLEY":"２弄","HOUSE_NO":"２２號","E_COORD97":172645.45999999999,"N_COORD97":2547968.75,"ADDRESS":"中正路２７９巷２弄２２號","OBJECTID":165087},"geometry":{"x":172645.46000000089,"y":2547968.7499999981}},{"attributes":{"ID":165089,"DIS_CODE":0,"TOWNNAME":"永康區","LI":"尚頂里","LIN":"25鄰","STREET":"中正南路","SECT":" ","MAREA":" ","LANE":"２１０巷","ALLEY":"１２弄","HOUSE_NO":"３６號","E_COORD97":170220.35000000001,"N_COORD97":2547054.5,"ADDRESS":"中正南路２１０巷１２弄３６號","OBJECTID":165088},"geometry":{"x":170220.34999999963,"y":2547054.5}},{"attributes":{"ID":165090,"DIS_CODE":0,"TOWNNAME":"永康區","LI":"建國里","LIN":"32鄰","STREET":"復興路","SECT":" ","MAREA":" ","LANE":"１巷","ALLEY":"３０弄","HOUSE_NO":"１２５號","E_COORD97":173100.23000000001,"N_COORD97":2543771.9199999999,"ADDRESS":"復興路１巷３０弄１２５號","OBJECTID":165089},"geometry":{"x":173100.23000000138,"y":2543771.9200000018}},{"attributes":{"ID":165091,"DIS_CODE":0,"TOWNNAME":"永康區","LI":"尚頂里","LIN":"4鄰","STREET":"正南一街","SECT":" ","MAREA":" ","LANE":"１９０巷","ALLEY":"２７弄","HOUSE_NO":"２０號","E_COORD97":170841.26000000001,"N_COORD97":2547484.3100000001,"ADDRESS":"正南一街１９０巷２７弄２０號","OBJECTID":165090},"geometry":{"x":170841.26000000071,"y":2547484.3100000042}},{"attributes":{"ID":165092,"DIS_CODE":0,"TOWNNAME":"永康區","LI":"西灣里","LIN":"26鄰","STREET":"國光七街","SECT":" ","MAREA":" ","LANE":"６巷","ALLEY":"１１弄","HOUSE_NO":"１號","E_COORD97":174376.60000000001,"N_COORD97":2545630.5,"ADDRESS":"國光七街６巷１１弄１號","OBJECTID":165091},"geometry":{"x":174376.60000000056,"y":2545630.5}},{"attributes":{"ID":165093,"DIS_CODE":0,"TOWNNAME":"永康區","LI":"尚頂里","LIN":"26鄰","STREET":"南台街","SECT":" ","MAREA":" ","LANE":"５４巷","ALLEY":"１０弄","HOUSE_NO":"１７號","E_COORD97":170373.89000000001,"N_COORD97":2547071.5,"ADDRESS":"南台街５４巷１０弄１７號","OBJECTID":165092},"geometry":{"x":170373.8900000006,"y":2547071.5}},{"attributes":{"ID":165094,"DIS_CODE":0,"TOWNNAME":"永康區","LI":"尚頂里","LIN":"26鄰","STREET":"南台街","SECT":" ","MAREA":" ","LANE":"５４巷","ALLEY":"１０弄","HOUSE_NO":"１１號","E_COORD97":170367.09,"N_COORD97":2547049.5,"ADDRESS":"南台街５４巷１０弄１１號","OBJECTID":165093},"geometry":{"x":170367.09000000171,"y":2547049.5000000019}},{"attributes":{"ID":165095,"DIS_CODE":0,"TOWNNAME":"永康區","LI":"尚頂里","LIN":"4鄰","STREET":"正南一街","SECT":" ","MAREA":" ","LANE":"１９０巷","ALLEY":"２７弄","HOUSE_NO":"１６號","E_COORD97":170822.38,"N_COORD97":2547491.6000000001,"ADDRESS":"正南一街１９０巷２７弄１６號","OBJECTID":165094},"geometry":{"x":170822.37999999989,"y":2547491.6000000034}},{"attributes":{"ID":165096,"DIS_CODE":0,"TOWNNAME":"永康區","LI":"尚頂里","LIN":"25鄰","STREET":"中正南路","SECT":" ","MAREA":" ","LANE":"２１０巷","ALLEY":"１２弄","HOUSE_NO":"２８號","E_COORD97":170205.10000000001,"N_COORD97":2547067,"ADDRESS":"中正南路２１０巷１２弄２８號","OBJECTID":165095},"geometry":{"x":170205.09999999963,"y":2547067.0000000019}},{"attributes":{"ID":165097,"DIS_CODE":0,"TOWNNAME":"永康區","LI":"西灣里","LIN":"32鄰","STREET":"公園路","SECT":" ","MAREA":" ","LANE":"９３巷","ALLEY":"１２弄","HOUSE_NO":"５號","E_COORD97":174244.19,"N_COORD97":2545860.5499999998,"ADDRESS":"公園路９３巷１２弄５號","OBJECTID":165096},"geometry":{"x":174244.19000000134,"y":2545860.5500000026}},{"attributes":{"ID":165098,"DIS_CODE":0,"TOWNNAME":"永康區","LI":"尚頂里","LIN":"26鄰","STREET":"南台街","SECT":" ","MAREA":" ","LANE":"５４巷","ALLEY":"１０弄","HOUSE_NO":"２９號","E_COORD97":170394.34,"N_COORD97":2547059.25,"ADDRESS":"南台街５４巷１０弄２９號","OBJECTID":165097},"geometry":{"x":170394.34000000171,"y":2547059.25}},{"attributes":{"ID":165099,"DIS_CODE":0,"TOWNNAME":"永康區","LI":"尚頂里","LIN":"25鄰","STREET":"中正南路","SECT":" ","MAREA":" ","LANE":"２１０巷","ALLEY":"１２弄","HOUSE_NO":"３８號","E_COORD97":170223.56,"N_COORD97":2547051.25,"ADDRESS":"中正南路２１０巷１２弄３８號","OBJECTID":165098},"geometry":{"x":170223.56000000052,"y":2547051.2500000019}},{"attributes":{"ID":165100,"DIS_CODE":0,"TOWNNAME":"永康區","LI":"尚頂里","LIN":"18鄰","STREET":"南台街","SECT":" ","MAREA":" ","LANE":"５４巷","ALLEY":"１８弄","HOUSE_NO":"１５號","E_COORD97":170373.39999999999,"N_COORD97":2547124.9900000002,"ADDRESS":"南台街５４巷１８弄１５號","OBJECTID":165099},"geometry":{"x":170373.40000000037,"y":2547124.9900000021}},{"attributes":{"ID":165101,"DIS_CODE":0,"TOWNNAME":"永康區","LI":"建國里","LIN":"4鄰","STREET":"復興路","SECT":" ","MAREA":" ","LANE":"５６巷","ALLEY":"７弄","HOUSE_NO":"４號","E_COORD97":172851.64000000001,"N_COORD97":2544432.52,"ADDRESS":"復興路５６巷７弄４號","OBJECTID":165100},"geometry":{"x":172851.63999999873,"y":2544432.5199999996}},{"attributes":{"ID":165102,"DIS_CODE":0,"TOWNNAME":"永康區","LI":"尚頂里","LIN":"18鄰","STREET":"南台街","SECT":" ","MAREA":" ","LANE":"５４巷","ALLEY":"１８弄","HOUSE_NO":"１２號","E_COORD97":170368.60000000001,"N_COORD97":2547111.2400000002,"ADDRESS":"南台街５４巷１８弄１２號","OBJECTID":165101},"geometry":{"x":170368.60000000149,"y":2547111.2399999984}},{"attributes":{"ID":165103,"DIS_CODE":0,"TOWNNAME":"永康區","LI":"西灣里","LIN":"46鄰","STREET":"永華路","SECT":" ","MAREA":" ","LANE":"２０１巷","ALLEY":"３２弄","HOUSE_NO":"３６號","E_COORD97":174021.42000000001,"N_COORD97":2545698.5800000001,"ADDRESS":"永華路２０１巷３２弄３６號","OBJECTID":165102},"geometry":{"x":174021.42000000179,"y":2545698.5800000038}},{"attributes":{"ID":165104,"DIS_CODE":0,"TOWNNAME":"永康區","LI":"尚頂里","LIN":"25鄰","STREET":"中正南路","SECT":" ","MAREA":" ","LANE":"２１０巷","ALLEY":"１２弄","HOUSE_NO":"４０號","E_COORD97":170227.32000000001,"N_COORD97":2547047,"ADDRESS":"中正南路２１０巷１２弄４０號","OBJECTID":165103},"geometry":{"x":170227.32000000123,"y":2547047}},{"attributes":{"ID":165105,"DIS_CODE":0,"TOWNNAME":"永康區","LI":"建國里","LIN":"32鄰","STREET":"復興路","SECT":" ","MAREA":" ","LANE":"１巷","ALLEY":"３０弄","HOUSE_NO":"１號","E_COORD97":173145.76999999999,"N_COORD97":2544085.7400000002,"ADDRESS":"復興路１巷３０弄１號","OBJECTID":165104},"geometry":{"x":173145.77000000142,"y":2544085.7400000002}},{"attributes":{"ID":165106,"DIS_CODE":0,"TOWNNAME":"永康區","LI":"建國里","LIN":"4鄰","STREET":"復興路","SECT":" ","MAREA":" ","LANE":"５６巷","ALLEY":"７弄","HOUSE_NO":"２號","E_COORD97":172853.34,"N_COORD97":2544437.7799999998,"ADDRESS":"復興路５６巷７弄２號","OBJECTID":165105},"geometry":{"x":172853.33999999985,"y":2544437.7799999993}},{"attributes":{"ID":165107,"DIS_CODE":0,"TOWNNAME":"永康區","LI":"尚頂里","LIN":"18鄰","STREET":"南台街","SECT":" ","MAREA":" ","LANE":"５４巷","ALLEY":"１８弄","HOUSE_NO":"２８號","E_COORD97":170401.56,"N_COORD97":2547121.7400000002,"ADDRESS":"南台街５４巷１８弄２８號","OBJECTID":165106},"geometry":{"x":170401.56000000052,"y":2547121.7400000039}},{"attributes":{"ID":165108,"DIS_CODE":0,"TOWNNAME":"永康區","LI":"尚頂里","LIN":"18鄰","STREET":"南台街","SECT":" ","MAREA":" ","LANE":"５４巷","ALLEY":"１８弄","HOUSE_NO":"１８號","E_COORD97":170380.70999999999,"N_COORD97":2547115.2400000002,"ADDRESS":"南台街５４巷１８弄１８號","OBJECTID":165107},"geometry":{"x":170380.71000000089,"y":2547115.2400000021}},{"attributes":{"ID":165109,"DIS_CODE":0,"TOWNNAME":"永康區","LI":"尚頂里","LIN":"26鄰","STREET":"南台街","SECT":" ","MAREA":" ","LANE":"５４巷","ALLEY":"１０弄","HOUSE_NO":"２號之３","E_COORD97":170374.32999999999,"N_COORD97":2547022.79,"ADDRESS":"南台街５４巷１０弄２號之３","OBJECTID":165108},"geometry":{"x":170374.33000000194,"y":2547022.790000001}},{"attributes":{"ID":165110,"DIS_CODE":0,"TOWNNAME":"永康區","LI":"西灣里","LIN":"32鄰","STREET":"公園路","SECT":" ","MAREA":" ","LANE":"９３巷","ALLEY":"１２弄","HOUSE_NO":"９號","E_COORD97":174235.53,"N_COORD97":2545858.5499999998,"ADDRESS":"公園路９３巷１２弄９號","OBJECTID":165109},"geometry":{"x":174235.53000000119,"y":2545858.5500000007}},{"attributes":{"ID":165111,"DIS_CODE":0,"TOWNNAME":"永康區","LI":"西灣里","LIN":"46鄰","STREET":"永華路","SECT":" ","MAREA":" ","LANE":"２０１巷","ALLEY":"３２弄","HOUSE_NO":"５８號","E_COORD97":173980.20000000001,"N_COORD97":2545707.3199999998,"ADDRESS":"永華路２０１巷３２弄５８號","OBJECTID":165110},"geometry":{"x":173980.20000000019,"y":2545707.320000004}},{"attributes":{"ID":165112,"DIS_CODE":0,"TOWNNAME":"永康區","LI":"西灣里","LIN":"26鄰","STREET":"國光七街","SECT":" ","MAREA":" ","LANE":"６巷","ALLEY":"１１弄","HOUSE_NO":"１８號","E_COORD97":174360.89999999999,"N_COORD97":2545667.3799999999,"ADDRESS":"國光七街６巷１１弄１８號","OBJECTID":165111},"geometry":{"x":174360.90000000037,"y":2545667.379999999}},{"attributes":{"ID":165113,"DIS_CODE":0,"TOWNNAME":"永康區","LI":"東橋里","LIN":"26鄰","STREET":"中正路","SECT":" ","MAREA":" ","LANE":"２７９巷","ALLEY":"２弄","HOUSE_NO":"１號","E_COORD97":172727.57999999999,"N_COORD97":2547997.75,"ADDRESS":"中正路２７９巷２弄１號","OBJECTID":165112},"geometry":{"x":172727.58000000101,"y":2547997.7500000019}},{"attributes":{"ID":165114,"DIS_CODE":0,"TOWNNAME":"永康區","LI":"尚頂里","LIN":"25鄰","STREET":"中正南路","SECT":" ","MAREA":" ","LANE":"２１０巷","ALLEY":"１２弄","HOUSE_NO":"２０號","E_COORD97":170191.79999999999,"N_COORD97":2547080.2400000002,"ADDRESS":"中正南路２１０巷１２弄２０號","OBJECTID":165113},"geometry":{"x":170191.80000000075,"y":2547080.2400000002}},{"attributes":{"ID":165115,"DIS_CODE":0,"TOWNNAME":"永康區","LI":"尚頂里","LIN":"32鄰","STREET":"中正南路","SECT":" ","MAREA":" ","LANE":"２３５巷","ALLEY":"６弄","HOUSE_NO":"３號","E_COORD97":170046.85000000001,"N_COORD97":2547414.3599999999,"ADDRESS":"中正南路２３５巷６弄３號","OBJECTID":165114},"geometry":{"x":170046.85000000056,"y":2547414.3599999994}},{"attributes":{"ID":165116,"DIS_CODE":0,"TOWNNAME":"永康區","LI":"正強里","LIN":"25鄰","STREET":"中正路","SECT":" ","MAREA":" ","LANE":"１２７巷","ALLEY":"８弄","HOUSE_NO":"１號","E_COORD97":173354.35999999999,"N_COORD97":2547832.4900000002,"ADDRESS":"中正路１２７巷８弄１號","OBJECTID":165115},"geometry":{"x":173354.3600000022,"y":2547832.4900000021}},{"attributes":{"ID":165117,"DIS_CODE":0,"TOWNNAME":"永康區","LI":"正強里","LIN":"26鄰","STREET":"中正路","SECT":" ","MAREA":" ","LANE":"１５５巷","ALLEY":"１９弄","HOUSE_NO":"３號","E_COORD97":173244.06,"N_COORD97":2547799.3900000001,"ADDRESS":"中正路１５５巷１９弄３號","OBJECTID":165116},"geometry":{"x":173244.06000000052,"y":2547799.3900000025}},{"attributes":{"ID":165118,"DIS_CODE":0,"TOWNNAME":"永康區","LI":"正強里","LIN":"26鄰","STREET":"中正路","SECT":" ","MAREA":" ","LANE":"１５５巷","ALLEY":"１７弄","HOUSE_NO":"９號","E_COORD97":173258.14000000001,"N_COORD97":2547836.4500000002,"ADDRESS":"中正路１５５巷１７弄９號","OBJECTID":165117},"geometry":{"x":173258.13999999966,"y":2547836.4499999993}},{"attributes":{"ID":165119,"DIS_CODE":0,"TOWNNAME":"安南區","LI":"溪墘里","LIN":"8鄰","STREET":"安富街","SECT":" ","MAREA":" ","LANE":" ","ALLEY":" ","HOUSE_NO":"３５０號","E_COORD97":167304.60000000001,"N_COORD97":2547406.8700000001,"ADDRESS":"安富街３５０號","OBJECTID":165118},"geometry":{"x":167304.59999999963,"y":2547406.8700000029}},{"attributes":{"ID":165120,"DIS_CODE":0,"TOWNNAME":"安南區","LI":"溪墘里","LIN":"8鄰","STREET":"安富街","SECT":" ","MAREA":" ","LANE":" ","ALLEY":" ","HOUSE_NO":"３５２號","E_COORD97":167299.41,"N_COORD97":2547406.2200000002,"ADDRESS":"安富街３５２號","OBJECTID":165119},"geometry":{"x":167299.41000000108,"y":2547406.2200000007}},{"attributes":{"ID":165121,"DIS_CODE":0,"TOWNNAME":"安南區","LI":"海西里","LIN":"5鄰","STREET":"海環街","SECT":" ","MAREA":" ","LANE":" ","ALLEY":" ","HOUSE_NO":"４２３號","E_COORD97":166131.95000000001,"N_COORD97":2548994.3399999999,"ADDRESS":"海環街４２３號","OBJECTID":165120},"geometry":{"x":166131.95000000019,"y":2548994.3399999999}},{"attributes":{"ID":165122,"DIS_CODE":0,"TOWNNAME":"安南區","LI":"海東里","LIN":"20鄰","STREET":"海佃路","SECT":"二段","MAREA":" ","LANE":" ","ALLEY":" ","HOUSE_NO":"３０５號","E_COORD97":166793.81,"N_COORD97":2548692.3199999998,"ADDRESS":"海佃路二段３０５號","OBJECTID":165121},"geometry":{"x":166793.81000000052,"y":2548692.3200000022}},{"attributes":{"ID":165123,"DIS_CODE":0,"TOWNNAME":"安南區","LI":"佃西里","LIN":"13鄰","STREET":"海佃路","SECT":"四段","MAREA":" ","LANE":" ","ALLEY":" ","HOUSE_NO":"４９３號","E_COORD97":165288.20999999999,"N_COORD97":2551588.02,"ADDRESS":"海佃路四段４９３號","OBJECTID":165122},"geometry":{"x":165288.21000000089,"y":2551588.0200000014}},{"attributes":{"ID":165124,"DIS_CODE":0,"TOWNNAME":"安南區","LI":"佃西里","LIN":"13鄰","STREET":"海佃路","SECT":"四段","MAREA":" ","LANE":" ","ALLEY":" ","HOUSE_NO":"５２３號","E_COORD97":165213.91,"N_COORD97":2551636.0499999998,"ADDRESS":"海佃路四段５２３號","OBJECTID":165123},"geometry":{"x":165213.91000000108,"y":2551636.0500000045}},{"attributes":{"ID":165125,"DIS_CODE":0,"TOWNNAME":"安南區","LI":"海東里","LIN":"20鄰","STREET":"海佃路","SECT":"二段","MAREA":" ","LANE":" ","ALLEY":" ","HOUSE_NO":"２７５號","E_COORD97":166811.48999999999,"N_COORD97":2548623.8900000001,"ADDRESS":"海佃路二段２７５號","OBJECTID":165124},"geometry":{"x":166811.49000000022,"y":2548623.8900000025}},{"attributes":{"ID":165126,"DIS_CODE":0,"TOWNNAME":"安南區","LI":"海東里","LIN":"13鄰","STREET":"海佃路","SECT":"二段","MAREA":" ","LANE":" ","ALLEY":" ","HOUSE_NO":"３７９號","E_COORD97":166739.04999999999,"N_COORD97":2548911.2999999998,"ADDRESS":"海佃路二段３７９號","OBJECTID":165125},"geometry":{"x":166739.04999999981,"y":2548911.3000000007}},{"attributes":{"ID":165127,"DIS_CODE":0,"TOWNNAME":"佳里區","LI":"鎮山里","LIN":"20鄰","STREET":"鎮山街","SECT":" ","MAREA":" ","LANE":" ","ALLEY":" ","HOUSE_NO":"１６２號","E_COORD97":166265.92000000001,"N_COORD97":2560965.8900000001,"ADDRESS":"鎮山街１６２號","OBJECTID":165126},"geometry":{"x":166265.91999999899,"y":2560965.8900000006}},{"attributes":{"ID":165128,"DIS_CODE":0,"TOWNNAME":"佳里區","LI":"鎮山里","LIN":"20鄰","STREET":"鎮山街","SECT":" ","MAREA":" ","LANE":" ","ALLEY":" ","HOUSE_NO":"１６６號","E_COORD97":166264.95999999999,"N_COORD97":2560958.0699999998,"ADDRESS":"鎮山街１６６號","OBJECTID":165127},"geometry":{"x":166264.95999999996,"y":2560958.0700000003}},{"attributes":{"ID":165129,"DIS_CODE":0,"TOWNNAME":"佳里區","LI":"鎮山里","LIN":"20鄰","STREET":"鎮山街","SECT":" ","MAREA":" ","LANE":" ","ALLEY":" ","HOUSE_NO":"１６８號","E_COORD97":166264.09,"N_COORD97":2560953.6499999999,"ADDRESS":"鎮山街１６８號","OBJECTID":165128},"geometry":{"x":166264.08999999985,"y":2560953.6500000004}},{"attributes":{"ID":165130,"DIS_CODE":0,"TOWNNAME":"佳里區","LI":"鎮山里","LIN":"20鄰","STREET":"鎮山街","SECT":" ","MAREA":" ","LANE":" ","ALLEY":" ","HOUSE_NO":"１７０號","E_COORD97":166263.37,"N_COORD97":2560949.71,"ADDRESS":"鎮山街１７０號","OBJECTID":165129},"geometry":{"x":166263.37000000104,"y":2560949.7100000028}},{"attributes":{"ID":165131,"DIS_CODE":0,"TOWNNAME":"佳里區","LI":"鎮山里","LIN":"20鄰","STREET":"鎮山街","SECT":" ","MAREA":" ","LANE":" ","ALLEY":" ","HOUSE_NO":"１７６號","E_COORD97":166262.28,"N_COORD97":2560940.8700000001,"ADDRESS":"鎮山街１７６號","OBJECTID":165130},"geometry":{"x":166262.28000000212,"y":2560940.8700000048}},{"attributes":{"ID":165132,"DIS_CODE":0,"TOWNNAME":"佳里區","LI":"鎮山里","LIN":"20鄰","STREET":"鎮山街","SECT":" ","MAREA":" ","LANE":" ","ALLEY":" ","HOUSE_NO":"１７８號","E_COORD97":166261.51999999999,"N_COORD97":2560936.7400000002,"ADDRESS":"鎮山街１７８號","OBJECTID":165131},"geometry":{"x":166261.52000000142,"y":2560936.7400000002}},{"attributes":{"ID":165133,"DIS_CODE":0,"TOWNNAME":"永康區","LI":"正強里","LIN":"25鄰","STREET":"中正路","SECT":" ","MAREA":" ","LANE":"１２７巷","ALLEY":"８弄","HOUSE_NO":"５號","E_COORD97":173344.64999999999,"N_COORD97":2547829.4900000002,"ADDRESS":"中正路１２７巷８弄５號","OBJECTID":165132},"geometry":{"x":173344.6500000013,"y":2547829.4900000021}},{"attributes":{"ID":165134,"DIS_CODE":0,"TOWNNAME":"永康區","LI":"北灣里","LIN":"18鄰","STREET":"文賢街","SECT":" ","MAREA":" ","LANE":"４２２巷","ALLEY":"３０弄","HOUSE_NO":"６號","E_COORD97":174695.45999999999,"N_COORD97":2545887.6099999999,"ADDRESS":"文賢街４２２巷３０弄６號","OBJECTID":165133},"geometry":{"x":174695.45999999996,"y":2545887.6100000031}},{"attributes":{"ID":165135,"DIS_CODE":0,"TOWNNAME":"永康區","LI":"正強里","LIN":"20鄰","STREET":"中山南路","SECT":" ","MAREA":" ","LANE":"４７１巷","ALLEY":"１５弄","HOUSE_NO":"２號","E_COORD97":173122.59,"N_COORD97":2547180.8399999999,"ADDRESS":"中山南路４７１巷１５弄２號","OBJECTID":165134},"geometry":{"x":173122.59000000078,"y":2547180.8399999999}},{"attributes":{"ID":165136,"DIS_CODE":0,"TOWNNAME":"永康區","LI":"北灣里","LIN":"39鄰","STREET":"大同街","SECT":" ","MAREA":" ","LANE":"４２５巷","ALLEY":"１弄","HOUSE_NO":"１號","E_COORD97":174598.01999999999,"N_COORD97":2546314.6000000001,"ADDRESS":"大同街４２５巷１弄１號","OBJECTID":165135},"geometry":{"x":174598.01999999955,"y":2546314.5999999996}},{"attributes":{"ID":165137,"DIS_CODE":0,"TOWNNAME":"永康區","LI":"正強里","LIN":"20鄰","STREET":"中山南路","SECT":" ","MAREA":" ","LANE":"４７１巷","ALLEY":"２７弄","HOUSE_NO":"５號","E_COORD97":173136.88,"N_COORD97":2547191.4100000001,"ADDRESS":"中山南路４７１巷２７弄５號","OBJECTID":165136},"geometry":{"x":173136.88000000175,"y":2547191.4099999983}},{"attributes":{"ID":165138,"DIS_CODE":0,"TOWNNAME":"永康區","LI":"正強里","LIN":"20鄰","STREET":"中山南路","SECT":" ","MAREA":" ","LANE":"４７１巷","ALLEY":"１５弄","HOUSE_NO":"７號","E_COORD97":173121.20999999999,"N_COORD97":2547219.2400000002,"ADDRESS":"中山南路４７１巷１５弄７號","OBJECTID":165137},"geometry":{"x":173121.21000000183,"y":2547219.2400000002}},{"attributes":{"ID":165139,"DIS_CODE":0,"TOWNNAME":"永康區","LI":"正強里","LIN":"32鄰","STREET":"四維街","SECT":" ","MAREA":" ","LANE":"２９巷","ALLEY":"１６弄","HOUSE_NO":"１號","E_COORD97":173354.67999999999,"N_COORD97":2548019.4900000002,"ADDRESS":"四維街２９巷１６弄１號","OBJECTID":165138},"geometry":{"x":173354.6799999997,"y":2548019.4900000021}},{"attributes":{"ID":165140,"DIS_CODE":0,"TOWNNAME":"永康區","LI":"北灣里","LIN":"26鄰","STREET":"文賢街","SECT":" ","MAREA":" ","LANE":"７８巷","ALLEY":"１９弄","HOUSE_NO":"４５號","E_COORD97":175421.16,"N_COORD97":2545398.8300000001,"ADDRESS":"文賢街７８巷１９弄４５號","OBJECTID":165139},"geometry":{"x":175421.16000000108,"y":2545398.8300000038}},{"attributes":{"ID":165141,"DIS_CODE":0,"TOWNNAME":"永康區","LI":"正強里","LIN":"32鄰","STREET":"四維街","SECT":" ","MAREA":" ","LANE":"２９巷","ALLEY":"１６弄","HOUSE_NO":"２號","E_COORD97":173371.82999999999,"N_COORD97":2548024.9900000002,"ADDRESS":"四維街２９巷１６弄２號","OBJECTID":165140},"geometry":{"x":173371.83000000101,"y":2548024.9899999984}},{"attributes":{"ID":165142,"DIS_CODE":0,"TOWNNAME":"永康區","LI":"北灣里","LIN":"18鄰","STREET":"文賢街","SECT":" ","MAREA":" ","LANE":"４２２巷","ALLEY":"３０弄","HOUSE_NO":"８號","E_COORD97":174701.64999999999,"N_COORD97":2545884.98,"ADDRESS":"文賢街４２２巷３０弄８號","OBJECTID":165141},"geometry":{"x":174701.65000000037,"y":2545884.9800000004}},{"attributes":{"ID":165143,"DIS_CODE":0,"TOWNNAME":"永康區","LI":"北灣里","LIN":"26鄰","STREET":"文賢街","SECT":" ","MAREA":" ","LANE":"７８巷","ALLEY":"１９弄","HOUSE_NO":"１３號","E_COORD97":175408.39999999999,"N_COORD97":2545348.5699999998,"ADDRESS":"文賢街７８巷１９弄１３號","OBJECTID":165142},"geometry":{"x":175408.40000000037,"y":2545348.5700000003}},{"attributes":{"ID":165144,"DIS_CODE":0,"TOWNNAME":"永康區","LI":"北灣里","LIN":"26鄰","STREET":"文賢街","SECT":" ","MAREA":" ","LANE":"７８巷","ALLEY":"１９弄","HOUSE_NO":"３９號","E_COORD97":175433.26000000001,"N_COORD97":2545398.8300000001,"ADDRESS":"文賢街７８巷１９弄３９號","OBJECTID":165143},"geometry":{"x":175433.26000000071,"y":2545398.8300000038}},{"attributes":{"ID":165145,"DIS_CODE":0,"TOWNNAME":"永康區","LI":"正強里","LIN":"13鄰","STREET":"正強街","SECT":" ","MAREA":" ","LANE":"１１１巷","ALLEY":"１６弄","HOUSE_NO":"７號","E_COORD97":173261.39000000001,"N_COORD97":2547425.3700000001,"ADDRESS":"正強街１１１巷１６弄７號","OBJECTID":165144},"geometry":{"x":173261.38999999966,"y":2547425.370000001}},{"attributes":{"ID":165146,"DIS_CODE":0,"TOWNNAME":"永康區","LI":"正強里","LIN":"20鄰","STREET":"中山南路","SECT":" ","MAREA":" ","LANE":"４７１巷","ALLEY":"２７弄","HOUSE_NO":"１２號","E_COORD97":173143.39999999999,"N_COORD97":2547214.8700000001,"ADDRESS":"中山南路４７１巷２７弄１２號","OBJECTID":165145},"geometry":{"x":173143.40000000037,"y":2547214.8700000029}},{"attributes":{"ID":165147,"DIS_CODE":0,"TOWNNAME":"安南區","LI":"佃西里","LIN":"8鄰","STREET":"公學路","SECT":"四段","MAREA":" ","LANE":" ","ALLEY":" ","HOUSE_NO":"３１０號","E_COORD97":165327.75,"N_COORD97":2551775.1899999999,"ADDRESS":"公學路四段３１０號","OBJECTID":165146},"geometry":{"x":165327.75,"y":2551775.1899999995}},{"attributes":{"ID":165148,"DIS_CODE":0,"TOWNNAME":"安南區","LI":"州南里","LIN":"4鄰","STREET":"安和路","SECT":"四段","MAREA":" ","LANE":" ","ALLEY":" ","HOUSE_NO":"５６９號","E_COORD97":169922.44,"N_COORD97":2551420.6899999999,"ADDRESS":"安和路四段５６９號","OBJECTID":165147},"geometry":{"x":169922.44000000041,"y":2551420.6900000013}},{"attributes":{"ID":165149,"DIS_CODE":0,"TOWNNAME":"學甲區","LI":"三慶里","LIN":"12鄰","STREET":" ","SECT":" ","MAREA":"頂洲","LANE":" ","ALLEY":" ","HOUSE_NO":"１５５號","E_COORD97":168363.88,"N_COORD97":2576560.6899999999,"ADDRESS":"頂洲１５５號","OBJECTID":165148},"geometry":{"x":168363.88000000082,"y":2576560.6900000013}},{"attributes":{"ID":165150,"DIS_CODE":0,"TOWNNAME":"學甲區","LI":"三慶里","LIN":"12鄰","STREET":" ","SECT":" ","MAREA":"頂洲","LANE":" ","ALLEY":" ","HOUSE_NO":"１５６號","E_COORD97":168344.64999999999,"N_COORD97":2576590.7999999998,"ADDRESS":"頂洲１５６號","OBJECTID":165149},"geometry":{"x":168344.65000000037,"y":2576590.7999999989}},{"attributes":{"ID":165151,"DIS_CODE":0,"TOWNNAME":"學甲區","LI":"三慶里","LIN":"12鄰","STREET":" ","SECT":" ","MAREA":"頂洲","LANE":" ","ALLEY":" ","HOUSE_NO":"１５７號","E_COORD97":168349.87,"N_COORD97":2576566.98,"ADDRESS":"頂洲１５７號","OBJECTID":165150},"geometry":{"x":168349.87000000197,"y":2576566.9800000023}},{"attributes":{"ID":165152,"DIS_CODE":0,"TOWNNAME":"學甲區","LI":"三慶里","LIN":"12鄰","STREET":" ","SECT":" ","MAREA":"頂洲","LANE":" ","ALLEY":" ","HOUSE_NO":"１５８號","E_COORD97":168334.39999999999,"N_COORD97":2576576.9900000002,"ADDRESS":"頂洲１５８號","OBJECTID":165151},"geometry":{"x":168334.40000000037,"y":2576576.9900000021}},{"attributes":{"ID":165153,"DIS_CODE":0,"TOWNNAME":"學甲區","LI":"三慶里","LIN":"12鄰","STREET":" ","SECT":" ","MAREA":"頂洲","LANE":" ","ALLEY":" ","HOUSE_NO":"１５９號","E_COORD97":168327.54999999999,"N_COORD97":2576586.52,"ADDRESS":"頂洲１５９號","OBJECTID":165152},"geometry":{"x":168327.54999999981,"y":2576586.5200000014}},{"attributes":{"ID":165154,"DIS_CODE":0,"TOWNNAME":"學甲區","LI":"三慶里","LIN":"12鄰","STREET":" ","SECT":" ","MAREA":"頂洲","LANE":" ","ALLEY":" ","HOUSE_NO":"１６１號","E_COORD97":168307.14999999999,"N_COORD97":2576581.1600000001,"ADDRESS":"頂洲１６１號","OBJECTID":165153},"geometry":{"x":168307.15000000037,"y":2576581.1600000039}},{"attributes":{"ID":165155,"DIS_CODE":0,"TOWNNAME":"學甲區","LI":"平和里","LIN":"12鄰","STREET":" ","SECT":" ","MAREA":"學甲寮","LANE":" ","ALLEY":" ","HOUSE_NO":"１２１號","E_COORD97":169579.26999999999,"N_COORD97":2573307.7000000002,"ADDRESS":"學甲寮１２１號","OBJECTID":165154},"geometry":{"x":169579.27000000048,"y":2573307.6999999993}},{"attributes":{"ID":165156,"DIS_CODE":0,"TOWNNAME":"學甲區","LI":"平和里","LIN":"12鄰","STREET":" ","SECT":" ","MAREA":"學甲寮","LANE":" ","ALLEY":" ","HOUSE_NO":"１２２號之１","E_COORD97":169599.14000000001,"N_COORD97":2573315.04,"ADDRESS":"學甲寮１２２號之１","OBJECTID":165155},"geometry":{"x":169599.1400000006,"y":2573315.0399999991}},{"attributes":{"ID":165157,"DIS_CODE":0,"TOWNNAME":"學甲區","LI":"平和里","LIN":"12鄰","STREET":" ","SECT":" ","MAREA":"學甲寮","LANE":" ","ALLEY":" ","HOUSE_NO":"１２２號之２","E_COORD97":169599.42999999999,"N_COORD97":2573310.5600000001,"ADDRESS":"學甲寮１２２號之２","OBJECTID":165156},"geometry":{"x":169599.4299999997,"y":2573310.5600000042}},{"attributes":{"ID":165158,"DIS_CODE":0,"TOWNNAME":"學甲區","LI":"平和里","LIN":"12鄰","STREET":" ","SECT":" ","MAREA":"學甲寮","LANE":" ","ALLEY":" ","HOUSE_NO":"１２３號","E_COORD97":169627.29000000001,"N_COORD97":2573327.96,"ADDRESS":"學甲寮１２３號","OBJECTID":165157},"geometry":{"x":169627.29000000097,"y":2573327.9600000009}},{"attributes":{"ID":165159,"DIS_CODE":0,"TOWNNAME":"學甲區","LI":"平和里","LIN":"12鄰","STREET":" ","SECT":" ","MAREA":"學甲寮","LANE":" ","ALLEY":" ","HOUSE_NO":"１２４號之１","E_COORD97":169630.48000000001,"N_COORD97":2573310.6299999999,"ADDRESS":"學甲寮１２４號之１","OBJECTID":165158},"geometry":{"x":169630.48000000045,"y":2573310.629999999}},{"attributes":{"ID":165160,"DIS_CODE":0,"TOWNNAME":"學甲區","LI":"平和里","LIN":"12鄰","STREET":" ","SECT":" ","MAREA":"學甲寮","LANE":" ","ALLEY":" ","HOUSE_NO":"１２５號之２","E_COORD97":169610.44,"N_COORD97":2573321.8599999999,"ADDRESS":"學甲寮１２５號之２","OBJECTID":165159},"geometry":{"x":169610.44000000041,"y":2573321.8600000013}},{"attributes":{"ID":165161,"DIS_CODE":0,"TOWNNAME":"學甲區","LI":"平和里","LIN":"12鄰","STREET":" ","SECT":" ","MAREA":"學甲寮","LANE":" ","ALLEY":" ","HOUSE_NO":"１２５號之３","E_COORD97":169610.35999999999,"N_COORD97":2573299.96,"ADDRESS":"學甲寮１２５號之３","OBJECTID":165160},"geometry":{"x":169610.36000000127,"y":2573299.9600000009}},{"attributes":{"ID":165162,"DIS_CODE":0,"TOWNNAME":"學甲區","LI":"平和里","LIN":"12鄰","STREET":" ","SECT":" ","MAREA":"學甲寮","LANE":" ","ALLEY":" ","HOUSE_NO":"１２５號","E_COORD97":169615.57000000001,"N_COORD97":2573307.3599999999,"ADDRESS":"學甲寮１２５號","OBJECTID":165161},"geometry":{"x":169615.57000000123,"y":2573307.3600000031}},{"attributes":{"ID":165163,"DIS_CODE":0,"TOWNNAME":"學甲區","LI":"平和里","LIN":"12鄰","STREET":" ","SECT":" ","MAREA":"學甲寮","LANE":" ","ALLEY":" ","HOUSE_NO":"１２６號","E_COORD97":169594.29999999999,"N_COORD97":2573301.52,"ADDRESS":"學甲寮１２６號","OBJECTID":165162},"geometry":{"x":169594.30000000168,"y":2573301.5199999996}},{"attributes":{"ID":165164,"DIS_CODE":0,"TOWNNAME":"學甲區","LI":"平和里","LIN":"12鄰","STREET":" ","SECT":" ","MAREA":"學甲寮","LANE":" ","ALLEY":" ","HOUSE_NO":"１２７號之２","E_COORD97":169575.35000000001,"N_COORD97":2573287.3300000001,"ADDRESS":"學甲寮１２７號之２","OBJECTID":165163},"geometry":{"x":169575.35000000056,"y":2573287.3300000001}},{"attributes":{"ID":165165,"DIS_CODE":0,"TOWNNAME":"學甲區","LI":"平和里","LIN":"12鄰","STREET":" ","SECT":" ","MAREA":"學甲寮","LANE":" ","ALLEY":" ","HOUSE_NO":"１２８號之１","E_COORD97":169553.41,"N_COORD97":2573294.4399999999,"ADDRESS":"學甲寮１２８號之１","OBJECTID":165164},"geometry":{"x":169553.41000000108,"y":2573294.4400000013}},{"attributes":{"ID":165166,"DIS_CODE":0,"TOWNNAME":"學甲區","LI":"平和里","LIN":"12鄰","STREET":" ","SECT":" ","MAREA":"學甲寮","LANE":" ","ALLEY":" ","HOUSE_NO":"１２８號","E_COORD97":169566.29000000001,"N_COORD97":2573274.73,"ADDRESS":"學甲寮１２８號","OBJECTID":165165},"geometry":{"x":169566.29000000097,"y":2573274.7300000004}},{"attributes":{"ID":165167,"DIS_CODE":0,"TOWNNAME":"七股區","LI":"大埕里","LIN":"20鄰","STREET":" ","SECT":" ","MAREA":"大埕","LANE":" ","ALLEY":" ","HOUSE_NO":"２９號之２２","E_COORD97":163087.12,"N_COORD97":2561326.29,"ADDRESS":"大埕２９號之２２","OBJECTID":165166},"geometry":{"x":163087.12000000104,"y":2561326.290000001}},{"attributes":{"ID":165168,"DIS_CODE":0,"TOWNNAME":"七股區","LI":"大埕里","LIN":"20鄰","STREET":" ","SECT":" ","MAREA":"大埕","LANE":" ","ALLEY":" ","HOUSE_NO":"２９號之２３","E_COORD97":163086.20999999999,"N_COORD97":2561332.25,"ADDRESS":"大埕２９號之２３","OBJECTID":165167},"geometry":{"x":163086.21000000089,"y":2561332.25}},{"attributes":{"ID":165169,"DIS_CODE":0,"TOWNNAME":"七股區","LI":"大埕里","LIN":"20鄰","STREET":" ","SECT":" ","MAREA":"大埕","LANE":" ","ALLEY":" ","HOUSE_NO":"２９號之２４","E_COORD97":163085.29999999999,"N_COORD97":2561338.21,"ADDRESS":"大埕２９號之２４","OBJECTID":165168},"geometry":{"x":163085.30000000075,"y":2561338.209999999}},{"attributes":{"ID":165170,"DIS_CODE":0,"TOWNNAME":"七股區","LI":"大埕里","LIN":"20鄰","STREET":" ","SECT":" ","MAREA":"大埕","LANE":" ","ALLEY":" ","HOUSE_NO":"２９號之２５","E_COORD97":163084.39000000001,"N_COORD97":2561344.1600000001,"ADDRESS":"大埕２９號之２５","OBJECTID":165169},"geometry":{"x":163084.3900000006,"y":2561344.1600000001}},{"attributes":{"ID":165171,"DIS_CODE":0,"TOWNNAME":"永康區","LI":"北灣里","LIN":"26鄰","STREET":"文賢街","SECT":" ","MAREA":" ","LANE":"７８巷","ALLEY":"１９弄","HOUSE_NO":"７１號","E_COORD97":175443.35000000001,"N_COORD97":2545417.02,"ADDRESS":"文賢街７８巷１９弄７１號","OBJECTID":165170},"geometry":{"x":175443.34999999963,"y":2545417.0200000033}},{"attributes":{"ID":165172,"DIS_CODE":0,"TOWNNAME":"永康區","LI":"正強里","LIN":"18鄰","STREET":"自強路","SECT":" ","MAREA":" ","LANE":"１８８巷","ALLEY":"６２弄","HOUSE_NO":"１７號","E_COORD97":173175.67000000001,"N_COORD97":2547263.9100000001,"ADDRESS":"自強路１８８巷６２弄１７號","OBJECTID":165171},"geometry":{"x":173175.67000000179,"y":2547263.910000002}},{"attributes":{"ID":165173,"DIS_CODE":0,"TOWNNAME":"永康區","LI":"正強里","LIN":"20鄰","STREET":"中山南路","SECT":" ","MAREA":" ","LANE":"４７１巷","ALLEY":"２７弄","HOUSE_NO":"８號","E_COORD97":173144.95000000001,"N_COORD97":2547200.3700000001,"ADDRESS":"中山南路４７１巷２７弄８號","OBJECTID":165172},"geometry":{"x":173144.95000000019,"y":2547200.3700000029}},{"attributes":{"ID":165174,"DIS_CODE":0,"TOWNNAME":"永康區","LI":"北灣里","LIN":"26鄰","STREET":"文賢街","SECT":" ","MAREA":" ","LANE":"７８巷","ALLEY":"１９弄","HOUSE_NO":"５１號","E_COORD97":175408.81,"N_COORD97":2545398.8300000001,"ADDRESS":"文賢街７８巷１９弄５１號","OBJECTID":165173},"geometry":{"x":175408.81000000052,"y":2545398.8300000038}},{"attributes":{"ID":165175,"DIS_CODE":0,"TOWNNAME":"安南區","LI":"州南里","LIN":"15鄰","STREET":"州南八街","SECT":" ","MAREA":" ","LANE":" ","ALLEY":" ","HOUSE_NO":"１９６號","E_COORD97":169687.72,"N_COORD97":2551029.6400000001,"ADDRESS":"州南八街１９６號","OBJECTID":165174},"geometry":{"x":169687.71999999974,"y":2551029.6400000025}},{"attributes":{"ID":165176,"DIS_CODE":0,"TOWNNAME":"安南區","LI":"州南里","LIN":"15鄰","STREET":"州南八街","SECT":" ","MAREA":" ","LANE":" ","ALLEY":" ","HOUSE_NO":"１９２號","E_COORD97":169692.95999999999,"N_COORD97":2551029.6400000001,"ADDRESS":"州南八街１９２號","OBJECTID":165175},"geometry":{"x":169692.95999999996,"y":2551029.6400000025}},{"attributes":{"ID":165177,"DIS_CODE":0,"TOWNNAME":"七股區","LI":"大埕里","LIN":"20鄰","STREET":" ","SECT":" ","MAREA":"大埕","LANE":" ","ALLEY":" ","HOUSE_NO":"２９號之２６","E_COORD97":163068.51999999999,"N_COORD97":2561340.7400000002,"ADDRESS":"大埕２９號之２６","OBJECTID":165176},"geometry":{"x":163068.52000000048,"y":2561340.7399999984}},{"attributes":{"ID":165178,"DIS_CODE":0,"TOWNNAME":"安南區","LI":"州南里","LIN":"15鄰","STREET":"州南八街","SECT":" ","MAREA":" ","LANE":" ","ALLEY":" ","HOUSE_NO":"１９０號","E_COORD97":169688.98999999999,"N_COORD97":2551041.23,"ADDRESS":"州南八街１９０號","OBJECTID":165177},"geometry":{"x":169688.99000000115,"y":2551041.2300000042}},{"attributes":{"ID":165179,"DIS_CODE":0,"TOWNNAME":"安南區","LI":"州南里","LIN":"15鄰","STREET":"州南八街","SECT":" ","MAREA":" ","LANE":" ","ALLEY":" ","HOUSE_NO":"１７０號","E_COORD97":169702.79999999999,"N_COORD97":2551029.96,"ADDRESS":"州南八街１７０號","OBJECTID":165178},"geometry":{"x":169702.80000000168,"y":2551029.9600000046}},{"attributes":{"ID":165180,"DIS_CODE":0,"TOWNNAME":"安南區","LI":"州南里","LIN":"15鄰","STREET":"州南八街","SECT":" ","MAREA":" ","LANE":" ","ALLEY":" ","HOUSE_NO":"１７２號","E_COORD97":169703.59,"N_COORD97":2551041.3900000001,"ADDRESS":"州南八街１７２號","OBJECTID":165179},"geometry":{"x":169703.58999999985,"y":2551041.3900000025}},{"attributes":{"ID":165181,"DIS_CODE":0,"TOWNNAME":"安南區","LI":"州南里","LIN":"15鄰","STREET":"州南八街","SECT":" ","MAREA":" ","LANE":" ","ALLEY":" ","HOUSE_NO":"１８８號","E_COORD97":169689.14999999999,"N_COORD97":2551047.2599999998,"ADDRESS":"州南八街１８８號","OBJECTID":165180},"geometry":{"x":169689.15000000224,"y":2551047.2600000035}},{"attributes":{"ID":165182,"DIS_CODE":0,"TOWNNAME":"安南區","LI":"州南里","LIN":"15鄰","STREET":"州南八街","SECT":" ","MAREA":" ","LANE":" ","ALLEY":" ","HOUSE_NO":"１８６號","E_COORD97":169688.51000000001,"N_COORD97":2551052.98,"ADDRESS":"州南八街１８６號","OBJECTID":165181},"geometry":{"x":169688.51000000071,"y":2551052.9800000042}},{"attributes":{"ID":165183,"DIS_CODE":0,"TOWNNAME":"安南區","LI":"州南里","LIN":"15鄰","STREET":"州南八街","SECT":" ","MAREA":" ","LANE":" ","ALLEY":" ","HOUSE_NO":"１８２號","E_COORD97":169688.51000000001,"N_COORD97":2551058.3799999999,"ADDRESS":"州南八街１８２號","OBJECTID":165182},"geometry":{"x":169688.51000000071,"y":2551058.379999999}},{"attributes":{"ID":165184,"DIS_CODE":0,"TOWNNAME":"安南區","LI":"州南里","LIN":"15鄰","STREET":"州南八街","SECT":" ","MAREA":" ","LANE":" ","ALLEY":" ","HOUSE_NO":"１８０號","E_COORD97":169703.12,"N_COORD97":2551058.3799999999,"ADDRESS":"州南八街１８０號","OBJECTID":165183},"geometry":{"x":169703.12000000104,"y":2551058.379999999}},{"attributes":{"ID":165185,"DIS_CODE":0,"TOWNNAME":"安南區","LI":"州南里","LIN":"15鄰","STREET":"州南八街","SECT":" ","MAREA":" ","LANE":" ","ALLEY":" ","HOUSE_NO":"１７８號","E_COORD97":169703.28,"N_COORD97":2551053.6099999999,"ADDRESS":"州南八街１７８號","OBJECTID":165184},"geometry":{"x":169703.28000000026,"y":2551053.6099999994}},{"attributes":{"ID":165186,"DIS_CODE":0,"TOWNNAME":"安南區","LI":"州南里","LIN":"15鄰","STREET":"州南八街","SECT":" ","MAREA":" ","LANE":" ","ALLEY":" ","HOUSE_NO":"１７６號","E_COORD97":169703.28,"N_COORD97":2551047.2599999998,"ADDRESS":"州南八街１７６號","OBJECTID":165185},"geometry":{"x":169703.28000000026,"y":2551047.2600000035}},{"attributes":{"ID":165187,"DIS_CODE":0,"TOWNNAME":"安南區","LI":" ","LIN":" ","STREET":"功安三街","SECT":" ","MAREA":" ","LANE":"４８巷","ALLEY":"６０弄","HOUSE_NO":"３６號","E_COORD97":166376.73000000001,"N_COORD97":2549864.0600000001,"ADDRESS":"功安三街４８巷６０弄３６號","OBJECTID":165186},"geometry":{"x":166376.73000000138,"y":2549864.0600000024}},{"attributes":{"ID":165188,"DIS_CODE":0,"TOWNNAME":"安南區","LI":" ","LIN":" ","STREET":"功安三街","SECT":" ","MAREA":" ","LANE":"４８巷","ALLEY":"６０弄","HOUSE_NO":"３８號","E_COORD97":166366.41,"N_COORD97":2549860.5699999998,"ADDRESS":"功安三街４８巷６０弄３８號","OBJECTID":165187},"geometry":{"x":166366.41000000201,"y":2549860.5700000022}},{"attributes":{"ID":165189,"DIS_CODE":0,"TOWNNAME":"安南區","LI":"溪北里","LIN":"13鄰","STREET":"府安路","SECT":"四段","MAREA":" ","LANE":"９１巷","ALLEY":"２２弄","HOUSE_NO":"５之１號","E_COORD97":169162.35000000001,"N_COORD97":2547393.4500000002,"ADDRESS":"府安路四段９１巷２２弄５之１號","OBJECTID":165188},"geometry":{"x":169162.35000000056,"y":2547393.4499999993}},{"attributes":{"ID":165190,"DIS_CODE":0,"TOWNNAME":"佳里區","LI":"建南里","LIN":"20鄰","STREET":"自由街","SECT":" ","MAREA":" ","LANE":"１２３巷","ALLEY":"１８弄","HOUSE_NO":"７號","E_COORD97":165656.20000000001,"N_COORD97":2561695.6200000001,"ADDRESS":"自由街１２３巷１８弄７號","OBJECTID":165189},"geometry":{"x":165656.20000000112,"y":2561695.6200000029}},{"attributes":{"ID":165191,"DIS_CODE":0,"TOWNNAME":"安南區","LI":"州南里","LIN":"25鄰","STREET":"安和路","SECT":"四段","MAREA":" ","LANE":"５３８巷","ALLEY":"１３弄","HOUSE_NO":"２９號","E_COORD97":169996.10999999999,"N_COORD97":2551387.2799999998,"ADDRESS":"安和路四段５３８巷１３弄２９號","OBJECTID":165190},"geometry":{"x":169996.11000000034,"y":2551387.2799999993}},{"attributes":{"ID":165192,"DIS_CODE":0,"TOWNNAME":"安南區","LI":"州南里","LIN":"25鄰","STREET":"安和路","SECT":"四段","MAREA":" ","LANE":"５３８巷","ALLEY":"１３弄","HOUSE_NO":"２７號","E_COORD97":169997.38,"N_COORD97":2551382.2000000002,"ADDRESS":"安和路四段５３８巷１３弄２７號","OBJECTID":165191},"geometry":{"x":169997.38000000175,"y":2551382.1999999993}},{"attributes":{"ID":165193,"DIS_CODE":0,"TOWNNAME":"七股區","LI":"大埕里","LIN":"20鄰","STREET":" ","SECT":" ","MAREA":"大埕","LANE":" ","ALLEY":" ","HOUSE_NO":"２９號之２７","E_COORD97":163069.37,"N_COORD97":2561335.6299999999,"ADDRESS":"大埕２９號之２７","OBJECTID":165192},"geometry":{"x":163069.37000000197,"y":2561335.629999999}},{"attributes":{"ID":165194,"DIS_CODE":0,"TOWNNAME":"七股區","LI":"大埕里","LIN":"20鄰","STREET":" ","SECT":" ","MAREA":"大埕","LANE":" ","ALLEY":" ","HOUSE_NO":"２９號之２８","E_COORD97":163070.22,"N_COORD97":2561330.5299999998,"ADDRESS":"大埕２９號之２８","OBJECTID":165193},"geometry":{"x":163070.22000000067,"y":2561330.5299999993}},{"attributes":{"ID":165195,"DIS_CODE":0,"TOWNNAME":"七股區","LI":"大埕里","LIN":"20鄰","STREET":" ","SECT":" ","MAREA":"大埕","LANE":" ","ALLEY":" ","HOUSE_NO":"２９號之２９","E_COORD97":163071.07000000001,"N_COORD97":2561325.4300000002,"ADDRESS":"大埕２９號之２９","OBJECTID":165194},"geometry":{"x":163071.0700000003,"y":2561325.4300000034}},{"attributes":{"ID":165196,"DIS_CODE":0,"TOWNNAME":"七股區","LI":"大埕里","LIN":"20鄰","STREET":" ","SECT":" ","MAREA":"大埕","LANE":" ","ALLEY":" ","HOUSE_NO":"２９號之２","E_COORD97":163143.88,"N_COORD97":2561351.79,"ADDRESS":"大埕２９號之２","OBJECTID":165195},"geometry":{"x":163143.88000000082,"y":2561351.7899999991}},{"attributes":{"ID":165197,"DIS_CODE":0,"TOWNNAME":"安南區","LI":"州南里","LIN":"25鄰","STREET":"安和路","SECT":"四段","MAREA":" ","LANE":"５３８巷","ALLEY":"１３弄","HOUSE_NO":"２５號","E_COORD97":169999.13,"N_COORD97":2551378.0699999998,"ADDRESS":"安和路四段５３８巷１３弄２５號","OBJECTID":165196},"geometry":{"x":169999.13000000175,"y":2551378.070000004}},{"attributes":{"ID":165198,"DIS_CODE":0,"TOWNNAME":"安南區","LI":"原佃里","LIN":"1鄰","STREET":"本原街","SECT":"一段","MAREA":" ","LANE":"９７巷","ALLEY":"９３弄","HOUSE_NO":"２之１號","E_COORD97":167881.16,"N_COORD97":2549891.4900000002,"ADDRESS":"本原街一段９７巷９３弄２之１號","OBJECTID":165197},"geometry":{"x":167881.16000000015,"y":2549891.4900000021}},{"attributes":{"ID":165199,"DIS_CODE":0,"TOWNNAME":"安南區","LI":"原佃里","LIN":"1鄰","STREET":"本原街","SECT":"一段","MAREA":" ","LANE":"９７巷","ALLEY":"９３弄","HOUSE_NO":"２之２號","E_COORD97":167885.22,"N_COORD97":2549897.46,"ADDRESS":"本原街一段９７巷９３弄２之２號","OBJECTID":165198},"geometry":{"x":167885.21999999974,"y":2549897.459999999}},{"attributes":{"ID":165200,"DIS_CODE":0,"TOWNNAME":"安南區","LI":"\u25A0南里","LIN":"32鄰","STREET":"安昌街","SECT":" ","MAREA":" ","LANE":"１７４巷","ALLEY":"３９弄","HOUSE_NO":"１３號","E_COORD97":170169,"N_COORD97":2552355.77,"ADDRESS":"安昌街１７４巷３９弄１３號","OBJECTID":165199},"geometry":{"x":170169,"y":2552355.7700000014}},{"attributes":{"ID":165201,"DIS_CODE":0,"TOWNNAME":"七股區","LI":"大埕里","LIN":"20鄰","STREET":" ","SECT":" ","MAREA":"大埕","LANE":" ","ALLEY":" ","HOUSE_NO":"２９號之３０","E_COORD97":163071.92000000001,"N_COORD97":2561320.3300000001,"ADDRESS":"大埕２９號之３０","OBJECTID":165200},"geometry":{"x":163071.91999999993,"y":2561320.3300000019}}]}