{"displayFieldName":"TOWNNAME","fieldAliases":{"ID":"ID","DIS_CODE":"DIS_CODE","TOWNNAME":"TOWNNAME","LI":"LI","LIN":"LIN","STREET":"STREET","SECT":"SECT","MAREA":"MAREA","LANE":"LANE","ALLEY":"ALLEY","HOUSE_NO":"HOUSE_NO","E_COORD97":"E_COORD97","N_COORD97":"N_COORD97","ADDRESS":"ADDRESS","OBJECTID":"OBJECTID"},"geometryType":"esriGeometryPoint","spatialReference":{"wkid":102443,"latestWkid":3826},"fields":[{"name":"ID","type":"esriFieldTypeDouble","alias":"ID"},{"name":"DIS_CODE","type":"esriFieldTypeInteger","alias":"DIS_CODE"},{"name":"TOWNNAME","type":"esriFieldTypeString","alias":"TOWNNAME","length":8},{"name":"LI","type":"esriFieldTypeString","alias":"LI","length":8},{"name":"LIN","type":"esriFieldTypeString","alias":"LIN","length":12},{"name":"STREET","type":"esriFieldTypeString","alias":"STREET","length":20},{"name":"SECT","type":"esriFieldTypeString","alias":"SECT","length":8},{"name":"MAREA","type":"esriFieldTypeString","alias":"MAREA","length":12},{"name":"LANE","type":"esriFieldTypeString","alias":"LANE","length":10},{"name":"ALLEY","type":"esriFieldTypeString","alias":"ALLEY","length":10},{"name":"HOUSE_NO","type":"esriFieldTypeString","alias":"HOUSE_NO","length":20},{"name":"E_COORD97","type":"esriFieldTypeDouble","alias":"E_COORD97"},{"name":"N_COORD97","type":"esriFieldTypeDouble","alias":"N_COORD97"},{"name":"ADDRESS","type":"esriFieldTypeString","alias":"ADDRESS","length":50},{"name":"OBJECTID","type":"esriFieldTypeOID","alias":"OBJECTID"}],"features":[{"attributes":{"ID":110601,"DIS_CODE":0,"TOWNNAME":"官田區","LI":"隆本里","LIN":"9鄰","STREET":"中華路","SECT":"二段","MAREA":" ","LANE":"８３巷","ALLEY":"５弄","HOUSE_NO":"１號","E_COORD97":179817.39999999999,"N_COORD97":2566746.77,"ADDRESS":"中華路二段８３巷５弄１號","OBJECTID":110601},"geometry":{"x":179817.40000000037,"y":2566746.7699999996}},{"attributes":{"ID":110602,"DIS_CODE":0,"TOWNNAME":"官田區","LI":"隆本里","LIN":"9鄰","STREET":"中華路","SECT":"二段","MAREA":" ","LANE":"８３巷","ALLEY":"５弄","HOUSE_NO":"２１號","E_COORD97":179824.48000000001,"N_COORD97":2566728.0299999998,"ADDRESS":"中華路二段８３巷５弄２１號","OBJECTID":110602},"geometry":{"x":179824.48000000138,"y":2566728.0299999993}},{"attributes":{"ID":110603,"DIS_CODE":0,"TOWNNAME":"官田區","LI":"隆本里","LIN":"9鄰","STREET":"中華路","SECT":"二段","MAREA":" ","LANE":"８３巷","ALLEY":"５弄","HOUSE_NO":"２３號","E_COORD97":179820.35000000001,"N_COORD97":2566726.7599999998,"ADDRESS":"中華路二段８３巷５弄２３號","OBJECTID":110603},"geometry":{"x":179820.34999999963,"y":2566726.7599999998}},{"attributes":{"ID":110604,"DIS_CODE":0,"TOWNNAME":"官田區","LI":"隆本里","LIN":"9鄰","STREET":"中華路","SECT":"二段","MAREA":" ","LANE":"８３巷","ALLEY":"５弄","HOUSE_NO":"２５號","E_COORD97":179822.51000000001,"N_COORD97":2566711.3300000001,"ADDRESS":"中華路二段８３巷５弄２５號","OBJECTID":110604},"geometry":{"x":179822.50999999978,"y":2566711.3300000019}},{"attributes":{"ID":110605,"DIS_CODE":0,"TOWNNAME":"官田區","LI":"隆本里","LIN":"9鄰","STREET":"中華路","SECT":"二段","MAREA":" ","LANE":"８３巷","ALLEY":"５弄","HOUSE_NO":"２７號","E_COORD97":179825.95999999999,"N_COORD97":2566712.4100000001,"ADDRESS":"中華路二段８３巷５弄２７號","OBJECTID":110605},"geometry":{"x":179825.96000000089,"y":2566712.4100000001}},{"attributes":{"ID":110606,"DIS_CODE":0,"TOWNNAME":"官田區","LI":"隆本里","LIN":"9鄰","STREET":"中華路","SECT":"二段","MAREA":" ","LANE":"８３巷","ALLEY":"５弄","HOUSE_NO":"２９號","E_COORD97":179830.70000000001,"N_COORD97":2566713.3300000001,"ADDRESS":"中華路二段８３巷５弄２９號","OBJECTID":110606},"geometry":{"x":179830.70000000019,"y":2566713.3300000001}},{"attributes":{"ID":110607,"DIS_CODE":0,"TOWNNAME":"西港區","LI":"新復里","LIN":"9鄰","STREET":" ","SECT":" ","MAREA":"溪埔寮","LANE":" ","ALLEY":" ","HOUSE_NO":"２５號之１","E_COORD97":166170.60000000001,"N_COORD97":2553804.2000000002,"ADDRESS":"溪埔寮２５號之１","OBJECTID":110607},"geometry":{"x":166170.59999999963,"y":2553804.2000000011}},{"attributes":{"ID":110608,"DIS_CODE":0,"TOWNNAME":"官田區","LI":"西庄里","LIN":"9鄰","STREET":" ","SECT":" ","MAREA":"西庄","LANE":" ","ALLEY":" ","HOUSE_NO":"７２號之２","E_COORD97":177955.92999999999,"N_COORD97":2565144.73,"ADDRESS":"西庄７２號之２","OBJECTID":110608},"geometry":{"x":177955.93000000063,"y":2565144.7300000004}},{"attributes":{"ID":110609,"DIS_CODE":0,"TOWNNAME":"官田區","LI":"隆本里","LIN":"9鄰","STREET":"中華路","SECT":"二段","MAREA":" ","LANE":"８３巷","ALLEY":"５弄","HOUSE_NO":"３３號","E_COORD97":179838.32000000001,"N_COORD97":2566715.1200000001,"ADDRESS":"中華路二段８３巷５弄３３號","OBJECTID":110609},"geometry":{"x":179838.3200000003,"y":2566715.120000001}},{"attributes":{"ID":110610,"DIS_CODE":0,"TOWNNAME":"官田區","LI":"隆本里","LIN":"9鄰","STREET":"中華路","SECT":"二段","MAREA":" ","LANE":"８３巷","ALLEY":"５弄","HOUSE_NO":"３５號","E_COORD97":179842.20999999999,"N_COORD97":2566716.27,"ADDRESS":"中華路二段８３巷５弄３５號","OBJECTID":110610},"geometry":{"x":179842.20999999996,"y":2566716.2699999996}},{"attributes":{"ID":110611,"DIS_CODE":0,"TOWNNAME":"官田區","LI":"隆本里","LIN":"9鄰","STREET":"中華路","SECT":"二段","MAREA":" ","LANE":"８３巷","ALLEY":"５弄","HOUSE_NO":"３７號","E_COORD97":179846.39999999999,"N_COORD97":2566717.3799999999,"ADDRESS":"中華路二段８３巷５弄３７號","OBJECTID":110611},"geometry":{"x":179846.40000000037,"y":2566717.3800000008}},{"attributes":{"ID":110612,"DIS_CODE":0,"TOWNNAME":"官田區","LI":"隆本里","LIN":"9鄰","STREET":"中華路","SECT":"二段","MAREA":" ","LANE":"８３巷","ALLEY":"５弄","HOUSE_NO":"３號","E_COORD97":179821.17999999999,"N_COORD97":2566747.04,"ADDRESS":"中華路二段８３巷５弄３號","OBJECTID":110612},"geometry":{"x":179821.18000000063,"y":2566747.040000001}},{"attributes":{"ID":110613,"DIS_CODE":0,"TOWNNAME":"官田區","LI":"隆本里","LIN":"9鄰","STREET":"中華路","SECT":"二段","MAREA":" ","LANE":"８３巷","ALLEY":"５弄","HOUSE_NO":"５號","E_COORD97":179824.53,"N_COORD97":2566747.7200000002,"ADDRESS":"中華路二段８３巷５弄５號","OBJECTID":110613},"geometry":{"x":179824.53000000119,"y":2566747.7200000007}},{"attributes":{"ID":110614,"DIS_CODE":0,"TOWNNAME":"官田區","LI":"隆本里","LIN":"9鄰","STREET":"中華路","SECT":"二段","MAREA":" ","LANE":"８３巷","ALLEY":"５弄","HOUSE_NO":"７號","E_COORD97":179828.32000000001,"N_COORD97":2566748.6400000001,"ADDRESS":"中華路二段８３巷５弄７號","OBJECTID":110614},"geometry":{"x":179828.3200000003,"y":2566748.6400000006}},{"attributes":{"ID":110615,"DIS_CODE":0,"TOWNNAME":"官田區","LI":"隆本里","LIN":"9鄰","STREET":"中華路","SECT":"二段","MAREA":" ","LANE":"８３巷","ALLEY":"５弄","HOUSE_NO":"９號","E_COORD97":179832.94,"N_COORD97":2566748.6600000001,"ADDRESS":"中華路二段８３巷５弄９號","OBJECTID":110615},"geometry":{"x":179832.94000000227,"y":2566748.6600000001}},{"attributes":{"ID":110616,"DIS_CODE":0,"TOWNNAME":"仁德區","LI":"上崙里","LIN":"9鄰","STREET":"德善路","SECT":" ","MAREA":" ","LANE":"３０５巷","ALLEY":"１３弄","HOUSE_NO":"２８號","E_COORD97":174012,"N_COORD97":2538505.5299999998,"ADDRESS":"德善路３０５巷１３弄２８號","OBJECTID":110616},"geometry":{"x":174012,"y":2538505.5299999993}},{"attributes":{"ID":110617,"DIS_CODE":0,"TOWNNAME":"仁德區","LI":"上崙里","LIN":"9鄰","STREET":"德善路","SECT":" ","MAREA":" ","LANE":"３０５巷","ALLEY":"１３弄","HOUSE_NO":"５２號","E_COORD97":174012.25,"N_COORD97":2538475.1099999999,"ADDRESS":"德善路３０５巷１３弄５２號","OBJECTID":110617},"geometry":{"x":174012.25,"y":2538475.1099999994}},{"attributes":{"ID":110618,"DIS_CODE":0,"TOWNNAME":"仁德區","LI":"上崙里","LIN":"9鄰","STREET":"民安路","SECT":"二段","MAREA":" ","LANE":"３８２巷","ALLEY":"５３弄","HOUSE_NO":"７號","E_COORD97":173990.95000000001,"N_COORD97":2538642.04,"ADDRESS":"民安路二段３８２巷５３弄７號","OBJECTID":110618},"geometry":{"x":173990.94999999925,"y":2538642.0399999991}},{"attributes":{"ID":110619,"DIS_CODE":0,"TOWNNAME":"仁德區","LI":"上崙里","LIN":"9鄰","STREET":"德善路","SECT":" ","MAREA":" ","LANE":"３０５巷","ALLEY":"１３弄","HOUSE_NO":"４２之１號","E_COORD97":173998.12,"N_COORD97":2538481.3700000001,"ADDRESS":"德善路３０５巷１３弄４２之１號","OBJECTID":110619},"geometry":{"x":173998.12000000011,"y":2538481.370000001}},{"attributes":{"ID":110620,"DIS_CODE":0,"TOWNNAME":"仁德區","LI":"上崙里","LIN":"9鄰","STREET":"民安路","SECT":"二段","MAREA":" ","LANE":"３８２巷","ALLEY":"５３弄","HOUSE_NO":"１９號","E_COORD97":174024.78,"N_COORD97":2538620.25,"ADDRESS":"民安路二段３８２巷５３弄１９號","OBJECTID":110620},"geometry":{"x":174024.78000000119,"y":2538620.25}},{"attributes":{"ID":110621,"DIS_CODE":0,"TOWNNAME":"仁德區","LI":"上崙里","LIN":"9鄰","STREET":"德善路","SECT":" ","MAREA":" ","LANE":"３０５巷","ALLEY":"１３弄","HOUSE_NO":"３號","E_COORD97":174017.42999999999,"N_COORD97":2538563.27,"ADDRESS":"德善路３０５巷１３弄３號","OBJECTID":110621},"geometry":{"x":174017.4299999997,"y":2538563.2699999977}},{"attributes":{"ID":110622,"DIS_CODE":0,"TOWNNAME":"仁德區","LI":"上崙里","LIN":"9鄰","STREET":"德善路","SECT":" ","MAREA":" ","LANE":"３０５巷","ALLEY":"１３弄","HOUSE_NO":"１６號","E_COORD97":173985.48999999999,"N_COORD97":2538514.8500000001,"ADDRESS":"德善路３０５巷１３弄１６號","OBJECTID":110622},"geometry":{"x":173985.49000000022,"y":2538514.8499999996}},{"attributes":{"ID":110623,"DIS_CODE":0,"TOWNNAME":"仁德區","LI":"上崙里","LIN":"9鄰","STREET":"德善路","SECT":" ","MAREA":" ","LANE":"３０５巷","ALLEY":"１３弄","HOUSE_NO":"１４號","E_COORD97":173989.87,"N_COORD97":2538516.3500000001,"ADDRESS":"德善路３０５巷１３弄１４號","OBJECTID":110623},"geometry":{"x":173989.87000000197,"y":2538516.3500000015}},{"attributes":{"ID":110624,"DIS_CODE":0,"TOWNNAME":"仁德區","LI":"上崙里","LIN":"9鄰","STREET":"德善路","SECT":" ","MAREA":" ","LANE":"３０５巷","ALLEY":"１３弄","HOUSE_NO":"２之１號","E_COORD97":173997.09,"N_COORD97":2538566.3399999999,"ADDRESS":"德善路３０５巷１３弄２之１號","OBJECTID":110624},"geometry":{"x":173997.09000000078,"y":2538566.3399999999}},{"attributes":{"ID":110625,"DIS_CODE":0,"TOWNNAME":"仁德區","LI":"上崙里","LIN":"9鄰","STREET":"德善路","SECT":" ","MAREA":" ","LANE":"３０５巷","ALLEY":"１３弄","HOUSE_NO":"１２號","E_COORD97":173993.73000000001,"N_COORD97":2538517.1000000001,"ADDRESS":"德善路３０５巷１３弄１２號","OBJECTID":110625},"geometry":{"x":173993.73000000045,"y":2538517.1000000034}},{"attributes":{"ID":110626,"DIS_CODE":0,"TOWNNAME":"仁德區","LI":"上崙里","LIN":"9鄰","STREET":"民安路","SECT":"二段","MAREA":" ","LANE":"３８２巷","ALLEY":"５３弄","HOUSE_NO":"５號","E_COORD97":173996.14000000001,"N_COORD97":2538643.79,"ADDRESS":"民安路二段３８２巷５３弄５號","OBJECTID":110626},"geometry":{"x":173996.1400000006,"y":2538643.7899999991}},{"attributes":{"ID":110627,"DIS_CODE":0,"TOWNNAME":"麻豆區","LI":"麻口里","LIN":"1鄰","STREET":" ","SECT":" ","MAREA":"麻豆口","LANE":" ","ALLEY":" ","HOUSE_NO":"３號","E_COORD97":170228.42999999999,"N_COORD97":2564095.21,"ADDRESS":"麻豆口３號","OBJECTID":110627},"geometry":{"x":170228.4299999997,"y":2564095.2100000028}},{"attributes":{"ID":110628,"DIS_CODE":0,"TOWNNAME":"麻豆區","LI":"麻口里","LIN":"1鄰","STREET":" ","SECT":" ","MAREA":"麻豆口","LANE":" ","ALLEY":" ","HOUSE_NO":"１號之１０","E_COORD97":170797.16,"N_COORD97":2563864.23,"ADDRESS":"麻豆口１號之１０","OBJECTID":110628},"geometry":{"x":170797.16000000015,"y":2563864.2300000023}},{"attributes":{"ID":110629,"DIS_CODE":0,"TOWNNAME":"麻豆區","LI":"麻口里","LIN":"1鄰","STREET":" ","SECT":" ","MAREA":"麻豆口","LANE":" ","ALLEY":" ","HOUSE_NO":"１號之１２","E_COORD97":170872.19,"N_COORD97":2563953.0800000001,"ADDRESS":"麻豆口１號之１２","OBJECTID":110629},"geometry":{"x":170872.19000000227,"y":2563953.0800000019}},{"attributes":{"ID":110630,"DIS_CODE":0,"TOWNNAME":"麻豆區","LI":"麻口里","LIN":"1鄰","STREET":" ","SECT":" ","MAREA":"麻豆口","LANE":" ","ALLEY":" ","HOUSE_NO":"１號之１３","E_COORD97":170726.16,"N_COORD97":2563887.4900000002,"ADDRESS":"麻豆口１號之１３","OBJECTID":110630},"geometry":{"x":170726.16000000015,"y":2563887.4900000002}},{"attributes":{"ID":110631,"DIS_CODE":0,"TOWNNAME":"麻豆區","LI":"麻口里","LIN":"1鄰","STREET":" ","SECT":" ","MAREA":"麻豆口","LANE":" ","ALLEY":" ","HOUSE_NO":"１號之１４","E_COORD97":170757.01000000001,"N_COORD97":2564014.98,"ADDRESS":"麻豆口１號之１４","OBJECTID":110631},"geometry":{"x":170757.00999999978,"y":2564014.9800000023}},{"attributes":{"ID":110632,"DIS_CODE":0,"TOWNNAME":"麻豆區","LI":"麻口里","LIN":"1鄰","STREET":" ","SECT":" ","MAREA":"麻豆口","LANE":" ","ALLEY":" ","HOUSE_NO":"１號之２９","E_COORD97":170687.89999999999,"N_COORD97":2563872.52,"ADDRESS":"麻豆口１號之２９","OBJECTID":110632},"geometry":{"x":170687.9000000013,"y":2563872.5200000014}},{"attributes":{"ID":110633,"DIS_CODE":0,"TOWNNAME":"麻豆區","LI":"麻口里","LIN":"1鄰","STREET":" ","SECT":" ","MAREA":"麻豆口","LANE":" ","ALLEY":" ","HOUSE_NO":"１號之３０","E_COORD97":170473.48999999999,"N_COORD97":2563926.5600000001,"ADDRESS":"麻豆口１號之３０","OBJECTID":110633},"geometry":{"x":170473.49000000115,"y":2563926.5600000024}},{"attributes":{"ID":110634,"DIS_CODE":0,"TOWNNAME":"麻豆區","LI":"麻口里","LIN":"1鄰","STREET":" ","SECT":" ","MAREA":"麻豆口","LANE":" ","ALLEY":" ","HOUSE_NO":"１號之３","E_COORD97":170682.39000000001,"N_COORD97":2563949.2200000002,"ADDRESS":"麻豆口１號之３","OBJECTID":110634},"geometry":{"x":170682.3900000006,"y":2563949.2200000025}},{"attributes":{"ID":110635,"DIS_CODE":0,"TOWNNAME":"仁德區","LI":"上崙里","LIN":"9鄰","STREET":"德善路","SECT":" ","MAREA":" ","LANE":"３０５巷","ALLEY":"１３弄","HOUSE_NO":"７號","E_COORD97":174022.60000000001,"N_COORD97":2538554.27,"ADDRESS":"德善路３０５巷１３弄７號","OBJECTID":110635},"geometry":{"x":174022.59999999963,"y":2538554.2700000014}},{"attributes":{"ID":110636,"DIS_CODE":0,"TOWNNAME":"仁德區","LI":"上崙里","LIN":"9鄰","STREET":"民安路","SECT":"二段","MAREA":" ","LANE":"３８２巷","ALLEY":"５３弄","HOUSE_NO":"１０號","E_COORD97":173978.64000000001,"N_COORD97":2538624.0299999998,"ADDRESS":"民安路二段３８２巷５３弄１０號","OBJECTID":110636},"geometry":{"x":173978.63999999966,"y":2538624.0300000012}},{"attributes":{"ID":110637,"DIS_CODE":0,"TOWNNAME":"仁德區","LI":"上崙里","LIN":"9鄰","STREET":"德善路","SECT":" ","MAREA":" ","LANE":"３０５巷","ALLEY":"１３弄","HOUSE_NO":"１０號","E_COORD97":174007.82999999999,"N_COORD97":2538522.2799999998,"ADDRESS":"德善路３０５巷１３弄１０號","OBJECTID":110637},"geometry":{"x":174007.83000000101,"y":2538522.2799999975}},{"attributes":{"ID":110638,"DIS_CODE":0,"TOWNNAME":"仁德區","LI":"上崙里","LIN":"9鄰","STREET":"民安路","SECT":"二段","MAREA":" ","LANE":"３８２巷","ALLEY":"５１弄","HOUSE_NO":"１１號","E_COORD97":174015.79000000001,"N_COORD97":2538652.0699999998,"ADDRESS":"民安路二段３８２巷５１弄１１號","OBJECTID":110638},"geometry":{"x":174015.7900000019,"y":2538652.0700000003}},{"attributes":{"ID":110639,"DIS_CODE":0,"TOWNNAME":"仁德區","LI":"上崙里","LIN":"9鄰","STREET":"德善路","SECT":" ","MAREA":" ","LANE":"３０５巷","ALLEY":"１３弄","HOUSE_NO":"８號","E_COORD97":174004.38,"N_COORD97":2538532.29,"ADDRESS":"德善路３０５巷１３弄８號","OBJECTID":110639},"geometry":{"x":174004.37999999989,"y":2538532.2900000028}},{"attributes":{"ID":110640,"DIS_CODE":0,"TOWNNAME":"仁德區","LI":"上崙里","LIN":"9鄰","STREET":"德善路","SECT":" ","MAREA":" ","LANE":"３０５巷","ALLEY":"１３弄","HOUSE_NO":"３７號","E_COORD97":174051.01000000001,"N_COORD97":2538484.1600000001,"ADDRESS":"德善路３０５巷１３弄３７號","OBJECTID":110640},"geometry":{"x":174051.00999999978,"y":2538484.160000002}},{"attributes":{"ID":110641,"DIS_CODE":0,"TOWNNAME":"仁德區","LI":"上崙里","LIN":"9鄰","STREET":"民安路","SECT":"二段","MAREA":" ","LANE":"３８２巷","ALLEY":"５３弄","HOUSE_NO":"３１號","E_COORD97":174031.54000000001,"N_COORD97":2538579.7599999998,"ADDRESS":"民安路二段３８２巷５３弄３１號","OBJECTID":110641},"geometry":{"x":174031.54000000097,"y":2538579.7599999998}},{"attributes":{"ID":110642,"DIS_CODE":0,"TOWNNAME":"仁德區","LI":"上崙里","LIN":"9鄰","STREET":"德善路","SECT":" ","MAREA":" ","LANE":"３０５巷","ALLEY":"１３弄","HOUSE_NO":"５７號","E_COORD97":174070.70999999999,"N_COORD97":2538464.1699999999,"ADDRESS":"德善路３０５巷１３弄５７號","OBJECTID":110642},"geometry":{"x":174070.71000000089,"y":2538464.1700000018}},{"attributes":{"ID":110643,"DIS_CODE":0,"TOWNNAME":"仁德區","LI":"上崙里","LIN":"9鄰","STREET":"民安路","SECT":"二段","MAREA":" ","LANE":"３８２巷","ALLEY":"５１弄","HOUSE_NO":"１７號","E_COORD97":174019.63,"N_COORD97":2538638.8199999998,"ADDRESS":"民安路二段３８２巷５１弄１７號","OBJECTID":110643},"geometry":{"x":174019.62999999989,"y":2538638.8200000022}},{"attributes":{"ID":110644,"DIS_CODE":0,"TOWNNAME":"仁德區","LI":"上崙里","LIN":"9鄰","STREET":"民安路","SECT":"二段","MAREA":" ","LANE":"３８２巷","ALLEY":"５１弄","HOUSE_NO":"３號","E_COORD97":174009.07000000001,"N_COORD97":2538670.0699999998,"ADDRESS":"民安路二段３８２巷５１弄３號","OBJECTID":110644},"geometry":{"x":174009.07000000216,"y":2538670.0700000003}},{"attributes":{"ID":110645,"DIS_CODE":0,"TOWNNAME":"仁德區","LI":"上崙里","LIN":"9鄰","STREET":"德善路","SECT":" ","MAREA":" ","LANE":"３０５巷","ALLEY":"１３弄","HOUSE_NO":"４０號","E_COORD97":174004.23999999999,"N_COORD97":2538483.8500000001,"ADDRESS":"德善路３０５巷１３弄４０號","OBJECTID":110645},"geometry":{"x":174004.23999999929,"y":2538483.8499999996}},{"attributes":{"ID":110646,"DIS_CODE":0,"TOWNNAME":"新營區","LI":"王公里","LIN":"32鄰","STREET":"大德街","SECT":" ","MAREA":" ","LANE":" ","ALLEY":" ","HOUSE_NO":"３２號","E_COORD97":180260.10000000001,"N_COORD97":2579519.4700000002,"ADDRESS":"大德街３２號","OBJECTID":110646},"geometry":{"x":180260.10000000056,"y":2579519.4700000025}},{"attributes":{"ID":110647,"DIS_CODE":0,"TOWNNAME":"南區","LI":"再興里","LIN":" ","STREET":"新城街","SECT":" ","MAREA":" ","LANE":" ","ALLEY":" ","HOUSE_NO":"７４號","E_COORD97":167157.82000000001,"N_COORD97":2542356.0899999999,"ADDRESS":"新城街７４號","OBJECTID":110647},"geometry":{"x":167157.82000000123,"y":2542356.0900000017}},{"attributes":{"ID":110648,"DIS_CODE":0,"TOWNNAME":"南區","LI":"再興里","LIN":"7鄰","STREET":"新慶街","SECT":" ","MAREA":" ","LANE":" ","ALLEY":" ","HOUSE_NO":"５１號","E_COORD97":167201.42999999999,"N_COORD97":2542326.1099999999,"ADDRESS":"新慶街５１號","OBJECTID":110648},"geometry":{"x":167201.43000000156,"y":2542326.1099999994}},{"attributes":{"ID":110649,"DIS_CODE":0,"TOWNNAME":"南區","LI":"再興里","LIN":" ","STREET":"三官路","SECT":" ","MAREA":" ","LANE":" ","ALLEY":" ","HOUSE_NO":"４８號","E_COORD97":167199.70999999999,"N_COORD97":2542290.0299999998,"ADDRESS":"三官路４８號","OBJECTID":110649},"geometry":{"x":167199.70999999903,"y":2542290.0299999993}},{"attributes":{"ID":110650,"DIS_CODE":0,"TOWNNAME":"南區","LI":"再興里","LIN":" ","STREET":"三官路","SECT":" ","MAREA":" ","LANE":" ","ALLEY":" ","HOUSE_NO":"５２號","E_COORD97":167204.29999999999,"N_COORD97":2542299.8599999999,"ADDRESS":"三官路５２號","OBJECTID":110650},"geometry":{"x":167204.30000000075,"y":2542299.8600000013}},{"attributes":{"ID":110651,"DIS_CODE":0,"TOWNNAME":"南區","LI":"再興里","LIN":" ","STREET":"三官路","SECT":" ","MAREA":" ","LANE":" ","ALLEY":" ","HOUSE_NO":"５４號","E_COORD97":167205.63,"N_COORD97":2542305.9500000002,"ADDRESS":"三官路５４號","OBJECTID":110651},"geometry":{"x":167205.63000000082,"y":2542305.9500000011}},{"attributes":{"ID":110652,"DIS_CODE":0,"TOWNNAME":"南區","LI":"再興里","LIN":" ","STREET":"三官路","SECT":" ","MAREA":" ","LANE":" ","ALLEY":" ","HOUSE_NO":"５６號","E_COORD97":167194.29000000001,"N_COORD97":2542304.9500000002,"ADDRESS":"三官路５６號","OBJECTID":110652},"geometry":{"x":167194.2900000019,"y":2542304.950000003}},{"attributes":{"ID":110653,"DIS_CODE":0,"TOWNNAME":"南區","LI":"再興里","LIN":" ","STREET":"三官路","SECT":" ","MAREA":" ","LANE":" ","ALLEY":" ","HOUSE_NO":"５８號","E_COORD97":167191.20000000001,"N_COORD97":2542293.8599999999,"ADDRESS":"三官路５８號","OBJECTID":110653},"geometry":{"x":167191.20000000019,"y":2542293.8599999994}},{"attributes":{"ID":110654,"DIS_CODE":0,"TOWNNAME":"南區","LI":"再興里","LIN":"18鄰","STREET":"金華路","SECT":"二段","MAREA":" ","LANE":" ","ALLEY":" ","HOUSE_NO":"１０２號","E_COORD97":167090.47,"N_COORD97":2542100.9199999999,"ADDRESS":"金華路二段１０２號","OBJECTID":110654},"geometry":{"x":167090.46999999974,"y":2542100.9199999999}},{"attributes":{"ID":110655,"DIS_CODE":0,"TOWNNAME":"南區","LI":"再興里","LIN":"17鄰","STREET":"金華路","SECT":"二段","MAREA":" ","LANE":" ","ALLEY":" ","HOUSE_NO":"１６２號","E_COORD97":167099.89999999999,"N_COORD97":2542240.3900000001,"ADDRESS":"金華路二段１６２號","OBJECTID":110655},"geometry":{"x":167099.90000000037,"y":2542240.3900000025}},{"attributes":{"ID":110656,"DIS_CODE":0,"TOWNNAME":"南區","LI":"再興里","LIN":"17鄰","STREET":"金華路","SECT":"二段","MAREA":" ","LANE":" ","ALLEY":" ","HOUSE_NO":"１６４號","E_COORD97":167100.42999999999,"N_COORD97":2542244.9700000002,"ADDRESS":"金華路二段１６４號","OBJECTID":110656},"geometry":{"x":167100.43000000063,"y":2542244.9699999988}},{"attributes":{"ID":110657,"DIS_CODE":0,"TOWNNAME":"南區","LI":"再興里","LIN":"17鄰","STREET":"金華路","SECT":"二段","MAREA":" ","LANE":" ","ALLEY":" ","HOUSE_NO":"１６６號","E_COORD97":167100.95000000001,"N_COORD97":2542249.6800000002,"ADDRESS":"金華路二段１６６號","OBJECTID":110657},"geometry":{"x":167100.95000000019,"y":2542249.6800000034}},{"attributes":{"ID":110658,"DIS_CODE":0,"TOWNNAME":"南區","LI":"再興里","LIN":"17鄰","STREET":"金華路","SECT":"二段","MAREA":" ","LANE":" ","ALLEY":" ","HOUSE_NO":"２０４號","E_COORD97":167107.17000000001,"N_COORD97":2542327.54,"ADDRESS":"金華路二段２０４號","OBJECTID":110658},"geometry":{"x":167107.17000000086,"y":2542327.5399999991}},{"attributes":{"ID":110659,"DIS_CODE":0,"TOWNNAME":"麻豆區","LI":"麻口里","LIN":"1鄰","STREET":" ","SECT":" ","MAREA":"麻豆口","LANE":" ","ALLEY":" ","HOUSE_NO":"５號之１１","E_COORD97":170125.44,"N_COORD97":2564042.9300000002,"ADDRESS":"麻豆口５號之１１","OBJECTID":110659},"geometry":{"x":170125.44000000134,"y":2564042.9299999997}},{"attributes":{"ID":110660,"DIS_CODE":0,"TOWNNAME":"麻豆區","LI":"麻口里","LIN":"1鄰","STREET":" ","SECT":" ","MAREA":"麻豆口","LANE":" ","ALLEY":" ","HOUSE_NO":"５號","E_COORD97":170111.84,"N_COORD97":2564081.3100000001,"ADDRESS":"麻豆口５號","OBJECTID":110660},"geometry":{"x":170111.84000000078,"y":2564081.3100000024}},{"attributes":{"ID":110661,"DIS_CODE":0,"TOWNNAME":"北區","LI":"大和里","LIN":"1鄰","STREET":"大港街","SECT":" ","MAREA":" ","LANE":" ","ALLEY":" ","HOUSE_NO":"３號","E_COORD97":167329.60999999999,"N_COORD97":2546111.5099999998,"ADDRESS":"大港街３號","OBJECTID":110661},"geometry":{"x":167329.6099999994,"y":2546111.5099999998}},{"attributes":{"ID":110662,"DIS_CODE":0,"TOWNNAME":"安平區","LI":"海頭里","LIN":"1鄰","STREET":"延平街","SECT":" ","MAREA":" ","LANE":" ","ALLEY":" ","HOUSE_NO":"８０號","E_COORD97":164196.17000000001,"N_COORD97":2544603.2200000002,"ADDRESS":"延平街８０號","OBJECTID":110662},"geometry":{"x":164196.17000000179,"y":2544603.2200000044}},{"attributes":{"ID":110663,"DIS_CODE":0,"TOWNNAME":"仁德區","LI":"上崙里","LIN":"9鄰","STREET":"德善路","SECT":" ","MAREA":" ","LANE":"３０５巷","ALLEY":"１３弄","HOUSE_NO":"５６號","E_COORD97":174024.01000000001,"N_COORD97":2538469.29,"ADDRESS":"德善路３０５巷１３弄５６號","OBJECTID":110663},"geometry":{"x":174024.00999999885,"y":2538469.290000001}},{"attributes":{"ID":110664,"DIS_CODE":0,"TOWNNAME":"安平區","LI":"海頭里","LIN":"1鄰","STREET":"延平街","SECT":" ","MAREA":" ","LANE":" ","ALLEY":" ","HOUSE_NO":"１０２號","E_COORD97":164156.84,"N_COORD97":2544614.7599999998,"ADDRESS":"延平街１０２號","OBJECTID":110664},"geometry":{"x":164156.83999999985,"y":2544614.7599999998}},{"attributes":{"ID":110665,"DIS_CODE":0,"TOWNNAME":"仁德區","LI":"上崙里","LIN":"9鄰","STREET":"德善路","SECT":" ","MAREA":" ","LANE":"３０５巷","ALLEY":"１３弄","HOUSE_NO":"３１號","E_COORD97":174063.26000000001,"N_COORD97":2538487.6600000001,"ADDRESS":"德善路３０５巷１３弄３１號","OBJECTID":110665},"geometry":{"x":174063.26000000071,"y":2538487.660000002}},{"attributes":{"ID":110666,"DIS_CODE":0,"TOWNNAME":"仁德區","LI":"上崙里","LIN":"9鄰","STREET":"德善路","SECT":" ","MAREA":" ","LANE":"３０５巷","ALLEY":"１３弄","HOUSE_NO":"６０號","E_COORD97":174026.98000000001,"N_COORD97":2538458.79,"ADDRESS":"德善路３０５巷１３弄６０號","OBJECTID":110666},"geometry":{"x":174026.98000000138,"y":2538458.790000001}},{"attributes":{"ID":110667,"DIS_CODE":0,"TOWNNAME":"仁德區","LI":"上崙里","LIN":"9鄰","STREET":"德善路","SECT":" ","MAREA":" ","LANE":"３０５巷","ALLEY":"１３弄","HOUSE_NO":"２６號","E_COORD97":174010.28,"N_COORD97":2538511.2799999998,"ADDRESS":"德善路３０５巷１３弄２６號","OBJECTID":110667},"geometry":{"x":174010.28000000026,"y":2538511.2799999993}},{"attributes":{"ID":110668,"DIS_CODE":0,"TOWNNAME":"仁德區","LI":"上崙里","LIN":"9鄰","STREET":"民安路","SECT":"二段","MAREA":" ","LANE":"３８２巷","ALLEY":"５１弄","HOUSE_NO":"９號","E_COORD97":174013.25,"N_COORD97":2538656.5699999998,"ADDRESS":"民安路二段３８２巷５１弄９號","OBJECTID":110668},"geometry":{"x":174013.25000000093,"y":2538656.5700000003}},{"attributes":{"ID":110669,"DIS_CODE":0,"TOWNNAME":"東區","LI":"富裕里","LIN":"9鄰","STREET":"裕農路","SECT":" ","MAREA":" ","LANE":"２８８巷","ALLEY":"７０弄","HOUSE_NO":"１０號","E_COORD97":170933.54000000001,"N_COORD97":2542908.8399999999,"ADDRESS":"裕農路２８８巷７０弄１０號","OBJECTID":110669},"geometry":{"x":170933.54000000004,"y":2542908.8399999999}},{"attributes":{"ID":110670,"DIS_CODE":0,"TOWNNAME":"東區","LI":"富裕里","LIN":"9鄰","STREET":"裕農路","SECT":" ","MAREA":" ","LANE":"２８８巷","ALLEY":"７０弄","HOUSE_NO":"４０號","E_COORD97":170936.29999999999,"N_COORD97":2542831.46,"ADDRESS":"裕農路２８８巷７０弄４０號","OBJECTID":110670},"geometry":{"x":170936.29999999981,"y":2542831.4600000009}},{"attributes":{"ID":110671,"DIS_CODE":0,"TOWNNAME":"東區","LI":"大德里","LIN":"9鄰","STREET":"立德十一路","SECT":" ","MAREA":" ","LANE":"５５巷","ALLEY":"７０弄","HOUSE_NO":"１號","E_COORD97":169495.66,"N_COORD97":2542256.5499999998,"ADDRESS":"立德十一路５５巷７０弄１號","OBJECTID":110671},"geometry":{"x":169495.66000000201,"y":2542256.5500000026}},{"attributes":{"ID":110672,"DIS_CODE":0,"TOWNNAME":"東區","LI":"大德里","LIN":"9鄰","STREET":"立德十一路","SECT":" ","MAREA":" ","LANE":"５５巷","ALLEY":"７０弄","HOUSE_NO":"３號","E_COORD97":169501.82000000001,"N_COORD97":2542256.96,"ADDRESS":"立德十一路５５巷７０弄３號","OBJECTID":110672},"geometry":{"x":169501.82000000123,"y":2542256.9600000028}},{"attributes":{"ID":110673,"DIS_CODE":0,"TOWNNAME":"東區","LI":"大德里","LIN":"9鄰","STREET":"立德十一路","SECT":" ","MAREA":" ","LANE":"５５巷","ALLEY":"７０弄","HOUSE_NO":"５號","E_COORD97":169507.35999999999,"N_COORD97":2542257.98,"ADDRESS":"立德十一路５５巷７０弄５號","OBJECTID":110673},"geometry":{"x":169507.36000000034,"y":2542257.9800000004}},{"attributes":{"ID":110674,"DIS_CODE":0,"TOWNNAME":"歸仁區","LI":"南保里","LIN":"8鄰","STREET":"文化六街","SECT":" ","MAREA":" ","LANE":" ","ALLEY":" ","HOUSE_NO":"３１號","E_COORD97":176808.73999999999,"N_COORD97":2541322.3300000001,"ADDRESS":"文化六街３１號","OBJECTID":110674},"geometry":{"x":176808.74000000115,"y":2541322.3300000001}},{"attributes":{"ID":110675,"DIS_CODE":0,"TOWNNAME":"東區","LI":"大德里","LIN":"9鄰","STREET":"立德十一路","SECT":" ","MAREA":" ","LANE":"５５巷","ALLEY":"７０弄","HOUSE_NO":"７號","E_COORD97":169512.69,"N_COORD97":2542259.8199999998,"ADDRESS":"立德十一路５５巷７０弄７號","OBJECTID":110675},"geometry":{"x":169512.69000000227,"y":2542259.8200000022}},{"attributes":{"ID":110676,"DIS_CODE":0,"TOWNNAME":"東區","LI":"大德里","LIN":"9鄰","STREET":"立德十一路","SECT":" ","MAREA":" ","LANE":"５５巷","ALLEY":"７０弄","HOUSE_NO":"１０號","E_COORD97":169508.28,"N_COORD97":2542241.4399999999,"ADDRESS":"立德十一路５５巷７０弄１０號","OBJECTID":110676},"geometry":{"x":169508.28000000026,"y":2542241.4400000013}},{"attributes":{"ID":110677,"DIS_CODE":0,"TOWNNAME":"東區","LI":"大德里","LIN":"9鄰","STREET":"立德十一路","SECT":" ","MAREA":" ","LANE":"５５巷","ALLEY":"７０弄","HOUSE_NO":"２０號","E_COORD97":169521,"N_COORD97":2542246.3599999999,"ADDRESS":"立德十一路５５巷７０弄２０號","OBJECTID":110677},"geometry":{"x":169521.00000000093,"y":2542246.3599999994}},{"attributes":{"ID":110678,"DIS_CODE":0,"TOWNNAME":"東區","LI":"東安里","LIN":"9鄰","STREET":"長榮路","SECT":"二段","MAREA":" ","LANE":"３２巷","ALLEY":"４６弄","HOUSE_NO":"２９號","E_COORD97":170099.37,"N_COORD97":2543159.0099999998,"ADDRESS":"長榮路二段３２巷４６弄２９號","OBJECTID":110678},"geometry":{"x":170099.37000000197,"y":2543159.0099999998}},{"attributes":{"ID":110679,"DIS_CODE":0,"TOWNNAME":"東區","LI":"東安里","LIN":"9鄰","STREET":"長榮路","SECT":"二段","MAREA":" ","LANE":"３２巷","ALLEY":"４６弄","HOUSE_NO":"６１號","E_COORD97":170131.85000000001,"N_COORD97":2543165.2200000002,"ADDRESS":"長榮路二段３２巷４６弄６１號","OBJECTID":110679},"geometry":{"x":170131.85000000056,"y":2543165.2200000007}},{"attributes":{"ID":110680,"DIS_CODE":0,"TOWNNAME":"東區","LI":"東安里","LIN":"9鄰","STREET":"長榮路","SECT":"二段","MAREA":" ","LANE":"３２巷","ALLEY":"４６弄","HOUSE_NO":"６３號","E_COORD97":170127.48999999999,"N_COORD97":2543163.6800000002,"ADDRESS":"長榮路二段３２巷４６弄６３號","OBJECTID":110680},"geometry":{"x":170127.49000000209,"y":2543163.6799999997}},{"attributes":{"ID":110681,"DIS_CODE":0,"TOWNNAME":"東區","LI":"東安里","LIN":"9鄰","STREET":"長榮路","SECT":"二段","MAREA":" ","LANE":"３２巷","ALLEY":"４６弄","HOUSE_NO":"１１號","E_COORD97":170069.95000000001,"N_COORD97":2543148.6699999999,"ADDRESS":"長榮路二段３２巷４６弄１１號","OBJECTID":110681},"geometry":{"x":170069.94999999925,"y":2543148.6700000018}},{"attributes":{"ID":110682,"DIS_CODE":0,"TOWNNAME":"西港區","LI":"新復里","LIN":"9鄰","STREET":" ","SECT":" ","MAREA":"溪埔寮","LANE":" ","ALLEY":" ","HOUSE_NO":"１９號","E_COORD97":166486.26999999999,"N_COORD97":2553924.5800000001,"ADDRESS":"溪埔寮１９號","OBJECTID":110682},"geometry":{"x":166486.26999999955,"y":2553924.5800000019}},{"attributes":{"ID":110683,"DIS_CODE":0,"TOWNNAME":"西港區","LI":"新復里","LIN":"9鄰","STREET":" ","SECT":" ","MAREA":"溪埔寮","LANE":" ","ALLEY":" ","HOUSE_NO":"２０號","E_COORD97":166483.75,"N_COORD97":2553885.1499999999,"ADDRESS":"溪埔寮２０號","OBJECTID":110683},"geometry":{"x":166483.75,"y":2553885.1500000004}},{"attributes":{"ID":110684,"DIS_CODE":0,"TOWNNAME":"西港區","LI":"新復里","LIN":"9鄰","STREET":" ","SECT":" ","MAREA":"溪埔寮","LANE":" ","ALLEY":" ","HOUSE_NO":"２１號","E_COORD97":166468.95999999999,"N_COORD97":2553877.9399999999,"ADDRESS":"溪埔寮２１號","OBJECTID":110684},"geometry":{"x":166468.95999999996,"y":2553877.9400000013}},{"attributes":{"ID":110685,"DIS_CODE":0,"TOWNNAME":"西港區","LI":"新復里","LIN":"9鄰","STREET":" ","SECT":" ","MAREA":"溪埔寮","LANE":" ","ALLEY":" ","HOUSE_NO":"２３號之１２","E_COORD97":166445.81,"N_COORD97":2553954.5699999998,"ADDRESS":"溪埔寮２３號之１２","OBJECTID":110685},"geometry":{"x":166445.80999999959,"y":2553954.570000004}},{"attributes":{"ID":110686,"DIS_CODE":0,"TOWNNAME":"西港區","LI":"新復里","LIN":"9鄰","STREET":" ","SECT":" ","MAREA":"溪埔寮","LANE":" ","ALLEY":" ","HOUSE_NO":"２３號之１３","E_COORD97":166418.97,"N_COORD97":2553973.0899999999,"ADDRESS":"溪埔寮２３號之１３","OBJECTID":110686},"geometry":{"x":166418.96999999974,"y":2553973.0899999999}},{"attributes":{"ID":110687,"DIS_CODE":0,"TOWNNAME":"西港區","LI":"新復里","LIN":"9鄰","STREET":" ","SECT":" ","MAREA":"溪埔寮","LANE":" ","ALLEY":" ","HOUSE_NO":"２３號之１４","E_COORD97":166424.42000000001,"N_COORD97":2553973.3300000001,"ADDRESS":"溪埔寮２３號之１４","OBJECTID":110687},"geometry":{"x":166424.42000000086,"y":2553973.3300000019}},{"attributes":{"ID":110688,"DIS_CODE":0,"TOWNNAME":"西港區","LI":"新復里","LIN":"9鄰","STREET":" ","SECT":" ","MAREA":"溪埔寮","LANE":" ","ALLEY":" ","HOUSE_NO":"２３號之１５","E_COORD97":166428.63,"N_COORD97":2553974.7200000002,"ADDRESS":"溪埔寮２３號之１５","OBJECTID":110688},"geometry":{"x":166428.62999999989,"y":2553974.7200000025}},{"attributes":{"ID":110689,"DIS_CODE":0,"TOWNNAME":"西港區","LI":"新復里","LIN":"9鄰","STREET":" ","SECT":" ","MAREA":"溪埔寮","LANE":" ","ALLEY":" ","HOUSE_NO":"２３號之１６","E_COORD97":166432.94,"N_COORD97":2553975.6200000001,"ADDRESS":"溪埔寮２３號之１６","OBJECTID":110689},"geometry":{"x":166432.94000000134,"y":2553975.6200000029}},{"attributes":{"ID":110690,"DIS_CODE":0,"TOWNNAME":"西港區","LI":"新復里","LIN":"9鄰","STREET":" ","SECT":" ","MAREA":"溪埔寮","LANE":" ","ALLEY":" ","HOUSE_NO":"２３號之１７","E_COORD97":166437.73999999999,"N_COORD97":2553976.1699999999,"ADDRESS":"溪埔寮２３號之１７","OBJECTID":110690},"geometry":{"x":166437.74000000115,"y":2553976.1699999999}},{"attributes":{"ID":110691,"DIS_CODE":0,"TOWNNAME":"西港區","LI":"新復里","LIN":"9鄰","STREET":" ","SECT":" ","MAREA":"溪埔寮","LANE":" ","ALLEY":" ","HOUSE_NO":"２３號之１８","E_COORD97":166443.12,"N_COORD97":2553977.3300000001,"ADDRESS":"溪埔寮２３號之１８","OBJECTID":110691},"geometry":{"x":166443.12000000104,"y":2553977.3300000019}},{"attributes":{"ID":110692,"DIS_CODE":0,"TOWNNAME":"西港區","LI":"新復里","LIN":"9鄰","STREET":" ","SECT":" ","MAREA":"溪埔寮","LANE":" ","ALLEY":" ","HOUSE_NO":"２３號之１","E_COORD97":166445.59,"N_COORD97":2553889.0499999998,"ADDRESS":"溪埔寮２３號之１","OBJECTID":110692},"geometry":{"x":166445.58999999985,"y":2553889.0500000007}},{"attributes":{"ID":110693,"DIS_CODE":0,"TOWNNAME":"西港區","LI":"新復里","LIN":"9鄰","STREET":" ","SECT":" ","MAREA":"溪埔寮","LANE":" ","ALLEY":" ","HOUSE_NO":"２３號之２","E_COORD97":166438.35999999999,"N_COORD97":2553903.5499999998,"ADDRESS":"溪埔寮２３號之２","OBJECTID":110693},"geometry":{"x":166438.36000000127,"y":2553903.5500000007}},{"attributes":{"ID":110694,"DIS_CODE":0,"TOWNNAME":"新營區","LI":"五興里","LIN":"14鄰","STREET":" ","SECT":" ","MAREA":"五間厝","LANE":" ","ALLEY":" ","HOUSE_NO":"１５３號之２","E_COORD97":175363.45999999999,"N_COORD97":2574265.25,"ADDRESS":"五間厝１５３號之２","OBJECTID":110694},"geometry":{"x":175363.45999999996,"y":2574265.2500000019}},{"attributes":{"ID":110695,"DIS_CODE":0,"TOWNNAME":"西港區","LI":"新復里","LIN":"9鄰","STREET":" ","SECT":" ","MAREA":"溪埔寮","LANE":" ","ALLEY":" ","HOUSE_NO":"２３號之３","E_COORD97":166441.14999999999,"N_COORD97":2553915.8500000001,"ADDRESS":"溪埔寮２３號之３","OBJECTID":110695},"geometry":{"x":166441.15000000224,"y":2553915.8500000015}},{"attributes":{"ID":110696,"DIS_CODE":0,"TOWNNAME":"西港區","LI":"新復里","LIN":"9鄰","STREET":" ","SECT":" ","MAREA":"溪埔寮","LANE":" ","ALLEY":" ","HOUSE_NO":"２３號之５","E_COORD97":166437.78,"N_COORD97":2553928.6099999999,"ADDRESS":"溪埔寮２３號之５","OBJECTID":110696},"geometry":{"x":166437.78000000026,"y":2553928.6099999994}},{"attributes":{"ID":110697,"DIS_CODE":0,"TOWNNAME":"西港區","LI":"新復里","LIN":"9鄰","STREET":" ","SECT":" ","MAREA":"溪埔寮","LANE":" ","ALLEY":" ","HOUSE_NO":"２３號之６","E_COORD97":166437.62,"N_COORD97":2553932.9399999999,"ADDRESS":"溪埔寮２３號之６","OBJECTID":110697},"geometry":{"x":166437.61999999918,"y":2553932.9399999995}},{"attributes":{"ID":110698,"DIS_CODE":0,"TOWNNAME":"東區","LI":"東安里","LIN":"9鄰","STREET":"長榮路","SECT":"二段","MAREA":" ","LANE":"３２巷","ALLEY":"４６弄","HOUSE_NO":"２１號","E_COORD97":170086.92999999999,"N_COORD97":2543153.9300000002,"ADDRESS":"長榮路二段３２巷４６弄２１號","OBJECTID":110698},"geometry":{"x":170086.93000000063,"y":2543153.9300000016}},{"attributes":{"ID":110699,"DIS_CODE":0,"TOWNNAME":"東區","LI":"東安里","LIN":"9鄰","STREET":"長榮路","SECT":"二段","MAREA":" ","LANE":"３２巷","ALLEY":"４６弄","HOUSE_NO":"２３號","E_COORD97":170090.29000000001,"N_COORD97":2543154.8399999999,"ADDRESS":"長榮路二段３２巷４６弄２３號","OBJECTID":110699},"geometry":{"x":170090.29000000097,"y":2543154.8400000017}},{"attributes":{"ID":110700,"DIS_CODE":0,"TOWNNAME":"東區","LI":"東安里","LIN":"9鄰","STREET":"長榮路","SECT":"二段","MAREA":" ","LANE":"３２巷","ALLEY":"４６弄","HOUSE_NO":"２５號","E_COORD97":170092.73999999999,"N_COORD97":2543156.1099999999,"ADDRESS":"長榮路二段３２巷４６弄２５號","OBJECTID":110700},"geometry":{"x":170092.74000000022,"y":2543156.1100000013}},{"attributes":{"ID":110701,"DIS_CODE":0,"TOWNNAME":"東區","LI":"東安里","LIN":"9鄰","STREET":"長榮路","SECT":"二段","MAREA":" ","LANE":"３２巷","ALLEY":"４６弄","HOUSE_NO":"２７號","E_COORD97":170096.37,"N_COORD97":2543157.5600000001,"ADDRESS":"長榮路二段３２巷４６弄２７號","OBJECTID":110701},"geometry":{"x":170096.37000000104,"y":2543157.5600000024}},{"attributes":{"ID":110702,"DIS_CODE":0,"TOWNNAME":"東區","LI":"東安里","LIN":"9鄰","STREET":"長榮路","SECT":"二段","MAREA":" ","LANE":"３２巷","ALLEY":"４６弄","HOUSE_NO":"３１號","E_COORD97":170102.37,"N_COORD97":2543160.1899999999,"ADDRESS":"長榮路二段３２巷４６弄３１號","OBJECTID":110702},"geometry":{"x":170102.37000000011,"y":2543160.1899999995}},{"attributes":{"ID":110703,"DIS_CODE":0,"TOWNNAME":"東區","LI":"東安里","LIN":"9鄰","STREET":"長榮路","SECT":"二段","MAREA":" ","LANE":"３２巷","ALLEY":"４６弄","HOUSE_NO":"３３號","E_COORD97":170107.63,"N_COORD97":2543161.9100000001,"ADDRESS":"長榮路二段３２巷４６弄３３號","OBJECTID":110703},"geometry":{"x":170107.63000000175,"y":2543161.910000002}},{"attributes":{"ID":110704,"DIS_CODE":0,"TOWNNAME":"東區","LI":"東安里","LIN":"9鄰","STREET":"長榮路","SECT":"二段","MAREA":" ","LANE":"３２巷","ALLEY":"４６弄","HOUSE_NO":"３５號","E_COORD97":170111.89999999999,"N_COORD97":2543166.54,"ADDRESS":"長榮路二段３２巷４６弄３５號","OBJECTID":110704},"geometry":{"x":170111.9000000013,"y":2543166.540000001}},{"attributes":{"ID":110705,"DIS_CODE":0,"TOWNNAME":"東區","LI":"東安里","LIN":"9鄰","STREET":"長榮路","SECT":"二段","MAREA":" ","LANE":"３２巷","ALLEY":"４６弄","HOUSE_NO":"３７號","E_COORD97":170121.95999999999,"N_COORD97":2543168.5699999998,"ADDRESS":"長榮路二段３２巷４６弄３７號","OBJECTID":110705},"geometry":{"x":170121.95999999996,"y":2543168.5700000003}},{"attributes":{"ID":110706,"DIS_CODE":0,"TOWNNAME":"東區","LI":"東安里","LIN":"9鄰","STREET":"長榮路","SECT":"二段","MAREA":" ","LANE":"３２巷","ALLEY":"４６弄","HOUSE_NO":"５號","E_COORD97":170063.04999999999,"N_COORD97":2543166.54,"ADDRESS":"長榮路二段３２巷４６弄５號","OBJECTID":110706},"geometry":{"x":170063.05000000075,"y":2543166.540000001}},{"attributes":{"ID":110707,"DIS_CODE":0,"TOWNNAME":"東區","LI":"東安里","LIN":"9鄰","STREET":"長榮路","SECT":"二段","MAREA":" ","LANE":"３２巷","ALLEY":"４６弄","HOUSE_NO":"３９號","E_COORD97":170127.23000000001,"N_COORD97":2543171.8399999999,"ADDRESS":"長榮路二段３２巷４６弄３９號","OBJECTID":110707},"geometry":{"x":170127.23000000045,"y":2543171.8400000017}},{"attributes":{"ID":110708,"DIS_CODE":0,"TOWNNAME":"東區","LI":"東安里","LIN":"9鄰","STREET":"長榮路","SECT":"二段","MAREA":" ","LANE":"３２巷","ALLEY":"４６弄","HOUSE_NO":"４１號","E_COORD97":170132.5,"N_COORD97":2543173.2000000002,"ADDRESS":"長榮路二段３２巷４６弄４１號","OBJECTID":110708},"geometry":{"x":170132.50000000093,"y":2543173.1999999993}},{"attributes":{"ID":110709,"DIS_CODE":0,"TOWNNAME":"北區","LI":"大和里","LIN":"1鄰","STREET":"文賢路","SECT":" ","MAREA":" ","LANE":" ","ALLEY":" ","HOUSE_NO":"５９９號","E_COORD97":167344.67999999999,"N_COORD97":2545904.1899999999,"ADDRESS":"文賢路５９９號","OBJECTID":110709},"geometry":{"x":167344.6799999997,"y":2545904.1900000032}},{"attributes":{"ID":110710,"DIS_CODE":0,"TOWNNAME":"東區","LI":"東安里","LIN":"9鄰","STREET":"長榮路","SECT":"二段","MAREA":" ","LANE":"３２巷","ALLEY":"４６弄","HOUSE_NO":"４３號","E_COORD97":170135.85999999999,"N_COORD97":2543174.8300000001,"ADDRESS":"長榮路二段３２巷４６弄４３號","OBJECTID":110710},"geometry":{"x":170135.86000000127,"y":2543174.8300000019}},{"attributes":{"ID":110711,"DIS_CODE":0,"TOWNNAME":"東區","LI":"東安里","LIN":"9鄰","STREET":"長榮路","SECT":"二段","MAREA":" ","LANE":"３２巷","ALLEY":"４６弄","HOUSE_NO":"４５號","E_COORD97":170141.29999999999,"N_COORD97":2543184.3599999999,"ADDRESS":"長榮路二段３２巷４６弄４５號","OBJECTID":110711},"geometry":{"x":170141.29999999981,"y":2543184.3600000013}},{"attributes":{"ID":110712,"DIS_CODE":0,"TOWNNAME":"東區","LI":"東安里","LIN":"9鄰","STREET":"長榮路","SECT":"二段","MAREA":" ","LANE":"３２巷","ALLEY":"４６弄","HOUSE_NO":"４７號","E_COORD97":170164.35000000001,"N_COORD97":2543179.1000000001,"ADDRESS":"長榮路二段３２巷４６弄４７號","OBJECTID":110712},"geometry":{"x":170164.34999999963,"y":2543179.1000000034}},{"attributes":{"ID":110713,"DIS_CODE":0,"TOWNNAME":"東區","LI":"東安里","LIN":"9鄰","STREET":"長榮路","SECT":"二段","MAREA":" ","LANE":"３２巷","ALLEY":"４６弄","HOUSE_NO":"４９號","E_COORD97":170158.26999999999,"N_COORD97":2543174.9199999999,"ADDRESS":"長榮路二段３２巷４６弄４９號","OBJECTID":110713},"geometry":{"x":170158.26999999955,"y":2543174.9200000018}},{"attributes":{"ID":110714,"DIS_CODE":0,"TOWNNAME":"東區","LI":"東安里","LIN":"9鄰","STREET":"長榮路","SECT":"二段","MAREA":" ","LANE":"３２巷","ALLEY":"４６弄","HOUSE_NO":"５１號","E_COORD97":170151.91,"N_COORD97":2543176.8300000001,"ADDRESS":"長榮路二段３２巷４６弄５１號","OBJECTID":110714},"geometry":{"x":170151.91000000108,"y":2543176.8300000001}},{"attributes":{"ID":110715,"DIS_CODE":0,"TOWNNAME":"東區","LI":"東安里","LIN":"9鄰","STREET":"長榮路","SECT":"二段","MAREA":" ","LANE":"３２巷","ALLEY":"４６弄","HOUSE_NO":"５３號","E_COORD97":170148.45999999999,"N_COORD97":2543175.1000000001,"ADDRESS":"長榮路二段３２巷４６弄５３號","OBJECTID":110715},"geometry":{"x":170148.46000000089,"y":2543175.0999999996}},{"attributes":{"ID":110716,"DIS_CODE":0,"TOWNNAME":"東區","LI":"東安里","LIN":"9鄰","STREET":"長榮路","SECT":"二段","MAREA":" ","LANE":"３２巷","ALLEY":"４６弄","HOUSE_NO":"５５號","E_COORD97":170144.56,"N_COORD97":2543173.5600000001,"ADDRESS":"長榮路二段３２巷４６弄５５號","OBJECTID":110716},"geometry":{"x":170144.55999999959,"y":2543173.5600000042}},{"attributes":{"ID":110717,"DIS_CODE":0,"TOWNNAME":"西港區","LI":"新復里","LIN":"9鄰","STREET":" ","SECT":" ","MAREA":"溪埔寮","LANE":" ","ALLEY":" ","HOUSE_NO":"２３號之７","E_COORD97":166436.67000000001,"N_COORD97":2553937.3700000001,"ADDRESS":"溪埔寮２３號之７","OBJECTID":110717},"geometry":{"x":166436.66999999993,"y":2553937.3700000029}},{"attributes":{"ID":110718,"DIS_CODE":0,"TOWNNAME":"西港區","LI":"新復里","LIN":"9鄰","STREET":" ","SECT":" ","MAREA":"溪埔寮","LANE":" ","ALLEY":" ","HOUSE_NO":"２３號之８","E_COORD97":166428.44,"N_COORD97":2553952.1000000001,"ADDRESS":"溪埔寮２３號之８","OBJECTID":110718},"geometry":{"x":166428.44000000041,"y":2553952.0999999996}},{"attributes":{"ID":110719,"DIS_CODE":0,"TOWNNAME":"西港區","LI":"新復里","LIN":"9鄰","STREET":" ","SECT":" ","MAREA":"溪埔寮","LANE":" ","ALLEY":" ","HOUSE_NO":"２３號之９","E_COORD97":166432.54000000001,"N_COORD97":2553952.6899999999,"ADDRESS":"溪埔寮２３號之９","OBJECTID":110719},"geometry":{"x":166432.54000000004,"y":2553952.6899999976}},{"attributes":{"ID":110720,"DIS_CODE":0,"TOWNNAME":"西港區","LI":"新復里","LIN":"9鄰","STREET":" ","SECT":" ","MAREA":"溪埔寮","LANE":" ","ALLEY":" ","HOUSE_NO":"２３號","E_COORD97":166463.20000000001,"N_COORD97":2553937.8300000001,"ADDRESS":"溪埔寮２３號","OBJECTID":110720},"geometry":{"x":166463.20000000112,"y":2553937.8300000001}},{"attributes":{"ID":110721,"DIS_CODE":0,"TOWNNAME":"西港區","LI":"新復里","LIN":"9鄰","STREET":" ","SECT":" ","MAREA":"溪埔寮","LANE":" ","ALLEY":" ","HOUSE_NO":"２４之６號","E_COORD97":166389.14000000001,"N_COORD97":2553973.1699999999,"ADDRESS":"溪埔寮２４之６號","OBJECTID":110721},"geometry":{"x":166389.13999999966,"y":2553973.1699999999}},{"attributes":{"ID":110722,"DIS_CODE":0,"TOWNNAME":"西港區","LI":"新復里","LIN":"9鄰","STREET":" ","SECT":" ","MAREA":"溪埔寮","LANE":" ","ALLEY":" ","HOUSE_NO":"２４之７號","E_COORD97":166366.29000000001,"N_COORD97":2553911.2400000002,"ADDRESS":"溪埔寮２４之７號","OBJECTID":110722},"geometry":{"x":166366.29000000004,"y":2553911.2400000002}},{"attributes":{"ID":110723,"DIS_CODE":0,"TOWNNAME":"西港區","LI":"新復里","LIN":"9鄰","STREET":" ","SECT":" ","MAREA":"溪埔寮","LANE":" ","ALLEY":" ","HOUSE_NO":"２４號之７","E_COORD97":166366.29000000001,"N_COORD97":2553911.2400000002,"ADDRESS":"溪埔寮２４號之７","OBJECTID":110723},"geometry":{"x":166366.29000000004,"y":2553911.2400000002}},{"attributes":{"ID":110724,"DIS_CODE":0,"TOWNNAME":"西港區","LI":"新復里","LIN":"9鄰","STREET":" ","SECT":" ","MAREA":"溪埔寮","LANE":" ","ALLEY":" ","HOUSE_NO":"２４號","E_COORD97":166585.72,"N_COORD97":2554647.8300000001,"ADDRESS":"溪埔寮２４號","OBJECTID":110724},"geometry":{"x":166585.71999999881,"y":2554647.8300000019}},{"attributes":{"ID":110725,"DIS_CODE":0,"TOWNNAME":"麻豆區","LI":"龍泉里","LIN":"1鄰","STREET":" ","SECT":" ","MAREA":"溝子墘","LANE":" ","ALLEY":" ","HOUSE_NO":"５號","E_COORD97":173991.53,"N_COORD97":2564115.2000000002,"ADDRESS":"溝子墘５號","OBJECTID":110725},"geometry":{"x":173991.53000000026,"y":2564115.1999999993}},{"attributes":{"ID":110726,"DIS_CODE":0,"TOWNNAME":"麻豆區","LI":"龍泉里","LIN":"1鄰","STREET":" ","SECT":" ","MAREA":"溝子墘","LANE":" ","ALLEY":" ","HOUSE_NO":"６號","E_COORD97":173970.88,"N_COORD97":2564080.4199999999,"ADDRESS":"溝子墘６號","OBJECTID":110726},"geometry":{"x":173970.88000000175,"y":2564080.4200000018}},{"attributes":{"ID":110727,"DIS_CODE":0,"TOWNNAME":"麻豆區","LI":"龍泉里","LIN":"1鄰","STREET":" ","SECT":" ","MAREA":"溝子墘","LANE":" ","ALLEY":" ","HOUSE_NO":"１號之１０","E_COORD97":173847.19,"N_COORD97":2563507.0600000001,"ADDRESS":"溝子墘１號之１０","OBJECTID":110727},"geometry":{"x":173847.19000000227,"y":2563507.0600000024}},{"attributes":{"ID":110728,"DIS_CODE":0,"TOWNNAME":"麻豆區","LI":"龍泉里","LIN":"1鄰","STREET":" ","SECT":" ","MAREA":"溝子墘","LANE":" ","ALLEY":" ","HOUSE_NO":"１號之１５","E_COORD97":174511.10999999999,"N_COORD97":2562540.1699999999,"ADDRESS":"溝子墘１號之１５","OBJECTID":110728},"geometry":{"x":174511.11000000127,"y":2562540.1699999999}},{"attributes":{"ID":110729,"DIS_CODE":0,"TOWNNAME":"麻豆區","LI":"龍泉里","LIN":"1鄰","STREET":" ","SECT":" ","MAREA":"溝子墘","LANE":" ","ALLEY":" ","HOUSE_NO":"１號之１","E_COORD97":173772.45000000001,"N_COORD97":2563671.71,"ADDRESS":"溝子墘１號之１","OBJECTID":110729},"geometry":{"x":173772.45000000205,"y":2563671.7100000028}},{"attributes":{"ID":110730,"DIS_CODE":0,"TOWNNAME":"麻豆區","LI":"龍泉里","LIN":"1鄰","STREET":" ","SECT":" ","MAREA":"溝子墘","LANE":" ","ALLEY":" ","HOUSE_NO":"１號之２","E_COORD97":173797.95000000001,"N_COORD97":2563564.6699999999,"ADDRESS":"溝子墘１號之２","OBJECTID":110730},"geometry":{"x":173797.95000000112,"y":2563564.6699999999}},{"attributes":{"ID":110731,"DIS_CODE":0,"TOWNNAME":"麻豆區","LI":"龍泉里","LIN":"1鄰","STREET":" ","SECT":" ","MAREA":"溝子墘","LANE":" ","ALLEY":" ","HOUSE_NO":"１號之３","E_COORD97":173790.73999999999,"N_COORD97":2563579.98,"ADDRESS":"溝子墘１號之３","OBJECTID":110731},"geometry":{"x":173790.74000000209,"y":2563579.9800000004}},{"attributes":{"ID":110732,"DIS_CODE":0,"TOWNNAME":"麻豆區","LI":"龍泉里","LIN":"1鄰","STREET":" ","SECT":" ","MAREA":"溝子墘","LANE":" ","ALLEY":" ","HOUSE_NO":"１號之４","E_COORD97":173772.87,"N_COORD97":2563684.2999999998,"ADDRESS":"溝子墘１號之４","OBJECTID":110732},"geometry":{"x":173772.87000000197,"y":2563684.3000000026}},{"attributes":{"ID":110733,"DIS_CODE":0,"TOWNNAME":"歸仁區","LI":"南興里","LIN":"1鄰","STREET":"文化十二街","SECT":" ","MAREA":" ","LANE":" ","ALLEY":" ","HOUSE_NO":"６號","E_COORD97":176418.54000000001,"N_COORD97":2541205.3300000001,"ADDRESS":"文化十二街６號","OBJECTID":110733},"geometry":{"x":176418.54000000097,"y":2541205.3300000019}},{"attributes":{"ID":110734,"DIS_CODE":0,"TOWNNAME":"歸仁區","LI":"南興里","LIN":"1鄰","STREET":"文化十二街","SECT":" ","MAREA":" ","LANE":" ","ALLEY":" ","HOUSE_NO":"１４號","E_COORD97":176419.89000000001,"N_COORD97":2541236.3300000001,"ADDRESS":"文化十二街１４號","OBJECTID":110734},"geometry":{"x":176419.88999999966,"y":2541236.3300000019}},{"attributes":{"ID":110735,"DIS_CODE":0,"TOWNNAME":"歸仁區","LI":"沙崙里","LIN":"1鄰","STREET":" ","SECT":" ","MAREA":"二甲","LANE":" ","ALLEY":" ","HOUSE_NO":"１５５號","E_COORD97":178706.67000000001,"N_COORD97":2539562.25,"ADDRESS":"二甲１５５號","OBJECTID":110735},"geometry":{"x":178706.66999999993,"y":2539562.2500000019}},{"attributes":{"ID":110736,"DIS_CODE":0,"TOWNNAME":"東區","LI":"東安里","LIN":"9鄰","STREET":"長榮路","SECT":"二段","MAREA":" ","LANE":"３２巷","ALLEY":"４６弄","HOUSE_NO":"５７號","E_COORD97":170141.20000000001,"N_COORD97":2543172.02,"ADDRESS":"長榮路二段３２巷４６弄５７號","OBJECTID":110736},"geometry":{"x":170141.19999999925,"y":2543172.0199999996}},{"attributes":{"ID":110737,"DIS_CODE":0,"TOWNNAME":"東區","LI":"東安里","LIN":"9鄰","STREET":"長榮路","SECT":"二段","MAREA":" ","LANE":"３２巷","ALLEY":"４６弄","HOUSE_NO":"５９號","E_COORD97":170137.48000000001,"N_COORD97":2543167.48,"ADDRESS":"長榮路二段３２巷４６弄５９號","OBJECTID":110737},"geometry":{"x":170137.48000000045,"y":2543167.4800000023}},{"attributes":{"ID":110738,"DIS_CODE":0,"TOWNNAME":"西港區","LI":"新復里","LIN":"9鄰","STREET":" ","SECT":" ","MAREA":"溪埔寮","LANE":" ","ALLEY":" ","HOUSE_NO":"２５號之１０","E_COORD97":166128.06,"N_COORD97":2553492.21,"ADDRESS":"溪埔寮２５號之１０","OBJECTID":110738},"geometry":{"x":166128.06000000052,"y":2553492.2100000009}},{"attributes":{"ID":110739,"DIS_CODE":0,"TOWNNAME":"西港區","LI":"新復里","LIN":"9鄰","STREET":" ","SECT":" ","MAREA":"溪埔寮","LANE":" ","ALLEY":" ","HOUSE_NO":"２５號之１１","E_COORD97":166214.64999999999,"N_COORD97":2553342.6299999999,"ADDRESS":"溪埔寮２５號之１１","OBJECTID":110739},"geometry":{"x":166214.6500000013,"y":2553342.6300000027}},{"attributes":{"ID":110740,"DIS_CODE":0,"TOWNNAME":"西港區","LI":"新復里","LIN":"9鄰","STREET":" ","SECT":" ","MAREA":"溪埔寮","LANE":" ","ALLEY":" ","HOUSE_NO":"２５號之１２","E_COORD97":166429.97,"N_COORD97":2553476.1699999999,"ADDRESS":"溪埔寮２５號之１２","OBJECTID":110740},"geometry":{"x":166429.9700000016,"y":2553476.1700000018}},{"attributes":{"ID":110741,"DIS_CODE":0,"TOWNNAME":"西港區","LI":"新復里","LIN":"9鄰","STREET":" ","SECT":" ","MAREA":"溪埔寮","LANE":" ","ALLEY":" ","HOUSE_NO":"２５之２０號","E_COORD97":166203.59,"N_COORD97":2553819.4500000002,"ADDRESS":"溪埔寮２５之２０號","OBJECTID":110741},"geometry":{"x":166203.58999999985,"y":2553819.4500000011}},{"attributes":{"ID":110742,"DIS_CODE":0,"TOWNNAME":"西港區","LI":"新復里","LIN":"9鄰","STREET":" ","SECT":" ","MAREA":"溪埔寮","LANE":" ","ALLEY":" ","HOUSE_NO":"２５號之３","E_COORD97":166185.35999999999,"N_COORD97":2553780.2200000002,"ADDRESS":"溪埔寮２５號之３","OBJECTID":110742},"geometry":{"x":166185.3599999994,"y":2553780.2200000007}},{"attributes":{"ID":110743,"DIS_CODE":0,"TOWNNAME":"東區","LI":"東安里","LIN":"9鄰","STREET":"長榮路","SECT":"二段","MAREA":" ","LANE":"３２巷","ALLEY":"４６弄","HOUSE_NO":"６７號","E_COORD97":170120.60999999999,"N_COORD97":2543160.9100000001,"ADDRESS":"長榮路二段３２巷４６弄６７號","OBJECTID":110743},"geometry":{"x":170120.61000000127,"y":2543160.910000002}},{"attributes":{"ID":110744,"DIS_CODE":0,"TOWNNAME":"西港區","LI":"新復里","LIN":"9鄰","STREET":" ","SECT":" ","MAREA":"溪埔寮","LANE":" ","ALLEY":" ","HOUSE_NO":"２５之５號","E_COORD97":166331.32000000001,"N_COORD97":2553923.2599999998,"ADDRESS":"溪埔寮２５之５號","OBJECTID":110744},"geometry":{"x":166331.3200000003,"y":2553923.2600000016}},{"attributes":{"ID":110745,"DIS_CODE":0,"TOWNNAME":"東區","LI":"東安里","LIN":"9鄰","STREET":"長榮路","SECT":"二段","MAREA":" ","LANE":"３２巷","ALLEY":"４６弄","HOUSE_NO":"６９號","E_COORD97":170113.53,"N_COORD97":2543158.8300000001,"ADDRESS":"長榮路二段３２巷４６弄６９號","OBJECTID":110745},"geometry":{"x":170113.53000000026,"y":2543158.8300000019}},{"attributes":{"ID":110746,"DIS_CODE":0,"TOWNNAME":"西港區","LI":"新復里","LIN":"9鄰","STREET":" ","SECT":" ","MAREA":"溪埔寮","LANE":" ","ALLEY":" ","HOUSE_NO":"２５號之８","E_COORD97":166142.32000000001,"N_COORD97":2553849.4700000002,"ADDRESS":"溪埔寮２５號之８","OBJECTID":110746},"geometry":{"x":166142.32000000123,"y":2553849.4700000007}},{"attributes":{"ID":110747,"DIS_CODE":0,"TOWNNAME":"西港區","LI":"新復里","LIN":"9鄰","STREET":" ","SECT":" ","MAREA":"溪埔寮","LANE":" ","ALLEY":" ","HOUSE_NO":"２５號","E_COORD97":166204.81,"N_COORD97":2553806.3999999999,"ADDRESS":"溪埔寮２５號","OBJECTID":110747},"geometry":{"x":166204.80999999959,"y":2553806.3999999985}},{"attributes":{"ID":110748,"DIS_CODE":0,"TOWNNAME":"東區","LI":"東安里","LIN":"9鄰","STREET":"長榮路","SECT":"二段","MAREA":" ","LANE":"３２巷","ALLEY":"４６弄","HOUSE_NO":"７５號","E_COORD97":170089.47,"N_COORD97":2543150.0299999998,"ADDRESS":"長榮路二段３２巷４６弄７５號","OBJECTID":110748},"geometry":{"x":170089.46999999974,"y":2543150.0300000012}},{"attributes":{"ID":110749,"DIS_CODE":0,"TOWNNAME":"東區","LI":"東安里","LIN":"9鄰","STREET":"長榮路","SECT":"二段","MAREA":" ","LANE":"３２巷","ALLEY":"４６弄","HOUSE_NO":"７７號","E_COORD97":170085.75,"N_COORD97":2543149.0299999998,"ADDRESS":"長榮路二段３２巷４６弄７７號","OBJECTID":110749},"geometry":{"x":170085.75,"y":2543149.0300000012}},{"attributes":{"ID":110750,"DIS_CODE":0,"TOWNNAME":"西港區","LI":"劉厝里","LIN":"9鄰","STREET":" ","SECT":" ","MAREA":"劉厝","LANE":" ","ALLEY":" ","HOUSE_NO":"６９號之２","E_COORD97":166037.20000000001,"N_COORD97":2558873.7999999998,"ADDRESS":"劉厝６９號之２","OBJECTID":110750},"geometry":{"x":166037.20000000205,"y":2558873.8000000026}},{"attributes":{"ID":110751,"DIS_CODE":0,"TOWNNAME":"歸仁區","LI":"後市里","LIN":"1鄰","STREET":"大順街","SECT":" ","MAREA":" ","LANE":" ","ALLEY":" ","HOUSE_NO":"１６１號","E_COORD97":177011.37,"N_COORD97":2540590.25,"ADDRESS":"大順街１６１號","OBJECTID":110751},"geometry":{"x":177011.37000000104,"y":2540590.25}},{"attributes":{"ID":110752,"DIS_CODE":0,"TOWNNAME":"歸仁區","LI":"南興里","LIN":"1鄰","STREET":"文化十二街","SECT":" ","MAREA":" ","LANE":" ","ALLEY":" ","HOUSE_NO":"１６號","E_COORD97":176419.89000000001,"N_COORD97":2541240.3300000001,"ADDRESS":"文化十二街１６號","OBJECTID":110752},"geometry":{"x":176419.88999999966,"y":2541240.3300000001}},{"attributes":{"ID":110753,"DIS_CODE":0,"TOWNNAME":"西港區","LI":"劉厝里","LIN":"9鄰","STREET":" ","SECT":" ","MAREA":"劉厝","LANE":" ","ALLEY":" ","HOUSE_NO":"６９號之４","E_COORD97":166017.20999999999,"N_COORD97":2558901.02,"ADDRESS":"劉厝６９號之４","OBJECTID":110753},"geometry":{"x":166017.21000000089,"y":2558901.0200000014}},{"attributes":{"ID":110754,"DIS_CODE":0,"TOWNNAME":"西港區","LI":"劉厝里","LIN":"9鄰","STREET":" ","SECT":" ","MAREA":"劉厝","LANE":" ","ALLEY":" ","HOUSE_NO":"６９號之５","E_COORD97":166015.23000000001,"N_COORD97":2558911.77,"ADDRESS":"劉厝６９號之５","OBJECTID":110754},"geometry":{"x":166015.23000000231,"y":2558911.7699999996}},{"attributes":{"ID":110755,"DIS_CODE":0,"TOWNNAME":"西港區","LI":"劉厝里","LIN":"9鄰","STREET":" ","SECT":" ","MAREA":"劉厝","LANE":" ","ALLEY":" ","HOUSE_NO":"６９號","E_COORD97":166034.01000000001,"N_COORD97":2558854.7799999998,"ADDRESS":"劉厝６９號","OBJECTID":110755},"geometry":{"x":166034.00999999978,"y":2558854.7800000031}},{"attributes":{"ID":110756,"DIS_CODE":0,"TOWNNAME":"白河區","LI":"外角里","LIN":"9鄰","STREET":" ","SECT":" ","MAREA":"庄內","LANE":" ","ALLEY":" ","HOUSE_NO":"１０之１號","E_COORD97":191096.12,"N_COORD97":2583341.02,"ADDRESS":"庄內１０之１號","OBJECTID":110756},"geometry":{"x":191096.12000000104,"y":2583341.0199999996}},{"attributes":{"ID":110757,"DIS_CODE":0,"TOWNNAME":"白河區","LI":"外角里","LIN":"9鄰","STREET":" ","SECT":" ","MAREA":"庄內","LANE":" ","ALLEY":" ","HOUSE_NO":"１１號","E_COORD97":191095.10000000001,"N_COORD97":2583362.1499999999,"ADDRESS":"庄內１１號","OBJECTID":110757},"geometry":{"x":191095.09999999963,"y":2583362.1500000041}},{"attributes":{"ID":110758,"DIS_CODE":0,"TOWNNAME":"白河區","LI":"外角里","LIN":"9鄰","STREET":" ","SECT":" ","MAREA":"庄內","LANE":" ","ALLEY":" ","HOUSE_NO":"１４號","E_COORD97":191129.42000000001,"N_COORD97":2583356.9700000002,"ADDRESS":"庄內１４號","OBJECTID":110758},"geometry":{"x":191129.42000000179,"y":2583356.9700000044}},{"attributes":{"ID":110759,"DIS_CODE":0,"TOWNNAME":"白河區","LI":"外角里","LIN":"9鄰","STREET":" ","SECT":" ","MAREA":"庄內","LANE":" ","ALLEY":" ","HOUSE_NO":"１５之１號","E_COORD97":191176.88,"N_COORD97":2583347.5699999998,"ADDRESS":"庄內１５之１號","OBJECTID":110759},"geometry":{"x":191176.87999999989,"y":2583347.5700000003}},{"attributes":{"ID":110760,"DIS_CODE":0,"TOWNNAME":"白河區","LI":"外角里","LIN":"9鄰","STREET":" ","SECT":" ","MAREA":"庄內","LANE":" ","ALLEY":" ","HOUSE_NO":"１５之２號","E_COORD97":191249.29999999999,"N_COORD97":2583285.6200000001,"ADDRESS":"庄內１５之２號","OBJECTID":110760},"geometry":{"x":191249.30000000075,"y":2583285.6200000029}},{"attributes":{"ID":110761,"DIS_CODE":0,"TOWNNAME":"白河區","LI":"外角里","LIN":"9鄰","STREET":" ","SECT":" ","MAREA":"庄內","LANE":" ","ALLEY":" ","HOUSE_NO":"１５之３號","E_COORD97":191195.48000000001,"N_COORD97":2583336.8199999998,"ADDRESS":"庄內１５之３號","OBJECTID":110761},"geometry":{"x":191195.47999999952,"y":2583336.8200000003}},{"attributes":{"ID":110762,"DIS_CODE":0,"TOWNNAME":"白河區","LI":"外角里","LIN":"9鄰","STREET":" ","SECT":" ","MAREA":"庄內","LANE":" ","ALLEY":" ","HOUSE_NO":"１５之４號","E_COORD97":191164.72,"N_COORD97":2583341.27,"ADDRESS":"庄內１５之４號","OBJECTID":110762},"geometry":{"x":191164.72000000067,"y":2583341.2700000014}},{"attributes":{"ID":110763,"DIS_CODE":0,"TOWNNAME":"白河區","LI":"外角里","LIN":"9鄰","STREET":" ","SECT":" ","MAREA":"庄內","LANE":" ","ALLEY":" ","HOUSE_NO":"１７號","E_COORD97":191119.29999999999,"N_COORD97":2583304.3700000001,"ADDRESS":"庄內１７號","OBJECTID":110763},"geometry":{"x":191119.29999999981,"y":2583304.3700000029}},{"attributes":{"ID":110764,"DIS_CODE":0,"TOWNNAME":"白河區","LI":"崎內里","LIN":"9鄰","STREET":" ","SECT":" ","MAREA":"芎蕉宅","LANE":" ","ALLEY":" ","HOUSE_NO":"１０號","E_COORD97":196206.44,"N_COORD97":2587135.5499999998,"ADDRESS":"芎蕉宅１０號","OBJECTID":110764},"geometry":{"x":196206.44000000041,"y":2587135.5500000007}},{"attributes":{"ID":110765,"DIS_CODE":0,"TOWNNAME":"歸仁區","LI":"新厝里","LIN":"1鄰","STREET":"中正一街","SECT":" ","MAREA":" ","LANE":" ","ALLEY":" ","HOUSE_NO":"２３號","E_COORD97":177704.69,"N_COORD97":2540713.6800000002,"ADDRESS":"中正一街２３號","OBJECTID":110765},"geometry":{"x":177704.69000000041,"y":2540713.6800000034}},{"attributes":{"ID":110766,"DIS_CODE":0,"TOWNNAME":"白河區","LI":"崎內里","LIN":"9鄰","STREET":" ","SECT":" ","MAREA":"芎蕉宅","LANE":" ","ALLEY":" ","HOUSE_NO":"１１之６號","E_COORD97":196231.31,"N_COORD97":2587205.2000000002,"ADDRESS":"芎蕉宅１１之６號","OBJECTID":110766},"geometry":{"x":196231.31000000052,"y":2587205.1999999974}},{"attributes":{"ID":110767,"DIS_CODE":0,"TOWNNAME":"東區","LI":"東安里","LIN":"9鄰","STREET":"長榮路","SECT":"二段","MAREA":" ","LANE":"３２巷","ALLEY":"４６弄","HOUSE_NO":"７９號","E_COORD97":170074.13,"N_COORD97":2543141.6800000002,"ADDRESS":"長榮路二段３２巷４６弄７９號","OBJECTID":110767},"geometry":{"x":170074.13000000082,"y":2543141.6800000016}},{"attributes":{"ID":110768,"DIS_CODE":0,"TOWNNAME":"東區","LI":"東安里","LIN":"9鄰","STREET":"長榮路","SECT":"二段","MAREA":" ","LANE":"３２巷","ALLEY":"４６弄","HOUSE_NO":"７號","E_COORD97":170064.32999999999,"N_COORD97":2543162.9100000001,"ADDRESS":"長榮路二段３２巷４６弄７號","OBJECTID":110768},"geometry":{"x":170064.33000000101,"y":2543162.9100000001}},{"attributes":{"ID":110769,"DIS_CODE":0,"TOWNNAME":"東區","LI":"東安里","LIN":"9鄰","STREET":"長榮路","SECT":"二段","MAREA":" ","LANE":"３２巷","ALLEY":"４６弄","HOUSE_NO":"９號","E_COORD97":170076.48999999999,"N_COORD97":2543163,"ADDRESS":"長榮路二段３２巷４６弄９號","OBJECTID":110769},"geometry":{"x":170076.48999999929,"y":2543163.0000000037}},{"attributes":{"ID":110770,"DIS_CODE":0,"TOWNNAME":"永康區","LI":"西橋里","LIN":"9鄰","STREET":"中華西街","SECT":" ","MAREA":" ","LANE":"１２７巷","ALLEY":"２７弄","HOUSE_NO":"５號","E_COORD97":170580.5,"N_COORD97":2546107,"ADDRESS":"中華西街１２７巷２７弄５號","OBJECTID":110770},"geometry":{"x":170580.50000000093,"y":2546107.0000000019}},{"attributes":{"ID":110771,"DIS_CODE":0,"TOWNNAME":"白河區","LI":"崎內里","LIN":"9鄰","STREET":" ","SECT":" ","MAREA":"芎蕉宅","LANE":" ","ALLEY":" ","HOUSE_NO":"１１之８號","E_COORD97":196244.19,"N_COORD97":2587215.4500000002,"ADDRESS":"芎蕉宅１１之８號","OBJECTID":110771},"geometry":{"x":196244.19000000227,"y":2587215.4500000011}},{"attributes":{"ID":110772,"DIS_CODE":0,"TOWNNAME":"白河區","LI":"崎內里","LIN":"9鄰","STREET":" ","SECT":" ","MAREA":"芎蕉宅","LANE":" ","ALLEY":" ","HOUSE_NO":"１１號","E_COORD97":196206.34,"N_COORD97":2587156.6800000002,"ADDRESS":"芎蕉宅１１號","OBJECTID":110772},"geometry":{"x":196206.33999999985,"y":2587156.6800000016}},{"attributes":{"ID":110773,"DIS_CODE":0,"TOWNNAME":"永康區","LI":"西橋里","LIN":"9鄰","STREET":"中華西街","SECT":" ","MAREA":" ","LANE":"８５巷","ALLEY":"１２弄","HOUSE_NO":"５號","E_COORD97":170642.73999999999,"N_COORD97":2546096.77,"ADDRESS":"中華西街８５巷１２弄５號","OBJECTID":110773},"geometry":{"x":170642.73999999929,"y":2546096.7700000033}},{"attributes":{"ID":110774,"DIS_CODE":0,"TOWNNAME":"永康區","LI":"西橋里","LIN":"9鄰","STREET":"中華西街","SECT":" ","MAREA":" ","LANE":"１２７巷","ALLEY":"２７弄","HOUSE_NO":"１９號","E_COORD97":170591.26999999999,"N_COORD97":2546090.7400000002,"ADDRESS":"中華西街１２７巷２７弄１９號","OBJECTID":110774},"geometry":{"x":170591.27000000048,"y":2546090.7399999984}},{"attributes":{"ID":110775,"DIS_CODE":0,"TOWNNAME":"永康區","LI":"西橋里","LIN":"9鄰","STREET":"中華西街","SECT":" ","MAREA":" ","LANE":"８５巷","ALLEY":"１２弄","HOUSE_NO":"１３號","E_COORD97":170627.20000000001,"N_COORD97":2546104.52,"ADDRESS":"中華西街８５巷１２弄１３號","OBJECTID":110775},"geometry":{"x":170627.20000000019,"y":2546104.5199999996}},{"attributes":{"ID":110776,"DIS_CODE":0,"TOWNNAME":"永康區","LI":"西橋里","LIN":"9鄰","STREET":"中華西街","SECT":" ","MAREA":" ","LANE":"１２７巷","ALLEY":"２７弄","HOUSE_NO":"１７號","E_COORD97":170589.09,"N_COORD97":2546094.75,"ADDRESS":"中華西街１２７巷２７弄１７號","OBJECTID":110776},"geometry":{"x":170589.08999999892,"y":2546094.7500000019}},{"attributes":{"ID":110777,"DIS_CODE":0,"TOWNNAME":"永康區","LI":"西橋里","LIN":"9鄰","STREET":"中華西街","SECT":" ","MAREA":" ","LANE":"１２７巷","ALLEY":"２７弄","HOUSE_NO":"１號","E_COORD97":170576.14999999999,"N_COORD97":2546115,"ADDRESS":"中華西街１２７巷２７弄１號","OBJECTID":110777},"geometry":{"x":170576.1500000013,"y":2546115}},{"attributes":{"ID":110778,"DIS_CODE":0,"TOWNNAME":"白河區","LI":"崎內里","LIN":"9鄰","STREET":" ","SECT":" ","MAREA":"芎蕉宅","LANE":" ","ALLEY":" ","HOUSE_NO":"１５號","E_COORD97":196194.20999999999,"N_COORD97":2587168.0699999998,"ADDRESS":"芎蕉宅１５號","OBJECTID":110778},"geometry":{"x":196194.20999999903,"y":2587168.0700000022}},{"attributes":{"ID":110779,"DIS_CODE":0,"TOWNNAME":"永康區","LI":"西橋里","LIN":"9鄰","STREET":"中華西街","SECT":" ","MAREA":" ","LANE":"１２７巷","ALLEY":"２７弄","HOUSE_NO":"２３號","E_COORD97":170595.73999999999,"N_COORD97":2546082.9900000002,"ADDRESS":"中華西街１２７巷２７弄２３號","OBJECTID":110779},"geometry":{"x":170595.74000000115,"y":2546082.9900000021}},{"attributes":{"ID":110780,"DIS_CODE":0,"TOWNNAME":"白河區","LI":"崎內里","LIN":"9鄰","STREET":" ","SECT":" ","MAREA":"芎蕉宅","LANE":" ","ALLEY":" ","HOUSE_NO":"１６號","E_COORD97":196172.32000000001,"N_COORD97":2587168.5699999998,"ADDRESS":"芎蕉宅１６號","OBJECTID":110780},"geometry":{"x":196172.32000000123,"y":2587168.5700000003}},{"attributes":{"ID":110781,"DIS_CODE":0,"TOWNNAME":"白河區","LI":"崎內里","LIN":"9鄰","STREET":" ","SECT":" ","MAREA":"芎蕉宅","LANE":" ","ALLEY":" ","HOUSE_NO":"１７號","E_COORD97":196180.75,"N_COORD97":2587162,"ADDRESS":"芎蕉宅１７號","OBJECTID":110781},"geometry":{"x":196180.75000000093,"y":2587162}},{"attributes":{"ID":110782,"DIS_CODE":0,"TOWNNAME":"白河區","LI":"崎內里","LIN":"9鄰","STREET":" ","SECT":" ","MAREA":"芎蕉宅","LANE":" ","ALLEY":" ","HOUSE_NO":"１８號","E_COORD97":196154.82000000001,"N_COORD97":2587148.8300000001,"ADDRESS":"芎蕉宅１８號","OBJECTID":110782},"geometry":{"x":196154.81999999937,"y":2587148.8300000019}},{"attributes":{"ID":110783,"DIS_CODE":0,"TOWNNAME":"白河區","LI":"崎內里","LIN":"9鄰","STREET":" ","SECT":" ","MAREA":"芎蕉宅","LANE":" ","ALLEY":" ","HOUSE_NO":"２號","E_COORD97":196403.07000000001,"N_COORD97":2586898.04,"ADDRESS":"芎蕉宅２號","OBJECTID":110783},"geometry":{"x":196403.07000000123,"y":2586898.040000001}},{"attributes":{"ID":110784,"DIS_CODE":0,"TOWNNAME":"永康區","LI":"西橋里","LIN":"9鄰","STREET":"中華西街","SECT":" ","MAREA":" ","LANE":"１２７巷","ALLEY":"２７弄","HOUSE_NO":"１３號","E_COORD97":170606.87,"N_COORD97":2546104.02,"ADDRESS":"中華西街１２７巷２７弄１３號","OBJECTID":110784},"geometry":{"x":170606.87000000104,"y":2546104.0199999996}},{"attributes":{"ID":110785,"DIS_CODE":0,"TOWNNAME":"永康區","LI":"西橋里","LIN":"9鄰","STREET":"中華西街","SECT":" ","MAREA":" ","LANE":"８５巷","ALLEY":"１２弄","HOUSE_NO":"２３號","E_COORD97":170613.64000000001,"N_COORD97":2546109.27,"ADDRESS":"中華西街８５巷１２弄２３號","OBJECTID":110785},"geometry":{"x":170613.63999999966,"y":2546109.2699999996}},{"attributes":{"ID":110786,"DIS_CODE":0,"TOWNNAME":"永康區","LI":"龍潭里","LIN":"9鄰","STREET":"龍橋街","SECT":" ","MAREA":" ","LANE":"５３巷","ALLEY":"２１弄","HOUSE_NO":"５號","E_COORD97":174761.84,"N_COORD97":2548298.6800000002,"ADDRESS":"龍橋街５３巷２１弄５號","OBJECTID":110786},"geometry":{"x":174761.84000000078,"y":2548298.6800000016}},{"attributes":{"ID":110787,"DIS_CODE":0,"TOWNNAME":"中西區","LI":"萬昌里","LIN":"9鄰","STREET":"府前路","SECT":"一段","MAREA":" ","LANE":"１２２巷","ALLEY":"６８弄","HOUSE_NO":"１３號","E_COORD97":168815.89000000001,"N_COORD97":2543431.98,"ADDRESS":"府前路一段１２２巷６８弄１３號","OBJECTID":110787},"geometry":{"x":168815.8900000006,"y":2543431.9800000023}},{"attributes":{"ID":110788,"DIS_CODE":0,"TOWNNAME":"中西區","LI":"萬昌里","LIN":"9鄰","STREET":"府前路","SECT":"一段","MAREA":" ","LANE":"１２２巷","ALLEY":"６８弄","HOUSE_NO":"１５號","E_COORD97":168818.78,"N_COORD97":2543428.6800000002,"ADDRESS":"府前路一段１２２巷６８弄１５號","OBJECTID":110788},"geometry":{"x":168818.78000000119,"y":2543428.6799999997}},{"attributes":{"ID":110789,"DIS_CODE":0,"TOWNNAME":"中西區","LI":"萬昌里","LIN":"9鄰","STREET":"府前路","SECT":"一段","MAREA":" ","LANE":"１２２巷","ALLEY":"６８弄","HOUSE_NO":"１７號","E_COORD97":168820.44,"N_COORD97":2543424.8799999999,"ADDRESS":"府前路一段１２２巷６８弄１７號","OBJECTID":110789},"geometry":{"x":168820.44000000041,"y":2543424.8800000008}},{"attributes":{"ID":110790,"DIS_CODE":0,"TOWNNAME":"白河區","LI":"崎內里","LIN":"9鄰","STREET":" ","SECT":" ","MAREA":"芎蕉宅","LANE":" ","ALLEY":" ","HOUSE_NO":"３號","E_COORD97":196253.62,"N_COORD97":2587017.1400000001,"ADDRESS":"芎蕉宅３號","OBJECTID":110790},"geometry":{"x":196253.62000000011,"y":2587017.1399999987}},{"attributes":{"ID":110791,"DIS_CODE":0,"TOWNNAME":"歸仁區","LI":"歸仁里","LIN":"1鄰","STREET":"大德路","SECT":" ","MAREA":" ","LANE":" ","ALLEY":" ","HOUSE_NO":"１２７號","E_COORD97":177962.73000000001,"N_COORD97":2541349.25,"ADDRESS":"大德路１２７號","OBJECTID":110791},"geometry":{"x":177962.73000000045,"y":2541349.25}},{"attributes":{"ID":110792,"DIS_CODE":0,"TOWNNAME":"白河區","LI":"崎內里","LIN":"9鄰","STREET":" ","SECT":" ","MAREA":"芎蕉宅","LANE":" ","ALLEY":" ","HOUSE_NO":"５號","E_COORD97":196257.78,"N_COORD97":2586938.29,"ADDRESS":"芎蕉宅５號","OBJECTID":110792},"geometry":{"x":196257.78000000026,"y":2586938.290000001}},{"attributes":{"ID":110793,"DIS_CODE":0,"TOWNNAME":"白河區","LI":"崎內里","LIN":"9鄰","STREET":" ","SECT":" ","MAREA":"芎蕉宅","LANE":" ","ALLEY":" ","HOUSE_NO":"６號","E_COORD97":196221.98999999999,"N_COORD97":2587111.8500000001,"ADDRESS":"芎蕉宅６號","OBJECTID":110793},"geometry":{"x":196221.99000000115,"y":2587111.8499999996}},{"attributes":{"ID":110794,"DIS_CODE":0,"TOWNNAME":"白河區","LI":"崎內里","LIN":"9鄰","STREET":" ","SECT":" ","MAREA":"芎蕉宅","LANE":" ","ALLEY":" ","HOUSE_NO":"７號","E_COORD97":196211.35000000001,"N_COORD97":2587111.6400000001,"ADDRESS":"芎蕉宅７號","OBJECTID":110794},"geometry":{"x":196211.34999999963,"y":2587111.6400000006}},{"attributes":{"ID":110795,"DIS_CODE":0,"TOWNNAME":"白河區","LI":"崎內里","LIN":"9鄰","STREET":" ","SECT":" ","MAREA":"芎蕉宅","LANE":" ","ALLEY":" ","HOUSE_NO":"８之１號","E_COORD97":196194.34,"N_COORD97":2587098.1800000002,"ADDRESS":"芎蕉宅８之１號","OBJECTID":110795},"geometry":{"x":196194.33999999985,"y":2587098.1800000016}},{"attributes":{"ID":110796,"DIS_CODE":0,"TOWNNAME":"白河區","LI":"崎內里","LIN":"9鄰","STREET":" ","SECT":" ","MAREA":"芎蕉宅","LANE":" ","ALLEY":" ","HOUSE_NO":"８號","E_COORD97":196190.87,"N_COORD97":2587110.2000000002,"ADDRESS":"芎蕉宅８號","OBJECTID":110796},"geometry":{"x":196190.87000000011,"y":2587110.1999999974}},{"attributes":{"ID":110797,"DIS_CODE":0,"TOWNNAME":"白河區","LI":"崎內里","LIN":"9鄰","STREET":" ","SECT":" ","MAREA":"芎蕉宅","LANE":" ","ALLEY":" ","HOUSE_NO":"９號","E_COORD97":196194.98999999999,"N_COORD97":2587133.27,"ADDRESS":"芎蕉宅９號","OBJECTID":110797},"geometry":{"x":196194.99000000115,"y":2587133.2699999996}},{"attributes":{"ID":110798,"DIS_CODE":0,"TOWNNAME":"善化區","LI":"六分里","LIN":"9鄰","STREET":" ","SECT":" ","MAREA":"溪底寮","LANE":" ","ALLEY":" ","HOUSE_NO":"２０號","E_COORD97":177594.45999999999,"N_COORD97":2561816.52,"ADDRESS":"溪底寮２０號","OBJECTID":110798},"geometry":{"x":177594.45999999996,"y":2561816.5200000033}},{"attributes":{"ID":110799,"DIS_CODE":0,"TOWNNAME":"歸仁區","LI":"辜厝里","LIN":"1鄰","STREET":"中山路","SECT":"二段","MAREA":" ","LANE":" ","ALLEY":" ","HOUSE_NO":"２７號","E_COORD97":177530.41,"N_COORD97":2540771.1200000001,"ADDRESS":"中山路二段２７號","OBJECTID":110799},"geometry":{"x":177530.41000000015,"y":2540771.1200000029}},{"attributes":{"ID":110800,"DIS_CODE":0,"TOWNNAME":"中西區","LI":"萬昌里","LIN":"9鄰","STREET":"府前路","SECT":"一段","MAREA":" ","LANE":"１２２巷","ALLEY":"６８弄","HOUSE_NO":"１號","E_COORD97":168801.59,"N_COORD97":2543439.1699999999,"ADDRESS":"府前路一段１２２巷６８弄１號","OBJECTID":110800},"geometry":{"x":168801.59000000078,"y":2543439.1699999999}}]}