{"displayFieldName":"TOWNNAME","fieldAliases":{"ID":"ID","DIS_CODE":"DIS_CODE","TOWNNAME":"TOWNNAME","LI":"LI","LIN":"LIN","STREET":"STREET","SECT":"SECT","MAREA":"MAREA","LANE":"LANE","ALLEY":"ALLEY","HOUSE_NO":"HOUSE_NO","E_COORD97":"E_COORD97","N_COORD97":"N_COORD97","ADDRESS":"ADDRESS","OBJECTID":"OBJECTID"},"geometryType":"esriGeometryPoint","spatialReference":{"wkid":102443,"latestWkid":3826},"fields":[{"name":"ID","type":"esriFieldTypeDouble","alias":"ID"},{"name":"DIS_CODE","type":"esriFieldTypeInteger","alias":"DIS_CODE"},{"name":"TOWNNAME","type":"esriFieldTypeString","alias":"TOWNNAME","length":8},{"name":"LI","type":"esriFieldTypeString","alias":"LI","length":8},{"name":"LIN","type":"esriFieldTypeString","alias":"LIN","length":12},{"name":"STREET","type":"esriFieldTypeString","alias":"STREET","length":20},{"name":"SECT","type":"esriFieldTypeString","alias":"SECT","length":8},{"name":"MAREA","type":"esriFieldTypeString","alias":"MAREA","length":12},{"name":"LANE","type":"esriFieldTypeString","alias":"LANE","length":10},{"name":"ALLEY","type":"esriFieldTypeString","alias":"ALLEY","length":10},{"name":"HOUSE_NO","type":"esriFieldTypeString","alias":"HOUSE_NO","length":20},{"name":"E_COORD97","type":"esriFieldTypeDouble","alias":"E_COORD97"},{"name":"N_COORD97","type":"esriFieldTypeDouble","alias":"N_COORD97"},{"name":"ADDRESS","type":"esriFieldTypeString","alias":"ADDRESS","length":50},{"name":"OBJECTID","type":"esriFieldTypeOID","alias":"OBJECTID"}],"features":[{"attributes":{"ID":453826,"DIS_CODE":0,"TOWNNAME":"南區","LI":"府南里","LIN":"26鄰","STREET":"大成路","SECT":"二段","MAREA":" ","LANE":"８１巷","ALLEY":" ","HOUSE_NO":"５２號三樓","E_COORD97":167357.91,"N_COORD97":2541608.0800000001,"ADDRESS":"大成路二段８１巷５２號三樓","OBJECTID":453801},"geometry":{"x":167357.90999999922,"y":2541608.0800000019}},{"attributes":{"ID":453827,"DIS_CODE":0,"TOWNNAME":"南區","LI":"府南里","LIN":"26鄰","STREET":"大成路","SECT":"二段","MAREA":" ","LANE":"８１巷","ALLEY":" ","HOUSE_NO":"５２號五樓","E_COORD97":167357.91,"N_COORD97":2541608.0800000001,"ADDRESS":"大成路二段８１巷５２號五樓","OBJECTID":453802},"geometry":{"x":167357.90999999922,"y":2541608.0800000019}},{"attributes":{"ID":453828,"DIS_CODE":0,"TOWNNAME":"南區","LI":"府南里","LIN":"26鄰","STREET":"大成路","SECT":"二段","MAREA":" ","LANE":"８１巷","ALLEY":" ","HOUSE_NO":"５２號四樓","E_COORD97":167357.91,"N_COORD97":2541608.0800000001,"ADDRESS":"大成路二段８１巷５２號四樓","OBJECTID":453803},"geometry":{"x":167357.90999999922,"y":2541608.0800000019}},{"attributes":{"ID":453829,"DIS_CODE":0,"TOWNNAME":"南區","LI":"府南里","LIN":"26鄰","STREET":"大成路","SECT":"二段","MAREA":" ","LANE":"８１巷","ALLEY":" ","HOUSE_NO":"５４號二樓","E_COORD97":167352.67999999999,"N_COORD97":2541610.8199999998,"ADDRESS":"大成路二段８１巷５４號二樓","OBJECTID":453804},"geometry":{"x":167352.68000000063,"y":2541610.8200000003}},{"attributes":{"ID":453830,"DIS_CODE":0,"TOWNNAME":"南區","LI":"府南里","LIN":"26鄰","STREET":"大成路","SECT":"二段","MAREA":" ","LANE":"８１巷","ALLEY":" ","HOUSE_NO":"５４號三樓","E_COORD97":167352.67999999999,"N_COORD97":2541610.8199999998,"ADDRESS":"大成路二段８１巷５４號三樓","OBJECTID":453805},"geometry":{"x":167352.68000000063,"y":2541610.8200000003}},{"attributes":{"ID":453831,"DIS_CODE":0,"TOWNNAME":"南區","LI":"府南里","LIN":"26鄰","STREET":"大成路","SECT":"二段","MAREA":" ","LANE":"８１巷","ALLEY":" ","HOUSE_NO":"５４號五樓","E_COORD97":167352.67999999999,"N_COORD97":2541610.8199999998,"ADDRESS":"大成路二段８１巷５４號五樓","OBJECTID":453806},"geometry":{"x":167352.68000000063,"y":2541610.8200000003}},{"attributes":{"ID":453832,"DIS_CODE":0,"TOWNNAME":"南區","LI":"府南里","LIN":"26鄰","STREET":"大成路","SECT":"二段","MAREA":" ","LANE":"８１巷","ALLEY":" ","HOUSE_NO":"５４號四樓","E_COORD97":167352.67999999999,"N_COORD97":2541610.8199999998,"ADDRESS":"大成路二段８１巷５４號四樓","OBJECTID":453807},"geometry":{"x":167352.68000000063,"y":2541610.8200000003}},{"attributes":{"ID":453833,"DIS_CODE":0,"TOWNNAME":"南區","LI":"府南里","LIN":"26鄰","STREET":"大成路","SECT":"二段","MAREA":" ","LANE":"８１巷","ALLEY":" ","HOUSE_NO":"５６號二樓","E_COORD97":167345.38,"N_COORD97":2541612.98,"ADDRESS":"大成路二段８１巷５６號二樓","OBJECTID":453808},"geometry":{"x":167345.37999999989,"y":2541612.9800000004}},{"attributes":{"ID":453834,"DIS_CODE":0,"TOWNNAME":"南區","LI":"府南里","LIN":"26鄰","STREET":"大成路","SECT":"二段","MAREA":" ","LANE":"８１巷","ALLEY":" ","HOUSE_NO":"５６號三樓","E_COORD97":167345.38,"N_COORD97":2541612.98,"ADDRESS":"大成路二段８１巷５６號三樓","OBJECTID":453809},"geometry":{"x":167345.37999999989,"y":2541612.9800000004}},{"attributes":{"ID":453835,"DIS_CODE":0,"TOWNNAME":"南區","LI":"府南里","LIN":"26鄰","STREET":"大成路","SECT":"二段","MAREA":" ","LANE":"８１巷","ALLEY":" ","HOUSE_NO":"５６號五樓","E_COORD97":167345.38,"N_COORD97":2541612.98,"ADDRESS":"大成路二段８１巷５６號五樓","OBJECTID":453810},"geometry":{"x":167345.37999999989,"y":2541612.9800000004}},{"attributes":{"ID":453836,"DIS_CODE":0,"TOWNNAME":"南區","LI":"府南里","LIN":"26鄰","STREET":"大成路","SECT":"二段","MAREA":" ","LANE":"８１巷","ALLEY":" ","HOUSE_NO":"５６號四樓","E_COORD97":167345.38,"N_COORD97":2541612.98,"ADDRESS":"大成路二段８１巷５６號四樓","OBJECTID":453811},"geometry":{"x":167345.37999999989,"y":2541612.9800000004}},{"attributes":{"ID":453837,"DIS_CODE":0,"TOWNNAME":"南區","LI":"府南里","LIN":"26鄰","STREET":"大成路","SECT":"二段","MAREA":" ","LANE":"８１巷","ALLEY":" ","HOUSE_NO":"５８號二樓","E_COORD97":167339.23999999999,"N_COORD97":2541614.2999999998,"ADDRESS":"大成路二段８１巷５８號二樓","OBJECTID":453812},"geometry":{"x":167339.24000000115,"y":2541614.3000000007}},{"attributes":{"ID":453838,"DIS_CODE":0,"TOWNNAME":"南區","LI":"府南里","LIN":"26鄰","STREET":"大成路","SECT":"二段","MAREA":" ","LANE":"８１巷","ALLEY":" ","HOUSE_NO":"５８號三樓","E_COORD97":167339.23999999999,"N_COORD97":2541614.2999999998,"ADDRESS":"大成路二段８１巷５８號三樓","OBJECTID":453813},"geometry":{"x":167339.24000000115,"y":2541614.3000000007}},{"attributes":{"ID":453839,"DIS_CODE":0,"TOWNNAME":"南區","LI":"府南里","LIN":"26鄰","STREET":"大成路","SECT":"二段","MAREA":" ","LANE":"８１巷","ALLEY":" ","HOUSE_NO":"５８號五樓","E_COORD97":167339.23999999999,"N_COORD97":2541614.2999999998,"ADDRESS":"大成路二段８１巷５８號五樓","OBJECTID":453814},"geometry":{"x":167339.24000000115,"y":2541614.3000000007}},{"attributes":{"ID":453840,"DIS_CODE":0,"TOWNNAME":"南區","LI":"府南里","LIN":"26鄰","STREET":"大成路","SECT":"二段","MAREA":" ","LANE":"８１巷","ALLEY":" ","HOUSE_NO":"５８號四樓","E_COORD97":167339.23999999999,"N_COORD97":2541614.2999999998,"ADDRESS":"大成路二段８１巷５８號四樓","OBJECTID":453815},"geometry":{"x":167339.24000000115,"y":2541614.3000000007}},{"attributes":{"ID":453841,"DIS_CODE":0,"TOWNNAME":"南區","LI":"府南里","LIN":"26鄰","STREET":"大成路","SECT":"二段","MAREA":" ","LANE":"８１巷","ALLEY":" ","HOUSE_NO":"６０號二樓","E_COORD97":167337,"N_COORD97":2541606.0899999999,"ADDRESS":"大成路二段８１巷６０號二樓","OBJECTID":453816},"geometry":{"x":167337.00000000186,"y":2541606.0900000036}},{"attributes":{"ID":453842,"DIS_CODE":0,"TOWNNAME":"南區","LI":"府南里","LIN":"26鄰","STREET":"大成路","SECT":"二段","MAREA":" ","LANE":"８１巷","ALLEY":" ","HOUSE_NO":"６０號三樓","E_COORD97":167337,"N_COORD97":2541606.0899999999,"ADDRESS":"大成路二段８１巷６０號三樓","OBJECTID":453817},"geometry":{"x":167337.00000000186,"y":2541606.0900000036}},{"attributes":{"ID":453843,"DIS_CODE":0,"TOWNNAME":"南區","LI":"府南里","LIN":"26鄰","STREET":"大成路","SECT":"二段","MAREA":" ","LANE":"８１巷","ALLEY":" ","HOUSE_NO":"６０號五樓","E_COORD97":167337,"N_COORD97":2541606.0899999999,"ADDRESS":"大成路二段８１巷６０號五樓","OBJECTID":453818},"geometry":{"x":167337.00000000186,"y":2541606.0900000036}},{"attributes":{"ID":453844,"DIS_CODE":0,"TOWNNAME":"南區","LI":"府南里","LIN":"26鄰","STREET":"大成路","SECT":"二段","MAREA":" ","LANE":"８１巷","ALLEY":" ","HOUSE_NO":"６０號四樓","E_COORD97":167337,"N_COORD97":2541606.0899999999,"ADDRESS":"大成路二段８１巷６０號四樓","OBJECTID":453819},"geometry":{"x":167337.00000000186,"y":2541606.0900000036}},{"attributes":{"ID":453845,"DIS_CODE":0,"TOWNNAME":"南區","LI":"府南里","LIN":"26鄰","STREET":"大成路","SECT":"二段","MAREA":" ","LANE":"８１巷","ALLEY":" ","HOUSE_NO":"６２號二樓","E_COORD97":167343.39000000001,"N_COORD97":2541604.77,"ADDRESS":"大成路二段８１巷６２號二樓","OBJECTID":453820},"geometry":{"x":167343.38999999966,"y":2541604.7700000033}},{"attributes":{"ID":453846,"DIS_CODE":0,"TOWNNAME":"南區","LI":"府南里","LIN":"26鄰","STREET":"大成路","SECT":"二段","MAREA":" ","LANE":"８１巷","ALLEY":" ","HOUSE_NO":"６２號三樓","E_COORD97":167343.39000000001,"N_COORD97":2541604.77,"ADDRESS":"大成路二段８１巷６２號三樓","OBJECTID":453821},"geometry":{"x":167343.38999999966,"y":2541604.7700000033}},{"attributes":{"ID":453847,"DIS_CODE":0,"TOWNNAME":"南區","LI":"府南里","LIN":"26鄰","STREET":"大成路","SECT":"二段","MAREA":" ","LANE":"８１巷","ALLEY":" ","HOUSE_NO":"６２號五樓","E_COORD97":167343.39000000001,"N_COORD97":2541604.77,"ADDRESS":"大成路二段８１巷６２號五樓","OBJECTID":453822},"geometry":{"x":167343.38999999966,"y":2541604.7700000033}},{"attributes":{"ID":453848,"DIS_CODE":0,"TOWNNAME":"南區","LI":"府南里","LIN":"26鄰","STREET":"大成路","SECT":"二段","MAREA":" ","LANE":"８１巷","ALLEY":" ","HOUSE_NO":"６２號四樓","E_COORD97":167343.39000000001,"N_COORD97":2541604.77,"ADDRESS":"大成路二段８１巷６２號四樓","OBJECTID":453823},"geometry":{"x":167343.38999999966,"y":2541604.7700000033}},{"attributes":{"ID":453849,"DIS_CODE":0,"TOWNNAME":"南區","LI":"府南里","LIN":"26鄰","STREET":"大成路","SECT":"二段","MAREA":" ","LANE":"８１巷","ALLEY":" ","HOUSE_NO":"６４號二樓","E_COORD97":167349.20000000001,"N_COORD97":2541602.7799999998,"ADDRESS":"大成路二段８１巷６４號二樓","OBJECTID":453824},"geometry":{"x":167349.19999999925,"y":2541602.7799999993}},{"attributes":{"ID":453850,"DIS_CODE":0,"TOWNNAME":"南區","LI":"府南里","LIN":"26鄰","STREET":"大成路","SECT":"二段","MAREA":" ","LANE":"８１巷","ALLEY":" ","HOUSE_NO":"６４號三樓","E_COORD97":167349.20000000001,"N_COORD97":2541602.7799999998,"ADDRESS":"大成路二段８１巷６４號三樓","OBJECTID":453825},"geometry":{"x":167349.19999999925,"y":2541602.7799999993}},{"attributes":{"ID":453851,"DIS_CODE":0,"TOWNNAME":"南區","LI":"府南里","LIN":"26鄰","STREET":"大成路","SECT":"二段","MAREA":" ","LANE":"８１巷","ALLEY":" ","HOUSE_NO":"６４號五樓","E_COORD97":167349.20000000001,"N_COORD97":2541602.7799999998,"ADDRESS":"大成路二段８１巷６４號五樓","OBJECTID":453826},"geometry":{"x":167349.19999999925,"y":2541602.7799999993}},{"attributes":{"ID":453852,"DIS_CODE":0,"TOWNNAME":"永康區","LI":"西勢里","LIN":"26鄰","STREET":"廣興街","SECT":" ","MAREA":" ","LANE":"３８巷","ALLEY":" ","HOUSE_NO":"２０之３號二樓","E_COORD97":175978.57000000001,"N_COORD97":2546483.29,"ADDRESS":"廣興街３８巷２０之３號二樓","OBJECTID":453827},"geometry":{"x":175978.5700000003,"y":2546483.290000001}},{"attributes":{"ID":453853,"DIS_CODE":0,"TOWNNAME":"永康區","LI":"尚頂里","LIN":"26鄰","STREET":"南台街","SECT":" ","MAREA":" ","LANE":"１０巷","ALLEY":" ","HOUSE_NO":"３號三樓之３","E_COORD97":170464.09,"N_COORD97":2546989.4300000002,"ADDRESS":"南台街１０巷３號三樓之３","OBJECTID":453828},"geometry":{"x":170464.09000000078,"y":2546989.4299999997}},{"attributes":{"ID":453854,"DIS_CODE":0,"TOWNNAME":"永康區","LI":"尚頂里","LIN":"26鄰","STREET":"南台街","SECT":" ","MAREA":" ","LANE":"１０巷","ALLEY":" ","HOUSE_NO":"３號二樓之８","E_COORD97":170464.14000000001,"N_COORD97":2546989.4300000002,"ADDRESS":"南台街１０巷３號二樓之８","OBJECTID":453829},"geometry":{"x":170464.13999999966,"y":2546989.4299999997}},{"attributes":{"ID":453855,"DIS_CODE":0,"TOWNNAME":"安平區","LI":"華平里","LIN":"10鄰","STREET":"怡平路","SECT":" ","MAREA":" ","LANE":"４４２巷","ALLEY":" ","HOUSE_NO":"１６號之１","E_COORD97":165312.66,"N_COORD97":2543889.4100000001,"ADDRESS":"怡平路４４２巷１６號之１","OBJECTID":453830},"geometry":{"x":165312.66000000108,"y":2543889.4100000039}},{"attributes":{"ID":453856,"DIS_CODE":0,"TOWNNAME":"安平區","LI":"金城里","LIN":"11鄰","STREET":"同平路","SECT":" ","MAREA":" ","LANE":"１５６巷","ALLEY":" ","HOUSE_NO":"４３號","E_COORD97":163002.89000000001,"N_COORD97":2543979.0600000001,"ADDRESS":"同平路１５６巷４３號","OBJECTID":453831},"geometry":{"x":163002.8900000006,"y":2543979.0600000005}},{"attributes":{"ID":453857,"DIS_CODE":0,"TOWNNAME":"東區","LI":"後甲里","LIN":"11鄰","STREET":"建東街","SECT":" ","MAREA":" ","LANE":"４３巷","ALLEY":" ","HOUSE_NO":"１號四樓之４","E_COORD97":171764.16,"N_COORD97":2543408.8799999999,"ADDRESS":"建東街４３巷１號四樓之４","OBJECTID":453832},"geometry":{"x":171764.16000000108,"y":2543408.879999999}},{"attributes":{"ID":453858,"DIS_CODE":0,"TOWNNAME":"安平區","LI":"華平里","LIN":"11鄰","STREET":"怡平路","SECT":" ","MAREA":" ","LANE":"４４２巷","ALLEY":" ","HOUSE_NO":"６３號六樓之４","E_COORD97":165296.39000000001,"N_COORD97":2544009.0899999999,"ADDRESS":"怡平路４４２巷６３號六樓之４","OBJECTID":453833},"geometry":{"x":165296.39000000153,"y":2544009.0899999999}},{"attributes":{"ID":453859,"DIS_CODE":0,"TOWNNAME":"安平區","LI":"億載里","LIN":"7鄰","STREET":"郡平路","SECT":" ","MAREA":" ","LANE":"４６０巷","ALLEY":" ","HOUSE_NO":"２１號","E_COORD97":163936.67999999999,"N_COORD97":2543419.5299999998,"ADDRESS":"郡平路４６０巷２１號","OBJECTID":453834},"geometry":{"x":163936.68000000063,"y":2543419.5299999993}},{"attributes":{"ID":453860,"DIS_CODE":0,"TOWNNAME":"安南區","LI":"淵東里","LIN":"11鄰","STREET":"仁安路","SECT":" ","MAREA":" ","LANE":"８３巷","ALLEY":" ","HOUSE_NO":"１號","E_COORD97":165624.82000000001,"N_COORD97":2550162.5099999998,"ADDRESS":"仁安路８３巷１號","OBJECTID":453835},"geometry":{"x":165624.82000000123,"y":2550162.5099999998}},{"attributes":{"ID":453861,"DIS_CODE":0,"TOWNNAME":"安南區","LI":"淵東里","LIN":"11鄰","STREET":"仁安路","SECT":" ","MAREA":" ","LANE":"８３巷","ALLEY":" ","HOUSE_NO":"３號","E_COORD97":165624.5,"N_COORD97":2550164.5800000001,"ADDRESS":"仁安路８３巷３號","OBJECTID":453836},"geometry":{"x":165624.5,"y":2550164.5800000019}},{"attributes":{"ID":453862,"DIS_CODE":0,"TOWNNAME":"安南區","LI":"淵東里","LIN":"11鄰","STREET":"仁安路","SECT":" ","MAREA":" ","LANE":"８３巷","ALLEY":" ","HOUSE_NO":"５號","E_COORD97":165623.70000000001,"N_COORD97":2550166.96,"ADDRESS":"仁安路８３巷５號","OBJECTID":453837},"geometry":{"x":165623.70000000205,"y":2550166.9600000028}},{"attributes":{"ID":453863,"DIS_CODE":0,"TOWNNAME":"安南區","LI":"淵東里","LIN":"11鄰","STREET":"仁安路","SECT":" ","MAREA":" ","LANE":"８３巷","ALLEY":" ","HOUSE_NO":"７號","E_COORD97":165622.75,"N_COORD97":2550169.1800000002,"ADDRESS":"仁安路８３巷７號","OBJECTID":453838},"geometry":{"x":165622.75,"y":2550169.1799999997}},{"attributes":{"ID":453864,"DIS_CODE":0,"TOWNNAME":"安平區","LI":"平通里","LIN":"15鄰","STREET":"健康三街","SECT":" ","MAREA":" ","LANE":"４６０巷","ALLEY":" ","HOUSE_NO":"２９號","E_COORD97":164878.32000000001,"N_COORD97":2543920.3700000001,"ADDRESS":"健康三街４６０巷２９號","OBJECTID":453839},"geometry":{"x":164878.3200000003,"y":2543920.370000001}},{"attributes":{"ID":453865,"DIS_CODE":0,"TOWNNAME":"安平區","LI":"平通里","LIN":"15鄰","STREET":"健康三街","SECT":" ","MAREA":" ","LANE":"４６０巷","ALLEY":" ","HOUSE_NO":"２７號","E_COORD97":164874.19,"N_COORD97":2543920.3700000001,"ADDRESS":"健康三街４６０巷２７號","OBJECTID":453840},"geometry":{"x":164874.19000000041,"y":2543920.370000001}},{"attributes":{"ID":453866,"DIS_CODE":0,"TOWNNAME":"安平區","LI":"平通里","LIN":"15鄰","STREET":"健康三街","SECT":" ","MAREA":" ","LANE":"４６０巷","ALLEY":" ","HOUSE_NO":"２５號","E_COORD97":164868.16,"N_COORD97":2543921.0099999998,"ADDRESS":"健康三街４６０巷２５號","OBJECTID":453841},"geometry":{"x":164868.16000000108,"y":2543921.0099999998}},{"attributes":{"ID":453867,"DIS_CODE":0,"TOWNNAME":"安平區","LI":"平通里","LIN":"15鄰","STREET":"健康三街","SECT":" ","MAREA":" ","LANE":"４６０巷","ALLEY":" ","HOUSE_NO":"２３號","E_COORD97":164863.87,"N_COORD97":2543921.1600000001,"ADDRESS":"健康三街４６０巷２３號","OBJECTID":453842},"geometry":{"x":164863.87000000011,"y":2543921.1600000001}},{"attributes":{"ID":453868,"DIS_CODE":0,"TOWNNAME":"永康區","LI":"復國里","LIN":"25鄰","STREET":"復華三街","SECT":" ","MAREA":" ","LANE":"９０巷","ALLEY":" ","HOUSE_NO":"１６號十三樓之１","E_COORD97":172657.35000000001,"N_COORD97":2545612.7999999998,"ADDRESS":"復華三街９０巷１６號十三樓之１","OBJECTID":453843},"geometry":{"x":172657.35000000056,"y":2545612.8000000007}},{"attributes":{"ID":453869,"DIS_CODE":0,"TOWNNAME":"新營區","LI":"民生里","LIN":"25鄰","STREET":"民生路","SECT":" ","MAREA":" ","LANE":"１６３巷","ALLEY":" ","HOUSE_NO":"１５號二樓之２","E_COORD97":179179.45000000001,"N_COORD97":2578630.96,"ADDRESS":"民生路１６３巷１５號二樓之２","OBJECTID":453844},"geometry":{"x":179179.45000000019,"y":2578630.9600000046}},{"attributes":{"ID":453870,"DIS_CODE":0,"TOWNNAME":"安平區","LI":"文平里","LIN":"25鄰","STREET":"建平三街","SECT":" ","MAREA":" ","LANE":"６２巷","ALLEY":" ","HOUSE_NO":"１４號七樓之１","E_COORD97":166192.07000000001,"N_COORD97":2542943.8700000001,"ADDRESS":"建平三街６２巷１４號七樓之１","OBJECTID":453845},"geometry":{"x":166192.0700000003,"y":2542943.870000001}},{"attributes":{"ID":453871,"DIS_CODE":0,"TOWNNAME":"安平區","LI":"文平里","LIN":"25鄰","STREET":"建平三街","SECT":" ","MAREA":" ","LANE":"６２巷","ALLEY":" ","HOUSE_NO":"１４號七樓之１０","E_COORD97":166192.07000000001,"N_COORD97":2542943.8700000001,"ADDRESS":"建平三街６２巷１４號七樓之１０","OBJECTID":453846},"geometry":{"x":166192.0700000003,"y":2542943.870000001}},{"attributes":{"ID":453872,"DIS_CODE":0,"TOWNNAME":"安平區","LI":"文平里","LIN":"25鄰","STREET":"建平三街","SECT":" ","MAREA":" ","LANE":"６２巷","ALLEY":" ","HOUSE_NO":"１４號七樓之１１","E_COORD97":166192.07000000001,"N_COORD97":2542943.8700000001,"ADDRESS":"建平三街６２巷１４號七樓之１１","OBJECTID":453847},"geometry":{"x":166192.0700000003,"y":2542943.870000001}},{"attributes":{"ID":453873,"DIS_CODE":0,"TOWNNAME":"安平區","LI":"文平里","LIN":"25鄰","STREET":"建平三街","SECT":" ","MAREA":" ","LANE":"６２巷","ALLEY":" ","HOUSE_NO":"１４號七樓之１２","E_COORD97":166192.07000000001,"N_COORD97":2542943.8700000001,"ADDRESS":"建平三街６２巷１４號七樓之１２","OBJECTID":453848},"geometry":{"x":166192.0700000003,"y":2542943.870000001}},{"attributes":{"ID":453874,"DIS_CODE":0,"TOWNNAME":"安平區","LI":"文平里","LIN":"25鄰","STREET":"建平三街","SECT":" ","MAREA":" ","LANE":"６２巷","ALLEY":" ","HOUSE_NO":"１４號七樓之１３","E_COORD97":166192.07000000001,"N_COORD97":2542943.8700000001,"ADDRESS":"建平三街６２巷１４號七樓之１３","OBJECTID":453849},"geometry":{"x":166192.0700000003,"y":2542943.870000001}},{"attributes":{"ID":453875,"DIS_CODE":0,"TOWNNAME":"安平區","LI":"文平里","LIN":"25鄰","STREET":"建平三街","SECT":" ","MAREA":" ","LANE":"６２巷","ALLEY":" ","HOUSE_NO":"１４號七樓之１４","E_COORD97":166192.07000000001,"N_COORD97":2542943.8700000001,"ADDRESS":"建平三街６２巷１４號七樓之１４","OBJECTID":453850},"geometry":{"x":166192.0700000003,"y":2542943.870000001}},{"attributes":{"ID":453876,"DIS_CODE":0,"TOWNNAME":"安平區","LI":"文平里","LIN":"25鄰","STREET":"建平三街","SECT":" ","MAREA":" ","LANE":"６２巷","ALLEY":" ","HOUSE_NO":"１４號七樓之１５","E_COORD97":166192.07000000001,"N_COORD97":2542943.8700000001,"ADDRESS":"建平三街６２巷１４號七樓之１５","OBJECTID":453851},"geometry":{"x":166192.0700000003,"y":2542943.870000001}},{"attributes":{"ID":453877,"DIS_CODE":0,"TOWNNAME":"東區","LI":"和平里","LIN":"1鄰","STREET":"仁和路","SECT":" ","MAREA":" ","LANE":" ","ALLEY":" ","HOUSE_NO":"３３號十三樓","E_COORD97":171099.45000000001,"N_COORD97":2542097.2200000002,"ADDRESS":"仁和路３３號十三樓","OBJECTID":453852},"geometry":{"x":171099.45000000112,"y":2542097.2200000007}},{"attributes":{"ID":453878,"DIS_CODE":0,"TOWNNAME":"安平區","LI":"文平里","LIN":"25鄰","STREET":"建平三街","SECT":" ","MAREA":" ","LANE":"６２巷","ALLEY":" ","HOUSE_NO":"１４號七樓之１６","E_COORD97":166192.07000000001,"N_COORD97":2542943.8700000001,"ADDRESS":"建平三街６２巷１４號七樓之１６","OBJECTID":453853},"geometry":{"x":166192.0700000003,"y":2542943.870000001}},{"attributes":{"ID":453879,"DIS_CODE":0,"TOWNNAME":"安平區","LI":"文平里","LIN":"25鄰","STREET":"建平三街","SECT":" ","MAREA":" ","LANE":"６２巷","ALLEY":" ","HOUSE_NO":"１４號七樓之１７","E_COORD97":166192.07000000001,"N_COORD97":2542943.8700000001,"ADDRESS":"建平三街６２巷１４號七樓之１７","OBJECTID":453854},"geometry":{"x":166192.0700000003,"y":2542943.870000001}},{"attributes":{"ID":453880,"DIS_CODE":0,"TOWNNAME":"安平區","LI":"文平里","LIN":"25鄰","STREET":"建平三街","SECT":" ","MAREA":" ","LANE":"６２巷","ALLEY":" ","HOUSE_NO":"１４號七樓之２","E_COORD97":166192.07000000001,"N_COORD97":2542943.8700000001,"ADDRESS":"建平三街６２巷１４號七樓之２","OBJECTID":453855},"geometry":{"x":166192.0700000003,"y":2542943.870000001}},{"attributes":{"ID":453881,"DIS_CODE":0,"TOWNNAME":"安平區","LI":"文平里","LIN":"25鄰","STREET":"建平三街","SECT":" ","MAREA":" ","LANE":"６２巷","ALLEY":" ","HOUSE_NO":"１４號七樓之３","E_COORD97":166192.07000000001,"N_COORD97":2542943.8700000001,"ADDRESS":"建平三街６２巷１４號七樓之３","OBJECTID":453856},"geometry":{"x":166192.0700000003,"y":2542943.870000001}},{"attributes":{"ID":453882,"DIS_CODE":0,"TOWNNAME":"安平區","LI":"文平里","LIN":"25鄰","STREET":"建平三街","SECT":" ","MAREA":" ","LANE":"６２巷","ALLEY":" ","HOUSE_NO":"１４號七樓之４","E_COORD97":166192.07000000001,"N_COORD97":2542943.8700000001,"ADDRESS":"建平三街６２巷１４號七樓之４","OBJECTID":453857},"geometry":{"x":166192.0700000003,"y":2542943.870000001}},{"attributes":{"ID":453883,"DIS_CODE":0,"TOWNNAME":"安平區","LI":"文平里","LIN":"25鄰","STREET":"建平三街","SECT":" ","MAREA":" ","LANE":"６２巷","ALLEY":" ","HOUSE_NO":"１４號七樓之５","E_COORD97":166192.07000000001,"N_COORD97":2542943.8700000001,"ADDRESS":"建平三街６２巷１４號七樓之５","OBJECTID":453858},"geometry":{"x":166192.0700000003,"y":2542943.870000001}},{"attributes":{"ID":453884,"DIS_CODE":0,"TOWNNAME":"安平區","LI":"文平里","LIN":"25鄰","STREET":"建平三街","SECT":" ","MAREA":" ","LANE":"６２巷","ALLEY":" ","HOUSE_NO":"１４號七樓之６","E_COORD97":166192.07000000001,"N_COORD97":2542943.8700000001,"ADDRESS":"建平三街６２巷１４號七樓之６","OBJECTID":453859},"geometry":{"x":166192.0700000003,"y":2542943.870000001}},{"attributes":{"ID":453885,"DIS_CODE":0,"TOWNNAME":"安平區","LI":"文平里","LIN":"25鄰","STREET":"建平三街","SECT":" ","MAREA":" ","LANE":"６２巷","ALLEY":" ","HOUSE_NO":"１４號七樓之７","E_COORD97":166192.07000000001,"N_COORD97":2542943.8700000001,"ADDRESS":"建平三街６２巷１４號七樓之７","OBJECTID":453860},"geometry":{"x":166192.0700000003,"y":2542943.870000001}},{"attributes":{"ID":453886,"DIS_CODE":0,"TOWNNAME":"安平區","LI":"文平里","LIN":"25鄰","STREET":"建平三街","SECT":" ","MAREA":" ","LANE":"６２巷","ALLEY":" ","HOUSE_NO":"１４號七樓之８","E_COORD97":166192.07000000001,"N_COORD97":2542943.8700000001,"ADDRESS":"建平三街６２巷１４號七樓之８","OBJECTID":453861},"geometry":{"x":166192.0700000003,"y":2542943.870000001}},{"attributes":{"ID":453887,"DIS_CODE":0,"TOWNNAME":"安平區","LI":"文平里","LIN":"25鄰","STREET":"建平三街","SECT":" ","MAREA":" ","LANE":"６２巷","ALLEY":" ","HOUSE_NO":"１４號七樓之９","E_COORD97":166192.07000000001,"N_COORD97":2542943.8700000001,"ADDRESS":"建平三街６２巷１４號七樓之９","OBJECTID":453862},"geometry":{"x":166192.0700000003,"y":2542943.870000001}},{"attributes":{"ID":453888,"DIS_CODE":0,"TOWNNAME":"安平區","LI":"文平里","LIN":"25鄰","STREET":"建平三街","SECT":" ","MAREA":" ","LANE":"６２巷","ALLEY":" ","HOUSE_NO":"１４號五樓之１","E_COORD97":166192.07000000001,"N_COORD97":2542943.8700000001,"ADDRESS":"建平三街６２巷１４號五樓之１","OBJECTID":453863},"geometry":{"x":166192.0700000003,"y":2542943.870000001}},{"attributes":{"ID":453889,"DIS_CODE":0,"TOWNNAME":"安平區","LI":"文平里","LIN":"25鄰","STREET":"建平三街","SECT":" ","MAREA":" ","LANE":"６２巷","ALLEY":" ","HOUSE_NO":"１４號五樓之１０","E_COORD97":166192.07000000001,"N_COORD97":2542943.8700000001,"ADDRESS":"建平三街６２巷１４號五樓之１０","OBJECTID":453864},"geometry":{"x":166192.0700000003,"y":2542943.870000001}},{"attributes":{"ID":453890,"DIS_CODE":0,"TOWNNAME":"安平區","LI":"文平里","LIN":"25鄰","STREET":"建平三街","SECT":" ","MAREA":" ","LANE":"６２巷","ALLEY":" ","HOUSE_NO":"１４號五樓之１１","E_COORD97":166192.07000000001,"N_COORD97":2542943.8700000001,"ADDRESS":"建平三街６２巷１４號五樓之１１","OBJECTID":453865},"geometry":{"x":166192.0700000003,"y":2542943.870000001}},{"attributes":{"ID":453891,"DIS_CODE":0,"TOWNNAME":"安平區","LI":"文平里","LIN":"25鄰","STREET":"建平三街","SECT":" ","MAREA":" ","LANE":"６２巷","ALLEY":" ","HOUSE_NO":"１４號五樓之１２","E_COORD97":166192.07000000001,"N_COORD97":2542943.8700000001,"ADDRESS":"建平三街６２巷１４號五樓之１２","OBJECTID":453866},"geometry":{"x":166192.0700000003,"y":2542943.870000001}},{"attributes":{"ID":453892,"DIS_CODE":0,"TOWNNAME":"安平區","LI":"文平里","LIN":"25鄰","STREET":"建平三街","SECT":" ","MAREA":" ","LANE":"６２巷","ALLEY":" ","HOUSE_NO":"１４號五樓之１３","E_COORD97":166192.07000000001,"N_COORD97":2542943.8700000001,"ADDRESS":"建平三街６２巷１４號五樓之１３","OBJECTID":453867},"geometry":{"x":166192.0700000003,"y":2542943.870000001}},{"attributes":{"ID":453893,"DIS_CODE":0,"TOWNNAME":"安平區","LI":"文平里","LIN":"25鄰","STREET":"建平三街","SECT":" ","MAREA":" ","LANE":"６２巷","ALLEY":" ","HOUSE_NO":"１４號五樓之１４","E_COORD97":166192.07000000001,"N_COORD97":2542943.8700000001,"ADDRESS":"建平三街６２巷１４號五樓之１４","OBJECTID":453868},"geometry":{"x":166192.0700000003,"y":2542943.870000001}},{"attributes":{"ID":453894,"DIS_CODE":0,"TOWNNAME":"安平區","LI":"文平里","LIN":"25鄰","STREET":"建平三街","SECT":" ","MAREA":" ","LANE":"６２巷","ALLEY":" ","HOUSE_NO":"１４號五樓之１５","E_COORD97":166192.07000000001,"N_COORD97":2542943.8700000001,"ADDRESS":"建平三街６２巷１４號五樓之１５","OBJECTID":453869},"geometry":{"x":166192.0700000003,"y":2542943.870000001}},{"attributes":{"ID":453895,"DIS_CODE":0,"TOWNNAME":"安平區","LI":"文平里","LIN":"25鄰","STREET":"建平三街","SECT":" ","MAREA":" ","LANE":"６２巷","ALLEY":" ","HOUSE_NO":"１４號五樓之２","E_COORD97":166192.07000000001,"N_COORD97":2542943.8700000001,"ADDRESS":"建平三街６２巷１４號五樓之２","OBJECTID":453870},"geometry":{"x":166192.0700000003,"y":2542943.870000001}},{"attributes":{"ID":453896,"DIS_CODE":0,"TOWNNAME":"安平區","LI":"文平里","LIN":"25鄰","STREET":"建平三街","SECT":" ","MAREA":" ","LANE":"６２巷","ALLEY":" ","HOUSE_NO":"１４號五樓之３","E_COORD97":166192.07000000001,"N_COORD97":2542943.8700000001,"ADDRESS":"建平三街６２巷１４號五樓之３","OBJECTID":453871},"geometry":{"x":166192.0700000003,"y":2542943.870000001}},{"attributes":{"ID":453897,"DIS_CODE":0,"TOWNNAME":"安平區","LI":"文平里","LIN":"25鄰","STREET":"建平三街","SECT":" ","MAREA":" ","LANE":"６２巷","ALLEY":" ","HOUSE_NO":"１４號五樓之４","E_COORD97":166192.07000000001,"N_COORD97":2542943.8700000001,"ADDRESS":"建平三街６２巷１４號五樓之４","OBJECTID":453872},"geometry":{"x":166192.0700000003,"y":2542943.870000001}},{"attributes":{"ID":453898,"DIS_CODE":0,"TOWNNAME":"安平區","LI":"文平里","LIN":"25鄰","STREET":"建平三街","SECT":" ","MAREA":" ","LANE":"６２巷","ALLEY":" ","HOUSE_NO":"１４號五樓之５","E_COORD97":166192.07000000001,"N_COORD97":2542943.8700000001,"ADDRESS":"建平三街６２巷１４號五樓之５","OBJECTID":453873},"geometry":{"x":166192.0700000003,"y":2542943.870000001}},{"attributes":{"ID":453899,"DIS_CODE":0,"TOWNNAME":"安平區","LI":"文平里","LIN":"25鄰","STREET":"建平三街","SECT":" ","MAREA":" ","LANE":"６２巷","ALLEY":" ","HOUSE_NO":"１４號五樓之６","E_COORD97":166192.07000000001,"N_COORD97":2542943.8700000001,"ADDRESS":"建平三街６２巷１４號五樓之６","OBJECTID":453874},"geometry":{"x":166192.0700000003,"y":2542943.870000001}},{"attributes":{"ID":453900,"DIS_CODE":0,"TOWNNAME":"安平區","LI":"文平里","LIN":"25鄰","STREET":"建平三街","SECT":" ","MAREA":" ","LANE":"６２巷","ALLEY":" ","HOUSE_NO":"１４號五樓之７","E_COORD97":166192.07000000001,"N_COORD97":2542943.8700000001,"ADDRESS":"建平三街６２巷１４號五樓之７","OBJECTID":453875},"geometry":{"x":166192.0700000003,"y":2542943.870000001}},{"attributes":{"ID":453901,"DIS_CODE":0,"TOWNNAME":"安平區","LI":"文平里","LIN":"25鄰","STREET":"建平三街","SECT":" ","MAREA":" ","LANE":"６２巷","ALLEY":" ","HOUSE_NO":"１４號五樓之８","E_COORD97":166192.07000000001,"N_COORD97":2542943.8700000001,"ADDRESS":"建平三街６２巷１４號五樓之８","OBJECTID":453876},"geometry":{"x":166192.0700000003,"y":2542943.870000001}},{"attributes":{"ID":453902,"DIS_CODE":0,"TOWNNAME":"安平區","LI":"文平里","LIN":"25鄰","STREET":"建平三街","SECT":" ","MAREA":" ","LANE":"６２巷","ALLEY":" ","HOUSE_NO":"１４號五樓之９","E_COORD97":166192.07000000001,"N_COORD97":2542943.8700000001,"ADDRESS":"建平三街６２巷１４號五樓之９","OBJECTID":453877},"geometry":{"x":166192.0700000003,"y":2542943.870000001}},{"attributes":{"ID":453903,"DIS_CODE":0,"TOWNNAME":"安平區","LI":"文平里","LIN":"25鄰","STREET":"建平三街","SECT":" ","MAREA":" ","LANE":"６２巷","ALLEY":" ","HOUSE_NO":"１４號六樓之１","E_COORD97":166192.07000000001,"N_COORD97":2542943.8700000001,"ADDRESS":"建平三街６２巷１４號六樓之１","OBJECTID":453878},"geometry":{"x":166192.0700000003,"y":2542943.870000001}},{"attributes":{"ID":453904,"DIS_CODE":0,"TOWNNAME":"安平區","LI":"文平里","LIN":"25鄰","STREET":"建平三街","SECT":" ","MAREA":" ","LANE":"６２巷","ALLEY":" ","HOUSE_NO":"１４號六樓之１０","E_COORD97":166192.07000000001,"N_COORD97":2542943.8700000001,"ADDRESS":"建平三街６２巷１４號六樓之１０","OBJECTID":453879},"geometry":{"x":166192.0700000003,"y":2542943.870000001}},{"attributes":{"ID":453905,"DIS_CODE":0,"TOWNNAME":"安平區","LI":"文平里","LIN":"25鄰","STREET":"建平三街","SECT":" ","MAREA":" ","LANE":"６２巷","ALLEY":" ","HOUSE_NO":"１４號六樓之１１","E_COORD97":166192.07000000001,"N_COORD97":2542943.8700000001,"ADDRESS":"建平三街６２巷１４號六樓之１１","OBJECTID":453880},"geometry":{"x":166192.0700000003,"y":2542943.870000001}},{"attributes":{"ID":453906,"DIS_CODE":0,"TOWNNAME":"安平區","LI":"文平里","LIN":"25鄰","STREET":"建平三街","SECT":" ","MAREA":" ","LANE":"６２巷","ALLEY":" ","HOUSE_NO":"１４號六樓之１２","E_COORD97":166192.07000000001,"N_COORD97":2542943.8700000001,"ADDRESS":"建平三街６２巷１４號六樓之１２","OBJECTID":453881},"geometry":{"x":166192.0700000003,"y":2542943.870000001}},{"attributes":{"ID":453907,"DIS_CODE":0,"TOWNNAME":"安平區","LI":"文平里","LIN":"25鄰","STREET":"建平三街","SECT":" ","MAREA":" ","LANE":"６２巷","ALLEY":" ","HOUSE_NO":"１４號六樓之１３","E_COORD97":166192.07000000001,"N_COORD97":2542943.8700000001,"ADDRESS":"建平三街６２巷１４號六樓之１３","OBJECTID":453882},"geometry":{"x":166192.0700000003,"y":2542943.870000001}},{"attributes":{"ID":453908,"DIS_CODE":0,"TOWNNAME":"安平區","LI":"文平里","LIN":"25鄰","STREET":"建平三街","SECT":" ","MAREA":" ","LANE":"６２巷","ALLEY":" ","HOUSE_NO":"１４號六樓之１４","E_COORD97":166192.07000000001,"N_COORD97":2542943.8700000001,"ADDRESS":"建平三街６２巷１４號六樓之１４","OBJECTID":453883},"geometry":{"x":166192.0700000003,"y":2542943.870000001}},{"attributes":{"ID":453909,"DIS_CODE":0,"TOWNNAME":"安平區","LI":"文平里","LIN":"25鄰","STREET":"建平三街","SECT":" ","MAREA":" ","LANE":"６２巷","ALLEY":" ","HOUSE_NO":"１４號六樓之１５","E_COORD97":166192.07000000001,"N_COORD97":2542943.8700000001,"ADDRESS":"建平三街６２巷１４號六樓之１５","OBJECTID":453884},"geometry":{"x":166192.0700000003,"y":2542943.870000001}},{"attributes":{"ID":453910,"DIS_CODE":0,"TOWNNAME":"安平區","LI":"文平里","LIN":"25鄰","STREET":"建平三街","SECT":" ","MAREA":" ","LANE":"６２巷","ALLEY":" ","HOUSE_NO":"１４號六樓之１６","E_COORD97":166192.07000000001,"N_COORD97":2542943.8700000001,"ADDRESS":"建平三街６２巷１４號六樓之１６","OBJECTID":453885},"geometry":{"x":166192.0700000003,"y":2542943.870000001}},{"attributes":{"ID":453911,"DIS_CODE":0,"TOWNNAME":"安平區","LI":"文平里","LIN":"25鄰","STREET":"建平三街","SECT":" ","MAREA":" ","LANE":"６２巷","ALLEY":" ","HOUSE_NO":"１４號六樓之２","E_COORD97":166192.07000000001,"N_COORD97":2542943.8700000001,"ADDRESS":"建平三街６２巷１４號六樓之２","OBJECTID":453886},"geometry":{"x":166192.0700000003,"y":2542943.870000001}},{"attributes":{"ID":453912,"DIS_CODE":0,"TOWNNAME":"安平區","LI":"文平里","LIN":"25鄰","STREET":"建平三街","SECT":" ","MAREA":" ","LANE":"６２巷","ALLEY":" ","HOUSE_NO":"１４號六樓之３","E_COORD97":166192.07000000001,"N_COORD97":2542943.8700000001,"ADDRESS":"建平三街６２巷１４號六樓之３","OBJECTID":453887},"geometry":{"x":166192.0700000003,"y":2542943.870000001}},{"attributes":{"ID":453913,"DIS_CODE":0,"TOWNNAME":"安平區","LI":"文平里","LIN":"25鄰","STREET":"建平三街","SECT":" ","MAREA":" ","LANE":"６２巷","ALLEY":" ","HOUSE_NO":"１４號六樓之４","E_COORD97":166192.07000000001,"N_COORD97":2542943.8700000001,"ADDRESS":"建平三街６２巷１４號六樓之４","OBJECTID":453888},"geometry":{"x":166192.0700000003,"y":2542943.870000001}},{"attributes":{"ID":453914,"DIS_CODE":0,"TOWNNAME":"安平區","LI":"文平里","LIN":"25鄰","STREET":"建平三街","SECT":" ","MAREA":" ","LANE":"６２巷","ALLEY":" ","HOUSE_NO":"１４號六樓之５","E_COORD97":166192.07000000001,"N_COORD97":2542943.8700000001,"ADDRESS":"建平三街６２巷１４號六樓之５","OBJECTID":453889},"geometry":{"x":166192.0700000003,"y":2542943.870000001}},{"attributes":{"ID":453915,"DIS_CODE":0,"TOWNNAME":"安平區","LI":"文平里","LIN":"25鄰","STREET":"建平三街","SECT":" ","MAREA":" ","LANE":"６２巷","ALLEY":" ","HOUSE_NO":"１４號六樓之６","E_COORD97":166192.07000000001,"N_COORD97":2542943.8700000001,"ADDRESS":"建平三街６２巷１４號六樓之６","OBJECTID":453890},"geometry":{"x":166192.0700000003,"y":2542943.870000001}},{"attributes":{"ID":453916,"DIS_CODE":0,"TOWNNAME":"安平區","LI":"文平里","LIN":"25鄰","STREET":"建平三街","SECT":" ","MAREA":" ","LANE":"６２巷","ALLEY":" ","HOUSE_NO":"１４號六樓之７","E_COORD97":166192.07000000001,"N_COORD97":2542943.8700000001,"ADDRESS":"建平三街６２巷１４號六樓之７","OBJECTID":453891},"geometry":{"x":166192.0700000003,"y":2542943.870000001}},{"attributes":{"ID":453917,"DIS_CODE":0,"TOWNNAME":"安平區","LI":"文平里","LIN":"25鄰","STREET":"建平三街","SECT":" ","MAREA":" ","LANE":"６２巷","ALLEY":" ","HOUSE_NO":"１４號六樓之８","E_COORD97":166192.07000000001,"N_COORD97":2542943.8700000001,"ADDRESS":"建平三街６２巷１４號六樓之８","OBJECTID":453892},"geometry":{"x":166192.0700000003,"y":2542943.870000001}},{"attributes":{"ID":453918,"DIS_CODE":0,"TOWNNAME":"安平區","LI":"文平里","LIN":"25鄰","STREET":"建平三街","SECT":" ","MAREA":" ","LANE":"６２巷","ALLEY":" ","HOUSE_NO":"１４號六樓之９","E_COORD97":166192.07000000001,"N_COORD97":2542943.8700000001,"ADDRESS":"建平三街６２巷１４號六樓之９","OBJECTID":453893},"geometry":{"x":166192.0700000003,"y":2542943.870000001}},{"attributes":{"ID":453919,"DIS_CODE":0,"TOWNNAME":"安平區","LI":"文平里","LIN":"25鄰","STREET":"建平三街","SECT":" ","MAREA":" ","LANE":"６２巷","ALLEY":" ","HOUSE_NO":"１４號四樓之１","E_COORD97":166192.07000000001,"N_COORD97":2542943.8700000001,"ADDRESS":"建平三街６２巷１４號四樓之１","OBJECTID":453894},"geometry":{"x":166192.0700000003,"y":2542943.870000001}},{"attributes":{"ID":453920,"DIS_CODE":0,"TOWNNAME":"安平區","LI":"文平里","LIN":"25鄰","STREET":"建平三街","SECT":" ","MAREA":" ","LANE":"６２巷","ALLEY":" ","HOUSE_NO":"１４號四樓之１０","E_COORD97":166192.07000000001,"N_COORD97":2542943.8700000001,"ADDRESS":"建平三街６２巷１４號四樓之１０","OBJECTID":453895},"geometry":{"x":166192.0700000003,"y":2542943.870000001}},{"attributes":{"ID":453921,"DIS_CODE":0,"TOWNNAME":"安平區","LI":"文平里","LIN":"25鄰","STREET":"建平三街","SECT":" ","MAREA":" ","LANE":"６２巷","ALLEY":" ","HOUSE_NO":"１４號四樓之１１","E_COORD97":166192.07000000001,"N_COORD97":2542943.8700000001,"ADDRESS":"建平三街６２巷１４號四樓之１１","OBJECTID":453896},"geometry":{"x":166192.0700000003,"y":2542943.870000001}},{"attributes":{"ID":453922,"DIS_CODE":0,"TOWNNAME":"安平區","LI":"文平里","LIN":"25鄰","STREET":"建平三街","SECT":" ","MAREA":" ","LANE":"６２巷","ALLEY":" ","HOUSE_NO":"１４號四樓之１２","E_COORD97":166192.07000000001,"N_COORD97":2542943.8700000001,"ADDRESS":"建平三街６２巷１４號四樓之１２","OBJECTID":453897},"geometry":{"x":166192.0700000003,"y":2542943.870000001}},{"attributes":{"ID":453923,"DIS_CODE":0,"TOWNNAME":"安平區","LI":"文平里","LIN":"25鄰","STREET":"建平三街","SECT":" ","MAREA":" ","LANE":"６２巷","ALLEY":" ","HOUSE_NO":"１４號四樓之１３","E_COORD97":166192.07000000001,"N_COORD97":2542943.8700000001,"ADDRESS":"建平三街６２巷１４號四樓之１３","OBJECTID":453898},"geometry":{"x":166192.0700000003,"y":2542943.870000001}},{"attributes":{"ID":453924,"DIS_CODE":0,"TOWNNAME":"安平區","LI":"文平里","LIN":"25鄰","STREET":"建平三街","SECT":" ","MAREA":" ","LANE":"６２巷","ALLEY":" ","HOUSE_NO":"１４號四樓之１５","E_COORD97":166192.07000000001,"N_COORD97":2542943.8700000001,"ADDRESS":"建平三街６２巷１４號四樓之１５","OBJECTID":453899},"geometry":{"x":166192.0700000003,"y":2542943.870000001}},{"attributes":{"ID":453925,"DIS_CODE":0,"TOWNNAME":"安平區","LI":"文平里","LIN":"25鄰","STREET":"建平三街","SECT":" ","MAREA":" ","LANE":"６２巷","ALLEY":" ","HOUSE_NO":"１４號四樓之１６","E_COORD97":166192.07000000001,"N_COORD97":2542943.8700000001,"ADDRESS":"建平三街６２巷１４號四樓之１６","OBJECTID":453900},"geometry":{"x":166192.0700000003,"y":2542943.870000001}},{"attributes":{"ID":453926,"DIS_CODE":0,"TOWNNAME":"安平區","LI":"文平里","LIN":"25鄰","STREET":"建平三街","SECT":" ","MAREA":" ","LANE":"６２巷","ALLEY":" ","HOUSE_NO":"１４號四樓之２","E_COORD97":166192.07000000001,"N_COORD97":2542943.8700000001,"ADDRESS":"建平三街６２巷１４號四樓之２","OBJECTID":453901},"geometry":{"x":166192.0700000003,"y":2542943.870000001}},{"attributes":{"ID":453927,"DIS_CODE":0,"TOWNNAME":"安平區","LI":"文平里","LIN":"25鄰","STREET":"建平三街","SECT":" ","MAREA":" ","LANE":"６２巷","ALLEY":" ","HOUSE_NO":"１４號四樓之３","E_COORD97":166192.07000000001,"N_COORD97":2542943.8700000001,"ADDRESS":"建平三街６２巷１４號四樓之３","OBJECTID":453902},"geometry":{"x":166192.0700000003,"y":2542943.870000001}},{"attributes":{"ID":453928,"DIS_CODE":0,"TOWNNAME":"安平區","LI":"文平里","LIN":"25鄰","STREET":"建平三街","SECT":" ","MAREA":" ","LANE":"６２巷","ALLEY":" ","HOUSE_NO":"１４號四樓之４","E_COORD97":166192.07000000001,"N_COORD97":2542943.8700000001,"ADDRESS":"建平三街６２巷１４號四樓之４","OBJECTID":453903},"geometry":{"x":166192.0700000003,"y":2542943.870000001}},{"attributes":{"ID":453929,"DIS_CODE":0,"TOWNNAME":"安平區","LI":"文平里","LIN":"25鄰","STREET":"建平三街","SECT":" ","MAREA":" ","LANE":"６２巷","ALLEY":" ","HOUSE_NO":"１４號四樓之５","E_COORD97":166192.07000000001,"N_COORD97":2542943.8700000001,"ADDRESS":"建平三街６２巷１４號四樓之５","OBJECTID":453904},"geometry":{"x":166192.0700000003,"y":2542943.870000001}},{"attributes":{"ID":453930,"DIS_CODE":0,"TOWNNAME":"安平區","LI":"文平里","LIN":"25鄰","STREET":"建平三街","SECT":" ","MAREA":" ","LANE":"６２巷","ALLEY":" ","HOUSE_NO":"１４號四樓之６","E_COORD97":166192.07000000001,"N_COORD97":2542943.8700000001,"ADDRESS":"建平三街６２巷１４號四樓之６","OBJECTID":453905},"geometry":{"x":166192.0700000003,"y":2542943.870000001}},{"attributes":{"ID":453931,"DIS_CODE":0,"TOWNNAME":"安平區","LI":"文平里","LIN":"25鄰","STREET":"建平三街","SECT":" ","MAREA":" ","LANE":"６２巷","ALLEY":" ","HOUSE_NO":"１４號四樓之７","E_COORD97":166192.07000000001,"N_COORD97":2542943.8700000001,"ADDRESS":"建平三街６２巷１４號四樓之７","OBJECTID":453906},"geometry":{"x":166192.0700000003,"y":2542943.870000001}},{"attributes":{"ID":453932,"DIS_CODE":0,"TOWNNAME":"安平區","LI":"文平里","LIN":"25鄰","STREET":"建平三街","SECT":" ","MAREA":" ","LANE":"６２巷","ALLEY":" ","HOUSE_NO":"１４號四樓之８","E_COORD97":166192.07000000001,"N_COORD97":2542943.8700000001,"ADDRESS":"建平三街６２巷１４號四樓之８","OBJECTID":453907},"geometry":{"x":166192.0700000003,"y":2542943.870000001}},{"attributes":{"ID":453933,"DIS_CODE":0,"TOWNNAME":"安平區","LI":"文平里","LIN":"25鄰","STREET":"建平三街","SECT":" ","MAREA":" ","LANE":"６２巷","ALLEY":" ","HOUSE_NO":"１４號四樓之９","E_COORD97":166192.07000000001,"N_COORD97":2542943.8700000001,"ADDRESS":"建平三街６２巷１４號四樓之９","OBJECTID":453908},"geometry":{"x":166192.0700000003,"y":2542943.870000001}},{"attributes":{"ID":453934,"DIS_CODE":0,"TOWNNAME":"安平區","LI":"建平里","LIN":"25鄰","STREET":"建平九街","SECT":" ","MAREA":" ","LANE":"６０巷","ALLEY":" ","HOUSE_NO":"３６號三樓之１","E_COORD97":166042.35000000001,"N_COORD97":2543598.77,"ADDRESS":"建平九街６０巷３６號三樓之１","OBJECTID":453909},"geometry":{"x":166042.35000000149,"y":2543598.7700000014}},{"attributes":{"ID":453935,"DIS_CODE":0,"TOWNNAME":"安平區","LI":"建平里","LIN":"25鄰","STREET":"建平九街","SECT":" ","MAREA":" ","LANE":"６０巷","ALLEY":" ","HOUSE_NO":"３６號三樓之２","E_COORD97":166042.35000000001,"N_COORD97":2543598.77,"ADDRESS":"建平九街６０巷３６號三樓之２","OBJECTID":453910},"geometry":{"x":166042.35000000149,"y":2543598.7700000014}},{"attributes":{"ID":453936,"DIS_CODE":0,"TOWNNAME":"安平區","LI":"建平里","LIN":"25鄰","STREET":"建平九街","SECT":" ","MAREA":" ","LANE":"６０巷","ALLEY":" ","HOUSE_NO":"３６號三樓之３","E_COORD97":166042.35000000001,"N_COORD97":2543598.77,"ADDRESS":"建平九街６０巷３６號三樓之３","OBJECTID":453911},"geometry":{"x":166042.35000000149,"y":2543598.7700000014}},{"attributes":{"ID":453937,"DIS_CODE":0,"TOWNNAME":"安平區","LI":"建平里","LIN":"25鄰","STREET":"建平九街","SECT":" ","MAREA":" ","LANE":"６０巷","ALLEY":" ","HOUSE_NO":"３６號三樓之４","E_COORD97":166042.35000000001,"N_COORD97":2543598.77,"ADDRESS":"建平九街６０巷３６號三樓之４","OBJECTID":453912},"geometry":{"x":166042.35000000149,"y":2543598.7700000014}},{"attributes":{"ID":453938,"DIS_CODE":0,"TOWNNAME":"安平區","LI":"建平里","LIN":"25鄰","STREET":"建平九街","SECT":" ","MAREA":" ","LANE":"６０巷","ALLEY":" ","HOUSE_NO":"３６號之１三樓","E_COORD97":166052.01000000001,"N_COORD97":2543586.4700000002,"ADDRESS":"建平九街６０巷３６號之１三樓","OBJECTID":453913},"geometry":{"x":166052.01000000071,"y":2543586.4700000007}},{"attributes":{"ID":453939,"DIS_CODE":0,"TOWNNAME":"安平區","LI":"建平里","LIN":"25鄰","STREET":"建平九街","SECT":" ","MAREA":" ","LANE":"６０巷","ALLEY":" ","HOUSE_NO":"３６號之１五樓","E_COORD97":166052.01000000001,"N_COORD97":2543586.4700000002,"ADDRESS":"建平九街６０巷３６號之１五樓","OBJECTID":453914},"geometry":{"x":166052.01000000071,"y":2543586.4700000007}},{"attributes":{"ID":453940,"DIS_CODE":0,"TOWNNAME":"安平區","LI":"建平里","LIN":"25鄰","STREET":"建平九街","SECT":" ","MAREA":" ","LANE":"６０巷","ALLEY":" ","HOUSE_NO":"３６號之１六樓","E_COORD97":166052.01000000001,"N_COORD97":2543586.4700000002,"ADDRESS":"建平九街６０巷３６號之１六樓","OBJECTID":453915},"geometry":{"x":166052.01000000071,"y":2543586.4700000007}},{"attributes":{"ID":453941,"DIS_CODE":0,"TOWNNAME":"安平區","LI":"建平里","LIN":"25鄰","STREET":"建平九街","SECT":" ","MAREA":" ","LANE":"６０巷","ALLEY":" ","HOUSE_NO":"３６號之１四樓","E_COORD97":166052.01000000001,"N_COORD97":2543586.4700000002,"ADDRESS":"建平九街６０巷３６號之１四樓","OBJECTID":453916},"geometry":{"x":166052.01000000071,"y":2543586.4700000007}},{"attributes":{"ID":453942,"DIS_CODE":0,"TOWNNAME":"安平區","LI":"建平里","LIN":"25鄰","STREET":"建平九街","SECT":" ","MAREA":" ","LANE":"６０巷","ALLEY":" ","HOUSE_NO":"３６號之２二樓","E_COORD97":166052.39000000001,"N_COORD97":2543590.5299999998,"ADDRESS":"建平九街６０巷３６號之２二樓","OBJECTID":453917},"geometry":{"x":166052.39000000153,"y":2543590.5300000012}},{"attributes":{"ID":453943,"DIS_CODE":0,"TOWNNAME":"安平區","LI":"建平里","LIN":"25鄰","STREET":"建平九街","SECT":" ","MAREA":" ","LANE":"６０巷","ALLEY":" ","HOUSE_NO":"３６號之２三樓","E_COORD97":166052.39000000001,"N_COORD97":2543590.5299999998,"ADDRESS":"建平九街６０巷３６號之２三樓","OBJECTID":453918},"geometry":{"x":166052.39000000153,"y":2543590.5300000012}},{"attributes":{"ID":453944,"DIS_CODE":0,"TOWNNAME":"安平區","LI":"建平里","LIN":"25鄰","STREET":"建平九街","SECT":" ","MAREA":" ","LANE":"６０巷","ALLEY":" ","HOUSE_NO":"３６號之２五樓","E_COORD97":166052.39000000001,"N_COORD97":2543590.5299999998,"ADDRESS":"建平九街６０巷３６號之２五樓","OBJECTID":453919},"geometry":{"x":166052.39000000153,"y":2543590.5300000012}},{"attributes":{"ID":453945,"DIS_CODE":0,"TOWNNAME":"安平區","LI":"建平里","LIN":"25鄰","STREET":"建平九街","SECT":" ","MAREA":" ","LANE":"６０巷","ALLEY":" ","HOUSE_NO":"３６號之２四樓","E_COORD97":166052.39000000001,"N_COORD97":2543590.5299999998,"ADDRESS":"建平九街６０巷３６號之２四樓","OBJECTID":453920},"geometry":{"x":166052.39000000153,"y":2543590.5300000012}},{"attributes":{"ID":453946,"DIS_CODE":0,"TOWNNAME":"安平區","LI":"建平里","LIN":"25鄰","STREET":"建平九街","SECT":" ","MAREA":" ","LANE":"６０巷","ALLEY":" ","HOUSE_NO":"３６號之３二樓","E_COORD97":166054.14000000001,"N_COORD97":2543594.7799999998,"ADDRESS":"建平九街６０巷３６號之３二樓","OBJECTID":453921},"geometry":{"x":166054.14000000153,"y":2543594.7800000012}},{"attributes":{"ID":453947,"DIS_CODE":0,"TOWNNAME":"安平區","LI":"建平里","LIN":"25鄰","STREET":"建平九街","SECT":" ","MAREA":" ","LANE":"６０巷","ALLEY":" ","HOUSE_NO":"３６號之３三樓","E_COORD97":166054.14000000001,"N_COORD97":2543594.7799999998,"ADDRESS":"建平九街６０巷３６號之３三樓","OBJECTID":453922},"geometry":{"x":166054.14000000153,"y":2543594.7800000012}},{"attributes":{"ID":453948,"DIS_CODE":0,"TOWNNAME":"安平區","LI":"建平里","LIN":"25鄰","STREET":"建平九街","SECT":" ","MAREA":" ","LANE":"６０巷","ALLEY":" ","HOUSE_NO":"３６號之３四樓","E_COORD97":166054.14000000001,"N_COORD97":2543594.7799999998,"ADDRESS":"建平九街６０巷３６號之３四樓","OBJECTID":453923},"geometry":{"x":166054.14000000153,"y":2543594.7800000012}},{"attributes":{"ID":453949,"DIS_CODE":0,"TOWNNAME":"安平區","LI":"建平里","LIN":"25鄰","STREET":"建平九街","SECT":" ","MAREA":" ","LANE":"６０巷","ALLEY":" ","HOUSE_NO":"３６號之５二樓","E_COORD97":166055.10000000001,"N_COORD97":2543600.9700000002,"ADDRESS":"建平九街６０巷３６號之５二樓","OBJECTID":453924},"geometry":{"x":166055.10000000056,"y":2543600.9700000007}},{"attributes":{"ID":453950,"DIS_CODE":0,"TOWNNAME":"安平區","LI":"建平里","LIN":"25鄰","STREET":"建平九街","SECT":" ","MAREA":" ","LANE":"６０巷","ALLEY":" ","HOUSE_NO":"３６號之５三樓","E_COORD97":166055.10000000001,"N_COORD97":2543600.9700000002,"ADDRESS":"建平九街６０巷３６號之５三樓","OBJECTID":453925},"geometry":{"x":166055.10000000056,"y":2543600.9700000007}},{"attributes":{"ID":453951,"DIS_CODE":0,"TOWNNAME":"安平區","LI":"建平里","LIN":"25鄰","STREET":"建平九街","SECT":" ","MAREA":" ","LANE":"６０巷","ALLEY":" ","HOUSE_NO":"３６號之５五樓","E_COORD97":166055.10000000001,"N_COORD97":2543600.9700000002,"ADDRESS":"建平九街６０巷３６號之５五樓","OBJECTID":453926},"geometry":{"x":166055.10000000056,"y":2543600.9700000007}},{"attributes":{"ID":453952,"DIS_CODE":0,"TOWNNAME":"六甲區","LI":"龍湖里","LIN":"6鄰","STREET":"進化街","SECT":" ","MAREA":" ","LANE":" ","ALLEY":" ","HOUSE_NO":"４號","E_COORD97":183011.39000000001,"N_COORD97":2569264.2799999998,"ADDRESS":"進化街４號","OBJECTID":453927},"geometry":{"x":183011.3900000006,"y":2569264.2800000012}},{"attributes":{"ID":453953,"DIS_CODE":0,"TOWNNAME":"安平區","LI":"建平里","LIN":"25鄰","STREET":"建平九街","SECT":" ","MAREA":" ","LANE":"６０巷","ALLEY":" ","HOUSE_NO":"３６號之５四樓","E_COORD97":166055.10000000001,"N_COORD97":2543600.9700000002,"ADDRESS":"建平九街６０巷３６號之５四樓","OBJECTID":453928},"geometry":{"x":166055.10000000056,"y":2543600.9700000007}},{"attributes":{"ID":453954,"DIS_CODE":0,"TOWNNAME":"安平區","LI":"建平里","LIN":"25鄰","STREET":"建平九街","SECT":" ","MAREA":" ","LANE":"６０巷","ALLEY":" ","HOUSE_NO":"３６號之６二樓","E_COORD97":166055.67999999999,"N_COORD97":2543606.6800000002,"ADDRESS":"建平九街６０巷３６號之６二樓","OBJECTID":453929},"geometry":{"x":166055.68000000063,"y":2543606.6800000016}},{"attributes":{"ID":453955,"DIS_CODE":0,"TOWNNAME":"安平區","LI":"建平里","LIN":"25鄰","STREET":"建平九街","SECT":" ","MAREA":" ","LANE":"６０巷","ALLEY":" ","HOUSE_NO":"３６號之７三樓","E_COORD97":166057.26000000001,"N_COORD97":2543610.9100000001,"ADDRESS":"建平九街６０巷３６號之７三樓","OBJECTID":453930},"geometry":{"x":166057.26000000071,"y":2543610.9100000001}},{"attributes":{"ID":453956,"DIS_CODE":0,"TOWNNAME":"安平區","LI":"建平里","LIN":"25鄰","STREET":"建平九街","SECT":" ","MAREA":" ","LANE":"６０巷","ALLEY":" ","HOUSE_NO":"３６號之７五樓","E_COORD97":166057.26000000001,"N_COORD97":2543610.9100000001,"ADDRESS":"建平九街６０巷３６號之７五樓","OBJECTID":453931},"geometry":{"x":166057.26000000071,"y":2543610.9100000001}},{"attributes":{"ID":453957,"DIS_CODE":0,"TOWNNAME":"安平區","LI":"建平里","LIN":"25鄰","STREET":"建平九街","SECT":" ","MAREA":" ","LANE":"６０巷","ALLEY":" ","HOUSE_NO":"３６號之７六樓","E_COORD97":166057.26000000001,"N_COORD97":2543610.9100000001,"ADDRESS":"建平九街６０巷３６號之７六樓","OBJECTID":453932},"geometry":{"x":166057.26000000071,"y":2543610.9100000001}},{"attributes":{"ID":453958,"DIS_CODE":0,"TOWNNAME":"安平區","LI":"建平里","LIN":"25鄰","STREET":"建平九街","SECT":" ","MAREA":" ","LANE":"６０巷","ALLEY":" ","HOUSE_NO":"３６號之７四樓","E_COORD97":166057.26000000001,"N_COORD97":2543610.9100000001,"ADDRESS":"建平九街６０巷３６號之７四樓","OBJECTID":453933},"geometry":{"x":166057.26000000071,"y":2543610.9100000001}},{"attributes":{"ID":453959,"DIS_CODE":0,"TOWNNAME":"安平區","LI":"建平里","LIN":"25鄰","STREET":"建平九街","SECT":" ","MAREA":" ","LANE":"６０巷","ALLEY":" ","HOUSE_NO":"３６號五樓之１","E_COORD97":166042.35000000001,"N_COORD97":2543598.77,"ADDRESS":"建平九街６０巷３６號五樓之１","OBJECTID":453934},"geometry":{"x":166042.35000000149,"y":2543598.7700000014}},{"attributes":{"ID":453960,"DIS_CODE":0,"TOWNNAME":"安平區","LI":"建平里","LIN":"25鄰","STREET":"建平九街","SECT":" ","MAREA":" ","LANE":"６０巷","ALLEY":" ","HOUSE_NO":"３６號五樓之２","E_COORD97":166042.35000000001,"N_COORD97":2543598.77,"ADDRESS":"建平九街６０巷３６號五樓之２","OBJECTID":453935},"geometry":{"x":166042.35000000149,"y":2543598.7700000014}},{"attributes":{"ID":453961,"DIS_CODE":0,"TOWNNAME":"安平區","LI":"建平里","LIN":"25鄰","STREET":"建平九街","SECT":" ","MAREA":" ","LANE":"６０巷","ALLEY":" ","HOUSE_NO":"３６號五樓之３","E_COORD97":166042.35000000001,"N_COORD97":2543598.77,"ADDRESS":"建平九街６０巷３６號五樓之３","OBJECTID":453936},"geometry":{"x":166042.35000000149,"y":2543598.7700000014}},{"attributes":{"ID":453962,"DIS_CODE":0,"TOWNNAME":"安平區","LI":"建平里","LIN":"25鄰","STREET":"建平九街","SECT":" ","MAREA":" ","LANE":"６０巷","ALLEY":" ","HOUSE_NO":"３６號五樓之４","E_COORD97":166042.35000000001,"N_COORD97":2543598.77,"ADDRESS":"建平九街６０巷３６號五樓之４","OBJECTID":453937},"geometry":{"x":166042.35000000149,"y":2543598.7700000014}},{"attributes":{"ID":453963,"DIS_CODE":0,"TOWNNAME":"安平區","LI":"建平里","LIN":"25鄰","STREET":"建平九街","SECT":" ","MAREA":" ","LANE":"６０巷","ALLEY":" ","HOUSE_NO":"３６號六樓之１","E_COORD97":166042.35000000001,"N_COORD97":2543598.77,"ADDRESS":"建平九街６０巷３６號六樓之１","OBJECTID":453938},"geometry":{"x":166042.35000000149,"y":2543598.7700000014}},{"attributes":{"ID":453964,"DIS_CODE":0,"TOWNNAME":"安平區","LI":"建平里","LIN":"25鄰","STREET":"建平九街","SECT":" ","MAREA":" ","LANE":"６０巷","ALLEY":" ","HOUSE_NO":"３６號六樓之２","E_COORD97":166042.35000000001,"N_COORD97":2543598.77,"ADDRESS":"建平九街６０巷３６號六樓之２","OBJECTID":453939},"geometry":{"x":166042.35000000149,"y":2543598.7700000014}},{"attributes":{"ID":453965,"DIS_CODE":0,"TOWNNAME":"安平區","LI":"建平里","LIN":"25鄰","STREET":"建平九街","SECT":" ","MAREA":" ","LANE":"６０巷","ALLEY":" ","HOUSE_NO":"３６號六樓之３","E_COORD97":166042.35000000001,"N_COORD97":2543598.77,"ADDRESS":"建平九街６０巷３６號六樓之３","OBJECTID":453940},"geometry":{"x":166042.35000000149,"y":2543598.7700000014}},{"attributes":{"ID":453966,"DIS_CODE":0,"TOWNNAME":"安平區","LI":"建平里","LIN":"25鄰","STREET":"建平九街","SECT":" ","MAREA":" ","LANE":"６０巷","ALLEY":" ","HOUSE_NO":"３６號六樓之４","E_COORD97":166042.35000000001,"N_COORD97":2543598.77,"ADDRESS":"建平九街６０巷３６號六樓之４","OBJECTID":453941},"geometry":{"x":166042.35000000149,"y":2543598.7700000014}},{"attributes":{"ID":453967,"DIS_CODE":0,"TOWNNAME":"安平區","LI":"建平里","LIN":"25鄰","STREET":"建平九街","SECT":" ","MAREA":" ","LANE":"６０巷","ALLEY":" ","HOUSE_NO":"３６號四樓之１","E_COORD97":166042.35000000001,"N_COORD97":2543598.77,"ADDRESS":"建平九街６０巷３６號四樓之１","OBJECTID":453942},"geometry":{"x":166042.35000000149,"y":2543598.7700000014}},{"attributes":{"ID":453968,"DIS_CODE":0,"TOWNNAME":"安平區","LI":"建平里","LIN":"25鄰","STREET":"建平九街","SECT":" ","MAREA":" ","LANE":"６０巷","ALLEY":" ","HOUSE_NO":"３６號四樓之２","E_COORD97":166042.35000000001,"N_COORD97":2543598.77,"ADDRESS":"建平九街６０巷３６號四樓之２","OBJECTID":453943},"geometry":{"x":166042.35000000149,"y":2543598.7700000014}},{"attributes":{"ID":453969,"DIS_CODE":0,"TOWNNAME":"安平區","LI":"建平里","LIN":"25鄰","STREET":"建平九街","SECT":" ","MAREA":" ","LANE":"６０巷","ALLEY":" ","HOUSE_NO":"３６號四樓之３","E_COORD97":166042.35000000001,"N_COORD97":2543598.77,"ADDRESS":"建平九街６０巷３６號四樓之３","OBJECTID":453944},"geometry":{"x":166042.35000000149,"y":2543598.7700000014}},{"attributes":{"ID":453970,"DIS_CODE":0,"TOWNNAME":"安平區","LI":"建平里","LIN":"25鄰","STREET":"建平九街","SECT":" ","MAREA":" ","LANE":"６０巷","ALLEY":" ","HOUSE_NO":"３６號四樓之３之１","E_COORD97":166042.35000000001,"N_COORD97":2543598.77,"ADDRESS":"建平九街６０巷３６號四樓之３之１","OBJECTID":453945},"geometry":{"x":166042.35000000149,"y":2543598.7700000014}},{"attributes":{"ID":453971,"DIS_CODE":0,"TOWNNAME":"新營區","LI":"新東里","LIN":"25鄰","STREET":"東興三街","SECT":" ","MAREA":" ","LANE":"２２巷","ALLEY":" ","HOUSE_NO":"１９號三樓","E_COORD97":180696.72,"N_COORD97":2579418.8700000001,"ADDRESS":"東興三街２２巷１９號三樓","OBJECTID":453946},"geometry":{"x":180696.7200000016,"y":2579418.8700000029}},{"attributes":{"ID":453972,"DIS_CODE":0,"TOWNNAME":"新營區","LI":"民生里","LIN":"25鄰","STREET":"民生路","SECT":" ","MAREA":" ","LANE":"１６３巷","ALLEY":" ","HOUSE_NO":"１５號二樓之１","E_COORD97":179179.32000000001,"N_COORD97":2578630.96,"ADDRESS":"民生路１６３巷１５號二樓之１","OBJECTID":453947},"geometry":{"x":179179.32000000216,"y":2578630.9600000046}},{"attributes":{"ID":453973,"DIS_CODE":0,"TOWNNAME":"北區","LI":"重興里","LIN":"25鄰","STREET":"東豐路","SECT":" ","MAREA":" ","LANE":"４５１巷","ALLEY":" ","HOUSE_NO":"４５號二樓","E_COORD97":170844.53,"N_COORD97":2544855.9500000002,"ADDRESS":"東豐路４５１巷４５號二樓","OBJECTID":453948},"geometry":{"x":170844.53000000119,"y":2544855.9500000011}},{"attributes":{"ID":453974,"DIS_CODE":0,"TOWNNAME":"北區","LI":"重興里","LIN":"25鄰","STREET":"東豐路","SECT":" ","MAREA":" ","LANE":"４５１巷","ALLEY":" ","HOUSE_NO":"４５號三樓","E_COORD97":170844.53,"N_COORD97":2544855.9500000002,"ADDRESS":"東豐路４５１巷４５號三樓","OBJECTID":453949},"geometry":{"x":170844.53000000119,"y":2544855.9500000011}},{"attributes":{"ID":453975,"DIS_CODE":0,"TOWNNAME":"北區","LI":"重興里","LIN":"25鄰","STREET":"東豐路","SECT":" ","MAREA":" ","LANE":"４５１巷","ALLEY":" ","HOUSE_NO":"４５號四樓","E_COORD97":170844.53,"N_COORD97":2544855.9500000002,"ADDRESS":"東豐路４５１巷４５號四樓","OBJECTID":453950},"geometry":{"x":170844.53000000119,"y":2544855.9500000011}},{"attributes":{"ID":453976,"DIS_CODE":0,"TOWNNAME":"北區","LI":"重興里","LIN":"25鄰","STREET":"東豐路","SECT":" ","MAREA":" ","LANE":"４５１巷","ALLEY":" ","HOUSE_NO":"４７號二樓","E_COORD97":170850.59,"N_COORD97":2544864.3700000001,"ADDRESS":"東豐路４５１巷４７號二樓","OBJECTID":453951},"geometry":{"x":170850.59000000078,"y":2544864.3700000029}},{"attributes":{"ID":453977,"DIS_CODE":0,"TOWNNAME":"北區","LI":"重興里","LIN":"25鄰","STREET":"東豐路","SECT":" ","MAREA":" ","LANE":"４５１巷","ALLEY":" ","HOUSE_NO":"４７號三樓","E_COORD97":170850.59,"N_COORD97":2544864.3700000001,"ADDRESS":"東豐路４５１巷４７號三樓","OBJECTID":453952},"geometry":{"x":170850.59000000078,"y":2544864.3700000029}},{"attributes":{"ID":453978,"DIS_CODE":0,"TOWNNAME":"北區","LI":"重興里","LIN":"25鄰","STREET":"東豐路","SECT":" ","MAREA":" ","LANE":"４５１巷","ALLEY":" ","HOUSE_NO":"４７號四樓","E_COORD97":170850.59,"N_COORD97":2544864.3700000001,"ADDRESS":"東豐路４５１巷４７號四樓","OBJECTID":453953},"geometry":{"x":170850.59000000078,"y":2544864.3700000029}},{"attributes":{"ID":453979,"DIS_CODE":0,"TOWNNAME":"北區","LI":"重興里","LIN":"25鄰","STREET":"東豐路","SECT":" ","MAREA":" ","LANE":"４５１巷","ALLEY":" ","HOUSE_NO":"４９號二樓","E_COORD97":170855.60999999999,"N_COORD97":2544872.6000000001,"ADDRESS":"東豐路４５１巷４９號二樓","OBJECTID":453954},"geometry":{"x":170855.6099999994,"y":2544872.5999999996}},{"attributes":{"ID":453980,"DIS_CODE":0,"TOWNNAME":"北區","LI":"重興里","LIN":"25鄰","STREET":"東豐路","SECT":" ","MAREA":" ","LANE":"４５１巷","ALLEY":" ","HOUSE_NO":"４９號三樓","E_COORD97":170855.60999999999,"N_COORD97":2544872.6000000001,"ADDRESS":"東豐路４５１巷４９號三樓","OBJECTID":453955},"geometry":{"x":170855.6099999994,"y":2544872.5999999996}},{"attributes":{"ID":453981,"DIS_CODE":0,"TOWNNAME":"北區","LI":"重興里","LIN":"25鄰","STREET":"東豐路","SECT":" ","MAREA":" ","LANE":"４５１巷","ALLEY":" ","HOUSE_NO":"４９號四樓","E_COORD97":170855.60999999999,"N_COORD97":2544872.6000000001,"ADDRESS":"東豐路４５１巷４９號四樓","OBJECTID":453956},"geometry":{"x":170855.6099999994,"y":2544872.5999999996}},{"attributes":{"ID":453982,"DIS_CODE":0,"TOWNNAME":"北區","LI":"重興里","LIN":"25鄰","STREET":"東豐路","SECT":" ","MAREA":" ","LANE":"４５１巷","ALLEY":" ","HOUSE_NO":"５１號二樓","E_COORD97":170861.29999999999,"N_COORD97":2544881.46,"ADDRESS":"東豐路４５１巷５１號二樓","OBJECTID":453957},"geometry":{"x":170861.30000000075,"y":2544881.4600000028}},{"attributes":{"ID":453983,"DIS_CODE":0,"TOWNNAME":"北區","LI":"重興里","LIN":"25鄰","STREET":"東豐路","SECT":" ","MAREA":" ","LANE":"４５１巷","ALLEY":" ","HOUSE_NO":"５１號三樓","E_COORD97":170861.29999999999,"N_COORD97":2544881.46,"ADDRESS":"東豐路４５１巷５１號三樓","OBJECTID":453958},"geometry":{"x":170861.30000000075,"y":2544881.4600000028}},{"attributes":{"ID":453984,"DIS_CODE":0,"TOWNNAME":"北區","LI":"重興里","LIN":"25鄰","STREET":"東豐路","SECT":" ","MAREA":" ","LANE":"４５１巷","ALLEY":" ","HOUSE_NO":"５１號四樓","E_COORD97":170861.29999999999,"N_COORD97":2544881.46,"ADDRESS":"東豐路４５１巷５１號四樓","OBJECTID":453959},"geometry":{"x":170861.30000000075,"y":2544881.4600000028}},{"attributes":{"ID":453985,"DIS_CODE":0,"TOWNNAME":"北區","LI":"重興里","LIN":"25鄰","STREET":"東豐路","SECT":" ","MAREA":" ","LANE":"４５１巷","ALLEY":" ","HOUSE_NO":"５３號二樓","E_COORD97":170867.51999999999,"N_COORD97":2544890.8500000001,"ADDRESS":"東豐路４５１巷５３號二樓","OBJECTID":453960},"geometry":{"x":170867.52000000048,"y":2544890.8500000015}},{"attributes":{"ID":453986,"DIS_CODE":0,"TOWNNAME":"北區","LI":"重興里","LIN":"25鄰","STREET":"東豐路","SECT":" ","MAREA":" ","LANE":"４５１巷","ALLEY":" ","HOUSE_NO":"５３號三樓","E_COORD97":170867.51999999999,"N_COORD97":2544890.8500000001,"ADDRESS":"東豐路４５１巷５３號三樓","OBJECTID":453961},"geometry":{"x":170867.52000000048,"y":2544890.8500000015}},{"attributes":{"ID":453987,"DIS_CODE":0,"TOWNNAME":"北區","LI":"重興里","LIN":"25鄰","STREET":"東豐路","SECT":" ","MAREA":" ","LANE":"４５１巷","ALLEY":" ","HOUSE_NO":"５３號四樓","E_COORD97":170867.51999999999,"N_COORD97":2544890.8500000001,"ADDRESS":"東豐路４５１巷５３號四樓","OBJECTID":453962},"geometry":{"x":170867.52000000048,"y":2544890.8500000015}},{"attributes":{"ID":453988,"DIS_CODE":0,"TOWNNAME":"北區","LI":"重興里","LIN":"25鄰","STREET":"東豐路","SECT":" ","MAREA":" ","LANE":"４５１巷","ALLEY":" ","HOUSE_NO":"５５號二樓","E_COORD97":170871.60000000001,"N_COORD97":2544899.1800000002,"ADDRESS":"東豐路４５１巷５５號二樓","OBJECTID":453963},"geometry":{"x":170871.59999999963,"y":2544899.1799999997}},{"attributes":{"ID":453989,"DIS_CODE":0,"TOWNNAME":"北區","LI":"重興里","LIN":"25鄰","STREET":"東豐路","SECT":" ","MAREA":" ","LANE":"４５１巷","ALLEY":" ","HOUSE_NO":"５５號三樓","E_COORD97":170871.60000000001,"N_COORD97":2544899.1800000002,"ADDRESS":"東豐路４５１巷５５號三樓","OBJECTID":453964},"geometry":{"x":170871.59999999963,"y":2544899.1799999997}},{"attributes":{"ID":453990,"DIS_CODE":0,"TOWNNAME":"北區","LI":"重興里","LIN":"25鄰","STREET":"東豐路","SECT":" ","MAREA":" ","LANE":"４５１巷","ALLEY":" ","HOUSE_NO":"５５號四樓","E_COORD97":170871.60000000001,"N_COORD97":2544899.1800000002,"ADDRESS":"東豐路４５１巷５５號四樓","OBJECTID":453965},"geometry":{"x":170871.59999999963,"y":2544899.1799999997}},{"attributes":{"ID":453991,"DIS_CODE":0,"TOWNNAME":"北區","LI":"重興里","LIN":"25鄰","STREET":"東豐路","SECT":" ","MAREA":" ","LANE":"４５１巷","ALLEY":" ","HOUSE_NO":"５７號二樓","E_COORD97":170876.42000000001,"N_COORD97":2544906.4700000002,"ADDRESS":"東豐路４５１巷５７號二樓","OBJECTID":453966},"geometry":{"x":170876.41999999993,"y":2544906.4699999988}},{"attributes":{"ID":453992,"DIS_CODE":0,"TOWNNAME":"北區","LI":"重興里","LIN":"25鄰","STREET":"東豐路","SECT":" ","MAREA":" ","LANE":"４５１巷","ALLEY":" ","HOUSE_NO":"５７號三樓","E_COORD97":170876.42000000001,"N_COORD97":2544906.4700000002,"ADDRESS":"東豐路４５１巷５７號三樓","OBJECTID":453967},"geometry":{"x":170876.41999999993,"y":2544906.4699999988}},{"attributes":{"ID":453993,"DIS_CODE":0,"TOWNNAME":"北區","LI":"重興里","LIN":"25鄰","STREET":"東豐路","SECT":" ","MAREA":" ","LANE":"４５１巷","ALLEY":" ","HOUSE_NO":"５７號四樓","E_COORD97":170876.42000000001,"N_COORD97":2544906.4700000002,"ADDRESS":"東豐路４５１巷５７號四樓","OBJECTID":453968},"geometry":{"x":170876.41999999993,"y":2544906.4699999988}},{"attributes":{"ID":453994,"DIS_CODE":0,"TOWNNAME":"北區","LI":"重興里","LIN":"25鄰","STREET":"東豐路","SECT":" ","MAREA":" ","LANE":"４５１巷","ALLEY":" ","HOUSE_NO":"５９號二樓","E_COORD97":170880.20999999999,"N_COORD97":2544913.1800000002,"ADDRESS":"東豐路４５１巷５９號二樓","OBJECTID":453969},"geometry":{"x":170880.21000000089,"y":2544913.1799999997}},{"attributes":{"ID":453995,"DIS_CODE":0,"TOWNNAME":"北區","LI":"重興里","LIN":"25鄰","STREET":"東豐路","SECT":" ","MAREA":" ","LANE":"４５１巷","ALLEY":" ","HOUSE_NO":"５９號三樓","E_COORD97":170880.20999999999,"N_COORD97":2544913.1800000002,"ADDRESS":"東豐路４５１巷５９號三樓","OBJECTID":453970},"geometry":{"x":170880.21000000089,"y":2544913.1799999997}},{"attributes":{"ID":453996,"DIS_CODE":0,"TOWNNAME":"北區","LI":"重興里","LIN":"25鄰","STREET":"東豐路","SECT":" ","MAREA":" ","LANE":"４５１巷","ALLEY":" ","HOUSE_NO":"５９號四樓","E_COORD97":170880.20999999999,"N_COORD97":2544913.1800000002,"ADDRESS":"東豐路４５１巷５９號四樓","OBJECTID":453971},"geometry":{"x":170880.21000000089,"y":2544913.1799999997}},{"attributes":{"ID":453997,"DIS_CODE":0,"TOWNNAME":"北區","LI":"重興里","LIN":"25鄰","STREET":"東豐路","SECT":" ","MAREA":" ","LANE":"４５１巷","ALLEY":" ","HOUSE_NO":"８１號二樓","E_COORD97":170851.07000000001,"N_COORD97":2544899.8199999998,"ADDRESS":"東豐路４５１巷８１號二樓","OBJECTID":453972},"geometry":{"x":170851.07000000123,"y":2544899.8200000003}},{"attributes":{"ID":453998,"DIS_CODE":0,"TOWNNAME":"北區","LI":"重興里","LIN":"25鄰","STREET":"東豐路","SECT":" ","MAREA":" ","LANE":"４５１巷","ALLEY":" ","HOUSE_NO":"８１號三樓","E_COORD97":170851.07000000001,"N_COORD97":2544899.8199999998,"ADDRESS":"東豐路４５１巷８１號三樓","OBJECTID":453973},"geometry":{"x":170851.07000000123,"y":2544899.8200000003}},{"attributes":{"ID":453999,"DIS_CODE":0,"TOWNNAME":"北區","LI":"重興里","LIN":"25鄰","STREET":"東豐路","SECT":" ","MAREA":" ","LANE":"４５１巷","ALLEY":" ","HOUSE_NO":"８１號四樓","E_COORD97":170851.07000000001,"N_COORD97":2544899.8199999998,"ADDRESS":"東豐路４５１巷８１號四樓","OBJECTID":453974},"geometry":{"x":170851.07000000123,"y":2544899.8200000003}},{"attributes":{"ID":454000,"DIS_CODE":0,"TOWNNAME":"北區","LI":"重興里","LIN":"25鄰","STREET":"東豐路","SECT":" ","MAREA":" ","LANE":"４５１巷","ALLEY":" ","HOUSE_NO":"８３號二樓","E_COORD97":170854.95000000001,"N_COORD97":2544906.4399999999,"ADDRESS":"東豐路４５１巷８３號二樓","OBJECTID":453975},"geometry":{"x":170854.95000000205,"y":2544906.4400000013}},{"attributes":{"ID":454001,"DIS_CODE":0,"TOWNNAME":"北區","LI":"重興里","LIN":"25鄰","STREET":"東豐路","SECT":" ","MAREA":" ","LANE":"４５１巷","ALLEY":" ","HOUSE_NO":"８３號三樓","E_COORD97":170854.95000000001,"N_COORD97":2544906.4399999999,"ADDRESS":"東豐路４５１巷８３號三樓","OBJECTID":453976},"geometry":{"x":170854.95000000205,"y":2544906.4400000013}},{"attributes":{"ID":454002,"DIS_CODE":0,"TOWNNAME":"北區","LI":"重興里","LIN":"25鄰","STREET":"東豐路","SECT":" ","MAREA":" ","LANE":"４５１巷","ALLEY":" ","HOUSE_NO":"８３號四樓","E_COORD97":170854.95000000001,"N_COORD97":2544906.4399999999,"ADDRESS":"東豐路４５１巷８３號四樓","OBJECTID":453977},"geometry":{"x":170854.95000000205,"y":2544906.4400000013}},{"attributes":{"ID":454003,"DIS_CODE":0,"TOWNNAME":"北區","LI":"重興里","LIN":"25鄰","STREET":"東豐路","SECT":" ","MAREA":" ","LANE":"４５１巷","ALLEY":" ","HOUSE_NO":"８５號二樓","E_COORD97":170861.57999999999,"N_COORD97":2544916.7599999998,"ADDRESS":"東豐路４５１巷８５號二樓","OBJECTID":453978},"geometry":{"x":170861.58000000007,"y":2544916.7599999998}},{"attributes":{"ID":454004,"DIS_CODE":0,"TOWNNAME":"北區","LI":"重興里","LIN":"25鄰","STREET":"東豐路","SECT":" ","MAREA":" ","LANE":"４５１巷","ALLEY":" ","HOUSE_NO":"８５號三樓","E_COORD97":170861.57999999999,"N_COORD97":2544916.7599999998,"ADDRESS":"東豐路４５１巷８５號三樓","OBJECTID":453979},"geometry":{"x":170861.58000000007,"y":2544916.7599999998}},{"attributes":{"ID":454005,"DIS_CODE":0,"TOWNNAME":"北區","LI":"重興里","LIN":"25鄰","STREET":"東豐路","SECT":" ","MAREA":" ","LANE":"４５１巷","ALLEY":" ","HOUSE_NO":"８５號四樓","E_COORD97":170861.57999999999,"N_COORD97":2544916.7599999998,"ADDRESS":"東豐路４５１巷８５號四樓","OBJECTID":453980},"geometry":{"x":170861.58000000007,"y":2544916.7599999998}},{"attributes":{"ID":454006,"DIS_CODE":0,"TOWNNAME":"北區","LI":"重興里","LIN":"25鄰","STREET":"東豐路","SECT":" ","MAREA":" ","LANE":"４５１巷","ALLEY":" ","HOUSE_NO":"８７號二樓","E_COORD97":170865.75,"N_COORD97":2544923.6600000001,"ADDRESS":"東豐路４５１巷８７號二樓","OBJECTID":453981},"geometry":{"x":170865.75,"y":2544923.6600000001}},{"attributes":{"ID":454007,"DIS_CODE":0,"TOWNNAME":"北區","LI":"重興里","LIN":"25鄰","STREET":"東豐路","SECT":" ","MAREA":" ","LANE":"４５１巷","ALLEY":" ","HOUSE_NO":"８７號三樓","E_COORD97":170865.75,"N_COORD97":2544923.6600000001,"ADDRESS":"東豐路４５１巷８７號三樓","OBJECTID":453982},"geometry":{"x":170865.75,"y":2544923.6600000001}},{"attributes":{"ID":454008,"DIS_CODE":0,"TOWNNAME":"北區","LI":"重興里","LIN":"25鄰","STREET":"東豐路","SECT":" ","MAREA":" ","LANE":"４５１巷","ALLEY":" ","HOUSE_NO":"８７號四樓","E_COORD97":170865.75,"N_COORD97":2544923.6600000001,"ADDRESS":"東豐路４５１巷８７號四樓","OBJECTID":453983},"geometry":{"x":170865.75,"y":2544923.6600000001}},{"attributes":{"ID":454009,"DIS_CODE":0,"TOWNNAME":"北區","LI":"大豐里","LIN":"25鄰","STREET":"和緯路","SECT":"四段","MAREA":" ","LANE":"９５巷","ALLEY":" ","HOUSE_NO":"１１號二樓","E_COORD97":167134.75,"N_COORD97":2545453.7999999998,"ADDRESS":"和緯路四段９５巷１１號二樓","OBJECTID":453984},"geometry":{"x":167134.75,"y":2545453.8000000045}},{"attributes":{"ID":454010,"DIS_CODE":0,"TOWNNAME":"北區","LI":"大豐里","LIN":"25鄰","STREET":"和緯路","SECT":"四段","MAREA":" ","LANE":"９５巷","ALLEY":" ","HOUSE_NO":"１１號五樓","E_COORD97":167134.75,"N_COORD97":2545453.7999999998,"ADDRESS":"和緯路四段９５巷１１號五樓","OBJECTID":453985},"geometry":{"x":167134.75,"y":2545453.8000000045}},{"attributes":{"ID":454011,"DIS_CODE":0,"TOWNNAME":"北區","LI":"大豐里","LIN":"25鄰","STREET":"和緯路","SECT":"四段","MAREA":" ","LANE":"９５巷","ALLEY":" ","HOUSE_NO":"１１號四樓","E_COORD97":167134.75,"N_COORD97":2545453.7999999998,"ADDRESS":"和緯路四段９５巷１１號四樓","OBJECTID":453986},"geometry":{"x":167134.75,"y":2545453.8000000045}},{"attributes":{"ID":454012,"DIS_CODE":0,"TOWNNAME":"下營區","LI":"營前里","LIN":"25鄰","STREET":"仁愛街","SECT":" ","MAREA":" ","LANE":"３２巷","ALLEY":" ","HOUSE_NO":"８號","E_COORD97":174805.14999999999,"N_COORD97":2570038.4199999999,"ADDRESS":"仁愛街３２巷８號","OBJECTID":453987},"geometry":{"x":174805.14999999944,"y":2570038.4199999999}},{"attributes":{"ID":454013,"DIS_CODE":0,"TOWNNAME":"北區","LI":"大豐里","LIN":"25鄰","STREET":"和緯路","SECT":"四段","MAREA":" ","LANE":"９５巷","ALLEY":" ","HOUSE_NO":"１３號二樓","E_COORD97":167133.69,"N_COORD97":2545445.0299999998,"ADDRESS":"和緯路四段９５巷１３號二樓","OBJECTID":453988},"geometry":{"x":167133.69000000041,"y":2545445.0300000012}},{"attributes":{"ID":454014,"DIS_CODE":0,"TOWNNAME":"北區","LI":"大豐里","LIN":"25鄰","STREET":"和緯路","SECT":"四段","MAREA":" ","LANE":"９５巷","ALLEY":" ","HOUSE_NO":"１３號三樓","E_COORD97":167133.69,"N_COORD97":2545445.0299999998,"ADDRESS":"和緯路四段９５巷１３號三樓","OBJECTID":453989},"geometry":{"x":167133.69000000041,"y":2545445.0300000012}},{"attributes":{"ID":454015,"DIS_CODE":0,"TOWNNAME":"北區","LI":"大豐里","LIN":"25鄰","STREET":"和緯路","SECT":"四段","MAREA":" ","LANE":"９５巷","ALLEY":" ","HOUSE_NO":"１３號五樓","E_COORD97":167133.69,"N_COORD97":2545445.0299999998,"ADDRESS":"和緯路四段９５巷１３號五樓","OBJECTID":453990},"geometry":{"x":167133.69000000041,"y":2545445.0300000012}},{"attributes":{"ID":454016,"DIS_CODE":0,"TOWNNAME":"北區","LI":"大豐里","LIN":"25鄰","STREET":"和緯路","SECT":"四段","MAREA":" ","LANE":"９５巷","ALLEY":" ","HOUSE_NO":"１３號四樓","E_COORD97":167133.69,"N_COORD97":2545445.0299999998,"ADDRESS":"和緯路四段９５巷１３號四樓","OBJECTID":453991},"geometry":{"x":167133.69000000041,"y":2545445.0300000012}},{"attributes":{"ID":454017,"DIS_CODE":0,"TOWNNAME":"北區","LI":"大豐里","LIN":"25鄰","STREET":"和緯路","SECT":"四段","MAREA":" ","LANE":"９５巷","ALLEY":" ","HOUSE_NO":"１５號二樓","E_COORD97":167133.25,"N_COORD97":2545439.8300000001,"ADDRESS":"和緯路四段９５巷１５號二樓","OBJECTID":453992},"geometry":{"x":167133.25,"y":2545439.8300000019}},{"attributes":{"ID":454018,"DIS_CODE":0,"TOWNNAME":"北區","LI":"大豐里","LIN":"25鄰","STREET":"和緯路","SECT":"四段","MAREA":" ","LANE":"９５巷","ALLEY":" ","HOUSE_NO":"１５號三樓","E_COORD97":167133.25,"N_COORD97":2545439.8300000001,"ADDRESS":"和緯路四段９５巷１５號三樓","OBJECTID":453993},"geometry":{"x":167133.25,"y":2545439.8300000019}},{"attributes":{"ID":454019,"DIS_CODE":0,"TOWNNAME":"北區","LI":"大豐里","LIN":"25鄰","STREET":"和緯路","SECT":"四段","MAREA":" ","LANE":"９５巷","ALLEY":" ","HOUSE_NO":"１５號五樓","E_COORD97":167133.25,"N_COORD97":2545439.8300000001,"ADDRESS":"和緯路四段９５巷１５號五樓","OBJECTID":453994},"geometry":{"x":167133.25,"y":2545439.8300000019}},{"attributes":{"ID":454020,"DIS_CODE":0,"TOWNNAME":"北區","LI":"大豐里","LIN":"25鄰","STREET":"和緯路","SECT":"四段","MAREA":" ","LANE":"９５巷","ALLEY":" ","HOUSE_NO":"１５號四樓","E_COORD97":167133.25,"N_COORD97":2545439.8300000001,"ADDRESS":"和緯路四段９５巷１５號四樓","OBJECTID":453995},"geometry":{"x":167133.25,"y":2545439.8300000019}},{"attributes":{"ID":454021,"DIS_CODE":0,"TOWNNAME":"北區","LI":"大豐里","LIN":"25鄰","STREET":"和緯路","SECT":"四段","MAREA":" ","LANE":"９５巷","ALLEY":" ","HOUSE_NO":"１７號二樓","E_COORD97":167132.01999999999,"N_COORD97":2545431.5899999999,"ADDRESS":"和緯路四段９５巷１７號二樓","OBJECTID":453996},"geometry":{"x":167132.01999999955,"y":2545431.5900000017}},{"attributes":{"ID":454022,"DIS_CODE":0,"TOWNNAME":"北區","LI":"大豐里","LIN":"25鄰","STREET":"和緯路","SECT":"四段","MAREA":" ","LANE":"９５巷","ALLEY":" ","HOUSE_NO":"１７號三樓","E_COORD97":167132.01999999999,"N_COORD97":2545431.5899999999,"ADDRESS":"和緯路四段９５巷１７號三樓","OBJECTID":453997},"geometry":{"x":167132.01999999955,"y":2545431.5900000017}},{"attributes":{"ID":454023,"DIS_CODE":0,"TOWNNAME":"北區","LI":"大豐里","LIN":"25鄰","STREET":"和緯路","SECT":"四段","MAREA":" ","LANE":"９５巷","ALLEY":" ","HOUSE_NO":"１７號五樓","E_COORD97":167132.01999999999,"N_COORD97":2545431.5899999999,"ADDRESS":"和緯路四段９５巷１７號五樓","OBJECTID":453998},"geometry":{"x":167132.01999999955,"y":2545431.5900000017}},{"attributes":{"ID":454024,"DIS_CODE":0,"TOWNNAME":"北區","LI":"大豐里","LIN":"25鄰","STREET":"和緯路","SECT":"四段","MAREA":" ","LANE":"９５巷","ALLEY":" ","HOUSE_NO":"１７號四樓","E_COORD97":167132.01999999999,"N_COORD97":2545431.5899999999,"ADDRESS":"和緯路四段９５巷１７號四樓","OBJECTID":453999},"geometry":{"x":167132.01999999955,"y":2545431.5900000017}},{"attributes":{"ID":454025,"DIS_CODE":0,"TOWNNAME":"北區","LI":"大豐里","LIN":"25鄰","STREET":"和緯路","SECT":"四段","MAREA":" ","LANE":"９５巷","ALLEY":" ","HOUSE_NO":"１９號二樓","E_COORD97":167131.57999999999,"N_COORD97":2545429.3100000001,"ADDRESS":"和緯路四段９５巷１９號二樓","OBJECTID":454000},"geometry":{"x":167131.58000000101,"y":2545429.3100000005}}]}