{"displayFieldName":"TOWNNAME","fieldAliases":{"ID":"ID","DIS_CODE":"DIS_CODE","TOWNNAME":"TOWNNAME","LI":"LI","LIN":"LIN","STREET":"STREET","SECT":"SECT","MAREA":"MAREA","LANE":"LANE","ALLEY":"ALLEY","HOUSE_NO":"HOUSE_NO","E_COORD97":"E_COORD97","N_COORD97":"N_COORD97","ADDRESS":"ADDRESS","OBJECTID":"OBJECTID"},"geometryType":"esriGeometryPoint","spatialReference":{"wkid":102443,"latestWkid":3826},"fields":[{"name":"ID","type":"esriFieldTypeDouble","alias":"ID"},{"name":"DIS_CODE","type":"esriFieldTypeInteger","alias":"DIS_CODE"},{"name":"TOWNNAME","type":"esriFieldTypeString","alias":"TOWNNAME","length":8},{"name":"LI","type":"esriFieldTypeString","alias":"LI","length":8},{"name":"LIN","type":"esriFieldTypeString","alias":"LIN","length":12},{"name":"STREET","type":"esriFieldTypeString","alias":"STREET","length":20},{"name":"SECT","type":"esriFieldTypeString","alias":"SECT","length":8},{"name":"MAREA","type":"esriFieldTypeString","alias":"MAREA","length":12},{"name":"LANE","type":"esriFieldTypeString","alias":"LANE","length":10},{"name":"ALLEY","type":"esriFieldTypeString","alias":"ALLEY","length":10},{"name":"HOUSE_NO","type":"esriFieldTypeString","alias":"HOUSE_NO","length":20},{"name":"E_COORD97","type":"esriFieldTypeDouble","alias":"E_COORD97"},{"name":"N_COORD97","type":"esriFieldTypeDouble","alias":"N_COORD97"},{"name":"ADDRESS","type":"esriFieldTypeString","alias":"ADDRESS","length":50},{"name":"OBJECTID","type":"esriFieldTypeOID","alias":"OBJECTID"}],"features":[{"attributes":{"ID":630828,"DIS_CODE":0,"TOWNNAME":"安南區","LI":"總頭里","LIN":" ","STREET":"長溪路","SECT":"二段","MAREA":" ","LANE":" ","ALLEY":" ","HOUSE_NO":"６６５號","E_COORD97":168146.69,"N_COORD97":2550859.8100000001,"ADDRESS":"長溪路二段６６５號","OBJECTID":630801},"geometry":{"x":168146.69000000134,"y":2550859.8100000005}},{"attributes":{"ID":630829,"DIS_CODE":0,"TOWNNAME":"安南區","LI":"總頭里","LIN":"4鄰","STREET":"長溪路","SECT":"二段","MAREA":" ","LANE":" ","ALLEY":" ","HOUSE_NO":"５４２號","E_COORD97":168273.79000000001,"N_COORD97":2550539.4700000002,"ADDRESS":"長溪路二段５４２號","OBJECTID":630802},"geometry":{"x":168273.79000000004,"y":2550539.4700000025}},{"attributes":{"ID":630830,"DIS_CODE":0,"TOWNNAME":"安南區","LI":"總頭里","LIN":"4鄰","STREET":"長溪路","SECT":"二段","MAREA":" ","LANE":" ","ALLEY":" ","HOUSE_NO":"５５０號","E_COORD97":168271.07000000001,"N_COORD97":2550551.6600000001,"ADDRESS":"長溪路二段５５０號","OBJECTID":630803},"geometry":{"x":168271.07000000123,"y":2550551.6600000001}},{"attributes":{"ID":630831,"DIS_CODE":0,"TOWNNAME":"安南區","LI":"總頭里","LIN":" ","STREET":"長溪路","SECT":"二段","MAREA":" ","LANE":" ","ALLEY":" ","HOUSE_NO":"６４１號","E_COORD97":168183.67999999999,"N_COORD97":2550805.4199999999,"ADDRESS":"長溪路二段６４１號","OBJECTID":630804},"geometry":{"x":168183.68000000063,"y":2550805.4200000037}},{"attributes":{"ID":630832,"DIS_CODE":0,"TOWNNAME":"安南區","LI":"總頭里","LIN":"13鄰","STREET":"長溪路","SECT":"二段","MAREA":" ","LANE":" ","ALLEY":" ","HOUSE_NO":"２８１號","E_COORD97":168328.85000000001,"N_COORD97":2549829.3599999999,"ADDRESS":"長溪路二段２８１號","OBJECTID":630805},"geometry":{"x":168328.84999999963,"y":2549829.3600000013}},{"attributes":{"ID":630833,"DIS_CODE":0,"TOWNNAME":"安南區","LI":"溪墘里","LIN":" ","STREET":"海佃路","SECT":"一段","MAREA":" ","LANE":" ","ALLEY":" ","HOUSE_NO":"２５０號","E_COORD97":167139.35999999999,"N_COORD97":2547333.29,"ADDRESS":"海佃路一段２５０號","OBJECTID":630806},"geometry":{"x":167139.36000000034,"y":2547333.2899999991}},{"attributes":{"ID":630834,"DIS_CODE":0,"TOWNNAME":"安南區","LI":"溪墘里","LIN":" ","STREET":"海佃路","SECT":"一段","MAREA":" ","LANE":" ","ALLEY":" ","HOUSE_NO":"２５４號","E_COORD97":167142.98000000001,"N_COORD97":2547347.2400000002,"ADDRESS":"海佃路一段２５４號","OBJECTID":630807},"geometry":{"x":167142.98000000138,"y":2547347.2400000002}},{"attributes":{"ID":630835,"DIS_CODE":0,"TOWNNAME":"安南區","LI":"溪墘里","LIN":" ","STREET":"海佃路","SECT":"一段","MAREA":" ","LANE":" ","ALLEY":" ","HOUSE_NO":"３５０號","E_COORD97":167096.73000000001,"N_COORD97":2547544.0899999999,"ADDRESS":"海佃路一段３５０號","OBJECTID":630808},"geometry":{"x":167096.73000000231,"y":2547544.0900000017}},{"attributes":{"ID":630836,"DIS_CODE":0,"TOWNNAME":"安南區","LI":"溪墘里","LIN":" ","STREET":"海佃路","SECT":"一段","MAREA":" ","LANE":" ","ALLEY":" ","HOUSE_NO":"３８６號","E_COORD97":167083.17999999999,"N_COORD97":2547622.3999999999,"ADDRESS":"海佃路一段３８６號","OBJECTID":630809},"geometry":{"x":167083.18000000063,"y":2547622.4000000041}},{"attributes":{"ID":630837,"DIS_CODE":0,"TOWNNAME":"安南區","LI":"溪墘里","LIN":" ","STREET":"海佃路","SECT":"一段","MAREA":" ","LANE":" ","ALLEY":" ","HOUSE_NO":"４０８之３號","E_COORD97":167107.88,"N_COORD97":2547707.0699999998,"ADDRESS":"海佃路一段４０８之３號","OBJECTID":630810},"geometry":{"x":167107.88000000082,"y":2547707.0700000022}},{"attributes":{"ID":630838,"DIS_CODE":0,"TOWNNAME":"安南區","LI":"溪墘里","LIN":"20鄰","STREET":"郡安路","SECT":"五段","MAREA":" ","LANE":" ","ALLEY":" ","HOUSE_NO":"２２５號","E_COORD97":167203.84,"N_COORD97":2547726.9199999999,"ADDRESS":"郡安路五段２２５號","OBJECTID":630811},"geometry":{"x":167203.84000000171,"y":2547726.9200000037}},{"attributes":{"ID":630839,"DIS_CODE":0,"TOWNNAME":"安南區","LI":"溪墘里","LIN":" ","STREET":"海佃路","SECT":"一段","MAREA":" ","LANE":" ","ALLEY":" ","HOUSE_NO":"４０８號","E_COORD97":167078.95999999999,"N_COORD97":2547694.2999999998,"ADDRESS":"海佃路一段４０８號","OBJECTID":630812},"geometry":{"x":167078.95999999996,"y":2547694.3000000007}},{"attributes":{"ID":630840,"DIS_CODE":0,"TOWNNAME":"安南區","LI":"溪墘里","LIN":"25鄰","STREET":"府安路","SECT":"五段","MAREA":" ","LANE":" ","ALLEY":" ","HOUSE_NO":"２５７號","E_COORD97":167346.5,"N_COORD97":2546845.3100000001,"ADDRESS":"府安路五段２５７號","OBJECTID":630813},"geometry":{"x":167346.5,"y":2546845.3100000005}},{"attributes":{"ID":630841,"DIS_CODE":0,"TOWNNAME":"安南區","LI":"新順里","LIN":"15鄰","STREET":"培安四街","SECT":" ","MAREA":" ","LANE":" ","ALLEY":" ","HOUSE_NO":"６２號","E_COORD97":169446.78,"N_COORD97":2549842.4199999999,"ADDRESS":"培安四街６２號","OBJECTID":630814},"geometry":{"x":169446.78000000026,"y":2549842.4199999981}},{"attributes":{"ID":630842,"DIS_CODE":0,"TOWNNAME":"永康區","LI":"崑山里","LIN":"25鄰","STREET":"大仁街","SECT":" ","MAREA":" ","LANE":" ","ALLEY":" ","HOUSE_NO":"５９號","E_COORD97":173791.29000000001,"N_COORD97":2544674.73,"ADDRESS":"大仁街５９號","OBJECTID":630815},"geometry":{"x":173791.29000000004,"y":2544674.7300000023}},{"attributes":{"ID":630843,"DIS_CODE":0,"TOWNNAME":"永康區","LI":"崑山里","LIN":"25鄰","STREET":"大仁街","SECT":" ","MAREA":" ","LANE":" ","ALLEY":" ","HOUSE_NO":"５３號","E_COORD97":173788.94,"N_COORD97":2544661.73,"ADDRESS":"大仁街５３號","OBJECTID":630816},"geometry":{"x":173788.94000000041,"y":2544661.7300000023}},{"attributes":{"ID":630844,"DIS_CODE":0,"TOWNNAME":"永康區","LI":"勝利里","LIN":"41鄰","STREET":"中華路","SECT":" ","MAREA":" ","LANE":" ","ALLEY":" ","HOUSE_NO":"２０５號","E_COORD97":171598.92999999999,"N_COORD97":2545023.9500000002,"ADDRESS":"中華路２０５號","OBJECTID":630817},"geometry":{"x":171598.93000000063,"y":2545023.950000003}},{"attributes":{"ID":630845,"DIS_CODE":0,"TOWNNAME":"永康區","LI":"崑山里","LIN":"40鄰","STREET":"永大路","SECT":"二段","MAREA":" ","LANE":" ","ALLEY":" ","HOUSE_NO":"１３７號","E_COORD97":174247.14000000001,"N_COORD97":2545028.27,"ADDRESS":"永大路二段１３７號","OBJECTID":630818},"geometry":{"x":174247.1400000006,"y":2545028.2699999996}},{"attributes":{"ID":630846,"DIS_CODE":0,"TOWNNAME":"永康區","LI":"崑山里","LIN":"47鄰","STREET":"永大路","SECT":"二段","MAREA":" ","LANE":" ","ALLEY":" ","HOUSE_NO":"１７３號","E_COORD97":174303.34,"N_COORD97":2545190.8799999999,"ADDRESS":"永大路二段１７３號","OBJECTID":630819},"geometry":{"x":174303.34000000171,"y":2545190.8800000008}},{"attributes":{"ID":630847,"DIS_CODE":0,"TOWNNAME":"安南區","LI":"城東里","LIN":"1鄰","STREET":"安明路","SECT":"四段","MAREA":" ","LANE":" ","ALLEY":" ","HOUSE_NO":"８３７號之３","E_COORD97":161367.49958999999,"N_COORD97":2553037.4667699998,"ADDRESS":"安明路四段８３７號之３","OBJECTID":630820},"geometry":{"x":161367.49959000107,"y":2553037.4667700008}},{"attributes":{"ID":630848,"DIS_CODE":0,"TOWNNAME":"永康區","LI":"崑山里","LIN":"38鄰","STREET":"崑山街","SECT":" ","MAREA":" ","LANE":" ","ALLEY":" ","HOUSE_NO":"１８９號","E_COORD97":174050.64999999999,"N_COORD97":2544964.3500000001,"ADDRESS":"崑山街１８９號","OBJECTID":630821},"geometry":{"x":174050.65000000037,"y":2544964.3500000015}},{"attributes":{"ID":630849,"DIS_CODE":0,"TOWNNAME":"永康區","LI":"勝利里","LIN":"20鄰","STREET":"勝華街","SECT":" ","MAREA":" ","LANE":" ","ALLEY":" ","HOUSE_NO":"９１號","E_COORD97":171265.47,"N_COORD97":2545205.2599999998,"ADDRESS":"勝華街９１號","OBJECTID":630822},"geometry":{"x":171265.46999999974,"y":2545205.2599999979}},{"attributes":{"ID":630850,"DIS_CODE":0,"TOWNNAME":"永康區","LI":"崑山里","LIN":"25鄰","STREET":"大仁街","SECT":" ","MAREA":" ","LANE":" ","ALLEY":" ","HOUSE_NO":"６３號","E_COORD97":173792.94,"N_COORD97":2544682.48,"ADDRESS":"大仁街６３號","OBJECTID":630823},"geometry":{"x":173792.93999999948,"y":2544682.4800000042}},{"attributes":{"ID":630851,"DIS_CODE":0,"TOWNNAME":"永康區","LI":"埔園里","LIN":"32鄰","STREET":"龍埔街","SECT":" ","MAREA":" ","LANE":" ","ALLEY":" ","HOUSE_NO":"２７３號","E_COORD97":174058.23999999999,"N_COORD97":2548253.7400000002,"ADDRESS":"龍埔街２７３號","OBJECTID":630824},"geometry":{"x":174058.24000000022,"y":2548253.7400000002}},{"attributes":{"ID":630852,"DIS_CODE":0,"TOWNNAME":"永康區","LI":"崑山里","LIN":"42鄰","STREET":"大仁街","SECT":" ","MAREA":" ","LANE":" ","ALLEY":" ","HOUSE_NO":"２２５號","E_COORD97":173944.57999999999,"N_COORD97":2545128.7000000002,"ADDRESS":"大仁街２２５號","OBJECTID":630825},"geometry":{"x":173944.58000000101,"y":2545128.7000000011}},{"attributes":{"ID":630853,"DIS_CODE":0,"TOWNNAME":"永康區","LI":"勝利里","LIN":"17鄰","STREET":"中華一路","SECT":" ","MAREA":" ","LANE":" ","ALLEY":" ","HOUSE_NO":"３３６號","E_COORD97":171190.39999999999,"N_COORD97":2545001.5,"ADDRESS":"中華一路３３６號","OBJECTID":630826},"geometry":{"x":171190.40000000037,"y":2545001.5000000019}},{"attributes":{"ID":630854,"DIS_CODE":0,"TOWNNAME":"永康區","LI":"崑山里","LIN":"38鄰","STREET":"崑山街","SECT":" ","MAREA":" ","LANE":" ","ALLEY":" ","HOUSE_NO":"１９１號","E_COORD97":174052.26999999999,"N_COORD97":2544968.3500000001,"ADDRESS":"崑山街１９１號","OBJECTID":630827},"geometry":{"x":174052.26999999955,"y":2544968.3500000015}},{"attributes":{"ID":630855,"DIS_CODE":0,"TOWNNAME":"永康區","LI":"埔園里","LIN":"39鄰","STREET":"永大路","SECT":"三段","MAREA":" ","LANE":" ","ALLEY":" ","HOUSE_NO":"１８９號","E_COORD97":174119.59,"N_COORD97":2547931.4100000001,"ADDRESS":"永大路三段１８９號","OBJECTID":630828},"geometry":{"x":174119.58999999985,"y":2547931.410000002}},{"attributes":{"ID":630856,"DIS_CODE":0,"TOWNNAME":"永康區","LI":"埔園里","LIN":"32鄰","STREET":"龍埔街","SECT":" ","MAREA":" ","LANE":" ","ALLEY":" ","HOUSE_NO":"４０２號","E_COORD97":174034.75,"N_COORD97":2548325.0600000001,"ADDRESS":"龍埔街４０２號","OBJECTID":630829},"geometry":{"x":174034.75000000093,"y":2548325.0600000024}},{"attributes":{"ID":630857,"DIS_CODE":0,"TOWNNAME":"永康區","LI":"埔園里","LIN":"32鄰","STREET":"龍埔街","SECT":" ","MAREA":" ","LANE":" ","ALLEY":" ","HOUSE_NO":"２７５號","E_COORD97":174055.88,"N_COORD97":2548304.5,"ADDRESS":"龍埔街２７５號","OBJECTID":630830},"geometry":{"x":174055.88000000082,"y":2548304.5000000019}},{"attributes":{"ID":630858,"DIS_CODE":0,"TOWNNAME":"永康區","LI":"崑山里","LIN":"41鄰","STREET":"國光五街","SECT":" ","MAREA":" ","LANE":" ","ALLEY":" ","HOUSE_NO":"３９號","E_COORD97":174057.76999999999,"N_COORD97":2545104.3799999999,"ADDRESS":"國光五街３９號","OBJECTID":630831},"geometry":{"x":174057.77000000142,"y":2545104.379999999}},{"attributes":{"ID":630859,"DIS_CODE":0,"TOWNNAME":"永康區","LI":"埔園里","LIN":"14鄰","STREET":"中山路","SECT":" ","MAREA":" ","LANE":" ","ALLEY":" ","HOUSE_NO":"３０１號","E_COORD97":173603.82000000001,"N_COORD97":2548308.5,"ADDRESS":"中山路３０１號","OBJECTID":630832},"geometry":{"x":173603.82000000216,"y":2548308.5}},{"attributes":{"ID":630860,"DIS_CODE":0,"TOWNNAME":"永康區","LI":"烏竹里","LIN":"20鄰","STREET":"自強路","SECT":" ","MAREA":" ","LANE":" ","ALLEY":" ","HOUSE_NO":"７９５號","E_COORD97":174524.31,"N_COORD97":2548601.5699999998,"ADDRESS":"自強路７９５號","OBJECTID":630833},"geometry":{"x":174524.31000000052,"y":2548601.5700000022}},{"attributes":{"ID":630861,"DIS_CODE":0,"TOWNNAME":"永康區","LI":"埔園里","LIN":"18鄰","STREET":"龍埔街","SECT":" ","MAREA":" ","LANE":" ","ALLEY":" ","HOUSE_NO":"４７５號","E_COORD97":173505.64999999999,"N_COORD97":2548370.4900000002,"ADDRESS":"龍埔街４７５號","OBJECTID":630834},"geometry":{"x":173505.6500000013,"y":2548370.4900000002}},{"attributes":{"ID":630862,"DIS_CODE":0,"TOWNNAME":"永康區","LI":"\u25A0行里","LIN":"20鄰","STREET":"中正六街","SECT":" ","MAREA":" ","LANE":" ","ALLEY":" ","HOUSE_NO":"１２３號","E_COORD97":171835.23999999999,"N_COORD97":2548718.8100000001,"ADDRESS":"中正六街１２３號","OBJECTID":630835},"geometry":{"x":171835.24000000115,"y":2548718.8100000024}},{"attributes":{"ID":630863,"DIS_CODE":0,"TOWNNAME":"永康區","LI":"中華里","LIN":"25鄰","STREET":"忠義街","SECT":" ","MAREA":" ","LANE":" ","ALLEY":" ","HOUSE_NO":"６７號","E_COORD97":171706.51000000001,"N_COORD97":2544608.4199999999,"ADDRESS":"忠義街６７號","OBJECTID":630836},"geometry":{"x":171706.50999999978,"y":2544608.4200000018}},{"attributes":{"ID":630864,"DIS_CODE":0,"TOWNNAME":"永康區","LI":"埔園里","LIN":"39鄰","STREET":"埔園街","SECT":" ","MAREA":" ","LANE":" ","ALLEY":" ","HOUSE_NO":"１號","E_COORD97":174054.16,"N_COORD97":2547853.4700000002,"ADDRESS":"埔園街１號","OBJECTID":630837},"geometry":{"x":174054.16000000108,"y":2547853.4700000025}},{"attributes":{"ID":630865,"DIS_CODE":0,"TOWNNAME":"永康區","LI":"龍潭里","LIN":"42鄰","STREET":"永平街","SECT":" ","MAREA":" ","LANE":" ","ALLEY":" ","HOUSE_NO":"７６１之１６號","E_COORD97":174658.51000000001,"N_COORD97":2547103.79,"ADDRESS":"永平街７６１之１６號","OBJECTID":630838},"geometry":{"x":174658.51000000071,"y":2547103.790000001}},{"attributes":{"ID":630866,"DIS_CODE":0,"TOWNNAME":"永康區","LI":"王行里","LIN":" ","STREET":"龍昌街","SECT":" ","MAREA":" ","LANE":" ","ALLEY":" ","HOUSE_NO":"２１４號","E_COORD97":174966.97,"N_COORD97":2548190.02,"ADDRESS":"龍昌街２１４號","OBJECTID":630839},"geometry":{"x":174966.9700000016,"y":2548190.0199999996}},{"attributes":{"ID":630867,"DIS_CODE":0,"TOWNNAME":"永康區","LI":"西勢里","LIN":" ","STREET":"西勢路","SECT":" ","MAREA":" ","LANE":" ","ALLEY":" ","HOUSE_NO":"３１號","E_COORD97":176233.89999999999,"N_COORD97":2546743.54,"ADDRESS":"西勢路３１號","OBJECTID":630840},"geometry":{"x":176233.90000000037,"y":2546743.540000001}},{"attributes":{"ID":630868,"DIS_CODE":0,"TOWNNAME":"永康區","LI":"中華里","LIN":"20鄰","STREET":"中華路","SECT":" ","MAREA":" ","LANE":" ","ALLEY":" ","HOUSE_NO":"８號之１","E_COORD97":171576.10000000001,"N_COORD97":2544432.79,"ADDRESS":"中華路８號之１","OBJECTID":630841},"geometry":{"x":171576.10000000056,"y":2544432.790000001}},{"attributes":{"ID":630869,"DIS_CODE":0,"TOWNNAME":"永康區","LI":"\u25A0洲里","LIN":"39鄰","STREET":"\u25A0洲一街","SECT":" ","MAREA":" ","LANE":" ","ALLEY":" ","HOUSE_NO":"５１號","E_COORD97":171600.17000000001,"N_COORD97":2549093.5,"ADDRESS":"\u25A0洲一街５１號","OBJECTID":630842},"geometry":{"x":171600.16999999993,"y":2549093.5000000019}},{"attributes":{"ID":630870,"DIS_CODE":0,"TOWNNAME":"永康區","LI":"\u25A0洲里","LIN":"25鄰","STREET":"洲工街","SECT":" ","MAREA":" ","LANE":" ","ALLEY":" ","HOUSE_NO":"１５號","E_COORD97":170626.98000000001,"N_COORD97":2548080,"ADDRESS":"洲工街１５號","OBJECTID":630843},"geometry":{"x":170626.98000000138,"y":2548080.0000000019}},{"attributes":{"ID":630871,"DIS_CODE":0,"TOWNNAME":"永康區","LI":"西灣里","LIN":" ","STREET":"民族路","SECT":" ","MAREA":" ","LANE":" ","ALLEY":" ","HOUSE_NO":"４９５號","E_COORD97":174548.06,"N_COORD97":2545440.0299999998,"ADDRESS":"民族路４９５號","OBJECTID":630844},"geometry":{"x":174548.06000000052,"y":2545440.0299999993}},{"attributes":{"ID":630872,"DIS_CODE":0,"TOWNNAME":"永康區","LI":"\u25A0行里","LIN":"26鄰","STREET":"中正南路","SECT":" ","MAREA":" ","LANE":" ","ALLEY":" ","HOUSE_NO":"４２６號","E_COORD97":171108.32000000001,"N_COORD97":2548345.98,"ADDRESS":"中正南路４２６號","OBJECTID":630845},"geometry":{"x":171108.3200000003,"y":2548345.9800000004}},{"attributes":{"ID":630873,"DIS_CODE":0,"TOWNNAME":"永康區","LI":"中華里","LIN":"18鄰","STREET":"忠義街","SECT":" ","MAREA":" ","LANE":" ","ALLEY":" ","HOUSE_NO":"３７號","E_COORD97":171707.95999999999,"N_COORD97":2544493.6699999999,"ADDRESS":"忠義街３７號","OBJECTID":630846},"geometry":{"x":171707.96000000089,"y":2544493.6699999999}},{"attributes":{"ID":630874,"DIS_CODE":0,"TOWNNAME":"永康區","LI":"\u25A0洲里","LIN":"26鄰","STREET":"洲尾街","SECT":" ","MAREA":" ","LANE":" ","ALLEY":" ","HOUSE_NO":"１９５號","E_COORD97":170901.07000000001,"N_COORD97":2548985.1000000001,"ADDRESS":"洲尾街１９５號","OBJECTID":630847},"geometry":{"x":170901.0700000003,"y":2548985.0999999996}},{"attributes":{"ID":630875,"DIS_CODE":0,"TOWNNAME":"永康區","LI":"\u25A0行里","LIN":"25鄰","STREET":"\u25A0和街","SECT":" ","MAREA":" ","LANE":" ","ALLEY":" ","HOUSE_NO":"２６０號","E_COORD97":171602.48999999999,"N_COORD97":2548369.4900000002,"ADDRESS":"\u25A0和街２６０號","OBJECTID":630848},"geometry":{"x":171602.49000000115,"y":2548369.4900000002}},{"attributes":{"ID":630876,"DIS_CODE":0,"TOWNNAME":"永康區","LI":"龍潭里","LIN":"39鄰","STREET":"永明街","SECT":" ","MAREA":" ","LANE":" ","ALLEY":" ","HOUSE_NO":"２６７之１５號","E_COORD97":174629.38,"N_COORD97":2547287.79,"ADDRESS":"永明街２６７之１５號","OBJECTID":630849},"geometry":{"x":174629.38000000082,"y":2547287.790000001}},{"attributes":{"ID":630877,"DIS_CODE":0,"TOWNNAME":"永康區","LI":"\u25A0洲里","LIN":"4鄰","STREET":"\u25A0洲二街","SECT":" ","MAREA":" ","LANE":" ","ALLEY":" ","HOUSE_NO":"１５１號","E_COORD97":171674.26000000001,"N_COORD97":2549369.9900000002,"ADDRESS":"\u25A0洲二街１５１號","OBJECTID":630850},"geometry":{"x":171674.25999999978,"y":2549369.9900000002}},{"attributes":{"ID":630878,"DIS_CODE":0,"TOWNNAME":"永康區","LI":"烏竹里","LIN":" ","STREET":"龍橋街","SECT":" ","MAREA":" ","LANE":" ","ALLEY":" ","HOUSE_NO":"４３５號","E_COORD97":174409.48000000001,"N_COORD97":2549261.8199999998,"ADDRESS":"龍橋街４３５號","OBJECTID":630851},"geometry":{"x":174409.48000000045,"y":2549261.8200000022}},{"attributes":{"ID":630879,"DIS_CODE":0,"TOWNNAME":"永康區","LI":"\u25A0洲里","LIN":"20鄰","STREET":"中正南路","SECT":" ","MAREA":" ","LANE":" ","ALLEY":" ","HOUSE_NO":"８０５號","E_COORD97":171716.87,"N_COORD97":2548988.4900000002,"ADDRESS":"中正南路８０５號","OBJECTID":630852},"geometry":{"x":171716.87000000104,"y":2548988.4900000021}},{"attributes":{"ID":630880,"DIS_CODE":0,"TOWNNAME":"永康區","LI":"\u25A0行里","LIN":"25鄰","STREET":"\u25A0和街","SECT":" ","MAREA":" ","LANE":" ","ALLEY":" ","HOUSE_NO":"２３０號","E_COORD97":171767.79000000001,"N_COORD97":2548171.75,"ADDRESS":"\u25A0和街２３０號","OBJECTID":630853},"geometry":{"x":171767.78999999911,"y":2548171.75}},{"attributes":{"ID":630881,"DIS_CODE":0,"TOWNNAME":"永康區","LI":"大灣里","LIN":" ","STREET":"大灣路","SECT":" ","MAREA":" ","LANE":" ","ALLEY":" ","HOUSE_NO":"２３０之７號","E_COORD97":173398.01000000001,"N_COORD97":2545176.6600000001,"ADDRESS":"大灣路２３０之７號","OBJECTID":630854},"geometry":{"x":173398.00999999978,"y":2545176.660000002}},{"attributes":{"ID":630882,"DIS_CODE":0,"TOWNNAME":"永康區","LI":"南灣里","LIN":" ","STREET":"南興路","SECT":" ","MAREA":" ","LANE":" ","ALLEY":" ","HOUSE_NO":"１９之６號","E_COORD97":174113.07000000001,"N_COORD97":2543980.5600000001,"ADDRESS":"南興路１９之６號","OBJECTID":630855},"geometry":{"x":174113.07000000123,"y":2543980.5600000042}},{"attributes":{"ID":630883,"DIS_CODE":0,"TOWNNAME":"永康區","LI":"復國里","LIN":" ","STREET":"復國一路","SECT":" ","MAREA":" ","LANE":" ","ALLEY":" ","HOUSE_NO":"２７６號","E_COORD97":172748.34,"N_COORD97":2545406.6299999999,"ADDRESS":"復國一路２７６號","OBJECTID":630856},"geometry":{"x":172748.33999999985,"y":2545406.6300000008}},{"attributes":{"ID":630884,"DIS_CODE":0,"TOWNNAME":"永康區","LI":"\u25A0行里","LIN":"42鄰","STREET":"永安路","SECT":" ","MAREA":" ","LANE":" ","ALLEY":" ","HOUSE_NO":"２２５號","E_COORD97":172455.42999999999,"N_COORD97":2549639.9100000001,"ADDRESS":"永安路２２５號","OBJECTID":630857},"geometry":{"x":172455.43000000063,"y":2549639.910000002}},{"attributes":{"ID":630885,"DIS_CODE":0,"TOWNNAME":"永康區","LI":"崑山里","LIN":" ","STREET":"大仁街","SECT":" ","MAREA":" ","LANE":" ","ALLEY":" ","HOUSE_NO":"２０７之３號","E_COORD97":173932.94,"N_COORD97":2545088.3199999998,"ADDRESS":"大仁街２０７之３號","OBJECTID":630858},"geometry":{"x":173932.94000000041,"y":2545088.3200000022}},{"attributes":{"ID":630886,"DIS_CODE":0,"TOWNNAME":"永康區","LI":"勝利里","LIN":" ","STREET":"中華一路","SECT":" ","MAREA":" ","LANE":" ","ALLEY":" ","HOUSE_NO":"３０８號","E_COORD97":171252.60000000001,"N_COORD97":2544997.25,"ADDRESS":"中華一路３０８號","OBJECTID":630859},"geometry":{"x":171252.59999999963,"y":2544997.2500000019}},{"attributes":{"ID":630887,"DIS_CODE":0,"TOWNNAME":"永康區","LI":"大橋里","LIN":"24鄰","STREET":"大橋二街","SECT":" ","MAREA":" ","LANE":" ","ALLEY":" ","HOUSE_NO":"２１０號","E_COORD97":171148,"N_COORD97":2546809.6699999999,"ADDRESS":"大橋二街２１０號","OBJECTID":630860},"geometry":{"x":171148.00000000093,"y":2546809.6699999981}},{"attributes":{"ID":630888,"DIS_CODE":0,"TOWNNAME":"永康區","LI":"西勢里","LIN":" ","STREET":"富強路","SECT":"一段","MAREA":" ","LANE":" ","ALLEY":" ","HOUSE_NO":"７３之１２號","E_COORD97":175416.97,"N_COORD97":2546125.5299999998,"ADDRESS":"富強路一段７３之１２號","OBJECTID":630861},"geometry":{"x":175416.96999999974,"y":2546125.5300000031}},{"attributes":{"ID":630889,"DIS_CODE":0,"TOWNNAME":"永康區","LI":"正強里","LIN":" ","STREET":"正強街","SECT":" ","MAREA":" ","LANE":" ","ALLEY":" ","HOUSE_NO":"１８４號","E_COORD97":173322.28,"N_COORD97":2547608.7400000002,"ADDRESS":"正強街１８４號","OBJECTID":630862},"geometry":{"x":173322.28000000026,"y":2547608.7400000002}},{"attributes":{"ID":630890,"DIS_CODE":0,"TOWNNAME":"永康區","LI":"\u25A0洲里","LIN":"5鄰","STREET":"仁愛街","SECT":" ","MAREA":" ","LANE":" ","ALLEY":" ","HOUSE_NO":"７９號","E_COORD97":172020.14000000001,"N_COORD97":2549415.0299999998,"ADDRESS":"仁愛街７９號","OBJECTID":630863},"geometry":{"x":172020.1400000006,"y":2549415.0300000012}},{"attributes":{"ID":630891,"DIS_CODE":0,"TOWNNAME":"永康區","LI":"復國里","LIN":"18鄰","STREET":"國華街","SECT":" ","MAREA":" ","LANE":" ","ALLEY":" ","HOUSE_NO":"１９號","E_COORD97":172819.10999999999,"N_COORD97":2545639.4900000002,"ADDRESS":"國華街１９號","OBJECTID":630864},"geometry":{"x":172819.11000000127,"y":2545639.4900000021}},{"attributes":{"ID":630892,"DIS_CODE":0,"TOWNNAME":"永康區","LI":"\u25A0洲里","LIN":"25鄰","STREET":"國聖街","SECT":" ","MAREA":" ","LANE":" ","ALLEY":" ","HOUSE_NO":"２１０號","E_COORD97":170656.48000000001,"N_COORD97":2548230.6299999999,"ADDRESS":"國聖街２１０號","OBJECTID":630865},"geometry":{"x":170656.48000000045,"y":2548230.6300000008}},{"attributes":{"ID":630893,"DIS_CODE":0,"TOWNNAME":"永康區","LI":"\u25A0行里","LIN":"25鄰","STREET":"中正南路","SECT":" ","MAREA":" ","LANE":" ","ALLEY":" ","HOUSE_NO":"５４６號","E_COORD97":171384.04000000001,"N_COORD97":2548628.25,"ADDRESS":"中正南路５４６號","OBJECTID":630866},"geometry":{"x":171384.04000000004,"y":2548628.2500000019}},{"attributes":{"ID":630894,"DIS_CODE":0,"TOWNNAME":"永康區","LI":"埔園里","LIN":"4鄰","STREET":"聖龍街","SECT":" ","MAREA":" ","LANE":" ","ALLEY":" ","HOUSE_NO":"５３號","E_COORD97":173924.42000000001,"N_COORD97":2547816.4900000002,"ADDRESS":"聖龍街５３號","OBJECTID":630867},"geometry":{"x":173924.41999999993,"y":2547816.4900000021}},{"attributes":{"ID":630895,"DIS_CODE":0,"TOWNNAME":"永康區","LI":"王行里","LIN":" ","STREET":"王行路","SECT":" ","MAREA":" ","LANE":" ","ALLEY":" ","HOUSE_NO":"１１００之號","E_COORD97":175667.47,"N_COORD97":2550217.54,"ADDRESS":"王行路１１００之號","OBJECTID":630868},"geometry":{"x":175667.47000000067,"y":2550217.540000001}},{"attributes":{"ID":630896,"DIS_CODE":0,"TOWNNAME":"永康區","LI":"龍潭里","LIN":"39鄰","STREET":"國民路","SECT":" ","MAREA":" ","LANE":" ","ALLEY":" ","HOUSE_NO":"９７號","E_COORD97":174376.88,"N_COORD97":2547280.9100000001,"ADDRESS":"國民路９７號","OBJECTID":630869},"geometry":{"x":174376.87999999989,"y":2547280.910000002}},{"attributes":{"ID":630897,"DIS_CODE":0,"TOWNNAME":"永康區","LI":"永康里","LIN":" ","STREET":"中山北路","SECT":" ","MAREA":" ","LANE":" ","ALLEY":" ","HOUSE_NO":"９３號","E_COORD97":174055.94,"N_COORD97":2547448.1000000001,"ADDRESS":"中山北路９３號","OBJECTID":630870},"geometry":{"x":174055.94000000134,"y":2547448.1000000015}},{"attributes":{"ID":630898,"DIS_CODE":0,"TOWNNAME":"永康區","LI":"西橋里","LIN":"18鄰","STREET":"大橋三街","SECT":" ","MAREA":" ","LANE":" ","ALLEY":" ","HOUSE_NO":"５０號之２","E_COORD97":174349.78,"N_COORD97":2547362.4500000002,"ADDRESS":"大橋三街５０號之２","OBJECTID":630871},"geometry":{"x":174349.78000000026,"y":2547362.4499999993}},{"attributes":{"ID":630899,"DIS_CODE":0,"TOWNNAME":"永康區","LI":"\u25A0洲里","LIN":"39鄰","STREET":"\u25A0洲一街","SECT":" ","MAREA":" ","LANE":" ","ALLEY":" ","HOUSE_NO":"８６號","E_COORD97":171608.42000000001,"N_COORD97":2549075.8300000001,"ADDRESS":"\u25A0洲一街８６號","OBJECTID":630872},"geometry":{"x":171608.41999999993,"y":2549075.8300000001}},{"attributes":{"ID":630900,"DIS_CODE":0,"TOWNNAME":"永康區","LI":"\u25A0行里","LIN":"46鄰","STREET":"新行街","SECT":" ","MAREA":" ","LANE":" ","ALLEY":" ","HOUSE_NO":"１２１號","E_COORD97":172316.03,"N_COORD97":2549025.5,"ADDRESS":"新行街１２１號","OBJECTID":630873},"geometry":{"x":172316.03000000119,"y":2549025.5000000019}},{"attributes":{"ID":630901,"DIS_CODE":0,"TOWNNAME":"永康區","LI":"龍潭里","LIN":" ","STREET":"永明街","SECT":" ","MAREA":" ","LANE":" ","ALLEY":" ","HOUSE_NO":"３３２之４號","E_COORD97":174582.59,"N_COORD97":2547135.7999999998,"ADDRESS":"永明街３３２之４號","OBJECTID":630874},"geometry":{"x":174582.58999999985,"y":2547135.8000000026}},{"attributes":{"ID":630902,"DIS_CODE":0,"TOWNNAME":"永康區","LI":"龍潭里","LIN":" ","STREET":"龍潭街","SECT":" ","MAREA":" ","LANE":" ","ALLEY":" ","HOUSE_NO":"８２號","E_COORD97":174794.85999999999,"N_COORD97":2547936.7400000002,"ADDRESS":"龍潭街８２號","OBJECTID":630875},"geometry":{"x":174794.86000000034,"y":2547936.7400000021}},{"attributes":{"ID":630903,"DIS_CODE":0,"TOWNNAME":"永康區","LI":"南灣里","LIN":"25鄰","STREET":"立興街","SECT":" ","MAREA":" ","LANE":" ","ALLEY":" ","HOUSE_NO":"６６號","E_COORD97":174574.19,"N_COORD97":2544830.02,"ADDRESS":"立興街６６號","OBJECTID":630876},"geometry":{"x":174574.19000000041,"y":2544830.0199999996}},{"attributes":{"ID":630904,"DIS_CODE":0,"TOWNNAME":"永康區","LI":"復華里","LIN":"39鄰","STREET":"復國一路","SECT":" ","MAREA":" ","LANE":" ","ALLEY":" ","HOUSE_NO":"４０１號","E_COORD97":172740.31,"N_COORD97":2545963.8500000001,"ADDRESS":"復國一路４０１號","OBJECTID":630877},"geometry":{"x":172740.31000000145,"y":2545963.8499999996}},{"attributes":{"ID":630905,"DIS_CODE":0,"TOWNNAME":"永康區","LI":"\u25A0行里","LIN":"4鄰","STREET":"新行街","SECT":" ","MAREA":" ","LANE":" ","ALLEY":" ","HOUSE_NO":"２６號","E_COORD97":172247.54000000001,"N_COORD97":2548783.02,"ADDRESS":"新行街２６號","OBJECTID":630878},"geometry":{"x":172247.53999999911,"y":2548783.0199999996}},{"attributes":{"ID":630906,"DIS_CODE":0,"TOWNNAME":"永康區","LI":"甲頂里","LIN":" ","STREET":"大武街","SECT":" ","MAREA":" ","LANE":" ","ALLEY":" ","HOUSE_NO":"４４號","E_COORD97":170339.53,"N_COORD97":2546733.3599999999,"ADDRESS":"大武街４４號","OBJECTID":630879},"geometry":{"x":170339.53000000119,"y":2546733.3600000031}},{"attributes":{"ID":630907,"DIS_CODE":0,"TOWNNAME":"永康區","LI":"二王里","LIN":" ","STREET":"中山南路","SECT":" ","MAREA":" ","LANE":" ","ALLEY":" ","HOUSE_NO":"８５０號","E_COORD97":172931.81,"N_COORD97":2546826.6000000001,"ADDRESS":"中山南路８５０號","OBJECTID":630880},"geometry":{"x":172931.81000000145,"y":2546826.5999999996}},{"attributes":{"ID":630908,"DIS_CODE":0,"TOWNNAME":"永康區","LI":"\u25A0行里","LIN":"5鄰","STREET":"新行街","SECT":" ","MAREA":" ","LANE":" ","ALLEY":" ","HOUSE_NO":"１號","E_COORD97":172187.01000000001,"N_COORD97":2548752.3799999999,"ADDRESS":"新行街１號","OBJECTID":630881},"geometry":{"x":172187.01000000071,"y":2548752.379999999}},{"attributes":{"ID":630909,"DIS_CODE":0,"TOWNNAME":"永康區","LI":"中興里","LIN":"26鄰","STREET":"中山東路","SECT":" ","MAREA":" ","LANE":" ","ALLEY":" ","HOUSE_NO":"４０２號","E_COORD97":171911.98000000001,"N_COORD97":2545192.4700000002,"ADDRESS":"中山東路４０２號","OBJECTID":630882},"geometry":{"x":171911.98000000045,"y":2545192.4700000025}},{"attributes":{"ID":630910,"DIS_CODE":0,"TOWNNAME":"永康區","LI":"五王里","LIN":"25鄰","STREET":"五福街","SECT":" ","MAREA":" ","LANE":" ","ALLEY":" ","HOUSE_NO":"６０號","E_COORD97":171381.67999999999,"N_COORD97":2545898.3100000001,"ADDRESS":"五福街６０號","OBJECTID":630883},"geometry":{"x":171381.67999999877,"y":2545898.3100000024}},{"attributes":{"ID":630911,"DIS_CODE":0,"TOWNNAME":"永康區","LI":"埔園里","LIN":"39鄰","STREET":"永大路","SECT":"三段","MAREA":" ","LANE":" ","ALLEY":" ","HOUSE_NO":"２０９號","E_COORD97":174127.60000000001,"N_COORD97":2548000.1899999999,"ADDRESS":"永大路三段２０９號","OBJECTID":630884},"geometry":{"x":174127.59999999963,"y":2548000.1900000013}},{"attributes":{"ID":630912,"DIS_CODE":0,"TOWNNAME":"永康區","LI":"三合里","LIN":" ","STREET":"中華二路","SECT":" ","MAREA":" ","LANE":" ","ALLEY":" ","HOUSE_NO":"７４號","E_COORD97":172104.45000000001,"N_COORD97":2545444.0600000001,"ADDRESS":"中華二路７４號","OBJECTID":630885},"geometry":{"x":172104.45000000112,"y":2545444.0600000005}},{"attributes":{"ID":630913,"DIS_CODE":0,"TOWNNAME":"永康區","LI":"尚頂里","LIN":" ","STREET":"中正南路","SECT":" ","MAREA":" ","LANE":" ","ALLEY":" ","HOUSE_NO":"３１１之１號","E_COORD97":170216.60000000001,"N_COORD97":2547478.96,"ADDRESS":"中正南路３１１之１號","OBJECTID":630886},"geometry":{"x":170216.60000000056,"y":2547478.9600000009}},{"attributes":{"ID":630914,"DIS_CODE":0,"TOWNNAME":"永康區","LI":"\u25A0洲里","LIN":"39鄰","STREET":"\u25A0洲一街","SECT":" ","MAREA":" ","LANE":" ","ALLEY":" ","HOUSE_NO":"３７號","E_COORD97":171578,"N_COORD97":2549067.5,"ADDRESS":"\u25A0洲一街３７號","OBJECTID":630887},"geometry":{"x":171578,"y":2549067.5}},{"attributes":{"ID":630915,"DIS_CODE":0,"TOWNNAME":"永康區","LI":"\u25A0行里","LIN":"43鄰","STREET":"\u25A0平街","SECT":" ","MAREA":" ","LANE":" ","ALLEY":" ","HOUSE_NO":"２５號","E_COORD97":171561.07999999999,"N_COORD97":2548023.2599999998,"ADDRESS":"\u25A0平街２５號","OBJECTID":630888},"geometry":{"x":171561.08000000101,"y":2548023.2600000016}},{"attributes":{"ID":630916,"DIS_CODE":0,"TOWNNAME":"永康區","LI":"崑山里","LIN":"20鄰","STREET":"國光一街","SECT":" ","MAREA":" ","LANE":" ","ALLEY":" ","HOUSE_NO":"２９號","E_COORD97":173915.59,"N_COORD97":2544599.73,"ADDRESS":"國光一街２９號","OBJECTID":630889},"geometry":{"x":173915.59000000078,"y":2544599.7300000042}},{"attributes":{"ID":630917,"DIS_CODE":0,"TOWNNAME":"永康區","LI":"崑山里","LIN":"42鄰","STREET":"大仁街","SECT":" ","MAREA":" ","LANE":" ","ALLEY":" ","HOUSE_NO":"２０３號","E_COORD97":173919.14000000001,"N_COORD97":2545056.6699999999,"ADDRESS":"大仁街２０３號","OBJECTID":630890},"geometry":{"x":173919.13999999966,"y":2545056.6699999999}},{"attributes":{"ID":630918,"DIS_CODE":0,"TOWNNAME":"永康區","LI":"崑山里","LIN":"13鄰","STREET":"大灣路","SECT":" ","MAREA":" ","LANE":" ","ALLEY":" ","HOUSE_NO":"１０１６號","E_COORD97":173441.25,"N_COORD97":2544387.6899999999,"ADDRESS":"大灣路１０１６號","OBJECTID":630891},"geometry":{"x":173441.25000000186,"y":2544387.6899999995}},{"attributes":{"ID":630919,"DIS_CODE":0,"TOWNNAME":"永康區","LI":"崑山里","LIN":"20鄰","STREET":"國光一街","SECT":" ","MAREA":" ","LANE":" ","ALLEY":" ","HOUSE_NO":"４５號","E_COORD97":173869.20999999999,"N_COORD97":2544612.8399999999,"ADDRESS":"國光一街４５號","OBJECTID":630892},"geometry":{"x":173869.21000000089,"y":2544612.8400000017}},{"attributes":{"ID":630920,"DIS_CODE":0,"TOWNNAME":"永康區","LI":"崑山里","LIN":"19鄰","STREET":"大仁街","SECT":" ","MAREA":" ","LANE":" ","ALLEY":" ","HOUSE_NO":"９號","E_COORD97":173802.54999999999,"N_COORD97":2544509.7599999998,"ADDRESS":"大仁街９號","OBJECTID":630893},"geometry":{"x":173802.55000000075,"y":2544509.7599999998}},{"attributes":{"ID":630921,"DIS_CODE":0,"TOWNNAME":"永康區","LI":"崑山里","LIN":"4鄰","STREET":"永大路","SECT":"一段","MAREA":" ","LANE":" ","ALLEY":" ","HOUSE_NO":"２８３之１號","E_COORD97":174007.63,"N_COORD97":2544398.0099999998,"ADDRESS":"永大路一段２８３之１號","OBJECTID":630894},"geometry":{"x":174007.62999999989,"y":2544398.0100000016}},{"attributes":{"ID":630922,"DIS_CODE":0,"TOWNNAME":"永康區","LI":"崑山里","LIN":"46鄰","STREET":"國光五街","SECT":" ","MAREA":" ","LANE":" ","ALLEY":" ","HOUSE_NO":"２６號","E_COORD97":174194.70000000001,"N_COORD97":2545078.02,"ADDRESS":"國光五街２６號","OBJECTID":630895},"geometry":{"x":174194.70000000112,"y":2545078.0200000033}},{"attributes":{"ID":630923,"DIS_CODE":0,"TOWNNAME":"永康區","LI":"崑山里","LIN":"38鄰","STREET":"崑山街","SECT":" ","MAREA":" ","LANE":" ","ALLEY":" ","HOUSE_NO":"１９３號","E_COORD97":174053.64000000001,"N_COORD97":2544972.3500000001,"ADDRESS":"崑山街１９３號","OBJECTID":630896},"geometry":{"x":174053.64000000153,"y":2544972.3500000015}},{"attributes":{"ID":630924,"DIS_CODE":0,"TOWNNAME":"永康區","LI":"崑山里","LIN":"18鄰","STREET":"大灣路","SECT":" ","MAREA":" ","LANE":" ","ALLEY":" ","HOUSE_NO":"９３０號","E_COORD97":173654.12,"N_COORD97":2544437.3999999999,"ADDRESS":"大灣路９３０號","OBJECTID":630897},"geometry":{"x":173654.12000000197,"y":2544437.4000000004}},{"attributes":{"ID":630925,"DIS_CODE":0,"TOWNNAME":"永康區","LI":"崑山里","LIN":"18鄰","STREET":"大灣路","SECT":" ","MAREA":" ","LANE":" ","ALLEY":" ","HOUSE_NO":"９３４號","E_COORD97":173635.07999999999,"N_COORD97":2544430.1800000002,"ADDRESS":"大灣路９３４號","OBJECTID":630898},"geometry":{"x":173635.08000000007,"y":2544430.1800000016}},{"attributes":{"ID":630926,"DIS_CODE":0,"TOWNNAME":"永康區","LI":"烏竹里","LIN":"20鄰","STREET":"自強路","SECT":" ","MAREA":" ","LANE":" ","ALLEY":" ","HOUSE_NO":"７７７號","E_COORD97":174494.14000000001,"N_COORD97":2548576.7999999998,"ADDRESS":"自強路７７７號","OBJECTID":630899},"geometry":{"x":174494.13999999966,"y":2548576.8000000026}},{"attributes":{"ID":630927,"DIS_CODE":0,"TOWNNAME":"永康區","LI":"崑山里","LIN":"20鄰","STREET":"國光一街","SECT":" ","MAREA":" ","LANE":" ","ALLEY":" ","HOUSE_NO":"５３號","E_COORD97":173854.70999999999,"N_COORD97":2544619.7599999998,"ADDRESS":"國光一街５３號","OBJECTID":630900},"geometry":{"x":173854.70999999996,"y":2544619.7600000016}},{"attributes":{"ID":630928,"DIS_CODE":0,"TOWNNAME":"永康區","LI":"烏竹里","LIN":"20鄰","STREET":"自強路","SECT":" ","MAREA":" ","LANE":" ","ALLEY":" ","HOUSE_NO":"７９７號","E_COORD97":174527.39000000001,"N_COORD97":2548603.8199999998,"ADDRESS":"自強路７９７號","OBJECTID":630901},"geometry":{"x":174527.3900000006,"y":2548603.8200000022}},{"attributes":{"ID":630929,"DIS_CODE":0,"TOWNNAME":"永康區","LI":"崑山里","LIN":"4鄰","STREET":"永大路","SECT":"一段","MAREA":" ","LANE":" ","ALLEY":" ","HOUSE_NO":"２７３之２號","E_COORD97":173976.39999999999,"N_COORD97":2544309.9300000002,"ADDRESS":"永大路一段２７３之２號","OBJECTID":630902},"geometry":{"x":173976.40000000224,"y":2544309.9300000016}},{"attributes":{"ID":630930,"DIS_CODE":0,"TOWNNAME":"永康區","LI":"崑山里","LIN":"20鄰","STREET":"大仁街","SECT":" ","MAREA":" ","LANE":" ","ALLEY":" ","HOUSE_NO":"１８號","E_COORD97":173830.51999999999,"N_COORD97":2544535.0800000001,"ADDRESS":"大仁街１８號","OBJECTID":630903},"geometry":{"x":173830.52000000142,"y":2544535.0800000001}},{"attributes":{"ID":630931,"DIS_CODE":0,"TOWNNAME":"永康區","LI":"崑山里","LIN":"18鄰","STREET":"大灣路","SECT":" ","MAREA":" ","LANE":" ","ALLEY":" ","HOUSE_NO":"９２８號","E_COORD97":173658.29000000001,"N_COORD97":2544436.0699999998,"ADDRESS":"大灣路９２８號","OBJECTID":630904},"geometry":{"x":173658.29000000097,"y":2544436.0700000003}},{"attributes":{"ID":630932,"DIS_CODE":0,"TOWNNAME":"永康區","LI":"埔園里","LIN":"18鄰","STREET":"四維街","SECT":" ","MAREA":" ","LANE":" ","ALLEY":" ","HOUSE_NO":"１３８號","E_COORD97":173326.12,"N_COORD97":2548325.9900000002,"ADDRESS":"四維街１３８號","OBJECTID":630905},"geometry":{"x":173326.12000000104,"y":2548325.9900000002}},{"attributes":{"ID":630933,"DIS_CODE":0,"TOWNNAME":"永康區","LI":"崑山里","LIN":"20鄰","STREET":"大仁街","SECT":" ","MAREA":" ","LANE":" ","ALLEY":" ","HOUSE_NO":"３２號","E_COORD97":173807.76000000001,"N_COORD97":2544598.8599999999,"ADDRESS":"大仁街３２號","OBJECTID":630906},"geometry":{"x":173807.76000000071,"y":2544598.8600000013}},{"attributes":{"ID":630934,"DIS_CODE":0,"TOWNNAME":"永康區","LI":"崑山里","LIN":"39鄰","STREET":"永大路","SECT":"二段","MAREA":" ","LANE":" ","ALLEY":" ","HOUSE_NO":"７９號","E_COORD97":174188.70000000001,"N_COORD97":2544893.6699999999,"ADDRESS":"永大路二段７９號","OBJECTID":630907},"geometry":{"x":174188.70000000019,"y":2544893.6699999999}},{"attributes":{"ID":630935,"DIS_CODE":0,"TOWNNAME":"永康區","LI":"埔園里","LIN":"39鄰","STREET":"聖龍街","SECT":" ","MAREA":" ","LANE":" ","ALLEY":" ","HOUSE_NO":"１７１號","E_COORD97":174288.79999999999,"N_COORD97":2547859.1000000001,"ADDRESS":"聖龍街１７１號","OBJECTID":630908},"geometry":{"x":174288.80000000075,"y":2547859.1000000015}},{"attributes":{"ID":630936,"DIS_CODE":0,"TOWNNAME":"永康區","LI":"崑山里","LIN":"39鄰","STREET":"崑山街","SECT":" ","MAREA":" ","LANE":" ","ALLEY":" ","HOUSE_NO":"２０６號","E_COORD97":174091.82999999999,"N_COORD97":2545012.6299999999,"ADDRESS":"崑山街２０６號","OBJECTID":630909},"geometry":{"x":174091.83000000194,"y":2545012.6300000008}},{"attributes":{"ID":630937,"DIS_CODE":0,"TOWNNAME":"永康區","LI":"埔園里","LIN":"25鄰","STREET":"埔東街","SECT":" ","MAREA":" ","LANE":" ","ALLEY":" ","HOUSE_NO":"３３號","E_COORD97":173743.92999999999,"N_COORD97":2548123.2400000002,"ADDRESS":"埔東街３３號","OBJECTID":630910},"geometry":{"x":173743.93000000063,"y":2548123.2400000021}},{"attributes":{"ID":630938,"DIS_CODE":0,"TOWNNAME":"永康區","LI":"崑山里","LIN":"32鄰","STREET":"永大路","SECT":"二段","MAREA":" ","LANE":" ","ALLEY":" ","HOUSE_NO":"６１號","E_COORD97":174162.78,"N_COORD97":2544825.1299999999,"ADDRESS":"永大路二段６１號","OBJECTID":630911},"geometry":{"x":174162.78000000026,"y":2544825.129999999}},{"attributes":{"ID":630939,"DIS_CODE":0,"TOWNNAME":"永康區","LI":"崑山里","LIN":"20鄰","STREET":"國光一街","SECT":" ","MAREA":" ","LANE":" ","ALLEY":" ","HOUSE_NO":"３１號","E_COORD97":173908.73000000001,"N_COORD97":2544601.4100000001,"ADDRESS":"國光一街３１號","OBJECTID":630912},"geometry":{"x":173908.73000000138,"y":2544601.4100000039}},{"attributes":{"ID":630940,"DIS_CODE":0,"TOWNNAME":"永康區","LI":"崑山里","LIN":"25鄰","STREET":"大仁街","SECT":" ","MAREA":" ","LANE":" ","ALLEY":" ","HOUSE_NO":"６５號","E_COORD97":173793.95000000001,"N_COORD97":2544686.48,"ADDRESS":"大仁街６５號","OBJECTID":630913},"geometry":{"x":173793.95000000019,"y":2544686.4800000023}},{"attributes":{"ID":630941,"DIS_CODE":0,"TOWNNAME":"永康區","LI":"埔園里","LIN":"38鄰","STREET":"永大路","SECT":"三段","MAREA":" ","LANE":" ","ALLEY":" ","HOUSE_NO":"３０２號","E_COORD97":174170.62,"N_COORD97":2547984.7799999998,"ADDRESS":"永大路三段３０２號","OBJECTID":630914},"geometry":{"x":174170.62000000011,"y":2547984.7799999975}},{"attributes":{"ID":630942,"DIS_CODE":0,"TOWNNAME":"永康區","LI":"崑山里","LIN":"41鄰","STREET":"崑山街","SECT":" ","MAREA":" ","LANE":" ","ALLEY":" ","HOUSE_NO":"２０５號","E_COORD97":174068.17000000001,"N_COORD97":2545014.27,"ADDRESS":"崑山街２０５號","OBJECTID":630915},"geometry":{"x":174068.16999999993,"y":2545014.2699999996}},{"attributes":{"ID":630943,"DIS_CODE":0,"TOWNNAME":"永康區","LI":"埔園里","LIN":"25鄰","STREET":"埔東街","SECT":" ","MAREA":" ","LANE":" ","ALLEY":" ","HOUSE_NO":"１５號","E_COORD97":173785.09,"N_COORD97":2548041.7799999998,"ADDRESS":"埔東街１５號","OBJECTID":630916},"geometry":{"x":173785.09000000078,"y":2548041.7799999993}},{"attributes":{"ID":630944,"DIS_CODE":0,"TOWNNAME":"永康區","LI":"崑山里","LIN":"32鄰","STREET":"永大路","SECT":"二段","MAREA":" ","LANE":" ","ALLEY":" ","HOUSE_NO":"４３號","E_COORD97":174143.57000000001,"N_COORD97":2544769.5,"ADDRESS":"永大路二段４３號","OBJECTID":630917},"geometry":{"x":174143.57000000123,"y":2544769.5}},{"attributes":{"ID":630945,"DIS_CODE":0,"TOWNNAME":"永康區","LI":"崑山里","LIN":"32鄰","STREET":"永大路","SECT":"二段","MAREA":" ","LANE":" ","ALLEY":" ","HOUSE_NO":"５３號","E_COORD97":174156.62,"N_COORD97":2544802.7400000002,"ADDRESS":"永大路二段５３號","OBJECTID":630918},"geometry":{"x":174156.62000000104,"y":2544802.7400000039}},{"attributes":{"ID":630946,"DIS_CODE":0,"TOWNNAME":"永康區","LI":"崑山里","LIN":"20鄰","STREET":"國光一街","SECT":" ","MAREA":" ","LANE":" ","ALLEY":" ","HOUSE_NO":"５９號","E_COORD97":173844.07999999999,"N_COORD97":2544623.7599999998,"ADDRESS":"國光一街５９號","OBJECTID":630919},"geometry":{"x":173844.08000000007,"y":2544623.7600000016}},{"attributes":{"ID":630947,"DIS_CODE":0,"TOWNNAME":"永康區","LI":"崑山里","LIN":"20鄰","STREET":"國光一街","SECT":" ","MAREA":" ","LANE":" ","ALLEY":" ","HOUSE_NO":"４３號","E_COORD97":173874.20999999999,"N_COORD97":2544611.3399999999,"ADDRESS":"國光一街４３號","OBJECTID":630920},"geometry":{"x":173874.21000000089,"y":2544611.3399999999}},{"attributes":{"ID":630948,"DIS_CODE":0,"TOWNNAME":"永康區","LI":"崑山里","LIN":"32鄰","STREET":"永大路","SECT":"二段","MAREA":" ","LANE":" ","ALLEY":" ","HOUSE_NO":"４１號","E_COORD97":174145.45999999999,"N_COORD97":2544773.75,"ADDRESS":"永大路二段４１號","OBJECTID":630921},"geometry":{"x":174145.46000000089,"y":2544773.75}},{"attributes":{"ID":630949,"DIS_CODE":0,"TOWNNAME":"永康區","LI":"埔園里","LIN":"18鄰","STREET":"埔園街","SECT":" ","MAREA":" ","LANE":" ","ALLEY":" ","HOUSE_NO":"３０８號","E_COORD97":173520,"N_COORD97":2548209.73,"ADDRESS":"埔園街３０８號","OBJECTID":630922},"geometry":{"x":173520.00000000093,"y":2548209.7300000004}},{"attributes":{"ID":630950,"DIS_CODE":0,"TOWNNAME":"永康區","LI":"崑山里","LIN":"20鄰","STREET":"大仁街","SECT":" ","MAREA":" ","LANE":" ","ALLEY":" ","HOUSE_NO":"３６號","E_COORD97":173808.70000000001,"N_COORD97":2544634.6099999999,"ADDRESS":"大仁街３６號","OBJECTID":630923},"geometry":{"x":173808.70000000112,"y":2544634.6100000013}},{"attributes":{"ID":630951,"DIS_CODE":0,"TOWNNAME":"永康區","LI":"埔園里","LIN":"26鄰","STREET":"中山路","SECT":" ","MAREA":" ","LANE":" ","ALLEY":" ","HOUSE_NO":"２７４號","E_COORD97":173717.60999999999,"N_COORD97":2548044.3599999999,"ADDRESS":"中山路２７４號","OBJECTID":630924},"geometry":{"x":173717.61000000127,"y":2548044.3599999994}},{"attributes":{"ID":630952,"DIS_CODE":0,"TOWNNAME":"永康區","LI":"崑山里","LIN":"39鄰","STREET":"永大路","SECT":"二段","MAREA":" ","LANE":" ","ALLEY":" ","HOUSE_NO":"８３號","E_COORD97":174196.45000000001,"N_COORD97":2544903.71,"ADDRESS":"永大路二段８３號","OBJECTID":630925},"geometry":{"x":174196.45000000112,"y":2544903.7100000009}},{"attributes":{"ID":630953,"DIS_CODE":0,"TOWNNAME":"永康區","LI":"埔園里","LIN":"39鄰","STREET":"聖龍街","SECT":" ","MAREA":" ","LANE":" ","ALLEY":" ","HOUSE_NO":"１０３號","E_COORD97":174085.73000000001,"N_COORD97":2547859.8199999998,"ADDRESS":"聖龍街１０３號","OBJECTID":630926},"geometry":{"x":174085.73000000045,"y":2547859.8200000003}},{"attributes":{"ID":630954,"DIS_CODE":0,"TOWNNAME":"永康區","LI":"崑山里","LIN":"4鄰","STREET":"永大路","SECT":"一段","MAREA":" ","LANE":" ","ALLEY":" ","HOUSE_NO":"２８５之２號","E_COORD97":174022.84,"N_COORD97":2544442.0299999998,"ADDRESS":"永大路一段２８５之２號","OBJECTID":630927},"geometry":{"x":174022.83999999985,"y":2544442.0300000012}},{"attributes":{"ID":630955,"DIS_CODE":0,"TOWNNAME":"永康區","LI":"崑山里","LIN":"25鄰","STREET":"大仁街","SECT":" ","MAREA":" ","LANE":" ","ALLEY":" ","HOUSE_NO":"６７號","E_COORD97":173795.14999999999,"N_COORD97":2544690.23,"ADDRESS":"大仁街６７號","OBJECTID":630928},"geometry":{"x":173795.1500000013,"y":2544690.2300000004}},{"attributes":{"ID":630956,"DIS_CODE":0,"TOWNNAME":"永康區","LI":"崑山里","LIN":"18鄰","STREET":"大灣路","SECT":" ","MAREA":" ","LANE":" ","ALLEY":" ","HOUSE_NO":"９４０號","E_COORD97":173617.87,"N_COORD97":2544426.9900000002,"ADDRESS":"大灣路９４０號","OBJECTID":630929},"geometry":{"x":173617.87000000011,"y":2544426.9900000002}},{"attributes":{"ID":630957,"DIS_CODE":0,"TOWNNAME":"永康區","LI":"崑山里","LIN":"20鄰","STREET":"國光一街","SECT":" ","MAREA":" ","LANE":" ","ALLEY":" ","HOUSE_NO":"５５號","E_COORD97":173851.32999999999,"N_COORD97":2544621.2599999998,"ADDRESS":"國光一街５５號","OBJECTID":630930},"geometry":{"x":173851.33000000101,"y":2544621.2599999998}},{"attributes":{"ID":630958,"DIS_CODE":0,"TOWNNAME":"永康區","LI":"埔園里","LIN":"26鄰","STREET":"中山路","SECT":" ","MAREA":" ","LANE":" ","ALLEY":" ","HOUSE_NO":"２８６號","E_COORD97":173709.98000000001,"N_COORD97":2548083.75,"ADDRESS":"中山路２８６號","OBJECTID":630931},"geometry":{"x":173709.98000000138,"y":2548083.75}},{"attributes":{"ID":630959,"DIS_CODE":0,"TOWNNAME":"永康區","LI":"崑山里","LIN":"20鄰","STREET":"國光一街","SECT":" ","MAREA":" ","LANE":" ","ALLEY":" ","HOUSE_NO":"４１號","E_COORD97":173878.42000000001,"N_COORD97":2544609.3399999999,"ADDRESS":"國光一街４１號","OBJECTID":630932},"geometry":{"x":173878.41999999993,"y":2544609.3400000017}},{"attributes":{"ID":630960,"DIS_CODE":0,"TOWNNAME":"永康區","LI":"崑山里","LIN":"20鄰","STREET":"國光一街","SECT":" ","MAREA":" ","LANE":" ","ALLEY":" ","HOUSE_NO":"４９號","E_COORD97":173862.10999999999,"N_COORD97":2544617.2599999998,"ADDRESS":"國光一街４９號","OBJECTID":630933},"geometry":{"x":173862.11000000127,"y":2544617.2599999998}},{"attributes":{"ID":630961,"DIS_CODE":0,"TOWNNAME":"永康區","LI":"崑山里","LIN":"46鄰","STREET":"國光五街","SECT":" ","MAREA":" ","LANE":" ","ALLEY":" ","HOUSE_NO":"３４號","E_COORD97":174160.31,"N_COORD97":2545087.75,"ADDRESS":"國光五街３４號","OBJECTID":630934},"geometry":{"x":174160.30999999959,"y":2545087.7500000019}},{"attributes":{"ID":630962,"DIS_CODE":0,"TOWNNAME":"永康區","LI":"崑山里","LIN":"40鄰","STREET":"永大路","SECT":"二段","MAREA":" ","LANE":" ","ALLEY":" ","HOUSE_NO":"１２９號","E_COORD97":174234.81,"N_COORD97":2545000.0800000001,"ADDRESS":"永大路二段１２９號","OBJECTID":630935},"geometry":{"x":174234.80999999959,"y":2545000.0800000038}},{"attributes":{"ID":630963,"DIS_CODE":0,"TOWNNAME":"永康區","LI":"崑山里","LIN":"39鄰","STREET":"永大路","SECT":"二段","MAREA":" ","LANE":" ","ALLEY":" ","HOUSE_NO":"８９號","E_COORD97":174200.09,"N_COORD97":2544913.9500000002,"ADDRESS":"永大路二段８９號","OBJECTID":630936},"geometry":{"x":174200.09000000078,"y":2544913.9499999993}},{"attributes":{"ID":630964,"DIS_CODE":0,"TOWNNAME":"永康區","LI":"崑山里","LIN":"4鄰","STREET":"永大路","SECT":"一段","MAREA":" ","LANE":" ","ALLEY":" ","HOUSE_NO":"２７５號","E_COORD97":173982.25,"N_COORD97":2544329.4100000001,"ADDRESS":"永大路一段２７５號","OBJECTID":630937},"geometry":{"x":173982.25000000093,"y":2544329.4100000001}},{"attributes":{"ID":630965,"DIS_CODE":0,"TOWNNAME":"永康區","LI":"崑山里","LIN":"20鄰","STREET":"大仁街","SECT":" ","MAREA":" ","LANE":" ","ALLEY":" ","HOUSE_NO":"２２號","E_COORD97":173825.41,"N_COORD97":2544543.4199999999,"ADDRESS":"大仁街２２號","OBJECTID":630938},"geometry":{"x":173825.41000000108,"y":2544543.4200000037}},{"attributes":{"ID":630966,"DIS_CODE":0,"TOWNNAME":"永康區","LI":"崑山里","LIN":"20鄰","STREET":"國光一街","SECT":" ","MAREA":" ","LANE":" ","ALLEY":" ","HOUSE_NO":"３７號","E_COORD97":173888.01999999999,"N_COORD97":2544605.8900000001,"ADDRESS":"國光一街３７號","OBJECTID":630939},"geometry":{"x":173888.01999999955,"y":2544605.8900000025}},{"attributes":{"ID":630967,"DIS_CODE":0,"TOWNNAME":"永康區","LI":"崑山里","LIN":"38鄰","STREET":"崑山街","SECT":" ","MAREA":" ","LANE":" ","ALLEY":" ","HOUSE_NO":"１９７號","E_COORD97":174056.64999999999,"N_COORD97":2544980.6000000001,"ADDRESS":"崑山街１９７號","OBJECTID":630940},"geometry":{"x":174056.6500000013,"y":2544980.6000000015}},{"attributes":{"ID":630968,"DIS_CODE":0,"TOWNNAME":"永康區","LI":"崑山里","LIN":"25鄰","STREET":"大仁街","SECT":" ","MAREA":" ","LANE":" ","ALLEY":" ","HOUSE_NO":"７３號","E_COORD97":173802.19,"N_COORD97":2544715.6200000001,"ADDRESS":"大仁街７３號","OBJECTID":630941},"geometry":{"x":173802.19000000134,"y":2544715.620000001}},{"attributes":{"ID":630969,"DIS_CODE":0,"TOWNNAME":"永康區","LI":"崑山里","LIN":"39鄰","STREET":"永大路","SECT":"二段","MAREA":" ","LANE":" ","ALLEY":" ","HOUSE_NO":"９１號","E_COORD97":174202.95000000001,"N_COORD97":2544921.4500000002,"ADDRESS":"永大路二段９１號","OBJECTID":630942},"geometry":{"x":174202.95000000205,"y":2544921.4499999993}},{"attributes":{"ID":630970,"DIS_CODE":0,"TOWNNAME":"安南區","LI":"新順里","LIN":"12鄰","STREET":"安豐六街","SECT":" ","MAREA":" ","LANE":" ","ALLEY":" ","HOUSE_NO":"１７６號","E_COORD97":169605.79000000001,"N_COORD97":2549624.9900000002,"ADDRESS":"安豐六街１７６號","OBJECTID":630943},"geometry":{"x":169605.79000000004,"y":2549624.9900000002}},{"attributes":{"ID":630971,"DIS_CODE":0,"TOWNNAME":"安南區","LI":"新順里","LIN":"11鄰","STREET":"安豐六街","SECT":" ","MAREA":" ","LANE":" ","ALLEY":" ","HOUSE_NO":"２２７號","E_COORD97":169757.70999999999,"N_COORD97":2549597.96,"ADDRESS":"安豐六街２２７號","OBJECTID":630944},"geometry":{"x":169757.70999999996,"y":2549597.9600000009}},{"attributes":{"ID":630972,"DIS_CODE":0,"TOWNNAME":"安南區","LI":"新順里","LIN":"11鄰","STREET":"安豐六街","SECT":" ","MAREA":" ","LANE":" ","ALLEY":" ","HOUSE_NO":"２２９號","E_COORD97":169761.57000000001,"N_COORD97":2549596.9300000002,"ADDRESS":"安豐六街２２９號","OBJECTID":630945},"geometry":{"x":169761.57000000123,"y":2549596.9299999997}},{"attributes":{"ID":630973,"DIS_CODE":0,"TOWNNAME":"安南區","LI":"新順里","LIN":"11鄰","STREET":"安豐六街","SECT":" ","MAREA":" ","LANE":" ","ALLEY":" ","HOUSE_NO":"２３１號","E_COORD97":169765.72,"N_COORD97":2549595.7400000002,"ADDRESS":"安豐六街２３１號","OBJECTID":630946},"geometry":{"x":169765.71999999974,"y":2549595.7400000002}},{"attributes":{"ID":630974,"DIS_CODE":0,"TOWNNAME":"安南區","LI":"新順里","LIN":"11鄰","STREET":"安豐六街","SECT":" ","MAREA":" ","LANE":" ","ALLEY":" ","HOUSE_NO":"２３３號","E_COORD97":169770.54000000001,"N_COORD97":2549594.0800000001,"ADDRESS":"安豐六街２３３號","OBJECTID":630947},"geometry":{"x":169770.54000000004,"y":2549594.0800000038}},{"attributes":{"ID":630975,"DIS_CODE":0,"TOWNNAME":"安南區","LI":"新順里","LIN":"11鄰","STREET":"安豐六街","SECT":" ","MAREA":" ","LANE":" ","ALLEY":" ","HOUSE_NO":"２３５號","E_COORD97":169773.98000000001,"N_COORD97":2549593.0299999998,"ADDRESS":"安豐六街２３５號","OBJECTID":630948},"geometry":{"x":169773.98000000138,"y":2549593.0299999993}},{"attributes":{"ID":630976,"DIS_CODE":0,"TOWNNAME":"安南區","LI":"新順里","LIN":"11鄰","STREET":"安豐六街","SECT":" ","MAREA":" ","LANE":" ","ALLEY":" ","HOUSE_NO":"２３７號","E_COORD97":169778.60999999999,"N_COORD97":2549591.2400000002,"ADDRESS":"安豐六街２３７號","OBJECTID":630949},"geometry":{"x":169778.61000000034,"y":2549591.2400000021}},{"attributes":{"ID":630977,"DIS_CODE":0,"TOWNNAME":"安南區","LI":"新順里","LIN":"22鄰","STREET":"安豐六街","SECT":" ","MAREA":" ","LANE":" ","ALLEY":" ","HOUSE_NO":"２３號","E_COORD97":169312.29000000001,"N_COORD97":2549703.8599999999,"ADDRESS":"安豐六街２３號","OBJECTID":630950},"geometry":{"x":169312.29000000097,"y":2549703.8600000013}},{"attributes":{"ID":630978,"DIS_CODE":0,"TOWNNAME":"東區","LI":"仁和里","LIN":"13鄰","STREET":"仁東街","SECT":" ","MAREA":" ","LANE":" ","ALLEY":" ","HOUSE_NO":"９９號","E_COORD97":171659.17999999999,"N_COORD97":2541234.27,"ADDRESS":"仁東街９９號","OBJECTID":630951},"geometry":{"x":171659.1799999997,"y":2541234.2699999996}},{"attributes":{"ID":630979,"DIS_CODE":0,"TOWNNAME":"安南區","LI":"布袋里","LIN":"1鄰","STREET":"工明南二路","SECT":" ","MAREA":" ","LANE":" ","ALLEY":" ","HOUSE_NO":"４１號","E_COORD97":168809.56,"N_COORD97":2550992.3599999999,"ADDRESS":"工明南二路４１號","OBJECTID":630952},"geometry":{"x":168809.56000000052,"y":2550992.3600000013}},{"attributes":{"ID":630980,"DIS_CODE":0,"TOWNNAME":"安南區","LI":"布袋里","LIN":"1鄰","STREET":"工明南二路","SECT":" ","MAREA":" ","LANE":" ","ALLEY":" ","HOUSE_NO":"４３號","E_COORD97":168794.70999999999,"N_COORD97":2550996.04,"ADDRESS":"工明南二路４３號","OBJECTID":630953},"geometry":{"x":168794.70999999996,"y":2550996.0399999991}},{"attributes":{"ID":630981,"DIS_CODE":0,"TOWNNAME":"安南區","LI":"布袋里","LIN":"1鄰","STREET":"工明南二路","SECT":" ","MAREA":" ","LANE":" ","ALLEY":" ","HOUSE_NO":"４５號","E_COORD97":168778.70000000001,"N_COORD97":2550999.0899999999,"ADDRESS":"工明南二路４５號","OBJECTID":630954},"geometry":{"x":168778.70000000112,"y":2550999.0900000017}},{"attributes":{"ID":630982,"DIS_CODE":0,"TOWNNAME":"安南區","LI":"布袋里","LIN":"1鄰","STREET":"工明南二路","SECT":" ","MAREA":" ","LANE":" ","ALLEY":" ","HOUSE_NO":"４７號","E_COORD97":168764.39999999999,"N_COORD97":2551003.3500000001,"ADDRESS":"工明南二路４７號","OBJECTID":630955},"geometry":{"x":168764.4000000013,"y":2551003.3500000015}},{"attributes":{"ID":630983,"DIS_CODE":0,"TOWNNAME":"安南區","LI":"頂安里","LIN":"13鄰","STREET":"安中路","SECT":"一段","MAREA":" ","LANE":" ","ALLEY":" ","HOUSE_NO":"３９５號","E_COORD97":168328.26000000001,"N_COORD97":2548769.8300000001,"ADDRESS":"安中路一段３９５號","OBJECTID":630956},"geometry":{"x":168328.26000000164,"y":2548769.8300000019}},{"attributes":{"ID":630984,"DIS_CODE":0,"TOWNNAME":"安南區","LI":"頂安里","LIN":"13鄰","STREET":"安中路","SECT":"一段","MAREA":" ","LANE":" ","ALLEY":" ","HOUSE_NO":"３９７號","E_COORD97":168324.60999999999,"N_COORD97":2548771.8999999999,"ADDRESS":"安中路一段３９７號","OBJECTID":630957},"geometry":{"x":168324.61000000034,"y":2548771.9000000041}},{"attributes":{"ID":630985,"DIS_CODE":0,"TOWNNAME":"安南區","LI":"頂安里","LIN":"13鄰","STREET":"安中路","SECT":"一段","MAREA":" ","LANE":" ","ALLEY":" ","HOUSE_NO":"３９９號","E_COORD97":168320,"N_COORD97":2548774.6000000001,"ADDRESS":"安中路一段３９９號","OBJECTID":630958},"geometry":{"x":168319.99999999907,"y":2548774.6000000015}},{"attributes":{"ID":630986,"DIS_CODE":0,"TOWNNAME":"安南區","LI":"安富里","LIN":"32鄰","STREET":"府安路","SECT":"五段","MAREA":" ","LANE":" ","ALLEY":" ","HOUSE_NO":"１５９號","E_COORD97":167797.51000000001,"N_COORD97":2547033.8300000001,"ADDRESS":"府安路五段１５９號","OBJECTID":630959},"geometry":{"x":167797.50999999978,"y":2547033.8300000019}},{"attributes":{"ID":630987,"DIS_CODE":0,"TOWNNAME":"安南區","LI":"頂安里","LIN":"17鄰","STREET":"北安路","SECT":"二段","MAREA":" ","LANE":" ","ALLEY":" ","HOUSE_NO":"４８６之４７號","E_COORD97":168461.53,"N_COORD97":2548401.3700000001,"ADDRESS":"北安路二段４８６之４７號","OBJECTID":630960},"geometry":{"x":168461.53000000119,"y":2548401.3700000029}},{"attributes":{"ID":630988,"DIS_CODE":0,"TOWNNAME":"安南區","LI":"頂安里","LIN":"17鄰","STREET":"北安路","SECT":"二段","MAREA":" ","LANE":" ","ALLEY":" ","HOUSE_NO":"４８６之４６號","E_COORD97":168454.54999999999,"N_COORD97":2548402.25,"ADDRESS":"北安路二段４８６之４６號","OBJECTID":630961},"geometry":{"x":168454.54999999981,"y":2548402.25}},{"attributes":{"ID":630989,"DIS_CODE":0,"TOWNNAME":"安南區","LI":"頂安里","LIN":"17鄰","STREET":"北安路","SECT":"三段","MAREA":" ","LANE":" ","ALLEY":" ","HOUSE_NO":"１０號","E_COORD97":168305.35000000001,"N_COORD97":2548860.6000000001,"ADDRESS":"北安路三段１０號","OBJECTID":630962},"geometry":{"x":168305.3499999987,"y":2548860.5999999996}},{"attributes":{"ID":630990,"DIS_CODE":0,"TOWNNAME":"安南區","LI":"淵中里","LIN":"17鄰","STREET":"樂安二街","SECT":" ","MAREA":" ","LANE":" ","ALLEY":" ","HOUSE_NO":"１２８號","E_COORD97":165783.78,"N_COORD97":2549753.7000000002,"ADDRESS":"樂安二街１２８號","OBJECTID":630963},"geometry":{"x":165783.78000000026,"y":2549753.6999999993}},{"attributes":{"ID":630991,"DIS_CODE":0,"TOWNNAME":"安南區","LI":"大安里","LIN":"15鄰","STREET":"義安街","SECT":" ","MAREA":" ","LANE":" ","ALLEY":" ","HOUSE_NO":"１１１號","E_COORD97":167457.53,"N_COORD97":2548107.04,"ADDRESS":"義安街１１１號","OBJECTID":630964},"geometry":{"x":167457.53000000119,"y":2548107.0399999991}},{"attributes":{"ID":630992,"DIS_CODE":0,"TOWNNAME":"安南區","LI":"安西里","LIN":"4鄰","STREET":"安和路","SECT":"一段","MAREA":" ","LANE":" ","ALLEY":" ","HOUSE_NO":"２７７號","E_COORD97":169279.26999999999,"N_COORD97":2548058.2799999998,"ADDRESS":"安和路一段２７７號","OBJECTID":630965},"geometry":{"x":169279.27000000048,"y":2548058.2799999993}},{"attributes":{"ID":630993,"DIS_CODE":0,"TOWNNAME":"安南區","LI":"州南里","LIN":"4鄰","STREET":"長和路","SECT":"三段","MAREA":" ","LANE":" ","ALLEY":" ","HOUSE_NO":"１７號","E_COORD97":169899.25,"N_COORD97":2551505.02,"ADDRESS":"長和路三段１７號","OBJECTID":630966},"geometry":{"x":169899.25,"y":2551505.0199999996}},{"attributes":{"ID":630994,"DIS_CODE":0,"TOWNNAME":"安南區","LI":"州南里","LIN":"17鄰","STREET":"安和路","SECT":"四段","MAREA":" ","LANE":" ","ALLEY":" ","HOUSE_NO":"２３７之５號","E_COORD97":169899.10999999999,"N_COORD97":2550588.0099999998,"ADDRESS":"安和路四段２３７之５號","OBJECTID":630967},"geometry":{"x":169899.11000000034,"y":2550588.0100000016}},{"attributes":{"ID":630995,"DIS_CODE":0,"TOWNNAME":"安南區","LI":"溪心里","LIN":"17鄰","STREET":"海佃路","SECT":"三段","MAREA":" ","LANE":" ","ALLEY":" ","HOUSE_NO":"２１８號","E_COORD97":166019.73999999999,"N_COORD97":2550206.4300000002,"ADDRESS":"海佃路三段２１８號","OBJECTID":630968},"geometry":{"x":166019.74000000022,"y":2550206.4300000016}},{"attributes":{"ID":630996,"DIS_CODE":0,"TOWNNAME":"安南區","LI":"溪心里","LIN":"17鄰","STREET":"海佃路","SECT":"三段","MAREA":" ","LANE":" ","ALLEY":" ","HOUSE_NO":"２２０號","E_COORD97":166015.45000000001,"N_COORD97":2550210.3999999999,"ADDRESS":"海佃路三段２２０號","OBJECTID":630969},"geometry":{"x":166015.45000000112,"y":2550210.4000000022}},{"attributes":{"ID":630997,"DIS_CODE":0,"TOWNNAME":"安南區","LI":"溪心里","LIN":"17鄰","STREET":"海佃路","SECT":"三段","MAREA":" ","LANE":" ","ALLEY":" ","HOUSE_NO":"２２２號","E_COORD97":166012.12,"N_COORD97":2550215.3199999998,"ADDRESS":"海佃路三段２２２號","OBJECTID":630970},"geometry":{"x":166012.11999999918,"y":2550215.3200000003}},{"attributes":{"ID":630998,"DIS_CODE":0,"TOWNNAME":"安南區","LI":"溪心里","LIN":"17鄰","STREET":"海佃路","SECT":"三段","MAREA":" ","LANE":" ","ALLEY":" ","HOUSE_NO":"２２６號","E_COORD97":166010.23999999999,"N_COORD97":2550218.9700000002,"ADDRESS":"海佃路三段２２６號","OBJECTID":630971},"geometry":{"x":166010.24000000115,"y":2550218.9700000007}},{"attributes":{"ID":630999,"DIS_CODE":0,"TOWNNAME":"安南區","LI":"溪心里","LIN":"17鄰","STREET":"功安三街","SECT":" ","MAREA":" ","LANE":" ","ALLEY":" ","HOUSE_NO":"１０１號","E_COORD97":166055.32000000001,"N_COORD97":2550222.9399999999,"ADDRESS":"功安三街１０１號","OBJECTID":630972},"geometry":{"x":166055.32000000123,"y":2550222.9400000013}},{"attributes":{"ID":631000,"DIS_CODE":0,"TOWNNAME":"安南區","LI":"溪心里","LIN":"17鄰","STREET":"功安三街","SECT":" ","MAREA":" ","LANE":" ","ALLEY":" ","HOUSE_NO":"１０３號","E_COORD97":166051.82999999999,"N_COORD97":2550226.27,"ADDRESS":"功安三街１０３號","OBJECTID":630973},"geometry":{"x":166051.83000000101,"y":2550226.2700000033}},{"attributes":{"ID":631001,"DIS_CODE":0,"TOWNNAME":"安南區","LI":"溪心里","LIN":"17鄰","STREET":"功安三街","SECT":" ","MAREA":" ","LANE":" ","ALLEY":" ","HOUSE_NO":"１０５號","E_COORD97":166049.29000000001,"N_COORD97":2550229.9300000002,"ADDRESS":"功安三街１０５號","OBJECTID":630974},"geometry":{"x":166049.29000000004,"y":2550229.9300000016}},{"attributes":{"ID":631002,"DIS_CODE":0,"TOWNNAME":"安南區","LI":"溪心里","LIN":"17鄰","STREET":"功安三街","SECT":" ","MAREA":" ","LANE":" ","ALLEY":" ","HOUSE_NO":"１０７號","E_COORD97":166046.26999999999,"N_COORD97":2550233.2599999998,"ADDRESS":"功安三街１０７號","OBJECTID":630975},"geometry":{"x":166046.27000000142,"y":2550233.2599999979}},{"attributes":{"ID":631003,"DIS_CODE":0,"TOWNNAME":"安南區","LI":"溪心里","LIN":"17鄰","STREET":"功安三街","SECT":" ","MAREA":" ","LANE":" ","ALLEY":" ","HOUSE_NO":"１０９號","E_COORD97":166043.73000000001,"N_COORD97":2550237.23,"ADDRESS":"功安三街１０９號","OBJECTID":630976},"geometry":{"x":166043.73000000045,"y":2550237.2300000004}},{"attributes":{"ID":631004,"DIS_CODE":0,"TOWNNAME":"安南區","LI":"溪心里","LIN":"17鄰","STREET":"功安三街","SECT":" ","MAREA":" ","LANE":" ","ALLEY":" ","HOUSE_NO":"１１１號","E_COORD97":166041.35000000001,"N_COORD97":2550240.8799999999,"ADDRESS":"功安三街１１１號","OBJECTID":630977},"geometry":{"x":166041.35000000056,"y":2550240.879999999}},{"attributes":{"ID":631005,"DIS_CODE":0,"TOWNNAME":"安南區","LI":"溪心里","LIN":"17鄰","STREET":"功安三街","SECT":" ","MAREA":" ","LANE":" ","ALLEY":" ","HOUSE_NO":"１１３號","E_COORD97":166039.60999999999,"N_COORD97":2550243.7400000002,"ADDRESS":"功安三街１１３號","OBJECTID":630978},"geometry":{"x":166039.6099999994,"y":2550243.7400000002}},{"attributes":{"ID":631006,"DIS_CODE":0,"TOWNNAME":"安南區","LI":"溪心里","LIN":"17鄰","STREET":"功安三街","SECT":" ","MAREA":" ","LANE":" ","ALLEY":" ","HOUSE_NO":"１１５號","E_COORD97":166036.42999999999,"N_COORD97":2550246.4399999999,"ADDRESS":"功安三街１１５號","OBJECTID":630979},"geometry":{"x":166036.4299999997,"y":2550246.4400000013}},{"attributes":{"ID":631007,"DIS_CODE":0,"TOWNNAME":"安南區","LI":"溪心里","LIN":"17鄰","STREET":"功安四街","SECT":" ","MAREA":" ","LANE":" ","ALLEY":" ","HOUSE_NO":"１４７號","E_COORD97":166098.92999999999,"N_COORD97":2550272.2599999998,"ADDRESS":"功安四街１４７號","OBJECTID":630980},"geometry":{"x":166098.9299999997,"y":2550272.2600000016}},{"attributes":{"ID":631008,"DIS_CODE":0,"TOWNNAME":"安南區","LI":"溪心里","LIN":"15鄰","STREET":"本原街","SECT":"二段","MAREA":" ","LANE":" ","ALLEY":" ","HOUSE_NO":"５３９號","E_COORD97":165863.66,"N_COORD97":2550472.9199999999,"ADDRESS":"本原街二段５３９號","OBJECTID":630981},"geometry":{"x":165863.66000000108,"y":2550472.9199999999}},{"attributes":{"ID":631009,"DIS_CODE":0,"TOWNNAME":"安南區","LI":"溪心里","LIN":"15鄰","STREET":"本原街","SECT":"二段","MAREA":" ","LANE":" ","ALLEY":" ","HOUSE_NO":"５４１號","E_COORD97":165859.06,"N_COORD97":2550471.9700000002,"ADDRESS":"本原街二段５４１號","OBJECTID":630982},"geometry":{"x":165859.05999999959,"y":2550471.9700000007}},{"attributes":{"ID":631010,"DIS_CODE":0,"TOWNNAME":"安南區","LI":"溪心里","LIN":"15鄰","STREET":"本原街","SECT":"二段","MAREA":" ","LANE":" ","ALLEY":" ","HOUSE_NO":"５４３號","E_COORD97":165855.72,"N_COORD97":2550469.75,"ADDRESS":"本原街二段５４３號","OBJECTID":630983},"geometry":{"x":165855.72000000067,"y":2550469.75}},{"attributes":{"ID":631011,"DIS_CODE":0,"TOWNNAME":"安南區","LI":"新順里","LIN":"25鄰","STREET":"興安路","SECT":" ","MAREA":" ","LANE":" ","ALLEY":" ","HOUSE_NO":"１３１號","E_COORD97":169297.16,"N_COORD97":2549126.9100000001,"ADDRESS":"興安路１３１號","OBJECTID":630984},"geometry":{"x":169297.16000000015,"y":2549126.9100000001}},{"attributes":{"ID":631012,"DIS_CODE":0,"TOWNNAME":"東區","LI":"文聖里","LIN":"4鄰","STREET":"裕文路","SECT":" ","MAREA":" ","LANE":" ","ALLEY":" ","HOUSE_NO":"１７號","E_COORD97":171832.29000000001,"N_COORD97":2542615.5600000001,"ADDRESS":"裕文路１７號","OBJECTID":630985},"geometry":{"x":171832.2900000019,"y":2542615.5600000024}},{"attributes":{"ID":631013,"DIS_CODE":0,"TOWNNAME":"白河區","LI":"永安里","LIN":"6鄰","STREET":"六合街","SECT":" ","MAREA":" ","LANE":" ","ALLEY":" ","HOUSE_NO":"９８號","E_COORD97":189841.42999999999,"N_COORD97":2583004.1699999999,"ADDRESS":"六合街９８號","OBJECTID":630986},"geometry":{"x":189841.43000000063,"y":2583004.1699999999}},{"attributes":{"ID":631014,"DIS_CODE":0,"TOWNNAME":"東區","LI":"東明里","LIN":"23鄰","STREET":"東安路","SECT":" ","MAREA":" ","LANE":" ","ALLEY":" ","HOUSE_NO":"１８號","E_COORD97":170672.79999999999,"N_COORD97":2543519.1299999999,"ADDRESS":"東安路１８號","OBJECTID":630987},"geometry":{"x":170672.80000000075,"y":2543519.129999999}},{"attributes":{"ID":631015,"DIS_CODE":0,"TOWNNAME":"東區","LI":"文聖里","LIN":"3鄰","STREET":"裕農一街","SECT":" ","MAREA":" ","LANE":" ","ALLEY":" ","HOUSE_NO":"１６８號","E_COORD97":171913.20999999999,"N_COORD97":2542731.9700000002,"ADDRESS":"裕農一街１６８號","OBJECTID":630988},"geometry":{"x":171913.21000000089,"y":2542731.9700000007}},{"attributes":{"ID":631016,"DIS_CODE":0,"TOWNNAME":"東區","LI":"小東里","LIN":"30鄰","STREET":"東安路","SECT":" ","MAREA":" ","LANE":" ","ALLEY":" ","HOUSE_NO":"２４３號","E_COORD97":170768.84,"N_COORD97":2544089.6299999999,"ADDRESS":"東安路２４３號","OBJECTID":630989},"geometry":{"x":170768.84000000171,"y":2544089.629999999}},{"attributes":{"ID":631017,"DIS_CODE":0,"TOWNNAME":"東區","LI":"小東里","LIN":"30鄰","STREET":"東安路","SECT":" ","MAREA":" ","LANE":" ","ALLEY":" ","HOUSE_NO":"２２３號","E_COORD97":170757.03,"N_COORD97":2544040.7799999998,"ADDRESS":"東安路２２３號","OBJECTID":630990},"geometry":{"x":170757.03000000026,"y":2544040.7799999993}},{"attributes":{"ID":631018,"DIS_CODE":0,"TOWNNAME":"東區","LI":"小東里","LIN":"30鄰","STREET":"東安路","SECT":" ","MAREA":" ","LANE":" ","ALLEY":" ","HOUSE_NO":"２２５號","E_COORD97":170758.20999999999,"N_COORD97":2544045.9700000002,"ADDRESS":"東安路２２５號","OBJECTID":630991},"geometry":{"x":170758.21000000089,"y":2544045.9700000025}},{"attributes":{"ID":631019,"DIS_CODE":0,"TOWNNAME":"東區","LI":"小東里","LIN":"30鄰","STREET":"東安路","SECT":" ","MAREA":" ","LANE":" ","ALLEY":" ","HOUSE_NO":"２２７號","E_COORD97":170759.75,"N_COORD97":2544050.7000000002,"ADDRESS":"東安路２２７號","OBJECTID":630992},"geometry":{"x":170759.75000000093,"y":2544050.7000000011}},{"attributes":{"ID":631020,"DIS_CODE":0,"TOWNNAME":"東區","LI":"小東里","LIN":"30鄰","STREET":"東安路","SECT":" ","MAREA":" ","LANE":" ","ALLEY":" ","HOUSE_NO":"２２９號","E_COORD97":170760.92999999999,"N_COORD97":2544055.77,"ADDRESS":"東安路２２９號","OBJECTID":630993},"geometry":{"x":170760.9299999997,"y":2544055.7700000033}},{"attributes":{"ID":631021,"DIS_CODE":0,"TOWNNAME":"東區","LI":"文聖里","LIN":"3鄰","STREET":"裕農一街","SECT":" ","MAREA":" ","LANE":" ","ALLEY":" ","HOUSE_NO":"１６２號","E_COORD97":171907.42999999999,"N_COORD97":2542758.6699999999,"ADDRESS":"裕農一街１６２號","OBJECTID":630994},"geometry":{"x":171907.43000000063,"y":2542758.6700000037}},{"attributes":{"ID":631022,"DIS_CODE":0,"TOWNNAME":"東區","LI":"泉南里","LIN":"20鄰","STREET":"府連東路","SECT":" ","MAREA":" ","LANE":" ","ALLEY":" ","HOUSE_NO":"１８號","E_COORD97":169726.12,"N_COORD97":2542779.75,"ADDRESS":"府連東路１８號","OBJECTID":630995},"geometry":{"x":169726.12000000011,"y":2542779.7500000019}},{"attributes":{"ID":631023,"DIS_CODE":0,"TOWNNAME":"東區","LI":"崇德里","LIN":"8鄰","STREET":"崇善路","SECT":" ","MAREA":" ","LANE":" ","ALLEY":" ","HOUSE_NO":"３５６號","E_COORD97":170904.13,"N_COORD97":2541802.9300000002,"ADDRESS":"崇善路３５６號","OBJECTID":630996},"geometry":{"x":170904.12999999896,"y":2541802.9299999997}},{"attributes":{"ID":631024,"DIS_CODE":0,"TOWNNAME":"東區","LI":"東智里","LIN":"4鄰","STREET":"崇德二十六街","SECT":" ","MAREA":" ","LANE":" ","ALLEY":" ","HOUSE_NO":"３７號","E_COORD97":170887.60999999999,"N_COORD97":2540332.2799999998,"ADDRESS":"崇德二十六街３７號","OBJECTID":630997},"geometry":{"x":170887.61000000034,"y":2540332.2799999993}},{"attributes":{"ID":631025,"DIS_CODE":0,"TOWNNAME":"東區","LI":"東智里","LIN":"4鄰","STREET":"崇德二十六街","SECT":" ","MAREA":" ","LANE":" ","ALLEY":" ","HOUSE_NO":"４８號","E_COORD97":170887.26000000001,"N_COORD97":2540320.2999999998,"ADDRESS":"崇德二十六街４８號","OBJECTID":630998},"geometry":{"x":170887.25999999978,"y":2540320.3000000007}},{"attributes":{"ID":631026,"DIS_CODE":0,"TOWNNAME":"東區","LI":"東智里","LIN":"4鄰","STREET":"崇德二十六街","SECT":" ","MAREA":" ","LANE":" ","ALLEY":" ","HOUSE_NO":"３５號","E_COORD97":170886.76000000001,"N_COORD97":2540336.6499999999,"ADDRESS":"崇德二十六街３５號","OBJECTID":630999},"geometry":{"x":170886.76000000071,"y":2540336.6500000004}},{"attributes":{"ID":631027,"DIS_CODE":0,"TOWNNAME":"東區","LI":"東智里","LIN":"4鄰","STREET":"崇德二十六街","SECT":" ","MAREA":" ","LANE":" ","ALLEY":" ","HOUSE_NO":"４６號","E_COORD97":170887.12,"N_COORD97":2540316.5,"ADDRESS":"崇德二十六街４６號","OBJECTID":631000},"geometry":{"x":170887.12000000011,"y":2540316.5000000019}}]}