{"displayFieldName":"TOWNNAME","fieldAliases":{"ID":"ID","DIS_CODE":"DIS_CODE","TOWNNAME":"TOWNNAME","LI":"LI","LIN":"LIN","STREET":"STREET","SECT":"SECT","MAREA":"MAREA","LANE":"LANE","ALLEY":"ALLEY","HOUSE_NO":"HOUSE_NO","E_COORD97":"E_COORD97","N_COORD97":"N_COORD97","ADDRESS":"ADDRESS","OBJECTID":"OBJECTID"},"geometryType":"esriGeometryPoint","spatialReference":{"wkid":102443,"latestWkid":3826},"fields":[{"name":"ID","type":"esriFieldTypeDouble","alias":"ID"},{"name":"DIS_CODE","type":"esriFieldTypeInteger","alias":"DIS_CODE"},{"name":"TOWNNAME","type":"esriFieldTypeString","alias":"TOWNNAME","length":8},{"name":"LI","type":"esriFieldTypeString","alias":"LI","length":8},{"name":"LIN","type":"esriFieldTypeString","alias":"LIN","length":12},{"name":"STREET","type":"esriFieldTypeString","alias":"STREET","length":20},{"name":"SECT","type":"esriFieldTypeString","alias":"SECT","length":8},{"name":"MAREA","type":"esriFieldTypeString","alias":"MAREA","length":12},{"name":"LANE","type":"esriFieldTypeString","alias":"LANE","length":10},{"name":"ALLEY","type":"esriFieldTypeString","alias":"ALLEY","length":10},{"name":"HOUSE_NO","type":"esriFieldTypeString","alias":"HOUSE_NO","length":20},{"name":"E_COORD97","type":"esriFieldTypeDouble","alias":"E_COORD97"},{"name":"N_COORD97","type":"esriFieldTypeDouble","alias":"N_COORD97"},{"name":"ADDRESS","type":"esriFieldTypeString","alias":"ADDRESS","length":50},{"name":"OBJECTID","type":"esriFieldTypeOID","alias":"OBJECTID"}],"features":[{"attributes":{"ID":492628,"DIS_CODE":0,"TOWNNAME":"安平區","LI":"平安里","LIN":"9鄰","STREET":"安平路","SECT":" ","MAREA":" ","LANE":"４２６巷","ALLEY":" ","HOUSE_NO":"２０號之４五樓","E_COORD97":165359.62283000001,"N_COORD97":2544383.0450400002,"ADDRESS":"安平路４２６巷２０號之４五樓","OBJECTID":492601},"geometry":{"x":165359.62283000071,"y":2544383.0450400002}},{"attributes":{"ID":492629,"DIS_CODE":0,"TOWNNAME":"安平區","LI":"平安里","LIN":"9鄰","STREET":"安平路","SECT":" ","MAREA":" ","LANE":"４２６巷","ALLEY":" ","HOUSE_NO":"３６號之３","E_COORD97":165369.68844100001,"N_COORD97":2544410.77336,"ADDRESS":"安平路４２６巷３６號之３","OBJECTID":492602},"geometry":{"x":165369.68844099995,"y":2544410.7733610012}},{"attributes":{"ID":492630,"DIS_CODE":0,"TOWNNAME":"安平區","LI":"平安里","LIN":"9鄰","STREET":"安平路","SECT":" ","MAREA":" ","LANE":"４２６巷","ALLEY":" ","HOUSE_NO":"２４號之１","E_COORD97":165381.025494,"N_COORD97":2544378.3883799999,"ADDRESS":"安平路４２６巷２４號之１","OBJECTID":492603},"geometry":{"x":165381.02549400087,"y":2544378.388379002}},{"attributes":{"ID":492631,"DIS_CODE":0,"TOWNNAME":"安平區","LI":"平安里","LIN":"9鄰","STREET":"安平路","SECT":" ","MAREA":" ","LANE":"４２６巷","ALLEY":" ","HOUSE_NO":"２４號之４","E_COORD97":165380.60167900001,"N_COORD97":2544378.1767099998,"ADDRESS":"安平路４２６巷２４號之４","OBJECTID":492604},"geometry":{"x":165380.60167900193,"y":2544378.1767120007}},{"attributes":{"ID":492632,"DIS_CODE":0,"TOWNNAME":"安平區","LI":"平安里","LIN":"9鄰","STREET":"安平路","SECT":" ","MAREA":" ","LANE":"４２６巷","ALLEY":" ","HOUSE_NO":"２８號之１二樓","E_COORD97":165401.79243,"N_COORD97":2544374.1550400001,"ADDRESS":"安平路４２６巷２８號之１二樓","OBJECTID":492605},"geometry":{"x":165401.79243000131,"y":2544374.1550399996}},{"attributes":{"ID":492633,"DIS_CODE":0,"TOWNNAME":"安平區","LI":"平安里","LIN":"9鄰","STREET":"安平路","SECT":" ","MAREA":" ","LANE":"４２６巷","ALLEY":" ","HOUSE_NO":"３２號之２","E_COORD97":165407.09012000001,"N_COORD97":2544399.3433699999,"ADDRESS":"安平路４２６巷３２號之２","OBJECTID":492606},"geometry":{"x":165407.09012000076,"y":2544399.3433680031}},{"attributes":{"ID":492634,"DIS_CODE":0,"TOWNNAME":"安平區","LI":"平安里","LIN":"9鄰","STREET":"安平路","SECT":" ","MAREA":" ","LANE":"４２６巷","ALLEY":" ","HOUSE_NO":"３４號之２","E_COORD97":165396.49474299999,"N_COORD97":2544402.09503,"ADDRESS":"安平路４２６巷３４號之２","OBJECTID":492607},"geometry":{"x":165396.49474300072,"y":2544402.095033003}},{"attributes":{"ID":492635,"DIS_CODE":0,"TOWNNAME":"安平區","LI":"平安里","LIN":"9鄰","STREET":"安平路","SECT":" ","MAREA":" ","LANE":"４２６巷","ALLEY":" ","HOUSE_NO":"３４號之４","E_COORD97":165395.85902100001,"N_COORD97":2544401.6716999998,"ADDRESS":"安平路４２６巷３４號之４","OBJECTID":492608},"geometry":{"x":165395.8590210015,"y":2544401.6717000008}},{"attributes":{"ID":492636,"DIS_CODE":0,"TOWNNAME":"安平區","LI":"平安里","LIN":"9鄰","STREET":"安平路","SECT":" ","MAREA":" ","LANE":"４２６巷","ALLEY":" ","HOUSE_NO":"３８號之１","E_COORD97":165358.033528,"N_COORD97":2544413.31336,"ADDRESS":"安平路４２６巷３８號之１","OBJECTID":492609},"geometry":{"x":165358.03352800012,"y":2544413.31336}},{"attributes":{"ID":492637,"DIS_CODE":0,"TOWNNAME":"仁德區","LI":"太子里","LIN":"29鄰","STREET":"太子四街","SECT":" ","MAREA":" ","LANE":"３１巷","ALLEY":" ","HOUSE_NO":"３號","E_COORD97":173080.59855200001,"N_COORD97":2543060.05847,"ADDRESS":"太子四街３１巷３號","OBJECTID":492610},"geometry":{"x":173080.59855200071,"y":2543060.0584699996}},{"attributes":{"ID":492638,"DIS_CODE":0,"TOWNNAME":"南區","LI":"永寧里","LIN":"13鄰","STREET":"灣裡路","SECT":" ","MAREA":" ","LANE":"２３８巷","ALLEY":" ","HOUSE_NO":"１６號","E_COORD97":166000.60000000001,"N_COORD97":2536477.75,"ADDRESS":"灣裡路２３８巷１６號","OBJECTID":492611},"geometry":{"x":166000.60000000056,"y":2536477.75}},{"attributes":{"ID":492639,"DIS_CODE":0,"TOWNNAME":"南區","LI":"永寧里","LIN":"13鄰","STREET":"灣裡路","SECT":" ","MAREA":" ","LANE":"２３８巷","ALLEY":" ","HOUSE_NO":"１８號","E_COORD97":165983.42999999999,"N_COORD97":2536472.1899999999,"ADDRESS":"灣裡路２３８巷１８號","OBJECTID":492612},"geometry":{"x":165983.43000000063,"y":2536472.1900000032}},{"attributes":{"ID":492640,"DIS_CODE":0,"TOWNNAME":"南區","LI":"永寧里","LIN":"13鄰","STREET":"灣裡路","SECT":" ","MAREA":" ","LANE":"２１８巷","ALLEY":" ","HOUSE_NO":"１１號","E_COORD97":165973.91,"N_COORD97":2536514.21,"ADDRESS":"灣裡路２１８巷１１號","OBJECTID":492613},"geometry":{"x":165973.91000000015,"y":2536514.2100000046}},{"attributes":{"ID":492641,"DIS_CODE":0,"TOWNNAME":"南區","LI":"永寧里","LIN":"13鄰","STREET":"灣裡路","SECT":" ","MAREA":" ","LANE":"２１８巷","ALLEY":" ","HOUSE_NO":"１３號","E_COORD97":165979.25,"N_COORD97":2536504.2400000002,"ADDRESS":"灣裡路２１８巷１３號","OBJECTID":492614},"geometry":{"x":165979.25000000093,"y":2536504.2400000021}},{"attributes":{"ID":492642,"DIS_CODE":0,"TOWNNAME":"南區","LI":"永寧里","LIN":"13鄰","STREET":"灣裡路","SECT":" ","MAREA":" ","LANE":"２１８巷","ALLEY":" ","HOUSE_NO":"１號","E_COORD97":166031.67000000001,"N_COORD97":2536503.3700000001,"ADDRESS":"灣裡路２１８巷１號","OBJECTID":492615},"geometry":{"x":166031.66999999993,"y":2536503.3700000029}},{"attributes":{"ID":492643,"DIS_CODE":0,"TOWNNAME":"南區","LI":"永寧里","LIN":"13鄰","STREET":"灣裡路","SECT":" ","MAREA":" ","LANE":"２１８巷","ALLEY":" ","HOUSE_NO":"３號","E_COORD97":166013.37,"N_COORD97":2536508.6400000001,"ADDRESS":"灣裡路２１８巷３號","OBJECTID":492616},"geometry":{"x":166013.37000000011,"y":2536508.6400000025}},{"attributes":{"ID":492644,"DIS_CODE":0,"TOWNNAME":"南區","LI":"永寧里","LIN":"13鄰","STREET":"灣裡路","SECT":" ","MAREA":" ","LANE":"２１８巷","ALLEY":" ","HOUSE_NO":"５號","E_COORD97":165991.32000000001,"N_COORD97":2536497.75,"ADDRESS":"灣裡路２１８巷５號","OBJECTID":492617},"geometry":{"x":165991.32000000123,"y":2536497.75}},{"attributes":{"ID":492645,"DIS_CODE":0,"TOWNNAME":"南區","LI":"永寧里","LIN":"13鄰","STREET":"灣裡路","SECT":" ","MAREA":" ","LANE":"２１８巷","ALLEY":" ","HOUSE_NO":"７號","E_COORD97":165998.04999999999,"N_COORD97":2536508.0600000001,"ADDRESS":"灣裡路２１８巷７號","OBJECTID":492618},"geometry":{"x":165998.04999999981,"y":2536508.0600000042}},{"attributes":{"ID":492646,"DIS_CODE":0,"TOWNNAME":"南區","LI":"永寧里","LIN":"13鄰","STREET":"灣裡路","SECT":" ","MAREA":" ","LANE":"２１８巷","ALLEY":" ","HOUSE_NO":"９號","E_COORD97":165985.28,"N_COORD97":2536515.9500000002,"ADDRESS":"灣裡路２１８巷９號","OBJECTID":492619},"geometry":{"x":165985.28000000026,"y":2536515.9499999993}},{"attributes":{"ID":492647,"DIS_CODE":0,"TOWNNAME":"南區","LI":"喜南里","LIN":"13鄰","STREET":"喜樹路","SECT":" ","MAREA":" ","LANE":"２２２巷","ALLEY":" ","HOUSE_NO":"２１號","E_COORD97":165655.19,"N_COORD97":2538007.0600000001,"ADDRESS":"喜樹路２２２巷２１號","OBJECTID":492620},"geometry":{"x":165655.19000000134,"y":2538007.0600000024}},{"attributes":{"ID":492648,"DIS_CODE":0,"TOWNNAME":"南區","LI":"喜南里","LIN":"13鄰","STREET":"喜樹路","SECT":" ","MAREA":" ","LANE":"２２２巷","ALLEY":" ","HOUSE_NO":"２３號","E_COORD97":165645.25,"N_COORD97":2538007.0600000001,"ADDRESS":"喜樹路２２２巷２３號","OBJECTID":492621},"geometry":{"x":165645.25000000093,"y":2538007.0600000024}},{"attributes":{"ID":492649,"DIS_CODE":0,"TOWNNAME":"仁德區","LI":"成功里","LIN":"1鄰","STREET":"保生東路","SECT":" ","MAREA":" ","LANE":"１３８巷","ALLEY":"６弄","HOUSE_NO":"８號","E_COORD97":171205.174642,"N_COORD97":2539565.80541,"ADDRESS":"保生東路１３８巷６弄８號","OBJECTID":492622},"geometry":{"x":171205.17464200035,"y":2539565.8054130021}},{"attributes":{"ID":492650,"DIS_CODE":0,"TOWNNAME":"仁德區","LI":"成功里","LIN":"1鄰","STREET":"保生東路","SECT":" ","MAREA":" ","LANE":"１３８巷","ALLEY":"６弄","HOUSE_NO":"１８號","E_COORD97":171203.056603,"N_COORD97":2539549.0308400001,"ADDRESS":"保生東路１３８巷６弄１８號","OBJECTID":492623},"geometry":{"x":171203.05660299957,"y":2539549.0308389999}},{"attributes":{"ID":492651,"DIS_CODE":0,"TOWNNAME":"南區","LI":"文南里","LIN":"26鄰","STREET":"南功街","SECT":" ","MAREA":" ","LANE":" ","ALLEY":" ","HOUSE_NO":"５３號","E_COORD97":166495.64999999999,"N_COORD97":2542822.25,"ADDRESS":"南功街５３號","OBJECTID":492624},"geometry":{"x":166495.6500000013,"y":2542822.2500000037}},{"attributes":{"ID":492652,"DIS_CODE":0,"TOWNNAME":"南區","LI":"文南里","LIN":"26鄰","STREET":"南功街","SECT":" ","MAREA":" ","LANE":" ","ALLEY":" ","HOUSE_NO":"５５號","E_COORD97":166487.60999999999,"N_COORD97":2542823.1200000001,"ADDRESS":"南功街５５號","OBJECTID":492625},"geometry":{"x":166487.61000000127,"y":2542823.120000001}},{"attributes":{"ID":492653,"DIS_CODE":0,"TOWNNAME":"永康區","LI":"\u25A0行里","LIN":"1鄰","STREET":"中正北路","SECT":" ","MAREA":" ","LANE":" ","ALLEY":" ","HOUSE_NO":"５４號四樓之１","E_COORD97":172007.85000000001,"N_COORD97":2549058.5800000001,"ADDRESS":"中正北路５４號四樓之１","OBJECTID":492626},"geometry":{"x":172007.85000000149,"y":2549058.5800000038}},{"attributes":{"ID":492654,"DIS_CODE":0,"TOWNNAME":"南區","LI":"文南里","LIN":"20鄰","STREET":"南功街","SECT":" ","MAREA":" ","LANE":" ","ALLEY":" ","HOUSE_NO":"５８號","E_COORD97":166515.51000000001,"N_COORD97":2542730.3599999999,"ADDRESS":"南功街５８號","OBJECTID":492627},"geometry":{"x":166515.50999999978,"y":2542730.3600000013}},{"attributes":{"ID":492655,"DIS_CODE":0,"TOWNNAME":"南區","LI":"文南里","LIN":"20鄰","STREET":"南功街","SECT":" ","MAREA":" ","LANE":" ","ALLEY":" ","HOUSE_NO":"６６號","E_COORD97":166515.89000000001,"N_COORD97":2542750.54,"ADDRESS":"南功街６６號","OBJECTID":492628},"geometry":{"x":166515.8900000006,"y":2542750.5399999991}},{"attributes":{"ID":492656,"DIS_CODE":0,"TOWNNAME":"南區","LI":"文南里","LIN":"26鄰","STREET":"南功街","SECT":" ","MAREA":" ","LANE":" ","ALLEY":" ","HOUSE_NO":"５７號","E_COORD97":166473.73999999999,"N_COORD97":2542825.0699999998,"ADDRESS":"南功街５７號","OBJECTID":492629},"geometry":{"x":166473.74000000022,"y":2542825.0700000022}},{"attributes":{"ID":492657,"DIS_CODE":0,"TOWNNAME":"南區","LI":"文南里","LIN":"26鄰","STREET":"南功街","SECT":" ","MAREA":" ","LANE":" ","ALLEY":" ","HOUSE_NO":"５９號","E_COORD97":166466.57000000001,"N_COORD97":2542825.9399999999,"ADDRESS":"南功街５９號","OBJECTID":492630},"geometry":{"x":166466.5700000003,"y":2542825.9399999995}},{"attributes":{"ID":492658,"DIS_CODE":0,"TOWNNAME":"南區","LI":"文南里","LIN":"26鄰","STREET":"南功街","SECT":" ","MAREA":" ","LANE":" ","ALLEY":" ","HOUSE_NO":"６１號","E_COORD97":166458.54999999999,"N_COORD97":2542826.7999999998,"ADDRESS":"南功街６１號","OBJECTID":492631},"geometry":{"x":166458.55000000075,"y":2542826.8000000026}},{"attributes":{"ID":492659,"DIS_CODE":0,"TOWNNAME":"南區","LI":"文南里","LIN":"26鄰","STREET":"南功街","SECT":" ","MAREA":" ","LANE":" ","ALLEY":" ","HOUSE_NO":"６３號","E_COORD97":166448.35000000001,"N_COORD97":2542827.0299999998,"ADDRESS":"南功街６３號","OBJECTID":492632},"geometry":{"x":166448.35000000056,"y":2542827.0300000012}},{"attributes":{"ID":492660,"DIS_CODE":0,"TOWNNAME":"南區","LI":"文南里","LIN":"26鄰","STREET":"南功街","SECT":" ","MAREA":" ","LANE":" ","ALLEY":" ","HOUSE_NO":"６５號","E_COORD97":166440.10999999999,"N_COORD97":2542827.0299999998,"ADDRESS":"南功街６５號","OBJECTID":492633},"geometry":{"x":166440.11000000127,"y":2542827.0300000012}},{"attributes":{"ID":492661,"DIS_CODE":0,"TOWNNAME":"南區","LI":"文南里","LIN":"26鄰","STREET":"南功街","SECT":" ","MAREA":" ","LANE":" ","ALLEY":" ","HOUSE_NO":"６７號","E_COORD97":166429.48000000001,"N_COORD97":2542818.3500000001,"ADDRESS":"南功街６７號","OBJECTID":492634},"geometry":{"x":166429.48000000138,"y":2542818.3500000015}},{"attributes":{"ID":492662,"DIS_CODE":0,"TOWNNAME":"永康區","LI":"\u25A0行里","LIN":"1鄰","STREET":"中正北路","SECT":" ","MAREA":" ","LANE":" ","ALLEY":" ","HOUSE_NO":"５４號四樓之１３","E_COORD97":172009.20000000001,"N_COORD97":2549058.5800000001,"ADDRESS":"中正北路５４號四樓之１３","OBJECTID":492635},"geometry":{"x":172009.20000000019,"y":2549058.5800000038}},{"attributes":{"ID":492663,"DIS_CODE":0,"TOWNNAME":"永康區","LI":"\u25A0行里","LIN":"1鄰","STREET":"中正北路","SECT":" ","MAREA":" ","LANE":" ","ALLEY":" ","HOUSE_NO":"５４號四樓之９","E_COORD97":172007.92999999999,"N_COORD97":2549058.5800000001,"ADDRESS":"中正北路５４號四樓之９","OBJECTID":492636},"geometry":{"x":172007.93000000063,"y":2549058.5800000038}},{"attributes":{"ID":492664,"DIS_CODE":0,"TOWNNAME":"永康區","LI":"\u25A0行里","LIN":"1鄰","STREET":"中正北路","SECT":" ","MAREA":" ","LANE":" ","ALLEY":" ","HOUSE_NO":"５４號五樓之７","E_COORD97":172007.92999999999,"N_COORD97":2549058.5800000001,"ADDRESS":"中正北路５４號五樓之７","OBJECTID":492637},"geometry":{"x":172007.93000000063,"y":2549058.5800000038}},{"attributes":{"ID":492665,"DIS_CODE":0,"TOWNNAME":"永康區","LI":"\u25A0行里","LIN":"1鄰","STREET":"中正北路","SECT":" ","MAREA":" ","LANE":" ","ALLEY":" ","HOUSE_NO":"５４號七樓之１","E_COORD97":172007.85000000001,"N_COORD97":2549058.5800000001,"ADDRESS":"中正北路５４號七樓之１","OBJECTID":492638},"geometry":{"x":172007.85000000149,"y":2549058.5800000038}},{"attributes":{"ID":492666,"DIS_CODE":0,"TOWNNAME":"永康區","LI":"\u25A0行里","LIN":"1鄰","STREET":"中正北路","SECT":" ","MAREA":" ","LANE":" ","ALLEY":" ","HOUSE_NO":"５４號五樓之５","E_COORD97":172008,"N_COORD97":2549058.5800000001,"ADDRESS":"中正北路５４號五樓之５","OBJECTID":492639},"geometry":{"x":172008,"y":2549058.5800000038}},{"attributes":{"ID":492667,"DIS_CODE":0,"TOWNNAME":"永康區","LI":"\u25A0行里","LIN":"1鄰","STREET":"中正北路","SECT":" ","MAREA":" ","LANE":" ","ALLEY":" ","HOUSE_NO":"５４號六樓之７","E_COORD97":172007.92999999999,"N_COORD97":2549058.5800000001,"ADDRESS":"中正北路５４號六樓之７","OBJECTID":492640},"geometry":{"x":172007.93000000063,"y":2549058.5800000038}},{"attributes":{"ID":492668,"DIS_CODE":0,"TOWNNAME":"永康區","LI":"\u25A0行里","LIN":"1鄰","STREET":"中正北路","SECT":" ","MAREA":" ","LANE":" ","ALLEY":" ","HOUSE_NO":"５４號八樓之５","E_COORD97":172008,"N_COORD97":2549058.5800000001,"ADDRESS":"中正北路５４號八樓之５","OBJECTID":492641},"geometry":{"x":172008,"y":2549058.5800000038}},{"attributes":{"ID":492669,"DIS_CODE":0,"TOWNNAME":"永康區","LI":"\u25A0行里","LIN":"1鄰","STREET":"中正北路","SECT":" ","MAREA":" ","LANE":" ","ALLEY":" ","HOUSE_NO":"５４號五樓之３","E_COORD97":172007.95000000001,"N_COORD97":2549058.5800000001,"ADDRESS":"中正北路５４號五樓之３","OBJECTID":492642},"geometry":{"x":172007.95000000112,"y":2549058.5800000038}},{"attributes":{"ID":492670,"DIS_CODE":0,"TOWNNAME":"永康區","LI":"\u25A0行里","LIN":"1鄰","STREET":"中正北路","SECT":" ","MAREA":" ","LANE":" ","ALLEY":" ","HOUSE_NO":"５４號四樓之１２","E_COORD97":172009.23000000001,"N_COORD97":2549058.5800000001,"ADDRESS":"中正北路５４號四樓之１２","OBJECTID":492643},"geometry":{"x":172009.23000000045,"y":2549058.5800000038}},{"attributes":{"ID":492671,"DIS_CODE":0,"TOWNNAME":"永康區","LI":"\u25A0行里","LIN":"1鄰","STREET":"中正北路","SECT":" ","MAREA":" ","LANE":" ","ALLEY":" ","HOUSE_NO":"５４號五樓之１","E_COORD97":172007.85000000001,"N_COORD97":2549058.5800000001,"ADDRESS":"中正北路５４號五樓之１","OBJECTID":492644},"geometry":{"x":172007.85000000149,"y":2549058.5800000038}},{"attributes":{"ID":492672,"DIS_CODE":0,"TOWNNAME":"永康區","LI":"蔦松里","LIN":"1鄰","STREET":"蔦松二街","SECT":" ","MAREA":" ","LANE":" ","ALLEY":" ","HOUSE_NO":"１１４號四樓之３","E_COORD97":173793.88,"N_COORD97":2549352.3300000001,"ADDRESS":"蔦松二街１１４號四樓之３","OBJECTID":492645},"geometry":{"x":173793.87999999989,"y":2549352.3300000019}},{"attributes":{"ID":492673,"DIS_CODE":0,"TOWNNAME":"永康區","LI":"\u25A0行里","LIN":"1鄰","STREET":"中正北路","SECT":" ","MAREA":" ","LANE":" ","ALLEY":" ","HOUSE_NO":"５４號五樓之４","E_COORD97":172007.87,"N_COORD97":2549058.5800000001,"ADDRESS":"中正北路５４號五樓之４","OBJECTID":492646},"geometry":{"x":172007.87000000011,"y":2549058.5800000038}},{"attributes":{"ID":492674,"DIS_CODE":0,"TOWNNAME":"永康區","LI":"\u25A0行里","LIN":"1鄰","STREET":"中正北路","SECT":" ","MAREA":" ","LANE":" ","ALLEY":" ","HOUSE_NO":"５４號四樓之６","E_COORD97":172007.95000000001,"N_COORD97":2549058.5800000001,"ADDRESS":"中正北路５４號四樓之６","OBJECTID":492647},"geometry":{"x":172007.95000000112,"y":2549058.5800000038}},{"attributes":{"ID":492675,"DIS_CODE":0,"TOWNNAME":"永康區","LI":"蔦松里","LIN":"1鄰","STREET":"蔦松二街","SECT":" ","MAREA":" ","LANE":" ","ALLEY":" ","HOUSE_NO":"１１４號六樓之１","E_COORD97":173793.79000000001,"N_COORD97":2549352.3300000001,"ADDRESS":"蔦松二街１１４號六樓之１","OBJECTID":492648},"geometry":{"x":173793.79000000097,"y":2549352.3300000019}},{"attributes":{"ID":492676,"DIS_CODE":0,"TOWNNAME":"永康區","LI":"蔦松里","LIN":"1鄰","STREET":"蔦松二街","SECT":" ","MAREA":" ","LANE":" ","ALLEY":" ","HOUSE_NO":"１１２號三樓之５","E_COORD97":173778.53,"N_COORD97":2549341.8300000001,"ADDRESS":"蔦松二街１１２號三樓之５","OBJECTID":492649},"geometry":{"x":173778.53000000026,"y":2549341.8300000038}},{"attributes":{"ID":492677,"DIS_CODE":0,"TOWNNAME":"永康區","LI":"\u25A0行里","LIN":"1鄰","STREET":"中正北路","SECT":" ","MAREA":" ","LANE":" ","ALLEY":" ","HOUSE_NO":"５４號五樓之８","E_COORD97":172008,"N_COORD97":2549058.5800000001,"ADDRESS":"中正北路５４號五樓之８","OBJECTID":492650},"geometry":{"x":172008,"y":2549058.5800000038}},{"attributes":{"ID":492678,"DIS_CODE":0,"TOWNNAME":"永康區","LI":"\u25A0行里","LIN":"1鄰","STREET":"中正北路","SECT":" ","MAREA":" ","LANE":" ","ALLEY":" ","HOUSE_NO":"５４號四樓之３","E_COORD97":172007.95000000001,"N_COORD97":2549058.5800000001,"ADDRESS":"中正北路５４號四樓之３","OBJECTID":492651},"geometry":{"x":172007.95000000112,"y":2549058.5800000038}},{"attributes":{"ID":492679,"DIS_CODE":0,"TOWNNAME":"南區","LI":"文南里","LIN":"26鄰","STREET":"南功街","SECT":" ","MAREA":" ","LANE":" ","ALLEY":" ","HOUSE_NO":"６９號","E_COORD97":166439.23999999999,"N_COORD97":2542805.1400000001,"ADDRESS":"南功街６９號","OBJECTID":492652},"geometry":{"x":166439.24000000115,"y":2542805.1400000006}},{"attributes":{"ID":492680,"DIS_CODE":0,"TOWNNAME":"南區","LI":"文南里","LIN":"26鄰","STREET":"南功街","SECT":" ","MAREA":" ","LANE":" ","ALLEY":" ","HOUSE_NO":"７１號","E_COORD97":166447.26999999999,"N_COORD97":2542804.9199999999,"ADDRESS":"南功街７１號","OBJECTID":492653},"geometry":{"x":166447.26999999955,"y":2542804.9200000018}},{"attributes":{"ID":492681,"DIS_CODE":0,"TOWNNAME":"南區","LI":"文南里","LIN":"26鄰","STREET":"南功街","SECT":" ","MAREA":" ","LANE":" ","ALLEY":" ","HOUSE_NO":"７３號","E_COORD97":166453.34,"N_COORD97":2542804.27,"ADDRESS":"南功街７３號","OBJECTID":492654},"geometry":{"x":166453.34000000078,"y":2542804.2699999996}},{"attributes":{"ID":492682,"DIS_CODE":0,"TOWNNAME":"永康區","LI":"\u25A0行里","LIN":"1鄰","STREET":"中正北路","SECT":" ","MAREA":" ","LANE":" ","ALLEY":" ","HOUSE_NO":"５４號五樓之９","E_COORD97":172007.92999999999,"N_COORD97":2549058.5800000001,"ADDRESS":"中正北路５４號五樓之９","OBJECTID":492655},"geometry":{"x":172007.93000000063,"y":2549058.5800000038}},{"attributes":{"ID":492683,"DIS_CODE":0,"TOWNNAME":"永康區","LI":"\u25A0行里","LIN":"1鄰","STREET":"中正北路","SECT":" ","MAREA":" ","LANE":" ","ALLEY":" ","HOUSE_NO":"５４號四樓之８","E_COORD97":172008,"N_COORD97":2549058.5800000001,"ADDRESS":"中正北路５４號四樓之８","OBJECTID":492656},"geometry":{"x":172008,"y":2549058.5800000038}},{"attributes":{"ID":492684,"DIS_CODE":0,"TOWNNAME":"新市區","LI":"新市里","LIN":"1鄰","STREET":"中興街","SECT":" ","MAREA":" ","LANE":" ","ALLEY":" ","HOUSE_NO":"４５號","E_COORD97":177695.66,"N_COORD97":2553123.75,"ADDRESS":"中興街４５號","OBJECTID":492657},"geometry":{"x":177695.66000000108,"y":2553123.7500000019}},{"attributes":{"ID":492685,"DIS_CODE":0,"TOWNNAME":"新市區","LI":"港墘里","LIN":"1鄰","STREET":"民族路","SECT":" ","MAREA":" ","LANE":" ","ALLEY":" ","HOUSE_NO":"７０號","E_COORD97":178466.35000000001,"N_COORD97":2553793.04,"ADDRESS":"民族路７０號","OBJECTID":492658},"geometry":{"x":178466.3499999987,"y":2553793.0399999991}},{"attributes":{"ID":492686,"DIS_CODE":0,"TOWNNAME":"新市區","LI":"港墘里","LIN":"1鄰","STREET":"民族路","SECT":" ","MAREA":" ","LANE":" ","ALLEY":" ","HOUSE_NO":"７號","E_COORD97":178652.45999999999,"N_COORD97":2553928.29,"ADDRESS":"民族路７號","OBJECTID":492659},"geometry":{"x":178652.46000000183,"y":2553928.2900000028}},{"attributes":{"ID":492687,"DIS_CODE":0,"TOWNNAME":"新市區","LI":"新市里","LIN":"1鄰","STREET":"中興街","SECT":" ","MAREA":" ","LANE":" ","ALLEY":" ","HOUSE_NO":"１９號","E_COORD97":177748.01999999999,"N_COORD97":2553154,"ADDRESS":"中興街１９號","OBJECTID":492660},"geometry":{"x":177748.01999999862,"y":2553154}},{"attributes":{"ID":492688,"DIS_CODE":0,"TOWNNAME":"新市區","LI":"港墘里","LIN":"1鄰","STREET":"大同街","SECT":" ","MAREA":" ","LANE":" ","ALLEY":" ","HOUSE_NO":"４３號","E_COORD97":178454.73000000001,"N_COORD97":2553631.25,"ADDRESS":"大同街４３號","OBJECTID":492661},"geometry":{"x":178454.73000000138,"y":2553631.2500000019}},{"attributes":{"ID":492689,"DIS_CODE":0,"TOWNNAME":"新市區","LI":"港墘里","LIN":"1鄰","STREET":"中山路","SECT":" ","MAREA":" ","LANE":" ","ALLEY":" ","HOUSE_NO":"３號","E_COORD97":178851.23000000001,"N_COORD97":2553920.25,"ADDRESS":"中山路３號","OBJECTID":492662},"geometry":{"x":178851.23000000231,"y":2553920.2500000019}},{"attributes":{"ID":492690,"DIS_CODE":0,"TOWNNAME":"新市區","LI":"港墘里","LIN":"1鄰","STREET":"中山路","SECT":" ","MAREA":" ","LANE":" ","ALLEY":" ","HOUSE_NO":"２之１號","E_COORD97":178825.67999999999,"N_COORD97":2554068.2999999998,"ADDRESS":"中山路２之１號","OBJECTID":492663},"geometry":{"x":178825.68000000063,"y":2554068.3000000007}},{"attributes":{"ID":492691,"DIS_CODE":0,"TOWNNAME":"新市區","LI":"港墘里","LIN":"1鄰","STREET":"中山路","SECT":" ","MAREA":" ","LANE":" ","ALLEY":" ","HOUSE_NO":"２之２號","E_COORD97":178820.59,"N_COORD97":2554118.7999999998,"ADDRESS":"中山路２之２號","OBJECTID":492664},"geometry":{"x":178820.58999999985,"y":2554118.8000000007}},{"attributes":{"ID":492692,"DIS_CODE":0,"TOWNNAME":"新市區","LI":"港墘里","LIN":"1鄰","STREET":"中山路","SECT":" ","MAREA":" ","LANE":" ","ALLEY":" ","HOUSE_NO":"１０之１６號","E_COORD97":178744.51999999999,"N_COORD97":2553809.79,"ADDRESS":"中山路１０之１６號","OBJECTID":492665},"geometry":{"x":178744.51999999955,"y":2553809.790000001}},{"attributes":{"ID":492693,"DIS_CODE":0,"TOWNNAME":"東區","LI":"東智里","LIN":"1鄰","STREET":"東智街","SECT":" ","MAREA":" ","LANE":" ","ALLEY":" ","HOUSE_NO":"２７號","E_COORD97":170937.20000000001,"N_COORD97":2540376.1400000001,"ADDRESS":"東智街２７號","OBJECTID":492666},"geometry":{"x":170937.20000000019,"y":2540376.1400000043}},{"attributes":{"ID":492694,"DIS_CODE":0,"TOWNNAME":"東區","LI":"東智里","LIN":"1鄰","STREET":"長東街","SECT":" ","MAREA":" ","LANE":" ","ALLEY":" ","HOUSE_NO":"４０號","E_COORD97":170990.41,"N_COORD97":2540520.6899999999,"ADDRESS":"長東街４０號","OBJECTID":492667},"geometry":{"x":170990.41000000015,"y":2540520.6900000013}},{"attributes":{"ID":492695,"DIS_CODE":0,"TOWNNAME":"東區","LI":"東智里","LIN":"1鄰","STREET":"東智街","SECT":" ","MAREA":" ","LANE":" ","ALLEY":" ","HOUSE_NO":"２５號","E_COORD97":170941.32000000001,"N_COORD97":2540376.52,"ADDRESS":"東智街２５號","OBJECTID":492668},"geometry":{"x":170941.32000000123,"y":2540376.5200000014}},{"attributes":{"ID":492696,"DIS_CODE":0,"TOWNNAME":"東區","LI":"東智里","LIN":"1鄰","STREET":"長東街","SECT":" ","MAREA":" ","LANE":" ","ALLEY":" ","HOUSE_NO":"４２號","E_COORD97":170990.78,"N_COORD97":2540516.7599999998,"ADDRESS":"長東街４２號","OBJECTID":492669},"geometry":{"x":170990.78000000119,"y":2540516.7600000035}},{"attributes":{"ID":492697,"DIS_CODE":0,"TOWNNAME":"東區","LI":"崇善里","LIN":"1鄰","STREET":"中華東路","SECT":"三段","MAREA":" ","LANE":" ","ALLEY":" ","HOUSE_NO":"７號","E_COORD97":170989.51999999999,"N_COORD97":2542358.3900000001,"ADDRESS":"中華東路三段７號","OBJECTID":492670},"geometry":{"x":170989.52000000142,"y":2542358.3900000025}},{"attributes":{"ID":492698,"DIS_CODE":0,"TOWNNAME":"東區","LI":"崇善里","LIN":"1鄰","STREET":"中華東路","SECT":"三段","MAREA":" ","LANE":" ","ALLEY":" ","HOUSE_NO":"９５號","E_COORD97":170818.41,"N_COORD97":2542158.77,"ADDRESS":"中華東路三段９５號","OBJECTID":492671},"geometry":{"x":170818.41000000108,"y":2542158.7700000014}},{"attributes":{"ID":492699,"DIS_CODE":0,"TOWNNAME":"東區","LI":"崇善里","LIN":"1鄰","STREET":"中華東路","SECT":"三段","MAREA":" ","LANE":" ","ALLEY":" ","HOUSE_NO":"９號","E_COORD97":170981.64999999999,"N_COORD97":2542351.3100000001,"ADDRESS":"中華東路三段９號","OBJECTID":492672},"geometry":{"x":170981.6500000013,"y":2542351.3100000042}},{"attributes":{"ID":492700,"DIS_CODE":0,"TOWNNAME":"官田區","LI":"二鎮里","LIN":"1鄰","STREET":"建業路","SECT":" ","MAREA":" ","LANE":" ","ALLEY":" ","HOUSE_NO":"２７號","E_COORD97":181157.92000000001,"N_COORD97":2567687.8599999999,"ADDRESS":"建業路２７號","OBJECTID":492673},"geometry":{"x":181157.91999999993,"y":2567687.8599999994}},{"attributes":{"ID":492701,"DIS_CODE":0,"TOWNNAME":"東區","LI":"東智里","LIN":"1鄰","STREET":"東智街","SECT":" ","MAREA":" ","LANE":" ","ALLEY":" ","HOUSE_NO":"２３號","E_COORD97":170946.19,"N_COORD97":2540376.52,"ADDRESS":"東智街２３號","OBJECTID":492674},"geometry":{"x":170946.19000000041,"y":2540376.5200000014}},{"attributes":{"ID":492702,"DIS_CODE":0,"TOWNNAME":"東區","LI":"東智里","LIN":"1鄰","STREET":"長東街","SECT":" ","MAREA":" ","LANE":" ","ALLEY":" ","HOUSE_NO":"２２號","E_COORD97":170984.60000000001,"N_COORD97":2540557.3399999999,"ADDRESS":"長東街２２號","OBJECTID":492675},"geometry":{"x":170984.60000000056,"y":2540557.3400000017}},{"attributes":{"ID":492703,"DIS_CODE":0,"TOWNNAME":"東區","LI":"東智里","LIN":"1鄰","STREET":"長東街","SECT":" ","MAREA":" ","LANE":" ","ALLEY":" ","HOUSE_NO":"３４號","E_COORD97":170988.16,"N_COORD97":2540532.6600000001,"ADDRESS":"長東街３４號","OBJECTID":492676},"geometry":{"x":170988.16000000108,"y":2540532.660000002}},{"attributes":{"ID":492704,"DIS_CODE":0,"TOWNNAME":"東區","LI":"東智里","LIN":"1鄰","STREET":"東智街","SECT":" ","MAREA":" ","LANE":" ","ALLEY":" ","HOUSE_NO":"２９號","E_COORD97":170933.09,"N_COORD97":2540375.96,"ADDRESS":"東智街２９號","OBJECTID":492677},"geometry":{"x":170933.08999999985,"y":2540375.9600000009}},{"attributes":{"ID":492705,"DIS_CODE":0,"TOWNNAME":"東區","LI":"東智里","LIN":"1鄰","STREET":"東智街","SECT":" ","MAREA":" ","LANE":" ","ALLEY":" ","HOUSE_NO":"３１號","E_COORD97":170929.14999999999,"N_COORD97":2540375.96,"ADDRESS":"東智街３１號","OBJECTID":492678},"geometry":{"x":170929.1500000013,"y":2540375.9600000009}},{"attributes":{"ID":492706,"DIS_CODE":0,"TOWNNAME":"東區","LI":"東智里","LIN":"1鄰","STREET":"東智街","SECT":" ","MAREA":" ","LANE":" ","ALLEY":" ","HOUSE_NO":"３３號","E_COORD97":170924.85000000001,"N_COORD97":2540375.96,"ADDRESS":"東智街３３號","OBJECTID":492679},"geometry":{"x":170924.85000000056,"y":2540375.9600000009}},{"attributes":{"ID":492707,"DIS_CODE":0,"TOWNNAME":"東區","LI":"東智里","LIN":"1鄰","STREET":"東智街","SECT":" ","MAREA":" ","LANE":" ","ALLEY":" ","HOUSE_NO":"３７號","E_COORD97":170916.42000000001,"N_COORD97":2540375.3999999999,"ADDRESS":"東智街３７號","OBJECTID":492680},"geometry":{"x":170916.42000000086,"y":2540375.4000000022}},{"attributes":{"ID":492708,"DIS_CODE":0,"TOWNNAME":"東區","LI":"東智里","LIN":"1鄰","STREET":"東智街","SECT":" ","MAREA":" ","LANE":" ","ALLEY":" ","HOUSE_NO":"３９號","E_COORD97":170911.88,"N_COORD97":2540375.3599999999,"ADDRESS":"東智街３９號","OBJECTID":492681},"geometry":{"x":170911.88000000082,"y":2540375.3599999994}},{"attributes":{"ID":492709,"DIS_CODE":0,"TOWNNAME":"東區","LI":"東智里","LIN":"1鄰","STREET":"長東街","SECT":" ","MAREA":" ","LANE":" ","ALLEY":" ","HOUSE_NO":"５４號","E_COORD97":170996.03,"N_COORD97":2540485.75,"ADDRESS":"長東街５４號","OBJECTID":492682},"geometry":{"x":170996.03000000026,"y":2540485.75}},{"attributes":{"ID":492710,"DIS_CODE":0,"TOWNNAME":"東區","LI":"東智里","LIN":"1鄰","STREET":"長東街","SECT":" ","MAREA":" ","LANE":" ","ALLEY":" ","HOUSE_NO":"５６號","E_COORD97":170996.22,"N_COORD97":2540481.6299999999,"ADDRESS":"長東街５６號","OBJECTID":492683},"geometry":{"x":170996.21999999974,"y":2540481.629999999}},{"attributes":{"ID":492711,"DIS_CODE":0,"TOWNNAME":"東區","LI":"東智里","LIN":"1鄰","STREET":"長東街","SECT":" ","MAREA":" ","LANE":" ","ALLEY":" ","HOUSE_NO":"５８號","E_COORD97":170996.39999999999,"N_COORD97":2540477.8900000001,"ADDRESS":"長東街５８號","OBJECTID":492684},"geometry":{"x":170996.4000000013,"y":2540477.8900000006}},{"attributes":{"ID":492712,"DIS_CODE":0,"TOWNNAME":"東區","LI":"東智里","LIN":"1鄰","STREET":"長東街","SECT":" ","MAREA":" ","LANE":" ","ALLEY":" ","HOUSE_NO":"６０號","E_COORD97":170996.78,"N_COORD97":2540473.5899999999,"ADDRESS":"長東街６０號","OBJECTID":492685},"geometry":{"x":170996.77999999933,"y":2540473.589999998}},{"attributes":{"ID":492713,"DIS_CODE":0,"TOWNNAME":"東區","LI":"東智里","LIN":"1鄰","STREET":"長東街","SECT":" ","MAREA":" ","LANE":" ","ALLEY":" ","HOUSE_NO":"６４號","E_COORD97":170997.53,"N_COORD97":2540465.3599999999,"ADDRESS":"長東街６４號","OBJECTID":492686},"geometry":{"x":170997.53000000119,"y":2540465.3600000013}},{"attributes":{"ID":492714,"DIS_CODE":0,"TOWNNAME":"東區","LI":"東智里","LIN":"1鄰","STREET":"長東街","SECT":" ","MAREA":" ","LANE":" ","ALLEY":" ","HOUSE_NO":"６６號","E_COORD97":170997.89999999999,"N_COORD97":2540461.4399999999,"ADDRESS":"長東街６６號","OBJECTID":492687},"geometry":{"x":170997.90000000224,"y":2540461.4400000013}},{"attributes":{"ID":492715,"DIS_CODE":0,"TOWNNAME":"東區","LI":"東智里","LIN":"1鄰","STREET":"長東街","SECT":" ","MAREA":" ","LANE":" ","ALLEY":" ","HOUSE_NO":"６８號","E_COORD97":170999.20999999999,"N_COORD97":2540457.5099999998,"ADDRESS":"長東街６８號","OBJECTID":492688},"geometry":{"x":170999.21000000089,"y":2540457.5100000035}},{"attributes":{"ID":492716,"DIS_CODE":0,"TOWNNAME":"東區","LI":"東智里","LIN":"1鄰","STREET":"長東街","SECT":" ","MAREA":" ","LANE":" ","ALLEY":" ","HOUSE_NO":"７０號","E_COORD97":170999.39999999999,"N_COORD97":2540453.3900000001,"ADDRESS":"長東街７０號","OBJECTID":492689},"geometry":{"x":170999.40000000037,"y":2540453.3900000025}},{"attributes":{"ID":492717,"DIS_CODE":0,"TOWNNAME":"東區","LI":"東智里","LIN":"1鄰","STREET":"長東街","SECT":" ","MAREA":" ","LANE":" ","ALLEY":" ","HOUSE_NO":"７４號","E_COORD97":171000.53,"N_COORD97":2540444.9199999999,"ADDRESS":"長東街７４號","OBJECTID":492690},"geometry":{"x":171000.53000000119,"y":2540444.9200000018}},{"attributes":{"ID":492718,"DIS_CODE":0,"TOWNNAME":"東區","LI":"東智里","LIN":"1鄰","STREET":"長東街","SECT":" ","MAREA":" ","LANE":" ","ALLEY":" ","HOUSE_NO":"７６號","E_COORD97":171001.28,"N_COORD97":2540441.1800000002,"ADDRESS":"長東街７６號","OBJECTID":492691},"geometry":{"x":171001.28000000026,"y":2540441.1799999997}},{"attributes":{"ID":492719,"DIS_CODE":0,"TOWNNAME":"東區","LI":"東智里","LIN":"1鄰","STREET":"長東街","SECT":" ","MAREA":" ","LANE":" ","ALLEY":" ","HOUSE_NO":"７８號","E_COORD97":171001.84,"N_COORD97":2540437.0699999998,"ADDRESS":"長東街７８號","OBJECTID":492692},"geometry":{"x":171001.84000000078,"y":2540437.070000004}},{"attributes":{"ID":492720,"DIS_CODE":0,"TOWNNAME":"東區","LI":"東聖里","LIN":"1鄰","STREET":"中華東路","SECT":"二段","MAREA":" ","LANE":" ","ALLEY":" ","HOUSE_NO":"２１號","E_COORD97":171438,"N_COORD97":2543149.6800000002,"ADDRESS":"中華東路二段２１號","OBJECTID":492693},"geometry":{"x":171438.00000000093,"y":2543149.6800000016}},{"attributes":{"ID":492721,"DIS_CODE":0,"TOWNNAME":"永康區","LI":"大灣里","LIN":"1鄰","STREET":"文賢街","SECT":" ","MAREA":" ","LANE":" ","ALLEY":" ","HOUSE_NO":"４４３號","E_COORD97":174665.98999999999,"N_COORD97":2545812.1099999999,"ADDRESS":"文賢街４４３號","OBJECTID":492694},"geometry":{"x":174665.99000000115,"y":2545812.1099999994}},{"attributes":{"ID":492722,"DIS_CODE":0,"TOWNNAME":"永康區","LI":"大灣里","LIN":"1鄰","STREET":"大安街","SECT":" ","MAREA":" ","LANE":" ","ALLEY":" ","HOUSE_NO":"４０６號","E_COORD97":174641.51000000001,"N_COORD97":2545762.6699999999,"ADDRESS":"大安街４０６號","OBJECTID":492695},"geometry":{"x":174641.51000000071,"y":2545762.6700000018}},{"attributes":{"ID":492723,"DIS_CODE":0,"TOWNNAME":"永康區","LI":"北灣里","LIN":"1鄰","STREET":"大同街","SECT":" ","MAREA":" ","LANE":" ","ALLEY":" ","HOUSE_NO":"８２號","E_COORD97":175162.25,"N_COORD97":2545458.1200000001,"ADDRESS":"大同街８２號","OBJECTID":492696},"geometry":{"x":175162.25000000093,"y":2545458.120000001}},{"attributes":{"ID":492724,"DIS_CODE":0,"TOWNNAME":"永康區","LI":"北灣里","LIN":"1鄰","STREET":"大同街","SECT":" ","MAREA":" ","LANE":" ","ALLEY":" ","HOUSE_NO":"９６號","E_COORD97":175131.67000000001,"N_COORD97":2545476.3799999999,"ADDRESS":"大同街９６號","OBJECTID":492697},"geometry":{"x":175131.66999999993,"y":2545476.3800000008}},{"attributes":{"ID":492725,"DIS_CODE":0,"TOWNNAME":"永康區","LI":"六合里","LIN":"1鄰","STREET":"新興街","SECT":" ","MAREA":" ","LANE":" ","ALLEY":" ","HOUSE_NO":"８之１號地下一層之３","E_COORD97":170950.47,"N_COORD97":2545766.79,"ADDRESS":"新興街８之１號地下一層之３","OBJECTID":492698},"geometry":{"x":170950.46999999974,"y":2545766.7899999991}},{"attributes":{"ID":492726,"DIS_CODE":0,"TOWNNAME":"永康區","LI":"六合里","LIN":"1鄰","STREET":"新興街","SECT":" ","MAREA":" ","LANE":" ","ALLEY":" ","HOUSE_NO":"８之５號地下一層之２","E_COORD97":170953.45000000001,"N_COORD97":2545708.7999999998,"ADDRESS":"新興街８之５號地下一層之２","OBJECTID":492699},"geometry":{"x":170953.45000000112,"y":2545708.8000000026}},{"attributes":{"ID":492727,"DIS_CODE":0,"TOWNNAME":"永康區","LI":"六合里","LIN":"1鄰","STREET":"新興街","SECT":" ","MAREA":" ","LANE":" ","ALLEY":" ","HOUSE_NO":"８之３號地下一層之３","E_COORD97":170949.75,"N_COORD97":2545728.0499999998,"ADDRESS":"新興街８之３號地下一層之３","OBJECTID":492700},"geometry":{"x":170949.75000000093,"y":2545728.0500000026}},{"attributes":{"ID":492728,"DIS_CODE":0,"TOWNNAME":"永康區","LI":"崑山里","LIN":"1鄰","STREET":"大灣路","SECT":" ","MAREA":" ","LANE":" ","ALLEY":" ","HOUSE_NO":"７０３號","E_COORD97":173957.42999999999,"N_COORD97":2544469.48,"ADDRESS":"大灣路７０３號","OBJECTID":492701},"geometry":{"x":173957.43000000063,"y":2544469.4800000023}},{"attributes":{"ID":492729,"DIS_CODE":0,"TOWNNAME":"永康區","LI":"崑山里","LIN":"1鄰","STREET":"大灣路","SECT":" ","MAREA":" ","LANE":" ","ALLEY":" ","HOUSE_NO":"７０７號","E_COORD97":173942.16,"N_COORD97":2544466.73,"ADDRESS":"大灣路７０７號","OBJECTID":492702},"geometry":{"x":173942.16000000201,"y":2544466.7300000004}},{"attributes":{"ID":492730,"DIS_CODE":0,"TOWNNAME":"官田區","LI":"二鎮里","LIN":"1鄰","STREET":"建業路","SECT":" ","MAREA":" ","LANE":" ","ALLEY":" ","HOUSE_NO":"３３號","E_COORD97":181105.25,"N_COORD97":2567692.71,"ADDRESS":"建業路３３號","OBJECTID":492703},"geometry":{"x":181105.25000000186,"y":2567692.7100000028}},{"attributes":{"ID":492731,"DIS_CODE":0,"TOWNNAME":"永康區","LI":"復華里","LIN":"1鄰","STREET":"復國二路","SECT":" ","MAREA":" ","LANE":" ","ALLEY":" ","HOUSE_NO":"２７０號","E_COORD97":173040.91,"N_COORD97":2546037.2599999998,"ADDRESS":"復國二路２７０號","OBJECTID":492704},"geometry":{"x":173040.91000000108,"y":2546037.2600000016}},{"attributes":{"ID":492732,"DIS_CODE":0,"TOWNNAME":"永康區","LI":"崑山里","LIN":"1鄰","STREET":"大灣路","SECT":" ","MAREA":" ","LANE":" ","ALLEY":" ","HOUSE_NO":"７６１號","E_COORD97":173840.98999999999,"N_COORD97":2544444.6299999999,"ADDRESS":"大灣路７６１號","OBJECTID":492705},"geometry":{"x":173840.99000000022,"y":2544444.629999999}},{"attributes":{"ID":492733,"DIS_CODE":0,"TOWNNAME":"永康區","LI":"崑山里","LIN":"1鄰","STREET":"大灣路","SECT":" ","MAREA":" ","LANE":" ","ALLEY":" ","HOUSE_NO":"７５９號","E_COORD97":173857.64000000001,"N_COORD97":2544449.8799999999,"ADDRESS":"大灣路７５９號","OBJECTID":492706},"geometry":{"x":173857.6400000006,"y":2544449.879999999}},{"attributes":{"ID":492734,"DIS_CODE":0,"TOWNNAME":"官田區","LI":"二鎮里","LIN":"1鄰","STREET":"建業路","SECT":" ","MAREA":" ","LANE":" ","ALLEY":" ","HOUSE_NO":"１３號","E_COORD97":181419.64000000001,"N_COORD97":2567542.5699999998,"ADDRESS":"建業路１３號","OBJECTID":492707},"geometry":{"x":181419.6400000006,"y":2567542.5700000003}},{"attributes":{"ID":492735,"DIS_CODE":0,"TOWNNAME":"官田區","LI":"二鎮里","LIN":"1鄰","STREET":"建業路","SECT":" ","MAREA":" ","LANE":" ","ALLEY":" ","HOUSE_NO":"１５號","E_COORD97":181441.04999999999,"N_COORD97":2567603.25,"ADDRESS":"建業路１５號","OBJECTID":492708},"geometry":{"x":181441.05000000075,"y":2567603.2500000019}},{"attributes":{"ID":492736,"DIS_CODE":0,"TOWNNAME":"官田區","LI":"二鎮里","LIN":"1鄰","STREET":"建業路","SECT":" ","MAREA":" ","LANE":" ","ALLEY":" ","HOUSE_NO":"１７號","E_COORD97":181425.25,"N_COORD97":2567712.2200000002,"ADDRESS":"建業路１７號","OBJECTID":492709},"geometry":{"x":181425.25,"y":2567712.2200000044}},{"attributes":{"ID":492737,"DIS_CODE":0,"TOWNNAME":"官田區","LI":"二鎮里","LIN":"1鄰","STREET":"建業路","SECT":" ","MAREA":" ","LANE":" ","ALLEY":" ","HOUSE_NO":"１９號之１","E_COORD97":181286.19,"N_COORD97":2567710.9300000002,"ADDRESS":"建業路１９號之１","OBJECTID":492710},"geometry":{"x":181286.19000000134,"y":2567710.9300000016}},{"attributes":{"ID":492738,"DIS_CODE":0,"TOWNNAME":"官田區","LI":"二鎮里","LIN":"1鄰","STREET":"建業路","SECT":" ","MAREA":" ","LANE":" ","ALLEY":" ","HOUSE_NO":"１９號","E_COORD97":181315.69,"N_COORD97":2567711.5600000001,"ADDRESS":"建業路１９號","OBJECTID":492711},"geometry":{"x":181315.69000000041,"y":2567711.5600000005}},{"attributes":{"ID":492739,"DIS_CODE":0,"TOWNNAME":"官田區","LI":"二鎮里","LIN":"1鄰","STREET":"建業路","SECT":" ","MAREA":" ","LANE":" ","ALLEY":" ","HOUSE_NO":"１號","E_COORD97":181445.28,"N_COORD97":2567359.6200000001,"ADDRESS":"建業路１號","OBJECTID":492712},"geometry":{"x":181445.28000000026,"y":2567359.620000001}},{"attributes":{"ID":492740,"DIS_CODE":0,"TOWNNAME":"官田區","LI":"二鎮里","LIN":"1鄰","STREET":"建業路","SECT":" ","MAREA":" ","LANE":" ","ALLEY":" ","HOUSE_NO":"３４號之１","E_COORD97":180613.70999999999,"N_COORD97":2567602.04,"ADDRESS":"建業路３４號之１","OBJECTID":492713},"geometry":{"x":180613.70999999903,"y":2567602.0399999991}},{"attributes":{"ID":492741,"DIS_CODE":0,"TOWNNAME":"官田區","LI":"二鎮里","LIN":"1鄰","STREET":"建業路","SECT":" ","MAREA":" ","LANE":" ","ALLEY":" ","HOUSE_NO":"３５號","E_COORD97":181080.82999999999,"N_COORD97":2567693.1400000001,"ADDRESS":"建業路３５號","OBJECTID":492714},"geometry":{"x":181080.83000000007,"y":2567693.1400000025}},{"attributes":{"ID":492742,"DIS_CODE":0,"TOWNNAME":"官田區","LI":"二鎮里","LIN":"1鄰","STREET":"建業路","SECT":" ","MAREA":" ","LANE":" ","ALLEY":" ","HOUSE_NO":"３６號","E_COORD97":180577.85000000001,"N_COORD97":2567594.6400000001,"ADDRESS":"建業路３６號","OBJECTID":492715},"geometry":{"x":180577.84999999963,"y":2567594.6400000025}},{"attributes":{"ID":492743,"DIS_CODE":0,"TOWNNAME":"官田區","LI":"二鎮里","LIN":"1鄰","STREET":"建業路","SECT":" ","MAREA":" ","LANE":" ","ALLEY":" ","HOUSE_NO":"３９號","E_COORD97":180985.22,"N_COORD97":2567690.1099999999,"ADDRESS":"建業路３９號","OBJECTID":492716},"geometry":{"x":180985.22000000067,"y":2567690.1099999994}},{"attributes":{"ID":492744,"DIS_CODE":0,"TOWNNAME":"官田區","LI":"二鎮里","LIN":"1鄰","STREET":"建業路","SECT":" ","MAREA":" ","LANE":" ","ALLEY":" ","HOUSE_NO":"３號","E_COORD97":181455.48000000001,"N_COORD97":2567398.1000000001,"ADDRESS":"建業路３號","OBJECTID":492717},"geometry":{"x":181455.48000000138,"y":2567398.1000000015}},{"attributes":{"ID":492745,"DIS_CODE":0,"TOWNNAME":"白河區","LI":"白河里","LIN":"1鄰","STREET":"中山路","SECT":" ","MAREA":" ","LANE":" ","ALLEY":" ","HOUSE_NO":"２之９號","E_COORD97":189966.10999999999,"N_COORD97":2582710.9399999999,"ADDRESS":"中山路２之９號","OBJECTID":492718},"geometry":{"x":189966.11000000127,"y":2582710.9399999995}},{"attributes":{"ID":492746,"DIS_CODE":0,"TOWNNAME":"白河區","LI":"白河里","LIN":"1鄰","STREET":"中山路","SECT":" ","MAREA":" ","LANE":" ","ALLEY":" ","HOUSE_NO":"１０號","E_COORD97":190109.84,"N_COORD97":2582911.1499999999,"ADDRESS":"中山路１０號","OBJECTID":492719},"geometry":{"x":190109.84000000078,"y":2582911.1500000041}},{"attributes":{"ID":492747,"DIS_CODE":0,"TOWNNAME":"白河區","LI":"永安里","LIN":"1鄰","STREET":"中山路","SECT":" ","MAREA":" ","LANE":" ","ALLEY":" ","HOUSE_NO":"１１號","E_COORD97":190133.79000000001,"N_COORD97":2582987.1400000001,"ADDRESS":"中山路１１號","OBJECTID":492720},"geometry":{"x":190133.79000000097,"y":2582987.1400000025}},{"attributes":{"ID":492748,"DIS_CODE":0,"TOWNNAME":"白河區","LI":"白河里","LIN":"1鄰","STREET":"中山路","SECT":" ","MAREA":" ","LANE":" ","ALLEY":" ","HOUSE_NO":"１２號","E_COORD97":190112.67999999999,"N_COORD97":2582915.1699999999,"ADDRESS":"中山路１２號","OBJECTID":492721},"geometry":{"x":190112.68000000063,"y":2582915.1700000018}},{"attributes":{"ID":492749,"DIS_CODE":0,"TOWNNAME":"白河區","LI":"永安里","LIN":"1鄰","STREET":"中山路","SECT":" ","MAREA":" ","LANE":" ","ALLEY":" ","HOUSE_NO":"１３號","E_COORD97":190140.73999999999,"N_COORD97":2582998.0299999998,"ADDRESS":"中山路１３號","OBJECTID":492722},"geometry":{"x":190140.74000000022,"y":2582998.0299999993}},{"attributes":{"ID":492750,"DIS_CODE":0,"TOWNNAME":"白河區","LI":"白河里","LIN":"1鄰","STREET":"中山路","SECT":" ","MAREA":" ","LANE":" ","ALLEY":" ","HOUSE_NO":"１４號","E_COORD97":190117.98000000001,"N_COORD97":2582921.75,"ADDRESS":"中山路１４號","OBJECTID":492723},"geometry":{"x":190117.98000000138,"y":2582921.7500000019}},{"attributes":{"ID":492751,"DIS_CODE":0,"TOWNNAME":"白河區","LI":"永安里","LIN":"1鄰","STREET":"中山路","SECT":" ","MAREA":" ","LANE":" ","ALLEY":" ","HOUSE_NO":"１５號","E_COORD97":190149.41,"N_COORD97":2583020.6499999999,"ADDRESS":"中山路１５號","OBJECTID":492724},"geometry":{"x":190149.41000000015,"y":2583020.6500000022}},{"attributes":{"ID":492752,"DIS_CODE":0,"TOWNNAME":"白河區","LI":"白河里","LIN":"1鄰","STREET":"中山路","SECT":" ","MAREA":" ","LANE":" ","ALLEY":" ","HOUSE_NO":"１８號","E_COORD97":190129.28,"N_COORD97":2582938.9900000002,"ADDRESS":"中山路１８號","OBJECTID":492725},"geometry":{"x":190129.28000000119,"y":2582938.9900000002}},{"attributes":{"ID":492753,"DIS_CODE":0,"TOWNNAME":"白河區","LI":"永安里","LIN":"1鄰","STREET":"中山路","SECT":" ","MAREA":" ","LANE":" ","ALLEY":" ","HOUSE_NO":"１之１０號","E_COORD97":190070.57999999999,"N_COORD97":2582897.0699999998,"ADDRESS":"中山路１之１０號","OBJECTID":492726},"geometry":{"x":190070.58000000194,"y":2582897.0700000003}},{"attributes":{"ID":492754,"DIS_CODE":0,"TOWNNAME":"白河區","LI":"永安里","LIN":"1鄰","STREET":"中山路","SECT":" ","MAREA":" ","LANE":" ","ALLEY":" ","HOUSE_NO":"１之４號","E_COORD97":190089.26999999999,"N_COORD97":2582923.3300000001,"ADDRESS":"中山路１之４號","OBJECTID":492727},"geometry":{"x":190089.27000000048,"y":2582923.3300000038}},{"attributes":{"ID":492755,"DIS_CODE":0,"TOWNNAME":"白河區","LI":"永安里","LIN":"1鄰","STREET":"中山路","SECT":" ","MAREA":" ","LANE":" ","ALLEY":" ","HOUSE_NO":"１之５號","E_COORD97":190086.25,"N_COORD97":2582919.25,"ADDRESS":"中山路１之５號","OBJECTID":492728},"geometry":{"x":190086.24999999907,"y":2582919.25}},{"attributes":{"ID":492756,"DIS_CODE":0,"TOWNNAME":"白河區","LI":"永安里","LIN":"1鄰","STREET":"中山路","SECT":" ","MAREA":" ","LANE":" ","ALLEY":" ","HOUSE_NO":"１之６號","E_COORD97":190083.29000000001,"N_COORD97":2582914.9500000002,"ADDRESS":"中山路１之６號","OBJECTID":492729},"geometry":{"x":190083.29000000097,"y":2582914.950000003}},{"attributes":{"ID":492757,"DIS_CODE":0,"TOWNNAME":"仁德區","LI":"成功里","LIN":"1鄰","STREET":"保生東路","SECT":" ","MAREA":" ","LANE":"１３８巷","ALLEY":"６弄","HOUSE_NO":"２２號","E_COORD97":171202.103485,"N_COORD97":2539540.4583399999,"ADDRESS":"保生東路１３８巷６弄２２號","OBJECTID":492730},"geometry":{"x":171202.10348500032,"y":2539540.4583439995}},{"attributes":{"ID":492758,"DIS_CODE":0,"TOWNNAME":"白河區","LI":"永安里","LIN":"1鄰","STREET":"中山路","SECT":" ","MAREA":" ","LANE":" ","ALLEY":" ","HOUSE_NO":"１之７號","E_COORD97":190080.38,"N_COORD97":2582910.8700000001,"ADDRESS":"中山路１之７號","OBJECTID":492731},"geometry":{"x":190080.38000000175,"y":2582910.8700000029}},{"attributes":{"ID":492759,"DIS_CODE":0,"TOWNNAME":"白河區","LI":"永安里","LIN":"1鄰","STREET":"中山路","SECT":" ","MAREA":" ","LANE":" ","ALLEY":" ","HOUSE_NO":"１之８號","E_COORD97":190078.03,"N_COORD97":2582907.2000000002,"ADDRESS":"中山路１之８號","OBJECTID":492732},"geometry":{"x":190078.03000000212,"y":2582907.2000000011}},{"attributes":{"ID":492760,"DIS_CODE":0,"TOWNNAME":"白河區","LI":"永安里","LIN":"1鄰","STREET":"中山路","SECT":" ","MAREA":" ","LANE":" ","ALLEY":" ","HOUSE_NO":"１之９號","E_COORD97":190071.10000000001,"N_COORD97":2582902.25,"ADDRESS":"中山路１之９號","OBJECTID":492733},"geometry":{"x":190071.09999999963,"y":2582902.25}},{"attributes":{"ID":492761,"DIS_CODE":0,"TOWNNAME":"白河區","LI":"永安里","LIN":"1鄰","STREET":"中山路","SECT":" ","MAREA":" ","LANE":" ","ALLEY":" ","HOUSE_NO":"１號","E_COORD97":190099.09,"N_COORD97":2582936.4199999999,"ADDRESS":"中山路１號","OBJECTID":492734},"geometry":{"x":190099.09000000171,"y":2582936.4200000018}},{"attributes":{"ID":492762,"DIS_CODE":0,"TOWNNAME":"白河區","LI":"永安里","LIN":"1鄰","STREET":"中山路","SECT":" ","MAREA":" ","LANE":" ","ALLEY":" ","HOUSE_NO":"２１號","E_COORD97":190154.07999999999,"N_COORD97":2583032.4500000002,"ADDRESS":"中山路２１號","OBJECTID":492735},"geometry":{"x":190154.08000000101,"y":2583032.4499999993}},{"attributes":{"ID":492763,"DIS_CODE":0,"TOWNNAME":"白河區","LI":"永安里","LIN":"1鄰","STREET":"中山路","SECT":" ","MAREA":" ","LANE":" ","ALLEY":" ","HOUSE_NO":"２３號","E_COORD97":190155.28,"N_COORD97":2583036.6099999999,"ADDRESS":"中山路２３號","OBJECTID":492736},"geometry":{"x":190155.28000000026,"y":2583036.6100000013}},{"attributes":{"ID":492764,"DIS_CODE":0,"TOWNNAME":"白河區","LI":"永安里","LIN":"1鄰","STREET":"中山路","SECT":" ","MAREA":" ","LANE":" ","ALLEY":" ","HOUSE_NO":"２７號","E_COORD97":190158.70999999999,"N_COORD97":2583045.2000000002,"ADDRESS":"中山路２７號","OBJECTID":492737},"geometry":{"x":190158.70999999996,"y":2583045.1999999974}},{"attributes":{"ID":492765,"DIS_CODE":0,"TOWNNAME":"白河區","LI":"永安里","LIN":"1鄰","STREET":"中山路","SECT":" ","MAREA":" ","LANE":" ","ALLEY":" ","HOUSE_NO":"２９號","E_COORD97":190160.07000000001,"N_COORD97":2583049.1099999999,"ADDRESS":"中山路２９號","OBJECTID":492738},"geometry":{"x":190160.0700000003,"y":2583049.1099999994}},{"attributes":{"ID":492766,"DIS_CODE":0,"TOWNNAME":"白河區","LI":"白河里","LIN":"1鄰","STREET":"中山路","SECT":" ","MAREA":" ","LANE":" ","ALLEY":" ","HOUSE_NO":"２之１０號","E_COORD97":189968.32000000001,"N_COORD97":2582714.5,"ADDRESS":"中山路２之１０號","OBJECTID":492739},"geometry":{"x":189968.32000000123,"y":2582714.5}},{"attributes":{"ID":492767,"DIS_CODE":0,"TOWNNAME":"白河區","LI":"白河里","LIN":"1鄰","STREET":"中山路","SECT":" ","MAREA":" ","LANE":" ","ALLEY":" ","HOUSE_NO":"２之１１２號","E_COORD97":189769.04000000001,"N_COORD97":2582412.21,"ADDRESS":"中山路２之１１２號","OBJECTID":492740},"geometry":{"x":189769.0400000019,"y":2582412.2100000009}},{"attributes":{"ID":492768,"DIS_CODE":0,"TOWNNAME":"白河區","LI":"白河里","LIN":"1鄰","STREET":"中山路","SECT":" ","MAREA":" ","LANE":" ","ALLEY":" ","HOUSE_NO":"２之１１３號","E_COORD97":189742.31,"N_COORD97":2582389.2200000002,"ADDRESS":"中山路２之１１３號","OBJECTID":492741},"geometry":{"x":189742.30999999959,"y":2582389.2200000044}},{"attributes":{"ID":492769,"DIS_CODE":0,"TOWNNAME":"白河區","LI":"白河里","LIN":"1鄰","STREET":"中山路","SECT":" ","MAREA":" ","LANE":" ","ALLEY":" ","HOUSE_NO":"２之１１號","E_COORD97":189970.73999999999,"N_COORD97":2582717.6099999999,"ADDRESS":"中山路２之１１號","OBJECTID":492742},"geometry":{"x":189970.74000000022,"y":2582717.6100000013}},{"attributes":{"ID":492770,"DIS_CODE":0,"TOWNNAME":"白河區","LI":"白河里","LIN":"1鄰","STREET":"中山路","SECT":" ","MAREA":" ","LANE":" ","ALLEY":" ","HOUSE_NO":"２之１２號","E_COORD97":189976.64999999999,"N_COORD97":2582724.4399999999,"ADDRESS":"中山路２之１２號","OBJECTID":492743},"geometry":{"x":189976.65000000037,"y":2582724.4399999995}},{"attributes":{"ID":492771,"DIS_CODE":0,"TOWNNAME":"白河區","LI":"白河里","LIN":"1鄰","STREET":"中山路","SECT":" ","MAREA":" ","LANE":" ","ALLEY":" ","HOUSE_NO":"２之１３２號","E_COORD97":189682.20000000001,"N_COORD97":2582313.6200000001,"ADDRESS":"中山路２之１３２號","OBJECTID":492744},"geometry":{"x":189682.20000000112,"y":2582313.6200000029}},{"attributes":{"ID":492772,"DIS_CODE":0,"TOWNNAME":"白河區","LI":"白河里","LIN":"1鄰","STREET":"中山路","SECT":" ","MAREA":" ","LANE":" ","ALLEY":" ","HOUSE_NO":"２之１３３號","E_COORD97":189729.32000000001,"N_COORD97":2582280.5299999998,"ADDRESS":"中山路２之１３３號","OBJECTID":492745},"geometry":{"x":189729.32000000123,"y":2582280.5300000031}},{"attributes":{"ID":492773,"DIS_CODE":0,"TOWNNAME":"白河區","LI":"白河里","LIN":"1鄰","STREET":"中山路","SECT":" ","MAREA":" ","LANE":" ","ALLEY":" ","HOUSE_NO":"２之１３６號","E_COORD97":189653.42000000001,"N_COORD97":2582255.6499999999,"ADDRESS":"中山路２之１３６號","OBJECTID":492746},"geometry":{"x":189653.42000000086,"y":2582255.6500000004}},{"attributes":{"ID":492774,"DIS_CODE":0,"TOWNNAME":"白河區","LI":"白河里","LIN":"1鄰","STREET":"中山路","SECT":" ","MAREA":" ","LANE":" ","ALLEY":" ","HOUSE_NO":"２之１３號","E_COORD97":189979.06,"N_COORD97":2582728.04,"ADDRESS":"中山路２之１３號","OBJECTID":492747},"geometry":{"x":189979.06000000052,"y":2582728.040000001}},{"attributes":{"ID":492775,"DIS_CODE":0,"TOWNNAME":"白河區","LI":"白河里","LIN":"1鄰","STREET":"中山路","SECT":" ","MAREA":" ","LANE":" ","ALLEY":" ","HOUSE_NO":"２之１４號","E_COORD97":189981.47,"N_COORD97":2582731.6499999999,"ADDRESS":"中山路２之１４號","OBJECTID":492748},"geometry":{"x":189981.47000000067,"y":2582731.6500000041}},{"attributes":{"ID":492776,"DIS_CODE":0,"TOWNNAME":"白河區","LI":"白河里","LIN":"1鄰","STREET":"中山路","SECT":" ","MAREA":" ","LANE":" ","ALLEY":" ","HOUSE_NO":"２之１５號","E_COORD97":190029.94,"N_COORD97":2582769.96,"ADDRESS":"中山路２之１５號","OBJECTID":492749},"geometry":{"x":190029.94000000134,"y":2582769.9600000009}},{"attributes":{"ID":492777,"DIS_CODE":0,"TOWNNAME":"白河區","LI":"白河里","LIN":"1鄰","STREET":"中山路","SECT":" ","MAREA":" ","LANE":" ","ALLEY":" ","HOUSE_NO":"２之１９號","E_COORD97":190044.89000000001,"N_COORD97":2582818.0299999998,"ADDRESS":"中山路２之１９號","OBJECTID":492750},"geometry":{"x":190044.8900000006,"y":2582818.0299999993}},{"attributes":{"ID":492778,"DIS_CODE":0,"TOWNNAME":"白河區","LI":"白河里","LIN":"1鄰","STREET":"中山路","SECT":" ","MAREA":" ","LANE":" ","ALLEY":" ","HOUSE_NO":"２之２１號","E_COORD97":190047.04000000001,"N_COORD97":2582823.0499999998,"ADDRESS":"中山路２之２１號","OBJECTID":492751},"geometry":{"x":190047.03999999911,"y":2582823.0500000007}},{"attributes":{"ID":492779,"DIS_CODE":0,"TOWNNAME":"白河區","LI":"白河里","LIN":"1鄰","STREET":"中山路","SECT":" ","MAREA":" ","LANE":" ","ALLEY":" ","HOUSE_NO":"２之２２號","E_COORD97":190049.54000000001,"N_COORD97":2582832.9199999999,"ADDRESS":"中山路２之２２號","OBJECTID":492752},"geometry":{"x":190049.54000000097,"y":2582832.9199999999}},{"attributes":{"ID":492780,"DIS_CODE":0,"TOWNNAME":"白河區","LI":"白河里","LIN":"1鄰","STREET":"中山路","SECT":" ","MAREA":" ","LANE":" ","ALLEY":" ","HOUSE_NO":"２之２５號","E_COORD97":189927.73999999999,"N_COORD97":2582629.4700000002,"ADDRESS":"中山路２之２５號","OBJECTID":492753},"geometry":{"x":189927.74000000115,"y":2582629.4700000025}},{"attributes":{"ID":492781,"DIS_CODE":0,"TOWNNAME":"白河區","LI":"白河里","LIN":"1鄰","STREET":"中山路","SECT":" ","MAREA":" ","LANE":" ","ALLEY":" ","HOUSE_NO":"２之２６號","E_COORD97":190033.32999999999,"N_COORD97":2582806.7000000002,"ADDRESS":"中山路２之２６號","OBJECTID":492754},"geometry":{"x":190033.33000000194,"y":2582806.6999999993}},{"attributes":{"ID":492782,"DIS_CODE":0,"TOWNNAME":"白河區","LI":"白河里","LIN":"1鄰","STREET":"中山路","SECT":" ","MAREA":" ","LANE":" ","ALLEY":" ","HOUSE_NO":"２之２７號","E_COORD97":190030.64000000001,"N_COORD97":2582803.0699999998,"ADDRESS":"中山路２之２７號","OBJECTID":492755},"geometry":{"x":190030.63999999966,"y":2582803.0699999984}},{"attributes":{"ID":492783,"DIS_CODE":0,"TOWNNAME":"白河區","LI":"白河里","LIN":"1鄰","STREET":"中山路","SECT":" ","MAREA":" ","LANE":" ","ALLEY":" ","HOUSE_NO":"２之２８號","E_COORD97":190027.94,"N_COORD97":2582799.4300000002,"ADDRESS":"中山路２之２８號","OBJECTID":492756},"geometry":{"x":190027.94000000227,"y":2582799.4299999997}},{"attributes":{"ID":492784,"DIS_CODE":0,"TOWNNAME":"白河區","LI":"白河里","LIN":"1鄰","STREET":"中山路","SECT":" ","MAREA":" ","LANE":" ","ALLEY":" ","HOUSE_NO":"２之３１號","E_COORD97":190056.07999999999,"N_COORD97":2582841.8300000001,"ADDRESS":"中山路２之３１號","OBJECTID":492757},"geometry":{"x":190056.08000000101,"y":2582841.8300000038}},{"attributes":{"ID":492785,"DIS_CODE":0,"TOWNNAME":"白河區","LI":"白河里","LIN":"1鄰","STREET":"中山路","SECT":" ","MAREA":" ","LANE":" ","ALLEY":" ","HOUSE_NO":"２之３４號","E_COORD97":190064.03,"N_COORD97":2582853.4399999999,"ADDRESS":"中山路２之３４號","OBJECTID":492758},"geometry":{"x":190064.03000000026,"y":2582853.4399999995}},{"attributes":{"ID":492786,"DIS_CODE":0,"TOWNNAME":"白河區","LI":"白河里","LIN":"1鄰","STREET":"中山路","SECT":" ","MAREA":" ","LANE":" ","ALLEY":" ","HOUSE_NO":"２之３號","E_COORD97":189938.51999999999,"N_COORD97":2582670.9100000001,"ADDRESS":"中山路２之３號","OBJECTID":492759},"geometry":{"x":189938.52000000048,"y":2582670.9100000001}},{"attributes":{"ID":492787,"DIS_CODE":0,"TOWNNAME":"白河區","LI":"白河里","LIN":"1鄰","STREET":"中山路","SECT":" ","MAREA":" ","LANE":" ","ALLEY":" ","HOUSE_NO":"２之４０號","E_COORD97":189983.88,"N_COORD97":2582735.25,"ADDRESS":"中山路２之４０號","OBJECTID":492760},"geometry":{"x":189983.88000000082,"y":2582735.2500000019}},{"attributes":{"ID":492788,"DIS_CODE":0,"TOWNNAME":"白河區","LI":"白河里","LIN":"1鄰","STREET":"中山路","SECT":" ","MAREA":" ","LANE":" ","ALLEY":" ","HOUSE_NO":"２之４１號","E_COORD97":189986.29000000001,"N_COORD97":2582738.8500000001,"ADDRESS":"中山路２之４１號","OBJECTID":492761},"geometry":{"x":189986.29000000097,"y":2582738.8499999996}},{"attributes":{"ID":492789,"DIS_CODE":0,"TOWNNAME":"白河區","LI":"白河里","LIN":"1鄰","STREET":"中山路","SECT":" ","MAREA":" ","LANE":" ","ALLEY":" ","HOUSE_NO":"２之４２號","E_COORD97":189988.70000000001,"N_COORD97":2582742.46,"ADDRESS":"中山路２之４２號","OBJECTID":492762},"geometry":{"x":189988.70000000112,"y":2582742.4600000009}},{"attributes":{"ID":492790,"DIS_CODE":0,"TOWNNAME":"白河區","LI":"白河里","LIN":"1鄰","STREET":"中山路","SECT":" ","MAREA":" ","LANE":" ","ALLEY":" ","HOUSE_NO":"２之４６號","E_COORD97":189994.73999999999,"N_COORD97":2582749.8399999999,"ADDRESS":"中山路２之４６號","OBJECTID":492763},"geometry":{"x":189994.74000000022,"y":2582749.839999998}},{"attributes":{"ID":492791,"DIS_CODE":0,"TOWNNAME":"白河區","LI":"白河里","LIN":"1鄰","STREET":"中山路","SECT":" ","MAREA":" ","LANE":" ","ALLEY":" ","HOUSE_NO":"２之４號","E_COORD97":189942.70999999999,"N_COORD97":2582677.3999999999,"ADDRESS":"中山路２之４號","OBJECTID":492764},"geometry":{"x":189942.71000000089,"y":2582677.4000000004}},{"attributes":{"ID":492792,"DIS_CODE":0,"TOWNNAME":"白河區","LI":"白河里","LIN":"1鄰","STREET":"中山路","SECT":" ","MAREA":" ","LANE":" ","ALLEY":" ","HOUSE_NO":"２之５０號","E_COORD97":190008.20000000001,"N_COORD97":2582773.7200000002,"ADDRESS":"中山路２之５０號","OBJECTID":492765},"geometry":{"x":190008.20000000019,"y":2582773.7200000025}},{"attributes":{"ID":492793,"DIS_CODE":0,"TOWNNAME":"白河區","LI":"白河里","LIN":"1鄰","STREET":"中山路","SECT":" ","MAREA":" ","LANE":" ","ALLEY":" ","HOUSE_NO":"２之５１號","E_COORD97":190010.92000000001,"N_COORD97":2582777.4300000002,"ADDRESS":"中山路２之５１號","OBJECTID":492766},"geometry":{"x":190010.92000000086,"y":2582777.4300000016}},{"attributes":{"ID":492794,"DIS_CODE":0,"TOWNNAME":"白河區","LI":"白河里","LIN":"1鄰","STREET":"中山路","SECT":" ","MAREA":" ","LANE":" ","ALLEY":" ","HOUSE_NO":"２之５２號","E_COORD97":190013.63,"N_COORD97":2582781.1299999999,"ADDRESS":"中山路２之５２號","OBJECTID":492767},"geometry":{"x":190013.62999999989,"y":2582781.1300000027}},{"attributes":{"ID":492795,"DIS_CODE":0,"TOWNNAME":"白河區","LI":"白河里","LIN":"1鄰","STREET":"中山路","SECT":" ","MAREA":" ","LANE":" ","ALLEY":" ","HOUSE_NO":"２之５３號","E_COORD97":190016.35000000001,"N_COORD97":2582784.8300000001,"ADDRESS":"中山路２之５３號","OBJECTID":492768},"geometry":{"x":190016.35000000056,"y":2582784.8300000019}},{"attributes":{"ID":492796,"DIS_CODE":0,"TOWNNAME":"白河區","LI":"白河里","LIN":"1鄰","STREET":"中山路","SECT":" ","MAREA":" ","LANE":" ","ALLEY":" ","HOUSE_NO":"２之５４號","E_COORD97":190019.07000000001,"N_COORD97":2582788.54,"ADDRESS":"中山路２之５４號","OBJECTID":492769},"geometry":{"x":190019.07000000123,"y":2582788.5400000028}},{"attributes":{"ID":492797,"DIS_CODE":0,"TOWNNAME":"白河區","LI":"白河里","LIN":"1鄰","STREET":"中山路","SECT":" ","MAREA":" ","LANE":" ","ALLEY":" ","HOUSE_NO":"２之５５號","E_COORD97":190021.79000000001,"N_COORD97":2582792.2400000002,"ADDRESS":"中山路２之５５號","OBJECTID":492770},"geometry":{"x":190021.7900000019,"y":2582792.2400000021}},{"attributes":{"ID":492798,"DIS_CODE":0,"TOWNNAME":"白河區","LI":"白河里","LIN":"1鄰","STREET":"中山路","SECT":" ","MAREA":" ","LANE":" ","ALLEY":" ","HOUSE_NO":"２之５號","E_COORD97":189946.70000000001,"N_COORD97":2582683.77,"ADDRESS":"中山路２之５號","OBJECTID":492771},"geometry":{"x":189946.70000000112,"y":2582683.7700000014}},{"attributes":{"ID":492799,"DIS_CODE":0,"TOWNNAME":"白河區","LI":"白河里","LIN":"1鄰","STREET":"中山路","SECT":" ","MAREA":" ","LANE":" ","ALLEY":" ","HOUSE_NO":"２之６８號","E_COORD97":189893.54000000001,"N_COORD97":2582585.1400000001,"ADDRESS":"中山路２之６８號","OBJECTID":492772},"geometry":{"x":189893.54000000097,"y":2582585.1400000006}},{"attributes":{"ID":492800,"DIS_CODE":0,"TOWNNAME":"白河區","LI":"白河里","LIN":"1鄰","STREET":"中山路","SECT":" ","MAREA":" ","LANE":" ","ALLEY":" ","HOUSE_NO":"２之７０號","E_COORD97":189872.89999999999,"N_COORD97":2582576.29,"ADDRESS":"中山路２之７０號","OBJECTID":492773},"geometry":{"x":189872.9000000013,"y":2582576.2899999991}},{"attributes":{"ID":492801,"DIS_CODE":0,"TOWNNAME":"白河區","LI":"白河里","LIN":"1鄰","STREET":"中山路","SECT":" ","MAREA":" ","LANE":" ","ALLEY":" ","HOUSE_NO":"２之７８號","E_COORD97":189937.53,"N_COORD97":2582542.3199999998,"ADDRESS":"中山路２之７８號","OBJECTID":492774},"geometry":{"x":189937.53000000119,"y":2582542.3200000003}},{"attributes":{"ID":492802,"DIS_CODE":0,"TOWNNAME":"白河區","LI":"白河里","LIN":"1鄰","STREET":"中山路","SECT":" ","MAREA":" ","LANE":" ","ALLEY":" ","HOUSE_NO":"２之８０號","E_COORD97":189829.76999999999,"N_COORD97":2582514.5299999998,"ADDRESS":"中山路２之８０號","OBJECTID":492775},"geometry":{"x":189829.77000000142,"y":2582514.5300000031}},{"attributes":{"ID":492803,"DIS_CODE":0,"TOWNNAME":"白河區","LI":"白河里","LIN":"1鄰","STREET":"中山路","SECT":" ","MAREA":" ","LANE":" ","ALLEY":" ","HOUSE_NO":"２之８６號","E_COORD97":189882.31,"N_COORD97":2582509.9100000001,"ADDRESS":"中山路２之８６號","OBJECTID":492776},"geometry":{"x":189882.31000000052,"y":2582509.910000002}},{"attributes":{"ID":492804,"DIS_CODE":0,"TOWNNAME":"白河區","LI":"白河里","LIN":"1鄰","STREET":"中山路","SECT":" ","MAREA":" ","LANE":" ","ALLEY":" ","HOUSE_NO":"２之８８號","E_COORD97":189865.76999999999,"N_COORD97":2582424.1499999999,"ADDRESS":"中山路２之８８號","OBJECTID":492777},"geometry":{"x":189865.77000000048,"y":2582424.1500000022}},{"attributes":{"ID":492805,"DIS_CODE":0,"TOWNNAME":"白河區","LI":"白河里","LIN":"1鄰","STREET":"中山路","SECT":" ","MAREA":" ","LANE":" ","ALLEY":" ","HOUSE_NO":"２之８號","E_COORD97":189962.98999999999,"N_COORD97":2582707.5699999998,"ADDRESS":"中山路２之８號","OBJECTID":492778},"geometry":{"x":189962.99000000209,"y":2582707.5700000003}},{"attributes":{"ID":492806,"DIS_CODE":0,"TOWNNAME":"白河區","LI":"永安里","LIN":"1鄰","STREET":"中山路","SECT":" ","MAREA":" ","LANE":" ","ALLEY":" ","HOUSE_NO":"３１號","E_COORD97":190161.98000000001,"N_COORD97":2583053.0299999998,"ADDRESS":"中山路３１號","OBJECTID":492779},"geometry":{"x":190161.98000000138,"y":2583053.0299999993}},{"attributes":{"ID":492807,"DIS_CODE":0,"TOWNNAME":"白河區","LI":"永安里","LIN":"1鄰","STREET":"中山路","SECT":" ","MAREA":" ","LANE":" ","ALLEY":" ","HOUSE_NO":"３３號","E_COORD97":190163.29000000001,"N_COORD97":2583058.0899999999,"ADDRESS":"中山路３３號","OBJECTID":492780},"geometry":{"x":190163.29000000004,"y":2583058.0900000017}},{"attributes":{"ID":492808,"DIS_CODE":0,"TOWNNAME":"白河區","LI":"永安里","LIN":"1鄰","STREET":"中山路","SECT":" ","MAREA":" ","LANE":" ","ALLEY":" ","HOUSE_NO":"３５號","E_COORD97":190164.04999999999,"N_COORD97":2583070.0600000001,"ADDRESS":"中山路３５號","OBJECTID":492781},"geometry":{"x":190164.05000000075,"y":2583070.0600000005}},{"attributes":{"ID":492809,"DIS_CODE":0,"TOWNNAME":"白河區","LI":"永安里","LIN":"1鄰","STREET":"中山路","SECT":" ","MAREA":" ","LANE":" ","ALLEY":" ","HOUSE_NO":"３７號","E_COORD97":190165.16,"N_COORD97":2583074.2400000002,"ADDRESS":"中山路３７號","OBJECTID":492782},"geometry":{"x":190165.16000000201,"y":2583074.2400000021}},{"attributes":{"ID":492810,"DIS_CODE":0,"TOWNNAME":"白河區","LI":"永安里","LIN":"1鄰","STREET":"中山路","SECT":" ","MAREA":" ","LANE":" ","ALLEY":" ","HOUSE_NO":"３９號","E_COORD97":190166.81,"N_COORD97":2583079.1200000001,"ADDRESS":"中山路３９號","OBJECTID":492783},"geometry":{"x":190166.81000000145,"y":2583079.1200000029}},{"attributes":{"ID":492811,"DIS_CODE":0,"TOWNNAME":"白河區","LI":"永安里","LIN":"1鄰","STREET":"中山路","SECT":" ","MAREA":" ","LANE":" ","ALLEY":" ","HOUSE_NO":"３之１號","E_COORD97":190111.5,"N_COORD97":2582955.3300000001,"ADDRESS":"中山路３之１號","OBJECTID":492784},"geometry":{"x":190111.5,"y":2582955.3300000019}},{"attributes":{"ID":492812,"DIS_CODE":0,"TOWNNAME":"白河區","LI":"永安里","LIN":"1鄰","STREET":"中山路","SECT":" ","MAREA":" ","LANE":" ","ALLEY":" ","HOUSE_NO":"３之２號","E_COORD97":190114.59,"N_COORD97":2582959.1699999999,"ADDRESS":"中山路３之２號","OBJECTID":492785},"geometry":{"x":190114.59000000078,"y":2582959.1700000018}},{"attributes":{"ID":492813,"DIS_CODE":0,"TOWNNAME":"白河區","LI":"永安里","LIN":"1鄰","STREET":"中山路","SECT":" ","MAREA":" ","LANE":" ","ALLEY":" ","HOUSE_NO":"３號","E_COORD97":190108.76000000001,"N_COORD97":2582953.0499999998,"ADDRESS":"中山路３號","OBJECTID":492786},"geometry":{"x":190108.76000000071,"y":2582953.0500000045}},{"attributes":{"ID":492814,"DIS_CODE":0,"TOWNNAME":"白河區","LI":"永安里","LIN":"1鄰","STREET":"中山路","SECT":" ","MAREA":" ","LANE":" ","ALLEY":" ","HOUSE_NO":"４１號","E_COORD97":190168.06,"N_COORD97":2583083.3700000001,"ADDRESS":"中山路４１號","OBJECTID":492787},"geometry":{"x":190168.05999999959,"y":2583083.3700000048}},{"attributes":{"ID":492815,"DIS_CODE":0,"TOWNNAME":"白河區","LI":"永安里","LIN":"1鄰","STREET":"中山路","SECT":" ","MAREA":" ","LANE":" ","ALLEY":" ","HOUSE_NO":"４３號","E_COORD97":190169.75,"N_COORD97":2583087.3799999999,"ADDRESS":"中山路４３號","OBJECTID":492788},"geometry":{"x":190169.75000000093,"y":2583087.379999999}},{"attributes":{"ID":492816,"DIS_CODE":0,"TOWNNAME":"白河區","LI":"永安里","LIN":"1鄰","STREET":"中山路","SECT":" ","MAREA":" ","LANE":" ","ALLEY":" ","HOUSE_NO":"４５號","E_COORD97":190171.20000000001,"N_COORD97":2583091.8300000001,"ADDRESS":"中山路４５號","OBJECTID":492789},"geometry":{"x":190171.20000000019,"y":2583091.8300000001}},{"attributes":{"ID":492817,"DIS_CODE":0,"TOWNNAME":"白河區","LI":"永安里","LIN":"1鄰","STREET":"中山路","SECT":" ","MAREA":" ","LANE":" ","ALLEY":" ","HOUSE_NO":"４７號","E_COORD97":190175.26000000001,"N_COORD97":2583095.3500000001,"ADDRESS":"中山路４７號","OBJECTID":492790},"geometry":{"x":190175.25999999978,"y":2583095.3499999978}},{"attributes":{"ID":492818,"DIS_CODE":0,"TOWNNAME":"白河區","LI":"永安里","LIN":"1鄰","STREET":"中山路","SECT":" ","MAREA":" ","LANE":" ","ALLEY":" ","HOUSE_NO":"４９號","E_COORD97":190175.82000000001,"N_COORD97":2583098.5,"ADDRESS":"中山路４９號","OBJECTID":492791},"geometry":{"x":190175.8200000003,"y":2583098.5000000037}},{"attributes":{"ID":492819,"DIS_CODE":0,"TOWNNAME":"白河區","LI":"永安里","LIN":"1鄰","STREET":"中山路","SECT":" ","MAREA":" ","LANE":" ","ALLEY":" ","HOUSE_NO":"５號","E_COORD97":190117.54000000001,"N_COORD97":2582963.8599999999,"ADDRESS":"中山路５號","OBJECTID":492792},"geometry":{"x":190117.54000000004,"y":2582963.8600000013}},{"attributes":{"ID":492820,"DIS_CODE":0,"TOWNNAME":"白河區","LI":"白河里","LIN":"1鄰","STREET":"中山路","SECT":" ","MAREA":" ","LANE":" ","ALLEY":" ","HOUSE_NO":"６之１號","E_COORD97":190089.25,"N_COORD97":2582879.5299999998,"ADDRESS":"中山路６之１號","OBJECTID":492793},"geometry":{"x":190089.25,"y":2582879.5299999993}},{"attributes":{"ID":492821,"DIS_CODE":0,"TOWNNAME":"白河區","LI":"白河里","LIN":"1鄰","STREET":"中山路","SECT":" ","MAREA":" ","LANE":" ","ALLEY":" ","HOUSE_NO":"６之２號","E_COORD97":190091.38,"N_COORD97":2582885.0699999998,"ADDRESS":"中山路６之２號","OBJECTID":492794},"geometry":{"x":190091.37999999989,"y":2582885.0700000022}},{"attributes":{"ID":492822,"DIS_CODE":0,"TOWNNAME":"白河區","LI":"白河里","LIN":"1鄰","STREET":"中山路","SECT":" ","MAREA":" ","LANE":" ","ALLEY":" ","HOUSE_NO":"６號","E_COORD97":190114.88,"N_COORD97":2582885.5699999998,"ADDRESS":"中山路６號","OBJECTID":492795},"geometry":{"x":190114.88000000082,"y":2582885.5700000022}},{"attributes":{"ID":492823,"DIS_CODE":0,"TOWNNAME":"白河區","LI":"白河里","LIN":"1鄰","STREET":"中山路","SECT":" ","MAREA":" ","LANE":" ","ALLEY":" ","HOUSE_NO":"７號","E_COORD97":190120.56,"N_COORD97":2582967.7000000002,"ADDRESS":"中山路７號","OBJECTID":492796},"geometry":{"x":190120.55999999959,"y":2582967.7000000011}},{"attributes":{"ID":492824,"DIS_CODE":0,"TOWNNAME":"仁德區","LI":"後壁里","LIN":"1鄰","STREET":"中正路","SECT":"二段","MAREA":" ","LANE":" ","ALLEY":" ","HOUSE_NO":"３３２號","E_COORD97":173264.64999999999,"N_COORD97":2539089.5299999998,"ADDRESS":"中正路二段３３２號","OBJECTID":492797},"geometry":{"x":173264.6500000013,"y":2539089.5299999993}},{"attributes":{"ID":492825,"DIS_CODE":0,"TOWNNAME":"仁德區","LI":"後壁里","LIN":"1鄰","STREET":"中正路","SECT":"二段","MAREA":" ","LANE":" ","ALLEY":" ","HOUSE_NO":"３９８號","E_COORD97":173281.29999999999,"N_COORD97":2539238.02,"ADDRESS":"中正路二段３９８號","OBJECTID":492798},"geometry":{"x":173281.29999999888,"y":2539238.0200000014}},{"attributes":{"ID":492826,"DIS_CODE":0,"TOWNNAME":"仁德區","LI":"太子里","LIN":"1鄰","STREET":"太子路","SECT":" ","MAREA":" ","LANE":" ","ALLEY":" ","HOUSE_NO":"２５０號","E_COORD97":174137.60999999999,"N_COORD97":2543510.5099999998,"ADDRESS":"太子路２５０號","OBJECTID":492799},"geometry":{"x":174137.6100000022,"y":2543510.5099999998}},{"attributes":{"ID":492827,"DIS_CODE":0,"TOWNNAME":"永康區","LI":"北灣里","LIN":"34鄰","STREET":"大灣路","SECT":" ","MAREA":" ","LANE":"４０巷","ALLEY":"２６弄","HOUSE_NO":"５號","E_COORD97":175180.84,"N_COORD97":2546029.9399999999,"ADDRESS":"大灣路４０巷２６弄５號","OBJECTID":492800},"geometry":{"x":175180.83999999985,"y":2546029.9399999995}}]}