{"displayFieldName":"TOWNNAME","fieldAliases":{"ID":"ID","DIS_CODE":"DIS_CODE","TOWNNAME":"TOWNNAME","LI":"LI","LIN":"LIN","STREET":"STREET","SECT":"SECT","MAREA":"MAREA","LANE":"LANE","ALLEY":"ALLEY","HOUSE_NO":"HOUSE_NO","E_COORD97":"E_COORD97","N_COORD97":"N_COORD97","ADDRESS":"ADDRESS","OBJECTID":"OBJECTID"},"geometryType":"esriGeometryPoint","spatialReference":{"wkid":102443,"latestWkid":3826},"fields":[{"name":"ID","type":"esriFieldTypeDouble","alias":"ID"},{"name":"DIS_CODE","type":"esriFieldTypeInteger","alias":"DIS_CODE"},{"name":"TOWNNAME","type":"esriFieldTypeString","alias":"TOWNNAME","length":8},{"name":"LI","type":"esriFieldTypeString","alias":"LI","length":8},{"name":"LIN","type":"esriFieldTypeString","alias":"LIN","length":12},{"name":"STREET","type":"esriFieldTypeString","alias":"STREET","length":20},{"name":"SECT","type":"esriFieldTypeString","alias":"SECT","length":8},{"name":"MAREA","type":"esriFieldTypeString","alias":"MAREA","length":12},{"name":"LANE","type":"esriFieldTypeString","alias":"LANE","length":10},{"name":"ALLEY","type":"esriFieldTypeString","alias":"ALLEY","length":10},{"name":"HOUSE_NO","type":"esriFieldTypeString","alias":"HOUSE_NO","length":20},{"name":"E_COORD97","type":"esriFieldTypeDouble","alias":"E_COORD97"},{"name":"N_COORD97","type":"esriFieldTypeDouble","alias":"N_COORD97"},{"name":"ADDRESS","type":"esriFieldTypeString","alias":"ADDRESS","length":50},{"name":"OBJECTID","type":"esriFieldTypeOID","alias":"OBJECTID"}],"features":[{"attributes":{"ID":604628,"DIS_CODE":0,"TOWNNAME":"永康區","LI":"大橋里","LIN":"22鄰","STREET":"大橋一街","SECT":" ","MAREA":" ","LANE":" ","ALLEY":" ","HOUSE_NO":"１６３號","E_COORD97":171094.53,"N_COORD97":2546536.5,"ADDRESS":"大橋一街１６３號","OBJECTID":604601},"geometry":{"x":171094.53000000026,"y":2546536.5000000037}},{"attributes":{"ID":604629,"DIS_CODE":0,"TOWNNAME":"永康區","LI":"大橋里","LIN":"22鄰","STREET":"大橋一街","SECT":" ","MAREA":" ","LANE":" ","ALLEY":" ","HOUSE_NO":"１６１號","E_COORD97":171090.73000000001,"N_COORD97":2546534,"ADDRESS":"大橋一街１６１號","OBJECTID":604602},"geometry":{"x":171090.73000000231,"y":2546534.0000000019}},{"attributes":{"ID":604630,"DIS_CODE":0,"TOWNNAME":"永康區","LI":"中興里","LIN":"22鄰","STREET":"中華路","SECT":" ","MAREA":" ","LANE":" ","ALLEY":" ","HOUSE_NO":"２０２號之１１","E_COORD97":171638.67999999999,"N_COORD97":2545025.54,"ADDRESS":"中華路２０２號之１１","OBJECTID":604603},"geometry":{"x":171638.6799999997,"y":2545025.5399999991}},{"attributes":{"ID":604631,"DIS_CODE":0,"TOWNNAME":"永康區","LI":"中興里","LIN":"22鄰","STREET":"中華路","SECT":" ","MAREA":" ","LANE":" ","ALLEY":" ","HOUSE_NO":"１９６號之１","E_COORD97":171633.26000000001,"N_COORD97":2544991.2999999998,"ADDRESS":"中華路１９６號之１","OBJECTID":604604},"geometry":{"x":171633.25999999978,"y":2544991.3000000007}},{"attributes":{"ID":604632,"DIS_CODE":0,"TOWNNAME":"永康區","LI":"大灣里","LIN":"22鄰","STREET":"中灣五街","SECT":" ","MAREA":" ","LANE":" ","ALLEY":" ","HOUSE_NO":"５號","E_COORD97":175053.64000000001,"N_COORD97":2545206.1200000001,"ADDRESS":"中灣五街５號","OBJECTID":604605},"geometry":{"x":175053.63999999966,"y":2545206.120000001}},{"attributes":{"ID":604633,"DIS_CODE":0,"TOWNNAME":"永康區","LI":"大橋里","LIN":"22鄰","STREET":"大橋一街","SECT":" ","MAREA":" ","LANE":" ","ALLEY":" ","HOUSE_NO":"１７９號","E_COORD97":171127.62,"N_COORD97":2546557.25,"ADDRESS":"大橋一街１７９號","OBJECTID":604606},"geometry":{"x":171127.62000000011,"y":2546557.25}},{"attributes":{"ID":604634,"DIS_CODE":0,"TOWNNAME":"永康區","LI":"大灣里","LIN":"22鄰","STREET":"大灣路","SECT":" ","MAREA":" ","LANE":" ","ALLEY":" ","HOUSE_NO":"２２５號","E_COORD97":174960.39000000001,"N_COORD97":2545287.2799999998,"ADDRESS":"大灣路２２５號","OBJECTID":604607},"geometry":{"x":174960.38999999966,"y":2545287.2800000012}},{"attributes":{"ID":604635,"DIS_CODE":0,"TOWNNAME":"永康區","LI":"崑山里","LIN":"22鄰","STREET":"國光一街","SECT":" ","MAREA":" ","LANE":" ","ALLEY":" ","HOUSE_NO":"１４號","E_COORD97":174028.87,"N_COORD97":2544576.1400000001,"ADDRESS":"國光一街１４號","OBJECTID":604608},"geometry":{"x":174028.87000000197,"y":2544576.1400000006}},{"attributes":{"ID":604636,"DIS_CODE":0,"TOWNNAME":"永康區","LI":"崑山里","LIN":"22鄰","STREET":"國光一街","SECT":" ","MAREA":" ","LANE":" ","ALLEY":" ","HOUSE_NO":"１８號","E_COORD97":173995.23999999999,"N_COORD97":2544591.8700000001,"ADDRESS":"國光一街１８號","OBJECTID":604609},"geometry":{"x":173995.24000000022,"y":2544591.870000001}},{"attributes":{"ID":604637,"DIS_CODE":0,"TOWNNAME":"仁德區","LI":"仁義里","LIN":"22鄰","STREET":"正義路","SECT":" ","MAREA":" ","LANE":" ","ALLEY":" ","HOUSE_NO":"１０６號","E_COORD97":173665.01000000001,"N_COORD97":2541418.5099999998,"ADDRESS":"正義路１０６號","OBJECTID":604610},"geometry":{"x":173665.01000000071,"y":2541418.5099999998}},{"attributes":{"ID":604638,"DIS_CODE":0,"TOWNNAME":"中西區","LI":"開山里","LIN":"22鄰","STREET":"開山路","SECT":" ","MAREA":" ","LANE":" ","ALLEY":" ","HOUSE_NO":"２７９號","E_COORD97":169063.48000000001,"N_COORD97":2542923.9399999999,"ADDRESS":"開山路２７９號","OBJECTID":604611},"geometry":{"x":169063.48000000138,"y":2542923.9399999995}},{"attributes":{"ID":604639,"DIS_CODE":0,"TOWNNAME":"中西區","LI":"開山里","LIN":"22鄰","STREET":"開山路","SECT":" ","MAREA":" ","LANE":" ","ALLEY":" ","HOUSE_NO":"２７９號之１","E_COORD97":169066.82000000001,"N_COORD97":2542918.6899999999,"ADDRESS":"開山路２７９號之１","OBJECTID":604612},"geometry":{"x":169066.8200000003,"y":2542918.6900000013}},{"attributes":{"ID":604640,"DIS_CODE":0,"TOWNNAME":"中西區","LI":"開山里","LIN":"22鄰","STREET":"開山路","SECT":" ","MAREA":" ","LANE":" ","ALLEY":" ","HOUSE_NO":"２８１號","E_COORD97":169070.79000000001,"N_COORD97":2542914.98,"ADDRESS":"開山路２８１號","OBJECTID":604613},"geometry":{"x":169070.7900000019,"y":2542914.9800000004}},{"attributes":{"ID":604641,"DIS_CODE":0,"TOWNNAME":"中西區","LI":"開山里","LIN":"22鄰","STREET":"開山路","SECT":" ","MAREA":" ","LANE":" ","ALLEY":" ","HOUSE_NO":"２８３號","E_COORD97":169072.32999999999,"N_COORD97":2542905.2200000002,"ADDRESS":"開山路２８３號","OBJECTID":604614},"geometry":{"x":169072.33000000194,"y":2542905.2200000025}},{"attributes":{"ID":604642,"DIS_CODE":0,"TOWNNAME":"中西區","LI":"開山里","LIN":"22鄰","STREET":"開山路","SECT":" ","MAREA":" ","LANE":" ","ALLEY":" ","HOUSE_NO":"２８７號","E_COORD97":169079.13,"N_COORD97":2542898.4300000002,"ADDRESS":"開山路２８７號","OBJECTID":604615},"geometry":{"x":169079.13000000082,"y":2542898.4299999997}},{"attributes":{"ID":604643,"DIS_CODE":0,"TOWNNAME":"中西區","LI":"開山里","LIN":"22鄰","STREET":"開山路","SECT":" ","MAREA":" ","LANE":" ","ALLEY":" ","HOUSE_NO":"２８７號之１","E_COORD97":169076.69,"N_COORD97":2542901.5,"ADDRESS":"開山路２８７號之１","OBJECTID":604616},"geometry":{"x":169076.69000000041,"y":2542901.5}},{"attributes":{"ID":604644,"DIS_CODE":0,"TOWNNAME":"中西區","LI":"開山里","LIN":"22鄰","STREET":"大同路","SECT":"一段","MAREA":" ","LANE":" ","ALLEY":" ","HOUSE_NO":"１１６號","E_COORD97":169106.31,"N_COORD97":2542911.1099999999,"ADDRESS":"大同路一段１１６號","OBJECTID":604617},"geometry":{"x":169106.31000000052,"y":2542911.1100000013}},{"attributes":{"ID":604645,"DIS_CODE":0,"TOWNNAME":"永康區","LI":"大灣里","LIN":"22鄰","STREET":"民族路","SECT":" ","MAREA":" ","LANE":" ","ALLEY":" ","HOUSE_NO":"２９６號","E_COORD97":174978.26999999999,"N_COORD97":2545249.2400000002,"ADDRESS":"民族路２９６號","OBJECTID":604618},"geometry":{"x":174978.27000000142,"y":2545249.2400000002}},{"attributes":{"ID":604646,"DIS_CODE":0,"TOWNNAME":"永康區","LI":"大橋里","LIN":"22鄰","STREET":"大橋一街","SECT":" ","MAREA":" ","LANE":" ","ALLEY":" ","HOUSE_NO":"１５１號","E_COORD97":171052.85000000001,"N_COORD97":2546536.75,"ADDRESS":"大橋一街１５１號","OBJECTID":604619},"geometry":{"x":171052.84999999963,"y":2546536.75}},{"attributes":{"ID":604647,"DIS_CODE":0,"TOWNNAME":"永康區","LI":"大灣里","LIN":"22鄰","STREET":"民族路","SECT":" ","MAREA":" ","LANE":" ","ALLEY":" ","HOUSE_NO":"３０８號","E_COORD97":174963,"N_COORD97":2545271.79,"ADDRESS":"民族路３０８號","OBJECTID":604620},"geometry":{"x":174963,"y":2545271.7899999991}},{"attributes":{"ID":604648,"DIS_CODE":0,"TOWNNAME":"永康區","LI":"大灣里","LIN":"22鄰","STREET":"民族路","SECT":" ","MAREA":" ","LANE":" ","ALLEY":" ","HOUSE_NO":"２７０號","E_COORD97":175011.85000000001,"N_COORD97":2545205.1800000002,"ADDRESS":"民族路２７０號","OBJECTID":604621},"geometry":{"x":175011.85000000056,"y":2545205.1799999997}},{"attributes":{"ID":604649,"DIS_CODE":0,"TOWNNAME":"永康區","LI":"大灣里","LIN":"22鄰","STREET":"民族路","SECT":" ","MAREA":" ","LANE":" ","ALLEY":" ","HOUSE_NO":"２８２號","E_COORD97":174996.91,"N_COORD97":2545225.7400000002,"ADDRESS":"民族路２８２號","OBJECTID":604622},"geometry":{"x":174996.91000000108,"y":2545225.7400000002}},{"attributes":{"ID":604650,"DIS_CODE":0,"TOWNNAME":"永康區","LI":"大橋里","LIN":"22鄰","STREET":"大橋一街","SECT":" ","MAREA":" ","LANE":" ","ALLEY":" ","HOUSE_NO":"１６９號","E_COORD97":171105.47,"N_COORD97":2546543.5,"ADDRESS":"大橋一街１６９號","OBJECTID":604623},"geometry":{"x":171105.47000000067,"y":2546543.5000000037}},{"attributes":{"ID":604651,"DIS_CODE":0,"TOWNNAME":"永康區","LI":"大灣里","LIN":"22鄰","STREET":"民族路","SECT":" ","MAREA":" ","LANE":" ","ALLEY":" ","HOUSE_NO":"３０６號","E_COORD97":174964.79000000001,"N_COORD97":2545265.4900000002,"ADDRESS":"民族路３０６號","OBJECTID":604624},"geometry":{"x":174964.79000000004,"y":2545265.4900000039}},{"attributes":{"ID":604652,"DIS_CODE":0,"TOWNNAME":"永康區","LI":"中興里","LIN":"22鄰","STREET":"中華路","SECT":" ","MAREA":" ","LANE":" ","ALLEY":" ","HOUSE_NO":"２０２號之３０","E_COORD97":171638.73000000001,"N_COORD97":2545025.54,"ADDRESS":"中華路２０２號之３０","OBJECTID":604625},"geometry":{"x":171638.73000000138,"y":2545025.5399999991}},{"attributes":{"ID":604653,"DIS_CODE":0,"TOWNNAME":"永康區","LI":"中興里","LIN":"22鄰","STREET":"中華路","SECT":" ","MAREA":" ","LANE":" ","ALLEY":" ","HOUSE_NO":"２０２號之２２","E_COORD97":171638.81,"N_COORD97":2545025.54,"ADDRESS":"中華路２０２號之２２","OBJECTID":604626},"geometry":{"x":171638.81000000052,"y":2545025.5399999991}},{"attributes":{"ID":604654,"DIS_CODE":0,"TOWNNAME":"永康區","LI":"中興里","LIN":"22鄰","STREET":"中華路","SECT":" ","MAREA":" ","LANE":" ","ALLEY":" ","HOUSE_NO":"１９８號之４","E_COORD97":171635.07000000001,"N_COORD97":2545003.2999999998,"ADDRESS":"中華路１９８號之４","OBJECTID":604627},"geometry":{"x":171635.0700000003,"y":2545003.3000000026}},{"attributes":{"ID":604655,"DIS_CODE":0,"TOWNNAME":"永康區","LI":"中興里","LIN":"22鄰","STREET":"中華路","SECT":" ","MAREA":" ","LANE":" ","ALLEY":" ","HOUSE_NO":"２００號之９","E_COORD97":171636.23000000001,"N_COORD97":2545014.54,"ADDRESS":"中華路２００號之９","OBJECTID":604628},"geometry":{"x":171636.23000000045,"y":2545014.540000001}},{"attributes":{"ID":604656,"DIS_CODE":0,"TOWNNAME":"永康區","LI":"中興里","LIN":"22鄰","STREET":"中華路","SECT":" ","MAREA":" ","LANE":" ","ALLEY":" ","HOUSE_NO":"１９８號之２０","E_COORD97":171636.35000000001,"N_COORD97":2545003.2999999998,"ADDRESS":"中華路１９８號之２０","OBJECTID":604629},"geometry":{"x":171636.34999999963,"y":2545003.3000000026}},{"attributes":{"ID":604657,"DIS_CODE":0,"TOWNNAME":"永康區","LI":"中興里","LIN":"22鄰","STREET":"中華路","SECT":" ","MAREA":" ","LANE":" ","ALLEY":" ","HOUSE_NO":"２０４號之３","E_COORD97":171638.20999999999,"N_COORD97":2545040.04,"ADDRESS":"中華路２０４號之３","OBJECTID":604630},"geometry":{"x":171638.21000000089,"y":2545040.0400000028}},{"attributes":{"ID":604658,"DIS_CODE":0,"TOWNNAME":"永康區","LI":"中興里","LIN":"22鄰","STREET":"中華路","SECT":" ","MAREA":" ","LANE":" ","ALLEY":" ","HOUSE_NO":"２０２號之１８","E_COORD97":171638.82999999999,"N_COORD97":2545025.54,"ADDRESS":"中華路２０２號之１８","OBJECTID":604631},"geometry":{"x":171638.83000000194,"y":2545025.5399999991}},{"attributes":{"ID":604659,"DIS_CODE":0,"TOWNNAME":"永康區","LI":"中興里","LIN":"22鄰","STREET":"中華路","SECT":" ","MAREA":" ","LANE":" ","ALLEY":" ","HOUSE_NO":"２０２號之５","E_COORD97":171637.57999999999,"N_COORD97":2545025.54,"ADDRESS":"中華路２０２號之５","OBJECTID":604632},"geometry":{"x":171637.58000000101,"y":2545025.5399999991}},{"attributes":{"ID":604660,"DIS_CODE":0,"TOWNNAME":"永康區","LI":"中興里","LIN":"22鄰","STREET":"中華路","SECT":" ","MAREA":" ","LANE":" ","ALLEY":" ","HOUSE_NO":"２００號之７","E_COORD97":171636.23000000001,"N_COORD97":2545014.54,"ADDRESS":"中華路２００號之７","OBJECTID":604633},"geometry":{"x":171636.23000000045,"y":2545014.540000001}},{"attributes":{"ID":604661,"DIS_CODE":0,"TOWNNAME":"永康區","LI":"中興里","LIN":"22鄰","STREET":"中華路","SECT":" ","MAREA":" ","LANE":" ","ALLEY":" ","HOUSE_NO":"１９８號之３","E_COORD97":171635.14999999999,"N_COORD97":2545003.2999999998,"ADDRESS":"中華路１９８號之３","OBJECTID":604634},"geometry":{"x":171635.14999999944,"y":2545003.3000000026}},{"attributes":{"ID":604662,"DIS_CODE":0,"TOWNNAME":"永康區","LI":"中興里","LIN":"22鄰","STREET":"中華路","SECT":" ","MAREA":" ","LANE":" ","ALLEY":" ","HOUSE_NO":"２００號之４","E_COORD97":171636.17000000001,"N_COORD97":2545014.54,"ADDRESS":"中華路２００號之４","OBJECTID":604635},"geometry":{"x":171636.16999999993,"y":2545014.540000001}},{"attributes":{"ID":604663,"DIS_CODE":0,"TOWNNAME":"永康區","LI":"中興里","LIN":"22鄰","STREET":"中華路","SECT":" ","MAREA":" ","LANE":" ","ALLEY":" ","HOUSE_NO":"２００號之１３","E_COORD97":171637.5,"N_COORD97":2545014.54,"ADDRESS":"中華路２００號之１３","OBJECTID":604636},"geometry":{"x":171637.49999999907,"y":2545014.540000001}},{"attributes":{"ID":604664,"DIS_CODE":0,"TOWNNAME":"永康區","LI":"中興里","LIN":"22鄰","STREET":"中華路","SECT":" ","MAREA":" ","LANE":" ","ALLEY":" ","HOUSE_NO":"２００號之１９","E_COORD97":171637.48000000001,"N_COORD97":2545014.54,"ADDRESS":"中華路２００號之１９","OBJECTID":604637},"geometry":{"x":171637.48000000045,"y":2545014.540000001}},{"attributes":{"ID":604665,"DIS_CODE":0,"TOWNNAME":"永康區","LI":"中興里","LIN":"22鄰","STREET":"中華路","SECT":" ","MAREA":" ","LANE":" ","ALLEY":" ","HOUSE_NO":"１９８號之２４","E_COORD97":171636.32000000001,"N_COORD97":2545003.2999999998,"ADDRESS":"中華路１９８號之２４","OBJECTID":604638},"geometry":{"x":171636.32000000123,"y":2545003.3000000026}},{"attributes":{"ID":604666,"DIS_CODE":0,"TOWNNAME":"永康區","LI":"中興里","LIN":"22鄰","STREET":"中華路","SECT":" ","MAREA":" ","LANE":" ","ALLEY":" ","HOUSE_NO":"１９８號之２３","E_COORD97":171636.39999999999,"N_COORD97":2545003.2999999998,"ADDRESS":"中華路１９８號之２３","OBJECTID":604639},"geometry":{"x":171636.40000000037,"y":2545003.3000000026}},{"attributes":{"ID":604667,"DIS_CODE":0,"TOWNNAME":"永康區","LI":"中興里","LIN":"22鄰","STREET":"中華路","SECT":" ","MAREA":" ","LANE":" ","ALLEY":" ","HOUSE_NO":"２０２號之１７","E_COORD97":171638.76000000001,"N_COORD97":2545025.54,"ADDRESS":"中華路２０２號之１７","OBJECTID":604640},"geometry":{"x":171638.75999999978,"y":2545025.5399999991}},{"attributes":{"ID":604668,"DIS_CODE":0,"TOWNNAME":"永康區","LI":"中興里","LIN":"22鄰","STREET":"中華路","SECT":" ","MAREA":" ","LANE":" ","ALLEY":" ","HOUSE_NO":"１９８號之７","E_COORD97":171635.13,"N_COORD97":2545003.2999999998,"ADDRESS":"中華路１９８號之７","OBJECTID":604641},"geometry":{"x":171635.13000000082,"y":2545003.3000000026}},{"attributes":{"ID":604669,"DIS_CODE":0,"TOWNNAME":"永康區","LI":"中興里","LIN":"22鄰","STREET":"中華路","SECT":" ","MAREA":" ","LANE":" ","ALLEY":" ","HOUSE_NO":"１９８號之１８","E_COORD97":171636.45000000001,"N_COORD97":2545003.2999999998,"ADDRESS":"中華路１９８號之１８","OBJECTID":604642},"geometry":{"x":171636.45000000205,"y":2545003.3000000026}},{"attributes":{"ID":604670,"DIS_CODE":0,"TOWNNAME":"永康區","LI":"中興里","LIN":"22鄰","STREET":"中華路","SECT":" ","MAREA":" ","LANE":" ","ALLEY":" ","HOUSE_NO":"２０２號之３","E_COORD97":171637.53,"N_COORD97":2545025.54,"ADDRESS":"中華路２０２號之３","OBJECTID":604643},"geometry":{"x":171637.52999999933,"y":2545025.5399999991}},{"attributes":{"ID":604671,"DIS_CODE":0,"TOWNNAME":"永康區","LI":"中興里","LIN":"22鄰","STREET":"中華路","SECT":" ","MAREA":" ","LANE":" ","ALLEY":" ","HOUSE_NO":"２００號之１７","E_COORD97":171637.48000000001,"N_COORD97":2545014.54,"ADDRESS":"中華路２００號之１７","OBJECTID":604644},"geometry":{"x":171637.48000000045,"y":2545014.540000001}},{"attributes":{"ID":604672,"DIS_CODE":0,"TOWNNAME":"永康區","LI":"中興里","LIN":"22鄰","STREET":"中華路","SECT":" ","MAREA":" ","LANE":" ","ALLEY":" ","HOUSE_NO":"２００號之８","E_COORD97":171636.29999999999,"N_COORD97":2545014.54,"ADDRESS":"中華路２００號之８","OBJECTID":604645},"geometry":{"x":171636.29999999981,"y":2545014.540000001}},{"attributes":{"ID":604673,"DIS_CODE":0,"TOWNNAME":"永康區","LI":"中興里","LIN":"22鄰","STREET":"中華路","SECT":" ","MAREA":" ","LANE":" ","ALLEY":" ","HOUSE_NO":"２００號之５","E_COORD97":171636.29999999999,"N_COORD97":2545014.54,"ADDRESS":"中華路２００號之５","OBJECTID":604646},"geometry":{"x":171636.29999999981,"y":2545014.540000001}},{"attributes":{"ID":604674,"DIS_CODE":0,"TOWNNAME":"永康區","LI":"中興里","LIN":"22鄰","STREET":"中華路","SECT":" ","MAREA":" ","LANE":" ","ALLEY":" ","HOUSE_NO":"２００號之１６","E_COORD97":171637.5,"N_COORD97":2545014.54,"ADDRESS":"中華路２００號之１６","OBJECTID":604647},"geometry":{"x":171637.49999999907,"y":2545014.540000001}},{"attributes":{"ID":604675,"DIS_CODE":0,"TOWNNAME":"永康區","LI":"中興里","LIN":"22鄰","STREET":"中華路","SECT":" ","MAREA":" ","LANE":" ","ALLEY":" ","HOUSE_NO":"１９６號之１４","E_COORD97":171634.53,"N_COORD97":2544991.2999999998,"ADDRESS":"中華路１９６號之１４","OBJECTID":604648},"geometry":{"x":171634.53000000119,"y":2544991.3000000007}},{"attributes":{"ID":604676,"DIS_CODE":0,"TOWNNAME":"官田區","LI":"隆本里","LIN":"22鄰","STREET":"勝利路","SECT":" ","MAREA":" ","LANE":" ","ALLEY":" ","HOUSE_NO":"１２６號","E_COORD97":180044.85000000001,"N_COORD97":2566052.2599999998,"ADDRESS":"勝利路１２６號","OBJECTID":604649},"geometry":{"x":180044.85000000056,"y":2566052.2599999998}},{"attributes":{"ID":604677,"DIS_CODE":0,"TOWNNAME":"官田區","LI":"隆本里","LIN":"22鄰","STREET":"勝利路","SECT":" ","MAREA":" ","LANE":" ","ALLEY":" ","HOUSE_NO":"１２８號","E_COORD97":180058.66,"N_COORD97":2566057.8199999998,"ADDRESS":"勝利路１２８號","OBJECTID":604650},"geometry":{"x":180058.66000000108,"y":2566057.8200000022}},{"attributes":{"ID":604678,"DIS_CODE":0,"TOWNNAME":"官田區","LI":"隆本里","LIN":"22鄰","STREET":"勝利路","SECT":" ","MAREA":" ","LANE":" ","ALLEY":" ","HOUSE_NO":"１３０號","E_COORD97":180061.26999999999,"N_COORD97":2566060.4900000002,"ADDRESS":"勝利路１３０號","OBJECTID":604651},"geometry":{"x":180061.26999999955,"y":2566060.4900000002}},{"attributes":{"ID":604679,"DIS_CODE":0,"TOWNNAME":"官田區","LI":"隆本里","LIN":"22鄰","STREET":"勝利路","SECT":" ","MAREA":" ","LANE":" ","ALLEY":" ","HOUSE_NO":"１３２號","E_COORD97":180064.51999999999,"N_COORD97":2566063.9399999999,"ADDRESS":"勝利路１３２號","OBJECTID":604652},"geometry":{"x":180064.52000000048,"y":2566063.9399999995}},{"attributes":{"ID":604680,"DIS_CODE":0,"TOWNNAME":"官田區","LI":"隆本里","LIN":"22鄰","STREET":"勝利路","SECT":" ","MAREA":" ","LANE":" ","ALLEY":" ","HOUSE_NO":"１３６號","E_COORD97":180067.60000000001,"N_COORD97":2566067.1499999999,"ADDRESS":"勝利路１３６號","OBJECTID":604653},"geometry":{"x":180067.59999999963,"y":2566067.1500000004}},{"attributes":{"ID":604681,"DIS_CODE":0,"TOWNNAME":"安南區","LI":"溪北里","LIN":"22鄰","STREET":"敦安街","SECT":" ","MAREA":" ","LANE":" ","ALLEY":" ","HOUSE_NO":"６９號","E_COORD97":169216.20999999999,"N_COORD97":2547528.6099999999,"ADDRESS":"敦安街６９號","OBJECTID":604654},"geometry":{"x":169216.21000000089,"y":2547528.6100000031}},{"attributes":{"ID":604682,"DIS_CODE":0,"TOWNNAME":"仁德區","LI":"成功里","LIN":"22鄰","STREET":"保生路","SECT":" ","MAREA":" ","LANE":" ","ALLEY":" ","HOUSE_NO":"４９號","E_COORD97":170788.48000000001,"N_COORD97":2539774.9900000002,"ADDRESS":"保生路４９號","OBJECTID":604655},"geometry":{"x":170788.48000000045,"y":2539774.9900000002}},{"attributes":{"ID":604683,"DIS_CODE":0,"TOWNNAME":"仁德區","LI":"太子里","LIN":"22鄰","STREET":"長興四街","SECT":" ","MAREA":" ","LANE":" ","ALLEY":" ","HOUSE_NO":"８８號","E_COORD97":173839.34,"N_COORD97":2543561.75,"ADDRESS":"長興四街８８號","OBJECTID":604656},"geometry":{"x":173839.34000000078,"y":2543561.7500000019}},{"attributes":{"ID":604684,"DIS_CODE":0,"TOWNNAME":"仁德區","LI":"後壁里","LIN":"22鄰","STREET":"中正路","SECT":"二段","MAREA":" ","LANE":" ","ALLEY":" ","HOUSE_NO":"１４９號","E_COORD97":173197.62,"N_COORD97":2538619.02,"ADDRESS":"中正路二段１４９號","OBJECTID":604657},"geometry":{"x":173197.62000000011,"y":2538619.0199999996}},{"attributes":{"ID":604685,"DIS_CODE":0,"TOWNNAME":"仁德區","LI":"後壁里","LIN":"22鄰","STREET":"中正路","SECT":"二段","MAREA":" ","LANE":" ","ALLEY":" ","HOUSE_NO":"１３５號","E_COORD97":173185.42000000001,"N_COORD97":2538580.7799999998,"ADDRESS":"中正路二段１３５號","OBJECTID":604658},"geometry":{"x":173185.41999999993,"y":2538580.7800000012}},{"attributes":{"ID":604686,"DIS_CODE":0,"TOWNNAME":"安南區","LI":"州南里","LIN":"17鄰","STREET":"安和路","SECT":"四段","MAREA":" ","LANE":" ","ALLEY":" ","HOUSE_NO":"２３７之８號","E_COORD97":169902.54000000001,"N_COORD97":2550608.21,"ADDRESS":"安和路四段２３７之８號","OBJECTID":604659},"geometry":{"x":169902.54000000004,"y":2550608.2100000028}},{"attributes":{"ID":604687,"DIS_CODE":0,"TOWNNAME":"安南區","LI":"州南里","LIN":"17鄰","STREET":"安和路","SECT":"四段","MAREA":" ","LANE":" ","ALLEY":" ","HOUSE_NO":"２３７之７號","E_COORD97":169901.51999999999,"N_COORD97":2550596.1400000001,"ADDRESS":"安和路四段２３７之７號","OBJECTID":604660},"geometry":{"x":169901.52000000048,"y":2550596.1400000025}},{"attributes":{"ID":604688,"DIS_CODE":0,"TOWNNAME":"安南區","LI":"州南里","LIN":"17鄰","STREET":"安和路","SECT":"四段","MAREA":" ","LANE":" ","ALLEY":" ","HOUSE_NO":"２３７之６號","E_COORD97":169902.03,"N_COORD97":2550600.71,"ADDRESS":"安和路四段２３７之６號","OBJECTID":604661},"geometry":{"x":169902.03000000119,"y":2550600.7100000009}},{"attributes":{"ID":604689,"DIS_CODE":0,"TOWNNAME":"仁德區","LI":"成功里","LIN":"22鄰","STREET":"保生路","SECT":" ","MAREA":" ","LANE":" ","ALLEY":" ","HOUSE_NO":"３７號","E_COORD97":170814.14999999999,"N_COORD97":2539771.2400000002,"ADDRESS":"保生路３７號","OBJECTID":604662},"geometry":{"x":170814.15000000037,"y":2539771.2400000039}},{"attributes":{"ID":604690,"DIS_CODE":0,"TOWNNAME":"仁德區","LI":"後壁里","LIN":"22鄰","STREET":"中正路","SECT":"二段","MAREA":" ","LANE":" ","ALLEY":" ","HOUSE_NO":"２０９號","E_COORD97":173176.73999999999,"N_COORD97":2538801.52,"ADDRESS":"中正路二段２０９號","OBJECTID":604663},"geometry":{"x":173176.74000000022,"y":2538801.5199999996}},{"attributes":{"ID":604691,"DIS_CODE":0,"TOWNNAME":"仁德區","LI":"成功里","LIN":"22鄰","STREET":"保生路","SECT":" ","MAREA":" ","LANE":" ","ALLEY":" ","HOUSE_NO":"４３號","E_COORD97":170800.20000000001,"N_COORD97":2539773.2400000002,"ADDRESS":"保生路４３號","OBJECTID":604664},"geometry":{"x":170800.20000000019,"y":2539773.2400000002}},{"attributes":{"ID":604692,"DIS_CODE":0,"TOWNNAME":"永康區","LI":"中興里","LIN":"22鄰","STREET":"中華路","SECT":" ","MAREA":" ","LANE":" ","ALLEY":" ","HOUSE_NO":"２０２號之８","E_COORD97":171637.57999999999,"N_COORD97":2545025.54,"ADDRESS":"中華路２０２號之８","OBJECTID":604665},"geometry":{"x":171637.58000000101,"y":2545025.5399999991}},{"attributes":{"ID":604693,"DIS_CODE":0,"TOWNNAME":"永康區","LI":"中興里","LIN":"22鄰","STREET":"中華路","SECT":" ","MAREA":" ","LANE":" ","ALLEY":" ","HOUSE_NO":"２０２號之２３","E_COORD97":171638.78,"N_COORD97":2545025.54,"ADDRESS":"中華路２０２號之２３","OBJECTID":604666},"geometry":{"x":171638.78000000026,"y":2545025.5399999991}},{"attributes":{"ID":604694,"DIS_CODE":0,"TOWNNAME":"永康區","LI":"中興里","LIN":"22鄰","STREET":"中華路","SECT":" ","MAREA":" ","LANE":" ","ALLEY":" ","HOUSE_NO":"１９８號之２１","E_COORD97":171636.29999999999,"N_COORD97":2545003.2999999998,"ADDRESS":"中華路１９８號之２１","OBJECTID":604667},"geometry":{"x":171636.29999999981,"y":2545003.3000000026}},{"attributes":{"ID":604695,"DIS_CODE":0,"TOWNNAME":"永康區","LI":"中興里","LIN":"22鄰","STREET":"中華路","SECT":" ","MAREA":" ","LANE":" ","ALLEY":" ","HOUSE_NO":"２０２號之２４","E_COORD97":171638.70000000001,"N_COORD97":2545025.54,"ADDRESS":"中華路２０２號之２４","OBJECTID":604668},"geometry":{"x":171638.70000000112,"y":2545025.5399999991}},{"attributes":{"ID":604696,"DIS_CODE":0,"TOWNNAME":"永康區","LI":"中興里","LIN":"22鄰","STREET":"中華路","SECT":" ","MAREA":" ","LANE":" ","ALLEY":" ","HOUSE_NO":"１９８號之１４","E_COORD97":171636.32000000001,"N_COORD97":2545003.2999999998,"ADDRESS":"中華路１９８號之１４","OBJECTID":604669},"geometry":{"x":171636.32000000123,"y":2545003.3000000026}},{"attributes":{"ID":604697,"DIS_CODE":0,"TOWNNAME":"永康區","LI":"中興里","LIN":"22鄰","STREET":"中華路","SECT":" ","MAREA":" ","LANE":" ","ALLEY":" ","HOUSE_NO":"２０２號之２８","E_COORD97":171638.82999999999,"N_COORD97":2545025.54,"ADDRESS":"中華路２０２號之２８","OBJECTID":604670},"geometry":{"x":171638.83000000194,"y":2545025.5399999991}},{"attributes":{"ID":604698,"DIS_CODE":0,"TOWNNAME":"永康區","LI":"中興里","LIN":"22鄰","STREET":"中華路","SECT":" ","MAREA":" ","LANE":" ","ALLEY":" ","HOUSE_NO":"２００號之１２","E_COORD97":171637.53,"N_COORD97":2545014.54,"ADDRESS":"中華路２００號之１２","OBJECTID":604671},"geometry":{"x":171637.52999999933,"y":2545014.540000001}},{"attributes":{"ID":604699,"DIS_CODE":0,"TOWNNAME":"永康區","LI":"中興里","LIN":"22鄰","STREET":"中華路","SECT":" ","MAREA":" ","LANE":" ","ALLEY":" ","HOUSE_NO":"２０２號之４","E_COORD97":171637.45000000001,"N_COORD97":2545025.54,"ADDRESS":"中華路２０２號之４","OBJECTID":604672},"geometry":{"x":171637.45000000019,"y":2545025.5399999991}},{"attributes":{"ID":604700,"DIS_CODE":0,"TOWNNAME":"永康區","LI":"中興里","LIN":"22鄰","STREET":"中華路","SECT":" ","MAREA":" ","LANE":" ","ALLEY":" ","HOUSE_NO":"２０２號之２９","E_COORD97":171638.76000000001,"N_COORD97":2545025.54,"ADDRESS":"中華路２０２號之２９","OBJECTID":604673},"geometry":{"x":171638.75999999978,"y":2545025.5399999991}},{"attributes":{"ID":604701,"DIS_CODE":0,"TOWNNAME":"永康區","LI":"中興里","LIN":"22鄰","STREET":"中華路","SECT":" ","MAREA":" ","LANE":" ","ALLEY":" ","HOUSE_NO":"２０４號之２","E_COORD97":171638.23999999999,"N_COORD97":2545040.04,"ADDRESS":"中華路２０４號之２","OBJECTID":604674},"geometry":{"x":171638.24000000115,"y":2545040.0400000028}},{"attributes":{"ID":604702,"DIS_CODE":0,"TOWNNAME":"永康區","LI":"中興里","LIN":"22鄰","STREET":"中華路","SECT":" ","MAREA":" ","LANE":" ","ALLEY":" ","HOUSE_NO":"２０４號之４","E_COORD97":171638.13,"N_COORD97":2545040.04,"ADDRESS":"中華路２０４號之４","OBJECTID":604675},"geometry":{"x":171638.12999999989,"y":2545040.0400000028}},{"attributes":{"ID":604703,"DIS_CODE":0,"TOWNNAME":"永康區","LI":"中興里","LIN":"22鄰","STREET":"中華路","SECT":" ","MAREA":" ","LANE":" ","ALLEY":" ","HOUSE_NO":"１９８號之５","E_COORD97":171635.20000000001,"N_COORD97":2545003.2999999998,"ADDRESS":"中華路１９８號之５","OBJECTID":604676},"geometry":{"x":171635.20000000112,"y":2545003.3000000026}},{"attributes":{"ID":604704,"DIS_CODE":0,"TOWNNAME":"永康區","LI":"中興里","LIN":"22鄰","STREET":"中華路","SECT":" ","MAREA":" ","LANE":" ","ALLEY":" ","HOUSE_NO":"２０２號之１４","E_COORD97":171638.70000000001,"N_COORD97":2545025.54,"ADDRESS":"中華路２０２號之１４","OBJECTID":604677},"geometry":{"x":171638.70000000112,"y":2545025.5399999991}},{"attributes":{"ID":604705,"DIS_CODE":0,"TOWNNAME":"永康區","LI":"中興里","LIN":"22鄰","STREET":"中華路","SECT":" ","MAREA":" ","LANE":" ","ALLEY":" ","HOUSE_NO":"２０２號之２","E_COORD97":171637.56,"N_COORD97":2545025.54,"ADDRESS":"中華路２０２號之２","OBJECTID":604678},"geometry":{"x":171637.56000000052,"y":2545025.5399999991}},{"attributes":{"ID":604706,"DIS_CODE":0,"TOWNNAME":"永康區","LI":"中興里","LIN":"22鄰","STREET":"中華路","SECT":" ","MAREA":" ","LANE":" ","ALLEY":" ","HOUSE_NO":"２１０號之３","E_COORD97":171669.97,"N_COORD97":2545041.8599999999,"ADDRESS":"中華路２１０號之３","OBJECTID":604679},"geometry":{"x":171669.97000000067,"y":2545041.8600000031}},{"attributes":{"ID":604707,"DIS_CODE":0,"TOWNNAME":"永康區","LI":"中興里","LIN":"22鄰","STREET":"中華路","SECT":" ","MAREA":" ","LANE":" ","ALLEY":" ","HOUSE_NO":"２１０號之２","E_COORD97":171665.26000000001,"N_COORD97":2545041.8599999999,"ADDRESS":"中華路２１０號之２","OBJECTID":604680},"geometry":{"x":171665.25999999978,"y":2545041.8600000031}},{"attributes":{"ID":604708,"DIS_CODE":0,"TOWNNAME":"永康區","LI":"中興里","LIN":"22鄰","STREET":"中華路","SECT":" ","MAREA":" ","LANE":" ","ALLEY":" ","HOUSE_NO":"２０２號之２５","E_COORD97":171638.82999999999,"N_COORD97":2545025.54,"ADDRESS":"中華路２０２號之２５","OBJECTID":604681},"geometry":{"x":171638.83000000194,"y":2545025.5399999991}},{"attributes":{"ID":604709,"DIS_CODE":0,"TOWNNAME":"永康區","LI":"中興里","LIN":"22鄰","STREET":"中華路","SECT":" ","MAREA":" ","LANE":" ","ALLEY":" ","HOUSE_NO":"２０４號之５","E_COORD97":171638.26000000001,"N_COORD97":2545040.04,"ADDRESS":"中華路２０４號之５","OBJECTID":604682},"geometry":{"x":171638.25999999978,"y":2545040.0400000028}},{"attributes":{"ID":604710,"DIS_CODE":0,"TOWNNAME":"永康區","LI":"中興里","LIN":"22鄰","STREET":"中華路","SECT":" ","MAREA":" ","LANE":" ","ALLEY":" ","HOUSE_NO":"２０２號之２１","E_COORD97":171638.67999999999,"N_COORD97":2545025.54,"ADDRESS":"中華路２０２號之２１","OBJECTID":604683},"geometry":{"x":171638.6799999997,"y":2545025.5399999991}},{"attributes":{"ID":604711,"DIS_CODE":0,"TOWNNAME":"永康區","LI":"中興里","LIN":"22鄰","STREET":"中華路","SECT":" ","MAREA":" ","LANE":" ","ALLEY":" ","HOUSE_NO":"２００號之３","E_COORD97":171636.25,"N_COORD97":2545014.54,"ADDRESS":"中華路２００號之３","OBJECTID":604684},"geometry":{"x":171636.25000000093,"y":2545014.540000001}},{"attributes":{"ID":604712,"DIS_CODE":0,"TOWNNAME":"永康區","LI":"中興里","LIN":"22鄰","STREET":"中華路","SECT":" ","MAREA":" ","LANE":" ","ALLEY":" ","HOUSE_NO":"１９８號之１７","E_COORD97":171636.38,"N_COORD97":2545003.2999999998,"ADDRESS":"中華路１９８號之１７","OBJECTID":604685},"geometry":{"x":171636.37999999989,"y":2545003.3000000026}},{"attributes":{"ID":604713,"DIS_CODE":0,"TOWNNAME":"永康區","LI":"中興里","LIN":"22鄰","STREET":"中華路","SECT":" ","MAREA":" ","LANE":" ","ALLEY":" ","HOUSE_NO":"１９８號之１１","E_COORD97":171636.29999999999,"N_COORD97":2545003.2999999998,"ADDRESS":"中華路１９８號之１１","OBJECTID":604686},"geometry":{"x":171636.29999999981,"y":2545003.3000000026}},{"attributes":{"ID":604714,"DIS_CODE":0,"TOWNNAME":"永康區","LI":"中興里","LIN":"22鄰","STREET":"中華路","SECT":" ","MAREA":" ","LANE":" ","ALLEY":" ","HOUSE_NO":"１９８號之１０","E_COORD97":171636.35000000001,"N_COORD97":2545003.2999999998,"ADDRESS":"中華路１９８號之１０","OBJECTID":604687},"geometry":{"x":171636.34999999963,"y":2545003.3000000026}},{"attributes":{"ID":604715,"DIS_CODE":0,"TOWNNAME":"永康區","LI":"中興里","LIN":"22鄰","STREET":"中華路","SECT":" ","MAREA":" ","LANE":" ","ALLEY":" ","HOUSE_NO":"１９８號之１５","E_COORD97":171636.45000000001,"N_COORD97":2545003.2999999998,"ADDRESS":"中華路１９８號之１５","OBJECTID":604688},"geometry":{"x":171636.45000000205,"y":2545003.3000000026}},{"attributes":{"ID":604716,"DIS_CODE":0,"TOWNNAME":"永康區","LI":"中興里","LIN":"22鄰","STREET":"中華路","SECT":" ","MAREA":" ","LANE":" ","ALLEY":" ","HOUSE_NO":"２０２號之１","E_COORD97":171637.42999999999,"N_COORD97":2545025.54,"ADDRESS":"中華路２０２號之１","OBJECTID":604689},"geometry":{"x":171637.4299999997,"y":2545025.5399999991}},{"attributes":{"ID":604717,"DIS_CODE":0,"TOWNNAME":"永康區","LI":"中興里","LIN":"22鄰","STREET":"中華路","SECT":" ","MAREA":" ","LANE":" ","ALLEY":" ","HOUSE_NO":"２０２號之１５","E_COORD97":171638.82999999999,"N_COORD97":2545025.54,"ADDRESS":"中華路２０２號之１５","OBJECTID":604690},"geometry":{"x":171638.83000000194,"y":2545025.5399999991}},{"attributes":{"ID":604718,"DIS_CODE":0,"TOWNNAME":"永康區","LI":"中興里","LIN":"22鄰","STREET":"中華路","SECT":" ","MAREA":" ","LANE":" ","ALLEY":" ","HOUSE_NO":"２００號之１５","E_COORD97":171637.54999999999,"N_COORD97":2545014.54,"ADDRESS":"中華路２００號之１５","OBJECTID":604691},"geometry":{"x":171637.55000000075,"y":2545014.540000001}},{"attributes":{"ID":604719,"DIS_CODE":0,"TOWNNAME":"永康區","LI":"中興里","LIN":"22鄰","STREET":"中華路","SECT":" ","MAREA":" ","LANE":" ","ALLEY":" ","HOUSE_NO":"２０２號之１０","E_COORD97":171638.73000000001,"N_COORD97":2545025.54,"ADDRESS":"中華路２０２號之１０","OBJECTID":604692},"geometry":{"x":171638.73000000138,"y":2545025.5399999991}},{"attributes":{"ID":604720,"DIS_CODE":0,"TOWNNAME":"永康區","LI":"中興里","LIN":"22鄰","STREET":"中華路","SECT":" ","MAREA":" ","LANE":" ","ALLEY":" ","HOUSE_NO":"２０２號之６","E_COORD97":171637.53,"N_COORD97":2545025.54,"ADDRESS":"中華路２０２號之６","OBJECTID":604693},"geometry":{"x":171637.52999999933,"y":2545025.5399999991}},{"attributes":{"ID":604721,"DIS_CODE":0,"TOWNNAME":"永康區","LI":"大橋里","LIN":"22鄰","STREET":"大橋一街","SECT":" ","MAREA":" ","LANE":" ","ALLEY":" ","HOUSE_NO":"１７５號","E_COORD97":171116.76999999999,"N_COORD97":2546550.75,"ADDRESS":"大橋一街１７５號","OBJECTID":604694},"geometry":{"x":171116.77000000048,"y":2546550.75}},{"attributes":{"ID":604722,"DIS_CODE":0,"TOWNNAME":"永康區","LI":"埔園里","LIN":"22鄰","STREET":"埔園街","SECT":" ","MAREA":" ","LANE":" ","ALLEY":" ","HOUSE_NO":"２３９號","E_COORD97":173553.73999999999,"N_COORD97":2548193.75,"ADDRESS":"埔園街２３９號","OBJECTID":604695},"geometry":{"x":173553.74000000115,"y":2548193.7500000019}},{"attributes":{"ID":604723,"DIS_CODE":0,"TOWNNAME":"東區","LI":"忠孝里","LIN":"32鄰","STREET":"崇明六街","SECT":" ","MAREA":" ","LANE":" ","ALLEY":" ","HOUSE_NO":"２２號","E_COORD97":169688.20000000001,"N_COORD97":2542202.6899999999,"ADDRESS":"崇明六街２２號","OBJECTID":604696},"geometry":{"x":169688.20000000019,"y":2542202.6900000013}},{"attributes":{"ID":604724,"DIS_CODE":0,"TOWNNAME":"白河區","LI":"永安里","LIN":"6鄰","STREET":"五福街","SECT":" ","MAREA":" ","LANE":" ","ALLEY":" ","HOUSE_NO":"８９號","E_COORD97":189830.95000000001,"N_COORD97":2583039.1499999999,"ADDRESS":"五福街８９號","OBJECTID":604697},"geometry":{"x":189830.95000000205,"y":2583039.1500000004}},{"attributes":{"ID":604725,"DIS_CODE":0,"TOWNNAME":"永康區","LI":"勝利里","LIN":"22鄰","STREET":"勝華街","SECT":" ","MAREA":" ","LANE":" ","ALLEY":" ","HOUSE_NO":"１９號","E_COORD97":171511.64999999999,"N_COORD97":2545198.6699999999,"ADDRESS":"勝華街１９號","OBJECTID":604698},"geometry":{"x":171511.65000000224,"y":2545198.6699999999}},{"attributes":{"ID":604726,"DIS_CODE":0,"TOWNNAME":"白河區","LI":"永安里","LIN":"4鄰","STREET":"五福街","SECT":" ","MAREA":" ","LANE":" ","ALLEY":" ","HOUSE_NO":"２３號","E_COORD97":190027.48999999999,"N_COORD97":2583064.48,"ADDRESS":"五福街２３號","OBJECTID":604699},"geometry":{"x":190027.49000000115,"y":2583064.4800000004}},{"attributes":{"ID":604727,"DIS_CODE":0,"TOWNNAME":"白河區","LI":"永安里","LIN":"4鄰","STREET":"五福街","SECT":" ","MAREA":" ","LANE":" ","ALLEY":" ","HOUSE_NO":"３８號","E_COORD97":189991.82000000001,"N_COORD97":2583075.3500000001,"ADDRESS":"五福街３８號","OBJECTID":604700},"geometry":{"x":189991.82000000123,"y":2583075.3500000034}},{"attributes":{"ID":604728,"DIS_CODE":0,"TOWNNAME":"白河區","LI":"永安里","LIN":"4鄰","STREET":"五福街","SECT":" ","MAREA":" ","LANE":" ","ALLEY":" ","HOUSE_NO":"５號","E_COORD97":190059.22,"N_COORD97":2583069.6099999999,"ADDRESS":"五福街５號","OBJECTID":604701},"geometry":{"x":190059.2200000016,"y":2583069.6099999975}},{"attributes":{"ID":604729,"DIS_CODE":0,"TOWNNAME":"永康區","LI":"勝利里","LIN":"22鄰","STREET":"中華路","SECT":" ","MAREA":" ","LANE":" ","ALLEY":" ","HOUSE_NO":"２０１號之２","E_COORD97":171599.59,"N_COORD97":2545016.54,"ADDRESS":"中華路２０１號之２","OBJECTID":604702},"geometry":{"x":171599.59000000171,"y":2545016.5400000028}},{"attributes":{"ID":604730,"DIS_CODE":0,"TOWNNAME":"永康區","LI":"網寮里","LIN":"22鄰","STREET":"文化路","SECT":" ","MAREA":" ","LANE":" ","ALLEY":" ","HOUSE_NO":"１８６號","E_COORD97":173759.42999999999,"N_COORD97":2546193.5600000001,"ADDRESS":"文化路１８６號","OBJECTID":604703},"geometry":{"x":173759.4299999997,"y":2546193.5600000005}},{"attributes":{"ID":604731,"DIS_CODE":0,"TOWNNAME":"永康區","LI":"網寮里","LIN":"22鄰","STREET":"文化路","SECT":" ","MAREA":" ","LANE":" ","ALLEY":" ","HOUSE_NO":"１８８號","E_COORD97":173755.39999999999,"N_COORD97":2546192.6699999999,"ADDRESS":"文化路１８８號","OBJECTID":604704},"geometry":{"x":173755.40000000037,"y":2546192.6699999981}},{"attributes":{"ID":604732,"DIS_CODE":0,"TOWNNAME":"永康區","LI":"網寮里","LIN":"22鄰","STREET":"文化路","SECT":" ","MAREA":" ","LANE":" ","ALLEY":" ","HOUSE_NO":"１９０號","E_COORD97":173752,"N_COORD97":2546191.5699999998,"ADDRESS":"文化路１９０號","OBJECTID":604705},"geometry":{"x":173752.00000000093,"y":2546191.5700000022}},{"attributes":{"ID":604733,"DIS_CODE":0,"TOWNNAME":"永康區","LI":"網寮里","LIN":"22鄰","STREET":"文化路","SECT":" ","MAREA":" ","LANE":" ","ALLEY":" ","HOUSE_NO":"１９２號","E_COORD97":173748.10999999999,"N_COORD97":2546190.23,"ADDRESS":"文化路１９２號","OBJECTID":604706},"geometry":{"x":173748.11000000127,"y":2546190.2300000023}},{"attributes":{"ID":604734,"DIS_CODE":0,"TOWNNAME":"永康區","LI":"網寮里","LIN":"22鄰","STREET":"文化路","SECT":" ","MAREA":" ","LANE":" ","ALLEY":" ","HOUSE_NO":"１９６號","E_COORD97":173743.84,"N_COORD97":2546188.7999999998,"ADDRESS":"文化路１９６號","OBJECTID":604707},"geometry":{"x":173743.83999999892,"y":2546188.8000000007}},{"attributes":{"ID":604735,"DIS_CODE":0,"TOWNNAME":"永康區","LI":"網寮里","LIN":"22鄰","STREET":"文化路","SECT":" ","MAREA":" ","LANE":" ","ALLEY":" ","HOUSE_NO":"１９８號","E_COORD97":173740.45000000001,"N_COORD97":2546187.71,"ADDRESS":"文化路１９８號","OBJECTID":604708},"geometry":{"x":173740.45000000112,"y":2546187.7100000028}},{"attributes":{"ID":604736,"DIS_CODE":0,"TOWNNAME":"永康區","LI":"網寮里","LIN":"22鄰","STREET":"文化路","SECT":" ","MAREA":" ","LANE":" ","ALLEY":" ","HOUSE_NO":"２００號","E_COORD97":173736.59,"N_COORD97":2546186.6800000002,"ADDRESS":"文化路２００號","OBJECTID":604709},"geometry":{"x":173736.58999999985,"y":2546186.6800000016}},{"attributes":{"ID":604737,"DIS_CODE":0,"TOWNNAME":"永康區","LI":"網寮里","LIN":"22鄰","STREET":"文化路","SECT":" ","MAREA":" ","LANE":" ","ALLEY":" ","HOUSE_NO":"２０２之１號","E_COORD97":173730.79000000001,"N_COORD97":2546184.2999999998,"ADDRESS":"文化路２０２之１號","OBJECTID":604710},"geometry":{"x":173730.78999999911,"y":2546184.3000000026}},{"attributes":{"ID":604738,"DIS_CODE":0,"TOWNNAME":"永康區","LI":"網寮里","LIN":"22鄰","STREET":"文化路","SECT":" ","MAREA":" ","LANE":" ","ALLEY":" ","HOUSE_NO":"２０２之２號","E_COORD97":173727.34,"N_COORD97":2546183.5699999998,"ADDRESS":"文化路２０２之２號","OBJECTID":604711},"geometry":{"x":173727.34000000078,"y":2546183.5699999984}},{"attributes":{"ID":604739,"DIS_CODE":0,"TOWNNAME":"永康區","LI":"網寮里","LIN":"22鄰","STREET":"文化路","SECT":" ","MAREA":" ","LANE":" ","ALLEY":" ","HOUSE_NO":"２０２之３號","E_COORD97":173723.42000000001,"N_COORD97":2546181.9399999999,"ADDRESS":"文化路２０２之３號","OBJECTID":604712},"geometry":{"x":173723.42000000086,"y":2546181.9400000013}},{"attributes":{"ID":604740,"DIS_CODE":0,"TOWNNAME":"永康區","LI":"網寮里","LIN":"22鄰","STREET":"文化路","SECT":" ","MAREA":" ","LANE":" ","ALLEY":" ","HOUSE_NO":"２０２之５號","E_COORD97":173720.37,"N_COORD97":2546180.71,"ADDRESS":"文化路２０２之５號","OBJECTID":604713},"geometry":{"x":173720.37000000197,"y":2546180.7100000028}},{"attributes":{"ID":604741,"DIS_CODE":0,"TOWNNAME":"永康區","LI":"網寮里","LIN":"22鄰","STREET":"文化路","SECT":" ","MAREA":" ","LANE":" ","ALLEY":" ","HOUSE_NO":"２０２號","E_COORD97":173732.72,"N_COORD97":2546185.6499999999,"ADDRESS":"文化路２０２號","OBJECTID":604714},"geometry":{"x":173732.7200000016,"y":2546185.6500000004}},{"attributes":{"ID":604742,"DIS_CODE":0,"TOWNNAME":"永康區","LI":"網寮里","LIN":"22鄰","STREET":"永大一路","SECT":" ","MAREA":" ","LANE":" ","ALLEY":" ","HOUSE_NO":"２３５之２號","E_COORD97":173709.31,"N_COORD97":2546314.2599999998,"ADDRESS":"永大一路２３５之２號","OBJECTID":604715},"geometry":{"x":173709.30999999959,"y":2546314.2600000035}},{"attributes":{"ID":604743,"DIS_CODE":0,"TOWNNAME":"永康區","LI":"網寮里","LIN":"22鄰","STREET":"永大一路","SECT":" ","MAREA":" ","LANE":" ","ALLEY":" ","HOUSE_NO":"２３５之３號","E_COORD97":173704.78,"N_COORD97":2546313.5,"ADDRESS":"永大一路２３５之３號","OBJECTID":604716},"geometry":{"x":173704.78000000119,"y":2546313.5000000019}},{"attributes":{"ID":604744,"DIS_CODE":0,"TOWNNAME":"永康區","LI":"網寮里","LIN":"22鄰","STREET":"永大一路","SECT":" ","MAREA":" ","LANE":" ","ALLEY":" ","HOUSE_NO":"２３５之５號","E_COORD97":173700.31,"N_COORD97":2546312.5499999998,"ADDRESS":"永大一路２３５之５號","OBJECTID":604717},"geometry":{"x":173700.31000000052,"y":2546312.5500000007}},{"attributes":{"ID":604745,"DIS_CODE":0,"TOWNNAME":"永康區","LI":"網寮里","LIN":"22鄰","STREET":"永大一路","SECT":" ","MAREA":" ","LANE":" ","ALLEY":" ","HOUSE_NO":"２３５之６號","E_COORD97":173695.91,"N_COORD97":2546311.3999999999,"ADDRESS":"永大一路２３５之６號","OBJECTID":604718},"geometry":{"x":173695.91000000015,"y":2546311.4000000022}},{"attributes":{"ID":604746,"DIS_CODE":0,"TOWNNAME":"永康區","LI":"東橋里","LIN":"22鄰","STREET":"自強路","SECT":" ","MAREA":" ","LANE":" ","ALLEY":" ","HOUSE_NO":"１４３號","E_COORD97":172987.34,"N_COORD97":2547393.3700000001,"ADDRESS":"自強路１４３號","OBJECTID":604719},"geometry":{"x":172987.33999999985,"y":2547393.3700000029}},{"attributes":{"ID":604747,"DIS_CODE":0,"TOWNNAME":"永康區","LI":"龍潭里","LIN":"22鄰","STREET":"自強路","SECT":" ","MAREA":" ","LANE":" ","ALLEY":" ","HOUSE_NO":"８７６號","E_COORD97":174733.66,"N_COORD97":2548731.8500000001,"ADDRESS":"自強路８７６號","OBJECTID":604720},"geometry":{"x":174733.65999999922,"y":2548731.8500000015}},{"attributes":{"ID":604748,"DIS_CODE":0,"TOWNNAME":"中西區","LI":"藥王里","LIN":"22鄰","STREET":"中和街","SECT":" ","MAREA":" ","LANE":" ","ALLEY":" ","HOUSE_NO":"５７號","E_COORD97":167036.28,"N_COORD97":2544573.7999999998,"ADDRESS":"中和街５７號","OBJECTID":604721},"geometry":{"x":167036.28000000026,"y":2544573.8000000026}},{"attributes":{"ID":604749,"DIS_CODE":0,"TOWNNAME":"中西區","LI":"藥王里","LIN":"22鄰","STREET":"中和街","SECT":" ","MAREA":" ","LANE":" ","ALLEY":" ","HOUSE_NO":"５９號","E_COORD97":167039.06,"N_COORD97":2544577.21,"ADDRESS":"中和街５９號","OBJECTID":604722},"geometry":{"x":167039.05999999959,"y":2544577.2100000028}},{"attributes":{"ID":604750,"DIS_CODE":0,"TOWNNAME":"中西區","LI":"藥王里","LIN":"22鄰","STREET":"中和街","SECT":" ","MAREA":" ","LANE":" ","ALLEY":" ","HOUSE_NO":"６１號","E_COORD97":167042.91,"N_COORD97":2544579.3500000001,"ADDRESS":"中和街６１號","OBJECTID":604723},"geometry":{"x":167042.91000000108,"y":2544579.3499999996}},{"attributes":{"ID":604751,"DIS_CODE":0,"TOWNNAME":"中西區","LI":"藥王里","LIN":"22鄰","STREET":"中和街","SECT":" ","MAREA":" ","LANE":" ","ALLEY":" ","HOUSE_NO":"６３號","E_COORD97":167046.75,"N_COORD97":2544582.3300000001,"ADDRESS":"中和街６３號","OBJECTID":604724},"geometry":{"x":167046.75,"y":2544582.3300000019}},{"attributes":{"ID":604752,"DIS_CODE":0,"TOWNNAME":"中西區","LI":"藥王里","LIN":"22鄰","STREET":"中和街","SECT":" ","MAREA":" ","LANE":" ","ALLEY":" ","HOUSE_NO":"６５號","E_COORD97":167049.10000000001,"N_COORD97":2544586.6000000001,"ADDRESS":"中和街６５號","OBJECTID":604725},"geometry":{"x":167049.09999999963,"y":2544586.6000000015}},{"attributes":{"ID":604753,"DIS_CODE":0,"TOWNNAME":"中西區","LI":"藥王里","LIN":"22鄰","STREET":"中和街","SECT":" ","MAREA":" ","LANE":" ","ALLEY":" ","HOUSE_NO":"６７號","E_COORD97":167051.45000000001,"N_COORD97":2544590.4500000002,"ADDRESS":"中和街６７號","OBJECTID":604726},"geometry":{"x":167051.45000000112,"y":2544590.4500000011}},{"attributes":{"ID":604754,"DIS_CODE":0,"TOWNNAME":"中西區","LI":"藥王里","LIN":"22鄰","STREET":"中和街","SECT":" ","MAREA":" ","LANE":" ","ALLEY":" ","HOUSE_NO":"６９號","E_COORD97":167055.29999999999,"N_COORD97":2544593.0099999998,"ADDRESS":"中和街６９號","OBJECTID":604727},"geometry":{"x":167055.30000000075,"y":2544593.0099999998}},{"attributes":{"ID":604755,"DIS_CODE":0,"TOWNNAME":"中西區","LI":"藥王里","LIN":"22鄰","STREET":"中和街","SECT":" ","MAREA":" ","LANE":" ","ALLEY":" ","HOUSE_NO":"７３號","E_COORD97":167061.28,"N_COORD97":2544600.0499999998,"ADDRESS":"中和街７３號","OBJECTID":604728},"geometry":{"x":167061.28000000119,"y":2544600.0500000007}},{"attributes":{"ID":604756,"DIS_CODE":0,"TOWNNAME":"中西區","LI":"藥王里","LIN":"22鄰","STREET":"永和街","SECT":" ","MAREA":" ","LANE":" ","ALLEY":" ","HOUSE_NO":"４９號","E_COORD97":167005.51999999999,"N_COORD97":2544602.48,"ADDRESS":"永和街４９號","OBJECTID":604729},"geometry":{"x":167005.51999999955,"y":2544602.4800000023}},{"attributes":{"ID":604757,"DIS_CODE":0,"TOWNNAME":"中西區","LI":"藥王里","LIN":"22鄰","STREET":"永和街","SECT":" ","MAREA":" ","LANE":" ","ALLEY":" ","HOUSE_NO":"５１號","E_COORD97":167008.94,"N_COORD97":2544604.3999999999,"ADDRESS":"永和街５１號","OBJECTID":604730},"geometry":{"x":167008.94000000227,"y":2544604.4000000004}},{"attributes":{"ID":604758,"DIS_CODE":0,"TOWNNAME":"中西區","LI":"藥王里","LIN":"22鄰","STREET":"永和街","SECT":" ","MAREA":" ","LANE":" ","ALLEY":" ","HOUSE_NO":"５３號","E_COORD97":167012.57000000001,"N_COORD97":2544607.6000000001,"ADDRESS":"永和街５３號","OBJECTID":604731},"geometry":{"x":167012.5700000003,"y":2544607.6000000015}},{"attributes":{"ID":604759,"DIS_CODE":0,"TOWNNAME":"中西區","LI":"藥王里","LIN":"22鄰","STREET":"永和街","SECT":" ","MAREA":" ","LANE":" ","ALLEY":" ","HOUSE_NO":"５５號","E_COORD97":167015.56,"N_COORD97":2544610.3799999999,"ADDRESS":"永和街５５號","OBJECTID":604732},"geometry":{"x":167015.55999999866,"y":2544610.3800000027}},{"attributes":{"ID":604760,"DIS_CODE":0,"TOWNNAME":"中西區","LI":"藥王里","LIN":"22鄰","STREET":"永和街","SECT":" ","MAREA":" ","LANE":" ","ALLEY":" ","HOUSE_NO":"５７號","E_COORD97":167018.13,"N_COORD97":2544614.8599999999,"ADDRESS":"永和街５７號","OBJECTID":604733},"geometry":{"x":167018.12999999989,"y":2544614.8600000013}},{"attributes":{"ID":604761,"DIS_CODE":0,"TOWNNAME":"中西區","LI":"藥王里","LIN":"22鄰","STREET":"永和街","SECT":" ","MAREA":" ","LANE":" ","ALLEY":" ","HOUSE_NO":"５９號","E_COORD97":167021.12,"N_COORD97":2544617.8500000001,"ADDRESS":"永和街５９號","OBJECTID":604734},"geometry":{"x":167021.12000000104,"y":2544617.8499999996}},{"attributes":{"ID":604762,"DIS_CODE":0,"TOWNNAME":"中西區","LI":"藥王里","LIN":"22鄰","STREET":"永和街","SECT":" ","MAREA":" ","LANE":" ","ALLEY":" ","HOUSE_NO":"６１號","E_COORD97":167025.82000000001,"N_COORD97":2544621.2599999998,"ADDRESS":"永和街６１號","OBJECTID":604735},"geometry":{"x":167025.8200000003,"y":2544621.2599999998}},{"attributes":{"ID":604763,"DIS_CODE":0,"TOWNNAME":"中西區","LI":"藥王里","LIN":"22鄰","STREET":"永和街","SECT":" ","MAREA":" ","LANE":" ","ALLEY":" ","HOUSE_NO":"６３號","E_COORD97":167029.01999999999,"N_COORD97":2544624.04,"ADDRESS":"永和街６３號","OBJECTID":604736},"geometry":{"x":167029.01999999955,"y":2544624.040000001}},{"attributes":{"ID":604764,"DIS_CODE":0,"TOWNNAME":"中西區","LI":"藥王里","LIN":"22鄰","STREET":"永和街","SECT":" ","MAREA":" ","LANE":" ","ALLEY":" ","HOUSE_NO":"６４號","E_COORD97":167018.54999999999,"N_COORD97":2544586.8199999998,"ADDRESS":"永和街６４號","OBJECTID":604737},"geometry":{"x":167018.54999999981,"y":2544586.8200000022}},{"attributes":{"ID":604765,"DIS_CODE":0,"TOWNNAME":"中西區","LI":"藥王里","LIN":"22鄰","STREET":"永和街","SECT":" ","MAREA":" ","LANE":" ","ALLEY":" ","HOUSE_NO":"６７號","E_COORD97":167035.22,"N_COORD97":2544629.7999999998,"ADDRESS":"永和街６７號","OBJECTID":604738},"geometry":{"x":167035.22000000067,"y":2544629.8000000045}},{"attributes":{"ID":604766,"DIS_CODE":0,"TOWNNAME":"中西區","LI":"藥王里","LIN":"22鄰","STREET":"永和街","SECT":" ","MAREA":" ","LANE":" ","ALLEY":" ","HOUSE_NO":"６８號","E_COORD97":167023.25,"N_COORD97":2544592.1499999999,"ADDRESS":"永和街６８號","OBJECTID":604739},"geometry":{"x":167023.25000000186,"y":2544592.1500000004}},{"attributes":{"ID":604767,"DIS_CODE":0,"TOWNNAME":"中西區","LI":"藥王里","LIN":"22鄰","STREET":"永和街","SECT":" ","MAREA":" ","LANE":" ","ALLEY":" ","HOUSE_NO":"６９號","E_COORD97":167043.97,"N_COORD97":2544631.5099999998,"ADDRESS":"永和街６９號","OBJECTID":604740},"geometry":{"x":167043.97000000067,"y":2544631.5100000016}},{"attributes":{"ID":604768,"DIS_CODE":0,"TOWNNAME":"中西區","LI":"藥王里","LIN":"22鄰","STREET":"永和街","SECT":" ","MAREA":" ","LANE":" ","ALLEY":" ","HOUSE_NO":"７２號","E_COORD97":167032.01000000001,"N_COORD97":2544599.2000000002,"ADDRESS":"永和街７２號","OBJECTID":604741},"geometry":{"x":167032.01000000071,"y":2544599.2000000011}},{"attributes":{"ID":604769,"DIS_CODE":0,"TOWNNAME":"中西區","LI":"藥王里","LIN":"22鄰","STREET":"永和街","SECT":" ","MAREA":" ","LANE":" ","ALLEY":" ","HOUSE_NO":"７４號","E_COORD97":167035.85999999999,"N_COORD97":2544601.9700000002,"ADDRESS":"永和街７４號","OBJECTID":604742},"geometry":{"x":167035.86000000034,"y":2544601.9700000025}},{"attributes":{"ID":604770,"DIS_CODE":0,"TOWNNAME":"中西區","LI":"藥王里","LIN":"22鄰","STREET":"永和街","SECT":" ","MAREA":" ","LANE":" ","ALLEY":" ","HOUSE_NO":"７６號","E_COORD97":167038.42000000001,"N_COORD97":2544605.1800000002,"ADDRESS":"永和街７６號","OBJECTID":604743},"geometry":{"x":167038.41999999993,"y":2544605.1799999997}},{"attributes":{"ID":604771,"DIS_CODE":0,"TOWNNAME":"中西區","LI":"藥王里","LIN":"22鄰","STREET":"西和路","SECT":" ","MAREA":" ","LANE":" ","ALLEY":" ","HOUSE_NO":"１４０號","E_COORD97":166977.54000000001,"N_COORD97":2544633.6400000001,"ADDRESS":"西和路１４０號","OBJECTID":604744},"geometry":{"x":166977.54000000097,"y":2544633.6400000006}},{"attributes":{"ID":604772,"DIS_CODE":0,"TOWNNAME":"中西區","LI":"藥王里","LIN":"22鄰","STREET":"西和路","SECT":" ","MAREA":" ","LANE":" ","ALLEY":" ","HOUSE_NO":"１４２號","E_COORD97":166982.03,"N_COORD97":2544635.3500000001,"ADDRESS":"西和路１４２號","OBJECTID":604745},"geometry":{"x":166982.03000000026,"y":2544635.3500000034}},{"attributes":{"ID":604773,"DIS_CODE":0,"TOWNNAME":"中西區","LI":"藥王里","LIN":"22鄰","STREET":"西和路","SECT":" ","MAREA":" ","LANE":" ","ALLEY":" ","HOUSE_NO":"１４６號","E_COORD97":166989.5,"N_COORD97":2544641.1200000001,"ADDRESS":"西和路１４６號","OBJECTID":604746},"geometry":{"x":166989.50000000186,"y":2544641.120000001}},{"attributes":{"ID":604774,"DIS_CODE":0,"TOWNNAME":"中西區","LI":"藥王里","LIN":"22鄰","STREET":"西和路","SECT":" ","MAREA":" ","LANE":" ","ALLEY":" ","HOUSE_NO":"１４８號","E_COORD97":166992.48999999999,"N_COORD97":2544644.1000000001,"ADDRESS":"西和路１４８號","OBJECTID":604747},"geometry":{"x":166992.49000000022,"y":2544644.1000000015}},{"attributes":{"ID":604775,"DIS_CODE":0,"TOWNNAME":"中西區","LI":"藥王里","LIN":"22鄰","STREET":"和善街","SECT":" ","MAREA":" ","LANE":" ","ALLEY":" ","HOUSE_NO":"２５號","E_COORD97":167068.32999999999,"N_COORD97":2544602.8999999999,"ADDRESS":"和善街２５號","OBJECTID":604748},"geometry":{"x":167068.33000000007,"y":2544602.9000000022}},{"attributes":{"ID":604776,"DIS_CODE":0,"TOWNNAME":"中西區","LI":"藥王里","LIN":"22鄰","STREET":"和善街","SECT":" ","MAREA":" ","LANE":" ","ALLEY":" ","HOUSE_NO":"２７號","E_COORD97":167065.76000000001,"N_COORD97":2544606.5299999998,"ADDRESS":"和善街２７號","OBJECTID":604749},"geometry":{"x":167065.76000000071,"y":2544606.5300000031}},{"attributes":{"ID":604777,"DIS_CODE":0,"TOWNNAME":"中西區","LI":"藥王里","LIN":"22鄰","STREET":"和善街","SECT":" ","MAREA":" ","LANE":" ","ALLEY":" ","HOUSE_NO":"２９號","E_COORD97":167062.76999999999,"N_COORD97":2544608.8799999999,"ADDRESS":"和善街２９號","OBJECTID":604750},"geometry":{"x":167062.76999999955,"y":2544608.879999999}},{"attributes":{"ID":604778,"DIS_CODE":0,"TOWNNAME":"中西區","LI":"藥王里","LIN":"22鄰","STREET":"和善街","SECT":" ","MAREA":" ","LANE":" ","ALLEY":" ","HOUSE_NO":"３１號","E_COORD97":167060,"N_COORD97":2544613.1499999999,"ADDRESS":"和善街３１號","OBJECTID":604751},"geometry":{"x":167060,"y":2544613.1500000004}},{"attributes":{"ID":604779,"DIS_CODE":0,"TOWNNAME":"中西區","LI":"藥王里","LIN":"22鄰","STREET":"和善街","SECT":" ","MAREA":" ","LANE":" ","ALLEY":" ","HOUSE_NO":"３３號","E_COORD97":167057.22,"N_COORD97":2544616.9900000002,"ADDRESS":"和善街３３號","OBJECTID":604752},"geometry":{"x":167057.2200000016,"y":2544616.9900000002}},{"attributes":{"ID":604780,"DIS_CODE":0,"TOWNNAME":"中西區","LI":"藥王里","LIN":"22鄰","STREET":"和善街","SECT":" ","MAREA":" ","LANE":" ","ALLEY":" ","HOUSE_NO":"５３號","E_COORD97":167018.13,"N_COORD97":2544661.6099999999,"ADDRESS":"和善街５３號","OBJECTID":604753},"geometry":{"x":167018.12999999989,"y":2544661.6100000013}},{"attributes":{"ID":604781,"DIS_CODE":0,"TOWNNAME":"中西區","LI":"藥王里","LIN":"22鄰","STREET":"和善街","SECT":" ","MAREA":" ","LANE":" ","ALLEY":" ","HOUSE_NO":"５５號","E_COORD97":167013.20999999999,"N_COORD97":2544664.1699999999,"ADDRESS":"和善街５５號","OBJECTID":604754},"geometry":{"x":167013.20999999903,"y":2544664.1700000018}},{"attributes":{"ID":604782,"DIS_CODE":0,"TOWNNAME":"中西區","LI":"建國里","LIN":"22鄰","STREET":"新美街","SECT":" ","MAREA":" ","LANE":" ","ALLEY":" ","HOUSE_NO":"４７號","E_COORD97":168010.76999999999,"N_COORD97":2543982.6899999999,"ADDRESS":"新美街４７號","OBJECTID":604755},"geometry":{"x":168010.76999999955,"y":2543982.6900000013}},{"attributes":{"ID":604783,"DIS_CODE":0,"TOWNNAME":"中西區","LI":"建國里","LIN":"22鄰","STREET":"新美街","SECT":" ","MAREA":" ","LANE":" ","ALLEY":" ","HOUSE_NO":"４９號","E_COORD97":168011.76999999999,"N_COORD97":2543986.6899999999,"ADDRESS":"新美街４９號","OBJECTID":604756},"geometry":{"x":168011.77000000048,"y":2543986.6900000013}},{"attributes":{"ID":604784,"DIS_CODE":0,"TOWNNAME":"中西區","LI":"建國里","LIN":"22鄰","STREET":"新美街","SECT":" ","MAREA":" ","LANE":" ","ALLEY":" ","HOUSE_NO":"５１號","E_COORD97":168013.57000000001,"N_COORD97":2543991.8799999999,"ADDRESS":"新美街５１號","OBJECTID":604757},"geometry":{"x":168013.57000000123,"y":2543991.879999999}},{"attributes":{"ID":604785,"DIS_CODE":0,"TOWNNAME":"中西區","LI":"建國里","LIN":"22鄰","STREET":"新美街","SECT":" ","MAREA":" ","LANE":" ","ALLEY":" ","HOUSE_NO":"６５號","E_COORD97":168014.76000000001,"N_COORD97":2543996.0699999998,"ADDRESS":"新美街６５號","OBJECTID":604758},"geometry":{"x":168014.76000000164,"y":2543996.0700000003}},{"attributes":{"ID":604786,"DIS_CODE":0,"TOWNNAME":"中西區","LI":"建國里","LIN":"22鄰","STREET":"新美街","SECT":" ","MAREA":" ","LANE":" ","ALLEY":" ","HOUSE_NO":"６７號","E_COORD97":168016.16,"N_COORD97":2544000.02,"ADDRESS":"新美街６７號","OBJECTID":604759},"geometry":{"x":168016.16000000108,"y":2544000.0200000033}},{"attributes":{"ID":604787,"DIS_CODE":0,"TOWNNAME":"安南區","LI":"海東里","LIN":"22鄰","STREET":"海佃路","SECT":"二段","MAREA":" ","LANE":" ","ALLEY":" ","HOUSE_NO":"４４０號","E_COORD97":166796.32000000001,"N_COORD97":2548861.3999999999,"ADDRESS":"海佃路二段４４０號","OBJECTID":604760},"geometry":{"x":166796.32000000123,"y":2548861.4000000022}},{"attributes":{"ID":604788,"DIS_CODE":0,"TOWNNAME":"安南區","LI":"海東里","LIN":"22鄰","STREET":"海佃路","SECT":"二段","MAREA":" ","LANE":" ","ALLEY":" ","HOUSE_NO":"４４２號","E_COORD97":166796.32000000001,"N_COORD97":2548865.5600000001,"ADDRESS":"海佃路二段４４２號","OBJECTID":604761},"geometry":{"x":166796.32000000123,"y":2548865.5600000005}},{"attributes":{"ID":604789,"DIS_CODE":0,"TOWNNAME":"安南區","LI":"海東里","LIN":"22鄰","STREET":"同安路","SECT":" ","MAREA":" ","LANE":" ","ALLEY":" ","HOUSE_NO":"１２３號","E_COORD97":166979.89999999999,"N_COORD97":2548995.6899999999,"ADDRESS":"同安路１２３號","OBJECTID":604762},"geometry":{"x":166979.90000000037,"y":2548995.6899999995}},{"attributes":{"ID":604790,"DIS_CODE":0,"TOWNNAME":"安南區","LI":"海東里","LIN":"22鄰","STREET":"同安路","SECT":" ","MAREA":" ","LANE":" ","ALLEY":" ","HOUSE_NO":"７１號","E_COORD97":166893.20999999999,"N_COORD97":2548933.1600000001,"ADDRESS":"同安路７１號","OBJECTID":604763},"geometry":{"x":166893.21000000089,"y":2548933.160000002}},{"attributes":{"ID":604791,"DIS_CODE":0,"TOWNNAME":"安南區","LI":"理想里","LIN":"22鄰","STREET":"同安路","SECT":" ","MAREA":" ","LANE":" ","ALLEY":" ","HOUSE_NO":"１４６號","E_COORD97":167076.41,"N_COORD97":2549041.6400000001,"ADDRESS":"同安路１４６號","OBJECTID":604764},"geometry":{"x":167076.41000000015,"y":2549041.6400000043}},{"attributes":{"ID":604792,"DIS_CODE":0,"TOWNNAME":"安南區","LI":"新順里","LIN":"22鄰","STREET":"培安路","SECT":" ","MAREA":" ","LANE":" ","ALLEY":" ","HOUSE_NO":"３５號","E_COORD97":169244.45999999999,"N_COORD97":2549794.54,"ADDRESS":"培安路３５號","OBJECTID":604765},"geometry":{"x":169244.46000000089,"y":2549794.540000001}},{"attributes":{"ID":604793,"DIS_CODE":0,"TOWNNAME":"東區","LI":"小東里","LIN":"10鄰","STREET":"東安路","SECT":" ","MAREA":" ","LANE":" ","ALLEY":" ","HOUSE_NO":"２３８號","E_COORD97":170814.37,"N_COORD97":2544119.8900000001,"ADDRESS":"東安路２３８號","OBJECTID":604766},"geometry":{"x":170814.37000000011,"y":2544119.8900000006}},{"attributes":{"ID":604794,"DIS_CODE":0,"TOWNNAME":"東區","LI":"小東里","LIN":"10鄰","STREET":"東安路","SECT":" ","MAREA":" ","LANE":" ","ALLEY":" ","HOUSE_NO":"２４０號","E_COORD97":170834,"N_COORD97":2544107.6099999999,"ADDRESS":"東安路２４０號","OBJECTID":604767},"geometry":{"x":170834.00000000186,"y":2544107.6100000031}},{"attributes":{"ID":604795,"DIS_CODE":0,"TOWNNAME":"東區","LI":"小東里","LIN":"9鄰","STREET":"東安路","SECT":" ","MAREA":" ","LANE":" ","ALLEY":" ","HOUSE_NO":"２５４號","E_COORD97":170793.35000000001,"N_COORD97":2544122.6000000001,"ADDRESS":"東安路２５４號","OBJECTID":604768},"geometry":{"x":170793.34999999963,"y":2544122.6000000015}},{"attributes":{"ID":604796,"DIS_CODE":0,"TOWNNAME":"東區","LI":"小東里","LIN":"9鄰","STREET":"東安路","SECT":" ","MAREA":" ","LANE":" ","ALLEY":" ","HOUSE_NO":"２５６號","E_COORD97":170794.35000000001,"N_COORD97":2544126.8599999999,"ADDRESS":"東安路２５６號","OBJECTID":604769},"geometry":{"x":170794.35000000056,"y":2544126.8600000013}},{"attributes":{"ID":604797,"DIS_CODE":0,"TOWNNAME":"東區","LI":"小東里","LIN":"9鄰","STREET":"東安路","SECT":" ","MAREA":" ","LANE":" ","ALLEY":" ","HOUSE_NO":"２５８號","E_COORD97":170794.53,"N_COORD97":2544130.02,"ADDRESS":"東安路２５８號","OBJECTID":604770},"geometry":{"x":170794.53000000026,"y":2544130.0200000014}},{"attributes":{"ID":604798,"DIS_CODE":0,"TOWNNAME":"東區","LI":"小東里","LIN":"9鄰","STREET":"東安路","SECT":" ","MAREA":" ","LANE":" ","ALLEY":" ","HOUSE_NO":"２６０號","E_COORD97":170793.81,"N_COORD97":2544133.8300000001,"ADDRESS":"東安路２６０號","OBJECTID":604771},"geometry":{"x":170793.80999999959,"y":2544133.8299999982}},{"attributes":{"ID":604799,"DIS_CODE":0,"TOWNNAME":"東區","LI":"小東里","LIN":"9鄰","STREET":"東安路","SECT":" ","MAREA":" ","LANE":" ","ALLEY":" ","HOUSE_NO":"２６２號","E_COORD97":170793.98999999999,"N_COORD97":2544138.7999999998,"ADDRESS":"東安路２６２號","OBJECTID":604772},"geometry":{"x":170793.99000000115,"y":2544138.8000000026}},{"attributes":{"ID":604800,"DIS_CODE":0,"TOWNNAME":"東區","LI":"小東里","LIN":"9鄰","STREET":"東安路","SECT":" ","MAREA":" ","LANE":" ","ALLEY":" ","HOUSE_NO":"２６６號","E_COORD97":170794.07999999999,"N_COORD97":2544148.7999999998,"ADDRESS":"東安路２６６號","OBJECTID":604773},"geometry":{"x":170794.08000000007,"y":2544148.8000000026}},{"attributes":{"ID":604801,"DIS_CODE":0,"TOWNNAME":"東區","LI":"東明里","LIN":"23鄰","STREET":"東安路","SECT":" ","MAREA":" ","LANE":" ","ALLEY":" ","HOUSE_NO":"２０號","E_COORD97":170680.25,"N_COORD97":2543547.7200000002,"ADDRESS":"東安路２０號","OBJECTID":604774},"geometry":{"x":170680.25000000093,"y":2543547.7200000007}},{"attributes":{"ID":604802,"DIS_CODE":0,"TOWNNAME":"東區","LI":"小東里","LIN":"30鄰","STREET":"東安路","SECT":" ","MAREA":" ","LANE":" ","ALLEY":" ","HOUSE_NO":"２３１號","E_COORD97":170762.57999999999,"N_COORD97":2544059.77,"ADDRESS":"東安路２３１號","OBJECTID":604775},"geometry":{"x":170762.58000000101,"y":2544059.7700000014}},{"attributes":{"ID":604803,"DIS_CODE":0,"TOWNNAME":"東區","LI":"小東里","LIN":"30鄰","STREET":"東安路","SECT":" ","MAREA":" ","LANE":" ","ALLEY":" ","HOUSE_NO":"２３３號","E_COORD97":170763.29000000001,"N_COORD97":2544065.4300000002,"ADDRESS":"東安路２３３號","OBJECTID":604776},"geometry":{"x":170763.29000000097,"y":2544065.4300000016}},{"attributes":{"ID":604804,"DIS_CODE":0,"TOWNNAME":"東區","LI":"小東里","LIN":"30鄰","STREET":"東安路","SECT":" ","MAREA":" ","LANE":" ","ALLEY":" ","HOUSE_NO":"２３５號","E_COORD97":170763.76000000001,"N_COORD97":2544070.27,"ADDRESS":"東安路２３５號","OBJECTID":604777},"geometry":{"x":170763.75999999978,"y":2544070.2700000014}},{"attributes":{"ID":604805,"DIS_CODE":0,"TOWNNAME":"東區","LI":"小東里","LIN":"30鄰","STREET":"東安路","SECT":" ","MAREA":" ","LANE":" ","ALLEY":" ","HOUSE_NO":"２３７號","E_COORD97":170765.42000000001,"N_COORD97":2544074.7599999998,"ADDRESS":"東安路２３７號","OBJECTID":604778},"geometry":{"x":170765.42000000086,"y":2544074.7600000016}},{"attributes":{"ID":604806,"DIS_CODE":0,"TOWNNAME":"東區","LI":"小東里","LIN":"30鄰","STREET":"東安路","SECT":" ","MAREA":" ","LANE":" ","ALLEY":" ","HOUSE_NO":"２３９號","E_COORD97":170766.13,"N_COORD97":2544079.25,"ADDRESS":"東安路２３９號","OBJECTID":604779},"geometry":{"x":170766.12999999989,"y":2544079.25}},{"attributes":{"ID":604807,"DIS_CODE":0,"TOWNNAME":"東區","LI":"小東里","LIN":"30鄰","STREET":"東安路","SECT":" ","MAREA":" ","LANE":" ","ALLEY":" ","HOUSE_NO":"２２１號","E_COORD97":170756.20000000001,"N_COORD97":2544035.1099999999,"ADDRESS":"東安路２２１號","OBJECTID":604780},"geometry":{"x":170756.20000000019,"y":2544035.1099999994}},{"attributes":{"ID":604808,"DIS_CODE":0,"TOWNNAME":"東區","LI":"小東里","LIN":"30鄰","STREET":"東安路","SECT":" ","MAREA":" ","LANE":" ","ALLEY":" ","HOUSE_NO":"２４１號","E_COORD97":170767.31,"N_COORD97":2544084.3199999998,"ADDRESS":"東安路２４１號","OBJECTID":604781},"geometry":{"x":170767.31000000052,"y":2544084.3200000022}},{"attributes":{"ID":604809,"DIS_CODE":0,"TOWNNAME":"東區","LI":"小東里","LIN":"12鄰","STREET":"東安路","SECT":" ","MAREA":" ","LANE":" ","ALLEY":" ","HOUSE_NO":"３００號","E_COORD97":170796.09,"N_COORD97":2544263.3500000001,"ADDRESS":"東安路３００號","OBJECTID":604782},"geometry":{"x":170796.09000000171,"y":2544263.3500000015}},{"attributes":{"ID":604810,"DIS_CODE":0,"TOWNNAME":"東區","LI":"小東里","LIN":"12鄰","STREET":"東安路","SECT":" ","MAREA":" ","LANE":" ","ALLEY":" ","HOUSE_NO":"３０２號","E_COORD97":170795.72,"N_COORD97":2544267.25,"ADDRESS":"東安路３０２號","OBJECTID":604783},"geometry":{"x":170795.72000000067,"y":2544267.2500000019}},{"attributes":{"ID":604811,"DIS_CODE":0,"TOWNNAME":"東區","LI":"小東里","LIN":"12鄰","STREET":"東安路","SECT":" ","MAREA":" ","LANE":" ","ALLEY":" ","HOUSE_NO":"３０４號","E_COORD97":170795.64000000001,"N_COORD97":2544272.1200000001,"ADDRESS":"東安路３０４號","OBJECTID":604784},"geometry":{"x":170795.6400000006,"y":2544272.1200000048}},{"attributes":{"ID":604812,"DIS_CODE":0,"TOWNNAME":"東區","LI":"小東里","LIN":"12鄰","STREET":"東安路","SECT":" ","MAREA":" ","LANE":" ","ALLEY":" ","HOUSE_NO":"３０６號","E_COORD97":170795.57000000001,"N_COORD97":2544276.54,"ADDRESS":"東安路３０６號","OBJECTID":604785},"geometry":{"x":170795.57000000123,"y":2544276.5399999991}},{"attributes":{"ID":604813,"DIS_CODE":0,"TOWNNAME":"東區","LI":"小東里","LIN":"10鄰","STREET":"東安路","SECT":" ","MAREA":" ","LANE":" ","ALLEY":" ","HOUSE_NO":"２４６號","E_COORD97":170835.88,"N_COORD97":2544127.4900000002,"ADDRESS":"東安路２４６號","OBJECTID":604786},"geometry":{"x":170835.87999999989,"y":2544127.4900000021}},{"attributes":{"ID":604814,"DIS_CODE":0,"TOWNNAME":"東區","LI":"小東里","LIN":"10鄰","STREET":"東安路","SECT":" ","MAREA":" ","LANE":" ","ALLEY":" ","HOUSE_NO":"２４８號","E_COORD97":170834.94,"N_COORD97":2544139.71,"ADDRESS":"東安路２４８號","OBJECTID":604787},"geometry":{"x":170834.94000000227,"y":2544139.7100000028}},{"attributes":{"ID":604815,"DIS_CODE":0,"TOWNNAME":"東區","LI":"小東里","LIN":"10鄰","STREET":"東安路","SECT":" ","MAREA":" ","LANE":" ","ALLEY":" ","HOUSE_NO":"２４８號地下層","E_COORD97":170834.94,"N_COORD97":2544139.71,"ADDRESS":"東安路２４８號地下層","OBJECTID":604788},"geometry":{"x":170834.94000000227,"y":2544139.7100000028}},{"attributes":{"ID":604816,"DIS_CODE":0,"TOWNNAME":"東區","LI":"東智里","LIN":"9鄰","STREET":"崇德三十街","SECT":" ","MAREA":" ","LANE":" ","ALLEY":" ","HOUSE_NO":"４１號","E_COORD97":170916.84,"N_COORD97":2540170,"ADDRESS":"崇德三十街４１號","OBJECTID":604789},"geometry":{"x":170916.84000000078,"y":2540170.0000000019}},{"attributes":{"ID":604817,"DIS_CODE":0,"TOWNNAME":"東區","LI":"東智里","LIN":"9鄰","STREET":"崇德三十街","SECT":" ","MAREA":" ","LANE":" ","ALLEY":" ","HOUSE_NO":"３９號","E_COORD97":170912.26999999999,"N_COORD97":2540170.77,"ADDRESS":"崇德三十街３９號","OBJECTID":604790},"geometry":{"x":170912.27000000048,"y":2540170.7700000014}},{"attributes":{"ID":604818,"DIS_CODE":0,"TOWNNAME":"東區","LI":"東智里","LIN":"9鄰","STREET":"崇德三十街","SECT":" ","MAREA":" ","LANE":" ","ALLEY":" ","HOUSE_NO":"３７號","E_COORD97":170909.39999999999,"N_COORD97":2540171.3399999999,"ADDRESS":"崇德三十街３７號","OBJECTID":604791},"geometry":{"x":170909.40000000037,"y":2540171.3400000017}},{"attributes":{"ID":604819,"DIS_CODE":0,"TOWNNAME":"東區","LI":"東智里","LIN":"9鄰","STREET":"崇德三十街","SECT":" ","MAREA":" ","LANE":" ","ALLEY":" ","HOUSE_NO":"８１號","E_COORD97":171013.07999999999,"N_COORD97":2540171.8900000001,"ADDRESS":"崇德三十街８１號","OBJECTID":604792},"geometry":{"x":171013.08000000007,"y":2540171.8900000025}},{"attributes":{"ID":604820,"DIS_CODE":0,"TOWNNAME":"東區","LI":"東智里","LIN":"9鄰","STREET":"崇德三十街","SECT":" ","MAREA":" ","LANE":" ","ALLEY":" ","HOUSE_NO":"３５號","E_COORD97":170904.64000000001,"N_COORD97":2540171.9100000001,"ADDRESS":"崇德三十街３５號","OBJECTID":604793},"geometry":{"x":170904.6400000006,"y":2540171.9100000001}},{"attributes":{"ID":604821,"DIS_CODE":0,"TOWNNAME":"東區","LI":"東智里","LIN":"9鄰","STREET":"崇德三十街","SECT":" ","MAREA":" ","LANE":" ","ALLEY":" ","HOUSE_NO":"３３號","E_COORD97":170900.44,"N_COORD97":2540172.29,"ADDRESS":"崇德三十街３３號","OBJECTID":604794},"geometry":{"x":170900.44000000041,"y":2540172.2899999991}},{"attributes":{"ID":604822,"DIS_CODE":0,"TOWNNAME":"東區","LI":"東智里","LIN":"9鄰","STREET":"崇德三十街","SECT":" ","MAREA":" ","LANE":" ","ALLEY":" ","HOUSE_NO":"３１號","E_COORD97":170896.23999999999,"N_COORD97":2540173.0499999998,"ADDRESS":"崇德三十街３１號","OBJECTID":604795},"geometry":{"x":170896.24000000115,"y":2540173.0499999989}},{"attributes":{"ID":604823,"DIS_CODE":0,"TOWNNAME":"東區","LI":"東智里","LIN":"10鄰","STREET":"崇德三十街","SECT":" ","MAREA":" ","LANE":" ","ALLEY":" ","HOUSE_NO":"８８號","E_COORD97":171013.28,"N_COORD97":2540163.4199999999,"ADDRESS":"崇德三十街８８號","OBJECTID":604796},"geometry":{"x":171013.28000000026,"y":2540163.4200000018}},{"attributes":{"ID":604824,"DIS_CODE":0,"TOWNNAME":"東區","LI":"東智里","LIN":"10鄰","STREET":"崇德三十街","SECT":" ","MAREA":" ","LANE":" ","ALLEY":" ","HOUSE_NO":"５０號","E_COORD97":170916.48000000001,"N_COORD97":2540156.7599999998,"ADDRESS":"崇德三十街５０號","OBJECTID":604797},"geometry":{"x":170916.48000000138,"y":2540156.7599999998}},{"attributes":{"ID":604825,"DIS_CODE":0,"TOWNNAME":"東區","LI":"東智里","LIN":"10鄰","STREET":"崇德三十街","SECT":" ","MAREA":" ","LANE":" ","ALLEY":" ","HOUSE_NO":"４８號","E_COORD97":170913.60999999999,"N_COORD97":2540156.7599999998,"ADDRESS":"崇德三十街４８號","OBJECTID":604798},"geometry":{"x":170913.61000000127,"y":2540156.7599999998}},{"attributes":{"ID":604826,"DIS_CODE":0,"TOWNNAME":"東區","LI":"東智里","LIN":"13鄰","STREET":"崇德三十二街","SECT":" ","MAREA":" ","LANE":" ","ALLEY":" ","HOUSE_NO":"４３號","E_COORD97":170911.07999999999,"N_COORD97":2540096.1299999999,"ADDRESS":"崇德三十二街４３號","OBJECTID":604799},"geometry":{"x":170911.08000000007,"y":2540096.1300000027}},{"attributes":{"ID":604827,"DIS_CODE":0,"TOWNNAME":"東區","LI":"東智里","LIN":"13鄰","STREET":"崇德三十二街","SECT":" ","MAREA":" ","LANE":" ","ALLEY":" ","HOUSE_NO":"４１號","E_COORD97":170905.35000000001,"N_COORD97":2540094.5699999998,"ADDRESS":"崇德三十二街４１號","OBJECTID":604800},"geometry":{"x":170905.34999999963,"y":2540094.570000004}}]}