{"displayFieldName":"TOWNNAME","fieldAliases":{"ID":"ID","DIS_CODE":"DIS_CODE","TOWNNAME":"TOWNNAME","LI":"LI","LIN":"LIN","STREET":"STREET","SECT":"SECT","MAREA":"MAREA","LANE":"LANE","ALLEY":"ALLEY","HOUSE_NO":"HOUSE_NO","E_COORD97":"E_COORD97","N_COORD97":"N_COORD97","ADDRESS":"ADDRESS","OBJECTID":"OBJECTID"},"geometryType":"esriGeometryPoint","spatialReference":{"wkid":102443,"latestWkid":3826},"fields":[{"name":"ID","type":"esriFieldTypeDouble","alias":"ID"},{"name":"DIS_CODE","type":"esriFieldTypeInteger","alias":"DIS_CODE"},{"name":"TOWNNAME","type":"esriFieldTypeString","alias":"TOWNNAME","length":8},{"name":"LI","type":"esriFieldTypeString","alias":"LI","length":8},{"name":"LIN","type":"esriFieldTypeString","alias":"LIN","length":12},{"name":"STREET","type":"esriFieldTypeString","alias":"STREET","length":20},{"name":"SECT","type":"esriFieldTypeString","alias":"SECT","length":8},{"name":"MAREA","type":"esriFieldTypeString","alias":"MAREA","length":12},{"name":"LANE","type":"esriFieldTypeString","alias":"LANE","length":10},{"name":"ALLEY","type":"esriFieldTypeString","alias":"ALLEY","length":10},{"name":"HOUSE_NO","type":"esriFieldTypeString","alias":"HOUSE_NO","length":20},{"name":"E_COORD97","type":"esriFieldTypeDouble","alias":"E_COORD97"},{"name":"N_COORD97","type":"esriFieldTypeDouble","alias":"N_COORD97"},{"name":"ADDRESS","type":"esriFieldTypeString","alias":"ADDRESS","length":50},{"name":"OBJECTID","type":"esriFieldTypeOID","alias":"OBJECTID"}],"features":[{"attributes":{"ID":247805,"DIS_CODE":0,"TOWNNAME":"安平區","LI":"育平里","LIN":"14鄰","STREET":"育平路","SECT":" ","MAREA":" ","LANE":" ","ALLEY":" ","HOUSE_NO":"２１２號十三樓之１４","E_COORD97":164690.60999999999,"N_COORD97":2543415.9199999999,"ADDRESS":"育平路２１２號十三樓之１４","OBJECTID":247801},"geometry":{"x":164690.61000000127,"y":2543415.9200000018}},{"attributes":{"ID":247806,"DIS_CODE":0,"TOWNNAME":"安平區","LI":"育平里","LIN":"14鄰","STREET":"育平路","SECT":" ","MAREA":" ","LANE":" ","ALLEY":" ","HOUSE_NO":"２１２號十三樓之１６","E_COORD97":164690.60999999999,"N_COORD97":2543415.9199999999,"ADDRESS":"育平路２１２號十三樓之１６","OBJECTID":247802},"geometry":{"x":164690.61000000127,"y":2543415.9200000018}},{"attributes":{"ID":247807,"DIS_CODE":0,"TOWNNAME":"安平區","LI":"育平里","LIN":"14鄰","STREET":"育平路","SECT":" ","MAREA":" ","LANE":" ","ALLEY":" ","HOUSE_NO":"２１２號十三樓之１８","E_COORD97":164690.60999999999,"N_COORD97":2543415.9199999999,"ADDRESS":"育平路２１２號十三樓之１８","OBJECTID":247803},"geometry":{"x":164690.61000000127,"y":2543415.9200000018}},{"attributes":{"ID":247808,"DIS_CODE":0,"TOWNNAME":"安平區","LI":"育平里","LIN":"14鄰","STREET":"育平路","SECT":" ","MAREA":" ","LANE":" ","ALLEY":" ","HOUSE_NO":"２１２號十三樓之２０","E_COORD97":164690.60999999999,"N_COORD97":2543415.9199999999,"ADDRESS":"育平路２１２號十三樓之２０","OBJECTID":247804},"geometry":{"x":164690.61000000127,"y":2543415.9200000018}},{"attributes":{"ID":247809,"DIS_CODE":0,"TOWNNAME":"安平區","LI":"育平里","LIN":"14鄰","STREET":"育平路","SECT":" ","MAREA":" ","LANE":" ","ALLEY":" ","HOUSE_NO":"２１２號十三樓之２２","E_COORD97":164690.60999999999,"N_COORD97":2543415.9199999999,"ADDRESS":"育平路２１２號十三樓之２２","OBJECTID":247805},"geometry":{"x":164690.61000000127,"y":2543415.9200000018}},{"attributes":{"ID":247810,"DIS_CODE":0,"TOWNNAME":"南區","LI":"興農里","LIN":"11鄰","STREET":"明興路","SECT":" ","MAREA":" ","LANE":"１１５７巷","ALLEY":" ","HOUSE_NO":"１號","E_COORD97":166555.64000000001,"N_COORD97":2536404.2200000002,"ADDRESS":"明興路１１５７巷１號","OBJECTID":247806},"geometry":{"x":166555.63999999966,"y":2536404.2200000007}},{"attributes":{"ID":247811,"DIS_CODE":0,"TOWNNAME":"南區","LI":"興農里","LIN":"11鄰","STREET":"明興路","SECT":" ","MAREA":" ","LANE":"１１５７巷","ALLEY":" ","HOUSE_NO":"３號","E_COORD97":166559.87,"N_COORD97":2536401.23,"ADDRESS":"明興路１１５７巷３號","OBJECTID":247807},"geometry":{"x":166559.87000000197,"y":2536401.2300000004}},{"attributes":{"ID":247812,"DIS_CODE":0,"TOWNNAME":"南區","LI":"興農里","LIN":"11鄰","STREET":"明興路","SECT":" ","MAREA":" ","LANE":"１１５７巷","ALLEY":" ","HOUSE_NO":"５號","E_COORD97":166564.60000000001,"N_COORD97":2536403.7200000002,"ADDRESS":"明興路１１５７巷５號","OBJECTID":247808},"geometry":{"x":166564.60000000149,"y":2536403.7200000007}},{"attributes":{"ID":247813,"DIS_CODE":0,"TOWNNAME":"南區","LI":"興農里","LIN":"11鄰","STREET":"明興路","SECT":" ","MAREA":" ","LANE":"１１８１巷","ALLEY":" ","HOUSE_NO":"１０９號","E_COORD97":167221.45999999999,"N_COORD97":2536739.02,"ADDRESS":"明興路１１８１巷１０９號","OBJECTID":247809},"geometry":{"x":167221.45999999996,"y":2536739.0200000014}},{"attributes":{"ID":247814,"DIS_CODE":0,"TOWNNAME":"永康區","LI":"埔園里","LIN":"34鄰","STREET":"永大路","SECT":"三段","MAREA":" ","LANE":"５６０巷","ALLEY":" ","HOUSE_NO":"５號","E_COORD97":174143.89000000001,"N_COORD97":2548644.04,"ADDRESS":"永大路三段５６０巷５號","OBJECTID":247810},"geometry":{"x":174143.8900000006,"y":2548644.0400000028}},{"attributes":{"ID":247815,"DIS_CODE":0,"TOWNNAME":"東區","LI":"後甲里","LIN":"34鄰","STREET":"裕農路","SECT":" ","MAREA":" ","LANE":"６２１巷","ALLEY":" ","HOUSE_NO":"１２５號","E_COORD97":171557.37,"N_COORD97":2543524.04,"ADDRESS":"裕農路６２１巷１２５號","OBJECTID":247811},"geometry":{"x":171557.37000000104,"y":2543524.0399999991}},{"attributes":{"ID":247816,"DIS_CODE":0,"TOWNNAME":"東區","LI":"後甲里","LIN":"34鄰","STREET":"裕農路","SECT":" ","MAREA":" ","LANE":"６２１巷","ALLEY":" ","HOUSE_NO":"１３７號","E_COORD97":171527.28,"N_COORD97":2543548.5899999999,"ADDRESS":"裕農路６２１巷１３７號","OBJECTID":247812},"geometry":{"x":171527.28000000026,"y":2543548.589999998}},{"attributes":{"ID":247817,"DIS_CODE":0,"TOWNNAME":"安平區","LI":"育平里","LIN":"14鄰","STREET":"育平路","SECT":" ","MAREA":" ","LANE":" ","ALLEY":" ","HOUSE_NO":"２１２號十五樓之１２","E_COORD97":164690.60999999999,"N_COORD97":2543415.9199999999,"ADDRESS":"育平路２１２號十五樓之１２","OBJECTID":247813},"geometry":{"x":164690.61000000127,"y":2543415.9200000018}},{"attributes":{"ID":247818,"DIS_CODE":0,"TOWNNAME":"安平區","LI":"育平里","LIN":"14鄰","STREET":"育平路","SECT":" ","MAREA":" ","LANE":" ","ALLEY":" ","HOUSE_NO":"２１２號十五樓之１４","E_COORD97":164690.60999999999,"N_COORD97":2543415.9199999999,"ADDRESS":"育平路２１２號十五樓之１４","OBJECTID":247814},"geometry":{"x":164690.61000000127,"y":2543415.9200000018}},{"attributes":{"ID":247819,"DIS_CODE":0,"TOWNNAME":"安平區","LI":"育平里","LIN":"14鄰","STREET":"育平路","SECT":" ","MAREA":" ","LANE":" ","ALLEY":" ","HOUSE_NO":"２１２號十五樓之１６","E_COORD97":164690.60999999999,"N_COORD97":2543415.9199999999,"ADDRESS":"育平路２１２號十五樓之１６","OBJECTID":247815},"geometry":{"x":164690.61000000127,"y":2543415.9200000018}},{"attributes":{"ID":247820,"DIS_CODE":0,"TOWNNAME":"安平區","LI":"育平里","LIN":"14鄰","STREET":"育平路","SECT":" ","MAREA":" ","LANE":" ","ALLEY":" ","HOUSE_NO":"２１２號十五樓之１８","E_COORD97":164690.60999999999,"N_COORD97":2543415.9199999999,"ADDRESS":"育平路２１２號十五樓之１８","OBJECTID":247816},"geometry":{"x":164690.61000000127,"y":2543415.9200000018}},{"attributes":{"ID":247821,"DIS_CODE":0,"TOWNNAME":"新營區","LI":"五興里","LIN":"11鄰","STREET":" ","SECT":" ","MAREA":"五間厝","LANE":" ","ALLEY":" ","HOUSE_NO":"１１９號","E_COORD97":175484.29000000001,"N_COORD97":2574328.8199999998,"ADDRESS":"五間厝１１９號","OBJECTID":247817},"geometry":{"x":175484.29000000097,"y":2574328.8199999984}},{"attributes":{"ID":247822,"DIS_CODE":0,"TOWNNAME":"新化區","LI":"唪口里","LIN":"11鄰","STREET":" ","SECT":" ","MAREA":"唪口","LANE":" ","ALLEY":" ","HOUSE_NO":"１７２號之１３","E_COORD97":177693.34,"N_COORD97":2548977.2599999998,"ADDRESS":"唪口１７２號之１３","OBJECTID":247818},"geometry":{"x":177693.33999999985,"y":2548977.2600000016}},{"attributes":{"ID":247823,"DIS_CODE":0,"TOWNNAME":"鹽水區","LI":"舊營里","LIN":"11鄰","STREET":" ","SECT":" ","MAREA":"舊營","LANE":" ","ALLEY":" ","HOUSE_NO":"１００號","E_COORD97":174432.70000000001,"N_COORD97":2577506.7000000002,"ADDRESS":"舊營１００號","OBJECTID":247819},"geometry":{"x":174432.70000000019,"y":2577506.7000000011}},{"attributes":{"ID":247824,"DIS_CODE":0,"TOWNNAME":"東區","LI":"後甲里","LIN":"34鄰","STREET":"裕農路","SECT":" ","MAREA":" ","LANE":"６２１巷","ALLEY":" ","HOUSE_NO":"１３７號之１","E_COORD97":171505.03,"N_COORD97":2543550.71,"ADDRESS":"裕農路６２１巷１３７號之１","OBJECTID":247820},"geometry":{"x":171505.03000000026,"y":2543550.7100000028}},{"attributes":{"ID":247825,"DIS_CODE":0,"TOWNNAME":"東區","LI":"後甲里","LIN":"34鄰","STREET":"裕農路","SECT":" ","MAREA":" ","LANE":"６２１巷","ALLEY":" ","HOUSE_NO":"１３７號之２","E_COORD97":171510.32999999999,"N_COORD97":2543527.6400000001,"ADDRESS":"裕農路６２１巷１３７號之２","OBJECTID":247821},"geometry":{"x":171510.33000000101,"y":2543527.6400000006}},{"attributes":{"ID":247826,"DIS_CODE":0,"TOWNNAME":"東區","LI":"後甲里","LIN":"34鄰","STREET":"裕農路","SECT":" ","MAREA":" ","LANE":"６２１巷","ALLEY":" ","HOUSE_NO":"１３７號之４","E_COORD97":171511.60000000001,"N_COORD97":2543536.1000000001,"ADDRESS":"裕農路６２１巷１３７號之４","OBJECTID":247822},"geometry":{"x":171511.60000000056,"y":2543536.1000000015}},{"attributes":{"ID":247827,"DIS_CODE":0,"TOWNNAME":"東區","LI":"後甲里","LIN":"34鄰","STREET":"裕農路","SECT":" ","MAREA":" ","LANE":"６２１巷","ALLEY":" ","HOUSE_NO":"１４５號之１","E_COORD97":171501.42999999999,"N_COORD97":2543538.2200000002,"ADDRESS":"裕農路６２１巷１４５號之１","OBJECTID":247823},"geometry":{"x":171501.4299999997,"y":2543538.2200000007}},{"attributes":{"ID":247828,"DIS_CODE":0,"TOWNNAME":"新營區","LI":"嘉芳里","LIN":"1鄰","STREET":"復興路","SECT":" ","MAREA":" ","LANE":"７００巷","ALLEY":" ","HOUSE_NO":"９９號","E_COORD97":177323.10999999999,"N_COORD97":2579171.46,"ADDRESS":"復興路７００巷９９號","OBJECTID":247824},"geometry":{"x":177323.11000000127,"y":2579171.4600000028}},{"attributes":{"ID":247829,"DIS_CODE":0,"TOWNNAME":"永康區","LI":"成功里","LIN":"34鄰","STREET":"中華一路","SECT":" ","MAREA":" ","LANE":"３９巷","ALLEY":" ","HOUSE_NO":"１８號","E_COORD97":171862.54999999999,"N_COORD97":2544938.7000000002,"ADDRESS":"中華一路３９巷１８號","OBJECTID":247825},"geometry":{"x":171862.55000000168,"y":2544938.7000000011}},{"attributes":{"ID":247830,"DIS_CODE":0,"TOWNNAME":"永康區","LI":"成功里","LIN":"34鄰","STREET":"中華一路","SECT":" ","MAREA":" ","LANE":"３９巷","ALLEY":" ","HOUSE_NO":"２５號","E_COORD97":171877.22,"N_COORD97":2544916.4399999999,"ADDRESS":"中華一路３９巷２５號","OBJECTID":247826},"geometry":{"x":171877.22000000067,"y":2544916.4400000013}},{"attributes":{"ID":247831,"DIS_CODE":0,"TOWNNAME":"新營區","LI":"埤寮里","LIN":"11鄰","STREET":" ","SECT":" ","MAREA":"埤寮","LANE":" ","ALLEY":" ","HOUSE_NO":"８２號","E_COORD97":180526.92000000001,"N_COORD97":2580802.8599999999,"ADDRESS":"埤寮８２號","OBJECTID":247827},"geometry":{"x":180526.91999999993,"y":2580802.8599999994}},{"attributes":{"ID":247832,"DIS_CODE":0,"TOWNNAME":"歸仁區","LI":"南保里","LIN":"11鄰","STREET":"文化街","SECT":"三段","MAREA":" ","LANE":"１６０巷","ALLEY":" ","HOUSE_NO":"１４號","E_COORD97":176661.17000000001,"N_COORD97":2541235.2599999998,"ADDRESS":"文化街三段１６０巷１４號","OBJECTID":247828},"geometry":{"x":176661.17000000086,"y":2541235.2600000035}},{"attributes":{"ID":247833,"DIS_CODE":0,"TOWNNAME":"永康區","LI":"成功里","LIN":"34鄰","STREET":"中華一路","SECT":" ","MAREA":" ","LANE":"３９巷","ALLEY":" ","HOUSE_NO":"２９號","E_COORD97":171877.98999999999,"N_COORD97":2544912.6899999999,"ADDRESS":"中華一路３９巷２９號","OBJECTID":247829},"geometry":{"x":171877.99000000022,"y":2544912.6899999995}},{"attributes":{"ID":247834,"DIS_CODE":0,"TOWNNAME":"永康區","LI":"成功里","LIN":"34鄰","STREET":"中華一路","SECT":" ","MAREA":" ","LANE":"３９巷","ALLEY":" ","HOUSE_NO":"３號","E_COORD97":171871.32000000001,"N_COORD97":2544960.5,"ADDRESS":"中華一路３９巷３號","OBJECTID":247830},"geometry":{"x":171871.32000000216,"y":2544960.5000000019}},{"attributes":{"ID":247835,"DIS_CODE":0,"TOWNNAME":"新營區","LI":"太南里","LIN":"11鄰","STREET":" ","SECT":" ","MAREA":"太子宮","LANE":" ","ALLEY":" ","HOUSE_NO":"２６０號","E_COORD97":176114.66,"N_COORD97":2576799.73,"ADDRESS":"太子宮２６０號","OBJECTID":247831},"geometry":{"x":176114.66000000015,"y":2576799.7300000004}},{"attributes":{"ID":247836,"DIS_CODE":0,"TOWNNAME":"楠西區","LI":"灣丘里","LIN":"11鄰","STREET":" ","SECT":" ","MAREA":"香蕉山","LANE":" ","ALLEY":" ","HOUSE_NO":"３３號之１","E_COORD97":203473.92999999999,"N_COORD97":2564105.2999999998,"ADDRESS":"香蕉山３３號之１","OBJECTID":247832},"geometry":{"x":203473.93000000063,"y":2564105.3000000026}},{"attributes":{"ID":247837,"DIS_CODE":0,"TOWNNAME":"楠西區","LI":"照興里","LIN":"11鄰","STREET":" ","SECT":" ","MAREA":"興南","LANE":" ","ALLEY":" ","HOUSE_NO":"２０號","E_COORD97":196077.57000000001,"N_COORD97":2564461.25,"ADDRESS":"興南２０號","OBJECTID":247833},"geometry":{"x":196077.57000000123,"y":2564461.2500000019}},{"attributes":{"ID":247838,"DIS_CODE":0,"TOWNNAME":"永康區","LI":"成功里","LIN":"34鄰","STREET":"中華一路","SECT":" ","MAREA":" ","LANE":"３９巷","ALLEY":" ","HOUSE_NO":"１５號","E_COORD97":171874.14999999999,"N_COORD97":2544936.4900000002,"ADDRESS":"中華一路３９巷１５號","OBJECTID":247834},"geometry":{"x":171874.15000000037,"y":2544936.4900000039}},{"attributes":{"ID":247839,"DIS_CODE":0,"TOWNNAME":"永康區","LI":"成功里","LIN":"34鄰","STREET":"中華一路","SECT":" ","MAREA":" ","LANE":"３９巷","ALLEY":" ","HOUSE_NO":"１１號","E_COORD97":171873.37,"N_COORD97":2544943.9900000002,"ADDRESS":"中華一路３９巷１１號","OBJECTID":247835},"geometry":{"x":171873.37000000011,"y":2544943.9900000021}},{"attributes":{"ID":247840,"DIS_CODE":0,"TOWNNAME":"永康區","LI":"成功里","LIN":"34鄰","STREET":"中華一路","SECT":" ","MAREA":" ","LANE":"３９巷","ALLEY":" ","HOUSE_NO":"８號","E_COORD97":171860.51999999999,"N_COORD97":2544955.25,"ADDRESS":"中華一路３９巷８號","OBJECTID":247836},"geometry":{"x":171860.51999999955,"y":2544955.2500000019}},{"attributes":{"ID":247841,"DIS_CODE":0,"TOWNNAME":"學甲區","LI":"秀昌里","LIN":"11鄰","STREET":" ","SECT":" ","MAREA":"一秀","LANE":" ","ALLEY":" ","HOUSE_NO":"１０１號之１１","E_COORD97":165954.23999999999,"N_COORD97":2570962.4100000001,"ADDRESS":"一秀１０１號之１１","OBJECTID":247837},"geometry":{"x":165954.24000000115,"y":2570962.410000002}},{"attributes":{"ID":247842,"DIS_CODE":0,"TOWNNAME":"學甲區","LI":"秀昌里","LIN":"11鄰","STREET":" ","SECT":" ","MAREA":"一秀","LANE":" ","ALLEY":" ","HOUSE_NO":"１０１號之２","E_COORD97":165897.57000000001,"N_COORD97":2570946.5299999998,"ADDRESS":"一秀１０１號之２","OBJECTID":247838},"geometry":{"x":165897.57000000216,"y":2570946.5300000031}},{"attributes":{"ID":247843,"DIS_CODE":0,"TOWNNAME":"學甲區","LI":"秀昌里","LIN":"11鄰","STREET":" ","SECT":" ","MAREA":"一秀","LANE":" ","ALLEY":" ","HOUSE_NO":"１０１號之３","E_COORD97":165898.95000000001,"N_COORD97":2570953.54,"ADDRESS":"一秀１０１號之３","OBJECTID":247839},"geometry":{"x":165898.95000000112,"y":2570953.540000001}},{"attributes":{"ID":247844,"DIS_CODE":0,"TOWNNAME":"新化區","LI":"崙頂里","LIN":"11鄰","STREET":" ","SECT":" ","MAREA":"崙子頂","LANE":" ","ALLEY":" ","HOUSE_NO":"３９７號之１","E_COORD97":176927.85999999999,"N_COORD97":2546935.2599999998,"ADDRESS":"崙子頂３９７號之１","OBJECTID":247840},"geometry":{"x":176927.8600000022,"y":2546935.2600000016}},{"attributes":{"ID":247845,"DIS_CODE":0,"TOWNNAME":"永康區","LI":"成功里","LIN":"34鄰","STREET":"中華一路","SECT":" ","MAREA":" ","LANE":"３９巷","ALLEY":" ","HOUSE_NO":"２８號","E_COORD97":171864.45000000001,"N_COORD97":2544922.7000000002,"ADDRESS":"中華一路３９巷２８號","OBJECTID":247841},"geometry":{"x":171864.45000000019,"y":2544922.6999999993}},{"attributes":{"ID":247846,"DIS_CODE":0,"TOWNNAME":"安平區","LI":"育平里","LIN":"14鄰","STREET":"育平路","SECT":" ","MAREA":" ","LANE":" ","ALLEY":" ","HOUSE_NO":"２１２號十五樓之２０","E_COORD97":164690.60999999999,"N_COORD97":2543415.9199999999,"ADDRESS":"育平路２１２號十五樓之２０","OBJECTID":247842},"geometry":{"x":164690.61000000127,"y":2543415.9200000018}},{"attributes":{"ID":247847,"DIS_CODE":0,"TOWNNAME":"新化區","LI":"崙頂里","LIN":"11鄰","STREET":" ","SECT":" ","MAREA":"崙子頂","LANE":" ","ALLEY":" ","HOUSE_NO":"３８３號","E_COORD97":176892.32999999999,"N_COORD97":2546884.25,"ADDRESS":"崙子頂３８３號","OBJECTID":247843},"geometry":{"x":176892.33000000194,"y":2546884.2500000037}},{"attributes":{"ID":247848,"DIS_CODE":0,"TOWNNAME":"新化區","LI":"\u25A0拔里","LIN":"11鄰","STREET":" ","SECT":" ","MAREA":"牧場","LANE":" ","ALLEY":" ","HOUSE_NO":"３２號","E_COORD97":181773.92999999999,"N_COORD97":2551142.25,"ADDRESS":"牧場３２號","OBJECTID":247844},"geometry":{"x":181773.93000000063,"y":2551142.2500000037}},{"attributes":{"ID":247849,"DIS_CODE":0,"TOWNNAME":"新化區","LI":"\u25A0拔里","LIN":"11鄰","STREET":" ","SECT":" ","MAREA":"牧場","LANE":" ","ALLEY":" ","HOUSE_NO":"４０號","E_COORD97":181764.63,"N_COORD97":2551209.25,"ADDRESS":"牧場４０號","OBJECTID":247845},"geometry":{"x":181764.62999999989,"y":2551209.25}},{"attributes":{"ID":247850,"DIS_CODE":0,"TOWNNAME":"新化區","LI":"唪口里","LIN":"11鄰","STREET":" ","SECT":" ","MAREA":"唪口","LANE":" ","ALLEY":" ","HOUSE_NO":"１６０號之５","E_COORD97":177573.60999999999,"N_COORD97":2548815.2599999998,"ADDRESS":"唪口１６０號之５","OBJECTID":247846},"geometry":{"x":177573.61000000034,"y":2548815.2599999998}},{"attributes":{"ID":247851,"DIS_CODE":0,"TOWNNAME":"新化區","LI":"崙頂里","LIN":"11鄰","STREET":" ","SECT":" ","MAREA":"崙子頂","LANE":" ","ALLEY":" ","HOUSE_NO":"３９０號之２","E_COORD97":176924.98000000001,"N_COORD97":2546837.2599999998,"ADDRESS":"崙子頂３９０號之２","OBJECTID":247847},"geometry":{"x":176924.98000000045,"y":2546837.2600000016}},{"attributes":{"ID":247852,"DIS_CODE":0,"TOWNNAME":"永康區","LI":"成功里","LIN":"34鄰","STREET":"中華一路","SECT":" ","MAREA":" ","LANE":"３９巷","ALLEY":" ","HOUSE_NO":"７號","E_COORD97":171872.28,"N_COORD97":2544952.4900000002,"ADDRESS":"中華一路３９巷７號","OBJECTID":247848},"geometry":{"x":171872.28000000119,"y":2544952.4900000002}},{"attributes":{"ID":247853,"DIS_CODE":0,"TOWNNAME":"永康區","LI":"成功里","LIN":"34鄰","STREET":"中華一路","SECT":" ","MAREA":" ","LANE":"３９巷","ALLEY":" ","HOUSE_NO":"５號","E_COORD97":171871.97,"N_COORD97":2544956.25,"ADDRESS":"中華一路３９巷５號","OBJECTID":247849},"geometry":{"x":171871.97000000067,"y":2544956.2500000019}},{"attributes":{"ID":247854,"DIS_CODE":0,"TOWNNAME":"新化區","LI":"\u25A0拔里","LIN":"11鄰","STREET":" ","SECT":" ","MAREA":"牧場","LANE":" ","ALLEY":" ","HOUSE_NO":"３１號","E_COORD97":181764.32999999999,"N_COORD97":2551144.25,"ADDRESS":"牧場３１號","OBJECTID":247850},"geometry":{"x":181764.33000000101,"y":2551144.25}},{"attributes":{"ID":247855,"DIS_CODE":0,"TOWNNAME":"新化區","LI":"崙頂里","LIN":"11鄰","STREET":" ","SECT":" ","MAREA":"崙子頂","LANE":" ","ALLEY":" ","HOUSE_NO":"３８３號之１","E_COORD97":176932.56,"N_COORD97":2546881.2599999998,"ADDRESS":"崙子頂３８３號之１","OBJECTID":247851},"geometry":{"x":176932.56000000145,"y":2546881.2600000016}},{"attributes":{"ID":247856,"DIS_CODE":0,"TOWNNAME":"新化區","LI":"崙頂里","LIN":"11鄰","STREET":" ","SECT":" ","MAREA":"崙子頂","LANE":" ","ALLEY":" ","HOUSE_NO":"４１０號","E_COORD97":177033.73000000001,"N_COORD97":2546927.25,"ADDRESS":"崙子頂４１０號","OBJECTID":247852},"geometry":{"x":177033.73000000045,"y":2546927.25}},{"attributes":{"ID":247857,"DIS_CODE":0,"TOWNNAME":"新化區","LI":"全興里","LIN":"11鄰","STREET":" ","SECT":" ","MAREA":"竹子\u25A0","LANE":" ","ALLEY":" ","HOUSE_NO":"２３４號","E_COORD97":177908.82999999999,"N_COORD97":2546894.25,"ADDRESS":"竹子\u25A0２３４號","OBJECTID":247853},"geometry":{"x":177908.83000000007,"y":2546894.2500000037}},{"attributes":{"ID":247858,"DIS_CODE":0,"TOWNNAME":"新化區","LI":"全興里","LIN":"11鄰","STREET":" ","SECT":" ","MAREA":"竹子\u25A0","LANE":" ","ALLEY":" ","HOUSE_NO":"２４３號之５","E_COORD97":178151.89000000001,"N_COORD97":2546948.2599999998,"ADDRESS":"竹子\u25A0２４３號之５","OBJECTID":247854},"geometry":{"x":178151.88999999966,"y":2546948.2600000035}},{"attributes":{"ID":247859,"DIS_CODE":0,"TOWNNAME":"新化區","LI":"礁坑里","LIN":"11鄰","STREET":" ","SECT":" ","MAREA":"茄冬坑","LANE":" ","ALLEY":" ","HOUSE_NO":"４８號","E_COORD97":183953.247558,"N_COORD97":2548493.1235600002,"ADDRESS":"茄冬坑４８號","OBJECTID":247855},"geometry":{"x":183953.24755799957,"y":2548493.1235569995}},{"attributes":{"ID":247860,"DIS_CODE":0,"TOWNNAME":"新化區","LI":"全興里","LIN":"11鄰","STREET":" ","SECT":" ","MAREA":"竹子\u25A0","LANE":" ","ALLEY":" ","HOUSE_NO":"２３１號之５","E_COORD97":178164.69,"N_COORD97":2546991.2599999998,"ADDRESS":"竹子\u25A0２３１號之５","OBJECTID":247856},"geometry":{"x":178164.69000000041,"y":2546991.2599999998}},{"attributes":{"ID":247861,"DIS_CODE":0,"TOWNNAME":"關廟區","LI":"埤頭里","LIN":"11鄰","STREET":"關新路","SECT":"二段","MAREA":" ","LANE":"１２８巷","ALLEY":"８１弄","HOUSE_NO":"３５號","E_COORD97":179286.62,"N_COORD97":2544443.2999999998,"ADDRESS":"關新路二段１２８巷８１弄３５號","OBJECTID":247857},"geometry":{"x":179286.62000000011,"y":2544443.3000000045}},{"attributes":{"ID":247862,"DIS_CODE":0,"TOWNNAME":"永康區","LI":"成功里","LIN":"34鄰","STREET":"中華一路","SECT":" ","MAREA":" ","LANE":"３９巷","ALLEY":" ","HOUSE_NO":"１３號","E_COORD97":171873.67999999999,"N_COORD97":2544940.2400000002,"ADDRESS":"中華一路３９巷１３號","OBJECTID":247858},"geometry":{"x":171873.68000000063,"y":2544940.2400000002}},{"attributes":{"ID":247863,"DIS_CODE":0,"TOWNNAME":"永康區","LI":"成功里","LIN":"34鄰","STREET":"中華一路","SECT":" ","MAREA":" ","LANE":"３９巷","ALLEY":" ","HOUSE_NO":"１０號","E_COORD97":171860.98999999999,"N_COORD97":2544951.2400000002,"ADDRESS":"中華一路３９巷１０號","OBJECTID":247859},"geometry":{"x":171860.99000000022,"y":2544951.2400000002}},{"attributes":{"ID":247864,"DIS_CODE":0,"TOWNNAME":"永康區","LI":"永康里","LIN":"34鄰","STREET":"大同街","SECT":" ","MAREA":" ","LANE":"７８１巷","ALLEY":" ","HOUSE_NO":"１號","E_COORD97":174412.67999999999,"N_COORD97":2546927.25,"ADDRESS":"大同街７８１巷１號","OBJECTID":247860},"geometry":{"x":174412.67999999877,"y":2546927.25}},{"attributes":{"ID":247865,"DIS_CODE":0,"TOWNNAME":"永康區","LI":"永康里","LIN":"34鄰","STREET":"大同街","SECT":" ","MAREA":" ","LANE":"７８１巷","ALLEY":" ","HOUSE_NO":"１０號","E_COORD97":174405.39999999999,"N_COORD97":2546945,"ADDRESS":"大同街７８１巷１０號","OBJECTID":247861},"geometry":{"x":174405.4000000013,"y":2546945.0000000019}},{"attributes":{"ID":247866,"DIS_CODE":0,"TOWNNAME":"永康區","LI":"永康里","LIN":"34鄰","STREET":"大同街","SECT":" ","MAREA":" ","LANE":"７８１巷","ALLEY":" ","HOUSE_NO":"３號","E_COORD97":174397.98999999999,"N_COORD97":2546923.5,"ADDRESS":"大同街７８１巷３號","OBJECTID":247862},"geometry":{"x":174397.99000000115,"y":2546923.5000000019}},{"attributes":{"ID":247867,"DIS_CODE":0,"TOWNNAME":"永康區","LI":"成功里","LIN":"11鄰","STREET":"忠孝路","SECT":" ","MAREA":" ","LANE":"１９９巷","ALLEY":" ","HOUSE_NO":"３６號","E_COORD97":172007.07999999999,"N_COORD97":2544870.5,"ADDRESS":"忠孝路１９９巷３６號","OBJECTID":247863},"geometry":{"x":172007.08000000101,"y":2544870.5}},{"attributes":{"ID":247868,"DIS_CODE":0,"TOWNNAME":"永康區","LI":"成功里","LIN":"11鄰","STREET":"忠孝路","SECT":" ","MAREA":" ","LANE":"１９９巷","ALLEY":" ","HOUSE_NO":"３２號","E_COORD97":172014.51999999999,"N_COORD97":2544871.25,"ADDRESS":"忠孝路１９９巷３２號","OBJECTID":247864},"geometry":{"x":172014.51999999955,"y":2544871.2500000019}},{"attributes":{"ID":247869,"DIS_CODE":0,"TOWNNAME":"永康區","LI":"成功里","LIN":"11鄰","STREET":"忠孝路","SECT":" ","MAREA":" ","LANE":"１９９巷","ALLEY":" ","HOUSE_NO":"３４號","E_COORD97":172010.92999999999,"N_COORD97":2544870.75,"ADDRESS":"忠孝路１９９巷３４號","OBJECTID":247865},"geometry":{"x":172010.93000000063,"y":2544870.7500000019}},{"attributes":{"ID":247870,"DIS_CODE":0,"TOWNNAME":"永康區","LI":"成功里","LIN":"11鄰","STREET":"忠孝路","SECT":" ","MAREA":" ","LANE":"１９９巷","ALLEY":" ","HOUSE_NO":"４０號","E_COORD97":171999.35999999999,"N_COORD97":2544868.8900000001,"ADDRESS":"忠孝路１９９巷４０號","OBJECTID":247866},"geometry":{"x":171999.36000000034,"y":2544868.8900000006}},{"attributes":{"ID":247871,"DIS_CODE":0,"TOWNNAME":"永康區","LI":"西橋里","LIN":"11鄰","STREET":"中華西街","SECT":" ","MAREA":" ","LANE":"１２７巷","ALLEY":" ","HOUSE_NO":"３８號","E_COORD97":170521.10999999999,"N_COORD97":2546111.3599999999,"ADDRESS":"中華西街１２７巷３８號","OBJECTID":247867},"geometry":{"x":170521.11000000034,"y":2546111.3599999994}},{"attributes":{"ID":247872,"DIS_CODE":0,"TOWNNAME":"中西區","LI":"民主里","LIN":"11鄰","STREET":"尊王路","SECT":" ","MAREA":" ","LANE":"１３８巷","ALLEY":" ","HOUSE_NO":"１號","E_COORD97":167333.97,"N_COORD97":2543659.2200000002,"ADDRESS":"尊王路１３８巷１號","OBJECTID":247868},"geometry":{"x":167333.97000000067,"y":2543659.2200000007}},{"attributes":{"ID":247873,"DIS_CODE":0,"TOWNNAME":"中西區","LI":"民主里","LIN":"11鄰","STREET":"尊王路","SECT":" ","MAREA":" ","LANE":"１３８巷","ALLEY":" ","HOUSE_NO":"３號","E_COORD97":167336.64999999999,"N_COORD97":2543662.46,"ADDRESS":"尊王路１３８巷３號","OBJECTID":247869},"geometry":{"x":167336.6500000013,"y":2543662.459999999}},{"attributes":{"ID":247874,"DIS_CODE":0,"TOWNNAME":"中西區","LI":"民主里","LIN":"11鄰","STREET":"尊王路","SECT":" ","MAREA":" ","LANE":"１３８巷","ALLEY":" ","HOUSE_NO":"５號","E_COORD97":167337.54000000001,"N_COORD97":2543665.3599999999,"ADDRESS":"尊王路１３８巷５號","OBJECTID":247870},"geometry":{"x":167337.54000000004,"y":2543665.3600000031}},{"attributes":{"ID":247875,"DIS_CODE":0,"TOWNNAME":"中西區","LI":"郡西里","LIN":"11鄰","STREET":"大智街","SECT":" ","MAREA":" ","LANE":" ","ALLEY":" ","HOUSE_NO":"９１號","E_COORD97":167286.88,"N_COORD97":2543409.3999999999,"ADDRESS":"大智街９１號","OBJECTID":247871},"geometry":{"x":167286.88000000082,"y":2543409.4000000022}},{"attributes":{"ID":247876,"DIS_CODE":0,"TOWNNAME":"中西區","LI":"郡西里","LIN":"11鄰","STREET":"大智街","SECT":" ","MAREA":" ","LANE":" ","ALLEY":" ","HOUSE_NO":"９３號","E_COORD97":167280.60000000001,"N_COORD97":2543384.7400000002,"ADDRESS":"大智街９３號","OBJECTID":247872},"geometry":{"x":167280.60000000056,"y":2543384.7400000002}},{"attributes":{"ID":247877,"DIS_CODE":0,"TOWNNAME":"中西區","LI":"郡西里","LIN":"11鄰","STREET":"大智街","SECT":" ","MAREA":" ","LANE":" ","ALLEY":" ","HOUSE_NO":"９５號","E_COORD97":167279.44,"N_COORD97":2543382.8700000001,"ADDRESS":"大智街９５號","OBJECTID":247873},"geometry":{"x":167279.44000000041,"y":2543382.8700000029}},{"attributes":{"ID":247878,"DIS_CODE":0,"TOWNNAME":"中西區","LI":"郡西里","LIN":"11鄰","STREET":"大仁街","SECT":" ","MAREA":" ","LANE":" ","ALLEY":" ","HOUSE_NO":"５９號","E_COORD97":167347.56,"N_COORD97":2543435.75,"ADDRESS":"大仁街５９號","OBJECTID":247874},"geometry":{"x":167347.55999999959,"y":2543435.7499999981}},{"attributes":{"ID":247879,"DIS_CODE":0,"TOWNNAME":"中西區","LI":"郡西里","LIN":"11鄰","STREET":"大仁街","SECT":" ","MAREA":" ","LANE":" ","ALLEY":" ","HOUSE_NO":"７９號","E_COORD97":167315.94,"N_COORD97":2543415.3799999999,"ADDRESS":"大仁街７９號","OBJECTID":247875},"geometry":{"x":167315.94000000134,"y":2543415.3800000008}},{"attributes":{"ID":247880,"DIS_CODE":0,"TOWNNAME":"中西區","LI":"郡西里","LIN":"11鄰","STREET":"大仁街","SECT":" ","MAREA":" ","LANE":" ","ALLEY":" ","HOUSE_NO":"８３號","E_COORD97":167311.91,"N_COORD97":2543422.0899999999,"ADDRESS":"大仁街８３號","OBJECTID":247876},"geometry":{"x":167311.91000000015,"y":2543422.0899999999}},{"attributes":{"ID":247881,"DIS_CODE":0,"TOWNNAME":"中西區","LI":"郡西里","LIN":"11鄰","STREET":"大仁街","SECT":" ","MAREA":" ","LANE":" ","ALLEY":" ","HOUSE_NO":"８５號","E_COORD97":167309.10000000001,"N_COORD97":2543429.77,"ADDRESS":"大仁街８５號","OBJECTID":247877},"geometry":{"x":167309.10000000056,"y":2543429.7700000014}},{"attributes":{"ID":247882,"DIS_CODE":0,"TOWNNAME":"南區","LI":"竹溪里","LIN":"11鄰","STREET":"健康路","SECT":"一段","MAREA":" ","LANE":"１３３巷","ALLEY":" ","HOUSE_NO":"６０號","E_COORD97":168856.14000000001,"N_COORD97":2542224.6099999999,"ADDRESS":"健康路一段１３３巷６０號","OBJECTID":247878},"geometry":{"x":168856.14000000153,"y":2542224.6099999994}},{"attributes":{"ID":247883,"DIS_CODE":0,"TOWNNAME":"南區","LI":"佛壇里","LIN":"11鄰","STREET":"灣裡路","SECT":" ","MAREA":" ","LANE":"４５１巷","ALLEY":" ","HOUSE_NO":"５號","E_COORD97":166279.01000000001,"N_COORD97":2535944.1600000001,"ADDRESS":"灣裡路４５１巷５號","OBJECTID":247879},"geometry":{"x":166279.01000000071,"y":2535944.1600000039}},{"attributes":{"ID":247884,"DIS_CODE":0,"TOWNNAME":"永康區","LI":"南灣里","LIN":"34鄰","STREET":"南灣街","SECT":" ","MAREA":" ","LANE":"９９巷","ALLEY":" ","HOUSE_NO":"１５號之８","E_COORD97":174308.60000000001,"N_COORD97":2544890.7999999998,"ADDRESS":"南灣街９９巷１５號之８","OBJECTID":247880},"geometry":{"x":174308.60000000056,"y":2544890.7999999989}},{"attributes":{"ID":247885,"DIS_CODE":0,"TOWNNAME":"永康區","LI":"尚頂里","LIN":"34鄰","STREET":"中正南路","SECT":" ","MAREA":" ","LANE":"３８１巷","ALLEY":" ","HOUSE_NO":"２號之２","E_COORD97":170605.75,"N_COORD97":2547991.0499999998,"ADDRESS":"中正南路３８１巷２號之２","OBJECTID":247881},"geometry":{"x":170605.75000000093,"y":2547991.0500000007}},{"attributes":{"ID":247886,"DIS_CODE":0,"TOWNNAME":"永康區","LI":"埔園里","LIN":"34鄰","STREET":"永大路","SECT":"三段","MAREA":" ","LANE":"６２２巷","ALLEY":" ","HOUSE_NO":"９０號","E_COORD97":174063.98999999999,"N_COORD97":2548930.9199999999,"ADDRESS":"永大路三段６２２巷９０號","OBJECTID":247882},"geometry":{"x":174063.99000000115,"y":2548930.9200000018}},{"attributes":{"ID":247887,"DIS_CODE":0,"TOWNNAME":"永康區","LI":"成功里","LIN":"34鄰","STREET":"中華一路","SECT":" ","MAREA":" ","LANE":"３９巷","ALLEY":" ","HOUSE_NO":"２３號","E_COORD97":171876.01999999999,"N_COORD97":2544920.4900000002,"ADDRESS":"中華一路３９巷２３號","OBJECTID":247883},"geometry":{"x":171876.02000000142,"y":2544920.4900000021}},{"attributes":{"ID":247888,"DIS_CODE":0,"TOWNNAME":"永康區","LI":"勝利里","LIN":"34鄰","STREET":"勝利街","SECT":" ","MAREA":" ","LANE":"１巷","ALLEY":" ","HOUSE_NO":"２１號","E_COORD97":171057.04000000001,"N_COORD97":2544615.25,"ADDRESS":"勝利街１巷２１號","OBJECTID":247884},"geometry":{"x":171057.04000000004,"y":2544615.25}},{"attributes":{"ID":247889,"DIS_CODE":0,"TOWNNAME":"永康區","LI":"南灣里","LIN":"34鄰","STREET":"南灣街","SECT":" ","MAREA":" ","LANE":"９９巷","ALLEY":" ","HOUSE_NO":"３３號","E_COORD97":174266.51000000001,"N_COORD97":2544878.5299999998,"ADDRESS":"南灣街９９巷３３號","OBJECTID":247885},"geometry":{"x":174266.51000000164,"y":2544878.5300000012}},{"attributes":{"ID":247890,"DIS_CODE":0,"TOWNNAME":"永康區","LI":"埔園里","LIN":"34鄰","STREET":"八德街","SECT":" ","MAREA":" ","LANE":"８８巷","ALLEY":" ","HOUSE_NO":"６之１號","E_COORD97":174192.87,"N_COORD97":2548540.29,"ADDRESS":"八德街８８巷６之１號","OBJECTID":247886},"geometry":{"x":174192.87000000011,"y":2548540.2899999991}},{"attributes":{"ID":247891,"DIS_CODE":0,"TOWNNAME":"永康區","LI":"埔園里","LIN":"34鄰","STREET":"八德街","SECT":" ","MAREA":" ","LANE":"８８巷","ALLEY":" ","HOUSE_NO":"１１號","E_COORD97":174180.42000000001,"N_COORD97":2548552.9300000002,"ADDRESS":"八德街８８巷１１號","OBJECTID":247887},"geometry":{"x":174180.41999999993,"y":2548552.9299999997}},{"attributes":{"ID":247892,"DIS_CODE":0,"TOWNNAME":"永康區","LI":"埔園里","LIN":"34鄰","STREET":"永大路","SECT":"三段","MAREA":" ","LANE":"６２２巷","ALLEY":" ","HOUSE_NO":"７８號","E_COORD97":174043.81,"N_COORD97":2548922.9199999999,"ADDRESS":"永大路三段６２２巷７８號","OBJECTID":247888},"geometry":{"x":174043.80999999866,"y":2548922.9199999999}},{"attributes":{"ID":247893,"DIS_CODE":0,"TOWNNAME":"永康區","LI":"埔園里","LIN":"34鄰","STREET":"永大路","SECT":"三段","MAREA":" ","LANE":"６２２巷","ALLEY":" ","HOUSE_NO":"９８號","E_COORD97":174092.31,"N_COORD97":2548940.8799999999,"ADDRESS":"永大路三段６２２巷９８號","OBJECTID":247889},"geometry":{"x":174092.30999999959,"y":2548940.8800000008}},{"attributes":{"ID":247894,"DIS_CODE":0,"TOWNNAME":"永康區","LI":"埔園里","LIN":"34鄰","STREET":"八德街","SECT":" ","MAREA":" ","LANE":"８８巷","ALLEY":" ","HOUSE_NO":"３５號","E_COORD97":174181.73999999999,"N_COORD97":2548601.5800000001,"ADDRESS":"八德街８８巷３５號","OBJECTID":247890},"geometry":{"x":174181.74000000022,"y":2548601.5800000019}},{"attributes":{"ID":247895,"DIS_CODE":0,"TOWNNAME":"永康區","LI":"埔園里","LIN":"34鄰","STREET":"八德街","SECT":" ","MAREA":" ","LANE":"８８巷","ALLEY":" ","HOUSE_NO":"３７號","E_COORD97":174177.37,"N_COORD97":2548602.3300000001,"ADDRESS":"八德街８８巷３７號","OBJECTID":247891},"geometry":{"x":174177.37000000011,"y":2548602.3299999982}},{"attributes":{"ID":247896,"DIS_CODE":0,"TOWNNAME":"永康區","LI":"埔園里","LIN":"34鄰","STREET":"八德街","SECT":" ","MAREA":" ","LANE":"８８巷","ALLEY":" ","HOUSE_NO":"２７號","E_COORD97":174170.5,"N_COORD97":2548587.0800000001,"ADDRESS":"八德街８８巷２７號","OBJECTID":247892},"geometry":{"x":174170.50000000093,"y":2548587.0799999982}},{"attributes":{"ID":247897,"DIS_CODE":0,"TOWNNAME":"永康區","LI":"南灣里","LIN":"34鄰","STREET":"南灣街","SECT":" ","MAREA":" ","LANE":"９９巷","ALLEY":" ","HOUSE_NO":"３１號","E_COORD97":174268.76999999999,"N_COORD97":2544884.2799999998,"ADDRESS":"南灣街９９巷３１號","OBJECTID":247893},"geometry":{"x":174268.76999999955,"y":2544884.2800000012}},{"attributes":{"ID":247898,"DIS_CODE":0,"TOWNNAME":"永康區","LI":"南灣里","LIN":"34鄰","STREET":"南灣街","SECT":" ","MAREA":" ","LANE":"９９巷","ALLEY":" ","HOUSE_NO":"３７號","E_COORD97":174262.51000000001,"N_COORD97":2544867.5299999998,"ADDRESS":"南灣街９９巷３７號","OBJECTID":247894},"geometry":{"x":174262.50999999978,"y":2544867.5300000031}},{"attributes":{"ID":247899,"DIS_CODE":0,"TOWNNAME":"永康區","LI":"南灣里","LIN":"34鄰","STREET":"南灣街","SECT":" ","MAREA":" ","LANE":"９９巷","ALLEY":" ","HOUSE_NO":"１９號","E_COORD97":174294.10000000001,"N_COORD97":2544892,"ADDRESS":"南灣街９９巷１９號","OBJECTID":247895},"geometry":{"x":174294.09999999963,"y":2544891.9999999981}},{"attributes":{"ID":247900,"DIS_CODE":0,"TOWNNAME":"永康區","LI":"南灣里","LIN":"34鄰","STREET":"南灣街","SECT":" ","MAREA":" ","LANE":"９９巷","ALLEY":" ","HOUSE_NO":"２５號","E_COORD97":174275.54999999999,"N_COORD97":2544900.0299999998,"ADDRESS":"南灣街９９巷２５號","OBJECTID":247896},"geometry":{"x":174275.55000000075,"y":2544900.0299999993}},{"attributes":{"ID":247901,"DIS_CODE":0,"TOWNNAME":"永康區","LI":"南灣里","LIN":"34鄰","STREET":"南灣街","SECT":" ","MAREA":" ","LANE":"９９巷","ALLEY":" ","HOUSE_NO":"２１號","E_COORD97":174290.10000000001,"N_COORD97":2544893.5,"ADDRESS":"南灣街９９巷２１號","OBJECTID":247897},"geometry":{"x":174290.10000000056,"y":2544893.5000000019}},{"attributes":{"ID":247902,"DIS_CODE":0,"TOWNNAME":"永康區","LI":"埔園里","LIN":"34鄰","STREET":"八德街","SECT":" ","MAREA":" ","LANE":"８８巷","ALLEY":" ","HOUSE_NO":"４３號","E_COORD97":174164.07999999999,"N_COORD97":2548603.8300000001,"ADDRESS":"八德街８８巷４３號","OBJECTID":247898},"geometry":{"x":174164.08000000007,"y":2548603.8300000019}},{"attributes":{"ID":247903,"DIS_CODE":0,"TOWNNAME":"永康區","LI":"南灣里","LIN":"34鄰","STREET":"南灣街","SECT":" ","MAREA":" ","LANE":"９９巷","ALLEY":" ","HOUSE_NO":"３９號","E_COORD97":174261.01999999999,"N_COORD97":2544862.7799999998,"ADDRESS":"南灣街９９巷３９號","OBJECTID":247899},"geometry":{"x":174261.01999999862,"y":2544862.7800000012}},{"attributes":{"ID":247904,"DIS_CODE":0,"TOWNNAME":"安平區","LI":"育平里","LIN":"14鄰","STREET":"育平路","SECT":" ","MAREA":" ","LANE":" ","ALLEY":" ","HOUSE_NO":"２１２號十五樓之２２","E_COORD97":164690.60999999999,"N_COORD97":2543415.9199999999,"ADDRESS":"育平路２１２號十五樓之２２","OBJECTID":247900},"geometry":{"x":164690.61000000127,"y":2543415.9200000018}},{"attributes":{"ID":247905,"DIS_CODE":0,"TOWNNAME":"東區","LI":"東門里","LIN":"1鄰","STREET":"東門路","SECT":"一段","MAREA":" ","LANE":" ","ALLEY":" ","HOUSE_NO":"１１號","E_COORD97":169192.29999999999,"N_COORD97":2543322.3500000001,"ADDRESS":"東門路一段１１號","OBJECTID":247901},"geometry":{"x":169192.29999999981,"y":2543322.3499999996}},{"attributes":{"ID":247906,"DIS_CODE":0,"TOWNNAME":"南區","LI":"明興里","LIN":"11鄰","STREET":"永興四街","SECT":" ","MAREA":" ","LANE":"６５巷","ALLEY":" ","HOUSE_NO":"１６號","E_COORD97":167084.5,"N_COORD97":2540541,"ADDRESS":"永興四街６５巷１６號","OBJECTID":247902},"geometry":{"x":167084.50000000093,"y":2540541}},{"attributes":{"ID":247907,"DIS_CODE":0,"TOWNNAME":"南區","LI":"明興里","LIN":"11鄰","STREET":"永興四街","SECT":" ","MAREA":" ","LANE":"６５巷","ALLEY":" ","HOUSE_NO":"１８號","E_COORD97":167084.5,"N_COORD97":2540537.0099999998,"ADDRESS":"永興四街６５巷１８號","OBJECTID":247903},"geometry":{"x":167084.50000000093,"y":2540537.0099999998}},{"attributes":{"ID":247908,"DIS_CODE":0,"TOWNNAME":"永康區","LI":"埔園里","LIN":"34鄰","STREET":"八德街","SECT":" ","MAREA":" ","LANE":"８８巷","ALLEY":" ","HOUSE_NO":"２３號","E_COORD97":174178.98000000001,"N_COORD97":2548585.8300000001,"ADDRESS":"八德街８８巷２３號","OBJECTID":247904},"geometry":{"x":174178.98000000045,"y":2548585.8300000019}},{"attributes":{"ID":247909,"DIS_CODE":0,"TOWNNAME":"永康區","LI":"埔園里","LIN":"34鄰","STREET":"八德街","SECT":" ","MAREA":" ","LANE":"８８巷","ALLEY":" ","HOUSE_NO":"８之１號","E_COORD97":174193.62,"N_COORD97":2548546.04,"ADDRESS":"八德街８８巷８之１號","OBJECTID":247905},"geometry":{"x":174193.62000000104,"y":2548546.0400000028}},{"attributes":{"ID":247910,"DIS_CODE":0,"TOWNNAME":"永康區","LI":"南灣里","LIN":"34鄰","STREET":"南灣街","SECT":" ","MAREA":" ","LANE":"９９巷","ALLEY":" ","HOUSE_NO":"７號之１","E_COORD97":174331.09,"N_COORD97":2544922.9100000001,"ADDRESS":"南灣街９９巷７號之１","OBJECTID":247906},"geometry":{"x":174331.09000000078,"y":2544922.9100000001}},{"attributes":{"ID":247911,"DIS_CODE":0,"TOWNNAME":"永康區","LI":"南灣里","LIN":"34鄰","STREET":"南灣街","SECT":" ","MAREA":" ","LANE":"９９巷","ALLEY":" ","HOUSE_NO":"１５號之７","E_COORD97":174305.14000000001,"N_COORD97":2544882.0499999998,"ADDRESS":"南灣街９９巷１５號之７","OBJECTID":247907},"geometry":{"x":174305.1400000006,"y":2544882.0500000007}},{"attributes":{"ID":247912,"DIS_CODE":0,"TOWNNAME":"永康區","LI":"南灣里","LIN":"34鄰","STREET":"南灣街","SECT":" ","MAREA":" ","LANE":"９９巷","ALLEY":" ","HOUSE_NO":"１６號","E_COORD97":174273.98999999999,"N_COORD97":2544941.4900000002,"ADDRESS":"南灣街９９巷１６號","OBJECTID":247908},"geometry":{"x":174273.99000000209,"y":2544941.4900000021}},{"attributes":{"ID":247913,"DIS_CODE":0,"TOWNNAME":"新市區","LI":"新和里","LIN":"34鄰","STREET":"仁愛街","SECT":" ","MAREA":" ","LANE":"２０５巷","ALLEY":" ","HOUSE_NO":"２９號","E_COORD97":177522.84,"N_COORD97":2552808.5299999998,"ADDRESS":"仁愛街２０５巷２９號","OBJECTID":247909},"geometry":{"x":177522.84000000078,"y":2552808.5300000012}},{"attributes":{"ID":247914,"DIS_CODE":0,"TOWNNAME":"新市區","LI":"新和里","LIN":"34鄰","STREET":"仁愛街","SECT":" ","MAREA":" ","LANE":"１８９巷","ALLEY":" ","HOUSE_NO":"３８號","E_COORD97":177493.5,"N_COORD97":2552768.5299999998,"ADDRESS":"仁愛街１８９巷３８號","OBJECTID":247910},"geometry":{"x":177493.50000000093,"y":2552768.5300000012}},{"attributes":{"ID":247915,"DIS_CODE":0,"TOWNNAME":"新市區","LI":"新和里","LIN":"34鄰","STREET":"仁愛街","SECT":" ","MAREA":" ","LANE":"２０５巷","ALLEY":" ","HOUSE_NO":"２６號","E_COORD97":177515,"N_COORD97":2552819.7799999998,"ADDRESS":"仁愛街２０５巷２６號","OBJECTID":247911},"geometry":{"x":177515.00000000093,"y":2552819.7800000031}},{"attributes":{"ID":247916,"DIS_CODE":0,"TOWNNAME":"新營區","LI":"埤寮里","LIN":"13鄰","STREET":"中正路","SECT":" ","MAREA":" ","LANE":"３３５巷","ALLEY":" ","HOUSE_NO":"２號","E_COORD97":180000.57999999999,"N_COORD97":2580060.0099999998,"ADDRESS":"中正路３３５巷２號","OBJECTID":247912},"geometry":{"x":180000.58000000007,"y":2580060.0099999979}},{"attributes":{"ID":247917,"DIS_CODE":0,"TOWNNAME":"新市區","LI":"新和里","LIN":"34鄰","STREET":"仁愛街","SECT":" ","MAREA":" ","LANE":"１８９巷","ALLEY":" ","HOUSE_NO":"２２號","E_COORD97":177530.25,"N_COORD97":2552765.7799999998,"ADDRESS":"仁愛街１８９巷２２號","OBJECTID":247913},"geometry":{"x":177530.25000000093,"y":2552765.7800000012}},{"attributes":{"ID":247918,"DIS_CODE":0,"TOWNNAME":"安平區","LI":"育平里","LIN":"14鄰","STREET":"育平路","SECT":" ","MAREA":" ","LANE":" ","ALLEY":" ","HOUSE_NO":"２１２號十六樓之１２","E_COORD97":164690.60999999999,"N_COORD97":2543415.9199999999,"ADDRESS":"育平路２１２號十六樓之１２","OBJECTID":247914},"geometry":{"x":164690.61000000127,"y":2543415.9200000018}},{"attributes":{"ID":247919,"DIS_CODE":0,"TOWNNAME":"安平區","LI":"育平里","LIN":"14鄰","STREET":"育平路","SECT":" ","MAREA":" ","LANE":" ","ALLEY":" ","HOUSE_NO":"２１２號十六樓之１４","E_COORD97":164690.60999999999,"N_COORD97":2543415.9199999999,"ADDRESS":"育平路２１２號十六樓之１４","OBJECTID":247915},"geometry":{"x":164690.61000000127,"y":2543415.9200000018}},{"attributes":{"ID":247920,"DIS_CODE":0,"TOWNNAME":"東區","LI":"崇文里","LIN":"34鄰","STREET":"生產路","SECT":" ","MAREA":" ","LANE":"３４１巷","ALLEY":" ","HOUSE_NO":"２６號","E_COORD97":171132.64000000001,"N_COORD97":2540761.8999999999,"ADDRESS":"生產路３４１巷２６號","OBJECTID":247916},"geometry":{"x":171132.63999999966,"y":2540761.9000000022}},{"attributes":{"ID":247921,"DIS_CODE":0,"TOWNNAME":"東區","LI":"崇文里","LIN":"34鄰","STREET":"生產路","SECT":" ","MAREA":" ","LANE":"３４１巷","ALLEY":" ","HOUSE_NO":"２８號","E_COORD97":171129.82999999999,"N_COORD97":2540766.8300000001,"ADDRESS":"生產路３４１巷２８號","OBJECTID":247917},"geometry":{"x":171129.83000000007,"y":2540766.8300000001}},{"attributes":{"ID":247922,"DIS_CODE":0,"TOWNNAME":"東區","LI":"崇文里","LIN":"34鄰","STREET":"生產路","SECT":" ","MAREA":" ","LANE":"３４１巷","ALLEY":" ","HOUSE_NO":"３０號","E_COORD97":171127.25,"N_COORD97":2540773.3999999999,"ADDRESS":"生產路３４１巷３０號","OBJECTID":247918},"geometry":{"x":171127.24999999907,"y":2540773.4000000004}},{"attributes":{"ID":247923,"DIS_CODE":0,"TOWNNAME":"東區","LI":"崇文里","LIN":"34鄰","STREET":"生產路","SECT":" ","MAREA":" ","LANE":"３４１巷","ALLEY":" ","HOUSE_NO":"３２號","E_COORD97":171126.78,"N_COORD97":2540778.7999999998,"ADDRESS":"生產路３４１巷３２號","OBJECTID":247919},"geometry":{"x":171126.78000000026,"y":2540778.8000000026}},{"attributes":{"ID":247924,"DIS_CODE":0,"TOWNNAME":"東區","LI":"崇文里","LIN":"34鄰","STREET":"生產路","SECT":" ","MAREA":" ","LANE":"３４１巷","ALLEY":" ","HOUSE_NO":"３６號","E_COORD97":171126.31,"N_COORD97":2540784.8999999999,"ADDRESS":"生產路３４１巷３６號","OBJECTID":247920},"geometry":{"x":171126.30999999959,"y":2540784.9000000022}},{"attributes":{"ID":247925,"DIS_CODE":0,"TOWNNAME":"東區","LI":"崇文里","LIN":"34鄰","STREET":"生產路","SECT":" ","MAREA":" ","LANE":"３４１巷","ALLEY":" ","HOUSE_NO":"３８號","E_COORD97":171126.54000000001,"N_COORD97":2540792.4100000001,"ADDRESS":"生產路３４１巷３８號","OBJECTID":247921},"geometry":{"x":171126.54000000004,"y":2540792.4100000001}},{"attributes":{"ID":247926,"DIS_CODE":0,"TOWNNAME":"仁德區","LI":"後壁里","LIN":"34鄰","STREET":"德洋二街","SECT":" ","MAREA":" ","LANE":"５巷","ALLEY":" ","HOUSE_NO":"９之４號","E_COORD97":172495.94,"N_COORD97":2539328.29,"ADDRESS":"德洋二街５巷９之４號","OBJECTID":247922},"geometry":{"x":172495.94000000041,"y":2539328.2899999991}},{"attributes":{"ID":247927,"DIS_CODE":0,"TOWNNAME":"仁德區","LI":"後壁里","LIN":"34鄰","STREET":"德洋二街","SECT":" ","MAREA":" ","LANE":"３９巷","ALLEY":" ","HOUSE_NO":"２５號","E_COORD97":172304.38,"N_COORD97":2539423.5099999998,"ADDRESS":"德洋二街３９巷２５號","OBJECTID":247923},"geometry":{"x":172304.37999999896,"y":2539423.5100000016}},{"attributes":{"ID":247928,"DIS_CODE":0,"TOWNNAME":"永康區","LI":"埔園里","LIN":"34鄰","STREET":"永大路","SECT":"三段","MAREA":" ","LANE":"６２２巷","ALLEY":" ","HOUSE_NO":"８６號","E_COORD97":174055.62,"N_COORD97":2548927.6699999999,"ADDRESS":"永大路三段６２２巷８６號","OBJECTID":247924},"geometry":{"x":174055.62000000011,"y":2548927.6699999999}},{"attributes":{"ID":247929,"DIS_CODE":0,"TOWNNAME":"永康區","LI":"埔園里","LIN":"34鄰","STREET":"八德街","SECT":" ","MAREA":" ","LANE":"８８巷","ALLEY":" ","HOUSE_NO":"２５號","E_COORD97":174174.64000000001,"N_COORD97":2548586.5800000001,"ADDRESS":"八德街８８巷２５號","OBJECTID":247925},"geometry":{"x":174174.6400000006,"y":2548586.5800000001}},{"attributes":{"ID":247930,"DIS_CODE":0,"TOWNNAME":"永康區","LI":"埔園里","LIN":"34鄰","STREET":"八德街","SECT":" ","MAREA":" ","LANE":"８８巷","ALLEY":" ","HOUSE_NO":"２之１號","E_COORD97":174192.42999999999,"N_COORD97":2548534.54,"ADDRESS":"八德街８８巷２之１號","OBJECTID":247926},"geometry":{"x":174192.43000000156,"y":2548534.5399999991}},{"attributes":{"ID":247931,"DIS_CODE":0,"TOWNNAME":"善化區","LI":"東昌里","LIN":"11鄰","STREET":" ","SECT":" ","MAREA":"東勢寮","LANE":" ","ALLEY":" ","HOUSE_NO":"９７號之１","E_COORD97":180157.10000000001,"N_COORD97":2561813.02,"ADDRESS":"東勢寮９７號之１","OBJECTID":247927},"geometry":{"x":180157.10000000056,"y":2561813.0200000033}},{"attributes":{"ID":247932,"DIS_CODE":0,"TOWNNAME":"新化區","LI":"\u25A0拔里","LIN":"11鄰","STREET":" ","SECT":" ","MAREA":"牧場","LANE":" ","ALLEY":" ","HOUSE_NO":"１３號之６","E_COORD97":181629.28,"N_COORD97":2551099.2599999998,"ADDRESS":"牧場１３號之６","OBJECTID":247928},"geometry":{"x":181629.28000000119,"y":2551099.2600000016}},{"attributes":{"ID":247933,"DIS_CODE":0,"TOWNNAME":"新化區","LI":"\u25A0拔里","LIN":"11鄰","STREET":" ","SECT":" ","MAREA":"牧場","LANE":" ","ALLEY":" ","HOUSE_NO":"１３號之１４","E_COORD97":181799.92000000001,"N_COORD97":2551071.2599999998,"ADDRESS":"牧場１３號之１４","OBJECTID":247929},"geometry":{"x":181799.91999999993,"y":2551071.2600000016}},{"attributes":{"ID":247934,"DIS_CODE":0,"TOWNNAME":"新化區","LI":"全興里","LIN":"11鄰","STREET":" ","SECT":" ","MAREA":"竹子\u25A0","LANE":" ","ALLEY":" ","HOUSE_NO":"２３７號","E_COORD97":177944.23000000001,"N_COORD97":2546929.25,"ADDRESS":"竹子\u25A0２３７號","OBJECTID":247930},"geometry":{"x":177944.23000000231,"y":2546929.2500000019}},{"attributes":{"ID":247935,"DIS_CODE":0,"TOWNNAME":"善化區","LI":"六德里","LIN":"11鄰","STREET":" ","SECT":" ","MAREA":"六分寮","LANE":" ","ALLEY":" ","HOUSE_NO":"２９３號之１","E_COORD97":178510.01000000001,"N_COORD97":2561662.52,"ADDRESS":"六分寮２９３號之１","OBJECTID":247931},"geometry":{"x":178510.01000000071,"y":2561662.5199999996}},{"attributes":{"ID":247936,"DIS_CODE":0,"TOWNNAME":"善化區","LI":"溪美里","LIN":"11鄰","STREET":" ","SECT":" ","MAREA":"溪尾","LANE":" ","ALLEY":" ","HOUSE_NO":"１０７之７號","E_COORD97":176823.38,"N_COORD97":2561448.27,"ADDRESS":"溪尾１０７之７號","OBJECTID":247932},"geometry":{"x":176823.37999999989,"y":2561448.2699999977}},{"attributes":{"ID":247937,"DIS_CODE":0,"TOWNNAME":"仁德區","LI":"一甲里","LIN":"11鄰","STREET":"忠義一街","SECT":" ","MAREA":" ","LANE":"３８巷","ALLEY":" ","HOUSE_NO":"１５之１號","E_COORD97":174073.01000000001,"N_COORD97":2542220.79,"ADDRESS":"忠義一街３８巷１５之１號","OBJECTID":247933},"geometry":{"x":174073.00999999978,"y":2542220.7899999972}},{"attributes":{"ID":247938,"DIS_CODE":0,"TOWNNAME":"永康區","LI":"埔園里","LIN":"34鄰","STREET":"八德街","SECT":" ","MAREA":" ","LANE":"８８巷","ALLEY":" ","HOUSE_NO":"４１號","E_COORD97":174168.63,"N_COORD97":2548603.5800000001,"ADDRESS":"八德街８８巷４１號","OBJECTID":247934},"geometry":{"x":174168.62999999989,"y":2548603.5800000001}},{"attributes":{"ID":247939,"DIS_CODE":0,"TOWNNAME":"永康區","LI":"西灣里","LIN":"34鄰","STREET":"永華路","SECT":" ","MAREA":" ","LANE":"３６２巷","ALLEY":" ","HOUSE_NO":"２２號","E_COORD97":174132.67000000001,"N_COORD97":2545789.4900000002,"ADDRESS":"永華路３６２巷２２號","OBJECTID":247935},"geometry":{"x":174132.66999999993,"y":2545789.4900000002}},{"attributes":{"ID":247940,"DIS_CODE":0,"TOWNNAME":"永康區","LI":"西灣里","LIN":"34鄰","STREET":"永華路","SECT":" ","MAREA":" ","LANE":"３６２巷","ALLEY":" ","HOUSE_NO":"１４號","E_COORD97":174116.70999999999,"N_COORD97":2545785.9900000002,"ADDRESS":"永華路３６２巷１４號","OBJECTID":247936},"geometry":{"x":174116.71000000089,"y":2545785.9900000002}},{"attributes":{"ID":247941,"DIS_CODE":0,"TOWNNAME":"東區","LI":"後甲里","LIN":"34鄰","STREET":"裕農路","SECT":" ","MAREA":" ","LANE":"６２１巷","ALLEY":" ","HOUSE_NO":"１００號","E_COORD97":171629.92000000001,"N_COORD97":2543498.1400000001,"ADDRESS":"裕農路６２１巷１００號","OBJECTID":247937},"geometry":{"x":171629.92000000086,"y":2543498.1400000006}},{"attributes":{"ID":247942,"DIS_CODE":0,"TOWNNAME":"東區","LI":"後甲里","LIN":"34鄰","STREET":"裕農路","SECT":" ","MAREA":" ","LANE":"６２１巷","ALLEY":" ","HOUSE_NO":"１０２號","E_COORD97":171627.12,"N_COORD97":2543497.04,"ADDRESS":"裕農路６２１巷１０２號","OBJECTID":247938},"geometry":{"x":171627.12000000104,"y":2543497.0399999991}},{"attributes":{"ID":247943,"DIS_CODE":0,"TOWNNAME":"東區","LI":"後甲里","LIN":"34鄰","STREET":"裕農路","SECT":" ","MAREA":" ","LANE":"６２１巷","ALLEY":" ","HOUSE_NO":"１０４號","E_COORD97":171624.07000000001,"N_COORD97":2543499.6000000001,"ADDRESS":"裕農路６２１巷１０４號","OBJECTID":247939},"geometry":{"x":171624.07000000123,"y":2543499.5999999996}},{"attributes":{"ID":247944,"DIS_CODE":0,"TOWNNAME":"東區","LI":"後甲里","LIN":"34鄰","STREET":"裕農路","SECT":" ","MAREA":" ","LANE":"６２１巷","ALLEY":" ","HOUSE_NO":"１０６號","E_COORD97":171621.88,"N_COORD97":2543497.1600000001,"ADDRESS":"裕農路６２１巷１０６號","OBJECTID":247940},"geometry":{"x":171621.88000000082,"y":2543497.1600000001}},{"attributes":{"ID":247945,"DIS_CODE":0,"TOWNNAME":"東區","LI":"後甲里","LIN":"34鄰","STREET":"裕農路","SECT":" ","MAREA":" ","LANE":"６２１巷","ALLEY":" ","HOUSE_NO":"１０８號","E_COORD97":171616.76000000001,"N_COORD97":2543497.8900000001,"ADDRESS":"裕農路６２１巷１０８號","OBJECTID":247941},"geometry":{"x":171616.75999999978,"y":2543497.8900000025}},{"attributes":{"ID":247946,"DIS_CODE":0,"TOWNNAME":"東區","LI":"後甲里","LIN":"34鄰","STREET":"裕農路","SECT":" ","MAREA":" ","LANE":"６２１巷","ALLEY":" ","HOUSE_NO":"１１１號之１","E_COORD97":171552.51999999999,"N_COORD97":2543503.5,"ADDRESS":"裕農路６２１巷１１１號之１","OBJECTID":247942},"geometry":{"x":171552.52000000048,"y":2543503.5000000019}},{"attributes":{"ID":247947,"DIS_CODE":0,"TOWNNAME":"東區","LI":"後甲里","LIN":"34鄰","STREET":"裕農路","SECT":" ","MAREA":" ","LANE":"６２１巷","ALLEY":" ","HOUSE_NO":"１０１號","E_COORD97":171600.79000000001,"N_COORD97":2543507.8900000001,"ADDRESS":"裕農路６２１巷１０１號","OBJECTID":247943},"geometry":{"x":171600.79000000097,"y":2543507.8900000025}},{"attributes":{"ID":247948,"DIS_CODE":0,"TOWNNAME":"安平區","LI":"育平里","LIN":"14鄰","STREET":"育平路","SECT":" ","MAREA":" ","LANE":" ","ALLEY":" ","HOUSE_NO":"２１２號十六樓之１６","E_COORD97":164690.60999999999,"N_COORD97":2543415.9199999999,"ADDRESS":"育平路２１２號十六樓之１６","OBJECTID":247944},"geometry":{"x":164690.61000000127,"y":2543415.9200000018}},{"attributes":{"ID":247949,"DIS_CODE":0,"TOWNNAME":"中西區","LI":"三民里","LIN":"11鄰","STREET":"民族路","SECT":"二段","MAREA":" ","LANE":"１７３巷","ALLEY":" ","HOUSE_NO":"９號","E_COORD97":168654.26000000001,"N_COORD97":2543908.7000000002,"ADDRESS":"民族路二段１７３巷９號","OBJECTID":247945},"geometry":{"x":168654.26000000071,"y":2543908.6999999993}},{"attributes":{"ID":247950,"DIS_CODE":0,"TOWNNAME":"中西區","LI":"三民里","LIN":"11鄰","STREET":"中山路","SECT":" ","MAREA":" ","LANE":"７９巷","ALLEY":" ","HOUSE_NO":"８８號","E_COORD97":168666.5,"N_COORD97":2543906.8700000001,"ADDRESS":"中山路７９巷８８號","OBJECTID":247946},"geometry":{"x":168666.50000000093,"y":2543906.870000001}},{"attributes":{"ID":247951,"DIS_CODE":0,"TOWNNAME":"東區","LI":"後甲里","LIN":"34鄰","STREET":"裕農路","SECT":" ","MAREA":" ","LANE":"６２１巷","ALLEY":" ","HOUSE_NO":"１０３號","E_COORD97":171593.23000000001,"N_COORD97":2543507.2799999998,"ADDRESS":"裕農路６２１巷１０３號","OBJECTID":247947},"geometry":{"x":171593.23000000138,"y":2543507.2800000012}},{"attributes":{"ID":247952,"DIS_CODE":0,"TOWNNAME":"東區","LI":"後甲里","LIN":"34鄰","STREET":"裕農路","SECT":" ","MAREA":" ","LANE":"６２１巷","ALLEY":" ","HOUSE_NO":"１０５號","E_COORD97":171586.29000000001,"N_COORD97":2543507.6400000001,"ADDRESS":"裕農路６２１巷１０５號","OBJECTID":247948},"geometry":{"x":171586.29000000004,"y":2543507.6400000006}},{"attributes":{"ID":247953,"DIS_CODE":0,"TOWNNAME":"東區","LI":"後甲里","LIN":"34鄰","STREET":"裕農路","SECT":" ","MAREA":" ","LANE":"６２１巷","ALLEY":" ","HOUSE_NO":"１０７號","E_COORD97":171579.22,"N_COORD97":2543507.6400000001,"ADDRESS":"裕農路６２１巷１０７號","OBJECTID":247949},"geometry":{"x":171579.21999999974,"y":2543507.6400000006}},{"attributes":{"ID":247954,"DIS_CODE":0,"TOWNNAME":"東區","LI":"後甲里","LIN":"34鄰","STREET":"裕農路","SECT":" ","MAREA":" ","LANE":"６２１巷","ALLEY":" ","HOUSE_NO":"１０９號","E_COORD97":171570.56,"N_COORD97":2543507.52,"ADDRESS":"裕農路６２１巷１０９號","OBJECTID":247950},"geometry":{"x":171570.55999999866,"y":2543507.5199999996}},{"attributes":{"ID":247955,"DIS_CODE":0,"TOWNNAME":"東區","LI":"後甲里","LIN":"34鄰","STREET":"裕農路","SECT":" ","MAREA":" ","LANE":"６２１巷","ALLEY":" ","HOUSE_NO":"１２１號","E_COORD97":171579.82999999999,"N_COORD97":2543521.7799999998,"ADDRESS":"裕農路６２１巷１２１號","OBJECTID":247951},"geometry":{"x":171579.83000000101,"y":2543521.7799999993}},{"attributes":{"ID":247956,"DIS_CODE":0,"TOWNNAME":"東區","LI":"後甲里","LIN":"34鄰","STREET":"裕農路","SECT":" ","MAREA":" ","LANE":"６２１巷","ALLEY":" ","HOUSE_NO":"１２７號","E_COORD97":171582.26999999999,"N_COORD97":2543550.0600000001,"ADDRESS":"裕農路６２１巷１２７號","OBJECTID":247952},"geometry":{"x":171582.26999999955,"y":2543550.0600000024}},{"attributes":{"ID":247957,"DIS_CODE":0,"TOWNNAME":"東區","LI":"後甲里","LIN":"34鄰","STREET":"裕農路","SECT":" ","MAREA":" ","LANE":"６２１巷","ALLEY":" ","HOUSE_NO":"１２９號","E_COORD97":171565.69,"N_COORD97":2543549.0800000001,"ADDRESS":"裕農路６２１巷１２９號","OBJECTID":247953},"geometry":{"x":171565.69000000134,"y":2543549.0800000038}},{"attributes":{"ID":247958,"DIS_CODE":0,"TOWNNAME":"東區","LI":"後甲里","LIN":"34鄰","STREET":"裕農路","SECT":" ","MAREA":" ","LANE":"６２１巷","ALLEY":" ","HOUSE_NO":"１３３號","E_COORD97":171550.82000000001,"N_COORD97":2543548.6000000001,"ADDRESS":"裕農路６２１巷１３３號","OBJECTID":247954},"geometry":{"x":171550.8200000003,"y":2543548.6000000034}},{"attributes":{"ID":247959,"DIS_CODE":0,"TOWNNAME":"東區","LI":"後甲里","LIN":"34鄰","STREET":"裕農路","SECT":" ","MAREA":" ","LANE":"６２１巷","ALLEY":" ","HOUSE_NO":"１３５號","E_COORD97":171535.09,"N_COORD97":2543547.9900000002,"ADDRESS":"裕農路６２１巷１３５號","OBJECTID":247955},"geometry":{"x":171535.09000000171,"y":2543547.9900000021}},{"attributes":{"ID":247960,"DIS_CODE":0,"TOWNNAME":"安平區","LI":"育平里","LIN":"14鄰","STREET":"育平路","SECT":" ","MAREA":" ","LANE":" ","ALLEY":" ","HOUSE_NO":"２１２號十六樓之１８","E_COORD97":164690.60999999999,"N_COORD97":2543415.9199999999,"ADDRESS":"育平路２１２號十六樓之１８","OBJECTID":247956},"geometry":{"x":164690.61000000127,"y":2543415.9200000018}},{"attributes":{"ID":247961,"DIS_CODE":0,"TOWNNAME":"中西區","LI":"五妃里","LIN":"11鄰","STREET":"南寧街","SECT":" ","MAREA":" ","LANE":" ","ALLEY":" ","HOUSE_NO":"２號","E_COORD97":168540.5,"N_COORD97":2542792.3599999999,"ADDRESS":"南寧街２號","OBJECTID":247957},"geometry":{"x":168540.50000000186,"y":2542792.3599999994}},{"attributes":{"ID":247962,"DIS_CODE":0,"TOWNNAME":"新化區","LI":"全興里","LIN":"11鄰","STREET":" ","SECT":" ","MAREA":"竹子\u25A0","LANE":" ","ALLEY":" ","HOUSE_NO":"２５６號之１","E_COORD97":178813.06,"N_COORD97":2547083.2599999998,"ADDRESS":"竹子\u25A0２５６號之１","OBJECTID":247958},"geometry":{"x":178813.06000000052,"y":2547083.2599999998}},{"attributes":{"ID":247963,"DIS_CODE":0,"TOWNNAME":"安南區","LI":"海南里","LIN":"11鄰","STREET":"府安路","SECT":"七段","MAREA":" ","LANE":"１９巷","ALLEY":" ","HOUSE_NO":"１１號","E_COORD97":166042.98000000001,"N_COORD97":2546054.7200000002,"ADDRESS":"府安路七段１９巷１１號","OBJECTID":247959},"geometry":{"x":166042.98000000138,"y":2546054.7200000025}},{"attributes":{"ID":247964,"DIS_CODE":0,"TOWNNAME":"安南區","LI":"海南里","LIN":"11鄰","STREET":"府安路","SECT":"七段","MAREA":" ","LANE":"１９巷","ALLEY":" ","HOUSE_NO":"１３號","E_COORD97":166035.20999999999,"N_COORD97":2546063.79,"ADDRESS":"府安路七段１９巷１３號","OBJECTID":247960},"geometry":{"x":166035.21000000183,"y":2546063.790000001}},{"attributes":{"ID":247965,"DIS_CODE":0,"TOWNNAME":"安南區","LI":"海南里","LIN":"11鄰","STREET":"府安路","SECT":"七段","MAREA":" ","LANE":"１９巷","ALLEY":" ","HOUSE_NO":"１５號","E_COORD97":166027.73000000001,"N_COORD97":2546070.5899999999,"ADDRESS":"府安路七段１９巷１５號","OBJECTID":247961},"geometry":{"x":166027.73000000138,"y":2546070.5899999999}},{"attributes":{"ID":247966,"DIS_CODE":0,"TOWNNAME":"安南區","LI":"海南里","LIN":"11鄰","STREET":"府安路","SECT":"七段","MAREA":" ","LANE":"３７巷","ALLEY":" ","HOUSE_NO":"１７號","E_COORD97":165963.73999999999,"N_COORD97":2546030.1099999999,"ADDRESS":"府安路七段３７巷１７號","OBJECTID":247962},"geometry":{"x":165963.74000000022,"y":2546030.1100000031}},{"attributes":{"ID":247967,"DIS_CODE":0,"TOWNNAME":"新化區","LI":"全興里","LIN":"11鄰","STREET":" ","SECT":" ","MAREA":"竹子\u25A0","LANE":" ","ALLEY":" ","HOUSE_NO":"２３５號之６０","E_COORD97":177922.62,"N_COORD97":2546705.2599999998,"ADDRESS":"竹子\u25A0２３５號之６０","OBJECTID":247963},"geometry":{"x":177922.62000000197,"y":2546705.2600000016}},{"attributes":{"ID":247968,"DIS_CODE":0,"TOWNNAME":"新化區","LI":"全興里","LIN":"11鄰","STREET":" ","SECT":" ","MAREA":"竹子\u25A0","LANE":" ","ALLEY":" ","HOUSE_NO":"２３６號之８","E_COORD97":177873.39000000001,"N_COORD97":2546860.2599999998,"ADDRESS":"竹子\u25A0２３６號之８","OBJECTID":247964},"geometry":{"x":177873.3900000006,"y":2546860.2600000035}},{"attributes":{"ID":247969,"DIS_CODE":0,"TOWNNAME":"新化區","LI":"全興里","LIN":"11鄰","STREET":" ","SECT":" ","MAREA":"竹子\u25A0","LANE":" ","ALLEY":" ","HOUSE_NO":"２７１號","E_COORD97":178642.63,"N_COORD97":2546826.25,"ADDRESS":"竹子\u25A0２７１號","OBJECTID":247965},"geometry":{"x":178642.62999999989,"y":2546826.2499999981}},{"attributes":{"ID":247970,"DIS_CODE":0,"TOWNNAME":"東區","LI":"後甲里","LIN":"34鄰","STREET":"裕農路","SECT":" ","MAREA":" ","LANE":"６２１巷","ALLEY":" ","HOUSE_NO":"９０號","E_COORD97":171650.51999999999,"N_COORD97":2543499.8399999999,"ADDRESS":"裕農路６２１巷９０號","OBJECTID":247966},"geometry":{"x":171650.52000000142,"y":2543499.8400000036}},{"attributes":{"ID":247971,"DIS_CODE":0,"TOWNNAME":"東區","LI":"後甲里","LIN":"34鄰","STREET":"裕農路","SECT":" ","MAREA":" ","LANE":"６２１巷","ALLEY":" ","HOUSE_NO":"９２號","E_COORD97":171641.38,"N_COORD97":2543500.3300000001,"ADDRESS":"裕農路６２１巷９２號","OBJECTID":247967},"geometry":{"x":171641.37999999989,"y":2543500.3300000019}},{"attributes":{"ID":247972,"DIS_CODE":0,"TOWNNAME":"東區","LI":"後甲里","LIN":"34鄰","STREET":"裕農路","SECT":" ","MAREA":" ","LANE":"６２１巷","ALLEY":" ","HOUSE_NO":"９０號之１","E_COORD97":171648.20999999999,"N_COORD97":2543500.3300000001,"ADDRESS":"裕農路６２１巷９０號之１","OBJECTID":247968},"geometry":{"x":171648.21000000089,"y":2543500.3300000019}},{"attributes":{"ID":247973,"DIS_CODE":0,"TOWNNAME":"東區","LI":"後甲里","LIN":"34鄰","STREET":"裕農路","SECT":" ","MAREA":" ","LANE":"６２１巷","ALLEY":" ","HOUSE_NO":"９４號","E_COORD97":171638.45000000001,"N_COORD97":2543500.0899999999,"ADDRESS":"裕農路６２１巷９４號","OBJECTID":247969},"geometry":{"x":171638.45000000112,"y":2543500.0899999999}},{"attributes":{"ID":247974,"DIS_CODE":0,"TOWNNAME":"新化區","LI":"礁坑里","LIN":"11鄰","STREET":" ","SECT":" ","MAREA":"茄冬坑","LANE":" ","ALLEY":" ","HOUSE_NO":"３９號","E_COORD97":183919.560638,"N_COORD97":2548434.4919199999,"ADDRESS":"茄冬坑３９號","OBJECTID":247970},"geometry":{"x":183919.56063800212,"y":2548434.4919220023}},{"attributes":{"ID":247975,"DIS_CODE":0,"TOWNNAME":"東區","LI":"後甲里","LIN":"34鄰","STREET":"裕農路","SECT":" ","MAREA":" ","LANE":"６２１巷","ALLEY":" ","HOUSE_NO":"９６號","E_COORD97":171635.64999999999,"N_COORD97":2543500.3300000001,"ADDRESS":"裕農路６２１巷９６號","OBJECTID":247971},"geometry":{"x":171635.6500000013,"y":2543500.3300000019}},{"attributes":{"ID":247976,"DIS_CODE":0,"TOWNNAME":"東區","LI":"後甲里","LIN":"34鄰","STREET":"裕農路","SECT":" ","MAREA":" ","LANE":"６２１巷","ALLEY":" ","HOUSE_NO":"９８號","E_COORD97":171632.12,"N_COORD97":2543498.8700000001,"ADDRESS":"裕農路６２１巷９８號","OBJECTID":247972},"geometry":{"x":171632.12000000104,"y":2543498.8700000029}},{"attributes":{"ID":247977,"DIS_CODE":0,"TOWNNAME":"永康區","LI":"\u25A0行里","LIN":"34鄰","STREET":"中正北路","SECT":" ","MAREA":" ","LANE":"７１巷","ALLEY":" ","HOUSE_NO":"２４號","E_COORD97":172084.48000000001,"N_COORD97":2549209.0299999998,"ADDRESS":"中正北路７１巷２４號","OBJECTID":247973},"geometry":{"x":172084.48000000138,"y":2549209.0299999993}},{"attributes":{"ID":247978,"DIS_CODE":0,"TOWNNAME":"安平區","LI":"育平里","LIN":"14鄰","STREET":"育平路","SECT":" ","MAREA":" ","LANE":" ","ALLEY":" ","HOUSE_NO":"２１２號十六樓之２０","E_COORD97":164690.60999999999,"N_COORD97":2543415.9199999999,"ADDRESS":"育平路２１２號十六樓之２０","OBJECTID":247974},"geometry":{"x":164690.61000000127,"y":2543415.9200000018}},{"attributes":{"ID":247979,"DIS_CODE":0,"TOWNNAME":"安平區","LI":"育平里","LIN":"14鄰","STREET":"育平路","SECT":" ","MAREA":" ","LANE":" ","ALLEY":" ","HOUSE_NO":"２１２號十六樓之２２","E_COORD97":164690.60999999999,"N_COORD97":2543415.9199999999,"ADDRESS":"育平路２１２號十六樓之２２","OBJECTID":247975},"geometry":{"x":164690.61000000127,"y":2543415.9200000018}},{"attributes":{"ID":247980,"DIS_CODE":0,"TOWNNAME":"新化區","LI":"全興里","LIN":"11鄰","STREET":" ","SECT":" ","MAREA":"竹子\u25A0","LANE":" ","ALLEY":" ","HOUSE_NO":"２３５號之１２","E_COORD97":177933.94,"N_COORD97":2546831.2599999998,"ADDRESS":"竹子\u25A0２３５號之１２","OBJECTID":247976},"geometry":{"x":177933.94000000041,"y":2546831.2599999998}},{"attributes":{"ID":247981,"DIS_CODE":0,"TOWNNAME":"新化區","LI":"全興里","LIN":"11鄰","STREET":" ","SECT":" ","MAREA":"竹子\u25A0","LANE":" ","ALLEY":" ","HOUSE_NO":"２５６號","E_COORD97":178879.42999999999,"N_COORD97":2547068.25,"ADDRESS":"竹子\u25A0２５６號","OBJECTID":247977},"geometry":{"x":178879.4299999997,"y":2547068.2500000019}},{"attributes":{"ID":247982,"DIS_CODE":0,"TOWNNAME":"仁德區","LI":"中洲里","LIN":"11鄰","STREET":" ","SECT":" ","MAREA":"中洲","LANE":" ","ALLEY":" ","HOUSE_NO":"３２１號之１","E_COORD97":173317.48000000001,"N_COORD97":2534088.5499999998,"ADDRESS":"中洲３２１號之１","OBJECTID":247978},"geometry":{"x":173317.48000000045,"y":2534088.5500000026}},{"attributes":{"ID":247983,"DIS_CODE":0,"TOWNNAME":"仁德區","LI":"中洲里","LIN":"11鄰","STREET":" ","SECT":" ","MAREA":"中洲","LANE":" ","ALLEY":" ","HOUSE_NO":"３２７號","E_COORD97":173282.39999999999,"N_COORD97":2534102.25,"ADDRESS":"中洲３２７號","OBJECTID":247979},"geometry":{"x":173282.40000000037,"y":2534102.2500000037}},{"attributes":{"ID":247984,"DIS_CODE":0,"TOWNNAME":"安平區","LI":"育平里","LIN":"14鄰","STREET":"育平路","SECT":" ","MAREA":" ","LANE":" ","ALLEY":" ","HOUSE_NO":"２１２號十四樓之１２","E_COORD97":164690.60999999999,"N_COORD97":2543415.9199999999,"ADDRESS":"育平路２１２號十四樓之１２","OBJECTID":247980},"geometry":{"x":164690.61000000127,"y":2543415.9200000018}},{"attributes":{"ID":247985,"DIS_CODE":0,"TOWNNAME":"善化區","LI":"文昌里","LIN":"11鄰","STREET":"自由路","SECT":" ","MAREA":" ","LANE":" ","ALLEY":" ","HOUSE_NO":"９號","E_COORD97":177432.28,"N_COORD97":2558937.75,"ADDRESS":"自由路９號","OBJECTID":247981},"geometry":{"x":177432.28000000119,"y":2558937.7500000019}},{"attributes":{"ID":247986,"DIS_CODE":0,"TOWNNAME":"麻豆區","LI":"巷口里","LIN":"11鄰","STREET":" ","SECT":" ","MAREA":"柯厝","LANE":" ","ALLEY":" ","HOUSE_NO":"１５號之７","E_COORD97":173313.95999999999,"N_COORD97":2564030.8500000001,"ADDRESS":"柯厝１５號之７","OBJECTID":247982},"geometry":{"x":173313.95999999996,"y":2564030.8499999996}},{"attributes":{"ID":247987,"DIS_CODE":0,"TOWNNAME":"麻豆區","LI":"巷口里","LIN":"11鄰","STREET":" ","SECT":" ","MAREA":"柯厝","LANE":" ","ALLEY":" ","HOUSE_NO":"１５號","E_COORD97":173280.92999999999,"N_COORD97":2564035.6600000001,"ADDRESS":"柯厝１５號","OBJECTID":247983},"geometry":{"x":173280.93000000063,"y":2564035.6600000001}},{"attributes":{"ID":247988,"DIS_CODE":0,"TOWNNAME":"麻豆區","LI":"巷口里","LIN":"11鄰","STREET":" ","SECT":" ","MAREA":"柯厝","LANE":" ","ALLEY":" ","HOUSE_NO":"１６號","E_COORD97":173324.17000000001,"N_COORD97":2564040.8199999998,"ADDRESS":"柯厝１６號","OBJECTID":247984},"geometry":{"x":173324.16999999993,"y":2564040.8200000022}},{"attributes":{"ID":247989,"DIS_CODE":0,"TOWNNAME":"麻豆區","LI":"巷口里","LIN":"11鄰","STREET":" ","SECT":" ","MAREA":"柯厝","LANE":" ","ALLEY":" ","HOUSE_NO":"２１號之２","E_COORD97":173404.34,"N_COORD97":2564022.4399999999,"ADDRESS":"柯厝２１號之２","OBJECTID":247985},"geometry":{"x":173404.33999999985,"y":2564022.4399999995}},{"attributes":{"ID":247990,"DIS_CODE":0,"TOWNNAME":"善化區","LI":"東昌里","LIN":"11鄰","STREET":" ","SECT":" ","MAREA":"東勢寮","LANE":" ","ALLEY":" ","HOUSE_NO":"１０３號之５","E_COORD97":180148.64999999999,"N_COORD97":2561827.52,"ADDRESS":"東勢寮１０３號之５","OBJECTID":247986},"geometry":{"x":180148.6500000013,"y":2561827.5200000014}},{"attributes":{"ID":247991,"DIS_CODE":0,"TOWNNAME":"善化區","LI":"田寮里","LIN":"11鄰","STREET":" ","SECT":" ","MAREA":"六分寮","LANE":" ","ALLEY":" ","HOUSE_NO":"１１７號","E_COORD97":178627.13,"N_COORD97":2561389,"ADDRESS":"六分寮１１７號","OBJECTID":247987},"geometry":{"x":178627.12999999989,"y":2561389}},{"attributes":{"ID":247992,"DIS_CODE":0,"TOWNNAME":"永康區","LI":"\u25A0洲里","LIN":"11鄰","STREET":"\u25A0行路","SECT":" ","MAREA":" ","LANE":"１４６巷","ALLEY":" ","HOUSE_NO":"２５號","E_COORD97":171353.28,"N_COORD97":2549329.5600000001,"ADDRESS":"\u25A0行路１４６巷２５號","OBJECTID":247988},"geometry":{"x":171353.28000000119,"y":2549329.5600000005}},{"attributes":{"ID":247993,"DIS_CODE":0,"TOWNNAME":"善化區","LI":"西關里","LIN":"11鄰","STREET":"自由路","SECT":" ","MAREA":" ","LANE":"２６２巷","ALLEY":" ","HOUSE_NO":"１號","E_COORD97":176887.76999999999,"N_COORD97":2559088.5,"ADDRESS":"自由路２６２巷１號","OBJECTID":247989},"geometry":{"x":176887.77000000048,"y":2559088.5000000019}},{"attributes":{"ID":247994,"DIS_CODE":0,"TOWNNAME":"永康區","LI":"網寮里","LIN":"11鄰","STREET":"永勝街","SECT":" ","MAREA":" ","LANE":"２２２巷","ALLEY":" ","HOUSE_NO":"７號","E_COORD97":173369.72,"N_COORD97":2546516.27,"ADDRESS":"永勝街２２２巷７號","OBJECTID":247990},"geometry":{"x":173369.71999999974,"y":2546516.2699999996}},{"attributes":{"ID":247995,"DIS_CODE":0,"TOWNNAME":"永康區","LI":"\u25A0行里","LIN":"34鄰","STREET":"中正北路","SECT":" ","MAREA":" ","LANE":"７１巷","ALLEY":" ","HOUSE_NO":"３２號","E_COORD97":172084.09,"N_COORD97":2549232.2799999998,"ADDRESS":"中正北路７１巷３２號","OBJECTID":247991},"geometry":{"x":172084.08999999985,"y":2549232.2799999993}},{"attributes":{"ID":247996,"DIS_CODE":0,"TOWNNAME":"永康區","LI":"\u25A0行里","LIN":"34鄰","STREET":"中正北路","SECT":" ","MAREA":" ","LANE":"７１巷","ALLEY":" ","HOUSE_NO":"２４號之１","E_COORD97":172087.92000000001,"N_COORD97":2549213.3300000001,"ADDRESS":"中正北路７１巷２４號之１","OBJECTID":247992},"geometry":{"x":172087.92000000086,"y":2549213.3300000019}},{"attributes":{"ID":247997,"DIS_CODE":0,"TOWNNAME":"永康區","LI":"西灣里","LIN":"34鄰","STREET":"永華路","SECT":" ","MAREA":" ","LANE":"３６２巷","ALLEY":" ","HOUSE_NO":"４１號","E_COORD97":174168.98999999999,"N_COORD97":2545809.79,"ADDRESS":"永華路３６２巷４１號","OBJECTID":247993},"geometry":{"x":174168.99000000115,"y":2545809.7899999991}},{"attributes":{"ID":247998,"DIS_CODE":0,"TOWNNAME":"永康區","LI":"尚頂里","LIN":"34鄰","STREET":"中正南路","SECT":" ","MAREA":" ","LANE":"３８１巷","ALLEY":" ","HOUSE_NO":"２號","E_COORD97":170564.03,"N_COORD97":2547955.2400000002,"ADDRESS":"中正南路３８１巷２號","OBJECTID":247994},"geometry":{"x":170564.03000000026,"y":2547955.2400000002}},{"attributes":{"ID":247999,"DIS_CODE":0,"TOWNNAME":"安平區","LI":"育平里","LIN":"14鄰","STREET":"育平路","SECT":" ","MAREA":" ","LANE":" ","ALLEY":" ","HOUSE_NO":"２１２號十四樓之１４","E_COORD97":164690.60999999999,"N_COORD97":2543415.9199999999,"ADDRESS":"育平路２１２號十四樓之１４","OBJECTID":247995},"geometry":{"x":164690.61000000127,"y":2543415.9200000018}},{"attributes":{"ID":248000,"DIS_CODE":0,"TOWNNAME":"安平區","LI":"育平里","LIN":"14鄰","STREET":"育平路","SECT":" ","MAREA":" ","LANE":" ","ALLEY":" ","HOUSE_NO":"２１２號十四樓之１６","E_COORD97":164690.60999999999,"N_COORD97":2543415.9199999999,"ADDRESS":"育平路２１２號十四樓之１６","OBJECTID":247996},"geometry":{"x":164690.61000000127,"y":2543415.9200000018}},{"attributes":{"ID":248001,"DIS_CODE":0,"TOWNNAME":"安平區","LI":"育平里","LIN":"14鄰","STREET":"育平路","SECT":" ","MAREA":" ","LANE":" ","ALLEY":" ","HOUSE_NO":"２１２號十四樓之１８","E_COORD97":164690.60999999999,"N_COORD97":2543415.9199999999,"ADDRESS":"育平路２１２號十四樓之１８","OBJECTID":247997},"geometry":{"x":164690.61000000127,"y":2543415.9200000018}},{"attributes":{"ID":248002,"DIS_CODE":0,"TOWNNAME":"中西區","LI":"大涼里","LIN":"11鄰","STREET":"府前路","SECT":"二段","MAREA":" ","LANE":"２５８巷","ALLEY":" ","HOUSE_NO":"４９號","E_COORD97":166989.06,"N_COORD97":2543800.6200000001,"ADDRESS":"府前路二段２５８巷４９號","OBJECTID":247998},"geometry":{"x":166989.06000000052,"y":2543800.6199999992}},{"attributes":{"ID":248003,"DIS_CODE":0,"TOWNNAME":"善化區","LI":"胡厝里","LIN":"11鄰","STREET":" ","SECT":" ","MAREA":"百二甲","LANE":" ","ALLEY":" ","HOUSE_NO":"１２號之１","E_COORD97":175319.07000000001,"N_COORD97":2559890.5600000001,"ADDRESS":"百二甲１２號之１","OBJECTID":247999},"geometry":{"x":175319.0700000003,"y":2559890.5600000005}},{"attributes":{"ID":248004,"DIS_CODE":0,"TOWNNAME":"中西區","LI":"大涼里","LIN":"11鄰","STREET":"府前路","SECT":"二段","MAREA":" ","LANE":"２５８巷","ALLEY":" ","HOUSE_NO":"５１號","E_COORD97":166981.12,"N_COORD97":2543802.79,"ADDRESS":"府前路二段２５８巷５１號","OBJECTID":248000},"geometry":{"x":166981.12000000011,"y":2543802.7899999991}}]}