{"displayFieldName":"TOWNNAME","fieldAliases":{"ID":"ID","DIS_CODE":"DIS_CODE","TOWNNAME":"TOWNNAME","LI":"LI","LIN":"LIN","STREET":"STREET","SECT":"SECT","MAREA":"MAREA","LANE":"LANE","ALLEY":"ALLEY","HOUSE_NO":"HOUSE_NO","E_COORD97":"E_COORD97","N_COORD97":"N_COORD97","ADDRESS":"ADDRESS","OBJECTID":"OBJECTID"},"geometryType":"esriGeometryPoint","spatialReference":{"wkid":102443,"latestWkid":3826},"fields":[{"name":"ID","type":"esriFieldTypeDouble","alias":"ID"},{"name":"DIS_CODE","type":"esriFieldTypeInteger","alias":"DIS_CODE"},{"name":"TOWNNAME","type":"esriFieldTypeString","alias":"TOWNNAME","length":8},{"name":"LI","type":"esriFieldTypeString","alias":"LI","length":8},{"name":"LIN","type":"esriFieldTypeString","alias":"LIN","length":12},{"name":"STREET","type":"esriFieldTypeString","alias":"STREET","length":20},{"name":"SECT","type":"esriFieldTypeString","alias":"SECT","length":8},{"name":"MAREA","type":"esriFieldTypeString","alias":"MAREA","length":12},{"name":"LANE","type":"esriFieldTypeString","alias":"LANE","length":10},{"name":"ALLEY","type":"esriFieldTypeString","alias":"ALLEY","length":10},{"name":"HOUSE_NO","type":"esriFieldTypeString","alias":"HOUSE_NO","length":20},{"name":"E_COORD97","type":"esriFieldTypeDouble","alias":"E_COORD97"},{"name":"N_COORD97","type":"esriFieldTypeDouble","alias":"N_COORD97"},{"name":"ADDRESS","type":"esriFieldTypeString","alias":"ADDRESS","length":50},{"name":"OBJECTID","type":"esriFieldTypeOID","alias":"OBJECTID"}],"features":[{"attributes":{"ID":286007,"DIS_CODE":0,"TOWNNAME":"後壁區","LI":"菁寮里","LIN":"2鄰","STREET":" ","SECT":" ","MAREA":"菁寮","LANE":" ","ALLEY":" ","HOUSE_NO":"１５號","E_COORD97":181921.35000000001,"N_COORD97":2586326.4900000002,"ADDRESS":"菁寮１５號","OBJECTID":286001},"geometry":{"x":181921.35000000149,"y":2586326.4900000039}},{"attributes":{"ID":286008,"DIS_CODE":0,"TOWNNAME":"後壁區","LI":"新東里","LIN":"2鄰","STREET":" ","SECT":" ","MAREA":"新港東","LANE":" ","ALLEY":" ","HOUSE_NO":"１２號","E_COORD97":181330.97,"N_COORD97":2581911.0899999999,"ADDRESS":"新港東１２號","OBJECTID":286002},"geometry":{"x":181330.97000000067,"y":2581911.0900000036}},{"attributes":{"ID":286009,"DIS_CODE":0,"TOWNNAME":"佳里區","LI":"子龍里","LIN":"2鄰","STREET":" ","SECT":" ","MAREA":"子良廟","LANE":" ","ALLEY":" ","HOUSE_NO":"１４號","E_COORD97":168794.17999999999,"N_COORD97":2564020.46,"ADDRESS":"子良廟１４號","OBJECTID":286003},"geometry":{"x":168794.1799999997,"y":2564020.4600000009}},{"attributes":{"ID":286010,"DIS_CODE":0,"TOWNNAME":"仁德區","LI":"保安里","LIN":"12鄰","STREET":"永德路","SECT":" ","MAREA":" ","LANE":"１７巷","ALLEY":" ","HOUSE_NO":"４號四樓","E_COORD97":172306.29000000001,"N_COORD97":2535905.0099999998,"ADDRESS":"永德路１７巷４號四樓","OBJECTID":286004},"geometry":{"x":172306.29000000004,"y":2535905.0100000016}},{"attributes":{"ID":286011,"DIS_CODE":0,"TOWNNAME":"仁德區","LI":"保安里","LIN":"12鄰","STREET":"永德路","SECT":" ","MAREA":" ","LANE":"１７巷","ALLEY":" ","HOUSE_NO":"１２號四樓","E_COORD97":172333.66,"N_COORD97":2535928.0099999998,"ADDRESS":"永德路１７巷１２號四樓","OBJECTID":286005},"geometry":{"x":172333.66000000108,"y":2535928.0100000016}},{"attributes":{"ID":286012,"DIS_CODE":0,"TOWNNAME":"仁德區","LI":"保安里","LIN":"12鄰","STREET":"永德路","SECT":" ","MAREA":" ","LANE":"１７巷","ALLEY":" ","HOUSE_NO":"１２號一樓","E_COORD97":172333.66,"N_COORD97":2535928.0099999998,"ADDRESS":"永德路１７巷１２號一樓","OBJECTID":286006},"geometry":{"x":172333.66000000108,"y":2535928.0100000016}},{"attributes":{"ID":286013,"DIS_CODE":0,"TOWNNAME":"仁德區","LI":"保安里","LIN":"12鄰","STREET":"永德路","SECT":" ","MAREA":" ","LANE":"１７巷","ALLEY":" ","HOUSE_NO":"６號一樓","E_COORD97":172314.06,"N_COORD97":2535911.7599999998,"ADDRESS":"永德路１７巷６號一樓","OBJECTID":286007},"geometry":{"x":172314.05999999959,"y":2535911.7599999998}},{"attributes":{"ID":286014,"DIS_CODE":0,"TOWNNAME":"仁德區","LI":"保安里","LIN":"12鄰","STREET":"永德路","SECT":" ","MAREA":" ","LANE":"１７巷","ALLEY":" ","HOUSE_NO":"４號一樓","E_COORD97":172306.29000000001,"N_COORD97":2535905.0099999998,"ADDRESS":"永德路１７巷４號一樓","OBJECTID":286008},"geometry":{"x":172306.29000000004,"y":2535905.0100000016}},{"attributes":{"ID":286015,"DIS_CODE":0,"TOWNNAME":"仁德區","LI":"保安里","LIN":"12鄰","STREET":"永德路","SECT":" ","MAREA":" ","LANE":"１７巷","ALLEY":" ","HOUSE_NO":"１２號二樓","E_COORD97":172333.66,"N_COORD97":2535928.0099999998,"ADDRESS":"永德路１７巷１２號二樓","OBJECTID":286009},"geometry":{"x":172333.66000000108,"y":2535928.0100000016}},{"attributes":{"ID":286016,"DIS_CODE":0,"TOWNNAME":"仁德區","LI":"保安里","LIN":"12鄰","STREET":"永德路","SECT":" ","MAREA":" ","LANE":"１７巷","ALLEY":" ","HOUSE_NO":"６號二樓","E_COORD97":172314.06,"N_COORD97":2535911.7599999998,"ADDRESS":"永德路１７巷６號二樓","OBJECTID":286010},"geometry":{"x":172314.05999999959,"y":2535911.7599999998}},{"attributes":{"ID":286017,"DIS_CODE":0,"TOWNNAME":"仁德區","LI":"保安里","LIN":"12鄰","STREET":"永德路","SECT":" ","MAREA":" ","LANE":"１７巷","ALLEY":" ","HOUSE_NO":"８號一樓","E_COORD97":172319.79000000001,"N_COORD97":2535916.7599999998,"ADDRESS":"永德路１７巷８號一樓","OBJECTID":286011},"geometry":{"x":172319.79000000004,"y":2535916.7600000016}},{"attributes":{"ID":286018,"DIS_CODE":0,"TOWNNAME":"仁德區","LI":"保安里","LIN":"12鄰","STREET":"永德路","SECT":" ","MAREA":" ","LANE":"１７巷","ALLEY":" ","HOUSE_NO":"２號三樓","E_COORD97":172300.17999999999,"N_COORD97":2535899.5099999998,"ADDRESS":"永德路１７巷２號三樓","OBJECTID":286012},"geometry":{"x":172300.1799999997,"y":2535899.5099999998}},{"attributes":{"ID":286019,"DIS_CODE":0,"TOWNNAME":"仁德區","LI":"保安里","LIN":"12鄰","STREET":"永德路","SECT":" ","MAREA":" ","LANE":"１７巷","ALLEY":" ","HOUSE_NO":"２號二樓","E_COORD97":172300.17999999999,"N_COORD97":2535899.5099999998,"ADDRESS":"永德路１７巷２號二樓","OBJECTID":286013},"geometry":{"x":172300.1799999997,"y":2535899.5099999998}},{"attributes":{"ID":286020,"DIS_CODE":0,"TOWNNAME":"仁德區","LI":"太子里","LIN":"27鄰","STREET":"大利路","SECT":" ","MAREA":" ","LANE":" ","ALLEY":" ","HOUSE_NO":"３９號","E_COORD97":173529.30391399999,"N_COORD97":2543100.2223200002,"ADDRESS":"大利路３９號","OBJECTID":286014},"geometry":{"x":173529.30391400121,"y":2543100.2223180011}},{"attributes":{"ID":286021,"DIS_CODE":0,"TOWNNAME":"仁德區","LI":"保安里","LIN":"12鄰","STREET":"永德路","SECT":" ","MAREA":" ","LANE":"１７巷","ALLEY":" ","HOUSE_NO":"４號三樓","E_COORD97":172306.29000000001,"N_COORD97":2535905.0099999998,"ADDRESS":"永德路１７巷４號三樓","OBJECTID":286015},"geometry":{"x":172306.29000000004,"y":2535905.0100000016}},{"attributes":{"ID":286022,"DIS_CODE":0,"TOWNNAME":"仁德區","LI":"保安里","LIN":"12鄰","STREET":"永德路","SECT":" ","MAREA":" ","LANE":"１７巷","ALLEY":" ","HOUSE_NO":"１２號三樓","E_COORD97":172333.66,"N_COORD97":2535928.0099999998,"ADDRESS":"永德路１７巷１２號三樓","OBJECTID":286016},"geometry":{"x":172333.66000000108,"y":2535928.0100000016}},{"attributes":{"ID":286023,"DIS_CODE":0,"TOWNNAME":"仁德區","LI":"保安里","LIN":"12鄰","STREET":"永德路","SECT":" ","MAREA":" ","LANE":"１７巷","ALLEY":" ","HOUSE_NO":"１０號二樓","E_COORD97":172327.92999999999,"N_COORD97":2535922.7599999998,"ADDRESS":"永德路１７巷１０號二樓","OBJECTID":286017},"geometry":{"x":172327.93000000063,"y":2535922.7600000035}},{"attributes":{"ID":286024,"DIS_CODE":0,"TOWNNAME":"新化區","LI":"北勢里","LIN":"2鄰","STREET":" ","SECT":" ","MAREA":"北勢","LANE":" ","ALLEY":" ","HOUSE_NO":"３８號","E_COORD97":177379.13,"N_COORD97":2549510.2599999998,"ADDRESS":"北勢３８號","OBJECTID":286018},"geometry":{"x":177379.12999999989,"y":2549510.2599999998}},{"attributes":{"ID":286025,"DIS_CODE":0,"TOWNNAME":"東區","LI":"後甲里","LIN":"12鄰","STREET":"建東街","SECT":" ","MAREA":" ","LANE":"４３巷","ALLEY":" ","HOUSE_NO":"１號二樓","E_COORD97":171764.16,"N_COORD97":2543408.8799999999,"ADDRESS":"建東街４３巷１號二樓","OBJECTID":286019},"geometry":{"x":171764.16000000108,"y":2543408.879999999}},{"attributes":{"ID":286026,"DIS_CODE":0,"TOWNNAME":"北區","LI":"安民里","LIN":"12鄰","STREET":"海安路","SECT":"三段","MAREA":" ","LANE":"７１巷","ALLEY":" ","HOUSE_NO":"１號","E_COORD97":167902.42999999999,"N_COORD97":2544781.8100000001,"ADDRESS":"海安路三段７１巷１號","OBJECTID":286020},"geometry":{"x":167902.4299999997,"y":2544781.8100000005}},{"attributes":{"ID":286027,"DIS_CODE":0,"TOWNNAME":"新化區","LI":"山\u25A0里","LIN":"2鄰","STREET":" ","SECT":" ","MAREA":"頂山\u25A0","LANE":" ","ALLEY":" ","HOUSE_NO":"５４號之２０５","E_COORD97":179215.64000000001,"N_COORD97":2546222.2599999998,"ADDRESS":"頂山\u25A0５４號之２０５","OBJECTID":286021},"geometry":{"x":179215.6400000006,"y":2546222.2599999998}},{"attributes":{"ID":286028,"DIS_CODE":0,"TOWNNAME":"新化區","LI":"山\u25A0里","LIN":"2鄰","STREET":" ","SECT":" ","MAREA":"頂山\u25A0","LANE":" ","ALLEY":" ","HOUSE_NO":"５４號之１７８","E_COORD97":179261.14000000001,"N_COORD97":2546209.2599999998,"ADDRESS":"頂山\u25A0５４號之１７８","OBJECTID":286022},"geometry":{"x":179261.13999999873,"y":2546209.2600000035}},{"attributes":{"ID":286029,"DIS_CODE":0,"TOWNNAME":"南區","LI":"新生里","LIN":"12鄰","STREET":"大同路","SECT":"二段","MAREA":" ","LANE":"１３６巷","ALLEY":" ","HOUSE_NO":"７號一樓之２","E_COORD97":169221.06,"N_COORD97":2542128.8399999999,"ADDRESS":"大同路二段１３６巷７號一樓之２","OBJECTID":286023},"geometry":{"x":169221.06000000145,"y":2542128.8399999999}},{"attributes":{"ID":286030,"DIS_CODE":0,"TOWNNAME":"南區","LI":"新生里","LIN":"12鄰","STREET":"大同路","SECT":"二段","MAREA":" ","LANE":"１３６巷","ALLEY":" ","HOUSE_NO":"７號二樓之１","E_COORD97":169221.06,"N_COORD97":2542128.8399999999,"ADDRESS":"大同路二段１３６巷７號二樓之１","OBJECTID":286024},"geometry":{"x":169221.06000000145,"y":2542128.8399999999}},{"attributes":{"ID":286031,"DIS_CODE":0,"TOWNNAME":"南區","LI":"新生里","LIN":"12鄰","STREET":"大同路","SECT":"二段","MAREA":" ","LANE":"１３６巷","ALLEY":" ","HOUSE_NO":"７號二樓之２","E_COORD97":169221.06,"N_COORD97":2542128.8399999999,"ADDRESS":"大同路二段１３６巷７號二樓之２","OBJECTID":286025},"geometry":{"x":169221.06000000145,"y":2542128.8399999999}},{"attributes":{"ID":286032,"DIS_CODE":0,"TOWNNAME":"南區","LI":"新生里","LIN":"12鄰","STREET":"大同路","SECT":"二段","MAREA":" ","LANE":"１３６巷","ALLEY":" ","HOUSE_NO":"７號三樓之１","E_COORD97":169221.06,"N_COORD97":2542128.8399999999,"ADDRESS":"大同路二段１３６巷７號三樓之１","OBJECTID":286026},"geometry":{"x":169221.06000000145,"y":2542128.8399999999}},{"attributes":{"ID":286033,"DIS_CODE":0,"TOWNNAME":"南區","LI":"新生里","LIN":"12鄰","STREET":"大同路","SECT":"二段","MAREA":" ","LANE":"１３６巷","ALLEY":" ","HOUSE_NO":"７號三樓之２","E_COORD97":169221.06,"N_COORD97":2542128.8399999999,"ADDRESS":"大同路二段１３６巷７號三樓之２","OBJECTID":286027},"geometry":{"x":169221.06000000145,"y":2542128.8399999999}},{"attributes":{"ID":286034,"DIS_CODE":0,"TOWNNAME":"南區","LI":"新生里","LIN":"12鄰","STREET":"大同路","SECT":"二段","MAREA":" ","LANE":"１３６巷","ALLEY":" ","HOUSE_NO":"７號三樓之３","E_COORD97":169221.06,"N_COORD97":2542128.8399999999,"ADDRESS":"大同路二段１３６巷７號三樓之３","OBJECTID":286028},"geometry":{"x":169221.06000000145,"y":2542128.8399999999}},{"attributes":{"ID":286035,"DIS_CODE":0,"TOWNNAME":"南區","LI":"新生里","LIN":"12鄰","STREET":"大同路","SECT":"二段","MAREA":" ","LANE":"１３６巷","ALLEY":" ","HOUSE_NO":"７號三樓之５","E_COORD97":169221.06,"N_COORD97":2542128.8399999999,"ADDRESS":"大同路二段１３６巷７號三樓之５","OBJECTID":286029},"geometry":{"x":169221.06000000145,"y":2542128.8399999999}},{"attributes":{"ID":286036,"DIS_CODE":0,"TOWNNAME":"南區","LI":"新生里","LIN":"12鄰","STREET":"大同路","SECT":"二段","MAREA":" ","LANE":"１３６巷","ALLEY":" ","HOUSE_NO":"７號七樓之１","E_COORD97":169221.06,"N_COORD97":2542128.8399999999,"ADDRESS":"大同路二段１３６巷７號七樓之１","OBJECTID":286030},"geometry":{"x":169221.06000000145,"y":2542128.8399999999}},{"attributes":{"ID":286037,"DIS_CODE":0,"TOWNNAME":"南區","LI":"新生里","LIN":"12鄰","STREET":"大同路","SECT":"二段","MAREA":" ","LANE":"１３６巷","ALLEY":" ","HOUSE_NO":"７號七樓之２","E_COORD97":169221.06,"N_COORD97":2542128.8399999999,"ADDRESS":"大同路二段１３６巷７號七樓之２","OBJECTID":286031},"geometry":{"x":169221.06000000145,"y":2542128.8399999999}},{"attributes":{"ID":286038,"DIS_CODE":0,"TOWNNAME":"南區","LI":"新生里","LIN":"12鄰","STREET":"大同路","SECT":"二段","MAREA":" ","LANE":"１３６巷","ALLEY":" ","HOUSE_NO":"７號七樓之３","E_COORD97":169221.06,"N_COORD97":2542128.8399999999,"ADDRESS":"大同路二段１３６巷７號七樓之３","OBJECTID":286032},"geometry":{"x":169221.06000000145,"y":2542128.8399999999}},{"attributes":{"ID":286039,"DIS_CODE":0,"TOWNNAME":"北區","LI":"玉皇里","LIN":"12鄰","STREET":"成功路","SECT":" ","MAREA":" ","LANE":"６８巷","ALLEY":" ","HOUSE_NO":"６１號五樓之９","E_COORD97":168713.03,"N_COORD97":2544433.3799999999,"ADDRESS":"成功路６８巷６１號五樓之９","OBJECTID":286033},"geometry":{"x":168713.03000000026,"y":2544433.379999999}},{"attributes":{"ID":286040,"DIS_CODE":0,"TOWNNAME":"北區","LI":"玉皇里","LIN":"12鄰","STREET":"成功路","SECT":" ","MAREA":" ","LANE":"６８巷","ALLEY":" ","HOUSE_NO":"６１號四樓之１","E_COORD97":168713.03,"N_COORD97":2544433.3799999999,"ADDRESS":"成功路６８巷６１號四樓之１","OBJECTID":286034},"geometry":{"x":168713.03000000026,"y":2544433.379999999}},{"attributes":{"ID":286041,"DIS_CODE":0,"TOWNNAME":"北區","LI":"玉皇里","LIN":"12鄰","STREET":"成功路","SECT":" ","MAREA":" ","LANE":"６８巷","ALLEY":" ","HOUSE_NO":"６１號四樓之１０","E_COORD97":168713.03,"N_COORD97":2544433.3799999999,"ADDRESS":"成功路６８巷６１號四樓之１０","OBJECTID":286035},"geometry":{"x":168713.03000000026,"y":2544433.379999999}},{"attributes":{"ID":286042,"DIS_CODE":0,"TOWNNAME":"北區","LI":"玉皇里","LIN":"12鄰","STREET":"成功路","SECT":" ","MAREA":" ","LANE":"６８巷","ALLEY":" ","HOUSE_NO":"６１號四樓之１１","E_COORD97":168713.03,"N_COORD97":2544433.3799999999,"ADDRESS":"成功路６８巷６１號四樓之１１","OBJECTID":286036},"geometry":{"x":168713.03000000026,"y":2544433.379999999}},{"attributes":{"ID":286043,"DIS_CODE":0,"TOWNNAME":"北區","LI":"玉皇里","LIN":"12鄰","STREET":"成功路","SECT":" ","MAREA":" ","LANE":"６８巷","ALLEY":" ","HOUSE_NO":"６１號四樓之１２","E_COORD97":168713.03,"N_COORD97":2544433.3799999999,"ADDRESS":"成功路６８巷６１號四樓之１２","OBJECTID":286037},"geometry":{"x":168713.03000000026,"y":2544433.379999999}},{"attributes":{"ID":286044,"DIS_CODE":0,"TOWNNAME":"北區","LI":"玉皇里","LIN":"12鄰","STREET":"成功路","SECT":" ","MAREA":" ","LANE":"６８巷","ALLEY":" ","HOUSE_NO":"６１號四樓之１３","E_COORD97":168713.03,"N_COORD97":2544433.3799999999,"ADDRESS":"成功路６８巷６１號四樓之１３","OBJECTID":286038},"geometry":{"x":168713.03000000026,"y":2544433.379999999}},{"attributes":{"ID":286045,"DIS_CODE":0,"TOWNNAME":"北區","LI":"玉皇里","LIN":"12鄰","STREET":"成功路","SECT":" ","MAREA":" ","LANE":"６８巷","ALLEY":" ","HOUSE_NO":"６１號四樓之１４","E_COORD97":168713.03,"N_COORD97":2544433.3799999999,"ADDRESS":"成功路６８巷６１號四樓之１４","OBJECTID":286039},"geometry":{"x":168713.03000000026,"y":2544433.379999999}},{"attributes":{"ID":286046,"DIS_CODE":0,"TOWNNAME":"安南區","LI":"長安里","LIN":"12鄰","STREET":"長溪路","SECT":"三段","MAREA":" ","LANE":"３８０巷","ALLEY":" ","HOUSE_NO":"４５號","E_COORD97":167774.94,"N_COORD97":2552095.6400000001,"ADDRESS":"長溪路三段３８０巷４５號","OBJECTID":286040},"geometry":{"x":167774.94000000041,"y":2552095.6400000006}},{"attributes":{"ID":286047,"DIS_CODE":0,"TOWNNAME":"仁德區","LI":"仁義里","LIN":"34鄰","STREET":"正義二街","SECT":" ","MAREA":" ","LANE":" ","ALLEY":" ","HOUSE_NO":"１０５號三樓","E_COORD97":173659.75,"N_COORD97":2541607.2599999998,"ADDRESS":"正義二街１０５號三樓","OBJECTID":286041},"geometry":{"x":173659.75,"y":2541607.2599999998}},{"attributes":{"ID":286048,"DIS_CODE":0,"TOWNNAME":"永康區","LI":"南灣里","LIN":"40鄰","STREET":"南灣街","SECT":" ","MAREA":" ","LANE":" ","ALLEY":" ","HOUSE_NO":"１２６之１號","E_COORD97":174330.23000000001,"N_COORD97":2545004.8599999999,"ADDRESS":"南灣街１２６之１號","OBJECTID":286042},"geometry":{"x":174330.23000000231,"y":2545004.8600000013}},{"attributes":{"ID":286049,"DIS_CODE":0,"TOWNNAME":"永康區","LI":"南灣里","LIN":"29鄰","STREET":"大安街","SECT":" ","MAREA":" ","LANE":" ","ALLEY":" ","HOUSE_NO":"５６號","E_COORD97":174485.03,"N_COORD97":2544877,"ADDRESS":"大安街５６號","OBJECTID":286043},"geometry":{"x":174485.03000000026,"y":2544877}},{"attributes":{"ID":286050,"DIS_CODE":0,"TOWNNAME":"東區","LI":"大同里","LIN":"2鄰","STREET":"大同路","SECT":"一段","MAREA":" ","LANE":" ","ALLEY":" ","HOUSE_NO":"４７號","E_COORD97":169161.78,"N_COORD97":2543170.8199999998,"ADDRESS":"大同路一段４７號","OBJECTID":286044},"geometry":{"x":169161.78000000119,"y":2543170.8200000003}},{"attributes":{"ID":286051,"DIS_CODE":0,"TOWNNAME":"安南區","LI":"長安里","LIN":"12鄰","STREET":"長溪路","SECT":"三段","MAREA":" ","LANE":"３８０巷","ALLEY":" ","HOUSE_NO":"４７號","E_COORD97":167780.82999999999,"N_COORD97":2552100.1000000001,"ADDRESS":"長溪路三段３８０巷４７號","OBJECTID":286045},"geometry":{"x":167780.83000000101,"y":2552100.1000000015}},{"attributes":{"ID":286052,"DIS_CODE":0,"TOWNNAME":"安南區","LI":"長安里","LIN":"12鄰","STREET":"長溪路","SECT":"三段","MAREA":" ","LANE":"３８０巷","ALLEY":" ","HOUSE_NO":"４９號","E_COORD97":167793.85999999999,"N_COORD97":2552109.25,"ADDRESS":"長溪路三段３８０巷４９號","OBJECTID":286046},"geometry":{"x":167793.86000000034,"y":2552109.2500000019}},{"attributes":{"ID":286053,"DIS_CODE":0,"TOWNNAME":"安南區","LI":"長安里","LIN":"12鄰","STREET":"長溪路","SECT":"三段","MAREA":" ","LANE":"３８０巷","ALLEY":" ","HOUSE_NO":"７號","E_COORD97":167713.17000000001,"N_COORD97":2552061.6000000001,"ADDRESS":"長溪路三段３８０巷７號","OBJECTID":286047},"geometry":{"x":167713.16999999993,"y":2552061.5999999978}},{"attributes":{"ID":286054,"DIS_CODE":0,"TOWNNAME":"安南區","LI":"總頭里","LIN":"12鄰","STREET":"長溪路","SECT":"二段","MAREA":" ","LANE":"４８３巷","ALLEY":" ","HOUSE_NO":"１０號","E_COORD97":168101.35999999999,"N_COORD97":2550586.0899999999,"ADDRESS":"長溪路二段４８３巷１０號","OBJECTID":286048},"geometry":{"x":168101.36000000127,"y":2550586.0899999999}},{"attributes":{"ID":286055,"DIS_CODE":0,"TOWNNAME":"安南區","LI":"總頭里","LIN":"12鄰","STREET":"長溪路","SECT":"二段","MAREA":" ","LANE":"４８３巷","ALLEY":" ","HOUSE_NO":"１２號","E_COORD97":168087.79999999999,"N_COORD97":2550592.8599999999,"ADDRESS":"長溪路二段４８３巷１２號","OBJECTID":286049},"geometry":{"x":168087.80000000075,"y":2550592.8600000013}},{"attributes":{"ID":286056,"DIS_CODE":0,"TOWNNAME":"安南區","LI":"總頭里","LIN":"12鄰","STREET":"長溪路","SECT":"二段","MAREA":" ","LANE":"４８３巷","ALLEY":" ","HOUSE_NO":"１４號","E_COORD97":168207.60999999999,"N_COORD97":2550413.2000000002,"ADDRESS":"長溪路二段４８３巷１４號","OBJECTID":286050},"geometry":{"x":168207.61000000034,"y":2550413.200000003}},{"attributes":{"ID":286057,"DIS_CODE":0,"TOWNNAME":"安南區","LI":"總頭里","LIN":"12鄰","STREET":"長溪路","SECT":"二段","MAREA":" ","LANE":"４８３巷","ALLEY":" ","HOUSE_NO":"２號","E_COORD97":168220.72,"N_COORD97":2550423.1299999999,"ADDRESS":"長溪路二段４８３巷２號","OBJECTID":286051},"geometry":{"x":168220.72000000067,"y":2550423.1299999971}},{"attributes":{"ID":286058,"DIS_CODE":0,"TOWNNAME":"安南區","LI":"總頭里","LIN":"12鄰","STREET":"長溪路","SECT":"二段","MAREA":" ","LANE":"４８３巷","ALLEY":" ","HOUSE_NO":"４號","E_COORD97":168216.64999999999,"N_COORD97":2550421.3199999998,"ADDRESS":"長溪路二段４８３巷４號","OBJECTID":286052},"geometry":{"x":168216.6500000013,"y":2550421.3200000022}},{"attributes":{"ID":286059,"DIS_CODE":0,"TOWNNAME":"安南區","LI":"安慶里","LIN":"12鄰","STREET":"長溪路","SECT":"一段","MAREA":" ","LANE":"６１巷","ALLEY":" ","HOUSE_NO":"５號","E_COORD97":169165.97,"N_COORD97":2548304.0899999999,"ADDRESS":"長溪路一段６１巷５號","OBJECTID":286053},"geometry":{"x":169165.9700000016,"y":2548304.0899999999}},{"attributes":{"ID":286060,"DIS_CODE":0,"TOWNNAME":"安南區","LI":"安順里","LIN":"12鄰","STREET":"安和路","SECT":"三段","MAREA":" ","LANE":"１９０巷","ALLEY":" ","HOUSE_NO":"２０號","E_COORD97":170008.73999999999,"N_COORD97":2549779.8100000001,"ADDRESS":"安和路三段１９０巷２０號","OBJECTID":286054},"geometry":{"x":170008.73999999929,"y":2549779.8100000042}},{"attributes":{"ID":286061,"DIS_CODE":0,"TOWNNAME":"中西區","LI":"赤嵌里","LIN":"2鄰","STREET":"成功路","SECT":" ","MAREA":" ","LANE":" ","ALLEY":" ","HOUSE_NO":"３號","E_COORD97":169051.75,"N_COORD97":2544194.3999999999,"ADDRESS":"成功路３號","OBJECTID":286055},"geometry":{"x":169051.75,"y":2544194.4000000004}},{"attributes":{"ID":286062,"DIS_CODE":0,"TOWNNAME":"中西區","LI":"赤嵌里","LIN":"2鄰","STREET":"西華南街","SECT":" ","MAREA":" ","LANE":" ","ALLEY":" ","HOUSE_NO":"１２２號","E_COORD97":169027.14000000001,"N_COORD97":2544156.6299999999,"ADDRESS":"西華南街１２２號","OBJECTID":286056},"geometry":{"x":169027.13999999966,"y":2544156.629999999}},{"attributes":{"ID":286063,"DIS_CODE":0,"TOWNNAME":"中西區","LI":"進學里","LIN":"2鄰","STREET":"忠義路","SECT":"一段","MAREA":" ","LANE":" ","ALLEY":" ","HOUSE_NO":"３３號","E_COORD97":168150.88,"N_COORD97":2542921.9900000002,"ADDRESS":"忠義路一段３３號","OBJECTID":286057},"geometry":{"x":168150.87999999989,"y":2542921.9900000002}},{"attributes":{"ID":286064,"DIS_CODE":0,"TOWNNAME":"安南區","LI":"淵西里","LIN":"12鄰","STREET":"安中路","SECT":"四段","MAREA":" ","LANE":"２１０巷","ALLEY":" ","HOUSE_NO":"３１號之１","E_COORD97":164823.03,"N_COORD97":2550147.6499999999,"ADDRESS":"安中路四段２１０巷３１號之１","OBJECTID":286058},"geometry":{"x":164823.03000000212,"y":2550147.6500000022}},{"attributes":{"ID":286065,"DIS_CODE":0,"TOWNNAME":"安南區","LI":"淵西里","LIN":"12鄰","STREET":"安中路","SECT":"四段","MAREA":" ","LANE":"２１０巷","ALLEY":" ","HOUSE_NO":"３７號","E_COORD97":164837.35000000001,"N_COORD97":2550161.25,"ADDRESS":"安中路四段２１０巷３７號","OBJECTID":286059},"geometry":{"x":164837.35000000056,"y":2550161.25}},{"attributes":{"ID":286066,"DIS_CODE":0,"TOWNNAME":"安南區","LI":"淵西里","LIN":"12鄰","STREET":"安中路","SECT":"四段","MAREA":" ","LANE":"２１０巷","ALLEY":" ","HOUSE_NO":"３９號","E_COORD97":164839.60000000001,"N_COORD97":2550164.6200000001,"ADDRESS":"安中路四段２１０巷３９號","OBJECTID":286060},"geometry":{"x":164839.60000000056,"y":2550164.6200000048}},{"attributes":{"ID":286067,"DIS_CODE":0,"TOWNNAME":"安南區","LI":"淵西里","LIN":"12鄰","STREET":"安中路","SECT":"四段","MAREA":" ","LANE":"２１０巷","ALLEY":" ","HOUSE_NO":"４１號","E_COORD97":164842.60999999999,"N_COORD97":2550167.2400000002,"ADDRESS":"安中路四段２１０巷４１號","OBJECTID":286061},"geometry":{"x":164842.61000000034,"y":2550167.2400000021}},{"attributes":{"ID":286068,"DIS_CODE":0,"TOWNNAME":"安南區","LI":"淵西里","LIN":"12鄰","STREET":"安中路","SECT":"四段","MAREA":" ","LANE":"２１０巷","ALLEY":" ","HOUSE_NO":"４３號","E_COORD97":164845.60999999999,"N_COORD97":2550170.6200000001,"ADDRESS":"安中路四段２１０巷４３號","OBJECTID":286062},"geometry":{"x":164845.61000000034,"y":2550170.620000001}},{"attributes":{"ID":286069,"DIS_CODE":0,"TOWNNAME":"安南區","LI":"城東里","LIN":"12鄰","STREET":"城北路","SECT":" ","MAREA":" ","LANE":"１３８巷","ALLEY":" ","HOUSE_NO":"３３號","E_COORD97":161089.95999999999,"N_COORD97":2551692.8100000001,"ADDRESS":"城北路１３８巷３３號","OBJECTID":286063},"geometry":{"x":161089.95999999996,"y":2551692.8100000024}},{"attributes":{"ID":286070,"DIS_CODE":0,"TOWNNAME":"安南區","LI":"南興里","LIN":"12鄰","STREET":"公學路","SECT":"五段","MAREA":" ","LANE":"５２７巷","ALLEY":" ","HOUSE_NO":"２３號之１","E_COORD97":164039.63,"N_COORD97":2552524.0800000001,"ADDRESS":"公學路五段５２７巷２３號之１","OBJECTID":286064},"geometry":{"x":164039.62999999989,"y":2552524.0800000019}},{"attributes":{"ID":286071,"DIS_CODE":0,"TOWNNAME":"安南區","LI":"長安里","LIN":"12鄰","STREET":"長溪路","SECT":"三段","MAREA":" ","LANE":"４１８巷","ALLEY":" ","HOUSE_NO":"３２號","E_COORD97":167754.88,"N_COORD97":2552136.4199999999,"ADDRESS":"長溪路三段４１８巷３２號","OBJECTID":286065},"geometry":{"x":167754.88000000082,"y":2552136.4199999999}},{"attributes":{"ID":286072,"DIS_CODE":0,"TOWNNAME":"安南區","LI":"長安里","LIN":"12鄰","STREET":"長溪路","SECT":"三段","MAREA":" ","LANE":"４１８巷","ALLEY":" ","HOUSE_NO":"３４號","E_COORD97":167757.73000000001,"N_COORD97":2552139.5299999998,"ADDRESS":"長溪路三段４１８巷３４號","OBJECTID":286066},"geometry":{"x":167757.73000000045,"y":2552139.5299999993}},{"attributes":{"ID":286073,"DIS_CODE":0,"TOWNNAME":"下營區","LI":"仁里里","LIN":"12鄰","STREET":"永安街","SECT":" ","MAREA":" ","LANE":"３５巷","ALLEY":" ","HOUSE_NO":"６號","E_COORD97":174050.37,"N_COORD97":2570444.3300000001,"ADDRESS":"永安街３５巷６號","OBJECTID":286067},"geometry":{"x":174050.37000000011,"y":2570444.3300000019}},{"attributes":{"ID":286074,"DIS_CODE":0,"TOWNNAME":"下營區","LI":"仁里里","LIN":"12鄰","STREET":"永安街","SECT":" ","MAREA":" ","LANE":"３５巷","ALLEY":" ","HOUSE_NO":"８號","E_COORD97":174059.35999999999,"N_COORD97":2570434.4199999999,"ADDRESS":"永安街３５巷８號","OBJECTID":286068},"geometry":{"x":174059.36000000034,"y":2570434.4199999999}},{"attributes":{"ID":286075,"DIS_CODE":0,"TOWNNAME":"下營區","LI":"仁里里","LIN":"12鄰","STREET":"永安街","SECT":" ","MAREA":" ","LANE":"６７巷","ALLEY":" ","HOUSE_NO":"１３號","E_COORD97":174027.20000000001,"N_COORD97":2570525.3799999999,"ADDRESS":"永安街６７巷１３號","OBJECTID":286069},"geometry":{"x":174027.20000000112,"y":2570525.379999999}},{"attributes":{"ID":286076,"DIS_CODE":0,"TOWNNAME":"下營區","LI":"仁里里","LIN":"12鄰","STREET":"永安街","SECT":" ","MAREA":" ","LANE":"６７巷","ALLEY":" ","HOUSE_NO":"１５號","E_COORD97":174018.01000000001,"N_COORD97":2570520.5800000001,"ADDRESS":"永安街６７巷１５號","OBJECTID":286070},"geometry":{"x":174018.01000000071,"y":2570520.5800000019}},{"attributes":{"ID":286077,"DIS_CODE":0,"TOWNNAME":"下營區","LI":"仁里里","LIN":"12鄰","STREET":"永安街","SECT":" ","MAREA":" ","LANE":"６７巷","ALLEY":" ","HOUSE_NO":"１７號","E_COORD97":174013.73000000001,"N_COORD97":2570521.3100000001,"ADDRESS":"永安街６７巷１７號","OBJECTID":286071},"geometry":{"x":174013.73000000138,"y":2570521.3100000005}},{"attributes":{"ID":286078,"DIS_CODE":0,"TOWNNAME":"下營區","LI":"仁里里","LIN":"12鄰","STREET":"永安街","SECT":" ","MAREA":" ","LANE":"６７巷","ALLEY":" ","HOUSE_NO":"１號","E_COORD97":174054.60999999999,"N_COORD97":2570524.2799999998,"ADDRESS":"永安街６７巷１號","OBJECTID":286072},"geometry":{"x":174054.6100000022,"y":2570524.2800000031}},{"attributes":{"ID":286079,"DIS_CODE":0,"TOWNNAME":"下營區","LI":"仁里里","LIN":"12鄰","STREET":"永安街","SECT":" ","MAREA":" ","LANE":"６７巷","ALLEY":" ","HOUSE_NO":"２１號","E_COORD97":173996.67999999999,"N_COORD97":2570512.3900000001,"ADDRESS":"永安街６７巷２１號","OBJECTID":286073},"geometry":{"x":173996.6799999997,"y":2570512.3900000025}},{"attributes":{"ID":286080,"DIS_CODE":0,"TOWNNAME":"下營區","LI":"仁里里","LIN":"12鄰","STREET":"永安街","SECT":" ","MAREA":" ","LANE":"６７巷","ALLEY":" ","HOUSE_NO":"２７號","E_COORD97":173987.60999999999,"N_COORD97":2570521.3900000001,"ADDRESS":"永安街６７巷２７號","OBJECTID":286074},"geometry":{"x":173987.61000000034,"y":2570521.3900000043}},{"attributes":{"ID":286081,"DIS_CODE":0,"TOWNNAME":"下營區","LI":"仁里里","LIN":"12鄰","STREET":"永安街","SECT":" ","MAREA":" ","LANE":"６７巷","ALLEY":" ","HOUSE_NO":"４７號","E_COORD97":173904.20000000001,"N_COORD97":2570533.8500000001,"ADDRESS":"永安街６７巷４７號","OBJECTID":286075},"geometry":{"x":173904.20000000019,"y":2570533.8499999996}},{"attributes":{"ID":286082,"DIS_CODE":0,"TOWNNAME":"永康區","LI":"復華里","LIN":"12鄰","STREET":"國華街","SECT":" ","MAREA":" ","LANE":"９８巷","ALLEY":" ","HOUSE_NO":"２５號","E_COORD97":172895.95000000001,"N_COORD97":2545972.7400000002,"ADDRESS":"國華街９８巷２５號","OBJECTID":286076},"geometry":{"x":172895.95000000205,"y":2545972.7400000021}},{"attributes":{"ID":286083,"DIS_CODE":0,"TOWNNAME":"永康區","LI":"復國里","LIN":"12鄰","STREET":"復國二路","SECT":" ","MAREA":" ","LANE":"１０８巷","ALLEY":" ","HOUSE_NO":"１０號","E_COORD97":172896.98000000001,"N_COORD97":2545373.0299999998,"ADDRESS":"復國二路１０８巷１０號","OBJECTID":286077},"geometry":{"x":172896.98000000045,"y":2545373.0300000012}},{"attributes":{"ID":286084,"DIS_CODE":0,"TOWNNAME":"永康區","LI":"埔園里","LIN":"12鄰","STREET":"中山路","SECT":" ","MAREA":" ","LANE":"１７１巷","ALLEY":" ","HOUSE_NO":"２２號之１","E_COORD97":173611.78,"N_COORD97":2547973.5499999998,"ADDRESS":"中山路１７１巷２２號之１","OBJECTID":286078},"geometry":{"x":173611.78000000026,"y":2547973.5500000007}},{"attributes":{"ID":286085,"DIS_CODE":0,"TOWNNAME":"東區","LI":"中西里","LIN":"2鄰","STREET":"東門路","SECT":"一段","MAREA":" ","LANE":" ","ALLEY":" ","HOUSE_NO":"２７１號","E_COORD97":169840.92999999999,"N_COORD97":2543054.6000000001,"ADDRESS":"東門路一段２７１號","OBJECTID":286079},"geometry":{"x":169840.93000000156,"y":2543054.6000000015}},{"attributes":{"ID":286086,"DIS_CODE":0,"TOWNNAME":"東區","LI":"東安里","LIN":"2鄰","STREET":"東門路","SECT":"二段","MAREA":" ","LANE":" ","ALLEY":" ","HOUSE_NO":"７１號","E_COORD97":170123.75,"N_COORD97":2542958.6699999999,"ADDRESS":"東門路二段７１號","OBJECTID":286080},"geometry":{"x":170123.75000000186,"y":2542958.6700000037}},{"attributes":{"ID":286087,"DIS_CODE":0,"TOWNNAME":"東區","LI":"和平里","LIN":"2鄰","STREET":"東門路","SECT":"三段","MAREA":" ","LANE":" ","ALLEY":" ","HOUSE_NO":"１３２號","E_COORD97":171313.95000000001,"N_COORD97":2542115.6600000001,"ADDRESS":"東門路三段１３２號","OBJECTID":286081},"geometry":{"x":171313.95000000019,"y":2542115.660000002}},{"attributes":{"ID":286088,"DIS_CODE":0,"TOWNNAME":"永康區","LI":"復國里","LIN":"12鄰","STREET":"復國二路","SECT":" ","MAREA":" ","LANE":"１０８巷","ALLEY":" ","HOUSE_NO":"５號","E_COORD97":172880.92999999999,"N_COORD97":2545384.2799999998,"ADDRESS":"復國二路１０８巷５號","OBJECTID":286082},"geometry":{"x":172880.93000000063,"y":2545384.2799999993}},{"attributes":{"ID":286089,"DIS_CODE":0,"TOWNNAME":"永康區","LI":"復華里","LIN":"12鄰","STREET":"國華街","SECT":" ","MAREA":" ","LANE":"１００巷","ALLEY":" ","HOUSE_NO":"２４號","E_COORD97":172906.72,"N_COORD97":2546033,"ADDRESS":"國華街１００巷２４號","OBJECTID":286083},"geometry":{"x":172906.71999999974,"y":2546033.0000000019}},{"attributes":{"ID":286090,"DIS_CODE":0,"TOWNNAME":"永康區","LI":"埔園里","LIN":"12鄰","STREET":"中山路","SECT":" ","MAREA":" ","LANE":"１８５巷","ALLEY":" ","HOUSE_NO":"７號","E_COORD97":173666.79999999999,"N_COORD97":2548034.9100000001,"ADDRESS":"中山路１８５巷７號","OBJECTID":286084},"geometry":{"x":173666.80000000075,"y":2548034.9100000001}},{"attributes":{"ID":286091,"DIS_CODE":0,"TOWNNAME":"佳里區","LI":"六安里","LIN":"12鄰","STREET":"延平路","SECT":" ","MAREA":" ","LANE":"６３０巷","ALLEY":" ","HOUSE_NO":"８號","E_COORD97":166022.16,"N_COORD97":2563260.5899999999,"ADDRESS":"延平路６３０巷８號","OBJECTID":286085},"geometry":{"x":166022.16000000201,"y":2563260.5900000036}},{"attributes":{"ID":286092,"DIS_CODE":0,"TOWNNAME":"佳里區","LI":"鎮山里","LIN":"12鄰","STREET":"延平路","SECT":" ","MAREA":" ","LANE":"２７巷","ALLEY":" ","HOUSE_NO":"１號","E_COORD97":165939.59,"N_COORD97":2561606.9500000002,"ADDRESS":"延平路２７巷１號","OBJECTID":286086},"geometry":{"x":165939.59000000078,"y":2561606.9500000011}},{"attributes":{"ID":286093,"DIS_CODE":0,"TOWNNAME":"佳里區","LI":"忠仁里","LIN":"12鄰","STREET":"信義一街","SECT":" ","MAREA":" ","LANE":"３４１巷","ALLEY":" ","HOUSE_NO":"１０號","E_COORD97":166181.62,"N_COORD97":2562372.4199999999,"ADDRESS":"信義一街３４１巷１０號","OBJECTID":286087},"geometry":{"x":166181.62000000011,"y":2562372.4199999999}},{"attributes":{"ID":286094,"DIS_CODE":0,"TOWNNAME":"安南區","LI":"安順里","LIN":"12鄰","STREET":"安和路","SECT":"四段","MAREA":" ","LANE":"３６巷","ALLEY":" ","HOUSE_NO":"１０５號","E_COORD97":170294.92999999999,"N_COORD97":2550185.5899999999,"ADDRESS":"安和路四段３６巷１０５號","OBJECTID":286088},"geometry":{"x":170294.9299999997,"y":2550185.5899999999}},{"attributes":{"ID":286095,"DIS_CODE":0,"TOWNNAME":"安南區","LI":"安順里","LIN":"12鄰","STREET":"安和路","SECT":"四段","MAREA":" ","LANE":"３６巷","ALLEY":" ","HOUSE_NO":"１０９號","E_COORD97":170315.26999999999,"N_COORD97":2550186.2599999998,"ADDRESS":"安和路四段３６巷１０９號","OBJECTID":286089},"geometry":{"x":170315.27000000048,"y":2550186.2600000016}},{"attributes":{"ID":286096,"DIS_CODE":0,"TOWNNAME":"安南區","LI":"安順里","LIN":"12鄰","STREET":"安和路","SECT":"四段","MAREA":" ","LANE":"３６巷","ALLEY":" ","HOUSE_NO":"１３號","E_COORD97":170009.75,"N_COORD97":2550181.8799999999,"ADDRESS":"安和路四段３６巷１３號","OBJECTID":286090},"geometry":{"x":170009.75,"y":2550181.8800000008}},{"attributes":{"ID":286097,"DIS_CODE":0,"TOWNNAME":"安南區","LI":"安順里","LIN":"12鄰","STREET":"安和路","SECT":"四段","MAREA":" ","LANE":"３６巷","ALLEY":" ","HOUSE_NO":"１６８號","E_COORD97":170450.53,"N_COORD97":2550136.7999999998,"ADDRESS":"安和路四段３６巷１６８號","OBJECTID":286091},"geometry":{"x":170450.53000000026,"y":2550136.8000000026}},{"attributes":{"ID":286098,"DIS_CODE":0,"TOWNNAME":"安南區","LI":"安順里","LIN":"12鄰","STREET":"安和路","SECT":"四段","MAREA":" ","LANE":"３６巷","ALLEY":" ","HOUSE_NO":"１７０號","E_COORD97":170468.87,"N_COORD97":2550138.1299999999,"ADDRESS":"安和路四段３６巷１７０號","OBJECTID":286092},"geometry":{"x":170468.87000000197,"y":2550138.129999999}},{"attributes":{"ID":286099,"DIS_CODE":0,"TOWNNAME":"安南區","LI":"安順里","LIN":"12鄰","STREET":"安和路","SECT":"四段","MAREA":" ","LANE":"３６巷","ALLEY":" ","HOUSE_NO":"１７３號","E_COORD97":170418.98000000001,"N_COORD97":2550240.4700000002,"ADDRESS":"安和路四段３６巷１７３號","OBJECTID":286093},"geometry":{"x":170418.98000000045,"y":2550240.4700000025}},{"attributes":{"ID":286100,"DIS_CODE":0,"TOWNNAME":"永康區","LI":"建國里","LIN":"28鄰","STREET":" ","SECT":" ","MAREA":"慈光九村","LANE":" ","ALLEY":" ","HOUSE_NO":"４４號","E_COORD97":172867.48999999999,"N_COORD97":2544227.3900000001,"ADDRESS":"慈光九村４４號","OBJECTID":286094},"geometry":{"x":172867.49000000115,"y":2544227.3900000006}},{"attributes":{"ID":286101,"DIS_CODE":0,"TOWNNAME":"大內區","LI":"大內里","LIN":"2鄰","STREET":" ","SECT":" ","MAREA":"內庄","LANE":" ","ALLEY":" ","HOUSE_NO":"１４號","E_COORD97":184512.13,"N_COORD97":2557488.25,"ADDRESS":"內庄１４號","OBJECTID":286095},"geometry":{"x":184512.13000000082,"y":2557488.25}},{"attributes":{"ID":286102,"DIS_CODE":0,"TOWNNAME":"安南區","LI":"安順里","LIN":"12鄰","STREET":"安和路","SECT":"四段","MAREA":" ","LANE":"３６巷","ALLEY":" ","HOUSE_NO":"４９號","E_COORD97":170107.85999999999,"N_COORD97":2550190.2400000002,"ADDRESS":"安和路四段３６巷４９號","OBJECTID":286096},"geometry":{"x":170107.86000000034,"y":2550190.2400000021}},{"attributes":{"ID":286103,"DIS_CODE":0,"TOWNNAME":"安南區","LI":"安順里","LIN":"12鄰","STREET":"安和路","SECT":"四段","MAREA":" ","LANE":"３６巷","ALLEY":" ","HOUSE_NO":"５９號","E_COORD97":170153.91,"N_COORD97":2550190.6200000001,"ADDRESS":"安和路四段３６巷５９號","OBJECTID":286097},"geometry":{"x":170153.91000000108,"y":2550190.620000001}},{"attributes":{"ID":286104,"DIS_CODE":0,"TOWNNAME":"安南區","LI":"安順里","LIN":"12鄰","STREET":"安和路","SECT":"四段","MAREA":" ","LANE":"３６巷","ALLEY":" ","HOUSE_NO":"７０號","E_COORD97":170157.76999999999,"N_COORD97":2550118.9700000002,"ADDRESS":"安和路四段３６巷７０號","OBJECTID":286098},"geometry":{"x":170157.77000000048,"y":2550118.9700000025}},{"attributes":{"ID":286105,"DIS_CODE":0,"TOWNNAME":"安南區","LI":"海西里","LIN":"12鄰","STREET":"海環街","SECT":" ","MAREA":" ","LANE":"２０５巷","ALLEY":" ","HOUSE_NO":"３０號","E_COORD97":166317.48999999999,"N_COORD97":2548571.7599999998,"ADDRESS":"海環街２０５巷３０號","OBJECTID":286099},"geometry":{"x":166317.49000000115,"y":2548571.7599999998}},{"attributes":{"ID":286106,"DIS_CODE":0,"TOWNNAME":"安南區","LI":"海西里","LIN":"12鄰","STREET":"海環街","SECT":" ","MAREA":" ","LANE":"２０５巷","ALLEY":" ","HOUSE_NO":"３２號","E_COORD97":166317.48999999999,"N_COORD97":2548564.71,"ADDRESS":"海環街２０５巷３２號","OBJECTID":286100},"geometry":{"x":166317.49000000115,"y":2548564.7100000028}},{"attributes":{"ID":286107,"DIS_CODE":0,"TOWNNAME":"安南區","LI":"海西里","LIN":"12鄰","STREET":"海環街","SECT":" ","MAREA":" ","LANE":"２０５巷","ALLEY":" ","HOUSE_NO":"３３號","E_COORD97":166333.23000000001,"N_COORD97":2548559.7599999998,"ADDRESS":"海環街２０５巷３３號","OBJECTID":286101},"geometry":{"x":166333.23000000045,"y":2548559.7600000016}},{"attributes":{"ID":286108,"DIS_CODE":0,"TOWNNAME":"中西區","LI":"法華里","LIN":"2鄰","STREET":"府連路","SECT":" ","MAREA":" ","LANE":" ","ALLEY":" ","HOUSE_NO":"１１２號","E_COORD97":169073.32000000001,"N_COORD97":2542700.1899999999,"ADDRESS":"府連路１１２號","OBJECTID":286102},"geometry":{"x":169073.32000000123,"y":2542700.1900000032}},{"attributes":{"ID":286109,"DIS_CODE":0,"TOWNNAME":"安南區","LI":"海西里","LIN":"12鄰","STREET":"海環街","SECT":" ","MAREA":" ","LANE":"２０５巷","ALLEY":" ","HOUSE_NO":"３４號","E_COORD97":166316.67999999999,"N_COORD97":2548561.0899999999,"ADDRESS":"海環街２０５巷３４號","OBJECTID":286103},"geometry":{"x":166316.68000000156,"y":2548561.0900000017}},{"attributes":{"ID":286110,"DIS_CODE":0,"TOWNNAME":"安南區","LI":"海西里","LIN":"12鄰","STREET":"海環街","SECT":" ","MAREA":" ","LANE":"２０５巷","ALLEY":" ","HOUSE_NO":"３５號","E_COORD97":166332.62,"N_COORD97":2548555.9300000002,"ADDRESS":"海環街２０５巷３５號","OBJECTID":286104},"geometry":{"x":166332.62000000197,"y":2548555.9299999997}},{"attributes":{"ID":286111,"DIS_CODE":0,"TOWNNAME":"安南區","LI":"海西里","LIN":"12鄰","STREET":"海環街","SECT":" ","MAREA":" ","LANE":"２２９巷","ALLEY":" ","HOUSE_NO":"１０號","E_COORD97":166229.22,"N_COORD97":2548610.52,"ADDRESS":"海環街２２９巷１０號","OBJECTID":286105},"geometry":{"x":166229.21999999974,"y":2548610.5199999996}},{"attributes":{"ID":286112,"DIS_CODE":0,"TOWNNAME":"安南區","LI":"海西里","LIN":"12鄰","STREET":"海環街","SECT":" ","MAREA":" ","LANE":"２８１巷","ALLEY":" ","HOUSE_NO":"９６號之１０","E_COORD97":165841.64999999999,"N_COORD97":2548721.96,"ADDRESS":"海環街２８１巷９６號之１０","OBJECTID":286106},"geometry":{"x":165841.6500000013,"y":2548721.9600000028}},{"attributes":{"ID":286113,"DIS_CODE":0,"TOWNNAME":"安南區","LI":"海西里","LIN":"12鄰","STREET":"海環街","SECT":" ","MAREA":" ","LANE":"２８１巷","ALLEY":" ","HOUSE_NO":"９６號之５０","E_COORD97":165861.89000000001,"N_COORD97":2548811.7200000002,"ADDRESS":"海環街２８１巷９６號之５０","OBJECTID":286107},"geometry":{"x":165861.88999999966,"y":2548811.7200000025}},{"attributes":{"ID":286114,"DIS_CODE":0,"TOWNNAME":"仁德區","LI":"二行里","LIN":"1鄰","STREET":"二仁路","SECT":"一段","MAREA":" ","LANE":"３１５巷","ALLEY":" ","HOUSE_NO":"２１號","E_COORD97":170257.64999999999,"N_COORD97":2536053.0299999998,"ADDRESS":"二仁路一段３１５巷２１號","OBJECTID":286108},"geometry":{"x":170257.6500000013,"y":2536053.0300000012}},{"attributes":{"ID":286115,"DIS_CODE":0,"TOWNNAME":"新市區","LI":"新和里","LIN":"12鄰","STREET":"可口街","SECT":" ","MAREA":" ","LANE":"２２巷","ALLEY":" ","HOUSE_NO":"３號","E_COORD97":177615.28,"N_COORD97":2552403,"ADDRESS":"可口街２２巷３號","OBJECTID":286109},"geometry":{"x":177615.28000000119,"y":2552403.0000000019}},{"attributes":{"ID":286116,"DIS_CODE":0,"TOWNNAME":"永康區","LI":"\u25A0洲里","LIN":"12鄰","STREET":"\u25A0洲一街","SECT":" ","MAREA":" ","LANE":"１１巷","ALLEY":" ","HOUSE_NO":"３３號","E_COORD97":171562.01999999999,"N_COORD97":2549119,"ADDRESS":"\u25A0洲一街１１巷３３號","OBJECTID":286110},"geometry":{"x":171562.01999999955,"y":2549119}},{"attributes":{"ID":286117,"DIS_CODE":0,"TOWNNAME":"仁德區","LI":"仁德里","LIN":"4鄰","STREET":"中正路","SECT":"二段","MAREA":" ","LANE":"８６７巷","ALLEY":" ","HOUSE_NO":"２２號","E_COORD97":173375.38,"N_COORD97":2540593.02,"ADDRESS":"中正路二段８６７巷２２號","OBJECTID":286111},"geometry":{"x":173375.37999999989,"y":2540593.0200000014}},{"attributes":{"ID":286118,"DIS_CODE":0,"TOWNNAME":"安南區","LI":"城西里","LIN":"2鄰","STREET":"城西街","SECT":"三段","MAREA":" ","LANE":" ","ALLEY":" ","HOUSE_NO":"４９４號","E_COORD97":157177.98999999999,"N_COORD97":2550875.5800000001,"ADDRESS":"城西街三段４９４號","OBJECTID":286112},"geometry":{"x":157177.99000000209,"y":2550875.5799999982}},{"attributes":{"ID":286119,"DIS_CODE":0,"TOWNNAME":"安南區","LI":"城西里","LIN":"2鄰","STREET":"城西街","SECT":"三段","MAREA":" ","LANE":" ","ALLEY":" ","HOUSE_NO":"４５０號","E_COORD97":157275.29999999999,"N_COORD97":2550902.6299999999,"ADDRESS":"城西街三段４５０號","OBJECTID":286113},"geometry":{"x":157275.29999999888,"y":2550902.6300000008}},{"attributes":{"ID":286120,"DIS_CODE":0,"TOWNNAME":"安南區","LI":"城東里","LIN":"2鄰","STREET":"城北路","SECT":" ","MAREA":" ","LANE":" ","ALLEY":" ","HOUSE_NO":"２１８號","E_COORD97":161004.72,"N_COORD97":2551844.25,"ADDRESS":"城北路２１８號","OBJECTID":286114},"geometry":{"x":161004.71999999974,"y":2551844.2500000037}},{"attributes":{"ID":286121,"DIS_CODE":0,"TOWNNAME":"安南區","LI":"城東里","LIN":"2鄰","STREET":"城北路","SECT":" ","MAREA":" ","LANE":" ","ALLEY":" ","HOUSE_NO":"２２４號","E_COORD97":161005.41,"N_COORD97":2551864.5299999998,"ADDRESS":"城北路２２４號","OBJECTID":286115},"geometry":{"x":161005.41000000015,"y":2551864.5299999993}},{"attributes":{"ID":286122,"DIS_CODE":0,"TOWNNAME":"新化區","LI":"武安里","LIN":"13鄰","STREET":"健康路","SECT":" ","MAREA":" ","LANE":" ","ALLEY":" ","HOUSE_NO":"３３號","E_COORD97":178881.17999999999,"N_COORD97":2548058.2599999998,"ADDRESS":"健康路３３號","OBJECTID":286116},"geometry":{"x":178881.17999999877,"y":2548058.2600000016}},{"attributes":{"ID":286123,"DIS_CODE":0,"TOWNNAME":"安南區","LI":"原佃里","LIN":"2鄰","STREET":"本原街","SECT":"一段","MAREA":" ","LANE":" ","ALLEY":" ","HOUSE_NO":"１６３號之３","E_COORD97":167851.57000000001,"N_COORD97":2550089.4900000002,"ADDRESS":"本原街一段１６３號之３","OBJECTID":286117},"geometry":{"x":167851.5700000003,"y":2550089.4900000002}},{"attributes":{"ID":286124,"DIS_CODE":0,"TOWNNAME":"安南區","LI":"溪心里","LIN":"2鄰","STREET":"海環街","SECT":" ","MAREA":" ","LANE":" ","ALLEY":" ","HOUSE_NO":"５９４號之６","E_COORD97":166384.28,"N_COORD97":2549294.4100000001,"ADDRESS":"海環街５９４號之６","OBJECTID":286118},"geometry":{"x":166384.28000000212,"y":2549294.410000002}},{"attributes":{"ID":286125,"DIS_CODE":0,"TOWNNAME":"新化區","LI":"武安里","LIN":"4鄰","STREET":"和平街","SECT":" ","MAREA":" ","LANE":" ","ALLEY":" ","HOUSE_NO":"８２號","E_COORD97":179018.09812499999,"N_COORD97":2548155.5641999999,"ADDRESS":"和平街８２號","OBJECTID":286119},"geometry":{"x":179018.09812500048,"y":2548155.5641959999}},{"attributes":{"ID":286126,"DIS_CODE":0,"TOWNNAME":"永康區","LI":"甲頂里","LIN":"12鄰","STREET":"中正南路","SECT":" ","MAREA":" ","LANE":"５２巷","ALLEY":" ","HOUSE_NO":"９６號","E_COORD97":170130.20999999999,"N_COORD97":2546796.0699999998,"ADDRESS":"中正南路５２巷９６號","OBJECTID":286120},"geometry":{"x":170130.20999999996,"y":2546796.0700000003}},{"attributes":{"ID":286127,"DIS_CODE":0,"TOWNNAME":"新化區","LI":"武安里","LIN":"4鄰","STREET":"和平街","SECT":" ","MAREA":" ","LANE":" ","ALLEY":" ","HOUSE_NO":"５２號","E_COORD97":179105.47,"N_COORD97":2548161.25,"ADDRESS":"和平街５２號","OBJECTID":286121},"geometry":{"x":179105.47000000067,"y":2548161.25}},{"attributes":{"ID":286128,"DIS_CODE":0,"TOWNNAME":"新化區","LI":"東榮里","LIN":"25鄰","STREET":"光明路","SECT":" ","MAREA":" ","LANE":" ","ALLEY":" ","HOUSE_NO":"７３號","E_COORD97":179239.07000000001,"N_COORD97":2548040.25,"ADDRESS":"光明路７３號","OBJECTID":286122},"geometry":{"x":179239.07000000123,"y":2548040.2500000037}},{"attributes":{"ID":286129,"DIS_CODE":0,"TOWNNAME":"新化區","LI":"東榮里","LIN":"25鄰","STREET":"光明路","SECT":" ","MAREA":" ","LANE":" ","ALLEY":" ","HOUSE_NO":"７９號","E_COORD97":179220.76999999999,"N_COORD97":2548042.25,"ADDRESS":"光明路７９號","OBJECTID":286123},"geometry":{"x":179220.76999999955,"y":2548042.25}},{"attributes":{"ID":286130,"DIS_CODE":0,"TOWNNAME":"安南區","LI":"安東里","LIN":"12鄰","STREET":"安和路","SECT":"一段","MAREA":" ","LANE":"２２０巷","ALLEY":" ","HOUSE_NO":"１１５號","E_COORD97":169550.79000000001,"N_COORD97":2548113.8300000001,"ADDRESS":"安和路一段２２０巷１１５號","OBJECTID":286124},"geometry":{"x":169550.79000000097,"y":2548113.8300000001}},{"attributes":{"ID":286131,"DIS_CODE":0,"TOWNNAME":"安南區","LI":"安東里","LIN":"12鄰","STREET":"安和路","SECT":"一段","MAREA":" ","LANE":"２２０巷","ALLEY":" ","HOUSE_NO":"１１９號","E_COORD97":169579.57000000001,"N_COORD97":2548107.3999999999,"ADDRESS":"安和路一段２２０巷１１９號","OBJECTID":286125},"geometry":{"x":169579.57000000216,"y":2548107.4000000041}},{"attributes":{"ID":286132,"DIS_CODE":0,"TOWNNAME":"安南區","LI":"安東里","LIN":"12鄰","STREET":"安和路","SECT":"一段","MAREA":" ","LANE":"２２０巷","ALLEY":" ","HOUSE_NO":"１２５號","E_COORD97":169572.03,"N_COORD97":2548129.0499999998,"ADDRESS":"安和路一段２２０巷１２５號","OBJECTID":286126},"geometry":{"x":169572.03000000119,"y":2548129.0500000007}},{"attributes":{"ID":286133,"DIS_CODE":0,"TOWNNAME":"安南區","LI":"安東里","LIN":"12鄰","STREET":"安和路","SECT":"一段","MAREA":" ","LANE":"２２０巷","ALLEY":" ","HOUSE_NO":"１２７號","E_COORD97":169594.25,"N_COORD97":2548112.98,"ADDRESS":"安和路一段２２０巷１２７號","OBJECTID":286127},"geometry":{"x":169594.25,"y":2548112.9800000004}},{"attributes":{"ID":286134,"DIS_CODE":0,"TOWNNAME":"安南區","LI":"安東里","LIN":"12鄰","STREET":"安和路","SECT":"一段","MAREA":" ","LANE":"２８８巷","ALLEY":" ","HOUSE_NO":"１１４號","E_COORD97":169575.66,"N_COORD97":2548185.5299999998,"ADDRESS":"安和路一段２８８巷１１４號","OBJECTID":286128},"geometry":{"x":169575.66000000108,"y":2548185.5299999993}},{"attributes":{"ID":286135,"DIS_CODE":0,"TOWNNAME":"安南區","LI":"安東里","LIN":"12鄰","STREET":"安和路","SECT":"一段","MAREA":" ","LANE":"２８８巷","ALLEY":" ","HOUSE_NO":"１１６號","E_COORD97":169578.73999999999,"N_COORD97":2548187.6200000001,"ADDRESS":"安和路一段２８８巷１１６號","OBJECTID":286129},"geometry":{"x":169578.74000000115,"y":2548187.620000001}},{"attributes":{"ID":286136,"DIS_CODE":0,"TOWNNAME":"安南區","LI":"安東里","LIN":"12鄰","STREET":"安和路","SECT":"一段","MAREA":" ","LANE":"２８８巷","ALLEY":" ","HOUSE_NO":"１４８號","E_COORD97":169651.03,"N_COORD97":2548196.4500000002,"ADDRESS":"安和路一段２８８巷１４８號","OBJECTID":286130},"geometry":{"x":169651.03000000212,"y":2548196.4499999993}},{"attributes":{"ID":286137,"DIS_CODE":0,"TOWNNAME":"安南區","LI":"州北里","LIN":"12鄰","STREET":"安和路","SECT":"五段","MAREA":" ","LANE":"１７１巷","ALLEY":" ","HOUSE_NO":"７４號","E_COORD97":169673.57999999999,"N_COORD97":2551794.9300000002,"ADDRESS":"安和路五段１７１巷７４號","OBJECTID":286131},"geometry":{"x":169673.58000000007,"y":2551794.9299999978}},{"attributes":{"ID":286138,"DIS_CODE":0,"TOWNNAME":"六甲區","LI":"水林里","LIN":"12鄰","STREET":"民族街","SECT":" ","MAREA":" ","LANE":"２７５巷","ALLEY":" ","HOUSE_NO":"２４１號","E_COORD97":182828.92000000001,"N_COORD97":2570330.3599999999,"ADDRESS":"民族街２７５巷２４１號","OBJECTID":286132},"geometry":{"x":182828.91999999993,"y":2570330.3599999975}},{"attributes":{"ID":286139,"DIS_CODE":0,"TOWNNAME":"北區","LI":"國姓里","LIN":"12鄰","STREET":"公園路","SECT":" ","MAREA":" ","LANE":"３７７巷","ALLEY":" ","HOUSE_NO":"３７號","E_COORD97":168888.26000000001,"N_COORD97":2545207.8300000001,"ADDRESS":"公園路３７７巷３７號","OBJECTID":286133},"geometry":{"x":168888.26000000071,"y":2545207.8300000001}},{"attributes":{"ID":286140,"DIS_CODE":0,"TOWNNAME":"北區","LI":"國姓里","LIN":"12鄰","STREET":"公園路","SECT":" ","MAREA":" ","LANE":"３７７巷","ALLEY":" ","HOUSE_NO":"３９號","E_COORD97":168877.79999999999,"N_COORD97":2545206.1400000001,"ADDRESS":"公園路３７７巷３９號","OBJECTID":286134},"geometry":{"x":168877.80000000075,"y":2545206.1400000006}},{"attributes":{"ID":286141,"DIS_CODE":0,"TOWNNAME":"北區","LI":"國姓里","LIN":"12鄰","STREET":"公園路","SECT":" ","MAREA":" ","LANE":"３７７巷","ALLEY":" ","HOUSE_NO":"４３號","E_COORD97":168869.60000000001,"N_COORD97":2545207.6499999999,"ADDRESS":"公園路３７７巷４３號","OBJECTID":286135},"geometry":{"x":168869.59999999963,"y":2545207.6500000022}},{"attributes":{"ID":286142,"DIS_CODE":0,"TOWNNAME":"新化區","LI":"豐榮里","LIN":"13鄰","STREET":"健康路","SECT":" ","MAREA":" ","LANE":" ","ALLEY":" ","HOUSE_NO":"１１３號","E_COORD97":178794.23000000001,"N_COORD97":2548206.2599999998,"ADDRESS":"健康路１１３號","OBJECTID":286136},"geometry":{"x":178794.23000000138,"y":2548206.2600000016}},{"attributes":{"ID":286143,"DIS_CODE":0,"TOWNNAME":"新化區","LI":"武安里","LIN":"13鄰","STREET":"健康路","SECT":" ","MAREA":" ","LANE":" ","ALLEY":" ","HOUSE_NO":"２５號","E_COORD97":178892.48000000001,"N_COORD97":2548044.2599999998,"ADDRESS":"健康路２５號","OBJECTID":286137},"geometry":{"x":178892.48000000138,"y":2548044.2600000016}},{"attributes":{"ID":286144,"DIS_CODE":0,"TOWNNAME":"永康區","LI":"建國里","LIN":"28鄰","STREET":" ","SECT":" ","MAREA":"慈光九村","LANE":" ","ALLEY":" ","HOUSE_NO":"４２號","E_COORD97":172847.78,"N_COORD97":2544229.6499999999,"ADDRESS":"慈光九村４２號","OBJECTID":286138},"geometry":{"x":172847.78000000026,"y":2544229.6500000004}},{"attributes":{"ID":286145,"DIS_CODE":0,"TOWNNAME":"永康區","LI":"建國里","LIN":"24鄰","STREET":"復興路","SECT":" ","MAREA":" ","LANE":" ","ALLEY":" ","HOUSE_NO":"８７號","E_COORD97":172846.69,"N_COORD97":2544311.0699999998,"ADDRESS":"復興路８７號","OBJECTID":286139},"geometry":{"x":172846.69000000041,"y":2544311.0700000003}},{"attributes":{"ID":286146,"DIS_CODE":0,"TOWNNAME":"新化區","LI":"武安里","LIN":"13鄰","STREET":"健康路","SECT":" ","MAREA":" ","LANE":" ","ALLEY":" ","HOUSE_NO":"４８號","E_COORD97":178895.57999999999,"N_COORD97":2548059.2599999998,"ADDRESS":"健康路４８號","OBJECTID":286140},"geometry":{"x":178895.58000000007,"y":2548059.2599999998}},{"attributes":{"ID":286147,"DIS_CODE":0,"TOWNNAME":"新化區","LI":"豐榮里","LIN":"13鄰","STREET":"民治路","SECT":" ","MAREA":" ","LANE":" ","ALLEY":" ","HOUSE_NO":"５號","E_COORD97":178728.01000000001,"N_COORD97":2547977.25,"ADDRESS":"民治路５號","OBJECTID":286141},"geometry":{"x":178728.00999999978,"y":2547977.2500000019}},{"attributes":{"ID":286148,"DIS_CODE":0,"TOWNNAME":"新化區","LI":"武安里","LIN":"14鄰","STREET":"健康路","SECT":" ","MAREA":" ","LANE":" ","ALLEY":" ","HOUSE_NO":"６５號","E_COORD97":178841.28,"N_COORD97":2548101.2599999998,"ADDRESS":"健康路６５號","OBJECTID":286142},"geometry":{"x":178841.28000000119,"y":2548101.2600000016}},{"attributes":{"ID":286149,"DIS_CODE":0,"TOWNNAME":"新化區","LI":"東榮里","LIN":" ","STREET":"信義路","SECT":" ","MAREA":" ","LANE":" ","ALLEY":" ","HOUSE_NO":"５４號","E_COORD97":180254.17999999999,"N_COORD97":2548651.25,"ADDRESS":"信義路５４號","OBJECTID":286143},"geometry":{"x":180254.1799999997,"y":2548651.2500000019}},{"attributes":{"ID":286150,"DIS_CODE":0,"TOWNNAME":"北區","LI":"國姓里","LIN":"12鄰","STREET":"公園路","SECT":" ","MAREA":" ","LANE":"３７７巷","ALLEY":" ","HOUSE_NO":"４５號","E_COORD97":168863.66,"N_COORD97":2545207.9300000002,"ADDRESS":"公園路３７７巷４５號","OBJECTID":286144},"geometry":{"x":168863.66000000108,"y":2545207.9300000016}},{"attributes":{"ID":286151,"DIS_CODE":0,"TOWNNAME":"北區","LI":"國姓里","LIN":"12鄰","STREET":"公園路","SECT":" ","MAREA":" ","LANE":"３７７巷","ALLEY":" ","HOUSE_NO":"４７號","E_COORD97":168856.01999999999,"N_COORD97":2545207.3700000001,"ADDRESS":"公園路３７７巷４７號","OBJECTID":286145},"geometry":{"x":168856.01999999955,"y":2545207.3700000029}},{"attributes":{"ID":286152,"DIS_CODE":0,"TOWNNAME":"北區","LI":"國姓里","LIN":"12鄰","STREET":"公園路","SECT":" ","MAREA":" ","LANE":"３７７巷","ALLEY":" ","HOUSE_NO":"４９號","E_COORD97":168850.37,"N_COORD97":2545205.9500000002,"ADDRESS":"公園路３７７巷４９號","OBJECTID":286146},"geometry":{"x":168850.37000000104,"y":2545205.9499999993}},{"attributes":{"ID":286153,"DIS_CODE":0,"TOWNNAME":"北區","LI":"國姓里","LIN":"12鄰","STREET":"公園路","SECT":" ","MAREA":" ","LANE":"３７７巷","ALLEY":" ","HOUSE_NO":"５１號","E_COORD97":168845.28,"N_COORD97":2545206.2400000002,"ADDRESS":"公園路３７７巷５１號","OBJECTID":286147},"geometry":{"x":168845.28000000026,"y":2545206.2400000039}},{"attributes":{"ID":286154,"DIS_CODE":0,"TOWNNAME":"北區","LI":"國姓里","LIN":"12鄰","STREET":"公園路","SECT":" ","MAREA":" ","LANE":"３７７巷","ALLEY":" ","HOUSE_NO":"５３號","E_COORD97":168839.34,"N_COORD97":2545205.6699999999,"ADDRESS":"公園路３７７巷５３號","OBJECTID":286148},"geometry":{"x":168839.33999999985,"y":2545205.6699999999}},{"attributes":{"ID":286155,"DIS_CODE":0,"TOWNNAME":"六甲區","LI":"甲東里","LIN":"12鄰","STREET":"裕農街","SECT":" ","MAREA":" ","LANE":"２９６巷","ALLEY":" ","HOUSE_NO":"１９號","E_COORD97":184121.98999999999,"N_COORD97":2570055.5299999998,"ADDRESS":"裕農街２９６巷１９號","OBJECTID":286149},"geometry":{"x":184121.99000000115,"y":2570055.5300000012}},{"attributes":{"ID":286156,"DIS_CODE":0,"TOWNNAME":"北區","LI":"國姓里","LIN":"12鄰","STREET":"公園路","SECT":" ","MAREA":" ","LANE":"３７７巷","ALLEY":" ","HOUSE_NO":"１０３號","E_COORD97":168710.98999999999,"N_COORD97":2545180.0800000001,"ADDRESS":"公園路３７７巷１０３號","OBJECTID":286150},"geometry":{"x":168710.99000000115,"y":2545180.0800000038}},{"attributes":{"ID":286157,"DIS_CODE":0,"TOWNNAME":"新化區","LI":"豐榮里","LIN":"13鄰","STREET":"民治路","SECT":" ","MAREA":" ","LANE":" ","ALLEY":" ","HOUSE_NO":"８２號","E_COORD97":178729.45999999999,"N_COORD97":2548090.25,"ADDRESS":"民治路８２號","OBJECTID":286151},"geometry":{"x":178729.46000000089,"y":2548090.25}},{"attributes":{"ID":286158,"DIS_CODE":0,"TOWNNAME":"新化區","LI":"豐榮里","LIN":"13鄰","STREET":"民治路","SECT":" ","MAREA":" ","LANE":" ","ALLEY":" ","HOUSE_NO":"３９號","E_COORD97":178713.35999999999,"N_COORD97":2548069.25,"ADDRESS":"民治路３９號","OBJECTID":286152},"geometry":{"x":178713.36000000127,"y":2548069.25}},{"attributes":{"ID":286159,"DIS_CODE":0,"TOWNNAME":"玉井區","LI":"玉井里","LIN":"12鄰","STREET":"富強街","SECT":" ","MAREA":" ","LANE":"３５巷","ALLEY":" ","HOUSE_NO":"６號","E_COORD97":194845.51000000001,"N_COORD97":2558224.25,"ADDRESS":"富強街３５巷６號","OBJECTID":286153},"geometry":{"x":194845.50999999978,"y":2558224.25}},{"attributes":{"ID":286160,"DIS_CODE":0,"TOWNNAME":"新化區","LI":"豐榮里","LIN":"13鄰","STREET":"健康路","SECT":" ","MAREA":" ","LANE":" ","ALLEY":" ","HOUSE_NO":"１４３號","E_COORD97":178748.32999999999,"N_COORD97":2548261.2599999998,"ADDRESS":"健康路１４３號","OBJECTID":286154},"geometry":{"x":178748.32999999914,"y":2548261.2600000016}},{"attributes":{"ID":286161,"DIS_CODE":0,"TOWNNAME":"麻豆區","LI":"東角里","LIN":"12鄰","STREET":"民生路","SECT":" ","MAREA":" ","LANE":"２５巷","ALLEY":" ","HOUSE_NO":"２號","E_COORD97":173679.54000000001,"N_COORD97":2564661.3100000001,"ADDRESS":"民生路２５巷２號","OBJECTID":286155},"geometry":{"x":173679.54000000004,"y":2564661.3100000024}},{"attributes":{"ID":286162,"DIS_CODE":0,"TOWNNAME":"麻豆區","LI":"東角里","LIN":"12鄰","STREET":"民生路","SECT":" ","MAREA":" ","LANE":"２５巷","ALLEY":" ","HOUSE_NO":"３號","E_COORD97":173688.69,"N_COORD97":2564727.96,"ADDRESS":"民生路２５巷３號","OBJECTID":286156},"geometry":{"x":173688.69000000134,"y":2564727.9600000028}},{"attributes":{"ID":286163,"DIS_CODE":0,"TOWNNAME":"麻豆區","LI":"東角里","LIN":"12鄰","STREET":"民生路","SECT":" ","MAREA":" ","LANE":"２５巷","ALLEY":" ","HOUSE_NO":"４號","E_COORD97":173707.89000000001,"N_COORD97":2564720.23,"ADDRESS":"民生路２５巷４號","OBJECTID":286157},"geometry":{"x":173707.89000000153,"y":2564720.2300000004}},{"attributes":{"ID":286164,"DIS_CODE":0,"TOWNNAME":"新化區","LI":"東榮里","LIN":"4鄰","STREET":"信義路","SECT":" ","MAREA":" ","LANE":" ","ALLEY":" ","HOUSE_NO":"１７號之３","E_COORD97":181145.53,"N_COORD97":2548544.2599999998,"ADDRESS":"信義路１７號之３","OBJECTID":286158},"geometry":{"x":181145.53000000026,"y":2548544.2599999998}},{"attributes":{"ID":286165,"DIS_CODE":0,"TOWNNAME":"新化區","LI":"武安里","LIN":"4鄰","STREET":"和平街","SECT":" ","MAREA":" ","LANE":" ","ALLEY":" ","HOUSE_NO":"６０號之１","E_COORD97":179090.70000000001,"N_COORD97":2548160.2599999998,"ADDRESS":"和平街６０號之１","OBJECTID":286159},"geometry":{"x":179090.70000000112,"y":2548160.2599999998}},{"attributes":{"ID":286166,"DIS_CODE":0,"TOWNNAME":"新化區","LI":"豐榮里","LIN":" ","STREET":"中山路","SECT":" ","MAREA":" ","LANE":" ","ALLEY":" ","HOUSE_NO":"５９５號","E_COORD97":178292.76999999999,"N_COORD97":2548440.25,"ADDRESS":"中山路５９５號","OBJECTID":286160},"geometry":{"x":178292.77000000048,"y":2548440.2500000037}},{"attributes":{"ID":286167,"DIS_CODE":0,"TOWNNAME":"新化區","LI":"豐榮里","LIN":"13鄰","STREET":"民治路","SECT":" ","MAREA":" ","LANE":" ","ALLEY":" ","HOUSE_NO":"４０號","E_COORD97":178736.85999999999,"N_COORD97":2548042.25,"ADDRESS":"民治路４０號","OBJECTID":286161},"geometry":{"x":178736.86000000127,"y":2548042.25}},{"attributes":{"ID":286168,"DIS_CODE":0,"TOWNNAME":"新化區","LI":"東榮里","LIN":"25鄰","STREET":"光明路","SECT":" ","MAREA":" ","LANE":" ","ALLEY":" ","HOUSE_NO":"８３號","E_COORD97":179212.17000000001,"N_COORD97":2548042.25,"ADDRESS":"光明路８３號","OBJECTID":286162},"geometry":{"x":179212.17000000179,"y":2548042.25}},{"attributes":{"ID":286169,"DIS_CODE":0,"TOWNNAME":"六甲區","LI":"龍湖里","LIN":"12鄰","STREET":"珊瑚路","SECT":" ","MAREA":" ","LANE":"１９８巷","ALLEY":" ","HOUSE_NO":"１號","E_COORD97":184599.84,"N_COORD97":2568429.1600000001,"ADDRESS":"珊瑚路１９８巷１號","OBJECTID":286163},"geometry":{"x":184599.83999999892,"y":2568429.1600000001}},{"attributes":{"ID":286170,"DIS_CODE":0,"TOWNNAME":"仁德區","LI":"一甲里","LIN":"12鄰","STREET":"忠義路","SECT":" ","MAREA":" ","LANE":"３４１巷","ALLEY":" ","HOUSE_NO":"６號","E_COORD97":173543.20999999999,"N_COORD97":2541834.0099999998,"ADDRESS":"忠義路３４１巷６號","OBJECTID":286164},"geometry":{"x":173543.21000000183,"y":2541834.0100000035}},{"attributes":{"ID":286171,"DIS_CODE":0,"TOWNNAME":"六甲區","LI":"二甲里","LIN":"12鄰","STREET":"民權街","SECT":" ","MAREA":" ","LANE":"２４８巷","ALLEY":" ","HOUSE_NO":"１３號","E_COORD97":183023.16,"N_COORD97":2569813.4100000001,"ADDRESS":"民權街２４８巷１３號","OBJECTID":286165},"geometry":{"x":183023.15999999922,"y":2569813.410000002}},{"attributes":{"ID":286172,"DIS_CODE":0,"TOWNNAME":"六甲區","LI":"二甲里","LIN":"12鄰","STREET":"民權街","SECT":" ","MAREA":" ","LANE":"２４８巷","ALLEY":" ","HOUSE_NO":"１５號","E_COORD97":183005.31,"N_COORD97":2569808.0800000001,"ADDRESS":"民權街２４８巷１５號","OBJECTID":286166},"geometry":{"x":183005.31000000052,"y":2569808.0800000019}},{"attributes":{"ID":286173,"DIS_CODE":0,"TOWNNAME":"六甲區","LI":"二甲里","LIN":"12鄰","STREET":"民權街","SECT":" ","MAREA":" ","LANE":"２６２巷","ALLEY":" ","HOUSE_NO":"２６號","E_COORD97":183027.70000000001,"N_COORD97":2569857.0299999998,"ADDRESS":"民權街２６２巷２６號","OBJECTID":286167},"geometry":{"x":183027.70000000019,"y":2569857.0299999993}},{"attributes":{"ID":286174,"DIS_CODE":0,"TOWNNAME":"六甲區","LI":"甲南里","LIN":"12鄰","STREET":"永安街","SECT":" ","MAREA":" ","LANE":"１３巷","ALLEY":" ","HOUSE_NO":"１２號","E_COORD97":183897.62,"N_COORD97":2569795.21,"ADDRESS":"永安街１３巷１２號","OBJECTID":286168},"geometry":{"x":183897.62000000011,"y":2569795.2100000028}},{"attributes":{"ID":286175,"DIS_CODE":0,"TOWNNAME":"六甲區","LI":"甲南里","LIN":"12鄰","STREET":"永安街","SECT":" ","MAREA":" ","LANE":"１３巷","ALLEY":" ","HOUSE_NO":"１４號","E_COORD97":183896.95999999999,"N_COORD97":2569788.7400000002,"ADDRESS":"永安街１３巷１４號","OBJECTID":286169},"geometry":{"x":183896.95999999996,"y":2569788.7400000002}},{"attributes":{"ID":286176,"DIS_CODE":0,"TOWNNAME":"六甲區","LI":"甲南里","LIN":"12鄰","STREET":"永安街","SECT":" ","MAREA":" ","LANE":"１３巷","ALLEY":" ","HOUSE_NO":"１之１號","E_COORD97":183910.59,"N_COORD97":2569821.4900000002,"ADDRESS":"永安街１３巷１之１號","OBJECTID":286170},"geometry":{"x":183910.59000000078,"y":2569821.4900000002}},{"attributes":{"ID":286177,"DIS_CODE":0,"TOWNNAME":"新化區","LI":"太平里","LIN":"4鄰","STREET":"民生路","SECT":" ","MAREA":" ","LANE":" ","ALLEY":" ","HOUSE_NO":"２１５號","E_COORD97":179081.26999999999,"N_COORD97":2548939.1699999999,"ADDRESS":"民生路２１５號","OBJECTID":286171},"geometry":{"x":179081.27000000048,"y":2548939.1700000037}},{"attributes":{"ID":286178,"DIS_CODE":0,"TOWNNAME":"新化區","LI":"太平里","LIN":"17鄰","STREET":"忠孝路","SECT":" ","MAREA":" ","LANE":" ","ALLEY":" ","HOUSE_NO":"１１８號","E_COORD97":178710.67000000001,"N_COORD97":2548660.8300000001,"ADDRESS":"忠孝路１１８號","OBJECTID":286172},"geometry":{"x":178710.67000000086,"y":2548660.8300000019}},{"attributes":{"ID":286179,"DIS_CODE":0,"TOWNNAME":"新化區","LI":"協興里","LIN":"8鄰","STREET":"太平街","SECT":" ","MAREA":" ","LANE":" ","ALLEY":" ","HOUSE_NO":"１３０號","E_COORD97":178421.37,"N_COORD97":2548705.9100000001,"ADDRESS":"太平街１３０號","OBJECTID":286173},"geometry":{"x":178421.37000000104,"y":2548705.9100000001}},{"attributes":{"ID":286180,"DIS_CODE":0,"TOWNNAME":"仁德區","LI":"上崙里","LIN":"26鄰","STREET":"中正路","SECT":"一段","MAREA":" ","LANE":"７１８巷","ALLEY":" ","HOUSE_NO":"８號","E_COORD97":172951.48000000001,"N_COORD97":2537709.7799999998,"ADDRESS":"中正路一段７１８巷８號","OBJECTID":286174},"geometry":{"x":172951.48000000045,"y":2537709.7800000012}},{"attributes":{"ID":286181,"DIS_CODE":0,"TOWNNAME":"六甲區","LI":"甲東里","LIN":"12鄰","STREET":"裕農街","SECT":" ","MAREA":" ","LANE":"２６４巷","ALLEY":" ","HOUSE_NO":"２號","E_COORD97":184189.10000000001,"N_COORD97":2570030.5699999998,"ADDRESS":"裕農街２６４巷２號","OBJECTID":286175},"geometry":{"x":184189.09999999963,"y":2570030.5700000003}},{"attributes":{"ID":286182,"DIS_CODE":0,"TOWNNAME":"六甲區","LI":"甲東里","LIN":"12鄰","STREET":"裕農街","SECT":" ","MAREA":" ","LANE":"２６４巷","ALLEY":" ","HOUSE_NO":"３０號","E_COORD97":184183.37,"N_COORD97":2570086.9399999999,"ADDRESS":"裕農街２６４巷３０號","OBJECTID":286176},"geometry":{"x":184183.37000000104,"y":2570086.9400000013}},{"attributes":{"ID":286183,"DIS_CODE":0,"TOWNNAME":"永康區","LI":"東橋里","LIN":"21鄰","STREET":"自強路","SECT":" ","MAREA":" ","LANE":" ","ALLEY":" ","HOUSE_NO":"１０８號","E_COORD97":172894.59,"N_COORD97":2547306.3500000001,"ADDRESS":"自強路１０８號","OBJECTID":286177},"geometry":{"x":172894.59000000171,"y":2547306.3499999996}},{"attributes":{"ID":286184,"DIS_CODE":0,"TOWNNAME":"永康區","LI":"南灣里","LIN":"9鄰","STREET":"大灣路","SECT":" ","MAREA":" ","LANE":" ","ALLEY":" ","HOUSE_NO":"６２１號","E_COORD97":174217.67999999999,"N_COORD97":2544504.5899999999,"ADDRESS":"大灣路６２１號","OBJECTID":286178},"geometry":{"x":174217.6799999997,"y":2544504.5899999999}},{"attributes":{"ID":286185,"DIS_CODE":0,"TOWNNAME":"新營區","LI":"嘉芳里","LIN":"12鄰","STREET":"復興路","SECT":" ","MAREA":" ","LANE":"８０３巷","ALLEY":" ","HOUSE_NO":"２６號","E_COORD97":177118.10000000001,"N_COORD97":2578488.0499999998,"ADDRESS":"復興路８０３巷２６號","OBJECTID":286179},"geometry":{"x":177118.09999999963,"y":2578488.0500000045}},{"attributes":{"ID":286186,"DIS_CODE":0,"TOWNNAME":"仁德區","LI":"一甲里","LIN":"14鄰","STREET":"忠義路","SECT":" ","MAREA":" ","LANE":"２４１巷","ALLEY":" ","HOUSE_NO":"４２號","E_COORD97":173928.16,"N_COORD97":2541760.52,"ADDRESS":"忠義路２４１巷４２號","OBJECTID":286180},"geometry":{"x":173928.16000000015,"y":2541760.5200000014}},{"attributes":{"ID":286187,"DIS_CODE":0,"TOWNNAME":"新營區","LI":"嘉芳里","LIN":"12鄰","STREET":"復興路","SECT":" ","MAREA":" ","LANE":"８０３巷","ALLEY":" ","HOUSE_NO":"２８號","E_COORD97":177119.09,"N_COORD97":2578481.3999999999,"ADDRESS":"復興路８０３巷２８號","OBJECTID":286181},"geometry":{"x":177119.09000000171,"y":2578481.4000000004}},{"attributes":{"ID":286188,"DIS_CODE":0,"TOWNNAME":"新營區","LI":"新北里","LIN":"12鄰","STREET":"南新街","SECT":" ","MAREA":" ","LANE":"５０巷","ALLEY":" ","HOUSE_NO":"３號","E_COORD97":179337.45999999999,"N_COORD97":2578906.98,"ADDRESS":"南新街５０巷３號","OBJECTID":286182},"geometry":{"x":179337.46000000183,"y":2578906.9800000004}},{"attributes":{"ID":286189,"DIS_CODE":0,"TOWNNAME":"新營區","LI":"新北里","LIN":"12鄰","STREET":"南新街","SECT":" ","MAREA":" ","LANE":"５０巷","ALLEY":" ","HOUSE_NO":"８號","E_COORD97":179349.73000000001,"N_COORD97":2578910.25,"ADDRESS":"南新街５０巷８號","OBJECTID":286183},"geometry":{"x":179349.73000000231,"y":2578910.2500000019}},{"attributes":{"ID":286190,"DIS_CODE":0,"TOWNNAME":"歸仁區","LI":"七甲里","LIN":"12鄰","STREET":"南丁路","SECT":" ","MAREA":" ","LANE":"２７１巷","ALLEY":" ","HOUSE_NO":"１３５號","E_COORD97":175654.81,"N_COORD97":2542384.25,"ADDRESS":"南丁路２７１巷１３５號","OBJECTID":286184},"geometry":{"x":175654.81000000052,"y":2542384.25}},{"attributes":{"ID":286191,"DIS_CODE":0,"TOWNNAME":"仁德區","LI":"保安里","LIN":"12鄰","STREET":"開發三路","SECT":" ","MAREA":" ","LANE":" ","ALLEY":" ","HOUSE_NO":"８號","E_COORD97":172675.13865499999,"N_COORD97":2535823.4879100001,"ADDRESS":"開發三路８號","OBJECTID":286185},"geometry":{"x":172675.13865500037,"y":2535823.4879140016}},{"attributes":{"ID":286192,"DIS_CODE":0,"TOWNNAME":"北區","LI":"文元里","LIN":"12鄰","STREET":"中華北路","SECT":"二段","MAREA":" ","LANE":"２５巷","ALLEY":" ","HOUSE_NO":"４０號之１","E_COORD97":167452.59,"N_COORD97":2546397.6099999999,"ADDRESS":"中華北路二段２５巷４０號之１","OBJECTID":286186},"geometry":{"x":167452.58999999985,"y":2546397.6100000013}},{"attributes":{"ID":286193,"DIS_CODE":0,"TOWNNAME":"仁德區","LI":"一甲里","LIN":"14鄰","STREET":"忠義路","SECT":" ","MAREA":" ","LANE":"１９９巷","ALLEY":" ","HOUSE_NO":"２８號","E_COORD97":174014.520785,"N_COORD97":2541743.6804800001,"ADDRESS":"忠義路１９９巷２８號","OBJECTID":286187},"geometry":{"x":174014.52078500111,"y":2541743.6804810017}},{"attributes":{"ID":286194,"DIS_CODE":0,"TOWNNAME":"新化區","LI":"東榮里","LIN":"4鄰","STREET":"信義路","SECT":" ","MAREA":" ","LANE":" ","ALLEY":" ","HOUSE_NO":"３９號之１","E_COORD97":180762.48999999999,"N_COORD97":2548686.6800000002,"ADDRESS":"信義路３９號之１","OBJECTID":286188},"geometry":{"x":180762.49000000022,"y":2548686.6799999997}},{"attributes":{"ID":286195,"DIS_CODE":0,"TOWNNAME":"新化區","LI":"東榮里","LIN":"4鄰","STREET":"信義路","SECT":" ","MAREA":" ","LANE":" ","ALLEY":" ","HOUSE_NO":"３９號之１１","E_COORD97":180697.35999999999,"N_COORD97":2548661.0699999998,"ADDRESS":"信義路３９號之１１","OBJECTID":286189},"geometry":{"x":180697.36000000034,"y":2548661.0700000003}},{"attributes":{"ID":286196,"DIS_CODE":0,"TOWNNAME":"新化區","LI":"東榮里","LIN":"4鄰","STREET":"信義路","SECT":" ","MAREA":" ","LANE":" ","ALLEY":" ","HOUSE_NO":"３９號之１５","E_COORD97":180684.72,"N_COORD97":2548660.9500000002,"ADDRESS":"信義路３９號之１５","OBJECTID":286190},"geometry":{"x":180684.7200000016,"y":2548660.9499999993}},{"attributes":{"ID":286197,"DIS_CODE":0,"TOWNNAME":"新化區","LI":"東榮里","LIN":"20鄰","STREET":"復興路","SECT":" ","MAREA":" ","LANE":" ","ALLEY":" ","HOUSE_NO":"２７８號","E_COORD97":179350.07000000001,"N_COORD97":2548373.73,"ADDRESS":"復興路２７８號","OBJECTID":286191},"geometry":{"x":179350.0700000003,"y":2548373.7300000023}},{"attributes":{"ID":286198,"DIS_CODE":0,"TOWNNAME":"新化區","LI":"知義里","LIN":"15鄰","STREET":"中興路","SECT":" ","MAREA":" ","LANE":" ","ALLEY":" ","HOUSE_NO":"３７７號","E_COORD97":180765.04999999999,"N_COORD97":2547395.5299999998,"ADDRESS":"中興路３７７號","OBJECTID":286192},"geometry":{"x":180765.04999999981,"y":2547395.5299999993}},{"attributes":{"ID":286199,"DIS_CODE":0,"TOWNNAME":"新化區","LI":"豐榮里","LIN":"13鄰","STREET":"正新南路","SECT":" ","MAREA":" ","LANE":" ","ALLEY":" ","HOUSE_NO":"２０３號","E_COORD97":178682.41,"N_COORD97":2547922.8199999998,"ADDRESS":"正新南路２０３號","OBJECTID":286193},"geometry":{"x":178682.41000000108,"y":2547922.8200000022}},{"attributes":{"ID":286200,"DIS_CODE":0,"TOWNNAME":"新化區","LI":"豐榮里","LIN":"13鄰","STREET":"正新南路","SECT":" ","MAREA":" ","LANE":" ","ALLEY":" ","HOUSE_NO":"２０５號","E_COORD97":178673.60000000001,"N_COORD97":2547921.1000000001,"ADDRESS":"正新南路２０５號","OBJECTID":286194},"geometry":{"x":178673.60000000056,"y":2547921.0999999996}},{"attributes":{"ID":286201,"DIS_CODE":0,"TOWNNAME":"善化區","LI":"坐駕里","LIN":"13鄰","STREET":"自強路","SECT":" ","MAREA":" ","LANE":" ","ALLEY":" ","HOUSE_NO":"２５號","E_COORD97":178275.10999999999,"N_COORD97":2558742.75,"ADDRESS":"自強路２５號","OBJECTID":286195},"geometry":{"x":178275.11000000034,"y":2558742.75}},{"attributes":{"ID":286202,"DIS_CODE":0,"TOWNNAME":"新化區","LI":"北勢里","LIN":"8鄰","STREET":"永新路","SECT":" ","MAREA":" ","LANE":" ","ALLEY":" ","HOUSE_NO":"４５號","E_COORD97":177763.72,"N_COORD97":2550951.8700000001,"ADDRESS":"永新路４５號","OBJECTID":286196},"geometry":{"x":177763.71999999974,"y":2550951.870000001}},{"attributes":{"ID":286203,"DIS_CODE":0,"TOWNNAME":"北區","LI":"興南里","LIN":"12鄰","STREET":"西門路","SECT":"四段","MAREA":" ","LANE":"１６巷","ALLEY":" ","HOUSE_NO":"３３號","E_COORD97":168765.98000000001,"N_COORD97":2545143.7400000002,"ADDRESS":"西門路四段１６巷３３號","OBJECTID":286197},"geometry":{"x":168765.98000000045,"y":2545143.7400000002}},{"attributes":{"ID":286204,"DIS_CODE":0,"TOWNNAME":"北區","LI":"興南里","LIN":"12鄰","STREET":"西門路","SECT":"四段","MAREA":" ","LANE":"１６巷","ALLEY":" ","HOUSE_NO":"３３號之１","E_COORD97":168776.04000000001,"N_COORD97":2545148.3599999999,"ADDRESS":"西門路四段１６巷３３號之１","OBJECTID":286198},"geometry":{"x":168776.04000000097,"y":2545148.3600000013}},{"attributes":{"ID":286205,"DIS_CODE":0,"TOWNNAME":"北區","LI":"興南里","LIN":"12鄰","STREET":"西門路","SECT":"四段","MAREA":" ","LANE":"１６巷","ALLEY":" ","HOUSE_NO":"３３號之２","E_COORD97":168779.92000000001,"N_COORD97":2545146.1400000001,"ADDRESS":"西門路四段１６巷３３號之２","OBJECTID":286199},"geometry":{"x":168779.92000000179,"y":2545146.1400000043}},{"attributes":{"ID":286206,"DIS_CODE":0,"TOWNNAME":"北區","LI":"興南里","LIN":"12鄰","STREET":"西門路","SECT":"四段","MAREA":" ","LANE":"１６巷","ALLEY":" ","HOUSE_NO":"３５號","E_COORD97":168783.69,"N_COORD97":2545143.52,"ADDRESS":"西門路四段１６巷３５號","OBJECTID":286200},"geometry":{"x":168783.69000000227,"y":2545143.5200000014}}]}