{"displayFieldName":"TOWNNAME","fieldAliases":{"ID":"ID","DIS_CODE":"DIS_CODE","TOWNNAME":"TOWNNAME","LI":"LI","LIN":"LIN","STREET":"STREET","SECT":"SECT","MAREA":"MAREA","LANE":"LANE","ALLEY":"ALLEY","HOUSE_NO":"HOUSE_NO","E_COORD97":"E_COORD97","N_COORD97":"N_COORD97","ADDRESS":"ADDRESS","OBJECTID":"OBJECTID"},"geometryType":"esriGeometryPoint","spatialReference":{"wkid":102443,"latestWkid":3826},"fields":[{"name":"ID","type":"esriFieldTypeDouble","alias":"ID"},{"name":"DIS_CODE","type":"esriFieldTypeInteger","alias":"DIS_CODE"},{"name":"TOWNNAME","type":"esriFieldTypeString","alias":"TOWNNAME","length":8},{"name":"LI","type":"esriFieldTypeString","alias":"LI","length":8},{"name":"LIN","type":"esriFieldTypeString","alias":"LIN","length":12},{"name":"STREET","type":"esriFieldTypeString","alias":"STREET","length":20},{"name":"SECT","type":"esriFieldTypeString","alias":"SECT","length":8},{"name":"MAREA","type":"esriFieldTypeString","alias":"MAREA","length":12},{"name":"LANE","type":"esriFieldTypeString","alias":"LANE","length":10},{"name":"ALLEY","type":"esriFieldTypeString","alias":"ALLEY","length":10},{"name":"HOUSE_NO","type":"esriFieldTypeString","alias":"HOUSE_NO","length":20},{"name":"E_COORD97","type":"esriFieldTypeDouble","alias":"E_COORD97"},{"name":"N_COORD97","type":"esriFieldTypeDouble","alias":"N_COORD97"},{"name":"ADDRESS","type":"esriFieldTypeString","alias":"ADDRESS","length":50},{"name":"OBJECTID","type":"esriFieldTypeOID","alias":"OBJECTID"}],"features":[{"attributes":{"ID":540828,"DIS_CODE":0,"TOWNNAME":"歸仁區","LI":"許厝里","LIN":"12鄰","STREET":"仁愛八街","SECT":" ","MAREA":" ","LANE":" ","ALLEY":" ","HOUSE_NO":"４７號","E_COORD97":178146.76000000001,"N_COORD97":2540621.4199999999,"ADDRESS":"仁愛八街４７號","OBJECTID":540801},"geometry":{"x":178146.76000000164,"y":2540621.4200000018}},{"attributes":{"ID":540829,"DIS_CODE":0,"TOWNNAME":"歸仁區","LI":"看東里","LIN":"12鄰","STREET":"忠孝南路","SECT":" ","MAREA":" ","LANE":" ","ALLEY":" ","HOUSE_NO":"２９號","E_COORD97":178525.14999999999,"N_COORD97":2540550.48,"ADDRESS":"忠孝南路２９號","OBJECTID":540802},"geometry":{"x":178525.1500000013,"y":2540550.4800000023}},{"attributes":{"ID":540830,"DIS_CODE":0,"TOWNNAME":"歸仁區","LI":"崙頂里","LIN":"12鄰","STREET":"成功路","SECT":"二段","MAREA":" ","LANE":" ","ALLEY":" ","HOUSE_NO":"１６１號","E_COORD97":177924.38,"N_COORD97":2539682.25,"ADDRESS":"成功路二段１６１號","OBJECTID":540803},"geometry":{"x":177924.38000000082,"y":2539682.25}},{"attributes":{"ID":540831,"DIS_CODE":0,"TOWNNAME":"歸仁區","LI":"後市里","LIN":"12鄰","STREET":"民權五街","SECT":" ","MAREA":" ","LANE":" ","ALLEY":" ","HOUSE_NO":"１３號","E_COORD97":177036.48999999999,"N_COORD97":2540792.25,"ADDRESS":"民權五街１３號","OBJECTID":540804},"geometry":{"x":177036.49000000022,"y":2540792.2500000019}},{"attributes":{"ID":540832,"DIS_CODE":0,"TOWNNAME":"歸仁區","LI":"看東里","LIN":"12鄰","STREET":"忠孝南路","SECT":" ","MAREA":" ","LANE":" ","ALLEY":" ","HOUSE_NO":"６７號","E_COORD97":178522.75,"N_COORD97":2540468.48,"ADDRESS":"忠孝南路６７號","OBJECTID":540805},"geometry":{"x":178522.75,"y":2540468.4800000042}},{"attributes":{"ID":540833,"DIS_CODE":0,"TOWNNAME":"歸仁區","LI":"新厝里","LIN":"12鄰","STREET":"中正南路","SECT":"一段","MAREA":" ","LANE":" ","ALLEY":" ","HOUSE_NO":"７７號","E_COORD97":177590.5,"N_COORD97":2540545.5899999999,"ADDRESS":"中正南路一段７７號","OBJECTID":540806},"geometry":{"x":177590.5,"y":2540545.5900000017}},{"attributes":{"ID":540834,"DIS_CODE":0,"TOWNNAME":"歸仁區","LI":"新厝里","LIN":"12鄰","STREET":"中正南路","SECT":"一段","MAREA":" ","LANE":" ","ALLEY":" ","HOUSE_NO":"６５號","E_COORD97":177609.10000000001,"N_COORD97":2540564.5899999999,"ADDRESS":"中正南路一段６５號","OBJECTID":540807},"geometry":{"x":177609.10000000056,"y":2540564.5899999999}},{"attributes":{"ID":540835,"DIS_CODE":0,"TOWNNAME":"歸仁區","LI":"看東里","LIN":"12鄰","STREET":"忠孝南路","SECT":" ","MAREA":" ","LANE":" ","ALLEY":" ","HOUSE_NO":"５１號","E_COORD97":178522.95000000001,"N_COORD97":2540506.48,"ADDRESS":"忠孝南路５１號","OBJECTID":540808},"geometry":{"x":178522.95000000112,"y":2540506.4800000023}},{"attributes":{"ID":540836,"DIS_CODE":0,"TOWNNAME":"歸仁區","LI":"看西里","LIN":"12鄰","STREET":"仁愛南街","SECT":" ","MAREA":" ","LANE":" ","ALLEY":" ","HOUSE_NO":"２２９號","E_COORD97":178272.76000000001,"N_COORD97":2540162.1200000001,"ADDRESS":"仁愛南街２２９號","OBJECTID":540809},"geometry":{"x":178272.76000000071,"y":2540162.120000001}},{"attributes":{"ID":540837,"DIS_CODE":0,"TOWNNAME":"歸仁區","LI":"許厝里","LIN":"12鄰","STREET":"仁愛八街","SECT":" ","MAREA":" ","LANE":" ","ALLEY":" ","HOUSE_NO":"５６號","E_COORD97":178106.03,"N_COORD97":2540645.25,"ADDRESS":"仁愛八街５６號","OBJECTID":540810},"geometry":{"x":178106.03000000026,"y":2540645.25}},{"attributes":{"ID":540838,"DIS_CODE":0,"TOWNNAME":"歸仁區","LI":"新厝里","LIN":"12鄰","STREET":"中正南路","SECT":"一段","MAREA":" ","LANE":" ","ALLEY":" ","HOUSE_NO":"７１號","E_COORD97":177600.79999999999,"N_COORD97":2540554.5899999999,"ADDRESS":"中正南路一段７１號","OBJECTID":540811},"geometry":{"x":177600.80000000168,"y":2540554.5899999999}},{"attributes":{"ID":540839,"DIS_CODE":0,"TOWNNAME":"安平區","LI":"億載里","LIN":"12鄰","STREET":"郡平路","SECT":" ","MAREA":" ","LANE":" ","ALLEY":" ","HOUSE_NO":"３３３號","E_COORD97":164181.09,"N_COORD97":2543358.98,"ADDRESS":"郡平路３３３號","OBJECTID":540812},"geometry":{"x":164181.08999999985,"y":2543358.9800000004}},{"attributes":{"ID":540840,"DIS_CODE":0,"TOWNNAME":"安平區","LI":"億載里","LIN":"12鄰","STREET":"郡平路","SECT":" ","MAREA":" ","LANE":" ","ALLEY":" ","HOUSE_NO":"３０７號","E_COORD97":164301.72,"N_COORD97":2543365.5800000001,"ADDRESS":"郡平路３０７號","OBJECTID":540813},"geometry":{"x":164301.71999999974,"y":2543365.5800000001}},{"attributes":{"ID":540841,"DIS_CODE":0,"TOWNNAME":"安平區","LI":"億載里","LIN":"12鄰","STREET":"郡平路","SECT":" ","MAREA":" ","LANE":" ","ALLEY":" ","HOUSE_NO":"３３１之１號","E_COORD97":164228.54999999999,"N_COORD97":2543360.6400000001,"ADDRESS":"郡平路３３１之１號","OBJECTID":540814},"geometry":{"x":164228.54999999981,"y":2543360.6400000025}},{"attributes":{"ID":540842,"DIS_CODE":0,"TOWNNAME":"安平區","LI":"國平里","LIN":"12鄰","STREET":"文平路","SECT":" ","MAREA":" ","LANE":" ","ALLEY":" ","HOUSE_NO":"７１號","E_COORD97":165679.56,"N_COORD97":2542876.9500000002,"ADDRESS":"文平路７１號","OBJECTID":540815},"geometry":{"x":165679.55999999959,"y":2542876.9499999993}},{"attributes":{"ID":540843,"DIS_CODE":0,"TOWNNAME":"安平區","LI":"港仔里","LIN":"12鄰","STREET":"安平路","SECT":" ","MAREA":" ","LANE":" ","ALLEY":" ","HOUSE_NO":"１１９號","E_COORD97":164242.75,"N_COORD97":2544499.2599999998,"ADDRESS":"安平路１１９號","OBJECTID":540816},"geometry":{"x":164242.75,"y":2544499.2599999998}},{"attributes":{"ID":540844,"DIS_CODE":0,"TOWNNAME":"安平區","LI":"建平里","LIN":"12鄰","STREET":"建平路","SECT":" ","MAREA":" ","LANE":" ","ALLEY":" ","HOUSE_NO":"７１５號","E_COORD97":166337.82000000001,"N_COORD97":2544082.5899999999,"ADDRESS":"建平路７１５號","OBJECTID":540817},"geometry":{"x":166337.8200000003,"y":2544082.5900000017}},{"attributes":{"ID":540845,"DIS_CODE":0,"TOWNNAME":"安平區","LI":"金城里","LIN":"12鄰","STREET":"安港路","SECT":" ","MAREA":" ","LANE":" ","ALLEY":" ","HOUSE_NO":"１號","E_COORD97":164424.26000000001,"N_COORD97":2541257.9199999999,"ADDRESS":"安港路１號","OBJECTID":540818},"geometry":{"x":164424.26000000164,"y":2541257.9199999981}},{"attributes":{"ID":540846,"DIS_CODE":0,"TOWNNAME":"安平區","LI":"億載里","LIN":"12鄰","STREET":"郡平路","SECT":" ","MAREA":" ","LANE":" ","ALLEY":" ","HOUSE_NO":"３２３號","E_COORD97":164256.67999999999,"N_COORD97":2543360,"ADDRESS":"郡平路３２３號","OBJECTID":540819},"geometry":{"x":164256.6799999997,"y":2543360.0000000037}},{"attributes":{"ID":540847,"DIS_CODE":0,"TOWNNAME":"新營區","LI":"民榮里","LIN":"12鄰","STREET":"興農街","SECT":" ","MAREA":" ","LANE":" ","ALLEY":" ","HOUSE_NO":"４２之５號","E_COORD97":179229.01999999999,"N_COORD97":2577905.3300000001,"ADDRESS":"興農街４２之５號","OBJECTID":540820},"geometry":{"x":179229.01999999955,"y":2577905.3299999982}},{"attributes":{"ID":540848,"DIS_CODE":0,"TOWNNAME":"新營區","LI":"民榮里","LIN":"12鄰","STREET":"興農街","SECT":" ","MAREA":" ","LANE":" ","ALLEY":" ","HOUSE_NO":"４２之４號","E_COORD97":179234.14000000001,"N_COORD97":2577905.2999999998,"ADDRESS":"興農街４２之４號","OBJECTID":540821},"geometry":{"x":179234.14000000153,"y":2577905.3000000007}},{"attributes":{"ID":540849,"DIS_CODE":0,"TOWNNAME":"新營區","LI":"王公里","LIN":"12鄰","STREET":"義和街","SECT":" ","MAREA":" ","LANE":" ","ALLEY":" ","HOUSE_NO":"３之１６號","E_COORD97":180541.70999999999,"N_COORD97":2579059.7200000002,"ADDRESS":"義和街３之１６號","OBJECTID":540822},"geometry":{"x":180541.71000000089,"y":2579059.7200000044}},{"attributes":{"ID":540850,"DIS_CODE":0,"TOWNNAME":"新營區","LI":"王公里","LIN":"12鄰","STREET":"義和街","SECT":" ","MAREA":" ","LANE":" ","ALLEY":" ","HOUSE_NO":"３之１０號","E_COORD97":180572.26999999999,"N_COORD97":2579033,"ADDRESS":"義和街３之１０號","OBJECTID":540823},"geometry":{"x":180572.27000000142,"y":2579033}},{"attributes":{"ID":540851,"DIS_CODE":0,"TOWNNAME":"新營區","LI":"延平里","LIN":"12鄰","STREET":"忠義街","SECT":" ","MAREA":" ","LANE":" ","ALLEY":" ","HOUSE_NO":"１２號","E_COORD97":179595.365349,"N_COORD97":2577984.8864799999,"ADDRESS":"忠義街１２號","OBJECTID":540824},"geometry":{"x":179595.36534900218,"y":2577984.8864789996}},{"attributes":{"ID":540852,"DIS_CODE":0,"TOWNNAME":"南區","LI":"新興里","LIN":"12鄰","STREET":"夏林路","SECT":" ","MAREA":" ","LANE":" ","ALLEY":" ","HOUSE_NO":"２４０號之２","E_COORD97":167438.04000000001,"N_COORD97":2542159.2599999998,"ADDRESS":"夏林路２４０號之２","OBJECTID":540825},"geometry":{"x":167438.04000000004,"y":2542159.2599999998}},{"attributes":{"ID":540853,"DIS_CODE":0,"TOWNNAME":"南區","LI":"新興里","LIN":"12鄰","STREET":"夏林路","SECT":" ","MAREA":" ","LANE":" ","ALLEY":" ","HOUSE_NO":"２４０號之３","E_COORD97":167435.98999999999,"N_COORD97":2542154.6699999999,"ADDRESS":"夏林路２４０號之３","OBJECTID":540826},"geometry":{"x":167435.99000000115,"y":2542154.6699999981}},{"attributes":{"ID":540854,"DIS_CODE":0,"TOWNNAME":"南區","LI":"新興里","LIN":"12鄰","STREET":"夏林路","SECT":" ","MAREA":" ","LANE":" ","ALLEY":" ","HOUSE_NO":"２４０號之１","E_COORD97":167440.26000000001,"N_COORD97":2542164.29,"ADDRESS":"夏林路２４０號之１","OBJECTID":540827},"geometry":{"x":167440.26000000071,"y":2542164.290000001}},{"attributes":{"ID":540855,"DIS_CODE":0,"TOWNNAME":"北區","LI":"延平里","LIN":"12鄰","STREET":"長榮路","SECT":"五段","MAREA":" ","LANE":" ","ALLEY":" ","HOUSE_NO":"３９７號","E_COORD97":169351.82000000001,"N_COORD97":2545946.6499999999,"ADDRESS":"長榮路五段３９７號","OBJECTID":540828},"geometry":{"x":169351.8200000003,"y":2545946.6500000022}},{"attributes":{"ID":540856,"DIS_CODE":0,"TOWNNAME":"北區","LI":"延平里","LIN":"12鄰","STREET":"長榮路","SECT":"五段","MAREA":" ","LANE":" ","ALLEY":" ","HOUSE_NO":"３９９號","E_COORD97":169346.5,"N_COORD97":2545947.8500000001,"ADDRESS":"長榮路五段３９９號","OBJECTID":540829},"geometry":{"x":169346.50000000093,"y":2545947.8500000015}},{"attributes":{"ID":540857,"DIS_CODE":0,"TOWNNAME":"歸仁區","LI":"文化里","LIN":"12鄰","STREET":"文化北一街","SECT":" ","MAREA":" ","LANE":" ","ALLEY":" ","HOUSE_NO":"４９號","E_COORD97":177314.01000000001,"N_COORD97":2541449.3399999999,"ADDRESS":"文化北一街４９號","OBJECTID":540830},"geometry":{"x":177314.00999999978,"y":2541449.3400000017}},{"attributes":{"ID":540858,"DIS_CODE":0,"TOWNNAME":"安平區","LI":"華平里","LIN":"12鄰","STREET":"華平路","SECT":" ","MAREA":" ","LANE":" ","ALLEY":" ","HOUSE_NO":"４７３號","E_COORD97":165436.98999999999,"N_COORD97":2543706.9500000002,"ADDRESS":"華平路４７３號","OBJECTID":540831},"geometry":{"x":165436.99000000209,"y":2543706.9499999993}},{"attributes":{"ID":540859,"DIS_CODE":0,"TOWNNAME":"安平區","LI":"華平里","LIN":"12鄰","STREET":"華平路","SECT":" ","MAREA":" ","LANE":" ","ALLEY":" ","HOUSE_NO":"４７５號","E_COORD97":165437.32999999999,"N_COORD97":2543711.5299999998,"ADDRESS":"華平路４７５號","OBJECTID":540832},"geometry":{"x":165437.33000000007,"y":2543711.5300000031}},{"attributes":{"ID":540860,"DIS_CODE":0,"TOWNNAME":"安平區","LI":"華平里","LIN":"12鄰","STREET":"華平路","SECT":" ","MAREA":" ","LANE":" ","ALLEY":" ","HOUSE_NO":"４７７號","E_COORD97":165438.32999999999,"N_COORD97":2543716.2200000002,"ADDRESS":"華平路４７７號","OBJECTID":540833},"geometry":{"x":165438.33000000101,"y":2543716.2200000025}},{"attributes":{"ID":540861,"DIS_CODE":0,"TOWNNAME":"安平區","LI":"華平里","LIN":"12鄰","STREET":"健康二街","SECT":" ","MAREA":" ","LANE":" ","ALLEY":" ","HOUSE_NO":"３８２號","E_COORD97":165317.29000000001,"N_COORD97":2543597.1899999999,"ADDRESS":"健康二街３８２號","OBJECTID":540834},"geometry":{"x":165317.29000000004,"y":2543597.1899999995}},{"attributes":{"ID":540862,"DIS_CODE":0,"TOWNNAME":"安平區","LI":"華平里","LIN":"12鄰","STREET":"健康二街","SECT":" ","MAREA":" ","LANE":" ","ALLEY":" ","HOUSE_NO":"３８４號","E_COORD97":165318.07000000001,"N_COORD97":2543601.46,"ADDRESS":"健康二街３８４號","OBJECTID":540835},"geometry":{"x":165318.07000000123,"y":2543601.459999999}},{"attributes":{"ID":540863,"DIS_CODE":0,"TOWNNAME":"安平區","LI":"華平里","LIN":"12鄰","STREET":"健康二街","SECT":" ","MAREA":" ","LANE":" ","ALLEY":" ","HOUSE_NO":"３８６號","E_COORD97":165318.95999999999,"N_COORD97":2543606.04,"ADDRESS":"健康二街３８６號","OBJECTID":540836},"geometry":{"x":165318.96000000089,"y":2543606.0400000028}},{"attributes":{"ID":540864,"DIS_CODE":0,"TOWNNAME":"安平區","LI":"華平里","LIN":"12鄰","STREET":"健康二街","SECT":" ","MAREA":" ","LANE":" ","ALLEY":" ","HOUSE_NO":"３８８號","E_COORD97":165319.29999999999,"N_COORD97":2543612.7400000002,"ADDRESS":"健康二街３８８號","OBJECTID":540837},"geometry":{"x":165319.30000000075,"y":2543612.7400000039}},{"attributes":{"ID":540865,"DIS_CODE":0,"TOWNNAME":"安平區","LI":"華平里","LIN":"12鄰","STREET":"健康二街","SECT":" ","MAREA":" ","LANE":" ","ALLEY":" ","HOUSE_NO":"３９０號","E_COORD97":165322.20999999999,"N_COORD97":2543619.2200000002,"ADDRESS":"健康二街３９０號","OBJECTID":540838},"geometry":{"x":165322.21000000089,"y":2543619.2200000007}},{"attributes":{"ID":540866,"DIS_CODE":0,"TOWNNAME":"安平區","LI":"華平里","LIN":"12鄰","STREET":"健康二街","SECT":" ","MAREA":" ","LANE":" ","ALLEY":" ","HOUSE_NO":"３９２號","E_COORD97":165323.22,"N_COORD97":2543625.1400000001,"ADDRESS":"健康二街３９２號","OBJECTID":540839},"geometry":{"x":165323.22000000067,"y":2543625.1400000025}},{"attributes":{"ID":540867,"DIS_CODE":0,"TOWNNAME":"安平區","LI":"華平里","LIN":"12鄰","STREET":"健康二街","SECT":" ","MAREA":" ","LANE":" ","ALLEY":" ","HOUSE_NO":"３９４號","E_COORD97":165323.76999999999,"N_COORD97":2543629.1600000001,"ADDRESS":"健康二街３９４號","OBJECTID":540840},"geometry":{"x":165323.76999999955,"y":2543629.1600000001}},{"attributes":{"ID":540868,"DIS_CODE":0,"TOWNNAME":"安平區","LI":"華平里","LIN":"12鄰","STREET":"健康二街","SECT":" ","MAREA":" ","LANE":" ","ALLEY":" ","HOUSE_NO":"３９６號","E_COORD97":165324.32999999999,"N_COORD97":2543633.0699999998,"ADDRESS":"健康二街３９６號","OBJECTID":540841},"geometry":{"x":165324.33000000194,"y":2543633.0700000003}},{"attributes":{"ID":540869,"DIS_CODE":0,"TOWNNAME":"北區","LI":"三德里","LIN":"12鄰","STREET":"長北街","SECT":" ","MAREA":" ","LANE":" ","ALLEY":" ","HOUSE_NO":"３２號","E_COORD97":168392.69,"N_COORD97":2544526.0099999998,"ADDRESS":"長北街３２號","OBJECTID":540842},"geometry":{"x":168392.69000000134,"y":2544526.0100000016}},{"attributes":{"ID":540870,"DIS_CODE":0,"TOWNNAME":"歸仁區","LI":"看西里","LIN":"12鄰","STREET":"仁愛南街","SECT":" ","MAREA":" ","LANE":" ","ALLEY":" ","HOUSE_NO":"２２５號","E_COORD97":178287.06,"N_COORD97":2540164.1200000001,"ADDRESS":"仁愛南街２２５號","OBJECTID":540843},"geometry":{"x":178287.06000000145,"y":2540164.1200000029}},{"attributes":{"ID":540871,"DIS_CODE":0,"TOWNNAME":"歸仁區","LI":"後市里","LIN":"12鄰","STREET":"民權五街","SECT":" ","MAREA":" ","LANE":" ","ALLEY":" ","HOUSE_NO":"１１號","E_COORD97":177032.29000000001,"N_COORD97":2540787.25,"ADDRESS":"民權五街１１號","OBJECTID":540844},"geometry":{"x":177032.29000000097,"y":2540787.25}},{"attributes":{"ID":540872,"DIS_CODE":0,"TOWNNAME":"歸仁區","LI":"文化里","LIN":"12鄰","STREET":"文化北一街","SECT":" ","MAREA":" ","LANE":" ","ALLEY":" ","HOUSE_NO":"１６號","E_COORD97":177380.81,"N_COORD97":2541463.3399999999,"ADDRESS":"文化北一街１６號","OBJECTID":540845},"geometry":{"x":177380.81000000052,"y":2541463.3400000017}},{"attributes":{"ID":540873,"DIS_CODE":0,"TOWNNAME":"歸仁區","LI":"文化里","LIN":"12鄰","STREET":"文化北一街","SECT":" ","MAREA":" ","LANE":" ","ALLEY":" ","HOUSE_NO":"２７號","E_COORD97":177360.20999999999,"N_COORD97":2541447.3399999999,"ADDRESS":"文化北一街２７號","OBJECTID":540846},"geometry":{"x":177360.20999999996,"y":2541447.3399999999}},{"attributes":{"ID":540874,"DIS_CODE":0,"TOWNNAME":"歸仁區","LI":"文化里","LIN":"12鄰","STREET":"文化北一街","SECT":" ","MAREA":" ","LANE":" ","ALLEY":" ","HOUSE_NO":"２２號","E_COORD97":177362.31,"N_COORD97":2541465.3399999999,"ADDRESS":"文化北一街２２號","OBJECTID":540847},"geometry":{"x":177362.30999999959,"y":2541465.3400000036}},{"attributes":{"ID":540875,"DIS_CODE":0,"TOWNNAME":"歸仁區","LI":"看東里","LIN":"12鄰","STREET":"忠孝南路","SECT":" ","MAREA":" ","LANE":" ","ALLEY":" ","HOUSE_NO":"５７號","E_COORD97":178522.85000000001,"N_COORD97":2540492.48,"ADDRESS":"忠孝南路５７號","OBJECTID":540848},"geometry":{"x":178522.85000000056,"y":2540492.4800000023}},{"attributes":{"ID":540876,"DIS_CODE":0,"TOWNNAME":"歸仁區","LI":"大廟里","LIN":"12鄰","STREET":"大廟六街","SECT":" ","MAREA":" ","LANE":" ","ALLEY":" ","HOUSE_NO":"５０號","E_COORD97":176062.78,"N_COORD97":2544215.79,"ADDRESS":"大廟六街５０號","OBJECTID":540849},"geometry":{"x":176062.78000000119,"y":2544215.790000001}},{"attributes":{"ID":540877,"DIS_CODE":0,"TOWNNAME":"歸仁區","LI":"大潭里","LIN":"12鄰","STREET":"大潭二街","SECT":" ","MAREA":" ","LANE":" ","ALLEY":" ","HOUSE_NO":"５２號","E_COORD97":175020.95999999999,"N_COORD97":2534619.25,"ADDRESS":"大潭二街５２號","OBJECTID":540850},"geometry":{"x":175020.95999999996,"y":2534619.2500000019}},{"attributes":{"ID":540878,"DIS_CODE":0,"TOWNNAME":"歸仁區","LI":"許厝里","LIN":"12鄰","STREET":"信義南路","SECT":" ","MAREA":" ","LANE":" ","ALLEY":" ","HOUSE_NO":"４５號","E_COORD97":178061.03,"N_COORD97":2540619.96,"ADDRESS":"信義南路４５號","OBJECTID":540851},"geometry":{"x":178061.03000000119,"y":2540619.9600000009}},{"attributes":{"ID":540879,"DIS_CODE":0,"TOWNNAME":"歸仁區","LI":"七甲里","LIN":"12鄰","STREET":"丁厝街","SECT":" ","MAREA":" ","LANE":" ","ALLEY":" ","HOUSE_NO":"５６號","E_COORD97":175958.79000000001,"N_COORD97":2542013.25,"ADDRESS":"丁厝街５６號","OBJECTID":540852},"geometry":{"x":175958.79000000097,"y":2542013.2500000019}},{"attributes":{"ID":540880,"DIS_CODE":0,"TOWNNAME":"歸仁區","LI":"七甲里","LIN":"12鄰","STREET":"丁厝街","SECT":" ","MAREA":" ","LANE":" ","ALLEY":" ","HOUSE_NO":"４９號","E_COORD97":175976.98999999999,"N_COORD97":2541970.25,"ADDRESS":"丁厝街４９號","OBJECTID":540853},"geometry":{"x":175976.99000000022,"y":2541970.25}},{"attributes":{"ID":540881,"DIS_CODE":0,"TOWNNAME":"歸仁區","LI":"六甲里","LIN":"12鄰","STREET":"中正南路","SECT":"一段","MAREA":" ","LANE":" ","ALLEY":" ","HOUSE_NO":"１０２４號","E_COORD97":175974.54999999999,"N_COORD97":2539179.2799999998,"ADDRESS":"中正南路一段１０２４號","OBJECTID":540854},"geometry":{"x":175974.54999999981,"y":2539179.2799999993}},{"attributes":{"ID":540882,"DIS_CODE":0,"TOWNNAME":"歸仁區","LI":"六甲里","LIN":"12鄰","STREET":"六甲路","SECT":" ","MAREA":" ","LANE":" ","ALLEY":" ","HOUSE_NO":"２３７號","E_COORD97":175955.47,"N_COORD97":2539200.25,"ADDRESS":"六甲路２３７號","OBJECTID":540855},"geometry":{"x":175955.47000000067,"y":2539200.25}},{"attributes":{"ID":540883,"DIS_CODE":0,"TOWNNAME":"歸仁區","LI":"文化里","LIN":"12鄰","STREET":"文化北一街","SECT":" ","MAREA":" ","LANE":" ","ALLEY":" ","HOUSE_NO":"１９號","E_COORD97":177378.60999999999,"N_COORD97":2541447.3399999999,"ADDRESS":"文化北一街１９號","OBJECTID":540856},"geometry":{"x":177378.61000000034,"y":2541447.3399999999}},{"attributes":{"ID":540884,"DIS_CODE":0,"TOWNNAME":"歸仁區","LI":"大潭里","LIN":"12鄰","STREET":"大潭二街","SECT":" ","MAREA":" ","LANE":" ","ALLEY":" ","HOUSE_NO":"６０號","E_COORD97":175025.95999999999,"N_COORD97":2534592.25,"ADDRESS":"大潭二街６０號","OBJECTID":540857},"geometry":{"x":175025.95999999996,"y":2534592.25}},{"attributes":{"ID":540885,"DIS_CODE":0,"TOWNNAME":"東區","LI":"裕聖里","LIN":"8鄰","STREET":"裕敬五街","SECT":" ","MAREA":" ","LANE":" ","ALLEY":" ","HOUSE_NO":"１１８號","E_COORD97":172826.76999999999,"N_COORD97":2541998.3700000001,"ADDRESS":"裕敬五街１１８號","OBJECTID":540858},"geometry":{"x":172826.76999999955,"y":2541998.370000001}},{"attributes":{"ID":540886,"DIS_CODE":0,"TOWNNAME":"東區","LI":"裕聖里","LIN":"8鄰","STREET":"裕敬五街","SECT":" ","MAREA":" ","LANE":" ","ALLEY":" ","HOUSE_NO":"１２０號","E_COORD97":172826.62,"N_COORD97":2541994.6899999999,"ADDRESS":"裕敬五街１２０號","OBJECTID":540859},"geometry":{"x":172826.62000000011,"y":2541994.6899999976}},{"attributes":{"ID":540887,"DIS_CODE":0,"TOWNNAME":"東區","LI":"裕聖里","LIN":"8鄰","STREET":"裕敬五街","SECT":" ","MAREA":" ","LANE":" ","ALLEY":" ","HOUSE_NO":"１２２號","E_COORD97":172826.91,"N_COORD97":2541989.9900000002,"ADDRESS":"裕敬五街１２２號","OBJECTID":540860},"geometry":{"x":172826.91000000108,"y":2541989.9900000002}},{"attributes":{"ID":540888,"DIS_CODE":0,"TOWNNAME":"東區","LI":"裕聖里","LIN":"1鄰","STREET":"裕忠路","SECT":" ","MAREA":" ","LANE":" ","ALLEY":" ","HOUSE_NO":"２８９號","E_COORD97":172273.66,"N_COORD97":2542427.3900000001,"ADDRESS":"裕忠路２８９號","OBJECTID":540861},"geometry":{"x":172273.66000000015,"y":2542427.3900000006}},{"attributes":{"ID":540889,"DIS_CODE":0,"TOWNNAME":"東區","LI":"德高里","LIN":"12鄰","STREET":"自由路","SECT":"一段","MAREA":" ","LANE":" ","ALLEY":" ","HOUSE_NO":"６號","E_COORD97":171341.54000000001,"N_COORD97":2540783.9100000001,"ADDRESS":"自由路一段６號","OBJECTID":540862},"geometry":{"x":171341.54000000097,"y":2540783.9100000039}},{"attributes":{"ID":540890,"DIS_CODE":0,"TOWNNAME":"東區","LI":"關聖里","LIN":"12鄰","STREET":"裕農二街","SECT":" ","MAREA":" ","LANE":" ","ALLEY":" ","HOUSE_NO":"１３７號","E_COORD97":171989.92000000001,"N_COORD97":2542877.0899999999,"ADDRESS":"裕農二街１３７號","OBJECTID":540863},"geometry":{"x":171989.91999999993,"y":2542877.0899999999}},{"attributes":{"ID":540891,"DIS_CODE":0,"TOWNNAME":"歸仁區","LI":"南興里","LIN":"12鄰","STREET":"南興街","SECT":" ","MAREA":" ","LANE":" ","ALLEY":" ","HOUSE_NO":"１２３號","E_COORD97":175866.39000000001,"N_COORD97":2541342.25,"ADDRESS":"南興街１２３號","OBJECTID":540864},"geometry":{"x":175866.3900000006,"y":2541342.2500000019}},{"attributes":{"ID":540892,"DIS_CODE":0,"TOWNNAME":"歸仁區","LI":"南興里","LIN":"12鄰","STREET":"南興街","SECT":" ","MAREA":" ","LANE":" ","ALLEY":" ","HOUSE_NO":"８９號","E_COORD97":175885.84,"N_COORD97":2541377.25,"ADDRESS":"南興街８９號","OBJECTID":540865},"geometry":{"x":175885.83999999985,"y":2541377.25}},{"attributes":{"ID":540893,"DIS_CODE":0,"TOWNNAME":"歸仁區","LI":"新厝里","LIN":"12鄰","STREET":"公園十街","SECT":" ","MAREA":" ","LANE":" ","ALLEY":" ","HOUSE_NO":"４５號","E_COORD97":177672.01999999999,"N_COORD97":2540519.5899999999,"ADDRESS":"公園十街４５號","OBJECTID":540866},"geometry":{"x":177672.02000000048,"y":2540519.5899999999}},{"attributes":{"ID":540894,"DIS_CODE":0,"TOWNNAME":"歸仁區","LI":"文化里","LIN":"12鄰","STREET":"文化北一街","SECT":" ","MAREA":" ","LANE":" ","ALLEY":" ","HOUSE_NO":"２８號","E_COORD97":177342.81,"N_COORD97":2541467.3399999999,"ADDRESS":"文化北一街２８號","OBJECTID":540867},"geometry":{"x":177342.81000000145,"y":2541467.3399999999}},{"attributes":{"ID":540895,"DIS_CODE":0,"TOWNNAME":"歸仁區","LI":"看東里","LIN":"12鄰","STREET":"忠孝南路","SECT":" ","MAREA":" ","LANE":" ","ALLEY":" ","HOUSE_NO":"６１號","E_COORD97":178522.75,"N_COORD97":2540481.48,"ADDRESS":"忠孝南路６１號","OBJECTID":540868},"geometry":{"x":178522.75,"y":2540481.4800000004}},{"attributes":{"ID":540896,"DIS_CODE":0,"TOWNNAME":"歸仁區","LI":"新厝里","LIN":"12鄰","STREET":"中正南路","SECT":"一段","MAREA":" ","LANE":" ","ALLEY":" ","HOUSE_NO":"６３號","E_COORD97":177613.20000000001,"N_COORD97":2540567.5899999999,"ADDRESS":"中正南路一段６３號","OBJECTID":540869},"geometry":{"x":177613.20000000019,"y":2540567.5899999999}},{"attributes":{"ID":540897,"DIS_CODE":0,"TOWNNAME":"北區","LI":"成德里","LIN":"12鄰","STREET":"海安路","SECT":"三段","MAREA":" ","LANE":" ","ALLEY":" ","HOUSE_NO":"２７６號","E_COORD97":168010.57999999999,"N_COORD97":2545375.9399999999,"ADDRESS":"海安路三段２７６號","OBJECTID":540870},"geometry":{"x":168010.58000000007,"y":2545375.9399999995}},{"attributes":{"ID":540898,"DIS_CODE":0,"TOWNNAME":"玉井區","LI":"玉田里","LIN":"12鄰","STREET":"神農街","SECT":" ","MAREA":" ","LANE":" ","ALLEY":" ","HOUSE_NO":"４９號","E_COORD97":194817.39000000001,"N_COORD97":2557961.27,"ADDRESS":"神農街４９號","OBJECTID":540871},"geometry":{"x":194817.38999999966,"y":2557961.2700000014}},{"attributes":{"ID":540899,"DIS_CODE":0,"TOWNNAME":"玉井區","LI":"玉井里","LIN":"12鄰","STREET":"中正路","SECT":" ","MAREA":" ","LANE":" ","ALLEY":" ","HOUSE_NO":"９７號","E_COORD97":194851.39999999999,"N_COORD97":2558182.2400000002,"ADDRESS":"中正路９７號","OBJECTID":540872},"geometry":{"x":194851.4000000013,"y":2558182.2400000021}},{"attributes":{"ID":540900,"DIS_CODE":0,"TOWNNAME":"玉井區","LI":"玉井里","LIN":"12鄰","STREET":"中正路","SECT":" ","MAREA":" ","LANE":" ","ALLEY":" ","HOUSE_NO":"９３號","E_COORD97":194848.10000000001,"N_COORD97":2558176.2400000002,"ADDRESS":"中正路９３號","OBJECTID":540873},"geometry":{"x":194848.09999999963,"y":2558176.2400000002}},{"attributes":{"ID":540901,"DIS_CODE":0,"TOWNNAME":"玉井區","LI":"玉田里","LIN":"12鄰","STREET":"神農街","SECT":" ","MAREA":" ","LANE":" ","ALLEY":" ","HOUSE_NO":"４５號","E_COORD97":194832.17999999999,"N_COORD97":2557933.2799999998,"ADDRESS":"神農街４５號","OBJECTID":540874},"geometry":{"x":194832.1799999997,"y":2557933.2800000012}},{"attributes":{"ID":540902,"DIS_CODE":0,"TOWNNAME":"玉井區","LI":"玉田里","LIN":"12鄰","STREET":"民權路","SECT":" ","MAREA":" ","LANE":" ","ALLEY":" ","HOUSE_NO":"８８號","E_COORD97":194811.73999999999,"N_COORD97":2557912.29,"ADDRESS":"民權路８８號","OBJECTID":540875},"geometry":{"x":194811.74000000115,"y":2557912.290000001}},{"attributes":{"ID":540903,"DIS_CODE":0,"TOWNNAME":"玉井區","LI":"玉田里","LIN":"12鄰","STREET":"民權路","SECT":" ","MAREA":" ","LANE":" ","ALLEY":" ","HOUSE_NO":"８２號","E_COORD97":194825.13,"N_COORD97":2557911.29,"ADDRESS":"民權路８２號","OBJECTID":540876},"geometry":{"x":194825.13000000175,"y":2557911.2899999991}},{"attributes":{"ID":540904,"DIS_CODE":0,"TOWNNAME":"東區","LI":"復興里","LIN":"11鄰","STREET":"裕忠二街","SECT":" ","MAREA":" ","LANE":" ","ALLEY":" ","HOUSE_NO":"８號","E_COORD97":172215.28,"N_COORD97":2542266.9700000002,"ADDRESS":"裕忠二街８號","OBJECTID":540877},"geometry":{"x":172215.28000000026,"y":2542266.9700000025}},{"attributes":{"ID":540905,"DIS_CODE":0,"TOWNNAME":"東區","LI":"崇信里","LIN":"19鄰","STREET":"中華東路","SECT":"三段","MAREA":" ","LANE":" ","ALLEY":" ","HOUSE_NO":"１３２號","E_COORD97":170747.94,"N_COORD97":2542131.4500000002,"ADDRESS":"中華東路三段１３２號","OBJECTID":540878},"geometry":{"x":170747.94000000041,"y":2542131.4499999993}},{"attributes":{"ID":540906,"DIS_CODE":0,"TOWNNAME":"東區","LI":"崇信里","LIN":"19鄰","STREET":"中華東路","SECT":"三段","MAREA":" ","LANE":" ","ALLEY":" ","HOUSE_NO":"１３４號","E_COORD97":170745.67000000001,"N_COORD97":2542128.27,"ADDRESS":"中華東路三段１３４號","OBJECTID":540879},"geometry":{"x":170745.66999999993,"y":2542128.2700000014}},{"attributes":{"ID":540907,"DIS_CODE":0,"TOWNNAME":"玉井區","LI":"玉田里","LIN":"12鄰","STREET":"民權路","SECT":" ","MAREA":" ","LANE":" ","ALLEY":" ","HOUSE_NO":"７０號","E_COORD97":194846.13,"N_COORD97":2557910.29,"ADDRESS":"民權路７０號","OBJECTID":540880},"geometry":{"x":194846.13000000082,"y":2557910.2899999991}},{"attributes":{"ID":540908,"DIS_CODE":0,"TOWNNAME":"玉井區","LI":"玉田里","LIN":"12鄰","STREET":"太子街","SECT":" ","MAREA":" ","LANE":" ","ALLEY":" ","HOUSE_NO":"１４號","E_COORD97":194807.69,"N_COORD97":2557959.25,"ADDRESS":"太子街１４號","OBJECTID":540881},"geometry":{"x":194807.69000000041,"y":2557959.25}},{"attributes":{"ID":540909,"DIS_CODE":0,"TOWNNAME":"玉井區","LI":"玉田里","LIN":"12鄰","STREET":"民權路","SECT":" ","MAREA":" ","LANE":" ","ALLEY":" ","HOUSE_NO":"７６號","E_COORD97":194835.14000000001,"N_COORD97":2557911.29,"ADDRESS":"民權路７６號","OBJECTID":540882},"geometry":{"x":194835.1400000006,"y":2557911.2899999991}},{"attributes":{"ID":540910,"DIS_CODE":0,"TOWNNAME":"玉井區","LI":"玉田里","LIN":"12鄰","STREET":"民權路","SECT":" ","MAREA":" ","LANE":" ","ALLEY":" ","HOUSE_NO":"８６號","E_COORD97":194816.63,"N_COORD97":2557911.29,"ADDRESS":"民權路８６號","OBJECTID":540883},"geometry":{"x":194816.63000000175,"y":2557911.2899999991}},{"attributes":{"ID":540911,"DIS_CODE":0,"TOWNNAME":"玉井區","LI":"玉田里","LIN":"12鄰","STREET":"太子街","SECT":" ","MAREA":" ","LANE":" ","ALLEY":" ","HOUSE_NO":"１２號","E_COORD97":194807.88,"N_COORD97":2557956.25,"ADDRESS":"太子街１２號","OBJECTID":540884},"geometry":{"x":194807.87999999989,"y":2557956.25}},{"attributes":{"ID":540912,"DIS_CODE":0,"TOWNNAME":"玉井區","LI":"玉田里","LIN":"12鄰","STREET":"民權路","SECT":" ","MAREA":" ","LANE":" ","ALLEY":" ","HOUSE_NO":"７２號","E_COORD97":194842.73999999999,"N_COORD97":2557911.29,"ADDRESS":"民權路７２號","OBJECTID":540885},"geometry":{"x":194842.74000000022,"y":2557911.2899999991}},{"attributes":{"ID":540913,"DIS_CODE":0,"TOWNNAME":"玉井區","LI":"玉田里","LIN":"12鄰","STREET":"民權路","SECT":" ","MAREA":" ","LANE":" ","ALLEY":" ","HOUSE_NO":"８０號","E_COORD97":194828.34,"N_COORD97":2557911.29,"ADDRESS":"民權路８０號","OBJECTID":540886},"geometry":{"x":194828.33999999985,"y":2557911.2899999991}},{"attributes":{"ID":540914,"DIS_CODE":0,"TOWNNAME":"玉井區","LI":"玉田里","LIN":"12鄰","STREET":"太子街","SECT":" ","MAREA":" ","LANE":" ","ALLEY":" ","HOUSE_NO":"８號之１","E_COORD97":194809.17999999999,"N_COORD97":2557943.2999999998,"ADDRESS":"太子街８號之１","OBJECTID":540887},"geometry":{"x":194809.17999999877,"y":2557943.3000000007}},{"attributes":{"ID":540915,"DIS_CODE":0,"TOWNNAME":"玉井區","LI":"玉田里","LIN":"12鄰","STREET":"民權路","SECT":" ","MAREA":" ","LANE":" ","ALLEY":" ","HOUSE_NO":"８４號","E_COORD97":194820.73999999999,"N_COORD97":2557912.29,"ADDRESS":"民權路８４號","OBJECTID":540888},"geometry":{"x":194820.74000000022,"y":2557912.290000001}},{"attributes":{"ID":540916,"DIS_CODE":0,"TOWNNAME":"玉井區","LI":"玉田里","LIN":"12鄰","STREET":"民權路","SECT":" ","MAREA":" ","LANE":" ","ALLEY":" ","HOUSE_NO":"７８號","E_COORD97":194831.32999999999,"N_COORD97":2557911.29,"ADDRESS":"民權路７８號","OBJECTID":540889},"geometry":{"x":194831.33000000101,"y":2557911.2899999991}},{"attributes":{"ID":540917,"DIS_CODE":0,"TOWNNAME":"玉井區","LI":"玉田里","LIN":"12鄰","STREET":"民權路","SECT":" ","MAREA":" ","LANE":" ","ALLEY":" ","HOUSE_NO":"７４號","E_COORD97":194838.92999999999,"N_COORD97":2557911.29,"ADDRESS":"民權路７４號","OBJECTID":540890},"geometry":{"x":194838.93000000063,"y":2557911.2899999991}},{"attributes":{"ID":540918,"DIS_CODE":0,"TOWNNAME":"學甲區","LI":"慈福里","LIN":"12鄰","STREET":"民生路","SECT":" ","MAREA":" ","LANE":" ","ALLEY":" ","HOUSE_NO":"３０號","E_COORD97":166500.07999999999,"N_COORD97":2570289.5499999998,"ADDRESS":"民生路３０號","OBJECTID":540891},"geometry":{"x":166500.08000000007,"y":2570289.5500000007}},{"attributes":{"ID":540919,"DIS_CODE":0,"TOWNNAME":"學甲區","LI":"慈福里","LIN":"12鄰","STREET":"民生路","SECT":" ","MAREA":" ","LANE":" ","ALLEY":" ","HOUSE_NO":"３２號","E_COORD97":166507.04999999999,"N_COORD97":2570295.79,"ADDRESS":"民生路３２號","OBJECTID":540892},"geometry":{"x":166507.04999999981,"y":2570295.7899999991}},{"attributes":{"ID":540920,"DIS_CODE":0,"TOWNNAME":"學甲區","LI":"慈福里","LIN":"12鄰","STREET":"民生路","SECT":" ","MAREA":" ","LANE":" ","ALLEY":" ","HOUSE_NO":"３４號","E_COORD97":166504.42999999999,"N_COORD97":2570311.29,"ADDRESS":"民生路３４號","OBJECTID":540893},"geometry":{"x":166504.4299999997,"y":2570311.290000001}},{"attributes":{"ID":540921,"DIS_CODE":0,"TOWNNAME":"學甲區","LI":"慈福里","LIN":"12鄰","STREET":"民族路","SECT":" ","MAREA":" ","LANE":" ","ALLEY":" ","HOUSE_NO":"４７號之１","E_COORD97":166599.35000000001,"N_COORD97":2570274.46,"ADDRESS":"民族路４７號之１","OBJECTID":540894},"geometry":{"x":166599.34999999963,"y":2570274.4600000028}},{"attributes":{"ID":540922,"DIS_CODE":0,"TOWNNAME":"學甲區","LI":"仁得里","LIN":"12鄰","STREET":"民權路","SECT":" ","MAREA":" ","LANE":" ","ALLEY":" ","HOUSE_NO":"８０號之１","E_COORD97":165986.98999999999,"N_COORD97":2570178.3300000001,"ADDRESS":"民權路８０號之１","OBJECTID":540895},"geometry":{"x":165986.99000000022,"y":2570178.3300000001}},{"attributes":{"ID":540923,"DIS_CODE":0,"TOWNNAME":"學甲區","LI":"仁得里","LIN":"12鄰","STREET":"民權路","SECT":" ","MAREA":" ","LANE":" ","ALLEY":" ","HOUSE_NO":"８０號之２","E_COORD97":165982.31,"N_COORD97":2570179.1600000001,"ADDRESS":"民權路８０號之２","OBJECTID":540896},"geometry":{"x":165982.31000000052,"y":2570179.1600000001}},{"attributes":{"ID":540924,"DIS_CODE":0,"TOWNNAME":"學甲區","LI":"仁得里","LIN":"12鄰","STREET":"民權路","SECT":" ","MAREA":" ","LANE":" ","ALLEY":" ","HOUSE_NO":"８０號","E_COORD97":165995.34,"N_COORD97":2570193.71,"ADDRESS":"民權路８０號","OBJECTID":540897},"geometry":{"x":165995.34000000171,"y":2570193.7100000009}},{"attributes":{"ID":540925,"DIS_CODE":0,"TOWNNAME":"學甲區","LI":"仁得里","LIN":"12鄰","STREET":"民權路","SECT":" ","MAREA":" ","LANE":" ","ALLEY":" ","HOUSE_NO":"８１號","E_COORD97":165995.89000000001,"N_COORD97":2570139.5499999998,"ADDRESS":"民權路８１號","OBJECTID":540898},"geometry":{"x":165995.88999999966,"y":2570139.5500000007}},{"attributes":{"ID":540926,"DIS_CODE":0,"TOWNNAME":"東區","LI":"龍山里","LIN":"5鄰","STREET":"崇仁街","SECT":" ","MAREA":" ","LANE":" ","ALLEY":" ","HOUSE_NO":"６０號","E_COORD97":170325.92000000001,"N_COORD97":2542750.02,"ADDRESS":"崇仁街６０號","OBJECTID":540899},"geometry":{"x":170325.92000000179,"y":2542750.0200000014}},{"attributes":{"ID":540927,"DIS_CODE":0,"TOWNNAME":"學甲區","LI":"仁得里","LIN":"12鄰","STREET":"民權路","SECT":" ","MAREA":" ","LANE":" ","ALLEY":" ","HOUSE_NO":"８２號","E_COORD97":165964.13,"N_COORD97":2570182.6499999999,"ADDRESS":"民權路８２號","OBJECTID":540900},"geometry":{"x":165964.12999999989,"y":2570182.6500000004}},{"attributes":{"ID":540928,"DIS_CODE":0,"TOWNNAME":"學甲區","LI":"仁得里","LIN":"12鄰","STREET":"民權路","SECT":" ","MAREA":" ","LANE":" ","ALLEY":" ","HOUSE_NO":"８４號","E_COORD97":165974.10999999999,"N_COORD97":2570184.1899999999,"ADDRESS":"民權路８４號","OBJECTID":540901},"geometry":{"x":165974.11000000127,"y":2570184.1900000013}},{"attributes":{"ID":540929,"DIS_CODE":0,"TOWNNAME":"學甲區","LI":"仁得里","LIN":"12鄰","STREET":"民權路","SECT":" ","MAREA":" ","LANE":" ","ALLEY":" ","HOUSE_NO":"８７號","E_COORD97":165942.78,"N_COORD97":2570160,"ADDRESS":"民權路８７號","OBJECTID":540902},"geometry":{"x":165942.78000000026,"y":2570160}},{"attributes":{"ID":540930,"DIS_CODE":0,"TOWNNAME":"學甲區","LI":"仁得里","LIN":"12鄰","STREET":"民權路","SECT":" ","MAREA":" ","LANE":" ","ALLEY":" ","HOUSE_NO":"８９號之１","E_COORD97":165965.63,"N_COORD97":2570128.3399999999,"ADDRESS":"民權路８９號之１","OBJECTID":540903},"geometry":{"x":165965.62999999989,"y":2570128.3400000017}},{"attributes":{"ID":540931,"DIS_CODE":0,"TOWNNAME":"學甲區","LI":"仁得里","LIN":"12鄰","STREET":"民權路","SECT":" ","MAREA":" ","LANE":" ","ALLEY":" ","HOUSE_NO":"８９號","E_COORD97":165935.03,"N_COORD97":2570160.3399999999,"ADDRESS":"民權路８９號","OBJECTID":540904},"geometry":{"x":165935.03000000212,"y":2570160.3399999999}},{"attributes":{"ID":540932,"DIS_CODE":0,"TOWNNAME":"學甲區","LI":"仁得里","LIN":"12鄰","STREET":"民權路","SECT":" ","MAREA":" ","LANE":" ","ALLEY":" ","HOUSE_NO":"９２號","E_COORD97":165957.53,"N_COORD97":2570180.3100000001,"ADDRESS":"民權路９２號","OBJECTID":540905},"geometry":{"x":165957.53000000119,"y":2570180.3100000024}},{"attributes":{"ID":540933,"DIS_CODE":0,"TOWNNAME":"學甲區","LI":"仁得里","LIN":"12鄰","STREET":"民權路","SECT":" ","MAREA":" ","LANE":" ","ALLEY":" ","HOUSE_NO":"９４號","E_COORD97":165951.03,"N_COORD97":2570181.1699999999,"ADDRESS":"民權路９４號","OBJECTID":540906},"geometry":{"x":165951.03000000119,"y":2570181.1700000018}},{"attributes":{"ID":540934,"DIS_CODE":0,"TOWNNAME":"學甲區","LI":"仁得里","LIN":"12鄰","STREET":"民權路","SECT":" ","MAREA":" ","LANE":" ","ALLEY":" ","HOUSE_NO":"９６號","E_COORD97":165945.31,"N_COORD97":2570182.7000000002,"ADDRESS":"民權路９６號","OBJECTID":540907},"geometry":{"x":165945.30999999959,"y":2570182.7000000011}},{"attributes":{"ID":540935,"DIS_CODE":0,"TOWNNAME":"學甲區","LI":"仁得里","LIN":"12鄰","STREET":"自立街","SECT":" ","MAREA":" ","LANE":" ","ALLEY":" ","HOUSE_NO":"１００號","E_COORD97":165912.81,"N_COORD97":2569979.73,"ADDRESS":"自立街１００號","OBJECTID":540908},"geometry":{"x":165912.81000000052,"y":2569979.7299999986}},{"attributes":{"ID":540936,"DIS_CODE":0,"TOWNNAME":"學甲區","LI":"仁得里","LIN":"12鄰","STREET":"自立街","SECT":" ","MAREA":" ","LANE":" ","ALLEY":" ","HOUSE_NO":"１０２號","E_COORD97":165908.10999999999,"N_COORD97":2569980.7000000002,"ADDRESS":"自立街１０２號","OBJECTID":540909},"geometry":{"x":165908.11000000127,"y":2569980.6999999993}},{"attributes":{"ID":540937,"DIS_CODE":0,"TOWNNAME":"學甲區","LI":"仁得里","LIN":"12鄰","STREET":"自立街","SECT":" ","MAREA":" ","LANE":" ","ALLEY":" ","HOUSE_NO":"６１號","E_COORD97":165954.76999999999,"N_COORD97":2569949.1299999999,"ADDRESS":"自立街６１號","OBJECTID":540910},"geometry":{"x":165954.77000000142,"y":2569949.1300000008}},{"attributes":{"ID":540938,"DIS_CODE":0,"TOWNNAME":"學甲區","LI":"仁得里","LIN":"12鄰","STREET":"自立街","SECT":" ","MAREA":" ","LANE":" ","ALLEY":" ","HOUSE_NO":"６３號","E_COORD97":165950.78,"N_COORD97":2569950.0099999998,"ADDRESS":"自立街６３號","OBJECTID":540911},"geometry":{"x":165950.78000000119,"y":2569950.0099999979}},{"attributes":{"ID":540939,"DIS_CODE":0,"TOWNNAME":"學甲區","LI":"仁得里","LIN":"12鄰","STREET":"自立街","SECT":" ","MAREA":" ","LANE":" ","ALLEY":" ","HOUSE_NO":"６５號","E_COORD97":165946.92999999999,"N_COORD97":2569951.29,"ADDRESS":"自立街６５號","OBJECTID":540912},"geometry":{"x":165946.93000000156,"y":2569951.290000001}},{"attributes":{"ID":540940,"DIS_CODE":0,"TOWNNAME":"學甲區","LI":"仁得里","LIN":"12鄰","STREET":"自立街","SECT":" ","MAREA":" ","LANE":" ","ALLEY":" ","HOUSE_NO":"６７號","E_COORD97":165942.89000000001,"N_COORD97":2569952.1400000001,"ADDRESS":"自立街６７號","OBJECTID":540913},"geometry":{"x":165942.8900000006,"y":2569952.1400000006}},{"attributes":{"ID":540941,"DIS_CODE":0,"TOWNNAME":"學甲區","LI":"仁得里","LIN":"12鄰","STREET":"自立街","SECT":" ","MAREA":" ","LANE":" ","ALLEY":" ","HOUSE_NO":"６９號","E_COORD97":165932.10999999999,"N_COORD97":2569951.9900000002,"ADDRESS":"自立街６９號","OBJECTID":540914},"geometry":{"x":165932.11000000034,"y":2569951.9900000021}},{"attributes":{"ID":540942,"DIS_CODE":0,"TOWNNAME":"學甲區","LI":"仁得里","LIN":"12鄰","STREET":"自立街","SECT":" ","MAREA":" ","LANE":" ","ALLEY":" ","HOUSE_NO":"９２號","E_COORD97":165940.95999999999,"N_COORD97":2569986.1499999999,"ADDRESS":"自立街９２號","OBJECTID":540915},"geometry":{"x":165940.96000000089,"y":2569986.1500000004}},{"attributes":{"ID":540943,"DIS_CODE":0,"TOWNNAME":"學甲區","LI":"仁得里","LIN":"12鄰","STREET":"自強路","SECT":" ","MAREA":" ","LANE":" ","ALLEY":" ","HOUSE_NO":"１０３號","E_COORD97":166032.60999999999,"N_COORD97":2569836.8700000001,"ADDRESS":"自強路１０３號","OBJECTID":540916},"geometry":{"x":166032.61000000034,"y":2569836.870000001}},{"attributes":{"ID":540944,"DIS_CODE":0,"TOWNNAME":"學甲區","LI":"仁得里","LIN":"12鄰","STREET":"自強路","SECT":" ","MAREA":" ","LANE":" ","ALLEY":" ","HOUSE_NO":"１０８號","E_COORD97":165873.04999999999,"N_COORD97":2569922.8399999999,"ADDRESS":"自強路１０８號","OBJECTID":540917},"geometry":{"x":165873.04999999981,"y":2569922.8399999999}},{"attributes":{"ID":540945,"DIS_CODE":0,"TOWNNAME":"學甲區","LI":"仁得里","LIN":"12鄰","STREET":"自強路","SECT":" ","MAREA":" ","LANE":" ","ALLEY":" ","HOUSE_NO":"１２１號","E_COORD97":165959.20999999999,"N_COORD97":2569865.5099999998,"ADDRESS":"自強路１２１號","OBJECTID":540918},"geometry":{"x":165959.21000000089,"y":2569865.5100000035}},{"attributes":{"ID":540946,"DIS_CODE":0,"TOWNNAME":"學甲區","LI":"仁得里","LIN":"12鄰","STREET":"自強路","SECT":" ","MAREA":" ","LANE":" ","ALLEY":" ","HOUSE_NO":"１２３號","E_COORD97":165949.98999999999,"N_COORD97":2569866.73,"ADDRESS":"自強路１２３號","OBJECTID":540919},"geometry":{"x":165949.99000000022,"y":2569866.7300000004}},{"attributes":{"ID":540947,"DIS_CODE":0,"TOWNNAME":"學甲區","LI":"仁得里","LIN":"12鄰","STREET":"自強路","SECT":" ","MAREA":" ","LANE":" ","ALLEY":" ","HOUSE_NO":"１３７號","E_COORD97":165903.01999999999,"N_COORD97":2569876.0800000001,"ADDRESS":"自強路１３７號","OBJECTID":540920},"geometry":{"x":165903.01999999955,"y":2569876.0800000019}},{"attributes":{"ID":540948,"DIS_CODE":0,"TOWNNAME":"學甲區","LI":"仁得里","LIN":"12鄰","STREET":"自強路","SECT":" ","MAREA":" ","LANE":" ","ALLEY":" ","HOUSE_NO":"７８號","E_COORD97":165939.85999999999,"N_COORD97":2569899.3999999999,"ADDRESS":"自強路７８號","OBJECTID":540921},"geometry":{"x":165939.86000000127,"y":2569899.4000000004}},{"attributes":{"ID":540949,"DIS_CODE":0,"TOWNNAME":"學甲區","LI":"仁得里","LIN":"12鄰","STREET":"自強路","SECT":" ","MAREA":" ","LANE":" ","ALLEY":" ","HOUSE_NO":"８０號","E_COORD97":165935.34,"N_COORD97":2569900.5800000001,"ADDRESS":"自強路８０號","OBJECTID":540922},"geometry":{"x":165935.33999999985,"y":2569900.5800000019}},{"attributes":{"ID":540950,"DIS_CODE":0,"TOWNNAME":"學甲區","LI":"仁得里","LIN":"12鄰","STREET":"自強路","SECT":" ","MAREA":" ","LANE":" ","ALLEY":" ","HOUSE_NO":"８２號","E_COORD97":165930.91,"N_COORD97":2569901.8500000001,"ADDRESS":"自強路８２號","OBJECTID":540923},"geometry":{"x":165930.91000000108,"y":2569901.8500000015}},{"attributes":{"ID":540951,"DIS_CODE":0,"TOWNNAME":"學甲區","LI":"仁得里","LIN":"12鄰","STREET":"自強路","SECT":" ","MAREA":" ","LANE":" ","ALLEY":" ","HOUSE_NO":"８４號","E_COORD97":165926.39000000001,"N_COORD97":2569902.8500000001,"ADDRESS":"自強路８４號","OBJECTID":540924},"geometry":{"x":165926.38999999966,"y":2569902.8499999996}},{"attributes":{"ID":540952,"DIS_CODE":0,"TOWNNAME":"學甲區","LI":"仁得里","LIN":"12鄰","STREET":"自強路","SECT":" ","MAREA":" ","LANE":" ","ALLEY":" ","HOUSE_NO":"８６號","E_COORD97":165922.01000000001,"N_COORD97":2569904.2000000002,"ADDRESS":"自強路８６號","OBJECTID":540925},"geometry":{"x":165922.00999999978,"y":2569904.200000003}},{"attributes":{"ID":540953,"DIS_CODE":0,"TOWNNAME":"學甲區","LI":"仁得里","LIN":"12鄰","STREET":"和平路","SECT":" ","MAREA":" ","LANE":" ","ALLEY":" ","HOUSE_NO":"１４２號","E_COORD97":165880.42000000001,"N_COORD97":2569970.1299999999,"ADDRESS":"和平路１４２號","OBJECTID":540926},"geometry":{"x":165880.41999999993,"y":2569970.1300000008}},{"attributes":{"ID":540954,"DIS_CODE":0,"TOWNNAME":"學甲區","LI":"仁得里","LIN":"12鄰","STREET":"和平路","SECT":" ","MAREA":" ","LANE":" ","ALLEY":" ","HOUSE_NO":"１４４號","E_COORD97":165884.32000000001,"N_COORD97":2569984.77,"ADDRESS":"和平路１４４號","OBJECTID":540927},"geometry":{"x":165884.32000000123,"y":2569984.7699999996}},{"attributes":{"ID":540955,"DIS_CODE":0,"TOWNNAME":"學甲區","LI":"仁得里","LIN":"12鄰","STREET":"和平路","SECT":" ","MAREA":" ","LANE":" ","ALLEY":" ","HOUSE_NO":"１４６號","E_COORD97":165883.89000000001,"N_COORD97":2569990.0699999998,"ADDRESS":"和平路１４６號","OBJECTID":540928},"geometry":{"x":165883.88999999966,"y":2569990.0700000003}},{"attributes":{"ID":540956,"DIS_CODE":0,"TOWNNAME":"學甲區","LI":"仁得里","LIN":"12鄰","STREET":"和平路","SECT":" ","MAREA":" ","LANE":" ","ALLEY":" ","HOUSE_NO":"１４８號","E_COORD97":165885.70999999999,"N_COORD97":2569994.6400000001,"ADDRESS":"和平路１４８號","OBJECTID":540929},"geometry":{"x":165885.70999999996,"y":2569994.6400000025}},{"attributes":{"ID":540957,"DIS_CODE":0,"TOWNNAME":"學甲區","LI":"仁得里","LIN":"12鄰","STREET":"和平路","SECT":" ","MAREA":" ","LANE":" ","ALLEY":" ","HOUSE_NO":"１４號","E_COORD97":165813.10000000001,"N_COORD97":2569731.0600000001,"ADDRESS":"和平路１４號","OBJECTID":540930},"geometry":{"x":165813.09999999963,"y":2569731.0600000024}},{"attributes":{"ID":540958,"DIS_CODE":0,"TOWNNAME":"學甲區","LI":"仁得里","LIN":"12鄰","STREET":"和平路","SECT":" ","MAREA":" ","LANE":" ","ALLEY":" ","HOUSE_NO":"１５０號","E_COORD97":165886.95000000001,"N_COORD97":2569998.9399999999,"ADDRESS":"和平路１５０號","OBJECTID":540931},"geometry":{"x":165886.95000000112,"y":2569998.9400000013}},{"attributes":{"ID":540959,"DIS_CODE":0,"TOWNNAME":"學甲區","LI":"仁得里","LIN":"12鄰","STREET":"和平路","SECT":" ","MAREA":" ","LANE":" ","ALLEY":" ","HOUSE_NO":"１５２號","E_COORD97":165887.92999999999,"N_COORD97":2570003.1299999999,"ADDRESS":"和平路１５２號","OBJECTID":540932},"geometry":{"x":165887.93000000063,"y":2570003.1300000008}},{"attributes":{"ID":540960,"DIS_CODE":0,"TOWNNAME":"學甲區","LI":"仁得里","LIN":"12鄰","STREET":"和平路","SECT":" ","MAREA":" ","LANE":" ","ALLEY":" ","HOUSE_NO":"１５４號之１","E_COORD97":165902.22,"N_COORD97":2570000.0800000001,"ADDRESS":"和平路１５４號之１","OBJECTID":540933},"geometry":{"x":165902.21999999974,"y":2570000.0800000001}},{"attributes":{"ID":540961,"DIS_CODE":0,"TOWNNAME":"學甲區","LI":"仁得里","LIN":"12鄰","STREET":"和平路","SECT":" ","MAREA":" ","LANE":" ","ALLEY":" ","HOUSE_NO":"１５４號之２","E_COORD97":165907,"N_COORD97":2569999.1800000002,"ADDRESS":"和平路１５４號之２","OBJECTID":540934},"geometry":{"x":165907,"y":2569999.1799999997}},{"attributes":{"ID":540962,"DIS_CODE":0,"TOWNNAME":"學甲區","LI":"仁得里","LIN":"12鄰","STREET":"和平路","SECT":" ","MAREA":" ","LANE":" ","ALLEY":" ","HOUSE_NO":"１５４號","E_COORD97":165888.94,"N_COORD97":2570007.3300000001,"ADDRESS":"和平路１５４號","OBJECTID":540935},"geometry":{"x":165888.94000000134,"y":2570007.3300000019}},{"attributes":{"ID":540963,"DIS_CODE":0,"TOWNNAME":"學甲區","LI":"仁得里","LIN":"12鄰","STREET":"和平路","SECT":" ","MAREA":" ","LANE":" ","ALLEY":" ","HOUSE_NO":"１５６號之１","E_COORD97":165908.69,"N_COORD97":2570015.9500000002,"ADDRESS":"和平路１５６號之１","OBJECTID":540936},"geometry":{"x":165908.69000000227,"y":2570015.9500000011}},{"attributes":{"ID":540964,"DIS_CODE":0,"TOWNNAME":"學甲區","LI":"仁得里","LIN":"12鄰","STREET":"和平路","SECT":" ","MAREA":" ","LANE":" ","ALLEY":" ","HOUSE_NO":"１５６號之２","E_COORD97":165913.72,"N_COORD97":2570015.1699999999,"ADDRESS":"和平路１５６號之２","OBJECTID":540937},"geometry":{"x":165913.71999999974,"y":2570015.1700000018}},{"attributes":{"ID":540965,"DIS_CODE":0,"TOWNNAME":"學甲區","LI":"仁得里","LIN":"12鄰","STREET":"和平路","SECT":" ","MAREA":" ","LANE":" ","ALLEY":" ","HOUSE_NO":"１５６號","E_COORD97":165893.64999999999,"N_COORD97":2570016.0800000001,"ADDRESS":"和平路１５６號","OBJECTID":540938},"geometry":{"x":165893.65000000224,"y":2570016.0800000019}},{"attributes":{"ID":540966,"DIS_CODE":0,"TOWNNAME":"學甲區","LI":"仁得里","LIN":"12鄰","STREET":"和平路","SECT":" ","MAREA":" ","LANE":" ","ALLEY":" ","HOUSE_NO":"１５８號","E_COORD97":165895.10000000001,"N_COORD97":2570021.0600000001,"ADDRESS":"和平路１５８號","OBJECTID":540939},"geometry":{"x":165895.10000000056,"y":2570021.0600000005}},{"attributes":{"ID":540967,"DIS_CODE":0,"TOWNNAME":"學甲區","LI":"仁得里","LIN":"12鄰","STREET":"和平路","SECT":" ","MAREA":" ","LANE":" ","ALLEY":" ","HOUSE_NO":"１６０號","E_COORD97":165896.23999999999,"N_COORD97":2570025.79,"ADDRESS":"和平路１６０號","OBJECTID":540940},"geometry":{"x":165896.24000000209,"y":2570025.7900000028}},{"attributes":{"ID":540968,"DIS_CODE":0,"TOWNNAME":"東區","LI":"和平里","LIN":"20鄰","STREET":"文化三街","SECT":" ","MAREA":" ","LANE":" ","ALLEY":" ","HOUSE_NO":"２之１號","E_COORD97":171153.26000000001,"N_COORD97":2541803.2799999998,"ADDRESS":"文化三街２之１號","OBJECTID":540941},"geometry":{"x":171153.26000000071,"y":2541803.2799999993}},{"attributes":{"ID":540969,"DIS_CODE":0,"TOWNNAME":"東區","LI":"和平里","LIN":"20鄰","STREET":"文化三街","SECT":" ","MAREA":" ","LANE":" ","ALLEY":" ","HOUSE_NO":"２之２號","E_COORD97":171154.91,"N_COORD97":2541798.5800000001,"ADDRESS":"文化三街２之２號","OBJECTID":540942},"geometry":{"x":171154.91000000015,"y":2541798.5800000001}},{"attributes":{"ID":540970,"DIS_CODE":0,"TOWNNAME":"東區","LI":"和平里","LIN":"20鄰","STREET":"文化三街","SECT":" ","MAREA":" ","LANE":" ","ALLEY":" ","HOUSE_NO":"２之３號","E_COORD97":171157.5,"N_COORD97":2541792.9399999999,"ADDRESS":"文化三街２之３號","OBJECTID":540943},"geometry":{"x":171157.5,"y":2541792.9399999995}},{"attributes":{"ID":540971,"DIS_CODE":0,"TOWNNAME":"東區","LI":"和平里","LIN":"20鄰","STREET":"文化三街","SECT":" ","MAREA":" ","LANE":" ","ALLEY":" ","HOUSE_NO":"２之５號","E_COORD97":171159.85000000001,"N_COORD97":2541787.29,"ADDRESS":"文化三街２之５號","OBJECTID":540944},"geometry":{"x":171159.84999999963,"y":2541787.2900000028}},{"attributes":{"ID":540972,"DIS_CODE":0,"TOWNNAME":"東區","LI":"和平里","LIN":"20鄰","STREET":"文化三街","SECT":" ","MAREA":" ","LANE":" ","ALLEY":" ","HOUSE_NO":"２號","E_COORD97":171149.73999999999,"N_COORD97":2541809.3999999999,"ADDRESS":"文化三街２號","OBJECTID":540945},"geometry":{"x":171149.74000000209,"y":2541809.4000000022}},{"attributes":{"ID":540973,"DIS_CODE":0,"TOWNNAME":"東區","LI":"和平里","LIN":"20鄰","STREET":"文化三街","SECT":" ","MAREA":" ","LANE":" ","ALLEY":" ","HOUSE_NO":"６之１號","E_COORD97":171167.37,"N_COORD97":2541807.98,"ADDRESS":"文化三街６之１號","OBJECTID":540946},"geometry":{"x":171167.37000000197,"y":2541807.9800000023}},{"attributes":{"ID":540974,"DIS_CODE":0,"TOWNNAME":"東區","LI":"和平里","LIN":"20鄰","STREET":"文化三街","SECT":" ","MAREA":" ","LANE":" ","ALLEY":" ","HOUSE_NO":"６之２號","E_COORD97":171170.19,"N_COORD97":2541802.3399999999,"ADDRESS":"文化三街６之２號","OBJECTID":540947},"geometry":{"x":171170.19000000041,"y":2541802.3400000017}},{"attributes":{"ID":540975,"DIS_CODE":0,"TOWNNAME":"東區","LI":"和平里","LIN":"20鄰","STREET":"文化三街","SECT":" ","MAREA":" ","LANE":" ","ALLEY":" ","HOUSE_NO":"６之３號","E_COORD97":171171.60000000001,"N_COORD97":2541797.3999999999,"ADDRESS":"文化三街６之３號","OBJECTID":540948},"geometry":{"x":171171.59999999963,"y":2541797.4000000004}},{"attributes":{"ID":540976,"DIS_CODE":0,"TOWNNAME":"東區","LI":"和平里","LIN":"20鄰","STREET":"文化三街","SECT":" ","MAREA":" ","LANE":" ","ALLEY":" ","HOUSE_NO":"６之５號","E_COORD97":171172.54000000001,"N_COORD97":2541790.5899999999,"ADDRESS":"文化三街６之５號","OBJECTID":540949},"geometry":{"x":171172.54000000004,"y":2541790.5900000017}},{"attributes":{"ID":540977,"DIS_CODE":0,"TOWNNAME":"東區","LI":"和平里","LIN":"20鄰","STREET":"文化三街","SECT":" ","MAREA":" ","LANE":" ","ALLEY":" ","HOUSE_NO":"６號","E_COORD97":171163.84,"N_COORD97":2541814.1000000001,"ADDRESS":"文化三街６號","OBJECTID":540950},"geometry":{"x":171163.84000000171,"y":2541814.1000000015}},{"attributes":{"ID":540978,"DIS_CODE":0,"TOWNNAME":"東區","LI":"虎尾里","LIN":"1鄰","STREET":"東門路","SECT":"三段","MAREA":" ","LANE":" ","ALLEY":" ","HOUSE_NO":"２０１號","E_COORD97":171550.98999999999,"N_COORD97":2541976.6000000001,"ADDRESS":"東門路三段２０１號","OBJECTID":540951},"geometry":{"x":171550.99000000022,"y":2541976.6000000015}},{"attributes":{"ID":540979,"DIS_CODE":0,"TOWNNAME":"東區","LI":"崇信里","LIN":"19鄰","STREET":"中華東路","SECT":"三段","MAREA":" ","LANE":" ","ALLEY":" ","HOUSE_NO":"８６號","E_COORD97":170817.67999999999,"N_COORD97":2542217.6000000001,"ADDRESS":"中華東路三段８６號","OBJECTID":540952},"geometry":{"x":170817.68000000063,"y":2542217.6000000015}},{"attributes":{"ID":540980,"DIS_CODE":0,"TOWNNAME":"東區","LI":"崇信里","LIN":"19鄰","STREET":"中華東路","SECT":"三段","MAREA":" ","LANE":" ","ALLEY":" ","HOUSE_NO":"８８號","E_COORD97":170812.75,"N_COORD97":2542212.3100000001,"ADDRESS":"中華東路三段８８號","OBJECTID":540953},"geometry":{"x":170812.75000000093,"y":2542212.3100000042}},{"attributes":{"ID":540981,"DIS_CODE":0,"TOWNNAME":"東區","LI":"崇信里","LIN":"19鄰","STREET":"崇信街","SECT":" ","MAREA":" ","LANE":" ","ALLEY":" ","HOUSE_NO":"１４８號","E_COORD97":170806.51999999999,"N_COORD97":2542226.9900000002,"ADDRESS":"崇信街１４８號","OBJECTID":540954},"geometry":{"x":170806.52000000048,"y":2542226.9900000002}},{"attributes":{"ID":540982,"DIS_CODE":0,"TOWNNAME":"學甲區","LI":"仁得里","LIN":"12鄰","STREET":"和平路","SECT":" ","MAREA":" ","LANE":" ","ALLEY":" ","HOUSE_NO":"１６２號","E_COORD97":165897.07000000001,"N_COORD97":2570030.23,"ADDRESS":"和平路１６２號","OBJECTID":540955},"geometry":{"x":165897.0700000003,"y":2570030.2300000004}},{"attributes":{"ID":540983,"DIS_CODE":0,"TOWNNAME":"學甲區","LI":"仁得里","LIN":"12鄰","STREET":"和平路","SECT":" ","MAREA":" ","LANE":" ","ALLEY":" ","HOUSE_NO":"１６８號","E_COORD97":165912.85999999999,"N_COORD97":2570089.9300000002,"ADDRESS":"和平路１６８號","OBJECTID":540956},"geometry":{"x":165912.86000000127,"y":2570089.9300000016}},{"attributes":{"ID":540984,"DIS_CODE":0,"TOWNNAME":"學甲區","LI":"仁得里","LIN":"12鄰","STREET":"和平路","SECT":" ","MAREA":" ","LANE":" ","ALLEY":" ","HOUSE_NO":"１６號","E_COORD97":165814.07999999999,"N_COORD97":2569735.04,"ADDRESS":"和平路１６號","OBJECTID":540957},"geometry":{"x":165814.08000000194,"y":2569735.0399999991}},{"attributes":{"ID":540985,"DIS_CODE":0,"TOWNNAME":"學甲區","LI":"仁得里","LIN":"12鄰","STREET":"和平路","SECT":" ","MAREA":" ","LANE":" ","ALLEY":" ","HOUSE_NO":"１７０號","E_COORD97":165914.17000000001,"N_COORD97":2570094.3599999999,"ADDRESS":"和平路１７０號","OBJECTID":540958},"geometry":{"x":165914.17000000086,"y":2570094.3600000013}},{"attributes":{"ID":540986,"DIS_CODE":0,"TOWNNAME":"學甲區","LI":"仁得里","LIN":"12鄰","STREET":"和平路","SECT":" ","MAREA":" ","LANE":" ","ALLEY":" ","HOUSE_NO":"１７２號","E_COORD97":165915.45999999999,"N_COORD97":2570098.23,"ADDRESS":"和平路１７２號","OBJECTID":540959},"geometry":{"x":165915.46000000089,"y":2570098.2300000004}},{"attributes":{"ID":540987,"DIS_CODE":0,"TOWNNAME":"學甲區","LI":"仁得里","LIN":"12鄰","STREET":"和平路","SECT":" ","MAREA":" ","LANE":" ","ALLEY":" ","HOUSE_NO":"１７４號","E_COORD97":165916.79999999999,"N_COORD97":2570102.9500000002,"ADDRESS":"和平路１７４號","OBJECTID":540960},"geometry":{"x":165916.79999999981,"y":2570102.9500000011}},{"attributes":{"ID":540988,"DIS_CODE":0,"TOWNNAME":"學甲區","LI":"仁得里","LIN":"12鄰","STREET":"和平路","SECT":" ","MAREA":" ","LANE":" ","ALLEY":" ","HOUSE_NO":"１７６號","E_COORD97":165918.32999999999,"N_COORD97":2570107.7999999998,"ADDRESS":"和平路１７６號","OBJECTID":540961},"geometry":{"x":165918.33000000101,"y":2570107.8000000007}},{"attributes":{"ID":540989,"DIS_CODE":0,"TOWNNAME":"學甲區","LI":"仁得里","LIN":"12鄰","STREET":"和平路","SECT":" ","MAREA":" ","LANE":" ","ALLEY":" ","HOUSE_NO":"１７８號","E_COORD97":165919.48000000001,"N_COORD97":2570112.23,"ADDRESS":"和平路１７８號","OBJECTID":540962},"geometry":{"x":165919.48000000045,"y":2570112.2300000042}},{"attributes":{"ID":540990,"DIS_CODE":0,"TOWNNAME":"學甲區","LI":"仁得里","LIN":"12鄰","STREET":"和平路","SECT":" ","MAREA":" ","LANE":" ","ALLEY":" ","HOUSE_NO":"１８２號","E_COORD97":165922.92999999999,"N_COORD97":2570120.6600000001,"ADDRESS":"和平路１８２號","OBJECTID":540963},"geometry":{"x":165922.9299999997,"y":2570120.660000002}},{"attributes":{"ID":540991,"DIS_CODE":0,"TOWNNAME":"學甲區","LI":"仁得里","LIN":"12鄰","STREET":"和平路","SECT":" ","MAREA":" ","LANE":" ","ALLEY":" ","HOUSE_NO":"１８４號","E_COORD97":165923.48999999999,"N_COORD97":2570124.98,"ADDRESS":"和平路１８４號","OBJECTID":540964},"geometry":{"x":165923.49000000209,"y":2570124.9800000023}},{"attributes":{"ID":540992,"DIS_CODE":0,"TOWNNAME":"東區","LI":"崇文里","LIN":"3鄰","STREET":"崇德十六街","SECT":" ","MAREA":" ","LANE":" ","ALLEY":" ","HOUSE_NO":"３９之２號","E_COORD97":170934.14000000001,"N_COORD97":2541143.29,"ADDRESS":"崇德十六街３９之２號","OBJECTID":540965},"geometry":{"x":170934.13999999966,"y":2541143.290000001}},{"attributes":{"ID":540993,"DIS_CODE":0,"TOWNNAME":"東區","LI":"南聖里","LIN":"14鄰","STREET":"裕農路","SECT":" ","MAREA":" ","LANE":" ","ALLEY":" ","HOUSE_NO":"９６０號","E_COORD97":172571.935558,"N_COORD97":2543367.4492299999,"ADDRESS":"裕農路９６０號","OBJECTID":540966},"geometry":{"x":172571.93555800058,"y":2543367.4492269997}},{"attributes":{"ID":540994,"DIS_CODE":0,"TOWNNAME":"東區","LI":"南聖里","LIN":"10鄰","STREET":"裕平一街","SECT":" ","MAREA":" ","LANE":" ","ALLEY":" ","HOUSE_NO":"１７６號","E_COORD97":172374.10999999999,"N_COORD97":2543223.0899999999,"ADDRESS":"裕平一街１７６號","OBJECTID":540967},"geometry":{"x":172374.11000000034,"y":2543223.089999998}},{"attributes":{"ID":540995,"DIS_CODE":0,"TOWNNAME":"學甲區","LI":"仁得里","LIN":"12鄰","STREET":"和平路","SECT":" ","MAREA":" ","LANE":" ","ALLEY":" ","HOUSE_NO":"１８６號","E_COORD97":165924.32999999999,"N_COORD97":2570129.3799999999,"ADDRESS":"和平路１８６號","OBJECTID":540968},"geometry":{"x":165924.33000000194,"y":2570129.379999999}},{"attributes":{"ID":540996,"DIS_CODE":0,"TOWNNAME":"學甲區","LI":"仁得里","LIN":"12鄰","STREET":"和平路","SECT":" ","MAREA":" ","LANE":" ","ALLEY":" ","HOUSE_NO":"１８８號","E_COORD97":165926.23999999999,"N_COORD97":2570134.5299999998,"ADDRESS":"和平路１８８號","OBJECTID":540969},"geometry":{"x":165926.24000000022,"y":2570134.5299999993}},{"attributes":{"ID":540997,"DIS_CODE":0,"TOWNNAME":"學甲區","LI":"仁得里","LIN":"12鄰","STREET":"和平路","SECT":" ","MAREA":" ","LANE":" ","ALLEY":" ","HOUSE_NO":"１８號","E_COORD97":165815.07999999999,"N_COORD97":2569738.7799999998,"ADDRESS":"和平路１８號","OBJECTID":540970},"geometry":{"x":165815.08000000007,"y":2569738.7800000012}},{"attributes":{"ID":540998,"DIS_CODE":0,"TOWNNAME":"學甲區","LI":"仁得里","LIN":"12鄰","STREET":"和平路","SECT":" ","MAREA":" ","LANE":" ","ALLEY":" ","HOUSE_NO":"２００號","E_COORD97":165941.48999999999,"N_COORD97":2570195.9100000001,"ADDRESS":"和平路２００號","OBJECTID":540971},"geometry":{"x":165941.49000000022,"y":2570195.910000002}},{"attributes":{"ID":540999,"DIS_CODE":0,"TOWNNAME":"學甲區","LI":"仁得里","LIN":"12鄰","STREET":"和平路","SECT":" ","MAREA":" ","LANE":" ","ALLEY":" ","HOUSE_NO":"２０２號","E_COORD97":165943.95000000001,"N_COORD97":2570203.6400000001,"ADDRESS":"和平路２０２號","OBJECTID":540972},"geometry":{"x":165943.95000000205,"y":2570203.6400000006}},{"attributes":{"ID":541000,"DIS_CODE":0,"TOWNNAME":"學甲區","LI":"仁得里","LIN":"12鄰","STREET":"和平路","SECT":" ","MAREA":" ","LANE":" ","ALLEY":" ","HOUSE_NO":"２０６號","E_COORD97":165955.79000000001,"N_COORD97":2570220.8199999998,"ADDRESS":"和平路２０６號","OBJECTID":540973},"geometry":{"x":165955.79000000097,"y":2570220.8200000022}},{"attributes":{"ID":541001,"DIS_CODE":0,"TOWNNAME":"學甲區","LI":"仁得里","LIN":"12鄰","STREET":"和平路","SECT":" ","MAREA":" ","LANE":" ","ALLEY":" ","HOUSE_NO":"２０號","E_COORD97":165816.47,"N_COORD97":2569743.3599999999,"ADDRESS":"和平路２０號","OBJECTID":540974},"geometry":{"x":165816.47000000067,"y":2569743.3599999994}},{"attributes":{"ID":541002,"DIS_CODE":0,"TOWNNAME":"學甲區","LI":"仁得里","LIN":"12鄰","STREET":"和平路","SECT":" ","MAREA":" ","LANE":" ","ALLEY":" ","HOUSE_NO":"２１８號","E_COORD97":165962.17999999999,"N_COORD97":2570236.3599999999,"ADDRESS":"和平路２１８號","OBJECTID":540975},"geometry":{"x":165962.17999999877,"y":2570236.3600000013}},{"attributes":{"ID":541003,"DIS_CODE":0,"TOWNNAME":"學甲區","LI":"仁得里","LIN":"12鄰","STREET":"和平路","SECT":" ","MAREA":" ","LANE":" ","ALLEY":" ","HOUSE_NO":"２２８號","E_COORD97":165969.94,"N_COORD97":2570246.6699999999,"ADDRESS":"和平路２２８號","OBJECTID":540976},"geometry":{"x":165969.94000000134,"y":2570246.6699999999}},{"attributes":{"ID":541004,"DIS_CODE":0,"TOWNNAME":"學甲區","LI":"仁得里","LIN":"12鄰","STREET":"和平路","SECT":" ","MAREA":" ","LANE":" ","ALLEY":" ","HOUSE_NO":"２２號","E_COORD97":165817.48000000001,"N_COORD97":2569747.27,"ADDRESS":"和平路２２號","OBJECTID":540977},"geometry":{"x":165817.48000000138,"y":2569747.2699999996}},{"attributes":{"ID":541005,"DIS_CODE":0,"TOWNNAME":"學甲區","LI":"仁得里","LIN":"12鄰","STREET":"和平路","SECT":" ","MAREA":" ","LANE":" ","ALLEY":" ","HOUSE_NO":"２４號","E_COORD97":165819.14999999999,"N_COORD97":2569751.21,"ADDRESS":"和平路２４號","OBJECTID":540978},"geometry":{"x":165819.15000000224,"y":2569751.2100000028}},{"attributes":{"ID":541006,"DIS_CODE":0,"TOWNNAME":"學甲區","LI":"明宜里","LIN":"12鄰","STREET":"和平路","SECT":" ","MAREA":" ","LANE":" ","ALLEY":" ","HOUSE_NO":"２９４號","E_COORD97":166013.29999999999,"N_COORD97":2570461.2400000002,"ADDRESS":"和平路２９４號","OBJECTID":540979},"geometry":{"x":166013.29999999981,"y":2570461.2400000039}},{"attributes":{"ID":541007,"DIS_CODE":0,"TOWNNAME":"學甲區","LI":"明宜里","LIN":"12鄰","STREET":"和平路","SECT":" ","MAREA":" ","LANE":" ","ALLEY":" ","HOUSE_NO":"２９６號","E_COORD97":166015.01000000001,"N_COORD97":2570465.5099999998,"ADDRESS":"和平路２９６號","OBJECTID":540980},"geometry":{"x":166015.01000000071,"y":2570465.5100000035}},{"attributes":{"ID":541008,"DIS_CODE":0,"TOWNNAME":"學甲區","LI":"仁得里","LIN":"12鄰","STREET":"和平路","SECT":" ","MAREA":" ","LANE":" ","ALLEY":" ","HOUSE_NO":"４６號","E_COORD97":165842.57000000001,"N_COORD97":2569841.8300000001,"ADDRESS":"和平路４６號","OBJECTID":540981},"geometry":{"x":165842.5700000003,"y":2569841.8300000001}},{"attributes":{"ID":541009,"DIS_CODE":0,"TOWNNAME":"學甲區","LI":"仁得里","LIN":"12鄰","STREET":"和平路","SECT":" ","MAREA":" ","LANE":" ","ALLEY":" ","HOUSE_NO":"４８號","E_COORD97":165844.07999999999,"N_COORD97":2569848.6299999999,"ADDRESS":"和平路４８號","OBJECTID":540982},"geometry":{"x":165844.08000000007,"y":2569848.629999999}},{"attributes":{"ID":541010,"DIS_CODE":0,"TOWNNAME":"學甲區","LI":"仁得里","LIN":"12鄰","STREET":"和平路","SECT":" ","MAREA":" ","LANE":" ","ALLEY":" ","HOUSE_NO":"５０號","E_COORD97":165845.72,"N_COORD97":2569853.1800000002,"ADDRESS":"和平路５０號","OBJECTID":540983},"geometry":{"x":165845.72000000067,"y":2569853.1799999997}},{"attributes":{"ID":541011,"DIS_CODE":0,"TOWNNAME":"學甲區","LI":"仁得里","LIN":"12鄰","STREET":"和平路","SECT":" ","MAREA":" ","LANE":" ","ALLEY":" ","HOUSE_NO":"５２號之１","E_COORD97":165845.31,"N_COORD97":2569863.52,"ADDRESS":"和平路５２號之１","OBJECTID":540984},"geometry":{"x":165845.30999999959,"y":2569863.5199999996}},{"attributes":{"ID":541012,"DIS_CODE":0,"TOWNNAME":"學甲區","LI":"仁得里","LIN":"12鄰","STREET":"和平路","SECT":" ","MAREA":" ","LANE":" ","ALLEY":" ","HOUSE_NO":"５２號","E_COORD97":165847.28,"N_COORD97":2569858.04,"ADDRESS":"和平路５２號","OBJECTID":540985},"geometry":{"x":165847.28000000119,"y":2569858.040000001}},{"attributes":{"ID":541013,"DIS_CODE":0,"TOWNNAME":"學甲區","LI":"仁得里","LIN":"12鄰","STREET":"和平路","SECT":" ","MAREA":" ","LANE":" ","ALLEY":" ","HOUSE_NO":"５６號","E_COORD97":165849.47,"N_COORD97":2569867.6200000001,"ADDRESS":"和平路５６號","OBJECTID":540986},"geometry":{"x":165849.46999999974,"y":2569867.6200000029}},{"attributes":{"ID":541014,"DIS_CODE":0,"TOWNNAME":"學甲區","LI":"仁得里","LIN":"12鄰","STREET":"和平路","SECT":" ","MAREA":" ","LANE":" ","ALLEY":" ","HOUSE_NO":"５８號","E_COORD97":165852.04999999999,"N_COORD97":2569871.1800000002,"ADDRESS":"和平路５８號","OBJECTID":540987},"geometry":{"x":165852.05000000075,"y":2569871.1800000034}},{"attributes":{"ID":541015,"DIS_CODE":0,"TOWNNAME":"學甲區","LI":"仁得里","LIN":"12鄰","STREET":"和平路","SECT":" ","MAREA":" ","LANE":" ","ALLEY":" ","HOUSE_NO":"６０號","E_COORD97":165853.76999999999,"N_COORD97":2569875.7000000002,"ADDRESS":"和平路６０號","OBJECTID":540988},"geometry":{"x":165853.77000000048,"y":2569875.6999999993}},{"attributes":{"ID":541016,"DIS_CODE":0,"TOWNNAME":"學甲區","LI":"仁得里","LIN":"12鄰","STREET":"和平路","SECT":" ","MAREA":" ","LANE":" ","ALLEY":" ","HOUSE_NO":"６２號","E_COORD97":165854.89999999999,"N_COORD97":2569879.4700000002,"ADDRESS":"和平路６２號","OBJECTID":540989},"geometry":{"x":165854.9000000013,"y":2569879.4700000007}},{"attributes":{"ID":541017,"DIS_CODE":0,"TOWNNAME":"學甲區","LI":"仁得里","LIN":"12鄰","STREET":"建國路","SECT":" ","MAREA":" ","LANE":" ","ALLEY":" ","HOUSE_NO":"１００號","E_COORD97":165907,"N_COORD97":2570067.2200000002,"ADDRESS":"建國路１００號","OBJECTID":540990},"geometry":{"x":165907,"y":2570067.2200000007}},{"attributes":{"ID":541018,"DIS_CODE":0,"TOWNNAME":"學甲區","LI":"仁得里","LIN":"12鄰","STREET":"建國路","SECT":" ","MAREA":" ","LANE":" ","ALLEY":" ","HOUSE_NO":"１０５號","E_COORD97":165962.64999999999,"N_COORD97":2570026.6099999999,"ADDRESS":"建國路１０５號","OBJECTID":540991},"geometry":{"x":165962.65000000037,"y":2570026.6099999994}},{"attributes":{"ID":541019,"DIS_CODE":0,"TOWNNAME":"學甲區","LI":"仁得里","LIN":"12鄰","STREET":"建國路","SECT":" ","MAREA":" ","LANE":" ","ALLEY":" ","HOUSE_NO":"１０７號","E_COORD97":165958.13,"N_COORD97":2570027.4100000001,"ADDRESS":"建國路１０７號","OBJECTID":540992},"geometry":{"x":165958.13000000082,"y":2570027.410000002}},{"attributes":{"ID":541020,"DIS_CODE":0,"TOWNNAME":"學甲區","LI":"仁得里","LIN":"12鄰","STREET":"建國路","SECT":" ","MAREA":" ","LANE":" ","ALLEY":" ","HOUSE_NO":"１０９號","E_COORD97":165953.60999999999,"N_COORD97":2570028.21,"ADDRESS":"建國路１０９號","OBJECTID":540993},"geometry":{"x":165953.61000000127,"y":2570028.2100000046}},{"attributes":{"ID":541021,"DIS_CODE":0,"TOWNNAME":"學甲區","LI":"仁得里","LIN":"12鄰","STREET":"建國路","SECT":" ","MAREA":" ","LANE":" ","ALLEY":" ","HOUSE_NO":"１１１號","E_COORD97":165949.10000000001,"N_COORD97":2570029.0099999998,"ADDRESS":"建國路１１１號","OBJECTID":540994},"geometry":{"x":165949.10000000149,"y":2570029.0100000016}},{"attributes":{"ID":541022,"DIS_CODE":0,"TOWNNAME":"學甲區","LI":"仁得里","LIN":"12鄰","STREET":"建國路","SECT":" ","MAREA":" ","LANE":" ","ALLEY":" ","HOUSE_NO":"１１３號","E_COORD97":165944.57999999999,"N_COORD97":2570029.8100000001,"ADDRESS":"建國路１１３號","OBJECTID":540995},"geometry":{"x":165944.57999999914,"y":2570029.8100000005}},{"attributes":{"ID":541023,"DIS_CODE":0,"TOWNNAME":"學甲區","LI":"仁得里","LIN":"12鄰","STREET":"建國路","SECT":" ","MAREA":" ","LANE":" ","ALLEY":" ","HOUSE_NO":"１１５號","E_COORD97":165940.06,"N_COORD97":2570030.6099999999,"ADDRESS":"建國路１１５號","OBJECTID":540996},"geometry":{"x":165940.06000000052,"y":2570030.6100000031}},{"attributes":{"ID":541024,"DIS_CODE":0,"TOWNNAME":"學甲區","LI":"仁得里","LIN":"12鄰","STREET":"建國路","SECT":" ","MAREA":" ","LANE":" ","ALLEY":" ","HOUSE_NO":"１１７號","E_COORD97":165935.54000000001,"N_COORD97":2570031.4100000001,"ADDRESS":"建國路１１７號","OBJECTID":540997},"geometry":{"x":165935.54000000097,"y":2570031.4100000001}},{"attributes":{"ID":541025,"DIS_CODE":0,"TOWNNAME":"學甲區","LI":"仁得里","LIN":"12鄰","STREET":"建國路","SECT":" ","MAREA":" ","LANE":" ","ALLEY":" ","HOUSE_NO":"１１９號","E_COORD97":165931.01999999999,"N_COORD97":2570032.21,"ADDRESS":"建國路１１９號","OBJECTID":540998},"geometry":{"x":165931.02000000142,"y":2570032.2100000028}},{"attributes":{"ID":541026,"DIS_CODE":0,"TOWNNAME":"學甲區","LI":"仁得里","LIN":"12鄰","STREET":"建國路","SECT":" ","MAREA":" ","LANE":" ","ALLEY":" ","HOUSE_NO":"１２１號","E_COORD97":165926.5,"N_COORD97":2570033.0099999998,"ADDRESS":"建國路１２１號","OBJECTID":540999},"geometry":{"x":165926.50000000186,"y":2570033.0100000016}},{"attributes":{"ID":541027,"DIS_CODE":0,"TOWNNAME":"學甲區","LI":"仁得里","LIN":"12鄰","STREET":"建國路","SECT":" ","MAREA":" ","LANE":" ","ALLEY":" ","HOUSE_NO":"１２３號","E_COORD97":165921.98000000001,"N_COORD97":2570033.8199999998,"ADDRESS":"建國路１２３號","OBJECTID":541000},"geometry":{"x":165921.98000000231,"y":2570033.8200000022}}]}