{"displayFieldName":"TOWNNAME","fieldAliases":{"ID":"ID","DIS_CODE":"DIS_CODE","TOWNNAME":"TOWNNAME","LI":"LI","LIN":"LIN","STREET":"STREET","SECT":"SECT","MAREA":"MAREA","LANE":"LANE","ALLEY":"ALLEY","HOUSE_NO":"HOUSE_NO","E_COORD97":"E_COORD97","N_COORD97":"N_COORD97","ADDRESS":"ADDRESS","OBJECTID":"OBJECTID"},"geometryType":"esriGeometryPoint","spatialReference":{"wkid":102443,"latestWkid":3826},"fields":[{"name":"ID","type":"esriFieldTypeDouble","alias":"ID"},{"name":"DIS_CODE","type":"esriFieldTypeInteger","alias":"DIS_CODE"},{"name":"TOWNNAME","type":"esriFieldTypeString","alias":"TOWNNAME","length":8},{"name":"LI","type":"esriFieldTypeString","alias":"LI","length":8},{"name":"LIN","type":"esriFieldTypeString","alias":"LIN","length":12},{"name":"STREET","type":"esriFieldTypeString","alias":"STREET","length":20},{"name":"SECT","type":"esriFieldTypeString","alias":"SECT","length":8},{"name":"MAREA","type":"esriFieldTypeString","alias":"MAREA","length":12},{"name":"LANE","type":"esriFieldTypeString","alias":"LANE","length":10},{"name":"ALLEY","type":"esriFieldTypeString","alias":"ALLEY","length":10},{"name":"HOUSE_NO","type":"esriFieldTypeString","alias":"HOUSE_NO","length":20},{"name":"E_COORD97","type":"esriFieldTypeDouble","alias":"E_COORD97"},{"name":"N_COORD97","type":"esriFieldTypeDouble","alias":"N_COORD97"},{"name":"ADDRESS","type":"esriFieldTypeString","alias":"ADDRESS","length":50},{"name":"OBJECTID","type":"esriFieldTypeOID","alias":"OBJECTID"}],"features":[{"attributes":{"ID":74401,"DIS_CODE":0,"TOWNNAME":"歸仁區","LI":"南保里","LIN":"30鄰","STREET":"民權北路","SECT":" ","MAREA":" ","LANE":"６１巷","ALLEY":"９弄","HOUSE_NO":"１４號","E_COORD97":176931.34,"N_COORD97":2541001.29,"ADDRESS":"民權北路６１巷９弄１４號","OBJECTID":74401},"geometry":{"x":176931.34000000078,"y":2541001.290000001}},{"attributes":{"ID":74402,"DIS_CODE":0,"TOWNNAME":"歸仁區","LI":"南興里","LIN":"19鄰","STREET":"南興一街","SECT":" ","MAREA":" ","LANE":" ","ALLEY":" ","HOUSE_NO":"３６號","E_COORD97":175717.69,"N_COORD97":2541332.25,"ADDRESS":"南興一街３６號","OBJECTID":74402},"geometry":{"x":175717.69000000134,"y":2541332.2500000019}},{"attributes":{"ID":74403,"DIS_CODE":0,"TOWNNAME":"歸仁區","LI":"南興里","LIN":"5鄰","STREET":"民生二街","SECT":" ","MAREA":" ","LANE":" ","ALLEY":" ","HOUSE_NO":"２９號","E_COORD97":176190.39000000001,"N_COORD97":2541325.29,"ADDRESS":"民生二街２９號","OBJECTID":74403},"geometry":{"x":176190.3900000006,"y":2541325.2899999991}},{"attributes":{"ID":74404,"DIS_CODE":0,"TOWNNAME":"歸仁區","LI":"後市里","LIN":"18鄰","STREET":"中山路","SECT":"二段","MAREA":" ","LANE":" ","ALLEY":" ","HOUSE_NO":"１４號","E_COORD97":177556.62,"N_COORD97":2540797.25,"ADDRESS":"中山路二段１４號","OBJECTID":74404},"geometry":{"x":177556.62000000197,"y":2540797.25}},{"attributes":{"ID":74405,"DIS_CODE":0,"TOWNNAME":"鹽水區","LI":"水秀里","LIN":"6鄰","STREET":" ","SECT":" ","MAREA":"土庫","LANE":" ","ALLEY":" ","HOUSE_NO":"６９之２８號","E_COORD97":176082.70000000001,"N_COORD97":2580106.3100000001,"ADDRESS":"土庫６９之２８號","OBJECTID":74405},"geometry":{"x":176082.70000000019,"y":2580106.3099999987}},{"attributes":{"ID":74406,"DIS_CODE":0,"TOWNNAME":"鹽水區","LI":"水秀里","LIN":"6鄰","STREET":" ","SECT":" ","MAREA":"土庫","LANE":" ","ALLEY":" ","HOUSE_NO":"６９之２９號","E_COORD97":176089.22,"N_COORD97":2580107.1800000002,"ADDRESS":"土庫６９之２９號","OBJECTID":74406},"geometry":{"x":176089.22000000067,"y":2580107.1800000016}},{"attributes":{"ID":74407,"DIS_CODE":0,"TOWNNAME":"鹽水區","LI":"水秀里","LIN":"6鄰","STREET":" ","SECT":" ","MAREA":"土庫","LANE":" ","ALLEY":" ","HOUSE_NO":"６９號之２","E_COORD97":176044.22,"N_COORD97":2580057.1600000001,"ADDRESS":"土庫６９號之２","OBJECTID":74407},"geometry":{"x":176044.21999999974,"y":2580057.160000002}},{"attributes":{"ID":74408,"DIS_CODE":0,"TOWNNAME":"鹽水區","LI":"水秀里","LIN":"6鄰","STREET":" ","SECT":" ","MAREA":"土庫","LANE":" ","ALLEY":" ","HOUSE_NO":"６９之３號","E_COORD97":176043.04999999999,"N_COORD97":2580061.6299999999,"ADDRESS":"土庫６９之３號","OBJECTID":74408},"geometry":{"x":176043.05000000075,"y":2580061.629999999}},{"attributes":{"ID":74409,"DIS_CODE":0,"TOWNNAME":"鹽水區","LI":"水秀里","LIN":"6鄰","STREET":" ","SECT":" ","MAREA":"土庫","LANE":" ","ALLEY":" ","HOUSE_NO":"６９之５號","E_COORD97":176037.14000000001,"N_COORD97":2580076.1899999999,"ADDRESS":"土庫６９之５號","OBJECTID":74409},"geometry":{"x":176037.1400000006,"y":2580076.1900000013}},{"attributes":{"ID":74410,"DIS_CODE":0,"TOWNNAME":"歸仁區","LI":"文化里","LIN":"18鄰","STREET":"文化北二街","SECT":" ","MAREA":" ","LANE":" ","ALLEY":" ","HOUSE_NO":"４９號","E_COORD97":177125.41,"N_COORD97":2541461.3399999999,"ADDRESS":"文化北二街４９號","OBJECTID":74410},"geometry":{"x":177125.41000000015,"y":2541461.3399999999}},{"attributes":{"ID":74411,"DIS_CODE":0,"TOWNNAME":"鹽水區","LI":"水秀里","LIN":"6鄰","STREET":" ","SECT":" ","MAREA":"土庫","LANE":" ","ALLEY":" ","HOUSE_NO":"６９之６號","E_COORD97":176043.31,"N_COORD97":2580076.9700000002,"ADDRESS":"土庫６９之６號","OBJECTID":74411},"geometry":{"x":176043.31000000052,"y":2580076.9700000007}},{"attributes":{"ID":74412,"DIS_CODE":0,"TOWNNAME":"安南區","LI":"頂安里","LIN":"7鄰","STREET":"頂安街","SECT":" ","MAREA":" ","LANE":" ","ALLEY":" ","HOUSE_NO":"５１５號之１","E_COORD97":168674.38,"N_COORD97":2549278.1699999999,"ADDRESS":"頂安街５１５號之１","OBJECTID":74412},"geometry":{"x":168674.37999999989,"y":2549278.1700000037}},{"attributes":{"ID":74413,"DIS_CODE":0,"TOWNNAME":"安南區","LI":"新順里","LIN":"7鄰","STREET":"北安路","SECT":"三段","MAREA":" ","LANE":" ","ALLEY":" ","HOUSE_NO":"７５５號之７","E_COORD97":169236.92999999999,"N_COORD97":2549941.3599999999,"ADDRESS":"北安路三段７５５號之７","OBJECTID":74413},"geometry":{"x":169236.9299999997,"y":2549941.3600000013}},{"attributes":{"ID":74414,"DIS_CODE":0,"TOWNNAME":"歸仁區","LI":"南保里","LIN":"30鄰","STREET":"民權北路","SECT":" ","MAREA":" ","LANE":"６１巷","ALLEY":"９弄","HOUSE_NO":"５號","E_COORD97":176944.39000000001,"N_COORD97":2541005.29,"ADDRESS":"民權北路６１巷９弄５號","OBJECTID":74414},"geometry":{"x":176944.3900000006,"y":2541005.290000001}},{"attributes":{"ID":74415,"DIS_CODE":0,"TOWNNAME":"歸仁區","LI":"南保里","LIN":"30鄰","STREET":"民權北路","SECT":" ","MAREA":" ","LANE":"６１巷","ALLEY":"９弄","HOUSE_NO":"１０號","E_COORD97":176932.34,"N_COORD97":2541010.29,"ADDRESS":"民權北路６１巷９弄１０號","OBJECTID":74415},"geometry":{"x":176932.33999999985,"y":2541010.2899999991}},{"attributes":{"ID":74416,"DIS_CODE":0,"TOWNNAME":"歸仁區","LI":"南保里","LIN":"30鄰","STREET":"民權北路","SECT":" ","MAREA":" ","LANE":"６１巷","ALLEY":"９弄","HOUSE_NO":"２號","E_COORD97":176932.19,"N_COORD97":2541021.29,"ADDRESS":"民權北路６１巷９弄２號","OBJECTID":74416},"geometry":{"x":176932.19000000041,"y":2541021.290000001}},{"attributes":{"ID":74417,"DIS_CODE":0,"TOWNNAME":"歸仁區","LI":"南保里","LIN":"30鄰","STREET":"民權北路","SECT":" ","MAREA":" ","LANE":"６１巷","ALLEY":"９弄","HOUSE_NO":"８號","E_COORD97":176931.19,"N_COORD97":2541013.29,"ADDRESS":"民權北路６１巷９弄８號","OBJECTID":74417},"geometry":{"x":176931.19000000134,"y":2541013.2899999991}},{"attributes":{"ID":74418,"DIS_CODE":0,"TOWNNAME":"歸仁區","LI":"南保里","LIN":"30鄰","STREET":"民權北路","SECT":" ","MAREA":" ","LANE":"６１巷","ALLEY":"９弄","HOUSE_NO":"６號","E_COORD97":176931.19,"N_COORD97":2541018.29,"ADDRESS":"民權北路６１巷９弄６號","OBJECTID":74418},"geometry":{"x":176931.19000000134,"y":2541018.290000001}},{"attributes":{"ID":74419,"DIS_CODE":0,"TOWNNAME":"新營區","LI":"忠政里","LIN":"30鄰","STREET":"府西路","SECT":" ","MAREA":" ","LANE":"３３巷","ALLEY":"２４弄","HOUSE_NO":"３之２號","E_COORD97":179714.60999999999,"N_COORD97":2578968.3799999999,"ADDRESS":"府西路３３巷２４弄３之２號","OBJECTID":74419},"geometry":{"x":179714.61000000034,"y":2578968.3799999971}},{"attributes":{"ID":74420,"DIS_CODE":0,"TOWNNAME":"新營區","LI":"忠政里","LIN":"30鄰","STREET":"府西路","SECT":" ","MAREA":" ","LANE":"３３巷","ALLEY":"２４弄","HOUSE_NO":"１號之２","E_COORD97":179714.23999999999,"N_COORD97":2578958.4100000001,"ADDRESS":"府西路３３巷２４弄１號之２","OBJECTID":74420},"geometry":{"x":179714.24000000115,"y":2578958.4100000001}},{"attributes":{"ID":74421,"DIS_CODE":0,"TOWNNAME":"新營區","LI":"忠政里","LIN":"30鄰","STREET":"府西路","SECT":" ","MAREA":" ","LANE":"３３巷","ALLEY":"２４弄","HOUSE_NO":"１１號","E_COORD97":179715.53,"N_COORD97":2579014.8300000001,"ADDRESS":"府西路３３巷２４弄１１號","OBJECTID":74421},"geometry":{"x":179715.53000000119,"y":2579014.8300000019}},{"attributes":{"ID":74422,"DIS_CODE":0,"TOWNNAME":"歸仁區","LI":"南保里","LIN":"30鄰","STREET":"民權北路","SECT":" ","MAREA":" ","LANE":"６１巷","ALLEY":"９弄","HOUSE_NO":"１８號","E_COORD97":176931.23999999999,"N_COORD97":2540994.29,"ADDRESS":"民權北路６１巷９弄１８號","OBJECTID":74422},"geometry":{"x":176931.24000000022,"y":2540994.290000001}},{"attributes":{"ID":74423,"DIS_CODE":0,"TOWNNAME":"北區","LI":"成德里","LIN":"30鄰","STREET":"海安路","SECT":"三段","MAREA":" ","LANE":"５００巷","ALLEY":"１００弄","HOUSE_NO":"１號","E_COORD97":168100.57999999999,"N_COORD97":2545682.6400000001,"ADDRESS":"海安路三段５００巷１００弄１號","OBJECTID":74423},"geometry":{"x":168100.58000000007,"y":2545682.6400000025}},{"attributes":{"ID":74424,"DIS_CODE":0,"TOWNNAME":"北區","LI":"成德里","LIN":"30鄰","STREET":"海安路","SECT":"三段","MAREA":" ","LANE":"５００巷","ALLEY":"１００弄","HOUSE_NO":"３號","E_COORD97":168100.32999999999,"N_COORD97":2545675.29,"ADDRESS":"海安路三段５００巷１００弄３號","OBJECTID":74424},"geometry":{"x":168100.33000000007,"y":2545675.2899999991}},{"attributes":{"ID":74425,"DIS_CODE":0,"TOWNNAME":"北區","LI":"成德里","LIN":"30鄰","STREET":"海安路","SECT":"三段","MAREA":" ","LANE":"５００巷","ALLEY":"１００弄","HOUSE_NO":"５號","E_COORD97":168100.45999999999,"N_COORD97":2545667.9399999999,"ADDRESS":"海安路三段５００巷１００弄５號","OBJECTID":74425},"geometry":{"x":168100.46000000089,"y":2545667.9399999995}},{"attributes":{"ID":74426,"DIS_CODE":0,"TOWNNAME":"北區","LI":"成德里","LIN":"30鄰","STREET":"海安路","SECT":"三段","MAREA":" ","LANE":"５００巷","ALLEY":"１００弄","HOUSE_NO":"７號","E_COORD97":168100.84,"N_COORD97":2545660.46,"ADDRESS":"海安路三段５００巷１００弄７號","OBJECTID":74426},"geometry":{"x":168100.84000000078,"y":2545660.4600000028}},{"attributes":{"ID":74427,"DIS_CODE":0,"TOWNNAME":"仁德區","LI":"土庫里","LIN":" ","STREET":"土庫二街","SECT":" ","MAREA":" ","LANE":" ","ALLEY":" ","HOUSE_NO":"８號","E_COORD97":174417.35000000001,"N_COORD97":2543017,"ADDRESS":"土庫二街８號","OBJECTID":74427},"geometry":{"x":174417.35000000056,"y":2543017}},{"attributes":{"ID":74428,"DIS_CODE":0,"TOWNNAME":"後壁區","LI":"侯伯里","LIN":"15鄰","STREET":" ","SECT":" ","MAREA":"後壁寮","LANE":" ","ALLEY":" ","HOUSE_NO":"１２９號","E_COORD97":185203.45000000001,"N_COORD97":2585521.8199999998,"ADDRESS":"後壁寮１２９號","OBJECTID":74428},"geometry":{"x":185203.45000000112,"y":2585521.8200000022}},{"attributes":{"ID":74429,"DIS_CODE":0,"TOWNNAME":"北區","LI":"成德里","LIN":"30鄰","STREET":"海安路","SECT":"三段","MAREA":" ","LANE":"５００巷","ALLEY":"１００弄","HOUSE_NO":"１１號","E_COORD97":168101.34,"N_COORD97":2545646.1400000001,"ADDRESS":"海安路三段５００巷１００弄１１號","OBJECTID":74429},"geometry":{"x":168101.34000000078,"y":2545646.1400000025}},{"attributes":{"ID":74430,"DIS_CODE":0,"TOWNNAME":"北區","LI":"成德里","LIN":"30鄰","STREET":"海安路","SECT":"三段","MAREA":" ","LANE":"５００巷","ALLEY":"１００弄","HOUSE_NO":"１３號","E_COORD97":168101.22,"N_COORD97":2545638.9100000001,"ADDRESS":"海安路三段５００巷１００弄１３號","OBJECTID":74430},"geometry":{"x":168101.21999999881,"y":2545638.9100000039}},{"attributes":{"ID":74431,"DIS_CODE":0,"TOWNNAME":"北區","LI":"成德里","LIN":"30鄰","STREET":"海安路","SECT":"三段","MAREA":" ","LANE":"５００巷","ALLEY":"１００弄","HOUSE_NO":"１５號","E_COORD97":168102.23000000001,"N_COORD97":2545632.2000000002,"ADDRESS":"海安路三段５００巷１００弄１５號","OBJECTID":74431},"geometry":{"x":168102.23000000138,"y":2545632.1999999993}},{"attributes":{"ID":74432,"DIS_CODE":0,"TOWNNAME":"北區","LI":"成德里","LIN":"30鄰","STREET":"海安路","SECT":"三段","MAREA":" ","LANE":"５００巷","ALLEY":"１００弄","HOUSE_NO":"９號","E_COORD97":168101.34,"N_COORD97":2545653.6200000001,"ADDRESS":"海安路三段５００巷１００弄９號","OBJECTID":74432},"geometry":{"x":168101.34000000078,"y":2545653.620000001}},{"attributes":{"ID":74433,"DIS_CODE":0,"TOWNNAME":"北區","LI":"成德里","LIN":"30鄰","STREET":"海安路","SECT":"三段","MAREA":" ","LANE":"５００巷","ALLEY":"１１８弄","HOUSE_NO":"２之９號","E_COORD97":168118.25,"N_COORD97":2545642.48,"ADDRESS":"海安路三段５００巷１１８弄２之９號","OBJECTID":74433},"geometry":{"x":168118.24999999907,"y":2545642.4800000023}},{"attributes":{"ID":74434,"DIS_CODE":0,"TOWNNAME":"北區","LI":"成德里","LIN":"30鄰","STREET":"海安路","SECT":"三段","MAREA":" ","LANE":"５００巷","ALLEY":"１１８弄","HOUSE_NO":"２之８號","E_COORD97":168118.09,"N_COORD97":2545653.75,"ADDRESS":"海安路三段５００巷１１８弄２之８號","OBJECTID":74434},"geometry":{"x":168118.09000000078,"y":2545653.7500000019}},{"attributes":{"ID":74435,"DIS_CODE":0,"TOWNNAME":"北區","LI":"成德里","LIN":"30鄰","STREET":"海安路","SECT":"三段","MAREA":" ","LANE":"５００巷","ALLEY":"１１８弄","HOUSE_NO":"２之７號","E_COORD97":168122.85000000001,"N_COORD97":2545653.75,"ADDRESS":"海安路三段５００巷１１８弄２之７號","OBJECTID":74435},"geometry":{"x":168122.85000000056,"y":2545653.7500000019}},{"attributes":{"ID":74436,"DIS_CODE":0,"TOWNNAME":"北區","LI":"成德里","LIN":"30鄰","STREET":"海安路","SECT":"三段","MAREA":" ","LANE":"５００巷","ALLEY":"１１８弄","HOUSE_NO":"２之６號","E_COORD97":168127.76999999999,"N_COORD97":2545653.75,"ADDRESS":"海安路三段５００巷１１８弄２之６號","OBJECTID":74436},"geometry":{"x":168127.76999999955,"y":2545653.7500000019}},{"attributes":{"ID":74437,"DIS_CODE":0,"TOWNNAME":"北區","LI":"成德里","LIN":"30鄰","STREET":"海安路","SECT":"三段","MAREA":" ","LANE":"５００巷","ALLEY":"１１８弄","HOUSE_NO":"２之５號","E_COORD97":168132.69,"N_COORD97":2545653.75,"ADDRESS":"海安路三段５００巷１１８弄２之５號","OBJECTID":74437},"geometry":{"x":168132.68999999948,"y":2545653.7500000019}},{"attributes":{"ID":74438,"DIS_CODE":0,"TOWNNAME":"北區","LI":"成德里","LIN":"30鄰","STREET":"海安路","SECT":"三段","MAREA":" ","LANE":"５００巷","ALLEY":"１１８弄","HOUSE_NO":"２之３號","E_COORD97":168137.76999999999,"N_COORD97":2545653.75,"ADDRESS":"海安路三段５００巷１１８弄２之３號","OBJECTID":74438},"geometry":{"x":168137.76999999955,"y":2545653.7500000019}},{"attributes":{"ID":74439,"DIS_CODE":0,"TOWNNAME":"北區","LI":"成德里","LIN":"30鄰","STREET":"海安路","SECT":"三段","MAREA":" ","LANE":"５００巷","ALLEY":"１１８弄","HOUSE_NO":"２之２號","E_COORD97":168142.54000000001,"N_COORD97":2545653.9100000001,"ADDRESS":"海安路三段５００巷１１８弄２之２號","OBJECTID":74439},"geometry":{"x":168142.54000000097,"y":2545653.910000002}},{"attributes":{"ID":74440,"DIS_CODE":0,"TOWNNAME":"歸仁區","LI":"南興里","LIN":"13鄰","STREET":"文化十八街","SECT":" ","MAREA":" ","LANE":" ","ALLEY":" ","HOUSE_NO":"４８號","E_COORD97":175904.39000000001,"N_COORD97":2541298.3300000001,"ADDRESS":"文化十八街４８號","OBJECTID":74440},"geometry":{"x":175904.38999999966,"y":2541298.3300000001}},{"attributes":{"ID":74441,"DIS_CODE":0,"TOWNNAME":"北區","LI":"成德里","LIN":"30鄰","STREET":"海安路","SECT":"三段","MAREA":" ","LANE":"５００巷","ALLEY":"１１８弄","HOUSE_NO":"２之１號","E_COORD97":168147.78,"N_COORD97":2545653.9100000001,"ADDRESS":"海安路三段５００巷１１８弄２之１號","OBJECTID":74441},"geometry":{"x":168147.78000000119,"y":2545653.910000002}},{"attributes":{"ID":74442,"DIS_CODE":0,"TOWNNAME":"北區","LI":"成德里","LIN":"30鄰","STREET":"海安路","SECT":"三段","MAREA":" ","LANE":"５００巷","ALLEY":"１１８弄","HOUSE_NO":"２之１０號","E_COORD97":168123.32999999999,"N_COORD97":2545642.6299999999,"ADDRESS":"海安路三段５００巷１１８弄２之１０號","OBJECTID":74442},"geometry":{"x":168123.33000000101,"y":2545642.6299999971}},{"attributes":{"ID":74443,"DIS_CODE":0,"TOWNNAME":"北區","LI":"成德里","LIN":"30鄰","STREET":"海安路","SECT":"三段","MAREA":" ","LANE":"５００巷","ALLEY":"１１８弄","HOUSE_NO":"２之１１號","E_COORD97":168127.92999999999,"N_COORD97":2545642.6299999999,"ADDRESS":"海安路三段５００巷１１８弄２之１１號","OBJECTID":74443},"geometry":{"x":168127.9299999997,"y":2545642.6299999971}},{"attributes":{"ID":74444,"DIS_CODE":0,"TOWNNAME":"鹽水區","LI":"水秀里","LIN":"6鄰","STREET":" ","SECT":" ","MAREA":"土庫","LANE":" ","ALLEY":" ","HOUSE_NO":"６９之７號","E_COORD97":176049.47,"N_COORD97":2580077.7599999998,"ADDRESS":"土庫６９之７號","OBJECTID":74444},"geometry":{"x":176049.46999999974,"y":2580077.7599999998}},{"attributes":{"ID":74445,"DIS_CODE":0,"TOWNNAME":"鹽水區","LI":"水秀里","LIN":"6鄰","STREET":" ","SECT":" ","MAREA":"土庫","LANE":" ","ALLEY":" ","HOUSE_NO":"６９之８號","E_COORD97":176055.64000000001,"N_COORD97":2580078.5499999998,"ADDRESS":"土庫６９之８號","OBJECTID":74445},"geometry":{"x":176055.64000000153,"y":2580078.5500000026}},{"attributes":{"ID":74446,"DIS_CODE":0,"TOWNNAME":"鹽水區","LI":"水秀里","LIN":"6鄰","STREET":" ","SECT":" ","MAREA":"土庫","LANE":" ","ALLEY":" ","HOUSE_NO":"６９之９號","E_COORD97":176061.79999999999,"N_COORD97":2580079.3399999999,"ADDRESS":"土庫６９之９號","OBJECTID":74446},"geometry":{"x":176061.80000000075,"y":2580079.3400000017}},{"attributes":{"ID":74447,"DIS_CODE":0,"TOWNNAME":"鹽水區","LI":"水秀里","LIN":"6鄰","STREET":" ","SECT":" ","MAREA":"土庫","LANE":" ","ALLEY":" ","HOUSE_NO":"６９號","E_COORD97":176064.44,"N_COORD97":2580060.5299999998,"ADDRESS":"土庫６９號","OBJECTID":74447},"geometry":{"x":176064.43999999948,"y":2580060.5300000012}},{"attributes":{"ID":74448,"DIS_CODE":0,"TOWNNAME":"鹽水區","LI":"水秀里","LIN":"6鄰","STREET":" ","SECT":" ","MAREA":"土庫","LANE":" ","ALLEY":" ","HOUSE_NO":"７０號之１０","E_COORD97":176070.42000000001,"N_COORD97":2580147.6299999999,"ADDRESS":"土庫７０號之１０","OBJECTID":74448},"geometry":{"x":176070.41999999993,"y":2580147.6300000008}},{"attributes":{"ID":74449,"DIS_CODE":0,"TOWNNAME":"鹽水區","LI":"水秀里","LIN":"6鄰","STREET":" ","SECT":" ","MAREA":"土庫","LANE":" ","ALLEY":" ","HOUSE_NO":"７０號之１１","E_COORD97":176069.17000000001,"N_COORD97":2580152.1000000001,"ADDRESS":"土庫７０號之１１","OBJECTID":74449},"geometry":{"x":176069.16999999899,"y":2580152.1000000015}},{"attributes":{"ID":74450,"DIS_CODE":0,"TOWNNAME":"北區","LI":"成德里","LIN":"30鄰","STREET":"海安路","SECT":"三段","MAREA":" ","LANE":"５００巷","ALLEY":"１１８弄","HOUSE_NO":"２之１２號","E_COORD97":168132.85000000001,"N_COORD97":2545642.6299999999,"ADDRESS":"海安路三段５００巷１１８弄２之１２號","OBJECTID":74450},"geometry":{"x":168132.85000000056,"y":2545642.6299999971}},{"attributes":{"ID":74451,"DIS_CODE":0,"TOWNNAME":"北區","LI":"成德里","LIN":"30鄰","STREET":"海安路","SECT":"三段","MAREA":" ","LANE":"５００巷","ALLEY":"１１８弄","HOUSE_NO":"２之１３號","E_COORD97":168137.76999999999,"N_COORD97":2545642.79,"ADDRESS":"海安路三段５００巷１１８弄２之１３號","OBJECTID":74451},"geometry":{"x":168137.76999999955,"y":2545642.790000001}},{"attributes":{"ID":74452,"DIS_CODE":0,"TOWNNAME":"北區","LI":"成德里","LIN":"30鄰","STREET":"海安路","SECT":"三段","MAREA":" ","LANE":"５００巷","ALLEY":"１１８弄","HOUSE_NO":"２之１５號","E_COORD97":168142.85000000001,"N_COORD97":2545642.9500000002,"ADDRESS":"海安路三段５００巷１１８弄２之１５號","OBJECTID":74452},"geometry":{"x":168142.85000000149,"y":2545642.9499999993}},{"attributes":{"ID":74453,"DIS_CODE":0,"TOWNNAME":"北區","LI":"大港里","LIN":"30鄰","STREET":"賢北街","SECT":" ","MAREA":" ","LANE":"１９５巷","ALLEY":"２２１弄","HOUSE_NO":"５號","E_COORD97":166090.26999999999,"N_COORD97":2545559.3300000001,"ADDRESS":"賢北街１９５巷２２１弄５號","OBJECTID":74453},"geometry":{"x":166090.27000000142,"y":2545559.3300000019}},{"attributes":{"ID":74454,"DIS_CODE":0,"TOWNNAME":"北區","LI":"成德里","LIN":"30鄰","STREET":"海安路","SECT":"三段","MAREA":" ","LANE":"５００巷","ALLEY":"１１８弄","HOUSE_NO":"２之１６號","E_COORD97":168148.25,"N_COORD97":2545643.1099999999,"ADDRESS":"海安路三段５００巷１１８弄２之１６號","OBJECTID":74454},"geometry":{"x":168148.25,"y":2545643.1099999994}},{"attributes":{"ID":74455,"DIS_CODE":0,"TOWNNAME":"安平區","LI":"國平里","LIN":"30鄰","STREET":"健康三街","SECT":" ","MAREA":" ","LANE":"１２巷","ALLEY":"２弄","HOUSE_NO":"１６號","E_COORD97":164715.90667500001,"N_COORD97":2542865.6340700001,"ADDRESS":"健康三街１２巷２弄１６號","OBJECTID":74455},"geometry":{"x":164715.90667500161,"y":2542865.6340699997}},{"attributes":{"ID":74456,"DIS_CODE":0,"TOWNNAME":"北區","LI":"成德里","LIN":"30鄰","STREET":"海安路","SECT":"三段","MAREA":" ","LANE":"５００巷","ALLEY":"１２０弄","HOUSE_NO":"１５號","E_COORD97":168195.57999999999,"N_COORD97":2545650.4100000001,"ADDRESS":"海安路三段５００巷１２０弄１５號","OBJECTID":74456},"geometry":{"x":168195.58000000007,"y":2545650.410000002}},{"attributes":{"ID":74457,"DIS_CODE":0,"TOWNNAME":"北區","LI":"成德里","LIN":"30鄰","STREET":"海安路","SECT":"三段","MAREA":" ","LANE":"５００巷","ALLEY":"１１８弄","HOUSE_NO":"８號","E_COORD97":168146.14000000001,"N_COORD97":2545621.9100000001,"ADDRESS":"海安路三段５００巷１１８弄８號","OBJECTID":74457},"geometry":{"x":168146.1400000006,"y":2545621.9100000039}},{"attributes":{"ID":74458,"DIS_CODE":0,"TOWNNAME":"北區","LI":"成德里","LIN":"30鄰","STREET":"海安路","SECT":"三段","MAREA":" ","LANE":"５００巷","ALLEY":"１１８弄","HOUSE_NO":"１６號","E_COORD97":168145.66,"N_COORD97":2545599.6099999999,"ADDRESS":"海安路三段５００巷１１８弄１６號","OBJECTID":74458},"geometry":{"x":168145.66000000015,"y":2545599.6100000031}},{"attributes":{"ID":74459,"DIS_CODE":0,"TOWNNAME":"北區","LI":"成德里","LIN":"30鄰","STREET":"海安路","SECT":"三段","MAREA":" ","LANE":"５００巷","ALLEY":"１１８弄","HOUSE_NO":"１２號","E_COORD97":168145.66,"N_COORD97":2545607.54,"ADDRESS":"海安路三段５００巷１１８弄１２號","OBJECTID":74459},"geometry":{"x":168145.66000000015,"y":2545607.540000001}},{"attributes":{"ID":74460,"DIS_CODE":0,"TOWNNAME":"安南區","LI":"城東里","LIN":"7鄰","STREET":"城北路","SECT":" ","MAREA":" ","LANE":"９８巷","ALLEY":" ","HOUSE_NO":"８３號","E_COORD97":161157.51999999999,"N_COORD97":2551558.8199999998,"ADDRESS":"城北路９８巷８３號","OBJECTID":74460},"geometry":{"x":161157.52000000048,"y":2551558.8200000003}},{"attributes":{"ID":74461,"DIS_CODE":0,"TOWNNAME":"麻豆區","LI":"中興里","LIN":"8鄰","STREET":"和平路","SECT":" ","MAREA":" ","LANE":" ","ALLEY":" ","HOUSE_NO":"１２號之６","E_COORD97":172890.07999999999,"N_COORD97":2564368.5899999999,"ADDRESS":"和平路１２號之６","OBJECTID":74461},"geometry":{"x":172890.08000000101,"y":2564368.5899999999}},{"attributes":{"ID":74462,"DIS_CODE":0,"TOWNNAME":"麻豆區","LI":"中興里","LIN":"8鄰","STREET":"和平路","SECT":" ","MAREA":" ","LANE":" ","ALLEY":" ","HOUSE_NO":"１２號之７","E_COORD97":172894.29000000001,"N_COORD97":2564369.3199999998,"ADDRESS":"和平路１２號之７","OBJECTID":74462},"geometry":{"x":172894.29000000097,"y":2564369.3200000022}},{"attributes":{"ID":74463,"DIS_CODE":0,"TOWNNAME":"麻豆區","LI":"中興里","LIN":"8鄰","STREET":"和平路","SECT":" ","MAREA":" ","LANE":" ","ALLEY":" ","HOUSE_NO":"１２號之８","E_COORD97":172898.48999999999,"N_COORD97":2564370.0600000001,"ADDRESS":"和平路１２號之８","OBJECTID":74463},"geometry":{"x":172898.49000000022,"y":2564370.0600000042}},{"attributes":{"ID":74464,"DIS_CODE":0,"TOWNNAME":"麻豆區","LI":"中興里","LIN":"8鄰","STREET":"和平路","SECT":" ","MAREA":" ","LANE":" ","ALLEY":" ","HOUSE_NO":"１２號之９","E_COORD97":172902.70000000001,"N_COORD97":2564370.7999999998,"ADDRESS":"和平路１２號之９","OBJECTID":74464},"geometry":{"x":172902.70000000205,"y":2564370.8000000007}},{"attributes":{"ID":74465,"DIS_CODE":0,"TOWNNAME":"新營區","LI":"中營里","LIN":"8鄰","STREET":"新進路","SECT":" ","MAREA":" ","LANE":" ","ALLEY":" ","HOUSE_NO":"６６號","E_COORD97":180548.5,"N_COORD97":2578222.3999999999,"ADDRESS":"新進路６６號","OBJECTID":74465},"geometry":{"x":180548.5,"y":2578222.4000000004}},{"attributes":{"ID":74466,"DIS_CODE":0,"TOWNNAME":"麻豆區","LI":"中興里","LIN":"8鄰","STREET":"和平路","SECT":" ","MAREA":" ","LANE":" ","ALLEY":" ","HOUSE_NO":"１４號之１","E_COORD97":172848.60999999999,"N_COORD97":2564358.9500000002,"ADDRESS":"和平路１４號之１","OBJECTID":74466},"geometry":{"x":172848.61000000034,"y":2564358.9499999993}},{"attributes":{"ID":74467,"DIS_CODE":0,"TOWNNAME":"麻豆區","LI":"中興里","LIN":"8鄰","STREET":"和平路","SECT":" ","MAREA":" ","LANE":" ","ALLEY":" ","HOUSE_NO":"１４號之２","E_COORD97":172843.48000000001,"N_COORD97":2564357.5699999998,"ADDRESS":"和平路１４號之２","OBJECTID":74467},"geometry":{"x":172843.48000000231,"y":2564357.5700000022}},{"attributes":{"ID":74468,"DIS_CODE":0,"TOWNNAME":"麻豆區","LI":"中興里","LIN":"8鄰","STREET":"和平路","SECT":" ","MAREA":" ","LANE":" ","ALLEY":" ","HOUSE_NO":"１４號之３","E_COORD97":172838.23999999999,"N_COORD97":2564356.4100000001,"ADDRESS":"和平路１４號之３","OBJECTID":74468},"geometry":{"x":172838.24000000115,"y":2564356.4100000001}},{"attributes":{"ID":74469,"DIS_CODE":0,"TOWNNAME":"麻豆區","LI":"中興里","LIN":"8鄰","STREET":"和平路","SECT":" ","MAREA":" ","LANE":" ","ALLEY":" ","HOUSE_NO":"１４號之４","E_COORD97":172833.26000000001,"N_COORD97":2564355.1600000001,"ADDRESS":"和平路１４號之４","OBJECTID":74469},"geometry":{"x":172833.25999999978,"y":2564355.1599999983}},{"attributes":{"ID":74470,"DIS_CODE":0,"TOWNNAME":"麻豆區","LI":"中興里","LIN":"8鄰","STREET":"和平路","SECT":" ","MAREA":" ","LANE":" ","ALLEY":" ","HOUSE_NO":"１４號","E_COORD97":172874.31,"N_COORD97":2564391.23,"ADDRESS":"和平路１４號","OBJECTID":74470},"geometry":{"x":172874.31000000145,"y":2564391.2300000004}},{"attributes":{"ID":74471,"DIS_CODE":0,"TOWNNAME":"新營區","LI":"興安里","LIN":"8鄰","STREET":"新進路","SECT":" ","MAREA":" ","LANE":" ","ALLEY":" ","HOUSE_NO":"２６１號","E_COORD97":180008.85000000001,"N_COORD97":2577819.6099999999,"ADDRESS":"新進路２６１號","OBJECTID":74471},"geometry":{"x":180008.84999999963,"y":2577819.6100000013}},{"attributes":{"ID":74472,"DIS_CODE":0,"TOWNNAME":"中西區","LI":"郡西里","LIN":"7鄰","STREET":"郡西路","SECT":" ","MAREA":" ","LANE":" ","ALLEY":" ","HOUSE_NO":"４５號","E_COORD97":167378.38,"N_COORD97":2543318.6000000001,"ADDRESS":"郡西路４５號","OBJECTID":74472},"geometry":{"x":167378.38000000175,"y":2543318.6000000015}},{"attributes":{"ID":74473,"DIS_CODE":0,"TOWNNAME":"後壁區","LI":"侯伯里","LIN":"15鄰","STREET":" ","SECT":" ","MAREA":"後壁寮","LANE":" ","ALLEY":" ","HOUSE_NO":"１３１號","E_COORD97":185168.89999999999,"N_COORD97":2585499.9300000002,"ADDRESS":"後壁寮１３１號","OBJECTID":74473},"geometry":{"x":185168.90000000037,"y":2585499.9300000016}},{"attributes":{"ID":74474,"DIS_CODE":0,"TOWNNAME":"北區","LI":"成德里","LIN":"30鄰","STREET":"海安路","SECT":"三段","MAREA":" ","LANE":"５００巷","ALLEY":"１１８弄","HOUSE_NO":"１０號","E_COORD97":168146.14000000001,"N_COORD97":2545615.6400000001,"ADDRESS":"海安路三段５００巷１１８弄１０號","OBJECTID":74474},"geometry":{"x":168146.1400000006,"y":2545615.6400000025}},{"attributes":{"ID":74475,"DIS_CODE":0,"TOWNNAME":"北區","LI":"大港里","LIN":"30鄰","STREET":"賢北街","SECT":" ","MAREA":" ","LANE":"１９５巷","ALLEY":"２２１弄","HOUSE_NO":"１號","E_COORD97":166095.01999999999,"N_COORD97":2545551.9399999999,"ADDRESS":"賢北街１９５巷２２１弄１號","OBJECTID":74475},"geometry":{"x":166095.01999999955,"y":2545551.9399999995}},{"attributes":{"ID":74476,"DIS_CODE":0,"TOWNNAME":"北區","LI":"大港里","LIN":"30鄰","STREET":"賢北街","SECT":" ","MAREA":" ","LANE":"１９５巷","ALLEY":"２２１弄","HOUSE_NO":"２號","E_COORD97":166103.82999999999,"N_COORD97":2545557.0299999998,"ADDRESS":"賢北街１９５巷２２１弄２號","OBJECTID":74476},"geometry":{"x":166103.83000000007,"y":2545557.0300000012}},{"attributes":{"ID":74477,"DIS_CODE":0,"TOWNNAME":"北區","LI":"大港里","LIN":"30鄰","STREET":"賢北街","SECT":" ","MAREA":" ","LANE":"１９５巷","ALLEY":"２２１弄","HOUSE_NO":"２號之１","E_COORD97":166102.79000000001,"N_COORD97":2545560.73,"ADDRESS":"賢北街１９５巷２２１弄２號之１","OBJECTID":74477},"geometry":{"x":166102.79000000097,"y":2545560.7300000004}},{"attributes":{"ID":74478,"DIS_CODE":0,"TOWNNAME":"北區","LI":"大港里","LIN":"30鄰","STREET":"賢北街","SECT":" ","MAREA":" ","LANE":"１９５巷","ALLEY":"２２１弄","HOUSE_NO":"３號","E_COORD97":166092.20000000001,"N_COORD97":2545555.8100000001,"ADDRESS":"賢北街１９５巷２２１弄３號","OBJECTID":74478},"geometry":{"x":166092.20000000112,"y":2545555.8100000024}},{"attributes":{"ID":74479,"DIS_CODE":0,"TOWNNAME":"後壁區","LI":"侯伯里","LIN":"15鄰","STREET":" ","SECT":" ","MAREA":"後壁寮","LANE":" ","ALLEY":" ","HOUSE_NO":"１３２號","E_COORD97":185164.09,"N_COORD97":2585530.3199999998,"ADDRESS":"後壁寮１３２號","OBJECTID":74479},"geometry":{"x":185164.08999999985,"y":2585530.3200000003}},{"attributes":{"ID":74480,"DIS_CODE":0,"TOWNNAME":"鹽水區","LI":"水秀里","LIN":"6鄰","STREET":" ","SECT":" ","MAREA":"土庫","LANE":" ","ALLEY":" ","HOUSE_NO":"７０號之１２","E_COORD97":176067.91,"N_COORD97":2580156.5600000001,"ADDRESS":"土庫７０號之１２","OBJECTID":74480},"geometry":{"x":176067.91000000201,"y":2580156.5600000024}},{"attributes":{"ID":74481,"DIS_CODE":0,"TOWNNAME":"鹽水區","LI":"水秀里","LIN":"6鄰","STREET":" ","SECT":" ","MAREA":"土庫","LANE":" ","ALLEY":" ","HOUSE_NO":"７０號之１３","E_COORD97":176066.66,"N_COORD97":2580161.0299999998,"ADDRESS":"土庫７０號之１３","OBJECTID":74481},"geometry":{"x":176066.66000000108,"y":2580161.0299999993}},{"attributes":{"ID":74482,"DIS_CODE":0,"TOWNNAME":"鹽水區","LI":"水秀里","LIN":"6鄰","STREET":" ","SECT":" ","MAREA":"土庫","LANE":" ","ALLEY":" ","HOUSE_NO":"７０號之１４","E_COORD97":176065.39999999999,"N_COORD97":2580165.4900000002,"ADDRESS":"土庫７０號之１４","OBJECTID":74482},"geometry":{"x":176065.4000000013,"y":2580165.4900000002}},{"attributes":{"ID":74483,"DIS_CODE":0,"TOWNNAME":"鹽水區","LI":"水秀里","LIN":"6鄰","STREET":" ","SECT":" ","MAREA":"土庫","LANE":" ","ALLEY":" ","HOUSE_NO":"７０號之１５","E_COORD97":176064.14999999999,"N_COORD97":2580169.9500000002,"ADDRESS":"土庫７０號之１５","OBJECTID":74483},"geometry":{"x":176064.15000000037,"y":2580169.9500000011}},{"attributes":{"ID":74484,"DIS_CODE":0,"TOWNNAME":"鹽水區","LI":"水秀里","LIN":"6鄰","STREET":" ","SECT":" ","MAREA":"土庫","LANE":" ","ALLEY":" ","HOUSE_NO":"７０號之１６","E_COORD97":176057.79000000001,"N_COORD97":2580185.1699999999,"ADDRESS":"土庫７０號之１６","OBJECTID":74484},"geometry":{"x":176057.79000000004,"y":2580185.1700000018}},{"attributes":{"ID":74485,"DIS_CODE":0,"TOWNNAME":"鹽水區","LI":"水秀里","LIN":"6鄰","STREET":" ","SECT":" ","MAREA":"土庫","LANE":" ","ALLEY":" ","HOUSE_NO":"７０號之１７","E_COORD97":176061.79000000001,"N_COORD97":2580186.5600000001,"ADDRESS":"土庫７０號之１７","OBJECTID":74485},"geometry":{"x":176061.7900000019,"y":2580186.5600000024}},{"attributes":{"ID":74486,"DIS_CODE":0,"TOWNNAME":"鹽水區","LI":"水秀里","LIN":"6鄰","STREET":" ","SECT":" ","MAREA":"土庫","LANE":" ","ALLEY":" ","HOUSE_NO":"７０號之１","E_COORD97":176039.78,"N_COORD97":2580180.5299999998,"ADDRESS":"土庫７０號之１","OBJECTID":74486},"geometry":{"x":176039.78000000026,"y":2580180.5299999993}},{"attributes":{"ID":74487,"DIS_CODE":0,"TOWNNAME":"將軍區","LI":"平沙里","LIN":"7鄰","STREET":" ","SECT":" ","MAREA":"平沙","LANE":" ","ALLEY":" ","HOUSE_NO":"５８號","E_COORD97":157227.82999999999,"N_COORD97":2568551.6899999999,"ADDRESS":"平沙５８號","OBJECTID":74487},"geometry":{"x":157227.83000000007,"y":2568551.6900000032}},{"attributes":{"ID":74488,"DIS_CODE":0,"TOWNNAME":"北區","LI":"大港里","LIN":"30鄰","STREET":"賢北街","SECT":" ","MAREA":" ","LANE":"１９５巷","ALLEY":"２２１弄","HOUSE_NO":"６號","E_COORD97":166100.51000000001,"N_COORD97":2545564.7799999998,"ADDRESS":"賢北街１９５巷２２１弄６號","OBJECTID":74488},"geometry":{"x":166100.50999999978,"y":2545564.7800000012}},{"attributes":{"ID":74489,"DIS_CODE":0,"TOWNNAME":"北區","LI":"大港里","LIN":"30鄰","STREET":"賢北街","SECT":" ","MAREA":" ","LANE":"１９５巷","ALLEY":"２２１弄","HOUSE_NO":"７號","E_COORD97":166088.51999999999,"N_COORD97":2545562.8500000001,"ADDRESS":"賢北街１９５巷２２１弄７號","OBJECTID":74489},"geometry":{"x":166088.51999999862,"y":2545562.8499999996}},{"attributes":{"ID":74490,"DIS_CODE":0,"TOWNNAME":"鹽水區","LI":"大莊里","LIN":"6鄰","STREET":" ","SECT":" ","MAREA":"大莊","LANE":" ","ALLEY":" ","HOUSE_NO":"４３號之１","E_COORD97":172821.37,"N_COORD97":2576859.2200000002,"ADDRESS":"大莊４３號之１","OBJECTID":74490},"geometry":{"x":172821.37000000011,"y":2576859.2200000044}},{"attributes":{"ID":74491,"DIS_CODE":0,"TOWNNAME":"北區","LI":"大港里","LIN":"30鄰","STREET":"賢北街","SECT":" ","MAREA":" ","LANE":"１９５巷","ALLEY":"２２１弄","HOUSE_NO":"８號","E_COORD97":166098.41,"N_COORD97":2545568.8300000001,"ADDRESS":"賢北街１９５巷２２１弄８號","OBJECTID":74491},"geometry":{"x":166098.41000000201,"y":2545568.8300000019}},{"attributes":{"ID":74492,"DIS_CODE":0,"TOWNNAME":"北區","LI":"大港里","LIN":"30鄰","STREET":"賢北街","SECT":" ","MAREA":" ","LANE":"１９５巷","ALLEY":"８弄","HOUSE_NO":"１０號","E_COORD97":166165.47,"N_COORD97":2545600.5899999999,"ADDRESS":"賢北街１９５巷８弄１０號","OBJECTID":74492},"geometry":{"x":166165.4700000016,"y":2545600.5900000017}},{"attributes":{"ID":74493,"DIS_CODE":0,"TOWNNAME":"北區","LI":"大港里","LIN":"30鄰","STREET":"賢北街","SECT":" ","MAREA":" ","LANE":"１９５巷","ALLEY":"８弄","HOUSE_NO":"１１號","E_COORD97":166155.03,"N_COORD97":2545600.1800000002,"ADDRESS":"賢北街１９５巷８弄１１號","OBJECTID":74493},"geometry":{"x":166155.03000000026,"y":2545600.1800000016}},{"attributes":{"ID":74494,"DIS_CODE":0,"TOWNNAME":"北區","LI":"大港里","LIN":"30鄰","STREET":"賢北街","SECT":" ","MAREA":" ","LANE":"１９５巷","ALLEY":"８弄","HOUSE_NO":"１２號","E_COORD97":166164.38,"N_COORD97":2545605.3799999999,"ADDRESS":"賢北街１９５巷８弄１２號","OBJECTID":74494},"geometry":{"x":166164.37999999896,"y":2545605.3800000008}},{"attributes":{"ID":74495,"DIS_CODE":0,"TOWNNAME":"北區","LI":"大港里","LIN":"30鄰","STREET":"賢北街","SECT":" ","MAREA":" ","LANE":"１９５巷","ALLEY":"８弄","HOUSE_NO":"１３號","E_COORD97":166153.06,"N_COORD97":2545603.2799999998,"ADDRESS":"賢北街１９５巷８弄１３號","OBJECTID":74495},"geometry":{"x":166153.06000000052,"y":2545603.2799999993}},{"attributes":{"ID":74496,"DIS_CODE":0,"TOWNNAME":"鹽水區","LI":"水秀里","LIN":"6鄰","STREET":" ","SECT":" ","MAREA":"土庫","LANE":" ","ALLEY":" ","HOUSE_NO":"７０號之３","E_COORD97":176045.87,"N_COORD97":2580165.6600000001,"ADDRESS":"土庫７０號之３","OBJECTID":74496},"geometry":{"x":176045.87000000011,"y":2580165.660000002}},{"attributes":{"ID":74497,"DIS_CODE":0,"TOWNNAME":"鹽水區","LI":"水秀里","LIN":"6鄰","STREET":" ","SECT":" ","MAREA":"土庫","LANE":" ","ALLEY":" ","HOUSE_NO":"７０號之４","E_COORD97":176046.97,"N_COORD97":2580160.7999999998,"ADDRESS":"土庫７０號之４","OBJECTID":74497},"geometry":{"x":176046.97000000067,"y":2580160.7999999989}},{"attributes":{"ID":74498,"DIS_CODE":0,"TOWNNAME":"安南區","LI":"溪頂里","LIN":"7鄰","STREET":"府安路","SECT":"四段","MAREA":" ","LANE":" ","ALLEY":" ","HOUSE_NO":"１８６號","E_COORD97":168663.32000000001,"N_COORD97":2547245.9900000002,"ADDRESS":"府安路四段１８６號","OBJECTID":74498},"geometry":{"x":168663.3200000003,"y":2547245.9900000021}},{"attributes":{"ID":74499,"DIS_CODE":0,"TOWNNAME":"鹽水區","LI":"水秀里","LIN":"6鄰","STREET":" ","SECT":" ","MAREA":"土庫","LANE":" ","ALLEY":" ","HOUSE_NO":"７０號之５","E_COORD97":176048.06,"N_COORD97":2580155.9300000002,"ADDRESS":"土庫７０號之５","OBJECTID":74499},"geometry":{"x":176048.06000000052,"y":2580155.9300000034}},{"attributes":{"ID":74500,"DIS_CODE":0,"TOWNNAME":"鹽水區","LI":"水秀里","LIN":"6鄰","STREET":" ","SECT":" ","MAREA":"土庫","LANE":" ","ALLEY":" ","HOUSE_NO":"７０號之６","E_COORD97":176049.16,"N_COORD97":2580151.0600000001,"ADDRESS":"土庫７０號之６","OBJECTID":74500},"geometry":{"x":176049.15999999922,"y":2580151.0600000005}},{"attributes":{"ID":74501,"DIS_CODE":0,"TOWNNAME":"鹽水區","LI":"水秀里","LIN":"6鄰","STREET":" ","SECT":" ","MAREA":"土庫","LANE":" ","ALLEY":" ","HOUSE_NO":"７０之７號","E_COORD97":176050.25,"N_COORD97":2580146.1899999999,"ADDRESS":"土庫７０之７號","OBJECTID":74501},"geometry":{"x":176050.25000000186,"y":2580146.1899999995}},{"attributes":{"ID":74502,"DIS_CODE":0,"TOWNNAME":"鹽水區","LI":"水秀里","LIN":"6鄰","STREET":" ","SECT":" ","MAREA":"土庫","LANE":" ","ALLEY":" ","HOUSE_NO":"７０號之８","E_COORD97":176051.35000000001,"N_COORD97":2580141.3300000001,"ADDRESS":"土庫７０號之８","OBJECTID":74502},"geometry":{"x":176051.35000000056,"y":2580141.3300000019}},{"attributes":{"ID":74503,"DIS_CODE":0,"TOWNNAME":"鹽水區","LI":"水秀里","LIN":"6鄰","STREET":" ","SECT":" ","MAREA":"土庫","LANE":" ","ALLEY":" ","HOUSE_NO":"７０號","E_COORD97":176064.29999999999,"N_COORD97":2580124.6000000001,"ADDRESS":"土庫７０號","OBJECTID":74503},"geometry":{"x":176064.29999999981,"y":2580124.6000000015}},{"attributes":{"ID":74504,"DIS_CODE":0,"TOWNNAME":"鹽水區","LI":"水秀里","LIN":"6鄰","STREET":" ","SECT":" ","MAREA":"土庫","LANE":" ","ALLEY":" ","HOUSE_NO":"７１之１０號","E_COORD97":176161.42000000001,"N_COORD97":2580026.9100000001,"ADDRESS":"土庫７１之１０號","OBJECTID":74504},"geometry":{"x":176161.42000000086,"y":2580026.9100000001}},{"attributes":{"ID":74505,"DIS_CODE":0,"TOWNNAME":"鹽水區","LI":"水秀里","LIN":"6鄰","STREET":" ","SECT":" ","MAREA":"土庫","LANE":" ","ALLEY":" ","HOUSE_NO":"７１之１１號","E_COORD97":176165.53,"N_COORD97":2580024.1299999999,"ADDRESS":"土庫７１之１１號","OBJECTID":74505},"geometry":{"x":176165.53000000212,"y":2580024.129999999}},{"attributes":{"ID":74506,"DIS_CODE":0,"TOWNNAME":"鹽水區","LI":"水秀里","LIN":"6鄰","STREET":" ","SECT":" ","MAREA":"土庫","LANE":" ","ALLEY":" ","HOUSE_NO":"７１之１２號","E_COORD97":176170.04000000001,"N_COORD97":2580021.3399999999,"ADDRESS":"土庫７１之１２號","OBJECTID":74506},"geometry":{"x":176170.04000000004,"y":2580021.3400000017}},{"attributes":{"ID":74507,"DIS_CODE":0,"TOWNNAME":"鹽水區","LI":"水秀里","LIN":"6鄰","STREET":" ","SECT":" ","MAREA":"土庫","LANE":" ","ALLEY":" ","HOUSE_NO":"７１之１３號","E_COORD97":176174.51000000001,"N_COORD97":2580018.54,"ADDRESS":"土庫７１之１３號","OBJECTID":74507},"geometry":{"x":176174.50999999978,"y":2580018.5399999972}},{"attributes":{"ID":74508,"DIS_CODE":0,"TOWNNAME":"北區","LI":"大港里","LIN":"30鄰","STREET":"賢北街","SECT":" ","MAREA":" ","LANE":"１９５巷","ALLEY":"８弄","HOUSE_NO":"１４號","E_COORD97":166162.13,"N_COORD97":2545608.8999999999,"ADDRESS":"賢北街１９５巷８弄１４號","OBJECTID":74508},"geometry":{"x":166162.12999999989,"y":2545608.9000000022}},{"attributes":{"ID":74509,"DIS_CODE":0,"TOWNNAME":"鹽水區","LI":"水秀里","LIN":"6鄰","STREET":" ","SECT":" ","MAREA":"土庫","LANE":" ","ALLEY":" ","HOUSE_NO":"７１之１５號","E_COORD97":176178.72,"N_COORD97":2580016.2799999998,"ADDRESS":"土庫７１之１５號","OBJECTID":74509},"geometry":{"x":176178.71999999974,"y":2580016.2799999993}},{"attributes":{"ID":74510,"DIS_CODE":0,"TOWNNAME":"歸仁區","LI":"媽廟里","LIN":"8鄰","STREET":"和順路","SECT":"一段","MAREA":" ","LANE":"８０巷","ALLEY":" ","HOUSE_NO":"１４號","E_COORD97":177332.92000000001,"N_COORD97":2543744.7200000002,"ADDRESS":"和順路一段８０巷１４號","OBJECTID":74510},"geometry":{"x":177332.92000000086,"y":2543744.7200000007}},{"attributes":{"ID":74511,"DIS_CODE":0,"TOWNNAME":"鹽水區","LI":"水秀里","LIN":"6鄰","STREET":" ","SECT":" ","MAREA":"土庫","LANE":" ","ALLEY":" ","HOUSE_NO":"７１之１６號","E_COORD97":176183.42999999999,"N_COORD97":2580013.0600000001,"ADDRESS":"土庫７１之１６號","OBJECTID":74511},"geometry":{"x":176183.4299999997,"y":2580013.0599999987}},{"attributes":{"ID":74512,"DIS_CODE":0,"TOWNNAME":"鹽水區","LI":"水秀里","LIN":"6鄰","STREET":" ","SECT":" ","MAREA":"土庫","LANE":" ","ALLEY":" ","HOUSE_NO":"７１之１７號","E_COORD97":176188.79999999999,"N_COORD97":2580009.25,"ADDRESS":"土庫７１之１７號","OBJECTID":74512},"geometry":{"x":176188.80000000075,"y":2580009.2500000019}},{"attributes":{"ID":74513,"DIS_CODE":0,"TOWNNAME":"鹽水區","LI":"水秀里","LIN":"6鄰","STREET":" ","SECT":" ","MAREA":"土庫","LANE":" ","ALLEY":" ","HOUSE_NO":"７１之１８號","E_COORD97":176194.42999999999,"N_COORD97":2580004.7999999998,"ADDRESS":"土庫７１之１８號","OBJECTID":74513},"geometry":{"x":176194.43000000156,"y":2580004.8000000007}},{"attributes":{"ID":74514,"DIS_CODE":0,"TOWNNAME":"鹽水區","LI":"水秀里","LIN":"6鄰","STREET":" ","SECT":" ","MAREA":"土庫","LANE":" ","ALLEY":" ","HOUSE_NO":"７１之１９號","E_COORD97":176199.42000000001,"N_COORD97":2580000.52,"ADDRESS":"土庫７１之１９號","OBJECTID":74514},"geometry":{"x":176199.41999999993,"y":2580000.5200000014}},{"attributes":{"ID":74515,"DIS_CODE":0,"TOWNNAME":"鹽水區","LI":"水秀里","LIN":"6鄰","STREET":" ","SECT":" ","MAREA":"土庫","LANE":" ","ALLEY":" ","HOUSE_NO":"７１之１號","E_COORD97":176125.76999999999,"N_COORD97":2580049.8100000001,"ADDRESS":"土庫７１之１號","OBJECTID":74515},"geometry":{"x":176125.76999999862,"y":2580049.8100000024}},{"attributes":{"ID":74516,"DIS_CODE":0,"TOWNNAME":"鹽水區","LI":"水秀里","LIN":"6鄰","STREET":" ","SECT":" ","MAREA":"土庫","LANE":" ","ALLEY":" ","HOUSE_NO":"７１之２０號","E_COORD97":176137.32999999999,"N_COORD97":2580019.1200000001,"ADDRESS":"土庫７１之２０號","OBJECTID":74516},"geometry":{"x":176137.33000000007,"y":2580019.120000001}},{"attributes":{"ID":74517,"DIS_CODE":0,"TOWNNAME":"鹽水區","LI":"水秀里","LIN":"6鄰","STREET":" ","SECT":" ","MAREA":"土庫","LANE":" ","ALLEY":" ","HOUSE_NO":"７１之２１號","E_COORD97":176141.59,"N_COORD97":2580016.29,"ADDRESS":"土庫７１之２１號","OBJECTID":74517},"geometry":{"x":176141.59000000078,"y":2580016.2899999991}},{"attributes":{"ID":74518,"DIS_CODE":0,"TOWNNAME":"鹽水區","LI":"水秀里","LIN":"6鄰","STREET":" ","SECT":" ","MAREA":"土庫","LANE":" ","ALLEY":" ","HOUSE_NO":"７１之２２號","E_COORD97":176145.85000000001,"N_COORD97":2580013.46,"ADDRESS":"土庫７１之２２號","OBJECTID":74518},"geometry":{"x":176145.85000000149,"y":2580013.4600000009}},{"attributes":{"ID":74519,"DIS_CODE":0,"TOWNNAME":"鹽水區","LI":"水秀里","LIN":"6鄰","STREET":" ","SECT":" ","MAREA":"土庫","LANE":" ","ALLEY":" ","HOUSE_NO":"７１之２３號","E_COORD97":176150.10999999999,"N_COORD97":2580010.6299999999,"ADDRESS":"土庫７１之２３號","OBJECTID":74519},"geometry":{"x":176150.11000000127,"y":2580010.629999999}},{"attributes":{"ID":74520,"DIS_CODE":0,"TOWNNAME":"鹽水區","LI":"水秀里","LIN":"6鄰","STREET":" ","SECT":" ","MAREA":"土庫","LANE":" ","ALLEY":" ","HOUSE_NO":"７１之２５號","E_COORD97":176154.37,"N_COORD97":2580007.7999999998,"ADDRESS":"土庫７１之２５號","OBJECTID":74520},"geometry":{"x":176154.37000000011,"y":2580007.8000000007}},{"attributes":{"ID":74521,"DIS_CODE":0,"TOWNNAME":"鹽水區","LI":"水秀里","LIN":"6鄰","STREET":" ","SECT":" ","MAREA":"土庫","LANE":" ","ALLEY":" ","HOUSE_NO":"７１之２６號","E_COORD97":176158.64000000001,"N_COORD97":2580004.98,"ADDRESS":"土庫７１之２６號","OBJECTID":74521},"geometry":{"x":176158.63999999966,"y":2580004.9800000023}},{"attributes":{"ID":74522,"DIS_CODE":0,"TOWNNAME":"鹽水區","LI":"水秀里","LIN":"6鄰","STREET":" ","SECT":" ","MAREA":"土庫","LANE":" ","ALLEY":" ","HOUSE_NO":"７１之２７號","E_COORD97":176162.89999999999,"N_COORD97":2580002.1499999999,"ADDRESS":"土庫７１之２７號","OBJECTID":74522},"geometry":{"x":176162.90000000037,"y":2580002.1499999985}},{"attributes":{"ID":74523,"DIS_CODE":0,"TOWNNAME":"鹽水區","LI":"水秀里","LIN":"6鄰","STREET":" ","SECT":" ","MAREA":"土庫","LANE":" ","ALLEY":" ","HOUSE_NO":"７１之２８號","E_COORD97":176167.16,"N_COORD97":2579999.3199999998,"ADDRESS":"土庫７１之２８號","OBJECTID":74523},"geometry":{"x":176167.16000000015,"y":2579999.3200000022}},{"attributes":{"ID":74524,"DIS_CODE":0,"TOWNNAME":"鹽水區","LI":"水秀里","LIN":"6鄰","STREET":" ","SECT":" ","MAREA":"土庫","LANE":" ","ALLEY":" ","HOUSE_NO":"７１之２９號","E_COORD97":176171.42000000001,"N_COORD97":2579996.4900000002,"ADDRESS":"土庫７１之２９號","OBJECTID":74524},"geometry":{"x":176171.42000000086,"y":2579996.4900000039}},{"attributes":{"ID":74525,"DIS_CODE":0,"TOWNNAME":"鹽水區","LI":"水秀里","LIN":"6鄰","STREET":" ","SECT":" ","MAREA":"土庫","LANE":" ","ALLEY":" ","HOUSE_NO":"７１之２號","E_COORD97":176131.37,"N_COORD97":2580045.8799999999,"ADDRESS":"土庫７１之２號","OBJECTID":74525},"geometry":{"x":176131.37000000104,"y":2580045.879999999}},{"attributes":{"ID":74526,"DIS_CODE":0,"TOWNNAME":"鹽水區","LI":"水秀里","LIN":"6鄰","STREET":" ","SECT":" ","MAREA":"土庫","LANE":" ","ALLEY":" ","HOUSE_NO":"７１之３０號","E_COORD97":176175.67999999999,"N_COORD97":2579993.6600000001,"ADDRESS":"土庫７１之３０號","OBJECTID":74526},"geometry":{"x":176175.67999999877,"y":2579993.6600000001}},{"attributes":{"ID":74527,"DIS_CODE":0,"TOWNNAME":"鹽水區","LI":"水秀里","LIN":"6鄰","STREET":" ","SECT":" ","MAREA":"土庫","LANE":" ","ALLEY":" ","HOUSE_NO":"７１之３１號","E_COORD97":176179.94,"N_COORD97":2579990.8399999999,"ADDRESS":"土庫７１之３１號","OBJECTID":74527},"geometry":{"x":176179.94000000227,"y":2579990.8400000017}},{"attributes":{"ID":74528,"DIS_CODE":0,"TOWNNAME":"鹽水區","LI":"水秀里","LIN":"6鄰","STREET":" ","SECT":" ","MAREA":"土庫","LANE":" ","ALLEY":" ","HOUSE_NO":"７１之３２號","E_COORD97":176186.13,"N_COORD97":2579990.7200000002,"ADDRESS":"土庫７１之３２號","OBJECTID":74528},"geometry":{"x":176186.12999999989,"y":2579990.7200000007}},{"attributes":{"ID":74529,"DIS_CODE":0,"TOWNNAME":"鹽水區","LI":"水秀里","LIN":"6鄰","STREET":" ","SECT":" ","MAREA":"土庫","LANE":" ","ALLEY":" ","HOUSE_NO":"７１之３號","E_COORD97":176135.54000000001,"N_COORD97":2580043.6099999999,"ADDRESS":"土庫７１之３號","OBJECTID":74529},"geometry":{"x":176135.54000000004,"y":2580043.6100000013}},{"attributes":{"ID":74530,"DIS_CODE":0,"TOWNNAME":"鹽水區","LI":"水秀里","LIN":"6鄰","STREET":" ","SECT":" ","MAREA":"土庫","LANE":" ","ALLEY":" ","HOUSE_NO":"７１之５號","E_COORD97":176140.23999999999,"N_COORD97":2580040.6299999999,"ADDRESS":"土庫７１之５號","OBJECTID":74530},"geometry":{"x":176140.23999999929,"y":2580040.629999999}},{"attributes":{"ID":74531,"DIS_CODE":0,"TOWNNAME":"鹽水區","LI":"水秀里","LIN":"6鄰","STREET":" ","SECT":" ","MAREA":"土庫","LANE":" ","ALLEY":" ","HOUSE_NO":"７１之６號","E_COORD97":176144.35000000001,"N_COORD97":2580038.2999999998,"ADDRESS":"土庫７１之６號","OBJECTID":74531},"geometry":{"x":176144.35000000056,"y":2580038.3000000007}},{"attributes":{"ID":74532,"DIS_CODE":0,"TOWNNAME":"鹽水區","LI":"水秀里","LIN":"6鄰","STREET":" ","SECT":" ","MAREA":"土庫","LANE":" ","ALLEY":" ","HOUSE_NO":"７１之７號","E_COORD97":176148.91,"N_COORD97":2580034.8799999999,"ADDRESS":"土庫７１之７號","OBJECTID":74532},"geometry":{"x":176148.91000000015,"y":2580034.879999999}},{"attributes":{"ID":74533,"DIS_CODE":0,"TOWNNAME":"鹽水區","LI":"水秀里","LIN":"6鄰","STREET":" ","SECT":" ","MAREA":"土庫","LANE":" ","ALLEY":" ","HOUSE_NO":"７１之８號","E_COORD97":176153.42000000001,"N_COORD97":2580032.4700000002,"ADDRESS":"土庫７１之８號","OBJECTID":74533},"geometry":{"x":176153.41999999993,"y":2580032.4700000025}},{"attributes":{"ID":74534,"DIS_CODE":0,"TOWNNAME":"鹽水區","LI":"水秀里","LIN":"6鄰","STREET":" ","SECT":" ","MAREA":"土庫","LANE":" ","ALLEY":" ","HOUSE_NO":"７１之９號","E_COORD97":176157.45000000001,"N_COORD97":2580030.1299999999,"ADDRESS":"土庫７１之９號","OBJECTID":74534},"geometry":{"x":176157.45000000205,"y":2580030.129999999}},{"attributes":{"ID":74535,"DIS_CODE":0,"TOWNNAME":"鹽水區","LI":"水秀里","LIN":"6鄰","STREET":" ","SECT":" ","MAREA":"土庫","LANE":" ","ALLEY":" ","HOUSE_NO":"７３號之１","E_COORD97":175959.73000000001,"N_COORD97":2580155.75,"ADDRESS":"土庫７３號之１","OBJECTID":74535},"geometry":{"x":175959.73000000138,"y":2580155.75}},{"attributes":{"ID":74536,"DIS_CODE":0,"TOWNNAME":"鹽水區","LI":"水秀里","LIN":"6鄰","STREET":" ","SECT":" ","MAREA":"土庫","LANE":" ","ALLEY":" ","HOUSE_NO":"７３之５號","E_COORD97":175929.29000000001,"N_COORD97":2580151.3300000001,"ADDRESS":"土庫７３之５號","OBJECTID":74536},"geometry":{"x":175929.29000000004,"y":2580151.3300000019}},{"attributes":{"ID":74537,"DIS_CODE":0,"TOWNNAME":"鹽水區","LI":"水秀里","LIN":"6鄰","STREET":" ","SECT":" ","MAREA":"土庫","LANE":" ","ALLEY":" ","HOUSE_NO":"７３號","E_COORD97":176032,"N_COORD97":2580134.6800000002,"ADDRESS":"土庫７３號","OBJECTID":74537},"geometry":{"x":176032.00000000093,"y":2580134.6800000016}},{"attributes":{"ID":74538,"DIS_CODE":0,"TOWNNAME":"新營區","LI":"大宏里","LIN":"8鄰","STREET":"民族路","SECT":" ","MAREA":" ","LANE":" ","ALLEY":" ","HOUSE_NO":"２之５號","E_COORD97":180309.04999999999,"N_COORD97":2578357.5800000001,"ADDRESS":"民族路２之５號","OBJECTID":74538},"geometry":{"x":180309.04999999981,"y":2578357.5800000001}},{"attributes":{"ID":74539,"DIS_CODE":0,"TOWNNAME":"鹽水區","LI":"水秀里","LIN":"6鄰","STREET":" ","SECT":" ","MAREA":"土庫","LANE":" ","ALLEY":" ","HOUSE_NO":"７４號","E_COORD97":176026.44,"N_COORD97":2580176.75,"ADDRESS":"土庫７４號","OBJECTID":74539},"geometry":{"x":176026.44000000041,"y":2580176.75}},{"attributes":{"ID":74540,"DIS_CODE":0,"TOWNNAME":"鹽水區","LI":"水秀里","LIN":"6鄰","STREET":" ","SECT":" ","MAREA":"土庫","LANE":" ","ALLEY":" ","HOUSE_NO":"７７號","E_COORD97":176101.54999999999,"N_COORD97":2580354.79,"ADDRESS":"土庫７７號","OBJECTID":74540},"geometry":{"x":176101.54999999981,"y":2580354.7899999991}},{"attributes":{"ID":74541,"DIS_CODE":0,"TOWNNAME":"鹽水區","LI":"水秀里","LIN":"6鄰","STREET":" ","SECT":" ","MAREA":"土庫","LANE":" ","ALLEY":" ","HOUSE_NO":"７９號","E_COORD97":176104.42999999999,"N_COORD97":2580330.4399999999,"ADDRESS":"土庫７９號","OBJECTID":74541},"geometry":{"x":176104.4299999997,"y":2580330.4399999995}},{"attributes":{"ID":74542,"DIS_CODE":0,"TOWNNAME":"鹽水區","LI":"水秀里","LIN":"6鄰","STREET":" ","SECT":" ","MAREA":"土庫","LANE":" ","ALLEY":" ","HOUSE_NO":"８１號之１","E_COORD97":176033.14999999999,"N_COORD97":2580210.6699999999,"ADDRESS":"土庫８１號之１","OBJECTID":74542},"geometry":{"x":176033.1500000013,"y":2580210.6699999999}},{"attributes":{"ID":74543,"DIS_CODE":0,"TOWNNAME":"鹽水區","LI":"水秀里","LIN":"6鄰","STREET":" ","SECT":" ","MAREA":"土庫","LANE":" ","ALLEY":" ","HOUSE_NO":"８１號","E_COORD97":176016.26000000001,"N_COORD97":2580201.8500000001,"ADDRESS":"土庫８１號","OBJECTID":74543},"geometry":{"x":176016.26000000071,"y":2580201.8500000015}},{"attributes":{"ID":74544,"DIS_CODE":0,"TOWNNAME":"鹽水區","LI":"水秀里","LIN":"6鄰","STREET":" ","SECT":" ","MAREA":"土庫","LANE":" ","ALLEY":" ","HOUSE_NO":"８２之１號","E_COORD97":176042.04000000001,"N_COORD97":2580261.0600000001,"ADDRESS":"土庫８２之１號","OBJECTID":74544},"geometry":{"x":176042.04000000097,"y":2580261.0600000024}},{"attributes":{"ID":74545,"DIS_CODE":0,"TOWNNAME":"鹽水區","LI":"水秀里","LIN":"6鄰","STREET":" ","SECT":" ","MAREA":"土庫","LANE":" ","ALLEY":" ","HOUSE_NO":"８２之２號","E_COORD97":176033.78,"N_COORD97":2580259.52,"ADDRESS":"土庫８２之２號","OBJECTID":74545},"geometry":{"x":176033.78000000119,"y":2580259.5199999996}},{"attributes":{"ID":74546,"DIS_CODE":0,"TOWNNAME":"鹽水區","LI":"水秀里","LIN":"6鄰","STREET":" ","SECT":" ","MAREA":"土庫","LANE":" ","ALLEY":" ","HOUSE_NO":"８２之３號","E_COORD97":176047.73999999999,"N_COORD97":2580261.3300000001,"ADDRESS":"土庫８２之３號","OBJECTID":74546},"geometry":{"x":176047.74000000115,"y":2580261.3300000001}},{"attributes":{"ID":74547,"DIS_CODE":0,"TOWNNAME":"鹽水區","LI":"水秀里","LIN":"6鄰","STREET":" ","SECT":" ","MAREA":"土庫","LANE":" ","ALLEY":" ","HOUSE_NO":"８２號","E_COORD97":176103.45999999999,"N_COORD97":2580275.8399999999,"ADDRESS":"土庫８２號","OBJECTID":74547},"geometry":{"x":176103.46000000089,"y":2580275.8400000017}},{"attributes":{"ID":74548,"DIS_CODE":0,"TOWNNAME":"鹽水區","LI":"大莊里","LIN":"6鄰","STREET":" ","SECT":" ","MAREA":"大莊","LANE":" ","ALLEY":" ","HOUSE_NO":"２５之１０號","E_COORD97":172889.98000000001,"N_COORD97":2576807.04,"ADDRESS":"大莊２５之１０號","OBJECTID":74548},"geometry":{"x":172889.98000000138,"y":2576807.0399999991}},{"attributes":{"ID":74549,"DIS_CODE":0,"TOWNNAME":"鹽水區","LI":"大莊里","LIN":"6鄰","STREET":" ","SECT":" ","MAREA":"大莊","LANE":" ","ALLEY":" ","HOUSE_NO":"２５之１３號","E_COORD97":172906,"N_COORD97":2576815.54,"ADDRESS":"大莊２５之１３號","OBJECTID":74549},"geometry":{"x":172906.00000000093,"y":2576815.540000001}},{"attributes":{"ID":74550,"DIS_CODE":0,"TOWNNAME":"北區","LI":"大港里","LIN":"30鄰","STREET":"賢北街","SECT":" ","MAREA":" ","LANE":"１９５巷","ALLEY":"８弄","HOUSE_NO":"１５號","E_COORD97":166150.81,"N_COORD97":2545606.7999999998,"ADDRESS":"賢北街１９５巷８弄１５號","OBJECTID":74550},"geometry":{"x":166150.80999999959,"y":2545606.8000000026}},{"attributes":{"ID":74551,"DIS_CODE":0,"TOWNNAME":"北區","LI":"大港里","LIN":"30鄰","STREET":"賢北街","SECT":" ","MAREA":" ","LANE":"１９５巷","ALLEY":"８弄","HOUSE_NO":"１６號","E_COORD97":166159.31,"N_COORD97":2545612.9900000002,"ADDRESS":"賢北街１９５巷８弄１６號","OBJECTID":74551},"geometry":{"x":166159.30999999959,"y":2545612.9900000002}},{"attributes":{"ID":74552,"DIS_CODE":0,"TOWNNAME":"北區","LI":"大港里","LIN":"30鄰","STREET":"賢北街","SECT":" ","MAREA":" ","LANE":"１９５巷","ALLEY":"８弄","HOUSE_NO":"１７號","E_COORD97":166148.56,"N_COORD97":2545610.4700000002,"ADDRESS":"賢北街１９５巷８弄１７號","OBJECTID":74552},"geometry":{"x":166148.56000000052,"y":2545610.4700000007}},{"attributes":{"ID":74553,"DIS_CODE":0,"TOWNNAME":"北區","LI":"大港里","LIN":"30鄰","STREET":"賢北街","SECT":" ","MAREA":" ","LANE":"１９５巷","ALLEY":"８弄","HOUSE_NO":"１８號","E_COORD97":166156.76999999999,"N_COORD97":2545616.3799999999,"ADDRESS":"賢北街１９５巷８弄１８號","OBJECTID":74553},"geometry":{"x":166156.77000000048,"y":2545616.379999999}},{"attributes":{"ID":74554,"DIS_CODE":0,"TOWNNAME":"北區","LI":"大港里","LIN":"30鄰","STREET":"賢北街","SECT":" ","MAREA":" ","LANE":"１９５巷","ALLEY":"８弄","HOUSE_NO":"１９號","E_COORD97":166146.17000000001,"N_COORD97":2545614.1299999999,"ADDRESS":"賢北街１９５巷８弄１９號","OBJECTID":74554},"geometry":{"x":166146.17000000086,"y":2545614.129999999}},{"attributes":{"ID":74555,"DIS_CODE":0,"TOWNNAME":"北區","LI":"大港里","LIN":"30鄰","STREET":"賢北街","SECT":" ","MAREA":" ","LANE":"１９５巷","ALLEY":"８弄","HOUSE_NO":"１號","E_COORD97":166165.29999999999,"N_COORD97":2545580.5099999998,"ADDRESS":"賢北街１９５巷８弄１號","OBJECTID":74555},"geometry":{"x":166165.30000000075,"y":2545580.5100000016}},{"attributes":{"ID":74556,"DIS_CODE":0,"TOWNNAME":"北區","LI":"大港里","LIN":"30鄰","STREET":"賢北街","SECT":" ","MAREA":" ","LANE":"１９５巷","ALLEY":"８弄","HOUSE_NO":"２０號","E_COORD97":166153.95000000001,"N_COORD97":2545619.8999999999,"ADDRESS":"賢北街１９５巷８弄２０號","OBJECTID":74556},"geometry":{"x":166153.95000000019,"y":2545619.9000000022}},{"attributes":{"ID":74557,"DIS_CODE":0,"TOWNNAME":"北區","LI":"大港里","LIN":"30鄰","STREET":"賢北街","SECT":" ","MAREA":" ","LANE":"１９５巷","ALLEY":"８弄","HOUSE_NO":"２１號","E_COORD97":166143.63,"N_COORD97":2545617.3700000001,"ADDRESS":"賢北街１９５巷８弄２１號","OBJECTID":74557},"geometry":{"x":166143.62999999989,"y":2545617.3700000029}},{"attributes":{"ID":74558,"DIS_CODE":0,"TOWNNAME":"鹽水區","LI":"大莊里","LIN":"6鄰","STREET":" ","SECT":" ","MAREA":"大莊","LANE":" ","ALLEY":" ","HOUSE_NO":"４３號","E_COORD97":172795.07999999999,"N_COORD97":2576848.8300000001,"ADDRESS":"大莊４３號","OBJECTID":74558},"geometry":{"x":172795.08000000101,"y":2576848.8300000019}},{"attributes":{"ID":74559,"DIS_CODE":0,"TOWNNAME":"北區","LI":"大港里","LIN":"30鄰","STREET":"賢北街","SECT":" ","MAREA":" ","LANE":"１９５巷","ALLEY":"８弄","HOUSE_NO":"２２號","E_COORD97":166151.26999999999,"N_COORD97":2545623.4199999999,"ADDRESS":"賢北街１９５巷８弄２２號","OBJECTID":74559},"geometry":{"x":166151.26999999862,"y":2545623.4199999999}},{"attributes":{"ID":74560,"DIS_CODE":0,"TOWNNAME":"北區","LI":"大港里","LIN":"30鄰","STREET":"賢北街","SECT":" ","MAREA":" ","LANE":"１９５巷","ALLEY":"８弄","HOUSE_NO":"２３號","E_COORD97":166140.67000000001,"N_COORD97":2545621.04,"ADDRESS":"賢北街１９５巷８弄２３號","OBJECTID":74560},"geometry":{"x":166140.67000000179,"y":2545621.040000001}},{"attributes":{"ID":74561,"DIS_CODE":0,"TOWNNAME":"北區","LI":"大港里","LIN":"30鄰","STREET":"賢北街","SECT":" ","MAREA":" ","LANE":"１９５巷","ALLEY":"８弄","HOUSE_NO":"２４號","E_COORD97":166149.29999999999,"N_COORD97":2545626.3799999999,"ADDRESS":"賢北街１９５巷８弄２４號","OBJECTID":74561},"geometry":{"x":166149.29999999981,"y":2545626.379999999}},{"attributes":{"ID":74562,"DIS_CODE":0,"TOWNNAME":"北區","LI":"大港里","LIN":"30鄰","STREET":"賢北街","SECT":" ","MAREA":" ","LANE":"１９５巷","ALLEY":"８弄","HOUSE_NO":"２５號","E_COORD97":166138.26999999999,"N_COORD97":2545624.4199999999,"ADDRESS":"賢北街１９５巷８弄２５號","OBJECTID":74562},"geometry":{"x":166138.27000000048,"y":2545624.4199999999}},{"attributes":{"ID":74563,"DIS_CODE":0,"TOWNNAME":"北區","LI":"大港里","LIN":"30鄰","STREET":"賢北街","SECT":" ","MAREA":" ","LANE":"１９５巷","ALLEY":"８弄","HOUSE_NO":"２６號","E_COORD97":166146.35000000001,"N_COORD97":2545631.1699999999,"ADDRESS":"賢北街１９５巷８弄２６號","OBJECTID":74563},"geometry":{"x":166146.35000000056,"y":2545631.1700000018}},{"attributes":{"ID":74564,"DIS_CODE":0,"TOWNNAME":"北區","LI":"大港里","LIN":"30鄰","STREET":"賢北街","SECT":" ","MAREA":" ","LANE":"１９５巷","ALLEY":"８弄","HOUSE_NO":"２７號","E_COORD97":166135.17000000001,"N_COORD97":2545628.5099999998,"ADDRESS":"賢北街１９５巷８弄２７號","OBJECTID":74564},"geometry":{"x":166135.16999999993,"y":2545628.5100000016}},{"attributes":{"ID":74565,"DIS_CODE":0,"TOWNNAME":"北區","LI":"大港里","LIN":"30鄰","STREET":"賢北街","SECT":" ","MAREA":" ","LANE":"１９５巷","ALLEY":"８弄","HOUSE_NO":"２８號","E_COORD97":166143.51999999999,"N_COORD97":2545633.8500000001,"ADDRESS":"賢北街１９５巷８弄２８號","OBJECTID":74565},"geometry":{"x":166143.52000000048,"y":2545633.8499999996}},{"attributes":{"ID":74566,"DIS_CODE":0,"TOWNNAME":"東區","LI":"崇文里","LIN":"7鄰","STREET":"崇德十七街","SECT":" ","MAREA":" ","LANE":" ","ALLEY":" ","HOUSE_NO":"９４號","E_COORD97":171012.79999999999,"N_COORD97":2541065.04,"ADDRESS":"崇德十七街９４號","OBJECTID":74566},"geometry":{"x":171012.79999999981,"y":2541065.0399999991}},{"attributes":{"ID":74567,"DIS_CODE":0,"TOWNNAME":"鹽水區","LI":"大莊里","LIN":"6鄰","STREET":" ","SECT":" ","MAREA":"大莊","LANE":" ","ALLEY":" ","HOUSE_NO":"２５之１４號","E_COORD97":172907.12,"N_COORD97":2576810.9900000002,"ADDRESS":"大莊２５之１４號","OBJECTID":74567},"geometry":{"x":172907.12000000104,"y":2576810.9900000021}},{"attributes":{"ID":74568,"DIS_CODE":0,"TOWNNAME":"鹽水區","LI":"大莊里","LIN":"6鄰","STREET":" ","SECT":" ","MAREA":"大莊","LANE":" ","ALLEY":" ","HOUSE_NO":"２５之１５號","E_COORD97":172907.79000000001,"N_COORD97":2576806.0699999998,"ADDRESS":"大莊２５之１５號","OBJECTID":74568},"geometry":{"x":172907.79000000097,"y":2576806.0700000022}},{"attributes":{"ID":74569,"DIS_CODE":0,"TOWNNAME":"東區","LI":"崇文里","LIN":"7鄰","STREET":"崇德十七街","SECT":" ","MAREA":" ","LANE":" ","ALLEY":" ","HOUSE_NO":"９６號","E_COORD97":171017.48000000001,"N_COORD97":2541064.9399999999,"ADDRESS":"崇德十七街９６號","OBJECTID":74569},"geometry":{"x":171017.48000000045,"y":2541064.9400000013}},{"attributes":{"ID":74570,"DIS_CODE":0,"TOWNNAME":"東區","LI":"崇文里","LIN":"7鄰","STREET":"崇德十七街","SECT":" ","MAREA":" ","LANE":" ","ALLEY":" ","HOUSE_NO":"９８號","E_COORD97":171022.06,"N_COORD97":2541064.9399999999,"ADDRESS":"崇德十七街９８號","OBJECTID":74570},"geometry":{"x":171022.06000000052,"y":2541064.9400000013}},{"attributes":{"ID":74571,"DIS_CODE":0,"TOWNNAME":"中西區","LI":"保安里","LIN":"7鄰","STREET":"府前路","SECT":"二段","MAREA":" ","LANE":" ","ALLEY":" ","HOUSE_NO":"８６號","E_COORD97":167551.10000000001,"N_COORD97":2543516.8399999999,"ADDRESS":"府前路二段８６號","OBJECTID":74571},"geometry":{"x":167551.10000000149,"y":2543516.8400000036}},{"attributes":{"ID":74572,"DIS_CODE":0,"TOWNNAME":"北區","LI":"大港里","LIN":"30鄰","STREET":"賢北街","SECT":" ","MAREA":" ","LANE":"１９５巷","ALLEY":"８弄","HOUSE_NO":"２號","E_COORD97":166174.64000000001,"N_COORD97":2545584.73,"ADDRESS":"賢北街１９５巷８弄２號","OBJECTID":74572},"geometry":{"x":166174.6400000006,"y":2545584.7300000004}},{"attributes":{"ID":74573,"DIS_CODE":0,"TOWNNAME":"北區","LI":"大港里","LIN":"30鄰","STREET":"賢北街","SECT":" ","MAREA":" ","LANE":"１９５巷","ALLEY":"８弄","HOUSE_NO":"３號","E_COORD97":166163.48999999999,"N_COORD97":2545584.8799999999,"ADDRESS":"賢北街１９５巷８弄３號","OBJECTID":74573},"geometry":{"x":166163.49000000022,"y":2545584.8800000008}},{"attributes":{"ID":74574,"DIS_CODE":0,"TOWNNAME":"北區","LI":"大港里","LIN":"30鄰","STREET":"賢北街","SECT":" ","MAREA":" ","LANE":"１９５巷","ALLEY":"８弄","HOUSE_NO":"４號","E_COORD97":166171.97,"N_COORD97":2545589.2400000002,"ADDRESS":"賢北街１９５巷８弄４號","OBJECTID":74574},"geometry":{"x":166171.96999999974,"y":2545589.2400000039}},{"attributes":{"ID":74575,"DIS_CODE":0,"TOWNNAME":"新營區","LI":"民生里","LIN":"8鄰","STREET":"復興路","SECT":" ","MAREA":" ","LANE":" ","ALLEY":" ","HOUSE_NO":"１３８號","E_COORD97":179324.54000000001,"N_COORD97":2578049.8900000001,"ADDRESS":"復興路１３８號","OBJECTID":74575},"geometry":{"x":179324.54000000004,"y":2578049.8900000006}},{"attributes":{"ID":74576,"DIS_CODE":0,"TOWNNAME":"歸仁區","LI":"歸仁里","LIN":"8鄰","STREET":"大通一街","SECT":" ","MAREA":" ","LANE":" ","ALLEY":" ","HOUSE_NO":"７９號","E_COORD97":177883.51000000001,"N_COORD97":2540953.4900000002,"ADDRESS":"大通一街７９號","OBJECTID":74576},"geometry":{"x":177883.50999999978,"y":2540953.4900000021}},{"attributes":{"ID":74577,"DIS_CODE":0,"TOWNNAME":"佳里區","LI":"佳化里","LIN":"7鄰","STREET":" ","SECT":" ","MAREA":"佳里興","LANE":" ","ALLEY":" ","HOUSE_NO":"６９號之９","E_COORD97":167580.60000000001,"N_COORD97":2565191.7799999998,"ADDRESS":"佳里興６９號之９","OBJECTID":74577},"geometry":{"x":167580.60000000056,"y":2565191.7800000012}},{"attributes":{"ID":74578,"DIS_CODE":0,"TOWNNAME":"佳里區","LI":"佳化里","LIN":"7鄰","STREET":" ","SECT":" ","MAREA":"佳里興","LANE":" ","ALLEY":" ","HOUSE_NO":"６９號","E_COORD97":167588.94,"N_COORD97":2565170.5899999999,"ADDRESS":"佳里興６９號","OBJECTID":74578},"geometry":{"x":167588.94000000134,"y":2565170.5900000017}},{"attributes":{"ID":74579,"DIS_CODE":0,"TOWNNAME":"佳里區","LI":"佳化里","LIN":"7鄰","STREET":" ","SECT":" ","MAREA":"佳里興","LANE":" ","ALLEY":" ","HOUSE_NO":"７０號之１","E_COORD97":167622.56,"N_COORD97":2565186.23,"ADDRESS":"佳里興７０號之１","OBJECTID":74579},"geometry":{"x":167622.56000000145,"y":2565186.2300000023}},{"attributes":{"ID":74580,"DIS_CODE":0,"TOWNNAME":"佳里區","LI":"佳化里","LIN":"7鄰","STREET":" ","SECT":" ","MAREA":"佳里興","LANE":" ","ALLEY":" ","HOUSE_NO":"７０號","E_COORD97":167629.63,"N_COORD97":2565167.29,"ADDRESS":"佳里興７０號","OBJECTID":74580},"geometry":{"x":167629.63000000082,"y":2565167.2900000028}},{"attributes":{"ID":74581,"DIS_CODE":0,"TOWNNAME":"鹽水區","LI":"大莊里","LIN":"6鄰","STREET":" ","SECT":" ","MAREA":"大莊","LANE":" ","ALLEY":" ","HOUSE_NO":"２５號之１６","E_COORD97":172908.32000000001,"N_COORD97":2576802.52,"ADDRESS":"大莊２５號之１６","OBJECTID":74581},"geometry":{"x":172908.3200000003,"y":2576802.5200000014}},{"attributes":{"ID":74582,"DIS_CODE":0,"TOWNNAME":"鹽水區","LI":"大莊里","LIN":"6鄰","STREET":" ","SECT":" ","MAREA":"大莊","LANE":" ","ALLEY":" ","HOUSE_NO":"２５號之１７","E_COORD97":173077.79000000001,"N_COORD97":2576910.2799999998,"ADDRESS":"大莊２５號之１７","OBJECTID":74582},"geometry":{"x":173077.79000000004,"y":2576910.2799999993}},{"attributes":{"ID":74583,"DIS_CODE":0,"TOWNNAME":"鹽水區","LI":"大莊里","LIN":"6鄰","STREET":" ","SECT":" ","MAREA":"大莊","LANE":" ","ALLEY":" ","HOUSE_NO":"２５之１號","E_COORD97":172877.35999999999,"N_COORD97":2576827.3599999999,"ADDRESS":"大莊２５之１號","OBJECTID":74583},"geometry":{"x":172877.36000000034,"y":2576827.3600000013}},{"attributes":{"ID":74584,"DIS_CODE":0,"TOWNNAME":"鹽水區","LI":"大莊里","LIN":"6鄰","STREET":" ","SECT":" ","MAREA":"大莊","LANE":" ","ALLEY":" ","HOUSE_NO":"２５號之２","E_COORD97":172881.23000000001,"N_COORD97":2576827.6899999999,"ADDRESS":"大莊２５號之２","OBJECTID":74584},"geometry":{"x":172881.23000000138,"y":2576827.6900000032}},{"attributes":{"ID":74585,"DIS_CODE":0,"TOWNNAME":"鹽水區","LI":"大莊里","LIN":"6鄰","STREET":" ","SECT":" ","MAREA":"大莊","LANE":" ","ALLEY":" ","HOUSE_NO":"２５之３號","E_COORD97":172885.72,"N_COORD97":2576828.27,"ADDRESS":"大莊２５之３號","OBJECTID":74585},"geometry":{"x":172885.72000000067,"y":2576828.2700000014}},{"attributes":{"ID":74586,"DIS_CODE":0,"TOWNNAME":"鹽水區","LI":"大莊里","LIN":"6鄰","STREET":" ","SECT":" ","MAREA":"大莊","LANE":" ","ALLEY":" ","HOUSE_NO":"２５之４號","E_COORD97":172890.12,"N_COORD97":2576828.6899999999,"ADDRESS":"大莊２５之４號","OBJECTID":74586},"geometry":{"x":172890.12000000104,"y":2576828.6900000013}},{"attributes":{"ID":74587,"DIS_CODE":0,"TOWNNAME":"鹽水區","LI":"大莊里","LIN":"6鄰","STREET":" ","SECT":" ","MAREA":"大莊","LANE":" ","ALLEY":" ","HOUSE_NO":"２５之５號","E_COORD97":172899.41,"N_COORD97":2576829.2799999998,"ADDRESS":"大莊２５之５號","OBJECTID":74587},"geometry":{"x":172899.41000000015,"y":2576829.2799999993}},{"attributes":{"ID":74588,"DIS_CODE":0,"TOWNNAME":"鹽水區","LI":"大莊里","LIN":"6鄰","STREET":" ","SECT":" ","MAREA":"大莊","LANE":" ","ALLEY":" ","HOUSE_NO":"２５號之６","E_COORD97":172903.81,"N_COORD97":2576829.9500000002,"ADDRESS":"大莊２５號之６","OBJECTID":74588},"geometry":{"x":172903.81000000052,"y":2576829.9500000011}},{"attributes":{"ID":74589,"DIS_CODE":0,"TOWNNAME":"鹽水區","LI":"大莊里","LIN":"6鄰","STREET":" ","SECT":" ","MAREA":"大莊","LANE":" ","ALLEY":" ","HOUSE_NO":"２５之７號","E_COORD97":172907.79999999999,"N_COORD97":2576830.6299999999,"ADDRESS":"大莊２５之７號","OBJECTID":74589},"geometry":{"x":172907.79999999981,"y":2576830.629999999}},{"attributes":{"ID":74590,"DIS_CODE":0,"TOWNNAME":"鹽水區","LI":"大莊里","LIN":"6鄰","STREET":" ","SECT":" ","MAREA":"大莊","LANE":" ","ALLEY":" ","HOUSE_NO":"２５號之８","E_COORD97":172912.45000000001,"N_COORD97":2576831.29,"ADDRESS":"大莊２５號之８","OBJECTID":74590},"geometry":{"x":172912.45000000019,"y":2576831.290000001}},{"attributes":{"ID":74591,"DIS_CODE":0,"TOWNNAME":"鹽水區","LI":"大莊里","LIN":"6鄰","STREET":" ","SECT":" ","MAREA":"大莊","LANE":" ","ALLEY":" ","HOUSE_NO":"２５之９號","E_COORD97":172888.70000000001,"N_COORD97":2576811.8500000001,"ADDRESS":"大莊２５之９號","OBJECTID":74591},"geometry":{"x":172888.70000000019,"y":2576811.8499999996}},{"attributes":{"ID":74592,"DIS_CODE":0,"TOWNNAME":"麻豆區","LI":"莊禮里","LIN":"6鄰","STREET":" ","SECT":" ","MAREA":"莊禮寮","LANE":" ","ALLEY":" ","HOUSE_NO":"７０號","E_COORD97":169355.26999999999,"N_COORD97":2566057.1099999999,"ADDRESS":"莊禮寮７０號","OBJECTID":74592},"geometry":{"x":169355.27000000142,"y":2566057.1100000031}},{"attributes":{"ID":74593,"DIS_CODE":0,"TOWNNAME":"麻豆區","LI":"麻口里","LIN":"6鄰","STREET":" ","SECT":" ","MAREA":"麻豆口","LANE":" ","ALLEY":" ","HOUSE_NO":"３９號之２","E_COORD97":170039.20999999999,"N_COORD97":2564558.6899999999,"ADDRESS":"麻豆口３９號之２","OBJECTID":74593},"geometry":{"x":170039.21000000183,"y":2564558.6900000013}},{"attributes":{"ID":74594,"DIS_CODE":0,"TOWNNAME":"麻豆區","LI":"麻口里","LIN":"6鄰","STREET":" ","SECT":" ","MAREA":"麻豆口","LANE":" ","ALLEY":" ","HOUSE_NO":"３９號","E_COORD97":170040.67000000001,"N_COORD97":2564538.5099999998,"ADDRESS":"麻豆口３９號","OBJECTID":74594},"geometry":{"x":170040.66999999993,"y":2564538.5099999998}},{"attributes":{"ID":74595,"DIS_CODE":0,"TOWNNAME":"麻豆區","LI":"麻口里","LIN":"6鄰","STREET":" ","SECT":" ","MAREA":"麻豆口","LANE":" ","ALLEY":" ","HOUSE_NO":"４０號","E_COORD97":169935.64999999999,"N_COORD97":2564643.0699999998,"ADDRESS":"麻豆口４０號","OBJECTID":74595},"geometry":{"x":169935.6500000013,"y":2564643.0700000003}},{"attributes":{"ID":74596,"DIS_CODE":0,"TOWNNAME":"麻豆區","LI":"麻口里","LIN":"6鄰","STREET":" ","SECT":" ","MAREA":"麻豆口","LANE":" ","ALLEY":" ","HOUSE_NO":"４２號","E_COORD97":169860.20000000001,"N_COORD97":2564617.46,"ADDRESS":"麻豆口４２號","OBJECTID":74596},"geometry":{"x":169860.20000000112,"y":2564617.4600000009}},{"attributes":{"ID":74597,"DIS_CODE":0,"TOWNNAME":"麻豆區","LI":"麻口里","LIN":"6鄰","STREET":" ","SECT":" ","MAREA":"麻豆口","LANE":" ","ALLEY":" ","HOUSE_NO":"４３號之１","E_COORD97":169887.66,"N_COORD97":2564566.1000000001,"ADDRESS":"麻豆口４３號之１","OBJECTID":74597},"geometry":{"x":169887.66000000108,"y":2564566.1000000015}},{"attributes":{"ID":74598,"DIS_CODE":0,"TOWNNAME":"北區","LI":"大港里","LIN":"30鄰","STREET":"賢北街","SECT":" ","MAREA":" ","LANE":"１９５巷","ALLEY":"８弄","HOUSE_NO":"５號","E_COORD97":166161.35000000001,"N_COORD97":2545588.8999999999,"ADDRESS":"賢北街１９５巷８弄５號","OBJECTID":74598},"geometry":{"x":166161.35000000056,"y":2545588.9000000022}},{"attributes":{"ID":74599,"DIS_CODE":0,"TOWNNAME":"麻豆區","LI":"麻口里","LIN":"6鄰","STREET":" ","SECT":" ","MAREA":"麻豆口","LANE":" ","ALLEY":" ","HOUSE_NO":"４３號","E_COORD97":169899.66,"N_COORD97":2564556.9199999999,"ADDRESS":"麻豆口４３號","OBJECTID":74599},"geometry":{"x":169899.66000000108,"y":2564556.9200000037}},{"attributes":{"ID":74600,"DIS_CODE":0,"TOWNNAME":"麻豆區","LI":"麻口里","LIN":"6鄰","STREET":" ","SECT":" ","MAREA":"麻豆口","LANE":" ","ALLEY":" ","HOUSE_NO":"４４號","E_COORD97":169887.23999999999,"N_COORD97":2564568.9199999999,"ADDRESS":"麻豆口４４號","OBJECTID":74600},"geometry":{"x":169887.24000000115,"y":2564568.9199999999}}]}