{"displayFieldName":"TOWNNAME","fieldAliases":{"ID":"ID","DIS_CODE":"DIS_CODE","TOWNNAME":"TOWNNAME","LI":"LI","LIN":"LIN","STREET":"STREET","SECT":"SECT","MAREA":"MAREA","LANE":"LANE","ALLEY":"ALLEY","HOUSE_NO":"HOUSE_NO","E_COORD97":"E_COORD97","N_COORD97":"N_COORD97","ADDRESS":"ADDRESS","OBJECTID":"OBJECTID"},"geometryType":"esriGeometryPoint","spatialReference":{"wkid":102443,"latestWkid":3826},"fields":[{"name":"ID","type":"esriFieldTypeDouble","alias":"ID"},{"name":"DIS_CODE","type":"esriFieldTypeInteger","alias":"DIS_CODE"},{"name":"TOWNNAME","type":"esriFieldTypeString","alias":"TOWNNAME","length":8},{"name":"LI","type":"esriFieldTypeString","alias":"LI","length":8},{"name":"LIN","type":"esriFieldTypeString","alias":"LIN","length":12},{"name":"STREET","type":"esriFieldTypeString","alias":"STREET","length":20},{"name":"SECT","type":"esriFieldTypeString","alias":"SECT","length":8},{"name":"MAREA","type":"esriFieldTypeString","alias":"MAREA","length":12},{"name":"LANE","type":"esriFieldTypeString","alias":"LANE","length":10},{"name":"ALLEY","type":"esriFieldTypeString","alias":"ALLEY","length":10},{"name":"HOUSE_NO","type":"esriFieldTypeString","alias":"HOUSE_NO","length":20},{"name":"E_COORD97","type":"esriFieldTypeDouble","alias":"E_COORD97"},{"name":"N_COORD97","type":"esriFieldTypeDouble","alias":"N_COORD97"},{"name":"ADDRESS","type":"esriFieldTypeString","alias":"ADDRESS","length":50},{"name":"OBJECTID","type":"esriFieldTypeOID","alias":"OBJECTID"}],"features":[{"attributes":{"ID":84601,"DIS_CODE":0,"TOWNNAME":"東山區","LI":"東正里","LIN":"19鄰","STREET":" ","SECT":" ","MAREA":"東勢","LANE":" ","ALLEY":" ","HOUSE_NO":"１３４號","E_COORD97":189284.37,"N_COORD97":2580368.0299999998,"ADDRESS":"東勢１３４號","OBJECTID":84601},"geometry":{"x":189284.37000000104,"y":2580368.0299999975}},{"attributes":{"ID":84602,"DIS_CODE":0,"TOWNNAME":"東山區","LI":"聖賢里","LIN":"19鄰","STREET":" ","SECT":" ","MAREA":"頂窩","LANE":" ","ALLEY":" ","HOUSE_NO":"５３號之３","E_COORD97":183293.59,"N_COORD97":2578623.3100000001,"ADDRESS":"頂窩５３號之３","OBJECTID":84602},"geometry":{"x":183293.59000000078,"y":2578623.3100000005}},{"attributes":{"ID":84603,"DIS_CODE":0,"TOWNNAME":"安平區","LI":"海頭里","LIN":"12鄰","STREET":"安北路","SECT":" ","MAREA":" ","LANE":"１２１巷","ALLEY":"１０弄","HOUSE_NO":"１號","E_COORD97":164188.82999999999,"N_COORD97":2544772.3999999999,"ADDRESS":"安北路１２１巷１０弄１號","OBJECTID":84603},"geometry":{"x":164188.83000000101,"y":2544772.4000000022}},{"attributes":{"ID":84604,"DIS_CODE":0,"TOWNNAME":"安平區","LI":"海頭里","LIN":"12鄰","STREET":"安北路","SECT":" ","MAREA":" ","LANE":"１２１巷","ALLEY":"１０弄","HOUSE_NO":"２號","E_COORD97":164197.37,"N_COORD97":2544781.8399999999,"ADDRESS":"安北路１２１巷１０弄２號","OBJECTID":84604},"geometry":{"x":164197.37000000104,"y":2544781.8400000017}},{"attributes":{"ID":84605,"DIS_CODE":0,"TOWNNAME":"安平區","LI":"海頭里","LIN":"12鄰","STREET":"安北路","SECT":" ","MAREA":" ","LANE":"１２１巷","ALLEY":"１０弄","HOUSE_NO":"４號","E_COORD97":164189.88,"N_COORD97":2544785.4100000001,"ADDRESS":"安北路１２１巷１０弄４號","OBJECTID":84605},"geometry":{"x":164189.88000000082,"y":2544785.410000002}},{"attributes":{"ID":84606,"DIS_CODE":0,"TOWNNAME":"安平區","LI":"海頭里","LIN":"12鄰","STREET":"安北路","SECT":" ","MAREA":" ","LANE":"１２１巷","ALLEY":"１６弄","HOUSE_NO":"２號","E_COORD97":164199.39999999999,"N_COORD97":2544754.1400000001,"ADDRESS":"安北路１２１巷１６弄２號","OBJECTID":84606},"geometry":{"x":164199.40000000037,"y":2544754.1400000025}},{"attributes":{"ID":84607,"DIS_CODE":0,"TOWNNAME":"安平區","LI":"海頭里","LIN":"12鄰","STREET":"安北路","SECT":" ","MAREA":" ","LANE":"１２１巷","ALLEY":"１６弄","HOUSE_NO":"４號","E_COORD97":164188.89999999999,"N_COORD97":2544756.3100000001,"ADDRESS":"安北路１２１巷１６弄４號","OBJECTID":84607},"geometry":{"x":164188.9000000013,"y":2544756.3100000024}},{"attributes":{"ID":84608,"DIS_CODE":0,"TOWNNAME":"安平區","LI":"海頭里","LIN":"12鄰","STREET":"安北路","SECT":" ","MAREA":" ","LANE":"１２１巷","ALLEY":"１６弄","HOUSE_NO":"６號","E_COORD97":164186.51999999999,"N_COORD97":2544760.5800000001,"ADDRESS":"安北路１２１巷１６弄６號","OBJECTID":84608},"geometry":{"x":164186.51999999862,"y":2544760.5800000019}},{"attributes":{"ID":84609,"DIS_CODE":0,"TOWNNAME":"仁德區","LI":"上崙里","LIN":"6鄰","STREET":"德南路","SECT":" ","MAREA":" ","LANE":"３９９巷","ALLEY":"２６弄","HOUSE_NO":"１號","E_COORD97":173999.92999999999,"N_COORD97":2538254.27,"ADDRESS":"德南路３９９巷２６弄１號","OBJECTID":84609},"geometry":{"x":173999.93000000063,"y":2538254.2699999996}},{"attributes":{"ID":84610,"DIS_CODE":0,"TOWNNAME":"安平區","LI":"海頭里","LIN":"12鄰","STREET":"安北路","SECT":" ","MAREA":" ","LANE":"１２１巷","ALLEY":"１０弄","HOUSE_NO":"１０號","E_COORD97":164160.97,"N_COORD97":2544787.3700000001,"ADDRESS":"安北路１２１巷１０弄１０號","OBJECTID":84610},"geometry":{"x":164160.96999999974,"y":2544787.3700000029}},{"attributes":{"ID":84611,"DIS_CODE":0,"TOWNNAME":"安平區","LI":"海頭里","LIN":"12鄰","STREET":"安北路","SECT":" ","MAREA":" ","LANE":"１２１巷","ALLEY":"１０弄","HOUSE_NO":"８號","E_COORD97":164167.69,"N_COORD97":2544784.5,"ADDRESS":"安北路１２１巷１０弄８號","OBJECTID":84611},"geometry":{"x":164167.69000000227,"y":2544784.5000000019}},{"attributes":{"ID":84612,"DIS_CODE":0,"TOWNNAME":"南區","LI":"松安里","LIN":"12鄰","STREET":"灣裡路","SECT":" ","MAREA":" ","LANE":"２８２巷","ALLEY":"９１弄","HOUSE_NO":"１０號","E_COORD97":166062.39000000001,"N_COORD97":2536091.2000000002,"ADDRESS":"灣裡路２８２巷９１弄１０號","OBJECTID":84612},"geometry":{"x":166062.38999999873,"y":2536091.1999999993}},{"attributes":{"ID":84613,"DIS_CODE":0,"TOWNNAME":"南區","LI":"松安里","LIN":"12鄰","STREET":"灣裡路","SECT":" ","MAREA":" ","LANE":"２８２巷","ALLEY":"９１弄","HOUSE_NO":"１８號","E_COORD97":166081.04999999999,"N_COORD97":2536100.8599999999,"ADDRESS":"灣裡路２８２巷９１弄１８號","OBJECTID":84613},"geometry":{"x":166081.05000000075,"y":2536100.8599999994}},{"attributes":{"ID":84614,"DIS_CODE":0,"TOWNNAME":"山上區","LI":"明和里","LIN":"19鄰","STREET":" ","SECT":" ","MAREA":"明和","LANE":" ","ALLEY":" ","HOUSE_NO":"２６之１號","E_COORD97":183374.89000000001,"N_COORD97":2556005.2999999998,"ADDRESS":"明和２６之１號","OBJECTID":84614},"geometry":{"x":183374.88999999966,"y":2556005.3000000026}},{"attributes":{"ID":84615,"DIS_CODE":0,"TOWNNAME":"南區","LI":"松安里","LIN":"12鄰","STREET":"灣裡路","SECT":" ","MAREA":" ","LANE":"２８２巷","ALLEY":"９１弄","HOUSE_NO":"１８號之１","E_COORD97":166074.38,"N_COORD97":2536100.3599999999,"ADDRESS":"灣裡路２８２巷９１弄１８號之１","OBJECTID":84615},"geometry":{"x":166074.37999999989,"y":2536100.3599999994}},{"attributes":{"ID":84616,"DIS_CODE":0,"TOWNNAME":"南區","LI":"松安里","LIN":"12鄰","STREET":"灣裡路","SECT":" ","MAREA":" ","LANE":"２８２巷","ALLEY":"９１弄","HOUSE_NO":"２０號","E_COORD97":166095.70000000001,"N_COORD97":2536097.8500000001,"ADDRESS":"灣裡路２８２巷９１弄２０號","OBJECTID":84616},"geometry":{"x":166095.70000000019,"y":2536097.8499999996}},{"attributes":{"ID":84617,"DIS_CODE":0,"TOWNNAME":"南區","LI":"松安里","LIN":"12鄰","STREET":"灣裡路","SECT":" ","MAREA":" ","LANE":"２８２巷","ALLEY":"９１弄","HOUSE_NO":"８號","E_COORD97":166066.06,"N_COORD97":2536101.3599999999,"ADDRESS":"灣裡路２８２巷９１弄８號","OBJECTID":84617},"geometry":{"x":166066.05999999959,"y":2536101.3600000031}},{"attributes":{"ID":84618,"DIS_CODE":0,"TOWNNAME":"南區","LI":"松安里","LIN":"12鄰","STREET":"灣裡路","SECT":" ","MAREA":" ","LANE":"４００巷","ALLEY":"１１弄","HOUSE_NO":"１０號","E_COORD97":166130.42999999999,"N_COORD97":2536094.2799999998,"ADDRESS":"灣裡路４００巷１１弄１０號","OBJECTID":84618},"geometry":{"x":166130.43000000063,"y":2536094.2799999993}},{"attributes":{"ID":84619,"DIS_CODE":0,"TOWNNAME":"新營區","LI":"嘉芳里","LIN":"12鄰","STREET":"復興路","SECT":" ","MAREA":" ","LANE":"８０３巷","ALLEY":"２４弄","HOUSE_NO":"１號","E_COORD97":177102.45000000001,"N_COORD97":2578485.9100000001,"ADDRESS":"復興路８０３巷２４弄１號","OBJECTID":84619},"geometry":{"x":177102.45000000112,"y":2578485.910000002}},{"attributes":{"ID":84620,"DIS_CODE":0,"TOWNNAME":"新營區","LI":"嘉芳里","LIN":"12鄰","STREET":"復興路","SECT":" ","MAREA":" ","LANE":"８０３巷","ALLEY":"２４弄","HOUSE_NO":"２６號","E_COORD97":177040.37,"N_COORD97":2578489.54,"ADDRESS":"復興路８０３巷２４弄２６號","OBJECTID":84620},"geometry":{"x":177040.37000000011,"y":2578489.5400000028}},{"attributes":{"ID":84621,"DIS_CODE":0,"TOWNNAME":"新營區","LI":"嘉芳里","LIN":"12鄰","STREET":"復興路","SECT":" ","MAREA":" ","LANE":"８０３巷","ALLEY":"２４弄","HOUSE_NO":"３號","E_COORD97":177095.37,"N_COORD97":2578482.6200000001,"ADDRESS":"復興路８０３巷２４弄３號","OBJECTID":84621},"geometry":{"x":177095.37000000197,"y":2578482.6200000029}},{"attributes":{"ID":84622,"DIS_CODE":0,"TOWNNAME":"仁德區","LI":"一甲里","LIN":"17鄰","STREET":"中清路","SECT":" ","MAREA":" ","LANE":"２４８巷","ALLEY":"１６弄","HOUSE_NO":"３號","E_COORD97":173810.76000000001,"N_COORD97":2541707.29,"ADDRESS":"中清路２４８巷１６弄３號","OBJECTID":84622},"geometry":{"x":173810.76000000071,"y":2541707.290000001}},{"attributes":{"ID":84623,"DIS_CODE":0,"TOWNNAME":"北區","LI":"長德里","LIN":"12鄰","STREET":"長北街","SECT":" ","MAREA":" ","LANE":"２１０巷","ALLEY":"６弄","HOUSE_NO":"５號","E_COORD97":168611.70000000001,"N_COORD97":2545002.52,"ADDRESS":"長北街２１０巷６弄５號","OBJECTID":84623},"geometry":{"x":168611.70000000019,"y":2545002.5199999996}},{"attributes":{"ID":84624,"DIS_CODE":0,"TOWNNAME":"北區","LI":"長德里","LIN":"12鄰","STREET":"長北街","SECT":" ","MAREA":" ","LANE":"２１０巷","ALLEY":"６弄","HOUSE_NO":"６號","E_COORD97":168597.14999999999,"N_COORD97":2545008.75,"ADDRESS":"長北街２１０巷６弄６號","OBJECTID":84624},"geometry":{"x":168597.15000000037,"y":2545008.75}},{"attributes":{"ID":84625,"DIS_CODE":0,"TOWNNAME":"北區","LI":"長德里","LIN":"12鄰","STREET":"長北街","SECT":" ","MAREA":" ","LANE":"２１０巷","ALLEY":"６弄","HOUSE_NO":"７號","E_COORD97":168609.26999999999,"N_COORD97":2544998.02,"ADDRESS":"長北街２１０巷６弄７號","OBJECTID":84625},"geometry":{"x":168609.26999999862,"y":2544998.0200000014}},{"attributes":{"ID":84626,"DIS_CODE":0,"TOWNNAME":"北區","LI":"長德里","LIN":"12鄰","STREET":"長北街","SECT":" ","MAREA":" ","LANE":"２１０巷","ALLEY":"６弄","HOUSE_NO":"８號","E_COORD97":168595.07000000001,"N_COORD97":2545004.6000000001,"ADDRESS":"長北街２１０巷６弄８號","OBJECTID":84626},"geometry":{"x":168595.07000000123,"y":2545004.6000000015}},{"attributes":{"ID":84627,"DIS_CODE":0,"TOWNNAME":"北區","LI":"長德里","LIN":"12鄰","STREET":"長北街","SECT":" ","MAREA":" ","LANE":"２１０巷","ALLEY":"６弄","HOUSE_NO":"９號","E_COORD97":168607.54000000001,"N_COORD97":2544994.9100000001,"ADDRESS":"長北街２１０巷６弄９號","OBJECTID":84627},"geometry":{"x":168607.54000000004,"y":2544994.9100000039}},{"attributes":{"ID":84628,"DIS_CODE":0,"TOWNNAME":"仁德區","LI":"一甲里","LIN":"6鄰","STREET":"忠義路","SECT":" ","MAREA":" ","LANE":"３４１巷","ALLEY":"２５弄","HOUSE_NO":"１５號","E_COORD97":173568.67999999999,"N_COORD97":2541800.6899999999,"ADDRESS":"忠義路３４１巷２５弄１５號","OBJECTID":84628},"geometry":{"x":173568.68000000156,"y":2541800.6899999995}},{"attributes":{"ID":84629,"DIS_CODE":0,"TOWNNAME":"關廟區","LI":"東勢里","LIN":"12鄰","STREET":"旺萊路","SECT":" ","MAREA":" ","LANE":"３６２巷","ALLEY":"２６弄","HOUSE_NO":"３號","E_COORD97":182140.09,"N_COORD97":2539448.25,"ADDRESS":"旺萊路３６２巷２６弄３號","OBJECTID":84629},"geometry":{"x":182140.08999999892,"y":2539448.25}},{"attributes":{"ID":84630,"DIS_CODE":0,"TOWNNAME":"關廟區","LI":"東勢里","LIN":"12鄰","STREET":"旺萊路","SECT":" ","MAREA":" ","LANE":"３５６巷","ALLEY":"２１弄","HOUSE_NO":"８號","E_COORD97":182117.14053999999,"N_COORD97":2539453.5372799998,"ADDRESS":"旺萊路３５６巷２１弄８號","OBJECTID":84630},"geometry":{"x":182117.14054000005,"y":2539453.5372750014}},{"attributes":{"ID":84631,"DIS_CODE":0,"TOWNNAME":"關廟區","LI":"北花里","LIN":"12鄰","STREET":"中正路","SECT":" ","MAREA":" ","LANE":"８１３巷","ALLEY":"３弄","HOUSE_NO":"１６號","E_COORD97":181694.01000000001,"N_COORD97":2540256.25,"ADDRESS":"中正路８１３巷３弄１６號","OBJECTID":84631},"geometry":{"x":181694.00999999978,"y":2540256.2500000019}},{"attributes":{"ID":84632,"DIS_CODE":0,"TOWNNAME":"關廟區","LI":"北花里","LIN":"12鄰","STREET":"中正路","SECT":" ","MAREA":" ","LANE":"８１３巷","ALLEY":"３弄","HOUSE_NO":"１２號","E_COORD97":181689.70999999999,"N_COORD97":2540250.25,"ADDRESS":"中正路８１３巷３弄１２號","OBJECTID":84632},"geometry":{"x":181689.70999999996,"y":2540250.2500000019}},{"attributes":{"ID":84633,"DIS_CODE":0,"TOWNNAME":"關廟區","LI":"東勢里","LIN":"12鄰","STREET":"旺萊路","SECT":" ","MAREA":" ","LANE":"３５６巷","ALLEY":"２１弄","HOUSE_NO":"６號","E_COORD97":182106.12318299999,"N_COORD97":2539456.6064399998,"ADDRESS":"旺萊路３５６巷２１弄６號","OBJECTID":84633},"geometry":{"x":182106.1231829999,"y":2539456.6064400002}},{"attributes":{"ID":84634,"DIS_CODE":0,"TOWNNAME":"關廟區","LI":"深坑里","LIN":"12鄰","STREET":"南雄路","SECT":"一段","MAREA":" ","LANE":"４９５巷","ALLEY":"１５弄","HOUSE_NO":"３３號","E_COORD97":181584.72,"N_COORD97":2537743.2999999998,"ADDRESS":"南雄路一段４９５巷１５弄３３號","OBJECTID":84634},"geometry":{"x":181584.71999999974,"y":2537743.3000000007}},{"attributes":{"ID":84635,"DIS_CODE":0,"TOWNNAME":"關廟區","LI":"關廟里","LIN":"12鄰","STREET":"民生街","SECT":" ","MAREA":" ","LANE":"１５２巷","ALLEY":"２１弄","HOUSE_NO":"５號","E_COORD97":180909.44,"N_COORD97":2539853.29,"ADDRESS":"民生街１５２巷２１弄５號","OBJECTID":84635},"geometry":{"x":180909.44000000227,"y":2539853.2899999991}},{"attributes":{"ID":84636,"DIS_CODE":0,"TOWNNAME":"關廟區","LI":"深坑里","LIN":"12鄰","STREET":"南雄路","SECT":"一段","MAREA":" ","LANE":"４９５巷","ALLEY":"６弄","HOUSE_NO":"２３號","E_COORD97":181621.51999999999,"N_COORD97":2537866.2999999998,"ADDRESS":"南雄路一段４９５巷６弄２３號","OBJECTID":84636},"geometry":{"x":181621.51999999862,"y":2537866.3000000045}},{"attributes":{"ID":84637,"DIS_CODE":0,"TOWNNAME":"關廟區","LI":"東勢里","LIN":"12鄰","STREET":"旺萊路","SECT":" ","MAREA":" ","LANE":"３５６巷","ALLEY":"１５弄","HOUSE_NO":"３號","E_COORD97":182119.047391,"N_COORD97":2539476.6089300001,"ADDRESS":"旺萊路３５６巷１５弄３號","OBJECTID":84637},"geometry":{"x":182119.0473910002,"y":2539476.6089290027}},{"attributes":{"ID":84638,"DIS_CODE":0,"TOWNNAME":"關廟區","LI":"深坑里","LIN":"12鄰","STREET":"南雄路","SECT":"一段","MAREA":" ","LANE":"４９５巷","ALLEY":"１５弄","HOUSE_NO":"６號","E_COORD97":181521.32000000001,"N_COORD97":2537763.2999999998,"ADDRESS":"南雄路一段４９５巷１５弄６號","OBJECTID":84638},"geometry":{"x":181521.3200000003,"y":2537763.3000000007}},{"attributes":{"ID":84639,"DIS_CODE":0,"TOWNNAME":"關廟區","LI":"關廟里","LIN":"12鄰","STREET":"民生街","SECT":" ","MAREA":" ","LANE":"１５２巷","ALLEY":"２１弄","HOUSE_NO":"７號","E_COORD97":180913.23999999999,"N_COORD97":2539852.29,"ADDRESS":"民生街１５２巷２１弄７號","OBJECTID":84639},"geometry":{"x":180913.24000000022,"y":2539852.290000001}},{"attributes":{"ID":84640,"DIS_CODE":0,"TOWNNAME":"關廟區","LI":"關廟里","LIN":"12鄰","STREET":"民生街","SECT":" ","MAREA":" ","LANE":"１５２巷","ALLEY":"２１弄","HOUSE_NO":"１號","E_COORD97":180906.73999999999,"N_COORD97":2539847.29,"ADDRESS":"民生街１５２巷２１弄１號","OBJECTID":84640},"geometry":{"x":180906.74000000022,"y":2539847.2899999991}},{"attributes":{"ID":84641,"DIS_CODE":0,"TOWNNAME":"關廟區","LI":"深坑里","LIN":"12鄰","STREET":"南雄路","SECT":"一段","MAREA":" ","LANE":"４９５巷","ALLEY":"１５弄","HOUSE_NO":"１９號","E_COORD97":181566.22,"N_COORD97":2537757.2999999998,"ADDRESS":"南雄路一段４９５巷１５弄１９號","OBJECTID":84641},"geometry":{"x":181566.2200000016,"y":2537757.3000000007}},{"attributes":{"ID":84642,"DIS_CODE":0,"TOWNNAME":"關廟區","LI":"深坑里","LIN":"12鄰","STREET":"南雄路","SECT":"一段","MAREA":" ","LANE":"４９５巷","ALLEY":"２１弄","HOUSE_NO":"１０號","E_COORD97":181503.72,"N_COORD97":2537726.2999999998,"ADDRESS":"南雄路一段４９５巷２１弄１０號","OBJECTID":84642},"geometry":{"x":181503.72000000067,"y":2537726.3000000007}},{"attributes":{"ID":84643,"DIS_CODE":0,"TOWNNAME":"關廟區","LI":"深坑里","LIN":"12鄰","STREET":"南雄路","SECT":"一段","MAREA":" ","LANE":"４９５巷","ALLEY":"１５弄","HOUSE_NO":"１號","E_COORD97":181530.92000000001,"N_COORD97":2537799.2999999998,"ADDRESS":"南雄路一段４９５巷１５弄１號","OBJECTID":84643},"geometry":{"x":181530.91999999993,"y":2537799.3000000026}},{"attributes":{"ID":84644,"DIS_CODE":0,"TOWNNAME":"關廟區","LI":"深坑里","LIN":"12鄰","STREET":"南雄路","SECT":"一段","MAREA":" ","LANE":"４９５巷","ALLEY":"６弄","HOUSE_NO":"２５號","E_COORD97":181620.01999999999,"N_COORD97":2537868.2999999998,"ADDRESS":"南雄路一段４９５巷６弄２５號","OBJECTID":84644},"geometry":{"x":181620.02000000142,"y":2537868.3000000007}},{"attributes":{"ID":84645,"DIS_CODE":0,"TOWNNAME":"東山區","LI":"聖賢里","LIN":"19鄰","STREET":" ","SECT":" ","MAREA":"頂窩","LANE":" ","ALLEY":" ","HOUSE_NO":"５３號之５","E_COORD97":183289.26000000001,"N_COORD97":2578626.3799999999,"ADDRESS":"頂窩５３號之５","OBJECTID":84645},"geometry":{"x":183289.25999999978,"y":2578626.3800000027}},{"attributes":{"ID":84646,"DIS_CODE":0,"TOWNNAME":"新化區","LI":"全興里","LIN":"19鄰","STREET":" ","SECT":" ","MAREA":"竹子\u25A0","LANE":" ","ALLEY":" ","HOUSE_NO":"２４７號之２９９","E_COORD97":178486.38,"N_COORD97":2546695.2599999998,"ADDRESS":"竹子\u25A0２４７號之２９９","OBJECTID":84646},"geometry":{"x":178486.37999999989,"y":2546695.2600000016}},{"attributes":{"ID":84647,"DIS_CODE":0,"TOWNNAME":"新化區","LI":"全興里","LIN":"19鄰","STREET":" ","SECT":" ","MAREA":"竹子\u25A0","LANE":" ","ALLEY":" ","HOUSE_NO":"２４７號之２８９","E_COORD97":178513.88,"N_COORD97":2546695.2599999998,"ADDRESS":"竹子\u25A0２４７號之２８９","OBJECTID":84647},"geometry":{"x":178513.87999999896,"y":2546695.2600000016}},{"attributes":{"ID":84648,"DIS_CODE":0,"TOWNNAME":"新化區","LI":"全興里","LIN":"19鄰","STREET":" ","SECT":" ","MAREA":"竹子\u25A0","LANE":" ","ALLEY":" ","HOUSE_NO":"２４７號之３０９","E_COORD97":178440.78,"N_COORD97":2546699.2599999998,"ADDRESS":"竹子\u25A0２４７號之３０９","OBJECTID":84648},"geometry":{"x":178440.78000000119,"y":2546699.2599999998}},{"attributes":{"ID":84649,"DIS_CODE":0,"TOWNNAME":"新化區","LI":"全興里","LIN":"19鄰","STREET":" ","SECT":" ","MAREA":"竹子\u25A0","LANE":" ","ALLEY":" ","HOUSE_NO":"２４７號之２７９","E_COORD97":178541.17999999999,"N_COORD97":2546694.2599999998,"ADDRESS":"竹子\u25A0２４７號之２７９","OBJECTID":84649},"geometry":{"x":178541.18000000063,"y":2546694.2600000016}},{"attributes":{"ID":84650,"DIS_CODE":0,"TOWNNAME":"新化區","LI":"全興里","LIN":"19鄰","STREET":" ","SECT":" ","MAREA":"竹子\u25A0","LANE":" ","ALLEY":" ","HOUSE_NO":"２４７號之２０８","E_COORD97":178495.59,"N_COORD97":2546712.2599999998,"ADDRESS":"竹子\u25A0２４７號之２０８","OBJECTID":84650},"geometry":{"x":178495.59000000171,"y":2546712.2600000016}},{"attributes":{"ID":84651,"DIS_CODE":0,"TOWNNAME":"新化區","LI":"全興里","LIN":"19鄰","STREET":" ","SECT":" ","MAREA":"竹子\u25A0","LANE":" ","ALLEY":" ","HOUSE_NO":"２４７號之３０５","E_COORD97":178469.19,"N_COORD97":2546696.2599999998,"ADDRESS":"竹子\u25A0２４７號之３０５","OBJECTID":84651},"geometry":{"x":178469.19000000134,"y":2546696.2599999998}},{"attributes":{"ID":84652,"DIS_CODE":0,"TOWNNAME":"新化區","LI":"全興里","LIN":"19鄰","STREET":" ","SECT":" ","MAREA":"竹子\u25A0","LANE":" ","ALLEY":" ","HOUSE_NO":"２４７號之２４６","E_COORD97":178380.17999999999,"N_COORD97":2546720.2599999998,"ADDRESS":"竹子\u25A0２４７號之２４６","OBJECTID":84652},"geometry":{"x":178380.18000000063,"y":2546720.2599999998}},{"attributes":{"ID":84653,"DIS_CODE":0,"TOWNNAME":"新化區","LI":"全興里","LIN":"19鄰","STREET":" ","SECT":" ","MAREA":"竹子\u25A0","LANE":" ","ALLEY":" ","HOUSE_NO":"２４７號之２２２","E_COORD97":178444.98999999999,"N_COORD97":2546718.2599999998,"ADDRESS":"竹子\u25A0２４７號之２２２","OBJECTID":84653},"geometry":{"x":178444.99000000022,"y":2546718.2600000016}},{"attributes":{"ID":84654,"DIS_CODE":0,"TOWNNAME":"新化區","LI":"全興里","LIN":"19鄰","STREET":" ","SECT":" ","MAREA":"竹子\u25A0","LANE":" ","ALLEY":" ","HOUSE_NO":"２４７號之２３６","E_COORD97":178415.07999999999,"N_COORD97":2546719.2599999998,"ADDRESS":"竹子\u25A0２４７號之２３６","OBJECTID":84654},"geometry":{"x":178415.08000000101,"y":2546719.2600000016}},{"attributes":{"ID":84655,"DIS_CODE":0,"TOWNNAME":"新化區","LI":"全興里","LIN":"19鄰","STREET":" ","SECT":" ","MAREA":"竹子\u25A0","LANE":" ","ALLEY":" ","HOUSE_NO":"２４７號之１９０","E_COORD97":178536.47,"N_COORD97":2546712.2599999998,"ADDRESS":"竹子\u25A0２４７號之１９０","OBJECTID":84655},"geometry":{"x":178536.46999999974,"y":2546712.2600000016}},{"attributes":{"ID":84656,"DIS_CODE":0,"TOWNNAME":"安定區","LI":"蘇厝里","LIN":"19鄰","STREET":" ","SECT":" ","MAREA":"蘇厝","LANE":" ","ALLEY":" ","HOUSE_NO":"４６５號","E_COORD97":173232.689897,"N_COORD97":2558899.07975,"ADDRESS":"蘇厝４６５號","OBJECTID":84656},"geometry":{"x":173232.68989700079,"y":2558899.0797499996}},{"attributes":{"ID":84657,"DIS_CODE":0,"TOWNNAME":"安定區","LI":"新吉里","LIN":"19鄰","STREET":" ","SECT":" ","MAREA":"公親寮","LANE":" ","ALLEY":" ","HOUSE_NO":"１號之２","E_COORD97":168106.84,"N_COORD97":2553208.2999999998,"ADDRESS":"公親寮１號之２","OBJECTID":84657},"geometry":{"x":168106.83999999985,"y":2553208.3000000026}},{"attributes":{"ID":84658,"DIS_CODE":0,"TOWNNAME":"安定區","LI":"蘇林里","LIN":"19鄰","STREET":" ","SECT":" ","MAREA":"蘇厝","LANE":" ","ALLEY":" ","HOUSE_NO":"２１４號","E_COORD97":173299.22,"N_COORD97":2558870.25,"ADDRESS":"蘇厝２１４號","OBJECTID":84658},"geometry":{"x":173299.22000000067,"y":2558870.2500000019}},{"attributes":{"ID":84659,"DIS_CODE":0,"TOWNNAME":"安定區","LI":"新吉里","LIN":"19鄰","STREET":" ","SECT":" ","MAREA":"公親寮","LANE":" ","ALLEY":" ","HOUSE_NO":"６號","E_COORD97":168215.07000000001,"N_COORD97":2553209.25,"ADDRESS":"公親寮６號","OBJECTID":84659},"geometry":{"x":168215.07000000123,"y":2553209.25}},{"attributes":{"ID":84660,"DIS_CODE":0,"TOWNNAME":"安定區","LI":"蘇厝里","LIN":"19鄰","STREET":" ","SECT":" ","MAREA":"蘇厝","LANE":" ","ALLEY":" ","HOUSE_NO":"４６８號","E_COORD97":173187.20535599999,"N_COORD97":2558781.4334900002,"ADDRESS":"蘇厝４６８號","OBJECTID":84660},"geometry":{"x":173187.20535600092,"y":2558781.4334919993}},{"attributes":{"ID":84661,"DIS_CODE":0,"TOWNNAME":"安定區","LI":"港口里","LIN":"19鄰","STREET":" ","SECT":" ","MAREA":"港口","LANE":" ","ALLEY":" ","HOUSE_NO":"３８６號之３","E_COORD97":171452.12,"N_COORD97":2555027.2999999998,"ADDRESS":"港口３８６號之３","OBJECTID":84661},"geometry":{"x":171452.12000000197,"y":2555027.3000000007}},{"attributes":{"ID":84662,"DIS_CODE":0,"TOWNNAME":"安定區","LI":"港口里","LIN":"19鄰","STREET":" ","SECT":" ","MAREA":"港口","LANE":" ","ALLEY":" ","HOUSE_NO":"３８３之５號","E_COORD97":171449.98999999999,"N_COORD97":2555046.2999999998,"ADDRESS":"港口３８３之５號","OBJECTID":84662},"geometry":{"x":171449.99000000115,"y":2555046.3000000026}},{"attributes":{"ID":84663,"DIS_CODE":0,"TOWNNAME":"安定區","LI":"港口里","LIN":"19鄰","STREET":" ","SECT":" ","MAREA":"港口","LANE":" ","ALLEY":" ","HOUSE_NO":"３８４之６號","E_COORD97":171437.98999999999,"N_COORD97":2555019.2999999998,"ADDRESS":"港口３８４之６號","OBJECTID":84663},"geometry":{"x":171437.99000000209,"y":2555019.3000000026}},{"attributes":{"ID":84664,"DIS_CODE":0,"TOWNNAME":"安定區","LI":"港口里","LIN":"19鄰","STREET":" ","SECT":" ","MAREA":"港口","LANE":" ","ALLEY":" ","HOUSE_NO":"３８６之４號","E_COORD97":171456.69,"N_COORD97":2555031.2999999998,"ADDRESS":"港口３８６之４號","OBJECTID":84664},"geometry":{"x":171456.69000000041,"y":2555031.2999999989}},{"attributes":{"ID":84665,"DIS_CODE":0,"TOWNNAME":"安定區","LI":"港口里","LIN":"19鄰","STREET":" ","SECT":" ","MAREA":"港口","LANE":" ","ALLEY":" ","HOUSE_NO":"３８６號之２","E_COORD97":171452.66,"N_COORD97":2555021.2999999998,"ADDRESS":"港口３８６號之２","OBJECTID":84665},"geometry":{"x":171452.66000000108,"y":2555021.3000000045}},{"attributes":{"ID":84666,"DIS_CODE":0,"TOWNNAME":"安定區","LI":"港口里","LIN":"19鄰","STREET":" ","SECT":" ","MAREA":"港口","LANE":" ","ALLEY":" ","HOUSE_NO":"３８５號","E_COORD97":171440.79000000001,"N_COORD97":2554975.25,"ADDRESS":"港口３８５號","OBJECTID":84666},"geometry":{"x":171440.7900000019,"y":2554975.25}},{"attributes":{"ID":84667,"DIS_CODE":0,"TOWNNAME":"安定區","LI":"港口里","LIN":"19鄰","STREET":" ","SECT":" ","MAREA":"港口","LANE":" ","ALLEY":" ","HOUSE_NO":"３８３之６號","E_COORD97":171451.89000000001,"N_COORD97":2555051.2999999998,"ADDRESS":"港口３８３之６號","OBJECTID":84667},"geometry":{"x":171451.8900000006,"y":2555051.3000000007}},{"attributes":{"ID":84668,"DIS_CODE":0,"TOWNNAME":"安定區","LI":"港口里","LIN":"19鄰","STREET":" ","SECT":" ","MAREA":"港口","LANE":" ","ALLEY":" ","HOUSE_NO":"３８５號之６","E_COORD97":171447.79000000001,"N_COORD97":2555008.2999999998,"ADDRESS":"港口３８５之６號","OBJECTID":84668},"geometry":{"x":171447.79000000097,"y":2555008.3000000026}},{"attributes":{"ID":84669,"DIS_CODE":0,"TOWNNAME":"安定區","LI":"港口里","LIN":"19鄰","STREET":" ","SECT":" ","MAREA":"港口","LANE":" ","ALLEY":" ","HOUSE_NO":"３８３號之３","E_COORD97":171445.92000000001,"N_COORD97":2555037.2999999998,"ADDRESS":"港口３８３號之３","OBJECTID":84669},"geometry":{"x":171445.91999999993,"y":2555037.3000000007}},{"attributes":{"ID":84670,"DIS_CODE":0,"TOWNNAME":"安定區","LI":"港口里","LIN":"19鄰","STREET":" ","SECT":" ","MAREA":"港口","LANE":" ","ALLEY":" ","HOUSE_NO":"３８６號","E_COORD97":171446.69,"N_COORD97":2555012.25,"ADDRESS":"港口３８６號","OBJECTID":84670},"geometry":{"x":171446.69000000041,"y":2555012.2500000019}},{"attributes":{"ID":84671,"DIS_CODE":0,"TOWNNAME":"安定區","LI":"港口里","LIN":"19鄰","STREET":" ","SECT":" ","MAREA":"港口","LANE":" ","ALLEY":" ","HOUSE_NO":"３９０號","E_COORD97":171471.09,"N_COORD97":2554995.25,"ADDRESS":"港口３９０號","OBJECTID":84671},"geometry":{"x":171471.09000000078,"y":2554995.2500000019}},{"attributes":{"ID":84672,"DIS_CODE":0,"TOWNNAME":"安定區","LI":"港口里","LIN":"19鄰","STREET":" ","SECT":" ","MAREA":"港口","LANE":" ","ALLEY":" ","HOUSE_NO":"３８５號之５","E_COORD97":171445.48000000001,"N_COORD97":2555003.2999999998,"ADDRESS":"港口３８５號之５","OBJECTID":84672},"geometry":{"x":171445.48000000138,"y":2555003.3000000007}},{"attributes":{"ID":84673,"DIS_CODE":0,"TOWNNAME":"安定區","LI":"港口里","LIN":"19鄰","STREET":" ","SECT":" ","MAREA":"港口","LANE":" ","ALLEY":" ","HOUSE_NO":"３８３號之４","E_COORD97":171447.35000000001,"N_COORD97":2555042.2999999998,"ADDRESS":"港口３８３號之４","OBJECTID":84673},"geometry":{"x":171447.35000000056,"y":2555042.3000000026}},{"attributes":{"ID":84674,"DIS_CODE":0,"TOWNNAME":"安定區","LI":"海寮里","LIN":"19鄰","STREET":" ","SECT":" ","MAREA":"海寮","LANE":" ","ALLEY":" ","HOUSE_NO":"１８１號之１","E_COORD97":169421.67999999999,"N_COORD97":2555496.2999999998,"ADDRESS":"海寮１８１號之１","OBJECTID":84674},"geometry":{"x":169421.6799999997,"y":2555496.3000000045}},{"attributes":{"ID":84675,"DIS_CODE":0,"TOWNNAME":"安定區","LI":"港口里","LIN":"19鄰","STREET":" ","SECT":" ","MAREA":"港口","LANE":" ","ALLEY":" ","HOUSE_NO":"３８４號","E_COORD97":171418.48999999999,"N_COORD97":2554986.25,"ADDRESS":"港口３８４號","OBJECTID":84675},"geometry":{"x":171418.49000000022,"y":2554986.25}},{"attributes":{"ID":84676,"DIS_CODE":0,"TOWNNAME":"安定區","LI":"港口里","LIN":"19鄰","STREET":" ","SECT":" ","MAREA":"港口","LANE":" ","ALLEY":" ","HOUSE_NO":"３８６之６號","E_COORD97":171460.19,"N_COORD97":2555041.2999999998,"ADDRESS":"港口３８６之６號","OBJECTID":84676},"geometry":{"x":171460.19000000041,"y":2555041.3000000007}},{"attributes":{"ID":84677,"DIS_CODE":0,"TOWNNAME":"安定區","LI":"海寮里","LIN":"19鄰","STREET":" ","SECT":" ","MAREA":"海寮","LANE":" ","ALLEY":" ","HOUSE_NO":"１８３號","E_COORD97":169440.94,"N_COORD97":2555492.25,"ADDRESS":"海寮１８３號","OBJECTID":84677},"geometry":{"x":169440.94000000041,"y":2555492.2500000037}},{"attributes":{"ID":84678,"DIS_CODE":0,"TOWNNAME":"安定區","LI":"海寮里","LIN":"19鄰","STREET":" ","SECT":" ","MAREA":"海寮","LANE":" ","ALLEY":" ","HOUSE_NO":"１８９號","E_COORD97":169472.73999999999,"N_COORD97":2555494.25,"ADDRESS":"海寮１８９號","OBJECTID":84678},"geometry":{"x":169472.74000000022,"y":2555494.25}},{"attributes":{"ID":84679,"DIS_CODE":0,"TOWNNAME":"安定區","LI":"港口里","LIN":"19鄰","STREET":" ","SECT":" ","MAREA":"港口","LANE":" ","ALLEY":" ","HOUSE_NO":"３８３之１號","E_COORD97":171441.69,"N_COORD97":2555028.2999999998,"ADDRESS":"港口３８３之１號","OBJECTID":84679},"geometry":{"x":171441.68999999948,"y":2555028.3000000045}},{"attributes":{"ID":84680,"DIS_CODE":0,"TOWNNAME":"安定區","LI":"海寮里","LIN":"19鄰","STREET":" ","SECT":" ","MAREA":"海寮","LANE":" ","ALLEY":" ","HOUSE_NO":"１８４號之１","E_COORD97":169443.17999999999,"N_COORD97":2555452.2999999998,"ADDRESS":"海寮１８４號之１","OBJECTID":84680},"geometry":{"x":169443.18000000063,"y":2555452.3000000026}},{"attributes":{"ID":84681,"DIS_CODE":0,"TOWNNAME":"安定區","LI":"港口里","LIN":"19鄰","STREET":" ","SECT":" ","MAREA":"港口","LANE":" ","ALLEY":" ","HOUSE_NO":"３８５號之４","E_COORD97":171443.64999999999,"N_COORD97":2554998.2999999998,"ADDRESS":"港口３８５號之４","OBJECTID":84681},"geometry":{"x":171443.65000000224,"y":2554998.3000000026}},{"attributes":{"ID":84682,"DIS_CODE":0,"TOWNNAME":"安定區","LI":"港口里","LIN":"19鄰","STREET":" ","SECT":" ","MAREA":"港口","LANE":" ","ALLEY":" ","HOUSE_NO":"３８４之５號","E_COORD97":171436.09,"N_COORD97":2555014.2999999998,"ADDRESS":"港口３８４之５號","OBJECTID":84682},"geometry":{"x":171436.08999999985,"y":2555014.3000000007}},{"attributes":{"ID":84683,"DIS_CODE":0,"TOWNNAME":"安定區","LI":"港口里","LIN":"19鄰","STREET":" ","SECT":" ","MAREA":"港口","LANE":" ","ALLEY":" ","HOUSE_NO":"３８４之１號","E_COORD97":171416.29000000001,"N_COORD97":2554988.2999999998,"ADDRESS":"港口３８４之１號","OBJECTID":84683},"geometry":{"x":171416.29000000004,"y":2554988.3000000026}},{"attributes":{"ID":84684,"DIS_CODE":0,"TOWNNAME":"安定區","LI":"港口里","LIN":"19鄰","STREET":" ","SECT":" ","MAREA":"港口","LANE":" ","ALLEY":" ","HOUSE_NO":"３８４號之４","E_COORD97":171434.09,"N_COORD97":2555010.2999999998,"ADDRESS":"港口３８４之４號","OBJECTID":84684},"geometry":{"x":171434.09000000078,"y":2555010.3000000007}},{"attributes":{"ID":84685,"DIS_CODE":0,"TOWNNAME":"安定區","LI":"海寮里","LIN":"19鄰","STREET":" ","SECT":" ","MAREA":"海寮","LANE":" ","ALLEY":" ","HOUSE_NO":"１８８號","E_COORD97":169472.44,"N_COORD97":2555472.25,"ADDRESS":"海寮１８８號","OBJECTID":84685},"geometry":{"x":169472.44000000134,"y":2555472.2500000019}},{"attributes":{"ID":84686,"DIS_CODE":0,"TOWNNAME":"安定區","LI":"港口里","LIN":"19鄰","STREET":" ","SECT":" ","MAREA":"港口","LANE":" ","ALLEY":" ","HOUSE_NO":"３８４之３號","E_COORD97":171432.79000000001,"N_COORD97":2555004.2999999998,"ADDRESS":"港口３８４之３號","OBJECTID":84686},"geometry":{"x":171432.79000000097,"y":2555004.2999999989}},{"attributes":{"ID":84687,"DIS_CODE":0,"TOWNNAME":"安定區","LI":"港口里","LIN":"19鄰","STREET":" ","SECT":" ","MAREA":"港口","LANE":" ","ALLEY":" ","HOUSE_NO":"３８５之３號","E_COORD97":171441.98999999999,"N_COORD97":2554994.2999999998,"ADDRESS":"港口３８５之３號","OBJECTID":84687},"geometry":{"x":171441.99000000115,"y":2554994.3000000045}},{"attributes":{"ID":84688,"DIS_CODE":0,"TOWNNAME":"安定區","LI":"港口里","LIN":"19鄰","STREET":" ","SECT":" ","MAREA":"港口","LANE":" ","ALLEY":" ","HOUSE_NO":"３８６號之１","E_COORD97":171450.73000000001,"N_COORD97":2555017.2999999998,"ADDRESS":"港口３８６號之１","OBJECTID":84688},"geometry":{"x":171450.73000000138,"y":2555017.3000000007}},{"attributes":{"ID":84689,"DIS_CODE":0,"TOWNNAME":"新化區","LI":"全興里","LIN":"19鄰","STREET":" ","SECT":" ","MAREA":"竹子\u25A0","LANE":" ","ALLEY":" ","HOUSE_NO":"２４７號之３０３","E_COORD97":178475.38,"N_COORD97":2546696.2599999998,"ADDRESS":"竹子\u25A0２４７號之３０３","OBJECTID":84689},"geometry":{"x":178475.38000000082,"y":2546696.2599999998}},{"attributes":{"ID":84690,"DIS_CODE":0,"TOWNNAME":"新化區","LI":"全興里","LIN":"19鄰","STREET":" ","SECT":" ","MAREA":"竹子\u25A0","LANE":" ","ALLEY":" ","HOUSE_NO":"２４７號之２０２","E_COORD97":178509.69,"N_COORD97":2546712.2599999998,"ADDRESS":"竹子\u25A0２４７號之２０２","OBJECTID":84690},"geometry":{"x":178509.69000000134,"y":2546712.2600000016}},{"attributes":{"ID":84691,"DIS_CODE":0,"TOWNNAME":"新化區","LI":"全興里","LIN":"19鄰","STREET":" ","SECT":" ","MAREA":"竹子\u25A0","LANE":" ","ALLEY":" ","HOUSE_NO":"２４７號之２００","E_COORD97":178514.26999999999,"N_COORD97":2546712.2599999998,"ADDRESS":"竹子\u25A0２４７號之２００","OBJECTID":84691},"geometry":{"x":178514.26999999862,"y":2546712.2600000016}},{"attributes":{"ID":84692,"DIS_CODE":0,"TOWNNAME":"新化區","LI":"全興里","LIN":"19鄰","STREET":" ","SECT":" ","MAREA":"竹子\u25A0","LANE":" ","ALLEY":" ","HOUSE_NO":"２４７號之２８７","E_COORD97":178519.48000000001,"N_COORD97":2546695.2599999998,"ADDRESS":"竹子\u25A0２４７號之２８７","OBJECTID":84692},"geometry":{"x":178519.48000000138,"y":2546695.2600000016}},{"attributes":{"ID":84693,"DIS_CODE":0,"TOWNNAME":"新化區","LI":"全興里","LIN":"19鄰","STREET":" ","SECT":" ","MAREA":"竹子\u25A0","LANE":" ","ALLEY":" ","HOUSE_NO":"２４７號之２３１","E_COORD97":178349.45999999999,"N_COORD97":2546746.2599999998,"ADDRESS":"竹子\u25A0２４７號之２３１","OBJECTID":84693},"geometry":{"x":178349.46000000089,"y":2546746.2600000016}},{"attributes":{"ID":84694,"DIS_CODE":0,"TOWNNAME":"新化區","LI":"全興里","LIN":"19鄰","STREET":" ","SECT":" ","MAREA":"竹子\u25A0","LANE":" ","ALLEY":" ","HOUSE_NO":"２４７號之２９３","E_COORD97":178502.88,"N_COORD97":2546695.2599999998,"ADDRESS":"竹子\u25A0２４７號之２９３","OBJECTID":84694},"geometry":{"x":178502.88000000082,"y":2546695.2600000016}},{"attributes":{"ID":84695,"DIS_CODE":0,"TOWNNAME":"新化區","LI":"全興里","LIN":"19鄰","STREET":" ","SECT":" ","MAREA":"竹子\u25A0","LANE":" ","ALLEY":" ","HOUSE_NO":"２４７號之３１７","E_COORD97":178420.57999999999,"N_COORD97":2546700.2599999998,"ADDRESS":"竹子\u25A0２４７號之３１７","OBJECTID":84695},"geometry":{"x":178420.58000000007,"y":2546700.2599999998}},{"attributes":{"ID":84696,"DIS_CODE":0,"TOWNNAME":"新化區","LI":"全興里","LIN":"19鄰","STREET":" ","SECT":" ","MAREA":"竹子\u25A0","LANE":" ","ALLEY":" ","HOUSE_NO":"２４７號之３２３","E_COORD97":178402.78,"N_COORD97":2546700.2599999998,"ADDRESS":"竹子\u25A0２４７號之３２３","OBJECTID":84696},"geometry":{"x":178402.78000000026,"y":2546700.2599999998}},{"attributes":{"ID":84697,"DIS_CODE":0,"TOWNNAME":"新化區","LI":"全興里","LIN":"19鄰","STREET":" ","SECT":" ","MAREA":"竹子\u25A0","LANE":" ","ALLEY":" ","HOUSE_NO":"２４７號之２９５","E_COORD97":178497.59,"N_COORD97":2546695.2599999998,"ADDRESS":"竹子\u25A0２４７號之２９５","OBJECTID":84697},"geometry":{"x":178497.59000000078,"y":2546695.2600000016}},{"attributes":{"ID":84698,"DIS_CODE":0,"TOWNNAME":"新化區","LI":"全興里","LIN":"19鄰","STREET":" ","SECT":" ","MAREA":"竹子\u25A0","LANE":" ","ALLEY":" ","HOUSE_NO":"２４７號之２１４","E_COORD97":178481.87,"N_COORD97":2546713.2599999998,"ADDRESS":"竹子\u25A0２４７號之２１４","OBJECTID":84698},"geometry":{"x":178481.87000000011,"y":2546713.2599999998}},{"attributes":{"ID":84699,"DIS_CODE":0,"TOWNNAME":"新化區","LI":"全興里","LIN":"19鄰","STREET":" ","SECT":" ","MAREA":"竹子\u25A0","LANE":" ","ALLEY":" ","HOUSE_NO":"２４７號之２０６","E_COORD97":178500.07999999999,"N_COORD97":2546712.2599999998,"ADDRESS":"竹子\u25A0２４７號之２０６","OBJECTID":84699},"geometry":{"x":178500.08000000101,"y":2546712.2600000016}},{"attributes":{"ID":84700,"DIS_CODE":0,"TOWNNAME":"新化區","LI":"全興里","LIN":"19鄰","STREET":" ","SECT":" ","MAREA":"竹子\u25A0","LANE":" ","ALLEY":" ","HOUSE_NO":"２４７號之１８４","E_COORD97":178550.57000000001,"N_COORD97":2546711.2599999998,"ADDRESS":"竹子\u25A0２４７號之１８４","OBJECTID":84700},"geometry":{"x":178550.57000000123,"y":2546711.2600000016}},{"attributes":{"ID":84701,"DIS_CODE":0,"TOWNNAME":"新化區","LI":"全興里","LIN":"19鄰","STREET":" ","SECT":" ","MAREA":"竹子\u25A0","LANE":" ","ALLEY":" ","HOUSE_NO":"２４７號之３１１","E_COORD97":178435.66,"N_COORD97":2546699.2599999998,"ADDRESS":"竹子\u25A0２４７號之３１１","OBJECTID":84701},"geometry":{"x":178435.66000000015,"y":2546699.2599999998}},{"attributes":{"ID":84702,"DIS_CODE":0,"TOWNNAME":"新化區","LI":"全興里","LIN":"19鄰","STREET":" ","SECT":" ","MAREA":"竹子\u25A0","LANE":" ","ALLEY":" ","HOUSE_NO":"２４７號之３３７","E_COORD97":178362.67999999999,"N_COORD97":2546701.2599999998,"ADDRESS":"竹子\u25A0２４７號之３３７","OBJECTID":84702},"geometry":{"x":178362.68000000156,"y":2546701.2600000016}},{"attributes":{"ID":84703,"DIS_CODE":0,"TOWNNAME":"新化區","LI":"全興里","LIN":"19鄰","STREET":" ","SECT":" ","MAREA":"竹子\u25A0","LANE":" ","ALLEY":" ","HOUSE_NO":"２４７號之３３１","E_COORD97":178379.76000000001,"N_COORD97":2546701.2599999998,"ADDRESS":"竹子\u25A0２４７號之３３１","OBJECTID":84703},"geometry":{"x":178379.76000000071,"y":2546701.2600000016}},{"attributes":{"ID":84704,"DIS_CODE":0,"TOWNNAME":"新化區","LI":"全興里","LIN":"19鄰","STREET":" ","SECT":" ","MAREA":"竹子\u25A0","LANE":" ","ALLEY":" ","HOUSE_NO":"２４７號之３２５","E_COORD97":178397.09,"N_COORD97":2546700.2599999998,"ADDRESS":"竹子\u25A0２４７號之３２５","OBJECTID":84704},"geometry":{"x":178397.08999999985,"y":2546700.2599999998}},{"attributes":{"ID":84705,"DIS_CODE":0,"TOWNNAME":"新化區","LI":"全興里","LIN":"19鄰","STREET":" ","SECT":" ","MAREA":"竹子\u25A0","LANE":" ","ALLEY":" ","HOUSE_NO":"２４７號之２０４","E_COORD97":178504.97,"N_COORD97":2546712.2599999998,"ADDRESS":"竹子\u25A0２４７號之２０４","OBJECTID":84705},"geometry":{"x":178504.97000000067,"y":2546712.2600000016}},{"attributes":{"ID":84706,"DIS_CODE":0,"TOWNNAME":"新化區","LI":"全興里","LIN":"19鄰","STREET":" ","SECT":" ","MAREA":"竹子\u25A0","LANE":" ","ALLEY":" ","HOUSE_NO":"２４７號之３３３","E_COORD97":178373.78,"N_COORD97":2546701.2599999998,"ADDRESS":"竹子\u25A0２４７號之３３３","OBJECTID":84706},"geometry":{"x":178373.78000000026,"y":2546701.2600000016}},{"attributes":{"ID":84707,"DIS_CODE":0,"TOWNNAME":"新化區","LI":"全興里","LIN":"19鄰","STREET":" ","SECT":" ","MAREA":"竹子\u25A0","LANE":" ","ALLEY":" ","HOUSE_NO":"２４７號之２１０","E_COORD97":178491.37,"N_COORD97":2546712.2599999998,"ADDRESS":"竹子\u25A0２４７號之２１０","OBJECTID":84707},"geometry":{"x":178491.37000000104,"y":2546712.2600000016}},{"attributes":{"ID":84708,"DIS_CODE":0,"TOWNNAME":"新化區","LI":"全興里","LIN":"19鄰","STREET":" ","SECT":" ","MAREA":"竹子\u25A0","LANE":" ","ALLEY":" ","HOUSE_NO":"２４７號之１９２","E_COORD97":178531.98999999999,"N_COORD97":2546711.2599999998,"ADDRESS":"竹子\u25A0２４７號之１９２","OBJECTID":84708},"geometry":{"x":178531.99000000022,"y":2546711.2600000016}},{"attributes":{"ID":84709,"DIS_CODE":0,"TOWNNAME":"新化區","LI":"全興里","LIN":"19鄰","STREET":" ","SECT":" ","MAREA":"竹子\u25A0","LANE":" ","ALLEY":" ","HOUSE_NO":"２４７號之１９８","E_COORD97":178518.48999999999,"N_COORD97":2546712.2599999998,"ADDRESS":"竹子\u25A0２４７號之１９８","OBJECTID":84709},"geometry":{"x":178518.49000000022,"y":2546712.2600000016}},{"attributes":{"ID":84710,"DIS_CODE":0,"TOWNNAME":"新化區","LI":"全興里","LIN":"19鄰","STREET":" ","SECT":" ","MAREA":"竹子\u25A0","LANE":" ","ALLEY":" ","HOUSE_NO":"２４７號之３０１","E_COORD97":178481.06,"N_COORD97":2546695.2599999998,"ADDRESS":"竹子\u25A0２４７號之３０１","OBJECTID":84710},"geometry":{"x":178481.06000000052,"y":2546695.2600000016}},{"attributes":{"ID":84711,"DIS_CODE":0,"TOWNNAME":"山上區","LI":"南洲里","LIN":"19鄰","STREET":" ","SECT":" ","MAREA":"南洲","LANE":" ","ALLEY":" ","HOUSE_NO":"３３３號","E_COORD97":183610.84,"N_COORD97":2555883.25,"ADDRESS":"南洲３３３號","OBJECTID":84711},"geometry":{"x":183610.83999999985,"y":2555883.2500000019}},{"attributes":{"ID":84712,"DIS_CODE":0,"TOWNNAME":"山上區","LI":"南洲里","LIN":"19鄰","STREET":" ","SECT":" ","MAREA":"南洲","LANE":" ","ALLEY":" ","HOUSE_NO":"３４２號之１２","E_COORD97":183546.56,"N_COORD97":2555838.2999999998,"ADDRESS":"南洲３４２號之１２","OBJECTID":84712},"geometry":{"x":183546.55999999959,"y":2555838.2999999989}},{"attributes":{"ID":84713,"DIS_CODE":0,"TOWNNAME":"西港區","LI":"\u25A0林里","LIN":"19鄰","STREET":" ","SECT":" ","MAREA":"中周寮","LANE":" ","ALLEY":" ","HOUSE_NO":"８號","E_COORD97":170645.51000000001,"N_COORD97":2559272.0499999998,"ADDRESS":"中周寮８號","OBJECTID":84713},"geometry":{"x":170645.50999999885,"y":2559272.0500000026}},{"attributes":{"ID":84714,"DIS_CODE":0,"TOWNNAME":"新市區","LI":"大社里","LIN":"19鄰","STREET":" ","SECT":" ","MAREA":"大社","LANE":" ","ALLEY":" ","HOUSE_NO":"７７３號","E_COORD97":179926.14999999999,"N_COORD97":2554237.25,"ADDRESS":"大社７７３號","OBJECTID":84714},"geometry":{"x":179926.15000000037,"y":2554237.25}},{"attributes":{"ID":84715,"DIS_CODE":0,"TOWNNAME":"新市區","LI":"大社里","LIN":"19鄰","STREET":" ","SECT":" ","MAREA":"大社","LANE":" ","ALLEY":" ","HOUSE_NO":"７６７號","E_COORD97":179943.51000000001,"N_COORD97":2554216.25,"ADDRESS":"大社７６７號","OBJECTID":84715},"geometry":{"x":179943.50999999978,"y":2554216.25}},{"attributes":{"ID":84716,"DIS_CODE":0,"TOWNNAME":"新市區","LI":"大社里","LIN":"19鄰","STREET":" ","SECT":" ","MAREA":"大社","LANE":" ","ALLEY":" ","HOUSE_NO":"７８１號","E_COORD97":179922.87,"N_COORD97":2554200.25,"ADDRESS":"大社７８１號","OBJECTID":84716},"geometry":{"x":179922.86999999918,"y":2554200.2499999981}},{"attributes":{"ID":84717,"DIS_CODE":0,"TOWNNAME":"新市區","LI":"大營里","LIN":"19鄰","STREET":" ","SECT":" ","MAREA":"豐榮","LANE":" ","ALLEY":" ","HOUSE_NO":"４３之４６號","E_COORD97":178745.95000000001,"N_COORD97":2554284.2999999998,"ADDRESS":"豐榮４３之４６號","OBJECTID":84717},"geometry":{"x":178745.94999999925,"y":2554284.3000000007}},{"attributes":{"ID":84718,"DIS_CODE":0,"TOWNNAME":"新市區","LI":"大營里","LIN":"19鄰","STREET":" ","SECT":" ","MAREA":"豐榮","LANE":" ","ALLEY":" ","HOUSE_NO":"４３之７２號","E_COORD97":178781.85000000001,"N_COORD97":2554289.0499999998,"ADDRESS":"豐榮４３之７２號","OBJECTID":84718},"geometry":{"x":178781.85000000149,"y":2554289.0500000026}},{"attributes":{"ID":84719,"DIS_CODE":0,"TOWNNAME":"新市區","LI":"大營里","LIN":"19鄰","STREET":" ","SECT":" ","MAREA":"豐榮","LANE":" ","ALLEY":" ","HOUSE_NO":"４３之７３號","E_COORD97":178785.70000000001,"N_COORD97":2554294.5499999998,"ADDRESS":"豐榮４３之７３號","OBJECTID":84719},"geometry":{"x":178785.70000000112,"y":2554294.5500000026}},{"attributes":{"ID":84720,"DIS_CODE":0,"TOWNNAME":"新市區","LI":"大營里","LIN":"19鄰","STREET":" ","SECT":" ","MAREA":"豐榮","LANE":" ","ALLEY":" ","HOUSE_NO":"４３之５５號","E_COORD97":178754.39999999999,"N_COORD97":2554311.0499999998,"ADDRESS":"豐榮４３之５５號","OBJECTID":84720},"geometry":{"x":178754.40000000037,"y":2554311.0500000045}},{"attributes":{"ID":84721,"DIS_CODE":0,"TOWNNAME":"新市區","LI":"大營里","LIN":"19鄰","STREET":" ","SECT":" ","MAREA":"豐榮","LANE":" ","ALLEY":" ","HOUSE_NO":"４３之７１號","E_COORD97":178777.79000000001,"N_COORD97":2554285.0499999998,"ADDRESS":"豐榮４３之７１號","OBJECTID":84721},"geometry":{"x":178777.79000000097,"y":2554285.0500000026}},{"attributes":{"ID":84722,"DIS_CODE":0,"TOWNNAME":"新市區","LI":"大營里","LIN":"19鄰","STREET":" ","SECT":" ","MAREA":"豐榮","LANE":" ","ALLEY":" ","HOUSE_NO":"４３之７０號","E_COORD97":178774.85000000001,"N_COORD97":2554280.7999999998,"ADDRESS":"豐榮４３之７０號","OBJECTID":84722},"geometry":{"x":178774.8499999987,"y":2554280.8000000007}},{"attributes":{"ID":84723,"DIS_CODE":0,"TOWNNAME":"新市區","LI":"大營里","LIN":"19鄰","STREET":" ","SECT":" ","MAREA":"豐榮","LANE":" ","ALLEY":" ","HOUSE_NO":"４３之６８號","E_COORD97":178767.45000000001,"N_COORD97":2554273.5499999998,"ADDRESS":"豐榮４３之６８號","OBJECTID":84723},"geometry":{"x":178767.45000000019,"y":2554273.5499999989}},{"attributes":{"ID":84724,"DIS_CODE":0,"TOWNNAME":"新市區","LI":"大營里","LIN":"19鄰","STREET":" ","SECT":" ","MAREA":"豐榮","LANE":" ","ALLEY":" ","HOUSE_NO":"４３之６１號","E_COORD97":178763.45000000001,"N_COORD97":2554319.2999999998,"ADDRESS":"豐榮４３之６１號","OBJECTID":84724},"geometry":{"x":178763.45000000112,"y":2554319.3000000007}},{"attributes":{"ID":84725,"DIS_CODE":0,"TOWNNAME":"新市區","LI":"大營里","LIN":"19鄰","STREET":" ","SECT":" ","MAREA":"豐榮","LANE":" ","ALLEY":" ","HOUSE_NO":"４３之５６號","E_COORD97":178760.85000000001,"N_COORD97":2554297.7999999998,"ADDRESS":"豐榮４３之５６號","OBJECTID":84725},"geometry":{"x":178760.84999999963,"y":2554297.8000000007}},{"attributes":{"ID":84726,"DIS_CODE":0,"TOWNNAME":"新市區","LI":"大營里","LIN":"19鄰","STREET":" ","SECT":" ","MAREA":"豐榮","LANE":" ","ALLEY":" ","HOUSE_NO":"４３之５９號","E_COORD97":178760.39999999999,"N_COORD97":2554316.5499999998,"ADDRESS":"豐榮４３之５９號","OBJECTID":84726},"geometry":{"x":178760.4000000013,"y":2554316.5500000007}},{"attributes":{"ID":84727,"DIS_CODE":0,"TOWNNAME":"新市區","LI":"大營里","LIN":"19鄰","STREET":" ","SECT":" ","MAREA":"豐榮","LANE":" ","ALLEY":" ","HOUSE_NO":"４３之５８號","E_COORD97":178764.14999999999,"N_COORD97":2554300.5499999998,"ADDRESS":"豐榮４３之５８號","OBJECTID":84727},"geometry":{"x":178764.1500000013,"y":2554300.5500000007}},{"attributes":{"ID":84728,"DIS_CODE":0,"TOWNNAME":"新市區","LI":"大營里","LIN":"19鄰","STREET":" ","SECT":" ","MAREA":"豐榮","LANE":" ","ALLEY":" ","HOUSE_NO":"４３之２３號","E_COORD97":178777.95000000001,"N_COORD97":2554261.0499999998,"ADDRESS":"豐榮４３之２３號","OBJECTID":84728},"geometry":{"x":178777.95000000019,"y":2554261.0500000026}},{"attributes":{"ID":84729,"DIS_CODE":0,"TOWNNAME":"新市區","LI":"大營里","LIN":"19鄰","STREET":" ","SECT":" ","MAREA":"豐榮","LANE":" ","ALLEY":" ","HOUSE_NO":"４３之３號","E_COORD97":178774.70000000001,"N_COORD97":2554328.04,"ADDRESS":"豐榮４３之３號","OBJECTID":84729},"geometry":{"x":178774.70000000019,"y":2554328.040000001}},{"attributes":{"ID":84730,"DIS_CODE":0,"TOWNNAME":"新市區","LI":"大營里","LIN":"19鄰","STREET":" ","SECT":" ","MAREA":"豐榮","LANE":" ","ALLEY":" ","HOUSE_NO":"４３之１７號","E_COORD97":178794.70000000001,"N_COORD97":2554280.7999999998,"ADDRESS":"豐榮４３之１７號","OBJECTID":84730},"geometry":{"x":178794.70000000019,"y":2554280.8000000007}},{"attributes":{"ID":84731,"DIS_CODE":0,"TOWNNAME":"新市區","LI":"社內里","LIN":"19鄰","STREET":" ","SECT":" ","MAREA":"社內","LANE":" ","ALLEY":" ","HOUSE_NO":"１９４號","E_COORD97":176065.28,"N_COORD97":2553091,"ADDRESS":"社內１９４號","OBJECTID":84731},"geometry":{"x":176065.28000000026,"y":2553091.0000000019}},{"attributes":{"ID":84732,"DIS_CODE":0,"TOWNNAME":"新市區","LI":"大營里","LIN":"19鄰","STREET":" ","SECT":" ","MAREA":"豐榮","LANE":" ","ALLEY":" ","HOUSE_NO":"３７之５號","E_COORD97":178817.14999999999,"N_COORD97":2554427.0499999998,"ADDRESS":"豐榮３７之５號","OBJECTID":84732},"geometry":{"x":178817.15000000037,"y":2554427.0500000026}},{"attributes":{"ID":84733,"DIS_CODE":0,"TOWNNAME":"新市區","LI":"大營里","LIN":"19鄰","STREET":" ","SECT":" ","MAREA":"豐榮","LANE":" ","ALLEY":" ","HOUSE_NO":"４１之２號","E_COORD97":178792.67000000001,"N_COORD97":2554338.2999999998,"ADDRESS":"豐榮４１之２號","OBJECTID":84733},"geometry":{"x":178792.66999999993,"y":2554338.3000000007}},{"attributes":{"ID":84734,"DIS_CODE":0,"TOWNNAME":"新市區","LI":"大營里","LIN":"19鄰","STREET":" ","SECT":" ","MAREA":"豐榮","LANE":" ","ALLEY":" ","HOUSE_NO":"３８之２號","E_COORD97":178786.39999999999,"N_COORD97":2554450.7999999998,"ADDRESS":"豐榮３８之２號","OBJECTID":84734},"geometry":{"x":178786.4000000013,"y":2554450.8000000007}},{"attributes":{"ID":84735,"DIS_CODE":0,"TOWNNAME":"新市區","LI":"大營里","LIN":"19鄰","STREET":" ","SECT":" ","MAREA":"豐榮","LANE":" ","ALLEY":" ","HOUSE_NO":"４３之２６號","E_COORD97":178769.60000000001,"N_COORD97":2554251.0499999998,"ADDRESS":"豐榮４３之２６號","OBJECTID":84735},"geometry":{"x":178769.59999999963,"y":2554251.0500000026}},{"attributes":{"ID":84736,"DIS_CODE":0,"TOWNNAME":"新市區","LI":"大營里","LIN":"19鄰","STREET":" ","SECT":" ","MAREA":"豐榮","LANE":" ","ALLEY":" ","HOUSE_NO":"４３之８號","E_COORD97":178789.89999999999,"N_COORD97":2554311.7999999998,"ADDRESS":"豐榮４３之８號","OBJECTID":84736},"geometry":{"x":178789.90000000037,"y":2554311.8000000007}},{"attributes":{"ID":84737,"DIS_CODE":0,"TOWNNAME":"新市區","LI":"大營里","LIN":"19鄰","STREET":" ","SECT":" ","MAREA":"豐榮","LANE":" ","ALLEY":" ","HOUSE_NO":"４３之９號","E_COORD97":178792.70000000001,"N_COORD97":2554308.5499999998,"ADDRESS":"豐榮４３之９號","OBJECTID":84737},"geometry":{"x":178792.70000000019,"y":2554308.5500000026}},{"attributes":{"ID":84738,"DIS_CODE":0,"TOWNNAME":"新市區","LI":"大營里","LIN":"19鄰","STREET":" ","SECT":" ","MAREA":"豐榮","LANE":" ","ALLEY":" ","HOUSE_NO":"４３之１１號","E_COORD97":178812.07000000001,"N_COORD97":2554299.7999999998,"ADDRESS":"豐榮４３之１１號","OBJECTID":84738},"geometry":{"x":178812.07000000123,"y":2554299.8000000026}},{"attributes":{"ID":84739,"DIS_CODE":0,"TOWNNAME":"新市區","LI":"社內里","LIN":"19鄰","STREET":" ","SECT":" ","MAREA":"社內","LANE":" ","ALLEY":" ","HOUSE_NO":"１９７之１號","E_COORD97":176036.78,"N_COORD97":2553044.0499999998,"ADDRESS":"社內１９７之１號","OBJECTID":84739},"geometry":{"x":176036.78000000212,"y":2553044.0500000026}},{"attributes":{"ID":84740,"DIS_CODE":0,"TOWNNAME":"山上區","LI":"南洲里","LIN":"19鄰","STREET":" ","SECT":" ","MAREA":"南洲","LANE":" ","ALLEY":" ","HOUSE_NO":"３３６號","E_COORD97":183660.14000000001,"N_COORD97":2555858.25,"ADDRESS":"南洲３３６號","OBJECTID":84740},"geometry":{"x":183660.13999999873,"y":2555858.2500000037}},{"attributes":{"ID":84741,"DIS_CODE":0,"TOWNNAME":"新市區","LI":"社內里","LIN":"19鄰","STREET":" ","SECT":" ","MAREA":"社內","LANE":" ","ALLEY":" ","HOUSE_NO":"１９９號","E_COORD97":175972.34,"N_COORD97":2553078.5,"ADDRESS":"社內１９９號","OBJECTID":84741},"geometry":{"x":175972.33999999985,"y":2553078.5}},{"attributes":{"ID":84742,"DIS_CODE":0,"TOWNNAME":"新市區","LI":"社內里","LIN":"19鄰","STREET":" ","SECT":" ","MAREA":"社內","LANE":" ","ALLEY":" ","HOUSE_NO":"１９６之１號","E_COORD97":176049.92000000001,"N_COORD97":2553045.5499999998,"ADDRESS":"社內１９６之１號","OBJECTID":84742},"geometry":{"x":176049.91999999993,"y":2553045.5500000007}},{"attributes":{"ID":84743,"DIS_CODE":0,"TOWNNAME":"新市區","LI":"社內里","LIN":"19鄰","STREET":" ","SECT":" ","MAREA":"社內","LANE":" ","ALLEY":" ","HOUSE_NO":"１９７之２號","E_COORD97":176031.98000000001,"N_COORD97":2553043.7999999998,"ADDRESS":"社內１９７之２號","OBJECTID":84743},"geometry":{"x":176031.98000000045,"y":2553043.8000000007}},{"attributes":{"ID":84744,"DIS_CODE":0,"TOWNNAME":"山上區","LI":"南洲里","LIN":"19鄰","STREET":" ","SECT":" ","MAREA":"南洲","LANE":" ","ALLEY":" ","HOUSE_NO":"３４２號之１７","E_COORD97":183543.60000000001,"N_COORD97":2555865.2999999998,"ADDRESS":"南洲３４２號之１７","OBJECTID":84744},"geometry":{"x":183543.60000000149,"y":2555865.3000000007}},{"attributes":{"ID":84745,"DIS_CODE":0,"TOWNNAME":"山上區","LI":"南洲里","LIN":"19鄰","STREET":" ","SECT":" ","MAREA":"南洲","LANE":" ","ALLEY":" ","HOUSE_NO":"３４２之２２號","E_COORD97":183569.89000000001,"N_COORD97":2555869.2999999998,"ADDRESS":"南洲３４２之２２號","OBJECTID":84745},"geometry":{"x":183569.88999999966,"y":2555869.3000000026}},{"attributes":{"ID":84746,"DIS_CODE":0,"TOWNNAME":"山上區","LI":"南洲里","LIN":"19鄰","STREET":" ","SECT":" ","MAREA":"南洲","LANE":" ","ALLEY":" ","HOUSE_NO":"３４２號之８","E_COORD97":183563.92000000001,"N_COORD97":2555837.2999999998,"ADDRESS":"南洲３４２號之８","OBJECTID":84746},"geometry":{"x":183563.92000000086,"y":2555837.3000000007}},{"attributes":{"ID":84747,"DIS_CODE":0,"TOWNNAME":"山上區","LI":"明和里","LIN":"19鄰","STREET":" ","SECT":" ","MAREA":"明和","LANE":" ","ALLEY":" ","HOUSE_NO":"５２號之１５","E_COORD97":183279.13,"N_COORD97":2555980.2999999998,"ADDRESS":"明和５２號之１５","OBJECTID":84747},"geometry":{"x":183279.13000000175,"y":2555980.3000000007}},{"attributes":{"ID":84748,"DIS_CODE":0,"TOWNNAME":"山上區","LI":"明和里","LIN":"19鄰","STREET":" ","SECT":" ","MAREA":"明和","LANE":" ","ALLEY":" ","HOUSE_NO":"２５號","E_COORD97":183370.79000000001,"N_COORD97":2555978.25,"ADDRESS":"明和２５號","OBJECTID":84748},"geometry":{"x":183370.79000000004,"y":2555978.2500000019}},{"attributes":{"ID":84749,"DIS_CODE":0,"TOWNNAME":"山上區","LI":"明和里","LIN":"19鄰","STREET":" ","SECT":" ","MAREA":"明和","LANE":" ","ALLEY":" ","HOUSE_NO":"５２號之９","E_COORD97":183269.91,"N_COORD97":2555962.2999999998,"ADDRESS":"明和５２號之９","OBJECTID":84749},"geometry":{"x":183269.91000000015,"y":2555962.3000000007}},{"attributes":{"ID":84750,"DIS_CODE":0,"TOWNNAME":"山上區","LI":"明和里","LIN":"19鄰","STREET":" ","SECT":" ","MAREA":"明和","LANE":" ","ALLEY":" ","HOUSE_NO":"５２之５號","E_COORD97":183276.29000000001,"N_COORD97":2555943.2999999998,"ADDRESS":"明和５２之５號","OBJECTID":84750},"geometry":{"x":183276.29000000004,"y":2555943.2999999989}},{"attributes":{"ID":84751,"DIS_CODE":0,"TOWNNAME":"山上區","LI":"南洲里","LIN":"19鄰","STREET":" ","SECT":" ","MAREA":"南洲","LANE":" ","ALLEY":" ","HOUSE_NO":"３３６號之９","E_COORD97":183694.35999999999,"N_COORD97":2555827.2999999998,"ADDRESS":"南洲３３６號之９","OBJECTID":84751},"geometry":{"x":183694.36000000034,"y":2555827.3000000007}},{"attributes":{"ID":84752,"DIS_CODE":0,"TOWNNAME":"山上區","LI":"明和里","LIN":"19鄰","STREET":" ","SECT":" ","MAREA":"明和","LANE":" ","ALLEY":" ","HOUSE_NO":"５２號之１２","E_COORD97":183271.01000000001,"N_COORD97":2555979.2999999998,"ADDRESS":"明和５２號之１２","OBJECTID":84752},"geometry":{"x":183271.00999999978,"y":2555979.3000000007}},{"attributes":{"ID":84753,"DIS_CODE":0,"TOWNNAME":"山上區","LI":"南洲里","LIN":"19鄰","STREET":" ","SECT":" ","MAREA":"南洲","LANE":" ","ALLEY":" ","HOUSE_NO":"３４２之３號","E_COORD97":183555.84,"N_COORD97":2555811.2999999998,"ADDRESS":"南洲３４２之３號","OBJECTID":84753},"geometry":{"x":183555.84000000078,"y":2555811.3000000045}},{"attributes":{"ID":84754,"DIS_CODE":0,"TOWNNAME":"山上區","LI":"南洲里","LIN":"19鄰","STREET":" ","SECT":" ","MAREA":"南洲","LANE":" ","ALLEY":" ","HOUSE_NO":"３３６號之１５","E_COORD97":183677.48000000001,"N_COORD97":2555805.2999999998,"ADDRESS":"南洲３３６號之１５","OBJECTID":84754},"geometry":{"x":183677.48000000231,"y":2555805.3000000026}},{"attributes":{"ID":84755,"DIS_CODE":0,"TOWNNAME":"山上區","LI":"南洲里","LIN":"19鄰","STREET":" ","SECT":" ","MAREA":"南洲","LANE":" ","ALLEY":" ","HOUSE_NO":"３３６號之３","E_COORD97":183671.87,"N_COORD97":2555847.2999999998,"ADDRESS":"南洲３３６號之３","OBJECTID":84755},"geometry":{"x":183671.87000000104,"y":2555847.3000000007}},{"attributes":{"ID":84756,"DIS_CODE":0,"TOWNNAME":"山上區","LI":"南洲里","LIN":"19鄰","STREET":" ","SECT":" ","MAREA":"南洲","LANE":" ","ALLEY":" ","HOUSE_NO":"３１７號","E_COORD97":183666.84,"N_COORD97":2555782.25,"ADDRESS":"南洲３１７號","OBJECTID":84756},"geometry":{"x":183666.83999999985,"y":2555782.25}},{"attributes":{"ID":84757,"DIS_CODE":0,"TOWNNAME":"山上區","LI":"南洲里","LIN":"19鄰","STREET":" ","SECT":" ","MAREA":"南洲","LANE":" ","ALLEY":" ","HOUSE_NO":"３３６號之８","E_COORD97":183690.82000000001,"N_COORD97":2555830.2999999998,"ADDRESS":"南洲３３６號之８","OBJECTID":84757},"geometry":{"x":183690.82000000123,"y":2555830.3000000007}},{"attributes":{"ID":84758,"DIS_CODE":0,"TOWNNAME":"山上區","LI":"南洲里","LIN":"19鄰","STREET":" ","SECT":" ","MAREA":"南洲","LANE":" ","ALLEY":" ","HOUSE_NO":"３３６號之６","E_COORD97":183683.98000000001,"N_COORD97":2555837.2999999998,"ADDRESS":"南洲３３６號之６","OBJECTID":84758},"geometry":{"x":183683.98000000045,"y":2555837.3000000007}},{"attributes":{"ID":84759,"DIS_CODE":0,"TOWNNAME":"山上區","LI":"南洲里","LIN":"19鄰","STREET":" ","SECT":" ","MAREA":"南洲","LANE":" ","ALLEY":" ","HOUSE_NO":"３４２號之２","E_COORD97":183557.20999999999,"N_COORD97":2555807.2999999998,"ADDRESS":"南洲３４２號之２","OBJECTID":84759},"geometry":{"x":183557.21000000089,"y":2555807.3000000007}},{"attributes":{"ID":84760,"DIS_CODE":0,"TOWNNAME":"山上區","LI":"南洲里","LIN":"19鄰","STREET":" ","SECT":" ","MAREA":"南洲","LANE":" ","ALLEY":" ","HOUSE_NO":"３１６之３號","E_COORD97":183691.14000000001,"N_COORD97":2555740.2999999998,"ADDRESS":"南洲３１６之３號","OBJECTID":84760},"geometry":{"x":183691.1400000006,"y":2555740.3000000045}},{"attributes":{"ID":84761,"DIS_CODE":0,"TOWNNAME":"山上區","LI":"南洲里","LIN":"19鄰","STREET":" ","SECT":" ","MAREA":"南洲","LANE":" ","ALLEY":" ","HOUSE_NO":"３１６之２號","E_COORD97":183695.23999999999,"N_COORD97":2555742.2999999998,"ADDRESS":"南洲３１６之２號","OBJECTID":84761},"geometry":{"x":183695.24000000022,"y":2555742.3000000007}},{"attributes":{"ID":84762,"DIS_CODE":0,"TOWNNAME":"山上區","LI":"明和里","LIN":"19鄰","STREET":" ","SECT":" ","MAREA":"明和","LANE":" ","ALLEY":" ","HOUSE_NO":"２６號","E_COORD97":183361.89000000001,"N_COORD97":2555995.25,"ADDRESS":"明和２６號","OBJECTID":84762},"geometry":{"x":183361.89000000153,"y":2555995.2500000019}},{"attributes":{"ID":84763,"DIS_CODE":0,"TOWNNAME":"山上區","LI":"南洲里","LIN":"19鄰","STREET":" ","SECT":" ","MAREA":"南洲","LANE":" ","ALLEY":" ","HOUSE_NO":"３１２號","E_COORD97":183693.34,"N_COORD97":2555797.25,"ADDRESS":"南洲３１２號","OBJECTID":84763},"geometry":{"x":183693.34000000078,"y":2555797.2500000037}},{"attributes":{"ID":84764,"DIS_CODE":0,"TOWNNAME":"山上區","LI":"南洲里","LIN":"19鄰","STREET":" ","SECT":" ","MAREA":"南洲","LANE":" ","ALLEY":" ","HOUSE_NO":"３３６號之１６","E_COORD97":183672.82999999999,"N_COORD97":2555804.2999999998,"ADDRESS":"南洲３３６號之１６","OBJECTID":84764},"geometry":{"x":183672.82999999914,"y":2555804.2999999989}},{"attributes":{"ID":84765,"DIS_CODE":0,"TOWNNAME":"山上區","LI":"南洲里","LIN":"19鄰","STREET":" ","SECT":" ","MAREA":"南洲","LANE":" ","ALLEY":" ","HOUSE_NO":"３３６號之７","E_COORD97":183687.54999999999,"N_COORD97":2555833.2999999998,"ADDRESS":"南洲３３６號之７","OBJECTID":84765},"geometry":{"x":183687.54999999981,"y":2555833.3000000026}},{"attributes":{"ID":84766,"DIS_CODE":0,"TOWNNAME":"山上區","LI":"南洲里","LIN":"19鄰","STREET":" ","SECT":" ","MAREA":"南洲","LANE":" ","ALLEY":" ","HOUSE_NO":"３４１號","E_COORD97":183602.14000000001,"N_COORD97":2555786.25,"ADDRESS":"南洲３４１號","OBJECTID":84766},"geometry":{"x":183602.13999999966,"y":2555786.25}},{"attributes":{"ID":84767,"DIS_CODE":0,"TOWNNAME":"山上區","LI":"南洲里","LIN":"19鄰","STREET":" ","SECT":" ","MAREA":"南洲","LANE":" ","ALLEY":" ","HOUSE_NO":"３３９號","E_COORD97":183613.14000000001,"N_COORD97":2555844.25,"ADDRESS":"南洲３３９號","OBJECTID":84767},"geometry":{"x":183613.1400000006,"y":2555844.25}},{"attributes":{"ID":84768,"DIS_CODE":0,"TOWNNAME":"山上區","LI":"南洲里","LIN":"19鄰","STREET":" ","SECT":" ","MAREA":"南洲","LANE":" ","ALLEY":" ","HOUSE_NO":"３３６號之１２","E_COORD97":183693.85999999999,"N_COORD97":2555809.2999999998,"ADDRESS":"南洲３３６號之１２","OBJECTID":84768},"geometry":{"x":183693.86000000127,"y":2555809.3000000026}},{"attributes":{"ID":84769,"DIS_CODE":0,"TOWNNAME":"山上區","LI":"南洲里","LIN":"19鄰","STREET":" ","SECT":" ","MAREA":"南洲","LANE":" ","ALLEY":" ","HOUSE_NO":"３４２號之５","E_COORD97":183552.92999999999,"N_COORD97":2555818.2999999998,"ADDRESS":"南洲３４２號之５","OBJECTID":84769},"geometry":{"x":183552.9299999997,"y":2555818.3000000045}},{"attributes":{"ID":84770,"DIS_CODE":0,"TOWNNAME":"山上區","LI":"南洲里","LIN":"19鄰","STREET":" ","SECT":" ","MAREA":"南洲","LANE":" ","ALLEY":" ","HOUSE_NO":"３１８號之１","E_COORD97":183652.57000000001,"N_COORD97":2555735.2999999998,"ADDRESS":"南洲３１８號之１","OBJECTID":84770},"geometry":{"x":183652.5700000003,"y":2555735.3000000007}},{"attributes":{"ID":84771,"DIS_CODE":0,"TOWNNAME":"山上區","LI":"南洲里","LIN":"19鄰","STREET":" ","SECT":" ","MAREA":"南洲","LANE":" ","ALLEY":" ","HOUSE_NO":"３４２號","E_COORD97":183566.94,"N_COORD97":2555797.25,"ADDRESS":"南洲３４２號","OBJECTID":84771},"geometry":{"x":183566.94000000041,"y":2555797.2500000037}},{"attributes":{"ID":84772,"DIS_CODE":0,"TOWNNAME":"山上區","LI":"南洲里","LIN":"19鄰","STREET":" ","SECT":" ","MAREA":"南洲","LANE":" ","ALLEY":" ","HOUSE_NO":"３４２號之９","E_COORD97":183550.16,"N_COORD97":2555826.2999999998,"ADDRESS":"南洲３４２號之９","OBJECTID":84772},"geometry":{"x":183550.16000000015,"y":2555826.3000000026}},{"attributes":{"ID":84773,"DIS_CODE":0,"TOWNNAME":"山上區","LI":"明和里","LIN":"19鄰","STREET":" ","SECT":" ","MAREA":"明和","LANE":" ","ALLEY":" ","HOUSE_NO":"５２號之１６","E_COORD97":183283.78,"N_COORD97":2555982.2999999998,"ADDRESS":"明和５２號之１６","OBJECTID":84773},"geometry":{"x":183283.78000000119,"y":2555982.3000000026}},{"attributes":{"ID":84774,"DIS_CODE":0,"TOWNNAME":"山上區","LI":"明和里","LIN":"19鄰","STREET":" ","SECT":" ","MAREA":"明和","LANE":" ","ALLEY":" ","HOUSE_NO":"５２號之１０","E_COORD97":183269.82999999999,"N_COORD97":2555965.2999999998,"ADDRESS":"明和５２號之１０","OBJECTID":84774},"geometry":{"x":183269.83000000101,"y":2555965.3000000026}},{"attributes":{"ID":84775,"DIS_CODE":0,"TOWNNAME":"山上區","LI":"明和里","LIN":"19鄰","STREET":" ","SECT":" ","MAREA":"明和","LANE":" ","ALLEY":" ","HOUSE_NO":"５２號之２","E_COORD97":183278.85999999999,"N_COORD97":2555933.2999999998,"ADDRESS":"明和５２號之２","OBJECTID":84775},"geometry":{"x":183278.86000000127,"y":2555933.3000000045}},{"attributes":{"ID":84776,"DIS_CODE":0,"TOWNNAME":"山上區","LI":"明和里","LIN":"19鄰","STREET":" ","SECT":" ","MAREA":"明和","LANE":" ","ALLEY":" ","HOUSE_NO":"５４號","E_COORD97":183298.98999999999,"N_COORD97":2555988.25,"ADDRESS":"明和５４號","OBJECTID":84776},"geometry":{"x":183298.98999999929,"y":2555988.2500000019}},{"attributes":{"ID":84777,"DIS_CODE":0,"TOWNNAME":"山上區","LI":"明和里","LIN":"19鄰","STREET":" ","SECT":" ","MAREA":"明和","LANE":" ","ALLEY":" ","HOUSE_NO":"５２之６號","E_COORD97":183274.98999999999,"N_COORD97":2555948.2999999998,"ADDRESS":"明和５２之６號","OBJECTID":84777},"geometry":{"x":183274.99000000022,"y":2555948.3000000026}},{"attributes":{"ID":84778,"DIS_CODE":0,"TOWNNAME":"山上區","LI":"明和里","LIN":"19鄰","STREET":" ","SECT":" ","MAREA":"明和","LANE":" ","ALLEY":" ","HOUSE_NO":"５２號之１３","E_COORD97":183274.76999999999,"N_COORD97":2555980.2999999998,"ADDRESS":"明和５２號之１３","OBJECTID":84778},"geometry":{"x":183274.77000000048,"y":2555980.3000000007}},{"attributes":{"ID":84779,"DIS_CODE":0,"TOWNNAME":"山上區","LI":"明和里","LIN":"19鄰","STREET":" ","SECT":" ","MAREA":"明和","LANE":" ","ALLEY":" ","HOUSE_NO":"５２之３號","E_COORD97":183277.48999999999,"N_COORD97":2555938.2999999998,"ADDRESS":"明和５２之３號","OBJECTID":84779},"geometry":{"x":183277.49000000115,"y":2555938.3000000026}},{"attributes":{"ID":84780,"DIS_CODE":0,"TOWNNAME":"山上區","LI":"明和里","LIN":"19鄰","STREET":" ","SECT":" ","MAREA":"明和","LANE":" ","ALLEY":" ","HOUSE_NO":"２６之２號","E_COORD97":183383.48999999999,"N_COORD97":2556008.2999999998,"ADDRESS":"明和２６之２號","OBJECTID":84780},"geometry":{"x":183383.49000000022,"y":2556008.3000000026}},{"attributes":{"ID":84781,"DIS_CODE":0,"TOWNNAME":"山上區","LI":"明和里","LIN":"19鄰","STREET":" ","SECT":" ","MAREA":"明和","LANE":" ","ALLEY":" ","HOUSE_NO":"５２號之１７","E_COORD97":183287.35000000001,"N_COORD97":2555982.2999999998,"ADDRESS":"明和５２號之１７","OBJECTID":84781},"geometry":{"x":183287.34999999963,"y":2555982.3000000026}},{"attributes":{"ID":84782,"DIS_CODE":0,"TOWNNAME":"山上區","LI":"南洲里","LIN":"19鄰","STREET":" ","SECT":" ","MAREA":"南洲","LANE":" ","ALLEY":" ","HOUSE_NO":"３４２之７號","E_COORD97":183568.44,"N_COORD97":2555839.2999999998,"ADDRESS":"南洲３４２之７號","OBJECTID":84782},"geometry":{"x":183568.44000000041,"y":2555839.3000000026}},{"attributes":{"ID":84783,"DIS_CODE":0,"TOWNNAME":"山上區","LI":"南洲里","LIN":"19鄰","STREET":" ","SECT":" ","MAREA":"南洲","LANE":" ","ALLEY":" ","HOUSE_NO":"３４２號之４","E_COORD97":183554,"N_COORD97":2555814.2999999998,"ADDRESS":"南洲３４２號之４","OBJECTID":84783},"geometry":{"x":183554,"y":2555814.3000000007}},{"attributes":{"ID":84784,"DIS_CODE":0,"TOWNNAME":"山上區","LI":"南洲里","LIN":"19鄰","STREET":" ","SECT":" ","MAREA":"南洲","LANE":" ","ALLEY":" ","HOUSE_NO":"３３８號之１","E_COORD97":183657.47,"N_COORD97":2555804.2999999998,"ADDRESS":"南洲３３８號之１","OBJECTID":84784},"geometry":{"x":183657.46999999974,"y":2555804.2999999989}},{"attributes":{"ID":84785,"DIS_CODE":0,"TOWNNAME":"山上區","LI":"南洲里","LIN":"19鄰","STREET":" ","SECT":" ","MAREA":"南洲","LANE":" ","ALLEY":" ","HOUSE_NO":"３３６號之２","E_COORD97":183668.41,"N_COORD97":2555851.2999999998,"ADDRESS":"南洲３３６號之２","OBJECTID":84785},"geometry":{"x":183668.41000000015,"y":2555851.3000000007}},{"attributes":{"ID":84786,"DIS_CODE":0,"TOWNNAME":"山上區","LI":"南洲里","LIN":"19鄰","STREET":" ","SECT":" ","MAREA":"南洲","LANE":" ","ALLEY":" ","HOUSE_NO":"３３６號之４","E_COORD97":183675.5,"N_COORD97":2555844.2999999998,"ADDRESS":"南洲３３６號之４","OBJECTID":84786},"geometry":{"x":183675.50000000093,"y":2555844.3000000007}},{"attributes":{"ID":84787,"DIS_CODE":0,"TOWNNAME":"山上區","LI":"南洲里","LIN":"19鄰","STREET":" ","SECT":" ","MAREA":"南洲","LANE":" ","ALLEY":" ","HOUSE_NO":"３３６號之１０","E_COORD97":183699.78,"N_COORD97":2555824.2999999998,"ADDRESS":"南洲３３６號之１０","OBJECTID":84787},"geometry":{"x":183699.78000000026,"y":2555824.3000000007}},{"attributes":{"ID":84788,"DIS_CODE":0,"TOWNNAME":"山上區","LI":"南洲里","LIN":"19鄰","STREET":" ","SECT":" ","MAREA":"南洲","LANE":" ","ALLEY":" ","HOUSE_NO":"３３７號之１","E_COORD97":183649.04000000001,"N_COORD97":2555847.2999999998,"ADDRESS":"南洲３３７號之１","OBJECTID":84788},"geometry":{"x":183649.04000000004,"y":2555847.3000000007}},{"attributes":{"ID":84789,"DIS_CODE":0,"TOWNNAME":"山上區","LI":"南洲里","LIN":"19鄰","STREET":" ","SECT":" ","MAREA":"南洲","LANE":" ","ALLEY":" ","HOUSE_NO":"３４２號之１","E_COORD97":183558.57000000001,"N_COORD97":2555804.2999999998,"ADDRESS":"南洲３４２號之１","OBJECTID":84789},"geometry":{"x":183558.57000000123,"y":2555804.2999999989}},{"attributes":{"ID":84790,"DIS_CODE":0,"TOWNNAME":"山上區","LI":"南洲里","LIN":"19鄰","STREET":" ","SECT":" ","MAREA":"南洲","LANE":" ","ALLEY":" ","HOUSE_NO":"３３６號之１１","E_COORD97":183702.22,"N_COORD97":2555821.2999999998,"ADDRESS":"南洲３３６號之１１","OBJECTID":84790},"geometry":{"x":183702.2200000016,"y":2555821.2999999989}},{"attributes":{"ID":84791,"DIS_CODE":0,"TOWNNAME":"山上區","LI":"南洲里","LIN":"19鄰","STREET":" ","SECT":" ","MAREA":"南洲","LANE":" ","ALLEY":" ","HOUSE_NO":"３４２號之６","E_COORD97":183568.28,"N_COORD97":2555826.2999999998,"ADDRESS":"南洲３４２號之６","OBJECTID":84791},"geometry":{"x":183568.27999999933,"y":2555826.3000000026}},{"attributes":{"ID":84792,"DIS_CODE":0,"TOWNNAME":"山上區","LI":"南洲里","LIN":"19鄰","STREET":" ","SECT":" ","MAREA":"南洲","LANE":" ","ALLEY":" ","HOUSE_NO":"３３６號之１７","E_COORD97":183668.20000000001,"N_COORD97":2555803.2999999998,"ADDRESS":"南洲３３６號之１７","OBJECTID":84792},"geometry":{"x":183668.20000000019,"y":2555803.3000000007}},{"attributes":{"ID":84793,"DIS_CODE":0,"TOWNNAME":"山上區","LI":"南洲里","LIN":"19鄰","STREET":" ","SECT":" ","MAREA":"南洲","LANE":" ","ALLEY":" ","HOUSE_NO":"３４０號","E_COORD97":183616.14000000001,"N_COORD97":2555806.25,"ADDRESS":"南洲３４０號","OBJECTID":84793},"geometry":{"x":183616.14000000153,"y":2555806.25}},{"attributes":{"ID":84794,"DIS_CODE":0,"TOWNNAME":"山上區","LI":"南洲里","LIN":"19鄰","STREET":" ","SECT":" ","MAREA":"南洲","LANE":" ","ALLEY":" ","HOUSE_NO":"３４２號之１１","E_COORD97":183548.01999999999,"N_COORD97":2555834.2999999998,"ADDRESS":"南洲３４２號之１１","OBJECTID":84794},"geometry":{"x":183548.02000000048,"y":2555834.3000000007}},{"attributes":{"ID":84795,"DIS_CODE":0,"TOWNNAME":"山上區","LI":"明和里","LIN":"19鄰","STREET":" ","SECT":" ","MAREA":"明和","LANE":" ","ALLEY":" ","HOUSE_NO":"５２之８號","E_COORD97":183271.79000000001,"N_COORD97":2555957.2999999998,"ADDRESS":"明和５２之８號","OBJECTID":84795},"geometry":{"x":183271.79000000097,"y":2555957.3000000045}},{"attributes":{"ID":84796,"DIS_CODE":0,"TOWNNAME":"山上區","LI":"南洲里","LIN":"19鄰","STREET":" ","SECT":" ","MAREA":"南洲","LANE":" ","ALLEY":" ","HOUSE_NO":"３４２號之１０","E_COORD97":183549.57999999999,"N_COORD97":2555830.2999999998,"ADDRESS":"南洲３４２號之１０","OBJECTID":84796},"geometry":{"x":183549.58000000101,"y":2555830.3000000007}},{"attributes":{"ID":84797,"DIS_CODE":0,"TOWNNAME":"山上區","LI":"南洲里","LIN":"19鄰","STREET":" ","SECT":" ","MAREA":"南洲","LANE":" ","ALLEY":" ","HOUSE_NO":"３４２之２３號","E_COORD97":183576.89000000001,"N_COORD97":2555871.2999999998,"ADDRESS":"南洲３４２之２３號","OBJECTID":84797},"geometry":{"x":183576.88999999966,"y":2555871.3000000007}},{"attributes":{"ID":84798,"DIS_CODE":0,"TOWNNAME":"山上區","LI":"南洲里","LIN":"19鄰","STREET":" ","SECT":" ","MAREA":"南洲","LANE":" ","ALLEY":" ","HOUSE_NO":"３４２號之１９","E_COORD97":183555.20999999999,"N_COORD97":2555869.2999999998,"ADDRESS":"南洲３４２號之１９","OBJECTID":84798},"geometry":{"x":183555.21000000089,"y":2555869.3000000026}},{"attributes":{"ID":84799,"DIS_CODE":0,"TOWNNAME":"山上區","LI":"南洲里","LIN":"19鄰","STREET":" ","SECT":" ","MAREA":"南洲","LANE":" ","ALLEY":" ","HOUSE_NO":"３４２號之１４","E_COORD97":183543.04999999999,"N_COORD97":2555846.2999999998,"ADDRESS":"南洲３４２號之１４","OBJECTID":84799},"geometry":{"x":183543.05000000075,"y":2555846.3000000026}},{"attributes":{"ID":84800,"DIS_CODE":0,"TOWNNAME":"善化區","LI":"坐駕里","LIN":"19鄰","STREET":" ","SECT":" ","MAREA":"坐駕","LANE":" ","ALLEY":" ","HOUSE_NO":"２號之１１","E_COORD97":178325.97,"N_COORD97":2558535.77,"ADDRESS":"坐駕２號之１１","OBJECTID":84800},"geometry":{"x":178325.96999999974,"y":2558535.7699999996}}]}