{"displayFieldName":"TOWNNAME","fieldAliases":{"ID":"ID","DIS_CODE":"DIS_CODE","TOWNNAME":"TOWNNAME","LI":"LI","LIN":"LIN","STREET":"STREET","SECT":"SECT","MAREA":"MAREA","LANE":"LANE","ALLEY":"ALLEY","HOUSE_NO":"HOUSE_NO","E_COORD97":"E_COORD97","N_COORD97":"N_COORD97","ADDRESS":"ADDRESS","OBJECTID":"OBJECTID"},"geometryType":"esriGeometryPoint","spatialReference":{"wkid":102443,"latestWkid":3826},"fields":[{"name":"ID","type":"esriFieldTypeDouble","alias":"ID"},{"name":"DIS_CODE","type":"esriFieldTypeInteger","alias":"DIS_CODE"},{"name":"TOWNNAME","type":"esriFieldTypeString","alias":"TOWNNAME","length":8},{"name":"LI","type":"esriFieldTypeString","alias":"LI","length":8},{"name":"LIN","type":"esriFieldTypeString","alias":"LIN","length":12},{"name":"STREET","type":"esriFieldTypeString","alias":"STREET","length":20},{"name":"SECT","type":"esriFieldTypeString","alias":"SECT","length":8},{"name":"MAREA","type":"esriFieldTypeString","alias":"MAREA","length":12},{"name":"LANE","type":"esriFieldTypeString","alias":"LANE","length":10},{"name":"ALLEY","type":"esriFieldTypeString","alias":"ALLEY","length":10},{"name":"HOUSE_NO","type":"esriFieldTypeString","alias":"HOUSE_NO","length":20},{"name":"E_COORD97","type":"esriFieldTypeDouble","alias":"E_COORD97"},{"name":"N_COORD97","type":"esriFieldTypeDouble","alias":"N_COORD97"},{"name":"ADDRESS","type":"esriFieldTypeString","alias":"ADDRESS","length":50},{"name":"OBJECTID","type":"esriFieldTypeOID","alias":"OBJECTID"}],"features":[{"attributes":{"ID":646428,"DIS_CODE":0,"TOWNNAME":"善化區","LI":"什乃里","LIN":"10鄰","STREET":" ","SECT":" ","MAREA":"什乃","LANE":" ","ALLEY":" ","HOUSE_NO":"８６之１２號","E_COORD97":176042.562125,"N_COORD97":2560348.1144300001,"ADDRESS":"什乃８６之１２號","OBJECTID":646401},"geometry":{"x":176042.56212499924,"y":2560348.1144270021}},{"attributes":{"ID":646429,"DIS_CODE":0,"TOWNNAME":"東山區","LI":"東河里","LIN":"12鄰","STREET":" ","SECT":" ","MAREA":"吉貝耍","LANE":" ","ALLEY":" ","HOUSE_NO":"１５０號之１","E_COORD97":186798.07665,"N_COORD97":2577110.4146500002,"ADDRESS":"吉貝耍１５０號之１","OBJECTID":646402},"geometry":{"x":186798.07665000018,"y":2577110.4146500025}},{"attributes":{"ID":646430,"DIS_CODE":0,"TOWNNAME":"鹽水區","LI":"義稠里","LIN":"11鄰","STREET":" ","SECT":" ","MAREA":"義稠","LANE":" ","ALLEY":" ","HOUSE_NO":"１５５之３號","E_COORD97":173665.57751199999,"N_COORD97":2580630.4499599999,"ADDRESS":"義稠１５５之３號","OBJECTID":646403},"geometry":{"x":173665.57751200069,"y":2580630.4499590024}},{"attributes":{"ID":646431,"DIS_CODE":0,"TOWNNAME":"安南區","LI":"布袋里","LIN":"5鄰","STREET":"長和路","SECT":"四段","MAREA":" ","LANE":"２５３巷","ALLEY":" ","HOUSE_NO":"３５１號","E_COORD97":168153.87475799999,"N_COORD97":2551614.6937600002,"ADDRESS":"長和路四段２５３巷３５１號","OBJECTID":646404},"geometry":{"x":168153.87475800049,"y":2551614.6937640049}},{"attributes":{"ID":646432,"DIS_CODE":0,"TOWNNAME":"善化區","LI":"什乃里","LIN":"10鄰","STREET":" ","SECT":" ","MAREA":"什乃","LANE":" ","ALLEY":" ","HOUSE_NO":"１１５號","E_COORD97":176032.390293,"N_COORD97":2559975.15796,"ADDRESS":"什乃１１５號","OBJECTID":646405},"geometry":{"x":176032.39029300027,"y":2559975.1579610016}},{"attributes":{"ID":646433,"DIS_CODE":0,"TOWNNAME":"仁德區","LI":"太子里","LIN":"36鄰","STREET":"長興一街","SECT":" ","MAREA":" ","LANE":"４０巷","ALLEY":" ","HOUSE_NO":"３５號","E_COORD97":174456.97138199999,"N_COORD97":2543888.1776999999,"ADDRESS":"長興一街４０巷３５號","OBJECTID":646406},"geometry":{"x":174456.97138200048,"y":2543888.1776979975}},{"attributes":{"ID":646434,"DIS_CODE":0,"TOWNNAME":"仁德區","LI":"仁和里","LIN":"8鄰","STREET":"和愛街","SECT":" ","MAREA":" ","LANE":" ","ALLEY":" ","HOUSE_NO":"６號四樓之１","E_COORD97":170386.70999999999,"N_COORD97":2540084.0899999999,"ADDRESS":"和愛街６號四樓之１","OBJECTID":646407},"geometry":{"x":170386.71000000183,"y":2540084.0900000036}},{"attributes":{"ID":646435,"DIS_CODE":0,"TOWNNAME":"仁德區","LI":"仁和里","LIN":"8鄰","STREET":"和愛街","SECT":" ","MAREA":" ","LANE":" ","ALLEY":" ","HOUSE_NO":"６號四樓之２","E_COORD97":170386.70999999999,"N_COORD97":2540084.0899999999,"ADDRESS":"和愛街６號四樓之２","OBJECTID":646408},"geometry":{"x":170386.71000000183,"y":2540084.0900000036}},{"attributes":{"ID":646436,"DIS_CODE":0,"TOWNNAME":"仁德區","LI":"仁和里","LIN":"8鄰","STREET":"和愛街","SECT":" ","MAREA":" ","LANE":" ","ALLEY":" ","HOUSE_NO":"６號四樓之３","E_COORD97":170386.70999999999,"N_COORD97":2540084.0899999999,"ADDRESS":"和愛街６號四樓之３","OBJECTID":646409},"geometry":{"x":170386.71000000183,"y":2540084.0900000036}},{"attributes":{"ID":646437,"DIS_CODE":0,"TOWNNAME":"仁德區","LI":"仁和里","LIN":"8鄰","STREET":"和愛街","SECT":" ","MAREA":" ","LANE":" ","ALLEY":" ","HOUSE_NO":"６號四樓之５","E_COORD97":170386.70999999999,"N_COORD97":2540084.0899999999,"ADDRESS":"和愛街６號四樓之５","OBJECTID":646410},"geometry":{"x":170386.71000000183,"y":2540084.0900000036}},{"attributes":{"ID":646438,"DIS_CODE":0,"TOWNNAME":"仁德區","LI":"仁和里","LIN":"8鄰","STREET":"和愛街","SECT":" ","MAREA":" ","LANE":" ","ALLEY":" ","HOUSE_NO":"６號五樓之１","E_COORD97":170386.70999999999,"N_COORD97":2540084.0899999999,"ADDRESS":"和愛街６號五樓之１","OBJECTID":646411},"geometry":{"x":170386.71000000183,"y":2540084.0900000036}},{"attributes":{"ID":646439,"DIS_CODE":0,"TOWNNAME":"仁德區","LI":"仁和里","LIN":"8鄰","STREET":"和愛街","SECT":" ","MAREA":" ","LANE":" ","ALLEY":" ","HOUSE_NO":"６號五樓之２","E_COORD97":170386.70999999999,"N_COORD97":2540084.0899999999,"ADDRESS":"和愛街６號五樓之２","OBJECTID":646412},"geometry":{"x":170386.71000000183,"y":2540084.0900000036}},{"attributes":{"ID":646440,"DIS_CODE":0,"TOWNNAME":"仁德區","LI":"仁和里","LIN":"8鄰","STREET":"和愛街","SECT":" ","MAREA":" ","LANE":" ","ALLEY":" ","HOUSE_NO":"６號五樓之３","E_COORD97":170386.70999999999,"N_COORD97":2540084.0899999999,"ADDRESS":"和愛街６號五樓之３","OBJECTID":646413},"geometry":{"x":170386.71000000183,"y":2540084.0900000036}},{"attributes":{"ID":646441,"DIS_CODE":0,"TOWNNAME":"仁德區","LI":"仁和里","LIN":"8鄰","STREET":"和愛街","SECT":" ","MAREA":" ","LANE":" ","ALLEY":" ","HOUSE_NO":"６號五樓之５","E_COORD97":170386.70999999999,"N_COORD97":2540084.0899999999,"ADDRESS":"和愛街６號五樓之５","OBJECTID":646414},"geometry":{"x":170386.71000000183,"y":2540084.0900000036}},{"attributes":{"ID":646442,"DIS_CODE":0,"TOWNNAME":"仁德區","LI":"仁和里","LIN":"8鄰","STREET":"和愛街","SECT":" ","MAREA":" ","LANE":" ","ALLEY":" ","HOUSE_NO":"６號六樓之１","E_COORD97":170386.70999999999,"N_COORD97":2540084.0899999999,"ADDRESS":"和愛街６號六樓之１","OBJECTID":646415},"geometry":{"x":170386.71000000183,"y":2540084.0900000036}},{"attributes":{"ID":646443,"DIS_CODE":0,"TOWNNAME":"安南區","LI":"四草里","LIN":"7鄰","STREET":"四草大道","SECT":" ","MAREA":" ","LANE":"４３８巷","ALLEY":"６０弄","HOUSE_NO":"３２１號","E_COORD97":161461.183689,"N_COORD97":2545191.85219,"ADDRESS":"四草大道４３８巷６０弄３２１號","OBJECTID":646416},"geometry":{"x":161461.18368900102,"y":2545191.852195004}},{"attributes":{"ID":646444,"DIS_CODE":0,"TOWNNAME":"仁德區","LI":"仁和里","LIN":"8鄰","STREET":"和愛街","SECT":" ","MAREA":" ","LANE":" ","ALLEY":" ","HOUSE_NO":"６號六樓之２","E_COORD97":170386.70999999999,"N_COORD97":2540084.0899999999,"ADDRESS":"和愛街６號六樓之２","OBJECTID":646417},"geometry":{"x":170386.71000000183,"y":2540084.0900000036}},{"attributes":{"ID":646445,"DIS_CODE":0,"TOWNNAME":"仁德區","LI":"仁和里","LIN":"8鄰","STREET":"和愛街","SECT":" ","MAREA":" ","LANE":" ","ALLEY":" ","HOUSE_NO":"６號六樓之３","E_COORD97":170386.70999999999,"N_COORD97":2540084.0899999999,"ADDRESS":"和愛街６號六樓之３","OBJECTID":646418},"geometry":{"x":170386.71000000183,"y":2540084.0900000036}},{"attributes":{"ID":646446,"DIS_CODE":0,"TOWNNAME":"仁德區","LI":"仁和里","LIN":"8鄰","STREET":"和愛街","SECT":" ","MAREA":" ","LANE":" ","ALLEY":" ","HOUSE_NO":"６號六樓之５","E_COORD97":170386.70999999999,"N_COORD97":2540084.0899999999,"ADDRESS":"和愛街６號六樓之５","OBJECTID":646419},"geometry":{"x":170386.71000000183,"y":2540084.0900000036}},{"attributes":{"ID":646447,"DIS_CODE":0,"TOWNNAME":"仁德區","LI":"仁和里","LIN":"8鄰","STREET":"和愛街","SECT":" ","MAREA":" ","LANE":" ","ALLEY":" ","HOUSE_NO":"６號七樓之１","E_COORD97":170386.70999999999,"N_COORD97":2540084.0899999999,"ADDRESS":"和愛街６號七樓之１","OBJECTID":646420},"geometry":{"x":170386.71000000183,"y":2540084.0900000036}},{"attributes":{"ID":646448,"DIS_CODE":0,"TOWNNAME":"仁德區","LI":"仁和里","LIN":"8鄰","STREET":"和愛街","SECT":" ","MAREA":" ","LANE":" ","ALLEY":" ","HOUSE_NO":"６號七樓之２","E_COORD97":170386.70999999999,"N_COORD97":2540084.0899999999,"ADDRESS":"和愛街６號七樓之２","OBJECTID":646421},"geometry":{"x":170386.71000000183,"y":2540084.0900000036}},{"attributes":{"ID":646449,"DIS_CODE":0,"TOWNNAME":"仁德區","LI":"仁和里","LIN":"8鄰","STREET":"和愛街","SECT":" ","MAREA":" ","LANE":" ","ALLEY":" ","HOUSE_NO":"６號七樓之３","E_COORD97":170386.70999999999,"N_COORD97":2540084.0899999999,"ADDRESS":"和愛街６號七樓之３","OBJECTID":646422},"geometry":{"x":170386.71000000183,"y":2540084.0900000036}},{"attributes":{"ID":646450,"DIS_CODE":0,"TOWNNAME":"仁德區","LI":"仁和里","LIN":"8鄰","STREET":"和愛街","SECT":" ","MAREA":" ","LANE":" ","ALLEY":" ","HOUSE_NO":"６號七樓之５","E_COORD97":170386.70999999999,"N_COORD97":2540084.0899999999,"ADDRESS":"和愛街６號七樓之５","OBJECTID":646423},"geometry":{"x":170386.71000000183,"y":2540084.0900000036}},{"attributes":{"ID":646451,"DIS_CODE":0,"TOWNNAME":"仁德區","LI":"仁和里","LIN":"8鄰","STREET":"和愛街","SECT":" ","MAREA":" ","LANE":" ","ALLEY":" ","HOUSE_NO":"６號八樓之１","E_COORD97":170386.70999999999,"N_COORD97":2540084.0899999999,"ADDRESS":"和愛街６號八樓之１","OBJECTID":646424},"geometry":{"x":170386.71000000183,"y":2540084.0900000036}},{"attributes":{"ID":646452,"DIS_CODE":0,"TOWNNAME":"東山區","LI":"高原里","LIN":"1鄰","STREET":" ","SECT":" ","MAREA":"高原","LANE":" ","ALLEY":" ","HOUSE_NO":"１３６號","E_COORD97":195856.35344199999,"N_COORD97":2575353.58666,"ADDRESS":"高原１３６號","OBJECTID":646425},"geometry":{"x":195856.35344200116,"y":2575353.586663004}},{"attributes":{"ID":646453,"DIS_CODE":0,"TOWNNAME":"東山區","LI":"東河里","LIN":"12鄰","STREET":" ","SECT":" ","MAREA":"吉貝耍","LANE":" ","ALLEY":" ","HOUSE_NO":"１５０號之２","E_COORD97":186785.3627,"N_COORD97":2577111.4729900002,"ADDRESS":"吉貝耍１５０號之２","OBJECTID":646426},"geometry":{"x":186785.36270000134,"y":2577111.4729900043}},{"attributes":{"ID":646454,"DIS_CODE":0,"TOWNNAME":"仁德區","LI":"仁和里","LIN":"8鄰","STREET":"和愛街","SECT":" ","MAREA":" ","LANE":" ","ALLEY":" ","HOUSE_NO":"６號八樓之２","E_COORD97":170386.70999999999,"N_COORD97":2540084.0899999999,"ADDRESS":"和愛街６號八樓之２","OBJECTID":646427},"geometry":{"x":170386.71000000183,"y":2540084.0900000036}},{"attributes":{"ID":646455,"DIS_CODE":0,"TOWNNAME":"仁德區","LI":"仁和里","LIN":"8鄰","STREET":"和愛街","SECT":" ","MAREA":" ","LANE":" ","ALLEY":" ","HOUSE_NO":"６號八樓之３","E_COORD97":170386.70999999999,"N_COORD97":2540084.0899999999,"ADDRESS":"和愛街６號八樓之３","OBJECTID":646428},"geometry":{"x":170386.71000000183,"y":2540084.0900000036}},{"attributes":{"ID":646456,"DIS_CODE":0,"TOWNNAME":"仁德區","LI":"仁和里","LIN":"8鄰","STREET":"和愛街","SECT":" ","MAREA":" ","LANE":" ","ALLEY":" ","HOUSE_NO":"６號八樓之５","E_COORD97":170386.70999999999,"N_COORD97":2540084.0899999999,"ADDRESS":"和愛街６號八樓之５","OBJECTID":646429},"geometry":{"x":170386.71000000183,"y":2540084.0900000036}},{"attributes":{"ID":646457,"DIS_CODE":0,"TOWNNAME":"仁德區","LI":"仁和里","LIN":"8鄰","STREET":"和愛街","SECT":" ","MAREA":" ","LANE":" ","ALLEY":" ","HOUSE_NO":"６號九樓之１","E_COORD97":170386.70999999999,"N_COORD97":2540084.0899999999,"ADDRESS":"和愛街６號九樓之１","OBJECTID":646430},"geometry":{"x":170386.71000000183,"y":2540084.0900000036}},{"attributes":{"ID":646458,"DIS_CODE":0,"TOWNNAME":"仁德區","LI":"仁和里","LIN":"8鄰","STREET":"和愛街","SECT":" ","MAREA":" ","LANE":" ","ALLEY":" ","HOUSE_NO":"６號九樓之２","E_COORD97":170386.70999999999,"N_COORD97":2540084.0899999999,"ADDRESS":"和愛街６號九樓之２","OBJECTID":646431},"geometry":{"x":170386.71000000183,"y":2540084.0900000036}},{"attributes":{"ID":646459,"DIS_CODE":0,"TOWNNAME":"仁德區","LI":"仁和里","LIN":"8鄰","STREET":"和愛街","SECT":" ","MAREA":" ","LANE":" ","ALLEY":" ","HOUSE_NO":"６號九樓之３","E_COORD97":170386.70999999999,"N_COORD97":2540084.0899999999,"ADDRESS":"和愛街６號九樓之３","OBJECTID":646432},"geometry":{"x":170386.71000000183,"y":2540084.0900000036}},{"attributes":{"ID":646460,"DIS_CODE":0,"TOWNNAME":"仁德區","LI":"仁和里","LIN":"8鄰","STREET":"和愛街","SECT":" ","MAREA":" ","LANE":" ","ALLEY":" ","HOUSE_NO":"６號九樓之５","E_COORD97":170386.70999999999,"N_COORD97":2540084.0899999999,"ADDRESS":"和愛街６號九樓之５","OBJECTID":646433},"geometry":{"x":170386.71000000183,"y":2540084.0900000036}},{"attributes":{"ID":646461,"DIS_CODE":0,"TOWNNAME":"仁德區","LI":"仁和里","LIN":"8鄰","STREET":"和愛街","SECT":" ","MAREA":" ","LANE":" ","ALLEY":" ","HOUSE_NO":"６號十樓之１","E_COORD97":170386.70999999999,"N_COORD97":2540084.0899999999,"ADDRESS":"和愛街６號十樓之１","OBJECTID":646434},"geometry":{"x":170386.71000000183,"y":2540084.0900000036}},{"attributes":{"ID":646462,"DIS_CODE":0,"TOWNNAME":"仁德區","LI":"仁和里","LIN":"8鄰","STREET":"和愛街","SECT":" ","MAREA":" ","LANE":" ","ALLEY":" ","HOUSE_NO":"６號十樓之２","E_COORD97":170386.70999999999,"N_COORD97":2540084.0899999999,"ADDRESS":"和愛街６號十樓之２","OBJECTID":646435},"geometry":{"x":170386.71000000183,"y":2540084.0900000036}},{"attributes":{"ID":646463,"DIS_CODE":0,"TOWNNAME":"仁德區","LI":"仁和里","LIN":"8鄰","STREET":"和愛街","SECT":" ","MAREA":" ","LANE":" ","ALLEY":" ","HOUSE_NO":"６號十樓之３","E_COORD97":170386.70999999999,"N_COORD97":2540084.0899999999,"ADDRESS":"和愛街６號十樓之３","OBJECTID":646436},"geometry":{"x":170386.71000000183,"y":2540084.0900000036}},{"attributes":{"ID":646464,"DIS_CODE":0,"TOWNNAME":"仁德區","LI":"仁和里","LIN":"8鄰","STREET":"和愛街","SECT":" ","MAREA":" ","LANE":" ","ALLEY":" ","HOUSE_NO":"６號十樓之５","E_COORD97":170386.70999999999,"N_COORD97":2540084.0899999999,"ADDRESS":"和愛街６號十樓之５","OBJECTID":646437},"geometry":{"x":170386.71000000183,"y":2540084.0900000036}},{"attributes":{"ID":646465,"DIS_CODE":0,"TOWNNAME":"仁德區","LI":"仁和里","LIN":"8鄰","STREET":"和愛街","SECT":" ","MAREA":" ","LANE":" ","ALLEY":" ","HOUSE_NO":"６號十一樓之１","E_COORD97":170386.70999999999,"N_COORD97":2540084.0899999999,"ADDRESS":"和愛街６號十一樓之１","OBJECTID":646438},"geometry":{"x":170386.71000000183,"y":2540084.0900000036}},{"attributes":{"ID":646466,"DIS_CODE":0,"TOWNNAME":"仁德區","LI":"仁和里","LIN":"8鄰","STREET":"和愛街","SECT":" ","MAREA":" ","LANE":" ","ALLEY":" ","HOUSE_NO":"６號十一樓之２","E_COORD97":170386.70999999999,"N_COORD97":2540084.0899999999,"ADDRESS":"和愛街６號十一樓之２","OBJECTID":646439},"geometry":{"x":170386.71000000183,"y":2540084.0900000036}},{"attributes":{"ID":646467,"DIS_CODE":0,"TOWNNAME":"仁德區","LI":"仁和里","LIN":"8鄰","STREET":"和愛街","SECT":" ","MAREA":" ","LANE":" ","ALLEY":" ","HOUSE_NO":"６號十一樓之３","E_COORD97":170386.70999999999,"N_COORD97":2540084.0899999999,"ADDRESS":"和愛街６號十一樓之３","OBJECTID":646440},"geometry":{"x":170386.71000000183,"y":2540084.0900000036}},{"attributes":{"ID":646468,"DIS_CODE":0,"TOWNNAME":"安南區","LI":"四草里","LIN":"7鄰","STREET":"四草大道","SECT":" ","MAREA":" ","LANE":"４３８巷","ALLEY":"６０弄","HOUSE_NO":"１２１號","E_COORD97":161428.77957300001,"N_COORD97":2545281.3871499998,"ADDRESS":"四草大道４３８巷６０弄１２１號","OBJECTID":646441},"geometry":{"x":161428.77957300097,"y":2545281.3871470019}},{"attributes":{"ID":646469,"DIS_CODE":0,"TOWNNAME":"仁德區","LI":"仁和里","LIN":"8鄰","STREET":"和愛街","SECT":" ","MAREA":" ","LANE":" ","ALLEY":" ","HOUSE_NO":"６號十一樓之５","E_COORD97":170386.70999999999,"N_COORD97":2540084.0899999999,"ADDRESS":"和愛街６號十一樓之５","OBJECTID":646442},"geometry":{"x":170386.71000000183,"y":2540084.0900000036}},{"attributes":{"ID":646470,"DIS_CODE":0,"TOWNNAME":"仁德區","LI":"仁和里","LIN":"8鄰","STREET":"和愛街","SECT":" ","MAREA":" ","LANE":" ","ALLEY":" ","HOUSE_NO":"６號十二樓之１","E_COORD97":170386.70999999999,"N_COORD97":2540084.0899999999,"ADDRESS":"和愛街６號十二樓之１","OBJECTID":646443},"geometry":{"x":170386.71000000183,"y":2540084.0900000036}},{"attributes":{"ID":646471,"DIS_CODE":0,"TOWNNAME":"仁德區","LI":"仁和里","LIN":"8鄰","STREET":"和愛街","SECT":" ","MAREA":" ","LANE":" ","ALLEY":" ","HOUSE_NO":"６號十二樓之２","E_COORD97":170386.70999999999,"N_COORD97":2540084.0899999999,"ADDRESS":"和愛街６號十二樓之２","OBJECTID":646444},"geometry":{"x":170386.71000000183,"y":2540084.0900000036}},{"attributes":{"ID":646472,"DIS_CODE":0,"TOWNNAME":"仁德區","LI":"仁和里","LIN":"8鄰","STREET":"和愛街","SECT":" ","MAREA":" ","LANE":" ","ALLEY":" ","HOUSE_NO":"６號十二樓之３","E_COORD97":170386.70999999999,"N_COORD97":2540084.0899999999,"ADDRESS":"和愛街６號十二樓之３","OBJECTID":646445},"geometry":{"x":170386.71000000183,"y":2540084.0900000036}},{"attributes":{"ID":646473,"DIS_CODE":0,"TOWNNAME":"仁德區","LI":"仁和里","LIN":"8鄰","STREET":"和愛街","SECT":" ","MAREA":" ","LANE":" ","ALLEY":" ","HOUSE_NO":"６號十二樓之５","E_COORD97":170386.70999999999,"N_COORD97":2540084.0899999999,"ADDRESS":"和愛街６號十二樓之５","OBJECTID":646446},"geometry":{"x":170386.71000000183,"y":2540084.0900000036}},{"attributes":{"ID":646474,"DIS_CODE":0,"TOWNNAME":"安南區","LI":"四草里","LIN":"7鄰","STREET":"四草大道","SECT":" ","MAREA":" ","LANE":"４３８巷","ALLEY":"６０弄","HOUSE_NO":"１０１號","E_COORD97":161421.57865899999,"N_COORD97":2545307.4221299998,"ADDRESS":"四草大道４３８巷６０弄１０１號","OBJECTID":646447},"geometry":{"x":161421.57865900081,"y":2545307.4221330006}},{"attributes":{"ID":646475,"DIS_CODE":0,"TOWNNAME":"安南區","LI":"總頭里","LIN":"13鄰","STREET":"長溪路","SECT":"二段","MAREA":" ","LANE":"４８３巷","ALLEY":"４６弄","HOUSE_NO":"８號","E_COORD97":168163.89671299999,"N_COORD97":2550429.06433,"ADDRESS":"長溪路二段４８３巷４６弄８號","OBJECTID":646448},"geometry":{"x":168163.89671299979,"y":2550429.0643300023}},{"attributes":{"ID":646476,"DIS_CODE":0,"TOWNNAME":"仁德區","LI":"中洲里","LIN":"1鄰","STREET":" ","SECT":" ","MAREA":"中洲","LANE":" ","ALLEY":" ","HOUSE_NO":"２之３０號","E_COORD97":173245.99946699999,"N_COORD97":2535377.15949,"ADDRESS":"中洲２之３０號","OBJECTID":646449},"geometry":{"x":173245.99946700037,"y":2535377.1594940014}},{"attributes":{"ID":646477,"DIS_CODE":0,"TOWNNAME":"仁德區","LI":"仁和里","LIN":"8鄰","STREET":"和愛街","SECT":" ","MAREA":" ","LANE":" ","ALLEY":" ","HOUSE_NO":"６號十三樓之１","E_COORD97":170386.70999999999,"N_COORD97":2540084.0899999999,"ADDRESS":"和愛街６號十三樓之１","OBJECTID":646450},"geometry":{"x":170386.71000000183,"y":2540084.0900000036}},{"attributes":{"ID":646478,"DIS_CODE":0,"TOWNNAME":"仁德區","LI":"仁和里","LIN":"8鄰","STREET":"和愛街","SECT":" ","MAREA":" ","LANE":" ","ALLEY":" ","HOUSE_NO":"６號十三樓之２","E_COORD97":170386.70999999999,"N_COORD97":2540084.0899999999,"ADDRESS":"和愛街６號十三樓之２","OBJECTID":646451},"geometry":{"x":170386.71000000183,"y":2540084.0900000036}},{"attributes":{"ID":646479,"DIS_CODE":0,"TOWNNAME":"仁德區","LI":"仁和里","LIN":"8鄰","STREET":"和愛街","SECT":" ","MAREA":" ","LANE":" ","ALLEY":" ","HOUSE_NO":"６號十三樓之３","E_COORD97":170386.70999999999,"N_COORD97":2540084.0899999999,"ADDRESS":"和愛街６號十三樓之３","OBJECTID":646452},"geometry":{"x":170386.71000000183,"y":2540084.0900000036}},{"attributes":{"ID":646480,"DIS_CODE":0,"TOWNNAME":"新營區","LI":"新南里","LIN":"10鄰","STREET":"新北五街","SECT":" ","MAREA":" ","LANE":"１４３巷","ALLEY":" ","HOUSE_NO":"１８號","E_COORD97":178523.10878499999,"N_COORD97":2579123.6230899999,"ADDRESS":"新北五街１４３巷１８號","OBJECTID":646453},"geometry":{"x":178523.1087849997,"y":2579123.6230920013}},{"attributes":{"ID":646481,"DIS_CODE":0,"TOWNNAME":"仁德區","LI":"仁和里","LIN":"8鄰","STREET":"和愛街","SECT":" ","MAREA":" ","LANE":" ","ALLEY":" ","HOUSE_NO":"６號十三樓之５","E_COORD97":170386.70999999999,"N_COORD97":2540084.0899999999,"ADDRESS":"和愛街６號十三樓之５","OBJECTID":646454},"geometry":{"x":170386.71000000183,"y":2540084.0900000036}},{"attributes":{"ID":646482,"DIS_CODE":0,"TOWNNAME":"仁德區","LI":"仁和里","LIN":"8鄰","STREET":"和愛街","SECT":" ","MAREA":" ","LANE":" ","ALLEY":" ","HOUSE_NO":"６號十四樓之１","E_COORD97":170386.70999999999,"N_COORD97":2540084.0899999999,"ADDRESS":"和愛街６號十四樓之１","OBJECTID":646455},"geometry":{"x":170386.71000000183,"y":2540084.0900000036}},{"attributes":{"ID":646483,"DIS_CODE":0,"TOWNNAME":"仁德區","LI":"仁和里","LIN":"8鄰","STREET":"和愛街","SECT":" ","MAREA":" ","LANE":" ","ALLEY":" ","HOUSE_NO":"６號十四樓之２","E_COORD97":170386.70999999999,"N_COORD97":2540084.0899999999,"ADDRESS":"和愛街６號十四樓之２","OBJECTID":646456},"geometry":{"x":170386.71000000183,"y":2540084.0900000036}},{"attributes":{"ID":646484,"DIS_CODE":0,"TOWNNAME":"仁德區","LI":"仁和里","LIN":"8鄰","STREET":"和愛街","SECT":" ","MAREA":" ","LANE":" ","ALLEY":" ","HOUSE_NO":"６號十四樓之３","E_COORD97":170386.70999999999,"N_COORD97":2540084.0899999999,"ADDRESS":"和愛街６號十四樓之３","OBJECTID":646457},"geometry":{"x":170386.71000000183,"y":2540084.0900000036}},{"attributes":{"ID":646485,"DIS_CODE":0,"TOWNNAME":"仁德區","LI":"中洲里","LIN":"1鄰","STREET":" ","SECT":" ","MAREA":"中洲","LANE":" ","ALLEY":" ","HOUSE_NO":"２號之１１","E_COORD97":173226.71985600001,"N_COORD97":2535347.9495100002,"ADDRESS":"中洲２號之１１","OBJECTID":646458},"geometry":{"x":173226.71985599957,"y":2535347.9495090023}},{"attributes":{"ID":646486,"DIS_CODE":0,"TOWNNAME":"仁德區","LI":"仁和里","LIN":"8鄰","STREET":"和愛街","SECT":" ","MAREA":" ","LANE":" ","ALLEY":" ","HOUSE_NO":"６號十四樓之５","E_COORD97":170386.70999999999,"N_COORD97":2540084.0899999999,"ADDRESS":"和愛街６號十四樓之５","OBJECTID":646459},"geometry":{"x":170386.71000000183,"y":2540084.0900000036}},{"attributes":{"ID":646487,"DIS_CODE":0,"TOWNNAME":"東山區","LI":"高原里","LIN":"1鄰","STREET":" ","SECT":" ","MAREA":"高原","LANE":" ","ALLEY":" ","HOUSE_NO":"１４號之４","E_COORD97":195806.04738999999,"N_COORD97":2575495.1915799999,"ADDRESS":"高原１４號之４","OBJECTID":646460},"geometry":{"x":195806.04739000089,"y":2575495.1915800013}},{"attributes":{"ID":646488,"DIS_CODE":0,"TOWNNAME":"仁德區","LI":"仁和里","LIN":"9鄰","STREET":"和愛街","SECT":" ","MAREA":" ","LANE":" ","ALLEY":" ","HOUSE_NO":"８號一樓之１","E_COORD97":170388.76000000001,"N_COORD97":2540040.2799999998,"ADDRESS":"和愛街８號一樓之１","OBJECTID":646461},"geometry":{"x":170388.76000000071,"y":2540040.2799999993}},{"attributes":{"ID":646489,"DIS_CODE":0,"TOWNNAME":"仁德區","LI":"中洲里","LIN":"1鄰","STREET":" ","SECT":" ","MAREA":"中洲","LANE":" ","ALLEY":" ","HOUSE_NO":"２號之７","E_COORD97":173627.77812500001,"N_COORD97":2534382.9616999999,"ADDRESS":"中洲２號之７","OBJECTID":646462},"geometry":{"x":173627.77812500019,"y":2534382.9616970029}},{"attributes":{"ID":646490,"DIS_CODE":0,"TOWNNAME":"關廟區","LI":"布袋里","LIN":"9鄰","STREET":"長文街","SECT":" ","MAREA":" ","LANE":" ","ALLEY":" ","HOUSE_NO":"３９１號","E_COORD97":182181.68283999999,"N_COORD97":2534719.93261,"ADDRESS":"長文街３９１號","OBJECTID":646463},"geometry":{"x":182181.68283999991,"y":2534719.9326050039}},{"attributes":{"ID":646491,"DIS_CODE":0,"TOWNNAME":"仁德區","LI":"仁和里","LIN":"9鄰","STREET":"和愛街","SECT":" ","MAREA":" ","LANE":" ","ALLEY":" ","HOUSE_NO":"８號二樓之１","E_COORD97":170388.76000000001,"N_COORD97":2540040.2799999998,"ADDRESS":"和愛街８號二樓之１","OBJECTID":646464},"geometry":{"x":170388.76000000071,"y":2540040.2799999993}},{"attributes":{"ID":646492,"DIS_CODE":0,"TOWNNAME":"仁德區","LI":"仁和里","LIN":"9鄰","STREET":"和愛街","SECT":" ","MAREA":" ","LANE":" ","ALLEY":" ","HOUSE_NO":"８號二樓之２","E_COORD97":170388.76000000001,"N_COORD97":2540040.2799999998,"ADDRESS":"和愛街８號二樓之２","OBJECTID":646465},"geometry":{"x":170388.76000000071,"y":2540040.2799999993}},{"attributes":{"ID":646493,"DIS_CODE":0,"TOWNNAME":"仁德區","LI":"仁和里","LIN":"9鄰","STREET":"和愛街","SECT":" ","MAREA":" ","LANE":" ","ALLEY":" ","HOUSE_NO":"８號二樓之３","E_COORD97":170388.76000000001,"N_COORD97":2540040.2799999998,"ADDRESS":"和愛街８號二樓之３","OBJECTID":646466},"geometry":{"x":170388.76000000071,"y":2540040.2799999993}},{"attributes":{"ID":646494,"DIS_CODE":0,"TOWNNAME":"仁德區","LI":"仁和里","LIN":"9鄰","STREET":"和愛街","SECT":" ","MAREA":" ","LANE":" ","ALLEY":" ","HOUSE_NO":"８號二樓之５","E_COORD97":170388.76000000001,"N_COORD97":2540040.2799999998,"ADDRESS":"和愛街８號二樓之５","OBJECTID":646467},"geometry":{"x":170388.76000000071,"y":2540040.2799999993}},{"attributes":{"ID":646495,"DIS_CODE":0,"TOWNNAME":"關廟區","LI":"龜洞里","LIN":"7鄰","STREET":"南雄南路","SECT":" ","MAREA":" ","LANE":"７０１巷","ALLEY":"５０弄","HOUSE_NO":"２１號","E_COORD97":183308.371075,"N_COORD97":2533269.54281,"ADDRESS":"南雄南路７０１巷５０弄２１號","OBJECTID":646468},"geometry":{"x":183308.37107499968,"y":2533269.5428150017}},{"attributes":{"ID":646496,"DIS_CODE":0,"TOWNNAME":"仁德區","LI":"仁和里","LIN":"9鄰","STREET":"和愛街","SECT":" ","MAREA":" ","LANE":" ","ALLEY":" ","HOUSE_NO":"８號三樓之１","E_COORD97":170388.76000000001,"N_COORD97":2540040.2799999998,"ADDRESS":"和愛街８號三樓之１","OBJECTID":646469},"geometry":{"x":170388.76000000071,"y":2540040.2799999993}},{"attributes":{"ID":646497,"DIS_CODE":0,"TOWNNAME":"仁德區","LI":"仁和里","LIN":"9鄰","STREET":"和愛街","SECT":" ","MAREA":" ","LANE":" ","ALLEY":" ","HOUSE_NO":"８號三樓之２","E_COORD97":170388.76000000001,"N_COORD97":2540040.2799999998,"ADDRESS":"和愛街８號三樓之２","OBJECTID":646470},"geometry":{"x":170388.76000000071,"y":2540040.2799999993}},{"attributes":{"ID":646498,"DIS_CODE":0,"TOWNNAME":"東山區","LI":"高原里","LIN":"3鄰","STREET":" ","SECT":" ","MAREA":"高原","LANE":" ","ALLEY":" ","HOUSE_NO":"１６號之４","E_COORD97":195919.26248,"N_COORD97":2575574.9898700002,"ADDRESS":"高原１６號之４","OBJECTID":646471},"geometry":{"x":195919.2624800019,"y":2575574.9898700006}},{"attributes":{"ID":646499,"DIS_CODE":0,"TOWNNAME":"仁德區","LI":"仁和里","LIN":"9鄰","STREET":"和愛街","SECT":" ","MAREA":" ","LANE":" ","ALLEY":" ","HOUSE_NO":"８號三樓之３","E_COORD97":170388.76000000001,"N_COORD97":2540040.2799999998,"ADDRESS":"和愛街８號三樓之３","OBJECTID":646472},"geometry":{"x":170388.76000000071,"y":2540040.2799999993}},{"attributes":{"ID":646500,"DIS_CODE":0,"TOWNNAME":"仁德區","LI":"仁和里","LIN":"9鄰","STREET":"和愛街","SECT":" ","MAREA":" ","LANE":" ","ALLEY":" ","HOUSE_NO":"８號三樓之５","E_COORD97":170388.76000000001,"N_COORD97":2540040.2799999998,"ADDRESS":"和愛街８號三樓之５","OBJECTID":646473},"geometry":{"x":170388.76000000071,"y":2540040.2799999993}},{"attributes":{"ID":646501,"DIS_CODE":0,"TOWNNAME":"安南區","LI":"布袋里","LIN":"3鄰","STREET":"長和路","SECT":"四段","MAREA":" ","LANE":"２３１巷","ALLEY":"６０弄","HOUSE_NO":"３７號","E_COORD97":168721.092855,"N_COORD97":2551521.4358100002,"ADDRESS":"長和路四段２３１巷６０弄３７號","OBJECTID":646474},"geometry":{"x":168721.09285500087,"y":2551521.435812002}},{"attributes":{"ID":646502,"DIS_CODE":0,"TOWNNAME":"仁德區","LI":"中洲里","LIN":"1鄰","STREET":" ","SECT":" ","MAREA":"中洲","LANE":" ","ALLEY":" ","HOUSE_NO":"２之３５號","E_COORD97":173250.70019599999,"N_COORD97":2535377.3976199999,"ADDRESS":"中洲２之３５號","OBJECTID":646475},"geometry":{"x":173250.70019599888,"y":2535377.3976180013}},{"attributes":{"ID":646503,"DIS_CODE":0,"TOWNNAME":"仁德區","LI":"仁和里","LIN":"9鄰","STREET":"和愛街","SECT":" ","MAREA":" ","LANE":" ","ALLEY":" ","HOUSE_NO":"８號四樓之１","E_COORD97":170388.76000000001,"N_COORD97":2540040.2799999998,"ADDRESS":"和愛街８號四樓之１","OBJECTID":646476},"geometry":{"x":170388.76000000071,"y":2540040.2799999993}},{"attributes":{"ID":646504,"DIS_CODE":0,"TOWNNAME":"仁德區","LI":"仁和里","LIN":"9鄰","STREET":"和愛街","SECT":" ","MAREA":" ","LANE":" ","ALLEY":" ","HOUSE_NO":"８號四樓之２","E_COORD97":170388.76000000001,"N_COORD97":2540040.2799999998,"ADDRESS":"和愛街８號四樓之２","OBJECTID":646477},"geometry":{"x":170388.76000000071,"y":2540040.2799999993}},{"attributes":{"ID":646505,"DIS_CODE":0,"TOWNNAME":"仁德區","LI":"仁和里","LIN":"9鄰","STREET":"和愛街","SECT":" ","MAREA":" ","LANE":" ","ALLEY":" ","HOUSE_NO":"８號四樓之３","E_COORD97":170388.76000000001,"N_COORD97":2540040.2799999998,"ADDRESS":"和愛街８號四樓之３","OBJECTID":646478},"geometry":{"x":170388.76000000071,"y":2540040.2799999993}},{"attributes":{"ID":646506,"DIS_CODE":0,"TOWNNAME":"仁德區","LI":"仁和里","LIN":"9鄰","STREET":"和愛街","SECT":" ","MAREA":" ","LANE":" ","ALLEY":" ","HOUSE_NO":"８號四樓之５","E_COORD97":170388.76000000001,"N_COORD97":2540040.2799999998,"ADDRESS":"和愛街８號四樓之５","OBJECTID":646479},"geometry":{"x":170388.76000000071,"y":2540040.2799999993}},{"attributes":{"ID":646507,"DIS_CODE":0,"TOWNNAME":"關廟區","LI":"布袋里","LIN":"9鄰","STREET":"長文街","SECT":" ","MAREA":" ","LANE":"３９９巷","ALLEY":" ","HOUSE_NO":"５６號","E_COORD97":182331.313062,"N_COORD97":2534578.11601,"ADDRESS":"長文街３９９巷５６號","OBJECTID":646480},"geometry":{"x":182331.31306200009,"y":2534578.116015004}},{"attributes":{"ID":646508,"DIS_CODE":0,"TOWNNAME":"仁德區","LI":"仁和里","LIN":"9鄰","STREET":"和愛街","SECT":" ","MAREA":" ","LANE":" ","ALLEY":" ","HOUSE_NO":"８號五樓之１","E_COORD97":170388.76000000001,"N_COORD97":2540040.2799999998,"ADDRESS":"和愛街８號五樓之１","OBJECTID":646481},"geometry":{"x":170388.76000000071,"y":2540040.2799999993}},{"attributes":{"ID":646509,"DIS_CODE":0,"TOWNNAME":"仁德區","LI":"仁和里","LIN":"9鄰","STREET":"和愛街","SECT":" ","MAREA":" ","LANE":" ","ALLEY":" ","HOUSE_NO":"８號五樓之２","E_COORD97":170388.76000000001,"N_COORD97":2540040.2799999998,"ADDRESS":"和愛街８號五樓之２","OBJECTID":646482},"geometry":{"x":170388.76000000071,"y":2540040.2799999993}},{"attributes":{"ID":646510,"DIS_CODE":0,"TOWNNAME":"仁德區","LI":"仁和里","LIN":"9鄰","STREET":"和愛街","SECT":" ","MAREA":" ","LANE":" ","ALLEY":" ","HOUSE_NO":"８號五樓之３","E_COORD97":170388.76000000001,"N_COORD97":2540040.2799999998,"ADDRESS":"和愛街８號五樓之３","OBJECTID":646483},"geometry":{"x":170388.76000000071,"y":2540040.2799999993}},{"attributes":{"ID":646511,"DIS_CODE":0,"TOWNNAME":"東山區","LI":"東河里","LIN":"16鄰","STREET":" ","SECT":" ","MAREA":"吉貝耍","LANE":" ","ALLEY":" ","HOUSE_NO":"１５３號之１","E_COORD97":186812.90960000001,"N_COORD97":2577179.20628,"ADDRESS":"吉貝耍１５３號之１","OBJECTID":646484},"geometry":{"x":186812.90960000083,"y":2577179.2062800005}},{"attributes":{"ID":646512,"DIS_CODE":0,"TOWNNAME":"仁德區","LI":"仁和里","LIN":"9鄰","STREET":"和愛街","SECT":" ","MAREA":" ","LANE":" ","ALLEY":" ","HOUSE_NO":"８號五樓之５","E_COORD97":170388.76000000001,"N_COORD97":2540040.2799999998,"ADDRESS":"和愛街８號五樓之５","OBJECTID":646485},"geometry":{"x":170388.76000000071,"y":2540040.2799999993}},{"attributes":{"ID":646513,"DIS_CODE":0,"TOWNNAME":"仁德區","LI":"仁和里","LIN":"9鄰","STREET":"和愛街","SECT":" ","MAREA":" ","LANE":" ","ALLEY":" ","HOUSE_NO":"８號六樓之１","E_COORD97":170388.76000000001,"N_COORD97":2540040.2799999998,"ADDRESS":"和愛街８號六樓之１","OBJECTID":646486},"geometry":{"x":170388.76000000071,"y":2540040.2799999993}},{"attributes":{"ID":646514,"DIS_CODE":0,"TOWNNAME":"關廟區","LI":"布袋里","LIN":"9鄰","STREET":"長文街","SECT":" ","MAREA":" ","LANE":"３９９巷","ALLEY":" ","HOUSE_NO":"５９號","E_COORD97":182382.814683,"N_COORD97":2534612.1943299999,"ADDRESS":"長文街３９９巷５９號","OBJECTID":646487},"geometry":{"x":182382.81468299963,"y":2534612.1943300012}},{"attributes":{"ID":646515,"DIS_CODE":0,"TOWNNAME":"仁德區","LI":"仁和里","LIN":"9鄰","STREET":"和愛街","SECT":" ","MAREA":" ","LANE":" ","ALLEY":" ","HOUSE_NO":"８號六樓之２","E_COORD97":170388.76000000001,"N_COORD97":2540040.2799999998,"ADDRESS":"和愛街８號六樓之２","OBJECTID":646488},"geometry":{"x":170388.76000000071,"y":2540040.2799999993}},{"attributes":{"ID":646516,"DIS_CODE":0,"TOWNNAME":"仁德區","LI":"仁和里","LIN":"9鄰","STREET":"和愛街","SECT":" ","MAREA":" ","LANE":" ","ALLEY":" ","HOUSE_NO":"８號六樓之３","E_COORD97":170388.76000000001,"N_COORD97":2540040.2799999998,"ADDRESS":"和愛街８號六樓之３","OBJECTID":646489},"geometry":{"x":170388.76000000071,"y":2540040.2799999993}},{"attributes":{"ID":646517,"DIS_CODE":0,"TOWNNAME":"仁德區","LI":"仁和里","LIN":"9鄰","STREET":"和愛街","SECT":" ","MAREA":" ","LANE":" ","ALLEY":" ","HOUSE_NO":"８號六樓之５","E_COORD97":170388.76000000001,"N_COORD97":2540040.2799999998,"ADDRESS":"和愛街８號六樓之５","OBJECTID":646490},"geometry":{"x":170388.76000000071,"y":2540040.2799999993}},{"attributes":{"ID":646518,"DIS_CODE":0,"TOWNNAME":"仁德區","LI":"仁和里","LIN":"9鄰","STREET":"和愛街","SECT":" ","MAREA":" ","LANE":" ","ALLEY":" ","HOUSE_NO":"８號七樓之１","E_COORD97":170388.76000000001,"N_COORD97":2540040.2799999998,"ADDRESS":"和愛街８號七樓之１","OBJECTID":646491},"geometry":{"x":170388.76000000071,"y":2540040.2799999993}},{"attributes":{"ID":646519,"DIS_CODE":0,"TOWNNAME":"仁德區","LI":"仁和里","LIN":"9鄰","STREET":"和愛街","SECT":" ","MAREA":" ","LANE":" ","ALLEY":" ","HOUSE_NO":"８號七樓之２","E_COORD97":170388.76000000001,"N_COORD97":2540040.2799999998,"ADDRESS":"和愛街８號七樓之２","OBJECTID":646492},"geometry":{"x":170388.76000000071,"y":2540040.2799999993}},{"attributes":{"ID":646520,"DIS_CODE":0,"TOWNNAME":"仁德區","LI":"仁和里","LIN":"9鄰","STREET":"和愛街","SECT":" ","MAREA":" ","LANE":" ","ALLEY":" ","HOUSE_NO":"８號七樓之３","E_COORD97":170388.76000000001,"N_COORD97":2540040.2799999998,"ADDRESS":"和愛街８號七樓之３","OBJECTID":646493},"geometry":{"x":170388.76000000071,"y":2540040.2799999993}},{"attributes":{"ID":646521,"DIS_CODE":0,"TOWNNAME":"仁德區","LI":"仁和里","LIN":"9鄰","STREET":"和愛街","SECT":" ","MAREA":" ","LANE":" ","ALLEY":" ","HOUSE_NO":"８號七樓之５","E_COORD97":170388.76000000001,"N_COORD97":2540040.2799999998,"ADDRESS":"和愛街８號七樓之５","OBJECTID":646494},"geometry":{"x":170388.76000000071,"y":2540040.2799999993}},{"attributes":{"ID":646522,"DIS_CODE":0,"TOWNNAME":"仁德區","LI":"仁和里","LIN":"9鄰","STREET":"和愛街","SECT":" ","MAREA":" ","LANE":" ","ALLEY":" ","HOUSE_NO":"８號八樓之１","E_COORD97":170388.76000000001,"N_COORD97":2540040.2799999998,"ADDRESS":"和愛街８號八樓之１","OBJECTID":646495},"geometry":{"x":170388.76000000071,"y":2540040.2799999993}},{"attributes":{"ID":646523,"DIS_CODE":0,"TOWNNAME":"仁德區","LI":"仁和里","LIN":"9鄰","STREET":"和愛街","SECT":" ","MAREA":" ","LANE":" ","ALLEY":" ","HOUSE_NO":"８號八樓之２","E_COORD97":170388.76000000001,"N_COORD97":2540040.2799999998,"ADDRESS":"和愛街８號八樓之２","OBJECTID":646496},"geometry":{"x":170388.76000000071,"y":2540040.2799999993}},{"attributes":{"ID":646524,"DIS_CODE":0,"TOWNNAME":"仁德區","LI":"仁和里","LIN":"9鄰","STREET":"和愛街","SECT":" ","MAREA":" ","LANE":" ","ALLEY":" ","HOUSE_NO":"８號八樓之３","E_COORD97":170388.76000000001,"N_COORD97":2540040.2799999998,"ADDRESS":"和愛街８號八樓之３","OBJECTID":646497},"geometry":{"x":170388.76000000071,"y":2540040.2799999993}},{"attributes":{"ID":646525,"DIS_CODE":0,"TOWNNAME":"仁德區","LI":"仁和里","LIN":"9鄰","STREET":"和愛街","SECT":" ","MAREA":" ","LANE":" ","ALLEY":" ","HOUSE_NO":"８號八樓之５","E_COORD97":170388.76000000001,"N_COORD97":2540040.2799999998,"ADDRESS":"和愛街８號八樓之５","OBJECTID":646498},"geometry":{"x":170388.76000000071,"y":2540040.2799999993}},{"attributes":{"ID":646526,"DIS_CODE":0,"TOWNNAME":"關廟區","LI":"布袋里","LIN":"9鄰","STREET":"長文街","SECT":" ","MAREA":" ","LANE":"３９９巷","ALLEY":" ","HOUSE_NO":"６５號","E_COORD97":182402.313238,"N_COORD97":2534584.4660100001,"ADDRESS":"長文街３９９巷６５號","OBJECTID":646499},"geometry":{"x":182402.31323799957,"y":2534584.4660109989}},{"attributes":{"ID":646527,"DIS_CODE":0,"TOWNNAME":"東山區","LI":"高原里","LIN":"3鄰","STREET":" ","SECT":" ","MAREA":"高原","LANE":" ","ALLEY":" ","HOUSE_NO":"１６號之５","E_COORD97":195915.23798999999,"N_COORD97":2575573.0848699999,"ADDRESS":"高原１６號之５","OBJECTID":646500},"geometry":{"x":195915.23799000122,"y":2575573.0848700013}},{"attributes":{"ID":646528,"DIS_CODE":0,"TOWNNAME":"仁德區","LI":"仁和里","LIN":"9鄰","STREET":"和愛街","SECT":" ","MAREA":" ","LANE":" ","ALLEY":" ","HOUSE_NO":"８號九樓之１","E_COORD97":170388.76000000001,"N_COORD97":2540040.2799999998,"ADDRESS":"和愛街８號九樓之１","OBJECTID":646501},"geometry":{"x":170388.76000000071,"y":2540040.2799999993}},{"attributes":{"ID":646529,"DIS_CODE":0,"TOWNNAME":"仁德區","LI":"仁和里","LIN":"9鄰","STREET":"和愛街","SECT":" ","MAREA":" ","LANE":" ","ALLEY":" ","HOUSE_NO":"８號九樓之２","E_COORD97":170388.76000000001,"N_COORD97":2540040.2799999998,"ADDRESS":"和愛街８號九樓之２","OBJECTID":646502},"geometry":{"x":170388.76000000071,"y":2540040.2799999993}},{"attributes":{"ID":646530,"DIS_CODE":0,"TOWNNAME":"仁德區","LI":"仁和里","LIN":"9鄰","STREET":"和愛街","SECT":" ","MAREA":" ","LANE":" ","ALLEY":" ","HOUSE_NO":"８號九樓之３","E_COORD97":170388.76000000001,"N_COORD97":2540040.2799999998,"ADDRESS":"和愛街８號九樓之３","OBJECTID":646503},"geometry":{"x":170388.76000000071,"y":2540040.2799999993}},{"attributes":{"ID":646531,"DIS_CODE":0,"TOWNNAME":"仁德區","LI":"仁和里","LIN":"9鄰","STREET":"和愛街","SECT":" ","MAREA":" ","LANE":" ","ALLEY":" ","HOUSE_NO":"８號九樓之５","E_COORD97":170388.76000000001,"N_COORD97":2540040.2799999998,"ADDRESS":"和愛街８號九樓之５","OBJECTID":646504},"geometry":{"x":170388.76000000071,"y":2540040.2799999993}},{"attributes":{"ID":646532,"DIS_CODE":0,"TOWNNAME":"仁德區","LI":"仁和里","LIN":"9鄰","STREET":"和愛街","SECT":" ","MAREA":" ","LANE":" ","ALLEY":" ","HOUSE_NO":"８號十樓之１","E_COORD97":170388.76000000001,"N_COORD97":2540040.2799999998,"ADDRESS":"和愛街８號十樓之１","OBJECTID":646505},"geometry":{"x":170388.76000000071,"y":2540040.2799999993}},{"attributes":{"ID":646533,"DIS_CODE":0,"TOWNNAME":"仁德區","LI":"仁和里","LIN":"9鄰","STREET":"和愛街","SECT":" ","MAREA":" ","LANE":" ","ALLEY":" ","HOUSE_NO":"８號十樓之２","E_COORD97":170388.76000000001,"N_COORD97":2540040.2799999998,"ADDRESS":"和愛街８號十樓之２","OBJECTID":646506},"geometry":{"x":170388.76000000071,"y":2540040.2799999993}},{"attributes":{"ID":646534,"DIS_CODE":0,"TOWNNAME":"仁德區","LI":"仁和里","LIN":"9鄰","STREET":"和愛街","SECT":" ","MAREA":" ","LANE":" ","ALLEY":" ","HOUSE_NO":"８號十樓之３","E_COORD97":170388.76000000001,"N_COORD97":2540040.2799999998,"ADDRESS":"和愛街８號十樓之３","OBJECTID":646507},"geometry":{"x":170388.76000000071,"y":2540040.2799999993}},{"attributes":{"ID":646535,"DIS_CODE":0,"TOWNNAME":"仁德區","LI":"仁和里","LIN":"9鄰","STREET":"和愛街","SECT":" ","MAREA":" ","LANE":" ","ALLEY":" ","HOUSE_NO":"８號十樓之５","E_COORD97":170388.76000000001,"N_COORD97":2540040.2799999998,"ADDRESS":"和愛街８號十樓之５","OBJECTID":646508},"geometry":{"x":170388.76000000071,"y":2540040.2799999993}},{"attributes":{"ID":646536,"DIS_CODE":0,"TOWNNAME":"仁德區","LI":"仁和里","LIN":"9鄰","STREET":"和愛街","SECT":" ","MAREA":" ","LANE":" ","ALLEY":" ","HOUSE_NO":"８號十一樓之１","E_COORD97":170388.76000000001,"N_COORD97":2540040.2799999998,"ADDRESS":"和愛街８號十一樓之１","OBJECTID":646509},"geometry":{"x":170388.76000000071,"y":2540040.2799999993}},{"attributes":{"ID":646537,"DIS_CODE":0,"TOWNNAME":"仁德區","LI":"仁和里","LIN":"9鄰","STREET":"和愛街","SECT":" ","MAREA":" ","LANE":" ","ALLEY":" ","HOUSE_NO":"８號十一樓之２","E_COORD97":170388.76000000001,"N_COORD97":2540040.2799999998,"ADDRESS":"和愛街８號十一樓之２","OBJECTID":646510},"geometry":{"x":170388.76000000071,"y":2540040.2799999993}},{"attributes":{"ID":646538,"DIS_CODE":0,"TOWNNAME":"仁德區","LI":"仁和里","LIN":"9鄰","STREET":"和愛街","SECT":" ","MAREA":" ","LANE":" ","ALLEY":" ","HOUSE_NO":"８號十一樓之３","E_COORD97":170388.76000000001,"N_COORD97":2540040.2799999998,"ADDRESS":"和愛街８號十一樓之３","OBJECTID":646511},"geometry":{"x":170388.76000000071,"y":2540040.2799999993}},{"attributes":{"ID":646539,"DIS_CODE":0,"TOWNNAME":"仁德區","LI":"仁和里","LIN":"9鄰","STREET":"和愛街","SECT":" ","MAREA":" ","LANE":" ","ALLEY":" ","HOUSE_NO":"８號十一樓之５","E_COORD97":170388.76000000001,"N_COORD97":2540040.2799999998,"ADDRESS":"和愛街８號十一樓之５","OBJECTID":646512},"geometry":{"x":170388.76000000071,"y":2540040.2799999993}},{"attributes":{"ID":646540,"DIS_CODE":0,"TOWNNAME":"仁德區","LI":"仁和里","LIN":"9鄰","STREET":"和愛街","SECT":" ","MAREA":" ","LANE":" ","ALLEY":" ","HOUSE_NO":"８號十二樓之１","E_COORD97":170388.76000000001,"N_COORD97":2540040.2799999998,"ADDRESS":"和愛街８號十二樓之１","OBJECTID":646513},"geometry":{"x":170388.76000000071,"y":2540040.2799999993}},{"attributes":{"ID":646541,"DIS_CODE":0,"TOWNNAME":"仁德區","LI":"仁和里","LIN":"9鄰","STREET":"和愛街","SECT":" ","MAREA":" ","LANE":" ","ALLEY":" ","HOUSE_NO":"８號十二樓之２","E_COORD97":170388.76000000001,"N_COORD97":2540040.2799999998,"ADDRESS":"和愛街８號十二樓之２","OBJECTID":646514},"geometry":{"x":170388.76000000071,"y":2540040.2799999993}},{"attributes":{"ID":646542,"DIS_CODE":0,"TOWNNAME":"仁德區","LI":"仁和里","LIN":"9鄰","STREET":"和愛街","SECT":" ","MAREA":" ","LANE":" ","ALLEY":" ","HOUSE_NO":"８號十二樓之３","E_COORD97":170388.76000000001,"N_COORD97":2540040.2799999998,"ADDRESS":"和愛街８號十二樓之３","OBJECTID":646515},"geometry":{"x":170388.76000000071,"y":2540040.2799999993}},{"attributes":{"ID":646543,"DIS_CODE":0,"TOWNNAME":"東山區","LI":"東河里","LIN":"2鄰","STREET":" ","SECT":" ","MAREA":"吉貝耍","LANE":" ","ALLEY":" ","HOUSE_NO":"１５號之５","E_COORD97":187268.28114100001,"N_COORD97":2576997.8080500001,"ADDRESS":"吉貝耍１５號之５","OBJECTID":646516},"geometry":{"x":187268.28114099987,"y":2576997.8080529999}},{"attributes":{"ID":646544,"DIS_CODE":0,"TOWNNAME":"仁德區","LI":"仁和里","LIN":"9鄰","STREET":"和愛街","SECT":" ","MAREA":" ","LANE":" ","ALLEY":" ","HOUSE_NO":"８號十二樓之５","E_COORD97":170388.76000000001,"N_COORD97":2540040.2799999998,"ADDRESS":"和愛街８號十二樓之５","OBJECTID":646517},"geometry":{"x":170388.76000000071,"y":2540040.2799999993}},{"attributes":{"ID":646545,"DIS_CODE":0,"TOWNNAME":"仁德區","LI":"仁和里","LIN":"9鄰","STREET":"和愛街","SECT":" ","MAREA":" ","LANE":" ","ALLEY":" ","HOUSE_NO":"８號十三樓之１","E_COORD97":170388.76000000001,"N_COORD97":2540040.2799999998,"ADDRESS":"和愛街８號十三樓之１","OBJECTID":646518},"geometry":{"x":170388.76000000071,"y":2540040.2799999993}},{"attributes":{"ID":646546,"DIS_CODE":0,"TOWNNAME":"仁德區","LI":"仁和里","LIN":"9鄰","STREET":"和愛街","SECT":" ","MAREA":" ","LANE":" ","ALLEY":" ","HOUSE_NO":"８號十三樓之２","E_COORD97":170388.76000000001,"N_COORD97":2540040.2799999998,"ADDRESS":"和愛街８號十三樓之２","OBJECTID":646519},"geometry":{"x":170388.76000000071,"y":2540040.2799999993}},{"attributes":{"ID":646547,"DIS_CODE":0,"TOWNNAME":"仁德區","LI":"仁和里","LIN":"9鄰","STREET":"和愛街","SECT":" ","MAREA":" ","LANE":" ","ALLEY":" ","HOUSE_NO":"８號十三樓之３","E_COORD97":170388.76000000001,"N_COORD97":2540040.2799999998,"ADDRESS":"和愛街８號十三樓之３","OBJECTID":646520},"geometry":{"x":170388.76000000071,"y":2540040.2799999993}},{"attributes":{"ID":646548,"DIS_CODE":0,"TOWNNAME":"東山區","LI":"高原里","LIN":"4鄰","STREET":" ","SECT":" ","MAREA":"高原","LANE":" ","ALLEY":" ","HOUSE_NO":"３０號之２","E_COORD97":195637.23087,"N_COORD97":2576221.8428600002,"ADDRESS":"高原３０號之２","OBJECTID":646521},"geometry":{"x":195637.23087000195,"y":2576221.8428600021}},{"attributes":{"ID":646549,"DIS_CODE":0,"TOWNNAME":"仁德區","LI":"仁和里","LIN":"9鄰","STREET":"和愛街","SECT":" ","MAREA":" ","LANE":" ","ALLEY":" ","HOUSE_NO":"８號十三樓之５","E_COORD97":170388.76000000001,"N_COORD97":2540040.2799999998,"ADDRESS":"和愛街８號十三樓之５","OBJECTID":646522},"geometry":{"x":170388.76000000071,"y":2540040.2799999993}},{"attributes":{"ID":646550,"DIS_CODE":0,"TOWNNAME":"安南區","LI":"布袋里","LIN":"4鄰","STREET":"長和路","SECT":"四段","MAREA":" ","LANE":" ","ALLEY":" ","HOUSE_NO":"５１號","E_COORD97":169108.564327,"N_COORD97":2551578.79745,"ADDRESS":"長和路四段５１號","OBJECTID":646523},"geometry":{"x":169108.56432699971,"y":2551578.7974480018}},{"attributes":{"ID":646551,"DIS_CODE":0,"TOWNNAME":"仁德區","LI":"仁和里","LIN":"9鄰","STREET":"和愛街","SECT":" ","MAREA":" ","LANE":" ","ALLEY":" ","HOUSE_NO":"８號十四樓之１","E_COORD97":170388.76000000001,"N_COORD97":2540040.2799999998,"ADDRESS":"和愛街８號十四樓之１","OBJECTID":646524},"geometry":{"x":170388.76000000071,"y":2540040.2799999993}},{"attributes":{"ID":646552,"DIS_CODE":0,"TOWNNAME":"仁德區","LI":"仁和里","LIN":"9鄰","STREET":"和愛街","SECT":" ","MAREA":" ","LANE":" ","ALLEY":" ","HOUSE_NO":"８號十四樓之２","E_COORD97":170388.76000000001,"N_COORD97":2540040.2799999998,"ADDRESS":"和愛街８號十四樓之２","OBJECTID":646525},"geometry":{"x":170388.76000000071,"y":2540040.2799999993}},{"attributes":{"ID":646553,"DIS_CODE":0,"TOWNNAME":"仁德區","LI":"仁和里","LIN":"9鄰","STREET":"和愛街","SECT":" ","MAREA":" ","LANE":" ","ALLEY":" ","HOUSE_NO":"８號十四樓之３","E_COORD97":170388.76000000001,"N_COORD97":2540040.2799999998,"ADDRESS":"和愛街８號十四樓之３","OBJECTID":646526},"geometry":{"x":170388.76000000071,"y":2540040.2799999993}},{"attributes":{"ID":646554,"DIS_CODE":0,"TOWNNAME":"仁德區","LI":"仁和里","LIN":"9鄰","STREET":"和愛街","SECT":" ","MAREA":" ","LANE":" ","ALLEY":" ","HOUSE_NO":"８號十四樓之５","E_COORD97":170388.76000000001,"N_COORD97":2540040.2799999998,"ADDRESS":"和愛街８號十四樓之５","OBJECTID":646527},"geometry":{"x":170388.76000000071,"y":2540040.2799999993}},{"attributes":{"ID":646555,"DIS_CODE":0,"TOWNNAME":"東山區","LI":"高原里","LIN":"4鄰","STREET":" ","SECT":" ","MAREA":"高原","LANE":" ","ALLEY":" ","HOUSE_NO":"３１之５號","E_COORD97":195626.00468700001,"N_COORD97":2576226.4995200001,"ADDRESS":"高原３１之５號","OBJECTID":646528},"geometry":{"x":195626.00468700007,"y":2576226.4995250013}},{"attributes":{"ID":646556,"DIS_CODE":0,"TOWNNAME":"東山區","LI":"高原里","LIN":"4鄰","STREET":" ","SECT":" ","MAREA":"高原","LANE":" ","ALLEY":" ","HOUSE_NO":"３１號之３","E_COORD97":195668.36767000001,"N_COORD97":2576190.3045399999,"ADDRESS":"高原３１號之３","OBJECTID":646529},"geometry":{"x":195668.3676699996,"y":2576190.3045400009}},{"attributes":{"ID":646557,"DIS_CODE":0,"TOWNNAME":"北區","LI":"大山里","LIN":"2鄰","STREET":"和緯路","SECT":"一段","MAREA":" ","LANE":" ","ALLEY":" ","HOUSE_NO":"８９號","E_COORD97":169483.73834499999,"N_COORD97":2545546.8331800001,"ADDRESS":"和緯路一段８９號","OBJECTID":646530},"geometry":{"x":169483.73834500089,"y":2545546.8331839982}},{"attributes":{"ID":646558,"DIS_CODE":0,"TOWNNAME":"山上區","LI":"山上里","LIN":"13鄰","STREET":" ","SECT":" ","MAREA":"山上","LANE":" ","ALLEY":" ","HOUSE_NO":"２０１號之１","E_COORD97":184037.27699400001,"N_COORD97":2555540.8669699999,"ADDRESS":"山上２０１號之１","OBJECTID":646531},"geometry":{"x":184037.27699400112,"y":2555540.8669730015}},{"attributes":{"ID":646559,"DIS_CODE":0,"TOWNNAME":"北區","LI":"大山里","LIN":"2鄰","STREET":"和緯路","SECT":"一段","MAREA":" ","LANE":" ","ALLEY":" ","HOUSE_NO":"７３號","E_COORD97":169521.446237,"N_COORD97":2545537.3081899998,"ADDRESS":"和緯路一段７３號","OBJECTID":646532},"geometry":{"x":169521.44623700157,"y":2545537.3081890009}},{"attributes":{"ID":646560,"DIS_CODE":0,"TOWNNAME":"仁德區","LI":"中洲里","LIN":"10鄰","STREET":" ","SECT":" ","MAREA":"中洲","LANE":" ","ALLEY":" ","HOUSE_NO":"３０９之１９號","E_COORD97":173515.318145,"N_COORD97":2534185.07993,"ADDRESS":"中洲３０９之１９號","OBJECTID":646533},"geometry":{"x":173515.31814500224,"y":2534185.0799290035}},{"attributes":{"ID":646561,"DIS_CODE":0,"TOWNNAME":"東山區","LI":"高原里","LIN":"5鄰","STREET":" ","SECT":" ","MAREA":"高原","LANE":" ","ALLEY":" ","HOUSE_NO":"４３號之１","E_COORD97":195823.09849,"N_COORD97":2576073.0412699999,"ADDRESS":"高原４３號之１","OBJECTID":646534},"geometry":{"x":195823.0984900007,"y":2576073.0412700009}},{"attributes":{"ID":646562,"DIS_CODE":0,"TOWNNAME":"北區","LI":"大山里","LIN":"2鄰","STREET":"和緯路","SECT":"一段","MAREA":" ","LANE":" ","ALLEY":" ","HOUSE_NO":"７５號","E_COORD97":169516.785711,"N_COORD97":2545538.5781899998,"ADDRESS":"和緯路一段７５號","OBJECTID":646535},"geometry":{"x":169516.78571099974,"y":2545538.5781880002}},{"attributes":{"ID":646563,"DIS_CODE":0,"TOWNNAME":"新營區","LI":"新南里","LIN":"17鄰","STREET":"隋唐街","SECT":" ","MAREA":" ","LANE":"１１５巷","ALLEY":" ","HOUSE_NO":"２８號","E_COORD97":178494.709152,"N_COORD97":2578510.6145299999,"ADDRESS":"隋唐街１１５巷２８號","OBJECTID":646536},"geometry":{"x":178494.70915200002,"y":2578510.6145310011}},{"attributes":{"ID":646564,"DIS_CODE":0,"TOWNNAME":"關廟區","LI":"布袋里","LIN":"9鄰","STREET":"長榮街","SECT":" ","MAREA":" ","LANE":"３３１巷","ALLEY":" ","HOUSE_NO":"９號","E_COORD97":182127.21404799999,"N_COORD97":2534338.72114,"ADDRESS":"長榮街３３１巷９號","OBJECTID":646537},"geometry":{"x":182127.21404800098,"y":2534338.7211440001}},{"attributes":{"ID":646565,"DIS_CODE":0,"TOWNNAME":"關廟區","LI":"布袋里","LIN":"9鄰","STREET":"長榮街","SECT":" ","MAREA":" ","LANE":"３３１巷","ALLEY":" ","HOUSE_NO":"１１號","E_COORD97":182133.78421300001,"N_COORD97":2534329.83115,"ADDRESS":"長榮街３３１巷１１號","OBJECTID":646538},"geometry":{"x":182133.78421300091,"y":2534329.8311490007}},{"attributes":{"ID":646566,"DIS_CODE":0,"TOWNNAME":"北區","LI":"大山里","LIN":"2鄰","STREET":"和緯路","SECT":"一段","MAREA":" ","LANE":" ","ALLEY":" ","HOUSE_NO":"８７號","E_COORD97":169487.76334500001,"N_COORD97":2545546.4098499999,"ADDRESS":"和緯路一段８７號","OBJECTID":646539},"geometry":{"x":169487.76334500033,"y":2545546.4098509997}},{"attributes":{"ID":646567,"DIS_CODE":0,"TOWNNAME":"北區","LI":"大山里","LIN":"2鄰","STREET":"和緯路","SECT":"一段","MAREA":" ","LANE":" ","ALLEY":" ","HOUSE_NO":"８５號","E_COORD97":169491.788344,"N_COORD97":2545544.9281899999,"ADDRESS":"和緯路一段８５號","OBJECTID":646540},"geometry":{"x":169491.7883440014,"y":2545544.9281850047}},{"attributes":{"ID":646568,"DIS_CODE":0,"TOWNNAME":"東山區","LI":"高原里","LIN":"7鄰","STREET":" ","SECT":" ","MAREA":"高原","LANE":" ","ALLEY":" ","HOUSE_NO":"５９號之３","E_COORD97":196910.45052000001,"N_COORD97":2575635.5265100002,"ADDRESS":"高原５９號之３","OBJECTID":646541},"geometry":{"x":196910.45052000042,"y":2575635.5265100002}},{"attributes":{"ID":646569,"DIS_CODE":0,"TOWNNAME":"關廟區","LI":"布袋里","LIN":"9鄰","STREET":"長榮街","SECT":" ","MAREA":" ","LANE":" ","ALLEY":" ","HOUSE_NO":"３１５號","E_COORD97":182214.53366700001,"N_COORD97":2534322.2111499999,"ADDRESS":"長榮街３１５號","OBJECTID":646542},"geometry":{"x":182214.53366700001,"y":2534322.2111530025}},{"attributes":{"ID":646570,"DIS_CODE":0,"TOWNNAME":"後壁區","LI":"福安里","LIN":"15鄰","STREET":" ","SECT":" ","MAREA":"下寮","LANE":" ","ALLEY":" ","HOUSE_NO":"１８６之２號","E_COORD97":183499.17378000001,"N_COORD97":2580873.8043800001,"ADDRESS":"下寮１８６之２號","OBJECTID":646543},"geometry":{"x":183499.17378000077,"y":2580873.8043770008}},{"attributes":{"ID":646571,"DIS_CODE":0,"TOWNNAME":"關廟區","LI":"布袋里","LIN":"9鄰","STREET":"長榮街","SECT":" ","MAREA":" ","LANE":" ","ALLEY":" ","HOUSE_NO":"３１７號","E_COORD97":182210.930673,"N_COORD97":2534325.17448,"ADDRESS":"長榮街３１７號","OBJECTID":646544},"geometry":{"x":182210.93067300133,"y":2534325.1744849999}},{"attributes":{"ID":646572,"DIS_CODE":0,"TOWNNAME":"安南區","LI":"四草里","LIN":"7鄰","STREET":"四草大道","SECT":" ","MAREA":" ","LANE":" ","ALLEY":" ","HOUSE_NO":"２３１號","E_COORD97":161020.57374299999,"N_COORD97":2545498.1261999998,"ADDRESS":"四草大道２３１號","OBJECTID":646545},"geometry":{"x":161020.5737429997,"y":2545498.1262040008}},{"attributes":{"ID":646573,"DIS_CODE":0,"TOWNNAME":"安南區","LI":"布袋里","LIN":"6鄰","STREET":"長和路","SECT":"四段","MAREA":" ","LANE":" ","ALLEY":" ","HOUSE_NO":"５０號","E_COORD97":169200.03300200001,"N_COORD97":2551595.9424399999,"ADDRESS":"長和路四段５０號","OBJECTID":646546},"geometry":{"x":169200.03300199937,"y":2551595.942437999}},{"attributes":{"ID":646574,"DIS_CODE":0,"TOWNNAME":"安南區","LI":"四草里","LIN":"7鄰","STREET":"四草大道","SECT":" ","MAREA":" ","LANE":" ","ALLEY":" ","HOUSE_NO":"１０１號","E_COORD97":161078.18106,"N_COORD97":2545414.0945799998,"ADDRESS":"四草大道１０１號","OBJECTID":646547},"geometry":{"x":161078.18106000125,"y":2545414.094583001}},{"attributes":{"ID":646575,"DIS_CODE":0,"TOWNNAME":"東山區","LI":"高原里","LIN":"8鄰","STREET":" ","SECT":" ","MAREA":"高原","LANE":" ","ALLEY":" ","HOUSE_NO":"６０號之１","E_COORD97":196981.09080999999,"N_COORD97":2575771.83977,"ADDRESS":"高原６０號之１","OBJECTID":646548},"geometry":{"x":196981.0908100009,"y":2575771.8397700023}},{"attributes":{"ID":646576,"DIS_CODE":0,"TOWNNAME":"仁德區","LI":"仁和里","LIN":"10鄰","STREET":"和愛街","SECT":" ","MAREA":" ","LANE":" ","ALLEY":" ","HOUSE_NO":"１０號二樓之１","E_COORD97":170390.81,"N_COORD97":2539995.3999999999,"ADDRESS":"和愛街１０號二樓之１","OBJECTID":646549},"geometry":{"x":170390.81000000145,"y":2539995.4000000022}},{"attributes":{"ID":646577,"DIS_CODE":0,"TOWNNAME":"仁德區","LI":"仁和里","LIN":"10鄰","STREET":"和愛街","SECT":" ","MAREA":" ","LANE":" ","ALLEY":" ","HOUSE_NO":"１０號二樓之２","E_COORD97":170390.81,"N_COORD97":2539995.3999999999,"ADDRESS":"和愛街１０號二樓之２","OBJECTID":646550},"geometry":{"x":170390.81000000145,"y":2539995.4000000022}},{"attributes":{"ID":646578,"DIS_CODE":0,"TOWNNAME":"仁德區","LI":"仁和里","LIN":"10鄰","STREET":"和愛街","SECT":" ","MAREA":" ","LANE":" ","ALLEY":" ","HOUSE_NO":"１０號二樓之３","E_COORD97":170390.81,"N_COORD97":2539995.3999999999,"ADDRESS":"和愛街１０號二樓之３","OBJECTID":646551},"geometry":{"x":170390.81000000145,"y":2539995.4000000022}},{"attributes":{"ID":646579,"DIS_CODE":0,"TOWNNAME":"仁德區","LI":"仁和里","LIN":"10鄰","STREET":"和愛街","SECT":" ","MAREA":" ","LANE":" ","ALLEY":" ","HOUSE_NO":"１０號二樓之５","E_COORD97":170390.81,"N_COORD97":2539995.3999999999,"ADDRESS":"和愛街１０號二樓之５","OBJECTID":646552},"geometry":{"x":170390.81000000145,"y":2539995.4000000022}},{"attributes":{"ID":646580,"DIS_CODE":0,"TOWNNAME":"仁德區","LI":"仁和里","LIN":"10鄰","STREET":"和愛街","SECT":" ","MAREA":" ","LANE":" ","ALLEY":" ","HOUSE_NO":"１０號三樓之１","E_COORD97":170390.81,"N_COORD97":2539995.3999999999,"ADDRESS":"和愛街１０號三樓之１","OBJECTID":646553},"geometry":{"x":170390.81000000145,"y":2539995.4000000022}},{"attributes":{"ID":646581,"DIS_CODE":0,"TOWNNAME":"仁德區","LI":"仁和里","LIN":"10鄰","STREET":"和愛街","SECT":" ","MAREA":" ","LANE":" ","ALLEY":" ","HOUSE_NO":"１０號三樓之２","E_COORD97":170390.81,"N_COORD97":2539995.3999999999,"ADDRESS":"和愛街１０號三樓之２","OBJECTID":646554},"geometry":{"x":170390.81000000145,"y":2539995.4000000022}},{"attributes":{"ID":646582,"DIS_CODE":0,"TOWNNAME":"仁德區","LI":"仁和里","LIN":"10鄰","STREET":"和愛街","SECT":" ","MAREA":" ","LANE":" ","ALLEY":" ","HOUSE_NO":"１０號三樓之３","E_COORD97":170390.81,"N_COORD97":2539995.3999999999,"ADDRESS":"和愛街１０號三樓之３","OBJECTID":646555},"geometry":{"x":170390.81000000145,"y":2539995.4000000022}},{"attributes":{"ID":646583,"DIS_CODE":0,"TOWNNAME":"仁德區","LI":"仁和里","LIN":"10鄰","STREET":"和愛街","SECT":" ","MAREA":" ","LANE":" ","ALLEY":" ","HOUSE_NO":"１０號三樓之５","E_COORD97":170390.81,"N_COORD97":2539995.3999999999,"ADDRESS":"和愛街１０號三樓之５","OBJECTID":646556},"geometry":{"x":170390.81000000145,"y":2539995.4000000022}},{"attributes":{"ID":646584,"DIS_CODE":0,"TOWNNAME":"仁德區","LI":"仁和里","LIN":"10鄰","STREET":"和愛街","SECT":" ","MAREA":" ","LANE":" ","ALLEY":" ","HOUSE_NO":"１０號四樓之１","E_COORD97":170390.81,"N_COORD97":2539995.3999999999,"ADDRESS":"和愛街１０號四樓之１","OBJECTID":646557},"geometry":{"x":170390.81000000145,"y":2539995.4000000022}},{"attributes":{"ID":646585,"DIS_CODE":0,"TOWNNAME":"仁德區","LI":"仁和里","LIN":"10鄰","STREET":"和愛街","SECT":" ","MAREA":" ","LANE":" ","ALLEY":" ","HOUSE_NO":"１０號四樓之２","E_COORD97":170390.81,"N_COORD97":2539995.3999999999,"ADDRESS":"和愛街１０號四樓之２","OBJECTID":646558},"geometry":{"x":170390.81000000145,"y":2539995.4000000022}},{"attributes":{"ID":646586,"DIS_CODE":0,"TOWNNAME":"仁德區","LI":"仁和里","LIN":"10鄰","STREET":"和愛街","SECT":" ","MAREA":" ","LANE":" ","ALLEY":" ","HOUSE_NO":"１０號四樓之３","E_COORD97":170390.81,"N_COORD97":2539995.3999999999,"ADDRESS":"和愛街１０號四樓之３","OBJECTID":646559},"geometry":{"x":170390.81000000145,"y":2539995.4000000022}},{"attributes":{"ID":646587,"DIS_CODE":0,"TOWNNAME":"東山區","LI":"高原里","LIN":"10鄰","STREET":" ","SECT":" ","MAREA":"高原","LANE":" ","ALLEY":" ","HOUSE_NO":"７９號之１","E_COORD97":198715.74932,"N_COORD97":2576726.24425,"ADDRESS":"高原７９號之１","OBJECTID":646560},"geometry":{"x":198715.74932000041,"y":2576726.2442500014}},{"attributes":{"ID":646588,"DIS_CODE":0,"TOWNNAME":"仁德區","LI":"仁和里","LIN":"10鄰","STREET":"和愛街","SECT":" ","MAREA":" ","LANE":" ","ALLEY":" ","HOUSE_NO":"１０號四樓之５","E_COORD97":170390.81,"N_COORD97":2539995.3999999999,"ADDRESS":"和愛街１０號四樓之５","OBJECTID":646561},"geometry":{"x":170390.81000000145,"y":2539995.4000000022}},{"attributes":{"ID":646589,"DIS_CODE":0,"TOWNNAME":"仁德區","LI":"仁和里","LIN":"10鄰","STREET":"和愛街","SECT":" ","MAREA":" ","LANE":" ","ALLEY":" ","HOUSE_NO":"１０號五樓之１","E_COORD97":170390.81,"N_COORD97":2539995.3999999999,"ADDRESS":"和愛街１０號五樓之１","OBJECTID":646562},"geometry":{"x":170390.81000000145,"y":2539995.4000000022}},{"attributes":{"ID":646590,"DIS_CODE":0,"TOWNNAME":"仁德區","LI":"仁和里","LIN":"10鄰","STREET":"和愛街","SECT":" ","MAREA":" ","LANE":" ","ALLEY":" ","HOUSE_NO":"１０號五樓之２","E_COORD97":170390.81,"N_COORD97":2539995.3999999999,"ADDRESS":"和愛街１０號五樓之２","OBJECTID":646563},"geometry":{"x":170390.81000000145,"y":2539995.4000000022}},{"attributes":{"ID":646591,"DIS_CODE":0,"TOWNNAME":"仁德區","LI":"仁和里","LIN":"10鄰","STREET":"和愛街","SECT":" ","MAREA":" ","LANE":" ","ALLEY":" ","HOUSE_NO":"１０號五樓之３","E_COORD97":170390.81,"N_COORD97":2539995.3999999999,"ADDRESS":"和愛街１０號五樓之３","OBJECTID":646564},"geometry":{"x":170390.81000000145,"y":2539995.4000000022}},{"attributes":{"ID":646592,"DIS_CODE":0,"TOWNNAME":"仁德區","LI":"仁和里","LIN":"10鄰","STREET":"和愛街","SECT":" ","MAREA":" ","LANE":" ","ALLEY":" ","HOUSE_NO":"１０號五樓之５","E_COORD97":170390.81,"N_COORD97":2539995.3999999999,"ADDRESS":"和愛街１０號五樓之５","OBJECTID":646565},"geometry":{"x":170390.81000000145,"y":2539995.4000000022}},{"attributes":{"ID":646593,"DIS_CODE":0,"TOWNNAME":"仁德區","LI":"仁和里","LIN":"10鄰","STREET":"和愛街","SECT":" ","MAREA":" ","LANE":" ","ALLEY":" ","HOUSE_NO":"１０號六樓之１","E_COORD97":170390.81,"N_COORD97":2539995.3999999999,"ADDRESS":"和愛街１０號六樓之１","OBJECTID":646566},"geometry":{"x":170390.81000000145,"y":2539995.4000000022}},{"attributes":{"ID":646594,"DIS_CODE":0,"TOWNNAME":"安南區","LI":"布袋里","LIN":"6鄰","STREET":"長和路","SECT":"四段","MAREA":" ","LANE":"１２０巷","ALLEY":" ","HOUSE_NO":"７１號","E_COORD97":169171.87250699999,"N_COORD97":2551938.6305900002,"ADDRESS":"長和路四段１２０巷７１號","OBJECTID":646567},"geometry":{"x":169171.87250700127,"y":2551938.6305870023}},{"attributes":{"ID":646595,"DIS_CODE":0,"TOWNNAME":"仁德區","LI":"仁和里","LIN":"10鄰","STREET":"和愛街","SECT":" ","MAREA":" ","LANE":" ","ALLEY":" ","HOUSE_NO":"１０號六樓之２","E_COORD97":170390.81,"N_COORD97":2539995.3999999999,"ADDRESS":"和愛街１０號六樓之２","OBJECTID":646568},"geometry":{"x":170390.81000000145,"y":2539995.4000000022}},{"attributes":{"ID":646596,"DIS_CODE":0,"TOWNNAME":"仁德區","LI":"仁和里","LIN":"10鄰","STREET":"和愛街","SECT":" ","MAREA":" ","LANE":" ","ALLEY":" ","HOUSE_NO":"１０號六樓之３","E_COORD97":170390.81,"N_COORD97":2539995.3999999999,"ADDRESS":"和愛街１０號六樓之３","OBJECTID":646569},"geometry":{"x":170390.81000000145,"y":2539995.4000000022}},{"attributes":{"ID":646597,"DIS_CODE":0,"TOWNNAME":"仁德區","LI":"仁和里","LIN":"10鄰","STREET":"和愛街","SECT":" ","MAREA":" ","LANE":" ","ALLEY":" ","HOUSE_NO":"１０號六樓之５","E_COORD97":170390.81,"N_COORD97":2539995.3999999999,"ADDRESS":"和愛街１０號六樓之５","OBJECTID":646570},"geometry":{"x":170390.81000000145,"y":2539995.4000000022}},{"attributes":{"ID":646598,"DIS_CODE":0,"TOWNNAME":"關廟區","LI":"龜洞里","LIN":"7鄰","STREET":"南雄南路","SECT":" ","MAREA":" ","LANE":" ","ALLEY":" ","HOUSE_NO":"７８９號","E_COORD97":183075.52346,"N_COORD97":2533291.5561299999,"ADDRESS":"南雄南路７８９號","OBJECTID":646571},"geometry":{"x":183075.52345999982,"y":2533291.5561300013}},{"attributes":{"ID":646599,"DIS_CODE":0,"TOWNNAME":"後壁區","LI":"福安里","LIN":"15鄰","STREET":" ","SECT":" ","MAREA":"下寮","LANE":" ","ALLEY":" ","HOUSE_NO":"１８６之１號","E_COORD97":183501.562554,"N_COORD97":2580867.7931499998,"ADDRESS":"下寮１８６之１號","OBJECTID":646572},"geometry":{"x":183501.56255400088,"y":2580867.7931539994}},{"attributes":{"ID":646600,"DIS_CODE":0,"TOWNNAME":"仁德區","LI":"仁和里","LIN":"10鄰","STREET":"和愛街","SECT":" ","MAREA":" ","LANE":" ","ALLEY":" ","HOUSE_NO":"１０號七樓之２","E_COORD97":170390.81,"N_COORD97":2539995.3999999999,"ADDRESS":"和愛街１０號七樓之２","OBJECTID":646573},"geometry":{"x":170390.81000000145,"y":2539995.4000000022}},{"attributes":{"ID":646601,"DIS_CODE":0,"TOWNNAME":"仁德區","LI":"仁和里","LIN":"10鄰","STREET":"和愛街","SECT":" ","MAREA":" ","LANE":" ","ALLEY":" ","HOUSE_NO":"１０號七樓之３","E_COORD97":170390.81,"N_COORD97":2539995.3999999999,"ADDRESS":"和愛街１０號七樓之３","OBJECTID":646574},"geometry":{"x":170390.81000000145,"y":2539995.4000000022}},{"attributes":{"ID":646602,"DIS_CODE":0,"TOWNNAME":"安南區","LI":"布袋里","LIN":"6鄰","STREET":"長和路","SECT":"四段","MAREA":" ","LANE":"１２０巷","ALLEY":" ","HOUSE_NO":"６０號","E_COORD97":169147.73493999999,"N_COORD97":2551870.0506199999,"ADDRESS":"長和路四段１２０巷６０號","OBJECTID":646575},"geometry":{"x":169147.73494000081,"y":2551870.0506239999}},{"attributes":{"ID":646603,"DIS_CODE":0,"TOWNNAME":"仁德區","LI":"仁和里","LIN":"10鄰","STREET":"和愛街","SECT":" ","MAREA":" ","LANE":" ","ALLEY":" ","HOUSE_NO":"１０號七樓之５","E_COORD97":170390.81,"N_COORD97":2539995.3999999999,"ADDRESS":"和愛街１０號七樓之５","OBJECTID":646576},"geometry":{"x":170390.81000000145,"y":2539995.4000000022}},{"attributes":{"ID":646604,"DIS_CODE":0,"TOWNNAME":"關廟區","LI":"龜洞里","LIN":"7鄰","STREET":"南雄南路","SECT":" ","MAREA":" ","LANE":"７８１巷","ALLEY":"１６弄","HOUSE_NO":"５號","E_COORD97":183165.46323699999,"N_COORD97":2533220.91243,"ADDRESS":"南雄南路７８１巷１６弄５號","OBJECTID":646577},"geometry":{"x":183165.46323699877,"y":2533220.9124250002}},{"attributes":{"ID":646605,"DIS_CODE":0,"TOWNNAME":"東山區","LI":"高原里","LIN":"1鄰","STREET":" ","SECT":" ","MAREA":"高原","LANE":" ","ALLEY":" ","HOUSE_NO":"７號","E_COORD97":195743.350168,"N_COORD97":2575608.4331899998,"ADDRESS":"高原７號","OBJECTID":646578},"geometry":{"x":195743.35016800184,"y":2575608.4331920017}},{"attributes":{"ID":646606,"DIS_CODE":0,"TOWNNAME":"仁德區","LI":"仁和里","LIN":"10鄰","STREET":"和愛街","SECT":" ","MAREA":" ","LANE":" ","ALLEY":" ","HOUSE_NO":"１０號八樓之１","E_COORD97":170390.81,"N_COORD97":2539995.3999999999,"ADDRESS":"和愛街１０號八樓之１","OBJECTID":646579},"geometry":{"x":170390.81000000145,"y":2539995.4000000022}},{"attributes":{"ID":646607,"DIS_CODE":0,"TOWNNAME":"仁德區","LI":"仁和里","LIN":"10鄰","STREET":"和愛街","SECT":" ","MAREA":" ","LANE":" ","ALLEY":" ","HOUSE_NO":"１０號八樓之２","E_COORD97":170390.81,"N_COORD97":2539995.3999999999,"ADDRESS":"和愛街１０號八樓之２","OBJECTID":646580},"geometry":{"x":170390.81000000145,"y":2539995.4000000022}},{"attributes":{"ID":646608,"DIS_CODE":0,"TOWNNAME":"仁德區","LI":"仁和里","LIN":"10鄰","STREET":"和愛街","SECT":" ","MAREA":" ","LANE":" ","ALLEY":" ","HOUSE_NO":"１０號八樓之３","E_COORD97":170390.81,"N_COORD97":2539995.3999999999,"ADDRESS":"和愛街１０號八樓之３","OBJECTID":646581},"geometry":{"x":170390.81000000145,"y":2539995.4000000022}},{"attributes":{"ID":646609,"DIS_CODE":0,"TOWNNAME":"仁德區","LI":"仁和里","LIN":"10鄰","STREET":"和愛街","SECT":" ","MAREA":" ","LANE":" ","ALLEY":" ","HOUSE_NO":"１０號八樓之５","E_COORD97":170390.81,"N_COORD97":2539995.3999999999,"ADDRESS":"和愛街１０號八樓之５","OBJECTID":646582},"geometry":{"x":170390.81000000145,"y":2539995.4000000022}},{"attributes":{"ID":646610,"DIS_CODE":0,"TOWNNAME":"東山區","LI":"東河里","LIN":"2鄰","STREET":" ","SECT":" ","MAREA":"吉貝耍","LANE":" ","ALLEY":" ","HOUSE_NO":"１５號之７","E_COORD97":187292.05226999999,"N_COORD97":2577043.1913399999,"ADDRESS":"吉貝耍１５號之７","OBJECTID":646583},"geometry":{"x":187292.05226999987,"y":2577043.1913399994}},{"attributes":{"ID":646611,"DIS_CODE":0,"TOWNNAME":"仁德區","LI":"仁和里","LIN":"10鄰","STREET":"和愛街","SECT":" ","MAREA":" ","LANE":" ","ALLEY":" ","HOUSE_NO":"１０號九樓之１","E_COORD97":170390.81,"N_COORD97":2539995.3999999999,"ADDRESS":"和愛街１０號九樓之１","OBJECTID":646584},"geometry":{"x":170390.81000000145,"y":2539995.4000000022}},{"attributes":{"ID":646612,"DIS_CODE":0,"TOWNNAME":"仁德區","LI":"仁和里","LIN":"10鄰","STREET":"和愛街","SECT":" ","MAREA":" ","LANE":" ","ALLEY":" ","HOUSE_NO":"１０號九樓之２","E_COORD97":170390.81,"N_COORD97":2539995.3999999999,"ADDRESS":"和愛街１０號九樓之２","OBJECTID":646585},"geometry":{"x":170390.81000000145,"y":2539995.4000000022}},{"attributes":{"ID":646613,"DIS_CODE":0,"TOWNNAME":"仁德區","LI":"仁和里","LIN":"10鄰","STREET":"和愛街","SECT":" ","MAREA":" ","LANE":" ","ALLEY":" ","HOUSE_NO":"１０號九樓之３","E_COORD97":170390.81,"N_COORD97":2539995.3999999999,"ADDRESS":"和愛街１０號九樓之３","OBJECTID":646586},"geometry":{"x":170390.81000000145,"y":2539995.4000000022}},{"attributes":{"ID":646614,"DIS_CODE":0,"TOWNNAME":"仁德區","LI":"仁和里","LIN":"10鄰","STREET":"和愛街","SECT":" ","MAREA":" ","LANE":" ","ALLEY":" ","HOUSE_NO":"１０號九樓之５","E_COORD97":170390.81,"N_COORD97":2539995.3999999999,"ADDRESS":"和愛街１０號九樓之５","OBJECTID":646587},"geometry":{"x":170390.81000000145,"y":2539995.4000000022}},{"attributes":{"ID":646615,"DIS_CODE":0,"TOWNNAME":"仁德區","LI":"仁和里","LIN":"10鄰","STREET":"和愛街","SECT":" ","MAREA":" ","LANE":" ","ALLEY":" ","HOUSE_NO":"１０號十樓之１","E_COORD97":170390.81,"N_COORD97":2539995.3999999999,"ADDRESS":"和愛街１０號十樓之１","OBJECTID":646588},"geometry":{"x":170390.81000000145,"y":2539995.4000000022}},{"attributes":{"ID":646616,"DIS_CODE":0,"TOWNNAME":"仁德區","LI":"仁和里","LIN":"10鄰","STREET":"和愛街","SECT":" ","MAREA":" ","LANE":" ","ALLEY":" ","HOUSE_NO":"１０號十樓之２","E_COORD97":170390.81,"N_COORD97":2539995.3999999999,"ADDRESS":"和愛街１０號十樓之２","OBJECTID":646589},"geometry":{"x":170390.81000000145,"y":2539995.4000000022}},{"attributes":{"ID":646617,"DIS_CODE":0,"TOWNNAME":"仁德區","LI":"仁和里","LIN":"10鄰","STREET":"和愛街","SECT":" ","MAREA":" ","LANE":" ","ALLEY":" ","HOUSE_NO":"１０號十樓之３","E_COORD97":170390.81,"N_COORD97":2539995.3999999999,"ADDRESS":"和愛街１０號十樓之３","OBJECTID":646590},"geometry":{"x":170390.81000000145,"y":2539995.4000000022}},{"attributes":{"ID":646618,"DIS_CODE":0,"TOWNNAME":"仁德區","LI":"仁和里","LIN":"10鄰","STREET":"和愛街","SECT":" ","MAREA":" ","LANE":" ","ALLEY":" ","HOUSE_NO":"１０號十樓之５","E_COORD97":170390.81,"N_COORD97":2539995.3999999999,"ADDRESS":"和愛街１０號十樓之５","OBJECTID":646591},"geometry":{"x":170390.81000000145,"y":2539995.4000000022}},{"attributes":{"ID":646619,"DIS_CODE":0,"TOWNNAME":"仁德區","LI":"仁和里","LIN":"10鄰","STREET":"和愛街","SECT":" ","MAREA":" ","LANE":" ","ALLEY":" ","HOUSE_NO":"１０號十一樓之１","E_COORD97":170390.81,"N_COORD97":2539995.3999999999,"ADDRESS":"和愛街１０號十一樓之１","OBJECTID":646592},"geometry":{"x":170390.81000000145,"y":2539995.4000000022}},{"attributes":{"ID":646620,"DIS_CODE":0,"TOWNNAME":"仁德區","LI":"仁和里","LIN":"10鄰","STREET":"和愛街","SECT":" ","MAREA":" ","LANE":" ","ALLEY":" ","HOUSE_NO":"１０號十一樓之２","E_COORD97":170390.81,"N_COORD97":2539995.3999999999,"ADDRESS":"和愛街１０號十一樓之２","OBJECTID":646593},"geometry":{"x":170390.81000000145,"y":2539995.4000000022}},{"attributes":{"ID":646621,"DIS_CODE":0,"TOWNNAME":"仁德區","LI":"仁和里","LIN":"10鄰","STREET":"和愛街","SECT":" ","MAREA":" ","LANE":" ","ALLEY":" ","HOUSE_NO":"１０號十一樓之３","E_COORD97":170390.81,"N_COORD97":2539995.3999999999,"ADDRESS":"和愛街１０號十一樓之３","OBJECTID":646594},"geometry":{"x":170390.81000000145,"y":2539995.4000000022}},{"attributes":{"ID":646622,"DIS_CODE":0,"TOWNNAME":"仁德區","LI":"仁和里","LIN":"10鄰","STREET":"和愛街","SECT":" ","MAREA":" ","LANE":" ","ALLEY":" ","HOUSE_NO":"１０號十一樓之５","E_COORD97":170390.81,"N_COORD97":2539995.3999999999,"ADDRESS":"和愛街１０號十一樓之５","OBJECTID":646595},"geometry":{"x":170390.81000000145,"y":2539995.4000000022}},{"attributes":{"ID":646623,"DIS_CODE":0,"TOWNNAME":"仁德區","LI":"仁和里","LIN":"10鄰","STREET":"和愛街","SECT":" ","MAREA":" ","LANE":" ","ALLEY":" ","HOUSE_NO":"１０號十二樓之１","E_COORD97":170390.81,"N_COORD97":2539995.3999999999,"ADDRESS":"和愛街１０號十二樓之１","OBJECTID":646596},"geometry":{"x":170390.81000000145,"y":2539995.4000000022}},{"attributes":{"ID":646624,"DIS_CODE":0,"TOWNNAME":"仁德區","LI":"仁和里","LIN":"10鄰","STREET":"和愛街","SECT":" ","MAREA":" ","LANE":" ","ALLEY":" ","HOUSE_NO":"１０號十二樓之２","E_COORD97":170390.81,"N_COORD97":2539995.3999999999,"ADDRESS":"和愛街１０號十二樓之２","OBJECTID":646597},"geometry":{"x":170390.81000000145,"y":2539995.4000000022}},{"attributes":{"ID":646625,"DIS_CODE":0,"TOWNNAME":"仁德區","LI":"仁和里","LIN":"10鄰","STREET":"和愛街","SECT":" ","MAREA":" ","LANE":" ","ALLEY":" ","HOUSE_NO":"１０號十二樓之３","E_COORD97":170390.81,"N_COORD97":2539995.3999999999,"ADDRESS":"和愛街１０號十二樓之３","OBJECTID":646598},"geometry":{"x":170390.81000000145,"y":2539995.4000000022}},{"attributes":{"ID":646626,"DIS_CODE":0,"TOWNNAME":"仁德區","LI":"仁和里","LIN":"10鄰","STREET":"和愛街","SECT":" ","MAREA":" ","LANE":" ","ALLEY":" ","HOUSE_NO":"１０號十二樓之５","E_COORD97":170390.81,"N_COORD97":2539995.3999999999,"ADDRESS":"和愛街１０號十二樓之５","OBJECTID":646599},"geometry":{"x":170390.81000000145,"y":2539995.4000000022}},{"attributes":{"ID":646627,"DIS_CODE":0,"TOWNNAME":"仁德區","LI":"仁和里","LIN":"10鄰","STREET":"和愛街","SECT":" ","MAREA":" ","LANE":" ","ALLEY":" ","HOUSE_NO":"１０號十三樓之１","E_COORD97":170390.81,"N_COORD97":2539995.3999999999,"ADDRESS":"和愛街１０號十三樓之１","OBJECTID":646600},"geometry":{"x":170390.81000000145,"y":2539995.4000000022}}]}