{"displayFieldName":"TOWNNAME","fieldAliases":{"ID":"ID","DIS_CODE":"DIS_CODE","TOWNNAME":"TOWNNAME","LI":"LI","LIN":"LIN","STREET":"STREET","SECT":"SECT","MAREA":"MAREA","LANE":"LANE","ALLEY":"ALLEY","HOUSE_NO":"HOUSE_NO","E_COORD97":"E_COORD97","N_COORD97":"N_COORD97","ADDRESS":"ADDRESS","OBJECTID":"OBJECTID"},"geometryType":"esriGeometryPoint","spatialReference":{"wkid":102443,"latestWkid":3826},"fields":[{"name":"ID","type":"esriFieldTypeDouble","alias":"ID"},{"name":"DIS_CODE","type":"esriFieldTypeInteger","alias":"DIS_CODE"},{"name":"TOWNNAME","type":"esriFieldTypeString","alias":"TOWNNAME","length":8},{"name":"LI","type":"esriFieldTypeString","alias":"LI","length":8},{"name":"LIN","type":"esriFieldTypeString","alias":"LIN","length":12},{"name":"STREET","type":"esriFieldTypeString","alias":"STREET","length":20},{"name":"SECT","type":"esriFieldTypeString","alias":"SECT","length":8},{"name":"MAREA","type":"esriFieldTypeString","alias":"MAREA","length":12},{"name":"LANE","type":"esriFieldTypeString","alias":"LANE","length":10},{"name":"ALLEY","type":"esriFieldTypeString","alias":"ALLEY","length":10},{"name":"HOUSE_NO","type":"esriFieldTypeString","alias":"HOUSE_NO","length":20},{"name":"E_COORD97","type":"esriFieldTypeDouble","alias":"E_COORD97"},{"name":"N_COORD97","type":"esriFieldTypeDouble","alias":"N_COORD97"},{"name":"ADDRESS","type":"esriFieldTypeString","alias":"ADDRESS","length":50},{"name":"OBJECTID","type":"esriFieldTypeOID","alias":"OBJECTID"}],"features":[{"attributes":{"ID":615228,"DIS_CODE":0,"TOWNNAME":"關廟區","LI":"龜洞里","LIN":"2鄰","STREET":"中崙街","SECT":" ","MAREA":" ","LANE":" ","ALLEY":" ","HOUSE_NO":"９８號","E_COORD97":183329.34,"N_COORD97":2533731.25,"ADDRESS":"中崙街９８號","OBJECTID":615201},"geometry":{"x":183329.34000000078,"y":2533731.25}},{"attributes":{"ID":615229,"DIS_CODE":0,"TOWNNAME":"關廟區","LI":"龜洞里","LIN":"2鄰","STREET":"南雄南路","SECT":" ","MAREA":" ","LANE":" ","ALLEY":" ","HOUSE_NO":"６００號","E_COORD97":183405.73999999999,"N_COORD97":2533754.25,"ADDRESS":"南雄南路６００號","OBJECTID":615202},"geometry":{"x":183405.74000000022,"y":2533754.2500000019}},{"attributes":{"ID":615230,"DIS_CODE":0,"TOWNNAME":"關廟區","LI":"龜洞里","LIN":"2鄰","STREET":"長榮街","SECT":" ","MAREA":" ","LANE":" ","ALLEY":" ","HOUSE_NO":"８６號","E_COORD97":183198.84,"N_COORD97":2533852.25,"ADDRESS":"長榮街８６號","OBJECTID":615203},"geometry":{"x":183198.84000000078,"y":2533852.2500000019}},{"attributes":{"ID":615231,"DIS_CODE":0,"TOWNNAME":"關廟區","LI":"關廟里","LIN":"2鄰","STREET":"中山路","SECT":"二段","MAREA":" ","LANE":" ","ALLEY":" ","HOUSE_NO":"１２８號","E_COORD97":180925.95999999999,"N_COORD97":2540040.2799999998,"ADDRESS":"中山路二段１２８號","OBJECTID":615204},"geometry":{"x":180925.96000000089,"y":2540040.2799999993}},{"attributes":{"ID":615232,"DIS_CODE":0,"TOWNNAME":"關廟區","LI":"香洋里","LIN":"2鄰","STREET":"中正路","SECT":" ","MAREA":" ","LANE":" ","ALLEY":" ","HOUSE_NO":"９６０號","E_COORD97":181126.56,"N_COORD97":2540307.25,"ADDRESS":"中正路９６０號","OBJECTID":615205},"geometry":{"x":181126.56000000052,"y":2540307.2500000019}},{"attributes":{"ID":615233,"DIS_CODE":0,"TOWNNAME":"關廟區","LI":"布袋里","LIN":"2鄰","STREET":"長裕街","SECT":" ","MAREA":" ","LANE":" ","ALLEY":" ","HOUSE_NO":"８６號","E_COORD97":182502.09,"N_COORD97":2535969.2999999998,"ADDRESS":"長裕街８６號","OBJECTID":615206},"geometry":{"x":182502.09000000078,"y":2535969.3000000007}},{"attributes":{"ID":615234,"DIS_CODE":0,"TOWNNAME":"關廟區","LI":"龜洞里","LIN":"2鄰","STREET":"長榮街","SECT":" ","MAREA":" ","LANE":" ","ALLEY":" ","HOUSE_NO":"１１７號","E_COORD97":183114.14000000001,"N_COORD97":2533872.2999999998,"ADDRESS":"長榮街１１７號","OBJECTID":615207},"geometry":{"x":183114.13999999966,"y":2533872.3000000045}},{"attributes":{"ID":615235,"DIS_CODE":0,"TOWNNAME":"關廟區","LI":"田中里","LIN":"2鄰","STREET":"田大路","SECT":" ","MAREA":" ","LANE":" ","ALLEY":" ","HOUSE_NO":"１２５號","E_COORD97":184381.73999999999,"N_COORD97":2533776.25,"ADDRESS":"田大路１２５號","OBJECTID":615208},"geometry":{"x":184381.74000000022,"y":2533776.25}},{"attributes":{"ID":615236,"DIS_CODE":0,"TOWNNAME":"關廟區","LI":"東勢里","LIN":"2鄰","STREET":"東興路","SECT":" ","MAREA":" ","LANE":" ","ALLEY":" ","HOUSE_NO":"１５９號","E_COORD97":181582.26999999999,"N_COORD97":2539571.25,"ADDRESS":"東興路１５９號","OBJECTID":615209},"geometry":{"x":181582.26999999955,"y":2539571.2500000037}},{"attributes":{"ID":615237,"DIS_CODE":0,"TOWNNAME":"關廟區","LI":"北花里","LIN":"2鄰","STREET":"四維街","SECT":" ","MAREA":" ","LANE":" ","ALLEY":" ","HOUSE_NO":"４３０號","E_COORD97":181894.26000000001,"N_COORD97":2540444.25,"ADDRESS":"四維街４３０號","OBJECTID":615210},"geometry":{"x":181894.25999999978,"y":2540444.25}},{"attributes":{"ID":615238,"DIS_CODE":0,"TOWNNAME":"關廟區","LI":"北花里","LIN":"2鄰","STREET":"四維街","SECT":" ","MAREA":" ","LANE":" ","ALLEY":" ","HOUSE_NO":"３２９號","E_COORD97":181881.95999999999,"N_COORD97":2540448.2400000002,"ADDRESS":"四維街３２９號","OBJECTID":615211},"geometry":{"x":181881.96000000183,"y":2540448.2400000002}},{"attributes":{"ID":615239,"DIS_CODE":0,"TOWNNAME":"關廟區","LI":"北花里","LIN":"2鄰","STREET":"花園三街","SECT":" ","MAREA":" ","LANE":" ","ALLEY":" ","HOUSE_NO":"５１號","E_COORD97":181920.44,"N_COORD97":2540455.25,"ADDRESS":"花園三街５１號","OBJECTID":615212},"geometry":{"x":181920.44000000134,"y":2540455.25}},{"attributes":{"ID":615240,"DIS_CODE":0,"TOWNNAME":"中西區","LI":"西賢里","LIN":"2鄰","STREET":"湖美街","SECT":" ","MAREA":" ","LANE":" ","ALLEY":" ","HOUSE_NO":"６７之２號","E_COORD97":165881.01999999999,"N_COORD97":2544594.98,"ADDRESS":"湖美街６７之２號","OBJECTID":615213},"geometry":{"x":165881.01999999955,"y":2544594.9800000023}},{"attributes":{"ID":615241,"DIS_CODE":0,"TOWNNAME":"中西區","LI":"西賢里","LIN":"2鄰","STREET":"湖美街","SECT":" ","MAREA":" ","LANE":" ","ALLEY":" ","HOUSE_NO":"６７之３號","E_COORD97":165877.20999999999,"N_COORD97":2544595.4900000002,"ADDRESS":"湖美街６７之３號","OBJECTID":615214},"geometry":{"x":165877.20999999996,"y":2544595.4900000021}},{"attributes":{"ID":615242,"DIS_CODE":0,"TOWNNAME":"關廟區","LI":"東勢里","LIN":"2鄰","STREET":"東興路","SECT":" ","MAREA":" ","LANE":" ","ALLEY":" ","HOUSE_NO":"１４７號","E_COORD97":181555.37,"N_COORD97":2539571.25,"ADDRESS":"東興路１４７號","OBJECTID":615215},"geometry":{"x":181555.36999999918,"y":2539571.2500000037}},{"attributes":{"ID":615243,"DIS_CODE":0,"TOWNNAME":"關廟區","LI":"北花里","LIN":"2鄰","STREET":"中正路","SECT":" ","MAREA":" ","LANE":" ","ALLEY":" ","HOUSE_NO":"６２０號","E_COORD97":181905.35999999999,"N_COORD97":2540412.25,"ADDRESS":"中正路６２０號","OBJECTID":615216},"geometry":{"x":181905.36000000127,"y":2540412.2500000019}},{"attributes":{"ID":615244,"DIS_CODE":0,"TOWNNAME":"關廟區","LI":"北花里","LIN":"2鄰","STREET":"中正路","SECT":" ","MAREA":" ","LANE":" ","ALLEY":" ","HOUSE_NO":"５９６號","E_COORD97":181956.06,"N_COORD97":2540406.25,"ADDRESS":"中正路５９６號","OBJECTID":615217},"geometry":{"x":181956.06000000052,"y":2540406.2500000019}},{"attributes":{"ID":615245,"DIS_CODE":0,"TOWNNAME":"關廟區","LI":"北花里","LIN":"2鄰","STREET":"中正路","SECT":" ","MAREA":" ","LANE":" ","ALLEY":" ","HOUSE_NO":"６０６號","E_COORD97":181935.35999999999,"N_COORD97":2540408.25,"ADDRESS":"中正路６０６號","OBJECTID":615218},"geometry":{"x":181935.3599999994,"y":2540408.2499999981}},{"attributes":{"ID":615246,"DIS_CODE":0,"TOWNNAME":"關廟區","LI":"北花里","LIN":"2鄰","STREET":"中正路","SECT":" ","MAREA":" ","LANE":" ","ALLEY":" ","HOUSE_NO":"６１０號","E_COORD97":181926.45999999999,"N_COORD97":2540410.25,"ADDRESS":"中正路６１０號","OBJECTID":615219},"geometry":{"x":181926.46000000089,"y":2540410.25}},{"attributes":{"ID":615247,"DIS_CODE":0,"TOWNNAME":"關廟區","LI":"田中里","LIN":"2鄰","STREET":"田大路","SECT":" ","MAREA":" ","LANE":" ","ALLEY":" ","HOUSE_NO":"１４８號","E_COORD97":184372.54000000001,"N_COORD97":2533757.25,"ADDRESS":"田大路１４８號","OBJECTID":615220},"geometry":{"x":184372.54000000004,"y":2533757.2500000019}},{"attributes":{"ID":615248,"DIS_CODE":0,"TOWNNAME":"北區","LI":"三德里","LIN":"2鄰","STREET":"忠義路","SECT":"三段","MAREA":" ","LANE":" ","ALLEY":" ","HOUSE_NO":"７９號","E_COORD97":168563.19,"N_COORD97":2544557.7000000002,"ADDRESS":"忠義路三段７９號","OBJECTID":615221},"geometry":{"x":168563.19000000041,"y":2544557.700000003}},{"attributes":{"ID":615249,"DIS_CODE":0,"TOWNNAME":"北區","LI":"三德里","LIN":"2鄰","STREET":"忠義路","SECT":"三段","MAREA":" ","LANE":" ","ALLEY":" ","HOUSE_NO":"８１號","E_COORD97":168566.95000000001,"N_COORD97":2544567.8500000001,"ADDRESS":"忠義路三段８１號","OBJECTID":615222},"geometry":{"x":168566.95000000112,"y":2544567.8500000015}},{"attributes":{"ID":615250,"DIS_CODE":0,"TOWNNAME":"北區","LI":"三德里","LIN":"2鄰","STREET":"北華街","SECT":" ","MAREA":" ","LANE":" ","ALLEY":" ","HOUSE_NO":"２５３號","E_COORD97":168535.75,"N_COORD97":2544601.2799999998,"ADDRESS":"北華街２５３號","OBJECTID":615223},"geometry":{"x":168535.75000000093,"y":2544601.2800000031}},{"attributes":{"ID":615251,"DIS_CODE":0,"TOWNNAME":"北區","LI":"三德里","LIN":"2鄰","STREET":"北華街","SECT":" ","MAREA":" ","LANE":" ","ALLEY":" ","HOUSE_NO":"２５３號之１","E_COORD97":168531.01999999999,"N_COORD97":2544599.8900000001,"ADDRESS":"北華街２５３號之１","OBJECTID":615224},"geometry":{"x":168531.01999999955,"y":2544599.8900000025}},{"attributes":{"ID":615252,"DIS_CODE":0,"TOWNNAME":"北區","LI":"三德里","LIN":"2鄰","STREET":"北華街","SECT":" ","MAREA":" ","LANE":" ","ALLEY":" ","HOUSE_NO":"２５５號","E_COORD97":168525.17000000001,"N_COORD97":2544599.48,"ADDRESS":"北華街２５５號","OBJECTID":615225},"geometry":{"x":168525.16999999993,"y":2544599.4800000023}},{"attributes":{"ID":615253,"DIS_CODE":0,"TOWNNAME":"北區","LI":"三德里","LIN":"2鄰","STREET":"北華街","SECT":" ","MAREA":" ","LANE":" ","ALLEY":" ","HOUSE_NO":"２５７號","E_COORD97":168519.32000000001,"N_COORD97":2544599.0600000001,"ADDRESS":"北華街２５７號","OBJECTID":615226},"geometry":{"x":168519.3200000003,"y":2544599.0600000024}},{"attributes":{"ID":615254,"DIS_CODE":0,"TOWNNAME":"北區","LI":"三德里","LIN":"2鄰","STREET":"北華街","SECT":" ","MAREA":" ","LANE":" ","ALLEY":" ","HOUSE_NO":"２５７號之１","E_COORD97":168515.84,"N_COORD97":2544600.1699999999,"ADDRESS":"北華街２５７號之１","OBJECTID":615227},"geometry":{"x":168515.83999999892,"y":2544600.1700000018}},{"attributes":{"ID":615255,"DIS_CODE":0,"TOWNNAME":"北區","LI":"三德里","LIN":"2鄰","STREET":"北華街","SECT":" ","MAREA":" ","LANE":" ","ALLEY":" ","HOUSE_NO":"２５９號","E_COORD97":168511.25,"N_COORD97":2544598.9199999999,"ADDRESS":"北華街２５９號","OBJECTID":615228},"geometry":{"x":168511.25,"y":2544598.9200000018}},{"attributes":{"ID":615256,"DIS_CODE":0,"TOWNNAME":"北區","LI":"三德里","LIN":"2鄰","STREET":"北華街","SECT":" ","MAREA":" ","LANE":" ","ALLEY":" ","HOUSE_NO":"２６１號","E_COORD97":168500.10999999999,"N_COORD97":2544598.5,"ADDRESS":"北華街２６１號","OBJECTID":615229},"geometry":{"x":168500.11000000127,"y":2544598.5000000019}},{"attributes":{"ID":615257,"DIS_CODE":0,"TOWNNAME":"北區","LI":"三德里","LIN":"2鄰","STREET":"北華街","SECT":" ","MAREA":" ","LANE":" ","ALLEY":" ","HOUSE_NO":"２６７號","E_COORD97":168521.95999999999,"N_COORD97":2544570.4500000002,"ADDRESS":"北華街２６７號","OBJECTID":615230},"geometry":{"x":168521.95999999903,"y":2544570.4500000011}},{"attributes":{"ID":615258,"DIS_CODE":0,"TOWNNAME":"北區","LI":"三德里","LIN":"2鄰","STREET":"北華街","SECT":" ","MAREA":" ","LANE":" ","ALLEY":" ","HOUSE_NO":"２６７號之１","E_COORD97":168517.92000000001,"N_COORD97":2544571.1499999999,"ADDRESS":"北華街２６７號之１","OBJECTID":615231},"geometry":{"x":168517.92000000086,"y":2544571.1500000022}},{"attributes":{"ID":615259,"DIS_CODE":0,"TOWNNAME":"北區","LI":"玉皇里","LIN":"2鄰","STREET":"北忠街","SECT":" ","MAREA":" ","LANE":" ","ALLEY":" ","HOUSE_NO":"１７６號","E_COORD97":168601.23000000001,"N_COORD97":2544563.6400000001,"ADDRESS":"北忠街１７６號","OBJECTID":615232},"geometry":{"x":168601.23000000138,"y":2544563.6400000025}},{"attributes":{"ID":615260,"DIS_CODE":0,"TOWNNAME":"北區","LI":"玉皇里","LIN":"2鄰","STREET":"北忠街","SECT":" ","MAREA":" ","LANE":" ","ALLEY":" ","HOUSE_NO":"１７８號","E_COORD97":168596.63,"N_COORD97":2544564.8900000001,"ADDRESS":"北忠街１７８號","OBJECTID":615233},"geometry":{"x":168596.62999999989,"y":2544564.8900000043}},{"attributes":{"ID":615261,"DIS_CODE":0,"TOWNNAME":"北區","LI":"玉皇里","LIN":"2鄰","STREET":"忠義路","SECT":"三段","MAREA":" ","LANE":" ","ALLEY":" ","HOUSE_NO":"８０號","E_COORD97":168593.35000000001,"N_COORD97":2544569.4399999999,"ADDRESS":"忠義路三段８０號","OBJECTID":615234},"geometry":{"x":168593.34999999963,"y":2544569.4399999995}},{"attributes":{"ID":615262,"DIS_CODE":0,"TOWNNAME":"北區","LI":"玉皇里","LIN":"2鄰","STREET":"忠義路","SECT":"三段","MAREA":" ","LANE":" ","ALLEY":" ","HOUSE_NO":"８４號","E_COORD97":168598.87,"N_COORD97":2544587.9300000002,"ADDRESS":"忠義路三段８４號","OBJECTID":615235},"geometry":{"x":168598.87000000011,"y":2544587.9300000016}},{"attributes":{"ID":615263,"DIS_CODE":0,"TOWNNAME":"北區","LI":"玉皇里","LIN":"2鄰","STREET":"忠義路","SECT":"三段","MAREA":" ","LANE":" ","ALLEY":" ","HOUSE_NO":"８６號","E_COORD97":168601.45000000001,"N_COORD97":2544594.2799999998,"ADDRESS":"忠義路三段８６號","OBJECTID":615236},"geometry":{"x":168601.45000000019,"y":2544594.2799999993}},{"attributes":{"ID":615264,"DIS_CODE":0,"TOWNNAME":"北區","LI":"玉皇里","LIN":"2鄰","STREET":"忠義路","SECT":"三段","MAREA":" ","LANE":" ","ALLEY":" ","HOUSE_NO":"８８號","E_COORD97":168603.82000000001,"N_COORD97":2544600.6400000001,"ADDRESS":"忠義路三段８８號","OBJECTID":615237},"geometry":{"x":168603.82000000123,"y":2544600.6400000025}},{"attributes":{"ID":615265,"DIS_CODE":0,"TOWNNAME":"北區","LI":"玉皇里","LIN":"2鄰","STREET":"忠義路","SECT":"三段","MAREA":" ","LANE":" ","ALLEY":" ","HOUSE_NO":"９０號","E_COORD97":168605.57000000001,"N_COORD97":2544604.8900000001,"ADDRESS":"忠義路三段９０號","OBJECTID":615238},"geometry":{"x":168605.57000000123,"y":2544604.8900000006}},{"attributes":{"ID":615266,"DIS_CODE":0,"TOWNNAME":"北區","LI":"玉皇里","LIN":"2鄰","STREET":"忠義路","SECT":"三段","MAREA":" ","LANE":" ","ALLEY":" ","HOUSE_NO":"９２號","E_COORD97":168608.70999999999,"N_COORD97":2544608.4500000002,"ADDRESS":"忠義路三段９２號","OBJECTID":615239},"geometry":{"x":168608.71000000089,"y":2544608.4500000011}},{"attributes":{"ID":615267,"DIS_CODE":0,"TOWNNAME":"北區","LI":"大仁里","LIN":"2鄰","STREET":"北門路","SECT":"二段","MAREA":" ","LANE":" ","ALLEY":" ","HOUSE_NO":"３０８號","E_COORD97":169537.60000000001,"N_COORD97":2545315.5699999998,"ADDRESS":"北門路二段３０８號","OBJECTID":615240},"geometry":{"x":169537.59999999963,"y":2545315.5699999984}},{"attributes":{"ID":615268,"DIS_CODE":0,"TOWNNAME":"北區","LI":"大仁里","LIN":"2鄰","STREET":"北門路","SECT":"二段","MAREA":" ","LANE":" ","ALLEY":" ","HOUSE_NO":"３１２號","E_COORD97":169536.29000000001,"N_COORD97":2545319.6699999999,"ADDRESS":"北門路二段３１２號","OBJECTID":615241},"geometry":{"x":169536.29000000004,"y":2545319.6700000018}},{"attributes":{"ID":615269,"DIS_CODE":0,"TOWNNAME":"北區","LI":"大仁里","LIN":"2鄰","STREET":"北門路","SECT":"二段","MAREA":" ","LANE":" ","ALLEY":" ","HOUSE_NO":"３１４號","E_COORD97":169537.76999999999,"N_COORD97":2545323.3399999999,"ADDRESS":"北門路二段３１４號","OBJECTID":615242},"geometry":{"x":169537.76999999955,"y":2545323.3399999999}},{"attributes":{"ID":615270,"DIS_CODE":0,"TOWNNAME":"北區","LI":"大仁里","LIN":"2鄰","STREET":"北門路","SECT":"二段","MAREA":" ","LANE":" ","ALLEY":" ","HOUSE_NO":"３１８號","E_COORD97":169541.73999999999,"N_COORD97":2545332.1800000002,"ADDRESS":"北門路二段３１８號","OBJECTID":615243},"geometry":{"x":169541.74000000115,"y":2545332.1800000016}},{"attributes":{"ID":615271,"DIS_CODE":0,"TOWNNAME":"北區","LI":"大仁里","LIN":"2鄰","STREET":"北門路","SECT":"二段","MAREA":" ","LANE":" ","ALLEY":" ","HOUSE_NO":"３２２號","E_COORD97":169550.09,"N_COORD97":2545345.2000000002,"ADDRESS":"北門路二段３２２號","OBJECTID":615244},"geometry":{"x":169550.09000000171,"y":2545345.2000000011}},{"attributes":{"ID":615272,"DIS_CODE":0,"TOWNNAME":"北區","LI":"大仁里","LIN":"2鄰","STREET":"北門路","SECT":"二段","MAREA":" ","LANE":" ","ALLEY":" ","HOUSE_NO":"３３２號","E_COORD97":169560.85999999999,"N_COORD97":2545362.4300000002,"ADDRESS":"北門路二段３３２號","OBJECTID":615245},"geometry":{"x":169560.86000000127,"y":2545362.4299999997}},{"attributes":{"ID":615273,"DIS_CODE":0,"TOWNNAME":"北區","LI":"大仁里","LIN":"2鄰","STREET":"北門路","SECT":"二段","MAREA":" ","LANE":" ","ALLEY":" ","HOUSE_NO":"３３８號","E_COORD97":169565.97,"N_COORD97":2545373.8799999999,"ADDRESS":"北門路二段３３８號","OBJECTID":615246},"geometry":{"x":169565.9700000016,"y":2545373.8800000008}},{"attributes":{"ID":615274,"DIS_CODE":0,"TOWNNAME":"麻豆區","LI":"大埕里","LIN":"2鄰","STREET":"復興街","SECT":" ","MAREA":" ","LANE":" ","ALLEY":" ","HOUSE_NO":"４１號","E_COORD97":173123.39000000001,"N_COORD97":2564896.6600000001,"ADDRESS":"復興街４１號","OBJECTID":615247},"geometry":{"x":173123.3900000006,"y":2564896.6600000001}},{"attributes":{"ID":615275,"DIS_CODE":0,"TOWNNAME":"麻豆區","LI":"大埕里","LIN":"2鄰","STREET":"復興街","SECT":" ","MAREA":" ","LANE":" ","ALLEY":" ","HOUSE_NO":"４３號","E_COORD97":173119.56,"N_COORD97":2564899.2000000002,"ADDRESS":"復興街４３號","OBJECTID":615248},"geometry":{"x":173119.55999999959,"y":2564899.1999999993}},{"attributes":{"ID":615276,"DIS_CODE":0,"TOWNNAME":"麻豆區","LI":"大埕里","LIN":"2鄰","STREET":"復興街","SECT":" ","MAREA":" ","LANE":" ","ALLEY":" ","HOUSE_NO":"４５號","E_COORD97":173115.29999999999,"N_COORD97":2564900.2799999998,"ADDRESS":"復興街４５號","OBJECTID":615249},"geometry":{"x":173115.30000000168,"y":2564900.2800000012}},{"attributes":{"ID":615277,"DIS_CODE":0,"TOWNNAME":"麻豆區","LI":"大埕里","LIN":"2鄰","STREET":"復興街","SECT":" ","MAREA":" ","LANE":" ","ALLEY":" ","HOUSE_NO":"４７號","E_COORD97":173111.14000000001,"N_COORD97":2564901.46,"ADDRESS":"復興街４７號","OBJECTID":615250},"geometry":{"x":173111.14000000153,"y":2564901.4600000028}},{"attributes":{"ID":615278,"DIS_CODE":0,"TOWNNAME":"麻豆區","LI":"大埕里","LIN":"2鄰","STREET":"復興街","SECT":" ","MAREA":" ","LANE":" ","ALLEY":" ","HOUSE_NO":"４９號","E_COORD97":173107.25,"N_COORD97":2564902.5699999998,"ADDRESS":"復興街４９號","OBJECTID":615251},"geometry":{"x":173107.25000000186,"y":2564902.5700000022}},{"attributes":{"ID":615279,"DIS_CODE":0,"TOWNNAME":"麻豆區","LI":"大埕里","LIN":"2鄰","STREET":"復興街","SECT":" ","MAREA":" ","LANE":" ","ALLEY":" ","HOUSE_NO":"５１號","E_COORD97":173103.53,"N_COORD97":2564903.2999999998,"ADDRESS":"復興街５１號","OBJECTID":615252},"geometry":{"x":173103.53000000026,"y":2564903.3000000007}},{"attributes":{"ID":615280,"DIS_CODE":0,"TOWNNAME":"麻豆區","LI":"大埕里","LIN":"2鄰","STREET":"復興街","SECT":" ","MAREA":" ","LANE":" ","ALLEY":" ","HOUSE_NO":"５３號","E_COORD97":173099.44,"N_COORD97":2564904.3999999999,"ADDRESS":"復興街５３號","OBJECTID":615253},"geometry":{"x":173099.44000000041,"y":2564904.4000000022}},{"attributes":{"ID":615281,"DIS_CODE":0,"TOWNNAME":"麻豆區","LI":"南勢里","LIN":"2鄰","STREET":"新生北路","SECT":" ","MAREA":" ","LANE":" ","ALLEY":" ","HOUSE_NO":"６８１號","E_COORD97":173468.07000000001,"N_COORD97":2565545.77,"ADDRESS":"新生北路６８１號","OBJECTID":615254},"geometry":{"x":173468.0700000003,"y":2565545.7699999996}},{"attributes":{"ID":615282,"DIS_CODE":0,"TOWNNAME":"麻豆區","LI":"南勢里","LIN":"2鄰","STREET":"新生北路","SECT":" ","MAREA":" ","LANE":" ","ALLEY":" ","HOUSE_NO":"７２９號","E_COORD97":173537.06,"N_COORD97":2565543.9300000002,"ADDRESS":"新生北路７２９號","OBJECTID":615255},"geometry":{"x":173537.06000000145,"y":2565543.9300000016}},{"attributes":{"ID":615283,"DIS_CODE":0,"TOWNNAME":"歸仁區","LI":"後市里","LIN":"2鄰","STREET":"大順街","SECT":" ","MAREA":" ","LANE":" ","ALLEY":" ","HOUSE_NO":"９１號","E_COORD97":177175.19,"N_COORD97":2540595.6800000002,"ADDRESS":"大順街９１號","OBJECTID":615256},"geometry":{"x":177175.19000000134,"y":2540595.6800000016}},{"attributes":{"ID":615284,"DIS_CODE":0,"TOWNNAME":"歸仁區","LI":"南保里","LIN":"2鄰","STREET":"民權二街","SECT":" ","MAREA":" ","LANE":" ","ALLEY":" ","HOUSE_NO":"２３號","E_COORD97":176935.98999999999,"N_COORD97":2541353.29,"ADDRESS":"民權二街２３號","OBJECTID":615257},"geometry":{"x":176935.99000000115,"y":2541353.2900000028}},{"attributes":{"ID":615285,"DIS_CODE":0,"TOWNNAME":"歸仁區","LI":"南興里","LIN":"2鄰","STREET":"文化十二街","SECT":" ","MAREA":" ","LANE":" ","ALLEY":" ","HOUSE_NO":"６０號","E_COORD97":176469.39000000001,"N_COORD97":2541287.3300000001,"ADDRESS":"文化十二街６０號","OBJECTID":615258},"geometry":{"x":176469.39000000153,"y":2541287.3300000019}},{"attributes":{"ID":615286,"DIS_CODE":0,"TOWNNAME":"歸仁區","LI":"南保里","LIN":"2鄰","STREET":"民權二街","SECT":" ","MAREA":" ","LANE":" ","ALLEY":" ","HOUSE_NO":"４３號","E_COORD97":176950.48999999999,"N_COORD97":2541381.29,"ADDRESS":"民權二街４３號","OBJECTID":615259},"geometry":{"x":176950.48999999929,"y":2541381.290000001}},{"attributes":{"ID":615287,"DIS_CODE":0,"TOWNNAME":"歸仁區","LI":"辜厝里","LIN":"2鄰","STREET":"中山路","SECT":"二段","MAREA":" ","LANE":" ","ALLEY":" ","HOUSE_NO":"３９之１號","E_COORD97":177499.20999999999,"N_COORD97":2540777.1200000001,"ADDRESS":"中山路二段３９之１號","OBJECTID":615260},"geometry":{"x":177499.20999999996,"y":2540777.1200000029}},{"attributes":{"ID":615288,"DIS_CODE":0,"TOWNNAME":"歸仁區","LI":"南保里","LIN":"2鄰","STREET":"民權二街","SECT":" ","MAREA":" ","LANE":" ","ALLEY":" ","HOUSE_NO":"９號","E_COORD97":176965.54000000001,"N_COORD97":2541350.29,"ADDRESS":"民權二街９號","OBJECTID":615261},"geometry":{"x":176965.54000000097,"y":2541350.290000001}},{"attributes":{"ID":615289,"DIS_CODE":0,"TOWNNAME":"歸仁區","LI":"南保里","LIN":"2鄰","STREET":"民權二街","SECT":" ","MAREA":" ","LANE":" ","ALLEY":" ","HOUSE_NO":"４９號","E_COORD97":176950.59,"N_COORD97":2541393.29,"ADDRESS":"民權二街４９號","OBJECTID":615262},"geometry":{"x":176950.58999999985,"y":2541393.2899999991}},{"attributes":{"ID":615290,"DIS_CODE":0,"TOWNNAME":"歸仁區","LI":"南興里","LIN":"2鄰","STREET":"文化十二街","SECT":" ","MAREA":" ","LANE":" ","ALLEY":" ","HOUSE_NO":"５８號","E_COORD97":176469.39000000001,"N_COORD97":2541283.3300000001,"ADDRESS":"文化十二街５８號","OBJECTID":615263},"geometry":{"x":176469.39000000153,"y":2541283.3300000019}},{"attributes":{"ID":615291,"DIS_CODE":0,"TOWNNAME":"歸仁區","LI":"南保里","LIN":"2鄰","STREET":"民權二街","SECT":" ","MAREA":" ","LANE":" ","ALLEY":" ","HOUSE_NO":"１１號","E_COORD97":176960.59,"N_COORD97":2541350.29,"ADDRESS":"民權二街１１號","OBJECTID":615264},"geometry":{"x":176960.58999999985,"y":2541350.290000001}},{"attributes":{"ID":615292,"DIS_CODE":0,"TOWNNAME":"歸仁區","LI":"新厝里","LIN":"2鄰","STREET":"復興路","SECT":" ","MAREA":" ","LANE":" ","ALLEY":" ","HOUSE_NO":"１３０號","E_COORD97":177690.87,"N_COORD97":2540646.25,"ADDRESS":"復興路１３０號","OBJECTID":615265},"geometry":{"x":177690.87000000104,"y":2540646.2500000019}},{"attributes":{"ID":615293,"DIS_CODE":0,"TOWNNAME":"歸仁區","LI":"歸仁里","LIN":"2鄰","STREET":"文化街","SECT":"一段","MAREA":" ","LANE":" ","ALLEY":" ","HOUSE_NO":"１７１號","E_COORD97":177769.29000000001,"N_COORD97":2541113.0499999998,"ADDRESS":"文化街一段１７１號","OBJECTID":615266},"geometry":{"x":177769.29000000097,"y":2541113.0500000026}},{"attributes":{"ID":615294,"DIS_CODE":0,"TOWNNAME":"歸仁區","LI":"新厝里","LIN":"2鄰","STREET":"復興路","SECT":" ","MAREA":" ","LANE":" ","ALLEY":" ","HOUSE_NO":"１５２號","E_COORD97":177667.26999999999,"N_COORD97":2540649.25,"ADDRESS":"復興路１５２號","OBJECTID":615267},"geometry":{"x":177667.27000000048,"y":2540649.2500000037}},{"attributes":{"ID":615295,"DIS_CODE":0,"TOWNNAME":"歸仁區","LI":"新厝里","LIN":"2鄰","STREET":"復興路","SECT":" ","MAREA":" ","LANE":" ","ALLEY":" ","HOUSE_NO":"１２４號","E_COORD97":177705.26999999999,"N_COORD97":2540644.25,"ADDRESS":"復興路１２４號","OBJECTID":615268},"geometry":{"x":177705.26999999955,"y":2540644.25}},{"attributes":{"ID":615296,"DIS_CODE":0,"TOWNNAME":"歸仁區","LI":"歸仁里","LIN":"2鄰","STREET":"文化街","SECT":"一段","MAREA":" ","LANE":" ","ALLEY":" ","HOUSE_NO":"１４７號","E_COORD97":177837.98999999999,"N_COORD97":2541115.0499999998,"ADDRESS":"文化街一段１４７號","OBJECTID":615269},"geometry":{"x":177837.99000000115,"y":2541115.0500000007}},{"attributes":{"ID":615297,"DIS_CODE":0,"TOWNNAME":"歸仁區","LI":"歸仁里","LIN":"2鄰","STREET":"文化街","SECT":"一段","MAREA":" ","LANE":" ","ALLEY":" ","HOUSE_NO":"１４３號","E_COORD97":177848.29000000001,"N_COORD97":2541115.0499999998,"ADDRESS":"文化街一段１４３號","OBJECTID":615270},"geometry":{"x":177848.29000000004,"y":2541115.0500000007}},{"attributes":{"ID":615298,"DIS_CODE":0,"TOWNNAME":"歸仁區","LI":"媽廟里","LIN":"2鄰","STREET":"媽廟一街","SECT":" ","MAREA":" ","LANE":" ","ALLEY":" ","HOUSE_NO":"１８號","E_COORD97":177450.03,"N_COORD97":2543578.7200000002,"ADDRESS":"媽廟一街１８號","OBJECTID":615271},"geometry":{"x":177450.03000000026,"y":2543578.7200000007}},{"attributes":{"ID":615299,"DIS_CODE":0,"TOWNNAME":"歸仁區","LI":"歸仁里","LIN":"2鄰","STREET":"和平三街","SECT":" ","MAREA":" ","LANE":" ","ALLEY":" ","HOUSE_NO":"３０號","E_COORD97":177765.29000000001,"N_COORD97":2541018.04,"ADDRESS":"和平三街３０號","OBJECTID":615272},"geometry":{"x":177765.29000000004,"y":2541018.0399999991}},{"attributes":{"ID":615300,"DIS_CODE":0,"TOWNNAME":"歸仁區","LI":"新厝里","LIN":"2鄰","STREET":"復興路","SECT":" ","MAREA":" ","LANE":" ","ALLEY":" ","HOUSE_NO":"１１８號","E_COORD97":177726.73999999999,"N_COORD97":2540642.9399999999,"ADDRESS":"復興路１１８號","OBJECTID":615273},"geometry":{"x":177726.74000000022,"y":2540642.9399999995}},{"attributes":{"ID":615301,"DIS_CODE":0,"TOWNNAME":"歸仁區","LI":"新厝里","LIN":"2鄰","STREET":"復興路","SECT":" ","MAREA":" ","LANE":" ","ALLEY":" ","HOUSE_NO":"１６２之１號","E_COORD97":177627.87,"N_COORD97":2540657.2599999998,"ADDRESS":"復興路１６２之１號","OBJECTID":615274},"geometry":{"x":177627.87000000104,"y":2540657.2600000016}},{"attributes":{"ID":615302,"DIS_CODE":0,"TOWNNAME":"歸仁區","LI":"歸仁里","LIN":"2鄰","STREET":"和平一街","SECT":" ","MAREA":" ","LANE":" ","ALLEY":" ","HOUSE_NO":"１８號","E_COORD97":177788.19,"N_COORD97":2541081.04,"ADDRESS":"和平一街１８號","OBJECTID":615275},"geometry":{"x":177788.19000000041,"y":2541081.040000001}},{"attributes":{"ID":615303,"DIS_CODE":0,"TOWNNAME":"歸仁區","LI":"歸南里","LIN":"2鄰","STREET":"民權南路","SECT":" ","MAREA":" ","LANE":" ","ALLEY":" ","HOUSE_NO":"２２２號","E_COORD97":176944.81,"N_COORD97":2540289.5,"ADDRESS":"民權南路２２２號","OBJECTID":615276},"geometry":{"x":176944.81000000052,"y":2540289.5000000019}},{"attributes":{"ID":615304,"DIS_CODE":0,"TOWNNAME":"歸仁區","LI":"新厝里","LIN":"2鄰","STREET":"中正南路","SECT":"一段","MAREA":" ","LANE":" ","ALLEY":" ","HOUSE_NO":"１１號","E_COORD97":177634.14999999999,"N_COORD97":2540695.25,"ADDRESS":"中正南路一段１１號","OBJECTID":615277},"geometry":{"x":177634.15000000037,"y":2540695.25}},{"attributes":{"ID":615305,"DIS_CODE":0,"TOWNNAME":"歸仁區","LI":"歸仁里","LIN":"2鄰","STREET":"和平一街","SECT":" ","MAREA":" ","LANE":" ","ALLEY":" ","HOUSE_NO":"２０號","E_COORD97":177785.09,"N_COORD97":2541081.04,"ADDRESS":"和平一街２０號","OBJECTID":615278},"geometry":{"x":177785.08999999985,"y":2541081.040000001}},{"attributes":{"ID":615306,"DIS_CODE":0,"TOWNNAME":"歸仁區","LI":"新厝里","LIN":"2鄰","STREET":"復興路","SECT":" ","MAREA":" ","LANE":" ","ALLEY":" ","HOUSE_NO":"１６２號","E_COORD97":177645.76999999999,"N_COORD97":2540652.25,"ADDRESS":"復興路１６２號","OBJECTID":615279},"geometry":{"x":177645.76999999955,"y":2540652.2499999981}},{"attributes":{"ID":615307,"DIS_CODE":0,"TOWNNAME":"歸仁區","LI":"歸南里","LIN":"2鄰","STREET":"民權南路","SECT":" ","MAREA":" ","LANE":" ","ALLEY":" ","HOUSE_NO":"２１０號","E_COORD97":176944.91,"N_COORD97":2540315.5,"ADDRESS":"民權南路２１０號","OBJECTID":615280},"geometry":{"x":176944.91000000108,"y":2540315.5000000019}},{"attributes":{"ID":615308,"DIS_CODE":0,"TOWNNAME":"歸仁區","LI":"歸南里","LIN":"2鄰","STREET":"民權南路","SECT":" ","MAREA":" ","LANE":" ","ALLEY":" ","HOUSE_NO":"２２４號","E_COORD97":176944.81,"N_COORD97":2540285.5,"ADDRESS":"民權南路２２４號","OBJECTID":615281},"geometry":{"x":176944.81000000052,"y":2540285.5000000019}},{"attributes":{"ID":615309,"DIS_CODE":0,"TOWNNAME":"歸仁區","LI":"歸仁里","LIN":"2鄰","STREET":"和平三街","SECT":" ","MAREA":" ","LANE":" ","ALLEY":" ","HOUSE_NO":"２４號","E_COORD97":177779.69,"N_COORD97":2541019.04,"ADDRESS":"和平三街２４號","OBJECTID":615282},"geometry":{"x":177779.69000000041,"y":2541019.0400000028}},{"attributes":{"ID":615310,"DIS_CODE":0,"TOWNNAME":"歸仁區","LI":"歸仁里","LIN":"2鄰","STREET":"和平一街","SECT":" ","MAREA":" ","LANE":" ","ALLEY":" ","HOUSE_NO":"１０號","E_COORD97":177805.59,"N_COORD97":2541081.04,"ADDRESS":"和平一街１０號","OBJECTID":615283},"geometry":{"x":177805.59000000171,"y":2541081.040000001}},{"attributes":{"ID":615311,"DIS_CODE":0,"TOWNNAME":"歸仁區","LI":"媽廟里","LIN":"2鄰","STREET":"媽廟一街","SECT":" ","MAREA":" ","LANE":" ","ALLEY":" ","HOUSE_NO":"１４號","E_COORD97":177474.53,"N_COORD97":2543549.7200000002,"ADDRESS":"媽廟一街１４號","OBJECTID":615284},"geometry":{"x":177474.53000000119,"y":2543549.7200000025}},{"attributes":{"ID":615312,"DIS_CODE":0,"TOWNNAME":"歸仁區","LI":"歸南里","LIN":"2鄰","STREET":"民權南路","SECT":" ","MAREA":" ","LANE":" ","ALLEY":" ","HOUSE_NO":"２３２號","E_COORD97":176943.70999999999,"N_COORD97":2540268.5,"ADDRESS":"民權南路２３２號","OBJECTID":615285},"geometry":{"x":176943.71000000183,"y":2540268.5000000019}},{"attributes":{"ID":615313,"DIS_CODE":0,"TOWNNAME":"歸仁區","LI":"新厝里","LIN":"2鄰","STREET":"中正南路","SECT":"一段","MAREA":" ","LANE":" ","ALLEY":" ","HOUSE_NO":"９號","E_COORD97":177635,"N_COORD97":2540700.25,"ADDRESS":"中正南路一段９號","OBJECTID":615286},"geometry":{"x":177635,"y":2540700.2500000037}},{"attributes":{"ID":615314,"DIS_CODE":0,"TOWNNAME":"歸仁區","LI":"歸南里","LIN":"2鄰","STREET":"民權南路","SECT":" ","MAREA":" ","LANE":" ","ALLEY":" ","HOUSE_NO":"２１８號","E_COORD97":176944.81,"N_COORD97":2540297.5,"ADDRESS":"民權南路２１８號","OBJECTID":615287},"geometry":{"x":176944.81000000052,"y":2540297.5}},{"attributes":{"ID":615315,"DIS_CODE":0,"TOWNNAME":"歸仁區","LI":"歸南里","LIN":"2鄰","STREET":"民權南路","SECT":" ","MAREA":" ","LANE":" ","ALLEY":" ","HOUSE_NO":"２２０號","E_COORD97":176944.81,"N_COORD97":2540293.5,"ADDRESS":"民權南路２２０號","OBJECTID":615288},"geometry":{"x":176944.81000000052,"y":2540293.5}},{"attributes":{"ID":615316,"DIS_CODE":0,"TOWNNAME":"歸仁區","LI":"歸仁里","LIN":"2鄰","STREET":"和平一街","SECT":" ","MAREA":" ","LANE":" ","ALLEY":" ","HOUSE_NO":"８號","E_COORD97":177811.44,"N_COORD97":2541083.04,"ADDRESS":"和平一街８號","OBJECTID":615289},"geometry":{"x":177811.44000000134,"y":2541083.0399999991}},{"attributes":{"ID":615317,"DIS_CODE":0,"TOWNNAME":"歸仁區","LI":"新厝里","LIN":"2鄰","STREET":"中正一街","SECT":" ","MAREA":" ","LANE":" ","ALLEY":" ","HOUSE_NO":"１０號","E_COORD97":177665.45000000001,"N_COORD97":2540700.25,"ADDRESS":"中正一街１０號","OBJECTID":615290},"geometry":{"x":177665.45000000019,"y":2540700.2500000037}},{"attributes":{"ID":615318,"DIS_CODE":0,"TOWNNAME":"歸仁區","LI":"新厝里","LIN":"2鄰","STREET":"中正南路","SECT":"一段","MAREA":" ","LANE":" ","ALLEY":" ","HOUSE_NO":"１５號","E_COORD97":177635.14999999999,"N_COORD97":2540685.25,"ADDRESS":"中正南路一段１５號","OBJECTID":615291},"geometry":{"x":177635.1500000013,"y":2540685.25}},{"attributes":{"ID":615319,"DIS_CODE":0,"TOWNNAME":"歸仁區","LI":"新厝里","LIN":"2鄰","STREET":"復興路","SECT":" ","MAREA":" ","LANE":" ","ALLEY":" ","HOUSE_NO":"１５６號","E_COORD97":177659.07000000001,"N_COORD97":2540650.25,"ADDRESS":"復興路１５６號","OBJECTID":615292},"geometry":{"x":177659.07000000123,"y":2540650.2500000019}},{"attributes":{"ID":615320,"DIS_CODE":0,"TOWNNAME":"歸仁區","LI":"歸南里","LIN":"2鄰","STREET":"民權南路","SECT":" ","MAREA":" ","LANE":" ","ALLEY":" ","HOUSE_NO":"２０８號","E_COORD97":176945.01000000001,"N_COORD97":2540319.5,"ADDRESS":"民權南路２０８號","OBJECTID":615293},"geometry":{"x":176945.01000000164,"y":2540319.5000000019}},{"attributes":{"ID":615321,"DIS_CODE":0,"TOWNNAME":"歸仁區","LI":"新厝里","LIN":"2鄰","STREET":"中正一街","SECT":" ","MAREA":" ","LANE":" ","ALLEY":" ","HOUSE_NO":"１３號","E_COORD97":177676.98999999999,"N_COORD97":2540711.6800000002,"ADDRESS":"中正一街１３號","OBJECTID":615294},"geometry":{"x":177676.99000000115,"y":2540711.6800000016}},{"attributes":{"ID":615322,"DIS_CODE":0,"TOWNNAME":"歸仁區","LI":"新厝里","LIN":"2鄰","STREET":"中正一街","SECT":" ","MAREA":" ","LANE":" ","ALLEY":" ","HOUSE_NO":"１７號","E_COORD97":177686.19,"N_COORD97":2540711.6800000002,"ADDRESS":"中正一街１７號","OBJECTID":615295},"geometry":{"x":177686.19000000041,"y":2540711.6800000016}},{"attributes":{"ID":615323,"DIS_CODE":0,"TOWNNAME":"歸仁區","LI":"新厝里","LIN":"2鄰","STREET":"中正一街","SECT":" ","MAREA":" ","LANE":" ","ALLEY":" ","HOUSE_NO":"９號","E_COORD97":177666.44,"N_COORD97":2540713.6800000002,"ADDRESS":"中正一街９號","OBJECTID":615296},"geometry":{"x":177666.43999999948,"y":2540713.6800000034}},{"attributes":{"ID":615324,"DIS_CODE":0,"TOWNNAME":"歸仁區","LI":"新厝里","LIN":"2鄰","STREET":"中正一街","SECT":" ","MAREA":" ","LANE":" ","ALLEY":" ","HOUSE_NO":"６號","E_COORD97":177657,"N_COORD97":2540701.25,"ADDRESS":"中正一街６號","OBJECTID":615297},"geometry":{"x":177657,"y":2540701.2500000019}},{"attributes":{"ID":615325,"DIS_CODE":0,"TOWNNAME":"歸仁區","LI":"歸仁里","LIN":"2鄰","STREET":"和平三街","SECT":" ","MAREA":" ","LANE":" ","ALLEY":" ","HOUSE_NO":"２６號","E_COORD97":177774.48999999999,"N_COORD97":2541017.04,"ADDRESS":"和平三街２６號","OBJECTID":615298},"geometry":{"x":177774.49000000209,"y":2541017.040000001}},{"attributes":{"ID":615326,"DIS_CODE":0,"TOWNNAME":"歸仁區","LI":"新厝里","LIN":"2鄰","STREET":"中正一街","SECT":" ","MAREA":" ","LANE":" ","ALLEY":" ","HOUSE_NO":"８號","E_COORD97":177661.10000000001,"N_COORD97":2540700.25,"ADDRESS":"中正一街８號","OBJECTID":615299},"geometry":{"x":177661.0999999987,"y":2540700.2500000037}},{"attributes":{"ID":615327,"DIS_CODE":0,"TOWNNAME":"歸仁區","LI":"媽廟里","LIN":"2鄰","STREET":"媽廟一街","SECT":" ","MAREA":" ","LANE":" ","ALLEY":" ","HOUSE_NO":"３６號","E_COORD97":177407.92999999999,"N_COORD97":2543552.7200000002,"ADDRESS":"媽廟一街３６號","OBJECTID":615300},"geometry":{"x":177407.9299999997,"y":2543552.7200000025}},{"attributes":{"ID":615328,"DIS_CODE":0,"TOWNNAME":"歸仁區","LI":"新厝里","LIN":"2鄰","STREET":"中正南路","SECT":"一段","MAREA":" ","LANE":" ","ALLEY":" ","HOUSE_NO":"５號","E_COORD97":177639.34,"N_COORD97":2540717.6800000002,"ADDRESS":"中正南路一段５號","OBJECTID":615301},"geometry":{"x":177639.33999999985,"y":2540717.6800000016}},{"attributes":{"ID":615329,"DIS_CODE":0,"TOWNNAME":"歸仁區","LI":"新厝里","LIN":"2鄰","STREET":"中正一街","SECT":" ","MAREA":" ","LANE":" ","ALLEY":" ","HOUSE_NO":"１２號","E_COORD97":177670.54999999999,"N_COORD97":2540699.25,"ADDRESS":"中正一街１２號","OBJECTID":615302},"geometry":{"x":177670.55000000075,"y":2540699.25}},{"attributes":{"ID":615330,"DIS_CODE":0,"TOWNNAME":"歸仁區","LI":"媽廟里","LIN":"2鄰","STREET":"媽廟一街","SECT":" ","MAREA":" ","LANE":" ","ALLEY":" ","HOUSE_NO":"２２號","E_COORD97":177456.03,"N_COORD97":2543543.7200000002,"ADDRESS":"媽廟一街２２號","OBJECTID":615303},"geometry":{"x":177456.03000000119,"y":2543543.7200000025}},{"attributes":{"ID":615331,"DIS_CODE":0,"TOWNNAME":"歸仁區","LI":"歸仁里","LIN":"2鄰","STREET":"和平北街","SECT":" ","MAREA":" ","LANE":" ","ALLEY":" ","HOUSE_NO":"９３號","E_COORD97":177847.69,"N_COORD97":2541093.04,"ADDRESS":"和平北街９３號","OBJECTID":615304},"geometry":{"x":177847.69000000041,"y":2541093.0399999991}},{"attributes":{"ID":615332,"DIS_CODE":0,"TOWNNAME":"歸仁區","LI":"歸仁里","LIN":"2鄰","STREET":"文化街","SECT":"一段","MAREA":" ","LANE":" ","ALLEY":" ","HOUSE_NO":"１６１號","E_COORD97":177806.19,"N_COORD97":2541117.0499999998,"ADDRESS":"文化街一段１６１號","OBJECTID":615305},"geometry":{"x":177806.19000000134,"y":2541117.0500000026}},{"attributes":{"ID":615333,"DIS_CODE":0,"TOWNNAME":"歸仁區","LI":"辜厝里","LIN":"2鄰","STREET":"民族南街","SECT":" ","MAREA":" ","LANE":" ","ALLEY":" ","HOUSE_NO":"３號","E_COORD97":177427.73999999999,"N_COORD97":2540756.5499999998,"ADDRESS":"民族南街３號","OBJECTID":615306},"geometry":{"x":177427.74000000115,"y":2540756.5500000045}},{"attributes":{"ID":615334,"DIS_CODE":0,"TOWNNAME":"歸仁區","LI":"歸仁里","LIN":"2鄰","STREET":"文化街","SECT":"一段","MAREA":" ","LANE":" ","ALLEY":" ","HOUSE_NO":"１５９號","E_COORD97":177812.39000000001,"N_COORD97":2541117.0499999998,"ADDRESS":"文化街一段１５９號","OBJECTID":615307},"geometry":{"x":177812.3900000006,"y":2541117.0500000026}},{"attributes":{"ID":615335,"DIS_CODE":0,"TOWNNAME":"歸仁區","LI":"歸仁里","LIN":"2鄰","STREET":"文化街","SECT":"一段","MAREA":" ","LANE":" ","ALLEY":" ","HOUSE_NO":"１４５號","E_COORD97":177843.19,"N_COORD97":2541115.0499999998,"ADDRESS":"文化街一段１４５號","OBJECTID":615308},"geometry":{"x":177843.19000000134,"y":2541115.0500000007}},{"attributes":{"ID":615336,"DIS_CODE":0,"TOWNNAME":"歸仁區","LI":"武東里","LIN":"2鄰","STREET":"中正南路","SECT":"二段","MAREA":" ","LANE":" ","ALLEY":" ","HOUSE_NO":"２１７號","E_COORD97":175416.35999999999,"N_COORD97":2535342.25,"ADDRESS":"中正南路二段２１７號","OBJECTID":615309},"geometry":{"x":175416.36000000127,"y":2535342.25}},{"attributes":{"ID":615337,"DIS_CODE":0,"TOWNNAME":"歸仁區","LI":"歸南里","LIN":"2鄰","STREET":"民權南路","SECT":" ","MAREA":" ","LANE":" ","ALLEY":" ","HOUSE_NO":"２１４號","E_COORD97":176944.91,"N_COORD97":2540306.5,"ADDRESS":"民權南路２１４號","OBJECTID":615310},"geometry":{"x":176944.91000000108,"y":2540306.5000000019}},{"attributes":{"ID":615338,"DIS_CODE":0,"TOWNNAME":"歸仁區","LI":"歸仁里","LIN":"2鄰","STREET":"和平北街","SECT":" ","MAREA":" ","LANE":" ","ALLEY":" ","HOUSE_NO":"８９號","E_COORD97":177842.48999999999,"N_COORD97":2541077.04,"ADDRESS":"和平北街８９號","OBJECTID":615311},"geometry":{"x":177842.49000000115,"y":2541077.0400000028}},{"attributes":{"ID":615339,"DIS_CODE":0,"TOWNNAME":"歸仁區","LI":"歸仁里","LIN":"2鄰","STREET":"文化街","SECT":"一段","MAREA":" ","LANE":" ","ALLEY":" ","HOUSE_NO":"１５７號","E_COORD97":177817.48999999999,"N_COORD97":2541115.0499999998,"ADDRESS":"文化街一段１５７號","OBJECTID":615312},"geometry":{"x":177817.49000000115,"y":2541115.0500000007}},{"attributes":{"ID":615340,"DIS_CODE":0,"TOWNNAME":"歸仁區","LI":"新厝里","LIN":"2鄰","STREET":"中正南路","SECT":"一段","MAREA":" ","LANE":" ","ALLEY":" ","HOUSE_NO":"１９號","E_COORD97":177632.04999999999,"N_COORD97":2540680.25,"ADDRESS":"中正南路一段１９號","OBJECTID":615313},"geometry":{"x":177632.05000000075,"y":2540680.2500000019}},{"attributes":{"ID":615341,"DIS_CODE":0,"TOWNNAME":"歸仁區","LI":"看東里","LIN":"2鄰","STREET":"忠孝南路","SECT":" ","MAREA":" ","LANE":" ","ALLEY":" ","HOUSE_NO":"９８號","E_COORD97":178519.82000000001,"N_COORD97":2540377,"ADDRESS":"忠孝南路９８號","OBJECTID":615314},"geometry":{"x":178519.81999999937,"y":2540377.0000000019}},{"attributes":{"ID":615342,"DIS_CODE":0,"TOWNNAME":"歸仁區","LI":"許厝里","LIN":"2鄰","STREET":"仁愛一街","SECT":" ","MAREA":" ","LANE":" ","ALLEY":" ","HOUSE_NO":"９號","E_COORD97":178298.42000000001,"N_COORD97":2540632.0099999998,"ADDRESS":"仁愛一街９號","OBJECTID":615315},"geometry":{"x":178298.42000000179,"y":2540632.0099999998}},{"attributes":{"ID":615343,"DIS_CODE":0,"TOWNNAME":"歸仁區","LI":"南保里","LIN":"2鄰","STREET":"民權二街","SECT":" ","MAREA":" ","LANE":" ","ALLEY":" ","HOUSE_NO":"７號","E_COORD97":176970.64000000001,"N_COORD97":2541349.29,"ADDRESS":"民權二街７號","OBJECTID":615316},"geometry":{"x":176970.63999999966,"y":2541349.2899999991}},{"attributes":{"ID":615344,"DIS_CODE":0,"TOWNNAME":"歸仁區","LI":"南保里","LIN":"2鄰","STREET":"民權二街","SECT":" ","MAREA":" ","LANE":" ","ALLEY":" ","HOUSE_NO":"５３號","E_COORD97":176932.09,"N_COORD97":2541396.29,"ADDRESS":"民權二街５３號","OBJECTID":615317},"geometry":{"x":176932.08999999985,"y":2541396.2899999991}},{"attributes":{"ID":615345,"DIS_CODE":0,"TOWNNAME":"歸仁區","LI":"南保里","LIN":"2鄰","STREET":"民權二街","SECT":" ","MAREA":" ","LANE":" ","ALLEY":" ","HOUSE_NO":"３７號","E_COORD97":176949.39000000001,"N_COORD97":2541368.29,"ADDRESS":"民權二街３７號","OBJECTID":615318},"geometry":{"x":176949.3900000006,"y":2541368.290000001}},{"attributes":{"ID":615346,"DIS_CODE":0,"TOWNNAME":"歸仁區","LI":"南保里","LIN":"2鄰","STREET":"民權二街","SECT":" ","MAREA":" ","LANE":" ","ALLEY":" ","HOUSE_NO":"１５號","E_COORD97":176952.39000000001,"N_COORD97":2541351.29,"ADDRESS":"民權二街１５號","OBJECTID":615319},"geometry":{"x":176952.39000000153,"y":2541351.290000001}},{"attributes":{"ID":615347,"DIS_CODE":0,"TOWNNAME":"歸仁區","LI":"南保里","LIN":"2鄰","STREET":"民權北路","SECT":" ","MAREA":" ","LANE":" ","ALLEY":" ","HOUSE_NO":"１９５號","E_COORD97":177011.04000000001,"N_COORD97":2541348.29,"ADDRESS":"民權北路１９５號","OBJECTID":615320},"geometry":{"x":177011.0400000019,"y":2541348.2899999991}},{"attributes":{"ID":615348,"DIS_CODE":0,"TOWNNAME":"歸仁區","LI":"後市里","LIN":"2鄰","STREET":"大順街","SECT":" ","MAREA":" ","LANE":" ","ALLEY":" ","HOUSE_NO":"８３號","E_COORD97":177192.59,"N_COORD97":2540595.6800000002,"ADDRESS":"大順街８３號","OBJECTID":615321},"geometry":{"x":177192.59000000078,"y":2540595.6800000016}},{"attributes":{"ID":615349,"DIS_CODE":0,"TOWNNAME":"歸仁區","LI":"南保里","LIN":"2鄰","STREET":"民權二街","SECT":" ","MAREA":" ","LANE":" ","ALLEY":" ","HOUSE_NO":"４５號","E_COORD97":176950.48999999999,"N_COORD97":2541384.29,"ADDRESS":"民權二街４５號","OBJECTID":615322},"geometry":{"x":176950.48999999929,"y":2541384.290000001}},{"attributes":{"ID":615350,"DIS_CODE":0,"TOWNNAME":"歸仁區","LI":"南保里","LIN":"2鄰","STREET":"民權二街","SECT":" ","MAREA":" ","LANE":" ","ALLEY":" ","HOUSE_NO":"１７號","E_COORD97":176947.29000000001,"N_COORD97":2541352.29,"ADDRESS":"民權二街１７號","OBJECTID":615323},"geometry":{"x":176947.29000000097,"y":2541352.2899999991}},{"attributes":{"ID":615351,"DIS_CODE":0,"TOWNNAME":"中西區","LI":"西湖里","LIN":"14鄰","STREET":"湖美二街","SECT":" ","MAREA":" ","LANE":" ","ALLEY":" ","HOUSE_NO":"８３號","E_COORD97":166102.22,"N_COORD97":2544742.8399999999,"ADDRESS":"湖美二街８３號","OBJECTID":615324},"geometry":{"x":166102.21999999974,"y":2544742.8399999999}},{"attributes":{"ID":615352,"DIS_CODE":0,"TOWNNAME":"中西區","LI":"西湖里","LIN":"14鄰","STREET":"湖美二街","SECT":" ","MAREA":" ","LANE":" ","ALLEY":" ","HOUSE_NO":"７９號","E_COORD97":166117.79999999999,"N_COORD97":2544743.0099999998,"ADDRESS":"湖美二街７９號","OBJECTID":615325},"geometry":{"x":166117.80000000075,"y":2544743.0100000016}},{"attributes":{"ID":615353,"DIS_CODE":0,"TOWNNAME":"中西區","LI":"西湖里","LIN":"14鄰","STREET":"湖美二街","SECT":" ","MAREA":" ","LANE":" ","ALLEY":" ","HOUSE_NO":"８１號","E_COORD97":166110.01000000001,"N_COORD97":2544742.6699999999,"ADDRESS":"湖美二街８１號","OBJECTID":615326},"geometry":{"x":166110.01000000071,"y":2544742.6700000018}},{"attributes":{"ID":615354,"DIS_CODE":0,"TOWNNAME":"中西區","LI":"西湖里","LIN":"14鄰","STREET":"湖美二街","SECT":" ","MAREA":" ","LANE":" ","ALLEY":" ","HOUSE_NO":"９１號","E_COORD97":166120.17000000001,"N_COORD97":2544777.8999999999,"ADDRESS":"湖美二街９１號","OBJECTID":615327},"geometry":{"x":166120.17000000179,"y":2544777.9000000041}},{"attributes":{"ID":615355,"DIS_CODE":0,"TOWNNAME":"中西區","LI":"西湖里","LIN":"14鄰","STREET":"湖美二街","SECT":" ","MAREA":" ","LANE":" ","ALLEY":" ","HOUSE_NO":"９７號","E_COORD97":166100.53,"N_COORD97":2544777.73,"ADDRESS":"湖美二街９７號","OBJECTID":615328},"geometry":{"x":166100.53000000026,"y":2544777.7300000004}},{"attributes":{"ID":615356,"DIS_CODE":0,"TOWNNAME":"中西區","LI":"西湖里","LIN":"14鄰","STREET":"湖美二街","SECT":" ","MAREA":" ","LANE":" ","ALLEY":" ","HOUSE_NO":"９９號","E_COORD97":166100.19,"N_COORD97":2544791.1000000001,"ADDRESS":"湖美二街９９號","OBJECTID":615329},"geometry":{"x":166100.19000000227,"y":2544791.0999999996}},{"attributes":{"ID":615357,"DIS_CODE":0,"TOWNNAME":"歸仁區","LI":"文化里","LIN":"2鄰","STREET":"民族北街","SECT":" ","MAREA":" ","LANE":" ","ALLEY":" ","HOUSE_NO":"１５７號","E_COORD97":177458.70000000001,"N_COORD97":2541248.3300000001,"ADDRESS":"民族北街１５７號","OBJECTID":615330},"geometry":{"x":177458.70000000019,"y":2541248.3300000001}},{"attributes":{"ID":615358,"DIS_CODE":0,"TOWNNAME":"歸仁區","LI":"歸南里","LIN":"2鄰","STREET":"民權南路","SECT":" ","MAREA":" ","LANE":" ","ALLEY":" ","HOUSE_NO":"１９８號","E_COORD97":176947.98999999999,"N_COORD97":2540345.0299999998,"ADDRESS":"民權南路１９８號","OBJECTID":615331},"geometry":{"x":176947.99000000115,"y":2540345.0300000031}},{"attributes":{"ID":615359,"DIS_CODE":0,"TOWNNAME":"歸仁區","LI":"新厝里","LIN":"2鄰","STREET":"復興路","SECT":" ","MAREA":" ","LANE":" ","ALLEY":" ","HOUSE_NO":"１５４號","E_COORD97":177663.17000000001,"N_COORD97":2540649.25,"ADDRESS":"復興路１５４號","OBJECTID":615332},"geometry":{"x":177663.17000000086,"y":2540649.2500000037}},{"attributes":{"ID":615360,"DIS_CODE":0,"TOWNNAME":"歸仁區","LI":"新厝里","LIN":"2鄰","STREET":"復興路","SECT":" ","MAREA":" ","LANE":" ","ALLEY":" ","HOUSE_NO":"１２２號","E_COORD97":177710.37,"N_COORD97":2540643.25,"ADDRESS":"復興路１２２號","OBJECTID":615333},"geometry":{"x":177710.37000000011,"y":2540643.2500000019}},{"attributes":{"ID":615361,"DIS_CODE":0,"TOWNNAME":"歸仁區","LI":"歸仁里","LIN":"2鄰","STREET":"和平一街","SECT":" ","MAREA":" ","LANE":" ","ALLEY":" ","HOUSE_NO":"１４號","E_COORD97":177796.39000000001,"N_COORD97":2541081.04,"ADDRESS":"和平一街１４號","OBJECTID":615334},"geometry":{"x":177796.38999999966,"y":2541081.040000001}},{"attributes":{"ID":615362,"DIS_CODE":0,"TOWNNAME":"歸仁區","LI":"媽廟里","LIN":"2鄰","STREET":"媽廟一街","SECT":" ","MAREA":" ","LANE":" ","ALLEY":" ","HOUSE_NO":"２０號","E_COORD97":177460.13,"N_COORD97":2543543.7200000002,"ADDRESS":"媽廟一街２０號","OBJECTID":615335},"geometry":{"x":177460.13000000082,"y":2543543.7200000025}},{"attributes":{"ID":615363,"DIS_CODE":0,"TOWNNAME":"歸仁區","LI":"歸南里","LIN":"2鄰","STREET":"民權南路","SECT":" ","MAREA":" ","LANE":" ","ALLEY":" ","HOUSE_NO":"２２６號","E_COORD97":176945.69,"N_COORD97":2540282.0299999998,"ADDRESS":"民權南路２２６號","OBJECTID":615336},"geometry":{"x":176945.69000000041,"y":2540282.0300000012}},{"attributes":{"ID":615364,"DIS_CODE":0,"TOWNNAME":"歸仁區","LI":"歸仁里","LIN":"2鄰","STREET":"和平一街","SECT":" ","MAREA":" ","LANE":" ","ALLEY":" ","HOUSE_NO":"６號","E_COORD97":177819.64000000001,"N_COORD97":2541072.04,"ADDRESS":"和平一街６號","OBJECTID":615337},"geometry":{"x":177819.63999999966,"y":2541072.0399999991}},{"attributes":{"ID":615365,"DIS_CODE":0,"TOWNNAME":"新營區","LI":"忠政里","LIN":"2鄰","STREET":"民治路","SECT":" ","MAREA":" ","LANE":" ","ALLEY":" ","HOUSE_NO":"３６號","E_COORD97":179912.73000000001,"N_COORD97":2578949.6699999999,"ADDRESS":"民治路３６號","OBJECTID":615338},"geometry":{"x":179912.73000000138,"y":2578949.6699999999}},{"attributes":{"ID":615366,"DIS_CODE":0,"TOWNNAME":"新營區","LI":"忠政里","LIN":"2鄰","STREET":"民治路","SECT":" ","MAREA":" ","LANE":" ","ALLEY":" ","HOUSE_NO":"３４號","E_COORD97":180065.85000000001,"N_COORD97":2578885.8100000001,"ADDRESS":"民治路３４號","OBJECTID":615339},"geometry":{"x":180065.84999999963,"y":2578885.8099999987}},{"attributes":{"ID":615367,"DIS_CODE":0,"TOWNNAME":"新營區","LI":"忠政里","LIN":"2鄰","STREET":"民治路","SECT":" ","MAREA":" ","LANE":" ","ALLEY":" ","HOUSE_NO":"３８號","E_COORD97":180005.51000000001,"N_COORD97":2578888.3100000001,"ADDRESS":"民治路３８號","OBJECTID":615340},"geometry":{"x":180005.51000000071,"y":2578888.3100000005}},{"attributes":{"ID":615368,"DIS_CODE":0,"TOWNNAME":"新營區","LI":"新南里","LIN":"2鄰","STREET":"新北一街","SECT":" ","MAREA":" ","LANE":" ","ALLEY":" ","HOUSE_NO":"９１號","E_COORD97":178679,"N_COORD97":2578722.9900000002,"ADDRESS":"新北一街９１號","OBJECTID":615341},"geometry":{"x":178679,"y":2578722.9900000021}},{"attributes":{"ID":615369,"DIS_CODE":0,"TOWNNAME":"新營區","LI":"新南里","LIN":"2鄰","STREET":"新北一街","SECT":" ","MAREA":" ","LANE":" ","ALLEY":" ","HOUSE_NO":"５號","E_COORD97":178846.16,"N_COORD97":2578638.0099999998,"ADDRESS":"新北一街５號","OBJECTID":615342},"geometry":{"x":178846.16000000015,"y":2578638.0100000016}},{"attributes":{"ID":615370,"DIS_CODE":0,"TOWNNAME":"新營區","LI":"新南里","LIN":"2鄰","STREET":"新北一街","SECT":" ","MAREA":" ","LANE":" ","ALLEY":" ","HOUSE_NO":"１４號","E_COORD97":178807.5,"N_COORD97":2578638.21,"ADDRESS":"新北一街１４號","OBJECTID":615343},"geometry":{"x":178807.5,"y":2578638.2100000009}},{"attributes":{"ID":615371,"DIS_CODE":0,"TOWNNAME":"新營區","LI":"新南里","LIN":"2鄰","STREET":"新北一街","SECT":" ","MAREA":" ","LANE":" ","ALLEY":" ","HOUSE_NO":"９號","E_COORD97":178857.29999999999,"N_COORD97":2578624.6699999999,"ADDRESS":"新北一街９號","OBJECTID":615344},"geometry":{"x":178857.30000000075,"y":2578624.6699999999}},{"attributes":{"ID":615372,"DIS_CODE":0,"TOWNNAME":"新營區","LI":"新南里","LIN":"2鄰","STREET":"新北一街","SECT":" ","MAREA":" ","LANE":" ","ALLEY":" ","HOUSE_NO":"１２號","E_COORD97":178812.60999999999,"N_COORD97":2578635.9700000002,"ADDRESS":"新北一街１２號","OBJECTID":615345},"geometry":{"x":178812.61000000034,"y":2578635.9700000007}},{"attributes":{"ID":615373,"DIS_CODE":0,"TOWNNAME":"新營區","LI":"忠政里","LIN":"2鄰","STREET":"中正路","SECT":" ","MAREA":" ","LANE":" ","ALLEY":" ","HOUSE_NO":"３３號之１４","E_COORD97":180102.88,"N_COORD97":2579075.0800000001,"ADDRESS":"中正路３３號之１４","OBJECTID":615346},"geometry":{"x":180102.88000000082,"y":2579075.0800000019}},{"attributes":{"ID":615374,"DIS_CODE":0,"TOWNNAME":"新營區","LI":"新南里","LIN":"2鄰","STREET":"新北一街","SECT":" ","MAREA":" ","LANE":" ","ALLEY":" ","HOUSE_NO":"１６號","E_COORD97":178802.39999999999,"N_COORD97":2578639.3399999999,"ADDRESS":"新北一街１６號","OBJECTID":615347},"geometry":{"x":178802.39999999944,"y":2578639.3399999999}},{"attributes":{"ID":615375,"DIS_CODE":0,"TOWNNAME":"新營區","LI":"忠政里","LIN":"2鄰","STREET":"中正路","SECT":" ","MAREA":" ","LANE":" ","ALLEY":" ","HOUSE_NO":"３３號","E_COORD97":180102.26000000001,"N_COORD97":2579017.4199999999,"ADDRESS":"中正路３３號","OBJECTID":615348},"geometry":{"x":180102.25999999978,"y":2579017.4200000018}},{"attributes":{"ID":615376,"DIS_CODE":0,"TOWNNAME":"新營區","LI":"新南里","LIN":"2鄰","STREET":"新北一街","SECT":" ","MAREA":" ","LANE":" ","ALLEY":" ","HOUSE_NO":"２３號","E_COORD97":178847.34,"N_COORD97":2578613.6400000001,"ADDRESS":"新北一街２３號","OBJECTID":615349},"geometry":{"x":178847.33999999985,"y":2578613.6400000025}},{"attributes":{"ID":615377,"DIS_CODE":0,"TOWNNAME":"新營區","LI":"新南里","LIN":"2鄰","STREET":"新北一街","SECT":" ","MAREA":" ","LANE":" ","ALLEY":" ","HOUSE_NO":"２０號","E_COORD97":178793.26999999999,"N_COORD97":2578641.6000000001,"ADDRESS":"新北一街２０號","OBJECTID":615350},"geometry":{"x":178793.26999999955,"y":2578641.5999999996}},{"attributes":{"ID":615378,"DIS_CODE":0,"TOWNNAME":"新營區","LI":"新南里","LIN":"2鄰","STREET":"新北一街","SECT":" ","MAREA":" ","LANE":" ","ALLEY":" ","HOUSE_NO":"２５號","E_COORD97":178838.20000000001,"N_COORD97":2578625.8799999999,"ADDRESS":"新北一街２５號","OBJECTID":615351},"geometry":{"x":178838.20000000112,"y":2578625.879999999}},{"attributes":{"ID":615379,"DIS_CODE":0,"TOWNNAME":"新營區","LI":"三仙里","LIN":"2鄰","STREET":"正義街","SECT":" ","MAREA":" ","LANE":" ","ALLEY":" ","HOUSE_NO":"１０號之１","E_COORD97":179696.79000000001,"N_COORD97":2578061.46,"ADDRESS":"正義街１０號之１","OBJECTID":615352},"geometry":{"x":179696.79000000097,"y":2578061.4600000046}},{"attributes":{"ID":615380,"DIS_CODE":0,"TOWNNAME":"新營區","LI":"新北里","LIN":"2鄰","STREET":"三興街","SECT":" ","MAREA":" ","LANE":" ","ALLEY":" ","HOUSE_NO":"７１號","E_COORD97":179449.57000000001,"N_COORD97":2579001.6899999999,"ADDRESS":"三興街７１號","OBJECTID":615353},"geometry":{"x":179449.57000000123,"y":2579001.6900000013}},{"attributes":{"ID":615381,"DIS_CODE":0,"TOWNNAME":"新營區","LI":"延平里","LIN":"2鄰","STREET":"延平路","SECT":" ","MAREA":" ","LANE":" ","ALLEY":" ","HOUSE_NO":"４０之２號","E_COORD97":179763.70999999999,"N_COORD97":2577845.1899999999,"ADDRESS":"延平路４０之２號","OBJECTID":615354},"geometry":{"x":179763.70999999996,"y":2577845.1900000013}},{"attributes":{"ID":615382,"DIS_CODE":0,"TOWNNAME":"新營區","LI":"新北里","LIN":"2鄰","STREET":"三興街","SECT":" ","MAREA":" ","LANE":" ","ALLEY":" ","HOUSE_NO":"７３號","E_COORD97":179449.59,"N_COORD97":2579006.1200000001,"ADDRESS":"三興街７３號","OBJECTID":615355},"geometry":{"x":179449.58999999985,"y":2579006.120000001}},{"attributes":{"ID":615383,"DIS_CODE":0,"TOWNNAME":"新營區","LI":"新北里","LIN":"2鄰","STREET":"三興街","SECT":" ","MAREA":" ","LANE":" ","ALLEY":" ","HOUSE_NO":"７７號","E_COORD97":179445.54000000001,"N_COORD97":2579013.8900000001,"ADDRESS":"三興街７７號","OBJECTID":615356},"geometry":{"x":179445.54000000097,"y":2579013.8900000006}},{"attributes":{"ID":615384,"DIS_CODE":0,"TOWNNAME":"新營區","LI":"新北里","LIN":"2鄰","STREET":"三興街","SECT":" ","MAREA":" ","LANE":" ","ALLEY":" ","HOUSE_NO":"６３號之３","E_COORD97":179419.98999999999,"N_COORD97":2578984.1800000002,"ADDRESS":"三興街６３號之３","OBJECTID":615357},"geometry":{"x":179419.99000000022,"y":2578984.1800000034}},{"attributes":{"ID":615385,"DIS_CODE":0,"TOWNNAME":"新營區","LI":"新北里","LIN":"2鄰","STREET":"三興街","SECT":" ","MAREA":" ","LANE":" ","ALLEY":" ","HOUSE_NO":"６３號","E_COORD97":179446.38,"N_COORD97":2578979.5600000001,"ADDRESS":"三興街６３號","OBJECTID":615358},"geometry":{"x":179446.38000000175,"y":2578979.5600000024}},{"attributes":{"ID":615386,"DIS_CODE":0,"TOWNNAME":"新營區","LI":"新北里","LIN":"2鄰","STREET":"三興街","SECT":" ","MAREA":" ","LANE":" ","ALLEY":" ","HOUSE_NO":"５９號","E_COORD97":179440.07999999999,"N_COORD97":2578944.1600000001,"ADDRESS":"三興街５９號","OBJECTID":615359},"geometry":{"x":179440.08000000194,"y":2578944.1600000039}},{"attributes":{"ID":615387,"DIS_CODE":0,"TOWNNAME":"新營區","LI":"王公里","LIN":"2鄰","STREET":"義和街","SECT":" ","MAREA":" ","LANE":" ","ALLEY":" ","HOUSE_NO":"２５號","E_COORD97":180227.07999999999,"N_COORD97":2579027.9100000001,"ADDRESS":"義和街２５號","OBJECTID":615360},"geometry":{"x":180227.08000000101,"y":2579027.910000002}},{"attributes":{"ID":615388,"DIS_CODE":0,"TOWNNAME":"新營區","LI":"延平里","LIN":"2鄰","STREET":"延平路","SECT":" ","MAREA":" ","LANE":" ","ALLEY":" ","HOUSE_NO":"２２號","E_COORD97":179783.84,"N_COORD97":2577873.8300000001,"ADDRESS":"延平路２２號","OBJECTID":615361},"geometry":{"x":179783.84000000171,"y":2577873.8300000001}},{"attributes":{"ID":615389,"DIS_CODE":0,"TOWNNAME":"新營區","LI":"中營里","LIN":"2鄰","STREET":"中山路","SECT":" ","MAREA":" ","LANE":" ","ALLEY":" ","HOUSE_NO":"９８號","E_COORD97":180359.51999999999,"N_COORD97":2578284.1899999999,"ADDRESS":"中山路９８號","OBJECTID":615362},"geometry":{"x":180359.52000000048,"y":2578284.1899999995}},{"attributes":{"ID":615390,"DIS_CODE":0,"TOWNNAME":"新營區","LI":"新北里","LIN":"2鄰","STREET":"三興街","SECT":" ","MAREA":" ","LANE":" ","ALLEY":" ","HOUSE_NO":"７５號","E_COORD97":179447.57000000001,"N_COORD97":2579010.5600000001,"ADDRESS":"三興街７５號","OBJECTID":615363},"geometry":{"x":179447.57000000123,"y":2579010.5600000024}},{"attributes":{"ID":615391,"DIS_CODE":0,"TOWNNAME":"新營區","LI":"新北里","LIN":"2鄰","STREET":"三興街","SECT":" ","MAREA":" ","LANE":" ","ALLEY":" ","HOUSE_NO":"６３號之４","E_COORD97":179415.82000000001,"N_COORD97":2578983.0899999999,"ADDRESS":"三興街６３號之４","OBJECTID":615364},"geometry":{"x":179415.8200000003,"y":2578983.0900000017}},{"attributes":{"ID":615392,"DIS_CODE":0,"TOWNNAME":"新營區","LI":"大宏里","LIN":"2鄰","STREET":"民治路","SECT":" ","MAREA":" ","LANE":" ","ALLEY":" ","HOUSE_NO":"２５號","E_COORD97":180356.12,"N_COORD97":2578845.6899999999,"ADDRESS":"民治路２５號","OBJECTID":615365},"geometry":{"x":180356.12000000011,"y":2578845.6900000013}},{"attributes":{"ID":615393,"DIS_CODE":0,"TOWNNAME":"新營區","LI":"新北里","LIN":"2鄰","STREET":"三興街","SECT":" ","MAREA":" ","LANE":" ","ALLEY":" ","HOUSE_NO":"７１號之２","E_COORD97":179431.35999999999,"N_COORD97":2578997.4100000001,"ADDRESS":"三興街７１號之２","OBJECTID":615366},"geometry":{"x":179431.36000000034,"y":2578997.410000002}},{"attributes":{"ID":615394,"DIS_CODE":0,"TOWNNAME":"新營區","LI":"中營里","LIN":"2鄰","STREET":"文昌街","SECT":" ","MAREA":" ","LANE":" ","ALLEY":" ","HOUSE_NO":"３１號之４","E_COORD97":180327.10999999999,"N_COORD97":2578304.3300000001,"ADDRESS":"文昌街３１號之４","OBJECTID":615367},"geometry":{"x":180327.11000000127,"y":2578304.3300000001}},{"attributes":{"ID":615395,"DIS_CODE":0,"TOWNNAME":"新營區","LI":"新北里","LIN":"2鄰","STREET":"三興街","SECT":" ","MAREA":" ","LANE":" ","ALLEY":" ","HOUSE_NO":"６３號之２","E_COORD97":179425.13,"N_COORD97":2578984.1499999999,"ADDRESS":"三興街６３號之２","OBJECTID":615368},"geometry":{"x":179425.13000000082,"y":2578984.1500000004}},{"attributes":{"ID":615396,"DIS_CODE":0,"TOWNNAME":"新營區","LI":"新北里","LIN":"2鄰","STREET":"三興街","SECT":" ","MAREA":" ","LANE":" ","ALLEY":" ","HOUSE_NO":"７１之１號","E_COORD97":179436.70999999999,"N_COORD97":2578998.5,"ADDRESS":"三興街７１之１號","OBJECTID":615369},"geometry":{"x":179436.70999999996,"y":2578998.5}},{"attributes":{"ID":615397,"DIS_CODE":0,"TOWNNAME":"新營區","LI":"大宏里","LIN":"2鄰","STREET":"民族路","SECT":" ","MAREA":" ","LANE":" ","ALLEY":" ","HOUSE_NO":"５６號","E_COORD97":180289.54999999999,"N_COORD97":2578839.3599999999,"ADDRESS":"民族路５６號","OBJECTID":615370},"geometry":{"x":180289.55000000075,"y":2578839.3599999994}},{"attributes":{"ID":615398,"DIS_CODE":0,"TOWNNAME":"新營區","LI":"新北里","LIN":"2鄰","STREET":"三興街","SECT":" ","MAREA":" ","LANE":" ","ALLEY":" ","HOUSE_NO":"６７號","E_COORD97":179443.34,"N_COORD97":2578986.2200000002,"ADDRESS":"三興街６７號","OBJECTID":615371},"geometry":{"x":179443.34000000078,"y":2578986.2200000025}},{"attributes":{"ID":615399,"DIS_CODE":0,"TOWNNAME":"新營區","LI":"新北里","LIN":"2鄰","STREET":"三興街","SECT":" ","MAREA":" ","LANE":" ","ALLEY":" ","HOUSE_NO":"５９號之４","E_COORD97":179422.87,"N_COORD97":2578957.5899999999,"ADDRESS":"三興街５９號之４","OBJECTID":615372},"geometry":{"x":179422.87000000197,"y":2578957.5899999999}},{"attributes":{"ID":615400,"DIS_CODE":0,"TOWNNAME":"歸仁區","LI":"文化里","LIN":"2鄰","STREET":"民族北街","SECT":" ","MAREA":" ","LANE":" ","ALLEY":" ","HOUSE_NO":"２０３號","E_COORD97":177460.45999999999,"N_COORD97":2541338.25,"ADDRESS":"民族北街２０３號","OBJECTID":615373},"geometry":{"x":177460.45999999996,"y":2541338.2500000019}},{"attributes":{"ID":615401,"DIS_CODE":0,"TOWNNAME":"歸仁區","LI":"八甲里","LIN":"2鄰","STREET":"忠孝北路","SECT":" ","MAREA":" ","LANE":" ","ALLEY":" ","HOUSE_NO":"３３０號","E_COORD97":177870.87,"N_COORD97":2541565.6099999999,"ADDRESS":"忠孝北路３３０號","OBJECTID":615374},"geometry":{"x":177870.87000000104,"y":2541565.6100000013}},{"attributes":{"ID":615402,"DIS_CODE":0,"TOWNNAME":"歸仁區","LI":"八甲里","LIN":"2鄰","STREET":"忠孝北路","SECT":" ","MAREA":" ","LANE":" ","ALLEY":" ","HOUSE_NO":"３２０號","E_COORD97":177883.07000000001,"N_COORD97":2541548.6099999999,"ADDRESS":"忠孝北路３２０號","OBJECTID":615375},"geometry":{"x":177883.07000000123,"y":2541548.6100000013}},{"attributes":{"ID":615403,"DIS_CODE":0,"TOWNNAME":"歸仁區","LI":"文化里","LIN":"2鄰","STREET":"民族北街","SECT":" ","MAREA":" ","LANE":" ","ALLEY":" ","HOUSE_NO":"２１５號","E_COORD97":177462.66,"N_COORD97":2541365.25,"ADDRESS":"民族北街２１５號","OBJECTID":615376},"geometry":{"x":177462.66000000015,"y":2541365.2500000019}},{"attributes":{"ID":615404,"DIS_CODE":0,"TOWNNAME":"歸仁區","LI":"文化里","LIN":"2鄰","STREET":"民族北街","SECT":" ","MAREA":" ","LANE":" ","ALLEY":" ","HOUSE_NO":"１４７號","E_COORD97":177449.66,"N_COORD97":2541225.25,"ADDRESS":"民族北街１４７號","OBJECTID":615377},"geometry":{"x":177449.66000000108,"y":2541225.2499999981}},{"attributes":{"ID":615405,"DIS_CODE":0,"TOWNNAME":"歸仁區","LI":"六甲里","LIN":"2鄰","STREET":"中正南路","SECT":"一段","MAREA":" ","LANE":" ","ALLEY":" ","HOUSE_NO":"５７５號","E_COORD97":176747.01999999999,"N_COORD97":2539920.1800000002,"ADDRESS":"中正南路一段５７５號","OBJECTID":615378},"geometry":{"x":176747.02000000048,"y":2539920.1799999978}},{"attributes":{"ID":615406,"DIS_CODE":0,"TOWNNAME":"關廟區","LI":"北花里","LIN":"2鄰","STREET":"花園三街","SECT":" ","MAREA":" ","LANE":" ","ALLEY":" ","HOUSE_NO":"８８號","E_COORD97":181854.44,"N_COORD97":2540468.25,"ADDRESS":"花園三街８８號","OBJECTID":615379},"geometry":{"x":181854.44000000134,"y":2540468.25}},{"attributes":{"ID":615407,"DIS_CODE":0,"TOWNNAME":"關廟區","LI":"北花里","LIN":"2鄰","STREET":"花園三街","SECT":" ","MAREA":" ","LANE":" ","ALLEY":" ","HOUSE_NO":"６１號","E_COORD97":181898.54000000001,"N_COORD97":2540459.25,"ADDRESS":"花園三街６１號","OBJECTID":615380},"geometry":{"x":181898.54000000097,"y":2540459.2500000037}},{"attributes":{"ID":615408,"DIS_CODE":0,"TOWNNAME":"關廟區","LI":"東勢里","LIN":"2鄰","STREET":"東興路","SECT":" ","MAREA":" ","LANE":" ","ALLEY":" ","HOUSE_NO":"１５１號","E_COORD97":181565.37,"N_COORD97":2539571.25,"ADDRESS":"東興路１５１號","OBJECTID":615381},"geometry":{"x":181565.37000000011,"y":2539571.2500000037}},{"attributes":{"ID":615409,"DIS_CODE":0,"TOWNNAME":"關廟區","LI":"山西里","LIN":"2鄰","STREET":"武聖路","SECT":" ","MAREA":" ","LANE":" ","ALLEY":" ","HOUSE_NO":"３６號","E_COORD97":180933.09,"N_COORD97":2540201.25,"ADDRESS":"武聖路３６號","OBJECTID":615382},"geometry":{"x":180933.08999999985,"y":2540201.25}},{"attributes":{"ID":615410,"DIS_CODE":0,"TOWNNAME":"關廟區","LI":"下湖里","LIN":"2鄰","STREET":"關新路","SECT":"一段","MAREA":" ","LANE":" ","ALLEY":" ","HOUSE_NO":"４０３號","E_COORD97":179289.79000000001,"N_COORD97":2542883.2999999998,"ADDRESS":"關新路一段４０３號","OBJECTID":615383},"geometry":{"x":179289.79000000097,"y":2542883.3000000007}},{"attributes":{"ID":615411,"DIS_CODE":0,"TOWNNAME":"關廟區","LI":"山西里","LIN":"2鄰","STREET":"武聖路","SECT":" ","MAREA":" ","LANE":" ","ALLEY":" ","HOUSE_NO":"４０號","E_COORD97":180924.19,"N_COORD97":2540201.25,"ADDRESS":"武聖路４０號","OBJECTID":615384},"geometry":{"x":180924.19000000041,"y":2540201.25}},{"attributes":{"ID":615412,"DIS_CODE":0,"TOWNNAME":"關廟區","LI":"北花里","LIN":"2鄰","STREET":"花園三街","SECT":" ","MAREA":" ","LANE":" ","ALLEY":" ","HOUSE_NO":"４３號","E_COORD97":181937.64000000001,"N_COORD97":2540453.25,"ADDRESS":"花園三街４３號","OBJECTID":615385},"geometry":{"x":181937.63999999966,"y":2540453.2500000019}},{"attributes":{"ID":615413,"DIS_CODE":0,"TOWNNAME":"關廟區","LI":"山西里","LIN":"2鄰","STREET":"文衡路","SECT":" ","MAREA":" ","LANE":" ","ALLEY":" ","HOUSE_NO":"６６號","E_COORD97":180909.29000000001,"N_COORD97":2540204.3300000001,"ADDRESS":"文衡路６６號","OBJECTID":615386},"geometry":{"x":180909.29000000004,"y":2540204.3299999982}},{"attributes":{"ID":615414,"DIS_CODE":0,"TOWNNAME":"關廟區","LI":"北花里","LIN":"2鄰","STREET":"四維街","SECT":" ","MAREA":" ","LANE":" ","ALLEY":" ","HOUSE_NO":"３２７號","E_COORD97":181881.95999999999,"N_COORD97":2540443.25,"ADDRESS":"四維街３２７號","OBJECTID":615387},"geometry":{"x":181881.96000000183,"y":2540443.2500000019}},{"attributes":{"ID":615415,"DIS_CODE":0,"TOWNNAME":"關廟區","LI":"北花里","LIN":"2鄰","STREET":"花園三街","SECT":" ","MAREA":" ","LANE":" ","ALLEY":" ","HOUSE_NO":"４５號","E_COORD97":181933.04000000001,"N_COORD97":2540453.25,"ADDRESS":"花園三街４５號","OBJECTID":615388},"geometry":{"x":181933.04000000097,"y":2540453.2500000019}},{"attributes":{"ID":615416,"DIS_CODE":0,"TOWNNAME":"關廟區","LI":"北花里","LIN":"2鄰","STREET":"中正路","SECT":" ","MAREA":" ","LANE":" ","ALLEY":" ","HOUSE_NO":"６１２號","E_COORD97":181921.85999999999,"N_COORD97":2540410.25,"ADDRESS":"中正路６１２號","OBJECTID":615389},"geometry":{"x":181921.8600000022,"y":2540410.25}},{"attributes":{"ID":615417,"DIS_CODE":0,"TOWNNAME":"關廟區","LI":"北勢里","LIN":"2鄰","STREET":"北新街","SECT":" ","MAREA":" ","LANE":" ","ALLEY":" ","HOUSE_NO":"５２號","E_COORD97":181300.84,"N_COORD97":2540362.25,"ADDRESS":"北新街５２號","OBJECTID":615390},"geometry":{"x":181300.83999999985,"y":2540362.2500000019}},{"attributes":{"ID":615418,"DIS_CODE":0,"TOWNNAME":"關廟區","LI":"東勢里","LIN":"2鄰","STREET":"東興路","SECT":" ","MAREA":" ","LANE":" ","ALLEY":" ","HOUSE_NO":"１５７號","E_COORD97":181577.67000000001,"N_COORD97":2539570.25,"ADDRESS":"東興路１５７號","OBJECTID":615391},"geometry":{"x":181577.67000000086,"y":2539570.25}},{"attributes":{"ID":615419,"DIS_CODE":0,"TOWNNAME":"關廟區","LI":"北勢里","LIN":"2鄰","STREET":"北新街","SECT":" ","MAREA":" ","LANE":" ","ALLEY":" ","HOUSE_NO":"４０號","E_COORD97":181293.14000000001,"N_COORD97":2540340.25,"ADDRESS":"北新街４０號","OBJECTID":615392},"geometry":{"x":181293.13999999966,"y":2540340.25}},{"attributes":{"ID":615420,"DIS_CODE":0,"TOWNNAME":"關廟區","LI":"東勢里","LIN":"2鄰","STREET":"東興路","SECT":" ","MAREA":" ","LANE":" ","ALLEY":" ","HOUSE_NO":"１５５號","E_COORD97":181573.47,"N_COORD97":2539571.25,"ADDRESS":"東興路１５５號","OBJECTID":615393},"geometry":{"x":181573.47000000067,"y":2539571.2500000037}},{"attributes":{"ID":615421,"DIS_CODE":0,"TOWNNAME":"關廟區","LI":"北勢里","LIN":"2鄰","STREET":"中正路","SECT":" ","MAREA":" ","LANE":" ","ALLEY":" ","HOUSE_NO":"８７６號","E_COORD97":181305.45999999999,"N_COORD97":2540248.25,"ADDRESS":"中正路８７６號","OBJECTID":615394},"geometry":{"x":181305.46000000183,"y":2540248.25}},{"attributes":{"ID":615422,"DIS_CODE":0,"TOWNNAME":"關廟區","LI":"東勢里","LIN":"2鄰","STREET":"東興路","SECT":" ","MAREA":" ","LANE":" ","ALLEY":" ","HOUSE_NO":"１４９號","E_COORD97":181560.76999999999,"N_COORD97":2539571.25,"ADDRESS":"東興路１４９號","OBJECTID":615395},"geometry":{"x":181560.77000000048,"y":2539571.2500000037}},{"attributes":{"ID":615423,"DIS_CODE":0,"TOWNNAME":"關廟區","LI":"東勢里","LIN":"2鄰","STREET":"東興路","SECT":" ","MAREA":" ","LANE":" ","ALLEY":" ","HOUSE_NO":"１６３號","E_COORD97":181593.07000000001,"N_COORD97":2539570.25,"ADDRESS":"東興路１６３號","OBJECTID":615396},"geometry":{"x":181593.0700000003,"y":2539570.25}},{"attributes":{"ID":615424,"DIS_CODE":0,"TOWNNAME":"關廟區","LI":"北花里","LIN":"2鄰","STREET":"四維街","SECT":" ","MAREA":" ","LANE":" ","ALLEY":" ","HOUSE_NO":"４２２號","E_COORD97":181893.45999999999,"N_COORD97":2540431.25,"ADDRESS":"四維街４２２號","OBJECTID":615397},"geometry":{"x":181893.45999999996,"y":2540431.25}},{"attributes":{"ID":615425,"DIS_CODE":0,"TOWNNAME":"關廟區","LI":"北花里","LIN":"2鄰","STREET":"中正路","SECT":" ","MAREA":" ","LANE":" ","ALLEY":" ","HOUSE_NO":"６２２號","E_COORD97":181898.45999999999,"N_COORD97":2540414.25,"ADDRESS":"中正路６２２號","OBJECTID":615398},"geometry":{"x":181898.45999999996,"y":2540414.25}},{"attributes":{"ID":615426,"DIS_CODE":0,"TOWNNAME":"關廟區","LI":"北花里","LIN":"2鄰","STREET":"中正路","SECT":" ","MAREA":" ","LANE":" ","ALLEY":" ","HOUSE_NO":"６２６號","E_COORD97":181893.45999999999,"N_COORD97":2540416.25,"ADDRESS":"中正路６２６號","OBJECTID":615399},"geometry":{"x":181893.45999999996,"y":2540416.2500000019}},{"attributes":{"ID":615427,"DIS_CODE":0,"TOWNNAME":"關廟區","LI":"北花里","LIN":"2鄰","STREET":"花園三街","SECT":" ","MAREA":" ","LANE":" ","ALLEY":" ","HOUSE_NO":"５７號","E_COORD97":181908.14000000001,"N_COORD97":2540458.25,"ADDRESS":"花園三街５７號","OBJECTID":615400},"geometry":{"x":181908.1400000006,"y":2540458.25}}]}