{"displayFieldName":"TOWNNAME","fieldAliases":{"ID":"ID","DIS_CODE":"DIS_CODE","TOWNNAME":"TOWNNAME","LI":"LI","LIN":"LIN","STREET":"STREET","SECT":"SECT","MAREA":"MAREA","LANE":"LANE","ALLEY":"ALLEY","HOUSE_NO":"HOUSE_NO","E_COORD97":"E_COORD97","N_COORD97":"N_COORD97","ADDRESS":"ADDRESS","OBJECTID":"OBJECTID"},"geometryType":"esriGeometryPoint","spatialReference":{"wkid":102443,"latestWkid":3826},"fields":[{"name":"ID","type":"esriFieldTypeDouble","alias":"ID"},{"name":"DIS_CODE","type":"esriFieldTypeInteger","alias":"DIS_CODE"},{"name":"TOWNNAME","type":"esriFieldTypeString","alias":"TOWNNAME","length":8},{"name":"LI","type":"esriFieldTypeString","alias":"LI","length":8},{"name":"LIN","type":"esriFieldTypeString","alias":"LIN","length":12},{"name":"STREET","type":"esriFieldTypeString","alias":"STREET","length":20},{"name":"SECT","type":"esriFieldTypeString","alias":"SECT","length":8},{"name":"MAREA","type":"esriFieldTypeString","alias":"MAREA","length":12},{"name":"LANE","type":"esriFieldTypeString","alias":"LANE","length":10},{"name":"ALLEY","type":"esriFieldTypeString","alias":"ALLEY","length":10},{"name":"HOUSE_NO","type":"esriFieldTypeString","alias":"HOUSE_NO","length":20},{"name":"E_COORD97","type":"esriFieldTypeDouble","alias":"E_COORD97"},{"name":"N_COORD97","type":"esriFieldTypeDouble","alias":"N_COORD97"},{"name":"ADDRESS","type":"esriFieldTypeString","alias":"ADDRESS","length":50},{"name":"OBJECTID","type":"esriFieldTypeOID","alias":"OBJECTID"}],"features":[{"attributes":{"ID":332610,"DIS_CODE":0,"TOWNNAME":"東區","LI":"泉南里","LIN":"30鄰","STREET":"府連路","SECT":" ","MAREA":" ","LANE":" ","ALLEY":" ","HOUSE_NO":"２６５號","E_COORD97":169462.17999999999,"N_COORD97":2542891.6800000002,"ADDRESS":"府連路２６５號","OBJECTID":332601},"geometry":{"x":169462.1799999997,"y":2542891.6800000016}},{"attributes":{"ID":332611,"DIS_CODE":0,"TOWNNAME":"東區","LI":"泉南里","LIN":"30鄰","STREET":"府連路","SECT":" ","MAREA":" ","LANE":" ","ALLEY":" ","HOUSE_NO":"２６７號","E_COORD97":169465.67000000001,"N_COORD97":2542890.6600000001,"ADDRESS":"府連路２６７號","OBJECTID":332602},"geometry":{"x":169465.66999999993,"y":2542890.6600000001}},{"attributes":{"ID":332612,"DIS_CODE":0,"TOWNNAME":"東區","LI":"圍下里","LIN":"19鄰","STREET":"慶東街","SECT":" ","MAREA":" ","LANE":" ","ALLEY":" ","HOUSE_NO":"１１５號","E_COORD97":169649.39999999999,"N_COORD97":2543349.2599999998,"ADDRESS":"慶東街１１５號","OBJECTID":332603},"geometry":{"x":169649.40000000037,"y":2543349.2599999998}},{"attributes":{"ID":332613,"DIS_CODE":0,"TOWNNAME":"東區","LI":"圍下里","LIN":"19鄰","STREET":"慶東街","SECT":" ","MAREA":" ","LANE":" ","ALLEY":" ","HOUSE_NO":"１１９號","E_COORD97":169654.13,"N_COORD97":2543365.0499999998,"ADDRESS":"慶東街１１９號","OBJECTID":332604},"geometry":{"x":169654.12999999989,"y":2543365.0500000026}},{"attributes":{"ID":332614,"DIS_CODE":0,"TOWNNAME":"東區","LI":"圍下里","LIN":"19鄰","STREET":"慶東街","SECT":" ","MAREA":" ","LANE":" ","ALLEY":" ","HOUSE_NO":"１２１號","E_COORD97":169654.13,"N_COORD97":2543371.0899999999,"ADDRESS":"慶東街１２１號","OBJECTID":332605},"geometry":{"x":169654.12999999989,"y":2543371.0899999999}},{"attributes":{"ID":332615,"DIS_CODE":0,"TOWNNAME":"東區","LI":"圍下里","LIN":"19鄰","STREET":"慶東街","SECT":" ","MAREA":" ","LANE":" ","ALLEY":" ","HOUSE_NO":"１２３號","E_COORD97":169649.79000000001,"N_COORD97":2543376.6000000001,"ADDRESS":"慶東街１２３號","OBJECTID":332606},"geometry":{"x":169649.79000000004,"y":2543376.6000000015}},{"attributes":{"ID":332616,"DIS_CODE":0,"TOWNNAME":"東區","LI":"小東里","LIN":"19鄰","STREET":"東興路","SECT":" ","MAREA":" ","LANE":" ","ALLEY":" ","HOUSE_NO":"３３０號","E_COORD97":171069.56,"N_COORD97":2544130.8799999999,"ADDRESS":"東興路３３０號","OBJECTID":332607},"geometry":{"x":171069.56000000052,"y":2544130.879999999}},{"attributes":{"ID":332617,"DIS_CODE":0,"TOWNNAME":"東區","LI":"小東里","LIN":"19鄰","STREET":"東興路","SECT":" ","MAREA":" ","LANE":" ","ALLEY":" ","HOUSE_NO":"３３４號","E_COORD97":171069.09,"N_COORD97":2544139.7999999998,"ADDRESS":"東興路３３４號","OBJECTID":332608},"geometry":{"x":171069.09000000078,"y":2544139.8000000026}},{"attributes":{"ID":332618,"DIS_CODE":0,"TOWNNAME":"新市區","LI":"港墘里","LIN":"8鄰","STREET":" ","SECT":" ","MAREA":"崙頂","LANE":" ","ALLEY":" ","HOUSE_NO":"８之１號","E_COORD97":179003.385109,"N_COORD97":2552728.41579,"ADDRESS":"崙頂８之１號","OBJECTID":332609},"geometry":{"x":179003.38510899991,"y":2552728.4157940019}},{"attributes":{"ID":332619,"DIS_CODE":0,"TOWNNAME":"仁德區","LI":"一甲里","LIN":"9鄰","STREET":"中正路","SECT":"三段","MAREA":" ","LANE":"２４２巷","ALLEY":" ","HOUSE_NO":"２５號","E_COORD97":173749.74825599999,"N_COORD97":2541987.94368,"ADDRESS":"中正路三段２４２巷２５號","OBJECTID":332610},"geometry":{"x":173749.74825600069,"y":2541987.9436820038}},{"attributes":{"ID":332620,"DIS_CODE":0,"TOWNNAME":"新市區","LI":"港墘里","LIN":"27鄰","STREET":"華美街","SECT":" ","MAREA":" ","LANE":"４９巷","ALLEY":" ","HOUSE_NO":"３３號","E_COORD97":178050.436972,"N_COORD97":2552964.6356700002,"ADDRESS":"華美街４９巷３３號","OBJECTID":332611},"geometry":{"x":178050.43697200064,"y":2552964.6356660016}},{"attributes":{"ID":332621,"DIS_CODE":0,"TOWNNAME":"新市區","LI":"港墘里","LIN":"27鄰","STREET":"華美街","SECT":" ","MAREA":" ","LANE":"４９巷","ALLEY":" ","HOUSE_NO":"３５號","E_COORD97":178044.92737700001,"N_COORD97":2552966.9640000002,"ADDRESS":"華美街４９巷３５號","OBJECTID":332612},"geometry":{"x":178044.92737700045,"y":2552966.9639980011}},{"attributes":{"ID":332622,"DIS_CODE":0,"TOWNNAME":"仁德區","LI":"保安里","LIN":"3鄰","STREET":"保安路","SECT":"一段","MAREA":" ","LANE":"７２巷","ALLEY":" ","HOUSE_NO":"１６號","E_COORD97":170812.61043500001,"N_COORD97":2536236.0807400001,"ADDRESS":"保安路一段７２巷１６號","OBJECTID":332613},"geometry":{"x":170812.61043500062,"y":2536236.0807409994}},{"attributes":{"ID":332623,"DIS_CODE":0,"TOWNNAME":"歸仁區","LI":"西埔里","LIN":"7鄰","STREET":"保大路","SECT":"二段","MAREA":" ","LANE":" ","ALLEY":" ","HOUSE_NO":"２０號","E_COORD97":177341.456385,"N_COORD97":2544133.2827699999,"ADDRESS":"保大路二段２０號","OBJECTID":332614},"geometry":{"x":177341.45638500061,"y":2544133.2827730011}},{"attributes":{"ID":332624,"DIS_CODE":0,"TOWNNAME":"仁德區","LI":"仁德里","LIN":"7鄰","STREET":"仁德三街","SECT":" ","MAREA":" ","LANE":" ","ALLEY":" ","HOUSE_NO":"２４號","E_COORD97":173279.699746,"N_COORD97":2540994.0276100002,"ADDRESS":"仁德三街２４號","OBJECTID":332615},"geometry":{"x":173279.69974600058,"y":2540994.0276120026}},{"attributes":{"ID":332625,"DIS_CODE":0,"TOWNNAME":"仁德區","LI":"仁德里","LIN":"3鄰","STREET":"仁中七街","SECT":" ","MAREA":" ","LANE":" ","ALLEY":" ","HOUSE_NO":"１０９號","E_COORD97":173193.800617,"N_COORD97":2540379.1693500001,"ADDRESS":"仁中七街１０９號","OBJECTID":332616},"geometry":{"x":173193.80061700195,"y":2540379.169350002}},{"attributes":{"ID":332626,"DIS_CODE":0,"TOWNNAME":"仁德區","LI":"仁德里","LIN":"3鄰","STREET":"仁中七街","SECT":" ","MAREA":" ","LANE":" ","ALLEY":" ","HOUSE_NO":"１１１號","E_COORD97":173189.35139500001,"N_COORD97":2540379.2222699998,"ADDRESS":"仁中七街１１１號","OBJECTID":332617},"geometry":{"x":173189.3513950007,"y":2540379.222267}},{"attributes":{"ID":332627,"DIS_CODE":0,"TOWNNAME":"仁德區","LI":"仁德里","LIN":"3鄰","STREET":"仁中七街","SECT":" ","MAREA":" ","LANE":" ","ALLEY":" ","HOUSE_NO":"１１３號","E_COORD97":173185.11403999999,"N_COORD97":2540379.6455999999,"ADDRESS":"仁中七街１１３號","OBJECTID":332618},"geometry":{"x":173185.1140400013,"y":2540379.6456000023}},{"attributes":{"ID":332628,"DIS_CODE":0,"TOWNNAME":"仁德區","LI":"仁德里","LIN":"3鄰","STREET":"仁中七街","SECT":" ","MAREA":" ","LANE":" ","ALLEY":" ","HOUSE_NO":"１１５號","E_COORD97":173180.34701600001,"N_COORD97":2540379.7514300002,"ADDRESS":"仁中七街１１５號","OBJECTID":332619},"geometry":{"x":173180.34701600019,"y":2540379.7514330037}},{"attributes":{"ID":332629,"DIS_CODE":0,"TOWNNAME":"仁德區","LI":"仁德里","LIN":"3鄰","STREET":"仁中七街","SECT":" ","MAREA":" ","LANE":" ","ALLEY":" ","HOUSE_NO":"１１７號","E_COORD97":173175.79185899999,"N_COORD97":2540380.2806000002,"ADDRESS":"仁中七街１１７號","OBJECTID":332620},"geometry":{"x":173175.79185899999,"y":2540380.280600002}},{"attributes":{"ID":332630,"DIS_CODE":0,"TOWNNAME":"仁德區","LI":"仁德里","LIN":"3鄰","STREET":"仁中七街","SECT":" ","MAREA":" ","LANE":" ","ALLEY":" ","HOUSE_NO":"１１９號","E_COORD97":173171.554504,"N_COORD97":2540380.5981000001,"ADDRESS":"仁中七街１１９號","OBJECTID":332621},"geometry":{"x":173171.55450400058,"y":2540380.5980990008}},{"attributes":{"ID":332631,"DIS_CODE":0,"TOWNNAME":"仁德區","LI":"仁德里","LIN":"3鄰","STREET":"仁中七街","SECT":" ","MAREA":" ","LANE":" ","ALLEY":" ","HOUSE_NO":"１２１號","E_COORD97":173167.105282,"N_COORD97":2540380.9155999999,"ADDRESS":"仁中七街１２１號","OBJECTID":332622},"geometry":{"x":173167.10528200027,"y":2540380.9155990016}},{"attributes":{"ID":332632,"DIS_CODE":0,"TOWNNAME":"仁德區","LI":"仁德里","LIN":"3鄰","STREET":"仁中七街","SECT":" ","MAREA":" ","LANE":" ","ALLEY":" ","HOUSE_NO":"１２３號","E_COORD97":173163.50352999999,"N_COORD97":2540381.3389300001,"ADDRESS":"仁中七街１２３號","OBJECTID":332623},"geometry":{"x":173163.50353000127,"y":2540381.3389320001}},{"attributes":{"ID":332633,"DIS_CODE":0,"TOWNNAME":"仁德區","LI":"仁德里","LIN":"3鄰","STREET":"仁中七街","SECT":" ","MAREA":" ","LANE":" ","ALLEY":" ","HOUSE_NO":"１２５號","E_COORD97":173158.73650599999,"N_COORD97":2540381.4447699999,"ADDRESS":"仁中七街１２５號","OBJECTID":332624},"geometry":{"x":173158.73650600109,"y":2540381.4447660018}},{"attributes":{"ID":332634,"DIS_CODE":0,"TOWNNAME":"歸仁區","LI":"西埔里","LIN":"8鄰","STREET":"保大路","SECT":"二段","MAREA":" ","LANE":" ","ALLEY":" ","HOUSE_NO":"２１０號","E_COORD97":176811.62263900001,"N_COORD97":2544156.6324499999,"ADDRESS":"保大路二段２１０號","OBJECTID":332625},"geometry":{"x":176811.62263899948,"y":2544156.6324520018}},{"attributes":{"ID":332635,"DIS_CODE":0,"TOWNNAME":"歸仁區","LI":"西埔里","LIN":"8鄰","STREET":"保大路","SECT":"二段","MAREA":" ","LANE":" ","ALLEY":" ","HOUSE_NO":"３５０號","E_COORD97":176543.50548200001,"N_COORD97":2544125.72914,"ADDRESS":"保大路二段３５０號","OBJECTID":332626},"geometry":{"x":176543.50548199937,"y":2544125.7291349992}},{"attributes":{"ID":332636,"DIS_CODE":0,"TOWNNAME":"仁德區","LI":"大甲里","LIN":"2鄰","STREET":"行大一街","SECT":" ","MAREA":" ","LANE":" ","ALLEY":" ","HOUSE_NO":"１９７號","E_COORD97":169914.61434,"N_COORD97":2534980.1554700001,"ADDRESS":"行大一街１９７號","OBJECTID":332627},"geometry":{"x":169914.61433999985,"y":2534980.1554670036}},{"attributes":{"ID":332637,"DIS_CODE":0,"TOWNNAME":"安南區","LI":"淵東里","LIN":"15鄰","STREET":"安中路","SECT":"三段","MAREA":" ","LANE":"４００巷","ALLEY":" ","HOUSE_NO":"１６９號","E_COORD97":165541.41,"N_COORD97":2550254.7000000002,"ADDRESS":"安中路三段４００巷１６９號","OBJECTID":332628},"geometry":{"x":165541.41000000108,"y":2550254.7000000011}},{"attributes":{"ID":332638,"DIS_CODE":0,"TOWNNAME":"安南區","LI":"淵東里","LIN":"15鄰","STREET":"安中路","SECT":"三段","MAREA":" ","LANE":"４００巷","ALLEY":" ","HOUSE_NO":"１７１號","E_COORD97":165539.56,"N_COORD97":2550273.8900000001,"ADDRESS":"安中路三段４００巷１７１號","OBJECTID":332629},"geometry":{"x":165539.56000000052,"y":2550273.8899999987}},{"attributes":{"ID":332639,"DIS_CODE":0,"TOWNNAME":"安南區","LI":"淵東里","LIN":"15鄰","STREET":"安中路","SECT":"三段","MAREA":" ","LANE":"４００巷","ALLEY":" ","HOUSE_NO":"１７３號","E_COORD97":165544.60000000001,"N_COORD97":2550274.8999999999,"ADDRESS":"安中路三段４００巷１７３號","OBJECTID":332630},"geometry":{"x":165544.60000000056,"y":2550274.9000000022}},{"attributes":{"ID":332640,"DIS_CODE":0,"TOWNNAME":"仁德區","LI":"後壁里","LIN":"31鄰","STREET":"德洋路","SECT":" ","MAREA":" ","LANE":" ","ALLEY":" ","HOUSE_NO":"１２８號","E_COORD97":172704.99602600001,"N_COORD97":2539324.9042600002,"ADDRESS":"德洋路１２８號","OBJECTID":332631},"geometry":{"x":172704.99602600187,"y":2539324.9042630028}},{"attributes":{"ID":332641,"DIS_CODE":0,"TOWNNAME":"仁德區","LI":"後壁里","LIN":"31鄰","STREET":"德洋路","SECT":" ","MAREA":" ","LANE":" ","ALLEY":" ","HOUSE_NO":"１３０號","E_COORD97":172659.655363,"N_COORD97":2539341.2025899999,"ADDRESS":"德洋路１３０號","OBJECTID":332632},"geometry":{"x":172659.65536299907,"y":2539341.2025870029}},{"attributes":{"ID":332642,"DIS_CODE":0,"TOWNNAME":"仁德區","LI":"一甲里","LIN":"9鄰","STREET":"中正路","SECT":"三段","MAREA":" ","LANE":" ","ALLEY":" ","HOUSE_NO":"２５６號","E_COORD97":173662.100347,"N_COORD97":2542117.81825,"ADDRESS":"中正路三段２５６號","OBJECTID":332633},"geometry":{"x":173662.10034700017,"y":2542117.8182470035}},{"attributes":{"ID":332643,"DIS_CODE":0,"TOWNNAME":"仁德區","LI":"一甲里","LIN":"9鄰","STREET":"中正路","SECT":"三段","MAREA":" ","LANE":" ","ALLEY":" ","HOUSE_NO":"２５２號","E_COORD97":173615.904366,"N_COORD97":2542059.5041100001,"ADDRESS":"中正路三段２５２號","OBJECTID":332634},"geometry":{"x":173615.90436600056,"y":2542059.5041119996}},{"attributes":{"ID":332644,"DIS_CODE":0,"TOWNNAME":"仁德區","LI":"新田里","LIN":"5鄰","STREET":"勝利路","SECT":" ","MAREA":" ","LANE":" ","ALLEY":" ","HOUSE_NO":"３７２號","E_COORD97":174956.38553699999,"N_COORD97":2539383.10855,"ADDRESS":"勝利路３７２號","OBJECTID":332635},"geometry":{"x":174956.3855370013,"y":2539383.1085519996}},{"attributes":{"ID":332645,"DIS_CODE":0,"TOWNNAME":"安南區","LI":"淵東里","LIN":"15鄰","STREET":"安中路","SECT":"三段","MAREA":" ","LANE":"４００巷","ALLEY":" ","HOUSE_NO":"１８９號","E_COORD97":165566.5,"N_COORD97":2550290.6499999999,"ADDRESS":"安中路三段４００巷１８９號","OBJECTID":332636},"geometry":{"x":165566.5,"y":2550290.6500000022}},{"attributes":{"ID":332646,"DIS_CODE":0,"TOWNNAME":"安南區","LI":"淵東里","LIN":"15鄰","STREET":"安中路","SECT":"三段","MAREA":" ","LANE":"４００巷","ALLEY":" ","HOUSE_NO":"１９１號","E_COORD97":165566.07000000001,"N_COORD97":2550293.9100000001,"ADDRESS":"安中路三段４００巷１９１號","OBJECTID":332637},"geometry":{"x":165566.07000000123,"y":2550293.9100000039}},{"attributes":{"ID":332647,"DIS_CODE":0,"TOWNNAME":"安南區","LI":"淵東里","LIN":"15鄰","STREET":"安中路","SECT":"三段","MAREA":" ","LANE":"４００巷","ALLEY":" ","HOUSE_NO":"１９５號","E_COORD97":165565.70999999999,"N_COORD97":2550304.0600000001,"ADDRESS":"安中路三段４００巷１９５號","OBJECTID":332638},"geometry":{"x":165565.71000000183,"y":2550304.0600000024}},{"attributes":{"ID":332648,"DIS_CODE":0,"TOWNNAME":"安南區","LI":"淵東里","LIN":"15鄰","STREET":"安中路","SECT":"三段","MAREA":" ","LANE":"４００巷","ALLEY":" ","HOUSE_NO":"１９７號","E_COORD97":165564.19,"N_COORD97":2550308.8199999998,"ADDRESS":"安中路三段４００巷１９７號","OBJECTID":332639},"geometry":{"x":165564.19000000041,"y":2550308.8200000022}},{"attributes":{"ID":332649,"DIS_CODE":0,"TOWNNAME":"安南區","LI":"淵東里","LIN":"15鄰","STREET":"安中路","SECT":"三段","MAREA":" ","LANE":"４００巷","ALLEY":" ","HOUSE_NO":"１９９號","E_COORD97":165563.76000000001,"N_COORD97":2550313.3599999999,"ADDRESS":"安中路三段４００巷１９９號","OBJECTID":332640},"geometry":{"x":165563.76000000071,"y":2550313.3599999994}},{"attributes":{"ID":332650,"DIS_CODE":0,"TOWNNAME":"安南區","LI":"佃西里","LIN":"15鄰","STREET":"海佃路","SECT":"四段","MAREA":" ","LANE":"４５６巷","ALLEY":" ","HOUSE_NO":"３１號","E_COORD97":165443.48999999999,"N_COORD97":2551623.8199999998,"ADDRESS":"海佃路四段４５６巷３１號","OBJECTID":332641},"geometry":{"x":165443.49000000022,"y":2551623.820000004}},{"attributes":{"ID":332651,"DIS_CODE":0,"TOWNNAME":"安南區","LI":"佃西里","LIN":"15鄰","STREET":"海佃路","SECT":"四段","MAREA":" ","LANE":"４５６巷","ALLEY":" ","HOUSE_NO":"３３號","E_COORD97":165445.10000000001,"N_COORD97":2551629.6299999999,"ADDRESS":"海佃路四段４５６巷３３號","OBJECTID":332642},"geometry":{"x":165445.09999999963,"y":2551629.629999999}},{"attributes":{"ID":332652,"DIS_CODE":0,"TOWNNAME":"安南區","LI":"佃西里","LIN":"15鄰","STREET":"海佃路","SECT":"四段","MAREA":" ","LANE":"４５６巷","ALLEY":" ","HOUSE_NO":"３５號","E_COORD97":165443.01000000001,"N_COORD97":2551633.6499999999,"ADDRESS":"海佃路四段４５６巷３５號","OBJECTID":332643},"geometry":{"x":165443.01000000164,"y":2551633.6500000004}},{"attributes":{"ID":332653,"DIS_CODE":0,"TOWNNAME":"安南區","LI":"佃西里","LIN":"15鄰","STREET":"海佃路","SECT":"四段","MAREA":" ","LANE":"４５６巷","ALLEY":" ","HOUSE_NO":"３７號","E_COORD97":165443.17000000001,"N_COORD97":2551637.3599999999,"ADDRESS":"海佃路四段４５６巷３７號","OBJECTID":332644},"geometry":{"x":165443.16999999993,"y":2551637.3600000013}},{"attributes":{"ID":332654,"DIS_CODE":0,"TOWNNAME":"仁德區","LI":"仁德里","LIN":"3鄰","STREET":"仁中七街","SECT":" ","MAREA":" ","LANE":" ","ALLEY":" ","HOUSE_NO":"７３號","E_COORD97":173217.668553,"N_COORD97":2540357.5793599999,"ADDRESS":"仁中七街７３號","OBJECTID":332645},"geometry":{"x":173217.66855300032,"y":2540357.5793620013}},{"attributes":{"ID":332655,"DIS_CODE":0,"TOWNNAME":"歸仁區","LI":"西埔里","LIN":"2鄰","STREET":"保大路","SECT":"二段","MAREA":" ","LANE":"１６５巷","ALLEY":" ","HOUSE_NO":"１９號","E_COORD97":176907.03799700001,"N_COORD97":2544081.0011399998,"ADDRESS":"保大路二段１６５巷１９號","OBJECTID":332646},"geometry":{"x":176907.03799699992,"y":2544081.0011349991}},{"attributes":{"ID":332656,"DIS_CODE":0,"TOWNNAME":"歸仁區","LI":"西埔里","LIN":"2鄰","STREET":"保大路","SECT":"二段","MAREA":" ","LANE":"１６５巷","ALLEY":" ","HOUSE_NO":"２１號","E_COORD97":176875.86898,"N_COORD97":2544063.22114,"ADDRESS":"保大路二段１６５巷２１號","OBJECTID":332647},"geometry":{"x":176875.8689799998,"y":2544063.2211440019}},{"attributes":{"ID":332657,"DIS_CODE":0,"TOWNNAME":"歸仁區","LI":"西埔里","LIN":"2鄰","STREET":"保大路","SECT":"二段","MAREA":" ","LANE":"１６５巷","ALLEY":" ","HOUSE_NO":"２３號","E_COORD97":176859.118284,"N_COORD97":2544053.4844800001,"ADDRESS":"保大路二段１６５巷２３號","OBJECTID":332648},"geometry":{"x":176859.11828400008,"y":2544053.4844830018}},{"attributes":{"ID":332658,"DIS_CODE":0,"TOWNNAME":"歸仁區","LI":"西埔里","LIN":"5鄰","STREET":"保大路","SECT":"二段","MAREA":" ","LANE":"１７０巷","ALLEY":" ","HOUSE_NO":"７８號","E_COORD97":176990.15537600001,"N_COORD97":2544281.44936,"ADDRESS":"保大路二段１７０巷７８號","OBJECTID":332649},"geometry":{"x":176990.15537600033,"y":2544281.44936}},{"attributes":{"ID":332659,"DIS_CODE":0,"TOWNNAME":"仁德區","LI":"一甲里","LIN":"11鄰","STREET":"忠義一街","SECT":" ","MAREA":" ","LANE":"３８巷","ALLEY":" ","HOUSE_NO":"７號","E_COORD97":174052.66425599999,"N_COORD97":2542142.9007299999,"ADDRESS":"忠義一街３８巷７號","OBJECTID":332650},"geometry":{"x":174052.66425600089,"y":2542142.9007330015}},{"attributes":{"ID":332660,"DIS_CODE":0,"TOWNNAME":"仁德區","LI":"一甲里","LIN":"12鄰","STREET":"忠義路","SECT":" ","MAREA":" ","LANE":"３４１巷","ALLEY":" ","HOUSE_NO":"１１號","E_COORD97":173570.374323,"N_COORD97":2541835.07938,"ADDRESS":"忠義路３４１巷１１號","OBJECTID":332651},"geometry":{"x":173570.3743230002,"y":2541835.0793760009}},{"attributes":{"ID":332661,"DIS_CODE":0,"TOWNNAME":"仁德區","LI":"一甲里","LIN":"12鄰","STREET":"忠義路","SECT":" ","MAREA":" ","LANE":"３４１巷","ALLEY":" ","HOUSE_NO":"２之２號","E_COORD97":173544.06748999999,"N_COORD97":2541858.8680699999,"ADDRESS":"忠義路３４１巷２之２號","OBJECTID":332652},"geometry":{"x":173544.06749000028,"y":2541858.8680699989}},{"attributes":{"ID":332662,"DIS_CODE":0,"TOWNNAME":"仁德區","LI":"一甲里","LIN":"12鄰","STREET":"忠義路","SECT":" ","MAREA":" ","LANE":"３４１巷","ALLEY":" ","HOUSE_NO":"２之１號","E_COORD97":173549.57709999999,"N_COORD97":2541857.1747400002,"ADDRESS":"忠義路３４１巷２之１號","OBJECTID":332653},"geometry":{"x":173549.57710000221,"y":2541857.1747399997}},{"attributes":{"ID":332663,"DIS_CODE":0,"TOWNNAME":"仁德區","LI":"一甲里","LIN":"12鄰","STREET":"忠義路","SECT":" ","MAREA":" ","LANE":"３４１巷","ALLEY":" ","HOUSE_NO":"２之３號","E_COORD97":173538.55788499999,"N_COORD97":2541860.34974,"ADDRESS":"忠義路３４１巷２之３號","OBJECTID":332654},"geometry":{"x":173538.55788500048,"y":2541860.3497410007}},{"attributes":{"ID":332664,"DIS_CODE":0,"TOWNNAME":"歸仁區","LI":"西埔里","LIN":"2鄰","STREET":"保大路","SECT":"二段","MAREA":" ","LANE":"１６５巷","ALLEY":" ","HOUSE_NO":"２５號","E_COORD97":176847.66844000001,"N_COORD97":2544041.4194899998,"ADDRESS":"保大路二段２５號","OBJECTID":332655},"geometry":{"x":176847.66844000202,"y":2544041.4194900002}},{"attributes":{"ID":332665,"DIS_CODE":0,"TOWNNAME":"仁德區","LI":"一甲里","LIN":"11鄰","STREET":"忠義一街","SECT":" ","MAREA":" ","LANE":" ","ALLEY":" ","HOUSE_NO":"３３號","E_COORD97":174054.29460299999,"N_COORD97":2541997.8681600001,"ADDRESS":"忠義一街３３號","OBJECTID":332656},"geometry":{"x":174054.29460300039,"y":2541997.8681560028}},{"attributes":{"ID":332666,"DIS_CODE":0,"TOWNNAME":"歸仁區","LI":"西埔里","LIN":"5鄰","STREET":"保大路","SECT":"二段","MAREA":" ","LANE":"１７０巷","ALLEY":" ","HOUSE_NO":"６６號","E_COORD97":176954.10957,"N_COORD97":2544266.4210299999,"ADDRESS":"保大路二段６６號","OBJECTID":332657},"geometry":{"x":176954.10957000218,"y":2544266.4210300017}},{"attributes":{"ID":332667,"DIS_CODE":0,"TOWNNAME":"歸仁區","LI":"西埔里","LIN":"5鄰","STREET":"保大路","SECT":"二段","MAREA":" ","LANE":"１７０巷","ALLEY":" ","HOUSE_NO":"７６號","E_COORD97":176985.70264999999,"N_COORD97":2544268.3260300001,"ADDRESS":"保大路二段７６號","OBJECTID":332658},"geometry":{"x":176985.70265000127,"y":2544268.326030001}},{"attributes":{"ID":332668,"DIS_CODE":0,"TOWNNAME":"歸仁區","LI":"西埔里","LIN":"5鄰","STREET":"保大路","SECT":"二段","MAREA":" ","LANE":"１７０巷","ALLEY":" ","HOUSE_NO":"７２號","E_COORD97":176970.4362,"N_COORD97":2544257.5310300002,"ADDRESS":"保大路二段７２號","OBJECTID":332659},"geometry":{"x":176970.43620000035,"y":2544257.5310299974}},{"attributes":{"ID":332669,"DIS_CODE":0,"TOWNNAME":"安南區","LI":"佃西里","LIN":"15鄰","STREET":"海佃路","SECT":"四段","MAREA":" ","LANE":"４５６巷","ALLEY":" ","HOUSE_NO":"３８號","E_COORD97":165467.19,"N_COORD97":2551635.1000000001,"ADDRESS":"海佃路四段４５６巷３８號","OBJECTID":332660},"geometry":{"x":165467.19000000041,"y":2551635.1000000015}},{"attributes":{"ID":332670,"DIS_CODE":0,"TOWNNAME":"新營區","LI":"忠政里","LIN":"26鄰","STREET":"府西路","SECT":" ","MAREA":" ","LANE":"１３７巷","ALLEY":" ","HOUSE_NO":"５號","E_COORD97":179770.01000000001,"N_COORD97":2579327.9700000002,"ADDRESS":"府西路１３７巷５號","OBJECTID":332661},"geometry":{"x":179770.00999999978,"y":2579327.9700000007}},{"attributes":{"ID":332671,"DIS_CODE":0,"TOWNNAME":"新營區","LI":"新北里","LIN":"32鄰","STREET":"新北六街","SECT":" ","MAREA":" ","LANE":"５巷","ALLEY":" ","HOUSE_NO":"１３號","E_COORD97":178674.73000000001,"N_COORD97":2579102.8599999999,"ADDRESS":"新北六街５巷１３號","OBJECTID":332662},"geometry":{"x":178674.73000000045,"y":2579102.8600000013}},{"attributes":{"ID":332672,"DIS_CODE":0,"TOWNNAME":"安南區","LI":"佃西里","LIN":"15鄰","STREET":"海佃路","SECT":"四段","MAREA":" ","LANE":"４５６巷","ALLEY":" ","HOUSE_NO":"３９號","E_COORD97":165444.62,"N_COORD97":2551643.48,"ADDRESS":"海佃路四段４５６巷３９號","OBJECTID":332663},"geometry":{"x":165444.62000000104,"y":2551643.4800000023}},{"attributes":{"ID":332673,"DIS_CODE":0,"TOWNNAME":"新營區","LI":"新南里","LIN":"21鄰","STREET":"復興路","SECT":" ","MAREA":" ","LANE":"３７８巷","ALLEY":" ","HOUSE_NO":"７號之３","E_COORD97":178497.64999999999,"N_COORD97":2578231.1000000001,"ADDRESS":"復興路３７８巷７號之３","OBJECTID":332664},"geometry":{"x":178497.6500000013,"y":2578231.0999999996}},{"attributes":{"ID":332674,"DIS_CODE":0,"TOWNNAME":"新營區","LI":"新北里","LIN":"13鄰","STREET":"周武街","SECT":" ","MAREA":" ","LANE":"７９巷","ALLEY":" ","HOUSE_NO":"１０號","E_COORD97":179347.14999999999,"N_COORD97":2578978.9300000002,"ADDRESS":"周武街７９巷１０號","OBJECTID":332665},"geometry":{"x":179347.1500000013,"y":2578978.9299999997}},{"attributes":{"ID":332675,"DIS_CODE":0,"TOWNNAME":"新營區","LI":"南紙里","LIN":"24鄰","STREET":"南紙街","SECT":" ","MAREA":" ","LANE":"１１７巷","ALLEY":" ","HOUSE_NO":"４２號","E_COORD97":177916.09,"N_COORD97":2577466.3900000001,"ADDRESS":"南紙街１１７巷４２號","OBJECTID":332666},"geometry":{"x":177916.09000000078,"y":2577466.3900000025}},{"attributes":{"ID":332676,"DIS_CODE":0,"TOWNNAME":"新營區","LI":"新南里","LIN":"14鄰","STREET":"民治路","SECT":" ","MAREA":" ","LANE":"３００巷","ALLEY":" ","HOUSE_NO":"１６之６號","E_COORD97":178764.64000000001,"N_COORD97":2578563.1600000001,"ADDRESS":"民治路３００巷１６之６號","OBJECTID":332667},"geometry":{"x":178764.64000000153,"y":2578563.1600000001}},{"attributes":{"ID":332677,"DIS_CODE":0,"TOWNNAME":"新營區","LI":"民榮里","LIN":"20鄰","STREET":"裕民路","SECT":" ","MAREA":" ","LANE":"１２巷","ALLEY":" ","HOUSE_NO":"１之２號","E_COORD97":179102.09,"N_COORD97":2577950.2200000002,"ADDRESS":"裕民路１２巷１之２號","OBJECTID":332668},"geometry":{"x":179102.08999999985,"y":2577950.2200000007}},{"attributes":{"ID":332678,"DIS_CODE":0,"TOWNNAME":"仁德區","LI":"後壁里","LIN":"31鄰","STREET":"德洋路","SECT":" ","MAREA":" ","LANE":" ","ALLEY":" ","HOUSE_NO":"９２號","E_COORD97":172862.86367200001,"N_COORD97":2539253.1265099999,"ADDRESS":"德洋路９２號","OBJECTID":332669},"geometry":{"x":172862.86367199942,"y":2539253.1265099999}},{"attributes":{"ID":332679,"DIS_CODE":0,"TOWNNAME":"仁德區","LI":"一甲里","LIN":"11鄰","STREET":"忠義一街","SECT":" ","MAREA":" ","LANE":" ","ALLEY":" ","HOUSE_NO":"４７號","E_COORD97":173934.419498,"N_COORD97":2542014.4191399999,"ADDRESS":"忠義一街４７號","OBJECTID":332670},"geometry":{"x":173934.41949800216,"y":2542014.4191359989}},{"attributes":{"ID":332680,"DIS_CODE":0,"TOWNNAME":"仁德區","LI":"成功里","LIN":"1鄰","STREET":"保生東路","SECT":" ","MAREA":" ","LANE":" ","ALLEY":" ","HOUSE_NO":"１１８號","E_COORD97":171182.51696199999,"N_COORD97":2539540.10904,"ADDRESS":"保生東路１１８號","OBJECTID":332671},"geometry":{"x":171182.5169620011,"y":2539540.1090420019}},{"attributes":{"ID":332681,"DIS_CODE":0,"TOWNNAME":"新營區","LI":"南紙里","LIN":"17鄰","STREET":"南紙街","SECT":" ","MAREA":" ","LANE":"１６２巷","ALLEY":" ","HOUSE_NO":"４５號","E_COORD97":177844.67000000001,"N_COORD97":2577295.0899999999,"ADDRESS":"南紙街１６２巷４５號","OBJECTID":332672},"geometry":{"x":177844.67000000086,"y":2577295.0899999999}},{"attributes":{"ID":332682,"DIS_CODE":0,"TOWNNAME":"新營區","LI":"新南里","LIN":"10鄰","STREET":"新北五街","SECT":" ","MAREA":" ","LANE":"１４３巷","ALLEY":" ","HOUSE_NO":"７號","E_COORD97":178539.57999999999,"N_COORD97":2579115.6899999999,"ADDRESS":"新北五街１４３巷７號","OBJECTID":332673},"geometry":{"x":178539.58000000007,"y":2579115.6899999995}},{"attributes":{"ID":332683,"DIS_CODE":0,"TOWNNAME":"安南區","LI":"新順里","LIN":"15鄰","STREET":"培安四街","SECT":" ","MAREA":" ","LANE":"５８巷","ALLEY":" ","HOUSE_NO":"２號","E_COORD97":169428.56,"N_COORD97":2549867.9100000001,"ADDRESS":"培安四街５８巷２號","OBJECTID":332674},"geometry":{"x":169428.56000000052,"y":2549867.910000002}},{"attributes":{"ID":332684,"DIS_CODE":0,"TOWNNAME":"安南區","LI":"新順里","LIN":"15鄰","STREET":"培安四街","SECT":" ","MAREA":" ","LANE":"５８巷","ALLEY":" ","HOUSE_NO":"２２號","E_COORD97":169392.51999999999,"N_COORD97":2549839.96,"ADDRESS":"培安四街５８巷２２號","OBJECTID":332675},"geometry":{"x":169392.52000000142,"y":2549839.9600000046}},{"attributes":{"ID":332685,"DIS_CODE":0,"TOWNNAME":"安南區","LI":"新順里","LIN":"15鄰","STREET":"培安四街","SECT":" ","MAREA":" ","LANE":"５８巷","ALLEY":" ","HOUSE_NO":"６號","E_COORD97":169424.98999999999,"N_COORD97":2549863.71,"ADDRESS":"培安四街５８巷６號","OBJECTID":332676},"geometry":{"x":169424.99000000022,"y":2549863.7100000009}},{"attributes":{"ID":332686,"DIS_CODE":0,"TOWNNAME":"安南區","LI":"新順里","LIN":"15鄰","STREET":"培安四街","SECT":" ","MAREA":" ","LANE":"５８巷","ALLEY":" ","HOUSE_NO":"８號","E_COORD97":169420.01999999999,"N_COORD97":2549860.1400000001,"ADDRESS":"培安四街５８巷８號","OBJECTID":332677},"geometry":{"x":169420.02000000048,"y":2549860.1400000025}},{"attributes":{"ID":332687,"DIS_CODE":0,"TOWNNAME":"安南區","LI":"新順里","LIN":"15鄰","STREET":"培安四街","SECT":" ","MAREA":" ","LANE":"５８巷","ALLEY":" ","HOUSE_NO":"１０號","E_COORD97":169415.82000000001,"N_COORD97":2549856.73,"ADDRESS":"培安四街５８巷１０號","OBJECTID":332678},"geometry":{"x":169415.82000000123,"y":2549856.7300000004}},{"attributes":{"ID":332688,"DIS_CODE":0,"TOWNNAME":"安南區","LI":"新順里","LIN":"15鄰","STREET":"培安四街","SECT":" ","MAREA":" ","LANE":"５８巷","ALLEY":" ","HOUSE_NO":"１２號","E_COORD97":169412.39999999999,"N_COORD97":2549853.9300000002,"ADDRESS":"培安四街５８巷１２號","OBJECTID":332679},"geometry":{"x":169412.40000000037,"y":2549853.9300000016}},{"attributes":{"ID":332689,"DIS_CODE":0,"TOWNNAME":"安南區","LI":"新順里","LIN":"15鄰","STREET":"培安四街","SECT":" ","MAREA":" ","LANE":"５８巷","ALLEY":" ","HOUSE_NO":"１４號","E_COORD97":169408.51999999999,"N_COORD97":2549851.4500000002,"ADDRESS":"培安四街５８巷１４號","OBJECTID":332680},"geometry":{"x":169408.52000000048,"y":2549851.4499999993}},{"attributes":{"ID":332690,"DIS_CODE":0,"TOWNNAME":"安南區","LI":"新順里","LIN":"15鄰","STREET":"培安四街","SECT":" ","MAREA":" ","LANE":"５８巷","ALLEY":" ","HOUSE_NO":"１６號","E_COORD97":169405.10000000001,"N_COORD97":2549848.8100000001,"ADDRESS":"培安四街５８巷１６號","OBJECTID":332681},"geometry":{"x":169405.09999999963,"y":2549848.8100000024}},{"attributes":{"ID":332691,"DIS_CODE":0,"TOWNNAME":"仁德區","LI":"一甲里","LIN":"12鄰","STREET":"忠義路","SECT":" ","MAREA":" ","LANE":"３４１巷","ALLEY":" ","HOUSE_NO":"２之５號","E_COORD97":173534.10781300001,"N_COORD97":2541861.4080699999,"ADDRESS":"忠義路３４１巷２之５號","OBJECTID":332682},"geometry":{"x":173534.10781299975,"y":2541861.4080730006}},{"attributes":{"ID":332692,"DIS_CODE":0,"TOWNNAME":"仁德區","LI":"一甲里","LIN":"12鄰","STREET":"忠義路","SECT":" ","MAREA":" ","LANE":"３４１巷","ALLEY":" ","HOUSE_NO":"２之６號","E_COORD97":173530.08155800001,"N_COORD97":2541862.4664099999,"ADDRESS":"忠義路３４１巷２之６號","OBJECTID":332683},"geometry":{"x":173530.08155800123,"y":2541862.4664059989}},{"attributes":{"ID":332693,"DIS_CODE":0,"TOWNNAME":"仁德區","LI":"仁德里","LIN":"3鄰","STREET":"仁中七街","SECT":" ","MAREA":" ","LANE":" ","ALLEY":" ","HOUSE_NO":"７１號","E_COORD97":173212.37185900001,"N_COORD97":2540357.5793599999,"ADDRESS":"仁中七街７１號","OBJECTID":332684},"geometry":{"x":173212.371859001,"y":2540357.5793620013}},{"attributes":{"ID":332694,"DIS_CODE":0,"TOWNNAME":"仁德區","LI":"一甲里","LIN":"12鄰","STREET":"忠義路","SECT":" ","MAREA":" ","LANE":"３４１巷","ALLEY":" ","HOUSE_NO":"２之７號","E_COORD97":173526.90293499999,"N_COORD97":2541853.47058,"ADDRESS":"忠義路３４１巷２之７號","OBJECTID":332685},"geometry":{"x":173526.90293500014,"y":2541853.4705780037}},{"attributes":{"ID":332695,"DIS_CODE":0,"TOWNNAME":"仁德區","LI":"成功里","LIN":"1鄰","STREET":"保生東路","SECT":" ","MAREA":" ","LANE":" ","ALLEY":" ","HOUSE_NO":"１１０號","E_COORD97":171180.61072600001,"N_COORD97":2539526.5650499999,"ADDRESS":"保生東路１１０號","OBJECTID":332686},"geometry":{"x":171180.61072599981,"y":2539526.5650539994}},{"attributes":{"ID":332696,"DIS_CODE":0,"TOWNNAME":"仁德區","LI":"一甲里","LIN":"12鄰","STREET":"忠義路","SECT":" ","MAREA":" ","LANE":" ","ALLEY":" ","HOUSE_NO":"１９號","E_COORD97":173558.05343599999,"N_COORD97":2541826.2714300002,"ADDRESS":"忠義路１９號","OBJECTID":332687},"geometry":{"x":173558.0534359999,"y":2541826.2714259997}},{"attributes":{"ID":332697,"DIS_CODE":0,"TOWNNAME":"仁德區","LI":"一甲里","LIN":"12鄰","STREET":"忠義路","SECT":" ","MAREA":" ","LANE":" ","ALLEY":" ","HOUSE_NO":"２１號","E_COORD97":173554.02718100001,"N_COORD97":2541829.65809,"ADDRESS":"忠義路２１號","OBJECTID":332688},"geometry":{"x":173554.02718100138,"y":2541829.658090001}},{"attributes":{"ID":332698,"DIS_CODE":0,"TOWNNAME":"仁德區","LI":"成功里","LIN":"1鄰","STREET":"保生東路","SECT":" ","MAREA":" ","LANE":" ","ALLEY":" ","HOUSE_NO":"１１２號","E_COORD97":171180.98138300001,"N_COORD97":2539530.9544600002,"ADDRESS":"保生東路１１２號","OBJECTID":332689},"geometry":{"x":171180.9813830005,"y":2539530.9544639997}},{"attributes":{"ID":332699,"DIS_CODE":0,"TOWNNAME":"仁德區","LI":"成功里","LIN":"1鄰","STREET":"保生東路","SECT":" ","MAREA":" ","LANE":" ","ALLEY":" ","HOUSE_NO":"１１６號","E_COORD97":171181.61679500001,"N_COORD97":2539536.3651899998,"ADDRESS":"保生東路１１６號","OBJECTID":332690},"geometry":{"x":171181.61679500062,"y":2539536.3651899993}},{"attributes":{"ID":332700,"DIS_CODE":0,"TOWNNAME":"仁德區","LI":"一甲里","LIN":"12鄰","STREET":"忠義路","SECT":" ","MAREA":" ","LANE":" ","ALLEY":" ","HOUSE_NO":"２之８號","E_COORD97":173530.505374,"N_COORD97":2541852.8355800002,"ADDRESS":"忠義路２之８號","OBJECTID":332691},"geometry":{"x":173530.50537400227,"y":2541852.8355780039}},{"attributes":{"ID":332701,"DIS_CODE":0,"TOWNNAME":"仁德區","LI":"土庫里","LIN":"1鄰","STREET":"大發路","SECT":" ","MAREA":" ","LANE":" ","ALLEY":" ","HOUSE_NO":"１６６號","E_COORD97":173267.44526499999,"N_COORD97":2543059.9155000001,"ADDRESS":"大發路１６６號","OBJECTID":332692},"geometry":{"x":173267.44526500162,"y":2543059.9154970013}},{"attributes":{"ID":332702,"DIS_CODE":0,"TOWNNAME":"仁德區","LI":"土庫里","LIN":"2鄰","STREET":"中正路","SECT":"三段","MAREA":" ","LANE":" ","ALLEY":" ","HOUSE_NO":"３４６號","E_COORD97":173975.218548,"N_COORD97":2542511.2757899999,"ADDRESS":"中正路三段３４６號","OBJECTID":332693},"geometry":{"x":173975.21854800079,"y":2542511.2757930011}},{"attributes":{"ID":332703,"DIS_CODE":0,"TOWNNAME":"仁德區","LI":"土庫里","LIN":"2鄰","STREET":"中正路","SECT":"三段","MAREA":" ","LANE":" ","ALLEY":" ","HOUSE_NO":"４７９號","E_COORD97":173979.45671100001,"N_COORD97":2542901.6947499998,"ADDRESS":"中正路三段４７９號","OBJECTID":332694},"geometry":{"x":173979.45671100076,"y":2542901.6947489996}},{"attributes":{"ID":332704,"DIS_CODE":0,"TOWNNAME":"南區","LI":"永寧里","LIN":"2鄰","STREET":"灣裡路","SECT":" ","MAREA":" ","LANE":" ","ALLEY":" ","HOUSE_NO":"１６６號","E_COORD97":166029.35467,"N_COORD97":2536653.6250999998,"ADDRESS":"灣裡路１６６號","OBJECTID":332695},"geometry":{"x":166029.35467000119,"y":2536653.6250979993}},{"attributes":{"ID":332705,"DIS_CODE":0,"TOWNNAME":"安南區","LI":"新順里","LIN":"15鄰","STREET":"培安四街","SECT":" ","MAREA":" ","LANE":"５８巷","ALLEY":" ","HOUSE_NO":"１８號","E_COORD97":169400.91,"N_COORD97":2549845.8599999999,"ADDRESS":"培安四街５８巷１８號","OBJECTID":332696},"geometry":{"x":169400.91000000108,"y":2549845.8600000031}},{"attributes":{"ID":332706,"DIS_CODE":0,"TOWNNAME":"安南區","LI":"新順里","LIN":"15鄰","STREET":"培安四街","SECT":" ","MAREA":" ","LANE":"５８巷","ALLEY":" ","HOUSE_NO":"２０號","E_COORD97":169396.39999999999,"N_COORD97":2549842.7599999998,"ADDRESS":"培安四街５８巷２０號","OBJECTID":332697},"geometry":{"x":169396.4000000013,"y":2549842.7599999998}},{"attributes":{"ID":332707,"DIS_CODE":0,"TOWNNAME":"安南區","LI":"新順里","LIN":"15鄰","STREET":"培安四街","SECT":" ","MAREA":" ","LANE":"５８巷","ALLEY":" ","HOUSE_NO":"２４號","E_COORD97":169387.54999999999,"N_COORD97":2549836.8599999999,"ADDRESS":"培安四街５８巷２４號","OBJECTID":332698},"geometry":{"x":169387.55000000168,"y":2549836.8600000013}},{"attributes":{"ID":332708,"DIS_CODE":0,"TOWNNAME":"安南區","LI":"新順里","LIN":"15鄰","STREET":"培安四街","SECT":" ","MAREA":" ","LANE":"５８巷","ALLEY":" ","HOUSE_NO":"２６號","E_COORD97":169383.04000000001,"N_COORD97":2549832.5099999998,"ADDRESS":"培安四街５８巷２６號","OBJECTID":332699},"geometry":{"x":169383.04000000097,"y":2549832.5100000016}},{"attributes":{"ID":332709,"DIS_CODE":0,"TOWNNAME":"安南區","LI":"淵東里","LIN":"15鄰","STREET":"安中路","SECT":"三段","MAREA":" ","LANE":"４００巷","ALLEY":" ","HOUSE_NO":"１６５號","E_COORD97":165581.20999999999,"N_COORD97":2550263.1099999999,"ADDRESS":"安中路三段４００巷１６５號","OBJECTID":332700},"geometry":{"x":165581.21000000089,"y":2550263.1099999994}},{"attributes":{"ID":332710,"DIS_CODE":0,"TOWNNAME":"安南區","LI":"安和里","LIN":"15鄰","STREET":"安和路","SECT":"一段","MAREA":" ","LANE":"９６巷","ALLEY":" ","HOUSE_NO":"１００號","E_COORD97":169715.10000000001,"N_COORD97":2547769.9900000002,"ADDRESS":"安和路一段９６巷１００號","OBJECTID":332701},"geometry":{"x":169715.09999999963,"y":2547769.9900000002}},{"attributes":{"ID":332711,"DIS_CODE":0,"TOWNNAME":"安南區","LI":"安和里","LIN":"15鄰","STREET":"安和路","SECT":"一段","MAREA":" ","LANE":"９６巷","ALLEY":" ","HOUSE_NO":"１０３號","E_COORD97":169714.5,"N_COORD97":2547785.96,"ADDRESS":"安和路一段９６巷１０３號","OBJECTID":332702},"geometry":{"x":169714.5,"y":2547785.9600000028}},{"attributes":{"ID":332712,"DIS_CODE":0,"TOWNNAME":"新營區","LI":"南興里","LIN":"4鄰","STREET":"和平路","SECT":" ","MAREA":" ","LANE":"９７巷","ALLEY":" ","HOUSE_NO":"３５號之２","E_COORD97":179530.23000000001,"N_COORD97":2577572.7599999998,"ADDRESS":"和平路９７巷３５之２號","OBJECTID":332703},"geometry":{"x":179530.23000000045,"y":2577572.7599999998}},{"attributes":{"ID":332713,"DIS_CODE":0,"TOWNNAME":"新營區","LI":"新北里","LIN":"26鄰","STREET":"民治路","SECT":" ","MAREA":" ","LANE":"１５６巷","ALLEY":" ","HOUSE_NO":"３０號","E_COORD97":179120.19,"N_COORD97":2578770.7000000002,"ADDRESS":"民治路１５６巷３０號","OBJECTID":332704},"geometry":{"x":179120.19000000041,"y":2578770.7000000011}},{"attributes":{"ID":332714,"DIS_CODE":0,"TOWNNAME":"新營區","LI":"忠政里","LIN":"17鄰","STREET":"府西路","SECT":" ","MAREA":" ","LANE":"２６０巷","ALLEY":" ","HOUSE_NO":"１１號","E_COORD97":179826.56,"N_COORD97":2579779.5600000001,"ADDRESS":"府西路２６０巷１１號","OBJECTID":332705},"geometry":{"x":179826.56000000052,"y":2579779.5600000042}},{"attributes":{"ID":332715,"DIS_CODE":0,"TOWNNAME":"新營區","LI":"新北里","LIN":"8鄰","STREET":"三興街","SECT":" ","MAREA":" ","LANE":"３０１巷","ALLEY":" ","HOUSE_NO":"４７號","E_COORD97":179201.39000000001,"N_COORD97":2579709.4399999999,"ADDRESS":"三興街３０１巷４７號","OBJECTID":332706},"geometry":{"x":179201.38999999966,"y":2579709.4400000013}},{"attributes":{"ID":332716,"DIS_CODE":0,"TOWNNAME":"新營區","LI":"南興里","LIN":"6鄰","STREET":"和平路","SECT":" ","MAREA":" ","LANE":"９７巷","ALLEY":" ","HOUSE_NO":"２７號之１","E_COORD97":179491.39000000001,"N_COORD97":2577584.02,"ADDRESS":"和平路９７巷２７之１號","OBJECTID":332707},"geometry":{"x":179491.38999999966,"y":2577584.0199999996}},{"attributes":{"ID":332717,"DIS_CODE":0,"TOWNNAME":"新營區","LI":"新南里","LIN":"21鄰","STREET":"復興路","SECT":" ","MAREA":" ","LANE":"３７８巷","ALLEY":" ","HOUSE_NO":"１６號","E_COORD97":178545.76999999999,"N_COORD97":2578239.6699999999,"ADDRESS":"復興路３７８巷１６號","OBJECTID":332708},"geometry":{"x":178545.76999999955,"y":2578239.6700000018}},{"attributes":{"ID":332718,"DIS_CODE":0,"TOWNNAME":"新營區","LI":"民榮里","LIN":"20鄰","STREET":"裕民路","SECT":" ","MAREA":" ","LANE":"１２巷","ALLEY":" ","HOUSE_NO":"７號","E_COORD97":179078.14000000001,"N_COORD97":2577950.2799999998,"ADDRESS":"裕民路１２巷７號","OBJECTID":332709},"geometry":{"x":179078.14000000153,"y":2577950.2800000012}},{"attributes":{"ID":332719,"DIS_CODE":0,"TOWNNAME":"善化區","LI":"坐駕里","LIN":"17鄰","STREET":"興華路","SECT":" ","MAREA":" ","LANE":" ","ALLEY":" ","HOUSE_NO":"２６７號","E_COORD97":177886.51000000001,"N_COORD97":2558511.25,"ADDRESS":"興華路２６７號","OBJECTID":332710},"geometry":{"x":177886.51000000071,"y":2558511.2500000019}},{"attributes":{"ID":332720,"DIS_CODE":0,"TOWNNAME":"善化區","LI":"坐駕里","LIN":"17鄰","STREET":"興華路","SECT":" ","MAREA":" ","LANE":" ","ALLEY":" ","HOUSE_NO":"２７１之２號","E_COORD97":177875.70000000001,"N_COORD97":2558482.52,"ADDRESS":"興華路２７１之２號","OBJECTID":332711},"geometry":{"x":177875.70000000019,"y":2558482.5199999996}},{"attributes":{"ID":332721,"DIS_CODE":0,"TOWNNAME":"北區","LI":"成德里","LIN":"26鄰","STREET":"育德一街","SECT":" ","MAREA":" ","LANE":" ","ALLEY":" ","HOUSE_NO":"１７號","E_COORD97":168451.67999999999,"N_COORD97":2545841.1600000001,"ADDRESS":"育德一街１７號","OBJECTID":332712},"geometry":{"x":168451.6799999997,"y":2545841.160000002}},{"attributes":{"ID":332722,"DIS_CODE":0,"TOWNNAME":"北區","LI":"成德里","LIN":"26鄰","STREET":"育德一街","SECT":" ","MAREA":" ","LANE":" ","ALLEY":" ","HOUSE_NO":"１９號","E_COORD97":168466.92000000001,"N_COORD97":2545839.8900000001,"ADDRESS":"育德一街１９號","OBJECTID":332713},"geometry":{"x":168466.92000000086,"y":2545839.8900000025}},{"attributes":{"ID":332723,"DIS_CODE":0,"TOWNNAME":"北區","LI":"成德里","LIN":"26鄰","STREET":"育德一街","SECT":" ","MAREA":" ","LANE":" ","ALLEY":" ","HOUSE_NO":"１號","E_COORD97":168494.70000000001,"N_COORD97":2545784.4100000001,"ADDRESS":"育德一街１號","OBJECTID":332714},"geometry":{"x":168494.70000000019,"y":2545784.4099999983}},{"attributes":{"ID":332724,"DIS_CODE":0,"TOWNNAME":"北區","LI":"成德里","LIN":"25鄰","STREET":"育德一街","SECT":" ","MAREA":" ","LANE":" ","ALLEY":" ","HOUSE_NO":"１８號","E_COORD97":168553.32000000001,"N_COORD97":2545813.4100000001,"ADDRESS":"育德一街１８號","OBJECTID":332715},"geometry":{"x":168553.3200000003,"y":2545813.410000002}},{"attributes":{"ID":332725,"DIS_CODE":0,"TOWNNAME":"善化區","LI":"東關里","LIN":"17鄰","STREET":"文賢街","SECT":" ","MAREA":" ","LANE":" ","ALLEY":" ","HOUSE_NO":"４０號","E_COORD97":177625.25,"N_COORD97":2558993.2799999998,"ADDRESS":"文賢街４０號","OBJECTID":332716},"geometry":{"x":177625.25000000093,"y":2558993.2799999975}},{"attributes":{"ID":332726,"DIS_CODE":0,"TOWNNAME":"北區","LI":"成德里","LIN":"26鄰","STREET":"育德一街","SECT":" ","MAREA":" ","LANE":" ","ALLEY":" ","HOUSE_NO":"２１號","E_COORD97":168483.26999999999,"N_COORD97":2545839.02,"ADDRESS":"育德一街２１號","OBJECTID":332717},"geometry":{"x":168483.26999999955,"y":2545839.0200000014}},{"attributes":{"ID":332727,"DIS_CODE":0,"TOWNNAME":"北區","LI":"成德里","LIN":"25鄰","STREET":"育德一街","SECT":" ","MAREA":" ","LANE":" ","ALLEY":" ","HOUSE_NO":"２０號","E_COORD97":168564.10999999999,"N_COORD97":2545813.73,"ADDRESS":"育德一街２０號","OBJECTID":332718},"geometry":{"x":168564.11000000127,"y":2545813.7300000023}},{"attributes":{"ID":332728,"DIS_CODE":0,"TOWNNAME":"南區","LI":"彰南里","LIN":"15鄰","STREET":"新信路","SECT":" ","MAREA":" ","LANE":" ","ALLEY":" ","HOUSE_NO":"１１號之２","E_COORD97":165868.45076400001,"N_COORD97":2541428.6907500001,"ADDRESS":"新信路１１號之２","OBJECTID":332719},"geometry":{"x":165868.45076400042,"y":2541428.690746}},{"attributes":{"ID":332729,"DIS_CODE":0,"TOWNNAME":"關廟區","LI":"新光里","LIN":"1鄰","STREET":"新湖街","SECT":" ","MAREA":" ","LANE":" ","ALLEY":" ","HOUSE_NO":"３２０號","E_COORD97":182954.687836,"N_COORD97":2542960.6354,"ADDRESS":"新湖街３２０號","OBJECTID":332720},"geometry":{"x":182954.6878360007,"y":2542960.6354050022}},{"attributes":{"ID":332730,"DIS_CODE":0,"TOWNNAME":"下營區","LI":"宅內里","LIN":"18鄰","STREET":"人和三街","SECT":" ","MAREA":" ","LANE":" ","ALLEY":" ","HOUSE_NO":"５６號","E_COORD97":174309.33363099999,"N_COORD97":2570754.8243999998,"ADDRESS":"人和三街５６號","OBJECTID":332721},"geometry":{"x":174309.33363100048,"y":2570754.824399}},{"attributes":{"ID":332731,"DIS_CODE":0,"TOWNNAME":"歸仁區","LI":"西埔里","LIN":"9鄰","STREET":"西埔一街","SECT":" ","MAREA":" ","LANE":" ","ALLEY":" ","HOUSE_NO":"１５０號","E_COORD97":177080.23033799999,"N_COORD97":2544539.8152700001,"ADDRESS":"西埔一街１５０號","OBJECTID":332722},"geometry":{"x":177080.23033799976,"y":2544539.8152700011}},{"attributes":{"ID":332732,"DIS_CODE":0,"TOWNNAME":"中西區","LI":"大涼里","LIN":"20鄰","STREET":"中華西路","SECT":"二段","MAREA":" ","LANE":" ","ALLEY":" ","HOUSE_NO":"４６號","E_COORD97":166656.46453999999,"N_COORD97":2543764.9186399998,"ADDRESS":"中華西路二段４６號","OBJECTID":332723},"geometry":{"x":166656.46454000007,"y":2543764.9186359998}},{"attributes":{"ID":332733,"DIS_CODE":0,"TOWNNAME":"中西區","LI":"大涼里","LIN":"20鄰","STREET":"中華西路","SECT":"二段","MAREA":" ","LANE":" ","ALLEY":" ","HOUSE_NO":"６０號","E_COORD97":166648.83669,"N_COORD97":2543815.2952700001,"ADDRESS":"中華西路二段６０號","OBJECTID":332724},"geometry":{"x":166648.83669000119,"y":2543815.2952749971}},{"attributes":{"ID":332734,"DIS_CODE":0,"TOWNNAME":"下營區","LI":"開化里","LIN":"1鄰","STREET":" ","SECT":" ","MAREA":"中營","LANE":" ","ALLEY":" ","HOUSE_NO":"３１號之５","E_COORD97":175694.720351,"N_COORD97":2568276.2058199998,"ADDRESS":"中營３１號之５","OBJECTID":332725},"geometry":{"x":175694.72035100032,"y":2568276.2058239989}},{"attributes":{"ID":332735,"DIS_CODE":0,"TOWNNAME":"下營區","LI":"開化里","LIN":"4鄰","STREET":" ","SECT":" ","MAREA":"中營","LANE":" ","ALLEY":" ","HOUSE_NO":"２９０號之７０","E_COORD97":175380.56268900001,"N_COORD97":2566871.6938,"ADDRESS":"中營２９０號之７０","OBJECTID":332726},"geometry":{"x":175380.56268900074,"y":2566871.6937950011}},{"attributes":{"ID":332736,"DIS_CODE":0,"TOWNNAME":"下營區","LI":"開化里","LIN":"1鄰","STREET":" ","SECT":" ","MAREA":"中營","LANE":" ","ALLEY":" ","HOUSE_NO":"７之３號","E_COORD97":175387.338815,"N_COORD97":2568255.76621,"ADDRESS":"中營７之３號","OBJECTID":332727},"geometry":{"x":175387.33881499991,"y":2568255.7662080023}},{"attributes":{"ID":332737,"DIS_CODE":0,"TOWNNAME":"下營區","LI":"開化里","LIN":"8鄰","STREET":" ","SECT":" ","MAREA":"中營","LANE":" ","ALLEY":" ","HOUSE_NO":"４６３之３號","E_COORD97":176058.236783,"N_COORD97":2568096.8198000002,"ADDRESS":"中營４６３之３號","OBJECTID":332728},"geometry":{"x":176058.23678299971,"y":2568096.8198000006}},{"attributes":{"ID":332738,"DIS_CODE":0,"TOWNNAME":"歸仁區","LI":"西埔里","LIN":"9鄰","STREET":"西埔一街","SECT":" ","MAREA":" ","LANE":" ","ALLEY":" ","HOUSE_NO":"１２７號","E_COORD97":177053.51403699999,"N_COORD97":2544515.89695,"ADDRESS":"西埔一街１２７號","OBJECTID":332729},"geometry":{"x":177053.51403700095,"y":2544515.8969500028}},{"attributes":{"ID":332739,"DIS_CODE":0,"TOWNNAME":"中西區","LI":"大涼里","LIN":"20鄰","STREET":"中華西路","SECT":"二段","MAREA":" ","LANE":" ","ALLEY":" ","HOUSE_NO":"７６號","E_COORD97":166640.06995899999,"N_COORD97":2543855.10843,"ADDRESS":"中華西路二段７６號","OBJECTID":332730},"geometry":{"x":166640.06995900162,"y":2543855.1084310021}},{"attributes":{"ID":332740,"DIS_CODE":0,"TOWNNAME":"歸仁區","LI":"西埔里","LIN":"11鄰","STREET":"西埔一街","SECT":" ","MAREA":" ","LANE":" ","ALLEY":" ","HOUSE_NO":"２２４號","E_COORD97":177014.49975700001,"N_COORD97":2544675.0702,"ADDRESS":"西埔一街２２４號","OBJECTID":332731},"geometry":{"x":177014.49975700025,"y":2544675.0701970011}},{"attributes":{"ID":332741,"DIS_CODE":0,"TOWNNAME":"中西區","LI":"赤嵌里","LIN":"11鄰","STREET":"中成路","SECT":" ","MAREA":" ","LANE":" ","ALLEY":" ","HOUSE_NO":"４８號","E_COORD97":168542.478088,"N_COORD97":2544265.1500400002,"ADDRESS":"中成路４８號","OBJECTID":332732},"geometry":{"x":168542.47808800172,"y":2544265.1500419993}},{"attributes":{"ID":332742,"DIS_CODE":0,"TOWNNAME":"關廟區","LI":"新埔里","LIN":"7鄰","STREET":"新埔三街","SECT":" ","MAREA":" ","LANE":" ","ALLEY":" ","HOUSE_NO":"１２號","E_COORD97":181173.551966,"N_COORD97":2540985.2917499999,"ADDRESS":"新埔三街１２號","OBJECTID":332733},"geometry":{"x":181173.55196600128,"y":2540985.2917519994}},{"attributes":{"ID":332743,"DIS_CODE":0,"TOWNNAME":"南區","LI":"田寮里","LIN":"25鄰","STREET":"夏林路","SECT":" ","MAREA":" ","LANE":" ","ALLEY":" ","HOUSE_NO":"３３６號","E_COORD97":167469.90528499999,"N_COORD97":2541793.0772899999,"ADDRESS":"夏林路３３６號","OBJECTID":332734},"geometry":{"x":167469.9052850008,"y":2541793.0772920009}},{"attributes":{"ID":332744,"DIS_CODE":0,"TOWNNAME":"南區","LI":"省躬里","LIN":"13鄰","STREET":"萬年路","SECT":" ","MAREA":" ","LANE":" ","ALLEY":" ","HOUSE_NO":"９７號","E_COORD97":166367.76889499999,"N_COORD97":2537261.34932,"ADDRESS":"萬年路９７號","OBJECTID":332735},"geometry":{"x":166367.76889499929,"y":2537261.3493220042}},{"attributes":{"ID":332745,"DIS_CODE":0,"TOWNNAME":"南區","LI":"白雪里","LIN":"10鄰","STREET":"鹽埕路","SECT":" ","MAREA":" ","LANE":" ","ALLEY":" ","HOUSE_NO":"７５號","E_COORD97":166838.403479,"N_COORD97":2540809.0394899999,"ADDRESS":"鹽埕路７５號","OBJECTID":332736},"geometry":{"x":166838.40347899869,"y":2540809.0394899976}},{"attributes":{"ID":332746,"DIS_CODE":0,"TOWNNAME":"安南區","LI":"溪墘里","LIN":"20鄰","STREET":"海佃路","SECT":"一段","MAREA":" ","LANE":"４００巷","ALLEY":" ","HOUSE_NO":"５３號","E_COORD97":167218.37,"N_COORD97":2547707.2000000002,"ADDRESS":"海佃路一段４００巷５３號","OBJECTID":332737},"geometry":{"x":167218.37000000104,"y":2547707.1999999974}},{"attributes":{"ID":332747,"DIS_CODE":0,"TOWNNAME":"安南區","LI":"溪墘里","LIN":"20鄰","STREET":"海佃路","SECT":"一段","MAREA":" ","LANE":"４００巷","ALLEY":" ","HOUSE_NO":"５號","E_COORD97":167095.53,"N_COORD97":2547677.6400000001,"ADDRESS":"海佃路一段４００巷５號","OBJECTID":332738},"geometry":{"x":167095.53000000026,"y":2547677.6400000006}},{"attributes":{"ID":332748,"DIS_CODE":0,"TOWNNAME":"新營區","LI":"忠政里","LIN":"25鄰","STREET":"府西路","SECT":" ","MAREA":" ","LANE":"１８８巷","ALLEY":" ","HOUSE_NO":"１９號","E_COORD97":179876.39999999999,"N_COORD97":2579505.77,"ADDRESS":"府西路１８８巷１９號","OBJECTID":332739},"geometry":{"x":179876.4000000013,"y":2579505.7700000033}},{"attributes":{"ID":332749,"DIS_CODE":0,"TOWNNAME":"新營區","LI":"新北里","LIN":"7鄰","STREET":"三興街","SECT":" ","MAREA":" ","LANE":"３０１巷","ALLEY":" ","HOUSE_NO":"３３號","E_COORD97":179236.19,"N_COORD97":2579713.7000000002,"ADDRESS":"三興街３０１巷３３號","OBJECTID":332740},"geometry":{"x":179236.18999999948,"y":2579713.7000000011}},{"attributes":{"ID":332750,"DIS_CODE":0,"TOWNNAME":"仁德區","LI":"二行里","LIN":"15鄰","STREET":"行大街","SECT":" ","MAREA":" ","LANE":"１７２巷","ALLEY":" ","HOUSE_NO":"１１０號","E_COORD97":169718.13,"N_COORD97":2535271.7400000002,"ADDRESS":"行大街１７２巷１１０號","OBJECTID":332741},"geometry":{"x":169718.13000000082,"y":2535271.7400000002}},{"attributes":{"ID":332751,"DIS_CODE":0,"TOWNNAME":"仁德區","LI":"土庫里","LIN":"15鄰","STREET":"土庫一街","SECT":" ","MAREA":" ","LANE":"２２巷","ALLEY":" ","HOUSE_NO":"４號","E_COORD97":174452.56,"N_COORD97":2543060.7400000002,"ADDRESS":"土庫一街２２巷４號","OBJECTID":332742},"geometry":{"x":174452.56000000145,"y":2543060.7400000021}},{"attributes":{"ID":332752,"DIS_CODE":0,"TOWNNAME":"北區","LI":"成德里","LIN":"25鄰","STREET":"育德一街","SECT":" ","MAREA":" ","LANE":" ","ALLEY":" ","HOUSE_NO":"２２號","E_COORD97":168566.17999999999,"N_COORD97":2545833.1000000001,"ADDRESS":"育德一街２２號","OBJECTID":332743},"geometry":{"x":168566.18000000156,"y":2545833.0999999996}},{"attributes":{"ID":332753,"DIS_CODE":0,"TOWNNAME":"東區","LI":"和平里","LIN":"17鄰","STREET":"仁和路","SECT":" ","MAREA":" ","LANE":" ","ALLEY":" ","HOUSE_NO":"７３號之９９","E_COORD97":171339.89000000001,"N_COORD97":2541561.4199999999,"ADDRESS":"仁和路７３號之９９","OBJECTID":332744},"geometry":{"x":171339.8900000006,"y":2541561.4200000018}},{"attributes":{"ID":332754,"DIS_CODE":0,"TOWNNAME":"東區","LI":"和平里","LIN":"17鄰","STREET":"仁和路","SECT":" ","MAREA":" ","LANE":" ","ALLEY":" ","HOUSE_NO":"７３號之１０１","E_COORD97":171348.54999999999,"N_COORD97":2541561.4399999999,"ADDRESS":"仁和路７３號之１０１","OBJECTID":332745},"geometry":{"x":171348.54999999981,"y":2541561.4399999995}},{"attributes":{"ID":332755,"DIS_CODE":0,"TOWNNAME":"東區","LI":"和平里","LIN":"17鄰","STREET":"仁和路","SECT":" ","MAREA":" ","LANE":" ","ALLEY":" ","HOUSE_NO":"７３號之１０２","E_COORD97":171352.54999999999,"N_COORD97":2541561.5800000001,"ADDRESS":"仁和路７３號之１０２","OBJECTID":332746},"geometry":{"x":171352.55000000075,"y":2541561.5800000001}},{"attributes":{"ID":332756,"DIS_CODE":0,"TOWNNAME":"東區","LI":"和平里","LIN":"17鄰","STREET":"仁和路","SECT":" ","MAREA":" ","LANE":" ","ALLEY":" ","HOUSE_NO":"７３號之１０３","E_COORD97":171356.51000000001,"N_COORD97":2541562.3100000001,"ADDRESS":"仁和路７３號之１０３","OBJECTID":332747},"geometry":{"x":171356.51000000071,"y":2541562.3100000024}},{"attributes":{"ID":332757,"DIS_CODE":0,"TOWNNAME":"東區","LI":"和平里","LIN":"17鄰","STREET":"仁和路","SECT":" ","MAREA":" ","LANE":" ","ALLEY":" ","HOUSE_NO":"７３號之１０４","E_COORD97":171360.22,"N_COORD97":2541563,"ADDRESS":"仁和路７３號之１０４","OBJECTID":332748},"geometry":{"x":171360.22000000067,"y":2541563.0000000037}},{"attributes":{"ID":332758,"DIS_CODE":0,"TOWNNAME":"東區","LI":"和平里","LIN":"17鄰","STREET":"仁和路","SECT":" ","MAREA":" ","LANE":" ","ALLEY":" ","HOUSE_NO":"７３號之１０５","E_COORD97":171363.79999999999,"N_COORD97":2541563.3100000001,"ADDRESS":"仁和路７３號之１０５","OBJECTID":332749},"geometry":{"x":171363.79999999981,"y":2541563.3100000005}},{"attributes":{"ID":332759,"DIS_CODE":0,"TOWNNAME":"東區","LI":"和平里","LIN":"17鄰","STREET":"仁和路","SECT":" ","MAREA":" ","LANE":" ","ALLEY":" ","HOUSE_NO":"７３號之１０７","E_COORD97":171372.23000000001,"N_COORD97":2541563.9399999999,"ADDRESS":"仁和路７３號之１０７","OBJECTID":332750},"geometry":{"x":171372.23000000138,"y":2541563.9400000013}},{"attributes":{"ID":332760,"DIS_CODE":0,"TOWNNAME":"東區","LI":"和平里","LIN":"17鄰","STREET":"仁和路","SECT":" ","MAREA":" ","LANE":" ","ALLEY":" ","HOUSE_NO":"７３號之１０８","E_COORD97":171376.03,"N_COORD97":2541564.2599999998,"ADDRESS":"仁和路７３號之１０８","OBJECTID":332751},"geometry":{"x":171376.03000000026,"y":2541564.2600000035}},{"attributes":{"ID":332761,"DIS_CODE":0,"TOWNNAME":"東區","LI":"和平里","LIN":"17鄰","STREET":"仁和路","SECT":" ","MAREA":" ","LANE":" ","ALLEY":" ","HOUSE_NO":"７３號之１０９","E_COORD97":171380.45000000001,"N_COORD97":2541564.3599999999,"ADDRESS":"仁和路７３號之１０９","OBJECTID":332752},"geometry":{"x":171380.45000000205,"y":2541564.3600000013}},{"attributes":{"ID":332762,"DIS_CODE":0,"TOWNNAME":"下營區","LI":"開化里","LIN":"2鄰","STREET":" ","SECT":" ","MAREA":"中營","LANE":" ","ALLEY":" ","HOUSE_NO":"１０６之３號","E_COORD97":175491.77604200001,"N_COORD97":2568131.21423,"ADDRESS":"中營１０６之３號","OBJECTID":332753},"geometry":{"x":175491.77604199946,"y":2568131.2142350003}},{"attributes":{"ID":332763,"DIS_CODE":0,"TOWNNAME":"歸仁區","LI":"西埔里","LIN":"9鄰","STREET":"西埔一街","SECT":" ","MAREA":" ","LANE":" ","ALLEY":" ","HOUSE_NO":"１３３號","E_COORD97":177055.84641299999,"N_COORD97":2544528.38528,"ADDRESS":"西埔一街１３３號","OBJECTID":332754},"geometry":{"x":177055.84641300049,"y":2544528.3852760028}},{"attributes":{"ID":332764,"DIS_CODE":0,"TOWNNAME":"關廟區","LI":"新埔里","LIN":"7鄰","STREET":"新埔三街","SECT":" ","MAREA":" ","LANE":" ","ALLEY":" ","HOUSE_NO":"６８號","E_COORD97":181150.03414500001,"N_COORD97":2541065.5133799999,"ADDRESS":"新埔三街６８號","OBJECTID":332755},"geometry":{"x":181150.03414500132,"y":2541065.5133760013}},{"attributes":{"ID":332765,"DIS_CODE":0,"TOWNNAME":"下營區","LI":"新興里","LIN":"20鄰","STREET":"慈惠街","SECT":" ","MAREA":" ","LANE":"１１５巷","ALLEY":" ","HOUSE_NO":"１１號","E_COORD97":174900.26999999999,"N_COORD97":2570565.5600000001,"ADDRESS":"慈惠街１１５巷１１號","OBJECTID":332756},"geometry":{"x":174900.27000000142,"y":2570565.5600000024}},{"attributes":{"ID":332766,"DIS_CODE":0,"TOWNNAME":"仁德區","LI":"土庫里","LIN":"15鄰","STREET":"土庫一街","SECT":" ","MAREA":" ","LANE":"２２巷","ALLEY":" ","HOUSE_NO":"２４號","E_COORD97":174483.07000000001,"N_COORD97":2542985.4900000002,"ADDRESS":"土庫一街２２巷２４號","OBJECTID":332757},"geometry":{"x":174483.0700000003,"y":2542985.4900000002}},{"attributes":{"ID":332767,"DIS_CODE":0,"TOWNNAME":"新營區","LI":"新南里","LIN":"25鄰","STREET":"隋唐街","SECT":" ","MAREA":" ","LANE":"２９５巷","ALLEY":" ","HOUSE_NO":"４之１號","E_COORD97":178162.06,"N_COORD97":2578570.5,"ADDRESS":"隋唐街２９５巷４之１號","OBJECTID":332758},"geometry":{"x":178162.06000000052,"y":2578570.5000000019}},{"attributes":{"ID":332768,"DIS_CODE":0,"TOWNNAME":"新營區","LI":"忠政里","LIN":"13鄰","STREET":"中正路","SECT":" ","MAREA":" ","LANE":"７７巷","ALLEY":" ","HOUSE_NO":"１３號之１","E_COORD97":180039.89999999999,"N_COORD97":2579671.1800000002,"ADDRESS":"中正路７７巷１３號之１","OBJECTID":332759},"geometry":{"x":180039.89999999944,"y":2579671.1799999997}},{"attributes":{"ID":332769,"DIS_CODE":0,"TOWNNAME":"新營區","LI":"新北里","LIN":"8鄰","STREET":"三興街","SECT":" ","MAREA":" ","LANE":"３０１巷","ALLEY":" ","HOUSE_NO":"４５號","E_COORD97":179205.48999999999,"N_COORD97":2579710.5299999998,"ADDRESS":"三興街３０１巷４５號","OBJECTID":332760},"geometry":{"x":179205.49000000115,"y":2579710.5300000031}},{"attributes":{"ID":332770,"DIS_CODE":0,"TOWNNAME":"新營區","LI":"南興里","LIN":"5鄰","STREET":"和平路","SECT":" ","MAREA":" ","LANE":"９７巷","ALLEY":" ","HOUSE_NO":"４號之１","E_COORD97":179438.87,"N_COORD97":2577556.5800000001,"ADDRESS":"和平路９７巷４之１號","OBJECTID":332761},"geometry":{"x":179438.87000000104,"y":2577556.5800000001}},{"attributes":{"ID":332771,"DIS_CODE":0,"TOWNNAME":"仁德區","LI":"仁德里","LIN":"3鄰","STREET":"仁中七街","SECT":" ","MAREA":" ","LANE":" ","ALLEY":" ","HOUSE_NO":"６９號","E_COORD97":173207.287033,"N_COORD97":2540357.5793599999,"ADDRESS":"仁中七街６９號","OBJECTID":332762},"geometry":{"x":173207.28703300189,"y":2540357.5793620013}},{"attributes":{"ID":332772,"DIS_CODE":0,"TOWNNAME":"新營區","LI":"忠政里","LIN":"26鄰","STREET":"府西路","SECT":" ","MAREA":" ","LANE":"１３７巷","ALLEY":" ","HOUSE_NO":"４號","E_COORD97":179774.20000000001,"N_COORD97":2579337.9199999999,"ADDRESS":"府西路１３７巷４號","OBJECTID":332763},"geometry":{"x":179774.20000000019,"y":2579337.9199999999}},{"attributes":{"ID":332773,"DIS_CODE":0,"TOWNNAME":"東區","LI":"和平里","LIN":"17鄰","STREET":"仁和路","SECT":" ","MAREA":" ","LANE":" ","ALLEY":" ","HOUSE_NO":"７３號之１１０","E_COORD97":171384.14000000001,"N_COORD97":2541564.7799999998,"ADDRESS":"仁和路７３號之１１０","OBJECTID":332764},"geometry":{"x":171384.1400000006,"y":2541564.7800000012}},{"attributes":{"ID":332774,"DIS_CODE":0,"TOWNNAME":"東區","LI":"和平里","LIN":"17鄰","STREET":"仁和路","SECT":" ","MAREA":" ","LANE":" ","ALLEY":" ","HOUSE_NO":"７３號之１１１","E_COORD97":171334.75,"N_COORD97":2541535.8599999999,"ADDRESS":"仁和路７３號之１１１","OBJECTID":332765},"geometry":{"x":171334.75000000093,"y":2541535.8599999975}},{"attributes":{"ID":332775,"DIS_CODE":0,"TOWNNAME":"安平區","LI":"西門里","LIN":"20鄰","STREET":"大平路","SECT":" ","MAREA":" ","LANE":" ","ALLEY":" ","HOUSE_NO":"１號","E_COORD97":163178.14999999999,"N_COORD97":2544501.9100000001,"ADDRESS":"大平路１號","OBJECTID":332766},"geometry":{"x":163178.1500000013,"y":2544501.9100000001}},{"attributes":{"ID":332776,"DIS_CODE":0,"TOWNNAME":"歸仁區","LI":"西埔里","LIN":"11鄰","STREET":"西埔一街","SECT":" ","MAREA":" ","LANE":"２３０巷","ALLEY":" ","HOUSE_NO":"１８號","E_COORD97":177087.75753999999,"N_COORD97":2544657.99156,"ADDRESS":"西埔一街１８８巷１８號","OBJECTID":332767},"geometry":{"x":177087.75753999967,"y":2544657.9915600028}},{"attributes":{"ID":332777,"DIS_CODE":0,"TOWNNAME":"中西區","LI":"大涼里","LIN":"4鄰","STREET":"府前路","SECT":"二段","MAREA":" ","LANE":" ","ALLEY":" ","HOUSE_NO":"２４２號","E_COORD97":167127.49768599999,"N_COORD97":2543613.6545600002,"ADDRESS":"府前路二段２４２號","OBJECTID":332768},"geometry":{"x":167127.49768600147,"y":2543613.6545570027}},{"attributes":{"ID":332778,"DIS_CODE":0,"TOWNNAME":"中西區","LI":"赤嵌里","LIN":"20鄰","STREET":"赤崁東街","SECT":" ","MAREA":" ","LANE":" ","ALLEY":" ","HOUSE_NO":"６６號","E_COORD97":168340.142349,"N_COORD97":2544204.71924,"ADDRESS":"赤崁東街６６號","OBJECTID":332769},"geometry":{"x":168340.14234900195,"y":2544204.7192410007}},{"attributes":{"ID":332779,"DIS_CODE":0,"TOWNNAME":"歸仁區","LI":"西埔里","LIN":"10鄰","STREET":"西埔一街","SECT":" ","MAREA":" ","LANE":" ","ALLEY":" ","HOUSE_NO":"６００號","E_COORD97":177148.20074100001,"N_COORD97":2545250.7906300002,"ADDRESS":"西埔一街６００號","OBJECTID":332770},"geometry":{"x":177148.20074100047,"y":2545250.7906269971}},{"attributes":{"ID":332780,"DIS_CODE":0,"TOWNNAME":"關廟區","LI":"田中里","LIN":"4鄰","STREET":"南雄南路","SECT":" ","MAREA":" ","LANE":" ","ALLEY":" ","HOUSE_NO":"５１３號","E_COORD97":184001.814293,"N_COORD97":2533940.9873700002,"ADDRESS":"南雄南路５１３號","OBJECTID":332771},"geometry":{"x":184001.81429300178,"y":2533940.9873660039}},{"attributes":{"ID":332781,"DIS_CODE":0,"TOWNNAME":"新營區","LI":"南紙里","LIN":"19鄰","STREET":"太子路","SECT":" ","MAREA":" ","LANE":" ","ALLEY":" ","HOUSE_NO":"２４０號之２","E_COORD97":177790.53949,"N_COORD97":2577842.69496,"ADDRESS":"太子路２４０號之２","OBJECTID":332772},"geometry":{"x":177790.53949000034,"y":2577842.6949600019}},{"attributes":{"ID":332782,"DIS_CODE":0,"TOWNNAME":"中西區","LI":"赤嵌里","LIN":"20鄰","STREET":"赤崁東街","SECT":" ","MAREA":" ","LANE":" ","ALLEY":" ","HOUSE_NO":"７８號","E_COORD97":168347.98208399999,"N_COORD97":2544227.2088100002,"ADDRESS":"赤崁東街７８號","OBJECTID":332773},"geometry":{"x":168347.98208399955,"y":2544227.2088120021}},{"attributes":{"ID":332783,"DIS_CODE":0,"TOWNNAME":"中西區","LI":"赤嵌里","LIN":"20鄰","STREET":"赤崁東街","SECT":" ","MAREA":" ","LANE":" ","ALLEY":" ","HOUSE_NO":"８６號","E_COORD97":168355.18616499999,"N_COORD97":2544246.8938000002,"ADDRESS":"赤崁東街８６號","OBJECTID":332774},"geometry":{"x":168355.18616500031,"y":2544246.8938020021}},{"attributes":{"ID":332784,"DIS_CODE":0,"TOWNNAME":"歸仁區","LI":"西埔里","LIN":"10鄰","STREET":"西埔一街","SECT":" ","MAREA":" ","LANE":" ","ALLEY":" ","HOUSE_NO":"６０１號","E_COORD97":177117.33631000001,"N_COORD97":2545301.4452900002,"ADDRESS":"西埔一街６０１號","OBJECTID":332775},"geometry":{"x":177117.33631000016,"y":2545301.4452910032}},{"attributes":{"ID":332785,"DIS_CODE":0,"TOWNNAME":"新營區","LI":"南紙里","LIN":"19鄰","STREET":"太子路","SECT":" ","MAREA":" ","LANE":" ","ALLEY":" ","HOUSE_NO":"４２８號","E_COORD97":176943.000837,"N_COORD97":2577415.59155,"ADDRESS":"太子路４２８號","OBJECTID":332776},"geometry":{"x":176943.00083700009,"y":2577415.5915510003}},{"attributes":{"ID":332786,"DIS_CODE":0,"TOWNNAME":"新營區","LI":"中營里","LIN":"5鄰","STREET":"中山路","SECT":" ","MAREA":" ","LANE":" ","ALLEY":" ","HOUSE_NO":"２０號之２","E_COORD97":180649.34,"N_COORD97":2578413.3799999999,"ADDRESS":"中山路２０號之２","OBJECTID":332777},"geometry":{"x":180649.33999999985,"y":2578413.3800000008}},{"attributes":{"ID":332787,"DIS_CODE":0,"TOWNNAME":"東區","LI":"和平里","LIN":"17鄰","STREET":"仁和路","SECT":" ","MAREA":" ","LANE":" ","ALLEY":" ","HOUSE_NO":"７３號之１１３","E_COORD97":171342.5,"N_COORD97":2541536.6499999999,"ADDRESS":"仁和路７３號之１１３","OBJECTID":332778},"geometry":{"x":171342.49999999907,"y":2541536.6500000022}},{"attributes":{"ID":332788,"DIS_CODE":0,"TOWNNAME":"下營區","LI":"開化里","LIN":"19鄰","STREET":" ","SECT":" ","MAREA":"中營","LANE":" ","ALLEY":" ","HOUSE_NO":"４９６號","E_COORD97":176149.33635900001,"N_COORD97":2567973.5212699999,"ADDRESS":"中營４９６號","OBJECTID":332779},"geometry":{"x":176149.33635899983,"y":2567973.5212740041}},{"attributes":{"ID":332789,"DIS_CODE":0,"TOWNNAME":"下營區","LI":"開化里","LIN":"18鄰","STREET":" ","SECT":" ","MAREA":"中營","LANE":" ","ALLEY":" ","HOUSE_NO":"１４６號","E_COORD97":175486.69325800001,"N_COORD97":2567835.0899700001,"ADDRESS":"中營１４６號","OBJECTID":332780},"geometry":{"x":175486.69325800054,"y":2567835.0899700001}},{"attributes":{"ID":332790,"DIS_CODE":0,"TOWNNAME":"下營區","LI":"開化里","LIN":"9鄰","STREET":" ","SECT":" ","MAREA":"中營","LANE":" ","ALLEY":" ","HOUSE_NO":"５３０號","E_COORD97":176254.40220400001,"N_COORD97":2568156.2925800001,"ADDRESS":"中營５３０號","OBJECTID":332781},"geometry":{"x":176254.40220400225,"y":2568156.2925840039}},{"attributes":{"ID":332791,"DIS_CODE":0,"TOWNNAME":"新營區","LI":"太北里","LIN":"18鄰","STREET":" ","SECT":" ","MAREA":"太子宮","LANE":" ","ALLEY":" ","HOUSE_NO":"７之８號","E_COORD97":176252.63717500001,"N_COORD97":2577198.2330399998,"ADDRESS":"太子宮７之８號","OBJECTID":332782},"geometry":{"x":176252.63717500027,"y":2577198.233043002}},{"attributes":{"ID":332792,"DIS_CODE":0,"TOWNNAME":"仁德區","LI":"中生里","LIN":"15鄰","STREET":" ","SECT":" ","MAREA":"中洲","LANE":" ","ALLEY":" ","HOUSE_NO":"２５０之８２號","E_COORD97":173277.35884599999,"N_COORD97":2533823.30076,"ADDRESS":"中洲２５０之８２號","OBJECTID":332783},"geometry":{"x":173277.35884600133,"y":2533823.3007629998}},{"attributes":{"ID":332793,"DIS_CODE":0,"TOWNNAME":"仁德區","LI":"中生里","LIN":"15鄰","STREET":" ","SECT":" ","MAREA":"中洲","LANE":" ","ALLEY":" ","HOUSE_NO":"２５０之２６號","E_COORD97":173316.81349100001,"N_COORD97":2533774.8730500001,"ADDRESS":"中洲２５０之２６號","OBJECTID":332784},"geometry":{"x":173316.81349099986,"y":2533774.8730529994}},{"attributes":{"ID":332794,"DIS_CODE":0,"TOWNNAME":"仁德區","LI":"中生里","LIN":"15鄰","STREET":" ","SECT":" ","MAREA":"中洲","LANE":" ","ALLEY":" ","HOUSE_NO":"２５０之２７號","E_COORD97":173320.19531800001,"N_COORD97":2533759.3874499998,"ADDRESS":"中洲２５０之２７號","OBJECTID":332785},"geometry":{"x":173320.19531799946,"y":2533759.3874479998}},{"attributes":{"ID":332795,"DIS_CODE":0,"TOWNNAME":"仁德區","LI":"土庫里","LIN":"15鄰","STREET":"土庫一街","SECT":" ","MAREA":" ","LANE":"２２巷","ALLEY":" ","HOUSE_NO":"１０號","E_COORD97":174458.54000000001,"N_COORD97":2543036.25,"ADDRESS":"土庫一街２２巷１０號","OBJECTID":332786},"geometry":{"x":174458.54000000097,"y":2543036.2500000019}},{"attributes":{"ID":332796,"DIS_CODE":0,"TOWNNAME":"下營區","LI":"大屯里","LIN":"3鄰","STREET":" ","SECT":" ","MAREA":"大屯寮","LANE":" ","ALLEY":" ","HOUSE_NO":"２７號之２","E_COORD97":172093.95791999999,"N_COORD97":2570419.99712,"ADDRESS":"大屯寮２７號之２","OBJECTID":332787},"geometry":{"x":172093.95792000089,"y":2570419.9971180018}},{"attributes":{"ID":332797,"DIS_CODE":0,"TOWNNAME":"下營區","LI":"大屯里","LIN":"3鄰","STREET":" ","SECT":" ","MAREA":"大屯寮","LANE":" ","ALLEY":" ","HOUSE_NO":"２６號","E_COORD97":172056.47237999999,"N_COORD97":2570451.1121,"ADDRESS":"大屯寮２６號","OBJECTID":332788},"geometry":{"x":172056.4723800011,"y":2570451.1121020019}},{"attributes":{"ID":332798,"DIS_CODE":0,"TOWNNAME":"新營區","LI":"太北里","LIN":"18鄰","STREET":" ","SECT":" ","MAREA":"太子宮","LANE":" ","ALLEY":" ","HOUSE_NO":"７號之３","E_COORD97":176263.02140999999,"N_COORD97":2577213.7905299999,"ADDRESS":"太子宮７號之３","OBJECTID":332789},"geometry":{"x":176263.02140999958,"y":2577213.7905299999}},{"attributes":{"ID":332799,"DIS_CODE":0,"TOWNNAME":"仁德區","LI":"中生里","LIN":"15鄰","STREET":" ","SECT":" ","MAREA":"中洲","LANE":" ","ALLEY":" ","HOUSE_NO":"２４３號","E_COORD97":173210.830067,"N_COORD97":2533960.99389,"ADDRESS":"中洲２４３號","OBJECTID":332790},"geometry":{"x":173210.83006700128,"y":2533960.9938919991}},{"attributes":{"ID":332800,"DIS_CODE":0,"TOWNNAME":"仁德區","LI":"二行里","LIN":"15鄰","STREET":"行大街","SECT":" ","MAREA":" ","LANE":"１７２巷","ALLEY":" ","HOUSE_NO":"１００號","E_COORD97":169744.29999999999,"N_COORD97":2535253,"ADDRESS":"行大街１７２巷１００號","OBJECTID":332791},"geometry":{"x":169744.30000000075,"y":2535253}},{"attributes":{"ID":332801,"DIS_CODE":0,"TOWNNAME":"仁德區","LI":"二行里","LIN":"15鄰","STREET":"中正西路","SECT":" ","MAREA":" ","LANE":"３５３巷","ALLEY":" ","HOUSE_NO":"３號","E_COORD97":169771.14000000001,"N_COORD97":2535373.4900000002,"ADDRESS":"中正西路３５３巷３號","OBJECTID":332792},"geometry":{"x":169771.13999999966,"y":2535373.4900000021}},{"attributes":{"ID":332802,"DIS_CODE":0,"TOWNNAME":"中西區","LI":"福安里","LIN":"15鄰","STREET":"中正路","SECT":" ","MAREA":" ","LANE":"１１１巷","ALLEY":" ","HOUSE_NO":"２號","E_COORD97":168000.81,"N_COORD97":2543643.1200000001,"ADDRESS":"中正路１１１巷２號","OBJECTID":332793},"geometry":{"x":168000.81000000052,"y":2543643.120000001}},{"attributes":{"ID":332803,"DIS_CODE":0,"TOWNNAME":"中西區","LI":"福安里","LIN":"15鄰","STREET":"中正路","SECT":" ","MAREA":" ","LANE":"１３１巷","ALLEY":" ","HOUSE_NO":"１號","E_COORD97":167962.39000000001,"N_COORD97":2543645.3500000001,"ADDRESS":"中正路１３１巷１號","OBJECTID":332794},"geometry":{"x":167962.38999999966,"y":2543645.3500000034}},{"attributes":{"ID":332804,"DIS_CODE":0,"TOWNNAME":"東區","LI":"崇信里","LIN":"15鄰","STREET":"崇學路","SECT":" ","MAREA":" ","LANE":"２３０巷","ALLEY":" ","HOUSE_NO":"３６之１號","E_COORD97":170652.47,"N_COORD97":2542456.4199999999,"ADDRESS":"崇學路２３０巷３６之１號","OBJECTID":332795},"geometry":{"x":170652.46999999974,"y":2542456.4200000018}},{"attributes":{"ID":332805,"DIS_CODE":0,"TOWNNAME":"東區","LI":"大智里","LIN":"15鄰","STREET":"長東街","SECT":" ","MAREA":" ","LANE":"１４５巷","ALLEY":" ","HOUSE_NO":"５９號","E_COORD97":171190.79000000001,"N_COORD97":2540079.3700000001,"ADDRESS":"長東街１４５巷５９號","OBJECTID":332796},"geometry":{"x":171190.79000000004,"y":2540079.370000001}},{"attributes":{"ID":332806,"DIS_CODE":0,"TOWNNAME":"仁德區","LI":"中生里","LIN":"14鄰","STREET":" ","SECT":" ","MAREA":"中洲","LANE":" ","ALLEY":" ","HOUSE_NO":"２３４號","E_COORD97":173183.49963100001,"N_COORD97":2533941.7322399998,"ADDRESS":"中洲２３４號","OBJECTID":332797},"geometry":{"x":173183.49963100068,"y":2533941.7322360016}},{"attributes":{"ID":332807,"DIS_CODE":0,"TOWNNAME":"下營區","LI":"開化里","LIN":"2鄰","STREET":" ","SECT":" ","MAREA":"中營","LANE":" ","ALLEY":" ","HOUSE_NO":"１００號之１","E_COORD97":175530.75602299999,"N_COORD97":2568246.5725099999,"ADDRESS":"中營１００號之１","OBJECTID":332798},"geometry":{"x":175530.75602300093,"y":2568246.5725060012}},{"attributes":{"ID":332808,"DIS_CODE":0,"TOWNNAME":"新營區","LI":"南紙里","LIN":"10鄰","STREET":"南紙街","SECT":" ","MAREA":" ","LANE":" ","ALLEY":" ","HOUSE_NO":"８６號","E_COORD97":177801.62224500001,"N_COORD97":2577586.0889599998,"ADDRESS":"南紙街８６號","OBJECTID":332799},"geometry":{"x":177801.62224500068,"y":2577586.0889590047}},{"attributes":{"ID":332809,"DIS_CODE":0,"TOWNNAME":"新營區","LI":"南紙里","LIN":"19鄰","STREET":"太子路","SECT":" ","MAREA":" ","LANE":" ","ALLEY":" ","HOUSE_NO":"３６０之３號","E_COORD97":177348.57110500001,"N_COORD97":2577651.87757,"ADDRESS":"太子路３６０之３號","OBJECTID":332800},"geometry":{"x":177348.57110499963,"y":2577651.8775699995}}]}