{"displayFieldName":"TOWNNAME","fieldAliases":{"ID":"ID","DIS_CODE":"DIS_CODE","TOWNNAME":"TOWNNAME","LI":"LI","LIN":"LIN","STREET":"STREET","SECT":"SECT","MAREA":"MAREA","LANE":"LANE","ALLEY":"ALLEY","HOUSE_NO":"HOUSE_NO","E_COORD97":"E_COORD97","N_COORD97":"N_COORD97","ADDRESS":"ADDRESS","OBJECTID":"OBJECTID"},"geometryType":"esriGeometryPoint","spatialReference":{"wkid":102443,"latestWkid":3826},"fields":[{"name":"ID","type":"esriFieldTypeDouble","alias":"ID"},{"name":"DIS_CODE","type":"esriFieldTypeInteger","alias":"DIS_CODE"},{"name":"TOWNNAME","type":"esriFieldTypeString","alias":"TOWNNAME","length":8},{"name":"LI","type":"esriFieldTypeString","alias":"LI","length":8},{"name":"LIN","type":"esriFieldTypeString","alias":"LIN","length":12},{"name":"STREET","type":"esriFieldTypeString","alias":"STREET","length":20},{"name":"SECT","type":"esriFieldTypeString","alias":"SECT","length":8},{"name":"MAREA","type":"esriFieldTypeString","alias":"MAREA","length":12},{"name":"LANE","type":"esriFieldTypeString","alias":"LANE","length":10},{"name":"ALLEY","type":"esriFieldTypeString","alias":"ALLEY","length":10},{"name":"HOUSE_NO","type":"esriFieldTypeString","alias":"HOUSE_NO","length":20},{"name":"E_COORD97","type":"esriFieldTypeDouble","alias":"E_COORD97"},{"name":"N_COORD97","type":"esriFieldTypeDouble","alias":"N_COORD97"},{"name":"ADDRESS","type":"esriFieldTypeString","alias":"ADDRESS","length":50},{"name":"OBJECTID","type":"esriFieldTypeOID","alias":"OBJECTID"}],"features":[{"attributes":{"ID":91801,"DIS_CODE":0,"TOWNNAME":"白河區","LI":"河東里","LIN":"12鄰","STREET":" ","SECT":" ","MAREA":"糞箕湖","LANE":" ","ALLEY":" ","HOUSE_NO":"１５４之６號","E_COORD97":190440.66,"N_COORD97":2581847.98,"ADDRESS":"糞箕湖１５４之６號","OBJECTID":91801},"geometry":{"x":190440.66000000015,"y":2581847.9800000042}},{"attributes":{"ID":91802,"DIS_CODE":0,"TOWNNAME":"白河區","LI":"河東里","LIN":"12鄰","STREET":" ","SECT":" ","MAREA":"糞箕湖","LANE":" ","ALLEY":" ","HOUSE_NO":"１５４之７號","E_COORD97":190410.35999999999,"N_COORD97":2581827.8900000001,"ADDRESS":"糞箕湖１５４之７號","OBJECTID":91802},"geometry":{"x":190410.36000000127,"y":2581827.8900000006}},{"attributes":{"ID":91803,"DIS_CODE":0,"TOWNNAME":"白河區","LI":"河東里","LIN":"12鄰","STREET":" ","SECT":" ","MAREA":"糞箕湖","LANE":" ","ALLEY":" ","HOUSE_NO":"１５４號","E_COORD97":190595.54999999999,"N_COORD97":2582024.04,"ADDRESS":"糞箕湖１５４號","OBJECTID":91803},"geometry":{"x":190595.54999999981,"y":2582024.040000001}},{"attributes":{"ID":91804,"DIS_CODE":0,"TOWNNAME":"白河區","LI":"河東里","LIN":"12鄰","STREET":" ","SECT":" ","MAREA":"糞箕湖","LANE":" ","ALLEY":" ","HOUSE_NO":"１５６之１號","E_COORD97":190318.59,"N_COORD97":2582119.8700000001,"ADDRESS":"糞箕湖１５６之１號","OBJECTID":91804},"geometry":{"x":190318.59000000078,"y":2582119.870000001}},{"attributes":{"ID":91805,"DIS_CODE":0,"TOWNNAME":"白河區","LI":"河東里","LIN":"12鄰","STREET":" ","SECT":" ","MAREA":"糞箕湖","LANE":" ","ALLEY":" ","HOUSE_NO":"１５６之２號","E_COORD97":190329.37,"N_COORD97":2582158.3900000001,"ADDRESS":"糞箕湖１５６之２號","OBJECTID":91805},"geometry":{"x":190329.37000000011,"y":2582158.3900000025}},{"attributes":{"ID":91806,"DIS_CODE":0,"TOWNNAME":"白河區","LI":"河東里","LIN":"12鄰","STREET":" ","SECT":" ","MAREA":"糞箕湖","LANE":" ","ALLEY":" ","HOUSE_NO":"１５６之６號","E_COORD97":190347.29999999999,"N_COORD97":2582184.3599999999,"ADDRESS":"糞箕湖１５６之６號","OBJECTID":91806},"geometry":{"x":190347.30000000075,"y":2582184.3600000013}},{"attributes":{"ID":91807,"DIS_CODE":0,"TOWNNAME":"白河區","LI":"河東里","LIN":"12鄰","STREET":" ","SECT":" ","MAREA":"糞箕湖","LANE":" ","ALLEY":" ","HOUSE_NO":"１５６號","E_COORD97":190350.87,"N_COORD97":2582122.6299999999,"ADDRESS":"糞箕湖１５６號","OBJECTID":91807},"geometry":{"x":190350.87000000104,"y":2582122.629999999}},{"attributes":{"ID":91808,"DIS_CODE":0,"TOWNNAME":"白河區","LI":"河東里","LIN":"12鄰","STREET":" ","SECT":" ","MAREA":"糞箕湖","LANE":" ","ALLEY":" ","HOUSE_NO":"１５７號","E_COORD97":190343.17000000001,"N_COORD97":2582102.29,"ADDRESS":"糞箕湖１５７號","OBJECTID":91808},"geometry":{"x":190343.17000000086,"y":2582102.2900000028}},{"attributes":{"ID":91809,"DIS_CODE":0,"TOWNNAME":"白河區","LI":"河東里","LIN":"12鄰","STREET":" ","SECT":" ","MAREA":"糞箕湖","LANE":" ","ALLEY":" ","HOUSE_NO":"１５８之１號","E_COORD97":190294,"N_COORD97":2582157.98,"ADDRESS":"糞箕湖１５８之１號","OBJECTID":91809},"geometry":{"x":190294,"y":2582157.9800000023}},{"attributes":{"ID":91810,"DIS_CODE":0,"TOWNNAME":"白河區","LI":"河東里","LIN":"12鄰","STREET":" ","SECT":" ","MAREA":"糞箕湖","LANE":" ","ALLEY":" ","HOUSE_NO":"１５８號","E_COORD97":190290.54999999999,"N_COORD97":2582129,"ADDRESS":"糞箕湖１５８號","OBJECTID":91810},"geometry":{"x":190290.54999999981,"y":2582129.0000000019}},{"attributes":{"ID":91811,"DIS_CODE":0,"TOWNNAME":"白河區","LI":"河東里","LIN":"12鄰","STREET":" ","SECT":" ","MAREA":"糞箕湖","LANE":" ","ALLEY":" ","HOUSE_NO":"１５９號","E_COORD97":190290.87,"N_COORD97":2582103.1200000001,"ADDRESS":"糞箕湖１５９號","OBJECTID":91811},"geometry":{"x":190290.87000000197,"y":2582103.1200000029}},{"attributes":{"ID":91812,"DIS_CODE":0,"TOWNNAME":"白河區","LI":"河東里","LIN":"12鄰","STREET":" ","SECT":" ","MAREA":"糞箕湖","LANE":" ","ALLEY":" ","HOUSE_NO":"１６０號","E_COORD97":190319.34,"N_COORD97":2582085.7000000002,"ADDRESS":"糞箕湖１６０號","OBJECTID":91812},"geometry":{"x":190319.33999999985,"y":2582085.6999999974}},{"attributes":{"ID":91813,"DIS_CODE":0,"TOWNNAME":"白河區","LI":"河東里","LIN":"12鄰","STREET":" ","SECT":" ","MAREA":"糞箕湖","LANE":" ","ALLEY":" ","HOUSE_NO":"１６２之１號","E_COORD97":190267.82999999999,"N_COORD97":2582072.1299999999,"ADDRESS":"糞箕湖１６２之１號","OBJECTID":91813},"geometry":{"x":190267.83000000101,"y":2582072.129999999}},{"attributes":{"ID":91814,"DIS_CODE":0,"TOWNNAME":"白河區","LI":"河東里","LIN":"12鄰","STREET":" ","SECT":" ","MAREA":"糞箕湖","LANE":" ","ALLEY":" ","HOUSE_NO":"１６２之２號","E_COORD97":190265.70999999999,"N_COORD97":2582068.7200000002,"ADDRESS":"糞箕湖１６２之２號","OBJECTID":91814},"geometry":{"x":190265.70999999996,"y":2582068.7200000007}},{"attributes":{"ID":91815,"DIS_CODE":0,"TOWNNAME":"白河區","LI":"河東里","LIN":"12鄰","STREET":" ","SECT":" ","MAREA":"糞箕湖","LANE":" ","ALLEY":" ","HOUSE_NO":"１６２之３號","E_COORD97":190263.26999999999,"N_COORD97":2582064.9199999999,"ADDRESS":"糞箕湖１６２之３號","OBJECTID":91815},"geometry":{"x":190263.26999999955,"y":2582064.9200000037}},{"attributes":{"ID":91816,"DIS_CODE":0,"TOWNNAME":"白河區","LI":"河東里","LIN":"12鄰","STREET":" ","SECT":" ","MAREA":"糞箕湖","LANE":" ","ALLEY":" ","HOUSE_NO":"１６２之５號","E_COORD97":190259.48999999999,"N_COORD97":2582060.6099999999,"ADDRESS":"糞箕湖１６２之５號","OBJECTID":91816},"geometry":{"x":190259.49000000209,"y":2582060.6100000013}},{"attributes":{"ID":91817,"DIS_CODE":0,"TOWNNAME":"白河區","LI":"河東里","LIN":"12鄰","STREET":" ","SECT":" ","MAREA":"糞箕湖","LANE":" ","ALLEY":" ","HOUSE_NO":"１６２之６號","E_COORD97":190256.01999999999,"N_COORD97":2582056.1600000001,"ADDRESS":"糞箕湖１６２之６號","OBJECTID":91817},"geometry":{"x":190256.02000000048,"y":2582056.1600000001}},{"attributes":{"ID":91818,"DIS_CODE":0,"TOWNNAME":"白河區","LI":"河東里","LIN":"12鄰","STREET":" ","SECT":" ","MAREA":"糞箕湖","LANE":" ","ALLEY":" ","HOUSE_NO":"１６２之７號","E_COORD97":190252.26999999999,"N_COORD97":2582050.4700000002,"ADDRESS":"糞箕湖１６２之７號","OBJECTID":91818},"geometry":{"x":190252.27000000048,"y":2582050.4700000007}},{"attributes":{"ID":91819,"DIS_CODE":0,"TOWNNAME":"白河區","LI":"河東里","LIN":"12鄰","STREET":" ","SECT":" ","MAREA":"糞箕湖","LANE":" ","ALLEY":" ","HOUSE_NO":"１６２之８號","E_COORD97":190250.20000000001,"N_COORD97":2582042.4300000002,"ADDRESS":"糞箕湖１６２之８號","OBJECTID":91819},"geometry":{"x":190250.20000000112,"y":2582042.4299999997}},{"attributes":{"ID":91820,"DIS_CODE":0,"TOWNNAME":"白河區","LI":"河東里","LIN":"12鄰","STREET":" ","SECT":" ","MAREA":"糞箕湖","LANE":" ","ALLEY":" ","HOUSE_NO":"１６２號","E_COORD97":190282.38,"N_COORD97":2582082.6499999999,"ADDRESS":"糞箕湖１６２號","OBJECTID":91820},"geometry":{"x":190282.38000000082,"y":2582082.6500000004}},{"attributes":{"ID":91821,"DIS_CODE":0,"TOWNNAME":"白河區","LI":"河東里","LIN":"12鄰","STREET":" ","SECT":" ","MAREA":"糞箕湖","LANE":" ","ALLEY":" ","HOUSE_NO":"１７２之６號","E_COORD97":190441.69,"N_COORD97":2582083.9900000002,"ADDRESS":"糞箕湖１７２之６號","OBJECTID":91821},"geometry":{"x":190441.69000000134,"y":2582083.9900000002}},{"attributes":{"ID":91822,"DIS_CODE":0,"TOWNNAME":"白河區","LI":"河東里","LIN":"12鄰","STREET":" ","SECT":" ","MAREA":"糞箕湖","LANE":" ","ALLEY":" ","HOUSE_NO":"１７２號","E_COORD97":190382.06,"N_COORD97":2582041.9100000001,"ADDRESS":"糞箕湖１７２號","OBJECTID":91822},"geometry":{"x":190382.05999999866,"y":2582041.910000002}},{"attributes":{"ID":91823,"DIS_CODE":0,"TOWNNAME":"白河區","LI":"河東里","LIN":"12鄰","STREET":" ","SECT":" ","MAREA":"糞箕湖","LANE":" ","ALLEY":" ","HOUSE_NO":"１７８號","E_COORD97":190435.35000000001,"N_COORD97":2581903.54,"ADDRESS":"糞箕湖１７８號","OBJECTID":91823},"geometry":{"x":190435.34999999963,"y":2581903.5399999972}},{"attributes":{"ID":91824,"DIS_CODE":0,"TOWNNAME":"白河區","LI":"河東里","LIN":"12鄰","STREET":" ","SECT":" ","MAREA":"糞箕湖","LANE":" ","ALLEY":" ","HOUSE_NO":"１７９號","E_COORD97":190444.04999999999,"N_COORD97":2581935.0099999998,"ADDRESS":"糞箕湖１７９號","OBJECTID":91824},"geometry":{"x":190444.05000000075,"y":2581935.0099999979}},{"attributes":{"ID":91825,"DIS_CODE":0,"TOWNNAME":"白河區","LI":"河東里","LIN":"12鄰","STREET":" ","SECT":" ","MAREA":"糞箕湖","LANE":" ","ALLEY":" ","HOUSE_NO":"１８２號","E_COORD97":190499.95999999999,"N_COORD97":2582114.7799999998,"ADDRESS":"糞箕湖１８２號","OBJECTID":91825},"geometry":{"x":190499.95999999996,"y":2582114.7799999993}},{"attributes":{"ID":91826,"DIS_CODE":0,"TOWNNAME":"白河區","LI":"河東里","LIN":"12鄰","STREET":" ","SECT":" ","MAREA":"糞箕湖","LANE":" ","ALLEY":" ","HOUSE_NO":"１８５之３號","E_COORD97":190663.38,"N_COORD97":2582048.3300000001,"ADDRESS":"糞箕湖１８５之３號","OBJECTID":91826},"geometry":{"x":190663.38000000175,"y":2582048.3299999982}},{"attributes":{"ID":91827,"DIS_CODE":0,"TOWNNAME":"官田區","LI":"拔林里","LIN":"12鄰","STREET":" ","SECT":" ","MAREA":"拔子林","LANE":" ","ALLEY":" ","HOUSE_NO":"８６號之１","E_COORD97":180098.35999999999,"N_COORD97":2563806.9300000002,"ADDRESS":"拔子林８６號之１","OBJECTID":91827},"geometry":{"x":180098.36000000127,"y":2563806.9299999997}},{"attributes":{"ID":91828,"DIS_CODE":0,"TOWNNAME":"白河區","LI":"河東里","LIN":"12鄰","STREET":" ","SECT":" ","MAREA":"糞箕湖","LANE":" ","ALLEY":" ","HOUSE_NO":"１８５之７號","E_COORD97":190506.60000000001,"N_COORD97":2582088.1600000001,"ADDRESS":"糞箕湖１８５之７號","OBJECTID":91828},"geometry":{"x":190506.59999999963,"y":2582088.160000002}},{"attributes":{"ID":91829,"DIS_CODE":0,"TOWNNAME":"白河區","LI":"河東里","LIN":"12鄰","STREET":" ","SECT":" ","MAREA":"糞箕湖","LANE":" ","ALLEY":" ","HOUSE_NO":"１８５號","E_COORD97":190634.13,"N_COORD97":2582221.3799999999,"ADDRESS":"糞箕湖１８５號","OBJECTID":91829},"geometry":{"x":190634.12999999989,"y":2582221.3800000008}},{"attributes":{"ID":91830,"DIS_CODE":0,"TOWNNAME":"白河區","LI":"河東里","LIN":"12鄰","STREET":" ","SECT":" ","MAREA":"糞箕湖","LANE":" ","ALLEY":" ","HOUSE_NO":"１８６之１１號","E_COORD97":190818.89000000001,"N_COORD97":2582004.4300000002,"ADDRESS":"糞箕湖１８６之１１號","OBJECTID":91830},"geometry":{"x":190818.88999999966,"y":2582004.4300000016}},{"attributes":{"ID":91831,"DIS_CODE":0,"TOWNNAME":"白河區","LI":"河東里","LIN":"12鄰","STREET":" ","SECT":" ","MAREA":"糞箕湖","LANE":" ","ALLEY":" ","HOUSE_NO":"１８６號","E_COORD97":190827.51999999999,"N_COORD97":2581810.7599999998,"ADDRESS":"糞箕湖１８６號","OBJECTID":91831},"geometry":{"x":190827.51999999955,"y":2581810.7599999998}},{"attributes":{"ID":91832,"DIS_CODE":0,"TOWNNAME":"安南區","LI":"海西里","LIN":"15鄰","STREET":"海環街","SECT":" ","MAREA":" ","LANE":"２８１巷","ALLEY":"２０弄","HOUSE_NO":"２０之８號","E_COORD97":165996.47,"N_COORD97":2548835.6099999999,"ADDRESS":"海環街２８１巷２０弄２０之８號","OBJECTID":91832},"geometry":{"x":165996.47000000067,"y":2548835.6099999994}},{"attributes":{"ID":91833,"DIS_CODE":0,"TOWNNAME":"新市區","LI":"大洲里","LIN":"9鄰","STREET":" ","SECT":" ","MAREA":"大洲","LANE":" ","ALLEY":" ","HOUSE_NO":"８７號","E_COORD97":174251.07000000001,"N_COORD97":2551465.75,"ADDRESS":"大洲８７號","OBJECTID":91833},"geometry":{"x":174251.0700000003,"y":2551465.7500000019}},{"attributes":{"ID":91834,"DIS_CODE":0,"TOWNNAME":"安南區","LI":"頂安里","LIN":"15鄰","STREET":"長溪路","SECT":"一段","MAREA":" ","LANE":"３４１巷","ALLEY":"６弄","HOUSE_NO":"１８之１號","E_COORD97":168655.78,"N_COORD97":2548823.4500000002,"ADDRESS":"長溪路一段３４１巷６弄１８之１號","OBJECTID":91834},"geometry":{"x":168655.78000000212,"y":2548823.4499999993}},{"attributes":{"ID":91835,"DIS_CODE":0,"TOWNNAME":"安南區","LI":"淵中里","LIN":"15鄰","STREET":"安中路","SECT":"四段","MAREA":" ","LANE":"１５４巷","ALLEY":"５７弄","HOUSE_NO":"３８號","E_COORD97":165030.85000000001,"N_COORD97":2550195.5899999999,"ADDRESS":"安中路四段１５４巷５７弄３８號","OBJECTID":91835},"geometry":{"x":165030.85000000056,"y":2550195.5900000017}},{"attributes":{"ID":91836,"DIS_CODE":0,"TOWNNAME":"安南區","LI":"淵中里","LIN":"15鄰","STREET":"安中路","SECT":"四段","MAREA":" ","LANE":"１５４巷","ALLEY":"９７弄","HOUSE_NO":"１１號","E_COORD97":165068.95000000001,"N_COORD97":2550228.29,"ADDRESS":"安中路四段１５４巷９７弄１１號","OBJECTID":91836},"geometry":{"x":165068.95000000019,"y":2550228.2899999991}},{"attributes":{"ID":91837,"DIS_CODE":0,"TOWNNAME":"中西區","LI":"文賢里","LIN":" ","STREET":"文和街","SECT":" ","MAREA":" ","LANE":" ","ALLEY":" ","HOUSE_NO":"６４號","E_COORD97":167194.42999999999,"N_COORD97":2544899.1299999999,"ADDRESS":"文和街６４號","OBJECTID":91837},"geometry":{"x":167194.4299999997,"y":2544899.129999999}},{"attributes":{"ID":91838,"DIS_CODE":0,"TOWNNAME":"中西區","LI":"水仙里","LIN":" ","STREET":"民族路","SECT":"三段","MAREA":" ","LANE":" ","ALLEY":" ","HOUSE_NO":"１３號","E_COORD97":167906.69,"N_COORD97":2544241.6600000001,"ADDRESS":"民族路三段１３號","OBJECTID":91838},"geometry":{"x":167906.69000000041,"y":2544241.660000002}},{"attributes":{"ID":91839,"DIS_CODE":0,"TOWNNAME":"中西區","LI":"水仙里","LIN":" ","STREET":"國華街","SECT":"三段","MAREA":" ","LANE":" ","ALLEY":" ","HOUSE_NO":"８７號","E_COORD97":167787.60000000001,"N_COORD97":2544021.1400000001,"ADDRESS":"國華街三段８７號","OBJECTID":91839},"geometry":{"x":167787.59999999963,"y":2544021.1400000025}},{"attributes":{"ID":91840,"DIS_CODE":0,"TOWNNAME":"中西區","LI":"水仙里","LIN":" ","STREET":"民族路","SECT":"三段","MAREA":" ","LANE":" ","ALLEY":" ","HOUSE_NO":"３９號","E_COORD97":167809.67000000001,"N_COORD97":2544277.1499999999,"ADDRESS":"民族路三段３９號","OBJECTID":91840},"geometry":{"x":167809.66999999993,"y":2544277.1500000004}},{"attributes":{"ID":91841,"DIS_CODE":0,"TOWNNAME":"中西區","LI":"民生里","LIN":" ","STREET":"金華路","SECT":" ","MAREA":" ","LANE":" ","ALLEY":" ","HOUSE_NO":"６９號","E_COORD97":167182.35999999999,"N_COORD97":2543401.46,"ADDRESS":"金華路６９號","OBJECTID":91841},"geometry":{"x":167182.3600000022,"y":2543401.459999999}},{"attributes":{"ID":91842,"DIS_CODE":0,"TOWNNAME":"西港區","LI":"營西里","LIN":"12鄰","STREET":" ","SECT":" ","MAREA":"後營","LANE":" ","ALLEY":" ","HOUSE_NO":"９５號之１","E_COORD97":169735.59,"N_COORD97":2560421.6200000001,"ADDRESS":"後營９５號之１","OBJECTID":91842},"geometry":{"x":169735.59000000078,"y":2560421.6200000029}},{"attributes":{"ID":91843,"DIS_CODE":0,"TOWNNAME":"西港區","LI":"營西里","LIN":"12鄰","STREET":" ","SECT":" ","MAREA":"後營","LANE":" ","ALLEY":" ","HOUSE_NO":"９７號","E_COORD97":169717.87,"N_COORD97":2560418.6200000001,"ADDRESS":"後營９７號","OBJECTID":91843},"geometry":{"x":169717.87000000197,"y":2560418.6200000029}},{"attributes":{"ID":91844,"DIS_CODE":0,"TOWNNAME":"仁德區","LI":"成功里","LIN":"15鄰","STREET":"全福路","SECT":" ","MAREA":" ","LANE":"８０巷","ALLEY":"１４弄","HOUSE_NO":"２６號","E_COORD97":170955.51000000001,"N_COORD97":2539280.5,"ADDRESS":"全福路８０巷１４弄２６號","OBJECTID":91844},"geometry":{"x":170955.50999999978,"y":2539280.5}},{"attributes":{"ID":91845,"DIS_CODE":0,"TOWNNAME":"仁德區","LI":"成功里","LIN":"15鄰","STREET":"全福路","SECT":" ","MAREA":" ","LANE":"８０巷","ALLEY":"１４弄","HOUSE_NO":"１３號","E_COORD97":170979.45999999999,"N_COORD97":2539260.25,"ADDRESS":"全福路８０巷１４弄１３號","OBJECTID":91845},"geometry":{"x":170979.45999999996,"y":2539260.2500000019}},{"attributes":{"ID":91846,"DIS_CODE":0,"TOWNNAME":"仁德區","LI":"成功里","LIN":"15鄰","STREET":"全福路","SECT":" ","MAREA":" ","LANE":"８０巷","ALLEY":"１４弄","HOUSE_NO":"１１號","E_COORD97":170983.37,"N_COORD97":2539260.25,"ADDRESS":"全福路８０巷１４弄１１號","OBJECTID":91846},"geometry":{"x":170983.37000000104,"y":2539260.2500000019}},{"attributes":{"ID":91847,"DIS_CODE":0,"TOWNNAME":"仁德區","LI":"成功里","LIN":"15鄰","STREET":"全福路","SECT":" ","MAREA":" ","LANE":"８０巷","ALLEY":"１４弄","HOUSE_NO":"１５號","E_COORD97":170975.41,"N_COORD97":2539260.75,"ADDRESS":"全福路８０巷１４弄１５號","OBJECTID":91847},"geometry":{"x":170975.40999999922,"y":2539260.7500000019}},{"attributes":{"ID":91848,"DIS_CODE":0,"TOWNNAME":"仁德區","LI":"成功里","LIN":"15鄰","STREET":"全福路","SECT":" ","MAREA":" ","LANE":"８０巷","ALLEY":"１４弄","HOUSE_NO":"３６號","E_COORD97":170934.26000000001,"N_COORD97":2539282.25,"ADDRESS":"全福路８０巷１４弄３６號","OBJECTID":91848},"geometry":{"x":170934.26000000071,"y":2539282.25}},{"attributes":{"ID":91849,"DIS_CODE":0,"TOWNNAME":"仁德區","LI":"成功里","LIN":"15鄰","STREET":"全福路","SECT":" ","MAREA":" ","LANE":"８０巷","ALLEY":"１４弄","HOUSE_NO":"１９號","E_COORD97":170966.62,"N_COORD97":2539261.25,"ADDRESS":"全福路８０巷１４弄１９號","OBJECTID":91849},"geometry":{"x":170966.62000000011,"y":2539261.25}},{"attributes":{"ID":91850,"DIS_CODE":0,"TOWNNAME":"仁德區","LI":"成功里","LIN":"15鄰","STREET":"全福路","SECT":" ","MAREA":" ","LANE":"８０巷","ALLEY":"１４弄","HOUSE_NO":"２３號","E_COORD97":170958.70999999999,"N_COORD97":2539261.75,"ADDRESS":"全福路８０巷１４弄２３號","OBJECTID":91850},"geometry":{"x":170958.71000000089,"y":2539261.75}},{"attributes":{"ID":91851,"DIS_CODE":0,"TOWNNAME":"仁德區","LI":"成功里","LIN":"15鄰","STREET":"全福路","SECT":" ","MAREA":" ","LANE":"８０巷","ALLEY":"１４弄","HOUSE_NO":"１０號","E_COORD97":170989.42000000001,"N_COORD97":2539277.75,"ADDRESS":"全福路８０巷１４弄１０號","OBJECTID":91851},"geometry":{"x":170989.42000000086,"y":2539277.75}},{"attributes":{"ID":91852,"DIS_CODE":0,"TOWNNAME":"仁德區","LI":"成功里","LIN":"15鄰","STREET":"全福路","SECT":" ","MAREA":" ","LANE":"８０巷","ALLEY":"１４弄","HOUSE_NO":"８號","E_COORD97":170992.32000000001,"N_COORD97":2539274,"ADDRESS":"全福路８０巷１４弄８號","OBJECTID":91852},"geometry":{"x":170992.32000000123,"y":2539274}},{"attributes":{"ID":91853,"DIS_CODE":0,"TOWNNAME":"仁德區","LI":"成功里","LIN":"15鄰","STREET":"全福路","SECT":" ","MAREA":" ","LANE":"８０巷","ALLEY":"１４弄","HOUSE_NO":"２１號","E_COORD97":170962.51999999999,"N_COORD97":2539261.5,"ADDRESS":"全福路８０巷１４弄２１號","OBJECTID":91853},"geometry":{"x":170962.52000000048,"y":2539261.5000000019}},{"attributes":{"ID":91854,"DIS_CODE":0,"TOWNNAME":"仁德區","LI":"成功里","LIN":"15鄰","STREET":"全福路","SECT":" ","MAREA":" ","LANE":"８０巷","ALLEY":"１４弄","HOUSE_NO":"５號","E_COORD97":170995.67000000001,"N_COORD97":2539259,"ADDRESS":"全福路８０巷１４弄５號","OBJECTID":91854},"geometry":{"x":170995.67000000179,"y":2539259.0000000019}},{"attributes":{"ID":91855,"DIS_CODE":0,"TOWNNAME":"仁德區","LI":"上崙里","LIN":"10鄰","STREET":"德善路","SECT":" ","MAREA":" ","LANE":"３０５巷","ALLEY":"１３弄","HOUSE_NO":"１５０號","E_COORD97":174058.82000000001,"N_COORD97":2538286.0699999998,"ADDRESS":"德善路３０５巷１３弄１５０號","OBJECTID":91855},"geometry":{"x":174058.82000000123,"y":2538286.0700000003}},{"attributes":{"ID":91856,"DIS_CODE":0,"TOWNNAME":"東區","LI":"新東里","LIN":"10鄰","STREET":"衛國街","SECT":" ","MAREA":" ","LANE":"１０６巷","ALLEY":"２９弄","HOUSE_NO":"８號","E_COORD97":170424.59,"N_COORD97":2542979.0499999998,"ADDRESS":"衛國街１０６巷２９弄８號","OBJECTID":91856},"geometry":{"x":170424.58999999985,"y":2542979.0500000007}},{"attributes":{"ID":91857,"DIS_CODE":0,"TOWNNAME":"中西區","LI":"小西里","LIN":"10鄰","STREET":"西門路","SECT":"一段","MAREA":" ","LANE":"７０２巷","ALLEY":"３弄","HOUSE_NO":"１２號","E_COORD97":167793.10999999999,"N_COORD97":2543375.4700000002,"ADDRESS":"西門路一段７０２巷３弄１２號","OBJECTID":91857},"geometry":{"x":167793.11000000127,"y":2543375.4700000025}},{"attributes":{"ID":91858,"DIS_CODE":0,"TOWNNAME":"中西區","LI":"小西里","LIN":"10鄰","STREET":"西門路","SECT":"一段","MAREA":" ","LANE":"７０２巷","ALLEY":"３弄","HOUSE_NO":"１４號","E_COORD97":167787.35999999999,"N_COORD97":2543378.3799999999,"ADDRESS":"西門路一段７０２巷３弄１４號","OBJECTID":91858},"geometry":{"x":167787.3600000022,"y":2543378.379999999}},{"attributes":{"ID":91859,"DIS_CODE":0,"TOWNNAME":"中西區","LI":"小西里","LIN":"10鄰","STREET":"西門路","SECT":"一段","MAREA":" ","LANE":"７０２巷","ALLEY":"３弄","HOUSE_NO":"１號","E_COORD97":167774.45999999999,"N_COORD97":2543363.8300000001,"ADDRESS":"西門路一段７０２巷３弄１號","OBJECTID":91859},"geometry":{"x":167774.46000000183,"y":2543363.8300000001}},{"attributes":{"ID":91860,"DIS_CODE":0,"TOWNNAME":"中西區","LI":"小西里","LIN":"10鄰","STREET":"西門路","SECT":"一段","MAREA":" ","LANE":"７０２巷","ALLEY":"３弄","HOUSE_NO":"２號","E_COORD97":167788.26999999999,"N_COORD97":2543361.1899999999,"ADDRESS":"西門路一段７０２巷３弄２號","OBJECTID":91860},"geometry":{"x":167788.26999999955,"y":2543361.1900000032}},{"attributes":{"ID":91861,"DIS_CODE":0,"TOWNNAME":"安南區","LI":"海西里","LIN":"10鄰","STREET":"海中街","SECT":" ","MAREA":" ","LANE":"７７巷","ALLEY":"４５弄","HOUSE_NO":"１５號","E_COORD97":166329.23999999999,"N_COORD97":2548849.9300000002,"ADDRESS":"海中街７７巷４５弄１５號","OBJECTID":91861},"geometry":{"x":166329.24000000115,"y":2548849.9300000016}},{"attributes":{"ID":91862,"DIS_CODE":0,"TOWNNAME":"安南區","LI":"海西里","LIN":"10鄰","STREET":"海中街","SECT":" ","MAREA":" ","LANE":"７７巷","ALLEY":"４５弄","HOUSE_NO":"１７號","E_COORD97":166330.92999999999,"N_COORD97":2548845.9900000002,"ADDRESS":"海中街７７巷４５弄１７號","OBJECTID":91862},"geometry":{"x":166330.93000000063,"y":2548845.9900000021}},{"attributes":{"ID":91863,"DIS_CODE":0,"TOWNNAME":"安南區","LI":"海西里","LIN":"10鄰","STREET":"海中街","SECT":" ","MAREA":" ","LANE":"７７巷","ALLEY":"４５弄","HOUSE_NO":"１９號","E_COORD97":166333.75,"N_COORD97":2548842.8900000001,"ADDRESS":"海中街７７巷４５弄１９號","OBJECTID":91863},"geometry":{"x":166333.75000000093,"y":2548842.8900000006}},{"attributes":{"ID":91864,"DIS_CODE":0,"TOWNNAME":"安南區","LI":"海西里","LIN":"10鄰","STREET":"海中街","SECT":" ","MAREA":" ","LANE":"７７巷","ALLEY":"４５弄","HOUSE_NO":"２１號","E_COORD97":166336.29000000001,"N_COORD97":2548838.9500000002,"ADDRESS":"海中街７７巷４５弄２１號","OBJECTID":91864},"geometry":{"x":166336.29000000004,"y":2548838.9500000011}},{"attributes":{"ID":91865,"DIS_CODE":0,"TOWNNAME":"安南區","LI":"安慶里","LIN":"15鄰","STREET":"安中路","SECT":"一段","MAREA":" ","LANE":" ","ALLEY":" ","HOUSE_NO":"１９３號","E_COORD97":168761.10000000001,"N_COORD97":2548474.8500000001,"ADDRESS":"安中路一段１９３號","OBJECTID":91865},"geometry":{"x":168761.09999999963,"y":2548474.8499999996}},{"attributes":{"ID":91866,"DIS_CODE":0,"TOWNNAME":"安南區","LI":"安慶里","LIN":"15鄰","STREET":"安中路","SECT":"一段","MAREA":" ","LANE":" ","ALLEY":" ","HOUSE_NO":"１９５號","E_COORD97":168756.10999999999,"N_COORD97":2548478.5499999998,"ADDRESS":"安中路一段１９５號","OBJECTID":91866},"geometry":{"x":168756.11000000127,"y":2548478.5500000007}},{"attributes":{"ID":91867,"DIS_CODE":0,"TOWNNAME":"安南區","LI":"安慶里","LIN":"15鄰","STREET":"安中路","SECT":"一段","MAREA":" ","LANE":" ","ALLEY":" ","HOUSE_NO":"１８５號","E_COORD97":168782.89000000001,"N_COORD97":2548460.8999999999,"ADDRESS":"安中路一段１８５號","OBJECTID":91867},"geometry":{"x":168782.88999999966,"y":2548460.9000000022}},{"attributes":{"ID":91868,"DIS_CODE":0,"TOWNNAME":"西港區","LI":"營西里","LIN":"12鄰","STREET":" ","SECT":" ","MAREA":"後營","LANE":" ","ALLEY":" ","HOUSE_NO":"９８號","E_COORD97":169725.89999999999,"N_COORD97":2560382.5899999999,"ADDRESS":"後營９８號","OBJECTID":91868},"geometry":{"x":169725.90000000037,"y":2560382.5900000017}},{"attributes":{"ID":91869,"DIS_CODE":0,"TOWNNAME":"安南區","LI":"海西里","LIN":"10鄰","STREET":"海中街","SECT":" ","MAREA":" ","LANE":"７７巷","ALLEY":"４５弄","HOUSE_NO":"２３號","E_COORD97":166337.98000000001,"N_COORD97":2548835.29,"ADDRESS":"海中街７７巷４５弄２３號","OBJECTID":91869},"geometry":{"x":166337.98000000138,"y":2548835.2899999991}},{"attributes":{"ID":91870,"DIS_CODE":0,"TOWNNAME":"中西區","LI":"開山里","LIN":"8鄰","STREET":"大同路","SECT":"一段","MAREA":" ","LANE":"４６巷","ALLEY":"３７弄","HOUSE_NO":"１０號","E_COORD97":168998.64000000001,"N_COORD97":2543145.6299999999,"ADDRESS":"大同路一段４６巷３７弄１０號","OBJECTID":91870},"geometry":{"x":168998.64000000153,"y":2543145.6300000008}},{"attributes":{"ID":91871,"DIS_CODE":0,"TOWNNAME":"中西區","LI":"開山里","LIN":"8鄰","STREET":"大同路","SECT":"一段","MAREA":" ","LANE":"４６巷","ALLEY":"３７弄","HOUSE_NO":"１２號","E_COORD97":168992.04999999999,"N_COORD97":2543131.1099999999,"ADDRESS":"大同路一段４６巷３７弄１２號","OBJECTID":91871},"geometry":{"x":168992.04999999981,"y":2543131.1100000031}},{"attributes":{"ID":91872,"DIS_CODE":0,"TOWNNAME":"中西區","LI":"開山里","LIN":"8鄰","STREET":"大同路","SECT":"一段","MAREA":" ","LANE":"４６巷","ALLEY":"３７弄","HOUSE_NO":"１４號","E_COORD97":168990.88,"N_COORD97":2543127.0699999998,"ADDRESS":"大同路一段４６巷３７弄１４號","OBJECTID":91872},"geometry":{"x":168990.88000000082,"y":2543127.0700000022}},{"attributes":{"ID":91873,"DIS_CODE":0,"TOWNNAME":"中西區","LI":"開山里","LIN":"8鄰","STREET":"大同路","SECT":"一段","MAREA":" ","LANE":"４６巷","ALLEY":"３７弄","HOUSE_NO":"１６號","E_COORD97":169018.20999999999,"N_COORD97":2543112.21,"ADDRESS":"大同路一段４６巷３７弄１６號","OBJECTID":91873},"geometry":{"x":169018.20999999996,"y":2543112.2100000028}},{"attributes":{"ID":91874,"DIS_CODE":0,"TOWNNAME":"中西區","LI":"開山里","LIN":"8鄰","STREET":"大同路","SECT":"一段","MAREA":" ","LANE":"４６巷","ALLEY":"３７弄","HOUSE_NO":"１８號","E_COORD97":169021.92999999999,"N_COORD97":2543111.4700000002,"ADDRESS":"大同路一段４６巷３７弄１８號","OBJECTID":91874},"geometry":{"x":169021.9299999997,"y":2543111.4700000007}},{"attributes":{"ID":91875,"DIS_CODE":0,"TOWNNAME":"中西區","LI":"開山里","LIN":"8鄰","STREET":"大同路","SECT":"一段","MAREA":" ","LANE":"４６巷","ALLEY":"３７弄","HOUSE_NO":"２號","E_COORD97":169005.54999999999,"N_COORD97":2543169.96,"ADDRESS":"大同路一段４６巷３７弄２號","OBJECTID":91875},"geometry":{"x":169005.54999999981,"y":2543169.9600000009}},{"attributes":{"ID":91876,"DIS_CODE":0,"TOWNNAME":"中西區","LI":"開山里","LIN":"8鄰","STREET":"大同路","SECT":"一段","MAREA":" ","LANE":"４６巷","ALLEY":"３７弄","HOUSE_NO":"２號之１","E_COORD97":169003.32000000001,"N_COORD97":2543165.6000000001,"ADDRESS":"大同路一段４６巷３７弄２號之１","OBJECTID":91876},"geometry":{"x":169003.32000000123,"y":2543165.6000000034}},{"attributes":{"ID":91877,"DIS_CODE":0,"TOWNNAME":"中西區","LI":"民生里","LIN":" ","STREET":"永華路","SECT":" ","MAREA":" ","LANE":" ","ALLEY":" ","HOUSE_NO":"２３４號","E_COORD97":167049.85999999999,"N_COORD97":2543242.2599999998,"ADDRESS":"永華路２３４號","OBJECTID":91877},"geometry":{"x":167049.86000000034,"y":2543242.2599999979}},{"attributes":{"ID":91878,"DIS_CODE":0,"TOWNNAME":"中西區","LI":"民權里","LIN":" ","STREET":"神農街","SECT":" ","MAREA":" ","LANE":" ","ALLEY":" ","HOUSE_NO":"１０１號","E_COORD97":167577.72,"N_COORD97":2544257.8599999999,"ADDRESS":"神農街１０１號","OBJECTID":91878},"geometry":{"x":167577.72000000067,"y":2544257.8599999994}},{"attributes":{"ID":91879,"DIS_CODE":0,"TOWNNAME":"中西區","LI":"民權里","LIN":" ","STREET":"神農街","SECT":" ","MAREA":" ","LANE":" ","ALLEY":" ","HOUSE_NO":"１０７號","E_COORD97":167566.29000000001,"N_COORD97":2544260.2400000002,"ADDRESS":"神農街１０７號","OBJECTID":91879},"geometry":{"x":167566.29000000097,"y":2544260.2400000039}},{"attributes":{"ID":91880,"DIS_CODE":0,"TOWNNAME":"中西區","LI":"開山里","LIN":"13鄰","STREET":"大同路","SECT":"一段","MAREA":" ","LANE":"４６巷","ALLEY":"３３弄","HOUSE_NO":"１０號","E_COORD97":169028.20000000001,"N_COORD97":2543138.3399999999,"ADDRESS":"大同路一段４６巷３３弄１０號","OBJECTID":91880},"geometry":{"x":169028.20000000112,"y":2543138.3400000017}},{"attributes":{"ID":91881,"DIS_CODE":0,"TOWNNAME":"中西區","LI":"民權里","LIN":" ","STREET":"康樂街","SECT":" ","MAREA":" ","LANE":" ","ALLEY":" ","HOUSE_NO":"３１５號","E_COORD97":167592.23000000001,"N_COORD97":2544288.96,"ADDRESS":"康樂街３１５號","OBJECTID":91881},"geometry":{"x":167592.23000000138,"y":2544288.9600000009}},{"attributes":{"ID":91882,"DIS_CODE":0,"TOWNNAME":"西港區","LI":"營西里","LIN":"12鄰","STREET":" ","SECT":" ","MAREA":"後營","LANE":" ","ALLEY":" ","HOUSE_NO":"９９號","E_COORD97":169741.94,"N_COORD97":2560363.25,"ADDRESS":"後營９９號","OBJECTID":91882},"geometry":{"x":169741.94000000134,"y":2560363.25}},{"attributes":{"ID":91883,"DIS_CODE":0,"TOWNNAME":"西港區","LI":"劉厝里","LIN":"12鄰","STREET":" ","SECT":" ","MAREA":"劉厝","LANE":" ","ALLEY":" ","HOUSE_NO":"９８號","E_COORD97":165734.91,"N_COORD97":2558798.6299999999,"ADDRESS":"劉厝９８號","OBJECTID":91883},"geometry":{"x":165734.91000000015,"y":2558798.6300000008}},{"attributes":{"ID":91884,"DIS_CODE":0,"TOWNNAME":"中西區","LI":"開山里","LIN":"13鄰","STREET":"大同路","SECT":"一段","MAREA":" ","LANE":"４６巷","ALLEY":"３３弄","HOUSE_NO":"１２號","E_COORD97":169020.97,"N_COORD97":2543135.0499999998,"ADDRESS":"大同路一段４６巷３３弄１２號","OBJECTID":91884},"geometry":{"x":169020.97000000067,"y":2543135.0500000007}},{"attributes":{"ID":91885,"DIS_CODE":0,"TOWNNAME":"中西區","LI":"開山里","LIN":"13鄰","STREET":"大同路","SECT":"一段","MAREA":" ","LANE":"４６巷","ALLEY":"３３弄","HOUSE_NO":"１４號","E_COORD97":169020.01999999999,"N_COORD97":2543130.27,"ADDRESS":"大同路一段４６巷３３弄１４號","OBJECTID":91885},"geometry":{"x":169020.02000000048,"y":2543130.2700000033}},{"attributes":{"ID":91886,"DIS_CODE":0,"TOWNNAME":"中西區","LI":"開山里","LIN":"13鄰","STREET":"大同路","SECT":"一段","MAREA":" ","LANE":"４６巷","ALLEY":"３３弄","HOUSE_NO":"１號","E_COORD97":169027.98999999999,"N_COORD97":2543151.9399999999,"ADDRESS":"大同路一段４６巷３３弄１號","OBJECTID":91886},"geometry":{"x":169027.99000000115,"y":2543151.9399999995}},{"attributes":{"ID":91887,"DIS_CODE":0,"TOWNNAME":"中西區","LI":"開山里","LIN":"13鄰","STREET":"大同路","SECT":"一段","MAREA":" ","LANE":"４６巷","ALLEY":"３３弄","HOUSE_NO":"３號","E_COORD97":169026.70999999999,"N_COORD97":2543146.73,"ADDRESS":"大同路一段４６巷３３弄３號","OBJECTID":91887},"geometry":{"x":169026.70999999996,"y":2543146.7300000023}},{"attributes":{"ID":91888,"DIS_CODE":0,"TOWNNAME":"中西區","LI":"開山里","LIN":"13鄰","STREET":"大同路","SECT":"一段","MAREA":" ","LANE":"４６巷","ALLEY":"３３弄","HOUSE_NO":"４號","E_COORD97":169020.01999999999,"N_COORD97":2543157.3199999998,"ADDRESS":"大同路一段４６巷３３弄４號","OBJECTID":91888},"geometry":{"x":169020.02000000048,"y":2543157.3200000003}},{"attributes":{"ID":91889,"DIS_CODE":0,"TOWNNAME":"中西區","LI":"開山里","LIN":"13鄰","STREET":"大同路","SECT":"一段","MAREA":" ","LANE":"４６巷","ALLEY":"３３弄","HOUSE_NO":"５號","E_COORD97":169035.54000000001,"N_COORD97":2543150.0299999998,"ADDRESS":"大同路一段４６巷３３弄５號","OBJECTID":91889},"geometry":{"x":169035.54000000097,"y":2543150.0300000012}},{"attributes":{"ID":91890,"DIS_CODE":0,"TOWNNAME":"中西區","LI":"開山里","LIN":"13鄰","STREET":"大同路","SECT":"一段","MAREA":" ","LANE":"４６巷","ALLEY":"３３弄","HOUSE_NO":"６號","E_COORD97":169016.51000000001,"N_COORD97":2543151.79,"ADDRESS":"大同路一段４６巷３３弄６號","OBJECTID":91890},"geometry":{"x":169016.51000000164,"y":2543151.7899999991}},{"attributes":{"ID":91891,"DIS_CODE":0,"TOWNNAME":"中西區","LI":"開山里","LIN":"13鄰","STREET":"大同路","SECT":"一段","MAREA":" ","LANE":"４６巷","ALLEY":"３３弄","HOUSE_NO":"８號","E_COORD97":169022.04000000001,"N_COORD97":2543141.4100000001,"ADDRESS":"大同路一段４６巷３３弄８號","OBJECTID":91891},"geometry":{"x":169022.04000000097,"y":2543141.410000002}},{"attributes":{"ID":91892,"DIS_CODE":0,"TOWNNAME":"中西區","LI":"開山里","LIN":"13鄰","STREET":"大同路","SECT":"一段","MAREA":" ","LANE":"４６巷","ALLEY":"３７弄","HOUSE_NO":"５號","E_COORD97":169011.82999999999,"N_COORD97":2543146.1699999999,"ADDRESS":"大同路一段４６巷３７弄５號","OBJECTID":91892},"geometry":{"x":169011.83000000101,"y":2543146.1700000018}},{"attributes":{"ID":91893,"DIS_CODE":0,"TOWNNAME":"中西區","LI":"開山里","LIN":"13鄰","STREET":"大同路","SECT":"一段","MAREA":" ","LANE":"４６巷","ALLEY":"３７弄","HOUSE_NO":"１號","E_COORD97":169012.35999999999,"N_COORD97":2543159.8700000001,"ADDRESS":"大同路一段４６巷３７弄１號","OBJECTID":91893},"geometry":{"x":169012.36000000034,"y":2543159.8700000029}},{"attributes":{"ID":91894,"DIS_CODE":0,"TOWNNAME":"安南區","LI":"溪墘里","LIN":"15鄰","STREET":"海佃路","SECT":"一段","MAREA":" ","LANE":" ","ALLEY":" ","HOUSE_NO":"３３２號","E_COORD97":167104.97,"N_COORD97":2547498.9500000002,"ADDRESS":"海佃路一段３３２號","OBJECTID":91894},"geometry":{"x":167104.97000000067,"y":2547498.950000003}},{"attributes":{"ID":91895,"DIS_CODE":0,"TOWNNAME":"安南區","LI":"溪墘里","LIN":"15鄰","STREET":"海佃路","SECT":"一段","MAREA":" ","LANE":" ","ALLEY":" ","HOUSE_NO":"３３４號","E_COORD97":167104.17999999999,"N_COORD97":2547502.7000000002,"ADDRESS":"海佃路一段３３４號","OBJECTID":91895},"geometry":{"x":167104.1799999997,"y":2547502.6999999993}},{"attributes":{"ID":91896,"DIS_CODE":0,"TOWNNAME":"安南區","LI":"溪墘里","LIN":"15鄰","STREET":"海佃路","SECT":"一段","MAREA":" ","LANE":" ","ALLEY":" ","HOUSE_NO":"３３８號","E_COORD97":167102.26999999999,"N_COORD97":2547511.71,"ADDRESS":"海佃路一段３３８號","OBJECTID":91896},"geometry":{"x":167102.26999999862,"y":2547511.7100000009}},{"attributes":{"ID":91897,"DIS_CODE":0,"TOWNNAME":"安平區","LI":"文平里","LIN":"15鄰","STREET":"建平五街","SECT":" ","MAREA":" ","LANE":" ","ALLEY":" ","HOUSE_NO":"３３號","E_COORD97":166052.73999999999,"N_COORD97":2543109.2999999998,"ADDRESS":"建平五街３３號","OBJECTID":91897},"geometry":{"x":166052.74000000115,"y":2543109.3000000007}},{"attributes":{"ID":91898,"DIS_CODE":0,"TOWNNAME":"西港區","LI":"劉厝里","LIN":"12鄰","STREET":" ","SECT":" ","MAREA":"劉厝","LANE":" ","ALLEY":" ","HOUSE_NO":"９９號之１","E_COORD97":165691.07999999999,"N_COORD97":2558874.5099999998,"ADDRESS":"劉厝９９號之１","OBJECTID":91898},"geometry":{"x":165691.08000000101,"y":2558874.5100000016}},{"attributes":{"ID":91899,"DIS_CODE":0,"TOWNNAME":"西港區","LI":"劉厝里","LIN":"12鄰","STREET":" ","SECT":" ","MAREA":"劉厝","LANE":" ","ALLEY":" ","HOUSE_NO":"９１號之１","E_COORD97":165767.64000000001,"N_COORD97":2558894.48,"ADDRESS":"劉厝９１號之１","OBJECTID":91899},"geometry":{"x":165767.64000000153,"y":2558894.4800000004}},{"attributes":{"ID":91900,"DIS_CODE":0,"TOWNNAME":"中西區","LI":"開山里","LIN":"13鄰","STREET":"大同路","SECT":"一段","MAREA":" ","LANE":"４６巷","ALLEY":"３７弄","HOUSE_NO":"３號","E_COORD97":169009.60000000001,"N_COORD97":2543154.6600000001,"ADDRESS":"大同路一段４６巷３７弄３號","OBJECTID":91900},"geometry":{"x":169009.60000000056,"y":2543154.6600000001}},{"attributes":{"ID":91901,"DIS_CODE":0,"TOWNNAME":"南區","LI":"喜東里","LIN":"10鄰","STREET":"明興路","SECT":" ","MAREA":" ","LANE":"６１９巷","ALLEY":"４９９弄","HOUSE_NO":"６號","E_COORD97":167344.16,"N_COORD97":2537987.3100000001,"ADDRESS":"明興路６１９巷４９９弄６號","OBJECTID":91901},"geometry":{"x":167344.16000000015,"y":2537987.3100000005}},{"attributes":{"ID":91902,"DIS_CODE":0,"TOWNNAME":"永康區","LI":"崑山里","LIN":"10鄰","STREET":"崑大路","SECT":" ","MAREA":" ","LANE":"２０１巷","ALLEY":"２８弄","HOUSE_NO":"１１號","E_COORD97":173245.92999999999,"N_COORD97":2544232,"ADDRESS":"崑大路２０１巷２８弄１１號","OBJECTID":91902},"geometry":{"x":173245.9299999997,"y":2544232.0000000019}},{"attributes":{"ID":91903,"DIS_CODE":0,"TOWNNAME":"永康區","LI":"東橋里","LIN":"10鄰","STREET":"中山南路","SECT":" ","MAREA":" ","LANE":"２３１巷","ALLEY":"２６弄","HOUSE_NO":"１０號","E_COORD97":171580.20999999999,"N_COORD97":2546313.3399999999,"ADDRESS":"中山南路２３１巷２６弄１０號","OBJECTID":91903},"geometry":{"x":171580.21000000183,"y":2546313.3399999999}},{"attributes":{"ID":91904,"DIS_CODE":0,"TOWNNAME":"仁德區","LI":"仁義里","LIN":"10鄰","STREET":"中山路","SECT":" ","MAREA":" ","LANE":"５０９巷","ALLEY":"１８弄","HOUSE_NO":"１號","E_COORD97":173515.5,"N_COORD97":2541238.0699999998,"ADDRESS":"中山路５０９巷１８弄１號","OBJECTID":91904},"geometry":{"x":173515.5,"y":2541238.0700000022}},{"attributes":{"ID":91905,"DIS_CODE":0,"TOWNNAME":"將軍區","LI":"長沙里","LIN":"15鄰","STREET":" ","SECT":" ","MAREA":"長沙","LANE":" ","ALLEY":" ","HOUSE_NO":"１３５之４號","E_COORD97":158539.87,"N_COORD97":2568639.6000000001,"ADDRESS":"長沙１３５之４號","OBJECTID":91905},"geometry":{"x":158539.87000000197,"y":2568639.5999999996}},{"attributes":{"ID":91906,"DIS_CODE":0,"TOWNNAME":"將軍區","LI":"長沙里","LIN":"15鄰","STREET":" ","SECT":" ","MAREA":"長沙","LANE":" ","ALLEY":" ","HOUSE_NO":"１４３之１號","E_COORD97":158450.88,"N_COORD97":2568653.7000000002,"ADDRESS":"長沙１４３之１號","OBJECTID":91906},"geometry":{"x":158450.87999999989,"y":2568653.7000000011}},{"attributes":{"ID":91907,"DIS_CODE":0,"TOWNNAME":"將軍區","LI":"長沙里","LIN":"15鄰","STREET":" ","SECT":" ","MAREA":"長沙","LANE":" ","ALLEY":" ","HOUSE_NO":"１４３號","E_COORD97":158463.14000000001,"N_COORD97":2568656.4700000002,"ADDRESS":"長沙１４３號","OBJECTID":91907},"geometry":{"x":158463.1400000006,"y":2568656.4700000044}},{"attributes":{"ID":91908,"DIS_CODE":0,"TOWNNAME":"仁德區","LI":"上崙里","LIN":"10鄰","STREET":"德善路","SECT":" ","MAREA":" ","LANE":"３０５巷","ALLEY":"１３弄","HOUSE_NO":"１００號","E_COORD97":174052.19,"N_COORD97":2538382.0299999998,"ADDRESS":"德善路３０５巷１３弄１００號","OBJECTID":91908},"geometry":{"x":174052.19000000041,"y":2538382.0300000012}},{"attributes":{"ID":91909,"DIS_CODE":0,"TOWNNAME":"仁德區","LI":"上崙里","LIN":"10鄰","STREET":"德善路","SECT":" ","MAREA":" ","LANE":"３０５巷","ALLEY":"１３弄","HOUSE_NO":"７２號","E_COORD97":174037.25,"N_COORD97":2538427.79,"ADDRESS":"德善路３０５巷１３弄７２號","OBJECTID":91909},"geometry":{"x":174037.25,"y":2538427.790000001}},{"attributes":{"ID":91910,"DIS_CODE":0,"TOWNNAME":"仁德區","LI":"上崙里","LIN":"10鄰","STREET":"德善路","SECT":" ","MAREA":" ","LANE":"３０５巷","ALLEY":"１３弄","HOUSE_NO":"８０號","E_COORD97":174041.95000000001,"N_COORD97":2538411.2799999998,"ADDRESS":"德善路３０５巷１３弄８０號","OBJECTID":91910},"geometry":{"x":174041.95000000205,"y":2538411.2800000012}},{"attributes":{"ID":91911,"DIS_CODE":0,"TOWNNAME":"南區","LI":"興農里","LIN":"10鄰","STREET":"灣裡路","SECT":" ","MAREA":" ","LANE":"２６３巷","ALLEY":"５２弄","HOUSE_NO":"３號","E_COORD97":166373.79999999999,"N_COORD97":2536301.4399999999,"ADDRESS":"灣裡路２６３巷５２弄３號","OBJECTID":91911},"geometry":{"x":166373.80000000075,"y":2536301.4400000013}},{"attributes":{"ID":91912,"DIS_CODE":0,"TOWNNAME":"南區","LI":"興農里","LIN":"10鄰","STREET":"灣裡路","SECT":" ","MAREA":" ","LANE":"２６３巷","ALLEY":"５２弄","HOUSE_NO":"４號","E_COORD97":166381.75,"N_COORD97":2536325.27,"ADDRESS":"灣裡路２６３巷５２弄４號","OBJECTID":91912},"geometry":{"x":166381.75,"y":2536325.2699999996}},{"attributes":{"ID":91913,"DIS_CODE":0,"TOWNNAME":"南區","LI":"興農里","LIN":"10鄰","STREET":"灣裡路","SECT":" ","MAREA":" ","LANE":"２６３巷","ALLEY":"５２弄","HOUSE_NO":"５號","E_COORD97":166348.64999999999,"N_COORD97":2536298.6200000001,"ADDRESS":"灣裡路２６３巷５２弄５號","OBJECTID":91913},"geometry":{"x":166348.6500000013,"y":2536298.6200000029}},{"attributes":{"ID":91914,"DIS_CODE":0,"TOWNNAME":"南區","LI":"興農里","LIN":"10鄰","STREET":"灣裡路","SECT":" ","MAREA":" ","LANE":"２６３巷","ALLEY":"５２弄","HOUSE_NO":"５號之１","E_COORD97":166348.91,"N_COORD97":2536293.75,"ADDRESS":"灣裡路２６３巷５２弄５號之１","OBJECTID":91914},"geometry":{"x":166348.91000000015,"y":2536293.7500000019}},{"attributes":{"ID":91915,"DIS_CODE":0,"TOWNNAME":"南區","LI":"興農里","LIN":"10鄰","STREET":"灣裡路","SECT":" ","MAREA":" ","LANE":"２６３巷","ALLEY":"５２弄","HOUSE_NO":"６號","E_COORD97":166357.37,"N_COORD97":2536321.1699999999,"ADDRESS":"灣裡路２６３巷５２弄６號","OBJECTID":91915},"geometry":{"x":166357.37000000011,"y":2536321.1700000018}},{"attributes":{"ID":91916,"DIS_CODE":0,"TOWNNAME":"南區","LI":"興農里","LIN":"10鄰","STREET":"灣裡路","SECT":" ","MAREA":" ","LANE":"２６３巷","ALLEY":"５２弄","HOUSE_NO":"７號","E_COORD97":166344.29000000001,"N_COORD97":2536309.1200000001,"ADDRESS":"灣裡路２６３巷５２弄７號","OBJECTID":91916},"geometry":{"x":166344.29000000004,"y":2536309.1200000029}},{"attributes":{"ID":91917,"DIS_CODE":0,"TOWNNAME":"南區","LI":"興農里","LIN":"10鄰","STREET":"灣裡路","SECT":" ","MAREA":" ","LANE":"２６３巷","ALLEY":"５２弄","HOUSE_NO":"８號","E_COORD97":166322.23000000001,"N_COORD97":2536316.1299999999,"ADDRESS":"灣裡路２６３巷５２弄８號","OBJECTID":91917},"geometry":{"x":166322.23000000138,"y":2536316.1300000027}},{"attributes":{"ID":91918,"DIS_CODE":0,"TOWNNAME":"南區","LI":"興農里","LIN":"10鄰","STREET":"灣裡路","SECT":" ","MAREA":" ","LANE":"２６３巷","ALLEY":"５２弄","HOUSE_NO":"９號","E_COORD97":166319.98999999999,"N_COORD97":2536306.8900000001,"ADDRESS":"灣裡路２６３巷５２弄９號","OBJECTID":91918},"geometry":{"x":166319.98999999929,"y":2536306.8900000025}},{"attributes":{"ID":91919,"DIS_CODE":0,"TOWNNAME":"南區","LI":"興農里","LIN":"10鄰","STREET":"灣裡路","SECT":" ","MAREA":" ","LANE":"２６３巷","ALLEY":"５２弄","HOUSE_NO":"１０號","E_COORD97":166313.17000000001,"N_COORD97":2536325.4399999999,"ADDRESS":"灣裡路２６３巷５２弄１０號","OBJECTID":91919},"geometry":{"x":166313.16999999993,"y":2536325.4400000013}},{"attributes":{"ID":91920,"DIS_CODE":0,"TOWNNAME":"南區","LI":"興農里","LIN":"10鄰","STREET":"灣裡路","SECT":" ","MAREA":" ","LANE":"２６３巷","ALLEY":"５２弄","HOUSE_NO":"１１號","E_COORD97":166321.91,"N_COORD97":2536296.0699999998,"ADDRESS":"灣裡路２６３巷５２弄１１號","OBJECTID":91920},"geometry":{"x":166321.91000000015,"y":2536296.0700000003}},{"attributes":{"ID":91921,"DIS_CODE":0,"TOWNNAME":"南區","LI":"興農里","LIN":"10鄰","STREET":"灣裡路","SECT":" ","MAREA":" ","LANE":"２６３巷","ALLEY":"５２弄","HOUSE_NO":"１２號","E_COORD97":166301.07000000001,"N_COORD97":2536332.0899999999,"ADDRESS":"灣裡路２６３巷５２弄１２號","OBJECTID":91921},"geometry":{"x":166301.07000000216,"y":2536332.0900000017}},{"attributes":{"ID":91922,"DIS_CODE":0,"TOWNNAME":"關廟區","LI":"香洋里","LIN":"8鄰","STREET":"中央路","SECT":" ","MAREA":" ","LANE":" ","ALLEY":" ","HOUSE_NO":"２５１號","E_COORD97":181034.06,"N_COORD97":2540123.3199999998,"ADDRESS":"中央路２５１號","OBJECTID":91922},"geometry":{"x":181034.05999999959,"y":2540123.3199999984}},{"attributes":{"ID":91923,"DIS_CODE":0,"TOWNNAME":"永康區","LI":"西橋里","LIN":"10鄰","STREET":"中華西街","SECT":" ","MAREA":" ","LANE":"８５巷","ALLEY":"１２弄","HOUSE_NO":"２２號","E_COORD97":170673.54999999999,"N_COORD97":2546122.5,"ADDRESS":"中華西街８５巷１２弄２２號","OBJECTID":91923},"geometry":{"x":170673.54999999981,"y":2546122.5}},{"attributes":{"ID":91924,"DIS_CODE":0,"TOWNNAME":"永康區","LI":"西橋里","LIN":"10鄰","STREET":"中華西街","SECT":" ","MAREA":" ","LANE":"８５巷","ALLEY":"１２弄","HOUSE_NO":"１８號","E_COORD97":170683.45999999999,"N_COORD97":2546114.25,"ADDRESS":"中華西街８５巷１２弄１８號","OBJECTID":91924},"geometry":{"x":170683.46000000183,"y":2546114.2499999981}},{"attributes":{"ID":91925,"DIS_CODE":0,"TOWNNAME":"永康區","LI":"西橋里","LIN":"10鄰","STREET":"中華西街","SECT":" ","MAREA":" ","LANE":"８５巷","ALLEY":"１２弄","HOUSE_NO":"３６號","E_COORD97":170646.98999999999,"N_COORD97":2546145.2400000002,"ADDRESS":"中華西街８５巷１２弄３６號","OBJECTID":91925},"geometry":{"x":170646.99000000115,"y":2546145.2400000039}},{"attributes":{"ID":91926,"DIS_CODE":0,"TOWNNAME":"永康區","LI":"西橋里","LIN":"10鄰","STREET":"中華西街","SECT":" ","MAREA":" ","LANE":"８５巷","ALLEY":"１２弄","HOUSE_NO":"１４號","E_COORD97":170666.85999999999,"N_COORD97":2546104.5,"ADDRESS":"中華西街８５巷１２弄１４號","OBJECTID":91926},"geometry":{"x":170666.86000000034,"y":2546104.5}},{"attributes":{"ID":91927,"DIS_CODE":0,"TOWNNAME":"玉井區","LI":"望明里","LIN":"9鄰","STREET":" ","SECT":" ","MAREA":"劉陳","LANE":" ","ALLEY":" ","HOUSE_NO":"６２號","E_COORD97":193456.51000000001,"N_COORD97":2556105.2400000002,"ADDRESS":"劉陳６２號","OBJECTID":91927},"geometry":{"x":193456.51000000071,"y":2556105.2400000002}},{"attributes":{"ID":91928,"DIS_CODE":0,"TOWNNAME":"永康區","LI":"西橋里","LIN":"10鄰","STREET":"中華西街","SECT":" ","MAREA":" ","LANE":"８５巷","ALLEY":"１２弄","HOUSE_NO":"３８號","E_COORD97":170642.39999999999,"N_COORD97":2546148.4900000002,"ADDRESS":"中華西街８５巷１２弄３８號","OBJECTID":91928},"geometry":{"x":170642.4000000013,"y":2546148.4900000021}},{"attributes":{"ID":91929,"DIS_CODE":0,"TOWNNAME":"永康區","LI":"西橋里","LIN":"10鄰","STREET":"中華西街","SECT":" ","MAREA":" ","LANE":"８５巷","ALLEY":"１２弄","HOUSE_NO":"３０號","E_COORD97":170655.20999999999,"N_COORD97":2546123.5,"ADDRESS":"中華西街８５巷１２弄３０號","OBJECTID":91929},"geometry":{"x":170655.21000000089,"y":2546123.5000000019}},{"attributes":{"ID":91930,"DIS_CODE":0,"TOWNNAME":"永康區","LI":"西橋里","LIN":"10鄰","STREET":"中華西街","SECT":" ","MAREA":" ","LANE":"８５巷","ALLEY":"１２弄","HOUSE_NO":"１２號","E_COORD97":170669.20000000001,"N_COORD97":2546100.25,"ADDRESS":"中華西街８５巷１２弄１２號","OBJECTID":91930},"geometry":{"x":170669.20000000112,"y":2546100.25}},{"attributes":{"ID":91931,"DIS_CODE":0,"TOWNNAME":"永康區","LI":"西橋里","LIN":"10鄰","STREET":"中華西街","SECT":" ","MAREA":" ","LANE":"８５巷","ALLEY":"１２弄","HOUSE_NO":"４號","E_COORD97":170673.16,"N_COORD97":2546087.4900000002,"ADDRESS":"中華西街８５巷１２弄４號","OBJECTID":91931},"geometry":{"x":170673.16000000015,"y":2546087.4900000021}},{"attributes":{"ID":91932,"DIS_CODE":0,"TOWNNAME":"永康區","LI":"西橋里","LIN":"10鄰","STREET":"中華西街","SECT":" ","MAREA":" ","LANE":"８５巷","ALLEY":"１２弄","HOUSE_NO":"２４號","E_COORD97":170661.60000000001,"N_COORD97":2546112.5,"ADDRESS":"中華西街８５巷１２弄２４號","OBJECTID":91932},"geometry":{"x":170661.59999999963,"y":2546112.4999999981}},{"attributes":{"ID":91933,"DIS_CODE":0,"TOWNNAME":"永康區","LI":"西橋里","LIN":"10鄰","STREET":"中華西街","SECT":" ","MAREA":" ","LANE":"８５巷","ALLEY":"１２弄","HOUSE_NO":"２號","E_COORD97":170671.01000000001,"N_COORD97":2546090.9900000002,"ADDRESS":"中華西街８５巷１２弄２號","OBJECTID":91933},"geometry":{"x":170671.01000000164,"y":2546090.9900000002}},{"attributes":{"ID":91934,"DIS_CODE":0,"TOWNNAME":"永康區","LI":"西橋里","LIN":"10鄰","STREET":"中華西街","SECT":" ","MAREA":" ","LANE":"８５巷","ALLEY":"１２弄","HOUSE_NO":"３２號","E_COORD97":170660.39999999999,"N_COORD97":2546133.25,"ADDRESS":"中華西街８５巷１２弄３２號","OBJECTID":91934},"geometry":{"x":170660.39999999944,"y":2546133.25}},{"attributes":{"ID":91935,"DIS_CODE":0,"TOWNNAME":"東區","LI":"富強里","LIN":"10鄰","STREET":"中華東路","SECT":"二段","MAREA":" ","LANE":"２２６巷","ALLEY":"３０弄","HOUSE_NO":"３６號","E_COORD97":171206.64000000001,"N_COORD97":2542741.7799999998,"ADDRESS":"中華東路二段２２６巷３０弄３６號","OBJECTID":91935},"geometry":{"x":171206.63999999966,"y":2542741.7799999993}},{"attributes":{"ID":91936,"DIS_CODE":0,"TOWNNAME":"東區","LI":"富強里","LIN":"10鄰","STREET":"中華東路","SECT":"二段","MAREA":" ","LANE":"２２６巷","ALLEY":"３０弄","HOUSE_NO":"３０號","E_COORD97":171197.64999999999,"N_COORD97":2542726.9300000002,"ADDRESS":"中華東路二段２２６巷３０弄３０號","OBJECTID":91936},"geometry":{"x":171197.65000000037,"y":2542726.9300000016}},{"attributes":{"ID":91937,"DIS_CODE":0,"TOWNNAME":"東區","LI":"富強里","LIN":"10鄰","STREET":"中華東路","SECT":"二段","MAREA":" ","LANE":"２２６巷","ALLEY":"３０弄","HOUSE_NO":"３２號","E_COORD97":171199.95000000001,"N_COORD97":2542731.3300000001,"ADDRESS":"中華東路二段２２６巷３０弄３２號","OBJECTID":91937},"geometry":{"x":171199.95000000019,"y":2542731.3300000019}},{"attributes":{"ID":91938,"DIS_CODE":0,"TOWNNAME":"東區","LI":"富強里","LIN":"10鄰","STREET":"中華東路","SECT":"二段","MAREA":" ","LANE":"２２６巷","ALLEY":"３０弄","HOUSE_NO":"３４號","E_COORD97":171203.09,"N_COORD97":2542735.9300000002,"ADDRESS":"中華東路二段２２６巷３０弄３４號","OBJECTID":91938},"geometry":{"x":171203.09000000078,"y":2542735.9300000034}},{"attributes":{"ID":91939,"DIS_CODE":0,"TOWNNAME":"南區","LI":"喜東里","LIN":"10鄰","STREET":"明興路","SECT":" ","MAREA":" ","LANE":"６１１巷","ALLEY":"１４８弄","HOUSE_NO":"７號","E_COORD97":166435.54000000001,"N_COORD97":2538087.8599999999,"ADDRESS":"明興路６１１巷１４８弄７號","OBJECTID":91939},"geometry":{"x":166435.54000000097,"y":2538087.8599999975}},{"attributes":{"ID":91940,"DIS_CODE":0,"TOWNNAME":"南區","LI":"喜東里","LIN":"10鄰","STREET":"明興路","SECT":" ","MAREA":" ","LANE":"６１９巷","ALLEY":"４９９弄","HOUSE_NO":"１１８號","E_COORD97":167355.51999999999,"N_COORD97":2538581.04,"ADDRESS":"明興路６１９巷４９９弄１１８號","OBJECTID":91940},"geometry":{"x":167355.52000000048,"y":2538581.0399999991}},{"attributes":{"ID":91941,"DIS_CODE":0,"TOWNNAME":"南區","LI":"喜東里","LIN":"10鄰","STREET":"明興路","SECT":" ","MAREA":" ","LANE":"６１９巷","ALLEY":"４９９弄","HOUSE_NO":"５２號","E_COORD97":167317.94,"N_COORD97":2538507.0299999998,"ADDRESS":"明興路６１９巷４９９弄５２號","OBJECTID":91941},"geometry":{"x":167317.94000000134,"y":2538507.0299999975}},{"attributes":{"ID":91942,"DIS_CODE":0,"TOWNNAME":"南區","LI":"喜東里","LIN":"10鄰","STREET":"明興路","SECT":" ","MAREA":" ","LANE":"６１１巷","ALLEY":"１３９弄","HOUSE_NO":"６６號","E_COORD97":166393.42000000001,"N_COORD97":2538067.5899999999,"ADDRESS":"明興路６１１巷１３９弄６６號","OBJECTID":91942},"geometry":{"x":166393.42000000086,"y":2538067.5900000017}},{"attributes":{"ID":91943,"DIS_CODE":0,"TOWNNAME":"南區","LI":"省躬里","LIN":"10鄰","STREET":"灣裡路","SECT":" ","MAREA":" ","LANE":"６２巷","ALLEY":"１４弄","HOUSE_NO":"１號","E_COORD97":165770.04000000001,"N_COORD97":2537183.7000000002,"ADDRESS":"灣裡路６２巷１４弄１號","OBJECTID":91943},"geometry":{"x":165770.04000000004,"y":2537183.700000003}},{"attributes":{"ID":91944,"DIS_CODE":0,"TOWNNAME":"安南區","LI":"南興里","LIN":"10鄰","STREET":"公學路","SECT":"五段","MAREA":" ","LANE":"６９７巷","ALLEY":"１０２弄","HOUSE_NO":"６５號","E_COORD97":163703.60000000001,"N_COORD97":2552551.5,"ADDRESS":"公學路五段６９７巷１０２弄６５號","OBJECTID":91944},"geometry":{"x":163703.60000000056,"y":2552551.5000000019}},{"attributes":{"ID":91945,"DIS_CODE":0,"TOWNNAME":"安南區","LI":"南興里","LIN":"10鄰","STREET":"公學路","SECT":"五段","MAREA":" ","LANE":"６９７巷","ALLEY":"１０２弄","HOUSE_NO":"６７號","E_COORD97":163700.17999999999,"N_COORD97":2552554.2799999998,"ADDRESS":"公學路五段６９７巷１０２弄６７號","OBJECTID":91945},"geometry":{"x":163700.1799999997,"y":2552554.2799999993}},{"attributes":{"ID":91946,"DIS_CODE":0,"TOWNNAME":"安南區","LI":"南興里","LIN":"10鄰","STREET":"公學路","SECT":"五段","MAREA":" ","LANE":"６９７巷","ALLEY":"１０２弄","HOUSE_NO":"６１號","E_COORD97":163712.10999999999,"N_COORD97":2552551.3700000001,"ADDRESS":"公學路五段６９７巷１０２弄６１號","OBJECTID":91946},"geometry":{"x":163712.1099999994,"y":2552551.370000001}},{"attributes":{"ID":91947,"DIS_CODE":0,"TOWNNAME":"安南區","LI":"南興里","LIN":"10鄰","STREET":"公學路","SECT":"五段","MAREA":" ","LANE":"６９７巷","ALLEY":"１０２弄","HOUSE_NO":"６３號","E_COORD97":163708.17000000001,"N_COORD97":2552551.75,"ADDRESS":"公學路五段６９７巷１０２弄６３號","OBJECTID":91947},"geometry":{"x":163708.17000000086,"y":2552551.75}},{"attributes":{"ID":91948,"DIS_CODE":0,"TOWNNAME":"安南區","LI":"溪北里","LIN":"10鄰","STREET":"府安路","SECT":"四段","MAREA":" ","LANE":"３４巷","ALLEY":"４２弄","HOUSE_NO":"２號","E_COORD97":169359.29000000001,"N_COORD97":2547413.2599999998,"ADDRESS":"府安路四段３４巷４２弄２號","OBJECTID":91948},"geometry":{"x":169359.29000000097,"y":2547413.2600000016}},{"attributes":{"ID":91949,"DIS_CODE":0,"TOWNNAME":"新營區","LI":"太北里","LIN":"15鄰","STREET":" ","SECT":" ","MAREA":"太子宮","LANE":" ","ALLEY":" ","HOUSE_NO":"１２２號","E_COORD97":175954.31,"N_COORD97":2577071.8599999999,"ADDRESS":"太子宮１２２號","OBJECTID":91949},"geometry":{"x":175954.30999999866,"y":2577071.8600000013}},{"attributes":{"ID":91950,"DIS_CODE":0,"TOWNNAME":"白河區","LI":"外角里","LIN":"12鄰","STREET":" ","SECT":" ","MAREA":"庄內","LANE":" ","ALLEY":" ","HOUSE_NO":"４７號","E_COORD97":190911.51999999999,"N_COORD97":2583383.7200000002,"ADDRESS":"庄內４７號","OBJECTID":91950},"geometry":{"x":190911.52000000048,"y":2583383.7200000025}},{"attributes":{"ID":91951,"DIS_CODE":0,"TOWNNAME":"白河區","LI":"外角里","LIN":"12鄰","STREET":" ","SECT":" ","MAREA":"庄內","LANE":" ","ALLEY":" ","HOUSE_NO":"４８之１號","E_COORD97":190908.37,"N_COORD97":2583367.52,"ADDRESS":"庄內４８之１號","OBJECTID":91951},"geometry":{"x":190908.37000000104,"y":2583367.5199999996}},{"attributes":{"ID":91952,"DIS_CODE":0,"TOWNNAME":"白河區","LI":"外角里","LIN":"12鄰","STREET":" ","SECT":" ","MAREA":"庄內","LANE":" ","ALLEY":" ","HOUSE_NO":"４８號","E_COORD97":190926.82000000001,"N_COORD97":2583361.3100000001,"ADDRESS":"庄內４８號","OBJECTID":91952},"geometry":{"x":190926.8200000003,"y":2583361.3100000042}},{"attributes":{"ID":91953,"DIS_CODE":0,"TOWNNAME":"白河區","LI":"外角里","LIN":"12鄰","STREET":" ","SECT":" ","MAREA":"庄內","LANE":" ","ALLEY":" ","HOUSE_NO":"４９號","E_COORD97":190917.37,"N_COORD97":2583343.29,"ADDRESS":"庄內４９號","OBJECTID":91953},"geometry":{"x":190917.37000000011,"y":2583343.290000001}},{"attributes":{"ID":91954,"DIS_CODE":0,"TOWNNAME":"安南區","LI":"城南里","LIN":"10鄰","STREET":"城西街","SECT":"一段","MAREA":" ","LANE":"２４９巷","ALLEY":"１１９弄","HOUSE_NO":"４號","E_COORD97":160279.60999999999,"N_COORD97":2551095.1899999999,"ADDRESS":"城西街一段２４９巷１１９弄４號","OBJECTID":91954},"geometry":{"x":160279.61000000127,"y":2551095.1900000013}},{"attributes":{"ID":91955,"DIS_CODE":0,"TOWNNAME":"安南區","LI":"城南里","LIN":"10鄰","STREET":"城西街","SECT":"一段","MAREA":" ","LANE":"２４９巷","ALLEY":"１１９弄","HOUSE_NO":"１５號","E_COORD97":160295.76999999999,"N_COORD97":2551072.0600000001,"ADDRESS":"城西街一段２４９巷１１９弄１５號","OBJECTID":91955},"geometry":{"x":160295.76999999955,"y":2551072.0600000005}},{"attributes":{"ID":91956,"DIS_CODE":0,"TOWNNAME":"白河區","LI":"外角里","LIN":"12鄰","STREET":" ","SECT":" ","MAREA":"庄內","LANE":" ","ALLEY":" ","HOUSE_NO":"５０之１號","E_COORD97":190927.39999999999,"N_COORD97":2583327.1699999999,"ADDRESS":"庄內５０之１號","OBJECTID":91956},"geometry":{"x":190927.40000000037,"y":2583327.1699999999}},{"attributes":{"ID":91957,"DIS_CODE":0,"TOWNNAME":"白河區","LI":"外角里","LIN":"12鄰","STREET":" ","SECT":" ","MAREA":"庄內","LANE":" ","ALLEY":" ","HOUSE_NO":"５０號","E_COORD97":190929.54999999999,"N_COORD97":2583349.0699999998,"ADDRESS":"庄內５０號","OBJECTID":91957},"geometry":{"x":190929.54999999981,"y":2583349.070000004}},{"attributes":{"ID":91958,"DIS_CODE":0,"TOWNNAME":"安南區","LI":"城南里","LIN":"10鄰","STREET":"城西街","SECT":"一段","MAREA":" ","LANE":"２４９巷","ALLEY":"１１９弄","HOUSE_NO":"１０號","E_COORD97":160280.10000000001,"N_COORD97":2551081.54,"ADDRESS":"城西街一段２４９巷１１９弄１０號","OBJECTID":91958},"geometry":{"x":160280.09999999963,"y":2551081.5399999972}},{"attributes":{"ID":91959,"DIS_CODE":0,"TOWNNAME":"白河區","LI":"外角里","LIN":"12鄰","STREET":" ","SECT":" ","MAREA":"庄內","LANE":" ","ALLEY":" ","HOUSE_NO":"５２號","E_COORD97":190905.76000000001,"N_COORD97":2583306.02,"ADDRESS":"庄內５２號","OBJECTID":91959},"geometry":{"x":190905.75999999978,"y":2583306.0200000014}},{"attributes":{"ID":91960,"DIS_CODE":0,"TOWNNAME":"白河區","LI":"外角里","LIN":"12鄰","STREET":" ","SECT":" ","MAREA":"庄內","LANE":" ","ALLEY":" ","HOUSE_NO":"５３號","E_COORD97":190892.59,"N_COORD97":2583306.3799999999,"ADDRESS":"庄內５３號","OBJECTID":91960},"geometry":{"x":190892.59000000171,"y":2583306.3800000008}},{"attributes":{"ID":91961,"DIS_CODE":0,"TOWNNAME":"白河區","LI":"外角里","LIN":"12鄰","STREET":" ","SECT":" ","MAREA":"庄內","LANE":" ","ALLEY":" ","HOUSE_NO":"５５號","E_COORD97":190873.35000000001,"N_COORD97":2583368.1200000001,"ADDRESS":"庄內５５號","OBJECTID":91961},"geometry":{"x":190873.34999999963,"y":2583368.1200000029}},{"attributes":{"ID":91962,"DIS_CODE":0,"TOWNNAME":"白河區","LI":"大竹里","LIN":"12鄰","STREET":" ","SECT":" ","MAREA":"大排竹","LANE":" ","ALLEY":" ","HOUSE_NO":"１７６之１號","E_COORD97":189556.48999999999,"N_COORD97":2585269.7799999998,"ADDRESS":"大排竹１７６之１號","OBJECTID":91962},"geometry":{"x":189556.49000000115,"y":2585269.7800000012}},{"attributes":{"ID":91963,"DIS_CODE":0,"TOWNNAME":"白河區","LI":"大竹里","LIN":"12鄰","STREET":" ","SECT":" ","MAREA":"大排竹","LANE":" ","ALLEY":" ","HOUSE_NO":"１７６之２號","E_COORD97":189555.44,"N_COORD97":2585264.8700000001,"ADDRESS":"大排竹１７６之２號","OBJECTID":91963},"geometry":{"x":189555.44000000134,"y":2585264.8700000029}},{"attributes":{"ID":91964,"DIS_CODE":0,"TOWNNAME":"白河區","LI":"大竹里","LIN":"12鄰","STREET":" ","SECT":" ","MAREA":"大排竹","LANE":" ","ALLEY":" ","HOUSE_NO":"１７８之１號","E_COORD97":189555.17000000001,"N_COORD97":2585250.96,"ADDRESS":"大排竹１７８之１號","OBJECTID":91964},"geometry":{"x":189555.17000000086,"y":2585250.9600000009}},{"attributes":{"ID":91965,"DIS_CODE":0,"TOWNNAME":"白河區","LI":"大竹里","LIN":"12鄰","STREET":" ","SECT":" ","MAREA":"大排竹","LANE":" ","ALLEY":" ","HOUSE_NO":"１８８之１號","E_COORD97":189493.88,"N_COORD97":2585173.98,"ADDRESS":"大排竹１８８之１號","OBJECTID":91965},"geometry":{"x":189493.88000000082,"y":2585173.9800000042}},{"attributes":{"ID":91966,"DIS_CODE":0,"TOWNNAME":"善化區","LI":"小新里","LIN":"12鄰","STREET":" ","SECT":" ","MAREA":"小新營","LANE":" ","ALLEY":" ","HOUSE_NO":"９９之３號","E_COORD97":179519.14999999999,"N_COORD97":2558102.77,"ADDRESS":"小新營９９之３號","OBJECTID":91966},"geometry":{"x":179519.15000000037,"y":2558102.7700000014}},{"attributes":{"ID":91967,"DIS_CODE":0,"TOWNNAME":"善化區","LI":"小新里","LIN":"12鄰","STREET":" ","SECT":" ","MAREA":"小新營","LANE":" ","ALLEY":" ","HOUSE_NO":"９８之３號","E_COORD97":179511.07000000001,"N_COORD97":2558157.02,"ADDRESS":"小新營９８之３號","OBJECTID":91967},"geometry":{"x":179511.0700000003,"y":2558157.0199999996}},{"attributes":{"ID":91968,"DIS_CODE":0,"TOWNNAME":"善化區","LI":"小新里","LIN":"12鄰","STREET":" ","SECT":" ","MAREA":"小新營","LANE":" ","ALLEY":" ","HOUSE_NO":"９９號之２","E_COORD97":179542.01000000001,"N_COORD97":2558101.77,"ADDRESS":"小新營９９號之２","OBJECTID":91968},"geometry":{"x":179542.01000000164,"y":2558101.7699999996}},{"attributes":{"ID":91969,"DIS_CODE":0,"TOWNNAME":"善化區","LI":"小新里","LIN":"12鄰","STREET":" ","SECT":" ","MAREA":"小新營","LANE":" ","ALLEY":" ","HOUSE_NO":"８８號之１","E_COORD97":179531.51000000001,"N_COORD97":2558177.52,"ADDRESS":"小新營８８號之１","OBJECTID":91969},"geometry":{"x":179531.50999999978,"y":2558177.5199999996}},{"attributes":{"ID":91970,"DIS_CODE":0,"TOWNNAME":"善化區","LI":"小新里","LIN":"12鄰","STREET":" ","SECT":" ","MAREA":"小新營","LANE":" ","ALLEY":" ","HOUSE_NO":"９９號之６","E_COORD97":179571.92999999999,"N_COORD97":2558021.27,"ADDRESS":"小新營９９號之６","OBJECTID":91970},"geometry":{"x":179571.93000000063,"y":2558021.2700000014}},{"attributes":{"ID":91971,"DIS_CODE":0,"TOWNNAME":"善化區","LI":"小新里","LIN":"12鄰","STREET":" ","SECT":" ","MAREA":"小新營","LANE":" ","ALLEY":" ","HOUSE_NO":"９８之２號","E_COORD97":179506.41,"N_COORD97":2558156.02,"ADDRESS":"小新營９８之２號","OBJECTID":91971},"geometry":{"x":179506.41000000108,"y":2558156.0200000014}},{"attributes":{"ID":91972,"DIS_CODE":0,"TOWNNAME":"善化區","LI":"小新里","LIN":"12鄰","STREET":" ","SECT":" ","MAREA":"小新營","LANE":" ","ALLEY":" ","HOUSE_NO":"１００號","E_COORD97":179644.56,"N_COORD97":2558036.75,"ADDRESS":"小新營１００號","OBJECTID":91972},"geometry":{"x":179644.55999999959,"y":2558036.75}},{"attributes":{"ID":91973,"DIS_CODE":0,"TOWNNAME":"善化區","LI":"小新里","LIN":"12鄰","STREET":" ","SECT":" ","MAREA":"小新營","LANE":" ","ALLEY":" ","HOUSE_NO":"９９號","E_COORD97":179525.26000000001,"N_COORD97":2558136.5,"ADDRESS":"小新營９９號","OBJECTID":91973},"geometry":{"x":179525.26000000071,"y":2558136.5000000019}},{"attributes":{"ID":91974,"DIS_CODE":0,"TOWNNAME":"善化區","LI":"六德里","LIN":"12鄰","STREET":" ","SECT":" ","MAREA":"六分寮","LANE":" ","ALLEY":" ","HOUSE_NO":"２９８號之１","E_COORD97":178459.60000000001,"N_COORD97":2561555.27,"ADDRESS":"六分寮２９８號之１","OBJECTID":91974},"geometry":{"x":178459.60000000149,"y":2561555.2700000014}},{"attributes":{"ID":91975,"DIS_CODE":0,"TOWNNAME":"善化區","LI":"六德里","LIN":"12鄰","STREET":" ","SECT":" ","MAREA":"六分寮","LANE":" ","ALLEY":" ","HOUSE_NO":"２９９之２號","E_COORD97":178465.81,"N_COORD97":2561562.77,"ADDRESS":"六分寮２９９之２號","OBJECTID":91975},"geometry":{"x":178465.81000000052,"y":2561562.7699999996}},{"attributes":{"ID":91976,"DIS_CODE":0,"TOWNNAME":"善化區","LI":"六德里","LIN":"12鄰","STREET":" ","SECT":" ","MAREA":"六分寮","LANE":" ","ALLEY":" ","HOUSE_NO":"２９７之６號","E_COORD97":178416.20999999999,"N_COORD97":2561533.52,"ADDRESS":"六分寮２９７之６號","OBJECTID":91976},"geometry":{"x":178416.20999999996,"y":2561533.5199999996}},{"attributes":{"ID":91977,"DIS_CODE":0,"TOWNNAME":"官田區","LI":"官田里","LIN":"12鄰","STREET":" ","SECT":" ","MAREA":"官田","LANE":" ","ALLEY":" ","HOUSE_NO":"１１７號之１","E_COORD97":182397.70999999999,"N_COORD97":2565061.0600000001,"ADDRESS":"官田１１７號之１","OBJECTID":91977},"geometry":{"x":182397.71000000089,"y":2565061.0600000005}},{"attributes":{"ID":91978,"DIS_CODE":0,"TOWNNAME":"官田區","LI":"官田里","LIN":"12鄰","STREET":" ","SECT":" ","MAREA":"官田","LANE":" ","ALLEY":" ","HOUSE_NO":"１１７號","E_COORD97":182396.10000000001,"N_COORD97":2565068.0099999998,"ADDRESS":"官田１１７號","OBJECTID":91978},"geometry":{"x":182396.10000000056,"y":2565068.0100000035}},{"attributes":{"ID":91979,"DIS_CODE":0,"TOWNNAME":"官田區","LI":"官田里","LIN":"12鄰","STREET":" ","SECT":" ","MAREA":"官田","LANE":" ","ALLEY":" ","HOUSE_NO":"１１９號","E_COORD97":182368.28,"N_COORD97":2565065.4300000002,"ADDRESS":"官田１１９號","OBJECTID":91979},"geometry":{"x":182368.28000000212,"y":2565065.4300000016}},{"attributes":{"ID":91980,"DIS_CODE":0,"TOWNNAME":"官田區","LI":"官田里","LIN":"12鄰","STREET":" ","SECT":" ","MAREA":"官田","LANE":" ","ALLEY":" ","HOUSE_NO":"１２２號","E_COORD97":182373.42000000001,"N_COORD97":2565058.48,"ADDRESS":"官田１２２號","OBJECTID":91980},"geometry":{"x":182373.41999999993,"y":2565058.4800000004}},{"attributes":{"ID":91981,"DIS_CODE":0,"TOWNNAME":"官田區","LI":"官田里","LIN":"12鄰","STREET":" ","SECT":" ","MAREA":"官田","LANE":" ","ALLEY":" ","HOUSE_NO":"１２３號","E_COORD97":182365.45000000001,"N_COORD97":2565050.04,"ADDRESS":"官田１２３號","OBJECTID":91981},"geometry":{"x":182365.45000000112,"y":2565050.0400000028}},{"attributes":{"ID":91982,"DIS_CODE":0,"TOWNNAME":"仁德區","LI":"中生里","LIN":"12鄰","STREET":" ","SECT":" ","MAREA":"中洲","LANE":" ","ALLEY":" ","HOUSE_NO":"２０２之１號","E_COORD97":173113.85000000001,"N_COORD97":2534097.0499999998,"ADDRESS":"中洲２０２之１號","OBJECTID":91982},"geometry":{"x":173113.85000000056,"y":2534097.0500000007}},{"attributes":{"ID":91983,"DIS_CODE":0,"TOWNNAME":"官田區","LI":"拔林里","LIN":"12鄰","STREET":" ","SECT":" ","MAREA":"拔子林","LANE":" ","ALLEY":" ","HOUSE_NO":"８５號之２","E_COORD97":180381.09,"N_COORD97":2563645.27,"ADDRESS":"拔子林８５號之２","OBJECTID":91983},"geometry":{"x":180381.09000000078,"y":2563645.2699999977}},{"attributes":{"ID":91984,"DIS_CODE":0,"TOWNNAME":"官田區","LI":"拔林里","LIN":"12鄰","STREET":" ","SECT":" ","MAREA":"拔子林","LANE":" ","ALLEY":" ","HOUSE_NO":"８５號之４","E_COORD97":180351.07999999999,"N_COORD97":2563661.9900000002,"ADDRESS":"拔子林８５號之４","OBJECTID":91984},"geometry":{"x":180351.08000000101,"y":2563661.9900000021}},{"attributes":{"ID":91985,"DIS_CODE":0,"TOWNNAME":"官田區","LI":"拔林里","LIN":"12鄰","STREET":" ","SECT":" ","MAREA":"拔子林","LANE":" ","ALLEY":" ","HOUSE_NO":"８５號之７","E_COORD97":180338.98999999999,"N_COORD97":2563670.6899999999,"ADDRESS":"拔子林８５號之７","OBJECTID":91985},"geometry":{"x":180338.99000000022,"y":2563670.6900000013}},{"attributes":{"ID":91986,"DIS_CODE":0,"TOWNNAME":"官田區","LI":"拔林里","LIN":"12鄰","STREET":" ","SECT":" ","MAREA":"拔子林","LANE":" ","ALLEY":" ","HOUSE_NO":"８５號","E_COORD97":180395.39999999999,"N_COORD97":2563630.6099999999,"ADDRESS":"拔子林８５號","OBJECTID":91986},"geometry":{"x":180395.40000000037,"y":2563630.6100000013}},{"attributes":{"ID":91987,"DIS_CODE":0,"TOWNNAME":"安南區","LI":"城南里","LIN":"10鄰","STREET":"城西街","SECT":"一段","MAREA":" ","LANE":"２４９巷","ALLEY":"１１９弄","HOUSE_NO":"１１號","E_COORD97":160295.76999999999,"N_COORD97":2551080.9900000002,"ADDRESS":"城西街一段２４９巷１１９弄１１號","OBJECTID":91987},"geometry":{"x":160295.76999999955,"y":2551080.9900000021}},{"attributes":{"ID":91988,"DIS_CODE":0,"TOWNNAME":"安南區","LI":"城南里","LIN":"10鄰","STREET":"城西街","SECT":"一段","MAREA":" ","LANE":"２４９巷","ALLEY":"１１９弄","HOUSE_NO":"１２號","E_COORD97":160280.35000000001,"N_COORD97":2551075.5800000001,"ADDRESS":"城西街一段２４９巷１１９弄１２號","OBJECTID":91988},"geometry":{"x":160280.3499999987,"y":2551075.5799999982}},{"attributes":{"ID":91989,"DIS_CODE":0,"TOWNNAME":"官田區","LI":"拔林里","LIN":"12鄰","STREET":" ","SECT":" ","MAREA":"拔子林","LANE":" ","ALLEY":" ","HOUSE_NO":"８６號之２","E_COORD97":179981.54999999999,"N_COORD97":2563954.7599999998,"ADDRESS":"拔子林８６號之２","OBJECTID":91989},"geometry":{"x":179981.55000000075,"y":2563954.7600000016}},{"attributes":{"ID":91990,"DIS_CODE":0,"TOWNNAME":"官田區","LI":"拔林里","LIN":"12鄰","STREET":" ","SECT":" ","MAREA":"拔子林","LANE":" ","ALLEY":" ","HOUSE_NO":"８６號之３","E_COORD97":180064.89999999999,"N_COORD97":2563876.4500000002,"ADDRESS":"拔子林８６號之３","OBJECTID":91990},"geometry":{"x":180064.90000000037,"y":2563876.4499999993}},{"attributes":{"ID":91991,"DIS_CODE":0,"TOWNNAME":"官田區","LI":"拔林里","LIN":"12鄰","STREET":" ","SECT":" ","MAREA":"拔子林","LANE":" ","ALLEY":" ","HOUSE_NO":"８６號","E_COORD97":180163.66,"N_COORD97":2563821.3900000001,"ADDRESS":"拔子林８６號","OBJECTID":91991},"geometry":{"x":180163.66000000108,"y":2563821.3900000006}},{"attributes":{"ID":91992,"DIS_CODE":0,"TOWNNAME":"新化區","LI":"知義里","LIN":"12鄰","STREET":" ","SECT":" ","MAREA":"口埤","LANE":" ","ALLEY":" ","HOUSE_NO":"１１號之１８","E_COORD97":182659.50240999999,"N_COORD97":2547244.48618,"ADDRESS":"口埤１１號之１８","OBJECTID":91992},"geometry":{"x":182659.50241000112,"y":2547244.4861750025}},{"attributes":{"ID":91993,"DIS_CODE":0,"TOWNNAME":"新化區","LI":"知義里","LIN":"12鄰","STREET":" ","SECT":" ","MAREA":"口埤","LANE":" ","ALLEY":" ","HOUSE_NO":"１３３號","E_COORD97":182497.54000000001,"N_COORD97":2547250.21,"ADDRESS":"口埤１３３號","OBJECTID":91993},"geometry":{"x":182497.54000000097,"y":2547250.2100000009}},{"attributes":{"ID":91994,"DIS_CODE":0,"TOWNNAME":"新化區","LI":"全興里","LIN":" ","STREET":" ","SECT":" ","MAREA":"竹子\u25A0","LANE":" ","ALLEY":" ","HOUSE_NO":"１７４之３號","E_COORD97":177505.73000000001,"N_COORD97":2547438.2599999998,"ADDRESS":"竹子\u25A0１７４之３號","OBJECTID":91994},"geometry":{"x":177505.73000000138,"y":2547438.2599999998}},{"attributes":{"ID":91995,"DIS_CODE":0,"TOWNNAME":"新化區","LI":"全興里","LIN":"4鄰","STREET":" ","SECT":" ","MAREA":"竹子\u25A0","LANE":" ","ALLEY":" ","HOUSE_NO":"５６號","E_COORD97":177593.98000000001,"N_COORD97":2547765.25,"ADDRESS":"竹子\u25A0５６號","OBJECTID":91995},"geometry":{"x":177593.98000000138,"y":2547765.25}},{"attributes":{"ID":91996,"DIS_CODE":0,"TOWNNAME":"大內區","LI":"曲溪里","LIN":"12鄰","STREET":" ","SECT":" ","MAREA":"二重溪","LANE":" ","ALLEY":" ","HOUSE_NO":"１２１號","E_COORD97":187493.94,"N_COORD97":2557744.3100000001,"ADDRESS":"二重溪１２１號","OBJECTID":91996},"geometry":{"x":187493.94000000134,"y":2557744.3100000024}},{"attributes":{"ID":91997,"DIS_CODE":0,"TOWNNAME":"大內區","LI":"大內里","LIN":"12鄰","STREET":" ","SECT":" ","MAREA":"內庄","LANE":" ","ALLEY":" ","HOUSE_NO":"１３０號","E_COORD97":184758.98000000001,"N_COORD97":2557553.25,"ADDRESS":"內庄１３０號","OBJECTID":91997},"geometry":{"x":184758.98000000231,"y":2557553.25}},{"attributes":{"ID":91998,"DIS_CODE":0,"TOWNNAME":"大內區","LI":"頭社里","LIN":"12鄰","STREET":" ","SECT":" ","MAREA":"頭社","LANE":" ","ALLEY":" ","HOUSE_NO":"１６１號之１","E_COORD97":186783.32999999999,"N_COORD97":2561243.2999999998,"ADDRESS":"頭社１６１號之１","OBJECTID":91998},"geometry":{"x":186783.33000000007,"y":2561243.3000000026}},{"attributes":{"ID":91999,"DIS_CODE":0,"TOWNNAME":"安南區","LI":"城南里","LIN":"10鄰","STREET":"城西街","SECT":"一段","MAREA":" ","LANE":"２４９巷","ALLEY":"１１９弄","HOUSE_NO":"１３號","E_COORD97":160295.76999999999,"N_COORD97":2551076.0299999998,"ADDRESS":"城西街一段２４９巷１１９弄１３號","OBJECTID":91999},"geometry":{"x":160295.76999999955,"y":2551076.0300000012}},{"attributes":{"ID":92000,"DIS_CODE":0,"TOWNNAME":"大內區","LI":"頭社里","LIN":"12鄰","STREET":" ","SECT":" ","MAREA":"頭社","LANE":" ","ALLEY":" ","HOUSE_NO":"１５８號之１","E_COORD97":186838.42999999999,"N_COORD97":2561328.2999999998,"ADDRESS":"頭社１５８號之１","OBJECTID":92000},"geometry":{"x":186838.42999999877,"y":2561328.3000000026}}]}