{"displayFieldName":"TOWNNAME","fieldAliases":{"ID":"ID","DIS_CODE":"DIS_CODE","TOWNNAME":"TOWNNAME","LI":"LI","LIN":"LIN","STREET":"STREET","SECT":"SECT","MAREA":"MAREA","LANE":"LANE","ALLEY":"ALLEY","HOUSE_NO":"HOUSE_NO","E_COORD97":"E_COORD97","N_COORD97":"N_COORD97","ADDRESS":"ADDRESS","OBJECTID":"OBJECTID"},"geometryType":"esriGeometryPoint","spatialReference":{"wkid":102443,"latestWkid":3826},"fields":[{"name":"ID","type":"esriFieldTypeDouble","alias":"ID"},{"name":"DIS_CODE","type":"esriFieldTypeInteger","alias":"DIS_CODE"},{"name":"TOWNNAME","type":"esriFieldTypeString","alias":"TOWNNAME","length":8},{"name":"LI","type":"esriFieldTypeString","alias":"LI","length":8},{"name":"LIN","type":"esriFieldTypeString","alias":"LIN","length":12},{"name":"STREET","type":"esriFieldTypeString","alias":"STREET","length":20},{"name":"SECT","type":"esriFieldTypeString","alias":"SECT","length":8},{"name":"MAREA","type":"esriFieldTypeString","alias":"MAREA","length":12},{"name":"LANE","type":"esriFieldTypeString","alias":"LANE","length":10},{"name":"ALLEY","type":"esriFieldTypeString","alias":"ALLEY","length":10},{"name":"HOUSE_NO","type":"esriFieldTypeString","alias":"HOUSE_NO","length":20},{"name":"E_COORD97","type":"esriFieldTypeDouble","alias":"E_COORD97"},{"name":"N_COORD97","type":"esriFieldTypeDouble","alias":"N_COORD97"},{"name":"ADDRESS","type":"esriFieldTypeString","alias":"ADDRESS","length":50},{"name":"OBJECTID","type":"esriFieldTypeOID","alias":"OBJECTID"}],"features":[{"attributes":{"ID":516428,"DIS_CODE":0,"TOWNNAME":"新營區","LI":"南興里","LIN":"1鄰","STREET":"延平路","SECT":" ","MAREA":" ","LANE":" ","ALLEY":" ","HOUSE_NO":"１１６號","E_COORD97":179718.42999999999,"N_COORD97":2577637.1499999999,"ADDRESS":"延平路１１６號","OBJECTID":516401},"geometry":{"x":179718.4299999997,"y":2577637.1500000022}},{"attributes":{"ID":516429,"DIS_CODE":0,"TOWNNAME":"新營區","LI":"新東里","LIN":"1鄰","STREET":"開元路","SECT":" ","MAREA":" ","LANE":" ","ALLEY":" ","HOUSE_NO":"２０５號","E_COORD97":181636.95999999999,"N_COORD97":2579516.3700000001,"ADDRESS":"開元路２０５號","OBJECTID":516402},"geometry":{"x":181636.95999999996,"y":2579516.370000001}},{"attributes":{"ID":516430,"DIS_CODE":0,"TOWNNAME":"新營區","LI":"延平里","LIN":"1鄰","STREET":"延平路","SECT":" ","MAREA":" ","LANE":" ","ALLEY":" ","HOUSE_NO":"１０６之１號","E_COORD97":179760.02978099999,"N_COORD97":2577667.6628800002,"ADDRESS":"延平路１０６之１號","OBJECTID":516403},"geometry":{"x":179760.02978100069,"y":2577667.662878003}},{"attributes":{"ID":516431,"DIS_CODE":0,"TOWNNAME":"新營區","LI":"大宏里","LIN":"1鄰","STREET":"民治路","SECT":" ","MAREA":" ","LANE":" ","ALLEY":" ","HOUSE_NO":"１３號","E_COORD97":180436.98000000001,"N_COORD97":2578872.9900000002,"ADDRESS":"民治路１３號","OBJECTID":516404},"geometry":{"x":180436.98000000138,"y":2578872.9900000002}},{"attributes":{"ID":516432,"DIS_CODE":0,"TOWNNAME":"新營區","LI":"延平里","LIN":"1鄰","STREET":"延平路","SECT":" ","MAREA":" ","LANE":" ","ALLEY":" ","HOUSE_NO":"４６之１６４號","E_COORD97":179679.075067,"N_COORD97":2577779.4757300001,"ADDRESS":"延平路４６之１６４號","OBJECTID":516405},"geometry":{"x":179679.07506700046,"y":2577779.4757339992}},{"attributes":{"ID":516433,"DIS_CODE":0,"TOWNNAME":"新營區","LI":"三仙里","LIN":"1鄰","STREET":"民權路","SECT":" ","MAREA":" ","LANE":" ","ALLEY":" ","HOUSE_NO":"９號","E_COORD97":179743.39999999999,"N_COORD97":2578041.2400000002,"ADDRESS":"民權路９號","OBJECTID":516406},"geometry":{"x":179743.40000000224,"y":2578041.2400000002}},{"attributes":{"ID":516434,"DIS_CODE":0,"TOWNNAME":"新化區","LI":"協興里","LIN":"1鄰","STREET":"忠孝路","SECT":" ","MAREA":" ","LANE":" ","ALLEY":" ","HOUSE_NO":"１６２號之２","E_COORD97":178520.78,"N_COORD97":2548623.2599999998,"ADDRESS":"忠孝路１６２號之２","OBJECTID":516407},"geometry":{"x":178520.78000000119,"y":2548623.2600000035}},{"attributes":{"ID":516435,"DIS_CODE":0,"TOWNNAME":"新化區","LI":"協興里","LIN":"1鄰","STREET":"太平街","SECT":" ","MAREA":" ","LANE":" ","ALLEY":" ","HOUSE_NO":"９９號之５","E_COORD97":178582.23000000001,"N_COORD97":2548725.2599999998,"ADDRESS":"太平街９９號之５","OBJECTID":516408},"geometry":{"x":178582.23000000138,"y":2548725.2600000016}},{"attributes":{"ID":516436,"DIS_CODE":0,"TOWNNAME":"新化區","LI":"護國里","LIN":"1鄰","STREET":"中正路","SECT":" ","MAREA":" ","LANE":" ","ALLEY":" ","HOUSE_NO":"４１４號","E_COORD97":179077.60999999999,"N_COORD97":2548470.25,"ADDRESS":"中正路４１４號","OBJECTID":516409},"geometry":{"x":179077.61000000127,"y":2548470.25}},{"attributes":{"ID":516437,"DIS_CODE":0,"TOWNNAME":"新化區","LI":"武安里","LIN":"1鄰","STREET":"中正路","SECT":" ","MAREA":" ","LANE":" ","ALLEY":" ","HOUSE_NO":"２２１號","E_COORD97":179092.70999999999,"N_COORD97":2547701.25,"ADDRESS":"中正路２２１號","OBJECTID":516410},"geometry":{"x":179092.70999999996,"y":2547701.2500000037}},{"attributes":{"ID":516438,"DIS_CODE":0,"TOWNNAME":"新化區","LI":"豐榮里","LIN":"1鄰","STREET":"中山路","SECT":" ","MAREA":" ","LANE":" ","ALLEY":" ","HOUSE_NO":"５８３號","E_COORD97":178330.20999999999,"N_COORD97":2548463.25,"ADDRESS":"中山路５８３號","OBJECTID":516411},"geometry":{"x":178330.20999999996,"y":2548463.25}},{"attributes":{"ID":516439,"DIS_CODE":0,"TOWNNAME":"新營區","LI":"新南里","LIN":"20鄰","STREET":"復興路","SECT":" ","MAREA":" ","LANE":" ","ALLEY":" ","HOUSE_NO":"３５２號","E_COORD97":178626.87,"N_COORD97":2578232.6400000001,"ADDRESS":"復興路３５２號","OBJECTID":516412},"geometry":{"x":178626.87000000104,"y":2578232.6399999987}},{"attributes":{"ID":516440,"DIS_CODE":0,"TOWNNAME":"新營區","LI":"民生里","LIN":"25鄰","STREET":"民生路","SECT":" ","MAREA":" ","LANE":" ","ALLEY":" ","HOUSE_NO":"１４５號","E_COORD97":179230.09,"N_COORD97":2578621.79,"ADDRESS":"民生路１４５號","OBJECTID":516413},"geometry":{"x":179230.09000000078,"y":2578621.790000001}},{"attributes":{"ID":516441,"DIS_CODE":0,"TOWNNAME":"新化區","LI":"豐榮里","LIN":"1鄰","STREET":"大智路","SECT":" ","MAREA":" ","LANE":" ","ALLEY":" ","HOUSE_NO":"３２號之１","E_COORD97":178298.81,"N_COORD97":2548369.2599999998,"ADDRESS":"大智路３２號之１","OBJECTID":516414},"geometry":{"x":178298.81000000145,"y":2548369.2600000016}},{"attributes":{"ID":516442,"DIS_CODE":0,"TOWNNAME":"新化區","LI":"中央里","LIN":"1鄰","STREET":"中正路","SECT":" ","MAREA":" ","LANE":" ","ALLEY":" ","HOUSE_NO":"４２５號","E_COORD97":179083.70999999999,"N_COORD97":2548375.25,"ADDRESS":"中正路４２５號","OBJECTID":516415},"geometry":{"x":179083.71000000089,"y":2548375.25}},{"attributes":{"ID":516443,"DIS_CODE":0,"TOWNNAME":"南區","LI":"佛壇里","LIN":"1鄰","STREET":"興南街","SECT":" ","MAREA":" ","LANE":" ","ALLEY":" ","HOUSE_NO":"２６０號","E_COORD97":165927.29000000001,"N_COORD97":2535697.2999999998,"ADDRESS":"興南街２６０號","OBJECTID":516416},"geometry":{"x":165927.29000000004,"y":2535697.3000000026}},{"attributes":{"ID":516444,"DIS_CODE":0,"TOWNNAME":"南區","LI":"佛壇里","LIN":"1鄰","STREET":"興南街","SECT":" ","MAREA":" ","LANE":" ","ALLEY":" ","HOUSE_NO":"２６１號","E_COORD97":165916.20000000001,"N_COORD97":2535695.73,"ADDRESS":"興南街２６１號","OBJECTID":516417},"geometry":{"x":165916.20000000019,"y":2535695.7300000004}},{"attributes":{"ID":516445,"DIS_CODE":0,"TOWNNAME":"南區","LI":"佛壇里","LIN":"1鄰","STREET":"興南街","SECT":" ","MAREA":" ","LANE":" ","ALLEY":" ","HOUSE_NO":"２６２號","E_COORD97":165907.42000000001,"N_COORD97":2535691.5600000001,"ADDRESS":"興南街２６２號","OBJECTID":516418},"geometry":{"x":165907.42000000086,"y":2535691.5600000024}},{"attributes":{"ID":516446,"DIS_CODE":0,"TOWNNAME":"南區","LI":"佛壇里","LIN":"1鄰","STREET":"興南街","SECT":" ","MAREA":" ","LANE":" ","ALLEY":" ","HOUSE_NO":"２６４號","E_COORD97":165899.14999999999,"N_COORD97":2535690.2400000002,"ADDRESS":"興南街２６４號","OBJECTID":516419},"geometry":{"x":165899.1500000013,"y":2535690.2400000021}},{"attributes":{"ID":516447,"DIS_CODE":0,"TOWNNAME":"南區","LI":"佛壇里","LIN":"1鄰","STREET":"興南街","SECT":" ","MAREA":" ","LANE":" ","ALLEY":" ","HOUSE_NO":"２６５號","E_COORD97":165890.20999999999,"N_COORD97":2535685.9399999999,"ADDRESS":"興南街２６５號","OBJECTID":516420},"geometry":{"x":165890.21000000089,"y":2535685.9399999995}},{"attributes":{"ID":516448,"DIS_CODE":0,"TOWNNAME":"南區","LI":"佛壇里","LIN":"1鄰","STREET":"興南街","SECT":" ","MAREA":" ","LANE":" ","ALLEY":" ","HOUSE_NO":"２６６號","E_COORD97":165883.92999999999,"N_COORD97":2535684.29,"ADDRESS":"興南街２６６號","OBJECTID":516421},"geometry":{"x":165883.9299999997,"y":2535684.2900000028}},{"attributes":{"ID":516449,"DIS_CODE":0,"TOWNNAME":"南區","LI":"佛壇里","LIN":"1鄰","STREET":"興南街","SECT":" ","MAREA":" ","LANE":" ","ALLEY":" ","HOUSE_NO":"２６７號","E_COORD97":165873.34,"N_COORD97":2535682.3100000001,"ADDRESS":"興南街２６７號","OBJECTID":516422},"geometry":{"x":165873.34000000078,"y":2535682.3100000042}},{"attributes":{"ID":516450,"DIS_CODE":0,"TOWNNAME":"南區","LI":"佛壇里","LIN":"1鄰","STREET":"興南街","SECT":" ","MAREA":" ","LANE":" ","ALLEY":" ","HOUSE_NO":"２６８號","E_COORD97":165857.12,"N_COORD97":2535679.9900000002,"ADDRESS":"興南街２６８號","OBJECTID":516423},"geometry":{"x":165857.12000000104,"y":2535679.9900000002}},{"attributes":{"ID":516451,"DIS_CODE":0,"TOWNNAME":"南區","LI":"佛壇里","LIN":"1鄰","STREET":"興南街","SECT":" ","MAREA":" ","LANE":" ","ALLEY":" ","HOUSE_NO":"２６９號","E_COORD97":165849.17999999999,"N_COORD97":2535677.3500000001,"ADDRESS":"興南街２６９號","OBJECTID":516424},"geometry":{"x":165849.18000000063,"y":2535677.3499999996}},{"attributes":{"ID":516452,"DIS_CODE":0,"TOWNNAME":"南區","LI":"佛壇里","LIN":"1鄰","STREET":"興南街","SECT":" ","MAREA":" ","LANE":" ","ALLEY":" ","HOUSE_NO":"２７０號","E_COORD97":165841.23999999999,"N_COORD97":2535676.6899999999,"ADDRESS":"興南街２７０號","OBJECTID":516425},"geometry":{"x":165841.24000000022,"y":2535676.6900000013}},{"attributes":{"ID":516453,"DIS_CODE":0,"TOWNNAME":"南區","LI":"佛壇里","LIN":"1鄰","STREET":"興南街","SECT":" ","MAREA":" ","LANE":" ","ALLEY":" ","HOUSE_NO":"２７１號","E_COORD97":165822.37,"N_COORD97":2535673.71,"ADDRESS":"興南街２７１號","OBJECTID":516426},"geometry":{"x":165822.37000000197,"y":2535673.7100000028}},{"attributes":{"ID":516454,"DIS_CODE":0,"TOWNNAME":"南區","LI":"佛壇里","LIN":"1鄰","STREET":"興南街","SECT":" ","MAREA":" ","LANE":" ","ALLEY":" ","HOUSE_NO":"２７２號","E_COORD97":165814.76000000001,"N_COORD97":2535672.0600000001,"ADDRESS":"興南街２７２號","OBJECTID":516427},"geometry":{"x":165814.76000000071,"y":2535672.0600000024}},{"attributes":{"ID":516455,"DIS_CODE":0,"TOWNNAME":"南區","LI":"佛壇里","LIN":"1鄰","STREET":"興南街","SECT":" ","MAREA":" ","LANE":" ","ALLEY":" ","HOUSE_NO":"２７３號","E_COORD97":165805.82999999999,"N_COORD97":2535671.0699999998,"ADDRESS":"興南街２７３號","OBJECTID":516428},"geometry":{"x":165805.83000000101,"y":2535671.0700000022}},{"attributes":{"ID":516456,"DIS_CODE":0,"TOWNNAME":"南區","LI":"佛壇里","LIN":"1鄰","STREET":"興南街","SECT":" ","MAREA":" ","LANE":" ","ALLEY":" ","HOUSE_NO":"２７４號","E_COORD97":165795.89999999999,"N_COORD97":2535671.73,"ADDRESS":"興南街２７４號","OBJECTID":516429},"geometry":{"x":165795.9000000013,"y":2535671.7300000004}},{"attributes":{"ID":516457,"DIS_CODE":0,"TOWNNAME":"南區","LI":"佛壇里","LIN":"1鄰","STREET":"興南街","SECT":" ","MAREA":" ","LANE":" ","ALLEY":" ","HOUSE_NO":"２７５號","E_COORD97":165788.95000000001,"N_COORD97":2535669.0899999999,"ADDRESS":"興南街２７５號","OBJECTID":516430},"geometry":{"x":165788.95000000019,"y":2535669.0899999999}},{"attributes":{"ID":516458,"DIS_CODE":0,"TOWNNAME":"南區","LI":"佛壇里","LIN":"1鄰","STREET":"興南街","SECT":" ","MAREA":" ","LANE":" ","ALLEY":" ","HOUSE_NO":"２７６號","E_COORD97":165779.01999999999,"N_COORD97":2535667.77,"ADDRESS":"興南街２７６號","OBJECTID":516431},"geometry":{"x":165779.02000000048,"y":2535667.7699999996}},{"attributes":{"ID":516459,"DIS_CODE":0,"TOWNNAME":"南區","LI":"佛壇里","LIN":"1鄰","STREET":"興南街","SECT":" ","MAREA":" ","LANE":" ","ALLEY":" ","HOUSE_NO":"２７７號","E_COORD97":165772.39999999999,"N_COORD97":2535665.71,"ADDRESS":"興南街２７７號","OBJECTID":516432},"geometry":{"x":165772.4000000013,"y":2535665.7100000009}},{"attributes":{"ID":516460,"DIS_CODE":0,"TOWNNAME":"南區","LI":"佛壇里","LIN":"1鄰","STREET":"興南街","SECT":" ","MAREA":" ","LANE":" ","ALLEY":" ","HOUSE_NO":"２７８號","E_COORD97":165764.67999999999,"N_COORD97":2535664.8100000001,"ADDRESS":"興南街２７８號","OBJECTID":516433},"geometry":{"x":165764.68000000063,"y":2535664.8100000005}},{"attributes":{"ID":516461,"DIS_CODE":0,"TOWNNAME":"南區","LI":"佛壇里","LIN":"1鄰","STREET":"興南街","SECT":" ","MAREA":" ","LANE":" ","ALLEY":" ","HOUSE_NO":"２７９號","E_COORD97":165755.67000000001,"N_COORD97":2535660.3100000001,"ADDRESS":"興南街２７９號","OBJECTID":516434},"geometry":{"x":165755.66999999899,"y":2535660.3100000024}},{"attributes":{"ID":516462,"DIS_CODE":0,"TOWNNAME":"南區","LI":"佛壇里","LIN":"1鄰","STREET":"興南街","SECT":" ","MAREA":" ","LANE":" ","ALLEY":" ","HOUSE_NO":"２８０號","E_COORD97":165749.87,"N_COORD97":2535660.9500000002,"ADDRESS":"興南街２８０號","OBJECTID":516435},"geometry":{"x":165749.87000000104,"y":2535660.9500000011}},{"attributes":{"ID":516463,"DIS_CODE":0,"TOWNNAME":"南區","LI":"佛壇里","LIN":"1鄰","STREET":"興南街","SECT":" ","MAREA":" ","LANE":" ","ALLEY":" ","HOUSE_NO":"２８１號","E_COORD97":165733.45999999999,"N_COORD97":2535657.4199999999,"ADDRESS":"興南街２８１號","OBJECTID":516436},"geometry":{"x":165733.46000000183,"y":2535657.4200000037}},{"attributes":{"ID":516464,"DIS_CODE":0,"TOWNNAME":"南區","LI":"佛壇里","LIN":"1鄰","STREET":"興南街","SECT":" ","MAREA":" ","LANE":" ","ALLEY":" ","HOUSE_NO":"２８２號","E_COORD97":165732.82000000001,"N_COORD97":2535643.9199999999,"ADDRESS":"興南街２８２號","OBJECTID":516437},"geometry":{"x":165732.8200000003,"y":2535643.9200000037}},{"attributes":{"ID":516465,"DIS_CODE":0,"TOWNNAME":"南區","LI":"佛壇里","LIN":"1鄰","STREET":"興南街","SECT":" ","MAREA":" ","LANE":" ","ALLEY":" ","HOUSE_NO":"２８３號","E_COORD97":165734.75,"N_COORD97":2535630.6099999999,"ADDRESS":"興南街２８３號","OBJECTID":516438},"geometry":{"x":165734.75,"y":2535630.6099999994}},{"attributes":{"ID":516466,"DIS_CODE":0,"TOWNNAME":"南區","LI":"佛壇里","LIN":"1鄰","STREET":"興南街","SECT":" ","MAREA":" ","LANE":" ","ALLEY":" ","HOUSE_NO":"２８４號","E_COORD97":165735.39000000001,"N_COORD97":2535622.2599999998,"ADDRESS":"興南街２８４號","OBJECTID":516439},"geometry":{"x":165735.39000000153,"y":2535622.2600000016}},{"attributes":{"ID":516467,"DIS_CODE":0,"TOWNNAME":"新營區","LI":"民榮里","LIN":"34鄰","STREET":"新進路","SECT":"二段","MAREA":" ","LANE":" ","ALLEY":" ","HOUSE_NO":"４５９號","E_COORD97":178635.38,"N_COORD97":2578089.7400000002,"ADDRESS":"新進路二段４５９號","OBJECTID":516440},"geometry":{"x":178635.37999999989,"y":2578089.7400000021}},{"attributes":{"ID":516468,"DIS_CODE":0,"TOWNNAME":"南區","LI":"佛壇里","LIN":"1鄰","STREET":"興南街","SECT":" ","MAREA":" ","LANE":" ","ALLEY":" ","HOUSE_NO":"２８５號","E_COORD97":165730.57000000001,"N_COORD97":2535599.4399999999,"ADDRESS":"興南街２８５號","OBJECTID":516441},"geometry":{"x":165730.5700000003,"y":2535599.4400000013}},{"attributes":{"ID":516469,"DIS_CODE":0,"TOWNNAME":"南區","LI":"佛壇里","LIN":"1鄰","STREET":"興南街","SECT":" ","MAREA":" ","LANE":" ","ALLEY":" ","HOUSE_NO":"２８６號","E_COORD97":165727.66,"N_COORD97":2535574.8999999999,"ADDRESS":"興南街２８６號","OBJECTID":516442},"geometry":{"x":165727.66000000108,"y":2535574.9000000004}},{"attributes":{"ID":516470,"DIS_CODE":0,"TOWNNAME":"南區","LI":"佛壇里","LIN":"1鄰","STREET":"興南街","SECT":" ","MAREA":" ","LANE":" ","ALLEY":" ","HOUSE_NO":"２８７號","E_COORD97":165743.03,"N_COORD97":2535581.04,"ADDRESS":"興南街２８７號","OBJECTID":516443},"geometry":{"x":165743.03000000026,"y":2535581.0400000028}},{"attributes":{"ID":516471,"DIS_CODE":0,"TOWNNAME":"南區","LI":"佛壇里","LIN":"1鄰","STREET":"興南街","SECT":" ","MAREA":" ","LANE":" ","ALLEY":" ","HOUSE_NO":"２８８號","E_COORD97":165751.03,"N_COORD97":2535586.5699999998,"ADDRESS":"興南街２８８號","OBJECTID":516444},"geometry":{"x":165751.03000000119,"y":2535586.5700000022}},{"attributes":{"ID":516472,"DIS_CODE":0,"TOWNNAME":"南區","LI":"佛壇里","LIN":"1鄰","STREET":"興南街","SECT":" ","MAREA":" ","LANE":" ","ALLEY":" ","HOUSE_NO":"２８９號","E_COORD97":165760.87,"N_COORD97":2535583.5,"ADDRESS":"興南街２８９號","OBJECTID":516445},"geometry":{"x":165760.87000000011,"y":2535583.5000000019}},{"attributes":{"ID":516473,"DIS_CODE":0,"TOWNNAME":"南區","LI":"佛壇里","LIN":"1鄰","STREET":"興南街","SECT":" ","MAREA":" ","LANE":" ","ALLEY":" ","HOUSE_NO":"２９０號","E_COORD97":165770.09,"N_COORD97":2535592.71,"ADDRESS":"興南街２９０號","OBJECTID":516446},"geometry":{"x":165770.09000000078,"y":2535592.7100000028}},{"attributes":{"ID":516474,"DIS_CODE":0,"TOWNNAME":"南區","LI":"佛壇里","LIN":"1鄰","STREET":"興南街","SECT":" ","MAREA":" ","LANE":" ","ALLEY":" ","HOUSE_NO":"２９２號","E_COORD97":165786.69,"N_COORD97":2535593.9399999999,"ADDRESS":"興南街２９２號","OBJECTID":516447},"geometry":{"x":165786.69000000227,"y":2535593.9399999995}},{"attributes":{"ID":516475,"DIS_CODE":0,"TOWNNAME":"南區","LI":"佛壇里","LIN":"1鄰","STREET":"興南街","SECT":" ","MAREA":" ","LANE":" ","ALLEY":" ","HOUSE_NO":"２９４號","E_COORD97":165798.38,"N_COORD97":2535598.23,"ADDRESS":"興南街２９４號","OBJECTID":516448},"geometry":{"x":165798.38000000175,"y":2535598.2300000042}},{"attributes":{"ID":516476,"DIS_CODE":0,"TOWNNAME":"南區","LI":"佛壇里","LIN":"1鄰","STREET":"興南街","SECT":" ","MAREA":" ","LANE":" ","ALLEY":" ","HOUSE_NO":"２９５號","E_COORD97":165806.98999999999,"N_COORD97":2535598.8500000001,"ADDRESS":"興南街２９５號","OBJECTID":516449},"geometry":{"x":165806.99000000115,"y":2535598.8499999996}},{"attributes":{"ID":516477,"DIS_CODE":0,"TOWNNAME":"南區","LI":"佛壇里","LIN":"1鄰","STREET":"興南街","SECT":" ","MAREA":" ","LANE":" ","ALLEY":" ","HOUSE_NO":"２９６號","E_COORD97":165812.51999999999,"N_COORD97":2535603.1499999999,"ADDRESS":"興南街２９６號","OBJECTID":516450},"geometry":{"x":165812.52000000048,"y":2535603.1500000022}},{"attributes":{"ID":516478,"DIS_CODE":0,"TOWNNAME":"南區","LI":"佛壇里","LIN":"1鄰","STREET":"興南街","SECT":" ","MAREA":" ","LANE":" ","ALLEY":" ","HOUSE_NO":"２９７號","E_COORD97":165819.89999999999,"N_COORD97":2535606.8300000001,"ADDRESS":"興南街２９７號","OBJECTID":516451},"geometry":{"x":165819.9000000013,"y":2535606.8300000001}},{"attributes":{"ID":516479,"DIS_CODE":0,"TOWNNAME":"南區","LI":"佛壇里","LIN":"1鄰","STREET":"興南街","SECT":" ","MAREA":" ","LANE":" ","ALLEY":" ","HOUSE_NO":"２９８號","E_COORD97":165827.89000000001,"N_COORD97":2535606.2200000002,"ADDRESS":"興南街２９８號","OBJECTID":516452},"geometry":{"x":165827.88999999966,"y":2535606.2200000025}},{"attributes":{"ID":516480,"DIS_CODE":0,"TOWNNAME":"南區","LI":"佛壇里","LIN":"1鄰","STREET":"興南街","SECT":" ","MAREA":" ","LANE":" ","ALLEY":" ","HOUSE_NO":"２９９號","E_COORD97":165836.5,"N_COORD97":2535611.1299999999,"ADDRESS":"興南街２９９號","OBJECTID":516453},"geometry":{"x":165836.5,"y":2535611.1300000008}},{"attributes":{"ID":516481,"DIS_CODE":0,"TOWNNAME":"南區","LI":"佛壇里","LIN":"1鄰","STREET":"興南街","SECT":" ","MAREA":" ","LANE":" ","ALLEY":" ","HOUSE_NO":"３００號","E_COORD97":165843.26999999999,"N_COORD97":2535614.8100000001,"ADDRESS":"興南街３００號","OBJECTID":516454},"geometry":{"x":165843.27000000048,"y":2535614.8100000042}},{"attributes":{"ID":516482,"DIS_CODE":0,"TOWNNAME":"南區","LI":"佛壇里","LIN":"1鄰","STREET":"興南街","SECT":" ","MAREA":" ","LANE":" ","ALLEY":" ","HOUSE_NO":"３０１號","E_COORD97":165856.79000000001,"N_COORD97":2535623.4100000001,"ADDRESS":"興南街３０１號","OBJECTID":516455},"geometry":{"x":165856.7900000019,"y":2535623.4099999983}},{"attributes":{"ID":516483,"DIS_CODE":0,"TOWNNAME":"南區","LI":"佛壇里","LIN":"1鄰","STREET":"興南街","SECT":" ","MAREA":" ","LANE":" ","ALLEY":" ","HOUSE_NO":"３０２號","E_COORD97":165866.63,"N_COORD97":2535622.1800000002,"ADDRESS":"興南街３０２號","OBJECTID":516456},"geometry":{"x":165866.63000000082,"y":2535622.1800000016}},{"attributes":{"ID":516484,"DIS_CODE":0,"TOWNNAME":"南區","LI":"佛壇里","LIN":"1鄰","STREET":"興南街","SECT":" ","MAREA":" ","LANE":" ","ALLEY":" ","HOUSE_NO":"３０３號","E_COORD97":165877.09,"N_COORD97":2535624.0299999998,"ADDRESS":"興南街３０３號","OBJECTID":516457},"geometry":{"x":165877.09000000078,"y":2535624.0299999993}},{"attributes":{"ID":516485,"DIS_CODE":0,"TOWNNAME":"南區","LI":"佛壇里","LIN":"1鄰","STREET":"興南街","SECT":" ","MAREA":" ","LANE":" ","ALLEY":" ","HOUSE_NO":"３０４號","E_COORD97":165886.31,"N_COORD97":2535625.8700000001,"ADDRESS":"興南街３０４號","OBJECTID":516458},"geometry":{"x":165886.30999999959,"y":2535625.8700000029}},{"attributes":{"ID":516486,"DIS_CODE":0,"TOWNNAME":"南區","LI":"佛壇里","LIN":"1鄰","STREET":"興南街","SECT":" ","MAREA":" ","LANE":" ","ALLEY":" ","HOUSE_NO":"３０５號","E_COORD97":165892.45999999999,"N_COORD97":2535632.0099999998,"ADDRESS":"興南街３０５號","OBJECTID":516459},"geometry":{"x":165892.45999999996,"y":2535632.0099999998}},{"attributes":{"ID":516487,"DIS_CODE":0,"TOWNNAME":"南區","LI":"佛壇里","LIN":"1鄰","STREET":"興南街","SECT":" ","MAREA":" ","LANE":" ","ALLEY":" ","HOUSE_NO":"３０６號","E_COORD97":165901.67999999999,"N_COORD97":2535635.0800000001,"ADDRESS":"興南街３０６號","OBJECTID":516460},"geometry":{"x":165901.68000000063,"y":2535635.0800000001}},{"attributes":{"ID":516488,"DIS_CODE":0,"TOWNNAME":"南區","LI":"佛壇里","LIN":"1鄰","STREET":"興南街","SECT":" ","MAREA":" ","LANE":" ","ALLEY":" ","HOUSE_NO":"３０７號","E_COORD97":165912.75,"N_COORD97":2535632.6200000001,"ADDRESS":"興南街３０７號","OBJECTID":516461},"geometry":{"x":165912.75,"y":2535632.620000001}},{"attributes":{"ID":516489,"DIS_CODE":0,"TOWNNAME":"南區","LI":"佛壇里","LIN":"1鄰","STREET":"興南街","SECT":" ","MAREA":" ","LANE":" ","ALLEY":" ","HOUSE_NO":"３０９號","E_COORD97":165924.44,"N_COORD97":2535640.6099999999,"ADDRESS":"興南街３０９號","OBJECTID":516462},"geometry":{"x":165924.44000000134,"y":2535640.6099999994}},{"attributes":{"ID":516490,"DIS_CODE":0,"TOWNNAME":"南區","LI":"佛壇里","LIN":"1鄰","STREET":"興南街","SECT":" ","MAREA":" ","LANE":" ","ALLEY":" ","HOUSE_NO":"３１０號","E_COORD97":165937.95999999999,"N_COORD97":2535644.8999999999,"ADDRESS":"興南街３１０號","OBJECTID":516463},"geometry":{"x":165937.95999999996,"y":2535644.9000000022}},{"attributes":{"ID":516491,"DIS_CODE":0,"TOWNNAME":"南區","LI":"佛壇里","LIN":"1鄰","STREET":"興南街","SECT":" ","MAREA":" ","LANE":" ","ALLEY":" ","HOUSE_NO":"３１１號","E_COORD97":165946.57000000001,"N_COORD97":2535644.8999999999,"ADDRESS":"興南街３１１號","OBJECTID":516464},"geometry":{"x":165946.56999999937,"y":2535644.9000000022}},{"attributes":{"ID":516492,"DIS_CODE":0,"TOWNNAME":"南區","LI":"佛壇里","LIN":"1鄰","STREET":"興南街","SECT":" ","MAREA":" ","LANE":" ","ALLEY":" ","HOUSE_NO":"３１２號","E_COORD97":165972.39999999999,"N_COORD97":2535601.2999999998,"ADDRESS":"興南街３１２號","OBJECTID":516465},"geometry":{"x":165972.4000000013,"y":2535601.3000000045}},{"attributes":{"ID":516493,"DIS_CODE":0,"TOWNNAME":"南區","LI":"佛壇里","LIN":"1鄰","STREET":"興南街","SECT":" ","MAREA":" ","LANE":" ","ALLEY":" ","HOUSE_NO":"３１３號","E_COORD97":165956.41,"N_COORD97":2535611.7400000002,"ADDRESS":"興南街３１３號","OBJECTID":516466},"geometry":{"x":165956.41000000108,"y":2535611.7400000021}},{"attributes":{"ID":516494,"DIS_CODE":0,"TOWNNAME":"南區","LI":"佛壇里","LIN":"1鄰","STREET":"興南街","SECT":" ","MAREA":" ","LANE":" ","ALLEY":" ","HOUSE_NO":"３１４號","E_COORD97":165949.03,"N_COORD97":2535608.0600000001,"ADDRESS":"興南街３１４號","OBJECTID":516467},"geometry":{"x":165949.03000000119,"y":2535608.0600000005}},{"attributes":{"ID":516495,"DIS_CODE":0,"TOWNNAME":"南區","LI":"佛壇里","LIN":"1鄰","STREET":"興南街","SECT":" ","MAREA":" ","LANE":" ","ALLEY":" ","HOUSE_NO":"３１５號","E_COORD97":165939.19,"N_COORD97":2535606.2200000002,"ADDRESS":"興南街３１５號","OBJECTID":516468},"geometry":{"x":165939.19000000227,"y":2535606.2200000025}},{"attributes":{"ID":516496,"DIS_CODE":0,"TOWNNAME":"南區","LI":"佛壇里","LIN":"1鄰","STREET":"興南街","SECT":" ","MAREA":" ","LANE":" ","ALLEY":" ","HOUSE_NO":"３１６號","E_COORD97":165933.66,"N_COORD97":2535602.5299999998,"ADDRESS":"興南街３１６號","OBJECTID":516469},"geometry":{"x":165933.66000000015,"y":2535602.5300000012}},{"attributes":{"ID":516497,"DIS_CODE":0,"TOWNNAME":"南區","LI":"佛壇里","LIN":"1鄰","STREET":"興南街","SECT":" ","MAREA":" ","LANE":" ","ALLEY":" ","HOUSE_NO":"３１７號","E_COORD97":165925.04999999999,"N_COORD97":2535599.46,"ADDRESS":"興南街３１７號","OBJECTID":516470},"geometry":{"x":165925.05000000075,"y":2535599.4600000009}},{"attributes":{"ID":516498,"DIS_CODE":0,"TOWNNAME":"南區","LI":"佛壇里","LIN":"1鄰","STREET":"興南街","SECT":" ","MAREA":" ","LANE":" ","ALLEY":" ","HOUSE_NO":"３１８號","E_COORD97":165918.29000000001,"N_COORD97":2535595.7799999998,"ADDRESS":"興南街３１８號","OBJECTID":516471},"geometry":{"x":165918.29000000097,"y":2535595.7799999993}},{"attributes":{"ID":516499,"DIS_CODE":0,"TOWNNAME":"南區","LI":"佛壇里","LIN":"1鄰","STREET":"興南街","SECT":" ","MAREA":" ","LANE":" ","ALLEY":" ","HOUSE_NO":"３１９號","E_COORD97":165911.51999999999,"N_COORD97":2535592.71,"ADDRESS":"興南街３１９號","OBJECTID":516472},"geometry":{"x":165911.51999999955,"y":2535592.7100000028}},{"attributes":{"ID":516500,"DIS_CODE":0,"TOWNNAME":"南區","LI":"佛壇里","LIN":"1鄰","STREET":"興南街","SECT":" ","MAREA":" ","LANE":" ","ALLEY":" ","HOUSE_NO":"３２０號","E_COORD97":165902.29999999999,"N_COORD97":2535592.0899999999,"ADDRESS":"興南街３２０號","OBJECTID":516473},"geometry":{"x":165902.30000000168,"y":2535592.0900000017}},{"attributes":{"ID":516501,"DIS_CODE":0,"TOWNNAME":"南區","LI":"佛壇里","LIN":"1鄰","STREET":"興南街","SECT":" ","MAREA":" ","LANE":" ","ALLEY":" ","HOUSE_NO":"３２１號","E_COORD97":165894.29999999999,"N_COORD97":2535589.02,"ADDRESS":"興南街３２１號","OBJECTID":516474},"geometry":{"x":165894.30000000075,"y":2535589.0200000014}},{"attributes":{"ID":516502,"DIS_CODE":0,"TOWNNAME":"南區","LI":"佛壇里","LIN":"1鄰","STREET":"興南街","SECT":" ","MAREA":" ","LANE":" ","ALLEY":" ","HOUSE_NO":"３２２號","E_COORD97":165883.23999999999,"N_COORD97":2535595.7799999998,"ADDRESS":"興南街３２２號","OBJECTID":516475},"geometry":{"x":165883.24000000115,"y":2535595.7799999993}},{"attributes":{"ID":516503,"DIS_CODE":0,"TOWNNAME":"南區","LI":"佛壇里","LIN":"1鄰","STREET":"興南街","SECT":" ","MAREA":" ","LANE":" ","ALLEY":" ","HOUSE_NO":"３２３號","E_COORD97":165877.09,"N_COORD97":2535589.02,"ADDRESS":"興南街３２３號","OBJECTID":516476},"geometry":{"x":165877.09000000078,"y":2535589.0200000014}},{"attributes":{"ID":516504,"DIS_CODE":0,"TOWNNAME":"南區","LI":"佛壇里","LIN":"1鄰","STREET":"興南街","SECT":" ","MAREA":" ","LANE":" ","ALLEY":" ","HOUSE_NO":"３２４號","E_COORD97":165870.94,"N_COORD97":2535586.5699999998,"ADDRESS":"興南街３２４號","OBJECTID":516477},"geometry":{"x":165870.94000000041,"y":2535586.5700000022}},{"attributes":{"ID":516505,"DIS_CODE":0,"TOWNNAME":"南區","LI":"佛壇里","LIN":"1鄰","STREET":"興南街","SECT":" ","MAREA":" ","LANE":" ","ALLEY":" ","HOUSE_NO":"３２５號","E_COORD97":165854.95000000001,"N_COORD97":2535576.25,"ADDRESS":"興南街３２５號","OBJECTID":516478},"geometry":{"x":165854.95000000112,"y":2535576.25}},{"attributes":{"ID":516506,"DIS_CODE":0,"TOWNNAME":"南區","LI":"佛壇里","LIN":"1鄰","STREET":"興南街","SECT":" ","MAREA":" ","LANE":" ","ALLEY":" ","HOUSE_NO":"３２６號","E_COORD97":165848.19,"N_COORD97":2535575.6400000001,"ADDRESS":"興南街３２６號","OBJECTID":516479},"geometry":{"x":165848.19000000134,"y":2535575.6400000025}},{"attributes":{"ID":516507,"DIS_CODE":0,"TOWNNAME":"南區","LI":"佛壇里","LIN":"1鄰","STREET":"興南街","SECT":" ","MAREA":" ","LANE":" ","ALLEY":" ","HOUSE_NO":"３２７號","E_COORD97":165838.95999999999,"N_COORD97":2535572.5699999998,"ADDRESS":"興南街３２７號","OBJECTID":516480},"geometry":{"x":165838.96000000089,"y":2535572.5700000022}},{"attributes":{"ID":516508,"DIS_CODE":0,"TOWNNAME":"南區","LI":"佛壇里","LIN":"1鄰","STREET":"興南街","SECT":" ","MAREA":" ","LANE":" ","ALLEY":" ","HOUSE_NO":"３２８號","E_COORD97":165831.57999999999,"N_COORD97":2535573.1800000002,"ADDRESS":"興南街３２８號","OBJECTID":516481},"geometry":{"x":165831.58000000101,"y":2535573.1799999997}},{"attributes":{"ID":516509,"DIS_CODE":0,"TOWNNAME":"南區","LI":"佛壇里","LIN":"1鄰","STREET":"興南街","SECT":" ","MAREA":" ","LANE":" ","ALLEY":" ","HOUSE_NO":"３２９號","E_COORD97":165824.20000000001,"N_COORD97":2535570.1099999999,"ADDRESS":"興南街３２９號","OBJECTID":516482},"geometry":{"x":165824.20000000112,"y":2535570.1099999994}},{"attributes":{"ID":516510,"DIS_CODE":0,"TOWNNAME":"南區","LI":"佛壇里","LIN":"1鄰","STREET":"興南街","SECT":" ","MAREA":" ","LANE":" ","ALLEY":" ","HOUSE_NO":"３３０號","E_COORD97":165817.44,"N_COORD97":2535565.8100000001,"ADDRESS":"興南街３３０號","OBJECTID":516483},"geometry":{"x":165817.44000000134,"y":2535565.8100000005}},{"attributes":{"ID":516511,"DIS_CODE":0,"TOWNNAME":"南區","LI":"佛壇里","LIN":"1鄰","STREET":"興南街","SECT":" ","MAREA":" ","LANE":" ","ALLEY":" ","HOUSE_NO":"３３１號","E_COORD97":165810.06,"N_COORD97":2535563.9700000002,"ADDRESS":"興南街３３１號","OBJECTID":516484},"geometry":{"x":165810.05999999959,"y":2535563.9700000025}},{"attributes":{"ID":516512,"DIS_CODE":0,"TOWNNAME":"南區","LI":"佛壇里","LIN":"1鄰","STREET":"興南街","SECT":" ","MAREA":" ","LANE":" ","ALLEY":" ","HOUSE_NO":"３３２號","E_COORD97":165803.29999999999,"N_COORD97":2535559.0600000001,"ADDRESS":"興南街３３２號","OBJECTID":516485},"geometry":{"x":165803.29999999981,"y":2535559.0600000024}},{"attributes":{"ID":516513,"DIS_CODE":0,"TOWNNAME":"南區","LI":"佛壇里","LIN":"1鄰","STREET":"興南街","SECT":" ","MAREA":" ","LANE":" ","ALLEY":" ","HOUSE_NO":"３３３號","E_COORD97":165797.14999999999,"N_COORD97":2535555.3700000001,"ADDRESS":"興南街３３３號","OBJECTID":516486},"geometry":{"x":165797.15000000224,"y":2535555.3700000029}},{"attributes":{"ID":516514,"DIS_CODE":0,"TOWNNAME":"南區","LI":"佛壇里","LIN":"1鄰","STREET":"興南街","SECT":" ","MAREA":" ","LANE":" ","ALLEY":" ","HOUSE_NO":"３３４號","E_COORD97":165789.14999999999,"N_COORD97":2535554.1400000001,"ADDRESS":"興南街３３４號","OBJECTID":516487},"geometry":{"x":165789.1500000013,"y":2535554.1400000006}},{"attributes":{"ID":516515,"DIS_CODE":0,"TOWNNAME":"南區","LI":"佛壇里","LIN":"1鄰","STREET":"興南街","SECT":" ","MAREA":" ","LANE":" ","ALLEY":" ","HOUSE_NO":"３３５號","E_COORD97":165780.54000000001,"N_COORD97":2535553.5299999998,"ADDRESS":"興南街３３５號","OBJECTID":516488},"geometry":{"x":165780.5400000019,"y":2535553.5299999993}},{"attributes":{"ID":516516,"DIS_CODE":0,"TOWNNAME":"南區","LI":"佛壇里","LIN":"1鄰","STREET":"興南街","SECT":" ","MAREA":" ","LANE":" ","ALLEY":" ","HOUSE_NO":"３３６號","E_COORD97":165773.78,"N_COORD97":2535552.9100000001,"ADDRESS":"興南街３３６號","OBJECTID":516489},"geometry":{"x":165773.78000000026,"y":2535552.910000002}},{"attributes":{"ID":516517,"DIS_CODE":0,"TOWNNAME":"南區","LI":"佛壇里","LIN":"1鄰","STREET":"興南街","SECT":" ","MAREA":" ","LANE":" ","ALLEY":" ","HOUSE_NO":"３３７號","E_COORD97":165766.39999999999,"N_COORD97":2535548.6200000001,"ADDRESS":"興南街３３７號","OBJECTID":516490},"geometry":{"x":165766.39999999944,"y":2535548.6200000048}},{"attributes":{"ID":516518,"DIS_CODE":0,"TOWNNAME":"南區","LI":"佛壇里","LIN":"1鄰","STREET":"興南街","SECT":" ","MAREA":" ","LANE":" ","ALLEY":" ","HOUSE_NO":"３３８號","E_COORD97":165760.25,"N_COORD97":2535545.5499999998,"ADDRESS":"興南街３３８號","OBJECTID":516491},"geometry":{"x":165760.24999999907,"y":2535545.5500000045}},{"attributes":{"ID":516519,"DIS_CODE":0,"TOWNNAME":"南區","LI":"佛壇里","LIN":"1鄰","STREET":"興南街","SECT":" ","MAREA":" ","LANE":" ","ALLEY":" ","HOUSE_NO":"３３９號","E_COORD97":165751.03,"N_COORD97":2535545.5499999998,"ADDRESS":"興南街３３９號","OBJECTID":516492},"geometry":{"x":165751.03000000119,"y":2535545.5500000045}},{"attributes":{"ID":516520,"DIS_CODE":0,"TOWNNAME":"南區","LI":"佛壇里","LIN":"1鄰","STREET":"興南街","SECT":" ","MAREA":" ","LANE":" ","ALLEY":" ","HOUSE_NO":"３４０號","E_COORD97":165747.44,"N_COORD97":2535542.6899999999,"ADDRESS":"興南街３４０號","OBJECTID":516493},"geometry":{"x":165747.44000000041,"y":2535542.6899999995}},{"attributes":{"ID":516521,"DIS_CODE":0,"TOWNNAME":"南區","LI":"佛壇里","LIN":"1鄰","STREET":"興南街","SECT":" ","MAREA":" ","LANE":" ","ALLEY":" ","HOUSE_NO":"３４１號","E_COORD97":165738.10999999999,"N_COORD97":2535538.79,"ADDRESS":"興南街３４１號","OBJECTID":516494},"geometry":{"x":165738.11000000127,"y":2535538.7900000028}},{"attributes":{"ID":516522,"DIS_CODE":0,"TOWNNAME":"南區","LI":"佛壇里","LIN":"1鄰","STREET":"興南街","SECT":" ","MAREA":" ","LANE":" ","ALLEY":" ","HOUSE_NO":"３４２號","E_COORD97":165730.12,"N_COORD97":2535535.1099999999,"ADDRESS":"興南街３４２號","OBJECTID":516495},"geometry":{"x":165730.12000000011,"y":2535535.1099999994}},{"attributes":{"ID":516523,"DIS_CODE":0,"TOWNNAME":"南區","LI":"佛壇里","LIN":"1鄰","STREET":"興南街","SECT":" ","MAREA":" ","LANE":" ","ALLEY":" ","HOUSE_NO":"３４４號","E_COORD97":165755.32999999999,"N_COORD97":2535506.8599999999,"ADDRESS":"興南街３４４號","OBJECTID":516496},"geometry":{"x":165755.33000000101,"y":2535506.8599999994}},{"attributes":{"ID":516524,"DIS_CODE":0,"TOWNNAME":"南區","LI":"佛壇里","LIN":"1鄰","STREET":"興南街","SECT":" ","MAREA":" ","LANE":" ","ALLEY":" ","HOUSE_NO":"３４５號","E_COORD97":165756.56,"N_COORD97":2535499.4900000002,"ADDRESS":"興南街３４５號","OBJECTID":516497},"geometry":{"x":165756.56000000052,"y":2535499.4900000002}},{"attributes":{"ID":516525,"DIS_CODE":0,"TOWNNAME":"南區","LI":"佛壇里","LIN":"1鄰","STREET":"興南街","SECT":" ","MAREA":" ","LANE":" ","ALLEY":" ","HOUSE_NO":"３４６號","E_COORD97":165758.41,"N_COORD97":2535465.71,"ADDRESS":"興南街３４６號","OBJECTID":516498},"geometry":{"x":165758.41000000108,"y":2535465.7100000009}},{"attributes":{"ID":516526,"DIS_CODE":0,"TOWNNAME":"南區","LI":"佛壇里","LIN":"1鄰","STREET":"興南街","SECT":" ","MAREA":" ","LANE":" ","ALLEY":" ","HOUSE_NO":"３４８號","E_COORD97":165767.63,"N_COORD97":2535467.5600000001,"ADDRESS":"興南街３４８號","OBJECTID":516499},"geometry":{"x":165767.62999999989,"y":2535467.5600000024}},{"attributes":{"ID":516527,"DIS_CODE":0,"TOWNNAME":"南區","LI":"佛壇里","LIN":"1鄰","STREET":"興南街","SECT":" ","MAREA":" ","LANE":" ","ALLEY":" ","HOUSE_NO":"３４９號","E_COORD97":165772.54999999999,"N_COORD97":2535473.0800000001,"ADDRESS":"興南街３４９號","OBJECTID":516500},"geometry":{"x":165772.54999999981,"y":2535473.0799999982}},{"attributes":{"ID":516528,"DIS_CODE":0,"TOWNNAME":"南區","LI":"佛壇里","LIN":"1鄰","STREET":"興南街","SECT":" ","MAREA":" ","LANE":" ","ALLEY":" ","HOUSE_NO":"３５０號","E_COORD97":165787.31,"N_COORD97":2535474.9300000002,"ADDRESS":"興南街３５０號","OBJECTID":516501},"geometry":{"x":165787.31000000052,"y":2535474.9300000016}},{"attributes":{"ID":516529,"DIS_CODE":0,"TOWNNAME":"南區","LI":"佛壇里","LIN":"1鄰","STREET":"興南街","SECT":" ","MAREA":" ","LANE":" ","ALLEY":" ","HOUSE_NO":"３５１號","E_COORD97":165803.29999999999,"N_COORD97":2535481.0699999998,"ADDRESS":"興南街３５１號","OBJECTID":516502},"geometry":{"x":165803.29999999981,"y":2535481.0700000022}},{"attributes":{"ID":516530,"DIS_CODE":0,"TOWNNAME":"南區","LI":"佛壇里","LIN":"1鄰","STREET":"興南街","SECT":" ","MAREA":" ","LANE":" ","ALLEY":" ","HOUSE_NO":"３５３號","E_COORD97":165816.82000000001,"N_COORD97":2535487.21,"ADDRESS":"興南街３５３號","OBJECTID":516503},"geometry":{"x":165816.82000000123,"y":2535487.2100000028}},{"attributes":{"ID":516531,"DIS_CODE":0,"TOWNNAME":"南區","LI":"佛壇里","LIN":"1鄰","STREET":"興南街","SECT":" ","MAREA":" ","LANE":" ","ALLEY":" ","HOUSE_NO":"３５４號","E_COORD97":165827.89000000001,"N_COORD97":2535490.8900000001,"ADDRESS":"興南街３５４號","OBJECTID":516504},"geometry":{"x":165827.88999999966,"y":2535490.8900000006}},{"attributes":{"ID":516532,"DIS_CODE":0,"TOWNNAME":"南區","LI":"佛壇里","LIN":"1鄰","STREET":"興南街","SECT":" ","MAREA":" ","LANE":" ","ALLEY":" ","HOUSE_NO":"３５６號","E_COORD97":165834.66,"N_COORD97":2535493.96,"ADDRESS":"興南街３５６號","OBJECTID":516505},"geometry":{"x":165834.66000000108,"y":2535493.9600000009}},{"attributes":{"ID":516533,"DIS_CODE":0,"TOWNNAME":"南區","LI":"佛壇里","LIN":"1鄰","STREET":"興南街","SECT":" ","MAREA":" ","LANE":" ","ALLEY":" ","HOUSE_NO":"３５７號","E_COORD97":165841.42000000001,"N_COORD97":2535496.4199999999,"ADDRESS":"興南街３５７號","OBJECTID":516506},"geometry":{"x":165841.41999999993,"y":2535496.4199999999}},{"attributes":{"ID":516534,"DIS_CODE":0,"TOWNNAME":"南區","LI":"佛壇里","LIN":"1鄰","STREET":"興南街","SECT":" ","MAREA":" ","LANE":" ","ALLEY":" ","HOUSE_NO":"３５８號","E_COORD97":165847.57000000001,"N_COORD97":2535500.7200000002,"ADDRESS":"興南街３５８號","OBJECTID":516507},"geometry":{"x":165847.5700000003,"y":2535500.7200000025}},{"attributes":{"ID":516535,"DIS_CODE":0,"TOWNNAME":"南區","LI":"佛壇里","LIN":"1鄰","STREET":"興南街","SECT":" ","MAREA":" ","LANE":" ","ALLEY":" ","HOUSE_NO":"３５９號","E_COORD97":165853.72,"N_COORD97":2535503.1699999999,"ADDRESS":"興南街３５９號","OBJECTID":516508},"geometry":{"x":165853.72000000067,"y":2535503.1700000037}},{"attributes":{"ID":516536,"DIS_CODE":0,"TOWNNAME":"南區","LI":"佛壇里","LIN":"1鄰","STREET":"興南街","SECT":" ","MAREA":" ","LANE":" ","ALLEY":" ","HOUSE_NO":"３６０號","E_COORD97":165862.94,"N_COORD97":2535505.6299999999,"ADDRESS":"興南街３６０號","OBJECTID":516509},"geometry":{"x":165862.94000000227,"y":2535505.6300000027}},{"attributes":{"ID":516537,"DIS_CODE":0,"TOWNNAME":"南區","LI":"佛壇里","LIN":"1鄰","STREET":"興南街","SECT":" ","MAREA":" ","LANE":" ","ALLEY":" ","HOUSE_NO":"３６１號","E_COORD97":165867.85999999999,"N_COORD97":2535510.54,"ADDRESS":"興南街３６１號","OBJECTID":516510},"geometry":{"x":165867.86000000034,"y":2535510.540000001}},{"attributes":{"ID":516538,"DIS_CODE":0,"TOWNNAME":"南區","LI":"佛壇里","LIN":"1鄰","STREET":"興南街","SECT":" ","MAREA":" ","LANE":" ","ALLEY":" ","HOUSE_NO":"３６２號","E_COORD97":165876.47,"N_COORD97":2535511.1600000001,"ADDRESS":"興南街３６２號","OBJECTID":516511},"geometry":{"x":165876.46999999974,"y":2535511.160000002}},{"attributes":{"ID":516539,"DIS_CODE":0,"TOWNNAME":"南區","LI":"佛壇里","LIN":"1鄰","STREET":"興南街","SECT":" ","MAREA":" ","LANE":" ","ALLEY":" ","HOUSE_NO":"３６３號","E_COORD97":165890.60999999999,"N_COORD97":2535519.1400000001,"ADDRESS":"興南街３６３號","OBJECTID":516512},"geometry":{"x":165890.6100000022,"y":2535519.1400000025}},{"attributes":{"ID":516540,"DIS_CODE":0,"TOWNNAME":"南區","LI":"佛壇里","LIN":"1鄰","STREET":"興南街","SECT":" ","MAREA":" ","LANE":" ","ALLEY":" ","HOUSE_NO":"３６４號","E_COORD97":165900.45000000001,"N_COORD97":2535520.98,"ADDRESS":"興南街３６４號","OBJECTID":516513},"geometry":{"x":165900.45000000112,"y":2535520.9800000004}},{"attributes":{"ID":516541,"DIS_CODE":0,"TOWNNAME":"南區","LI":"佛壇里","LIN":"1鄰","STREET":"興南街","SECT":" ","MAREA":" ","LANE":" ","ALLEY":" ","HOUSE_NO":"３６５號","E_COORD97":165907.22,"N_COORD97":2535523.4399999999,"ADDRESS":"興南街３６５號","OBJECTID":516514},"geometry":{"x":165907.21999999974,"y":2535523.4399999995}},{"attributes":{"ID":516542,"DIS_CODE":0,"TOWNNAME":"南區","LI":"佛壇里","LIN":"1鄰","STREET":"興南街","SECT":" ","MAREA":" ","LANE":" ","ALLEY":" ","HOUSE_NO":"３６６號","E_COORD97":165910.91,"N_COORD97":2535531.4199999999,"ADDRESS":"興南街３６６號","OBJECTID":516515},"geometry":{"x":165910.91000000108,"y":2535531.4199999999}},{"attributes":{"ID":516543,"DIS_CODE":0,"TOWNNAME":"南區","LI":"佛壇里","LIN":"1鄰","STREET":"興南街","SECT":" ","MAREA":" ","LANE":" ","ALLEY":" ","HOUSE_NO":"３６７號","E_COORD97":165919.51999999999,"N_COORD97":2535535.1099999999,"ADDRESS":"興南街３６７號","OBJECTID":516516},"geometry":{"x":165919.52000000048,"y":2535535.1099999994}},{"attributes":{"ID":516544,"DIS_CODE":0,"TOWNNAME":"南區","LI":"佛壇里","LIN":"1鄰","STREET":"興南街","SECT":" ","MAREA":" ","LANE":" ","ALLEY":" ","HOUSE_NO":"３６８號","E_COORD97":165926.89999999999,"N_COORD97":2535538.79,"ADDRESS":"興南街３６８號","OBJECTID":516517},"geometry":{"x":165926.90000000037,"y":2535538.7900000028}},{"attributes":{"ID":516545,"DIS_CODE":0,"TOWNNAME":"南區","LI":"佛壇里","LIN":"1鄰","STREET":"興南街","SECT":" ","MAREA":" ","LANE":" ","ALLEY":" ","HOUSE_NO":"３６９號","E_COORD97":165935.5,"N_COORD97":2535538.1800000002,"ADDRESS":"興南街３６９號","OBJECTID":516518},"geometry":{"x":165935.50000000093,"y":2535538.1800000016}},{"attributes":{"ID":516546,"DIS_CODE":0,"TOWNNAME":"南區","LI":"佛壇里","LIN":"1鄰","STREET":"興南街","SECT":" ","MAREA":" ","LANE":" ","ALLEY":" ","HOUSE_NO":"３７０號","E_COORD97":165940.42000000001,"N_COORD97":2535548,"ADDRESS":"興南街３７０號","OBJECTID":516519},"geometry":{"x":165940.41999999899,"y":2535548}},{"attributes":{"ID":516547,"DIS_CODE":0,"TOWNNAME":"南區","LI":"佛壇里","LIN":"1鄰","STREET":"興南街","SECT":" ","MAREA":" ","LANE":" ","ALLEY":" ","HOUSE_NO":"３７１號","E_COORD97":165950.26000000001,"N_COORD97":2535547.3900000001,"ADDRESS":"興南街３７１號","OBJECTID":516520},"geometry":{"x":165950.26000000071,"y":2535547.3900000025}},{"attributes":{"ID":516548,"DIS_CODE":0,"TOWNNAME":"南區","LI":"佛壇里","LIN":"1鄰","STREET":"興南街","SECT":" ","MAREA":" ","LANE":" ","ALLEY":" ","HOUSE_NO":"３７２號","E_COORD97":165956.41,"N_COORD97":2535552.9100000001,"ADDRESS":"興南街３７２號","OBJECTID":516521},"geometry":{"x":165956.41000000108,"y":2535552.910000002}},{"attributes":{"ID":516549,"DIS_CODE":0,"TOWNNAME":"南區","LI":"佛壇里","LIN":"1鄰","STREET":"興南街","SECT":" ","MAREA":" ","LANE":" ","ALLEY":" ","HOUSE_NO":"３７３號","E_COORD97":165967.48000000001,"N_COORD97":2535552.9100000001,"ADDRESS":"興南街３７３號","OBJECTID":516522},"geometry":{"x":165967.48000000045,"y":2535552.910000002}},{"attributes":{"ID":516550,"DIS_CODE":0,"TOWNNAME":"南區","LI":"佛壇里","LIN":"1鄰","STREET":"興南街","SECT":" ","MAREA":" ","LANE":" ","ALLEY":" ","HOUSE_NO":"３７４號","E_COORD97":165976.09,"N_COORD97":2535558.4399999999,"ADDRESS":"興南街３７４號","OBJECTID":516523},"geometry":{"x":165976.08999999985,"y":2535558.4400000032}},{"attributes":{"ID":516551,"DIS_CODE":0,"TOWNNAME":"南區","LI":"佛壇里","LIN":"1鄰","STREET":"興南街","SECT":" ","MAREA":" ","LANE":" ","ALLEY":" ","HOUSE_NO":"３７５號","E_COORD97":165983.47,"N_COORD97":2535561.5099999998,"ADDRESS":"興南街３７５號","OBJECTID":516524},"geometry":{"x":165983.46999999974,"y":2535561.5100000035}},{"attributes":{"ID":516552,"DIS_CODE":0,"TOWNNAME":"南區","LI":"佛壇里","LIN":"1鄰","STREET":"興南街","SECT":" ","MAREA":" ","LANE":" ","ALLEY":" ","HOUSE_NO":"３７６號","E_COORD97":165990.23000000001,"N_COORD97":2535566.4199999999,"ADDRESS":"興南街３７６號","OBJECTID":516525},"geometry":{"x":165990.23000000138,"y":2535566.4200000018}},{"attributes":{"ID":516553,"DIS_CODE":0,"TOWNNAME":"南區","LI":"佛壇里","LIN":"1鄰","STREET":"興南街","SECT":" ","MAREA":" ","LANE":" ","ALLEY":" ","HOUSE_NO":"３７６號之１","E_COORD97":165998.23000000001,"N_COORD97":2535560.8999999999,"ADDRESS":"興南街３７６號之１","OBJECTID":516526},"geometry":{"x":165998.22999999952,"y":2535560.9000000022}},{"attributes":{"ID":516554,"DIS_CODE":0,"TOWNNAME":"南區","LI":"佛壇里","LIN":"1鄰","STREET":"興南街","SECT":" ","MAREA":" ","LANE":" ","ALLEY":" ","HOUSE_NO":"３７７號","E_COORD97":166005.60999999999,"N_COORD97":2535567.04,"ADDRESS":"興南街３７７號","OBJECTID":516527},"geometry":{"x":166005.61000000034,"y":2535567.0399999991}},{"attributes":{"ID":516555,"DIS_CODE":0,"TOWNNAME":"南區","LI":"佛壇里","LIN":"1鄰","STREET":"興南街","SECT":" ","MAREA":" ","LANE":" ","ALLEY":" ","HOUSE_NO":"３７８號","E_COORD97":166017.73000000001,"N_COORD97":2535540.6299999999,"ADDRESS":"興南街３７８號","OBJECTID":516528},"geometry":{"x":166017.73000000138,"y":2535540.6300000008}},{"attributes":{"ID":516556,"DIS_CODE":0,"TOWNNAME":"南區","LI":"佛壇里","LIN":"1鄰","STREET":"興南街","SECT":" ","MAREA":" ","LANE":" ","ALLEY":" ","HOUSE_NO":"３７９號","E_COORD97":166033.10999999999,"N_COORD97":2535533.0699999998,"ADDRESS":"興南街３７９號","OBJECTID":516529},"geometry":{"x":166033.11000000127,"y":2535533.0700000003}},{"attributes":{"ID":516557,"DIS_CODE":0,"TOWNNAME":"南區","LI":"佛壇里","LIN":"1鄰","STREET":"興南街","SECT":" ","MAREA":" ","LANE":" ","ALLEY":" ","HOUSE_NO":"３８０號","E_COORD97":166040.48000000001,"N_COORD97":2535523.2400000002,"ADDRESS":"興南街３８０號","OBJECTID":516530},"geometry":{"x":166040.48000000045,"y":2535523.2400000039}},{"attributes":{"ID":516558,"DIS_CODE":0,"TOWNNAME":"南區","LI":"佛壇里","LIN":"1鄰","STREET":"興南街","SECT":" ","MAREA":" ","LANE":" ","ALLEY":" ","HOUSE_NO":"３８１號","E_COORD97":166043.56,"N_COORD97":2535516.4900000002,"ADDRESS":"興南街３８１號","OBJECTID":516531},"geometry":{"x":166043.55999999959,"y":2535516.4900000002}},{"attributes":{"ID":516559,"DIS_CODE":0,"TOWNNAME":"南區","LI":"佛壇里","LIN":"1鄰","STREET":"興南街","SECT":" ","MAREA":" ","LANE":" ","ALLEY":" ","HOUSE_NO":"３８２號","E_COORD97":166003.59,"N_COORD97":2535532.4500000002,"ADDRESS":"興南街３８２號","OBJECTID":516532},"geometry":{"x":166003.58999999892,"y":2535532.4500000011}},{"attributes":{"ID":516560,"DIS_CODE":0,"TOWNNAME":"南區","LI":"佛壇里","LIN":"1鄰","STREET":"興南街","SECT":" ","MAREA":" ","LANE":" ","ALLEY":" ","HOUSE_NO":"３８４號","E_COORD97":165997.44,"N_COORD97":2535529.3799999999,"ADDRESS":"興南街３８４號","OBJECTID":516533},"geometry":{"x":165997.44000000134,"y":2535529.379999999}},{"attributes":{"ID":516561,"DIS_CODE":0,"TOWNNAME":"南區","LI":"佛壇里","LIN":"1鄰","STREET":"興南街","SECT":" ","MAREA":" ","LANE":" ","ALLEY":" ","HOUSE_NO":"３８５號","E_COORD97":165992.51999999999,"N_COORD97":2535522.02,"ADDRESS":"興南街３８５號","OBJECTID":516534},"geometry":{"x":165992.52000000048,"y":2535522.0200000014}},{"attributes":{"ID":516562,"DIS_CODE":0,"TOWNNAME":"南區","LI":"佛壇里","LIN":"1鄰","STREET":"興南街","SECT":" ","MAREA":" ","LANE":" ","ALLEY":" ","HOUSE_NO":"３８６號","E_COORD97":165985.76000000001,"N_COORD97":2535518.3300000001,"ADDRESS":"興南街３８６號","OBJECTID":516535},"geometry":{"x":165985.76000000071,"y":2535518.3300000001}},{"attributes":{"ID":516563,"DIS_CODE":0,"TOWNNAME":"南區","LI":"佛壇里","LIN":"1鄰","STREET":"興南街","SECT":" ","MAREA":" ","LANE":" ","ALLEY":" ","HOUSE_NO":"３８７號","E_COORD97":165978.38,"N_COORD97":2535514.6499999999,"ADDRESS":"興南街３８７號","OBJECTID":516536},"geometry":{"x":165978.38000000082,"y":2535514.6500000022}},{"attributes":{"ID":516564,"DIS_CODE":0,"TOWNNAME":"南區","LI":"佛壇里","LIN":"1鄰","STREET":"興南街","SECT":" ","MAREA":" ","LANE":" ","ALLEY":" ","HOUSE_NO":"３８８號","E_COORD97":165973.45999999999,"N_COORD97":2535510.96,"ADDRESS":"興南街３８８號","OBJECTID":516537},"geometry":{"x":165973.45999999996,"y":2535510.9600000009}},{"attributes":{"ID":516565,"DIS_CODE":0,"TOWNNAME":"南區","LI":"佛壇里","LIN":"1鄰","STREET":"興南街","SECT":" ","MAREA":" ","LANE":" ","ALLEY":" ","HOUSE_NO":"３８９號","E_COORD97":165964.23000000001,"N_COORD97":2535509.1200000001,"ADDRESS":"興南街３８９號","OBJECTID":516538},"geometry":{"x":165964.23000000045,"y":2535509.1200000029}},{"attributes":{"ID":516566,"DIS_CODE":0,"TOWNNAME":"新營區","LI":"民生里","LIN":" ","STREET":"中華路","SECT":" ","MAREA":" ","LANE":" ","ALLEY":" ","HOUSE_NO":"１１８之１２號","E_COORD97":179157.26000000001,"N_COORD97":2578222.4100000001,"ADDRESS":"中華路１１８之１２號","OBJECTID":516539},"geometry":{"x":179157.26000000164,"y":2578222.4100000001}},{"attributes":{"ID":516567,"DIS_CODE":0,"TOWNNAME":"南區","LI":"佛壇里","LIN":"1鄰","STREET":"興南街","SECT":" ","MAREA":" ","LANE":" ","ALLEY":" ","HOUSE_NO":"３９０號","E_COORD97":165956.23999999999,"N_COORD97":2535503.5899999999,"ADDRESS":"興南街３９０號","OBJECTID":516540},"geometry":{"x":165956.24000000115,"y":2535503.5900000036}},{"attributes":{"ID":516568,"DIS_CODE":0,"TOWNNAME":"新營區","LI":"大宏里","LIN":"18鄰","STREET":"民族路","SECT":" ","MAREA":" ","LANE":" ","ALLEY":" ","HOUSE_NO":"２６號","E_COORD97":180300.81,"N_COORD97":2578612.27,"ADDRESS":"民族路２６號","OBJECTID":516541},"geometry":{"x":180300.81000000145,"y":2578612.2700000014}},{"attributes":{"ID":516569,"DIS_CODE":0,"TOWNNAME":"南區","LI":"佛壇里","LIN":"1鄰","STREET":"興南街","SECT":" ","MAREA":" ","LANE":" ","ALLEY":" ","HOUSE_NO":"３９１號","E_COORD97":165948.25,"N_COORD97":2535504.8199999998,"ADDRESS":"興南街３９１號","OBJECTID":516542},"geometry":{"x":165948.25,"y":2535504.8200000003}},{"attributes":{"ID":516570,"DIS_CODE":0,"TOWNNAME":"南區","LI":"佛壇里","LIN":"1鄰","STREET":"興南街","SECT":" ","MAREA":" ","LANE":" ","ALLEY":" ","HOUSE_NO":"３９２號","E_COORD97":165942.70999999999,"N_COORD97":2535501.1400000001,"ADDRESS":"興南街３９２號","OBJECTID":516543},"geometry":{"x":165942.71000000089,"y":2535501.1400000025}},{"attributes":{"ID":516571,"DIS_CODE":0,"TOWNNAME":"南區","LI":"佛壇里","LIN":"1鄰","STREET":"興南街","SECT":" ","MAREA":" ","LANE":" ","ALLEY":" ","HOUSE_NO":"３９４號","E_COORD97":165935.95000000001,"N_COORD97":2535496.2200000002,"ADDRESS":"興南街３９４號","OBJECTID":516544},"geometry":{"x":165935.95000000112,"y":2535496.2200000007}},{"attributes":{"ID":516572,"DIS_CODE":0,"TOWNNAME":"南區","LI":"佛壇里","LIN":"1鄰","STREET":"興南街","SECT":" ","MAREA":" ","LANE":" ","ALLEY":" ","HOUSE_NO":"３９５號","E_COORD97":165929.17999999999,"N_COORD97":2535492.54,"ADDRESS":"興南街３９５號","OBJECTID":516545},"geometry":{"x":165929.18000000063,"y":2535492.5399999991}},{"attributes":{"ID":516573,"DIS_CODE":0,"TOWNNAME":"南區","LI":"佛壇里","LIN":"1鄰","STREET":"興南街","SECT":" ","MAREA":" ","LANE":" ","ALLEY":" ","HOUSE_NO":"３９６號","E_COORD97":165913.19,"N_COORD97":2535489.4700000002,"ADDRESS":"興南街３９６號","OBJECTID":516546},"geometry":{"x":165913.19000000041,"y":2535489.4700000025}},{"attributes":{"ID":516574,"DIS_CODE":0,"TOWNNAME":"南區","LI":"佛壇里","LIN":"1鄰","STREET":"興南街","SECT":" ","MAREA":" ","LANE":" ","ALLEY":" ","HOUSE_NO":"３９７號","E_COORD97":165891.67000000001,"N_COORD97":2535476.5600000001,"ADDRESS":"興南街３９７號","OBJECTID":516547},"geometry":{"x":165891.67000000086,"y":2535476.5600000005}},{"attributes":{"ID":516575,"DIS_CODE":0,"TOWNNAME":"南區","LI":"佛壇里","LIN":"1鄰","STREET":"興南街","SECT":" ","MAREA":" ","LANE":" ","ALLEY":" ","HOUSE_NO":"３９８號","E_COORD97":165879.98999999999,"N_COORD97":2535476.5600000001,"ADDRESS":"興南街３９８號","OBJECTID":516548},"geometry":{"x":165879.99000000115,"y":2535476.5600000005}},{"attributes":{"ID":516576,"DIS_CODE":0,"TOWNNAME":"南區","LI":"佛壇里","LIN":"1鄰","STREET":"興南街","SECT":" ","MAREA":" ","LANE":" ","ALLEY":" ","HOUSE_NO":"３９９號","E_COORD97":165872.60999999999,"N_COORD97":2535470.4300000002,"ADDRESS":"興南街３９９號","OBJECTID":516549},"geometry":{"x":165872.61000000127,"y":2535470.4300000034}},{"attributes":{"ID":516577,"DIS_CODE":0,"TOWNNAME":"南區","LI":"佛壇里","LIN":"1鄰","STREET":"興南街","SECT":" ","MAREA":" ","LANE":" ","ALLEY":" ","HOUSE_NO":"４００號","E_COORD97":165865.23000000001,"N_COORD97":2535466.75,"ADDRESS":"興南街４００號","OBJECTID":516550},"geometry":{"x":165865.23000000045,"y":2535466.7500000019}},{"attributes":{"ID":516578,"DIS_CODE":0,"TOWNNAME":"南區","LI":"佛壇里","LIN":"1鄰","STREET":"興南街","SECT":" ","MAREA":" ","LANE":" ","ALLEY":" ","HOUSE_NO":"４０１號","E_COORD97":165860.31,"N_COORD97":2535461.8399999999,"ADDRESS":"興南街４０１號","OBJECTID":516551},"geometry":{"x":165860.31000000052,"y":2535461.8400000017}},{"attributes":{"ID":516579,"DIS_CODE":0,"TOWNNAME":"南區","LI":"佛壇里","LIN":"1鄰","STREET":"興南街","SECT":" ","MAREA":" ","LANE":" ","ALLEY":" ","HOUSE_NO":"４０２號","E_COORD97":165851.70000000001,"N_COORD97":2535454.4700000002,"ADDRESS":"興南街４０２號","OBJECTID":516552},"geometry":{"x":165851.70000000019,"y":2535454.4700000044}},{"attributes":{"ID":516580,"DIS_CODE":0,"TOWNNAME":"南區","LI":"佛壇里","LIN":"1鄰","STREET":"興南街","SECT":" ","MAREA":" ","LANE":" ","ALLEY":" ","HOUSE_NO":"４０３號","E_COORD97":165844.94,"N_COORD97":2535452.6200000001,"ADDRESS":"興南街４０３號","OBJECTID":516553},"geometry":{"x":165844.94000000134,"y":2535452.620000001}},{"attributes":{"ID":516581,"DIS_CODE":0,"TOWNNAME":"南區","LI":"佛壇里","LIN":"1鄰","STREET":"興南街","SECT":" ","MAREA":" ","LANE":" ","ALLEY":" ","HOUSE_NO":"４０４號","E_COORD97":165837.56,"N_COORD97":2535448.3300000001,"ADDRESS":"興南街４０４號","OBJECTID":516554},"geometry":{"x":165837.56000000145,"y":2535448.3300000019}},{"attributes":{"ID":516582,"DIS_CODE":0,"TOWNNAME":"南區","LI":"佛壇里","LIN":"1鄰","STREET":"興南街","SECT":" ","MAREA":" ","LANE":" ","ALLEY":" ","HOUSE_NO":"４０５號","E_COORD97":165832.01999999999,"N_COORD97":2535446.48,"ADDRESS":"興南街４０５號","OBJECTID":516555},"geometry":{"x":165832.01999999955,"y":2535446.4800000004}},{"attributes":{"ID":516583,"DIS_CODE":0,"TOWNNAME":"南區","LI":"佛壇里","LIN":"1鄰","STREET":"興南街","SECT":" ","MAREA":" ","LANE":" ","ALLEY":" ","HOUSE_NO":"４０６號","E_COORD97":165825.26000000001,"N_COORD97":2535442.1800000002,"ADDRESS":"興南街４０６號","OBJECTID":516556},"geometry":{"x":165825.26000000071,"y":2535442.1800000016}},{"attributes":{"ID":516584,"DIS_CODE":0,"TOWNNAME":"南區","LI":"佛壇里","LIN":"1鄰","STREET":"興南街","SECT":" ","MAREA":" ","LANE":" ","ALLEY":" ","HOUSE_NO":"４０７號","E_COORD97":165817.88,"N_COORD97":2535439.1099999999,"ADDRESS":"興南街４０７號","OBJECTID":516557},"geometry":{"x":165817.87999999989,"y":2535439.1100000013}},{"attributes":{"ID":516585,"DIS_CODE":0,"TOWNNAME":"南區","LI":"佛壇里","LIN":"1鄰","STREET":"興南街","SECT":" ","MAREA":" ","LANE":" ","ALLEY":" ","HOUSE_NO":"４０８號","E_COORD97":165809.26999999999,"N_COORD97":2535437.8900000001,"ADDRESS":"興南街４０８號","OBJECTID":516558},"geometry":{"x":165809.27000000048,"y":2535437.8900000043}},{"attributes":{"ID":516586,"DIS_CODE":0,"TOWNNAME":"南區","LI":"佛壇里","LIN":"1鄰","STREET":"興南街","SECT":" ","MAREA":" ","LANE":" ","ALLEY":" ","HOUSE_NO":"４０９號","E_COORD97":165801.28,"N_COORD97":2535438.5,"ADDRESS":"興南街４０９號","OBJECTID":516559},"geometry":{"x":165801.28000000119,"y":2535438.5}},{"attributes":{"ID":516587,"DIS_CODE":0,"TOWNNAME":"南區","LI":"佛壇里","LIN":"1鄰","STREET":"興南街","SECT":" ","MAREA":" ","LANE":" ","ALLEY":" ","HOUSE_NO":"４１０號","E_COORD97":165790.07000000001,"N_COORD97":2535446.7000000002,"ADDRESS":"興南街４１０號","OBJECTID":516560},"geometry":{"x":165790.0700000003,"y":2535446.6999999993}},{"attributes":{"ID":516588,"DIS_CODE":0,"TOWNNAME":"南區","LI":"佛壇里","LIN":"1鄰","STREET":"興南街","SECT":" ","MAREA":" ","LANE":" ","ALLEY":" ","HOUSE_NO":"４１１號","E_COORD97":165788.38,"N_COORD97":2535443.5600000001,"ADDRESS":"興南街４１１號","OBJECTID":516561},"geometry":{"x":165788.38000000082,"y":2535443.5600000042}},{"attributes":{"ID":516589,"DIS_CODE":0,"TOWNNAME":"南區","LI":"佛壇里","LIN":"1鄰","STREET":"興南街","SECT":" ","MAREA":" ","LANE":" ","ALLEY":" ","HOUSE_NO":"４１２號","E_COORD97":165783.20999999999,"N_COORD97":2535439.8999999999,"ADDRESS":"興南街４１２號","OBJECTID":516562},"geometry":{"x":165783.21000000089,"y":2535439.9000000004}},{"attributes":{"ID":516590,"DIS_CODE":0,"TOWNNAME":"南區","LI":"佛壇里","LIN":"1鄰","STREET":"興南街","SECT":" ","MAREA":" ","LANE":" ","ALLEY":" ","HOUSE_NO":"４１３號","E_COORD97":165777.20999999999,"N_COORD97":2535402.4500000002,"ADDRESS":"興南街４１３號","OBJECTID":516563},"geometry":{"x":165777.20999999996,"y":2535402.4500000011}},{"attributes":{"ID":516591,"DIS_CODE":0,"TOWNNAME":"南區","LI":"佛壇里","LIN":"1鄰","STREET":"興南街","SECT":" ","MAREA":" ","LANE":" ","ALLEY":" ","HOUSE_NO":"４１４號","E_COORD97":165775.70999999999,"N_COORD97":2535390.4700000002,"ADDRESS":"興南街４１４號","OBJECTID":516564},"geometry":{"x":165775.70999999996,"y":2535390.4700000025}},{"attributes":{"ID":516592,"DIS_CODE":0,"TOWNNAME":"南區","LI":"佛壇里","LIN":"1鄰","STREET":"興南街","SECT":" ","MAREA":" ","LANE":" ","ALLEY":" ","HOUSE_NO":"４１５號","E_COORD97":165774.20999999999,"N_COORD97":2535382.23,"ADDRESS":"興南街４１５號","OBJECTID":516565},"geometry":{"x":165774.21000000183,"y":2535382.2300000023}},{"attributes":{"ID":516593,"DIS_CODE":0,"TOWNNAME":"南區","LI":"佛壇里","LIN":"1鄰","STREET":"興南街","SECT":" ","MAREA":" ","LANE":" ","ALLEY":" ","HOUSE_NO":"４１６號","E_COORD97":165774.95999999999,"N_COORD97":2535371,"ADDRESS":"興南街４１６號","OBJECTID":516566},"geometry":{"x":165774.96000000089,"y":2535371}},{"attributes":{"ID":516594,"DIS_CODE":0,"TOWNNAME":"南區","LI":"佛壇里","LIN":"1鄰","STREET":"興南街","SECT":" ","MAREA":" ","LANE":" ","ALLEY":" ","HOUSE_NO":"４１７號","E_COORD97":165777.20999999999,"N_COORD97":2535364.25,"ADDRESS":"興南街４１７號","OBJECTID":516567},"geometry":{"x":165777.20999999996,"y":2535364.2500000019}},{"attributes":{"ID":516595,"DIS_CODE":0,"TOWNNAME":"南區","LI":"佛壇里","LIN":"1鄰","STREET":"興南街","SECT":" ","MAREA":" ","LANE":" ","ALLEY":" ","HOUSE_NO":"４１８號","E_COORD97":165776.45999999999,"N_COORD97":2535353.77,"ADDRESS":"興南街４１８號","OBJECTID":516568},"geometry":{"x":165776.46000000089,"y":2535353.7700000014}},{"attributes":{"ID":516596,"DIS_CODE":0,"TOWNNAME":"南區","LI":"佛壇里","LIN":"1鄰","STREET":"興南街","SECT":" ","MAREA":" ","LANE":" ","ALLEY":" ","HOUSE_NO":"４１９號","E_COORD97":165741.34,"N_COORD97":2535297.8199999998,"ADDRESS":"興南街４１９號","OBJECTID":516569},"geometry":{"x":165741.34000000078,"y":2535297.8200000003}},{"attributes":{"ID":516597,"DIS_CODE":0,"TOWNNAME":"南區","LI":"佛壇里","LIN":"1鄰","STREET":"興南街","SECT":" ","MAREA":" ","LANE":" ","ALLEY":" ","HOUSE_NO":"４１９號之１","E_COORD97":165769.60999999999,"N_COORD97":2535312.3300000001,"ADDRESS":"興南街４１９號之１","OBJECTID":516570},"geometry":{"x":165769.61000000034,"y":2535312.3300000038}},{"attributes":{"ID":516598,"DIS_CODE":0,"TOWNNAME":"南區","LI":"佛壇里","LIN":"1鄰","STREET":"興南街","SECT":" ","MAREA":" ","LANE":" ","ALLEY":" ","HOUSE_NO":"４１９號之２","E_COORD97":165724.45000000001,"N_COORD97":2535258.3500000001,"ADDRESS":"興南街４１９號之２","OBJECTID":516571},"geometry":{"x":165724.45000000112,"y":2535258.3500000015}},{"attributes":{"ID":516599,"DIS_CODE":0,"TOWNNAME":"南區","LI":"佛壇里","LIN":"1鄰","STREET":"興南街","SECT":" ","MAREA":" ","LANE":" ","ALLEY":" ","HOUSE_NO":"４１９號之３","E_COORD97":165742.51999999999,"N_COORD97":2535347.3700000001,"ADDRESS":"興南街４１９號之３","OBJECTID":516572},"geometry":{"x":165742.51999999955,"y":2535347.3700000029}},{"attributes":{"ID":516600,"DIS_CODE":0,"TOWNNAME":"南區","LI":"佛壇里","LIN":"1鄰","STREET":"興南街","SECT":" ","MAREA":" ","LANE":" ","ALLEY":" ","HOUSE_NO":"４２０號","E_COORD97":165780.95999999999,"N_COORD97":2535342.54,"ADDRESS":"興南街４２０號","OBJECTID":516573},"geometry":{"x":165780.96000000183,"y":2535342.5399999991}},{"attributes":{"ID":516601,"DIS_CODE":0,"TOWNNAME":"南區","LI":"佛壇里","LIN":"1鄰","STREET":"興南街","SECT":" ","MAREA":" ","LANE":" ","ALLEY":" ","HOUSE_NO":"４２１號","E_COORD97":165801.20999999999,"N_COORD97":2535358.2599999998,"ADDRESS":"興南街４２１號","OBJECTID":516574},"geometry":{"x":165801.20999999903,"y":2535358.2599999998}},{"attributes":{"ID":516602,"DIS_CODE":0,"TOWNNAME":"南區","LI":"佛壇里","LIN":"1鄰","STREET":"興南街","SECT":" ","MAREA":" ","LANE":" ","ALLEY":" ","HOUSE_NO":"４２２號","E_COORD97":165808.70999999999,"N_COORD97":2535360.5099999998,"ADDRESS":"興南街４２２號","OBJECTID":516575},"geometry":{"x":165808.71000000089,"y":2535360.5099999998}},{"attributes":{"ID":516603,"DIS_CODE":0,"TOWNNAME":"南區","LI":"佛壇里","LIN":"1鄰","STREET":"興南街","SECT":" ","MAREA":" ","LANE":" ","ALLEY":" ","HOUSE_NO":"４２３號","E_COORD97":165815.45999999999,"N_COORD97":2535362.0099999998,"ADDRESS":"興南街４２３號","OBJECTID":516576},"geometry":{"x":165815.46000000089,"y":2535362.0100000016}},{"attributes":{"ID":516604,"DIS_CODE":0,"TOWNNAME":"新營區","LI":"民生里","LIN":" ","STREET":"三民路","SECT":" ","MAREA":" ","LANE":" ","ALLEY":" ","HOUSE_NO":"１３９之５號","E_COORD97":179240.59,"N_COORD97":2578155.5600000001,"ADDRESS":"三民路１３９之５號","OBJECTID":516577},"geometry":{"x":179240.58999999985,"y":2578155.5600000042}},{"attributes":{"ID":516605,"DIS_CODE":0,"TOWNNAME":"南區","LI":"佛壇里","LIN":"1鄰","STREET":"興南街","SECT":" ","MAREA":" ","LANE":" ","ALLEY":" ","HOUSE_NO":"４２４號","E_COORD97":165822.95999999999,"N_COORD97":2535364.25,"ADDRESS":"興南街４２４號","OBJECTID":516578},"geometry":{"x":165822.95999999996,"y":2535364.2500000019}},{"attributes":{"ID":516606,"DIS_CODE":0,"TOWNNAME":"南區","LI":"佛壇里","LIN":"1鄰","STREET":"興南街","SECT":" ","MAREA":" ","LANE":" ","ALLEY":" ","HOUSE_NO":"４２５號","E_COORD97":165837.20000000001,"N_COORD97":2535371.7400000002,"ADDRESS":"興南街４２５號","OBJECTID":516579},"geometry":{"x":165837.20000000205,"y":2535371.7400000021}},{"attributes":{"ID":516607,"DIS_CODE":0,"TOWNNAME":"南區","LI":"佛壇里","LIN":"1鄰","STREET":"興南街","SECT":" ","MAREA":" ","LANE":" ","ALLEY":" ","HOUSE_NO":"４２６號","E_COORD97":165864.20000000001,"N_COORD97":2535384.48,"ADDRESS":"興南街４２６號","OBJECTID":516580},"geometry":{"x":165864.19999999925,"y":2535384.4800000004}},{"attributes":{"ID":516608,"DIS_CODE":0,"TOWNNAME":"南區","LI":"佛壇里","LIN":"1鄰","STREET":"興南街","SECT":" ","MAREA":" ","LANE":" ","ALLEY":" ","HOUSE_NO":"４３２號","E_COORD97":165882.95000000001,"N_COORD97":2535394.96,"ADDRESS":"興南街４３２號","OBJECTID":516581},"geometry":{"x":165882.95000000205,"y":2535394.9600000028}},{"attributes":{"ID":516609,"DIS_CODE":0,"TOWNNAME":"南區","LI":"佛壇里","LIN":"1鄰","STREET":"興南街","SECT":" ","MAREA":" ","LANE":" ","ALLEY":" ","HOUSE_NO":"４３３號","E_COORD97":165891.20000000001,"N_COORD97":2535397.21,"ADDRESS":"興南街４３３號","OBJECTID":516582},"geometry":{"x":165891.20000000019,"y":2535397.2100000009}},{"attributes":{"ID":516610,"DIS_CODE":0,"TOWNNAME":"南區","LI":"佛壇里","LIN":"1鄰","STREET":"興南街","SECT":" ","MAREA":" ","LANE":" ","ALLEY":" ","HOUSE_NO":"４３３之１號","E_COORD97":165897.20000000001,"N_COORD97":2535401.7000000002,"ADDRESS":"興南街４３３之１號","OBJECTID":516583},"geometry":{"x":165897.20000000112,"y":2535401.7000000011}},{"attributes":{"ID":516611,"DIS_CODE":0,"TOWNNAME":"南區","LI":"佛壇里","LIN":"1鄰","STREET":"興南街","SECT":" ","MAREA":" ","LANE":" ","ALLEY":" ","HOUSE_NO":"４３５號","E_COORD97":165906.20000000001,"N_COORD97":2535403.2000000002,"ADDRESS":"興南街４３５號","OBJECTID":516584},"geometry":{"x":165906.20000000019,"y":2535403.1999999993}},{"attributes":{"ID":516612,"DIS_CODE":0,"TOWNNAME":"南區","LI":"佛壇里","LIN":"1鄰","STREET":"興南街","SECT":" ","MAREA":" ","LANE":" ","ALLEY":" ","HOUSE_NO":"４３６號","E_COORD97":165914.45000000001,"N_COORD97":2535412.9399999999,"ADDRESS":"興南街４３６號","OBJECTID":516585},"geometry":{"x":165914.45000000019,"y":2535412.9400000013}},{"attributes":{"ID":516613,"DIS_CODE":0,"TOWNNAME":"南區","LI":"佛壇里","LIN":"1鄰","STREET":"興南街","SECT":" ","MAREA":" ","LANE":" ","ALLEY":" ","HOUSE_NO":"４３７號","E_COORD97":165924.20000000001,"N_COORD97":2535415.9300000002,"ADDRESS":"興南街４３７號","OBJECTID":516586},"geometry":{"x":165924.20000000112,"y":2535415.9299999997}},{"attributes":{"ID":516614,"DIS_CODE":0,"TOWNNAME":"南區","LI":"佛壇里","LIN":"1鄰","STREET":"興南街","SECT":" ","MAREA":" ","LANE":" ","ALLEY":" ","HOUSE_NO":"４３８號","E_COORD97":165940.70000000001,"N_COORD97":2535425.6699999999,"ADDRESS":"興南街４３８號","OBJECTID":516587},"geometry":{"x":165940.70000000205,"y":2535425.6700000018}},{"attributes":{"ID":516615,"DIS_CODE":0,"TOWNNAME":"南區","LI":"佛壇里","LIN":"1鄰","STREET":"興南街","SECT":" ","MAREA":" ","LANE":" ","ALLEY":" ","HOUSE_NO":"４４０號","E_COORD97":165945.95000000001,"N_COORD97":2535428.6600000001,"ADDRESS":"興南街４４０號","OBJECTID":516588},"geometry":{"x":165945.95000000112,"y":2535428.6600000039}},{"attributes":{"ID":516616,"DIS_CODE":0,"TOWNNAME":"南區","LI":"佛壇里","LIN":"1鄰","STREET":"興南街","SECT":" ","MAREA":" ","LANE":" ","ALLEY":" ","HOUSE_NO":"４４２號","E_COORD97":165956.45000000001,"N_COORD97":2535434.6600000001,"ADDRESS":"興南街４４２號","OBJECTID":516589},"geometry":{"x":165956.45000000112,"y":2535434.6600000001}},{"attributes":{"ID":516617,"DIS_CODE":0,"TOWNNAME":"南區","LI":"佛壇里","LIN":"1鄰","STREET":"興南街","SECT":" ","MAREA":" ","LANE":" ","ALLEY":" ","HOUSE_NO":"４４３號","E_COORD97":165969.95000000001,"N_COORD97":2535438.3999999999,"ADDRESS":"興南街４４３號","OBJECTID":516590},"geometry":{"x":165969.95000000112,"y":2535438.4000000022}},{"attributes":{"ID":516618,"DIS_CODE":0,"TOWNNAME":"南區","LI":"佛壇里","LIN":"1鄰","STREET":"興南街","SECT":" ","MAREA":" ","LANE":" ","ALLEY":" ","HOUSE_NO":"４４５號","E_COORD97":165981.20000000001,"N_COORD97":2535445.8900000001,"ADDRESS":"興南街４４５號","OBJECTID":516591},"geometry":{"x":165981.19999999925,"y":2535445.8900000025}},{"attributes":{"ID":516619,"DIS_CODE":0,"TOWNNAME":"南區","LI":"佛壇里","LIN":"1鄰","STREET":"興南街","SECT":" ","MAREA":" ","LANE":" ","ALLEY":" ","HOUSE_NO":"４４７號","E_COORD97":165987.20000000001,"N_COORD97":2535448.8900000001,"ADDRESS":"興南街４４７號","OBJECTID":516592},"geometry":{"x":165987.20000000112,"y":2535448.8900000025}},{"attributes":{"ID":516620,"DIS_CODE":0,"TOWNNAME":"南區","LI":"佛壇里","LIN":"1鄰","STREET":"興南街","SECT":" ","MAREA":" ","LANE":" ","ALLEY":" ","HOUSE_NO":"４４８號","E_COORD97":166002.20000000001,"N_COORD97":2535454.8799999999,"ADDRESS":"興南街４４８號","OBJECTID":516593},"geometry":{"x":166002.20000000112,"y":2535454.879999999}},{"attributes":{"ID":516621,"DIS_CODE":0,"TOWNNAME":"南區","LI":"佛壇里","LIN":"1鄰","STREET":"興南街","SECT":" ","MAREA":" ","LANE":" ","ALLEY":" ","HOUSE_NO":"４４９號","E_COORD97":166008.95000000001,"N_COORD97":2535459.3700000001,"ADDRESS":"興南街４４９號","OBJECTID":516594},"geometry":{"x":166008.95000000112,"y":2535459.3700000029}},{"attributes":{"ID":516622,"DIS_CODE":0,"TOWNNAME":"南區","LI":"佛壇里","LIN":"1鄰","STREET":"興南街","SECT":" ","MAREA":" ","LANE":" ","ALLEY":" ","HOUSE_NO":"４５０號","E_COORD97":166017.95000000001,"N_COORD97":2535466.8599999999,"ADDRESS":"興南街４５０號","OBJECTID":516595},"geometry":{"x":166017.95000000019,"y":2535466.8599999994}},{"attributes":{"ID":516623,"DIS_CODE":0,"TOWNNAME":"南區","LI":"佛壇里","LIN":"1鄰","STREET":"興南街","SECT":" ","MAREA":" ","LANE":" ","ALLEY":" ","HOUSE_NO":"４５１號","E_COORD97":166026.20000000001,"N_COORD97":2535469.8599999999,"ADDRESS":"興南街４５１號","OBJECTID":516596},"geometry":{"x":166026.20000000019,"y":2535469.8599999994}},{"attributes":{"ID":516624,"DIS_CODE":0,"TOWNNAME":"南區","LI":"佛壇里","LIN":"1鄰","STREET":"興南街","SECT":" ","MAREA":" ","LANE":" ","ALLEY":" ","HOUSE_NO":"４５２號","E_COORD97":166032.48999999999,"N_COORD97":2535475.96,"ADDRESS":"興南街４５２號","OBJECTID":516597},"geometry":{"x":166032.49000000115,"y":2535475.9600000028}},{"attributes":{"ID":516625,"DIS_CODE":0,"TOWNNAME":"南區","LI":"佛壇里","LIN":"1鄰","STREET":"興南街","SECT":" ","MAREA":" ","LANE":" ","ALLEY":" ","HOUSE_NO":"４５３號","E_COORD97":166041.10000000001,"N_COORD97":2535480.2599999998,"ADDRESS":"興南街４５３號","OBJECTID":516598},"geometry":{"x":166041.10000000056,"y":2535480.2599999998}},{"attributes":{"ID":516626,"DIS_CODE":0,"TOWNNAME":"南區","LI":"佛壇里","LIN":"1鄰","STREET":"興南街","SECT":" ","MAREA":" ","LANE":" ","ALLEY":" ","HOUSE_NO":"４５４號","E_COORD97":166048.48000000001,"N_COORD97":2535484.5600000001,"ADDRESS":"興南街４５４號","OBJECTID":516599},"geometry":{"x":166048.48000000045,"y":2535484.5600000024}},{"attributes":{"ID":516627,"DIS_CODE":0,"TOWNNAME":"南區","LI":"佛壇里","LIN":"1鄰","STREET":"興南街","SECT":" ","MAREA":" ","LANE":" ","ALLEY":" ","HOUSE_NO":"４５５號","E_COORD97":166062.01000000001,"N_COORD97":2535490.0800000001,"ADDRESS":"興南街４５５號","OBJECTID":516600},"geometry":{"x":166062.01000000071,"y":2535490.0800000038}}]}