{"displayFieldName":"TOWNNAME","fieldAliases":{"ID":"ID","DIS_CODE":"DIS_CODE","TOWNNAME":"TOWNNAME","LI":"LI","LIN":"LIN","STREET":"STREET","SECT":"SECT","MAREA":"MAREA","LANE":"LANE","ALLEY":"ALLEY","HOUSE_NO":"HOUSE_NO","E_COORD97":"E_COORD97","N_COORD97":"N_COORD97","ADDRESS":"ADDRESS","OBJECTID":"OBJECTID"},"geometryType":"esriGeometryPoint","spatialReference":{"wkid":102443,"latestWkid":3826},"fields":[{"name":"ID","type":"esriFieldTypeDouble","alias":"ID"},{"name":"DIS_CODE","type":"esriFieldTypeInteger","alias":"DIS_CODE"},{"name":"TOWNNAME","type":"esriFieldTypeString","alias":"TOWNNAME","length":8},{"name":"LI","type":"esriFieldTypeString","alias":"LI","length":8},{"name":"LIN","type":"esriFieldTypeString","alias":"LIN","length":12},{"name":"STREET","type":"esriFieldTypeString","alias":"STREET","length":20},{"name":"SECT","type":"esriFieldTypeString","alias":"SECT","length":8},{"name":"MAREA","type":"esriFieldTypeString","alias":"MAREA","length":12},{"name":"LANE","type":"esriFieldTypeString","alias":"LANE","length":10},{"name":"ALLEY","type":"esriFieldTypeString","alias":"ALLEY","length":10},{"name":"HOUSE_NO","type":"esriFieldTypeString","alias":"HOUSE_NO","length":20},{"name":"E_COORD97","type":"esriFieldTypeDouble","alias":"E_COORD97"},{"name":"N_COORD97","type":"esriFieldTypeDouble","alias":"N_COORD97"},{"name":"ADDRESS","type":"esriFieldTypeString","alias":"ADDRESS","length":50},{"name":"OBJECTID","type":"esriFieldTypeOID","alias":"OBJECTID"}],"features":[{"attributes":{"ID":344210,"DIS_CODE":0,"TOWNNAME":"楠西區","LI":"灣丘里","LIN":"5鄰","STREET":" ","SECT":" ","MAREA":"灣丘","LANE":" ","ALLEY":" ","HOUSE_NO":"５１號之７","E_COORD97":200560.17999999999,"N_COORD97":2564286.2999999998,"ADDRESS":"灣丘５１號之７","OBJECTID":344201},"geometry":{"x":200560.18000000063,"y":2564286.3000000007}},{"attributes":{"ID":344211,"DIS_CODE":0,"TOWNNAME":"楠西區","LI":"灣丘里","LIN":"5鄰","STREET":" ","SECT":" ","MAREA":"灣丘","LANE":" ","ALLEY":" ","HOUSE_NO":"４８號","E_COORD97":200381.97,"N_COORD97":2564171.25,"ADDRESS":"灣丘４８號","OBJECTID":344202},"geometry":{"x":200381.97000000067,"y":2564171.25}},{"attributes":{"ID":344212,"DIS_CODE":0,"TOWNNAME":"永康區","LI":"成功里","LIN":"35鄰","STREET":"中華路","SECT":" ","MAREA":" ","LANE":"１５４巷","ALLEY":" ","HOUSE_NO":"１０２號","E_COORD97":171857.79999999999,"N_COORD97":2544890.7200000002,"ADDRESS":"中華路１５４巷１０２號","OBJECTID":344203},"geometry":{"x":171857.80000000075,"y":2544890.7200000007}},{"attributes":{"ID":344213,"DIS_CODE":0,"TOWNNAME":"東山區","LI":"林安里","LIN":"5鄰","STREET":" ","SECT":" ","MAREA":"林安","LANE":" ","ALLEY":" ","HOUSE_NO":"３２號","E_COORD97":192162.85999999999,"N_COORD97":2575506.1400000001,"ADDRESS":"林安３２號","OBJECTID":344204},"geometry":{"x":192162.86000000127,"y":2575506.1400000006}},{"attributes":{"ID":344214,"DIS_CODE":0,"TOWNNAME":"永康區","LI":"成功里","LIN":"35鄰","STREET":"中華路","SECT":" ","MAREA":" ","LANE":"１５４巷","ALLEY":" ","HOUSE_NO":"９６號","E_COORD97":171837.14000000001,"N_COORD97":2544890.8100000001,"ADDRESS":"中華路１５４巷９６號","OBJECTID":344205},"geometry":{"x":171837.1400000006,"y":2544890.8100000042}},{"attributes":{"ID":344215,"DIS_CODE":0,"TOWNNAME":"東山區","LI":"林安里","LIN":"5鄰","STREET":" ","SECT":" ","MAREA":"林安","LANE":" ","ALLEY":" ","HOUSE_NO":"３３號","E_COORD97":192182.94,"N_COORD97":2575508.3799999999,"ADDRESS":"林安３３號","OBJECTID":344206},"geometry":{"x":192182.94000000134,"y":2575508.3800000008}},{"attributes":{"ID":344216,"DIS_CODE":0,"TOWNNAME":"東山區","LI":"林安里","LIN":"5鄰","STREET":" ","SECT":" ","MAREA":"林安","LANE":" ","ALLEY":" ","HOUSE_NO":"３４號","E_COORD97":192165.75,"N_COORD97":2575526.0600000001,"ADDRESS":"林安３４號","OBJECTID":344207},"geometry":{"x":192165.75,"y":2575526.0600000024}},{"attributes":{"ID":344217,"DIS_CODE":0,"TOWNNAME":"永康區","LI":"正強里","LIN":"35鄰","STREET":"正強街","SECT":" ","MAREA":" ","LANE":"３１３巷","ALLEY":" ","HOUSE_NO":"２１號","E_COORD97":173194.42000000001,"N_COORD97":2548241.1499999999,"ADDRESS":"正強街３１３巷２１號","OBJECTID":344208},"geometry":{"x":173194.42000000086,"y":2548241.1500000041}},{"attributes":{"ID":344218,"DIS_CODE":0,"TOWNNAME":"東山區","LI":"林安里","LIN":"5鄰","STREET":" ","SECT":" ","MAREA":"林安","LANE":" ","ALLEY":" ","HOUSE_NO":"３６號","E_COORD97":192007.85999999999,"N_COORD97":2575508.8599999999,"ADDRESS":"林安３６號","OBJECTID":344209},"geometry":{"x":192007.86000000034,"y":2575508.8600000013}},{"attributes":{"ID":344219,"DIS_CODE":0,"TOWNNAME":"永康區","LI":"正強里","LIN":"35鄰","STREET":"正強街","SECT":" ","MAREA":" ","LANE":"３１５巷","ALLEY":" ","HOUSE_NO":"１０號","E_COORD97":173215.37,"N_COORD97":2548306.5,"ADDRESS":"正強街３１５巷１０號","OBJECTID":344210},"geometry":{"x":173215.37000000104,"y":2548306.5000000037}},{"attributes":{"ID":344220,"DIS_CODE":0,"TOWNNAME":"新化區","LI":"協興里","LIN":"5鄰","STREET":"忠孝路","SECT":" ","MAREA":" ","LANE":" ","ALLEY":" ","HOUSE_NO":"２８１號","E_COORD97":178375.32000000001,"N_COORD97":2548539.25,"ADDRESS":"忠孝路２８１號","OBJECTID":344211},"geometry":{"x":178375.3200000003,"y":2548539.2500000019}},{"attributes":{"ID":344221,"DIS_CODE":0,"TOWNNAME":"東山區","LI":"林安里","LIN":"5鄰","STREET":" ","SECT":" ","MAREA":"林安","LANE":" ","ALLEY":" ","HOUSE_NO":"３７號之１","E_COORD97":192084.70999999999,"N_COORD97":2575542,"ADDRESS":"林安３７號之１","OBJECTID":344212},"geometry":{"x":192084.70999999996,"y":2575542.0000000019}},{"attributes":{"ID":344222,"DIS_CODE":0,"TOWNNAME":"新化區","LI":"豐榮里","LIN":"5鄰","STREET":" ","SECT":" ","MAREA":"洋子","LANE":" ","ALLEY":" ","HOUSE_NO":"１２８號之４","E_COORD97":177800.81,"N_COORD97":2548205.2599999998,"ADDRESS":"洋子１２８號之４","OBJECTID":344213},"geometry":{"x":177800.81000000052,"y":2548205.2599999998}},{"attributes":{"ID":344223,"DIS_CODE":0,"TOWNNAME":"永康區","LI":"正強里","LIN":"35鄰","STREET":"正強街","SECT":" ","MAREA":" ","LANE":"３１３巷","ALLEY":" ","HOUSE_NO":"１８號","E_COORD97":173211.69,"N_COORD97":2548264.3900000001,"ADDRESS":"正強街３１３巷１８號","OBJECTID":344214},"geometry":{"x":173211.69000000227,"y":2548264.3900000025}},{"attributes":{"ID":344224,"DIS_CODE":0,"TOWNNAME":"永康區","LI":"正強里","LIN":"35鄰","STREET":"正強街","SECT":" ","MAREA":" ","LANE":"３１３巷","ALLEY":" ","HOUSE_NO":"９號","E_COORD97":173219.29999999999,"N_COORD97":2548246.8999999999,"ADDRESS":"正強街３１３巷９號","OBJECTID":344215},"geometry":{"x":173219.30000000075,"y":2548246.9000000022}},{"attributes":{"ID":344225,"DIS_CODE":0,"TOWNNAME":"新化區","LI":"唪口里","LIN":"5鄰","STREET":" ","SECT":" ","MAREA":"唪口","LANE":" ","ALLEY":" ","HOUSE_NO":"５０號之１","E_COORD97":178183.23000000001,"N_COORD97":2549035.2599999998,"ADDRESS":"唪口５０號之１","OBJECTID":344216},"geometry":{"x":178183.22999999952,"y":2549035.2599999998}},{"attributes":{"ID":344226,"DIS_CODE":0,"TOWNNAME":"永康區","LI":"正強里","LIN":"35鄰","STREET":"正強街","SECT":" ","MAREA":" ","LANE":"３１１巷","ALLEY":" ","HOUSE_NO":"２２號","E_COORD97":173202.37,"N_COORD97":2548215.29,"ADDRESS":"正強街３１１巷２２號","OBJECTID":344217},"geometry":{"x":173202.37000000104,"y":2548215.2900000028}},{"attributes":{"ID":344227,"DIS_CODE":0,"TOWNNAME":"新化區","LI":"豐榮里","LIN":"5鄰","STREET":" ","SECT":" ","MAREA":"洋子","LANE":" ","ALLEY":" ","HOUSE_NO":"１１８號","E_COORD97":177900.48000000001,"N_COORD97":2548285.25,"ADDRESS":"洋子１１８號","OBJECTID":344218},"geometry":{"x":177900.48000000138,"y":2548285.2500000019}},{"attributes":{"ID":344228,"DIS_CODE":0,"TOWNNAME":"永康區","LI":"正強里","LIN":"35鄰","STREET":"正強街","SECT":" ","MAREA":" ","LANE":"３１５巷","ALLEY":" ","HOUSE_NO":"１２號","E_COORD97":173209.82000000001,"N_COORD97":2548305,"ADDRESS":"正強街３１５巷１２號","OBJECTID":344219},"geometry":{"x":173209.8200000003,"y":2548305}},{"attributes":{"ID":344229,"DIS_CODE":0,"TOWNNAME":"新化區","LI":"唪口里","LIN":"5鄰","STREET":" ","SECT":" ","MAREA":"唪口","LANE":" ","ALLEY":" ","HOUSE_NO":"５０號之２","E_COORD97":178162.95000000001,"N_COORD97":2549030.2599999998,"ADDRESS":"唪口５０號之２","OBJECTID":344220},"geometry":{"x":178162.95000000205,"y":2549030.2600000016}},{"attributes":{"ID":344230,"DIS_CODE":0,"TOWNNAME":"永康區","LI":"正強里","LIN":"35鄰","STREET":"正強街","SECT":" ","MAREA":" ","LANE":"３１５巷","ALLEY":" ","HOUSE_NO":"５號","E_COORD97":173221.19,"N_COORD97":2548292.5800000001,"ADDRESS":"正強街３１５巷５號","OBJECTID":344221},"geometry":{"x":173221.19000000041,"y":2548292.5800000019}},{"attributes":{"ID":344231,"DIS_CODE":0,"TOWNNAME":"永康區","LI":"正強里","LIN":"35鄰","STREET":"正強街","SECT":" ","MAREA":" ","LANE":"３１１巷","ALLEY":" ","HOUSE_NO":"８號","E_COORD97":173226.85000000001,"N_COORD97":2548221.5299999998,"ADDRESS":"正強街３１１巷８號","OBJECTID":344222},"geometry":{"x":173226.85000000056,"y":2548221.5300000012}},{"attributes":{"ID":344232,"DIS_CODE":0,"TOWNNAME":"永康區","LI":"正強里","LIN":"35鄰","STREET":"正強街","SECT":" ","MAREA":" ","LANE":"３１１巷","ALLEY":" ","HOUSE_NO":"３０號","E_COORD97":173188.45999999999,"N_COORD97":2548212.54,"ADDRESS":"正強街３１１巷３０號","OBJECTID":344223},"geometry":{"x":173188.45999999996,"y":2548212.5399999991}},{"attributes":{"ID":344233,"DIS_CODE":0,"TOWNNAME":"仁德區","LI":"後壁里","LIN":"35鄰","STREET":"德洋路","SECT":" ","MAREA":" ","LANE":"２０５巷","ALLEY":" ","HOUSE_NO":"３１號","E_COORD97":172409.54999999999,"N_COORD97":2539506.02,"ADDRESS":"德洋路２０５巷３１號","OBJECTID":344224},"geometry":{"x":172409.54999999981,"y":2539506.0199999996}},{"attributes":{"ID":344234,"DIS_CODE":0,"TOWNNAME":"新化區","LI":"大坑里","LIN":"5鄰","STREET":" ","SECT":" ","MAREA":"大坑尾","LANE":" ","ALLEY":" ","HOUSE_NO":"１３５號","E_COORD97":187041.73000000001,"N_COORD97":2545727.25,"ADDRESS":"大坑尾１３５號","OBJECTID":344225},"geometry":{"x":187041.73000000045,"y":2545727.25}},{"attributes":{"ID":344235,"DIS_CODE":0,"TOWNNAME":"新化區","LI":"山\u25A0里","LIN":"5鄰","STREET":" ","SECT":" ","MAREA":"頂山\u25A0","LANE":" ","ALLEY":" ","HOUSE_NO":"２１號之１","E_COORD97":179553.94811500001,"N_COORD97":2546802.1028499999,"ADDRESS":"頂山\u25A0２１號之１","OBJECTID":344226},"geometry":{"x":179553.9481150005,"y":2546802.1028540004}},{"attributes":{"ID":344236,"DIS_CODE":0,"TOWNNAME":"永康區","LI":"正強里","LIN":"35鄰","STREET":"正強街","SECT":" ","MAREA":" ","LANE":"３１３巷","ALLEY":" ","HOUSE_NO":"２號","E_COORD97":173237.44,"N_COORD97":2548272.1499999999,"ADDRESS":"正強街３１３巷２號","OBJECTID":344227},"geometry":{"x":173237.44000000134,"y":2548272.1500000022}},{"attributes":{"ID":344237,"DIS_CODE":0,"TOWNNAME":"永康區","LI":"正強里","LIN":"35鄰","STREET":"正強街","SECT":" ","MAREA":" ","LANE":"３１３巷","ALLEY":" ","HOUSE_NO":"２６號","E_COORD97":173197.79000000001,"N_COORD97":2548263.1400000001,"ADDRESS":"正強街３１３巷２６號","OBJECTID":344228},"geometry":{"x":173197.79000000004,"y":2548263.1400000025}},{"attributes":{"ID":344238,"DIS_CODE":0,"TOWNNAME":"新化區","LI":"豐榮里","LIN":"5鄰","STREET":" ","SECT":" ","MAREA":"洋子","LANE":" ","ALLEY":" ","HOUSE_NO":"１１５號","E_COORD97":177938.28,"N_COORD97":2548246.25,"ADDRESS":"洋子１１５號","OBJECTID":344229},"geometry":{"x":177938.28000000026,"y":2548246.25}},{"attributes":{"ID":344239,"DIS_CODE":0,"TOWNNAME":"新化區","LI":"全興里","LIN":"5鄰","STREET":" ","SECT":" ","MAREA":"竹子\u25A0","LANE":" ","ALLEY":" ","HOUSE_NO":"１８８號之１０","E_COORD97":177899.32000000001,"N_COORD97":2547447.2599999998,"ADDRESS":"竹子\u25A0１８８號之１０","OBJECTID":344230},"geometry":{"x":177899.31999999937,"y":2547447.2600000016}},{"attributes":{"ID":344240,"DIS_CODE":0,"TOWNNAME":"永康區","LI":"正強里","LIN":"35鄰","STREET":"正強街","SECT":" ","MAREA":" ","LANE":"３１５巷","ALLEY":" ","HOUSE_NO":"２號","E_COORD97":173228.92999999999,"N_COORD97":2548311,"ADDRESS":"正強街３１５巷２號","OBJECTID":344231},"geometry":{"x":173228.9299999997,"y":2548311.0000000019}},{"attributes":{"ID":344241,"DIS_CODE":0,"TOWNNAME":"永康區","LI":"正強里","LIN":"35鄰","STREET":"正強街","SECT":" ","MAREA":" ","LANE":"３１３巷","ALLEY":" ","HOUSE_NO":"１號","E_COORD97":173237.29999999999,"N_COORD97":2548251.6499999999,"ADDRESS":"正強街３１３巷１號","OBJECTID":344232},"geometry":{"x":173237.30000000168,"y":2548251.6500000041}},{"attributes":{"ID":344242,"DIS_CODE":0,"TOWNNAME":"新化區","LI":"唪口里","LIN":"5鄰","STREET":" ","SECT":" ","MAREA":"唪口","LANE":" ","ALLEY":" ","HOUSE_NO":"４７號之１","E_COORD97":178116.23000000001,"N_COORD97":2548999.2599999998,"ADDRESS":"唪口４７號之１","OBJECTID":344233},"geometry":{"x":178116.23000000138,"y":2548999.2600000035}},{"attributes":{"ID":344243,"DIS_CODE":0,"TOWNNAME":"新化區","LI":"羊林里","LIN":"5鄰","STREET":" ","SECT":" ","MAREA":"\u25A0拔林","LANE":" ","ALLEY":" ","HOUSE_NO":"４６２號之１","E_COORD97":183610.45000000001,"N_COORD97":2551764.2599999998,"ADDRESS":"\u25A0拔林４６２號之１","OBJECTID":344234},"geometry":{"x":183610.45000000019,"y":2551764.2599999998}},{"attributes":{"ID":344244,"DIS_CODE":0,"TOWNNAME":"永康區","LI":"正強里","LIN":"35鄰","STREET":"正強街","SECT":" ","MAREA":" ","LANE":"３１５巷","ALLEY":" ","HOUSE_NO":"１１號","E_COORD97":173208.88,"N_COORD97":2548291.0800000001,"ADDRESS":"正強街３１５巷１１號","OBJECTID":344235},"geometry":{"x":173208.87999999989,"y":2548291.0800000001}},{"attributes":{"ID":344245,"DIS_CODE":0,"TOWNNAME":"新化區","LI":"崙頂里","LIN":"5鄰","STREET":" ","SECT":" ","MAREA":"崙子頂","LANE":" ","ALLEY":" ","HOUSE_NO":"２２６號","E_COORD97":176653.82999999999,"N_COORD97":2546936.25,"ADDRESS":"崙子頂２２６號","OBJECTID":344236},"geometry":{"x":176653.83000000101,"y":2546936.2500000019}},{"attributes":{"ID":344246,"DIS_CODE":0,"TOWNNAME":"新化區","LI":"大坑里","LIN":"5鄰","STREET":" ","SECT":" ","MAREA":"大坑尾","LANE":" ","ALLEY":" ","HOUSE_NO":"１３３號","E_COORD97":187061.82999999999,"N_COORD97":2545719.25,"ADDRESS":"大坑尾１３３號","OBJECTID":344237},"geometry":{"x":187061.83000000101,"y":2545719.2500000019}},{"attributes":{"ID":344247,"DIS_CODE":0,"TOWNNAME":"永康區","LI":"正強里","LIN":"35鄰","STREET":"正強街","SECT":" ","MAREA":" ","LANE":"３１５巷","ALLEY":" ","HOUSE_NO":"７號","E_COORD97":173216.57999999999,"N_COORD97":2548292.0800000001,"ADDRESS":"正強街３１５巷７號","OBJECTID":344238},"geometry":{"x":173216.58000000007,"y":2548292.0799999982}},{"attributes":{"ID":344248,"DIS_CODE":0,"TOWNNAME":"新化區","LI":"北勢里","LIN":"5鄰","STREET":" ","SECT":" ","MAREA":"北勢","LANE":" ","ALLEY":" ","HOUSE_NO":"１３１號之１","E_COORD97":177191.41,"N_COORD97":2549511.2599999998,"ADDRESS":"北勢１３１號之１","OBJECTID":344239},"geometry":{"x":177191.41000000015,"y":2549511.2600000035}},{"attributes":{"ID":344249,"DIS_CODE":0,"TOWNNAME":"永康區","LI":"正強里","LIN":"35鄰","STREET":"正強街","SECT":" ","MAREA":" ","LANE":"３１３巷","ALLEY":" ","HOUSE_NO":"２２號","E_COORD97":173202.23999999999,"N_COORD97":2548262.3900000001,"ADDRESS":"正強街３１３巷２２號","OBJECTID":344240},"geometry":{"x":173202.24000000022,"y":2548262.3900000006}},{"attributes":{"ID":344250,"DIS_CODE":0,"TOWNNAME":"新化區","LI":"豐榮里","LIN":"5鄰","STREET":" ","SECT":" ","MAREA":"洋子","LANE":" ","ALLEY":" ","HOUSE_NO":"１１５號之１","E_COORD97":177925.20999999999,"N_COORD97":2548237.2599999998,"ADDRESS":"洋子１１５號之１","OBJECTID":344241},"geometry":{"x":177925.21000000183,"y":2548237.2600000016}},{"attributes":{"ID":344251,"DIS_CODE":0,"TOWNNAME":"永康區","LI":"埔園里","LIN":"35鄰","STREET":"自強路","SECT":" ","MAREA":" ","LANE":"６３３巷","ALLEY":" ","HOUSE_NO":"１１號","E_COORD97":174200.01999999999,"N_COORD97":2548381.5899999999,"ADDRESS":"自強路６３３巷１１號","OBJECTID":344242},"geometry":{"x":174200.01999999862,"y":2548381.5900000017}},{"attributes":{"ID":344252,"DIS_CODE":0,"TOWNNAME":"永康區","LI":"永康里","LIN":"35鄰","STREET":"大同街","SECT":" ","MAREA":" ","LANE":"８０１巷","ALLEY":" ","HOUSE_NO":"６號","E_COORD97":174412.79999999999,"N_COORD97":2546993.2999999998,"ADDRESS":"大同街８０１巷６號","OBJECTID":344243},"geometry":{"x":174412.80000000075,"y":2546993.3000000026}},{"attributes":{"ID":344253,"DIS_CODE":0,"TOWNNAME":"永康區","LI":"正強里","LIN":"35鄰","STREET":"正強街","SECT":" ","MAREA":" ","LANE":"３１５巷","ALLEY":" ","HOUSE_NO":"２２號","E_COORD97":173190.78,"N_COORD97":2548301,"ADDRESS":"正強街３１５巷２２號","OBJECTID":344244},"geometry":{"x":173190.78000000119,"y":2548301.0000000019}},{"attributes":{"ID":344254,"DIS_CODE":0,"TOWNNAME":"永康區","LI":"埔園里","LIN":"35鄰","STREET":"八德街","SECT":" ","MAREA":" ","LANE":"７３巷","ALLEY":" ","HOUSE_NO":"１０號","E_COORD97":174164.14000000001,"N_COORD97":2548439.5,"ADDRESS":"八德街７３巷１０號","OBJECTID":344245},"geometry":{"x":174164.1400000006,"y":2548439.5000000019}},{"attributes":{"ID":344255,"DIS_CODE":0,"TOWNNAME":"新化區","LI":"全興里","LIN":"5鄰","STREET":" ","SECT":" ","MAREA":"竹子\u25A0","LANE":" ","ALLEY":" ","HOUSE_NO":"１８７號之１","E_COORD97":177677.56,"N_COORD97":2547676.2599999998,"ADDRESS":"竹子\u25A0１８７號之１","OBJECTID":344246},"geometry":{"x":177677.55999999959,"y":2547676.2599999998}},{"attributes":{"ID":344256,"DIS_CODE":0,"TOWNNAME":"新化區","LI":"唪口里","LIN":"5鄰","STREET":" ","SECT":" ","MAREA":"唪口","LANE":" ","ALLEY":" ","HOUSE_NO":"４７號之２","E_COORD97":178114.14999999999,"N_COORD97":2549004.2599999998,"ADDRESS":"唪口４７號之２","OBJECTID":344247},"geometry":{"x":178114.14999999944,"y":2549004.2600000016}},{"attributes":{"ID":344257,"DIS_CODE":0,"TOWNNAME":"佳里區","LI":"建南里","LIN":"35鄰","STREET":"公園路","SECT":" ","MAREA":" ","LANE":"２８３巷","ALLEY":" ","HOUSE_NO":"１０號","E_COORD97":165230.01000000001,"N_COORD97":2562100.8300000001,"ADDRESS":"公園路２８３巷１０號","OBJECTID":344248},"geometry":{"x":165230.01000000071,"y":2562100.8300000019}},{"attributes":{"ID":344258,"DIS_CODE":0,"TOWNNAME":"新化區","LI":"北勢里","LIN":"5鄰","STREET":" ","SECT":" ","MAREA":"北勢","LANE":" ","ALLEY":" ","HOUSE_NO":"８４號","E_COORD97":177284.23000000001,"N_COORD97":2549654.2599999998,"ADDRESS":"北勢８４號","OBJECTID":344249},"geometry":{"x":177284.23000000045,"y":2549654.2600000016}},{"attributes":{"ID":344259,"DIS_CODE":0,"TOWNNAME":"佳里區","LI":"建南里","LIN":"35鄰","STREET":"公園路","SECT":" ","MAREA":" ","LANE":"２８３巷","ALLEY":" ","HOUSE_NO":"１２號","E_COORD97":165225.79999999999,"N_COORD97":2562100.3599999999,"ADDRESS":"公園路２８３巷１２號","OBJECTID":344250},"geometry":{"x":165225.80000000168,"y":2562100.3600000013}},{"attributes":{"ID":344260,"DIS_CODE":0,"TOWNNAME":"新化區","LI":"\u25A0拔里","LIN":"5鄰","STREET":" ","SECT":" ","MAREA":"\u25A0拔林","LANE":" ","ALLEY":" ","HOUSE_NO":"２４９之１號","E_COORD97":183678.01999999999,"N_COORD97":2551885.2599999998,"ADDRESS":"\u25A0拔林２４９之１號","OBJECTID":344251},"geometry":{"x":183678.02000000142,"y":2551885.2600000016}},{"attributes":{"ID":344261,"DIS_CODE":0,"TOWNNAME":"佳里區","LI":"建南里","LIN":"35鄰","STREET":"公園路","SECT":" ","MAREA":" ","LANE":"２８３巷","ALLEY":" ","HOUSE_NO":"１６號","E_COORD97":165222.10000000001,"N_COORD97":2562099.9100000001,"ADDRESS":"公園路２８３巷１６號","OBJECTID":344252},"geometry":{"x":165222.10000000056,"y":2562099.910000002}},{"attributes":{"ID":344262,"DIS_CODE":0,"TOWNNAME":"新化區","LI":"唪口里","LIN":"5鄰","STREET":" ","SECT":" ","MAREA":"唪口","LANE":" ","ALLEY":" ","HOUSE_NO":"５０號之１９","E_COORD97":178152.48999999999,"N_COORD97":2549040.2599999998,"ADDRESS":"唪口５０號之１９","OBJECTID":344253},"geometry":{"x":178152.49000000209,"y":2549040.2600000035}},{"attributes":{"ID":344263,"DIS_CODE":0,"TOWNNAME":"佳里區","LI":"建南里","LIN":"35鄰","STREET":"公園路","SECT":" ","MAREA":" ","LANE":"２８３巷","ALLEY":" ","HOUSE_NO":"１號","E_COORD97":165242.07999999999,"N_COORD97":2562086.48,"ADDRESS":"公園路２８３巷１號","OBJECTID":344254},"geometry":{"x":165242.08000000007,"y":2562086.4800000023}},{"attributes":{"ID":344264,"DIS_CODE":0,"TOWNNAME":"佳里區","LI":"建南里","LIN":"35鄰","STREET":"公園路","SECT":" ","MAREA":" ","LANE":"２８３巷","ALLEY":" ","HOUSE_NO":"２號","E_COORD97":165241.95000000001,"N_COORD97":2562102.1200000001,"ADDRESS":"公園路２８３巷２號","OBJECTID":344255},"geometry":{"x":165241.95000000019,"y":2562102.1200000048}},{"attributes":{"ID":344265,"DIS_CODE":0,"TOWNNAME":"新化區","LI":"豐榮里","LIN":"5鄰","STREET":" ","SECT":" ","MAREA":"洋子","LANE":" ","ALLEY":" ","HOUSE_NO":"１２８號之１","E_COORD97":177815.10999999999,"N_COORD97":2548206.2599999998,"ADDRESS":"洋子１２８號之１","OBJECTID":344256},"geometry":{"x":177815.11000000127,"y":2548206.2600000016}},{"attributes":{"ID":344266,"DIS_CODE":0,"TOWNNAME":"佳里區","LI":"建南里","LIN":"35鄰","STREET":"公園路","SECT":" ","MAREA":" ","LANE":"２８３巷","ALLEY":" ","HOUSE_NO":"６號","E_COORD97":165238.51000000001,"N_COORD97":2562101.5899999999,"ADDRESS":"公園路２８３巷６號","OBJECTID":344257},"geometry":{"x":165238.51000000071,"y":2562101.5900000017}},{"attributes":{"ID":344267,"DIS_CODE":0,"TOWNNAME":"新化區","LI":"崙頂里","LIN":"5鄰","STREET":" ","SECT":" ","MAREA":"崙子頂","LANE":" ","ALLEY":" ","HOUSE_NO":"２２９號","E_COORD97":176610.03,"N_COORD97":2546933.25,"ADDRESS":"崙子頂２２９號","OBJECTID":344258},"geometry":{"x":176610.03000000119,"y":2546933.25}},{"attributes":{"ID":344268,"DIS_CODE":0,"TOWNNAME":"新化區","LI":"唪口里","LIN":"5鄰","STREET":" ","SECT":" ","MAREA":"唪口","LANE":" ","ALLEY":" ","HOUSE_NO":"５０號之１３","E_COORD97":178113.19,"N_COORD97":2549017.2599999998,"ADDRESS":"唪口５０號之１３","OBJECTID":344259},"geometry":{"x":178113.19000000134,"y":2549017.2600000016}},{"attributes":{"ID":344269,"DIS_CODE":0,"TOWNNAME":"新化區","LI":"崙頂里","LIN":"5鄰","STREET":" ","SECT":" ","MAREA":"崙子頂","LANE":" ","ALLEY":" ","HOUSE_NO":"２４１號","E_COORD97":176671.23000000001,"N_COORD97":2546979.25,"ADDRESS":"崙子頂２４１號","OBJECTID":344260},"geometry":{"x":176671.23000000231,"y":2546979.2500000019}},{"attributes":{"ID":344270,"DIS_CODE":0,"TOWNNAME":"新化區","LI":"\u25A0拔里","LIN":"5鄰","STREET":" ","SECT":" ","MAREA":"\u25A0拔林","LANE":" ","ALLEY":" ","HOUSE_NO":"２５２號之２","E_COORD97":183633.28,"N_COORD97":2551908.2599999998,"ADDRESS":"\u25A0拔林２５２號之２","OBJECTID":344261},"geometry":{"x":183633.28000000119,"y":2551908.2600000035}},{"attributes":{"ID":344271,"DIS_CODE":0,"TOWNNAME":"佳里區","LI":"建南里","LIN":"35鄰","STREET":"公園路","SECT":" ","MAREA":" ","LANE":"２８３巷","ALLEY":" ","HOUSE_NO":"７號","E_COORD97":165230.19,"N_COORD97":2562085.3999999999,"ADDRESS":"公園路２８３巷７號","OBJECTID":344262},"geometry":{"x":165230.19000000041,"y":2562085.4000000004}},{"attributes":{"ID":344272,"DIS_CODE":0,"TOWNNAME":"新化區","LI":"崙頂里","LIN":"5鄰","STREET":" ","SECT":" ","MAREA":"崙子頂","LANE":" ","ALLEY":" ","HOUSE_NO":"１８８號","E_COORD97":176579.03,"N_COORD97":2546911.25,"ADDRESS":"崙子頂１８８號","OBJECTID":344263},"geometry":{"x":176579.02999999933,"y":2546911.2500000037}},{"attributes":{"ID":344273,"DIS_CODE":0,"TOWNNAME":"佳里區","LI":"建南里","LIN":"35鄰","STREET":"公園路","SECT":" ","MAREA":" ","LANE":"２８３巷","ALLEY":" ","HOUSE_NO":"８號","E_COORD97":165233.95000000001,"N_COORD97":2562101.1699999999,"ADDRESS":"公園路２８３巷８號","OBJECTID":344264},"geometry":{"x":165233.95000000112,"y":2562101.1700000018}},{"attributes":{"ID":344274,"DIS_CODE":0,"TOWNNAME":"佳里區","LI":"建南里","LIN":"35鄰","STREET":"新生路","SECT":" ","MAREA":" ","LANE":"４４１巷","ALLEY":" ","HOUSE_NO":"２３號","E_COORD97":165220.16,"N_COORD97":2562081.0899999999,"ADDRESS":"新生路４４１巷２３號","OBJECTID":344265},"geometry":{"x":165220.16000000015,"y":2562081.0900000017}},{"attributes":{"ID":344275,"DIS_CODE":0,"TOWNNAME":"新化區","LI":"唪口里","LIN":"5鄰","STREET":" ","SECT":" ","MAREA":"唪口","LANE":" ","ALLEY":" ","HOUSE_NO":"３８號","E_COORD97":178138.79999999999,"N_COORD97":2548945.25,"ADDRESS":"唪口３８號","OBJECTID":344266},"geometry":{"x":178138.80000000075,"y":2548945.2500000037}},{"attributes":{"ID":344276,"DIS_CODE":0,"TOWNNAME":"新化區","LI":"知義里","LIN":"5鄰","STREET":" ","SECT":" ","MAREA":"知母義","LANE":" ","ALLEY":" ","HOUSE_NO":"９４號","E_COORD97":179918.76999999999,"N_COORD97":2547145.25,"ADDRESS":"知母義９４號","OBJECTID":344267},"geometry":{"x":179918.77000000048,"y":2547145.2500000037}},{"attributes":{"ID":344277,"DIS_CODE":0,"TOWNNAME":"新化區","LI":"全興里","LIN":"5鄰","STREET":" ","SECT":" ","MAREA":"竹子\u25A0","LANE":" ","ALLEY":" ","HOUSE_NO":"１８７號","E_COORD97":177688.73000000001,"N_COORD97":2547662.25,"ADDRESS":"竹子\u25A0１８７號","OBJECTID":344268},"geometry":{"x":177688.73000000138,"y":2547662.25}},{"attributes":{"ID":344278,"DIS_CODE":0,"TOWNNAME":"新化區","LI":"\u25A0拔里","LIN":"5鄰","STREET":" ","SECT":" ","MAREA":"\u25A0拔林","LANE":" ","ALLEY":" ","HOUSE_NO":"２５０號之６","E_COORD97":183663.37,"N_COORD97":2551891.2599999998,"ADDRESS":"\u25A0拔林２５０號之６","OBJECTID":344269},"geometry":{"x":183663.37000000104,"y":2551891.2600000035}},{"attributes":{"ID":344279,"DIS_CODE":0,"TOWNNAME":"新化區","LI":"唪口里","LIN":"5鄰","STREET":" ","SECT":" ","MAREA":"唪口","LANE":" ","ALLEY":" ","HOUSE_NO":"５８號之１","E_COORD97":178041.53,"N_COORD97":2549138.2599999998,"ADDRESS":"唪口５８號之１","OBJECTID":344270},"geometry":{"x":178041.53000000026,"y":2549138.2600000035}},{"attributes":{"ID":344280,"DIS_CODE":0,"TOWNNAME":"新化區","LI":"\u25A0拔里","LIN":"5鄰","STREET":" ","SECT":" ","MAREA":"\u25A0拔林","LANE":" ","ALLEY":" ","HOUSE_NO":"２５６號","E_COORD97":183616.12,"N_COORD97":2551896.25,"ADDRESS":"\u25A0拔林２５６號","OBJECTID":344271},"geometry":{"x":183616.12000000011,"y":2551896.2500000019}},{"attributes":{"ID":344281,"DIS_CODE":0,"TOWNNAME":"佳里區","LI":"建南里","LIN":"35鄰","STREET":"新生路","SECT":" ","MAREA":" ","LANE":"４４１巷","ALLEY":" ","HOUSE_NO":"２５號","E_COORD97":165220.39999999999,"N_COORD97":2562076.7200000002,"ADDRESS":"新生路４４１巷２５號","OBJECTID":344272},"geometry":{"x":165220.40000000037,"y":2562076.7200000007}},{"attributes":{"ID":344282,"DIS_CODE":0,"TOWNNAME":"佳里區","LI":"建南里","LIN":"35鄰","STREET":"新生路","SECT":" ","MAREA":" ","LANE":"４４１巷","ALLEY":" ","HOUSE_NO":"２７號","E_COORD97":165220.88,"N_COORD97":2562071.9300000002,"ADDRESS":"新生路４４１巷２７號","OBJECTID":344273},"geometry":{"x":165220.88000000082,"y":2562071.9300000016}},{"attributes":{"ID":344283,"DIS_CODE":0,"TOWNNAME":"永康區","LI":"東橋里","LIN":"16鄰","STREET":"東橋二街","SECT":" ","MAREA":" ","LANE":"７１巷","ALLEY":" ","HOUSE_NO":"９２號","E_COORD97":171657.16,"N_COORD97":2546685.1299999999,"ADDRESS":"東橋二街７１巷９２號","OBJECTID":344274},"geometry":{"x":171657.16000000108,"y":2546685.1300000008}},{"attributes":{"ID":344284,"DIS_CODE":0,"TOWNNAME":"新化區","LI":"唪口里","LIN":"5鄰","STREET":" ","SECT":" ","MAREA":"唪口","LANE":" ","ALLEY":" ","HOUSE_NO":"５１號之５","E_COORD97":178177.56,"N_COORD97":2549106.2599999998,"ADDRESS":"唪口５１號之５","OBJECTID":344275},"geometry":{"x":178177.56000000052,"y":2549106.2599999998}},{"attributes":{"ID":344285,"DIS_CODE":0,"TOWNNAME":"永康區","LI":"埔園里","LIN":"35鄰","STREET":"自強路","SECT":" ","MAREA":" ","LANE":"６３３巷","ALLEY":" ","HOUSE_NO":"１２號","E_COORD97":174199.42000000001,"N_COORD97":2548377.3399999999,"ADDRESS":"自強路６３３巷１２號","OBJECTID":344276},"geometry":{"x":174199.42000000179,"y":2548377.3399999999}},{"attributes":{"ID":344286,"DIS_CODE":0,"TOWNNAME":"新化區","LI":"豐榮里","LIN":"5鄰","STREET":" ","SECT":" ","MAREA":"洋子","LANE":" ","ALLEY":" ","HOUSE_NO":"１１６號之３","E_COORD97":177920.42999999999,"N_COORD97":2548232.2599999998,"ADDRESS":"洋子１１６號之３","OBJECTID":344277},"geometry":{"x":177920.43000000063,"y":2548232.2599999998}},{"attributes":{"ID":344287,"DIS_CODE":0,"TOWNNAME":"永康區","LI":"埔園里","LIN":"35鄰","STREET":"自強路","SECT":" ","MAREA":" ","LANE":"６３３巷","ALLEY":" ","HOUSE_NO":"１號","E_COORD97":174232.60000000001,"N_COORD97":2548389.2799999998,"ADDRESS":"自強路６３３巷１號","OBJECTID":344278},"geometry":{"x":174232.60000000056,"y":2548389.2800000012}},{"attributes":{"ID":344288,"DIS_CODE":0,"TOWNNAME":"新化區","LI":"豐榮里","LIN":"5鄰","STREET":" ","SECT":" ","MAREA":"洋子","LANE":" ","ALLEY":" ","HOUSE_NO":"８０號之５","E_COORD97":177937.48999999999,"N_COORD97":2548303.2599999998,"ADDRESS":"洋子８０號之５","OBJECTID":344279},"geometry":{"x":177937.49000000115,"y":2548303.2599999998}},{"attributes":{"ID":344289,"DIS_CODE":0,"TOWNNAME":"新化區","LI":"羊林里","LIN":"5鄰","STREET":" ","SECT":" ","MAREA":"\u25A0拔林","LANE":" ","ALLEY":" ","HOUSE_NO":"４６９號","E_COORD97":183564.72,"N_COORD97":2551705.25,"ADDRESS":"\u25A0拔林４６９號","OBJECTID":344280},"geometry":{"x":183564.71999999974,"y":2551705.2500000037}},{"attributes":{"ID":344290,"DIS_CODE":0,"TOWNNAME":"新化區","LI":"羊林里","LIN":"5鄰","STREET":" ","SECT":" ","MAREA":"\u25A0拔林","LANE":" ","ALLEY":" ","HOUSE_NO":"４７０號之２","E_COORD97":183573.07999999999,"N_COORD97":2551720.2599999998,"ADDRESS":"\u25A0拔林４７０號之２","OBJECTID":344281},"geometry":{"x":183573.08000000194,"y":2551720.2599999998}},{"attributes":{"ID":344291,"DIS_CODE":0,"TOWNNAME":"永康區","LI":"埔園里","LIN":"35鄰","STREET":"永大路","SECT":"三段","MAREA":" ","LANE":"４５０巷","ALLEY":" ","HOUSE_NO":"８號","E_COORD97":174167.62,"N_COORD97":2548396.02,"ADDRESS":"永大路三段４５０巷８號","OBJECTID":344282},"geometry":{"x":174167.62000000011,"y":2548396.0199999996}},{"attributes":{"ID":344292,"DIS_CODE":0,"TOWNNAME":"永康區","LI":"埔園里","LIN":"35鄰","STREET":"自強路","SECT":" ","MAREA":" ","LANE":"６３３巷","ALLEY":" ","HOUSE_NO":"５號","E_COORD97":174215.01000000001,"N_COORD97":2548391.7799999998,"ADDRESS":"自強路６３３巷５號","OBJECTID":344283},"geometry":{"x":174215.00999999978,"y":2548391.7800000031}},{"attributes":{"ID":344293,"DIS_CODE":0,"TOWNNAME":"永康區","LI":"埔園里","LIN":"35鄰","STREET":"八德街","SECT":" ","MAREA":" ","LANE":"９１巷","ALLEY":" ","HOUSE_NO":"１０號","E_COORD97":174127.34,"N_COORD97":2548437.8900000001,"ADDRESS":"八德街９１巷１０號","OBJECTID":344284},"geometry":{"x":174127.34000000078,"y":2548437.8900000025}},{"attributes":{"ID":344294,"DIS_CODE":0,"TOWNNAME":"永康區","LI":"埔園里","LIN":"35鄰","STREET":"八德街","SECT":" ","MAREA":" ","LANE":"８７巷","ALLEY":" ","HOUSE_NO":"１５號","E_COORD97":174146.39000000001,"N_COORD97":2548472.5099999998,"ADDRESS":"八德街８７巷１５號","OBJECTID":344285},"geometry":{"x":174146.38999999966,"y":2548472.5100000016}},{"attributes":{"ID":344295,"DIS_CODE":0,"TOWNNAME":"永康區","LI":"埔園里","LIN":"35鄰","STREET":"八德街","SECT":" ","MAREA":" ","LANE":"８７巷","ALLEY":" ","HOUSE_NO":"１３號","E_COORD97":174147.23999999999,"N_COORD97":2548478.02,"ADDRESS":"八德街８７巷１３號","OBJECTID":344286},"geometry":{"x":174147.24000000115,"y":2548478.0199999996}},{"attributes":{"ID":344296,"DIS_CODE":0,"TOWNNAME":"新化區","LI":"羊林里","LIN":"5鄰","STREET":" ","SECT":" ","MAREA":"\u25A0拔林","LANE":" ","ALLEY":" ","HOUSE_NO":"４６２號","E_COORD97":183608.01999999999,"N_COORD97":2551772.25,"ADDRESS":"\u25A0拔林４６２號","OBJECTID":344287},"geometry":{"x":183608.01999999955,"y":2551772.25}},{"attributes":{"ID":344297,"DIS_CODE":0,"TOWNNAME":"新化區","LI":"豐榮里","LIN":"5鄰","STREET":" ","SECT":" ","MAREA":"洋子","LANE":" ","ALLEY":" ","HOUSE_NO":"８９號之２","E_COORD97":177829.17999999999,"N_COORD97":2548276.25,"ADDRESS":"洋子８９號之２","OBJECTID":344288},"geometry":{"x":177829.18000000063,"y":2548276.25}},{"attributes":{"ID":344298,"DIS_CODE":0,"TOWNNAME":"新化區","LI":"豐榮里","LIN":"5鄰","STREET":" ","SECT":" ","MAREA":"洋子","LANE":" ","ALLEY":" ","HOUSE_NO":"８０號之３","E_COORD97":177928.38,"N_COORD97":2548301.2599999998,"ADDRESS":"洋子８０號之３","OBJECTID":344289},"geometry":{"x":177928.37999999989,"y":2548301.2600000016}},{"attributes":{"ID":344299,"DIS_CODE":0,"TOWNNAME":"新化區","LI":"知義里","LIN":"5鄰","STREET":" ","SECT":" ","MAREA":"知母義","LANE":" ","ALLEY":" ","HOUSE_NO":"７１號之１","E_COORD97":180156.39999999999,"N_COORD97":2547256.2599999998,"ADDRESS":"知母義７１號之１","OBJECTID":344290},"geometry":{"x":180156.40000000037,"y":2547256.2599999998}},{"attributes":{"ID":344300,"DIS_CODE":0,"TOWNNAME":"永康區","LI":"埔園里","LIN":"35鄰","STREET":"八德街","SECT":" ","MAREA":" ","LANE":"７３巷","ALLEY":" ","HOUSE_NO":"７號","E_COORD97":174159.48000000001,"N_COORD97":2548469.2599999998,"ADDRESS":"八德街７３巷７號","OBJECTID":344291},"geometry":{"x":174159.48000000138,"y":2548469.2599999998}},{"attributes":{"ID":344301,"DIS_CODE":0,"TOWNNAME":"新化區","LI":"全興里","LIN":"5鄰","STREET":" ","SECT":" ","MAREA":"竹子\u25A0","LANE":" ","ALLEY":" ","HOUSE_NO":"１８８號之５","E_COORD97":177815.59,"N_COORD97":2547522.2599999998,"ADDRESS":"竹子\u25A0１８８號之５","OBJECTID":344292},"geometry":{"x":177815.58999999985,"y":2547522.2600000016}},{"attributes":{"ID":344302,"DIS_CODE":0,"TOWNNAME":"新化區","LI":"全興里","LIN":"5鄰","STREET":" ","SECT":" ","MAREA":"竹子\u25A0","LANE":" ","ALLEY":" ","HOUSE_NO":"１８８號之１","E_COORD97":177732.16,"N_COORD97":2547592.2599999998,"ADDRESS":"竹子\u25A0１８８號之１","OBJECTID":344293},"geometry":{"x":177732.16000000015,"y":2547592.2600000035}},{"attributes":{"ID":344303,"DIS_CODE":0,"TOWNNAME":"新化區","LI":"北勢里","LIN":"5鄰","STREET":" ","SECT":" ","MAREA":"北勢","LANE":" ","ALLEY":" ","HOUSE_NO":"１２３號","E_COORD97":177184.17999999999,"N_COORD97":2549556.2599999998,"ADDRESS":"北勢１２３號","OBJECTID":344294},"geometry":{"x":177184.1799999997,"y":2549556.2600000016}},{"attributes":{"ID":344304,"DIS_CODE":0,"TOWNNAME":"東山區","LI":"東中里","LIN":"18鄰","STREET":"中興路","SECT":" ","MAREA":" ","LANE":" ","ALLEY":" ","HOUSE_NO":"２號","E_COORD97":188979.73999999999,"N_COORD97":2579992.75,"ADDRESS":"中興路２號","OBJECTID":344295},"geometry":{"x":188979.74000000209,"y":2579992.7500000019}},{"attributes":{"ID":344305,"DIS_CODE":0,"TOWNNAME":"永康區","LI":"埔園里","LIN":"35鄰","STREET":"八德街","SECT":" ","MAREA":" ","LANE":"７３巷","ALLEY":" ","HOUSE_NO":"６號","E_COORD97":174165.42000000001,"N_COORD97":2548468.5099999998,"ADDRESS":"八德街７３巷６號","OBJECTID":344296},"geometry":{"x":174165.41999999993,"y":2548468.5099999979}},{"attributes":{"ID":344306,"DIS_CODE":0,"TOWNNAME":"仁德區","LI":"後壁里","LIN":"35鄰","STREET":"德洋路","SECT":" ","MAREA":" ","LANE":"２０５巷","ALLEY":" ","HOUSE_NO":"２５號","E_COORD97":172426.81,"N_COORD97":2539514.77,"ADDRESS":"德洋路２０５巷２５號","OBJECTID":344297},"geometry":{"x":172426.81000000145,"y":2539514.7699999996}},{"attributes":{"ID":344307,"DIS_CODE":0,"TOWNNAME":"永康區","LI":"埔園里","LIN":"35鄰","STREET":"八德街","SECT":" ","MAREA":" ","LANE":"７３巷","ALLEY":" ","HOUSE_NO":"１號","E_COORD97":174168.82999999999,"N_COORD97":2548495.27,"ADDRESS":"八德街７３巷１號","OBJECTID":344298},"geometry":{"x":174168.83000000101,"y":2548495.2700000014}},{"attributes":{"ID":344308,"DIS_CODE":0,"TOWNNAME":"永康區","LI":"東灣里","LIN":"35鄰","STREET":"民族路","SECT":" ","MAREA":" ","LANE":"２７３巷","ALLEY":" ","HOUSE_NO":"２１號","E_COORD97":175065.14999999999,"N_COORD97":2544971.54,"ADDRESS":"民族路２７３巷２１號","OBJECTID":344299},"geometry":{"x":175065.1500000013,"y":2544971.5399999991}},{"attributes":{"ID":344309,"DIS_CODE":0,"TOWNNAME":"永康區","LI":"埔園里","LIN":"35鄰","STREET":"八德街","SECT":" ","MAREA":" ","LANE":"８７巷","ALLEY":" ","HOUSE_NO":"１７號","E_COORD97":174145.73999999999,"N_COORD97":2548467.2599999998,"ADDRESS":"八德街８７巷１７號","OBJECTID":344300},"geometry":{"x":174145.74000000115,"y":2548467.2600000035}},{"attributes":{"ID":344310,"DIS_CODE":0,"TOWNNAME":"新化區","LI":"羊林里","LIN":"5鄰","STREET":" ","SECT":" ","MAREA":"\u25A0拔林","LANE":" ","ALLEY":" ","HOUSE_NO":"５０４號之２","E_COORD97":183584.67999999999,"N_COORD97":2551599.2599999998,"ADDRESS":"\u25A0拔林５０４號之２","OBJECTID":344301},"geometry":{"x":183584.6799999997,"y":2551599.2599999998}},{"attributes":{"ID":344311,"DIS_CODE":0,"TOWNNAME":"新化區","LI":"山\u25A0里","LIN":"5鄰","STREET":" ","SECT":" ","MAREA":"頂山\u25A0","LANE":" ","ALLEY":" ","HOUSE_NO":"１６號","E_COORD97":179601.88,"N_COORD97":2546826.25,"ADDRESS":"頂山\u25A0１６號","OBJECTID":344302},"geometry":{"x":179601.87999999989,"y":2546826.2499999981}},{"attributes":{"ID":344312,"DIS_CODE":0,"TOWNNAME":"永康區","LI":"埔園里","LIN":"35鄰","STREET":"八德街","SECT":" ","MAREA":" ","LANE":"７３巷","ALLEY":" ","HOUSE_NO":"２號","E_COORD97":174168.38,"N_COORD97":2548490.27,"ADDRESS":"八德街７３巷２號","OBJECTID":344303},"geometry":{"x":174168.37999999989,"y":2548490.2699999977}},{"attributes":{"ID":344313,"DIS_CODE":0,"TOWNNAME":"永康區","LI":"埔園里","LIN":"35鄰","STREET":"自強路","SECT":" ","MAREA":" ","LANE":"６３３巷","ALLEY":" ","HOUSE_NO":"１３號","E_COORD97":174199.04000000001,"N_COORD97":2548373.3399999999,"ADDRESS":"自強路６３３巷１３號","OBJECTID":344304},"geometry":{"x":174199.04000000097,"y":2548373.3399999999}},{"attributes":{"ID":344314,"DIS_CODE":0,"TOWNNAME":"新化區","LI":"山\u25A0里","LIN":"5鄰","STREET":" ","SECT":" ","MAREA":"頂山\u25A0","LANE":" ","ALLEY":" ","HOUSE_NO":"２１號","E_COORD97":179554.79558400001,"N_COORD97":2546796.4936899999,"ADDRESS":"頂山\u25A0２１號","OBJECTID":344305},"geometry":{"x":179554.79558399972,"y":2546796.4936910011}},{"attributes":{"ID":344315,"DIS_CODE":0,"TOWNNAME":"新化區","LI":"北勢里","LIN":"5鄰","STREET":" ","SECT":" ","MAREA":"北勢","LANE":" ","ALLEY":" ","HOUSE_NO":"７８號","E_COORD97":177326.53,"N_COORD97":2549664.2599999998,"ADDRESS":"北勢７８號","OBJECTID":344306},"geometry":{"x":177326.53000000026,"y":2549664.2600000016}},{"attributes":{"ID":344316,"DIS_CODE":0,"TOWNNAME":"新化區","LI":"崙頂里","LIN":"5鄰","STREET":" ","SECT":" ","MAREA":"崙子頂","LANE":" ","ALLEY":" ","HOUSE_NO":"２４０號之１","E_COORD97":176688.26000000001,"N_COORD97":2546961.2599999998,"ADDRESS":"崙子頂２４０號之１","OBJECTID":344307},"geometry":{"x":176688.25999999978,"y":2546961.2599999998}},{"attributes":{"ID":344317,"DIS_CODE":0,"TOWNNAME":"新化區","LI":"崙頂里","LIN":"5鄰","STREET":" ","SECT":" ","MAREA":"崙子頂","LANE":" ","ALLEY":" ","HOUSE_NO":"１８７號","E_COORD97":176598.53,"N_COORD97":2546894.25,"ADDRESS":"崙子頂１８７號","OBJECTID":344308},"geometry":{"x":176598.53000000119,"y":2546894.2500000037}},{"attributes":{"ID":344318,"DIS_CODE":0,"TOWNNAME":"新化區","LI":"知義里","LIN":"5鄰","STREET":" ","SECT":" ","MAREA":"知母義","LANE":" ","ALLEY":" ","HOUSE_NO":"８１號","E_COORD97":180059.87,"N_COORD97":2547208.25,"ADDRESS":"知母義８１號","OBJECTID":344309},"geometry":{"x":180059.87000000011,"y":2547208.25}},{"attributes":{"ID":344319,"DIS_CODE":0,"TOWNNAME":"新化區","LI":"山\u25A0里","LIN":"5鄰","STREET":" ","SECT":" ","MAREA":"頂山\u25A0","LANE":" ","ALLEY":" ","HOUSE_NO":"２１號之３","E_COORD97":179552.04130800001,"N_COORD97":2546812.4745100001,"ADDRESS":"頂山\u25A0２１號之３","OBJECTID":344310},"geometry":{"x":179552.04130799975,"y":2546812.4745150004}},{"attributes":{"ID":344320,"DIS_CODE":0,"TOWNNAME":"永康區","LI":"埔園里","LIN":"35鄰","STREET":"自強路","SECT":" ","MAREA":" ","LANE":"６３３巷","ALLEY":" ","HOUSE_NO":"１０號","E_COORD97":174200.47,"N_COORD97":2548385.8399999999,"ADDRESS":"自強路６３３巷１０號","OBJECTID":344311},"geometry":{"x":174200.46999999974,"y":2548385.8400000017}},{"attributes":{"ID":344321,"DIS_CODE":0,"TOWNNAME":"新化區","LI":"羊林里","LIN":"5鄰","STREET":" ","SECT":" ","MAREA":"\u25A0拔林","LANE":" ","ALLEY":" ","HOUSE_NO":"４６７號","E_COORD97":183574.62,"N_COORD97":2551683.25,"ADDRESS":"\u25A0拔林４６７號","OBJECTID":344312},"geometry":{"x":183574.62000000104,"y":2551683.25}},{"attributes":{"ID":344322,"DIS_CODE":0,"TOWNNAME":"新化區","LI":"山\u25A0里","LIN":"5鄰","STREET":" ","SECT":" ","MAREA":"頂山\u25A0","LANE":" ","ALLEY":" ","HOUSE_NO":"１２４號之１","E_COORD97":179591.85999999999,"N_COORD97":2546723.2599999998,"ADDRESS":"頂山\u25A0１２４號之１","OBJECTID":344313},"geometry":{"x":179591.86000000127,"y":2546723.2599999998}},{"attributes":{"ID":344323,"DIS_CODE":0,"TOWNNAME":"新化區","LI":"崙頂里","LIN":"5鄰","STREET":" ","SECT":" ","MAREA":"崙子頂","LANE":" ","ALLEY":" ","HOUSE_NO":"２３８號之１","E_COORD97":176681.85999999999,"N_COORD97":2546943.2599999998,"ADDRESS":"崙子頂２３８號之１","OBJECTID":344314},"geometry":{"x":176681.86000000034,"y":2546943.2599999998}},{"attributes":{"ID":344324,"DIS_CODE":0,"TOWNNAME":"新化區","LI":"崙頂里","LIN":"5鄰","STREET":" ","SECT":" ","MAREA":"崙子頂","LANE":" ","ALLEY":" ","HOUSE_NO":"１９１號之２","E_COORD97":176574.98000000001,"N_COORD97":2546978.2599999998,"ADDRESS":"崙子頂１９１號之２","OBJECTID":344315},"geometry":{"x":176574.98000000138,"y":2546978.2599999998}},{"attributes":{"ID":344325,"DIS_CODE":0,"TOWNNAME":"新化區","LI":"山\u25A0里","LIN":"5鄰","STREET":" ","SECT":" ","MAREA":"頂山\u25A0","LANE":" ","ALLEY":" ","HOUSE_NO":"１２６號","E_COORD97":179599.42999999999,"N_COORD97":2546724.25,"ADDRESS":"頂山\u25A0１２６號","OBJECTID":344316},"geometry":{"x":179599.4299999997,"y":2546724.25}},{"attributes":{"ID":344326,"DIS_CODE":0,"TOWNNAME":"新化區","LI":"知義里","LIN":"5鄰","STREET":" ","SECT":" ","MAREA":"知母義","LANE":" ","ALLEY":" ","HOUSE_NO":"８１號之１","E_COORD97":180053.10000000001,"N_COORD97":2547206.2599999998,"ADDRESS":"知母義８１號之１","OBJECTID":344317},"geometry":{"x":180053.10000000149,"y":2547206.2600000016}},{"attributes":{"ID":344327,"DIS_CODE":0,"TOWNNAME":"新化區","LI":"羊林里","LIN":"5鄰","STREET":" ","SECT":" ","MAREA":"\u25A0拔林","LANE":" ","ALLEY":" ","HOUSE_NO":"４７３號","E_COORD97":183548.22,"N_COORD97":2551726.25,"ADDRESS":"\u25A0拔林４７３號","OBJECTID":344318},"geometry":{"x":183548.22000000067,"y":2551726.2500000019}},{"attributes":{"ID":344328,"DIS_CODE":0,"TOWNNAME":"新化區","LI":"知義里","LIN":"5鄰","STREET":" ","SECT":" ","MAREA":"知母義","LANE":" ","ALLEY":" ","HOUSE_NO":"７２號之１","E_COORD97":180172.10000000001,"N_COORD97":2547266.2599999998,"ADDRESS":"知母義７２號之１","OBJECTID":344319},"geometry":{"x":180172.10000000056,"y":2547266.2599999998}},{"attributes":{"ID":344329,"DIS_CODE":0,"TOWNNAME":"新化區","LI":"知義里","LIN":"5鄰","STREET":" ","SECT":" ","MAREA":"知母義","LANE":" ","ALLEY":" ","HOUSE_NO":"９０號","E_COORD97":179944.17000000001,"N_COORD97":2547130.25,"ADDRESS":"知母義９０號","OBJECTID":344320},"geometry":{"x":179944.16999999993,"y":2547130.25}},{"attributes":{"ID":344330,"DIS_CODE":0,"TOWNNAME":"新化區","LI":"全興里","LIN":"5鄰","STREET":" ","SECT":" ","MAREA":"竹子\u25A0","LANE":" ","ALLEY":" ","HOUSE_NO":"６１號之１","E_COORD97":177622.91,"N_COORD97":2547698.2599999998,"ADDRESS":"竹子\u25A0６１號之１","OBJECTID":344321},"geometry":{"x":177622.91000000108,"y":2547698.2600000016}},{"attributes":{"ID":344331,"DIS_CODE":0,"TOWNNAME":"新化區","LI":"山\u25A0里","LIN":"5鄰","STREET":" ","SECT":" ","MAREA":"頂山\u25A0","LANE":" ","ALLEY":" ","HOUSE_NO":"１２１號","E_COORD97":179563.73000000001,"N_COORD97":2546720.25,"ADDRESS":"頂山\u25A0１２１號","OBJECTID":344322},"geometry":{"x":179563.73000000138,"y":2546720.25}},{"attributes":{"ID":344332,"DIS_CODE":0,"TOWNNAME":"新化區","LI":"山\u25A0里","LIN":"5鄰","STREET":" ","SECT":" ","MAREA":"頂山\u25A0","LANE":" ","ALLEY":" ","HOUSE_NO":"２０號之５","E_COORD97":179569.73999999999,"N_COORD97":2546837.2599999998,"ADDRESS":"頂山\u25A0２０號之５","OBJECTID":344323},"geometry":{"x":179569.74000000209,"y":2546837.2600000016}},{"attributes":{"ID":344333,"DIS_CODE":0,"TOWNNAME":"永康區","LI":"龍潭里","LIN":"35鄰","STREET":"龍安街","SECT":" ","MAREA":" ","LANE":"１８９巷","ALLEY":" ","HOUSE_NO":"１０號","E_COORD97":174645.95999999999,"N_COORD97":2548528.9100000001,"ADDRESS":"龍安街１８９巷１０號","OBJECTID":344324},"geometry":{"x":174645.95999999996,"y":2548528.910000002}},{"attributes":{"ID":344334,"DIS_CODE":0,"TOWNNAME":"永康區","LI":"龍潭里","LIN":"35鄰","STREET":"自強路","SECT":" ","MAREA":" ","LANE":"７５０巷","ALLEY":" ","HOUSE_NO":"４９號","E_COORD97":174512.54999999999,"N_COORD97":2548490.54,"ADDRESS":"自強路７５０巷４９號","OBJECTID":344325},"geometry":{"x":174512.55000000075,"y":2548490.5399999991}},{"attributes":{"ID":344335,"DIS_CODE":0,"TOWNNAME":"永康區","LI":"龍潭里","LIN":"35鄰","STREET":"自強路","SECT":" ","MAREA":" ","LANE":"７５０巷","ALLEY":" ","HOUSE_NO":"４７號","E_COORD97":174509.59,"N_COORD97":2548494.1499999999,"ADDRESS":"自強路７５０巷４７號","OBJECTID":344326},"geometry":{"x":174509.58999999985,"y":2548494.1500000004}},{"attributes":{"ID":344336,"DIS_CODE":0,"TOWNNAME":"新化區","LI":"唪口里","LIN":"5鄰","STREET":" ","SECT":" ","MAREA":"唪口","LANE":" ","ALLEY":" ","HOUSE_NO":"５０號之１７","E_COORD97":178142.69,"N_COORD97":2549037.2599999998,"ADDRESS":"唪口５０號之１７","OBJECTID":344327},"geometry":{"x":178142.69000000041,"y":2549037.2600000016}},{"attributes":{"ID":344337,"DIS_CODE":0,"TOWNNAME":"新化區","LI":"崙頂里","LIN":"5鄰","STREET":" ","SECT":" ","MAREA":"崙子頂","LANE":" ","ALLEY":" ","HOUSE_NO":"２２０號之１","E_COORD97":176602.95999999999,"N_COORD97":2546848.2599999998,"ADDRESS":"崙子頂２２０號之１","OBJECTID":344328},"geometry":{"x":176602.96000000183,"y":2546848.2599999998}},{"attributes":{"ID":344338,"DIS_CODE":0,"TOWNNAME":"新化區","LI":"唪口里","LIN":"5鄰","STREET":" ","SECT":" ","MAREA":"唪口","LANE":" ","ALLEY":" ","HOUSE_NO":"５０號之９","E_COORD97":178130.34,"N_COORD97":2549022.2599999998,"ADDRESS":"唪口５０號之９","OBJECTID":344329},"geometry":{"x":178130.33999999985,"y":2549022.2599999998}},{"attributes":{"ID":344339,"DIS_CODE":0,"TOWNNAME":"仁德區","LI":"太子里","LIN":"35鄰","STREET":"太子路","SECT":" ","MAREA":" ","LANE":"４５９巷","ALLEY":" ","HOUSE_NO":"３號","E_COORD97":174231.76000000001,"N_COORD97":2543473.5,"ADDRESS":"太子路４５９巷３號","OBJECTID":344330},"geometry":{"x":174231.76000000071,"y":2543473.5}},{"attributes":{"ID":344340,"DIS_CODE":0,"TOWNNAME":"新化區","LI":"唪口里","LIN":"5鄰","STREET":" ","SECT":" ","MAREA":"唪口","LANE":" ","ALLEY":" ","HOUSE_NO":"５６號之８","E_COORD97":178104.25,"N_COORD97":2549140.2599999998,"ADDRESS":"唪口５６號之８","OBJECTID":344331},"geometry":{"x":178104.25,"y":2549140.2599999998}},{"attributes":{"ID":344341,"DIS_CODE":0,"TOWNNAME":"仁德區","LI":"太子里","LIN":"35鄰","STREET":"太子路","SECT":" ","MAREA":" ","LANE":"４５９巷","ALLEY":" ","HOUSE_NO":"７號","E_COORD97":174233.26999999999,"N_COORD97":2543466.25,"ADDRESS":"太子路４５９巷７號","OBJECTID":344332},"geometry":{"x":174233.26999999955,"y":2543466.25}},{"attributes":{"ID":344342,"DIS_CODE":0,"TOWNNAME":"仁德區","LI":"太子里","LIN":"35鄰","STREET":"太子路","SECT":" ","MAREA":" ","LANE":"４５９巷","ALLEY":" ","HOUSE_NO":"８號","E_COORD97":174224.31,"N_COORD97":2543459.75,"ADDRESS":"太子路４５９巷８號","OBJECTID":344333},"geometry":{"x":174224.31000000052,"y":2543459.7500000037}},{"attributes":{"ID":344343,"DIS_CODE":0,"TOWNNAME":"新化區","LI":"豐榮里","LIN":"5鄰","STREET":" ","SECT":" ","MAREA":"洋子","LANE":" ","ALLEY":" ","HOUSE_NO":"９７之６號","E_COORD97":177954.12,"N_COORD97":2548246.98,"ADDRESS":"洋子９７之６號","OBJECTID":344334},"geometry":{"x":177954.12000000011,"y":2548246.9800000023}},{"attributes":{"ID":344344,"DIS_CODE":0,"TOWNNAME":"南化區","LI":"小崙里","LIN":"5鄰","STREET":" ","SECT":" ","MAREA":"小崙","LANE":" ","ALLEY":" ","HOUSE_NO":"５５之２號","E_COORD97":197643.04999999999,"N_COORD97":2549531.9500000002,"ADDRESS":"小崙５５之２號","OBJECTID":344335},"geometry":{"x":197643.05000000168,"y":2549531.9499999993}},{"attributes":{"ID":344345,"DIS_CODE":0,"TOWNNAME":"仁德區","LI":"仁義里","LIN":"35鄰","STREET":"中正路","SECT":"二段","MAREA":" ","LANE":"６４２巷","ALLEY":" ","HOUSE_NO":"１號","E_COORD97":173423.82000000001,"N_COORD97":2539836.77,"ADDRESS":"中正路二段６４２巷１號","OBJECTID":344336},"geometry":{"x":173423.8200000003,"y":2539836.7699999996}},{"attributes":{"ID":344346,"DIS_CODE":0,"TOWNNAME":"仁德區","LI":"太子里","LIN":"35鄰","STREET":"太子路","SECT":" ","MAREA":" ","LANE":"４５９巷","ALLEY":" ","HOUSE_NO":"１２號","E_COORD97":174227.16,"N_COORD97":2543451.5099999998,"ADDRESS":"太子路４５９巷１２號","OBJECTID":344337},"geometry":{"x":174227.16000000108,"y":2543451.5100000016}},{"attributes":{"ID":344347,"DIS_CODE":0,"TOWNNAME":"南化區","LI":"小崙里","LIN":"5鄰","STREET":" ","SECT":" ","MAREA":"小崙","LANE":" ","ALLEY":" ","HOUSE_NO":"５５之３號","E_COORD97":197660.10000000001,"N_COORD97":2549517.8700000001,"ADDRESS":"小崙５５之３號","OBJECTID":344338},"geometry":{"x":197660.10000000056,"y":2549517.870000001}},{"attributes":{"ID":344348,"DIS_CODE":0,"TOWNNAME":"南化區","LI":"玉山里","LIN":"5鄰","STREET":" ","SECT":" ","MAREA":"玉山","LANE":" ","ALLEY":" ","HOUSE_NO":"４５之５號","E_COORD97":200717.32999999999,"N_COORD97":2552518.3999999999,"ADDRESS":"玉山４５之５號","OBJECTID":344339},"geometry":{"x":200717.33000000007,"y":2552518.4000000041}},{"attributes":{"ID":344349,"DIS_CODE":0,"TOWNNAME":"新營區","LI":"埤寮里","LIN":"5鄰","STREET":" ","SECT":" ","MAREA":"埤寮","LANE":" ","ALLEY":" ","HOUSE_NO":"３號","E_COORD97":180113.38,"N_COORD97":2580983.9700000002,"ADDRESS":"埤寮３號","OBJECTID":344340},"geometry":{"x":180113.38000000082,"y":2580983.9700000025}},{"attributes":{"ID":344350,"DIS_CODE":0,"TOWNNAME":"新營區","LI":"埤寮里","LIN":"5鄰","STREET":" ","SECT":" ","MAREA":"埤寮","LANE":" ","ALLEY":" ","HOUSE_NO":"１１號","E_COORD97":180212.67999999999,"N_COORD97":2580963.27,"ADDRESS":"埤寮１１號","OBJECTID":344341},"geometry":{"x":180212.68000000063,"y":2580963.2699999977}},{"attributes":{"ID":344351,"DIS_CODE":0,"TOWNNAME":"將軍區","LI":"平沙里","LIN":"5鄰","STREET":" ","SECT":" ","MAREA":"平沙","LANE":" ","ALLEY":" ","HOUSE_NO":"４２之１號","E_COORD97":157352.75,"N_COORD97":2568518.7200000002,"ADDRESS":"平沙４２之１號","OBJECTID":344342},"geometry":{"x":157352.75000000093,"y":2568518.7199999988}},{"attributes":{"ID":344352,"DIS_CODE":0,"TOWNNAME":"將軍區","LI":"平沙里","LIN":"5鄰","STREET":" ","SECT":" ","MAREA":"平沙","LANE":" ","ALLEY":" ","HOUSE_NO":"４３之１號","E_COORD97":157326.26999999999,"N_COORD97":2568455.4300000002,"ADDRESS":"平沙４３之１號","OBJECTID":344343},"geometry":{"x":157326.27000000142,"y":2568455.4300000034}},{"attributes":{"ID":344353,"DIS_CODE":0,"TOWNNAME":"將軍區","LI":"平沙里","LIN":"5鄰","STREET":" ","SECT":" ","MAREA":"平沙","LANE":" ","ALLEY":" ","HOUSE_NO":"４３之６號","E_COORD97":157377.89000000001,"N_COORD97":2568455.96,"ADDRESS":"平沙４３之６號","OBJECTID":344344},"geometry":{"x":157377.88999999966,"y":2568455.9600000009}},{"attributes":{"ID":344354,"DIS_CODE":0,"TOWNNAME":"將軍區","LI":"平沙里","LIN":"5鄰","STREET":" ","SECT":" ","MAREA":"平沙","LANE":" ","ALLEY":" ","HOUSE_NO":"４３之２號","E_COORD97":157347.17999999999,"N_COORD97":2568472.6000000001,"ADDRESS":"平沙４３之２號","OBJECTID":344345},"geometry":{"x":157347.17999999877,"y":2568472.6000000015}},{"attributes":{"ID":344355,"DIS_CODE":0,"TOWNNAME":"將軍區","LI":"平沙里","LIN":"5鄰","STREET":" ","SECT":" ","MAREA":"平沙","LANE":" ","ALLEY":" ","HOUSE_NO":"４３之３號","E_COORD97":157337.01000000001,"N_COORD97":2568471.1200000001,"ADDRESS":"平沙４３之３號","OBJECTID":344346},"geometry":{"x":157337.01000000071,"y":2568471.120000001}},{"attributes":{"ID":344356,"DIS_CODE":0,"TOWNNAME":"仁德區","LI":"太子里","LIN":"35鄰","STREET":"太子路","SECT":" ","MAREA":" ","LANE":"４５９巷","ALLEY":" ","HOUSE_NO":"２號","E_COORD97":174220.64000000001,"N_COORD97":2543472.5,"ADDRESS":"太子路４５９巷２號","OBJECTID":344347},"geometry":{"x":174220.63999999966,"y":2543472.5000000019}},{"attributes":{"ID":344357,"DIS_CODE":0,"TOWNNAME":"將軍區","LI":"三吉里","LIN":"5鄰","STREET":" ","SECT":" ","MAREA":"三吉","LANE":" ","ALLEY":" ","HOUSE_NO":"３６之５號","E_COORD97":161390.76999999999,"N_COORD97":2567376.3199999998,"ADDRESS":"三吉３６之５號","OBJECTID":344348},"geometry":{"x":161390.76999999955,"y":2567376.3200000022}},{"attributes":{"ID":344358,"DIS_CODE":0,"TOWNNAME":"龍崎區","LI":"石嘈里","LIN":"5鄰","STREET":" ","SECT":" ","MAREA":"石嘈","LANE":" ","ALLEY":" ","HOUSE_NO":"１號","E_COORD97":189229.01999999999,"N_COORD97":2539767.25,"ADDRESS":"石嘈１號","OBJECTID":344349},"geometry":{"x":189229.01999999955,"y":2539767.25}},{"attributes":{"ID":344359,"DIS_CODE":0,"TOWNNAME":"關廟區","LI":"布袋里","LIN":"5鄰","STREET":"長文街","SECT":" ","MAREA":" ","LANE":" ","ALLEY":" ","HOUSE_NO":"８３號","E_COORD97":182960.64000000001,"N_COORD97":2535441.2999999998,"ADDRESS":"長文街８３號","OBJECTID":344350},"geometry":{"x":182960.6400000006,"y":2535441.3000000007}},{"attributes":{"ID":344360,"DIS_CODE":0,"TOWNNAME":"關廟區","LI":"布袋里","LIN":"5鄰","STREET":"長文街","SECT":" ","MAREA":" ","LANE":" ","ALLEY":" ","HOUSE_NO":"１０１號","E_COORD97":182920.34,"N_COORD97":2535426.2999999998,"ADDRESS":"長文街１０１號","OBJECTID":344351},"geometry":{"x":182920.34000000078,"y":2535426.3000000026}},{"attributes":{"ID":344361,"DIS_CODE":0,"TOWNNAME":"關廟區","LI":"新光里","LIN":"5鄰","STREET":"北寮街","SECT":" ","MAREA":" ","LANE":" ","ALLEY":" ","HOUSE_NO":"３０號","E_COORD97":184075.76999999999,"N_COORD97":2541821.2999999998,"ADDRESS":"北寮街３０號","OBJECTID":344352},"geometry":{"x":184075.76999999955,"y":2541821.3000000007}},{"attributes":{"ID":344362,"DIS_CODE":0,"TOWNNAME":"關廟區","LI":"龜洞里","LIN":"5鄰","STREET":"南雄南路","SECT":" ","MAREA":" ","LANE":" ","ALLEY":" ","HOUSE_NO":"９３２號","E_COORD97":182326.94,"N_COORD97":2532686.2999999998,"ADDRESS":"南雄南路９３２號","OBJECTID":344353},"geometry":{"x":182326.94000000134,"y":2532686.3000000026}},{"attributes":{"ID":344363,"DIS_CODE":0,"TOWNNAME":"關廟區","LI":"布袋里","LIN":"5鄰","STREET":"長文街","SECT":" ","MAREA":" ","LANE":" ","ALLEY":" ","HOUSE_NO":"８９號","E_COORD97":182946.12638599999,"N_COORD97":2535433.2127100001,"ADDRESS":"長文街８９號","OBJECTID":344354},"geometry":{"x":182946.12638599984,"y":2535433.2127130032}},{"attributes":{"ID":344364,"DIS_CODE":0,"TOWNNAME":"關廟區","LI":"布袋里","LIN":"5鄰","STREET":"長文街","SECT":" ","MAREA":" ","LANE":" ","ALLEY":" ","HOUSE_NO":"１２１號","E_COORD97":182885.04000000001,"N_COORD97":2535406.2999999998,"ADDRESS":"長文街１２１號","OBJECTID":344355},"geometry":{"x":182885.0400000019,"y":2535406.3000000026}},{"attributes":{"ID":344365,"DIS_CODE":0,"TOWNNAME":"關廟區","LI":"布袋里","LIN":"5鄰","STREET":"長文街","SECT":" ","MAREA":" ","LANE":" ","ALLEY":" ","HOUSE_NO":"１６５號","E_COORD97":182780.23999999999,"N_COORD97":2535339.2999999998,"ADDRESS":"長文街１６５號","OBJECTID":344356},"geometry":{"x":182780.23999999929,"y":2535339.3000000007}},{"attributes":{"ID":344366,"DIS_CODE":0,"TOWNNAME":"中西區","LI":"中正里","LIN":"10鄰","STREET":"海安路","SECT":" ","MAREA":" ","LANE":"１９７巷","ALLEY":" ","HOUSE_NO":"６號","E_COORD97":167579.23000000001,"N_COORD97":2543899.04,"ADDRESS":"海安路１９７巷６號","OBJECTID":344357},"geometry":{"x":167579.23000000045,"y":2543899.040000001}},{"attributes":{"ID":344367,"DIS_CODE":0,"TOWNNAME":"中西區","LI":"中正里","LIN":"10鄰","STREET":"海安路","SECT":" ","MAREA":" ","LANE":"１９７巷","ALLEY":" ","HOUSE_NO":"８號","E_COORD97":167574.07999999999,"N_COORD97":2543899.4700000002,"ADDRESS":"海安路１９７巷８號","OBJECTID":344358},"geometry":{"x":167574.08000000101,"y":2543899.4699999988}},{"attributes":{"ID":344368,"DIS_CODE":0,"TOWNNAME":"安南區","LI":"城北里","LIN":"10鄰","STREET":"安中路","SECT":"六段","MAREA":" ","LANE":"４２９巷","ALLEY":" ","HOUSE_NO":"３０號之５","E_COORD97":161103.67999999999,"N_COORD97":2551206.4700000002,"ADDRESS":"安中路六段４２９巷３０號之５","OBJECTID":344359},"geometry":{"x":161103.6799999997,"y":2551206.4700000025}},{"attributes":{"ID":344369,"DIS_CODE":0,"TOWNNAME":"安平區","LI":"平安里","LIN":"10鄰","STREET":"安平路","SECT":" ","MAREA":" ","LANE":"４４６巷","ALLEY":" ","HOUSE_NO":"１８號二樓","E_COORD97":165290.84,"N_COORD97":2544376.25,"ADDRESS":"安平路４４６巷１８號二樓","OBJECTID":344360},"geometry":{"x":165290.84000000078,"y":2544376.2500000019}},{"attributes":{"ID":344370,"DIS_CODE":0,"TOWNNAME":"安南區","LI":"南興里","LIN":"10鄰","STREET":"安興街","SECT":" ","MAREA":" ","LANE":"６３２巷","ALLEY":" ","HOUSE_NO":"９１之１號","E_COORD97":163770.01999999999,"N_COORD97":2552458.98,"ADDRESS":"安興街６３２巷９１之１號","OBJECTID":344361},"geometry":{"x":163770.02000000048,"y":2552458.9800000004}},{"attributes":{"ID":344371,"DIS_CODE":0,"TOWNNAME":"南區","LI":"白雪里","LIN":"10鄰","STREET":"鹽埕路","SECT":" ","MAREA":" ","LANE":"１０３巷","ALLEY":" ","HOUSE_NO":"２９號之５","E_COORD97":166815.04999999999,"N_COORD97":2540742.9500000002,"ADDRESS":"鹽埕路１０３巷２９號之５","OBJECTID":344362},"geometry":{"x":166815.05000000075,"y":2540742.9500000011}},{"attributes":{"ID":344372,"DIS_CODE":0,"TOWNNAME":"南區","LI":"白雪里","LIN":"10鄰","STREET":"鹽埕路","SECT":" ","MAREA":" ","LANE":"１０３巷","ALLEY":" ","HOUSE_NO":"２９號之６","E_COORD97":166818.66,"N_COORD97":2540742.9500000002,"ADDRESS":"鹽埕路１０３巷２９號之６","OBJECTID":344363},"geometry":{"x":166818.66000000015,"y":2540742.9500000011}},{"attributes":{"ID":344373,"DIS_CODE":0,"TOWNNAME":"南區","LI":"白雪里","LIN":"10鄰","STREET":"鹽埕路","SECT":" ","MAREA":" ","LANE":"１０３巷","ALLEY":" ","HOUSE_NO":"２９號之７","E_COORD97":166822.75,"N_COORD97":2540743.9100000001,"ADDRESS":"鹽埕路１０３巷２９號之７","OBJECTID":344364},"geometry":{"x":166822.75,"y":2540743.910000002}},{"attributes":{"ID":344374,"DIS_CODE":0,"TOWNNAME":"南區","LI":"白雪里","LIN":"10鄰","STREET":"鹽埕路","SECT":" ","MAREA":" ","LANE":"１０３巷","ALLEY":" ","HOUSE_NO":"２９號之８","E_COORD97":166825.64000000001,"N_COORD97":2540743.9100000001,"ADDRESS":"鹽埕路１０３巷２９號之８","OBJECTID":344365},"geometry":{"x":166825.6400000006,"y":2540743.910000002}},{"attributes":{"ID":344375,"DIS_CODE":0,"TOWNNAME":"南區","LI":"白雪里","LIN":"10鄰","STREET":"鹽埕路","SECT":" ","MAREA":" ","LANE":"１０３巷","ALLEY":" ","HOUSE_NO":"２９號之９","E_COORD97":166830.45000000001,"N_COORD97":2540742.46,"ADDRESS":"鹽埕路１０３巷２９號之９","OBJECTID":344366},"geometry":{"x":166830.44999999925,"y":2540742.4600000009}},{"attributes":{"ID":344376,"DIS_CODE":0,"TOWNNAME":"南區","LI":"白雪里","LIN":"10鄰","STREET":"鹽埕路","SECT":" ","MAREA":" ","LANE":"１０３巷","ALLEY":" ","HOUSE_NO":"３１號","E_COORD97":166780.66,"N_COORD97":2540750.77,"ADDRESS":"鹽埕路１０３巷３１號","OBJECTID":344367},"geometry":{"x":166780.66000000108,"y":2540750.7700000014}},{"attributes":{"ID":344377,"DIS_CODE":0,"TOWNNAME":"南區","LI":"白雪里","LIN":"10鄰","STREET":"鹽埕路","SECT":" ","MAREA":" ","LANE":"１０３巷","ALLEY":" ","HOUSE_NO":"３３號","E_COORD97":166779.34,"N_COORD97":2540747.6299999999,"ADDRESS":"鹽埕路１０３巷３３號","OBJECTID":344368},"geometry":{"x":166779.33999999985,"y":2540747.6300000008}},{"attributes":{"ID":344378,"DIS_CODE":0,"TOWNNAME":"南區","LI":"白雪里","LIN":"10鄰","STREET":"鹽埕路","SECT":" ","MAREA":" ","LANE":"１０３巷","ALLEY":" ","HOUSE_NO":"３５號","E_COORD97":166779.34,"N_COORD97":2540743.6699999999,"ADDRESS":"鹽埕路１０３巷３５號","OBJECTID":344369},"geometry":{"x":166779.33999999985,"y":2540743.6699999999}},{"attributes":{"ID":344379,"DIS_CODE":0,"TOWNNAME":"南區","LI":"白雪里","LIN":"10鄰","STREET":"鹽埕路","SECT":" ","MAREA":" ","LANE":"１０３巷","ALLEY":" ","HOUSE_NO":"３７號","E_COORD97":166779.34,"N_COORD97":2540739.21,"ADDRESS":"鹽埕路１０３巷３７號","OBJECTID":344370},"geometry":{"x":166779.33999999985,"y":2540739.2100000028}},{"attributes":{"ID":344380,"DIS_CODE":0,"TOWNNAME":"南區","LI":"白雪里","LIN":"10鄰","STREET":"鹽埕路","SECT":" ","MAREA":" ","LANE":"１０３巷","ALLEY":" ","HOUSE_NO":"３９號","E_COORD97":166780.66,"N_COORD97":2540734.4300000002,"ADDRESS":"鹽埕路１０３巷３９號","OBJECTID":344371},"geometry":{"x":166780.66000000108,"y":2540734.4299999997}},{"attributes":{"ID":344381,"DIS_CODE":0,"TOWNNAME":"南區","LI":"白雪里","LIN":"10鄰","STREET":"鹽埕路","SECT":" ","MAREA":" ","LANE":"１０３巷","ALLEY":" ","HOUSE_NO":"４１號","E_COORD97":166780.48999999999,"N_COORD97":2540730.2999999998,"ADDRESS":"鹽埕路１０３巷４１號","OBJECTID":344372},"geometry":{"x":166780.49000000022,"y":2540730.3000000007}},{"attributes":{"ID":344382,"DIS_CODE":0,"TOWNNAME":"南區","LI":"白雪里","LIN":"10鄰","STREET":"鹽埕路","SECT":" ","MAREA":" ","LANE":"１０３巷","ALLEY":" ","HOUSE_NO":"４１號之１","E_COORD97":166780,"N_COORD97":2540725.6800000002,"ADDRESS":"鹽埕路１０３巷４１號之１","OBJECTID":344373},"geometry":{"x":166780.00000000093,"y":2540725.6799999997}},{"attributes":{"ID":344383,"DIS_CODE":0,"TOWNNAME":"南區","LI":"白雪里","LIN":"10鄰","STREET":"鹽埕路","SECT":" ","MAREA":" ","LANE":"１０３巷","ALLEY":" ","HOUSE_NO":"４１號之１０","E_COORD97":166824.44,"N_COORD97":2540727.7999999998,"ADDRESS":"鹽埕路１０３巷４１號之１０","OBJECTID":344374},"geometry":{"x":166824.44000000134,"y":2540727.8000000045}},{"attributes":{"ID":344384,"DIS_CODE":0,"TOWNNAME":"南區","LI":"白雪里","LIN":"10鄰","STREET":"鹽埕路","SECT":" ","MAREA":" ","LANE":"１０３巷","ALLEY":" ","HOUSE_NO":"４１號之１１","E_COORD97":166829.01000000001,"N_COORD97":2540728.7599999998,"ADDRESS":"鹽埕路１０３巷４１號之１１","OBJECTID":344375},"geometry":{"x":166829.00999999978,"y":2540728.7599999998}},{"attributes":{"ID":344385,"DIS_CODE":0,"TOWNNAME":"南區","LI":"白雪里","LIN":"10鄰","STREET":"鹽埕路","SECT":" ","MAREA":" ","LANE":"１０３巷","ALLEY":" ","HOUSE_NO":"４１號之１２","E_COORD97":166831.89999999999,"N_COORD97":2540728.52,"ADDRESS":"鹽埕路１０３巷４１號之１２","OBJECTID":344376},"geometry":{"x":166831.9000000013,"y":2540728.5200000014}},{"attributes":{"ID":344386,"DIS_CODE":0,"TOWNNAME":"麻豆區","LI":"小埤里","LIN":"5鄰","STREET":" ","SECT":" ","MAREA":"小埤頭","LANE":" ","ALLEY":" ","HOUSE_NO":"２３號","E_COORD97":171434.85000000001,"N_COORD97":2566082.6299999999,"ADDRESS":"小埤頭２３號","OBJECTID":344377},"geometry":{"x":171434.85000000149,"y":2566082.629999999}},{"attributes":{"ID":344387,"DIS_CODE":0,"TOWNNAME":"南區","LI":"白雪里","LIN":"10鄰","STREET":"鹽埕路","SECT":" ","MAREA":" ","LANE":"１０３巷","ALLEY":" ","HOUSE_NO":"４１號之１３","E_COORD97":166838.16,"N_COORD97":2540725.3999999999,"ADDRESS":"鹽埕路１０３巷４１號之１３","OBJECTID":344378},"geometry":{"x":166838.16000000108,"y":2540725.4000000004}},{"attributes":{"ID":344388,"DIS_CODE":0,"TOWNNAME":"南區","LI":"白雪里","LIN":"10鄰","STREET":"鹽埕路","SECT":" ","MAREA":" ","LANE":"１０３巷","ALLEY":" ","HOUSE_NO":"４１號之２","E_COORD97":166779.17000000001,"N_COORD97":2540721.8799999999,"ADDRESS":"鹽埕路１０３巷４１號之２","OBJECTID":344379},"geometry":{"x":166779.16999999993,"y":2540721.8800000027}},{"attributes":{"ID":344389,"DIS_CODE":0,"TOWNNAME":"南區","LI":"白雪里","LIN":"10鄰","STREET":"鹽埕路","SECT":" ","MAREA":" ","LANE":"１０３巷","ALLEY":" ","HOUSE_NO":"４１號之３","E_COORD97":166795.32000000001,"N_COORD97":2540727.5600000001,"ADDRESS":"鹽埕路１０３巷４１號之３","OBJECTID":344380},"geometry":{"x":166795.3200000003,"y":2540727.5600000005}},{"attributes":{"ID":344390,"DIS_CODE":0,"TOWNNAME":"南區","LI":"白雪里","LIN":"10鄰","STREET":"鹽埕路","SECT":" ","MAREA":" ","LANE":"１０３巷","ALLEY":" ","HOUSE_NO":"４１號之４","E_COORD97":166798.45000000001,"N_COORD97":2540727.5600000001,"ADDRESS":"鹽埕路１０３巷４１號之４","OBJECTID":344381},"geometry":{"x":166798.45000000205,"y":2540727.5600000005}},{"attributes":{"ID":344391,"DIS_CODE":0,"TOWNNAME":"南區","LI":"白雪里","LIN":"10鄰","STREET":"鹽埕路","SECT":" ","MAREA":" ","LANE":"１０３巷","ALLEY":" ","HOUSE_NO":"４１號之５","E_COORD97":166803.98000000001,"N_COORD97":2540727.5600000001,"ADDRESS":"鹽埕路１０３巷４１號之５","OBJECTID":344382},"geometry":{"x":166803.98000000138,"y":2540727.5600000005}},{"attributes":{"ID":344392,"DIS_CODE":0,"TOWNNAME":"南區","LI":"白雪里","LIN":"10鄰","STREET":"鹽埕路","SECT":" ","MAREA":" ","LANE":"１０３巷","ALLEY":" ","HOUSE_NO":"４１號之６","E_COORD97":166808.31,"N_COORD97":2540727.5600000001,"ADDRESS":"鹽埕路１０３巷４１號之６","OBJECTID":344383},"geometry":{"x":166808.30999999959,"y":2540727.5600000005}},{"attributes":{"ID":344393,"DIS_CODE":0,"TOWNNAME":"南區","LI":"白雪里","LIN":"10鄰","STREET":"鹽埕路","SECT":" ","MAREA":" ","LANE":"１０３巷","ALLEY":" ","HOUSE_NO":"４１號之７","E_COORD97":166813.13,"N_COORD97":2540727.5600000001,"ADDRESS":"鹽埕路１０３巷４１號之７","OBJECTID":344384},"geometry":{"x":166813.12999999989,"y":2540727.5600000005}},{"attributes":{"ID":344394,"DIS_CODE":0,"TOWNNAME":"南區","LI":"白雪里","LIN":"10鄰","STREET":"鹽埕路","SECT":" ","MAREA":" ","LANE":"１０３巷","ALLEY":" ","HOUSE_NO":"４１號之８","E_COORD97":166816.26000000001,"N_COORD97":2540727.7999999998,"ADDRESS":"鹽埕路１０３巷４１號之８","OBJECTID":344385},"geometry":{"x":166816.26000000164,"y":2540727.8000000045}},{"attributes":{"ID":344395,"DIS_CODE":0,"TOWNNAME":"南區","LI":"白雪里","LIN":"10鄰","STREET":"鹽埕路","SECT":" ","MAREA":" ","LANE":"１０３巷","ALLEY":" ","HOUSE_NO":"４１號之９","E_COORD97":166820.59,"N_COORD97":2540727.7999999998,"ADDRESS":"鹽埕路１０３巷４１號之９","OBJECTID":344386},"geometry":{"x":166820.58999999985,"y":2540727.8000000045}},{"attributes":{"ID":344396,"DIS_CODE":0,"TOWNNAME":"安平區","LI":"平安里","LIN":"10鄰","STREET":"安平路","SECT":" ","MAREA":" ","LANE":"４４６巷","ALLEY":" ","HOUSE_NO":"１１號","E_COORD97":165275.06,"N_COORD97":2544349.2799999998,"ADDRESS":"安平路４４６巷１１號","OBJECTID":344387},"geometry":{"x":165275.06000000052,"y":2544349.2799999993}},{"attributes":{"ID":344397,"DIS_CODE":0,"TOWNNAME":"安平區","LI":"平安里","LIN":"10鄰","STREET":"安平路","SECT":" ","MAREA":" ","LANE":"４４６巷","ALLEY":" ","HOUSE_NO":"４號","E_COORD97":165284.17999999999,"N_COORD97":2544347.6299999999,"ADDRESS":"安平路４４６巷４號","OBJECTID":344388},"geometry":{"x":165284.18000000156,"y":2544347.6300000027}},{"attributes":{"ID":344398,"DIS_CODE":0,"TOWNNAME":"安平區","LI":"平安里","LIN":"10鄰","STREET":"安平路","SECT":" ","MAREA":" ","LANE":"４４６巷","ALLEY":" ","HOUSE_NO":"３號","E_COORD97":165272.64000000001,"N_COORD97":2544338.2799999998,"ADDRESS":"安平路４４６巷３號","OBJECTID":344389},"geometry":{"x":165272.64000000153,"y":2544338.2800000012}},{"attributes":{"ID":344399,"DIS_CODE":0,"TOWNNAME":"安平區","LI":"平安里","LIN":"10鄰","STREET":"安平路","SECT":" ","MAREA":" ","LANE":"４４６巷","ALLEY":" ","HOUSE_NO":"５號","E_COORD97":165273.29999999999,"N_COORD97":2544341.0299999998,"ADDRESS":"安平路４４６巷５號","OBJECTID":344390},"geometry":{"x":165273.30000000168,"y":2544341.0299999993}},{"attributes":{"ID":344400,"DIS_CODE":0,"TOWNNAME":"安平區","LI":"平安里","LIN":"10鄰","STREET":"安平路","SECT":" ","MAREA":" ","LANE":"４４６巷","ALLEY":" ","HOUSE_NO":"７號","E_COORD97":165273.51999999999,"N_COORD97":2544342.5699999998,"ADDRESS":"安平路４４６巷７號","OBJECTID":344391},"geometry":{"x":165273.52000000048,"y":2544342.5699999984}},{"attributes":{"ID":344401,"DIS_CODE":0,"TOWNNAME":"安平區","LI":"平安里","LIN":"10鄰","STREET":"安平路","SECT":" ","MAREA":" ","LANE":"４４６巷","ALLEY":" ","HOUSE_NO":"９號","E_COORD97":165274.29000000001,"N_COORD97":2544346.3100000001,"ADDRESS":"安平路４４６巷９號","OBJECTID":344392},"geometry":{"x":165274.29000000097,"y":2544346.3100000024}},{"attributes":{"ID":344402,"DIS_CODE":0,"TOWNNAME":"安平區","LI":"平安里","LIN":"10鄰","STREET":"安平路","SECT":" ","MAREA":" ","LANE":"４４６巷","ALLEY":" ","HOUSE_NO":"１３號","E_COORD97":165275.60999999999,"N_COORD97":2544352.1400000001,"ADDRESS":"安平路４４６巷１３號","OBJECTID":344393},"geometry":{"x":165275.61000000127,"y":2544352.1400000006}},{"attributes":{"ID":344403,"DIS_CODE":0,"TOWNNAME":"安平區","LI":"平安里","LIN":"10鄰","STREET":"安平路","SECT":" ","MAREA":" ","LANE":"４４６巷","ALLEY":" ","HOUSE_NO":"１５號","E_COORD97":165276.38,"N_COORD97":2544354.8900000001,"ADDRESS":"安平路４４６巷１５號","OBJECTID":344394},"geometry":{"x":165276.38000000082,"y":2544354.8900000025}},{"attributes":{"ID":344404,"DIS_CODE":0,"TOWNNAME":"安平區","LI":"平安里","LIN":"10鄰","STREET":"安平路","SECT":" ","MAREA":" ","LANE":"４４６巷","ALLEY":" ","HOUSE_NO":"２３號","E_COORD97":165280.56,"N_COORD97":2544384.2400000002,"ADDRESS":"安平路４４６巷２３號","OBJECTID":344395},"geometry":{"x":165280.56000000052,"y":2544384.2400000002}},{"attributes":{"ID":344405,"DIS_CODE":0,"TOWNNAME":"安平區","LI":"平安里","LIN":"10鄰","STREET":"安平路","SECT":" ","MAREA":" ","LANE":"４４６巷","ALLEY":" ","HOUSE_NO":"６號之１","E_COORD97":165285.82999999999,"N_COORD97":2544354.5600000001,"ADDRESS":"安平路４４６巷６號之１","OBJECTID":344396},"geometry":{"x":165285.83000000101,"y":2544354.5600000024}},{"attributes":{"ID":344406,"DIS_CODE":0,"TOWNNAME":"安平區","LI":"平安里","LIN":"10鄰","STREET":"安平路","SECT":" ","MAREA":" ","LANE":"４４６巷","ALLEY":" ","HOUSE_NO":"８號之１","E_COORD97":165286.82000000001,"N_COORD97":2544359.9500000002,"ADDRESS":"安平路４４６巷８號之１","OBJECTID":344397},"geometry":{"x":165286.8200000003,"y":2544359.9500000011}},{"attributes":{"ID":344407,"DIS_CODE":0,"TOWNNAME":"安平區","LI":"平安里","LIN":"10鄰","STREET":"安平路","SECT":" ","MAREA":" ","LANE":"４４６巷","ALLEY":" ","HOUSE_NO":"７號之１","E_COORD97":165273.95999999999,"N_COORD97":2544344.5499999998,"ADDRESS":"安平路４４６巷７號之１","OBJECTID":344398},"geometry":{"x":165273.95999999903,"y":2544344.5500000026}},{"attributes":{"ID":344408,"DIS_CODE":0,"TOWNNAME":"安平區","LI":"平安里","LIN":"10鄰","STREET":"安平路","SECT":" ","MAREA":" ","LANE":"５００巷","ALLEY":" ","HOUSE_NO":"１０號","E_COORD97":165157.29000000001,"N_COORD97":2544396.8700000001,"ADDRESS":"安平路５００巷１０號","OBJECTID":344399},"geometry":{"x":165157.29000000097,"y":2544396.8700000029}},{"attributes":{"ID":344409,"DIS_CODE":0,"TOWNNAME":"安平區","LI":"平安里","LIN":"10鄰","STREET":"安平路","SECT":" ","MAREA":" ","LANE":"５００巷","ALLEY":" ","HOUSE_NO":"４６號","E_COORD97":165170.94,"N_COORD97":2544471.21,"ADDRESS":"安平路５００巷４６號","OBJECTID":344400},"geometry":{"x":165170.94000000041,"y":2544471.2100000046}}]}