{"displayFieldName":"TOWNNAME","fieldAliases":{"ID":"ID","DIS_CODE":"DIS_CODE","TOWNNAME":"TOWNNAME","LI":"LI","LIN":"LIN","STREET":"STREET","SECT":"SECT","MAREA":"MAREA","LANE":"LANE","ALLEY":"ALLEY","HOUSE_NO":"HOUSE_NO","E_COORD97":"E_COORD97","N_COORD97":"N_COORD97","ADDRESS":"ADDRESS","OBJECTID":"OBJECTID"},"geometryType":"esriGeometryPoint","spatialReference":{"wkid":102443,"latestWkid":3826},"fields":[{"name":"ID","type":"esriFieldTypeDouble","alias":"ID"},{"name":"DIS_CODE","type":"esriFieldTypeInteger","alias":"DIS_CODE"},{"name":"TOWNNAME","type":"esriFieldTypeString","alias":"TOWNNAME","length":8},{"name":"LI","type":"esriFieldTypeString","alias":"LI","length":8},{"name":"LIN","type":"esriFieldTypeString","alias":"LIN","length":12},{"name":"STREET","type":"esriFieldTypeString","alias":"STREET","length":20},{"name":"SECT","type":"esriFieldTypeString","alias":"SECT","length":8},{"name":"MAREA","type":"esriFieldTypeString","alias":"MAREA","length":12},{"name":"LANE","type":"esriFieldTypeString","alias":"LANE","length":10},{"name":"ALLEY","type":"esriFieldTypeString","alias":"ALLEY","length":10},{"name":"HOUSE_NO","type":"esriFieldTypeString","alias":"HOUSE_NO","length":20},{"name":"E_COORD97","type":"esriFieldTypeDouble","alias":"E_COORD97"},{"name":"N_COORD97","type":"esriFieldTypeDouble","alias":"N_COORD97"},{"name":"ADDRESS","type":"esriFieldTypeString","alias":"ADDRESS","length":50},{"name":"OBJECTID","type":"esriFieldTypeOID","alias":"OBJECTID"}],"features":[{"attributes":{"ID":399225,"DIS_CODE":0,"TOWNNAME":"關廟區","LI":"深坑里","LIN":"11鄰","STREET":"深坑二街","SECT":" ","MAREA":" ","LANE":"６３巷","ALLEY":" ","HOUSE_NO":"５號","E_COORD97":181666.82000000001,"N_COORD97":2537477.2999999998,"ADDRESS":"深坑二街６３巷５號","OBJECTID":399201},"geometry":{"x":181666.82000000123,"y":2537477.3000000026}},{"attributes":{"ID":399226,"DIS_CODE":0,"TOWNNAME":"關廟區","LI":"南花里","LIN":"11鄰","STREET":"四維街","SECT":" ","MAREA":" ","LANE":"２０９巷","ALLEY":" ","HOUSE_NO":"５號","E_COORD97":181837.26000000001,"N_COORD97":2540087.25,"ADDRESS":"四維街２０９巷５號","OBJECTID":399202},"geometry":{"x":181837.26000000164,"y":2540087.2500000019}},{"attributes":{"ID":399227,"DIS_CODE":0,"TOWNNAME":"關廟區","LI":"埤頭里","LIN":"11鄰","STREET":"保東路","SECT":" ","MAREA":" ","LANE":"８８巷","ALLEY":" ","HOUSE_NO":"８０號","E_COORD97":178857.57000000001,"N_COORD97":2544261.2999999998,"ADDRESS":"保東路８８巷８０號","OBJECTID":399203},"geometry":{"x":178857.57000000123,"y":2544261.3000000026}},{"attributes":{"ID":399228,"DIS_CODE":0,"TOWNNAME":"關廟區","LI":"深坑里","LIN":"11鄰","STREET":"深坑二街","SECT":" ","MAREA":" ","LANE":"９０巷","ALLEY":" ","HOUSE_NO":"１６號","E_COORD97":181609.62,"N_COORD97":2537473.2999999998,"ADDRESS":"深坑二街９０巷１６號","OBJECTID":399204},"geometry":{"x":181609.61999999918,"y":2537473.3000000026}},{"attributes":{"ID":399229,"DIS_CODE":0,"TOWNNAME":"關廟區","LI":"深坑里","LIN":"11鄰","STREET":"南雄路","SECT":"一段","MAREA":" ","LANE":"４０９巷","ALLEY":" ","HOUSE_NO":"３５號","E_COORD97":181666.42000000001,"N_COORD97":2537509.2999999998,"ADDRESS":"南雄路一段４０９巷３５號","OBJECTID":399205},"geometry":{"x":181666.41999999993,"y":2537509.3000000007}},{"attributes":{"ID":399230,"DIS_CODE":0,"TOWNNAME":"關廟區","LI":"南花里","LIN":"11鄰","STREET":"四維街","SECT":" ","MAREA":" ","LANE":"２０９巷","ALLEY":" ","HOUSE_NO":"１７號","E_COORD97":181821.84281500001,"N_COORD97":2540122.3296500002,"ADDRESS":"四維街２０９巷１７號","OBJECTID":399206},"geometry":{"x":181821.8428149987,"y":2540122.3296500016}},{"attributes":{"ID":399231,"DIS_CODE":0,"TOWNNAME":"關廟區","LI":"深坑里","LIN":"11鄰","STREET":"南雄路","SECT":"一段","MAREA":" ","LANE":"４０９巷","ALLEY":" ","HOUSE_NO":"５３號","E_COORD97":181634.92000000001,"N_COORD97":2537488.2999999998,"ADDRESS":"南雄路一段４０９巷５３號","OBJECTID":399207},"geometry":{"x":181634.92000000086,"y":2537488.3000000007}},{"attributes":{"ID":399232,"DIS_CODE":0,"TOWNNAME":"關廟區","LI":"深坑里","LIN":"11鄰","STREET":"深坑二街","SECT":" ","MAREA":" ","LANE":"６３巷","ALLEY":" ","HOUSE_NO":"８號","E_COORD97":181711.72,"N_COORD97":2537471.2999999998,"ADDRESS":"深坑二街６３巷８號","OBJECTID":399208},"geometry":{"x":181711.71999999974,"y":2537471.3000000007}},{"attributes":{"ID":399233,"DIS_CODE":0,"TOWNNAME":"關廟區","LI":"埤頭里","LIN":"11鄰","STREET":"保東路","SECT":" ","MAREA":" ","LANE":"８８巷","ALLEY":" ","HOUSE_NO":"６０號","E_COORD97":178854.01999999999,"N_COORD97":2544213.2999999998,"ADDRESS":"保東路８８巷６０號","OBJECTID":399209},"geometry":{"x":178854.02000000048,"y":2544213.3000000026}},{"attributes":{"ID":399234,"DIS_CODE":0,"TOWNNAME":"關廟區","LI":"南花里","LIN":"11鄰","STREET":"四維街","SECT":" ","MAREA":" ","LANE":"２０９巷","ALLEY":" ","HOUSE_NO":"３號","E_COORD97":181837.26000000001,"N_COORD97":2540101.25,"ADDRESS":"四維街２０９巷３號","OBJECTID":399210},"geometry":{"x":181837.26000000164,"y":2540101.2500000019}},{"attributes":{"ID":399235,"DIS_CODE":0,"TOWNNAME":"關廟區","LI":"深坑里","LIN":"11鄰","STREET":"南雄路","SECT":"一段","MAREA":" ","LANE":"４０９巷","ALLEY":" ","HOUSE_NO":"３７號","E_COORD97":181663.01999999999,"N_COORD97":2537507.2999999998,"ADDRESS":"南雄路一段４０９巷３７號","OBJECTID":399211},"geometry":{"x":181663.02000000048,"y":2537507.3000000026}},{"attributes":{"ID":399236,"DIS_CODE":0,"TOWNNAME":"關廟區","LI":"深坑里","LIN":"11鄰","STREET":"南雄路","SECT":"一段","MAREA":" ","LANE":"４０９巷","ALLEY":" ","HOUSE_NO":"４９號","E_COORD97":181642.22,"N_COORD97":2537493.2999999998,"ADDRESS":"南雄路一段４０９巷４９號","OBJECTID":399212},"geometry":{"x":181642.21999999974,"y":2537493.3000000045}},{"attributes":{"ID":399237,"DIS_CODE":0,"TOWNNAME":"關廟區","LI":"南花里","LIN":"11鄰","STREET":"四維街","SECT":" ","MAREA":" ","LANE":"２０９巷","ALLEY":" ","HOUSE_NO":"１９號","E_COORD97":181816.75623500001,"N_COORD97":2540122.43548,"ADDRESS":"四維街２０９巷１９號","OBJECTID":399213},"geometry":{"x":181816.75623500068,"y":2540122.4354840014}},{"attributes":{"ID":399238,"DIS_CODE":0,"TOWNNAME":"關廟區","LI":"深坑里","LIN":"11鄰","STREET":"深坑二街","SECT":" ","MAREA":" ","LANE":"６３巷","ALLEY":" ","HOUSE_NO":"７號","E_COORD97":181670.32000000001,"N_COORD97":2537479.2999999998,"ADDRESS":"深坑二街６３巷７號","OBJECTID":399214},"geometry":{"x":181670.32000000123,"y":2537479.2999999989}},{"attributes":{"ID":399239,"DIS_CODE":0,"TOWNNAME":"關廟區","LI":"南花里","LIN":"11鄰","STREET":"四維街","SECT":" ","MAREA":" ","LANE":"２０９巷","ALLEY":" ","HOUSE_NO":"９號","E_COORD97":181827.66,"N_COORD97":2540100.25,"ADDRESS":"四維街２０９巷９號","OBJECTID":399215},"geometry":{"x":181827.66000000015,"y":2540100.2500000019}},{"attributes":{"ID":399240,"DIS_CODE":0,"TOWNNAME":"關廟區","LI":"深坑里","LIN":"11鄰","STREET":"深坑二街","SECT":" ","MAREA":" ","LANE":"６３巷","ALLEY":" ","HOUSE_NO":"１１號","E_COORD97":181685.62,"N_COORD97":2537489.2999999998,"ADDRESS":"深坑二街６３巷１１號","OBJECTID":399216},"geometry":{"x":181685.62000000011,"y":2537489.3000000007}},{"attributes":{"ID":399241,"DIS_CODE":0,"TOWNNAME":"新化區","LI":"東榮里","LIN":"11鄰","STREET":"中興路","SECT":" ","MAREA":" ","LANE":"４９０巷","ALLEY":" ","HOUSE_NO":"２０號","E_COORD97":180108.76000000001,"N_COORD97":2547885.25,"ADDRESS":"中興路４９０巷２０號","OBJECTID":399217},"geometry":{"x":180108.76000000071,"y":2547885.2500000019}},{"attributes":{"ID":399242,"DIS_CODE":0,"TOWNNAME":"新化區","LI":"太平里","LIN":"11鄰","STREET":"中正路","SECT":" ","MAREA":" ","LANE":"７０７巷","ALLEY":" ","HOUSE_NO":"３７號之６","E_COORD97":178600.31,"N_COORD97":2549082.2599999998,"ADDRESS":"中正路７０７巷３７號之６","OBJECTID":399218},"geometry":{"x":178600.30999999959,"y":2549082.2600000016}},{"attributes":{"ID":399243,"DIS_CODE":0,"TOWNNAME":"新化區","LI":"太平里","LIN":"11鄰","STREET":"中正路","SECT":" ","MAREA":" ","LANE":"６９１巷","ALLEY":" ","HOUSE_NO":"１０號","E_COORD97":178743.95999999999,"N_COORD97":2549072.25,"ADDRESS":"中正路６９１巷１０號","OBJECTID":399219},"geometry":{"x":178743.95999999903,"y":2549072.2500000019}},{"attributes":{"ID":399244,"DIS_CODE":0,"TOWNNAME":"北區","LI":"新勝里","LIN":"11鄰","STREET":"長榮路","SECT":"五段","MAREA":" ","LANE":"１１７巷","ALLEY":" ","HOUSE_NO":"１２號","E_COORD97":170023.45000000001,"N_COORD97":2545639.2400000002,"ADDRESS":"長榮路五段１１７巷１２號","OBJECTID":399220},"geometry":{"x":170023.45000000112,"y":2545639.2400000002}},{"attributes":{"ID":399245,"DIS_CODE":0,"TOWNNAME":"北區","LI":"新勝里","LIN":"11鄰","STREET":"長榮路","SECT":"五段","MAREA":" ","LANE":"１１７巷","ALLEY":" ","HOUSE_NO":"４號","E_COORD97":170039.79000000001,"N_COORD97":2545646.46,"ADDRESS":"長榮路五段１１７巷４號","OBJECTID":399221},"geometry":{"x":170039.79000000004,"y":2545646.4600000028}},{"attributes":{"ID":399246,"DIS_CODE":0,"TOWNNAME":"北區","LI":"新勝里","LIN":"11鄰","STREET":"長榮路","SECT":"五段","MAREA":" ","LANE":"１１７巷","ALLEY":" ","HOUSE_NO":"６號","E_COORD97":170036.47,"N_COORD97":2545647.5600000001,"ADDRESS":"長榮路五段１１７巷６號","OBJECTID":399222},"geometry":{"x":170036.46999999974,"y":2545647.5600000005}},{"attributes":{"ID":399247,"DIS_CODE":0,"TOWNNAME":"北區","LI":"新勝里","LIN":"11鄰","STREET":"長榮路","SECT":"五段","MAREA":" ","LANE":"１１７巷","ALLEY":" ","HOUSE_NO":"８號","E_COORD97":170033.14999999999,"N_COORD97":2545646.3300000001,"ADDRESS":"長榮路五段１１７巷８號","OBJECTID":399223},"geometry":{"x":170033.15000000037,"y":2545646.3300000038}},{"attributes":{"ID":399248,"DIS_CODE":0,"TOWNNAME":"中西區","LI":"西賢里","LIN":"9鄰","STREET":"西賢一街","SECT":" ","MAREA":" ","LANE":"８８巷","ALLEY":" ","HOUSE_NO":"１號","E_COORD97":165732.63,"N_COORD97":2544628.5299999998,"ADDRESS":"西賢一街８８巷１號","OBJECTID":399224},"geometry":{"x":165732.63000000082,"y":2544628.5299999993}},{"attributes":{"ID":399249,"DIS_CODE":0,"TOWNNAME":"北區","LI":"新勝里","LIN":"11鄰","STREET":"長榮路","SECT":"五段","MAREA":" ","LANE":"１５１巷","ALLEY":" ","HOUSE_NO":"１０號","E_COORD97":170038.10999999999,"N_COORD97":2545725.1499999999,"ADDRESS":"長榮路五段１５１巷１０號","OBJECTID":399225},"geometry":{"x":170038.11000000034,"y":2545725.1500000004}},{"attributes":{"ID":399250,"DIS_CODE":0,"TOWNNAME":"北區","LI":"新勝里","LIN":"11鄰","STREET":"長榮路","SECT":"五段","MAREA":" ","LANE":"１５１巷","ALLEY":" ","HOUSE_NO":"１２號","E_COORD97":170033.88,"N_COORD97":2545724.6299999999,"ADDRESS":"長榮路五段１５１巷１２號","OBJECTID":399226},"geometry":{"x":170033.87999999989,"y":2545724.6300000008}},{"attributes":{"ID":399251,"DIS_CODE":0,"TOWNNAME":"北區","LI":"新勝里","LIN":"11鄰","STREET":"長榮路","SECT":"五段","MAREA":" ","LANE":"１５１巷","ALLEY":" ","HOUSE_NO":"１４號","E_COORD97":170028.41,"N_COORD97":2545723.9199999999,"ADDRESS":"長榮路五段１５１巷１４號","OBJECTID":399227},"geometry":{"x":170028.41000000108,"y":2545723.9200000018}},{"attributes":{"ID":399252,"DIS_CODE":0,"TOWNNAME":"北區","LI":"新勝里","LIN":"11鄰","STREET":"長榮路","SECT":"五段","MAREA":" ","LANE":"１５１巷","ALLEY":" ","HOUSE_NO":"２號","E_COORD97":170055.75,"N_COORD97":2545727.8199999998,"ADDRESS":"長榮路五段１５１巷２號","OBJECTID":399228},"geometry":{"x":170055.75,"y":2545727.820000004}},{"attributes":{"ID":399253,"DIS_CODE":0,"TOWNNAME":"北區","LI":"新勝里","LIN":"11鄰","STREET":"長榮路","SECT":"五段","MAREA":" ","LANE":"１５１巷","ALLEY":" ","HOUSE_NO":"６號","E_COORD97":170046.89999999999,"N_COORD97":2545726.4500000002,"ADDRESS":"長榮路五段１５１巷６號","OBJECTID":399229},"geometry":{"x":170046.90000000224,"y":2545726.4500000011}},{"attributes":{"ID":399254,"DIS_CODE":0,"TOWNNAME":"北區","LI":"新勝里","LIN":"11鄰","STREET":"長榮路","SECT":"五段","MAREA":" ","LANE":"１５１巷","ALLEY":" ","HOUSE_NO":"８號","E_COORD97":170043.39999999999,"N_COORD97":2545726.1400000001,"ADDRESS":"長榮路五段１５１巷８號","OBJECTID":399230},"geometry":{"x":170043.39999999944,"y":2545726.1400000043}},{"attributes":{"ID":399255,"DIS_CODE":0,"TOWNNAME":"北區","LI":"新勝里","LIN":"11鄰","STREET":"長榮路","SECT":"五段","MAREA":" ","LANE":"１６３巷","ALLEY":" ","HOUSE_NO":"１０號","E_COORD97":170031.51999999999,"N_COORD97":2545756.6800000002,"ADDRESS":"長榮路五段１６３巷１０號","OBJECTID":399231},"geometry":{"x":170031.51999999862,"y":2545756.6800000016}},{"attributes":{"ID":399256,"DIS_CODE":0,"TOWNNAME":"北區","LI":"新勝里","LIN":"11鄰","STREET":"長榮路","SECT":"五段","MAREA":" ","LANE":"１６３巷","ALLEY":" ","HOUSE_NO":"１１號","E_COORD97":170031.32000000001,"N_COORD97":2545750.1099999999,"ADDRESS":"長榮路五段１６３巷１１號","OBJECTID":399232},"geometry":{"x":170031.3200000003,"y":2545750.1100000013}},{"attributes":{"ID":399257,"DIS_CODE":0,"TOWNNAME":"北區","LI":"新勝里","LIN":"11鄰","STREET":"長榮路","SECT":"五段","MAREA":" ","LANE":"１６３巷","ALLEY":" ","HOUSE_NO":"１２號","E_COORD97":170027.60999999999,"N_COORD97":2545756.6200000001,"ADDRESS":"長榮路五段１６３巷１２號","OBJECTID":399233},"geometry":{"x":170027.61000000127,"y":2545756.620000001}},{"attributes":{"ID":399258,"DIS_CODE":0,"TOWNNAME":"北區","LI":"新勝里","LIN":"11鄰","STREET":"長榮路","SECT":"五段","MAREA":" ","LANE":"１６３巷","ALLEY":" ","HOUSE_NO":"１３號","E_COORD97":170026.04999999999,"N_COORD97":2545749.46,"ADDRESS":"長榮路五段１６３巷１３號","OBJECTID":399234},"geometry":{"x":170026.04999999981,"y":2545749.4600000028}},{"attributes":{"ID":399259,"DIS_CODE":0,"TOWNNAME":"北區","LI":"新勝里","LIN":"11鄰","STREET":"長榮路","SECT":"五段","MAREA":" ","LANE":"１６３巷","ALLEY":" ","HOUSE_NO":"１號","E_COORD97":170053.70999999999,"N_COORD97":2545753.4199999999,"ADDRESS":"長榮路五段１６３巷１號","OBJECTID":399235},"geometry":{"x":170053.70999999996,"y":2545753.4199999999}},{"attributes":{"ID":399260,"DIS_CODE":0,"TOWNNAME":"東區","LI":"崇成里","LIN":"13鄰","STREET":"崇德路","SECT":" ","MAREA":" ","LANE":" ","ALLEY":" ","HOUSE_NO":"５８２號","E_COORD97":170773.84,"N_COORD97":2541343.02,"ADDRESS":"崇德路５８２號","OBJECTID":399236},"geometry":{"x":170773.83999999892,"y":2541343.0200000014}},{"attributes":{"ID":399261,"DIS_CODE":0,"TOWNNAME":"北區","LI":"新勝里","LIN":"11鄰","STREET":"長榮路","SECT":"五段","MAREA":" ","LANE":"１６３巷","ALLEY":" ","HOUSE_NO":"２號","E_COORD97":170048.57000000001,"N_COORD97":2545759.2200000002,"ADDRESS":"長榮路五段１６３巷２號","OBJECTID":399237},"geometry":{"x":170048.5700000003,"y":2545759.2200000044}},{"attributes":{"ID":399262,"DIS_CODE":0,"TOWNNAME":"北區","LI":"新勝里","LIN":"11鄰","STREET":"長榮路","SECT":"五段","MAREA":" ","LANE":"１６３巷","ALLEY":" ","HOUSE_NO":"３號","E_COORD97":170049.54999999999,"N_COORD97":2545752.8999999999,"ADDRESS":"長榮路五段１６３巷３號","OBJECTID":399238},"geometry":{"x":170049.54999999981,"y":2545752.9000000004}},{"attributes":{"ID":399263,"DIS_CODE":0,"TOWNNAME":"北區","LI":"新勝里","LIN":"11鄰","STREET":"長榮路","SECT":"五段","MAREA":" ","LANE":"１６３巷","ALLEY":" ","HOUSE_NO":"４號","E_COORD97":170044.26999999999,"N_COORD97":2545758.7000000002,"ADDRESS":"長榮路五段１６３巷４號","OBJECTID":399239},"geometry":{"x":170044.27000000048,"y":2545758.7000000011}},{"attributes":{"ID":399264,"DIS_CODE":0,"TOWNNAME":"北區","LI":"新勝里","LIN":"11鄰","STREET":"長榮路","SECT":"五段","MAREA":" ","LANE":"１６３巷","ALLEY":" ","HOUSE_NO":"５號","E_COORD97":170044.92000000001,"N_COORD97":2545752.0600000001,"ADDRESS":"長榮路五段１６３巷５號","OBJECTID":399240},"geometry":{"x":170044.92000000086,"y":2545752.0600000005}},{"attributes":{"ID":399265,"DIS_CODE":0,"TOWNNAME":"北區","LI":"新勝里","LIN":"11鄰","STREET":"長榮路","SECT":"五段","MAREA":" ","LANE":"１６３巷","ALLEY":" ","HOUSE_NO":"６號","E_COORD97":170040.82000000001,"N_COORD97":2545758.1099999999,"ADDRESS":"長榮路五段１６３巷６號","OBJECTID":399241},"geometry":{"x":170040.82000000123,"y":2545758.1099999994}},{"attributes":{"ID":399266,"DIS_CODE":0,"TOWNNAME":"北區","LI":"新勝里","LIN":"11鄰","STREET":"長榮路","SECT":"五段","MAREA":" ","LANE":"１６３巷","ALLEY":" ","HOUSE_NO":"７號","E_COORD97":170040.82000000001,"N_COORD97":2545751.54,"ADDRESS":"長榮路五段１６３巷７號","OBJECTID":399242},"geometry":{"x":170040.82000000123,"y":2545751.5399999991}},{"attributes":{"ID":399267,"DIS_CODE":0,"TOWNNAME":"北區","LI":"新勝里","LIN":"11鄰","STREET":"長榮路","SECT":"五段","MAREA":" ","LANE":"１６３巷","ALLEY":" ","HOUSE_NO":"８號","E_COORD97":170036.32999999999,"N_COORD97":2545757.79,"ADDRESS":"長榮路五段１６３巷８號","OBJECTID":399243},"geometry":{"x":170036.33000000007,"y":2545757.790000001}},{"attributes":{"ID":399268,"DIS_CODE":0,"TOWNNAME":"北區","LI":"新勝里","LIN":"11鄰","STREET":"長榮路","SECT":"五段","MAREA":" ","LANE":"１６３巷","ALLEY":" ","HOUSE_NO":"９號","E_COORD97":170035.94,"N_COORD97":2545750.7599999998,"ADDRESS":"長榮路五段１６３巷９號","OBJECTID":399244},"geometry":{"x":170035.94000000041,"y":2545750.7599999998}},{"attributes":{"ID":399269,"DIS_CODE":0,"TOWNNAME":"北區","LI":"裕民里","LIN":"11鄰","STREET":"成功路","SECT":" ","MAREA":" ","LANE":"６１４巷","ALLEY":" ","HOUSE_NO":"４５號","E_COORD97":167550.19,"N_COORD97":2544895.9700000002,"ADDRESS":"成功路６１４巷４５號","OBJECTID":399245},"geometry":{"x":167550.19000000134,"y":2544895.9700000007}},{"attributes":{"ID":399270,"DIS_CODE":0,"TOWNNAME":"南區","LI":"興農里","LIN":"11鄰","STREET":"明興路","SECT":" ","MAREA":" ","LANE":"１１５１巷","ALLEY":" ","HOUSE_NO":"１０號之１","E_COORD97":166573.81,"N_COORD97":2536427.5800000001,"ADDRESS":"明興路１１５１巷１０號之１","OBJECTID":399246},"geometry":{"x":166573.81000000052,"y":2536427.5800000019}},{"attributes":{"ID":399271,"DIS_CODE":0,"TOWNNAME":"中西區","LI":"西賢里","LIN":"10鄰","STREET":"西賢一街","SECT":" ","MAREA":" ","LANE":"１４８巷","ALLEY":" ","HOUSE_NO":"１６號","E_COORD97":165760.44,"N_COORD97":2544736.1000000001,"ADDRESS":"西賢一街１４８巷１６號","OBJECTID":399247},"geometry":{"x":165760.44000000041,"y":2544736.1000000015}},{"attributes":{"ID":399272,"DIS_CODE":0,"TOWNNAME":"南區","LI":"興農里","LIN":"11鄰","STREET":"明興路","SECT":" ","MAREA":" ","LANE":"１１５１巷","ALLEY":" ","HOUSE_NO":"１０號之２","E_COORD97":166577.54000000001,"N_COORD97":2536424.5899999999,"ADDRESS":"明興路１１５１巷１０號之２","OBJECTID":399248},"geometry":{"x":166577.54000000097,"y":2536424.5899999999}},{"attributes":{"ID":399273,"DIS_CODE":0,"TOWNNAME":"南區","LI":"興農里","LIN":"11鄰","STREET":"明興路","SECT":" ","MAREA":" ","LANE":"１１５１巷","ALLEY":" ","HOUSE_NO":"１０號之３","E_COORD97":166582.26999999999,"N_COORD97":2536427.3300000001,"ADDRESS":"明興路１１５１巷１０號之３","OBJECTID":399249},"geometry":{"x":166582.27000000048,"y":2536427.3300000001}},{"attributes":{"ID":399274,"DIS_CODE":0,"TOWNNAME":"南區","LI":"興農里","LIN":"11鄰","STREET":"明興路","SECT":" ","MAREA":" ","LANE":"１１５１巷","ALLEY":" ","HOUSE_NO":"６號","E_COORD97":166561.12,"N_COORD97":2536424.5899999999,"ADDRESS":"明興路１１５１巷６號","OBJECTID":399250},"geometry":{"x":166561.12000000011,"y":2536424.5899999999}},{"attributes":{"ID":399275,"DIS_CODE":0,"TOWNNAME":"南區","LI":"興農里","LIN":"11鄰","STREET":"明興路","SECT":" ","MAREA":" ","LANE":"１１５７巷","ALLEY":" ","HOUSE_NO":"７號","E_COORD97":166568.82999999999,"N_COORD97":2536401.23,"ADDRESS":"明興路１１５７巷７號","OBJECTID":399251},"geometry":{"x":166568.83000000101,"y":2536401.2300000004}},{"attributes":{"ID":399276,"DIS_CODE":0,"TOWNNAME":"南區","LI":"興農里","LIN":"11鄰","STREET":"明興路","SECT":" ","MAREA":" ","LANE":"１１５７巷","ALLEY":" ","HOUSE_NO":"９號","E_COORD97":166573.06,"N_COORD97":2536403.7200000002,"ADDRESS":"明興路１１５７巷９號","OBJECTID":399252},"geometry":{"x":166573.05999999959,"y":2536403.7200000007}},{"attributes":{"ID":399277,"DIS_CODE":0,"TOWNNAME":"南區","LI":"興農里","LIN":"11鄰","STREET":"明興路","SECT":" ","MAREA":" ","LANE":"１１５１巷","ALLEY":" ","HOUSE_NO":"４號","E_COORD97":166557.14000000001,"N_COORD97":2536428.0699999998,"ADDRESS":"明興路１１５１巷４號","OBJECTID":399253},"geometry":{"x":166557.13999999966,"y":2536428.0700000003}},{"attributes":{"ID":399278,"DIS_CODE":0,"TOWNNAME":"南區","LI":"興農里","LIN":"11鄰","STREET":"明興路","SECT":" ","MAREA":" ","LANE":"１１８１巷","ALLEY":" ","HOUSE_NO":"５號之１","E_COORD97":166603.89999999999,"N_COORD97":2536362.8700000001,"ADDRESS":"明興路１１８１巷５號之１","OBJECTID":399254},"geometry":{"x":166603.90000000224,"y":2536362.870000001}},{"attributes":{"ID":399279,"DIS_CODE":0,"TOWNNAME":"南區","LI":"興農里","LIN":"11鄰","STREET":"明興路","SECT":" ","MAREA":" ","LANE":"１１８１巷","ALLEY":" ","HOUSE_NO":"９５號","E_COORD97":167110.94,"N_COORD97":2536579.6800000002,"ADDRESS":"明興路１１８１巷９５號","OBJECTID":399255},"geometry":{"x":167110.94000000134,"y":2536579.6799999997}},{"attributes":{"ID":399280,"DIS_CODE":0,"TOWNNAME":"鹽水區","LI":"水仙里","LIN":"11鄰","STREET":"西門路","SECT":" ","MAREA":" ","LANE":"２４巷","ALLEY":" ","HOUSE_NO":"１號","E_COORD97":174969.88,"N_COORD97":2579874.1299999999,"ADDRESS":"西門路２４巷１號","OBJECTID":399256},"geometry":{"x":174969.88000000082,"y":2579874.129999999}},{"attributes":{"ID":399281,"DIS_CODE":0,"TOWNNAME":"鹽水區","LI":"水仙里","LIN":"11鄰","STREET":"西門路","SECT":" ","MAREA":" ","LANE":"２４巷","ALLEY":" ","HOUSE_NO":"２之１號","E_COORD97":174992.17000000001,"N_COORD97":2579866.3799999999,"ADDRESS":"西門路２４巷２之１號","OBJECTID":399257},"geometry":{"x":174992.16999999993,"y":2579866.379999999}},{"attributes":{"ID":399282,"DIS_CODE":0,"TOWNNAME":"鹽水區","LI":"水仙里","LIN":"11鄰","STREET":"西門路","SECT":" ","MAREA":" ","LANE":"２４巷","ALLEY":" ","HOUSE_NO":"２號之２","E_COORD97":174984.10999999999,"N_COORD97":2579863.5899999999,"ADDRESS":"西門路２４巷２號之２","OBJECTID":399258},"geometry":{"x":174984.11000000127,"y":2579863.5900000017}},{"attributes":{"ID":399283,"DIS_CODE":0,"TOWNNAME":"鹽水區","LI":"水仙里","LIN":"11鄰","STREET":"西門路","SECT":" ","MAREA":" ","LANE":"２４巷","ALLEY":" ","HOUSE_NO":"２號","E_COORD97":174999.84,"N_COORD97":2579865.7400000002,"ADDRESS":"西門路２４巷２號","OBJECTID":399259},"geometry":{"x":174999.83999999985,"y":2579865.7399999984}},{"attributes":{"ID":399284,"DIS_CODE":0,"TOWNNAME":"鹽水區","LI":"水仙里","LIN":"11鄰","STREET":"西門路","SECT":" ","MAREA":" ","LANE":"２４巷","ALLEY":" ","HOUSE_NO":"３號","E_COORD97":175007.79999999999,"N_COORD97":2579864.6499999999,"ADDRESS":"西門路２４巷３號","OBJECTID":399260},"geometry":{"x":175007.80000000075,"y":2579864.6500000022}},{"attributes":{"ID":399285,"DIS_CODE":0,"TOWNNAME":"鹽水區","LI":"水仙里","LIN":"11鄰","STREET":"西門路","SECT":" ","MAREA":" ","LANE":"２４巷","ALLEY":" ","HOUSE_NO":"４之１號","E_COORD97":174964.28,"N_COORD97":2579844.8599999999,"ADDRESS":"西門路２４巷４之１號","OBJECTID":399261},"geometry":{"x":174964.28000000119,"y":2579844.8600000013}},{"attributes":{"ID":399286,"DIS_CODE":0,"TOWNNAME":"鹽水區","LI":"水仙里","LIN":"11鄰","STREET":"西門路","SECT":" ","MAREA":" ","LANE":"２４巷","ALLEY":" ","HOUSE_NO":"４號","E_COORD97":174960.42999999999,"N_COORD97":2579845.6499999999,"ADDRESS":"西門路２４巷４號","OBJECTID":399262},"geometry":{"x":174960.43000000156,"y":2579845.6500000004}},{"attributes":{"ID":399287,"DIS_CODE":0,"TOWNNAME":"鹽水區","LI":"水仙里","LIN":"11鄰","STREET":"西門路","SECT":" ","MAREA":" ","LANE":"２４巷","ALLEY":" ","HOUSE_NO":"５之１號","E_COORD97":174978.07999999999,"N_COORD97":2579846.73,"ADDRESS":"西門路２４巷５之１號","OBJECTID":399263},"geometry":{"x":174978.08000000007,"y":2579846.7300000023}},{"attributes":{"ID":399288,"DIS_CODE":0,"TOWNNAME":"鹽水區","LI":"水仙里","LIN":"11鄰","STREET":"西門路","SECT":" ","MAREA":" ","LANE":"２４巷","ALLEY":" ","HOUSE_NO":"５號之１","E_COORD97":174978.07999999999,"N_COORD97":2579846.73,"ADDRESS":"西門路２４巷５號之１","OBJECTID":399264},"geometry":{"x":174978.08000000007,"y":2579846.7300000023}},{"attributes":{"ID":399289,"DIS_CODE":0,"TOWNNAME":"鹽水區","LI":"水仙里","LIN":"11鄰","STREET":"西門路","SECT":" ","MAREA":" ","LANE":"２４巷","ALLEY":" ","HOUSE_NO":"５之２號","E_COORD97":174985.09,"N_COORD97":2579841.5600000001,"ADDRESS":"西門路２４巷５之２號","OBJECTID":399265},"geometry":{"x":174985.09000000078,"y":2579841.5600000024}},{"attributes":{"ID":399290,"DIS_CODE":0,"TOWNNAME":"鹽水區","LI":"水仙里","LIN":"11鄰","STREET":"西門路","SECT":" ","MAREA":" ","LANE":"２４巷","ALLEY":" ","HOUSE_NO":"５號之２","E_COORD97":174985.09,"N_COORD97":2579841.5600000001,"ADDRESS":"西門路２４巷５號之２","OBJECTID":399266},"geometry":{"x":174985.09000000078,"y":2579841.5600000024}},{"attributes":{"ID":399291,"DIS_CODE":0,"TOWNNAME":"鹽水區","LI":"水仙里","LIN":"11鄰","STREET":"西門路","SECT":" ","MAREA":" ","LANE":"２４巷","ALLEY":" ","HOUSE_NO":"５之３號","E_COORD97":174989.14999999999,"N_COORD97":2579840.3100000001,"ADDRESS":"西門路２４巷５之３號","OBJECTID":399267},"geometry":{"x":174989.1500000013,"y":2579840.3100000024}},{"attributes":{"ID":399292,"DIS_CODE":0,"TOWNNAME":"鹽水區","LI":"水仙里","LIN":"11鄰","STREET":"西門路","SECT":" ","MAREA":" ","LANE":"２４巷","ALLEY":" ","HOUSE_NO":"５號之３","E_COORD97":174989.14999999999,"N_COORD97":2579840.3100000001,"ADDRESS":"西門路２４巷５號之３","OBJECTID":399268},"geometry":{"x":174989.1500000013,"y":2579840.3100000024}},{"attributes":{"ID":399293,"DIS_CODE":0,"TOWNNAME":"鹽水區","LI":"水仙里","LIN":"11鄰","STREET":"西門路","SECT":" ","MAREA":" ","LANE":"２４巷","ALLEY":" ","HOUSE_NO":"５之４號","E_COORD97":174993.57000000001,"N_COORD97":2579838.8799999999,"ADDRESS":"西門路２４巷５之４號","OBJECTID":399269},"geometry":{"x":174993.5700000003,"y":2579838.879999999}},{"attributes":{"ID":399294,"DIS_CODE":0,"TOWNNAME":"鹽水區","LI":"水仙里","LIN":"11鄰","STREET":"西門路","SECT":" ","MAREA":" ","LANE":"２４巷","ALLEY":" ","HOUSE_NO":"５號之５","E_COORD97":174998.29999999999,"N_COORD97":2579837.0499999998,"ADDRESS":"西門路２４巷５號之５","OBJECTID":399270},"geometry":{"x":174998.29999999981,"y":2579837.0499999989}},{"attributes":{"ID":399295,"DIS_CODE":0,"TOWNNAME":"鹽水區","LI":"水仙里","LIN":"11鄰","STREET":"西門路","SECT":" ","MAREA":" ","LANE":"２４巷","ALLEY":" ","HOUSE_NO":"５號","E_COORD97":174968.14999999999,"N_COORD97":2579843.9900000002,"ADDRESS":"西門路２４巷５號","OBJECTID":399271},"geometry":{"x":174968.1500000013,"y":2579843.9900000039}},{"attributes":{"ID":399296,"DIS_CODE":0,"TOWNNAME":"安平區","LI":"西門里","LIN":"11鄰","STREET":"古堡街","SECT":" ","MAREA":" ","LANE":"８１巷","ALLEY":" ","HOUSE_NO":"１１號","E_COORD97":163940.14999999999,"N_COORD97":2544806.3500000001,"ADDRESS":"古堡街８１巷１１號","OBJECTID":399272},"geometry":{"x":163940.15000000037,"y":2544806.3500000015}},{"attributes":{"ID":399297,"DIS_CODE":0,"TOWNNAME":"安平區","LI":"西門里","LIN":"11鄰","STREET":"古堡街","SECT":" ","MAREA":" ","LANE":"８１巷","ALLEY":" ","HOUSE_NO":"１３號","E_COORD97":163932.79000000001,"N_COORD97":2544804.3500000001,"ADDRESS":"古堡街８１巷１３號","OBJECTID":399273},"geometry":{"x":163932.7900000019,"y":2544804.3499999996}},{"attributes":{"ID":399298,"DIS_CODE":0,"TOWNNAME":"安平區","LI":"西門里","LIN":"11鄰","STREET":"古堡街","SECT":" ","MAREA":" ","LANE":"８１巷","ALLEY":" ","HOUSE_NO":"１號","E_COORD97":163982.64999999999,"N_COORD97":2544814.6600000001,"ADDRESS":"古堡街８１巷１號","OBJECTID":399274},"geometry":{"x":163982.65000000037,"y":2544814.660000002}},{"attributes":{"ID":399299,"DIS_CODE":0,"TOWNNAME":"中西區","LI":"開山里","LIN":"6鄰","STREET":"府前路","SECT":"一段","MAREA":" ","LANE":"８５巷","ALLEY":" ","HOUSE_NO":"４號","E_COORD97":168936.01999999999,"N_COORD97":2543248.8799999999,"ADDRESS":"府前路一段８５巷４號","OBJECTID":399275},"geometry":{"x":168936.01999999955,"y":2543248.8800000008}},{"attributes":{"ID":399300,"DIS_CODE":0,"TOWNNAME":"中西區","LI":"開山里","LIN":"6鄰","STREET":"府前路","SECT":"一段","MAREA":" ","LANE":"８５巷","ALLEY":" ","HOUSE_NO":"６號","E_COORD97":168935.92000000001,"N_COORD97":2543245.6299999999,"ADDRESS":"府前路一段８５巷６號","OBJECTID":399276},"geometry":{"x":168935.92000000179,"y":2543245.6299999971}},{"attributes":{"ID":399301,"DIS_CODE":0,"TOWNNAME":"中西區","LI":"開山里","LIN":"6鄰","STREET":"府前路","SECT":"一段","MAREA":" ","LANE":"８５巷","ALLEY":" ","HOUSE_NO":"８號","E_COORD97":168935.35000000001,"N_COORD97":2543242.0899999999,"ADDRESS":"府前路一段８５巷８號","OBJECTID":399277},"geometry":{"x":168935.34999999963,"y":2543242.0899999999}},{"attributes":{"ID":399302,"DIS_CODE":0,"TOWNNAME":"永康區","LI":"永康里","LIN":"11鄰","STREET":"中山南路","SECT":" ","MAREA":" ","LANE":"１０５４巷","ALLEY":" ","HOUSE_NO":"３４號","E_COORD97":173727.23000000001,"N_COORD97":2547157.7000000002,"ADDRESS":"中山南路１０５４巷３４號","OBJECTID":399278},"geometry":{"x":173727.23000000138,"y":2547157.6999999993}},{"attributes":{"ID":399303,"DIS_CODE":0,"TOWNNAME":"鹽水區","LI":"武廟里","LIN":"11鄰","STREET":"武廟路","SECT":" ","MAREA":" ","LANE":"７０巷","ALLEY":" ","HOUSE_NO":"１２號","E_COORD97":174975.51999999999,"N_COORD97":2580076.6600000001,"ADDRESS":"武廟路７０巷１２號","OBJECTID":399279},"geometry":{"x":174975.52000000048,"y":2580076.6600000039}},{"attributes":{"ID":399304,"DIS_CODE":0,"TOWNNAME":"鹽水區","LI":"武廟里","LIN":"11鄰","STREET":"武廟路","SECT":" ","MAREA":" ","LANE":"７０巷","ALLEY":" ","HOUSE_NO":"２號","E_COORD97":174968.17000000001,"N_COORD97":2580124.9399999999,"ADDRESS":"武廟路７０巷２號","OBJECTID":399280},"geometry":{"x":174968.17000000086,"y":2580124.9400000032}},{"attributes":{"ID":399305,"DIS_CODE":0,"TOWNNAME":"鹽水區","LI":"武廟里","LIN":"11鄰","STREET":"武廟路","SECT":" ","MAREA":" ","LANE":"７０巷","ALLEY":" ","HOUSE_NO":"３號","E_COORD97":174959.51000000001,"N_COORD97":2580119.4500000002,"ADDRESS":"武廟路７０巷３號","OBJECTID":399281},"geometry":{"x":174959.50999999978,"y":2580119.4500000011}},{"attributes":{"ID":399306,"DIS_CODE":0,"TOWNNAME":"鹽水區","LI":"武廟里","LIN":"11鄰","STREET":"武廟路","SECT":" ","MAREA":" ","LANE":"７０巷","ALLEY":" ","HOUSE_NO":"４號","E_COORD97":174968.75,"N_COORD97":2580117.75,"ADDRESS":"武廟路７０巷４號","OBJECTID":399282},"geometry":{"x":174968.75000000186,"y":2580117.7500000019}},{"attributes":{"ID":399307,"DIS_CODE":0,"TOWNNAME":"鹽水區","LI":"武廟里","LIN":"11鄰","STREET":"武廟路","SECT":" ","MAREA":" ","LANE":"７０巷","ALLEY":" ","HOUSE_NO":"６號","E_COORD97":174985.37,"N_COORD97":2580115.1600000001,"ADDRESS":"武廟路７０巷６號","OBJECTID":399283},"geometry":{"x":174985.37000000104,"y":2580115.160000002}},{"attributes":{"ID":399308,"DIS_CODE":0,"TOWNNAME":"鹽水區","LI":"武廟里","LIN":"11鄰","STREET":"武廟路","SECT":" ","MAREA":" ","LANE":"７０巷","ALLEY":" ","HOUSE_NO":"９號","E_COORD97":174967.51999999999,"N_COORD97":2580090.3700000001,"ADDRESS":"武廟路７０巷９號","OBJECTID":399284},"geometry":{"x":174967.51999999955,"y":2580090.3700000029}},{"attributes":{"ID":399309,"DIS_CODE":0,"TOWNNAME":"中西區","LI":"開山里","LIN":"7鄰","STREET":"開山路","SECT":" ","MAREA":" ","LANE":"１２７巷","ALLEY":" ","HOUSE_NO":"９４號之１","E_COORD97":169020.78,"N_COORD97":2543081.4700000002,"ADDRESS":"開山路１２７巷９４號之１","OBJECTID":399285},"geometry":{"x":169020.78000000119,"y":2543081.4700000007}},{"attributes":{"ID":399310,"DIS_CODE":0,"TOWNNAME":"中西區","LI":"開山里","LIN":"7鄰","STREET":"開山路","SECT":" ","MAREA":" ","LANE":"１２７巷","ALLEY":" ","HOUSE_NO":"９６號","E_COORD97":169031.64000000001,"N_COORD97":2543072.3799999999,"ADDRESS":"開山路１２７巷９６號","OBJECTID":399286},"geometry":{"x":169031.63999999966,"y":2543072.3800000008}},{"attributes":{"ID":399311,"DIS_CODE":0,"TOWNNAME":"中西區","LI":"開山里","LIN":"7鄰","STREET":"開山路","SECT":" ","MAREA":" ","LANE":"１２７巷","ALLEY":" ","HOUSE_NO":"９８號","E_COORD97":169033.67999999999,"N_COORD97":2543078.48,"ADDRESS":"開山路１２７巷９８號","OBJECTID":399287},"geometry":{"x":169033.6799999997,"y":2543078.4800000004}},{"attributes":{"ID":399312,"DIS_CODE":0,"TOWNNAME":"北區","LI":"大山里","LIN":"11鄰","STREET":"和緯路","SECT":"一段","MAREA":" ","LANE":"１７６巷","ALLEY":" ","HOUSE_NO":"１５號","E_COORD97":169309.57999999999,"N_COORD97":2545652.9300000002,"ADDRESS":"和緯路一段１７６巷１５號","OBJECTID":399288},"geometry":{"x":169309.58000000194,"y":2545652.9300000016}},{"attributes":{"ID":399313,"DIS_CODE":0,"TOWNNAME":"北區","LI":"成德里","LIN":"11鄰","STREET":"育德路","SECT":" ","MAREA":" ","LANE":"２２１巷","ALLEY":" ","HOUSE_NO":"１０號","E_COORD97":168608.95999999999,"N_COORD97":2545754.54,"ADDRESS":"育德路２２１巷１０號","OBJECTID":399289},"geometry":{"x":168608.96000000089,"y":2545754.5399999991}},{"attributes":{"ID":399314,"DIS_CODE":0,"TOWNNAME":"北區","LI":"成德里","LIN":"11鄰","STREET":"育德路","SECT":" ","MAREA":" ","LANE":"２２１巷","ALLEY":" ","HOUSE_NO":"２號","E_COORD97":168622.62,"N_COORD97":2545752,"ADDRESS":"育德路２２１巷２號","OBJECTID":399290},"geometry":{"x":168622.62000000011,"y":2545752}},{"attributes":{"ID":399315,"DIS_CODE":0,"TOWNNAME":"北區","LI":"成德里","LIN":"11鄰","STREET":"育德路","SECT":" ","MAREA":" ","LANE":"２２１巷","ALLEY":" ","HOUSE_NO":"６號","E_COORD97":168618.01000000001,"N_COORD97":2545752.6400000001,"ADDRESS":"育德路２２１巷６號","OBJECTID":399291},"geometry":{"x":168618.00999999978,"y":2545752.6400000006}},{"attributes":{"ID":399316,"DIS_CODE":0,"TOWNNAME":"北區","LI":"成德里","LIN":"11鄰","STREET":"育德路","SECT":" ","MAREA":" ","LANE":"２２１巷","ALLEY":" ","HOUSE_NO":"８號","E_COORD97":168613.09,"N_COORD97":2545753.9100000001,"ADDRESS":"育德路２２１巷８號","OBJECTID":399292},"geometry":{"x":168613.09000000078,"y":2545753.9099999983}},{"attributes":{"ID":399317,"DIS_CODE":0,"TOWNNAME":"北區","LI":"成德里","LIN":"11鄰","STREET":"育德路","SECT":" ","MAREA":" ","LANE":"２２１巷","ALLEY":" ","HOUSE_NO":"１２號","E_COORD97":168604.04000000001,"N_COORD97":2545755.4900000002,"ADDRESS":"育德路２２１巷１２號","OBJECTID":399293},"geometry":{"x":168604.04000000004,"y":2545755.4900000002}},{"attributes":{"ID":399318,"DIS_CODE":0,"TOWNNAME":"北區","LI":"成德里","LIN":"11鄰","STREET":"育德路","SECT":" ","MAREA":" ","LANE":"２２１巷","ALLEY":" ","HOUSE_NO":"１６號","E_COORD97":168599.28,"N_COORD97":2545756.1299999999,"ADDRESS":"育德路２２１巷１６號","OBJECTID":399294},"geometry":{"x":168599.28000000026,"y":2545756.1300000008}},{"attributes":{"ID":399319,"DIS_CODE":0,"TOWNNAME":"北區","LI":"成德里","LIN":"11鄰","STREET":"育德路","SECT":" ","MAREA":" ","LANE":"２２１巷","ALLEY":" ","HOUSE_NO":"１８號","E_COORD97":168594.51999999999,"N_COORD97":2545757.0800000001,"ADDRESS":"育德路２２１巷１８號","OBJECTID":399295},"geometry":{"x":168594.52000000048,"y":2545757.0800000019}},{"attributes":{"ID":399320,"DIS_CODE":0,"TOWNNAME":"北區","LI":"成德里","LIN":"11鄰","STREET":"育德路","SECT":" ","MAREA":" ","LANE":"２２１巷","ALLEY":" ","HOUSE_NO":"２０號","E_COORD97":168589.59,"N_COORD97":2545757.7200000002,"ADDRESS":"育德路２２１巷２０號","OBJECTID":399296},"geometry":{"x":168589.59000000078,"y":2545757.7200000007}},{"attributes":{"ID":399321,"DIS_CODE":0,"TOWNNAME":"北區","LI":"成德里","LIN":"11鄰","STREET":"育德路","SECT":" ","MAREA":" ","LANE":"２２１巷","ALLEY":" ","HOUSE_NO":"２２號","E_COORD97":168585.14999999999,"N_COORD97":2545758.3500000001,"ADDRESS":"育德路２２１巷２２號","OBJECTID":399297},"geometry":{"x":168585.15000000037,"y":2545758.3500000015}},{"attributes":{"ID":399322,"DIS_CODE":0,"TOWNNAME":"北區","LI":"成德里","LIN":"11鄰","STREET":"育德路","SECT":" ","MAREA":" ","LANE":"２２５巷","ALLEY":" ","HOUSE_NO":"１號","E_COORD97":168627.38,"N_COORD97":2545769.9399999999,"ADDRESS":"育德路２２５巷１號","OBJECTID":399298},"geometry":{"x":168627.37999999989,"y":2545769.9399999976}},{"attributes":{"ID":399323,"DIS_CODE":0,"TOWNNAME":"北區","LI":"成德里","LIN":"11鄰","STREET":"育德路","SECT":" ","MAREA":" ","LANE":"２２５巷","ALLEY":" ","HOUSE_NO":"３號","E_COORD97":168623.25,"N_COORD97":2545770.4199999999,"ADDRESS":"育德路２２５巷３號","OBJECTID":399299},"geometry":{"x":168623.25,"y":2545770.4199999999}},{"attributes":{"ID":399324,"DIS_CODE":0,"TOWNNAME":"北區","LI":"成德里","LIN":"11鄰","STREET":"育德路","SECT":" ","MAREA":" ","LANE":"２２５巷","ALLEY":" ","HOUSE_NO":"５號","E_COORD97":168618.81,"N_COORD97":2545771.3700000001,"ADDRESS":"育德路２２５巷５號","OBJECTID":399300},"geometry":{"x":168618.80999999959,"y":2545771.370000001}},{"attributes":{"ID":399325,"DIS_CODE":0,"TOWNNAME":"北區","LI":"成德里","LIN":"11鄰","STREET":"育德路","SECT":" ","MAREA":" ","LANE":"２２５巷","ALLEY":" ","HOUSE_NO":"７號","E_COORD97":168614.04000000001,"N_COORD97":2545772.3199999998,"ADDRESS":"育德路２２５巷７號","OBJECTID":399301},"geometry":{"x":168614.04000000004,"y":2545772.3200000022}},{"attributes":{"ID":399326,"DIS_CODE":0,"TOWNNAME":"北區","LI":"成德里","LIN":"11鄰","STREET":"育德路","SECT":" ","MAREA":" ","LANE":"２２５巷","ALLEY":" ","HOUSE_NO":"９號","E_COORD97":168609.28,"N_COORD97":2545773.4300000002,"ADDRESS":"育德路２２５巷９號","OBJECTID":399302},"geometry":{"x":168609.28000000026,"y":2545773.4299999997}},{"attributes":{"ID":399327,"DIS_CODE":0,"TOWNNAME":"北區","LI":"成德里","LIN":"11鄰","STREET":"育德路","SECT":" ","MAREA":" ","LANE":"２２５巷","ALLEY":" ","HOUSE_NO":"６號","E_COORD97":168627.54000000001,"N_COORD97":2545786.29,"ADDRESS":"育德路２２５巷６號","OBJECTID":399303},"geometry":{"x":168627.54000000097,"y":2545786.2899999991}},{"attributes":{"ID":399328,"DIS_CODE":0,"TOWNNAME":"北區","LI":"成德里","LIN":"11鄰","STREET":"育德路","SECT":" ","MAREA":" ","LANE":"２２５巷","ALLEY":" ","HOUSE_NO":"８號","E_COORD97":168623.73000000001,"N_COORD97":2545787.0899999999,"ADDRESS":"育德路２２５巷８號","OBJECTID":399304},"geometry":{"x":168623.73000000045,"y":2545787.0900000017}},{"attributes":{"ID":399329,"DIS_CODE":0,"TOWNNAME":"北區","LI":"成德里","LIN":"11鄰","STREET":"育德路","SECT":" ","MAREA":" ","LANE":"２２５巷","ALLEY":" ","HOUSE_NO":"１０號","E_COORD97":168619.28,"N_COORD97":2545787.7200000002,"ADDRESS":"育德路２２５巷１０號","OBJECTID":399305},"geometry":{"x":168619.28000000119,"y":2545787.7200000025}},{"attributes":{"ID":399330,"DIS_CODE":0,"TOWNNAME":"北區","LI":"成德里","LIN":"11鄰","STREET":"育德路","SECT":" ","MAREA":" ","LANE":"２２５巷","ALLEY":" ","HOUSE_NO":"１１號","E_COORD97":168603.88,"N_COORD97":2545774.7000000002,"ADDRESS":"育德路２２５巷１１號","OBJECTID":399306},"geometry":{"x":168603.88000000175,"y":2545774.6999999974}},{"attributes":{"ID":399331,"DIS_CODE":0,"TOWNNAME":"北區","LI":"成德里","LIN":"11鄰","STREET":"育德路","SECT":" ","MAREA":" ","LANE":"２２５巷","ALLEY":" ","HOUSE_NO":"１２號","E_COORD97":168614.67999999999,"N_COORD97":2545788.8300000001,"ADDRESS":"育德路２２５巷１２號","OBJECTID":399307},"geometry":{"x":168614.6799999997,"y":2545788.8300000019}},{"attributes":{"ID":399332,"DIS_CODE":0,"TOWNNAME":"北區","LI":"成德里","LIN":"11鄰","STREET":"育德路","SECT":" ","MAREA":" ","LANE":"２２５巷","ALLEY":" ","HOUSE_NO":"１３號","E_COORD97":168598.48999999999,"N_COORD97":2545776.29,"ADDRESS":"育德路２２５巷１３號","OBJECTID":399308},"geometry":{"x":168598.49000000209,"y":2545776.2899999991}},{"attributes":{"ID":399333,"DIS_CODE":0,"TOWNNAME":"北區","LI":"成德里","LIN":"11鄰","STREET":"育德路","SECT":" ","MAREA":" ","LANE":"２２５巷","ALLEY":" ","HOUSE_NO":"１５號","E_COORD97":168593.09,"N_COORD97":2545777.0899999999,"ADDRESS":"育德路２２５巷１５號","OBJECTID":399309},"geometry":{"x":168593.09000000078,"y":2545777.0900000017}},{"attributes":{"ID":399334,"DIS_CODE":0,"TOWNNAME":"北區","LI":"成德里","LIN":"11鄰","STREET":"育德路","SECT":" ","MAREA":" ","LANE":"２２５巷","ALLEY":" ","HOUSE_NO":"１６號","E_COORD97":168610.23000000001,"N_COORD97":2545789.9399999999,"ADDRESS":"育德路２２５巷１６號","OBJECTID":399310},"geometry":{"x":168610.23000000045,"y":2545789.9399999995}},{"attributes":{"ID":399335,"DIS_CODE":0,"TOWNNAME":"北區","LI":"成德里","LIN":"11鄰","STREET":"育德路","SECT":" ","MAREA":" ","LANE":"２２５巷","ALLEY":" ","HOUSE_NO":"１７號","E_COORD97":168588.79999999999,"N_COORD97":2545777.5600000001,"ADDRESS":"育德路２２５巷１７號","OBJECTID":399311},"geometry":{"x":168588.79999999981,"y":2545777.5600000024}},{"attributes":{"ID":399336,"DIS_CODE":0,"TOWNNAME":"北區","LI":"成德里","LIN":"11鄰","STREET":"育德路","SECT":" ","MAREA":" ","LANE":"２２５巷","ALLEY":" ","HOUSE_NO":"１８號","E_COORD97":168604.67999999999,"N_COORD97":2545791.21,"ADDRESS":"育德路２２５巷１８號","OBJECTID":399312},"geometry":{"x":168604.6799999997,"y":2545791.2100000028}},{"attributes":{"ID":399337,"DIS_CODE":0,"TOWNNAME":"北區","LI":"成德里","LIN":"11鄰","STREET":"育德路","SECT":" ","MAREA":" ","LANE":"２２５巷","ALLEY":" ","HOUSE_NO":"１９號","E_COORD97":168583.72,"N_COORD97":2545778.8300000001,"ADDRESS":"育德路２２５巷１９號","OBJECTID":399313},"geometry":{"x":168583.71999999974,"y":2545778.8300000019}},{"attributes":{"ID":399338,"DIS_CODE":0,"TOWNNAME":"北區","LI":"成德里","LIN":"11鄰","STREET":"育德路","SECT":" ","MAREA":" ","LANE":"２２５巷","ALLEY":" ","HOUSE_NO":"２０號","E_COORD97":168599.12,"N_COORD97":2545792.3300000001,"ADDRESS":"育德路２２５巷２０號","OBJECTID":399314},"geometry":{"x":168599.12000000197,"y":2545792.3300000019}},{"attributes":{"ID":399339,"DIS_CODE":0,"TOWNNAME":"中西區","LI":"開山里","LIN":"16鄰","STREET":"大同路","SECT":"一段","MAREA":" ","LANE":"５６巷","ALLEY":" ","HOUSE_NO":"３號","E_COORD97":169113.32000000001,"N_COORD97":2543087.1800000002,"ADDRESS":"大同路一段５６巷３號","OBJECTID":399315},"geometry":{"x":169113.32000000216,"y":2543087.1800000034}},{"attributes":{"ID":399340,"DIS_CODE":0,"TOWNNAME":"中西區","LI":"開山里","LIN":"16鄰","STREET":"大同路","SECT":"一段","MAREA":" ","LANE":"５６巷","ALLEY":" ","HOUSE_NO":"５號","E_COORD97":169109.67000000001,"N_COORD97":2543086.1499999999,"ADDRESS":"大同路一段５６巷５號","OBJECTID":399316},"geometry":{"x":169109.67000000086,"y":2543086.1500000022}},{"attributes":{"ID":399341,"DIS_CODE":0,"TOWNNAME":"中西區","LI":"開山里","LIN":"16鄰","STREET":"大同路","SECT":"一段","MAREA":" ","LANE":"７０巷","ALLEY":" ","HOUSE_NO":"１０號","E_COORD97":169086.73000000001,"N_COORD97":2543057.7200000002,"ADDRESS":"大同路一段７０巷１０號","OBJECTID":399317},"geometry":{"x":169086.73000000045,"y":2543057.7200000025}},{"attributes":{"ID":399342,"DIS_CODE":0,"TOWNNAME":"中西區","LI":"開山里","LIN":"16鄰","STREET":"大同路","SECT":"一段","MAREA":" ","LANE":"７０巷","ALLEY":" ","HOUSE_NO":"１２號","E_COORD97":169078.98000000001,"N_COORD97":2543054.7200000002,"ADDRESS":"大同路一段７０巷１２號","OBJECTID":399318},"geometry":{"x":169078.98000000138,"y":2543054.7200000025}},{"attributes":{"ID":399343,"DIS_CODE":0,"TOWNNAME":"中西區","LI":"開山里","LIN":"16鄰","STREET":"大同路","SECT":"一段","MAREA":" ","LANE":"７０巷","ALLEY":" ","HOUSE_NO":"１８號","E_COORD97":169065.73000000001,"N_COORD97":2543055.4700000002,"ADDRESS":"大同路一段７０巷１８號","OBJECTID":399319},"geometry":{"x":169065.73000000138,"y":2543055.4700000044}},{"attributes":{"ID":399344,"DIS_CODE":0,"TOWNNAME":"中西區","LI":"開山里","LIN":"16鄰","STREET":"大同路","SECT":"一段","MAREA":" ","LANE":"７０巷","ALLEY":" ","HOUSE_NO":"２０號","E_COORD97":169060.48000000001,"N_COORD97":2543053.8500000001,"ADDRESS":"大同路一段７０巷２０號","OBJECTID":399320},"geometry":{"x":169060.48000000138,"y":2543053.8499999996}},{"attributes":{"ID":399345,"DIS_CODE":0,"TOWNNAME":"中西區","LI":"開山里","LIN":"16鄰","STREET":"大同路","SECT":"一段","MAREA":" ","LANE":"７０巷","ALLEY":" ","HOUSE_NO":"２２號","E_COORD97":169055.85000000001,"N_COORD97":2543051.8500000001,"ADDRESS":"大同路一段７０巷２２號","OBJECTID":399321},"geometry":{"x":169055.84999999963,"y":2543051.8500000034}},{"attributes":{"ID":399346,"DIS_CODE":0,"TOWNNAME":"中西區","LI":"開山里","LIN":"16鄰","STREET":"大同路","SECT":"一段","MAREA":" ","LANE":"７０巷","ALLEY":" ","HOUSE_NO":"２４號","E_COORD97":169062.64000000001,"N_COORD97":2543069.9199999999,"ADDRESS":"大同路一段７０巷２４號","OBJECTID":399322},"geometry":{"x":169062.63999999966,"y":2543069.9200000018}},{"attributes":{"ID":399347,"DIS_CODE":0,"TOWNNAME":"中西區","LI":"開山里","LIN":"16鄰","STREET":"大同路","SECT":"一段","MAREA":" ","LANE":"７０巷","ALLEY":" ","HOUSE_NO":"２６號","E_COORD97":169065.20999999999,"N_COORD97":2543073.29,"ADDRESS":"大同路一段７０巷２６號","OBJECTID":399323},"geometry":{"x":169065.21000000089,"y":2543073.290000001}},{"attributes":{"ID":399348,"DIS_CODE":0,"TOWNNAME":"北區","LI":"成德里","LIN":"11鄰","STREET":"育德路","SECT":" ","MAREA":" ","LANE":"２２５巷","ALLEY":" ","HOUSE_NO":"２１號","E_COORD97":168579.44,"N_COORD97":2545779.9399999999,"ADDRESS":"育德路２２５巷２１號","OBJECTID":399324},"geometry":{"x":168579.44000000134,"y":2545779.9399999995}},{"attributes":{"ID":399349,"DIS_CODE":0,"TOWNNAME":"北區","LI":"成德里","LIN":"11鄰","STREET":"育德路","SECT":" ","MAREA":" ","LANE":"２２５巷","ALLEY":" ","HOUSE_NO":"２２號","E_COORD97":168594.20000000001,"N_COORD97":2545793.1200000001,"ADDRESS":"育德路２２５巷２２號","OBJECTID":399325},"geometry":{"x":168594.20000000112,"y":2545793.120000001}},{"attributes":{"ID":399350,"DIS_CODE":0,"TOWNNAME":"北區","LI":"成德里","LIN":"11鄰","STREET":"育德路","SECT":" ","MAREA":" ","LANE":"２２５巷","ALLEY":" ","HOUSE_NO":"２６號","E_COORD97":168589.44,"N_COORD97":2545793.9100000001,"ADDRESS":"育德路２２５巷２６號","OBJECTID":399326},"geometry":{"x":168589.44000000134,"y":2545793.9100000001}},{"attributes":{"ID":399351,"DIS_CODE":0,"TOWNNAME":"北區","LI":"成德里","LIN":"11鄰","STREET":"育德路","SECT":" ","MAREA":" ","LANE":"２２５巷","ALLEY":" ","HOUSE_NO":"２８號","E_COORD97":168583.88,"N_COORD97":2545795.3399999999,"ADDRESS":"育德路２２５巷２８號","OBJECTID":399327},"geometry":{"x":168583.88000000082,"y":2545795.3400000017}},{"attributes":{"ID":399352,"DIS_CODE":0,"TOWNNAME":"北區","LI":"成德里","LIN":"11鄰","STREET":"育德路","SECT":" ","MAREA":" ","LANE":"２２９巷","ALLEY":" ","HOUSE_NO":"１號","E_COORD97":168634.51999999999,"N_COORD97":2545799.3100000001,"ADDRESS":"育德路２２９巷１號","OBJECTID":399328},"geometry":{"x":168634.51999999955,"y":2545799.3100000042}},{"attributes":{"ID":399353,"DIS_CODE":0,"TOWNNAME":"北區","LI":"成德里","LIN":"11鄰","STREET":"育德路","SECT":" ","MAREA":" ","LANE":"２２９巷","ALLEY":" ","HOUSE_NO":"２號","E_COORD97":168638.17000000001,"N_COORD97":2545817.4100000001,"ADDRESS":"育德路２２９巷２號","OBJECTID":399329},"geometry":{"x":168638.17000000086,"y":2545817.4100000001}},{"attributes":{"ID":399354,"DIS_CODE":0,"TOWNNAME":"北區","LI":"成德里","LIN":"11鄰","STREET":"育德路","SECT":" ","MAREA":" ","LANE":"２２９巷","ALLEY":" ","HOUSE_NO":"３號","E_COORD97":168631.51000000001,"N_COORD97":2545800.8999999999,"ADDRESS":"育德路２２９巷３號","OBJECTID":399330},"geometry":{"x":168631.50999999978,"y":2545800.9000000004}},{"attributes":{"ID":399355,"DIS_CODE":0,"TOWNNAME":"北區","LI":"成德里","LIN":"11鄰","STREET":"育德路","SECT":" ","MAREA":" ","LANE":"２２９巷","ALLEY":" ","HOUSE_NO":"５號","E_COORD97":168628.64999999999,"N_COORD97":2545802.1699999999,"ADDRESS":"育德路２２９巷５號","OBJECTID":399331},"geometry":{"x":168628.6500000013,"y":2545802.1699999999}},{"attributes":{"ID":399356,"DIS_CODE":0,"TOWNNAME":"北區","LI":"成德里","LIN":"11鄰","STREET":"育德路","SECT":" ","MAREA":" ","LANE":"２２９巷","ALLEY":" ","HOUSE_NO":"７號","E_COORD97":168625.31,"N_COORD97":2545803.4399999999,"ADDRESS":"育德路２２９巷７號","OBJECTID":399332},"geometry":{"x":168625.30999999959,"y":2545803.4399999995}},{"attributes":{"ID":399357,"DIS_CODE":0,"TOWNNAME":"北區","LI":"成德里","LIN":"11鄰","STREET":"育德路","SECT":" ","MAREA":" ","LANE":"２２９巷","ALLEY":" ","HOUSE_NO":"６號","E_COORD97":168635.63,"N_COORD97":2545818.52,"ADDRESS":"育德路２２９巷６號","OBJECTID":399333},"geometry":{"x":168635.62999999989,"y":2545818.5200000014}},{"attributes":{"ID":399358,"DIS_CODE":0,"TOWNNAME":"北區","LI":"成德里","LIN":"11鄰","STREET":"育德路","SECT":" ","MAREA":" ","LANE":"２２９巷","ALLEY":" ","HOUSE_NO":"８號","E_COORD97":168632.78,"N_COORD97":2545819.6299999999,"ADDRESS":"育德路２２９巷８號","OBJECTID":399334},"geometry":{"x":168632.78000000119,"y":2545819.6300000008}},{"attributes":{"ID":399359,"DIS_CODE":0,"TOWNNAME":"北區","LI":"成德里","LIN":"11鄰","STREET":"育德路","SECT":" ","MAREA":" ","LANE":"２２９巷","ALLEY":" ","HOUSE_NO":"１０號","E_COORD97":168629.28,"N_COORD97":2545820.4199999999,"ADDRESS":"育德路２２９巷１０號","OBJECTID":399335},"geometry":{"x":168629.28000000119,"y":2545820.4199999999}},{"attributes":{"ID":399360,"DIS_CODE":0,"TOWNNAME":"北區","LI":"成德里","LIN":"11鄰","STREET":"育德路","SECT":" ","MAREA":" ","LANE":"２２９巷","ALLEY":" ","HOUSE_NO":"１１號","E_COORD97":168616.26999999999,"N_COORD97":2545805.8199999998,"ADDRESS":"育德路２２９巷１１號","OBJECTID":399336},"geometry":{"x":168616.27000000142,"y":2545805.820000004}},{"attributes":{"ID":399361,"DIS_CODE":0,"TOWNNAME":"北區","LI":"成德里","LIN":"11鄰","STREET":"育德路","SECT":" ","MAREA":" ","LANE":"２２９巷","ALLEY":" ","HOUSE_NO":"１２號","E_COORD97":168625.63,"N_COORD97":2545821.2200000002,"ADDRESS":"育德路２２９巷１２號","OBJECTID":399337},"geometry":{"x":168625.62999999989,"y":2545821.2200000025}},{"attributes":{"ID":399362,"DIS_CODE":0,"TOWNNAME":"中西區","LI":"開山里","LIN":"19鄰","STREET":"開山路","SECT":" ","MAREA":" ","LANE":"２３５巷","ALLEY":" ","HOUSE_NO":"１６號","E_COORD97":169033.85999999999,"N_COORD97":2543013.7999999998,"ADDRESS":"開山路２３５巷１６號","OBJECTID":399338},"geometry":{"x":169033.86000000127,"y":2543013.8000000026}},{"attributes":{"ID":399363,"DIS_CODE":0,"TOWNNAME":"中西區","LI":"開山里","LIN":"19鄰","STREET":"開山路","SECT":" ","MAREA":" ","LANE":"２３５巷","ALLEY":" ","HOUSE_NO":"１８號","E_COORD97":169036.26999999999,"N_COORD97":2543017.4900000002,"ADDRESS":"開山路２３５巷１８號","OBJECTID":399339},"geometry":{"x":169036.26999999955,"y":2543017.4900000039}},{"attributes":{"ID":399364,"DIS_CODE":0,"TOWNNAME":"中西區","LI":"開山里","LIN":"19鄰","STREET":"開山路","SECT":" ","MAREA":" ","LANE":"２３５巷","ALLEY":" ","HOUSE_NO":"２０號","E_COORD97":169047.97,"N_COORD97":2543007.1299999999,"ADDRESS":"開山路２３５巷２０號","OBJECTID":399340},"geometry":{"x":169047.97000000067,"y":2543007.129999999}},{"attributes":{"ID":399365,"DIS_CODE":0,"TOWNNAME":"中西區","LI":"開山里","LIN":"19鄰","STREET":"開山路","SECT":" ","MAREA":" ","LANE":"２３５巷","ALLEY":" ","HOUSE_NO":"２４號","E_COORD97":169055.07999999999,"N_COORD97":2543005.5600000001,"ADDRESS":"開山路２３５巷２４號","OBJECTID":399341},"geometry":{"x":169055.08000000007,"y":2543005.5600000024}},{"attributes":{"ID":399366,"DIS_CODE":0,"TOWNNAME":"中西區","LI":"開山里","LIN":"19鄰","STREET":"開山路","SECT":" ","MAREA":" ","LANE":"２３５巷","ALLEY":" ","HOUSE_NO":"２６號","E_COORD97":169040.10999999999,"N_COORD97":2543020.04,"ADDRESS":"開山路２３５巷２６號","OBJECTID":399342},"geometry":{"x":169040.1100000022,"y":2543020.040000001}},{"attributes":{"ID":399367,"DIS_CODE":0,"TOWNNAME":"中西區","LI":"開山里","LIN":"19鄰","STREET":"開山路","SECT":" ","MAREA":" ","LANE":"２３５巷","ALLEY":" ","HOUSE_NO":"２８號","E_COORD97":169052.79999999999,"N_COORD97":2543012.6600000001,"ADDRESS":"開山路２３５巷２８號","OBJECTID":399343},"geometry":{"x":169052.79999999981,"y":2543012.6600000001}},{"attributes":{"ID":399368,"DIS_CODE":0,"TOWNNAME":"中西區","LI":"開山里","LIN":"19鄰","STREET":"開山路","SECT":" ","MAREA":" ","LANE":"２３５巷","ALLEY":" ","HOUSE_NO":"２８號之１","E_COORD97":169042.38,"N_COORD97":2543023.0299999998,"ADDRESS":"開山路２３５巷２８號之１","OBJECTID":399344},"geometry":{"x":169042.37999999989,"y":2543023.0299999975}},{"attributes":{"ID":399369,"DIS_CODE":0,"TOWNNAME":"中西區","LI":"開山里","LIN":"19鄰","STREET":"開山路","SECT":" ","MAREA":" ","LANE":"２３５巷","ALLEY":" ","HOUSE_NO":"３０號","E_COORD97":169044.79999999999,"N_COORD97":2543027.2799999998,"ADDRESS":"開山路２３５巷３０號","OBJECTID":399345},"geometry":{"x":169044.79999999981,"y":2543027.2799999993}},{"attributes":{"ID":399370,"DIS_CODE":0,"TOWNNAME":"中西區","LI":"開山里","LIN":"19鄰","STREET":"開山路","SECT":" ","MAREA":" ","LANE":"２３５巷","ALLEY":" ","HOUSE_NO":"３２號","E_COORD97":169056.20999999999,"N_COORD97":2543015.3599999999,"ADDRESS":"開山路２３５巷３２號","OBJECTID":399346},"geometry":{"x":169056.21000000089,"y":2543015.3600000013}},{"attributes":{"ID":399371,"DIS_CODE":0,"TOWNNAME":"中西區","LI":"開山里","LIN":"19鄰","STREET":"開山路","SECT":" ","MAREA":" ","LANE":"２３５巷","ALLEY":" ","HOUSE_NO":"３４號","E_COORD97":169046.07999999999,"N_COORD97":2543032.1099999999,"ADDRESS":"開山路２３５巷３４號","OBJECTID":399347},"geometry":{"x":169046.08000000007,"y":2543032.1099999994}},{"attributes":{"ID":399372,"DIS_CODE":0,"TOWNNAME":"中西區","LI":"開山里","LIN":"19鄰","STREET":"開山路","SECT":" ","MAREA":" ","LANE":"２３５巷","ALLEY":" ","HOUSE_NO":"３６號","E_COORD97":169058.48999999999,"N_COORD97":2543017.6299999999,"ADDRESS":"開山路２３５巷３６號","OBJECTID":399348},"geometry":{"x":169058.49000000115,"y":2543017.629999999}},{"attributes":{"ID":399373,"DIS_CODE":0,"TOWNNAME":"北區","LI":"成德里","LIN":"11鄰","STREET":"育德路","SECT":" ","MAREA":" ","LANE":"２２９巷","ALLEY":" ","HOUSE_NO":"１３號","E_COORD97":168611.34,"N_COORD97":2545807.0899999999,"ADDRESS":"育德路２２９巷１３號","OBJECTID":399349},"geometry":{"x":168611.34000000078,"y":2545807.0900000036}},{"attributes":{"ID":399374,"DIS_CODE":0,"TOWNNAME":"北區","LI":"成德里","LIN":"11鄰","STREET":"育德路","SECT":" ","MAREA":" ","LANE":"２２９巷","ALLEY":" ","HOUSE_NO":"１５號","E_COORD97":168607.22,"N_COORD97":2545808.52,"ADDRESS":"育德路２２９巷１５號","OBJECTID":399350},"geometry":{"x":168607.22000000067,"y":2545808.5200000014}},{"attributes":{"ID":399375,"DIS_CODE":0,"TOWNNAME":"北區","LI":"成德里","LIN":"11鄰","STREET":"育德路","SECT":" ","MAREA":" ","LANE":"２２９巷","ALLEY":" ","HOUSE_NO":"１６號","E_COORD97":168621.5,"N_COORD97":2545822.6499999999,"ADDRESS":"育德路２２９巷１６號","OBJECTID":399351},"geometry":{"x":168621.5,"y":2545822.6500000004}},{"attributes":{"ID":399376,"DIS_CODE":0,"TOWNNAME":"北區","LI":"成德里","LIN":"11鄰","STREET":"育德路","SECT":" ","MAREA":" ","LANE":"２２９巷","ALLEY":" ","HOUSE_NO":"１７號","E_COORD97":168602.76999999999,"N_COORD97":2545809.9500000002,"ADDRESS":"育德路２２９巷１７號","OBJECTID":399352},"geometry":{"x":168602.77000000048,"y":2545809.9499999993}},{"attributes":{"ID":399377,"DIS_CODE":0,"TOWNNAME":"北區","LI":"成德里","LIN":"11鄰","STREET":"育德路","SECT":" ","MAREA":" ","LANE":"２２９巷","ALLEY":" ","HOUSE_NO":"１８號","E_COORD97":168617.54000000001,"N_COORD97":2545823.7599999998,"ADDRESS":"育德路２２９巷１８號","OBJECTID":399353},"geometry":{"x":168617.54000000004,"y":2545823.7600000016}},{"attributes":{"ID":399378,"DIS_CODE":0,"TOWNNAME":"北區","LI":"成德里","LIN":"11鄰","STREET":"育德路","SECT":" ","MAREA":" ","LANE":"２２９巷","ALLEY":" ","HOUSE_NO":"１９號","E_COORD97":168598.64000000001,"N_COORD97":2545810.8999999999,"ADDRESS":"育德路２２９巷１９號","OBJECTID":399354},"geometry":{"x":168598.6400000006,"y":2545810.9000000004}},{"attributes":{"ID":399379,"DIS_CODE":0,"TOWNNAME":"北區","LI":"成德里","LIN":"11鄰","STREET":"育德路","SECT":" ","MAREA":" ","LANE":"２２９巷","ALLEY":" ","HOUSE_NO":"２０號","E_COORD97":168613.41,"N_COORD97":2545825.1899999999,"ADDRESS":"育德路２２９巷２０號","OBJECTID":399355},"geometry":{"x":168613.41000000015,"y":2545825.1899999995}},{"attributes":{"ID":399380,"DIS_CODE":0,"TOWNNAME":"北區","LI":"成德里","LIN":"11鄰","STREET":"育德路","SECT":" ","MAREA":" ","LANE":"２２９巷","ALLEY":" ","HOUSE_NO":"２１號","E_COORD97":168594.67999999999,"N_COORD97":2545811.6899999999,"ADDRESS":"育德路２２９巷２１號","OBJECTID":399356},"geometry":{"x":168594.6799999997,"y":2545811.6899999995}},{"attributes":{"ID":399381,"DIS_CODE":0,"TOWNNAME":"北區","LI":"成德里","LIN":"11鄰","STREET":"育德路","SECT":" ","MAREA":" ","LANE":"２２９巷","ALLEY":" ","HOUSE_NO":"２２號","E_COORD97":168609.60000000001,"N_COORD97":2545826.46,"ADDRESS":"育德路２２９巷２２號","OBJECTID":399357},"geometry":{"x":168609.60000000056,"y":2545826.4600000028}},{"attributes":{"ID":399382,"DIS_CODE":0,"TOWNNAME":"北區","LI":"成德里","LIN":"11鄰","STREET":"育德路","SECT":" ","MAREA":" ","LANE":"２２９巷","ALLEY":" ","HOUSE_NO":"２３號","E_COORD97":168590.70999999999,"N_COORD97":2545812.7999999998,"ADDRESS":"育德路２２９巷２３號","OBJECTID":399358},"geometry":{"x":168590.71000000089,"y":2545812.8000000007}},{"attributes":{"ID":399383,"DIS_CODE":0,"TOWNNAME":"北區","LI":"成德里","LIN":"11鄰","STREET":"育德路","SECT":" ","MAREA":" ","LANE":"２２９巷","ALLEY":" ","HOUSE_NO":"２５號","E_COORD97":168586.73999999999,"N_COORD97":2545813.6000000001,"ADDRESS":"育德路２２９巷２５號","OBJECTID":399359},"geometry":{"x":168586.74000000115,"y":2545813.6000000015}},{"attributes":{"ID":399384,"DIS_CODE":0,"TOWNNAME":"北區","LI":"成德里","LIN":"11鄰","STREET":"育德路","SECT":" ","MAREA":" ","LANE":"２２９巷","ALLEY":" ","HOUSE_NO":"２６號","E_COORD97":168605.79000000001,"N_COORD97":2545827.25,"ADDRESS":"育德路２２９巷２６號","OBJECTID":399360},"geometry":{"x":168605.79000000004,"y":2545827.2500000019}},{"attributes":{"ID":399385,"DIS_CODE":0,"TOWNNAME":"北區","LI":"成德里","LIN":"11鄰","STREET":"育德路","SECT":" ","MAREA":" ","LANE":"２２９巷","ALLEY":" ","HOUSE_NO":"２７號","E_COORD97":168583.09,"N_COORD97":2545814.3900000001,"ADDRESS":"育德路２２９巷２７號","OBJECTID":399361},"geometry":{"x":168583.08999999985,"y":2545814.3900000006}},{"attributes":{"ID":399386,"DIS_CODE":0,"TOWNNAME":"北區","LI":"成德里","LIN":"11鄰","STREET":"育德路","SECT":" ","MAREA":" ","LANE":"２２９巷","ALLEY":" ","HOUSE_NO":"２８號","E_COORD97":168601.5,"N_COORD97":2545828.8399999999,"ADDRESS":"育德路２２９巷２８號","OBJECTID":399362},"geometry":{"x":168601.50000000186,"y":2545828.8400000036}},{"attributes":{"ID":399387,"DIS_CODE":0,"TOWNNAME":"北區","LI":"成德里","LIN":"11鄰","STREET":"育德路","SECT":" ","MAREA":" ","LANE":"２２９巷","ALLEY":" ","HOUSE_NO":"３０號","E_COORD97":168597.53,"N_COORD97":2545829.79,"ADDRESS":"育德路２２９巷３０號","OBJECTID":399363},"geometry":{"x":168597.53000000026,"y":2545829.790000001}},{"attributes":{"ID":399388,"DIS_CODE":0,"TOWNNAME":"中西區","LI":"開山里","LIN":"19鄰","STREET":"開山路","SECT":" ","MAREA":" ","LANE":"２３５巷","ALLEY":" ","HOUSE_NO":"８號","E_COORD97":169024.23999999999,"N_COORD97":2543000.0299999998,"ADDRESS":"開山路２３５巷８號","OBJECTID":399364},"geometry":{"x":169024.24000000115,"y":2543000.0300000012}},{"attributes":{"ID":399389,"DIS_CODE":0,"TOWNNAME":"中西區","LI":"開山里","LIN":"21鄰","STREET":"開山路","SECT":" ","MAREA":" ","LANE":"２６３巷","ALLEY":" ","HOUSE_NO":"１號","E_COORD97":169058.64000000001,"N_COORD97":2542953.02,"ADDRESS":"開山路２６３巷１號","OBJECTID":399365},"geometry":{"x":169058.6400000006,"y":2542953.0200000014}},{"attributes":{"ID":399390,"DIS_CODE":0,"TOWNNAME":"中西區","LI":"開山里","LIN":"21鄰","STREET":"開山路","SECT":" ","MAREA":" ","LANE":"２６３巷","ALLEY":" ","HOUSE_NO":"５號","E_COORD97":169055.94,"N_COORD97":2542957.0099999998,"ADDRESS":"開山路２６３巷５號","OBJECTID":399366},"geometry":{"x":169055.94000000041,"y":2542957.0100000016}},{"attributes":{"ID":399391,"DIS_CODE":0,"TOWNNAME":"北區","LI":"成德里","LIN":"11鄰","STREET":"育德路","SECT":" ","MAREA":" ","LANE":"２２９巷","ALLEY":" ","HOUSE_NO":"３２號","E_COORD97":168593.56,"N_COORD97":2545830.4300000002,"ADDRESS":"育德路２２９巷３２號","OBJECTID":399367},"geometry":{"x":168593.55999999959,"y":2545830.4299999997}},{"attributes":{"ID":399392,"DIS_CODE":0,"TOWNNAME":"北區","LI":"成德里","LIN":"11鄰","STREET":"育德路","SECT":" ","MAREA":" ","LANE":"２２９巷","ALLEY":" ","HOUSE_NO":"３６號","E_COORD97":168589.44,"N_COORD97":2545831.2200000002,"ADDRESS":"育德路２２９巷３６號","OBJECTID":399368},"geometry":{"x":168589.44000000134,"y":2545831.2200000025}},{"attributes":{"ID":399393,"DIS_CODE":0,"TOWNNAME":"北區","LI":"成德里","LIN":"11鄰","STREET":"育德路","SECT":" ","MAREA":" ","LANE":"２２９巷","ALLEY":" ","HOUSE_NO":"９號","E_COORD97":168620.23000000001,"N_COORD97":2545805.0299999998,"ADDRESS":"育德路２２９巷９號","OBJECTID":399369},"geometry":{"x":168620.23000000045,"y":2545805.0299999993}},{"attributes":{"ID":399394,"DIS_CODE":0,"TOWNNAME":"北區","LI":"勝安里","LIN":"11鄰","STREET":"開元路","SECT":" ","MAREA":" ","LANE":"２４９巷","ALLEY":" ","HOUSE_NO":"５號","E_COORD97":169937.47,"N_COORD97":2545484.1299999999,"ADDRESS":"開元路２４９巷５號","OBJECTID":399370},"geometry":{"x":169937.47000000067,"y":2545484.1300000008}},{"attributes":{"ID":399395,"DIS_CODE":0,"TOWNNAME":"南區","LI":"興農里","LIN":"11鄰","STREET":"明興路","SECT":" ","MAREA":" ","LANE":"１１８１巷","ALLEY":" ","HOUSE_NO":"１３１號之６","E_COORD97":167117.76999999999,"N_COORD97":2536382.1099999999,"ADDRESS":"明興路１１８１巷１３１號之６","OBJECTID":399371},"geometry":{"x":167117.77000000048,"y":2536382.1100000013}},{"attributes":{"ID":399396,"DIS_CODE":0,"TOWNNAME":"南區","LI":"興農里","LIN":"11鄰","STREET":"明興路","SECT":" ","MAREA":" ","LANE":"１１８１巷","ALLEY":" ","HOUSE_NO":"５號之２","E_COORD97":166600.57999999999,"N_COORD97":2536377.4300000002,"ADDRESS":"明興路１１８１巷５號之２","OBJECTID":399372},"geometry":{"x":166600.57999999914,"y":2536377.4299999997}},{"attributes":{"ID":399397,"DIS_CODE":0,"TOWNNAME":"南區","LI":"興農里","LIN":"11鄰","STREET":"明興路","SECT":" ","MAREA":" ","LANE":"１１５１巷","ALLEY":" ","HOUSE_NO":"１１號","E_COORD97":166593.79000000001,"N_COORD97":2536450.21,"ADDRESS":"明興路１１５１巷１１號","OBJECTID":399373},"geometry":{"x":166593.79000000004,"y":2536450.2100000028}},{"attributes":{"ID":399398,"DIS_CODE":0,"TOWNNAME":"南區","LI":"興農里","LIN":"11鄰","STREET":"明興路","SECT":" ","MAREA":" ","LANE":"１１５１巷","ALLEY":" ","HOUSE_NO":"１３號","E_COORD97":166598.19,"N_COORD97":2536447.6600000001,"ADDRESS":"明興路１１５１巷１３號","OBJECTID":399374},"geometry":{"x":166598.19000000041,"y":2536447.6600000001}},{"attributes":{"ID":399399,"DIS_CODE":0,"TOWNNAME":"南區","LI":"興農里","LIN":"11鄰","STREET":"明興路","SECT":" ","MAREA":" ","LANE":"１１５１巷","ALLEY":" ","HOUSE_NO":"１３號之１","E_COORD97":166601.89999999999,"N_COORD97":2536450.21,"ADDRESS":"明興路１１５１巷１３號之１","OBJECTID":399375},"geometry":{"x":166601.90000000037,"y":2536450.2100000028}},{"attributes":{"ID":399400,"DIS_CODE":0,"TOWNNAME":"南區","LI":"興農里","LIN":"11鄰","STREET":"明興路","SECT":" ","MAREA":" ","LANE":"１１５１巷","ALLEY":" ","HOUSE_NO":"１號","E_COORD97":166572.45000000001,"N_COORD97":2536447.8900000001,"ADDRESS":"明興路１１５１巷１號","OBJECTID":399376},"geometry":{"x":166572.45000000019,"y":2536447.8899999987}},{"attributes":{"ID":399401,"DIS_CODE":0,"TOWNNAME":"南區","LI":"興農里","LIN":"11鄰","STREET":"明興路","SECT":" ","MAREA":" ","LANE":"１１５１巷","ALLEY":" ","HOUSE_NO":"３號","E_COORD97":166576.63,"N_COORD97":2536450.21,"ADDRESS":"明興路１１５１巷３號","OBJECTID":399377},"geometry":{"x":166576.63000000082,"y":2536450.2100000028}},{"attributes":{"ID":399402,"DIS_CODE":0,"TOWNNAME":"南區","LI":"興農里","LIN":"11鄰","STREET":"明興路","SECT":" ","MAREA":" ","LANE":"１１５１巷","ALLEY":" ","HOUSE_NO":"５號","E_COORD97":166580.57000000001,"N_COORD97":2536447.8900000001,"ADDRESS":"明興路１１５１巷５號","OBJECTID":399378},"geometry":{"x":166580.56999999937,"y":2536447.8899999987}},{"attributes":{"ID":399403,"DIS_CODE":0,"TOWNNAME":"南區","LI":"興農里","LIN":"11鄰","STREET":"明興路","SECT":" ","MAREA":" ","LANE":"１１５１巷","ALLEY":" ","HOUSE_NO":"７號","E_COORD97":166584.73999999999,"N_COORD97":2536450.21,"ADDRESS":"明興路１１５１巷７號","OBJECTID":399379},"geometry":{"x":166584.74000000115,"y":2536450.2100000028}},{"attributes":{"ID":399404,"DIS_CODE":0,"TOWNNAME":"南區","LI":"興農里","LIN":"11鄰","STREET":"明興路","SECT":" ","MAREA":" ","LANE":"１１５１巷","ALLEY":" ","HOUSE_NO":"９號","E_COORD97":166588.92000000001,"N_COORD97":2536448.1200000001,"ADDRESS":"明興路１１５１巷９號","OBJECTID":399380},"geometry":{"x":166588.92000000086,"y":2536448.1200000029}},{"attributes":{"ID":399405,"DIS_CODE":0,"TOWNNAME":"南區","LI":"國宅里","LIN":"11鄰","STREET":"金華路","SECT":"二段","MAREA":" ","LANE":"３巷","ALLEY":" ","HOUSE_NO":"３３號之１","E_COORD97":166836.73000000001,"N_COORD97":2541812.9300000002,"ADDRESS":"金華路二段３巷３３號之１","OBJECTID":399381},"geometry":{"x":166836.73000000045,"y":2541812.9299999997}},{"attributes":{"ID":399406,"DIS_CODE":0,"TOWNNAME":"南區","LI":"國宅里","LIN":"11鄰","STREET":"金華路","SECT":"二段","MAREA":" ","LANE":"３巷","ALLEY":" ","HOUSE_NO":"３３號之２","E_COORD97":166836.10999999999,"N_COORD97":2541802.6499999999,"ADDRESS":"金華路二段３巷３３號之２","OBJECTID":399382},"geometry":{"x":166836.11000000034,"y":2541802.6500000004}},{"attributes":{"ID":399407,"DIS_CODE":0,"TOWNNAME":"南區","LI":"國宅里","LIN":"11鄰","STREET":"金華路","SECT":"二段","MAREA":" ","LANE":"３巷","ALLEY":" ","HOUSE_NO":"３３號之３","E_COORD97":166835.12,"N_COORD97":2541792.4199999999,"ADDRESS":"金華路二段３巷３３號之３","OBJECTID":399383},"geometry":{"x":166835.12000000104,"y":2541792.4199999999}},{"attributes":{"ID":399408,"DIS_CODE":0,"TOWNNAME":"南區","LI":"國宅里","LIN":"11鄰","STREET":"金華路","SECT":"二段","MAREA":" ","LANE":"３巷","ALLEY":" ","HOUSE_NO":"３３號之４","E_COORD97":166834.29000000001,"N_COORD97":2541782.8500000001,"ADDRESS":"金華路二段３巷３３號之４","OBJECTID":399384},"geometry":{"x":166834.29000000004,"y":2541782.8499999996}},{"attributes":{"ID":399409,"DIS_CODE":0,"TOWNNAME":"新化區","LI":"武安里","LIN":"11鄰","STREET":"信義路","SECT":" ","MAREA":" ","LANE":"３３９巷","ALLEY":" ","HOUSE_NO":"１號","E_COORD97":178840.73000000001,"N_COORD97":2548263.25,"ADDRESS":"信義路３３９巷１號","OBJECTID":399385},"geometry":{"x":178840.73000000045,"y":2548263.25}},{"attributes":{"ID":399410,"DIS_CODE":0,"TOWNNAME":"中西區","LI":"開山里","LIN":"17鄰","STREET":"大同路","SECT":"一段","MAREA":" ","LANE":"７０巷","ALLEY":" ","HOUSE_NO":"２１號","E_COORD97":169073.51000000001,"N_COORD97":2543033.3900000001,"ADDRESS":"大同路一段７０巷２１號","OBJECTID":399386},"geometry":{"x":169073.50999999978,"y":2543033.3900000025}},{"attributes":{"ID":399411,"DIS_CODE":0,"TOWNNAME":"中西區","LI":"開山里","LIN":"17鄰","STREET":"大同路","SECT":"一段","MAREA":" ","LANE":"７０巷","ALLEY":" ","HOUSE_NO":"２５號","E_COORD97":169069.67000000001,"N_COORD97":2543033.3900000001,"ADDRESS":"大同路一段７０巷２５號","OBJECTID":399387},"geometry":{"x":169069.66999999993,"y":2543033.3900000025}},{"attributes":{"ID":399412,"DIS_CODE":0,"TOWNNAME":"中西區","LI":"開山里","LIN":"17鄰","STREET":"大同路","SECT":"一段","MAREA":" ","LANE":"７０巷","ALLEY":" ","HOUSE_NO":"２７號","E_COORD97":169064.98000000001,"N_COORD97":2543034.6699999999,"ADDRESS":"大同路一段７０巷２７號","OBJECTID":399388},"geometry":{"x":169064.98000000231,"y":2543034.6700000018}},{"attributes":{"ID":399413,"DIS_CODE":0,"TOWNNAME":"中西區","LI":"開山里","LIN":"17鄰","STREET":"大同路","SECT":"一段","MAREA":" ","LANE":"７０巷","ALLEY":" ","HOUSE_NO":"２９號","E_COORD97":169062.32000000001,"N_COORD97":2543020.6099999999,"ADDRESS":"大同路一段７０巷２９號","OBJECTID":399389},"geometry":{"x":169062.31999999937,"y":2543020.6100000013}},{"attributes":{"ID":399414,"DIS_CODE":0,"TOWNNAME":"中西區","LI":"開山里","LIN":"17鄰","STREET":"大同路","SECT":"一段","MAREA":" ","LANE":"７０巷","ALLEY":" ","HOUSE_NO":"３１號","E_COORD97":169058.87,"N_COORD97":2543037.7799999998,"ADDRESS":"大同路一段７０巷３１號","OBJECTID":399390},"geometry":{"x":169058.87000000104,"y":2543037.7799999993}},{"attributes":{"ID":399415,"DIS_CODE":0,"TOWNNAME":"中西區","LI":"開山里","LIN":"17鄰","STREET":"大同路","SECT":"一段","MAREA":" ","LANE":"７０巷","ALLEY":" ","HOUSE_NO":"３３號","E_COORD97":169054.75,"N_COORD97":2543036.7999999998,"ADDRESS":"大同路一段７０巷３３號","OBJECTID":399391},"geometry":{"x":169054.75000000093,"y":2543036.8000000026}},{"attributes":{"ID":399416,"DIS_CODE":0,"TOWNNAME":"新化區","LI":"太平里","LIN":"11鄰","STREET":"中正路","SECT":" ","MAREA":" ","LANE":"７０７巷","ALLEY":" ","HOUSE_NO":"２７號之１","E_COORD97":178634.59,"N_COORD97":2549120.2599999998,"ADDRESS":"中正路７０７巷２７號之１","OBJECTID":399392},"geometry":{"x":178634.59000000171,"y":2549120.2599999998}},{"attributes":{"ID":399417,"DIS_CODE":0,"TOWNNAME":"新化區","LI":"太平里","LIN":"11鄰","STREET":"中正路","SECT":" ","MAREA":" ","LANE":"７０７巷","ALLEY":" ","HOUSE_NO":"３７號之２","E_COORD97":178582.20999999999,"N_COORD97":2549079.2599999998,"ADDRESS":"中正路７０７巷３７號之２","OBJECTID":399393},"geometry":{"x":178582.20999999996,"y":2549079.2599999998}},{"attributes":{"ID":399418,"DIS_CODE":0,"TOWNNAME":"新化區","LI":"全興里","LIN":"11鄰","STREET":"中正路","SECT":" ","MAREA":" ","LANE":"１２７巷","ALLEY":" ","HOUSE_NO":"３１號","E_COORD97":178851.85999999999,"N_COORD97":2547462.25,"ADDRESS":"中正路１２７巷３１號","OBJECTID":399394},"geometry":{"x":178851.8600000022,"y":2547462.25}},{"attributes":{"ID":399419,"DIS_CODE":0,"TOWNNAME":"新化區","LI":"東榮里","LIN":"11鄰","STREET":"中興路","SECT":" ","MAREA":" ","LANE":"４９０巷","ALLEY":" ","HOUSE_NO":"１５號","E_COORD97":180071.66,"N_COORD97":2547884.25,"ADDRESS":"中興路４９０巷１５號","OBJECTID":399395},"geometry":{"x":180071.66000000015,"y":2547884.2500000037}},{"attributes":{"ID":399420,"DIS_CODE":0,"TOWNNAME":"新化區","LI":"東榮里","LIN":"11鄰","STREET":"中興路","SECT":" ","MAREA":" ","LANE":"４９０巷","ALLEY":" ","HOUSE_NO":"３６號","E_COORD97":180069.56,"N_COORD97":2547940.25,"ADDRESS":"中興路４９０巷３６號","OBJECTID":399396},"geometry":{"x":180069.55999999959,"y":2547940.25}},{"attributes":{"ID":399421,"DIS_CODE":0,"TOWNNAME":"北區","LI":"大港里","LIN":"11鄰","STREET":"大興街","SECT":" ","MAREA":" ","LANE":"２９０巷","ALLEY":" ","HOUSE_NO":"１０號","E_COORD97":166562.32000000001,"N_COORD97":2545690.8399999999,"ADDRESS":"大興街２９０巷１０號","OBJECTID":399397},"geometry":{"x":166562.32000000123,"y":2545690.8400000017}},{"attributes":{"ID":399422,"DIS_CODE":0,"TOWNNAME":"北區","LI":"大港里","LIN":"11鄰","STREET":"大興街","SECT":" ","MAREA":" ","LANE":"２９０巷","ALLEY":" ","HOUSE_NO":"１２號","E_COORD97":166562.72,"N_COORD97":2545693.9399999999,"ADDRESS":"大興街２９０巷１２號","OBJECTID":399398},"geometry":{"x":166562.72000000067,"y":2545693.9399999995}},{"attributes":{"ID":399423,"DIS_CODE":0,"TOWNNAME":"北區","LI":"大港里","LIN":"11鄰","STREET":"大興街","SECT":" ","MAREA":" ","LANE":"２９０巷","ALLEY":" ","HOUSE_NO":"１４號","E_COORD97":166562.85999999999,"N_COORD97":2545698.2799999998,"ADDRESS":"大興街２９０巷１４號","OBJECTID":399399},"geometry":{"x":166562.86000000034,"y":2545698.2799999993}},{"attributes":{"ID":399424,"DIS_CODE":0,"TOWNNAME":"北區","LI":"大港里","LIN":"11鄰","STREET":"大興街","SECT":" ","MAREA":" ","LANE":"２９０巷","ALLEY":" ","HOUSE_NO":"１６號","E_COORD97":166563.01000000001,"N_COORD97":2545702.96,"ADDRESS":"大興街２９０巷１６號","OBJECTID":399400},"geometry":{"x":166563.00999999978,"y":2545702.9600000009}}]}