{"displayFieldName":"TOWNNAME","fieldAliases":{"ID":"ID","DIS_CODE":"DIS_CODE","TOWNNAME":"TOWNNAME","LI":"LI","LIN":"LIN","STREET":"STREET","SECT":"SECT","MAREA":"MAREA","LANE":"LANE","ALLEY":"ALLEY","HOUSE_NO":"HOUSE_NO","E_COORD97":"E_COORD97","N_COORD97":"N_COORD97","ADDRESS":"ADDRESS","OBJECTID":"OBJECTID"},"geometryType":"esriGeometryPoint","spatialReference":{"wkid":102443,"latestWkid":3826},"fields":[{"name":"ID","type":"esriFieldTypeDouble","alias":"ID"},{"name":"DIS_CODE","type":"esriFieldTypeInteger","alias":"DIS_CODE"},{"name":"TOWNNAME","type":"esriFieldTypeString","alias":"TOWNNAME","length":8},{"name":"LI","type":"esriFieldTypeString","alias":"LI","length":8},{"name":"LIN","type":"esriFieldTypeString","alias":"LIN","length":12},{"name":"STREET","type":"esriFieldTypeString","alias":"STREET","length":20},{"name":"SECT","type":"esriFieldTypeString","alias":"SECT","length":8},{"name":"MAREA","type":"esriFieldTypeString","alias":"MAREA","length":12},{"name":"LANE","type":"esriFieldTypeString","alias":"LANE","length":10},{"name":"ALLEY","type":"esriFieldTypeString","alias":"ALLEY","length":10},{"name":"HOUSE_NO","type":"esriFieldTypeString","alias":"HOUSE_NO","length":20},{"name":"E_COORD97","type":"esriFieldTypeDouble","alias":"E_COORD97"},{"name":"N_COORD97","type":"esriFieldTypeDouble","alias":"N_COORD97"},{"name":"ADDRESS","type":"esriFieldTypeString","alias":"ADDRESS","length":50},{"name":"OBJECTID","type":"esriFieldTypeOID","alias":"OBJECTID"}],"features":[{"attributes":{"ID":640028,"DIS_CODE":0,"TOWNNAME":"玉井區","LI":"玉田里","LIN":"20鄰","STREET":"中山路","SECT":" ","MAREA":" ","LANE":" ","ALLEY":" ","HOUSE_NO":"１６７號","E_COORD97":195286.95999999999,"N_COORD97":2558020.25,"ADDRESS":"中山路１６７號","OBJECTID":640001},"geometry":{"x":195286.95999999996,"y":2558020.25}},{"attributes":{"ID":640029,"DIS_CODE":0,"TOWNNAME":"玉井區","LI":"玉田里","LIN":"39鄰","STREET":"中山路","SECT":" ","MAREA":" ","LANE":" ","ALLEY":" ","HOUSE_NO":"１５６號","E_COORD97":195082.85000000001,"N_COORD97":2557703.25,"ADDRESS":"中山路１５６號","OBJECTID":640002},"geometry":{"x":195082.85000000056,"y":2557703.2500000019}},{"attributes":{"ID":640030,"DIS_CODE":0,"TOWNNAME":"玉井區","LI":"玉田里","LIN":"32鄰","STREET":"中山路","SECT":" ","MAREA":" ","LANE":" ","ALLEY":" ","HOUSE_NO":"３８４號","E_COORD97":195324.35000000001,"N_COORD97":2558124.25,"ADDRESS":"中山路３８４號","OBJECTID":640003},"geometry":{"x":195324.34999999963,"y":2558124.2500000019}},{"attributes":{"ID":640031,"DIS_CODE":0,"TOWNNAME":"玉井區","LI":"玉井里","LIN":"18鄰","STREET":"中正路","SECT":" ","MAREA":" ","LANE":" ","ALLEY":" ","HOUSE_NO":"８２號","E_COORD97":194811.31,"N_COORD97":2558133.25,"ADDRESS":"中正路８２號","OBJECTID":640004},"geometry":{"x":194811.30999999959,"y":2558133.2500000037}},{"attributes":{"ID":640032,"DIS_CODE":0,"TOWNNAME":"玉井區","LI":"玉井里","LIN":"18鄰","STREET":"中正路","SECT":" ","MAREA":" ","LANE":" ","ALLEY":" ","HOUSE_NO":"８６號","E_COORD97":194818.51000000001,"N_COORD97":2558131.25,"ADDRESS":"中正路８６號","OBJECTID":640005},"geometry":{"x":194818.50999999978,"y":2558131.2500000019}},{"attributes":{"ID":640033,"DIS_CODE":0,"TOWNNAME":"玉井區","LI":"玉田里","LIN":"20鄰","STREET":"中山路","SECT":" ","MAREA":" ","LANE":" ","ALLEY":" ","HOUSE_NO":"１８７號","E_COORD97":195287.54999999999,"N_COORD97":2558029.25,"ADDRESS":"中山路１８７號","OBJECTID":640006},"geometry":{"x":195287.54999999981,"y":2558029.2500000019}},{"attributes":{"ID":640034,"DIS_CODE":0,"TOWNNAME":"玉井區","LI":"玉田里","LIN":"32鄰","STREET":"中山路","SECT":" ","MAREA":" ","LANE":" ","ALLEY":" ","HOUSE_NO":"３１２號","E_COORD97":195328.35000000001,"N_COORD97":2557952.25,"ADDRESS":"中山路３１２號","OBJECTID":640007},"geometry":{"x":195328.3499999987,"y":2557952.25}},{"attributes":{"ID":640035,"DIS_CODE":0,"TOWNNAME":"玉井區","LI":"玉田里","LIN":"20鄰","STREET":"中山路","SECT":" ","MAREA":" ","LANE":" ","ALLEY":" ","HOUSE_NO":"１９７號","E_COORD97":195284.35000000001,"N_COORD97":2558055.25,"ADDRESS":"中山路１９７號","OBJECTID":640008},"geometry":{"x":195284.35000000149,"y":2558055.2500000037}},{"attributes":{"ID":640036,"DIS_CODE":0,"TOWNNAME":"玉井區","LI":"玉井里","LIN":"20鄰","STREET":"太子街","SECT":" ","MAREA":" ","LANE":" ","ALLEY":" ","HOUSE_NO":"５１號","E_COORD97":194782.09,"N_COORD97":2558029.2599999998,"ADDRESS":"太子街５１號","OBJECTID":640009},"geometry":{"x":194782.08999999985,"y":2558029.2600000016}},{"attributes":{"ID":640037,"DIS_CODE":0,"TOWNNAME":"玉井區","LI":"玉田里","LIN":"39鄰","STREET":"中山路","SECT":" ","MAREA":" ","LANE":" ","ALLEY":" ","HOUSE_NO":"８４號","E_COORD97":194925.31,"N_COORD97":2557685.2400000002,"ADDRESS":"中山路８４號","OBJECTID":640010},"geometry":{"x":194925.31000000145,"y":2557685.2400000002}},{"attributes":{"ID":640038,"DIS_CODE":0,"TOWNNAME":"玉井區","LI":"玉田里","LIN":"15鄰","STREET":"中正路","SECT":" ","MAREA":" ","LANE":" ","ALLEY":" ","HOUSE_NO":"１號","E_COORD97":194560.45999999999,"N_COORD97":2557812.25,"ADDRESS":"中正路１號","OBJECTID":640011},"geometry":{"x":194560.46000000089,"y":2557812.2500000019}},{"attributes":{"ID":640039,"DIS_CODE":0,"TOWNNAME":"玉井區","LI":"玉田里","LIN":"4鄰","STREET":"中正路","SECT":" ","MAREA":" ","LANE":" ","ALLEY":" ","HOUSE_NO":"１７８號","E_COORD97":194983.54999999999,"N_COORD97":2558217.25,"ADDRESS":"中正路１７８號","OBJECTID":640012},"geometry":{"x":194983.55000000075,"y":2558217.25}},{"attributes":{"ID":640040,"DIS_CODE":0,"TOWNNAME":"玉井區","LI":"玉田里","LIN":"4鄰","STREET":"中正路","SECT":" ","MAREA":" ","LANE":" ","ALLEY":" ","HOUSE_NO":"１８６號","E_COORD97":195000.26000000001,"N_COORD97":2558219.25,"ADDRESS":"中正路１８６號","OBJECTID":640013},"geometry":{"x":195000.25999999885,"y":2558219.2500000019}},{"attributes":{"ID":640041,"DIS_CODE":0,"TOWNNAME":"玉井區","LI":"玉田里","LIN":"20鄰","STREET":"中山路","SECT":" ","MAREA":" ","LANE":" ","ALLEY":" ","HOUSE_NO":"２０９號","E_COORD97":195284.45999999999,"N_COORD97":2558063.2400000002,"ADDRESS":"中山路２０９號","OBJECTID":640014},"geometry":{"x":195284.46000000089,"y":2558063.2400000021}},{"attributes":{"ID":640042,"DIS_CODE":0,"TOWNNAME":"玉井區","LI":"玉井里","LIN":"20鄰","STREET":"中正路","SECT":" ","MAREA":" ","LANE":" ","ALLEY":" ","HOUSE_NO":"４０號","E_COORD97":194713.51000000001,"N_COORD97":2558042.25,"ADDRESS":"中正路４０號","OBJECTID":640015},"geometry":{"x":194713.50999999978,"y":2558042.2500000019}},{"attributes":{"ID":640043,"DIS_CODE":0,"TOWNNAME":"玉井區","LI":"玉田里","LIN":"20鄰","STREET":"中山路","SECT":" ","MAREA":" ","LANE":" ","ALLEY":" ","HOUSE_NO":"１６５號","E_COORD97":195286.64999999999,"N_COORD97":2558016.25,"ADDRESS":"中山路１６５號","OBJECTID":640016},"geometry":{"x":195286.65000000224,"y":2558016.2500000019}},{"attributes":{"ID":640044,"DIS_CODE":0,"TOWNNAME":"玉井區","LI":"玉田里","LIN":"39鄰","STREET":"中山路","SECT":" ","MAREA":" ","LANE":" ","ALLEY":" ","HOUSE_NO":"９６號","E_COORD97":194949.39999999999,"N_COORD97":2557689.2400000002,"ADDRESS":"中山路９６號","OBJECTID":640017},"geometry":{"x":194949.4000000013,"y":2557689.2399999984}},{"attributes":{"ID":640045,"DIS_CODE":0,"TOWNNAME":"玉井區","LI":"玉田里","LIN":"32鄰","STREET":"中山路","SECT":" ","MAREA":" ","LANE":" ","ALLEY":" ","HOUSE_NO":"３４８號","E_COORD97":195325.04999999999,"N_COORD97":2558028.25,"ADDRESS":"中山路３４８號","OBJECTID":640018},"geometry":{"x":195325.04999999981,"y":2558028.2500000037}},{"attributes":{"ID":640046,"DIS_CODE":0,"TOWNNAME":"玉井區","LI":"玉井里","LIN":"20鄰","STREET":"中正路","SECT":" ","MAREA":" ","LANE":" ","ALLEY":" ","HOUSE_NO":"４２號","E_COORD97":194729.29999999999,"N_COORD97":2558062.2400000002,"ADDRESS":"中正路４２號","OBJECTID":640019},"geometry":{"x":194729.30000000075,"y":2558062.2399999984}},{"attributes":{"ID":640047,"DIS_CODE":0,"TOWNNAME":"玉井區","LI":"玉田里","LIN":"39鄰","STREET":"中山路","SECT":" ","MAREA":" ","LANE":" ","ALLEY":" ","HOUSE_NO":"２之５號","E_COORD97":194640.06,"N_COORD97":2557583.6699999999,"ADDRESS":"中山路２之５號","OBJECTID":640020},"geometry":{"x":194640.05999999959,"y":2557583.6699999999}},{"attributes":{"ID":640048,"DIS_CODE":0,"TOWNNAME":"南區","LI":"文南里","LIN":"4鄰","STREET":"長南街","SECT":" ","MAREA":" ","LANE":" ","ALLEY":" ","HOUSE_NO":"１８號","E_COORD97":167034.10999999999,"N_COORD97":2542624.27,"ADDRESS":"長南街１８號","OBJECTID":640021},"geometry":{"x":167034.11000000034,"y":2542624.2699999996}},{"attributes":{"ID":640049,"DIS_CODE":0,"TOWNNAME":"歸仁區","LI":"媽廟里","LIN":"4鄰","STREET":"和順路","SECT":"一段","MAREA":" ","LANE":" ","ALLEY":" ","HOUSE_NO":"５號","E_COORD97":177535.72,"N_COORD97":2543703.7200000002,"ADDRESS":"和順路一段５號","OBJECTID":640022},"geometry":{"x":177535.72000000067,"y":2543703.7200000007}},{"attributes":{"ID":640050,"DIS_CODE":0,"TOWNNAME":"歸仁區","LI":"歸南里","LIN":"4鄰","STREET":"民權十六街","SECT":" ","MAREA":" ","LANE":" ","ALLEY":" ","HOUSE_NO":"６９號","E_COORD97":176852.73999999999,"N_COORD97":2540074.25,"ADDRESS":"民權十六街６９號","OBJECTID":640023},"geometry":{"x":176852.74000000115,"y":2540074.2500000019}},{"attributes":{"ID":640051,"DIS_CODE":0,"TOWNNAME":"歸仁區","LI":"文化里","LIN":"20鄰","STREET":"大德路","SECT":" ","MAREA":" ","LANE":" ","ALLEY":" ","HOUSE_NO":"２２７號","E_COORD97":177172.57000000001,"N_COORD97":2541519.3300000001,"ADDRESS":"大德路２２７號","OBJECTID":640024},"geometry":{"x":177172.57000000123,"y":2541519.3300000001}},{"attributes":{"ID":640052,"DIS_CODE":0,"TOWNNAME":"歸仁區","LI":"新厝里","LIN":"25鄰","STREET":"大成六街","SECT":" ","MAREA":" ","LANE":" ","ALLEY":" ","HOUSE_NO":"９４號","E_COORD97":177576.64000000001,"N_COORD97":2540223.1800000002,"ADDRESS":"大成六街９４號","OBJECTID":640025},"geometry":{"x":177576.6400000006,"y":2540223.1800000016}},{"attributes":{"ID":640053,"DIS_CODE":0,"TOWNNAME":"歸仁區","LI":"許厝里","LIN":"32鄰","STREET":"復興路","SECT":" ","MAREA":" ","LANE":" ","ALLEY":" ","HOUSE_NO":"４２號","E_COORD97":177909.26000000001,"N_COORD97":2540618.54,"ADDRESS":"復興路４２號","OBJECTID":640026},"geometry":{"x":177909.25999999978,"y":2540618.5399999991}},{"attributes":{"ID":640054,"DIS_CODE":0,"TOWNNAME":"歸仁區","LI":"歸南里","LIN":"4鄰","STREET":"民權十六街","SECT":" ","MAREA":" ","LANE":" ","ALLEY":" ","HOUSE_NO":"５５號","E_COORD97":176853.94,"N_COORD97":2540109.25,"ADDRESS":"民權十六街５５號","OBJECTID":640027},"geometry":{"x":176853.94000000041,"y":2540109.25}},{"attributes":{"ID":640055,"DIS_CODE":0,"TOWNNAME":"歸仁區","LI":"歸仁里","LIN":"25鄰","STREET":"忠孝北路","SECT":" ","MAREA":" ","LANE":" ","ALLEY":" ","HOUSE_NO":"１６０號","E_COORD97":178202.69,"N_COORD97":2541128.1099999999,"ADDRESS":"忠孝北路１６０號","OBJECTID":640028},"geometry":{"x":178202.69000000134,"y":2541128.1100000013}},{"attributes":{"ID":640056,"DIS_CODE":0,"TOWNNAME":"歸仁區","LI":"辜厝里","LIN":"43鄰","STREET":"民權九街","SECT":" ","MAREA":" ","LANE":" ","ALLEY":" ","HOUSE_NO":"２１號","E_COORD97":177014.45000000001,"N_COORD97":2540359.0499999998,"ADDRESS":"民權九街２１號","OBJECTID":640029},"geometry":{"x":177014.45000000019,"y":2540359.0500000007}},{"attributes":{"ID":640057,"DIS_CODE":0,"TOWNNAME":"歸仁區","LI":"辜厝里","LIN":"43鄰","STREET":"民權九街","SECT":" ","MAREA":" ","LANE":" ","ALLEY":" ","HOUSE_NO":"４５號","E_COORD97":177071.54000000001,"N_COORD97":2540356.3900000001,"ADDRESS":"民權九街４５號","OBJECTID":640030},"geometry":{"x":177071.54000000004,"y":2540356.3900000006}},{"attributes":{"ID":640058,"DIS_CODE":0,"TOWNNAME":"歸仁區","LI":"歸南里","LIN":"4鄰","STREET":"民權十六街","SECT":" ","MAREA":" ","LANE":" ","ALLEY":" ","HOUSE_NO":"６３號","E_COORD97":176853.84,"N_COORD97":2540089.25,"ADDRESS":"民權十六街６３號","OBJECTID":640031},"geometry":{"x":176853.83999999985,"y":2540089.25}},{"attributes":{"ID":640059,"DIS_CODE":0,"TOWNNAME":"歸仁區","LI":"歸南里","LIN":"4鄰","STREET":"民權十六街","SECT":" ","MAREA":" ","LANE":" ","ALLEY":" ","HOUSE_NO":"３２號","E_COORD97":176873.54000000001,"N_COORD97":2540133.25,"ADDRESS":"民權十六街３２號","OBJECTID":640032},"geometry":{"x":176873.54000000004,"y":2540133.25}},{"attributes":{"ID":640060,"DIS_CODE":0,"TOWNNAME":"歸仁區","LI":"歸仁里","LIN":"20鄰","STREET":"大仁二街","SECT":" ","MAREA":" ","LANE":" ","ALLEY":" ","HOUSE_NO":"２６號","E_COORD97":178134.54000000001,"N_COORD97":2541095.1099999999,"ADDRESS":"大仁二街２６號","OBJECTID":640033},"geometry":{"x":178134.54000000004,"y":2541095.1100000013}},{"attributes":{"ID":640061,"DIS_CODE":0,"TOWNNAME":"歸仁區","LI":"文化里","LIN":"26鄰","STREET":"民權北路","SECT":" ","MAREA":" ","LANE":" ","ALLEY":" ","HOUSE_NO":"１９６號","E_COORD97":177036.29999999999,"N_COORD97":2541473.3300000001,"ADDRESS":"民權北路１９６號","OBJECTID":640034},"geometry":{"x":177036.30000000168,"y":2541473.3300000019}},{"attributes":{"ID":640062,"DIS_CODE":0,"TOWNNAME":"歸仁區","LI":"歸仁里","LIN":"25鄰","STREET":"忠孝北路","SECT":" ","MAREA":" ","LANE":" ","ALLEY":" ","HOUSE_NO":"１７０號","E_COORD97":178175.92000000001,"N_COORD97":2541141.1099999999,"ADDRESS":"忠孝北路１７０號","OBJECTID":640035},"geometry":{"x":178175.91999999993,"y":2541141.1100000031}},{"attributes":{"ID":640063,"DIS_CODE":0,"TOWNNAME":"歸仁區","LI":"新厝里","LIN":"20鄰","STREET":"大成八街","SECT":" ","MAREA":" ","LANE":" ","ALLEY":" ","HOUSE_NO":"１０號","E_COORD97":177660.94,"N_COORD97":2540270.1800000002,"ADDRESS":"大成八街１０號","OBJECTID":640036},"geometry":{"x":177660.94000000041,"y":2540270.1800000016}},{"attributes":{"ID":640064,"DIS_CODE":0,"TOWNNAME":"歸仁區","LI":"辜厝里","LIN":"43鄰","STREET":"民權九街","SECT":" ","MAREA":" ","LANE":" ","ALLEY":" ","HOUSE_NO":"３３號","E_COORD97":177047.94,"N_COORD97":2540358.3900000001,"ADDRESS":"民權九街３３號","OBJECTID":640037},"geometry":{"x":177047.94000000134,"y":2540358.3900000025}},{"attributes":{"ID":640065,"DIS_CODE":0,"TOWNNAME":"歸仁區","LI":"歸南里","LIN":"4鄰","STREET":"民權十六街","SECT":" ","MAREA":" ","LANE":" ","ALLEY":" ","HOUSE_NO":"７３號","E_COORD97":176851.64000000001,"N_COORD97":2540064.25,"ADDRESS":"民權十六街７３號","OBJECTID":640038},"geometry":{"x":176851.63999999966,"y":2540064.2500000019}},{"attributes":{"ID":640066,"DIS_CODE":0,"TOWNNAME":"歸仁區","LI":"歸南里","LIN":"4鄰","STREET":"民權十六街","SECT":" ","MAREA":" ","LANE":" ","ALLEY":" ","HOUSE_NO":"５３號","E_COORD97":176853.94,"N_COORD97":2540114.25,"ADDRESS":"民權十六街５３號","OBJECTID":640039},"geometry":{"x":176853.94000000041,"y":2540114.2500000019}},{"attributes":{"ID":640067,"DIS_CODE":0,"TOWNNAME":"歸仁區","LI":"辜厝里","LIN":"43鄰","STREET":"民權九街","SECT":" ","MAREA":" ","LANE":" ","ALLEY":" ","HOUSE_NO":"２３號","E_COORD97":177018.60000000001,"N_COORD97":2540358.8900000001,"ADDRESS":"民權九街２３號","OBJECTID":640040},"geometry":{"x":177018.59999999963,"y":2540358.8900000025}},{"attributes":{"ID":640068,"DIS_CODE":0,"TOWNNAME":"歸仁區","LI":"新厝里","LIN":"13鄰","STREET":"大成路","SECT":" ","MAREA":" ","LANE":" ","ALLEY":" ","HOUSE_NO":"１７號","E_COORD97":177569.97,"N_COORD97":2540471.5899999999,"ADDRESS":"大成路１７號","OBJECTID":640041},"geometry":{"x":177569.96999999974,"y":2540471.5900000017}},{"attributes":{"ID":640069,"DIS_CODE":0,"TOWNNAME":"歸仁區","LI":"歸仁里","LIN":"13鄰","STREET":"和平北街","SECT":" ","MAREA":" ","LANE":" ","ALLEY":" ","HOUSE_NO":"１０６號","E_COORD97":177862.23999999999,"N_COORD97":2541091.04,"ADDRESS":"和平北街１０６號","OBJECTID":640042},"geometry":{"x":177862.24000000022,"y":2541091.040000001}},{"attributes":{"ID":640070,"DIS_CODE":0,"TOWNNAME":"歸仁區","LI":"歸南里","LIN":"4鄰","STREET":"民權十六街","SECT":" ","MAREA":" ","LANE":" ","ALLEY":" ","HOUSE_NO":"５１號","E_COORD97":176859.14000000001,"N_COORD97":2540119.25,"ADDRESS":"民權十六街５１號","OBJECTID":640043},"geometry":{"x":176859.14000000153,"y":2540119.25}},{"attributes":{"ID":640071,"DIS_CODE":0,"TOWNNAME":"歸仁區","LI":"歸南里","LIN":"4鄰","STREET":"民權十六街","SECT":" ","MAREA":" ","LANE":" ","ALLEY":" ","HOUSE_NO":"７１號","E_COORD97":176852.73999999999,"N_COORD97":2540068.25,"ADDRESS":"民權十六街７１號","OBJECTID":640044},"geometry":{"x":176852.74000000115,"y":2540068.25}},{"attributes":{"ID":640072,"DIS_CODE":0,"TOWNNAME":"歸仁區","LI":"歸仁里","LIN":"20鄰","STREET":"忠孝北路","SECT":" ","MAREA":" ","LANE":" ","ALLEY":" ","HOUSE_NO":"１６９號","E_COORD97":178156.48999999999,"N_COORD97":2541133.1099999999,"ADDRESS":"忠孝北路１６９號","OBJECTID":640045},"geometry":{"x":178156.49000000115,"y":2541133.1099999994}},{"attributes":{"ID":640073,"DIS_CODE":0,"TOWNNAME":"歸仁區","LI":"文化里","LIN":"20鄰","STREET":"大德路","SECT":" ","MAREA":" ","LANE":" ","ALLEY":" ","HOUSE_NO":"２３５號","E_COORD97":177175.57000000001,"N_COORD97":2541495.3300000001,"ADDRESS":"大德路２３５號","OBJECTID":640046},"geometry":{"x":177175.57000000216,"y":2541495.3300000001}},{"attributes":{"ID":640074,"DIS_CODE":0,"TOWNNAME":"歸仁區","LI":"文化里","LIN":"20鄰","STREET":"大德路","SECT":" ","MAREA":" ","LANE":" ","ALLEY":" ","HOUSE_NO":"２３９號","E_COORD97":177175.57000000001,"N_COORD97":2541495.3300000001,"ADDRESS":"大德路２３９號","OBJECTID":640047},"geometry":{"x":177175.57000000216,"y":2541495.3300000001}},{"attributes":{"ID":640075,"DIS_CODE":0,"TOWNNAME":"歸仁區","LI":"歸南里","LIN":"25鄰","STREET":"民生南街","SECT":"二段","MAREA":" ","LANE":" ","ALLEY":" ","HOUSE_NO":"１９２號","E_COORD97":176089.45999999999,"N_COORD97":2540184.25,"ADDRESS":"民生南街二段１９２號","OBJECTID":640048},"geometry":{"x":176089.46000000183,"y":2540184.25}},{"attributes":{"ID":640076,"DIS_CODE":0,"TOWNNAME":"歸仁區","LI":"辜厝里","LIN":"43鄰","STREET":"民權九街","SECT":" ","MAREA":" ","LANE":" ","ALLEY":" ","HOUSE_NO":"４３號","E_COORD97":177067.44,"N_COORD97":2540356.3900000001,"ADDRESS":"民權九街４３號","OBJECTID":640049},"geometry":{"x":177067.44000000041,"y":2540356.3900000006}},{"attributes":{"ID":640077,"DIS_CODE":0,"TOWNNAME":"歸仁區","LI":"新厝里","LIN":"24鄰","STREET":"大成十街","SECT":" ","MAREA":" ","LANE":" ","ALLEY":" ","HOUSE_NO":"３１號","E_COORD97":177668.84,"N_COORD97":2540205.1800000002,"ADDRESS":"大成十街３１號","OBJECTID":640050},"geometry":{"x":177668.84000000078,"y":2540205.1800000034}},{"attributes":{"ID":640078,"DIS_CODE":0,"TOWNNAME":"南區","LI":"文南里","LIN":"4鄰","STREET":"長南街","SECT":" ","MAREA":" ","LANE":" ","ALLEY":" ","HOUSE_NO":"１６號","E_COORD97":167039.44,"N_COORD97":2542623.5,"ADDRESS":"長南街１６號","OBJECTID":640051},"geometry":{"x":167039.44000000227,"y":2542623.5}},{"attributes":{"ID":640079,"DIS_CODE":0,"TOWNNAME":"南區","LI":"文南里","LIN":"13鄰","STREET":"文南路","SECT":" ","MAREA":" ","LANE":" ","ALLEY":" ","HOUSE_NO":"６９號","E_COORD97":166921.79999999999,"N_COORD97":2542703.1600000001,"ADDRESS":"文南路６９號","OBJECTID":640052},"geometry":{"x":166921.80000000075,"y":2542703.1600000001}},{"attributes":{"ID":640080,"DIS_CODE":0,"TOWNNAME":"南區","LI":"文南里","LIN":"6鄰","STREET":"健康路","SECT":"二段","MAREA":" ","LANE":" ","ALLEY":" ","HOUSE_NO":"２２８號","E_COORD97":167078.57999999999,"N_COORD97":2542487.4700000002,"ADDRESS":"健康路二段２２８號","OBJECTID":640053},"geometry":{"x":167078.58000000007,"y":2542487.4700000025}},{"attributes":{"ID":640081,"DIS_CODE":0,"TOWNNAME":"南區","LI":"文南里","LIN":"6鄰","STREET":"金華路","SECT":"二段","MAREA":" ","LANE":" ","ALLEY":" ","HOUSE_NO":"１８１號","E_COORD97":167092.04000000001,"N_COORD97":2542495.3399999999,"ADDRESS":"金華路二段１８１號","OBJECTID":640054},"geometry":{"x":167092.04000000004,"y":2542495.3399999999}},{"attributes":{"ID":640082,"DIS_CODE":0,"TOWNNAME":"南區","LI":"文南里","LIN":"16鄰","STREET":"永南二街","SECT":" ","MAREA":" ","LANE":" ","ALLEY":" ","HOUSE_NO":"１７號","E_COORD97":166774.62,"N_COORD97":2542610.0299999998,"ADDRESS":"永南二街１７號","OBJECTID":640055},"geometry":{"x":166774.62000000011,"y":2542610.0300000012}},{"attributes":{"ID":640083,"DIS_CODE":0,"TOWNNAME":"南區","LI":"文南里","LIN":" ","STREET":"永南三街","SECT":" ","MAREA":" ","LANE":" ","ALLEY":" ","HOUSE_NO":"２７號","E_COORD97":166760.69,"N_COORD97":2542662.8199999998,"ADDRESS":"永南三街２７號","OBJECTID":640056},"geometry":{"x":166760.69000000041,"y":2542662.820000004}},{"attributes":{"ID":640084,"DIS_CODE":0,"TOWNNAME":"麻豆區","LI":"東角里","LIN":"13鄰","STREET":"民生路","SECT":" ","MAREA":" ","LANE":" ","ALLEY":" ","HOUSE_NO":"２３號之３","E_COORD97":173632.85000000001,"N_COORD97":2564715.79,"ADDRESS":"民生路２３號之３","OBJECTID":640057},"geometry":{"x":173632.84999999963,"y":2564715.7899999991}},{"attributes":{"ID":640085,"DIS_CODE":0,"TOWNNAME":"麻豆區","LI":"新建里","LIN":" ","STREET":"麻佳路","SECT":"一段","MAREA":" ","LANE":" ","ALLEY":" ","HOUSE_NO":"８１號","E_COORD97":172171.22,"N_COORD97":2564818.04,"ADDRESS":"麻佳路一段８１號","OBJECTID":640058},"geometry":{"x":172171.21999999974,"y":2564818.0399999991}},{"attributes":{"ID":640086,"DIS_CODE":0,"TOWNNAME":"麻豆區","LI":"大埕里","LIN":" ","STREET":"博愛路","SECT":" ","MAREA":" ","LANE":" ","ALLEY":" ","HOUSE_NO":"２號","E_COORD97":173255.53,"N_COORD97":2564944.3300000001,"ADDRESS":"博愛路２號","OBJECTID":640059},"geometry":{"x":173255.53000000119,"y":2564944.3300000038}},{"attributes":{"ID":640087,"DIS_CODE":0,"TOWNNAME":"麻豆區","LI":"大埕里","LIN":" ","STREET":"博愛路","SECT":" ","MAREA":" ","LANE":" ","ALLEY":" ","HOUSE_NO":"３８之１號","E_COORD97":173325.35000000001,"N_COORD97":2565020.6099999999,"ADDRESS":"博愛路３８之１號","OBJECTID":640060},"geometry":{"x":173325.35000000056,"y":2565020.6100000013}},{"attributes":{"ID":640088,"DIS_CODE":0,"TOWNNAME":"麻豆區","LI":"保安里","LIN":" ","STREET":"復興街","SECT":" ","MAREA":" ","LANE":" ","ALLEY":" ","HOUSE_NO":"２９之２號","E_COORD97":173138.92000000001,"N_COORD97":2564869.7000000002,"ADDRESS":"復興街２９之２號","OBJECTID":640061},"geometry":{"x":173138.92000000086,"y":2564869.700000003}},{"attributes":{"ID":640089,"DIS_CODE":0,"TOWNNAME":"麻豆區","LI":"保安里","LIN":" ","STREET":"復興街","SECT":" ","MAREA":" ","LANE":" ","ALLEY":" ","HOUSE_NO":"２９之３號","E_COORD97":173134.45000000001,"N_COORD97":2564871.3100000001,"ADDRESS":"復興街２９之３號","OBJECTID":640062},"geometry":{"x":173134.45000000019,"y":2564871.3100000024}},{"attributes":{"ID":640090,"DIS_CODE":0,"TOWNNAME":"麻豆區","LI":"大埕里","LIN":" ","STREET":"復興街","SECT":" ","MAREA":" ","LANE":" ","ALLEY":" ","HOUSE_NO":"３４之１號","E_COORD97":173171.37,"N_COORD97":2564924.3399999999,"ADDRESS":"復興街３４之１號","OBJECTID":640063},"geometry":{"x":173171.37000000104,"y":2564924.3400000017}},{"attributes":{"ID":640091,"DIS_CODE":0,"TOWNNAME":"麻豆區","LI":"油車里","LIN":" ","STREET":"新生北路","SECT":" ","MAREA":" ","LANE":" ","ALLEY":" ","HOUSE_NO":"１１１之２號","E_COORD97":172269.42000000001,"N_COORD97":2565353.3500000001,"ADDRESS":"新生北路１１１之２號","OBJECTID":640064},"geometry":{"x":172269.42000000086,"y":2565353.3499999996}},{"attributes":{"ID":640092,"DIS_CODE":0,"TOWNNAME":"麻豆區","LI":"油車里","LIN":" ","STREET":"新生北路","SECT":" ","MAREA":" ","LANE":" ","ALLEY":" ","HOUSE_NO":"２４６號","E_COORD97":172307.26000000001,"N_COORD97":2565534.1200000001,"ADDRESS":"新生北路２４６號","OBJECTID":640065},"geometry":{"x":172307.26000000071,"y":2565534.1200000029}},{"attributes":{"ID":640093,"DIS_CODE":0,"TOWNNAME":"麻豆區","LI":"油車里","LIN":" ","STREET":"新生北路","SECT":" ","MAREA":" ","LANE":" ","ALLEY":" ","HOUSE_NO":"４２５之２號","E_COORD97":172744.89999999999,"N_COORD97":2565578.71,"ADDRESS":"新生北路４２５之２號","OBJECTID":640066},"geometry":{"x":172744.90000000037,"y":2565578.7100000009}},{"attributes":{"ID":640094,"DIS_CODE":0,"TOWNNAME":"麻豆區","LI":"\u25A0江里","LIN":"4鄰","STREET":"民權路","SECT":" ","MAREA":" ","LANE":" ","ALLEY":" ","HOUSE_NO":"１６號之７","E_COORD97":173346.95000000001,"N_COORD97":2564570.27,"ADDRESS":"民權路１６號之７","OBJECTID":640067},"geometry":{"x":173346.95000000205,"y":2564570.2699999996}},{"attributes":{"ID":640095,"DIS_CODE":0,"TOWNNAME":"麻豆區","LI":"油車里","LIN":" ","STREET":"新生北路","SECT":" ","MAREA":" ","LANE":" ","ALLEY":" ","HOUSE_NO":"４２５之３號","E_COORD97":172745.41,"N_COORD97":2565574.3900000001,"ADDRESS":"新生北路４２５之３號","OBJECTID":640068},"geometry":{"x":172745.41000000201,"y":2565574.3900000006}},{"attributes":{"ID":640096,"DIS_CODE":0,"TOWNNAME":"麻豆區","LI":"油車里","LIN":" ","STREET":"新生北路","SECT":" ","MAREA":" ","LANE":" ","ALLEY":" ","HOUSE_NO":"４２５之４號","E_COORD97":172745.91,"N_COORD97":2565570.5499999998,"ADDRESS":"新生北路４２５之４號","OBJECTID":640069},"geometry":{"x":172745.91000000108,"y":2565570.5500000045}},{"attributes":{"ID":640097,"DIS_CODE":0,"TOWNNAME":"麻豆區","LI":"北勢里","LIN":" ","STREET":"新生北路","SECT":" ","MAREA":" ","LANE":" ","ALLEY":" ","HOUSE_NO":"５３９號","E_COORD97":172991.29999999999,"N_COORD97":2565535.0800000001,"ADDRESS":"新生北路５３９號","OBJECTID":640070},"geometry":{"x":172991.29999999981,"y":2565535.0800000001}},{"attributes":{"ID":640098,"DIS_CODE":0,"TOWNNAME":"麻豆區","LI":"大埕里","LIN":" ","STREET":"新生北路","SECT":" ","MAREA":" ","LANE":" ","ALLEY":" ","HOUSE_NO":"６１４號","E_COORD97":173124.48000000001,"N_COORD97":2565489.8199999998,"ADDRESS":"新生北路６１４號","OBJECTID":640071},"geometry":{"x":173124.48000000045,"y":2565489.8200000003}},{"attributes":{"ID":640099,"DIS_CODE":0,"TOWNNAME":"麻豆區","LI":"北勢里","LIN":" ","STREET":"新生北路","SECT":" ","MAREA":" ","LANE":" ","ALLEY":" ","HOUSE_NO":"６４５號","E_COORD97":173383.79999999999,"N_COORD97":2565520.9900000002,"ADDRESS":"新生北路６４５號","OBJECTID":640072},"geometry":{"x":173383.80000000075,"y":2565520.9900000021}},{"attributes":{"ID":640100,"DIS_CODE":0,"TOWNNAME":"麻豆區","LI":"興農里","LIN":" ","STREET":"新生南路","SECT":" ","MAREA":" ","LANE":" ","ALLEY":" ","HOUSE_NO":"１６４號","E_COORD97":172307.85000000001,"N_COORD97":2564552.3100000001,"ADDRESS":"新生南路１６４號","OBJECTID":640073},"geometry":{"x":172307.85000000149,"y":2564552.3100000024}},{"attributes":{"ID":640101,"DIS_CODE":0,"TOWNNAME":"麻豆區","LI":"保安里","LIN":"5鄰","STREET":"復興街","SECT":" ","MAREA":" ","LANE":" ","ALLEY":" ","HOUSE_NO":"１５號","E_COORD97":173229.26999999999,"N_COORD97":2564870.4300000002,"ADDRESS":"復興街１５號","OBJECTID":640074},"geometry":{"x":173229.27000000048,"y":2564870.4299999997}},{"attributes":{"ID":640102,"DIS_CODE":0,"TOWNNAME":"麻豆區","LI":"興農里","LIN":" ","STREET":"新生南路","SECT":" ","MAREA":" ","LANE":" ","ALLEY":" ","HOUSE_NO":"３８２號","E_COORD97":172334.60000000001,"N_COORD97":2564064.4399999999,"ADDRESS":"新生南路３８２號","OBJECTID":640075},"geometry":{"x":172334.59999999963,"y":2564064.4399999976}},{"attributes":{"ID":640103,"DIS_CODE":0,"TOWNNAME":"麻豆區","LI":"興農里","LIN":" ","STREET":"新生南路","SECT":" ","MAREA":" ","LANE":" ","ALLEY":" ","HOUSE_NO":"４３２之１號","E_COORD97":172443.63,"N_COORD97":2563984.4399999999,"ADDRESS":"新生南路４３２之１號","OBJECTID":640076},"geometry":{"x":172443.63000000175,"y":2563984.4400000013}},{"attributes":{"ID":640104,"DIS_CODE":0,"TOWNNAME":"麻豆區","LI":"中興里","LIN":" ","STREET":"新生南路","SECT":" ","MAREA":" ","LANE":" ","ALLEY":" ","HOUSE_NO":"５４４號","E_COORD97":172698.79999999999,"N_COORD97":2563987.23,"ADDRESS":"新生南路５４４號","OBJECTID":640077},"geometry":{"x":172698.80000000075,"y":2563987.2300000023}},{"attributes":{"ID":640105,"DIS_CODE":0,"TOWNNAME":"麻豆區","LI":"巷口里","LIN":" ","STREET":"新生南路","SECT":" ","MAREA":" ","LANE":" ","ALLEY":" ","HOUSE_NO":"７３８號","E_COORD97":173329.32999999999,"N_COORD97":2564055.2799999998,"ADDRESS":"新生南路７３８號","OBJECTID":640078},"geometry":{"x":173329.33000000101,"y":2564055.2800000031}},{"attributes":{"ID":640106,"DIS_CODE":0,"TOWNNAME":"麻豆區","LI":"保安里","LIN":" ","STREET":"興中路","SECT":" ","MAREA":" ","LANE":" ","ALLEY":" ","HOUSE_NO":"１０３號","E_COORD97":173292.60000000001,"N_COORD97":2564831,"ADDRESS":"興中路１０３號","OBJECTID":640079},"geometry":{"x":173292.5999999987,"y":2564831.0000000037}},{"attributes":{"ID":640107,"DIS_CODE":0,"TOWNNAME":"麻豆區","LI":"保安里","LIN":" ","STREET":"興中路","SECT":" ","MAREA":" ","LANE":" ","ALLEY":" ","HOUSE_NO":"１０５號","E_COORD97":173296.44,"N_COORD97":2564830.8900000001,"ADDRESS":"興中路１０５號","OBJECTID":640080},"geometry":{"x":173296.44000000227,"y":2564830.8900000006}},{"attributes":{"ID":640108,"DIS_CODE":0,"TOWNNAME":"麻豆區","LI":"東角里","LIN":" ","STREET":"興中路","SECT":" ","MAREA":" ","LANE":" ","ALLEY":" ","HOUSE_NO":"１７３號","E_COORD97":173614.5,"N_COORD97":2564829.8900000001,"ADDRESS":"興中路１７３號","OBJECTID":640081},"geometry":{"x":173614.50000000093,"y":2564829.8900000025}},{"attributes":{"ID":640109,"DIS_CODE":0,"TOWNNAME":"麻豆區","LI":"東角里","LIN":" ","STREET":"興中路","SECT":" ","MAREA":" ","LANE":" ","ALLEY":" ","HOUSE_NO":"２３９號","E_COORD97":174099.51000000001,"N_COORD97":2564826.1499999999,"ADDRESS":"興中路２３９號","OBJECTID":640082},"geometry":{"x":174099.51000000071,"y":2564826.1500000004}},{"attributes":{"ID":640110,"DIS_CODE":0,"TOWNNAME":"麻豆區","LI":"巷口里","LIN":" ","STREET":"興南路","SECT":" ","MAREA":" ","LANE":" ","ALLEY":" ","HOUSE_NO":"２５之５號","E_COORD97":173157.01000000001,"N_COORD97":2564761.0299999998,"ADDRESS":"興南路２５之５號","OBJECTID":640083},"geometry":{"x":173157.01000000071,"y":2564761.0299999993}},{"attributes":{"ID":640111,"DIS_CODE":0,"TOWNNAME":"麻豆區","LI":"巷口里","LIN":" ","STREET":"興南路","SECT":" ","MAREA":" ","LANE":" ","ALLEY":" ","HOUSE_NO":"３０號","E_COORD97":173138.32000000001,"N_COORD97":2564741.73,"ADDRESS":"興南路３０號","OBJECTID":640084},"geometry":{"x":173138.32000000123,"y":2564741.7300000042}},{"attributes":{"ID":640112,"DIS_CODE":0,"TOWNNAME":"麻豆區","LI":"保安里","LIN":" ","STREET":"興南路","SECT":" ","MAREA":" ","LANE":" ","ALLEY":" ","HOUSE_NO":"４３號","E_COORD97":173167.23999999999,"N_COORD97":2564785.6800000002,"ADDRESS":"興南路４３號","OBJECTID":640085},"geometry":{"x":173167.24000000115,"y":2564785.6800000016}},{"attributes":{"ID":640113,"DIS_CODE":0,"TOWNNAME":"麻豆區","LI":"巷口里","LIN":" ","STREET":"興國路","SECT":" ","MAREA":" ","LANE":" ","ALLEY":" ","HOUSE_NO":"１１之１號","E_COORD97":173055.95999999999,"N_COORD97":2564709.7000000002,"ADDRESS":"興國路１１之１號","OBJECTID":640086},"geometry":{"x":173055.95999999996,"y":2564709.6999999993}},{"attributes":{"ID":640114,"DIS_CODE":0,"TOWNNAME":"麻豆區","LI":"巷口里","LIN":" ","STREET":"興國路","SECT":" ","MAREA":" ","LANE":" ","ALLEY":" ","HOUSE_NO":"１１號","E_COORD97":173060.39000000001,"N_COORD97":2564731.98,"ADDRESS":"興國路１１號","OBJECTID":640087},"geometry":{"x":173060.3900000006,"y":2564731.9800000004}},{"attributes":{"ID":640115,"DIS_CODE":0,"TOWNNAME":"麻豆區","LI":"巷口里","LIN":" ","STREET":"興國路","SECT":" ","MAREA":" ","LANE":" ","ALLEY":" ","HOUSE_NO":"２９之２９號","E_COORD97":173019.73000000001,"N_COORD97":2564484.1699999999,"ADDRESS":"興國路２９之２９號","OBJECTID":640088},"geometry":{"x":173019.73000000231,"y":2564484.1700000037}},{"attributes":{"ID":640116,"DIS_CODE":0,"TOWNNAME":"麻豆區","LI":"中興里","LIN":" ","STREET":"興國路","SECT":" ","MAREA":" ","LANE":" ","ALLEY":" ","HOUSE_NO":"４２之６號","E_COORD97":172977.62,"N_COORD97":2564448.8399999999,"ADDRESS":"興國路４２之６號","OBJECTID":640089},"geometry":{"x":172977.62000000011,"y":2564448.8400000036}},{"attributes":{"ID":640117,"DIS_CODE":0,"TOWNNAME":"麻豆區","LI":"保安里","LIN":" ","STREET":"興國路","SECT":" ","MAREA":" ","LANE":" ","ALLEY":" ","HOUSE_NO":"７號","E_COORD97":173067.42000000001,"N_COORD97":2564790.3399999999,"ADDRESS":"興國路７號","OBJECTID":640090},"geometry":{"x":173067.42000000086,"y":2564790.3399999999}},{"attributes":{"ID":640118,"DIS_CODE":0,"TOWNNAME":"麻豆區","LI":"穀興里","LIN":" ","STREET":"興華街","SECT":" ","MAREA":" ","LANE":" ","ALLEY":" ","HOUSE_NO":"４３號","E_COORD97":172980.59,"N_COORD97":2564886.9399999999,"ADDRESS":"興華街４３號","OBJECTID":640091},"geometry":{"x":172980.58999999985,"y":2564886.9399999995}},{"attributes":{"ID":640119,"DIS_CODE":0,"TOWNNAME":"麻豆區","LI":"穀興里","LIN":" ","STREET":"興華街","SECT":" ","MAREA":" ","LANE":" ","ALLEY":" ","HOUSE_NO":"４４號","E_COORD97":172976.48999999999,"N_COORD97":2564888.21,"ADDRESS":"興華街４４號","OBJECTID":640092},"geometry":{"x":172976.49000000022,"y":2564888.2100000046}},{"attributes":{"ID":640120,"DIS_CODE":0,"TOWNNAME":"麻豆區","LI":"保安里","LIN":"14鄰","STREET":"興南路","SECT":" ","MAREA":" ","LANE":" ","ALLEY":" ","HOUSE_NO":"７５號","E_COORD97":173246.51999999999,"N_COORD97":2564765.2400000002,"ADDRESS":"興南路７５號","OBJECTID":640093},"geometry":{"x":173246.52000000048,"y":2564765.2400000039}},{"attributes":{"ID":640121,"DIS_CODE":0,"TOWNNAME":"麻豆區","LI":"巷口里","LIN":"10鄰","STREET":"民權路","SECT":" ","MAREA":" ","LANE":" ","ALLEY":" ","HOUSE_NO":"６６號之２７","E_COORD97":173487.14999999999,"N_COORD97":2564188.02,"ADDRESS":"民權路６６號之２７","OBJECTID":640094},"geometry":{"x":173487.1500000013,"y":2564188.0199999996}},{"attributes":{"ID":640122,"DIS_CODE":0,"TOWNNAME":"麻豆區","LI":"東角里","LIN":"13鄰","STREET":"民生路","SECT":" ","MAREA":" ","LANE":" ","ALLEY":" ","HOUSE_NO":"１７號之１８","E_COORD97":173651.48999999999,"N_COORD97":2564770.98,"ADDRESS":"民生路１７號之１８","OBJECTID":640095},"geometry":{"x":173651.49000000022,"y":2564770.9800000023}},{"attributes":{"ID":640123,"DIS_CODE":0,"TOWNNAME":"麻豆區","LI":"東角里","LIN":"13鄰","STREET":"民生路","SECT":" ","MAREA":" ","LANE":" ","ALLEY":" ","HOUSE_NO":"１７號之１９","E_COORD97":173649.85999999999,"N_COORD97":2564775.6600000001,"ADDRESS":"民生路１７號之１９","OBJECTID":640096},"geometry":{"x":173649.86000000127,"y":2564775.6599999983}},{"attributes":{"ID":640124,"DIS_CODE":0,"TOWNNAME":"麻豆區","LI":"東角里","LIN":"13鄰","STREET":"民生路","SECT":" ","MAREA":" ","LANE":" ","ALLEY":" ","HOUSE_NO":"１７號之１","E_COORD97":173590.19,"N_COORD97":2564767.8199999998,"ADDRESS":"民生路１７號之１","OBJECTID":640097},"geometry":{"x":173590.19000000134,"y":2564767.8200000003}},{"attributes":{"ID":640125,"DIS_CODE":0,"TOWNNAME":"麻豆區","LI":"東角里","LIN":"13鄰","STREET":"民生路","SECT":" ","MAREA":" ","LANE":" ","ALLEY":" ","HOUSE_NO":"２３號之１","E_COORD97":173617.82000000001,"N_COORD97":2564695.1000000001,"ADDRESS":"民生路２３號之１","OBJECTID":640098},"geometry":{"x":173617.82000000123,"y":2564695.1000000015}},{"attributes":{"ID":640126,"DIS_CODE":0,"TOWNNAME":"麻豆區","LI":"東角里","LIN":"13鄰","STREET":"民生路","SECT":" ","MAREA":" ","LANE":" ","ALLEY":" ","HOUSE_NO":"２３號之２","E_COORD97":173641.70000000001,"N_COORD97":2564716.9500000002,"ADDRESS":"民生路２３號之２","OBJECTID":640099},"geometry":{"x":173641.69999999925,"y":2564716.9500000011}},{"attributes":{"ID":640127,"DIS_CODE":0,"TOWNNAME":"麻豆區","LI":"巷口里","LIN":"4鄰","STREET":"民族路","SECT":" ","MAREA":" ","LANE":" ","ALLEY":" ","HOUSE_NO":"１６號之１０","E_COORD97":173127.98999999999,"N_COORD97":2564504.5699999998,"ADDRESS":"民族路１６號之１０","OBJECTID":640100},"geometry":{"x":173127.99000000209,"y":2564504.5700000003}},{"attributes":{"ID":640128,"DIS_CODE":0,"TOWNNAME":"麻豆區","LI":"巷口里","LIN":"4鄰","STREET":"民族路","SECT":" ","MAREA":" ","LANE":" ","ALLEY":" ","HOUSE_NO":"１６號之１１","E_COORD97":173134.47,"N_COORD97":2564504.8300000001,"ADDRESS":"民族路１６號之１１","OBJECTID":640101},"geometry":{"x":173134.4700000016,"y":2564504.8300000019}},{"attributes":{"ID":640129,"DIS_CODE":0,"TOWNNAME":"麻豆區","LI":"巷口里","LIN":"4鄰","STREET":"民族路","SECT":" ","MAREA":" ","LANE":" ","ALLEY":" ","HOUSE_NO":"１６號之１２","E_COORD97":173141.25,"N_COORD97":2564504.3199999998,"ADDRESS":"民族路１６號之１２","OBJECTID":640102},"geometry":{"x":173141.25000000186,"y":2564504.3200000022}},{"attributes":{"ID":640130,"DIS_CODE":0,"TOWNNAME":"麻豆區","LI":"巷口里","LIN":"4鄰","STREET":"民族路","SECT":" ","MAREA":" ","LANE":" ","ALLEY":" ","HOUSE_NO":"１６號之１３","E_COORD97":173157.73999999999,"N_COORD97":2564515.8399999999,"ADDRESS":"民族路１６號之１３","OBJECTID":640103},"geometry":{"x":173157.74000000022,"y":2564515.8399999999}},{"attributes":{"ID":640131,"DIS_CODE":0,"TOWNNAME":"麻豆區","LI":"巷口里","LIN":"4鄰","STREET":"民族路","SECT":" ","MAREA":" ","LANE":" ","ALLEY":" ","HOUSE_NO":"１６號之１４","E_COORD97":173157.54999999999,"N_COORD97":2564511.6899999999,"ADDRESS":"民族路１６號之１４","OBJECTID":640104},"geometry":{"x":173157.54999999888,"y":2564511.6900000013}},{"attributes":{"ID":640132,"DIS_CODE":0,"TOWNNAME":"麻豆區","LI":"巷口里","LIN":"4鄰","STREET":"民族路","SECT":" ","MAREA":" ","LANE":" ","ALLEY":" ","HOUSE_NO":"１６號之１５","E_COORD97":173157.60000000001,"N_COORD97":2564506.5699999998,"ADDRESS":"民族路１６號之１５","OBJECTID":640105},"geometry":{"x":173157.60000000056,"y":2564506.5700000022}},{"attributes":{"ID":640133,"DIS_CODE":0,"TOWNNAME":"麻豆區","LI":"巷口里","LIN":"4鄰","STREET":"民族路","SECT":" ","MAREA":" ","LANE":" ","ALLEY":" ","HOUSE_NO":"１６號之１６","E_COORD97":173157.20999999999,"N_COORD97":2564501.6299999999,"ADDRESS":"民族路１６號之１６","OBJECTID":640106},"geometry":{"x":173157.21000000089,"y":2564501.6300000008}},{"attributes":{"ID":640134,"DIS_CODE":0,"TOWNNAME":"麻豆區","LI":"巷口里","LIN":"4鄰","STREET":"民族路","SECT":" ","MAREA":" ","LANE":" ","ALLEY":" ","HOUSE_NO":"１６號之１７","E_COORD97":173156.73999999999,"N_COORD97":2564496.6899999999,"ADDRESS":"民族路１６號之１７","OBJECTID":640107},"geometry":{"x":173156.74000000209,"y":2564496.6899999976}},{"attributes":{"ID":640135,"DIS_CODE":0,"TOWNNAME":"麻豆區","LI":"巷口里","LIN":"4鄰","STREET":"民族路","SECT":" ","MAREA":" ","LANE":" ","ALLEY":" ","HOUSE_NO":"１６號之１８","E_COORD97":173157.04000000001,"N_COORD97":2564492.8599999999,"ADDRESS":"民族路１６號之１８","OBJECTID":640108},"geometry":{"x":173157.04000000097,"y":2564492.8600000013}},{"attributes":{"ID":640136,"DIS_CODE":0,"TOWNNAME":"麻豆區","LI":"巷口里","LIN":"4鄰","STREET":"民族路","SECT":" ","MAREA":" ","LANE":" ","ALLEY":" ","HOUSE_NO":"１６號之１","E_COORD97":173134.01000000001,"N_COORD97":2564528.1600000001,"ADDRESS":"民族路１６號之１","OBJECTID":640109},"geometry":{"x":173134.00999999885,"y":2564528.1599999983}},{"attributes":{"ID":640137,"DIS_CODE":0,"TOWNNAME":"麻豆區","LI":"巷口里","LIN":"4鄰","STREET":"民族路","SECT":" ","MAREA":" ","LANE":" ","ALLEY":" ","HOUSE_NO":"１６號之２１","E_COORD97":173133.47,"N_COORD97":2564494.1299999999,"ADDRESS":"民族路１６號之２１","OBJECTID":640110},"geometry":{"x":173133.47000000067,"y":2564494.1300000008}},{"attributes":{"ID":640138,"DIS_CODE":0,"TOWNNAME":"麻豆區","LI":"巷口里","LIN":"4鄰","STREET":"民族路","SECT":" ","MAREA":" ","LANE":" ","ALLEY":" ","HOUSE_NO":"１６號之２２","E_COORD97":173127.17000000001,"N_COORD97":2564494.73,"ADDRESS":"民族路１６號之２２","OBJECTID":640111},"geometry":{"x":173127.17000000086,"y":2564494.7300000023}},{"attributes":{"ID":640139,"DIS_CODE":0,"TOWNNAME":"麻豆區","LI":"巷口里","LIN":"4鄰","STREET":"民族路","SECT":" ","MAREA":" ","LANE":" ","ALLEY":" ","HOUSE_NO":"１６號之２３","E_COORD97":173121.53,"N_COORD97":2564495.1499999999,"ADDRESS":"民族路１６號之２３","OBJECTID":640112},"geometry":{"x":173121.53000000119,"y":2564495.1500000022}},{"attributes":{"ID":640140,"DIS_CODE":0,"TOWNNAME":"麻豆區","LI":"巷口里","LIN":"4鄰","STREET":"民族路","SECT":" ","MAREA":" ","LANE":" ","ALLEY":" ","HOUSE_NO":"１６號之２４","E_COORD97":173121.26000000001,"N_COORD97":2564477.73,"ADDRESS":"民族路１６號之２４","OBJECTID":640113},"geometry":{"x":173121.26000000071,"y":2564477.7300000023}},{"attributes":{"ID":640141,"DIS_CODE":0,"TOWNNAME":"麻豆區","LI":"巷口里","LIN":"4鄰","STREET":"民族路","SECT":" ","MAREA":" ","LANE":" ","ALLEY":" ","HOUSE_NO":"１６號之２５","E_COORD97":173127.10999999999,"N_COORD97":2564477.29,"ADDRESS":"民族路１６號之２５","OBJECTID":640114},"geometry":{"x":173127.11000000034,"y":2564477.2899999991}},{"attributes":{"ID":640142,"DIS_CODE":0,"TOWNNAME":"麻豆區","LI":"巷口里","LIN":"4鄰","STREET":"民族路","SECT":" ","MAREA":" ","LANE":" ","ALLEY":" ","HOUSE_NO":"１６號之８","E_COORD97":173115.32000000001,"N_COORD97":2564531.4300000002,"ADDRESS":"民族路１６號之８","OBJECTID":640115},"geometry":{"x":173115.3200000003,"y":2564531.4299999997}},{"attributes":{"ID":640143,"DIS_CODE":0,"TOWNNAME":"麻豆區","LI":"巷口里","LIN":"4鄰","STREET":"民族路","SECT":" ","MAREA":" ","LANE":" ","ALLEY":" ","HOUSE_NO":"１６號之９","E_COORD97":173121.23999999999,"N_COORD97":2564504.7200000002,"ADDRESS":"民族路１６號之９","OBJECTID":640116},"geometry":{"x":173121.24000000209,"y":2564504.7200000044}},{"attributes":{"ID":640144,"DIS_CODE":0,"TOWNNAME":"麻豆區","LI":"巷口里","LIN":"4鄰","STREET":"民族路","SECT":" ","MAREA":" ","LANE":" ","ALLEY":" ","HOUSE_NO":"１８號之１","E_COORD97":173155.26000000001,"N_COORD97":2564459.02,"ADDRESS":"民族路１８號之１","OBJECTID":640117},"geometry":{"x":173155.26000000071,"y":2564459.0200000014}},{"attributes":{"ID":640145,"DIS_CODE":0,"TOWNNAME":"麻豆區","LI":"巷口里","LIN":"4鄰","STREET":"民族路","SECT":" ","MAREA":" ","LANE":" ","ALLEY":" ","HOUSE_NO":"１８號之２","E_COORD97":173155.35999999999,"N_COORD97":2564454.02,"ADDRESS":"民族路１８號之２","OBJECTID":640118},"geometry":{"x":173155.36000000034,"y":2564454.0200000033}},{"attributes":{"ID":640146,"DIS_CODE":0,"TOWNNAME":"麻豆區","LI":"巷口里","LIN":"4鄰","STREET":"民族路","SECT":" ","MAREA":" ","LANE":" ","ALLEY":" ","HOUSE_NO":"１８號","E_COORD97":173141.06,"N_COORD97":2564493.6000000001,"ADDRESS":"民族路１８號","OBJECTID":640119},"geometry":{"x":173141.06000000052,"y":2564493.5999999996}},{"attributes":{"ID":640147,"DIS_CODE":0,"TOWNNAME":"麻豆區","LI":"巷口里","LIN":"7鄰","STREET":"民族路","SECT":" ","MAREA":" ","LANE":" ","ALLEY":" ","HOUSE_NO":"１９號","E_COORD97":173188.32999999999,"N_COORD97":2564518.7400000002,"ADDRESS":"民族路１９號","OBJECTID":640120},"geometry":{"x":173188.33000000194,"y":2564518.7400000021}},{"attributes":{"ID":640148,"DIS_CODE":0,"TOWNNAME":"麻豆區","LI":"巷口里","LIN":"7鄰","STREET":"民族路","SECT":" ","MAREA":" ","LANE":" ","ALLEY":" ","HOUSE_NO":"２１號","E_COORD97":173193.17000000001,"N_COORD97":2564501.0099999998,"ADDRESS":"民族路２１號","OBJECTID":640121},"geometry":{"x":173193.17000000086,"y":2564501.0099999998}},{"attributes":{"ID":640149,"DIS_CODE":0,"TOWNNAME":"麻豆區","LI":"巷口里","LIN":"7鄰","STREET":"民族路","SECT":" ","MAREA":" ","LANE":" ","ALLEY":" ","HOUSE_NO":"２３號","E_COORD97":173204.95999999999,"N_COORD97":2564516.3900000001,"ADDRESS":"民族路２３號","OBJECTID":640122},"geometry":{"x":173204.96000000089,"y":2564516.3900000006}},{"attributes":{"ID":640150,"DIS_CODE":0,"TOWNNAME":"麻豆區","LI":"巷口里","LIN":"7鄰","STREET":"民族路","SECT":" ","MAREA":" ","LANE":" ","ALLEY":" ","HOUSE_NO":"２５號之１","E_COORD97":173178.41,"N_COORD97":2564496.3799999999,"ADDRESS":"民族路２５號之１","OBJECTID":640123},"geometry":{"x":173178.41000000108,"y":2564496.3800000008}},{"attributes":{"ID":640151,"DIS_CODE":0,"TOWNNAME":"麻豆區","LI":"巷口里","LIN":"7鄰","STREET":"民族路","SECT":" ","MAREA":" ","LANE":" ","ALLEY":" ","HOUSE_NO":"２５號","E_COORD97":173179.25,"N_COORD97":2564491.0899999999,"ADDRESS":"民族路２５號","OBJECTID":640124},"geometry":{"x":173179.25000000093,"y":2564491.0900000036}},{"attributes":{"ID":640152,"DIS_CODE":0,"TOWNNAME":"麻豆區","LI":"巷口里","LIN":"7鄰","STREET":"民族路","SECT":" ","MAREA":" ","LANE":" ","ALLEY":" ","HOUSE_NO":"２７號之１","E_COORD97":173179.73000000001,"N_COORD97":2564486.1699999999,"ADDRESS":"民族路２７號之１","OBJECTID":640125},"geometry":{"x":173179.73000000138,"y":2564486.1699999999}},{"attributes":{"ID":640153,"DIS_CODE":0,"TOWNNAME":"麻豆區","LI":"巷口里","LIN":"7鄰","STREET":"民族路","SECT":" ","MAREA":" ","LANE":" ","ALLEY":" ","HOUSE_NO":"２７號","E_COORD97":173187.48000000001,"N_COORD97":2564476.3199999998,"ADDRESS":"民族路２７號","OBJECTID":640126},"geometry":{"x":173187.47999999952,"y":2564476.3199999984}},{"attributes":{"ID":640154,"DIS_CODE":0,"TOWNNAME":"麻豆區","LI":"巷口里","LIN":"7鄰","STREET":"民族路","SECT":" ","MAREA":" ","LANE":" ","ALLEY":" ","HOUSE_NO":"２９號之１０","E_COORD97":173221.88,"N_COORD97":2564463.54,"ADDRESS":"民族路２９號之１０","OBJECTID":640127},"geometry":{"x":173221.88000000082,"y":2564463.5400000028}},{"attributes":{"ID":640155,"DIS_CODE":0,"TOWNNAME":"麻豆區","LI":"巷口里","LIN":"7鄰","STREET":"民族路","SECT":" ","MAREA":" ","LANE":" ","ALLEY":" ","HOUSE_NO":"２９號之１１","E_COORD97":173226.69,"N_COORD97":2564464,"ADDRESS":"民族路２９號之１１","OBJECTID":640128},"geometry":{"x":173226.68999999948,"y":2564464}},{"attributes":{"ID":640156,"DIS_CODE":0,"TOWNNAME":"麻豆區","LI":"巷口里","LIN":"7鄰","STREET":"民族路","SECT":" ","MAREA":" ","LANE":" ","ALLEY":" ","HOUSE_NO":"２９號之１２","E_COORD97":173226.85999999999,"N_COORD97":2564445.6099999999,"ADDRESS":"民族路２９號之１２","OBJECTID":640129},"geometry":{"x":173226.86000000034,"y":2564445.6099999994}},{"attributes":{"ID":640157,"DIS_CODE":0,"TOWNNAME":"麻豆區","LI":"巷口里","LIN":"7鄰","STREET":"民族路","SECT":" ","MAREA":" ","LANE":" ","ALLEY":" ","HOUSE_NO":"２９號之１３","E_COORD97":173231.51000000001,"N_COORD97":2564464.46,"ADDRESS":"民族路２９號之１３","OBJECTID":640130},"geometry":{"x":173231.51000000071,"y":2564464.4600000009}},{"attributes":{"ID":640158,"DIS_CODE":0,"TOWNNAME":"麻豆區","LI":"巷口里","LIN":"7鄰","STREET":"民族路","SECT":" ","MAREA":" ","LANE":" ","ALLEY":" ","HOUSE_NO":"２９號之１４","E_COORD97":173236.32000000001,"N_COORD97":2564464.9199999999,"ADDRESS":"民族路２９號之１４","OBJECTID":640131},"geometry":{"x":173236.32000000123,"y":2564464.9199999999}},{"attributes":{"ID":640159,"DIS_CODE":0,"TOWNNAME":"麻豆區","LI":"巷口里","LIN":"7鄰","STREET":"民族路","SECT":" ","MAREA":" ","LANE":" ","ALLEY":" ","HOUSE_NO":"２９號之１５","E_COORD97":173241.14000000001,"N_COORD97":2564465.3799999999,"ADDRESS":"民族路２９號之１５","OBJECTID":640132},"geometry":{"x":173241.13999999966,"y":2564465.3800000008}},{"attributes":{"ID":640160,"DIS_CODE":0,"TOWNNAME":"麻豆區","LI":"巷口里","LIN":"7鄰","STREET":"民族路","SECT":" ","MAREA":" ","LANE":" ","ALLEY":" ","HOUSE_NO":"２９號之１","E_COORD97":173189.62,"N_COORD97":2564459.77,"ADDRESS":"民族路２９號之１","OBJECTID":640133},"geometry":{"x":173189.62000000197,"y":2564459.7700000014}},{"attributes":{"ID":640161,"DIS_CODE":0,"TOWNNAME":"麻豆區","LI":"巷口里","LIN":"7鄰","STREET":"民族路","SECT":" ","MAREA":" ","LANE":" ","ALLEY":" ","HOUSE_NO":"２９號之２","E_COORD97":173193.69,"N_COORD97":2564460.25,"ADDRESS":"民族路２９號之２","OBJECTID":640134},"geometry":{"x":173193.69000000134,"y":2564460.2500000019}},{"attributes":{"ID":640162,"DIS_CODE":0,"TOWNNAME":"麻豆區","LI":"\u25A0江里","LIN":"4鄰","STREET":"民權路","SECT":" ","MAREA":" ","LANE":" ","ALLEY":" ","HOUSE_NO":"１６號之３","E_COORD97":173356.04999999999,"N_COORD97":2564592.2200000002,"ADDRESS":"民權路１６號之３","OBJECTID":640135},"geometry":{"x":173356.05000000168,"y":2564592.2200000007}},{"attributes":{"ID":640163,"DIS_CODE":0,"TOWNNAME":"麻豆區","LI":"\u25A0江里","LIN":"18鄰","STREET":"民權路","SECT":" ","MAREA":" ","LANE":" ","ALLEY":" ","HOUSE_NO":"１７號","E_COORD97":173383.38,"N_COORD97":2564766.8799999999,"ADDRESS":"民權路１７號","OBJECTID":640136},"geometry":{"x":173383.38000000082,"y":2564766.8800000008}},{"attributes":{"ID":640164,"DIS_CODE":0,"TOWNNAME":"麻豆區","LI":"\u25A0江里","LIN":"18鄰","STREET":"民權路","SECT":" ","MAREA":" ","LANE":" ","ALLEY":" ","HOUSE_NO":"１號","E_COORD97":173378.62,"N_COORD97":2564798.9100000001,"ADDRESS":"民權路１號","OBJECTID":640137},"geometry":{"x":173378.62000000104,"y":2564798.910000002}},{"attributes":{"ID":640165,"DIS_CODE":0,"TOWNNAME":"麻豆區","LI":"\u25A0江里","LIN":"4鄰","STREET":"民權路","SECT":" ","MAREA":" ","LANE":" ","ALLEY":" ","HOUSE_NO":"２０號之１","E_COORD97":173357.06,"N_COORD97":2564553.5,"ADDRESS":"民權路２０號之１","OBJECTID":640138},"geometry":{"x":173357.05999999959,"y":2564553.5000000019}},{"attributes":{"ID":640166,"DIS_CODE":0,"TOWNNAME":"麻豆區","LI":"\u25A0江里","LIN":"18鄰","STREET":"民權路","SECT":" ","MAREA":" ","LANE":" ","ALLEY":" ","HOUSE_NO":"１９號","E_COORD97":173383.45000000001,"N_COORD97":2564760.2200000002,"ADDRESS":"民權路１９號","OBJECTID":640139},"geometry":{"x":173383.45000000019,"y":2564760.2200000025}},{"attributes":{"ID":640167,"DIS_CODE":0,"TOWNNAME":"麻豆區","LI":"\u25A0江里","LIN":"18鄰","STREET":"民權路","SECT":" ","MAREA":" ","LANE":" ","ALLEY":" ","HOUSE_NO":"１號之１","E_COORD97":173378.60000000001,"N_COORD97":2564795.3799999999,"ADDRESS":"民權路１號之１","OBJECTID":640140},"geometry":{"x":173378.59999999963,"y":2564795.379999999}},{"attributes":{"ID":640168,"DIS_CODE":0,"TOWNNAME":"麻豆區","LI":"\u25A0江里","LIN":"18鄰","STREET":"民權路","SECT":" ","MAREA":" ","LANE":" ","ALLEY":" ","HOUSE_NO":"１號之２","E_COORD97":173378.91,"N_COORD97":2564792.3700000001,"ADDRESS":"民權路１號之２","OBJECTID":640141},"geometry":{"x":173378.91000000015,"y":2564792.3700000048}},{"attributes":{"ID":640169,"DIS_CODE":0,"TOWNNAME":"麻豆區","LI":"\u25A0江里","LIN":"18鄰","STREET":"民權路","SECT":" ","MAREA":" ","LANE":" ","ALLEY":" ","HOUSE_NO":"１號之３","E_COORD97":173379.12,"N_COORD97":2564789.29,"ADDRESS":"民權路１號之３","OBJECTID":640142},"geometry":{"x":173379.12000000011,"y":2564789.2899999991}},{"attributes":{"ID":640170,"DIS_CODE":0,"TOWNNAME":"麻豆區","LI":"\u25A0江里","LIN":"17鄰","STREET":"民權路","SECT":" ","MAREA":" ","LANE":" ","ALLEY":" ","HOUSE_NO":"２５號之１","E_COORD97":173379.95000000001,"N_COORD97":2564723.3599999999,"ADDRESS":"民權路２５號之１","OBJECTID":640143},"geometry":{"x":173379.95000000019,"y":2564723.3600000013}},{"attributes":{"ID":640171,"DIS_CODE":0,"TOWNNAME":"麻豆區","LI":"\u25A0江里","LIN":"17鄰","STREET":"民權路","SECT":" ","MAREA":" ","LANE":" ","ALLEY":" ","HOUSE_NO":"２５號之２","E_COORD97":173379.5,"N_COORD97":2564728.0899999999,"ADDRESS":"民權路２５號之２","OBJECTID":640144},"geometry":{"x":173379.5,"y":2564728.0899999999}},{"attributes":{"ID":640172,"DIS_CODE":0,"TOWNNAME":"麻豆區","LI":"\u25A0江里","LIN":"17鄰","STREET":"民權路","SECT":" ","MAREA":" ","LANE":" ","ALLEY":" ","HOUSE_NO":"２５號之３","E_COORD97":173379.79000000001,"N_COORD97":2564733.8199999998,"ADDRESS":"民權路２５號之３","OBJECTID":640145},"geometry":{"x":173379.79000000004,"y":2564733.8200000003}},{"attributes":{"ID":640173,"DIS_CODE":0,"TOWNNAME":"麻豆區","LI":"\u25A0江里","LIN":"17鄰","STREET":"民權路","SECT":" ","MAREA":" ","LANE":" ","ALLEY":" ","HOUSE_NO":"２５號之４","E_COORD97":173379.82999999999,"N_COORD97":2564739.0699999998,"ADDRESS":"民權路２５號之４","OBJECTID":640146},"geometry":{"x":173379.83000000194,"y":2564739.0699999984}},{"attributes":{"ID":640174,"DIS_CODE":0,"TOWNNAME":"麻豆區","LI":"\u25A0江里","LIN":"17鄰","STREET":"民權路","SECT":" ","MAREA":" ","LANE":" ","ALLEY":" ","HOUSE_NO":"２５號之５","E_COORD97":173380.69,"N_COORD97":2564743.4100000001,"ADDRESS":"民權路２５號之５","OBJECTID":640147},"geometry":{"x":173380.69000000041,"y":2564743.4099999983}},{"attributes":{"ID":640175,"DIS_CODE":0,"TOWNNAME":"麻豆區","LI":"\u25A0江里","LIN":"17鄰","STREET":"民權路","SECT":" ","MAREA":" ","LANE":" ","ALLEY":" ","HOUSE_NO":"２５號","E_COORD97":173380.35000000001,"N_COORD97":2564715.1099999999,"ADDRESS":"民權路２５號","OBJECTID":640148},"geometry":{"x":173380.34999999963,"y":2564715.1100000013}},{"attributes":{"ID":640176,"DIS_CODE":0,"TOWNNAME":"麻豆區","LI":"保安里","LIN":"14鄰","STREET":"民權路","SECT":" ","MAREA":" ","LANE":" ","ALLEY":" ","HOUSE_NO":"２號之１","E_COORD97":173355.79000000001,"N_COORD97":2564783.8799999999,"ADDRESS":"民權路２號之１","OBJECTID":640149},"geometry":{"x":173355.79000000004,"y":2564783.8800000008}},{"attributes":{"ID":640177,"DIS_CODE":0,"TOWNNAME":"麻豆區","LI":"保安里","LIN":"14鄰","STREET":"民權路","SECT":" ","MAREA":" ","LANE":" ","ALLEY":" ","HOUSE_NO":"４號","E_COORD97":173356.38,"N_COORD97":2564776.6899999999,"ADDRESS":"民權路４號","OBJECTID":640150},"geometry":{"x":173356.37999999989,"y":2564776.6899999995}},{"attributes":{"ID":640178,"DIS_CODE":0,"TOWNNAME":"北區","LI":"公園里","LIN":"7鄰","STREET":"北忠街","SECT":" ","MAREA":" ","LANE":" ","ALLEY":" ","HOUSE_NO":"７２號","E_COORD97":169083.98999999999,"N_COORD97":2544402.1899999999,"ADDRESS":"北忠街７２號","OBJECTID":640151},"geometry":{"x":169083.99000000115,"y":2544402.1900000032}},{"attributes":{"ID":640179,"DIS_CODE":0,"TOWNNAME":"北區","LI":"中樓里","LIN":"17鄰","STREET":"東豐路","SECT":" ","MAREA":" ","LANE":" ","ALLEY":" ","HOUSE_NO":"１３５號","E_COORD97":169805.91,"N_COORD97":2544913.5299999998,"ADDRESS":"東豐路１３５號","OBJECTID":640152},"geometry":{"x":169805.91000000201,"y":2544913.5299999993}},{"attributes":{"ID":640180,"DIS_CODE":0,"TOWNNAME":"北區","LI":"中樓里","LIN":"17鄰","STREET":"東豐路","SECT":" ","MAREA":" ","LANE":" ","ALLEY":" ","HOUSE_NO":"１３７號","E_COORD97":169812.44,"N_COORD97":2544913.2200000002,"ADDRESS":"東豐路１３７號","OBJECTID":640153},"geometry":{"x":169812.44000000041,"y":2544913.2200000025}},{"attributes":{"ID":640181,"DIS_CODE":0,"TOWNNAME":"北區","LI":"中樓里","LIN":"17鄰","STREET":"東豐路","SECT":" ","MAREA":" ","LANE":" ","ALLEY":" ","HOUSE_NO":"１３９號","E_COORD97":169822.35000000001,"N_COORD97":2544910.48,"ADDRESS":"東豐路１３９號","OBJECTID":640154},"geometry":{"x":169822.34999999963,"y":2544910.4800000023}},{"attributes":{"ID":640182,"DIS_CODE":0,"TOWNNAME":"北區","LI":"中樓里","LIN":"17鄰","STREET":"東豐路","SECT":" ","MAREA":" ","LANE":" ","ALLEY":" ","HOUSE_NO":"１４１號","E_COORD97":169834.89999999999,"N_COORD97":2544908.48,"ADDRESS":"東豐路１４１號","OBJECTID":640155},"geometry":{"x":169834.89999999944,"y":2544908.4800000004}},{"attributes":{"ID":640183,"DIS_CODE":0,"TOWNNAME":"北區","LI":"中樓里","LIN":"19鄰","STREET":"勝利路","SECT":" ","MAREA":" ","LANE":" ","ALLEY":" ","HOUSE_NO":"３７９號","E_COORD97":169906.91,"N_COORD97":2544925.5499999998,"ADDRESS":"勝利路３７９號","OBJECTID":640156},"geometry":{"x":169906.91000000015,"y":2544925.5500000007}},{"attributes":{"ID":640184,"DIS_CODE":0,"TOWNNAME":"北區","LI":"中樓里","LIN":"19鄰","STREET":"勝利路","SECT":" ","MAREA":" ","LANE":" ","ALLEY":" ","HOUSE_NO":"３８１號","E_COORD97":169907.85999999999,"N_COORD97":2544931.1299999999,"ADDRESS":"勝利路３８１號","OBJECTID":640157},"geometry":{"x":169907.86000000034,"y":2544931.1300000027}},{"attributes":{"ID":640185,"DIS_CODE":0,"TOWNNAME":"北區","LI":"中樓里","LIN":"19鄰","STREET":"勝利路","SECT":" ","MAREA":" ","LANE":" ","ALLEY":" ","HOUSE_NO":"３８３號","E_COORD97":169908.39000000001,"N_COORD97":2544935.98,"ADDRESS":"勝利路３８３號","OBJECTID":640158},"geometry":{"x":169908.38999999966,"y":2544935.9800000004}},{"attributes":{"ID":640186,"DIS_CODE":0,"TOWNNAME":"北區","LI":"中樓里","LIN":"19鄰","STREET":"勝利路","SECT":" ","MAREA":" ","LANE":" ","ALLEY":" ","HOUSE_NO":"３８５號","E_COORD97":169908.70000000001,"N_COORD97":2544939.5600000001,"ADDRESS":"勝利路３８５號","OBJECTID":640159},"geometry":{"x":169908.70000000019,"y":2544939.5599999987}},{"attributes":{"ID":640187,"DIS_CODE":0,"TOWNNAME":"北區","LI":"公園里","LIN":"4鄰","STREET":"公園南路","SECT":" ","MAREA":" ","LANE":" ","ALLEY":" ","HOUSE_NO":"１１號","E_COORD97":169242.42999999999,"N_COORD97":2544501.1000000001,"ADDRESS":"公園南路１１號","OBJECTID":640160},"geometry":{"x":169242.43000000156,"y":2544501.1000000034}},{"attributes":{"ID":640188,"DIS_CODE":0,"TOWNNAME":"北區","LI":"公園里","LIN":"4鄰","STREET":"公園南路","SECT":" ","MAREA":" ","LANE":" ","ALLEY":" ","HOUSE_NO":"１５號","E_COORD97":169236.94,"N_COORD97":2544502.8799999999,"ADDRESS":"公園南路１５號","OBJECTID":640161},"geometry":{"x":169236.94000000134,"y":2544502.8800000008}},{"attributes":{"ID":640189,"DIS_CODE":0,"TOWNNAME":"北區","LI":"公園里","LIN":"4鄰","STREET":"公園南路","SECT":" ","MAREA":" ","LANE":" ","ALLEY":" ","HOUSE_NO":"１５號之１","E_COORD97":169233.51000000001,"N_COORD97":2544491.2400000002,"ADDRESS":"公園南路１５號之１","OBJECTID":640162},"geometry":{"x":169233.51000000164,"y":2544491.2400000021}},{"attributes":{"ID":640190,"DIS_CODE":0,"TOWNNAME":"北區","LI":"公園里","LIN":"4鄰","STREET":"公園南路","SECT":" ","MAREA":" ","LANE":" ","ALLEY":" ","HOUSE_NO":"１７號","E_COORD97":169233.64999999999,"N_COORD97":2544503.1600000001,"ADDRESS":"公園南路１７號","OBJECTID":640163},"geometry":{"x":169233.6500000013,"y":2544503.1600000001}},{"attributes":{"ID":640191,"DIS_CODE":0,"TOWNNAME":"北區","LI":"公園里","LIN":"4鄰","STREET":"公園南路","SECT":" ","MAREA":" ","LANE":" ","ALLEY":" ","HOUSE_NO":"１９號","E_COORD97":169228.70999999999,"N_COORD97":2544492.8799999999,"ADDRESS":"公園南路１９號","OBJECTID":640164},"geometry":{"x":169228.70999999996,"y":2544492.8800000008}},{"attributes":{"ID":640192,"DIS_CODE":0,"TOWNNAME":"北區","LI":"公園里","LIN":"4鄰","STREET":"公園南路","SECT":" ","MAREA":" ","LANE":" ","ALLEY":" ","HOUSE_NO":"１號","E_COORD97":169259.45000000001,"N_COORD97":2544495.0699999998,"ADDRESS":"公園南路１號","OBJECTID":640165},"geometry":{"x":169259.45000000019,"y":2544495.0700000003}},{"attributes":{"ID":640193,"DIS_CODE":0,"TOWNNAME":"北區","LI":"公園里","LIN":"4鄰","STREET":"公園南路","SECT":" ","MAREA":" ","LANE":" ","ALLEY":" ","HOUSE_NO":"１號之１","E_COORD97":169262.60000000001,"N_COORD97":2544494.52,"ADDRESS":"公園南路１號之１","OBJECTID":640166},"geometry":{"x":169262.59999999963,"y":2544494.5199999996}},{"attributes":{"ID":640194,"DIS_CODE":0,"TOWNNAME":"北區","LI":"公園里","LIN":"4鄰","STREET":"公園南路","SECT":" ","MAREA":" ","LANE":" ","ALLEY":" ","HOUSE_NO":"１號之２","E_COORD97":169266.85999999999,"N_COORD97":2544493.29,"ADDRESS":"公園南路１號之２","OBJECTID":640167},"geometry":{"x":169266.86000000034,"y":2544493.290000001}},{"attributes":{"ID":640195,"DIS_CODE":0,"TOWNNAME":"北區","LI":"公園里","LIN":"4鄰","STREET":"公園南路","SECT":" ","MAREA":" ","LANE":" ","ALLEY":" ","HOUSE_NO":"１號之３","E_COORD97":169270.98000000001,"N_COORD97":2544492.4700000002,"ADDRESS":"公園南路１號之３","OBJECTID":640168},"geometry":{"x":169270.98000000045,"y":2544492.4700000007}},{"attributes":{"ID":640196,"DIS_CODE":0,"TOWNNAME":"北區","LI":"公園里","LIN":"4鄰","STREET":"北門路","SECT":"二段","MAREA":" ","LANE":" ","ALLEY":" ","HOUSE_NO":"１１１號","E_COORD97":169276.89000000001,"N_COORD97":2544465.3999999999,"ADDRESS":"北門路二段１１１號","OBJECTID":640169},"geometry":{"x":169276.8900000006,"y":2544465.4000000004}},{"attributes":{"ID":640197,"DIS_CODE":0,"TOWNNAME":"北區","LI":"公園里","LIN":"4鄰","STREET":"北門路","SECT":"二段","MAREA":" ","LANE":" ","ALLEY":" ","HOUSE_NO":"１１３號","E_COORD97":169277.57000000001,"N_COORD97":2544469.29,"ADDRESS":"北門路二段１１３號","OBJECTID":640170},"geometry":{"x":169277.5700000003,"y":2544469.290000001}},{"attributes":{"ID":640198,"DIS_CODE":0,"TOWNNAME":"北區","LI":"公園里","LIN":"4鄰","STREET":"北門路","SECT":"二段","MAREA":" ","LANE":" ","ALLEY":" ","HOUSE_NO":"１１５號","E_COORD97":169278.39999999999,"N_COORD97":2544473.27,"ADDRESS":"北門路二段１１５號","OBJECTID":640171},"geometry":{"x":169278.40000000037,"y":2544473.2700000014}},{"attributes":{"ID":640199,"DIS_CODE":0,"TOWNNAME":"北區","LI":"公園里","LIN":"4鄰","STREET":"北門路","SECT":"二段","MAREA":" ","LANE":" ","ALLEY":" ","HOUSE_NO":"１１７號","E_COORD97":169278.81,"N_COORD97":2544477.2400000002,"ADDRESS":"北門路二段１１７號","OBJECTID":640172},"geometry":{"x":169278.81000000145,"y":2544477.2400000039}},{"attributes":{"ID":640200,"DIS_CODE":0,"TOWNNAME":"北區","LI":"公園里","LIN":"4鄰","STREET":"北門路","SECT":"二段","MAREA":" ","LANE":" ","ALLEY":" ","HOUSE_NO":"１１９號","E_COORD97":169280.32000000001,"N_COORD97":2544483,"ADDRESS":"北門路二段１１９號","OBJECTID":640173},"geometry":{"x":169280.3200000003,"y":2544483.0000000019}},{"attributes":{"ID":640201,"DIS_CODE":0,"TOWNNAME":"北區","LI":"公園里","LIN":"4鄰","STREET":"北門路","SECT":"二段","MAREA":" ","LANE":" ","ALLEY":" ","HOUSE_NO":"１２１號","E_COORD97":169280.73000000001,"N_COORD97":2544487.52,"ADDRESS":"北門路二段１２１號","OBJECTID":640174},"geometry":{"x":169280.73000000138,"y":2544487.5199999996}},{"attributes":{"ID":640202,"DIS_CODE":0,"TOWNNAME":"北區","LI":"公園里","LIN":"4鄰","STREET":"公園南路","SECT":" ","MAREA":" ","LANE":" ","ALLEY":" ","HOUSE_NO":"２５號","E_COORD97":169219.41,"N_COORD97":2544508.98,"ADDRESS":"公園南路２５號","OBJECTID":640175},"geometry":{"x":169219.41000000201,"y":2544508.9800000004}},{"attributes":{"ID":640203,"DIS_CODE":0,"TOWNNAME":"北區","LI":"公園里","LIN":"4鄰","STREET":"公園南路","SECT":" ","MAREA":" ","LANE":" ","ALLEY":" ","HOUSE_NO":"２７號","E_COORD97":169213.56,"N_COORD97":2544510.23,"ADDRESS":"公園南路２７號","OBJECTID":640176},"geometry":{"x":169213.55999999959,"y":2544510.2300000004}},{"attributes":{"ID":640204,"DIS_CODE":0,"TOWNNAME":"北區","LI":"公園里","LIN":"4鄰","STREET":"公園南路","SECT":" ","MAREA":" ","LANE":" ","ALLEY":" ","HOUSE_NO":"２９號","E_COORD97":169210.07999999999,"N_COORD97":2544511.48,"ADDRESS":"公園南路２９號","OBJECTID":640177},"geometry":{"x":169210.08000000101,"y":2544511.4800000004}},{"attributes":{"ID":640205,"DIS_CODE":0,"TOWNNAME":"北區","LI":"公園里","LIN":"4鄰","STREET":"公園南路","SECT":" ","MAREA":" ","LANE":" ","ALLEY":" ","HOUSE_NO":"３１號","E_COORD97":169205.76999999999,"N_COORD97":2544512.4500000002,"ADDRESS":"公園南路３１號","OBJECTID":640178},"geometry":{"x":169205.76999999955,"y":2544512.4500000011}},{"attributes":{"ID":640206,"DIS_CODE":0,"TOWNNAME":"北區","LI":"公園里","LIN":"4鄰","STREET":"公園南路","SECT":" ","MAREA":" ","LANE":" ","ALLEY":" ","HOUSE_NO":"３３號","E_COORD97":169201.45000000001,"N_COORD97":2544513.5699999998,"ADDRESS":"公園南路３３號","OBJECTID":640179},"geometry":{"x":169201.45000000019,"y":2544513.5700000022}},{"attributes":{"ID":640207,"DIS_CODE":0,"TOWNNAME":"北區","LI":"公園里","LIN":"4鄰","STREET":"公園南路","SECT":" ","MAREA":" ","LANE":" ","ALLEY":" ","HOUSE_NO":"３５號","E_COORD97":169198.39000000001,"N_COORD97":2544514.6800000002,"ADDRESS":"公園南路３５號","OBJECTID":640180},"geometry":{"x":169198.38999999966,"y":2544514.6800000016}},{"attributes":{"ID":640208,"DIS_CODE":0,"TOWNNAME":"北區","LI":"公園里","LIN":"4鄰","STREET":"富北街","SECT":" ","MAREA":" ","LANE":" ","ALLEY":" ","HOUSE_NO":"８４號","E_COORD97":169190.45999999999,"N_COORD97":2544472.98,"ADDRESS":"富北街８４號","OBJECTID":640181},"geometry":{"x":169190.46000000089,"y":2544472.9800000023}},{"attributes":{"ID":640209,"DIS_CODE":0,"TOWNNAME":"北區","LI":"公園里","LIN":"4鄰","STREET":"富北街","SECT":" ","MAREA":" ","LANE":" ","ALLEY":" ","HOUSE_NO":"８６號","E_COORD97":169190.60000000001,"N_COORD97":2544479.6499999999,"ADDRESS":"富北街８６號","OBJECTID":640182},"geometry":{"x":169190.60000000056,"y":2544479.6500000004}},{"attributes":{"ID":640210,"DIS_CODE":0,"TOWNNAME":"北區","LI":"公園里","LIN":"4鄰","STREET":"富北街","SECT":" ","MAREA":" ","LANE":" ","ALLEY":" ","HOUSE_NO":"８８號","E_COORD97":169190.60000000001,"N_COORD97":2544483.6800000002,"ADDRESS":"富北街８８號","OBJECTID":640183},"geometry":{"x":169190.60000000056,"y":2544483.6800000034}},{"attributes":{"ID":640211,"DIS_CODE":0,"TOWNNAME":"北區","LI":"公園里","LIN":"4鄰","STREET":"富北街","SECT":" ","MAREA":" ","LANE":" ","ALLEY":" ","HOUSE_NO":"９２號","E_COORD97":169191.29000000001,"N_COORD97":2544490.4900000002,"ADDRESS":"富北街９２號","OBJECTID":640184},"geometry":{"x":169191.2900000019,"y":2544490.4900000021}},{"attributes":{"ID":640212,"DIS_CODE":0,"TOWNNAME":"北區","LI":"公園里","LIN":"4鄰","STREET":"富北街","SECT":" ","MAREA":" ","LANE":" ","ALLEY":" ","HOUSE_NO":"９４號","E_COORD97":169192.54000000001,"N_COORD97":2544495.5,"ADDRESS":"富北街９４號","OBJECTID":640185},"geometry":{"x":169192.54000000004,"y":2544495.5000000037}},{"attributes":{"ID":640213,"DIS_CODE":0,"TOWNNAME":"北區","LI":"公園里","LIN":"4鄰","STREET":"富北街","SECT":" ","MAREA":" ","LANE":" ","ALLEY":" ","HOUSE_NO":"９６號","E_COORD97":169194.20999999999,"N_COORD97":2544503.9700000002,"ADDRESS":"富北街９６號","OBJECTID":640186},"geometry":{"x":169194.20999999996,"y":2544503.9700000025}},{"attributes":{"ID":640214,"DIS_CODE":0,"TOWNNAME":"北區","LI":"公園里","LIN":"4鄰","STREET":"富北街","SECT":" ","MAREA":" ","LANE":" ","ALLEY":" ","HOUSE_NO":"９６號之２","E_COORD97":169195.88,"N_COORD97":2544509.2599999998,"ADDRESS":"富北街９６號之２","OBJECTID":640187},"geometry":{"x":169195.88000000082,"y":2544509.2599999998}},{"attributes":{"ID":640215,"DIS_CODE":0,"TOWNNAME":"北區","LI":"公園里","LIN":"1鄰","STREET":"北忠街","SECT":" ","MAREA":" ","LANE":" ","ALLEY":" ","HOUSE_NO":"３１號","E_COORD97":169182.56,"N_COORD97":2544353.8700000001,"ADDRESS":"北忠街３１號","OBJECTID":640188},"geometry":{"x":169182.56000000052,"y":2544353.870000001}},{"attributes":{"ID":640216,"DIS_CODE":0,"TOWNNAME":"北區","LI":"公園里","LIN":"1鄰","STREET":"富北街","SECT":" ","MAREA":" ","LANE":" ","ALLEY":" ","HOUSE_NO":"１６號","E_COORD97":169201.70000000001,"N_COORD97":2544323.8100000001,"ADDRESS":"富北街１６號","OBJECTID":640189},"geometry":{"x":169201.70000000019,"y":2544323.8100000005}},{"attributes":{"ID":640217,"DIS_CODE":0,"TOWNNAME":"北區","LI":"正覺里","LIN":"11鄰","STREET":"正覺街","SECT":" ","MAREA":" ","LANE":" ","ALLEY":" ","HOUSE_NO":"７５號","E_COORD97":169296.78,"N_COORD97":2546392.3500000001,"ADDRESS":"正覺街７５號","OBJECTID":640190},"geometry":{"x":169296.78000000119,"y":2546392.3500000015}},{"attributes":{"ID":640218,"DIS_CODE":0,"TOWNNAME":"麻豆區","LI":"穀興里","LIN":"2鄰","STREET":"光復路","SECT":" ","MAREA":" ","LANE":" ","ALLEY":" ","HOUSE_NO":"４７號","E_COORD97":172976.23999999999,"N_COORD97":2564901.9199999999,"ADDRESS":"光復路４７號","OBJECTID":640191},"geometry":{"x":172976.24000000115,"y":2564901.9199999999}},{"attributes":{"ID":640219,"DIS_CODE":0,"TOWNNAME":"麻豆區","LI":"穀興里","LIN":"2鄰","STREET":"光復路","SECT":" ","MAREA":" ","LANE":" ","ALLEY":" ","HOUSE_NO":"５４號","E_COORD97":172945.45000000001,"N_COORD97":2564922.3999999999,"ADDRESS":"光復路５４號","OBJECTID":640192},"geometry":{"x":172945.45000000112,"y":2564922.4000000004}},{"attributes":{"ID":640220,"DIS_CODE":0,"TOWNNAME":"永康區","LI":"甲頂里","LIN":" ","STREET":"中正南路","SECT":" ","MAREA":" ","LANE":" ","ALLEY":" ","HOUSE_NO":"７６號","E_COORD97":169695.37,"N_COORD97":2546799.4500000002,"ADDRESS":"中正南路７６號","OBJECTID":640193},"geometry":{"x":169695.37000000011,"y":2546799.4499999993}},{"attributes":{"ID":640221,"DIS_CODE":0,"TOWNNAME":"北區","LI":"正覺里","LIN":"20鄰","STREET":"公園路","SECT":" ","MAREA":" ","LANE":" ","ALLEY":" ","HOUSE_NO":"６０５號","E_COORD97":169336.04999999999,"N_COORD97":2546152.0899999999,"ADDRESS":"公園路６０５號","OBJECTID":640194},"geometry":{"x":169336.04999999981,"y":2546152.0899999999}},{"attributes":{"ID":640222,"DIS_CODE":0,"TOWNNAME":"北區","LI":"正覺里","LIN":"20鄰","STREET":"公園路","SECT":" ","MAREA":" ","LANE":" ","ALLEY":" ","HOUSE_NO":"６０７號","E_COORD97":169339.07000000001,"N_COORD97":2546156.5800000001,"ADDRESS":"公園路６０７號","OBJECTID":640195},"geometry":{"x":169339.07000000123,"y":2546156.5800000038}},{"attributes":{"ID":640223,"DIS_CODE":0,"TOWNNAME":"北區","LI":"正覺里","LIN":"20鄰","STREET":"公園路","SECT":" ","MAREA":" ","LANE":" ","ALLEY":" ","HOUSE_NO":"６０９號","E_COORD97":169341.37,"N_COORD97":2546159.6899999999,"ADDRESS":"公園路６０９號","OBJECTID":640196},"geometry":{"x":169341.37000000011,"y":2546159.6900000013}},{"attributes":{"ID":640224,"DIS_CODE":0,"TOWNNAME":"北區","LI":"正覺里","LIN":"20鄰","STREET":"公園路","SECT":" ","MAREA":" ","LANE":" ","ALLEY":" ","HOUSE_NO":"６１１號","E_COORD97":169345.67999999999,"N_COORD97":2546162.3500000001,"ADDRESS":"公園路６１１號","OBJECTID":640197},"geometry":{"x":169345.6799999997,"y":2546162.3500000015}},{"attributes":{"ID":640225,"DIS_CODE":0,"TOWNNAME":"北區","LI":"正覺里","LIN":"20鄰","STREET":"公園路","SECT":" ","MAREA":" ","LANE":" ","ALLEY":" ","HOUSE_NO":"６１３號","E_COORD97":169348.23999999999,"N_COORD97":2546166.29,"ADDRESS":"公園路６１３號","OBJECTID":640198},"geometry":{"x":169348.24000000115,"y":2546166.2899999991}},{"attributes":{"ID":640226,"DIS_CODE":0,"TOWNNAME":"北區","LI":"正覺里","LIN":"20鄰","STREET":"公園路","SECT":" ","MAREA":" ","LANE":" ","ALLEY":" ","HOUSE_NO":"６１５號","E_COORD97":169351.17999999999,"N_COORD97":2546169.1299999999,"ADDRESS":"公園路６１５號","OBJECTID":640199},"geometry":{"x":169351.18000000063,"y":2546169.1300000008}},{"attributes":{"ID":640227,"DIS_CODE":0,"TOWNNAME":"北區","LI":"正覺里","LIN":"20鄰","STREET":"公園路","SECT":" ","MAREA":" ","LANE":" ","ALLEY":" ","HOUSE_NO":"６１７號","E_COORD97":169354.48000000001,"N_COORD97":2546174.1699999999,"ADDRESS":"公園路６１７號","OBJECTID":640200},"geometry":{"x":169354.48000000045,"y":2546174.1700000018}}]}