{"displayFieldName":"TOWNNAME","fieldAliases":{"ID":"ID","DIS_CODE":"DIS_CODE","TOWNNAME":"TOWNNAME","LI":"LI","LIN":"LIN","STREET":"STREET","SECT":"SECT","MAREA":"MAREA","LANE":"LANE","ALLEY":"ALLEY","HOUSE_NO":"HOUSE_NO","E_COORD97":"E_COORD97","N_COORD97":"N_COORD97","ADDRESS":"ADDRESS","OBJECTID":"OBJECTID"},"geometryType":"esriGeometryPoint","spatialReference":{"wkid":102443,"latestWkid":3826},"fields":[{"name":"ID","type":"esriFieldTypeDouble","alias":"ID"},{"name":"DIS_CODE","type":"esriFieldTypeInteger","alias":"DIS_CODE"},{"name":"TOWNNAME","type":"esriFieldTypeString","alias":"TOWNNAME","length":8},{"name":"LI","type":"esriFieldTypeString","alias":"LI","length":8},{"name":"LIN","type":"esriFieldTypeString","alias":"LIN","length":12},{"name":"STREET","type":"esriFieldTypeString","alias":"STREET","length":20},{"name":"SECT","type":"esriFieldTypeString","alias":"SECT","length":8},{"name":"MAREA","type":"esriFieldTypeString","alias":"MAREA","length":12},{"name":"LANE","type":"esriFieldTypeString","alias":"LANE","length":10},{"name":"ALLEY","type":"esriFieldTypeString","alias":"ALLEY","length":10},{"name":"HOUSE_NO","type":"esriFieldTypeString","alias":"HOUSE_NO","length":20},{"name":"E_COORD97","type":"esriFieldTypeDouble","alias":"E_COORD97"},{"name":"N_COORD97","type":"esriFieldTypeDouble","alias":"N_COORD97"},{"name":"ADDRESS","type":"esriFieldTypeString","alias":"ADDRESS","length":50},{"name":"OBJECTID","type":"esriFieldTypeOID","alias":"OBJECTID"}],"features":[{"attributes":{"ID":276606,"DIS_CODE":0,"TOWNNAME":"安南區","LI":"理想里","LIN":"1鄰","STREET":"同安路","SECT":" ","MAREA":" ","LANE":"５２巷","ALLEY":" ","HOUSE_NO":"８號","E_COORD97":166894.14000000001,"N_COORD97":2548824.02,"ADDRESS":"同安路５２巷８號","OBJECTID":276601},"geometry":{"x":166894.13999999966,"y":2548824.0199999996}},{"attributes":{"ID":276607,"DIS_CODE":0,"TOWNNAME":"安南區","LI":"梅花里","LIN":"1鄰","STREET":"安中路","SECT":"一段","MAREA":" ","LANE":"６１９巷","ALLEY":" ","HOUSE_NO":"３２號","E_COORD97":167780,"N_COORD97":2549026.79,"ADDRESS":"安中路一段６１９巷３２號","OBJECTID":276602},"geometry":{"x":167780.00000000093,"y":2549026.790000001}},{"attributes":{"ID":276608,"DIS_CODE":0,"TOWNNAME":"安南區","LI":"梅花里","LIN":"1鄰","STREET":"安中路","SECT":"一段","MAREA":" ","LANE":"６１９巷","ALLEY":" ","HOUSE_NO":"３４號","E_COORD97":167777.64999999999,"N_COORD97":2549019.5499999998,"ADDRESS":"安中路一段６１９巷３４號","OBJECTID":276603},"geometry":{"x":167777.6500000013,"y":2549019.5500000026}},{"attributes":{"ID":276609,"DIS_CODE":0,"TOWNNAME":"仁德區","LI":"田厝里","LIN":"1鄰","STREET":"保安路","SECT":"二段","MAREA":" ","LANE":"６３０巷","ALLEY":" ","HOUSE_NO":"１６號","E_COORD97":172771.85000000001,"N_COORD97":2537531.3999999999,"ADDRESS":"保安路二段６３０巷１６號","OBJECTID":276604},"geometry":{"x":172771.84999999963,"y":2537531.4000000004}},{"attributes":{"ID":276610,"DIS_CODE":0,"TOWNNAME":"仁德區","LI":"田厝里","LIN":"1鄰","STREET":"保安路","SECT":"二段","MAREA":" ","LANE":"６３０巷","ALLEY":" ","HOUSE_NO":"２３號","E_COORD97":172797.45999999999,"N_COORD97":2537518.3199999998,"ADDRESS":"保安路二段６３０巷２３號","OBJECTID":276605},"geometry":{"x":172797.46000000183,"y":2537518.3200000003}},{"attributes":{"ID":276611,"DIS_CODE":0,"TOWNNAME":"仁德區","LI":"成功里","LIN":"1鄰","STREET":"保生東路","SECT":" ","MAREA":" ","LANE":"１３８巷","ALLEY":" ","HOUSE_NO":"１３號","E_COORD97":171228.41,"N_COORD97":2539587.1899999999,"ADDRESS":"保生東路１３８巷１３號","OBJECTID":276606},"geometry":{"x":171228.41000000108,"y":2539587.1899999995}},{"attributes":{"ID":276612,"DIS_CODE":0,"TOWNNAME":"仁德區","LI":"太子里","LIN":"1鄰","STREET":"長興路","SECT":" ","MAREA":" ","LANE":"１２巷","ALLEY":" ","HOUSE_NO":"９號","E_COORD97":174156.85000000001,"N_COORD97":2543557.25,"ADDRESS":"長興路１２巷９號","OBJECTID":276607},"geometry":{"x":174156.84999999963,"y":2543557.25}},{"attributes":{"ID":276613,"DIS_CODE":0,"TOWNNAME":"仁德區","LI":"太子里","LIN":"1鄰","STREET":"長興路","SECT":" ","MAREA":" ","LANE":"１２巷","ALLEY":" ","HOUSE_NO":"２號","E_COORD97":174143.59,"N_COORD97":2543540.5099999998,"ADDRESS":"長興路１２巷２號","OBJECTID":276608},"geometry":{"x":174143.58999999985,"y":2543540.5100000016}},{"attributes":{"ID":276614,"DIS_CODE":0,"TOWNNAME":"仁德區","LI":"成功里","LIN":"1鄰","STREET":"保生東路","SECT":" ","MAREA":" ","LANE":"１３８巷","ALLEY":" ","HOUSE_NO":"１５號","E_COORD97":171233.22,"N_COORD97":2539594.4399999999,"ADDRESS":"保生東路１３８巷１５號","OBJECTID":276609},"geometry":{"x":171233.21999999974,"y":2539594.4400000013}},{"attributes":{"ID":276615,"DIS_CODE":0,"TOWNNAME":"仁德區","LI":"新田里","LIN":"1鄰","STREET":"中山路","SECT":" ","MAREA":" ","LANE":"１巷","ALLEY":" ","HOUSE_NO":"３００號","E_COORD97":175256.17000000001,"N_COORD97":2540641.25,"ADDRESS":"中山路１巷３００號","OBJECTID":276610},"geometry":{"x":175256.17000000086,"y":2540641.25}},{"attributes":{"ID":276616,"DIS_CODE":0,"TOWNNAME":"安南區","LI":"城東里","LIN":"3鄰","STREET":"城北路","SECT":" ","MAREA":" ","LANE":" ","ALLEY":" ","HOUSE_NO":"１８０號","E_COORD97":160998.70999999999,"N_COORD97":2551756.3399999999,"ADDRESS":"城北路１８０號","OBJECTID":276611},"geometry":{"x":160998.70999999903,"y":2551756.3400000017}},{"attributes":{"ID":276617,"DIS_CODE":0,"TOWNNAME":"安南區","LI":"城東里","LIN":"3鄰","STREET":"城北路","SECT":" ","MAREA":" ","LANE":" ","ALLEY":" ","HOUSE_NO":"１８６號","E_COORD97":160999.10000000001,"N_COORD97":2551771.3999999999,"ADDRESS":"城北路１８６號","OBJECTID":276612},"geometry":{"x":160999.0999999987,"y":2551771.4000000004}},{"attributes":{"ID":276618,"DIS_CODE":0,"TOWNNAME":"安南區","LI":"城東里","LIN":"3鄰","STREET":"城北路","SECT":" ","MAREA":" ","LANE":" ","ALLEY":" ","HOUSE_NO":"１８８號","E_COORD97":160999.10000000001,"N_COORD97":2551776.3199999998,"ADDRESS":"城北路１８８號","OBJECTID":276613},"geometry":{"x":160999.0999999987,"y":2551776.320000004}},{"attributes":{"ID":276619,"DIS_CODE":0,"TOWNNAME":"安南區","LI":"城東里","LIN":"3鄰","STREET":"城北路","SECT":" ","MAREA":" ","LANE":" ","ALLEY":" ","HOUSE_NO":"１９０號","E_COORD97":161000.28,"N_COORD97":2551781.1400000001,"ADDRESS":"城北路１９０號","OBJECTID":276614},"geometry":{"x":161000.28000000212,"y":2551781.1400000043}},{"attributes":{"ID":276620,"DIS_CODE":0,"TOWNNAME":"安南區","LI":"城東里","LIN":"3鄰","STREET":"城北路","SECT":" ","MAREA":" ","LANE":" ","ALLEY":" ","HOUSE_NO":"１８４號","E_COORD97":160999,"N_COORD97":2551766.3799999999,"ADDRESS":"城北路１８４號","OBJECTID":276615},"geometry":{"x":160999.00000000093,"y":2551766.379999999}},{"attributes":{"ID":276621,"DIS_CODE":0,"TOWNNAME":"安南區","LI":"城東里","LIN":"3鄰","STREET":"城北路","SECT":" ","MAREA":" ","LANE":" ","ALLEY":" ","HOUSE_NO":"１８２號","E_COORD97":160998.51000000001,"N_COORD97":2551761.9500000002,"ADDRESS":"城北路１８２號","OBJECTID":276616},"geometry":{"x":160998.51000000071,"y":2551761.9500000011}},{"attributes":{"ID":276622,"DIS_CODE":0,"TOWNNAME":"安南區","LI":"總頭里","LIN":"3鄰","STREET":"總安街","SECT":"二段","MAREA":" ","LANE":" ","ALLEY":" ","HOUSE_NO":"３７８號","E_COORD97":168286.89999999999,"N_COORD97":2550513.8900000001,"ADDRESS":"總安街二段３７８號","OBJECTID":276617},"geometry":{"x":168286.90000000037,"y":2550513.8900000006}},{"attributes":{"ID":276623,"DIS_CODE":0,"TOWNNAME":"安南區","LI":"理想里","LIN":"3鄰","STREET":"大安街","SECT":" ","MAREA":" ","LANE":" ","ALLEY":" ","HOUSE_NO":"６６０號","E_COORD97":167174.51000000001,"N_COORD97":2548907.9399999999,"ADDRESS":"大安街６６０號","OBJECTID":276618},"geometry":{"x":167174.51000000071,"y":2548907.9400000013}},{"attributes":{"ID":276624,"DIS_CODE":0,"TOWNNAME":"安南區","LI":"理想里","LIN":"3鄰","STREET":"大安街","SECT":" ","MAREA":" ","LANE":" ","ALLEY":" ","HOUSE_NO":"６７４號","E_COORD97":167151.92000000001,"N_COORD97":2548928.02,"ADDRESS":"大安街６７４號","OBJECTID":276619},"geometry":{"x":167151.91999999993,"y":2548928.0199999996}},{"attributes":{"ID":276625,"DIS_CODE":0,"TOWNNAME":"安南區","LI":"理想里","LIN":"3鄰","STREET":"大安街","SECT":" ","MAREA":" ","LANE":" ","ALLEY":" ","HOUSE_NO":"７１２號","E_COORD97":167070.51999999999,"N_COORD97":2548984.8700000001,"ADDRESS":"大安街７１２號","OBJECTID":276620},"geometry":{"x":167070.52000000048,"y":2548984.870000001}},{"attributes":{"ID":276626,"DIS_CODE":0,"TOWNNAME":"仁德區","LI":"保安里","LIN":"3鄰","STREET":"保安路","SECT":"一段","MAREA":" ","LANE":" ","ALLEY":" ","HOUSE_NO":"１６號","E_COORD97":170454.92999999999,"N_COORD97":2535995.8100000001,"ADDRESS":"保安路一段１６號","OBJECTID":276621},"geometry":{"x":170454.93000000063,"y":2535995.8100000024}},{"attributes":{"ID":276627,"DIS_CODE":0,"TOWNNAME":"後壁區","LI":"福安里","LIN":"3鄰","STREET":" ","SECT":" ","MAREA":"下寮","LANE":" ","ALLEY":" ","HOUSE_NO":"２５號","E_COORD97":184418.62,"N_COORD97":2580971.4399999999,"ADDRESS":"下寮２５號","OBJECTID":276622},"geometry":{"x":184418.62000000197,"y":2580971.4399999995}},{"attributes":{"ID":276628,"DIS_CODE":0,"TOWNNAME":"安南區","LI":"四草里","LIN":"7鄰","STREET":"四草大道","SECT":" ","MAREA":" ","LANE":" ","ALLEY":" ","HOUSE_NO":"４８２號","E_COORD97":161146.49134899999,"N_COORD97":2545691.6578099998,"ADDRESS":"四草大道４８２號","OBJECTID":276623},"geometry":{"x":161146.49134899955,"y":2545691.6578060016}},{"attributes":{"ID":276629,"DIS_CODE":0,"TOWNNAME":"仁德區","LI":"成功里","LIN":"1鄰","STREET":"保生東路","SECT":" ","MAREA":" ","LANE":"１３８巷","ALLEY":" ","HOUSE_NO":"５２號","E_COORD97":171293.66,"N_COORD97":2539566.0499999998,"ADDRESS":"保生東路１３８巷５２號","OBJECTID":276624},"geometry":{"x":171293.66000000015,"y":2539566.0500000007}},{"attributes":{"ID":276630,"DIS_CODE":0,"TOWNNAME":"仁德區","LI":"成功里","LIN":"1鄰","STREET":"保生東路","SECT":" ","MAREA":" ","LANE":"１３８巷","ALLEY":" ","HOUSE_NO":"３８號","E_COORD97":171269.64999999999,"N_COORD97":2539569.8100000001,"ADDRESS":"保生東路１３８巷３８號","OBJECTID":276625},"geometry":{"x":171269.6500000013,"y":2539569.8100000005}},{"attributes":{"ID":276631,"DIS_CODE":0,"TOWNNAME":"中西區","LI":"五妃里","LIN":"4鄰","STREET":"南門路","SECT":" ","MAREA":" ","LANE":" ","ALLEY":" ","HOUSE_NO":"２３３號之４","E_COORD97":168393.17999999999,"N_COORD97":2542664.5600000001,"ADDRESS":"南門路２３３號之４","OBJECTID":276626},"geometry":{"x":168393.18000000156,"y":2542664.5600000005}},{"attributes":{"ID":276632,"DIS_CODE":0,"TOWNNAME":"中西區","LI":"五妃里","LIN":"4鄰","STREET":"南門路","SECT":" ","MAREA":" ","LANE":" ","ALLEY":" ","HOUSE_NO":"２３３號之５","E_COORD97":168392.57000000001,"N_COORD97":2542659.71,"ADDRESS":"南門路２３３號之５","OBJECTID":276627},"geometry":{"x":168392.5700000003,"y":2542659.7100000009}},{"attributes":{"ID":276633,"DIS_CODE":0,"TOWNNAME":"安南區","LI":"四草里","LIN":"3鄰","STREET":"大眾路","SECT":" ","MAREA":" ","LANE":" ","ALLEY":" ","HOUSE_NO":"３８７－１號","E_COORD97":161234.92671500001,"N_COORD97":2546587.04844,"ADDRESS":"大眾路３８７－１號","OBJECTID":276628},"geometry":{"x":161234.9267149996,"y":2546587.0484420005}},{"attributes":{"ID":276634,"DIS_CODE":0,"TOWNNAME":"安南區","LI":"理想里","LIN":"1鄰","STREET":"同安路","SECT":" ","MAREA":" ","LANE":"５２巷","ALLEY":" ","HOUSE_NO":"３號","E_COORD97":166904.28,"N_COORD97":2548844.8599999999,"ADDRESS":"同安路５２巷３號","OBJECTID":276629},"geometry":{"x":166904.28000000026,"y":2548844.8599999994}},{"attributes":{"ID":276635,"DIS_CODE":0,"TOWNNAME":"安南區","LI":"理想里","LIN":"1鄰","STREET":"同安路","SECT":" ","MAREA":" ","LANE":"５２巷","ALLEY":" ","HOUSE_NO":"４號","E_COORD97":166886.45000000001,"N_COORD97":2548834.9100000001,"ADDRESS":"同安路５２巷４號","OBJECTID":276630},"geometry":{"x":166886.45000000205,"y":2548834.9100000001}},{"attributes":{"ID":276636,"DIS_CODE":0,"TOWNNAME":"後壁區","LI":"嘉田里","LIN":"3鄰","STREET":" ","SECT":" ","MAREA":"上茄苳","LANE":" ","ALLEY":" ","HOUSE_NO":"２５號之１","E_COORD97":186768.17000000001,"N_COORD97":2587254.9500000002,"ADDRESS":"上茄苳２５號之１","OBJECTID":276631},"geometry":{"x":186768.17000000086,"y":2587254.9500000011}},{"attributes":{"ID":276637,"DIS_CODE":0,"TOWNNAME":"安南區","LI":"理想里","LIN":"1鄰","STREET":"同安路","SECT":" ","MAREA":" ","LANE":"５２巷","ALLEY":" ","HOUSE_NO":"５號","E_COORD97":166908.45999999999,"N_COORD97":2548839.6400000001,"ADDRESS":"同安路５２巷５號","OBJECTID":276632},"geometry":{"x":166908.46000000089,"y":2548839.6400000025}},{"attributes":{"ID":276638,"DIS_CODE":0,"TOWNNAME":"後壁區","LI":"長安里","LIN":"3鄰","STREET":" ","SECT":" ","MAREA":"中寮","LANE":" ","ALLEY":" ","HOUSE_NO":"３４號之１","E_COORD97":184446,"N_COORD97":2581165.8799999999,"ADDRESS":"中寮３４號之１","OBJECTID":276633},"geometry":{"x":184446,"y":2581165.8800000008}},{"attributes":{"ID":276639,"DIS_CODE":0,"TOWNNAME":"後壁區","LI":"長安里","LIN":"3鄰","STREET":" ","SECT":" ","MAREA":"中寮","LANE":" ","ALLEY":" ","HOUSE_NO":"３４號","E_COORD97":184440.38,"N_COORD97":2581177.75,"ADDRESS":"中寮３４號","OBJECTID":276634},"geometry":{"x":184440.38000000175,"y":2581177.7500000037}},{"attributes":{"ID":276640,"DIS_CODE":0,"TOWNNAME":"仁德區","LI":"保安里","LIN":"3鄰","STREET":"保安路","SECT":"一段","MAREA":" ","LANE":" ","ALLEY":" ","HOUSE_NO":"２號","E_COORD97":170427.57000000001,"N_COORD97":2535976.8199999998,"ADDRESS":"保安路一段２號","OBJECTID":276635},"geometry":{"x":170427.57000000123,"y":2535976.8199999984}},{"attributes":{"ID":276641,"DIS_CODE":0,"TOWNNAME":"後壁區","LI":"長安里","LIN":"3鄰","STREET":" ","SECT":" ","MAREA":"中寮","LANE":" ","ALLEY":" ","HOUSE_NO":"３５號之１","E_COORD97":184435.22,"N_COORD97":2581201.8300000001,"ADDRESS":"中寮３５號之１","OBJECTID":276636},"geometry":{"x":184435.22000000067,"y":2581201.8300000019}},{"attributes":{"ID":276642,"DIS_CODE":0,"TOWNNAME":"後壁區","LI":"長安里","LIN":"3鄰","STREET":" ","SECT":" ","MAREA":"中寮","LANE":" ","ALLEY":" ","HOUSE_NO":"３５號之２","E_COORD97":184435.54000000001,"N_COORD97":2581197.79,"ADDRESS":"中寮３５號之２","OBJECTID":276637},"geometry":{"x":184435.54000000004,"y":2581197.790000001}},{"attributes":{"ID":276643,"DIS_CODE":0,"TOWNNAME":"後壁區","LI":"長安里","LIN":"3鄰","STREET":" ","SECT":" ","MAREA":"中寮","LANE":" ","ALLEY":" ","HOUSE_NO":"３５號之３","E_COORD97":184435.44,"N_COORD97":2581193.7200000002,"ADDRESS":"中寮３５號之３","OBJECTID":276638},"geometry":{"x":184435.44000000227,"y":2581193.7200000025}},{"attributes":{"ID":276644,"DIS_CODE":0,"TOWNNAME":"後壁區","LI":"長安里","LIN":"3鄰","STREET":" ","SECT":" ","MAREA":"中寮","LANE":" ","ALLEY":" ","HOUSE_NO":"３６號","E_COORD97":184476.88,"N_COORD97":2581236.3999999999,"ADDRESS":"中寮３６號","OBJECTID":276639},"geometry":{"x":184476.87999999989,"y":2581236.4000000022}},{"attributes":{"ID":276645,"DIS_CODE":0,"TOWNNAME":"仁德區","LI":"仁德里","LIN":"3鄰","STREET":"仁中六街","SECT":" ","MAREA":" ","LANE":" ","ALLEY":" ","HOUSE_NO":"２６號","E_COORD97":173392.92000000001,"N_COORD97":2540343.75,"ADDRESS":"仁中六街２６號","OBJECTID":276640},"geometry":{"x":173392.92000000086,"y":2540343.7499999981}},{"attributes":{"ID":276646,"DIS_CODE":0,"TOWNNAME":"安南區","LI":"理想里","LIN":"1鄰","STREET":"同安路","SECT":" ","MAREA":" ","LANE":"５２巷","ALLEY":" ","HOUSE_NO":"６號","E_COORD97":166890.51000000001,"N_COORD97":2548830,"ADDRESS":"同安路５２巷６號","OBJECTID":276641},"geometry":{"x":166890.50999999978,"y":2548830.0000000019}},{"attributes":{"ID":276647,"DIS_CODE":0,"TOWNNAME":"安南區","LI":"理想里","LIN":"1鄰","STREET":"同安路","SECT":" ","MAREA":" ","LANE":"５２巷","ALLEY":" ","HOUSE_NO":"７號","E_COORD97":166910.95999999999,"N_COORD97":2548834,"ADDRESS":"同安路５２巷７號","OBJECTID":276642},"geometry":{"x":166910.95999999996,"y":2548834}},{"attributes":{"ID":276648,"DIS_CODE":0,"TOWNNAME":"後壁區","LI":"長安里","LIN":"3鄰","STREET":" ","SECT":" ","MAREA":"中寮","LANE":" ","ALLEY":" ","HOUSE_NO":"３７號之１","E_COORD97":184450.76999999999,"N_COORD97":2581250.0600000001,"ADDRESS":"中寮３７號之１","OBJECTID":276643},"geometry":{"x":184450.76999999955,"y":2581250.0600000005}},{"attributes":{"ID":276649,"DIS_CODE":0,"TOWNNAME":"後壁區","LI":"長安里","LIN":"3鄰","STREET":" ","SECT":" ","MAREA":"中寮","LANE":" ","ALLEY":" ","HOUSE_NO":"３７號","E_COORD97":184445.35000000001,"N_COORD97":2581261.2000000002,"ADDRESS":"中寮３７號","OBJECTID":276644},"geometry":{"x":184445.35000000149,"y":2581261.1999999993}},{"attributes":{"ID":276650,"DIS_CODE":0,"TOWNNAME":"永康區","LI":"大灣里","LIN":"1鄰","STREET":"大同街","SECT":" ","MAREA":" ","LANE":"１７７巷","ALLEY":" ","HOUSE_NO":"１號","E_COORD97":174804.95000000001,"N_COORD97":2545659.98,"ADDRESS":"大同街１７７巷１號","OBJECTID":276645},"geometry":{"x":174804.95000000112,"y":2545659.9800000023}},{"attributes":{"ID":276651,"DIS_CODE":0,"TOWNNAME":"安南區","LI":"理想里","LIN":"3鄰","STREET":"大安街","SECT":" ","MAREA":" ","LANE":" ","ALLEY":" ","HOUSE_NO":"６５６號","E_COORD97":167181.81,"N_COORD97":2548904.5600000001,"ADDRESS":"大安街６５６號","OBJECTID":276646},"geometry":{"x":167181.81000000145,"y":2548904.5600000024}},{"attributes":{"ID":276652,"DIS_CODE":0,"TOWNNAME":"永康區","LI":"大灣里","LIN":"1鄰","STREET":"大同街","SECT":" ","MAREA":" ","LANE":"１６９巷","ALLEY":" ","HOUSE_NO":"１號","E_COORD97":174797.45000000001,"N_COORD97":2545648.3599999999,"ADDRESS":"大同街１６９巷１號","OBJECTID":276647},"geometry":{"x":174797.45000000019,"y":2545648.3599999975}},{"attributes":{"ID":276653,"DIS_CODE":0,"TOWNNAME":"永康區","LI":"五王里","LIN":"1鄰","STREET":"中華二路","SECT":" ","MAREA":" ","LANE":"２０６巷","ALLEY":" ","HOUSE_NO":"１９號","E_COORD97":171578.95999999999,"N_COORD97":2545520.5099999998,"ADDRESS":"中華二路２０６巷１９號","OBJECTID":276648},"geometry":{"x":171578.96000000089,"y":2545520.5100000016}},{"attributes":{"ID":276654,"DIS_CODE":0,"TOWNNAME":"安南區","LI":"理想里","LIN":"3鄰","STREET":"大安街","SECT":" ","MAREA":" ","LANE":" ","ALLEY":" ","HOUSE_NO":"６５８號","E_COORD97":167178.60999999999,"N_COORD97":2548906.8700000001,"ADDRESS":"大安街６５８號","OBJECTID":276649},"geometry":{"x":167178.61000000034,"y":2548906.870000001}},{"attributes":{"ID":276655,"DIS_CODE":0,"TOWNNAME":"永康區","LI":"五王里","LIN":"1鄰","STREET":"中華二路","SECT":" ","MAREA":" ","LANE":"２０６巷","ALLEY":" ","HOUSE_NO":"２３號","E_COORD97":171577.32000000001,"N_COORD97":2545528.9900000002,"ADDRESS":"中華二路２０６巷２３號","OBJECTID":276650},"geometry":{"x":171577.3200000003,"y":2545528.9900000002}},{"attributes":{"ID":276656,"DIS_CODE":0,"TOWNNAME":"永康區","LI":"五王里","LIN":"1鄰","STREET":"中華二路","SECT":" ","MAREA":" ","LANE":"２０６巷","ALLEY":" ","HOUSE_NO":"１３號","E_COORD97":171581.76999999999,"N_COORD97":2545505.3100000001,"ADDRESS":"中華二路２０６巷１３號","OBJECTID":276651},"geometry":{"x":171581.77000000048,"y":2545505.3100000024}},{"attributes":{"ID":276657,"DIS_CODE":0,"TOWNNAME":"永康區","LI":"五王里","LIN":"1鄰","STREET":"中華二路","SECT":" ","MAREA":" ","LANE":"２０６巷","ALLEY":" ","HOUSE_NO":"２１號","E_COORD97":171577.97,"N_COORD97":2545524.9900000002,"ADDRESS":"中華二路２０６巷２１號","OBJECTID":276652},"geometry":{"x":171577.96999999974,"y":2545524.9900000002}},{"attributes":{"ID":276658,"DIS_CODE":0,"TOWNNAME":"安南區","LI":"理想里","LIN":"3鄰","STREET":"大安街","SECT":" ","MAREA":" ","LANE":" ","ALLEY":" ","HOUSE_NO":"６６２號","E_COORD97":167172.20000000001,"N_COORD97":2548912.5600000001,"ADDRESS":"大安街６６２號","OBJECTID":276653},"geometry":{"x":167172.20000000019,"y":2548912.5600000005}},{"attributes":{"ID":276659,"DIS_CODE":0,"TOWNNAME":"安南區","LI":"理想里","LIN":"3鄰","STREET":"大安街","SECT":" ","MAREA":" ","LANE":" ","ALLEY":" ","HOUSE_NO":"６６６號","E_COORD97":167164.38,"N_COORD97":2548916.8199999998,"ADDRESS":"大安街６６６號","OBJECTID":276654},"geometry":{"x":167164.37999999989,"y":2548916.8200000003}},{"attributes":{"ID":276660,"DIS_CODE":0,"TOWNNAME":"安南區","LI":"理想里","LIN":"3鄰","STREET":"大安街","SECT":" ","MAREA":" ","LANE":" ","ALLEY":" ","HOUSE_NO":"６６８號","E_COORD97":167161.53,"N_COORD97":2548919.6699999999,"ADDRESS":"大安街６６８號","OBJECTID":276655},"geometry":{"x":167161.53000000026,"y":2548919.6700000018}},{"attributes":{"ID":276661,"DIS_CODE":0,"TOWNNAME":"安南區","LI":"理想里","LIN":"3鄰","STREET":"大安街","SECT":" ","MAREA":" ","LANE":" ","ALLEY":" ","HOUSE_NO":"６７０號","E_COORD97":167158.32999999999,"N_COORD97":2548922.1600000001,"ADDRESS":"大安街６７０號","OBJECTID":276656},"geometry":{"x":167158.32999999914,"y":2548922.1599999983}},{"attributes":{"ID":276662,"DIS_CODE":0,"TOWNNAME":"永康區","LI":"五王里","LIN":"1鄰","STREET":"中華二路","SECT":" ","MAREA":" ","LANE":"２０６巷","ALLEY":" ","HOUSE_NO":"２２號","E_COORD97":171600.75,"N_COORD97":2545518.25,"ADDRESS":"中華二路２０６巷２２號","OBJECTID":276657},"geometry":{"x":171600.75000000093,"y":2545518.2500000019}},{"attributes":{"ID":276663,"DIS_CODE":0,"TOWNNAME":"東區","LI":"關聖里","LIN":"14鄰","STREET":"裕英街","SECT":" ","MAREA":" ","LANE":" ","ALLEY":" ","HOUSE_NO":"２號","E_COORD97":172059.19,"N_COORD97":2543004.3700000001,"ADDRESS":"裕英街２號","OBJECTID":276658},"geometry":{"x":172059.19000000134,"y":2543004.370000001}},{"attributes":{"ID":276664,"DIS_CODE":0,"TOWNNAME":"永康區","LI":"五王里","LIN":"1鄰","STREET":"中華二路","SECT":" ","MAREA":" ","LANE":"２０６巷","ALLEY":" ","HOUSE_NO":"２８號","E_COORD97":171592,"N_COORD97":2545547.0299999998,"ADDRESS":"中華二路２０６巷２８號","OBJECTID":276659},"geometry":{"x":171592.00000000093,"y":2545547.0300000012}},{"attributes":{"ID":276665,"DIS_CODE":0,"TOWNNAME":"永康區","LI":"大灣里","LIN":"1鄰","STREET":"大同街","SECT":" ","MAREA":" ","LANE":"１７７巷","ALLEY":" ","HOUSE_NO":"１０號","E_COORD97":174766.53,"N_COORD97":2545667.0699999998,"ADDRESS":"大同街１７７巷１０號","OBJECTID":276660},"geometry":{"x":174766.53000000026,"y":2545667.0700000003}},{"attributes":{"ID":276666,"DIS_CODE":0,"TOWNNAME":"永康區","LI":"大灣里","LIN":"1鄰","STREET":"大安街","SECT":" ","MAREA":" ","LANE":"３６８巷","ALLEY":" ","HOUSE_NO":"１６號","E_COORD97":174732.48000000001,"N_COORD97":2545671.5099999998,"ADDRESS":"大安街３６８巷１６號","OBJECTID":276661},"geometry":{"x":174732.48000000138,"y":2545671.5099999979}},{"attributes":{"ID":276667,"DIS_CODE":0,"TOWNNAME":"永康區","LI":"復國里","LIN":"1鄰","STREET":"復國二路","SECT":" ","MAREA":" ","LANE":"１０巷","ALLEY":" ","HOUSE_NO":"１６號","E_COORD97":172875.42999999999,"N_COORD97":2544752.7000000002,"ADDRESS":"復國二路１０巷１６號","OBJECTID":276662},"geometry":{"x":172875.43000000063,"y":2544752.7000000011}},{"attributes":{"ID":276668,"DIS_CODE":0,"TOWNNAME":"永康區","LI":"崑山里","LIN":"1鄰","STREET":"永大路","SECT":"一段","MAREA":" ","LANE":"２８７巷","ALLEY":" ","HOUSE_NO":"１０６號","E_COORD97":173754.42999999999,"N_COORD97":2544370.6099999999,"ADDRESS":"永大路一段２８７巷１０６號","OBJECTID":276663},"geometry":{"x":173754.4299999997,"y":2544370.6099999994}},{"attributes":{"ID":276669,"DIS_CODE":0,"TOWNNAME":"永康區","LI":"崑山里","LIN":"1鄰","STREET":"永大路","SECT":"一段","MAREA":" ","LANE":"２８７巷","ALLEY":" ","HOUSE_NO":"８８號","E_COORD97":173798.19,"N_COORD97":2544388.8100000001,"ADDRESS":"永大路一段２８７巷８８號","OBJECTID":276664},"geometry":{"x":173798.19000000227,"y":2544388.8100000042}},{"attributes":{"ID":276670,"DIS_CODE":0,"TOWNNAME":"永康區","LI":"勝利里","LIN":"1鄰","STREET":"勝利街","SECT":" ","MAREA":" ","LANE":"１巷","ALLEY":" ","HOUSE_NO":"２號","E_COORD97":171130.95000000001,"N_COORD97":2544572.5099999998,"ADDRESS":"勝利街１巷２號","OBJECTID":276665},"geometry":{"x":171130.95000000019,"y":2544572.5099999998}},{"attributes":{"ID":276671,"DIS_CODE":0,"TOWNNAME":"東區","LI":"東明里","LIN":"1鄰","STREET":"東興路","SECT":" ","MAREA":" ","LANE":"１１巷","ALLEY":" ","HOUSE_NO":"２２號","E_COORD97":170853.14999999999,"N_COORD97":2543450.3700000001,"ADDRESS":"東興路１１巷２２號","OBJECTID":276666},"geometry":{"x":170853.15000000037,"y":2543450.3700000029}},{"attributes":{"ID":276672,"DIS_CODE":0,"TOWNNAME":"東區","LI":"仁和里","LIN":"1鄰","STREET":"仁和路","SECT":" ","MAREA":" ","LANE":"１０７巷","ALLEY":" ","HOUSE_NO":"４２號之１","E_COORD97":171461.84,"N_COORD97":2541352.4300000002,"ADDRESS":"仁和路１０７巷４２號之１","OBJECTID":276667},"geometry":{"x":171461.83999999985,"y":2541352.4299999997}},{"attributes":{"ID":276673,"DIS_CODE":0,"TOWNNAME":"東區","LI":"龍山里","LIN":"1鄰","STREET":"東門路","SECT":"二段","MAREA":" ","LANE":"３０２巷","ALLEY":" ","HOUSE_NO":"３號","E_COORD97":170589.42999999999,"N_COORD97":2542651.1699999999,"ADDRESS":"東門路二段３０２巷３號","OBJECTID":276668},"geometry":{"x":170589.4299999997,"y":2542651.1700000018}},{"attributes":{"ID":276674,"DIS_CODE":0,"TOWNNAME":"安南區","LI":"新順里","LIN":"1鄰","STREET":"安生街","SECT":" ","MAREA":" ","LANE":"１０６巷","ALLEY":" ","HOUSE_NO":"７號","E_COORD97":169511.31,"N_COORD97":2549613.1899999999,"ADDRESS":"安生街１０６巷７號","OBJECTID":276669},"geometry":{"x":169511.31000000052,"y":2549613.1900000032}},{"attributes":{"ID":276675,"DIS_CODE":0,"TOWNNAME":"安南區","LI":"新順里","LIN":"1鄰","STREET":"安生街","SECT":" ","MAREA":" ","LANE":"１０６巷","ALLEY":" ","HOUSE_NO":"９號","E_COORD97":169514.17000000001,"N_COORD97":2549617.1800000002,"ADDRESS":"安生街１０６巷９號","OBJECTID":276670},"geometry":{"x":169514.17000000086,"y":2549617.1800000016}},{"attributes":{"ID":276676,"DIS_CODE":0,"TOWNNAME":"安南區","LI":"新順里","LIN":"1鄰","STREET":"安生街","SECT":" ","MAREA":" ","LANE":"１０６巷","ALLEY":" ","HOUSE_NO":"１１號","E_COORD97":169516.73999999999,"N_COORD97":2549620.6000000001,"ADDRESS":"安生街１０６巷１１號","OBJECTID":276671},"geometry":{"x":169516.74000000022,"y":2549620.6000000034}},{"attributes":{"ID":276677,"DIS_CODE":0,"TOWNNAME":"安南區","LI":"理想里","LIN":"3鄰","STREET":"大安街","SECT":" ","MAREA":" ","LANE":" ","ALLEY":" ","HOUSE_NO":"６７２號","E_COORD97":167153.70000000001,"N_COORD97":2548923.3999999999,"ADDRESS":"大安街６７２號","OBJECTID":276672},"geometry":{"x":167153.70000000019,"y":2548923.4000000004}},{"attributes":{"ID":276678,"DIS_CODE":0,"TOWNNAME":"新營區","LI":"大宏里","LIN":"7鄰","STREET":"三民路","SECT":" ","MAREA":" ","LANE":" ","ALLEY":" ","HOUSE_NO":"２５號","E_COORD97":180557.77243300001,"N_COORD97":2578478.3425799999,"ADDRESS":"三民路２５號","OBJECTID":276673},"geometry":{"x":180557.77243299969,"y":2578478.3425839972}},{"attributes":{"ID":276679,"DIS_CODE":0,"TOWNNAME":"安南區","LI":"理想里","LIN":"3鄰","STREET":"大安街","SECT":" ","MAREA":" ","LANE":" ","ALLEY":" ","HOUSE_NO":"６８２號","E_COORD97":167131,"N_COORD97":2548942.7599999998,"ADDRESS":"大安街６８２號","OBJECTID":276674},"geometry":{"x":167131,"y":2548942.7600000016}},{"attributes":{"ID":276680,"DIS_CODE":0,"TOWNNAME":"安南區","LI":"理想里","LIN":"3鄰","STREET":"大安街","SECT":" ","MAREA":" ","LANE":" ","ALLEY":" ","HOUSE_NO":"６８４號","E_COORD97":167128.32999999999,"N_COORD97":2548945.2400000002,"ADDRESS":"大安街６８４號","OBJECTID":276675},"geometry":{"x":167128.33000000101,"y":2548945.2400000002}},{"attributes":{"ID":276681,"DIS_CODE":0,"TOWNNAME":"安南區","LI":"理想里","LIN":"3鄰","STREET":"大安街","SECT":" ","MAREA":" ","LANE":" ","ALLEY":" ","HOUSE_NO":"６８６號","E_COORD97":167124.23999999999,"N_COORD97":2548947.3799999999,"ADDRESS":"大安街６８６號","OBJECTID":276676},"geometry":{"x":167124.24000000115,"y":2548947.3800000008}},{"attributes":{"ID":276682,"DIS_CODE":0,"TOWNNAME":"安南區","LI":"新順里","LIN":"1鄰","STREET":"安生街","SECT":" ","MAREA":" ","LANE":"１０６巷","ALLEY":" ","HOUSE_NO":"１３號","E_COORD97":169519.31,"N_COORD97":2549624.6000000001,"ADDRESS":"安生街１０６巷１３號","OBJECTID":276677},"geometry":{"x":169519.30999999959,"y":2549624.6000000015}},{"attributes":{"ID":276683,"DIS_CODE":0,"TOWNNAME":"安南區","LI":"理想里","LIN":"3鄰","STREET":"大安街","SECT":" ","MAREA":" ","LANE":" ","ALLEY":" ","HOUSE_NO":"６８８號","E_COORD97":167120.5,"N_COORD97":2548950.2200000002,"ADDRESS":"大安街６８８號","OBJECTID":276678},"geometry":{"x":167120.50000000093,"y":2548950.2200000025}},{"attributes":{"ID":276684,"DIS_CODE":0,"TOWNNAME":"安南區","LI":"新順里","LIN":"1鄰","STREET":"安生街","SECT":" ","MAREA":" ","LANE":"１０６巷","ALLEY":" ","HOUSE_NO":"１３之１號","E_COORD97":169521.01999999999,"N_COORD97":2549627.4500000002,"ADDRESS":"安生街１０６巷１３之１號","OBJECTID":276679},"geometry":{"x":169521.01999999955,"y":2549627.4499999993}},{"attributes":{"ID":276685,"DIS_CODE":0,"TOWNNAME":"安南區","LI":"新順里","LIN":"1鄰","STREET":"安生街","SECT":" ","MAREA":" ","LANE":"１０６巷","ALLEY":" ","HOUSE_NO":"１３之２號","E_COORD97":169523.88,"N_COORD97":2549631.1600000001,"ADDRESS":"安生街１０６巷１３之２號","OBJECTID":276680},"geometry":{"x":169523.87999999989,"y":2549631.1600000039}},{"attributes":{"ID":276686,"DIS_CODE":0,"TOWNNAME":"安南區","LI":"海西里","LIN":"1鄰","STREET":"海中街","SECT":" ","MAREA":" ","LANE":"１６９巷","ALLEY":" ","HOUSE_NO":"２８號","E_COORD97":166286.39000000001,"N_COORD97":2549117.1000000001,"ADDRESS":"海中街１６９巷２８號","OBJECTID":276681},"geometry":{"x":166286.39000000153,"y":2549117.1000000015}},{"attributes":{"ID":276687,"DIS_CODE":0,"TOWNNAME":"安南區","LI":"梅花里","LIN":"1鄰","STREET":"安中路","SECT":"一段","MAREA":" ","LANE":"６３９巷","ALLEY":" ","HOUSE_NO":"３號","E_COORD97":167768.06,"N_COORD97":2549087.8700000001,"ADDRESS":"安中路一段６３９巷３號","OBJECTID":276682},"geometry":{"x":167768.05999999959,"y":2549087.8699999992}},{"attributes":{"ID":276688,"DIS_CODE":0,"TOWNNAME":"安南區","LI":"梅花里","LIN":"1鄰","STREET":"安中路","SECT":"一段","MAREA":" ","LANE":"６３９巷","ALLEY":" ","HOUSE_NO":"５號","E_COORD97":167766.48999999999,"N_COORD97":2549083.5600000001,"ADDRESS":"安中路一段６３９巷５號","OBJECTID":276683},"geometry":{"x":167766.49000000115,"y":2549083.5600000024}},{"attributes":{"ID":276689,"DIS_CODE":0,"TOWNNAME":"安南區","LI":"淵西里","LIN":"1鄰","STREET":"安中路","SECT":"四段","MAREA":" ","LANE":"２９０巷","ALLEY":" ","HOUSE_NO":"２９５號","E_COORD97":165111.88,"N_COORD97":2550317.0600000001,"ADDRESS":"安中路四段２９０巷２９５號","OBJECTID":276684},"geometry":{"x":165111.88000000175,"y":2550317.0600000042}},{"attributes":{"ID":276690,"DIS_CODE":0,"TOWNNAME":"安南區","LI":"理想里","LIN":"1鄰","STREET":"同安路","SECT":" ","MAREA":" ","LANE":"５２巷","ALLEY":" ","HOUSE_NO":"１７號","E_COORD97":166929.56,"N_COORD97":2548807.73,"ADDRESS":"同安路５２巷１７號","OBJECTID":276685},"geometry":{"x":166929.56000000052,"y":2548807.7300000023}},{"attributes":{"ID":276691,"DIS_CODE":0,"TOWNNAME":"永康區","LI":"\u25A0行里","LIN":"1鄰","STREET":"中正路","SECT":" ","MAREA":" ","LANE":"９７０巷","ALLEY":" ","HOUSE_NO":"３８號","E_COORD97":172052.53,"N_COORD97":2549004.0600000001,"ADDRESS":"中正路９７０巷３８號","OBJECTID":276686},"geometry":{"x":172052.53000000026,"y":2549004.0600000005}},{"attributes":{"ID":276692,"DIS_CODE":0,"TOWNNAME":"永康區","LI":"\u25A0行里","LIN":"1鄰","STREET":"中正北路","SECT":" ","MAREA":" ","LANE":"１０２巷","ALLEY":" ","HOUSE_NO":"３號","E_COORD97":172282.07999999999,"N_COORD97":2549046.21,"ADDRESS":"中正北路１０２巷３號","OBJECTID":276687},"geometry":{"x":172282.08000000101,"y":2549046.2100000028}},{"attributes":{"ID":276693,"DIS_CODE":0,"TOWNNAME":"安南區","LI":"布袋里","LIN":"1鄰","STREET":"長和路","SECT":"四段","MAREA":" ","LANE":"２３１巷","ALLEY":" ","HOUSE_NO":"１４２號","E_COORD97":168805.10999999999,"N_COORD97":2551339.4900000002,"ADDRESS":"長和路四段２３１巷１４２號","OBJECTID":276688},"geometry":{"x":168805.11000000127,"y":2551339.4900000002}},{"attributes":{"ID":276694,"DIS_CODE":0,"TOWNNAME":"安南區","LI":"理想里","LIN":"3鄰","STREET":"大安街","SECT":" ","MAREA":" ","LANE":"６８０巷","ALLEY":" ","HOUSE_NO":"６號","E_COORD97":167184.17999999999,"N_COORD97":2548964.46,"ADDRESS":"大安街６８０巷６號","OBJECTID":276689},"geometry":{"x":167184.1799999997,"y":2548964.4600000009}},{"attributes":{"ID":276695,"DIS_CODE":0,"TOWNNAME":"安南區","LI":"理想里","LIN":"3鄰","STREET":"大安街","SECT":" ","MAREA":" ","LANE":" ","ALLEY":" ","HOUSE_NO":"６９０號","E_COORD97":167116.76999999999,"N_COORD97":2548953.4199999999,"ADDRESS":"大安街６９０號","OBJECTID":276690},"geometry":{"x":167116.76999999955,"y":2548953.4199999999}},{"attributes":{"ID":276696,"DIS_CODE":0,"TOWNNAME":"永康區","LI":"大灣里","LIN":"3鄰","STREET":"大同街","SECT":" ","MAREA":" ","LANE":" ","ALLEY":" ","HOUSE_NO":"２１６號","E_COORD97":174826.98999999999,"N_COORD97":2545658.3599999999,"ADDRESS":"大同街２１６號","OBJECTID":276691},"geometry":{"x":174826.99000000115,"y":2545658.3599999994}},{"attributes":{"ID":276697,"DIS_CODE":0,"TOWNNAME":"安南區","LI":"梅花里","LIN":"1鄰","STREET":"北安路","SECT":"二段","MAREA":" ","LANE":"４３３巷","ALLEY":" ","HOUSE_NO":"３８號","E_COORD97":168223.88,"N_COORD97":2548678.3500000001,"ADDRESS":"北安路二段４３３巷３８號","OBJECTID":276692},"geometry":{"x":168223.87999999989,"y":2548678.3499999996}},{"attributes":{"ID":276698,"DIS_CODE":0,"TOWNNAME":"永康區","LI":"大灣里","LIN":"3鄰","STREET":"大同街","SECT":" ","MAREA":" ","LANE":" ","ALLEY":" ","HOUSE_NO":"２３２號","E_COORD97":174833.31,"N_COORD97":2545687.4900000002,"ADDRESS":"大同街２３２號","OBJECTID":276693},"geometry":{"x":174833.30999999959,"y":2545687.4900000021}},{"attributes":{"ID":276699,"DIS_CODE":0,"TOWNNAME":"仁德區","LI":"成功里","LIN":"1鄰","STREET":"保生東路","SECT":" ","MAREA":" ","LANE":"１３８巷","ALLEY":" ","HOUSE_NO":"７號","E_COORD97":171217,"N_COORD97":2539587.6899999999,"ADDRESS":"保生東路１３８巷７號","OBJECTID":276694},"geometry":{"x":171217,"y":2539587.6900000032}},{"attributes":{"ID":276700,"DIS_CODE":0,"TOWNNAME":"永康區","LI":"大灣里","LIN":"3鄰","STREET":"信義二街","SECT":" ","MAREA":" ","LANE":" ","ALLEY":" ","HOUSE_NO":"１３７號","E_COORD97":174800.25,"N_COORD97":2545714.1899999999,"ADDRESS":"信義二街１３７號","OBJECTID":276695},"geometry":{"x":174800.25,"y":2545714.1900000032}},{"attributes":{"ID":276701,"DIS_CODE":0,"TOWNNAME":"永康區","LI":"大橋里","LIN":"3鄰","STREET":"大橋三街","SECT":" ","MAREA":" ","LANE":" ","ALLEY":" ","HOUSE_NO":"１３０號","E_COORD97":170775.37,"N_COORD97":2546700.7400000002,"ADDRESS":"大橋三街１３０號","OBJECTID":276696},"geometry":{"x":170775.37000000011,"y":2546700.7400000002}},{"attributes":{"ID":276702,"DIS_CODE":0,"TOWNNAME":"仁德區","LI":"新田里","LIN":"1鄰","STREET":"新田二街","SECT":" ","MAREA":" ","LANE":"１３８巷","ALLEY":" ","HOUSE_NO":"１３號","E_COORD97":174971.63,"N_COORD97":2540047.8599999999,"ADDRESS":"新田二街１３８巷１３號","OBJECTID":276697},"geometry":{"x":174971.63000000082,"y":2540047.8600000031}},{"attributes":{"ID":276703,"DIS_CODE":0,"TOWNNAME":"新化區","LI":"豐榮里","LIN":"1鄰","STREET":"大智路","SECT":" ","MAREA":" ","LANE":"２８巷","ALLEY":" ","HOUSE_NO":"１９號","E_COORD97":178237.53,"N_COORD97":2548430.25,"ADDRESS":"大智路２８巷１９號","OBJECTID":276698},"geometry":{"x":178237.53000000119,"y":2548430.2500000037}},{"attributes":{"ID":276704,"DIS_CODE":0,"TOWNNAME":"歸仁區","LI":"許厝里","LIN":"1鄰","STREET":"中山路","SECT":"一段","MAREA":" ","LANE":"３４３巷","ALLEY":" ","HOUSE_NO":"３號","E_COORD97":178413.54000000001,"N_COORD97":2540638.0099999998,"ADDRESS":"中山路一段３４３巷３號","OBJECTID":276699},"geometry":{"x":178413.54000000097,"y":2540638.0100000016}},{"attributes":{"ID":276705,"DIS_CODE":0,"TOWNNAME":"歸仁區","LI":"媽廟里","LIN":"1鄰","STREET":"媽廟一街","SECT":" ","MAREA":" ","LANE":"７２巷","ALLEY":" ","HOUSE_NO":"１１號","E_COORD97":177290.17999999999,"N_COORD97":2543427.7200000002,"ADDRESS":"媽廟一街７２巷１１號","OBJECTID":276700},"geometry":{"x":177290.18000000063,"y":2543427.7200000025}},{"attributes":{"ID":276706,"DIS_CODE":0,"TOWNNAME":"北區","LI":"永祥里","LIN":"1鄰","STREET":"大武街","SECT":" ","MAREA":" ","LANE":"５２５巷","ALLEY":" ","HOUSE_NO":"４號","E_COORD97":170065.64999999999,"N_COORD97":2546448.7200000002,"ADDRESS":"大武街５２５巷４號","OBJECTID":276701},"geometry":{"x":170065.65000000224,"y":2546448.7200000025}},{"attributes":{"ID":276707,"DIS_CODE":0,"TOWNNAME":"永康區","LI":"三民里","LIN":"3鄰","STREET":"三民街","SECT":" ","MAREA":" ","LANE":" ","ALLEY":" ","HOUSE_NO":"４６之１號","E_COORD97":173128.45000000001,"N_COORD97":2550226.29,"ADDRESS":"三民街４６之１號","OBJECTID":276702},"geometry":{"x":173128.45000000112,"y":2550226.290000001}},{"attributes":{"ID":276708,"DIS_CODE":0,"TOWNNAME":"北區","LI":"永祥里","LIN":"1鄰","STREET":"大武街","SECT":" ","MAREA":" ","LANE":"５２５巷","ALLEY":" ","HOUSE_NO":"１０號","E_COORD97":170067.13,"N_COORD97":2546459.8900000001,"ADDRESS":"大武街５２５巷１０號","OBJECTID":276703},"geometry":{"x":170067.13000000082,"y":2546459.8900000043}},{"attributes":{"ID":276709,"DIS_CODE":0,"TOWNNAME":"北區","LI":"永祥里","LIN":"1鄰","STREET":"大武街","SECT":" ","MAREA":" ","LANE":"５２５巷","ALLEY":" ","HOUSE_NO":"１２號","E_COORD97":170067.84,"N_COORD97":2546464.21,"ADDRESS":"大武街５２５巷１２號","OBJECTID":276704},"geometry":{"x":170067.84000000078,"y":2546464.2100000009}},{"attributes":{"ID":276710,"DIS_CODE":0,"TOWNNAME":"永康區","LI":"大橋里","LIN":"3鄰","STREET":"大橋三街","SECT":" ","MAREA":" ","LANE":" ","ALLEY":" ","HOUSE_NO":"１７７號","E_COORD97":170814.42000000001,"N_COORD97":2546749.73,"ADDRESS":"大橋三街１７７號","OBJECTID":276705},"geometry":{"x":170814.42000000086,"y":2546749.7300000023}},{"attributes":{"ID":276711,"DIS_CODE":0,"TOWNNAME":"北區","LI":"永祥里","LIN":"1鄰","STREET":"大武街","SECT":" ","MAREA":" ","LANE":"５２５巷","ALLEY":" ","HOUSE_NO":"１４號","E_COORD97":170068.26999999999,"N_COORD97":2546468.3399999999,"ADDRESS":"大武街５２５巷１４號","OBJECTID":276706},"geometry":{"x":170068.26999999955,"y":2546468.3399999999}},{"attributes":{"ID":276712,"DIS_CODE":0,"TOWNNAME":"中西區","LI":"五妃里","LIN":"4鄰","STREET":"南門路","SECT":" ","MAREA":" ","LANE":" ","ALLEY":" ","HOUSE_NO":"２３３號之６","E_COORD97":168392.20999999999,"N_COORD97":2542654.5,"ADDRESS":"南門路２３３號之６","OBJECTID":276707},"geometry":{"x":168392.21000000089,"y":2542654.5000000037}},{"attributes":{"ID":276713,"DIS_CODE":0,"TOWNNAME":"東區","LI":"南聖里","LIN":"13鄰","STREET":"裕和路","SECT":" ","MAREA":" ","LANE":" ","ALLEY":" ","HOUSE_NO":"２６１號","E_COORD97":172468.39999999999,"N_COORD97":2543149.8799999999,"ADDRESS":"裕和路２６１號","OBJECTID":276708},"geometry":{"x":172468.4000000013,"y":2543149.8800000008}},{"attributes":{"ID":276714,"DIS_CODE":0,"TOWNNAME":"北區","LI":"永祥里","LIN":"1鄰","STREET":"大武街","SECT":" ","MAREA":" ","LANE":"５２５巷","ALLEY":" ","HOUSE_NO":"１６號","E_COORD97":170069.75,"N_COORD97":2546472.0899999999,"ADDRESS":"大武街５２５巷１６號","OBJECTID":276709},"geometry":{"x":170069.75000000093,"y":2546472.0900000017}},{"attributes":{"ID":276715,"DIS_CODE":0,"TOWNNAME":"東區","LI":"南聖里","LIN":"13鄰","STREET":"裕孝路","SECT":" ","MAREA":" ","LANE":" ","ALLEY":" ","HOUSE_NO":"９９號","E_COORD97":172452.5,"N_COORD97":2543160.2200000002,"ADDRESS":"裕孝路９９號","OBJECTID":276710},"geometry":{"x":172452.5,"y":2543160.2200000025}},{"attributes":{"ID":276716,"DIS_CODE":0,"TOWNNAME":"東區","LI":"文聖里","LIN":"8鄰","STREET":"裕農三街","SECT":" ","MAREA":" ","LANE":" ","ALLEY":" ","HOUSE_NO":"１７８號","E_COORD97":172024.98000000001,"N_COORD97":2542725.3399999999,"ADDRESS":"裕農三街１７８號","OBJECTID":276711},"geometry":{"x":172024.98000000138,"y":2542725.3399999999}},{"attributes":{"ID":276717,"DIS_CODE":0,"TOWNNAME":"北區","LI":"永祥里","LIN":"1鄰","STREET":"大武街","SECT":" ","MAREA":" ","LANE":"５２５巷","ALLEY":" ","HOUSE_NO":"１８號","E_COORD97":170069.89999999999,"N_COORD97":2546475.6299999999,"ADDRESS":"大武街５２５巷１８號","OBJECTID":276712},"geometry":{"x":170069.90000000037,"y":2546475.629999999}},{"attributes":{"ID":276718,"DIS_CODE":0,"TOWNNAME":"東區","LI":" ","LIN":" ","STREET":"南聖里１３鄰裕和路","SECT":" ","MAREA":" ","LANE":" ","ALLEY":" ","HOUSE_NO":"２６３號","E_COORD97":172475.39999999999,"N_COORD97":2543150.04,"ADDRESS":"南聖里１３鄰裕和路２６３號","OBJECTID":276713},"geometry":{"x":172475.40000000037,"y":2543150.0399999991}},{"attributes":{"ID":276719,"DIS_CODE":0,"TOWNNAME":"北區","LI":"永祥里","LIN":"1鄰","STREET":"大武街","SECT":" ","MAREA":" ","LANE":"５２５巷","ALLEY":" ","HOUSE_NO":"２０號","E_COORD97":170070.60000000001,"N_COORD97":2546479.6800000002,"ADDRESS":"大武街５２５巷２０號","OBJECTID":276714},"geometry":{"x":170070.60000000056,"y":2546479.6799999997}},{"attributes":{"ID":276720,"DIS_CODE":0,"TOWNNAME":"東區","LI":"大智里","LIN":"20鄰","STREET":"崇善路","SECT":" ","MAREA":" ","LANE":" ","ALLEY":" ","HOUSE_NO":"７９２號","E_COORD97":171376.66,"N_COORD97":2540682.52,"ADDRESS":"崇善路７９２號","OBJECTID":276715},"geometry":{"x":171376.66000000015,"y":2540682.5199999996}},{"attributes":{"ID":276721,"DIS_CODE":0,"TOWNNAME":"北區","LI":"永祥里","LIN":"1鄰","STREET":"大武街","SECT":" ","MAREA":" ","LANE":"５２５巷","ALLEY":" ","HOUSE_NO":"２２號","E_COORD97":170069.47,"N_COORD97":2546483.9199999999,"ADDRESS":"大武街５２５巷２２號","OBJECTID":276716},"geometry":{"x":170069.4700000016,"y":2546483.9200000018}},{"attributes":{"ID":276722,"DIS_CODE":0,"TOWNNAME":"東區","LI":"大智里","LIN":"20鄰","STREET":"崇善十四街","SECT":" ","MAREA":" ","LANE":" ","ALLEY":" ","HOUSE_NO":"１０號","E_COORD97":171336.81,"N_COORD97":2540681.5299999998,"ADDRESS":"崇善十四街１０號","OBJECTID":276717},"geometry":{"x":171336.81000000145,"y":2540681.5300000012}},{"attributes":{"ID":276723,"DIS_CODE":0,"TOWNNAME":"東區","LI":"大智里","LIN":"20鄰","STREET":"崇善十四街","SECT":" ","MAREA":" ","LANE":" ","ALLEY":" ","HOUSE_NO":"２號","E_COORD97":171347.56,"N_COORD97":2540667.9700000002,"ADDRESS":"崇善十四街２號","OBJECTID":276718},"geometry":{"x":171347.56000000052,"y":2540667.9700000007}},{"attributes":{"ID":276724,"DIS_CODE":0,"TOWNNAME":"東區","LI":"大智里","LIN":"20鄰","STREET":"崇善十四街","SECT":" ","MAREA":" ","LANE":" ","ALLEY":" ","HOUSE_NO":"６號","E_COORD97":171344.25,"N_COORD97":2540672.1099999999,"ADDRESS":"崇善十四街６號","OBJECTID":276719},"geometry":{"x":171344.25000000186,"y":2540672.1099999994}},{"attributes":{"ID":276725,"DIS_CODE":0,"TOWNNAME":"北區","LI":"永祥里","LIN":"1鄰","STREET":"大武街","SECT":" ","MAREA":" ","LANE":"５２５巷","ALLEY":" ","HOUSE_NO":"２４號","E_COORD97":170073.01999999999,"N_COORD97":2546488.3700000001,"ADDRESS":"大武街５２５巷２４號","OBJECTID":276720},"geometry":{"x":170073.02000000048,"y":2546488.3700000029}},{"attributes":{"ID":276726,"DIS_CODE":0,"TOWNNAME":"北區","LI":"永祥里","LIN":"1鄰","STREET":"大武街","SECT":" ","MAREA":" ","LANE":"５２５巷","ALLEY":" ","HOUSE_NO":"２６號","E_COORD97":170069.95999999999,"N_COORD97":2546496.8999999999,"ADDRESS":"大武街５２５巷２６號","OBJECTID":276721},"geometry":{"x":170069.96000000089,"y":2546496.9000000041}},{"attributes":{"ID":276727,"DIS_CODE":0,"TOWNNAME":"北區","LI":"永祥里","LIN":"1鄰","STREET":"大武街","SECT":" ","MAREA":" ","LANE":"５２５巷","ALLEY":" ","HOUSE_NO":"２８號","E_COORD97":170073.22,"N_COORD97":2546502.5899999999,"ADDRESS":"大武街５２５巷２８號","OBJECTID":276722},"geometry":{"x":170073.22000000067,"y":2546502.5900000017}},{"attributes":{"ID":276728,"DIS_CODE":0,"TOWNNAME":"北區","LI":"永祥里","LIN":"1鄰","STREET":"大武街","SECT":" ","MAREA":" ","LANE":"５２５巷","ALLEY":" ","HOUSE_NO":"２號","E_COORD97":170064.94,"N_COORD97":2546444.6200000001,"ADDRESS":"大武街５２５巷２號","OBJECTID":276723},"geometry":{"x":170064.94000000041,"y":2546444.620000001}},{"attributes":{"ID":276729,"DIS_CODE":0,"TOWNNAME":"北區","LI":"永祥里","LIN":"1鄰","STREET":"大武街","SECT":" ","MAREA":" ","LANE":"５２５巷","ALLEY":" ","HOUSE_NO":"６號","E_COORD97":170066.35999999999,"N_COORD97":2546452.6800000002,"ADDRESS":"大武街５２５巷６號","OBJECTID":276724},"geometry":{"x":170066.36000000127,"y":2546452.6799999997}},{"attributes":{"ID":276730,"DIS_CODE":0,"TOWNNAME":"北區","LI":"永祥里","LIN":"1鄰","STREET":"大武街","SECT":" ","MAREA":" ","LANE":"５２５巷","ALLEY":" ","HOUSE_NO":"８號","E_COORD97":170066.85000000001,"N_COORD97":2546456.2200000002,"ADDRESS":"大武街５２５巷８號","OBJECTID":276725},"geometry":{"x":170066.85000000149,"y":2546456.2200000007}},{"attributes":{"ID":276731,"DIS_CODE":0,"TOWNNAME":"安平區","LI":"億載里","LIN":"1鄰","STREET":"平豐路","SECT":" ","MAREA":" ","LANE":"３９１巷","ALLEY":" ","HOUSE_NO":"１７號","E_COORD97":164226.10000000001,"N_COORD97":2543804.0499999998,"ADDRESS":"平豐路３９１巷１７號","OBJECTID":276726},"geometry":{"x":164226.09999999963,"y":2543804.0499999989}},{"attributes":{"ID":276732,"DIS_CODE":0,"TOWNNAME":"安平區","LI":"億載里","LIN":"1鄰","STREET":"平豐路","SECT":" ","MAREA":" ","LANE":"３９１巷","ALLEY":" ","HOUSE_NO":"１５號","E_COORD97":164229.51999999999,"N_COORD97":2543804.54,"ADDRESS":"平豐路３９１巷１５號","OBJECTID":276727},"geometry":{"x":164229.52000000048,"y":2543804.5399999991}},{"attributes":{"ID":276733,"DIS_CODE":0,"TOWNNAME":"安平區","LI":"億載里","LIN":"1鄰","STREET":"平豐路","SECT":" ","MAREA":" ","LANE":"３９１巷","ALLEY":" ","HOUSE_NO":"１３號","E_COORD97":164232.13,"N_COORD97":2543804.8700000001,"ADDRESS":"平豐路３９１巷１３號","OBJECTID":276728},"geometry":{"x":164232.13000000175,"y":2543804.870000001}},{"attributes":{"ID":276734,"DIS_CODE":0,"TOWNNAME":"安平區","LI":"億載里","LIN":"1鄰","STREET":"平豐路","SECT":" ","MAREA":" ","LANE":"３９１巷","ALLEY":" ","HOUSE_NO":"１１號","E_COORD97":164236.35999999999,"N_COORD97":2543804.8700000001,"ADDRESS":"平豐路３９１巷１１號","OBJECTID":276729},"geometry":{"x":164236.36000000127,"y":2543804.870000001}},{"attributes":{"ID":276735,"DIS_CODE":0,"TOWNNAME":"安平區","LI":"國平里","LIN":"1鄰","STREET":"建平七街","SECT":" ","MAREA":" ","LANE":"３７０巷","ALLEY":" ","HOUSE_NO":"６號","E_COORD97":165702.98000000001,"N_COORD97":2543328.8700000001,"ADDRESS":"建平七街３７０巷６號","OBJECTID":276730},"geometry":{"x":165702.98000000045,"y":2543328.8700000029}},{"attributes":{"ID":276736,"DIS_CODE":0,"TOWNNAME":"安平區","LI":"國平里","LIN":"1鄰","STREET":"建平七街","SECT":" ","MAREA":" ","LANE":"３７０巷","ALLEY":" ","HOUSE_NO":"８號","E_COORD97":165703.62,"N_COORD97":2543323.6299999999,"ADDRESS":"建平七街３７０巷８號","OBJECTID":276731},"geometry":{"x":165703.61999999918,"y":2543323.6299999971}},{"attributes":{"ID":276737,"DIS_CODE":0,"TOWNNAME":"安平區","LI":"文平里","LIN":"1鄰","STREET":"建平七街","SECT":" ","MAREA":" ","LANE":"２６巷","ALLEY":" ","HOUSE_NO":"２６號","E_COORD97":166499.98000000001,"N_COORD97":2543236.0699999998,"ADDRESS":"建平七街２６巷２６號","OBJECTID":276732},"geometry":{"x":166499.97999999952,"y":2543236.0700000003}},{"attributes":{"ID":276738,"DIS_CODE":0,"TOWNNAME":"新營區","LI":"護鎮里","LIN":"1鄰","STREET":"中正路","SECT":" ","MAREA":" ","LANE":"４３９巷","ALLEY":" ","HOUSE_NO":"２２號","E_COORD97":179693.07999999999,"N_COORD97":2580300.6899999999,"ADDRESS":"中正路４３９巷２２號","OBJECTID":276733},"geometry":{"x":179693.08000000101,"y":2580300.6900000013}},{"attributes":{"ID":276739,"DIS_CODE":0,"TOWNNAME":"新營區","LI":"忠政里","LIN":"1鄰","STREET":"中正路","SECT":" ","MAREA":" ","LANE":"３１巷","ALLEY":" ","HOUSE_NO":"１０號","E_COORD97":180053.01999999999,"N_COORD97":2579004.3700000001,"ADDRESS":"中正路３１巷１０號","OBJECTID":276734},"geometry":{"x":180053.01999999955,"y":2579004.370000001}},{"attributes":{"ID":276740,"DIS_CODE":0,"TOWNNAME":"新營區","LI":"永生里","LIN":"1鄰","STREET":"中山路","SECT":" ","MAREA":" ","LANE":"１４５巷","ALLEY":" ","HOUSE_NO":"３號","E_COORD97":180084.38,"N_COORD97":2578092.7799999998,"ADDRESS":"中山路１４５巷３號","OBJECTID":276735},"geometry":{"x":180084.38000000082,"y":2578092.7800000012}},{"attributes":{"ID":276741,"DIS_CODE":0,"TOWNNAME":"歸仁區","LI":"大廟里","LIN":"1鄰","STREET":"大廟二街","SECT":" ","MAREA":" ","LANE":"４５巷","ALLEY":" ","HOUSE_NO":"６號","E_COORD97":176012.26999999999,"N_COORD97":2543990.25,"ADDRESS":"大廟二街４５巷６號","OBJECTID":276736},"geometry":{"x":176012.27000000142,"y":2543990.2500000019}},{"attributes":{"ID":276742,"DIS_CODE":0,"TOWNNAME":"歸仁區","LI":"武東里","LIN":"1鄰","STREET":"中正南路","SECT":"二段","MAREA":" ","LANE":"２７５巷","ALLEY":" ","HOUSE_NO":"３７號","E_COORD97":175515.16,"N_COORD97":2535149.2799999998,"ADDRESS":"中正南路二段２７５巷３７號","OBJECTID":276737},"geometry":{"x":175515.15999999922,"y":2535149.2800000031}},{"attributes":{"ID":276743,"DIS_CODE":0,"TOWNNAME":"北區","LI":"文元里","LIN":"1鄰","STREET":"北成路","SECT":" ","MAREA":" ","LANE":"４６７巷","ALLEY":" ","HOUSE_NO":"１號","E_COORD97":167876.32000000001,"N_COORD97":2546530.3700000001,"ADDRESS":"北成路４６７巷１號","OBJECTID":276738},"geometry":{"x":167876.32000000123,"y":2546530.370000001}},{"attributes":{"ID":276744,"DIS_CODE":0,"TOWNNAME":"北區","LI":"文元里","LIN":"1鄰","STREET":"北成路","SECT":" ","MAREA":" ","LANE":"４６７巷","ALLEY":" ","HOUSE_NO":"１０號","E_COORD97":167875.04999999999,"N_COORD97":2546519.8300000001,"ADDRESS":"北成路４６７巷１０號","OBJECTID":276739},"geometry":{"x":167875.04999999981,"y":2546519.8300000001}},{"attributes":{"ID":276745,"DIS_CODE":0,"TOWNNAME":"北區","LI":"正覺里","LIN":"1鄰","STREET":"公園路","SECT":" ","MAREA":" ","LANE":"５９３巷","ALLEY":" ","HOUSE_NO":"２８號","E_COORD97":169089.22,"N_COORD97":2546017.2400000002,"ADDRESS":"公園路５９３巷２８號","OBJECTID":276740},"geometry":{"x":169089.21999999974,"y":2546017.2400000021}},{"attributes":{"ID":276746,"DIS_CODE":0,"TOWNNAME":"北區","LI":"大豐里","LIN":"1鄰","STREET":"文賢路","SECT":" ","MAREA":" ","LANE":"２８５巷","ALLEY":" ","HOUSE_NO":"２號","E_COORD97":167288.82000000001,"N_COORD97":2545177.8999999999,"ADDRESS":"文賢路２８５巷２號","OBJECTID":276741},"geometry":{"x":167288.8200000003,"y":2545177.8999999985}},{"attributes":{"ID":276747,"DIS_CODE":0,"TOWNNAME":"北區","LI":"大豐里","LIN":"1鄰","STREET":"文賢路","SECT":" ","MAREA":" ","LANE":"３１３巷","ALLEY":" ","HOUSE_NO":"１號","E_COORD97":167297.95000000001,"N_COORD97":2545235.6800000002,"ADDRESS":"文賢路３１３巷１號","OBJECTID":276742},"geometry":{"x":167297.95000000019,"y":2545235.6799999997}},{"attributes":{"ID":276748,"DIS_CODE":0,"TOWNNAME":"北區","LI":"正覺里","LIN":"1鄰","STREET":"公園路","SECT":" ","MAREA":" ","LANE":"５９３巷","ALLEY":" ","HOUSE_NO":"２０號","E_COORD97":169103.45999999999,"N_COORD97":2546016.1600000001,"ADDRESS":"公園路５９３巷２０號","OBJECTID":276743},"geometry":{"x":169103.46000000183,"y":2546016.1600000001}},{"attributes":{"ID":276749,"DIS_CODE":0,"TOWNNAME":"歸仁區","LI":"歸南里","LIN":"1鄰","STREET":"民權南路","SECT":" ","MAREA":" ","LANE":"１９６巷","ALLEY":" ","HOUSE_NO":"６０號","E_COORD97":176898.04000000001,"N_COORD97":2540292.54,"ADDRESS":"民權南路１９６巷６０號","OBJECTID":276744},"geometry":{"x":176898.04000000097,"y":2540292.5399999991}},{"attributes":{"ID":276750,"DIS_CODE":0,"TOWNNAME":"歸仁區","LI":"七甲里","LIN":"1鄰","STREET":"中正北路","SECT":"一段","MAREA":" ","LANE":"５２５巷","ALLEY":" ","HOUSE_NO":"２０號","E_COORD97":177340.20999999999,"N_COORD97":2542091.25,"ADDRESS":"中正北路一段５２５巷２０號","OBJECTID":276745},"geometry":{"x":177340.20999999996,"y":2542091.2500000019}},{"attributes":{"ID":276751,"DIS_CODE":0,"TOWNNAME":"歸仁區","LI":"大潭里","LIN":"1鄰","STREET":"中正南路","SECT":"二段","MAREA":" ","LANE":"２７５巷","ALLEY":" ","HOUSE_NO":"２８號","E_COORD97":175438.06,"N_COORD97":2535112.2799999998,"ADDRESS":"中正南路二段２７５巷２８號","OBJECTID":276746},"geometry":{"x":175438.06000000052,"y":2535112.2800000012}},{"attributes":{"ID":276752,"DIS_CODE":0,"TOWNNAME":"歸仁區","LI":"武東里","LIN":"1鄰","STREET":"中正南路","SECT":"二段","MAREA":" ","LANE":"２７５巷","ALLEY":" ","HOUSE_NO":"１號","E_COORD97":175378.60999999999,"N_COORD97":2535172.2799999998,"ADDRESS":"中正南路二段２７５巷１號","OBJECTID":276747},"geometry":{"x":175378.6100000022,"y":2535172.2799999993}},{"attributes":{"ID":276753,"DIS_CODE":0,"TOWNNAME":"歸仁區","LI":"七甲里","LIN":"1鄰","STREET":"中正北路","SECT":"一段","MAREA":" ","LANE":"５２５巷","ALLEY":" ","HOUSE_NO":"１７０號","E_COORD97":176900.03,"N_COORD97":2542090.02,"ADDRESS":"中正北路一段５２５巷１７０號","OBJECTID":276748},"geometry":{"x":176900.03000000119,"y":2542090.0199999996}},{"attributes":{"ID":276754,"DIS_CODE":0,"TOWNNAME":"歸仁區","LI":"七甲里","LIN":"1鄰","STREET":"七甲五街","SECT":" ","MAREA":" ","LANE":"９１巷","ALLEY":" ","HOUSE_NO":"５８號","E_COORD97":177121.98999999999,"N_COORD97":2542551.27,"ADDRESS":"七甲五街９１巷５８號","OBJECTID":276749},"geometry":{"x":177121.99000000115,"y":2542551.2700000014}},{"attributes":{"ID":276755,"DIS_CODE":0,"TOWNNAME":"歸仁區","LI":"武東里","LIN":"1鄰","STREET":"中正南路","SECT":"二段","MAREA":" ","LANE":"２７５巷","ALLEY":" ","HOUSE_NO":"３３號","E_COORD97":175518.16,"N_COORD97":2535131.2799999998,"ADDRESS":"中正南路二段２７５巷３３號","OBJECTID":276750},"geometry":{"x":175518.16000000015,"y":2535131.2799999993}},{"attributes":{"ID":276756,"DIS_CODE":0,"TOWNNAME":"歸仁區","LI":"武東里","LIN":"1鄰","STREET":"中正南路","SECT":"二段","MAREA":" ","LANE":"２７５巷","ALLEY":" ","HOUSE_NO":"１７號","E_COORD97":175447.45999999999,"N_COORD97":2535155.2799999998,"ADDRESS":"中正南路二段２７５巷１７號","OBJECTID":276751},"geometry":{"x":175447.46000000089,"y":2535155.2799999993}},{"attributes":{"ID":276757,"DIS_CODE":0,"TOWNNAME":"歸仁區","LI":"大潭里","LIN":"1鄰","STREET":"中正南路","SECT":"三段","MAREA":" ","LANE":"５１巷","ALLEY":" ","HOUSE_NO":"１號","E_COORD97":175334.85999999999,"N_COORD97":2535076.2799999998,"ADDRESS":"中正南路三段５１巷１號","OBJECTID":276752},"geometry":{"x":175334.86000000127,"y":2535076.2799999993}},{"attributes":{"ID":276758,"DIS_CODE":0,"TOWNNAME":"歸仁區","LI":"武東里","LIN":"1鄰","STREET":"中正南路","SECT":"二段","MAREA":" ","LANE":"２５３巷","ALLEY":" ","HOUSE_NO":"４０號","E_COORD97":175487.76000000001,"N_COORD97":2535206.2799999998,"ADDRESS":"中正南路二段２５３巷４０號","OBJECTID":276753},"geometry":{"x":175487.76000000071,"y":2535206.2799999993}},{"attributes":{"ID":276759,"DIS_CODE":0,"TOWNNAME":"歸仁區","LI":"七甲里","LIN":"1鄰","STREET":"七甲五街","SECT":" ","MAREA":" ","LANE":"１０２巷","ALLEY":" ","HOUSE_NO":"９３號","E_COORD97":177064.79999999999,"N_COORD97":2542620.9300000002,"ADDRESS":"七甲五街１０２巷９３號","OBJECTID":276754},"geometry":{"x":177064.79999999981,"y":2542620.9300000034}},{"attributes":{"ID":276760,"DIS_CODE":0,"TOWNNAME":"歸仁區","LI":"大潭里","LIN":"1鄰","STREET":"中正南路","SECT":"三段","MAREA":" ","LANE":"５１巷","ALLEY":" ","HOUSE_NO":"２０號","E_COORD97":175332.81,"N_COORD97":2535029.2799999998,"ADDRESS":"中正南路三段５１巷２０號","OBJECTID":276755},"geometry":{"x":175332.81000000052,"y":2535029.2799999993}},{"attributes":{"ID":276761,"DIS_CODE":0,"TOWNNAME":"歸仁區","LI":"七甲里","LIN":"1鄰","STREET":"七甲五街","SECT":" ","MAREA":" ","LANE":"９１巷","ALLEY":" ","HOUSE_NO":"２號","E_COORD97":177173.89999999999,"N_COORD97":2542588.9300000002,"ADDRESS":"七甲五街９１巷２號","OBJECTID":276756},"geometry":{"x":177173.9000000013,"y":2542588.9299999997}},{"attributes":{"ID":276762,"DIS_CODE":0,"TOWNNAME":"歸仁區","LI":"武東里","LIN":"1鄰","STREET":"中正南路","SECT":"二段","MAREA":" ","LANE":"２５３巷","ALLEY":" ","HOUSE_NO":"３８號","E_COORD97":175508.16,"N_COORD97":2535190.2799999998,"ADDRESS":"中正南路二段２５３巷３８號","OBJECTID":276757},"geometry":{"x":175508.16000000015,"y":2535190.2800000012}},{"attributes":{"ID":276763,"DIS_CODE":0,"TOWNNAME":"東區","LI":"關聖里","LIN":"14鄰","STREET":"裕英街","SECT":" ","MAREA":" ","LANE":" ","ALLEY":" ","HOUSE_NO":"６號","E_COORD97":172064.88,"N_COORD97":2543004.2000000002,"ADDRESS":"裕英街６號","OBJECTID":276758},"geometry":{"x":172064.87999999989,"y":2543004.1999999993}},{"attributes":{"ID":276764,"DIS_CODE":0,"TOWNNAME":"歸仁區","LI":"武東里","LIN":"1鄰","STREET":"中正南路","SECT":"二段","MAREA":" ","LANE":"２７５巷","ALLEY":" ","HOUSE_NO":"１９號","E_COORD97":175453.66,"N_COORD97":2535148.2799999998,"ADDRESS":"中正南路二段２７５巷１９號","OBJECTID":276759},"geometry":{"x":175453.66000000015,"y":2535148.2799999993}},{"attributes":{"ID":276765,"DIS_CODE":0,"TOWNNAME":"南區","LI":"永寧里","LIN":"1鄰","STREET":"灣裡路","SECT":" ","MAREA":" ","LANE":"８８巷","ALLEY":" ","HOUSE_NO":"１３５號","E_COORD97":165890.95999999999,"N_COORD97":2536554.9300000002,"ADDRESS":"灣裡路８８巷１３５號","OBJECTID":276760},"geometry":{"x":165890.95999999996,"y":2536554.9299999997}},{"attributes":{"ID":276766,"DIS_CODE":0,"TOWNNAME":"南區","LI":"永寧里","LIN":"1鄰","STREET":"灣裡路","SECT":" ","MAREA":" ","LANE":"８８巷","ALLEY":" ","HOUSE_NO":"１４１號","E_COORD97":165877.79000000001,"N_COORD97":2536507.9100000001,"ADDRESS":"灣裡路８８巷１４１號","OBJECTID":276761},"geometry":{"x":165877.79000000097,"y":2536507.9100000001}},{"attributes":{"ID":276767,"DIS_CODE":0,"TOWNNAME":"南區","LI":"永寧里","LIN":"1鄰","STREET":"灣裡路","SECT":" ","MAREA":" ","LANE":"８８巷","ALLEY":" ","HOUSE_NO":"１４３號","E_COORD97":165878.07000000001,"N_COORD97":2536503.04,"ADDRESS":"灣裡路８８巷１４３號","OBJECTID":276762},"geometry":{"x":165878.0700000003,"y":2536503.0400000028}},{"attributes":{"ID":276768,"DIS_CODE":0,"TOWNNAME":"仁德區","LI":"仁愛里","LIN":"2鄰","STREET":" ","SECT":" ","MAREA":"仁愛","LANE":" ","ALLEY":" ","HOUSE_NO":"２０號","E_COORD97":170345.06849999999,"N_COORD97":2540170.1337700002,"ADDRESS":"仁愛２０號","OBJECTID":276763},"geometry":{"x":170345.06850000005,"y":2540170.1337660011}},{"attributes":{"ID":276769,"DIS_CODE":0,"TOWNNAME":"南區","LI":"永寧里","LIN":"1鄰","STREET":"灣裡路","SECT":" ","MAREA":" ","LANE":"８８巷","ALLEY":" ","HOUSE_NO":"１４７號","E_COORD97":165877.70000000001,"N_COORD97":2536496.5099999998,"ADDRESS":"灣裡路８８巷１４７號","OBJECTID":276764},"geometry":{"x":165877.70000000019,"y":2536496.5099999998}},{"attributes":{"ID":276770,"DIS_CODE":0,"TOWNNAME":"南區","LI":"永寧里","LIN":"1鄰","STREET":"灣裡路","SECT":" ","MAREA":" ","LANE":"８８巷","ALLEY":" ","HOUSE_NO":"１５１號","E_COORD97":165877.13,"N_COORD97":2536489.8900000001,"ADDRESS":"灣裡路８８巷１５１號","OBJECTID":276765},"geometry":{"x":165877.13000000082,"y":2536489.8900000025}},{"attributes":{"ID":276771,"DIS_CODE":0,"TOWNNAME":"南區","LI":"永寧里","LIN":"1鄰","STREET":"灣裡路","SECT":" ","MAREA":" ","LANE":"８８巷","ALLEY":" ","HOUSE_NO":"１５３號","E_COORD97":165879.67999999999,"N_COORD97":2536472.1499999999,"ADDRESS":"灣裡路８８巷１５３號","OBJECTID":276766},"geometry":{"x":165879.68000000063,"y":2536472.1500000004}},{"attributes":{"ID":276772,"DIS_CODE":0,"TOWNNAME":"南區","LI":"大成里","LIN":"1鄰","STREET":"健康路","SECT":"一段","MAREA":" ","LANE":"３５７巷","ALLEY":" ","HOUSE_NO":"１９號","E_COORD97":167995.45999999999,"N_COORD97":2542378.75,"ADDRESS":"健康路一段３５７巷１９號","OBJECTID":276767},"geometry":{"x":167995.46000000089,"y":2542378.7500000019}},{"attributes":{"ID":276773,"DIS_CODE":0,"TOWNNAME":"南區","LI":"大林里","LIN":"1鄰","STREET":"大同路","SECT":"二段","MAREA":" ","LANE":"３５４巷","ALLEY":" ","HOUSE_NO":"２號","E_COORD97":169368.14999999999,"N_COORD97":2541812.0499999998,"ADDRESS":"大同路二段３５４巷２號","OBJECTID":276768},"geometry":{"x":169368.15000000037,"y":2541812.0500000026}},{"attributes":{"ID":276774,"DIS_CODE":0,"TOWNNAME":"南區","LI":"大林里","LIN":"1鄰","STREET":"大同路","SECT":"二段","MAREA":" ","LANE":"３５４巷","ALLEY":" ","HOUSE_NO":"３號","E_COORD97":169369.31,"N_COORD97":2541764.8999999999,"ADDRESS":"大同路二段３５４巷３號","OBJECTID":276769},"geometry":{"x":169369.31000000052,"y":2541764.9000000022}},{"attributes":{"ID":276775,"DIS_CODE":0,"TOWNNAME":"新營區","LI":"護鎮里","LIN":"1鄰","STREET":"中正路","SECT":" ","MAREA":" ","LANE":"４３９巷","ALLEY":" ","HOUSE_NO":"６號","E_COORD97":179925.45999999999,"N_COORD97":2580343.3199999998,"ADDRESS":"中正路４３９巷６號","OBJECTID":276770},"geometry":{"x":179925.45999999996,"y":2580343.3199999984}},{"attributes":{"ID":276776,"DIS_CODE":0,"TOWNNAME":"新營區","LI":"好平里","LIN":"1鄰","STREET":"武侯街","SECT":" ","MAREA":" ","LANE":"９巷","ALLEY":" ","HOUSE_NO":"２０號","E_COORD97":179602,"N_COORD97":2577708.5800000001,"ADDRESS":"武侯街９巷２０號","OBJECTID":276771},"geometry":{"x":179602.00000000093,"y":2577708.5800000019}},{"attributes":{"ID":276777,"DIS_CODE":0,"TOWNNAME":"新營區","LI":"嘉芳里","LIN":"1鄰","STREET":"復興路","SECT":" ","MAREA":" ","LANE":"７００巷","ALLEY":" ","HOUSE_NO":"１０１號","E_COORD97":177326.21834399999,"N_COORD97":2579187.79189,"ADDRESS":"復興路７００巷１０１號","OBJECTID":276772},"geometry":{"x":177326.21834400017,"y":2579187.7918899991}},{"attributes":{"ID":276778,"DIS_CODE":0,"TOWNNAME":"新營區","LI":"興業里","LIN":"1鄰","STREET":"公誠街","SECT":" ","MAREA":" ","LANE":"１７巷","ALLEY":" ","HOUSE_NO":"２之３號","E_COORD97":180301.84,"N_COORD97":2577913.5299999998,"ADDRESS":"公誠街１７巷２之３號","OBJECTID":276773},"geometry":{"x":180301.83999999985,"y":2577913.5300000031}},{"attributes":{"ID":276779,"DIS_CODE":0,"TOWNNAME":"新營區","LI":"興業里","LIN":"1鄰","STREET":"公誠街","SECT":" ","MAREA":" ","LANE":"１７巷","ALLEY":" ","HOUSE_NO":"１４之２號","E_COORD97":180349.14000000001,"N_COORD97":2577932.1299999999,"ADDRESS":"公誠街１７巷１４之２號","OBJECTID":276774},"geometry":{"x":180349.13999999966,"y":2577932.129999999}},{"attributes":{"ID":276780,"DIS_CODE":0,"TOWNNAME":"南區","LI":"省躬里","LIN":"1鄰","STREET":"灣裡路","SECT":" ","MAREA":" ","LANE":"１３６巷","ALLEY":" ","HOUSE_NO":"１號","E_COORD97":166003.97,"N_COORD97":2536745.21,"ADDRESS":"灣裡路１３６巷１號","OBJECTID":276775},"geometry":{"x":166003.96999999974,"y":2536745.2100000028}},{"attributes":{"ID":276781,"DIS_CODE":0,"TOWNNAME":"南區","LI":"省躬里","LIN":"1鄰","STREET":"灣裡路","SECT":" ","MAREA":" ","LANE":"１３６巷","ALLEY":" ","HOUSE_NO":"３號","E_COORD97":166004.23999999999,"N_COORD97":2536724.54,"ADDRESS":"灣裡路１３６巷３號","OBJECTID":276776},"geometry":{"x":166004.24000000022,"y":2536724.540000001}},{"attributes":{"ID":276782,"DIS_CODE":0,"TOWNNAME":"永康區","LI":"復國里","LIN":"3鄰","STREET":"復國一路","SECT":" ","MAREA":" ","LANE":" ","ALLEY":" ","HOUSE_NO":"２２號","E_COORD97":172727.95000000001,"N_COORD97":2544738.77,"ADDRESS":"復國一路２２號","OBJECTID":276777},"geometry":{"x":172727.95000000019,"y":2544738.7700000014}},{"attributes":{"ID":276783,"DIS_CODE":0,"TOWNNAME":"南區","LI":"省躬里","LIN":"1鄰","STREET":"灣裡路","SECT":" ","MAREA":" ","LANE":"１３６巷","ALLEY":" ","HOUSE_NO":"５號","E_COORD97":165990.62,"N_COORD97":2536718.29,"ADDRESS":"灣裡路１３６巷５號","OBJECTID":276778},"geometry":{"x":165990.62000000104,"y":2536718.2899999972}},{"attributes":{"ID":276784,"DIS_CODE":0,"TOWNNAME":"南區","LI":"省躬里","LIN":"1鄰","STREET":"灣裡路","SECT":" ","MAREA":" ","LANE":"１３６巷","ALLEY":" ","HOUSE_NO":"７號","E_COORD97":165989.81,"N_COORD97":2536733.79,"ADDRESS":"灣裡路１３６巷７號","OBJECTID":276779},"geometry":{"x":165989.80999999959,"y":2536733.7899999991}},{"attributes":{"ID":276785,"DIS_CODE":0,"TOWNNAME":"南區","LI":"大恩里","LIN":"1鄰","STREET":"國民路","SECT":" ","MAREA":" ","LANE":"６０巷","ALLEY":" ","HOUSE_NO":"２３號","E_COORD97":169418.04999999999,"N_COORD97":2540993.21,"ADDRESS":"國民路６０巷２３號","OBJECTID":276780},"geometry":{"x":169418.05000000168,"y":2540993.2100000028}},{"attributes":{"ID":276786,"DIS_CODE":0,"TOWNNAME":"南區","LI":"大恩里","LIN":"1鄰","STREET":"國民路","SECT":" ","MAREA":" ","LANE":"６０巷","ALLEY":" ","HOUSE_NO":"２５號","E_COORD97":169418.92999999999,"N_COORD97":2540998.29,"ADDRESS":"國民路６０巷２５號","OBJECTID":276781},"geometry":{"x":169418.93000000063,"y":2540998.290000001}},{"attributes":{"ID":276787,"DIS_CODE":0,"TOWNNAME":"六甲區","LI":"七甲里","LIN":"1鄰","STREET":"七甲街","SECT":" ","MAREA":" ","LANE":"８９巷","ALLEY":" ","HOUSE_NO":"３５號","E_COORD97":182931.01000000001,"N_COORD97":2568666.6699999999,"ADDRESS":"七甲街８９巷３５號","OBJECTID":276782},"geometry":{"x":182931.01000000071,"y":2568666.6699999999}},{"attributes":{"ID":276788,"DIS_CODE":0,"TOWNNAME":"六甲區","LI":"七甲里","LIN":"1鄰","STREET":"七甲街","SECT":" ","MAREA":" ","LANE":"８９巷","ALLEY":" ","HOUSE_NO":"３７號","E_COORD97":182924.89999999999,"N_COORD97":2568644.0099999998,"ADDRESS":"七甲街８９巷３７號","OBJECTID":276783},"geometry":{"x":182924.90000000037,"y":2568644.0099999998}},{"attributes":{"ID":276789,"DIS_CODE":0,"TOWNNAME":"六甲區","LI":"七甲里","LIN":"1鄰","STREET":"七甲街","SECT":" ","MAREA":" ","LANE":"８９巷","ALLEY":" ","HOUSE_NO":"３９號","E_COORD97":182917.47,"N_COORD97":2568619.8500000001,"ADDRESS":"七甲街８９巷３９號","OBJECTID":276784},"geometry":{"x":182917.47000000067,"y":2568619.8500000015}},{"attributes":{"ID":276790,"DIS_CODE":0,"TOWNNAME":"六甲區","LI":"七甲里","LIN":"1鄰","STREET":"七甲街","SECT":" ","MAREA":" ","LANE":"８９巷","ALLEY":" ","HOUSE_NO":"３號","E_COORD97":183031.76000000001,"N_COORD97":2568987.5499999998,"ADDRESS":"七甲街８９巷３號","OBJECTID":276785},"geometry":{"x":183031.75999999978,"y":2568987.5500000007}},{"attributes":{"ID":276791,"DIS_CODE":0,"TOWNNAME":"六甲區","LI":"七甲里","LIN":"1鄰","STREET":"七甲街","SECT":" ","MAREA":" ","LANE":"８９巷","ALLEY":" ","HOUSE_NO":"２號","E_COORD97":183003.10999999999,"N_COORD97":2568990.6299999999,"ADDRESS":"七甲街８９巷４號","OBJECTID":276786},"geometry":{"x":183003.11000000034,"y":2568990.6300000008}},{"attributes":{"ID":276792,"DIS_CODE":0,"TOWNNAME":"六甲區","LI":"七甲里","LIN":"1鄰","STREET":"七甲街","SECT":" ","MAREA":" ","LANE":"８９巷","ALLEY":" ","HOUSE_NO":"５號","E_COORD97":183031.19,"N_COORD97":2568984.3500000001,"ADDRESS":"七甲街８９巷５號","OBJECTID":276787},"geometry":{"x":183031.19000000041,"y":2568984.3499999996}},{"attributes":{"ID":276793,"DIS_CODE":0,"TOWNNAME":"六甲區","LI":"七甲里","LIN":"1鄰","STREET":"七甲街","SECT":" ","MAREA":" ","LANE":"８９巷","ALLEY":" ","HOUSE_NO":"６號","E_COORD97":183011.89000000001,"N_COORD97":2568974.9300000002,"ADDRESS":"七甲街８９巷６號","OBJECTID":276788},"geometry":{"x":183011.88999999966,"y":2568974.9300000016}},{"attributes":{"ID":276794,"DIS_CODE":0,"TOWNNAME":"南區","LI":"喜北里","LIN":"1鄰","STREET":"喜樹路","SECT":" ","MAREA":" ","LANE":"２４巷","ALLEY":" ","HOUSE_NO":"１４號","E_COORD97":165826.87,"N_COORD97":2538640.2799999998,"ADDRESS":"喜樹路２４巷１４號","OBJECTID":276789},"geometry":{"x":165826.87000000011,"y":2538640.2799999993}},{"attributes":{"ID":276795,"DIS_CODE":0,"TOWNNAME":"南區","LI":"喜北里","LIN":"1鄰","STREET":"喜樹路","SECT":" ","MAREA":" ","LANE":"２４巷","ALLEY":" ","HOUSE_NO":"１６號","E_COORD97":165821.17999999999,"N_COORD97":2538640.5899999999,"ADDRESS":"喜樹路２４巷１６號","OBJECTID":276790},"geometry":{"x":165821.1799999997,"y":2538640.5900000017}},{"attributes":{"ID":276796,"DIS_CODE":0,"TOWNNAME":"南區","LI":"喜北里","LIN":"1鄰","STREET":"喜樹路","SECT":" ","MAREA":" ","LANE":"２４巷","ALLEY":" ","HOUSE_NO":"１８號","E_COORD97":165815.75,"N_COORD97":2538640.3399999999,"ADDRESS":"喜樹路２４巷１８號","OBJECTID":276791},"geometry":{"x":165815.75,"y":2538640.3399999999}},{"attributes":{"ID":276797,"DIS_CODE":0,"TOWNNAME":"南區","LI":"喜北里","LIN":"1鄰","STREET":"喜樹路","SECT":" ","MAREA":" ","LANE":"２４巷","ALLEY":" ","HOUSE_NO":"２０號","E_COORD97":165810.57000000001,"N_COORD97":2538640.5299999998,"ADDRESS":"喜樹路２４巷２０號","OBJECTID":276792},"geometry":{"x":165810.5700000003,"y":2538640.5300000012}},{"attributes":{"ID":276798,"DIS_CODE":0,"TOWNNAME":"南區","LI":"喜北里","LIN":"1鄰","STREET":"喜樹路","SECT":" ","MAREA":" ","LANE":"２４巷","ALLEY":" ","HOUSE_NO":"２２號","E_COORD97":165805.14000000001,"N_COORD97":2538640.7200000002,"ADDRESS":"喜樹路２４巷２２號","OBJECTID":276793},"geometry":{"x":165805.1400000006,"y":2538640.7200000025}},{"attributes":{"ID":276799,"DIS_CODE":0,"TOWNNAME":"南區","LI":"喜北里","LIN":"1鄰","STREET":"喜樹路","SECT":" ","MAREA":" ","LANE":"２４巷","ALLEY":" ","HOUSE_NO":"２４號","E_COORD97":165799.64000000001,"N_COORD97":2538640.9100000001,"ADDRESS":"喜樹路２４巷２４號","OBJECTID":276794},"geometry":{"x":165799.63999999873,"y":2538640.9099999983}},{"attributes":{"ID":276800,"DIS_CODE":0,"TOWNNAME":"南區","LI":"喜北里","LIN":"1鄰","STREET":"喜樹路","SECT":" ","MAREA":" ","LANE":"２４巷","ALLEY":" ","HOUSE_NO":"２６號","E_COORD97":165793.13,"N_COORD97":2538640.9100000001,"ADDRESS":"喜樹路２４巷２６號","OBJECTID":276795},"geometry":{"x":165793.12999999989,"y":2538640.9099999983}},{"attributes":{"ID":276801,"DIS_CODE":0,"TOWNNAME":"南區","LI":"喜北里","LIN":"1鄰","STREET":"喜樹路","SECT":" ","MAREA":" ","LANE":"２０巷","ALLEY":" ","HOUSE_NO":"１１號","E_COORD97":165827.31,"N_COORD97":2538679.9100000001,"ADDRESS":"喜樹路２０巷１１號","OBJECTID":276796},"geometry":{"x":165827.31000000145,"y":2538679.910000002}},{"attributes":{"ID":276802,"DIS_CODE":0,"TOWNNAME":"南區","LI":"喜北里","LIN":"1鄰","STREET":"喜樹路","SECT":" ","MAREA":" ","LANE":"２０巷","ALLEY":" ","HOUSE_NO":"１３號","E_COORD97":165821.75,"N_COORD97":2538680.73,"ADDRESS":"喜樹路２０巷１３號","OBJECTID":276797},"geometry":{"x":165821.75000000093,"y":2538680.7300000023}},{"attributes":{"ID":276803,"DIS_CODE":0,"TOWNNAME":"南區","LI":"喜北里","LIN":"1鄰","STREET":"喜樹路","SECT":" ","MAREA":" ","LANE":"２０巷","ALLEY":" ","HOUSE_NO":"１５號","E_COORD97":165816,"N_COORD97":2538680.1000000001,"ADDRESS":"喜樹路２０巷１５號","OBJECTID":276798},"geometry":{"x":165816,"y":2538680.1000000034}},{"attributes":{"ID":276804,"DIS_CODE":0,"TOWNNAME":"南區","LI":"喜北里","LIN":"1鄰","STREET":"喜樹路","SECT":" ","MAREA":" ","LANE":"２０巷","ALLEY":" ","HOUSE_NO":"１７號","E_COORD97":165810.44,"N_COORD97":2538680.1000000001,"ADDRESS":"喜樹路２０巷１７號","OBJECTID":276799},"geometry":{"x":165810.44000000227,"y":2538680.1000000034}},{"attributes":{"ID":276805,"DIS_CODE":0,"TOWNNAME":"南區","LI":"喜北里","LIN":"1鄰","STREET":"喜樹路","SECT":" ","MAREA":" ","LANE":"２０巷","ALLEY":" ","HOUSE_NO":"１９號","E_COORD97":165805.45000000001,"N_COORD97":2538680.1699999999,"ADDRESS":"喜樹路２０巷１９號","OBJECTID":276800},"geometry":{"x":165805.45000000112,"y":2538680.1700000018}}]}