{"displayFieldName":"TOWNNAME","fieldAliases":{"ID":"ID","DIS_CODE":"DIS_CODE","TOWNNAME":"TOWNNAME","LI":"LI","LIN":"LIN","STREET":"STREET","SECT":"SECT","MAREA":"MAREA","LANE":"LANE","ALLEY":"ALLEY","HOUSE_NO":"HOUSE_NO","E_COORD97":"E_COORD97","N_COORD97":"N_COORD97","ADDRESS":"ADDRESS","OBJECTID":"OBJECTID"},"geometryType":"esriGeometryPoint","spatialReference":{"wkid":102443,"latestWkid":3826},"fields":[{"name":"ID","type":"esriFieldTypeDouble","alias":"ID"},{"name":"DIS_CODE","type":"esriFieldTypeInteger","alias":"DIS_CODE"},{"name":"TOWNNAME","type":"esriFieldTypeString","alias":"TOWNNAME","length":8},{"name":"LI","type":"esriFieldTypeString","alias":"LI","length":8},{"name":"LIN","type":"esriFieldTypeString","alias":"LIN","length":12},{"name":"STREET","type":"esriFieldTypeString","alias":"STREET","length":20},{"name":"SECT","type":"esriFieldTypeString","alias":"SECT","length":8},{"name":"MAREA","type":"esriFieldTypeString","alias":"MAREA","length":12},{"name":"LANE","type":"esriFieldTypeString","alias":"LANE","length":10},{"name":"ALLEY","type":"esriFieldTypeString","alias":"ALLEY","length":10},{"name":"HOUSE_NO","type":"esriFieldTypeString","alias":"HOUSE_NO","length":20},{"name":"E_COORD97","type":"esriFieldTypeDouble","alias":"E_COORD97"},{"name":"N_COORD97","type":"esriFieldTypeDouble","alias":"N_COORD97"},{"name":"ADDRESS","type":"esriFieldTypeString","alias":"ADDRESS","length":50},{"name":"OBJECTID","type":"esriFieldTypeOID","alias":"OBJECTID"}],"features":[{"attributes":{"ID":504028,"DIS_CODE":0,"TOWNNAME":"新營區","LI":"南興里","LIN":"7鄰","STREET":"南昌街","SECT":" ","MAREA":" ","LANE":" ","ALLEY":" ","HOUSE_NO":"７５號","E_COORD97":179439.01000000001,"N_COORD97":2577642.8999999999,"ADDRESS":"南昌街７５號","OBJECTID":504001},"geometry":{"x":179439.01000000071,"y":2577642.9000000004}},{"attributes":{"ID":504029,"DIS_CODE":0,"TOWNNAME":"歸仁區","LI":"七甲里","LIN":"7鄰","STREET":"七甲三街","SECT":" ","MAREA":" ","LANE":" ","ALLEY":" ","HOUSE_NO":"４０號","E_COORD97":177526.98999999999,"N_COORD97":2542758.6600000001,"ADDRESS":"七甲三街４０號","OBJECTID":504002},"geometry":{"x":177526.99000000209,"y":2542758.6600000039}},{"attributes":{"ID":504030,"DIS_CODE":0,"TOWNNAME":"歸仁區","LI":"八甲里","LIN":"7鄰","STREET":"大光一街","SECT":" ","MAREA":" ","LANE":" ","ALLEY":" ","HOUSE_NO":"５號","E_COORD97":177853.37,"N_COORD97":2541664.6099999999,"ADDRESS":"大光一街５號","OBJECTID":504003},"geometry":{"x":177853.37000000104,"y":2541664.6100000013}},{"attributes":{"ID":504031,"DIS_CODE":0,"TOWNNAME":"歸仁區","LI":"八甲里","LIN":"7鄰","STREET":"中正北路","SECT":"一段","MAREA":" ","LANE":" ","ALLEY":" ","HOUSE_NO":"２６１號","E_COORD97":177757.03,"N_COORD97":2541738.4900000002,"ADDRESS":"中正北路一段２６１號","OBJECTID":504004},"geometry":{"x":177757.03000000026,"y":2541738.4900000002}},{"attributes":{"ID":504032,"DIS_CODE":0,"TOWNNAME":"歸仁區","LI":"辜厝里","LIN":"41鄰","STREET":"大吉街","SECT":" ","MAREA":" ","LANE":" ","ALLEY":" ","HOUSE_NO":"１１２號","E_COORD97":177198.94,"N_COORD97":2540576.6800000002,"ADDRESS":"大吉街１１２號","OBJECTID":504005},"geometry":{"x":177198.94000000134,"y":2540576.6799999997}},{"attributes":{"ID":504033,"DIS_CODE":0,"TOWNNAME":"歸仁區","LI":"文化里","LIN":"7鄰","STREET":"文化三街","SECT":" ","MAREA":" ","LANE":" ","ALLEY":" ","HOUSE_NO":"７０號","E_COORD97":177225.16,"N_COORD97":2541360.3399999999,"ADDRESS":"文化三街７０號","OBJECTID":504006},"geometry":{"x":177225.16000000015,"y":2541360.3400000036}},{"attributes":{"ID":504034,"DIS_CODE":0,"TOWNNAME":"歸仁區","LI":"文化里","LIN":"7鄰","STREET":"文化三街","SECT":" ","MAREA":" ","LANE":" ","ALLEY":" ","HOUSE_NO":"６０號","E_COORD97":177225.06,"N_COORD97":2541334.3399999999,"ADDRESS":"文化三街６０號","OBJECTID":504007},"geometry":{"x":177225.05999999959,"y":2541334.3400000017}},{"attributes":{"ID":504035,"DIS_CODE":0,"TOWNNAME":"歸仁區","LI":"文化里","LIN":"7鄰","STREET":"文化三街","SECT":" ","MAREA":" ","LANE":" ","ALLEY":" ","HOUSE_NO":"４６號","E_COORD97":177222.85999999999,"N_COORD97":2541310.3399999999,"ADDRESS":"文化三街４６號","OBJECTID":504008},"geometry":{"x":177222.8600000022,"y":2541310.3400000017}},{"attributes":{"ID":504036,"DIS_CODE":0,"TOWNNAME":"歸仁區","LI":"文化里","LIN":"7鄰","STREET":"文化三街","SECT":" ","MAREA":" ","LANE":" ","ALLEY":" ","HOUSE_NO":"２０號","E_COORD97":177221.56,"N_COORD97":2541255.3399999999,"ADDRESS":"文化三街２０號","OBJECTID":504009},"geometry":{"x":177221.55999999959,"y":2541255.3400000036}},{"attributes":{"ID":504037,"DIS_CODE":0,"TOWNNAME":"歸仁區","LI":"文化里","LIN":"7鄰","STREET":"文化三街","SECT":" ","MAREA":" ","LANE":" ","ALLEY":" ","HOUSE_NO":"３０號","E_COORD97":177222.76000000001,"N_COORD97":2541277.3399999999,"ADDRESS":"文化三街３０號","OBJECTID":504010},"geometry":{"x":177222.75999999978,"y":2541277.3399999999}},{"attributes":{"ID":504038,"DIS_CODE":0,"TOWNNAME":"歸仁區","LI":"西埔里","LIN":"7鄰","STREET":"保大路","SECT":"二段","MAREA":" ","LANE":" ","ALLEY":" ","HOUSE_NO":"１８號","E_COORD97":177350.38,"N_COORD97":2544124.7200000002,"ADDRESS":"保大路二段１８號","OBJECTID":504011},"geometry":{"x":177350.37999999989,"y":2544124.7200000007}},{"attributes":{"ID":504039,"DIS_CODE":0,"TOWNNAME":"歸仁區","LI":"七甲里","LIN":"7鄰","STREET":"七甲一街","SECT":" ","MAREA":" ","LANE":" ","ALLEY":" ","HOUSE_NO":"１２１號","E_COORD97":177604.14000000001,"N_COORD97":2542758.6600000001,"ADDRESS":"七甲一街１２１號","OBJECTID":504012},"geometry":{"x":177604.1400000006,"y":2542758.6600000039}},{"attributes":{"ID":504040,"DIS_CODE":0,"TOWNNAME":"歸仁區","LI":"文化里","LIN":"7鄰","STREET":"文化三街","SECT":" ","MAREA":" ","LANE":" ","ALLEY":" ","HOUSE_NO":"２號","E_COORD97":177221.10999999999,"N_COORD97":2541217.3399999999,"ADDRESS":"文化三街２號","OBJECTID":504013},"geometry":{"x":177221.1100000022,"y":2541217.3399999999}},{"attributes":{"ID":504041,"DIS_CODE":0,"TOWNNAME":"歸仁區","LI":"許厝里","LIN":"31鄰","STREET":"中山路","SECT":"一段","MAREA":" ","LANE":" ","ALLEY":" ","HOUSE_NO":"５５９號","E_COORD97":177852.60999999999,"N_COORD97":2540731.25,"ADDRESS":"中山路一段５５９號","OBJECTID":504014},"geometry":{"x":177852.61000000034,"y":2540731.2500000019}},{"attributes":{"ID":504042,"DIS_CODE":0,"TOWNNAME":"歸仁區","LI":"看西里","LIN":"5鄰","STREET":"仁愛十街","SECT":" ","MAREA":" ","LANE":" ","ALLEY":" ","HOUSE_NO":"６３號","E_COORD97":178154.64999999999,"N_COORD97":2540320.4900000002,"ADDRESS":"仁愛十街６３號","OBJECTID":504015},"geometry":{"x":178154.65000000037,"y":2540320.4900000021}},{"attributes":{"ID":504043,"DIS_CODE":0,"TOWNNAME":"歸仁區","LI":"看西里","LIN":"18鄰","STREET":"成功五街","SECT":" ","MAREA":" ","LANE":" ","ALLEY":" ","HOUSE_NO":"９１號","E_COORD97":178405.06,"N_COORD97":2539912.3599999999,"ADDRESS":"成功五街９１號","OBJECTID":504016},"geometry":{"x":178405.05999999959,"y":2539912.3600000013}},{"attributes":{"ID":504044,"DIS_CODE":0,"TOWNNAME":"柳營區","LI":"光福里","LIN":"7鄰","STREET":"福德三街","SECT":" ","MAREA":" ","LANE":" ","ALLEY":" ","HOUSE_NO":"２０號","E_COORD97":179713.20000000001,"N_COORD97":2575151.5600000001,"ADDRESS":"福德三街２０號","OBJECTID":504017},"geometry":{"x":179713.20000000019,"y":2575151.5600000042}},{"attributes":{"ID":504045,"DIS_CODE":0,"TOWNNAME":"柳營區","LI":"光福里","LIN":"7鄰","STREET":"福德三街","SECT":" ","MAREA":" ","LANE":" ","ALLEY":" ","HOUSE_NO":"９號","E_COORD97":179700.44,"N_COORD97":2575144.2000000002,"ADDRESS":"福德三街９號","OBJECTID":504018},"geometry":{"x":179700.44000000041,"y":2575144.1999999993}},{"attributes":{"ID":504046,"DIS_CODE":0,"TOWNNAME":"柳營區","LI":"人和里","LIN":"7鄰","STREET":"雙和路","SECT":" ","MAREA":" ","LANE":" ","ALLEY":" ","HOUSE_NO":"１１０號","E_COORD97":179528.37,"N_COORD97":2576932.79,"ADDRESS":"雙和路１１０號","OBJECTID":504019},"geometry":{"x":179528.37000000104,"y":2576932.790000001}},{"attributes":{"ID":504047,"DIS_CODE":0,"TOWNNAME":"柳營區","LI":"人和里","LIN":"7鄰","STREET":"雙和路","SECT":" ","MAREA":" ","LANE":" ","ALLEY":" ","HOUSE_NO":"１２０號","E_COORD97":179514.39999999999,"N_COORD97":2576915.3199999998,"ADDRESS":"雙和路１２０號","OBJECTID":504020},"geometry":{"x":179514.39999999944,"y":2576915.3200000003}},{"attributes":{"ID":504048,"DIS_CODE":0,"TOWNNAME":"柳營區","LI":"人和里","LIN":"7鄰","STREET":"雙和路","SECT":" ","MAREA":" ","LANE":" ","ALLEY":" ","HOUSE_NO":"１３０號","E_COORD97":179481.48000000001,"N_COORD97":2576906.0600000001,"ADDRESS":"雙和路１３０號","OBJECTID":504021},"geometry":{"x":179481.48000000045,"y":2576906.0600000005}},{"attributes":{"ID":504049,"DIS_CODE":0,"TOWNNAME":"柳營區","LI":"人和里","LIN":"7鄰","STREET":"雙和路","SECT":" ","MAREA":" ","LANE":" ","ALLEY":" ","HOUSE_NO":"１９０之１號","E_COORD97":179362.75,"N_COORD97":2576855.79,"ADDRESS":"雙和路１９０之１號","OBJECTID":504022},"geometry":{"x":179362.75000000093,"y":2576855.7899999991}},{"attributes":{"ID":504050,"DIS_CODE":0,"TOWNNAME":"柳營區","LI":"人和里","LIN":"7鄰","STREET":"雙和路","SECT":" ","MAREA":" ","LANE":" ","ALLEY":" ","HOUSE_NO":"２１８號","E_COORD97":179394.70000000001,"N_COORD97":2576798.3599999999,"ADDRESS":"雙和路２１８號","OBJECTID":504023},"geometry":{"x":179394.70000000019,"y":2576798.3599999994}},{"attributes":{"ID":504051,"DIS_CODE":0,"TOWNNAME":"柳營區","LI":"人和里","LIN":"7鄰","STREET":"雙和路","SECT":" ","MAREA":" ","LANE":" ","ALLEY":" ","HOUSE_NO":"２２２號","E_COORD97":179387.89000000001,"N_COORD97":2576785.5600000001,"ADDRESS":"雙和路２２２號","OBJECTID":504024},"geometry":{"x":179387.88999999966,"y":2576785.5600000042}},{"attributes":{"ID":504052,"DIS_CODE":0,"TOWNNAME":"柳營區","LI":"人和里","LIN":"7鄰","STREET":"雙和路","SECT":" ","MAREA":" ","LANE":" ","ALLEY":" ","HOUSE_NO":"２３８號","E_COORD97":179376.06,"N_COORD97":2576763.5,"ADDRESS":"雙和路２３８號","OBJECTID":504025},"geometry":{"x":179376.06000000052,"y":2576763.5}},{"attributes":{"ID":504053,"DIS_CODE":0,"TOWNNAME":"柳營區","LI":"人和里","LIN":"7鄰","STREET":"雙和路","SECT":" ","MAREA":" ","LANE":" ","ALLEY":" ","HOUSE_NO":"４２號","E_COORD97":179610.39000000001,"N_COORD97":2577024.6400000001,"ADDRESS":"雙和路４２號","OBJECTID":504026},"geometry":{"x":179610.39000000153,"y":2577024.6400000006}},{"attributes":{"ID":504054,"DIS_CODE":0,"TOWNNAME":"柳營區","LI":"人和里","LIN":"7鄰","STREET":"雙和路","SECT":" ","MAREA":" ","LANE":" ","ALLEY":" ","HOUSE_NO":"５８號","E_COORD97":179589.94,"N_COORD97":2577005.6099999999,"ADDRESS":"雙和路５８號","OBJECTID":504027},"geometry":{"x":179589.94000000041,"y":2577005.6100000013}},{"attributes":{"ID":504055,"DIS_CODE":0,"TOWNNAME":"柳營區","LI":"人和里","LIN":"7鄰","STREET":"雙和路","SECT":" ","MAREA":" ","LANE":" ","ALLEY":" ","HOUSE_NO":"６６號","E_COORD97":179590.64999999999,"N_COORD97":2576994.1699999999,"ADDRESS":"雙和路６６號","OBJECTID":504028},"geometry":{"x":179590.65000000037,"y":2576994.1699999999}},{"attributes":{"ID":504056,"DIS_CODE":0,"TOWNNAME":"柳營區","LI":"人和里","LIN":"7鄰","STREET":"雙和路","SECT":" ","MAREA":" ","LANE":" ","ALLEY":" ","HOUSE_NO":"７２號","E_COORD97":179571.31,"N_COORD97":2576991.7400000002,"ADDRESS":"雙和路７２號","OBJECTID":504029},"geometry":{"x":179571.30999999959,"y":2576991.7400000021}},{"attributes":{"ID":504057,"DIS_CODE":0,"TOWNNAME":"柳營區","LI":"人和里","LIN":"7鄰","STREET":"雙和路","SECT":" ","MAREA":" ","LANE":" ","ALLEY":" ","HOUSE_NO":"７８號","E_COORD97":179575.85999999999,"N_COORD97":2576969.4199999999,"ADDRESS":"雙和路７８號","OBJECTID":504030},"geometry":{"x":179575.8600000022,"y":2576969.4200000018}},{"attributes":{"ID":504058,"DIS_CODE":0,"TOWNNAME":"北區","LI":"實踐里","LIN":"7鄰","STREET":"實踐街","SECT":" ","MAREA":" ","LANE":" ","ALLEY":" ","HOUSE_NO":"２２號","E_COORD97":169787.51000000001,"N_COORD97":2546082.9300000002,"ADDRESS":"實踐街２２號","OBJECTID":504031},"geometry":{"x":169787.50999999978,"y":2546082.9300000016}},{"attributes":{"ID":504059,"DIS_CODE":0,"TOWNNAME":"北區","LI":"實踐里","LIN":"7鄰","STREET":"實踐街","SECT":" ","MAREA":" ","LANE":" ","ALLEY":" ","HOUSE_NO":"２６號","E_COORD97":169794.34,"N_COORD97":2546080.73,"ADDRESS":"實踐街２６號","OBJECTID":504032},"geometry":{"x":169794.34000000078,"y":2546080.7300000004}},{"attributes":{"ID":504060,"DIS_CODE":0,"TOWNNAME":"北區","LI":"實踐里","LIN":"7鄰","STREET":"實踐街","SECT":" ","MAREA":" ","LANE":" ","ALLEY":" ","HOUSE_NO":"２８號","E_COORD97":169799.89999999999,"N_COORD97":2546077.7200000002,"ADDRESS":"實踐街２８號","OBJECTID":504033},"geometry":{"x":169799.9000000013,"y":2546077.7200000007}},{"attributes":{"ID":504061,"DIS_CODE":0,"TOWNNAME":"北區","LI":"實踐里","LIN":"7鄰","STREET":"實踐街","SECT":" ","MAREA":" ","LANE":" ","ALLEY":" ","HOUSE_NO":"３２號","E_COORD97":169812.87,"N_COORD97":2546069.5,"ADDRESS":"實踐街３２號","OBJECTID":504034},"geometry":{"x":169812.87000000197,"y":2546069.5000000019}},{"attributes":{"ID":504062,"DIS_CODE":0,"TOWNNAME":"北區","LI":"興南里","LIN":"7鄰","STREET":"公園路","SECT":" ","MAREA":" ","LANE":" ","ALLEY":" ","HOUSE_NO":"３３５號","E_COORD97":169075.76999999999,"N_COORD97":2545038.8100000001,"ADDRESS":"公園路３３５號","OBJECTID":504035},"geometry":{"x":169075.77000000048,"y":2545038.8100000005}},{"attributes":{"ID":504063,"DIS_CODE":0,"TOWNNAME":"北區","LI":"興南里","LIN":"7鄰","STREET":"公園路","SECT":" ","MAREA":" ","LANE":" ","ALLEY":" ","HOUSE_NO":"３３７號","E_COORD97":169073.69,"N_COORD97":2545045.0600000001,"ADDRESS":"公園路３３７號","OBJECTID":504036},"geometry":{"x":169073.69000000227,"y":2545045.0600000042}},{"attributes":{"ID":504064,"DIS_CODE":0,"TOWNNAME":"北區","LI":"興南里","LIN":"7鄰","STREET":"公園路","SECT":" ","MAREA":" ","LANE":" ","ALLEY":" ","HOUSE_NO":"３３９號","E_COORD97":169065.76000000001,"N_COORD97":2545045.6800000002,"ADDRESS":"公園路３３９號","OBJECTID":504037},"geometry":{"x":169065.76000000164,"y":2545045.6799999997}},{"attributes":{"ID":504065,"DIS_CODE":0,"TOWNNAME":"北區","LI":"興南里","LIN":"7鄰","STREET":"公園路","SECT":" ","MAREA":" ","LANE":" ","ALLEY":" ","HOUSE_NO":"３４１號","E_COORD97":169060.12,"N_COORD97":2545051.1000000001,"ADDRESS":"公園路３４１號","OBJECTID":504038},"geometry":{"x":169060.11999999918,"y":2545051.1000000015}},{"attributes":{"ID":504066,"DIS_CODE":0,"TOWNNAME":"北區","LI":"興南里","LIN":"7鄰","STREET":"公園路","SECT":" ","MAREA":" ","LANE":" ","ALLEY":" ","HOUSE_NO":"３４３號","E_COORD97":169070.76000000001,"N_COORD97":2545053.3999999999,"ADDRESS":"公園路３４３號","OBJECTID":504039},"geometry":{"x":169070.76000000164,"y":2545053.4000000022}},{"attributes":{"ID":504067,"DIS_CODE":0,"TOWNNAME":"北區","LI":"興南里","LIN":"7鄰","STREET":"公園路","SECT":" ","MAREA":" ","LANE":" ","ALLEY":" ","HOUSE_NO":"３４３號之１","E_COORD97":169068.04999999999,"N_COORD97":2545063.8199999998,"ADDRESS":"公園路３４３號之１","OBJECTID":504040},"geometry":{"x":169068.04999999981,"y":2545063.8200000022}},{"attributes":{"ID":504068,"DIS_CODE":0,"TOWNNAME":"北區","LI":"興南里","LIN":"7鄰","STREET":"公園路","SECT":" ","MAREA":" ","LANE":" ","ALLEY":" ","HOUSE_NO":"３４７號","E_COORD97":169064.76000000001,"N_COORD97":2545075.1000000001,"ADDRESS":"公園路３４７號","OBJECTID":504041},"geometry":{"x":169064.76000000071,"y":2545075.1000000015}},{"attributes":{"ID":504069,"DIS_CODE":0,"TOWNNAME":"北區","LI":"興南里","LIN":"7鄰","STREET":"公園路","SECT":" ","MAREA":" ","LANE":" ","ALLEY":" ","HOUSE_NO":"３４９號","E_COORD97":169063.91,"N_COORD97":2545077.3399999999,"ADDRESS":"公園路３４９號","OBJECTID":504042},"geometry":{"x":169063.91000000108,"y":2545077.3400000017}},{"attributes":{"ID":504070,"DIS_CODE":0,"TOWNNAME":"北區","LI":"興南里","LIN":"7鄰","STREET":"公園路","SECT":" ","MAREA":" ","LANE":" ","ALLEY":" ","HOUSE_NO":"３５１號","E_COORD97":169063.57000000001,"N_COORD97":2545080.02,"ADDRESS":"公園路３５１號","OBJECTID":504043},"geometry":{"x":169063.5700000003,"y":2545080.0199999996}},{"attributes":{"ID":504071,"DIS_CODE":0,"TOWNNAME":"北區","LI":"興南里","LIN":"7鄰","STREET":"公園路","SECT":" ","MAREA":" ","LANE":" ","ALLEY":" ","HOUSE_NO":"３５３號","E_COORD97":169063.04999999999,"N_COORD97":2545082.3700000001,"ADDRESS":"公園路３５３號","OBJECTID":504044},"geometry":{"x":169063.04999999981,"y":2545082.370000001}},{"attributes":{"ID":504072,"DIS_CODE":0,"TOWNNAME":"北區","LI":"興南里","LIN":"7鄰","STREET":"公園北路","SECT":" ","MAREA":" ","LANE":" ","ALLEY":" ","HOUSE_NO":"１０６號","E_COORD97":169000.79000000001,"N_COORD97":2545042.6099999999,"ADDRESS":"公園北路１０６號","OBJECTID":504045},"geometry":{"x":169000.79000000004,"y":2545042.6099999994}},{"attributes":{"ID":504073,"DIS_CODE":0,"TOWNNAME":"北區","LI":"興南里","LIN":"7鄰","STREET":"公園北路","SECT":" ","MAREA":" ","LANE":" ","ALLEY":" ","HOUSE_NO":"１０８號","E_COORD97":168988.64000000001,"N_COORD97":2545044.8999999999,"ADDRESS":"公園北路１０８號","OBJECTID":504046},"geometry":{"x":168988.6400000006,"y":2545044.9000000004}},{"attributes":{"ID":504074,"DIS_CODE":0,"TOWNNAME":"北區","LI":"興南里","LIN":"7鄰","STREET":"公園北路","SECT":" ","MAREA":" ","LANE":" ","ALLEY":" ","HOUSE_NO":"１１０號","E_COORD97":168985.20000000001,"N_COORD97":2545046.27,"ADDRESS":"公園北路１１０號","OBJECTID":504047},"geometry":{"x":168985.20000000205,"y":2545046.2700000014}},{"attributes":{"ID":504075,"DIS_CODE":0,"TOWNNAME":"北區","LI":"興南里","LIN":"7鄰","STREET":"公園北路","SECT":" ","MAREA":" ","LANE":" ","ALLEY":" ","HOUSE_NO":"１１２號","E_COORD97":168975.56,"N_COORD97":2545048.1099999999,"ADDRESS":"公園北路１１２號","OBJECTID":504048},"geometry":{"x":168975.56000000052,"y":2545048.1100000013}},{"attributes":{"ID":504076,"DIS_CODE":0,"TOWNNAME":"北區","LI":"興南里","LIN":"7鄰","STREET":"公園北路","SECT":" ","MAREA":" ","LANE":" ","ALLEY":" ","HOUSE_NO":"１１４號","E_COORD97":168970.06,"N_COORD97":2545049.48,"ADDRESS":"公園北路１１４號","OBJECTID":504049},"geometry":{"x":168970.05999999959,"y":2545049.4800000023}},{"attributes":{"ID":504077,"DIS_CODE":0,"TOWNNAME":"東區","LI":"文聖里","LIN":"20鄰","STREET":"裕信二街","SECT":" ","MAREA":" ","LANE":" ","ALLEY":" ","HOUSE_NO":"１０６號","E_COORD97":172798.48999999999,"N_COORD97":2542710.1800000002,"ADDRESS":"裕信二街１０６號","OBJECTID":504050},"geometry":{"x":172798.49000000022,"y":2542710.1799999997}},{"attributes":{"ID":504078,"DIS_CODE":0,"TOWNNAME":"北區","LI":"興南里","LIN":"7鄰","STREET":"公園北路","SECT":" ","MAREA":" ","LANE":" ","ALLEY":" ","HOUSE_NO":"１１４號之１","E_COORD97":168964.32000000001,"N_COORD97":2545056.1299999999,"ADDRESS":"公園北路１１４號之１","OBJECTID":504051},"geometry":{"x":168964.32000000123,"y":2545056.1299999971}},{"attributes":{"ID":504079,"DIS_CODE":0,"TOWNNAME":"歸仁區","LI":"八甲里","LIN":"7鄰","STREET":"大光街","SECT":" ","MAREA":" ","LANE":" ","ALLEY":" ","HOUSE_NO":"１５號","E_COORD97":177861.47,"N_COORD97":2541639.6099999999,"ADDRESS":"大光街１５號","OBJECTID":504052},"geometry":{"x":177861.46999999974,"y":2541639.6100000031}},{"attributes":{"ID":504080,"DIS_CODE":0,"TOWNNAME":"歸仁區","LI":"大潭里","LIN":"7鄰","STREET":"長榮路","SECT":"一段","MAREA":" ","LANE":" ","ALLEY":" ","HOUSE_NO":"２３１號","E_COORD97":175151.47,"N_COORD97":2534572.2799999998,"ADDRESS":"長榮路一段２３１號","OBJECTID":504053},"geometry":{"x":175151.46999999974,"y":2534572.2799999993}},{"attributes":{"ID":504081,"DIS_CODE":0,"TOWNNAME":"歸仁區","LI":"西埔里","LIN":"7鄰","STREET":"西埔一街","SECT":" ","MAREA":" ","LANE":" ","ALLEY":" ","HOUSE_NO":"８２號","E_COORD97":177151.62,"N_COORD97":2544311.25,"ADDRESS":"西埔一街８２號","OBJECTID":504054},"geometry":{"x":177151.62000000104,"y":2544311.2500000019}},{"attributes":{"ID":504082,"DIS_CODE":0,"TOWNNAME":"歸仁區","LI":"八甲里","LIN":"7鄰","STREET":"大光一街","SECT":" ","MAREA":" ","LANE":" ","ALLEY":" ","HOUSE_NO":"３號","E_COORD97":177854.37,"N_COORD97":2541659.6099999999,"ADDRESS":"大光一街３號","OBJECTID":504055},"geometry":{"x":177854.37000000011,"y":2541659.6099999975}},{"attributes":{"ID":504083,"DIS_CODE":0,"TOWNNAME":"歸仁區","LI":"大潭里","LIN":"7鄰","STREET":"長榮路","SECT":"一段","MAREA":" ","LANE":" ","ALLEY":" ","HOUSE_NO":"２１９號","E_COORD97":175117.57000000001,"N_COORD97":2534564.2799999998,"ADDRESS":"長榮路一段２１９號","OBJECTID":504056},"geometry":{"x":175117.56999999937,"y":2534564.2799999993}},{"attributes":{"ID":504084,"DIS_CODE":0,"TOWNNAME":"歸仁區","LI":"大潭里","LIN":"7鄰","STREET":"中正南路","SECT":"三段","MAREA":" ","LANE":" ","ALLEY":" ","HOUSE_NO":"３０５號","E_COORD97":175121.01000000001,"N_COORD97":2534615.2799999998,"ADDRESS":"中正南路三段３０５號","OBJECTID":504057},"geometry":{"x":175121.01000000164,"y":2534615.2799999993}},{"attributes":{"ID":504085,"DIS_CODE":0,"TOWNNAME":"歸仁區","LI":"大潭里","LIN":"7鄰","STREET":"中正南路","SECT":"三段","MAREA":" ","LANE":" ","ALLEY":" ","HOUSE_NO":"３０１號","E_COORD97":175127.20999999999,"N_COORD97":2534629.2799999998,"ADDRESS":"中正南路三段３０１號","OBJECTID":504058},"geometry":{"x":175127.21000000089,"y":2534629.2799999993}},{"attributes":{"ID":504086,"DIS_CODE":0,"TOWNNAME":"歸仁區","LI":"大潭里","LIN":"7鄰","STREET":"中正南路","SECT":"三段","MAREA":" ","LANE":" ","ALLEY":" ","HOUSE_NO":"３２１號","E_COORD97":175109.60999999999,"N_COORD97":2534586.2799999998,"ADDRESS":"中正南路三段３２１號","OBJECTID":504059},"geometry":{"x":175109.61000000127,"y":2534586.2800000031}},{"attributes":{"ID":504087,"DIS_CODE":0,"TOWNNAME":"歸仁區","LI":"七甲里","LIN":"7鄰","STREET":"七甲二街","SECT":" ","MAREA":" ","LANE":" ","ALLEY":" ","HOUSE_NO":"１１號","E_COORD97":177567.59,"N_COORD97":2542676.6600000001,"ADDRESS":"七甲二街１１號","OBJECTID":504060},"geometry":{"x":177567.58999999985,"y":2542676.6600000001}},{"attributes":{"ID":504088,"DIS_CODE":0,"TOWNNAME":"歸仁區","LI":"西埔里","LIN":"7鄰","STREET":"西埔一街","SECT":" ","MAREA":" ","LANE":" ","ALLEY":" ","HOUSE_NO":"５５號","E_COORD97":177127.01999999999,"N_COORD97":2544302.25,"ADDRESS":"西埔一街５５號","OBJECTID":504061},"geometry":{"x":177127.01999999955,"y":2544302.2500000019}},{"attributes":{"ID":504089,"DIS_CODE":0,"TOWNNAME":"歸仁區","LI":"西埔里","LIN":"7鄰","STREET":"西埔一街","SECT":" ","MAREA":" ","LANE":" ","ALLEY":" ","HOUSE_NO":"５０號","E_COORD97":177175.92000000001,"N_COORD97":2544250.25,"ADDRESS":"西埔一街５０號","OBJECTID":504062},"geometry":{"x":177175.91999999993,"y":2544250.2500000019}},{"attributes":{"ID":504090,"DIS_CODE":0,"TOWNNAME":"歸仁區","LI":"七甲里","LIN":"7鄰","STREET":"七甲二街","SECT":" ","MAREA":" ","LANE":" ","ALLEY":" ","HOUSE_NO":"１５號","E_COORD97":177574.79000000001,"N_COORD97":2542683.6600000001,"ADDRESS":"七甲二街１５號","OBJECTID":504063},"geometry":{"x":177574.79000000004,"y":2542683.6600000001}},{"attributes":{"ID":504091,"DIS_CODE":0,"TOWNNAME":"歸仁區","LI":"武東里","LIN":"7鄰","STREET":"武東二街","SECT":" ","MAREA":" ","LANE":" ","ALLEY":" ","HOUSE_NO":"６８號","E_COORD97":175661.44,"N_COORD97":2535324.25,"ADDRESS":"武東二街６８號","OBJECTID":504064},"geometry":{"x":175661.44000000134,"y":2535324.2500000019}},{"attributes":{"ID":504092,"DIS_CODE":0,"TOWNNAME":"歸仁區","LI":"八甲里","LIN":"7鄰","STREET":"大光一街","SECT":" ","MAREA":" ","LANE":" ","ALLEY":" ","HOUSE_NO":"２７號","E_COORD97":177835.51999999999,"N_COORD97":2541727.6099999999,"ADDRESS":"大光一街２７號","OBJECTID":504065},"geometry":{"x":177835.51999999955,"y":2541727.6100000031}},{"attributes":{"ID":504093,"DIS_CODE":0,"TOWNNAME":"歸仁區","LI":"大潭里","LIN":"7鄰","STREET":"長榮路","SECT":"一段","MAREA":" ","LANE":" ","ALLEY":" ","HOUSE_NO":"２２１號","E_COORD97":175121.67000000001,"N_COORD97":2534562.2799999998,"ADDRESS":"長榮路一段２２１號","OBJECTID":504066},"geometry":{"x":175121.67000000179,"y":2534562.2799999975}},{"attributes":{"ID":504094,"DIS_CODE":0,"TOWNNAME":"歸仁區","LI":"大潭里","LIN":"7鄰","STREET":"中正南路","SECT":"三段","MAREA":" ","LANE":" ","ALLEY":" ","HOUSE_NO":"３１３號","E_COORD97":175114.81,"N_COORD97":2534598.2799999998,"ADDRESS":"中正南路三段３１３號","OBJECTID":504067},"geometry":{"x":175114.80999999959,"y":2534598.2799999993}},{"attributes":{"ID":504095,"DIS_CODE":0,"TOWNNAME":"歸仁區","LI":"八甲里","LIN":"7鄰","STREET":"大光一街","SECT":" ","MAREA":" ","LANE":" ","ALLEY":" ","HOUSE_NO":"２５號","E_COORD97":177836.51999999999,"N_COORD97":2541722.6099999999,"ADDRESS":"大光一街２５號","OBJECTID":504068},"geometry":{"x":177836.52000000048,"y":2541722.6099999994}},{"attributes":{"ID":504096,"DIS_CODE":0,"TOWNNAME":"歸仁區","LI":"文化里","LIN":"7鄰","STREET":"文化街","SECT":"二段","MAREA":" ","LANE":" ","ALLEY":" ","HOUSE_NO":"１３０號","E_COORD97":177224.85999999999,"N_COORD97":2541196.3399999999,"ADDRESS":"文化街二段１３０號","OBJECTID":504069},"geometry":{"x":177224.86000000127,"y":2541196.3399999999}},{"attributes":{"ID":504097,"DIS_CODE":0,"TOWNNAME":"歸仁區","LI":"許厝里","LIN":"32鄰","STREET":"復興路","SECT":" ","MAREA":" ","LANE":" ","ALLEY":" ","HOUSE_NO":"５３號","E_COORD97":177882.60000000001,"N_COORD97":2540604.54,"ADDRESS":"復興路５３號","OBJECTID":504070},"geometry":{"x":177882.59999999963,"y":2540604.5399999991}},{"attributes":{"ID":504098,"DIS_CODE":0,"TOWNNAME":"歸仁區","LI":"大潭里","LIN":"7鄰","STREET":"長榮路","SECT":"一段","MAREA":" ","LANE":" ","ALLEY":" ","HOUSE_NO":"２２５號","E_COORD97":175147.47,"N_COORD97":2534587.2799999998,"ADDRESS":"長榮路一段２２５號","OBJECTID":504071},"geometry":{"x":175147.46999999974,"y":2534587.2800000012}},{"attributes":{"ID":504099,"DIS_CODE":0,"TOWNNAME":"歸仁區","LI":"崙頂里","LIN":"18鄰","STREET":"大成一街","SECT":" ","MAREA":" ","LANE":" ","ALLEY":" ","HOUSE_NO":"７１號","E_COORD97":177882.48000000001,"N_COORD97":2540222.9100000001,"ADDRESS":"大成一街７１號","OBJECTID":504072},"geometry":{"x":177882.48000000045,"y":2540222.9100000001}},{"attributes":{"ID":504100,"DIS_CODE":0,"TOWNNAME":"南區","LI":"金華里","LIN":"7鄰","STREET":"尊南街","SECT":" ","MAREA":" ","LANE":" ","ALLEY":" ","HOUSE_NO":"１６２號","E_COORD97":166843.28,"N_COORD97":2542083.75,"ADDRESS":"尊南街１６２號","OBJECTID":504073},"geometry":{"x":166843.28000000026,"y":2542083.7500000019}},{"attributes":{"ID":504101,"DIS_CODE":0,"TOWNNAME":"南區","LI":"金華里","LIN":"7鄰","STREET":"尊南街","SECT":" ","MAREA":" ","LANE":" ","ALLEY":" ","HOUSE_NO":"１６４號","E_COORD97":166843.53,"N_COORD97":2542089.4500000002,"ADDRESS":"尊南街１６４號","OBJECTID":504074},"geometry":{"x":166843.52999999933,"y":2542089.4500000011}},{"attributes":{"ID":504102,"DIS_CODE":0,"TOWNNAME":"南區","LI":"金華里","LIN":"7鄰","STREET":"尊南街","SECT":" ","MAREA":" ","LANE":" ","ALLEY":" ","HOUSE_NO":"１６６號","E_COORD97":166845.26000000001,"N_COORD97":2542100.3399999999,"ADDRESS":"尊南街１６６號","OBJECTID":504075},"geometry":{"x":166845.26000000071,"y":2542100.3400000017}},{"attributes":{"ID":504103,"DIS_CODE":0,"TOWNNAME":"南區","LI":"金華里","LIN":"7鄰","STREET":"尊南街","SECT":" ","MAREA":" ","LANE":" ","ALLEY":" ","HOUSE_NO":"１６８號","E_COORD97":166845.01999999999,"N_COORD97":2542105.0499999998,"ADDRESS":"尊南街１６８號","OBJECTID":504076},"geometry":{"x":166845.02000000048,"y":2542105.0500000007}},{"attributes":{"ID":504104,"DIS_CODE":0,"TOWNNAME":"南區","LI":"金華里","LIN":"7鄰","STREET":"尊南街","SECT":" ","MAREA":" ","LANE":" ","ALLEY":" ","HOUSE_NO":"１７０號","E_COORD97":166847,"N_COORD97":2542108.5099999998,"ADDRESS":"尊南街１７０號","OBJECTID":504077},"geometry":{"x":166847.00000000186,"y":2542108.5100000035}},{"attributes":{"ID":504105,"DIS_CODE":0,"TOWNNAME":"南區","LI":"金華里","LIN":"7鄰","STREET":"新孝路","SECT":" ","MAREA":" ","LANE":" ","ALLEY":" ","HOUSE_NO":"４０號","E_COORD97":166941.97,"N_COORD97":2542062.46,"ADDRESS":"新孝路４０號","OBJECTID":504078},"geometry":{"x":166941.9700000016,"y":2542062.4600000046}},{"attributes":{"ID":504106,"DIS_CODE":0,"TOWNNAME":"南區","LI":"金華里","LIN":"7鄰","STREET":"新孝路","SECT":" ","MAREA":" ","LANE":" ","ALLEY":" ","HOUSE_NO":"４２號","E_COORD97":166936.26000000001,"N_COORD97":2542062.21,"ADDRESS":"新孝路４２號","OBJECTID":504079},"geometry":{"x":166936.25999999978,"y":2542062.2100000028}},{"attributes":{"ID":504107,"DIS_CODE":0,"TOWNNAME":"南區","LI":"金華里","LIN":"7鄰","STREET":"新孝路","SECT":" ","MAREA":" ","LANE":" ","ALLEY":" ","HOUSE_NO":"４４號","E_COORD97":166933.04000000001,"N_COORD97":2542063.2000000002,"ADDRESS":"新孝路４４號","OBJECTID":504080},"geometry":{"x":166933.04000000004,"y":2542063.2000000011}},{"attributes":{"ID":504108,"DIS_CODE":0,"TOWNNAME":"南區","LI":"金華里","LIN":"7鄰","STREET":"新孝路","SECT":" ","MAREA":" ","LANE":" ","ALLEY":" ","HOUSE_NO":"４６號","E_COORD97":166927.59,"N_COORD97":2542064.1899999999,"ADDRESS":"新孝路４６號","OBJECTID":504081},"geometry":{"x":166927.59000000171,"y":2542064.1900000013}},{"attributes":{"ID":504109,"DIS_CODE":0,"TOWNNAME":"南區","LI":"金華里","LIN":"7鄰","STREET":"新孝路","SECT":" ","MAREA":" ","LANE":" ","ALLEY":" ","HOUSE_NO":"４８號","E_COORD97":166923.12,"N_COORD97":2542064.6899999999,"ADDRESS":"新孝路４８號","OBJECTID":504082},"geometry":{"x":166923.12000000104,"y":2542064.6899999995}},{"attributes":{"ID":504110,"DIS_CODE":0,"TOWNNAME":"南區","LI":"金華里","LIN":"7鄰","STREET":"新孝路","SECT":" ","MAREA":" ","LANE":" ","ALLEY":" ","HOUSE_NO":"５０號","E_COORD97":166919.39999999999,"N_COORD97":2542064.1899999999,"ADDRESS":"新孝路５０號","OBJECTID":504083},"geometry":{"x":166919.4000000013,"y":2542064.1900000013}},{"attributes":{"ID":504111,"DIS_CODE":0,"TOWNNAME":"南區","LI":"金華里","LIN":"7鄰","STREET":"新孝路","SECT":" ","MAREA":" ","LANE":" ","ALLEY":" ","HOUSE_NO":"５２號","E_COORD97":166912.70999999999,"N_COORD97":2542064.1899999999,"ADDRESS":"新孝路５２號","OBJECTID":504084},"geometry":{"x":166912.70999999996,"y":2542064.1900000013}},{"attributes":{"ID":504112,"DIS_CODE":0,"TOWNNAME":"南區","LI":"金華里","LIN":"7鄰","STREET":"新孝路","SECT":" ","MAREA":" ","LANE":" ","ALLEY":" ","HOUSE_NO":"５４號","E_COORD97":166908,"N_COORD97":2542064.1899999999,"ADDRESS":"新孝路５４號","OBJECTID":504085},"geometry":{"x":166908.00000000186,"y":2542064.1900000013}},{"attributes":{"ID":504113,"DIS_CODE":0,"TOWNNAME":"南區","LI":"金華里","LIN":"7鄰","STREET":"新孝路","SECT":" ","MAREA":" ","LANE":" ","ALLEY":" ","HOUSE_NO":"５６號","E_COORD97":166902.54000000001,"N_COORD97":2542064.9399999999,"ADDRESS":"新孝路５６號","OBJECTID":504086},"geometry":{"x":166902.54000000004,"y":2542064.9400000013}},{"attributes":{"ID":504114,"DIS_CODE":0,"TOWNNAME":"安平區","LI":"港仔里","LIN":"7鄰","STREET":"安平路","SECT":" ","MAREA":" ","LANE":" ","ALLEY":" ","HOUSE_NO":"７０２號之２","E_COORD97":164376.39000000001,"N_COORD97":2544504.2799999998,"ADDRESS":"安平路７０２號之２","OBJECTID":504087},"geometry":{"x":164376.3900000006,"y":2544504.2800000012}},{"attributes":{"ID":504115,"DIS_CODE":0,"TOWNNAME":"安平區","LI":"港仔里","LIN":"7鄰","STREET":"安平路","SECT":" ","MAREA":" ","LANE":" ","ALLEY":" ","HOUSE_NO":"７０４號","E_COORD97":164371.07000000001,"N_COORD97":2544513.6600000001,"ADDRESS":"安平路７０４號","OBJECTID":504088},"geometry":{"x":164371.0700000003,"y":2544513.6600000001}},{"attributes":{"ID":504116,"DIS_CODE":0,"TOWNNAME":"安平區","LI":"港仔里","LIN":"7鄰","STREET":"安平路","SECT":" ","MAREA":" ","LANE":" ","ALLEY":" ","HOUSE_NO":"７０６號","E_COORD97":164362.57000000001,"N_COORD97":2544490.5899999999,"ADDRESS":"安平路７０６號","OBJECTID":504089},"geometry":{"x":164362.5700000003,"y":2544490.5899999999}},{"attributes":{"ID":504117,"DIS_CODE":0,"TOWNNAME":"安平區","LI":"港仔里","LIN":"7鄰","STREET":"安平路","SECT":" ","MAREA":" ","LANE":" ","ALLEY":" ","HOUSE_NO":"７０８號","E_COORD97":164358.76000000001,"N_COORD97":2544491.6000000001,"ADDRESS":"安平路７０８號","OBJECTID":504090},"geometry":{"x":164358.76000000071,"y":2544491.6000000015}},{"attributes":{"ID":504118,"DIS_CODE":0,"TOWNNAME":"安平區","LI":"港仔里","LIN":"7鄰","STREET":"安平路","SECT":" ","MAREA":" ","LANE":" ","ALLEY":" ","HOUSE_NO":"７１０號","E_COORD97":164355.72,"N_COORD97":2544492.3599999999,"ADDRESS":"安平路７１０號","OBJECTID":504091},"geometry":{"x":164355.72000000067,"y":2544492.3600000031}},{"attributes":{"ID":504119,"DIS_CODE":0,"TOWNNAME":"安平區","LI":"港仔里","LIN":"7鄰","STREET":"安平路","SECT":" ","MAREA":" ","LANE":" ","ALLEY":" ","HOUSE_NO":"７１２號","E_COORD97":164352.92999999999,"N_COORD97":2544493,"ADDRESS":"安平路７１２號","OBJECTID":504092},"geometry":{"x":164352.9299999997,"y":2544493.0000000019}},{"attributes":{"ID":504120,"DIS_CODE":0,"TOWNNAME":"安平區","LI":"港仔里","LIN":"7鄰","STREET":"安平路","SECT":" ","MAREA":" ","LANE":" ","ALLEY":" ","HOUSE_NO":"７１４號","E_COORD97":164347.34,"N_COORD97":2544494.1400000001,"ADDRESS":"安平路７１４號","OBJECTID":504093},"geometry":{"x":164347.33999999985,"y":2544494.1400000006}},{"attributes":{"ID":504121,"DIS_CODE":0,"TOWNNAME":"安平區","LI":"港仔里","LIN":"7鄰","STREET":"安平路","SECT":" ","MAREA":" ","LANE":" ","ALLEY":" ","HOUSE_NO":"７１６號","E_COORD97":164342.39999999999,"N_COORD97":2544497.8100000001,"ADDRESS":"安平路７１６號","OBJECTID":504094},"geometry":{"x":164342.40000000037,"y":2544497.8100000024}},{"attributes":{"ID":504122,"DIS_CODE":0,"TOWNNAME":"安平區","LI":"港仔里","LIN":"7鄰","STREET":"安平路","SECT":" ","MAREA":" ","LANE":" ","ALLEY":" ","HOUSE_NO":"７１８號","E_COORD97":164330.09,"N_COORD97":2544497.4300000002,"ADDRESS":"安平路７１８號","OBJECTID":504095},"geometry":{"x":164330.08999999985,"y":2544497.4299999997}},{"attributes":{"ID":504123,"DIS_CODE":0,"TOWNNAME":"安平區","LI":"港仔里","LIN":"7鄰","STREET":"安平路","SECT":" ","MAREA":" ","LANE":" ","ALLEY":" ","HOUSE_NO":"７２０號","E_COORD97":164324.76000000001,"N_COORD97":2544499.0800000001,"ADDRESS":"安平路７２０號","OBJECTID":504096},"geometry":{"x":164324.76000000071,"y":2544499.0800000019}},{"attributes":{"ID":504124,"DIS_CODE":0,"TOWNNAME":"安平區","LI":"港仔里","LIN":"7鄰","STREET":"安平路","SECT":" ","MAREA":" ","LANE":" ","ALLEY":" ","HOUSE_NO":"７２６號","E_COORD97":164309.79000000001,"N_COORD97":2544504.2799999998,"ADDRESS":"安平路７２６號","OBJECTID":504097},"geometry":{"x":164309.79000000097,"y":2544504.2800000012}},{"attributes":{"ID":504125,"DIS_CODE":0,"TOWNNAME":"安平區","LI":"港仔里","LIN":"7鄰","STREET":"延平街","SECT":" ","MAREA":" ","LANE":" ","ALLEY":" ","HOUSE_NO":"１３號","E_COORD97":164328.95000000001,"N_COORD97":2544544.3300000001,"ADDRESS":"延平街１３號","OBJECTID":504098},"geometry":{"x":164328.95000000112,"y":2544544.3300000038}},{"attributes":{"ID":504126,"DIS_CODE":0,"TOWNNAME":"安平區","LI":"港仔里","LIN":"7鄰","STREET":"延平街","SECT":" ","MAREA":" ","LANE":" ","ALLEY":" ","HOUSE_NO":"１號","E_COORD97":164386.29000000001,"N_COORD97":2544525.3199999998,"ADDRESS":"延平街１號","OBJECTID":504099},"geometry":{"x":164386.29000000004,"y":2544525.3200000022}},{"attributes":{"ID":504127,"DIS_CODE":0,"TOWNNAME":"安平區","LI":"港仔里","LIN":"7鄰","STREET":"延平街","SECT":" ","MAREA":" ","LANE":" ","ALLEY":" ","HOUSE_NO":"３號","E_COORD97":164379.31,"N_COORD97":2544527.0899999999,"ADDRESS":"延平街３號","OBJECTID":504100},"geometry":{"x":164379.30999999959,"y":2544527.0899999999}},{"attributes":{"ID":504128,"DIS_CODE":0,"TOWNNAME":"安平區","LI":"港仔里","LIN":"7鄰","STREET":"延平街","SECT":" ","MAREA":" ","LANE":" ","ALLEY":" ","HOUSE_NO":"５號","E_COORD97":164369.79999999999,"N_COORD97":2544531.02,"ADDRESS":"延平街５號","OBJECTID":504101},"geometry":{"x":164369.80000000168,"y":2544531.0199999996}},{"attributes":{"ID":504129,"DIS_CODE":0,"TOWNNAME":"安平區","LI":"海頭里","LIN":"7鄰","STREET":"延平街","SECT":" ","MAREA":" ","LANE":" ","ALLEY":" ","HOUSE_NO":"１１２號","E_COORD97":164132.60999999999,"N_COORD97":2544615.0099999998,"ADDRESS":"延平街１１２號","OBJECTID":504102},"geometry":{"x":164132.6100000022,"y":2544615.0100000016}},{"attributes":{"ID":504130,"DIS_CODE":0,"TOWNNAME":"安平區","LI":"海頭里","LIN":"7鄰","STREET":"延平街","SECT":" ","MAREA":" ","LANE":" ","ALLEY":" ","HOUSE_NO":"１１４號","E_COORD97":164128.67000000001,"N_COORD97":2544614.04,"ADDRESS":"延平街１１４號","OBJECTID":504103},"geometry":{"x":164128.67000000086,"y":2544614.040000001}},{"attributes":{"ID":504131,"DIS_CODE":0,"TOWNNAME":"安平區","LI":"海頭里","LIN":"7鄰","STREET":"延平街","SECT":" ","MAREA":" ","LANE":" ","ALLEY":" ","HOUSE_NO":"１１６號","E_COORD97":164124.45000000001,"N_COORD97":2544611.6899999999,"ADDRESS":"延平街１１６號","OBJECTID":504104},"geometry":{"x":164124.45000000019,"y":2544611.6899999995}},{"attributes":{"ID":504132,"DIS_CODE":0,"TOWNNAME":"安平區","LI":"海頭里","LIN":"7鄰","STREET":"延平街","SECT":" ","MAREA":" ","LANE":" ","ALLEY":" ","HOUSE_NO":"１１８號","E_COORD97":164116.48000000001,"N_COORD97":2544612.4300000002,"ADDRESS":"延平街１１８號","OBJECTID":504105},"geometry":{"x":164116.48000000045,"y":2544612.4300000016}},{"attributes":{"ID":504133,"DIS_CODE":0,"TOWNNAME":"安平區","LI":"海頭里","LIN":"7鄰","STREET":"延平街","SECT":" ","MAREA":" ","LANE":" ","ALLEY":" ","HOUSE_NO":"１２０號","E_COORD97":164108.41,"N_COORD97":2544613.98,"ADDRESS":"延平街１２０號","OBJECTID":504106},"geometry":{"x":164108.41000000201,"y":2544613.9800000004}},{"attributes":{"ID":504134,"DIS_CODE":0,"TOWNNAME":"安平區","LI":"海頭里","LIN":"7鄰","STREET":"延平街","SECT":" ","MAREA":" ","LANE":" ","ALLEY":" ","HOUSE_NO":"１２２號","E_COORD97":164099.22,"N_COORD97":2544614.8700000001,"ADDRESS":"延平街１２２號","OBJECTID":504107},"geometry":{"x":164099.22000000067,"y":2544614.870000001}},{"attributes":{"ID":504135,"DIS_CODE":0,"TOWNNAME":"安平區","LI":"海頭里","LIN":"7鄰","STREET":"延平街","SECT":" ","MAREA":" ","LANE":" ","ALLEY":" ","HOUSE_NO":"１３２號","E_COORD97":164090.92000000001,"N_COORD97":2544615.8700000001,"ADDRESS":"延平街１３２號","OBJECTID":504108},"geometry":{"x":164090.91999999993,"y":2544615.870000001}},{"attributes":{"ID":504136,"DIS_CODE":0,"TOWNNAME":"安平區","LI":"海頭里","LIN":"7鄰","STREET":"延平街","SECT":" ","MAREA":" ","LANE":" ","ALLEY":" ","HOUSE_NO":"１３４號","E_COORD97":164086.84,"N_COORD97":2544619.8100000001,"ADDRESS":"延平街１３４號","OBJECTID":504109},"geometry":{"x":164086.84000000078,"y":2544619.8100000024}},{"attributes":{"ID":504137,"DIS_CODE":0,"TOWNNAME":"安平區","LI":"海頭里","LIN":"7鄰","STREET":"延平街","SECT":" ","MAREA":" ","LANE":" ","ALLEY":" ","HOUSE_NO":"１３６號","E_COORD97":164080.48000000001,"N_COORD97":2544618.4300000002,"ADDRESS":"延平街１３６號","OBJECTID":504110},"geometry":{"x":164080.48000000045,"y":2544618.4300000016}},{"attributes":{"ID":504138,"DIS_CODE":0,"TOWNNAME":"北區","LI":"長德里","LIN":"7鄰","STREET":"長北街","SECT":" ","MAREA":" ","LANE":" ","ALLEY":" ","HOUSE_NO":"１０９號","E_COORD97":168449.42999999999,"N_COORD97":2544764.02,"ADDRESS":"長北街１０９號","OBJECTID":504111},"geometry":{"x":168449.43000000063,"y":2544764.0200000014}},{"attributes":{"ID":504139,"DIS_CODE":0,"TOWNNAME":"北區","LI":"長榮里","LIN":"7鄰","STREET":"長勝路","SECT":" ","MAREA":" ","LANE":" ","ALLEY":" ","HOUSE_NO":"１７號","E_COORD97":170033.82000000001,"N_COORD97":2545551.0699999998,"ADDRESS":"長勝路１７號","OBJECTID":504112},"geometry":{"x":170033.82000000216,"y":2545551.0700000022}},{"attributes":{"ID":504140,"DIS_CODE":0,"TOWNNAME":"歸仁區","LI":"後市里","LIN":"40鄰","STREET":"中山路","SECT":"二段","MAREA":" ","LANE":" ","ALLEY":" ","HOUSE_NO":"１９０號","E_COORD97":177120.53,"N_COORD97":2540855.7400000002,"ADDRESS":"中山路二段１９０號","OBJECTID":504113},"geometry":{"x":177120.53000000119,"y":2540855.7400000002}},{"attributes":{"ID":504141,"DIS_CODE":0,"TOWNNAME":"歸仁區","LI":"南保里","LIN":"34鄰","STREET":"民權八街","SECT":" ","MAREA":" ","LANE":" ","ALLEY":" ","HOUSE_NO":"９１號","E_COORD97":176728.39000000001,"N_COORD97":2541052.29,"ADDRESS":"民權八街９１號","OBJECTID":504114},"geometry":{"x":176728.38999999966,"y":2541052.290000001}},{"attributes":{"ID":504142,"DIS_CODE":0,"TOWNNAME":"歸仁區","LI":"南保里","LIN":"8鄰","STREET":"文化六街","SECT":" ","MAREA":" ","LANE":" ","ALLEY":" ","HOUSE_NO":"３３號","E_COORD97":176808.73999999999,"N_COORD97":2541326.3300000001,"ADDRESS":"文化六街３３號","OBJECTID":504115},"geometry":{"x":176808.74000000115,"y":2541326.3300000001}},{"attributes":{"ID":504143,"DIS_CODE":0,"TOWNNAME":"北區","LI":"長榮里","LIN":"7鄰","STREET":"長勝路","SECT":" ","MAREA":" ","LANE":" ","ALLEY":" ","HOUSE_NO":"１９號","E_COORD97":170027.14999999999,"N_COORD97":2545558.0600000001,"ADDRESS":"長勝路１９號","OBJECTID":504116},"geometry":{"x":170027.1500000013,"y":2545558.0600000024}},{"attributes":{"ID":504144,"DIS_CODE":0,"TOWNNAME":"北區","LI":"長榮里","LIN":"7鄰","STREET":"長勝路","SECT":" ","MAREA":" ","LANE":" ","ALLEY":" ","HOUSE_NO":"２１號","E_COORD97":170022.23000000001,"N_COORD97":2545561.23,"ADDRESS":"長勝路２１號","OBJECTID":504117},"geometry":{"x":170022.23000000045,"y":2545561.2300000004}},{"attributes":{"ID":504145,"DIS_CODE":0,"TOWNNAME":"北區","LI":"長榮里","LIN":"7鄰","STREET":"長勝路","SECT":" ","MAREA":" ","LANE":" ","ALLEY":" ","HOUSE_NO":"２３號","E_COORD97":170017.78,"N_COORD97":2545565.6800000002,"ADDRESS":"長勝路２３號","OBJECTID":504118},"geometry":{"x":170017.78000000119,"y":2545565.6800000016}},{"attributes":{"ID":504146,"DIS_CODE":0,"TOWNNAME":"北區","LI":"長榮里","LIN":"7鄰","STREET":"長勝路","SECT":" ","MAREA":" ","LANE":" ","ALLEY":" ","HOUSE_NO":"２５號","E_COORD97":170012.07000000001,"N_COORD97":2545569.6499999999,"ADDRESS":"長勝路２５號","OBJECTID":504119},"geometry":{"x":170012.07000000123,"y":2545569.6500000041}},{"attributes":{"ID":504147,"DIS_CODE":0,"TOWNNAME":"東山區","LI":"東山里","LIN":"7鄰","STREET":"中興路","SECT":" ","MAREA":" ","LANE":" ","ALLEY":" ","HOUSE_NO":"１３８號","E_COORD97":188976.34,"N_COORD97":2580333.5600000001,"ADDRESS":"中興路１３８號","OBJECTID":504120},"geometry":{"x":188976.33999999985,"y":2580333.5600000024}},{"attributes":{"ID":504148,"DIS_CODE":0,"TOWNNAME":"東山區","LI":"東山里","LIN":"7鄰","STREET":"中興路","SECT":" ","MAREA":" ","LANE":" ","ALLEY":" ","HOUSE_NO":"１４０號","E_COORD97":188976.47,"N_COORD97":2580337.73,"ADDRESS":"中興路１４０號","OBJECTID":504121},"geometry":{"x":188976.47000000067,"y":2580337.7300000042}},{"attributes":{"ID":504149,"DIS_CODE":0,"TOWNNAME":"歸仁區","LI":"歸南里","LIN":"7鄰","STREET":"中正南路","SECT":"一段","MAREA":" ","LANE":" ","ALLEY":" ","HOUSE_NO":"６８０號","E_COORD97":176560.26000000001,"N_COORD97":2539816.9500000002,"ADDRESS":"中正南路一段６８０號","OBJECTID":504122},"geometry":{"x":176560.26000000071,"y":2539816.9500000011}},{"attributes":{"ID":504150,"DIS_CODE":0,"TOWNNAME":"歸仁區","LI":"歸仁里","LIN":"7鄰","STREET":"中山路","SECT":"一段","MAREA":" ","LANE":" ","ALLEY":" ","HOUSE_NO":"５５２號","E_COORD97":177743.20999999999,"N_COORD97":2540775.1800000002,"ADDRESS":"中山路一段５５２號","OBJECTID":504123},"geometry":{"x":177743.20999999996,"y":2540775.1800000016}},{"attributes":{"ID":504151,"DIS_CODE":0,"TOWNNAME":"歸仁區","LI":"歸南里","LIN":"7鄰","STREET":"中正南路","SECT":"一段","MAREA":" ","LANE":" ","ALLEY":" ","HOUSE_NO":"６８４號","E_COORD97":176541.66,"N_COORD97":2539797.9500000002,"ADDRESS":"中正南路一段６８４號","OBJECTID":504124},"geometry":{"x":176541.66000000108,"y":2539797.9499999993}},{"attributes":{"ID":504152,"DIS_CODE":0,"TOWNNAME":"歸仁區","LI":"歸南里","LIN":"7鄰","STREET":"中正南路","SECT":"一段","MAREA":" ","LANE":" ","ALLEY":" ","HOUSE_NO":"６７６號","E_COORD97":176571.69,"N_COORD97":2539823.9500000002,"ADDRESS":"中正南路一段６７６號","OBJECTID":504125},"geometry":{"x":176571.69000000134,"y":2539823.9500000011}},{"attributes":{"ID":504153,"DIS_CODE":0,"TOWNNAME":"歸仁區","LI":"歸南里","LIN":"7鄰","STREET":"中正南路","SECT":"一段","MAREA":" ","LANE":" ","ALLEY":" ","HOUSE_NO":"６６８號","E_COORD97":176583.85999999999,"N_COORD97":2539834.9500000002,"ADDRESS":"中正南路一段６６８號","OBJECTID":504126},"geometry":{"x":176583.8600000022,"y":2539834.9500000011}},{"attributes":{"ID":504154,"DIS_CODE":0,"TOWNNAME":"歸仁區","LI":"崙頂里","LIN":"7鄰","STREET":"崙頂三街","SECT":" ","MAREA":" ","LANE":" ","ALLEY":" ","HOUSE_NO":"７９號","E_COORD97":177998.13,"N_COORD97":2539962.25,"ADDRESS":"崙頂三街７９號","OBJECTID":504127},"geometry":{"x":177998.12999999989,"y":2539962.2500000019}},{"attributes":{"ID":504155,"DIS_CODE":0,"TOWNNAME":"歸仁區","LI":"新厝里","LIN":"7鄰","STREET":"中正三街","SECT":" ","MAREA":" ","LANE":" ","ALLEY":" ","HOUSE_NO":"５３號","E_COORD97":177742.57999999999,"N_COORD97":2540569.9300000002,"ADDRESS":"中正三街５３號","OBJECTID":504128},"geometry":{"x":177742.58000000007,"y":2540569.9300000016}},{"attributes":{"ID":504156,"DIS_CODE":0,"TOWNNAME":"歸仁區","LI":"歸南里","LIN":"7鄰","STREET":"中正南路","SECT":"一段","MAREA":" ","LANE":" ","ALLEY":" ","HOUSE_NO":"６７２號","E_COORD97":176577.89000000001,"N_COORD97":2539828.9500000002,"ADDRESS":"中正南路一段６７２號","OBJECTID":504129},"geometry":{"x":176577.89000000153,"y":2539828.9499999993}},{"attributes":{"ID":504157,"DIS_CODE":0,"TOWNNAME":"歸仁區","LI":"歸仁里","LIN":"7鄰","STREET":"中山路","SECT":"一段","MAREA":" ","LANE":" ","ALLEY":" ","HOUSE_NO":"５４６號","E_COORD97":177754.51000000001,"N_COORD97":2540774.1800000002,"ADDRESS":"中山路一段５４６號","OBJECTID":504130},"geometry":{"x":177754.50999999978,"y":2540774.1799999997}},{"attributes":{"ID":504158,"DIS_CODE":0,"TOWNNAME":"歸仁區","LI":"看西里","LIN":"7鄰","STREET":"信義南路","SECT":" ","MAREA":" ","LANE":" ","ALLEY":" ","HOUSE_NO":"１８１號","E_COORD97":178133.85999999999,"N_COORD97":2540250.4900000002,"ADDRESS":"信義南路１８１號","OBJECTID":504131},"geometry":{"x":178133.86000000127,"y":2540250.4900000002}},{"attributes":{"ID":504159,"DIS_CODE":0,"TOWNNAME":"歸仁區","LI":"許厝里","LIN":"7鄰","STREET":"仁愛八街","SECT":" ","MAREA":" ","LANE":" ","ALLEY":" ","HOUSE_NO":"１１號","E_COORD97":178224.76000000001,"N_COORD97":2540628.4199999999,"ADDRESS":"仁愛八街１１號","OBJECTID":504132},"geometry":{"x":178224.76000000164,"y":2540628.4200000018}},{"attributes":{"ID":504160,"DIS_CODE":0,"TOWNNAME":"歸仁區","LI":"歸仁里","LIN":"7鄰","STREET":"中山路","SECT":"一段","MAREA":" ","LANE":" ","ALLEY":" ","HOUSE_NO":"５４２之１號","E_COORD97":177760.10999999999,"N_COORD97":2540774.1800000002,"ADDRESS":"中山路一段５４２之１號","OBJECTID":504133},"geometry":{"x":177760.1099999994,"y":2540774.1799999997}},{"attributes":{"ID":504161,"DIS_CODE":0,"TOWNNAME":"歸仁區","LI":"看東里","LIN":"7鄰","STREET":"成功一街","SECT":" ","MAREA":" ","LANE":" ","ALLEY":" ","HOUSE_NO":"６８號","E_COORD97":178573.25,"N_COORD97":2540078.4500000002,"ADDRESS":"成功一街６８號","OBJECTID":504134},"geometry":{"x":178573.25000000093,"y":2540078.4500000011}},{"attributes":{"ID":504162,"DIS_CODE":0,"TOWNNAME":"歸仁區","LI":"許厝里","LIN":"7鄰","STREET":"仁愛八街","SECT":" ","MAREA":" ","LANE":" ","ALLEY":" ","HOUSE_NO":"２７號","E_COORD97":178190.95999999999,"N_COORD97":2540631.4199999999,"ADDRESS":"仁愛八街２７號","OBJECTID":504135},"geometry":{"x":178190.95999999996,"y":2540631.4200000018}},{"attributes":{"ID":504163,"DIS_CODE":0,"TOWNNAME":"歸仁區","LI":"辜厝里","LIN":"7鄰","STREET":"大順街","SECT":" ","MAREA":" ","LANE":" ","ALLEY":" ","HOUSE_NO":"４０號","E_COORD97":177442.98000000001,"N_COORD97":2540580.1499999999,"ADDRESS":"大順街４０號","OBJECTID":504136},"geometry":{"x":177442.98000000138,"y":2540580.1500000022}},{"attributes":{"ID":504164,"DIS_CODE":0,"TOWNNAME":"歸仁區","LI":"辜厝里","LIN":"7鄰","STREET":"大順街","SECT":" ","MAREA":" ","LANE":" ","ALLEY":" ","HOUSE_NO":"４２號","E_COORD97":177437.88,"N_COORD97":2540585.1499999999,"ADDRESS":"大順街４２號","OBJECTID":504137},"geometry":{"x":177437.88000000082,"y":2540585.1500000004}},{"attributes":{"ID":504165,"DIS_CODE":0,"TOWNNAME":"歸仁區","LI":"看東里","LIN":"7鄰","STREET":"成功一街","SECT":" ","MAREA":" ","LANE":" ","ALLEY":" ","HOUSE_NO":"８２號","E_COORD97":178540.35000000001,"N_COORD97":2540054.4500000002,"ADDRESS":"成功一街８２號","OBJECTID":504138},"geometry":{"x":178540.34999999963,"y":2540054.4500000011}},{"attributes":{"ID":504166,"DIS_CODE":0,"TOWNNAME":"歸仁區","LI":"辜厝里","LIN":"7鄰","STREET":"大順二街","SECT":" ","MAREA":" ","LANE":" ","ALLEY":" ","HOUSE_NO":"１７號","E_COORD97":177494.92000000001,"N_COORD97":2540590.9300000002,"ADDRESS":"大順二街１７號","OBJECTID":504139},"geometry":{"x":177494.92000000179,"y":2540590.9300000016}},{"attributes":{"ID":504167,"DIS_CODE":0,"TOWNNAME":"歸仁區","LI":"看西里","LIN":"7鄰","STREET":"信義南路","SECT":" ","MAREA":" ","LANE":" ","ALLEY":" ","HOUSE_NO":"１７９號","E_COORD97":178133.85999999999,"N_COORD97":2540255.4900000002,"ADDRESS":"信義南路１７９號","OBJECTID":504140},"geometry":{"x":178133.86000000127,"y":2540255.4900000021}},{"attributes":{"ID":504168,"DIS_CODE":0,"TOWNNAME":"歸仁區","LI":"南保里","LIN":"7鄰","STREET":"文化街","SECT":"三段","MAREA":" ","LANE":" ","ALLEY":" ","HOUSE_NO":"１２號","E_COORD97":176970.59,"N_COORD97":2541247.3300000001,"ADDRESS":"文化街三段１２號","OBJECTID":504141},"geometry":{"x":176970.59000000078,"y":2541247.3300000001}},{"attributes":{"ID":504169,"DIS_CODE":0,"TOWNNAME":"歸仁區","LI":"後市里","LIN":"7鄰","STREET":"大吉一街","SECT":" ","MAREA":" ","LANE":" ","ALLEY":" ","HOUSE_NO":"５４號","E_COORD97":177142.51000000001,"N_COORD97":2540659.25,"ADDRESS":"大吉一街５４號","OBJECTID":504142},"geometry":{"x":177142.50999999978,"y":2540659.2500000037}},{"attributes":{"ID":504170,"DIS_CODE":0,"TOWNNAME":"歸仁區","LI":"南興里","LIN":"7鄰","STREET":"民生二街","SECT":" ","MAREA":" ","LANE":" ","ALLEY":" ","HOUSE_NO":"７９號","E_COORD97":176094.89000000001,"N_COORD97":2541298.29,"ADDRESS":"民生二街７９號","OBJECTID":504143},"geometry":{"x":176094.8900000006,"y":2541298.2899999991}},{"attributes":{"ID":504171,"DIS_CODE":0,"TOWNNAME":"歸仁區","LI":"南保里","LIN":"7鄰","STREET":"民權北路","SECT":" ","MAREA":" ","LANE":" ","ALLEY":" ","HOUSE_NO":"１６９號","E_COORD97":177007.64000000001,"N_COORD97":2541284.29,"ADDRESS":"民權北路１６９號","OBJECTID":504144},"geometry":{"x":177007.63999999966,"y":2541284.2899999991}},{"attributes":{"ID":504172,"DIS_CODE":0,"TOWNNAME":"歸仁區","LI":"後市里","LIN":"7鄰","STREET":"大吉一街","SECT":" ","MAREA":" ","LANE":" ","ALLEY":" ","HOUSE_NO":"２０號","E_COORD97":177148.01000000001,"N_COORD97":2540742.25,"ADDRESS":"大吉一街２０號","OBJECTID":504145},"geometry":{"x":177148.00999999978,"y":2540742.2500000019}},{"attributes":{"ID":504173,"DIS_CODE":0,"TOWNNAME":"歸仁區","LI":"南保里","LIN":"7鄰","STREET":"文化街","SECT":"三段","MAREA":" ","LANE":" ","ALLEY":" ","HOUSE_NO":"６號","E_COORD97":176981.64000000001,"N_COORD97":2541245.3300000001,"ADDRESS":"文化街三段６號","OBJECTID":504146},"geometry":{"x":176981.6400000006,"y":2541245.3300000038}},{"attributes":{"ID":504174,"DIS_CODE":0,"TOWNNAME":"歸仁區","LI":"後市里","LIN":"7鄰","STREET":"大吉一街","SECT":" ","MAREA":" ","LANE":" ","ALLEY":" ","HOUSE_NO":"３０號","E_COORD97":177146.91,"N_COORD97":2540721.25,"ADDRESS":"大吉一街３０號","OBJECTID":504147},"geometry":{"x":177146.91000000015,"y":2540721.2500000019}},{"attributes":{"ID":504175,"DIS_CODE":0,"TOWNNAME":"歸仁區","LI":"南保里","LIN":"7鄰","STREET":"民權北路","SECT":" ","MAREA":" ","LANE":" ","ALLEY":" ","HOUSE_NO":"１７１號","E_COORD97":177007.73999999999,"N_COORD97":2541289.29,"ADDRESS":"民權北路１７１號","OBJECTID":504148},"geometry":{"x":177007.74000000022,"y":2541289.290000001}},{"attributes":{"ID":504176,"DIS_CODE":0,"TOWNNAME":"歸仁區","LI":"南保里","LIN":"7鄰","STREET":"民權北路","SECT":" ","MAREA":" ","LANE":" ","ALLEY":" ","HOUSE_NO":"１５３號","E_COORD97":177005.44,"N_COORD97":2541249.29,"ADDRESS":"民權北路１５３號","OBJECTID":504149},"geometry":{"x":177005.44000000227,"y":2541249.290000001}},{"attributes":{"ID":504177,"DIS_CODE":0,"TOWNNAME":"歸仁區","LI":"崙頂里","LIN":"7鄰","STREET":"崙頂一街","SECT":" ","MAREA":" ","LANE":" ","ALLEY":" ","HOUSE_NO":"７４號","E_COORD97":178012.76999999999,"N_COORD97":2539978.6800000002,"ADDRESS":"崙頂一街７４號","OBJECTID":504150},"geometry":{"x":178012.77000000048,"y":2539978.6800000016}},{"attributes":{"ID":504178,"DIS_CODE":0,"TOWNNAME":"歸仁區","LI":"南興里","LIN":"7鄰","STREET":"民生二街","SECT":" ","MAREA":" ","LANE":" ","ALLEY":" ","HOUSE_NO":"４７號","E_COORD97":176140.19,"N_COORD97":2541330.29,"ADDRESS":"民生二街４７號","OBJECTID":504151},"geometry":{"x":176140.19000000041,"y":2541330.290000001}},{"attributes":{"ID":504179,"DIS_CODE":0,"TOWNNAME":"歸仁區","LI":"南保里","LIN":"7鄰","STREET":"文化街","SECT":"三段","MAREA":" ","LANE":" ","ALLEY":" ","HOUSE_NO":"２號","E_COORD97":176986.84,"N_COORD97":2541245.3300000001,"ADDRESS":"文化街三段２號","OBJECTID":504152},"geometry":{"x":176986.84000000171,"y":2541245.3300000038}},{"attributes":{"ID":504180,"DIS_CODE":0,"TOWNNAME":"歸仁區","LI":"南興里","LIN":"7鄰","STREET":"民生二街","SECT":" ","MAREA":" ","LANE":" ","ALLEY":" ","HOUSE_NO":"５９號","E_COORD97":176096.09,"N_COORD97":2541333.29,"ADDRESS":"民生二街５９號","OBJECTID":504153},"geometry":{"x":176096.08999999985,"y":2541333.290000001}},{"attributes":{"ID":504181,"DIS_CODE":0,"TOWNNAME":"歸仁區","LI":"後市里","LIN":"7鄰","STREET":"大吉一街","SECT":" ","MAREA":" ","LANE":" ","ALLEY":" ","HOUSE_NO":"４８號","E_COORD97":177145.70999999999,"N_COORD97":2540683.2400000002,"ADDRESS":"大吉一街４８號","OBJECTID":504154},"geometry":{"x":177145.71000000089,"y":2540683.2400000039}},{"attributes":{"ID":504182,"DIS_CODE":0,"TOWNNAME":"歸仁區","LI":"南興里","LIN":"7鄰","STREET":"民生二街","SECT":" ","MAREA":" ","LANE":" ","ALLEY":" ","HOUSE_NO":"８５號","E_COORD97":176094.98999999999,"N_COORD97":2541310.29,"ADDRESS":"民生二街８５號","OBJECTID":504155},"geometry":{"x":176094.99000000115,"y":2541310.290000001}},{"attributes":{"ID":504183,"DIS_CODE":0,"TOWNNAME":"歸仁區","LI":"後市里","LIN":"7鄰","STREET":"大吉一街","SECT":" ","MAREA":" ","LANE":" ","ALLEY":" ","HOUSE_NO":"４２號","E_COORD97":177146.70999999999,"N_COORD97":2540695.25,"ADDRESS":"大吉一街４２號","OBJECTID":504156},"geometry":{"x":177146.70999999996,"y":2540695.25}},{"attributes":{"ID":504184,"DIS_CODE":0,"TOWNNAME":"歸仁區","LI":"後市里","LIN":"7鄰","STREET":"大吉一街","SECT":" ","MAREA":" ","LANE":" ","ALLEY":" ","HOUSE_NO":"１８號","E_COORD97":177148.01000000001,"N_COORD97":2540746.25,"ADDRESS":"大吉一街１８號","OBJECTID":504157},"geometry":{"x":177148.00999999978,"y":2540746.25}},{"attributes":{"ID":504185,"DIS_CODE":0,"TOWNNAME":"新營區","LI":"新北里","LIN":"24鄰","STREET":"長榮路","SECT":"二段","MAREA":" ","LANE":" ","ALLEY":" ","HOUSE_NO":"５５２號","E_COORD97":178631.42000000001,"N_COORD97":2579403.2000000002,"ADDRESS":"長榮路二段５５２號","OBJECTID":504158},"geometry":{"x":178631.42000000086,"y":2579403.1999999993}},{"attributes":{"ID":504186,"DIS_CODE":0,"TOWNNAME":"鹽水區","LI":"橋南里","LIN":"7鄰","STREET":"忠孝路","SECT":" ","MAREA":" ","LANE":" ","ALLEY":" ","HOUSE_NO":"１８號","E_COORD97":175953.98999999999,"N_COORD97":2578890.0699999998,"ADDRESS":"忠孝路１８號","OBJECTID":504159},"geometry":{"x":175953.99000000115,"y":2578890.0700000003}},{"attributes":{"ID":504187,"DIS_CODE":0,"TOWNNAME":"安平區","LI":"怡平里","LIN":"7鄰","STREET":"建平十七街","SECT":" ","MAREA":" ","LANE":" ","ALLEY":" ","HOUSE_NO":"１４９號","E_COORD97":165816.64000000001,"N_COORD97":2544231.3100000001,"ADDRESS":"建平十七街１４９號","OBJECTID":504160},"geometry":{"x":165816.64000000153,"y":2544231.3100000005}},{"attributes":{"ID":504188,"DIS_CODE":0,"TOWNNAME":"安平區","LI":"怡平里","LIN":"7鄰","STREET":"建平十七街","SECT":" ","MAREA":" ","LANE":" ","ALLEY":" ","HOUSE_NO":"１５１號","E_COORD97":165811.16,"N_COORD97":2544230.9100000001,"ADDRESS":"建平十七街１５１號","OBJECTID":504161},"geometry":{"x":165811.16000000015,"y":2544230.9100000001}},{"attributes":{"ID":504189,"DIS_CODE":0,"TOWNNAME":"安平區","LI":"怡平里","LIN":"7鄰","STREET":"建平十七街","SECT":" ","MAREA":" ","LANE":" ","ALLEY":" ","HOUSE_NO":"１５３號","E_COORD97":165805.57999999999,"N_COORD97":2544230.6099999999,"ADDRESS":"建平十七街１５３號","OBJECTID":504162},"geometry":{"x":165805.57999999914,"y":2544230.6100000013}},{"attributes":{"ID":504190,"DIS_CODE":0,"TOWNNAME":"安平區","LI":"怡平里","LIN":"7鄰","STREET":"建平十七街","SECT":" ","MAREA":" ","LANE":" ","ALLEY":" ","HOUSE_NO":"１５５號","E_COORD97":165800,"N_COORD97":2544230.4100000001,"ADDRESS":"建平十七街１５５號","OBJECTID":504163},"geometry":{"x":165800.00000000093,"y":2544230.4100000001}},{"attributes":{"ID":504191,"DIS_CODE":0,"TOWNNAME":"安平區","LI":"平通里","LIN":"7鄰","STREET":"慶平路","SECT":" ","MAREA":" ","LANE":" ","ALLEY":" ","HOUSE_NO":"５６１號","E_COORD97":164946.03,"N_COORD97":2544236.9700000002,"ADDRESS":"慶平路５６１號","OBJECTID":504164},"geometry":{"x":164946.03000000026,"y":2544236.9700000025}},{"attributes":{"ID":504192,"DIS_CODE":0,"TOWNNAME":"安平區","LI":"平通里","LIN":"7鄰","STREET":"慶平路","SECT":" ","MAREA":" ","LANE":" ","ALLEY":" ","HOUSE_NO":"５６３號","E_COORD97":164936.13,"N_COORD97":2544239.3599999999,"ADDRESS":"慶平路５６３號","OBJECTID":504165},"geometry":{"x":164936.13000000082,"y":2544239.3600000013}},{"attributes":{"ID":504193,"DIS_CODE":0,"TOWNNAME":"安平區","LI":"平通里","LIN":"7鄰","STREET":"慶平路","SECT":" ","MAREA":" ","LANE":" ","ALLEY":" ","HOUSE_NO":"５６７號","E_COORD97":164916.31,"N_COORD97":2544242.4300000002,"ADDRESS":"慶平路５６７號","OBJECTID":504166},"geometry":{"x":164916.30999999959,"y":2544242.4300000016}},{"attributes":{"ID":504194,"DIS_CODE":0,"TOWNNAME":"安平區","LI":"平通里","LIN":"7鄰","STREET":"慶平路","SECT":" ","MAREA":" ","LANE":" ","ALLEY":" ","HOUSE_NO":"５７１號","E_COORD97":164895.81,"N_COORD97":2544246.7599999998,"ADDRESS":"慶平路５７１號","OBJECTID":504167},"geometry":{"x":164895.81000000052,"y":2544246.7600000016}},{"attributes":{"ID":504195,"DIS_CODE":0,"TOWNNAME":"安平區","LI":"平通里","LIN":"7鄰","STREET":"慶平路","SECT":" ","MAREA":" ","LANE":" ","ALLEY":" ","HOUSE_NO":"５７３號","E_COORD97":164884.76000000001,"N_COORD97":2544248.8999999999,"ADDRESS":"慶平路５７３號","OBJECTID":504168},"geometry":{"x":164884.75999999978,"y":2544248.8999999985}},{"attributes":{"ID":504196,"DIS_CODE":0,"TOWNNAME":"安平區","LI":"漁光里","LIN":"7鄰","STREET":"漁光路","SECT":" ","MAREA":" ","LANE":" ","ALLEY":" ","HOUSE_NO":"１５８號","E_COORD97":163255.70999999999,"N_COORD97":2542946.2999999998,"ADDRESS":"漁光路１５８號","OBJECTID":504169},"geometry":{"x":163255.71000000089,"y":2542946.3000000026}},{"attributes":{"ID":504197,"DIS_CODE":0,"TOWNNAME":"安平區","LI":"漁光里","LIN":"7鄰","STREET":"漁光路","SECT":" ","MAREA":" ","LANE":" ","ALLEY":" ","HOUSE_NO":"１５６號","E_COORD97":163256.20000000001,"N_COORD97":2542937.8199999998,"ADDRESS":"漁光路１５６號","OBJECTID":504170},"geometry":{"x":163256.20000000112,"y":2542937.8200000022}},{"attributes":{"ID":504198,"DIS_CODE":0,"TOWNNAME":"安平區","LI":"漁光里","LIN":"7鄰","STREET":"漁光路","SECT":" ","MAREA":" ","LANE":" ","ALLEY":" ","HOUSE_NO":"１５４號","E_COORD97":163261.78,"N_COORD97":2542916.4900000002,"ADDRESS":"漁光路１５４號","OBJECTID":504171},"geometry":{"x":163261.78000000212,"y":2542916.4900000021}},{"attributes":{"ID":504199,"DIS_CODE":0,"TOWNNAME":"安平區","LI":"漁光里","LIN":"7鄰","STREET":"漁光路","SECT":" ","MAREA":" ","LANE":" ","ALLEY":" ","HOUSE_NO":"１５０號","E_COORD97":163268.81,"N_COORD97":2542892.9900000002,"ADDRESS":"漁光路１５０號","OBJECTID":504172},"geometry":{"x":163268.80999999959,"y":2542892.9900000021}},{"attributes":{"ID":504200,"DIS_CODE":0,"TOWNNAME":"安平區","LI":"漁光里","LIN":"7鄰","STREET":"漁光路","SECT":" ","MAREA":" ","LANE":" ","ALLEY":" ","HOUSE_NO":"１４６號","E_COORD97":163244.73000000001,"N_COORD97":2542874.1400000001,"ADDRESS":"漁光路１４６號","OBJECTID":504173},"geometry":{"x":163244.73000000045,"y":2542874.1400000006}},{"attributes":{"ID":504201,"DIS_CODE":0,"TOWNNAME":"安平區","LI":"漁光里","LIN":"7鄰","STREET":"漁光路","SECT":" ","MAREA":" ","LANE":" ","ALLEY":" ","HOUSE_NO":"１３２號","E_COORD97":163512.31,"N_COORD97":2542603.7000000002,"ADDRESS":"漁光路１３２號","OBJECTID":504174},"geometry":{"x":163512.31000000052,"y":2542603.6999999993}},{"attributes":{"ID":504202,"DIS_CODE":0,"TOWNNAME":"安平區","LI":"漁光里","LIN":"7鄰","STREET":"漁光路","SECT":" ","MAREA":" ","LANE":" ","ALLEY":" ","HOUSE_NO":"１３０號","E_COORD97":163515.84,"N_COORD97":2542589.2999999998,"ADDRESS":"漁光路１３０號","OBJECTID":504175},"geometry":{"x":163515.84000000078,"y":2542589.3000000026}},{"attributes":{"ID":504203,"DIS_CODE":0,"TOWNNAME":"安平區","LI":"漁光里","LIN":"7鄰","STREET":"漁光路","SECT":" ","MAREA":" ","LANE":" ","ALLEY":" ","HOUSE_NO":"１２６號","E_COORD97":163515.51000000001,"N_COORD97":2542554.8900000001,"ADDRESS":"漁光路１２６號","OBJECTID":504176},"geometry":{"x":163515.50999999885,"y":2542554.8900000025}},{"attributes":{"ID":504204,"DIS_CODE":0,"TOWNNAME":"安平區","LI":"漁光里","LIN":"7鄰","STREET":"漁光路","SECT":" ","MAREA":" ","LANE":" ","ALLEY":" ","HOUSE_NO":"１２８號","E_COORD97":163515.84,"N_COORD97":2542571.2599999998,"ADDRESS":"漁光路１２８號","OBJECTID":504177},"geometry":{"x":163515.84000000078,"y":2542571.2600000035}},{"attributes":{"ID":504205,"DIS_CODE":0,"TOWNNAME":"安平區","LI":"漁光里","LIN":"7鄰","STREET":"漁光路","SECT":" ","MAREA":" ","LANE":" ","ALLEY":" ","HOUSE_NO":"１２２號","E_COORD97":163500.95999999999,"N_COORD97":2542532.1000000001,"ADDRESS":"漁光路１２２號","OBJECTID":504178},"geometry":{"x":163500.96000000183,"y":2542532.1000000015}},{"attributes":{"ID":504206,"DIS_CODE":0,"TOWNNAME":"安平區","LI":"漁光里","LIN":"7鄰","STREET":"漁光路","SECT":" ","MAREA":" ","LANE":" ","ALLEY":" ","HOUSE_NO":"１１８號","E_COORD97":163532.73000000001,"N_COORD97":2542538.7799999998,"ADDRESS":"漁光路１１８號","OBJECTID":504179},"geometry":{"x":163532.73000000045,"y":2542538.7799999993}},{"attributes":{"ID":504207,"DIS_CODE":0,"TOWNNAME":"安平區","LI":"漁光里","LIN":"7鄰","STREET":"漁光路","SECT":" ","MAREA":" ","LANE":" ","ALLEY":" ","HOUSE_NO":"１２０號","E_COORD97":163544.60000000001,"N_COORD97":2542529.5899999999,"ADDRESS":"漁光路１２０號","OBJECTID":504180},"geometry":{"x":163544.59999999963,"y":2542529.5900000017}},{"attributes":{"ID":504208,"DIS_CODE":0,"TOWNNAME":"安平區","LI":"漁光里","LIN":"7鄰","STREET":"漁光路","SECT":" ","MAREA":" ","LANE":" ","ALLEY":" ","HOUSE_NO":"１２４號","E_COORD97":163493.92999999999,"N_COORD97":2542555.8900000001,"ADDRESS":"漁光路１２４號","OBJECTID":504181},"geometry":{"x":163493.92999999877,"y":2542555.8900000025}},{"attributes":{"ID":504209,"DIS_CODE":0,"TOWNNAME":"安平區","LI":"漁光里","LIN":"7鄰","STREET":"漁光路","SECT":" ","MAREA":" ","LANE":" ","ALLEY":" ","HOUSE_NO":"１９７號","E_COORD97":162935.57999999999,"N_COORD97":2543126.0800000001,"ADDRESS":"漁光路１９７號","OBJECTID":504182},"geometry":{"x":162935.57999999914,"y":2543126.0800000019}},{"attributes":{"ID":504210,"DIS_CODE":0,"TOWNNAME":"安平區","LI":"港仔里","LIN":"7鄰","STREET":"觀音街","SECT":" ","MAREA":" ","LANE":" ","ALLEY":" ","HOUSE_NO":"２６號","E_COORD97":164279.59,"N_COORD97":2544515.48,"ADDRESS":"觀音街２６號","OBJECTID":504183},"geometry":{"x":164279.58999999892,"y":2544515.4800000004}},{"attributes":{"ID":504211,"DIS_CODE":0,"TOWNNAME":"安平區","LI":"建平里","LIN":"7鄰","STREET":"建平十街","SECT":" ","MAREA":" ","LANE":" ","ALLEY":" ","HOUSE_NO":"１０號","E_COORD97":166390.85999999999,"N_COORD97":2543834.7999999998,"ADDRESS":"建平十街１０號","OBJECTID":504184},"geometry":{"x":166390.86000000127,"y":2543834.8000000026}},{"attributes":{"ID":504212,"DIS_CODE":0,"TOWNNAME":"安平區","LI":"建平里","LIN":"7鄰","STREET":"建平十街","SECT":" ","MAREA":" ","LANE":" ","ALLEY":" ","HOUSE_NO":"１２號","E_COORD97":166384.66,"N_COORD97":2543836.3900000001,"ADDRESS":"建平十街１２號","OBJECTID":504185},"geometry":{"x":166384.66000000015,"y":2543836.3900000025}},{"attributes":{"ID":504213,"DIS_CODE":0,"TOWNNAME":"安平區","LI":"建平里","LIN":"7鄰","STREET":"建平十街","SECT":" ","MAREA":" ","LANE":" ","ALLEY":" ","HOUSE_NO":"２６號","E_COORD97":166352.63,"N_COORD97":2543838.96,"ADDRESS":"建平十街２６號","OBJECTID":504186},"geometry":{"x":166352.63000000175,"y":2543838.9600000046}},{"attributes":{"ID":504214,"DIS_CODE":0,"TOWNNAME":"安平區","LI":"建平里","LIN":"7鄰","STREET":"建平十街","SECT":" ","MAREA":" ","LANE":" ","ALLEY":" ","HOUSE_NO":"２２號","E_COORD97":166357.39000000001,"N_COORD97":2543838.3700000001,"ADDRESS":"建平十街２２號","OBJECTID":504187},"geometry":{"x":166357.38999999873,"y":2543838.370000001}},{"attributes":{"ID":504215,"DIS_CODE":0,"TOWNNAME":"安平區","LI":"建平里","LIN":"7鄰","STREET":"建平十街","SECT":" ","MAREA":" ","LANE":" ","ALLEY":" ","HOUSE_NO":"４７號","E_COORD97":166327.98000000001,"N_COORD97":2543831.6400000001,"ADDRESS":"建平十街４７號","OBJECTID":504188},"geometry":{"x":166327.98000000138,"y":2543831.6400000025}},{"attributes":{"ID":504216,"DIS_CODE":0,"TOWNNAME":"安平區","LI":"建平里","LIN":"7鄰","STREET":"建平十街","SECT":" ","MAREA":" ","LANE":" ","ALLEY":" ","HOUSE_NO":"４９號","E_COORD97":166324.79999999999,"N_COORD97":2543831.9500000002,"ADDRESS":"建平十街４９號","OBJECTID":504189},"geometry":{"x":166324.80000000075,"y":2543831.9500000011}},{"attributes":{"ID":504217,"DIS_CODE":0,"TOWNNAME":"安平區","LI":"華平里","LIN":"7鄰","STREET":"華平路","SECT":" ","MAREA":" ","LANE":" ","ALLEY":" ","HOUSE_NO":"５３５號","E_COORD97":165459.81,"N_COORD97":2543879.1600000001,"ADDRESS":"華平路５３５號","OBJECTID":504190},"geometry":{"x":165459.81000000052,"y":2543879.160000002}},{"attributes":{"ID":504218,"DIS_CODE":0,"TOWNNAME":"鹽水區","LI":"武廟里","LIN":"7鄰","STREET":"武廟路","SECT":" ","MAREA":" ","LANE":" ","ALLEY":" ","HOUSE_NO":"６３號之１","E_COORD97":174897.51000000001,"N_COORD97":2580205.6299999999,"ADDRESS":"武廟路６３號之１","OBJECTID":504191},"geometry":{"x":174897.51000000071,"y":2580205.6300000008}},{"attributes":{"ID":504219,"DIS_CODE":0,"TOWNNAME":"鹽水區","LI":"武廟里","LIN":"7鄰","STREET":"武廟路","SECT":" ","MAREA":" ","LANE":" ","ALLEY":" ","HOUSE_NO":"６３號","E_COORD97":174897.39999999999,"N_COORD97":2580222.9700000002,"ADDRESS":"武廟路６３號","OBJECTID":504192},"geometry":{"x":174897.4000000013,"y":2580222.9700000007}},{"attributes":{"ID":504220,"DIS_CODE":0,"TOWNNAME":"安平區","LI":"建平里","LIN":"7鄰","STREET":"府前四街","SECT":" ","MAREA":" ","LANE":" ","ALLEY":" ","HOUSE_NO":"１１２號","E_COORD97":166470.14000000001,"N_COORD97":2544017.46,"ADDRESS":"府前四街１１２號","OBJECTID":504193},"geometry":{"x":166470.1400000006,"y":2544017.4600000009}},{"attributes":{"ID":504221,"DIS_CODE":0,"TOWNNAME":"安平區","LI":"華平里","LIN":"7鄰","STREET":"華平路","SECT":" ","MAREA":" ","LANE":" ","ALLEY":" ","HOUSE_NO":"５４７號","E_COORD97":165463.95000000001,"N_COORD97":2543921.75,"ADDRESS":"華平路５４７號","OBJECTID":504194},"geometry":{"x":165463.95000000019,"y":2543921.7500000019}},{"attributes":{"ID":504222,"DIS_CODE":0,"TOWNNAME":"安平區","LI":"華平里","LIN":"7鄰","STREET":"華平路","SECT":" ","MAREA":" ","LANE":" ","ALLEY":" ","HOUSE_NO":"６０５號","E_COORD97":165488.22,"N_COORD97":2544078.7200000002,"ADDRESS":"華平路６０５號","OBJECTID":504195},"geometry":{"x":165488.21999999974,"y":2544078.7200000025}},{"attributes":{"ID":504223,"DIS_CODE":0,"TOWNNAME":"新營區","LI":"新北里","LIN":"20鄰","STREET":"金華路","SECT":"一段","MAREA":" ","LANE":" ","ALLEY":" ","HOUSE_NO":"３８２號","E_COORD97":179021.97,"N_COORD97":2579143.29,"ADDRESS":"金華路一段３８２號","OBJECTID":504196},"geometry":{"x":179021.97000000067,"y":2579143.290000001}},{"attributes":{"ID":504224,"DIS_CODE":0,"TOWNNAME":"南區","LI":"竹溪里","LIN":"7鄰","STREET":"健康路","SECT":"一段","MAREA":" ","LANE":" ","ALLEY":" ","HOUSE_NO":"１９５號","E_COORD97":168742.95999999999,"N_COORD97":2542416.3300000001,"ADDRESS":"健康路一段１９５號","OBJECTID":504197},"geometry":{"x":168742.96000000089,"y":2542416.3300000019}},{"attributes":{"ID":504225,"DIS_CODE":0,"TOWNNAME":"南區","LI":"竹溪里","LIN":"7鄰","STREET":"健康路","SECT":"一段","MAREA":" ","LANE":" ","ALLEY":" ","HOUSE_NO":"１９７號","E_COORD97":168737.73000000001,"N_COORD97":2542419.3700000001,"ADDRESS":"健康路一段１９７號","OBJECTID":504198},"geometry":{"x":168737.73000000231,"y":2542419.3700000048}},{"attributes":{"ID":504226,"DIS_CODE":0,"TOWNNAME":"南區","LI":"竹溪里","LIN":"7鄰","STREET":"健康路","SECT":"一段","MAREA":" ","LANE":" ","ALLEY":" ","HOUSE_NO":"１９９號","E_COORD97":168733.59,"N_COORD97":2542417.7200000002,"ADDRESS":"健康路一段１９９號","OBJECTID":504199},"geometry":{"x":168733.59000000078,"y":2542417.7200000025}},{"attributes":{"ID":504227,"DIS_CODE":0,"TOWNNAME":"南區","LI":"竹溪里","LIN":"7鄰","STREET":"健康路","SECT":"一段","MAREA":" ","LANE":" ","ALLEY":" ","HOUSE_NO":"２０１號","E_COORD97":168728.63,"N_COORD97":2542416.0600000001,"ADDRESS":"健康路一段２０１號","OBJECTID":504200},"geometry":{"x":168728.62999999989,"y":2542416.0600000005}}]}