{"displayFieldName":"TOWNNAME","fieldAliases":{"ID":"ID","DIS_CODE":"DIS_CODE","TOWNNAME":"TOWNNAME","LI":"LI","LIN":"LIN","STREET":"STREET","SECT":"SECT","MAREA":"MAREA","LANE":"LANE","ALLEY":"ALLEY","HOUSE_NO":"HOUSE_NO","E_COORD97":"E_COORD97","N_COORD97":"N_COORD97","ADDRESS":"ADDRESS","OBJECTID":"OBJECTID"},"geometryType":"esriGeometryPoint","spatialReference":{"wkid":102443,"latestWkid":3826},"fields":[{"name":"ID","type":"esriFieldTypeDouble","alias":"ID"},{"name":"DIS_CODE","type":"esriFieldTypeInteger","alias":"DIS_CODE"},{"name":"TOWNNAME","type":"esriFieldTypeString","alias":"TOWNNAME","length":8},{"name":"LI","type":"esriFieldTypeString","alias":"LI","length":8},{"name":"LIN","type":"esriFieldTypeString","alias":"LIN","length":12},{"name":"STREET","type":"esriFieldTypeString","alias":"STREET","length":20},{"name":"SECT","type":"esriFieldTypeString","alias":"SECT","length":8},{"name":"MAREA","type":"esriFieldTypeString","alias":"MAREA","length":12},{"name":"LANE","type":"esriFieldTypeString","alias":"LANE","length":10},{"name":"ALLEY","type":"esriFieldTypeString","alias":"ALLEY","length":10},{"name":"HOUSE_NO","type":"esriFieldTypeString","alias":"HOUSE_NO","length":20},{"name":"E_COORD97","type":"esriFieldTypeDouble","alias":"E_COORD97"},{"name":"N_COORD97","type":"esriFieldTypeDouble","alias":"N_COORD97"},{"name":"ADDRESS","type":"esriFieldTypeString","alias":"ADDRESS","length":50},{"name":"OBJECTID","type":"esriFieldTypeOID","alias":"OBJECTID"}],"features":[{"attributes":{"ID":325810,"DIS_CODE":0,"TOWNNAME":"新市區","LI":"社內里","LIN":"21鄰","STREET":" ","SECT":" ","MAREA":"社內","LANE":" ","ALLEY":" ","HOUSE_NO":"２１１之１號","E_COORD97":175708.882598,"N_COORD97":2553176.2415100001,"ADDRESS":"社內２１１之１號","OBJECTID":325801},"geometry":{"x":175708.88259799965,"y":2553176.241506001}},{"attributes":{"ID":325811,"DIS_CODE":0,"TOWNNAME":"仁德區","LI":"新田里","LIN":"18鄰","STREET":"民安路","SECT":"二段","MAREA":" ","LANE":"２１３巷","ALLEY":" ","HOUSE_NO":"１號","E_COORD97":173799.13,"N_COORD97":2538996.8199999998,"ADDRESS":"民安路二段２１３巷１號","OBJECTID":325802},"geometry":{"x":173799.12999999989,"y":2538996.8200000003}},{"attributes":{"ID":325812,"DIS_CODE":0,"TOWNNAME":"仁德區","LI":"新田里","LIN":"4鄰","STREET":"新田路","SECT":" ","MAREA":" ","LANE":"２４０巷","ALLEY":" ","HOUSE_NO":"２之３號","E_COORD97":174532.04000000001,"N_COORD97":2539592.2999999998,"ADDRESS":"新田路２４０巷２之３號","OBJECTID":325803},"geometry":{"x":174532.04000000004,"y":2539592.3000000026}},{"attributes":{"ID":325813,"DIS_CODE":0,"TOWNNAME":"仁德區","LI":"成功里","LIN":"4鄰","STREET":"成功三街","SECT":" ","MAREA":" ","LANE":"８１巷","ALLEY":" ","HOUSE_NO":"２號","E_COORD97":171199.26000000001,"N_COORD97":2539826.27,"ADDRESS":"成功三街８１巷２號","OBJECTID":325804},"geometry":{"x":171199.25999999978,"y":2539826.2700000014}},{"attributes":{"ID":325814,"DIS_CODE":0,"TOWNNAME":"仁德區","LI":"大甲里","LIN":"18鄰","STREET":"行大一街","SECT":" ","MAREA":" ","LANE":"４６７巷","ALLEY":" ","HOUSE_NO":"８號","E_COORD97":169278.28,"N_COORD97":2535229.75,"ADDRESS":"行大一街４６７巷８號","OBJECTID":325805},"geometry":{"x":169278.28000000119,"y":2535229.75}},{"attributes":{"ID":325815,"DIS_CODE":0,"TOWNNAME":"仁德區","LI":"太子里","LIN":"46鄰","STREET":"太子一街","SECT":" ","MAREA":" ","LANE":"２７巷","ALLEY":" ","HOUSE_NO":"１８號","E_COORD97":174865.17999999999,"N_COORD97":2543336.5099999998,"ADDRESS":"太子一街２７巷１８號","OBJECTID":325806},"geometry":{"x":174865.1799999997,"y":2543336.5100000016}},{"attributes":{"ID":325816,"DIS_CODE":0,"TOWNNAME":"永康區","LI":"中華里","LIN":"15鄰","STREET":"忠義街","SECT":" ","MAREA":" ","LANE":"６０巷","ALLEY":" ","HOUSE_NO":"３號十三樓之８","E_COORD97":171786.51999999999,"N_COORD97":2544541.1200000001,"ADDRESS":"忠義街６０巷３號十三樓之８","OBJECTID":325807},"geometry":{"x":171786.52000000048,"y":2544541.1200000029}},{"attributes":{"ID":325817,"DIS_CODE":0,"TOWNNAME":"永康區","LI":"中華里","LIN":"15鄰","STREET":"忠義街","SECT":" ","MAREA":" ","LANE":"６０巷","ALLEY":" ","HOUSE_NO":"１號六樓之９","E_COORD97":171785.20999999999,"N_COORD97":2544541.1200000001,"ADDRESS":"忠義街６０巷１號六樓之９","OBJECTID":325808},"geometry":{"x":171785.20999999903,"y":2544541.1200000029}},{"attributes":{"ID":325818,"DIS_CODE":0,"TOWNNAME":"永康區","LI":"中華里","LIN":"15鄰","STREET":"忠義街","SECT":" ","MAREA":" ","LANE":"６０巷","ALLEY":" ","HOUSE_NO":"３號十三樓之１５","E_COORD97":171787.78,"N_COORD97":2544541.1200000001,"ADDRESS":"忠義街６０巷３號十三樓之１５","OBJECTID":325809},"geometry":{"x":171787.78000000026,"y":2544541.1200000029}},{"attributes":{"ID":325819,"DIS_CODE":0,"TOWNNAME":"歸仁區","LI":"新厝里","LIN":"17鄰","STREET":"中正南路","SECT":"一段","MAREA":" ","LANE":" ","ALLEY":" ","HOUSE_NO":"１３９號","E_COORD97":177479.54999999999,"N_COORD97":2540435.5899999999,"ADDRESS":"中正南路一段１３９號","OBJECTID":325810},"geometry":{"x":177479.54999999981,"y":2540435.5899999999}},{"attributes":{"ID":325820,"DIS_CODE":0,"TOWNNAME":"歸仁區","LI":"新厝里","LIN":"17鄰","STREET":"中正南路","SECT":"一段","MAREA":" ","LANE":" ","ALLEY":" ","HOUSE_NO":"１５１號","E_COORD97":177456.42999999999,"N_COORD97":2540413.2000000002,"ADDRESS":"中正南路一段１５１號","OBJECTID":325811},"geometry":{"x":177456.43000000063,"y":2540413.1999999993}},{"attributes":{"ID":325821,"DIS_CODE":0,"TOWNNAME":"歸仁區","LI":"新厝里","LIN":"17鄰","STREET":"中正南路","SECT":"一段","MAREA":" ","LANE":" ","ALLEY":" ","HOUSE_NO":"１４５號","E_COORD97":177471.25,"N_COORD97":2540427.5899999999,"ADDRESS":"中正南路一段１４５號","OBJECTID":325812},"geometry":{"x":177471.25000000093,"y":2540427.5900000017}},{"attributes":{"ID":325822,"DIS_CODE":0,"TOWNNAME":"歸仁區","LI":"歸南里","LIN":"17鄰","STREET":"民生八街","SECT":" ","MAREA":" ","LANE":" ","ALLEY":" ","HOUSE_NO":"８號","E_COORD97":176159.95999999999,"N_COORD97":2540345.25,"ADDRESS":"民生八街８號","OBJECTID":325813},"geometry":{"x":176159.95999999996,"y":2540345.2500000019}},{"attributes":{"ID":325823,"DIS_CODE":0,"TOWNNAME":"歸仁區","LI":"新厝里","LIN":"17鄰","STREET":"中正南路","SECT":"一段","MAREA":" ","LANE":" ","ALLEY":" ","HOUSE_NO":"１３３號","E_COORD97":177487.75,"N_COORD97":2540444.5899999999,"ADDRESS":"中正南路一段１３３號","OBJECTID":325814},"geometry":{"x":177487.75000000186,"y":2540444.5900000017}},{"attributes":{"ID":325824,"DIS_CODE":0,"TOWNNAME":"歸仁區","LI":"歸南里","LIN":"17鄰","STREET":"民生八街","SECT":" ","MAREA":" ","LANE":" ","ALLEY":" ","HOUSE_NO":"２號","E_COORD97":176168.26000000001,"N_COORD97":2540346.25,"ADDRESS":"民生八街２號","OBJECTID":325815},"geometry":{"x":176168.25999999978,"y":2540346.25}},{"attributes":{"ID":325825,"DIS_CODE":0,"TOWNNAME":"仁德區","LI":"仁和里","LIN":"25鄰","STREET":" ","SECT":" ","MAREA":"仁和","LANE":" ","ALLEY":" ","HOUSE_NO":"５１４號","E_COORD97":170431.03787999999,"N_COORD97":2539772.25,"ADDRESS":"仁和５１４號","OBJECTID":325816},"geometry":{"x":170431.03788000066,"y":2539772.2500000019}},{"attributes":{"ID":325826,"DIS_CODE":0,"TOWNNAME":"仁德區","LI":"保安里","LIN":"5鄰","STREET":"中正路","SECT":"一段","MAREA":" ","LANE":"２００巷","ALLEY":" ","HOUSE_NO":"１４號","E_COORD97":171613.75,"N_COORD97":2535743.7799999998,"ADDRESS":"中正路一段２００巷１４號","OBJECTID":325817},"geometry":{"x":171613.74999999907,"y":2535743.7800000012}},{"attributes":{"ID":325827,"DIS_CODE":0,"TOWNNAME":"仁德區","LI":"後壁里","LIN":"18鄰","STREET":"德南路","SECT":" ","MAREA":" ","LANE":"７０巷","ALLEY":" ","HOUSE_NO":"２７號","E_COORD97":173390.31,"N_COORD97":2538637.77,"ADDRESS":"德南路７０巷２７號","OBJECTID":325818},"geometry":{"x":173390.31000000052,"y":2538637.7699999977}},{"attributes":{"ID":325828,"DIS_CODE":0,"TOWNNAME":"仁德區","LI":"中生里","LIN":"4鄰","STREET":" ","SECT":" ","MAREA":"中洲","LANE":" ","ALLEY":" ","HOUSE_NO":"１２０號之２","E_COORD97":172949.72,"N_COORD97":2534227.5499999998,"ADDRESS":"中洲１２０號之２","OBJECTID":325819},"geometry":{"x":172949.7200000016,"y":2534227.5500000026}},{"attributes":{"ID":325829,"DIS_CODE":0,"TOWNNAME":"仁德區","LI":"成功里","LIN":"25鄰","STREET":"成功一街","SECT":" ","MAREA":" ","LANE":"７０巷","ALLEY":" ","HOUSE_NO":"１０號","E_COORD97":170506.04000000001,"N_COORD97":2539891.77,"ADDRESS":"成功一街７０巷１０號","OBJECTID":325820},"geometry":{"x":170506.04000000004,"y":2539891.7699999996}},{"attributes":{"ID":325830,"DIS_CODE":0,"TOWNNAME":"仁德區","LI":"二行里","LIN":"4鄰","STREET":"二行一路","SECT":" ","MAREA":" ","LANE":"８３巷","ALLEY":" ","HOUSE_NO":"２４號","E_COORD97":170335.57000000001,"N_COORD97":2535366.5,"ADDRESS":"二行一路８３巷２４號","OBJECTID":325821},"geometry":{"x":170335.57000000216,"y":2535366.5000000019}},{"attributes":{"ID":325831,"DIS_CODE":0,"TOWNNAME":"仁德區","LI":"中生里","LIN":"5鄰","STREET":" ","SECT":" ","MAREA":"中洲","LANE":" ","ALLEY":" ","HOUSE_NO":"１２７號之６","E_COORD97":173006.54000000001,"N_COORD97":2534330.0499999998,"ADDRESS":"中洲１２７號之６","OBJECTID":325822},"geometry":{"x":173006.54000000004,"y":2534330.0500000007}},{"attributes":{"ID":325832,"DIS_CODE":0,"TOWNNAME":"仁德區","LI":"田厝里","LIN":"4鄰","STREET":"田厝三街","SECT":" ","MAREA":" ","LANE":"９３巷","ALLEY":" ","HOUSE_NO":"４５號","E_COORD97":172489.17999999999,"N_COORD97":2537512.25,"ADDRESS":"田厝三街９３巷４５號","OBJECTID":325823},"geometry":{"x":172489.18000000063,"y":2537512.25}},{"attributes":{"ID":325833,"DIS_CODE":0,"TOWNNAME":"仁德區","LI":"仁愛里","LIN":"20鄰","STREET":" ","SECT":" ","MAREA":"仁愛","LANE":" ","ALLEY":" ","HOUSE_NO":"４１９號","E_COORD97":170152.043316,"N_COORD97":2540175.2445100001,"ADDRESS":"仁愛４１９號","OBJECTID":325824},"geometry":{"x":170152.04331600107,"y":2540175.2445130013}},{"attributes":{"ID":325834,"DIS_CODE":0,"TOWNNAME":"仁德區","LI":"一甲里","LIN":"5鄰","STREET":"忠義三街","SECT":" ","MAREA":" ","LANE":"８巷","ALLEY":" ","HOUSE_NO":"３號","E_COORD97":173623.67999999999,"N_COORD97":2541663.02,"ADDRESS":"忠義三街８巷３號","OBJECTID":325825},"geometry":{"x":173623.6799999997,"y":2541663.0199999996}},{"attributes":{"ID":325835,"DIS_CODE":0,"TOWNNAME":"仁德區","LI":"後壁里","LIN":"18鄰","STREET":"德南路","SECT":" ","MAREA":" ","LANE":"５４巷","ALLEY":" ","HOUSE_NO":"１４號","E_COORD97":173348.45000000001,"N_COORD97":2538727.2599999998,"ADDRESS":"德南路５４巷１４號","OBJECTID":325826},"geometry":{"x":173348.44999999925,"y":2538727.2600000016}},{"attributes":{"ID":325836,"DIS_CODE":0,"TOWNNAME":"永康區","LI":"中華里","LIN":"15鄰","STREET":"忠義街","SECT":" ","MAREA":" ","LANE":"６０巷","ALLEY":" ","HOUSE_NO":"３號六樓之７","E_COORD97":171785.20000000001,"N_COORD97":2544541.1200000001,"ADDRESS":"忠義街６０巷３號六樓之７","OBJECTID":325827},"geometry":{"x":171785.20000000019,"y":2544541.1200000029}},{"attributes":{"ID":325837,"DIS_CODE":0,"TOWNNAME":"永康區","LI":"中華里","LIN":"15鄰","STREET":"忠義街","SECT":" ","MAREA":" ","LANE":"６０巷","ALLEY":" ","HOUSE_NO":"１號六樓之１３","E_COORD97":171786.47,"N_COORD97":2544541.1200000001,"ADDRESS":"忠義街６０巷１號六樓之１３","OBJECTID":325828},"geometry":{"x":171786.46999999974,"y":2544541.1200000029}},{"attributes":{"ID":325838,"DIS_CODE":0,"TOWNNAME":"永康區","LI":"中華里","LIN":"15鄰","STREET":"忠義街","SECT":" ","MAREA":" ","LANE":"６０巷","ALLEY":" ","HOUSE_NO":"３號六樓之１６","E_COORD97":171786.48000000001,"N_COORD97":2544541.1200000001,"ADDRESS":"忠義街６０巷３號六樓之１６","OBJECTID":325829},"geometry":{"x":171786.48000000138,"y":2544541.1200000029}},{"attributes":{"ID":325839,"DIS_CODE":0,"TOWNNAME":"永康區","LI":"中華里","LIN":"15鄰","STREET":"忠義街","SECT":" ","MAREA":" ","LANE":"６０巷","ALLEY":" ","HOUSE_NO":"３號十一樓之１４","E_COORD97":171787.64999999999,"N_COORD97":2544541.1200000001,"ADDRESS":"忠義街６０巷３號十一樓之１４","OBJECTID":325830},"geometry":{"x":171787.65000000037,"y":2544541.1200000029}},{"attributes":{"ID":325840,"DIS_CODE":0,"TOWNNAME":"永康區","LI":"中華里","LIN":"15鄰","STREET":"忠義街","SECT":" ","MAREA":" ","LANE":"６０巷","ALLEY":" ","HOUSE_NO":"１號十五樓之１","E_COORD97":171786.38,"N_COORD97":2544541.1200000001,"ADDRESS":"忠義街６０巷１號十五樓之１","OBJECTID":325831},"geometry":{"x":171786.38000000082,"y":2544541.1200000029}},{"attributes":{"ID":325841,"DIS_CODE":0,"TOWNNAME":"歸仁區","LI":"媽廟里","LIN":"17鄰","STREET":"中正北路","SECT":"三段","MAREA":" ","LANE":" ","ALLEY":" ","HOUSE_NO":"１５６號","E_COORD97":177619.35999999999,"N_COORD97":2543880.71,"ADDRESS":"中正北路三段１５６號","OBJECTID":325832},"geometry":{"x":177619.36000000034,"y":2543880.7100000009}},{"attributes":{"ID":325842,"DIS_CODE":0,"TOWNNAME":"歸仁區","LI":"歸南里","LIN":"17鄰","STREET":"民生八街","SECT":" ","MAREA":" ","LANE":" ","ALLEY":" ","HOUSE_NO":"１４號","E_COORD97":176147.91,"N_COORD97":2540345.25,"ADDRESS":"民生八街１４號","OBJECTID":325833},"geometry":{"x":176147.91000000108,"y":2540345.2500000019}},{"attributes":{"ID":325843,"DIS_CODE":0,"TOWNNAME":"歸仁區","LI":"歸南里","LIN":"17鄰","STREET":"民生八街","SECT":" ","MAREA":" ","LANE":" ","ALLEY":" ","HOUSE_NO":"１０號","E_COORD97":176157.20999999999,"N_COORD97":2540345.25,"ADDRESS":"民生八街１０號","OBJECTID":325834},"geometry":{"x":176157.21000000183,"y":2540345.2500000019}},{"attributes":{"ID":325844,"DIS_CODE":0,"TOWNNAME":"歸仁區","LI":"歸南里","LIN":"17鄰","STREET":"民生八街","SECT":" ","MAREA":" ","LANE":" ","ALLEY":" ","HOUSE_NO":"１６號","E_COORD97":176143.81,"N_COORD97":2540345.25,"ADDRESS":"民生八街１６號","OBJECTID":325835},"geometry":{"x":176143.80999999959,"y":2540345.2500000019}},{"attributes":{"ID":325845,"DIS_CODE":0,"TOWNNAME":"歸仁區","LI":"新厝里","LIN":"17鄰","STREET":"中正南路","SECT":"一段","MAREA":" ","LANE":" ","ALLEY":" ","HOUSE_NO":"１４３號","E_COORD97":177473.35000000001,"N_COORD97":2540430.5899999999,"ADDRESS":"中正南路一段１４３號","OBJECTID":325836},"geometry":{"x":177473.35000000056,"y":2540430.5900000017}},{"attributes":{"ID":325846,"DIS_CODE":0,"TOWNNAME":"歸仁區","LI":"新厝里","LIN":"17鄰","STREET":"中正南路","SECT":"一段","MAREA":" ","LANE":" ","ALLEY":" ","HOUSE_NO":"１４１號","E_COORD97":177476.45000000001,"N_COORD97":2540433.5899999999,"ADDRESS":"中正南路一段１４１號","OBJECTID":325837},"geometry":{"x":177476.45000000205,"y":2540433.5900000017}},{"attributes":{"ID":325847,"DIS_CODE":0,"TOWNNAME":"歸仁區","LI":"歸仁里","LIN":"17鄰","STREET":"大仁街","SECT":" ","MAREA":" ","LANE":" ","ALLEY":" ","HOUSE_NO":"８５號","E_COORD97":178043.26000000001,"N_COORD97":2540902.6600000001,"ADDRESS":"大仁街８５號","OBJECTID":325838},"geometry":{"x":178043.25999999978,"y":2540902.6600000001}},{"attributes":{"ID":325848,"DIS_CODE":0,"TOWNNAME":"仁德區","LI":"後壁里","LIN":"32鄰","STREET":"德洋路","SECT":" ","MAREA":" ","LANE":"２０５巷","ALLEY":" ","HOUSE_NO":"１８號","E_COORD97":172452.04000000001,"N_COORD97":2539519.2599999998,"ADDRESS":"德洋路２０５巷１８號","OBJECTID":325839},"geometry":{"x":172452.04000000004,"y":2539519.2599999998}},{"attributes":{"ID":325849,"DIS_CODE":0,"TOWNNAME":"仁德區","LI":"後壁里","LIN":"4鄰","STREET":"德善一街","SECT":" ","MAREA":" ","LANE":"２７巷","ALLEY":" ","HOUSE_NO":"１８號","E_COORD97":173399.57999999999,"N_COORD97":2539001.5099999998,"ADDRESS":"德善一街２７巷１８號","OBJECTID":325840},"geometry":{"x":173399.58000000007,"y":2539001.5099999998}},{"attributes":{"ID":325850,"DIS_CODE":0,"TOWNNAME":"仁德區","LI":"上崙里","LIN":"4鄰","STREET":"德崙路","SECT":" ","MAREA":" ","LANE":"２９１巷","ALLEY":" ","HOUSE_NO":"４６號","E_COORD97":173859.91,"N_COORD97":2538247.27,"ADDRESS":"德崙路２９１巷４６號","OBJECTID":325841},"geometry":{"x":173859.91000000015,"y":2538247.2699999996}},{"attributes":{"ID":325851,"DIS_CODE":0,"TOWNNAME":"仁德區","LI":"上崙里","LIN":"26鄰","STREET":"中正路","SECT":"一段","MAREA":" ","LANE":"７６６巷","ALLEY":" ","HOUSE_NO":"４２號","E_COORD97":172969.67999999999,"N_COORD97":2537702.02,"ADDRESS":"中正路一段７６６巷４２號","OBJECTID":325842},"geometry":{"x":172969.6799999997,"y":2537702.0200000014}},{"attributes":{"ID":325852,"DIS_CODE":0,"TOWNNAME":"仁德區","LI":"上崙里","LIN":"4鄰","STREET":"德崙路","SECT":" ","MAREA":" ","LANE":"２９１巷","ALLEY":" ","HOUSE_NO":"７２號","E_COORD97":173853.01000000001,"N_COORD97":2538300.2599999998,"ADDRESS":"德崙路２９１巷７２號","OBJECTID":325843},"geometry":{"x":173853.01000000164,"y":2538300.2600000016}},{"attributes":{"ID":325853,"DIS_CODE":0,"TOWNNAME":"仁德區","LI":"二行里","LIN":"4鄰","STREET":"二行一路","SECT":" ","MAREA":" ","LANE":"８３巷","ALLEY":" ","HOUSE_NO":"３０號","E_COORD97":170322.63,"N_COORD97":2535369.75,"ADDRESS":"二行一路８３巷３０號","OBJECTID":325844},"geometry":{"x":170322.62999999989,"y":2535369.75}},{"attributes":{"ID":325854,"DIS_CODE":0,"TOWNNAME":"仁德區","LI":"仁愛里","LIN":"5鄰","STREET":" ","SECT":" ","MAREA":"仁愛","LANE":" ","ALLEY":" ","HOUSE_NO":"８６號","E_COORD97":170314.46333,"N_COORD97":2539851.5249999999,"ADDRESS":"仁愛８６號","OBJECTID":325845},"geometry":{"x":170314.46332999878,"y":2539851.5250000004}},{"attributes":{"ID":325855,"DIS_CODE":0,"TOWNNAME":"仁德區","LI":"仁愛里","LIN":"5鄰","STREET":" ","SECT":" ","MAREA":"仁愛","LANE":" ","ALLEY":" ","HOUSE_NO":"９０號","E_COORD97":170339.88591099999,"N_COORD97":2539851.5249999999,"ADDRESS":"仁愛９０號","OBJECTID":325846},"geometry":{"x":170339.88591100182,"y":2539851.5250000004}},{"attributes":{"ID":325856,"DIS_CODE":0,"TOWNNAME":"仁德區","LI":"三甲里","LIN":"5鄰","STREET":" ","SECT":" ","MAREA":"三甲子","LANE":" ","ALLEY":" ","HOUSE_NO":"４６號之５","E_COORD97":171844.76000000001,"N_COORD97":2536690.2999999998,"ADDRESS":"三甲子４６號之５","OBJECTID":325847},"geometry":{"x":171844.76000000071,"y":2536690.3000000026}},{"attributes":{"ID":325857,"DIS_CODE":0,"TOWNNAME":"仁德區","LI":"二行里","LIN":"4鄰","STREET":"二行一路","SECT":" ","MAREA":" ","LANE":"８３巷","ALLEY":" ","HOUSE_NO":"３８號","E_COORD97":170306.70999999999,"N_COORD97":2535372.7400000002,"ADDRESS":"二行一路８３巷３８號","OBJECTID":325848},"geometry":{"x":170306.70999999996,"y":2535372.7400000002}},{"attributes":{"ID":325858,"DIS_CODE":0,"TOWNNAME":"仁德區","LI":"三甲里","LIN":"4鄰","STREET":" ","SECT":" ","MAREA":"三甲子","LANE":" ","ALLEY":" ","HOUSE_NO":"３５號","E_COORD97":171830.03,"N_COORD97":2536803,"ADDRESS":"三甲子３５號","OBJECTID":325849},"geometry":{"x":171830.03000000119,"y":2536803.0000000037}},{"attributes":{"ID":325859,"DIS_CODE":0,"TOWNNAME":"仁德區","LI":"仁義里","LIN":"26鄰","STREET":"中山路","SECT":" ","MAREA":" ","LANE":" ","ALLEY":" ","HOUSE_NO":"５３６號","E_COORD97":173400.76999999999,"N_COORD97":2541333.5,"ADDRESS":"中山路５３６號","OBJECTID":325850},"geometry":{"x":173400.77000000048,"y":2541333.5000000019}},{"attributes":{"ID":325860,"DIS_CODE":0,"TOWNNAME":"仁德區","LI":"仁和里","LIN":"26鄰","STREET":" ","SECT":" ","MAREA":"仁和","LANE":" ","ALLEY":" ","HOUSE_NO":"５２４號","E_COORD97":170464.831886,"N_COORD97":2539781.25,"ADDRESS":"仁和５２４號","OBJECTID":325851},"geometry":{"x":170464.831886,"y":2539781.2500000037}},{"attributes":{"ID":325861,"DIS_CODE":0,"TOWNNAME":"仁德區","LI":"仁德里","LIN":"24鄰","STREET":"文孝路","SECT":" ","MAREA":" ","LANE":" ","ALLEY":" ","HOUSE_NO":"３號","E_COORD97":172128.34,"N_COORD97":2541362.3300000001,"ADDRESS":"文孝路３號","OBJECTID":325852},"geometry":{"x":172128.33999999892,"y":2541362.3300000019}},{"attributes":{"ID":325862,"DIS_CODE":0,"TOWNNAME":"仁德區","LI":"仁德里","LIN":"34鄰","STREET":"中山路","SECT":" ","MAREA":" ","LANE":" ","ALLEY":" ","HOUSE_NO":"７４０號","E_COORD97":172719.20999999999,"N_COORD97":2541522.7400000002,"ADDRESS":"中山路７４０號","OBJECTID":325853},"geometry":{"x":172719.20999999996,"y":2541522.7400000002}},{"attributes":{"ID":325863,"DIS_CODE":0,"TOWNNAME":"仁德區","LI":"田厝里","LIN":"4鄰","STREET":"保安路","SECT":"二段","MAREA":" ","LANE":" ","ALLEY":" ","HOUSE_NO":"３５０號","E_COORD97":172054.57999999999,"N_COORD97":2537322.0699999998,"ADDRESS":"保安路二段３５０號","OBJECTID":325854},"geometry":{"x":172054.58000000101,"y":2537322.0700000022}},{"attributes":{"ID":325864,"DIS_CODE":0,"TOWNNAME":"仁德區","LI":"太子里","LIN":"38鄰","STREET":"長興一街","SECT":" ","MAREA":" ","LANE":" ","ALLEY":" ","HOUSE_NO":"１０１號","E_COORD97":174201.48999999999,"N_COORD97":2543849.5099999998,"ADDRESS":"長興一街１０１號","OBJECTID":325855},"geometry":{"x":174201.49000000115,"y":2543849.5099999998}},{"attributes":{"ID":325865,"DIS_CODE":0,"TOWNNAME":"仁德區","LI":"太子里","LIN":"26鄰","STREET":"太子路","SECT":" ","MAREA":" ","LANE":" ","ALLEY":" ","HOUSE_NO":"４１０號","E_COORD97":173599.42999999999,"N_COORD97":2543548.0099999998,"ADDRESS":"太子路４１０號","OBJECTID":325856},"geometry":{"x":173599.43000000063,"y":2543548.0099999998}},{"attributes":{"ID":325866,"DIS_CODE":0,"TOWNNAME":"仁德區","LI":"仁德里","LIN":"39鄰","STREET":"文宏一街","SECT":" ","MAREA":" ","LANE":" ","ALLEY":" ","HOUSE_NO":"５３號","E_COORD97":172462.32000000001,"N_COORD97":2541811.5699999998,"ADDRESS":"文宏一街５３號","OBJECTID":325857},"geometry":{"x":172462.3200000003,"y":2541811.5700000022}},{"attributes":{"ID":325867,"DIS_CODE":0,"TOWNNAME":"仁德區","LI":"仁德里","LIN":"4鄰","STREET":"中正路","SECT":"二段","MAREA":" ","LANE":" ","ALLEY":" ","HOUSE_NO":"８３７號","E_COORD97":173435.62,"N_COORD97":2540495.02,"ADDRESS":"中正路二段８３７號","OBJECTID":325858},"geometry":{"x":173435.62000000197,"y":2540495.0200000014}},{"attributes":{"ID":325868,"DIS_CODE":0,"TOWNNAME":"仁德區","LI":"新田里","LIN":"4鄰","STREET":"勝利一街","SECT":" ","MAREA":" ","LANE":" ","ALLEY":" ","HOUSE_NO":"４１號","E_COORD97":174097.72,"N_COORD97":2539416.25,"ADDRESS":"勝利一街４１號","OBJECTID":325859},"geometry":{"x":174097.72000000067,"y":2539416.2500000019}},{"attributes":{"ID":325869,"DIS_CODE":0,"TOWNNAME":"仁德區","LI":"中洲里","LIN":"1鄰","STREET":" ","SECT":" ","MAREA":"中洲","LANE":" ","ALLEY":" ","HOUSE_NO":"１號之５７","E_COORD97":173867.29000000001,"N_COORD97":2534698.79,"ADDRESS":"中洲１號之５７","OBJECTID":325860},"geometry":{"x":173867.29000000097,"y":2534698.790000001}},{"attributes":{"ID":325870,"DIS_CODE":0,"TOWNNAME":"仁德區","LI":"三甲里","LIN":"4鄰","STREET":" ","SECT":" ","MAREA":"三甲子","LANE":" ","ALLEY":" ","HOUSE_NO":"３３號之２","E_COORD97":171829.94,"N_COORD97":2536829.79,"ADDRESS":"三甲子３３號之２","OBJECTID":325861},"geometry":{"x":171829.94000000227,"y":2536829.7899999991}},{"attributes":{"ID":325871,"DIS_CODE":0,"TOWNNAME":"仁德區","LI":"仁義里","LIN":"39鄰","STREET":"仁義五街","SECT":" ","MAREA":" ","LANE":"２４巷","ALLEY":" ","HOUSE_NO":"７號","E_COORD97":173555.04999999999,"N_COORD97":2540383.2599999998,"ADDRESS":"仁義五街２４巷７號","OBJECTID":325862},"geometry":{"x":173555.05000000075,"y":2540383.2599999998}},{"attributes":{"ID":325872,"DIS_CODE":0,"TOWNNAME":"仁德區","LI":"二行里","LIN":"4鄰","STREET":"二行一路","SECT":" ","MAREA":" ","LANE":"８３巷","ALLEY":" ","HOUSE_NO":"２６號","E_COORD97":170330.23000000001,"N_COORD97":2535367.75,"ADDRESS":"二行一路８３巷２６號","OBJECTID":325863},"geometry":{"x":170330.23000000138,"y":2535367.7500000019}},{"attributes":{"ID":325873,"DIS_CODE":0,"TOWNNAME":"仁德區","LI":"成功里","LIN":"26鄰","STREET":"成功一街","SECT":" ","MAREA":" ","LANE":"４４巷","ALLEY":" ","HOUSE_NO":"５號","E_COORD97":170502.79000000001,"N_COORD97":2540014.52,"ADDRESS":"成功一街４４巷５號","OBJECTID":325864},"geometry":{"x":170502.79000000004,"y":2540014.5199999996}},{"attributes":{"ID":325874,"DIS_CODE":0,"TOWNNAME":"永康區","LI":"中華里","LIN":"15鄰","STREET":"忠義街","SECT":" ","MAREA":" ","LANE":"６０巷","ALLEY":" ","HOUSE_NO":"１號十三樓之１４","E_COORD97":171787.64999999999,"N_COORD97":2544541.1200000001,"ADDRESS":"忠義街６０巷１號十三樓之１４","OBJECTID":325865},"geometry":{"x":171787.65000000037,"y":2544541.1200000029}},{"attributes":{"ID":325875,"DIS_CODE":0,"TOWNNAME":"永康區","LI":"中華里","LIN":"15鄰","STREET":"忠義街","SECT":" ","MAREA":" ","LANE":"６０巷","ALLEY":" ","HOUSE_NO":"３號十三樓之７","E_COORD97":171786.45000000001,"N_COORD97":2544541.1200000001,"ADDRESS":"忠義街６０巷３號十三樓之７","OBJECTID":325866},"geometry":{"x":171786.45000000112,"y":2544541.1200000029}},{"attributes":{"ID":325876,"DIS_CODE":0,"TOWNNAME":"永康區","LI":"中華里","LIN":"15鄰","STREET":"忠義街","SECT":" ","MAREA":" ","LANE":"６０巷","ALLEY":" ","HOUSE_NO":"１號七樓之９","E_COORD97":171785.20999999999,"N_COORD97":2544541.1200000001,"ADDRESS":"忠義街６０巷１號七樓之９","OBJECTID":325867},"geometry":{"x":171785.20999999903,"y":2544541.1200000029}},{"attributes":{"ID":325877,"DIS_CODE":0,"TOWNNAME":"永康區","LI":"中華里","LIN":"15鄰","STREET":"忠義街","SECT":" ","MAREA":" ","LANE":"６０巷","ALLEY":" ","HOUSE_NO":"１號十樓之４","E_COORD97":171785.14999999999,"N_COORD97":2544541.1200000001,"ADDRESS":"忠義街６０巷１號十樓之４","OBJECTID":325868},"geometry":{"x":171785.1500000013,"y":2544541.1200000029}},{"attributes":{"ID":325878,"DIS_CODE":0,"TOWNNAME":"永康區","LI":"中華里","LIN":"15鄰","STREET":"忠義街","SECT":" ","MAREA":" ","LANE":"６０巷","ALLEY":" ","HOUSE_NO":"１號九樓之４","E_COORD97":171785.14999999999,"N_COORD97":2544541.1200000001,"ADDRESS":"忠義街６０巷１號九樓之４","OBJECTID":325869},"geometry":{"x":171785.1500000013,"y":2544541.1200000029}},{"attributes":{"ID":325879,"DIS_CODE":0,"TOWNNAME":"東區","LI":"崇學里","LIN":"15鄰","STREET":"崇學路","SECT":" ","MAREA":" ","LANE":"２０巷","ALLEY":" ","HOUSE_NO":"２號七樓","E_COORD97":170164.98000000001,"N_COORD97":2542003.2999999998,"ADDRESS":"崇學路２０巷２號七樓","OBJECTID":325870},"geometry":{"x":170164.97999999952,"y":2542003.3000000026}},{"attributes":{"ID":325880,"DIS_CODE":0,"TOWNNAME":"北區","LI":"三德里","LIN":"13鄰","STREET":"成功路","SECT":" ","MAREA":" ","LANE":"２２０巷","ALLEY":" ","HOUSE_NO":"６１之２號","E_COORD97":168419.87,"N_COORD97":2544460.8900000001,"ADDRESS":"成功路２２０巷６１之２號","OBJECTID":325871},"geometry":{"x":168419.87000000104,"y":2544460.8900000025}},{"attributes":{"ID":325881,"DIS_CODE":0,"TOWNNAME":"東區","LI":"崇學里","LIN":"15鄰","STREET":"崇學路","SECT":" ","MAREA":" ","LANE":"２０巷","ALLEY":" ","HOUSE_NO":"２號七樓之１","E_COORD97":170164.98000000001,"N_COORD97":2542003.2999999998,"ADDRESS":"崇學路２０巷２號七樓之１","OBJECTID":325872},"geometry":{"x":170164.97999999952,"y":2542003.3000000026}},{"attributes":{"ID":325882,"DIS_CODE":0,"TOWNNAME":"東區","LI":"崇學里","LIN":"15鄰","STREET":"崇學路","SECT":" ","MAREA":" ","LANE":"２０巷","ALLEY":" ","HOUSE_NO":"２號七樓之２","E_COORD97":170164.98000000001,"N_COORD97":2542003.2999999998,"ADDRESS":"崇學路２０巷２號七樓之２","OBJECTID":325873},"geometry":{"x":170164.97999999952,"y":2542003.3000000026}},{"attributes":{"ID":325883,"DIS_CODE":0,"TOWNNAME":"東區","LI":"崇學里","LIN":"15鄰","STREET":"崇學路","SECT":" ","MAREA":" ","LANE":"２０巷","ALLEY":" ","HOUSE_NO":"２號七樓之４","E_COORD97":170164.98000000001,"N_COORD97":2542003.2999999998,"ADDRESS":"崇學路２０巷２號七樓之４","OBJECTID":325874},"geometry":{"x":170164.97999999952,"y":2542003.3000000026}},{"attributes":{"ID":325884,"DIS_CODE":0,"TOWNNAME":"歸仁區","LI":"歸南里","LIN":"17鄰","STREET":"民生八街","SECT":" ","MAREA":" ","LANE":" ","ALLEY":" ","HOUSE_NO":"１８號","E_COORD97":176139.70999999999,"N_COORD97":2540345.25,"ADDRESS":"民生八街１８號","OBJECTID":325875},"geometry":{"x":176139.70999999996,"y":2540345.2500000019}},{"attributes":{"ID":325885,"DIS_CODE":0,"TOWNNAME":"歸仁區","LI":"歸南里","LIN":"17鄰","STREET":"民生南街","SECT":"二段","MAREA":" ","LANE":" ","ALLEY":" ","HOUSE_NO":"８２號","E_COORD97":176204.01000000001,"N_COORD97":2540383.2400000002,"ADDRESS":"民生南街二段８２號","OBJECTID":325876},"geometry":{"x":176204.00999999885,"y":2540383.2400000021}},{"attributes":{"ID":325886,"DIS_CODE":0,"TOWNNAME":"歸仁區","LI":"歸南里","LIN":"17鄰","STREET":"民生南街","SECT":"二段","MAREA":" ","LANE":" ","ALLEY":" ","HOUSE_NO":"９８號","E_COORD97":176191.51000000001,"N_COORD97":2540350.25,"ADDRESS":"民生南街二段９８號","OBJECTID":325877},"geometry":{"x":176191.50999999978,"y":2540350.25}},{"attributes":{"ID":325887,"DIS_CODE":0,"TOWNNAME":"仁德區","LI":"三甲里","LIN":"4鄰","STREET":" ","SECT":" ","MAREA":"三甲子","LANE":" ","ALLEY":" ","HOUSE_NO":"３７之９號","E_COORD97":171762.14000000001,"N_COORD97":2536817.7999999998,"ADDRESS":"三甲子３７之９號","OBJECTID":325878},"geometry":{"x":171762.1400000006,"y":2536817.8000000007}},{"attributes":{"ID":325888,"DIS_CODE":0,"TOWNNAME":"仁德區","LI":"三甲里","LIN":"4鄰","STREET":" ","SECT":" ","MAREA":"三甲子","LANE":" ","ALLEY":" ","HOUSE_NO":"３３之７號","E_COORD97":171805.20999999999,"N_COORD97":2536825.29,"ADDRESS":"三甲子３３之７號","OBJECTID":325879},"geometry":{"x":171805.20999999996,"y":2536825.2899999991}},{"attributes":{"ID":325889,"DIS_CODE":0,"TOWNNAME":"仁德區","LI":"二行里","LIN":"8鄰","STREET":"行大一街","SECT":" ","MAREA":" ","LANE":"９９巷","ALLEY":" ","HOUSE_NO":"１號","E_COORD97":170149.14999999999,"N_COORD97":2535051.5,"ADDRESS":"行大一街９９巷１號","OBJECTID":325880},"geometry":{"x":170149.1500000013,"y":2535051.5000000019}},{"attributes":{"ID":325890,"DIS_CODE":0,"TOWNNAME":"仁德區","LI":"一甲里","LIN":"15鄰","STREET":"忠義路","SECT":" ","MAREA":" ","LANE":"４９巷","ALLEY":" ","HOUSE_NO":"３６號","E_COORD97":174378.35000000001,"N_COORD97":2541630.7599999998,"ADDRESS":"忠義路４９巷３６號","OBJECTID":325881},"geometry":{"x":174378.35000000056,"y":2541630.7599999998}},{"attributes":{"ID":325891,"DIS_CODE":0,"TOWNNAME":"仁德區","LI":"一甲里","LIN":"4鄰","STREET":"中正路","SECT":"三段","MAREA":" ","LANE":"１６２巷","ALLEY":" ","HOUSE_NO":"４０號","E_COORD97":173542.67000000001,"N_COORD97":2541742.9900000002,"ADDRESS":"中正路三段１６２巷４０號","OBJECTID":325882},"geometry":{"x":173542.66999999993,"y":2541742.9900000039}},{"attributes":{"ID":325892,"DIS_CODE":0,"TOWNNAME":"仁德區","LI":"上崙里","LIN":"20鄰","STREET":"崑崙路","SECT":" ","MAREA":" ","LANE":"４９６巷","ALLEY":" ","HOUSE_NO":"１０６號","E_COORD97":173843.66,"N_COORD97":2537382.9900000002,"ADDRESS":"崑崙路４９６巷１０６號","OBJECTID":325883},"geometry":{"x":173843.65999999922,"y":2537382.9900000039}},{"attributes":{"ID":325893,"DIS_CODE":0,"TOWNNAME":"仁德區","LI":"上崙里","LIN":"20鄰","STREET":"上崙街","SECT":" ","MAREA":" ","LANE":"１６１巷","ALLEY":" ","HOUSE_NO":"２６號","E_COORD97":173596.64999999999,"N_COORD97":2537795.2400000002,"ADDRESS":"上崙街１６１巷２６號","OBJECTID":325884},"geometry":{"x":173596.65000000224,"y":2537795.2400000021}},{"attributes":{"ID":325894,"DIS_CODE":0,"TOWNNAME":"仁德區","LI":"二行里","LIN":"4鄰","STREET":"二行一路","SECT":" ","MAREA":" ","LANE":"８３巷","ALLEY":" ","HOUSE_NO":"２７號","E_COORD97":170307.32000000001,"N_COORD97":2535362,"ADDRESS":"二行一路８３巷２７號","OBJECTID":325885},"geometry":{"x":170307.32000000123,"y":2535362.0000000037}},{"attributes":{"ID":325895,"DIS_CODE":0,"TOWNNAME":"東區","LI":"崇學里","LIN":"15鄰","STREET":"崇學路","SECT":" ","MAREA":" ","LANE":"２０巷","ALLEY":" ","HOUSE_NO":"２號九樓","E_COORD97":170164.98000000001,"N_COORD97":2542003.2999999998,"ADDRESS":"崇學路２０巷２號九樓","OBJECTID":325886},"geometry":{"x":170164.97999999952,"y":2542003.3000000026}},{"attributes":{"ID":325896,"DIS_CODE":0,"TOWNNAME":"東區","LI":"崇學里","LIN":"15鄰","STREET":"崇學路","SECT":" ","MAREA":" ","LANE":"２０巷","ALLEY":" ","HOUSE_NO":"２號九樓之１","E_COORD97":170164.98000000001,"N_COORD97":2542003.2999999998,"ADDRESS":"崇學路２０巷２號九樓之１","OBJECTID":325887},"geometry":{"x":170164.97999999952,"y":2542003.3000000026}},{"attributes":{"ID":325897,"DIS_CODE":0,"TOWNNAME":"東區","LI":"崇學里","LIN":"15鄰","STREET":"崇學路","SECT":" ","MAREA":" ","LANE":"２０巷","ALLEY":" ","HOUSE_NO":"２號九樓之２","E_COORD97":170164.98000000001,"N_COORD97":2542003.2999999998,"ADDRESS":"崇學路２０巷２號九樓之２","OBJECTID":325888},"geometry":{"x":170164.97999999952,"y":2542003.3000000026}},{"attributes":{"ID":325898,"DIS_CODE":0,"TOWNNAME":"東區","LI":"崇學里","LIN":"15鄰","STREET":"崇學路","SECT":" ","MAREA":" ","LANE":"２０巷","ALLEY":" ","HOUSE_NO":"２號九樓之３","E_COORD97":170164.98000000001,"N_COORD97":2542003.2999999998,"ADDRESS":"崇學路２０巷２號九樓之３","OBJECTID":325889},"geometry":{"x":170164.97999999952,"y":2542003.3000000026}},{"attributes":{"ID":325899,"DIS_CODE":0,"TOWNNAME":"東區","LI":"崇學里","LIN":"15鄰","STREET":"崇學路","SECT":" ","MAREA":" ","LANE":"２０巷","ALLEY":" ","HOUSE_NO":"２號九樓之４","E_COORD97":170164.98000000001,"N_COORD97":2542003.2999999998,"ADDRESS":"崇學路２０巷２號九樓之４","OBJECTID":325890},"geometry":{"x":170164.97999999952,"y":2542003.3000000026}},{"attributes":{"ID":325900,"DIS_CODE":0,"TOWNNAME":"東區","LI":"崇學里","LIN":"15鄰","STREET":"崇學路","SECT":" ","MAREA":" ","LANE":"２０巷","ALLEY":" ","HOUSE_NO":"２號二十一樓","E_COORD97":170164.98000000001,"N_COORD97":2542003.2999999998,"ADDRESS":"崇學路２０巷２號二十一樓","OBJECTID":325891},"geometry":{"x":170164.97999999952,"y":2542003.3000000026}},{"attributes":{"ID":325901,"DIS_CODE":0,"TOWNNAME":"東區","LI":"崇學里","LIN":"15鄰","STREET":"崇學路","SECT":" ","MAREA":" ","LANE":"２０巷","ALLEY":" ","HOUSE_NO":"２號二十一樓之１","E_COORD97":170164.98000000001,"N_COORD97":2542003.2999999998,"ADDRESS":"崇學路２０巷２號二十一樓之１","OBJECTID":325892},"geometry":{"x":170164.97999999952,"y":2542003.3000000026}},{"attributes":{"ID":325902,"DIS_CODE":0,"TOWNNAME":"歸仁區","LI":"歸南里","LIN":"17鄰","STREET":"民生南街","SECT":"二段","MAREA":" ","LANE":" ","ALLEY":" ","HOUSE_NO":"９２號","E_COORD97":176195.70999999999,"N_COORD97":2540363.25,"ADDRESS":"民生南街二段９２號","OBJECTID":325893},"geometry":{"x":176195.70999999996,"y":2540363.25}},{"attributes":{"ID":325903,"DIS_CODE":0,"TOWNNAME":"歸仁區","LI":"歸南里","LIN":"17鄰","STREET":"民生南街","SECT":"二段","MAREA":" ","LANE":" ","ALLEY":" ","HOUSE_NO":"９０號","E_COORD97":176196.70999999999,"N_COORD97":2540366.25,"ADDRESS":"民生南街二段９０號","OBJECTID":325894},"geometry":{"x":176196.71000000089,"y":2540366.25}},{"attributes":{"ID":325904,"DIS_CODE":0,"TOWNNAME":"歸仁區","LI":"歸南里","LIN":"17鄰","STREET":"民生南街","SECT":"二段","MAREA":" ","LANE":" ","ALLEY":" ","HOUSE_NO":"１００號","E_COORD97":176190.76000000001,"N_COORD97":2540347.25,"ADDRESS":"民生南街二段１００號","OBJECTID":325895},"geometry":{"x":176190.76000000071,"y":2540347.2500000037}},{"attributes":{"ID":325905,"DIS_CODE":0,"TOWNNAME":"歸仁區","LI":"媽廟里","LIN":"17鄰","STREET":"中正北路","SECT":"三段","MAREA":" ","LANE":" ","ALLEY":" ","HOUSE_NO":"１３８號","E_COORD97":177613.06,"N_COORD97":2543853.7200000002,"ADDRESS":"中正北路三段１３８號","OBJECTID":325896},"geometry":{"x":177613.06000000052,"y":2543853.7199999988}},{"attributes":{"ID":325906,"DIS_CODE":0,"TOWNNAME":"歸仁區","LI":"媽廟里","LIN":"17鄰","STREET":"中正北路","SECT":"三段","MAREA":" ","LANE":" ","ALLEY":" ","HOUSE_NO":"１３６號","E_COORD97":177615.06,"N_COORD97":2543845.7200000002,"ADDRESS":"中正北路三段１３６號","OBJECTID":325897},"geometry":{"x":177615.05999999959,"y":2543845.7200000007}},{"attributes":{"ID":325907,"DIS_CODE":0,"TOWNNAME":"歸仁區","LI":"歸仁里","LIN":"17鄰","STREET":"大仁街","SECT":" ","MAREA":" ","LANE":" ","ALLEY":" ","HOUSE_NO":"９７號","E_COORD97":178076.76000000001,"N_COORD97":2540938.6800000002,"ADDRESS":"大仁街９７號","OBJECTID":325898},"geometry":{"x":178076.75999999978,"y":2540938.6800000016}},{"attributes":{"ID":325908,"DIS_CODE":0,"TOWNNAME":"仁德區","LI":"三甲里","LIN":"4鄰","STREET":" ","SECT":" ","MAREA":"三甲子","LANE":" ","ALLEY":" ","HOUSE_NO":"４１號","E_COORD97":171840.70999999999,"N_COORD97":2536780.5,"ADDRESS":"三甲子４１號","OBJECTID":325899},"geometry":{"x":171840.70999999996,"y":2536780.5000000019}},{"attributes":{"ID":325909,"DIS_CODE":0,"TOWNNAME":"仁德區","LI":"上崙里","LIN":"24鄰","STREET":"中正路","SECT":"一段","MAREA":" ","LANE":"７６６巷","ALLEY":" ","HOUSE_NO":"７號","E_COORD97":172985.51000000001,"N_COORD97":2537845.0299999998,"ADDRESS":"中正路一段７６６巷７號","OBJECTID":325900},"geometry":{"x":172985.51000000071,"y":2537845.0299999993}},{"attributes":{"ID":325910,"DIS_CODE":0,"TOWNNAME":"仁德區","LI":"二行里","LIN":"14鄰","STREET":"中正西路","SECT":" ","MAREA":" ","LANE":"３５３巷","ALLEY":" ","HOUSE_NO":"４０號","E_COORD97":169849.17999999999,"N_COORD97":2535334.5,"ADDRESS":"中正西路３５３巷４０號","OBJECTID":325901},"geometry":{"x":169849.1799999997,"y":2535334.4999999981}},{"attributes":{"ID":325911,"DIS_CODE":0,"TOWNNAME":"仁德區","LI":"一甲里","LIN":"4鄰","STREET":"中正路","SECT":"三段","MAREA":" ","LANE":"１６２巷","ALLEY":" ","HOUSE_NO":"３８號","E_COORD97":173538.82000000001,"N_COORD97":2541744.4900000002,"ADDRESS":"中正路三段１６２巷３８號","OBJECTID":325902},"geometry":{"x":173538.8200000003,"y":2541744.4900000021}},{"attributes":{"ID":325912,"DIS_CODE":0,"TOWNNAME":"東區","LI":"崇學里","LIN":"15鄰","STREET":"崇學路","SECT":" ","MAREA":" ","LANE":"２０巷","ALLEY":" ","HOUSE_NO":"２號二十一樓之２","E_COORD97":170164.98000000001,"N_COORD97":2542003.2999999998,"ADDRESS":"崇學路２０巷２號二十一樓之２","OBJECTID":325903},"geometry":{"x":170164.97999999952,"y":2542003.3000000026}},{"attributes":{"ID":325913,"DIS_CODE":0,"TOWNNAME":"東區","LI":"崇學里","LIN":"15鄰","STREET":"崇學路","SECT":" ","MAREA":" ","LANE":"２０巷","ALLEY":" ","HOUSE_NO":"２號二十一樓之３","E_COORD97":170164.98000000001,"N_COORD97":2542003.2999999998,"ADDRESS":"崇學路２０巷２號二十一樓之３","OBJECTID":325904},"geometry":{"x":170164.97999999952,"y":2542003.3000000026}},{"attributes":{"ID":325914,"DIS_CODE":0,"TOWNNAME":"東區","LI":"崇學里","LIN":"15鄰","STREET":"崇學路","SECT":" ","MAREA":" ","LANE":"２０巷","ALLEY":" ","HOUSE_NO":"２號二十樓","E_COORD97":170164.98000000001,"N_COORD97":2542003.2999999998,"ADDRESS":"崇學路２０巷２號二十樓","OBJECTID":325905},"geometry":{"x":170164.97999999952,"y":2542003.3000000026}},{"attributes":{"ID":325915,"DIS_CODE":0,"TOWNNAME":"東區","LI":"崇學里","LIN":"15鄰","STREET":"崇學路","SECT":" ","MAREA":" ","LANE":"２０巷","ALLEY":" ","HOUSE_NO":"２號二十樓之１","E_COORD97":170164.98000000001,"N_COORD97":2542003.2999999998,"ADDRESS":"崇學路２０巷２號二十樓之１","OBJECTID":325906},"geometry":{"x":170164.97999999952,"y":2542003.3000000026}},{"attributes":{"ID":325916,"DIS_CODE":0,"TOWNNAME":"歸仁區","LI":"歸仁里","LIN":"17鄰","STREET":"大仁街","SECT":" ","MAREA":" ","LANE":" ","ALLEY":" ","HOUSE_NO":"１０１號","E_COORD97":178086.31,"N_COORD97":2540952.6800000002,"ADDRESS":"大仁街１０１號","OBJECTID":325907},"geometry":{"x":178086.30999999959,"y":2540952.6800000016}},{"attributes":{"ID":325917,"DIS_CODE":0,"TOWNNAME":"歸仁區","LI":"歸南里","LIN":"17鄰","STREET":"民生南街","SECT":"二段","MAREA":" ","LANE":" ","ALLEY":" ","HOUSE_NO":"１０４號","E_COORD97":176186.66,"N_COORD97":2540341.25,"ADDRESS":"民生南街二段１０４號","OBJECTID":325908},"geometry":{"x":176186.66000000201,"y":2540341.2500000019}},{"attributes":{"ID":325918,"DIS_CODE":0,"TOWNNAME":"歸仁區","LI":"歸南里","LIN":"17鄰","STREET":"民生南街","SECT":"二段","MAREA":" ","LANE":" ","ALLEY":" ","HOUSE_NO":"８０號","E_COORD97":176207.20999999999,"N_COORD97":2540401.25,"ADDRESS":"民生南街二段８０號","OBJECTID":325909},"geometry":{"x":176207.20999999996,"y":2540401.25}},{"attributes":{"ID":325919,"DIS_CODE":0,"TOWNNAME":"仁德區","LI":"上崙里","LIN":"24鄰","STREET":"中正路","SECT":"一段","MAREA":" ","LANE":"７６６巷","ALLEY":" ","HOUSE_NO":"３號","E_COORD97":172976.89999999999,"N_COORD97":2537866.02,"ADDRESS":"中正路一段７６６巷３號","OBJECTID":325910},"geometry":{"x":172976.9000000013,"y":2537866.0199999996}},{"attributes":{"ID":325920,"DIS_CODE":0,"TOWNNAME":"仁德區","LI":"二行里","LIN":"14鄰","STREET":"中正西路","SECT":" ","MAREA":" ","LANE":"３５３巷","ALLEY":" ","HOUSE_NO":"２３號","E_COORD97":169820.94,"N_COORD97":2535355.25,"ADDRESS":"中正西路３５３巷２３號","OBJECTID":325911},"geometry":{"x":169820.94000000041,"y":2535355.25}},{"attributes":{"ID":325921,"DIS_CODE":0,"TOWNNAME":"仁德區","LI":"二行里","LIN":"14鄰","STREET":"中正西路","SECT":" ","MAREA":" ","LANE":"３５３巷","ALLEY":" ","HOUSE_NO":"５０號","E_COORD97":169866.10000000001,"N_COORD97":2535333.75,"ADDRESS":"中正西路３５３巷５０號","OBJECTID":325912},"geometry":{"x":169866.09999999963,"y":2535333.7500000019}},{"attributes":{"ID":325922,"DIS_CODE":0,"TOWNNAME":"東區","LI":"崇學里","LIN":"15鄰","STREET":"崇學路","SECT":" ","MAREA":" ","LANE":"２０巷","ALLEY":" ","HOUSE_NO":"２號二十樓之２","E_COORD97":170164.98000000001,"N_COORD97":2542003.2999999998,"ADDRESS":"崇學路２０巷２號二十樓之２","OBJECTID":325913},"geometry":{"x":170164.97999999952,"y":2542003.3000000026}},{"attributes":{"ID":325923,"DIS_CODE":0,"TOWNNAME":"東區","LI":"崇學里","LIN":"15鄰","STREET":"崇學路","SECT":" ","MAREA":" ","LANE":"２０巷","ALLEY":" ","HOUSE_NO":"２號二十樓之３","E_COORD97":170164.98000000001,"N_COORD97":2542003.2999999998,"ADDRESS":"崇學路２０巷２號二十樓之３","OBJECTID":325914},"geometry":{"x":170164.97999999952,"y":2542003.3000000026}},{"attributes":{"ID":325924,"DIS_CODE":0,"TOWNNAME":"東區","LI":"崇學里","LIN":"15鄰","STREET":"崇學路","SECT":" ","MAREA":" ","LANE":"２０巷","ALLEY":" ","HOUSE_NO":"２號八樓","E_COORD97":170164.98000000001,"N_COORD97":2542003.2999999998,"ADDRESS":"崇學路２０巷２號八樓","OBJECTID":325915},"geometry":{"x":170164.97999999952,"y":2542003.3000000026}},{"attributes":{"ID":325925,"DIS_CODE":0,"TOWNNAME":"東區","LI":"崇學里","LIN":"15鄰","STREET":"崇學路","SECT":" ","MAREA":" ","LANE":"２０巷","ALLEY":" ","HOUSE_NO":"２號八樓之１","E_COORD97":170164.98000000001,"N_COORD97":2542003.2999999998,"ADDRESS":"崇學路２０巷２號八樓之１","OBJECTID":325916},"geometry":{"x":170164.97999999952,"y":2542003.3000000026}},{"attributes":{"ID":325926,"DIS_CODE":0,"TOWNNAME":"東區","LI":"崇學里","LIN":"15鄰","STREET":"崇學路","SECT":" ","MAREA":" ","LANE":"２０巷","ALLEY":" ","HOUSE_NO":"２號八樓之２","E_COORD97":170164.98000000001,"N_COORD97":2542003.2999999998,"ADDRESS":"崇學路２０巷２號八樓之２","OBJECTID":325917},"geometry":{"x":170164.97999999952,"y":2542003.3000000026}},{"attributes":{"ID":325927,"DIS_CODE":0,"TOWNNAME":"南區","LI":"開南里","LIN":"7鄰","STREET":"中華西路","SECT":"一段","MAREA":" ","LANE":"８巷","ALLEY":" ","HOUSE_NO":"１號","E_COORD97":166338.69,"N_COORD97":2540577.3199999998,"ADDRESS":"中華西路一段８巷１號","OBJECTID":325918},"geometry":{"x":166338.69000000041,"y":2540577.3200000003}},{"attributes":{"ID":325928,"DIS_CODE":0,"TOWNNAME":"東區","LI":"崇學里","LIN":"15鄰","STREET":"崇學路","SECT":" ","MAREA":" ","LANE":"２０巷","ALLEY":" ","HOUSE_NO":"２號八樓之３","E_COORD97":170164.98000000001,"N_COORD97":2542003.2999999998,"ADDRESS":"崇學路２０巷２號八樓之３","OBJECTID":325919},"geometry":{"x":170164.97999999952,"y":2542003.3000000026}},{"attributes":{"ID":325929,"DIS_CODE":0,"TOWNNAME":"東區","LI":"崇學里","LIN":"15鄰","STREET":"崇學路","SECT":" ","MAREA":" ","LANE":"２０巷","ALLEY":" ","HOUSE_NO":"２號八樓之４","E_COORD97":170164.98000000001,"N_COORD97":2542003.2999999998,"ADDRESS":"崇學路２０巷２號八樓之４","OBJECTID":325920},"geometry":{"x":170164.97999999952,"y":2542003.3000000026}},{"attributes":{"ID":325930,"DIS_CODE":0,"TOWNNAME":"東區","LI":"崇學里","LIN":"15鄰","STREET":"崇學路","SECT":" ","MAREA":" ","LANE":"２０巷","ALLEY":" ","HOUSE_NO":"２號十一樓","E_COORD97":170164.98000000001,"N_COORD97":2542003.2999999998,"ADDRESS":"崇學路２０巷２號十一樓","OBJECTID":325921},"geometry":{"x":170164.97999999952,"y":2542003.3000000026}},{"attributes":{"ID":325931,"DIS_CODE":0,"TOWNNAME":"東區","LI":"崇學里","LIN":"15鄰","STREET":"崇學路","SECT":" ","MAREA":" ","LANE":"２０巷","ALLEY":" ","HOUSE_NO":"２號十一樓之１","E_COORD97":170164.98000000001,"N_COORD97":2542003.2999999998,"ADDRESS":"崇學路２０巷２號十一樓之１","OBJECTID":325922},"geometry":{"x":170164.97999999952,"y":2542003.3000000026}},{"attributes":{"ID":325932,"DIS_CODE":0,"TOWNNAME":"東區","LI":"崇學里","LIN":"15鄰","STREET":"崇學路","SECT":" ","MAREA":" ","LANE":"２０巷","ALLEY":" ","HOUSE_NO":"２號十一樓之２","E_COORD97":170164.98000000001,"N_COORD97":2542003.2999999998,"ADDRESS":"崇學路２０巷２號十一樓之２","OBJECTID":325923},"geometry":{"x":170164.97999999952,"y":2542003.3000000026}},{"attributes":{"ID":325933,"DIS_CODE":0,"TOWNNAME":"東區","LI":"崇學里","LIN":"15鄰","STREET":"崇學路","SECT":" ","MAREA":" ","LANE":"２０巷","ALLEY":" ","HOUSE_NO":"２號十一樓之３","E_COORD97":170164.98000000001,"N_COORD97":2542003.2999999998,"ADDRESS":"崇學路２０巷２號十一樓之３","OBJECTID":325924},"geometry":{"x":170164.97999999952,"y":2542003.3000000026}},{"attributes":{"ID":325934,"DIS_CODE":0,"TOWNNAME":"東區","LI":"崇學里","LIN":"15鄰","STREET":"崇學路","SECT":" ","MAREA":" ","LANE":"２０巷","ALLEY":" ","HOUSE_NO":"２號十一樓之４","E_COORD97":170164.98000000001,"N_COORD97":2542003.2999999998,"ADDRESS":"崇學路２０巷２號十一樓之４","OBJECTID":325925},"geometry":{"x":170164.97999999952,"y":2542003.3000000026}},{"attributes":{"ID":325935,"DIS_CODE":0,"TOWNNAME":"歸仁區","LI":"崙頂里","LIN":"17鄰","STREET":"大成路","SECT":" ","MAREA":" ","LANE":" ","ALLEY":" ","HOUSE_NO":"２７１號","E_COORD97":177911,"N_COORD97":2540106.96,"ADDRESS":"大成路２７１號","OBJECTID":325926},"geometry":{"x":177911,"y":2540106.9600000028}},{"attributes":{"ID":325936,"DIS_CODE":0,"TOWNNAME":"歸仁區","LI":"辜厝里","LIN":"17鄰","STREET":"大順街","SECT":" ","MAREA":" ","LANE":" ","ALLEY":" ","HOUSE_NO":"７之１號","E_COORD97":177484.32000000001,"N_COORD97":2540516.7000000002,"ADDRESS":"大順街７之１號","OBJECTID":325927},"geometry":{"x":177484.32000000123,"y":2540516.700000003}},{"attributes":{"ID":325937,"DIS_CODE":0,"TOWNNAME":"歸仁區","LI":"看西里","LIN":"17鄰","STREET":"成功路","SECT":"一段","MAREA":" ","LANE":" ","ALLEY":" ","HOUSE_NO":"２５９號","E_COORD97":178337.26000000001,"N_COORD97":2540010.3700000001,"ADDRESS":"成功路一段２５９號","OBJECTID":325928},"geometry":{"x":178337.26000000071,"y":2540010.370000001}},{"attributes":{"ID":325938,"DIS_CODE":0,"TOWNNAME":"仁德區","LI":"三甲里","LIN":"4鄰","STREET":" ","SECT":" ","MAREA":"三甲子","LANE":" ","ALLEY":" ","HOUSE_NO":"４２號","E_COORD97":171874.32000000001,"N_COORD97":2536770.9900000002,"ADDRESS":"三甲子４２號","OBJECTID":325929},"geometry":{"x":171874.3200000003,"y":2536770.9900000002}},{"attributes":{"ID":325939,"DIS_CODE":0,"TOWNNAME":"仁德區","LI":"三甲里","LIN":"4鄰","STREET":" ","SECT":" ","MAREA":"三甲子","LANE":" ","ALLEY":" ","HOUSE_NO":"４０號","E_COORD97":171843.10000000001,"N_COORD97":2536807,"ADDRESS":"三甲子４０號","OBJECTID":325930},"geometry":{"x":171843.09999999963,"y":2536807.0000000019}},{"attributes":{"ID":325940,"DIS_CODE":0,"TOWNNAME":"仁德區","LI":"二行里","LIN":"14鄰","STREET":"中正西路","SECT":" ","MAREA":" ","LANE":"３５３巷","ALLEY":" ","HOUSE_NO":"２６號","E_COORD97":169818.20000000001,"N_COORD97":2535336.5,"ADDRESS":"中正西路３５３巷２６號","OBJECTID":325931},"geometry":{"x":169818.20000000112,"y":2535336.5}},{"attributes":{"ID":325941,"DIS_CODE":0,"TOWNNAME":"仁德區","LI":"上崙里","LIN":"18鄰","STREET":"德崙路","SECT":" ","MAREA":" ","LANE":"３１６巷","ALLEY":" ","HOUSE_NO":"２１號","E_COORD97":173909.39999999999,"N_COORD97":2538077.0099999998,"ADDRESS":"德崙路３１６巷２１號","OBJECTID":325932},"geometry":{"x":173909.40000000037,"y":2538077.0099999979}},{"attributes":{"ID":325942,"DIS_CODE":0,"TOWNNAME":"新化區","LI":"知義里","LIN":"13鄰","STREET":" ","SECT":" ","MAREA":"口埤","LANE":" ","ALLEY":" ","HOUSE_NO":"７１號","E_COORD97":183647.5,"N_COORD97":2546990.25,"ADDRESS":"口埤７１號","OBJECTID":325933},"geometry":{"x":183647.5,"y":2546990.2500000019}},{"attributes":{"ID":325943,"DIS_CODE":0,"TOWNNAME":"仁德區","LI":"三甲里","LIN":"4鄰","STREET":" ","SECT":" ","MAREA":"三甲子","LANE":" ","ALLEY":" ","HOUSE_NO":"３８之２號","E_COORD97":171767.79999999999,"N_COORD97":2536779.7999999998,"ADDRESS":"三甲子３８之２號","OBJECTID":325934},"geometry":{"x":171767.80000000075,"y":2536779.8000000007}},{"attributes":{"ID":325944,"DIS_CODE":0,"TOWNNAME":"仁德區","LI":"二行里","LIN":"14鄰","STREET":"中正西路","SECT":" ","MAREA":" ","LANE":"３５３巷","ALLEY":" ","HOUSE_NO":"７４號","E_COORD97":169877.51000000001,"N_COORD97":2535293.9900000002,"ADDRESS":"中正西路３５３巷７４號","OBJECTID":325935},"geometry":{"x":169877.50999999978,"y":2535293.9900000002}},{"attributes":{"ID":325945,"DIS_CODE":0,"TOWNNAME":"仁德區","LI":"一甲里","LIN":"17鄰","STREET":"忠義路","SECT":" ","MAREA":" ","LANE":"２５１巷","ALLEY":" ","HOUSE_NO":"５１號","E_COORD97":173850.64999999999,"N_COORD97":2541700.2599999998,"ADDRESS":"忠義路２５１巷５１號","OBJECTID":325936},"geometry":{"x":173850.65000000037,"y":2541700.2600000016}},{"attributes":{"ID":325946,"DIS_CODE":0,"TOWNNAME":"仁德區","LI":"一甲里","LIN":"14鄰","STREET":"忠義路","SECT":" ","MAREA":" ","LANE":"２４１巷","ALLEY":" ","HOUSE_NO":"３號","E_COORD97":173904.16,"N_COORD97":2541816.0099999998,"ADDRESS":"忠義路２４１巷３號","OBJECTID":325937},"geometry":{"x":173904.16000000015,"y":2541816.0099999998}},{"attributes":{"ID":325947,"DIS_CODE":0,"TOWNNAME":"仁德區","LI":"一甲里","LIN":"14鄰","STREET":"忠義路","SECT":" ","MAREA":" ","LANE":"２４１巷","ALLEY":" ","HOUSE_NO":"３８號","E_COORD97":173917.54000000001,"N_COORD97":2541762.02,"ADDRESS":"忠義路２４１巷３８號","OBJECTID":325938},"geometry":{"x":173917.54000000097,"y":2541762.0199999977}},{"attributes":{"ID":325948,"DIS_CODE":0,"TOWNNAME":"歸仁區","LI":"許厝里","LIN":"17鄰","STREET":"忠孝北路","SECT":" ","MAREA":" ","LANE":" ","ALLEY":" ","HOUSE_NO":"２５號","E_COORD97":178443.72,"N_COORD97":2540724.25,"ADDRESS":"忠孝北路２５號","OBJECTID":325939},"geometry":{"x":178443.7200000016,"y":2540724.2500000019}},{"attributes":{"ID":325949,"DIS_CODE":0,"TOWNNAME":"歸仁區","LI":"南保里","LIN":"17鄰","STREET":"文化十街","SECT":" ","MAREA":" ","LANE":" ","ALLEY":" ","HOUSE_NO":"３０號","E_COORD97":176561.73999999999,"N_COORD97":2541354.3300000001,"ADDRESS":"文化十街３０號","OBJECTID":325940},"geometry":{"x":176561.74000000022,"y":2541354.3300000019}},{"attributes":{"ID":325950,"DIS_CODE":0,"TOWNNAME":"歸仁區","LI":"後市里","LIN":"17鄰","STREET":"中山路","SECT":"二段","MAREA":" ","LANE":" ","ALLEY":" ","HOUSE_NO":"１３１號","E_COORD97":177320.98999999999,"N_COORD97":2540798.5499999998,"ADDRESS":"中山路二段１３１號","OBJECTID":325941},"geometry":{"x":177320.99000000115,"y":2540798.5500000026}},{"attributes":{"ID":325951,"DIS_CODE":0,"TOWNNAME":"歸仁區","LI":"後市里","LIN":"17鄰","STREET":"中山路","SECT":"二段","MAREA":" ","LANE":" ","ALLEY":" ","HOUSE_NO":"１６３號","E_COORD97":177258.48999999999,"N_COORD97":2540807.5499999998,"ADDRESS":"中山路二段１６３號","OBJECTID":325942},"geometry":{"x":177258.49000000022,"y":2540807.5500000026}},{"attributes":{"ID":325952,"DIS_CODE":0,"TOWNNAME":"歸仁區","LI":"南保里","LIN":"17鄰","STREET":"文化十街","SECT":" ","MAREA":" ","LANE":" ","ALLEY":" ","HOUSE_NO":"３４號","E_COORD97":176561.84,"N_COORD97":2541363.3300000001,"ADDRESS":"文化十街３４號","OBJECTID":325943},"geometry":{"x":176561.84000000078,"y":2541363.3300000001}},{"attributes":{"ID":325953,"DIS_CODE":0,"TOWNNAME":"歸仁區","LI":"後市里","LIN":"17鄰","STREET":"中山路","SECT":"二段","MAREA":" ","LANE":" ","ALLEY":" ","HOUSE_NO":"１５３號","E_COORD97":177274.89000000001,"N_COORD97":2540805.5499999998,"ADDRESS":"中山路二段１５３號","OBJECTID":325944},"geometry":{"x":177274.8900000006,"y":2540805.5500000007}},{"attributes":{"ID":325954,"DIS_CODE":0,"TOWNNAME":"新營區","LI":"太北里","LIN":"17鄰","STREET":"忠孝路","SECT":" ","MAREA":" ","LANE":" ","ALLEY":" ","HOUSE_NO":"５２號","E_COORD97":175930.79999999999,"N_COORD97":2577935.7799999998,"ADDRESS":"忠孝路５２號","OBJECTID":325945},"geometry":{"x":175930.79999999981,"y":2577935.7800000031}},{"attributes":{"ID":325955,"DIS_CODE":0,"TOWNNAME":"仁德區","LI":"二行里","LIN":"14鄰","STREET":"中正西路","SECT":" ","MAREA":" ","LANE":"３５３巷","ALLEY":" ","HOUSE_NO":"４８號","E_COORD97":169861.62,"N_COORD97":2535333.5,"ADDRESS":"中正西路３５３巷４８號","OBJECTID":325946},"geometry":{"x":169861.62000000011,"y":2535333.5}},{"attributes":{"ID":325956,"DIS_CODE":0,"TOWNNAME":"仁德區","LI":"一甲里","LIN":"14鄰","STREET":"忠義路","SECT":" ","MAREA":" ","LANE":"２４１巷","ALLEY":" ","HOUSE_NO":"３１號","E_COORD97":173929.23999999999,"N_COORD97":2541768.52,"ADDRESS":"忠義路２４１巷３１號","OBJECTID":325947},"geometry":{"x":173929.24000000022,"y":2541768.5199999996}},{"attributes":{"ID":325957,"DIS_CODE":0,"TOWNNAME":"仁德區","LI":"一甲里","LIN":"5鄰","STREET":"忠義三街","SECT":" ","MAREA":" ","LANE":"８巷","ALLEY":" ","HOUSE_NO":"８號","E_COORD97":173631.29000000001,"N_COORD97":2541652.27,"ADDRESS":"忠義三街８巷８號","OBJECTID":325948},"geometry":{"x":173631.29000000097,"y":2541652.2700000033}},{"attributes":{"ID":325958,"DIS_CODE":0,"TOWNNAME":"東區","LI":"崇學里","LIN":"15鄰","STREET":"崇學路","SECT":" ","MAREA":" ","LANE":"２０巷","ALLEY":" ","HOUSE_NO":"２號十七樓","E_COORD97":170164.98000000001,"N_COORD97":2542003.2999999998,"ADDRESS":"崇學路２０巷２號十七樓","OBJECTID":325949},"geometry":{"x":170164.97999999952,"y":2542003.3000000026}},{"attributes":{"ID":325959,"DIS_CODE":0,"TOWNNAME":"東區","LI":"崇學里","LIN":"15鄰","STREET":"崇學路","SECT":" ","MAREA":" ","LANE":"２０巷","ALLEY":" ","HOUSE_NO":"２號十七樓之１","E_COORD97":170164.98000000001,"N_COORD97":2542003.2999999998,"ADDRESS":"崇學路２０巷２號十七樓之１","OBJECTID":325950},"geometry":{"x":170164.97999999952,"y":2542003.3000000026}},{"attributes":{"ID":325960,"DIS_CODE":0,"TOWNNAME":"東區","LI":"崇學里","LIN":"15鄰","STREET":"崇學路","SECT":" ","MAREA":" ","LANE":"２０巷","ALLEY":" ","HOUSE_NO":"２號十七樓之２","E_COORD97":170164.98000000001,"N_COORD97":2542003.2999999998,"ADDRESS":"崇學路２０巷２號十七樓之２","OBJECTID":325951},"geometry":{"x":170164.97999999952,"y":2542003.3000000026}},{"attributes":{"ID":325961,"DIS_CODE":0,"TOWNNAME":"東區","LI":"崇學里","LIN":"15鄰","STREET":"崇學路","SECT":" ","MAREA":" ","LANE":"２０巷","ALLEY":" ","HOUSE_NO":"２號十七樓之３","E_COORD97":170164.98000000001,"N_COORD97":2542003.2999999998,"ADDRESS":"崇學路２０巷２號十七樓之３","OBJECTID":325952},"geometry":{"x":170164.97999999952,"y":2542003.3000000026}},{"attributes":{"ID":325962,"DIS_CODE":0,"TOWNNAME":"東區","LI":"崇學里","LIN":"15鄰","STREET":"崇學路","SECT":" ","MAREA":" ","LANE":"２０巷","ALLEY":" ","HOUSE_NO":"２號十七樓之４","E_COORD97":170164.98000000001,"N_COORD97":2542003.2999999998,"ADDRESS":"崇學路２０巷２號十七樓之４","OBJECTID":325953},"geometry":{"x":170164.97999999952,"y":2542003.3000000026}},{"attributes":{"ID":325963,"DIS_CODE":0,"TOWNNAME":"東區","LI":"崇學里","LIN":"15鄰","STREET":"崇學路","SECT":" ","MAREA":" ","LANE":"２０巷","ALLEY":" ","HOUSE_NO":"２號十九樓","E_COORD97":170164.98000000001,"N_COORD97":2542003.2999999998,"ADDRESS":"崇學路２０巷２號十九樓","OBJECTID":325954},"geometry":{"x":170164.97999999952,"y":2542003.3000000026}},{"attributes":{"ID":325964,"DIS_CODE":0,"TOWNNAME":"下營區","LI":"仁里里","LIN":"15鄰","STREET":"公園路","SECT":" ","MAREA":" ","LANE":"５２巷","ALLEY":" ","HOUSE_NO":"５號","E_COORD97":174276.76999999999,"N_COORD97":2570357.46,"ADDRESS":"公園路５２巷５號","OBJECTID":325955},"geometry":{"x":174276.77000000048,"y":2570357.4600000009}},{"attributes":{"ID":325965,"DIS_CODE":0,"TOWNNAME":"東區","LI":"崇學里","LIN":"15鄰","STREET":"崇學路","SECT":" ","MAREA":" ","LANE":"２０巷","ALLEY":" ","HOUSE_NO":"２號十九樓之１","E_COORD97":170164.98000000001,"N_COORD97":2542003.2999999998,"ADDRESS":"崇學路２０巷２號十九樓之１","OBJECTID":325956},"geometry":{"x":170164.97999999952,"y":2542003.3000000026}},{"attributes":{"ID":325966,"DIS_CODE":0,"TOWNNAME":"東區","LI":"崇學里","LIN":"15鄰","STREET":"崇學路","SECT":" ","MAREA":" ","LANE":"２０巷","ALLEY":" ","HOUSE_NO":"２號十九樓之２","E_COORD97":170164.98000000001,"N_COORD97":2542003.2999999998,"ADDRESS":"崇學路２０巷２號十九樓之２","OBJECTID":325957},"geometry":{"x":170164.97999999952,"y":2542003.3000000026}},{"attributes":{"ID":325967,"DIS_CODE":0,"TOWNNAME":"歸仁區","LI":"南興里","LIN":"17鄰","STREET":"南興街","SECT":" ","MAREA":" ","LANE":" ","ALLEY":" ","HOUSE_NO":"１９７號","E_COORD97":175715.89000000001,"N_COORD97":2541385.25,"ADDRESS":"南興街１９７號","OBJECTID":325958},"geometry":{"x":175715.88999999966,"y":2541385.2500000019}},{"attributes":{"ID":325968,"DIS_CODE":0,"TOWNNAME":"歸仁區","LI":"南興里","LIN":"17鄰","STREET":"南興街","SECT":" ","MAREA":" ","LANE":" ","ALLEY":" ","HOUSE_NO":"２０３號","E_COORD97":175703.59,"N_COORD97":2541385.25,"ADDRESS":"南興街２０３號","OBJECTID":325959},"geometry":{"x":175703.59000000171,"y":2541385.2500000019}},{"attributes":{"ID":325969,"DIS_CODE":0,"TOWNNAME":"歸仁區","LI":"後市里","LIN":"17鄰","STREET":"中山路","SECT":"二段","MAREA":" ","LANE":" ","ALLEY":" ","HOUSE_NO":"１６５號","E_COORD97":177255.48999999999,"N_COORD97":2540807.5499999998,"ADDRESS":"中山路二段１６５號","OBJECTID":325960},"geometry":{"x":177255.49000000022,"y":2540807.5500000026}},{"attributes":{"ID":325970,"DIS_CODE":0,"TOWNNAME":"歸仁區","LI":"南保里","LIN":"17鄰","STREET":"文化十街","SECT":" ","MAREA":" ","LANE":" ","ALLEY":" ","HOUSE_NO":"６２號","E_COORD97":176623.34,"N_COORD97":2541364.3300000001,"ADDRESS":"文化十街６２號","OBJECTID":325961},"geometry":{"x":176623.33999999985,"y":2541364.3300000019}},{"attributes":{"ID":325971,"DIS_CODE":0,"TOWNNAME":"仁德區","LI":"上崙里","LIN":"13鄰","STREET":"德崙路","SECT":" ","MAREA":" ","LANE":"４５０巷","ALLEY":" ","HOUSE_NO":"３５號","E_COORD97":174198.48999999999,"N_COORD97":2537993.7599999998,"ADDRESS":"德崙路４５０巷３５號","OBJECTID":325962},"geometry":{"x":174198.49000000022,"y":2537993.7599999998}},{"attributes":{"ID":325972,"DIS_CODE":0,"TOWNNAME":"仁德區","LI":"三甲里","LIN":"5鄰","STREET":" ","SECT":" ","MAREA":"三甲子","LANE":" ","ALLEY":" ","HOUSE_NO":"４５號","E_COORD97":171908.42999999999,"N_COORD97":2536757.2400000002,"ADDRESS":"三甲子４５號","OBJECTID":325963},"geometry":{"x":171908.4299999997,"y":2536757.2400000039}},{"attributes":{"ID":325973,"DIS_CODE":0,"TOWNNAME":"仁德區","LI":"一甲里","LIN":"14鄰","STREET":"忠義路","SECT":" ","MAREA":" ","LANE":"２４１巷","ALLEY":" ","HOUSE_NO":"１８號","E_COORD97":173880.23999999999,"N_COORD97":2541785.77,"ADDRESS":"忠義路２４１巷１８號","OBJECTID":325964},"geometry":{"x":173880.24000000022,"y":2541785.7700000014}},{"attributes":{"ID":325974,"DIS_CODE":0,"TOWNNAME":"東區","LI":"崇學里","LIN":"15鄰","STREET":"崇學路","SECT":" ","MAREA":" ","LANE":"２０巷","ALLEY":" ","HOUSE_NO":"２號十九樓之３","E_COORD97":170164.98000000001,"N_COORD97":2542003.2999999998,"ADDRESS":"崇學路２０巷２號十九樓之３","OBJECTID":325965},"geometry":{"x":170164.97999999952,"y":2542003.3000000026}},{"attributes":{"ID":325975,"DIS_CODE":0,"TOWNNAME":"東區","LI":"崇學里","LIN":"15鄰","STREET":"崇學路","SECT":" ","MAREA":" ","LANE":"２０巷","ALLEY":" ","HOUSE_NO":"２號十二樓","E_COORD97":170164.98000000001,"N_COORD97":2542003.2999999998,"ADDRESS":"崇學路２０巷２號十二樓","OBJECTID":325966},"geometry":{"x":170164.97999999952,"y":2542003.3000000026}},{"attributes":{"ID":325976,"DIS_CODE":0,"TOWNNAME":"東區","LI":"崇學里","LIN":"15鄰","STREET":"崇學路","SECT":" ","MAREA":" ","LANE":"２０巷","ALLEY":" ","HOUSE_NO":"２號十二樓之１","E_COORD97":170164.98000000001,"N_COORD97":2542003.2999999998,"ADDRESS":"崇學路２０巷２號十二樓之１","OBJECTID":325967},"geometry":{"x":170164.97999999952,"y":2542003.3000000026}},{"attributes":{"ID":325977,"DIS_CODE":0,"TOWNNAME":"東區","LI":"崇學里","LIN":"15鄰","STREET":"崇學路","SECT":" ","MAREA":" ","LANE":"２０巷","ALLEY":" ","HOUSE_NO":"２號十二樓之２","E_COORD97":170164.98000000001,"N_COORD97":2542003.2999999998,"ADDRESS":"崇學路２０巷２號十二樓之２","OBJECTID":325968},"geometry":{"x":170164.97999999952,"y":2542003.3000000026}},{"attributes":{"ID":325978,"DIS_CODE":0,"TOWNNAME":"東區","LI":"崇學里","LIN":"15鄰","STREET":"崇學路","SECT":" ","MAREA":" ","LANE":"２０巷","ALLEY":" ","HOUSE_NO":"２號十二樓之３","E_COORD97":170164.98000000001,"N_COORD97":2542003.2999999998,"ADDRESS":"崇學路２０巷２號十二樓之３","OBJECTID":325969},"geometry":{"x":170164.97999999952,"y":2542003.3000000026}},{"attributes":{"ID":325979,"DIS_CODE":0,"TOWNNAME":"白河區","LI":"詔安里","LIN":"4鄰","STREET":" ","SECT":" ","MAREA":"詔安厝","LANE":" ","ALLEY":" ","HOUSE_NO":"４６號","E_COORD97":189827.56,"N_COORD97":2587919.2000000002,"ADDRESS":"詔安厝４６號","OBJECTID":325970},"geometry":{"x":189827.55999999959,"y":2587919.1999999993}},{"attributes":{"ID":325980,"DIS_CODE":0,"TOWNNAME":"東區","LI":"崇學里","LIN":"15鄰","STREET":"崇學路","SECT":" ","MAREA":" ","LANE":"２０巷","ALLEY":" ","HOUSE_NO":"２號十二樓之４","E_COORD97":170164.98000000001,"N_COORD97":2542003.2999999998,"ADDRESS":"崇學路２０巷２號十二樓之４","OBJECTID":325971},"geometry":{"x":170164.97999999952,"y":2542003.3000000026}},{"attributes":{"ID":325981,"DIS_CODE":0,"TOWNNAME":"東區","LI":"崇學里","LIN":"15鄰","STREET":"崇學路","SECT":" ","MAREA":" ","LANE":"２０巷","ALLEY":" ","HOUSE_NO":"２號十八樓","E_COORD97":170164.98000000001,"N_COORD97":2542003.2999999998,"ADDRESS":"崇學路２０巷２號十八樓","OBJECTID":325972},"geometry":{"x":170164.97999999952,"y":2542003.3000000026}},{"attributes":{"ID":325982,"DIS_CODE":0,"TOWNNAME":"東區","LI":"崇學里","LIN":"15鄰","STREET":"崇學路","SECT":" ","MAREA":" ","LANE":"２０巷","ALLEY":" ","HOUSE_NO":"２號十八樓之１","E_COORD97":170164.98000000001,"N_COORD97":2542003.2999999998,"ADDRESS":"崇學路２０巷２號十八樓之１","OBJECTID":325973},"geometry":{"x":170164.97999999952,"y":2542003.3000000026}},{"attributes":{"ID":325983,"DIS_CODE":0,"TOWNNAME":"東區","LI":"崇學里","LIN":"15鄰","STREET":"崇學路","SECT":" ","MAREA":" ","LANE":"２０巷","ALLEY":" ","HOUSE_NO":"２號十八樓之２","E_COORD97":170164.98000000001,"N_COORD97":2542003.2999999998,"ADDRESS":"崇學路２０巷２號十八樓之２","OBJECTID":325974},"geometry":{"x":170164.97999999952,"y":2542003.3000000026}},{"attributes":{"ID":325984,"DIS_CODE":0,"TOWNNAME":"東區","LI":"崇學里","LIN":"15鄰","STREET":"崇學路","SECT":" ","MAREA":" ","LANE":"２０巷","ALLEY":" ","HOUSE_NO":"２號十八樓之３","E_COORD97":170164.98000000001,"N_COORD97":2542003.2999999998,"ADDRESS":"崇學路２０巷２號十八樓之３","OBJECTID":325975},"geometry":{"x":170164.97999999952,"y":2542003.3000000026}},{"attributes":{"ID":325985,"DIS_CODE":0,"TOWNNAME":"東區","LI":"崇學里","LIN":"15鄰","STREET":"崇學路","SECT":" ","MAREA":" ","LANE":"２０巷","ALLEY":" ","HOUSE_NO":"２號十八樓之４","E_COORD97":170164.98000000001,"N_COORD97":2542003.2999999998,"ADDRESS":"崇學路２０巷２號十八樓之４","OBJECTID":325976},"geometry":{"x":170164.97999999952,"y":2542003.3000000026}},{"attributes":{"ID":325986,"DIS_CODE":0,"TOWNNAME":"東區","LI":"崇學里","LIN":"15鄰","STREET":"崇學路","SECT":" ","MAREA":" ","LANE":"２０巷","ALLEY":" ","HOUSE_NO":"２號十三樓","E_COORD97":170164.98000000001,"N_COORD97":2542003.2999999998,"ADDRESS":"崇學路２０巷２號十三樓","OBJECTID":325977},"geometry":{"x":170164.97999999952,"y":2542003.3000000026}},{"attributes":{"ID":325987,"DIS_CODE":0,"TOWNNAME":"歸仁區","LI":"文化里","LIN":"17鄰","STREET":"文化北街","SECT":" ","MAREA":" ","LANE":" ","ALLEY":" ","HOUSE_NO":"１１６號","E_COORD97":177181.60999999999,"N_COORD97":2541416.3399999999,"ADDRESS":"文化北街１１６號","OBJECTID":325978},"geometry":{"x":177181.61000000034,"y":2541416.3399999999}},{"attributes":{"ID":325988,"DIS_CODE":0,"TOWNNAME":"歸仁區","LI":"南保里","LIN":"17鄰","STREET":"文化十街","SECT":" ","MAREA":" ","LANE":" ","ALLEY":" ","HOUSE_NO":"６０號","E_COORD97":176618.23999999999,"N_COORD97":2541364.3300000001,"ADDRESS":"文化十街６０號","OBJECTID":325979},"geometry":{"x":176618.23999999929,"y":2541364.3300000019}},{"attributes":{"ID":325989,"DIS_CODE":0,"TOWNNAME":"歸仁區","LI":"南保里","LIN":"17鄰","STREET":"文化十街","SECT":" ","MAREA":" ","LANE":" ","ALLEY":" ","HOUSE_NO":"３８號","E_COORD97":176578.23999999999,"N_COORD97":2541365.3300000001,"ADDRESS":"文化十街３８號","OBJECTID":325980},"geometry":{"x":176578.24000000115,"y":2541365.3300000019}},{"attributes":{"ID":325990,"DIS_CODE":0,"TOWNNAME":"仁德區","LI":"二行里","LIN":"4鄰","STREET":"二行一路","SECT":" ","MAREA":" ","LANE":"８３巷","ALLEY":" ","HOUSE_NO":"３１號","E_COORD97":170293.04999999999,"N_COORD97":2535365,"ADDRESS":"二行一路８３巷３１號","OBJECTID":325981},"geometry":{"x":170293.05000000075,"y":2535364.9999999981}},{"attributes":{"ID":325991,"DIS_CODE":0,"TOWNNAME":"仁德區","LI":"三甲里","LIN":"4鄰","STREET":" ","SECT":" ","MAREA":"三甲子","LANE":" ","ALLEY":" ","HOUSE_NO":"３３號之３","E_COORD97":171819.85000000001,"N_COORD97":2536820.7999999998,"ADDRESS":"三甲子３３號之３","OBJECTID":325982},"geometry":{"x":171819.85000000056,"y":2536820.8000000007}},{"attributes":{"ID":325992,"DIS_CODE":0,"TOWNNAME":"仁德區","LI":"三甲里","LIN":"4鄰","STREET":" ","SECT":" ","MAREA":"三甲子","LANE":" ","ALLEY":" ","HOUSE_NO":"３８號","E_COORD97":171808.07000000001,"N_COORD97":2536779.5,"ADDRESS":"三甲子３８號","OBJECTID":325983},"geometry":{"x":171808.0700000003,"y":2536779.5000000019}},{"attributes":{"ID":325993,"DIS_CODE":0,"TOWNNAME":"仁德區","LI":"二行里","LIN":"13鄰","STREET":"行大街","SECT":" ","MAREA":" ","LANE":"１７２巷","ALLEY":" ","HOUSE_NO":"５４號","E_COORD97":169873.45999999999,"N_COORD97":2535181.4900000002,"ADDRESS":"行大街１７２巷５４號","OBJECTID":325984},"geometry":{"x":169873.46000000089,"y":2535181.4900000002}},{"attributes":{"ID":325994,"DIS_CODE":0,"TOWNNAME":"仁德區","LI":"一甲里","LIN":"17鄰","STREET":"中清路","SECT":" ","MAREA":" ","LANE":"２３２巷","ALLEY":" ","HOUSE_NO":"１號","E_COORD97":173766.23000000001,"N_COORD97":2541709.04,"ADDRESS":"中清路２３２巷１號","OBJECTID":325985},"geometry":{"x":173766.23000000138,"y":2541709.040000001}},{"attributes":{"ID":325995,"DIS_CODE":0,"TOWNNAME":"仁德區","LI":"二行里","LIN":"4鄰","STREET":"二行一路","SECT":" ","MAREA":" ","LANE":"８３巷","ALLEY":" ","HOUSE_NO":"３４號","E_COORD97":170314.45000000001,"N_COORD97":2535371.25,"ADDRESS":"二行一路８３巷３４號","OBJECTID":325986},"geometry":{"x":170314.45000000112,"y":2535371.2500000019}},{"attributes":{"ID":325996,"DIS_CODE":0,"TOWNNAME":"仁德區","LI":"三甲里","LIN":"4鄰","STREET":" ","SECT":" ","MAREA":"三甲子","LANE":" ","ALLEY":" ","HOUSE_NO":"３３之６號","E_COORD97":171799.01999999999,"N_COORD97":2536825.54,"ADDRESS":"三甲子３３之６號","OBJECTID":325987},"geometry":{"x":171799.01999999955,"y":2536825.540000001}},{"attributes":{"ID":325997,"DIS_CODE":0,"TOWNNAME":"仁德區","LI":"三甲里","LIN":"4鄰","STREET":" ","SECT":" ","MAREA":"三甲子","LANE":" ","ALLEY":" ","HOUSE_NO":"３７號之３","E_COORD97":171779.98999999999,"N_COORD97":2536795.5499999998,"ADDRESS":"三甲子３７號之３","OBJECTID":325988},"geometry":{"x":171779.99000000022,"y":2536795.5500000007}},{"attributes":{"ID":325998,"DIS_CODE":0,"TOWNNAME":"仁德區","LI":"三甲里","LIN":"4鄰","STREET":" ","SECT":" ","MAREA":"三甲子","LANE":" ","ALLEY":" ","HOUSE_NO":"３３號之１","E_COORD97":171820.23999999999,"N_COORD97":2536829.54,"ADDRESS":"三甲子３３號之１","OBJECTID":325989},"geometry":{"x":171820.24000000022,"y":2536829.540000001}},{"attributes":{"ID":325999,"DIS_CODE":0,"TOWNNAME":"仁德區","LI":"一甲里","LIN":"4鄰","STREET":"中正路","SECT":"三段","MAREA":" ","LANE":"１６２巷","ALLEY":" ","HOUSE_NO":"１２號","E_COORD97":173494.5,"N_COORD97":2541728.0899999999,"ADDRESS":"中正路三段１６２巷１２號","OBJECTID":325990},"geometry":{"x":173494.50000000093,"y":2541728.0900000036}},{"attributes":{"ID":326000,"DIS_CODE":0,"TOWNNAME":"東區","LI":"崇學里","LIN":"15鄰","STREET":"崇學路","SECT":" ","MAREA":" ","LANE":"２０巷","ALLEY":" ","HOUSE_NO":"２號十三樓之１","E_COORD97":170164.98000000001,"N_COORD97":2542003.2999999998,"ADDRESS":"崇學路２０巷２號十三樓之１","OBJECTID":325991},"geometry":{"x":170164.97999999952,"y":2542003.3000000026}},{"attributes":{"ID":326001,"DIS_CODE":0,"TOWNNAME":"東區","LI":"崇學里","LIN":"15鄰","STREET":"崇學路","SECT":" ","MAREA":" ","LANE":"２０巷","ALLEY":" ","HOUSE_NO":"２號十三樓之２","E_COORD97":170164.98000000001,"N_COORD97":2542003.2999999998,"ADDRESS":"崇學路２０巷２號十三樓之２","OBJECTID":325992},"geometry":{"x":170164.97999999952,"y":2542003.3000000026}},{"attributes":{"ID":326002,"DIS_CODE":0,"TOWNNAME":"仁德區","LI":"三甲里","LIN":"4鄰","STREET":" ","SECT":" ","MAREA":"三甲子","LANE":" ","ALLEY":" ","HOUSE_NO":"３３之８號","E_COORD97":171811.51000000001,"N_COORD97":2536828.29,"ADDRESS":"三甲子３３之８號","OBJECTID":325993},"geometry":{"x":171811.50999999978,"y":2536828.290000001}},{"attributes":{"ID":326003,"DIS_CODE":0,"TOWNNAME":"東區","LI":"崇學里","LIN":"15鄰","STREET":"崇學路","SECT":" ","MAREA":" ","LANE":"２０巷","ALLEY":" ","HOUSE_NO":"２號十三樓之３","E_COORD97":170164.98000000001,"N_COORD97":2542003.2999999998,"ADDRESS":"崇學路２０巷２號十三樓之３","OBJECTID":325994},"geometry":{"x":170164.97999999952,"y":2542003.3000000026}},{"attributes":{"ID":326004,"DIS_CODE":0,"TOWNNAME":"東區","LI":"崇學里","LIN":"15鄰","STREET":"崇學路","SECT":" ","MAREA":" ","LANE":"２０巷","ALLEY":" ","HOUSE_NO":"２號十三樓之４","E_COORD97":170164.98000000001,"N_COORD97":2542003.2999999998,"ADDRESS":"崇學路２０巷２號十三樓之４","OBJECTID":325995},"geometry":{"x":170164.97999999952,"y":2542003.3000000026}},{"attributes":{"ID":326005,"DIS_CODE":0,"TOWNNAME":"東區","LI":"崇學里","LIN":"15鄰","STREET":"崇學路","SECT":" ","MAREA":" ","LANE":"２０巷","ALLEY":" ","HOUSE_NO":"２號十五樓","E_COORD97":170164.98000000001,"N_COORD97":2542003.2999999998,"ADDRESS":"崇學路２０巷２號十五樓","OBJECTID":325996},"geometry":{"x":170164.97999999952,"y":2542003.3000000026}},{"attributes":{"ID":326006,"DIS_CODE":0,"TOWNNAME":"東區","LI":"崇學里","LIN":"15鄰","STREET":"崇學路","SECT":" ","MAREA":" ","LANE":"２０巷","ALLEY":" ","HOUSE_NO":"２號十五樓之１","E_COORD97":170164.98000000001,"N_COORD97":2542003.2999999998,"ADDRESS":"崇學路２０巷２號十五樓之１","OBJECTID":325997},"geometry":{"x":170164.97999999952,"y":2542003.3000000026}},{"attributes":{"ID":326007,"DIS_CODE":0,"TOWNNAME":"歸仁區","LI":"歸仁里","LIN":"17鄰","STREET":"大仁街","SECT":" ","MAREA":" ","LANE":" ","ALLEY":" ","HOUSE_NO":"１０９號","E_COORD97":178107.91,"N_COORD97":2540964.6800000002,"ADDRESS":"大仁街１０９號","OBJECTID":325998},"geometry":{"x":178107.91000000108,"y":2540964.6800000034}},{"attributes":{"ID":326008,"DIS_CODE":0,"TOWNNAME":"歸仁區","LI":"崙頂里","LIN":"17鄰","STREET":"大成路","SECT":" ","MAREA":" ","LANE":" ","ALLEY":" ","HOUSE_NO":"２６３號","E_COORD97":177893.5,"N_COORD97":2540103.96,"ADDRESS":"大成路２６３號","OBJECTID":325999},"geometry":{"x":177893.50000000093,"y":2540103.9600000028}},{"attributes":{"ID":326009,"DIS_CODE":0,"TOWNNAME":"新營區","LI":"太北里","LIN":"17鄰","STREET":"忠孝路","SECT":" ","MAREA":" ","LANE":" ","ALLEY":" ","HOUSE_NO":"６４號","E_COORD97":175747.72,"N_COORD97":2577941.1299999999,"ADDRESS":"忠孝路６４號","OBJECTID":326000},"geometry":{"x":175747.71999999974,"y":2577941.1300000008}}]}