{"displayFieldName":"TOWNNAME","fieldAliases":{"ID":"ID","DIS_CODE":"DIS_CODE","TOWNNAME":"TOWNNAME","LI":"LI","LIN":"LIN","STREET":"STREET","SECT":"SECT","MAREA":"MAREA","LANE":"LANE","ALLEY":"ALLEY","HOUSE_NO":"HOUSE_NO","E_COORD97":"E_COORD97","N_COORD97":"N_COORD97","ADDRESS":"ADDRESS","OBJECTID":"OBJECTID"},"geometryType":"esriGeometryPoint","spatialReference":{"wkid":102443,"latestWkid":3826},"fields":[{"name":"ID","type":"esriFieldTypeDouble","alias":"ID"},{"name":"DIS_CODE","type":"esriFieldTypeInteger","alias":"DIS_CODE"},{"name":"TOWNNAME","type":"esriFieldTypeString","alias":"TOWNNAME","length":8},{"name":"LI","type":"esriFieldTypeString","alias":"LI","length":8},{"name":"LIN","type":"esriFieldTypeString","alias":"LIN","length":12},{"name":"STREET","type":"esriFieldTypeString","alias":"STREET","length":20},{"name":"SECT","type":"esriFieldTypeString","alias":"SECT","length":8},{"name":"MAREA","type":"esriFieldTypeString","alias":"MAREA","length":12},{"name":"LANE","type":"esriFieldTypeString","alias":"LANE","length":10},{"name":"ALLEY","type":"esriFieldTypeString","alias":"ALLEY","length":10},{"name":"HOUSE_NO","type":"esriFieldTypeString","alias":"HOUSE_NO","length":20},{"name":"E_COORD97","type":"esriFieldTypeDouble","alias":"E_COORD97"},{"name":"N_COORD97","type":"esriFieldTypeDouble","alias":"N_COORD97"},{"name":"ADDRESS","type":"esriFieldTypeString","alias":"ADDRESS","length":50},{"name":"OBJECTID","type":"esriFieldTypeOID","alias":"OBJECTID"}],"features":[{"attributes":{"ID":299209,"DIS_CODE":0,"TOWNNAME":"東區","LI":"東明里","LIN":"8鄰","STREET":"怡東路","SECT":" ","MAREA":" ","LANE":"８６巷","ALLEY":" ","HOUSE_NO":"２號三樓","E_COORD97":170884.79999999999,"N_COORD97":2543680.4399999999,"ADDRESS":"怡東路８６巷２號三樓","OBJECTID":299201},"geometry":{"x":170884.80000000075,"y":2543680.4399999995}},{"attributes":{"ID":299210,"DIS_CODE":0,"TOWNNAME":"中西區","LI":"開山里","LIN":"8鄰","STREET":"府前路","SECT":"一段","MAREA":" ","LANE":"６１巷","ALLEY":" ","HOUSE_NO":"２３號一樓","E_COORD97":168994.17000000001,"N_COORD97":2543173.3599999999,"ADDRESS":"府前路一段６１巷２３號一樓","OBJECTID":299202},"geometry":{"x":168994.17000000086,"y":2543173.3599999975}},{"attributes":{"ID":299211,"DIS_CODE":0,"TOWNNAME":"中西區","LI":"開山里","LIN":"8鄰","STREET":"府前路","SECT":"一段","MAREA":" ","LANE":"６１巷","ALLEY":" ","HOUSE_NO":"２３號二樓","E_COORD97":168994.17000000001,"N_COORD97":2543173.3599999999,"ADDRESS":"府前路一段６１巷２３號二樓","OBJECTID":299203},"geometry":{"x":168994.17000000086,"y":2543173.3599999975}},{"attributes":{"ID":299212,"DIS_CODE":0,"TOWNNAME":"中西區","LI":"開山里","LIN":"8鄰","STREET":"府前路","SECT":"一段","MAREA":" ","LANE":"６１巷","ALLEY":" ","HOUSE_NO":"２３號三樓","E_COORD97":168994.17000000001,"N_COORD97":2543173.3599999999,"ADDRESS":"府前路一段６１巷２３號三樓","OBJECTID":299204},"geometry":{"x":168994.17000000086,"y":2543173.3599999975}},{"attributes":{"ID":299213,"DIS_CODE":0,"TOWNNAME":"中西區","LI":"開山里","LIN":"8鄰","STREET":"府前路","SECT":"一段","MAREA":" ","LANE":"６１巷","ALLEY":" ","HOUSE_NO":"２３號四樓","E_COORD97":168994.17000000001,"N_COORD97":2543173.3599999999,"ADDRESS":"府前路一段６１巷２３號四樓","OBJECTID":299205},"geometry":{"x":168994.17000000086,"y":2543173.3599999975}},{"attributes":{"ID":299214,"DIS_CODE":0,"TOWNNAME":"東區","LI":"南聖里","LIN":"14鄰","STREET":"裕誠街","SECT":" ","MAREA":" ","LANE":" ","ALLEY":" ","HOUSE_NO":"３９１號","E_COORD97":172837.72,"N_COORD97":2543397.02,"ADDRESS":"裕誠街３９１號","OBJECTID":299206},"geometry":{"x":172837.7200000016,"y":2543397.0200000014}},{"attributes":{"ID":299215,"DIS_CODE":0,"TOWNNAME":"東區","LI":"南聖里","LIN":"14鄰","STREET":"裕誠街","SECT":" ","MAREA":" ","LANE":" ","ALLEY":" ","HOUSE_NO":"３９３號","E_COORD97":172833.95999999999,"N_COORD97":2543396.2000000002,"ADDRESS":"裕誠街３９３號","OBJECTID":299207},"geometry":{"x":172833.95999999996,"y":2543396.2000000011}},{"attributes":{"ID":299216,"DIS_CODE":0,"TOWNNAME":"東區","LI":"南聖里","LIN":"14鄰","STREET":"裕誠街","SECT":" ","MAREA":" ","LANE":" ","ALLEY":" ","HOUSE_NO":"３９５號","E_COORD97":172829.70000000001,"N_COORD97":2543395.71,"ADDRESS":"裕誠街３９５號","OBJECTID":299208},"geometry":{"x":172829.70000000019,"y":2543395.7100000009}},{"attributes":{"ID":299217,"DIS_CODE":0,"TOWNNAME":"東區","LI":"南聖里","LIN":"14鄰","STREET":"裕誠街","SECT":" ","MAREA":" ","LANE":" ","ALLEY":" ","HOUSE_NO":"３９７號","E_COORD97":172825.44,"N_COORD97":2543394.0699999998,"ADDRESS":"裕誠街３９７號","OBJECTID":299209},"geometry":{"x":172825.44000000134,"y":2543394.0700000022}},{"attributes":{"ID":299218,"DIS_CODE":0,"TOWNNAME":"東區","LI":"南聖里","LIN":"14鄰","STREET":"裕誠街","SECT":" ","MAREA":" ","LANE":" ","ALLEY":" ","HOUSE_NO":"３９９號","E_COORD97":172820.53,"N_COORD97":2543393.0899999999,"ADDRESS":"裕誠街３９９號","OBJECTID":299210},"geometry":{"x":172820.53000000026,"y":2543393.0900000036}},{"attributes":{"ID":299219,"DIS_CODE":0,"TOWNNAME":"東區","LI":"南聖里","LIN":"14鄰","STREET":"裕誠街","SECT":" ","MAREA":" ","LANE":" ","ALLEY":" ","HOUSE_NO":"４０１號","E_COORD97":172816.60000000001,"N_COORD97":2543392.7599999998,"ADDRESS":"裕誠街４０１號","OBJECTID":299211},"geometry":{"x":172816.60000000056,"y":2543392.7600000016}},{"attributes":{"ID":299220,"DIS_CODE":0,"TOWNNAME":"東區","LI":"南聖里","LIN":"14鄰","STREET":"裕誠街","SECT":" ","MAREA":" ","LANE":" ","ALLEY":" ","HOUSE_NO":"４０５號","E_COORD97":172816.44,"N_COORD97":2543406.02,"ADDRESS":"裕誠街４０５號","OBJECTID":299212},"geometry":{"x":172816.44000000041,"y":2543406.0199999996}},{"attributes":{"ID":299221,"DIS_CODE":0,"TOWNNAME":"東區","LI":"南聖里","LIN":"14鄰","STREET":"裕誠街","SECT":" ","MAREA":" ","LANE":" ","ALLEY":" ","HOUSE_NO":"４０７號","E_COORD97":172820.04000000001,"N_COORD97":2543407.1699999999,"ADDRESS":"裕誠街４０７號","OBJECTID":299213},"geometry":{"x":172820.04000000004,"y":2543407.1700000018}},{"attributes":{"ID":299222,"DIS_CODE":0,"TOWNNAME":"東區","LI":"南聖里","LIN":"14鄰","STREET":"裕誠街","SECT":" ","MAREA":" ","LANE":" ","ALLEY":" ","HOUSE_NO":"４０９號","E_COORD97":172824.63,"N_COORD97":2543407.8199999998,"ADDRESS":"裕誠街４０９號","OBJECTID":299214},"geometry":{"x":172824.62999999989,"y":2543407.8200000003}},{"attributes":{"ID":299223,"DIS_CODE":0,"TOWNNAME":"仁德區","LI":"仁和里","LIN":"17鄰","STREET":"保華路","SECT":" ","MAREA":" ","LANE":" ","ALLEY":" ","HOUSE_NO":"３６５號","E_COORD97":170416.47904999999,"N_COORD97":2539878.0109999999,"ADDRESS":"保華路３６５號","OBJECTID":299215},"geometry":{"x":170416.47905000113,"y":2539878.0110000018}},{"attributes":{"ID":299224,"DIS_CODE":0,"TOWNNAME":"中西區","LI":"開山里","LIN":"8鄰","STREET":"府前路","SECT":"一段","MAREA":" ","LANE":"６１巷","ALLEY":" ","HOUSE_NO":"２５號一樓","E_COORD97":168993.95999999999,"N_COORD97":2543167.9399999999,"ADDRESS":"府前路一段６１巷２５號一樓","OBJECTID":299216},"geometry":{"x":168993.96000000089,"y":2543167.9400000013}},{"attributes":{"ID":299225,"DIS_CODE":0,"TOWNNAME":"中西區","LI":"開山里","LIN":"8鄰","STREET":"府前路","SECT":"一段","MAREA":" ","LANE":"６１巷","ALLEY":" ","HOUSE_NO":"２５號二樓","E_COORD97":168993.95999999999,"N_COORD97":2543167.9399999999,"ADDRESS":"府前路一段６１巷２５號二樓","OBJECTID":299217},"geometry":{"x":168993.96000000089,"y":2543167.9400000013}},{"attributes":{"ID":299226,"DIS_CODE":0,"TOWNNAME":"中西區","LI":"開山里","LIN":"8鄰","STREET":"府前路","SECT":"一段","MAREA":" ","LANE":"６１巷","ALLEY":" ","HOUSE_NO":"２５號三樓","E_COORD97":168993.95999999999,"N_COORD97":2543167.9399999999,"ADDRESS":"府前路一段６１巷２５號三樓","OBJECTID":299218},"geometry":{"x":168993.96000000089,"y":2543167.9400000013}},{"attributes":{"ID":299227,"DIS_CODE":0,"TOWNNAME":"中西區","LI":"開山里","LIN":"8鄰","STREET":"府前路","SECT":"一段","MAREA":" ","LANE":"６１巷","ALLEY":" ","HOUSE_NO":"２５號四樓","E_COORD97":168993.95999999999,"N_COORD97":2543167.9399999999,"ADDRESS":"府前路一段６１巷２５號四樓","OBJECTID":299219},"geometry":{"x":168993.96000000089,"y":2543167.9400000013}},{"attributes":{"ID":299228,"DIS_CODE":0,"TOWNNAME":"中西區","LI":"開山里","LIN":"8鄰","STREET":"府前路","SECT":"一段","MAREA":" ","LANE":"６１巷","ALLEY":" ","HOUSE_NO":"２７號一樓","E_COORD97":168991.41,"N_COORD97":2543162.9500000002,"ADDRESS":"府前路一段６１巷２７號一樓","OBJECTID":299220},"geometry":{"x":168991.41000000015,"y":2543162.9500000011}},{"attributes":{"ID":299229,"DIS_CODE":0,"TOWNNAME":"中西區","LI":"開山里","LIN":"8鄰","STREET":"府前路","SECT":"一段","MAREA":" ","LANE":"６１巷","ALLEY":" ","HOUSE_NO":"２７號二樓","E_COORD97":168991.41,"N_COORD97":2543162.9500000002,"ADDRESS":"府前路一段６１巷２７號二樓","OBJECTID":299221},"geometry":{"x":168991.41000000015,"y":2543162.9500000011}},{"attributes":{"ID":299230,"DIS_CODE":0,"TOWNNAME":"中西區","LI":"開山里","LIN":"8鄰","STREET":"府前路","SECT":"一段","MAREA":" ","LANE":"６１巷","ALLEY":" ","HOUSE_NO":"２７號三樓","E_COORD97":168991.41,"N_COORD97":2543162.9500000002,"ADDRESS":"府前路一段６１巷２７號三樓","OBJECTID":299222},"geometry":{"x":168991.41000000015,"y":2543162.9500000011}},{"attributes":{"ID":299231,"DIS_CODE":0,"TOWNNAME":"中西區","LI":"開山里","LIN":"8鄰","STREET":"府前路","SECT":"一段","MAREA":" ","LANE":"６１巷","ALLEY":" ","HOUSE_NO":"２７號四樓","E_COORD97":168991.41,"N_COORD97":2543162.9500000002,"ADDRESS":"府前路一段６１巷２７號四樓","OBJECTID":299223},"geometry":{"x":168991.41000000015,"y":2543162.9500000011}},{"attributes":{"ID":299232,"DIS_CODE":0,"TOWNNAME":"中西區","LI":"開山里","LIN":"8鄰","STREET":"府前路","SECT":"一段","MAREA":" ","LANE":"６１巷","ALLEY":" ","HOUSE_NO":"２９號一樓","E_COORD97":168987.47,"N_COORD97":2543157.8500000001,"ADDRESS":"府前路一段６１巷２９號一樓","OBJECTID":299224},"geometry":{"x":168987.46999999974,"y":2543157.8500000015}},{"attributes":{"ID":299233,"DIS_CODE":0,"TOWNNAME":"中西區","LI":"開山里","LIN":"8鄰","STREET":"府前路","SECT":"一段","MAREA":" ","LANE":"６１巷","ALLEY":" ","HOUSE_NO":"２９號二樓","E_COORD97":168987.47,"N_COORD97":2543157.8500000001,"ADDRESS":"府前路一段６１巷２９號二樓","OBJECTID":299225},"geometry":{"x":168987.46999999974,"y":2543157.8500000015}},{"attributes":{"ID":299234,"DIS_CODE":0,"TOWNNAME":"中西區","LI":"開山里","LIN":"8鄰","STREET":"府前路","SECT":"一段","MAREA":" ","LANE":"６１巷","ALLEY":" ","HOUSE_NO":"２９號三樓","E_COORD97":168987.47,"N_COORD97":2543157.8500000001,"ADDRESS":"府前路一段６１巷２９號三樓","OBJECTID":299226},"geometry":{"x":168987.46999999974,"y":2543157.8500000015}},{"attributes":{"ID":299235,"DIS_CODE":0,"TOWNNAME":"中西區","LI":"開山里","LIN":"8鄰","STREET":"府前路","SECT":"一段","MAREA":" ","LANE":"６１巷","ALLEY":" ","HOUSE_NO":"２９號四樓","E_COORD97":168987.47,"N_COORD97":2543157.8500000001,"ADDRESS":"府前路一段６１巷２９號四樓","OBJECTID":299227},"geometry":{"x":168987.46999999974,"y":2543157.8500000015}},{"attributes":{"ID":299236,"DIS_CODE":0,"TOWNNAME":"永康區","LI":"安康里","LIN":"8鄰","STREET":"中山南路","SECT":" ","MAREA":" ","LANE":"１１９巷","ALLEY":" ","HOUSE_NO":"５２號六樓","E_COORD97":171090.56,"N_COORD97":2546008.5099999998,"ADDRESS":"中山南路１１９巷５２號六樓","OBJECTID":299228},"geometry":{"x":171090.55999999959,"y":2546008.5100000016}},{"attributes":{"ID":299237,"DIS_CODE":0,"TOWNNAME":"東區","LI":"大學里","LIN":"8鄰","STREET":"大學路","SECT":" ","MAREA":" ","LANE":"１８巷","ALLEY":" ","HOUSE_NO":"１５號三樓","E_COORD97":170138.88,"N_COORD97":2543934.1499999999,"ADDRESS":"大學路１８巷１５號三樓","OBJECTID":299229},"geometry":{"x":170138.88000000082,"y":2543934.1500000004}},{"attributes":{"ID":299238,"DIS_CODE":0,"TOWNNAME":"東區","LI":"大學里","LIN":"8鄰","STREET":"大學路","SECT":" ","MAREA":" ","LANE":"１８巷","ALLEY":" ","HOUSE_NO":"１５號之２三樓","E_COORD97":170139.79999999999,"N_COORD97":2543921.9399999999,"ADDRESS":"大學路１８巷１５號之２三樓","OBJECTID":299230},"geometry":{"x":170139.79999999981,"y":2543921.9399999995}},{"attributes":{"ID":299239,"DIS_CODE":0,"TOWNNAME":"東區","LI":"大學里","LIN":"8鄰","STREET":"大學路","SECT":" ","MAREA":" ","LANE":"１８巷","ALLEY":" ","HOUSE_NO":"１５號之２五樓","E_COORD97":170139.79999999999,"N_COORD97":2543921.9399999999,"ADDRESS":"大學路１８巷１５號之２五樓","OBJECTID":299231},"geometry":{"x":170139.79999999981,"y":2543921.9399999995}},{"attributes":{"ID":299240,"DIS_CODE":0,"TOWNNAME":"東區","LI":"大學里","LIN":"8鄰","STREET":"大學路","SECT":" ","MAREA":" ","LANE":"１８巷","ALLEY":" ","HOUSE_NO":"１５號之３二樓","E_COORD97":170139.53,"N_COORD97":2543914.6499999999,"ADDRESS":"大學路１８巷１５號之３二樓","OBJECTID":299232},"geometry":{"x":170139.53000000119,"y":2543914.6500000004}},{"attributes":{"ID":299241,"DIS_CODE":0,"TOWNNAME":"東區","LI":"大學里","LIN":"8鄰","STREET":"大學路","SECT":" ","MAREA":" ","LANE":"１８巷","ALLEY":" ","HOUSE_NO":"１５號之３五樓","E_COORD97":170139.53,"N_COORD97":2543914.6499999999,"ADDRESS":"大學路１８巷１５號之３五樓","OBJECTID":299233},"geometry":{"x":170139.53000000119,"y":2543914.6500000004}},{"attributes":{"ID":299242,"DIS_CODE":0,"TOWNNAME":"東區","LI":"大學里","LIN":"8鄰","STREET":"大學路","SECT":" ","MAREA":" ","LANE":"１８巷","ALLEY":" ","HOUSE_NO":"１５號五樓","E_COORD97":170138.88,"N_COORD97":2543934.1499999999,"ADDRESS":"大學路１８巷１５號五樓","OBJECTID":299234},"geometry":{"x":170138.88000000082,"y":2543934.1500000004}},{"attributes":{"ID":299243,"DIS_CODE":0,"TOWNNAME":"東區","LI":"大學里","LIN":"8鄰","STREET":"大學路","SECT":" ","MAREA":" ","LANE":"１８巷","ALLEY":" ","HOUSE_NO":"１５號之２二樓","E_COORD97":170139.79999999999,"N_COORD97":2543921.9399999999,"ADDRESS":"大學路１８巷１５號之２二樓","OBJECTID":299235},"geometry":{"x":170139.79999999981,"y":2543921.9399999995}},{"attributes":{"ID":299244,"DIS_CODE":0,"TOWNNAME":"東區","LI":"大學里","LIN":"8鄰","STREET":"大學路","SECT":" ","MAREA":" ","LANE":"１８巷","ALLEY":" ","HOUSE_NO":"１５號二樓","E_COORD97":170138.88,"N_COORD97":2543934.1499999999,"ADDRESS":"大學路１８巷１５號二樓","OBJECTID":299236},"geometry":{"x":170138.88000000082,"y":2543934.1500000004}},{"attributes":{"ID":299245,"DIS_CODE":0,"TOWNNAME":"東區","LI":"大學里","LIN":"8鄰","STREET":"大學路","SECT":" ","MAREA":" ","LANE":"１８巷","ALLEY":" ","HOUSE_NO":"１５號四樓","E_COORD97":170138.88,"N_COORD97":2543934.1499999999,"ADDRESS":"大學路１８巷１５號四樓","OBJECTID":299237},"geometry":{"x":170138.88000000082,"y":2543934.1500000004}},{"attributes":{"ID":299246,"DIS_CODE":0,"TOWNNAME":"東區","LI":"大學里","LIN":"8鄰","STREET":"大學路","SECT":" ","MAREA":" ","LANE":"１８巷","ALLEY":" ","HOUSE_NO":"１５號之１二樓","E_COORD97":170139.26000000001,"N_COORD97":2543928.6699999999,"ADDRESS":"大學路１８巷１５號之１二樓","OBJECTID":299238},"geometry":{"x":170139.26000000071,"y":2543928.6700000018}},{"attributes":{"ID":299247,"DIS_CODE":0,"TOWNNAME":"東區","LI":"大學里","LIN":"8鄰","STREET":"大學路","SECT":" ","MAREA":" ","LANE":"１８巷","ALLEY":" ","HOUSE_NO":"１５號之１三樓","E_COORD97":170139.26000000001,"N_COORD97":2543928.6699999999,"ADDRESS":"大學路１８巷１５號之１三樓","OBJECTID":299239},"geometry":{"x":170139.26000000071,"y":2543928.6700000018}},{"attributes":{"ID":299248,"DIS_CODE":0,"TOWNNAME":"東區","LI":"大學里","LIN":"8鄰","STREET":"大學路","SECT":" ","MAREA":" ","LANE":"１８巷","ALLEY":" ","HOUSE_NO":"１５號之１四樓","E_COORD97":170139.26000000001,"N_COORD97":2543928.6699999999,"ADDRESS":"大學路１８巷１５號之１四樓","OBJECTID":299240},"geometry":{"x":170139.26000000071,"y":2543928.6700000018}},{"attributes":{"ID":299249,"DIS_CODE":0,"TOWNNAME":"東區","LI":"大學里","LIN":"8鄰","STREET":"大學路","SECT":" ","MAREA":" ","LANE":"１８巷","ALLEY":" ","HOUSE_NO":"１５號之１五樓","E_COORD97":170139.26000000001,"N_COORD97":2543928.6699999999,"ADDRESS":"大學路１８巷１５號之１五樓","OBJECTID":299241},"geometry":{"x":170139.26000000071,"y":2543928.6700000018}},{"attributes":{"ID":299250,"DIS_CODE":0,"TOWNNAME":"東區","LI":"南聖里","LIN":"14鄰","STREET":"裕誠街","SECT":" ","MAREA":" ","LANE":" ","ALLEY":" ","HOUSE_NO":"４２５號","E_COORD97":172862.60999999999,"N_COORD97":2543414.8599999999,"ADDRESS":"裕誠街４２５號","OBJECTID":299242},"geometry":{"x":172862.61000000034,"y":2543414.8600000013}},{"attributes":{"ID":299251,"DIS_CODE":0,"TOWNNAME":"東區","LI":"大學里","LIN":"8鄰","STREET":"大學路","SECT":" ","MAREA":" ","LANE":"１８巷","ALLEY":" ","HOUSE_NO":"１５號之２四樓","E_COORD97":170139.79999999999,"N_COORD97":2543921.9399999999,"ADDRESS":"大學路１８巷１５號之２四樓","OBJECTID":299243},"geometry":{"x":170139.79999999981,"y":2543921.9399999995}},{"attributes":{"ID":299252,"DIS_CODE":0,"TOWNNAME":"東區","LI":"大學里","LIN":"8鄰","STREET":"大學路","SECT":" ","MAREA":" ","LANE":"１８巷","ALLEY":" ","HOUSE_NO":"１５號之３三樓","E_COORD97":170139.53,"N_COORD97":2543914.6499999999,"ADDRESS":"大學路１８巷１５號之３三樓","OBJECTID":299244},"geometry":{"x":170139.53000000119,"y":2543914.6500000004}},{"attributes":{"ID":299253,"DIS_CODE":0,"TOWNNAME":"東區","LI":"大學里","LIN":"8鄰","STREET":"大學路","SECT":" ","MAREA":" ","LANE":"１８巷","ALLEY":" ","HOUSE_NO":"１５號之３四樓","E_COORD97":170139.53,"N_COORD97":2543914.6499999999,"ADDRESS":"大學路１８巷１５號之３四樓","OBJECTID":299245},"geometry":{"x":170139.53000000119,"y":2543914.6500000004}},{"attributes":{"ID":299254,"DIS_CODE":0,"TOWNNAME":"東區","LI":"忠孝里","LIN":"8鄰","STREET":"榮譽街","SECT":" ","MAREA":" ","LANE":"８４巷","ALLEY":" ","HOUSE_NO":"１２７號二樓","E_COORD97":169860.79999999999,"N_COORD97":2541608.9300000002,"ADDRESS":"榮譽街８４巷１２７號二樓","OBJECTID":299246},"geometry":{"x":169860.80000000075,"y":2541608.9299999997}},{"attributes":{"ID":299255,"DIS_CODE":0,"TOWNNAME":"東區","LI":"忠孝里","LIN":"8鄰","STREET":"榮譽街","SECT":" ","MAREA":" ","LANE":"８４巷","ALLEY":" ","HOUSE_NO":"１２７號三樓","E_COORD97":169860.79999999999,"N_COORD97":2541608.9300000002,"ADDRESS":"榮譽街８４巷１２７號三樓","OBJECTID":299247},"geometry":{"x":169860.80000000075,"y":2541608.9299999997}},{"attributes":{"ID":299256,"DIS_CODE":0,"TOWNNAME":"東區","LI":"忠孝里","LIN":"8鄰","STREET":"榮譽街","SECT":" ","MAREA":" ","LANE":"８４巷","ALLEY":" ","HOUSE_NO":"１２７號之１三樓","E_COORD97":169867.20999999999,"N_COORD97":2541612.6699999999,"ADDRESS":"榮譽街８４巷１２７號之１三樓","OBJECTID":299248},"geometry":{"x":169867.20999999996,"y":2541612.6700000037}},{"attributes":{"ID":299257,"DIS_CODE":0,"TOWNNAME":"東區","LI":"忠孝里","LIN":"8鄰","STREET":"榮譽街","SECT":" ","MAREA":" ","LANE":"８４巷","ALLEY":" ","HOUSE_NO":"１２７號之１五樓","E_COORD97":169867.20999999999,"N_COORD97":2541612.6699999999,"ADDRESS":"榮譽街８４巷１２７號之１五樓","OBJECTID":299249},"geometry":{"x":169867.20999999996,"y":2541612.6700000037}},{"attributes":{"ID":299258,"DIS_CODE":0,"TOWNNAME":"東區","LI":"忠孝里","LIN":"8鄰","STREET":"榮譽街","SECT":" ","MAREA":" ","LANE":"８４巷","ALLEY":" ","HOUSE_NO":"１２７號之１四樓","E_COORD97":169867.20999999999,"N_COORD97":2541612.6699999999,"ADDRESS":"榮譽街８４巷１２７號之１四樓","OBJECTID":299250},"geometry":{"x":169867.20999999996,"y":2541612.6700000037}},{"attributes":{"ID":299259,"DIS_CODE":0,"TOWNNAME":"關廟區","LI":"龜洞里","LIN":"4鄰","STREET":"南雄南路","SECT":" ","MAREA":" ","LANE":" ","ALLEY":" ","HOUSE_NO":"８８８號","E_COORD97":182571.789039,"N_COORD97":2533026.9273600001,"ADDRESS":"南雄南路８８８號","OBJECTID":299251},"geometry":{"x":182571.78903899994,"y":2533026.9273640029}},{"attributes":{"ID":299260,"DIS_CODE":0,"TOWNNAME":"北門區","LI":"保吉里","LIN":"25鄰","STREET":" ","SECT":" ","MAREA":"海埔","LANE":" ","ALLEY":" ","HOUSE_NO":"１號","E_COORD97":157783.85000000001,"N_COORD97":2576759.7599999998,"ADDRESS":"海埔１號","OBJECTID":299252},"geometry":{"x":157783.85000000056,"y":2576759.7600000035}},{"attributes":{"ID":299261,"DIS_CODE":0,"TOWNNAME":"下營區","LI":"茅港里","LIN":"4鄰","STREET":" ","SECT":" ","MAREA":"茅港尾","LANE":" ","ALLEY":" ","HOUSE_NO":"６４號","E_COORD97":177337.72,"N_COORD97":2568945.6800000002,"ADDRESS":"茅港尾６４號","OBJECTID":299253},"geometry":{"x":177337.71999999974,"y":2568945.6800000016}},{"attributes":{"ID":299262,"DIS_CODE":0,"TOWNNAME":"永康區","LI":"中興里","LIN":"18鄰","STREET":"中華路","SECT":" ","MAREA":" ","LANE":"２８６巷","ALLEY":" ","HOUSE_NO":"５６號","E_COORD97":171717.26000000001,"N_COORD97":2545316.7599999998,"ADDRESS":"中華路２８６巷５６號","OBJECTID":299254},"geometry":{"x":171717.26000000071,"y":2545316.7599999998}},{"attributes":{"ID":299263,"DIS_CODE":0,"TOWNNAME":"永康區","LI":"中興里","LIN":"18鄰","STREET":"中華路","SECT":" ","MAREA":" ","LANE":"２８６巷","ALLEY":" ","HOUSE_NO":"７５號","E_COORD97":171722.82000000001,"N_COORD97":2545335.2400000002,"ADDRESS":"中華路２８６巷７５號","OBJECTID":299255},"geometry":{"x":171722.82000000123,"y":2545335.2400000021}},{"attributes":{"ID":299264,"DIS_CODE":0,"TOWNNAME":"東區","LI":"忠孝里","LIN":"8鄰","STREET":"榮譽街","SECT":" ","MAREA":" ","LANE":"８４巷","ALLEY":" ","HOUSE_NO":"１２７號四樓","E_COORD97":169860.79999999999,"N_COORD97":2541608.9300000002,"ADDRESS":"榮譽街８４巷１２７號四樓","OBJECTID":299256},"geometry":{"x":169860.80000000075,"y":2541608.9299999997}},{"attributes":{"ID":299265,"DIS_CODE":0,"TOWNNAME":"東區","LI":"忠孝里","LIN":"8鄰","STREET":"榮譽街","SECT":" ","MAREA":" ","LANE":"８４巷","ALLEY":" ","HOUSE_NO":"１２７號之１二樓","E_COORD97":169867.20999999999,"N_COORD97":2541612.6699999999,"ADDRESS":"榮譽街８４巷１２７號之１二樓","OBJECTID":299257},"geometry":{"x":169867.20999999996,"y":2541612.6700000037}},{"attributes":{"ID":299266,"DIS_CODE":0,"TOWNNAME":"東區","LI":"忠孝里","LIN":"8鄰","STREET":"榮譽街","SECT":" ","MAREA":" ","LANE":"８４巷","ALLEY":" ","HOUSE_NO":"１２７號五樓","E_COORD97":169860.79999999999,"N_COORD97":2541608.9300000002,"ADDRESS":"榮譽街８４巷１２７號五樓","OBJECTID":299258},"geometry":{"x":169860.80000000075,"y":2541608.9299999997}},{"attributes":{"ID":299267,"DIS_CODE":0,"TOWNNAME":"東區","LI":"大學里","LIN":"8鄰","STREET":"大學路","SECT":" ","MAREA":" ","LANE":"１８巷","ALLEY":" ","HOUSE_NO":"２８號之１二樓","E_COORD97":170120.20999999999,"N_COORD97":2543812.6000000001,"ADDRESS":"大學路１８巷２８號之１二樓","OBJECTID":299259},"geometry":{"x":170120.20999999996,"y":2543812.5999999996}},{"attributes":{"ID":299268,"DIS_CODE":0,"TOWNNAME":"東區","LI":"大學里","LIN":"8鄰","STREET":"大學路","SECT":" ","MAREA":" ","LANE":"１８巷","ALLEY":" ","HOUSE_NO":"２８號之１三樓","E_COORD97":170120.20999999999,"N_COORD97":2543812.6000000001,"ADDRESS":"大學路１８巷２８號之１三樓","OBJECTID":299260},"geometry":{"x":170120.20999999996,"y":2543812.5999999996}},{"attributes":{"ID":299269,"DIS_CODE":0,"TOWNNAME":"東區","LI":"大學里","LIN":"8鄰","STREET":"大學路","SECT":" ","MAREA":" ","LANE":"１８巷","ALLEY":" ","HOUSE_NO":"２８號之１四樓","E_COORD97":170120.20999999999,"N_COORD97":2543812.6000000001,"ADDRESS":"大學路１８巷２８號之１四樓","OBJECTID":299261},"geometry":{"x":170120.20999999996,"y":2543812.5999999996}},{"attributes":{"ID":299270,"DIS_CODE":0,"TOWNNAME":"東區","LI":"東明里","LIN":"8鄰","STREET":"怡東路","SECT":" ","MAREA":" ","LANE":"８６巷","ALLEY":" ","HOUSE_NO":"１０號二樓","E_COORD97":170913.67000000001,"N_COORD97":2543679.2799999998,"ADDRESS":"怡東路８６巷１０號二樓","OBJECTID":299262},"geometry":{"x":170913.66999999993,"y":2543679.2800000031}},{"attributes":{"ID":299271,"DIS_CODE":0,"TOWNNAME":"東區","LI":"東明里","LIN":"8鄰","STREET":"怡東路","SECT":" ","MAREA":" ","LANE":"８６巷","ALLEY":" ","HOUSE_NO":"１０號三樓","E_COORD97":170913.67000000001,"N_COORD97":2543679.2799999998,"ADDRESS":"怡東路８６巷１０號三樓","OBJECTID":299263},"geometry":{"x":170913.66999999993,"y":2543679.2800000031}},{"attributes":{"ID":299272,"DIS_CODE":0,"TOWNNAME":"東區","LI":"東明里","LIN":"8鄰","STREET":"怡東路","SECT":" ","MAREA":" ","LANE":"８６巷","ALLEY":" ","HOUSE_NO":"１０號五樓","E_COORD97":170913.67000000001,"N_COORD97":2543679.2799999998,"ADDRESS":"怡東路８６巷１０號五樓","OBJECTID":299264},"geometry":{"x":170913.66999999993,"y":2543679.2800000031}},{"attributes":{"ID":299273,"DIS_CODE":0,"TOWNNAME":"東區","LI":"東明里","LIN":"8鄰","STREET":"怡東路","SECT":" ","MAREA":" ","LANE":"８６巷","ALLEY":" ","HOUSE_NO":"１０號四樓","E_COORD97":170913.67000000001,"N_COORD97":2543679.2799999998,"ADDRESS":"怡東路８６巷１０號四樓","OBJECTID":299265},"geometry":{"x":170913.66999999993,"y":2543679.2800000031}},{"attributes":{"ID":299274,"DIS_CODE":0,"TOWNNAME":"東區","LI":"東明里","LIN":"8鄰","STREET":"怡東路","SECT":" ","MAREA":" ","LANE":"８６巷","ALLEY":" ","HOUSE_NO":"１２號二樓","E_COORD97":170920.45000000001,"N_COORD97":2543678.27,"ADDRESS":"怡東路８６巷１２號二樓","OBJECTID":299266},"geometry":{"x":170920.45000000019,"y":2543678.2699999996}},{"attributes":{"ID":299275,"DIS_CODE":0,"TOWNNAME":"東區","LI":"東明里","LIN":"8鄰","STREET":"怡東路","SECT":" ","MAREA":" ","LANE":"８６巷","ALLEY":" ","HOUSE_NO":"１２號三樓","E_COORD97":170920.45000000001,"N_COORD97":2543678.27,"ADDRESS":"怡東路８６巷１２號三樓","OBJECTID":299267},"geometry":{"x":170920.45000000019,"y":2543678.2699999996}},{"attributes":{"ID":299276,"DIS_CODE":0,"TOWNNAME":"東區","LI":"東明里","LIN":"8鄰","STREET":"怡東路","SECT":" ","MAREA":" ","LANE":"８６巷","ALLEY":" ","HOUSE_NO":"１２號五樓","E_COORD97":170920.45000000001,"N_COORD97":2543678.27,"ADDRESS":"怡東路８６巷１２號五樓","OBJECTID":299268},"geometry":{"x":170920.45000000019,"y":2543678.2699999996}},{"attributes":{"ID":299277,"DIS_CODE":0,"TOWNNAME":"東區","LI":"東明里","LIN":"8鄰","STREET":"怡東路","SECT":" ","MAREA":" ","LANE":"８６巷","ALLEY":" ","HOUSE_NO":"１２號四樓","E_COORD97":170920.45000000001,"N_COORD97":2543678.27,"ADDRESS":"怡東路８６巷１２號四樓","OBJECTID":299269},"geometry":{"x":170920.45000000019,"y":2543678.2699999996}},{"attributes":{"ID":299278,"DIS_CODE":0,"TOWNNAME":"東區","LI":"東明里","LIN":"8鄰","STREET":"怡東路","SECT":" ","MAREA":" ","LANE":"８６巷","ALLEY":" ","HOUSE_NO":"１４號二樓","E_COORD97":170927.38,"N_COORD97":2543677.1200000001,"ADDRESS":"怡東路８６巷１４號二樓","OBJECTID":299270},"geometry":{"x":170927.37999999989,"y":2543677.120000001}},{"attributes":{"ID":299279,"DIS_CODE":0,"TOWNNAME":"東區","LI":"東明里","LIN":"8鄰","STREET":"怡東路","SECT":" ","MAREA":" ","LANE":"８６巷","ALLEY":" ","HOUSE_NO":"１４號三樓","E_COORD97":170927.38,"N_COORD97":2543677.1200000001,"ADDRESS":"怡東路８６巷１４號三樓","OBJECTID":299271},"geometry":{"x":170927.37999999989,"y":2543677.120000001}},{"attributes":{"ID":299280,"DIS_CODE":0,"TOWNNAME":"東區","LI":"東明里","LIN":"8鄰","STREET":"怡東路","SECT":" ","MAREA":" ","LANE":"８６巷","ALLEY":" ","HOUSE_NO":"１４號五樓","E_COORD97":170927.38,"N_COORD97":2543677.1200000001,"ADDRESS":"怡東路８６巷１４號五樓","OBJECTID":299272},"geometry":{"x":170927.37999999989,"y":2543677.120000001}},{"attributes":{"ID":299281,"DIS_CODE":0,"TOWNNAME":"東區","LI":"東明里","LIN":"8鄰","STREET":"怡東路","SECT":" ","MAREA":" ","LANE":"８６巷","ALLEY":" ","HOUSE_NO":"１４號四樓","E_COORD97":170927.38,"N_COORD97":2543677.1200000001,"ADDRESS":"怡東路８６巷１４號四樓","OBJECTID":299273},"geometry":{"x":170927.37999999989,"y":2543677.120000001}},{"attributes":{"ID":299282,"DIS_CODE":0,"TOWNNAME":"東區","LI":"東明里","LIN":"8鄰","STREET":"怡東路","SECT":" ","MAREA":" ","LANE":"８６巷","ALLEY":" ","HOUSE_NO":"１６號二樓","E_COORD97":170935.17999999999,"N_COORD97":2543675.2400000002,"ADDRESS":"怡東路８６巷１６號二樓","OBJECTID":299274},"geometry":{"x":170935.1799999997,"y":2543675.2400000021}},{"attributes":{"ID":299283,"DIS_CODE":0,"TOWNNAME":"東區","LI":"南聖里","LIN":"14鄰","STREET":"裕誠街","SECT":" ","MAREA":" ","LANE":" ","ALLEY":" ","HOUSE_NO":"４１１號","E_COORD97":172829.37,"N_COORD97":2543408.3199999998,"ADDRESS":"裕誠街４１１號","OBJECTID":299275},"geometry":{"x":172829.37000000104,"y":2543408.3200000003}},{"attributes":{"ID":299284,"DIS_CODE":0,"TOWNNAME":"東區","LI":"南聖里","LIN":"14鄰","STREET":"裕誠街","SECT":" ","MAREA":" ","LANE":" ","ALLEY":" ","HOUSE_NO":"４１３號","E_COORD97":172834.94,"N_COORD97":2543409.2999999998,"ADDRESS":"裕誠街４１３號","OBJECTID":299276},"geometry":{"x":172834.94000000041,"y":2543409.3000000045}},{"attributes":{"ID":299285,"DIS_CODE":0,"TOWNNAME":"東區","LI":"南聖里","LIN":"14鄰","STREET":"裕誠街","SECT":" ","MAREA":" ","LANE":" ","ALLEY":" ","HOUSE_NO":"４１５號","E_COORD97":172840.17999999999,"N_COORD97":2543410.4399999999,"ADDRESS":"裕誠街４１５號","OBJECTID":299277},"geometry":{"x":172840.18000000063,"y":2543410.4400000032}},{"attributes":{"ID":299286,"DIS_CODE":0,"TOWNNAME":"永康區","LI":"中興里","LIN":"18鄰","STREET":"中華路","SECT":" ","MAREA":" ","LANE":"２８６巷","ALLEY":" ","HOUSE_NO":"３２號之１","E_COORD97":171684.26000000001,"N_COORD97":2545311.2999999998,"ADDRESS":"中華路２８６巷３２號之１","OBJECTID":299278},"geometry":{"x":171684.25999999978,"y":2545311.3000000045}},{"attributes":{"ID":299287,"DIS_CODE":0,"TOWNNAME":"永康區","LI":"五王里","LIN":"18鄰","STREET":"成功路","SECT":" ","MAREA":" ","LANE":"１７２巷","ALLEY":" ","HOUSE_NO":"６５號","E_COORD97":171553.45000000001,"N_COORD97":2545738.6299999999,"ADDRESS":"成功路１７２巷６５號","OBJECTID":299279},"geometry":{"x":171553.45000000205,"y":2545738.6300000008}},{"attributes":{"ID":299288,"DIS_CODE":0,"TOWNNAME":"永康區","LI":"大橋里","LIN":"4鄰","STREET":"大橋一街","SECT":" ","MAREA":" ","LANE":"２４７巷","ALLEY":" ","HOUSE_NO":"１６５號","E_COORD97":171012.51000000001,"N_COORD97":2547046.6099999999,"ADDRESS":"大橋一街２４７巷１６５號","OBJECTID":299280},"geometry":{"x":171012.51000000071,"y":2547046.6099999994}},{"attributes":{"ID":299289,"DIS_CODE":0,"TOWNNAME":"東區","LI":"忠孝里","LIN":"4鄰","STREET":"崇明四街","SECT":" ","MAREA":" ","LANE":"２６巷","ALLEY":" ","HOUSE_NO":"６號七樓之１","E_COORD97":169658.28,"N_COORD97":2542274.1299999999,"ADDRESS":"崇明四街２６巷６號七樓之１","OBJECTID":299281},"geometry":{"x":169658.28000000119,"y":2542274.1300000008}},{"attributes":{"ID":299290,"DIS_CODE":0,"TOWNNAME":"東區","LI":"忠孝里","LIN":"4鄰","STREET":"崇明四街","SECT":" ","MAREA":" ","LANE":"２６巷","ALLEY":" ","HOUSE_NO":"６號七樓之２","E_COORD97":169658.28,"N_COORD97":2542274.1299999999,"ADDRESS":"崇明四街２６巷６號七樓之２","OBJECTID":299282},"geometry":{"x":169658.28000000119,"y":2542274.1300000008}},{"attributes":{"ID":299291,"DIS_CODE":0,"TOWNNAME":"東區","LI":"東明里","LIN":"8鄰","STREET":"怡東路","SECT":" ","MAREA":" ","LANE":"８６巷","ALLEY":" ","HOUSE_NO":"１６號三樓","E_COORD97":170935.17999999999,"N_COORD97":2543675.2400000002,"ADDRESS":"怡東路８６巷１６號三樓","OBJECTID":299283},"geometry":{"x":170935.1799999997,"y":2543675.2400000021}},{"attributes":{"ID":299292,"DIS_CODE":0,"TOWNNAME":"東區","LI":"東明里","LIN":"8鄰","STREET":"怡東路","SECT":" ","MAREA":" ","LANE":"８６巷","ALLEY":" ","HOUSE_NO":"１６號四樓","E_COORD97":170935.17999999999,"N_COORD97":2543675.2400000002,"ADDRESS":"怡東路８６巷１６號四樓","OBJECTID":299284},"geometry":{"x":170935.1799999997,"y":2543675.2400000021}},{"attributes":{"ID":299293,"DIS_CODE":0,"TOWNNAME":"東區","LI":"東明里","LIN":"8鄰","STREET":"怡東路","SECT":" ","MAREA":" ","LANE":"８６巷","ALLEY":" ","HOUSE_NO":"２號二樓","E_COORD97":170884.79999999999,"N_COORD97":2543680.4399999999,"ADDRESS":"怡東路８６巷２號二樓","OBJECTID":299285},"geometry":{"x":170884.80000000075,"y":2543680.4399999995}},{"attributes":{"ID":299294,"DIS_CODE":0,"TOWNNAME":"東區","LI":"東明里","LIN":"8鄰","STREET":"怡東路","SECT":" ","MAREA":" ","LANE":"８６巷","ALLEY":" ","HOUSE_NO":"２號五樓","E_COORD97":170884.79999999999,"N_COORD97":2543680.4399999999,"ADDRESS":"怡東路８６巷２號五樓","OBJECTID":299286},"geometry":{"x":170884.80000000075,"y":2543680.4399999995}},{"attributes":{"ID":299295,"DIS_CODE":0,"TOWNNAME":"東區","LI":"東明里","LIN":"8鄰","STREET":"怡東路","SECT":" ","MAREA":" ","LANE":"８６巷","ALLEY":" ","HOUSE_NO":"２號四樓","E_COORD97":170884.79999999999,"N_COORD97":2543680.4399999999,"ADDRESS":"怡東路８６巷２號四樓","OBJECTID":299287},"geometry":{"x":170884.80000000075,"y":2543680.4399999995}},{"attributes":{"ID":299296,"DIS_CODE":0,"TOWNNAME":"東區","LI":"東明里","LIN":"8鄰","STREET":"怡東路","SECT":" ","MAREA":" ","LANE":"８６巷","ALLEY":" ","HOUSE_NO":"４號二樓","E_COORD97":170892.29999999999,"N_COORD97":2543680.29,"ADDRESS":"怡東路８６巷４號二樓","OBJECTID":299288},"geometry":{"x":170892.29999999981,"y":2543680.290000001}},{"attributes":{"ID":299297,"DIS_CODE":0,"TOWNNAME":"東區","LI":"東明里","LIN":"8鄰","STREET":"怡東路","SECT":" ","MAREA":" ","LANE":"８６巷","ALLEY":" ","HOUSE_NO":"４號三樓","E_COORD97":170892.29999999999,"N_COORD97":2543680.29,"ADDRESS":"怡東路８６巷４號三樓","OBJECTID":299289},"geometry":{"x":170892.29999999981,"y":2543680.290000001}},{"attributes":{"ID":299298,"DIS_CODE":0,"TOWNNAME":"東區","LI":"東明里","LIN":"8鄰","STREET":"怡東路","SECT":" ","MAREA":" ","LANE":"８６巷","ALLEY":" ","HOUSE_NO":"４號五樓","E_COORD97":170892.29999999999,"N_COORD97":2543680.29,"ADDRESS":"怡東路８６巷４號五樓","OBJECTID":299290},"geometry":{"x":170892.29999999981,"y":2543680.290000001}},{"attributes":{"ID":299299,"DIS_CODE":0,"TOWNNAME":"東區","LI":"東明里","LIN":"8鄰","STREET":"怡東路","SECT":" ","MAREA":" ","LANE":"８６巷","ALLEY":" ","HOUSE_NO":"４號四樓","E_COORD97":170892.29999999999,"N_COORD97":2543680.29,"ADDRESS":"怡東路８６巷４號四樓","OBJECTID":299291},"geometry":{"x":170892.29999999981,"y":2543680.290000001}},{"attributes":{"ID":299300,"DIS_CODE":0,"TOWNNAME":"東區","LI":"東明里","LIN":"8鄰","STREET":"怡東路","SECT":" ","MAREA":" ","LANE":"８６巷","ALLEY":" ","HOUSE_NO":"６號二樓","E_COORD97":170900.23999999999,"N_COORD97":2543680.7200000002,"ADDRESS":"怡東路８６巷６號二樓","OBJECTID":299292},"geometry":{"x":170900.24000000022,"y":2543680.7200000007}},{"attributes":{"ID":299301,"DIS_CODE":0,"TOWNNAME":"東區","LI":"東明里","LIN":"8鄰","STREET":"怡東路","SECT":" ","MAREA":" ","LANE":"８６巷","ALLEY":" ","HOUSE_NO":"６號三樓","E_COORD97":170900.23999999999,"N_COORD97":2543680.7200000002,"ADDRESS":"怡東路８６巷６號三樓","OBJECTID":299293},"geometry":{"x":170900.24000000022,"y":2543680.7200000007}},{"attributes":{"ID":299302,"DIS_CODE":0,"TOWNNAME":"東區","LI":"南聖里","LIN":"14鄰","STREET":"裕誠街","SECT":" ","MAREA":" ","LANE":" ","ALLEY":" ","HOUSE_NO":"４１７號","E_COORD97":172844.76000000001,"N_COORD97":2543411.2599999998,"ADDRESS":"裕誠街４１７號","OBJECTID":299294},"geometry":{"x":172844.76000000071,"y":2543411.2599999998}},{"attributes":{"ID":299303,"DIS_CODE":0,"TOWNNAME":"東區","LI":"南聖里","LIN":"14鄰","STREET":"裕誠街","SECT":" ","MAREA":" ","LANE":" ","ALLEY":" ","HOUSE_NO":"４１９號","E_COORD97":172849.01999999999,"N_COORD97":2543412.25,"ADDRESS":"裕誠街４１９號","OBJECTID":299295},"geometry":{"x":172849.02000000142,"y":2543412.2500000037}},{"attributes":{"ID":299304,"DIS_CODE":0,"TOWNNAME":"東區","LI":"南聖里","LIN":"14鄰","STREET":"裕誠街","SECT":" ","MAREA":" ","LANE":" ","ALLEY":" ","HOUSE_NO":"４２１號","E_COORD97":172853.44,"N_COORD97":2543413.23,"ADDRESS":"裕誠街４２１號","OBJECTID":299296},"geometry":{"x":172853.44000000041,"y":2543413.2300000023}},{"attributes":{"ID":299305,"DIS_CODE":0,"TOWNNAME":"東區","LI":"南聖里","LIN":"14鄰","STREET":"裕誠街","SECT":" ","MAREA":" ","LANE":" ","ALLEY":" ","HOUSE_NO":"４２３號","E_COORD97":172858.35000000001,"N_COORD97":2543414.0499999998,"ADDRESS":"裕誠街４２３號","OBJECTID":299297},"geometry":{"x":172858.34999999963,"y":2543414.0500000007}},{"attributes":{"ID":299306,"DIS_CODE":0,"TOWNNAME":"東區","LI":"南聖里","LIN":"14鄰","STREET":"裕誠街","SECT":" ","MAREA":" ","LANE":" ","ALLEY":" ","HOUSE_NO":"４２７號","E_COORD97":172863.59,"N_COORD97":2543401.1099999999,"ADDRESS":"裕誠街４２７號","OBJECTID":299298},"geometry":{"x":172863.58999999985,"y":2543401.1099999994}},{"attributes":{"ID":299307,"DIS_CODE":0,"TOWNNAME":"東區","LI":"南聖里","LIN":"14鄰","STREET":"裕誠街","SECT":" ","MAREA":" ","LANE":" ","ALLEY":" ","HOUSE_NO":"４２９號","E_COORD97":172859.5,"N_COORD97":2543400.46,"ADDRESS":"裕誠街４２９號","OBJECTID":299299},"geometry":{"x":172859.5,"y":2543400.4600000009}},{"attributes":{"ID":299308,"DIS_CODE":0,"TOWNNAME":"永康區","LI":"大灣里","LIN":"13鄰","STREET":"大灣路","SECT":" ","MAREA":" ","LANE":"２１５巷","ALLEY":" ","HOUSE_NO":"２８號","E_COORD97":175054.39000000001,"N_COORD97":2545305.9199999999,"ADDRESS":"大灣路２１５巷２８號","OBJECTID":299300},"geometry":{"x":175054.3900000006,"y":2545305.9199999999}},{"attributes":{"ID":299309,"DIS_CODE":0,"TOWNNAME":"永康區","LI":"大橋里","LIN":"24鄰","STREET":"大橋一街","SECT":" ","MAREA":" ","LANE":"２２３巷","ALLEY":" ","HOUSE_NO":"８２號","E_COORD97":171174.76999999999,"N_COORD97":2546764.4199999999,"ADDRESS":"大橋一街２２３巷８２號","OBJECTID":299301},"geometry":{"x":171174.77000000048,"y":2546764.4200000018}},{"attributes":{"ID":299310,"DIS_CODE":0,"TOWNNAME":"東區","LI":"東明里","LIN":"8鄰","STREET":"怡東路","SECT":" ","MAREA":" ","LANE":"８６巷","ALLEY":" ","HOUSE_NO":"６號五樓","E_COORD97":170900.23999999999,"N_COORD97":2543680.7200000002,"ADDRESS":"怡東路８６巷６號五樓","OBJECTID":299302},"geometry":{"x":170900.24000000022,"y":2543680.7200000007}},{"attributes":{"ID":299311,"DIS_CODE":0,"TOWNNAME":"東區","LI":"東明里","LIN":"8鄰","STREET":"怡東路","SECT":" ","MAREA":" ","LANE":"８６巷","ALLEY":" ","HOUSE_NO":"６號四樓","E_COORD97":170900.23999999999,"N_COORD97":2543680.7200000002,"ADDRESS":"怡東路８６巷６號四樓","OBJECTID":299303},"geometry":{"x":170900.24000000022,"y":2543680.7200000007}},{"attributes":{"ID":299312,"DIS_CODE":0,"TOWNNAME":"東區","LI":"東明里","LIN":"8鄰","STREET":"怡東路","SECT":" ","MAREA":" ","LANE":"８６巷","ALLEY":" ","HOUSE_NO":"８號三樓","E_COORD97":170906.73999999999,"N_COORD97":2543679.5699999998,"ADDRESS":"怡東路８６巷８號三樓","OBJECTID":299304},"geometry":{"x":170906.74000000022,"y":2543679.5700000022}},{"attributes":{"ID":299313,"DIS_CODE":0,"TOWNNAME":"東區","LI":"東明里","LIN":"8鄰","STREET":"怡東路","SECT":" ","MAREA":" ","LANE":"８６巷","ALLEY":" ","HOUSE_NO":"８號四樓","E_COORD97":170906.73999999999,"N_COORD97":2543679.5699999998,"ADDRESS":"怡東路８６巷８號四樓","OBJECTID":299305},"geometry":{"x":170906.74000000022,"y":2543679.5700000022}},{"attributes":{"ID":299314,"DIS_CODE":0,"TOWNNAME":"東區","LI":"東明里","LIN":"8鄰","STREET":"怡東路","SECT":" ","MAREA":" ","LANE":"８６巷","ALLEY":" ","HOUSE_NO":"８號五樓","E_COORD97":170906.73999999999,"N_COORD97":2543679.5699999998,"ADDRESS":"怡東路８６巷８號五樓","OBJECTID":299306},"geometry":{"x":170906.74000000022,"y":2543679.5700000022}},{"attributes":{"ID":299315,"DIS_CODE":0,"TOWNNAME":"東區","LI":"南聖里","LIN":"14鄰","STREET":"裕誠街","SECT":" ","MAREA":" ","LANE":" ","ALLEY":" ","HOUSE_NO":"４３１號","E_COORD97":172855.23999999999,"N_COORD97":2543399.9700000002,"ADDRESS":"裕誠街４３１號","OBJECTID":299307},"geometry":{"x":172855.24000000115,"y":2543399.9700000007}},{"attributes":{"ID":299316,"DIS_CODE":0,"TOWNNAME":"東區","LI":"南聖里","LIN":"14鄰","STREET":"裕誠街","SECT":" ","MAREA":" ","LANE":" ","ALLEY":" ","HOUSE_NO":"４３３號","E_COORD97":172850.98999999999,"N_COORD97":2543399.4700000002,"ADDRESS":"裕誠街４３３號","OBJECTID":299308},"geometry":{"x":172850.99000000022,"y":2543399.4700000025}},{"attributes":{"ID":299317,"DIS_CODE":0,"TOWNNAME":"永康區","LI":"中興里","LIN":"18鄰","STREET":"中華路","SECT":" ","MAREA":" ","LANE":"２８６巷","ALLEY":" ","HOUSE_NO":"５７號","E_COORD97":171681.67999999999,"N_COORD97":2545334.2400000002,"ADDRESS":"中華路２８６巷５７號","OBJECTID":299309},"geometry":{"x":171681.6799999997,"y":2545334.2400000002}},{"attributes":{"ID":299318,"DIS_CODE":0,"TOWNNAME":"永康區","LI":"中興里","LIN":"25鄰","STREET":"中華路","SECT":" ","MAREA":" ","LANE":"２８０巷","ALLEY":" ","HOUSE_NO":"１２號","E_COORD97":171673.37,"N_COORD97":2545176.75,"ADDRESS":"中華路２８０巷１２號","OBJECTID":299310},"geometry":{"x":171673.37000000011,"y":2545176.7500000019}},{"attributes":{"ID":299319,"DIS_CODE":0,"TOWNNAME":"東區","LI":"東明里","LIN":"8鄰","STREET":"怡東路","SECT":" ","MAREA":" ","LANE":"８６巷","ALLEY":" ","HOUSE_NO":"１６號五樓","E_COORD97":170935.17999999999,"N_COORD97":2543675.2400000002,"ADDRESS":"怡東路８６巷１６號五樓","OBJECTID":299311},"geometry":{"x":170935.1799999997,"y":2543675.2400000021}},{"attributes":{"ID":299320,"DIS_CODE":0,"TOWNNAME":"東區","LI":"崇明里","LIN":"8鄰","STREET":"大同路","SECT":"二段","MAREA":" ","LANE":"４４９巷","ALLEY":" ","HOUSE_NO":"３號之１三樓","E_COORD97":169576.35000000001,"N_COORD97":2541284.0600000001,"ADDRESS":"大同路二段４４９巷３號之１三樓","OBJECTID":299312},"geometry":{"x":169576.34999999963,"y":2541284.0600000005}},{"attributes":{"ID":299321,"DIS_CODE":0,"TOWNNAME":"東區","LI":"崇明里","LIN":"8鄰","STREET":"大同路","SECT":"二段","MAREA":" ","LANE":"４４９巷","ALLEY":" ","HOUSE_NO":"３號之１四樓","E_COORD97":169576.35000000001,"N_COORD97":2541284.0600000001,"ADDRESS":"大同路二段４４９巷３號之１四樓","OBJECTID":299313},"geometry":{"x":169576.34999999963,"y":2541284.0600000005}},{"attributes":{"ID":299322,"DIS_CODE":0,"TOWNNAME":"東區","LI":"崇明里","LIN":"8鄰","STREET":"大同路","SECT":"二段","MAREA":" ","LANE":"４４９巷","ALLEY":" ","HOUSE_NO":"３號之３二樓","E_COORD97":169577.14000000001,"N_COORD97":2541311.1000000001,"ADDRESS":"大同路二段４４９巷３號之３二樓","OBJECTID":299314},"geometry":{"x":169577.1400000006,"y":2541311.1000000034}},{"attributes":{"ID":299323,"DIS_CODE":0,"TOWNNAME":"東區","LI":"崇明里","LIN":"8鄰","STREET":"大同路","SECT":"二段","MAREA":" ","LANE":"４４９巷","ALLEY":" ","HOUSE_NO":"３號之３三樓","E_COORD97":169577.14000000001,"N_COORD97":2541311.1000000001,"ADDRESS":"大同路二段４４９巷３號之３三樓","OBJECTID":299315},"geometry":{"x":169577.1400000006,"y":2541311.1000000034}},{"attributes":{"ID":299324,"DIS_CODE":0,"TOWNNAME":"東區","LI":"崇明里","LIN":"8鄰","STREET":"大同路","SECT":"二段","MAREA":" ","LANE":"４４９巷","ALLEY":" ","HOUSE_NO":"３號之３五樓","E_COORD97":169577.14000000001,"N_COORD97":2541311.1000000001,"ADDRESS":"大同路二段４４９巷３號之３五樓","OBJECTID":299316},"geometry":{"x":169577.1400000006,"y":2541311.1000000034}},{"attributes":{"ID":299325,"DIS_CODE":0,"TOWNNAME":"東區","LI":"崇明里","LIN":"8鄰","STREET":"大同路","SECT":"二段","MAREA":" ","LANE":"４４９巷","ALLEY":" ","HOUSE_NO":"３號之３四樓","E_COORD97":169577.14000000001,"N_COORD97":2541311.1000000001,"ADDRESS":"大同路二段４４９巷３號之３四樓","OBJECTID":299317},"geometry":{"x":169577.1400000006,"y":2541311.1000000034}},{"attributes":{"ID":299326,"DIS_CODE":0,"TOWNNAME":"東區","LI":"崇明里","LIN":"8鄰","STREET":"大同路","SECT":"二段","MAREA":" ","LANE":"４４９巷","ALLEY":" ","HOUSE_NO":"３號之４一樓之１","E_COORD97":169588.79000000001,"N_COORD97":2541320.77,"ADDRESS":"大同路二段４４９巷３號之４一樓之１","OBJECTID":299318},"geometry":{"x":169588.79000000004,"y":2541320.7700000014}},{"attributes":{"ID":299327,"DIS_CODE":0,"TOWNNAME":"東區","LI":"崇明里","LIN":"8鄰","STREET":"大同路","SECT":"二段","MAREA":" ","LANE":"４４９巷","ALLEY":" ","HOUSE_NO":"３號之４一樓之２","E_COORD97":169592.73999999999,"N_COORD97":2541308.5299999998,"ADDRESS":"大同路二段４４９巷３號之４一樓之２","OBJECTID":299319},"geometry":{"x":169592.74000000022,"y":2541308.5300000012}},{"attributes":{"ID":299328,"DIS_CODE":0,"TOWNNAME":"東區","LI":"崇明里","LIN":"8鄰","STREET":"大同路","SECT":"二段","MAREA":" ","LANE":"４４９巷","ALLEY":" ","HOUSE_NO":"３號之４二樓之２","E_COORD97":169592.73999999999,"N_COORD97":2541308.5299999998,"ADDRESS":"大同路二段４４９巷３號之４二樓之２","OBJECTID":299320},"geometry":{"x":169592.74000000022,"y":2541308.5300000012}},{"attributes":{"ID":299329,"DIS_CODE":0,"TOWNNAME":"東區","LI":"崇明里","LIN":"8鄰","STREET":"大同路","SECT":"二段","MAREA":" ","LANE":"４４９巷","ALLEY":" ","HOUSE_NO":"３號之４三樓之１","E_COORD97":169588.79000000001,"N_COORD97":2541320.77,"ADDRESS":"大同路二段４４９巷３號之４三樓之１","OBJECTID":299321},"geometry":{"x":169588.79000000004,"y":2541320.7700000014}},{"attributes":{"ID":299330,"DIS_CODE":0,"TOWNNAME":"東區","LI":"南聖里","LIN":"14鄰","STREET":"裕誠街","SECT":" ","MAREA":" ","LANE":" ","ALLEY":" ","HOUSE_NO":"４３５號","E_COORD97":172846.39999999999,"N_COORD97":2543398.6600000001,"ADDRESS":"裕誠街４３５號","OBJECTID":299322},"geometry":{"x":172846.4000000013,"y":2543398.6600000001}},{"attributes":{"ID":299331,"DIS_CODE":0,"TOWNNAME":"東區","LI":"南聖里","LIN":"14鄰","STREET":"裕誠街","SECT":" ","MAREA":" ","LANE":" ","ALLEY":" ","HOUSE_NO":"４３７號","E_COORD97":172858.84,"N_COORD97":2543387.0299999998,"ADDRESS":"裕誠街４３７號","OBJECTID":299323},"geometry":{"x":172858.83999999985,"y":2543387.0300000012}},{"attributes":{"ID":299332,"DIS_CODE":0,"TOWNNAME":"東區","LI":"南聖里","LIN":"14鄰","STREET":"裕誠街","SECT":" ","MAREA":" ","LANE":" ","ALLEY":" ","HOUSE_NO":"４３９號","E_COORD97":172853.76999999999,"N_COORD97":2543385.8900000001,"ADDRESS":"裕誠街４３９號","OBJECTID":299324},"geometry":{"x":172853.76999999955,"y":2543385.8900000025}},{"attributes":{"ID":299333,"DIS_CODE":0,"TOWNNAME":"永康區","LI":"中興里","LIN":"18鄰","STREET":"中華路","SECT":" ","MAREA":" ","LANE":"２８６巷","ALLEY":" ","HOUSE_NO":"５９號","E_COORD97":171688.35999999999,"N_COORD97":2545333.2400000002,"ADDRESS":"中華路２８６巷５９號","OBJECTID":299325},"geometry":{"x":171688.36000000127,"y":2545333.2400000002}},{"attributes":{"ID":299334,"DIS_CODE":0,"TOWNNAME":"永康區","LI":"中興里","LIN":"25鄰","STREET":"中華路","SECT":" ","MAREA":" ","LANE":"２１６巷","ALLEY":" ","HOUSE_NO":"３號之４","E_COORD97":171729.37,"N_COORD97":2545151.29,"ADDRESS":"中華路２１６巷３號之４","OBJECTID":299326},"geometry":{"x":171729.37000000011,"y":2545151.290000001}},{"attributes":{"ID":299335,"DIS_CODE":0,"TOWNNAME":"東區","LI":"南聖里","LIN":"14鄰","STREET":"裕農路","SECT":" ","MAREA":" ","LANE":" ","ALLEY":" ","HOUSE_NO":"９６６號","E_COORD97":172612.23000000001,"N_COORD97":2543368.8599999999,"ADDRESS":"裕農路９６６號","OBJECTID":299327},"geometry":{"x":172612.23000000045,"y":2543368.8599999994}},{"attributes":{"ID":299336,"DIS_CODE":0,"TOWNNAME":"東區","LI":"南聖里","LIN":"14鄰","STREET":"裕農路","SECT":" ","MAREA":" ","LANE":" ","ALLEY":" ","HOUSE_NO":"１０００號","E_COORD97":172691.19,"N_COORD97":2543390.4700000002,"ADDRESS":"裕農路１０００號","OBJECTID":299328},"geometry":{"x":172691.19000000227,"y":2543390.4700000007}},{"attributes":{"ID":299337,"DIS_CODE":0,"TOWNNAME":"東區","LI":"南聖里","LIN":"14鄰","STREET":"裕農路","SECT":" ","MAREA":" ","LANE":" ","ALLEY":" ","HOUSE_NO":"１００２號","E_COORD97":172695.60999999999,"N_COORD97":2543391.4500000002,"ADDRESS":"裕農路１００２號","OBJECTID":299329},"geometry":{"x":172695.61000000127,"y":2543391.4500000011}},{"attributes":{"ID":299338,"DIS_CODE":0,"TOWNNAME":"東區","LI":"崇明里","LIN":"8鄰","STREET":"大同路","SECT":"二段","MAREA":" ","LANE":"４４９巷","ALLEY":" ","HOUSE_NO":"３號之４三樓之２","E_COORD97":169592.73999999999,"N_COORD97":2541308.5299999998,"ADDRESS":"大同路二段４４９巷３號之４三樓之２","OBJECTID":299330},"geometry":{"x":169592.74000000022,"y":2541308.5300000012}},{"attributes":{"ID":299339,"DIS_CODE":0,"TOWNNAME":"東區","LI":"崇明里","LIN":"8鄰","STREET":"大同路","SECT":"二段","MAREA":" ","LANE":"４４９巷","ALLEY":" ","HOUSE_NO":"３號之４五樓之１","E_COORD97":169588.79000000001,"N_COORD97":2541320.77,"ADDRESS":"大同路二段４４９巷３號之４五樓之１","OBJECTID":299331},"geometry":{"x":169588.79000000004,"y":2541320.7700000014}},{"attributes":{"ID":299340,"DIS_CODE":0,"TOWNNAME":"東區","LI":"崇明里","LIN":"8鄰","STREET":"大同路","SECT":"二段","MAREA":" ","LANE":"４４９巷","ALLEY":" ","HOUSE_NO":"３號之４五樓之２","E_COORD97":169592.73999999999,"N_COORD97":2541308.5299999998,"ADDRESS":"大同路二段４４９巷３號之４五樓之２","OBJECTID":299332},"geometry":{"x":169592.74000000022,"y":2541308.5300000012}},{"attributes":{"ID":299341,"DIS_CODE":0,"TOWNNAME":"東區","LI":"崇明里","LIN":"8鄰","STREET":"大同路","SECT":"二段","MAREA":" ","LANE":"４４９巷","ALLEY":" ","HOUSE_NO":"３號之４五樓之３","E_COORD97":169587.60999999999,"N_COORD97":2541312.0800000001,"ADDRESS":"大同路二段４４９巷３號之４五樓之３","OBJECTID":299333},"geometry":{"x":169587.6099999994,"y":2541312.0800000019}},{"attributes":{"ID":299342,"DIS_CODE":0,"TOWNNAME":"東區","LI":"崇明里","LIN":"8鄰","STREET":"大同路","SECT":"二段","MAREA":" ","LANE":"４４９巷","ALLEY":" ","HOUSE_NO":"３號之４四樓之１","E_COORD97":169588.79000000001,"N_COORD97":2541320.77,"ADDRESS":"大同路二段４４９巷３號之４四樓之１","OBJECTID":299334},"geometry":{"x":169588.79000000004,"y":2541320.7700000014}},{"attributes":{"ID":299343,"DIS_CODE":0,"TOWNNAME":"東區","LI":"崇明里","LIN":"8鄰","STREET":"大同路","SECT":"二段","MAREA":" ","LANE":"４４９巷","ALLEY":" ","HOUSE_NO":"３號之４四樓之２","E_COORD97":169592.73999999999,"N_COORD97":2541308.5299999998,"ADDRESS":"大同路二段４４９巷３號之４四樓之２","OBJECTID":299335},"geometry":{"x":169592.74000000022,"y":2541308.5300000012}},{"attributes":{"ID":299344,"DIS_CODE":0,"TOWNNAME":"東區","LI":"崇明里","LIN":"8鄰","STREET":"大同路","SECT":"二段","MAREA":" ","LANE":"４４９巷","ALLEY":" ","HOUSE_NO":"３號之４四樓之３","E_COORD97":169587.60999999999,"N_COORD97":2541312.0800000001,"ADDRESS":"大同路二段４４９巷３號之４四樓之３","OBJECTID":299336},"geometry":{"x":169587.6099999994,"y":2541312.0800000019}},{"attributes":{"ID":299345,"DIS_CODE":0,"TOWNNAME":"東區","LI":"崇明里","LIN":"8鄰","STREET":"大同路","SECT":"二段","MAREA":" ","LANE":"４４９巷","ALLEY":" ","HOUSE_NO":"３號之５一樓之１","E_COORD97":169598.26999999999,"N_COORD97":2541326.6899999999,"ADDRESS":"大同路二段４４９巷３號之５一樓之１","OBJECTID":299337},"geometry":{"x":169598.27000000048,"y":2541326.6899999995}},{"attributes":{"ID":299346,"DIS_CODE":0,"TOWNNAME":"東區","LI":"崇明里","LIN":"8鄰","STREET":"大同路","SECT":"二段","MAREA":" ","LANE":"４４９巷","ALLEY":" ","HOUSE_NO":"３號之５一樓之２","E_COORD97":169607.16,"N_COORD97":2541315.04,"ADDRESS":"大同路二段４４９巷３號之５一樓之２","OBJECTID":299338},"geometry":{"x":169607.16000000015,"y":2541315.040000001}},{"attributes":{"ID":299347,"DIS_CODE":0,"TOWNNAME":"東區","LI":"崇明里","LIN":"8鄰","STREET":"大同路","SECT":"二段","MAREA":" ","LANE":"４４９巷","ALLEY":" ","HOUSE_NO":"３號之５二樓之１","E_COORD97":169598.26999999999,"N_COORD97":2541326.6899999999,"ADDRESS":"大同路二段４４９巷３號之５二樓之１","OBJECTID":299339},"geometry":{"x":169598.27000000048,"y":2541326.6899999995}},{"attributes":{"ID":299348,"DIS_CODE":0,"TOWNNAME":"東區","LI":"崇明里","LIN":"8鄰","STREET":"大同路","SECT":"二段","MAREA":" ","LANE":"４４９巷","ALLEY":" ","HOUSE_NO":"３號之５二樓之２","E_COORD97":169607.16,"N_COORD97":2541315.04,"ADDRESS":"大同路二段４４９巷３號之５二樓之２","OBJECTID":299340},"geometry":{"x":169607.16000000015,"y":2541315.040000001}},{"attributes":{"ID":299349,"DIS_CODE":0,"TOWNNAME":"東區","LI":"崇明里","LIN":"8鄰","STREET":"大同路","SECT":"二段","MAREA":" ","LANE":"４４９巷","ALLEY":" ","HOUSE_NO":"３號之５三樓之１","E_COORD97":169598.26999999999,"N_COORD97":2541326.6899999999,"ADDRESS":"大同路二段４４９巷３號之５三樓之１","OBJECTID":299341},"geometry":{"x":169598.27000000048,"y":2541326.6899999995}},{"attributes":{"ID":299350,"DIS_CODE":0,"TOWNNAME":"東區","LI":"崇明里","LIN":"8鄰","STREET":"大同路","SECT":"二段","MAREA":" ","LANE":"４４９巷","ALLEY":" ","HOUSE_NO":"３號之５五樓之１","E_COORD97":169598.26999999999,"N_COORD97":2541326.6899999999,"ADDRESS":"大同路二段４４９巷３號之５五樓之１","OBJECTID":299342},"geometry":{"x":169598.27000000048,"y":2541326.6899999995}},{"attributes":{"ID":299351,"DIS_CODE":0,"TOWNNAME":"東區","LI":"崇明里","LIN":"8鄰","STREET":"大同路","SECT":"二段","MAREA":" ","LANE":"４４９巷","ALLEY":" ","HOUSE_NO":"３號之５四樓之１","E_COORD97":169598.26999999999,"N_COORD97":2541326.6899999999,"ADDRESS":"大同路二段４４９巷３號之５四樓之１","OBJECTID":299343},"geometry":{"x":169598.27000000048,"y":2541326.6899999995}},{"attributes":{"ID":299352,"DIS_CODE":0,"TOWNNAME":"東區","LI":"崇明里","LIN":"8鄰","STREET":"大同路","SECT":"二段","MAREA":" ","LANE":"４４９巷","ALLEY":" ","HOUSE_NO":"３號之５四樓之２","E_COORD97":169607.16,"N_COORD97":2541315.04,"ADDRESS":"大同路二段４４９巷３號之５四樓之２","OBJECTID":299344},"geometry":{"x":169607.16000000015,"y":2541315.040000001}},{"attributes":{"ID":299353,"DIS_CODE":0,"TOWNNAME":"永康區","LI":"五王里","LIN":"42鄰","STREET":"中山東路","SECT":" ","MAREA":" ","LANE":" ","ALLEY":" ","HOUSE_NO":"１０號","E_COORD97":171657.70999999999,"N_COORD97":2546142,"ADDRESS":"中山東路１０號","OBJECTID":299345},"geometry":{"x":171657.70999999996,"y":2546142}},{"attributes":{"ID":299354,"DIS_CODE":0,"TOWNNAME":"永康區","LI":"中興里","LIN":"26鄰","STREET":"中山東路","SECT":" ","MAREA":" ","LANE":"３８６巷","ALLEY":" ","HOUSE_NO":"２號","E_COORD97":171875.57000000001,"N_COORD97":2545255.4900000002,"ADDRESS":"中山東路３８６巷２號","OBJECTID":299346},"geometry":{"x":171875.57000000123,"y":2545255.4900000039}},{"attributes":{"ID":299355,"DIS_CODE":0,"TOWNNAME":"東區","LI":"崇明里","LIN":"8鄰","STREET":"大同路","SECT":"二段","MAREA":" ","LANE":"４４９巷","ALLEY":" ","HOUSE_NO":"３號之４一樓之３","E_COORD97":169587.60999999999,"N_COORD97":2541312.0800000001,"ADDRESS":"大同路二段４４９巷３號之４一樓之３","OBJECTID":299347},"geometry":{"x":169587.6099999994,"y":2541312.0800000019}},{"attributes":{"ID":299356,"DIS_CODE":0,"TOWNNAME":"東區","LI":"崇明里","LIN":"8鄰","STREET":"大同路","SECT":"二段","MAREA":" ","LANE":"４４９巷","ALLEY":" ","HOUSE_NO":"３號之４二樓之１","E_COORD97":169588.79000000001,"N_COORD97":2541320.77,"ADDRESS":"大同路二段４４９巷３號之４二樓之１","OBJECTID":299348},"geometry":{"x":169588.79000000004,"y":2541320.7700000014}},{"attributes":{"ID":299357,"DIS_CODE":0,"TOWNNAME":"東區","LI":"崇明里","LIN":"8鄰","STREET":"大同路","SECT":"二段","MAREA":" ","LANE":"４４９巷","ALLEY":" ","HOUSE_NO":"３號之４三樓之３","E_COORD97":169587.60999999999,"N_COORD97":2541312.0800000001,"ADDRESS":"大同路二段４４９巷３號之４三樓之３","OBJECTID":299349},"geometry":{"x":169587.6099999994,"y":2541312.0800000019}},{"attributes":{"ID":299358,"DIS_CODE":0,"TOWNNAME":"東區","LI":"崇明里","LIN":"8鄰","STREET":"大同路","SECT":"二段","MAREA":" ","LANE":"４４９巷","ALLEY":" ","HOUSE_NO":"３號之５三樓之２","E_COORD97":169607.16,"N_COORD97":2541315.04,"ADDRESS":"大同路二段４４９巷３號之５三樓之２","OBJECTID":299350},"geometry":{"x":169607.16000000015,"y":2541315.040000001}},{"attributes":{"ID":299359,"DIS_CODE":0,"TOWNNAME":"東區","LI":"崇明里","LIN":"8鄰","STREET":"大同路","SECT":"二段","MAREA":" ","LANE":"４４９巷","ALLEY":" ","HOUSE_NO":"３號之１五樓","E_COORD97":169576.35000000001,"N_COORD97":2541284.0600000001,"ADDRESS":"大同路二段４４９巷３號之１五樓","OBJECTID":299351},"geometry":{"x":169576.34999999963,"y":2541284.0600000005}},{"attributes":{"ID":299360,"DIS_CODE":0,"TOWNNAME":"東區","LI":"崇明里","LIN":"8鄰","STREET":"大同路","SECT":"二段","MAREA":" ","LANE":"４４９巷","ALLEY":" ","HOUSE_NO":"３號之５五樓之２","E_COORD97":169607.16,"N_COORD97":2541315.04,"ADDRESS":"大同路二段４４９巷３號之５五樓之２","OBJECTID":299352},"geometry":{"x":169607.16000000015,"y":2541315.040000001}},{"attributes":{"ID":299361,"DIS_CODE":0,"TOWNNAME":"中西區","LI":"建國里","LIN":"8鄰","STREET":"民生路","SECT":"一段","MAREA":" ","LANE":"１８１巷","ALLEY":" ","HOUSE_NO":"２０號二樓","E_COORD97":167956.70000000001,"N_COORD97":2543811.4300000002,"ADDRESS":"民生路一段１８１巷２０號二樓","OBJECTID":299353},"geometry":{"x":167956.70000000112,"y":2543811.4300000016}},{"attributes":{"ID":299362,"DIS_CODE":0,"TOWNNAME":"中西區","LI":"建國里","LIN":"8鄰","STREET":"民生路","SECT":"一段","MAREA":" ","LANE":"１８１巷","ALLEY":" ","HOUSE_NO":"２０號三樓","E_COORD97":167956.70000000001,"N_COORD97":2543811.4300000002,"ADDRESS":"民生路一段１８１巷２０號三樓","OBJECTID":299354},"geometry":{"x":167956.70000000112,"y":2543811.4300000016}},{"attributes":{"ID":299363,"DIS_CODE":0,"TOWNNAME":"中西區","LI":"建國里","LIN":"8鄰","STREET":"民生路","SECT":"一段","MAREA":" ","LANE":"１８１巷","ALLEY":" ","HOUSE_NO":"２０號四樓","E_COORD97":167956.70000000001,"N_COORD97":2543811.4300000002,"ADDRESS":"民生路一段１８１巷２０號四樓","OBJECTID":299355},"geometry":{"x":167956.70000000112,"y":2543811.4300000016}},{"attributes":{"ID":299364,"DIS_CODE":0,"TOWNNAME":"仁德區","LI":"田厝里","LIN":"8鄰","STREET":"田厝二街","SECT":" ","MAREA":" ","LANE":"２８巷","ALLEY":" ","HOUSE_NO":"２８號","E_COORD97":172448.51999999999,"N_COORD97":2537633.5,"ADDRESS":"田厝二街２８巷２８號","OBJECTID":299356},"geometry":{"x":172448.51999999955,"y":2537633.5000000037}},{"attributes":{"ID":299365,"DIS_CODE":0,"TOWNNAME":"仁德區","LI":"成功里","LIN":"8鄰","STREET":"保華路","SECT":" ","MAREA":" ","LANE":"１２９巷","ALLEY":" ","HOUSE_NO":"５６號","E_COORD97":171100.62,"N_COORD97":2539905.75,"ADDRESS":"保華路１２９巷５６號","OBJECTID":299357},"geometry":{"x":171100.62000000011,"y":2539905.75}},{"attributes":{"ID":299366,"DIS_CODE":0,"TOWNNAME":"仁德區","LI":"太子里","LIN":"8鄰","STREET":"太子路","SECT":" ","MAREA":" ","LANE":"１７２巷","ALLEY":" ","HOUSE_NO":"６號","E_COORD97":174376.70999999999,"N_COORD97":2543558.5,"ADDRESS":"太子路１７２巷６號","OBJECTID":299358},"geometry":{"x":174376.70999999996,"y":2543558.5}},{"attributes":{"ID":299367,"DIS_CODE":0,"TOWNNAME":"東區","LI":"龍山里","LIN":"8鄰","STREET":"府東街","SECT":" ","MAREA":" ","LANE":"２１巷","ALLEY":" ","HOUSE_NO":"３４號","E_COORD97":170008.73000000001,"N_COORD97":2542797.8500000001,"ADDRESS":"府東街２１巷３４號","OBJECTID":299359},"geometry":{"x":170008.73000000045,"y":2542797.8500000015}},{"attributes":{"ID":299368,"DIS_CODE":0,"TOWNNAME":"東區","LI":"龍山里","LIN":"8鄰","STREET":"府東街","SECT":" ","MAREA":" ","LANE":"２１巷","ALLEY":" ","HOUSE_NO":"１２號","E_COORD97":170019.63,"N_COORD97":2542849.3700000001,"ADDRESS":"府東街２１巷１２號","OBJECTID":299360},"geometry":{"x":170019.63000000082,"y":2542849.370000001}},{"attributes":{"ID":299369,"DIS_CODE":0,"TOWNNAME":"東區","LI":"龍山里","LIN":"8鄰","STREET":"府東街","SECT":" ","MAREA":" ","LANE":"２１巷","ALLEY":" ","HOUSE_NO":"１４號","E_COORD97":170008.32999999999,"N_COORD97":2542838.2799999998,"ADDRESS":"府東街２１巷１４號","OBJECTID":299361},"geometry":{"x":170008.33000000101,"y":2542838.2800000031}},{"attributes":{"ID":299370,"DIS_CODE":0,"TOWNNAME":"東區","LI":"龍山里","LIN":"8鄰","STREET":"府東街","SECT":" ","MAREA":" ","LANE":"２１巷","ALLEY":" ","HOUSE_NO":"１８號","E_COORD97":170028.53,"N_COORD97":2542826.0299999998,"ADDRESS":"府東街２１巷１８號","OBJECTID":299362},"geometry":{"x":170028.53000000026,"y":2542826.0299999993}},{"attributes":{"ID":299371,"DIS_CODE":0,"TOWNNAME":"東區","LI":"龍山里","LIN":"8鄰","STREET":"府東街","SECT":" ","MAREA":" ","LANE":"２１巷","ALLEY":" ","HOUSE_NO":"２０號","E_COORD97":170038.45000000001,"N_COORD97":2542822.4900000002,"ADDRESS":"府東街２１巷２０號","OBJECTID":299363},"geometry":{"x":170038.45000000112,"y":2542822.4900000021}},{"attributes":{"ID":299372,"DIS_CODE":0,"TOWNNAME":"東區","LI":"龍山里","LIN":"8鄰","STREET":"府東街","SECT":" ","MAREA":" ","LANE":"２１巷","ALLEY":" ","HOUSE_NO":"２２號","E_COORD97":170025.07999999999,"N_COORD97":2542796.6400000001,"ADDRESS":"府東街２１巷２２號","OBJECTID":299364},"geometry":{"x":170025.08000000194,"y":2542796.6400000043}},{"attributes":{"ID":299373,"DIS_CODE":0,"TOWNNAME":"東區","LI":"龍山里","LIN":"8鄰","STREET":"府東街","SECT":" ","MAREA":" ","LANE":"２１巷","ALLEY":" ","HOUSE_NO":"２３號","E_COORD97":170047.28,"N_COORD97":2542796.79,"ADDRESS":"府東街２１巷２３號","OBJECTID":299365},"geometry":{"x":170047.28000000026,"y":2542796.7899999991}},{"attributes":{"ID":299374,"DIS_CODE":0,"TOWNNAME":"東區","LI":"龍山里","LIN":"8鄰","STREET":"府東街","SECT":" ","MAREA":" ","LANE":"２１巷","ALLEY":" ","HOUSE_NO":"２４號","E_COORD97":170018.42000000001,"N_COORD97":2542798.8599999999,"ADDRESS":"府東街２１巷２４號","OBJECTID":299366},"geometry":{"x":170018.41999999993,"y":2542798.8600000013}},{"attributes":{"ID":299375,"DIS_CODE":0,"TOWNNAME":"中西區","LI":"藥王里","LIN":"8鄰","STREET":"大新街","SECT":" ","MAREA":" ","LANE":"７巷","ALLEY":" ","HOUSE_NO":"１６號","E_COORD97":167077.42000000001,"N_COORD97":2544353.5699999998,"ADDRESS":"大新街７巷１６號","OBJECTID":299367},"geometry":{"x":167077.41999999993,"y":2544353.5700000022}},{"attributes":{"ID":299376,"DIS_CODE":0,"TOWNNAME":"東區","LI":"龍山里","LIN":"8鄰","STREET":"府東街","SECT":" ","MAREA":" ","LANE":"２１巷","ALLEY":" ","HOUSE_NO":"２８號","E_COORD97":169997.82999999999,"N_COORD97":2542811.1600000001,"ADDRESS":"府東街２１巷２８號","OBJECTID":299368},"geometry":{"x":169997.83000000194,"y":2542811.160000002}},{"attributes":{"ID":299377,"DIS_CODE":0,"TOWNNAME":"東區","LI":"龍山里","LIN":"8鄰","STREET":"府東街","SECT":" ","MAREA":" ","LANE":"２１巷","ALLEY":" ","HOUSE_NO":"３６號","E_COORD97":170013.76999999999,"N_COORD97":2542794.4199999999,"ADDRESS":"府東街２１巷３６號","OBJECTID":299369},"geometry":{"x":170013.77000000048,"y":2542794.4200000018}},{"attributes":{"ID":299378,"DIS_CODE":0,"TOWNNAME":"永康區","LI":"大橋里","LIN":"8鄰","STREET":"大橋三街","SECT":" ","MAREA":" ","LANE":"１９９巷","ALLEY":" ","HOUSE_NO":"１６號","E_COORD97":170873.06,"N_COORD97":2546832.25,"ADDRESS":"大橋三街１９９巷１６號","OBJECTID":299370},"geometry":{"x":170873.06000000052,"y":2546832.25}},{"attributes":{"ID":299379,"DIS_CODE":0,"TOWNNAME":"永康區","LI":"大灣里","LIN":"8鄰","STREET":"民族路","SECT":" ","MAREA":" ","LANE":"３９６巷","ALLEY":" ","HOUSE_NO":"４０號","E_COORD97":174759.28,"N_COORD97":2545487.71,"ADDRESS":"民族路３９６巷４０號","OBJECTID":299371},"geometry":{"x":174759.28000000119,"y":2545487.7100000009}},{"attributes":{"ID":299380,"DIS_CODE":0,"TOWNNAME":"永康區","LI":"大橋里","LIN":"8鄰","STREET":"大橋三街","SECT":" ","MAREA":" ","LANE":"１９９巷","ALLEY":" ","HOUSE_NO":"４８號","E_COORD97":170911.92000000001,"N_COORD97":2546862.8199999998,"ADDRESS":"大橋三街１９９巷４８號","OBJECTID":299372},"geometry":{"x":170911.91999999993,"y":2546862.8200000003}},{"attributes":{"ID":299381,"DIS_CODE":0,"TOWNNAME":"永康區","LI":"大橋里","LIN":"8鄰","STREET":"大橋三街","SECT":" ","MAREA":" ","LANE":"１９９巷","ALLEY":" ","HOUSE_NO":"８８號","E_COORD97":170986.32999999999,"N_COORD97":2546889.4900000002,"ADDRESS":"大橋三街１９９巷８８號","OBJECTID":299373},"geometry":{"x":170986.33000000101,"y":2546889.4900000039}},{"attributes":{"ID":299382,"DIS_CODE":0,"TOWNNAME":"永康區","LI":"大橋里","LIN":"8鄰","STREET":"大橋三街","SECT":" ","MAREA":" ","LANE":"１９９巷","ALLEY":" ","HOUSE_NO":"９８號","E_COORD97":170997.84,"N_COORD97":2546915.6499999999,"ADDRESS":"大橋三街１９９巷９８號","OBJECTID":299374},"geometry":{"x":170997.84000000171,"y":2546915.6500000041}},{"attributes":{"ID":299383,"DIS_CODE":0,"TOWNNAME":"東區","LI":"南聖里","LIN":"14鄰","STREET":"裕農路","SECT":" ","MAREA":" ","LANE":" ","ALLEY":" ","HOUSE_NO":"１００６號","E_COORD97":172700.35999999999,"N_COORD97":2543392.4399999999,"ADDRESS":"裕農路１００６號","OBJECTID":299375},"geometry":{"x":172700.36000000127,"y":2543392.4399999995}},{"attributes":{"ID":299384,"DIS_CODE":0,"TOWNNAME":"永康區","LI":"二王里","LIN":"43鄰","STREET":"中山南路","SECT":" ","MAREA":" ","LANE":"３１６巷","ALLEY":" ","HOUSE_NO":"６４號","E_COORD97":172129.57000000001,"N_COORD97":2546128.3199999998,"ADDRESS":"中山南路３１６巷６４號","OBJECTID":299376},"geometry":{"x":172129.57000000123,"y":2546128.3200000022}},{"attributes":{"ID":299385,"DIS_CODE":0,"TOWNNAME":"永康區","LI":"大橋里","LIN":"8鄰","STREET":"大橋三街","SECT":" ","MAREA":" ","LANE":"１９９巷","ALLEY":" ","HOUSE_NO":"９６號","E_COORD97":170994.64000000001,"N_COORD97":2546913.1499999999,"ADDRESS":"大橋三街１９９巷９６號","OBJECTID":299377},"geometry":{"x":170994.6400000006,"y":2546913.1500000022}},{"attributes":{"ID":299386,"DIS_CODE":0,"TOWNNAME":"永康區","LI":"大灣里","LIN":"8鄰","STREET":"民族路","SECT":" ","MAREA":" ","LANE":"３９６巷","ALLEY":" ","HOUSE_NO":"３８號","E_COORD97":174758.56,"N_COORD97":2545483.21,"ADDRESS":"民族路３９６巷３８號","OBJECTID":299378},"geometry":{"x":174758.55999999959,"y":2545483.2100000028}},{"attributes":{"ID":299387,"DIS_CODE":0,"TOWNNAME":"仁德區","LI":"成功里","LIN":"8鄰","STREET":"保華路","SECT":" ","MAREA":" ","LANE":"１５９巷","ALLEY":" ","HOUSE_NO":"８號","E_COORD97":171031.78,"N_COORD97":2540002.25,"ADDRESS":"保華路１５９巷８號","OBJECTID":299379},"geometry":{"x":171031.78000000026,"y":2540002.2500000019}},{"attributes":{"ID":299388,"DIS_CODE":0,"TOWNNAME":"仁德區","LI":"田厝里","LIN":"8鄰","STREET":"保安路","SECT":"二段","MAREA":" ","LANE":"４７７巷","ALLEY":" ","HOUSE_NO":"１３號","E_COORD97":172407.473727,"N_COORD97":2537566.7821499999,"ADDRESS":"保安路二段４７７巷１３號","OBJECTID":299380},"geometry":{"x":172407.47372700088,"y":2537566.7821490001}},{"attributes":{"ID":299389,"DIS_CODE":0,"TOWNNAME":"中西區","LI":"西湖里","LIN":"8鄰","STREET":"民權路","SECT":"四段","MAREA":" ","LANE":"１１２巷","ALLEY":" ","HOUSE_NO":"７９號","E_COORD97":166257.95999999999,"N_COORD97":2544668.8100000001,"ADDRESS":"民權路四段１１２巷７９號","OBJECTID":299381},"geometry":{"x":166257.96000000089,"y":2544668.8100000005}},{"attributes":{"ID":299390,"DIS_CODE":0,"TOWNNAME":"中西區","LI":"西湖里","LIN":"8鄰","STREET":"民權路","SECT":"四段","MAREA":" ","LANE":"１１２巷","ALLEY":" ","HOUSE_NO":"５７號","E_COORD97":166258.94,"N_COORD97":2544609.0299999998,"ADDRESS":"民權路四段１１２巷５７號","OBJECTID":299382},"geometry":{"x":166258.94000000041,"y":2544609.0299999993}},{"attributes":{"ID":299391,"DIS_CODE":0,"TOWNNAME":"善化區","LI":"南關里","LIN":"8鄰","STREET":"光復路","SECT":" ","MAREA":" ","LANE":"５３６巷","ALLEY":" ","HOUSE_NO":"７號","E_COORD97":176831.64000000001,"N_COORD97":2558911.0099999998,"ADDRESS":"光復路５３６巷７號","OBJECTID":299383},"geometry":{"x":176831.63999999966,"y":2558911.0100000035}},{"attributes":{"ID":299392,"DIS_CODE":0,"TOWNNAME":"善化區","LI":"南關里","LIN":"8鄰","STREET":"光復路","SECT":" ","MAREA":" ","LANE":"５６６巷","ALLEY":" ","HOUSE_NO":"８號","E_COORD97":176819.66,"N_COORD97":2558945.0099999998,"ADDRESS":"光復路５６６巷８號","OBJECTID":299384},"geometry":{"x":176819.66000000108,"y":2558945.0100000035}},{"attributes":{"ID":299393,"DIS_CODE":0,"TOWNNAME":"善化區","LI":"北關里","LIN":"8鄰","STREET":"公園路","SECT":" ","MAREA":" ","LANE":"４３２巷","ALLEY":" ","HOUSE_NO":"１號","E_COORD97":177319.35999999999,"N_COORD97":2559315.8100000001,"ADDRESS":"公園路４３２巷１號","OBJECTID":299385},"geometry":{"x":177319.3599999994,"y":2559315.8100000005}},{"attributes":{"ID":299394,"DIS_CODE":0,"TOWNNAME":"善化區","LI":"北關里","LIN":"8鄰","STREET":"公園路","SECT":" ","MAREA":" ","LANE":"４３２巷","ALLEY":" ","HOUSE_NO":"３號","E_COORD97":177324.29999999999,"N_COORD97":2559308.4300000002,"ADDRESS":"公園路４３２巷３號","OBJECTID":299386},"geometry":{"x":177324.29999999888,"y":2559308.4300000034}},{"attributes":{"ID":299395,"DIS_CODE":0,"TOWNNAME":"善化區","LI":"北關里","LIN":"8鄰","STREET":"公園路","SECT":" ","MAREA":" ","LANE":"４３２巷","ALLEY":" ","HOUSE_NO":"５號","E_COORD97":177328.64999999999,"N_COORD97":2559308.8399999999,"ADDRESS":"公園路４３２巷５號","OBJECTID":299387},"geometry":{"x":177328.65000000037,"y":2559308.839999998}},{"attributes":{"ID":299396,"DIS_CODE":0,"TOWNNAME":"中西區","LI":"西賢里","LIN":"8鄰","STREET":"西賢一街","SECT":" ","MAREA":" ","LANE":"５６巷","ALLEY":" ","HOUSE_NO":"２１號","E_COORD97":165799.44,"N_COORD97":2544571.3999999999,"ADDRESS":"西賢一街５６巷２１號","OBJECTID":299388},"geometry":{"x":165799.44000000041,"y":2544571.4000000041}},{"attributes":{"ID":299397,"DIS_CODE":0,"TOWNNAME":"中西區","LI":"西賢里","LIN":"8鄰","STREET":"西賢一街","SECT":" ","MAREA":" ","LANE":"５６巷","ALLEY":" ","HOUSE_NO":"２３號","E_COORD97":165806.53,"N_COORD97":2544571.3999999999,"ADDRESS":"西賢一街５６巷２３號","OBJECTID":299389},"geometry":{"x":165806.53000000119,"y":2544571.4000000041}},{"attributes":{"ID":299398,"DIS_CODE":0,"TOWNNAME":"中西區","LI":"西賢里","LIN":"8鄰","STREET":"西賢一街","SECT":" ","MAREA":" ","LANE":"５６巷","ALLEY":" ","HOUSE_NO":"２５號","E_COORD97":165812.79999999999,"N_COORD97":2544571.2000000002,"ADDRESS":"西賢一街５６巷２５號","OBJECTID":299390},"geometry":{"x":165812.80000000075,"y":2544571.1999999974}},{"attributes":{"ID":299399,"DIS_CODE":0,"TOWNNAME":"中西區","LI":"西賢里","LIN":"8鄰","STREET":"西賢一街","SECT":" ","MAREA":" ","LANE":"５６巷","ALLEY":" ","HOUSE_NO":"２７號","E_COORD97":165819.48000000001,"N_COORD97":2544571.2000000002,"ADDRESS":"西賢一街５６巷２７號","OBJECTID":299391},"geometry":{"x":165819.48000000045,"y":2544571.1999999974}},{"attributes":{"ID":299400,"DIS_CODE":0,"TOWNNAME":"北區","LI":"大和里","LIN":"5鄰","STREET":"大興街","SECT":" ","MAREA":" ","LANE":"１１４巷","ALLEY":" ","HOUSE_NO":"２５號","E_COORD97":167065.76000000001,"N_COORD97":2545830.5699999998,"ADDRESS":"大興街１１４巷２５號","OBJECTID":299392},"geometry":{"x":167065.76000000071,"y":2545830.5700000003}},{"attributes":{"ID":299401,"DIS_CODE":0,"TOWNNAME":"東區","LI":"崇德里","LIN":"8鄰","STREET":"崇德七街","SECT":" ","MAREA":" ","LANE":"２０巷","ALLEY":" ","HOUSE_NO":"１２號","E_COORD97":170826.45999999999,"N_COORD97":2541690.3500000001,"ADDRESS":"崇德七街２０巷１２號","OBJECTID":299393},"geometry":{"x":170826.46000000089,"y":2541690.3500000015}},{"attributes":{"ID":299402,"DIS_CODE":0,"TOWNNAME":"麻豆區","LI":"謝安里","LIN":"4鄰","STREET":" ","SECT":" ","MAREA":"謝厝寮","LANE":" ","ALLEY":" ","HOUSE_NO":"４３號之２","E_COORD97":171896.81,"N_COORD97":2561135.75,"ADDRESS":"謝厝寮４３號之２","OBJECTID":299394},"geometry":{"x":171896.81000000052,"y":2561135.75}},{"attributes":{"ID":299403,"DIS_CODE":0,"TOWNNAME":"東區","LI":"仁和里","LIN":"8鄰","STREET":"仁和路","SECT":" ","MAREA":" ","LANE":"１０９巷","ALLEY":" ","HOUSE_NO":"１４２號","E_COORD97":171735.84,"N_COORD97":2541328.7200000002,"ADDRESS":"仁和路１０９巷１４２號","OBJECTID":299395},"geometry":{"x":171735.84000000078,"y":2541328.7200000025}},{"attributes":{"ID":299404,"DIS_CODE":0,"TOWNNAME":"東區","LI":"南聖里","LIN":"14鄰","STREET":"裕農路","SECT":" ","MAREA":" ","LANE":" ","ALLEY":" ","HOUSE_NO":"１００８號","E_COORD97":172705.10999999999,"N_COORD97":2543393.0899999999,"ADDRESS":"裕農路１００８號","OBJECTID":299396},"geometry":{"x":172705.1100000022,"y":2543393.0900000036}},{"attributes":{"ID":299405,"DIS_CODE":0,"TOWNNAME":"永康區","LI":"大橋里","LIN":"25鄰","STREET":"大橋一街","SECT":" ","MAREA":" ","LANE":"２４７巷","ALLEY":" ","HOUSE_NO":"１號","E_COORD97":171278.73000000001,"N_COORD97":2546672.4900000002,"ADDRESS":"大橋一街２４７巷１號","OBJECTID":299397},"geometry":{"x":171278.72999999952,"y":2546672.4900000039}},{"attributes":{"ID":299406,"DIS_CODE":0,"TOWNNAME":"東區","LI":"仁和里","LIN":"8鄰","STREET":"仁和路","SECT":" ","MAREA":" ","LANE":"１０９巷","ALLEY":" ","HOUSE_NO":"１４６號","E_COORD97":171743.26000000001,"N_COORD97":2541329.21,"ADDRESS":"仁和路１０９巷１４６號","OBJECTID":299398},"geometry":{"x":171743.25999999978,"y":2541329.2100000028}},{"attributes":{"ID":299407,"DIS_CODE":0,"TOWNNAME":"東區","LI":"仁和里","LIN":"8鄰","STREET":"仁和路","SECT":" ","MAREA":" ","LANE":"１０９巷","ALLEY":" ","HOUSE_NO":"１４８號","E_COORD97":171747.70999999999,"N_COORD97":2541331.02,"ADDRESS":"仁和路１０９巷１４８號","OBJECTID":299399},"geometry":{"x":171747.70999999996,"y":2541331.0199999996}},{"attributes":{"ID":299408,"DIS_CODE":0,"TOWNNAME":"東區","LI":"仁和里","LIN":"8鄰","STREET":"仁和路","SECT":" ","MAREA":" ","LANE":"１０９巷","ALLEY":" ","HOUSE_NO":"１５０號","E_COORD97":171752.17000000001,"N_COORD97":2541329.21,"ADDRESS":"仁和路１０９巷１５０號","OBJECTID":299400},"geometry":{"x":171752.17000000086,"y":2541329.2100000028}}]}