{"displayFieldName":"TOWNNAME","fieldAliases":{"ID":"ID","DIS_CODE":"DIS_CODE","TOWNNAME":"TOWNNAME","LI":"LI","LIN":"LIN","STREET":"STREET","SECT":"SECT","MAREA":"MAREA","LANE":"LANE","ALLEY":"ALLEY","HOUSE_NO":"HOUSE_NO","E_COORD97":"E_COORD97","N_COORD97":"N_COORD97","ADDRESS":"ADDRESS","OBJECTID":"OBJECTID"},"geometryType":"esriGeometryPoint","spatialReference":{"wkid":102443,"latestWkid":3826},"fields":[{"name":"ID","type":"esriFieldTypeDouble","alias":"ID"},{"name":"DIS_CODE","type":"esriFieldTypeInteger","alias":"DIS_CODE"},{"name":"TOWNNAME","type":"esriFieldTypeString","alias":"TOWNNAME","length":8},{"name":"LI","type":"esriFieldTypeString","alias":"LI","length":8},{"name":"LIN","type":"esriFieldTypeString","alias":"LIN","length":12},{"name":"STREET","type":"esriFieldTypeString","alias":"STREET","length":20},{"name":"SECT","type":"esriFieldTypeString","alias":"SECT","length":8},{"name":"MAREA","type":"esriFieldTypeString","alias":"MAREA","length":12},{"name":"LANE","type":"esriFieldTypeString","alias":"LANE","length":10},{"name":"ALLEY","type":"esriFieldTypeString","alias":"ALLEY","length":10},{"name":"HOUSE_NO","type":"esriFieldTypeString","alias":"HOUSE_NO","length":20},{"name":"E_COORD97","type":"esriFieldTypeDouble","alias":"E_COORD97"},{"name":"N_COORD97","type":"esriFieldTypeDouble","alias":"N_COORD97"},{"name":"ADDRESS","type":"esriFieldTypeString","alias":"ADDRESS","length":50},{"name":"OBJECTID","type":"esriFieldTypeOID","alias":"OBJECTID"}],"features":[{"attributes":{"ID":620828,"DIS_CODE":0,"TOWNNAME":"東區","LI":"東智里","LIN":"18鄰","STREET":"崇德三十四街","SECT":" ","MAREA":" ","LANE":" ","ALLEY":" ","HOUSE_NO":"９號","E_COORD97":170832.92000000001,"N_COORD97":2540016.1499999999,"ADDRESS":"崇德三十四街９號","OBJECTID":620801},"geometry":{"x":170832.92000000179,"y":2540016.1500000041}},{"attributes":{"ID":620829,"DIS_CODE":0,"TOWNNAME":"東區","LI":"東智里","LIN":"18鄰","STREET":"崇德路","SECT":" ","MAREA":" ","LANE":" ","ALLEY":" ","HOUSE_NO":"１０５３號","E_COORD97":170796.20999999999,"N_COORD97":2540044.1899999999,"ADDRESS":"崇德路１０５３號","OBJECTID":620802},"geometry":{"x":170796.20999999996,"y":2540044.1899999995}},{"attributes":{"ID":620830,"DIS_CODE":0,"TOWNNAME":"東區","LI":"東智里","LIN":"18鄰","STREET":"崇德路","SECT":" ","MAREA":" ","LANE":" ","ALLEY":" ","HOUSE_NO":"１０５５號","E_COORD97":170796.35000000001,"N_COORD97":2540040.23,"ADDRESS":"崇德路１０５５號","OBJECTID":620803},"geometry":{"x":170796.35000000056,"y":2540040.2300000023}},{"attributes":{"ID":620831,"DIS_CODE":0,"TOWNNAME":"東區","LI":"東智里","LIN":"18鄰","STREET":"崇德路","SECT":" ","MAREA":" ","LANE":" ","ALLEY":" ","HOUSE_NO":"１０５９號","E_COORD97":170796.35000000001,"N_COORD97":2540031.6099999999,"ADDRESS":"崇德路１０５９號","OBJECTID":620804},"geometry":{"x":170796.35000000056,"y":2540031.6099999994}},{"attributes":{"ID":620832,"DIS_CODE":0,"TOWNNAME":"東區","LI":"東智里","LIN":"18鄰","STREET":"崇德路","SECT":" ","MAREA":" ","LANE":" ","ALLEY":" ","HOUSE_NO":"１０６１號","E_COORD97":170796.20999999999,"N_COORD97":2540027.3700000001,"ADDRESS":"崇德路１０６１號","OBJECTID":620805},"geometry":{"x":170796.20999999996,"y":2540027.370000001}},{"attributes":{"ID":620833,"DIS_CODE":0,"TOWNNAME":"東區","LI":"東智里","LIN":"18鄰","STREET":"崇德路","SECT":" ","MAREA":" ","LANE":" ","ALLEY":" ","HOUSE_NO":"１０６３號","E_COORD97":170796.35000000001,"N_COORD97":2540024.54,"ADDRESS":"崇德路１０６３號","OBJECTID":620806},"geometry":{"x":170796.35000000056,"y":2540024.5399999991}},{"attributes":{"ID":620834,"DIS_CODE":0,"TOWNNAME":"東區","LI":"東智里","LIN":"18鄰","STREET":"崇德路","SECT":" ","MAREA":" ","LANE":" ","ALLEY":" ","HOUSE_NO":"１０６５號","E_COORD97":170796.07000000001,"N_COORD97":2540016.1899999999,"ADDRESS":"崇德路１０６５號","OBJECTID":620807},"geometry":{"x":170796.0700000003,"y":2540016.1900000013}},{"attributes":{"ID":620835,"DIS_CODE":0,"TOWNNAME":"東區","LI":"東智里","LIN":"1鄰","STREET":"大同路","SECT":"二段","MAREA":" ","LANE":" ","ALLEY":" ","HOUSE_NO":"９２３號","E_COORD97":169709.19,"N_COORD97":2540369.3900000001,"ADDRESS":"大同路二段９２３號","OBJECTID":620808},"geometry":{"x":169709.18999999948,"y":2540369.3900000006}},{"attributes":{"ID":620836,"DIS_CODE":0,"TOWNNAME":"東區","LI":"東智里","LIN":"1鄰","STREET":"大同路","SECT":"二段","MAREA":" ","LANE":" ","ALLEY":" ","HOUSE_NO":"９２５號","E_COORD97":169709.19,"N_COORD97":2540362.8700000001,"ADDRESS":"大同路二段９２５號","OBJECTID":620809},"geometry":{"x":169709.18999999948,"y":2540362.8700000029}},{"attributes":{"ID":620837,"DIS_CODE":0,"TOWNNAME":"東區","LI":"東智里","LIN":"1鄰","STREET":"大同路","SECT":"二段","MAREA":" ","LANE":" ","ALLEY":" ","HOUSE_NO":"９２７號","E_COORD97":169709.64999999999,"N_COORD97":2540357.7400000002,"ADDRESS":"大同路二段９２７號","OBJECTID":620810},"geometry":{"x":169709.65000000224,"y":2540357.7400000039}},{"attributes":{"ID":620838,"DIS_CODE":0,"TOWNNAME":"東區","LI":"東智里","LIN":"1鄰","STREET":"大同路","SECT":"二段","MAREA":" ","LANE":" ","ALLEY":" ","HOUSE_NO":"９２９號","E_COORD97":169709.64999999999,"N_COORD97":2540353.3199999998,"ADDRESS":"大同路二段９２９號","OBJECTID":620811},"geometry":{"x":169709.65000000224,"y":2540353.3200000003}},{"attributes":{"ID":620839,"DIS_CODE":0,"TOWNNAME":"東區","LI":"東智里","LIN":"1鄰","STREET":"大同路","SECT":"二段","MAREA":" ","LANE":" ","ALLEY":" ","HOUSE_NO":"９３１號","E_COORD97":169708.48999999999,"N_COORD97":2540348.2000000002,"ADDRESS":"大同路二段９３１號","OBJECTID":620812},"geometry":{"x":169708.49000000022,"y":2540348.2000000011}},{"attributes":{"ID":620840,"DIS_CODE":0,"TOWNNAME":"東區","LI":"東智里","LIN":"1鄰","STREET":"大同路","SECT":"二段","MAREA":" ","LANE":" ","ALLEY":" ","HOUSE_NO":"９３３號","E_COORD97":169708.72,"N_COORD97":2540344.2400000002,"ADDRESS":"大同路二段９３３號","OBJECTID":620813},"geometry":{"x":169708.72000000067,"y":2540344.2400000039}},{"attributes":{"ID":620841,"DIS_CODE":0,"TOWNNAME":"東區","LI":"東聖里","LIN":"22鄰","STREET":"富農街","SECT":"二段","MAREA":" ","LANE":" ","ALLEY":" ","HOUSE_NO":"１５號之１","E_COORD97":171634.69,"N_COORD97":2542877.3100000001,"ADDRESS":"富農街二段１５號之１","OBJECTID":620814},"geometry":{"x":171634.69000000041,"y":2542877.3100000024}},{"attributes":{"ID":620842,"DIS_CODE":0,"TOWNNAME":"東區","LI":"東聖里","LIN":"22鄰","STREET":"富農街","SECT":"二段","MAREA":" ","LANE":" ","ALLEY":" ","HOUSE_NO":"１７號","E_COORD97":171634.51000000001,"N_COORD97":2542881.1499999999,"ADDRESS":"富農街二段１７號","OBJECTID":620815},"geometry":{"x":171634.51000000071,"y":2542881.1500000041}},{"attributes":{"ID":620843,"DIS_CODE":0,"TOWNNAME":"東區","LI":"東聖里","LIN":"22鄰","STREET":"富農街","SECT":"二段","MAREA":" ","LANE":" ","ALLEY":" ","HOUSE_NO":"１７號之１","E_COORD97":171634.23000000001,"N_COORD97":2542884.71,"ADDRESS":"富農街二段１７號之１","OBJECTID":620816},"geometry":{"x":171634.23000000045,"y":2542884.7100000046}},{"attributes":{"ID":620844,"DIS_CODE":0,"TOWNNAME":"東區","LI":"東聖里","LIN":"22鄰","STREET":"富農街","SECT":"二段","MAREA":" ","LANE":" ","ALLEY":" ","HOUSE_NO":"１９號","E_COORD97":171633.41,"N_COORD97":2542889.8199999998,"ADDRESS":"富農街二段１９號","OBJECTID":620817},"geometry":{"x":171633.41000000108,"y":2542889.8199999984}},{"attributes":{"ID":620845,"DIS_CODE":0,"TOWNNAME":"東區","LI":"東聖里","LIN":"22鄰","STREET":"富農街","SECT":"二段","MAREA":" ","LANE":" ","ALLEY":" ","HOUSE_NO":"１９號之１","E_COORD97":171632.60000000001,"N_COORD97":2542893.1400000001,"ADDRESS":"富農街二段１９號之１","OBJECTID":620818},"geometry":{"x":171632.59999999963,"y":2542893.1400000025}},{"attributes":{"ID":620846,"DIS_CODE":0,"TOWNNAME":"東區","LI":"東聖里","LIN":"22鄰","STREET":"富農街","SECT":"二段","MAREA":" ","LANE":" ","ALLEY":" ","HOUSE_NO":"２１號","E_COORD97":171631.76999999999,"N_COORD97":2542899.2599999998,"ADDRESS":"富農街二段２１號","OBJECTID":620819},"geometry":{"x":171631.76999999862,"y":2542899.2599999998}},{"attributes":{"ID":620847,"DIS_CODE":0,"TOWNNAME":"東區","LI":"東聖里","LIN":"22鄰","STREET":"富農街","SECT":"二段","MAREA":" ","LANE":" ","ALLEY":" ","HOUSE_NO":"２１號之１","E_COORD97":171631.10999999999,"N_COORD97":2542904.2200000002,"ADDRESS":"富農街二段２１號之１","OBJECTID":620820},"geometry":{"x":171631.11000000127,"y":2542904.2200000007}},{"attributes":{"ID":620848,"DIS_CODE":0,"TOWNNAME":"東區","LI":"東聖里","LIN":"22鄰","STREET":"富農街","SECT":"二段","MAREA":" ","LANE":" ","ALLEY":" ","HOUSE_NO":"３３號","E_COORD97":171629.45000000001,"N_COORD97":2542929.2000000002,"ADDRESS":"富農街二段３３號","OBJECTID":620821},"geometry":{"x":171629.45000000019,"y":2542929.1999999993}},{"attributes":{"ID":620849,"DIS_CODE":0,"TOWNNAME":"東區","LI":"東聖里","LIN":"22鄰","STREET":"富農街","SECT":"二段","MAREA":" ","LANE":" ","ALLEY":" ","HOUSE_NO":"３５號","E_COORD97":171624.89999999999,"N_COORD97":2542939.9500000002,"ADDRESS":"富農街二段３５號","OBJECTID":620822},"geometry":{"x":171624.90000000037,"y":2542939.9500000011}},{"attributes":{"ID":620850,"DIS_CODE":0,"TOWNNAME":"東區","LI":"東聖里","LIN":"22鄰","STREET":"富農街","SECT":"二段","MAREA":" ","LANE":" ","ALLEY":" ","HOUSE_NO":"３７號","E_COORD97":171624.16,"N_COORD97":2542945.1600000001,"ADDRESS":"富農街二段３７號","OBJECTID":620823},"geometry":{"x":171624.16000000015,"y":2542945.1600000039}},{"attributes":{"ID":620851,"DIS_CODE":0,"TOWNNAME":"東區","LI":"東聖里","LIN":"22鄰","STREET":"富農街","SECT":"二段","MAREA":" ","LANE":" ","ALLEY":" ","HOUSE_NO":"３９號","E_COORD97":171623.60000000001,"N_COORD97":2542949.25,"ADDRESS":"富農街二段３９號","OBJECTID":620824},"geometry":{"x":171623.60000000056,"y":2542949.2500000019}},{"attributes":{"ID":620852,"DIS_CODE":0,"TOWNNAME":"東區","LI":"東聖里","LIN":"22鄰","STREET":"富農街","SECT":"二段","MAREA":" ","LANE":" ","ALLEY":" ","HOUSE_NO":"４１號","E_COORD97":171622.48000000001,"N_COORD97":2542953.8999999999,"ADDRESS":"富農街二段４１號","OBJECTID":620825},"geometry":{"x":171622.48000000045,"y":2542953.9000000041}},{"attributes":{"ID":620853,"DIS_CODE":0,"TOWNNAME":"東區","LI":"虎尾里","LIN":"10鄰","STREET":"東門路","SECT":"三段","MAREA":" ","LANE":" ","ALLEY":" ","HOUSE_NO":"１０１號","E_COORD97":171300.14000000001,"N_COORD97":2542191.2200000002,"ADDRESS":"東門路三段１０１號","OBJECTID":620826},"geometry":{"x":171300.13999999966,"y":2542191.2200000007}},{"attributes":{"ID":620854,"DIS_CODE":0,"TOWNNAME":"東區","LI":"崇信里","LIN":"19鄰","STREET":"中華東路","SECT":"三段","MAREA":" ","LANE":" ","ALLEY":" ","HOUSE_NO":"１２８號","E_COORD97":170752.56,"N_COORD97":2542137.4199999999,"ADDRESS":"中華東路三段１２８號","OBJECTID":620827},"geometry":{"x":170752.56000000052,"y":2542137.4200000018}},{"attributes":{"ID":620855,"DIS_CODE":0,"TOWNNAME":"東區","LI":"虎尾里","LIN":"10鄰","STREET":"東門路","SECT":"三段","MAREA":" ","LANE":" ","ALLEY":" ","HOUSE_NO":"１０１號地下一層","E_COORD97":171300.14000000001,"N_COORD97":2542191.2200000002,"ADDRESS":"東門路三段１０１號地下一層","OBJECTID":620828},"geometry":{"x":171300.13999999966,"y":2542191.2200000007}},{"attributes":{"ID":620856,"DIS_CODE":0,"TOWNNAME":"東區","LI":"虎尾里","LIN":"10鄰","STREET":"東門路","SECT":"三段","MAREA":" ","LANE":" ","ALLEY":" ","HOUSE_NO":"７７號","E_COORD97":171238.53,"N_COORD97":2542229.5,"ADDRESS":"東門路三段７７號","OBJECTID":620829},"geometry":{"x":171238.53000000026,"y":2542229.5}},{"attributes":{"ID":620857,"DIS_CODE":0,"TOWNNAME":"東區","LI":"虎尾里","LIN":"10鄰","STREET":"東門路","SECT":"三段","MAREA":" ","LANE":" ","ALLEY":" ","HOUSE_NO":"８５號","E_COORD97":171255.84,"N_COORD97":2542215.2599999998,"ADDRESS":"東門路三段８５號","OBJECTID":620830},"geometry":{"x":171255.84000000078,"y":2542215.2600000035}},{"attributes":{"ID":620858,"DIS_CODE":0,"TOWNNAME":"東區","LI":"虎尾里","LIN":"10鄰","STREET":"東門路","SECT":"三段","MAREA":" ","LANE":" ","ALLEY":" ","HOUSE_NO":"８７號","E_COORD97":171259.37,"N_COORD97":2542212.29,"ADDRESS":"東門路三段８７號","OBJECTID":620831},"geometry":{"x":171259.37000000104,"y":2542212.290000001}},{"attributes":{"ID":620859,"DIS_CODE":0,"TOWNNAME":"東區","LI":"虎尾里","LIN":"10鄰","STREET":"東門路","SECT":"三段","MAREA":" ","LANE":" ","ALLEY":" ","HOUSE_NO":"８９號","E_COORD97":171263.09,"N_COORD97":2542210.4399999999,"ADDRESS":"東門路三段８９號","OBJECTID":620832},"geometry":{"x":171263.08999999985,"y":2542210.4400000032}},{"attributes":{"ID":620860,"DIS_CODE":0,"TOWNNAME":"東區","LI":"虎尾里","LIN":"10鄰","STREET":"東門路","SECT":"三段","MAREA":" ","LANE":" ","ALLEY":" ","HOUSE_NO":"９１號","E_COORD97":171266.98999999999,"N_COORD97":2542208.3900000001,"ADDRESS":"東門路三段９１號","OBJECTID":620833},"geometry":{"x":171266.99000000115,"y":2542208.3900000043}},{"attributes":{"ID":620861,"DIS_CODE":0,"TOWNNAME":"東區","LI":"東門里","LIN":"20鄰","STREET":"勝利路","SECT":" ","MAREA":" ","LANE":" ","ALLEY":" ","HOUSE_NO":"３號","E_COORD97":169755.66,"N_COORD97":2543114.0800000001,"ADDRESS":"勝利路３號","OBJECTID":620834},"geometry":{"x":169755.66000000108,"y":2543114.0800000001}},{"attributes":{"ID":620862,"DIS_CODE":0,"TOWNNAME":"東區","LI":"虎尾里","LIN":"10鄰","STREET":"東門路","SECT":"三段","MAREA":" ","LANE":" ","ALLEY":" ","HOUSE_NO":"９３號","E_COORD97":171270.14999999999,"N_COORD97":2542206.1699999999,"ADDRESS":"東門路三段９３號","OBJECTID":620835},"geometry":{"x":171270.15000000037,"y":2542206.1700000018}},{"attributes":{"ID":620863,"DIS_CODE":0,"TOWNNAME":"東區","LI":"虎尾里","LIN":"10鄰","STREET":"東門路","SECT":"三段","MAREA":" ","LANE":" ","ALLEY":" ","HOUSE_NO":"９５號","E_COORD97":171274.23999999999,"N_COORD97":2542205.2400000002,"ADDRESS":"東門路三段９５號","OBJECTID":620836},"geometry":{"x":171274.24000000115,"y":2542205.2400000002}},{"attributes":{"ID":620864,"DIS_CODE":0,"TOWNNAME":"東區","LI":"虎尾里","LIN":"10鄰","STREET":"東門路","SECT":"三段","MAREA":" ","LANE":" ","ALLEY":" ","HOUSE_NO":"９７號","E_COORD97":171277.59,"N_COORD97":2542203.0099999998,"ADDRESS":"東門路三段９７號","OBJECTID":620837},"geometry":{"x":171277.59000000078,"y":2542203.0099999998}},{"attributes":{"ID":620865,"DIS_CODE":0,"TOWNNAME":"東區","LI":"虎尾里","LIN":"10鄰","STREET":"東門路","SECT":"三段","MAREA":" ","LANE":" ","ALLEY":" ","HOUSE_NO":"９９號","E_COORD97":171279.44,"N_COORD97":2542197.4399999999,"ADDRESS":"東門路三段９９號","OBJECTID":620838},"geometry":{"x":171279.44000000134,"y":2542197.4400000013}},{"attributes":{"ID":620866,"DIS_CODE":0,"TOWNNAME":"東區","LI":"虎尾里","LIN":"28鄰","STREET":"東門路","SECT":"三段","MAREA":" ","LANE":" ","ALLEY":" ","HOUSE_NO":"２６３號","E_COORD97":171709.76999999999,"N_COORD97":2541864.77,"ADDRESS":"東門路三段２６３號","OBJECTID":620839},"geometry":{"x":171709.76999999862,"y":2541864.7699999996}},{"attributes":{"ID":620867,"DIS_CODE":0,"TOWNNAME":"東區","LI":"虎尾里","LIN":"28鄰","STREET":"東門路","SECT":"三段","MAREA":" ","LANE":" ","ALLEY":" ","HOUSE_NO":"２６５號","E_COORD97":171714.35000000001,"N_COORD97":2541864.1499999999,"ADDRESS":"東門路三段２６５號","OBJECTID":620840},"geometry":{"x":171714.34999999963,"y":2541864.1500000041}},{"attributes":{"ID":620868,"DIS_CODE":0,"TOWNNAME":"東區","LI":"虎尾里","LIN":"28鄰","STREET":"東門路","SECT":"三段","MAREA":" ","LANE":" ","ALLEY":" ","HOUSE_NO":"２６７號","E_COORD97":171718.63,"N_COORD97":2541862.5499999998,"ADDRESS":"東門路三段２６７號","OBJECTID":620841},"geometry":{"x":171718.63000000082,"y":2541862.5500000026}},{"attributes":{"ID":620869,"DIS_CODE":0,"TOWNNAME":"東區","LI":"虎尾里","LIN":"28鄰","STREET":"東門路","SECT":"三段","MAREA":" ","LANE":" ","ALLEY":" ","HOUSE_NO":"２６９號","E_COORD97":171722.92000000001,"N_COORD97":2541861.2999999998,"ADDRESS":"東門路三段２６９號","OBJECTID":620842},"geometry":{"x":171722.92000000179,"y":2541861.3000000026}},{"attributes":{"ID":620870,"DIS_CODE":0,"TOWNNAME":"東區","LI":"虎尾里","LIN":"28鄰","STREET":"東門路","SECT":"三段","MAREA":" ","LANE":" ","ALLEY":" ","HOUSE_NO":"２７１號","E_COORD97":171728.09,"N_COORD97":2541860.5899999999,"ADDRESS":"東門路三段２７１號","OBJECTID":620843},"geometry":{"x":171728.08999999985,"y":2541860.5900000036}},{"attributes":{"ID":620871,"DIS_CODE":0,"TOWNNAME":"東區","LI":"虎尾里","LIN":"12鄰","STREET":"富農街","SECT":"一段","MAREA":" ","LANE":" ","ALLEY":" ","HOUSE_NO":"２６號","E_COORD97":171507.70000000001,"N_COORD97":2542062.2599999998,"ADDRESS":"富農街一段２６號","OBJECTID":620844},"geometry":{"x":171507.70000000205,"y":2542062.2599999998}},{"attributes":{"ID":620872,"DIS_CODE":0,"TOWNNAME":"東區","LI":"虎尾里","LIN":"12鄰","STREET":"富農街","SECT":"一段","MAREA":" ","LANE":" ","ALLEY":" ","HOUSE_NO":"２８號","E_COORD97":171507.85000000001,"N_COORD97":2542066.5499999998,"ADDRESS":"富農街一段２８號","OBJECTID":620845},"geometry":{"x":171507.85000000056,"y":2542066.5500000026}},{"attributes":{"ID":620873,"DIS_CODE":0,"TOWNNAME":"東區","LI":"虎尾里","LIN":"12鄰","STREET":"富農街","SECT":"一段","MAREA":" ","LANE":" ","ALLEY":" ","HOUSE_NO":"３０號","E_COORD97":171507.54000000001,"N_COORD97":2542070.2999999998,"ADDRESS":"富農街一段３０號","OBJECTID":620846},"geometry":{"x":171507.54000000097,"y":2542070.3000000045}},{"attributes":{"ID":620874,"DIS_CODE":0,"TOWNNAME":"東區","LI":"虎尾里","LIN":"12鄰","STREET":"富農街","SECT":"一段","MAREA":" ","LANE":" ","ALLEY":" ","HOUSE_NO":"３２號","E_COORD97":171506.57000000001,"N_COORD97":2542074.2999999998,"ADDRESS":"富農街一段３２號","OBJECTID":620847},"geometry":{"x":171506.5700000003,"y":2542074.3000000026}},{"attributes":{"ID":620875,"DIS_CODE":0,"TOWNNAME":"東區","LI":"虎尾里","LIN":"12鄰","STREET":"富農街","SECT":"一段","MAREA":" ","LANE":" ","ALLEY":" ","HOUSE_NO":"３４號","E_COORD97":171507.01999999999,"N_COORD97":2542078.0699999998,"ADDRESS":"富農街一段３４號","OBJECTID":620848},"geometry":{"x":171507.02000000048,"y":2542078.070000004}},{"attributes":{"ID":620876,"DIS_CODE":0,"TOWNNAME":"東區","LI":"裕聖里","LIN":"8鄰","STREET":"裕東一街","SECT":" ","MAREA":" ","LANE":" ","ALLEY":" ","HOUSE_NO":"２號","E_COORD97":172671.26000000001,"N_COORD97":2541998.9700000002,"ADDRESS":"裕東一街２號","OBJECTID":620849},"geometry":{"x":172671.25999999885,"y":2541998.9700000025}},{"attributes":{"ID":620877,"DIS_CODE":0,"TOWNNAME":"東區","LI":"裕聖里","LIN":"5鄰","STREET":"裕孝路","SECT":" ","MAREA":" ","LANE":" ","ALLEY":" ","HOUSE_NO":"３５９號","E_COORD97":172446.84,"N_COORD97":2542316.6600000001,"ADDRESS":"裕孝路３５９號","OBJECTID":620850},"geometry":{"x":172446.83999999985,"y":2542316.6600000001}},{"attributes":{"ID":620878,"DIS_CODE":0,"TOWNNAME":"東區","LI":"裕聖里","LIN":"5鄰","STREET":"裕孝路","SECT":" ","MAREA":" ","LANE":" ","ALLEY":" ","HOUSE_NO":"３６１號","E_COORD97":172451.53,"N_COORD97":2542320.2000000002,"ADDRESS":"裕孝路３６１號","OBJECTID":620851},"geometry":{"x":172451.53000000119,"y":2542320.200000003}},{"attributes":{"ID":620879,"DIS_CODE":0,"TOWNNAME":"東區","LI":"裕聖里","LIN":"5鄰","STREET":"裕孝路","SECT":" ","MAREA":" ","LANE":" ","ALLEY":" ","HOUSE_NO":"３６３號","E_COORD97":172456.07000000001,"N_COORD97":2542316.9399999999,"ADDRESS":"裕孝路３６３號","OBJECTID":620852},"geometry":{"x":172456.06999999937,"y":2542316.9400000013}},{"attributes":{"ID":620880,"DIS_CODE":0,"TOWNNAME":"東區","LI":"裕聖里","LIN":"5鄰","STREET":"裕孝路","SECT":" ","MAREA":" ","LANE":" ","ALLEY":" ","HOUSE_NO":"３６５號","E_COORD97":172460.04999999999,"N_COORD97":2542321.48,"ADDRESS":"裕孝路３６５號","OBJECTID":620853},"geometry":{"x":172460.05000000075,"y":2542321.4800000004}},{"attributes":{"ID":620881,"DIS_CODE":0,"TOWNNAME":"東區","LI":"裕聖里","LIN":"5鄰","STREET":"裕孝路","SECT":" ","MAREA":" ","LANE":" ","ALLEY":" ","HOUSE_NO":"３６７號","E_COORD97":172464.59,"N_COORD97":2542316.9399999999,"ADDRESS":"裕孝路３６７號","OBJECTID":620854},"geometry":{"x":172464.59000000078,"y":2542316.9400000013}},{"attributes":{"ID":620882,"DIS_CODE":0,"TOWNNAME":"東區","LI":"裕聖里","LIN":"5鄰","STREET":"裕孝路","SECT":" ","MAREA":" ","LANE":" ","ALLEY":" ","HOUSE_NO":"３６９號","E_COORD97":172468.85000000001,"N_COORD97":2542321.6200000001,"ADDRESS":"裕孝路３６９號","OBJECTID":620855},"geometry":{"x":172468.85000000149,"y":2542321.620000001}},{"attributes":{"ID":620883,"DIS_CODE":0,"TOWNNAME":"東區","LI":"裕聖里","LIN":"5鄰","STREET":"裕孝路","SECT":" ","MAREA":" ","LANE":" ","ALLEY":" ","HOUSE_NO":"３７１號","E_COORD97":172473.54000000001,"N_COORD97":2542318.0800000001,"ADDRESS":"裕孝路３７１號","OBJECTID":620856},"geometry":{"x":172473.54000000097,"y":2542318.0800000001}},{"attributes":{"ID":620884,"DIS_CODE":0,"TOWNNAME":"東區","LI":"裕聖里","LIN":"5鄰","STREET":"裕孝路","SECT":" ","MAREA":" ","LANE":" ","ALLEY":" ","HOUSE_NO":"３７３號","E_COORD97":172477.79999999999,"N_COORD97":2542321.6200000001,"ADDRESS":"裕孝路３７３號","OBJECTID":620857},"geometry":{"x":172477.80000000168,"y":2542321.620000001}},{"attributes":{"ID":620885,"DIS_CODE":0,"TOWNNAME":"東區","LI":"裕聖里","LIN":"5鄰","STREET":"裕孝路","SECT":" ","MAREA":" ","LANE":" ","ALLEY":" ","HOUSE_NO":"３７５號","E_COORD97":172481.63,"N_COORD97":2542317.9300000002,"ADDRESS":"裕孝路３７５號","OBJECTID":620858},"geometry":{"x":172481.63000000082,"y":2542317.9299999997}},{"attributes":{"ID":620886,"DIS_CODE":0,"TOWNNAME":"東區","LI":"裕聖里","LIN":"5鄰","STREET":"裕孝路","SECT":" ","MAREA":" ","LANE":" ","ALLEY":" ","HOUSE_NO":"３７７號","E_COORD97":172485.89000000001,"N_COORD97":2542321.48,"ADDRESS":"裕孝路３７７號","OBJECTID":620859},"geometry":{"x":172485.8900000006,"y":2542321.4800000004}},{"attributes":{"ID":620887,"DIS_CODE":0,"TOWNNAME":"東區","LI":"裕聖里","LIN":"5鄰","STREET":"裕孝路","SECT":" ","MAREA":" ","LANE":" ","ALLEY":" ","HOUSE_NO":"３７９號","E_COORD97":172490.57999999999,"N_COORD97":2542318.3599999999,"ADDRESS":"裕孝路３７９號","OBJECTID":620860},"geometry":{"x":172490.58000000101,"y":2542318.3599999994}},{"attributes":{"ID":620888,"DIS_CODE":0,"TOWNNAME":"東區","LI":"裕聖里","LIN":"5鄰","STREET":"裕孝路","SECT":" ","MAREA":" ","LANE":" ","ALLEY":" ","HOUSE_NO":"３８１號","E_COORD97":172494.69,"N_COORD97":2542321.2000000002,"ADDRESS":"裕孝路３８１號","OBJECTID":620861},"geometry":{"x":172494.69000000134,"y":2542321.2000000011}},{"attributes":{"ID":620889,"DIS_CODE":0,"TOWNNAME":"東區","LI":"裕聖里","LIN":"5鄰","STREET":"裕孝路","SECT":" ","MAREA":" ","LANE":" ","ALLEY":" ","HOUSE_NO":"３８３號","E_COORD97":172499.81,"N_COORD97":2542318.3599999999,"ADDRESS":"裕孝路３８３號","OBJECTID":620862},"geometry":{"x":172499.81000000052,"y":2542318.3599999994}},{"attributes":{"ID":620890,"DIS_CODE":0,"TOWNNAME":"東區","LI":"裕聖里","LIN":"5鄰","STREET":"裕孝路","SECT":" ","MAREA":" ","LANE":" ","ALLEY":" ","HOUSE_NO":"３８５號","E_COORD97":172503.35999999999,"N_COORD97":2542321.6200000001,"ADDRESS":"裕孝路３８５號","OBJECTID":620863},"geometry":{"x":172503.3599999994,"y":2542321.620000001}},{"attributes":{"ID":620891,"DIS_CODE":0,"TOWNNAME":"東區","LI":"裕聖里","LIN":"17鄰","STREET":"裕孝三街","SECT":" ","MAREA":" ","LANE":" ","ALLEY":" ","HOUSE_NO":"５７號","E_COORD97":172672.72,"N_COORD97":2542082.3399999999,"ADDRESS":"裕孝三街５７號","OBJECTID":620864},"geometry":{"x":172672.71999999974,"y":2542082.339999998}},{"attributes":{"ID":620892,"DIS_CODE":0,"TOWNNAME":"麻豆區","LI":"東角里","LIN":"4鄰","STREET":"興中路","SECT":" ","MAREA":" ","LANE":" ","ALLEY":" ","HOUSE_NO":"１８３號","E_COORD97":173656.12,"N_COORD97":2564832.9900000002,"ADDRESS":"興中路１８３號","OBJECTID":620865},"geometry":{"x":173656.12000000104,"y":2564832.9900000021}},{"attributes":{"ID":620893,"DIS_CODE":0,"TOWNNAME":"下營區","LI":"下營里","LIN":"20鄰","STREET":"中山路","SECT":"二段","MAREA":" ","LANE":" ","ALLEY":" ","HOUSE_NO":"２３號","E_COORD97":174400.64999999999,"N_COORD97":2570409.3599999999,"ADDRESS":"中山路二段２３號","OBJECTID":620866},"geometry":{"x":174400.6500000013,"y":2570409.3600000013}},{"attributes":{"ID":620894,"DIS_CODE":0,"TOWNNAME":"下營區","LI":"仁里里","LIN":"19鄰","STREET":"中山路","SECT":"二段","MAREA":" ","LANE":" ","ALLEY":" ","HOUSE_NO":"２２號","E_COORD97":174358.23000000001,"N_COORD97":2570442.4100000001,"ADDRESS":"中山路二段２２號","OBJECTID":620867},"geometry":{"x":174358.23000000045,"y":2570442.4100000001}},{"attributes":{"ID":620895,"DIS_CODE":0,"TOWNNAME":"下營區","LI":"營前里","LIN":"23鄰","STREET":"中山路","SECT":"二段","MAREA":" ","LANE":" ","ALLEY":" ","HOUSE_NO":"２３３號","E_COORD97":174687.89999999999,"N_COORD97":2569727.0600000001,"ADDRESS":"中山路二段２３３號","OBJECTID":620868},"geometry":{"x":174687.90000000037,"y":2569727.0600000042}},{"attributes":{"ID":620896,"DIS_CODE":0,"TOWNNAME":"下營區","LI":"營前里","LIN":"23鄰","STREET":"中山路","SECT":"二段","MAREA":" ","LANE":" ","ALLEY":" ","HOUSE_NO":"２３７號","E_COORD97":174691.39000000001,"N_COORD97":2569720.2200000002,"ADDRESS":"中山路二段２３７號","OBJECTID":620869},"geometry":{"x":174691.3900000006,"y":2569720.2200000025}},{"attributes":{"ID":620897,"DIS_CODE":0,"TOWNNAME":"下營區","LI":"仁里里","LIN":"5鄰","STREET":"仁中街","SECT":" ","MAREA":" ","LANE":" ","ALLEY":" ","HOUSE_NO":"７號","E_COORD97":174533.42999999999,"N_COORD97":2569752.0099999998,"ADDRESS":"仁中街７號","OBJECTID":620870},"geometry":{"x":174533.43000000063,"y":2569752.0099999998}},{"attributes":{"ID":620898,"DIS_CODE":0,"TOWNNAME":"永康區","LI":"南灣里","LIN":"29鄰","STREET":"南灣街","SECT":" ","MAREA":" ","LANE":" ","ALLEY":" ","HOUSE_NO":"５９號","E_COORD97":174497.44,"N_COORD97":2544924.6699999999,"ADDRESS":"南灣街５９號","OBJECTID":620871},"geometry":{"x":174497.44000000041,"y":2544924.6699999981}},{"attributes":{"ID":620899,"DIS_CODE":0,"TOWNNAME":"永康區","LI":"西灣里","LIN":"39鄰","STREET":"永華路","SECT":" ","MAREA":" ","LANE":" ","ALLEY":" ","HOUSE_NO":"１９２號","E_COORD97":174116.10999999999,"N_COORD97":2545434.04,"ADDRESS":"永華路１９２號","OBJECTID":620872},"geometry":{"x":174116.11000000127,"y":2545434.040000001}},{"attributes":{"ID":620900,"DIS_CODE":0,"TOWNNAME":"永康區","LI":"尚頂里","LIN":"3鄰","STREET":"中正二街","SECT":" ","MAREA":" ","LANE":" ","ALLEY":" ","HOUSE_NO":"１６８號","E_COORD97":171381.48999999999,"N_COORD97":2547709.1800000002,"ADDRESS":"中正二街１６８號","OBJECTID":620873},"geometry":{"x":171381.49000000022,"y":2547709.1800000016}},{"attributes":{"ID":620901,"DIS_CODE":0,"TOWNNAME":"永康區","LI":"東灣里","LIN":"12鄰","STREET":"大灣路","SECT":" ","MAREA":" ","LANE":" ","ALLEY":" ","HOUSE_NO":"３５９號","E_COORD97":174762.20000000001,"N_COORD97":2544906.3999999999,"ADDRESS":"大灣路３５９號","OBJECTID":620874},"geometry":{"x":174762.20000000019,"y":2544906.4000000004}},{"attributes":{"ID":620902,"DIS_CODE":0,"TOWNNAME":"佳里區","LI":"安西里","LIN":"21鄰","STREET":"光華街","SECT":" ","MAREA":" ","LANE":" ","ALLEY":" ","HOUSE_NO":"８４號","E_COORD97":165248.76999999999,"N_COORD97":2562814.5800000001,"ADDRESS":"光華街８４號","OBJECTID":620875},"geometry":{"x":165248.76999999955,"y":2562814.5800000019}},{"attributes":{"ID":620903,"DIS_CODE":0,"TOWNNAME":"永康區","LI":"東灣里","LIN":"15鄰","STREET":"民族路","SECT":" ","MAREA":" ","LANE":" ","ALLEY":" ","HOUSE_NO":"２７５號","E_COORD97":175106.57999999999,"N_COORD97":2545058.5600000001,"ADDRESS":"民族路２７５號","OBJECTID":620876},"geometry":{"x":175106.58000000007,"y":2545058.5600000042}},{"attributes":{"ID":620904,"DIS_CODE":0,"TOWNNAME":"永康區","LI":"尚頂里","LIN":"7鄰","STREET":"尚頂路","SECT":" ","MAREA":" ","LANE":" ","ALLEY":" ","HOUSE_NO":"８９號","E_COORD97":171014.20000000001,"N_COORD97":2547632.52,"ADDRESS":"尚頂路８９號","OBJECTID":620877},"geometry":{"x":171014.19999999925,"y":2547632.5200000014}},{"attributes":{"ID":620905,"DIS_CODE":0,"TOWNNAME":"永康區","LI":"西灣里","LIN":"21鄰","STREET":"永大路","SECT":"二段","MAREA":" ","LANE":" ","ALLEY":" ","HOUSE_NO":"２５５號","E_COORD97":174373.12,"N_COORD97":2545448.6600000001,"ADDRESS":"永大路二段２５５號","OBJECTID":620878},"geometry":{"x":174373.12000000104,"y":2545448.660000002}},{"attributes":{"ID":620906,"DIS_CODE":0,"TOWNNAME":"永康區","LI":"尚頂里","LIN":"22鄰","STREET":"大武街","SECT":" ","MAREA":" ","LANE":" ","ALLEY":" ","HOUSE_NO":"６７號","E_COORD97":170374.45000000001,"N_COORD97":2546822.25,"ADDRESS":"大武街６７號","OBJECTID":620879},"geometry":{"x":170374.45000000019,"y":2546822.25}},{"attributes":{"ID":620907,"DIS_CODE":0,"TOWNNAME":"永康區","LI":"西灣里","LIN":"34鄰","STREET":"國光八街","SECT":" ","MAREA":" ","LANE":" ","ALLEY":" ","HOUSE_NO":"１２０號","E_COORD97":174126.73999999999,"N_COORD97":2545753.6099999999,"ADDRESS":"國光八街１２０號","OBJECTID":620880},"geometry":{"x":174126.74000000115,"y":2545753.6100000013}},{"attributes":{"ID":620908,"DIS_CODE":0,"TOWNNAME":"永康區","LI":"西灣里","LIN":"17鄰","STREET":"民族路","SECT":" ","MAREA":" ","LANE":" ","ALLEY":" ","HOUSE_NO":"５３３號","E_COORD97":174429.79000000001,"N_COORD97":2545463.5299999998,"ADDRESS":"民族路５３３號","OBJECTID":620881},"geometry":{"x":174429.79000000097,"y":2545463.5299999993}},{"attributes":{"ID":620909,"DIS_CODE":0,"TOWNNAME":"永康區","LI":"西灣里","LIN":"20鄰","STREET":"永大路","SECT":"二段","MAREA":" ","LANE":" ","ALLEY":" ","HOUSE_NO":"７５６號","E_COORD97":174532.03,"N_COORD97":2545888.5600000001,"ADDRESS":"永大路二段７５６號","OBJECTID":620882},"geometry":{"x":174532.03000000119,"y":2545888.5600000005}},{"attributes":{"ID":620910,"DIS_CODE":0,"TOWNNAME":"永康區","LI":"西灣里","LIN":"24鄰","STREET":"永大路","SECT":"二段","MAREA":" ","LANE":" ","ALLEY":" ","HOUSE_NO":"２８３號","E_COORD97":174399.64999999999,"N_COORD97":2545537.27,"ADDRESS":"永大路二段２８３號","OBJECTID":620883},"geometry":{"x":174399.65000000037,"y":2545537.2699999977}},{"attributes":{"ID":620911,"DIS_CODE":0,"TOWNNAME":"永康區","LI":"尚頂里","LIN":"23鄰","STREET":"南台街","SECT":" ","MAREA":" ","LANE":" ","ALLEY":" ","HOUSE_NO":"２７號","E_COORD97":170371.81,"N_COORD97":2546951.9100000001,"ADDRESS":"南台街２７號","OBJECTID":620884},"geometry":{"x":170371.80999999959,"y":2546951.910000002}},{"attributes":{"ID":620912,"DIS_CODE":0,"TOWNNAME":"永康區","LI":"尚頂里","LIN":"23鄰","STREET":"中華路","SECT":" ","MAREA":" ","LANE":" ","ALLEY":" ","HOUSE_NO":"９８６號","E_COORD97":170290.48999999999,"N_COORD97":2546857.9500000002,"ADDRESS":"中華路９８６號","OBJECTID":620885},"geometry":{"x":170290.49000000115,"y":2546857.9499999974}},{"attributes":{"ID":620913,"DIS_CODE":0,"TOWNNAME":"永康區","LI":"尚頂里","LIN":"16鄰","STREET":"中正南路","SECT":" ","MAREA":" ","LANE":" ","ALLEY":" ","HOUSE_NO":"２４０號","E_COORD97":170278.23999999999,"N_COORD97":2547486.25,"ADDRESS":"中正南路２４０號","OBJECTID":620886},"geometry":{"x":170278.23999999929,"y":2547486.25}},{"attributes":{"ID":620914,"DIS_CODE":0,"TOWNNAME":"永康區","LI":"東灣里","LIN":"11鄰","STREET":"立興街","SECT":" ","MAREA":" ","LANE":" ","ALLEY":" ","HOUSE_NO":"６號","E_COORD97":174681.38,"N_COORD97":2544845.6699999999,"ADDRESS":"立興街６號","OBJECTID":620887},"geometry":{"x":174681.38000000082,"y":2544845.6699999999}},{"attributes":{"ID":620915,"DIS_CODE":0,"TOWNNAME":"永康區","LI":"北灣里","LIN":"4鄰","STREET":"信義街","SECT":" ","MAREA":" ","LANE":" ","ALLEY":" ","HOUSE_NO":"１６號","E_COORD97":175552.60000000001,"N_COORD97":2545706.1499999999,"ADDRESS":"信義街１６號","OBJECTID":620888},"geometry":{"x":175552.60000000056,"y":2545706.1500000022}},{"attributes":{"ID":620916,"DIS_CODE":0,"TOWNNAME":"永康區","LI":"永康里","LIN":"6鄰","STREET":"中山北路","SECT":" ","MAREA":" ","LANE":" ","ALLEY":" ","HOUSE_NO":"１０號","E_COORD97":173900.84,"N_COORD97":2547349.75,"ADDRESS":"中山北路１０號","OBJECTID":620889},"geometry":{"x":173900.83999999985,"y":2547349.7500000019}},{"attributes":{"ID":620917,"DIS_CODE":0,"TOWNNAME":"永康區","LI":"正強里","LIN":"13鄰","STREET":"正強街","SECT":" ","MAREA":" ","LANE":" ","ALLEY":" ","HOUSE_NO":"１６５號","E_COORD97":173311.92999999999,"N_COORD97":2547542.73,"ADDRESS":"正強街１６５號","OBJECTID":620890},"geometry":{"x":173311.9299999997,"y":2547542.7300000023}},{"attributes":{"ID":620918,"DIS_CODE":0,"TOWNNAME":"永康區","LI":"永康里","LIN":"42鄰","STREET":"永忠路","SECT":" ","MAREA":" ","LANE":" ","ALLEY":" ","HOUSE_NO":"８８號","E_COORD97":174202.07000000001,"N_COORD97":2546598.0099999998,"ADDRESS":"永忠路８８號","OBJECTID":620891},"geometry":{"x":174202.0700000003,"y":2546598.0100000016}},{"attributes":{"ID":620919,"DIS_CODE":0,"TOWNNAME":"永康區","LI":"永康里","LIN":"26鄰","STREET":"中山北路","SECT":" ","MAREA":" ","LANE":" ","ALLEY":" ","HOUSE_NO":"９４號","E_COORD97":174110.72,"N_COORD97":2547425.0600000001,"ADDRESS":"中山北路９４號","OBJECTID":620892},"geometry":{"x":174110.71999999881,"y":2547425.0600000042}},{"attributes":{"ID":620920,"DIS_CODE":0,"TOWNNAME":"永康區","LI":"永康里","LIN":"26鄰","STREET":"永明街","SECT":" ","MAREA":" ","LANE":" ","ALLEY":" ","HOUSE_NO":"１３號","E_COORD97":174055.76999999999,"N_COORD97":2547368.27,"ADDRESS":"永明街１３號","OBJECTID":620893},"geometry":{"x":174055.76999999955,"y":2547368.2700000033}},{"attributes":{"ID":620921,"DIS_CODE":0,"TOWNNAME":"永康區","LI":"永康里","LIN":"26鄰","STREET":"永大路","SECT":"二段","MAREA":" ","LANE":" ","ALLEY":" ","HOUSE_NO":"１１２３號","E_COORD97":174211.45999999999,"N_COORD97":2547466.3700000001,"ADDRESS":"永大路二段１１２３號","OBJECTID":620894},"geometry":{"x":174211.46000000089,"y":2547466.370000001}},{"attributes":{"ID":620922,"DIS_CODE":0,"TOWNNAME":"永康區","LI":"永康里","LIN":"26鄰","STREET":"永明街","SECT":" ","MAREA":" ","LANE":" ","ALLEY":" ","HOUSE_NO":"１９號","E_COORD97":174063.85000000001,"N_COORD97":2547357.54,"ADDRESS":"永明街１９號","OBJECTID":620895},"geometry":{"x":174063.84999999963,"y":2547357.5399999991}},{"attributes":{"ID":620923,"DIS_CODE":0,"TOWNNAME":"永康區","LI":"北灣里","LIN":"33鄰","STREET":"大灣路","SECT":" ","MAREA":" ","LANE":" ","ALLEY":" ","HOUSE_NO":"３９號","E_COORD97":175313.38,"N_COORD97":2545856.77,"ADDRESS":"大灣路３９號","OBJECTID":620896},"geometry":{"x":175313.37999999896,"y":2545856.7700000014}},{"attributes":{"ID":620924,"DIS_CODE":0,"TOWNNAME":"永康區","LI":"北灣里","LIN":"41鄰","STREET":"大灣路","SECT":" ","MAREA":" ","LANE":" ","ALLEY":" ","HOUSE_NO":"７２號","E_COORD97":175236.81,"N_COORD97":2545778.9100000001,"ADDRESS":"大灣路７２號","OBJECTID":620897},"geometry":{"x":175236.80999999959,"y":2545778.910000002}},{"attributes":{"ID":620925,"DIS_CODE":0,"TOWNNAME":"永康區","LI":"安康里","LIN":"24鄰","STREET":"大橋一街","SECT":" ","MAREA":" ","LANE":" ","ALLEY":" ","HOUSE_NO":"１１２號","E_COORD97":170807.92000000001,"N_COORD97":2546343.9199999999,"ADDRESS":"大橋一街１１２號","OBJECTID":620898},"geometry":{"x":170807.92000000086,"y":2546343.9200000037}},{"attributes":{"ID":620926,"DIS_CODE":0,"TOWNNAME":"永康區","LI":"永康里","LIN":"26鄰","STREET":"永明街","SECT":" ","MAREA":" ","LANE":" ","ALLEY":" ","HOUSE_NO":"５７號","E_COORD97":174127.12,"N_COORD97":2547306.2200000002,"ADDRESS":"永明街５７號","OBJECTID":620899},"geometry":{"x":174127.12000000197,"y":2547306.2200000025}},{"attributes":{"ID":620927,"DIS_CODE":0,"TOWNNAME":"永康區","LI":"北灣里","LIN":"10鄰","STREET":"大灣路","SECT":" ","MAREA":" ","LANE":" ","ALLEY":" ","HOUSE_NO":"９４號","E_COORD97":175205.51000000001,"N_COORD97":2545724.2200000002,"ADDRESS":"大灣路９４號","OBJECTID":620900},"geometry":{"x":175205.50999999978,"y":2545724.2200000007}},{"attributes":{"ID":620928,"DIS_CODE":0,"TOWNNAME":"永康區","LI":"永康里","LIN":"21鄰","STREET":"中山南路","SECT":" ","MAREA":" ","LANE":" ","ALLEY":" ","HOUSE_NO":"９９４號","E_COORD97":173604.88,"N_COORD97":2547220.5600000001,"ADDRESS":"中山南路９９４號","OBJECTID":620901},"geometry":{"x":173604.88000000082,"y":2547220.5600000005}},{"attributes":{"ID":620929,"DIS_CODE":0,"TOWNNAME":"永康區","LI":"永康里","LIN":"2鄰","STREET":"中山北路","SECT":" ","MAREA":" ","LANE":" ","ALLEY":" ","HOUSE_NO":"１７號","E_COORD97":173924.64999999999,"N_COORD97":2547378.8599999999,"ADDRESS":"中山北路１７號","OBJECTID":620902},"geometry":{"x":173924.65000000037,"y":2547378.8600000013}},{"attributes":{"ID":620930,"DIS_CODE":0,"TOWNNAME":"永康區","LI":"永康里","LIN":"38鄰","STREET":"西勢路","SECT":" ","MAREA":" ","LANE":" ","ALLEY":" ","HOUSE_NO":"７０３號","E_COORD97":174467.42999999999,"N_COORD97":2546715.25,"ADDRESS":"西勢路７０３號","OBJECTID":620903},"geometry":{"x":174467.43000000063,"y":2546715.2500000019}},{"attributes":{"ID":620931,"DIS_CODE":0,"TOWNNAME":"永康區","LI":"甲頂里","LIN":"25鄰","STREET":"中正南路","SECT":" ","MAREA":" ","LANE":" ","ALLEY":" ","HOUSE_NO":"６９號","E_COORD97":169644.28,"N_COORD97":2546841.48,"ADDRESS":"中正南路６９號","OBJECTID":620904},"geometry":{"x":169644.28000000119,"y":2546841.4800000004}},{"attributes":{"ID":620932,"DIS_CODE":0,"TOWNNAME":"永康區","LI":"北灣里","LIN":"24鄰","STREET":"大灣路","SECT":" ","MAREA":" ","LANE":" ","ALLEY":" ","HOUSE_NO":"１７號","E_COORD97":175347.44,"N_COORD97":2545914.6099999999,"ADDRESS":"大灣路１７號","OBJECTID":620905},"geometry":{"x":175347.44000000227,"y":2545914.6100000031}},{"attributes":{"ID":620933,"DIS_CODE":0,"TOWNNAME":"永康區","LI":"永康里","LIN":"26鄰","STREET":"永明街","SECT":" ","MAREA":" ","LANE":" ","ALLEY":" ","HOUSE_NO":"５１號","E_COORD97":174115.76999999999,"N_COORD97":2547315.04,"ADDRESS":"永明街５１號","OBJECTID":620906},"geometry":{"x":174115.77000000048,"y":2547315.0400000028}},{"attributes":{"ID":620934,"DIS_CODE":0,"TOWNNAME":"永康區","LI":"甲頂里","LIN":"25鄰","STREET":"中正南路","SECT":" ","MAREA":" ","LANE":" ","ALLEY":" ","HOUSE_NO":"４５號","E_COORD97":169641.75,"N_COORD97":2546781.7999999998,"ADDRESS":"中正南路４５號","OBJECTID":620907},"geometry":{"x":169641.75,"y":2546781.8000000007}},{"attributes":{"ID":620935,"DIS_CODE":0,"TOWNNAME":"永康區","LI":"甲頂里","LIN":"30鄰","STREET":"中正南路","SECT":" ","MAREA":" ","LANE":" ","ALLEY":" ","HOUSE_NO":"１０９之２號","E_COORD97":169690.32000000001,"N_COORD97":2546983.79,"ADDRESS":"中正南路１０９之２號","OBJECTID":620908},"geometry":{"x":169690.32000000123,"y":2546983.7899999991}},{"attributes":{"ID":620936,"DIS_CODE":0,"TOWNNAME":"永康區","LI":"永康里","LIN":"21鄰","STREET":"中山南路","SECT":" ","MAREA":" ","LANE":" ","ALLEY":" ","HOUSE_NO":"１００８號","E_COORD97":173639.87,"N_COORD97":2547243.5,"ADDRESS":"中山南路１００８號","OBJECTID":620909},"geometry":{"x":173639.87000000011,"y":2547243.5}},{"attributes":{"ID":620937,"DIS_CODE":0,"TOWNNAME":"永康區","LI":"永康里","LIN":"26鄰","STREET":"永大路","SECT":"二段","MAREA":" ","LANE":" ","ALLEY":" ","HOUSE_NO":"９８９號","E_COORD97":174218.91,"N_COORD97":2547259.0899999999,"ADDRESS":"永大路二段９８９號","OBJECTID":620910},"geometry":{"x":174218.91000000108,"y":2547259.0900000017}},{"attributes":{"ID":620938,"DIS_CODE":0,"TOWNNAME":"永康區","LI":"永康里","LIN":"38鄰","STREET":"西勢路","SECT":" ","MAREA":" ","LANE":" ","ALLEY":" ","HOUSE_NO":"６９７號","E_COORD97":174479.07999999999,"N_COORD97":2546718.75,"ADDRESS":"西勢路６９７號","OBJECTID":620911},"geometry":{"x":174479.08000000101,"y":2546718.7500000019}},{"attributes":{"ID":620939,"DIS_CODE":0,"TOWNNAME":"永康區","LI":"永康里","LIN":"40鄰","STREET":"永大二路","SECT":" ","MAREA":" ","LANE":" ","ALLEY":" ","HOUSE_NO":"５８號","E_COORD97":174236.85999999999,"N_COORD97":2546561.8700000001,"ADDRESS":"永大二路５８號","OBJECTID":620912},"geometry":{"x":174236.86000000034,"y":2546561.870000001}},{"attributes":{"ID":620940,"DIS_CODE":0,"TOWNNAME":"佳里區","LI":"安西里","LIN":"27鄰","STREET":"安西路","SECT":" ","MAREA":" ","LANE":" ","ALLEY":" ","HOUSE_NO":"３４１號","E_COORD97":165255.34,"N_COORD97":2563052.04,"ADDRESS":"安西路３４１號","OBJECTID":620913},"geometry":{"x":165255.33999999985,"y":2563052.0399999991}},{"attributes":{"ID":620941,"DIS_CODE":0,"TOWNNAME":"佳里區","LI":"安西里","LIN":"22鄰","STREET":"安西路","SECT":" ","MAREA":" ","LANE":" ","ALLEY":" ","HOUSE_NO":"３３８號","E_COORD97":165156.45000000001,"N_COORD97":2562874.8199999998,"ADDRESS":"安西路３３８號","OBJECTID":620914},"geometry":{"x":165156.45000000112,"y":2562874.8200000003}},{"attributes":{"ID":620942,"DIS_CODE":0,"TOWNNAME":"佳里區","LI":"安西里","LIN":"22鄰","STREET":"安西路","SECT":" ","MAREA":" ","LANE":" ","ALLEY":" ","HOUSE_NO":"３４０號","E_COORD97":165158.79999999999,"N_COORD97":2562879.1899999999,"ADDRESS":"安西路３４０號","OBJECTID":620915},"geometry":{"x":165158.80000000075,"y":2562879.1899999995}},{"attributes":{"ID":620943,"DIS_CODE":0,"TOWNNAME":"佳里區","LI":"安西里","LIN":"22鄰","STREET":"安西路","SECT":" ","MAREA":" ","LANE":" ","ALLEY":" ","HOUSE_NO":"３４２號","E_COORD97":165162.57000000001,"N_COORD97":2562883.1600000001,"ADDRESS":"安西路３４２號","OBJECTID":620916},"geometry":{"x":165162.57000000123,"y":2562883.1600000001}},{"attributes":{"ID":620944,"DIS_CODE":0,"TOWNNAME":"佳里區","LI":"安西里","LIN":"47鄰","STREET":"安西路","SECT":" ","MAREA":" ","LANE":" ","ALLEY":" ","HOUSE_NO":"３５號","E_COORD97":165105.85000000001,"N_COORD97":2562257.2200000002,"ADDRESS":"安西路３５號","OBJECTID":620917},"geometry":{"x":165105.84999999963,"y":2562257.2200000025}},{"attributes":{"ID":620945,"DIS_CODE":0,"TOWNNAME":"佳里區","LI":"安西里","LIN":"27鄰","STREET":"安西路","SECT":" ","MAREA":" ","LANE":" ","ALLEY":" ","HOUSE_NO":"３５１號地下一層","E_COORD97":165265.60999999999,"N_COORD97":2563067.5899999999,"ADDRESS":"安西路３５１號地下一層","OBJECTID":620918},"geometry":{"x":165265.61000000127,"y":2563067.5900000017}},{"attributes":{"ID":620946,"DIS_CODE":0,"TOWNNAME":"佳里區","LI":"安西里","LIN":"27鄰","STREET":"安西路","SECT":" ","MAREA":" ","LANE":" ","ALLEY":" ","HOUSE_NO":"３５３號","E_COORD97":165269.57999999999,"N_COORD97":2563071.8799999999,"ADDRESS":"安西路３５３號","OBJECTID":620919},"geometry":{"x":165269.58000000007,"y":2563071.8800000008}},{"attributes":{"ID":620947,"DIS_CODE":0,"TOWNNAME":"佳里區","LI":"安西里","LIN":"27鄰","STREET":"安西路","SECT":" ","MAREA":" ","LANE":" ","ALLEY":" ","HOUSE_NO":"３５５號","E_COORD97":165272.79999999999,"N_COORD97":2563075.73,"ADDRESS":"安西路３５５號","OBJECTID":620920},"geometry":{"x":165272.79999999981,"y":2563075.7300000004}},{"attributes":{"ID":620948,"DIS_CODE":0,"TOWNNAME":"佳里區","LI":"安西里","LIN":"27鄰","STREET":"安西路","SECT":" ","MAREA":" ","LANE":" ","ALLEY":" ","HOUSE_NO":"３５７號","E_COORD97":165275.75,"N_COORD97":2563079.7599999998,"ADDRESS":"安西路３５７號","OBJECTID":620921},"geometry":{"x":165275.75000000093,"y":2563079.7600000035}},{"attributes":{"ID":620949,"DIS_CODE":0,"TOWNNAME":"佳里區","LI":"安西里","LIN":"27鄰","STREET":"安西路","SECT":" ","MAREA":" ","LANE":" ","ALLEY":" ","HOUSE_NO":"３５９號","E_COORD97":165278.73999999999,"N_COORD97":2563083.25,"ADDRESS":"安西路３５９號","OBJECTID":620922},"geometry":{"x":165278.74000000022,"y":2563083.2500000037}},{"attributes":{"ID":620950,"DIS_CODE":0,"TOWNNAME":"佳里區","LI":"安西里","LIN":"27鄰","STREET":"安西路","SECT":" ","MAREA":" ","LANE":" ","ALLEY":" ","HOUSE_NO":"３６１號","E_COORD97":165281.14999999999,"N_COORD97":2563087.21,"ADDRESS":"安西路３６１號","OBJECTID":620923},"geometry":{"x":165281.15000000037,"y":2563087.2100000009}},{"attributes":{"ID":620951,"DIS_CODE":0,"TOWNNAME":"佳里區","LI":"安西里","LIN":"27鄰","STREET":"安西路","SECT":" ","MAREA":" ","LANE":" ","ALLEY":" ","HOUSE_NO":"３６３號","E_COORD97":165283.92000000001,"N_COORD97":2563090.6899999999,"ADDRESS":"安西路３６３號","OBJECTID":620924},"geometry":{"x":165283.91999999993,"y":2563090.6900000013}},{"attributes":{"ID":620952,"DIS_CODE":0,"TOWNNAME":"佳里區","LI":"安西里","LIN":"27鄰","STREET":"安西路","SECT":" ","MAREA":" ","LANE":" ","ALLEY":" ","HOUSE_NO":"３６５號","E_COORD97":165287.14999999999,"N_COORD97":2563094.4399999999,"ADDRESS":"安西路３６５號","OBJECTID":620925},"geometry":{"x":165287.1500000013,"y":2563094.4399999995}},{"attributes":{"ID":620953,"DIS_CODE":0,"TOWNNAME":"佳里區","LI":"安西里","LIN":"22鄰","STREET":"安西路","SECT":" ","MAREA":" ","LANE":" ","ALLEY":" ","HOUSE_NO":"３６６號","E_COORD97":165187.14000000001,"N_COORD97":2562916.8500000001,"ADDRESS":"安西路３６６號","OBJECTID":620926},"geometry":{"x":165187.13999999966,"y":2562916.8500000015}},{"attributes":{"ID":620954,"DIS_CODE":0,"TOWNNAME":"佳里區","LI":"安西里","LIN":"22鄰","STREET":"安西路","SECT":" ","MAREA":" ","LANE":" ","ALLEY":" ","HOUSE_NO":"３６８號","E_COORD97":165192.31,"N_COORD97":2562922.8500000001,"ADDRESS":"安西路３６８號","OBJECTID":620927},"geometry":{"x":165192.31000000052,"y":2562922.8500000034}},{"attributes":{"ID":620955,"DIS_CODE":0,"TOWNNAME":"佳里區","LI":"安西里","LIN":"47鄰","STREET":"安西路","SECT":" ","MAREA":" ","LANE":" ","ALLEY":" ","HOUSE_NO":"９號","E_COORD97":165105.26999999999,"N_COORD97":2562196.3599999999,"ADDRESS":"安西路９號","OBJECTID":620928},"geometry":{"x":165105.26999999955,"y":2562196.3599999994}},{"attributes":{"ID":620956,"DIS_CODE":0,"TOWNNAME":"佳里區","LI":"安西里","LIN":"39鄰","STREET":"育善街","SECT":" ","MAREA":" ","LANE":" ","ALLEY":" ","HOUSE_NO":"２３１號","E_COORD97":164926.95999999999,"N_COORD97":2562672.1600000001,"ADDRESS":"育善街２３１號","OBJECTID":620929},"geometry":{"x":164926.96000000089,"y":2562672.1600000001}},{"attributes":{"ID":620957,"DIS_CODE":0,"TOWNNAME":"佳里區","LI":"安西里","LIN":"43鄰","STREET":"育善街","SECT":" ","MAREA":" ","LANE":" ","ALLEY":" ","HOUSE_NO":"１６２號","E_COORD97":164971.51000000001,"N_COORD97":2562435.7400000002,"ADDRESS":"育善街１６２號","OBJECTID":620930},"geometry":{"x":164971.50999999978,"y":2562435.7399999984}},{"attributes":{"ID":620958,"DIS_CODE":0,"TOWNNAME":"佳里區","LI":"安西里","LIN":"43鄰","STREET":"育善街","SECT":" ","MAREA":" ","LANE":" ","ALLEY":" ","HOUSE_NO":"１７４號","E_COORD97":164969.70000000001,"N_COORD97":2562456.04,"ADDRESS":"育善街１７４號","OBJECTID":620931},"geometry":{"x":164969.70000000112,"y":2562456.0399999991}},{"attributes":{"ID":620959,"DIS_CODE":0,"TOWNNAME":"安南區","LI":"總頭里","LIN":"2鄰","STREET":"總安街","SECT":"二段","MAREA":" ","LANE":" ","ALLEY":" ","HOUSE_NO":"３１６號","E_COORD97":168421.51000000001,"N_COORD97":2550508.7799999998,"ADDRESS":"總安街二段３１６號","OBJECTID":620932},"geometry":{"x":168421.51000000164,"y":2550508.7800000012}},{"attributes":{"ID":620960,"DIS_CODE":0,"TOWNNAME":"東區","LI":"裕聖里","LIN":"2鄰","STREET":"裕信路","SECT":" ","MAREA":" ","LANE":" ","ALLEY":" ","HOUSE_NO":"３２６之５號","E_COORD97":172566.98000000001,"N_COORD97":2542449.3999999999,"ADDRESS":"裕信路３２６之５號","OBJECTID":620933},"geometry":{"x":172566.98000000045,"y":2542449.4000000022}},{"attributes":{"ID":620961,"DIS_CODE":0,"TOWNNAME":"東區","LI":"裕聖里","LIN":"2鄰","STREET":"裕信路","SECT":" ","MAREA":" ","LANE":" ","ALLEY":" ","HOUSE_NO":"３２６之６號","E_COORD97":172563.35999999999,"N_COORD97":2542446.1099999999,"ADDRESS":"裕信路３２６之６號","OBJECTID":620934},"geometry":{"x":172563.36000000127,"y":2542446.1099999975}},{"attributes":{"ID":620962,"DIS_CODE":0,"TOWNNAME":"東區","LI":"東門里","LIN":"20鄰","STREET":"勝利路","SECT":" ","MAREA":" ","LANE":" ","ALLEY":" ","HOUSE_NO":"３５號","E_COORD97":169765.12,"N_COORD97":2543194.9900000002,"ADDRESS":"勝利路３５號","OBJECTID":620935},"geometry":{"x":169765.12000000011,"y":2543194.9900000021}},{"attributes":{"ID":620963,"DIS_CODE":0,"TOWNNAME":"東區","LI":"裕聖里","LIN":"10鄰","STREET":"裕信路","SECT":" ","MAREA":" ","LANE":" ","ALLEY":" ","HOUSE_NO":"４１０號","E_COORD97":172570,"N_COORD97":2541996.3100000001,"ADDRESS":"裕信路４１０號","OBJECTID":620936},"geometry":{"x":172570.00000000186,"y":2541996.3100000024}},{"attributes":{"ID":620964,"DIS_CODE":0,"TOWNNAME":"東區","LI":"裕聖里","LIN":"10鄰","STREET":"裕信路","SECT":" ","MAREA":" ","LANE":" ","ALLEY":" ","HOUSE_NO":"４１２號","E_COORD97":172562.45000000001,"N_COORD97":2541997.8199999998,"ADDRESS":"裕信路４１２號","OBJECTID":620937},"geometry":{"x":172562.45000000112,"y":2541997.8200000003}},{"attributes":{"ID":620965,"DIS_CODE":0,"TOWNNAME":"東區","LI":"裕聖里","LIN":"10鄰","STREET":"裕信路","SECT":" ","MAREA":" ","LANE":" ","ALLEY":" ","HOUSE_NO":"４１６號","E_COORD97":172555.79999999999,"N_COORD97":2541999.3300000001,"ADDRESS":"裕信路４１６號","OBJECTID":620938},"geometry":{"x":172555.80000000168,"y":2541999.3300000019}},{"attributes":{"ID":620966,"DIS_CODE":0,"TOWNNAME":"東區","LI":"裕聖里","LIN":"10鄰","STREET":"裕信路","SECT":" ","MAREA":" ","LANE":" ","ALLEY":" ","HOUSE_NO":"４１８號","E_COORD97":172551.26999999999,"N_COORD97":2542000.8399999999,"ADDRESS":"裕信路４１８號","OBJECTID":620939},"geometry":{"x":172551.27000000048,"y":2542000.8399999999}},{"attributes":{"ID":620967,"DIS_CODE":0,"TOWNNAME":"東區","LI":"裕聖里","LIN":"10鄰","STREET":"裕信路","SECT":" ","MAREA":" ","LANE":" ","ALLEY":" ","HOUSE_NO":"４２０號","E_COORD97":172545.82999999999,"N_COORD97":2542001.73,"ADDRESS":"裕信路４２０號","OBJECTID":620940},"geometry":{"x":172545.83000000194,"y":2542001.7300000004}},{"attributes":{"ID":620968,"DIS_CODE":0,"TOWNNAME":"東區","LI":"裕聖里","LIN":"9鄰","STREET":"裕信路","SECT":" ","MAREA":" ","LANE":" ","ALLEY":" ","HOUSE_NO":"４０９號","E_COORD97":172595.75,"N_COORD97":2541987.2999999998,"ADDRESS":"裕信路４０９號","OBJECTID":620941},"geometry":{"x":172595.75000000093,"y":2541987.3000000007}},{"attributes":{"ID":620969,"DIS_CODE":0,"TOWNNAME":"東區","LI":"裕聖里","LIN":"9鄰","STREET":"裕信路","SECT":" ","MAREA":" ","LANE":" ","ALLEY":" ","HOUSE_NO":"４１１號","E_COORD97":172594.76999999999,"N_COORD97":2541982.96,"ADDRESS":"裕信路４１１號","OBJECTID":620942},"geometry":{"x":172594.77000000142,"y":2541982.9600000009}},{"attributes":{"ID":620970,"DIS_CODE":0,"TOWNNAME":"東區","LI":"裕聖里","LIN":"9鄰","STREET":"裕信路","SECT":" ","MAREA":" ","LANE":" ","ALLEY":" ","HOUSE_NO":"４１３號","E_COORD97":172593.79000000001,"N_COORD97":2541978.4900000002,"ADDRESS":"裕信路４１３號","OBJECTID":620943},"geometry":{"x":172593.79000000097,"y":2541978.4900000002}},{"attributes":{"ID":620971,"DIS_CODE":0,"TOWNNAME":"東區","LI":"裕聖里","LIN":"9鄰","STREET":"裕信路","SECT":" ","MAREA":" ","LANE":" ","ALLEY":" ","HOUSE_NO":"４１５號","E_COORD97":172592.54000000001,"N_COORD97":2541974.0099999998,"ADDRESS":"裕信路４１５號","OBJECTID":620944},"geometry":{"x":172592.54000000097,"y":2541974.0100000016}},{"attributes":{"ID":620972,"DIS_CODE":0,"TOWNNAME":"東區","LI":"裕聖里","LIN":"9鄰","STREET":"裕信路","SECT":" ","MAREA":" ","LANE":" ","ALLEY":" ","HOUSE_NO":"４１７號","E_COORD97":172591.28,"N_COORD97":2541967.8599999999,"ADDRESS":"裕信路４１７號","OBJECTID":620945},"geometry":{"x":172591.28000000026,"y":2541967.8600000013}},{"attributes":{"ID":620973,"DIS_CODE":0,"TOWNNAME":"東區","LI":"裕聖里","LIN":"9鄰","STREET":"裕信路","SECT":" ","MAREA":" ","LANE":" ","ALLEY":" ","HOUSE_NO":"４１９號","E_COORD97":172591.98000000001,"N_COORD97":2541963.6600000001,"ADDRESS":"裕信路４１９號","OBJECTID":620946},"geometry":{"x":172591.98000000045,"y":2541963.660000002}},{"attributes":{"ID":620974,"DIS_CODE":0,"TOWNNAME":"東區","LI":"裕聖里","LIN":"10鄰","STREET":"裕信路","SECT":" ","MAREA":" ","LANE":" ","ALLEY":" ","HOUSE_NO":"４２２號","E_COORD97":172539.79000000001,"N_COORD97":2542003.25,"ADDRESS":"裕信路４２２號","OBJECTID":620947},"geometry":{"x":172539.79000000097,"y":2542003.2500000019}},{"attributes":{"ID":620975,"DIS_CODE":0,"TOWNNAME":"東區","LI":"裕聖里","LIN":"10鄰","STREET":"裕信路","SECT":" ","MAREA":" ","LANE":" ","ALLEY":" ","HOUSE_NO":"４２６號","E_COORD97":172533.75,"N_COORD97":2542003.25,"ADDRESS":"裕信路４２６號","OBJECTID":620948},"geometry":{"x":172533.75,"y":2542003.2500000019}},{"attributes":{"ID":620976,"DIS_CODE":0,"TOWNNAME":"東區","LI":"裕聖里","LIN":"10鄰","STREET":"裕信路","SECT":" ","MAREA":" ","LANE":" ","ALLEY":" ","HOUSE_NO":"４２８號","E_COORD97":172529.22,"N_COORD97":2542005.9700000002,"ADDRESS":"裕信路４２８號","OBJECTID":620949},"geometry":{"x":172529.2200000016,"y":2542005.9700000025}},{"attributes":{"ID":620977,"DIS_CODE":0,"TOWNNAME":"東區","LI":"裕聖里","LIN":"10鄰","STREET":"裕信路","SECT":" ","MAREA":" ","LANE":" ","ALLEY":" ","HOUSE_NO":"４３０號","E_COORD97":172523.78,"N_COORD97":2542009.8900000001,"ADDRESS":"裕信路４３０號","OBJECTID":620950},"geometry":{"x":172523.78000000026,"y":2542009.8900000025}},{"attributes":{"ID":620978,"DIS_CODE":0,"TOWNNAME":"東區","LI":"裕聖里","LIN":"10鄰","STREET":"裕信路","SECT":" ","MAREA":" ","LANE":" ","ALLEY":" ","HOUSE_NO":"４３２號","E_COORD97":172516.53,"N_COORD97":2542009.8900000001,"ADDRESS":"裕信路４３２號","OBJECTID":620951},"geometry":{"x":172516.53000000119,"y":2542009.8900000025}},{"attributes":{"ID":620979,"DIS_CODE":0,"TOWNNAME":"東區","LI":"裕聖里","LIN":"9鄰","STREET":"裕信路","SECT":" ","MAREA":" ","LANE":" ","ALLEY":" ","HOUSE_NO":"４２１號","E_COORD97":172588.76000000001,"N_COORD97":2541957.6499999999,"ADDRESS":"裕信路４２１號","OBJECTID":620952},"geometry":{"x":172588.76000000071,"y":2541957.6500000004}},{"attributes":{"ID":620980,"DIS_CODE":0,"TOWNNAME":"東區","LI":"裕聖里","LIN":"9鄰","STREET":"裕信路","SECT":" ","MAREA":" ","LANE":" ","ALLEY":" ","HOUSE_NO":"４２３號","E_COORD97":172587.64000000001,"N_COORD97":2541952.3300000001,"ADDRESS":"裕信路４２３號","OBJECTID":620953},"geometry":{"x":172587.6400000006,"y":2541952.3300000001}},{"attributes":{"ID":620981,"DIS_CODE":0,"TOWNNAME":"東區","LI":"裕聖里","LIN":"9鄰","STREET":"裕信路","SECT":" ","MAREA":" ","LANE":" ","ALLEY":" ","HOUSE_NO":"４２５號","E_COORD97":172586.26000000001,"N_COORD97":2541946.6099999999,"ADDRESS":"裕信路４２５號","OBJECTID":620954},"geometry":{"x":172586.25999999978,"y":2541946.6099999994}},{"attributes":{"ID":620982,"DIS_CODE":0,"TOWNNAME":"東區","LI":"裕聖里","LIN":"9鄰","STREET":"裕信路","SECT":" ","MAREA":" ","LANE":" ","ALLEY":" ","HOUSE_NO":"４２７號","E_COORD97":172584.97,"N_COORD97":2541940.8100000001,"ADDRESS":"裕信路４２７號","OBJECTID":620955},"geometry":{"x":172584.96999999974,"y":2541940.8099999987}},{"attributes":{"ID":620983,"DIS_CODE":0,"TOWNNAME":"東區","LI":"裕聖里","LIN":"9鄰","STREET":"裕信路","SECT":" ","MAREA":" ","LANE":" ","ALLEY":" ","HOUSE_NO":"４２９號","E_COORD97":172584.64000000001,"N_COORD97":2541936.29,"ADDRESS":"裕信路４２９號","OBJECTID":620956},"geometry":{"x":172584.6400000006,"y":2541936.2900000028}},{"attributes":{"ID":620984,"DIS_CODE":0,"TOWNNAME":"東區","LI":"裕聖里","LIN":"9鄰","STREET":"裕信路","SECT":" ","MAREA":" ","LANE":" ","ALLEY":" ","HOUSE_NO":"４３１號","E_COORD97":172583.19,"N_COORD97":2541932.27,"ADDRESS":"裕信路４３１號","OBJECTID":620957},"geometry":{"x":172583.19000000134,"y":2541932.2699999996}},{"attributes":{"ID":620985,"DIS_CODE":0,"TOWNNAME":"東區","LI":"裕聖里","LIN":"9鄰","STREET":"裕信路","SECT":" ","MAREA":" ","LANE":" ","ALLEY":" ","HOUSE_NO":"４３３號","E_COORD97":172582.87,"N_COORD97":2541925.6600000001,"ADDRESS":"裕信路４３３號","OBJECTID":620958},"geometry":{"x":172582.87000000197,"y":2541925.660000002}},{"attributes":{"ID":620986,"DIS_CODE":0,"TOWNNAME":"東區","LI":"裕聖里","LIN":"10鄰","STREET":"裕信路","SECT":" ","MAREA":" ","LANE":" ","ALLEY":" ","HOUSE_NO":"４３６號","E_COORD97":172511.09,"N_COORD97":2542010.7999999998,"ADDRESS":"裕信路４３６號","OBJECTID":620959},"geometry":{"x":172511.08999999985,"y":2542010.8000000026}},{"attributes":{"ID":620987,"DIS_CODE":0,"TOWNNAME":"東區","LI":"裕聖里","LIN":"9鄰","STREET":"裕信路","SECT":" ","MAREA":" ","LANE":" ","ALLEY":" ","HOUSE_NO":"４３５號","E_COORD97":172580.29000000001,"N_COORD97":2541919.7000000002,"ADDRESS":"裕信路４３５號","OBJECTID":620960},"geometry":{"x":172580.29000000097,"y":2541919.6999999993}},{"attributes":{"ID":620988,"DIS_CODE":0,"TOWNNAME":"東區","LI":"成大里","LIN":"18鄰","STREET":"前鋒路","SECT":" ","MAREA":" ","LANE":" ","ALLEY":" ","HOUSE_NO":"１２６號","E_COORD97":169351.85000000001,"N_COORD97":2543892.02,"ADDRESS":"前鋒路１２６號","OBJECTID":620961},"geometry":{"x":169351.85000000056,"y":2543892.0200000014}},{"attributes":{"ID":620989,"DIS_CODE":0,"TOWNNAME":"東區","LI":"東門里","LIN":"20鄰","STREET":"勝利路","SECT":" ","MAREA":" ","LANE":" ","ALLEY":" ","HOUSE_NO":"３７號","E_COORD97":169764.59,"N_COORD97":2543198.3500000001,"ADDRESS":"勝利路３７號","OBJECTID":620962},"geometry":{"x":169764.58999999985,"y":2543198.3500000015}},{"attributes":{"ID":620990,"DIS_CODE":0,"TOWNNAME":"東區","LI":"虎尾里","LIN":"26鄰","STREET":"東門路","SECT":"三段","MAREA":" ","LANE":" ","ALLEY":" ","HOUSE_NO":"２９７號","E_COORD97":171836.25,"N_COORD97":2541828.2999999998,"ADDRESS":"東門路三段２９７號","OBJECTID":620963},"geometry":{"x":171836.25000000093,"y":2541828.3000000007}},{"attributes":{"ID":620991,"DIS_CODE":0,"TOWNNAME":"東區","LI":"虎尾里","LIN":"26鄰","STREET":"東門路","SECT":"三段","MAREA":" ","LANE":" ","ALLEY":" ","HOUSE_NO":"２９７號地下一層","E_COORD97":171836.25,"N_COORD97":2541828.2999999998,"ADDRESS":"東門路三段２９７號地下一層","OBJECTID":620964},"geometry":{"x":171836.25000000093,"y":2541828.3000000007}},{"attributes":{"ID":620992,"DIS_CODE":0,"TOWNNAME":"東區","LI":"虎尾里","LIN":"26鄰","STREET":"東門路","SECT":"三段","MAREA":" ","LANE":" ","ALLEY":" ","HOUSE_NO":"２９７號地下二層","E_COORD97":171836.25,"N_COORD97":2541828.2999999998,"ADDRESS":"東門路三段２９７號地下二層","OBJECTID":620965},"geometry":{"x":171836.25000000093,"y":2541828.3000000007}},{"attributes":{"ID":620993,"DIS_CODE":0,"TOWNNAME":"東區","LI":"虎尾里","LIN":"26鄰","STREET":"東門路","SECT":"三段","MAREA":" ","LANE":" ","ALLEY":" ","HOUSE_NO":"３１３號","E_COORD97":171852.29000000001,"N_COORD97":2541820.0299999998,"ADDRESS":"東門路三段３１３號","OBJECTID":620966},"geometry":{"x":171852.29000000004,"y":2541820.0300000012}},{"attributes":{"ID":620994,"DIS_CODE":0,"TOWNNAME":"東區","LI":"虎尾里","LIN":"26鄰","STREET":"東門路","SECT":"三段","MAREA":" ","LANE":" ","ALLEY":" ","HOUSE_NO":"３３７號","E_COORD97":171911.60000000001,"N_COORD97":2541792.04,"ADDRESS":"東門路三段３３７號","OBJECTID":620967},"geometry":{"x":171911.60000000056,"y":2541792.0400000028}},{"attributes":{"ID":620995,"DIS_CODE":0,"TOWNNAME":"東區","LI":"成大里","LIN":"18鄰","STREET":"大學路","SECT":"西段","MAREA":" ","LANE":" ","ALLEY":" ","HOUSE_NO":"８９號","E_COORD97":169450.44,"N_COORD97":2544092.3900000001,"ADDRESS":"大學路西段８９號","OBJECTID":620968},"geometry":{"x":169450.44000000134,"y":2544092.3900000006}},{"attributes":{"ID":620996,"DIS_CODE":0,"TOWNNAME":"東區","LI":"成大里","LIN":"11鄰","STREET":"育樂街","SECT":" ","MAREA":" ","LANE":" ","ALLEY":" ","HOUSE_NO":"１６６號","E_COORD97":169491.07000000001,"N_COORD97":2543960.8700000001,"ADDRESS":"育樂街１６６號","OBJECTID":620969},"geometry":{"x":169491.0700000003,"y":2543960.870000001}},{"attributes":{"ID":620997,"DIS_CODE":0,"TOWNNAME":"東區","LI":"東門里","LIN":"15鄰","STREET":"東榮街","SECT":" ","MAREA":" ","LANE":" ","ALLEY":" ","HOUSE_NO":"９０號","E_COORD97":169527.28,"N_COORD97":2543253.0899999999,"ADDRESS":"東榮街９０號","OBJECTID":620970},"geometry":{"x":169527.28000000212,"y":2543253.0899999999}},{"attributes":{"ID":620998,"DIS_CODE":0,"TOWNNAME":"東區","LI":"成大里","LIN":"10鄰","STREET":"民族路","SECT":"一段","MAREA":" ","LANE":" ","ALLEY":" ","HOUSE_NO":"９２號","E_COORD97":169369.79000000001,"N_COORD97":2543910.21,"ADDRESS":"民族路一段９２號","OBJECTID":620971},"geometry":{"x":169369.79000000097,"y":2543910.2100000009}},{"attributes":{"ID":620999,"DIS_CODE":0,"TOWNNAME":"東區","LI":"東門里","LIN":"14鄰","STREET":"慶東街","SECT":" ","MAREA":" ","LANE":" ","ALLEY":" ","HOUSE_NO":"９０號","E_COORD97":169648.67999999999,"N_COORD97":2543158.5,"ADDRESS":"慶東街９０號","OBJECTID":620972},"geometry":{"x":169648.6799999997,"y":2543158.5}},{"attributes":{"ID":621000,"DIS_CODE":0,"TOWNNAME":"東區","LI":"成大里","LIN":"9鄰","STREET":"育樂街","SECT":" ","MAREA":" ","LANE":" ","ALLEY":" ","HOUSE_NO":"１４３號","E_COORD97":169502.47,"N_COORD97":2543920.79,"ADDRESS":"育樂街１４３號","OBJECTID":620973},"geometry":{"x":169502.46999999974,"y":2543920.790000001}},{"attributes":{"ID":621001,"DIS_CODE":0,"TOWNNAME":"東區","LI":"成大里","LIN":"18鄰","STREET":"大學路","SECT":"西段","MAREA":" ","LANE":" ","ALLEY":" ","HOUSE_NO":"８９號地下一層","E_COORD97":169450.44,"N_COORD97":2544092.3900000001,"ADDRESS":"大學路西段８９號地下一層","OBJECTID":620974},"geometry":{"x":169450.44000000134,"y":2544092.3900000006}},{"attributes":{"ID":621002,"DIS_CODE":0,"TOWNNAME":"東區","LI":"成大里","LIN":"18鄰","STREET":"大學路","SECT":"西段","MAREA":" ","LANE":" ","ALLEY":" ","HOUSE_NO":"８９號地下一層之１","E_COORD97":169450.44,"N_COORD97":2544092.3900000001,"ADDRESS":"大學路西段８９號地下一層之１","OBJECTID":620975},"geometry":{"x":169450.44000000134,"y":2544092.3900000006}},{"attributes":{"ID":621003,"DIS_CODE":0,"TOWNNAME":"東區","LI":"成大里","LIN":"18鄰","STREET":"大學路","SECT":"西段","MAREA":" ","LANE":" ","ALLEY":" ","HOUSE_NO":"８９號地下一層之１０","E_COORD97":169450.44,"N_COORD97":2544092.3900000001,"ADDRESS":"大學路西段８９號地下一層之１０","OBJECTID":620976},"geometry":{"x":169450.44000000134,"y":2544092.3900000006}},{"attributes":{"ID":621004,"DIS_CODE":0,"TOWNNAME":"東區","LI":"成大里","LIN":"18鄰","STREET":"大學路","SECT":"西段","MAREA":" ","LANE":" ","ALLEY":" ","HOUSE_NO":"８９號地下一層之１０","E_COORD97":169450.44,"N_COORD97":2544092.3900000001,"ADDRESS":"大學路西段８９號地下一層之１００","OBJECTID":620977},"geometry":{"x":169450.44000000134,"y":2544092.3900000006}},{"attributes":{"ID":621005,"DIS_CODE":0,"TOWNNAME":"東區","LI":"東門里","LIN":"20鄰","STREET":"勝利路","SECT":" ","MAREA":" ","LANE":" ","ALLEY":" ","HOUSE_NO":"５號","E_COORD97":169755.23999999999,"N_COORD97":2543118.5899999999,"ADDRESS":"勝利路５號","OBJECTID":620978},"geometry":{"x":169755.24000000115,"y":2543118.5900000017}},{"attributes":{"ID":621006,"DIS_CODE":0,"TOWNNAME":"東區","LI":"成大里","LIN":"18鄰","STREET":"大學路","SECT":"西段","MAREA":" ","LANE":" ","ALLEY":" ","HOUSE_NO":"８９號地下一層之１０","E_COORD97":169450.44,"N_COORD97":2544092.3900000001,"ADDRESS":"大學路西段８９號地下一層之１０１","OBJECTID":620979},"geometry":{"x":169450.44000000134,"y":2544092.3900000006}},{"attributes":{"ID":621007,"DIS_CODE":0,"TOWNNAME":"東區","LI":"成大里","LIN":"18鄰","STREET":"大學路","SECT":"西段","MAREA":" ","LANE":" ","ALLEY":" ","HOUSE_NO":"８９號地下一層之１０","E_COORD97":169450.44,"N_COORD97":2544092.3900000001,"ADDRESS":"大學路西段８９號地下一層之１０２","OBJECTID":620980},"geometry":{"x":169450.44000000134,"y":2544092.3900000006}},{"attributes":{"ID":621008,"DIS_CODE":0,"TOWNNAME":"東區","LI":"成大里","LIN":"18鄰","STREET":"大學路","SECT":"西段","MAREA":" ","LANE":" ","ALLEY":" ","HOUSE_NO":"８９號地下一層之１０","E_COORD97":169450.44,"N_COORD97":2544092.3900000001,"ADDRESS":"大學路西段８９號地下一層之１０３","OBJECTID":620981},"geometry":{"x":169450.44000000134,"y":2544092.3900000006}},{"attributes":{"ID":621009,"DIS_CODE":0,"TOWNNAME":"東區","LI":"成大里","LIN":"18鄰","STREET":"大學路","SECT":"西段","MAREA":" ","LANE":" ","ALLEY":" ","HOUSE_NO":"８９號地下一層之１０","E_COORD97":169450.44,"N_COORD97":2544092.3900000001,"ADDRESS":"大學路西段８９號地下一層之１０４","OBJECTID":620982},"geometry":{"x":169450.44000000134,"y":2544092.3900000006}},{"attributes":{"ID":621010,"DIS_CODE":0,"TOWNNAME":"東區","LI":"成大里","LIN":"18鄰","STREET":"大學路","SECT":"西段","MAREA":" ","LANE":" ","ALLEY":" ","HOUSE_NO":"８９號地下一層之１０","E_COORD97":169450.44,"N_COORD97":2544092.3900000001,"ADDRESS":"大學路西段８９號地下一層之１０５","OBJECTID":620983},"geometry":{"x":169450.44000000134,"y":2544092.3900000006}},{"attributes":{"ID":621011,"DIS_CODE":0,"TOWNNAME":"東區","LI":"成大里","LIN":"18鄰","STREET":"大學路","SECT":"西段","MAREA":" ","LANE":" ","ALLEY":" ","HOUSE_NO":"８９號地下一層之１０","E_COORD97":169450.44,"N_COORD97":2544092.3900000001,"ADDRESS":"大學路西段８９號地下一層之１０６","OBJECTID":620984},"geometry":{"x":169450.44000000134,"y":2544092.3900000006}},{"attributes":{"ID":621012,"DIS_CODE":0,"TOWNNAME":"東區","LI":"成大里","LIN":"18鄰","STREET":"大學路","SECT":"西段","MAREA":" ","LANE":" ","ALLEY":" ","HOUSE_NO":"８９號地下一層之１０","E_COORD97":169450.44,"N_COORD97":2544092.3900000001,"ADDRESS":"大學路西段８９號地下一層之１０７","OBJECTID":620985},"geometry":{"x":169450.44000000134,"y":2544092.3900000006}},{"attributes":{"ID":621013,"DIS_CODE":0,"TOWNNAME":"東區","LI":"成大里","LIN":"18鄰","STREET":"大學路","SECT":"西段","MAREA":" ","LANE":" ","ALLEY":" ","HOUSE_NO":"８９號地下一層之１０","E_COORD97":169450.44,"N_COORD97":2544092.3900000001,"ADDRESS":"大學路西段８９號地下一層之１０８","OBJECTID":620986},"geometry":{"x":169450.44000000134,"y":2544092.3900000006}},{"attributes":{"ID":621014,"DIS_CODE":0,"TOWNNAME":"東區","LI":"成大里","LIN":"18鄰","STREET":"大學路","SECT":"西段","MAREA":" ","LANE":" ","ALLEY":" ","HOUSE_NO":"８９號地下一層之１０","E_COORD97":169450.44,"N_COORD97":2544092.3900000001,"ADDRESS":"大學路西段８９號地下一層之１０９","OBJECTID":620987},"geometry":{"x":169450.44000000134,"y":2544092.3900000006}},{"attributes":{"ID":621015,"DIS_CODE":0,"TOWNNAME":"東區","LI":"成大里","LIN":"18鄰","STREET":"大學路","SECT":"西段","MAREA":" ","LANE":" ","ALLEY":" ","HOUSE_NO":"８９號地下一層之１１","E_COORD97":169450.44,"N_COORD97":2544092.3900000001,"ADDRESS":"大學路西段８９號地下一層之１１","OBJECTID":620988},"geometry":{"x":169450.44000000134,"y":2544092.3900000006}},{"attributes":{"ID":621016,"DIS_CODE":0,"TOWNNAME":"東區","LI":"成大里","LIN":"18鄰","STREET":"大學路","SECT":"西段","MAREA":" ","LANE":" ","ALLEY":" ","HOUSE_NO":"８９號地下三層","E_COORD97":169450.44,"N_COORD97":2544092.3900000001,"ADDRESS":"大學路西段８９號地下三層","OBJECTID":620989},"geometry":{"x":169450.44000000134,"y":2544092.3900000006}},{"attributes":{"ID":621017,"DIS_CODE":0,"TOWNNAME":"東區","LI":"成大里","LIN":"18鄰","STREET":"大學路","SECT":"西段","MAREA":" ","LANE":" ","ALLEY":" ","HOUSE_NO":"８９號地下五層","E_COORD97":169450.44,"N_COORD97":2544092.3900000001,"ADDRESS":"大學路西段８９號地下五層","OBJECTID":620990},"geometry":{"x":169450.44000000134,"y":2544092.3900000006}},{"attributes":{"ID":621018,"DIS_CODE":0,"TOWNNAME":"東區","LI":"成大里","LIN":"18鄰","STREET":"大學路","SECT":"西段","MAREA":" ","LANE":" ","ALLEY":" ","HOUSE_NO":"８９號地下六層","E_COORD97":169450.44,"N_COORD97":2544092.3900000001,"ADDRESS":"大學路西段８９號地下六層","OBJECTID":620991},"geometry":{"x":169450.44000000134,"y":2544092.3900000006}},{"attributes":{"ID":621019,"DIS_CODE":0,"TOWNNAME":"東區","LI":"成大里","LIN":"18鄰","STREET":"大學路","SECT":"西段","MAREA":" ","LANE":" ","ALLEY":" ","HOUSE_NO":"８９號地下四層","E_COORD97":169450.44,"N_COORD97":2544092.3900000001,"ADDRESS":"大學路西段８９號地下四層","OBJECTID":620992},"geometry":{"x":169450.44000000134,"y":2544092.3900000006}},{"attributes":{"ID":621020,"DIS_CODE":0,"TOWNNAME":"東區","LI":"成大里","LIN":"18鄰","STREET":"前鋒路","SECT":" ","MAREA":" ","LANE":" ","ALLEY":" ","HOUSE_NO":"１７６號","E_COORD97":169371.17999999999,"N_COORD97":2544011.46,"ADDRESS":"前鋒路１７６號","OBJECTID":620993},"geometry":{"x":169371.17999999877,"y":2544011.4600000009}},{"attributes":{"ID":621021,"DIS_CODE":0,"TOWNNAME":"東區","LI":"成大里","LIN":"18鄰","STREET":"前鋒路","SECT":" ","MAREA":" ","LANE":" ","ALLEY":" ","HOUSE_NO":"１７８號","E_COORD97":169372.20000000001,"N_COORD97":2544014.5600000001,"ADDRESS":"前鋒路１７８號","OBJECTID":620994},"geometry":{"x":169372.20000000112,"y":2544014.5600000024}},{"attributes":{"ID":621022,"DIS_CODE":0,"TOWNNAME":"東區","LI":"成大里","LIN":"18鄰","STREET":"前鋒路","SECT":" ","MAREA":" ","LANE":" ","ALLEY":" ","HOUSE_NO":"１８０號","E_COORD97":169372.42000000001,"N_COORD97":2544020.9399999999,"ADDRESS":"前鋒路１８０號","OBJECTID":620995},"geometry":{"x":169372.42000000086,"y":2544020.9400000032}},{"attributes":{"ID":621023,"DIS_CODE":0,"TOWNNAME":"東區","LI":"成大里","LIN":"18鄰","STREET":"前鋒路","SECT":" ","MAREA":" ","LANE":" ","ALLEY":" ","HOUSE_NO":"１８２號","E_COORD97":169373.20000000001,"N_COORD97":2544025.4500000002,"ADDRESS":"前鋒路１８２號","OBJECTID":620996},"geometry":{"x":169373.20000000019,"y":2544025.4500000011}},{"attributes":{"ID":621024,"DIS_CODE":0,"TOWNNAME":"東區","LI":"成大里","LIN":"18鄰","STREET":"前鋒路","SECT":" ","MAREA":" ","LANE":" ","ALLEY":" ","HOUSE_NO":"１８４號","E_COORD97":169374.45000000001,"N_COORD97":2544032.4500000002,"ADDRESS":"前鋒路１８４號","OBJECTID":620997},"geometry":{"x":169374.45000000019,"y":2544032.4499999993}},{"attributes":{"ID":621025,"DIS_CODE":0,"TOWNNAME":"東區","LI":"成大里","LIN":"18鄰","STREET":"前鋒路","SECT":" ","MAREA":" ","LANE":" ","ALLEY":" ","HOUSE_NO":"１８８號","E_COORD97":169376.78,"N_COORD97":2544046.1000000001,"ADDRESS":"前鋒路１８８號","OBJECTID":620998},"geometry":{"x":169376.78000000119,"y":2544046.0999999996}},{"attributes":{"ID":621026,"DIS_CODE":0,"TOWNNAME":"東區","LI":"成大里","LIN":"18鄰","STREET":"前鋒路","SECT":" ","MAREA":" ","LANE":" ","ALLEY":" ","HOUSE_NO":"１９０號","E_COORD97":169377.39999999999,"N_COORD97":2544049.8399999999,"ADDRESS":"前鋒路１９０號","OBJECTID":620999},"geometry":{"x":169377.40000000224,"y":2544049.8400000017}},{"attributes":{"ID":621027,"DIS_CODE":0,"TOWNNAME":"東區","LI":"成大里","LIN":"18鄰","STREET":"前鋒路","SECT":" ","MAREA":" ","LANE":" ","ALLEY":" ","HOUSE_NO":"１９２號","E_COORD97":169378.79999999999,"N_COORD97":2544054.8100000001,"ADDRESS":"前鋒路１９２號","OBJECTID":621000},"geometry":{"x":169378.79999999981,"y":2544054.8100000024}}]}