{"displayFieldName":"TOWNNAME","fieldAliases":{"ID":"ID","DIS_CODE":"DIS_CODE","TOWNNAME":"TOWNNAME","LI":"LI","LIN":"LIN","STREET":"STREET","SECT":"SECT","MAREA":"MAREA","LANE":"LANE","ALLEY":"ALLEY","HOUSE_NO":"HOUSE_NO","E_COORD97":"E_COORD97","N_COORD97":"N_COORD97","ADDRESS":"ADDRESS","OBJECTID":"OBJECTID"},"geometryType":"esriGeometryPoint","spatialReference":{"wkid":102443,"latestWkid":3826},"fields":[{"name":"ID","type":"esriFieldTypeDouble","alias":"ID"},{"name":"DIS_CODE","type":"esriFieldTypeInteger","alias":"DIS_CODE"},{"name":"TOWNNAME","type":"esriFieldTypeString","alias":"TOWNNAME","length":8},{"name":"LI","type":"esriFieldTypeString","alias":"LI","length":8},{"name":"LIN","type":"esriFieldTypeString","alias":"LIN","length":12},{"name":"STREET","type":"esriFieldTypeString","alias":"STREET","length":20},{"name":"SECT","type":"esriFieldTypeString","alias":"SECT","length":8},{"name":"MAREA","type":"esriFieldTypeString","alias":"MAREA","length":12},{"name":"LANE","type":"esriFieldTypeString","alias":"LANE","length":10},{"name":"ALLEY","type":"esriFieldTypeString","alias":"ALLEY","length":10},{"name":"HOUSE_NO","type":"esriFieldTypeString","alias":"HOUSE_NO","length":20},{"name":"E_COORD97","type":"esriFieldTypeDouble","alias":"E_COORD97"},{"name":"N_COORD97","type":"esriFieldTypeDouble","alias":"N_COORD97"},{"name":"ADDRESS","type":"esriFieldTypeString","alias":"ADDRESS","length":50},{"name":"OBJECTID","type":"esriFieldTypeOID","alias":"OBJECTID"}],"features":[{"attributes":{"ID":22001,"DIS_CODE":0,"TOWNNAME":"善化區","LI":"小新里","LIN":"17鄰","STREET":" ","SECT":" ","MAREA":"小新營","LANE":" ","ALLEY":" ","HOUSE_NO":"１４２號之６","E_COORD97":179940.70999999999,"N_COORD97":2558088.02,"ADDRESS":"小新營１４２號之６","OBJECTID":22001},"geometry":{"x":179940.70999999996,"y":2558088.0200000014}},{"attributes":{"ID":22002,"DIS_CODE":0,"TOWNNAME":"善化區","LI":"胡家里","LIN":"17鄰","STREET":" ","SECT":" ","MAREA":"胡厝寮","LANE":" ","ALLEY":" ","HOUSE_NO":"１６０號","E_COORD97":175178.73999999999,"N_COORD97":2560730.5,"ADDRESS":"胡厝寮１６０號","OBJECTID":22002},"geometry":{"x":175178.74000000022,"y":2560730.5}},{"attributes":{"ID":22003,"DIS_CODE":0,"TOWNNAME":"善化區","LI":"胡厝里","LIN":"17鄰","STREET":" ","SECT":" ","MAREA":"西衛","LANE":" ","ALLEY":" ","HOUSE_NO":"７之１９號","E_COORD97":174370.70999999999,"N_COORD97":2559446.02,"ADDRESS":"西衛７之１９號","OBJECTID":22003},"geometry":{"x":174370.71000000089,"y":2559446.0199999996}},{"attributes":{"ID":22004,"DIS_CODE":0,"TOWNNAME":"善化區","LI":"小新里","LIN":"17鄰","STREET":" ","SECT":" ","MAREA":"小新營","LANE":" ","ALLEY":" ","HOUSE_NO":"１４２號之１","E_COORD97":179932.89999999999,"N_COORD97":2558126.77,"ADDRESS":"小新營１４２號之１","OBJECTID":22004},"geometry":{"x":179932.90000000037,"y":2558126.7700000014}},{"attributes":{"ID":22005,"DIS_CODE":0,"TOWNNAME":"善化區","LI":"胡厝里","LIN":"17鄰","STREET":" ","SECT":" ","MAREA":"西衛","LANE":" ","ALLEY":" ","HOUSE_NO":"７之２４號","E_COORD97":174392.84,"N_COORD97":2559448.77,"ADDRESS":"西衛７之２４號","OBJECTID":22005},"geometry":{"x":174392.83999999985,"y":2559448.7700000014}},{"attributes":{"ID":22006,"DIS_CODE":0,"TOWNNAME":"善化區","LI":"胡家里","LIN":"17鄰","STREET":" ","SECT":" ","MAREA":"胡厝寮","LANE":" ","ALLEY":" ","HOUSE_NO":"１６３之３號","E_COORD97":175202.66,"N_COORD97":2560669.02,"ADDRESS":"胡厝寮１６３之３號","OBJECTID":22006},"geometry":{"x":175202.66000000015,"y":2560669.0199999996}},{"attributes":{"ID":22007,"DIS_CODE":0,"TOWNNAME":"善化區","LI":"文昌里","LIN":"17鄰","STREET":" ","SECT":" ","MAREA":"益民寮","LANE":" ","ALLEY":" ","HOUSE_NO":"１３號之５６","E_COORD97":177132.85000000001,"N_COORD97":2557225.77,"ADDRESS":"益民寮１３號之５６","OBJECTID":22007},"geometry":{"x":177132.85000000056,"y":2557225.7700000014}},{"attributes":{"ID":22008,"DIS_CODE":0,"TOWNNAME":"善化區","LI":"文昌里","LIN":"17鄰","STREET":" ","SECT":" ","MAREA":"益民寮","LANE":" ","ALLEY":" ","HOUSE_NO":"５０號之６","E_COORD97":176806.60000000001,"N_COORD97":2556888.27,"ADDRESS":"益民寮５０號之６","OBJECTID":22008},"geometry":{"x":176806.59999999963,"y":2556888.2699999977}},{"attributes":{"ID":22009,"DIS_CODE":0,"TOWNNAME":"善化區","LI":"文昌里","LIN":"17鄰","STREET":" ","SECT":" ","MAREA":"益民寮","LANE":" ","ALLEY":" ","HOUSE_NO":"２２之２３號","E_COORD97":177662.25,"N_COORD97":2557178.02,"ADDRESS":"益民寮２２之２３號","OBJECTID":22009},"geometry":{"x":177662.25000000186,"y":2557178.0199999996}},{"attributes":{"ID":22010,"DIS_CODE":0,"TOWNNAME":"永康區","LI":"\u25A0洲里","LIN":"24鄰","STREET":"正南二街","SECT":" ","MAREA":" ","LANE":" ","ALLEY":" ","HOUSE_NO":"９６號","E_COORD97":170721.47,"N_COORD97":2548398.6000000001,"ADDRESS":"正南二街９６號","OBJECTID":22010},"geometry":{"x":170721.46999999974,"y":2548398.5999999996}},{"attributes":{"ID":22011,"DIS_CODE":0,"TOWNNAME":"永康區","LI":"\u25A0洲里","LIN":"24鄰","STREET":"正南二街","SECT":" ","MAREA":" ","LANE":" ","ALLEY":" ","HOUSE_NO":"１１８號","E_COORD97":170667.56,"N_COORD97":2548445.5899999999,"ADDRESS":"正南二街１１８號","OBJECTID":22011},"geometry":{"x":170667.56000000052,"y":2548445.5900000017}},{"attributes":{"ID":22012,"DIS_CODE":0,"TOWNNAME":"永康區","LI":"\u25A0洲里","LIN":"24鄰","STREET":"正南二街","SECT":" ","MAREA":" ","LANE":" ","ALLEY":" ","HOUSE_NO":"９２號","E_COORD97":170727.26000000001,"N_COORD97":2548393.1000000001,"ADDRESS":"正南二街９２號","OBJECTID":22012},"geometry":{"x":170727.26000000071,"y":2548393.0999999996}},{"attributes":{"ID":22013,"DIS_CODE":0,"TOWNNAME":"善化區","LI":"坐駕里","LIN":"24鄰","STREET":" ","SECT":" ","MAREA":"坐駕","LANE":" ","ALLEY":" ","HOUSE_NO":"２７號之３","E_COORD97":178670.95999999999,"N_COORD97":2558013.52,"ADDRESS":"坐駕２７號之３","OBJECTID":22013},"geometry":{"x":178670.95999999996,"y":2558013.5200000014}},{"attributes":{"ID":22014,"DIS_CODE":0,"TOWNNAME":"善化區","LI":"坐駕里","LIN":"24鄰","STREET":" ","SECT":" ","MAREA":"坐駕","LANE":" ","ALLEY":" ","HOUSE_NO":"２７號","E_COORD97":178699.95999999999,"N_COORD97":2558026.25,"ADDRESS":"坐駕２７號","OBJECTID":22014},"geometry":{"x":178699.96000000183,"y":2558026.2500000019}},{"attributes":{"ID":22015,"DIS_CODE":0,"TOWNNAME":"善化區","LI":"坐駕里","LIN":"24鄰","STREET":" ","SECT":" ","MAREA":"坐駕","LANE":" ","ALLEY":" ","HOUSE_NO":"２３之２號","E_COORD97":178748.95000000001,"N_COORD97":2558085.02,"ADDRESS":"坐駕２３之２號","OBJECTID":22015},"geometry":{"x":178748.95000000019,"y":2558085.0200000014}},{"attributes":{"ID":22016,"DIS_CODE":0,"TOWNNAME":"善化區","LI":"坐駕里","LIN":"24鄰","STREET":" ","SECT":" ","MAREA":"坐駕","LANE":" ","ALLEY":" ","HOUSE_NO":"２５號","E_COORD97":178752.66,"N_COORD97":2558029.75,"ADDRESS":"坐駕２５號","OBJECTID":22016},"geometry":{"x":178752.66000000015,"y":2558029.7500000019}},{"attributes":{"ID":22017,"DIS_CODE":0,"TOWNNAME":"善化區","LI":"文昌里","LIN":"17鄰","STREET":" ","SECT":" ","MAREA":"益民寮","LANE":" ","ALLEY":" ","HOUSE_NO":"２２之２２號","E_COORD97":177661.17000000001,"N_COORD97":2557182.02,"ADDRESS":"益民寮２２之２２號","OBJECTID":22017},"geometry":{"x":177661.17000000179,"y":2557182.0200000014}},{"attributes":{"ID":22018,"DIS_CODE":0,"TOWNNAME":"善化區","LI":"文昌里","LIN":"17鄰","STREET":" ","SECT":" ","MAREA":"益民寮","LANE":" ","ALLEY":" ","HOUSE_NO":"２２之５號","E_COORD97":177674.28,"N_COORD97":2557185.77,"ADDRESS":"益民寮２２之５號","OBJECTID":22018},"geometry":{"x":177674.28000000212,"y":2557185.7699999996}},{"attributes":{"ID":22019,"DIS_CODE":0,"TOWNNAME":"善化區","LI":"文昌里","LIN":"17鄰","STREET":" ","SECT":" ","MAREA":"益民寮","LANE":" ","ALLEY":" ","HOUSE_NO":"２０號","E_COORD97":177622.32999999999,"N_COORD97":2557119.0099999998,"ADDRESS":"益民寮２０號","OBJECTID":22019},"geometry":{"x":177622.33000000007,"y":2557119.0100000016}},{"attributes":{"ID":22020,"DIS_CODE":0,"TOWNNAME":"善化區","LI":"文昌里","LIN":"17鄰","STREET":" ","SECT":" ","MAREA":"益民寮","LANE":" ","ALLEY":" ","HOUSE_NO":"２２之１２號","E_COORD97":177677.09,"N_COORD97":2557207.02,"ADDRESS":"益民寮２２之１２號","OBJECTID":22020},"geometry":{"x":177677.09000000078,"y":2557207.0200000014}},{"attributes":{"ID":22021,"DIS_CODE":0,"TOWNNAME":"永康區","LI":"安康里","LIN":"14鄰","STREET":"中華路","SECT":" ","MAREA":" ","LANE":"６１９巷","ALLEY":"８８弄","HOUSE_NO":"１０號三樓","E_COORD97":170863.01000000001,"N_COORD97":2546051.75,"ADDRESS":"中華路６１９巷８８弄１０號三樓","OBJECTID":22021},"geometry":{"x":170863.01000000071,"y":2546051.75}},{"attributes":{"ID":22022,"DIS_CODE":0,"TOWNNAME":"永康區","LI":"安康里","LIN":"14鄰","STREET":"中華路","SECT":" ","MAREA":" ","LANE":"６１９巷","ALLEY":"８８弄","HOUSE_NO":"２４號一樓之９","E_COORD97":170871.42999999999,"N_COORD97":2546063.54,"ADDRESS":"中華路６１９巷８８弄２４號一樓之９","OBJECTID":22022},"geometry":{"x":170871.42999999877,"y":2546063.5399999991}},{"attributes":{"ID":22023,"DIS_CODE":0,"TOWNNAME":"永康區","LI":"安康里","LIN":"14鄰","STREET":"中華路","SECT":" ","MAREA":" ","LANE":"６１９巷","ALLEY":"８８弄","HOUSE_NO":"２４號二樓之１０","E_COORD97":170872.35999999999,"N_COORD97":2546063.54,"ADDRESS":"中華路６１９巷８８弄２４號二樓之１０","OBJECTID":22023},"geometry":{"x":170872.36000000034,"y":2546063.5399999991}},{"attributes":{"ID":22024,"DIS_CODE":0,"TOWNNAME":"善化區","LI":"文昌里","LIN":"17鄰","STREET":" ","SECT":" ","MAREA":"益民寮","LANE":" ","ALLEY":" ","HOUSE_NO":"２２之１３號","E_COORD97":177673.04000000001,"N_COORD97":2557206.02,"ADDRESS":"益民寮２２之１３號","OBJECTID":22024},"geometry":{"x":177673.04000000097,"y":2557206.0200000014}},{"attributes":{"ID":22025,"DIS_CODE":0,"TOWNNAME":"善化區","LI":"文昌里","LIN":"17鄰","STREET":" ","SECT":" ","MAREA":"益民寮","LANE":" ","ALLEY":" ","HOUSE_NO":"２２之１５號","E_COORD97":177664.84,"N_COORD97":2557204.02,"ADDRESS":"益民寮２２之１５號","OBJECTID":22025},"geometry":{"x":177664.83999999892,"y":2557204.0199999996}},{"attributes":{"ID":22026,"DIS_CODE":0,"TOWNNAME":"善化區","LI":"小新里","LIN":"17鄰","STREET":" ","SECT":" ","MAREA":"小新營","LANE":" ","ALLEY":" ","HOUSE_NO":"１３８號之１","E_COORD97":179835.04999999999,"N_COORD97":2558137.52,"ADDRESS":"小新營１３８號之１","OBJECTID":22026},"geometry":{"x":179835.05000000168,"y":2558137.5199999977}},{"attributes":{"ID":22027,"DIS_CODE":0,"TOWNNAME":"善化區","LI":"文昌里","LIN":"17鄰","STREET":" ","SECT":" ","MAREA":"益民寮","LANE":" ","ALLEY":" ","HOUSE_NO":"１１號之４","E_COORD97":177717.07999999999,"N_COORD97":2557168.02,"ADDRESS":"益民寮１１號之４","OBJECTID":22027},"geometry":{"x":177717.08000000007,"y":2557168.0200000033}},{"attributes":{"ID":22028,"DIS_CODE":0,"TOWNNAME":"善化區","LI":"文昌里","LIN":"17鄰","STREET":" ","SECT":" ","MAREA":"益民寮","LANE":" ","ALLEY":" ","HOUSE_NO":"１３號之２６","E_COORD97":177547.42000000001,"N_COORD97":2557262.52,"ADDRESS":"益民寮１３號之２６","OBJECTID":22028},"geometry":{"x":177547.42000000179,"y":2557262.5199999996}},{"attributes":{"ID":22029,"DIS_CODE":0,"TOWNNAME":"善化區","LI":"小新里","LIN":"17鄰","STREET":" ","SECT":" ","MAREA":"小新營","LANE":" ","ALLEY":" ","HOUSE_NO":"１４１號之５","E_COORD97":179998.32000000001,"N_COORD97":2558147.77,"ADDRESS":"小新營１４１號之５","OBJECTID":22029},"geometry":{"x":179998.32000000123,"y":2558147.7700000014}},{"attributes":{"ID":22030,"DIS_CODE":0,"TOWNNAME":"善化區","LI":"文昌里","LIN":"17鄰","STREET":" ","SECT":" ","MAREA":"益民寮","LANE":" ","ALLEY":" ","HOUSE_NO":"１２號之５","E_COORD97":177694.81,"N_COORD97":2557200.02,"ADDRESS":"益民寮１２號之５","OBJECTID":22030},"geometry":{"x":177694.80999999959,"y":2557200.0200000014}},{"attributes":{"ID":22031,"DIS_CODE":0,"TOWNNAME":"善化區","LI":"文昌里","LIN":"17鄰","STREET":" ","SECT":" ","MAREA":"益民寮","LANE":" ","ALLEY":" ","HOUSE_NO":"１１號之１","E_COORD97":177701.45000000001,"N_COORD97":2557175.27,"ADDRESS":"益民寮１１號之１","OBJECTID":22031},"geometry":{"x":177701.45000000019,"y":2557175.2699999996}},{"attributes":{"ID":22032,"DIS_CODE":0,"TOWNNAME":"善化區","LI":"文昌里","LIN":"17鄰","STREET":" ","SECT":" ","MAREA":"益民寮","LANE":" ","ALLEY":" ","HOUSE_NO":"１３之２１號","E_COORD97":177556.45000000001,"N_COORD97":2557221.27,"ADDRESS":"益民寮１３之２１號","OBJECTID":22032},"geometry":{"x":177556.45000000112,"y":2557221.2700000014}},{"attributes":{"ID":22033,"DIS_CODE":0,"TOWNNAME":"善化區","LI":"文昌里","LIN":"17鄰","STREET":" ","SECT":" ","MAREA":"益民寮","LANE":" ","ALLEY":" ","HOUSE_NO":"７號之１","E_COORD97":177813.85999999999,"N_COORD97":2557225.52,"ADDRESS":"益民寮７號之１","OBJECTID":22033},"geometry":{"x":177813.86000000034,"y":2557225.5199999977}},{"attributes":{"ID":22034,"DIS_CODE":0,"TOWNNAME":"善化區","LI":"小新里","LIN":"17鄰","STREET":" ","SECT":" ","MAREA":"小新營","LANE":" ","ALLEY":" ","HOUSE_NO":"１４１之１４號","E_COORD97":179979.85000000001,"N_COORD97":2558101.27,"ADDRESS":"小新營１４１之１４號","OBJECTID":22034},"geometry":{"x":179979.84999999963,"y":2558101.2699999996}},{"attributes":{"ID":22035,"DIS_CODE":0,"TOWNNAME":"永康區","LI":"安康里","LIN":"14鄰","STREET":"中華路","SECT":" ","MAREA":" ","LANE":"６１９巷","ALLEY":"８８弄","HOUSE_NO":"８號五樓","E_COORD97":170865.48000000001,"N_COORD97":2546042.75,"ADDRESS":"中華路６１９巷８８弄８號五樓","OBJECTID":22035},"geometry":{"x":170865.48000000138,"y":2546042.75}},{"attributes":{"ID":22036,"DIS_CODE":0,"TOWNNAME":"永康區","LI":"安康里","LIN":"14鄰","STREET":"中華路","SECT":" ","MAREA":" ","LANE":"６１９巷","ALLEY":"８８弄","HOUSE_NO":"１２號三樓","E_COORD97":170856.14999999999,"N_COORD97":2546047.75,"ADDRESS":"中華路６１９巷８８弄１２號三樓","OBJECTID":22036},"geometry":{"x":170856.1500000013,"y":2546047.7500000019}},{"attributes":{"ID":22037,"DIS_CODE":0,"TOWNNAME":"永康區","LI":"\u25A0洲里","LIN":"24鄰","STREET":"中正南路","SECT":" ","MAREA":" ","LANE":"４５３巷","ALLEY":" ","HOUSE_NO":"２８號","E_COORD97":170754.42999999999,"N_COORD97":2548241.6400000001,"ADDRESS":"中正南路４５３巷２８號","OBJECTID":22037},"geometry":{"x":170754.42999999877,"y":2548241.6400000043}},{"attributes":{"ID":22038,"DIS_CODE":0,"TOWNNAME":"永康區","LI":"\u25A0洲里","LIN":"24鄰","STREET":"正南二街","SECT":" ","MAREA":" ","LANE":" ","ALLEY":" ","HOUSE_NO":"４３號","E_COORD97":170812.78,"N_COORD97":2548290.25,"ADDRESS":"正南二街４３號","OBJECTID":22038},"geometry":{"x":170812.78000000119,"y":2548290.25}},{"attributes":{"ID":22039,"DIS_CODE":0,"TOWNNAME":"永康區","LI":"中華里","LIN":"24鄰","STREET":"華興街","SECT":" ","MAREA":" ","LANE":" ","ALLEY":" ","HOUSE_NO":"１４０號","E_COORD97":171743.26000000001,"N_COORD97":2544582.1299999999,"ADDRESS":"華興街１４０號","OBJECTID":22039},"geometry":{"x":171743.25999999978,"y":2544582.1300000008}},{"attributes":{"ID":22040,"DIS_CODE":0,"TOWNNAME":"永康區","LI":"中華里","LIN":"24鄰","STREET":"華興街","SECT":" ","MAREA":" ","LANE":" ","ALLEY":" ","HOUSE_NO":"１３６號","E_COORD97":171751.23999999999,"N_COORD97":2544582.0600000001,"ADDRESS":"華興街１３６號","OBJECTID":22040},"geometry":{"x":171751.24000000022,"y":2544582.0600000024}},{"attributes":{"ID":22041,"DIS_CODE":0,"TOWNNAME":"永康區","LI":"中華里","LIN":"24鄰","STREET":"華興街","SECT":" ","MAREA":" ","LANE":" ","ALLEY":" ","HOUSE_NO":"１３０號","E_COORD97":171763.09,"N_COORD97":2544582.0600000001,"ADDRESS":"華興街１３０號","OBJECTID":22041},"geometry":{"x":171763.09000000078,"y":2544582.0600000024}},{"attributes":{"ID":22042,"DIS_CODE":0,"TOWNNAME":"北區","LI":"六甲里","LIN":"4鄰","STREET":"公園路","SECT":" ","MAREA":" ","LANE":" ","ALLEY":" ","HOUSE_NO":"５４１號","E_COORD97":169067.09719,"N_COORD97":2545604.8847599998,"ADDRESS":"公園路５４１號","OBJECTID":22042},"geometry":{"x":169067.09719000105,"y":2545604.8847570028}},{"attributes":{"ID":22043,"DIS_CODE":0,"TOWNNAME":"永康區","LI":"安康里","LIN":"14鄰","STREET":"中華路","SECT":" ","MAREA":" ","LANE":"６１９巷","ALLEY":"８８弄","HOUSE_NO":"６號四樓","E_COORD97":170860.14999999999,"N_COORD97":2546040.2599999998,"ADDRESS":"中華路６１９巷８８弄６號四樓","OBJECTID":22043},"geometry":{"x":170860.15000000037,"y":2546040.2600000016}},{"attributes":{"ID":22044,"DIS_CODE":0,"TOWNNAME":"北區","LI":"六甲里","LIN":"4鄰","STREET":"公園路","SECT":" ","MAREA":" ","LANE":" ","ALLEY":" ","HOUSE_NO":"５３９號","E_COORD97":169066.24987299999,"N_COORD97":2545601.70976,"ADDRESS":"公園路５３９號","OBJECTID":22044},"geometry":{"x":169066.2498730002,"y":2545601.7097590044}},{"attributes":{"ID":22045,"DIS_CODE":0,"TOWNNAME":"永康區","LI":"安康里","LIN":"14鄰","STREET":"中華路","SECT":" ","MAREA":" ","LANE":"６１９巷","ALLEY":"８８弄","HOUSE_NO":"２４號三樓之４","E_COORD97":170871.37,"N_COORD97":2546063.54,"ADDRESS":"中華路６１９巷８８弄２４號三樓之４","OBJECTID":22045},"geometry":{"x":170871.37000000104,"y":2546063.5399999991}},{"attributes":{"ID":22046,"DIS_CODE":0,"TOWNNAME":"北區","LI":"六甲里","LIN":"4鄰","STREET":"公園路","SECT":" ","MAREA":" ","LANE":" ","ALLEY":" ","HOUSE_NO":"５３７號","E_COORD97":169065.82000000001,"N_COORD97":2545597.6899999999,"ADDRESS":"公園路５３７號","OBJECTID":22046},"geometry":{"x":169065.82000000216,"y":2545597.6899999995}},{"attributes":{"ID":22047,"DIS_CODE":0,"TOWNNAME":"北區","LI":"六甲里","LIN":"4鄰","STREET":"公園路","SECT":" ","MAREA":" ","LANE":" ","ALLEY":" ","HOUSE_NO":"５３５號","E_COORD97":169064.92999999999,"N_COORD97":2545593.2400000002,"ADDRESS":"公園路５３５號","OBJECTID":22047},"geometry":{"x":169064.93000000063,"y":2545593.2400000021}},{"attributes":{"ID":22048,"DIS_CODE":0,"TOWNNAME":"善化區","LI":"小新里","LIN":"17鄰","STREET":" ","SECT":" ","MAREA":"小新營","LANE":" ","ALLEY":" ","HOUSE_NO":"１４２號","E_COORD97":179921.60000000001,"N_COORD97":2558148.5,"ADDRESS":"小新營１４２號","OBJECTID":22048},"geometry":{"x":179921.60000000056,"y":2558148.5000000037}},{"attributes":{"ID":22049,"DIS_CODE":0,"TOWNNAME":"善化區","LI":"文昌里","LIN":"17鄰","STREET":" ","SECT":" ","MAREA":"益民寮","LANE":" ","ALLEY":" ","HOUSE_NO":"３號","E_COORD97":177791.79000000001,"N_COORD97":2557212.0099999998,"ADDRESS":"益民寮３號","OBJECTID":22049},"geometry":{"x":177791.79000000004,"y":2557212.0099999998}},{"attributes":{"ID":22050,"DIS_CODE":0,"TOWNNAME":"善化區","LI":"小新里","LIN":"17鄰","STREET":" ","SECT":" ","MAREA":"小新營","LANE":" ","ALLEY":" ","HOUSE_NO":"１４２之４號","E_COORD97":179947.04000000001,"N_COORD97":2558098.52,"ADDRESS":"小新營１４２之４號","OBJECTID":22050},"geometry":{"x":179947.03999999911,"y":2558098.5200000014}},{"attributes":{"ID":22051,"DIS_CODE":0,"TOWNNAME":"善化區","LI":"小新里","LIN":"17鄰","STREET":" ","SECT":" ","MAREA":"小新營","LANE":" ","ALLEY":" ","HOUSE_NO":"１４１號之２５","E_COORD97":180026.64999999999,"N_COORD97":2558035.27,"ADDRESS":"小新營１４１號之２５","OBJECTID":22051},"geometry":{"x":180026.6500000013,"y":2558035.2700000014}},{"attributes":{"ID":22052,"DIS_CODE":0,"TOWNNAME":"善化區","LI":"小新里","LIN":"17鄰","STREET":" ","SECT":" ","MAREA":"小新營","LANE":" ","ALLEY":" ","HOUSE_NO":"１４１號之７","E_COORD97":180010.04809,"N_COORD97":2558120.2935700002,"ADDRESS":"小新營１４１號之７","OBJECTID":22052},"geometry":{"x":180010.04809000064,"y":2558120.2935670018}},{"attributes":{"ID":22053,"DIS_CODE":0,"TOWNNAME":"東山區","LI":"青山里","LIN":"16鄰","STREET":" ","SECT":" ","MAREA":"青山","LANE":" ","ALLEY":" ","HOUSE_NO":"４６號之３４","E_COORD97":195627.23000000001,"N_COORD97":2575229.2999999998,"ADDRESS":"青山４６號之３４","OBJECTID":22053},"geometry":{"x":195627.23000000138,"y":2575229.3000000026}},{"attributes":{"ID":22054,"DIS_CODE":0,"TOWNNAME":"永康區","LI":"神洲里","LIN":"14鄰","STREET":"忠孝路","SECT":" ","MAREA":" ","LANE":"７６巷","ALLEY":"６３弄","HOUSE_NO":"２１號五樓","E_COORD97":172239.70999999999,"N_COORD97":2545012.5,"ADDRESS":"忠孝路７６巷６３弄２１號五樓","OBJECTID":22054},"geometry":{"x":172239.71000000183,"y":2545012.5000000019}},{"attributes":{"ID":22055,"DIS_CODE":0,"TOWNNAME":"東區","LI":"自強里","LIN":"14鄰","STREET":"富農街","SECT":"一段","MAREA":" ","LANE":"１３１巷","ALLEY":"４２弄","HOUSE_NO":"１１號七樓","E_COORD97":171348.07999999999,"N_COORD97":2542503.1899999999,"ADDRESS":"富農街一段１３１巷４２弄１１號七樓","OBJECTID":22055},"geometry":{"x":171348.08000000101,"y":2542503.1899999995}},{"attributes":{"ID":22056,"DIS_CODE":0,"TOWNNAME":"東區","LI":"自強里","LIN":"14鄰","STREET":"富農街","SECT":"一段","MAREA":" ","LANE":"１３１巷","ALLEY":"４２弄","HOUSE_NO":"１１號九樓","E_COORD97":171348.07999999999,"N_COORD97":2542503.1899999999,"ADDRESS":"富農街一段１３１巷４２弄１１號九樓","OBJECTID":22056},"geometry":{"x":171348.08000000101,"y":2542503.1899999995}},{"attributes":{"ID":22057,"DIS_CODE":0,"TOWNNAME":"東區","LI":"自強里","LIN":"14鄰","STREET":"富農街","SECT":"一段","MAREA":" ","LANE":"１３１巷","ALLEY":"４２弄","HOUSE_NO":"１１號二樓","E_COORD97":171348.07999999999,"N_COORD97":2542503.1899999999,"ADDRESS":"富農街一段１３１巷４２弄１１號二樓","OBJECTID":22057},"geometry":{"x":171348.08000000101,"y":2542503.1899999995}},{"attributes":{"ID":22058,"DIS_CODE":0,"TOWNNAME":"東區","LI":"自強里","LIN":"14鄰","STREET":"富農街","SECT":"一段","MAREA":" ","LANE":"１３１巷","ALLEY":"４２弄","HOUSE_NO":"１１號八樓","E_COORD97":171348.07999999999,"N_COORD97":2542503.1899999999,"ADDRESS":"富農街一段１３１巷４２弄１１號八樓","OBJECTID":22058},"geometry":{"x":171348.08000000101,"y":2542503.1899999995}},{"attributes":{"ID":22059,"DIS_CODE":0,"TOWNNAME":"東區","LI":"自強里","LIN":"14鄰","STREET":"富農街","SECT":"一段","MAREA":" ","LANE":"１３１巷","ALLEY":"４２弄","HOUSE_NO":"１１號三樓","E_COORD97":171348.07999999999,"N_COORD97":2542503.1899999999,"ADDRESS":"富農街一段１３１巷４２弄１１號三樓","OBJECTID":22059},"geometry":{"x":171348.08000000101,"y":2542503.1899999995}},{"attributes":{"ID":22060,"DIS_CODE":0,"TOWNNAME":"東區","LI":"自強里","LIN":"14鄰","STREET":"富農街","SECT":"一段","MAREA":" ","LANE":"１３１巷","ALLEY":"４２弄","HOUSE_NO":"１１號五樓","E_COORD97":171348.07999999999,"N_COORD97":2542503.1899999999,"ADDRESS":"富農街一段１３１巷４２弄１１號五樓","OBJECTID":22060},"geometry":{"x":171348.08000000101,"y":2542503.1899999995}},{"attributes":{"ID":22061,"DIS_CODE":0,"TOWNNAME":"東區","LI":"自強里","LIN":"14鄰","STREET":"富農街","SECT":"一段","MAREA":" ","LANE":"１３１巷","ALLEY":"４２弄","HOUSE_NO":"１１號六樓","E_COORD97":171348.07999999999,"N_COORD97":2542503.1899999999,"ADDRESS":"富農街一段１３１巷４２弄１１號六樓","OBJECTID":22061},"geometry":{"x":171348.08000000101,"y":2542503.1899999995}},{"attributes":{"ID":22062,"DIS_CODE":0,"TOWNNAME":"東區","LI":"自強里","LIN":"14鄰","STREET":"富農街","SECT":"一段","MAREA":" ","LANE":"１３１巷","ALLEY":"４２弄","HOUSE_NO":"１１號四樓","E_COORD97":171348.07999999999,"N_COORD97":2542503.1899999999,"ADDRESS":"富農街一段１３１巷４２弄１１號四樓","OBJECTID":22062},"geometry":{"x":171348.08000000101,"y":2542503.1899999995}},{"attributes":{"ID":22063,"DIS_CODE":0,"TOWNNAME":"東區","LI":"自強里","LIN":"14鄰","STREET":"富農街","SECT":"一段","MAREA":" ","LANE":"１３１巷","ALLEY":"４２弄","HOUSE_NO":"１號七樓","E_COORD97":171393.04000000001,"N_COORD97":2542504.1400000001,"ADDRESS":"富農街一段１３１巷４２弄１號七樓","OBJECTID":22063},"geometry":{"x":171393.04000000004,"y":2542504.1400000006}},{"attributes":{"ID":22064,"DIS_CODE":0,"TOWNNAME":"東區","LI":"自強里","LIN":"14鄰","STREET":"富農街","SECT":"一段","MAREA":" ","LANE":"１３１巷","ALLEY":"４２弄","HOUSE_NO":"１號九樓","E_COORD97":171393.04000000001,"N_COORD97":2542504.1400000001,"ADDRESS":"富農街一段１３１巷４２弄１號九樓","OBJECTID":22064},"geometry":{"x":171393.04000000004,"y":2542504.1400000006}},{"attributes":{"ID":22065,"DIS_CODE":0,"TOWNNAME":"東區","LI":"自強里","LIN":"14鄰","STREET":"富農街","SECT":"一段","MAREA":" ","LANE":"１３１巷","ALLEY":"４２弄","HOUSE_NO":"１號二樓","E_COORD97":171393.04000000001,"N_COORD97":2542504.1400000001,"ADDRESS":"富農街一段１３１巷４２弄１號二樓","OBJECTID":22065},"geometry":{"x":171393.04000000004,"y":2542504.1400000006}},{"attributes":{"ID":22066,"DIS_CODE":0,"TOWNNAME":"永康區","LI":"網寮里","LIN":"24鄰","STREET":"永華路","SECT":" ","MAREA":" ","LANE":" ","ALLEY":" ","HOUSE_NO":"３９５號","E_COORD97":173883.44,"N_COORD97":2546434.8799999999,"ADDRESS":"永華路３９５號","OBJECTID":22066},"geometry":{"x":173883.44000000134,"y":2546434.8800000008}},{"attributes":{"ID":22067,"DIS_CODE":0,"TOWNNAME":"永康區","LI":"\u25A0洲里","LIN":"24鄰","STREET":"中正南路","SECT":" ","MAREA":" ","LANE":" ","ALLEY":" ","HOUSE_NO":"５２５號","E_COORD97":170952.20999999999,"N_COORD97":2548233.4900000002,"ADDRESS":"中正南路５２５號","OBJECTID":22067},"geometry":{"x":170952.20999999996,"y":2548233.4900000021}},{"attributes":{"ID":22068,"DIS_CODE":0,"TOWNNAME":"永康區","LI":"\u25A0洲里","LIN":"24鄰","STREET":"中正南路","SECT":" ","MAREA":" ","LANE":" ","ALLEY":" ","HOUSE_NO":"５３３號","E_COORD97":170977.84,"N_COORD97":2548319.5,"ADDRESS":"中正南路５３３號","OBJECTID":22068},"geometry":{"x":170977.84000000078,"y":2548319.5}},{"attributes":{"ID":22069,"DIS_CODE":0,"TOWNNAME":"永康區","LI":"\u25A0洲里","LIN":"24鄰","STREET":"中正南路","SECT":" ","MAREA":" ","LANE":" ","ALLEY":" ","HOUSE_NO":"５１９號","E_COORD97":170942.37,"N_COORD97":2548221.7400000002,"ADDRESS":"中正南路５１９號","OBJECTID":22069},"geometry":{"x":170942.37000000104,"y":2548221.7400000021}},{"attributes":{"ID":22070,"DIS_CODE":0,"TOWNNAME":"永康區","LI":"\u25A0洲里","LIN":"24鄰","STREET":"中正南路","SECT":" ","MAREA":" ","LANE":" ","ALLEY":" ","HOUSE_NO":"５３１號","E_COORD97":170966.41,"N_COORD97":2548248.7400000002,"ADDRESS":"中正南路５３１號","OBJECTID":22070},"geometry":{"x":170966.41000000015,"y":2548248.7400000021}},{"attributes":{"ID":22071,"DIS_CODE":0,"TOWNNAME":"東區","LI":"新東里","LIN":"24鄰","STREET":"裕農路","SECT":" ","MAREA":" ","LANE":" ","ALLEY":" ","HOUSE_NO":"２７號之１","E_COORD97":170518.48000000001,"N_COORD97":2542855.7599999998,"ADDRESS":"裕農路２７號之１","OBJECTID":22071},"geometry":{"x":170518.48000000138,"y":2542855.7599999979}},{"attributes":{"ID":22072,"DIS_CODE":0,"TOWNNAME":"東區","LI":"莊敬里","LIN":"24鄰","STREET":"東光路","SECT":"二段","MAREA":" ","LANE":" ","ALLEY":" ","HOUSE_NO":"１３號","E_COORD97":171194.45999999999,"N_COORD97":2544008.2200000002,"ADDRESS":"東光路二段１３號","OBJECTID":22072},"geometry":{"x":171194.46000000089,"y":2544008.2200000007}},{"attributes":{"ID":22073,"DIS_CODE":0,"TOWNNAME":"東區","LI":"自強里","LIN":"14鄰","STREET":"富農街","SECT":"一段","MAREA":" ","LANE":"１３１巷","ALLEY":"４２弄","HOUSE_NO":"１號八樓","E_COORD97":171393.04000000001,"N_COORD97":2542504.1400000001,"ADDRESS":"富農街一段１３１巷４２弄１號八樓","OBJECTID":22073},"geometry":{"x":171393.04000000004,"y":2542504.1400000006}},{"attributes":{"ID":22074,"DIS_CODE":0,"TOWNNAME":"東區","LI":"自強里","LIN":"14鄰","STREET":"富農街","SECT":"一段","MAREA":" ","LANE":"１３１巷","ALLEY":"４２弄","HOUSE_NO":"１號三樓","E_COORD97":171393.04000000001,"N_COORD97":2542504.1400000001,"ADDRESS":"富農街一段１３１巷４２弄１號三樓","OBJECTID":22074},"geometry":{"x":171393.04000000004,"y":2542504.1400000006}},{"attributes":{"ID":22075,"DIS_CODE":0,"TOWNNAME":"東區","LI":"自強里","LIN":"14鄰","STREET":"富農街","SECT":"一段","MAREA":" ","LANE":"１３１巷","ALLEY":"４２弄","HOUSE_NO":"１號五樓","E_COORD97":171393.04000000001,"N_COORD97":2542504.1400000001,"ADDRESS":"富農街一段１３１巷４２弄１號五樓","OBJECTID":22075},"geometry":{"x":171393.04000000004,"y":2542504.1400000006}},{"attributes":{"ID":22076,"DIS_CODE":0,"TOWNNAME":"善化區","LI":"小新里","LIN":"17鄰","STREET":" ","SECT":" ","MAREA":"小新營","LANE":" ","ALLEY":" ","HOUSE_NO":"１３６號之１","E_COORD97":179854.62693999999,"N_COORD97":2558173.7731400002,"ADDRESS":"小新營１３６號之１","OBJECTID":22076},"geometry":{"x":179854.62693999894,"y":2558173.7731410004}},{"attributes":{"ID":22077,"DIS_CODE":0,"TOWNNAME":"善化區","LI":"小新里","LIN":"17鄰","STREET":" ","SECT":" ","MAREA":"小新營","LANE":" ","ALLEY":" ","HOUSE_NO":"１４２之３號","E_COORD97":179945.84,"N_COORD97":2558103.02,"ADDRESS":"小新營１４２之３號","OBJECTID":22077},"geometry":{"x":179945.83999999985,"y":2558103.0199999996}},{"attributes":{"ID":22078,"DIS_CODE":0,"TOWNNAME":"東區","LI":"自強里","LIN":"14鄰","STREET":"富農街","SECT":"一段","MAREA":" ","LANE":"１３１巷","ALLEY":"４２弄","HOUSE_NO":"１號六樓","E_COORD97":171393.04000000001,"N_COORD97":2542504.1400000001,"ADDRESS":"富農街一段１３１巷４２弄１號六樓","OBJECTID":22078},"geometry":{"x":171393.04000000004,"y":2542504.1400000006}},{"attributes":{"ID":22079,"DIS_CODE":0,"TOWNNAME":"東區","LI":"自強里","LIN":"14鄰","STREET":"富農街","SECT":"一段","MAREA":" ","LANE":"１３１巷","ALLEY":"４２弄","HOUSE_NO":"１號四樓","E_COORD97":171393.04000000001,"N_COORD97":2542504.1400000001,"ADDRESS":"富農街一段１３１巷４２弄１號四樓","OBJECTID":22079},"geometry":{"x":171393.04000000004,"y":2542504.1400000006}},{"attributes":{"ID":22080,"DIS_CODE":0,"TOWNNAME":"東區","LI":"自強里","LIN":"14鄰","STREET":"富農街","SECT":"一段","MAREA":" ","LANE":"１３１巷","ALLEY":"４２弄","HOUSE_NO":"３號七樓","E_COORD97":171392.32000000001,"N_COORD97":2542512.7400000002,"ADDRESS":"富農街一段１３１巷４２弄３號七樓","OBJECTID":22080},"geometry":{"x":171392.32000000123,"y":2542512.7400000002}},{"attributes":{"ID":22081,"DIS_CODE":0,"TOWNNAME":"東區","LI":"自強里","LIN":"14鄰","STREET":"富農街","SECT":"一段","MAREA":" ","LANE":"１３１巷","ALLEY":"４２弄","HOUSE_NO":"３號九樓","E_COORD97":171392.32000000001,"N_COORD97":2542512.7400000002,"ADDRESS":"富農街一段１３１巷４２弄３號九樓","OBJECTID":22081},"geometry":{"x":171392.32000000123,"y":2542512.7400000002}},{"attributes":{"ID":22082,"DIS_CODE":0,"TOWNNAME":"東區","LI":"自強里","LIN":"14鄰","STREET":"富農街","SECT":"一段","MAREA":" ","LANE":"１３１巷","ALLEY":"４２弄","HOUSE_NO":"３號二樓","E_COORD97":171392.32000000001,"N_COORD97":2542512.7400000002,"ADDRESS":"富農街一段１３１巷４２弄３號二樓","OBJECTID":22082},"geometry":{"x":171392.32000000123,"y":2542512.7400000002}},{"attributes":{"ID":22083,"DIS_CODE":0,"TOWNNAME":"東區","LI":"自強里","LIN":"14鄰","STREET":"富農街","SECT":"一段","MAREA":" ","LANE":"１３１巷","ALLEY":"４２弄","HOUSE_NO":"３號八樓","E_COORD97":171392.32000000001,"N_COORD97":2542512.7400000002,"ADDRESS":"富農街一段１３１巷４２弄３號八樓","OBJECTID":22083},"geometry":{"x":171392.32000000123,"y":2542512.7400000002}},{"attributes":{"ID":22084,"DIS_CODE":0,"TOWNNAME":"仁德區","LI":"保安里","LIN":"24鄰","STREET":"保學一街","SECT":" ","MAREA":" ","LANE":"１７巷","ALLEY":" ","HOUSE_NO":"１０號","E_COORD97":171707.39605099999,"N_COORD97":2535614.0071100001,"ADDRESS":"保學一街１７巷１０號","OBJECTID":22084},"geometry":{"x":171707.3960510008,"y":2535614.0071110018}},{"attributes":{"ID":22085,"DIS_CODE":0,"TOWNNAME":"仁德區","LI":"仁愛里","LIN":"24鄰","STREET":"保仁路","SECT":" ","MAREA":" ","LANE":" ","ALLEY":" ","HOUSE_NO":"２５６號一樓之２","E_COORD97":169970.37372599999,"N_COORD97":2540102.9586900002,"ADDRESS":"保仁路２５６號一樓之２","OBJECTID":22085},"geometry":{"x":169970.37372600008,"y":2540102.9586890023}},{"attributes":{"ID":22086,"DIS_CODE":0,"TOWNNAME":"東區","LI":"富強里","LIN":"24鄰","STREET":"中華東路","SECT":"二段","MAREA":" ","LANE":"９６巷","ALLEY":" ","HOUSE_NO":"２２號","E_COORD97":171296.26999999999,"N_COORD97":2542879.3900000001,"ADDRESS":"中華東路二段９６巷２２號","OBJECTID":22086},"geometry":{"x":171296.27000000142,"y":2542879.3900000006}},{"attributes":{"ID":22087,"DIS_CODE":0,"TOWNNAME":"東區","LI":"富強里","LIN":"24鄰","STREET":"中華東路","SECT":"二段","MAREA":" ","LANE":"９６巷","ALLEY":" ","HOUSE_NO":"２６號","E_COORD97":171278.94,"N_COORD97":2542876.52,"ADDRESS":"中華東路二段９６巷２６號","OBJECTID":22087},"geometry":{"x":171278.93999999948,"y":2542876.5199999996}},{"attributes":{"ID":22088,"DIS_CODE":0,"TOWNNAME":"永康區","LI":"正強里","LIN":"24鄰","STREET":"正強街","SECT":" ","MAREA":" ","LANE":" ","ALLEY":" ","HOUSE_NO":"２４８號","E_COORD97":173309.06,"N_COORD97":2547767.6899999999,"ADDRESS":"正強街２４８號","OBJECTID":22088},"geometry":{"x":173309.05999999959,"y":2547767.6899999995}},{"attributes":{"ID":22089,"DIS_CODE":0,"TOWNNAME":"安平區","LI":"文平里","LIN":"6鄰","STREET":"永華二街","SECT":" ","MAREA":" ","LANE":" ","ALLEY":" ","HOUSE_NO":"１３９號","E_COORD97":166355.22,"N_COORD97":2543126.5699999998,"ADDRESS":"永華二街１３９號","OBJECTID":22089},"geometry":{"x":166355.21999999881,"y":2543126.5700000022}},{"attributes":{"ID":22090,"DIS_CODE":0,"TOWNNAME":"東區","LI":"崇文里","LIN":"24鄰","STREET":"崇德二十一街","SECT":" ","MAREA":" ","LANE":" ","ALLEY":" ","HOUSE_NO":"６６號","E_COORD97":170993.67999999999,"N_COORD97":2540850.5299999998,"ADDRESS":"崇德二十一街６６號","OBJECTID":22090},"geometry":{"x":170993.68000000156,"y":2540850.5300000012}},{"attributes":{"ID":22091,"DIS_CODE":0,"TOWNNAME":"北區","LI":"振興里","LIN":"8鄰","STREET":"長榮路","SECT":"四段","MAREA":" ","LANE":" ","ALLEY":" ","HOUSE_NO":"１５５號","E_COORD97":170202.79999999999,"N_COORD97":2545164.6000000001,"ADDRESS":"長榮路四段１５５號","OBJECTID":22091},"geometry":{"x":170202.79999999888,"y":2545164.5999999996}},{"attributes":{"ID":22092,"DIS_CODE":0,"TOWNNAME":"東區","LI":"富強里","LIN":"24鄰","STREET":"中華東路","SECT":"二段","MAREA":" ","LANE":"９６巷","ALLEY":" ","HOUSE_NO":"２８號","E_COORD97":171271.87,"N_COORD97":2542876.2599999998,"ADDRESS":"中華東路二段９６巷２８號","OBJECTID":22092},"geometry":{"x":171271.87000000011,"y":2542876.2600000035}},{"attributes":{"ID":22093,"DIS_CODE":0,"TOWNNAME":"東區","LI":"富強里","LIN":"24鄰","STREET":"中華東路","SECT":"二段","MAREA":" ","LANE":"９６巷","ALLEY":" ","HOUSE_NO":"３０號","E_COORD97":171264.67000000001,"N_COORD97":2542875.8700000001,"ADDRESS":"中華東路二段９６巷３０號","OBJECTID":22093},"geometry":{"x":171264.66999999993,"y":2542875.870000001}},{"attributes":{"ID":22094,"DIS_CODE":0,"TOWNNAME":"北區","LI":"振興里","LIN":"8鄰","STREET":"長榮路","SECT":"四段","MAREA":" ","LANE":" ","ALLEY":" ","HOUSE_NO":"１５７號","E_COORD97":170216.64999999999,"N_COORD97":2545167.54,"ADDRESS":"長榮路四段１５７號","OBJECTID":22094},"geometry":{"x":170216.6500000013,"y":2545167.5399999991}},{"attributes":{"ID":22095,"DIS_CODE":0,"TOWNNAME":"北區","LI":"振興里","LIN":"8鄰","STREET":"長榮路","SECT":"四段","MAREA":" ","LANE":" ","ALLEY":" ","HOUSE_NO":"１６１號","E_COORD97":170213.04999999999,"N_COORD97":2545174.8399999999,"ADDRESS":"長榮路四段１６１號","OBJECTID":22095},"geometry":{"x":170213.05000000168,"y":2545174.8400000017}},{"attributes":{"ID":22096,"DIS_CODE":0,"TOWNNAME":"新營區","LI":"永生里","LIN":"8鄰","STREET":"康樂街","SECT":" ","MAREA":" ","LANE":" ","ALLEY":" ","HOUSE_NO":"１２號","E_COORD97":180019.28,"N_COORD97":2577923.6600000001,"ADDRESS":"康樂街１２號","OBJECTID":22096},"geometry":{"x":180019.28000000119,"y":2577923.6600000039}},{"attributes":{"ID":22097,"DIS_CODE":0,"TOWNNAME":"新營區","LI":"新東里","LIN":"8鄰","STREET":"東學路","SECT":" ","MAREA":" ","LANE":" ","ALLEY":" ","HOUSE_NO":"１１３號","E_COORD97":181225.17999999999,"N_COORD97":2579396.46,"ADDRESS":"東學路１１３號","OBJECTID":22097},"geometry":{"x":181225.1799999997,"y":2579396.4600000009}},{"attributes":{"ID":22098,"DIS_CODE":0,"TOWNNAME":"新營區","LI":"新南里","LIN":"8鄰","STREET":"新北五街","SECT":" ","MAREA":" ","LANE":" ","ALLEY":" ","HOUSE_NO":"１１６號","E_COORD97":178601.26999999999,"N_COORD97":2579095.4700000002,"ADDRESS":"新北五街１１６號","OBJECTID":22098},"geometry":{"x":178601.27000000048,"y":2579095.4700000044}},{"attributes":{"ID":22099,"DIS_CODE":0,"TOWNNAME":"新營區","LI":"大宏里","LIN":"28鄰","STREET":"新東街","SECT":" ","MAREA":" ","LANE":" ","ALLEY":" ","HOUSE_NO":"６２號","E_COORD97":180843.39000000001,"N_COORD97":2578723.7999999998,"ADDRESS":"新東街６２號","OBJECTID":22099},"geometry":{"x":180843.3900000006,"y":2578723.8000000026}},{"attributes":{"ID":22100,"DIS_CODE":0,"TOWNNAME":"新營區","LI":"民榮里","LIN":" ","STREET":"復興路","SECT":" ","MAREA":" ","LANE":" ","ALLEY":" ","HOUSE_NO":"１５７之２２號","E_COORD97":179059.95000000001,"N_COORD97":2577980.3399999999,"ADDRESS":"復興路１５７之２２號","OBJECTID":22100},"geometry":{"x":179059.95000000112,"y":2577980.3400000017}},{"attributes":{"ID":22101,"DIS_CODE":0,"TOWNNAME":"新營區","LI":"大宏里","LIN":"8鄰","STREET":"文昌街","SECT":" ","MAREA":" ","LANE":" ","ALLEY":" ","HOUSE_NO":"３６之２號","E_COORD97":180348.20999999999,"N_COORD97":2578366.2599999998,"ADDRESS":"文昌街３６之２號","OBJECTID":22101},"geometry":{"x":180348.21000000089,"y":2578366.2599999998}},{"attributes":{"ID":22102,"DIS_CODE":0,"TOWNNAME":"安平區","LI":"文平里","LIN":"8鄰","STREET":"建平路","SECT":" ","MAREA":" ","LANE":" ","ALLEY":" ","HOUSE_NO":"２２０號","E_COORD97":166163.79999999999,"N_COORD97":2543133.3900000001,"ADDRESS":"建平路２２０號","OBJECTID":22102},"geometry":{"x":166163.80000000075,"y":2543133.3900000006}},{"attributes":{"ID":22103,"DIS_CODE":0,"TOWNNAME":"安平區","LI":"文平里","LIN":"8鄰","STREET":"建平路","SECT":" ","MAREA":" ","LANE":" ","ALLEY":" ","HOUSE_NO":"２２２號","E_COORD97":166164.28,"N_COORD97":2543140.0899999999,"ADDRESS":"建平路２２２號","OBJECTID":22103},"geometry":{"x":166164.28000000119,"y":2543140.0900000017}},{"attributes":{"ID":22104,"DIS_CODE":0,"TOWNNAME":"東區","LI":"自強里","LIN":"14鄰","STREET":"富農街","SECT":"一段","MAREA":" ","LANE":"１３１巷","ALLEY":"４２弄","HOUSE_NO":"３號三樓","E_COORD97":171392.32000000001,"N_COORD97":2542512.7400000002,"ADDRESS":"富農街一段１３１巷４２弄３號三樓","OBJECTID":22104},"geometry":{"x":171392.32000000123,"y":2542512.7400000002}},{"attributes":{"ID":22105,"DIS_CODE":0,"TOWNNAME":"官田區","LI":"官田里","LIN":"17鄰","STREET":" ","SECT":" ","MAREA":"官田","LANE":" ","ALLEY":" ","HOUSE_NO":"１５８號","E_COORD97":182453.73000000001,"N_COORD97":2564941.1699999999,"ADDRESS":"官田１５８號","OBJECTID":22105},"geometry":{"x":182453.73000000138,"y":2564941.1699999999}},{"attributes":{"ID":22106,"DIS_CODE":0,"TOWNNAME":"官田區","LI":"官田里","LIN":"17鄰","STREET":" ","SECT":" ","MAREA":"官田","LANE":" ","ALLEY":" ","HOUSE_NO":"１９０號","E_COORD97":182403.98999999999,"N_COORD97":2564598.29,"ADDRESS":"官田１９０號","OBJECTID":22106},"geometry":{"x":182403.99000000209,"y":2564598.290000001}},{"attributes":{"ID":22107,"DIS_CODE":0,"TOWNNAME":"官田區","LI":"官田里","LIN":"17鄰","STREET":" ","SECT":" ","MAREA":"官田","LANE":" ","ALLEY":" ","HOUSE_NO":"１９１號之１","E_COORD97":182373.38,"N_COORD97":2564733.9700000002,"ADDRESS":"官田１９１號之１","OBJECTID":22107},"geometry":{"x":182373.37999999989,"y":2564733.9700000025}},{"attributes":{"ID":22108,"DIS_CODE":0,"TOWNNAME":"官田區","LI":"官田里","LIN":"17鄰","STREET":" ","SECT":" ","MAREA":"官田","LANE":" ","ALLEY":" ","HOUSE_NO":"１９１號","E_COORD97":182372.03,"N_COORD97":2564739.5099999998,"ADDRESS":"官田１９１號","OBJECTID":22108},"geometry":{"x":182372.03000000119,"y":2564739.5100000016}},{"attributes":{"ID":22109,"DIS_CODE":0,"TOWNNAME":"東區","LI":"自強里","LIN":"14鄰","STREET":"富農街","SECT":"一段","MAREA":" ","LANE":"１３１巷","ALLEY":"４２弄","HOUSE_NO":"３號五樓","E_COORD97":171392.32000000001,"N_COORD97":2542512.7400000002,"ADDRESS":"富農街一段１３１巷４２弄３號五樓","OBJECTID":22109},"geometry":{"x":171392.32000000123,"y":2542512.7400000002}},{"attributes":{"ID":22110,"DIS_CODE":0,"TOWNNAME":"東區","LI":"自強里","LIN":"14鄰","STREET":"富農街","SECT":"一段","MAREA":" ","LANE":"１３１巷","ALLEY":"４２弄","HOUSE_NO":"３號六樓","E_COORD97":171392.32000000001,"N_COORD97":2542512.7400000002,"ADDRESS":"富農街一段１３１巷４２弄３號六樓","OBJECTID":22110},"geometry":{"x":171392.32000000123,"y":2542512.7400000002}},{"attributes":{"ID":22111,"DIS_CODE":0,"TOWNNAME":"官田區","LI":"官田里","LIN":"17鄰","STREET":" ","SECT":" ","MAREA":"官田","LANE":" ","ALLEY":" ","HOUSE_NO":"１９３號","E_COORD97":182345.41,"N_COORD97":2564819.8900000001,"ADDRESS":"官田１９３號","OBJECTID":22111},"geometry":{"x":182345.41000000108,"y":2564819.8900000025}},{"attributes":{"ID":22112,"DIS_CODE":0,"TOWNNAME":"官田區","LI":"官田里","LIN":"17鄰","STREET":" ","SECT":" ","MAREA":"官田","LANE":" ","ALLEY":" ","HOUSE_NO":"１９４號之１","E_COORD97":182350.29000000001,"N_COORD97":2564837.6699999999,"ADDRESS":"官田１９４號之１","OBJECTID":22112},"geometry":{"x":182350.29000000004,"y":2564837.6700000018}},{"attributes":{"ID":22113,"DIS_CODE":0,"TOWNNAME":"官田區","LI":"官田里","LIN":"17鄰","STREET":" ","SECT":" ","MAREA":"官田","LANE":" ","ALLEY":" ","HOUSE_NO":"１９４號","E_COORD97":182335.51999999999,"N_COORD97":2564831.6800000002,"ADDRESS":"官田１９４號","OBJECTID":22113},"geometry":{"x":182335.52000000048,"y":2564831.6799999997}},{"attributes":{"ID":22114,"DIS_CODE":0,"TOWNNAME":"官田區","LI":"官田里","LIN":"17鄰","STREET":" ","SECT":" ","MAREA":"官田","LANE":" ","ALLEY":" ","HOUSE_NO":"１９５號之１","E_COORD97":182348.57999999999,"N_COORD97":2564843.75,"ADDRESS":"官田１９５號之１","OBJECTID":22114},"geometry":{"x":182348.58000000007,"y":2564843.7500000019}},{"attributes":{"ID":22115,"DIS_CODE":0,"TOWNNAME":"官田區","LI":"官田里","LIN":"17鄰","STREET":" ","SECT":" ","MAREA":"官田","LANE":" ","ALLEY":" ","HOUSE_NO":"１９５號","E_COORD97":182347.60999999999,"N_COORD97":2564857.7999999998,"ADDRESS":"官田１９５號","OBJECTID":22115},"geometry":{"x":182347.61000000127,"y":2564857.8000000026}},{"attributes":{"ID":22116,"DIS_CODE":0,"TOWNNAME":"東區","LI":"自強里","LIN":"14鄰","STREET":"富農街","SECT":"一段","MAREA":" ","LANE":"１３１巷","ALLEY":"４２弄","HOUSE_NO":"３號四樓","E_COORD97":171392.32000000001,"N_COORD97":2542512.7400000002,"ADDRESS":"富農街一段１３１巷４２弄３號四樓","OBJECTID":22116},"geometry":{"x":171392.32000000123,"y":2542512.7400000002}},{"attributes":{"ID":22117,"DIS_CODE":0,"TOWNNAME":"東區","LI":"自強里","LIN":"14鄰","STREET":"富農街","SECT":"一段","MAREA":" ","LANE":"１３１巷","ALLEY":"４２弄","HOUSE_NO":"５號七樓","E_COORD97":171381.07999999999,"N_COORD97":2542512.5,"ADDRESS":"富農街一段１３１巷４２弄５號七樓","OBJECTID":22117},"geometry":{"x":171381.08000000194,"y":2542512.5000000019}},{"attributes":{"ID":22118,"DIS_CODE":0,"TOWNNAME":"東區","LI":"自強里","LIN":"14鄰","STREET":"富農街","SECT":"一段","MAREA":" ","LANE":"１３１巷","ALLEY":"４２弄","HOUSE_NO":"５號九樓","E_COORD97":171381.07999999999,"N_COORD97":2542512.5,"ADDRESS":"富農街一段１３１巷４２弄５號九樓","OBJECTID":22118},"geometry":{"x":171381.08000000194,"y":2542512.5000000019}},{"attributes":{"ID":22119,"DIS_CODE":0,"TOWNNAME":"東區","LI":"自強里","LIN":"14鄰","STREET":"富農街","SECT":"一段","MAREA":" ","LANE":"１３１巷","ALLEY":"４２弄","HOUSE_NO":"５號二樓","E_COORD97":171381.07999999999,"N_COORD97":2542512.5,"ADDRESS":"富農街一段１３１巷４２弄５號二樓","OBJECTID":22119},"geometry":{"x":171381.08000000194,"y":2542512.5000000019}},{"attributes":{"ID":22120,"DIS_CODE":0,"TOWNNAME":"東區","LI":"自強里","LIN":"14鄰","STREET":"富農街","SECT":"一段","MAREA":" ","LANE":"１３１巷","ALLEY":"４２弄","HOUSE_NO":"５號八樓","E_COORD97":171381.07999999999,"N_COORD97":2542512.5,"ADDRESS":"富農街一段１３１巷４２弄５號八樓","OBJECTID":22120},"geometry":{"x":171381.08000000194,"y":2542512.5000000019}},{"attributes":{"ID":22121,"DIS_CODE":0,"TOWNNAME":"東區","LI":"自強里","LIN":"14鄰","STREET":"富農街","SECT":"一段","MAREA":" ","LANE":"１３１巷","ALLEY":"４２弄","HOUSE_NO":"５號三樓","E_COORD97":171381.07999999999,"N_COORD97":2542512.5,"ADDRESS":"富農街一段１３１巷４２弄５號三樓","OBJECTID":22121},"geometry":{"x":171381.08000000194,"y":2542512.5000000019}},{"attributes":{"ID":22122,"DIS_CODE":0,"TOWNNAME":"東區","LI":"自強里","LIN":"14鄰","STREET":"富農街","SECT":"一段","MAREA":" ","LANE":"１３１巷","ALLEY":"４２弄","HOUSE_NO":"５號五樓","E_COORD97":171381.07999999999,"N_COORD97":2542512.5,"ADDRESS":"富農街一段１３１巷４２弄５號五樓","OBJECTID":22122},"geometry":{"x":171381.08000000194,"y":2542512.5000000019}},{"attributes":{"ID":22123,"DIS_CODE":0,"TOWNNAME":"東區","LI":"崇文里","LIN":"24鄰","STREET":"崇德二十一街","SECT":" ","MAREA":" ","LANE":" ","ALLEY":" ","HOUSE_NO":"６８號","E_COORD97":170999.35999999999,"N_COORD97":2540850.3300000001,"ADDRESS":"崇德二十一街６８號","OBJECTID":22123},"geometry":{"x":170999.36000000034,"y":2540850.3300000019}},{"attributes":{"ID":22124,"DIS_CODE":0,"TOWNNAME":"東區","LI":"崇成里","LIN":"24鄰","STREET":"崇明路","SECT":" ","MAREA":" ","LANE":" ","ALLEY":" ","HOUSE_NO":"６０３號","E_COORD97":170618.37,"N_COORD97":2540874,"ADDRESS":"崇明路６０３號","OBJECTID":22124},"geometry":{"x":170618.37000000104,"y":2540874}},{"attributes":{"ID":22125,"DIS_CODE":0,"TOWNNAME":"東區","LI":"崇成里","LIN":"24鄰","STREET":"崇明二十三街","SECT":" ","MAREA":" ","LANE":" ","ALLEY":" ","HOUSE_NO":"１號","E_COORD97":170633.94,"N_COORD97":2540884,"ADDRESS":"崇明二十三街１號","OBJECTID":22125},"geometry":{"x":170633.94000000134,"y":2540884}},{"attributes":{"ID":22126,"DIS_CODE":0,"TOWNNAME":"東區","LI":"崇成里","LIN":"24鄰","STREET":"崇明二十三街","SECT":" ","MAREA":" ","LANE":" ","ALLEY":" ","HOUSE_NO":"３號","E_COORD97":170640.89999999999,"N_COORD97":2540884,"ADDRESS":"崇明二十三街３號","OBJECTID":22126},"geometry":{"x":170640.9000000013,"y":2540884}},{"attributes":{"ID":22127,"DIS_CODE":0,"TOWNNAME":"官田區","LI":"官田里","LIN":"17鄰","STREET":" ","SECT":" ","MAREA":"官田","LANE":" ","ALLEY":" ","HOUSE_NO":"１９６號","E_COORD97":182333.94,"N_COORD97":2564852.0699999998,"ADDRESS":"官田１９６號","OBJECTID":22127},"geometry":{"x":182333.94000000134,"y":2564852.0700000022}},{"attributes":{"ID":22128,"DIS_CODE":0,"TOWNNAME":"官田區","LI":"官田里","LIN":"17鄰","STREET":" ","SECT":" ","MAREA":"官田","LANE":" ","ALLEY":" ","HOUSE_NO":"１９７號之１","E_COORD97":182317.75,"N_COORD97":2564845.3900000001,"ADDRESS":"官田１９７號之１","OBJECTID":22128},"geometry":{"x":182317.75000000093,"y":2564845.3900000006}},{"attributes":{"ID":22129,"DIS_CODE":0,"TOWNNAME":"官田區","LI":"官田里","LIN":"17鄰","STREET":" ","SECT":" ","MAREA":"官田","LANE":" ","ALLEY":" ","HOUSE_NO":"１９７號","E_COORD97":182326.47,"N_COORD97":2564848.2200000002,"ADDRESS":"官田１９７號","OBJECTID":22129},"geometry":{"x":182326.47000000067,"y":2564848.2200000025}},{"attributes":{"ID":22130,"DIS_CODE":0,"TOWNNAME":"官田區","LI":"官田里","LIN":"17鄰","STREET":" ","SECT":" ","MAREA":"官田","LANE":" ","ALLEY":" ","HOUSE_NO":"２０２號","E_COORD97":182298.01000000001,"N_COORD97":2564837.9300000002,"ADDRESS":"官田２０２號","OBJECTID":22130},"geometry":{"x":182298.00999999978,"y":2564837.9300000034}},{"attributes":{"ID":22131,"DIS_CODE":0,"TOWNNAME":"官田區","LI":"官田里","LIN":"17鄰","STREET":" ","SECT":" ","MAREA":"官田","LANE":" ","ALLEY":" ","HOUSE_NO":"２０３號","E_COORD97":182289.29000000001,"N_COORD97":2564835.8999999999,"ADDRESS":"官田２０３號","OBJECTID":22131},"geometry":{"x":182289.29000000004,"y":2564835.9000000022}},{"attributes":{"ID":22132,"DIS_CODE":0,"TOWNNAME":"東區","LI":"崇成里","LIN":"24鄰","STREET":"崇明二十三街","SECT":" ","MAREA":" ","LANE":" ","ALLEY":" ","HOUSE_NO":"５號","E_COORD97":170648.47,"N_COORD97":2540883.9100000001,"ADDRESS":"崇明二十三街５號","OBJECTID":22132},"geometry":{"x":170648.46999999974,"y":2540883.9100000001}},{"attributes":{"ID":22133,"DIS_CODE":0,"TOWNNAME":"東區","LI":"崇成里","LIN":"24鄰","STREET":"崇明二十三街","SECT":" ","MAREA":" ","LANE":" ","ALLEY":" ","HOUSE_NO":"７號","E_COORD97":170655,"N_COORD97":2540884,"ADDRESS":"崇明二十三街７號","OBJECTID":22133},"geometry":{"x":170655.00000000093,"y":2540884}},{"attributes":{"ID":22134,"DIS_CODE":0,"TOWNNAME":"下營區","LI":"營前里","LIN":"24鄰","STREET":"仁愛街","SECT":" ","MAREA":" ","LANE":" ","ALLEY":" ","HOUSE_NO":"６號","E_COORD97":174740.13,"N_COORD97":2570043.4700000002,"ADDRESS":"仁愛街６號","OBJECTID":22134},"geometry":{"x":174740.12999999989,"y":2570043.4700000025}},{"attributes":{"ID":22135,"DIS_CODE":0,"TOWNNAME":"永康區","LI":"\u25A0洲里","LIN":"24鄰","STREET":"中正南路","SECT":" ","MAREA":" ","LANE":" ","ALLEY":" ","HOUSE_NO":"４８７號","E_COORD97":170883.82000000001,"N_COORD97":2548149.3999999999,"ADDRESS":"中正南路４８７號","OBJECTID":22135},"geometry":{"x":170883.82000000123,"y":2548149.4000000022}},{"attributes":{"ID":22136,"DIS_CODE":0,"TOWNNAME":"永康區","LI":"網寮里","LIN":"24鄰","STREET":"永大一路","SECT":" ","MAREA":" ","LANE":" ","ALLEY":" ","HOUSE_NO":"１５４號","E_COORD97":173877.89999999999,"N_COORD97":2546377.96,"ADDRESS":"永大一路１５４號","OBJECTID":22136},"geometry":{"x":173877.89999999944,"y":2546377.9600000009}},{"attributes":{"ID":22137,"DIS_CODE":0,"TOWNNAME":"官田區","LI":"官田里","LIN":"17鄰","STREET":" ","SECT":" ","MAREA":"官田","LANE":" ","ALLEY":" ","HOUSE_NO":"２０４號","E_COORD97":182284.59,"N_COORD97":2564833.6299999999,"ADDRESS":"官田２０４號","OBJECTID":22137},"geometry":{"x":182284.59000000078,"y":2564833.6300000008}},{"attributes":{"ID":22138,"DIS_CODE":0,"TOWNNAME":"官田區","LI":"官田里","LIN":"17鄰","STREET":" ","SECT":" ","MAREA":"官田","LANE":" ","ALLEY":" ","HOUSE_NO":"２０５號","E_COORD97":182279.67999999999,"N_COORD97":2564831.2400000002,"ADDRESS":"官田２０５號","OBJECTID":22138},"geometry":{"x":182279.6799999997,"y":2564831.2400000021}},{"attributes":{"ID":22139,"DIS_CODE":0,"TOWNNAME":"官田區","LI":"官田里","LIN":"17鄰","STREET":" ","SECT":" ","MAREA":"官田","LANE":" ","ALLEY":" ","HOUSE_NO":"２０６號","E_COORD97":182274.66,"N_COORD97":2564829.5299999998,"ADDRESS":"官田２０６號","OBJECTID":22139},"geometry":{"x":182274.66000000108,"y":2564829.5299999993}},{"attributes":{"ID":22140,"DIS_CODE":0,"TOWNNAME":"官田區","LI":"官田里","LIN":"17鄰","STREET":" ","SECT":" ","MAREA":"官田","LANE":" ","ALLEY":" ","HOUSE_NO":"２０７號","E_COORD97":182269.82000000001,"N_COORD97":2564826.96,"ADDRESS":"官田２０７號","OBJECTID":22140},"geometry":{"x":182269.82000000123,"y":2564826.9600000028}},{"attributes":{"ID":22141,"DIS_CODE":0,"TOWNNAME":"東區","LI":"自強里","LIN":"14鄰","STREET":"富農街","SECT":"一段","MAREA":" ","LANE":"１３１巷","ALLEY":"４２弄","HOUSE_NO":"５號六樓","E_COORD97":171381.07999999999,"N_COORD97":2542512.5,"ADDRESS":"富農街一段１３１巷４２弄５號六樓","OBJECTID":22141},"geometry":{"x":171381.08000000194,"y":2542512.5000000019}},{"attributes":{"ID":22142,"DIS_CODE":0,"TOWNNAME":"東區","LI":"自強里","LIN":"14鄰","STREET":"富農街","SECT":"一段","MAREA":" ","LANE":"１３１巷","ALLEY":"４２弄","HOUSE_NO":"５號四樓","E_COORD97":171381.07999999999,"N_COORD97":2542512.5,"ADDRESS":"富農街一段１３１巷４２弄５號四樓","OBJECTID":22142},"geometry":{"x":171381.08000000194,"y":2542512.5000000019}},{"attributes":{"ID":22143,"DIS_CODE":0,"TOWNNAME":"東區","LI":"自強里","LIN":"14鄰","STREET":"富農街","SECT":"一段","MAREA":" ","LANE":"１３１巷","ALLEY":"４２弄","HOUSE_NO":"７號七樓","E_COORD97":171357.41,"N_COORD97":2542511.79,"ADDRESS":"富農街一段１３１巷４２弄７號七樓","OBJECTID":22143},"geometry":{"x":171357.41000000108,"y":2542511.7899999991}},{"attributes":{"ID":22144,"DIS_CODE":0,"TOWNNAME":"東區","LI":"自強里","LIN":"14鄰","STREET":"富農街","SECT":"一段","MAREA":" ","LANE":"１３１巷","ALLEY":"４２弄","HOUSE_NO":"７號九樓","E_COORD97":171357.41,"N_COORD97":2542511.79,"ADDRESS":"富農街一段１３１巷４２弄７號九樓","OBJECTID":22144},"geometry":{"x":171357.41000000108,"y":2542511.7899999991}},{"attributes":{"ID":22145,"DIS_CODE":0,"TOWNNAME":"東區","LI":"自強里","LIN":"14鄰","STREET":"富農街","SECT":"一段","MAREA":" ","LANE":"１３１巷","ALLEY":"４２弄","HOUSE_NO":"７號二樓","E_COORD97":171357.41,"N_COORD97":2542511.79,"ADDRESS":"富農街一段１３１巷４２弄７號二樓","OBJECTID":22145},"geometry":{"x":171357.41000000108,"y":2542511.7899999991}},{"attributes":{"ID":22146,"DIS_CODE":0,"TOWNNAME":"東區","LI":"自強里","LIN":"14鄰","STREET":"富農街","SECT":"一段","MAREA":" ","LANE":"１３１巷","ALLEY":"４２弄","HOUSE_NO":"７號八樓","E_COORD97":171357.41,"N_COORD97":2542511.79,"ADDRESS":"富農街一段１３１巷４２弄７號八樓","OBJECTID":22146},"geometry":{"x":171357.41000000108,"y":2542511.7899999991}},{"attributes":{"ID":22147,"DIS_CODE":0,"TOWNNAME":"東區","LI":"自強里","LIN":"14鄰","STREET":"富農街","SECT":"一段","MAREA":" ","LANE":"１３１巷","ALLEY":"４２弄","HOUSE_NO":"７號三樓","E_COORD97":171357.41,"N_COORD97":2542511.79,"ADDRESS":"富農街一段１３１巷４２弄７號三樓","OBJECTID":22147},"geometry":{"x":171357.41000000108,"y":2542511.7899999991}},{"attributes":{"ID":22148,"DIS_CODE":0,"TOWNNAME":"東區","LI":"自強里","LIN":"14鄰","STREET":"富農街","SECT":"一段","MAREA":" ","LANE":"１３１巷","ALLEY":"４２弄","HOUSE_NO":"７號五樓","E_COORD97":171357.41,"N_COORD97":2542511.79,"ADDRESS":"富農街一段１３１巷４２弄７號五樓","OBJECTID":22148},"geometry":{"x":171357.41000000108,"y":2542511.7899999991}},{"attributes":{"ID":22149,"DIS_CODE":0,"TOWNNAME":"東區","LI":"自強里","LIN":"14鄰","STREET":"富農街","SECT":"一段","MAREA":" ","LANE":"１３１巷","ALLEY":"４２弄","HOUSE_NO":"７號六樓","E_COORD97":171357.41,"N_COORD97":2542511.79,"ADDRESS":"富農街一段１３１巷４２弄７號六樓","OBJECTID":22149},"geometry":{"x":171357.41000000108,"y":2542511.7899999991}},{"attributes":{"ID":22150,"DIS_CODE":0,"TOWNNAME":"東區","LI":"自強里","LIN":"14鄰","STREET":"富農街","SECT":"一段","MAREA":" ","LANE":"１３１巷","ALLEY":"４２弄","HOUSE_NO":"７號四樓","E_COORD97":171357.41,"N_COORD97":2542511.79,"ADDRESS":"富農街一段１３１巷４２弄７號四樓","OBJECTID":22150},"geometry":{"x":171357.41000000108,"y":2542511.7899999991}},{"attributes":{"ID":22151,"DIS_CODE":0,"TOWNNAME":"東區","LI":"自強里","LIN":"14鄰","STREET":"富農街","SECT":"一段","MAREA":" ","LANE":"１３１巷","ALLEY":"４２弄","HOUSE_NO":"９號七樓","E_COORD97":171347.84,"N_COORD97":2542510.8300000001,"ADDRESS":"富農街一段１３１巷４２弄９號七樓","OBJECTID":22151},"geometry":{"x":171347.83999999985,"y":2542510.8300000019}},{"attributes":{"ID":22152,"DIS_CODE":0,"TOWNNAME":"東區","LI":"自強里","LIN":"14鄰","STREET":"富農街","SECT":"一段","MAREA":" ","LANE":"１３１巷","ALLEY":"４２弄","HOUSE_NO":"９號二樓","E_COORD97":171347.84,"N_COORD97":2542510.8300000001,"ADDRESS":"富農街一段１３１巷４２弄９號二樓","OBJECTID":22152},"geometry":{"x":171347.83999999985,"y":2542510.8300000019}},{"attributes":{"ID":22153,"DIS_CODE":0,"TOWNNAME":"官田區","LI":"官田里","LIN":"17鄰","STREET":" ","SECT":" ","MAREA":"官田","LANE":" ","ALLEY":" ","HOUSE_NO":"２０８號","E_COORD97":182265.20000000001,"N_COORD97":2564824.9500000002,"ADDRESS":"官田２０８號","OBJECTID":22153},"geometry":{"x":182265.20000000205,"y":2564824.9500000011}},{"attributes":{"ID":22154,"DIS_CODE":0,"TOWNNAME":"官田區","LI":"官田里","LIN":"17鄰","STREET":" ","SECT":" ","MAREA":"官田","LANE":" ","ALLEY":" ","HOUSE_NO":"２０９號","E_COORD97":182260.66,"N_COORD97":2564823.0499999998,"ADDRESS":"官田２０９號","OBJECTID":22154},"geometry":{"x":182260.66000000108,"y":2564823.0500000007}},{"attributes":{"ID":22155,"DIS_CODE":0,"TOWNNAME":"東區","LI":"自強里","LIN":"14鄰","STREET":"富農街","SECT":"一段","MAREA":" ","LANE":"１３１巷","ALLEY":"４２弄","HOUSE_NO":"９號八樓","E_COORD97":171347.84,"N_COORD97":2542510.8300000001,"ADDRESS":"富農街一段１３１巷４２弄９號八樓","OBJECTID":22155},"geometry":{"x":171347.83999999985,"y":2542510.8300000019}},{"attributes":{"ID":22156,"DIS_CODE":0,"TOWNNAME":"東區","LI":"自強里","LIN":"14鄰","STREET":"富農街","SECT":"一段","MAREA":" ","LANE":"１３１巷","ALLEY":"４２弄","HOUSE_NO":"９號三樓","E_COORD97":171347.84,"N_COORD97":2542510.8300000001,"ADDRESS":"富農街一段１３１巷４２弄９號三樓","OBJECTID":22156},"geometry":{"x":171347.83999999985,"y":2542510.8300000019}},{"attributes":{"ID":22157,"DIS_CODE":0,"TOWNNAME":"東區","LI":"自強里","LIN":"14鄰","STREET":"富農街","SECT":"一段","MAREA":" ","LANE":"１３１巷","ALLEY":"４２弄","HOUSE_NO":"９號五樓","E_COORD97":171347.84,"N_COORD97":2542510.8300000001,"ADDRESS":"富農街一段１３１巷４２弄９號五樓","OBJECTID":22157},"geometry":{"x":171347.83999999985,"y":2542510.8300000019}},{"attributes":{"ID":22158,"DIS_CODE":0,"TOWNNAME":"東區","LI":"自強里","LIN":"14鄰","STREET":"富農街","SECT":"一段","MAREA":" ","LANE":"１３１巷","ALLEY":"４２弄","HOUSE_NO":"９號六樓","E_COORD97":171347.84,"N_COORD97":2542510.8300000001,"ADDRESS":"富農街一段１３１巷４２弄９號六樓","OBJECTID":22158},"geometry":{"x":171347.83999999985,"y":2542510.8300000019}},{"attributes":{"ID":22159,"DIS_CODE":0,"TOWNNAME":"官田區","LI":"官田里","LIN":"17鄰","STREET":" ","SECT":" ","MAREA":"官田","LANE":" ","ALLEY":" ","HOUSE_NO":"２１２號","E_COORD97":182188.88,"N_COORD97":2564794.0499999998,"ADDRESS":"官田２１２號","OBJECTID":22159},"geometry":{"x":182188.87999999989,"y":2564794.0500000045}},{"attributes":{"ID":22160,"DIS_CODE":0,"TOWNNAME":"東區","LI":"自強里","LIN":"14鄰","STREET":"富農街","SECT":"一段","MAREA":" ","LANE":"１３１巷","ALLEY":"４２弄","HOUSE_NO":"９號四樓","E_COORD97":171347.84,"N_COORD97":2542510.8300000001,"ADDRESS":"富農街一段１３１巷４２弄９號四樓","OBJECTID":22160},"geometry":{"x":171347.83999999985,"y":2542510.8300000019}},{"attributes":{"ID":22161,"DIS_CODE":0,"TOWNNAME":"官田區","LI":"官田里","LIN":"17鄰","STREET":" ","SECT":" ","MAREA":"官田","LANE":" ","ALLEY":" ","HOUSE_NO":"２１３號","E_COORD97":182184.70999999999,"N_COORD97":2564792.6800000002,"ADDRESS":"官田２１３號","OBJECTID":22161},"geometry":{"x":182184.70999999996,"y":2564792.6800000016}},{"attributes":{"ID":22162,"DIS_CODE":0,"TOWNNAME":"官田區","LI":"官田里","LIN":"17鄰","STREET":" ","SECT":" ","MAREA":"官田","LANE":" ","ALLEY":" ","HOUSE_NO":"２１４號","E_COORD97":182174.91,"N_COORD97":2564786.9199999999,"ADDRESS":"官田２１４號","OBJECTID":22162},"geometry":{"x":182174.91000000015,"y":2564786.9199999999}},{"attributes":{"ID":22163,"DIS_CODE":0,"TOWNNAME":"官田區","LI":"官田里","LIN":"17鄰","STREET":" ","SECT":" ","MAREA":"官田","LANE":" ","ALLEY":" ","HOUSE_NO":"２１５號","E_COORD97":182168.19,"N_COORD97":2564784.2999999998,"ADDRESS":"官田２１５號","OBJECTID":22163},"geometry":{"x":182168.19000000041,"y":2564784.3000000007}},{"attributes":{"ID":22164,"DIS_CODE":0,"TOWNNAME":"官田區","LI":"官田里","LIN":"17鄰","STREET":" ","SECT":" ","MAREA":"官田","LANE":" ","ALLEY":" ","HOUSE_NO":"２１６號","E_COORD97":182161.54999999999,"N_COORD97":2564781.2400000002,"ADDRESS":"官田２１６號","OBJECTID":22164},"geometry":{"x":182161.55000000075,"y":2564781.2400000002}},{"attributes":{"ID":22165,"DIS_CODE":0,"TOWNNAME":"永康區","LI":"神洲里","LIN":"14鄰","STREET":"忠孝路","SECT":" ","MAREA":" ","LANE":"７６巷","ALLEY":"６３弄","HOUSE_NO":"１３號二樓","E_COORD97":172237.35000000001,"N_COORD97":2544984.6400000001,"ADDRESS":"忠孝路７６巷６３弄１３號二樓","OBJECTID":22165},"geometry":{"x":172237.35000000056,"y":2544984.6400000025}},{"attributes":{"ID":22166,"DIS_CODE":0,"TOWNNAME":"佳里區","LI":"六安里","LIN":"24鄰","STREET":"延平路","SECT":" ","MAREA":" ","LANE":" ","ALLEY":" ","HOUSE_NO":"４４７號","E_COORD97":165850.73999999999,"N_COORD97":2562939.6200000001,"ADDRESS":"延平路４４７號","OBJECTID":22166},"geometry":{"x":165850.74000000115,"y":2562939.6200000048}},{"attributes":{"ID":22167,"DIS_CODE":0,"TOWNNAME":"佳里區","LI":"六安里","LIN":"24鄰","STREET":"延平路","SECT":" ","MAREA":" ","LANE":" ","ALLEY":" ","HOUSE_NO":"４４９號","E_COORD97":165852.48999999999,"N_COORD97":2562943.8700000001,"ADDRESS":"延平路４４９號","OBJECTID":22167},"geometry":{"x":165852.49000000115,"y":2562943.870000001}},{"attributes":{"ID":22168,"DIS_CODE":0,"TOWNNAME":"官田區","LI":"官田里","LIN":"17鄰","STREET":" ","SECT":" ","MAREA":"官田","LANE":" ","ALLEY":" ","HOUSE_NO":"２１７號","E_COORD97":182146.70000000001,"N_COORD97":2564775.0600000001,"ADDRESS":"官田２１７號","OBJECTID":22168},"geometry":{"x":182146.70000000205,"y":2564775.0600000024}},{"attributes":{"ID":22169,"DIS_CODE":0,"TOWNNAME":"官田區","LI":"官田里","LIN":"17鄰","STREET":" ","SECT":" ","MAREA":"官田","LANE":" ","ALLEY":" ","HOUSE_NO":"２１８號","E_COORD97":182114.26999999999,"N_COORD97":2564761.0699999998,"ADDRESS":"官田２１８號","OBJECTID":22169},"geometry":{"x":182114.26999999955,"y":2564761.0700000022}},{"attributes":{"ID":22170,"DIS_CODE":0,"TOWNNAME":"永康區","LI":"神洲里","LIN":"14鄰","STREET":"忠孝路","SECT":" ","MAREA":" ","LANE":"７６巷","ALLEY":"６３弄","HOUSE_NO":"２３號四樓","E_COORD97":172240.39999999999,"N_COORD97":2545020.75,"ADDRESS":"忠孝路７６巷６３弄２３號四樓","OBJECTID":22170},"geometry":{"x":172240.40000000224,"y":2545020.7500000019}},{"attributes":{"ID":22171,"DIS_CODE":0,"TOWNNAME":"官田區","LI":"官田里","LIN":"17鄰","STREET":" ","SECT":" ","MAREA":"官田","LANE":" ","ALLEY":" ","HOUSE_NO":"２１９號之１","E_COORD97":182117.20000000001,"N_COORD97":2564749.6600000001,"ADDRESS":"官田２１９號之１","OBJECTID":22171},"geometry":{"x":182117.20000000019,"y":2564749.660000002}},{"attributes":{"ID":22172,"DIS_CODE":0,"TOWNNAME":"官田區","LI":"官田里","LIN":"17鄰","STREET":" ","SECT":" ","MAREA":"官田","LANE":" ","ALLEY":" ","HOUSE_NO":"２１９號","E_COORD97":182109.78,"N_COORD97":2564750.77,"ADDRESS":"官田２１９號","OBJECTID":22172},"geometry":{"x":182109.78000000026,"y":2564750.7700000033}},{"attributes":{"ID":22173,"DIS_CODE":0,"TOWNNAME":"官田區","LI":"官田里","LIN":"17鄰","STREET":" ","SECT":" ","MAREA":"官田","LANE":" ","ALLEY":" ","HOUSE_NO":"２２０號","E_COORD97":182102.92000000001,"N_COORD97":2564748.1800000002,"ADDRESS":"官田２２０號","OBJECTID":22173},"geometry":{"x":182102.92000000086,"y":2564748.1800000034}},{"attributes":{"ID":22174,"DIS_CODE":0,"TOWNNAME":"官田區","LI":"官田里","LIN":"17鄰","STREET":" ","SECT":" ","MAREA":"官田","LANE":" ","ALLEY":" ","HOUSE_NO":"２２１號","E_COORD97":182090.54999999999,"N_COORD97":2564746.7400000002,"ADDRESS":"官田２２１號","OBJECTID":22174},"geometry":{"x":182090.54999999981,"y":2564746.7400000002}},{"attributes":{"ID":22175,"DIS_CODE":0,"TOWNNAME":"官田區","LI":"官田里","LIN":"17鄰","STREET":" ","SECT":" ","MAREA":"官田","LANE":" ","ALLEY":" ","HOUSE_NO":"２２２號之２０","E_COORD97":180985.28,"N_COORD97":2565092.3700000001,"ADDRESS":"官田２２２號之２０","OBJECTID":22175},"geometry":{"x":180985.28000000119,"y":2565092.370000001}},{"attributes":{"ID":22176,"DIS_CODE":0,"TOWNNAME":"官田區","LI":"官田里","LIN":"17鄰","STREET":" ","SECT":" ","MAREA":"官田","LANE":" ","ALLEY":" ","HOUSE_NO":"２２２號之２１","E_COORD97":180980.70000000001,"N_COORD97":2565092.3700000001,"ADDRESS":"官田２２２號之２１","OBJECTID":22176},"geometry":{"x":180980.70000000112,"y":2565092.370000001}},{"attributes":{"ID":22177,"DIS_CODE":0,"TOWNNAME":"官田區","LI":"官田里","LIN":"17鄰","STREET":" ","SECT":" ","MAREA":"官田","LANE":" ","ALLEY":" ","HOUSE_NO":"２２２號","E_COORD97":181884.39999999999,"N_COORD97":2564781.5600000001,"ADDRESS":"官田２２２號","OBJECTID":22177},"geometry":{"x":181884.40000000224,"y":2564781.5600000024}},{"attributes":{"ID":22178,"DIS_CODE":0,"TOWNNAME":"官田區","LI":"官田里","LIN":"17鄰","STREET":" ","SECT":" ","MAREA":"官田","LANE":" ","ALLEY":" ","HOUSE_NO":"２２３號之１０","E_COORD97":182117.76999999999,"N_COORD97":2564511.3100000001,"ADDRESS":"官田２２３號之１０","OBJECTID":22178},"geometry":{"x":182117.76999999955,"y":2564511.3100000024}},{"attributes":{"ID":22179,"DIS_CODE":0,"TOWNNAME":"官田區","LI":"官田里","LIN":"17鄰","STREET":" ","SECT":" ","MAREA":"官田","LANE":" ","ALLEY":" ","HOUSE_NO":"２２３號之１２","E_COORD97":181869,"N_COORD97":2564688.52,"ADDRESS":"官田２２３號之１２","OBJECTID":22179},"geometry":{"x":181869,"y":2564688.5200000014}},{"attributes":{"ID":22180,"DIS_CODE":0,"TOWNNAME":"官田區","LI":"官田里","LIN":"17鄰","STREET":" ","SECT":" ","MAREA":"官田","LANE":" ","ALLEY":" ","HOUSE_NO":"２２３號之１８","E_COORD97":181906.76000000001,"N_COORD97":2564759.3700000001,"ADDRESS":"官田２２３號之１８","OBJECTID":22180},"geometry":{"x":181906.76000000164,"y":2564759.3700000029}},{"attributes":{"ID":22181,"DIS_CODE":0,"TOWNNAME":"官田區","LI":"官田里","LIN":"17鄰","STREET":" ","SECT":" ","MAREA":"官田","LANE":" ","ALLEY":" ","HOUSE_NO":"２２３號之７","E_COORD97":181925.79000000001,"N_COORD97":2564712.3900000001,"ADDRESS":"官田２２３號之７","OBJECTID":22181},"geometry":{"x":181925.79000000097,"y":2564712.3900000006}},{"attributes":{"ID":22182,"DIS_CODE":0,"TOWNNAME":"官田區","LI":"官田里","LIN":"17鄰","STREET":" ","SECT":" ","MAREA":"官田","LANE":" ","ALLEY":" ","HOUSE_NO":"２２３號","E_COORD97":181953.70000000001,"N_COORD97":2564725.4199999999,"ADDRESS":"官田２２３號","OBJECTID":22182},"geometry":{"x":181953.70000000112,"y":2564725.4199999999}},{"attributes":{"ID":22183,"DIS_CODE":0,"TOWNNAME":"官田區","LI":"官田里","LIN":"17鄰","STREET":" ","SECT":" ","MAREA":"官田","LANE":" ","ALLEY":" ","HOUSE_NO":"２２４號之１","E_COORD97":182009.20000000001,"N_COORD97":2564651.6200000001,"ADDRESS":"官田２２４號之１","OBJECTID":22183},"geometry":{"x":182009.19999999925,"y":2564651.6200000048}},{"attributes":{"ID":22184,"DIS_CODE":0,"TOWNNAME":"官田區","LI":"東庄里","LIN":"17鄰","STREET":" ","SECT":" ","MAREA":"東庄","LANE":" ","ALLEY":" ","HOUSE_NO":"１４號","E_COORD97":178424.85999999999,"N_COORD97":2565277.1800000002,"ADDRESS":"東庄１４號","OBJECTID":22184},"geometry":{"x":178424.8600000022,"y":2565277.1800000034}},{"attributes":{"ID":22185,"DIS_CODE":0,"TOWNNAME":"官田區","LI":"東庄里","LIN":"17鄰","STREET":" ","SECT":" ","MAREA":"東庄","LANE":" ","ALLEY":" ","HOUSE_NO":"１５號","E_COORD97":178422.67000000001,"N_COORD97":2565298.0099999998,"ADDRESS":"東庄１５號","OBJECTID":22185},"geometry":{"x":178422.67000000086,"y":2565298.0099999998}},{"attributes":{"ID":22186,"DIS_CODE":0,"TOWNNAME":"永康區","LI":"神洲里","LIN":"14鄰","STREET":"忠孝路","SECT":" ","MAREA":" ","LANE":"７６巷","ALLEY":"４９弄","HOUSE_NO":"４號四樓","E_COORD97":172208.23000000001,"N_COORD97":2545008.1000000001,"ADDRESS":"忠孝路７６巷４９弄４號四樓","OBJECTID":22186},"geometry":{"x":172208.23000000138,"y":2545008.0999999996}},{"attributes":{"ID":22187,"DIS_CODE":0,"TOWNNAME":"官田區","LI":"東庄里","LIN":"17鄰","STREET":" ","SECT":" ","MAREA":"東庄","LANE":" ","ALLEY":" ","HOUSE_NO":"１６號之１","E_COORD97":178390.01000000001,"N_COORD97":2565307.8999999999,"ADDRESS":"東庄１６號之１","OBJECTID":22187},"geometry":{"x":178390.01000000071,"y":2565307.9000000022}},{"attributes":{"ID":22188,"DIS_CODE":0,"TOWNNAME":"官田區","LI":"東庄里","LIN":"17鄰","STREET":" ","SECT":" ","MAREA":"東庄","LANE":" ","ALLEY":" ","HOUSE_NO":"１６號之３","E_COORD97":178324.54000000001,"N_COORD97":2565280.1299999999,"ADDRESS":"東庄１６號之３","OBJECTID":22188},"geometry":{"x":178324.54000000004,"y":2565280.1300000027}},{"attributes":{"ID":22189,"DIS_CODE":0,"TOWNNAME":"永康區","LI":"安康里","LIN":"14鄰","STREET":"中華路","SECT":" ","MAREA":" ","LANE":"６１９巷","ALLEY":"８８弄","HOUSE_NO":"２４號一樓之５","E_COORD97":170871.5,"N_COORD97":2546063.54,"ADDRESS":"中華路６１９巷８８弄２４號一樓之５","OBJECTID":22189},"geometry":{"x":170871.50000000093,"y":2546063.5399999991}},{"attributes":{"ID":22190,"DIS_CODE":0,"TOWNNAME":"官田區","LI":"東庄里","LIN":"17鄰","STREET":" ","SECT":" ","MAREA":"東庄","LANE":" ","ALLEY":" ","HOUSE_NO":"１６號之４","E_COORD97":178323.16,"N_COORD97":2565284.5299999998,"ADDRESS":"東庄１６號之４","OBJECTID":22190},"geometry":{"x":178323.16000000108,"y":2565284.5300000031}},{"attributes":{"ID":22191,"DIS_CODE":0,"TOWNNAME":"官田區","LI":"東庄里","LIN":"17鄰","STREET":" ","SECT":" ","MAREA":"東庄","LANE":" ","ALLEY":" ","HOUSE_NO":"１６號之５","E_COORD97":178321.85000000001,"N_COORD97":2565289.79,"ADDRESS":"東庄１６號之５","OBJECTID":22191},"geometry":{"x":178321.84999999963,"y":2565289.790000001}},{"attributes":{"ID":22192,"DIS_CODE":0,"TOWNNAME":"官田區","LI":"東庄里","LIN":"17鄰","STREET":" ","SECT":" ","MAREA":"東庄","LANE":" ","ALLEY":" ","HOUSE_NO":"１６號之６","E_COORD97":178321.01999999999,"N_COORD97":2565294.1499999999,"ADDRESS":"東庄１６號之６","OBJECTID":22192},"geometry":{"x":178321.01999999862,"y":2565294.1500000004}},{"attributes":{"ID":22193,"DIS_CODE":0,"TOWNNAME":"永康區","LI":"安康里","LIN":"14鄰","STREET":"中華路","SECT":" ","MAREA":" ","LANE":"６１９巷","ALLEY":"８８弄","HOUSE_NO":"２４號一樓之１","E_COORD97":170871.35000000001,"N_COORD97":2546063.54,"ADDRESS":"中華路６１９巷８８弄２４號一樓之１","OBJECTID":22193},"geometry":{"x":170871.34999999963,"y":2546063.5399999991}},{"attributes":{"ID":22194,"DIS_CODE":0,"TOWNNAME":"官田區","LI":"東庄里","LIN":"17鄰","STREET":" ","SECT":" ","MAREA":"東庄","LANE":" ","ALLEY":" ","HOUSE_NO":"１６號之７","E_COORD97":178410.07999999999,"N_COORD97":2565311.3500000001,"ADDRESS":"東庄１６號之７","OBJECTID":22194},"geometry":{"x":178410.08000000101,"y":2565311.3500000015}},{"attributes":{"ID":22195,"DIS_CODE":0,"TOWNNAME":"永康區","LI":"五王里","LIN":"14鄰","STREET":"中華二路","SECT":" ","MAREA":" ","LANE":"２０６巷","ALLEY":"６８弄","HOUSE_NO":"６７號五樓之３","E_COORD97":171647.28,"N_COORD97":2545680.5899999999,"ADDRESS":"中華二路２０６巷６８弄６７號五樓之３","OBJECTID":22195},"geometry":{"x":171647.28000000026,"y":2545680.5899999999}},{"attributes":{"ID":22196,"DIS_CODE":0,"TOWNNAME":"永康區","LI":"安康里","LIN":"14鄰","STREET":"中華路","SECT":" ","MAREA":" ","LANE":"６１９巷","ALLEY":"８８弄","HOUSE_NO":"２４號二樓之８","E_COORD97":170871.5,"N_COORD97":2546063.54,"ADDRESS":"中華路６１９巷８８弄２４號二樓之８","OBJECTID":22196},"geometry":{"x":170871.50000000093,"y":2546063.5399999991}},{"attributes":{"ID":22197,"DIS_CODE":0,"TOWNNAME":"永康區","LI":"五王里","LIN":"14鄰","STREET":"中華二路","SECT":" ","MAREA":" ","LANE":"２０６巷","ALLEY":"６８弄","HOUSE_NO":"５９號三樓之１","E_COORD97":171642.42999999999,"N_COORD97":2545698.0899999999,"ADDRESS":"中華二路２０６巷６８弄５９號三樓之１","OBJECTID":22197},"geometry":{"x":171642.4299999997,"y":2545698.089999998}},{"attributes":{"ID":22198,"DIS_CODE":0,"TOWNNAME":"永康區","LI":"神洲里","LIN":"14鄰","STREET":"忠孝路","SECT":" ","MAREA":" ","LANE":"７６巷","ALLEY":"６３弄","HOUSE_NO":"２５號五樓","E_COORD97":172224.89000000001,"N_COORD97":2545020.8500000001,"ADDRESS":"忠孝路７６巷６３弄２５號五樓","OBJECTID":22198},"geometry":{"x":172224.8900000006,"y":2545020.8499999996}},{"attributes":{"ID":22199,"DIS_CODE":0,"TOWNNAME":"東區","LI":"崇信里","LIN":"24鄰","STREET":"崇善一街","SECT":" ","MAREA":" ","LANE":" ","ALLEY":" ","HOUSE_NO":"７８號地下二層之１","E_COORD97":170831.85999999999,"N_COORD97":2542290.75,"ADDRESS":"崇善一街７８號地下二層之１","OBJECTID":22199},"geometry":{"x":170831.8599999994,"y":2542290.7500000019}},{"attributes":{"ID":22200,"DIS_CODE":0,"TOWNNAME":"東區","LI":"崇信里","LIN":"24鄰","STREET":"崇善一街","SECT":" ","MAREA":" ","LANE":" ","ALLEY":" ","HOUSE_NO":"８０號","E_COORD97":170834.92000000001,"N_COORD97":2542294.98,"ADDRESS":"崇善一街８０號","OBJECTID":22200},"geometry":{"x":170834.92000000086,"y":2542294.9800000004}}]}