{"displayFieldName":"TOWNNAME","fieldAliases":{"ID":"ID","DIS_CODE":"DIS_CODE","TOWNNAME":"TOWNNAME","LI":"LI","LIN":"LIN","STREET":"STREET","SECT":"SECT","MAREA":"MAREA","LANE":"LANE","ALLEY":"ALLEY","HOUSE_NO":"HOUSE_NO","E_COORD97":"E_COORD97","N_COORD97":"N_COORD97","ADDRESS":"ADDRESS","OBJECTID":"OBJECTID"},"geometryType":"esriGeometryPoint","spatialReference":{"wkid":102443,"latestWkid":3826},"fields":[{"name":"ID","type":"esriFieldTypeDouble","alias":"ID"},{"name":"DIS_CODE","type":"esriFieldTypeInteger","alias":"DIS_CODE"},{"name":"TOWNNAME","type":"esriFieldTypeString","alias":"TOWNNAME","length":8},{"name":"LI","type":"esriFieldTypeString","alias":"LI","length":8},{"name":"LIN","type":"esriFieldTypeString","alias":"LIN","length":12},{"name":"STREET","type":"esriFieldTypeString","alias":"STREET","length":20},{"name":"SECT","type":"esriFieldTypeString","alias":"SECT","length":8},{"name":"MAREA","type":"esriFieldTypeString","alias":"MAREA","length":12},{"name":"LANE","type":"esriFieldTypeString","alias":"LANE","length":10},{"name":"ALLEY","type":"esriFieldTypeString","alias":"ALLEY","length":10},{"name":"HOUSE_NO","type":"esriFieldTypeString","alias":"HOUSE_NO","length":20},{"name":"E_COORD97","type":"esriFieldTypeDouble","alias":"E_COORD97"},{"name":"N_COORD97","type":"esriFieldTypeDouble","alias":"N_COORD97"},{"name":"ADDRESS","type":"esriFieldTypeString","alias":"ADDRESS","length":50},{"name":"OBJECTID","type":"esriFieldTypeOID","alias":"OBJECTID"}],"features":[{"attributes":{"ID":569828,"DIS_CODE":0,"TOWNNAME":"歸仁區","LI":"歸仁里","LIN":"28鄰","STREET":"中山路","SECT":"一段","MAREA":" ","LANE":" ","ALLEY":" ","HOUSE_NO":"２４號","E_COORD97":179592.82999999999,"N_COORD97":2540331.5699999998,"ADDRESS":"中山路一段２４號","OBJECTID":569801},"geometry":{"x":179592.83000000101,"y":2540331.5700000003}},{"attributes":{"ID":569829,"DIS_CODE":0,"TOWNNAME":"歸仁區","LI":"後市里","LIN":"28鄰","STREET":"民族北街","SECT":" ","MAREA":" ","LANE":" ","ALLEY":" ","HOUSE_NO":"２５號","E_COORD97":177425.82999999999,"N_COORD97":2540903.75,"ADDRESS":"民族北街２５號","OBJECTID":569802},"geometry":{"x":177425.83000000007,"y":2540903.7500000019}},{"attributes":{"ID":569830,"DIS_CODE":0,"TOWNNAME":"歸仁區","LI":"歸仁里","LIN":"28鄰","STREET":"中山路","SECT":"一段","MAREA":" ","LANE":" ","ALLEY":" ","HOUSE_NO":"１２號","E_COORD97":179616.32999999999,"N_COORD97":2540323.5699999998,"ADDRESS":"中山路一段１２號","OBJECTID":569803},"geometry":{"x":179616.33000000194,"y":2540323.5700000003}},{"attributes":{"ID":569831,"DIS_CODE":0,"TOWNNAME":"歸仁區","LI":"六甲里","LIN":"28鄰","STREET":"六甲二街","SECT":" ","MAREA":" ","LANE":" ","ALLEY":" ","HOUSE_NO":"４８號","E_COORD97":175848.42999999999,"N_COORD97":2539289.25,"ADDRESS":"六甲二街４８號","OBJECTID":569804},"geometry":{"x":175848.4299999997,"y":2539289.25}},{"attributes":{"ID":569832,"DIS_CODE":0,"TOWNNAME":"歸仁區","LI":"歸南里","LIN":"28鄰","STREET":"民生南街","SECT":"二段","MAREA":" ","LANE":" ","ALLEY":" ","HOUSE_NO":"２７８號","E_COORD97":176060.95999999999,"N_COORD97":2540011.25,"ADDRESS":"民生南街二段２７８號","OBJECTID":569805},"geometry":{"x":176060.96000000089,"y":2540011.25}},{"attributes":{"ID":569833,"DIS_CODE":0,"TOWNNAME":"歸仁區","LI":"媽廟里","LIN":"28鄰","STREET":"保大路","SECT":"一段","MAREA":" ","LANE":" ","ALLEY":" ","HOUSE_NO":"１４８號","E_COORD97":177726.42999999999,"N_COORD97":2544032.7200000002,"ADDRESS":"保大路一段１４８號","OBJECTID":569806},"geometry":{"x":177726.4299999997,"y":2544032.7200000007}},{"attributes":{"ID":569834,"DIS_CODE":0,"TOWNNAME":"歸仁區","LI":"歸仁里","LIN":"28鄰","STREET":"中山路","SECT":"一段","MAREA":" ","LANE":" ","ALLEY":" ","HOUSE_NO":"２６０號","E_COORD97":178686.01000000001,"N_COORD97":2540667.25,"ADDRESS":"中山路一段２６０號","OBJECTID":569807},"geometry":{"x":178686.01000000164,"y":2540667.2500000019}},{"attributes":{"ID":569835,"DIS_CODE":0,"TOWNNAME":"歸仁區","LI":"歸仁里","LIN":"28鄰","STREET":"中山路","SECT":"一段","MAREA":" ","LANE":" ","ALLEY":" ","HOUSE_NO":"９２號","E_COORD97":179309.32999999999,"N_COORD97":2540454.5699999998,"ADDRESS":"中山路一段９２號","OBJECTID":569808},"geometry":{"x":179309.33000000007,"y":2540454.5700000022}},{"attributes":{"ID":569836,"DIS_CODE":0,"TOWNNAME":"歸仁區","LI":"歸仁里","LIN":"28鄰","STREET":"中山路","SECT":"一段","MAREA":" ","LANE":" ","ALLEY":" ","HOUSE_NO":"６２號","E_COORD97":179455.73000000001,"N_COORD97":2540398.5699999998,"ADDRESS":"中山路一段６２號","OBJECTID":569809},"geometry":{"x":179455.73000000045,"y":2540398.5700000003}},{"attributes":{"ID":569837,"DIS_CODE":0,"TOWNNAME":"歸仁區","LI":"歸仁里","LIN":"28鄰","STREET":"中山路","SECT":"一段","MAREA":" ","LANE":" ","ALLEY":" ","HOUSE_NO":"１０號","E_COORD97":179620.42999999999,"N_COORD97":2540322.5699999998,"ADDRESS":"中山路一段１０號","OBJECTID":569810},"geometry":{"x":179620.43000000156,"y":2540322.5700000022}},{"attributes":{"ID":569838,"DIS_CODE":0,"TOWNNAME":"歸仁區","LI":"歸仁里","LIN":"28鄰","STREET":"中山路","SECT":"一段","MAREA":" ","LANE":" ","ALLEY":" ","HOUSE_NO":"２２號","E_COORD97":179596.92999999999,"N_COORD97":2540330.5699999998,"ADDRESS":"中山路一段２２號","OBJECTID":569811},"geometry":{"x":179596.93000000063,"y":2540330.5700000003}},{"attributes":{"ID":569839,"DIS_CODE":0,"TOWNNAME":"歸仁區","LI":"歸仁里","LIN":"28鄰","STREET":"中山路","SECT":"一段","MAREA":" ","LANE":" ","ALLEY":" ","HOUSE_NO":"３２號","E_COORD97":179575.42999999999,"N_COORD97":2540335.5699999998,"ADDRESS":"中山路一段３２號","OBJECTID":569812},"geometry":{"x":179575.43000000063,"y":2540335.570000004}},{"attributes":{"ID":569840,"DIS_CODE":0,"TOWNNAME":"歸仁區","LI":"歸仁里","LIN":"28鄰","STREET":"中山路","SECT":"一段","MAREA":" ","LANE":" ","ALLEY":" ","HOUSE_NO":"２３６之１１號","E_COORD97":178853.56,"N_COORD97":2540605.2599999998,"ADDRESS":"中山路一段２３６之１１號","OBJECTID":569813},"geometry":{"x":178853.56000000052,"y":2540605.2600000016}},{"attributes":{"ID":569841,"DIS_CODE":0,"TOWNNAME":"歸仁區","LI":"歸仁里","LIN":"28鄰","STREET":"中山路","SECT":"一段","MAREA":" ","LANE":" ","ALLEY":" ","HOUSE_NO":"５６號","E_COORD97":179457.63,"N_COORD97":2540375.5699999998,"ADDRESS":"中山路一段５６號","OBJECTID":569814},"geometry":{"x":179457.62999999989,"y":2540375.5700000003}},{"attributes":{"ID":569842,"DIS_CODE":0,"TOWNNAME":"歸仁區","LI":"歸仁里","LIN":"28鄰","STREET":"中山路","SECT":"一段","MAREA":" ","LANE":" ","ALLEY":" ","HOUSE_NO":"２８號","E_COORD97":179583.63,"N_COORD97":2540333.5699999998,"ADDRESS":"中山路一段２８號","OBJECTID":569815},"geometry":{"x":179583.63000000175,"y":2540333.5700000022}},{"attributes":{"ID":569843,"DIS_CODE":0,"TOWNNAME":"歸仁區","LI":"辜厝里","LIN":"28鄰","STREET":"大吉二街","SECT":" ","MAREA":" ","LANE":" ","ALLEY":" ","HOUSE_NO":"１１號","E_COORD97":177247.94,"N_COORD97":2540548.6800000002,"ADDRESS":"大吉二街１１號","OBJECTID":569816},"geometry":{"x":177247.94000000227,"y":2540548.6800000016}},{"attributes":{"ID":569844,"DIS_CODE":0,"TOWNNAME":"歸仁區","LI":"崙頂里","LIN":"28鄰","STREET":"成功十街","SECT":" ","MAREA":" ","LANE":" ","ALLEY":" ","HOUSE_NO":"７８號","E_COORD97":177797.84,"N_COORD97":2539734.5499999998,"ADDRESS":"成功十街７８號","OBJECTID":569817},"geometry":{"x":177797.84000000078,"y":2539734.5500000007}},{"attributes":{"ID":569845,"DIS_CODE":0,"TOWNNAME":"歸仁區","LI":"許厝里","LIN":"28鄰","STREET":"中山路","SECT":"一段","MAREA":" ","LANE":" ","ALLEY":" ","HOUSE_NO":"４９０號","E_COORD97":177922.38,"N_COORD97":2540753.04,"ADDRESS":"中山路一段４９０號","OBJECTID":569818},"geometry":{"x":177922.38000000175,"y":2540753.0399999991}},{"attributes":{"ID":569846,"DIS_CODE":0,"TOWNNAME":"歸仁區","LI":"許厝里","LIN":"28鄰","STREET":"中山路","SECT":"一段","MAREA":" ","LANE":" ","ALLEY":" ","HOUSE_NO":"５０２號","E_COORD97":177895.78,"N_COORD97":2540757.04,"ADDRESS":"中山路一段５０２號","OBJECTID":569819},"geometry":{"x":177895.78000000026,"y":2540757.0399999991}},{"attributes":{"ID":569847,"DIS_CODE":0,"TOWNNAME":"歸仁區","LI":"辜厝里","LIN":"28鄰","STREET":"大吉二街","SECT":" ","MAREA":" ","LANE":" ","ALLEY":" ","HOUSE_NO":"２５號","E_COORD97":177283.94,"N_COORD97":2540551.6699999999,"ADDRESS":"大吉二街２５號","OBJECTID":569820},"geometry":{"x":177283.94000000134,"y":2540551.6700000018}},{"attributes":{"ID":569848,"DIS_CODE":0,"TOWNNAME":"歸仁區","LI":"許厝里","LIN":"28鄰","STREET":"中山路","SECT":"一段","MAREA":" ","LANE":" ","ALLEY":" ","HOUSE_NO":"４９４號","E_COORD97":177914.17999999999,"N_COORD97":2540754.04,"ADDRESS":"中山路一段４９４號","OBJECTID":569821},"geometry":{"x":177914.18000000063,"y":2540754.0399999991}},{"attributes":{"ID":569849,"DIS_CODE":0,"TOWNNAME":"歸仁區","LI":"許厝里","LIN":"28鄰","STREET":"中山路","SECT":"一段","MAREA":" ","LANE":" ","ALLEY":" ","HOUSE_NO":"４９６號","E_COORD97":177909.07999999999,"N_COORD97":2540755.04,"ADDRESS":"中山路一段４９６號","OBJECTID":569822},"geometry":{"x":177909.08000000007,"y":2540755.040000001}},{"attributes":{"ID":569850,"DIS_CODE":0,"TOWNNAME":"歸仁區","LI":"崙頂里","LIN":"28鄰","STREET":"成功十街","SECT":" ","MAREA":" ","LANE":" ","ALLEY":" ","HOUSE_NO":"８４號","E_COORD97":177799.94,"N_COORD97":2539751.5499999998,"ADDRESS":"成功十街８４號","OBJECTID":569823},"geometry":{"x":177799.94000000041,"y":2539751.5500000007}},{"attributes":{"ID":569851,"DIS_CODE":0,"TOWNNAME":"中西區","LI":"光賢里","LIN":"13鄰","STREET":"西和路","SECT":" ","MAREA":" ","LANE":" ","ALLEY":" ","HOUSE_NO":"１５號","E_COORD97":166722.64999999999,"N_COORD97":2544446.23,"ADDRESS":"西和路１５號","OBJECTID":569824},"geometry":{"x":166722.65000000224,"y":2544446.2300000004}},{"attributes":{"ID":569852,"DIS_CODE":0,"TOWNNAME":"歸仁區","LI":"後市里","LIN":"28鄰","STREET":"民族北街","SECT":" ","MAREA":" ","LANE":" ","ALLEY":" ","HOUSE_NO":"２７號","E_COORD97":177425.92999999999,"N_COORD97":2540906.75,"ADDRESS":"民族北街２７號","OBJECTID":569825},"geometry":{"x":177425.93000000063,"y":2540906.7500000037}},{"attributes":{"ID":569853,"DIS_CODE":0,"TOWNNAME":"新營區","LI":"新南里","LIN":"28鄰","STREET":"明清街","SECT":" ","MAREA":" ","LANE":" ","ALLEY":" ","HOUSE_NO":"５０號","E_COORD97":178255.57000000001,"N_COORD97":2578718.3799999999,"ADDRESS":"明清街５０號","OBJECTID":569826},"geometry":{"x":178255.57000000216,"y":2578718.3800000008}},{"attributes":{"ID":569854,"DIS_CODE":0,"TOWNNAME":"歸仁區","LI":"南興里","LIN":"28鄰","STREET":"文化街","SECT":"三段","MAREA":" ","LANE":" ","ALLEY":" ","HOUSE_NO":"７８０號","E_COORD97":175327.04000000001,"N_COORD97":2541210.8300000001,"ADDRESS":"文化街三段７８０號","OBJECTID":569827},"geometry":{"x":175327.04000000004,"y":2541210.8300000001}},{"attributes":{"ID":569855,"DIS_CODE":0,"TOWNNAME":"歸仁區","LI":"辜厝里","LIN":"28鄰","STREET":"大吉二街","SECT":" ","MAREA":" ","LANE":" ","ALLEY":" ","HOUSE_NO":"１５號","E_COORD97":177262.34,"N_COORD97":2540548.6800000002,"ADDRESS":"大吉二街１５號","OBJECTID":569828},"geometry":{"x":177262.33999999985,"y":2540548.6800000016}},{"attributes":{"ID":569856,"DIS_CODE":0,"TOWNNAME":"歸仁區","LI":"崙頂里","LIN":"28鄰","STREET":"成功十街","SECT":" ","MAREA":" ","LANE":" ","ALLEY":" ","HOUSE_NO":"１０２號","E_COORD97":177795.29000000001,"N_COORD97":2539797.5499999998,"ADDRESS":"成功十街１０２號","OBJECTID":569829},"geometry":{"x":177795.29000000004,"y":2539797.5500000026}},{"attributes":{"ID":569857,"DIS_CODE":0,"TOWNNAME":"新營區","LI":"新南里","LIN":"28鄰","STREET":"明清街","SECT":" ","MAREA":" ","LANE":" ","ALLEY":" ","HOUSE_NO":"５２號","E_COORD97":178258.64999999999,"N_COORD97":2578720.5800000001,"ADDRESS":"明清街５２號","OBJECTID":569830},"geometry":{"x":178258.6500000013,"y":2578720.5800000001}},{"attributes":{"ID":569858,"DIS_CODE":0,"TOWNNAME":"新營區","LI":"新北里","LIN":"28鄰","STREET":"新北二街","SECT":" ","MAREA":" ","LANE":" ","ALLEY":" ","HOUSE_NO":"７號","E_COORD97":178822.29999999999,"N_COORD97":2578778.77,"ADDRESS":"新北二街７號","OBJECTID":569831},"geometry":{"x":178822.29999999981,"y":2578778.7699999996}},{"attributes":{"ID":569859,"DIS_CODE":0,"TOWNNAME":"新營區","LI":"新南里","LIN":"28鄰","STREET":"明清二街","SECT":" ","MAREA":" ","LANE":" ","ALLEY":" ","HOUSE_NO":"７號","E_COORD97":178249.94,"N_COORD97":2578657.5,"ADDRESS":"明清二街７號","OBJECTID":569832},"geometry":{"x":178249.94000000134,"y":2578657.5000000019}},{"attributes":{"ID":569860,"DIS_CODE":0,"TOWNNAME":"新營區","LI":"新南里","LIN":"28鄰","STREET":"明清街","SECT":" ","MAREA":" ","LANE":" ","ALLEY":" ","HOUSE_NO":"９６號","E_COORD97":178344.87,"N_COORD97":2578793.2599999998,"ADDRESS":"明清街９６號","OBJECTID":569833},"geometry":{"x":178344.87000000197,"y":2578793.2599999998}},{"attributes":{"ID":569861,"DIS_CODE":0,"TOWNNAME":"新營區","LI":"新南里","LIN":"28鄰","STREET":"明清街","SECT":" ","MAREA":" ","LANE":" ","ALLEY":" ","HOUSE_NO":"５４號","E_COORD97":178261.73999999999,"N_COORD97":2578723.8999999999,"ADDRESS":"明清街５４號","OBJECTID":569834},"geometry":{"x":178261.74000000115,"y":2578723.9000000022}},{"attributes":{"ID":569862,"DIS_CODE":0,"TOWNNAME":"新營區","LI":"新南里","LIN":"28鄰","STREET":"明清二街","SECT":" ","MAREA":" ","LANE":" ","ALLEY":" ","HOUSE_NO":"７１號","E_COORD97":178360.63,"N_COORD97":2578654.7599999998,"ADDRESS":"明清二街７１號","OBJECTID":569835},"geometry":{"x":178360.62999999989,"y":2578654.7599999979}},{"attributes":{"ID":569863,"DIS_CODE":0,"TOWNNAME":"新營區","LI":"大宏里","LIN":"28鄰","STREET":"新東街","SECT":" ","MAREA":" ","LANE":" ","ALLEY":" ","HOUSE_NO":"３２號","E_COORD97":180798.20999999999,"N_COORD97":2578669.7400000002,"ADDRESS":"新東街３２號","OBJECTID":569836},"geometry":{"x":180798.20999999996,"y":2578669.7400000021}},{"attributes":{"ID":569864,"DIS_CODE":0,"TOWNNAME":"新營區","LI":"新北里","LIN":"28鄰","STREET":"新北二街","SECT":" ","MAREA":" ","LANE":" ","ALLEY":" ","HOUSE_NO":"６之４號","E_COORD97":178882.92999999999,"N_COORD97":2578747.54,"ADDRESS":"新北二街６之４號","OBJECTID":569837},"geometry":{"x":178882.93000000156,"y":2578747.5400000028}},{"attributes":{"ID":569865,"DIS_CODE":0,"TOWNNAME":"新營區","LI":"新東里","LIN":"28鄰","STREET":"東興九街","SECT":" ","MAREA":" ","LANE":" ","ALLEY":" ","HOUSE_NO":"５０號","E_COORD97":180635.62,"N_COORD97":2579785.71,"ADDRESS":"東興九街５０號","OBJECTID":569838},"geometry":{"x":180635.62000000104,"y":2579785.7100000046}},{"attributes":{"ID":569866,"DIS_CODE":0,"TOWNNAME":"新營區","LI":"三仙里","LIN":"28鄰","STREET":"育德街","SECT":" ","MAREA":" ","LANE":" ","ALLEY":" ","HOUSE_NO":"９８號","E_COORD97":179599.01000000001,"N_COORD97":2579253.4900000002,"ADDRESS":"育德街９８號","OBJECTID":569839},"geometry":{"x":179599.00999999978,"y":2579253.4900000002}},{"attributes":{"ID":569867,"DIS_CODE":0,"TOWNNAME":"新營區","LI":"三仙里","LIN":"28鄰","STREET":"育德街","SECT":" ","MAREA":" ","LANE":" ","ALLEY":" ","HOUSE_NO":"９４號","E_COORD97":179598.98000000001,"N_COORD97":2579245.7400000002,"ADDRESS":"育德街９４號","OBJECTID":569840},"geometry":{"x":179598.98000000138,"y":2579245.7400000039}},{"attributes":{"ID":569868,"DIS_CODE":0,"TOWNNAME":"新營區","LI":"三仙里","LIN":"28鄰","STREET":"育德街","SECT":" ","MAREA":" ","LANE":" ","ALLEY":" ","HOUSE_NO":"９６號","E_COORD97":179599,"N_COORD97":2579250.1699999999,"ADDRESS":"育德街９６號","OBJECTID":569841},"geometry":{"x":179599.00000000093,"y":2579250.1700000018}},{"attributes":{"ID":569869,"DIS_CODE":0,"TOWNNAME":"新營區","LI":"三仙里","LIN":"28鄰","STREET":"育德街","SECT":" ","MAREA":" ","LANE":" ","ALLEY":" ","HOUSE_NO":"５４號","E_COORD97":179599.37,"N_COORD97":2579101.7599999998,"ADDRESS":"育德街５４號","OBJECTID":569842},"geometry":{"x":179599.37000000104,"y":2579101.7599999998}},{"attributes":{"ID":569870,"DIS_CODE":0,"TOWNNAME":"新營區","LI":"三仙里","LIN":"28鄰","STREET":"育德街","SECT":" ","MAREA":" ","LANE":" ","ALLEY":" ","HOUSE_NO":"７８號","E_COORD97":179602.94,"N_COORD97":2579205.8399999999,"ADDRESS":"育德街７８號","OBJECTID":569843},"geometry":{"x":179602.94000000134,"y":2579205.8399999999}},{"attributes":{"ID":569871,"DIS_CODE":0,"TOWNNAME":"新營區","LI":"三仙里","LIN":"28鄰","STREET":"育德街","SECT":" ","MAREA":" ","LANE":" ","ALLEY":" ","HOUSE_NO":"４２號","E_COORD97":179602.38,"N_COORD97":2579077.3799999999,"ADDRESS":"育德街４２號","OBJECTID":569844},"geometry":{"x":179602.38000000175,"y":2579077.3800000008}},{"attributes":{"ID":569872,"DIS_CODE":0,"TOWNNAME":"新營區","LI":"三仙里","LIN":"28鄰","STREET":"育德街","SECT":" ","MAREA":" ","LANE":" ","ALLEY":" ","HOUSE_NO":"９０號","E_COORD97":179598.95000000001,"N_COORD97":2579237.98,"ADDRESS":"育德街９０號","OBJECTID":569845},"geometry":{"x":179598.95000000112,"y":2579237.9800000023}},{"attributes":{"ID":569873,"DIS_CODE":0,"TOWNNAME":"歸仁區","LI":"南興里","LIN":"28鄰","STREET":"文化街","SECT":"三段","MAREA":" ","LANE":" ","ALLEY":" ","HOUSE_NO":"７７８號","E_COORD97":175331.14000000001,"N_COORD97":2541210.8300000001,"ADDRESS":"文化街三段７７８號","OBJECTID":569846},"geometry":{"x":175331.13999999966,"y":2541210.8300000001}},{"attributes":{"ID":569874,"DIS_CODE":0,"TOWNNAME":"歸仁區","LI":"新厝里","LIN":"28鄰","STREET":"中正五街","SECT":" ","MAREA":" ","LANE":" ","ALLEY":" ","HOUSE_NO":"１０號","E_COORD97":176995.32999999999,"N_COORD97":2540060.79,"ADDRESS":"中正五街１０號","OBJECTID":569847},"geometry":{"x":176995.33000000007,"y":2540060.7899999991}},{"attributes":{"ID":569875,"DIS_CODE":0,"TOWNNAME":"關廟區","LI":"東勢里","LIN":"28鄰","STREET":"東榮街","SECT":" ","MAREA":" ","LANE":" ","ALLEY":" ","HOUSE_NO":"２８７號","E_COORD97":182491.57000000001,"N_COORD97":2539092.25,"ADDRESS":"東榮街２８７號","OBJECTID":569848},"geometry":{"x":182491.5700000003,"y":2539092.25}},{"attributes":{"ID":569876,"DIS_CODE":0,"TOWNNAME":"關廟區","LI":"東勢里","LIN":"28鄰","STREET":"東榮街","SECT":" ","MAREA":" ","LANE":" ","ALLEY":" ","HOUSE_NO":"１３９號","E_COORD97":182212.42999999999,"N_COORD97":2539364.1099999999,"ADDRESS":"東榮街１３９號","OBJECTID":569849},"geometry":{"x":182212.43000000156,"y":2539364.1099999994}},{"attributes":{"ID":569877,"DIS_CODE":0,"TOWNNAME":"關廟區","LI":"香洋里","LIN":"28鄰","STREET":"大仁街","SECT":" ","MAREA":" ","LANE":" ","ALLEY":" ","HOUSE_NO":"４０５號","E_COORD97":180965.87,"N_COORD97":2539800.25,"ADDRESS":"大仁街４０５號","OBJECTID":569850},"geometry":{"x":180965.87000000104,"y":2539800.25}},{"attributes":{"ID":569878,"DIS_CODE":0,"TOWNNAME":"關廟區","LI":"香洋里","LIN":"28鄰","STREET":"大富街","SECT":" ","MAREA":" ","LANE":" ","ALLEY":" ","HOUSE_NO":"３４８號","E_COORD97":181002.67000000001,"N_COORD97":2539839.25,"ADDRESS":"大富街３４８號","OBJECTID":569851},"geometry":{"x":181002.67000000086,"y":2539839.2500000019}},{"attributes":{"ID":569879,"DIS_CODE":0,"TOWNNAME":"關廟區","LI":"香洋里","LIN":"28鄰","STREET":"大富街","SECT":" ","MAREA":" ","LANE":" ","ALLEY":" ","HOUSE_NO":"３６６號","E_COORD97":180998.47,"N_COORD97":2539888.25,"ADDRESS":"大富街３６６號","OBJECTID":569852},"geometry":{"x":180998.4700000016,"y":2539888.25}},{"attributes":{"ID":569880,"DIS_CODE":0,"TOWNNAME":"關廟區","LI":"香洋里","LIN":"28鄰","STREET":"大富街","SECT":" ","MAREA":" ","LANE":" ","ALLEY":" ","HOUSE_NO":"３５１號","E_COORD97":180987.67000000001,"N_COORD97":2539905.25,"ADDRESS":"大富街３５１號","OBJECTID":569853},"geometry":{"x":180987.67000000086,"y":2539905.25}},{"attributes":{"ID":569881,"DIS_CODE":0,"TOWNNAME":"關廟區","LI":"香洋里","LIN":"28鄰","STREET":"大富街","SECT":" ","MAREA":" ","LANE":" ","ALLEY":" ","HOUSE_NO":"３４９號","E_COORD97":180986.57000000001,"N_COORD97":2539895.25,"ADDRESS":"大富街３４９號","OBJECTID":569854},"geometry":{"x":180986.57000000123,"y":2539895.25}},{"attributes":{"ID":569882,"DIS_CODE":0,"TOWNNAME":"關廟區","LI":"香洋里","LIN":"28鄰","STREET":"大仁街","SECT":" ","MAREA":" ","LANE":" ","ALLEY":" ","HOUSE_NO":"３９７號","E_COORD97":180951.67000000001,"N_COORD97":2539791.25,"ADDRESS":"大仁街３９７號","OBJECTID":569855},"geometry":{"x":180951.67000000086,"y":2539791.2500000037}},{"attributes":{"ID":569883,"DIS_CODE":0,"TOWNNAME":"關廟區","LI":"香洋里","LIN":"28鄰","STREET":"中山路","SECT":"二段","MAREA":" ","LANE":" ","ALLEY":" ","HOUSE_NO":"７５號","E_COORD97":181026.41,"N_COORD97":2539871.2799999998,"ADDRESS":"中山路二段７５號","OBJECTID":569856},"geometry":{"x":181026.41000000201,"y":2539871.2799999993}},{"attributes":{"ID":569884,"DIS_CODE":0,"TOWNNAME":"關廟區","LI":"香洋里","LIN":"28鄰","STREET":"大仁街","SECT":" ","MAREA":" ","LANE":" ","ALLEY":" ","HOUSE_NO":"４０３號","E_COORD97":180961.97,"N_COORD97":2539798.25,"ADDRESS":"大仁街４０３號","OBJECTID":569857},"geometry":{"x":180961.96999999974,"y":2539798.2500000037}},{"attributes":{"ID":569885,"DIS_CODE":0,"TOWNNAME":"關廟區","LI":"香洋里","LIN":"28鄰","STREET":"中山路","SECT":"二段","MAREA":" ","LANE":" ","ALLEY":" ","HOUSE_NO":"６９號","E_COORD97":181038.66,"N_COORD97":2539841.23,"ADDRESS":"中山路二段６９號","OBJECTID":569858},"geometry":{"x":181038.66000000108,"y":2539841.2300000004}},{"attributes":{"ID":569886,"DIS_CODE":0,"TOWNNAME":"關廟區","LI":"香洋里","LIN":"28鄰","STREET":"中山路","SECT":"二段","MAREA":" ","LANE":" ","ALLEY":" ","HOUSE_NO":"７１號","E_COORD97":181035.95999999999,"N_COORD97":2539848.23,"ADDRESS":"中山路二段７１號","OBJECTID":569859},"geometry":{"x":181035.96000000183,"y":2539848.2300000004}},{"attributes":{"ID":569887,"DIS_CODE":0,"TOWNNAME":"關廟區","LI":"香洋里","LIN":"28鄰","STREET":"大仁街","SECT":" ","MAREA":" ","LANE":" ","ALLEY":" ","HOUSE_NO":"４０９號","E_COORD97":180973.07000000001,"N_COORD97":2539804.25,"ADDRESS":"大仁街４０９號","OBJECTID":569860},"geometry":{"x":180973.07000000123,"y":2539804.25}},{"attributes":{"ID":569888,"DIS_CODE":0,"TOWNNAME":"關廟區","LI":"香洋里","LIN":"28鄰","STREET":"大富街","SECT":" ","MAREA":" ","LANE":" ","ALLEY":" ","HOUSE_NO":"３６１號","E_COORD97":180991.97,"N_COORD97":2539927.25,"ADDRESS":"大富街３６１號","OBJECTID":569861},"geometry":{"x":180991.97000000067,"y":2539927.2500000019}},{"attributes":{"ID":569889,"DIS_CODE":0,"TOWNNAME":"關廟區","LI":"香洋里","LIN":"28鄰","STREET":"大富街","SECT":" ","MAREA":" ","LANE":" ","ALLEY":" ","HOUSE_NO":"３５３號","E_COORD97":180988.87,"N_COORD97":2539910.25,"ADDRESS":"大富街３５３號","OBJECTID":569862},"geometry":{"x":180988.87000000011,"y":2539910.2500000037}},{"attributes":{"ID":569890,"DIS_CODE":0,"TOWNNAME":"關廟區","LI":"香洋里","LIN":"28鄰","STREET":"大仁街","SECT":" ","MAREA":" ","LANE":" ","ALLEY":" ","HOUSE_NO":"４２９號","E_COORD97":181027.97,"N_COORD97":2539834.25,"ADDRESS":"大仁街４２９號","OBJECTID":569863},"geometry":{"x":181027.97000000067,"y":2539834.25}},{"attributes":{"ID":569891,"DIS_CODE":0,"TOWNNAME":"關廟區","LI":"香洋里","LIN":"28鄰","STREET":"大富街","SECT":" ","MAREA":" ","LANE":" ","ALLEY":" ","HOUSE_NO":"３５７號","E_COORD97":180990.76999999999,"N_COORD97":2539919.25,"ADDRESS":"大富街３５７號","OBJECTID":569864},"geometry":{"x":180990.76999999955,"y":2539919.25}},{"attributes":{"ID":569892,"DIS_CODE":0,"TOWNNAME":"關廟區","LI":"香洋里","LIN":"28鄰","STREET":"大富街","SECT":" ","MAREA":" ","LANE":" ","ALLEY":" ","HOUSE_NO":"３６２號","E_COORD97":180996.97,"N_COORD97":2539879.25,"ADDRESS":"大富街３６２號","OBJECTID":569865},"geometry":{"x":180996.97000000067,"y":2539879.2499999981}},{"attributes":{"ID":569893,"DIS_CODE":0,"TOWNNAME":"關廟區","LI":"香洋里","LIN":"28鄰","STREET":"大仁街","SECT":" ","MAREA":" ","LANE":" ","ALLEY":" ","HOUSE_NO":"４０７號","E_COORD97":180969.67000000001,"N_COORD97":2539802.25,"ADDRESS":"大仁街４０７號","OBJECTID":569866},"geometry":{"x":180969.66999999993,"y":2539802.2500000019}},{"attributes":{"ID":569894,"DIS_CODE":0,"TOWNNAME":"關廟區","LI":"香洋里","LIN":"28鄰","STREET":"大富街","SECT":" ","MAREA":" ","LANE":" ","ALLEY":" ","HOUSE_NO":"３５０號","E_COORD97":181000.37,"N_COORD97":2539844.25,"ADDRESS":"大富街３５０號","OBJECTID":569867},"geometry":{"x":181000.37000000011,"y":2539844.25}},{"attributes":{"ID":569895,"DIS_CODE":0,"TOWNNAME":"關廟區","LI":"香洋里","LIN":"28鄰","STREET":"大富街","SECT":" ","MAREA":" ","LANE":" ","ALLEY":" ","HOUSE_NO":"３５５號","E_COORD97":180989.67000000001,"N_COORD97":2539914.25,"ADDRESS":"大富街３５５號","OBJECTID":569868},"geometry":{"x":180989.66999999993,"y":2539914.2500000019}},{"attributes":{"ID":569896,"DIS_CODE":0,"TOWNNAME":"關廟區","LI":"香洋里","LIN":"28鄰","STREET":"大富街","SECT":" ","MAREA":" ","LANE":" ","ALLEY":" ","HOUSE_NO":"３６５號","E_COORD97":180993.07000000001,"N_COORD97":2539935.25,"ADDRESS":"大富街３６５號","OBJECTID":569869},"geometry":{"x":180993.06999999937,"y":2539935.2500000019}},{"attributes":{"ID":569897,"DIS_CODE":0,"TOWNNAME":"關廟區","LI":"香洋里","LIN":"28鄰","STREET":"大仁街","SECT":" ","MAREA":" ","LANE":" ","ALLEY":" ","HOUSE_NO":"４２７號","E_COORD97":181022.97,"N_COORD97":2539831.25,"ADDRESS":"大仁街４２７號","OBJECTID":569870},"geometry":{"x":181022.96999999974,"y":2539831.25}},{"attributes":{"ID":569898,"DIS_CODE":0,"TOWNNAME":"南區","LI":"文華里","LIN":"22鄰","STREET":"德南街","SECT":" ","MAREA":" ","LANE":" ","ALLEY":" ","HOUSE_NO":"１０２號","E_COORD97":166677.47,"N_COORD97":2542976.2799999998,"ADDRESS":"德南街１０２號","OBJECTID":569871},"geometry":{"x":166677.4700000016,"y":2542976.2799999993}},{"attributes":{"ID":569899,"DIS_CODE":0,"TOWNNAME":"安平區","LI":"華平里","LIN":"28鄰","STREET":"平通路","SECT":" ","MAREA":" ","LANE":" ","ALLEY":" ","HOUSE_NO":"４０７號","E_COORD97":165440.98000000001,"N_COORD97":2543738.4700000002,"ADDRESS":"平通路４０７號","OBJECTID":569872},"geometry":{"x":165440.98000000138,"y":2543738.4700000025}},{"attributes":{"ID":569900,"DIS_CODE":0,"TOWNNAME":"安平區","LI":"華平里","LIN":"28鄰","STREET":"平通路","SECT":" ","MAREA":" ","LANE":" ","ALLEY":" ","HOUSE_NO":"４１１號","E_COORD97":165424.39000000001,"N_COORD97":2543743.2400000002,"ADDRESS":"平通路４１１號","OBJECTID":569873},"geometry":{"x":165424.38999999966,"y":2543743.2400000002}},{"attributes":{"ID":569901,"DIS_CODE":0,"TOWNNAME":"安平區","LI":"華平里","LIN":"28鄰","STREET":"平通路","SECT":" ","MAREA":" ","LANE":" ","ALLEY":" ","HOUSE_NO":"４６３號","E_COORD97":165241.01000000001,"N_COORD97":2543768.02,"ADDRESS":"平通路４６３號","OBJECTID":569874},"geometry":{"x":165241.00999999978,"y":2543768.0199999996}},{"attributes":{"ID":569902,"DIS_CODE":0,"TOWNNAME":"安平區","LI":"華平里","LIN":"28鄰","STREET":"平通路","SECT":" ","MAREA":" ","LANE":" ","ALLEY":" ","HOUSE_NO":"４６５號","E_COORD97":165236.39999999999,"N_COORD97":2543768.5,"ADDRESS":"平通路４６５號","OBJECTID":569875},"geometry":{"x":165236.4000000013,"y":2543768.5}},{"attributes":{"ID":569903,"DIS_CODE":0,"TOWNNAME":"安平區","LI":"華平里","LIN":"28鄰","STREET":"平通路","SECT":" ","MAREA":" ","LANE":" ","ALLEY":" ","HOUSE_NO":"４６７號","E_COORD97":165231.64000000001,"N_COORD97":2543768.9700000002,"ADDRESS":"平通路４６７號","OBJECTID":569876},"geometry":{"x":165231.63999999966,"y":2543768.9700000025}},{"attributes":{"ID":569904,"DIS_CODE":0,"TOWNNAME":"安平區","LI":"華平里","LIN":"28鄰","STREET":"平通路","SECT":" ","MAREA":" ","LANE":" ","ALLEY":" ","HOUSE_NO":"４６９號","E_COORD97":165227.04000000001,"N_COORD97":2543769.29,"ADDRESS":"平通路４６９號","OBJECTID":569877},"geometry":{"x":165227.04000000004,"y":2543769.2899999991}},{"attributes":{"ID":569905,"DIS_CODE":0,"TOWNNAME":"安平區","LI":"華平里","LIN":"28鄰","STREET":"平通路","SECT":" ","MAREA":" ","LANE":" ","ALLEY":" ","HOUSE_NO":"４７１號","E_COORD97":165222.91,"N_COORD97":2543769.77,"ADDRESS":"平通路４７１號","OBJECTID":569878},"geometry":{"x":165222.91000000015,"y":2543769.7699999996}},{"attributes":{"ID":569906,"DIS_CODE":0,"TOWNNAME":"安平區","LI":"華平里","LIN":"28鄰","STREET":"平通路","SECT":" ","MAREA":" ","LANE":" ","ALLEY":" ","HOUSE_NO":"４７３號","E_COORD97":165218.62,"N_COORD97":2543769.6099999999,"ADDRESS":"平通路４７３號","OBJECTID":569879},"geometry":{"x":165218.62000000011,"y":2543769.6100000013}},{"attributes":{"ID":569907,"DIS_CODE":0,"TOWNNAME":"關廟區","LI":"香洋里","LIN":"28鄰","STREET":"大富街","SECT":" ","MAREA":" ","LANE":" ","ALLEY":" ","HOUSE_NO":"３４７號","E_COORD97":180985.37,"N_COORD97":2539890.25,"ADDRESS":"大富街３４７號","OBJECTID":569880},"geometry":{"x":180985.37000000011,"y":2539890.2500000019}},{"attributes":{"ID":569908,"DIS_CODE":0,"TOWNNAME":"北區","LI":"文元里","LIN":"28鄰","STREET":"文賢一路","SECT":" ","MAREA":" ","LANE":" ","ALLEY":" ","HOUSE_NO":"２６２號","E_COORD97":167535.37,"N_COORD97":2545725.3700000001,"ADDRESS":"文賢一路２６２號","OBJECTID":569881},"geometry":{"x":167535.37000000104,"y":2545725.3700000029}},{"attributes":{"ID":569909,"DIS_CODE":0,"TOWNNAME":"北區","LI":"文元里","LIN":"28鄰","STREET":"文賢一路","SECT":" ","MAREA":" ","LANE":" ","ALLEY":" ","HOUSE_NO":"２６０號","E_COORD97":167535.84,"N_COORD97":2545721.0800000001,"ADDRESS":"文賢一路２６０號","OBJECTID":569882},"geometry":{"x":167535.83999999985,"y":2545721.0800000001}},{"attributes":{"ID":569910,"DIS_CODE":0,"TOWNNAME":"北區","LI":"文元里","LIN":"28鄰","STREET":"文賢一路","SECT":" ","MAREA":" ","LANE":" ","ALLEY":" ","HOUSE_NO":"２５８號","E_COORD97":167536.48000000001,"N_COORD97":2545716.1600000001,"ADDRESS":"文賢一路２５８號","OBJECTID":569883},"geometry":{"x":167536.48000000138,"y":2545716.160000002}},{"attributes":{"ID":569911,"DIS_CODE":0,"TOWNNAME":"北區","LI":"文元里","LIN":"28鄰","STREET":"文賢一路","SECT":" ","MAREA":" ","LANE":" ","ALLEY":" ","HOUSE_NO":"２５６號","E_COORD97":167536.95000000001,"N_COORD97":2545709.1800000002,"ADDRESS":"文賢一路２５６號","OBJECTID":569884},"geometry":{"x":167536.95000000019,"y":2545709.1800000016}},{"attributes":{"ID":569912,"DIS_CODE":0,"TOWNNAME":"北區","LI":"文元里","LIN":"28鄰","STREET":"文賢一路","SECT":" ","MAREA":" ","LANE":" ","ALLEY":" ","HOUSE_NO":"２５２號","E_COORD97":167537.75,"N_COORD97":2545703.1400000001,"ADDRESS":"文賢一路２５２號","OBJECTID":569885},"geometry":{"x":167537.75000000093,"y":2545703.1400000025}},{"attributes":{"ID":569913,"DIS_CODE":0,"TOWNNAME":"北區","LI":"文元里","LIN":"28鄰","STREET":"文賢一路","SECT":" ","MAREA":" ","LANE":" ","ALLEY":" ","HOUSE_NO":"２５０號","E_COORD97":167539.01999999999,"N_COORD97":2545696.9500000002,"ADDRESS":"文賢一路２５０號","OBJECTID":569886},"geometry":{"x":167539.01999999955,"y":2545696.9500000011}},{"attributes":{"ID":569914,"DIS_CODE":0,"TOWNNAME":"北區","LI":"大港里","LIN":"28鄰","STREET":"大興街","SECT":" ","MAREA":" ","LANE":" ","ALLEY":" ","HOUSE_NO":"３８２號","E_COORD97":166265.67999999999,"N_COORD97":2545556.5899999999,"ADDRESS":"大興街３８２號","OBJECTID":569887},"geometry":{"x":166265.68000000156,"y":2545556.5900000017}},{"attributes":{"ID":569915,"DIS_CODE":0,"TOWNNAME":"北區","LI":"大港里","LIN":"28鄰","STREET":"賢北街","SECT":" ","MAREA":" ","LANE":" ","ALLEY":" ","HOUSE_NO":"１２４號","E_COORD97":166224.17000000001,"N_COORD97":2545572.3700000001,"ADDRESS":"賢北街１２４號","OBJECTID":569888},"geometry":{"x":166224.17000000086,"y":2545572.3700000048}},{"attributes":{"ID":569916,"DIS_CODE":0,"TOWNNAME":"北區","LI":"大港里","LIN":"28鄰","STREET":"賢北街","SECT":" ","MAREA":" ","LANE":" ","ALLEY":" ","HOUSE_NO":"１２８號","E_COORD97":166220.70000000001,"N_COORD97":2545582.6299999999,"ADDRESS":"賢北街１２８號","OBJECTID":569889},"geometry":{"x":166220.70000000112,"y":2545582.6300000008}},{"attributes":{"ID":569917,"DIS_CODE":0,"TOWNNAME":"北區","LI":"大港里","LIN":"28鄰","STREET":"賢北街","SECT":" ","MAREA":" ","LANE":" ","ALLEY":" ","HOUSE_NO":"１３０號","E_COORD97":166214.85999999999,"N_COORD97":2545597.5600000001,"ADDRESS":"賢北街１３０號","OBJECTID":569890},"geometry":{"x":166214.86000000127,"y":2545597.5600000042}},{"attributes":{"ID":569918,"DIS_CODE":0,"TOWNNAME":"北區","LI":"大港里","LIN":"28鄰","STREET":"賢北街","SECT":" ","MAREA":" ","LANE":" ","ALLEY":" ","HOUSE_NO":"１３０號之１","E_COORD97":166218.45999999999,"N_COORD97":2545599.02,"ADDRESS":"賢北街１３０號之１","OBJECTID":569891},"geometry":{"x":166218.46000000089,"y":2545599.0199999996}},{"attributes":{"ID":569919,"DIS_CODE":0,"TOWNNAME":"北區","LI":"大港里","LIN":"28鄰","STREET":"賢北街","SECT":" ","MAREA":" ","LANE":" ","ALLEY":" ","HOUSE_NO":"１３０號之２","E_COORD97":166222.34,"N_COORD97":2545600.5699999998,"ADDRESS":"賢北街１３０號之２","OBJECTID":569892},"geometry":{"x":166222.34000000171,"y":2545600.570000004}},{"attributes":{"ID":569920,"DIS_CODE":0,"TOWNNAME":"北區","LI":"大港里","LIN":"28鄰","STREET":"賢北街","SECT":" ","MAREA":" ","LANE":" ","ALLEY":" ","HOUSE_NO":"１３０號之３","E_COORD97":166227.07000000001,"N_COORD97":2545602.1099999999,"ADDRESS":"賢北街１３０號之３","OBJECTID":569893},"geometry":{"x":166227.07000000123,"y":2545602.1099999994}},{"attributes":{"ID":569921,"DIS_CODE":0,"TOWNNAME":"北區","LI":"大港里","LIN":"28鄰","STREET":"賢北街","SECT":" ","MAREA":" ","LANE":" ","ALLEY":" ","HOUSE_NO":"１３０號之４","E_COORD97":166230.79999999999,"N_COORD97":2545603.3799999999,"ADDRESS":"賢北街１３０號之４","OBJECTID":569894},"geometry":{"x":166230.79999999981,"y":2545603.379999999}},{"attributes":{"ID":569922,"DIS_CODE":0,"TOWNNAME":"北區","LI":"大港里","LIN":"28鄰","STREET":"賢北街","SECT":" ","MAREA":" ","LANE":" ","ALLEY":" ","HOUSE_NO":"１３０號之５","E_COORD97":166235.54000000001,"N_COORD97":2545605.3500000001,"ADDRESS":"賢北街１３０號之５","OBJECTID":569895},"geometry":{"x":166235.54000000097,"y":2545605.3500000015}},{"attributes":{"ID":569923,"DIS_CODE":0,"TOWNNAME":"北區","LI":"大港里","LIN":"28鄰","STREET":"賢北街","SECT":" ","MAREA":" ","LANE":" ","ALLEY":" ","HOUSE_NO":"１３２號","E_COORD97":166231.91,"N_COORD97":2545613.6600000001,"ADDRESS":"賢北街１３２號","OBJECTID":569896},"geometry":{"x":166231.91000000015,"y":2545613.6600000039}},{"attributes":{"ID":569924,"DIS_CODE":0,"TOWNNAME":"北區","LI":"大港里","LIN":"28鄰","STREET":"賢北街","SECT":" ","MAREA":" ","LANE":" ","ALLEY":" ","HOUSE_NO":"１３４號","E_COORD97":166227.89000000001,"N_COORD97":2545612.1099999999,"ADDRESS":"賢北街１３４號","OBJECTID":569897},"geometry":{"x":166227.88999999966,"y":2545612.1099999994}},{"attributes":{"ID":569925,"DIS_CODE":0,"TOWNNAME":"北區","LI":"大港里","LIN":"28鄰","STREET":"賢北街","SECT":" ","MAREA":" ","LANE":" ","ALLEY":" ","HOUSE_NO":"１３６號","E_COORD97":166223.01000000001,"N_COORD97":2545610.4300000002,"ADDRESS":"賢北街１３６號","OBJECTID":569898},"geometry":{"x":166223.01000000071,"y":2545610.4299999997}},{"attributes":{"ID":569926,"DIS_CODE":0,"TOWNNAME":"北區","LI":"大港里","LIN":"28鄰","STREET":"賢北街","SECT":" ","MAREA":" ","LANE":" ","ALLEY":" ","HOUSE_NO":"１３８號","E_COORD97":166220.14000000001,"N_COORD97":2545609.02,"ADDRESS":"賢北街１３８號","OBJECTID":569899},"geometry":{"x":166220.14000000153,"y":2545609.0199999996}},{"attributes":{"ID":569927,"DIS_CODE":0,"TOWNNAME":"北區","LI":"大港里","LIN":"28鄰","STREET":"賢北街","SECT":" ","MAREA":" ","LANE":" ","ALLEY":" ","HOUSE_NO":"１４０號","E_COORD97":166215.39999999999,"N_COORD97":2545607.48,"ADDRESS":"賢北街１４０號","OBJECTID":569900},"geometry":{"x":166215.40000000037,"y":2545607.4800000004}},{"attributes":{"ID":569928,"DIS_CODE":0,"TOWNNAME":"北區","LI":"大港里","LIN":"28鄰","STREET":"賢北街","SECT":" ","MAREA":" ","LANE":" ","ALLEY":" ","HOUSE_NO":"１４２號","E_COORD97":166211.23999999999,"N_COORD97":2545605.79,"ADDRESS":"賢北街１４２號","OBJECTID":569901},"geometry":{"x":166211.24000000022,"y":2545605.790000001}},{"attributes":{"ID":569929,"DIS_CODE":0,"TOWNNAME":"北區","LI":"大港里","LIN":"28鄰","STREET":"賢北街","SECT":" ","MAREA":" ","LANE":" ","ALLEY":" ","HOUSE_NO":"１４６號","E_COORD97":166205.82000000001,"N_COORD97":2545620.1600000001,"ADDRESS":"賢北街１４６號","OBJECTID":569902},"geometry":{"x":166205.8200000003,"y":2545620.1600000039}},{"attributes":{"ID":569930,"DIS_CODE":0,"TOWNNAME":"北區","LI":"大港里","LIN":"28鄰","STREET":"賢北街","SECT":" ","MAREA":" ","LANE":" ","ALLEY":" ","HOUSE_NO":"１４８號","E_COORD97":166204.72,"N_COORD97":2545624.5299999998,"ADDRESS":"賢北街１４８號","OBJECTID":569903},"geometry":{"x":166204.72000000067,"y":2545624.5300000012}},{"attributes":{"ID":569931,"DIS_CODE":0,"TOWNNAME":"北區","LI":"大港里","LIN":"28鄰","STREET":"賢北街","SECT":" ","MAREA":" ","LANE":" ","ALLEY":" ","HOUSE_NO":"１６０號","E_COORD97":166194.54000000001,"N_COORD97":2545649.8399999999,"ADDRESS":"賢北街１６０號","OBJECTID":569904},"geometry":{"x":166194.54000000097,"y":2545649.8400000017}},{"attributes":{"ID":569932,"DIS_CODE":0,"TOWNNAME":"北區","LI":"大港里","LIN":"28鄰","STREET":"賢北街","SECT":" ","MAREA":" ","LANE":" ","ALLEY":" ","HOUSE_NO":"１６６號","E_COORD97":166190.67999999999,"N_COORD97":2545664.1400000001,"ADDRESS":"賢北街１６６號","OBJECTID":569905},"geometry":{"x":166190.6799999997,"y":2545664.1400000006}},{"attributes":{"ID":569933,"DIS_CODE":0,"TOWNNAME":"北區","LI":"大港里","LIN":"28鄰","STREET":"賢北街","SECT":" ","MAREA":" ","LANE":" ","ALLEY":" ","HOUSE_NO":"１６８號","E_COORD97":166189.57999999999,"N_COORD97":2545668.6499999999,"ADDRESS":"賢北街１６８號","OBJECTID":569906},"geometry":{"x":166189.58000000101,"y":2545668.6500000022}},{"attributes":{"ID":569934,"DIS_CODE":0,"TOWNNAME":"北區","LI":"大港里","LIN":"28鄰","STREET":"賢北街","SECT":" ","MAREA":" ","LANE":" ","ALLEY":" ","HOUSE_NO":"１７２號","E_COORD97":166238.91,"N_COORD97":2545741.23,"ADDRESS":"賢北街１７２號","OBJECTID":569907},"geometry":{"x":166238.91000000015,"y":2545741.2300000004}},{"attributes":{"ID":569935,"DIS_CODE":0,"TOWNNAME":"北區","LI":"大港里","LIN":"28鄰","STREET":"賢北街","SECT":" ","MAREA":" ","LANE":" ","ALLEY":" ","HOUSE_NO":"１７４號","E_COORD97":166234.64000000001,"N_COORD97":2545738.2799999998,"ADDRESS":"賢北街１７４號","OBJECTID":569908},"geometry":{"x":166234.63999999966,"y":2545738.2800000012}},{"attributes":{"ID":569936,"DIS_CODE":0,"TOWNNAME":"北區","LI":"大港里","LIN":"28鄰","STREET":"賢北街","SECT":" ","MAREA":" ","LANE":" ","ALLEY":" ","HOUSE_NO":"１７６號","E_COORD97":166230.07000000001,"N_COORD97":2545735.6400000001,"ADDRESS":"賢北街１７６號","OBJECTID":569909},"geometry":{"x":166230.07000000123,"y":2545735.6400000006}},{"attributes":{"ID":569937,"DIS_CODE":0,"TOWNNAME":"北區","LI":"大港里","LIN":"28鄰","STREET":"賢北街","SECT":" ","MAREA":" ","LANE":" ","ALLEY":" ","HOUSE_NO":"１７８號","E_COORD97":166226.20999999999,"N_COORD97":2545732.2799999998,"ADDRESS":"賢北街１７８號","OBJECTID":569910},"geometry":{"x":166226.20999999996,"y":2545732.2799999993}},{"attributes":{"ID":569938,"DIS_CODE":0,"TOWNNAME":"北區","LI":"大港里","LIN":"28鄰","STREET":"賢北街","SECT":" ","MAREA":" ","LANE":" ","ALLEY":" ","HOUSE_NO":"１８０號","E_COORD97":166222.26000000001,"N_COORD97":2545729.6400000001,"ADDRESS":"賢北街１８０號","OBJECTID":569911},"geometry":{"x":166222.25999999978,"y":2545729.6400000025}},{"attributes":{"ID":569939,"DIS_CODE":0,"TOWNNAME":"北區","LI":"大港里","LIN":"28鄰","STREET":"賢北街","SECT":" ","MAREA":" ","LANE":" ","ALLEY":" ","HOUSE_NO":"１８２號","E_COORD97":166218.81,"N_COORD97":2545726.3799999999,"ADDRESS":"賢北街１８２號","OBJECTID":569912},"geometry":{"x":166218.80999999866,"y":2545726.3800000008}},{"attributes":{"ID":569940,"DIS_CODE":0,"TOWNNAME":"北區","LI":"大港里","LIN":"28鄰","STREET":"賢北街","SECT":" ","MAREA":" ","LANE":" ","ALLEY":" ","HOUSE_NO":"１８４號","E_COORD97":166213.66,"N_COORD97":2545722.73,"ADDRESS":"賢北街１８４號","OBJECTID":569913},"geometry":{"x":166213.65999999922,"y":2545722.7300000023}},{"attributes":{"ID":569941,"DIS_CODE":0,"TOWNNAME":"北區","LI":"大港里","LIN":"28鄰","STREET":"賢北街","SECT":" ","MAREA":" ","LANE":" ","ALLEY":" ","HOUSE_NO":"１８６號","E_COORD97":166209.81,"N_COORD97":2545719.6800000002,"ADDRESS":"賢北街１８６號","OBJECTID":569914},"geometry":{"x":166209.80999999959,"y":2545719.6799999997}},{"attributes":{"ID":569942,"DIS_CODE":0,"TOWNNAME":"北區","LI":"大港里","LIN":"28鄰","STREET":"賢北街","SECT":" ","MAREA":" ","LANE":" ","ALLEY":" ","HOUSE_NO":"１８８號","E_COORD97":166206.06,"N_COORD97":2545717.1400000001,"ADDRESS":"賢北街１８８號","OBJECTID":569915},"geometry":{"x":166206.06000000052,"y":2545717.1400000025}},{"attributes":{"ID":569943,"DIS_CODE":0,"TOWNNAME":"北區","LI":"大港里","LIN":"28鄰","STREET":"賢北街","SECT":" ","MAREA":" ","LANE":" ","ALLEY":" ","HOUSE_NO":"１９０號","E_COORD97":166201.78,"N_COORD97":2545713.2799999998,"ADDRESS":"賢北街１９０號","OBJECTID":569916},"geometry":{"x":166201.78000000119,"y":2545713.2799999975}},{"attributes":{"ID":569944,"DIS_CODE":0,"TOWNNAME":"北區","LI":"大港里","LIN":"28鄰","STREET":"賢北街","SECT":" ","MAREA":" ","LANE":" ","ALLEY":" ","HOUSE_NO":"１９２號","E_COORD97":166198.03,"N_COORD97":2545710.4300000002,"ADDRESS":"賢北街１９２號","OBJECTID":569917},"geometry":{"x":166198.03000000119,"y":2545710.4300000016}},{"attributes":{"ID":569945,"DIS_CODE":0,"TOWNNAME":"北區","LI":"大港里","LIN":"28鄰","STREET":"賢北街","SECT":" ","MAREA":" ","LANE":" ","ALLEY":" ","HOUSE_NO":"１９４號","E_COORD97":166194.17999999999,"N_COORD97":2545707.5800000001,"ADDRESS":"賢北街１９４號","OBJECTID":569918},"geometry":{"x":166194.1799999997,"y":2545707.5800000001}},{"attributes":{"ID":569946,"DIS_CODE":0,"TOWNNAME":"北區","LI":"大港里","LIN":"28鄰","STREET":"賢北街","SECT":" ","MAREA":" ","LANE":" ","ALLEY":" ","HOUSE_NO":"１９６號","E_COORD97":166190.01000000001,"N_COORD97":2545704.4300000002,"ADDRESS":"賢北街１９６號","OBJECTID":569919},"geometry":{"x":166190.00999999978,"y":2545704.4299999997}},{"attributes":{"ID":569947,"DIS_CODE":0,"TOWNNAME":"北區","LI":"大港里","LIN":"28鄰","STREET":"賢北街","SECT":" ","MAREA":" ","LANE":" ","ALLEY":" ","HOUSE_NO":"１９８號","E_COORD97":166185.95000000001,"N_COORD97":2545701.3799999999,"ADDRESS":"賢北街１９８號","OBJECTID":569920},"geometry":{"x":166185.95000000019,"y":2545701.379999999}},{"attributes":{"ID":569948,"DIS_CODE":0,"TOWNNAME":"北區","LI":"大港里","LIN":"28鄰","STREET":"賢北街","SECT":" ","MAREA":" ","LANE":" ","ALLEY":" ","HOUSE_NO":"２００號","E_COORD97":166182.20000000001,"N_COORD97":2545697.9199999999,"ADDRESS":"賢北街２００號","OBJECTID":569921},"geometry":{"x":166182.20000000019,"y":2545697.9199999999}},{"attributes":{"ID":569949,"DIS_CODE":0,"TOWNNAME":"北區","LI":"大港里","LIN":"28鄰","STREET":"賢北街","SECT":" ","MAREA":" ","LANE":" ","ALLEY":" ","HOUSE_NO":"２０２號","E_COORD97":166178.03,"N_COORD97":2545695.1699999999,"ADDRESS":"賢北街２０２號","OBJECTID":569922},"geometry":{"x":166178.03000000119,"y":2545695.1700000018}},{"attributes":{"ID":569950,"DIS_CODE":0,"TOWNNAME":"北區","LI":"大港里","LIN":"28鄰","STREET":"賢北街","SECT":" ","MAREA":" ","LANE":" ","ALLEY":" ","HOUSE_NO":"２０４號","E_COORD97":166174.89999999999,"N_COORD97":2545692.2200000002,"ADDRESS":"賢北街２０４號","OBJECTID":569923},"geometry":{"x":166174.90000000037,"y":2545692.2200000025}},{"attributes":{"ID":569951,"DIS_CODE":0,"TOWNNAME":"北區","LI":"大港里","LIN":"28鄰","STREET":"賢北街","SECT":" ","MAREA":" ","LANE":" ","ALLEY":" ","HOUSE_NO":"２０６號","E_COORD97":166163.70999999999,"N_COORD97":2545702.4300000002,"ADDRESS":"賢北街２０６號","OBJECTID":569924},"geometry":{"x":166163.70999999996,"y":2545702.4299999978}},{"attributes":{"ID":569952,"DIS_CODE":0,"TOWNNAME":"北區","LI":"大港里","LIN":"28鄰","STREET":"賢北街","SECT":" ","MAREA":" ","LANE":" ","ALLEY":" ","HOUSE_NO":"２０８號","E_COORD97":166161.06,"N_COORD97":2545706.2000000002,"ADDRESS":"賢北街２０８號","OBJECTID":569925},"geometry":{"x":166161.05999999959,"y":2545706.1999999993}},{"attributes":{"ID":569953,"DIS_CODE":0,"TOWNNAME":"北區","LI":"大港里","LIN":"28鄰","STREET":"賢北街","SECT":" ","MAREA":" ","LANE":" ","ALLEY":" ","HOUSE_NO":"２１０號","E_COORD97":166158.62,"N_COORD97":2545709.6600000001,"ADDRESS":"賢北街２１０號","OBJECTID":569926},"geometry":{"x":166158.62000000104,"y":2545709.660000002}},{"attributes":{"ID":569954,"DIS_CODE":0,"TOWNNAME":"北區","LI":"大港里","LIN":"28鄰","STREET":"賢北街","SECT":" ","MAREA":" ","LANE":" ","ALLEY":" ","HOUSE_NO":"２１２號","E_COORD97":166156.28,"N_COORD97":2545713.7400000002,"ADDRESS":"賢北街２１２號","OBJECTID":569927},"geometry":{"x":166156.28000000026,"y":2545713.7400000002}},{"attributes":{"ID":569955,"DIS_CODE":0,"TOWNNAME":"北區","LI":"大港里","LIN":"28鄰","STREET":"賢北街","SECT":" ","MAREA":" ","LANE":" ","ALLEY":" ","HOUSE_NO":"２１４號","E_COORD97":166153.32000000001,"N_COORD97":2545716.6899999999,"ADDRESS":"賢北街２１４號","OBJECTID":569928},"geometry":{"x":166153.3200000003,"y":2545716.6899999995}},{"attributes":{"ID":569956,"DIS_CODE":0,"TOWNNAME":"北區","LI":"大港里","LIN":"28鄰","STREET":"賢北街","SECT":" ","MAREA":" ","LANE":" ","ALLEY":" ","HOUSE_NO":"２１６號","E_COORD97":166151.17999999999,"N_COORD97":2545719.54,"ADDRESS":"賢北街２１６號","OBJECTID":569929},"geometry":{"x":166151.18000000063,"y":2545719.540000001}},{"attributes":{"ID":569957,"DIS_CODE":0,"TOWNNAME":"新營區","LI":"新南里","LIN":"28鄰","STREET":"明清街","SECT":" ","MAREA":" ","LANE":" ","ALLEY":" ","HOUSE_NO":"４８號","E_COORD97":178252.54000000001,"N_COORD97":2578715.0800000001,"ADDRESS":"明清街４８號","OBJECTID":569930},"geometry":{"x":178252.54000000097,"y":2578715.0800000019}},{"attributes":{"ID":569958,"DIS_CODE":0,"TOWNNAME":"新營區","LI":"三仙里","LIN":"28鄰","STREET":"育德街","SECT":" ","MAREA":" ","LANE":" ","ALLEY":" ","HOUSE_NO":"８８號","E_COORD97":179599.03,"N_COORD97":2579234.6499999999,"ADDRESS":"育德街８８號","OBJECTID":569931},"geometry":{"x":179599.03000000119,"y":2579234.6500000004}},{"attributes":{"ID":569959,"DIS_CODE":0,"TOWNNAME":"新營區","LI":"三仙里","LIN":"28鄰","STREET":"育德街","SECT":" ","MAREA":" ","LANE":" ","ALLEY":" ","HOUSE_NO":"４６號","E_COORD97":179600.37,"N_COORD97":2579085.1499999999,"ADDRESS":"育德街４６號","OBJECTID":569932},"geometry":{"x":179600.37000000011,"y":2579085.1500000022}},{"attributes":{"ID":569960,"DIS_CODE":0,"TOWNNAME":"新營區","LI":"新南里","LIN":"28鄰","STREET":"隋唐街","SECT":" ","MAREA":" ","LANE":" ","ALLEY":" ","HOUSE_NO":"２７８號","E_COORD97":178239.98000000001,"N_COORD97":2578609.9300000002,"ADDRESS":"隋唐街２７８號","OBJECTID":569933},"geometry":{"x":178239.98000000138,"y":2578609.9300000034}},{"attributes":{"ID":569961,"DIS_CODE":0,"TOWNNAME":"新營區","LI":"新南里","LIN":"28鄰","STREET":"明清二街","SECT":" ","MAREA":" ","LANE":" ","ALLEY":" ","HOUSE_NO":"１６６號","E_COORD97":178289.51999999999,"N_COORD97":2578716.0099999998,"ADDRESS":"明清二街１６６號","OBJECTID":569934},"geometry":{"x":178289.52000000048,"y":2578716.0099999998}},{"attributes":{"ID":569962,"DIS_CODE":0,"TOWNNAME":"新營區","LI":"新南里","LIN":"28鄰","STREET":"明清二街","SECT":" ","MAREA":" ","LANE":" ","ALLEY":" ","HOUSE_NO":"１３號","E_COORD97":178266.59,"N_COORD97":2578675.1400000001,"ADDRESS":"明清二街１３號","OBJECTID":569935},"geometry":{"x":178266.58999999892,"y":2578675.1400000025}},{"attributes":{"ID":569963,"DIS_CODE":0,"TOWNNAME":"新營區","LI":"新南里","LIN":"28鄰","STREET":"明清二街","SECT":" ","MAREA":" ","LANE":" ","ALLEY":" ","HOUSE_NO":"１７號","E_COORD97":178265.48000000001,"N_COORD97":2578656.3199999998,"ADDRESS":"明清二街１７號","OBJECTID":569936},"geometry":{"x":178265.48000000138,"y":2578656.3200000022}},{"attributes":{"ID":569964,"DIS_CODE":0,"TOWNNAME":"新營區","LI":"三仙里","LIN":"28鄰","STREET":"育德街","SECT":" ","MAREA":" ","LANE":" ","ALLEY":" ","HOUSE_NO":"６８號","E_COORD97":179601.54999999999,"N_COORD97":2579132.7599999998,"ADDRESS":"育德街６８號","OBJECTID":569937},"geometry":{"x":179601.55000000075,"y":2579132.7599999979}},{"attributes":{"ID":569965,"DIS_CODE":0,"TOWNNAME":"新營區","LI":"新南里","LIN":"28鄰","STREET":"明清二街","SECT":" ","MAREA":" ","LANE":" ","ALLEY":" ","HOUSE_NO":"３２號","E_COORD97":178273.67999999999,"N_COORD97":2578641.8900000001,"ADDRESS":"明清二街３２號","OBJECTID":569938},"geometry":{"x":178273.6799999997,"y":2578641.8900000025}},{"attributes":{"ID":569966,"DIS_CODE":0,"TOWNNAME":"新營區","LI":"三仙里","LIN":"28鄰","STREET":"育德街","SECT":" ","MAREA":" ","LANE":" ","ALLEY":" ","HOUSE_NO":"６２號","E_COORD97":179599.42999999999,"N_COORD97":2579117.2599999998,"ADDRESS":"育德街６２號","OBJECTID":569939},"geometry":{"x":179599.4299999997,"y":2579117.2600000016}},{"attributes":{"ID":569967,"DIS_CODE":0,"TOWNNAME":"新營區","LI":"三仙里","LIN":"28鄰","STREET":"育德街","SECT":" ","MAREA":" ","LANE":" ","ALLEY":" ","HOUSE_NO":"７０號","E_COORD97":179598.63,"N_COORD97":2579158.25,"ADDRESS":"育德街７０號","OBJECTID":569940},"geometry":{"x":179598.62999999989,"y":2579158.2500000019}},{"attributes":{"ID":569968,"DIS_CODE":0,"TOWNNAME":"新營區","LI":"新南里","LIN":"28鄰","STREET":"明清二街","SECT":" ","MAREA":" ","LANE":" ","ALLEY":" ","HOUSE_NO":"１２７號","E_COORD97":178381.45000000001,"N_COORD97":2578690.1000000001,"ADDRESS":"明清二街１２７號","OBJECTID":569941},"geometry":{"x":178381.44999999925,"y":2578690.1000000015}},{"attributes":{"ID":569969,"DIS_CODE":0,"TOWNNAME":"新營區","LI":"新南里","LIN":"28鄰","STREET":"隋唐街","SECT":" ","MAREA":" ","LANE":" ","ALLEY":" ","HOUSE_NO":"２６８號","E_COORD97":178260.42999999999,"N_COORD97":2578608.73,"ADDRESS":"隋唐街２６８號","OBJECTID":569942},"geometry":{"x":178260.4299999997,"y":2578608.7300000023}},{"attributes":{"ID":569970,"DIS_CODE":0,"TOWNNAME":"新營區","LI":"三仙里","LIN":"28鄰","STREET":"育德街","SECT":" ","MAREA":" ","LANE":" ","ALLEY":" ","HOUSE_NO":"６０號","E_COORD97":179599.42000000001,"N_COORD97":2579113.9399999999,"ADDRESS":"育德街６０號","OBJECTID":569943},"geometry":{"x":179599.42000000086,"y":2579113.9399999995}},{"attributes":{"ID":569971,"DIS_CODE":0,"TOWNNAME":"新營區","LI":"三仙里","LIN":"28鄰","STREET":"育德街","SECT":" ","MAREA":" ","LANE":" ","ALLEY":" ","HOUSE_NO":"６６號","E_COORD97":179601.51999999999,"N_COORD97":2579126.1099999999,"ADDRESS":"育德街６６號","OBJECTID":569944},"geometry":{"x":179601.52000000048,"y":2579126.1099999994}},{"attributes":{"ID":569972,"DIS_CODE":0,"TOWNNAME":"新營區","LI":"新南里","LIN":"28鄰","STREET":"明清二街","SECT":" ","MAREA":" ","LANE":" ","ALLEY":" ","HOUSE_NO":"２３號","E_COORD97":178282.95999999999,"N_COORD97":2578660.6699999999,"ADDRESS":"明清二街２３號","OBJECTID":569945},"geometry":{"x":178282.96000000183,"y":2578660.6700000018}},{"attributes":{"ID":569973,"DIS_CODE":0,"TOWNNAME":"歸仁區","LI":"歸仁里","LIN":"28鄰","STREET":"中山路","SECT":"一段","MAREA":" ","LANE":" ","ALLEY":" ","HOUSE_NO":"２３２號","E_COORD97":178817.51999999999,"N_COORD97":2540572.0299999998,"ADDRESS":"中山路一段２３２號","OBJECTID":569946},"geometry":{"x":178817.51999999955,"y":2540572.0300000031}},{"attributes":{"ID":569974,"DIS_CODE":0,"TOWNNAME":"歸仁區","LI":"許厝里","LIN":"28鄰","STREET":"中山路","SECT":"一段","MAREA":" ","LANE":" ","ALLEY":" ","HOUSE_NO":"４８６號","E_COORD97":177933.14999999999,"N_COORD97":2540751.3100000001,"ADDRESS":"中山路一段４８６號","OBJECTID":569947},"geometry":{"x":177933.1500000013,"y":2540751.3100000024}},{"attributes":{"ID":569975,"DIS_CODE":0,"TOWNNAME":"歸仁區","LI":"歸仁里","LIN":"28鄰","STREET":"中山路","SECT":"一段","MAREA":" ","LANE":" ","ALLEY":" ","HOUSE_NO":"８８號","E_COORD97":179350.53,"N_COORD97":2540421.8100000001,"ADDRESS":"中山路一段８８號","OBJECTID":569948},"geometry":{"x":179350.53000000026,"y":2540421.8100000005}},{"attributes":{"ID":569976,"DIS_CODE":0,"TOWNNAME":"安平區","LI":"建平里","LIN":"28鄰","STREET":"永華五街","SECT":" ","MAREA":" ","LANE":" ","ALLEY":" ","HOUSE_NO":"５５號","E_COORD97":165883.04000000001,"N_COORD97":2543545.46,"ADDRESS":"永華五街５５號","OBJECTID":569949},"geometry":{"x":165883.04000000004,"y":2543545.4600000028}},{"attributes":{"ID":569977,"DIS_CODE":0,"TOWNNAME":"安平區","LI":"建平里","LIN":"28鄰","STREET":"永華五街","SECT":" ","MAREA":" ","LANE":" ","ALLEY":" ","HOUSE_NO":"５３號","E_COORD97":165883.32999999999,"N_COORD97":2543539.0600000001,"ADDRESS":"永華五街５３號","OBJECTID":569950},"geometry":{"x":165883.33000000007,"y":2543539.0600000005}},{"attributes":{"ID":569978,"DIS_CODE":0,"TOWNNAME":"安平區","LI":"建平里","LIN":"28鄰","STREET":"永華五街","SECT":" ","MAREA":" ","LANE":" ","ALLEY":" ","HOUSE_NO":"４５號","E_COORD97":165878.97,"N_COORD97":2543519.29,"ADDRESS":"永華五街４５號","OBJECTID":569951},"geometry":{"x":165878.9700000016,"y":2543519.2899999972}},{"attributes":{"ID":569979,"DIS_CODE":0,"TOWNNAME":"安平區","LI":"建平里","LIN":"28鄰","STREET":"永華五街","SECT":" ","MAREA":" ","LANE":" ","ALLEY":" ","HOUSE_NO":"４７號","E_COORD97":165880.56,"N_COORD97":2543525.3199999998,"ADDRESS":"永華五街４７號","OBJECTID":569952},"geometry":{"x":165880.56000000052,"y":2543525.3200000022}},{"attributes":{"ID":569980,"DIS_CODE":0,"TOWNNAME":"安平區","LI":"建平里","LIN":"28鄰","STREET":"永華五街","SECT":" ","MAREA":" ","LANE":" ","ALLEY":" ","HOUSE_NO":"４９號","E_COORD97":165879.60999999999,"N_COORD97":2543530.3999999999,"ADDRESS":"永華五街４９號","OBJECTID":569953},"geometry":{"x":165879.61000000034,"y":2543530.4000000041}},{"attributes":{"ID":569981,"DIS_CODE":0,"TOWNNAME":"安平區","LI":"建平里","LIN":"28鄰","STREET":"永華五街","SECT":" ","MAREA":" ","LANE":" ","ALLEY":" ","HOUSE_NO":"５１號","E_COORD97":165881.19,"N_COORD97":2543535.96,"ADDRESS":"永華五街５１號","OBJECTID":569954},"geometry":{"x":165881.19000000041,"y":2543535.9600000009}},{"attributes":{"ID":569982,"DIS_CODE":0,"TOWNNAME":"安平區","LI":"建平里","LIN":"28鄰","STREET":"永華路","SECT":"二段","MAREA":" ","LANE":" ","ALLEY":" ","HOUSE_NO":"２１０號","E_COORD97":166062.23999999999,"N_COORD97":2543408.98,"ADDRESS":"永華路二段２１０號","OBJECTID":569955},"geometry":{"x":166062.24000000022,"y":2543408.9800000023}},{"attributes":{"ID":569983,"DIS_CODE":0,"TOWNNAME":"安平區","LI":"建平里","LIN":"28鄰","STREET":"永華路","SECT":"二段","MAREA":" ","LANE":" ","ALLEY":" ","HOUSE_NO":"２４０號","E_COORD97":165966.76000000001,"N_COORD97":2543425.3399999999,"ADDRESS":"永華路二段２４０號","OBJECTID":569956},"geometry":{"x":165966.75999999885,"y":2543425.3400000036}},{"attributes":{"ID":569984,"DIS_CODE":0,"TOWNNAME":"安平區","LI":"建平里","LIN":"28鄰","STREET":"建平九街","SECT":" ","MAREA":" ","LANE":" ","ALLEY":" ","HOUSE_NO":"７６號","E_COORD97":165968.26000000001,"N_COORD97":2543544.3199999998,"ADDRESS":"建平九街７６號","OBJECTID":569957},"geometry":{"x":165968.25999999978,"y":2543544.320000004}},{"attributes":{"ID":569985,"DIS_CODE":0,"TOWNNAME":"安平區","LI":"建平里","LIN":"28鄰","STREET":"建平八街","SECT":" ","MAREA":" ","LANE":" ","ALLEY":" ","HOUSE_NO":"１０６號","E_COORD97":165837.38,"N_COORD97":2543506.8999999999,"ADDRESS":"建平八街１０６號","OBJECTID":569958},"geometry":{"x":165837.38000000175,"y":2543506.9000000022}},{"attributes":{"ID":569986,"DIS_CODE":0,"TOWNNAME":"安平區","LI":"建平里","LIN":"28鄰","STREET":"建平八街","SECT":" ","MAREA":" ","LANE":" ","ALLEY":" ","HOUSE_NO":"８８號","E_COORD97":165874.20999999999,"N_COORD97":2543498.0099999998,"ADDRESS":"建平八街８８號","OBJECTID":569959},"geometry":{"x":165874.21000000183,"y":2543498.0099999998}},{"attributes":{"ID":569987,"DIS_CODE":0,"TOWNNAME":"安平區","LI":"建平里","LIN":"28鄰","STREET":"建平八街","SECT":" ","MAREA":" ","LANE":" ","ALLEY":" ","HOUSE_NO":"９０號","E_COORD97":165868.95000000001,"N_COORD97":2543498.5600000001,"ADDRESS":"建平八街９０號","OBJECTID":569960},"geometry":{"x":165868.95000000019,"y":2543498.5600000005}},{"attributes":{"ID":569988,"DIS_CODE":0,"TOWNNAME":"安平區","LI":"建平里","LIN":"28鄰","STREET":"建平八街","SECT":" ","MAREA":" ","LANE":" ","ALLEY":" ","HOUSE_NO":"９２號","E_COORD97":165862.97,"N_COORD97":2543499.46,"ADDRESS":"建平八街９２號","OBJECTID":569961},"geometry":{"x":165862.96999999974,"y":2543499.4600000009}},{"attributes":{"ID":569989,"DIS_CODE":0,"TOWNNAME":"安平區","LI":"建平里","LIN":"28鄰","STREET":"建平八街","SECT":" ","MAREA":" ","LANE":" ","ALLEY":" ","HOUSE_NO":"９６號","E_COORD97":165856.81,"N_COORD97":2543500.8199999998,"ADDRESS":"建平八街９６號","OBJECTID":569962},"geometry":{"x":165856.81000000052,"y":2543500.8200000022}},{"attributes":{"ID":569990,"DIS_CODE":0,"TOWNNAME":"安平區","LI":"建平里","LIN":"28鄰","STREET":"建平八街","SECT":" ","MAREA":" ","LANE":" ","ALLEY":" ","HOUSE_NO":"９８號","E_COORD97":165852.37,"N_COORD97":2543501.2799999998,"ADDRESS":"建平八街９８號","OBJECTID":569963},"geometry":{"x":165852.37000000011,"y":2543501.2799999993}},{"attributes":{"ID":569991,"DIS_CODE":0,"TOWNNAME":"安平區","LI":"建平里","LIN":"28鄰","STREET":"建平八街","SECT":" ","MAREA":" ","LANE":" ","ALLEY":" ","HOUSE_NO":"１００號","E_COORD97":165848.29000000001,"N_COORD97":2543502.3599999999,"ADDRESS":"建平八街１００號","OBJECTID":569964},"geometry":{"x":165848.2900000019,"y":2543502.3600000031}},{"attributes":{"ID":569992,"DIS_CODE":0,"TOWNNAME":"安平區","LI":"建平里","LIN":"28鄰","STREET":"建平八街","SECT":" ","MAREA":" ","LANE":" ","ALLEY":" ","HOUSE_NO":"１０２號","E_COORD97":165843.48999999999,"N_COORD97":2543502.5499999998,"ADDRESS":"建平八街１０２號","OBJECTID":569965},"geometry":{"x":165843.49000000022,"y":2543502.5500000045}},{"attributes":{"ID":569993,"DIS_CODE":0,"TOWNNAME":"歸仁區","LI":"後市里","LIN":"28鄰","STREET":"民族北街","SECT":" ","MAREA":" ","LANE":" ","ALLEY":" ","HOUSE_NO":"２１號","E_COORD97":177424.82999999999,"N_COORD97":2540894.75,"ADDRESS":"民族北街２１號","OBJECTID":569966},"geometry":{"x":177424.83000000101,"y":2540894.7500000019}},{"attributes":{"ID":569994,"DIS_CODE":0,"TOWNNAME":"新營區","LI":"新南里","LIN":"28鄰","STREET":"秦漢街","SECT":" ","MAREA":" ","LANE":" ","ALLEY":" ","HOUSE_NO":"８１號","E_COORD97":178409.38,"N_COORD97":2578787.4100000001,"ADDRESS":"秦漢街８１號","OBJECTID":569967},"geometry":{"x":178409.38000000082,"y":2578787.410000002}},{"attributes":{"ID":569995,"DIS_CODE":0,"TOWNNAME":"新營區","LI":"新南里","LIN":"28鄰","STREET":"明清街","SECT":" ","MAREA":" ","LANE":" ","ALLEY":" ","HOUSE_NO":"１４之２號","E_COORD97":178205.62,"N_COORD97":2578664.4300000002,"ADDRESS":"明清街１４之２號","OBJECTID":569968},"geometry":{"x":178205.61999999918,"y":2578664.4300000016}},{"attributes":{"ID":569996,"DIS_CODE":0,"TOWNNAME":"新營區","LI":"新南里","LIN":"28鄰","STREET":"明清街","SECT":" ","MAREA":" ","LANE":" ","ALLEY":" ","HOUSE_NO":"３２號","E_COORD97":178232.01000000001,"N_COORD97":2578696.3500000001,"ADDRESS":"明清街３２號","OBJECTID":569969},"geometry":{"x":178232.01000000071,"y":2578696.3500000015}},{"attributes":{"ID":569997,"DIS_CODE":0,"TOWNNAME":"新營區","LI":"新南里","LIN":"28鄰","STREET":"明清街","SECT":" ","MAREA":" ","LANE":" ","ALLEY":" ","HOUSE_NO":"４２號","E_COORD97":178246.38,"N_COORD97":2578709.5699999998,"ADDRESS":"明清街４２號","OBJECTID":569970},"geometry":{"x":178246.38000000082,"y":2578709.5700000003}},{"attributes":{"ID":569998,"DIS_CODE":0,"TOWNNAME":"新營區","LI":"新南里","LIN":"28鄰","STREET":"明清街","SECT":" ","MAREA":" ","LANE":" ","ALLEY":" ","HOUSE_NO":"１０號","E_COORD97":178198.84,"N_COORD97":2578625.6400000001,"ADDRESS":"明清街１０號","OBJECTID":569971},"geometry":{"x":178198.84000000171,"y":2578625.6400000006}},{"attributes":{"ID":569999,"DIS_CODE":0,"TOWNNAME":"新營區","LI":"新南里","LIN":"28鄰","STREET":"明清街","SECT":" ","MAREA":" ","LANE":" ","ALLEY":" ","HOUSE_NO":"１４之３號","E_COORD97":178205.62,"N_COORD97":2578664.4300000002,"ADDRESS":"明清街１４之３號","OBJECTID":569972},"geometry":{"x":178205.61999999918,"y":2578664.4300000016}},{"attributes":{"ID":570000,"DIS_CODE":0,"TOWNNAME":"新營區","LI":"新南里","LIN":"28鄰","STREET":"明清街","SECT":" ","MAREA":" ","LANE":" ","ALLEY":" ","HOUSE_NO":"３６號","E_COORD97":178238.17000000001,"N_COORD97":2578701.8599999999,"ADDRESS":"明清街３６號","OBJECTID":569973},"geometry":{"x":178238.17000000086,"y":2578701.8600000013}},{"attributes":{"ID":570001,"DIS_CODE":0,"TOWNNAME":"新營區","LI":"新南里","LIN":"28鄰","STREET":"明清街","SECT":" ","MAREA":" ","LANE":" ","ALLEY":" ","HOUSE_NO":"３４號","E_COORD97":178235.07999999999,"N_COORD97":2578698.5499999998,"ADDRESS":"明清街３４號","OBJECTID":569974},"geometry":{"x":178235.08000000101,"y":2578698.5500000026}},{"attributes":{"ID":570002,"DIS_CODE":0,"TOWNNAME":"新營區","LI":"新南里","LIN":"28鄰","STREET":"明清街","SECT":" ","MAREA":" ","LANE":" ","ALLEY":" ","HOUSE_NO":"１４號","E_COORD97":178203.12,"N_COORD97":2578664.3799999999,"ADDRESS":"明清街１４號","OBJECTID":569975},"geometry":{"x":178203.12000000104,"y":2578664.3800000008}},{"attributes":{"ID":570003,"DIS_CODE":0,"TOWNNAME":"新營區","LI":"新南里","LIN":"28鄰","STREET":"明清街","SECT":" ","MAREA":" ","LANE":" ","ALLEY":" ","HOUSE_NO":"１４之１號","E_COORD97":178205.62,"N_COORD97":2578664.4300000002,"ADDRESS":"明清街１４之１號","OBJECTID":569976},"geometry":{"x":178205.61999999918,"y":2578664.4300000016}},{"attributes":{"ID":570004,"DIS_CODE":0,"TOWNNAME":"新營區","LI":"新南里","LIN":"28鄰","STREET":"明清街","SECT":" ","MAREA":" ","LANE":" ","ALLEY":" ","HOUSE_NO":"４０號","E_COORD97":178243.31,"N_COORD97":2578707.3700000001,"ADDRESS":"明清街４０號","OBJECTID":569977},"geometry":{"x":178243.31000000052,"y":2578707.3700000029}},{"attributes":{"ID":570005,"DIS_CODE":0,"TOWNNAME":"新營區","LI":"新南里","LIN":"28鄰","STREET":"隋唐街","SECT":" ","MAREA":" ","LANE":" ","ALLEY":" ","HOUSE_NO":"２８２號","E_COORD97":178223.62,"N_COORD97":2578611.1200000001,"ADDRESS":"隋唐街２８２號","OBJECTID":569978},"geometry":{"x":178223.62000000011,"y":2578611.1200000029}},{"attributes":{"ID":570006,"DIS_CODE":0,"TOWNNAME":"新營區","LI":"新南里","LIN":"28鄰","STREET":"明清街","SECT":" ","MAREA":" ","LANE":" ","ALLEY":" ","HOUSE_NO":"１８號","E_COORD97":178212.39000000001,"N_COORD97":2578677.6200000001,"ADDRESS":"明清街１８號","OBJECTID":569979},"geometry":{"x":178212.3900000006,"y":2578677.6200000048}},{"attributes":{"ID":570007,"DIS_CODE":0,"TOWNNAME":"新營區","LI":"新南里","LIN":"28鄰","STREET":"明清街","SECT":" ","MAREA":" ","LANE":" ","ALLEY":" ","HOUSE_NO":"１６號","E_COORD97":178209.31,"N_COORD97":2578674.3100000001,"ADDRESS":"明清街１６號","OBJECTID":569980},"geometry":{"x":178209.31000000052,"y":2578674.3100000005}},{"attributes":{"ID":570008,"DIS_CODE":0,"TOWNNAME":"新營區","LI":"新東里","LIN":"28鄰","STREET":"東興七街","SECT":" ","MAREA":" ","LANE":" ","ALLEY":" ","HOUSE_NO":"２８號","E_COORD97":180671.29999999999,"N_COORD97":2579748.9900000002,"ADDRESS":"東興七街２８號","OBJECTID":569981},"geometry":{"x":180671.30000000075,"y":2579748.9900000039}},{"attributes":{"ID":570009,"DIS_CODE":0,"TOWNNAME":"新營區","LI":"新南里","LIN":"28鄰","STREET":"隋唐街","SECT":" ","MAREA":" ","LANE":" ","ALLEY":" ","HOUSE_NO":"２７２號","E_COORD97":178251.23000000001,"N_COORD97":2578609.8799999999,"ADDRESS":"隋唐街２７２號","OBJECTID":569982},"geometry":{"x":178251.23000000231,"y":2578609.8800000008}},{"attributes":{"ID":570010,"DIS_CODE":0,"TOWNNAME":"新營區","LI":"新南里","LIN":"28鄰","STREET":"隋唐街","SECT":" ","MAREA":" ","LANE":" ","ALLEY":" ","HOUSE_NO":"２７６號","E_COORD97":178246.10999999999,"N_COORD97":2578609.8999999999,"ADDRESS":"隋唐街２７６號","OBJECTID":569983},"geometry":{"x":178246.11000000034,"y":2578609.9000000004}},{"attributes":{"ID":570011,"DIS_CODE":0,"TOWNNAME":"新營區","LI":"新南里","LIN":"28鄰","STREET":"隋唐街","SECT":" ","MAREA":" ","LANE":" ","ALLEY":" ","HOUSE_NO":"２４０號","E_COORD97":178306.42000000001,"N_COORD97":2578600.75,"ADDRESS":"隋唐街２４０號","OBJECTID":569984},"geometry":{"x":178306.41999999993,"y":2578600.75}},{"attributes":{"ID":570012,"DIS_CODE":0,"TOWNNAME":"新營區","LI":"新南里","LIN":"28鄰","STREET":"隋唐街","SECT":" ","MAREA":" ","LANE":" ","ALLEY":" ","HOUSE_NO":"２３８號","E_COORD97":178311.53,"N_COORD97":2578599.6200000001,"ADDRESS":"隋唐街２３８號","OBJECTID":569985},"geometry":{"x":178311.52999999933,"y":2578599.6200000048}},{"attributes":{"ID":570013,"DIS_CODE":0,"TOWNNAME":"新營區","LI":"新南里","LIN":"28鄰","STREET":"隋唐街","SECT":" ","MAREA":" ","LANE":" ","ALLEY":" ","HOUSE_NO":"２６０號","E_COORD97":178275.73999999999,"N_COORD97":2578602.0099999998,"ADDRESS":"隋唐街２６０號","OBJECTID":569986},"geometry":{"x":178275.74000000022,"y":2578602.0099999998}},{"attributes":{"ID":570014,"DIS_CODE":0,"TOWNNAME":"新營區","LI":"三仙里","LIN":"28鄰","STREET":"育德街","SECT":" ","MAREA":" ","LANE":" ","ALLEY":" ","HOUSE_NO":"５６號","E_COORD97":179599.38,"N_COORD97":2579105.0800000001,"ADDRESS":"育德街５６號","OBJECTID":569987},"geometry":{"x":179599.38000000082,"y":2579105.0800000019}},{"attributes":{"ID":570015,"DIS_CODE":0,"TOWNNAME":"新營區","LI":"新南里","LIN":"28鄰","STREET":"秦漢街","SECT":" ","MAREA":" ","LANE":" ","ALLEY":" ","HOUSE_NO":"８９號","E_COORD97":178397.17999999999,"N_COORD97":2578801.8700000001,"ADDRESS":"秦漢街８９號","OBJECTID":569988},"geometry":{"x":178397.18000000063,"y":2578801.8700000029}},{"attributes":{"ID":570016,"DIS_CODE":0,"TOWNNAME":"新營區","LI":"大宏里","LIN":"28鄰","STREET":"開元路","SECT":" ","MAREA":" ","LANE":" ","ALLEY":" ","HOUSE_NO":"５１號","E_COORD97":180868.82999999999,"N_COORD97":2578694.8799999999,"ADDRESS":"開元路５１號","OBJECTID":569989},"geometry":{"x":180868.83000000007,"y":2578694.8800000008}},{"attributes":{"ID":570017,"DIS_CODE":0,"TOWNNAME":"新營區","LI":"三仙里","LIN":"28鄰","STREET":"育德街","SECT":" ","MAREA":" ","LANE":" ","ALLEY":" ","HOUSE_NO":"７２號","E_COORD97":179602.60999999999,"N_COORD97":2579184.79,"ADDRESS":"育德街７２號","OBJECTID":569990},"geometry":{"x":179602.61000000034,"y":2579184.7899999991}},{"attributes":{"ID":570018,"DIS_CODE":0,"TOWNNAME":"新營區","LI":"三仙里","LIN":"28鄰","STREET":"育德街","SECT":" ","MAREA":" ","LANE":" ","ALLEY":" ","HOUSE_NO":"８０號","E_COORD97":179599.54000000001,"N_COORD97":2579214.46,"ADDRESS":"育德街８０號","OBJECTID":569991},"geometry":{"x":179599.53999999911,"y":2579214.4600000046}},{"attributes":{"ID":570019,"DIS_CODE":0,"TOWNNAME":"新營區","LI":"新南里","LIN":"28鄰","STREET":"明清二街","SECT":" ","MAREA":" ","LANE":" ","ALLEY":" ","HOUSE_NO":"１０１號","E_COORD97":178424.94,"N_COORD97":2578685,"ADDRESS":"明清二街１０１號","OBJECTID":569992},"geometry":{"x":178424.94000000134,"y":2578685.0000000019}},{"attributes":{"ID":570020,"DIS_CODE":0,"TOWNNAME":"新營區","LI":"新南里","LIN":"28鄰","STREET":"明清二街","SECT":" ","MAREA":" ","LANE":" ","ALLEY":" ","HOUSE_NO":"１０３號","E_COORD97":178419.57999999999,"N_COORD97":2578684.96,"ADDRESS":"明清二街１０３號","OBJECTID":569993},"geometry":{"x":178419.58000000194,"y":2578684.9600000009}},{"attributes":{"ID":570021,"DIS_CODE":0,"TOWNNAME":"新營區","LI":"新南里","LIN":"28鄰","STREET":"明清二街","SECT":" ","MAREA":" ","LANE":" ","ALLEY":" ","HOUSE_NO":"１０５號","E_COORD97":178408,"N_COORD97":2578686.98,"ADDRESS":"明清二街１０５號","OBJECTID":569994},"geometry":{"x":178408,"y":2578686.9800000004}},{"attributes":{"ID":570022,"DIS_CODE":0,"TOWNNAME":"新營區","LI":"新南里","LIN":"28鄰","STREET":"明清二街","SECT":" ","MAREA":" ","LANE":" ","ALLEY":" ","HOUSE_NO":"１０７號","E_COORD97":178399.45000000001,"N_COORD97":2578680.5899999999,"ADDRESS":"明清二街１０７號","OBJECTID":569995},"geometry":{"x":178399.45000000019,"y":2578680.5900000017}},{"attributes":{"ID":570023,"DIS_CODE":0,"TOWNNAME":"新營區","LI":"新南里","LIN":"28鄰","STREET":"明清二街","SECT":" ","MAREA":" ","LANE":" ","ALLEY":" ","HOUSE_NO":"１０９號","E_COORD97":178394.57999999999,"N_COORD97":2578680.6600000001,"ADDRESS":"明清二街１０９號","OBJECTID":569996},"geometry":{"x":178394.58000000101,"y":2578680.660000002}},{"attributes":{"ID":570024,"DIS_CODE":0,"TOWNNAME":"新營區","LI":"新南里","LIN":"28鄰","STREET":"明清二街","SECT":" ","MAREA":" ","LANE":" ","ALLEY":" ","HOUSE_NO":"１３６號","E_COORD97":178382.37,"N_COORD97":2578704.02,"ADDRESS":"明清二街１３６號","OBJECTID":569997},"geometry":{"x":178382.37000000104,"y":2578704.0200000033}},{"attributes":{"ID":570025,"DIS_CODE":0,"TOWNNAME":"新營區","LI":"新南里","LIN":"28鄰","STREET":"明清二街","SECT":" ","MAREA":" ","LANE":" ","ALLEY":" ","HOUSE_NO":"１３８號","E_COORD97":178376.72,"N_COORD97":2578704.46,"ADDRESS":"明清二街１３８號","OBJECTID":569998},"geometry":{"x":178376.72000000067,"y":2578704.4600000009}},{"attributes":{"ID":570026,"DIS_CODE":0,"TOWNNAME":"新營區","LI":"新南里","LIN":"28鄰","STREET":"明清二街","SECT":" ","MAREA":" ","LANE":" ","ALLEY":" ","HOUSE_NO":"８１號","E_COORD97":178392.42999999999,"N_COORD97":2578655.7799999998,"ADDRESS":"明清二街８１號","OBJECTID":569999},"geometry":{"x":178392.4299999997,"y":2578655.7800000012}},{"attributes":{"ID":570027,"DIS_CODE":0,"TOWNNAME":"新營區","LI":"新南里","LIN":"28鄰","STREET":"明清二街","SECT":" ","MAREA":" ","LANE":" ","ALLEY":" ","HOUSE_NO":"８３號","E_COORD97":178397.26999999999,"N_COORD97":2578655.6800000002,"ADDRESS":"明清二街８３號","OBJECTID":570000},"geometry":{"x":178397.26999999862,"y":2578655.6800000034}}]}