{"displayFieldName":"TOWNNAME","fieldAliases":{"ID":"ID","DIS_CODE":"DIS_CODE","TOWNNAME":"TOWNNAME","LI":"LI","LIN":"LIN","STREET":"STREET","SECT":"SECT","MAREA":"MAREA","LANE":"LANE","ALLEY":"ALLEY","HOUSE_NO":"HOUSE_NO","E_COORD97":"E_COORD97","N_COORD97":"N_COORD97","ADDRESS":"ADDRESS","OBJECTID":"OBJECTID"},"geometryType":"esriGeometryPoint","spatialReference":{"wkid":102443,"latestWkid":3826},"fields":[{"name":"ID","type":"esriFieldTypeDouble","alias":"ID"},{"name":"DIS_CODE","type":"esriFieldTypeInteger","alias":"DIS_CODE"},{"name":"TOWNNAME","type":"esriFieldTypeString","alias":"TOWNNAME","length":8},{"name":"LI","type":"esriFieldTypeString","alias":"LI","length":8},{"name":"LIN","type":"esriFieldTypeString","alias":"LIN","length":12},{"name":"STREET","type":"esriFieldTypeString","alias":"STREET","length":20},{"name":"SECT","type":"esriFieldTypeString","alias":"SECT","length":8},{"name":"MAREA","type":"esriFieldTypeString","alias":"MAREA","length":12},{"name":"LANE","type":"esriFieldTypeString","alias":"LANE","length":10},{"name":"ALLEY","type":"esriFieldTypeString","alias":"ALLEY","length":10},{"name":"HOUSE_NO","type":"esriFieldTypeString","alias":"HOUSE_NO","length":20},{"name":"E_COORD97","type":"esriFieldTypeDouble","alias":"E_COORD97"},{"name":"N_COORD97","type":"esriFieldTypeDouble","alias":"N_COORD97"},{"name":"ADDRESS","type":"esriFieldTypeString","alias":"ADDRESS","length":50},{"name":"OBJECTID","type":"esriFieldTypeOID","alias":"OBJECTID"}],"features":[{"attributes":{"ID":531228,"DIS_CODE":0,"TOWNNAME":"東區","LI":"忠孝里","LIN":"30鄰","STREET":"崇明十街","SECT":" ","MAREA":" ","LANE":" ","ALLEY":" ","HOUSE_NO":"２３號","E_COORD97":170035.92000000001,"N_COORD97":2541761.8799999999,"ADDRESS":"崇明十街２３號","OBJECTID":531201},"geometry":{"x":170035.91999999993,"y":2541761.879999999}},{"attributes":{"ID":531229,"DIS_CODE":0,"TOWNNAME":"東區","LI":"忠孝里","LIN":"30鄰","STREET":"崇明十街","SECT":" ","MAREA":" ","LANE":" ","ALLEY":" ","HOUSE_NO":"２９號","E_COORD97":170047.23999999999,"N_COORD97":2541769.2999999998,"ADDRESS":"崇明十街２９號","OBJECTID":531202},"geometry":{"x":170047.24000000022,"y":2541769.3000000026}},{"attributes":{"ID":531230,"DIS_CODE":0,"TOWNNAME":"東區","LI":"忠孝里","LIN":"30鄰","STREET":"崇明十街","SECT":" ","MAREA":" ","LANE":" ","ALLEY":" ","HOUSE_NO":"３號","E_COORD97":169994.67000000001,"N_COORD97":2541736.5600000001,"ADDRESS":"崇明十街３號","OBJECTID":531203},"geometry":{"x":169994.66999999993,"y":2541736.5600000024}},{"attributes":{"ID":531231,"DIS_CODE":0,"TOWNNAME":"東區","LI":"忠孝里","LIN":"30鄰","STREET":"崇明路","SECT":" ","MAREA":" ","LANE":" ","ALLEY":" ","HOUSE_NO":"３７６號","E_COORD97":170125.67999999999,"N_COORD97":2541861.02,"ADDRESS":"崇明路３７６號","OBJECTID":531204},"geometry":{"x":170125.68000000156,"y":2541861.0200000014}},{"attributes":{"ID":531232,"DIS_CODE":0,"TOWNNAME":"東區","LI":"忠孝里","LIN":"30鄰","STREET":"崇明路","SECT":" ","MAREA":" ","LANE":" ","ALLEY":" ","HOUSE_NO":"３７８號","E_COORD97":170129.20999999999,"N_COORD97":2541854.3399999999,"ADDRESS":"崇明路３７８號","OBJECTID":531205},"geometry":{"x":170129.21000000183,"y":2541854.3399999999}},{"attributes":{"ID":531233,"DIS_CODE":0,"TOWNNAME":"東區","LI":"忠孝里","LIN":"30鄰","STREET":"崇明路","SECT":" ","MAREA":" ","LANE":" ","ALLEY":" ","HOUSE_NO":"３８２號","E_COORD97":170133.66,"N_COORD97":2541847.48,"ADDRESS":"崇明路３８２號","OBJECTID":531206},"geometry":{"x":170133.66000000108,"y":2541847.4800000004}},{"attributes":{"ID":531234,"DIS_CODE":0,"TOWNNAME":"東區","LI":"忠孝里","LIN":"30鄰","STREET":"崇明路","SECT":" ","MAREA":" ","LANE":" ","ALLEY":" ","HOUSE_NO":"３８０號","E_COORD97":170131.81,"N_COORD97":2541850.2599999998,"ADDRESS":"崇明路３８０號","OBJECTID":531207},"geometry":{"x":170131.81000000052,"y":2541850.2600000016}},{"attributes":{"ID":531235,"DIS_CODE":0,"TOWNNAME":"東區","LI":"東明里","LIN":"30鄰","STREET":"東安路","SECT":" ","MAREA":" ","LANE":" ","ALLEY":" ","HOUSE_NO":"６３號","E_COORD97":170671.95999999999,"N_COORD97":2543644.7999999998,"ADDRESS":"東安路６３號","OBJECTID":531208},"geometry":{"x":170671.96000000089,"y":2543644.8000000026}},{"attributes":{"ID":531236,"DIS_CODE":0,"TOWNNAME":"東區","LI":"東明里","LIN":"30鄰","STREET":"東安路","SECT":" ","MAREA":" ","LANE":" ","ALLEY":" ","HOUSE_NO":"１０１號","E_COORD97":170687.23999999999,"N_COORD97":2543728.6200000001,"ADDRESS":"東安路１０１號","OBJECTID":531209},"geometry":{"x":170687.24000000115,"y":2543728.620000001}},{"attributes":{"ID":531237,"DIS_CODE":0,"TOWNNAME":"東區","LI":"東明里","LIN":"30鄰","STREET":"東安路","SECT":" ","MAREA":" ","LANE":" ","ALLEY":" ","HOUSE_NO":"１０３號","E_COORD97":170689.20999999999,"N_COORD97":2543731.5699999998,"ADDRESS":"東安路１０３號","OBJECTID":531210},"geometry":{"x":170689.21000000089,"y":2543731.5700000003}},{"attributes":{"ID":531238,"DIS_CODE":0,"TOWNNAME":"東區","LI":"東明里","LIN":"30鄰","STREET":"東安路","SECT":" ","MAREA":" ","LANE":" ","ALLEY":" ","HOUSE_NO":"１０５號","E_COORD97":170689.20999999999,"N_COORD97":2543736.8300000001,"ADDRESS":"東安路１０５號","OBJECTID":531211},"geometry":{"x":170689.21000000089,"y":2543736.8300000001}},{"attributes":{"ID":531239,"DIS_CODE":0,"TOWNNAME":"東區","LI":"東明里","LIN":"30鄰","STREET":"東安路","SECT":" ","MAREA":" ","LANE":" ","ALLEY":" ","HOUSE_NO":"１０７號","E_COORD97":170690.04000000001,"N_COORD97":2543740.9300000002,"ADDRESS":"東安路１０７號","OBJECTID":531212},"geometry":{"x":170690.04000000097,"y":2543740.9300000016}},{"attributes":{"ID":531240,"DIS_CODE":0,"TOWNNAME":"東區","LI":"東明里","LIN":"30鄰","STREET":"東安路","SECT":" ","MAREA":" ","LANE":" ","ALLEY":" ","HOUSE_NO":"１０９號","E_COORD97":170691.19,"N_COORD97":2543744.71,"ADDRESS":"東安路１０９號","OBJECTID":531213},"geometry":{"x":170691.19000000134,"y":2543744.7100000009}},{"attributes":{"ID":531241,"DIS_CODE":0,"TOWNNAME":"佳里區","LI":"東寧里","LIN":"18鄰","STREET":"新生路","SECT":" ","MAREA":" ","LANE":" ","ALLEY":" ","HOUSE_NO":"２號","E_COORD97":166155.64000000001,"N_COORD97":2562439.73,"ADDRESS":"新生路２號","OBJECTID":531214},"geometry":{"x":166155.63999999873,"y":2562439.7300000042}},{"attributes":{"ID":531242,"DIS_CODE":0,"TOWNNAME":"東區","LI":"東明里","LIN":"30鄰","STREET":"東安路","SECT":" ","MAREA":" ","LANE":" ","ALLEY":" ","HOUSE_NO":"１１１號","E_COORD97":170692.5,"N_COORD97":2543749.1400000001,"ADDRESS":"東安路１１１號","OBJECTID":531215},"geometry":{"x":170692.50000000093,"y":2543749.1399999987}},{"attributes":{"ID":531243,"DIS_CODE":0,"TOWNNAME":"東區","LI":"東明里","LIN":"30鄰","STREET":"東安路","SECT":" ","MAREA":" ","LANE":" ","ALLEY":" ","HOUSE_NO":"１１３號","E_COORD97":170692.82999999999,"N_COORD97":2543754.23,"ADDRESS":"東安路１１３號","OBJECTID":531216},"geometry":{"x":170692.82999999914,"y":2543754.2300000004}},{"attributes":{"ID":531244,"DIS_CODE":0,"TOWNNAME":"東區","LI":"東明里","LIN":"30鄰","STREET":"東安路","SECT":" ","MAREA":" ","LANE":" ","ALLEY":" ","HOUSE_NO":"１１５號","E_COORD97":170694.64000000001,"N_COORD97":2543757.3500000001,"ADDRESS":"東安路１１５號","OBJECTID":531217},"geometry":{"x":170694.63999999966,"y":2543757.3500000015}},{"attributes":{"ID":531245,"DIS_CODE":0,"TOWNNAME":"東區","LI":"東明里","LIN":"30鄰","STREET":"東安路","SECT":" ","MAREA":" ","LANE":" ","ALLEY":" ","HOUSE_NO":"１１７號","E_COORD97":170694.47,"N_COORD97":2543762.7599999998,"ADDRESS":"東安路１１７號","OBJECTID":531218},"geometry":{"x":170694.46999999974,"y":2543762.7600000016}},{"attributes":{"ID":531246,"DIS_CODE":0,"TOWNNAME":"東區","LI":"東明里","LIN":"30鄰","STREET":"東安路","SECT":" ","MAREA":" ","LANE":" ","ALLEY":" ","HOUSE_NO":"１１９號","E_COORD97":170694.97,"N_COORD97":2543766.0499999998,"ADDRESS":"東安路１１９號","OBJECTID":531219},"geometry":{"x":170694.9700000016,"y":2543766.0500000007}},{"attributes":{"ID":531247,"DIS_CODE":0,"TOWNNAME":"東區","LI":"東明里","LIN":"30鄰","STREET":"東安路","SECT":" ","MAREA":" ","LANE":" ","ALLEY":" ","HOUSE_NO":"１２１號","E_COORD97":170696.28,"N_COORD97":2543771.7999999998,"ADDRESS":"東安路１２１號","OBJECTID":531220},"geometry":{"x":170696.28000000026,"y":2543771.8000000007}},{"attributes":{"ID":531248,"DIS_CODE":0,"TOWNNAME":"東區","LI":"東明里","LIN":"30鄰","STREET":"東安路","SECT":" ","MAREA":" ","LANE":" ","ALLEY":" ","HOUSE_NO":"５１號","E_COORD97":170664.56,"N_COORD97":2543620.6600000001,"ADDRESS":"東安路５１號","OBJECTID":531221},"geometry":{"x":170664.55999999959,"y":2543620.660000002}},{"attributes":{"ID":531249,"DIS_CODE":0,"TOWNNAME":"東區","LI":"東明里","LIN":"30鄰","STREET":"東安路","SECT":" ","MAREA":" ","LANE":" ","ALLEY":" ","HOUSE_NO":"５３號","E_COORD97":170665.38,"N_COORD97":2543624.27,"ADDRESS":"東安路５３號","OBJECTID":531222},"geometry":{"x":170665.38000000082,"y":2543624.2699999996}},{"attributes":{"ID":531250,"DIS_CODE":0,"TOWNNAME":"東區","LI":"東明里","LIN":"30鄰","STREET":"東安路","SECT":" ","MAREA":" ","LANE":" ","ALLEY":" ","HOUSE_NO":"５５號","E_COORD97":170665.70999999999,"N_COORD97":2543629.2000000002,"ADDRESS":"東安路５５號","OBJECTID":531223},"geometry":{"x":170665.70999999996,"y":2543629.2000000011}},{"attributes":{"ID":531251,"DIS_CODE":0,"TOWNNAME":"東區","LI":"東明里","LIN":"30鄰","STREET":"東安路","SECT":" ","MAREA":" ","LANE":" ","ALLEY":" ","HOUSE_NO":"５７號","E_COORD97":170667.03,"N_COORD97":2543632.8100000001,"ADDRESS":"東安路５７號","OBJECTID":531224},"geometry":{"x":170667.03000000119,"y":2543632.8100000042}},{"attributes":{"ID":531252,"DIS_CODE":0,"TOWNNAME":"東區","LI":"東明里","LIN":"30鄰","STREET":"東安路","SECT":" ","MAREA":" ","LANE":" ","ALLEY":" ","HOUSE_NO":"６７號","E_COORD97":170673.60000000001,"N_COORD97":2543654.1600000001,"ADDRESS":"東安路６７號","OBJECTID":531225},"geometry":{"x":170673.60000000149,"y":2543654.160000002}},{"attributes":{"ID":531253,"DIS_CODE":0,"TOWNNAME":"東區","LI":"東明里","LIN":"30鄰","STREET":"東安路","SECT":" ","MAREA":" ","LANE":" ","ALLEY":" ","HOUSE_NO":"６９號","E_COORD97":170674.42000000001,"N_COORD97":2543657.9399999999,"ADDRESS":"東安路６９號","OBJECTID":531226},"geometry":{"x":170674.41999999993,"y":2543657.9400000032}},{"attributes":{"ID":531254,"DIS_CODE":0,"TOWNNAME":"東區","LI":"東明里","LIN":"30鄰","STREET":"東安路","SECT":" ","MAREA":" ","LANE":" ","ALLEY":" ","HOUSE_NO":"７１號","E_COORD97":170675.73999999999,"N_COORD97":2543662.8599999999,"ADDRESS":"東安路７１號","OBJECTID":531227},"geometry":{"x":170675.74000000115,"y":2543662.8600000013}},{"attributes":{"ID":531255,"DIS_CODE":0,"TOWNNAME":"東區","LI":"東明里","LIN":"30鄰","STREET":"東安路","SECT":" ","MAREA":" ","LANE":" ","ALLEY":" ","HOUSE_NO":"７３號","E_COORD97":170676.89000000001,"N_COORD97":2543666.6400000001,"ADDRESS":"東安路７３號","OBJECTID":531228},"geometry":{"x":170676.89000000153,"y":2543666.6400000006}},{"attributes":{"ID":531256,"DIS_CODE":0,"TOWNNAME":"東區","LI":"東明里","LIN":"30鄰","STREET":"東安路","SECT":" ","MAREA":" ","LANE":" ","ALLEY":" ","HOUSE_NO":"７９號","E_COORD97":170678.20000000001,"N_COORD97":2543679.77,"ADDRESS":"東安路７９號","OBJECTID":531229},"geometry":{"x":170678.20000000019,"y":2543679.7700000033}},{"attributes":{"ID":531257,"DIS_CODE":0,"TOWNNAME":"東區","LI":"東明里","LIN":"30鄰","STREET":"東安路","SECT":" ","MAREA":" ","LANE":" ","ALLEY":" ","HOUSE_NO":"８１號","E_COORD97":170679.35000000001,"N_COORD97":2543683.3900000001,"ADDRESS":"東安路８１號","OBJECTID":531230},"geometry":{"x":170679.35000000056,"y":2543683.3900000043}},{"attributes":{"ID":531258,"DIS_CODE":0,"TOWNNAME":"東區","LI":"東明里","LIN":"30鄰","STREET":"東安路","SECT":" ","MAREA":" ","LANE":" ","ALLEY":" ","HOUSE_NO":"８３號","E_COORD97":170681,"N_COORD97":2543688.6400000001,"ADDRESS":"東安路８３號","OBJECTID":531231},"geometry":{"x":170681,"y":2543688.6400000025}},{"attributes":{"ID":531259,"DIS_CODE":0,"TOWNNAME":"東區","LI":"東明里","LIN":"30鄰","STREET":"東安路","SECT":" ","MAREA":" ","LANE":" ","ALLEY":" ","HOUSE_NO":"８５號","E_COORD97":170680.67000000001,"N_COORD97":2543693.7999999998,"ADDRESS":"東安路８５號","OBJECTID":531232},"geometry":{"x":170680.67000000086,"y":2543693.8000000007}},{"attributes":{"ID":531260,"DIS_CODE":0,"TOWNNAME":"東區","LI":"東明里","LIN":"30鄰","STREET":"東安路","SECT":" ","MAREA":" ","LANE":" ","ALLEY":" ","HOUSE_NO":"８７號","E_COORD97":170681.48999999999,"N_COORD97":2543696.6000000001,"ADDRESS":"東安路８７號","OBJECTID":531233},"geometry":{"x":170681.49000000022,"y":2543696.5999999996}},{"attributes":{"ID":531261,"DIS_CODE":0,"TOWNNAME":"東區","LI":"東明里","LIN":"30鄰","STREET":"東安路","SECT":" ","MAREA":" ","LANE":" ","ALLEY":" ","HOUSE_NO":"８９號","E_COORD97":170682.31,"N_COORD97":2543701.6899999999,"ADDRESS":"東安路８９號","OBJECTID":531234},"geometry":{"x":170682.31000000145,"y":2543701.6900000013}},{"attributes":{"ID":531262,"DIS_CODE":0,"TOWNNAME":"東區","LI":"東明里","LIN":"30鄰","STREET":"東安路","SECT":" ","MAREA":" ","LANE":" ","ALLEY":" ","HOUSE_NO":"９７號","E_COORD97":170685.92999999999,"N_COORD97":2543719.2599999998,"ADDRESS":"東安路９７號","OBJECTID":531235},"geometry":{"x":170685.9299999997,"y":2543719.2599999998}},{"attributes":{"ID":531263,"DIS_CODE":0,"TOWNNAME":"永康區","LI":"大灣里","LIN":"30鄰","STREET":"民族路","SECT":" ","MAREA":" ","LANE":" ","ALLEY":" ","HOUSE_NO":"１０８號","E_COORD97":175310.28,"N_COORD97":2544857.1200000001,"ADDRESS":"民族路１０８號","OBJECTID":531236},"geometry":{"x":175310.28000000119,"y":2544857.120000001}},{"attributes":{"ID":531264,"DIS_CODE":0,"TOWNNAME":"永康區","LI":"大灣里","LIN":"30鄰","STREET":"民族路","SECT":" ","MAREA":" ","LANE":" ","ALLEY":" ","HOUSE_NO":"１０６號","E_COORD97":175320.23999999999,"N_COORD97":2544848.2799999998,"ADDRESS":"民族路１０６號","OBJECTID":531237},"geometry":{"x":175320.24000000115,"y":2544848.2799999993}},{"attributes":{"ID":531265,"DIS_CODE":0,"TOWNNAME":"永康區","LI":"二王里","LIN":"30鄰","STREET":"中山南路","SECT":" ","MAREA":" ","LANE":" ","ALLEY":" ","HOUSE_NO":"５４２號","E_COORD97":172165.53,"N_COORD97":2546535.6099999999,"ADDRESS":"中山南路５４２號","OBJECTID":531238},"geometry":{"x":172165.53000000119,"y":2546535.6100000013}},{"attributes":{"ID":531266,"DIS_CODE":0,"TOWNNAME":"永康區","LI":"二王里","LIN":"30鄰","STREET":"中山南路","SECT":" ","MAREA":" ","LANE":" ","ALLEY":" ","HOUSE_NO":"５４０號","E_COORD97":172161.07000000001,"N_COORD97":2546532.6099999999,"ADDRESS":"中山南路５４０號","OBJECTID":531239},"geometry":{"x":172161.0700000003,"y":2546532.6100000013}},{"attributes":{"ID":531267,"DIS_CODE":0,"TOWNNAME":"永康區","LI":"二王里","LIN":"30鄰","STREET":"中山南路","SECT":" ","MAREA":" ","LANE":" ","ALLEY":" ","HOUSE_NO":"５３８號","E_COORD97":172157.01999999999,"N_COORD97":2546529.8599999999,"ADDRESS":"中山南路５３８號","OBJECTID":531240},"geometry":{"x":172157.01999999955,"y":2546529.8599999975}},{"attributes":{"ID":531268,"DIS_CODE":0,"TOWNNAME":"永康區","LI":"二王里","LIN":"30鄰","STREET":"中山南路","SECT":" ","MAREA":" ","LANE":" ","ALLEY":" ","HOUSE_NO":"５３０號","E_COORD97":172140.16,"N_COORD97":2546518.3599999999,"ADDRESS":"中山南路５３０號","OBJECTID":531241},"geometry":{"x":172140.16000000201,"y":2546518.3599999994}},{"attributes":{"ID":531269,"DIS_CODE":0,"TOWNNAME":"永康區","LI":"二王里","LIN":"30鄰","STREET":"中山南路","SECT":" ","MAREA":" ","LANE":" ","ALLEY":" ","HOUSE_NO":"５３４號","E_COORD97":172147.57000000001,"N_COORD97":2546523.6099999999,"ADDRESS":"中山南路５３４號","OBJECTID":531242},"geometry":{"x":172147.56999999937,"y":2546523.6099999994}},{"attributes":{"ID":531270,"DIS_CODE":0,"TOWNNAME":"仁德區","LI":"後壁里","LIN":"30鄰","STREET":"德洋一街","SECT":" ","MAREA":" ","LANE":" ","ALLEY":" ","HOUSE_NO":"４９號","E_COORD97":173133.97,"N_COORD97":2539190.27,"ADDRESS":"德洋一街４９號","OBJECTID":531243},"geometry":{"x":173133.96999999974,"y":2539190.2699999996}},{"attributes":{"ID":531271,"DIS_CODE":0,"TOWNNAME":"仁德區","LI":"後壁里","LIN":"30鄰","STREET":"德洋一街","SECT":" ","MAREA":" ","LANE":" ","ALLEY":" ","HOUSE_NO":"４３號","E_COORD97":173126.32000000001,"N_COORD97":2539180.77,"ADDRESS":"德洋一街４３號","OBJECTID":531244},"geometry":{"x":173126.32000000123,"y":2539180.7700000014}},{"attributes":{"ID":531272,"DIS_CODE":0,"TOWNNAME":"永康區","LI":"永康里","LIN":"30鄰","STREET":"永明街","SECT":" ","MAREA":" ","LANE":" ","ALLEY":" ","HOUSE_NO":"１２２號","E_COORD97":174189.31,"N_COORD97":2547219.7999999998,"ADDRESS":"永明街１２２號","OBJECTID":531245},"geometry":{"x":174189.30999999959,"y":2547219.8000000007}},{"attributes":{"ID":531273,"DIS_CODE":0,"TOWNNAME":"永康區","LI":"永康里","LIN":"30鄰","STREET":"永明街","SECT":" ","MAREA":" ","LANE":" ","ALLEY":" ","HOUSE_NO":"１３２號","E_COORD97":174199.76999999999,"N_COORD97":2547210.4199999999,"ADDRESS":"永明街１３２號","OBJECTID":531246},"geometry":{"x":174199.76999999955,"y":2547210.4199999999}},{"attributes":{"ID":531274,"DIS_CODE":0,"TOWNNAME":"永康區","LI":"北灣里","LIN":"30鄰","STREET":"大同街","SECT":" ","MAREA":" ","LANE":" ","ALLEY":" ","HOUSE_NO":"２７號","E_COORD97":175282.26000000001,"N_COORD97":2545398.7999999998,"ADDRESS":"大同街２７號","OBJECTID":531247},"geometry":{"x":175282.26000000071,"y":2545398.8000000007}},{"attributes":{"ID":531275,"DIS_CODE":0,"TOWNNAME":"永康區","LI":"北灣里","LIN":"30鄰","STREET":"大同街","SECT":" ","MAREA":" ","LANE":" ","ALLEY":" ","HOUSE_NO":"３１號","E_COORD97":175261.17000000001,"N_COORD97":2545405.5,"ADDRESS":"大同街３１號","OBJECTID":531248},"geometry":{"x":175261.17000000086,"y":2545405.5000000019}},{"attributes":{"ID":531276,"DIS_CODE":0,"TOWNNAME":"永康區","LI":"北灣里","LIN":"30鄰","STREET":"大同街","SECT":" ","MAREA":" ","LANE":" ","ALLEY":" ","HOUSE_NO":"１７號","E_COORD97":175304.39999999999,"N_COORD97":2545395.5499999998,"ADDRESS":"大同街１７號","OBJECTID":531249},"geometry":{"x":175304.4000000013,"y":2545395.5500000026}},{"attributes":{"ID":531277,"DIS_CODE":0,"TOWNNAME":"永康區","LI":"北灣里","LIN":"30鄰","STREET":"大同街","SECT":" ","MAREA":" ","LANE":" ","ALLEY":" ","HOUSE_NO":"１５號","E_COORD97":175308.79999999999,"N_COORD97":2545395.0499999998,"ADDRESS":"大同街１５號","OBJECTID":531250},"geometry":{"x":175308.80000000168,"y":2545395.0500000026}},{"attributes":{"ID":531278,"DIS_CODE":0,"TOWNNAME":"永康區","LI":"北灣里","LIN":"30鄰","STREET":"大同街","SECT":" ","MAREA":" ","LANE":" ","ALLEY":" ","HOUSE_NO":"２３號","E_COORD97":175291.38,"N_COORD97":2545397.5499999998,"ADDRESS":"大同街２３號","OBJECTID":531251},"geometry":{"x":175291.38000000175,"y":2545397.5499999989}},{"attributes":{"ID":531279,"DIS_CODE":0,"TOWNNAME":"永康區","LI":"北灣里","LIN":"30鄰","STREET":"大同街","SECT":" ","MAREA":" ","LANE":" ","ALLEY":" ","HOUSE_NO":"１９號","E_COORD97":175300.10000000001,"N_COORD97":2545396.2999999998,"ADDRESS":"大同街１９號","OBJECTID":531252},"geometry":{"x":175300.10000000056,"y":2545396.3000000045}},{"attributes":{"ID":531280,"DIS_CODE":0,"TOWNNAME":"永康區","LI":"北灣里","LIN":"30鄰","STREET":"大同街","SECT":" ","MAREA":" ","LANE":" ","ALLEY":" ","HOUSE_NO":"２１號","E_COORD97":175295.79999999999,"N_COORD97":2545397.0499999998,"ADDRESS":"大同街２１號","OBJECTID":531253},"geometry":{"x":175295.80000000075,"y":2545397.0500000007}},{"attributes":{"ID":531281,"DIS_CODE":0,"TOWNNAME":"東區","LI":"泉南里","LIN":"30鄰","STREET":"府連路","SECT":" ","MAREA":" ","LANE":" ","ALLEY":" ","HOUSE_NO":"２８９號","E_COORD97":169515.28,"N_COORD97":2542874.27,"ADDRESS":"府連路２８９號","OBJECTID":531254},"geometry":{"x":169515.28000000212,"y":2542874.2700000014}},{"attributes":{"ID":531282,"DIS_CODE":0,"TOWNNAME":"東區","LI":"成大里","LIN":"30鄰","STREET":"北門路","SECT":"一段","MAREA":" ","LANE":" ","ALLEY":" ","HOUSE_NO":"２２８號","E_COORD97":169212.87,"N_COORD97":2543909.5800000001,"ADDRESS":"北門路一段２２８號","OBJECTID":531255},"geometry":{"x":169212.87000000197,"y":2543909.5800000019}},{"attributes":{"ID":531283,"DIS_CODE":0,"TOWNNAME":"東區","LI":"成大里","LIN":"30鄰","STREET":"北門路","SECT":"一段","MAREA":" ","LANE":" ","ALLEY":" ","HOUSE_NO":"２５０號","E_COORD97":169211.85000000001,"N_COORD97":2543919.1899999999,"ADDRESS":"北門路一段２５０號","OBJECTID":531256},"geometry":{"x":169211.84999999963,"y":2543919.1899999995}},{"attributes":{"ID":531284,"DIS_CODE":0,"TOWNNAME":"東區","LI":"成大里","LIN":"30鄰","STREET":"北門路","SECT":"一段","MAREA":" ","LANE":" ","ALLEY":" ","HOUSE_NO":"２５２號","E_COORD97":169212.57000000001,"N_COORD97":2543924.1099999999,"ADDRESS":"北門路一段２５２號","OBJECTID":531257},"geometry":{"x":169212.5700000003,"y":2543924.1099999994}},{"attributes":{"ID":531285,"DIS_CODE":0,"TOWNNAME":"東區","LI":"成大里","LIN":"30鄰","STREET":"北門路","SECT":"一段","MAREA":" ","LANE":" ","ALLEY":" ","HOUSE_NO":"２５４號","E_COORD97":169213.12,"N_COORD97":2543927.0299999998,"ADDRESS":"北門路一段２５４號","OBJECTID":531258},"geometry":{"x":169213.12000000104,"y":2543927.0299999993}},{"attributes":{"ID":531286,"DIS_CODE":0,"TOWNNAME":"東區","LI":"成大里","LIN":"30鄰","STREET":"北門路","SECT":"一段","MAREA":" ","LANE":" ","ALLEY":" ","HOUSE_NO":"２５６號","E_COORD97":169212.10999999999,"N_COORD97":2543931.0699999998,"ADDRESS":"北門路一段２５６號","OBJECTID":531259},"geometry":{"x":169212.11000000127,"y":2543931.0700000003}},{"attributes":{"ID":531287,"DIS_CODE":0,"TOWNNAME":"東區","LI":"成大里","LIN":"30鄰","STREET":"北門路","SECT":"一段","MAREA":" ","LANE":" ","ALLEY":" ","HOUSE_NO":"２５８號","E_COORD97":169211.85000000001,"N_COORD97":2543935.1200000001,"ADDRESS":"北門路一段２５８號","OBJECTID":531260},"geometry":{"x":169211.84999999963,"y":2543935.120000001}},{"attributes":{"ID":531288,"DIS_CODE":0,"TOWNNAME":"中西區","LI":"西賢里","LIN":"30鄰","STREET":"西賢六街","SECT":" ","MAREA":" ","LANE":" ","ALLEY":" ","HOUSE_NO":"２６號","E_COORD97":165079,"N_COORD97":2544654.3100000001,"ADDRESS":"西賢六街２６號","OBJECTID":531261},"geometry":{"x":165079.00000000186,"y":2544654.3100000024}},{"attributes":{"ID":531289,"DIS_CODE":0,"TOWNNAME":"中西區","LI":"西賢里","LIN":"30鄰","STREET":"西賢六街","SECT":" ","MAREA":" ","LANE":" ","ALLEY":" ","HOUSE_NO":"２８號","E_COORD97":165080.54000000001,"N_COORD97":2544658.25,"ADDRESS":"西賢六街２８號","OBJECTID":531262},"geometry":{"x":165080.54000000097,"y":2544658.25}},{"attributes":{"ID":531290,"DIS_CODE":0,"TOWNNAME":"東區","LI":"成大里","LIN":"30鄰","STREET":"北門路","SECT":"一段","MAREA":" ","LANE":" ","ALLEY":" ","HOUSE_NO":"２６０號","E_COORD97":169211.09,"N_COORD97":2543941.4399999999,"ADDRESS":"北門路一段２６０號","OBJECTID":531263},"geometry":{"x":169211.09000000171,"y":2543941.4399999995}},{"attributes":{"ID":531291,"DIS_CODE":0,"TOWNNAME":"東區","LI":"成大里","LIN":"30鄰","STREET":"北門路","SECT":"一段","MAREA":" ","LANE":" ","ALLEY":" ","HOUSE_NO":"２６２號","E_COORD97":169211.60999999999,"N_COORD97":2543947.4199999999,"ADDRESS":"北門路一段２６２號","OBJECTID":531264},"geometry":{"x":169211.61000000127,"y":2543947.4200000018}},{"attributes":{"ID":531292,"DIS_CODE":0,"TOWNNAME":"東區","LI":"成大里","LIN":"30鄰","STREET":"北門路","SECT":"一段","MAREA":" ","LANE":" ","ALLEY":" ","HOUSE_NO":"２６６號","E_COORD97":169212.62,"N_COORD97":2543953.4900000002,"ADDRESS":"北門路一段２６６號","OBJECTID":531265},"geometry":{"x":169212.62000000011,"y":2543953.4900000039}},{"attributes":{"ID":531293,"DIS_CODE":0,"TOWNNAME":"東區","LI":"成大里","LIN":"30鄰","STREET":"北門路","SECT":"一段","MAREA":" ","LANE":" ","ALLEY":" ","HOUSE_NO":"２６８號","E_COORD97":169212.37,"N_COORD97":2543957.29,"ADDRESS":"北門路一段２６８號","OBJECTID":531266},"geometry":{"x":169212.37000000011,"y":2543957.290000001}},{"attributes":{"ID":531294,"DIS_CODE":0,"TOWNNAME":"東區","LI":"成大里","LIN":"30鄰","STREET":"北門路","SECT":"一段","MAREA":" ","LANE":" ","ALLEY":" ","HOUSE_NO":"２７０號","E_COORD97":169212.12,"N_COORD97":2543961.3300000001,"ADDRESS":"北門路一段２７０號","OBJECTID":531267},"geometry":{"x":169212.12000000011,"y":2543961.3300000038}},{"attributes":{"ID":531295,"DIS_CODE":0,"TOWNNAME":"東區","LI":"成大里","LIN":"30鄰","STREET":"北門路","SECT":"一段","MAREA":" ","LANE":" ","ALLEY":" ","HOUSE_NO":"２７２號","E_COORD97":169213.38,"N_COORD97":2543964.8700000001,"ADDRESS":"北門路一段２７２號","OBJECTID":531268},"geometry":{"x":169213.37999999989,"y":2543964.870000001}},{"attributes":{"ID":531296,"DIS_CODE":0,"TOWNNAME":"東區","LI":"成大里","LIN":"30鄰","STREET":"北門路","SECT":"一段","MAREA":" ","LANE":" ","ALLEY":" ","HOUSE_NO":"２７４號","E_COORD97":169212.62,"N_COORD97":2543970.4399999999,"ADDRESS":"北門路一段２７４號","OBJECTID":531269},"geometry":{"x":169212.62000000011,"y":2543970.4400000013}},{"attributes":{"ID":531297,"DIS_CODE":0,"TOWNNAME":"東區","LI":"成大里","LIN":"30鄰","STREET":"北門路","SECT":"一段","MAREA":" ","LANE":" ","ALLEY":" ","HOUSE_NO":"２７６號","E_COORD97":169213.13,"N_COORD97":2543974.48,"ADDRESS":"北門路一段２７６號","OBJECTID":531270},"geometry":{"x":169213.13000000082,"y":2543974.4800000023}},{"attributes":{"ID":531298,"DIS_CODE":0,"TOWNNAME":"東區","LI":"成大里","LIN":"30鄰","STREET":"北門路","SECT":"一段","MAREA":" ","LANE":" ","ALLEY":" ","HOUSE_NO":"２７８號","E_COORD97":169213.13,"N_COORD97":2543979.29,"ADDRESS":"北門路一段２７８號","OBJECTID":531271},"geometry":{"x":169213.13000000082,"y":2543979.2899999991}},{"attributes":{"ID":531299,"DIS_CODE":0,"TOWNNAME":"東區","LI":"成大里","LIN":"30鄰","STREET":"北門路","SECT":"一段","MAREA":" ","LANE":" ","ALLEY":" ","HOUSE_NO":"２８０號","E_COORD97":169214.89999999999,"N_COORD97":2543983.8399999999,"ADDRESS":"北門路一段２８０號","OBJECTID":531272},"geometry":{"x":169214.9000000013,"y":2543983.8399999999}},{"attributes":{"ID":531300,"DIS_CODE":0,"TOWNNAME":"東區","LI":"成大里","LIN":"30鄰","STREET":"北門路","SECT":"一段","MAREA":" ","LANE":" ","ALLEY":" ","HOUSE_NO":"２８２號","E_COORD97":169214.64999999999,"N_COORD97":2543989.3999999999,"ADDRESS":"北門路一段２８２號","OBJECTID":531273},"geometry":{"x":169214.65000000224,"y":2543989.4000000022}},{"attributes":{"ID":531301,"DIS_CODE":0,"TOWNNAME":"東區","LI":"成大里","LIN":"30鄰","STREET":"北門路","SECT":"一段","MAREA":" ","LANE":" ","ALLEY":" ","HOUSE_NO":"２８４號","E_COORD97":169214.89999999999,"N_COORD97":2543994.2000000002,"ADDRESS":"北門路一段２８４號","OBJECTID":531274},"geometry":{"x":169214.9000000013,"y":2543994.1999999993}},{"attributes":{"ID":531302,"DIS_CODE":0,"TOWNNAME":"東區","LI":"成大里","LIN":"30鄰","STREET":"北門路","SECT":"一段","MAREA":" ","LANE":" ","ALLEY":" ","HOUSE_NO":"２８６號","E_COORD97":169216.42000000001,"N_COORD97":2544011.3999999999,"ADDRESS":"北門路一段２８６號","OBJECTID":531275},"geometry":{"x":169216.42000000086,"y":2544011.4000000004}},{"attributes":{"ID":531303,"DIS_CODE":0,"TOWNNAME":"東區","LI":"成大里","LIN":"30鄰","STREET":"北門路","SECT":"一段","MAREA":" ","LANE":" ","ALLEY":" ","HOUSE_NO":"２８８號","E_COORD97":169215.92000000001,"N_COORD97":2544016.2000000002,"ADDRESS":"北門路一段２８８號","OBJECTID":531276},"geometry":{"x":169215.92000000086,"y":2544016.2000000011}},{"attributes":{"ID":531304,"DIS_CODE":0,"TOWNNAME":"東區","LI":"成大里","LIN":"30鄰","STREET":"北門路","SECT":"一段","MAREA":" ","LANE":" ","ALLEY":" ","HOUSE_NO":"２９０號","E_COORD97":169216.17000000001,"N_COORD97":2544020.5,"ADDRESS":"北門路一段２９０號","OBJECTID":531277},"geometry":{"x":169216.17000000086,"y":2544020.5}},{"attributes":{"ID":531305,"DIS_CODE":0,"TOWNNAME":"東區","LI":"成大里","LIN":"30鄰","STREET":"北門路","SECT":"一段","MAREA":" ","LANE":" ","ALLEY":" ","HOUSE_NO":"２９２號","E_COORD97":169216.67999999999,"N_COORD97":2544025.0499999998,"ADDRESS":"北門路一段２９２號","OBJECTID":531278},"geometry":{"x":169216.6799999997,"y":2544025.0500000026}},{"attributes":{"ID":531306,"DIS_CODE":0,"TOWNNAME":"東區","LI":"成大里","LIN":"30鄰","STREET":"北門路","SECT":"一段","MAREA":" ","LANE":" ","ALLEY":" ","HOUSE_NO":"２９４號","E_COORD97":169218.95999999999,"N_COORD97":2544032.3300000001,"ADDRESS":"北門路一段２９４號","OBJECTID":531279},"geometry":{"x":169218.96000000089,"y":2544032.3300000038}},{"attributes":{"ID":531307,"DIS_CODE":0,"TOWNNAME":"中西區","LI":"西賢里","LIN":"30鄰","STREET":"西賢六街","SECT":" ","MAREA":" ","LANE":" ","ALLEY":" ","HOUSE_NO":"１０號","E_COORD97":165071.59,"N_COORD97":2544621.4500000002,"ADDRESS":"西賢六街１０號","OBJECTID":531280},"geometry":{"x":165071.59000000078,"y":2544621.4500000011}},{"attributes":{"ID":531308,"DIS_CODE":0,"TOWNNAME":"中西區","LI":"西賢里","LIN":"30鄰","STREET":"西賢六街","SECT":" ","MAREA":" ","LANE":" ","ALLEY":" ","HOUSE_NO":"１２號","E_COORD97":165072.62,"N_COORD97":2544625.2200000002,"ADDRESS":"西賢六街１２號","OBJECTID":531281},"geometry":{"x":165072.62000000011,"y":2544625.2200000025}},{"attributes":{"ID":531309,"DIS_CODE":0,"TOWNNAME":"中西區","LI":"西賢里","LIN":"30鄰","STREET":"西賢六街","SECT":" ","MAREA":" ","LANE":" ","ALLEY":" ","HOUSE_NO":"１６號","E_COORD97":165072.28,"N_COORD97":2544630.02,"ADDRESS":"西賢六街１６號","OBJECTID":531282},"geometry":{"x":165072.28000000212,"y":2544630.0199999996}},{"attributes":{"ID":531310,"DIS_CODE":0,"TOWNNAME":"中西區","LI":"西賢里","LIN":"30鄰","STREET":"西賢六街","SECT":" ","MAREA":" ","LANE":" ","ALLEY":" ","HOUSE_NO":"１８號","E_COORD97":165074,"N_COORD97":2544633.6200000001,"ADDRESS":"西賢六街１８號","OBJECTID":531283},"geometry":{"x":165074.00000000093,"y":2544633.620000001}},{"attributes":{"ID":531311,"DIS_CODE":0,"TOWNNAME":"中西區","LI":"西賢里","LIN":"30鄰","STREET":"西賢六街","SECT":" ","MAREA":" ","LANE":" ","ALLEY":" ","HOUSE_NO":"２２號","E_COORD97":165077.28,"N_COORD97":2544647.1099999999,"ADDRESS":"西賢六街２２號","OBJECTID":531284},"geometry":{"x":165077.28000000212,"y":2544647.1100000013}},{"attributes":{"ID":531312,"DIS_CODE":0,"TOWNNAME":"中西區","LI":"西賢里","LIN":"30鄰","STREET":"西賢六街","SECT":" ","MAREA":" ","LANE":" ","ALLEY":" ","HOUSE_NO":"４６號","E_COORD97":165085.35000000001,"N_COORD97":2544686.8700000001,"ADDRESS":"西賢六街４６號","OBJECTID":531285},"geometry":{"x":165085.35000000056,"y":2544686.870000001}},{"attributes":{"ID":531313,"DIS_CODE":0,"TOWNNAME":"中西區","LI":"西賢里","LIN":"30鄰","STREET":"西賢六街","SECT":" ","MAREA":" ","LANE":" ","ALLEY":" ","HOUSE_NO":"４８號","E_COORD97":165086.20999999999,"N_COORD97":2544690.1299999999,"ADDRESS":"西賢六街４８號","OBJECTID":531286},"geometry":{"x":165086.21000000089,"y":2544690.1300000027}},{"attributes":{"ID":531314,"DIS_CODE":0,"TOWNNAME":"中西區","LI":"西賢里","LIN":"30鄰","STREET":"西賢六街","SECT":" ","MAREA":" ","LANE":" ","ALLEY":" ","HOUSE_NO":"５０號","E_COORD97":165087.23999999999,"N_COORD97":2544694.5899999999,"ADDRESS":"西賢六街５０號","OBJECTID":531287},"geometry":{"x":165087.24000000022,"y":2544694.589999998}},{"attributes":{"ID":531315,"DIS_CODE":0,"TOWNNAME":"中西區","LI":"西賢里","LIN":"30鄰","STREET":"西賢六街","SECT":" ","MAREA":" ","LANE":" ","ALLEY":" ","HOUSE_NO":"５２號","E_COORD97":165088.39999999999,"N_COORD97":2544698.6499999999,"ADDRESS":"西賢六街５２號","OBJECTID":531288},"geometry":{"x":165088.40000000224,"y":2544698.6500000022}},{"attributes":{"ID":531316,"DIS_CODE":0,"TOWNNAME":"中西區","LI":"西賢里","LIN":"30鄰","STREET":"西賢六街","SECT":" ","MAREA":" ","LANE":" ","ALLEY":" ","HOUSE_NO":"５６號","E_COORD97":165089.56,"N_COORD97":2544702.3199999998,"ADDRESS":"西賢六街５６號","OBJECTID":531289},"geometry":{"x":165089.55999999959,"y":2544702.3200000003}},{"attributes":{"ID":531317,"DIS_CODE":0,"TOWNNAME":"中西區","LI":"西賢里","LIN":"30鄰","STREET":"西賢六街","SECT":" ","MAREA":" ","LANE":" ","ALLEY":" ","HOUSE_NO":"５８號","E_COORD97":165090.14000000001,"N_COORD97":2544705.9900000002,"ADDRESS":"西賢六街５８號","OBJECTID":531290},"geometry":{"x":165090.1400000006,"y":2544705.9900000039}},{"attributes":{"ID":531318,"DIS_CODE":0,"TOWNNAME":"中西區","LI":"西賢里","LIN":"30鄰","STREET":"西賢六街","SECT":" ","MAREA":" ","LANE":" ","ALLEY":" ","HOUSE_NO":"６０號","E_COORD97":165091.5,"N_COORD97":2544710.6299999999,"ADDRESS":"西賢六街６０號","OBJECTID":531291},"geometry":{"x":165091.50000000093,"y":2544710.6300000027}},{"attributes":{"ID":531319,"DIS_CODE":0,"TOWNNAME":"中西區","LI":"西賢里","LIN":"30鄰","STREET":"西賢六街","SECT":" ","MAREA":" ","LANE":" ","ALLEY":" ","HOUSE_NO":"６２號","E_COORD97":165092.66,"N_COORD97":2544714.1099999999,"ADDRESS":"西賢六街６２號","OBJECTID":531292},"geometry":{"x":165092.66000000015,"y":2544714.1099999994}},{"attributes":{"ID":531320,"DIS_CODE":0,"TOWNNAME":"中西區","LI":"西賢里","LIN":"30鄰","STREET":"西賢六街","SECT":" ","MAREA":" ","LANE":" ","ALLEY":" ","HOUSE_NO":"６６號","E_COORD97":165093.63,"N_COORD97":2544718.5600000001,"ADDRESS":"西賢六街６６號","OBJECTID":531293},"geometry":{"x":165093.63000000082,"y":2544718.5600000005}},{"attributes":{"ID":531321,"DIS_CODE":0,"TOWNNAME":"中西區","LI":"西賢里","LIN":"30鄰","STREET":"西賢六街","SECT":" ","MAREA":" ","LANE":" ","ALLEY":" ","HOUSE_NO":"６８號","E_COORD97":165094.79000000001,"N_COORD97":2544723.0099999998,"ADDRESS":"西賢六街６８號","OBJECTID":531294},"geometry":{"x":165094.79000000004,"y":2544723.0100000016}},{"attributes":{"ID":531322,"DIS_CODE":0,"TOWNNAME":"中西區","LI":"西賢里","LIN":"30鄰","STREET":"西賢六街","SECT":" ","MAREA":" ","LANE":" ","ALLEY":" ","HOUSE_NO":"６號","E_COORD97":165069.35999999999,"N_COORD97":2544613.9100000001,"ADDRESS":"西賢六街６號","OBJECTID":531295},"geometry":{"x":165069.36000000034,"y":2544613.9100000001}},{"attributes":{"ID":531323,"DIS_CODE":0,"TOWNNAME":"中西區","LI":"西賢里","LIN":"30鄰","STREET":"西賢六街","SECT":" ","MAREA":" ","LANE":" ","ALLEY":" ","HOUSE_NO":"８號","E_COORD97":165070.91,"N_COORD97":2544618.02,"ADDRESS":"西賢六街８號","OBJECTID":531296},"geometry":{"x":165070.91000000015,"y":2544618.0200000014}},{"attributes":{"ID":531324,"DIS_CODE":0,"TOWNNAME":"永康區","LI":"五王里","LIN":"30鄰","STREET":"振興路","SECT":" ","MAREA":" ","LANE":" ","ALLEY":" ","HOUSE_NO":"１３２號","E_COORD97":171641.20999999999,"N_COORD97":2545851.77,"ADDRESS":"振興路１３２號","OBJECTID":531297},"geometry":{"x":171641.21000000183,"y":2545851.7699999996}},{"attributes":{"ID":531325,"DIS_CODE":0,"TOWNNAME":"永康區","LI":"五王里","LIN":"30鄰","STREET":"振興路","SECT":" ","MAREA":" ","LANE":" ","ALLEY":" ","HOUSE_NO":"１３６號","E_COORD97":171645.67999999999,"N_COORD97":2545853.8199999998,"ADDRESS":"振興路１３６號","OBJECTID":531298},"geometry":{"x":171645.6799999997,"y":2545853.8200000022}},{"attributes":{"ID":531326,"DIS_CODE":0,"TOWNNAME":"永康區","LI":"五王里","LIN":"30鄰","STREET":"振興路","SECT":" ","MAREA":" ","LANE":" ","ALLEY":" ","HOUSE_NO":"１３８號","E_COORD97":171652.85000000001,"N_COORD97":2545854.0800000001,"ADDRESS":"振興路１３８號","OBJECTID":531299},"geometry":{"x":171652.84999999963,"y":2545854.0800000001}},{"attributes":{"ID":531327,"DIS_CODE":0,"TOWNNAME":"永康區","LI":"甲頂里","LIN":"30鄰","STREET":"中正南路","SECT":" ","MAREA":" ","LANE":" ","ALLEY":" ","HOUSE_NO":"１５３號","E_COORD97":169785.32000000001,"N_COORD97":2547080.3300000001,"ADDRESS":"中正南路１５３號","OBJECTID":531300},"geometry":{"x":169785.32000000123,"y":2547080.3300000038}},{"attributes":{"ID":531328,"DIS_CODE":0,"TOWNNAME":"永康區","LI":"埔園里","LIN":"30鄰","STREET":"中山路","SECT":" ","MAREA":" ","LANE":" ","ALLEY":" ","HOUSE_NO":"４５２號","E_COORD97":173644.37,"N_COORD97":2548533.46,"ADDRESS":"中山路４５２號","OBJECTID":531301},"geometry":{"x":173644.37000000104,"y":2548533.4600000009}},{"attributes":{"ID":531329,"DIS_CODE":0,"TOWNNAME":"仁德區","LI":"後壁里","LIN":"30鄰","STREET":"德洋一街","SECT":" ","MAREA":" ","LANE":" ","ALLEY":" ","HOUSE_NO":"４７號","E_COORD97":173131.56,"N_COORD97":2539187.27,"ADDRESS":"德洋一街４７號","OBJECTID":531302},"geometry":{"x":173131.55999999959,"y":2539187.2700000033}},{"attributes":{"ID":531330,"DIS_CODE":0,"TOWNNAME":"仁德區","LI":"後壁里","LIN":"30鄰","STREET":"德洋一街","SECT":" ","MAREA":" ","LANE":" ","ALLEY":" ","HOUSE_NO":"３１號","E_COORD97":173104.16,"N_COORD97":2539151.5099999998,"ADDRESS":"德洋一街３１號","OBJECTID":531303},"geometry":{"x":173104.16000000015,"y":2539151.5099999998}},{"attributes":{"ID":531331,"DIS_CODE":0,"TOWNNAME":"仁德區","LI":"後壁里","LIN":"30鄰","STREET":"德洋一街","SECT":" ","MAREA":" ","LANE":" ","ALLEY":" ","HOUSE_NO":"３５號","E_COORD97":173110.01000000001,"N_COORD97":2539159.52,"ADDRESS":"德洋一街３５號","OBJECTID":531304},"geometry":{"x":173110.00999999978,"y":2539159.5200000014}},{"attributes":{"ID":531332,"DIS_CODE":0,"TOWNNAME":"佳里區","LI":"建南里","LIN":"30鄰","STREET":"四維二街","SECT":" ","MAREA":" ","LANE":" ","ALLEY":" ","HOUSE_NO":"２１６號","E_COORD97":165660.48000000001,"N_COORD97":2561195.5299999998,"ADDRESS":"四維二街２１６號","OBJECTID":531305},"geometry":{"x":165660.48000000045,"y":2561195.5300000031}},{"attributes":{"ID":531333,"DIS_CODE":0,"TOWNNAME":"佳里區","LI":"建南里","LIN":"30鄰","STREET":"四維二街","SECT":" ","MAREA":" ","LANE":" ","ALLEY":" ","HOUSE_NO":"２１８號","E_COORD97":165660.70999999999,"N_COORD97":2561190.5,"ADDRESS":"四維二街２１８號","OBJECTID":531306},"geometry":{"x":165660.71000000183,"y":2561190.5000000019}},{"attributes":{"ID":531334,"DIS_CODE":0,"TOWNNAME":"佳里區","LI":"建南里","LIN":"30鄰","STREET":"四維二街","SECT":" ","MAREA":" ","LANE":" ","ALLEY":" ","HOUSE_NO":"２３０號","E_COORD97":165657.89999999999,"N_COORD97":2561081.0800000001,"ADDRESS":"四維二街２３０號","OBJECTID":531307},"geometry":{"x":165657.89999999944,"y":2561081.0800000019}},{"attributes":{"ID":531335,"DIS_CODE":0,"TOWNNAME":"佳里區","LI":"建南里","LIN":"30鄰","STREET":"四維二街","SECT":" ","MAREA":" ","LANE":" ","ALLEY":" ","HOUSE_NO":"２３２號","E_COORD97":165658.14000000001,"N_COORD97":2561076.25,"ADDRESS":"四維二街２３２號","OBJECTID":531308},"geometry":{"x":165658.1400000006,"y":2561076.2500000037}},{"attributes":{"ID":531336,"DIS_CODE":0,"TOWNNAME":"佳里區","LI":"建南里","LIN":"30鄰","STREET":"四維二街","SECT":" ","MAREA":" ","LANE":" ","ALLEY":" ","HOUSE_NO":"２３４號","E_COORD97":165657.59,"N_COORD97":2561072.4199999999,"ADDRESS":"四維二街２３４號","OBJECTID":531309},"geometry":{"x":165657.58999999985,"y":2561072.4200000018}},{"attributes":{"ID":531337,"DIS_CODE":0,"TOWNNAME":"佳里區","LI":"建南里","LIN":"30鄰","STREET":"四維二街","SECT":" ","MAREA":" ","LANE":" ","ALLEY":" ","HOUSE_NO":"２４２號","E_COORD97":165656.17999999999,"N_COORD97":2561031.5099999998,"ADDRESS":"四維二街２４２號","OBJECTID":531310},"geometry":{"x":165656.18000000063,"y":2561031.5100000016}},{"attributes":{"ID":531338,"DIS_CODE":0,"TOWNNAME":"佳里區","LI":"建南里","LIN":"30鄰","STREET":"四維二街","SECT":" ","MAREA":" ","LANE":" ","ALLEY":" ","HOUSE_NO":"２４６號","E_COORD97":165656.10000000001,"N_COORD97":2561028.0299999998,"ADDRESS":"四維二街２４６號","OBJECTID":531311},"geometry":{"x":165656.10000000056,"y":2561028.0299999993}},{"attributes":{"ID":531339,"DIS_CODE":0,"TOWNNAME":"佳里區","LI":"建南里","LIN":"30鄰","STREET":"四維二街","SECT":" ","MAREA":" ","LANE":" ","ALLEY":" ","HOUSE_NO":"２４８號","E_COORD97":165656.17000000001,"N_COORD97":2561023.6800000002,"ADDRESS":"四維二街２４８號","OBJECTID":531312},"geometry":{"x":165656.17000000086,"y":2561023.6800000016}},{"attributes":{"ID":531340,"DIS_CODE":0,"TOWNNAME":"佳里區","LI":"建南里","LIN":"30鄰","STREET":"四維二街","SECT":" ","MAREA":" ","LANE":" ","ALLEY":" ","HOUSE_NO":"２５０號","E_COORD97":165656.23999999999,"N_COORD97":2561019.5899999999,"ADDRESS":"四維二街２５０號","OBJECTID":531313},"geometry":{"x":165656.24000000115,"y":2561019.5900000036}},{"attributes":{"ID":531341,"DIS_CODE":0,"TOWNNAME":"佳里區","LI":"建南里","LIN":"30鄰","STREET":"四維二街","SECT":" ","MAREA":" ","LANE":" ","ALLEY":" ","HOUSE_NO":"２５２號","E_COORD97":165655.79999999999,"N_COORD97":2561014.23,"ADDRESS":"四維二街２５２號","OBJECTID":531314},"geometry":{"x":165655.79999999981,"y":2561014.2300000004}},{"attributes":{"ID":531342,"DIS_CODE":0,"TOWNNAME":"佳里區","LI":"建南里","LIN":"30鄰","STREET":"四維二街","SECT":" ","MAREA":" ","LANE":" ","ALLEY":" ","HOUSE_NO":"２５４號","E_COORD97":165655.59,"N_COORD97":2561010.1200000001,"ADDRESS":"四維二街２５４號","OBJECTID":531315},"geometry":{"x":165655.58999999985,"y":2561010.1199999992}},{"attributes":{"ID":531343,"DIS_CODE":0,"TOWNNAME":"佳里區","LI":"建南里","LIN":"30鄰","STREET":"四維二街","SECT":" ","MAREA":" ","LANE":" ","ALLEY":" ","HOUSE_NO":"２５６號","E_COORD97":165656.07000000001,"N_COORD97":2561006.6499999999,"ADDRESS":"四維二街２５６號","OBJECTID":531316},"geometry":{"x":165656.0700000003,"y":2561006.6500000022}},{"attributes":{"ID":531344,"DIS_CODE":0,"TOWNNAME":"佳里區","LI":"建南里","LIN":"30鄰","STREET":"四維二街","SECT":" ","MAREA":" ","LANE":" ","ALLEY":" ","HOUSE_NO":"２５８號","E_COORD97":165655.51000000001,"N_COORD97":2561002.46,"ADDRESS":"四維二街２５８號","OBJECTID":531317},"geometry":{"x":165655.51000000071,"y":2561002.4600000028}},{"attributes":{"ID":531345,"DIS_CODE":0,"TOWNNAME":"永康區","LI":"復華里","LIN":"30鄰","STREET":"國華街","SECT":" ","MAREA":" ","LANE":" ","ALLEY":" ","HOUSE_NO":"１５８號","E_COORD97":172614.95999999999,"N_COORD97":2546285.5600000001,"ADDRESS":"國華街１５８號","OBJECTID":531318},"geometry":{"x":172614.96000000089,"y":2546285.5599999987}},{"attributes":{"ID":531346,"DIS_CODE":0,"TOWNNAME":"永康區","LI":"甲頂里","LIN":"30鄰","STREET":"中正南路","SECT":" ","MAREA":" ","LANE":" ","ALLEY":" ","HOUSE_NO":"１０９之３號","E_COORD97":169693.57000000001,"N_COORD97":2546986.79,"ADDRESS":"中正南路１０９之３號","OBJECTID":531319},"geometry":{"x":169693.57000000123,"y":2546986.7899999991}},{"attributes":{"ID":531347,"DIS_CODE":0,"TOWNNAME":"永康區","LI":"尚頂里","LIN":"30鄰","STREET":"中正南路","SECT":" ","MAREA":" ","LANE":" ","ALLEY":" ","HOUSE_NO":"２１７號","E_COORD97":170012.39999999999,"N_COORD97":2547279.75,"ADDRESS":"中正南路２１７號","OBJECTID":531320},"geometry":{"x":170012.40000000037,"y":2547279.75}},{"attributes":{"ID":531348,"DIS_CODE":0,"TOWNNAME":"永康區","LI":"埔園里","LIN":"30鄰","STREET":"八德街","SECT":" ","MAREA":" ","LANE":" ","ALLEY":" ","HOUSE_NO":"１４３號","E_COORD97":173972.78,"N_COORD97":2548531.3100000001,"ADDRESS":"八德街１４３號","OBJECTID":531321},"geometry":{"x":173972.78000000119,"y":2548531.3100000005}},{"attributes":{"ID":531349,"DIS_CODE":0,"TOWNNAME":"永康區","LI":"南灣里","LIN":"30鄰","STREET":"大安街","SECT":" ","MAREA":" ","LANE":" ","ALLEY":" ","HOUSE_NO":"４７號","E_COORD97":174441.59,"N_COORD97":2544860.6000000001,"ADDRESS":"大安街４７號","OBJECTID":531322},"geometry":{"x":174441.58999999985,"y":2544860.6000000034}},{"attributes":{"ID":531350,"DIS_CODE":0,"TOWNNAME":"永康區","LI":"埔園里","LIN":"30鄰","STREET":"八德街","SECT":" ","MAREA":" ","LANE":" ","ALLEY":" ","HOUSE_NO":"１７３號","E_COORD97":173904.51000000001,"N_COORD97":2548542.2599999998,"ADDRESS":"八德街１７３號","OBJECTID":531323},"geometry":{"x":173904.51000000071,"y":2548542.2600000016}},{"attributes":{"ID":531351,"DIS_CODE":0,"TOWNNAME":"永康區","LI":"埔園里","LIN":"30鄰","STREET":"八德街","SECT":" ","MAREA":" ","LANE":" ","ALLEY":" ","HOUSE_NO":"１４９號","E_COORD97":173960.03,"N_COORD97":2548533.3100000001,"ADDRESS":"八德街１４９號","OBJECTID":531324},"geometry":{"x":173960.03000000212,"y":2548533.3100000024}},{"attributes":{"ID":531352,"DIS_CODE":0,"TOWNNAME":"永康區","LI":"埔園里","LIN":"30鄰","STREET":"八德街","SECT":" ","MAREA":" ","LANE":" ","ALLEY":" ","HOUSE_NO":"１５１號","E_COORD97":173955.78,"N_COORD97":2548534.0600000001,"ADDRESS":"八德街１５１號","OBJECTID":531325},"geometry":{"x":173955.78000000119,"y":2548534.0600000024}},{"attributes":{"ID":531353,"DIS_CODE":0,"TOWNNAME":"永康區","LI":"埔園里","LIN":"30鄰","STREET":"八德街","SECT":" ","MAREA":" ","LANE":" ","ALLEY":" ","HOUSE_NO":"１４７號","E_COORD97":173964.13,"N_COORD97":2548532.8100000001,"ADDRESS":"八德街１４７號","OBJECTID":531326},"geometry":{"x":173964.13000000175,"y":2548532.8100000024}},{"attributes":{"ID":531354,"DIS_CODE":0,"TOWNNAME":"永康區","LI":"埔園里","LIN":"30鄰","STREET":"八德街","SECT":" ","MAREA":" ","LANE":" ","ALLEY":" ","HOUSE_NO":"１５７號","E_COORD97":173942.82999999999,"N_COORD97":2548535.8100000001,"ADDRESS":"八德街１５７號","OBJECTID":531327},"geometry":{"x":173942.83000000101,"y":2548535.8100000024}},{"attributes":{"ID":531355,"DIS_CODE":0,"TOWNNAME":"永康區","LI":"南灣里","LIN":"30鄰","STREET":"大安街","SECT":" ","MAREA":" ","LANE":" ","ALLEY":" ","HOUSE_NO":"４９號","E_COORD97":174431.09,"N_COORD97":2544867.0699999998,"ADDRESS":"大安街４９號","OBJECTID":531328},"geometry":{"x":174431.09000000078,"y":2544867.0700000003}},{"attributes":{"ID":531356,"DIS_CODE":0,"TOWNNAME":"永康區","LI":"南灣里","LIN":"30鄰","STREET":"大安街","SECT":" ","MAREA":" ","LANE":" ","ALLEY":" ","HOUSE_NO":"６５號","E_COORD97":174457.51000000001,"N_COORD97":2544888.3199999998,"ADDRESS":"大安街６５號","OBJECTID":531329},"geometry":{"x":174457.50999999978,"y":2544888.3200000022}},{"attributes":{"ID":531357,"DIS_CODE":0,"TOWNNAME":"永康區","LI":"南灣里","LIN":"30鄰","STREET":"大安街","SECT":" ","MAREA":" ","LANE":" ","ALLEY":" ","HOUSE_NO":"６７號","E_COORD97":174464.56,"N_COORD97":2544883.0699999998,"ADDRESS":"大安街６７號","OBJECTID":531330},"geometry":{"x":174464.56000000052,"y":2544883.0700000022}},{"attributes":{"ID":531358,"DIS_CODE":0,"TOWNNAME":"永康區","LI":"南灣里","LIN":"30鄰","STREET":"南灣街","SECT":" ","MAREA":" ","LANE":" ","ALLEY":" ","HOUSE_NO":"６１號","E_COORD97":174463.32999999999,"N_COORD97":2544913.25,"ADDRESS":"南灣街６１號","OBJECTID":531331},"geometry":{"x":174463.33000000101,"y":2544913.25}},{"attributes":{"ID":531359,"DIS_CODE":0,"TOWNNAME":"佳里區","LI":"六安里","LIN":"30鄰","STREET":"光復路","SECT":" ","MAREA":" ","LANE":" ","ALLEY":" ","HOUSE_NO":"３２２號","E_COORD97":165526.10999999999,"N_COORD97":2562732.3199999998,"ADDRESS":"光復路３２２號","OBJECTID":531332},"geometry":{"x":165526.1100000022,"y":2562732.3200000003}},{"attributes":{"ID":531360,"DIS_CODE":0,"TOWNNAME":"佳里區","LI":"六安里","LIN":"30鄰","STREET":"光復路","SECT":" ","MAREA":" ","LANE":" ","ALLEY":" ","HOUSE_NO":"３２４號","E_COORD97":165526.59,"N_COORD97":2562737.2000000002,"ADDRESS":"光復路３２４號","OBJECTID":531333},"geometry":{"x":165526.58999999985,"y":2562737.200000003}},{"attributes":{"ID":531361,"DIS_CODE":0,"TOWNNAME":"佳里區","LI":"六安里","LIN":"30鄰","STREET":"光復路","SECT":" ","MAREA":" ","LANE":" ","ALLEY":" ","HOUSE_NO":"３２６號","E_COORD97":165526.92000000001,"N_COORD97":2562742.1299999999,"ADDRESS":"光復路３２６號","OBJECTID":531334},"geometry":{"x":165526.92000000179,"y":2562742.1300000008}},{"attributes":{"ID":531362,"DIS_CODE":0,"TOWNNAME":"佳里區","LI":"六安里","LIN":"30鄰","STREET":"光復路","SECT":" ","MAREA":" ","LANE":" ","ALLEY":" ","HOUSE_NO":"３２８號","E_COORD97":165527.26999999999,"N_COORD97":2562746.5699999998,"ADDRESS":"光復路３２８號","OBJECTID":531335},"geometry":{"x":165527.26999999955,"y":2562746.5700000022}},{"attributes":{"ID":531363,"DIS_CODE":0,"TOWNNAME":"佳里區","LI":"六安里","LIN":"30鄰","STREET":"光復路","SECT":" ","MAREA":" ","LANE":" ","ALLEY":" ","HOUSE_NO":"３３０號","E_COORD97":165527.63,"N_COORD97":2562751.8199999998,"ADDRESS":"光復路３３０號","OBJECTID":531336},"geometry":{"x":165527.63000000082,"y":2562751.8200000022}},{"attributes":{"ID":531364,"DIS_CODE":0,"TOWNNAME":"佳里區","LI":"六安里","LIN":"30鄰","STREET":"光復路","SECT":" ","MAREA":" ","LANE":" ","ALLEY":" ","HOUSE_NO":"３３２號","E_COORD97":165528.48999999999,"N_COORD97":2562757.0699999998,"ADDRESS":"光復路３３２號","OBJECTID":531337},"geometry":{"x":165528.49000000209,"y":2562757.0700000022}},{"attributes":{"ID":531365,"DIS_CODE":0,"TOWNNAME":"佳里區","LI":"六安里","LIN":"30鄰","STREET":"光復路","SECT":" ","MAREA":" ","LANE":" ","ALLEY":" ","HOUSE_NO":"３３８號","E_COORD97":165530.16,"N_COORD97":2562770.1299999999,"ADDRESS":"光復路３３８號","OBJECTID":531338},"geometry":{"x":165530.16000000015,"y":2562770.129999999}},{"attributes":{"ID":531366,"DIS_CODE":0,"TOWNNAME":"佳里區","LI":"六安里","LIN":"30鄰","STREET":"光復路","SECT":" ","MAREA":" ","LANE":" ","ALLEY":" ","HOUSE_NO":"３４０號","E_COORD97":165529.95000000001,"N_COORD97":2562774.96,"ADDRESS":"光復路３４０號","OBJECTID":531339},"geometry":{"x":165529.95000000019,"y":2562774.9600000028}},{"attributes":{"ID":531367,"DIS_CODE":0,"TOWNNAME":"佳里區","LI":"六安里","LIN":"30鄰","STREET":"光復路","SECT":" ","MAREA":" ","LANE":" ","ALLEY":" ","HOUSE_NO":"３５０號","E_COORD97":165531.06,"N_COORD97":2562793.3500000001,"ADDRESS":"光復路３５０號","OBJECTID":531340},"geometry":{"x":165531.06000000052,"y":2562793.3499999996}},{"attributes":{"ID":531368,"DIS_CODE":0,"TOWNNAME":"永康區","LI":"尚頂里","LIN":"30鄰","STREET":"中正南路","SECT":" ","MAREA":" ","LANE":" ","ALLEY":" ","HOUSE_NO":"２１１號","E_COORD97":169999.20000000001,"N_COORD97":2547266.5,"ADDRESS":"中正南路２１１號","OBJECTID":531341},"geometry":{"x":169999.20000000112,"y":2547266.5000000019}},{"attributes":{"ID":531369,"DIS_CODE":0,"TOWNNAME":"永康區","LI":"尚頂里","LIN":"30鄰","STREET":"中正南路","SECT":" ","MAREA":" ","LANE":" ","ALLEY":" ","HOUSE_NO":"１９７號","E_COORD97":169974.41,"N_COORD97":2547240.5,"ADDRESS":"中正南路１９７號","OBJECTID":531342},"geometry":{"x":169974.41000000108,"y":2547240.5}},{"attributes":{"ID":531370,"DIS_CODE":0,"TOWNNAME":"佳里區","LI":"忠仁里","LIN":"10鄰","STREET":"興中街","SECT":" ","MAREA":" ","LANE":" ","ALLEY":" ","HOUSE_NO":"１０號","E_COORD97":165988.82999999999,"N_COORD97":2562207.23,"ADDRESS":"興中街１０號","OBJECTID":531343},"geometry":{"x":165988.83000000194,"y":2562207.2300000023}},{"attributes":{"ID":531371,"DIS_CODE":0,"TOWNNAME":"佳里區","LI":"忠仁里","LIN":"9鄰","STREET":"興中街","SECT":" ","MAREA":" ","LANE":" ","ALLEY":" ","HOUSE_NO":"１１號","E_COORD97":166002.73000000001,"N_COORD97":2562192.0800000001,"ADDRESS":"興中街１１號","OBJECTID":531344},"geometry":{"x":166002.73000000045,"y":2562192.0800000001}},{"attributes":{"ID":531372,"DIS_CODE":0,"TOWNNAME":"永康區","LI":"尚頂里","LIN":"30鄰","STREET":"中正南路","SECT":" ","MAREA":" ","LANE":" ","ALLEY":" ","HOUSE_NO":"１８５號","E_COORD97":169940.54000000001,"N_COORD97":2547202.8500000001,"ADDRESS":"中正南路１８５號","OBJECTID":531345},"geometry":{"x":169940.5400000019,"y":2547202.8500000015}},{"attributes":{"ID":531373,"DIS_CODE":0,"TOWNNAME":"永康區","LI":"尚頂里","LIN":"30鄰","STREET":"中正南路","SECT":" ","MAREA":" ","LANE":" ","ALLEY":" ","HOUSE_NO":"２２７號","E_COORD97":170019.62,"N_COORD97":2547314.4900000002,"ADDRESS":"中正南路２２７號","OBJECTID":531346},"geometry":{"x":170019.62000000197,"y":2547314.4900000021}},{"attributes":{"ID":531374,"DIS_CODE":0,"TOWNNAME":"永康區","LI":"西灣里","LIN":"30鄰","STREET":"國光八街","SECT":" ","MAREA":" ","LANE":" ","ALLEY":" ","HOUSE_NO":"３８號","E_COORD97":174294.64000000001,"N_COORD97":2545789.2599999998,"ADDRESS":"國光八街３８號","OBJECTID":531347},"geometry":{"x":174294.6400000006,"y":2545789.2600000016}},{"attributes":{"ID":531375,"DIS_CODE":0,"TOWNNAME":"永康區","LI":"尚頂里","LIN":"30鄰","STREET":"中正南路","SECT":" ","MAREA":" ","LANE":" ","ALLEY":" ","HOUSE_NO":"２１５號","E_COORD97":170006.51000000001,"N_COORD97":2547273.5,"ADDRESS":"中正南路２１５號","OBJECTID":531348},"geometry":{"x":170006.51000000164,"y":2547273.5000000019}},{"attributes":{"ID":531376,"DIS_CODE":0,"TOWNNAME":"永康區","LI":"尚頂里","LIN":"30鄰","STREET":"中正南路","SECT":" ","MAREA":" ","LANE":" ","ALLEY":" ","HOUSE_NO":"２１３號","E_COORD97":170002.04999999999,"N_COORD97":2547269,"ADDRESS":"中正南路２１３號","OBJECTID":531349},"geometry":{"x":170002.04999999981,"y":2547269.0000000037}},{"attributes":{"ID":531377,"DIS_CODE":0,"TOWNNAME":"永康區","LI":"尚頂里","LIN":"30鄰","STREET":"中正南路","SECT":" ","MAREA":" ","LANE":" ","ALLEY":" ","HOUSE_NO":"２０３號","E_COORD97":169985.03,"N_COORD97":2547250.75,"ADDRESS":"中正南路２０３號","OBJECTID":531350},"geometry":{"x":169985.03000000119,"y":2547250.7500000019}},{"attributes":{"ID":531378,"DIS_CODE":0,"TOWNNAME":"永康區","LI":"尚頂里","LIN":"30鄰","STREET":"中正南路","SECT":" ","MAREA":" ","LANE":" ","ALLEY":" ","HOUSE_NO":"１９５號","E_COORD97":169969.34,"N_COORD97":2547234.75,"ADDRESS":"中正南路１９５號","OBJECTID":531351},"geometry":{"x":169969.34000000078,"y":2547234.7500000019}},{"attributes":{"ID":531379,"DIS_CODE":0,"TOWNNAME":"永康區","LI":"尚頂里","LIN":"30鄰","STREET":"中正南路","SECT":" ","MAREA":" ","LANE":" ","ALLEY":" ","HOUSE_NO":"２０１號","E_COORD97":169981.37,"N_COORD97":2547246.25,"ADDRESS":"中正南路２０１號","OBJECTID":531352},"geometry":{"x":169981.37000000104,"y":2547246.25}},{"attributes":{"ID":531380,"DIS_CODE":0,"TOWNNAME":"永康區","LI":"埔園里","LIN":"30鄰","STREET":"八德街","SECT":" ","MAREA":" ","LANE":" ","ALLEY":" ","HOUSE_NO":"１７７號","E_COORD97":173894.67999999999,"N_COORD97":2548543.7599999998,"ADDRESS":"八德街１７７號","OBJECTID":531353},"geometry":{"x":173894.68000000063,"y":2548543.7599999998}},{"attributes":{"ID":531381,"DIS_CODE":0,"TOWNNAME":"永康區","LI":"尚頂里","LIN":"30鄰","STREET":"中正南路","SECT":" ","MAREA":" ","LANE":" ","ALLEY":" ","HOUSE_NO":"１７７號","E_COORD97":169904.60999999999,"N_COORD97":2547177.75,"ADDRESS":"中正南路１７７號","OBJECTID":531354},"geometry":{"x":169904.6099999994,"y":2547177.75}},{"attributes":{"ID":531382,"DIS_CODE":0,"TOWNNAME":"永康區","LI":"尚頂里","LIN":"30鄰","STREET":"中正南路","SECT":" ","MAREA":" ","LANE":" ","ALLEY":" ","HOUSE_NO":"２２９號","E_COORD97":170044.45000000001,"N_COORD97":2547309.2400000002,"ADDRESS":"中正南路２２９號","OBJECTID":531355},"geometry":{"x":170044.45000000019,"y":2547309.2400000021}},{"attributes":{"ID":531383,"DIS_CODE":0,"TOWNNAME":"佳里區","LI":"安西里","LIN":"47鄰","STREET":"義民街","SECT":" ","MAREA":" ","LANE":" ","ALLEY":" ","HOUSE_NO":"３３５號","E_COORD97":165191.14999999999,"N_COORD97":2562379.2599999998,"ADDRESS":"義民街３３５號","OBJECTID":531356},"geometry":{"x":165191.15000000037,"y":2562379.2600000016}},{"attributes":{"ID":531384,"DIS_CODE":0,"TOWNNAME":"佳里區","LI":"安西里","LIN":"47鄰","STREET":"義民街","SECT":" ","MAREA":" ","LANE":" ","ALLEY":" ","HOUSE_NO":"３３７號","E_COORD97":165183.70999999999,"N_COORD97":2562379.3999999999,"ADDRESS":"義民街３３７號","OBJECTID":531357},"geometry":{"x":165183.70999999996,"y":2562379.4000000004}},{"attributes":{"ID":531385,"DIS_CODE":0,"TOWNNAME":"佳里區","LI":"安西里","LIN":"47鄰","STREET":"義民街","SECT":" ","MAREA":" ","LANE":" ","ALLEY":" ","HOUSE_NO":"３３９號","E_COORD97":165179.26000000001,"N_COORD97":2562379.4500000002,"ADDRESS":"義民街３３９號","OBJECTID":531358},"geometry":{"x":165179.26000000071,"y":2562379.450000003}},{"attributes":{"ID":531386,"DIS_CODE":0,"TOWNNAME":"佳里區","LI":"安西里","LIN":"47鄰","STREET":"義民街","SECT":" ","MAREA":" ","LANE":" ","ALLEY":" ","HOUSE_NO":"３４１號","E_COORD97":165174.60999999999,"N_COORD97":2562379.6499999999,"ADDRESS":"義民街３４１號","OBJECTID":531359},"geometry":{"x":165174.61000000034,"y":2562379.6500000022}},{"attributes":{"ID":531387,"DIS_CODE":0,"TOWNNAME":"佳里區","LI":"安西里","LIN":"47鄰","STREET":"義民街","SECT":" ","MAREA":" ","LANE":" ","ALLEY":" ","HOUSE_NO":"３４３號","E_COORD97":165170.20000000001,"N_COORD97":2562379.8399999999,"ADDRESS":"義民街３４３號","OBJECTID":531360},"geometry":{"x":165170.20000000019,"y":2562379.8399999999}},{"attributes":{"ID":531388,"DIS_CODE":0,"TOWNNAME":"安南區","LI":"安慶里","LIN":"30鄰","STREET":"培安路","SECT":" ","MAREA":" ","LANE":" ","ALLEY":" ","HOUSE_NO":"３５８號","E_COORD97":169286.97,"N_COORD97":2548826.4900000002,"ADDRESS":"培安路３５８號","OBJECTID":531361},"geometry":{"x":169286.97000000067,"y":2548826.4900000021}},{"attributes":{"ID":531389,"DIS_CODE":0,"TOWNNAME":"安南區","LI":"安慶里","LIN":"30鄰","STREET":"培安路","SECT":" ","MAREA":" ","LANE":" ","ALLEY":" ","HOUSE_NO":"３６０號","E_COORD97":169291.03,"N_COORD97":2548822.7599999998,"ADDRESS":"培安路３６０號","OBJECTID":531362},"geometry":{"x":169291.03000000026,"y":2548822.7599999979}},{"attributes":{"ID":531390,"DIS_CODE":0,"TOWNNAME":"安南區","LI":"安慶里","LIN":"30鄰","STREET":"培安路","SECT":" ","MAREA":" ","LANE":" ","ALLEY":" ","HOUSE_NO":"３６２號","E_COORD97":169292.22,"N_COORD97":2548818.8700000001,"ADDRESS":"培安路３６２號","OBJECTID":531363},"geometry":{"x":169292.21999999974,"y":2548818.870000001}},{"attributes":{"ID":531391,"DIS_CODE":0,"TOWNNAME":"安南區","LI":"安慶里","LIN":"30鄰","STREET":"培安路","SECT":" ","MAREA":" ","LANE":" ","ALLEY":" ","HOUSE_NO":"３６６號","E_COORD97":169293.57000000001,"N_COORD97":2548814.7999999998,"ADDRESS":"培安路３６６號","OBJECTID":531364},"geometry":{"x":169293.57000000123,"y":2548814.8000000026}},{"attributes":{"ID":531392,"DIS_CODE":0,"TOWNNAME":"安南區","LI":"安慶里","LIN":"30鄰","STREET":"培安路","SECT":" ","MAREA":" ","LANE":" ","ALLEY":" ","HOUSE_NO":"３６８號","E_COORD97":169294.42000000001,"N_COORD97":2548811.25,"ADDRESS":"培安路３６８號","OBJECTID":531365},"geometry":{"x":169294.42000000086,"y":2548811.2500000019}},{"attributes":{"ID":531393,"DIS_CODE":0,"TOWNNAME":"安南區","LI":"安慶里","LIN":"30鄰","STREET":"培安路","SECT":" ","MAREA":" ","LANE":" ","ALLEY":" ","HOUSE_NO":"３７０號","E_COORD97":169295.56,"N_COORD97":2548807.9500000002,"ADDRESS":"培安路３７０號","OBJECTID":531366},"geometry":{"x":169295.55999999866,"y":2548807.9500000011}},{"attributes":{"ID":531394,"DIS_CODE":0,"TOWNNAME":"安南區","LI":"安慶里","LIN":"30鄰","STREET":"培安路","SECT":" ","MAREA":" ","LANE":" ","ALLEY":" ","HOUSE_NO":"３７２號","E_COORD97":169296.45000000001,"N_COORD97":2548804.3900000001,"ADDRESS":"培安路３７２號","OBJECTID":531367},"geometry":{"x":169296.45000000019,"y":2548804.3900000006}},{"attributes":{"ID":531395,"DIS_CODE":0,"TOWNNAME":"安南區","LI":"安慶里","LIN":"30鄰","STREET":"培安路","SECT":" ","MAREA":" ","LANE":" ","ALLEY":" ","HOUSE_NO":"３７６號","E_COORD97":169297.47,"N_COORD97":2548801.0899999999,"ADDRESS":"培安路３７６號","OBJECTID":531368},"geometry":{"x":169297.46999999974,"y":2548801.0900000017}},{"attributes":{"ID":531396,"DIS_CODE":0,"TOWNNAME":"安南區","LI":"安慶里","LIN":"30鄰","STREET":"培安路","SECT":" ","MAREA":" ","LANE":" ","ALLEY":" ","HOUSE_NO":"３７８號","E_COORD97":169298.48999999999,"N_COORD97":2548797.9100000001,"ADDRESS":"培安路３７８號","OBJECTID":531369},"geometry":{"x":169298.49000000209,"y":2548797.9100000001}},{"attributes":{"ID":531397,"DIS_CODE":0,"TOWNNAME":"安南區","LI":"安慶里","LIN":"30鄰","STREET":"培安路","SECT":" ","MAREA":" ","LANE":" ","ALLEY":" ","HOUSE_NO":"３８０號","E_COORD97":169299.37,"N_COORD97":2548794.7400000002,"ADDRESS":"培安路３８０號","OBJECTID":531370},"geometry":{"x":169299.37000000104,"y":2548794.7400000021}},{"attributes":{"ID":531398,"DIS_CODE":0,"TOWNNAME":"安南區","LI":"安慶里","LIN":"30鄰","STREET":"培安路","SECT":" ","MAREA":" ","LANE":" ","ALLEY":" ","HOUSE_NO":"３８６號","E_COORD97":169300.89999999999,"N_COORD97":2548789.6600000001,"ADDRESS":"培安路３８６號","OBJECTID":531371},"geometry":{"x":169300.89999999944,"y":2548789.6600000001}},{"attributes":{"ID":531399,"DIS_CODE":0,"TOWNNAME":"安南區","LI":"溪頂里","LIN":"30鄰","STREET":"郡安路","SECT":"四段","MAREA":" ","LANE":" ","ALLEY":" ","HOUSE_NO":"１０２號","E_COORD97":168959.82999999999,"N_COORD97":2547602.3100000001,"ADDRESS":"郡安路四段１０２號","OBJECTID":531372},"geometry":{"x":168959.83000000007,"y":2547602.3100000005}},{"attributes":{"ID":531400,"DIS_CODE":0,"TOWNNAME":"安南區","LI":"溪頂里","LIN":"30鄰","STREET":"郡安路","SECT":"四段","MAREA":" ","LANE":" ","ALLEY":" ","HOUSE_NO":"１０３號","E_COORD97":168955.39000000001,"N_COORD97":2547602.7400000002,"ADDRESS":"郡安路四段１０３號","OBJECTID":531373},"geometry":{"x":168955.38999999966,"y":2547602.7400000002}},{"attributes":{"ID":531401,"DIS_CODE":0,"TOWNNAME":"安南區","LI":"溪頂里","LIN":"30鄰","STREET":"郡安路","SECT":"四段","MAREA":" ","LANE":" ","ALLEY":" ","HOUSE_NO":"１０５號","E_COORD97":168950.94,"N_COORD97":2547603.3700000001,"ADDRESS":"郡安路四段１０５號","OBJECTID":531374},"geometry":{"x":168950.94000000041,"y":2547603.3700000029}},{"attributes":{"ID":531402,"DIS_CODE":0,"TOWNNAME":"安南區","LI":"溪頂里","LIN":"30鄰","STREET":"郡安路","SECT":"四段","MAREA":" ","LANE":" ","ALLEY":" ","HOUSE_NO":"１０６號","E_COORD97":168947.13,"N_COORD97":2547603.1600000001,"ADDRESS":"郡安路四段１０６號","OBJECTID":531375},"geometry":{"x":168947.13000000082,"y":2547603.1600000001}},{"attributes":{"ID":531403,"DIS_CODE":0,"TOWNNAME":"安南區","LI":"溪頂里","LIN":"30鄰","STREET":"郡安路","SECT":"四段","MAREA":" ","LANE":" ","ALLEY":" ","HOUSE_NO":"１０７號","E_COORD97":168940.57000000001,"N_COORD97":2547603.3700000001,"ADDRESS":"郡安路四段１０７號","OBJECTID":531376},"geometry":{"x":168940.57000000123,"y":2547603.3700000029}},{"attributes":{"ID":531404,"DIS_CODE":0,"TOWNNAME":"安南區","LI":"安慶里","LIN":"30鄰","STREET":"培安路","SECT":" ","MAREA":" ","LANE":" ","ALLEY":" ","HOUSE_NO":"３９０號","E_COORD97":169313.76999999999,"N_COORD97":2548768.96,"ADDRESS":"培安路３９０號","OBJECTID":531377},"geometry":{"x":169313.76999999955,"y":2548768.9600000028}},{"attributes":{"ID":531405,"DIS_CODE":0,"TOWNNAME":"官田區","LI":"隆本里","LIN":"30鄰","STREET":"中山路","SECT":"二段","MAREA":" ","LANE":" ","ALLEY":" ","HOUSE_NO":"１３２號","E_COORD97":178895.81,"N_COORD97":2566051.5699999998,"ADDRESS":"中山路二段１３２號","OBJECTID":531378},"geometry":{"x":178895.81000000052,"y":2566051.570000004}},{"attributes":{"ID":531406,"DIS_CODE":0,"TOWNNAME":"官田區","LI":"隆本里","LIN":"30鄰","STREET":"中山路","SECT":"二段","MAREA":" ","LANE":" ","ALLEY":" ","HOUSE_NO":"１３６號","E_COORD97":178891.95999999999,"N_COORD97":2566053.2999999998,"ADDRESS":"中山路二段１３６號","OBJECTID":531379},"geometry":{"x":178891.96000000089,"y":2566053.3000000007}},{"attributes":{"ID":531407,"DIS_CODE":0,"TOWNNAME":"官田區","LI":"隆本里","LIN":"30鄰","STREET":"中山路","SECT":"二段","MAREA":" ","LANE":" ","ALLEY":" ","HOUSE_NO":"１３８號","E_COORD97":178888.35999999999,"N_COORD97":2566054.8799999999,"ADDRESS":"中山路二段１３８號","OBJECTID":531380},"geometry":{"x":178888.36000000127,"y":2566054.8800000027}},{"attributes":{"ID":531408,"DIS_CODE":0,"TOWNNAME":"官田區","LI":"隆本里","LIN":"30鄰","STREET":"中山路","SECT":"二段","MAREA":" ","LANE":" ","ALLEY":" ","HOUSE_NO":"１４０號","E_COORD97":178884.76999999999,"N_COORD97":2566057.1299999999,"ADDRESS":"中山路二段１４０號","OBJECTID":531381},"geometry":{"x":178884.76999999955,"y":2566057.1300000008}},{"attributes":{"ID":531409,"DIS_CODE":0,"TOWNNAME":"官田區","LI":"隆田里","LIN":"30鄰","STREET":"中山路","SECT":"二段","MAREA":" ","LANE":" ","ALLEY":" ","HOUSE_NO":"１４１號","E_COORD97":178726,"N_COORD97":2566086.3900000001,"ADDRESS":"中山路二段１４１號","OBJECTID":531382},"geometry":{"x":178726.00000000093,"y":2566086.3900000006}},{"attributes":{"ID":531410,"DIS_CODE":0,"TOWNNAME":"官田區","LI":"隆本里","LIN":"30鄰","STREET":"中山路","SECT":"二段","MAREA":" ","LANE":" ","ALLEY":" ","HOUSE_NO":"１４２號","E_COORD97":178881.23999999999,"N_COORD97":2566058.4300000002,"ADDRESS":"中山路二段１４２號","OBJECTID":531383},"geometry":{"x":178881.24000000022,"y":2566058.4300000034}},{"attributes":{"ID":531411,"DIS_CODE":0,"TOWNNAME":"官田區","LI":"隆田里","LIN":"30鄰","STREET":"中山路","SECT":"二段","MAREA":" ","LANE":" ","ALLEY":" ","HOUSE_NO":"１４３號","E_COORD97":178722.85000000001,"N_COORD97":2566087.54,"ADDRESS":"中山路二段１４３號","OBJECTID":531384},"geometry":{"x":178722.85000000056,"y":2566087.5400000028}},{"attributes":{"ID":531412,"DIS_CODE":0,"TOWNNAME":"官田區","LI":"隆田里","LIN":"30鄰","STREET":"中山路","SECT":"二段","MAREA":" ","LANE":" ","ALLEY":" ","HOUSE_NO":"１４５號","E_COORD97":178719.38,"N_COORD97":2566089.1600000001,"ADDRESS":"中山路二段１４５號","OBJECTID":531385},"geometry":{"x":178719.38000000082,"y":2566089.160000002}},{"attributes":{"ID":531413,"DIS_CODE":0,"TOWNNAME":"永康區","LI":"大灣里","LIN":"30鄰","STREET":"民族路","SECT":" ","MAREA":" ","LANE":" ","ALLEY":" ","HOUSE_NO":"９８號","E_COORD97":175328.70999999999,"N_COORD97":2544830.7799999998,"ADDRESS":"民族路９８號","OBJECTID":531386},"geometry":{"x":175328.71000000089,"y":2544830.7799999993}},{"attributes":{"ID":531414,"DIS_CODE":0,"TOWNNAME":"官田區","LI":"隆本里","LIN":"30鄰","STREET":"中山路","SECT":"二段","MAREA":" ","LANE":" ","ALLEY":" ","HOUSE_NO":"１４６號","E_COORD97":178877.62,"N_COORD97":2566060.1200000001,"ADDRESS":"中山路二段１４６號","OBJECTID":531387},"geometry":{"x":178877.62000000104,"y":2566060.1200000029}},{"attributes":{"ID":531415,"DIS_CODE":0,"TOWNNAME":"官田區","LI":"隆田里","LIN":"30鄰","STREET":"中山路","SECT":"二段","MAREA":" ","LANE":" ","ALLEY":" ","HOUSE_NO":"１４７號","E_COORD97":178716.45999999999,"N_COORD97":2566090.23,"ADDRESS":"中山路二段１４７號","OBJECTID":531388},"geometry":{"x":178716.45999999996,"y":2566090.2300000004}},{"attributes":{"ID":531416,"DIS_CODE":0,"TOWNNAME":"官田區","LI":"隆本里","LIN":"30鄰","STREET":"中山路","SECT":"二段","MAREA":" ","LANE":" ","ALLEY":" ","HOUSE_NO":"１４８號","E_COORD97":178873.51999999999,"N_COORD97":2566062.1800000002,"ADDRESS":"中山路二段１４８號","OBJECTID":531389},"geometry":{"x":178873.51999999955,"y":2566062.1799999997}},{"attributes":{"ID":531417,"DIS_CODE":0,"TOWNNAME":"官田區","LI":"隆田里","LIN":"30鄰","STREET":"中山路","SECT":"二段","MAREA":" ","LANE":" ","ALLEY":" ","HOUSE_NO":"１４９號","E_COORD97":178713.20000000001,"N_COORD97":2566091.48,"ADDRESS":"中山路二段１４９號","OBJECTID":531390},"geometry":{"x":178713.20000000019,"y":2566091.4800000004}},{"attributes":{"ID":531418,"DIS_CODE":0,"TOWNNAME":"官田區","LI":"隆本里","LIN":"30鄰","STREET":"中山路","SECT":"二段","MAREA":" ","LANE":" ","ALLEY":" ","HOUSE_NO":"１５０號","E_COORD97":178861.66,"N_COORD97":2566060.0600000001,"ADDRESS":"中山路二段１５０號","OBJECTID":531391},"geometry":{"x":178861.66000000201,"y":2566060.0600000024}},{"attributes":{"ID":531419,"DIS_CODE":0,"TOWNNAME":"官田區","LI":"隆田里","LIN":"30鄰","STREET":"中山路","SECT":"二段","MAREA":" ","LANE":" ","ALLEY":" ","HOUSE_NO":"１５１號","E_COORD97":178710.06,"N_COORD97":2566092.73,"ADDRESS":"中山路二段１５１號","OBJECTID":531392},"geometry":{"x":178710.05999999959,"y":2566092.7300000023}},{"attributes":{"ID":531420,"DIS_CODE":0,"TOWNNAME":"官田區","LI":"隆本里","LIN":"30鄰","STREET":"中山路","SECT":"二段","MAREA":" ","LANE":" ","ALLEY":" ","HOUSE_NO":"１５２號","E_COORD97":178855.70000000001,"N_COORD97":2566062.6000000001,"ADDRESS":"中山路二段１５２號","OBJECTID":531393},"geometry":{"x":178855.70000000019,"y":2566062.5999999996}},{"attributes":{"ID":531421,"DIS_CODE":0,"TOWNNAME":"官田區","LI":"隆本里","LIN":"30鄰","STREET":"中山路","SECT":"二段","MAREA":" ","LANE":" ","ALLEY":" ","HOUSE_NO":"１５６號","E_COORD97":178850.20999999999,"N_COORD97":2566064.9199999999,"ADDRESS":"中山路二段１５６號","OBJECTID":531394},"geometry":{"x":178850.20999999996,"y":2566064.9199999999}},{"attributes":{"ID":531422,"DIS_CODE":0,"TOWNNAME":"官田區","LI":"隆本里","LIN":"30鄰","STREET":"中山路","SECT":"二段","MAREA":" ","LANE":" ","ALLEY":" ","HOUSE_NO":"１５８號","E_COORD97":178844.20000000001,"N_COORD97":2566067.1099999999,"ADDRESS":"中山路二段１５８號","OBJECTID":531395},"geometry":{"x":178844.20000000019,"y":2566067.1100000031}},{"attributes":{"ID":531423,"DIS_CODE":0,"TOWNNAME":"官田區","LI":"隆本里","LIN":"30鄰","STREET":"中山路","SECT":"二段","MAREA":" ","LANE":" ","ALLEY":" ","HOUSE_NO":"１６０號","E_COORD97":178839.94,"N_COORD97":2566069.4100000001,"ADDRESS":"中山路二段１６０號","OBJECTID":531396},"geometry":{"x":178839.94000000134,"y":2566069.4100000039}},{"attributes":{"ID":531424,"DIS_CODE":0,"TOWNNAME":"官田區","LI":"隆本里","LIN":"30鄰","STREET":"中山路","SECT":"二段","MAREA":" ","LANE":" ","ALLEY":" ","HOUSE_NO":"１６２號","E_COORD97":178836.56,"N_COORD97":2566070.9500000002,"ADDRESS":"中山路二段１６２號","OBJECTID":531397},"geometry":{"x":178836.56000000052,"y":2566070.9499999993}},{"attributes":{"ID":531425,"DIS_CODE":0,"TOWNNAME":"官田區","LI":"隆田里","LIN":"30鄰","STREET":"中山路","SECT":"二段","MAREA":" ","LANE":" ","ALLEY":" ","HOUSE_NO":"１６３號","E_COORD97":178562.57999999999,"N_COORD97":2566156.5499999998,"ADDRESS":"中山路二段１６３號","OBJECTID":531398},"geometry":{"x":178562.58000000101,"y":2566156.5500000007}},{"attributes":{"ID":531426,"DIS_CODE":0,"TOWNNAME":"官田區","LI":"隆本里","LIN":"30鄰","STREET":"中山路","SECT":"二段","MAREA":" ","LANE":" ","ALLEY":" ","HOUSE_NO":"１６６號","E_COORD97":178833.45999999999,"N_COORD97":2566072.6600000001,"ADDRESS":"中山路二段１６６號","OBJECTID":531399},"geometry":{"x":178833.45999999996,"y":2566072.6600000001}},{"attributes":{"ID":531427,"DIS_CODE":0,"TOWNNAME":"官田區","LI":"隆田里","LIN":"30鄰","STREET":"中山路","SECT":"二段","MAREA":" ","LANE":" ","ALLEY":" ","HOUSE_NO":"１６７號","E_COORD97":178535.42000000001,"N_COORD97":2566166.3999999999,"ADDRESS":"中山路二段１６７號","OBJECTID":531400},"geometry":{"x":178535.41999999993,"y":2566166.4000000004}}]}