{"displayFieldName":"TOWNNAME","fieldAliases":{"ID":"ID","DIS_CODE":"DIS_CODE","TOWNNAME":"TOWNNAME","LI":"LI","LIN":"LIN","STREET":"STREET","SECT":"SECT","MAREA":"MAREA","LANE":"LANE","ALLEY":"ALLEY","HOUSE_NO":"HOUSE_NO","E_COORD97":"E_COORD97","N_COORD97":"N_COORD97","ADDRESS":"ADDRESS","OBJECTID":"OBJECTID"},"geometryType":"esriGeometryPoint","spatialReference":{"wkid":102443,"latestWkid":3826},"fields":[{"name":"ID","type":"esriFieldTypeDouble","alias":"ID"},{"name":"DIS_CODE","type":"esriFieldTypeInteger","alias":"DIS_CODE"},{"name":"TOWNNAME","type":"esriFieldTypeString","alias":"TOWNNAME","length":8},{"name":"LI","type":"esriFieldTypeString","alias":"LI","length":8},{"name":"LIN","type":"esriFieldTypeString","alias":"LIN","length":12},{"name":"STREET","type":"esriFieldTypeString","alias":"STREET","length":20},{"name":"SECT","type":"esriFieldTypeString","alias":"SECT","length":8},{"name":"MAREA","type":"esriFieldTypeString","alias":"MAREA","length":12},{"name":"LANE","type":"esriFieldTypeString","alias":"LANE","length":10},{"name":"ALLEY","type":"esriFieldTypeString","alias":"ALLEY","length":10},{"name":"HOUSE_NO","type":"esriFieldTypeString","alias":"HOUSE_NO","length":20},{"name":"E_COORD97","type":"esriFieldTypeDouble","alias":"E_COORD97"},{"name":"N_COORD97","type":"esriFieldTypeDouble","alias":"N_COORD97"},{"name":"ADDRESS","type":"esriFieldTypeString","alias":"ADDRESS","length":50},{"name":"OBJECTID","type":"esriFieldTypeOID","alias":"OBJECTID"}],"features":[{"attributes":{"ID":366811,"DIS_CODE":0,"TOWNNAME":"東區","LI":"圍下里","LIN":"12鄰","STREET":"前鋒路","SECT":" ","MAREA":" ","LANE":"８５巷","ALLEY":" ","HOUSE_NO":"１１號三樓之１","E_COORD97":169271.92999999999,"N_COORD97":2543624.8300000001,"ADDRESS":"前鋒路８５巷１１號三樓之１","OBJECTID":366801},"geometry":{"x":169271.93000000063,"y":2543624.8300000001}},{"attributes":{"ID":366812,"DIS_CODE":0,"TOWNNAME":"東區","LI":"圍下里","LIN":"12鄰","STREET":"前鋒路","SECT":" ","MAREA":" ","LANE":"８５巷","ALLEY":" ","HOUSE_NO":"１１號四樓之１","E_COORD97":169271.92999999999,"N_COORD97":2543624.8300000001,"ADDRESS":"前鋒路８５巷１１號四樓之１","OBJECTID":366802},"geometry":{"x":169271.93000000063,"y":2543624.8300000001}},{"attributes":{"ID":366813,"DIS_CODE":0,"TOWNNAME":"東區","LI":"圍下里","LIN":"12鄰","STREET":"前鋒路","SECT":" ","MAREA":" ","LANE":"８５巷","ALLEY":" ","HOUSE_NO":"９號二樓之１","E_COORD97":169268.5,"N_COORD97":2543606.0699999998,"ADDRESS":"前鋒路８５巷９號二樓之１","OBJECTID":366803},"geometry":{"x":169268.50000000093,"y":2543606.0700000003}},{"attributes":{"ID":366814,"DIS_CODE":0,"TOWNNAME":"東區","LI":"圍下里","LIN":"12鄰","STREET":"前鋒路","SECT":" ","MAREA":" ","LANE":"８５巷","ALLEY":" ","HOUSE_NO":"９號二樓之２","E_COORD97":169260.23999999999,"N_COORD97":2543607.6800000002,"ADDRESS":"前鋒路８５巷９號二樓之２","OBJECTID":366804},"geometry":{"x":169260.24000000115,"y":2543607.6799999997}},{"attributes":{"ID":366815,"DIS_CODE":0,"TOWNNAME":"東區","LI":"圍下里","LIN":"12鄰","STREET":"前鋒路","SECT":" ","MAREA":" ","LANE":"８５巷","ALLEY":" ","HOUSE_NO":"９號三樓之１","E_COORD97":169268.5,"N_COORD97":2543606.0699999998,"ADDRESS":"前鋒路８５巷９號三樓之１","OBJECTID":366805},"geometry":{"x":169268.50000000093,"y":2543606.0700000003}},{"attributes":{"ID":366816,"DIS_CODE":0,"TOWNNAME":"東區","LI":"圍下里","LIN":"12鄰","STREET":"前鋒路","SECT":" ","MAREA":" ","LANE":"８５巷","ALLEY":" ","HOUSE_NO":"９號四樓之１","E_COORD97":169268.5,"N_COORD97":2543606.0699999998,"ADDRESS":"前鋒路８５巷９號四樓之１","OBJECTID":366806},"geometry":{"x":169268.50000000093,"y":2543606.0700000003}},{"attributes":{"ID":366817,"DIS_CODE":0,"TOWNNAME":"東區","LI":"圍下里","LIN":"12鄰","STREET":"前鋒路","SECT":" ","MAREA":" ","LANE":"８５巷","ALLEY":" ","HOUSE_NO":"９號四樓之２","E_COORD97":169260.23999999999,"N_COORD97":2543607.6800000002,"ADDRESS":"前鋒路８５巷９號四樓之２","OBJECTID":366807},"geometry":{"x":169260.24000000115,"y":2543607.6799999997}},{"attributes":{"ID":366818,"DIS_CODE":0,"TOWNNAME":"東區","LI":"圍下里","LIN":"12鄰","STREET":"前鋒路","SECT":" ","MAREA":" ","LANE":"８５巷","ALLEY":" ","HOUSE_NO":"９號三樓之２","E_COORD97":169260.23999999999,"N_COORD97":2543607.6800000002,"ADDRESS":"前鋒路８５巷９號三樓之２","OBJECTID":366808},"geometry":{"x":169260.24000000115,"y":2543607.6799999997}},{"attributes":{"ID":366819,"DIS_CODE":0,"TOWNNAME":"東區","LI":"圍下里","LIN":"12鄰","STREET":"前鋒路","SECT":" ","MAREA":" ","LANE":"８５巷","ALLEY":" ","HOUSE_NO":"１０號四樓之１","E_COORD97":169272.84,"N_COORD97":2543634.7200000002,"ADDRESS":"前鋒路８５巷１０號四樓之１","OBJECTID":366809},"geometry":{"x":169272.84000000078,"y":2543634.7200000025}},{"attributes":{"ID":366820,"DIS_CODE":0,"TOWNNAME":"東區","LI":"圍下里","LIN":"12鄰","STREET":"前鋒路","SECT":" ","MAREA":" ","LANE":"８５巷","ALLEY":" ","HOUSE_NO":"１１號二樓之１","E_COORD97":169271.92999999999,"N_COORD97":2543624.8300000001,"ADDRESS":"前鋒路８５巷１１號二樓之１","OBJECTID":366810},"geometry":{"x":169271.93000000063,"y":2543624.8300000001}},{"attributes":{"ID":366821,"DIS_CODE":0,"TOWNNAME":"東區","LI":"圍下里","LIN":"13鄰","STREET":"衛民街","SECT":" ","MAREA":" ","LANE":" ","ALLEY":" ","HOUSE_NO":"１號之１８","E_COORD97":169388.51000000001,"N_COORD97":2543655.0699999998,"ADDRESS":"衛民街１號之１８","OBJECTID":366811},"geometry":{"x":169388.51000000071,"y":2543655.0700000022}},{"attributes":{"ID":366822,"DIS_CODE":0,"TOWNNAME":"東區","LI":"圍下里","LIN":"13鄰","STREET":"衛民街","SECT":" ","MAREA":" ","LANE":" ","ALLEY":" ","HOUSE_NO":"１號之１９","E_COORD97":169394.60999999999,"N_COORD97":2543657.2400000002,"ADDRESS":"衛民街１號之１９","OBJECTID":366812},"geometry":{"x":169394.61000000127,"y":2543657.2400000021}},{"attributes":{"ID":366823,"DIS_CODE":0,"TOWNNAME":"善化區","LI":"胡厝里","LIN":"13鄰","STREET":" ","SECT":" ","MAREA":"胡厝寮","LANE":" ","ALLEY":" ","HOUSE_NO":"２２７號之２","E_COORD97":175021.35999999999,"N_COORD97":2560230.77,"ADDRESS":"胡厝寮２２７號之２","OBJECTID":366813},"geometry":{"x":175021.36000000127,"y":2560230.7699999996}},{"attributes":{"ID":366824,"DIS_CODE":0,"TOWNNAME":"善化區","LI":"溪美里","LIN":"13鄰","STREET":" ","SECT":" ","MAREA":"溪尾","LANE":" ","ALLEY":" ","HOUSE_NO":"１１５號","E_COORD97":176981.84,"N_COORD97":2561524.77,"ADDRESS":"溪尾１１５號","OBJECTID":366814},"geometry":{"x":176981.84000000171,"y":2561524.7700000014}},{"attributes":{"ID":366825,"DIS_CODE":0,"TOWNNAME":"善化區","LI":"胡家里","LIN":"13鄰","STREET":" ","SECT":" ","MAREA":"胡厝寮","LANE":" ","ALLEY":" ","HOUSE_NO":"７２號之１","E_COORD97":175312.16,"N_COORD97":2560683.27,"ADDRESS":"胡厝寮７２號之１","OBJECTID":366815},"geometry":{"x":175312.16000000108,"y":2560683.2700000014}},{"attributes":{"ID":366826,"DIS_CODE":0,"TOWNNAME":"善化區","LI":"胡家里","LIN":"13鄰","STREET":" ","SECT":" ","MAREA":"胡厝寮","LANE":" ","ALLEY":" ","HOUSE_NO":"６７號之３","E_COORD97":175327.64000000001,"N_COORD97":2560727.02,"ADDRESS":"胡厝寮６７號之３","OBJECTID":366816},"geometry":{"x":175327.63999999966,"y":2560727.0199999996}},{"attributes":{"ID":366827,"DIS_CODE":0,"TOWNNAME":"善化區","LI":"嘉南里","LIN":"13鄰","STREET":" ","SECT":" ","MAREA":"茄拔","LANE":" ","ALLEY":" ","HOUSE_NO":"３３０號","E_COORD97":180818.45000000001,"N_COORD97":2559498.2599999998,"ADDRESS":"茄拔３３０號","OBJECTID":366817},"geometry":{"x":180818.45000000019,"y":2559498.2599999998}},{"attributes":{"ID":366828,"DIS_CODE":0,"TOWNNAME":"善化區","LI":"嘉北里","LIN":"13鄰","STREET":" ","SECT":" ","MAREA":"茄拔","LANE":" ","ALLEY":" ","HOUSE_NO":"３０６號","E_COORD97":180837.39000000001,"N_COORD97":2559653.5099999998,"ADDRESS":"茄拔３０６號","OBJECTID":366818},"geometry":{"x":180837.38999999966,"y":2559653.5100000035}},{"attributes":{"ID":366829,"DIS_CODE":0,"TOWNNAME":"善化區","LI":"嘉北里","LIN":"13鄰","STREET":" ","SECT":" ","MAREA":"茄拔","LANE":" ","ALLEY":" ","HOUSE_NO":"３０１號之２","E_COORD97":180935.5,"N_COORD97":2559636.02,"ADDRESS":"茄拔３０１號之２","OBJECTID":366819},"geometry":{"x":180935.5,"y":2559636.0199999996}},{"attributes":{"ID":366830,"DIS_CODE":0,"TOWNNAME":"善化區","LI":"溪美里","LIN":"13鄰","STREET":" ","SECT":" ","MAREA":"溪尾","LANE":" ","ALLEY":" ","HOUSE_NO":"１１６號之１７","E_COORD97":176931.60999999999,"N_COORD97":2561481.4399999999,"ADDRESS":"溪尾１１６號之１７","OBJECTID":366820},"geometry":{"x":176931.61000000127,"y":2561481.4400000013}},{"attributes":{"ID":366831,"DIS_CODE":0,"TOWNNAME":"善化區","LI":"坐駕里","LIN":"13鄰","STREET":"信義路","SECT":" ","MAREA":" ","LANE":"７１巷","ALLEY":" ","HOUSE_NO":"２１號","E_COORD97":178225.64999999999,"N_COORD97":2558700,"ADDRESS":"信義路７１巷２１號","OBJECTID":366821},"geometry":{"x":178225.65000000037,"y":2558700}},{"attributes":{"ID":366832,"DIS_CODE":0,"TOWNNAME":"永康區","LI":"\u25A0洲里","LIN":"12鄰","STREET":"\u25A0洲一街","SECT":" ","MAREA":" ","LANE":"１１巷","ALLEY":" ","HOUSE_NO":"５２號四樓之１","E_COORD97":171584.60999999999,"N_COORD97":2549112.7999999998,"ADDRESS":"\u25A0洲一街１１巷５２號四樓之１","OBJECTID":366822},"geometry":{"x":171584.6100000022,"y":2549112.8000000026}},{"attributes":{"ID":366833,"DIS_CODE":0,"TOWNNAME":"永康區","LI":"\u25A0洲里","LIN":"12鄰","STREET":"\u25A0洲一街","SECT":" ","MAREA":" ","LANE":"１１巷","ALLEY":" ","HOUSE_NO":"５０號二樓之２","E_COORD97":171579.73999999999,"N_COORD97":2549108.0499999998,"ADDRESS":"\u25A0洲一街１１巷５０號二樓之２","OBJECTID":366823},"geometry":{"x":171579.74000000022,"y":2549108.0500000026}},{"attributes":{"ID":366834,"DIS_CODE":0,"TOWNNAME":"善化區","LI":"嘉北里","LIN":"13鄰","STREET":" ","SECT":" ","MAREA":"茄拔","LANE":" ","ALLEY":" ","HOUSE_NO":"３０４號之１１","E_COORD97":180827.45999999999,"N_COORD97":2559672.3300000001,"ADDRESS":"茄拔３０４號之１１","OBJECTID":366824},"geometry":{"x":180827.46000000183,"y":2559672.3300000038}},{"attributes":{"ID":366835,"DIS_CODE":0,"TOWNNAME":"永康區","LI":"\u25A0洲里","LIN":"12鄰","STREET":"\u25A0洲一街","SECT":" ","MAREA":" ","LANE":"１１巷","ALLEY":" ","HOUSE_NO":"３８號二樓之１","E_COORD97":171566.07000000001,"N_COORD97":2549094.54,"ADDRESS":"\u25A0洲一街１１巷３８號二樓之１","OBJECTID":366825},"geometry":{"x":171566.0700000003,"y":2549094.5399999991}},{"attributes":{"ID":366836,"DIS_CODE":0,"TOWNNAME":"永康區","LI":"\u25A0洲里","LIN":"12鄰","STREET":"\u25A0洲一街","SECT":" ","MAREA":" ","LANE":"１１巷","ALLEY":" ","HOUSE_NO":"５２號四樓之２","E_COORD97":171584.73999999999,"N_COORD97":2549112.7999999998,"ADDRESS":"\u25A0洲一街１１巷５２號四樓之２","OBJECTID":366826},"geometry":{"x":171584.74000000022,"y":2549112.8000000026}},{"attributes":{"ID":366837,"DIS_CODE":0,"TOWNNAME":"永康區","LI":"\u25A0洲里","LIN":"12鄰","STREET":"\u25A0洲一街","SECT":" ","MAREA":" ","LANE":"１１巷","ALLEY":" ","HOUSE_NO":"５２號三樓之１","E_COORD97":171584.60999999999,"N_COORD97":2549112.7999999998,"ADDRESS":"\u25A0洲一街１１巷５２號三樓之１","OBJECTID":366827},"geometry":{"x":171584.6100000022,"y":2549112.8000000026}},{"attributes":{"ID":366838,"DIS_CODE":0,"TOWNNAME":"中西區","LI":"法華里","LIN":"12鄰","STREET":"健康路","SECT":"一段","MAREA":" ","LANE":"１００巷","ALLEY":" ","HOUSE_NO":"３號二樓","E_COORD97":168909.75,"N_COORD97":2542461.9300000002,"ADDRESS":"健康路一段１００巷３號二樓","OBJECTID":366828},"geometry":{"x":168909.75,"y":2542461.9300000016}},{"attributes":{"ID":366839,"DIS_CODE":0,"TOWNNAME":"中西區","LI":"法華里","LIN":"12鄰","STREET":"健康路","SECT":"一段","MAREA":" ","LANE":"１００巷","ALLEY":" ","HOUSE_NO":"３號三樓","E_COORD97":168909.75,"N_COORD97":2542461.9300000002,"ADDRESS":"健康路一段１００巷３號三樓","OBJECTID":366829},"geometry":{"x":168909.75,"y":2542461.9300000016}},{"attributes":{"ID":366840,"DIS_CODE":0,"TOWNNAME":"中西區","LI":"法華里","LIN":"12鄰","STREET":"健康路","SECT":"一段","MAREA":" ","LANE":"１００巷","ALLEY":" ","HOUSE_NO":"３號五樓","E_COORD97":168909.75,"N_COORD97":2542461.9300000002,"ADDRESS":"健康路一段１００巷３號五樓","OBJECTID":366830},"geometry":{"x":168909.75,"y":2542461.9300000016}},{"attributes":{"ID":366841,"DIS_CODE":0,"TOWNNAME":"中西區","LI":"法華里","LIN":"12鄰","STREET":"健康路","SECT":"一段","MAREA":" ","LANE":"１００巷","ALLEY":" ","HOUSE_NO":"３號四樓","E_COORD97":168909.75,"N_COORD97":2542461.9300000002,"ADDRESS":"健康路一段１００巷３號四樓","OBJECTID":366831},"geometry":{"x":168909.75,"y":2542461.9300000016}},{"attributes":{"ID":366842,"DIS_CODE":0,"TOWNNAME":"東區","LI":"圍下里","LIN":"13鄰","STREET":"衛民街","SECT":" ","MAREA":" ","LANE":" ","ALLEY":" ","HOUSE_NO":"１號之２０","E_COORD97":169381.47,"N_COORD97":2543647.7200000002,"ADDRESS":"衛民街１號之２０","OBJECTID":366832},"geometry":{"x":169381.47000000067,"y":2543647.7200000025}},{"attributes":{"ID":366843,"DIS_CODE":0,"TOWNNAME":"中西區","LI":"保安里","LIN":"13鄰","STREET":"中正路","SECT":" ","MAREA":" ","LANE":"２７１巷","ALLEY":" ","HOUSE_NO":"６號","E_COORD97":167610.62,"N_COORD97":2543730,"ADDRESS":"中正路２７１巷６號","OBJECTID":366833},"geometry":{"x":167610.62000000011,"y":2543730.0000000019}},{"attributes":{"ID":366844,"DIS_CODE":0,"TOWNNAME":"新市區","LI":"社內里","LIN":"13鄰","STREET":" ","SECT":" ","MAREA":"社內","LANE":" ","ALLEY":" ","HOUSE_NO":"１３６號之５","E_COORD97":176313.37,"N_COORD97":2552780.0499999998,"ADDRESS":"社內１３６號之５","OBJECTID":366834},"geometry":{"x":176313.37000000011,"y":2552780.0500000026}},{"attributes":{"ID":366845,"DIS_CODE":0,"TOWNNAME":"新市區","LI":"豐華里","LIN":"13鄰","STREET":" ","SECT":" ","MAREA":"豐華","LANE":" ","ALLEY":" ","HOUSE_NO":"４７之１４８號","E_COORD97":174257.54000000001,"N_COORD97":2554453.5499999998,"ADDRESS":"豐華４７之１４８號","OBJECTID":366835},"geometry":{"x":174257.54000000004,"y":2554453.5500000045}},{"attributes":{"ID":366846,"DIS_CODE":0,"TOWNNAME":"新市區","LI":"豐華里","LIN":"13鄰","STREET":" ","SECT":" ","MAREA":"豐華","LANE":" ","ALLEY":" ","HOUSE_NO":"４７之１５８號","E_COORD97":174285.26000000001,"N_COORD97":2554495.5499999998,"ADDRESS":"豐華４７之１５８號","OBJECTID":366836},"geometry":{"x":174285.26000000164,"y":2554495.5500000026}},{"attributes":{"ID":366847,"DIS_CODE":0,"TOWNNAME":"新市區","LI":"大社里","LIN":"13鄰","STREET":" ","SECT":" ","MAREA":"大社","LANE":" ","ALLEY":" ","HOUSE_NO":"４２５號","E_COORD97":179993.73000000001,"N_COORD97":2554824,"ADDRESS":"大社４２５號","OBJECTID":366837},"geometry":{"x":179993.73000000231,"y":2554824.0000000019}},{"attributes":{"ID":366848,"DIS_CODE":0,"TOWNNAME":"中西區","LI":"法華里","LIN":"12鄰","STREET":"健康路","SECT":"一段","MAREA":" ","LANE":"１００巷","ALLEY":" ","HOUSE_NO":"５號二樓","E_COORD97":168907.39000000001,"N_COORD97":2542469.0099999998,"ADDRESS":"健康路一段１００巷５號二樓","OBJECTID":366838},"geometry":{"x":168907.3900000006,"y":2542469.0100000016}},{"attributes":{"ID":366849,"DIS_CODE":0,"TOWNNAME":"中西區","LI":"法華里","LIN":"12鄰","STREET":"健康路","SECT":"一段","MAREA":" ","LANE":"１００巷","ALLEY":" ","HOUSE_NO":"５號三樓","E_COORD97":168907.39000000001,"N_COORD97":2542469.0099999998,"ADDRESS":"健康路一段１００巷５號三樓","OBJECTID":366839},"geometry":{"x":168907.3900000006,"y":2542469.0100000016}},{"attributes":{"ID":366850,"DIS_CODE":0,"TOWNNAME":"中西區","LI":"法華里","LIN":"12鄰","STREET":"健康路","SECT":"一段","MAREA":" ","LANE":"１００巷","ALLEY":" ","HOUSE_NO":"５號五樓","E_COORD97":168907.39000000001,"N_COORD97":2542469.0099999998,"ADDRESS":"健康路一段１００巷５號五樓","OBJECTID":366840},"geometry":{"x":168907.3900000006,"y":2542469.0100000016}},{"attributes":{"ID":366851,"DIS_CODE":0,"TOWNNAME":"中西區","LI":"法華里","LIN":"12鄰","STREET":"健康路","SECT":"一段","MAREA":" ","LANE":"１００巷","ALLEY":" ","HOUSE_NO":"５號四樓","E_COORD97":168907.39000000001,"N_COORD97":2542469.0099999998,"ADDRESS":"健康路一段１００巷５號四樓","OBJECTID":366841},"geometry":{"x":168907.3900000006,"y":2542469.0100000016}},{"attributes":{"ID":366852,"DIS_CODE":0,"TOWNNAME":"中西區","LI":"法華里","LIN":"12鄰","STREET":"健康路","SECT":"一段","MAREA":" ","LANE":"１００巷","ALLEY":" ","HOUSE_NO":"７號二樓","E_COORD97":168912.51000000001,"N_COORD97":2542478.4399999999,"ADDRESS":"健康路一段１００巷７號二樓","OBJECTID":366842},"geometry":{"x":168912.50999999978,"y":2542478.4400000013}},{"attributes":{"ID":366853,"DIS_CODE":0,"TOWNNAME":"中西區","LI":"法華里","LIN":"12鄰","STREET":"健康路","SECT":"一段","MAREA":" ","LANE":"１００巷","ALLEY":" ","HOUSE_NO":"７號三樓","E_COORD97":168912.51000000001,"N_COORD97":2542478.4399999999,"ADDRESS":"健康路一段１００巷７號三樓","OBJECTID":366843},"geometry":{"x":168912.50999999978,"y":2542478.4400000013}},{"attributes":{"ID":366854,"DIS_CODE":0,"TOWNNAME":"中西區","LI":"法華里","LIN":"12鄰","STREET":"健康路","SECT":"一段","MAREA":" ","LANE":"１００巷","ALLEY":" ","HOUSE_NO":"７號五樓","E_COORD97":168912.51000000001,"N_COORD97":2542478.4399999999,"ADDRESS":"健康路一段１００巷７號五樓","OBJECTID":366844},"geometry":{"x":168912.50999999978,"y":2542478.4400000013}},{"attributes":{"ID":366855,"DIS_CODE":0,"TOWNNAME":"中西區","LI":"法華里","LIN":"12鄰","STREET":"健康路","SECT":"一段","MAREA":" ","LANE":"１００巷","ALLEY":" ","HOUSE_NO":"７號四樓","E_COORD97":168912.51000000001,"N_COORD97":2542478.4399999999,"ADDRESS":"健康路一段１００巷７號四樓","OBJECTID":366845},"geometry":{"x":168912.50999999978,"y":2542478.4400000013}},{"attributes":{"ID":366856,"DIS_CODE":0,"TOWNNAME":"永康區","LI":"東橋里","LIN":"15鄰","STREET":"中山南路","SECT":" ","MAREA":" ","LANE":"３４７巷","ALLEY":" ","HOUSE_NO":"１１號","E_COORD97":171954.48999999999,"N_COORD97":2546453.9100000001,"ADDRESS":"中山南路３４７巷１１號","OBJECTID":366846},"geometry":{"x":171954.49000000022,"y":2546453.910000002}},{"attributes":{"ID":366857,"DIS_CODE":0,"TOWNNAME":"仁德區","LI":"保安里","LIN":"12鄰","STREET":"永德路","SECT":" ","MAREA":" ","LANE":"１７巷","ALLEY":" ","HOUSE_NO":"１０號三樓","E_COORD97":172327.92999999999,"N_COORD97":2535922.7599999998,"ADDRESS":"永德路１７巷１０號三樓","OBJECTID":366847},"geometry":{"x":172327.93000000063,"y":2535922.7600000035}},{"attributes":{"ID":366858,"DIS_CODE":0,"TOWNNAME":"新市區","LI":"豐華里","LIN":"13鄰","STREET":" ","SECT":" ","MAREA":"豐華","LANE":" ","ALLEY":" ","HOUSE_NO":"４７之１４３號","E_COORD97":174250.60000000001,"N_COORD97":2554433.2999999998,"ADDRESS":"豐華４７之１４３號","OBJECTID":366848},"geometry":{"x":174250.60000000149,"y":2554433.3000000007}},{"attributes":{"ID":366859,"DIS_CODE":0,"TOWNNAME":"新市區","LI":"潭頂里","LIN":"13鄰","STREET":" ","SECT":" ","MAREA":"潭頂","LANE":" ","ALLEY":" ","HOUSE_NO":"４７４號之１","E_COORD97":180429.42999999999,"N_COORD97":2552795.5499999998,"ADDRESS":"潭頂４７４號之１","OBJECTID":366849},"geometry":{"x":180429.43000000063,"y":2552795.5500000045}},{"attributes":{"ID":366860,"DIS_CODE":0,"TOWNNAME":"東區","LI":"圍下里","LIN":"13鄰","STREET":"衛民街","SECT":" ","MAREA":" ","LANE":" ","ALLEY":" ","HOUSE_NO":"１號之２１","E_COORD97":169391.12,"N_COORD97":2543647.6699999999,"ADDRESS":"衛民街１號之２１","OBJECTID":366850},"geometry":{"x":169391.12000000104,"y":2543647.6700000018}},{"attributes":{"ID":366861,"DIS_CODE":0,"TOWNNAME":"北門區","LI":"三光里","LIN":"13鄰","STREET":" ","SECT":" ","MAREA":"蘆竹溝","LANE":" ","ALLEY":" ","HOUSE_NO":"２８４號","E_COORD97":157742.39999999999,"N_COORD97":2570441.4399999999,"ADDRESS":"蘆竹溝２８４號","OBJECTID":366851},"geometry":{"x":157742.40000000037,"y":2570441.4399999995}},{"attributes":{"ID":366862,"DIS_CODE":0,"TOWNNAME":"新市區","LI":"新和里","LIN":"13鄰","STREET":"忠孝街","SECT":" ","MAREA":" ","LANE":"８３巷","ALLEY":" ","HOUSE_NO":"７號","E_COORD97":177642.20999999999,"N_COORD97":2552549,"ADDRESS":"忠孝街８３巷７號","OBJECTID":366852},"geometry":{"x":177642.21000000183,"y":2552549.0000000019}},{"attributes":{"ID":366863,"DIS_CODE":0,"TOWNNAME":"仁德區","LI":"保安里","LIN":"12鄰","STREET":"永德路","SECT":" ","MAREA":" ","LANE":"１７巷","ALLEY":" ","HOUSE_NO":"２號一樓","E_COORD97":172300.17999999999,"N_COORD97":2535899.5099999998,"ADDRESS":"永德路１７巷２號一樓","OBJECTID":366853},"geometry":{"x":172300.1799999997,"y":2535899.5099999998}},{"attributes":{"ID":366864,"DIS_CODE":0,"TOWNNAME":"仁德區","LI":"保安里","LIN":"12鄰","STREET":"永德路","SECT":" ","MAREA":" ","LANE":"１７巷","ALLEY":" ","HOUSE_NO":"６號四樓","E_COORD97":172314.06,"N_COORD97":2535911.7599999998,"ADDRESS":"永德路１７巷６號四樓","OBJECTID":366854},"geometry":{"x":172314.05999999959,"y":2535911.7599999998}},{"attributes":{"ID":366865,"DIS_CODE":0,"TOWNNAME":"南區","LI":"省躬里","LIN":"12鄰","STREET":"省躬二街","SECT":" ","MAREA":" ","LANE":"１６巷","ALLEY":" ","HOUSE_NO":"６號","E_COORD97":165714.35000000001,"N_COORD97":2537027.25,"ADDRESS":"省躬二街１６巷６號","OBJECTID":366855},"geometry":{"x":165714.35000000056,"y":2537027.25}},{"attributes":{"ID":366866,"DIS_CODE":0,"TOWNNAME":"永康區","LI":"埔園里","LIN":"35鄰","STREET":"八德街","SECT":" ","MAREA":" ","LANE":"７３巷","ALLEY":" ","HOUSE_NO":"１５號","E_COORD97":174162.78,"N_COORD97":2548419.1800000002,"ADDRESS":"八德街７３巷１５號","OBJECTID":366856},"geometry":{"x":174162.78000000026,"y":2548419.1799999997}},{"attributes":{"ID":366867,"DIS_CODE":0,"TOWNNAME":"永康區","LI":"安康里","LIN":"12鄰","STREET":"中華路","SECT":" ","MAREA":" ","LANE":"６１９巷","ALLEY":" ","HOUSE_NO":"１５號之１三樓","E_COORD97":171006.53,"N_COORD97":2546069.54,"ADDRESS":"中華路６１９巷１５號之１三樓","OBJECTID":366857},"geometry":{"x":171006.53000000026,"y":2546069.5399999991}},{"attributes":{"ID":366868,"DIS_CODE":0,"TOWNNAME":"永康區","LI":"埔園里","LIN":"6鄰","STREET":"中山路","SECT":" ","MAREA":" ","LANE":"１５８巷","ALLEY":" ","HOUSE_NO":"２９號","E_COORD97":173896.76000000001,"N_COORD97":2547863.75,"ADDRESS":"中山路１５８巷２９號","OBJECTID":366858},"geometry":{"x":173896.75999999978,"y":2547863.7500000037}},{"attributes":{"ID":366869,"DIS_CODE":0,"TOWNNAME":"東區","LI":"東安里","LIN":"12鄰","STREET":"長榮路","SECT":"二段","MAREA":" ","LANE":"３２巷","ALLEY":" ","HOUSE_NO":"１４４號四樓之２","E_COORD97":170205.64000000001,"N_COORD97":2543123.4300000002,"ADDRESS":"長榮路二段３２巷１４４號四樓之２","OBJECTID":366859},"geometry":{"x":170205.64000000153,"y":2543123.4300000016}},{"attributes":{"ID":366870,"DIS_CODE":0,"TOWNNAME":"東區","LI":"東安里","LIN":"12鄰","STREET":"長榮路","SECT":"二段","MAREA":" ","LANE":"３２巷","ALLEY":" ","HOUSE_NO":"１４２號五樓之１","E_COORD97":170189.10999999999,"N_COORD97":2543127.1099999999,"ADDRESS":"長榮路二段３２巷１４２號五樓之１","OBJECTID":366860},"geometry":{"x":170189.11000000034,"y":2543127.1099999994}},{"attributes":{"ID":366871,"DIS_CODE":0,"TOWNNAME":"東區","LI":"圍下里","LIN":"13鄰","STREET":"衛民街","SECT":" ","MAREA":" ","LANE":" ","ALLEY":" ","HOUSE_NO":"１號之２２","E_COORD97":169393.29999999999,"N_COORD97":2543642.8799999999,"ADDRESS":"衛民街１號之２２","OBJECTID":366861},"geometry":{"x":169393.30000000075,"y":2543642.879999999}},{"attributes":{"ID":366872,"DIS_CODE":0,"TOWNNAME":"北門區","LI":"東壁里","LIN":"13鄰","STREET":" ","SECT":" ","MAREA":"蚵寮","LANE":" ","ALLEY":" ","HOUSE_NO":"７３２號","E_COORD97":161668.88,"N_COORD97":2576343.4500000002,"ADDRESS":"蚵寮７３２號","OBJECTID":366862},"geometry":{"x":161668.88000000175,"y":2576343.4499999993}},{"attributes":{"ID":366873,"DIS_CODE":0,"TOWNNAME":"北門區","LI":"東壁里","LIN":"13鄰","STREET":" ","SECT":" ","MAREA":"蚵寮","LANE":" ","ALLEY":" ","HOUSE_NO":"７３３號","E_COORD97":161670.89999999999,"N_COORD97":2576318.9300000002,"ADDRESS":"蚵寮７３３號","OBJECTID":366863},"geometry":{"x":161670.90000000224,"y":2576318.9300000016}},{"attributes":{"ID":366874,"DIS_CODE":0,"TOWNNAME":"新市區","LI":"潭頂里","LIN":"13鄰","STREET":" ","SECT":" ","MAREA":"潭頂","LANE":" ","ALLEY":" ","HOUSE_NO":"４７３之５號","E_COORD97":180425.45000000001,"N_COORD97":2552805.7999999998,"ADDRESS":"潭頂４７３之５號","OBJECTID":366864},"geometry":{"x":180425.45000000019,"y":2552805.8000000007}},{"attributes":{"ID":366875,"DIS_CODE":0,"TOWNNAME":"新市區","LI":"社內里","LIN":"13鄰","STREET":" ","SECT":" ","MAREA":"社內","LANE":" ","ALLEY":" ","HOUSE_NO":"１３７號","E_COORD97":176290.95000000001,"N_COORD97":2552754.75,"ADDRESS":"社內１３７號","OBJECTID":366865},"geometry":{"x":176290.95000000019,"y":2552754.75}},{"attributes":{"ID":366876,"DIS_CODE":0,"TOWNNAME":"新市區","LI":"大社里","LIN":"13鄰","STREET":" ","SECT":" ","MAREA":"大社","LANE":" ","ALLEY":" ","HOUSE_NO":"４１７號","E_COORD97":179979.12,"N_COORD97":2554759.5,"ADDRESS":"大社４１７號","OBJECTID":366866},"geometry":{"x":179979.12000000104,"y":2554759.5000000019}},{"attributes":{"ID":366877,"DIS_CODE":0,"TOWNNAME":"新市區","LI":"大社里","LIN":"13鄰","STREET":" ","SECT":" ","MAREA":"大社","LANE":" ","ALLEY":" ","HOUSE_NO":"４２５之１號","E_COORD97":180028.29000000001,"N_COORD97":2554826.2999999998,"ADDRESS":"大社４２５之１號","OBJECTID":366867},"geometry":{"x":180028.29000000004,"y":2554826.3000000026}},{"attributes":{"ID":366878,"DIS_CODE":0,"TOWNNAME":"新市區","LI":"大社里","LIN":"13鄰","STREET":" ","SECT":" ","MAREA":"大社","LANE":" ","ALLEY":" ","HOUSE_NO":"４１２號","E_COORD97":180008.09,"N_COORD97":2554792.5,"ADDRESS":"大社４１２號","OBJECTID":366868},"geometry":{"x":180008.09000000078,"y":2554792.5000000019}},{"attributes":{"ID":366879,"DIS_CODE":0,"TOWNNAME":"東區","LI":"大智里","LIN":"13鄰","STREET":"長東街","SECT":" ","MAREA":" ","LANE":"１４１巷","ALLEY":" ","HOUSE_NO":"２３號","E_COORD97":171119.14999999999,"N_COORD97":2540149.8500000001,"ADDRESS":"長東街１４１巷２３號","OBJECTID":366869},"geometry":{"x":171119.15000000037,"y":2540149.8500000034}},{"attributes":{"ID":366880,"DIS_CODE":0,"TOWNNAME":"新市區","LI":"大社里","LIN":"13鄰","STREET":" ","SECT":" ","MAREA":"大社","LANE":" ","ALLEY":" ","HOUSE_NO":"４１７之２號","E_COORD97":180004.79000000001,"N_COORD97":2554749.2999999998,"ADDRESS":"大社４１７之２號","OBJECTID":366870},"geometry":{"x":180004.7900000019,"y":2554749.3000000007}},{"attributes":{"ID":366881,"DIS_CODE":0,"TOWNNAME":"新市區","LI":"大社里","LIN":"13鄰","STREET":" ","SECT":" ","MAREA":"大社","LANE":" ","ALLEY":" ","HOUSE_NO":"４１５號","E_COORD97":179974.85000000001,"N_COORD97":2554780.75,"ADDRESS":"大社４１５號","OBJECTID":366871},"geometry":{"x":179974.84999999963,"y":2554780.7500000019}},{"attributes":{"ID":366882,"DIS_CODE":0,"TOWNNAME":"東區","LI":"大智里","LIN":"13鄰","STREET":"長東街","SECT":" ","MAREA":" ","LANE":"１４１巷","ALLEY":" ","HOUSE_NO":"２５號","E_COORD97":171124.04999999999,"N_COORD97":2540149.8500000001,"ADDRESS":"長東街１４１巷２５號","OBJECTID":366872},"geometry":{"x":171124.05000000075,"y":2540149.8500000034}},{"attributes":{"ID":366883,"DIS_CODE":0,"TOWNNAME":"新市區","LI":"大社里","LIN":"13鄰","STREET":" ","SECT":" ","MAREA":"大社","LANE":" ","ALLEY":" ","HOUSE_NO":"４２１號","E_COORD97":179942.70999999999,"N_COORD97":2554774.75,"ADDRESS":"大社４２１號","OBJECTID":366873},"geometry":{"x":179942.71000000089,"y":2554774.7500000019}},{"attributes":{"ID":366884,"DIS_CODE":0,"TOWNNAME":"新市區","LI":"大社里","LIN":"13鄰","STREET":" ","SECT":" ","MAREA":"大社","LANE":" ","ALLEY":" ","HOUSE_NO":"４２６之１號","E_COORD97":179957.95999999999,"N_COORD97":2554822.5499999998,"ADDRESS":"大社４２６之１號","OBJECTID":366874},"geometry":{"x":179957.96000000089,"y":2554822.5500000007}},{"attributes":{"ID":366885,"DIS_CODE":0,"TOWNNAME":"東區","LI":"大智里","LIN":"13鄰","STREET":"長東街","SECT":" ","MAREA":" ","LANE":"１４１巷","ALLEY":" ","HOUSE_NO":"２７號","E_COORD97":171128.72,"N_COORD97":2540150.1400000001,"ADDRESS":"長東街１４１巷２７號","OBJECTID":366875},"geometry":{"x":171128.71999999974,"y":2540150.1400000025}},{"attributes":{"ID":366886,"DIS_CODE":0,"TOWNNAME":"東區","LI":"大智里","LIN":"13鄰","STREET":"長東街","SECT":" ","MAREA":" ","LANE":"１４１巷","ALLEY":" ","HOUSE_NO":"３９號","E_COORD97":171157.92999999999,"N_COORD97":2540152.5099999998,"ADDRESS":"長東街１４１巷３９號","OBJECTID":366876},"geometry":{"x":171157.92999999877,"y":2540152.5100000016}},{"attributes":{"ID":366887,"DIS_CODE":0,"TOWNNAME":"東區","LI":"大智里","LIN":"13鄰","STREET":"長東街","SECT":" ","MAREA":" ","LANE":"１４１巷","ALLEY":" ","HOUSE_NO":"２９號","E_COORD97":171133.42999999999,"N_COORD97":2540150.5899999999,"ADDRESS":"長東街１４１巷２９號","OBJECTID":366877},"geometry":{"x":171133.4299999997,"y":2540150.5899999999}},{"attributes":{"ID":366888,"DIS_CODE":0,"TOWNNAME":"東區","LI":"圍下里","LIN":"13鄰","STREET":"衛民街","SECT":" ","MAREA":" ","LANE":" ","ALLEY":" ","HOUSE_NO":"１號之２３","E_COORD97":169395.26000000001,"N_COORD97":2543636.5699999998,"ADDRESS":"衛民街１號之２３","OBJECTID":366878},"geometry":{"x":169395.26000000071,"y":2543636.5700000003}},{"attributes":{"ID":366889,"DIS_CODE":0,"TOWNNAME":"新市區","LI":"大社里","LIN":"13鄰","STREET":" ","SECT":" ","MAREA":"大社","LANE":" ","ALLEY":" ","HOUSE_NO":"４２２號","E_COORD97":179940.51000000001,"N_COORD97":2554778.75,"ADDRESS":"大社４２２號","OBJECTID":366879},"geometry":{"x":179940.51000000071,"y":2554778.75}},{"attributes":{"ID":366890,"DIS_CODE":0,"TOWNNAME":"學甲區","LI":"三慶里","LIN":"5鄰","STREET":" ","SECT":" ","MAREA":"頂洲","LANE":" ","ALLEY":" ","HOUSE_NO":"５６號","E_COORD97":168578.64000000001,"N_COORD97":2576394.8799999999,"ADDRESS":"頂洲５６號","OBJECTID":366880},"geometry":{"x":168578.6400000006,"y":2576394.879999999}},{"attributes":{"ID":366891,"DIS_CODE":0,"TOWNNAME":"東區","LI":"圍下里","LIN":"13鄰","STREET":"衛民街","SECT":" ","MAREA":" ","LANE":" ","ALLEY":" ","HOUSE_NO":"１號之２４","E_COORD97":169398.53,"N_COORD97":2543630.48,"ADDRESS":"衛民街１號之２４","OBJECTID":366881},"geometry":{"x":169398.53000000119,"y":2543630.4800000004}},{"attributes":{"ID":366892,"DIS_CODE":0,"TOWNNAME":"東區","LI":"圍下里","LIN":"13鄰","STREET":"衛民街","SECT":" ","MAREA":" ","LANE":" ","ALLEY":" ","HOUSE_NO":"１號之２５","E_COORD97":169400.48999999999,"N_COORD97":2543624.1699999999,"ADDRESS":"衛民街１號之２５","OBJECTID":366882},"geometry":{"x":169400.49000000115,"y":2543624.1700000018}},{"attributes":{"ID":366893,"DIS_CODE":0,"TOWNNAME":"東區","LI":"圍下里","LIN":"13鄰","STREET":"衛民街","SECT":" ","MAREA":" ","LANE":" ","ALLEY":" ","HOUSE_NO":"１號之２８","E_COORD97":169363.440905,"N_COORD97":2543656.6539400001,"ADDRESS":"衛民街１號之２８","OBJECTID":366883},"geometry":{"x":169363.44090500008,"y":2543656.6539360005}},{"attributes":{"ID":366894,"DIS_CODE":0,"TOWNNAME":"學甲區","LI":"三慶里","LIN":"5鄰","STREET":" ","SECT":" ","MAREA":"頂洲","LANE":" ","ALLEY":" ","HOUSE_NO":"５７號","E_COORD97":168592.78,"N_COORD97":2576397.73,"ADDRESS":"頂洲５７號","OBJECTID":366884},"geometry":{"x":168592.78000000026,"y":2576397.7299999986}},{"attributes":{"ID":366895,"DIS_CODE":0,"TOWNNAME":"東區","LI":"東安里","LIN":"12鄰","STREET":"長榮路","SECT":"二段","MAREA":" ","LANE":"３２巷","ALLEY":" ","HOUSE_NO":"１４２號五樓之５","E_COORD97":170189.10999999999,"N_COORD97":2543127.1099999999,"ADDRESS":"長榮路二段３２巷１４２號五樓之５","OBJECTID":366885},"geometry":{"x":170189.11000000034,"y":2543127.1099999994}},{"attributes":{"ID":366896,"DIS_CODE":0,"TOWNNAME":"東區","LI":"東安里","LIN":"12鄰","STREET":"長榮路","SECT":"二段","MAREA":" ","LANE":"３２巷","ALLEY":" ","HOUSE_NO":"１４２號四樓之１","E_COORD97":170189.10999999999,"N_COORD97":2543127.1099999999,"ADDRESS":"長榮路二段３２巷１４２號四樓之１","OBJECTID":366886},"geometry":{"x":170189.11000000034,"y":2543127.1099999994}},{"attributes":{"ID":366897,"DIS_CODE":0,"TOWNNAME":"東區","LI":"東安里","LIN":"12鄰","STREET":"長榮路","SECT":"二段","MAREA":" ","LANE":"３２巷","ALLEY":" ","HOUSE_NO":"１４４號三樓之２","E_COORD97":170205.64000000001,"N_COORD97":2543123.4300000002,"ADDRESS":"長榮路二段３２巷１４４號三樓之２","OBJECTID":366887},"geometry":{"x":170205.64000000153,"y":2543123.4300000016}},{"attributes":{"ID":366898,"DIS_CODE":0,"TOWNNAME":"東區","LI":"圍下里","LIN":"13鄰","STREET":"衛民街","SECT":" ","MAREA":" ","LANE":" ","ALLEY":" ","HOUSE_NO":"１號之３５","E_COORD97":169370.14000000001,"N_COORD97":2543645.98,"ADDRESS":"衛民街１號之３５","OBJECTID":366888},"geometry":{"x":169370.1400000006,"y":2543645.9800000023}},{"attributes":{"ID":366899,"DIS_CODE":0,"TOWNNAME":"東區","LI":"東安里","LIN":"12鄰","STREET":"長榮路","SECT":"二段","MAREA":" ","LANE":"３２巷","ALLEY":" ","HOUSE_NO":"１４４號五樓之５","E_COORD97":170205.64000000001,"N_COORD97":2543123.4300000002,"ADDRESS":"長榮路二段３２巷１４４號五樓之５","OBJECTID":366889},"geometry":{"x":170205.64000000153,"y":2543123.4300000016}},{"attributes":{"ID":366900,"DIS_CODE":0,"TOWNNAME":"東區","LI":"東安里","LIN":"12鄰","STREET":"長榮路","SECT":"二段","MAREA":" ","LANE":"３２巷","ALLEY":" ","HOUSE_NO":"１４２號二樓之１","E_COORD97":170189.10999999999,"N_COORD97":2543127.1099999999,"ADDRESS":"長榮路二段３２巷１４２號二樓之１","OBJECTID":366890},"geometry":{"x":170189.11000000034,"y":2543127.1099999994}},{"attributes":{"ID":366901,"DIS_CODE":0,"TOWNNAME":"東區","LI":"東安里","LIN":"12鄰","STREET":"長榮路","SECT":"二段","MAREA":" ","LANE":"３２巷","ALLEY":" ","HOUSE_NO":"１４２號二樓之２","E_COORD97":170189.10999999999,"N_COORD97":2543127.1099999999,"ADDRESS":"長榮路二段３２巷１４２號二樓之２","OBJECTID":366891},"geometry":{"x":170189.11000000034,"y":2543127.1099999994}},{"attributes":{"ID":366902,"DIS_CODE":0,"TOWNNAME":"東區","LI":"東安里","LIN":"12鄰","STREET":"長榮路","SECT":"二段","MAREA":" ","LANE":"３２巷","ALLEY":" ","HOUSE_NO":"１４２號二樓之３","E_COORD97":170189.10999999999,"N_COORD97":2543127.1099999999,"ADDRESS":"長榮路二段３２巷１４２號二樓之３","OBJECTID":366892},"geometry":{"x":170189.11000000034,"y":2543127.1099999994}},{"attributes":{"ID":366903,"DIS_CODE":0,"TOWNNAME":"東區","LI":"東安里","LIN":"12鄰","STREET":"長榮路","SECT":"二段","MAREA":" ","LANE":"３２巷","ALLEY":" ","HOUSE_NO":"１４２號二樓之５","E_COORD97":170189.10999999999,"N_COORD97":2543127.1099999999,"ADDRESS":"長榮路二段３２巷１４２號二樓之５","OBJECTID":366893},"geometry":{"x":170189.11000000034,"y":2543127.1099999994}},{"attributes":{"ID":366904,"DIS_CODE":0,"TOWNNAME":"東區","LI":"東安里","LIN":"12鄰","STREET":"長榮路","SECT":"二段","MAREA":" ","LANE":"３２巷","ALLEY":" ","HOUSE_NO":"１４２號二樓之６","E_COORD97":170189.10999999999,"N_COORD97":2543127.1099999999,"ADDRESS":"長榮路二段３２巷１４２號二樓之６","OBJECTID":366894},"geometry":{"x":170189.11000000034,"y":2543127.1099999994}},{"attributes":{"ID":366905,"DIS_CODE":0,"TOWNNAME":"東區","LI":"東安里","LIN":"12鄰","STREET":"長榮路","SECT":"二段","MAREA":" ","LANE":"３２巷","ALLEY":" ","HOUSE_NO":"１４２號二樓之８","E_COORD97":170189.10999999999,"N_COORD97":2543127.1099999999,"ADDRESS":"長榮路二段３２巷１４２號二樓之８","OBJECTID":366895},"geometry":{"x":170189.11000000034,"y":2543127.1099999994}},{"attributes":{"ID":366906,"DIS_CODE":0,"TOWNNAME":"東區","LI":"東安里","LIN":"12鄰","STREET":"長榮路","SECT":"二段","MAREA":" ","LANE":"３２巷","ALLEY":" ","HOUSE_NO":"１４２號二樓之９","E_COORD97":170189.10999999999,"N_COORD97":2543127.1099999999,"ADDRESS":"長榮路二段３２巷１４２號二樓之９","OBJECTID":366896},"geometry":{"x":170189.11000000034,"y":2543127.1099999994}},{"attributes":{"ID":366907,"DIS_CODE":0,"TOWNNAME":"安南區","LI":"溪心里","LIN":"13鄰","STREET":"樂安二街","SECT":" ","MAREA":" ","LANE":" ","ALLEY":" ","HOUSE_NO":"８４號","E_COORD97":165888.78,"N_COORD97":2549735.23,"ADDRESS":"樂安二街８４號","OBJECTID":366897},"geometry":{"x":165888.78000000026,"y":2549735.2300000004}},{"attributes":{"ID":366908,"DIS_CODE":0,"TOWNNAME":"東區","LI":"東安里","LIN":"12鄰","STREET":"長榮路","SECT":"二段","MAREA":" ","LANE":"３２巷","ALLEY":" ","HOUSE_NO":"１４２號二樓之１０","E_COORD97":170189.10999999999,"N_COORD97":2543127.1099999999,"ADDRESS":"長榮路二段３２巷１４２號二樓之１０","OBJECTID":366898},"geometry":{"x":170189.11000000034,"y":2543127.1099999994}},{"attributes":{"ID":366909,"DIS_CODE":0,"TOWNNAME":"東區","LI":"圍下里","LIN":"13鄰","STREET":"衛民街","SECT":" ","MAREA":" ","LANE":" ","ALLEY":" ","HOUSE_NO":"１號之３３","E_COORD97":169350.30473500001,"N_COORD97":2543666.3906,"ADDRESS":"衛民街１號之３３","OBJECTID":366899},"geometry":{"x":169350.30473500118,"y":2543666.3905970007}},{"attributes":{"ID":366910,"DIS_CODE":0,"TOWNNAME":"東區","LI":"東安里","LIN":"12鄰","STREET":"長榮路","SECT":"二段","MAREA":" ","LANE":"３２巷","ALLEY":" ","HOUSE_NO":"１４２號二樓之１１","E_COORD97":170189.10999999999,"N_COORD97":2543127.1099999999,"ADDRESS":"長榮路二段３２巷１４２號二樓之１１","OBJECTID":366900},"geometry":{"x":170189.11000000034,"y":2543127.1099999994}},{"attributes":{"ID":366911,"DIS_CODE":0,"TOWNNAME":"東區","LI":"東安里","LIN":"12鄰","STREET":"長榮路","SECT":"二段","MAREA":" ","LANE":"３２巷","ALLEY":" ","HOUSE_NO":"１４２號二樓之１２","E_COORD97":170189.10999999999,"N_COORD97":2543127.1099999999,"ADDRESS":"長榮路二段３２巷１４２號二樓之１２","OBJECTID":366901},"geometry":{"x":170189.11000000034,"y":2543127.1099999994}},{"attributes":{"ID":366912,"DIS_CODE":0,"TOWNNAME":"東區","LI":"東安里","LIN":"12鄰","STREET":"長榮路","SECT":"二段","MAREA":" ","LANE":"３２巷","ALLEY":" ","HOUSE_NO":"１４２號二樓之１３","E_COORD97":170189.10999999999,"N_COORD97":2543127.1099999999,"ADDRESS":"長榮路二段３２巷１４２號二樓之１３","OBJECTID":366902},"geometry":{"x":170189.11000000034,"y":2543127.1099999994}},{"attributes":{"ID":366913,"DIS_CODE":0,"TOWNNAME":"南區","LI":"南華里","LIN":"20鄰","STREET":"金華路","SECT":"一段","MAREA":" ","LANE":"２９巷","ALLEY":" ","HOUSE_NO":"２號","E_COORD97":166839.89999999999,"N_COORD97":2540321.7200000002,"ADDRESS":"金華路一段２９巷２號","OBJECTID":366903},"geometry":{"x":166839.9000000013,"y":2540321.7200000025}},{"attributes":{"ID":366914,"DIS_CODE":0,"TOWNNAME":"南區","LI":"南華里","LIN":"20鄰","STREET":"金華路","SECT":"一段","MAREA":" ","LANE":"２９巷","ALLEY":" ","HOUSE_NO":"４號","E_COORD97":166834.62,"N_COORD97":2540322.3500000001,"ADDRESS":"金華路一段２９巷４號","OBJECTID":366904},"geometry":{"x":166834.62000000104,"y":2540322.3499999978}},{"attributes":{"ID":366915,"DIS_CODE":0,"TOWNNAME":"南區","LI":"南華里","LIN":"20鄰","STREET":"金華路","SECT":"一段","MAREA":" ","LANE":"２９巷","ALLEY":" ","HOUSE_NO":"６號","E_COORD97":166829.81,"N_COORD97":2540323.2799999998,"ADDRESS":"金華路一段２９巷６號","OBJECTID":366905},"geometry":{"x":166829.81000000052,"y":2540323.2800000012}},{"attributes":{"ID":366916,"DIS_CODE":0,"TOWNNAME":"新市區","LI":"潭頂里","LIN":"13鄰","STREET":" ","SECT":" ","MAREA":"潭頂","LANE":" ","ALLEY":" ","HOUSE_NO":"４６５之１號","E_COORD97":180467.39000000001,"N_COORD97":2552845.0499999998,"ADDRESS":"潭頂４６５之１號","OBJECTID":366906},"geometry":{"x":180467.38999999966,"y":2552845.0500000007}},{"attributes":{"ID":366917,"DIS_CODE":0,"TOWNNAME":"新市區","LI":"潭頂里","LIN":"13鄰","STREET":" ","SECT":" ","MAREA":"潭頂","LANE":" ","ALLEY":" ","HOUSE_NO":"４５８號","E_COORD97":180489.64000000001,"N_COORD97":2552868.75,"ADDRESS":"潭頂４５８號","OBJECTID":366907},"geometry":{"x":180489.63999999966,"y":2552868.7500000019}},{"attributes":{"ID":366918,"DIS_CODE":0,"TOWNNAME":"新市區","LI":"潭頂里","LIN":"13鄰","STREET":" ","SECT":" ","MAREA":"潭頂","LANE":" ","ALLEY":" ","HOUSE_NO":"４６４之１號","E_COORD97":180446.85999999999,"N_COORD97":2552831.5499999998,"ADDRESS":"潭頂４６４之１號","OBJECTID":366908},"geometry":{"x":180446.86000000034,"y":2552831.5500000007}},{"attributes":{"ID":366919,"DIS_CODE":0,"TOWNNAME":"新市區","LI":"潭頂里","LIN":"13鄰","STREET":" ","SECT":" ","MAREA":"潭頂","LANE":" ","ALLEY":" ","HOUSE_NO":"４７３之３號","E_COORD97":180423.45000000001,"N_COORD97":2552817.2999999998,"ADDRESS":"潭頂４７３之３號","OBJECTID":366909},"geometry":{"x":180423.45000000019,"y":2552817.3000000007}},{"attributes":{"ID":366920,"DIS_CODE":0,"TOWNNAME":"新市區","LI":"潭頂里","LIN":"13鄰","STREET":" ","SECT":" ","MAREA":"潭頂","LANE":" ","ALLEY":" ","HOUSE_NO":"４７３號之１","E_COORD97":180404.92000000001,"N_COORD97":2552830.7999999998,"ADDRESS":"潭頂４７３號之１","OBJECTID":366910},"geometry":{"x":180404.91999999993,"y":2552830.8000000007}},{"attributes":{"ID":366921,"DIS_CODE":0,"TOWNNAME":"新市區","LI":"潭頂里","LIN":"13鄰","STREET":" ","SECT":" ","MAREA":"潭頂","LANE":" ","ALLEY":" ","HOUSE_NO":"４５９號","E_COORD97":180479.73000000001,"N_COORD97":2552895.75,"ADDRESS":"潭頂４５９號","OBJECTID":366911},"geometry":{"x":180479.73000000045,"y":2552895.7500000019}},{"attributes":{"ID":366922,"DIS_CODE":0,"TOWNNAME":"新市區","LI":"潭頂里","LIN":"13鄰","STREET":" ","SECT":" ","MAREA":"潭頂","LANE":" ","ALLEY":" ","HOUSE_NO":"４６１號","E_COORD97":180467.48000000001,"N_COORD97":2552887.75,"ADDRESS":"潭頂４６１號","OBJECTID":366912},"geometry":{"x":180467.48000000138,"y":2552887.75}},{"attributes":{"ID":366923,"DIS_CODE":0,"TOWNNAME":"學甲區","LI":"三慶里","LIN":"5鄰","STREET":" ","SECT":" ","MAREA":"頂洲","LANE":" ","ALLEY":" ","HOUSE_NO":"５８號","E_COORD97":168601.22,"N_COORD97":2576430.71,"ADDRESS":"頂洲５８號","OBJECTID":366913},"geometry":{"x":168601.21999999974,"y":2576430.7100000009}},{"attributes":{"ID":366924,"DIS_CODE":0,"TOWNNAME":"東區","LI":"東聖里","LIN":"13鄰","STREET":"中華東路","SECT":"二段","MAREA":" ","LANE":"４１巷","ALLEY":" ","HOUSE_NO":"９號","E_COORD97":171473.32000000001,"N_COORD97":2543110.6600000001,"ADDRESS":"中華東路二段４１巷９號","OBJECTID":366914},"geometry":{"x":171473.32000000123,"y":2543110.6600000001}},{"attributes":{"ID":366925,"DIS_CODE":0,"TOWNNAME":"新市區","LI":"新和里","LIN":"13鄰","STREET":"忠孝街","SECT":" ","MAREA":" ","LANE":"８３巷","ALLEY":" ","HOUSE_NO":"１號","E_COORD97":177653.92999999999,"N_COORD97":2552546.5,"ADDRESS":"忠孝街８３巷１號","OBJECTID":366915},"geometry":{"x":177653.93000000156,"y":2552546.5}},{"attributes":{"ID":366926,"DIS_CODE":0,"TOWNNAME":"東區","LI":"東安里","LIN":"12鄰","STREET":"長榮路","SECT":"二段","MAREA":" ","LANE":"３２巷","ALLEY":" ","HOUSE_NO":"１４２號二樓之１４","E_COORD97":170189.10999999999,"N_COORD97":2543127.1099999999,"ADDRESS":"長榮路二段３２巷１４２號二樓之１４","OBJECTID":366916},"geometry":{"x":170189.11000000034,"y":2543127.1099999994}},{"attributes":{"ID":366927,"DIS_CODE":0,"TOWNNAME":"東區","LI":"東安里","LIN":"12鄰","STREET":"長榮路","SECT":"二段","MAREA":" ","LANE":"３２巷","ALLEY":" ","HOUSE_NO":"１４４號三樓","E_COORD97":170205.64000000001,"N_COORD97":2543123.4300000002,"ADDRESS":"長榮路二段３２巷１４４號三樓","OBJECTID":366917},"geometry":{"x":170205.64000000153,"y":2543123.4300000016}},{"attributes":{"ID":366928,"DIS_CODE":0,"TOWNNAME":"東區","LI":"東安里","LIN":"12鄰","STREET":"長榮路","SECT":"二段","MAREA":" ","LANE":"３２巷","ALLEY":" ","HOUSE_NO":"１４４號三樓之１","E_COORD97":170205.64000000001,"N_COORD97":2543123.4300000002,"ADDRESS":"長榮路二段３２巷１４４號三樓之１","OBJECTID":366918},"geometry":{"x":170205.64000000153,"y":2543123.4300000016}},{"attributes":{"ID":366929,"DIS_CODE":0,"TOWNNAME":"東區","LI":"東安里","LIN":"12鄰","STREET":"長榮路","SECT":"二段","MAREA":" ","LANE":"３２巷","ALLEY":" ","HOUSE_NO":"１４４號三樓之３","E_COORD97":170205.64000000001,"N_COORD97":2543123.4300000002,"ADDRESS":"長榮路二段３２巷１４４號三樓之３","OBJECTID":366919},"geometry":{"x":170205.64000000153,"y":2543123.4300000016}},{"attributes":{"ID":366930,"DIS_CODE":0,"TOWNNAME":"東區","LI":"圍下里","LIN":"13鄰","STREET":"衛民街","SECT":" ","MAREA":" ","LANE":" ","ALLEY":" ","HOUSE_NO":"１號之４０","E_COORD97":169343.438734,"N_COORD97":2543656.97144,"ADDRESS":"衛民街１號之４０","OBJECTID":366920},"geometry":{"x":169343.43873399962,"y":2543656.9714349993}},{"attributes":{"ID":366931,"DIS_CODE":0,"TOWNNAME":"東區","LI":"小東里","LIN":"13鄰","STREET":"光明街","SECT":" ","MAREA":" ","LANE":" ","ALLEY":" ","HOUSE_NO":"６４號之１","E_COORD97":170895.45999999999,"N_COORD97":2544229.5499999998,"ADDRESS":"光明街６４號之１","OBJECTID":366921},"geometry":{"x":170895.46000000183,"y":2544229.5500000026}},{"attributes":{"ID":366932,"DIS_CODE":0,"TOWNNAME":"安南區","LI":"溪心里","LIN":"13鄰","STREET":"樂安二街","SECT":" ","MAREA":" ","LANE":" ","ALLEY":" ","HOUSE_NO":"８２號","E_COORD97":165893.42999999999,"N_COORD97":2549735.6000000001,"ADDRESS":"樂安二街８２號","OBJECTID":366922},"geometry":{"x":165893.43000000063,"y":2549735.5999999996}},{"attributes":{"ID":366933,"DIS_CODE":0,"TOWNNAME":"南區","LI":"南華里","LIN":"20鄰","STREET":"金華路","SECT":"一段","MAREA":" ","LANE":" ","ALLEY":" ","HOUSE_NO":"１號","E_COORD97":166843.07999999999,"N_COORD97":2540259.3900000001,"ADDRESS":"金華路一段１號","OBJECTID":366923},"geometry":{"x":166843.08000000194,"y":2540259.3900000025}},{"attributes":{"ID":366934,"DIS_CODE":0,"TOWNNAME":"永康區","LI":"中興里","LIN":"13鄰","STREET":"中興街","SECT":" ","MAREA":" ","LANE":"５７巷","ALLEY":" ","HOUSE_NO":"６號","E_COORD97":172026.07000000001,"N_COORD97":2545256.2400000002,"ADDRESS":"中興街５７巷６號","OBJECTID":366924},"geometry":{"x":172026.07000000123,"y":2545256.2400000002}},{"attributes":{"ID":366935,"DIS_CODE":0,"TOWNNAME":"永康區","LI":"王行里","LIN":"13鄰","STREET":"王行路","SECT":" ","MAREA":" ","LANE":"１０１８巷","ALLEY":" ","HOUSE_NO":"３９號","E_COORD97":175813.32000000001,"N_COORD97":2550201.4900000002,"ADDRESS":"王行路１０１８巷３９號","OBJECTID":366925},"geometry":{"x":175813.32000000123,"y":2550201.4900000002}},{"attributes":{"ID":366936,"DIS_CODE":0,"TOWNNAME":"永康區","LI":"王行里","LIN":"13鄰","STREET":"王行路","SECT":" ","MAREA":" ","LANE":"１０１８巷","ALLEY":" ","HOUSE_NO":"１５號","E_COORD97":175837.31,"N_COORD97":2550171,"ADDRESS":"王行路１０１８巷１５號","OBJECTID":366926},"geometry":{"x":175837.30999999866,"y":2550171.0000000037}},{"attributes":{"ID":366937,"DIS_CODE":0,"TOWNNAME":"永康區","LI":"王行里","LIN":"13鄰","STREET":"王行路","SECT":" ","MAREA":" ","LANE":"１０１８巷","ALLEY":" ","HOUSE_NO":"５１號","E_COORD97":175786.17999999999,"N_COORD97":2550198.4900000002,"ADDRESS":"王行路１０１８巷５１號","OBJECTID":366927},"geometry":{"x":175786.18000000063,"y":2550198.4900000039}},{"attributes":{"ID":366938,"DIS_CODE":0,"TOWNNAME":"永康區","LI":"王行里","LIN":"13鄰","STREET":"王行路","SECT":" ","MAREA":" ","LANE":"１０１８巷","ALLEY":" ","HOUSE_NO":"３１號","E_COORD97":175828.17999999999,"N_COORD97":2550203.2400000002,"ADDRESS":"王行路１０１８巷３１號","OBJECTID":366928},"geometry":{"x":175828.17999999877,"y":2550203.2400000002}},{"attributes":{"ID":366939,"DIS_CODE":0,"TOWNNAME":"永康區","LI":"王行里","LIN":"13鄰","STREET":"王行路","SECT":" ","MAREA":" ","LANE":"１０１８巷","ALLEY":" ","HOUSE_NO":"２１號","E_COORD97":175843.35999999999,"N_COORD97":2550183.3300000001,"ADDRESS":"王行路１０１８巷２１號","OBJECTID":366929},"geometry":{"x":175843.36000000127,"y":2550183.3300000019}},{"attributes":{"ID":366940,"DIS_CODE":0,"TOWNNAME":"安南區","LI":"溪心里","LIN":"13鄰","STREET":"樂安二街","SECT":" ","MAREA":" ","LANE":" ","ALLEY":" ","HOUSE_NO":"８６號","E_COORD97":165896.14999999999,"N_COORD97":2549746.5600000001,"ADDRESS":"樂安二街８６號","OBJECTID":366930},"geometry":{"x":165896.1500000013,"y":2549746.5600000005}},{"attributes":{"ID":366941,"DIS_CODE":0,"TOWNNAME":"安南區","LI":"溪心里","LIN":"13鄰","STREET":"樂安二街","SECT":" ","MAREA":" ","LANE":" ","ALLEY":" ","HOUSE_NO":"８８號","E_COORD97":165897.57999999999,"N_COORD97":2549752.2000000002,"ADDRESS":"樂安二街８８號","OBJECTID":366931},"geometry":{"x":165897.58000000101,"y":2549752.2000000011}},{"attributes":{"ID":366942,"DIS_CODE":0,"TOWNNAME":"安南區","LI":"溪心里","LIN":"13鄰","STREET":"樂安二街","SECT":" ","MAREA":" ","LANE":" ","ALLEY":" ","HOUSE_NO":"９０號","E_COORD97":165876.44,"N_COORD97":2549755.2999999998,"ADDRESS":"樂安二街９０號","OBJECTID":366932},"geometry":{"x":165876.44000000227,"y":2549755.3000000007}},{"attributes":{"ID":366943,"DIS_CODE":0,"TOWNNAME":"安南區","LI":"溪心里","LIN":"13鄰","STREET":"樂安二街","SECT":" ","MAREA":" ","LANE":" ","ALLEY":" ","HOUSE_NO":"９２號","E_COORD97":165875.20000000001,"N_COORD97":2549750.0899999999,"ADDRESS":"樂安二街９２號","OBJECTID":366933},"geometry":{"x":165875.20000000112,"y":2549750.0900000036}},{"attributes":{"ID":366944,"DIS_CODE":0,"TOWNNAME":"安南區","LI":"溪心里","LIN":"13鄰","STREET":"樂安二街","SECT":" ","MAREA":" ","LANE":" ","ALLEY":" ","HOUSE_NO":"９４號","E_COORD97":165878.29999999999,"N_COORD97":2549737.46,"ADDRESS":"樂安二街９４號","OBJECTID":366934},"geometry":{"x":165878.29999999981,"y":2549737.4600000009}},{"attributes":{"ID":366945,"DIS_CODE":0,"TOWNNAME":"東區","LI":"東安里","LIN":"12鄰","STREET":"長榮路","SECT":"二段","MAREA":" ","LANE":"３２巷","ALLEY":" ","HOUSE_NO":"１４４號三樓之４","E_COORD97":170205.64000000001,"N_COORD97":2543123.4300000002,"ADDRESS":"長榮路二段３２巷１４４號三樓之４","OBJECTID":366935},"geometry":{"x":170205.64000000153,"y":2543123.4300000016}},{"attributes":{"ID":366946,"DIS_CODE":0,"TOWNNAME":"學甲區","LI":"三慶里","LIN":"32鄰","STREET":" ","SECT":" ","MAREA":"新芳","LANE":" ","ALLEY":" ","HOUSE_NO":"８７號","E_COORD97":167138.07999999999,"N_COORD97":2575385.1400000001,"ADDRESS":"新芳８７號","OBJECTID":366936},"geometry":{"x":167138.08000000194,"y":2575385.1400000043}},{"attributes":{"ID":366947,"DIS_CODE":0,"TOWNNAME":"官田區","LI":"湖山里","LIN":"13鄰","STREET":" ","SECT":" ","MAREA":"烏山頭","LANE":" ","ALLEY":" ","HOUSE_NO":"７６號","E_COORD97":183504.09,"N_COORD97":2567862.1899999999,"ADDRESS":"烏山頭７６號","OBJECTID":366937},"geometry":{"x":183504.08999999985,"y":2567862.1899999995}},{"attributes":{"ID":366948,"DIS_CODE":0,"TOWNNAME":"官田區","LI":"湖山里","LIN":"13鄰","STREET":" ","SECT":" ","MAREA":"烏山頭","LANE":" ","ALLEY":" ","HOUSE_NO":"７７號之４","E_COORD97":183470.35000000001,"N_COORD97":2567873.4900000002,"ADDRESS":"烏山頭７７號之４","OBJECTID":366938},"geometry":{"x":183470.34999999963,"y":2567873.4900000021}},{"attributes":{"ID":366949,"DIS_CODE":0,"TOWNNAME":"官田區","LI":"湖山里","LIN":"13鄰","STREET":" ","SECT":" ","MAREA":"烏山頭","LANE":" ","ALLEY":" ","HOUSE_NO":"７７號之５","E_COORD97":183471.39000000001,"N_COORD97":2567878.7599999998,"ADDRESS":"烏山頭７７號之５","OBJECTID":366939},"geometry":{"x":183471.38999999966,"y":2567878.7599999998}},{"attributes":{"ID":366950,"DIS_CODE":0,"TOWNNAME":"官田區","LI":"湖山里","LIN":"13鄰","STREET":" ","SECT":" ","MAREA":"烏山頭","LANE":" ","ALLEY":" ","HOUSE_NO":"７７號","E_COORD97":183469.53,"N_COORD97":2567868.6499999999,"ADDRESS":"烏山頭７７號","OBJECTID":366940},"geometry":{"x":183469.53000000026,"y":2567868.6500000022}},{"attributes":{"ID":366951,"DIS_CODE":0,"TOWNNAME":"東區","LI":"東安里","LIN":"12鄰","STREET":"長榮路","SECT":"二段","MAREA":" ","LANE":"３２巷","ALLEY":" ","HOUSE_NO":"１４４號三樓之５","E_COORD97":170205.64000000001,"N_COORD97":2543123.4300000002,"ADDRESS":"長榮路二段３２巷１４４號三樓之５","OBJECTID":366941},"geometry":{"x":170205.64000000153,"y":2543123.4300000016}},{"attributes":{"ID":366952,"DIS_CODE":0,"TOWNNAME":"官田區","LI":"湖山里","LIN":"13鄰","STREET":" ","SECT":" ","MAREA":"烏山頭","LANE":" ","ALLEY":" ","HOUSE_NO":"７８號","E_COORD97":183487.57999999999,"N_COORD97":2567862.77,"ADDRESS":"烏山頭７８號","OBJECTID":366942},"geometry":{"x":183487.58000000007,"y":2567862.7699999996}},{"attributes":{"ID":366953,"DIS_CODE":0,"TOWNNAME":"官田區","LI":"湖山里","LIN":"13鄰","STREET":" ","SECT":" ","MAREA":"烏山頭","LANE":" ","ALLEY":" ","HOUSE_NO":"７９號之１","E_COORD97":183525.14000000001,"N_COORD97":2567871.9100000001,"ADDRESS":"烏山頭７９號之１","OBJECTID":366943},"geometry":{"x":183525.1400000006,"y":2567871.9100000001}},{"attributes":{"ID":366954,"DIS_CODE":0,"TOWNNAME":"東區","LI":"東安里","LIN":"12鄰","STREET":"長榮路","SECT":"二段","MAREA":" ","LANE":"３２巷","ALLEY":" ","HOUSE_NO":"１４４號三樓之６","E_COORD97":170205.64000000001,"N_COORD97":2543123.4300000002,"ADDRESS":"長榮路二段３２巷１４４號三樓之６","OBJECTID":366944},"geometry":{"x":170205.64000000153,"y":2543123.4300000016}},{"attributes":{"ID":366955,"DIS_CODE":0,"TOWNNAME":"官田區","LI":"湖山里","LIN":"13鄰","STREET":" ","SECT":" ","MAREA":"烏山頭","LANE":" ","ALLEY":" ","HOUSE_NO":"７９號之２","E_COORD97":183528.39000000001,"N_COORD97":2567876.6699999999,"ADDRESS":"烏山頭７９號之２","OBJECTID":366945},"geometry":{"x":183528.3900000006,"y":2567876.6699999999}},{"attributes":{"ID":366956,"DIS_CODE":0,"TOWNNAME":"官田區","LI":"湖山里","LIN":"13鄰","STREET":" ","SECT":" ","MAREA":"烏山頭","LANE":" ","ALLEY":" ","HOUSE_NO":"７９號之３","E_COORD97":183529.01000000001,"N_COORD97":2567887.0699999998,"ADDRESS":"烏山頭７９號之３","OBJECTID":366946},"geometry":{"x":183529.01000000164,"y":2567887.0700000022}},{"attributes":{"ID":366957,"DIS_CODE":0,"TOWNNAME":"官田區","LI":"湖山里","LIN":"13鄰","STREET":" ","SECT":" ","MAREA":"烏山頭","LANE":" ","ALLEY":" ","HOUSE_NO":"７９號之５","E_COORD97":183495.09,"N_COORD97":2567878.3799999999,"ADDRESS":"烏山頭７９號之５","OBJECTID":366947},"geometry":{"x":183495.09000000078,"y":2567878.379999999}},{"attributes":{"ID":366958,"DIS_CODE":0,"TOWNNAME":"東區","LI":"東安里","LIN":"12鄰","STREET":"長榮路","SECT":"二段","MAREA":" ","LANE":"３２巷","ALLEY":" ","HOUSE_NO":"１４４號三樓之７","E_COORD97":170205.64000000001,"N_COORD97":2543123.4300000002,"ADDRESS":"長榮路二段３２巷１４４號三樓之７","OBJECTID":366948},"geometry":{"x":170205.64000000153,"y":2543123.4300000016}},{"attributes":{"ID":366959,"DIS_CODE":0,"TOWNNAME":"東區","LI":"東安里","LIN":"12鄰","STREET":"長榮路","SECT":"二段","MAREA":" ","LANE":"３２巷","ALLEY":" ","HOUSE_NO":"１４２號三樓","E_COORD97":170189.10999999999,"N_COORD97":2543127.1099999999,"ADDRESS":"長榮路二段３２巷１４２號三樓","OBJECTID":366949},"geometry":{"x":170189.11000000034,"y":2543127.1099999994}},{"attributes":{"ID":366960,"DIS_CODE":0,"TOWNNAME":"安南區","LI":"溪心里","LIN":"13鄰","STREET":"樂安二街","SECT":" ","MAREA":" ","LANE":" ","ALLEY":" ","HOUSE_NO":"９６號","E_COORD97":165874.01999999999,"N_COORD97":2549738.1400000001,"ADDRESS":"樂安二街９６號","OBJECTID":366950},"geometry":{"x":165874.02000000048,"y":2549738.1400000025}},{"attributes":{"ID":366961,"DIS_CODE":0,"TOWNNAME":"官田區","LI":"湖山里","LIN":"13鄰","STREET":" ","SECT":" ","MAREA":"烏山頭","LANE":" ","ALLEY":" ","HOUSE_NO":"７９號之６","E_COORD97":183524.31,"N_COORD97":2567866.04,"ADDRESS":"烏山頭７９號之６","OBJECTID":366951},"geometry":{"x":183524.30999999959,"y":2567866.0399999991}},{"attributes":{"ID":366962,"DIS_CODE":0,"TOWNNAME":"官田區","LI":"湖山里","LIN":"13鄰","STREET":" ","SECT":" ","MAREA":"烏山頭","LANE":" ","ALLEY":" ","HOUSE_NO":"８０號","E_COORD97":183491.19,"N_COORD97":2567890.3599999999,"ADDRESS":"烏山頭８０號","OBJECTID":366952},"geometry":{"x":183491.19000000227,"y":2567890.3600000013}},{"attributes":{"ID":366963,"DIS_CODE":0,"TOWNNAME":"官田區","LI":"湖山里","LIN":"13鄰","STREET":" ","SECT":" ","MAREA":"烏山頭","LANE":" ","ALLEY":" ","HOUSE_NO":"８１號之２","E_COORD97":183537.03,"N_COORD97":2567898.1200000001,"ADDRESS":"烏山頭８１號之２","OBJECTID":366953},"geometry":{"x":183537.03000000119,"y":2567898.120000001}},{"attributes":{"ID":366964,"DIS_CODE":0,"TOWNNAME":"官田區","LI":"湖山里","LIN":"13鄰","STREET":" ","SECT":" ","MAREA":"烏山頭","LANE":" ","ALLEY":" ","HOUSE_NO":"８１號之３","E_COORD97":183528.75,"N_COORD97":2567899.9300000002,"ADDRESS":"烏山頭８１號之３","OBJECTID":366954},"geometry":{"x":183528.75,"y":2567899.9300000016}},{"attributes":{"ID":366965,"DIS_CODE":0,"TOWNNAME":"官田區","LI":"湖山里","LIN":"13鄰","STREET":" ","SECT":" ","MAREA":"烏山頭","LANE":" ","ALLEY":" ","HOUSE_NO":"８１號之５","E_COORD97":183503.41,"N_COORD97":2567902.1000000001,"ADDRESS":"烏山頭８１號之５","OBJECTID":366955},"geometry":{"x":183503.41000000108,"y":2567902.1000000015}},{"attributes":{"ID":366966,"DIS_CODE":0,"TOWNNAME":"官田區","LI":"湖山里","LIN":"13鄰","STREET":" ","SECT":" ","MAREA":"烏山頭","LANE":" ","ALLEY":" ","HOUSE_NO":"８１號","E_COORD97":183516.89999999999,"N_COORD97":2567899.5299999998,"ADDRESS":"烏山頭８１號","OBJECTID":366956},"geometry":{"x":183516.90000000224,"y":2567899.5300000012}},{"attributes":{"ID":366967,"DIS_CODE":0,"TOWNNAME":"官田區","LI":"湖山里","LIN":"13鄰","STREET":" ","SECT":" ","MAREA":"烏山頭","LANE":" ","ALLEY":" ","HOUSE_NO":"８２號","E_COORD97":183497.14999999999,"N_COORD97":2567907.1800000002,"ADDRESS":"烏山頭８２號","OBJECTID":366957},"geometry":{"x":183497.1500000013,"y":2567907.1799999997}},{"attributes":{"ID":366968,"DIS_CODE":0,"TOWNNAME":"白河區","LI":"大竹里","LIN":"13鄰","STREET":" ","SECT":" ","MAREA":"大排竹","LANE":" ","ALLEY":" ","HOUSE_NO":"１９５之７號","E_COORD97":189120.07000000001,"N_COORD97":2584895.9100000001,"ADDRESS":"大排竹１９５之７號","OBJECTID":366958},"geometry":{"x":189120.07000000123,"y":2584895.9100000039}},{"attributes":{"ID":366969,"DIS_CODE":0,"TOWNNAME":"白河區","LI":"大竹里","LIN":"13鄰","STREET":" ","SECT":" ","MAREA":"大排竹","LANE":" ","ALLEY":" ","HOUSE_NO":"１９５之８號","E_COORD97":189115.76000000001,"N_COORD97":2584893.4500000002,"ADDRESS":"大排竹１９５之８號","OBJECTID":366959},"geometry":{"x":189115.75999999978,"y":2584893.4499999993}},{"attributes":{"ID":366970,"DIS_CODE":0,"TOWNNAME":"白河區","LI":"大竹里","LIN":"13鄰","STREET":" ","SECT":" ","MAREA":"大排竹","LANE":" ","ALLEY":" ","HOUSE_NO":"１９５之９號","E_COORD97":189111.94,"N_COORD97":2584891.0699999998,"ADDRESS":"大排竹１９５之９號","OBJECTID":366960},"geometry":{"x":189111.94000000041,"y":2584891.0700000003}},{"attributes":{"ID":366971,"DIS_CODE":0,"TOWNNAME":"白河區","LI":"大竹里","LIN":"13鄰","STREET":" ","SECT":" ","MAREA":"大排竹","LANE":" ","ALLEY":" ","HOUSE_NO":"１９５號","E_COORD97":189002.48999999999,"N_COORD97":2584925.3199999998,"ADDRESS":"大排竹１９５號","OBJECTID":366961},"geometry":{"x":189002.49000000115,"y":2584925.3200000022}},{"attributes":{"ID":366972,"DIS_CODE":0,"TOWNNAME":"白河區","LI":"大竹里","LIN":"13鄰","STREET":" ","SECT":" ","MAREA":"大排竹","LANE":" ","ALLEY":" ","HOUSE_NO":"１９６號","E_COORD97":189013.39999999999,"N_COORD97":2584945.5600000001,"ADDRESS":"大排竹１９６號","OBJECTID":366962},"geometry":{"x":189013.4000000013,"y":2584945.5600000005}},{"attributes":{"ID":366973,"DIS_CODE":0,"TOWNNAME":"白河區","LI":"大竹里","LIN":"13鄰","STREET":" ","SECT":" ","MAREA":"大排竹","LANE":" ","ALLEY":" ","HOUSE_NO":"１９７號","E_COORD97":188982.82000000001,"N_COORD97":2584927.9199999999,"ADDRESS":"大排竹１９７號","OBJECTID":366963},"geometry":{"x":188982.82000000123,"y":2584927.9200000018}},{"attributes":{"ID":366974,"DIS_CODE":0,"TOWNNAME":"白河區","LI":"大竹里","LIN":"13鄰","STREET":" ","SECT":" ","MAREA":"大排竹","LANE":" ","ALLEY":" ","HOUSE_NO":"１９８號","E_COORD97":188964.92000000001,"N_COORD97":2584932.0800000001,"ADDRESS":"大排竹１９８號","OBJECTID":366964},"geometry":{"x":188964.92000000086,"y":2584932.0800000038}},{"attributes":{"ID":366975,"DIS_CODE":0,"TOWNNAME":"白河區","LI":"大竹里","LIN":"13鄰","STREET":" ","SECT":" ","MAREA":"大排竹","LANE":" ","ALLEY":" ","HOUSE_NO":"１９９號","E_COORD97":188963.42000000001,"N_COORD97":2584895.21,"ADDRESS":"大排竹１９９號","OBJECTID":366965},"geometry":{"x":188963.42000000086,"y":2584895.2100000028}},{"attributes":{"ID":366976,"DIS_CODE":0,"TOWNNAME":"白河區","LI":"大竹里","LIN":"13鄰","STREET":" ","SECT":" ","MAREA":"大排竹","LANE":" ","ALLEY":" ","HOUSE_NO":"２００之１號","E_COORD97":188926.41,"N_COORD97":2584897.2999999998,"ADDRESS":"大排竹２００之１號","OBJECTID":366966},"geometry":{"x":188926.41000000108,"y":2584897.3000000045}},{"attributes":{"ID":366977,"DIS_CODE":0,"TOWNNAME":"白河區","LI":"大竹里","LIN":"13鄰","STREET":" ","SECT":" ","MAREA":"大排竹","LANE":" ","ALLEY":" ","HOUSE_NO":"２００號","E_COORD97":188935.45999999999,"N_COORD97":2584908.8100000001,"ADDRESS":"大排竹２００號","OBJECTID":366967},"geometry":{"x":188935.45999999903,"y":2584908.8100000024}},{"attributes":{"ID":366978,"DIS_CODE":0,"TOWNNAME":"安南區","LI":"安富里","LIN":"13鄰","STREET":"安富街","SECT":" ","MAREA":" ","LANE":"２５１巷","ALLEY":" ","HOUSE_NO":"４０號","E_COORD97":167539.5,"N_COORD97":2547338.9199999999,"ADDRESS":"安富街２５１巷４０號","OBJECTID":366968},"geometry":{"x":167539.5,"y":2547338.9199999999}},{"attributes":{"ID":366979,"DIS_CODE":0,"TOWNNAME":"東區","LI":"東安里","LIN":"12鄰","STREET":"長榮路","SECT":"二段","MAREA":" ","LANE":"３２巷","ALLEY":" ","HOUSE_NO":"１４２號三樓之１","E_COORD97":170189.10999999999,"N_COORD97":2543127.1099999999,"ADDRESS":"長榮路二段３２巷１４２號三樓之１","OBJECTID":366969},"geometry":{"x":170189.11000000034,"y":2543127.1099999994}},{"attributes":{"ID":366980,"DIS_CODE":0,"TOWNNAME":"東區","LI":"東安里","LIN":"12鄰","STREET":"長榮路","SECT":"二段","MAREA":" ","LANE":"３２巷","ALLEY":" ","HOUSE_NO":"１４２號三樓之２","E_COORD97":170189.10999999999,"N_COORD97":2543127.1099999999,"ADDRESS":"長榮路二段３２巷１４２號三樓之２","OBJECTID":366970},"geometry":{"x":170189.11000000034,"y":2543127.1099999994}},{"attributes":{"ID":366981,"DIS_CODE":0,"TOWNNAME":"東區","LI":"東安里","LIN":"12鄰","STREET":"長榮路","SECT":"二段","MAREA":" ","LANE":"３２巷","ALLEY":" ","HOUSE_NO":"１４２號三樓之３","E_COORD97":170189.10999999999,"N_COORD97":2543127.1099999999,"ADDRESS":"長榮路二段３２巷１４２號三樓之３","OBJECTID":366971},"geometry":{"x":170189.11000000034,"y":2543127.1099999994}},{"attributes":{"ID":366982,"DIS_CODE":0,"TOWNNAME":"東區","LI":"東安里","LIN":"12鄰","STREET":"長榮路","SECT":"二段","MAREA":" ","LANE":"３２巷","ALLEY":" ","HOUSE_NO":"１４２號三樓之４","E_COORD97":170189.10999999999,"N_COORD97":2543127.1099999999,"ADDRESS":"長榮路二段３２巷１４２號三樓之４","OBJECTID":366972},"geometry":{"x":170189.11000000034,"y":2543127.1099999994}},{"attributes":{"ID":366983,"DIS_CODE":0,"TOWNNAME":"東區","LI":"東安里","LIN":"12鄰","STREET":"長榮路","SECT":"二段","MAREA":" ","LANE":"３２巷","ALLEY":" ","HOUSE_NO":"１４２號三樓之５","E_COORD97":170189.10999999999,"N_COORD97":2543127.1099999999,"ADDRESS":"長榮路二段３２巷１４２號三樓之５","OBJECTID":366973},"geometry":{"x":170189.11000000034,"y":2543127.1099999994}},{"attributes":{"ID":366984,"DIS_CODE":0,"TOWNNAME":"東區","LI":"東安里","LIN":"12鄰","STREET":"長榮路","SECT":"二段","MAREA":" ","LANE":"３２巷","ALLEY":" ","HOUSE_NO":"１４２號三樓之６","E_COORD97":170189.10999999999,"N_COORD97":2543127.1099999999,"ADDRESS":"長榮路二段３２巷１４２號三樓之６","OBJECTID":366974},"geometry":{"x":170189.11000000034,"y":2543127.1099999994}},{"attributes":{"ID":366985,"DIS_CODE":0,"TOWNNAME":"安南區","LI":"溪心里","LIN":"13鄰","STREET":"樂安二街","SECT":" ","MAREA":" ","LANE":" ","ALLEY":" ","HOUSE_NO":"９８號","E_COORD97":165869.17999999999,"N_COORD97":2549738.3900000001,"ADDRESS":"樂安二街９８號","OBJECTID":366975},"geometry":{"x":165869.18000000063,"y":2549738.3900000043}},{"attributes":{"ID":366986,"DIS_CODE":0,"TOWNNAME":"安南區","LI":"安西里","LIN":"13鄰","STREET":"安和路","SECT":"一段","MAREA":" ","LANE":"１５９巷","ALLEY":" ","HOUSE_NO":"４９號","E_COORD97":169235.85999999999,"N_COORD97":2547800.1600000001,"ADDRESS":"安和路一段１５９巷４９號","OBJECTID":366976},"geometry":{"x":169235.86000000127,"y":2547800.1600000039}},{"attributes":{"ID":366987,"DIS_CODE":0,"TOWNNAME":"安平區","LI":"億載里","LIN":"3鄰","STREET":"永華十二街","SECT":" ","MAREA":" ","LANE":"３９巷","ALLEY":" ","HOUSE_NO":"１號","E_COORD97":163753.45000000001,"N_COORD97":2543679.8599999999,"ADDRESS":"永華十二街３９巷１號","OBJECTID":366977},"geometry":{"x":163753.45000000019,"y":2543679.8600000013}},{"attributes":{"ID":366988,"DIS_CODE":0,"TOWNNAME":"東區","LI":"東安里","LIN":"12鄰","STREET":"長榮路","SECT":"二段","MAREA":" ","LANE":"３２巷","ALLEY":" ","HOUSE_NO":"１４２號三樓之７","E_COORD97":170189.10999999999,"N_COORD97":2543127.1099999999,"ADDRESS":"長榮路二段３２巷１４２號三樓之７","OBJECTID":366978},"geometry":{"x":170189.11000000034,"y":2543127.1099999994}},{"attributes":{"ID":366989,"DIS_CODE":0,"TOWNNAME":"東區","LI":"東安里","LIN":"12鄰","STREET":"長榮路","SECT":"二段","MAREA":" ","LANE":"３２巷","ALLEY":" ","HOUSE_NO":"１４２號三樓之８","E_COORD97":170189.10999999999,"N_COORD97":2543127.1099999999,"ADDRESS":"長榮路二段３２巷１４２號三樓之８","OBJECTID":366979},"geometry":{"x":170189.11000000034,"y":2543127.1099999994}},{"attributes":{"ID":366990,"DIS_CODE":0,"TOWNNAME":"東區","LI":"東安里","LIN":"12鄰","STREET":"長榮路","SECT":"二段","MAREA":" ","LANE":"３２巷","ALLEY":" ","HOUSE_NO":"１４２號三樓之９","E_COORD97":170189.10999999999,"N_COORD97":2543127.1099999999,"ADDRESS":"長榮路二段３２巷１４２號三樓之９","OBJECTID":366980},"geometry":{"x":170189.11000000034,"y":2543127.1099999994}},{"attributes":{"ID":366991,"DIS_CODE":0,"TOWNNAME":"東區","LI":"東安里","LIN":"12鄰","STREET":"長榮路","SECT":"二段","MAREA":" ","LANE":"３２巷","ALLEY":" ","HOUSE_NO":"１４２號三樓之１０","E_COORD97":170189.10999999999,"N_COORD97":2543127.1099999999,"ADDRESS":"長榮路二段３２巷１４２號三樓之１０","OBJECTID":366981},"geometry":{"x":170189.11000000034,"y":2543127.1099999994}},{"attributes":{"ID":366992,"DIS_CODE":0,"TOWNNAME":"東區","LI":"東安里","LIN":"12鄰","STREET":"長榮路","SECT":"二段","MAREA":" ","LANE":"３２巷","ALLEY":" ","HOUSE_NO":"１４２號三樓之１１","E_COORD97":170189.10999999999,"N_COORD97":2543127.1099999999,"ADDRESS":"長榮路二段３２巷１４２號三樓之１１","OBJECTID":366982},"geometry":{"x":170189.11000000034,"y":2543127.1099999994}},{"attributes":{"ID":366993,"DIS_CODE":0,"TOWNNAME":"東區","LI":"東安里","LIN":"12鄰","STREET":"長榮路","SECT":"二段","MAREA":" ","LANE":"３２巷","ALLEY":" ","HOUSE_NO":"１４２號三樓之１４","E_COORD97":170189.10999999999,"N_COORD97":2543127.1099999999,"ADDRESS":"長榮路二段３２巷１４２號三樓之１４","OBJECTID":366983},"geometry":{"x":170189.11000000034,"y":2543127.1099999994}},{"attributes":{"ID":366994,"DIS_CODE":0,"TOWNNAME":"東區","LI":"東安里","LIN":"12鄰","STREET":"長榮路","SECT":"二段","MAREA":" ","LANE":"３２巷","ALLEY":" ","HOUSE_NO":"１４４號二樓之５","E_COORD97":170205.64000000001,"N_COORD97":2543123.4300000002,"ADDRESS":"長榮路二段３２巷１４４號二樓之５","OBJECTID":366984},"geometry":{"x":170205.64000000153,"y":2543123.4300000016}},{"attributes":{"ID":366995,"DIS_CODE":0,"TOWNNAME":"東區","LI":"東安里","LIN":"12鄰","STREET":"長榮路","SECT":"二段","MAREA":" ","LANE":"３２巷","ALLEY":" ","HOUSE_NO":"１４２號三樓之１５","E_COORD97":170189.10999999999,"N_COORD97":2543127.1099999999,"ADDRESS":"長榮路二段３２巷１４２號三樓之１５","OBJECTID":366985},"geometry":{"x":170189.11000000034,"y":2543127.1099999994}},{"attributes":{"ID":366996,"DIS_CODE":0,"TOWNNAME":"東區","LI":"東安里","LIN":"12鄰","STREET":"長榮路","SECT":"二段","MAREA":" ","LANE":"３２巷","ALLEY":" ","HOUSE_NO":"１４２號四樓之２","E_COORD97":170189.10999999999,"N_COORD97":2543127.1099999999,"ADDRESS":"長榮路二段３２巷１４２號四樓之２","OBJECTID":366986},"geometry":{"x":170189.11000000034,"y":2543127.1099999994}},{"attributes":{"ID":366997,"DIS_CODE":0,"TOWNNAME":"東區","LI":"東安里","LIN":"12鄰","STREET":"長榮路","SECT":"二段","MAREA":" ","LANE":"３２巷","ALLEY":" ","HOUSE_NO":"１４２號四樓之３","E_COORD97":170189.10999999999,"N_COORD97":2543127.1099999999,"ADDRESS":"長榮路二段３２巷１４２號四樓之３","OBJECTID":366987},"geometry":{"x":170189.11000000034,"y":2543127.1099999994}},{"attributes":{"ID":366998,"DIS_CODE":0,"TOWNNAME":"東區","LI":"東安里","LIN":"12鄰","STREET":"長榮路","SECT":"二段","MAREA":" ","LANE":"３２巷","ALLEY":" ","HOUSE_NO":"１４２號四樓之４","E_COORD97":170189.10999999999,"N_COORD97":2543127.1099999999,"ADDRESS":"長榮路二段３２巷１４２號四樓之４","OBJECTID":366988},"geometry":{"x":170189.11000000034,"y":2543127.1099999994}},{"attributes":{"ID":366999,"DIS_CODE":0,"TOWNNAME":"東區","LI":"東安里","LIN":"12鄰","STREET":"長榮路","SECT":"二段","MAREA":" ","LANE":"３２巷","ALLEY":" ","HOUSE_NO":"１４２號四樓之５","E_COORD97":170189.10999999999,"N_COORD97":2543127.1099999999,"ADDRESS":"長榮路二段３２巷１４２號四樓之５","OBJECTID":366989},"geometry":{"x":170189.11000000034,"y":2543127.1099999994}},{"attributes":{"ID":367000,"DIS_CODE":0,"TOWNNAME":"東區","LI":"東安里","LIN":"12鄰","STREET":"長榮路","SECT":"二段","MAREA":" ","LANE":"３２巷","ALLEY":" ","HOUSE_NO":"１４２號四樓之６","E_COORD97":170189.10999999999,"N_COORD97":2543127.1099999999,"ADDRESS":"長榮路二段３２巷１４２號四樓之６","OBJECTID":366990},"geometry":{"x":170189.11000000034,"y":2543127.1099999994}},{"attributes":{"ID":367001,"DIS_CODE":0,"TOWNNAME":"東區","LI":"東安里","LIN":"12鄰","STREET":"長榮路","SECT":"二段","MAREA":" ","LANE":"３２巷","ALLEY":" ","HOUSE_NO":"１４２號四樓之７","E_COORD97":170189.10999999999,"N_COORD97":2543127.1099999999,"ADDRESS":"長榮路二段３２巷１４２號四樓之７","OBJECTID":366991},"geometry":{"x":170189.11000000034,"y":2543127.1099999994}},{"attributes":{"ID":367002,"DIS_CODE":0,"TOWNNAME":"東區","LI":"東安里","LIN":"12鄰","STREET":"長榮路","SECT":"二段","MAREA":" ","LANE":"３２巷","ALLEY":" ","HOUSE_NO":"１４２號四樓之８","E_COORD97":170189.10999999999,"N_COORD97":2543127.1099999999,"ADDRESS":"長榮路二段３２巷１４２號四樓之８","OBJECTID":366992},"geometry":{"x":170189.11000000034,"y":2543127.1099999994}},{"attributes":{"ID":367003,"DIS_CODE":0,"TOWNNAME":"東區","LI":"東安里","LIN":"12鄰","STREET":"長榮路","SECT":"二段","MAREA":" ","LANE":"３２巷","ALLEY":" ","HOUSE_NO":"１４２號四樓之９","E_COORD97":170189.10999999999,"N_COORD97":2543127.1099999999,"ADDRESS":"長榮路二段３２巷１４２號四樓之９","OBJECTID":366993},"geometry":{"x":170189.11000000034,"y":2543127.1099999994}},{"attributes":{"ID":367004,"DIS_CODE":0,"TOWNNAME":"永康區","LI":"南灣里","LIN":"33鄰","STREET":"大灣一街","SECT":" ","MAREA":" ","LANE":"４５巷","ALLEY":" ","HOUSE_NO":"２號","E_COORD97":174331.91,"N_COORD97":2544809.0499999998,"ADDRESS":"大灣一街４５巷２號","OBJECTID":366994},"geometry":{"x":174331.90999999922,"y":2544809.0500000026}},{"attributes":{"ID":367005,"DIS_CODE":0,"TOWNNAME":"東區","LI":"東安里","LIN":"12鄰","STREET":"長榮路","SECT":"二段","MAREA":" ","LANE":"３２巷","ALLEY":" ","HOUSE_NO":"１４２號四樓之１１","E_COORD97":170189.10999999999,"N_COORD97":2543127.1099999999,"ADDRESS":"長榮路二段３２巷１４２號四樓之１１","OBJECTID":366995},"geometry":{"x":170189.11000000034,"y":2543127.1099999994}},{"attributes":{"ID":367006,"DIS_CODE":0,"TOWNNAME":"東區","LI":"東安里","LIN":"12鄰","STREET":"長榮路","SECT":"二段","MAREA":" ","LANE":"３２巷","ALLEY":" ","HOUSE_NO":"１４２號四樓之１２","E_COORD97":170189.10999999999,"N_COORD97":2543127.1099999999,"ADDRESS":"長榮路二段３２巷１４２號四樓之１２","OBJECTID":366996},"geometry":{"x":170189.11000000034,"y":2543127.1099999994}},{"attributes":{"ID":367007,"DIS_CODE":0,"TOWNNAME":"東區","LI":"東安里","LIN":"12鄰","STREET":"長榮路","SECT":"二段","MAREA":" ","LANE":"３２巷","ALLEY":" ","HOUSE_NO":"１４２號四樓之１３","E_COORD97":170189.10999999999,"N_COORD97":2543127.1099999999,"ADDRESS":"長榮路二段３２巷１４２號四樓之１３","OBJECTID":366997},"geometry":{"x":170189.11000000034,"y":2543127.1099999994}},{"attributes":{"ID":367008,"DIS_CODE":0,"TOWNNAME":"東區","LI":"東安里","LIN":"12鄰","STREET":"長榮路","SECT":"二段","MAREA":" ","LANE":"３２巷","ALLEY":" ","HOUSE_NO":"１４２號四樓之１４","E_COORD97":170189.10999999999,"N_COORD97":2543127.1099999999,"ADDRESS":"長榮路二段３２巷１４２號四樓之１４","OBJECTID":366998},"geometry":{"x":170189.11000000034,"y":2543127.1099999994}},{"attributes":{"ID":367009,"DIS_CODE":0,"TOWNNAME":"安南區","LI":"淵東里","LIN":"13鄰","STREET":"本原街","SECT":"三段","MAREA":" ","LANE":" ","ALLEY":" ","HOUSE_NO":"１２０號","E_COORD97":165617.66,"N_COORD97":2550386.1200000001,"ADDRESS":"本原街三段１２０號","OBJECTID":366999},"geometry":{"x":165617.66000000108,"y":2550386.1200000029}},{"attributes":{"ID":367010,"DIS_CODE":0,"TOWNNAME":"安南區","LI":"淵東里","LIN":"13鄰","STREET":"本原街","SECT":"三段","MAREA":" ","LANE":" ","ALLEY":" ","HOUSE_NO":"１２２號","E_COORD97":165612.16,"N_COORD97":2550384.8100000001,"ADDRESS":"本原街三段１２２號","OBJECTID":367000},"geometry":{"x":165612.16000000108,"y":2550384.8100000005}}]}