{"displayFieldName":"TOWNNAME","fieldAliases":{"ID":"ID","DIS_CODE":"DIS_CODE","TOWNNAME":"TOWNNAME","LI":"LI","LIN":"LIN","STREET":"STREET","SECT":"SECT","MAREA":"MAREA","LANE":"LANE","ALLEY":"ALLEY","HOUSE_NO":"HOUSE_NO","E_COORD97":"E_COORD97","N_COORD97":"N_COORD97","ADDRESS":"ADDRESS","OBJECTID":"OBJECTID"},"geometryType":"esriGeometryPoint","spatialReference":{"wkid":102443,"latestWkid":3826},"fields":[{"name":"ID","type":"esriFieldTypeDouble","alias":"ID"},{"name":"DIS_CODE","type":"esriFieldTypeInteger","alias":"DIS_CODE"},{"name":"TOWNNAME","type":"esriFieldTypeString","alias":"TOWNNAME","length":8},{"name":"LI","type":"esriFieldTypeString","alias":"LI","length":8},{"name":"LIN","type":"esriFieldTypeString","alias":"LIN","length":12},{"name":"STREET","type":"esriFieldTypeString","alias":"STREET","length":20},{"name":"SECT","type":"esriFieldTypeString","alias":"SECT","length":8},{"name":"MAREA","type":"esriFieldTypeString","alias":"MAREA","length":12},{"name":"LANE","type":"esriFieldTypeString","alias":"LANE","length":10},{"name":"ALLEY","type":"esriFieldTypeString","alias":"ALLEY","length":10},{"name":"HOUSE_NO","type":"esriFieldTypeString","alias":"HOUSE_NO","length":20},{"name":"E_COORD97","type":"esriFieldTypeDouble","alias":"E_COORD97"},{"name":"N_COORD97","type":"esriFieldTypeDouble","alias":"N_COORD97"},{"name":"ADDRESS","type":"esriFieldTypeString","alias":"ADDRESS","length":50},{"name":"OBJECTID","type":"esriFieldTypeOID","alias":"OBJECTID"}],"features":[{"attributes":{"ID":100201,"DIS_CODE":0,"TOWNNAME":"仁德區","LI":"土庫里","LIN":"9鄰","STREET":"土庫路","SECT":" ","MAREA":" ","LANE":"５３巷","ALLEY":"１１弄","HOUSE_NO":"１１號","E_COORD97":174249.28,"N_COORD97":2543379.0099999998,"ADDRESS":"土庫路５３巷１１弄１１號","OBJECTID":100201},"geometry":{"x":174249.28000000026,"y":2543379.0099999998}},{"attributes":{"ID":100202,"DIS_CODE":0,"TOWNNAME":"仁德區","LI":"土庫里","LIN":"9鄰","STREET":"土庫路","SECT":" ","MAREA":" ","LANE":"５３巷","ALLEY":"１１弄","HOUSE_NO":"１５號","E_COORD97":174247.22,"N_COORD97":2543388.2599999998,"ADDRESS":"土庫路５３巷１１弄１５號","OBJECTID":100202},"geometry":{"x":174247.22000000067,"y":2543388.2600000035}},{"attributes":{"ID":100203,"DIS_CODE":0,"TOWNNAME":"仁德區","LI":"土庫里","LIN":"9鄰","STREET":"土庫路","SECT":" ","MAREA":" ","LANE":"５３巷","ALLEY":"１１弄","HOUSE_NO":"５號","E_COORD97":174250.88,"N_COORD97":2543365.7599999998,"ADDRESS":"土庫路５３巷１１弄５號","OBJECTID":100203},"geometry":{"x":174250.88000000082,"y":2543365.7600000016}},{"attributes":{"ID":100204,"DIS_CODE":0,"TOWNNAME":"仁德區","LI":"土庫里","LIN":"9鄰","STREET":"土庫路","SECT":" ","MAREA":" ","LANE":"５３巷","ALLEY":"１１弄","HOUSE_NO":"１０號","E_COORD97":174268.67999999999,"N_COORD97":2543377.9900000002,"ADDRESS":"土庫路５３巷１１弄１０號","OBJECTID":100204},"geometry":{"x":174268.68000000156,"y":2543377.9900000021}},{"attributes":{"ID":100205,"DIS_CODE":0,"TOWNNAME":"仁德區","LI":"土庫里","LIN":"9鄰","STREET":"土庫路","SECT":" ","MAREA":" ","LANE":"５３巷","ALLEY":"１１弄","HOUSE_NO":"６號","E_COORD97":174269.70999999999,"N_COORD97":2543368.9900000002,"ADDRESS":"土庫路５３巷１１弄６號","OBJECTID":100205},"geometry":{"x":174269.70999999996,"y":2543368.9900000002}},{"attributes":{"ID":100206,"DIS_CODE":0,"TOWNNAME":"仁德區","LI":"土庫里","LIN":"9鄰","STREET":"土庫路","SECT":" ","MAREA":" ","LANE":"５３巷","ALLEY":"１１弄","HOUSE_NO":"４號","E_COORD97":174270.82000000001,"N_COORD97":2543364.4900000002,"ADDRESS":"土庫路５３巷１１弄４號","OBJECTID":100206},"geometry":{"x":174270.82000000123,"y":2543364.4900000021}},{"attributes":{"ID":100207,"DIS_CODE":0,"TOWNNAME":"仁德區","LI":"土庫里","LIN":"9鄰","STREET":"土庫路","SECT":" ","MAREA":" ","LANE":"５３巷","ALLEY":"１１弄","HOUSE_NO":"１３號","E_COORD97":174248.04999999999,"N_COORD97":2543383.5099999998,"ADDRESS":"土庫路５３巷１１弄１３號","OBJECTID":100207},"geometry":{"x":174248.05000000075,"y":2543383.5100000016}},{"attributes":{"ID":100208,"DIS_CODE":0,"TOWNNAME":"仁德區","LI":"田厝里","LIN":"9鄰","STREET":"田厝二街","SECT":" ","MAREA":" ","LANE":"６４巷","ALLEY":"９弄","HOUSE_NO":"１０號","E_COORD97":172403.73999999999,"N_COORD97":2537692.2400000002,"ADDRESS":"田厝二街６４巷９弄１０號","OBJECTID":100208},"geometry":{"x":172403.74000000022,"y":2537692.2400000002}},{"attributes":{"ID":100209,"DIS_CODE":0,"TOWNNAME":"安南區","LI":"安富里","LIN":"9鄰","STREET":"郡安路","SECT":"五段","MAREA":" ","LANE":"１８４巷","ALLEY":"１０８弄","HOUSE_NO":"２號","E_COORD97":167495.42999999999,"N_COORD97":2547492.5899999999,"ADDRESS":"郡安路五段１８４巷１０８弄２號","OBJECTID":100209},"geometry":{"x":167495.43000000063,"y":2547492.5900000017}},{"attributes":{"ID":100210,"DIS_CODE":0,"TOWNNAME":"東區","LI":"虎尾里","LIN":"9鄰","STREET":"東成街","SECT":" ","MAREA":" ","LANE":"１８２巷","ALLEY":"２弄","HOUSE_NO":"２５號","E_COORD97":171682.04999999999,"N_COORD97":2542246.54,"ADDRESS":"東成街１８２巷２弄２５號","OBJECTID":100210},"geometry":{"x":171682.04999999981,"y":2542246.5400000028}},{"attributes":{"ID":100211,"DIS_CODE":0,"TOWNNAME":"東區","LI":"虎尾里","LIN":"9鄰","STREET":"東成街","SECT":" ","MAREA":" ","LANE":"１８２巷","ALLEY":"２弄","HOUSE_NO":"２７號","E_COORD97":171677.35000000001,"N_COORD97":2542245.9900000002,"ADDRESS":"東成街１８２巷２弄２７號","OBJECTID":100211},"geometry":{"x":171677.35000000056,"y":2542245.9900000021}},{"attributes":{"ID":100212,"DIS_CODE":0,"TOWNNAME":"東區","LI":"虎尾里","LIN":"9鄰","STREET":"東成街","SECT":" ","MAREA":" ","LANE":"１８２巷","ALLEY":"２弄","HOUSE_NO":"２９號","E_COORD97":171672.92999999999,"N_COORD97":2542245.1600000001,"ADDRESS":"東成街１８２巷２弄２９號","OBJECTID":100212},"geometry":{"x":171672.9299999997,"y":2542245.1600000001}},{"attributes":{"ID":100213,"DIS_CODE":0,"TOWNNAME":"東區","LI":"虎尾里","LIN":"9鄰","STREET":"東成街","SECT":" ","MAREA":" ","LANE":"１８２巷","ALLEY":"２弄","HOUSE_NO":"３１號","E_COORD97":171668.38,"N_COORD97":2542244.3300000001,"ADDRESS":"東成街１８２巷２弄３１號","OBJECTID":100213},"geometry":{"x":171668.37999999989,"y":2542244.3300000001}},{"attributes":{"ID":100214,"DIS_CODE":0,"TOWNNAME":"永康區","LI":"網寮里","LIN":"9鄰","STREET":"永二街","SECT":" ","MAREA":" ","LANE":"２４４巷","ALLEY":"６弄","HOUSE_NO":"１５號","E_COORD97":173306.35000000001,"N_COORD97":2546373.6699999999,"ADDRESS":"永二街２４４巷６弄１５號","OBJECTID":100214},"geometry":{"x":173306.35000000149,"y":2546373.6700000018}},{"attributes":{"ID":100215,"DIS_CODE":0,"TOWNNAME":"仁德區","LI":"仁義里","LIN":"1鄰","STREET":"義林二街","SECT":" ","MAREA":" ","LANE":" ","ALLEY":" ","HOUSE_NO":"３０號","E_COORD97":174126.10999999999,"N_COORD97":2541086.2999999998,"ADDRESS":"義林二街３０號","OBJECTID":100215},"geometry":{"x":174126.11000000127,"y":2541086.3000000007}},{"attributes":{"ID":100216,"DIS_CODE":0,"TOWNNAME":"仁德區","LI":"仁義里","LIN":"1鄰","STREET":"義林二街","SECT":" ","MAREA":" ","LANE":" ","ALLEY":" ","HOUSE_NO":"３２號","E_COORD97":174126.39000000001,"N_COORD97":2541090.7200000002,"ADDRESS":"義林二街３２號","OBJECTID":100216},"geometry":{"x":174126.38999999873,"y":2541090.7200000044}},{"attributes":{"ID":100217,"DIS_CODE":0,"TOWNNAME":"仁德區","LI":"仁義里","LIN":"1鄰","STREET":"義林六街","SECT":" ","MAREA":" ","LANE":" ","ALLEY":" ","HOUSE_NO":"１２３號","E_COORD97":174151.70000000001,"N_COORD97":2541089.52,"ADDRESS":"義林六街１２３號","OBJECTID":100217},"geometry":{"x":174151.70000000019,"y":2541089.5199999996}},{"attributes":{"ID":100218,"DIS_CODE":0,"TOWNNAME":"永康區","LI":"網寮里","LIN":"9鄰","STREET":"永二街","SECT":" ","MAREA":" ","LANE":"２４４巷","ALLEY":"６弄","HOUSE_NO":"１號","E_COORD97":173274.04000000001,"N_COORD97":2546394.1699999999,"ADDRESS":"永二街２４４巷６弄１號","OBJECTID":100218},"geometry":{"x":173274.04000000097,"y":2546394.1700000018}},{"attributes":{"ID":100219,"DIS_CODE":0,"TOWNNAME":"永康區","LI":"新樹里","LIN":"9鄰","STREET":"富強路","SECT":"二段","MAREA":" ","LANE":"１２８巷","ALLEY":"１４弄","HOUSE_NO":"１３號","E_COORD97":175739.79999999999,"N_COORD97":2547049.75,"ADDRESS":"富強路二段１２８巷１４弄１３號","OBJECTID":100219},"geometry":{"x":175739.80000000075,"y":2547049.75}},{"attributes":{"ID":100220,"DIS_CODE":0,"TOWNNAME":"永康區","LI":"新樹里","LIN":"9鄰","STREET":"富強路","SECT":"二段","MAREA":" ","LANE":"１２８巷","ALLEY":"１４弄","HOUSE_NO":"２３號","E_COORD97":175743.34,"N_COORD97":2547023.8399999999,"ADDRESS":"富強路二段１２８巷１４弄２３號","OBJECTID":100220},"geometry":{"x":175743.34000000078,"y":2547023.8400000017}},{"attributes":{"ID":100221,"DIS_CODE":0,"TOWNNAME":"永康區","LI":"新樹里","LIN":"9鄰","STREET":"富強路","SECT":"二段","MAREA":" ","LANE":"１２８巷","ALLEY":"１４弄","HOUSE_NO":"４２號","E_COORD97":175718.01999999999,"N_COORD97":2547010.1200000001,"ADDRESS":"富強路二段１２８巷１４弄４２號","OBJECTID":100221},"geometry":{"x":175718.02000000048,"y":2547010.120000001}},{"attributes":{"ID":100222,"DIS_CODE":0,"TOWNNAME":"下營區","LI":"大屯里","LIN":"1鄰","STREET":" ","SECT":" ","MAREA":"大屯寮","LANE":" ","ALLEY":" ","HOUSE_NO":"１號之１４","E_COORD97":172683.63,"N_COORD97":2570545.7799999998,"ADDRESS":"大屯寮１號之１４","OBJECTID":100222},"geometry":{"x":172683.62999999989,"y":2570545.7800000012}},{"attributes":{"ID":100223,"DIS_CODE":0,"TOWNNAME":"東山區","LI":"東原里","LIN":"10鄰","STREET":" ","SECT":" ","MAREA":"前大埔","LANE":" ","ALLEY":" ","HOUSE_NO":"１１４號之２","E_COORD97":194081.85999999999,"N_COORD97":2573199.6800000002,"ADDRESS":"前大埔１１４號之２","OBJECTID":100223},"geometry":{"x":194081.86000000127,"y":2573199.6799999997}},{"attributes":{"ID":100224,"DIS_CODE":0,"TOWNNAME":"東山區","LI":"東原里","LIN":"10鄰","STREET":" ","SECT":" ","MAREA":"前大埔","LANE":" ","ALLEY":" ","HOUSE_NO":"１１５號之２","E_COORD97":194331.29000000001,"N_COORD97":2572991.3700000001,"ADDRESS":"前大埔１１５號之２","OBJECTID":100224},"geometry":{"x":194331.29000000097,"y":2572991.3700000029}},{"attributes":{"ID":100225,"DIS_CODE":0,"TOWNNAME":"東山區","LI":"東原里","LIN":"10鄰","STREET":" ","SECT":" ","MAREA":"前大埔","LANE":" ","ALLEY":" ","HOUSE_NO":"１２２號","E_COORD97":194513.47,"N_COORD97":2573012.27,"ADDRESS":"前大埔１２２號","OBJECTID":100225},"geometry":{"x":194513.46999999974,"y":2573012.2699999996}},{"attributes":{"ID":100226,"DIS_CODE":0,"TOWNNAME":"東山區","LI":"東原里","LIN":"10鄰","STREET":" ","SECT":" ","MAREA":"前大埔","LANE":" ","ALLEY":" ","HOUSE_NO":"１２３號之１","E_COORD97":194515.32000000001,"N_COORD97":2572981.77,"ADDRESS":"前大埔１２３號之１","OBJECTID":100226},"geometry":{"x":194515.3200000003,"y":2572981.7699999996}},{"attributes":{"ID":100227,"DIS_CODE":0,"TOWNNAME":"東山區","LI":"東原里","LIN":"10鄰","STREET":" ","SECT":" ","MAREA":"前大埔","LANE":" ","ALLEY":" ","HOUSE_NO":"１２３號之２","E_COORD97":194434.54000000001,"N_COORD97":2572928.9199999999,"ADDRESS":"前大埔１２３號之２","OBJECTID":100227},"geometry":{"x":194434.54000000097,"y":2572928.9200000018}},{"attributes":{"ID":100228,"DIS_CODE":0,"TOWNNAME":"東山區","LI":"東原里","LIN":"10鄰","STREET":" ","SECT":" ","MAREA":"前大埔","LANE":" ","ALLEY":" ","HOUSE_NO":"１２３號之３","E_COORD97":194480.70000000001,"N_COORD97":2572952.5899999999,"ADDRESS":"前大埔１２３號之３","OBJECTID":100228},"geometry":{"x":194480.69999999925,"y":2572952.5899999999}},{"attributes":{"ID":100229,"DIS_CODE":0,"TOWNNAME":"東山區","LI":"東原里","LIN":"10鄰","STREET":" ","SECT":" ","MAREA":"前大埔","LANE":" ","ALLEY":" ","HOUSE_NO":"１２３號之４","E_COORD97":194429.64999999999,"N_COORD97":2572959.4900000002,"ADDRESS":"前大埔１２３號之４","OBJECTID":100229},"geometry":{"x":194429.65000000037,"y":2572959.4900000021}},{"attributes":{"ID":100230,"DIS_CODE":0,"TOWNNAME":"東山區","LI":"東原里","LIN":"10鄰","STREET":" ","SECT":" ","MAREA":"前大埔","LANE":" ","ALLEY":" ","HOUSE_NO":"１２３號","E_COORD97":194502.54000000001,"N_COORD97":2572971.2000000002,"ADDRESS":"前大埔１２３號","OBJECTID":100230},"geometry":{"x":194502.54000000097,"y":2572971.1999999993}},{"attributes":{"ID":100231,"DIS_CODE":0,"TOWNNAME":"東山區","LI":"南勢里","LIN":"10鄰","STREET":" ","SECT":" ","MAREA":"南勢庄","LANE":" ","ALLEY":" ","HOUSE_NO":"１０號","E_COORD97":195753.85000000001,"N_COORD97":2571763.1099999999,"ADDRESS":"南勢庄１０號","OBJECTID":100231},"geometry":{"x":195753.8499999987,"y":2571763.1100000031}},{"attributes":{"ID":100232,"DIS_CODE":0,"TOWNNAME":"東山區","LI":"南勢里","LIN":"10鄰","STREET":" ","SECT":" ","MAREA":"南勢庄","LANE":" ","ALLEY":" ","HOUSE_NO":"１１號之１","E_COORD97":195799.45000000001,"N_COORD97":2571720.5499999998,"ADDRESS":"南勢庄１１號之１","OBJECTID":100232},"geometry":{"x":195799.45000000019,"y":2571720.5499999989}},{"attributes":{"ID":100233,"DIS_CODE":0,"TOWNNAME":"東山區","LI":"南勢里","LIN":"10鄰","STREET":" ","SECT":" ","MAREA":"南勢庄","LANE":" ","ALLEY":" ","HOUSE_NO":"１１號","E_COORD97":195775.16,"N_COORD97":2571736.7000000002,"ADDRESS":"南勢庄１１號","OBJECTID":100233},"geometry":{"x":195775.16000000108,"y":2571736.7000000011}},{"attributes":{"ID":100234,"DIS_CODE":0,"TOWNNAME":"東山區","LI":"南勢里","LIN":"10鄰","STREET":" ","SECT":" ","MAREA":"南勢庄","LANE":" ","ALLEY":" ","HOUSE_NO":"１２號","E_COORD97":195799.32999999999,"N_COORD97":2571693.5600000001,"ADDRESS":"南勢庄１２號","OBJECTID":100234},"geometry":{"x":195799.33000000101,"y":2571693.5600000024}},{"attributes":{"ID":100235,"DIS_CODE":0,"TOWNNAME":"東山區","LI":"南勢里","LIN":"10鄰","STREET":" ","SECT":" ","MAREA":"南勢庄","LANE":" ","ALLEY":" ","HOUSE_NO":"１３號","E_COORD97":195737.78,"N_COORD97":2571788.8100000001,"ADDRESS":"南勢庄１３號","OBJECTID":100235},"geometry":{"x":195737.78000000026,"y":2571788.8100000005}},{"attributes":{"ID":100236,"DIS_CODE":0,"TOWNNAME":"東山區","LI":"南勢里","LIN":"10鄰","STREET":" ","SECT":" ","MAREA":"南勢庄","LANE":" ","ALLEY":" ","HOUSE_NO":"１４號","E_COORD97":195832.76999999999,"N_COORD97":2571692.1400000001,"ADDRESS":"南勢庄１４號","OBJECTID":100236},"geometry":{"x":195832.77000000048,"y":2571692.1400000006}},{"attributes":{"ID":100237,"DIS_CODE":0,"TOWNNAME":"東山區","LI":"南勢里","LIN":"10鄰","STREET":" ","SECT":" ","MAREA":"南勢庄","LANE":" ","ALLEY":" ","HOUSE_NO":"１５號","E_COORD97":195945.87,"N_COORD97":2571646.6800000002,"ADDRESS":"南勢庄１５號","OBJECTID":100237},"geometry":{"x":195945.87000000197,"y":2571646.6799999997}},{"attributes":{"ID":100238,"DIS_CODE":0,"TOWNNAME":"永康區","LI":"新樹里","LIN":"9鄰","STREET":"富強路","SECT":"二段","MAREA":" ","LANE":"１２８巷","ALLEY":"１４弄","HOUSE_NO":"７號","E_COORD97":175738.89999999999,"N_COORD97":2547068,"ADDRESS":"富強路二段１２８巷１４弄７號","OBJECTID":100238},"geometry":{"x":175738.90000000037,"y":2547068}},{"attributes":{"ID":100239,"DIS_CODE":0,"TOWNNAME":"永康區","LI":"新樹里","LIN":"9鄰","STREET":"富強路","SECT":"二段","MAREA":" ","LANE":"１２８巷","ALLEY":"１４弄","HOUSE_NO":"２７號","E_COORD97":175748.12,"N_COORD97":2547002.25,"ADDRESS":"富強路二段１２８巷１４弄２７號","OBJECTID":100239},"geometry":{"x":175748.12000000104,"y":2547002.25}},{"attributes":{"ID":100240,"DIS_CODE":0,"TOWNNAME":"東山區","LI":"南勢里","LIN":"10鄰","STREET":" ","SECT":" ","MAREA":"南勢庄","LANE":" ","ALLEY":" ","HOUSE_NO":"１６號","E_COORD97":195715.20999999999,"N_COORD97":2571849.4700000002,"ADDRESS":"南勢庄１６號","OBJECTID":100240},"geometry":{"x":195715.21000000089,"y":2571849.4700000007}},{"attributes":{"ID":100241,"DIS_CODE":0,"TOWNNAME":"東山區","LI":"南勢里","LIN":"10鄰","STREET":" ","SECT":" ","MAREA":"南勢庄","LANE":" ","ALLEY":" ","HOUSE_NO":"１７號","E_COORD97":195705.17999999999,"N_COORD97":2571814.1200000001,"ADDRESS":"南勢庄１７號","OBJECTID":100241},"geometry":{"x":195705.18000000063,"y":2571814.120000001}},{"attributes":{"ID":100242,"DIS_CODE":0,"TOWNNAME":"東山區","LI":"南勢里","LIN":"10鄰","STREET":" ","SECT":" ","MAREA":"南勢庄","LANE":" ","ALLEY":" ","HOUSE_NO":"１８號","E_COORD97":195839.51999999999,"N_COORD97":2571496.27,"ADDRESS":"南勢庄１８號","OBJECTID":100242},"geometry":{"x":195839.52000000048,"y":2571496.2699999996}},{"attributes":{"ID":100243,"DIS_CODE":0,"TOWNNAME":"東山區","LI":"南勢里","LIN":"10鄰","STREET":" ","SECT":" ","MAREA":"南勢庄","LANE":" ","ALLEY":" ","HOUSE_NO":"１９號","E_COORD97":195839.13,"N_COORD97":2572035.1200000001,"ADDRESS":"南勢庄１９號","OBJECTID":100243},"geometry":{"x":195839.13000000082,"y":2572035.120000001}},{"attributes":{"ID":100244,"DIS_CODE":0,"TOWNNAME":"永康區","LI":"網寮里","LIN":"9鄰","STREET":"永二街","SECT":" ","MAREA":" ","LANE":"２４４巷","ALLEY":"８弄","HOUSE_NO":"３６號","E_COORD97":173355.20999999999,"N_COORD97":2546365.6200000001,"ADDRESS":"永二街２４４巷８弄３６號","OBJECTID":100244},"geometry":{"x":173355.21000000089,"y":2546365.620000001}},{"attributes":{"ID":100245,"DIS_CODE":0,"TOWNNAME":"永康區","LI":"復興里","LIN":"9鄰","STREET":"復興路","SECT":" ","MAREA":" ","LANE":"２７７巷","ALLEY":"６弄","HOUSE_NO":"７號","E_COORD97":172298.92000000001,"N_COORD97":2544250.46,"ADDRESS":"復興路２７７巷６弄７號","OBJECTID":100245},"geometry":{"x":172298.91999999993,"y":2544250.4600000028}},{"attributes":{"ID":100246,"DIS_CODE":0,"TOWNNAME":"永康區","LI":"網寮里","LIN":"9鄰","STREET":"永二街","SECT":" ","MAREA":" ","LANE":"２４４巷","ALLEY":"８弄","HOUSE_NO":"１８號","E_COORD97":173317.48999999999,"N_COORD97":2546390.1200000001,"ADDRESS":"永二街２４４巷８弄１８號","OBJECTID":100246},"geometry":{"x":173317.49000000022,"y":2546390.120000001}},{"attributes":{"ID":100247,"DIS_CODE":0,"TOWNNAME":"永康區","LI":"網寮里","LIN":"9鄰","STREET":"永二街","SECT":" ","MAREA":" ","LANE":"２４４巷","ALLEY":"８弄","HOUSE_NO":"６號","E_COORD97":173290.37,"N_COORD97":2546406.6299999999,"ADDRESS":"永二街２４４巷８弄６號","OBJECTID":100247},"geometry":{"x":173290.37000000104,"y":2546406.6300000008}},{"attributes":{"ID":100248,"DIS_CODE":0,"TOWNNAME":"永康區","LI":"網寮里","LIN":"9鄰","STREET":"永二街","SECT":" ","MAREA":" ","LANE":"２４４巷","ALLEY":"８弄","HOUSE_NO":"１４號","E_COORD97":173308.95999999999,"N_COORD97":2546395.3700000001,"ADDRESS":"永二街２４４巷８弄１４號","OBJECTID":100248},"geometry":{"x":173308.95999999996,"y":2546395.370000001}},{"attributes":{"ID":100249,"DIS_CODE":0,"TOWNNAME":"永康區","LI":"網寮里","LIN":"9鄰","STREET":"永二街","SECT":" ","MAREA":" ","LANE":"２４４巷","ALLEY":"８弄","HOUSE_NO":"２之１號","E_COORD97":173285.73000000001,"N_COORD97":2546409.6299999999,"ADDRESS":"永二街２４４巷８弄２之１號","OBJECTID":100249},"geometry":{"x":173285.73000000045,"y":2546409.6300000008}},{"attributes":{"ID":100250,"DIS_CODE":0,"TOWNNAME":"安南區","LI":"海佃里","LIN":"9鄰","STREET":"國安街","SECT":" ","MAREA":" ","LANE":"５６巷","ALLEY":"７７弄","HOUSE_NO":"１０號","E_COORD97":166893.89000000001,"N_COORD97":2547233.0099999998,"ADDRESS":"國安街５６巷７７弄１０號","OBJECTID":100250},"geometry":{"x":166893.8900000006,"y":2547233.0099999998}},{"attributes":{"ID":100251,"DIS_CODE":0,"TOWNNAME":"安南區","LI":"海佃里","LIN":"9鄰","STREET":"國安街","SECT":" ","MAREA":" ","LANE":"５６巷","ALLEY":"７７弄","HOUSE_NO":"１１號","E_COORD97":166889.89999999999,"N_COORD97":2547232.3399999999,"ADDRESS":"國安街５６巷７７弄１１號","OBJECTID":100251},"geometry":{"x":166889.90000000037,"y":2547232.3400000036}},{"attributes":{"ID":100252,"DIS_CODE":0,"TOWNNAME":"中西區","LI":"光賢里","LIN":"1鄰","STREET":"武聖路","SECT":" ","MAREA":" ","LANE":"２７巷","ALLEY":" ","HOUSE_NO":"７號","E_COORD97":167219.53,"N_COORD97":2544993.3999999999,"ADDRESS":"武聖路２７巷７號","OBJECTID":100252},"geometry":{"x":167219.53000000026,"y":2544993.4000000004}},{"attributes":{"ID":100253,"DIS_CODE":0,"TOWNNAME":"關廟區","LI":"關廟里","LIN":"8鄰","STREET":"大仁街","SECT":" ","MAREA":" ","LANE":" ","ALLEY":" ","HOUSE_NO":"３７９號","E_COORD97":180918.97,"N_COORD97":2539772.25,"ADDRESS":"大仁街３７９號","OBJECTID":100253},"geometry":{"x":180918.97000000067,"y":2539772.2500000019}},{"attributes":{"ID":100254,"DIS_CODE":0,"TOWNNAME":"關廟區","LI":"五甲里","LIN":"8鄰","STREET":"五慧街","SECT":" ","MAREA":" ","LANE":" ","ALLEY":" ","HOUSE_NO":"３２號","E_COORD97":181184.92000000001,"N_COORD97":2539260.25,"ADDRESS":"五慧街３２號","OBJECTID":100254},"geometry":{"x":181184.91999999993,"y":2539260.2500000019}},{"attributes":{"ID":100255,"DIS_CODE":0,"TOWNNAME":"關廟區","LI":"松腳里","LIN":"8鄰","STREET":"四維街","SECT":" ","MAREA":" ","LANE":" ","ALLEY":" ","HOUSE_NO":"１５５號","E_COORD97":181861.95999999999,"N_COORD97":2539822.25,"ADDRESS":"四維街１５５號","OBJECTID":100255},"geometry":{"x":181861.96000000089,"y":2539822.2500000019}},{"attributes":{"ID":100256,"DIS_CODE":0,"TOWNNAME":"關廟區","LI":"松腳里","LIN":"8鄰","STREET":"四維街","SECT":" ","MAREA":" ","LANE":" ","ALLEY":" ","HOUSE_NO":"１３３號","E_COORD97":181864.66,"N_COORD97":2539775.25,"ADDRESS":"四維街１３３號","OBJECTID":100256},"geometry":{"x":181864.66000000015,"y":2539775.2500000019}},{"attributes":{"ID":100257,"DIS_CODE":0,"TOWNNAME":"東山區","LI":"科里里","LIN":"10鄰","STREET":" ","SECT":" ","MAREA":"科里","LANE":" ","ALLEY":" ","HOUSE_NO":"５１號","E_COORD97":190043.76999999999,"N_COORD97":2578212.1299999999,"ADDRESS":"科里５１號","OBJECTID":100257},"geometry":{"x":190043.77000000048,"y":2578212.1300000008}},{"attributes":{"ID":100258,"DIS_CODE":0,"TOWNNAME":"東山區","LI":"科里里","LIN":"10鄰","STREET":" ","SECT":" ","MAREA":"科里","LANE":" ","ALLEY":" ","HOUSE_NO":"５３號之１","E_COORD97":190068.57999999999,"N_COORD97":2578195.0499999998,"ADDRESS":"科里５３號之１","OBJECTID":100258},"geometry":{"x":190068.58000000007,"y":2578195.0500000007}},{"attributes":{"ID":100259,"DIS_CODE":0,"TOWNNAME":"東山區","LI":"科里里","LIN":"10鄰","STREET":" ","SECT":" ","MAREA":"科里","LANE":" ","ALLEY":" ","HOUSE_NO":"５３號","E_COORD97":190070.92000000001,"N_COORD97":2578220.4700000002,"ADDRESS":"科里５３號","OBJECTID":100259},"geometry":{"x":190070.91999999993,"y":2578220.4700000044}},{"attributes":{"ID":100260,"DIS_CODE":0,"TOWNNAME":"東山區","LI":"科里里","LIN":"10鄰","STREET":" ","SECT":" ","MAREA":"科里","LANE":" ","ALLEY":" ","HOUSE_NO":"５４號之１","E_COORD97":190056.26999999999,"N_COORD97":2578178.3900000001,"ADDRESS":"科里５４號之１","OBJECTID":100260},"geometry":{"x":190056.26999999955,"y":2578178.3900000025}},{"attributes":{"ID":100261,"DIS_CODE":0,"TOWNNAME":"東山區","LI":"科里里","LIN":"10鄰","STREET":" ","SECT":" ","MAREA":"科里","LANE":" ","ALLEY":" ","HOUSE_NO":"５４號","E_COORD97":190065.25,"N_COORD97":2578160.29,"ADDRESS":"科里５４號","OBJECTID":100261},"geometry":{"x":190065.25,"y":2578160.290000001}},{"attributes":{"ID":100262,"DIS_CODE":0,"TOWNNAME":"東山區","LI":"科里里","LIN":"10鄰","STREET":" ","SECT":" ","MAREA":"科里","LANE":" ","ALLEY":" ","HOUSE_NO":"５５號之１","E_COORD97":190094.22,"N_COORD97":2578197.9300000002,"ADDRESS":"科里５５號之１","OBJECTID":100262},"geometry":{"x":190094.21999999974,"y":2578197.9299999997}},{"attributes":{"ID":100263,"DIS_CODE":0,"TOWNNAME":"東山區","LI":"科里里","LIN":"10鄰","STREET":" ","SECT":" ","MAREA":"科里","LANE":" ","ALLEY":" ","HOUSE_NO":"５５號","E_COORD97":190091.78,"N_COORD97":2578175.73,"ADDRESS":"科里５５號","OBJECTID":100263},"geometry":{"x":190091.78000000119,"y":2578175.7300000023}},{"attributes":{"ID":100264,"DIS_CODE":0,"TOWNNAME":"東山區","LI":"科里里","LIN":"10鄰","STREET":" ","SECT":" ","MAREA":"科里","LANE":" ","ALLEY":" ","HOUSE_NO":"５６號之２","E_COORD97":190297.64000000001,"N_COORD97":2578286.9199999999,"ADDRESS":"科里５６號之２","OBJECTID":100264},"geometry":{"x":190297.6400000006,"y":2578286.9199999999}},{"attributes":{"ID":100265,"DIS_CODE":0,"TOWNNAME":"東山區","LI":"科里里","LIN":"10鄰","STREET":" ","SECT":" ","MAREA":"科里","LANE":" ","ALLEY":" ","HOUSE_NO":"５６號","E_COORD97":190129.85000000001,"N_COORD97":2578184.8700000001,"ADDRESS":"科里５６號","OBJECTID":100265},"geometry":{"x":190129.85000000056,"y":2578184.8700000029}},{"attributes":{"ID":100266,"DIS_CODE":0,"TOWNNAME":"麻豆區","LI":"小埤里","LIN":"10鄰","STREET":" ","SECT":" ","MAREA":"埤頭","LANE":" ","ALLEY":" ","HOUSE_NO":"１０號之１","E_COORD97":170956.76000000001,"N_COORD97":2565810.52,"ADDRESS":"埤頭１０號之１","OBJECTID":100266},"geometry":{"x":170956.75999999978,"y":2565810.5200000014}},{"attributes":{"ID":100267,"DIS_CODE":0,"TOWNNAME":"麻豆區","LI":"小埤里","LIN":"10鄰","STREET":" ","SECT":" ","MAREA":"埤頭","LANE":" ","ALLEY":" ","HOUSE_NO":"１０號之２","E_COORD97":170974.60000000001,"N_COORD97":2565781.5099999998,"ADDRESS":"埤頭１０號之２","OBJECTID":100267},"geometry":{"x":170974.59999999963,"y":2565781.5100000016}},{"attributes":{"ID":100268,"DIS_CODE":0,"TOWNNAME":"麻豆區","LI":"埤頭里","LIN":"10鄰","STREET":" ","SECT":" ","MAREA":"埤頭","LANE":" ","ALLEY":" ","HOUSE_NO":"８２號","E_COORD97":170784.57000000001,"N_COORD97":2566025.0800000001,"ADDRESS":"埤頭８２號","OBJECTID":100268},"geometry":{"x":170784.5700000003,"y":2566025.0800000019}},{"attributes":{"ID":100269,"DIS_CODE":0,"TOWNNAME":"安南區","LI":"海佃里","LIN":"9鄰","STREET":"國安街","SECT":" ","MAREA":" ","LANE":"５６巷","ALLEY":"７７弄","HOUSE_NO":"１２號","E_COORD97":166885.91,"N_COORD97":2547231.02,"ADDRESS":"國安街５６巷７７弄１２號","OBJECTID":100269},"geometry":{"x":166885.91000000015,"y":2547231.0200000033}},{"attributes":{"ID":100270,"DIS_CODE":0,"TOWNNAME":"安南區","LI":"海佃里","LIN":"9鄰","STREET":"國安街","SECT":" ","MAREA":" ","LANE":"５６巷","ALLEY":"７７弄","HOUSE_NO":"１３號","E_COORD97":166882.57999999999,"N_COORD97":2547230.3500000001,"ADDRESS":"國安街５６巷７７弄１３號","OBJECTID":100270},"geometry":{"x":166882.58000000101,"y":2547230.3500000015}},{"attributes":{"ID":100271,"DIS_CODE":0,"TOWNNAME":"安南區","LI":"海佃里","LIN":"9鄰","STREET":"國安街","SECT":" ","MAREA":" ","LANE":"５６巷","ALLEY":"７７弄","HOUSE_NO":"１４號","E_COORD97":166879.26000000001,"N_COORD97":2547229.6899999999,"ADDRESS":"國安街５６巷７７弄１４號","OBJECTID":100271},"geometry":{"x":166879.26000000071,"y":2547229.6900000032}},{"attributes":{"ID":100272,"DIS_CODE":0,"TOWNNAME":"安南區","LI":"海佃里","LIN":"9鄰","STREET":"國安街","SECT":" ","MAREA":" ","LANE":"５６巷","ALLEY":"７７弄","HOUSE_NO":"１５號","E_COORD97":166874.60000000001,"N_COORD97":2547228.3599999999,"ADDRESS":"國安街５６巷７７弄１５號","OBJECTID":100272},"geometry":{"x":166874.5999999987,"y":2547228.3600000031}},{"attributes":{"ID":100273,"DIS_CODE":0,"TOWNNAME":"安南區","LI":"海佃里","LIN":"9鄰","STREET":"國安街","SECT":" ","MAREA":" ","LANE":"５６巷","ALLEY":"７７弄","HOUSE_NO":"１６號","E_COORD97":166871.28,"N_COORD97":2547229.02,"ADDRESS":"國安街５６巷７７弄１６號","OBJECTID":100273},"geometry":{"x":166871.28000000119,"y":2547229.0200000014}},{"attributes":{"ID":100274,"DIS_CODE":0,"TOWNNAME":"安南區","LI":"海佃里","LIN":"9鄰","STREET":"國安街","SECT":" ","MAREA":" ","LANE":"５６巷","ALLEY":"７７弄","HOUSE_NO":"１７號","E_COORD97":166867.95000000001,"N_COORD97":2547227.6899999999,"ADDRESS":"國安街５６巷７７弄１７號","OBJECTID":100274},"geometry":{"x":166867.95000000205,"y":2547227.6900000013}},{"attributes":{"ID":100275,"DIS_CODE":0,"TOWNNAME":"安南區","LI":"海佃里","LIN":"9鄰","STREET":"國安街","SECT":" ","MAREA":" ","LANE":"５６巷","ALLEY":"７７弄","HOUSE_NO":"１８號","E_COORD97":166863.95999999999,"N_COORD97":2547225.7000000002,"ADDRESS":"國安街５６巷７７弄１８號","OBJECTID":100275},"geometry":{"x":166863.95999999996,"y":2547225.6999999993}},{"attributes":{"ID":100276,"DIS_CODE":0,"TOWNNAME":"安南區","LI":"海佃里","LIN":"9鄰","STREET":"國安街","SECT":" ","MAREA":" ","LANE":"５６巷","ALLEY":"７７弄","HOUSE_NO":"１９號","E_COORD97":166859.31,"N_COORD97":2547225.7000000002,"ADDRESS":"國安街５６巷７７弄１９號","OBJECTID":100276},"geometry":{"x":166859.30999999959,"y":2547225.6999999993}},{"attributes":{"ID":100277,"DIS_CODE":0,"TOWNNAME":"安南區","LI":"海佃里","LIN":"9鄰","STREET":"國安街","SECT":" ","MAREA":" ","LANE":"５６巷","ALLEY":"７７弄","HOUSE_NO":"１號","E_COORD97":166928.47,"N_COORD97":2547240.3199999998,"ADDRESS":"國安街５６巷７７弄１號","OBJECTID":100277},"geometry":{"x":166928.47000000067,"y":2547240.3200000022}},{"attributes":{"ID":100278,"DIS_CODE":0,"TOWNNAME":"安南區","LI":"海佃里","LIN":"9鄰","STREET":"國安街","SECT":" ","MAREA":" ","LANE":"５６巷","ALLEY":"７７弄","HOUSE_NO":"２０號","E_COORD97":166855.32000000001,"N_COORD97":2547225.7000000002,"ADDRESS":"國安街５６巷７７弄２０號","OBJECTID":100278},"geometry":{"x":166855.32000000216,"y":2547225.6999999993}},{"attributes":{"ID":100279,"DIS_CODE":0,"TOWNNAME":"安南區","LI":"海佃里","LIN":"9鄰","STREET":"國安街","SECT":" ","MAREA":" ","LANE":"５６巷","ALLEY":"７７弄","HOUSE_NO":"２１號","E_COORD97":166851.32999999999,"N_COORD97":2547225.04,"ADDRESS":"國安街５６巷７７弄２１號","OBJECTID":100279},"geometry":{"x":166851.33000000007,"y":2547225.040000001}},{"attributes":{"ID":100280,"DIS_CODE":0,"TOWNNAME":"安南區","LI":"海佃里","LIN":"9鄰","STREET":"國安街","SECT":" ","MAREA":" ","LANE":"５６巷","ALLEY":"７７弄","HOUSE_NO":"２２號","E_COORD97":166847.34,"N_COORD97":2547224.3700000001,"ADDRESS":"國安街５６巷７７弄２２號","OBJECTID":100280},"geometry":{"x":166847.33999999985,"y":2547224.3700000029}},{"attributes":{"ID":100281,"DIS_CODE":0,"TOWNNAME":"安南區","LI":"海佃里","LIN":"9鄰","STREET":"國安街","SECT":" ","MAREA":" ","LANE":"５６巷","ALLEY":"７７弄","HOUSE_NO":"２３號","E_COORD97":166844.01000000001,"N_COORD97":2547224.3700000001,"ADDRESS":"國安街５６巷７７弄２３號","OBJECTID":100281},"geometry":{"x":166844.01000000071,"y":2547224.3700000029}},{"attributes":{"ID":100282,"DIS_CODE":0,"TOWNNAME":"安南區","LI":"海佃里","LIN":"9鄰","STREET":"國安街","SECT":" ","MAREA":" ","LANE":"５６巷","ALLEY":"７７弄","HOUSE_NO":"２４號","E_COORD97":166840.69,"N_COORD97":2547223.71,"ADDRESS":"國安街５６巷７７弄２４號","OBJECTID":100282},"geometry":{"x":166840.69000000041,"y":2547223.7100000009}},{"attributes":{"ID":100283,"DIS_CODE":0,"TOWNNAME":"安南區","LI":"海佃里","LIN":"9鄰","STREET":"國安街","SECT":" ","MAREA":" ","LANE":"５６巷","ALLEY":"７７弄","HOUSE_NO":"２５號","E_COORD97":166836.70000000001,"N_COORD97":2547223.04,"ADDRESS":"國安街５６巷７７弄２５號","OBJECTID":100283},"geometry":{"x":166836.70000000019,"y":2547223.0399999991}},{"attributes":{"ID":100284,"DIS_CODE":0,"TOWNNAME":"安南區","LI":"海佃里","LIN":"9鄰","STREET":"國安街","SECT":" ","MAREA":" ","LANE":"５６巷","ALLEY":"７７弄","HOUSE_NO":"２６號","E_COORD97":166832.70999999999,"N_COORD97":2547221.7200000002,"ADDRESS":"國安街５６巷７７弄２６號","OBJECTID":100284},"geometry":{"x":166832.71000000089,"y":2547221.7200000025}},{"attributes":{"ID":100285,"DIS_CODE":0,"TOWNNAME":"安南區","LI":"海佃里","LIN":"9鄰","STREET":"國安街","SECT":" ","MAREA":" ","LANE":"５６巷","ALLEY":"７７弄","HOUSE_NO":"２７號","E_COORD97":166828.04999999999,"N_COORD97":2547221.0499999998,"ADDRESS":"國安街５６巷７７弄２７號","OBJECTID":100285},"geometry":{"x":166828.05000000075,"y":2547221.0500000007}},{"attributes":{"ID":100286,"DIS_CODE":0,"TOWNNAME":"安南區","LI":"頂安里","LIN":"1鄰","STREET":"長溪路","SECT":"一段","MAREA":" ","LANE":"４３６巷","ALLEY":" ","HOUSE_NO":"１號","E_COORD97":168557.41,"N_COORD97":2548992.3900000001,"ADDRESS":"長溪路一段４３６巷１號","OBJECTID":100286},"geometry":{"x":168557.41000000015,"y":2548992.3899999987}},{"attributes":{"ID":100287,"DIS_CODE":0,"TOWNNAME":"關廟區","LI":"松腳里","LIN":"8鄰","STREET":"四維街","SECT":" ","MAREA":" ","LANE":" ","ALLEY":" ","HOUSE_NO":"１４７號","E_COORD97":181862.76000000001,"N_COORD97":2539803.25,"ADDRESS":"四維街１４７號","OBJECTID":100287},"geometry":{"x":181862.76000000164,"y":2539803.25}},{"attributes":{"ID":100288,"DIS_CODE":0,"TOWNNAME":"關廟區","LI":"新光里","LIN":"8鄰","STREET":"新光街","SECT":" ","MAREA":" ","LANE":" ","ALLEY":" ","HOUSE_NO":"２５９號","E_COORD97":184307.37,"N_COORD97":2541907.25,"ADDRESS":"新光街２５９號","OBJECTID":100288},"geometry":{"x":184307.37000000104,"y":2541907.2500000019}},{"attributes":{"ID":100289,"DIS_CODE":0,"TOWNNAME":"關廟區","LI":"深坑里","LIN":"8鄰","STREET":"南雄路","SECT":"一段","MAREA":" ","LANE":" ","ALLEY":" ","HOUSE_NO":"４８２號","E_COORD97":181689.12,"N_COORD97":2537811.2999999998,"ADDRESS":"南雄路一段４８２號","OBJECTID":100289},"geometry":{"x":181689.12000000011,"y":2537811.3000000007}},{"attributes":{"ID":100290,"DIS_CODE":0,"TOWNNAME":"關廟區","LI":"關廟里","LIN":"8鄰","STREET":"大仁街","SECT":" ","MAREA":" ","LANE":" ","ALLEY":" ","HOUSE_NO":"３６５號","E_COORD97":180894.07000000001,"N_COORD97":2539757.25,"ADDRESS":"大仁街３６５號","OBJECTID":100290},"geometry":{"x":180894.0700000003,"y":2539757.2499999981}},{"attributes":{"ID":100291,"DIS_CODE":0,"TOWNNAME":"安南區","LI":"海佃里","LIN":"9鄰","STREET":"國安街","SECT":" ","MAREA":" ","LANE":"５６巷","ALLEY":"７７弄","HOUSE_NO":"２８號","E_COORD97":166824.06,"N_COORD97":2547219.7200000002,"ADDRESS":"國安街５６巷７７弄２８號","OBJECTID":100291},"geometry":{"x":166824.06000000145,"y":2547219.7200000007}},{"attributes":{"ID":100292,"DIS_CODE":0,"TOWNNAME":"安南區","LI":"海佃里","LIN":"9鄰","STREET":"國安街","SECT":" ","MAREA":" ","LANE":"５６巷","ALLEY":"７７弄","HOUSE_NO":"２９號","E_COORD97":166821.39999999999,"N_COORD97":2547219.7200000002,"ADDRESS":"國安街５６巷７７弄２９號","OBJECTID":100292},"geometry":{"x":166821.4000000013,"y":2547219.7200000007}},{"attributes":{"ID":100293,"DIS_CODE":0,"TOWNNAME":"安南區","LI":"海佃里","LIN":"9鄰","STREET":"國安街","SECT":" ","MAREA":" ","LANE":"５６巷","ALLEY":"７７弄","HOUSE_NO":"２號","E_COORD97":166925.14000000001,"N_COORD97":2547238.9900000002,"ADDRESS":"國安街５６巷７７弄２號","OBJECTID":100293},"geometry":{"x":166925.13999999966,"y":2547238.9900000021}},{"attributes":{"ID":100294,"DIS_CODE":0,"TOWNNAME":"安南區","LI":"海佃里","LIN":"9鄰","STREET":"國安街","SECT":" ","MAREA":" ","LANE":"５６巷","ALLEY":"７７弄","HOUSE_NO":"３０號","E_COORD97":166816.75,"N_COORD97":2547218.3900000001,"ADDRESS":"國安街５６巷７７弄３０號","OBJECTID":100294},"geometry":{"x":166816.75000000093,"y":2547218.3900000006}},{"attributes":{"ID":100295,"DIS_CODE":0,"TOWNNAME":"安南區","LI":"海佃里","LIN":"9鄰","STREET":"國安街","SECT":" ","MAREA":" ","LANE":"５６巷","ALLEY":"７７弄","HOUSE_NO":"３１號","E_COORD97":166812.09,"N_COORD97":2547218.3900000001,"ADDRESS":"國安街５６巷７７弄３１號","OBJECTID":100295},"geometry":{"x":166812.08999999985,"y":2547218.3900000006}},{"attributes":{"ID":100296,"DIS_CODE":0,"TOWNNAME":"安南區","LI":"海佃里","LIN":"9鄰","STREET":"國安街","SECT":" ","MAREA":" ","LANE":"５６巷","ALLEY":"７７弄","HOUSE_NO":"３２號","E_COORD97":166808.76999999999,"N_COORD97":2547218.3999999999,"ADDRESS":"國安街５６巷７７弄３２號","OBJECTID":100296},"geometry":{"x":166808.76999999955,"y":2547218.4000000004}},{"attributes":{"ID":100297,"DIS_CODE":0,"TOWNNAME":"安南區","LI":"海佃里","LIN":"9鄰","STREET":"國安街","SECT":" ","MAREA":" ","LANE":"５６巷","ALLEY":"７７弄","HOUSE_NO":"３３號","E_COORD97":166805.44,"N_COORD97":2547219.0600000001,"ADDRESS":"國安街５６巷７７弄３３號","OBJECTID":100297},"geometry":{"x":166805.44000000227,"y":2547219.0600000024}},{"attributes":{"ID":100298,"DIS_CODE":0,"TOWNNAME":"安南區","LI":"海佃里","LIN":"9鄰","STREET":"國安街","SECT":" ","MAREA":" ","LANE":"５６巷","ALLEY":"７７弄","HOUSE_NO":"３４號","E_COORD97":166800.78,"N_COORD97":2547218.3999999999,"ADDRESS":"國安街５６巷７７弄３４號","OBJECTID":100298},"geometry":{"x":166800.78000000026,"y":2547218.4000000004}},{"attributes":{"ID":100299,"DIS_CODE":0,"TOWNNAME":"安南區","LI":"海佃里","LIN":"9鄰","STREET":"國安街","SECT":" ","MAREA":" ","LANE":"５６巷","ALLEY":"７７弄","HOUSE_NO":"３號","E_COORD97":166921.14999999999,"N_COORD97":2547238.9900000002,"ADDRESS":"國安街５６巷７７弄３號","OBJECTID":100299},"geometry":{"x":166921.1500000013,"y":2547238.9900000021}},{"attributes":{"ID":100300,"DIS_CODE":0,"TOWNNAME":"安南區","LI":"海佃里","LIN":"9鄰","STREET":"國安街","SECT":" ","MAREA":" ","LANE":"５６巷","ALLEY":"７７弄","HOUSE_NO":"４號","E_COORD97":166917.82999999999,"N_COORD97":2547237.6600000001,"ADDRESS":"國安街５６巷７７弄４號","OBJECTID":100300},"geometry":{"x":166917.83000000194,"y":2547237.6600000039}},{"attributes":{"ID":100301,"DIS_CODE":0,"TOWNNAME":"安南區","LI":"海佃里","LIN":"9鄰","STREET":"國安街","SECT":" ","MAREA":" ","LANE":"５６巷","ALLEY":"７７弄","HOUSE_NO":"５號","E_COORD97":166913.17000000001,"N_COORD97":2547236.9900000002,"ADDRESS":"國安街５６巷７７弄５號","OBJECTID":100301},"geometry":{"x":166913.16999999993,"y":2547236.9900000002}},{"attributes":{"ID":100302,"DIS_CODE":0,"TOWNNAME":"安南區","LI":"海佃里","LIN":"9鄰","STREET":"國安街","SECT":" ","MAREA":" ","LANE":"５６巷","ALLEY":"７７弄","HOUSE_NO":"６號","E_COORD97":166909.17999999999,"N_COORD97":2547235.6699999999,"ADDRESS":"國安街５６巷７７弄６號","OBJECTID":100302},"geometry":{"x":166909.1799999997,"y":2547235.6699999999}},{"attributes":{"ID":100303,"DIS_CODE":0,"TOWNNAME":"安南區","LI":"海佃里","LIN":"9鄰","STREET":"國安街","SECT":" ","MAREA":" ","LANE":"５６巷","ALLEY":"７７弄","HOUSE_NO":"７號","E_COORD97":166905.19,"N_COORD97":2547235,"ADDRESS":"國安街５６巷７７弄７號","OBJECTID":100303},"geometry":{"x":166905.19000000041,"y":2547235.0000000037}},{"attributes":{"ID":100304,"DIS_CODE":0,"TOWNNAME":"永康區","LI":"三合里","LIN":"9鄰","STREET":"南工街","SECT":" ","MAREA":" ","LANE":"２４７巷","ALLEY":"３５弄","HOUSE_NO":"４１號","E_COORD97":172003.53,"N_COORD97":2545685.75,"ADDRESS":"南工街２４７巷３５弄４１號","OBJECTID":100304},"geometry":{"x":172003.53000000026,"y":2545685.75}},{"attributes":{"ID":100305,"DIS_CODE":0,"TOWNNAME":"永康區","LI":"三合里","LIN":"9鄰","STREET":"南工街","SECT":" ","MAREA":" ","LANE":"２４７巷","ALLEY":"３５弄","HOUSE_NO":"９０號之１","E_COORD97":172051.53,"N_COORD97":2545645.54,"ADDRESS":"南工街２４７巷３５弄９０號之１","OBJECTID":100305},"geometry":{"x":172051.53000000119,"y":2545645.5399999991}},{"attributes":{"ID":100306,"DIS_CODE":0,"TOWNNAME":"永康區","LI":"三合里","LIN":"9鄰","STREET":"南工街","SECT":" ","MAREA":" ","LANE":"２４７巷","ALLEY":"３５弄","HOUSE_NO":"４７號","E_COORD97":172000.87,"N_COORD97":2545715.25,"ADDRESS":"南工街２４７巷３５弄４７號","OBJECTID":100306},"geometry":{"x":172000.87000000011,"y":2545715.2500000019}},{"attributes":{"ID":100307,"DIS_CODE":0,"TOWNNAME":"新市區","LI":"新和里","LIN":"1鄰","STREET":"中華路","SECT":" ","MAREA":" ","LANE":" ","ALLEY":" ","HOUSE_NO":"１號","E_COORD97":177248.17999999999,"N_COORD97":2552009,"ADDRESS":"中華路１號","OBJECTID":100307},"geometry":{"x":177248.1799999997,"y":2552009.0000000019}},{"attributes":{"ID":100308,"DIS_CODE":0,"TOWNNAME":"新市區","LI":"社內里","LIN":"1鄰","STREET":" ","SECT":" ","MAREA":"社內","LANE":" ","ALLEY":" ","HOUSE_NO":"１４之３號","E_COORD97":176862.78,"N_COORD97":2552934.2999999998,"ADDRESS":"社內１４之３號","OBJECTID":100308},"geometry":{"x":176862.78000000119,"y":2552934.3000000026}},{"attributes":{"ID":100309,"DIS_CODE":0,"TOWNNAME":"新市區","LI":"社內里","LIN":"1鄰","STREET":" ","SECT":" ","MAREA":"社內","LANE":" ","ALLEY":" ","HOUSE_NO":"１４之１１號","E_COORD97":176826.95000000001,"N_COORD97":2552923.5499999998,"ADDRESS":"社內１４之１１號","OBJECTID":100309},"geometry":{"x":176826.95000000019,"y":2552923.5500000007}},{"attributes":{"ID":100310,"DIS_CODE":0,"TOWNNAME":"新市區","LI":"社內里","LIN":"1鄰","STREET":" ","SECT":" ","MAREA":"社內","LANE":" ","ALLEY":" ","HOUSE_NO":"１４之１７號","E_COORD97":176848.54000000001,"N_COORD97":2552963.2999999998,"ADDRESS":"社內１４之１７號","OBJECTID":100310},"geometry":{"x":176848.54000000097,"y":2552963.3000000045}},{"attributes":{"ID":100311,"DIS_CODE":0,"TOWNNAME":"新市區","LI":"社內里","LIN":"1鄰","STREET":" ","SECT":" ","MAREA":"社內","LANE":" ","ALLEY":" ","HOUSE_NO":"１４之２９號","E_COORD97":176846.47,"N_COORD97":2552976.7999999998,"ADDRESS":"社內１４之２９號","OBJECTID":100311},"geometry":{"x":176846.46999999974,"y":2552976.7999999989}},{"attributes":{"ID":100312,"DIS_CODE":0,"TOWNNAME":"新市區","LI":"社內里","LIN":"1鄰","STREET":" ","SECT":" ","MAREA":"社內","LANE":" ","ALLEY":" ","HOUSE_NO":"１４之１８號","E_COORD97":176844.14999999999,"N_COORD97":2552963.2999999998,"ADDRESS":"社內１４之１８號","OBJECTID":100312},"geometry":{"x":176844.15000000037,"y":2552963.3000000045}},{"attributes":{"ID":100313,"DIS_CODE":0,"TOWNNAME":"新市區","LI":"社內里","LIN":"1鄰","STREET":" ","SECT":" ","MAREA":"社內","LANE":" ","ALLEY":" ","HOUSE_NO":"１４之２６號","E_COORD97":176813.5,"N_COORD97":2552960.5499999998,"ADDRESS":"社內１４之２６號","OBJECTID":100313},"geometry":{"x":176813.50000000093,"y":2552960.5500000007}},{"attributes":{"ID":100314,"DIS_CODE":0,"TOWNNAME":"新市區","LI":"大社里","LIN":"1鄰","STREET":" ","SECT":" ","MAREA":"大社","LANE":" ","ALLEY":" ","HOUSE_NO":"２６號","E_COORD97":180272.92999999999,"N_COORD97":2553791,"ADDRESS":"大社２６號","OBJECTID":100314},"geometry":{"x":180272.92999999877,"y":2553791}},{"attributes":{"ID":100315,"DIS_CODE":0,"TOWNNAME":"新市區","LI":"永就里","LIN":"1鄰","STREET":" ","SECT":" ","MAREA":"永就","LANE":" ","ALLEY":" ","HOUSE_NO":"１４之５號","E_COORD97":178347.01000000001,"N_COORD97":2551331.2999999998,"ADDRESS":"永就１４之５號","OBJECTID":100315},"geometry":{"x":178347.01000000071,"y":2551331.3000000007}},{"attributes":{"ID":100316,"DIS_CODE":0,"TOWNNAME":"新市區","LI":"三舍里","LIN":"1鄰","STREET":" ","SECT":" ","MAREA":"三舍","LANE":" ","ALLEY":" ","HOUSE_NO":"２７號","E_COORD97":177814.95000000001,"N_COORD97":2554182.75,"ADDRESS":"三舍２７號","OBJECTID":100316},"geometry":{"x":177814.95000000019,"y":2554182.75}},{"attributes":{"ID":100317,"DIS_CODE":0,"TOWNNAME":"新市區","LI":"三舍里","LIN":"1鄰","STREET":" ","SECT":" ","MAREA":"三舍","LANE":" ","ALLEY":" ","HOUSE_NO":"３２之１號","E_COORD97":177924.51000000001,"N_COORD97":2554232.5499999998,"ADDRESS":"三舍３２之１號","OBJECTID":100317},"geometry":{"x":177924.50999999978,"y":2554232.5500000007}},{"attributes":{"ID":100318,"DIS_CODE":0,"TOWNNAME":"新市區","LI":"永就里","LIN":"1鄰","STREET":" ","SECT":" ","MAREA":"永就","LANE":" ","ALLEY":" ","HOUSE_NO":"６之４６號","E_COORD97":178844.67000000001,"N_COORD97":2551310.7999999998,"ADDRESS":"永就６之４６號","OBJECTID":100318},"geometry":{"x":178844.67000000086,"y":2551310.8000000007}},{"attributes":{"ID":100319,"DIS_CODE":0,"TOWNNAME":"永康區","LI":"三合里","LIN":"9鄰","STREET":"南工街","SECT":" ","MAREA":" ","LANE":"２４７巷","ALLEY":"３５弄","HOUSE_NO":"１０１號","E_COORD97":172045.98000000001,"N_COORD97":2545715.25,"ADDRESS":"南工街２４７巷３５弄１０１號","OBJECTID":100319},"geometry":{"x":172045.98000000045,"y":2545715.2500000019}},{"attributes":{"ID":100320,"DIS_CODE":0,"TOWNNAME":"新市區","LI":"永就里","LIN":"1鄰","STREET":" ","SECT":" ","MAREA":"永就","LANE":" ","ALLEY":" ","HOUSE_NO":"６之３６號","E_COORD97":178732.73000000001,"N_COORD97":2551231.5499999998,"ADDRESS":"永就６之３６號","OBJECTID":100320},"geometry":{"x":178732.73000000138,"y":2551231.5500000007}},{"attributes":{"ID":100321,"DIS_CODE":0,"TOWNNAME":"新市區","LI":"永就里","LIN":"1鄰","STREET":" ","SECT":" ","MAREA":"永就","LANE":" ","ALLEY":" ","HOUSE_NO":"６之５５號","E_COORD97":178997.34,"N_COORD97":2551478.5499999998,"ADDRESS":"永就６之５５號","OBJECTID":100321},"geometry":{"x":178997.34000000171,"y":2551478.5500000007}},{"attributes":{"ID":100322,"DIS_CODE":0,"TOWNNAME":"新市區","LI":"社內里","LIN":"1鄰","STREET":" ","SECT":" ","MAREA":"社內","LANE":" ","ALLEY":" ","HOUSE_NO":"３號","E_COORD97":176923.82999999999,"N_COORD97":2553016,"ADDRESS":"社內３號","OBJECTID":100322},"geometry":{"x":176923.83000000007,"y":2553016.0000000019}},{"attributes":{"ID":100323,"DIS_CODE":0,"TOWNNAME":"永康區","LI":"三合里","LIN":"9鄰","STREET":"南工街","SECT":" ","MAREA":" ","LANE":"２４７巷","ALLEY":"３５弄","HOUSE_NO":"４３號","E_COORD97":172002.66,"N_COORD97":2545695.5,"ADDRESS":"南工街２４７巷３５弄４３號","OBJECTID":100323},"geometry":{"x":172002.66000000015,"y":2545695.4999999981}},{"attributes":{"ID":100324,"DIS_CODE":0,"TOWNNAME":"新市區","LI":"大社里","LIN":"1鄰","STREET":" ","SECT":" ","MAREA":"大社","LANE":" ","ALLEY":" ","HOUSE_NO":"１１之２號","E_COORD97":180337.57000000001,"N_COORD97":2553743.2999999998,"ADDRESS":"大社１１之２號","OBJECTID":100324},"geometry":{"x":180337.57000000123,"y":2553743.3000000045}},{"attributes":{"ID":100325,"DIS_CODE":0,"TOWNNAME":"新市區","LI":"永就里","LIN":"1鄰","STREET":" ","SECT":" ","MAREA":"永就","LANE":" ","ALLEY":" ","HOUSE_NO":"１５之５號","E_COORD97":178244.37,"N_COORD97":2551303.2999999998,"ADDRESS":"永就１５之５號","OBJECTID":100325},"geometry":{"x":178244.37000000011,"y":2551303.3000000026}},{"attributes":{"ID":100326,"DIS_CODE":0,"TOWNNAME":"新市區","LI":"大社里","LIN":"1鄰","STREET":" ","SECT":" ","MAREA":"大社","LANE":" ","ALLEY":" ","HOUSE_NO":"３０號","E_COORD97":180267.60000000001,"N_COORD97":2553887.75,"ADDRESS":"大社３０號","OBJECTID":100326},"geometry":{"x":180267.59999999963,"y":2553887.75}},{"attributes":{"ID":100327,"DIS_CODE":0,"TOWNNAME":"新市區","LI":"永就里","LIN":"1鄰","STREET":" ","SECT":" ","MAREA":"永就","LANE":" ","ALLEY":" ","HOUSE_NO":"１２號","E_COORD97":178389.67000000001,"N_COORD97":2551300,"ADDRESS":"永就１２號","OBJECTID":100327},"geometry":{"x":178389.66999999993,"y":2551300.0000000037}},{"attributes":{"ID":100328,"DIS_CODE":0,"TOWNNAME":"新市區","LI":"社內里","LIN":"1鄰","STREET":" ","SECT":" ","MAREA":"社內","LANE":" ","ALLEY":" ","HOUSE_NO":"３之３號","E_COORD97":176911.59,"N_COORD97":2553020.2999999998,"ADDRESS":"社內３之３號","OBJECTID":100328},"geometry":{"x":176911.58999999985,"y":2553020.3000000007}},{"attributes":{"ID":100329,"DIS_CODE":0,"TOWNNAME":"新市區","LI":"永就里","LIN":"1鄰","STREET":" ","SECT":" ","MAREA":"永就","LANE":" ","ALLEY":" ","HOUSE_NO":"６之６０號","E_COORD97":179147.07000000001,"N_COORD97":2551547.2999999998,"ADDRESS":"永就６之６０號","OBJECTID":100329},"geometry":{"x":179147.07000000216,"y":2551547.3000000026}},{"attributes":{"ID":100330,"DIS_CODE":0,"TOWNNAME":"新市區","LI":"社內里","LIN":"1鄰","STREET":" ","SECT":" ","MAREA":"社內","LANE":" ","ALLEY":" ","HOUSE_NO":"２之５號","E_COORD97":176996.12,"N_COORD97":2553018.7999999998,"ADDRESS":"社內２之５號","OBJECTID":100330},"geometry":{"x":176996.12000000104,"y":2553018.8000000026}},{"attributes":{"ID":100331,"DIS_CODE":0,"TOWNNAME":"新市區","LI":"社內里","LIN":"1鄰","STREET":" ","SECT":" ","MAREA":"社內","LANE":" ","ALLEY":" ","HOUSE_NO":"１２號","E_COORD97":176771.39000000001,"N_COORD97":2553009.25,"ADDRESS":"社內１２號","OBJECTID":100331},"geometry":{"x":176771.3900000006,"y":2553009.25}},{"attributes":{"ID":100332,"DIS_CODE":0,"TOWNNAME":"新市區","LI":"永就里","LIN":"1鄰","STREET":" ","SECT":" ","MAREA":"永就","LANE":" ","ALLEY":" ","HOUSE_NO":"３之１２號","E_COORD97":178391.23000000001,"N_COORD97":2551253.5499999998,"ADDRESS":"永就３之１２號","OBJECTID":100332},"geometry":{"x":178391.23000000045,"y":2551253.5500000026}},{"attributes":{"ID":100333,"DIS_CODE":0,"TOWNNAME":"新市區","LI":"社內里","LIN":"1鄰","STREET":" ","SECT":" ","MAREA":"社內","LANE":" ","ALLEY":" ","HOUSE_NO":"６之２號","E_COORD97":176890.29000000001,"N_COORD97":2552996.0499999998,"ADDRESS":"社內６之２號","OBJECTID":100333},"geometry":{"x":176890.29000000004,"y":2552996.0500000026}},{"attributes":{"ID":100334,"DIS_CODE":0,"TOWNNAME":"新市區","LI":"社內里","LIN":"1鄰","STREET":" ","SECT":" ","MAREA":"社內","LANE":" ","ALLEY":" ","HOUSE_NO":"２之２號","E_COORD97":177049.81,"N_COORD97":2552996.0499999998,"ADDRESS":"社內２之２號","OBJECTID":100334},"geometry":{"x":177049.81000000052,"y":2552996.0500000026}},{"attributes":{"ID":100335,"DIS_CODE":0,"TOWNNAME":"新市區","LI":"社內里","LIN":"1鄰","STREET":" ","SECT":" ","MAREA":"社內","LANE":" ","ALLEY":" ","HOUSE_NO":"１３之２號","E_COORD97":176889.10999999999,"N_COORD97":2552973.7999999998,"ADDRESS":"社內１３之２號","OBJECTID":100335},"geometry":{"x":176889.11000000127,"y":2552973.8000000045}},{"attributes":{"ID":100336,"DIS_CODE":0,"TOWNNAME":"新市區","LI":"永就里","LIN":"1鄰","STREET":" ","SECT":" ","MAREA":"永就","LANE":" ","ALLEY":" ","HOUSE_NO":"６之１號","E_COORD97":178499.20999999999,"N_COORD97":2551213.2999999998,"ADDRESS":"永就６之１號","OBJECTID":100336},"geometry":{"x":178499.20999999996,"y":2551213.3000000007}},{"attributes":{"ID":100337,"DIS_CODE":0,"TOWNNAME":"新市區","LI":"永就里","LIN":"1鄰","STREET":" ","SECT":" ","MAREA":"永就","LANE":" ","ALLEY":" ","HOUSE_NO":"１４之２號","E_COORD97":178357.82000000001,"N_COORD97":2551328.5499999998,"ADDRESS":"永就１４之２號","OBJECTID":100337},"geometry":{"x":178357.82000000123,"y":2551328.5500000026}},{"attributes":{"ID":100338,"DIS_CODE":0,"TOWNNAME":"永康區","LI":"三合里","LIN":"9鄰","STREET":"南工街","SECT":" ","MAREA":" ","LANE":"２４７巷","ALLEY":"３５弄","HOUSE_NO":"３１號","E_COORD97":172006.94,"N_COORD97":2545636.9900000002,"ADDRESS":"南工街２４７巷３５弄３１號","OBJECTID":100338},"geometry":{"x":172006.94000000134,"y":2545636.9900000002}},{"attributes":{"ID":100339,"DIS_CODE":0,"TOWNNAME":"新市區","LI":"永就里","LIN":"1鄰","STREET":" ","SECT":" ","MAREA":"永就","LANE":" ","ALLEY":" ","HOUSE_NO":"１４之７號","E_COORD97":178338.54000000001,"N_COORD97":2551324.5499999998,"ADDRESS":"永就１４之７號","OBJECTID":100339},"geometry":{"x":178338.5400000019,"y":2551324.5500000026}},{"attributes":{"ID":100340,"DIS_CODE":0,"TOWNNAME":"永康區","LI":"三合里","LIN":"9鄰","STREET":"南工街","SECT":" ","MAREA":" ","LANE":"２４７巷","ALLEY":"３５弄","HOUSE_NO":"４６號","E_COORD97":172001.32000000001,"N_COORD97":2545710.25,"ADDRESS":"南工街２４７巷３５弄４６號","OBJECTID":100340},"geometry":{"x":172001.3200000003,"y":2545710.25}},{"attributes":{"ID":100341,"DIS_CODE":0,"TOWNNAME":"永康區","LI":"三合里","LIN":"9鄰","STREET":"南工街","SECT":" ","MAREA":" ","LANE":"２４７巷","ALLEY":"３５弄","HOUSE_NO":"４８號","E_COORD97":172001.17000000001,"N_COORD97":2545719.75,"ADDRESS":"南工街２４７巷３５弄４８號","OBJECTID":100341},"geometry":{"x":172001.17000000086,"y":2545719.75}},{"attributes":{"ID":100342,"DIS_CODE":0,"TOWNNAME":"永康區","LI":"三合里","LIN":"9鄰","STREET":"南工街","SECT":" ","MAREA":" ","LANE":"２４７巷","ALLEY":"３５弄","HOUSE_NO":"３８號","E_COORD97":172004.85999999999,"N_COORD97":2545670.9900000002,"ADDRESS":"南工街２４７巷３５弄３８號","OBJECTID":100342},"geometry":{"x":172004.86000000034,"y":2545670.9900000002}},{"attributes":{"ID":100343,"DIS_CODE":0,"TOWNNAME":"新市區","LI":"港墘里","LIN":"1鄰","STREET":"民族路","SECT":" ","MAREA":" ","LANE":" ","ALLEY":" ","HOUSE_NO":"４３號","E_COORD97":178631.19,"N_COORD97":2553793.04,"ADDRESS":"民族路４３號","OBJECTID":100343},"geometry":{"x":178631.19000000227,"y":2553793.0399999991}},{"attributes":{"ID":100344,"DIS_CODE":0,"TOWNNAME":"新市區","LI":"港墘里","LIN":"1鄰","STREET":"民族路","SECT":" ","MAREA":" ","LANE":" ","ALLEY":" ","HOUSE_NO":"１８號","E_COORD97":178614.73999999999,"N_COORD97":2553919.79,"ADDRESS":"民族路１８號","OBJECTID":100344},"geometry":{"x":178614.74000000022,"y":2553919.7899999991}},{"attributes":{"ID":100345,"DIS_CODE":0,"TOWNNAME":"新市區","LI":"港墘里","LIN":"1鄰","STREET":"民族路","SECT":" ","MAREA":" ","LANE":" ","ALLEY":" ","HOUSE_NO":"３６號","E_COORD97":178570.59,"N_COORD97":2553878.79,"ADDRESS":"民族路３６號","OBJECTID":100345},"geometry":{"x":178570.59000000078,"y":2553878.790000001}},{"attributes":{"ID":100346,"DIS_CODE":0,"TOWNNAME":"新市區","LI":"港墘里","LIN":"1鄰","STREET":"大同街","SECT":" ","MAREA":" ","LANE":" ","ALLEY":" ","HOUSE_NO":"２１號","E_COORD97":178496.04000000001,"N_COORD97":2553572.2400000002,"ADDRESS":"大同街２１號","OBJECTID":100346},"geometry":{"x":178496.0400000019,"y":2553572.2400000002}},{"attributes":{"ID":100347,"DIS_CODE":0,"TOWNNAME":"永康區","LI":"三合里","LIN":"9鄰","STREET":"南工街","SECT":" ","MAREA":" ","LANE":"２４７巷","ALLEY":"３５弄","HOUSE_NO":"１０９號","E_COORD97":172043.70999999999,"N_COORD97":2545752.2400000002,"ADDRESS":"南工街２４７巷３５弄１０９號","OBJECTID":100347},"geometry":{"x":172043.71000000089,"y":2545752.2400000021}},{"attributes":{"ID":100348,"DIS_CODE":0,"TOWNNAME":"永康區","LI":"尚頂里","LIN":"9鄰","STREET":"正南一街","SECT":" ","MAREA":" ","LANE":"１２９巷","ALLEY":"４６弄","HOUSE_NO":"６號","E_COORD97":170689.01000000001,"N_COORD97":2547150.8100000001,"ADDRESS":"正南一街１２９巷４６弄６號","OBJECTID":100348},"geometry":{"x":170689.00999999978,"y":2547150.8100000005}},{"attributes":{"ID":100349,"DIS_CODE":0,"TOWNNAME":"永康區","LI":"中興里","LIN":"9鄰","STREET":"忠孝路","SECT":" ","MAREA":" ","LANE":"２３９巷","ALLEY":"２８弄","HOUSE_NO":"２２號","E_COORD97":171995,"N_COORD97":2545109,"ADDRESS":"忠孝路２３９巷２８弄２２號","OBJECTID":100349},"geometry":{"x":171995,"y":2545108.9999999981}},{"attributes":{"ID":100350,"DIS_CODE":0,"TOWNNAME":"永康區","LI":"三合里","LIN":"9鄰","STREET":"南工街","SECT":" ","MAREA":" ","LANE":"２４７巷","ALLEY":"３５弄","HOUSE_NO":"１０２號","E_COORD97":172046.07000000001,"N_COORD97":2545720,"ADDRESS":"南工街２４７巷３５弄１０２號","OBJECTID":100350},"geometry":{"x":172046.07000000216,"y":2545720.0000000019}},{"attributes":{"ID":100351,"DIS_CODE":0,"TOWNNAME":"安南區","LI":"幸福里","LIN":"9鄰","STREET":"國安街","SECT":" ","MAREA":" ","LANE":"１５５巷","ALLEY":"４５弄","HOUSE_NO":"１０號","E_COORD97":166822.48999999999,"N_COORD97":2546825.3999999999,"ADDRESS":"國安街１５５巷４５弄１０號","OBJECTID":100351},"geometry":{"x":166822.49000000115,"y":2546825.4000000004}},{"attributes":{"ID":100352,"DIS_CODE":0,"TOWNNAME":"安南區","LI":"幸福里","LIN":"9鄰","STREET":"國安街","SECT":" ","MAREA":" ","LANE":"１５５巷","ALLEY":"４５弄","HOUSE_NO":"１２號","E_COORD97":166828.92999999999,"N_COORD97":2546825.98,"ADDRESS":"國安街１５５巷４５弄１２號","OBJECTID":100352},"geometry":{"x":166828.93000000063,"y":2546825.9800000023}},{"attributes":{"ID":100353,"DIS_CODE":0,"TOWNNAME":"安南區","LI":"幸福里","LIN":"9鄰","STREET":"國安街","SECT":" ","MAREA":" ","LANE":"１５５巷","ALLEY":"４５弄","HOUSE_NO":"１４號","E_COORD97":166835.51999999999,"N_COORD97":2546826.9500000002,"ADDRESS":"國安街１５５巷４５弄１４號","OBJECTID":100353},"geometry":{"x":166835.51999999955,"y":2546826.9499999993}},{"attributes":{"ID":100354,"DIS_CODE":0,"TOWNNAME":"安南區","LI":"新順里","LIN":"1鄰","STREET":"安豐五街","SECT":" ","MAREA":" ","LANE":" ","ALLEY":" ","HOUSE_NO":"３號","E_COORD97":169438.57999999999,"N_COORD97":2549730.7400000002,"ADDRESS":"安豐五街３號","OBJECTID":100354},"geometry":{"x":169438.58000000194,"y":2549730.7400000002}},{"attributes":{"ID":100355,"DIS_CODE":0,"TOWNNAME":"七股區","LI":"七股里","LIN":"1鄰","STREET":" ","SECT":" ","MAREA":"七股","LANE":" ","ALLEY":" ","HOUSE_NO":"７號","E_COORD97":161094.45999999999,"N_COORD97":2559310.9700000002,"ADDRESS":"七股７號","OBJECTID":100355},"geometry":{"x":161094.46000000089,"y":2559310.9700000007}},{"attributes":{"ID":100356,"DIS_CODE":0,"TOWNNAME":"麻豆區","LI":"小埤里","LIN":"10鄰","STREET":" ","SECT":" ","MAREA":"埤頭","LANE":" ","ALLEY":" ","HOUSE_NO":"５號之１１","E_COORD97":170982.17000000001,"N_COORD97":2565678.23,"ADDRESS":"埤頭５號之１１","OBJECTID":100356},"geometry":{"x":170982.17000000086,"y":2565678.2300000023}},{"attributes":{"ID":100357,"DIS_CODE":0,"TOWNNAME":"安南區","LI":"城東里","LIN":"1鄰","STREET":"安明路","SECT":"四段","MAREA":" ","LANE":" ","ALLEY":" ","HOUSE_NO":"７０５號之１０","E_COORD97":161232.07000000001,"N_COORD97":2551674.7400000002,"ADDRESS":"安明路四段７０５號之１０","OBJECTID":100357},"geometry":{"x":161232.0700000003,"y":2551674.7399999984}},{"attributes":{"ID":100358,"DIS_CODE":0,"TOWNNAME":"麻豆區","LI":"小埤里","LIN":"10鄰","STREET":" ","SECT":" ","MAREA":"埤頭","LANE":" ","ALLEY":" ","HOUSE_NO":"５號之１２","E_COORD97":170986.60999999999,"N_COORD97":2565677.4100000001,"ADDRESS":"埤頭５號之１２","OBJECTID":100358},"geometry":{"x":170986.61000000127,"y":2565677.410000002}},{"attributes":{"ID":100359,"DIS_CODE":0,"TOWNNAME":"麻豆區","LI":"小埤里","LIN":"10鄰","STREET":" ","SECT":" ","MAREA":"埤頭","LANE":" ","ALLEY":" ","HOUSE_NO":"５號之１３","E_COORD97":170991.04000000001,"N_COORD97":2565676.5899999999,"ADDRESS":"埤頭５號之１３","OBJECTID":100359},"geometry":{"x":170991.04000000004,"y":2565676.5899999999}},{"attributes":{"ID":100360,"DIS_CODE":0,"TOWNNAME":"麻豆區","LI":"小埤里","LIN":"10鄰","STREET":" ","SECT":" ","MAREA":"埤頭","LANE":" ","ALLEY":" ","HOUSE_NO":"５號之１４","E_COORD97":170995.47,"N_COORD97":2565675.77,"ADDRESS":"埤頭５號之１４","OBJECTID":100360},"geometry":{"x":170995.47000000067,"y":2565675.7699999996}},{"attributes":{"ID":100361,"DIS_CODE":0,"TOWNNAME":"麻豆區","LI":"小埤里","LIN":"10鄰","STREET":" ","SECT":" ","MAREA":"埤頭","LANE":" ","ALLEY":" ","HOUSE_NO":"５號之１５","E_COORD97":170999.89999999999,"N_COORD97":2565674.9500000002,"ADDRESS":"埤頭５號之１５","OBJECTID":100361},"geometry":{"x":170999.9000000013,"y":2565674.950000003}},{"attributes":{"ID":100362,"DIS_CODE":0,"TOWNNAME":"麻豆區","LI":"小埤里","LIN":"10鄰","STREET":" ","SECT":" ","MAREA":"埤頭","LANE":" ","ALLEY":" ","HOUSE_NO":"５號之１６","E_COORD97":171004.34,"N_COORD97":2565674.1200000001,"ADDRESS":"埤頭５號之１６","OBJECTID":100362},"geometry":{"x":171004.33999999985,"y":2565674.120000001}},{"attributes":{"ID":100363,"DIS_CODE":0,"TOWNNAME":"麻豆區","LI":"小埤里","LIN":"10鄰","STREET":" ","SECT":" ","MAREA":"埤頭","LANE":" ","ALLEY":" ","HOUSE_NO":"５號之１７","E_COORD97":171008.76999999999,"N_COORD97":2565673.2999999998,"ADDRESS":"埤頭５號之１７","OBJECTID":100363},"geometry":{"x":171008.77000000048,"y":2565673.3000000007}},{"attributes":{"ID":100364,"DIS_CODE":0,"TOWNNAME":"麻豆區","LI":"小埤里","LIN":"10鄰","STREET":" ","SECT":" ","MAREA":"埤頭","LANE":" ","ALLEY":" ","HOUSE_NO":"５號之１８","E_COORD97":171013.20000000001,"N_COORD97":2565672.48,"ADDRESS":"埤頭５號之１８","OBJECTID":100364},"geometry":{"x":171013.20000000112,"y":2565672.4800000042}},{"attributes":{"ID":100365,"DIS_CODE":0,"TOWNNAME":"麻豆區","LI":"小埤里","LIN":"10鄰","STREET":" ","SECT":" ","MAREA":"埤頭","LANE":" ","ALLEY":" ","HOUSE_NO":"５號之１９","E_COORD97":170989.01000000001,"N_COORD97":2565696.6200000001,"ADDRESS":"埤頭５號之１９","OBJECTID":100365},"geometry":{"x":170989.00999999978,"y":2565696.6200000029}},{"attributes":{"ID":100366,"DIS_CODE":0,"TOWNNAME":"麻豆區","LI":"小埤里","LIN":"10鄰","STREET":" ","SECT":" ","MAREA":"埤頭","LANE":" ","ALLEY":" ","HOUSE_NO":"５號之２０","E_COORD97":170989.10000000001,"N_COORD97":2565700.4500000002,"ADDRESS":"埤頭５號之２０","OBJECTID":100366},"geometry":{"x":170989.10000000056,"y":2565700.4499999993}},{"attributes":{"ID":100367,"DIS_CODE":0,"TOWNNAME":"麻豆區","LI":"小埤里","LIN":"10鄰","STREET":" ","SECT":" ","MAREA":"埤頭","LANE":" ","ALLEY":" ","HOUSE_NO":"５號之２１","E_COORD97":170989.17999999999,"N_COORD97":2565704.29,"ADDRESS":"埤頭５號之２１","OBJECTID":100367},"geometry":{"x":170989.18000000063,"y":2565704.290000001}},{"attributes":{"ID":100368,"DIS_CODE":0,"TOWNNAME":"麻豆區","LI":"小埤里","LIN":"10鄰","STREET":" ","SECT":" ","MAREA":"埤頭","LANE":" ","ALLEY":" ","HOUSE_NO":"５號之２２","E_COORD97":171003.10999999999,"N_COORD97":2565698.7799999998,"ADDRESS":"埤頭５號之２２","OBJECTID":100368},"geometry":{"x":171003.1099999994,"y":2565698.7799999993}},{"attributes":{"ID":100369,"DIS_CODE":0,"TOWNNAME":"安南區","LI":"淵東里","LIN":"1鄰","STREET":"海佃路","SECT":"四段","MAREA":" ","LANE":" ","ALLEY":" ","HOUSE_NO":"１號","E_COORD97":165777.12,"N_COORD97":2550457.6000000001,"ADDRESS":"海佃路四段１號","OBJECTID":100369},"geometry":{"x":165777.12000000104,"y":2550457.5999999996}},{"attributes":{"ID":100370,"DIS_CODE":0,"TOWNNAME":"麻豆區","LI":"小埤里","LIN":"10鄰","STREET":" ","SECT":" ","MAREA":"埤頭","LANE":" ","ALLEY":" ","HOUSE_NO":"５號之２３","E_COORD97":171007.60999999999,"N_COORD97":2565698.7000000002,"ADDRESS":"埤頭５號之２３","OBJECTID":100370},"geometry":{"x":171007.61000000034,"y":2565698.6999999993}},{"attributes":{"ID":100371,"DIS_CODE":0,"TOWNNAME":"麻豆區","LI":"小埤里","LIN":"10鄰","STREET":" ","SECT":" ","MAREA":"埤頭","LANE":" ","ALLEY":" ","HOUSE_NO":"５號之２４","E_COORD97":171012.12,"N_COORD97":2565698.6200000001,"ADDRESS":"埤頭５號之２４","OBJECTID":100371},"geometry":{"x":171012.12000000104,"y":2565698.620000001}},{"attributes":{"ID":100372,"DIS_CODE":0,"TOWNNAME":"麻豆區","LI":"小埤里","LIN":"10鄰","STREET":" ","SECT":" ","MAREA":"埤頭","LANE":" ","ALLEY":" ","HOUSE_NO":"５號之２５","E_COORD97":171016.62,"N_COORD97":2565698.5299999998,"ADDRESS":"埤頭５號之２５","OBJECTID":100372},"geometry":{"x":171016.62000000104,"y":2565698.5300000012}},{"attributes":{"ID":100373,"DIS_CODE":0,"TOWNNAME":"麻豆區","LI":"小埤里","LIN":"10鄰","STREET":" ","SECT":" ","MAREA":"埤頭","LANE":" ","ALLEY":" ","HOUSE_NO":"５號之２６","E_COORD97":170988.91,"N_COORD97":2565717.3199999998,"ADDRESS":"埤頭５號之２６","OBJECTID":100373},"geometry":{"x":170988.91000000015,"y":2565717.320000004}},{"attributes":{"ID":100374,"DIS_CODE":0,"TOWNNAME":"安南區","LI":"安順里","LIN":"1鄰","STREET":"安和路","SECT":"三段","MAREA":" ","LANE":" ","ALLEY":" ","HOUSE_NO":"２５５號","E_COORD97":169928.92999999999,"N_COORD97":2550042.5899999999,"ADDRESS":"安和路三段２５５號","OBJECTID":100374},"geometry":{"x":169928.93000000156,"y":2550042.5900000017}},{"attributes":{"ID":100375,"DIS_CODE":0,"TOWNNAME":"安南區","LI":"安順里","LIN":"1鄰","STREET":"安和路","SECT":"三段","MAREA":" ","LANE":" ","ALLEY":" ","HOUSE_NO":"２５７號","E_COORD97":169929.51000000001,"N_COORD97":2550045.0699999998,"ADDRESS":"安和路三段２５７號","OBJECTID":100375},"geometry":{"x":169929.50999999978,"y":2550045.0700000003}},{"attributes":{"ID":100376,"DIS_CODE":0,"TOWNNAME":"安南區","LI":"州南里","LIN":"1鄰","STREET":"安和路","SECT":"四段","MAREA":" ","LANE":" ","ALLEY":" ","HOUSE_NO":"３７４之５號","E_COORD97":169953.64999999999,"N_COORD97":2550990.1899999999,"ADDRESS":"安和路四段３７４之５號","OBJECTID":100376},"geometry":{"x":169953.65000000224,"y":2550990.1900000013}},{"attributes":{"ID":100377,"DIS_CODE":0,"TOWNNAME":"安南區","LI":"城東里","LIN":"1鄰","STREET":"安明路","SECT":"四段","MAREA":" ","LANE":" ","ALLEY":" ","HOUSE_NO":"７０７之２號","E_COORD97":161262.44,"N_COORD97":2551863.6299999999,"ADDRESS":"安明路四段７０７之２號","OBJECTID":100377},"geometry":{"x":161262.44000000134,"y":2551863.629999999}},{"attributes":{"ID":100378,"DIS_CODE":0,"TOWNNAME":"安南區","LI":"城東里","LIN":"1鄰","STREET":"安明路","SECT":"四段","MAREA":" ","LANE":" ","ALLEY":" ","HOUSE_NO":"７０７之６號","E_COORD97":161270.97,"N_COORD97":2551903.27,"ADDRESS":"安明路四段７０７之６號","OBJECTID":100378},"geometry":{"x":161270.96999999974,"y":2551903.2699999996}},{"attributes":{"ID":100379,"DIS_CODE":0,"TOWNNAME":"麻豆區","LI":"小埤里","LIN":"10鄰","STREET":" ","SECT":" ","MAREA":"埤頭","LANE":" ","ALLEY":" ","HOUSE_NO":"５號之２７","E_COORD97":170988.79000000001,"N_COORD97":2565722.3700000001,"ADDRESS":"埤頭５號之２７","OBJECTID":100379},"geometry":{"x":170988.79000000097,"y":2565722.3700000029}},{"attributes":{"ID":100380,"DIS_CODE":0,"TOWNNAME":"麻豆區","LI":"小埤里","LIN":"10鄰","STREET":" ","SECT":" ","MAREA":"埤頭","LANE":" ","ALLEY":" ","HOUSE_NO":"５號之２８","E_COORD97":170988.66,"N_COORD97":2565727.4100000001,"ADDRESS":"埤頭５號之２８","OBJECTID":100380},"geometry":{"x":170988.66000000015,"y":2565727.410000002}},{"attributes":{"ID":100381,"DIS_CODE":0,"TOWNNAME":"麻豆區","LI":"小埤里","LIN":"10鄰","STREET":" ","SECT":" ","MAREA":"埤頭","LANE":" ","ALLEY":" ","HOUSE_NO":"５號之２９","E_COORD97":171005.29000000001,"N_COORD97":2565721.73,"ADDRESS":"埤頭５號之２９","OBJECTID":100381},"geometry":{"x":171005.29000000097,"y":2565721.7300000042}},{"attributes":{"ID":100382,"DIS_CODE":0,"TOWNNAME":"麻豆區","LI":"小埤里","LIN":"10鄰","STREET":" ","SECT":" ","MAREA":"埤頭","LANE":" ","ALLEY":" ","HOUSE_NO":"５號之３０","E_COORD97":171010.35000000001,"N_COORD97":2565721.48,"ADDRESS":"埤頭５號之３０","OBJECTID":100382},"geometry":{"x":171010.34999999963,"y":2565721.4800000023}},{"attributes":{"ID":100383,"DIS_CODE":0,"TOWNNAME":"安南區","LI":"幸福里","LIN":"9鄰","STREET":"國安街","SECT":" ","MAREA":" ","LANE":"１５５巷","ALLEY":"４５弄","HOUSE_NO":"１６號","E_COORD97":166841.53,"N_COORD97":2546828.21,"ADDRESS":"國安街１５５巷４５弄１６號","OBJECTID":100383},"geometry":{"x":166841.53000000026,"y":2546828.2100000028}},{"attributes":{"ID":100384,"DIS_CODE":0,"TOWNNAME":"安南區","LI":"幸福里","LIN":"9鄰","STREET":"國安街","SECT":" ","MAREA":" ","LANE":"１５５巷","ALLEY":"４５弄","HOUSE_NO":"１８號","E_COORD97":166847.92000000001,"N_COORD97":2546829.27,"ADDRESS":"國安街１５５巷４５弄１８號","OBJECTID":100384},"geometry":{"x":166847.92000000086,"y":2546829.2700000033}},{"attributes":{"ID":100385,"DIS_CODE":0,"TOWNNAME":"楠西區","LI":"密枝里","LIN":"1鄰","STREET":" ","SECT":" ","MAREA":"密枝","LANE":" ","ALLEY":" ","HOUSE_NO":"１３號","E_COORD97":200214.87,"N_COORD97":2566601.2799999998,"ADDRESS":"密枝１３號","OBJECTID":100385},"geometry":{"x":200214.87000000104,"y":2566601.2799999993}},{"attributes":{"ID":100386,"DIS_CODE":0,"TOWNNAME":"安南區","LI":"幸福里","LIN":"9鄰","STREET":"國安街","SECT":" ","MAREA":" ","LANE":"１５５巷","ALLEY":"４５弄","HOUSE_NO":"２０號","E_COORD97":166853.92999999999,"N_COORD97":2546831.1099999999,"ADDRESS":"國安街１５５巷４５弄２０號","OBJECTID":100386},"geometry":{"x":166853.93000000156,"y":2546831.1100000013}},{"attributes":{"ID":100387,"DIS_CODE":0,"TOWNNAME":"安南區","LI":"幸福里","LIN":"9鄰","STREET":"國安街","SECT":" ","MAREA":" ","LANE":"１５５巷","ALLEY":"４５弄","HOUSE_NO":"２２號","E_COORD97":166860.01000000001,"N_COORD97":2546832.1200000001,"ADDRESS":"國安街１５５巷４５弄２２號","OBJECTID":100387},"geometry":{"x":166860.00999999978,"y":2546832.1200000029}},{"attributes":{"ID":100388,"DIS_CODE":0,"TOWNNAME":"安南區","LI":"幸福里","LIN":"9鄰","STREET":"國安街","SECT":" ","MAREA":" ","LANE":"１５５巷","ALLEY":"４５弄","HOUSE_NO":"２４號","E_COORD97":166866.81,"N_COORD97":2546833.71,"ADDRESS":"國安街１５５巷４５弄２４號","OBJECTID":100388},"geometry":{"x":166866.81000000052,"y":2546833.7100000009}},{"attributes":{"ID":100389,"DIS_CODE":0,"TOWNNAME":"麻豆區","LI":"小埤里","LIN":"10鄰","STREET":" ","SECT":" ","MAREA":"埤頭","LANE":" ","ALLEY":" ","HOUSE_NO":"５號之３１","E_COORD97":171015.41,"N_COORD97":2565721.2400000002,"ADDRESS":"埤頭５號之３１","OBJECTID":100389},"geometry":{"x":171015.41000000015,"y":2565721.2400000039}},{"attributes":{"ID":100390,"DIS_CODE":0,"TOWNNAME":"麻豆區","LI":"小埤里","LIN":"10鄰","STREET":" ","SECT":" ","MAREA":"埤頭","LANE":" ","ALLEY":" ","HOUSE_NO":"５號之３２","E_COORD97":171020.47,"N_COORD97":2565720.9900000002,"ADDRESS":"埤頭５號之３２","OBJECTID":100390},"geometry":{"x":171020.4700000016,"y":2565720.9900000021}},{"attributes":{"ID":100391,"DIS_CODE":0,"TOWNNAME":"麻豆區","LI":"埤頭里","LIN":"10鄰","STREET":" ","SECT":" ","MAREA":"埤頭","LANE":" ","ALLEY":" ","HOUSE_NO":"７７號之６","E_COORD97":170707.76999999999,"N_COORD97":2566023.8900000001,"ADDRESS":"埤頭７７號之６","OBJECTID":100391},"geometry":{"x":170707.76999999955,"y":2566023.8900000025}},{"attributes":{"ID":100392,"DIS_CODE":0,"TOWNNAME":"麻豆區","LI":"小埤里","LIN":"10鄰","STREET":" ","SECT":" ","MAREA":"埤頭","LANE":" ","ALLEY":" ","HOUSE_NO":"７號之１","E_COORD97":170922.28,"N_COORD97":2565764.1499999999,"ADDRESS":"埤頭７號之１","OBJECTID":100392},"geometry":{"x":170922.28000000212,"y":2565764.1500000022}},{"attributes":{"ID":100393,"DIS_CODE":0,"TOWNNAME":"麻豆區","LI":"小埤里","LIN":"10鄰","STREET":" ","SECT":" ","MAREA":"埤頭","LANE":" ","ALLEY":" ","HOUSE_NO":"７號之２","E_COORD97":170921.73999999999,"N_COORD97":2565773.04,"ADDRESS":"埤頭７號之２","OBJECTID":100393},"geometry":{"x":170921.74000000022,"y":2565773.040000001}},{"attributes":{"ID":100394,"DIS_CODE":0,"TOWNNAME":"麻豆區","LI":"小埤里","LIN":"10鄰","STREET":" ","SECT":" ","MAREA":"埤頭","LANE":" ","ALLEY":" ","HOUSE_NO":"７號","E_COORD97":170925.07999999999,"N_COORD97":2565805.3599999999,"ADDRESS":"埤頭７號","OBJECTID":100394},"geometry":{"x":170925.08000000194,"y":2565805.3600000013}},{"attributes":{"ID":100395,"DIS_CODE":0,"TOWNNAME":"麻豆區","LI":"埤頭里","LIN":"10鄰","STREET":" ","SECT":" ","MAREA":"埤頭","LANE":" ","ALLEY":" ","HOUSE_NO":"８０號","E_COORD97":170763.94,"N_COORD97":2566006.0600000001,"ADDRESS":"埤頭８０號","OBJECTID":100395},"geometry":{"x":170763.94000000134,"y":2566006.0600000005}},{"attributes":{"ID":100396,"DIS_CODE":0,"TOWNNAME":"麻豆區","LI":"埤頭里","LIN":"10鄰","STREET":" ","SECT":" ","MAREA":"埤頭","LANE":" ","ALLEY":" ","HOUSE_NO":"８１號","E_COORD97":170784.60000000001,"N_COORD97":2566004.2400000002,"ADDRESS":"埤頭８１號","OBJECTID":100396},"geometry":{"x":170784.60000000056,"y":2566004.2400000021}},{"attributes":{"ID":100397,"DIS_CODE":0,"TOWNNAME":"麻豆區","LI":"埤頭里","LIN":"10鄰","STREET":" ","SECT":" ","MAREA":"埤頭","LANE":" ","ALLEY":" ","HOUSE_NO":"８３號","E_COORD97":170803.70000000001,"N_COORD97":2566037.52,"ADDRESS":"埤頭８３號","OBJECTID":100397},"geometry":{"x":170803.70000000019,"y":2566037.5200000033}},{"attributes":{"ID":100398,"DIS_CODE":0,"TOWNNAME":"安南區","LI":"幸福里","LIN":"9鄰","STREET":"國安街","SECT":" ","MAREA":" ","LANE":"１５５巷","ALLEY":"４５弄","HOUSE_NO":"２號","E_COORD97":166796.23000000001,"N_COORD97":2546822.4900000002,"ADDRESS":"國安街１５５巷４５弄２號","OBJECTID":100398},"geometry":{"x":166796.23000000045,"y":2546822.4900000021}},{"attributes":{"ID":100399,"DIS_CODE":0,"TOWNNAME":"安南區","LI":"幸福里","LIN":"9鄰","STREET":"國安街","SECT":" ","MAREA":" ","LANE":"１５５巷","ALLEY":"４５弄","HOUSE_NO":"４號","E_COORD97":166802.82000000001,"N_COORD97":2546822.2000000002,"ADDRESS":"國安街１５５巷４５弄４號","OBJECTID":100399},"geometry":{"x":166802.82000000216,"y":2546822.1999999993}},{"attributes":{"ID":100400,"DIS_CODE":0,"TOWNNAME":"安南區","LI":"幸福里","LIN":"9鄰","STREET":"國安街","SECT":" ","MAREA":" ","LANE":"１５５巷","ALLEY":"４５弄","HOUSE_NO":"６號","E_COORD97":166809.22,"N_COORD97":2546824.4300000002,"ADDRESS":"國安街１５５巷４５弄６號","OBJECTID":100400},"geometry":{"x":166809.21999999974,"y":2546824.4299999997}}]}