{"displayFieldName":"TOWNNAME","fieldAliases":{"ID":"ID","DIS_CODE":"DIS_CODE","TOWNNAME":"TOWNNAME","LI":"LI","LIN":"LIN","STREET":"STREET","SECT":"SECT","MAREA":"MAREA","LANE":"LANE","ALLEY":"ALLEY","HOUSE_NO":"HOUSE_NO","E_COORD97":"E_COORD97","N_COORD97":"N_COORD97","ADDRESS":"ADDRESS","OBJECTID":"OBJECTID"},"geometryType":"esriGeometryPoint","spatialReference":{"wkid":102443,"latestWkid":3826},"fields":[{"name":"ID","type":"esriFieldTypeDouble","alias":"ID"},{"name":"DIS_CODE","type":"esriFieldTypeInteger","alias":"DIS_CODE"},{"name":"TOWNNAME","type":"esriFieldTypeString","alias":"TOWNNAME","length":8},{"name":"LI","type":"esriFieldTypeString","alias":"LI","length":8},{"name":"LIN","type":"esriFieldTypeString","alias":"LIN","length":12},{"name":"STREET","type":"esriFieldTypeString","alias":"STREET","length":20},{"name":"SECT","type":"esriFieldTypeString","alias":"SECT","length":8},{"name":"MAREA","type":"esriFieldTypeString","alias":"MAREA","length":12},{"name":"LANE","type":"esriFieldTypeString","alias":"LANE","length":10},{"name":"ALLEY","type":"esriFieldTypeString","alias":"ALLEY","length":10},{"name":"HOUSE_NO","type":"esriFieldTypeString","alias":"HOUSE_NO","length":20},{"name":"E_COORD97","type":"esriFieldTypeDouble","alias":"E_COORD97"},{"name":"N_COORD97","type":"esriFieldTypeDouble","alias":"N_COORD97"},{"name":"ADDRESS","type":"esriFieldTypeString","alias":"ADDRESS","length":50},{"name":"OBJECTID","type":"esriFieldTypeOID","alias":"OBJECTID"}],"features":[{"attributes":{"ID":4601,"DIS_CODE":0,"TOWNNAME":"安南區","LI":"頂安里","LIN":"16鄰","STREET":"安中路","SECT":"一段","MAREA":" ","LANE":"２２０巷","ALLEY":"７弄","HOUSE_NO":"３２號","E_COORD97":168578.683418,"N_COORD97":2548714.3500799998,"ADDRESS":"安中路一段２２０巷７弄３２號","OBJECTID":4601},"geometry":{"x":168578.68341800012,"y":2548714.3500819989}},{"attributes":{"ID":4602,"DIS_CODE":0,"TOWNNAME":"安南區","LI":"頂安里","LIN":"16鄰","STREET":"安中路","SECT":"一段","MAREA":" ","LANE":"２２０巷","ALLEY":"７弄","HOUSE_NO":"３６號","E_COORD97":168573.596509,"N_COORD97":2548716.25508,"ADDRESS":"安中路一段２２０巷７弄３６號","OBJECTID":4602},"geometry":{"x":168573.59650900029,"y":2548716.2550810035}},{"attributes":{"ID":4603,"DIS_CODE":0,"TOWNNAME":"安南區","LI":"頂安里","LIN":"16鄰","STREET":"安中路","SECT":"一段","MAREA":" ","LANE":"２２０巷","ALLEY":"７弄","HOUSE_NO":"３８號","E_COORD97":168568.93350799999,"N_COORD97":2548717.5250800001,"ADDRESS":"安中路一段２２０巷７弄３８號","OBJECTID":4603},"geometry":{"x":168568.9335080022,"y":2548717.5250799991}},{"attributes":{"ID":4604,"DIS_CODE":0,"TOWNNAME":"安南區","LI":"頂安里","LIN":"16鄰","STREET":"安中路","SECT":"一段","MAREA":" ","LANE":"２２０巷","ALLEY":"７弄","HOUSE_NO":"４０號","E_COORD97":168564.90637099999,"N_COORD97":2548718.9009099999,"ADDRESS":"安中路一段２２０巷７弄４０號","OBJECTID":4604},"geometry":{"x":168564.90637100115,"y":2548718.9009119999}},{"attributes":{"ID":4605,"DIS_CODE":0,"TOWNNAME":"安南區","LI":"頂安里","LIN":"16鄰","STREET":"安中路","SECT":"一段","MAREA":" ","LANE":"２２０巷","ALLEY":"７弄","HOUSE_NO":"５０號","E_COORD97":168562.99877999999,"N_COORD97":2548693.7125900001,"ADDRESS":"安中路一段２２０巷７弄５０號","OBJECTID":4605},"geometry":{"x":168562.99878000002,"y":2548693.7125930004}},{"attributes":{"ID":4606,"DIS_CODE":0,"TOWNNAME":"安南區","LI":"頂安里","LIN":"16鄰","STREET":"安中路","SECT":"一段","MAREA":" ","LANE":"２２０巷","ALLEY":"７弄","HOUSE_NO":"５２號","E_COORD97":168556.852097,"N_COORD97":2548695.4059299999,"ADDRESS":"安中路一段２２０巷７弄５２號","OBJECTID":4606},"geometry":{"x":168556.85209700093,"y":2548695.4059250038}},{"attributes":{"ID":4607,"DIS_CODE":0,"TOWNNAME":"佳里區","LI":"建南里","LIN":"26鄰","STREET":"安南路","SECT":" ","MAREA":" ","LANE":"３１６巷","ALLEY":"２６弄","HOUSE_NO":"１１號","E_COORD97":165428.6452,"N_COORD97":2561421.2968899999,"ADDRESS":"安南路３１６巷２６弄１１號","OBJECTID":4607},"geometry":{"x":165428.64520000014,"y":2561421.296887001}},{"attributes":{"ID":4608,"DIS_CODE":0,"TOWNNAME":"佳里區","LI":"建南里","LIN":"26鄰","STREET":"安南路","SECT":" ","MAREA":" ","LANE":"３１６巷","ALLEY":"２６弄","HOUSE_NO":"１２號","E_COORD97":165388.69183699999,"N_COORD97":2561421.2596999998,"ADDRESS":"安南路３１６巷２６弄１２號","OBJECTID":4608},"geometry":{"x":165388.69183700066,"y":2561421.2597020008}},{"attributes":{"ID":4609,"DIS_CODE":0,"TOWNNAME":"佳里區","LI":"建南里","LIN":"26鄰","STREET":"安南路","SECT":" ","MAREA":" ","LANE":"３１６巷","ALLEY":"２６弄","HOUSE_NO":"１６號","E_COORD97":165392.75139600001,"N_COORD97":2561420.9893999998,"ADDRESS":"安南路３１６巷２６弄１６號","OBJECTID":4609},"geometry":{"x":165392.75139600039,"y":2561420.9893990047}},{"attributes":{"ID":4610,"DIS_CODE":0,"TOWNNAME":"安南區","LI":"東和里","LIN":"7鄰","STREET":"館前二路","SECT":" ","MAREA":" ","LANE":" ","ALLEY":" ","HOUSE_NO":"１３號","E_COORD97":171122.66961700001,"N_COORD97":2551066.07724,"ADDRESS":"館前二路１３號","OBJECTID":4610},"geometry":{"x":171122.66961700097,"y":2551066.0772370026}},{"attributes":{"ID":4611,"DIS_CODE":0,"TOWNNAME":"佳里區","LI":"建南里","LIN":"26鄰","STREET":"安南路","SECT":" ","MAREA":" ","LANE":"３１６巷","ALLEY":"２６弄","HOUSE_NO":"１８號","E_COORD97":165388.69183699999,"N_COORD97":2561416.6645399998,"ADDRESS":"安南路３１６巷２６弄１８號","OBJECTID":4611},"geometry":{"x":165388.69183700066,"y":2561416.664536003}},{"attributes":{"ID":4612,"DIS_CODE":0,"TOWNNAME":"楠西區","LI":"灣丘里","LIN":"17鄰","STREET":" ","SECT":" ","MAREA":"鳳興","LANE":" ","ALLEY":" ","HOUSE_NO":"５９號之１","E_COORD97":200329.959676,"N_COORD97":2562372.9684000001,"ADDRESS":"鳳興５９號之１","OBJECTID":4612},"geometry":{"x":200329.95967600122,"y":2562372.9683980029}},{"attributes":{"ID":4613,"DIS_CODE":0,"TOWNNAME":"安南區","LI":"東和里","LIN":"7鄰","STREET":"館前二路","SECT":" ","MAREA":" ","LANE":" ","ALLEY":" ","HOUSE_NO":"１５號","E_COORD97":171117.587203,"N_COORD97":2551061.4205700001,"ADDRESS":"館前二路１５號","OBJECTID":4613},"geometry":{"x":171117.58720300067,"y":2551061.4205730017}},{"attributes":{"ID":4614,"DIS_CODE":0,"TOWNNAME":"佳里區","LI":"建南里","LIN":"26鄰","STREET":"安南路","SECT":" ","MAREA":" ","LANE":"３１６巷","ALLEY":"２６弄","HOUSE_NO":"２０號","E_COORD97":165384.90291500001,"N_COORD97":2561412.3396700001,"ADDRESS":"安南路３１６巷２６弄２０號","OBJECTID":4614},"geometry":{"x":165384.90291499998,"y":2561412.3396729995}},{"attributes":{"ID":4615,"DIS_CODE":0,"TOWNNAME":"佳里區","LI":"建南里","LIN":"26鄰","STREET":"安南路","SECT":" ","MAREA":" ","LANE":"３１６巷","ALLEY":"２６弄","HOUSE_NO":"２６號","E_COORD97":165378.678258,"N_COORD97":2561403.41964,"ADDRESS":"安南路３１６巷２６弄２６號","OBJECTID":4615},"geometry":{"x":165378.67825800087,"y":2561403.4196450002}},{"attributes":{"ID":4616,"DIS_CODE":0,"TOWNNAME":"佳里區","LI":"東寧里","LIN":"11鄰","STREET":"文化路","SECT":" ","MAREA":" ","LANE":" ","ALLEY":" ","HOUSE_NO":"８０號","E_COORD97":166089.10208099999,"N_COORD97":2562598.6467300002,"ADDRESS":"文化路８０號","OBJECTID":4616},"geometry":{"x":166089.10208099987,"y":2562598.6467330009}},{"attributes":{"ID":4617,"DIS_CODE":0,"TOWNNAME":"佳里區","LI":"建南里","LIN":"26鄰","STREET":"安南路","SECT":" ","MAREA":" ","LANE":"３１６巷","ALLEY":"２６弄","HOUSE_NO":"９號","E_COORD97":165420.08575999999,"N_COORD97":2561423.9627399999,"ADDRESS":"安南路３１６巷２６弄９號","OBJECTID":4617},"geometry":{"x":165420.08576000016,"y":2561423.9627420027}},{"attributes":{"ID":4618,"DIS_CODE":0,"TOWNNAME":"佳里區","LI":"建南里","LIN":"26鄰","STREET":"安南路","SECT":" ","MAREA":" ","LANE":"３１６巷","ALLEY":"２６弄","HOUSE_NO":"７號","E_COORD97":165412.507916,"N_COORD97":2561426.93609,"ADDRESS":"安南路３１６巷２６弄７號","OBJECTID":4618},"geometry":{"x":165412.5079160016,"y":2561426.9360850006}},{"attributes":{"ID":4619,"DIS_CODE":0,"TOWNNAME":"佳里區","LI":"建南里","LIN":"26鄰","STREET":"安南路","SECT":" ","MAREA":" ","LANE":"３１６巷","ALLEY":"２６弄","HOUSE_NO":"２２號","E_COORD97":165381.249312,"N_COORD97":2561408.5554200001,"ADDRESS":"安南路３１６巷２６弄２２號","OBJECTID":4619},"geometry":{"x":165381.24931199942,"y":2561408.5554190017}},{"attributes":{"ID":4620,"DIS_CODE":0,"TOWNNAME":"佳里區","LI":"建南里","LIN":"26鄰","STREET":"安南路","SECT":" ","MAREA":" ","LANE":"３１６巷","ALLEY":"２６弄","HOUSE_NO":"５號","E_COORD97":165405.06539100001,"N_COORD97":2561429.90943,"ADDRESS":"安南路３１６巷２６弄５號","OBJECTID":4620},"geometry":{"x":165405.06539100036,"y":2561429.9094270002}},{"attributes":{"ID":4621,"DIS_CODE":0,"TOWNNAME":"楠西區","LI":"楠西里","LIN":"27鄰","STREET":"中正路","SECT":" ","MAREA":" ","LANE":" ","ALLEY":" ","HOUSE_NO":"３４８號","E_COORD97":197548.28879399999,"N_COORD97":2563184.8154600002,"ADDRESS":"中正路３４８號","OBJECTID":4621},"geometry":{"x":197548.28879400063,"y":2563184.8154590018}},{"attributes":{"ID":4622,"DIS_CODE":0,"TOWNNAME":"楠西區","LI":"楠西里","LIN":"27鄰","STREET":"中正路","SECT":" ","MAREA":" ","LANE":" ","ALLEY":" ","HOUSE_NO":"３３０號","E_COORD97":197544.47509299999,"N_COORD97":2563204.5004500002,"ADDRESS":"中正路３３０號","OBJECTID":4622},"geometry":{"x":197544.47509299964,"y":2563204.5004489981}},{"attributes":{"ID":4623,"DIS_CODE":0,"TOWNNAME":"楠西區","LI":"楠西里","LIN":"27鄰","STREET":"中正路","SECT":" ","MAREA":" ","LANE":" ","ALLEY":" ","HOUSE_NO":"３４６號","E_COORD97":197547.229433,"N_COORD97":2563188.4137900001,"ADDRESS":"中正路３４６號","OBJECTID":4623},"geometry":{"x":197547.22943300009,"y":2563188.4137910008}},{"attributes":{"ID":4624,"DIS_CODE":0,"TOWNNAME":"安南區","LI":"東和里","LIN":"7鄰","STREET":"館前二路","SECT":" ","MAREA":" ","LANE":" ","ALLEY":" ","HOUSE_NO":"１７號","E_COORD97":171112.29302000001,"N_COORD97":2551057.1012900001,"ADDRESS":"館前二路１７號","OBJECTID":4624},"geometry":{"x":171112.29301999975,"y":2551057.1012890004}},{"attributes":{"ID":4625,"DIS_CODE":0,"TOWNNAME":"楠西區","LI":"楠西里","LIN":"27鄰","STREET":"中正路","SECT":" ","MAREA":" ","LANE":" ","ALLEY":" ","HOUSE_NO":"３６２號","E_COORD97":197546.38194399999,"N_COORD97":2563169.1521299998,"ADDRESS":"中正路３６２號","OBJECTID":4625},"geometry":{"x":197546.38194399979,"y":2563169.1521340031}},{"attributes":{"ID":4626,"DIS_CODE":0,"TOWNNAME":"下營區","LI":"茅港里","LIN":"2鄰","STREET":" ","SECT":" ","MAREA":"茅港尾","LANE":" ","ALLEY":" ","HOUSE_NO":"２８之１號","E_COORD97":176629.27433300001,"N_COORD97":2569376.8613700001,"ADDRESS":"茅港尾２８之１號","OBJECTID":4626},"geometry":{"x":176629.27433300111,"y":2569376.8613690007}},{"attributes":{"ID":4627,"DIS_CODE":0,"TOWNNAME":"安南區","LI":"東和里","LIN":"7鄰","STREET":"館前二路","SECT":" ","MAREA":" ","LANE":" ","ALLEY":" ","HOUSE_NO":"１９號","E_COORD97":171106.36353599999,"N_COORD97":2551051.5979599999,"ADDRESS":"館前二路１９號","OBJECTID":4627},"geometry":{"x":171106.36353600118,"y":2551051.5979590025}},{"attributes":{"ID":4628,"DIS_CODE":0,"TOWNNAME":"安南區","LI":"東和里","LIN":"7鄰","STREET":"館前二路","SECT":" ","MAREA":" ","LANE":" ","ALLEY":" ","HOUSE_NO":"２１號","E_COORD97":171101.91642299999,"N_COORD97":2551047.1529600001,"ADDRESS":"館前二路２１號","OBJECTID":4628},"geometry":{"x":171101.9164230004,"y":2551047.1529610027}},{"attributes":{"ID":4629,"DIS_CODE":0,"TOWNNAME":"安南區","LI":"東和里","LIN":"7鄰","STREET":"館前二路","SECT":" ","MAREA":" ","LANE":" ","ALLEY":" ","HOUSE_NO":"２３號","E_COORD97":171097.25754300001,"N_COORD97":2551042.07296,"ADDRESS":"館前二路２３號","OBJECTID":4629},"geometry":{"x":171097.25754300226,"y":2551042.0729639996}},{"attributes":{"ID":4630,"DIS_CODE":0,"TOWNNAME":"七股區","LI":"大埕里","LIN":"11鄰","STREET":" ","SECT":" ","MAREA":"大埕","LANE":" ","ALLEY":" ","HOUSE_NO":"３９９號","E_COORD97":161909.74251099999,"N_COORD97":2559994.5739899999,"ADDRESS":"大埕３９９號","OBJECTID":4630},"geometry":{"x":161909.74251099955,"y":2559994.573993003}},{"attributes":{"ID":4631,"DIS_CODE":0,"TOWNNAME":"安南區","LI":"東和里","LIN":"7鄰","STREET":"館前二路","SECT":" ","MAREA":" ","LANE":" ","ALLEY":" ","HOUSE_NO":"２５號","E_COORD97":171092.175128,"N_COORD97":2551038.26297,"ADDRESS":"館前二路２５號","OBJECTID":4631},"geometry":{"x":171092.17512799986,"y":2551038.2629659995}},{"attributes":{"ID":4632,"DIS_CODE":0,"TOWNNAME":"安南區","LI":"東和里","LIN":"7鄰","STREET":"館前二路","SECT":" ","MAREA":" ","LANE":" ","ALLEY":" ","HOUSE_NO":"２７號","E_COORD97":171087.516248,"N_COORD97":2551032.7596399998,"ADDRESS":"館前二路２７號","OBJECTID":4632},"geometry":{"x":171087.51624800079,"y":2551032.7596360017}},{"attributes":{"ID":4633,"DIS_CODE":0,"TOWNNAME":"安南區","LI":"東和里","LIN":"7鄰","STREET":"館前二路","SECT":" ","MAREA":" ","LANE":" ","ALLEY":" ","HOUSE_NO":"２９號","E_COORD97":171082.43383299999,"N_COORD97":2551028.1029699999,"ADDRESS":"館前二路２９號","OBJECTID":4633},"geometry":{"x":171082.43383300025,"y":2551028.1029720008}},{"attributes":{"ID":4634,"DIS_CODE":0,"TOWNNAME":"安南區","LI":"東和里","LIN":"7鄰","STREET":"館前二路","SECT":" ","MAREA":" ","LANE":" ","ALLEY":" ","HOUSE_NO":"３１號","E_COORD97":171077.56318600001,"N_COORD97":2551023.6579700001,"ADDRESS":"館前二路３１號","OBJECTID":4634},"geometry":{"x":171077.56318600103,"y":2551023.6579740029}},{"attributes":{"ID":4635,"DIS_CODE":0,"TOWNNAME":"安南區","LI":"東和里","LIN":"7鄰","STREET":"館前二路","SECT":" ","MAREA":" ","LANE":" ","ALLEY":" ","HOUSE_NO":"３３號","E_COORD97":171072.05723599999,"N_COORD97":2551018.7896400001,"ADDRESS":"館前二路３３號","OBJECTID":4635},"geometry":{"x":171072.05723600183,"y":2551018.7896430008}},{"attributes":{"ID":4636,"DIS_CODE":0,"TOWNNAME":"安南區","LI":"東和里","LIN":"7鄰","STREET":"館前二路","SECT":" ","MAREA":" ","LANE":" ","ALLEY":" ","HOUSE_NO":"３５號","E_COORD97":171067.61012299999,"N_COORD97":2551013.2863099999,"ADDRESS":"館前二路３５號","OBJECTID":4636},"geometry":{"x":171067.61012300197,"y":2551013.2863130029}},{"attributes":{"ID":4637,"DIS_CODE":0,"TOWNNAME":"中西區","LI":"銀同里","LIN":"4鄰","STREET":"開山路","SECT":" ","MAREA":" ","LANE":"３５巷","ALLEY":" ","HOUSE_NO":"４１之２號","E_COORD97":168716.883871,"N_COORD97":2543442.7049099999,"ADDRESS":"開山路３５巷４１之２號","OBJECTID":4637},"geometry":{"x":168716.88387100119,"y":2543442.704911001}},{"attributes":{"ID":4638,"DIS_CODE":0,"TOWNNAME":"安南區","LI":"東和里","LIN":"7鄰","STREET":"館前二路","SECT":" ","MAREA":" ","LANE":" ","ALLEY":" ","HOUSE_NO":"３７號","E_COORD97":171061.468872,"N_COORD97":2551008.84131,"ADDRESS":"館前二路３７號","OBJECTID":4638},"geometry":{"x":171061.4688719986,"y":2551008.8413149994}},{"attributes":{"ID":4639,"DIS_CODE":0,"TOWNNAME":"安南區","LI":"東和里","LIN":"7鄰","STREET":"館前二路","SECT":" ","MAREA":" ","LANE":" ","ALLEY":" ","HOUSE_NO":"３９號","E_COORD97":171056.80999199999,"N_COORD97":2551001.8563199998,"ADDRESS":"館前二路３９號","OBJECTID":4639},"geometry":{"x":171056.80999200046,"y":2551001.8563189991}},{"attributes":{"ID":4640,"DIS_CODE":0,"TOWNNAME":"安南區","LI":"梅花里","LIN":"17鄰","STREET":"同安路","SECT":" ","MAREA":" ","LANE":" ","ALLEY":" ","HOUSE_NO":"３８４號","E_COORD97":167329.24066400001,"N_COORD97":2549362.3004999999,"ADDRESS":"同安路３８４號","OBJECTID":4640},"geometry":{"x":167329.24066400062,"y":2549362.3005020004}},{"attributes":{"ID":4641,"DIS_CODE":0,"TOWNNAME":"楠西區","LI":"鹿田里","LIN":"7鄰","STREET":" ","SECT":" ","MAREA":"油車","LANE":" ","ALLEY":" ","HOUSE_NO":"１３號","E_COORD97":197639.81761,"N_COORD97":2562344.7109099999,"ADDRESS":"油車１３號","OBJECTID":4641},"geometry":{"x":197639.81761000212,"y":2562344.7109130025}},{"attributes":{"ID":4642,"DIS_CODE":0,"TOWNNAME":"安南區","LI":"東和里","LIN":"7鄰","STREET":"館前二路","SECT":" ","MAREA":" ","LANE":" ","ALLEY":" ","HOUSE_NO":"４１號","E_COORD97":171070.78663300001,"N_COORD97":2550991.0613299999,"ADDRESS":"館前二路４１號","OBJECTID":4642},"geometry":{"x":171070.78663300071,"y":2550991.0613250006}},{"attributes":{"ID":4643,"DIS_CODE":0,"TOWNNAME":"安南區","LI":"梅花里","LIN":"17鄰","STREET":"同安路","SECT":" ","MAREA":" ","LANE":" ","ALLEY":" ","HOUSE_NO":"３８６號","E_COORD97":167332.94684799999,"N_COORD97":2549365.4755000002,"ADDRESS":"同安路３８６號","OBJECTID":4643},"geometry":{"x":167332.94684800226,"y":2549365.4755000006}},{"attributes":{"ID":4644,"DIS_CODE":0,"TOWNNAME":"楠西區","LI":"鹿田里","LIN":"7鄰","STREET":" ","SECT":" ","MAREA":"油車","LANE":" ","ALLEY":" ","HOUSE_NO":"１３之３號","E_COORD97":197627.105274,"N_COORD97":2562288.19594,"ADDRESS":"油車１３之３號","OBJECTID":4644},"geometry":{"x":197627.10527400114,"y":2562288.1959430035}},{"attributes":{"ID":4645,"DIS_CODE":0,"TOWNNAME":"安南區","LI":"梅花里","LIN":"17鄰","STREET":"同安路","SECT":" ","MAREA":" ","LANE":" ","ALLEY":" ","HOUSE_NO":"３８８號","E_COORD97":167334.11164799999,"N_COORD97":2549369.9205,"ADDRESS":"同安路３８８號","OBJECTID":4645},"geometry":{"x":167334.11164799891,"y":2549369.9204980042}},{"attributes":{"ID":4646,"DIS_CODE":0,"TOWNNAME":"安南區","LI":"東和里","LIN":"7鄰","STREET":"館前二路","SECT":" ","MAREA":" ","LANE":" ","ALLEY":" ","HOUSE_NO":"４３號","E_COORD97":171074.17490899999,"N_COORD97":2550987.67466,"ADDRESS":"館前二路４３號","OBJECTID":4646},"geometry":{"x":171074.17490900122,"y":2550987.674660001}},{"attributes":{"ID":4647,"DIS_CODE":0,"TOWNNAME":"安南區","LI":"理想里","LIN":"13鄰","STREET":"海佃路","SECT":"二段","MAREA":" ","LANE":"１０２巷","ALLEY":" ","HOUSE_NO":"３８號","E_COORD97":167089.653009,"N_COORD97":2548008.28859,"ADDRESS":"海佃路二段１０２巷３８號","OBJECTID":4647},"geometry":{"x":167089.65300900023,"y":2548008.2885939982}},{"attributes":{"ID":4648,"DIS_CODE":0,"TOWNNAME":"六甲區","LI":"甲東里","LIN":"21鄰","STREET":"裕農街","SECT":" ","MAREA":" ","LANE":"８０巷","ALLEY":" ","HOUSE_NO":"２１號","E_COORD97":184402.71399700001,"N_COORD97":2569587.5302599999,"ADDRESS":"裕農街８０巷２１號","OBJECTID":4648},"geometry":{"x":184402.7139969999,"y":2569587.5302590001}},{"attributes":{"ID":4649,"DIS_CODE":0,"TOWNNAME":"安南區","LI":"東和里","LIN":"7鄰","STREET":"館前二路","SECT":" ","MAREA":" ","LANE":" ","ALLEY":" ","HOUSE_NO":"４５號","E_COORD97":171077.139651,"N_COORD97":2550984.0763300001,"ADDRESS":"館前二路４５號","OBJECTID":4649},"geometry":{"x":171077.13965099957,"y":2550984.0763290022}},{"attributes":{"ID":4650,"DIS_CODE":0,"TOWNNAME":"六甲區","LI":"甲東里","LIN":"21鄰","STREET":"裕農街","SECT":" ","MAREA":" ","LANE":"８０巷","ALLEY":" ","HOUSE_NO":"２３號","E_COORD97":184396.99410499999,"N_COORD97":2569572.92527,"ADDRESS":"裕農街８０巷２３號","OBJECTID":4650},"geometry":{"x":184396.99410500005,"y":2569572.9252670035}},{"attributes":{"ID":4651,"DIS_CODE":0,"TOWNNAME":"安南區","LI":"東和里","LIN":"7鄰","STREET":"館前二路","SECT":" ","MAREA":" ","LANE":" ","ALLEY":" ","HOUSE_NO":"５１號","E_COORD97":171079.89262599999,"N_COORD97":2550982.1713299998,"ADDRESS":"館前二路５１號","OBJECTID":4651},"geometry":{"x":171079.89262599871,"y":2550982.1713299975}},{"attributes":{"ID":4652,"DIS_CODE":0,"TOWNNAME":"安南區","LI":"東和里","LIN":"7鄰","STREET":"館前二路","SECT":" ","MAREA":" ","LANE":" ","ALLEY":" ","HOUSE_NO":"５３號","E_COORD97":171089.21038599999,"N_COORD97":2550970.7413400002,"ADDRESS":"館前二路５３號","OBJECTID":4652},"geometry":{"x":171089.2103860015,"y":2550970.7413360011}},{"attributes":{"ID":4653,"DIS_CODE":0,"TOWNNAME":"安南區","LI":"東和里","LIN":"7鄰","STREET":"館前二路","SECT":" ","MAREA":" ","LANE":" ","ALLEY":" ","HOUSE_NO":"５５號","E_COORD97":171092.81043000001,"N_COORD97":2550966.50801,"ADDRESS":"館前二路５５號","OBJECTID":4653},"geometry":{"x":171092.8104299996,"y":2550966.5080050025}},{"attributes":{"ID":4654,"DIS_CODE":0,"TOWNNAME":"安南區","LI":"東和里","LIN":"7鄰","STREET":"館前二路","SECT":" ","MAREA":" ","LANE":" ","ALLEY":" ","HOUSE_NO":"５７號","E_COORD97":171096.410474,"N_COORD97":2550963.1213400001,"ADDRESS":"館前二路５７號","OBJECTID":4654},"geometry":{"x":171096.4104740005,"y":2550963.121340001}},{"attributes":{"ID":4655,"DIS_CODE":0,"TOWNNAME":"安南區","LI":"東和里","LIN":"7鄰","STREET":"館前二路","SECT":" ","MAREA":" ","LANE":" ","ALLEY":" ","HOUSE_NO":"５９號","E_COORD97":171100.64582000001,"N_COORD97":2550959.5230100001,"ADDRESS":"館前二路５９號","OBJECTID":4655},"geometry":{"x":171100.64582000207,"y":2550959.5230090041}},{"attributes":{"ID":4656,"DIS_CODE":0,"TOWNNAME":"安南區","LI":"東和里","LIN":"7鄰","STREET":"館前二路","SECT":" ","MAREA":" ","LANE":" ","ALLEY":" ","HOUSE_NO":"６１號","E_COORD97":171103.61056199999,"N_COORD97":2550956.3480099998,"ADDRESS":"館前二路６１號","OBJECTID":4656},"geometry":{"x":171103.61056200042,"y":2550956.3480099998}},{"attributes":{"ID":4657,"DIS_CODE":0,"TOWNNAME":"安南區","LI":"東和里","LIN":"7鄰","STREET":"館前二路","SECT":" ","MAREA":" ","LANE":" ","ALLEY":" ","HOUSE_NO":"６３號","E_COORD97":171106.787071,"N_COORD97":2550952.5380099998,"ADDRESS":"館前二路６３號","OBJECTID":4657},"geometry":{"x":171106.78707099985,"y":2550952.5380120017}},{"attributes":{"ID":4658,"DIS_CODE":0,"TOWNNAME":"安南區","LI":"東和里","LIN":"7鄰","STREET":"館前二路","SECT":" ","MAREA":" ","LANE":" ","ALLEY":" ","HOUSE_NO":"６５號","E_COORD97":171109.116511,"N_COORD97":2550949.1513499999,"ADDRESS":"館前二路６５號","OBJECTID":4658},"geometry":{"x":171109.11651100032,"y":2550949.1513479985}},{"attributes":{"ID":4659,"DIS_CODE":0,"TOWNNAME":"安南區","LI":"學東里","LIN":"8鄰","STREET":"公學路","SECT":"六段","MAREA":" ","LANE":" ","ALLEY":" ","HOUSE_NO":"３７６號","E_COORD97":162947.22393800001,"N_COORD97":2553229.63674,"ADDRESS":"公學路六段３７６號","OBJECTID":4659},"geometry":{"x":162947.22393800132,"y":2553229.6367410012}},{"attributes":{"ID":4660,"DIS_CODE":0,"TOWNNAME":"安南區","LI":"東和里","LIN":"7鄰","STREET":"館前二路","SECT":" ","MAREA":" ","LANE":" ","ALLEY":" ","HOUSE_NO":"６７號","E_COORD97":171111.445951,"N_COORD97":2550946.3996799998,"ADDRESS":"館前二路６７號","OBJECTID":4660},"geometry":{"x":171111.44595100079,"y":2550946.399682004}},{"attributes":{"ID":4661,"DIS_CODE":0,"TOWNNAME":"安南區","LI":"東和里","LIN":"7鄰","STREET":"館前二路","SECT":" ","MAREA":" ","LANE":" ","ALLEY":" ","HOUSE_NO":"６９號","E_COORD97":171121.18724599999,"N_COORD97":2550937.9330199999,"ADDRESS":"館前二路６９號","OBJECTID":4661},"geometry":{"x":171121.18724599946,"y":2550937.9330199994}},{"attributes":{"ID":4662,"DIS_CODE":0,"TOWNNAME":"安南區","LI":"原佃里","LIN":"6鄰","STREET":"本原街","SECT":"一段","MAREA":" ","LANE":"１９５巷","ALLEY":" ","HOUSE_NO":"４２號之１","E_COORD97":167695.98999999999,"N_COORD97":2550173.1099999999,"ADDRESS":"本原街一段１９５巷４２號之１","OBJECTID":4662},"geometry":{"x":167695.99000000022,"y":2550173.1100000031}},{"attributes":{"ID":4663,"DIS_CODE":0,"TOWNNAME":"安南區","LI":"東和里","LIN":"7鄰","STREET":"館前二路","SECT":" ","MAREA":" ","LANE":" ","ALLEY":" ","HOUSE_NO":"７１號","E_COORD97":171124.78729000001,"N_COORD97":2550933.9113599998,"ADDRESS":"館前二路７１號","OBJECTID":4663},"geometry":{"x":171124.78729000036,"y":2550933.9113560021}},{"attributes":{"ID":4664,"DIS_CODE":0,"TOWNNAME":"安南區","LI":"東和里","LIN":"7鄰","STREET":"館前二路","SECT":" ","MAREA":" ","LANE":" ","ALLEY":" ","HOUSE_NO":"７３號","E_COORD97":171127.54026499999,"N_COORD97":2550930.1013600002,"ADDRESS":"館前二路７３號","OBJECTID":4664},"geometry":{"x":171127.54026500043,"y":2550930.1013580021}},{"attributes":{"ID":4665,"DIS_CODE":0,"TOWNNAME":"安南區","LI":"東和里","LIN":"7鄰","STREET":"館前二路","SECT":" ","MAREA":" ","LANE":" ","ALLEY":" ","HOUSE_NO":"７５號","E_COORD97":171131.56384300001,"N_COORD97":2550926.9263599999,"ADDRESS":"館前二路７５號","OBJECTID":4665},"geometry":{"x":171131.56384300161,"y":2550926.9263600037}},{"attributes":{"ID":4666,"DIS_CODE":0,"TOWNNAME":"安南區","LI":"東和里","LIN":"7鄰","STREET":"長和路","SECT":"一段","MAREA":" ","LANE":"５７７巷","ALLEY":" ","HOUSE_NO":"２號","E_COORD97":171172.01139500001,"N_COORD97":2551074.4579500002,"ADDRESS":"長和路一段５７７巷２號","OBJECTID":4666},"geometry":{"x":171172.01139499992,"y":2551074.4579470027}},{"attributes":{"ID":4667,"DIS_CODE":0,"TOWNNAME":"安南區","LI":"東和里","LIN":"7鄰","STREET":"長和路","SECT":"一段","MAREA":" ","LANE":"５７７巷","ALLEY":" ","HOUSE_NO":"６號","E_COORD97":171167.77604900001,"N_COORD97":2551071.2829499999,"ADDRESS":"長和路一段５７７巷６號","OBJECTID":4667},"geometry":{"x":171167.77604900114,"y":2551071.2829480022}},{"attributes":{"ID":4668,"DIS_CODE":0,"TOWNNAME":"安南區","LI":"東和里","LIN":"7鄰","STREET":"長和路","SECT":"一段","MAREA":" ","LANE":" ","ALLEY":" ","HOUSE_NO":"８號","E_COORD97":171164.38777299999,"N_COORD97":2551067.68462,"ADDRESS":"長和路一段８號","OBJECTID":4668},"geometry":{"x":171164.38777300064,"y":2551067.6846169997}},{"attributes":{"ID":4669,"DIS_CODE":0,"TOWNNAME":"安南區","LI":"東和里","LIN":"7鄰","STREET":"長和路","SECT":"一段","MAREA":" ","LANE":"５７７巷","ALLEY":" ","HOUSE_NO":"１０號","E_COORD97":171160.15242699999,"N_COORD97":2551064.9329499998,"ADDRESS":"長和路一段５７７巷１０號","OBJECTID":4669},"geometry":{"x":171160.15242700186,"y":2551064.9329519998}},{"attributes":{"ID":4670,"DIS_CODE":0,"TOWNNAME":"安南區","LI":"東和里","LIN":"7鄰","STREET":"長和路","SECT":"一段","MAREA":" ","LANE":"５７７巷","ALLEY":" ","HOUSE_NO":"１２號","E_COORD97":171156.12884799999,"N_COORD97":2551061.54629,"ADDRESS":"長和路一段５７７巷１２號","OBJECTID":4670},"geometry":{"x":171156.12884800136,"y":2551061.546287002}},{"attributes":{"ID":4671,"DIS_CODE":0,"TOWNNAME":"安南區","LI":"東和里","LIN":"7鄰","STREET":"長和路","SECT":"一段","MAREA":" ","LANE":"５７７巷","ALLEY":" ","HOUSE_NO":"１６號","E_COORD97":171153.16410600001,"N_COORD97":2551057.7362899999,"ADDRESS":"長和路一段５７７巷１６號","OBJECTID":4671},"geometry":{"x":171153.16410600115,"y":2551057.7362889983}},{"attributes":{"ID":4672,"DIS_CODE":0,"TOWNNAME":"安南區","LI":"東和里","LIN":"7鄰","STREET":"長和路","SECT":"一段","MAREA":" ","LANE":"５７７巷","ALLEY":" ","HOUSE_NO":"１８號","E_COORD97":171148.92876099999,"N_COORD97":2551055.1962899999,"ADDRESS":"長和路一段５７７巷１８號","OBJECTID":4672},"geometry":{"x":171148.92876100168,"y":2551055.1962899994}},{"attributes":{"ID":4673,"DIS_CODE":0,"TOWNNAME":"安南區","LI":"東和里","LIN":"7鄰","STREET":"長和路","SECT":"一段","MAREA":" ","LANE":"５７７巷","ALLEY":" ","HOUSE_NO":"２０號","E_COORD97":171146.17578600001,"N_COORD97":2551051.3862899998,"ADDRESS":"長和路一段５７７巷２０號","OBJECTID":4673},"geometry":{"x":171146.17578599975,"y":2551051.3862920012}},{"attributes":{"ID":4674,"DIS_CODE":0,"TOWNNAME":"新營區","LI":"太北里","LIN":"18鄰","STREET":" ","SECT":" ","MAREA":"太子宮","LANE":" ","ALLEY":" ","HOUSE_NO":"９之５號","E_COORD97":176247.03,"N_COORD97":2577106.9900000002,"ADDRESS":"太子宮９之５號","OBJECTID":4674},"geometry":{"x":176247.03000000119,"y":2577106.9900000002}},{"attributes":{"ID":4675,"DIS_CODE":0,"TOWNNAME":"安南區","LI":"東和里","LIN":"7鄰","STREET":"長和路","SECT":"一段","MAREA":" ","LANE":"５７７巷","ALLEY":" ","HOUSE_NO":"２２號","E_COORD97":171141.94044000001,"N_COORD97":2551048.8462899998,"ADDRESS":"長和路一段５７７巷２２號","OBJECTID":4675},"geometry":{"x":171141.94044000003,"y":2551048.8462940007}},{"attributes":{"ID":4676,"DIS_CODE":0,"TOWNNAME":"安南區","LI":"東和里","LIN":"7鄰","STREET":"長和路","SECT":"一段","MAREA":" ","LANE":"５７７巷","ALLEY":" ","HOUSE_NO":"２６號","E_COORD97":171137.17567600001,"N_COORD97":2551045.67129,"ADDRESS":"長和路一段５７７巷２６號","OBJECTID":4676},"geometry":{"x":171137.1756760003,"y":2551045.6712950021}},{"attributes":{"ID":4677,"DIS_CODE":0,"TOWNNAME":"安南區","LI":"東和里","LIN":"7鄰","STREET":"長和路","SECT":"一段","MAREA":" ","LANE":"５７７巷","ALLEY":" ","HOUSE_NO":"２８號","E_COORD97":171133.7874,"N_COORD97":2551042.9196299999,"ADDRESS":"長和路一段５７７巷２８號","OBJECTID":4677},"geometry":{"x":171133.7873999998,"y":2551042.9196300004}},{"attributes":{"ID":4678,"DIS_CODE":0,"TOWNNAME":"安南區","LI":"東和里","LIN":"7鄰","STREET":"長和路","SECT":"一段","MAREA":" ","LANE":"５７７巷","ALLEY":" ","HOUSE_NO":"３８號","E_COORD97":171119.59899200001,"N_COORD97":2551031.7012999998,"ADDRESS":"長和路一段５７７巷３８號","OBJECTID":4678},"geometry":{"x":171119.59899200127,"y":2551031.7013029996}},{"attributes":{"ID":4679,"DIS_CODE":0,"TOWNNAME":"安南區","LI":"原佃里","LIN":"11鄰","STREET":"本原街","SECT":"一段","MAREA":" ","LANE":"９７巷","ALLEY":"１５弄","HOUSE_NO":"２之１號","E_COORD97":167990.84140999999,"N_COORD97":2550082.7666600002,"ADDRESS":"本原街一段９７巷１５弄２之１號","OBJECTID":4679},"geometry":{"x":167990.84140999895,"y":2550082.7666600011}},{"attributes":{"ID":4680,"DIS_CODE":0,"TOWNNAME":"安南區","LI":"東和里","LIN":"7鄰","STREET":"長和路","SECT":"一段","MAREA":" ","LANE":"５７７巷","ALLEY":" ","HOUSE_NO":"３０號","E_COORD97":171130.39912300001,"N_COORD97":2551039.3213,"ADDRESS":"長和路一段５７７巷３０號","OBJECTID":4680},"geometry":{"x":171130.39912299998,"y":2551039.3212990016}},{"attributes":{"ID":4681,"DIS_CODE":0,"TOWNNAME":"安南區","LI":"東和里","LIN":"7鄰","STREET":"長和路","SECT":"一段","MAREA":" ","LANE":"５７７巷","ALLEY":" ","HOUSE_NO":"３２號","E_COORD97":171126.58731199999,"N_COORD97":2551036.5696299998,"ADDRESS":"長和路一段５７７巷３２號","OBJECTID":4681},"geometry":{"x":171126.58731199987,"y":2551036.5696340017}},{"attributes":{"ID":4682,"DIS_CODE":0,"TOWNNAME":"安南區","LI":"東和里","LIN":"7鄰","STREET":"長和路","SECT":"一段","MAREA":" ","LANE":"５７７巷","ALLEY":" ","HOUSE_NO":"３６號","E_COORD97":171123.83433700001,"N_COORD97":2551034.0296399998,"ADDRESS":"長和路一段５７７巷３６號","OBJECTID":4682},"geometry":{"x":171123.83433700074,"y":2551034.029635001}},{"attributes":{"ID":4683,"DIS_CODE":0,"TOWNNAME":"安南區","LI":"東和里","LIN":"7鄰","STREET":"長和路","SECT":"一段","MAREA":" ","LANE":"５７７巷","ALLEY":" ","HOUSE_NO":"４０號","E_COORD97":171116.21071499999,"N_COORD97":2551028.7379700001,"ADDRESS":"長和路一段５７７巷４０號","OBJECTID":4683},"geometry":{"x":171116.21071500052,"y":2551028.7379710004}},{"attributes":{"ID":4684,"DIS_CODE":0,"TOWNNAME":"安南區","LI":"東和里","LIN":"7鄰","STREET":"長和路","SECT":"一段","MAREA":" ","LANE":"５７７巷","ALLEY":" ","HOUSE_NO":"４２號","E_COORD97":171112.398904,"N_COORD97":2551024.71631,"ADDRESS":"長和路一段５７７巷４２號","OBJECTID":4684},"geometry":{"x":171112.39890400134,"y":2551024.7163069993}},{"attributes":{"ID":4685,"DIS_CODE":0,"TOWNNAME":"安南區","LI":"東和里","LIN":"7鄰","STREET":"長和路","SECT":"一段","MAREA":" ","LANE":"５７７巷","ALLEY":" ","HOUSE_NO":"４６號","E_COORD97":171109.64592899999,"N_COORD97":2551022.17631,"ADDRESS":"長和路一段５７７巷４６號","OBJECTID":4685},"geometry":{"x":171109.64592900127,"y":2551022.1763080005}},{"attributes":{"ID":4686,"DIS_CODE":0,"TOWNNAME":"安南區","LI":"東和里","LIN":"7鄰","STREET":"長和路","SECT":"一段","MAREA":" ","LANE":"５７７巷","ALLEY":" ","HOUSE_NO":"５０號","E_COORD97":171105.834118,"N_COORD97":2551019.63631,"ADDRESS":"長和路一段５７７巷５０號","OBJECTID":4686},"geometry":{"x":171105.83411800209,"y":2551019.63631}},{"attributes":{"ID":4687,"DIS_CODE":0,"TOWNNAME":"安南區","LI":"學東里","LIN":"13鄰","STREET":"公學路","SECT":"七段","MAREA":" ","LANE":"９７巷","ALLEY":" ","HOUSE_NO":"８０號","E_COORD97":161646.452231,"N_COORD97":2553169.6022000001,"ADDRESS":"公學路七段９７巷８０號","OBJECTID":4687},"geometry":{"x":161646.45223100111,"y":2553169.6022030003}},{"attributes":{"ID":4688,"DIS_CODE":0,"TOWNNAME":"安南區","LI":"學東里","LIN":"13鄰","STREET":"公學路","SECT":"七段","MAREA":" ","LANE":"９７巷","ALLEY":" ","HOUSE_NO":"８２號","E_COORD97":161603.23616599999,"N_COORD97":2553146.3188800002,"ADDRESS":"公學路七段９７巷８２號","OBJECTID":4688},"geometry":{"x":161603.2361660013,"y":2553146.3188820016}},{"attributes":{"ID":4689,"DIS_CODE":0,"TOWNNAME":"安南區","LI":"東和里","LIN":"7鄰","STREET":"長和路","SECT":"一段","MAREA":" ","LANE":"５７７巷","ALLEY":" ","HOUSE_NO":"５２號","E_COORD97":171101.59877300001,"N_COORD97":2551016.8846399998,"ADDRESS":"長和路一段５７７巷５２號","OBJECTID":4689},"geometry":{"x":171101.59877299983,"y":2551016.8846439999}},{"attributes":{"ID":4690,"DIS_CODE":0,"TOWNNAME":"安南區","LI":"東和里","LIN":"7鄰","STREET":"長和路","SECT":"一段","MAREA":" ","LANE":"５７７巷","ALLEY":" ","HOUSE_NO":"５６號","E_COORD97":171099.057565,"N_COORD97":2551014.1329800002,"ADDRESS":"長和路一段５７７巷５６號","OBJECTID":4690},"geometry":{"x":171099.05756500177,"y":2551014.132979}},{"attributes":{"ID":4691,"DIS_CODE":0,"TOWNNAME":"安南區","LI":"東和里","LIN":"7鄰","STREET":"長和路","SECT":"一段","MAREA":" ","LANE":"５７７巷","ALLEY":" ","HOUSE_NO":"５８號","E_COORD97":171096.30459000001,"N_COORD97":2551010.9579799999,"ADDRESS":"長和路一段５７７巷５８號","OBJECTID":4691},"geometry":{"x":171096.30458999984,"y":2551010.9579809997}},{"attributes":{"ID":4692,"DIS_CODE":0,"TOWNNAME":"安南區","LI":"原佃里","LIN":"7鄰","STREET":"安吉路","SECT":"一段","MAREA":" ","LANE":"２９０巷","ALLEY":" ","HOUSE_NO":"４３之８號","E_COORD97":166900.07229499999,"N_COORD97":2549791.4936199998,"ADDRESS":"安吉路一段２９０巷４３之８號","OBJECTID":4692},"geometry":{"x":166900.07229499985,"y":2549791.4936170019}},{"attributes":{"ID":4693,"DIS_CODE":0,"TOWNNAME":"安南區","LI":"東和里","LIN":"7鄰","STREET":"長和路","SECT":"一段","MAREA":" ","LANE":"５７７巷","ALLEY":" ","HOUSE_NO":"６０號","E_COORD97":171092.916314,"N_COORD97":2551008.2063199999,"ADDRESS":"長和路一段５７７巷６０號","OBJECTID":4693},"geometry":{"x":171092.9163140012,"y":2551008.2063160036}},{"attributes":{"ID":4694,"DIS_CODE":0,"TOWNNAME":"安南區","LI":"東和里","LIN":"7鄰","STREET":"長和路","SECT":"一段","MAREA":" ","LANE":"５７７巷","ALLEY":" ","HOUSE_NO":"６２號","E_COORD97":171088.469201,"N_COORD97":2551004.3963199998,"ADDRESS":"長和路一段５７７巷６２號","OBJECTID":4694},"geometry":{"x":171088.46920100134,"y":2551004.3963179998}},{"attributes":{"ID":4695,"DIS_CODE":0,"TOWNNAME":"安南區","LI":"原佃里","LIN":"7鄰","STREET":"安吉路","SECT":"一段","MAREA":" ","LANE":"２９０巷","ALLEY":" ","HOUSE_NO":"４３號","E_COORD97":166991.329237,"N_COORD97":2549770.96196,"ADDRESS":"安吉路一段２９０巷４３號","OBJECTID":4695},"geometry":{"x":166991.32923700009,"y":2549770.9619619995}},{"attributes":{"ID":4696,"DIS_CODE":0,"TOWNNAME":"安南區","LI":"原佃里","LIN":"7鄰","STREET":"安吉路","SECT":"一段","MAREA":" ","LANE":"５３２巷","ALLEY":" ","HOUSE_NO":"９５號","E_COORD97":167191.416964,"N_COORD97":2550099.0451199999,"ADDRESS":"安吉路一段５３２巷９５號","OBJECTID":4696},"geometry":{"x":167191.41696400009,"y":2550099.0451180004}},{"attributes":{"ID":4697,"DIS_CODE":0,"TOWNNAME":"安南區","LI":"原佃里","LIN":"7鄰","STREET":"安吉路","SECT":"一段","MAREA":" ","LANE":"５３２巷","ALLEY":" ","HOUSE_NO":"８１號","E_COORD97":167141.65969900001,"N_COORD97":2550097.98679,"ADDRESS":"安吉路一段５３２巷８１號","OBJECTID":4697},"geometry":{"x":167141.65969900228,"y":2550097.9867850021}},{"attributes":{"ID":4698,"DIS_CODE":0,"TOWNNAME":"仁德區","LI":"後壁里","LIN":"12鄰","STREET":"德南路","SECT":" ","MAREA":" ","LANE":"２５１巷","ALLEY":" ","HOUSE_NO":"７６號","E_COORD97":173921.29130700001,"N_COORD97":2538514.53266,"ADDRESS":"德南路２５１巷７６號","OBJECTID":4698},"geometry":{"x":173921.29130700137,"y":2538514.5326600019}},{"attributes":{"ID":4699,"DIS_CODE":0,"TOWNNAME":"仁德區","LI":"後壁里","LIN":"12鄰","STREET":"德南路","SECT":" ","MAREA":" ","LANE":"２５１巷","ALLEY":" ","HOUSE_NO":"７８號","E_COORD97":173924.89196800001,"N_COORD97":2538515.80266,"ADDRESS":"德南路２５１巷７８號","OBJECTID":4699},"geometry":{"x":173924.89196800161,"y":2538515.8026600014}},{"attributes":{"ID":4700,"DIS_CODE":0,"TOWNNAME":"六甲區","LI":"甲東里","LIN":"19鄰","STREET":"裕農街","SECT":" ","MAREA":" ","LANE":"４１巷","ALLEY":" ","HOUSE_NO":"２號","E_COORD97":184098.23570300001,"N_COORD97":2569706.80436,"ADDRESS":"裕農街４１巷２號","OBJECTID":4700},"geometry":{"x":184098.2357030008,"y":2569706.8043620009}},{"attributes":{"ID":4701,"DIS_CODE":0,"TOWNNAME":"安南區","LI":"學東里","LIN":"13鄰","STREET":"公學路","SECT":"七段","MAREA":" ","LANE":"９７巷","ALLEY":" ","HOUSE_NO":"８１號","E_COORD97":161734.15542200001,"N_COORD97":2553068.4255900001,"ADDRESS":"公學路七段９７巷８１號","OBJECTID":4701},"geometry":{"x":161734.15542200115,"y":2553068.4255910013}},{"attributes":{"ID":4702,"DIS_CODE":0,"TOWNNAME":"安南區","LI":"原佃里","LIN":"7鄰","STREET":"安吉路","SECT":"一段","MAREA":" ","LANE":"５３２巷","ALLEY":"９７弄","HOUSE_NO":"１１號","E_COORD97":167169.820194,"N_COORD97":2550164.8734200001,"ADDRESS":"安吉路一段５３２巷９７弄１１號","OBJECTID":4702},"geometry":{"x":167169.82019400038,"y":2550164.873416001}},{"attributes":{"ID":4703,"DIS_CODE":0,"TOWNNAME":"安南區","LI":"原佃里","LIN":"5鄰","STREET":"本原街","SECT":"一段","MAREA":" ","LANE":"２６２巷","ALLEY":" ","HOUSE_NO":"６１號","E_COORD97":167654.477132,"N_COORD97":2550833.73972,"ADDRESS":"本原街一段２６２巷６１號","OBJECTID":4703},"geometry":{"x":167654.47713200096,"y":2550833.7397210002}},{"attributes":{"ID":4704,"DIS_CODE":0,"TOWNNAME":"山上區","LI":"平陽里","LIN":"4鄰","STREET":" ","SECT":" ","MAREA":"石子崎","LANE":" ","ALLEY":" ","HOUSE_NO":"５６號","E_COORD97":186430.787878,"N_COORD97":2554204.8100999999,"ADDRESS":"石子崎５６號","OBJECTID":4704},"geometry":{"x":186430.78787800204,"y":2554204.8101040013}},{"attributes":{"ID":4705,"DIS_CODE":0,"TOWNNAME":"安南區","LI":"學東里","LIN":"14鄰","STREET":"公學路","SECT":"七段","MAREA":" ","LANE":"１１３巷","ALLEY":" ","HOUSE_NO":"２２號","E_COORD97":161696.87097399999,"N_COORD97":2553363.4887600001,"ADDRESS":"公學路七段１１３巷２２號","OBJECTID":4705},"geometry":{"x":161696.87097400054,"y":2553363.4887649994}},{"attributes":{"ID":4706,"DIS_CODE":0,"TOWNNAME":"安南區","LI":"學東里","LIN":"16鄰","STREET":"城北路","SECT":" ","MAREA":" ","LANE":"８６６巷","ALLEY":"１０５弄","HOUSE_NO":"５號","E_COORD97":161109.640915,"N_COORD97":2553167.4855399998,"ADDRESS":"城北路８６６巷１０５弄５號","OBJECTID":4706},"geometry":{"x":161109.64091500081,"y":2553167.4855369981}},{"attributes":{"ID":4707,"DIS_CODE":0,"TOWNNAME":"安南區","LI":"原佃里","LIN":"5鄰","STREET":"本原街","SECT":"一段","MAREA":" ","LANE":"２５０巷","ALLEY":" ","HOUSE_NO":"２１號","E_COORD97":167735.99435399999,"N_COORD97":2550513.4882299998,"ADDRESS":"本原街一段２５０巷２１號","OBJECTID":4707},"geometry":{"x":167735.99435400032,"y":2550513.4882280044}},{"attributes":{"ID":4708,"DIS_CODE":0,"TOWNNAME":"安南區","LI":"原佃里","LIN":"5鄰","STREET":"本原街","SECT":"一段","MAREA":" ","LANE":"２５０巷","ALLEY":" ","HOUSE_NO":"１０１號","E_COORD97":167843.97820700001,"N_COORD97":2550685.3614699999,"ADDRESS":"本原街一段２５０巷１０１號","OBJECTID":4708},"geometry":{"x":167843.9782069996,"y":2550685.3614680003}},{"attributes":{"ID":4709,"DIS_CODE":0,"TOWNNAME":"安南區","LI":"學東里","LIN":"15鄰","STREET":"城北路","SECT":" ","MAREA":" ","LANE":"８００巷","ALLEY":" ","HOUSE_NO":"２３之１號","E_COORD97":160999.694162,"N_COORD97":2553201.9871899998,"ADDRESS":"城北路８００巷２３之１號","OBJECTID":4709},"geometry":{"x":160999.69416200183,"y":2553201.9871849995}},{"attributes":{"ID":4710,"DIS_CODE":0,"TOWNNAME":"安南區","LI":"原佃里","LIN":"1鄰","STREET":"怡安路","SECT":"二段","MAREA":" ","LANE":" ","ALLEY":" ","HOUSE_NO":"４６８之２號","E_COORD97":167533.154098,"N_COORD97":2549479.49712,"ADDRESS":"怡安路二段４６８之２號","OBJECTID":4710},"geometry":{"x":167533.15409800131,"y":2549479.4971190002}},{"attributes":{"ID":4711,"DIS_CODE":0,"TOWNNAME":"安南區","LI":"學東里","LIN":"15鄰","STREET":"城北路","SECT":" ","MAREA":" ","LANE":" ","ALLEY":" ","HOUSE_NO":"７７８之１號","E_COORD97":160935.71743799999,"N_COORD97":2553138.48722,"ADDRESS":"城北路７７８之１號","OBJECTID":4711},"geometry":{"x":160935.71743800025,"y":2553138.4872200005}},{"attributes":{"ID":4712,"DIS_CODE":0,"TOWNNAME":"佳里區","LI":"建南里","LIN":"26鄰","STREET":"安南路","SECT":" ","MAREA":" ","LANE":"３１６巷","ALLEY":"２６弄","HOUSE_NO":"３０號","E_COORD97":165379.744489,"N_COORD97":2561392.0592399999,"ADDRESS":"安南路３１６巷２６弄３０號","OBJECTID":4712},"geometry":{"x":165379.74448900018,"y":2561392.0592419989}},{"attributes":{"ID":4713,"DIS_CODE":0,"TOWNNAME":"佳里區","LI":"建南里","LIN":"26鄰","STREET":"安南路","SECT":" ","MAREA":" ","LANE":"３１６巷","ALLEY":"２６弄","HOUSE_NO":"３２號","E_COORD97":165384.07526700001,"N_COORD97":2561398.8177499999,"ADDRESS":"安南路３１６巷２６弄３２號","OBJECTID":4713},"geometry":{"x":165384.07526700199,"y":2561398.8177470006}},{"attributes":{"ID":4714,"DIS_CODE":0,"TOWNNAME":"佳里區","LI":"建南里","LIN":"26鄰","STREET":"安南路","SECT":" ","MAREA":" ","LANE":"３１６巷","ALLEY":"２６弄","HOUSE_NO":"３６號","E_COORD97":165387.323351,"N_COORD97":2561405.3059100001,"ADDRESS":"安南路３１６巷２６弄３６號","OBJECTID":4714},"geometry":{"x":165387.32335100137,"y":2561405.3059120011}},{"attributes":{"ID":4715,"DIS_CODE":0,"TOWNNAME":"下營區","LI":"後街里","LIN":"7鄰","STREET":"中正北路","SECT":" ","MAREA":" ","LANE":"１０３巷","ALLEY":" ","HOUSE_NO":"２號","E_COORD97":174408.692633,"N_COORD97":2570775.0553899999,"ADDRESS":"中正北路１０３巷２號","OBJECTID":4715},"geometry":{"x":174408.69263300113,"y":2570775.0553940032}},{"attributes":{"ID":4716,"DIS_CODE":0,"TOWNNAME":"佳里區","LI":"建南里","LIN":"26鄰","STREET":"安南路","SECT":" ","MAREA":" ","LANE":"３１６巷","ALLEY":"２６弄","HOUSE_NO":"３號","E_COORD97":165395.984906,"N_COORD97":2561433.42129,"ADDRESS":"安南路３１６巷２６弄３號","OBJECTID":4716},"geometry":{"x":165395.98490600102,"y":2561433.421294}},{"attributes":{"ID":4717,"DIS_CODE":0,"TOWNNAME":"佳里區","LI":"通興里","LIN":"3鄰","STREET":" ","SECT":" ","MAREA":" ","LANE":" ","ALLEY":" ","HOUSE_NO":"３２號之３","E_COORD97":163779.93139499999,"N_COORD97":2559537.66805,"ADDRESS":"３２號之３","OBJECTID":4717},"geometry":{"x":163779.93139499985,"y":2559537.6680500004}},{"attributes":{"ID":4718,"DIS_CODE":0,"TOWNNAME":"安南區","LI":"學東里","LIN":"15鄰","STREET":"城北路","SECT":" ","MAREA":" ","LANE":" ","ALLEY":" ","HOUSE_NO":"９６０之１１號","E_COORD97":160968.553174,"N_COORD97":2553394.6037499998,"ADDRESS":"城北路９６０之１１號","OBJECTID":4718},"geometry":{"x":160968.55317400116,"y":2553394.603748003}},{"attributes":{"ID":4719,"DIS_CODE":0,"TOWNNAME":"安南區","LI":"原佃里","LIN":"8鄰","STREET":"怡安路","SECT":"二段","MAREA":" ","LANE":"５１６巷","ALLEY":" ","HOUSE_NO":"１２０號","E_COORD97":167509.43999700001,"N_COORD97":2549711.0603299998,"ADDRESS":"怡安路二段５１６巷１２０號","OBJECTID":4719},"geometry":{"x":167509.43999700155,"y":2549711.0603279974}},{"attributes":{"ID":4720,"DIS_CODE":0,"TOWNNAME":"安南區","LI":"學東里","LIN":"15鄰","STREET":"城北路","SECT":" ","MAREA":" ","LANE":" ","ALLEY":" ","HOUSE_NO":"９６０號之１２","E_COORD97":160968.765017,"N_COORD97":2553407.9387400001,"ADDRESS":"城北路９６０號之１２","OBJECTID":4720},"geometry":{"x":160968.76501700096,"y":2553407.9387410004}},{"attributes":{"ID":4721,"DIS_CODE":0,"TOWNNAME":"安南區","LI":"學東里","LIN":"15鄰","STREET":"城北路","SECT":" ","MAREA":" ","LANE":" ","ALLEY":" ","HOUSE_NO":"９６０號","E_COORD97":160962.83340100001,"N_COORD97":2553453.4470500001,"ADDRESS":"城北路９６０號","OBJECTID":4721},"geometry":{"x":160962.83340100199,"y":2553453.4470500015}},{"attributes":{"ID":4722,"DIS_CODE":0,"TOWNNAME":"下營區","LI":"茅港里","LIN":"1鄰","STREET":" ","SECT":" ","MAREA":"茅港尾","LANE":" ","ALLEY":" ","HOUSE_NO":"２號","E_COORD97":176737.98761499999,"N_COORD97":2569276.2741700001,"ADDRESS":"茅港尾２號","OBJECTID":4722},"geometry":{"x":176737.98761500139,"y":2569276.2741749994}},{"attributes":{"ID":4723,"DIS_CODE":0,"TOWNNAME":"六甲區","LI":"中社里","LIN":"17鄰","STREET":" ","SECT":" ","MAREA":"林鳳營","LANE":" ","ALLEY":" ","HOUSE_NO":"１１１之８號","E_COORD97":179920.752951,"N_COORD97":2571510.7627900001,"ADDRESS":"林鳳營１１１之８號","OBJECTID":4723},"geometry":{"x":179920.75295100082,"y":2571510.7627870012}},{"attributes":{"ID":4724,"DIS_CODE":0,"TOWNNAME":"佳里區","LI":"建南里","LIN":"26鄰","STREET":"安南路","SECT":" ","MAREA":" ","LANE":"３１６巷","ALLEY":"２６弄","HOUSE_NO":"４０號","E_COORD97":165392.19547599999,"N_COORD97":2561411.7940799999,"ADDRESS":"安南路３１６巷２６弄４０號","OBJECTID":4724},"geometry":{"x":165392.19547600113,"y":2561411.7940770015}},{"attributes":{"ID":4725,"DIS_CODE":0,"TOWNNAME":"安南區","LI":"原佃里","LIN":"6鄰","STREET":"怡安路","SECT":"二段","MAREA":" ","LANE":"５１６巷","ALLEY":" ","HOUSE_NO":"１５１號","E_COORD97":167547.76367799999,"N_COORD97":2549802.9236099999,"ADDRESS":"怡安路二段５１６巷１５１號","OBJECTID":4725},"geometry":{"x":167547.76367800031,"y":2549802.9236110002}},{"attributes":{"ID":4726,"DIS_CODE":0,"TOWNNAME":"佳里區","LI":"建南里","LIN":"26鄰","STREET":"安南路","SECT":" ","MAREA":" ","LANE":"３１６巷","ALLEY":"２６弄","HOUSE_NO":"４２號","E_COORD97":165395.984906,"N_COORD97":2561418.5525799999,"ADDRESS":"安南路３１６巷２６弄４２號","OBJECTID":4726},"geometry":{"x":165395.98490600102,"y":2561418.5525819995}},{"attributes":{"ID":4727,"DIS_CODE":0,"TOWNNAME":"佳里區","LI":"建南里","LIN":"26鄰","STREET":"安南路","SECT":" ","MAREA":" ","LANE":"３１６巷","ALLEY":"２６弄","HOUSE_NO":"４６號","E_COORD97":165399.23298999999,"N_COORD97":2561417.74156,"ADDRESS":"安南路３１６巷２６弄４６號","OBJECTID":4727},"geometry":{"x":165399.2329900004,"y":2561417.7415619977}},{"attributes":{"ID":4728,"DIS_CODE":0,"TOWNNAME":"佳里區","LI":"建南里","LIN":"26鄰","STREET":"安南路","SECT":" ","MAREA":" ","LANE":"３１６巷","ALLEY":"２６弄","HOUSE_NO":"５０號","E_COORD97":165405.99982999999,"N_COORD97":2561414.2271400001,"ADDRESS":"安南路３１６巷２６弄５０號","OBJECTID":4728},"geometry":{"x":165405.99983000103,"y":2561414.2271390017}},{"attributes":{"ID":4729,"DIS_CODE":0,"TOWNNAME":"安南區","LI":"學東里","LIN":"16鄰","STREET":"城北路","SECT":" ","MAREA":" ","LANE":"７３６巷","ALLEY":"１３９弄","HOUSE_NO":"２７號","E_COORD97":161277.63277500001,"N_COORD97":2553114.5688999998,"ADDRESS":"城北路７３６巷１３９弄２７號","OBJECTID":4729},"geometry":{"x":161277.6327750003,"y":2553114.5688990019}},{"attributes":{"ID":4730,"DIS_CODE":0,"TOWNNAME":"佳里區","LI":"鎮山里","LIN":"1鄰","STREET":"平等街","SECT":" ","MAREA":" ","LANE":" ","ALLEY":" ","HOUSE_NO":"１３９號","E_COORD97":165823.29900500001,"N_COORD97":2561880.5766199999,"ADDRESS":"平等街１３９號","OBJECTID":4730},"geometry":{"x":165823.29900499992,"y":2561880.5766200013}},{"attributes":{"ID":4731,"DIS_CODE":0,"TOWNNAME":"佳里區","LI":"鎮山里","LIN":"3鄰","STREET":"延平路","SECT":" ","MAREA":" ","LANE":" ","ALLEY":" ","HOUSE_NO":"７１號","E_COORD97":165939.66429099999,"N_COORD97":2561738.76871,"ADDRESS":"延平路７１號","OBJECTID":4731},"geometry":{"x":165939.66429100093,"y":2561738.7687119991}},{"attributes":{"ID":4732,"DIS_CODE":0,"TOWNNAME":"佳里區","LI":"鎮山里","LIN":"8鄰","STREET":"佳東路","SECT":" ","MAREA":" ","LANE":" ","ALLEY":" ","HOUSE_NO":"９８號","E_COORD97":166461.88066900001,"N_COORD97":2561576.2739300001,"ADDRESS":"佳東路９８號","OBJECTID":4732},"geometry":{"x":166461.88066900149,"y":2561576.2739260029}},{"attributes":{"ID":4733,"DIS_CODE":0,"TOWNNAME":"安南區","LI":"原佃里","LIN":"5鄰","STREET":"本原街","SECT":"一段","MAREA":" ","LANE":"２６２巷","ALLEY":" ","HOUSE_NO":"５９號之１","E_COORD97":167597.29999999999,"N_COORD97":2550746.2400000002,"ADDRESS":"本原街一段２６２巷５９號之１","OBJECTID":4733},"geometry":{"x":167597.29999999888,"y":2550746.2400000039}},{"attributes":{"ID":4734,"DIS_CODE":0,"TOWNNAME":"安南區","LI":"學東里","LIN":"17鄰","STREET":"安明路","SECT":"四段","MAREA":" ","LANE":" ","ALLEY":" ","HOUSE_NO":"７８５號","E_COORD97":161314.59428200001,"N_COORD97":2552337.1176499999,"ADDRESS":"安明路四段７８５號","OBJECTID":4734},"geometry":{"x":161314.59428200126,"y":2552337.117651999}},{"attributes":{"ID":4735,"DIS_CODE":0,"TOWNNAME":"安南區","LI":"原佃里","LIN":"8鄰","STREET":"安中路","SECT":"二段","MAREA":" ","LANE":"２巷","ALLEY":" ","HOUSE_NO":"１１２號","E_COORD97":167233.04884500001,"N_COORD97":2549710.7890300001,"ADDRESS":"安中路二段２巷１１２號","OBJECTID":4735},"geometry":{"x":167233.04884500057,"y":2549710.7890330013}},{"attributes":{"ID":4736,"DIS_CODE":0,"TOWNNAME":"佳里區","LI":"東寧里","LIN":"12鄰","STREET":"和平街","SECT":" ","MAREA":" ","LANE":" ","ALLEY":" ","HOUSE_NO":"２０號之１","E_COORD97":166041.499977,"N_COORD97":2562530.6194600002,"ADDRESS":"和平街２０號之１","OBJECTID":4736},"geometry":{"x":166041.49997700006,"y":2562530.6194640025}},{"attributes":{"ID":4737,"DIS_CODE":0,"TOWNNAME":"安南區","LI":"東和里","LIN":"7鄰","STREET":"長和路","SECT":"一段","MAREA":" ","LANE":"５７７巷","ALLEY":" ","HOUSE_NO":"１號","E_COORD97":171186.49756399999,"N_COORD97":2551059.4296200001,"ADDRESS":"長和路一段５７７巷１號","OBJECTID":4737},"geometry":{"x":171186.49756400008,"y":2551059.4296210017}},{"attributes":{"ID":4738,"DIS_CODE":0,"TOWNNAME":"山上區","LI":"平陽里","LIN":"4鄰","STREET":" ","SECT":" ","MAREA":"石子崎","LANE":" ","ALLEY":" ","HOUSE_NO":"８０號","E_COORD97":186367.2262,"N_COORD97":2554348.3200300001,"ADDRESS":"石子崎８０號","OBJECTID":4738},"geometry":{"x":186367.22620000225,"y":2554348.320026001}},{"attributes":{"ID":4739,"DIS_CODE":0,"TOWNNAME":"新營區","LI":"太北里","LIN":"4鄰","STREET":" ","SECT":" ","MAREA":"太子宮","LANE":" ","ALLEY":" ","HOUSE_NO":"２６號","E_COORD97":176124.17031099999,"N_COORD97":2577336.38674,"ADDRESS":"太子宮２６號","OBJECTID":4739},"geometry":{"x":176124.17031100206,"y":2577336.3867399991}},{"attributes":{"ID":4740,"DIS_CODE":0,"TOWNNAME":"安南區","LI":"東和里","LIN":"7鄰","STREET":"長和路","SECT":"一段","MAREA":" ","LANE":"５７７巷","ALLEY":" ","HOUSE_NO":"１號","E_COORD97":171186.49756399999,"N_COORD97":2551059.4296200001,"ADDRESS":"長和路一段５７７巷１號","OBJECTID":4740},"geometry":{"x":171186.49756400008,"y":2551059.4296210017}},{"attributes":{"ID":4741,"DIS_CODE":0,"TOWNNAME":"安南區","LI":"東和里","LIN":"7鄰","STREET":"長和路","SECT":"一段","MAREA":" ","LANE":"５７７巷","ALLEY":" ","HOUSE_NO":"３號","E_COORD97":171182.89752,"N_COORD97":2551055.8312900001,"ADDRESS":"長和路一段５７７巷３號","OBJECTID":4741},"geometry":{"x":171182.89752000105,"y":2551055.8312899992}},{"attributes":{"ID":4742,"DIS_CODE":0,"TOWNNAME":"安南區","LI":"東和里","LIN":"7鄰","STREET":"長和路","SECT":"一段","MAREA":" ","LANE":"５７７巷","ALLEY":" ","HOUSE_NO":"５號","E_COORD97":171178.662174,"N_COORD97":2551052.6562899998,"ADDRESS":"長和路一段５７７巷５號","OBJECTID":4742},"geometry":{"x":171178.6621740004,"y":2551052.6562919989}},{"attributes":{"ID":4743,"DIS_CODE":0,"TOWNNAME":"安南區","LI":"東和里","LIN":"7鄰","STREET":"長和路","SECT":"一段","MAREA":" ","LANE":"５７７巷","ALLEY":" ","HOUSE_NO":"７號","E_COORD97":171174.638596,"N_COORD97":2551048.8462899998,"ADDRESS":"長和路一段５７７巷７號","OBJECTID":4743},"geometry":{"x":171174.63859600201,"y":2551048.8462940007}},{"attributes":{"ID":4744,"DIS_CODE":0,"TOWNNAME":"安南區","LI":"東和里","LIN":"7鄰","STREET":"長和路","SECT":"一段","MAREA":" ","LANE":"５７７巷","ALLEY":" ","HOUSE_NO":"９號","E_COORD97":171171.03855200001,"N_COORD97":2551045.2479599998,"ADDRESS":"長和路一段５７７巷９號","OBJECTID":4744},"geometry":{"x":171171.03855200112,"y":2551045.2479620036}},{"attributes":{"ID":4745,"DIS_CODE":0,"TOWNNAME":"安南區","LI":"東和里","LIN":"7鄰","STREET":"長和路","SECT":"一段","MAREA":" ","LANE":"５７７巷","ALLEY":" ","HOUSE_NO":"１１號","E_COORD97":171167.65027499999,"N_COORD97":2551042.2846300001,"ADDRESS":"長和路一段５７７巷１１號","OBJECTID":4745},"geometry":{"x":171167.65027500037,"y":2551042.2846310008}},{"attributes":{"ID":4746,"DIS_CODE":0,"TOWNNAME":"安南區","LI":"東和里","LIN":"7鄰","STREET":"長和路","SECT":"一段","MAREA":" ","LANE":"５７７巷","ALLEY":" ","HOUSE_NO":"１３號","E_COORD97":171165.532603,"N_COORD97":2551038.4746300001,"ADDRESS":"長和路一段５７７巷１３號","OBJECTID":4746},"geometry":{"x":171165.53260300029,"y":2551038.4746330008}},{"attributes":{"ID":4747,"DIS_CODE":0,"TOWNNAME":"安南區","LI":"東和里","LIN":"7鄰","STREET":"長和路","SECT":"一段","MAREA":" ","LANE":"５７７巷","ALLEY":" ","HOUSE_NO":"１５號","E_COORD97":171160.45018799999,"N_COORD97":2551035.2996299998,"ADDRESS":"長和路一段５７７巷１５號","OBJECTID":4747},"geometry":{"x":171160.45018800069,"y":2551035.2996340021}},{"attributes":{"ID":4748,"DIS_CODE":0,"TOWNNAME":"安南區","LI":"東和里","LIN":"7鄰","STREET":"長和路","SECT":"一段","MAREA":" ","LANE":"５７７巷","ALLEY":" ","HOUSE_NO":"１７號","E_COORD97":171156.42660899999,"N_COORD97":2551032.1246400001,"ADDRESS":"長和路一段５７７巷１７號","OBJECTID":4748},"geometry":{"x":171156.42660900019,"y":2551032.1246360019}},{"attributes":{"ID":4749,"DIS_CODE":0,"TOWNNAME":"安南區","LI":"東和里","LIN":"7鄰","STREET":"長和路","SECT":"一段","MAREA":" ","LANE":"５７７巷","ALLEY":" ","HOUSE_NO":"１９號","E_COORD97":171153.2501,"N_COORD97":2551029.1612999998,"ADDRESS":"長和路一段５７７巷１９號","OBJECTID":4749},"geometry":{"x":171153.25010000076,"y":2551029.1613039989}},{"attributes":{"ID":4750,"DIS_CODE":0,"TOWNNAME":"安南區","LI":"東和里","LIN":"7鄰","STREET":"長和路","SECT":"一段","MAREA":" ","LANE":"５７７巷","ALLEY":" ","HOUSE_NO":"２１號","E_COORD97":171149.65005600001,"N_COORD97":2551025.5629699999,"ADDRESS":"長和路一段５７７巷２１號","OBJECTID":4750},"geometry":{"x":171149.65005599987,"y":2551025.562973002}},{"attributes":{"ID":4751,"DIS_CODE":0,"TOWNNAME":"安南區","LI":"東和里","LIN":"7鄰","STREET":"長和路","SECT":"一段","MAREA":" ","LANE":"５７７巷","ALLEY":" ","HOUSE_NO":"２３號","E_COORD97":171145.20294300001,"N_COORD97":2551022.5996400001,"ADDRESS":"長和路一段５７７巷２３號","OBJECTID":4751},"geometry":{"x":171145.20294300001,"y":2551022.599640999}},{"attributes":{"ID":4752,"DIS_CODE":0,"TOWNNAME":"安南區","LI":"東和里","LIN":"7鄰","STREET":"長和路","SECT":"一段","MAREA":" ","LANE":"５７７巷","ALLEY":" ","HOUSE_NO":"２５號","E_COORD97":171141.814667,"N_COORD97":2551019.63631,"ADDRESS":"長和路一段５７７巷２５號","OBJECTID":4752},"geometry":{"x":171141.81466700137,"y":2551019.63631}},{"attributes":{"ID":4753,"DIS_CODE":0,"TOWNNAME":"安南區","LI":"東和里","LIN":"7鄰","STREET":"長和路","SECT":"一段","MAREA":" ","LANE":"５７７巷","ALLEY":" ","HOUSE_NO":"２７號","E_COORD97":171139.27345899999,"N_COORD97":2551016.6729799998,"ADDRESS":"長和路一段５７７巷２７號","OBJECTID":4753},"geometry":{"x":171139.27345900051,"y":2551016.6729779989}},{"attributes":{"ID":4754,"DIS_CODE":0,"TOWNNAME":"中西區","LI":"協進里","LIN":"9鄰","STREET":"民權路","SECT":"三段","MAREA":" ","LANE":" ","ALLEY":" ","HOUSE_NO":"３６９號","E_COORD97":166923.043358,"N_COORD97":2544340.4456600002,"ADDRESS":"民權路三段３６９號","OBJECTID":4754},"geometry":{"x":166923.04335800093,"y":2544340.4456560016}},{"attributes":{"ID":4755,"DIS_CODE":0,"TOWNNAME":"安南區","LI":"東和里","LIN":"7鄰","STREET":"長和路","SECT":"一段","MAREA":" ","LANE":"５７７巷","ALLEY":" ","HOUSE_NO":"４５號","E_COORD97":171109.837807,"N_COORD97":2550989.1563300001,"ADDRESS":"長和路一段５７７巷４５號","OBJECTID":4755},"geometry":{"x":171109.83780700061,"y":2550989.1563260015}},{"attributes":{"ID":4756,"DIS_CODE":0,"TOWNNAME":"安南區","LI":"東和里","LIN":"7鄰","STREET":"長和路","SECT":"一段","MAREA":" ","LANE":"５７７巷","ALLEY":" ","HOUSE_NO":"５１號","E_COORD97":171105.602461,"N_COORD97":2550985.7696600002,"ADDRESS":"長和路一段５７７巷５１號","OBJECTID":4756},"geometry":{"x":171105.60246099904,"y":2550985.7696610019}},{"attributes":{"ID":4757,"DIS_CODE":0,"TOWNNAME":"安南區","LI":"東和里","LIN":"7鄰","STREET":"長和路","SECT":"一段","MAREA":" ","LANE":"５７７巷","ALLEY":" ","HOUSE_NO":"４３號","E_COORD97":171113.01431599999,"N_COORD97":2550992.7546600001,"ADDRESS":"長和路一段５７７巷４３號","OBJECTID":4757},"geometry":{"x":171113.01431600004,"y":2550992.7546570003}},{"attributes":{"ID":4758,"DIS_CODE":0,"TOWNNAME":"玉井區","LI":"玉田里","LIN":"17鄰","STREET":" ","SECT":" ","MAREA":"玉田","LANE":" ","ALLEY":" ","HOUSE_NO":"２１７之２號","E_COORD97":193860.71848899999,"N_COORD97":2557588.4766799998,"ADDRESS":"玉田２１７之２號","OBJECTID":4758},"geometry":{"x":193860.71848900057,"y":2557588.4766790029}},{"attributes":{"ID":4759,"DIS_CODE":0,"TOWNNAME":"安南區","LI":"東和里","LIN":"7鄰","STREET":"長和路","SECT":"一段","MAREA":" ","LANE":"５７７巷","ALLEY":" ","HOUSE_NO":"４１號","E_COORD97":171116.190825,"N_COORD97":2550995.7179899998,"ADDRESS":"長和路一段５７７巷４１號","OBJECTID":4759},"geometry":{"x":171116.19082500227,"y":2550995.7179890014}},{"attributes":{"ID":4760,"DIS_CODE":0,"TOWNNAME":"安南區","LI":"東和里","LIN":"7鄰","STREET":"長和路","SECT":"一段","MAREA":" ","LANE":"５７７巷","ALLEY":" ","HOUSE_NO":"３９號","E_COORD97":171119.57910199999,"N_COORD97":2550998.4696499999,"ADDRESS":"長和路一段５７７巷３９號","OBJECTID":4760},"geometry":{"x":171119.57910200208,"y":2550998.4696539994}},{"attributes":{"ID":4761,"DIS_CODE":0,"TOWNNAME":"安南區","LI":"東和里","LIN":"7鄰","STREET":"長和路","SECT":"一段","MAREA":" ","LANE":"５７７巷","ALLEY":" ","HOUSE_NO":"３７號","E_COORD97":171122.967378,"N_COORD97":2551001.6446500001,"ADDRESS":"長和路一段５７７巷３７號","OBJECTID":4761},"geometry":{"x":171122.9673779998,"y":2551001.6446530018}},{"attributes":{"ID":4762,"DIS_CODE":0,"TOWNNAME":"安南區","LI":"東和里","LIN":"7鄰","STREET":"長和路","SECT":"一段","MAREA":" ","LANE":"５７７巷","ALLEY":" ","HOUSE_NO":"３５號","E_COORD97":171126.35565499999,"N_COORD97":2551004.81965,"ADDRESS":"長和路一段５７７巷３５號","OBJECTID":4762},"geometry":{"x":171126.35565499961,"y":2551004.8196510021}},{"attributes":{"ID":4763,"DIS_CODE":0,"TOWNNAME":"安南區","LI":"東和里","LIN":"7鄰","STREET":"長和路","SECT":"一段","MAREA":" ","LANE":"５７７巷","ALLEY":" ","HOUSE_NO":"３３號","E_COORD97":171129.743931,"N_COORD97":2551008.4179799999,"ADDRESS":"長和路一段５７７巷３３號","OBJECTID":4763},"geometry":{"x":171129.74393100105,"y":2551008.4179820009}},{"attributes":{"ID":4764,"DIS_CODE":0,"TOWNNAME":"安南區","LI":"東和里","LIN":"7鄰","STREET":"長和路","SECT":"一段","MAREA":" ","LANE":"５７７巷","ALLEY":" ","HOUSE_NO":"３１號","E_COORD97":171133.555743,"N_COORD97":2551010.7463099998,"ADDRESS":"長和路一段５７７巷３１號","OBJECTID":4764},"geometry":{"x":171133.55574299954,"y":2551010.7463140022}},{"attributes":{"ID":4765,"DIS_CODE":0,"TOWNNAME":"安南區","LI":"東和里","LIN":"7鄰","STREET":"長和路","SECT":"一段","MAREA":" ","LANE":"５７７巷","ALLEY":" ","HOUSE_NO":"２９號","E_COORD97":171136.30871700001,"N_COORD97":2551013.7096500001,"ADDRESS":"長和路一段５７７巷２９號","OBJECTID":4765},"geometry":{"x":171136.3087170003,"y":2551013.7096460015}},{"attributes":{"ID":4766,"DIS_CODE":0,"TOWNNAME":"山上區","LI":"平陽里","LIN":"4鄰","STREET":" ","SECT":" ","MAREA":"石子崎","LANE":" ","ALLEY":" ","HOUSE_NO":"５２號之３","E_COORD97":186444.347702,"N_COORD97":2554193.5087299999,"ADDRESS":"石子崎５２號之３","OBJECTID":4766},"geometry":{"x":186444.34770200122,"y":2554193.508733999}},{"attributes":{"ID":4767,"DIS_CODE":0,"TOWNNAME":"安南區","LI":"東和里","LIN":"7鄰","STREET":"長和路","SECT":"一段","MAREA":" ","LANE":"５５９巷","ALLEY":" ","HOUSE_NO":"３６號","E_COORD97":171155.57954000001,"N_COORD97":2550999.95132,"ADDRESS":"長和路一段５５９巷３６號","OBJECTID":4767},"geometry":{"x":171155.57954000123,"y":2550999.95132}},{"attributes":{"ID":4768,"DIS_CODE":0,"TOWNNAME":"安南區","LI":"東和里","LIN":"7鄰","STREET":"長和路","SECT":"一段","MAREA":" ","LANE":"５５９巷","ALLEY":" ","HOUSE_NO":"３２號","E_COORD97":171158.33251000001,"N_COORD97":2551002.49131,"ADDRESS":"長和路一段５５９巷３２號","OBJECTID":4768},"geometry":{"x":171158.33251000009,"y":2551002.4913100004}},{"attributes":{"ID":4769,"DIS_CODE":0,"TOWNNAME":"安南區","LI":"東和里","LIN":"7鄰","STREET":"長和路","SECT":"一段","MAREA":" ","LANE":"５５９巷","ALLEY":" ","HOUSE_NO":"３０號","E_COORD97":171161.50902,"N_COORD97":2551005.2429800001,"ADDRESS":"長和路一段５５９巷３０號","OBJECTID":4769},"geometry":{"x":171161.5090200007,"y":2551005.2429799996}},{"attributes":{"ID":4770,"DIS_CODE":0,"TOWNNAME":"安南區","LI":"東和里","LIN":"7鄰","STREET":"長和路","SECT":"一段","MAREA":" ","LANE":"５５９巷","ALLEY":" ","HOUSE_NO":"２８號","E_COORD97":171165.53260000001,"N_COORD97":2551008.4179799999,"ADDRESS":"長和路一段５５９巷２８號","OBJECTID":4770},"geometry":{"x":171165.5326000005,"y":2551008.4179800022}},{"attributes":{"ID":4771,"DIS_CODE":0,"TOWNNAME":"安南區","LI":"東和里","LIN":"7鄰","STREET":"長和路","SECT":"一段","MAREA":" ","LANE":"５５９巷","ALLEY":" ","HOUSE_NO":"２６號","E_COORD97":171169.34440999999,"N_COORD97":2551011.16964,"ADDRESS":"長和路一段５５９巷２６號","OBJECTID":4771},"geometry":{"x":171169.3444100013,"y":2551011.1696400009}},{"attributes":{"ID":4772,"DIS_CODE":0,"TOWNNAME":"安南區","LI":"東和里","LIN":"7鄰","STREET":"長和路","SECT":"一段","MAREA":" ","LANE":"５５９巷","ALLEY":" ","HOUSE_NO":"１６號","E_COORD97":171185.65049,"N_COORD97":2551023.2346399999,"ADDRESS":"長和路一段５５９巷１６號","OBJECTID":4772},"geometry":{"x":171185.65048999991,"y":2551023.2346400004}},{"attributes":{"ID":4773,"DIS_CODE":0,"TOWNNAME":"安南區","LI":"東和里","LIN":"7鄰","STREET":"長和路","SECT":"一段","MAREA":" ","LANE":"５５９巷","ALLEY":" ","HOUSE_NO":"２號","E_COORD97":171204.92131000001,"N_COORD97":2551039.7446300001,"ADDRESS":"長和路一段５５９巷２號","OBJECTID":4773},"geometry":{"x":171204.92131000105,"y":2551039.7446300015}},{"attributes":{"ID":4774,"DIS_CODE":0,"TOWNNAME":"安南區","LI":"東和里","LIN":"7鄰","STREET":"長和路","SECT":"一段","MAREA":" ","LANE":"５５９巷","ALLEY":" ","HOUSE_NO":"６號","E_COORD97":171200.68596999999,"N_COORD97":2551036.1463000001,"ADDRESS":"長和路一段５５９巷６號","OBJECTID":4774},"geometry":{"x":171200.68596999999,"y":2551036.1462999992}},{"attributes":{"ID":4775,"DIS_CODE":0,"TOWNNAME":"安南區","LI":"東和里","LIN":"7鄰","STREET":"長和路","SECT":"一段","MAREA":" ","LANE":"５５９巷","ALLEY":" ","HOUSE_NO":"８號","E_COORD97":171196.45061999999,"N_COORD97":2551033.1829599999,"ADDRESS":"長和路一段５５９巷８號","OBJECTID":4775},"geometry":{"x":171196.45061999932,"y":2551033.1829600018}},{"attributes":{"ID":4776,"DIS_CODE":0,"TOWNNAME":"安南區","LI":"東和里","LIN":"7鄰","STREET":"長和路","SECT":"一段","MAREA":" ","LANE":"５５９巷","ALLEY":" ","HOUSE_NO":"１０號","E_COORD97":171192.21528,"N_COORD97":2551028.9496300002,"ADDRESS":"長和路一段５５９巷１０號","OBJECTID":4776},"geometry":{"x":171192.21528000105,"y":2551028.9496299997}},{"attributes":{"ID":4777,"DIS_CODE":0,"TOWNNAME":"安南區","LI":"東和里","LIN":"7鄰","STREET":"長和路","SECT":"一段","MAREA":" ","LANE":"５５９巷","ALLEY":" ","HOUSE_NO":"１２號","E_COORD97":171189.03877000001,"N_COORD97":2551026.6213000002,"ADDRESS":"長和路一段５５９巷１２號","OBJECTID":4777},"geometry":{"x":171189.03877000045,"y":2551026.6213000044}},{"attributes":{"ID":4778,"DIS_CODE":0,"TOWNNAME":"安南區","LI":"東和里","LIN":"7鄰","STREET":"長和路","SECT":"一段","MAREA":" ","LANE":"５５９巷","ALLEY":" ","HOUSE_NO":"２０號","E_COORD97":171177.76216000001,"N_COORD97":2551018.0488100001,"ADDRESS":"長和路一段５５９巷２０號","OBJECTID":4778},"geometry":{"x":171177.76216000039,"y":2551018.0488099996}},{"attributes":{"ID":4779,"DIS_CODE":0,"TOWNNAME":"安平區","LI":"平安里","LIN":"23鄰","STREET":"安平路","SECT":" ","MAREA":" ","LANE":"４４６巷","ALLEY":" ","HOUSE_NO":"３２號之１","E_COORD97":165308.553121,"N_COORD97":2544401.1278200001,"ADDRESS":"安平路４４６巷３２號之１","OBJECTID":4779},"geometry":{"x":165308.5531209996,"y":2544401.1278250013}},{"attributes":{"ID":4780,"DIS_CODE":0,"TOWNNAME":"安平區","LI":"平安里","LIN":"23鄰","STREET":"安平路","SECT":" ","MAREA":" ","LANE":"４４６巷","ALLEY":" ","HOUSE_NO":"３２號之２","E_COORD97":165308.55312,"N_COORD97":2544401.1278200001,"ADDRESS":"安平路４４６巷３２號之２","OBJECTID":4780},"geometry":{"x":165308.55312000029,"y":2544401.1278200001}},{"attributes":{"ID":4781,"DIS_CODE":0,"TOWNNAME":"安南區","LI":"東和里","LIN":"7鄰","STREET":"長和路","SECT":"一段","MAREA":" ","LANE":"５５９巷","ALLEY":" ","HOUSE_NO":"２２號","E_COORD97":171173.84445999999,"N_COORD97":2551014.7679699999,"ADDRESS":"長和路一段５５９巷２２號","OBJECTID":4781},"geometry":{"x":171173.84446000028,"y":2551014.7679700013}},{"attributes":{"ID":4782,"DIS_CODE":0,"TOWNNAME":"安南區","LI":"東和里","LIN":"7鄰","STREET":"長和路","SECT":"一段","MAREA":" ","LANE":"５５９巷","ALLEY":" ","HOUSE_NO":"３８號","E_COORD97":171152.19125999999,"N_COORD97":2550996.5646500001,"ADDRESS":"長和路一段５５９巷３８號","OBJECTID":4782},"geometry":{"x":171152.19126000162,"y":2550996.5646499991}},{"attributes":{"ID":4783,"DIS_CODE":0,"TOWNNAME":"安南區","LI":"東和里","LIN":"7鄰","STREET":"長和路","SECT":"一段","MAREA":" ","LANE":"５５９巷","ALLEY":" ","HOUSE_NO":"４０號","E_COORD97":171149.22652,"N_COORD97":2550993.81299,"ADDRESS":"長和路一段５５９巷４０號","OBJECTID":4783},"geometry":{"x":171149.22652000189,"y":2550993.8129900023}},{"attributes":{"ID":4784,"DIS_CODE":0,"TOWNNAME":"安南區","LI":"東和里","LIN":"7鄰","STREET":"長和路","SECT":"一段","MAREA":" ","LANE":"５５９巷","ALLEY":" ","HOUSE_NO":"４２號","E_COORD97":171145.83824000001,"N_COORD97":2550989.7913199998,"ADDRESS":"長和路一段５５９巷４２號","OBJECTID":4784},"geometry":{"x":171145.83824000135,"y":2550989.7913200017}},{"attributes":{"ID":4785,"DIS_CODE":0,"TOWNNAME":"安南區","LI":"東和里","LIN":"7鄰","STREET":"長和路","SECT":"一段","MAREA":" ","LANE":"５５９巷","ALLEY":" ","HOUSE_NO":"４６號","E_COORD97":171142.44996,"N_COORD97":2550986.8279900001,"ADDRESS":"長和路一段５５９巷４６號","OBJECTID":4785},"geometry":{"x":171142.44996000174,"y":2550986.8279900011}},{"attributes":{"ID":4786,"DIS_CODE":0,"TOWNNAME":"安南區","LI":"東和里","LIN":"7鄰","STREET":"長和路","SECT":"一段","MAREA":" ","LANE":"５５９巷","ALLEY":" ","HOUSE_NO":"５０號","E_COORD97":171138.42639000001,"N_COORD97":2550985.34632,"ADDRESS":"長和路一段５５９巷５０號","OBJECTID":4786},"geometry":{"x":171138.42638999969,"y":2550985.3463199995}},{"attributes":{"ID":4787,"DIS_CODE":0,"TOWNNAME":"安南區","LI":"東和里","LIN":"7鄰","STREET":"長和路","SECT":"一段","MAREA":" ","LANE":"５５９巷","ALLEY":" ","HOUSE_NO":"５２號","E_COORD97":171134.82634,"N_COORD97":2550981.7479900001,"ADDRESS":"長和路一段５５９巷５２號","OBJECTID":4787},"geometry":{"x":171134.82634000015,"y":2550981.747990001}},{"attributes":{"ID":4788,"DIS_CODE":0,"TOWNNAME":"安南區","LI":"東和里","LIN":"7鄰","STREET":"長和路","SECT":"一段","MAREA":" ","LANE":"５５９巷","ALLEY":" ","HOUSE_NO":"５６號","E_COORD97":171131.22630000001,"N_COORD97":2550979.4196600001,"ADDRESS":"長和路一段５５９巷５６號","OBJECTID":4788},"geometry":{"x":171131.22630000114,"y":2550979.4196600001}},{"attributes":{"ID":4789,"DIS_CODE":0,"TOWNNAME":"安南區","LI":"東和里","LIN":"7鄰","STREET":"長和路","SECT":"一段","MAREA":" ","LANE":"５５９巷","ALLEY":" ","HOUSE_NO":"５８號","E_COORD97":171128.47331999999,"N_COORD97":2550976.45633,"ADDRESS":"長和路一段５５９巷５８號","OBJECTID":4789},"geometry":{"x":171128.4733200008,"y":2550976.4563300014}},{"attributes":{"ID":4790,"DIS_CODE":0,"TOWNNAME":"安南區","LI":"東和里","LIN":"7鄰","STREET":"長和路","SECT":"一段","MAREA":" ","LANE":"５５９巷","ALLEY":" ","HOUSE_NO":"６０號","E_COORD97":171125.08504999999,"N_COORD97":2550972.858,"ADDRESS":"長和路一段５５９巷６０號","OBJECTID":4790},"geometry":{"x":171125.08504999988,"y":2550972.8579999991}},{"attributes":{"ID":4791,"DIS_CODE":0,"TOWNNAME":"安南區","LI":"東和里","LIN":"7鄰","STREET":"長和路","SECT":"一段","MAREA":" ","LANE":"５５９巷","ALLEY":" ","HOUSE_NO":"６２號","E_COORD97":171121.90854,"N_COORD97":2550969.2596700001,"ADDRESS":"長和路一段５５９巷６２號","OBJECTID":4791},"geometry":{"x":171121.90854000114,"y":2550969.2596700042}},{"attributes":{"ID":4792,"DIS_CODE":0,"TOWNNAME":"安平區","LI":"平安里","LIN":"23鄰","STREET":"安平路","SECT":" ","MAREA":" ","LANE":"４４６巷","ALLEY":" ","HOUSE_NO":"３２號之３","E_COORD97":165307.91739799999,"N_COORD97":2544400.91616,"ADDRESS":"安平路４４６巷３２號之３","OBJECTID":4792},"geometry":{"x":165307.91739800107,"y":2544400.9161590002}},{"attributes":{"ID":4793,"DIS_CODE":0,"TOWNNAME":"安平區","LI":"平安里","LIN":"23鄰","STREET":"安平路","SECT":" ","MAREA":" ","LANE":"４４６巷","ALLEY":" ","HOUSE_NO":"３２號之４","E_COORD97":165307.91739799999,"N_COORD97":2544400.91616,"ADDRESS":"安平路４４６巷３２號之４","OBJECTID":4793},"geometry":{"x":165307.91739800107,"y":2544400.9161590002}},{"attributes":{"ID":4794,"DIS_CODE":0,"TOWNNAME":"安平區","LI":"平安里","LIN":"23鄰","STREET":"安平路","SECT":" ","MAREA":" ","LANE":"４４６巷","ALLEY":" ","HOUSE_NO":"３４號之１","E_COORD97":165318.724682,"N_COORD97":2544397.5294900001,"ADDRESS":"安平路４４６巷３４號之１","OBJECTID":4794},"geometry":{"x":165318.72468199953,"y":2544397.5294940025}},{"attributes":{"ID":4795,"DIS_CODE":0,"TOWNNAME":"安平區","LI":"平安里","LIN":"23鄰","STREET":"安平路","SECT":" ","MAREA":" ","LANE":"４４６巷","ALLEY":" ","HOUSE_NO":"３４號之２","E_COORD97":165318.724682,"N_COORD97":2544397.5294900001,"ADDRESS":"安平路４４６巷３４號之２","OBJECTID":4795},"geometry":{"x":165318.72468199953,"y":2544397.5294940025}},{"attributes":{"ID":4796,"DIS_CODE":0,"TOWNNAME":"安平區","LI":"平安里","LIN":"23鄰","STREET":"安平路","SECT":" ","MAREA":" ","LANE":"４４６巷","ALLEY":" ","HOUSE_NO":"３４號之３","E_COORD97":165318.724682,"N_COORD97":2544397.5294900001,"ADDRESS":"安平路４４６巷３４號之３","OBJECTID":4796},"geometry":{"x":165318.72468199953,"y":2544397.5294940025}},{"attributes":{"ID":4797,"DIS_CODE":0,"TOWNNAME":"安平區","LI":"平安里","LIN":"23鄰","STREET":"安平路","SECT":" ","MAREA":" ","LANE":"４４６巷","ALLEY":" ","HOUSE_NO":"３４號之３四樓","E_COORD97":165318.724682,"N_COORD97":2544397.5294900001,"ADDRESS":"安平路４４６巷３４號之３四樓","OBJECTID":4797},"geometry":{"x":165318.72468199953,"y":2544397.5294940025}},{"attributes":{"ID":4798,"DIS_CODE":0,"TOWNNAME":"安平區","LI":"平安里","LIN":"23鄰","STREET":"安平路","SECT":" ","MAREA":" ","LANE":"４４６巷","ALLEY":" ","HOUSE_NO":"３４號之４","E_COORD97":165318.512774,"N_COORD97":2544397.5294900001,"ADDRESS":"安平路４４６巷３４號之４","OBJECTID":4798},"geometry":{"x":165318.51277399994,"y":2544397.5294940025}},{"attributes":{"ID":4799,"DIS_CODE":0,"TOWNNAME":"安平區","LI":"平安里","LIN":"23鄰","STREET":"安平路","SECT":" ","MAREA":" ","LANE":"４４６巷","ALLEY":" ","HOUSE_NO":"３６號之１","E_COORD97":165328.26052099999,"N_COORD97":2544396.6828299998,"ADDRESS":"安平路４４６巷３６號之１","OBJECTID":4799},"geometry":{"x":165328.26052100118,"y":2544396.6828270033}},{"attributes":{"ID":4800,"DIS_CODE":0,"TOWNNAME":"安平區","LI":"平安里","LIN":"23鄰","STREET":"安平路","SECT":" ","MAREA":" ","LANE":"４４６巷","ALLEY":" ","HOUSE_NO":"３６號之２","E_COORD97":165328.26052099999,"N_COORD97":2544396.6828299998,"ADDRESS":"安平路４４６巷３６號之２","OBJECTID":4800},"geometry":{"x":165328.26052100118,"y":2544396.6828270033}}]}