{"displayFieldName":"TOWNNAME","fieldAliases":{"ID":"ID","DIS_CODE":"DIS_CODE","TOWNNAME":"TOWNNAME","LI":"LI","LIN":"LIN","STREET":"STREET","SECT":"SECT","MAREA":"MAREA","LANE":"LANE","ALLEY":"ALLEY","HOUSE_NO":"HOUSE_NO","E_COORD97":"E_COORD97","N_COORD97":"N_COORD97","ADDRESS":"ADDRESS","OBJECTID":"OBJECTID"},"geometryType":"esriGeometryPoint","spatialReference":{"wkid":102443,"latestWkid":3826},"fields":[{"name":"ID","type":"esriFieldTypeDouble","alias":"ID"},{"name":"DIS_CODE","type":"esriFieldTypeInteger","alias":"DIS_CODE"},{"name":"TOWNNAME","type":"esriFieldTypeString","alias":"TOWNNAME","length":8},{"name":"LI","type":"esriFieldTypeString","alias":"LI","length":8},{"name":"LIN","type":"esriFieldTypeString","alias":"LIN","length":12},{"name":"STREET","type":"esriFieldTypeString","alias":"STREET","length":20},{"name":"SECT","type":"esriFieldTypeString","alias":"SECT","length":8},{"name":"MAREA","type":"esriFieldTypeString","alias":"MAREA","length":12},{"name":"LANE","type":"esriFieldTypeString","alias":"LANE","length":10},{"name":"ALLEY","type":"esriFieldTypeString","alias":"ALLEY","length":10},{"name":"HOUSE_NO","type":"esriFieldTypeString","alias":"HOUSE_NO","length":20},{"name":"E_COORD97","type":"esriFieldTypeDouble","alias":"E_COORD97"},{"name":"N_COORD97","type":"esriFieldTypeDouble","alias":"N_COORD97"},{"name":"ADDRESS","type":"esriFieldTypeString","alias":"ADDRESS","length":50},{"name":"OBJECTID","type":"esriFieldTypeOID","alias":"OBJECTID"}],"features":[{"attributes":{"ID":271206,"DIS_CODE":0,"TOWNNAME":"安南區","LI":"淵東里","LIN":"8鄰","STREET":"本原街","SECT":"三段","MAREA":" ","LANE":"３２１巷","ALLEY":" ","HOUSE_NO":"６７號","E_COORD97":165410.81,"N_COORD97":2550241.4700000002,"ADDRESS":"本原街三段３２１巷６７號","OBJECTID":271201},"geometry":{"x":165410.81000000052,"y":2550241.4700000007}},{"attributes":{"ID":271207,"DIS_CODE":0,"TOWNNAME":"安南區","LI":"淵東里","LIN":"8鄰","STREET":"本原街","SECT":"三段","MAREA":" ","LANE":"３２１巷","ALLEY":" ","HOUSE_NO":"７３號","E_COORD97":165446.25,"N_COORD97":2550222.23,"ADDRESS":"本原街三段３２１巷７３號","OBJECTID":271202},"geometry":{"x":165446.25,"y":2550222.2300000023}},{"attributes":{"ID":271208,"DIS_CODE":0,"TOWNNAME":"安南區","LI":"城東里","LIN":"8鄰","STREET":"城北路","SECT":" ","MAREA":" ","LANE":"１１２巷","ALLEY":" ","HOUSE_NO":"４８號","E_COORD97":161125.78,"N_COORD97":2551646.6000000001,"ADDRESS":"城北路１１２巷４８號","OBJECTID":271203},"geometry":{"x":161125.78000000212,"y":2551646.5999999996}},{"attributes":{"ID":271209,"DIS_CODE":0,"TOWNNAME":"安南區","LI":"城東里","LIN":"8鄰","STREET":"城北路","SECT":" ","MAREA":" ","LANE":"９８巷","ALLEY":" ","HOUSE_NO":"３３號","E_COORD97":161084.35000000001,"N_COORD97":2551581.3100000001,"ADDRESS":"城北路９８巷３３號","OBJECTID":271204},"geometry":{"x":161084.35000000056,"y":2551581.3100000024}},{"attributes":{"ID":271210,"DIS_CODE":0,"TOWNNAME":"安南區","LI":"城北里","LIN":"8鄰","STREET":"安中路","SECT":"六段","MAREA":" ","LANE":"１巷","ALLEY":" ","HOUSE_NO":"１２號","E_COORD97":161916.72,"N_COORD97":2551170.96,"ADDRESS":"安中路六段１巷１２號","OBJECTID":271205},"geometry":{"x":161916.71999999974,"y":2551170.9600000009}},{"attributes":{"ID":271211,"DIS_CODE":0,"TOWNNAME":"新化區","LI":"知義里","LIN":"3鄰","STREET":" ","SECT":" ","MAREA":"知母義","LANE":" ","ALLEY":" ","HOUSE_NO":"１２２號","E_COORD97":179791.32000000001,"N_COORD97":2547235.25,"ADDRESS":"知母義１２２號","OBJECTID":271206},"geometry":{"x":179791.32000000216,"y":2547235.25}},{"attributes":{"ID":271212,"DIS_CODE":0,"TOWNNAME":"仁德區","LI":"成功里","LIN":"8鄰","STREET":"保華路","SECT":" ","MAREA":" ","LANE":"１２９巷","ALLEY":" ","HOUSE_NO":"６０號","E_COORD97":171102.92000000001,"N_COORD97":2539885.25,"ADDRESS":"保華路１２９巷６０號","OBJECTID":271207},"geometry":{"x":171102.92000000086,"y":2539885.25}},{"attributes":{"ID":271213,"DIS_CODE":0,"TOWNNAME":"仁德區","LI":"大甲里","LIN":"8鄰","STREET":"行大街","SECT":" ","MAREA":" ","LANE":"３０７巷","ALLEY":" ","HOUSE_NO":"１４之１號","E_COORD97":169693.47,"N_COORD97":2535110.79,"ADDRESS":"行大街３０７巷１４之１號","OBJECTID":271208},"geometry":{"x":169693.47000000067,"y":2535110.7899999991}},{"attributes":{"ID":271214,"DIS_CODE":0,"TOWNNAME":"新化區","LI":"知義里","LIN":"3鄰","STREET":" ","SECT":" ","MAREA":"知母義","LANE":" ","ALLEY":" ","HOUSE_NO":"１０３號之６","E_COORD97":179817.97,"N_COORD97":2547240.2599999998,"ADDRESS":"知母義１０３號之６","OBJECTID":271209},"geometry":{"x":179817.96999999974,"y":2547240.2600000016}},{"attributes":{"ID":271215,"DIS_CODE":0,"TOWNNAME":"新化區","LI":"豐榮里","LIN":"3鄰","STREET":" ","SECT":" ","MAREA":"洋子","LANE":" ","ALLEY":" ","HOUSE_NO":"５８號","E_COORD97":178049.32999999999,"N_COORD97":2548274.25,"ADDRESS":"洋子５８號","OBJECTID":271210},"geometry":{"x":178049.33000000007,"y":2548274.2500000037}},{"attributes":{"ID":271216,"DIS_CODE":0,"TOWNNAME":"新化區","LI":"大坑里","LIN":"3鄰","STREET":" ","SECT":" ","MAREA":"大坑尾","LANE":" ","ALLEY":" ","HOUSE_NO":"１０７號","E_COORD97":187090.23000000001,"N_COORD97":2545510.25,"ADDRESS":"大坑尾１０７號","OBJECTID":271211},"geometry":{"x":187090.23000000138,"y":2545510.25}},{"attributes":{"ID":271217,"DIS_CODE":0,"TOWNNAME":"新化區","LI":"\u25A0拔里","LIN":"3鄰","STREET":" ","SECT":" ","MAREA":"\u25A0拔林","LANE":" ","ALLEY":" ","HOUSE_NO":"１４０號","E_COORD97":183705.92000000001,"N_COORD97":2552074.25,"ADDRESS":"\u25A0拔林１４０號","OBJECTID":271212},"geometry":{"x":183705.91999999993,"y":2552074.25}},{"attributes":{"ID":271218,"DIS_CODE":0,"TOWNNAME":"仁德區","LI":"成功里","LIN":"8鄰","STREET":"保華路","SECT":" ","MAREA":" ","LANE":"１５９巷","ALLEY":" ","HOUSE_NO":"６號","E_COORD97":171031.48000000001,"N_COORD97":2540009.5,"ADDRESS":"保華路１５９巷６號","OBJECTID":271213},"geometry":{"x":171031.48000000138,"y":2540009.5}},{"attributes":{"ID":271219,"DIS_CODE":0,"TOWNNAME":"新化區","LI":"\u25A0拔里","LIN":"3鄰","STREET":" ","SECT":" ","MAREA":"\u25A0拔林","LANE":" ","ALLEY":" ","HOUSE_NO":"１１３號","E_COORD97":183577.72,"N_COORD97":2552036.25,"ADDRESS":"\u25A0拔林１１３號","OBJECTID":271214},"geometry":{"x":183577.71999999974,"y":2552036.25}},{"attributes":{"ID":271220,"DIS_CODE":0,"TOWNNAME":"新化區","LI":"知義里","LIN":"3鄰","STREET":" ","SECT":" ","MAREA":"知母義","LANE":" ","ALLEY":" ","HOUSE_NO":"１０３號之１３","E_COORD97":179830.01999999999,"N_COORD97":2547220.2599999998,"ADDRESS":"知母義１０３號之１３","OBJECTID":271215},"geometry":{"x":179830.02000000048,"y":2547220.2600000016}},{"attributes":{"ID":271221,"DIS_CODE":0,"TOWNNAME":"新化區","LI":"\u25A0拔里","LIN":"3鄰","STREET":" ","SECT":" ","MAREA":"\u25A0拔林","LANE":" ","ALLEY":" ","HOUSE_NO":"１２５號","E_COORD97":183644.32000000001,"N_COORD97":2552035.25,"ADDRESS":"\u25A0拔林１２５號","OBJECTID":271216},"geometry":{"x":183644.31999999937,"y":2552035.2500000019}},{"attributes":{"ID":271222,"DIS_CODE":0,"TOWNNAME":"新化區","LI":"\u25A0拔里","LIN":"3鄰","STREET":" ","SECT":" ","MAREA":"\u25A0拔林","LANE":" ","ALLEY":" ","HOUSE_NO":"１３９號","E_COORD97":183696.92000000001,"N_COORD97":2552076.25,"ADDRESS":"\u25A0拔林１３９號","OBJECTID":271217},"geometry":{"x":183696.91999999993,"y":2552076.2500000019}},{"attributes":{"ID":271223,"DIS_CODE":0,"TOWNNAME":"仁德區","LI":"太子里","LIN":"8鄰","STREET":"太子路","SECT":" ","MAREA":" ","LANE":"１７２巷","ALLEY":" ","HOUSE_NO":"５號","E_COORD97":174370.73000000001,"N_COORD97":2543579.25,"ADDRESS":"太子路１７２巷５號","OBJECTID":271218},"geometry":{"x":174370.72999999952,"y":2543579.2500000019}},{"attributes":{"ID":271224,"DIS_CODE":0,"TOWNNAME":"新化區","LI":"\u25A0拔里","LIN":"3鄰","STREET":" ","SECT":" ","MAREA":"\u25A0拔林","LANE":" ","ALLEY":" ","HOUSE_NO":"１２７號","E_COORD97":183647.12,"N_COORD97":2552071.25,"ADDRESS":"\u25A0拔林１２７號","OBJECTID":271219},"geometry":{"x":183647.12000000011,"y":2552071.2500000037}},{"attributes":{"ID":271225,"DIS_CODE":0,"TOWNNAME":"仁德區","LI":"上崙里","LIN":"8鄰","STREET":"德南路","SECT":" ","MAREA":" ","LANE":"３６７巷","ALLEY":" ","HOUSE_NO":"２之１號","E_COORD97":173883.85000000001,"N_COORD97":2538344.0499999998,"ADDRESS":"德南路３６７巷２之１號","OBJECTID":271220},"geometry":{"x":173883.84999999963,"y":2538344.0500000026}},{"attributes":{"ID":271226,"DIS_CODE":0,"TOWNNAME":"新化區","LI":"知義里","LIN":"3鄰","STREET":" ","SECT":" ","MAREA":"知母義","LANE":" ","ALLEY":" ","HOUSE_NO":"１４３號之１","E_COORD97":179786.54999999999,"N_COORD97":2547104.2599999998,"ADDRESS":"知母義１４３號之１","OBJECTID":271221},"geometry":{"x":179786.55000000075,"y":2547104.2600000035}},{"attributes":{"ID":271227,"DIS_CODE":0,"TOWNNAME":"新化區","LI":"崙頂里","LIN":"3鄰","STREET":" ","SECT":" ","MAREA":"崙子頂","LANE":" ","ALLEY":" ","HOUSE_NO":"１５７號","E_COORD97":176718.23000000001,"N_COORD97":2546809.25,"ADDRESS":"崙子頂１５７號","OBJECTID":271222},"geometry":{"x":176718.23000000045,"y":2546809.2499999981}},{"attributes":{"ID":271228,"DIS_CODE":0,"TOWNNAME":"新化區","LI":"崙頂里","LIN":"3鄰","STREET":" ","SECT":" ","MAREA":"崙子頂","LANE":" ","ALLEY":" ","HOUSE_NO":"１５４號","E_COORD97":176730.92999999999,"N_COORD97":2546809.25,"ADDRESS":"崙子頂１５４號","OBJECTID":271223},"geometry":{"x":176730.93000000063,"y":2546809.2499999981}},{"attributes":{"ID":271229,"DIS_CODE":0,"TOWNNAME":"新化區","LI":"\u25A0拔里","LIN":"3鄰","STREET":" ","SECT":" ","MAREA":"\u25A0拔林","LANE":" ","ALLEY":" ","HOUSE_NO":"１１５號之２","E_COORD97":183615.57999999999,"N_COORD97":2552065.2599999998,"ADDRESS":"\u25A0拔林１１５號之２","OBJECTID":271224},"geometry":{"x":183615.58000000101,"y":2552065.2600000016}},{"attributes":{"ID":271230,"DIS_CODE":0,"TOWNNAME":"仁德區","LI":"二行里","LIN":"8鄰","STREET":"行大一街","SECT":" ","MAREA":" ","LANE":"９９巷","ALLEY":" ","HOUSE_NO":"３號","E_COORD97":170150.42000000001,"N_COORD97":2535046.75,"ADDRESS":"行大一街９９巷３號","OBJECTID":271225},"geometry":{"x":170150.42000000086,"y":2535046.75}},{"attributes":{"ID":271231,"DIS_CODE":0,"TOWNNAME":"新化區","LI":"護國里","LIN":"8鄰","STREET":"信義路","SECT":" ","MAREA":" ","LANE":"８６巷","ALLEY":" ","HOUSE_NO":"２４號","E_COORD97":179871.82999999999,"N_COORD97":2548790.25,"ADDRESS":"信義路８６巷２４號","OBJECTID":271226},"geometry":{"x":179871.83000000007,"y":2548790.2500000019}},{"attributes":{"ID":271232,"DIS_CODE":0,"TOWNNAME":"新化區","LI":"協興里","LIN":"8鄰","STREET":"太平街","SECT":" ","MAREA":" ","LANE":"１５０巷","ALLEY":" ","HOUSE_NO":"１２號","E_COORD97":178346.57000000001,"N_COORD97":2548736.25,"ADDRESS":"太平街１５０巷１２號","OBJECTID":271227},"geometry":{"x":178346.5700000003,"y":2548736.2500000019}},{"attributes":{"ID":271233,"DIS_CODE":0,"TOWNNAME":"新化區","LI":"太平里","LIN":"8鄰","STREET":"中正路","SECT":" ","MAREA":" ","LANE":"６６２巷","ALLEY":" ","HOUSE_NO":"３７號","E_COORD97":178757.66,"N_COORD97":2549464.25,"ADDRESS":"中正路６６２巷３７號","OBJECTID":271228},"geometry":{"x":178757.66000000015,"y":2549464.2500000037}},{"attributes":{"ID":271234,"DIS_CODE":0,"TOWNNAME":"新化區","LI":"唪口里","LIN":"8鄰","STREET":"大德路","SECT":" ","MAREA":" ","LANE":"１６１巷","ALLEY":" ","HOUSE_NO":"３５號","E_COORD97":177907.17999999999,"N_COORD97":2549199.25,"ADDRESS":"大德路１６１巷３５號","OBJECTID":271229},"geometry":{"x":177907.18000000063,"y":2549199.25}},{"attributes":{"ID":271235,"DIS_CODE":0,"TOWNNAME":"新化區","LI":"協興里","LIN":"3鄰","STREET":"忠孝路","SECT":" ","MAREA":" ","LANE":" ","ALLEY":" ","HOUSE_NO":"２１３號","E_COORD97":178528.12,"N_COORD97":2548541.25,"ADDRESS":"忠孝路２１３號","OBJECTID":271230},"geometry":{"x":178528.12000000104,"y":2548541.25}},{"attributes":{"ID":271236,"DIS_CODE":0,"TOWNNAME":"新化區","LI":"護國里","LIN":"3鄰","STREET":"仁愛街","SECT":" ","MAREA":" ","LANE":" ","ALLEY":" ","HOUSE_NO":"３５號","E_COORD97":179128.17999999999,"N_COORD97":2548595.25,"ADDRESS":"仁愛街３５號","OBJECTID":271231},"geometry":{"x":179128.1799999997,"y":2548595.25}},{"attributes":{"ID":271237,"DIS_CODE":0,"TOWNNAME":"新化區","LI":"清水里","LIN":"3鄰","STREET":"民治路","SECT":" ","MAREA":" ","LANE":" ","ALLEY":" ","HOUSE_NO":"１３５號","E_COORD97":178672.70999999999,"N_COORD97":2548349.25,"ADDRESS":"民治路１３５號","OBJECTID":271232},"geometry":{"x":178672.70999999996,"y":2548349.2500000019}},{"attributes":{"ID":271238,"DIS_CODE":0,"TOWNNAME":"新化區","LI":"唪口里","LIN":"3鄰","STREET":"大德路","SECT":" ","MAREA":" ","LANE":" ","ALLEY":" ","HOUSE_NO":"８２號之２９","E_COORD97":178257.07000000001,"N_COORD97":2549483.2599999998,"ADDRESS":"大德路８２號之２９","OBJECTID":271233},"geometry":{"x":178257.06999999937,"y":2549483.2599999998}},{"attributes":{"ID":271239,"DIS_CODE":0,"TOWNNAME":"新化區","LI":"知義里","LIN":"3鄰","STREET":" ","SECT":" ","MAREA":"知母義","LANE":" ","ALLEY":" ","HOUSE_NO":"１０３號之９","E_COORD97":179836.76999999999,"N_COORD97":2547226.2599999998,"ADDRESS":"知母義１０３號之９","OBJECTID":271234},"geometry":{"x":179836.77000000048,"y":2547226.2600000035}},{"attributes":{"ID":271240,"DIS_CODE":0,"TOWNNAME":"新化區","LI":"\u25A0拔里","LIN":"3鄰","STREET":" ","SECT":" ","MAREA":"\u25A0拔林","LANE":" ","ALLEY":" ","HOUSE_NO":"１６２號","E_COORD97":184026.92000000001,"N_COORD97":2552274.25,"ADDRESS":"\u25A0拔林１６２號","OBJECTID":271235},"geometry":{"x":184026.92000000086,"y":2552274.25}},{"attributes":{"ID":271241,"DIS_CODE":0,"TOWNNAME":"新化區","LI":"豐榮里","LIN":"3鄰","STREET":" ","SECT":" ","MAREA":"洋子","LANE":" ","ALLEY":" ","HOUSE_NO":"１６４號之１","E_COORD97":178072.31,"N_COORD97":2548187.2599999998,"ADDRESS":"洋子１６４號之１","OBJECTID":271236},"geometry":{"x":178072.31000000052,"y":2548187.2600000016}},{"attributes":{"ID":271242,"DIS_CODE":0,"TOWNNAME":"南區","LI":"再興里","LIN":"8鄰","STREET":"三官路","SECT":" ","MAREA":" ","LANE":"７０巷","ALLEY":" ","HOUSE_NO":"２號","E_COORD97":167325.72,"N_COORD97":2542246.8700000001,"ADDRESS":"三官路７０巷２號","OBJECTID":271237},"geometry":{"x":167325.72000000067,"y":2542246.8700000029}},{"attributes":{"ID":271243,"DIS_CODE":0,"TOWNNAME":"南區","LI":"再興里","LIN":"8鄰","STREET":"三官路","SECT":" ","MAREA":" ","LANE":"７０巷","ALLEY":" ","HOUSE_NO":"２之１號","E_COORD97":167322.38,"N_COORD97":2542246.5499999998,"ADDRESS":"三官路７０巷２之１號","OBJECTID":271238},"geometry":{"x":167322.38000000175,"y":2542246.5500000007}},{"attributes":{"ID":271244,"DIS_CODE":0,"TOWNNAME":"西港區","LI":"慶安里","LIN":"8鄰","STREET":"新興街","SECT":" ","MAREA":" ","LANE":"１０７巷","ALLEY":" ","HOUSE_NO":"１２號","E_COORD97":168150.23000000001,"N_COORD97":2558196.5600000001,"ADDRESS":"新興街１０７巷１２號","OBJECTID":271239},"geometry":{"x":168150.23000000138,"y":2558196.5600000024}},{"attributes":{"ID":271245,"DIS_CODE":0,"TOWNNAME":"西港區","LI":"慶安里","LIN":"8鄰","STREET":"新興街","SECT":" ","MAREA":" ","LANE":"１０７巷","ALLEY":" ","HOUSE_NO":"１４號","E_COORD97":168146.23000000001,"N_COORD97":2558196.3100000001,"ADDRESS":"新興街１０７巷１４號","OBJECTID":271240},"geometry":{"x":168146.23000000231,"y":2558196.3100000005}},{"attributes":{"ID":271246,"DIS_CODE":0,"TOWNNAME":"西港區","LI":"慶安里","LIN":"8鄰","STREET":"新興街","SECT":" ","MAREA":" ","LANE":"１０７巷","ALLEY":" ","HOUSE_NO":"１６號","E_COORD97":168141.72,"N_COORD97":2558195.98,"ADDRESS":"新興街１０７巷１６號","OBJECTID":271241},"geometry":{"x":168141.71999999974,"y":2558195.9800000004}},{"attributes":{"ID":271247,"DIS_CODE":0,"TOWNNAME":"西港區","LI":"慶安里","LIN":"8鄰","STREET":"新興街","SECT":" ","MAREA":" ","LANE":"１０７巷","ALLEY":" ","HOUSE_NO":"１８號","E_COORD97":168137.78,"N_COORD97":2558195.6800000002,"ADDRESS":"新興街１０７巷１８號","OBJECTID":271242},"geometry":{"x":168137.78000000119,"y":2558195.6800000016}},{"attributes":{"ID":271248,"DIS_CODE":0,"TOWNNAME":"西港區","LI":"慶安里","LIN":"8鄰","STREET":"新興街","SECT":" ","MAREA":" ","LANE":"１０７巷","ALLEY":" ","HOUSE_NO":"２號","E_COORD97":168172.79999999999,"N_COORD97":2558197.04,"ADDRESS":"新興街１０７巷２號","OBJECTID":271243},"geometry":{"x":168172.80000000075,"y":2558197.0399999991}},{"attributes":{"ID":271249,"DIS_CODE":0,"TOWNNAME":"西港區","LI":"慶安里","LIN":"8鄰","STREET":"新興街","SECT":" ","MAREA":" ","LANE":"１０７巷","ALLEY":" ","HOUSE_NO":"３２號","E_COORD97":168094.16,"N_COORD97":2558215.3999999999,"ADDRESS":"新興街１０７巷３２號","OBJECTID":271244},"geometry":{"x":168094.16000000108,"y":2558215.4000000022}},{"attributes":{"ID":271250,"DIS_CODE":0,"TOWNNAME":"西港區","LI":"西港里","LIN":"3鄰","STREET":"中山路","SECT":" ","MAREA":" ","LANE":" ","ALLEY":" ","HOUSE_NO":"３６８號","E_COORD97":168397.13,"N_COORD97":2558157.3399999999,"ADDRESS":"中山路３６８號","OBJECTID":271245},"geometry":{"x":168397.13000000175,"y":2558157.3400000017}},{"attributes":{"ID":271251,"DIS_CODE":0,"TOWNNAME":"西港區","LI":"西港里","LIN":"3鄰","STREET":"中山路","SECT":" ","MAREA":" ","LANE":" ","ALLEY":" ","HOUSE_NO":"３７０號","E_COORD97":168403.73999999999,"N_COORD97":2558175.5099999998,"ADDRESS":"中山路３７０號","OBJECTID":271246},"geometry":{"x":168403.74000000115,"y":2558175.5100000035}},{"attributes":{"ID":271252,"DIS_CODE":0,"TOWNNAME":"西港區","LI":"慶安里","LIN":"8鄰","STREET":"新興街","SECT":" ","MAREA":" ","LANE":"１６９巷","ALLEY":" ","HOUSE_NO":"１３號","E_COORD97":168170.72,"N_COORD97":2558350.6299999999,"ADDRESS":"新興街１６９巷１３號","OBJECTID":271247},"geometry":{"x":168170.71999999881,"y":2558350.6300000008}},{"attributes":{"ID":271253,"DIS_CODE":0,"TOWNNAME":"西港區","LI":"慶安里","LIN":"8鄰","STREET":"新興街","SECT":" ","MAREA":" ","LANE":"１６９巷","ALLEY":" ","HOUSE_NO":"１５號","E_COORD97":168152.57999999999,"N_COORD97":2558364.1099999999,"ADDRESS":"新興街１６９巷１５號","OBJECTID":271248},"geometry":{"x":168152.58000000101,"y":2558364.1100000031}},{"attributes":{"ID":271254,"DIS_CODE":0,"TOWNNAME":"西港區","LI":"慶安里","LIN":"8鄰","STREET":"新興街","SECT":" ","MAREA":" ","LANE":"１６９巷","ALLEY":" ","HOUSE_NO":"１６７號","E_COORD97":167853.82999999999,"N_COORD97":2558343.7000000002,"ADDRESS":"新興街１６９巷１６７號","OBJECTID":271249},"geometry":{"x":167853.83000000101,"y":2558343.7000000011}},{"attributes":{"ID":271255,"DIS_CODE":0,"TOWNNAME":"西港區","LI":"慶安里","LIN":"8鄰","STREET":"新興街","SECT":" ","MAREA":" ","LANE":"１６９巷","ALLEY":" ","HOUSE_NO":"１６９號","E_COORD97":167849.70999999999,"N_COORD97":2558344,"ADDRESS":"新興街１６９巷１６９號","OBJECTID":271250},"geometry":{"x":167849.71000000089,"y":2558344}},{"attributes":{"ID":271256,"DIS_CODE":0,"TOWNNAME":"西港區","LI":"慶安里","LIN":"8鄰","STREET":"新興街","SECT":" ","MAREA":" ","LANE":"１６９巷","ALLEY":" ","HOUSE_NO":"１７１號","E_COORD97":167845.60000000001,"N_COORD97":2558343.6400000001,"ADDRESS":"新興街１６９巷１７１號","OBJECTID":271251},"geometry":{"x":167845.59999999963,"y":2558343.6400000006}},{"attributes":{"ID":271257,"DIS_CODE":0,"TOWNNAME":"西港區","LI":"慶安里","LIN":"8鄰","STREET":"新興街","SECT":" ","MAREA":" ","LANE":"１６９巷","ALLEY":" ","HOUSE_NO":"１７３號","E_COORD97":167841.14999999999,"N_COORD97":2558343.79,"ADDRESS":"新興街１６９巷１７３號","OBJECTID":271252},"geometry":{"x":167841.15000000037,"y":2558343.790000001}},{"attributes":{"ID":271258,"DIS_CODE":0,"TOWNNAME":"西港區","LI":"慶安里","LIN":"3鄰","STREET":" ","SECT":" ","MAREA":"中州","LANE":" ","ALLEY":" ","HOUSE_NO":"２０號之１０","E_COORD97":167375.84,"N_COORD97":2559794.0600000001,"ADDRESS":"中州２０號之１０","OBJECTID":271253},"geometry":{"x":167375.84000000078,"y":2559794.0600000024}},{"attributes":{"ID":271259,"DIS_CODE":0,"TOWNNAME":"西港區","LI":"慶安里","LIN":"3鄰","STREET":" ","SECT":" ","MAREA":"中州","LANE":" ","ALLEY":" ","HOUSE_NO":"２０號之１２","E_COORD97":167198.10999999999,"N_COORD97":2559845.9700000002,"ADDRESS":"中州２０號之１２","OBJECTID":271254},"geometry":{"x":167198.11000000127,"y":2559845.9700000025}},{"attributes":{"ID":271260,"DIS_CODE":0,"TOWNNAME":"西港區","LI":"慶安里","LIN":"3鄰","STREET":" ","SECT":" ","MAREA":"中州","LANE":" ","ALLEY":" ","HOUSE_NO":"２０號之１３","E_COORD97":167245.98000000001,"N_COORD97":2559882.2200000002,"ADDRESS":"中州２０號之１３","OBJECTID":271255},"geometry":{"x":167245.98000000231,"y":2559882.2200000007}},{"attributes":{"ID":271261,"DIS_CODE":0,"TOWNNAME":"西港區","LI":"慶安里","LIN":"3鄰","STREET":" ","SECT":" ","MAREA":"中州","LANE":" ","ALLEY":" ","HOUSE_NO":"２０號之１４０","E_COORD97":166947.04000000001,"N_COORD97":2560272.8799999999,"ADDRESS":"中州２０號之１４０","OBJECTID":271256},"geometry":{"x":166947.04000000097,"y":2560272.879999999}},{"attributes":{"ID":271262,"DIS_CODE":0,"TOWNNAME":"西港區","LI":"慶安里","LIN":"3鄰","STREET":" ","SECT":" ","MAREA":"中州","LANE":" ","ALLEY":" ","HOUSE_NO":"２１號之８９","E_COORD97":167656.89999999999,"N_COORD97":2559658.7599999998,"ADDRESS":"中州２１號之８９","OBJECTID":271257},"geometry":{"x":167656.9000000013,"y":2559658.7600000035}},{"attributes":{"ID":271263,"DIS_CODE":0,"TOWNNAME":"西港區","LI":"慶安里","LIN":"8鄰","STREET":"新興街","SECT":" ","MAREA":" ","LANE":"１６９巷","ALLEY":" ","HOUSE_NO":"２０７號","E_COORD97":167770.01000000001,"N_COORD97":2558317.4500000002,"ADDRESS":"新興街１６９巷２０７號","OBJECTID":271258},"geometry":{"x":167770.00999999978,"y":2558317.4499999974}},{"attributes":{"ID":271264,"DIS_CODE":0,"TOWNNAME":"永康區","LI":"東灣里","LIN":"8鄰","STREET":"大灣路","SECT":" ","MAREA":" ","LANE":"４５０巷","ALLEY":" ","HOUSE_NO":"８號","E_COORD97":174732.78,"N_COORD97":2544957.5,"ADDRESS":"大灣路４５０巷８號","OBJECTID":271259},"geometry":{"x":174732.78000000026,"y":2544957.5000000019}},{"attributes":{"ID":271265,"DIS_CODE":0,"TOWNNAME":"永康區","LI":"西勢里","LIN":"8鄰","STREET":"富強路","SECT":"一段","MAREA":" ","LANE":"３０６巷","ALLEY":" ","HOUSE_NO":"１８號","E_COORD97":175786.5,"N_COORD97":2546644.7799999998,"ADDRESS":"富強路一段３０６巷１８號","OBJECTID":271260},"geometry":{"x":175786.50000000093,"y":2546644.7799999993}},{"attributes":{"ID":271266,"DIS_CODE":0,"TOWNNAME":"永康區","LI":"西勢里","LIN":"8鄰","STREET":"富強路","SECT":"一段","MAREA":" ","LANE":"３０６巷","ALLEY":" ","HOUSE_NO":"１２號之２","E_COORD97":175771.75,"N_COORD97":2546647.0499999998,"ADDRESS":"富強路一段３０６巷１２號之２","OBJECTID":271261},"geometry":{"x":175771.75,"y":2546647.0500000026}},{"attributes":{"ID":271267,"DIS_CODE":0,"TOWNNAME":"永康區","LI":"西勢里","LIN":"8鄰","STREET":"富強路","SECT":"一段","MAREA":" ","LANE":"３０６巷","ALLEY":" ","HOUSE_NO":"１２號之１","E_COORD97":175767.60999999999,"N_COORD97":2546647.5499999998,"ADDRESS":"富強路一段３０６巷１２號之１","OBJECTID":271262},"geometry":{"x":175767.61000000034,"y":2546647.5500000007}},{"attributes":{"ID":271268,"DIS_CODE":0,"TOWNNAME":"永康區","LI":"西灣里","LIN":"8鄰","STREET":"大安街","SECT":" ","MAREA":" ","LANE":"１０７巷","ALLEY":" ","HOUSE_NO":"８號","E_COORD97":174522.03,"N_COORD97":2545072.2799999998,"ADDRESS":"大安街１０７巷８號","OBJECTID":271263},"geometry":{"x":174522.03000000026,"y":2545072.2799999993}},{"attributes":{"ID":271269,"DIS_CODE":0,"TOWNNAME":"永康區","LI":"西橋里","LIN":"8鄰","STREET":"中華西街","SECT":" ","MAREA":" ","LANE":"６３巷","ALLEY":" ","HOUSE_NO":"１２號","E_COORD97":170697.44,"N_COORD97":2546035.25,"ADDRESS":"中華西街６３巷１２號","OBJECTID":271264},"geometry":{"x":170697.44000000041,"y":2546035.25}},{"attributes":{"ID":271270,"DIS_CODE":0,"TOWNNAME":"永康區","LI":"西勢里","LIN":"8鄰","STREET":"富強路","SECT":"一段","MAREA":" ","LANE":"３０６巷","ALLEY":" ","HOUSE_NO":"２０號","E_COORD97":175790.60000000001,"N_COORD97":2546644.2799999998,"ADDRESS":"富強路一段３０６巷２０號","OBJECTID":271265},"geometry":{"x":175790.59999999963,"y":2546644.2799999993}},{"attributes":{"ID":271271,"DIS_CODE":0,"TOWNNAME":"永康區","LI":"西勢里","LIN":"8鄰","STREET":"富強路","SECT":"一段","MAREA":" ","LANE":"３０６巷","ALLEY":" ","HOUSE_NO":"１０號","E_COORD97":175757.16,"N_COORD97":2546648.5299999998,"ADDRESS":"富強路一段３０６巷１０號","OBJECTID":271266},"geometry":{"x":175757.16000000015,"y":2546648.5300000012}},{"attributes":{"ID":271272,"DIS_CODE":0,"TOWNNAME":"西港區","LI":"慶安里","LIN":"3鄰","STREET":" ","SECT":" ","MAREA":"中州","LANE":" ","ALLEY":" ","HOUSE_NO":"２１號之９０","E_COORD97":167652.19,"N_COORD97":2559656.6699999999,"ADDRESS":"中州２１號之９０","OBJECTID":271267},"geometry":{"x":167652.19000000041,"y":2559656.6700000018}},{"attributes":{"ID":271273,"DIS_CODE":0,"TOWNNAME":"西港區","LI":"慶安里","LIN":"3鄰","STREET":" ","SECT":" ","MAREA":"中州","LANE":" ","ALLEY":" ","HOUSE_NO":"２１號之９１","E_COORD97":167648.60000000001,"N_COORD97":2559654.1600000001,"ADDRESS":"中州２１號之９１","OBJECTID":271268},"geometry":{"x":167648.59999999963,"y":2559654.160000002}},{"attributes":{"ID":271274,"DIS_CODE":0,"TOWNNAME":"西港區","LI":"慶安里","LIN":"3鄰","STREET":" ","SECT":" ","MAREA":"中州","LANE":" ","ALLEY":" ","HOUSE_NO":"２１號之９２","E_COORD97":167644.97,"N_COORD97":2559652.1099999999,"ADDRESS":"中州２１號之９２","OBJECTID":271269},"geometry":{"x":167644.96999999974,"y":2559652.1099999994}},{"attributes":{"ID":271275,"DIS_CODE":0,"TOWNNAME":"西港區","LI":"慶安里","LIN":"3鄰","STREET":" ","SECT":" ","MAREA":"中州","LANE":" ","ALLEY":" ","HOUSE_NO":"２１號之９３","E_COORD97":167640.54000000001,"N_COORD97":2559644.3399999999,"ADDRESS":"中州２１號之９３","OBJECTID":271270},"geometry":{"x":167640.54000000097,"y":2559644.3399999999}},{"attributes":{"ID":271276,"DIS_CODE":0,"TOWNNAME":"西港區","LI":"慶安里","LIN":"3鄰","STREET":" ","SECT":" ","MAREA":"中州","LANE":" ","ALLEY":" ","HOUSE_NO":"２１之３８號","E_COORD97":167641.29999999999,"N_COORD97":2559375.3799999999,"ADDRESS":"中州２１之３８號","OBJECTID":271271},"geometry":{"x":167641.29999999981,"y":2559375.3799999971}},{"attributes":{"ID":271277,"DIS_CODE":0,"TOWNNAME":"西港區","LI":"慶安里","LIN":"3鄰","STREET":" ","SECT":" ","MAREA":"中州","LANE":" ","ALLEY":" ","HOUSE_NO":"２１號","E_COORD97":167671.07999999999,"N_COORD97":2559671.5699999998,"ADDRESS":"中州２１號","OBJECTID":271272},"geometry":{"x":167671.08000000101,"y":2559671.5700000022}},{"attributes":{"ID":271278,"DIS_CODE":0,"TOWNNAME":"西港區","LI":"南海里","LIN":"3鄰","STREET":" ","SECT":" ","MAREA":"南海埔","LANE":" ","ALLEY":" ","HOUSE_NO":"１９號","E_COORD97":167778.88,"N_COORD97":2557480.1899999999,"ADDRESS":"南海埔１９號","OBJECTID":271273},"geometry":{"x":167778.88000000082,"y":2557480.1900000013}},{"attributes":{"ID":271279,"DIS_CODE":0,"TOWNNAME":"西港區","LI":"南海里","LIN":"3鄰","STREET":" ","SECT":" ","MAREA":"南海埔","LANE":" ","ALLEY":" ","HOUSE_NO":"２０號之１","E_COORD97":167797.85000000001,"N_COORD97":2557448.8599999999,"ADDRESS":"南海埔２０號之１","OBJECTID":271274},"geometry":{"x":167797.84999999963,"y":2557448.8599999994}},{"attributes":{"ID":271280,"DIS_CODE":0,"TOWNNAME":"西港區","LI":"南海里","LIN":"3鄰","STREET":" ","SECT":" ","MAREA":"南海埔","LANE":" ","ALLEY":" ","HOUSE_NO":"２０號之３","E_COORD97":167810.45000000001,"N_COORD97":2557446.5099999998,"ADDRESS":"南海埔２０號之３","OBJECTID":271275},"geometry":{"x":167810.45000000205,"y":2557446.5100000035}},{"attributes":{"ID":271281,"DIS_CODE":0,"TOWNNAME":"西港區","LI":"南海里","LIN":"3鄰","STREET":" ","SECT":" ","MAREA":"南海埔","LANE":" ","ALLEY":" ","HOUSE_NO":"２１號之１","E_COORD97":167776.66,"N_COORD97":2557520.1600000001,"ADDRESS":"南海埔２１號之１","OBJECTID":271276},"geometry":{"x":167776.66000000201,"y":2557520.1599999983}},{"attributes":{"ID":271282,"DIS_CODE":0,"TOWNNAME":"西港區","LI":"南海里","LIN":"3鄰","STREET":" ","SECT":" ","MAREA":"南海埔","LANE":" ","ALLEY":" ","HOUSE_NO":"２１號","E_COORD97":167794.82000000001,"N_COORD97":2557505.3199999998,"ADDRESS":"南海埔２１號","OBJECTID":271277},"geometry":{"x":167794.82000000123,"y":2557505.3200000003}},{"attributes":{"ID":271283,"DIS_CODE":0,"TOWNNAME":"西港區","LI":"南海里","LIN":"3鄰","STREET":" ","SECT":" ","MAREA":"南海埔","LANE":" ","ALLEY":" ","HOUSE_NO":"２２號","E_COORD97":167789.88,"N_COORD97":2557532.3100000001,"ADDRESS":"南海埔２２號","OBJECTID":271278},"geometry":{"x":167789.87999999989,"y":2557532.3100000005}},{"attributes":{"ID":271284,"DIS_CODE":0,"TOWNNAME":"永康區","LI":"西橋里","LIN":"8鄰","STREET":"中華西街","SECT":" ","MAREA":" ","LANE":"６３巷","ALLEY":" ","HOUSE_NO":"８號","E_COORD97":170702.87,"N_COORD97":2546039.75,"ADDRESS":"中華西街６３巷８號","OBJECTID":271279},"geometry":{"x":170702.87000000197,"y":2546039.7500000037}},{"attributes":{"ID":271285,"DIS_CODE":0,"TOWNNAME":"永康區","LI":"西勢里","LIN":"8鄰","STREET":"西勢路","SECT":" ","MAREA":" ","LANE":"１９９巷","ALLEY":" ","HOUSE_NO":"５２號","E_COORD97":175828.5,"N_COORD97":2546669.3700000001,"ADDRESS":"西勢路１９９巷５２號","OBJECTID":271280},"geometry":{"x":175828.50000000093,"y":2546669.370000001}},{"attributes":{"ID":271286,"DIS_CODE":0,"TOWNNAME":"南區","LI":"大成里","LIN":"8鄰","STREET":"新興東路","SECT":" ","MAREA":" ","LANE":" ","ALLEY":" ","HOUSE_NO":"１７８號","E_COORD97":167967.60000000001,"N_COORD97":2542299.1000000001,"ADDRESS":"新興東路１７８號","OBJECTID":271281},"geometry":{"x":167967.59999999963,"y":2542299.1000000015}},{"attributes":{"ID":271287,"DIS_CODE":0,"TOWNNAME":"南區","LI":"大成里","LIN":"8鄰","STREET":"新興東路","SECT":" ","MAREA":" ","LANE":" ","ALLEY":" ","HOUSE_NO":"１７６號","E_COORD97":167970.78,"N_COORD97":2542298.9399999999,"ADDRESS":"新興東路１７６號","OBJECTID":271282},"geometry":{"x":167970.78000000026,"y":2542298.9400000013}},{"attributes":{"ID":271288,"DIS_CODE":0,"TOWNNAME":"南區","LI":"大成里","LIN":"8鄰","STREET":"新興東路","SECT":" ","MAREA":" ","LANE":" ","ALLEY":" ","HOUSE_NO":"１７０號","E_COORD97":167977.29000000001,"N_COORD97":2542298.54,"ADDRESS":"新興東路１７０號","OBJECTID":271283},"geometry":{"x":167977.29000000004,"y":2542298.540000001}},{"attributes":{"ID":271289,"DIS_CODE":0,"TOWNNAME":"南區","LI":"大成里","LIN":"8鄰","STREET":"新興東路","SECT":" ","MAREA":" ","LANE":" ","ALLEY":" ","HOUSE_NO":"１７２號","E_COORD97":167974.10999999999,"N_COORD97":2542298.54,"ADDRESS":"新興東路１７２號","OBJECTID":271284},"geometry":{"x":167974.11000000127,"y":2542298.540000001}},{"attributes":{"ID":271290,"DIS_CODE":0,"TOWNNAME":"南區","LI":"大成里","LIN":"8鄰","STREET":"新興東路","SECT":" ","MAREA":" ","LANE":" ","ALLEY":" ","HOUSE_NO":"１６８號","E_COORD97":167979.67000000001,"N_COORD97":2542298.7000000002,"ADDRESS":"新興東路１６８號","OBJECTID":271285},"geometry":{"x":167979.66999999993,"y":2542298.6999999993}},{"attributes":{"ID":271291,"DIS_CODE":0,"TOWNNAME":"南區","LI":"大成里","LIN":"8鄰","STREET":"新興東路","SECT":" ","MAREA":" ","LANE":" ","ALLEY":" ","HOUSE_NO":"１９８號","E_COORD97":167938.10999999999,"N_COORD97":2542310.7400000002,"ADDRESS":"新興東路１９８號","OBJECTID":271286},"geometry":{"x":167938.11000000034,"y":2542310.7400000039}},{"attributes":{"ID":271292,"DIS_CODE":0,"TOWNNAME":"新市區","LI":"大洲里","LIN":"3鄰","STREET":" ","SECT":" ","MAREA":"大洲","LANE":" ","ALLEY":" ","HOUSE_NO":"２７號","E_COORD97":174375.62,"N_COORD97":2552402.25,"ADDRESS":"大洲２７號","OBJECTID":271287},"geometry":{"x":174375.62000000011,"y":2552402.25}},{"attributes":{"ID":271293,"DIS_CODE":0,"TOWNNAME":"南區","LI":"大成里","LIN":"8鄰","STREET":"水交社路","SECT":" ","MAREA":" ","LANE":"３３３巷","ALLEY":" ","HOUSE_NO":"１６號","E_COORD97":167968.23999999999,"N_COORD97":2542311.6400000001,"ADDRESS":"水交社路３３３巷１６號","OBJECTID":271288},"geometry":{"x":167968.24000000115,"y":2542311.6399999987}},{"attributes":{"ID":271294,"DIS_CODE":0,"TOWNNAME":"南區","LI":"再興里","LIN":"8鄰","STREET":"三官路","SECT":" ","MAREA":" ","LANE":"７０巷","ALLEY":" ","HOUSE_NO":"４６之１號","E_COORD97":167201.26000000001,"N_COORD97":2542281.4500000002,"ADDRESS":"三官路７０巷４６之１號","OBJECTID":271289},"geometry":{"x":167201.26000000071,"y":2542281.4500000011}},{"attributes":{"ID":271295,"DIS_CODE":0,"TOWNNAME":"東區","LI":"大學里","LIN":"8鄰","STREET":"大學路","SECT":" ","MAREA":" ","LANE":"１８巷","ALLEY":" ","HOUSE_NO":"２０號","E_COORD97":170118.42999999999,"N_COORD97":2543885.9700000002,"ADDRESS":"大學路１８巷２０號","OBJECTID":271290},"geometry":{"x":170118.4299999997,"y":2543885.9699999988}},{"attributes":{"ID":271296,"DIS_CODE":0,"TOWNNAME":"東區","LI":"忠孝里","LIN":"8鄰","STREET":"榮譽街","SECT":" ","MAREA":" ","LANE":"８４巷","ALLEY":" ","HOUSE_NO":"１３７號","E_COORD97":169844.31,"N_COORD97":2541577.4199999999,"ADDRESS":"榮譽街８４巷１３７號","OBJECTID":271291},"geometry":{"x":169844.30999999959,"y":2541577.4200000018}},{"attributes":{"ID":271297,"DIS_CODE":0,"TOWNNAME":"善化區","LI":"文昌里","LIN":"8鄰","STREET":"文昌路","SECT":" ","MAREA":" ","LANE":"３５巷","ALLEY":" ","HOUSE_NO":"３８號","E_COORD97":177369.59,"N_COORD97":2558713.7799999998,"ADDRESS":"文昌路３５巷３８號","OBJECTID":271292},"geometry":{"x":177369.58999999985,"y":2558713.7800000012}},{"attributes":{"ID":271298,"DIS_CODE":0,"TOWNNAME":"善化區","LI":"文正里","LIN":"8鄰","STREET":"文正路","SECT":" ","MAREA":" ","LANE":"２５巷","ALLEY":" ","HOUSE_NO":"１５號之１","E_COORD97":176962.07000000001,"N_COORD97":2559277.5299999998,"ADDRESS":"文正路２５巷１５號之１","OBJECTID":271293},"geometry":{"x":176962.07000000216,"y":2559277.5300000012}},{"attributes":{"ID":271299,"DIS_CODE":0,"TOWNNAME":"善化區","LI":"文正里","LIN":"8鄰","STREET":"文正路","SECT":" ","MAREA":" ","LANE":"２５巷","ALLEY":" ","HOUSE_NO":"１５號","E_COORD97":176967.06,"N_COORD97":2559270.0299999998,"ADDRESS":"文正路２５巷１５號","OBJECTID":271294},"geometry":{"x":176967.06000000052,"y":2559270.0300000031}},{"attributes":{"ID":271300,"DIS_CODE":0,"TOWNNAME":"安南區","LI":"淵東里","LIN":"8鄰","STREET":"本原街","SECT":"三段","MAREA":" ","LANE":"３２１巷","ALLEY":" ","HOUSE_NO":"７９號之２","E_COORD97":165477.54999999999,"N_COORD97":2550206.79,"ADDRESS":"本原街三段３２１巷７９號之２","OBJECTID":271295},"geometry":{"x":165477.55000000075,"y":2550206.790000001}},{"attributes":{"ID":271301,"DIS_CODE":0,"TOWNNAME":"白河區","LI":"外角里","LIN":"8鄰","STREET":"光明街","SECT":" ","MAREA":" ","LANE":"７２巷","ALLEY":" ","HOUSE_NO":"１３號","E_COORD97":190596.87,"N_COORD97":2583418.96,"ADDRESS":"光明街７２巷１３號","OBJECTID":271296},"geometry":{"x":190596.87000000011,"y":2583418.9600000028}},{"attributes":{"ID":271302,"DIS_CODE":0,"TOWNNAME":"白河區","LI":"外角里","LIN":"8鄰","STREET":"光明街","SECT":" ","MAREA":" ","LANE":"７２巷","ALLEY":" ","HOUSE_NO":"２１號","E_COORD97":190595.17999999999,"N_COORD97":2583406.1400000001,"ADDRESS":"光明街７２巷２１號","OBJECTID":271297},"geometry":{"x":190595.18000000156,"y":2583406.1400000006}},{"attributes":{"ID":271303,"DIS_CODE":0,"TOWNNAME":"仁德區","LI":"大甲里","LIN":"8鄰","STREET":"行大街","SECT":" ","MAREA":" ","LANE":"３０７巷","ALLEY":" ","HOUSE_NO":"４６號","E_COORD97":169688.28,"N_COORD97":2535156.25,"ADDRESS":"行大街３０７巷４６號","OBJECTID":271298},"geometry":{"x":169688.28000000212,"y":2535156.25}},{"attributes":{"ID":271304,"DIS_CODE":0,"TOWNNAME":"仁德區","LI":"上崙里","LIN":"8鄰","STREET":"德善路","SECT":" ","MAREA":" ","LANE":"２９０巷","ALLEY":" ","HOUSE_NO":"２０號","E_COORD97":173931.34,"N_COORD97":2538442.27,"ADDRESS":"德善路２９０巷２０號","OBJECTID":271299},"geometry":{"x":173931.33999999985,"y":2538442.2700000014}},{"attributes":{"ID":271305,"DIS_CODE":0,"TOWNNAME":"仁德區","LI":"上崙里","LIN":"8鄰","STREET":"德善路","SECT":" ","MAREA":" ","LANE":"２９０巷","ALLEY":" ","HOUSE_NO":"７號","E_COORD97":173952.34,"N_COORD97":2538418.0099999998,"ADDRESS":"德善路２９０巷７號","OBJECTID":271300},"geometry":{"x":173952.33999999892,"y":2538418.0099999998}},{"attributes":{"ID":271306,"DIS_CODE":0,"TOWNNAME":"仁德區","LI":"上崙里","LIN":"8鄰","STREET":"德善路","SECT":" ","MAREA":" ","LANE":"２９０巷","ALLEY":" ","HOUSE_NO":"２２號","E_COORD97":173927.17999999999,"N_COORD97":2538443.52,"ADDRESS":"德善路２９０巷２２號","OBJECTID":271301},"geometry":{"x":173927.1799999997,"y":2538443.5200000014}},{"attributes":{"ID":271307,"DIS_CODE":0,"TOWNNAME":"仁德區","LI":"上崙里","LIN":"8鄰","STREET":"德善路","SECT":" ","MAREA":" ","LANE":"２９０巷","ALLEY":" ","HOUSE_NO":"３０號","E_COORD97":173911.09,"N_COORD97":2538448.27,"ADDRESS":"德善路２９０巷３０號","OBJECTID":271302},"geometry":{"x":173911.08999999985,"y":2538448.2700000033}},{"attributes":{"ID":271308,"DIS_CODE":0,"TOWNNAME":"仁德區","LI":"仁義里","LIN":"8鄰","STREET":"中山路","SECT":" ","MAREA":" ","LANE":"４７７巷","ALLEY":" ","HOUSE_NO":"２號","E_COORD97":173638.17000000001,"N_COORD97":2541257,"ADDRESS":"中山路４７７巷２號","OBJECTID":271303},"geometry":{"x":173638.16999999993,"y":2541257}},{"attributes":{"ID":271309,"DIS_CODE":0,"TOWNNAME":"中西區","LI":"開山里","LIN":"8鄰","STREET":"大同路","SECT":"一段","MAREA":" ","LANE":"４６巷","ALLEY":" ","HOUSE_NO":"３９號","E_COORD97":168985.85999999999,"N_COORD97":2543175.7999999998,"ADDRESS":"大同路一段４６巷３９號","OBJECTID":271304},"geometry":{"x":168985.8600000022,"y":2543175.8000000026}},{"attributes":{"ID":271310,"DIS_CODE":0,"TOWNNAME":"中西區","LI":"開山里","LIN":"8鄰","STREET":"府前路","SECT":"一段","MAREA":" ","LANE":"６１巷","ALLEY":" ","HOUSE_NO":"３１號","E_COORD97":168980.67000000001,"N_COORD97":2543154.1299999999,"ADDRESS":"府前路一段６１巷３１號","OBJECTID":271305},"geometry":{"x":168980.67000000086,"y":2543154.1299999971}},{"attributes":{"ID":271311,"DIS_CODE":0,"TOWNNAME":"中西區","LI":"開山里","LIN":"8鄰","STREET":"開山路","SECT":" ","MAREA":" ","LANE":"１２７巷","ALLEY":" ","HOUSE_NO":"７１號之１","E_COORD97":168978.97,"N_COORD97":2543125.6899999999,"ADDRESS":"開山路１２７巷７１號之１","OBJECTID":271306},"geometry":{"x":168978.96999999974,"y":2543125.6899999995}},{"attributes":{"ID":271312,"DIS_CODE":0,"TOWNNAME":"中西區","LI":"開山里","LIN":"8鄰","STREET":"開山路","SECT":" ","MAREA":" ","LANE":"１２７巷","ALLEY":" ","HOUSE_NO":"７１號之２","E_COORD97":168983.01000000001,"N_COORD97":2543123.46,"ADDRESS":"開山路１２７巷７１號之２","OBJECTID":271307},"geometry":{"x":168983.01000000071,"y":2543123.459999999}},{"attributes":{"ID":271313,"DIS_CODE":0,"TOWNNAME":"中西區","LI":"開山里","LIN":"8鄰","STREET":"開山路","SECT":" ","MAREA":" ","LANE":"１２７巷","ALLEY":" ","HOUSE_NO":"７３號","E_COORD97":168986.84,"N_COORD97":2543120.9100000001,"ADDRESS":"開山路１２７巷７３號","OBJECTID":271308},"geometry":{"x":168986.83999999985,"y":2543120.910000002}},{"attributes":{"ID":271314,"DIS_CODE":0,"TOWNNAME":"中西區","LI":"開山里","LIN":"8鄰","STREET":"開山路","SECT":" ","MAREA":" ","LANE":"１２７巷","ALLEY":" ","HOUSE_NO":"７３號之１","E_COORD97":168990.13,"N_COORD97":2543118.5699999998,"ADDRESS":"開山路１２７巷７３號之１","OBJECTID":271309},"geometry":{"x":168990.12999999989,"y":2543118.5700000003}},{"attributes":{"ID":271315,"DIS_CODE":0,"TOWNNAME":"善化區","LI":"文昌里","LIN":"15鄰","STREET":"光復路","SECT":" ","MAREA":" ","LANE":" ","ALLEY":" ","HOUSE_NO":"３４號","E_COORD97":177601.20000000001,"N_COORD97":2558730.7599999998,"ADDRESS":"光復路３４號","OBJECTID":271310},"geometry":{"x":177601.20000000019,"y":2558730.7600000016}},{"attributes":{"ID":271316,"DIS_CODE":0,"TOWNNAME":"東區","LI":"後甲里","LIN":"3鄰","STREET":"裕農路","SECT":" ","MAREA":" ","LANE":" ","ALLEY":" ","HOUSE_NO":"６３７號","E_COORD97":171667.5,"N_COORD97":2543242.8100000001,"ADDRESS":"裕農路６３７號","OBJECTID":271311},"geometry":{"x":171667.5,"y":2543242.8100000042}},{"attributes":{"ID":271317,"DIS_CODE":0,"TOWNNAME":"東區","LI":"富裕里","LIN":"3鄰","STREET":"裕農路","SECT":" ","MAREA":" ","LANE":" ","ALLEY":" ","HOUSE_NO":"１４號","E_COORD97":170531.97,"N_COORD97":2542830.3100000001,"ADDRESS":"裕農路１４號","OBJECTID":271312},"geometry":{"x":170531.96999999974,"y":2542830.3100000024}},{"attributes":{"ID":271318,"DIS_CODE":0,"TOWNNAME":"善化區","LI":"南關里","LIN":"8鄰","STREET":"光復路","SECT":" ","MAREA":" ","LANE":" ","ALLEY":" ","HOUSE_NO":"４２８號","E_COORD97":176893.79000000001,"N_COORD97":2558726.5099999998,"ADDRESS":"光復路４２８號","OBJECTID":271313},"geometry":{"x":176893.79000000004,"y":2558726.5099999998}},{"attributes":{"ID":271319,"DIS_CODE":0,"TOWNNAME":"善化區","LI":"坐駕里","LIN":"4鄰","STREET":"中正路","SECT":" ","MAREA":" ","LANE":" ","ALLEY":" ","HOUSE_NO":"４６２號","E_COORD97":177698.69,"N_COORD97":2558994.75,"ADDRESS":"中正路４６２號","OBJECTID":271314},"geometry":{"x":177698.69000000227,"y":2558994.7500000019}},{"attributes":{"ID":271320,"DIS_CODE":0,"TOWNNAME":"善化區","LI":"光文里","LIN":"20鄰","STREET":"民生路","SECT":" ","MAREA":" ","LANE":" ","ALLEY":" ","HOUSE_NO":"３３１號","E_COORD97":178094.39000000001,"N_COORD97":2558895.0099999998,"ADDRESS":"民生路３３１號","OBJECTID":271315},"geometry":{"x":178094.38999999966,"y":2558895.0100000016}},{"attributes":{"ID":271321,"DIS_CODE":0,"TOWNNAME":"善化區","LI":"坐駕里","LIN":"13鄰","STREET":"和平路","SECT":" ","MAREA":" ","LANE":" ","ALLEY":" ","HOUSE_NO":"３２號","E_COORD97":178168.06,"N_COORD97":2558693.5,"ADDRESS":"和平路３２號","OBJECTID":271316},"geometry":{"x":178168.05999999959,"y":2558693.5}},{"attributes":{"ID":271322,"DIS_CODE":0,"TOWNNAME":"善化區","LI":"文正里","LIN":"13鄰","STREET":"中山路","SECT":" ","MAREA":" ","LANE":" ","ALLEY":" ","HOUSE_NO":"５６０號之２","E_COORD97":176812.48000000001,"N_COORD97":2559268.52,"ADDRESS":"中山路５６０號之２","OBJECTID":271317},"geometry":{"x":176812.48000000138,"y":2559268.5199999996}},{"attributes":{"ID":271323,"DIS_CODE":0,"TOWNNAME":"善化區","LI":"光文里","LIN":" ","STREET":"中山路","SECT":" ","MAREA":" ","LANE":" ","ALLEY":" ","HOUSE_NO":"１３６號","E_COORD97":178499.12,"N_COORD97":2559180,"ADDRESS":"中山路１３６號","OBJECTID":271318},"geometry":{"x":178499.12000000197,"y":2559180.0000000019}},{"attributes":{"ID":271324,"DIS_CODE":0,"TOWNNAME":"東區","LI":"崇德里","LIN":"8鄰","STREET":"崇德七街","SECT":" ","MAREA":" ","LANE":"３０巷","ALLEY":" ","HOUSE_NO":"２３號","E_COORD97":170884.53,"N_COORD97":2541768.2200000002,"ADDRESS":"崇德七街３０巷２３號","OBJECTID":271319},"geometry":{"x":170884.53000000026,"y":2541768.2200000007}},{"attributes":{"ID":271325,"DIS_CODE":0,"TOWNNAME":"善化區","LI":"文正里","LIN":"13鄰","STREET":"中山路","SECT":" ","MAREA":" ","LANE":" ","ALLEY":" ","HOUSE_NO":"５６６號之９","E_COORD97":176775.73999999999,"N_COORD97":2559216.5499999998,"ADDRESS":"中山路５６６號之９","OBJECTID":271320},"geometry":{"x":176775.74000000022,"y":2559216.5500000007}},{"attributes":{"ID":271326,"DIS_CODE":0,"TOWNNAME":"善化區","LI":"南關里","LIN":"4鄰","STREET":"三民路","SECT":" ","MAREA":" ","LANE":" ","ALLEY":" ","HOUSE_NO":"２０號之３","E_COORD97":177086.34,"N_COORD97":2558899.27,"ADDRESS":"三民路２０號之３","OBJECTID":271321},"geometry":{"x":177086.33999999985,"y":2558899.2700000014}},{"attributes":{"ID":271327,"DIS_CODE":0,"TOWNNAME":"善化區","LI":"東關里","LIN":"20鄰","STREET":"中山路","SECT":" ","MAREA":" ","LANE":" ","ALLEY":" ","HOUSE_NO":"３５３之２號","E_COORD97":177608.17000000001,"N_COORD97":2559048.52,"ADDRESS":"中山路３５３之２號","OBJECTID":271322},"geometry":{"x":177608.16999999993,"y":2559048.5199999996}},{"attributes":{"ID":271328,"DIS_CODE":0,"TOWNNAME":"善化區","LI":"北關里","LIN":"4鄰","STREET":"三民路","SECT":" ","MAREA":" ","LANE":" ","ALLEY":" ","HOUSE_NO":"８４號","E_COORD97":177137.37,"N_COORD97":2559197,"ADDRESS":"三民路８４號","OBJECTID":271323},"geometry":{"x":177137.37000000011,"y":2559197.0000000019}},{"attributes":{"ID":271329,"DIS_CODE":0,"TOWNNAME":"善化區","LI":"小新里","LIN":" ","STREET":"成功路","SECT":" ","MAREA":" ","LANE":" ","ALLEY":" ","HOUSE_NO":"１７０號","E_COORD97":179505.94,"N_COORD97":2558767.4900000002,"ADDRESS":"成功路１７０號","OBJECTID":271324},"geometry":{"x":179505.94000000134,"y":2558767.4900000021}},{"attributes":{"ID":271330,"DIS_CODE":0,"TOWNNAME":"善化區","LI":"東關里","LIN":"20鄰","STREET":"中山路","SECT":" ","MAREA":" ","LANE":" ","ALLEY":" ","HOUSE_NO":"３５１號之２","E_COORD97":177622.17000000001,"N_COORD97":2559081.52,"ADDRESS":"中山路３５１號之２","OBJECTID":271325},"geometry":{"x":177622.17000000179,"y":2559081.5200000014}},{"attributes":{"ID":271331,"DIS_CODE":0,"TOWNNAME":"善化區","LI":"光文里","LIN":"18鄰","STREET":"和平路","SECT":" ","MAREA":" ","LANE":" ","ALLEY":" ","HOUSE_NO":"１３４號","E_COORD97":178128.62,"N_COORD97":2558945,"ADDRESS":"和平路１３４號","OBJECTID":271326},"geometry":{"x":178128.62000000011,"y":2558945}},{"attributes":{"ID":271332,"DIS_CODE":0,"TOWNNAME":"東區","LI":"仁和里","LIN":"8鄰","STREET":"仁和路","SECT":" ","MAREA":" ","LANE":"１０９巷","ALLEY":" ","HOUSE_NO":"１００號","E_COORD97":171637.53,"N_COORD97":2541325.3700000001,"ADDRESS":"仁和路１０９巷１００號","OBJECTID":271327},"geometry":{"x":171637.52999999933,"y":2541325.3700000029}},{"attributes":{"ID":271333,"DIS_CODE":0,"TOWNNAME":"東區","LI":"仁和里","LIN":"8鄰","STREET":"仁和路","SECT":" ","MAREA":" ","LANE":"１０９巷","ALLEY":" ","HOUSE_NO":"１０２號","E_COORD97":171641.47,"N_COORD97":2541324.9500000002,"ADDRESS":"仁和路１０９巷１０２號","OBJECTID":271328},"geometry":{"x":171641.47000000067,"y":2541324.950000003}},{"attributes":{"ID":271334,"DIS_CODE":0,"TOWNNAME":"東區","LI":"仁和里","LIN":"8鄰","STREET":"仁和路","SECT":" ","MAREA":" ","LANE":"１０９巷","ALLEY":" ","HOUSE_NO":"１０４號","E_COORD97":171646.12,"N_COORD97":2541325.23,"ADDRESS":"仁和路１０９巷１０４號","OBJECTID":271329},"geometry":{"x":171646.12000000104,"y":2541325.2300000023}},{"attributes":{"ID":271335,"DIS_CODE":0,"TOWNNAME":"東區","LI":"仁和里","LIN":"8鄰","STREET":"仁和路","SECT":" ","MAREA":" ","LANE":"１０９巷","ALLEY":" ","HOUSE_NO":"１０６號","E_COORD97":171650.35000000001,"N_COORD97":2541324.8100000001,"ADDRESS":"仁和路１０９巷１０６號","OBJECTID":271330},"geometry":{"x":171650.35000000056,"y":2541324.8100000024}},{"attributes":{"ID":271336,"DIS_CODE":0,"TOWNNAME":"東區","LI":"仁和里","LIN":"8鄰","STREET":"仁和路","SECT":" ","MAREA":" ","LANE":"１０９巷","ALLEY":" ","HOUSE_NO":"１０８號","E_COORD97":171654.85999999999,"N_COORD97":2541324.3900000001,"ADDRESS":"仁和路１０９巷１０８號","OBJECTID":271331},"geometry":{"x":171654.86000000127,"y":2541324.3900000025}},{"attributes":{"ID":271337,"DIS_CODE":0,"TOWNNAME":"東區","LI":"仁和里","LIN":"8鄰","STREET":"仁和路","SECT":" ","MAREA":" ","LANE":"１０９巷","ALLEY":" ","HOUSE_NO":"１１２號","E_COORD97":171662.75,"N_COORD97":2541325.0899999999,"ADDRESS":"仁和路１０９巷１１２號","OBJECTID":271332},"geometry":{"x":171662.75,"y":2541325.0900000017}},{"attributes":{"ID":271338,"DIS_CODE":0,"TOWNNAME":"東區","LI":"仁和里","LIN":"8鄰","STREET":"仁和路","SECT":" ","MAREA":" ","LANE":"１０９巷","ALLEY":" ","HOUSE_NO":"１１４號","E_COORD97":171667.12,"N_COORD97":2541325.3700000001,"ADDRESS":"仁和路１０９巷１１４號","OBJECTID":271333},"geometry":{"x":171667.12000000011,"y":2541325.3700000029}},{"attributes":{"ID":271339,"DIS_CODE":0,"TOWNNAME":"東區","LI":"仁和里","LIN":"8鄰","STREET":"仁和路","SECT":" ","MAREA":" ","LANE":"１０９巷","ALLEY":" ","HOUSE_NO":"１２０號","E_COORD97":171676.42000000001,"N_COORD97":2541325.5099999998,"ADDRESS":"仁和路１０９巷１２０號","OBJECTID":271334},"geometry":{"x":171676.41999999993,"y":2541325.5100000016}},{"attributes":{"ID":271340,"DIS_CODE":0,"TOWNNAME":"東區","LI":"仁和里","LIN":"8鄰","STREET":"仁和路","SECT":" ","MAREA":" ","LANE":"１０９巷","ALLEY":" ","HOUSE_NO":"１２２號","E_COORD97":171683.60999999999,"N_COORD97":2541324.6699999999,"ADDRESS":"仁和路１０９巷１２２號","OBJECTID":271335},"geometry":{"x":171683.61000000127,"y":2541324.6700000018}},{"attributes":{"ID":271341,"DIS_CODE":0,"TOWNNAME":"東區","LI":"仁和里","LIN":"8鄰","STREET":"仁和路","SECT":" ","MAREA":" ","LANE":"１０９巷","ALLEY":" ","HOUSE_NO":"１２４號","E_COORD97":171687.70000000001,"N_COORD97":2541324.5299999998,"ADDRESS":"仁和路１０９巷１２４號","OBJECTID":271336},"geometry":{"x":171687.70000000112,"y":2541324.5300000031}},{"attributes":{"ID":271342,"DIS_CODE":0,"TOWNNAME":"東區","LI":"仁和里","LIN":"8鄰","STREET":"仁和路","SECT":" ","MAREA":" ","LANE":"１０９巷","ALLEY":" ","HOUSE_NO":"１２６號","E_COORD97":171692.20999999999,"N_COORD97":2541324.25,"ADDRESS":"仁和路１０９巷１２６號","OBJECTID":271337},"geometry":{"x":171692.21000000089,"y":2541324.2500000019}},{"attributes":{"ID":271343,"DIS_CODE":0,"TOWNNAME":"東區","LI":"仁和里","LIN":"8鄰","STREET":"仁和路","SECT":" ","MAREA":" ","LANE":"１０９巷","ALLEY":" ","HOUSE_NO":"１３０號","E_COORD97":171700.10000000001,"N_COORD97":2541322.98,"ADDRESS":"仁和路１０９巷１３０號","OBJECTID":271338},"geometry":{"x":171700.09999999963,"y":2541322.9800000042}},{"attributes":{"ID":271344,"DIS_CODE":0,"TOWNNAME":"東區","LI":"仁和里","LIN":"8鄰","STREET":"仁和路","SECT":" ","MAREA":" ","LANE":"１０９巷","ALLEY":" ","HOUSE_NO":"１３２號","E_COORD97":171705.31,"N_COORD97":2541322.98,"ADDRESS":"仁和路１０９巷１３２號","OBJECTID":271339},"geometry":{"x":171705.31000000052,"y":2541322.9800000042}},{"attributes":{"ID":271345,"DIS_CODE":0,"TOWNNAME":"善化區","LI":"光文里","LIN":"20鄰","STREET":"民生路","SECT":" ","MAREA":" ","LANE":" ","ALLEY":" ","HOUSE_NO":"３２１號","E_COORD97":178119.64000000001,"N_COORD97":2558891.5099999998,"ADDRESS":"民生路３２１號","OBJECTID":271340},"geometry":{"x":178119.63999999966,"y":2558891.5100000016}},{"attributes":{"ID":271346,"DIS_CODE":0,"TOWNNAME":"善化區","LI":"光文里","LIN":"20鄰","STREET":"民生路","SECT":" ","MAREA":" ","LANE":" ","ALLEY":" ","HOUSE_NO":"３２５號","E_COORD97":178109.75,"N_COORD97":2558890.2599999998,"ADDRESS":"民生路３２５號","OBJECTID":271341},"geometry":{"x":178109.74999999907,"y":2558890.2600000016}},{"attributes":{"ID":271347,"DIS_CODE":0,"TOWNNAME":"東區","LI":"富強里","LIN":"3鄰","STREET":"中華東路","SECT":"二段","MAREA":" ","LANE":" ","ALLEY":" ","HOUSE_NO":"１８號","E_COORD97":171390.41,"N_COORD97":2543114.5600000001,"ADDRESS":"中華東路二段１８號","OBJECTID":271342},"geometry":{"x":171390.41000000015,"y":2543114.5600000005}},{"attributes":{"ID":271348,"DIS_CODE":0,"TOWNNAME":"東區","LI":"富裕里","LIN":"3鄰","STREET":"裕農路","SECT":" ","MAREA":" ","LANE":" ","ALLEY":" ","HOUSE_NO":"２號","E_COORD97":170497.06,"N_COORD97":2542815.8900000001,"ADDRESS":"裕農路２號","OBJECTID":271343},"geometry":{"x":170497.05999999959,"y":2542815.8900000025}},{"attributes":{"ID":271349,"DIS_CODE":0,"TOWNNAME":"東區","LI":"仁和里","LIN":"8鄰","STREET":"仁和路","SECT":" ","MAREA":" ","LANE":"１０９巷","ALLEY":" ","HOUSE_NO":"１３６號","E_COORD97":171712.92000000001,"N_COORD97":2541322.8399999999,"ADDRESS":"仁和路１０９巷１３６號","OBJECTID":271344},"geometry":{"x":171712.92000000086,"y":2541322.839999998}},{"attributes":{"ID":271350,"DIS_CODE":0,"TOWNNAME":"東區","LI":"仁和里","LIN":"8鄰","STREET":"仁和路","SECT":" ","MAREA":" ","LANE":"１０９巷","ALLEY":" ","HOUSE_NO":"１３８號","E_COORD97":171717.14999999999,"N_COORD97":2541322.1400000001,"ADDRESS":"仁和路１０９巷１３８號","OBJECTID":271345},"geometry":{"x":171717.1500000013,"y":2541322.1400000025}},{"attributes":{"ID":271351,"DIS_CODE":0,"TOWNNAME":"安南區","LI":"溪心里","LIN":"3鄰","STREET":"海佃路","SECT":"三段","MAREA":" ","LANE":" ","ALLEY":" ","HOUSE_NO":"１２號","E_COORD97":166365.01000000001,"N_COORD97":2549772.1299999999,"ADDRESS":"海佃路三段１２號","OBJECTID":271346},"geometry":{"x":166365.00999999978,"y":2549772.1299999971}},{"attributes":{"ID":271352,"DIS_CODE":0,"TOWNNAME":"東區","LI":"仁和里","LIN":"8鄰","STREET":"仁和路","SECT":" ","MAREA":" ","LANE":"１０９巷","ALLEY":" ","HOUSE_NO":"８６號","E_COORD97":171606.47,"N_COORD97":2541325.96,"ADDRESS":"仁和路１０９巷８６號","OBJECTID":271347},"geometry":{"x":171606.46999999974,"y":2541325.9600000009}},{"attributes":{"ID":271353,"DIS_CODE":0,"TOWNNAME":"東區","LI":"仁和里","LIN":"8鄰","STREET":"仁和路","SECT":" ","MAREA":" ","LANE":"１０９巷","ALLEY":" ","HOUSE_NO":"８８號","E_COORD97":171611.76999999999,"N_COORD97":2541326.3500000001,"ADDRESS":"仁和路１０９巷８８號","OBJECTID":271348},"geometry":{"x":171611.77000000048,"y":2541326.3500000034}},{"attributes":{"ID":271354,"DIS_CODE":0,"TOWNNAME":"東區","LI":"仁和里","LIN":"8鄰","STREET":"仁和路","SECT":" ","MAREA":" ","LANE":"１０９巷","ALLEY":" ","HOUSE_NO":"９０號","E_COORD97":171616.09,"N_COORD97":2541323.6000000001,"ADDRESS":"仁和路１０９巷９０號","OBJECTID":271349},"geometry":{"x":171616.08999999985,"y":2541323.5999999996}},{"attributes":{"ID":271355,"DIS_CODE":0,"TOWNNAME":"東區","LI":"仁和里","LIN":"8鄰","STREET":"仁和路","SECT":" ","MAREA":" ","LANE":"１０９巷","ALLEY":" ","HOUSE_NO":"９２號","E_COORD97":171621,"N_COORD97":2541324.9700000002,"ADDRESS":"仁和路１０９巷９２號","OBJECTID":271350},"geometry":{"x":171621.00000000093,"y":2541324.9700000007}},{"attributes":{"ID":271356,"DIS_CODE":0,"TOWNNAME":"東區","LI":"仁和里","LIN":"8鄰","STREET":"仁和路","SECT":" ","MAREA":" ","LANE":"１０９巷","ALLEY":" ","HOUSE_NO":"９４號","E_COORD97":171624.73000000001,"N_COORD97":2541323.6000000001,"ADDRESS":"仁和路１０９巷９４號","OBJECTID":271351},"geometry":{"x":171624.73000000231,"y":2541323.5999999996}},{"attributes":{"ID":271357,"DIS_CODE":0,"TOWNNAME":"東區","LI":"仁和里","LIN":"8鄰","STREET":"仁和路","SECT":" ","MAREA":" ","LANE":"１０９巷","ALLEY":" ","HOUSE_NO":"９６號","E_COORD97":171629.73000000001,"N_COORD97":2541325.0099999998,"ADDRESS":"仁和路１０９巷９６號","OBJECTID":271352},"geometry":{"x":171629.73000000231,"y":2541325.0099999979}},{"attributes":{"ID":271358,"DIS_CODE":0,"TOWNNAME":"東區","LI":"仁和里","LIN":"8鄰","STREET":"仁和路","SECT":" ","MAREA":" ","LANE":"１０９巷","ALLEY":" ","HOUSE_NO":"９８號","E_COORD97":171633.16,"N_COORD97":2541324.8100000001,"ADDRESS":"仁和路１０９巷９８號","OBJECTID":271353},"geometry":{"x":171633.15999999922,"y":2541324.8100000024}},{"attributes":{"ID":271359,"DIS_CODE":0,"TOWNNAME":"東區","LI":"東安里","LIN":"8鄰","STREET":"長榮路","SECT":"二段","MAREA":" ","LANE":"３２巷","ALLEY":" ","HOUSE_NO":"４８號","E_COORD97":170071.01999999999,"N_COORD97":2543184.6899999999,"ADDRESS":"長榮路二段３２巷４８號","OBJECTID":271354},"geometry":{"x":170071.02000000048,"y":2543184.6899999995}},{"attributes":{"ID":271360,"DIS_CODE":0,"TOWNNAME":"東區","LI":"東安里","LIN":"8鄰","STREET":"長榮路","SECT":"二段","MAREA":" ","LANE":"３２巷","ALLEY":" ","HOUSE_NO":"５０號","E_COORD97":170073.39000000001,"N_COORD97":2543186.04,"ADDRESS":"長榮路二段３２巷５０號","OBJECTID":271355},"geometry":{"x":170073.39000000153,"y":2543186.040000001}},{"attributes":{"ID":271361,"DIS_CODE":0,"TOWNNAME":"永康區","LI":"西橋里","LIN":"8鄰","STREET":"中山南路","SECT":" ","MAREA":" ","LANE":"４３巷","ALLEY":" ","HOUSE_NO":"７０號","E_COORD97":170655.44,"N_COORD97":2546029.5,"ADDRESS":"中山南路４３巷７０號","OBJECTID":271356},"geometry":{"x":170655.44000000134,"y":2546029.5000000019}},{"attributes":{"ID":271362,"DIS_CODE":0,"TOWNNAME":"永康區","LI":"西灣里","LIN":"8鄰","STREET":"大灣五街","SECT":" ","MAREA":" ","LANE":"９３巷","ALLEY":" ","HOUSE_NO":"８７號","E_COORD97":174524.06,"N_COORD97":2545187.5699999998,"ADDRESS":"大灣五街９３巷８７號","OBJECTID":271357},"geometry":{"x":174524.06000000052,"y":2545187.5700000022}},{"attributes":{"ID":271363,"DIS_CODE":0,"TOWNNAME":"永康區","LI":"西橋里","LIN":"8鄰","STREET":"中山南路","SECT":" ","MAREA":" ","LANE":"４３巷","ALLEY":" ","HOUSE_NO":"７６號","E_COORD97":170648.47,"N_COORD97":2546041.7400000002,"ADDRESS":"中山南路４３巷７６號","OBJECTID":271358},"geometry":{"x":170648.46999999974,"y":2546041.7400000021}},{"attributes":{"ID":271364,"DIS_CODE":0,"TOWNNAME":"永康區","LI":"西橋里","LIN":"8鄰","STREET":"中山南路","SECT":" ","MAREA":" ","LANE":"４３巷","ALLEY":" ","HOUSE_NO":"６８號","E_COORD97":170657.64999999999,"N_COORD97":2546025.5,"ADDRESS":"中山南路４３巷６８號","OBJECTID":271359},"geometry":{"x":170657.6500000013,"y":2546025.5000000019}},{"attributes":{"ID":271365,"DIS_CODE":0,"TOWNNAME":"永康區","LI":"西灣里","LIN":"8鄰","STREET":"大灣五街","SECT":" ","MAREA":" ","LANE":"９３巷","ALLEY":" ","HOUSE_NO":"７８號","E_COORD97":174537.34,"N_COORD97":2545206.1699999999,"ADDRESS":"大灣五街９３巷７８號","OBJECTID":271360},"geometry":{"x":174537.34000000171,"y":2545206.1700000037}},{"attributes":{"ID":271366,"DIS_CODE":0,"TOWNNAME":"中西區","LI":"萬昌里","LIN":"8鄰","STREET":"城隍街","SECT":" ","MAREA":" ","LANE":"６６巷","ALLEY":" ","HOUSE_NO":"６號","E_COORD97":168856.88,"N_COORD97":2543381.1000000001,"ADDRESS":"城隍街６６巷６號","OBJECTID":271361},"geometry":{"x":168856.88000000082,"y":2543381.0999999996}},{"attributes":{"ID":271367,"DIS_CODE":0,"TOWNNAME":"安南區","LI":"城北里","LIN":"8鄰","STREET":"安中路","SECT":"六段","MAREA":" ","LANE":"４２９巷","ALLEY":" ","HOUSE_NO":"１２１號","E_COORD97":161281.78,"N_COORD97":2551094.96,"ADDRESS":"安中路六段４２９巷１２１號","OBJECTID":271362},"geometry":{"x":161281.78000000212,"y":2551094.9600000028}},{"attributes":{"ID":271368,"DIS_CODE":0,"TOWNNAME":"安南區","LI":"城北里","LIN":"8鄰","STREET":"安中路","SECT":"六段","MAREA":" ","LANE":"４２９巷","ALLEY":" ","HOUSE_NO":"１２９號","E_COORD97":161311.66,"N_COORD97":2551087.3300000001,"ADDRESS":"安中路六段４２９巷１２９號","OBJECTID":271363},"geometry":{"x":161311.66000000108,"y":2551087.3300000001}},{"attributes":{"ID":271369,"DIS_CODE":0,"TOWNNAME":"安南區","LI":"城北里","LIN":"8鄰","STREET":"安中路","SECT":"六段","MAREA":" ","LANE":"４２９巷","ALLEY":" ","HOUSE_NO":"８１號","E_COORD97":161226.5,"N_COORD97":2551144.9700000002,"ADDRESS":"安中路六段４２９巷８１號","OBJECTID":271364},"geometry":{"x":161226.50000000093,"y":2551144.9700000044}},{"attributes":{"ID":271370,"DIS_CODE":0,"TOWNNAME":"安南區","LI":"城南里","LIN":"8鄰","STREET":"城西街","SECT":"一段","MAREA":" ","LANE":"２４９巷","ALLEY":" ","HOUSE_NO":"１３號","E_COORD97":160399.79999999999,"N_COORD97":2551159.2200000002,"ADDRESS":"城西街一段２４９巷１３號","OBJECTID":271365},"geometry":{"x":160399.80000000075,"y":2551159.2200000007}},{"attributes":{"ID":271371,"DIS_CODE":0,"TOWNNAME":"安南區","LI":"城南里","LIN":"8鄰","STREET":"城西街","SECT":"一段","MAREA":" ","LANE":"２４９巷","ALLEY":" ","HOUSE_NO":"１７號","E_COORD97":160408.51000000001,"N_COORD97":2551152.02,"ADDRESS":"城西街一段２４９巷１７號","OBJECTID":271366},"geometry":{"x":160408.51000000071,"y":2551152.0199999996}},{"attributes":{"ID":271372,"DIS_CODE":0,"TOWNNAME":"安南區","LI":"城南里","LIN":"8鄰","STREET":"城西街","SECT":"一段","MAREA":" ","LANE":"２４９巷","ALLEY":" ","HOUSE_NO":"１９號","E_COORD97":160410.73999999999,"N_COORD97":2551145.8100000001,"ADDRESS":"城西街一段２４９巷１９號","OBJECTID":271367},"geometry":{"x":160410.74000000209,"y":2551145.8100000042}},{"attributes":{"ID":271373,"DIS_CODE":0,"TOWNNAME":"安南區","LI":"青草里","LIN":"8鄰","STREET":"青砂街","SECT":"二段","MAREA":" ","LANE":"３７１巷","ALLEY":" ","HOUSE_NO":"５４號","E_COORD97":158965.16,"N_COORD97":2552977.7599999998,"ADDRESS":"青砂街二段３７１巷５４號","OBJECTID":271368},"geometry":{"x":158965.16000000201,"y":2552977.7600000016}},{"attributes":{"ID":271374,"DIS_CODE":0,"TOWNNAME":"安南區","LI":"青草里","LIN":"8鄰","STREET":"青砂街","SECT":"二段","MAREA":" ","LANE":"３７１巷","ALLEY":" ","HOUSE_NO":"６２號","E_COORD97":158958.60999999999,"N_COORD97":2552945.3300000001,"ADDRESS":"青砂街二段３７１巷６２號","OBJECTID":271369},"geometry":{"x":158958.61000000034,"y":2552945.3299999982}},{"attributes":{"ID":271375,"DIS_CODE":0,"TOWNNAME":"安南區","LI":"青草里","LIN":"8鄰","STREET":"青砂街","SECT":"二段","MAREA":" ","LANE":"３７１巷","ALLEY":" ","HOUSE_NO":"６６號","E_COORD97":158948.92000000001,"N_COORD97":2552973.0499999998,"ADDRESS":"青砂街二段３７１巷６６號","OBJECTID":271370},"geometry":{"x":158948.91999999993,"y":2552973.0500000026}},{"attributes":{"ID":271376,"DIS_CODE":0,"TOWNNAME":"安南區","LI":"青草里","LIN":"8鄰","STREET":"青砂街","SECT":"二段","MAREA":" ","LANE":"３７１巷","ALLEY":" ","HOUSE_NO":"７０號","E_COORD97":158934.78,"N_COORD97":2552970.4399999999,"ADDRESS":"青砂街二段３７１巷７０號","OBJECTID":271371},"geometry":{"x":158934.78000000026,"y":2552970.4399999995}},{"attributes":{"ID":271377,"DIS_CODE":0,"TOWNNAME":"東區","LI":"富裕里","LIN":"3鄰","STREET":"裕農路","SECT":" ","MAREA":" ","LANE":" ","ALLEY":" ","HOUSE_NO":"１２號","E_COORD97":170527.60999999999,"N_COORD97":2542828.52,"ADDRESS":"裕農路１２號","OBJECTID":271372},"geometry":{"x":170527.61000000127,"y":2542828.5200000014}},{"attributes":{"ID":271378,"DIS_CODE":0,"TOWNNAME":"安南區","LI":"青草里","LIN":"8鄰","STREET":"青砂街","SECT":"二段","MAREA":" ","LANE":"３７１巷","ALLEY":" ","HOUSE_NO":"７４號","E_COORD97":158948.14000000001,"N_COORD97":2552940.3599999999,"ADDRESS":"青砂街二段３７１巷７４號","OBJECTID":271373},"geometry":{"x":158948.1400000006,"y":2552940.3599999994}},{"attributes":{"ID":271379,"DIS_CODE":0,"TOWNNAME":"安南區","LI":"青草里","LIN":"8鄰","STREET":"青砂街","SECT":"二段","MAREA":" ","LANE":"３７１巷","ALLEY":" ","HOUSE_NO":"７８號","E_COORD97":158929.28,"N_COORD97":2552929.3700000001,"ADDRESS":"青砂街二段３７１巷７８號","OBJECTID":271374},"geometry":{"x":158929.28000000119,"y":2552929.3700000048}},{"attributes":{"ID":271380,"DIS_CODE":0,"TOWNNAME":"安南區","LI":"青草里","LIN":"8鄰","STREET":"青砂街","SECT":"二段","MAREA":" ","LANE":"３７１巷","ALLEY":" ","HOUSE_NO":"８２號","E_COORD97":158921.16,"N_COORD97":2552956.5699999998,"ADDRESS":"青砂街二段３７１巷８２號","OBJECTID":271375},"geometry":{"x":158921.16000000201,"y":2552956.5700000003}},{"attributes":{"ID":271381,"DIS_CODE":0,"TOWNNAME":"安南區","LI":"青草里","LIN":"8鄰","STREET":"青砂街","SECT":"二段","MAREA":" ","LANE":"４５５巷","ALLEY":" ","HOUSE_NO":"１５１號","E_COORD97":158882.48000000001,"N_COORD97":2552578.2599999998,"ADDRESS":"青砂街二段４５５巷１５１號","OBJECTID":271376},"geometry":{"x":158882.48000000138,"y":2552578.2599999998}},{"attributes":{"ID":271382,"DIS_CODE":0,"TOWNNAME":"安南區","LI":"砂崙里","LIN":"8鄰","STREET":"青砂街","SECT":"一段","MAREA":" ","LANE":"５７２巷","ALLEY":" ","HOUSE_NO":"１５１號","E_COORD97":159980.89000000001,"N_COORD97":2552848.46,"ADDRESS":"青砂街一段５７２巷１５１號","OBJECTID":271377},"geometry":{"x":159980.8900000006,"y":2552848.4600000028}},{"attributes":{"ID":271383,"DIS_CODE":0,"TOWNNAME":"安南區","LI":"溪心里","LIN":"3鄰","STREET":"海佃路","SECT":"三段","MAREA":" ","LANE":" ","ALLEY":" ","HOUSE_NO":"１６號","E_COORD97":166359.17999999999,"N_COORD97":2549779.7400000002,"ADDRESS":"海佃路三段１６號","OBJECTID":271378},"geometry":{"x":166359.18000000063,"y":2549779.7400000039}},{"attributes":{"ID":271384,"DIS_CODE":0,"TOWNNAME":"安南區","LI":"淵東里","LIN":"8鄰","STREET":"本原街","SECT":"三段","MAREA":" ","LANE":"３２１巷","ALLEY":" ","HOUSE_NO":"７７號","E_COORD97":165465.25,"N_COORD97":2550224.79,"ADDRESS":"本原街三段３２１巷７７號","OBJECTID":271379},"geometry":{"x":165465.25,"y":2550224.7899999991}},{"attributes":{"ID":271385,"DIS_CODE":0,"TOWNNAME":"安南區","LI":"城北里","LIN":"8鄰","STREET":"安中路","SECT":"六段","MAREA":" ","LANE":"３５１巷","ALLEY":" ","HOUSE_NO":"２５號","E_COORD97":161216.95999999999,"N_COORD97":2551223.0699999998,"ADDRESS":"安中路六段３５１巷２５號","OBJECTID":271380},"geometry":{"x":161216.95999999996,"y":2551223.0700000022}},{"attributes":{"ID":271386,"DIS_CODE":0,"TOWNNAME":"新市區","LI":"大營里","LIN":"3鄰","STREET":" ","SECT":" ","MAREA":"大營","LANE":" ","ALLEY":" ","HOUSE_NO":"３８號","E_COORD97":179730.63,"N_COORD97":2555573.5,"ADDRESS":"大營３８號","OBJECTID":271381},"geometry":{"x":179730.62999999989,"y":2555573.5000000019}},{"attributes":{"ID":271387,"DIS_CODE":0,"TOWNNAME":"西港區","LI":"後營里","LIN":"3鄰","STREET":" ","SECT":" ","MAREA":"後營","LANE":" ","ALLEY":" ","HOUSE_NO":"１７０號","E_COORD97":169912.07000000001,"N_COORD97":2560503.0899999999,"ADDRESS":"後營１７０號","OBJECTID":271382},"geometry":{"x":169912.07000000123,"y":2560503.0899999999}},{"attributes":{"ID":271388,"DIS_CODE":0,"TOWNNAME":"西港區","LI":"後營里","LIN":"3鄰","STREET":" ","SECT":" ","MAREA":"後營","LANE":" ","ALLEY":" ","HOUSE_NO":"１７１之１號","E_COORD97":169862.73000000001,"N_COORD97":2560528.3900000001,"ADDRESS":"後營１７１之１號","OBJECTID":271383},"geometry":{"x":169862.73000000045,"y":2560528.3900000006}},{"attributes":{"ID":271389,"DIS_CODE":0,"TOWNNAME":"西港區","LI":"後營里","LIN":"3鄰","STREET":" ","SECT":" ","MAREA":"後營","LANE":" ","ALLEY":" ","HOUSE_NO":"１７１號","E_COORD97":169874.66,"N_COORD97":2560517.4399999999,"ADDRESS":"後營１７１號","OBJECTID":271384},"geometry":{"x":169874.66000000015,"y":2560517.4399999995}},{"attributes":{"ID":271390,"DIS_CODE":0,"TOWNNAME":"新市區","LI":"港墘里","LIN":"3鄰","STREET":"三民街","SECT":" ","MAREA":" ","LANE":" ","ALLEY":" ","HOUSE_NO":"４８號","E_COORD97":178486.70999999999,"N_COORD97":2553402.54,"ADDRESS":"三民街４８號","OBJECTID":271385},"geometry":{"x":178486.71000000089,"y":2553402.5399999991}},{"attributes":{"ID":271391,"DIS_CODE":0,"TOWNNAME":"新市區","LI":"港墘里","LIN":"3鄰","STREET":"三民街","SECT":" ","MAREA":" ","LANE":" ","ALLEY":" ","HOUSE_NO":"２０號","E_COORD97":178541.01000000001,"N_COORD97":2553367.54,"ADDRESS":"三民街２０號","OBJECTID":271386},"geometry":{"x":178541.00999999978,"y":2553367.540000001}},{"attributes":{"ID":271392,"DIS_CODE":0,"TOWNNAME":"新市區","LI":"新市里","LIN":"3鄰","STREET":"仁愛街","SECT":" ","MAREA":" ","LANE":" ","ALLEY":" ","HOUSE_NO":"３０４號","E_COORD97":177655.12,"N_COORD97":2553009.0299999998,"ADDRESS":"仁愛街３０４號","OBJECTID":271387},"geometry":{"x":177655.12000000104,"y":2553009.0300000012}},{"attributes":{"ID":271393,"DIS_CODE":0,"TOWNNAME":"新市區","LI":"大社里","LIN":"3鄰","STREET":" ","SECT":" ","MAREA":"大社","LANE":" ","ALLEY":" ","HOUSE_NO":"９１之１９號","E_COORD97":180396.84,"N_COORD97":2554430.7999999998,"ADDRESS":"大社９１之１９號","OBJECTID":271388},"geometry":{"x":180396.83999999985,"y":2554430.8000000007}},{"attributes":{"ID":271394,"DIS_CODE":0,"TOWNNAME":"新市區","LI":"大洲里","LIN":"3鄰","STREET":" ","SECT":" ","MAREA":"大洲","LANE":" ","ALLEY":" ","HOUSE_NO":"２５號","E_COORD97":174468.87,"N_COORD97":2552411.25,"ADDRESS":"大洲２５號","OBJECTID":271389},"geometry":{"x":174468.87000000011,"y":2552411.2500000019}},{"attributes":{"ID":271395,"DIS_CODE":0,"TOWNNAME":"安南區","LI":"南興里","LIN":"8鄰","STREET":"安興街","SECT":" ","MAREA":" ","LANE":"６２４巷","ALLEY":" ","HOUSE_NO":"１３號","E_COORD97":163515,"N_COORD97":2552452.7200000002,"ADDRESS":"安興街６２４巷１３號","OBJECTID":271390},"geometry":{"x":163515.00000000093,"y":2552452.7200000025}},{"attributes":{"ID":271396,"DIS_CODE":0,"TOWNNAME":"安南區","LI":"公\u25A0里","LIN":"8鄰","STREET":"安興街","SECT":" ","MAREA":" ","LANE":"１８１巷","ALLEY":" ","HOUSE_NO":"１０８號","E_COORD97":163834.13,"N_COORD97":2551903.9300000002,"ADDRESS":"安興街１８１巷１０８號","OBJECTID":271391},"geometry":{"x":163834.13000000082,"y":2551903.9300000016}},{"attributes":{"ID":271397,"DIS_CODE":0,"TOWNNAME":"安南區","LI":"公\u25A0里","LIN":"8鄰","STREET":"安興街","SECT":" ","MAREA":" ","LANE":"１８１巷","ALLEY":" ","HOUSE_NO":"１１０號","E_COORD97":163828.32999999999,"N_COORD97":2551913.7000000002,"ADDRESS":"安興街１８１巷１１０號","OBJECTID":271392},"geometry":{"x":163828.33000000007,"y":2551913.6999999993}},{"attributes":{"ID":271398,"DIS_CODE":0,"TOWNNAME":"新市區","LI":"大社里","LIN":"3鄰","STREET":" ","SECT":" ","MAREA":"大社","LANE":" ","ALLEY":" ","HOUSE_NO":"９１之１２號","E_COORD97":180391.23000000001,"N_COORD97":2554440.7999999998,"ADDRESS":"大社９１之１２號","OBJECTID":271393},"geometry":{"x":180391.23000000138,"y":2554440.8000000007}},{"attributes":{"ID":271399,"DIS_CODE":0,"TOWNNAME":"新市區","LI":"大社里","LIN":"3鄰","STREET":" ","SECT":" ","MAREA":"大社","LANE":" ","ALLEY":" ","HOUSE_NO":"９１之９號","E_COORD97":180491.01000000001,"N_COORD97":2554423.5499999998,"ADDRESS":"大社９１之９號","OBJECTID":271394},"geometry":{"x":180491.00999999978,"y":2554423.5500000026}},{"attributes":{"ID":271400,"DIS_CODE":0,"TOWNNAME":"新市區","LI":"大社里","LIN":"3鄰","STREET":" ","SECT":" ","MAREA":"大社","LANE":" ","ALLEY":" ","HOUSE_NO":"９１之１１號","E_COORD97":180389.98000000001,"N_COORD97":2554446.2999999998,"ADDRESS":"大社９１之１１號","OBJECTID":271395},"geometry":{"x":180389.98000000045,"y":2554446.3000000026}},{"attributes":{"ID":271401,"DIS_CODE":0,"TOWNNAME":"新市區","LI":"大社里","LIN":"3鄰","STREET":" ","SECT":" ","MAREA":"大社","LANE":" ","ALLEY":" ","HOUSE_NO":"９１之１０號","E_COORD97":180466.45999999999,"N_COORD97":2554463.2999999998,"ADDRESS":"大社９１之１０號","OBJECTID":271396},"geometry":{"x":180466.46000000183,"y":2554463.3000000026}},{"attributes":{"ID":271402,"DIS_CODE":0,"TOWNNAME":"新市區","LI":"大洲里","LIN":"3鄰","STREET":" ","SECT":" ","MAREA":"大洲","LANE":" ","ALLEY":" ","HOUSE_NO":"２４號之７","E_COORD97":174513.32999999999,"N_COORD97":2552437.2999999998,"ADDRESS":"大洲２４號之７","OBJECTID":271397},"geometry":{"x":174513.33000000007,"y":2552437.3000000007}},{"attributes":{"ID":271403,"DIS_CODE":0,"TOWNNAME":"新市區","LI":"大洲里","LIN":"3鄰","STREET":" ","SECT":" ","MAREA":"大洲","LANE":" ","ALLEY":" ","HOUSE_NO":"２４號","E_COORD97":174484.67999999999,"N_COORD97":2552416.5,"ADDRESS":"大洲２４號","OBJECTID":271398},"geometry":{"x":174484.68000000063,"y":2552416.5000000019}},{"attributes":{"ID":271404,"DIS_CODE":0,"TOWNNAME":"新市區","LI":"大洲里","LIN":"3鄰","STREET":" ","SECT":" ","MAREA":"大洲","LANE":" ","ALLEY":" ","HOUSE_NO":"２３號","E_COORD97":174405.48999999999,"N_COORD97":2552421.75,"ADDRESS":"大洲２３號","OBJECTID":271399},"geometry":{"x":174405.49000000022,"y":2552421.7500000019}},{"attributes":{"ID":271405,"DIS_CODE":0,"TOWNNAME":"新市區","LI":"永就里","LIN":"3鄰","STREET":" ","SECT":" ","MAREA":"永就","LANE":" ","ALLEY":" ","HOUSE_NO":"２８之２號","E_COORD97":178510.64999999999,"N_COORD97":2551394.7999999998,"ADDRESS":"永就２８之２號","OBJECTID":271400},"geometry":{"x":178510.65000000037,"y":2551394.8000000026}}]}