{"displayFieldName":"TOWNNAME","fieldAliases":{"ID":"ID","DIS_CODE":"DIS_CODE","TOWNNAME":"TOWNNAME","LI":"LI","LIN":"LIN","STREET":"STREET","SECT":"SECT","MAREA":"MAREA","LANE":"LANE","ALLEY":"ALLEY","HOUSE_NO":"HOUSE_NO","E_COORD97":"E_COORD97","N_COORD97":"N_COORD97","ADDRESS":"ADDRESS","OBJECTID":"OBJECTID"},"geometryType":"esriGeometryPoint","spatialReference":{"wkid":102443,"latestWkid":3826},"fields":[{"name":"ID","type":"esriFieldTypeDouble","alias":"ID"},{"name":"DIS_CODE","type":"esriFieldTypeInteger","alias":"DIS_CODE"},{"name":"TOWNNAME","type":"esriFieldTypeString","alias":"TOWNNAME","length":8},{"name":"LI","type":"esriFieldTypeString","alias":"LI","length":8},{"name":"LIN","type":"esriFieldTypeString","alias":"LIN","length":12},{"name":"STREET","type":"esriFieldTypeString","alias":"STREET","length":20},{"name":"SECT","type":"esriFieldTypeString","alias":"SECT","length":8},{"name":"MAREA","type":"esriFieldTypeString","alias":"MAREA","length":12},{"name":"LANE","type":"esriFieldTypeString","alias":"LANE","length":10},{"name":"ALLEY","type":"esriFieldTypeString","alias":"ALLEY","length":10},{"name":"HOUSE_NO","type":"esriFieldTypeString","alias":"HOUSE_NO","length":20},{"name":"E_COORD97","type":"esriFieldTypeDouble","alias":"E_COORD97"},{"name":"N_COORD97","type":"esriFieldTypeDouble","alias":"N_COORD97"},{"name":"ADDRESS","type":"esriFieldTypeString","alias":"ADDRESS","length":50},{"name":"OBJECTID","type":"esriFieldTypeOID","alias":"OBJECTID"}],"features":[{"attributes":{"ID":366011,"DIS_CODE":0,"TOWNNAME":"下營區","LI":"後街里","LIN":"12鄰","STREET":"大同街","SECT":" ","MAREA":" ","LANE":"４８巷","ALLEY":" ","HOUSE_NO":"７號","E_COORD97":174545.98000000001,"N_COORD97":2570679.2200000002,"ADDRESS":"大同街４８巷７號","OBJECTID":366001},"geometry":{"x":174545.98000000138,"y":2570679.2200000025}},{"attributes":{"ID":366012,"DIS_CODE":0,"TOWNNAME":"中西區","LI":"青年里","LIN":"12鄰","STREET":"衛民街","SECT":" ","MAREA":" ","LANE":"１４３巷","ALLEY":" ","HOUSE_NO":"１２號","E_COORD97":168736.44,"N_COORD97":2543751.1400000001,"ADDRESS":"衛民街１４３巷１２號","OBJECTID":366002},"geometry":{"x":168736.44000000134,"y":2543751.1400000006}},{"attributes":{"ID":366013,"DIS_CODE":0,"TOWNNAME":"中西區","LI":"青年里","LIN":"12鄰","STREET":"衛民街","SECT":" ","MAREA":" ","LANE":"１４３巷","ALLEY":" ","HOUSE_NO":"１４號","E_COORD97":168739.73999999999,"N_COORD97":2543746.9399999999,"ADDRESS":"衛民街１４３巷１４號","OBJECTID":366003},"geometry":{"x":168739.74000000115,"y":2543746.9400000013}},{"attributes":{"ID":366014,"DIS_CODE":0,"TOWNNAME":"中西區","LI":"青年里","LIN":"12鄰","STREET":"衛民街","SECT":" ","MAREA":" ","LANE":"１４３巷","ALLEY":" ","HOUSE_NO":"１６號","E_COORD97":168753.84,"N_COORD97":2543728.3799999999,"ADDRESS":"衛民街１４３巷１６號","OBJECTID":366004},"geometry":{"x":168753.84000000078,"y":2543728.379999999}},{"attributes":{"ID":366015,"DIS_CODE":0,"TOWNNAME":"中西區","LI":"青年里","LIN":"12鄰","STREET":"衛民街","SECT":" ","MAREA":" ","LANE":"１４３巷","ALLEY":" ","HOUSE_NO":"２號","E_COORD97":168723.84,"N_COORD97":2543766.1099999999,"ADDRESS":"衛民街１４３巷２號","OBJECTID":366005},"geometry":{"x":168723.83999999985,"y":2543766.1100000013}},{"attributes":{"ID":366016,"DIS_CODE":0,"TOWNNAME":"中西區","LI":"青年里","LIN":"12鄰","STREET":"衛民街","SECT":" ","MAREA":" ","LANE":"１４３巷","ALLEY":" ","HOUSE_NO":"６號","E_COORD97":168729.54000000001,"N_COORD97":2543765.21,"ADDRESS":"衛民街１４３巷６號","OBJECTID":366006},"geometry":{"x":168729.54000000004,"y":2543765.2100000009}},{"attributes":{"ID":366017,"DIS_CODE":0,"TOWNNAME":"中西區","LI":"青年里","LIN":"12鄰","STREET":"衛民街","SECT":" ","MAREA":" ","LANE":"１４３巷","ALLEY":" ","HOUSE_NO":"８號","E_COORD97":168734.64000000001,"N_COORD97":2543758.3300000001,"ADDRESS":"衛民街１４３巷８號","OBJECTID":366007},"geometry":{"x":168734.6400000006,"y":2543758.3300000019}},{"attributes":{"ID":366018,"DIS_CODE":0,"TOWNNAME":"中西區","LI":"赤嵌里","LIN":"12鄰","STREET":"中成路","SECT":" ","MAREA":" ","LANE":"３８巷","ALLEY":" ","HOUSE_NO":"１１號","E_COORD97":168558.95999999999,"N_COORD97":2544225.1800000002,"ADDRESS":"中成路３８巷１１號","OBJECTID":366008},"geometry":{"x":168558.95999999996,"y":2544225.1799999997}},{"attributes":{"ID":366019,"DIS_CODE":0,"TOWNNAME":"中西區","LI":"赤嵌里","LIN":"12鄰","STREET":"中成路","SECT":" ","MAREA":" ","LANE":"３８巷","ALLEY":" ","HOUSE_NO":"１３號","E_COORD97":168562.26999999999,"N_COORD97":2544223.8599999999,"ADDRESS":"中成路３８巷１３號","OBJECTID":366009},"geometry":{"x":168562.27000000048,"y":2544223.8599999994}},{"attributes":{"ID":366020,"DIS_CODE":0,"TOWNNAME":"中西區","LI":"赤嵌里","LIN":"12鄰","STREET":"中成路","SECT":" ","MAREA":" ","LANE":"３８巷","ALLEY":" ","HOUSE_NO":"１５號","E_COORD97":168565.89999999999,"N_COORD97":2544222.21,"ADDRESS":"中成路３８巷１５號","OBJECTID":366010},"geometry":{"x":168565.9000000013,"y":2544222.2100000009}},{"attributes":{"ID":366021,"DIS_CODE":0,"TOWNNAME":"中西區","LI":"西賢里","LIN":"12鄰","STREET":"西賢一街","SECT":" ","MAREA":" ","LANE":"２１２巷","ALLEY":" ","HOUSE_NO":"８２號","E_COORD97":165795.41,"N_COORD97":2544871.4100000001,"ADDRESS":"西賢一街２１２巷８２號","OBJECTID":366011},"geometry":{"x":165795.41000000108,"y":2544871.4100000001}},{"attributes":{"ID":366022,"DIS_CODE":0,"TOWNNAME":"中西區","LI":"西賢里","LIN":"12鄰","STREET":"西賢一街","SECT":" ","MAREA":" ","LANE":"２１２巷","ALLEY":" ","HOUSE_NO":"８６號","E_COORD97":165804.92999999999,"N_COORD97":2544870.6499999999,"ADDRESS":"西賢一街２１２巷８６號","OBJECTID":366012},"geometry":{"x":165804.93000000063,"y":2544870.6500000004}},{"attributes":{"ID":366023,"DIS_CODE":0,"TOWNNAME":"安南區","LI":"安順里","LIN":"12鄰","STREET":"安和路","SECT":"四段","MAREA":" ","LANE":"３６巷","ALLEY":" ","HOUSE_NO":"１１２號","E_COORD97":170275.73000000001,"N_COORD97":2550122.9700000002,"ADDRESS":"安和路四段３６巷１１２號","OBJECTID":366013},"geometry":{"x":170275.73000000138,"y":2550122.9700000007}},{"attributes":{"ID":366024,"DIS_CODE":0,"TOWNNAME":"新市區","LI":"港墘里","LIN":"12鄰","STREET":"中山路","SECT":" ","MAREA":" ","LANE":"１０６巷","ALLEY":" ","HOUSE_NO":"１８號","E_COORD97":178316.06,"N_COORD97":2552793.25,"ADDRESS":"中山路１０６巷１８號","OBJECTID":366014},"geometry":{"x":178316.06000000052,"y":2552793.2499999981}},{"attributes":{"ID":366025,"DIS_CODE":0,"TOWNNAME":"安南區","LI":"海南里","LIN":"12鄰","STREET":"安明路","SECT":"一段","MAREA":" ","LANE":"９０１巷","ALLEY":" ","HOUSE_NO":"３９號","E_COORD97":165102.17999999999,"N_COORD97":2546868.2599999998,"ADDRESS":"安明路一段９０１巷３９號","OBJECTID":366015},"geometry":{"x":165102.1799999997,"y":2546868.2600000016}},{"attributes":{"ID":366026,"DIS_CODE":0,"TOWNNAME":"安南區","LI":"安東里","LIN":"12鄰","STREET":"安和路","SECT":"一段","MAREA":" ","LANE":"２２０巷","ALLEY":" ","HOUSE_NO":"１４７號","E_COORD97":169661.57999999999,"N_COORD97":2548122.1499999999,"ADDRESS":"安和路一段２２０巷１４７號","OBJECTID":366016},"geometry":{"x":169661.58000000007,"y":2548122.1500000004}},{"attributes":{"ID":366027,"DIS_CODE":0,"TOWNNAME":"安南區","LI":"安西里","LIN":"13鄰","STREET":"安和路","SECT":"一段","MAREA":" ","LANE":"１５９巷","ALLEY":" ","HOUSE_NO":"２４之２號","E_COORD97":169295.72,"N_COORD97":2547807.6099999999,"ADDRESS":"安和路一段１５９巷２４之２號","OBJECTID":366017},"geometry":{"x":169295.71999999974,"y":2547807.6100000013}},{"attributes":{"ID":366028,"DIS_CODE":0,"TOWNNAME":"安南區","LI":"安慶里","LIN":"13鄰","STREET":"安和路","SECT":"二段","MAREA":" ","LANE":"７３巷","ALLEY":" ","HOUSE_NO":"１６號","E_COORD97":169433.44,"N_COORD97":2548725.79,"ADDRESS":"安和路二段７３巷１６號","OBJECTID":366018},"geometry":{"x":169433.44000000134,"y":2548725.7899999991}},{"attributes":{"ID":366029,"DIS_CODE":0,"TOWNNAME":"安南區","LI":"安順里","LIN":"12鄰","STREET":"安和路","SECT":"三段","MAREA":" ","LANE":"１９０巷","ALLEY":" ","HOUSE_NO":"６７號","E_COORD97":170058.56,"N_COORD97":2549824.5,"ADDRESS":"安和路三段１９０巷６７號","OBJECTID":366019},"geometry":{"x":170058.56000000145,"y":2549824.5}},{"attributes":{"ID":366030,"DIS_CODE":0,"TOWNNAME":"安南區","LI":"幸福里","LIN":"12鄰","STREET":"府安路","SECT":"六段","MAREA":" ","LANE":"８６巷","ALLEY":" ","HOUSE_NO":"６７號","E_COORD97":166758.64999999999,"N_COORD97":2546699.6899999999,"ADDRESS":"府安路六段８６巷６７號","OBJECTID":366020},"geometry":{"x":166758.6500000013,"y":2546699.6899999995}},{"attributes":{"ID":366031,"DIS_CODE":0,"TOWNNAME":"佳里區","LI":"鎮山里","LIN":"12鄰","STREET":"仁愛路","SECT":" ","MAREA":" ","LANE":"２７２巷","ALLEY":" ","HOUSE_NO":"１０號","E_COORD97":166080.60999999999,"N_COORD97":2561539.5299999998,"ADDRESS":"仁愛路２７２巷１０號","OBJECTID":366021},"geometry":{"x":166080.61000000127,"y":2561539.5300000012}},{"attributes":{"ID":366032,"DIS_CODE":0,"TOWNNAME":"佳里區","LI":"鎮山里","LIN":"12鄰","STREET":"仁愛路","SECT":" ","MAREA":" ","LANE":"２７２巷","ALLEY":" ","HOUSE_NO":"１１號","E_COORD97":166117.17000000001,"N_COORD97":2561532.2400000002,"ADDRESS":"仁愛路２７２巷１１號","OBJECTID":366022},"geometry":{"x":166117.17000000086,"y":2561532.2400000021}},{"attributes":{"ID":366033,"DIS_CODE":0,"TOWNNAME":"佳里區","LI":"鎮山里","LIN":"12鄰","STREET":"仁愛路","SECT":" ","MAREA":" ","LANE":"２７２巷","ALLEY":" ","HOUSE_NO":"１２號","E_COORD97":166080.09,"N_COORD97":2561543.6200000001,"ADDRESS":"仁愛路２７２巷１２號","OBJECTID":366023},"geometry":{"x":166080.09000000171,"y":2561543.6200000029}},{"attributes":{"ID":366034,"DIS_CODE":0,"TOWNNAME":"佳里區","LI":"鎮山里","LIN":"12鄰","STREET":"仁愛路","SECT":" ","MAREA":" ","LANE":"２７２巷","ALLEY":" ","HOUSE_NO":"１號","E_COORD97":166096.29999999999,"N_COORD97":2561517.46,"ADDRESS":"仁愛路２７２巷１號","OBJECTID":366024},"geometry":{"x":166096.30000000075,"y":2561517.4600000028}},{"attributes":{"ID":366035,"DIS_CODE":0,"TOWNNAME":"佳里區","LI":"鎮山里","LIN":"12鄰","STREET":"仁愛路","SECT":" ","MAREA":" ","LANE":"２７２巷","ALLEY":" ","HOUSE_NO":"２號","E_COORD97":166081.44,"N_COORD97":2561523.29,"ADDRESS":"仁愛路２７２巷２號","OBJECTID":366025},"geometry":{"x":166081.44000000041,"y":2561523.290000001}},{"attributes":{"ID":366036,"DIS_CODE":0,"TOWNNAME":"佳里區","LI":"鎮山里","LIN":"12鄰","STREET":"仁愛路","SECT":" ","MAREA":" ","LANE":"２７２巷","ALLEY":" ","HOUSE_NO":"３號","E_COORD97":166097.51999999999,"N_COORD97":2561521.5099999998,"ADDRESS":"仁愛路２７２巷３號","OBJECTID":366026},"geometry":{"x":166097.52000000048,"y":2561521.5099999979}},{"attributes":{"ID":366037,"DIS_CODE":0,"TOWNNAME":"佳里區","LI":"鎮山里","LIN":"12鄰","STREET":"仁愛路","SECT":" ","MAREA":" ","LANE":"２７２巷","ALLEY":" ","HOUSE_NO":"４號","E_COORD97":166081.19,"N_COORD97":2561527.5699999998,"ADDRESS":"仁愛路２７２巷４號","OBJECTID":366027},"geometry":{"x":166081.19000000041,"y":2561527.5700000003}},{"attributes":{"ID":366038,"DIS_CODE":0,"TOWNNAME":"佳里區","LI":"鎮山里","LIN":"12鄰","STREET":"仁愛路","SECT":" ","MAREA":" ","LANE":"２７２巷","ALLEY":" ","HOUSE_NO":"５號","E_COORD97":166098.70999999999,"N_COORD97":2561525.21,"ADDRESS":"仁愛路２７２巷５號","OBJECTID":366028},"geometry":{"x":166098.71000000089,"y":2561525.2100000028}},{"attributes":{"ID":366039,"DIS_CODE":0,"TOWNNAME":"佳里區","LI":"鎮山里","LIN":"12鄰","STREET":"仁愛路","SECT":" ","MAREA":" ","LANE":"２７２巷","ALLEY":" ","HOUSE_NO":"６號","E_COORD97":166081.07999999999,"N_COORD97":2561531.6800000002,"ADDRESS":"仁愛路２７２巷６號","OBJECTID":366029},"geometry":{"x":166081.08000000101,"y":2561531.6800000016}},{"attributes":{"ID":366040,"DIS_CODE":0,"TOWNNAME":"佳里區","LI":"鎮山里","LIN":"12鄰","STREET":"仁愛路","SECT":" ","MAREA":" ","LANE":"２７２巷","ALLEY":" ","HOUSE_NO":"７號","E_COORD97":166100.48000000001,"N_COORD97":2561529.0699999998,"ADDRESS":"仁愛路２７２巷７號","OBJECTID":366030},"geometry":{"x":166100.48000000138,"y":2561529.0700000022}},{"attributes":{"ID":366041,"DIS_CODE":0,"TOWNNAME":"佳里區","LI":"鎮山里","LIN":"12鄰","STREET":"仁愛路","SECT":" ","MAREA":" ","LANE":"２７２巷","ALLEY":" ","HOUSE_NO":"８號","E_COORD97":166080.98000000001,"N_COORD97":2561535.5099999998,"ADDRESS":"仁愛路２７２巷８號","OBJECTID":366031},"geometry":{"x":166080.98000000045,"y":2561535.5100000035}},{"attributes":{"ID":366042,"DIS_CODE":0,"TOWNNAME":"東區","LI":"復興里","LIN":"12鄰","STREET":"裕學路","SECT":" ","MAREA":" ","LANE":"１８５巷","ALLEY":" ","HOUSE_NO":"６５號","E_COORD97":171707.95000000001,"N_COORD97":2542700.6299999999,"ADDRESS":"裕學路１８５巷６５號","OBJECTID":366032},"geometry":{"x":171707.95000000112,"y":2542700.6300000008}},{"attributes":{"ID":366043,"DIS_CODE":0,"TOWNNAME":"安南區","LI":"大安里","LIN":"13鄰","STREET":"義安街","SECT":" ","MAREA":" ","LANE":" ","ALLEY":" ","HOUSE_NO":"２８號","E_COORD97":167366.04000000001,"N_COORD97":2547932.7000000002,"ADDRESS":"義安街２８號","OBJECTID":366033},"geometry":{"x":167366.04000000097,"y":2547932.7000000011}},{"attributes":{"ID":366044,"DIS_CODE":0,"TOWNNAME":"安南區","LI":"大安里","LIN":"13鄰","STREET":"義安街","SECT":" ","MAREA":" ","LANE":" ","ALLEY":" ","HOUSE_NO":"２９號","E_COORD97":167348.34,"N_COORD97":2547949.4199999999,"ADDRESS":"義安街２９號","OBJECTID":366034},"geometry":{"x":167348.34000000078,"y":2547949.4199999999}},{"attributes":{"ID":366045,"DIS_CODE":0,"TOWNNAME":"安南區","LI":"大安里","LIN":"13鄰","STREET":"義安街","SECT":" ","MAREA":" ","LANE":" ","ALLEY":" ","HOUSE_NO":"２號","E_COORD97":167332.78,"N_COORD97":2547882.7400000002,"ADDRESS":"義安街２號","OBJECTID":366035},"geometry":{"x":167332.78000000026,"y":2547882.7400000021}},{"attributes":{"ID":366046,"DIS_CODE":0,"TOWNNAME":"七股區","LI":"龍山里","LIN":"13鄰","STREET":" ","SECT":" ","MAREA":"龍山","LANE":" ","ALLEY":" ","HOUSE_NO":"１３６號","E_COORD97":159365.67000000001,"N_COORD97":2559943.29,"ADDRESS":"龍山１３６號","OBJECTID":366036},"geometry":{"x":159365.67000000086,"y":2559943.290000001}},{"attributes":{"ID":366047,"DIS_CODE":0,"TOWNNAME":"安南區","LI":"城南里","LIN":"13鄰","STREET":"城西街","SECT":"二段","MAREA":" ","LANE":"２３３巷","ALLEY":" ","HOUSE_NO":"７號","E_COORD97":159772.67000000001,"N_COORD97":2550952.02,"ADDRESS":"城西街二段２３３巷７號","OBJECTID":366037},"geometry":{"x":159772.66999999993,"y":2550952.0199999996}},{"attributes":{"ID":366048,"DIS_CODE":0,"TOWNNAME":"安南區","LI":"安慶里","LIN":"13鄰","STREET":"培安路","SECT":" ","MAREA":" ","LANE":"２６７巷","ALLEY":" ","HOUSE_NO":"３３號","E_COORD97":169392.91,"N_COORD97":2548930.3999999999,"ADDRESS":"培安路２６７巷３３號","OBJECTID":366038},"geometry":{"x":169392.91000000108,"y":2548930.4000000004}},{"attributes":{"ID":366049,"DIS_CODE":0,"TOWNNAME":"安南區","LI":"頂安里","LIN":"13鄰","STREET":"安中路","SECT":"一段","MAREA":" ","LANE":"３５４巷","ALLEY":" ","HOUSE_NO":"３０之１號","E_COORD97":168442.26000000001,"N_COORD97":2548776.9900000002,"ADDRESS":"安中路一段３５４巷３０之１號","OBJECTID":366039},"geometry":{"x":168442.26000000071,"y":2548776.9900000002}},{"attributes":{"ID":366050,"DIS_CODE":0,"TOWNNAME":"東區","LI":"成大里","LIN":"13鄰","STREET":"育樂街","SECT":" ","MAREA":" ","LANE":"１５８巷","ALLEY":" ","HOUSE_NO":"１１號","E_COORD97":169470.26999999999,"N_COORD97":2543957.9300000002,"ADDRESS":"育樂街１５８巷１１號","OBJECTID":366040},"geometry":{"x":169470.26999999955,"y":2543957.9300000016}},{"attributes":{"ID":366051,"DIS_CODE":0,"TOWNNAME":"東區","LI":"復興里","LIN":"12鄰","STREET":"裕學路","SECT":" ","MAREA":" ","LANE":"１８５巷","ALLEY":" ","HOUSE_NO":"７８號","E_COORD97":171685.79000000001,"N_COORD97":2542704.5899999999,"ADDRESS":"裕學路１８５巷７８號","OBJECTID":366041},"geometry":{"x":171685.79000000004,"y":2542704.5900000036}},{"attributes":{"ID":366052,"DIS_CODE":0,"TOWNNAME":"東區","LI":"復興里","LIN":"12鄰","STREET":"裕學路","SECT":" ","MAREA":" ","LANE":"１８５巷","ALLEY":" ","HOUSE_NO":"６７號","E_COORD97":171709.64000000001,"N_COORD97":2542694.9700000002,"ADDRESS":"裕學路１８５巷６７號","OBJECTID":366042},"geometry":{"x":171709.6400000006,"y":2542694.9700000007}},{"attributes":{"ID":366053,"DIS_CODE":0,"TOWNNAME":"東區","LI":"復興里","LIN":"12鄰","STREET":"裕學路","SECT":" ","MAREA":" ","LANE":"１８５巷","ALLEY":" ","HOUSE_NO":"８０號","E_COORD97":171685.79000000001,"N_COORD97":2542701.1899999999,"ADDRESS":"裕學路１８５巷８０號","OBJECTID":366043},"geometry":{"x":171685.79000000004,"y":2542701.1900000013}},{"attributes":{"ID":366054,"DIS_CODE":0,"TOWNNAME":"東區","LI":"復興里","LIN":"12鄰","STREET":"裕學路","SECT":" ","MAREA":" ","LANE":"１８５巷","ALLEY":" ","HOUSE_NO":"６９號","E_COORD97":171710.04000000001,"N_COORD97":2542691.3900000001,"ADDRESS":"裕學路１８５巷６９號","OBJECTID":366044},"geometry":{"x":171710.04000000004,"y":2542691.3900000025}},{"attributes":{"ID":366055,"DIS_CODE":0,"TOWNNAME":"東區","LI":"復興里","LIN":"12鄰","STREET":"裕學路","SECT":" ","MAREA":" ","LANE":"１８５巷","ALLEY":" ","HOUSE_NO":"８２號","E_COORD97":171686.13,"N_COORD97":2542697.1000000001,"ADDRESS":"裕學路１８５巷８２號","OBJECTID":366045},"geometry":{"x":171686.13000000082,"y":2542697.0999999996}},{"attributes":{"ID":366056,"DIS_CODE":0,"TOWNNAME":"東區","LI":"復興里","LIN":"12鄰","STREET":"裕學路","SECT":" ","MAREA":" ","LANE":"１８５巷","ALLEY":" ","HOUSE_NO":"７１號","E_COORD97":171710.44,"N_COORD97":2542687.8100000001,"ADDRESS":"裕學路１８５巷７１號","OBJECTID":366046},"geometry":{"x":171710.44000000134,"y":2542687.8100000024}},{"attributes":{"ID":366057,"DIS_CODE":0,"TOWNNAME":"東區","LI":"復興里","LIN":"12鄰","STREET":"裕學路","SECT":" ","MAREA":" ","LANE":"１８５巷","ALLEY":" ","HOUSE_NO":"８６號","E_COORD97":171686.47,"N_COORD97":2542692,"ADDRESS":"裕學路１８５巷８６號","OBJECTID":366047},"geometry":{"x":171686.46999999974,"y":2542692.0000000037}},{"attributes":{"ID":366058,"DIS_CODE":0,"TOWNNAME":"東區","LI":"復興里","LIN":"12鄰","STREET":"裕學路","SECT":" ","MAREA":" ","LANE":"１８５巷","ALLEY":" ","HOUSE_NO":"７３號","E_COORD97":171711.63,"N_COORD97":2542684.6299999999,"ADDRESS":"裕學路１８５巷７３號","OBJECTID":366048},"geometry":{"x":171711.63000000082,"y":2542684.6300000008}},{"attributes":{"ID":366059,"DIS_CODE":0,"TOWNNAME":"東區","LI":"復興里","LIN":"12鄰","STREET":"裕學路","SECT":" ","MAREA":" ","LANE":"１８５巷","ALLEY":" ","HOUSE_NO":"８８號","E_COORD97":171688.17999999999,"N_COORD97":2542688.5899999999,"ADDRESS":"裕學路１８５巷８８號","OBJECTID":366049},"geometry":{"x":171688.1799999997,"y":2542688.5900000017}},{"attributes":{"ID":366060,"DIS_CODE":0,"TOWNNAME":"東區","LI":"復興里","LIN":"12鄰","STREET":"裕學路","SECT":" ","MAREA":" ","LANE":"１８５巷","ALLEY":" ","HOUSE_NO":"７５號","E_COORD97":171711.23000000001,"N_COORD97":2542680.25,"ADDRESS":"裕學路１８５巷７５號","OBJECTID":366050},"geometry":{"x":171711.23000000138,"y":2542680.2500000019}},{"attributes":{"ID":366061,"DIS_CODE":0,"TOWNNAME":"東區","LI":"復興里","LIN":"12鄰","STREET":"裕學路","SECT":" ","MAREA":" ","LANE":"１８５巷","ALLEY":" ","HOUSE_NO":"９０號","E_COORD97":171688.51999999999,"N_COORD97":2542684.5099999998,"ADDRESS":"裕學路１８５巷９０號","OBJECTID":366051},"geometry":{"x":171688.52000000048,"y":2542684.5099999979}},{"attributes":{"ID":366062,"DIS_CODE":0,"TOWNNAME":"東區","LI":"復興里","LIN":"12鄰","STREET":"裕學路","SECT":" ","MAREA":" ","LANE":"１８５巷","ALLEY":" ","HOUSE_NO":"７７號","E_COORD97":171712.42999999999,"N_COORD97":2542677.4700000002,"ADDRESS":"裕學路１８５巷７７號","OBJECTID":366052},"geometry":{"x":171712.43000000156,"y":2542677.4700000025}},{"attributes":{"ID":366063,"DIS_CODE":0,"TOWNNAME":"安南區","LI":"大安里","LIN":"13鄰","STREET":"義安街","SECT":" ","MAREA":" ","LANE":" ","ALLEY":" ","HOUSE_NO":"３２號","E_COORD97":167371.62,"N_COORD97":2547939.9500000002,"ADDRESS":"義安街３２號","OBJECTID":366053},"geometry":{"x":167371.62000000011,"y":2547939.950000003}},{"attributes":{"ID":366064,"DIS_CODE":0,"TOWNNAME":"安南區","LI":"大安里","LIN":"13鄰","STREET":"義安街","SECT":" ","MAREA":" ","LANE":" ","ALLEY":" ","HOUSE_NO":"３４號","E_COORD97":167373.5,"N_COORD97":2547943.8300000001,"ADDRESS":"義安街３４號","OBJECTID":366054},"geometry":{"x":167373.5,"y":2547943.8300000001}},{"attributes":{"ID":366065,"DIS_CODE":0,"TOWNNAME":"安南區","LI":"大安里","LIN":"13鄰","STREET":"義安街","SECT":" ","MAREA":" ","LANE":" ","ALLEY":" ","HOUSE_NO":"３６號","E_COORD97":167376.06,"N_COORD97":2547947.5800000001,"ADDRESS":"義安街３６號","OBJECTID":366055},"geometry":{"x":167376.05999999959,"y":2547947.5800000019}},{"attributes":{"ID":366066,"DIS_CODE":0,"TOWNNAME":"安南區","LI":"大安里","LIN":"13鄰","STREET":"義安街","SECT":" ","MAREA":" ","LANE":" ","ALLEY":" ","HOUSE_NO":"４４號","E_COORD97":167386.47,"N_COORD97":2547963.9100000001,"ADDRESS":"義安街４４號","OBJECTID":366056},"geometry":{"x":167386.47000000067,"y":2547963.9100000001}},{"attributes":{"ID":366067,"DIS_CODE":0,"TOWNNAME":"安南區","LI":"大安里","LIN":"13鄰","STREET":"義安街","SECT":" ","MAREA":" ","LANE":" ","ALLEY":" ","HOUSE_NO":"４６號","E_COORD97":167387.64999999999,"N_COORD97":2547967.8599999999,"ADDRESS":"義安街４６號","OBJECTID":366057},"geometry":{"x":167387.6500000013,"y":2547967.8600000013}},{"attributes":{"ID":366068,"DIS_CODE":0,"TOWNNAME":"東區","LI":"復興里","LIN":"12鄰","STREET":"裕學路","SECT":" ","MAREA":" ","LANE":"１８５巷","ALLEY":" ","HOUSE_NO":"９２號","E_COORD97":171688.51999999999,"N_COORD97":2542681.1000000001,"ADDRESS":"裕學路１８５巷９２號","OBJECTID":366058},"geometry":{"x":171688.52000000048,"y":2542681.1000000015}},{"attributes":{"ID":366069,"DIS_CODE":0,"TOWNNAME":"七股區","LI":"頂山里","LIN":"13鄰","STREET":" ","SECT":" ","MAREA":"頂山","LANE":" ","ALLEY":" ","HOUSE_NO":"１２４號","E_COORD97":158935.54999999999,"N_COORD97":2564564.2200000002,"ADDRESS":"頂山１２４號","OBJECTID":366059},"geometry":{"x":158935.55000000075,"y":2564564.2200000007}},{"attributes":{"ID":366070,"DIS_CODE":0,"TOWNNAME":"七股區","LI":"頂山里","LIN":"13鄰","STREET":" ","SECT":" ","MAREA":"頂山","LANE":" ","ALLEY":" ","HOUSE_NO":"１２５號","E_COORD97":158917.32000000001,"N_COORD97":2564566.98,"ADDRESS":"頂山１２５號","OBJECTID":366060},"geometry":{"x":158917.32000000123,"y":2564566.9799999986}},{"attributes":{"ID":366071,"DIS_CODE":0,"TOWNNAME":"七股區","LI":"頂山里","LIN":"13鄰","STREET":" ","SECT":" ","MAREA":"頂山","LANE":" ","ALLEY":" ","HOUSE_NO":"１２６號","E_COORD97":158903.10999999999,"N_COORD97":2564590.7400000002,"ADDRESS":"頂山１２６號","OBJECTID":366061},"geometry":{"x":158903.11000000127,"y":2564590.7400000002}},{"attributes":{"ID":366072,"DIS_CODE":0,"TOWNNAME":"七股區","LI":"頂山里","LIN":"13鄰","STREET":" ","SECT":" ","MAREA":"頂山","LANE":" ","ALLEY":" ","HOUSE_NO":"１２７號","E_COORD97":158920.60000000001,"N_COORD97":2564586.0299999998,"ADDRESS":"頂山１２７號","OBJECTID":366062},"geometry":{"x":158920.59999999963,"y":2564586.0300000031}},{"attributes":{"ID":366073,"DIS_CODE":0,"TOWNNAME":"七股區","LI":"頂山里","LIN":"13鄰","STREET":" ","SECT":" ","MAREA":"頂山","LANE":" ","ALLEY":" ","HOUSE_NO":"１２８號","E_COORD97":158940.56,"N_COORD97":2564580.1099999999,"ADDRESS":"頂山１２８號","OBJECTID":366063},"geometry":{"x":158940.56000000052,"y":2564580.1100000013}},{"attributes":{"ID":366074,"DIS_CODE":0,"TOWNNAME":"七股區","LI":"龍山里","LIN":"13鄰","STREET":" ","SECT":" ","MAREA":"龍山","LANE":" ","ALLEY":" ","HOUSE_NO":"１３７號","E_COORD97":159348.01999999999,"N_COORD97":2559952.1400000001,"ADDRESS":"龍山１３７號","OBJECTID":366064},"geometry":{"x":159348.01999999955,"y":2559952.1400000043}},{"attributes":{"ID":366075,"DIS_CODE":0,"TOWNNAME":"七股區","LI":"頂山里","LIN":"13鄰","STREET":" ","SECT":" ","MAREA":"頂山","LANE":" ","ALLEY":" ","HOUSE_NO":"１２９號","E_COORD97":158945.17000000001,"N_COORD97":2564600.0099999998,"ADDRESS":"頂山１２９號","OBJECTID":366065},"geometry":{"x":158945.17000000086,"y":2564600.0099999979}},{"attributes":{"ID":366076,"DIS_CODE":0,"TOWNNAME":"七股區","LI":"頂山里","LIN":"13鄰","STREET":" ","SECT":" ","MAREA":"頂山","LANE":" ","ALLEY":" ","HOUSE_NO":"１３０號","E_COORD97":158921.10000000001,"N_COORD97":2564606.6000000001,"ADDRESS":"頂山１３０號","OBJECTID":366066},"geometry":{"x":158921.10000000056,"y":2564606.6000000015}},{"attributes":{"ID":366077,"DIS_CODE":0,"TOWNNAME":"七股區","LI":"頂山里","LIN":"13鄰","STREET":" ","SECT":" ","MAREA":"頂山","LANE":" ","ALLEY":" ","HOUSE_NO":"１３１號","E_COORD97":158904.94,"N_COORD97":2564610,"ADDRESS":"頂山１３１號","OBJECTID":366067},"geometry":{"x":158904.94000000134,"y":2564610}},{"attributes":{"ID":366078,"DIS_CODE":0,"TOWNNAME":"七股區","LI":"頂山里","LIN":"13鄰","STREET":" ","SECT":" ","MAREA":"頂山","LANE":" ","ALLEY":" ","HOUSE_NO":"１３３號","E_COORD97":158917.04000000001,"N_COORD97":2564646.3799999999,"ADDRESS":"頂山１３３號","OBJECTID":366068},"geometry":{"x":158917.04000000097,"y":2564646.379999999}},{"attributes":{"ID":366079,"DIS_CODE":0,"TOWNNAME":"七股區","LI":"後港里","LIN":"13鄰","STREET":" ","SECT":" ","MAREA":"港西","LANE":" ","ALLEY":" ","HOUSE_NO":"２９號","E_COORD97":162360.73999999999,"N_COORD97":2564974.5299999998,"ADDRESS":"港西２９號","OBJECTID":366069},"geometry":{"x":162360.74000000115,"y":2564974.5299999993}},{"attributes":{"ID":366080,"DIS_CODE":0,"TOWNNAME":"七股區","LI":"後港里","LIN":"13鄰","STREET":" ","SECT":" ","MAREA":"港西","LANE":" ","ALLEY":" ","HOUSE_NO":"３３號之１","E_COORD97":162354.60999999999,"N_COORD97":2564929.8900000001,"ADDRESS":"港西３３號之１","OBJECTID":366070},"geometry":{"x":162354.61000000127,"y":2564929.8900000006}},{"attributes":{"ID":366081,"DIS_CODE":0,"TOWNNAME":"七股區","LI":"後港里","LIN":"13鄰","STREET":" ","SECT":" ","MAREA":"港西","LANE":" ","ALLEY":" ","HOUSE_NO":"３３號之２","E_COORD97":162356.51000000001,"N_COORD97":2564925.2400000002,"ADDRESS":"港西３３號之２","OBJECTID":366071},"geometry":{"x":162356.51000000071,"y":2564925.2400000021}},{"attributes":{"ID":366082,"DIS_CODE":0,"TOWNNAME":"七股區","LI":"後港里","LIN":"13鄰","STREET":" ","SECT":" ","MAREA":"港西","LANE":" ","ALLEY":" ","HOUSE_NO":"３３號之３","E_COORD97":162358.17000000001,"N_COORD97":2564920.9100000001,"ADDRESS":"港西３３號之３","OBJECTID":366072},"geometry":{"x":162358.16999999993,"y":2564920.910000002}},{"attributes":{"ID":366083,"DIS_CODE":0,"TOWNNAME":"七股區","LI":"後港里","LIN":"13鄰","STREET":" ","SECT":" ","MAREA":"港西","LANE":" ","ALLEY":" ","HOUSE_NO":"３３號之４","E_COORD97":162360.04999999999,"N_COORD97":2564916.4100000001,"ADDRESS":"港西３３號之４","OBJECTID":366073},"geometry":{"x":162360.05000000075,"y":2564916.4100000039}},{"attributes":{"ID":366084,"DIS_CODE":0,"TOWNNAME":"七股區","LI":"後港里","LIN":"13鄰","STREET":" ","SECT":" ","MAREA":"港西","LANE":" ","ALLEY":" ","HOUSE_NO":"３３號之５","E_COORD97":162360.23000000001,"N_COORD97":2564910.9100000001,"ADDRESS":"港西３３號之５","OBJECTID":366074},"geometry":{"x":162360.23000000045,"y":2564910.910000002}},{"attributes":{"ID":366085,"DIS_CODE":0,"TOWNNAME":"七股區","LI":"後港里","LIN":"13鄰","STREET":" ","SECT":" ","MAREA":"港西","LANE":" ","ALLEY":" ","HOUSE_NO":"３３號","E_COORD97":162356.35000000001,"N_COORD97":2564935.7200000002,"ADDRESS":"港西３３號","OBJECTID":366075},"geometry":{"x":162356.34999999963,"y":2564935.7200000025}},{"attributes":{"ID":366086,"DIS_CODE":0,"TOWNNAME":"七股區","LI":"樹林里","LIN":"13鄰","STREET":" ","SECT":" ","MAREA":"樹林","LANE":" ","ALLEY":" ","HOUSE_NO":"１１７號","E_COORD97":163810.04000000001,"N_COORD97":2556952.0800000001,"ADDRESS":"樹林１１７號","OBJECTID":366076},"geometry":{"x":163810.04000000004,"y":2556952.0800000019}},{"attributes":{"ID":366087,"DIS_CODE":0,"TOWNNAME":"安南區","LI":"大安里","LIN":"13鄰","STREET":"義安街","SECT":" ","MAREA":" ","LANE":" ","ALLEY":" ","HOUSE_NO":"４８號","E_COORD97":167390.42000000001,"N_COORD97":2547971.25,"ADDRESS":"義安街４８號","OBJECTID":366077},"geometry":{"x":167390.42000000086,"y":2547971.25}},{"attributes":{"ID":366088,"DIS_CODE":0,"TOWNNAME":"七股區","LI":"樹林里","LIN":"13鄰","STREET":" ","SECT":" ","MAREA":"樹林","LANE":" ","ALLEY":" ","HOUSE_NO":"１１９號之１","E_COORD97":163769.39999999999,"N_COORD97":2556907.4700000002,"ADDRESS":"樹林１１９號之１","OBJECTID":366078},"geometry":{"x":163769.40000000037,"y":2556907.4700000007}},{"attributes":{"ID":366089,"DIS_CODE":0,"TOWNNAME":"七股區","LI":"樹林里","LIN":"13鄰","STREET":" ","SECT":" ","MAREA":"樹林","LANE":" ","ALLEY":" ","HOUSE_NO":"１１９號之２","E_COORD97":163753.64999999999,"N_COORD97":2556917.5600000001,"ADDRESS":"樹林１１９號之２","OBJECTID":366079},"geometry":{"x":163753.65000000037,"y":2556917.5600000005}},{"attributes":{"ID":366090,"DIS_CODE":0,"TOWNNAME":"東區","LI":"復興里","LIN":"12鄰","STREET":"裕學路","SECT":" ","MAREA":" ","LANE":"１８５巷","ALLEY":" ","HOUSE_NO":"７９號","E_COORD97":171712.82999999999,"N_COORD97":2542673.4900000002,"ADDRESS":"裕學路１８５巷７９號","OBJECTID":366080},"geometry":{"x":171712.83000000007,"y":2542673.4900000002}},{"attributes":{"ID":366091,"DIS_CODE":0,"TOWNNAME":"東區","LI":"復興里","LIN":"12鄰","STREET":"裕學路","SECT":" ","MAREA":" ","LANE":"１８５巷","ALLEY":" ","HOUSE_NO":"９６號","E_COORD97":171688.85999999999,"N_COORD97":2542677.7000000002,"ADDRESS":"裕學路１８５巷９６號","OBJECTID":366081},"geometry":{"x":171688.86000000127,"y":2542677.7000000011}},{"attributes":{"ID":366092,"DIS_CODE":0,"TOWNNAME":"東區","LI":"復興里","LIN":"12鄰","STREET":"裕學路","SECT":" ","MAREA":" ","LANE":"１８５巷","ALLEY":" ","HOUSE_NO":"８１號","E_COORD97":171712.42999999999,"N_COORD97":2542669.9100000001,"ADDRESS":"裕學路１８５巷８１號","OBJECTID":366082},"geometry":{"x":171712.43000000156,"y":2542669.910000002}},{"attributes":{"ID":366093,"DIS_CODE":0,"TOWNNAME":"東區","LI":"復興里","LIN":"12鄰","STREET":"裕學路","SECT":" ","MAREA":" ","LANE":"１８５巷","ALLEY":" ","HOUSE_NO":"９８號","E_COORD97":171688.51999999999,"N_COORD97":2542673.27,"ADDRESS":"裕學路１８５巷９８號","OBJECTID":366083},"geometry":{"x":171688.52000000048,"y":2542673.2700000014}},{"attributes":{"ID":366094,"DIS_CODE":0,"TOWNNAME":"東區","LI":"復興里","LIN":"12鄰","STREET":"裕學路","SECT":" ","MAREA":" ","LANE":"１８５巷","ALLEY":" ","HOUSE_NO":"８３號","E_COORD97":171713.62,"N_COORD97":2542665.9399999999,"ADDRESS":"裕學路１８５巷８３號","OBJECTID":366084},"geometry":{"x":171713.62000000104,"y":2542665.9400000013}},{"attributes":{"ID":366095,"DIS_CODE":0,"TOWNNAME":"東區","LI":"復興里","LIN":"12鄰","STREET":"裕學路","SECT":" ","MAREA":" ","LANE":"１８５巷","ALLEY":" ","HOUSE_NO":"１００號","E_COORD97":171689.20000000001,"N_COORD97":2542669.8700000001,"ADDRESS":"裕學路１８５巷１００號","OBJECTID":366085},"geometry":{"x":171689.20000000112,"y":2542669.8699999992}},{"attributes":{"ID":366096,"DIS_CODE":0,"TOWNNAME":"東區","LI":"復興里","LIN":"12鄰","STREET":"裕學路","SECT":" ","MAREA":" ","LANE":"１８５巷","ALLEY":" ","HOUSE_NO":"８５號","E_COORD97":171714.42000000001,"N_COORD97":2542661.96,"ADDRESS":"裕學路１８５巷８５號","OBJECTID":366086},"geometry":{"x":171714.42000000179,"y":2542661.9600000009}},{"attributes":{"ID":366097,"DIS_CODE":0,"TOWNNAME":"東區","LI":"復興里","LIN":"12鄰","STREET":"裕學路","SECT":" ","MAREA":" ","LANE":"１８５巷","ALLEY":" ","HOUSE_NO":"１０２號","E_COORD97":171689.54000000001,"N_COORD97":2542666.46,"ADDRESS":"裕學路１８５巷１０２號","OBJECTID":366087},"geometry":{"x":171689.54000000004,"y":2542666.4600000028}},{"attributes":{"ID":366098,"DIS_CODE":0,"TOWNNAME":"東區","LI":"復興里","LIN":"12鄰","STREET":"裕學路","SECT":" ","MAREA":" ","LANE":"１８５巷","ALLEY":" ","HOUSE_NO":"１０６號","E_COORD97":171690.56,"N_COORD97":2542663.0600000001,"ADDRESS":"裕學路１８５巷１０６號","OBJECTID":366088},"geometry":{"x":171690.55999999959,"y":2542663.0600000024}},{"attributes":{"ID":366099,"DIS_CODE":0,"TOWNNAME":"東區","LI":"復興里","LIN":"12鄰","STREET":"裕學路","SECT":" ","MAREA":" ","LANE":"１８５巷","ALLEY":" ","HOUSE_NO":"１０８號","E_COORD97":171691.59,"N_COORD97":2542658.9700000002,"ADDRESS":"裕學路１８５巷１０８號","OBJECTID":366089},"geometry":{"x":171691.59000000078,"y":2542658.9700000044}},{"attributes":{"ID":366100,"DIS_CODE":0,"TOWNNAME":"東區","LI":"復興里","LIN":"12鄰","STREET":"裕學路","SECT":" ","MAREA":" ","LANE":"１８５巷","ALLEY":" ","HOUSE_NO":"８７號","E_COORD97":171714.82000000001,"N_COORD97":2542656.79,"ADDRESS":"裕學路１８５巷８７號","OBJECTID":366090},"geometry":{"x":171714.8200000003,"y":2542656.7899999991}},{"attributes":{"ID":366101,"DIS_CODE":0,"TOWNNAME":"東區","LI":"復興里","LIN":"12鄰","STREET":"裕學路","SECT":" ","MAREA":" ","LANE":"１８５巷","ALLEY":" ","HOUSE_NO":"８９號","E_COORD97":171716.01000000001,"N_COORD97":2542653.6099999999,"ADDRESS":"裕學路１８５巷８９號","OBJECTID":366091},"geometry":{"x":171716.01000000071,"y":2542653.6100000013}},{"attributes":{"ID":366102,"DIS_CODE":0,"TOWNNAME":"東區","LI":"復興里","LIN":"12鄰","STREET":"裕學路","SECT":" ","MAREA":" ","LANE":"１８５巷","ALLEY":" ","HOUSE_NO":"９１號","E_COORD97":171716.41,"N_COORD97":2542650.0299999998,"ADDRESS":"裕學路１８５巷９１號","OBJECTID":366092},"geometry":{"x":171716.41000000201,"y":2542650.0299999975}},{"attributes":{"ID":366103,"DIS_CODE":0,"TOWNNAME":"東區","LI":"復興里","LIN":"12鄰","STREET":"裕學路","SECT":" ","MAREA":" ","LANE":"１８５巷","ALLEY":" ","HOUSE_NO":"１１０號","E_COORD97":171692.12,"N_COORD97":2542653.21,"ADDRESS":"裕學路１８５巷１１０號","OBJECTID":366093},"geometry":{"x":171692.12000000011,"y":2542653.2100000009}},{"attributes":{"ID":366104,"DIS_CODE":0,"TOWNNAME":"東區","LI":"復興里","LIN":"12鄰","STREET":"裕學路","SECT":" ","MAREA":" ","LANE":"１８５巷","ALLEY":" ","HOUSE_NO":"９３號","E_COORD97":171717.20999999999,"N_COORD97":2542645.6600000001,"ADDRESS":"裕學路１８５巷９３號","OBJECTID":366094},"geometry":{"x":171717.20999999996,"y":2542645.6600000001}},{"attributes":{"ID":366105,"DIS_CODE":0,"TOWNNAME":"東區","LI":"復興里","LIN":"12鄰","STREET":"裕學路","SECT":" ","MAREA":" ","LANE":"１８５巷","ALLEY":" ","HOUSE_NO":"１１２號","E_COORD97":171693.22,"N_COORD97":2542649.9900000002,"ADDRESS":"裕學路１８５巷１１２號","OBJECTID":366095},"geometry":{"x":171693.21999999974,"y":2542649.9900000002}},{"attributes":{"ID":366106,"DIS_CODE":0,"TOWNNAME":"東區","LI":"復興里","LIN":"12鄰","STREET":"裕學路","SECT":" ","MAREA":" ","LANE":"１８５巷","ALLEY":" ","HOUSE_NO":"９５號","E_COORD97":171718,"N_COORD97":2542643.27,"ADDRESS":"裕學路１８５巷９５號","OBJECTID":366096},"geometry":{"x":171718.00000000093,"y":2542643.2700000014}},{"attributes":{"ID":366107,"DIS_CODE":0,"TOWNNAME":"東區","LI":"復興里","LIN":"12鄰","STREET":"裕學路","SECT":" ","MAREA":" ","LANE":"１８５巷","ALLEY":" ","HOUSE_NO":"１１６號","E_COORD97":171693.22,"N_COORD97":2542646.4100000001,"ADDRESS":"裕學路１８５巷１１６號","OBJECTID":366097},"geometry":{"x":171693.21999999974,"y":2542646.410000002}},{"attributes":{"ID":366108,"DIS_CODE":0,"TOWNNAME":"東區","LI":"復興里","LIN":"12鄰","STREET":"裕學路","SECT":" ","MAREA":" ","LANE":"１８５巷","ALLEY":" ","HOUSE_NO":"９７號","E_COORD97":171718,"N_COORD97":2542639.29,"ADDRESS":"裕學路１８５巷９７號","OBJECTID":366098},"geometry":{"x":171718.00000000093,"y":2542639.290000001}},{"attributes":{"ID":366109,"DIS_CODE":0,"TOWNNAME":"東區","LI":"復興里","LIN":"12鄰","STREET":"裕學路","SECT":" ","MAREA":" ","LANE":"１８５巷","ALLEY":" ","HOUSE_NO":"１１８號","E_COORD97":171694.42000000001,"N_COORD97":2542642.8399999999,"ADDRESS":"裕學路１８５巷１１８號","OBJECTID":366099},"geometry":{"x":171694.42000000086,"y":2542642.8400000017}},{"attributes":{"ID":366110,"DIS_CODE":0,"TOWNNAME":"東區","LI":"復興里","LIN":"12鄰","STREET":"裕學路","SECT":" ","MAREA":" ","LANE":"１８５巷","ALLEY":" ","HOUSE_NO":"９９號","E_COORD97":171718.79999999999,"N_COORD97":2542635.71,"ADDRESS":"裕學路１８５巷９９號","OBJECTID":366100},"geometry":{"x":171718.80000000075,"y":2542635.7100000009}},{"attributes":{"ID":366111,"DIS_CODE":0,"TOWNNAME":"佳里區","LI":"東寧里","LIN":"12鄰","STREET":"文化路","SECT":" ","MAREA":" ","LANE":"１１１巷","ALLEY":" ","HOUSE_NO":"１號","E_COORD97":166049.06,"N_COORD97":2562555.48,"ADDRESS":"文化路１１１巷１號","OBJECTID":366101},"geometry":{"x":166049.05999999959,"y":2562555.4800000004}},{"attributes":{"ID":366112,"DIS_CODE":0,"TOWNNAME":"佳里區","LI":"東寧里","LIN":"12鄰","STREET":"文化路","SECT":" ","MAREA":" ","LANE":"１１１巷","ALLEY":" ","HOUSE_NO":"２號","E_COORD97":166032.13,"N_COORD97":2562560.1499999999,"ADDRESS":"文化路１１１巷２號","OBJECTID":366102},"geometry":{"x":166032.12999999989,"y":2562560.1500000022}},{"attributes":{"ID":366113,"DIS_CODE":0,"TOWNNAME":"佳里區","LI":"東寧里","LIN":"12鄰","STREET":"文化路","SECT":" ","MAREA":" ","LANE":"１１１巷","ALLEY":" ","HOUSE_NO":"３號","E_COORD97":166049.76999999999,"N_COORD97":2562551.48,"ADDRESS":"文化路１１１巷３號","OBJECTID":366103},"geometry":{"x":166049.77000000048,"y":2562551.4800000023}},{"attributes":{"ID":366114,"DIS_CODE":0,"TOWNNAME":"佳里區","LI":"東寧里","LIN":"12鄰","STREET":"文化路","SECT":" ","MAREA":" ","LANE":"１１１巷","ALLEY":" ","HOUSE_NO":"４號","E_COORD97":166031.76999999999,"N_COORD97":2562555.9900000002,"ADDRESS":"文化路１１１巷４號","OBJECTID":366104},"geometry":{"x":166031.77000000048,"y":2562555.9900000002}},{"attributes":{"ID":366115,"DIS_CODE":0,"TOWNNAME":"佳里區","LI":"東寧里","LIN":"12鄰","STREET":"文化路","SECT":" ","MAREA":" ","LANE":"１１１巷","ALLEY":" ","HOUSE_NO":"５號","E_COORD97":166050.5,"N_COORD97":2562547.54,"ADDRESS":"文化路１１１巷５號","OBJECTID":366105},"geometry":{"x":166050.50000000093,"y":2562547.5399999991}},{"attributes":{"ID":366116,"DIS_CODE":0,"TOWNNAME":"佳里區","LI":"東寧里","LIN":"12鄰","STREET":"文化路","SECT":" ","MAREA":" ","LANE":"１１１巷","ALLEY":" ","HOUSE_NO":"６號","E_COORD97":166031.54000000001,"N_COORD97":2562551.8599999999,"ADDRESS":"文化路１１１巷６號","OBJECTID":366106},"geometry":{"x":166031.54000000097,"y":2562551.8599999994}},{"attributes":{"ID":366117,"DIS_CODE":0,"TOWNNAME":"佳里區","LI":"東寧里","LIN":"12鄰","STREET":"文化路","SECT":" ","MAREA":" ","LANE":"１１１巷","ALLEY":" ","HOUSE_NO":"７號","E_COORD97":166050.98000000001,"N_COORD97":2562542.8999999999,"ADDRESS":"文化路１１１巷７號","OBJECTID":366107},"geometry":{"x":166050.98000000231,"y":2562542.9000000004}},{"attributes":{"ID":366118,"DIS_CODE":0,"TOWNNAME":"新營區","LI":"新南里","LIN":"25鄰","STREET":"隋唐街","SECT":" ","MAREA":" ","LANE":"２９５巷","ALLEY":" ","HOUSE_NO":"６之３號","E_COORD97":178150.73999999999,"N_COORD97":2578571.6600000001,"ADDRESS":"隋唐街２９５巷６之３號","OBJECTID":366108},"geometry":{"x":178150.74000000209,"y":2578571.660000002}},{"attributes":{"ID":366119,"DIS_CODE":0,"TOWNNAME":"白河區","LI":"庄內里","LIN":"13鄰","STREET":"光華路","SECT":" ","MAREA":" ","LANE":"１１８巷","ALLEY":" ","HOUSE_NO":"１０號","E_COORD97":190757.23000000001,"N_COORD97":2583595.1899999999,"ADDRESS":"光華路１１８巷１０號","OBJECTID":366109},"geometry":{"x":190757.23000000138,"y":2583595.1900000013}},{"attributes":{"ID":366120,"DIS_CODE":0,"TOWNNAME":"白河區","LI":"庄內里","LIN":"13鄰","STREET":"光華路","SECT":" ","MAREA":" ","LANE":"１１８巷","ALLEY":" ","HOUSE_NO":"１１號","E_COORD97":190761.95000000001,"N_COORD97":2583607.27,"ADDRESS":"光華路１１８巷１１號","OBJECTID":366110},"geometry":{"x":190761.95000000112,"y":2583607.2699999996}},{"attributes":{"ID":366121,"DIS_CODE":0,"TOWNNAME":"白河區","LI":"庄內里","LIN":"13鄰","STREET":"光華路","SECT":" ","MAREA":" ","LANE":"１１８巷","ALLEY":" ","HOUSE_NO":"１２號","E_COORD97":190761.34,"N_COORD97":2583595.2999999998,"ADDRESS":"光華路１１８巷１２號","OBJECTID":366111},"geometry":{"x":190761.33999999985,"y":2583595.2999999989}},{"attributes":{"ID":366122,"DIS_CODE":0,"TOWNNAME":"白河區","LI":"庄內里","LIN":"13鄰","STREET":"光華路","SECT":" ","MAREA":" ","LANE":"１１８巷","ALLEY":" ","HOUSE_NO":"１３號","E_COORD97":190766.19,"N_COORD97":2583607.4500000002,"ADDRESS":"光華路１１８巷１３號","OBJECTID":366112},"geometry":{"x":190766.19000000041,"y":2583607.4500000011}},{"attributes":{"ID":366123,"DIS_CODE":0,"TOWNNAME":"白河區","LI":"庄內里","LIN":"13鄰","STREET":"光華路","SECT":" ","MAREA":" ","LANE":"１１８巷","ALLEY":" ","HOUSE_NO":"１４號","E_COORD97":190765.35999999999,"N_COORD97":2583595.4199999999,"ADDRESS":"光華路１１８巷１４號","OBJECTID":366113},"geometry":{"x":190765.36000000034,"y":2583595.4200000018}},{"attributes":{"ID":366124,"DIS_CODE":0,"TOWNNAME":"白河區","LI":"庄內里","LIN":"13鄰","STREET":"光華路","SECT":" ","MAREA":" ","LANE":"１１８巷","ALLEY":" ","HOUSE_NO":"１號","E_COORD97":190741.88,"N_COORD97":2583606.98,"ADDRESS":"光華路１１８巷１號","OBJECTID":366114},"geometry":{"x":190741.88000000082,"y":2583606.9800000004}},{"attributes":{"ID":366125,"DIS_CODE":0,"TOWNNAME":"佳里區","LI":"東寧里","LIN":"12鄰","STREET":"文化路","SECT":" ","MAREA":" ","LANE":"１３３巷","ALLEY":" ","HOUSE_NO":"１１號","E_COORD97":165989.25,"N_COORD97":2562552,"ADDRESS":"文化路１３３巷１１號","OBJECTID":366115},"geometry":{"x":165989.25000000186,"y":2562552}},{"attributes":{"ID":366126,"DIS_CODE":0,"TOWNNAME":"白河區","LI":"仙草里","LIN":"13鄰","STREET":" ","SECT":" ","MAREA":"白水溪","LANE":" ","ALLEY":" ","HOUSE_NO":"２９號","E_COORD97":197114.87,"N_COORD97":2583498.6899999999,"ADDRESS":"白水溪２９號","OBJECTID":366116},"geometry":{"x":197114.87000000011,"y":2583498.6899999995}},{"attributes":{"ID":366127,"DIS_CODE":0,"TOWNNAME":"新營區","LI":"五興里","LIN":"10鄰","STREET":" ","SECT":" ","MAREA":"五間厝","LANE":" ","ALLEY":" ","HOUSE_NO":"１１０號之２","E_COORD97":175507.03,"N_COORD97":2574693.1200000001,"ADDRESS":"五間厝１１０之２號","OBJECTID":366117},"geometry":{"x":175507.03000000026,"y":2574693.120000001}},{"attributes":{"ID":366128,"DIS_CODE":0,"TOWNNAME":"白河區","LI":"仙草里","LIN":"13鄰","STREET":" ","SECT":" ","MAREA":"白水溪","LANE":" ","ALLEY":" ","HOUSE_NO":"３０號","E_COORD97":197096.42999999999,"N_COORD97":2583507.3999999999,"ADDRESS":"白水溪３０號","OBJECTID":366118},"geometry":{"x":197096.43000000063,"y":2583507.4000000022}},{"attributes":{"ID":366129,"DIS_CODE":0,"TOWNNAME":"佳里區","LI":"東寧里","LIN":"12鄰","STREET":"文化路","SECT":" ","MAREA":" ","LANE":"１３３巷","ALLEY":" ","HOUSE_NO":"１３號","E_COORD97":165989.42999999999,"N_COORD97":2562546.9300000002,"ADDRESS":"文化路１３３巷１３號","OBJECTID":366119},"geometry":{"x":165989.43000000156,"y":2562546.9300000016}},{"attributes":{"ID":366130,"DIS_CODE":0,"TOWNNAME":"佳里區","LI":"東寧里","LIN":"12鄰","STREET":"文化路","SECT":" ","MAREA":" ","LANE":"１３３巷","ALLEY":" ","HOUSE_NO":"１５號之１","E_COORD97":166009.63,"N_COORD97":2562554.6699999999,"ADDRESS":"文化路１３３巷１５號之１","OBJECTID":366120},"geometry":{"x":166009.62999999989,"y":2562554.6699999981}},{"attributes":{"ID":366131,"DIS_CODE":0,"TOWNNAME":"佳里區","LI":"東寧里","LIN":"12鄰","STREET":"文化路","SECT":" ","MAREA":" ","LANE":"１３３巷","ALLEY":" ","HOUSE_NO":"１５號","E_COORD97":165989.45000000001,"N_COORD97":2562542.7999999998,"ADDRESS":"文化路１３３巷１５號","OBJECTID":366121},"geometry":{"x":165989.45000000019,"y":2562542.8000000026}},{"attributes":{"ID":366132,"DIS_CODE":0,"TOWNNAME":"安南區","LI":"大安里","LIN":"13鄰","STREET":"義安街","SECT":" ","MAREA":" ","LANE":" ","ALLEY":" ","HOUSE_NO":"４號","E_COORD97":167335.89999999999,"N_COORD97":2547885.7200000002,"ADDRESS":"義安街４號","OBJECTID":366122},"geometry":{"x":167335.90000000037,"y":2547885.7200000025}},{"attributes":{"ID":366133,"DIS_CODE":0,"TOWNNAME":"安南區","LI":"大安里","LIN":"13鄰","STREET":"義安街","SECT":" ","MAREA":" ","LANE":" ","ALLEY":" ","HOUSE_NO":"５０號","E_COORD97":167392.92000000001,"N_COORD97":2547975.9300000002,"ADDRESS":"義安街５０號","OBJECTID":366123},"geometry":{"x":167392.91999999993,"y":2547975.9299999997}},{"attributes":{"ID":366134,"DIS_CODE":0,"TOWNNAME":"安南區","LI":"大安里","LIN":"13鄰","STREET":"義安街","SECT":" ","MAREA":" ","LANE":" ","ALLEY":" ","HOUSE_NO":"５２號","E_COORD97":167395.97,"N_COORD97":2547979.25,"ADDRESS":"義安街５２號","OBJECTID":366124},"geometry":{"x":167395.96999999974,"y":2547979.2500000037}},{"attributes":{"ID":366135,"DIS_CODE":0,"TOWNNAME":"安南區","LI":"大安里","LIN":"13鄰","STREET":"義安街","SECT":" ","MAREA":" ","LANE":" ","ALLEY":" ","HOUSE_NO":"５６號","E_COORD97":167401.25,"N_COORD97":2547987.1299999999,"ADDRESS":"義安街５６號","OBJECTID":366125},"geometry":{"x":167401.25000000186,"y":2547987.1300000008}},{"attributes":{"ID":366136,"DIS_CODE":0,"TOWNNAME":"安南區","LI":"大安里","LIN":"13鄰","STREET":"義安街","SECT":" ","MAREA":" ","LANE":" ","ALLEY":" ","HOUSE_NO":"６４號","E_COORD97":167410.44,"N_COORD97":2548002.1299999999,"ADDRESS":"義安街６４號","OBJECTID":366126},"geometry":{"x":167410.44000000041,"y":2548002.129999999}},{"attributes":{"ID":366137,"DIS_CODE":0,"TOWNNAME":"安南區","LI":"大安里","LIN":"13鄰","STREET":"義安街","SECT":" ","MAREA":" ","LANE":" ","ALLEY":" ","HOUSE_NO":"６７號","E_COORD97":167391.35999999999,"N_COORD97":2548015.6299999999,"ADDRESS":"義安街６７號","OBJECTID":366127},"geometry":{"x":167391.36000000127,"y":2548015.629999999}},{"attributes":{"ID":366138,"DIS_CODE":0,"TOWNNAME":"安南區","LI":"大安里","LIN":"13鄰","STREET":"義安街","SECT":" ","MAREA":" ","LANE":" ","ALLEY":" ","HOUSE_NO":"６８號","E_COORD97":167415.60000000001,"N_COORD97":2548010.2999999998,"ADDRESS":"義安街６８號","OBJECTID":366128},"geometry":{"x":167415.60000000149,"y":2548010.3000000045}},{"attributes":{"ID":366139,"DIS_CODE":0,"TOWNNAME":"安南區","LI":"大安里","LIN":"13鄰","STREET":"義安街","SECT":" ","MAREA":" ","LANE":" ","ALLEY":" ","HOUSE_NO":"６號","E_COORD97":167338.97,"N_COORD97":2547889.8900000001,"ADDRESS":"義安街６號","OBJECTID":366129},"geometry":{"x":167338.97000000067,"y":2547889.8900000006}},{"attributes":{"ID":366140,"DIS_CODE":0,"TOWNNAME":"新營區","LI":"太北里","LIN":"7鄰","STREET":" ","SECT":" ","MAREA":"太子宮","LANE":" ","ALLEY":" ","HOUSE_NO":"６１號","E_COORD97":175955.60000000001,"N_COORD97":2577167.0800000001,"ADDRESS":"太子宮６１號","OBJECTID":366130},"geometry":{"x":175955.59999999963,"y":2577167.0800000001}},{"attributes":{"ID":366141,"DIS_CODE":0,"TOWNNAME":"白河區","LI":"庄內里","LIN":"13鄰","STREET":"光華路","SECT":" ","MAREA":" ","LANE":"１１８巷","ALLEY":" ","HOUSE_NO":"８號","E_COORD97":190753.39999999999,"N_COORD97":2583594.77,"ADDRESS":"光華路１１８巷８號","OBJECTID":366131},"geometry":{"x":190753.40000000037,"y":2583594.7700000014}},{"attributes":{"ID":366142,"DIS_CODE":0,"TOWNNAME":"白河區","LI":"庄內里","LIN":"13鄰","STREET":"光華路","SECT":" ","MAREA":" ","LANE":"１１８巷","ALLEY":" ","HOUSE_NO":"９號","E_COORD97":190758.37,"N_COORD97":2583607.0600000001,"ADDRESS":"光華路１１８巷９號","OBJECTID":366132},"geometry":{"x":190758.37000000011,"y":2583607.0600000042}},{"attributes":{"ID":366143,"DIS_CODE":0,"TOWNNAME":"新營區","LI":"太南里","LIN":" ","STREET":" ","SECT":" ","MAREA":"太子宮","LANE":" ","ALLEY":" ","HOUSE_NO":"２７９之８號","E_COORD97":176115.28,"N_COORD97":2576627.02,"ADDRESS":"太子宮２７９之８號","OBJECTID":366133},"geometry":{"x":176115.28000000119,"y":2576627.0200000014}},{"attributes":{"ID":366144,"DIS_CODE":0,"TOWNNAME":"永康區","LI":"安康里","LIN":"13鄰","STREET":"中華路","SECT":" ","MAREA":" ","LANE":"６６１巷","ALLEY":" ","HOUSE_NO":"１１３號","E_COORD97":170790.76000000001,"N_COORD97":2546099.75,"ADDRESS":"中華路６６１巷１１３號","OBJECTID":366134},"geometry":{"x":170790.75999999978,"y":2546099.75}},{"attributes":{"ID":366145,"DIS_CODE":0,"TOWNNAME":"永康區","LI":"永康里","LIN":"13鄰","STREET":"永康街","SECT":" ","MAREA":" ","LANE":"１８６巷","ALLEY":" ","HOUSE_NO":"２５號","E_COORD97":173996.98000000001,"N_COORD97":2546978.48,"ADDRESS":"永康街１８６巷２５號","OBJECTID":366135},"geometry":{"x":173996.98000000138,"y":2546978.4800000023}},{"attributes":{"ID":366146,"DIS_CODE":0,"TOWNNAME":"永康區","LI":"正強里","LIN":"13鄰","STREET":"正強街","SECT":" ","MAREA":" ","LANE":"１２５巷","ALLEY":" ","HOUSE_NO":"６號","E_COORD97":173302.98000000001,"N_COORD97":2547452.7200000002,"ADDRESS":"正強街１２５巷６號","OBJECTID":366136},"geometry":{"x":173302.98000000231,"y":2547452.7200000025}},{"attributes":{"ID":366147,"DIS_CODE":0,"TOWNNAME":"永康區","LI":"二王里","LIN":"13鄰","STREET":"永二街","SECT":" ","MAREA":" ","LANE":"４４９巷","ALLEY":" ","HOUSE_NO":"８號","E_COORD97":172655.35000000001,"N_COORD97":2546659.1200000001,"ADDRESS":"永二街４４９巷８號","OBJECTID":366137},"geometry":{"x":172655.35000000149,"y":2546659.1200000048}},{"attributes":{"ID":366148,"DIS_CODE":0,"TOWNNAME":"佳里區","LI":"東寧里","LIN":"12鄰","STREET":"文化路","SECT":" ","MAREA":" ","LANE":"１３３巷","ALLEY":" ","HOUSE_NO":"１號","E_COORD97":165989.42999999999,"N_COORD97":2562575.3999999999,"ADDRESS":"文化路１３３巷１號","OBJECTID":366138},"geometry":{"x":165989.43000000156,"y":2562575.4000000022}},{"attributes":{"ID":366149,"DIS_CODE":0,"TOWNNAME":"佳里區","LI":"東寧里","LIN":"12鄰","STREET":"文化路","SECT":" ","MAREA":" ","LANE":"１３３巷","ALLEY":" ","HOUSE_NO":"３號","E_COORD97":165989.32999999999,"N_COORD97":2562569.6800000002,"ADDRESS":"文化路１３３巷３號","OBJECTID":366139},"geometry":{"x":165989.33000000101,"y":2562569.6800000016}},{"attributes":{"ID":366150,"DIS_CODE":0,"TOWNNAME":"佳里區","LI":"東寧里","LIN":"12鄰","STREET":"文化路","SECT":" ","MAREA":" ","LANE":"１３３巷","ALLEY":" ","HOUSE_NO":"５號","E_COORD97":165989.42999999999,"N_COORD97":2562564.5299999998,"ADDRESS":"文化路１３３巷５號","OBJECTID":366140},"geometry":{"x":165989.43000000156,"y":2562564.5299999993}},{"attributes":{"ID":366151,"DIS_CODE":0,"TOWNNAME":"安南區","LI":"大安里","LIN":"13鄰","STREET":"義安街","SECT":" ","MAREA":" ","LANE":" ","ALLEY":" ","HOUSE_NO":"７１號","E_COORD97":167397.20999999999,"N_COORD97":2548022.2400000002,"ADDRESS":"義安街７１號","OBJECTID":366141},"geometry":{"x":167397.21000000089,"y":2548022.2400000002}},{"attributes":{"ID":366152,"DIS_CODE":0,"TOWNNAME":"安南區","LI":"大安里","LIN":"13鄰","STREET":"義安街","SECT":" ","MAREA":" ","LANE":" ","ALLEY":" ","HOUSE_NO":"７２號","E_COORD97":167427.64999999999,"N_COORD97":2548029.7000000002,"ADDRESS":"義安街７２號","OBJECTID":366142},"geometry":{"x":167427.65000000037,"y":2548029.700000003}},{"attributes":{"ID":366153,"DIS_CODE":0,"TOWNNAME":"安南區","LI":"大安里","LIN":"13鄰","STREET":"義安街","SECT":" ","MAREA":" ","LANE":" ","ALLEY":" ","HOUSE_NO":"７４號","E_COORD97":167430.09,"N_COORD97":2548033.1400000001,"ADDRESS":"義安街７４號","OBJECTID":366143},"geometry":{"x":167430.09000000078,"y":2548033.1400000006}},{"attributes":{"ID":366154,"DIS_CODE":0,"TOWNNAME":"安南區","LI":"大安里","LIN":"13鄰","STREET":"義安街","SECT":" ","MAREA":" ","LANE":" ","ALLEY":" ","HOUSE_NO":"７５號","E_COORD97":167401.47,"N_COORD97":2548030.2400000002,"ADDRESS":"義安街７５號","OBJECTID":366144},"geometry":{"x":167401.47000000067,"y":2548030.2400000039}},{"attributes":{"ID":366155,"DIS_CODE":0,"TOWNNAME":"安南區","LI":"大安里","LIN":"13鄰","STREET":"義安街","SECT":" ","MAREA":" ","LANE":" ","ALLEY":" ","HOUSE_NO":"７６號","E_COORD97":167432.82000000001,"N_COORD97":2548037.0099999998,"ADDRESS":"義安街７６號","OBJECTID":366145},"geometry":{"x":167432.8200000003,"y":2548037.0099999998}},{"attributes":{"ID":366156,"DIS_CODE":0,"TOWNNAME":"安南區","LI":"大安里","LIN":"13鄰","STREET":"義安街","SECT":" ","MAREA":" ","LANE":" ","ALLEY":" ","HOUSE_NO":"７８號","E_COORD97":167435.69,"N_COORD97":2548040.7400000002,"ADDRESS":"義安街７８號","OBJECTID":366146},"geometry":{"x":167435.69000000041,"y":2548040.7400000021}},{"attributes":{"ID":366157,"DIS_CODE":0,"TOWNNAME":"安南區","LI":"大安里","LIN":"13鄰","STREET":"義安街","SECT":" ","MAREA":" ","LANE":" ","ALLEY":" ","HOUSE_NO":"８０號","E_COORD97":167437.98000000001,"N_COORD97":2548044.6099999999,"ADDRESS":"義安街８０號","OBJECTID":366147},"geometry":{"x":167437.98000000138,"y":2548044.6100000013}},{"attributes":{"ID":366158,"DIS_CODE":0,"TOWNNAME":"安南區","LI":"大安里","LIN":"13鄰","STREET":"義安街","SECT":" ","MAREA":" ","LANE":" ","ALLEY":" ","HOUSE_NO":"８１號","E_COORD97":167408.07999999999,"N_COORD97":2548040.6099999999,"ADDRESS":"義安街８１號","OBJECTID":366148},"geometry":{"x":167408.08000000101,"y":2548040.6100000031}},{"attributes":{"ID":366159,"DIS_CODE":0,"TOWNNAME":"新營區","LI":"王公里","LIN":"1鄰","STREET":"民治路","SECT":" ","MAREA":" ","LANE":" ","ALLEY":" ","HOUSE_NO":"２８號之１２","E_COORD97":180130.94,"N_COORD97":2578884.4700000002,"ADDRESS":"民治路２８號之１２","OBJECTID":366149},"geometry":{"x":180130.94000000041,"y":2578884.4700000007}},{"attributes":{"ID":366160,"DIS_CODE":0,"TOWNNAME":"佳里區","LI":"東寧里","LIN":"12鄰","STREET":"文化路","SECT":" ","MAREA":" ","LANE":"１３３巷","ALLEY":" ","HOUSE_NO":"７號","E_COORD97":165989.76999999999,"N_COORD97":2562560.5299999998,"ADDRESS":"文化路１３３巷７號","OBJECTID":366150},"geometry":{"x":165989.76999999955,"y":2562560.5299999993}},{"attributes":{"ID":366161,"DIS_CODE":0,"TOWNNAME":"佳里區","LI":"東寧里","LIN":"12鄰","STREET":"文化路","SECT":" ","MAREA":" ","LANE":"１３３巷","ALLEY":" ","HOUSE_NO":"９號","E_COORD97":165989.23999999999,"N_COORD97":2562556.3700000001,"ADDRESS":"文化路１３３巷９號","OBJECTID":366151},"geometry":{"x":165989.24000000022,"y":2562556.370000001}},{"attributes":{"ID":366162,"DIS_CODE":0,"TOWNNAME":"永康區","LI":"尚頂里","LIN":"12鄰","STREET":"正南一街","SECT":" ","MAREA":" ","LANE":"９２巷","ALLEY":" ","HOUSE_NO":"２２號","E_COORD97":171070.38,"N_COORD97":2547352.48,"ADDRESS":"正南一街９２巷２２號","OBJECTID":366152},"geometry":{"x":171070.38000000175,"y":2547352.4800000023}},{"attributes":{"ID":366163,"DIS_CODE":0,"TOWNNAME":"永康區","LI":"東橋里","LIN":"12鄰","STREET":"中山南路","SECT":" ","MAREA":" ","LANE":"２３１巷","ALLEY":" ","HOUSE_NO":"５號","E_COORD97":171634.54999999999,"N_COORD97":2546232.5299999998,"ADDRESS":"中山南路２３１巷５號","OBJECTID":366153},"geometry":{"x":171634.54999999981,"y":2546232.5299999993}},{"attributes":{"ID":366164,"DIS_CODE":0,"TOWNNAME":"永康區","LI":"尚頂里","LIN":"12鄰","STREET":"正南一街","SECT":" ","MAREA":" ","LANE":"９２巷","ALLEY":" ","HOUSE_NO":"２９號","E_COORD97":171069.32000000001,"N_COORD97":2547374.8300000001,"ADDRESS":"正南一街９２巷２９號","OBJECTID":366154},"geometry":{"x":171069.3200000003,"y":2547374.8300000001}},{"attributes":{"ID":366165,"DIS_CODE":0,"TOWNNAME":"永康區","LI":"尚頂里","LIN":"12鄰","STREET":"正南一街","SECT":" ","MAREA":" ","LANE":"９２巷","ALLEY":" ","HOUSE_NO":"３１號","E_COORD97":171076.17999999999,"N_COORD97":2547378.8300000001,"ADDRESS":"正南一街９２巷３１號","OBJECTID":366155},"geometry":{"x":171076.1799999997,"y":2547378.8300000038}},{"attributes":{"ID":366166,"DIS_CODE":0,"TOWNNAME":"永康區","LI":"尚頂里","LIN":"12鄰","STREET":"尚頂路","SECT":" ","MAREA":" ","LANE":"５９巷","ALLEY":" ","HOUSE_NO":"１６號","E_COORD97":171184.32000000001,"N_COORD97":2547437.4100000001,"ADDRESS":"尚頂路５９巷１６號","OBJECTID":366156},"geometry":{"x":171184.3200000003,"y":2547437.410000002}},{"attributes":{"ID":366167,"DIS_CODE":0,"TOWNNAME":"永康區","LI":"尚頂里","LIN":"12鄰","STREET":"尚頂路","SECT":" ","MAREA":" ","LANE":"５９巷","ALLEY":" ","HOUSE_NO":"１１號","E_COORD97":171157.95999999999,"N_COORD97":2547443.25,"ADDRESS":"尚頂路５９巷１１號","OBJECTID":366157},"geometry":{"x":171157.95999999903,"y":2547443.2499999981}},{"attributes":{"ID":366168,"DIS_CODE":0,"TOWNNAME":"永康區","LI":"尚頂里","LIN":"12鄰","STREET":"尚頂路","SECT":" ","MAREA":" ","LANE":"５９巷","ALLEY":" ","HOUSE_NO":"２８號","E_COORD97":171206.07999999999,"N_COORD97":2547407.1099999999,"ADDRESS":"尚頂路５９巷２８號","OBJECTID":366158},"geometry":{"x":171206.08000000007,"y":2547407.1100000013}},{"attributes":{"ID":366169,"DIS_CODE":0,"TOWNNAME":"永康區","LI":"尚頂里","LIN":"12鄰","STREET":"正南一街","SECT":" ","MAREA":" ","LANE":"９２巷","ALLEY":" ","HOUSE_NO":"２５號","E_COORD97":171055.51999999999,"N_COORD97":2547366.3300000001,"ADDRESS":"正南一街９２巷２５號","OBJECTID":366159},"geometry":{"x":171055.52000000142,"y":2547366.3300000019}},{"attributes":{"ID":366170,"DIS_CODE":0,"TOWNNAME":"永康區","LI":"尚頂里","LIN":"12鄰","STREET":"尚頂路","SECT":" ","MAREA":" ","LANE":"５９巷","ALLEY":" ","HOUSE_NO":"１５號","E_COORD97":171168.07000000001,"N_COORD97":2547429.2400000002,"ADDRESS":"尚頂路５９巷１５號","OBJECTID":366160},"geometry":{"x":171168.07000000123,"y":2547429.2400000002}},{"attributes":{"ID":366171,"DIS_CODE":0,"TOWNNAME":"永康區","LI":"尚頂里","LIN":"12鄰","STREET":"尚頂路","SECT":" ","MAREA":" ","LANE":"５９巷","ALLEY":" ","HOUSE_NO":"２１號","E_COORD97":171185.89000000001,"N_COORD97":2547405.7400000002,"ADDRESS":"尚頂路５９巷２１號","OBJECTID":366161},"geometry":{"x":171185.8900000006,"y":2547405.7400000002}},{"attributes":{"ID":366172,"DIS_CODE":0,"TOWNNAME":"永康區","LI":"東橋里","LIN":"12鄰","STREET":"中山南路","SECT":" ","MAREA":" ","LANE":"２３１巷","ALLEY":" ","HOUSE_NO":"７號","E_COORD97":171631.85000000001,"N_COORD97":2546237.0299999998,"ADDRESS":"中山南路２３１巷７號","OBJECTID":366162},"geometry":{"x":171631.85000000056,"y":2546237.0299999975}},{"attributes":{"ID":366173,"DIS_CODE":0,"TOWNNAME":"永康區","LI":"東橋里","LIN":"12鄰","STREET":"中山南路","SECT":" ","MAREA":" ","LANE":"２３１巷","ALLEY":" ","HOUSE_NO":"１號","E_COORD97":171640.76999999999,"N_COORD97":2546224.5299999998,"ADDRESS":"中山南路２３１巷１號","OBJECTID":366163},"geometry":{"x":171640.77000000048,"y":2546224.5300000012}},{"attributes":{"ID":366174,"DIS_CODE":0,"TOWNNAME":"永康區","LI":"東橋里","LIN":"12鄰","STREET":"中山南路","SECT":" ","MAREA":" ","LANE":"２３１巷","ALLEY":" ","HOUSE_NO":"３號","E_COORD97":171637.76999999999,"N_COORD97":2546228.7799999998,"ADDRESS":"中山南路２３１巷３號","OBJECTID":366164},"geometry":{"x":171637.77000000048,"y":2546228.7800000031}},{"attributes":{"ID":366175,"DIS_CODE":0,"TOWNNAME":"永康區","LI":"東橋里","LIN":"12鄰","STREET":"中山南路","SECT":" ","MAREA":" ","LANE":"１９５巷","ALLEY":" ","HOUSE_NO":"５號","E_COORD97":171575.59,"N_COORD97":2546195.0800000001,"ADDRESS":"中山南路１９５巷５號","OBJECTID":366165},"geometry":{"x":171575.58999999985,"y":2546195.0800000019}},{"attributes":{"ID":366176,"DIS_CODE":0,"TOWNNAME":"安南區","LI":"國安里","LIN":"12鄰","STREET":"郡安路","SECT":"六段","MAREA":" ","LANE":"１１１巷","ALLEY":" ","HOUSE_NO":"１２號","E_COORD97":166465.20000000001,"N_COORD97":2547440.3300000001,"ADDRESS":"郡安路六段１１１巷１２號","OBJECTID":366166},"geometry":{"x":166465.20000000112,"y":2547440.3300000019}},{"attributes":{"ID":366177,"DIS_CODE":0,"TOWNNAME":"安南區","LI":"國安里","LIN":"12鄰","STREET":"郡安路","SECT":"六段","MAREA":" ","LANE":"１１１巷","ALLEY":" ","HOUSE_NO":"１１號","E_COORD97":166482.54000000001,"N_COORD97":2547432.6800000002,"ADDRESS":"郡安路六段１１１巷１１號","OBJECTID":366167},"geometry":{"x":166482.54000000097,"y":2547432.6799999997}},{"attributes":{"ID":366178,"DIS_CODE":0,"TOWNNAME":"安南區","LI":"國安里","LIN":"12鄰","STREET":"郡安路","SECT":"六段","MAREA":" ","LANE":"１１１巷","ALLEY":" ","HOUSE_NO":"１６號","E_COORD97":166466.97,"N_COORD97":2547430.1000000001,"ADDRESS":"郡安路六段１１１巷１６號","OBJECTID":366168},"geometry":{"x":166466.96999999974,"y":2547430.0999999996}},{"attributes":{"ID":366179,"DIS_CODE":0,"TOWNNAME":"安南區","LI":"國安里","LIN":"12鄰","STREET":"郡安路","SECT":"六段","MAREA":" ","LANE":"１１１巷","ALLEY":" ","HOUSE_NO":"１號","E_COORD97":166472.91,"N_COORD97":2547485.0699999998,"ADDRESS":"郡安路六段１１１巷１號","OBJECTID":366169},"geometry":{"x":166472.91000000015,"y":2547485.0700000003}},{"attributes":{"ID":366180,"DIS_CODE":0,"TOWNNAME":"安南區","LI":"國安里","LIN":"12鄰","STREET":"郡安路","SECT":"六段","MAREA":" ","LANE":"１１１巷","ALLEY":" ","HOUSE_NO":"２號","E_COORD97":166457.64000000001,"N_COORD97":2547482.6600000001,"ADDRESS":"郡安路六段１１１巷２號","OBJECTID":366170},"geometry":{"x":166457.6400000006,"y":2547482.660000002}},{"attributes":{"ID":366181,"DIS_CODE":0,"TOWNNAME":"安南區","LI":"國安里","LIN":"12鄰","STREET":"郡安路","SECT":"六段","MAREA":" ","LANE":"１１１巷","ALLEY":" ","HOUSE_NO":"３號","E_COORD97":166475.13,"N_COORD97":2547474.75,"ADDRESS":"郡安路六段１１１巷３號","OBJECTID":366171},"geometry":{"x":166475.13000000082,"y":2547474.7500000019}},{"attributes":{"ID":366182,"DIS_CODE":0,"TOWNNAME":"安南區","LI":"國安里","LIN":"12鄰","STREET":"郡安路","SECT":"六段","MAREA":" ","LANE":"１１１巷","ALLEY":" ","HOUSE_NO":"６號","E_COORD97":166460.17999999999,"N_COORD97":2547472.5800000001,"ADDRESS":"郡安路六段１１１巷６號","OBJECTID":366172},"geometry":{"x":166460.1799999997,"y":2547472.5800000019}},{"attributes":{"ID":366183,"DIS_CODE":0,"TOWNNAME":"安南區","LI":"國安里","LIN":"12鄰","STREET":"郡安路","SECT":"六段","MAREA":" ","LANE":"１１１巷","ALLEY":" ","HOUSE_NO":"５號","E_COORD97":166476.75,"N_COORD97":2547465.4500000002,"ADDRESS":"郡安路六段１１１巷５號","OBJECTID":366173},"geometry":{"x":166476.75,"y":2547465.4500000011}},{"attributes":{"ID":366184,"DIS_CODE":0,"TOWNNAME":"安南區","LI":"大安里","LIN":"13鄰","STREET":"義安街","SECT":" ","MAREA":" ","LANE":" ","ALLEY":" ","HOUSE_NO":"８２號","E_COORD97":167441.28,"N_COORD97":2548048.1899999999,"ADDRESS":"義安街８２號","OBJECTID":366174},"geometry":{"x":167441.28000000026,"y":2548048.1900000013}},{"attributes":{"ID":366185,"DIS_CODE":0,"TOWNNAME":"安南區","LI":"國安里","LIN":"12鄰","STREET":"郡安路","SECT":"六段","MAREA":" ","LANE":"１１１巷","ALLEY":" ","HOUSE_NO":"８號","E_COORD97":166462.51999999999,"N_COORD97":2547462.3900000001,"ADDRESS":"郡安路六段１１１巷８號","OBJECTID":366175},"geometry":{"x":166462.51999999955,"y":2547462.3900000006}},{"attributes":{"ID":366186,"DIS_CODE":0,"TOWNNAME":"安南區","LI":"國安里","LIN":"12鄰","STREET":"郡安路","SECT":"六段","MAREA":" ","LANE":"１１１巷","ALLEY":" ","HOUSE_NO":"７號","E_COORD97":166478,"N_COORD97":2547454.1099999999,"ADDRESS":"郡安路六段１１１巷７號","OBJECTID":366176},"geometry":{"x":166478.00000000093,"y":2547454.1100000031}},{"attributes":{"ID":366187,"DIS_CODE":0,"TOWNNAME":"安南區","LI":"國安里","LIN":"12鄰","STREET":"郡安路","SECT":"六段","MAREA":" ","LANE":"１１１巷","ALLEY":" ","HOUSE_NO":"１０號","E_COORD97":166463.73999999999,"N_COORD97":2547451.8999999999,"ADDRESS":"郡安路六段１１１巷１０號","OBJECTID":366177},"geometry":{"x":166463.74000000022,"y":2547451.9000000004}},{"attributes":{"ID":366188,"DIS_CODE":0,"TOWNNAME":"安南區","LI":"國安里","LIN":"12鄰","STREET":"郡安路","SECT":"六段","MAREA":" ","LANE":"１１１巷","ALLEY":" ","HOUSE_NO":"９號","E_COORD97":166480.60999999999,"N_COORD97":2547442.9100000001,"ADDRESS":"郡安路六段１１１巷９號","OBJECTID":366178},"geometry":{"x":166480.61000000127,"y":2547442.910000002}},{"attributes":{"ID":366189,"DIS_CODE":0,"TOWNNAME":"安南區","LI":"州北里","LIN":"12鄰","STREET":"安和路","SECT":"五段","MAREA":" ","LANE":"１７１巷","ALLEY":" ","HOUSE_NO":"７４之２號","E_COORD97":169689.78,"N_COORD97":2551792.6200000001,"ADDRESS":"安和路五段１７１巷７４之２號","OBJECTID":366179},"geometry":{"x":169689.77999999933,"y":2551792.6200000029}},{"attributes":{"ID":366190,"DIS_CODE":0,"TOWNNAME":"安南區","LI":"南興里","LIN":"12鄰","STREET":"公學路","SECT":"五段","MAREA":" ","LANE":"６５６巷","ALLEY":" ","HOUSE_NO":"３１８號","E_COORD97":164143.45999999999,"N_COORD97":2553791.2999999998,"ADDRESS":"公學路五段６５６巷３１８號","OBJECTID":366180},"geometry":{"x":164143.46000000183,"y":2553791.3000000026}},{"attributes":{"ID":366191,"DIS_CODE":0,"TOWNNAME":"安南區","LI":"南興里","LIN":"12鄰","STREET":"公學路","SECT":"五段","MAREA":" ","LANE":"６５６巷","ALLEY":" ","HOUSE_NO":"２０號","E_COORD97":164278.78,"N_COORD97":2553597.1400000001,"ADDRESS":"公學路五段６５６巷２０號","OBJECTID":366181},"geometry":{"x":164278.78000000212,"y":2553597.1400000006}},{"attributes":{"ID":366192,"DIS_CODE":0,"TOWNNAME":"中西區","LI":"民主里","LIN":"12鄰","STREET":"友愛街","SECT":" ","MAREA":" ","LANE":"３１０巷","ALLEY":" ","HOUSE_NO":"１８號","E_COORD97":167403.29999999999,"N_COORD97":2543746.1099999999,"ADDRESS":"友愛街３１０巷１８號","OBJECTID":366182},"geometry":{"x":167403.30000000075,"y":2543746.1100000013}},{"attributes":{"ID":366193,"DIS_CODE":0,"TOWNNAME":"中西區","LI":"民主里","LIN":"12鄰","STREET":"友愛街","SECT":" ","MAREA":" ","LANE":"３１０巷","ALLEY":" ","HOUSE_NO":"１２號","E_COORD97":167387.85999999999,"N_COORD97":2543721.5899999999,"ADDRESS":"友愛街３１０巷１２號","OBJECTID":366183},"geometry":{"x":167387.86000000127,"y":2543721.589999998}},{"attributes":{"ID":366194,"DIS_CODE":0,"TOWNNAME":"中西區","LI":"民主里","LIN":"12鄰","STREET":"友愛街","SECT":" ","MAREA":" ","LANE":"３１０巷","ALLEY":" ","HOUSE_NO":"１３號","E_COORD97":167388.73999999999,"N_COORD97":2543725.6499999999,"ADDRESS":"友愛街３１０巷１３號","OBJECTID":366184},"geometry":{"x":167388.74000000115,"y":2543725.6500000022}},{"attributes":{"ID":366195,"DIS_CODE":0,"TOWNNAME":"中西區","LI":"民主里","LIN":"12鄰","STREET":"友愛街","SECT":" ","MAREA":" ","LANE":"３１０巷","ALLEY":" ","HOUSE_NO":"１５號","E_COORD97":167390.42000000001,"N_COORD97":2543732.7200000002,"ADDRESS":"友愛街３１０巷１５號","OBJECTID":366185},"geometry":{"x":167390.42000000086,"y":2543732.7200000025}},{"attributes":{"ID":366196,"DIS_CODE":0,"TOWNNAME":"中西區","LI":"民主里","LIN":"12鄰","STREET":"友愛街","SECT":" ","MAREA":" ","LANE":"３１０巷","ALLEY":" ","HOUSE_NO":"１６號","E_COORD97":167390.07000000001,"N_COORD97":2543735.8999999999,"ADDRESS":"友愛街３１０巷１６號","OBJECTID":366186},"geometry":{"x":167390.07000000123,"y":2543735.9000000004}},{"attributes":{"ID":366197,"DIS_CODE":0,"TOWNNAME":"中西區","LI":"民主里","LIN":"12鄰","STREET":"友愛街","SECT":" ","MAREA":" ","LANE":"３１０巷","ALLEY":" ","HOUSE_NO":"１７號","E_COORD97":167391.04000000001,"N_COORD97":2543739.7799999998,"ADDRESS":"友愛街３１０巷１７號","OBJECTID":366187},"geometry":{"x":167391.0400000019,"y":2543739.7799999993}},{"attributes":{"ID":366198,"DIS_CODE":0,"TOWNNAME":"中西區","LI":"民主里","LIN":"12鄰","STREET":"友愛街","SECT":" ","MAREA":" ","LANE":"３１０巷","ALLEY":" ","HOUSE_NO":"２號","E_COORD97":167378.89000000001,"N_COORD97":2543720.4500000002,"ADDRESS":"友愛街３１０巷２號","OBJECTID":366188},"geometry":{"x":167378.88999999966,"y":2543720.4499999993}},{"attributes":{"ID":366199,"DIS_CODE":0,"TOWNNAME":"中西區","LI":"民主里","LIN":"12鄰","STREET":"友愛街","SECT":" ","MAREA":" ","LANE":"３１０巷","ALLEY":" ","HOUSE_NO":"３號","E_COORD97":167374.07000000001,"N_COORD97":2543721.6099999999,"ADDRESS":"友愛街３１０巷３號","OBJECTID":366189},"geometry":{"x":167374.07000000216,"y":2543721.6100000013}},{"attributes":{"ID":366200,"DIS_CODE":0,"TOWNNAME":"中西區","LI":"民主里","LIN":"12鄰","STREET":"友愛街","SECT":" ","MAREA":" ","LANE":"３１０巷","ALLEY":" ","HOUSE_NO":"４號","E_COORD97":167369.54999999999,"N_COORD97":2543720.9700000002,"ADDRESS":"友愛街３１０巷４號","OBJECTID":366190},"geometry":{"x":167369.54999999981,"y":2543720.9700000025}},{"attributes":{"ID":366201,"DIS_CODE":0,"TOWNNAME":"中西區","LI":"民主里","LIN":"12鄰","STREET":"友愛街","SECT":" ","MAREA":" ","LANE":"３１０巷","ALLEY":" ","HOUSE_NO":"５號","E_COORD97":167365.42000000001,"N_COORD97":2543723.1600000001,"ADDRESS":"友愛街３１０巷５號","OBJECTID":366191},"geometry":{"x":167365.41999999993,"y":2543723.160000002}},{"attributes":{"ID":366202,"DIS_CODE":0,"TOWNNAME":"中西區","LI":"民主里","LIN":"12鄰","STREET":"友愛街","SECT":" ","MAREA":" ","LANE":"３１０巷","ALLEY":" ","HOUSE_NO":"６號","E_COORD97":167361.42000000001,"N_COORD97":2543724.71,"ADDRESS":"友愛街３１０巷６號","OBJECTID":366192},"geometry":{"x":167361.42000000086,"y":2543724.7100000009}},{"attributes":{"ID":366203,"DIS_CODE":0,"TOWNNAME":"中西區","LI":"民主里","LIN":"12鄰","STREET":"友愛街","SECT":" ","MAREA":" ","LANE":"３１０巷","ALLEY":" ","HOUSE_NO":"７號","E_COORD97":167357.67000000001,"N_COORD97":2543725.6099999999,"ADDRESS":"友愛街３１０巷７號","OBJECTID":366193},"geometry":{"x":167357.67000000179,"y":2543725.6100000013}},{"attributes":{"ID":366204,"DIS_CODE":0,"TOWNNAME":"東區","LI":"大同里","LIN":"12鄰","STREET":"大同路","SECT":"一段","MAREA":" ","LANE":"１４１巷","ALLEY":" ","HOUSE_NO":"１０號","E_COORD97":169165.70999999999,"N_COORD97":2542900.2799999998,"ADDRESS":"大同路一段１４１巷１０號","OBJECTID":366194},"geometry":{"x":169165.70999999996,"y":2542900.2800000012}},{"attributes":{"ID":366205,"DIS_CODE":0,"TOWNNAME":"東區","LI":"大同里","LIN":"12鄰","STREET":"大同路","SECT":"一段","MAREA":" ","LANE":"１４１巷","ALLEY":" ","HOUSE_NO":"１１號","E_COORD97":169191.85000000001,"N_COORD97":2542929.1400000001,"ADDRESS":"大同路一段１４１巷１１號","OBJECTID":366195},"geometry":{"x":169191.84999999963,"y":2542929.1400000025}},{"attributes":{"ID":366206,"DIS_CODE":0,"TOWNNAME":"東區","LI":"大同里","LIN":"12鄰","STREET":"大同路","SECT":"一段","MAREA":" ","LANE":"１４１巷","ALLEY":" ","HOUSE_NO":"１２號","E_COORD97":169170.01999999999,"N_COORD97":2542901.3599999999,"ADDRESS":"大同路一段１４１巷１２號","OBJECTID":366196},"geometry":{"x":169170.01999999955,"y":2542901.3599999994}},{"attributes":{"ID":366207,"DIS_CODE":0,"TOWNNAME":"東區","LI":"大同里","LIN":"12鄰","STREET":"大同路","SECT":"一段","MAREA":" ","LANE":"１４１巷","ALLEY":" ","HOUSE_NO":"１３號","E_COORD97":169197.5,"N_COORD97":2542929.96,"ADDRESS":"大同路一段１４１巷１３號","OBJECTID":366197},"geometry":{"x":169197.5,"y":2542929.9600000009}},{"attributes":{"ID":366208,"DIS_CODE":0,"TOWNNAME":"東區","LI":"大同里","LIN":"12鄰","STREET":"大同路","SECT":"一段","MAREA":" ","LANE":"１４１巷","ALLEY":" ","HOUSE_NO":"１４號","E_COORD97":169172.75,"N_COORD97":2542904.0499999998,"ADDRESS":"大同路一段１４１巷１４號","OBJECTID":366198},"geometry":{"x":169172.75000000186,"y":2542904.0500000026}},{"attributes":{"ID":366209,"DIS_CODE":0,"TOWNNAME":"東區","LI":"大同里","LIN":"12鄰","STREET":"大同路","SECT":"一段","MAREA":" ","LANE":"１４１巷","ALLEY":" ","HOUSE_NO":"１５號","E_COORD97":169203.62,"N_COORD97":2542931.6099999999,"ADDRESS":"大同路一段１４１巷１５號","OBJECTID":366199},"geometry":{"x":169203.62000000011,"y":2542931.6100000013}},{"attributes":{"ID":366210,"DIS_CODE":0,"TOWNNAME":"東區","LI":"大同里","LIN":"12鄰","STREET":"大同路","SECT":"一段","MAREA":" ","LANE":"１４１巷","ALLEY":" ","HOUSE_NO":"１６號","E_COORD97":169179.42999999999,"N_COORD97":2542898.1800000002,"ADDRESS":"大同路一段１４１巷１６號","OBJECTID":366200},"geometry":{"x":169179.4299999997,"y":2542898.1800000016}}]}