{"displayFieldName":"TOWNNAME","fieldAliases":{"ID":"ID","DIS_CODE":"DIS_CODE","TOWNNAME":"TOWNNAME","LI":"LI","LIN":"LIN","STREET":"STREET","SECT":"SECT","MAREA":"MAREA","LANE":"LANE","ALLEY":"ALLEY","HOUSE_NO":"HOUSE_NO","E_COORD97":"E_COORD97","N_COORD97":"N_COORD97","ADDRESS":"ADDRESS","OBJECTID":"OBJECTID"},"geometryType":"esriGeometryPoint","spatialReference":{"wkid":102443,"latestWkid":3826},"fields":[{"name":"ID","type":"esriFieldTypeDouble","alias":"ID"},{"name":"DIS_CODE","type":"esriFieldTypeInteger","alias":"DIS_CODE"},{"name":"TOWNNAME","type":"esriFieldTypeString","alias":"TOWNNAME","length":8},{"name":"LI","type":"esriFieldTypeString","alias":"LI","length":8},{"name":"LIN","type":"esriFieldTypeString","alias":"LIN","length":12},{"name":"STREET","type":"esriFieldTypeString","alias":"STREET","length":20},{"name":"SECT","type":"esriFieldTypeString","alias":"SECT","length":8},{"name":"MAREA","type":"esriFieldTypeString","alias":"MAREA","length":12},{"name":"LANE","type":"esriFieldTypeString","alias":"LANE","length":10},{"name":"ALLEY","type":"esriFieldTypeString","alias":"ALLEY","length":10},{"name":"HOUSE_NO","type":"esriFieldTypeString","alias":"HOUSE_NO","length":20},{"name":"E_COORD97","type":"esriFieldTypeDouble","alias":"E_COORD97"},{"name":"N_COORD97","type":"esriFieldTypeDouble","alias":"N_COORD97"},{"name":"ADDRESS","type":"esriFieldTypeString","alias":"ADDRESS","length":50},{"name":"OBJECTID","type":"esriFieldTypeOID","alias":"OBJECTID"}],"features":[{"attributes":{"ID":282407,"DIS_CODE":0,"TOWNNAME":"永康區","LI":"復國里","LIN":"30鄰","STREET":"復國一路","SECT":" ","MAREA":" ","LANE":"１７３巷","ALLEY":" ","HOUSE_NO":"１６號","E_COORD97":172694.23000000001,"N_COORD97":2545235.02,"ADDRESS":"復國一路１７３巷１６號","OBJECTID":282401},"geometry":{"x":172694.23000000231,"y":2545235.0200000014}},{"attributes":{"ID":282408,"DIS_CODE":0,"TOWNNAME":"永康區","LI":"復國里","LIN":"30鄰","STREET":"復國一路","SECT":" ","MAREA":" ","LANE":"１７３巷","ALLEY":" ","HOUSE_NO":"６８號","E_COORD97":172516.26000000001,"N_COORD97":2545228.2599999998,"ADDRESS":"復國一路１７３巷６８號","OBJECTID":282402},"geometry":{"x":172516.25999999978,"y":2545228.2599999998}},{"attributes":{"ID":282409,"DIS_CODE":0,"TOWNNAME":"永康區","LI":"復國里","LIN":"30鄰","STREET":"復國一路","SECT":" ","MAREA":" ","LANE":"１７３巷","ALLEY":" ","HOUSE_NO":"１４號","E_COORD97":172694.48000000001,"N_COORD97":2545239.27,"ADDRESS":"復國一路１７３巷１４號","OBJECTID":282403},"geometry":{"x":172694.48000000138,"y":2545239.2700000033}},{"attributes":{"ID":282410,"DIS_CODE":0,"TOWNNAME":"永康區","LI":"復國里","LIN":"30鄰","STREET":"復國一路","SECT":" ","MAREA":" ","LANE":"１７３巷","ALLEY":" ","HOUSE_NO":"１２號","E_COORD97":172694.82999999999,"N_COORD97":2545243.77,"ADDRESS":"復國一路１７３巷１２號","OBJECTID":282404},"geometry":{"x":172694.82999999914,"y":2545243.7700000014}},{"attributes":{"ID":282411,"DIS_CODE":0,"TOWNNAME":"永康區","LI":"復國里","LIN":"30鄰","STREET":"復國一路","SECT":" ","MAREA":" ","LANE":"１７３巷","ALLEY":" ","HOUSE_NO":"２４號","E_COORD97":172683.34,"N_COORD97":2545220.77,"ADDRESS":"復國一路１７３巷２４號","OBJECTID":282405},"geometry":{"x":172683.34000000078,"y":2545220.7699999996}},{"attributes":{"ID":282412,"DIS_CODE":0,"TOWNNAME":"將軍區","LI":"西華里","LIN":"2鄰","STREET":" ","SECT":" ","MAREA":"西華","LANE":" ","ALLEY":" ","HOUSE_NO":"２７號","E_COORD97":163799.69,"N_COORD97":2566440.8500000001,"ADDRESS":"西華２７號","OBJECTID":282406},"geometry":{"x":163799.69000000041,"y":2566440.8499999996}},{"attributes":{"ID":282413,"DIS_CODE":0,"TOWNNAME":"永康區","LI":"復國里","LIN":"30鄰","STREET":"復國一路","SECT":" ","MAREA":" ","LANE":"１７３巷","ALLEY":" ","HOUSE_NO":"５６號","E_COORD97":172563.12,"N_COORD97":2545227.5099999998,"ADDRESS":"復國一路１７３巷５６號","OBJECTID":282407},"geometry":{"x":172563.12000000104,"y":2545227.5100000035}},{"attributes":{"ID":282414,"DIS_CODE":0,"TOWNNAME":"山上區","LI":"明和里","LIN":"2鄰","STREET":" ","SECT":" ","MAREA":"明和","LANE":" ","ALLEY":" ","HOUSE_NO":"９４號","E_COORD97":183105.14000000001,"N_COORD97":2556330.0800000001,"ADDRESS":"明和９４號","OBJECTID":282408},"geometry":{"x":183105.13999999966,"y":2556330.0800000001}},{"attributes":{"ID":282415,"DIS_CODE":0,"TOWNNAME":"永康區","LI":"復國里","LIN":"30鄰","STREET":"復國一路","SECT":" ","MAREA":" ","LANE":"１７３巷","ALLEY":" ","HOUSE_NO":"６０號","E_COORD97":172551.42000000001,"N_COORD97":2545228.0099999998,"ADDRESS":"復國一路１７３巷６０號","OBJECTID":282409},"geometry":{"x":172551.41999999993,"y":2545228.0100000016}},{"attributes":{"ID":282416,"DIS_CODE":0,"TOWNNAME":"永康區","LI":"復國里","LIN":"30鄰","STREET":"復國一路","SECT":" ","MAREA":" ","LANE":"１７３巷","ALLEY":" ","HOUSE_NO":"７０號","E_COORD97":172509.45999999999,"N_COORD97":2545228.5099999998,"ADDRESS":"復國一路１７３巷７０號","OBJECTID":282410},"geometry":{"x":172509.46000000089,"y":2545228.5100000016}},{"attributes":{"ID":282417,"DIS_CODE":0,"TOWNNAME":"永康區","LI":"復國里","LIN":"30鄰","STREET":"復國一路","SECT":" ","MAREA":" ","LANE":"１７３巷","ALLEY":" ","HOUSE_NO":"４０號","E_COORD97":172620.01999999999,"N_COORD97":2545226.4199999999,"ADDRESS":"復國一路１７３巷４０號","OBJECTID":282411},"geometry":{"x":172620.01999999955,"y":2545226.4200000018}},{"attributes":{"ID":282418,"DIS_CODE":0,"TOWNNAME":"永康區","LI":"二王里","LIN":"30鄰","STREET":"中山南路","SECT":" ","MAREA":" ","LANE":"５１０巷","ALLEY":" ","HOUSE_NO":"１號之１２","E_COORD97":172185.73999999999,"N_COORD97":2546437.8500000001,"ADDRESS":"中山南路５１０巷１號之１２","OBJECTID":282412},"geometry":{"x":172185.74000000115,"y":2546437.8499999996}},{"attributes":{"ID":282419,"DIS_CODE":0,"TOWNNAME":"將軍區","LI":"西華里","LIN":"2鄰","STREET":" ","SECT":" ","MAREA":"西華","LANE":" ","ALLEY":" ","HOUSE_NO":"２６號","E_COORD97":163790.14999999999,"N_COORD97":2566448.4700000002,"ADDRESS":"西華２６號","OBJECTID":282413},"geometry":{"x":163790.1500000013,"y":2566448.4700000007}},{"attributes":{"ID":282420,"DIS_CODE":0,"TOWNNAME":"將軍區","LI":"西華里","LIN":"2鄰","STREET":" ","SECT":" ","MAREA":"西華","LANE":" ","ALLEY":" ","HOUSE_NO":"２５號","E_COORD97":163797.14000000001,"N_COORD97":2566462.4399999999,"ADDRESS":"西華２５號","OBJECTID":282414},"geometry":{"x":163797.13999999966,"y":2566462.4400000013}},{"attributes":{"ID":282421,"DIS_CODE":0,"TOWNNAME":"將軍區","LI":"西華里","LIN":"2鄰","STREET":" ","SECT":" ","MAREA":"西華","LANE":" ","ALLEY":" ","HOUSE_NO":"２４號","E_COORD97":163800.85000000001,"N_COORD97":2566459.4199999999,"ADDRESS":"西華２４號","OBJECTID":282415},"geometry":{"x":163800.84999999963,"y":2566459.4200000018}},{"attributes":{"ID":282422,"DIS_CODE":0,"TOWNNAME":"永康區","LI":"二王里","LIN":"30鄰","STREET":"中山南路","SECT":" ","MAREA":" ","LANE":"５１０巷","ALLEY":" ","HOUSE_NO":"１號之１０","E_COORD97":172178.64000000001,"N_COORD97":2546442.1000000001,"ADDRESS":"中山南路５１０巷１號之１０","OBJECTID":282416},"geometry":{"x":172178.63999999873,"y":2546442.1000000015}},{"attributes":{"ID":282423,"DIS_CODE":0,"TOWNNAME":"將軍區","LI":"西華里","LIN":"2鄰","STREET":" ","SECT":" ","MAREA":"西華","LANE":" ","ALLEY":" ","HOUSE_NO":"２９之２號","E_COORD97":163826.91,"N_COORD97":2566428.73,"ADDRESS":"西華２９之２號","OBJECTID":282417},"geometry":{"x":163826.91000000201,"y":2566428.7300000004}},{"attributes":{"ID":282424,"DIS_CODE":0,"TOWNNAME":"將軍區","LI":"西華里","LIN":"2鄰","STREET":" ","SECT":" ","MAREA":"西華","LANE":" ","ALLEY":" ","HOUSE_NO":"２９之１號","E_COORD97":163824.16,"N_COORD97":2566429.1499999999,"ADDRESS":"西華２９之１號","OBJECTID":282418},"geometry":{"x":163824.16000000108,"y":2566429.1500000004}},{"attributes":{"ID":282425,"DIS_CODE":0,"TOWNNAME":"將軍區","LI":"西華里","LIN":"2鄰","STREET":" ","SECT":" ","MAREA":"西華","LANE":" ","ALLEY":" ","HOUSE_NO":"２９號","E_COORD97":163821.72,"N_COORD97":2566429.5800000001,"ADDRESS":"西華２９號","OBJECTID":282419},"geometry":{"x":163821.72000000067,"y":2566429.5800000001}},{"attributes":{"ID":282426,"DIS_CODE":0,"TOWNNAME":"將軍區","LI":"三吉里","LIN":"2鄰","STREET":" ","SECT":" ","MAREA":"三吉","LANE":" ","ALLEY":" ","HOUSE_NO":"１２號","E_COORD97":142828.82000000001,"N_COORD97":2554581.4100000001,"ADDRESS":"三吉１２號","OBJECTID":282420},"geometry":{"x":142828.8200000003,"y":2554581.4100000001}},{"attributes":{"ID":282427,"DIS_CODE":0,"TOWNNAME":"安定區","LI":"管寮里","LIN":"2鄰","STREET":" ","SECT":" ","MAREA":"管寮","LANE":" ","ALLEY":" ","HOUSE_NO":"１３之２６號","E_COORD97":170314.09,"N_COORD97":2555733.9100000001,"ADDRESS":"管寮１３之２６號","OBJECTID":282421},"geometry":{"x":170314.08999999985,"y":2555733.9100000001}},{"attributes":{"ID":282428,"DIS_CODE":0,"TOWNNAME":"將軍區","LI":"平沙里","LIN":"2鄰","STREET":" ","SECT":" ","MAREA":"平沙","LANE":" ","ALLEY":" ","HOUSE_NO":"１３之６號","E_COORD97":157449.04000000001,"N_COORD97":2568601.3599999999,"ADDRESS":"平沙１３之６號","OBJECTID":282422},"geometry":{"x":157449.04000000097,"y":2568601.3600000031}},{"attributes":{"ID":282429,"DIS_CODE":0,"TOWNNAME":"將軍區","LI":"平沙里","LIN":"2鄰","STREET":" ","SECT":" ","MAREA":"平沙","LANE":" ","ALLEY":" ","HOUSE_NO":"１４號","E_COORD97":157427.22,"N_COORD97":2568584.4300000002,"ADDRESS":"平沙１４號","OBJECTID":282423},"geometry":{"x":157427.22000000067,"y":2568584.4300000034}},{"attributes":{"ID":282430,"DIS_CODE":0,"TOWNNAME":"將軍區","LI":"平沙里","LIN":"2鄰","STREET":" ","SECT":" ","MAREA":"平沙","LANE":" ","ALLEY":" ","HOUSE_NO":"１４之１號","E_COORD97":157438.01999999999,"N_COORD97":2568584.8500000001,"ADDRESS":"平沙１４之１號","OBJECTID":282424},"geometry":{"x":157438.02000000142,"y":2568584.8500000034}},{"attributes":{"ID":282431,"DIS_CODE":0,"TOWNNAME":"將軍區","LI":"平沙里","LIN":"2鄰","STREET":" ","SECT":" ","MAREA":"平沙","LANE":" ","ALLEY":" ","HOUSE_NO":"１５之２號","E_COORD97":157390.39999999999,"N_COORD97":2568574.96,"ADDRESS":"平沙１５之２號","OBJECTID":282425},"geometry":{"x":157390.40000000037,"y":2568574.959999999}},{"attributes":{"ID":282432,"DIS_CODE":0,"TOWNNAME":"安定區","LI":"管寮里","LIN":"2鄰","STREET":" ","SECT":" ","MAREA":"管寮","LANE":" ","ALLEY":" ","HOUSE_NO":"１３之２５號","E_COORD97":169970.29999999999,"N_COORD97":2554666.7999999998,"ADDRESS":"管寮１３之２５號","OBJECTID":282426},"geometry":{"x":169970.29999999981,"y":2554666.8000000026}},{"attributes":{"ID":282433,"DIS_CODE":0,"TOWNNAME":"後壁區","LI":"仕安里","LIN":"2鄰","STREET":" ","SECT":" ","MAREA":"下長","LANE":" ","ALLEY":" ","HOUSE_NO":"１２號","E_COORD97":180655.57999999999,"N_COORD97":2583924.7400000002,"ADDRESS":"下長１２號","OBJECTID":282427},"geometry":{"x":180655.58000000194,"y":2583924.7400000021}},{"attributes":{"ID":282434,"DIS_CODE":0,"TOWNNAME":"新市區","LI":"三舍里","LIN":"2鄰","STREET":" ","SECT":" ","MAREA":"三舍","LANE":" ","ALLEY":" ","HOUSE_NO":"４３之１號","E_COORD97":177947.39999999999,"N_COORD97":2554266.7999999998,"ADDRESS":"三舍４３之１號","OBJECTID":282428},"geometry":{"x":177947.40000000037,"y":2554266.8000000026}},{"attributes":{"ID":282435,"DIS_CODE":0,"TOWNNAME":"永康區","LI":"二王里","LIN":"30鄰","STREET":"中山南路","SECT":" ","MAREA":" ","LANE":"５１０巷","ALLEY":" ","HOUSE_NO":"９號","E_COORD97":172207.57000000001,"N_COORD97":2546390.9199999999,"ADDRESS":"中山南路５１０巷９號","OBJECTID":282429},"geometry":{"x":172207.57000000123,"y":2546390.9199999999}},{"attributes":{"ID":282436,"DIS_CODE":0,"TOWNNAME":"楠西區","LI":"龜丹里","LIN":"2鄰","STREET":" ","SECT":" ","MAREA":"龜丹","LANE":" ","ALLEY":" ","HOUSE_NO":"１之９號","E_COORD97":197494.09,"N_COORD97":2559499.2999999998,"ADDRESS":"龜丹１之９號","OBJECTID":282430},"geometry":{"x":197494.09000000078,"y":2559499.3000000007}},{"attributes":{"ID":282437,"DIS_CODE":0,"TOWNNAME":"關廟區","LI":"布袋里","LIN":"2鄰","STREET":"長裕街","SECT":" ","MAREA":" ","LANE":" ","ALLEY":" ","HOUSE_NO":"５６號","E_COORD97":182624.04000000001,"N_COORD97":2536024.2999999998,"ADDRESS":"長裕街５６號","OBJECTID":282431},"geometry":{"x":182624.04000000097,"y":2536024.3000000007}},{"attributes":{"ID":282438,"DIS_CODE":0,"TOWNNAME":"關廟區","LI":"布袋里","LIN":"2鄰","STREET":"長裕街","SECT":" ","MAREA":" ","LANE":" ","ALLEY":" ","HOUSE_NO":"１３６號","E_COORD97":182312.79000000001,"N_COORD97":2535839.2999999998,"ADDRESS":"長裕街１３６號","OBJECTID":282432},"geometry":{"x":182312.79000000097,"y":2535839.3000000026}},{"attributes":{"ID":282439,"DIS_CODE":0,"TOWNNAME":"永康區","LI":"大灣里","LIN":"30鄰","STREET":"民族路","SECT":" ","MAREA":" ","LANE":"１２６巷","ALLEY":" ","HOUSE_NO":"５８號","E_COORD97":175406.56,"N_COORD97":2544886.7200000002,"ADDRESS":"民族路１２６巷５８號","OBJECTID":282433},"geometry":{"x":175406.55999999959,"y":2544886.7200000007}},{"attributes":{"ID":282440,"DIS_CODE":0,"TOWNNAME":"永康區","LI":"東灣里","LIN":"30鄰","STREET":"大灣一街","SECT":" ","MAREA":" ","LANE":"３６０巷","ALLEY":" ","HOUSE_NO":"２號","E_COORD97":175144.16,"N_COORD97":2544792.2599999998,"ADDRESS":"大灣一街３６０巷２號","OBJECTID":282434},"geometry":{"x":175144.16000000108,"y":2544792.2600000016}},{"attributes":{"ID":282441,"DIS_CODE":0,"TOWNNAME":"永康區","LI":"二王里","LIN":"30鄰","STREET":"中山南路","SECT":" ","MAREA":" ","LANE":"５２０巷","ALLEY":" ","HOUSE_NO":"１３號","E_COORD97":172178.63,"N_COORD97":2546471.7400000002,"ADDRESS":"中山南路５２０巷１３號","OBJECTID":282435},"geometry":{"x":172178.62999999989,"y":2546471.7400000021}},{"attributes":{"ID":282442,"DIS_CODE":0,"TOWNNAME":"永康區","LI":"二王里","LIN":"30鄰","STREET":"中山南路","SECT":" ","MAREA":" ","LANE":"５１０巷","ALLEY":" ","HOUSE_NO":"１號之８","E_COORD97":172170.98999999999,"N_COORD97":2546446.3500000001,"ADDRESS":"中山南路５１０巷１號之８","OBJECTID":282436},"geometry":{"x":172170.99000000115,"y":2546446.3500000015}},{"attributes":{"ID":282443,"DIS_CODE":0,"TOWNNAME":"永康區","LI":"二王里","LIN":"30鄰","STREET":"中山南路","SECT":" ","MAREA":" ","LANE":"５２０巷","ALLEY":" ","HOUSE_NO":"１號","E_COORD97":172159.35999999999,"N_COORD97":2546482.4300000002,"ADDRESS":"中山南路５２０巷１號","OBJECTID":282437},"geometry":{"x":172159.3600000022,"y":2546482.4300000034}},{"attributes":{"ID":282444,"DIS_CODE":0,"TOWNNAME":"永康區","LI":"西勢里","LIN":"30鄰","STREET":"富強路","SECT":"一段","MAREA":" ","LANE":"２巷","ALLEY":" ","HOUSE_NO":"１６號","E_COORD97":175450.89000000001,"N_COORD97":2545932.7799999998,"ADDRESS":"富強路一段２巷１６號","OBJECTID":282438},"geometry":{"x":175450.8900000006,"y":2545932.7799999993}},{"attributes":{"ID":282445,"DIS_CODE":0,"TOWNNAME":"永康區","LI":"二王里","LIN":"30鄰","STREET":"中山南路","SECT":" ","MAREA":" ","LANE":"５１０巷","ALLEY":" ","HOUSE_NO":"１號之１３","E_COORD97":172209.14000000001,"N_COORD97":2546431.1000000001,"ADDRESS":"中山南路５１０巷１號之１３","OBJECTID":282439},"geometry":{"x":172209.13999999873,"y":2546431.1000000015}},{"attributes":{"ID":282446,"DIS_CODE":0,"TOWNNAME":"永康區","LI":"二王里","LIN":"30鄰","STREET":"中山南路","SECT":" ","MAREA":" ","LANE":"５１０巷","ALLEY":" ","HOUSE_NO":"１號之１１","E_COORD97":172182.35000000001,"N_COORD97":2546439.8500000001,"ADDRESS":"中山南路５１０巷１號之１１","OBJECTID":282440},"geometry":{"x":172182.35000000149,"y":2546439.8500000015}},{"attributes":{"ID":282447,"DIS_CODE":0,"TOWNNAME":"永康區","LI":"二王里","LIN":"30鄰","STREET":"中山南路","SECT":" ","MAREA":" ","LANE":"５２０巷","ALLEY":" ","HOUSE_NO":"１１號","E_COORD97":172173.01000000001,"N_COORD97":2546476.2400000002,"ADDRESS":"中山南路５２０巷１１號","OBJECTID":282441},"geometry":{"x":172173.01000000164,"y":2546476.2400000002}},{"attributes":{"ID":282448,"DIS_CODE":0,"TOWNNAME":"永康區","LI":"二王里","LIN":"30鄰","STREET":"中山南路","SECT":" ","MAREA":" ","LANE":"５１０巷","ALLEY":" ","HOUSE_NO":"１號","E_COORD97":172125.41,"N_COORD97":2546480.21,"ADDRESS":"中山南路５１０巷１號","OBJECTID":282442},"geometry":{"x":172125.41000000108,"y":2546480.2100000009}},{"attributes":{"ID":282449,"DIS_CODE":0,"TOWNNAME":"永康區","LI":"二王里","LIN":"30鄰","STREET":"中山南路","SECT":" ","MAREA":" ","LANE":"５１０巷","ALLEY":" ","HOUSE_NO":"７號","E_COORD97":172211.69,"N_COORD97":2546405.6600000001,"ADDRESS":"中山南路５１０巷７號","OBJECTID":282443},"geometry":{"x":172211.69000000134,"y":2546405.6600000001}},{"attributes":{"ID":282450,"DIS_CODE":0,"TOWNNAME":"新市區","LI":"新和里","LIN":"30鄰","STREET":"光華街","SECT":" ","MAREA":" ","LANE":"２１４巷","ALLEY":" ","HOUSE_NO":"９號","E_COORD97":177881.12,"N_COORD97":2553027.75,"ADDRESS":"光華街２１４巷９號","OBJECTID":282444},"geometry":{"x":177881.12000000011,"y":2553027.7500000019}},{"attributes":{"ID":282451,"DIS_CODE":0,"TOWNNAME":"新市區","LI":"新和里","LIN":"30鄰","STREET":"光華街","SECT":" ","MAREA":" ","LANE":"２１４巷","ALLEY":" ","HOUSE_NO":"６號","E_COORD97":177896.04000000001,"N_COORD97":2553016,"ADDRESS":"光華街２１４巷６號","OBJECTID":282445},"geometry":{"x":177896.0400000019,"y":2553016.0000000019}},{"attributes":{"ID":282452,"DIS_CODE":0,"TOWNNAME":"關廟區","LI":"布袋里","LIN":"2鄰","STREET":" ","SECT":" ","MAREA":"布袋","LANE":" ","ALLEY":" ","HOUSE_NO":"１４之１號","E_COORD97":182534.94,"N_COORD97":2536228.2999999998,"ADDRESS":"布袋１４之１號","OBJECTID":282446},"geometry":{"x":182534.94000000041,"y":2536228.2999999989}},{"attributes":{"ID":282453,"DIS_CODE":0,"TOWNNAME":"關廟區","LI":"深坑里","LIN":"2鄰","STREET":"南雄路","SECT":"一段","MAREA":" ","LANE":" ","ALLEY":" ","HOUSE_NO":"３３２號","E_COORD97":181821.12,"N_COORD97":2537518.2999999998,"ADDRESS":"南雄路一段３３２號","OBJECTID":282447},"geometry":{"x":181821.12000000011,"y":2537518.3000000026}},{"attributes":{"ID":282454,"DIS_CODE":0,"TOWNNAME":"關廟區","LI":"布袋里","LIN":"2鄰","STREET":"長裕街","SECT":" ","MAREA":" ","LANE":" ","ALLEY":" ","HOUSE_NO":"２６號","E_COORD97":182725.73999999999,"N_COORD97":2536104.2999999998,"ADDRESS":"長裕街２６號","OBJECTID":282448},"geometry":{"x":182725.74000000022,"y":2536104.3000000026}},{"attributes":{"ID":282455,"DIS_CODE":0,"TOWNNAME":"關廟區","LI":"深坑里","LIN":"2鄰","STREET":"深坑一街","SECT":" ","MAREA":" ","LANE":"１３巷","ALLEY":" ","HOUSE_NO":"１５號","E_COORD97":181831.37,"N_COORD97":2537589.2999999998,"ADDRESS":"深坑一街１３巷１５號","OBJECTID":282449},"geometry":{"x":181831.37000000011,"y":2537589.3000000026}},{"attributes":{"ID":282456,"DIS_CODE":0,"TOWNNAME":"關廟區","LI":"龜洞里","LIN":"2鄰","STREET":"長榮街","SECT":" ","MAREA":" ","LANE":" ","ALLEY":" ","HOUSE_NO":"１１６號","E_COORD97":183137.64000000001,"N_COORD97":2533891.2999999998,"ADDRESS":"長榮街１１６號","OBJECTID":282450},"geometry":{"x":183137.63999999966,"y":2533891.3000000007}},{"attributes":{"ID":282457,"DIS_CODE":0,"TOWNNAME":"南化區","LI":"南化里","LIN":"2鄰","STREET":" ","SECT":" ","MAREA":"南化","LANE":" ","ALLEY":" ","HOUSE_NO":"１７號","E_COORD97":195693.98999999999,"N_COORD97":2549289.75,"ADDRESS":"南化１７號","OBJECTID":282451},"geometry":{"x":195693.99000000022,"y":2549289.75}},{"attributes":{"ID":282458,"DIS_CODE":0,"TOWNNAME":"新市區","LI":"新市里","LIN":"30鄰","STREET":"復興路","SECT":" ","MAREA":" ","LANE":"６２巷","ALLEY":" ","HOUSE_NO":"５４號","E_COORD97":177979.14999999999,"N_COORD97":2553478.7799999998,"ADDRESS":"復興路６２巷５４號","OBJECTID":282452},"geometry":{"x":177979.1500000013,"y":2553478.7800000012}},{"attributes":{"ID":282459,"DIS_CODE":0,"TOWNNAME":"關廟區","LI":"埤頭里","LIN":"2鄰","STREET":"保東路","SECT":" ","MAREA":" ","LANE":"８５巷","ALLEY":" ","HOUSE_NO":"９８號","E_COORD97":178961.76999999999,"N_COORD97":2543847.2999999998,"ADDRESS":"保東路８５巷９８號","OBJECTID":282453},"geometry":{"x":178961.76999999862,"y":2543847.3000000026}},{"attributes":{"ID":282460,"DIS_CODE":0,"TOWNNAME":"仁德區","LI":"成功里","LIN":"30鄰","STREET":"成功一街","SECT":" ","MAREA":" ","LANE":"３巷","ALLEY":" ","HOUSE_NO":"４號","E_COORD97":170568.38,"N_COORD97":2540211.52,"ADDRESS":"成功一街３巷４號","OBJECTID":282454},"geometry":{"x":170568.37999999989,"y":2540211.5199999996}},{"attributes":{"ID":282461,"DIS_CODE":0,"TOWNNAME":"仁德區","LI":"成功里","LIN":"30鄰","STREET":"成功一街","SECT":" ","MAREA":" ","LANE":"３巷","ALLEY":" ","HOUSE_NO":"６號","E_COORD97":170574.92999999999,"N_COORD97":2540212.02,"ADDRESS":"成功一街３巷６號","OBJECTID":282455},"geometry":{"x":170574.93000000156,"y":2540212.0199999996}},{"attributes":{"ID":282462,"DIS_CODE":0,"TOWNNAME":"麻豆區","LI":"保安里","LIN":"14鄰","STREET":"民權路","SECT":" ","MAREA":" ","LANE":" ","ALLEY":" ","HOUSE_NO":"２號之４","E_COORD97":173355.34,"N_COORD97":2564796.54,"ADDRESS":"民權路２號之４","OBJECTID":282456},"geometry":{"x":173355.33999999985,"y":2564796.540000001}},{"attributes":{"ID":282463,"DIS_CODE":0,"TOWNNAME":"南區","LI":"文華里","LIN":"2鄰","STREET":"美南街","SECT":" ","MAREA":" ","LANE":" ","ALLEY":" ","HOUSE_NO":"１號","E_COORD97":167124.17999999999,"N_COORD97":2543083.3799999999,"ADDRESS":"美南街１號","OBJECTID":282457},"geometry":{"x":167124.18000000063,"y":2543083.379999999}},{"attributes":{"ID":282464,"DIS_CODE":0,"TOWNNAME":"南區","LI":"田寮里","LIN":"2鄰","STREET":"大成路","SECT":"二段","MAREA":" ","LANE":" ","ALLEY":" ","HOUSE_NO":"１７０號","E_COORD97":167265.69,"N_COORD97":2541754.8199999998,"ADDRESS":"大成路二段１７０號","OBJECTID":282458},"geometry":{"x":167265.69000000041,"y":2541754.8200000022}},{"attributes":{"ID":282465,"DIS_CODE":0,"TOWNNAME":"南區","LI":"田寮里","LIN":"2鄰","STREET":"新興路","SECT":" ","MAREA":" ","LANE":" ","ALLEY":" ","HOUSE_NO":"２８７號","E_COORD97":167196.23999999999,"N_COORD97":2541871.3599999999,"ADDRESS":"新興路２８７號","OBJECTID":282459},"geometry":{"x":167196.24000000022,"y":2541871.3599999994}},{"attributes":{"ID":282466,"DIS_CODE":0,"TOWNNAME":"南區","LI":"田寮里","LIN":"2鄰","STREET":"新興路","SECT":" ","MAREA":" ","LANE":" ","ALLEY":" ","HOUSE_NO":"２８３號","E_COORD97":167204.85000000001,"N_COORD97":2541876.6800000002,"ADDRESS":"新興路２８３號","OBJECTID":282460},"geometry":{"x":167204.84999999963,"y":2541876.6800000034}},{"attributes":{"ID":282467,"DIS_CODE":0,"TOWNNAME":"仁德區","LI":"後壁里","LIN":"30鄰","STREET":"德洋一街","SECT":" ","MAREA":" ","LANE":"３７巷","ALLEY":" ","HOUSE_NO":"１１號","E_COORD97":173085.35999999999,"N_COORD97":2539185.02,"ADDRESS":"德洋一街３７巷１１號","OBJECTID":282461},"geometry":{"x":173085.36000000127,"y":2539185.0199999996}},{"attributes":{"ID":282468,"DIS_CODE":0,"TOWNNAME":"仁德區","LI":"後壁里","LIN":"30鄰","STREET":"德洋一街","SECT":" ","MAREA":" ","LANE":"３７巷","ALLEY":" ","HOUSE_NO":"５號","E_COORD97":173094.95999999999,"N_COORD97":2539176.77,"ADDRESS":"德洋一街３７巷５號","OBJECTID":282462},"geometry":{"x":173094.95999999996,"y":2539176.7699999996}},{"attributes":{"ID":282469,"DIS_CODE":0,"TOWNNAME":"仁德區","LI":"後壁里","LIN":"30鄰","STREET":"德洋一街","SECT":" ","MAREA":" ","LANE":"２１巷","ALLEY":" ","HOUSE_NO":"８號","E_COORD97":173073.42999999999,"N_COORD97":2539161.52,"ADDRESS":"德洋一街２１巷８號","OBJECTID":282463},"geometry":{"x":173073.4299999997,"y":2539161.5199999996}},{"attributes":{"ID":282470,"DIS_CODE":0,"TOWNNAME":"仁德區","LI":"後壁里","LIN":"30鄰","STREET":"德洋一街","SECT":" ","MAREA":" ","LANE":"２１巷","ALLEY":" ","HOUSE_NO":"１０號","E_COORD97":173070.95999999999,"N_COORD97":2539164.52,"ADDRESS":"德洋一街２１巷１０號","OBJECTID":282464},"geometry":{"x":173070.96000000089,"y":2539164.5199999996}},{"attributes":{"ID":282471,"DIS_CODE":0,"TOWNNAME":"南區","LI":"田寮里","LIN":"2鄰","STREET":"新興路","SECT":" ","MAREA":" ","LANE":" ","ALLEY":" ","HOUSE_NO":"２７３號","E_COORD97":167221.45999999999,"N_COORD97":2541890.5699999998,"ADDRESS":"新興路２７３號","OBJECTID":282465},"geometry":{"x":167221.45999999996,"y":2541890.5700000003}},{"attributes":{"ID":282472,"DIS_CODE":0,"TOWNNAME":"仁德區","LI":"後壁里","LIN":"30鄰","STREET":"德洋一街","SECT":" ","MAREA":" ","LANE":"２１巷","ALLEY":" ","HOUSE_NO":"２號","E_COORD97":173084.56,"N_COORD97":2539151.2599999998,"ADDRESS":"德洋一街２１巷２號","OBJECTID":282466},"geometry":{"x":173084.56000000145,"y":2539151.2600000016}},{"attributes":{"ID":282473,"DIS_CODE":0,"TOWNNAME":"新市區","LI":"新和里","LIN":"30鄰","STREET":"光華街","SECT":" ","MAREA":" ","LANE":"２１４巷","ALLEY":" ","HOUSE_NO":"７號","E_COORD97":177876.87,"N_COORD97":2553027.75,"ADDRESS":"光華街２１４巷７號","OBJECTID":282467},"geometry":{"x":177876.87000000197,"y":2553027.7500000019}},{"attributes":{"ID":282474,"DIS_CODE":0,"TOWNNAME":"永康區","LI":"北灣里","LIN":"30鄰","STREET":"大灣六街","SECT":" ","MAREA":" ","LANE":"８０巷","ALLEY":" ","HOUSE_NO":"６５號","E_COORD97":175283.57999999999,"N_COORD97":2545321.7400000002,"ADDRESS":"大灣六街８０巷６５號","OBJECTID":282468},"geometry":{"x":175283.58000000194,"y":2545321.7400000021}},{"attributes":{"ID":282475,"DIS_CODE":0,"TOWNNAME":"永康區","LI":"北灣里","LIN":"30鄰","STREET":"大灣六街","SECT":" ","MAREA":" ","LANE":"８０巷","ALLEY":" ","HOUSE_NO":"６５之３號","E_COORD97":175300.03,"N_COORD97":2545323.21,"ADDRESS":"大灣六街８０巷６５之３號","OBJECTID":282469},"geometry":{"x":175300.03000000119,"y":2545323.2100000028}},{"attributes":{"ID":282476,"DIS_CODE":0,"TOWNNAME":"東區","LI":"富強里","LIN":"4鄰","STREET":"裕農路","SECT":" ","MAREA":" ","LANE":" ","ALLEY":" ","HOUSE_NO":"４４８號之４","E_COORD97":171265.72,"N_COORD97":2543157.2999999998,"ADDRESS":"裕農路４４８號之４","OBJECTID":282470},"geometry":{"x":171265.71999999974,"y":2543157.3000000007}},{"attributes":{"ID":282477,"DIS_CODE":0,"TOWNNAME":"東區","LI":"富強里","LIN":"4鄰","STREET":"裕農路","SECT":" ","MAREA":" ","LANE":" ","ALLEY":" ","HOUSE_NO":"４４８號之５","E_COORD97":171269.81,"N_COORD97":2543159.2599999998,"ADDRESS":"裕農路４４８號之５","OBJECTID":282471},"geometry":{"x":171269.80999999959,"y":2543159.2600000016}},{"attributes":{"ID":282478,"DIS_CODE":0,"TOWNNAME":"東區","LI":"富強里","LIN":"4鄰","STREET":"裕農路","SECT":" ","MAREA":" ","LANE":" ","ALLEY":" ","HOUSE_NO":"４４８號之９","E_COORD97":171281.82000000001,"N_COORD97":2543151.9700000002,"ADDRESS":"裕農路４４８號之９","OBJECTID":282472},"geometry":{"x":171281.82000000123,"y":2543151.9700000025}},{"attributes":{"ID":282479,"DIS_CODE":0,"TOWNNAME":"東區","LI":"富強里","LIN":"4鄰","STREET":"裕農路","SECT":" ","MAREA":" ","LANE":" ","ALLEY":" ","HOUSE_NO":"４４８號之１０","E_COORD97":171282.17000000001,"N_COORD97":2543147.1699999999,"ADDRESS":"裕農路４４８號之１０","OBJECTID":282473},"geometry":{"x":171282.17000000179,"y":2543147.1699999999}},{"attributes":{"ID":282480,"DIS_CODE":0,"TOWNNAME":"官田區","LI":"隆本里","LIN":"20鄰","STREET":"忠孝街","SECT":" ","MAREA":" ","LANE":" ","ALLEY":" ","HOUSE_NO":"５８號","E_COORD97":180060.01999999999,"N_COORD97":2566209.7999999998,"ADDRESS":"忠孝街５８號","OBJECTID":282474},"geometry":{"x":180060.01999999955,"y":2566209.8000000045}},{"attributes":{"ID":282481,"DIS_CODE":0,"TOWNNAME":"永康區","LI":"甲頂里","LIN":"15鄰","STREET":"正新街","SECT":" ","MAREA":" ","LANE":" ","ALLEY":" ","HOUSE_NO":"３０號","E_COORD97":170383.72,"N_COORD97":2546671.6000000001,"ADDRESS":"正新街３０號","OBJECTID":282475},"geometry":{"x":170383.72000000067,"y":2546671.6000000015}},{"attributes":{"ID":282482,"DIS_CODE":0,"TOWNNAME":"新化區","LI":"豐榮里","LIN":"13鄰","STREET":"民治路","SECT":" ","MAREA":" ","LANE":" ","ALLEY":" ","HOUSE_NO":"５２號","E_COORD97":178745.16,"N_COORD97":2548064.25,"ADDRESS":"民治路５２號","OBJECTID":282476},"geometry":{"x":178745.16000000108,"y":2548064.2500000019}},{"attributes":{"ID":282483,"DIS_CODE":0,"TOWNNAME":"永康區","LI":"北灣里","LIN":"30鄰","STREET":"大同街","SECT":" ","MAREA":" ","LANE":"３３巷","ALLEY":" ","HOUSE_NO":"５號","E_COORD97":175262.87,"N_COORD97":2545383.25,"ADDRESS":"大同街３３巷５號","OBJECTID":282477},"geometry":{"x":175262.87000000197,"y":2545383.2500000019}},{"attributes":{"ID":282484,"DIS_CODE":0,"TOWNNAME":"永康區","LI":"北灣里","LIN":"30鄰","STREET":"大同街","SECT":" ","MAREA":" ","LANE":"３３巷","ALLEY":" ","HOUSE_NO":"３號","E_COORD97":175263.09,"N_COORD97":2545390.75,"ADDRESS":"大同街３３巷３號","OBJECTID":282478},"geometry":{"x":175263.09000000078,"y":2545390.75}},{"attributes":{"ID":282485,"DIS_CODE":0,"TOWNNAME":"永康區","LI":"埔園里","LIN":"30鄰","STREET":"八德街","SECT":" ","MAREA":" ","LANE":"１８１巷","ALLEY":" ","HOUSE_NO":"１６號","E_COORD97":173846.64999999999,"N_COORD97":2548530.3199999998,"ADDRESS":"八德街１８１巷１６號","OBJECTID":282479},"geometry":{"x":173846.65000000037,"y":2548530.3200000003}},{"attributes":{"ID":282486,"DIS_CODE":0,"TOWNNAME":"永康區","LI":"埔園里","LIN":"30鄰","STREET":"八德街","SECT":" ","MAREA":" ","LANE":"１８１巷","ALLEY":" ","HOUSE_NO":"１８號","E_COORD97":173845.47,"N_COORD97":2548518.79,"ADDRESS":"八德街１８１巷１８號","OBJECTID":282480},"geometry":{"x":173845.47000000067,"y":2548518.7899999991}},{"attributes":{"ID":282487,"DIS_CODE":0,"TOWNNAME":"永康區","LI":"埔園里","LIN":"30鄰","STREET":"龍埔街","SECT":" ","MAREA":" ","LANE":"４３６巷","ALLEY":" ","HOUSE_NO":"３８號","E_COORD97":173909.25,"N_COORD97":2548434.6400000001,"ADDRESS":"龍埔街４３６巷３８號","OBJECTID":282481},"geometry":{"x":173909.25000000186,"y":2548434.6399999987}},{"attributes":{"ID":282488,"DIS_CODE":0,"TOWNNAME":"永康區","LI":"埔園里","LIN":"30鄰","STREET":"龍埔街","SECT":" ","MAREA":" ","LANE":"４３６巷","ALLEY":" ","HOUSE_NO":"４０號","E_COORD97":173909.88,"N_COORD97":2548439.0299999998,"ADDRESS":"龍埔街４３６巷４０號","OBJECTID":282482},"geometry":{"x":173909.88000000175,"y":2548439.0300000012}},{"attributes":{"ID":282489,"DIS_CODE":0,"TOWNNAME":"永康區","LI":"埔園里","LIN":"30鄰","STREET":"龍埔街","SECT":" ","MAREA":" ","LANE":"４３６巷","ALLEY":" ","HOUSE_NO":"４２號","E_COORD97":173908.79999999999,"N_COORD97":2548431.5600000001,"ADDRESS":"龍埔街４３６巷４２號","OBJECTID":282483},"geometry":{"x":173908.80000000075,"y":2548431.5600000005}},{"attributes":{"ID":282490,"DIS_CODE":0,"TOWNNAME":"永康區","LI":"正強里","LIN":"30鄰","STREET":"中正路","SECT":" ","MAREA":" ","LANE":"２０９巷","ALLEY":" ","HOUSE_NO":"１１６號","E_COORD97":173129.56,"N_COORD97":2547684.75,"ADDRESS":"中正路２０９巷１１６號","OBJECTID":282484},"geometry":{"x":173129.55999999959,"y":2547684.7500000019}},{"attributes":{"ID":282491,"DIS_CODE":0,"TOWNNAME":"永康區","LI":"建國里","LIN":"30鄰","STREET":"復興路","SECT":" ","MAREA":" ","LANE":"７１巷","ALLEY":" ","HOUSE_NO":"１１０號","E_COORD97":172815.32999999999,"N_COORD97":2543679.1899999999,"ADDRESS":"復興路７１巷１１０號","OBJECTID":282485},"geometry":{"x":172815.33000000194,"y":2543679.1899999995}},{"attributes":{"ID":282492,"DIS_CODE":0,"TOWNNAME":"東區","LI":"中西里","LIN":"24鄰","STREET":"長榮路","SECT":"二段","MAREA":" ","LANE":" ","ALLEY":" ","HOUSE_NO":"２５２號","E_COORD97":170178.39000000001,"N_COORD97":2543445.6299999999,"ADDRESS":"長榮路二段２５２號","OBJECTID":282486},"geometry":{"x":170178.39000000153,"y":2543445.6299999971}},{"attributes":{"ID":282493,"DIS_CODE":0,"TOWNNAME":"佳里區","LI":"三協里","LIN":"2鄰","STREET":" ","SECT":" ","MAREA":"菜寮","LANE":" ","ALLEY":" ","HOUSE_NO":"９號","E_COORD97":167892.92999999999,"N_COORD97":2563841.7000000002,"ADDRESS":"菜寮９號","OBJECTID":282487},"geometry":{"x":167892.9299999997,"y":2563841.6999999993}},{"attributes":{"ID":282494,"DIS_CODE":0,"TOWNNAME":"佳里區","LI":"三協里","LIN":"2鄰","STREET":" ","SECT":" ","MAREA":"菜寮","LANE":" ","ALLEY":" ","HOUSE_NO":"１１號","E_COORD97":167937.41,"N_COORD97":2563823.3300000001,"ADDRESS":"菜寮１１號","OBJECTID":282488},"geometry":{"x":167937.41000000015,"y":2563823.3300000019}},{"attributes":{"ID":282495,"DIS_CODE":0,"TOWNNAME":"中西區","LI":"中正里","LIN":"2鄰","STREET":" ","SECT":" ","MAREA":"西門商場","LANE":" ","ALLEY":" ","HOUSE_NO":"３號","E_COORD97":167845.57000000001,"N_COORD97":2543815.8399999999,"ADDRESS":"西門商場３號","OBJECTID":282489},"geometry":{"x":167845.57000000123,"y":2543815.8400000017}},{"attributes":{"ID":282496,"DIS_CODE":0,"TOWNNAME":"中西區","LI":"中正里","LIN":"2鄰","STREET":" ","SECT":" ","MAREA":"西門商場","LANE":" ","ALLEY":" ","HOUSE_NO":"９號","E_COORD97":167835.85999999999,"N_COORD97":2543818.4900000002,"ADDRESS":"西門商場９號","OBJECTID":282490},"geometry":{"x":167835.86000000034,"y":2543818.4900000021}},{"attributes":{"ID":282497,"DIS_CODE":0,"TOWNNAME":"佳里區","LI":"三協里","LIN":"2鄰","STREET":" ","SECT":" ","MAREA":"菜寮","LANE":" ","ALLEY":" ","HOUSE_NO":"１０號之１","E_COORD97":167913.59,"N_COORD97":2563823.2000000002,"ADDRESS":"菜寮１０號之１","OBJECTID":282491},"geometry":{"x":167913.58999999985,"y":2563823.2000000011}},{"attributes":{"ID":282498,"DIS_CODE":0,"TOWNNAME":"佳里區","LI":"三協里","LIN":"2鄰","STREET":" ","SECT":" ","MAREA":"菜寮","LANE":" ","ALLEY":" ","HOUSE_NO":"１１號之１０","E_COORD97":167916.28,"N_COORD97":2563871.6499999999,"ADDRESS":"菜寮１１號之１０","OBJECTID":282492},"geometry":{"x":167916.28000000026,"y":2563871.6500000022}},{"attributes":{"ID":282499,"DIS_CODE":0,"TOWNNAME":"佳里區","LI":"三協里","LIN":"2鄰","STREET":" ","SECT":" ","MAREA":"菜寮","LANE":" ","ALLEY":" ","HOUSE_NO":"１１號之１１","E_COORD97":167915.20999999999,"N_COORD97":2563877.8700000001,"ADDRESS":"菜寮１１號之１１","OBJECTID":282493},"geometry":{"x":167915.21000000183,"y":2563877.8700000029}},{"attributes":{"ID":282500,"DIS_CODE":0,"TOWNNAME":"佳里區","LI":"三協里","LIN":"2鄰","STREET":" ","SECT":" ","MAREA":"菜寮","LANE":" ","ALLEY":" ","HOUSE_NO":"１１號之１２","E_COORD97":167914.73999999999,"N_COORD97":2563884.1200000001,"ADDRESS":"菜寮１１號之１２","OBJECTID":282494},"geometry":{"x":167914.74000000022,"y":2563884.120000001}},{"attributes":{"ID":282501,"DIS_CODE":0,"TOWNNAME":"佳里區","LI":"三協里","LIN":"2鄰","STREET":" ","SECT":" ","MAREA":"菜寮","LANE":" ","ALLEY":" ","HOUSE_NO":"１１號之１","E_COORD97":167924.04000000001,"N_COORD97":2563816.0899999999,"ADDRESS":"菜寮１１號之１","OBJECTID":282495},"geometry":{"x":167924.04000000097,"y":2563816.0899999999}},{"attributes":{"ID":282502,"DIS_CODE":0,"TOWNNAME":"佳里區","LI":"三協里","LIN":"2鄰","STREET":" ","SECT":" ","MAREA":"菜寮","LANE":" ","ALLEY":" ","HOUSE_NO":"１１號之２","E_COORD97":167923.32999999999,"N_COORD97":2563822.1899999999,"ADDRESS":"菜寮１１號之２","OBJECTID":282496},"geometry":{"x":167923.33000000101,"y":2563822.1900000032}},{"attributes":{"ID":282503,"DIS_CODE":0,"TOWNNAME":"佳里區","LI":"三協里","LIN":"2鄰","STREET":" ","SECT":" ","MAREA":"菜寮","LANE":" ","ALLEY":" ","HOUSE_NO":"１１號之３","E_COORD97":167922.23999999999,"N_COORD97":2563828.5,"ADDRESS":"菜寮１１號之３","OBJECTID":282497},"geometry":{"x":167922.24000000115,"y":2563828.5000000019}},{"attributes":{"ID":282504,"DIS_CODE":0,"TOWNNAME":"佳里區","LI":"三協里","LIN":"2鄰","STREET":" ","SECT":" ","MAREA":"菜寮","LANE":" ","ALLEY":" ","HOUSE_NO":"１１號之１３","E_COORD97":167921.59,"N_COORD97":2563834.6400000001,"ADDRESS":"菜寮１１號之１３","OBJECTID":282498},"geometry":{"x":167921.59000000078,"y":2563834.6400000025}},{"attributes":{"ID":282505,"DIS_CODE":0,"TOWNNAME":"永康區","LI":"建國里","LIN":"30鄰","STREET":"復興路","SECT":" ","MAREA":" ","LANE":"７１巷","ALLEY":" ","HOUSE_NO":"１０６號","E_COORD97":172815.59,"N_COORD97":2543695.9399999999,"ADDRESS":"復興路７１巷１０６號","OBJECTID":282499},"geometry":{"x":172815.59000000078,"y":2543695.9400000013}},{"attributes":{"ID":282506,"DIS_CODE":0,"TOWNNAME":"永康區","LI":"龍潭里","LIN":"30鄰","STREET":"龍國街","SECT":" ","MAREA":" ","LANE":"４２０巷","ALLEY":" ","HOUSE_NO":"３０號","E_COORD97":174845.72,"N_COORD97":2547945.52,"ADDRESS":"龍國街４２０巷３０號","OBJECTID":282500},"geometry":{"x":174845.71999999974,"y":2547945.5199999996}},{"attributes":{"ID":282507,"DIS_CODE":0,"TOWNNAME":"永康區","LI":"建國里","LIN":"30鄰","STREET":"復興路","SECT":" ","MAREA":" ","LANE":"７１巷","ALLEY":" ","HOUSE_NO":"９１號","E_COORD97":172818.39000000001,"N_COORD97":2543762.5699999998,"ADDRESS":"復興路７１巷９１號","OBJECTID":282501},"geometry":{"x":172818.3900000006,"y":2543762.5700000003}},{"attributes":{"ID":282508,"DIS_CODE":0,"TOWNNAME":"永康區","LI":"崑山里","LIN":"30鄰","STREET":"大仁街","SECT":" ","MAREA":" ","LANE":"１１４巷","ALLEY":" ","HOUSE_NO":"１２號","E_COORD97":173899.35999999999,"N_COORD97":2544825.4900000002,"ADDRESS":"大仁街１１４巷１２號","OBJECTID":282502},"geometry":{"x":173899.36000000127,"y":2544825.4900000021}},{"attributes":{"ID":282509,"DIS_CODE":0,"TOWNNAME":"東區","LI":"大同里","LIN":"30鄰","STREET":"大同路","SECT":"一段","MAREA":" ","LANE":"１７５巷","ALLEY":" ","HOUSE_NO":"１２５號","E_COORD97":169433.69,"N_COORD97":2542588.4100000001,"ADDRESS":"大同路一段１７５巷１２５號","OBJECTID":282503},"geometry":{"x":169433.69000000134,"y":2542588.410000002}},{"attributes":{"ID":282510,"DIS_CODE":0,"TOWNNAME":"東區","LI":"大同里","LIN":"30鄰","STREET":"大同路","SECT":"一段","MAREA":" ","LANE":"１７５巷","ALLEY":" ","HOUSE_NO":"１２７號","E_COORD97":169430.20999999999,"N_COORD97":2542586.8199999998,"ADDRESS":"大同路一段１７５巷１２７號","OBJECTID":282504},"geometry":{"x":169430.20999999996,"y":2542586.8200000003}},{"attributes":{"ID":282511,"DIS_CODE":0,"TOWNNAME":"東區","LI":"大同里","LIN":"30鄰","STREET":"大同路","SECT":"一段","MAREA":" ","LANE":"１７５巷","ALLEY":" ","HOUSE_NO":"１２９號","E_COORD97":169427.16,"N_COORD97":2542583.3399999999,"ADDRESS":"大同路一段１７５巷１２９號","OBJECTID":282505},"geometry":{"x":169427.16000000015,"y":2542583.3399999999}},{"attributes":{"ID":282512,"DIS_CODE":0,"TOWNNAME":"東區","LI":"大同里","LIN":"30鄰","STREET":"大同路","SECT":"一段","MAREA":" ","LANE":"１７５巷","ALLEY":" ","HOUSE_NO":"１３１號","E_COORD97":169424.10999999999,"N_COORD97":2542580.4399999999,"ADDRESS":"大同路一段１７５巷１３１號","OBJECTID":282506},"geometry":{"x":169424.11000000127,"y":2542580.4400000013}},{"attributes":{"ID":282513,"DIS_CODE":0,"TOWNNAME":"東區","LI":"大同里","LIN":"30鄰","STREET":"大同路","SECT":"一段","MAREA":" ","LANE":"１７５巷","ALLEY":" ","HOUSE_NO":"１３３號","E_COORD97":169419.17999999999,"N_COORD97":2542579.7200000002,"ADDRESS":"大同路一段１７５巷１３３號","OBJECTID":282507},"geometry":{"x":169419.18000000063,"y":2542579.7200000025}},{"attributes":{"ID":282514,"DIS_CODE":0,"TOWNNAME":"永康區","LI":"北灣里","LIN":"30鄰","STREET":"大灣六街","SECT":" ","MAREA":" ","LANE":"８０巷","ALLEY":" ","HOUSE_NO":"７１號","E_COORD97":175311.95999999999,"N_COORD97":2545318.3199999998,"ADDRESS":"大灣六街８０巷７１號","OBJECTID":282508},"geometry":{"x":175311.96000000089,"y":2545318.3200000022}},{"attributes":{"ID":282515,"DIS_CODE":0,"TOWNNAME":"東區","LI":"大同里","LIN":"30鄰","STREET":"大同路","SECT":"一段","MAREA":" ","LANE":"１７５巷","ALLEY":" ","HOUSE_NO":"１３７號","E_COORD97":169412.35999999999,"N_COORD97":2542577.2000000002,"ADDRESS":"大同路一段１７５巷１３７號","OBJECTID":282509},"geometry":{"x":169412.36000000034,"y":2542577.1999999993}},{"attributes":{"ID":282516,"DIS_CODE":0,"TOWNNAME":"東區","LI":"大同里","LIN":"30鄰","STREET":"大同路","SECT":"一段","MAREA":" ","LANE":"１７５巷","ALLEY":" ","HOUSE_NO":"１３９號","E_COORD97":169408.88,"N_COORD97":2542572.5600000001,"ADDRESS":"大同路一段１７５巷１３９號","OBJECTID":282510},"geometry":{"x":169408.87999999989,"y":2542572.5600000005}},{"attributes":{"ID":282517,"DIS_CODE":0,"TOWNNAME":"中西區","LI":"中正里","LIN":"2鄰","STREET":" ","SECT":" ","MAREA":"西門商場","LANE":" ","ALLEY":" ","HOUSE_NO":"１１號","E_COORD97":167825.26999999999,"N_COORD97":2543821.6800000002,"ADDRESS":"西門商場１１號","OBJECTID":282511},"geometry":{"x":167825.27000000048,"y":2543821.6799999997}},{"attributes":{"ID":282518,"DIS_CODE":0,"TOWNNAME":"東區","LI":"大同里","LIN":"30鄰","STREET":"大同路","SECT":"一段","MAREA":" ","LANE":"１７５巷","ALLEY":" ","HOUSE_NO":"１４１號","E_COORD97":169404.39000000001,"N_COORD97":2542569.23,"ADDRESS":"大同路一段１７５巷１４１號","OBJECTID":282512},"geometry":{"x":169404.3900000006,"y":2542569.2300000023}},{"attributes":{"ID":282519,"DIS_CODE":0,"TOWNNAME":"中西區","LI":"中正里","LIN":"2鄰","STREET":" ","SECT":" ","MAREA":"西門商場","LANE":" ","ALLEY":" ","HOUSE_NO":"１３號","E_COORD97":167821.95999999999,"N_COORD97":2543823.3300000001,"ADDRESS":"西門商場１３號","OBJECTID":282513},"geometry":{"x":167821.96000000183,"y":2543823.3300000019}},{"attributes":{"ID":282520,"DIS_CODE":0,"TOWNNAME":"中西區","LI":"中正里","LIN":"2鄰","STREET":" ","SECT":" ","MAREA":"西門商場","LANE":" ","ALLEY":" ","HOUSE_NO":"１５號","E_COORD97":167820.42000000001,"N_COORD97":2543824.21,"ADDRESS":"西門商場１５號","OBJECTID":282514},"geometry":{"x":167820.42000000179,"y":2543824.2100000028}},{"attributes":{"ID":282521,"DIS_CODE":0,"TOWNNAME":"中西區","LI":"中正里","LIN":"2鄰","STREET":" ","SECT":" ","MAREA":"西門商場","LANE":" ","ALLEY":" ","HOUSE_NO":"１７號","E_COORD97":167819.67000000001,"N_COORD97":2543821.0299999998,"ADDRESS":"西門商場１７號","OBJECTID":282515},"geometry":{"x":167819.66999999993,"y":2543821.0300000012}},{"attributes":{"ID":282522,"DIS_CODE":0,"TOWNNAME":"中西區","LI":"中正里","LIN":"2鄰","STREET":" ","SECT":" ","MAREA":"西門商場","LANE":" ","ALLEY":" ","HOUSE_NO":"１９號","E_COORD97":167819.35999999999,"N_COORD97":2543818.29,"ADDRESS":"西門商場１９號","OBJECTID":282516},"geometry":{"x":167819.36000000034,"y":2543818.290000001}},{"attributes":{"ID":282523,"DIS_CODE":0,"TOWNNAME":"中西區","LI":"中正里","LIN":"2鄰","STREET":" ","SECT":" ","MAREA":"西門商場","LANE":" ","ALLEY":" ","HOUSE_NO":"１號","E_COORD97":167847.76000000001,"N_COORD97":2543824.3799999999,"ADDRESS":"西門商場１號","OBJECTID":282517},"geometry":{"x":167847.75999999978,"y":2543824.3800000008}},{"attributes":{"ID":282524,"DIS_CODE":0,"TOWNNAME":"中西區","LI":"中正里","LIN":"2鄰","STREET":" ","SECT":" ","MAREA":"西門商場","LANE":" ","ALLEY":" ","HOUSE_NO":"２１號","E_COORD97":167838.95999999999,"N_COORD97":2543808.73,"ADDRESS":"西門商場２１號","OBJECTID":282518},"geometry":{"x":167838.96000000183,"y":2543808.7300000004}},{"attributes":{"ID":282525,"DIS_CODE":0,"TOWNNAME":"中西區","LI":"中正里","LIN":"2鄰","STREET":" ","SECT":" ","MAREA":"西門商場","LANE":" ","ALLEY":" ","HOUSE_NO":"２３號","E_COORD97":167837.16,"N_COORD97":2543804.5899999999,"ADDRESS":"西門商場２３號","OBJECTID":282519},"geometry":{"x":167837.16000000015,"y":2543804.5900000017}},{"attributes":{"ID":282526,"DIS_CODE":0,"TOWNNAME":"中西區","LI":"中正里","LIN":"2鄰","STREET":" ","SECT":" ","MAREA":"西門商場","LANE":" ","ALLEY":" ","HOUSE_NO":"２５號","E_COORD97":167834.89000000001,"N_COORD97":2543798.0600000001,"ADDRESS":"西門商場２５號","OBJECTID":282520},"geometry":{"x":167834.88999999966,"y":2543798.0600000024}},{"attributes":{"ID":282527,"DIS_CODE":0,"TOWNNAME":"中西區","LI":"中正里","LIN":"2鄰","STREET":" ","SECT":" ","MAREA":"西門商場","LANE":" ","ALLEY":" ","HOUSE_NO":"２７號","E_COORD97":167832.14999999999,"N_COORD97":2543777.3199999998,"ADDRESS":"西門商場２７號","OBJECTID":282521},"geometry":{"x":167832.15000000037,"y":2543777.3200000003}},{"attributes":{"ID":282528,"DIS_CODE":0,"TOWNNAME":"中西區","LI":"中正里","LIN":"2鄰","STREET":" ","SECT":" ","MAREA":"西門商場","LANE":" ","ALLEY":" ","HOUSE_NO":"２９號","E_COORD97":167832.5,"N_COORD97":2543771.2599999998,"ADDRESS":"西門商場２９號","OBJECTID":282522},"geometry":{"x":167832.50000000093,"y":2543771.2600000035}},{"attributes":{"ID":282529,"DIS_CODE":0,"TOWNNAME":"中西區","LI":"中正里","LIN":"2鄰","STREET":" ","SECT":" ","MAREA":"西門商場","LANE":" ","ALLEY":" ","HOUSE_NO":"３１號","E_COORD97":167837.73999999999,"N_COORD97":2543769.6000000001,"ADDRESS":"西門商場３１號","OBJECTID":282523},"geometry":{"x":167837.74000000115,"y":2543769.6000000015}},{"attributes":{"ID":282530,"DIS_CODE":0,"TOWNNAME":"中西區","LI":"中正里","LIN":"2鄰","STREET":" ","SECT":" ","MAREA":"西門商場","LANE":" ","ALLEY":" ","HOUSE_NO":"５號","E_COORD97":167840.26999999999,"N_COORD97":2543817.1600000001,"ADDRESS":"西門商場５號","OBJECTID":282524},"geometry":{"x":167840.27000000048,"y":2543817.160000002}},{"attributes":{"ID":282531,"DIS_CODE":0,"TOWNNAME":"中西區","LI":"中正里","LIN":"2鄰","STREET":" ","SECT":" ","MAREA":"西門商場","LANE":" ","ALLEY":" ","HOUSE_NO":"７號","E_COORD97":167837.56,"N_COORD97":2543818.3599999999,"ADDRESS":"西門商場７號","OBJECTID":282525},"geometry":{"x":167837.55999999959,"y":2543818.3600000013}},{"attributes":{"ID":282532,"DIS_CODE":0,"TOWNNAME":"中西區","LI":"中正里","LIN":"2鄰","STREET":" ","SECT":" ","MAREA":"西門商場","LANE":" ","ALLEY":" ","HOUSE_NO":"１０號","E_COORD97":167831.01999999999,"N_COORD97":2543830.4700000002,"ADDRESS":"西門商場１０號","OBJECTID":282526},"geometry":{"x":167831.01999999955,"y":2543830.4700000007}},{"attributes":{"ID":282533,"DIS_CODE":0,"TOWNNAME":"中西區","LI":"中正里","LIN":"2鄰","STREET":" ","SECT":" ","MAREA":"西門商場","LANE":" ","ALLEY":" ","HOUSE_NO":"１２號","E_COORD97":167809.37,"N_COORD97":2543833.5800000001,"ADDRESS":"西門商場１２號","OBJECTID":282527},"geometry":{"x":167809.37000000104,"y":2543833.5800000001}},{"attributes":{"ID":282534,"DIS_CODE":0,"TOWNNAME":"永康區","LI":"六合里","LIN":"2鄰","STREET":"中山南路","SECT":" ","MAREA":" ","LANE":" ","ALLEY":" ","HOUSE_NO":"３６號","E_COORD97":170856.60862000001,"N_COORD97":2545864.43016,"ADDRESS":"中山南路３６號","OBJECTID":282528},"geometry":{"x":170856.60862000193,"y":2545864.4301580023}},{"attributes":{"ID":282535,"DIS_CODE":0,"TOWNNAME":"中西區","LI":"中正里","LIN":"2鄰","STREET":" ","SECT":" ","MAREA":"西門商場","LANE":" ","ALLEY":" ","HOUSE_NO":"１４號","E_COORD97":167808.57000000001,"N_COORD97":2543830.9199999999,"ADDRESS":"西門商場１４號","OBJECTID":282529},"geometry":{"x":167808.57000000123,"y":2543830.9199999999}},{"attributes":{"ID":282536,"DIS_CODE":0,"TOWNNAME":"中西區","LI":"中正里","LIN":"2鄰","STREET":" ","SECT":" ","MAREA":"西門商場","LANE":" ","ALLEY":" ","HOUSE_NO":"１６號","E_COORD97":167808,"N_COORD97":2543828.6600000001,"ADDRESS":"西門商場１６號","OBJECTID":282530},"geometry":{"x":167808,"y":2543828.6600000001}},{"attributes":{"ID":282537,"DIS_CODE":0,"TOWNNAME":"永康區","LI":"六合里","LIN":"2鄰","STREET":"中山南路","SECT":" ","MAREA":" ","LANE":" ","ALLEY":" ","HOUSE_NO":"２８號","E_COORD97":170812.53097600001,"N_COORD97":2545832.8918400002,"ADDRESS":"中山南路２８號","OBJECTID":282531},"geometry":{"x":170812.53097600117,"y":2545832.8918409999}},{"attributes":{"ID":282538,"DIS_CODE":0,"TOWNNAME":"中西區","LI":"中正里","LIN":"2鄰","STREET":" ","SECT":" ","MAREA":"西門商場","LANE":" ","ALLEY":" ","HOUSE_NO":"１８號","E_COORD97":167807.03,"N_COORD97":2543826.6400000001,"ADDRESS":"西門商場１８號","OBJECTID":282532},"geometry":{"x":167807.03000000119,"y":2543826.6400000006}},{"attributes":{"ID":282539,"DIS_CODE":0,"TOWNNAME":"永康區","LI":"建國里","LIN":"30鄰","STREET":"復興路","SECT":" ","MAREA":" ","LANE":"７１巷","ALLEY":" ","HOUSE_NO":"１０１號","E_COORD97":172815.94,"N_COORD97":2543716.4500000002,"ADDRESS":"復興路７１巷１０１號","OBJECTID":282533},"geometry":{"x":172815.94000000041,"y":2543716.4500000011}},{"attributes":{"ID":282540,"DIS_CODE":0,"TOWNNAME":"永康區","LI":"南灣里","LIN":"30鄰","STREET":"南灣街","SECT":" ","MAREA":" ","LANE":"８１巷","ALLEY":" ","HOUSE_NO":"５號","E_COORD97":174441.75,"N_COORD97":2544902.4700000002,"ADDRESS":"南灣街８１巷５號","OBJECTID":282534},"geometry":{"x":174441.75000000093,"y":2544902.4700000007}},{"attributes":{"ID":282541,"DIS_CODE":0,"TOWNNAME":"永康區","LI":"永康里","LIN":"30鄰","STREET":"永大路","SECT":"二段","MAREA":" ","LANE":"９０９巷","ALLEY":" ","HOUSE_NO":"５號","E_COORD97":174202.01999999999,"N_COORD97":2547060.4500000002,"ADDRESS":"永大路二段９０９巷５號","OBJECTID":282535},"geometry":{"x":174202.02000000048,"y":2547060.4499999993}},{"attributes":{"ID":282542,"DIS_CODE":0,"TOWNNAME":"永康區","LI":"正強里","LIN":"30鄰","STREET":"中正路","SECT":" ","MAREA":" ","LANE":"２０９巷","ALLEY":" ","HOUSE_NO":"１０２號","E_COORD97":173129.45000000001,"N_COORD97":2547706.2400000002,"ADDRESS":"中正路２０９巷１０２號","OBJECTID":282536},"geometry":{"x":173129.45000000019,"y":2547706.2400000021}},{"attributes":{"ID":282543,"DIS_CODE":0,"TOWNNAME":"永康區","LI":"六合里","LIN":"2鄰","STREET":"中山南路","SECT":" ","MAREA":" ","LANE":" ","ALLEY":" ","HOUSE_NO":"１０號","E_COORD97":170741.45000000001,"N_COORD97":2545774.2000000002,"ADDRESS":"中山南路１０號","OBJECTID":282537},"geometry":{"x":170741.45000000205,"y":2545774.1999999993}},{"attributes":{"ID":282544,"DIS_CODE":0,"TOWNNAME":"永康區","LI":"六合里","LIN":"2鄰","STREET":"中山南路","SECT":" ","MAREA":" ","LANE":" ","ALLEY":" ","HOUSE_NO":"２號之１","E_COORD97":170692.57000000001,"N_COORD97":2545740.04,"ADDRESS":"中山南路２號之１","OBJECTID":282538},"geometry":{"x":170692.5700000003,"y":2545740.040000001}},{"attributes":{"ID":282545,"DIS_CODE":0,"TOWNNAME":"安南區","LI":"州北里","LIN":"30鄰","STREET":"安和路","SECT":"六段","MAREA":" ","LANE":"２０巷","ALLEY":" ","HOUSE_NO":"１１４號之２","E_COORD97":169763.01000000001,"N_COORD97":2552441,"ADDRESS":"安和路六段２０巷１１４號之２","OBJECTID":282539},"geometry":{"x":169763.01000000071,"y":2552441}},{"attributes":{"ID":282546,"DIS_CODE":0,"TOWNNAME":"安南區","LI":"\u25A0南里","LIN":"30鄰","STREET":"安昌街","SECT":" ","MAREA":" ","LANE":"１７４巷","ALLEY":" ","HOUSE_NO":"１７６號","E_COORD97":170096.35999999999,"N_COORD97":2552071.29,"ADDRESS":"安昌街１７４巷１７６號","OBJECTID":282540},"geometry":{"x":170096.3600000022,"y":2552071.290000001}},{"attributes":{"ID":282547,"DIS_CODE":0,"TOWNNAME":"安南區","LI":"\u25A0南里","LIN":"30鄰","STREET":"安昌街","SECT":" ","MAREA":" ","LANE":"１７４巷","ALLEY":" ","HOUSE_NO":"１７２號","E_COORD97":170096.35999999999,"N_COORD97":2552080.5299999998,"ADDRESS":"安昌街１７４巷１７２號","OBJECTID":282541},"geometry":{"x":170096.3600000022,"y":2552080.5300000012}},{"attributes":{"ID":282548,"DIS_CODE":0,"TOWNNAME":"仁德區","LI":"後壁里","LIN":"30鄰","STREET":"德洋一街","SECT":" ","MAREA":" ","LANE":"２１巷","ALLEY":" ","HOUSE_NO":"１４號","E_COORD97":173063.45000000001,"N_COORD97":2539170.77,"ADDRESS":"德洋一街２１巷１４號","OBJECTID":282542},"geometry":{"x":173063.45000000019,"y":2539170.7700000014}},{"attributes":{"ID":282549,"DIS_CODE":0,"TOWNNAME":"仁德區","LI":"後壁里","LIN":"30鄰","STREET":"德洋一街","SECT":" ","MAREA":" ","LANE":"２１巷","ALLEY":" ","HOUSE_NO":"６號","E_COORD97":173077.32999999999,"N_COORD97":2539158.02,"ADDRESS":"德洋一街２１巷６號","OBJECTID":282543},"geometry":{"x":173077.33000000007,"y":2539158.0199999996}},{"attributes":{"ID":282550,"DIS_CODE":0,"TOWNNAME":"新市區","LI":"新市里","LIN":"30鄰","STREET":"復興路","SECT":" ","MAREA":" ","LANE":"６２巷","ALLEY":" ","HOUSE_NO":"５２號","E_COORD97":177973.39999999999,"N_COORD97":2553478.7799999998,"ADDRESS":"復興路６２巷５２號","OBJECTID":282544},"geometry":{"x":177973.40000000037,"y":2553478.7800000012}},{"attributes":{"ID":282551,"DIS_CODE":0,"TOWNNAME":"佳里區","LI":"建南里","LIN":"30鄰","STREET":"四維二街","SECT":" ","MAREA":" ","LANE":"２２２巷","ALLEY":" ","HOUSE_NO":"１０號","E_COORD97":165645.04999999999,"N_COORD97":2561119.7200000002,"ADDRESS":"四維二街２２２巷１０號","OBJECTID":282545},"geometry":{"x":165645.05000000075,"y":2561119.7200000007}},{"attributes":{"ID":282552,"DIS_CODE":0,"TOWNNAME":"永康區","LI":"北灣里","LIN":"30鄰","STREET":"大同街","SECT":" ","MAREA":" ","LANE":"３３巷","ALLEY":" ","HOUSE_NO":"１３號","E_COORD97":175263.32000000001,"N_COORD97":2545350.52,"ADDRESS":"大同街３３巷１３號","OBJECTID":282546},"geometry":{"x":175263.31999999937,"y":2545350.5200000014}},{"attributes":{"ID":282553,"DIS_CODE":0,"TOWNNAME":"永康區","LI":"南灣里","LIN":"30鄰","STREET":"南灣街","SECT":" ","MAREA":" ","LANE":"８１巷","ALLEY":" ","HOUSE_NO":"９號","E_COORD97":174441.85999999999,"N_COORD97":2544880.2400000002,"ADDRESS":"南灣街８１巷９號","OBJECTID":282547},"geometry":{"x":174441.86000000127,"y":2544880.2400000002}},{"attributes":{"ID":282554,"DIS_CODE":0,"TOWNNAME":"永康區","LI":"東灣里","LIN":"30鄰","STREET":"大灣一街","SECT":" ","MAREA":" ","LANE":"３６０巷","ALLEY":" ","HOUSE_NO":"３０號","E_COORD97":175188.67000000001,"N_COORD97":2544739.5,"ADDRESS":"大灣一街３６０巷３０號","OBJECTID":282548},"geometry":{"x":175188.66999999993,"y":2544739.5000000037}},{"attributes":{"ID":282555,"DIS_CODE":0,"TOWNNAME":"永康區","LI":"南灣里","LIN":"30鄰","STREET":"南灣街","SECT":" ","MAREA":" ","LANE":"８１巷","ALLEY":" ","HOUSE_NO":"８號","E_COORD97":174425.12,"N_COORD97":2544895.25,"ADDRESS":"南灣街８１巷８號","OBJECTID":282549},"geometry":{"x":174425.12000000011,"y":2544895.2500000019}},{"attributes":{"ID":282556,"DIS_CODE":0,"TOWNNAME":"佳里區","LI":"東寧里","LIN":"18鄰","STREET":"義民街","SECT":" ","MAREA":" ","LANE":"２７巷","ALLEY":" ","HOUSE_NO":"２號","E_COORD97":166095.73999999999,"N_COORD97":2562428.0899999999,"ADDRESS":"義民街２７巷２號","OBJECTID":282550},"geometry":{"x":166095.74000000022,"y":2562428.0900000017}},{"attributes":{"ID":282557,"DIS_CODE":0,"TOWNNAME":"永康區","LI":"東灣里","LIN":"30鄰","STREET":"大灣一街","SECT":" ","MAREA":" ","LANE":"３６０巷","ALLEY":" ","HOUSE_NO":"１６號","E_COORD97":175165.47,"N_COORD97":2544768.0099999998,"ADDRESS":"大灣一街３６０巷１６號","OBJECTID":282551},"geometry":{"x":175165.47000000067,"y":2544768.0100000016}},{"attributes":{"ID":282558,"DIS_CODE":0,"TOWNNAME":"永康區","LI":"西灣里","LIN":"30鄰","STREET":"國光八街","SECT":" ","MAREA":" ","LANE":"６０巷","ALLEY":" ","HOUSE_NO":"２４號","E_COORD97":174270.07999999999,"N_COORD97":2545830.8399999999,"ADDRESS":"國光八街６０巷２４號","OBJECTID":282552},"geometry":{"x":174270.08000000101,"y":2545830.8399999999}},{"attributes":{"ID":282559,"DIS_CODE":0,"TOWNNAME":"永康區","LI":"南灣里","LIN":"30鄰","STREET":"南灣街","SECT":" ","MAREA":" ","LANE":"８１巷","ALLEY":" ","HOUSE_NO":"７號","E_COORD97":174434.37,"N_COORD97":2544898.25,"ADDRESS":"南灣街８１巷７號","OBJECTID":282553},"geometry":{"x":174434.37000000104,"y":2544898.2500000019}},{"attributes":{"ID":282560,"DIS_CODE":0,"TOWNNAME":"永康區","LI":"正強里","LIN":"30鄰","STREET":"正強街","SECT":" ","MAREA":" ","LANE":"２１５巷","ALLEY":" ","HOUSE_NO":"７８號","E_COORD97":173180.19,"N_COORD97":2547703.6899999999,"ADDRESS":"正強街２１５巷７８號","OBJECTID":282554},"geometry":{"x":173180.19000000134,"y":2547703.6899999995}},{"attributes":{"ID":282561,"DIS_CODE":0,"TOWNNAME":"永康區","LI":"正強里","LIN":"30鄰","STREET":"正強街","SECT":" ","MAREA":" ","LANE":"２１５巷","ALLEY":" ","HOUSE_NO":"５８號","E_COORD97":173211.98999999999,"N_COORD97":2547707.4399999999,"ADDRESS":"正強街２１５巷５８號","OBJECTID":282555},"geometry":{"x":173211.99000000022,"y":2547707.4400000013}},{"attributes":{"ID":282562,"DIS_CODE":0,"TOWNNAME":"永康區","LI":"正強里","LIN":"30鄰","STREET":"中正路","SECT":" ","MAREA":" ","LANE":"２０９巷","ALLEY":" ","HOUSE_NO":"９８號","E_COORD97":173128.54999999999,"N_COORD97":2547714.7400000002,"ADDRESS":"中正路２０９巷９８號","OBJECTID":282556},"geometry":{"x":173128.54999999981,"y":2547714.7399999984}},{"attributes":{"ID":282563,"DIS_CODE":0,"TOWNNAME":"永康區","LI":"北灣里","LIN":"30鄰","STREET":"大同街","SECT":" ","MAREA":" ","LANE":"３３巷","ALLEY":" ","HOUSE_NO":"２１號","E_COORD97":175262.57000000001,"N_COORD97":2545326.02,"ADDRESS":"大同街３３巷２１號","OBJECTID":282557},"geometry":{"x":175262.57000000123,"y":2545326.0200000014}},{"attributes":{"ID":282564,"DIS_CODE":0,"TOWNNAME":"安定區","LI":"新吉里","LIN":"2鄰","STREET":" ","SECT":" ","MAREA":"新吉","LANE":" ","ALLEY":" ","HOUSE_NO":"１１之２號","E_COORD97":169369.66881,"N_COORD97":2554181.9892099998,"ADDRESS":"新吉１１之２號","OBJECTID":282558},"geometry":{"x":169369.66881000064,"y":2554181.9892130047}},{"attributes":{"ID":282565,"DIS_CODE":0,"TOWNNAME":"麻豆區","LI":"保安里","LIN":"14鄰","STREET":"民權路","SECT":" ","MAREA":" ","LANE":" ","ALLEY":" ","HOUSE_NO":"２號之５","E_COORD97":173355.47,"N_COORD97":2564801.04,"ADDRESS":"民權路２號之５","OBJECTID":282559},"geometry":{"x":173355.47000000067,"y":2564801.0399999991}},{"attributes":{"ID":282566,"DIS_CODE":0,"TOWNNAME":"安定區","LI":"安定里","LIN":"2鄰","STREET":" ","SECT":" ","MAREA":"領寄","LANE":" ","ALLEY":" ","HOUSE_NO":"２５號","E_COORD97":173524.39000000001,"N_COORD97":2557219.25,"ADDRESS":"領寄２５號","OBJECTID":282560},"geometry":{"x":173524.38999999966,"y":2557219.2500000019}},{"attributes":{"ID":282567,"DIS_CODE":0,"TOWNNAME":"安南區","LI":"新順里","LIN":"2鄰","STREET":"安生街","SECT":" ","MAREA":" ","LANE":" ","ALLEY":" ","HOUSE_NO":"６０號","E_COORD97":169598.01000000001,"N_COORD97":2549520.6699999999,"ADDRESS":"安生街６０號","OBJECTID":282561},"geometry":{"x":169598.01000000164,"y":2549520.6699999999}},{"attributes":{"ID":282568,"DIS_CODE":0,"TOWNNAME":"永康區","LI":"北灣里","LIN":"30鄰","STREET":"大同街","SECT":" ","MAREA":" ","LANE":"３３巷","ALLEY":" ","HOUSE_NO":"１５號","E_COORD97":175263.03,"N_COORD97":2545345.27,"ADDRESS":"大同街３３巷１５號","OBJECTID":282562},"geometry":{"x":175263.03000000026,"y":2545345.2700000014}},{"attributes":{"ID":282569,"DIS_CODE":0,"TOWNNAME":"安南區","LI":"新順里","LIN":"2鄰","STREET":"安生街","SECT":" ","MAREA":" ","LANE":" ","ALLEY":" ","HOUSE_NO":"６２號","E_COORD97":169592.51999999999,"N_COORD97":2549520.8999999999,"ADDRESS":"安生街６２號","OBJECTID":282563},"geometry":{"x":169592.52000000142,"y":2549520.8999999985}},{"attributes":{"ID":282570,"DIS_CODE":0,"TOWNNAME":"安南區","LI":"新順里","LIN":"2鄰","STREET":"安生街","SECT":" ","MAREA":" ","LANE":" ","ALLEY":" ","HOUSE_NO":"６４號","E_COORD97":169584.73000000001,"N_COORD97":2549519.2999999998,"ADDRESS":"安生街６４號","OBJECTID":282564},"geometry":{"x":169584.73000000045,"y":2549519.3000000026}},{"attributes":{"ID":282571,"DIS_CODE":0,"TOWNNAME":"安南區","LI":"新順里","LIN":"2鄰","STREET":"安生街","SECT":" ","MAREA":" ","LANE":" ","ALLEY":" ","HOUSE_NO":"６６號","E_COORD97":169579.70000000001,"N_COORD97":2549520.6699999999,"ADDRESS":"安生街６６號","OBJECTID":282565},"geometry":{"x":169579.70000000019,"y":2549520.6699999999}},{"attributes":{"ID":282572,"DIS_CODE":0,"TOWNNAME":"安南區","LI":"新順里","LIN":"2鄰","STREET":"安生街","SECT":" ","MAREA":" ","LANE":" ","ALLEY":" ","HOUSE_NO":"６８號","E_COORD97":169575.81,"N_COORD97":2549522.04,"ADDRESS":"安生街６８號","OBJECTID":282566},"geometry":{"x":169575.81000000052,"y":2549522.0399999972}},{"attributes":{"ID":282573,"DIS_CODE":0,"TOWNNAME":"永康區","LI":"正強里","LIN":"30鄰","STREET":"正強街","SECT":" ","MAREA":" ","LANE":"２１５巷","ALLEY":" ","HOUSE_NO":"５６號","E_COORD97":173215.73999999999,"N_COORD97":2547708.1899999999,"ADDRESS":"正強街２１５巷５６號","OBJECTID":282567},"geometry":{"x":173215.74000000022,"y":2547708.1900000013}},{"attributes":{"ID":282574,"DIS_CODE":0,"TOWNNAME":"安南區","LI":"溪頂里","LIN":"30鄰","STREET":"惠安街","SECT":" ","MAREA":" ","LANE":"８８巷","ALLEY":" ","HOUSE_NO":"１號","E_COORD97":168950.19,"N_COORD97":2547489.2400000002,"ADDRESS":"惠安街８８巷１號","OBJECTID":282568},"geometry":{"x":168950.19000000134,"y":2547489.2400000021}},{"attributes":{"ID":282575,"DIS_CODE":0,"TOWNNAME":"安南區","LI":"溪頂里","LIN":"30鄰","STREET":"惠安街","SECT":" ","MAREA":" ","LANE":"８８巷","ALLEY":" ","HOUSE_NO":"３號","E_COORD97":168949.62,"N_COORD97":2547497.3900000001,"ADDRESS":"惠安街８８巷３號","OBJECTID":282569},"geometry":{"x":168949.62000000011,"y":2547497.3900000043}},{"attributes":{"ID":282576,"DIS_CODE":0,"TOWNNAME":"安南區","LI":"新順里","LIN":"2鄰","STREET":"安生街","SECT":" ","MAREA":" ","LANE":" ","ALLEY":" ","HOUSE_NO":"７０號","E_COORD97":169571.23000000001,"N_COORD97":2549523.4100000001,"ADDRESS":"安生街７０號","OBJECTID":282570},"geometry":{"x":169571.23000000045,"y":2549523.4100000001}},{"attributes":{"ID":282577,"DIS_CODE":0,"TOWNNAME":"安南區","LI":"新順里","LIN":"2鄰","STREET":"安生街","SECT":" ","MAREA":" ","LANE":" ","ALLEY":" ","HOUSE_NO":"７２號","E_COORD97":169566.66,"N_COORD97":2549525.2400000002,"ADDRESS":"安生街７２號","OBJECTID":282571},"geometry":{"x":169566.66000000015,"y":2549525.2399999984}},{"attributes":{"ID":282578,"DIS_CODE":0,"TOWNNAME":"安南區","LI":"新順里","LIN":"2鄰","STREET":"安生街","SECT":" ","MAREA":" ","LANE":" ","ALLEY":" ","HOUSE_NO":"７４號","E_COORD97":169563.45000000001,"N_COORD97":2549527.7599999998,"ADDRESS":"安生街７４號","OBJECTID":282572},"geometry":{"x":169563.45000000112,"y":2549527.7599999998}},{"attributes":{"ID":282579,"DIS_CODE":0,"TOWNNAME":"官田區","LI":"隆本里","LIN":"30鄰","STREET":"中山路","SECT":"二段","MAREA":" ","LANE":"４００巷","ALLEY":" ","HOUSE_NO":"１０號","E_COORD97":178049.32000000001,"N_COORD97":2566874.4300000002,"ADDRESS":"中山路二段４００巷１０號","OBJECTID":282573},"geometry":{"x":178049.32000000123,"y":2566874.4299999997}},{"attributes":{"ID":282580,"DIS_CODE":0,"TOWNNAME":"永康區","LI":"正強里","LIN":"30鄰","STREET":"正強街","SECT":" ","MAREA":" ","LANE":"２１５巷","ALLEY":" ","HOUSE_NO":"７６號","E_COORD97":173183.88,"N_COORD97":2547703.9399999999,"ADDRESS":"正強街２１５巷７６號","OBJECTID":282574},"geometry":{"x":173183.87999999989,"y":2547703.9400000013}},{"attributes":{"ID":282581,"DIS_CODE":0,"TOWNNAME":"永康區","LI":"永康里","LIN":"30鄰","STREET":"永大路","SECT":"二段","MAREA":" ","LANE":"９０９巷","ALLEY":" ","HOUSE_NO":"６號","E_COORD97":174214.07000000001,"N_COORD97":2547057.5699999998,"ADDRESS":"永大路二段９０９巷６號","OBJECTID":282575},"geometry":{"x":174214.07000000216,"y":2547057.5700000003}},{"attributes":{"ID":282582,"DIS_CODE":0,"TOWNNAME":"永康區","LI":"正強里","LIN":"30鄰","STREET":"正強街","SECT":" ","MAREA":" ","LANE":"２１５巷","ALLEY":" ","HOUSE_NO":"７２號","E_COORD97":173187.98999999999,"N_COORD97":2547704.4399999999,"ADDRESS":"正強街２１５巷７２號","OBJECTID":282576},"geometry":{"x":173187.99000000115,"y":2547704.4399999995}},{"attributes":{"ID":282583,"DIS_CODE":0,"TOWNNAME":"永康區","LI":"正強里","LIN":"30鄰","STREET":"正強街","SECT":" ","MAREA":" ","LANE":"２１５巷","ALLEY":" ","HOUSE_NO":"８８號","E_COORD97":173161.73999999999,"N_COORD97":2547698.7400000002,"ADDRESS":"正強街２１５巷８８號","OBJECTID":282577},"geometry":{"x":173161.73999999929,"y":2547698.7400000021}},{"attributes":{"ID":282584,"DIS_CODE":0,"TOWNNAME":"永康區","LI":"永康里","LIN":"28鄰","STREET":"永康街","SECT":" ","MAREA":" ","LANE":"３１０巷","ALLEY":" ","HOUSE_NO":"４８號","E_COORD97":174217.67000000001,"N_COORD97":2546932.9700000002,"ADDRESS":"永康街３１０巷４８號","OBJECTID":282578},"geometry":{"x":174217.66999999993,"y":2546932.9700000007}},{"attributes":{"ID":282585,"DIS_CODE":0,"TOWNNAME":"永康區","LI":"西勢里","LIN":"30鄰","STREET":"富強路","SECT":"一段","MAREA":" ","LANE":"２巷","ALLEY":" ","HOUSE_NO":"２５號七樓","E_COORD97":175475.39999999999,"N_COORD97":2545911.7799999998,"ADDRESS":"富強路一段２巷２５號七樓","OBJECTID":282579},"geometry":{"x":175475.4000000013,"y":2545911.7799999993}},{"attributes":{"ID":282586,"DIS_CODE":0,"TOWNNAME":"安南區","LI":"新順里","LIN":"2鄰","STREET":"安生街","SECT":" ","MAREA":" ","LANE":" ","ALLEY":" ","HOUSE_NO":"７６號","E_COORD97":169559.10000000001,"N_COORD97":2549529.3599999999,"ADDRESS":"安生街７６號","OBJECTID":282580},"geometry":{"x":169559.09999999963,"y":2549529.3599999994}},{"attributes":{"ID":282587,"DIS_CODE":0,"TOWNNAME":"新化區","LI":"全興里","LIN":"2鄰","STREET":" ","SECT":" ","MAREA":"竹子\u25A0","LANE":" ","ALLEY":" ","HOUSE_NO":"１９１號之２","E_COORD97":177756.69,"N_COORD97":2547663.2599999998,"ADDRESS":"竹子\u25A0１９１號之２","OBJECTID":282581},"geometry":{"x":177756.69000000134,"y":2547663.2599999979}},{"attributes":{"ID":282588,"DIS_CODE":0,"TOWNNAME":"新化區","LI":"全興里","LIN":"2鄰","STREET":" ","SECT":" ","MAREA":"竹子\u25A0","LANE":" ","ALLEY":" ","HOUSE_NO":"１９１號","E_COORD97":177737.03,"N_COORD97":2547696.25,"ADDRESS":"竹子\u25A0１９１號","OBJECTID":282582},"geometry":{"x":177737.03000000212,"y":2547696.25}},{"attributes":{"ID":282589,"DIS_CODE":0,"TOWNNAME":"新化區","LI":"全興里","LIN":"2鄰","STREET":" ","SECT":" ","MAREA":"竹子\u25A0","LANE":" ","ALLEY":" ","HOUSE_NO":"１９２號","E_COORD97":177750.03,"N_COORD97":2547713.25,"ADDRESS":"竹子\u25A0１９２號","OBJECTID":282583},"geometry":{"x":177750.03000000026,"y":2547713.25}},{"attributes":{"ID":282590,"DIS_CODE":0,"TOWNNAME":"新化區","LI":"北勢里","LIN":"2鄰","STREET":" ","SECT":" ","MAREA":"北勢","LANE":" ","ALLEY":" ","HOUSE_NO":"１９號之５","E_COORD97":177456.69,"N_COORD97":2549476.2599999998,"ADDRESS":"北勢１９號之５","OBJECTID":282584},"geometry":{"x":177456.69000000134,"y":2549476.2599999998}},{"attributes":{"ID":282591,"DIS_CODE":0,"TOWNNAME":"新化區","LI":"北勢里","LIN":"2鄰","STREET":" ","SECT":" ","MAREA":"北勢","LANE":" ","ALLEY":" ","HOUSE_NO":"１９號之３","E_COORD97":177450.07999999999,"N_COORD97":2549474.2599999998,"ADDRESS":"北勢１９號之３","OBJECTID":282585},"geometry":{"x":177450.08000000101,"y":2549474.2600000016}},{"attributes":{"ID":282592,"DIS_CODE":0,"TOWNNAME":"新化區","LI":"北勢里","LIN":"2鄰","STREET":" ","SECT":" ","MAREA":"北勢","LANE":" ","ALLEY":" ","HOUSE_NO":"１９號之１","E_COORD97":177441.16,"N_COORD97":2549471.2599999998,"ADDRESS":"北勢１９號之１","OBJECTID":282586},"geometry":{"x":177441.16000000108,"y":2549471.2600000016}},{"attributes":{"ID":282593,"DIS_CODE":0,"TOWNNAME":"新化區","LI":"全興里","LIN":"2鄰","STREET":" ","SECT":" ","MAREA":"竹子\u25A0","LANE":" ","ALLEY":" ","HOUSE_NO":"２９號","E_COORD97":177682.17999999999,"N_COORD97":2547789.25,"ADDRESS":"竹子\u25A0２９號","OBJECTID":282587},"geometry":{"x":177682.1799999997,"y":2547789.2500000037}},{"attributes":{"ID":282594,"DIS_CODE":0,"TOWNNAME":"永康區","LI":"西勢里","LIN":"30鄰","STREET":"富強路","SECT":"一段","MAREA":" ","LANE":"２巷","ALLEY":" ","HOUSE_NO":"２３號六樓","E_COORD97":175472.92999999999,"N_COORD97":2545914.7799999998,"ADDRESS":"富強路一段２巷２３號六樓","OBJECTID":282588},"geometry":{"x":175472.93000000063,"y":2545914.7800000012}},{"attributes":{"ID":282595,"DIS_CODE":0,"TOWNNAME":"新化區","LI":"北勢里","LIN":"2鄰","STREET":" ","SECT":" ","MAREA":"北勢","LANE":" ","ALLEY":" ","HOUSE_NO":"１９號之７","E_COORD97":177462.28,"N_COORD97":2549478.2599999998,"ADDRESS":"北勢１９號之７","OBJECTID":282589},"geometry":{"x":177462.28000000212,"y":2549478.2600000016}},{"attributes":{"ID":282596,"DIS_CODE":0,"TOWNNAME":"永康區","LI":"西勢里","LIN":"30鄰","STREET":"富強路","SECT":"一段","MAREA":" ","LANE":"２巷","ALLEY":" ","HOUSE_NO":"２７號六樓","E_COORD97":175482.12,"N_COORD97":2545907.0299999998,"ADDRESS":"富強路一段２巷２７號六樓","OBJECTID":282590},"geometry":{"x":175482.12000000104,"y":2545907.0299999993}},{"attributes":{"ID":282597,"DIS_CODE":0,"TOWNNAME":"新化區","LI":"北勢里","LIN":"2鄰","STREET":" ","SECT":" ","MAREA":"北勢","LANE":" ","ALLEY":" ","HOUSE_NO":"１９號之１７","E_COORD97":177502.23000000001,"N_COORD97":2549485.2599999998,"ADDRESS":"北勢１９號之１７","OBJECTID":282591},"geometry":{"x":177502.23000000138,"y":2549485.2600000016}},{"attributes":{"ID":282598,"DIS_CODE":0,"TOWNNAME":"永康區","LI":"西勢里","LIN":"30鄰","STREET":"富強路","SECT":"一段","MAREA":" ","LANE":"２巷","ALLEY":" ","HOUSE_NO":"２５號五樓","E_COORD97":175475.39999999999,"N_COORD97":2545911.7799999998,"ADDRESS":"富強路一段２巷２５號五樓","OBJECTID":282592},"geometry":{"x":175475.4000000013,"y":2545911.7799999993}},{"attributes":{"ID":282599,"DIS_CODE":0,"TOWNNAME":"永康區","LI":"西勢里","LIN":"30鄰","STREET":"富強路","SECT":"一段","MAREA":" ","LANE":"２巷","ALLEY":" ","HOUSE_NO":"２７號七樓","E_COORD97":175482.12,"N_COORD97":2545907.0299999998,"ADDRESS":"富強路一段２巷２７號七樓","OBJECTID":282593},"geometry":{"x":175482.12000000104,"y":2545907.0299999993}},{"attributes":{"ID":282600,"DIS_CODE":0,"TOWNNAME":"永康區","LI":"西勢里","LIN":"30鄰","STREET":"富強路","SECT":"一段","MAREA":" ","LANE":"２巷","ALLEY":" ","HOUSE_NO":"２５號四樓","E_COORD97":175475.39999999999,"N_COORD97":2545911.7799999998,"ADDRESS":"富強路一段２巷２５號四樓","OBJECTID":282594},"geometry":{"x":175475.4000000013,"y":2545911.7799999993}},{"attributes":{"ID":282601,"DIS_CODE":0,"TOWNNAME":"永康區","LI":"西勢里","LIN":"30鄰","STREET":"富強路","SECT":"一段","MAREA":" ","LANE":"２巷","ALLEY":" ","HOUSE_NO":"２３號五樓","E_COORD97":175472.92999999999,"N_COORD97":2545914.7799999998,"ADDRESS":"富強路一段２巷２３號五樓","OBJECTID":282595},"geometry":{"x":175472.93000000063,"y":2545914.7800000012}},{"attributes":{"ID":282602,"DIS_CODE":0,"TOWNNAME":"永康區","LI":"西勢里","LIN":"30鄰","STREET":"富強路","SECT":"一段","MAREA":" ","LANE":"２巷","ALLEY":" ","HOUSE_NO":"２３號四樓","E_COORD97":175472.92999999999,"N_COORD97":2545914.7799999998,"ADDRESS":"富強路一段２巷２３號四樓","OBJECTID":282596},"geometry":{"x":175472.93000000063,"y":2545914.7800000012}},{"attributes":{"ID":282603,"DIS_CODE":0,"TOWNNAME":"永康區","LI":"西勢里","LIN":"30鄰","STREET":"富強路","SECT":"一段","MAREA":" ","LANE":"２巷","ALLEY":" ","HOUSE_NO":"２７號五樓","E_COORD97":175482.12,"N_COORD97":2545907.0299999998,"ADDRESS":"富強路一段２巷２７號五樓","OBJECTID":282597},"geometry":{"x":175482.12000000104,"y":2545907.0299999993}},{"attributes":{"ID":282604,"DIS_CODE":0,"TOWNNAME":"永康區","LI":"正強里","LIN":"36鄰","STREET":"正強街","SECT":" ","MAREA":" ","LANE":"３０９巷","ALLEY":" ","HOUSE_NO":"１５號","E_COORD97":173200.92000000001,"N_COORD97":2548145.0099999998,"ADDRESS":"正強街３０９巷１５號","OBJECTID":282598},"geometry":{"x":173200.91999999899,"y":2548145.0099999998}},{"attributes":{"ID":282605,"DIS_CODE":0,"TOWNNAME":"永康區","LI":"西勢里","LIN":"30鄰","STREET":"富強路","SECT":"一段","MAREA":" ","LANE":"２巷","ALLEY":" ","HOUSE_NO":"２５號三樓","E_COORD97":175475.39999999999,"N_COORD97":2545911.7799999998,"ADDRESS":"富強路一段２巷２５號三樓","OBJECTID":282599},"geometry":{"x":175475.4000000013,"y":2545911.7799999993}},{"attributes":{"ID":282606,"DIS_CODE":0,"TOWNNAME":"永康區","LI":"永康里","LIN":"25鄰","STREET":"埔聖街","SECT":" ","MAREA":" ","LANE":"１６２巷","ALLEY":" ","HOUSE_NO":"２號","E_COORD97":174112.20000000001,"N_COORD97":2547612.9500000002,"ADDRESS":"埔聖街１６２巷２號","OBJECTID":282600},"geometry":{"x":174112.20000000112,"y":2547612.9499999993}}]}