{"displayFieldName":"TOWNNAME","fieldAliases":{"ID":"ID","DIS_CODE":"DIS_CODE","TOWNNAME":"TOWNNAME","LI":"LI","LIN":"LIN","STREET":"STREET","SECT":"SECT","MAREA":"MAREA","LANE":"LANE","ALLEY":"ALLEY","HOUSE_NO":"HOUSE_NO","E_COORD97":"E_COORD97","N_COORD97":"N_COORD97","ADDRESS":"ADDRESS","OBJECTID":"OBJECTID"},"geometryType":"esriGeometryPoint","spatialReference":{"wkid":102443,"latestWkid":3826},"fields":[{"name":"ID","type":"esriFieldTypeDouble","alias":"ID"},{"name":"DIS_CODE","type":"esriFieldTypeInteger","alias":"DIS_CODE"},{"name":"TOWNNAME","type":"esriFieldTypeString","alias":"TOWNNAME","length":8},{"name":"LI","type":"esriFieldTypeString","alias":"LI","length":8},{"name":"LIN","type":"esriFieldTypeString","alias":"LIN","length":12},{"name":"STREET","type":"esriFieldTypeString","alias":"STREET","length":20},{"name":"SECT","type":"esriFieldTypeString","alias":"SECT","length":8},{"name":"MAREA","type":"esriFieldTypeString","alias":"MAREA","length":12},{"name":"LANE","type":"esriFieldTypeString","alias":"LANE","length":10},{"name":"ALLEY","type":"esriFieldTypeString","alias":"ALLEY","length":10},{"name":"HOUSE_NO","type":"esriFieldTypeString","alias":"HOUSE_NO","length":20},{"name":"E_COORD97","type":"esriFieldTypeDouble","alias":"E_COORD97"},{"name":"N_COORD97","type":"esriFieldTypeDouble","alias":"N_COORD97"},{"name":"ADDRESS","type":"esriFieldTypeString","alias":"ADDRESS","length":50},{"name":"OBJECTID","type":"esriFieldTypeOID","alias":"OBJECTID"}],"features":[{"attributes":{"ID":549628,"DIS_CODE":0,"TOWNNAME":"歸仁區","LI":"八甲里","LIN":"10鄰","STREET":"中正北路","SECT":"一段","MAREA":" ","LANE":" ","ALLEY":" ","HOUSE_NO":"３９２號四樓之３","E_COORD97":177728.39999999999,"N_COORD97":2541923.6200000001,"ADDRESS":"中正北路一段３９２號四樓之３","OBJECTID":549601},"geometry":{"x":177728.4000000013,"y":2541923.6200000029}},{"attributes":{"ID":549629,"DIS_CODE":0,"TOWNNAME":"歸仁區","LI":"八甲里","LIN":"10鄰","STREET":"中正北路","SECT":"一段","MAREA":" ","LANE":" ","ALLEY":" ","HOUSE_NO":"３９２號十二樓之５","E_COORD97":177728.66,"N_COORD97":2541923.6200000001,"ADDRESS":"中正北路一段３９２號十二樓之５","OBJECTID":549602},"geometry":{"x":177728.66000000015,"y":2541923.6200000029}},{"attributes":{"ID":549630,"DIS_CODE":0,"TOWNNAME":"歸仁區","LI":"八甲里","LIN":"10鄰","STREET":"中正北路","SECT":"一段","MAREA":" ","LANE":" ","ALLEY":" ","HOUSE_NO":"３９０號五樓之１","E_COORD97":177728.38,"N_COORD97":2541923.6200000001,"ADDRESS":"中正北路一段３９０號五樓之１","OBJECTID":549603},"geometry":{"x":177728.37999999989,"y":2541923.6200000029}},{"attributes":{"ID":549631,"DIS_CODE":0,"TOWNNAME":"安南區","LI":"安順里","LIN":"18鄰","STREET":"育安街","SECT":" ","MAREA":" ","LANE":" ","ALLEY":" ","HOUSE_NO":"１８２號","E_COORD97":169593.59,"N_COORD97":2549926.3500000001,"ADDRESS":"育安街１８２號","OBJECTID":549604},"geometry":{"x":169593.58999999985,"y":2549926.3499999996}},{"attributes":{"ID":549632,"DIS_CODE":0,"TOWNNAME":"安南區","LI":"安順里","LIN":"18鄰","STREET":"育安街","SECT":" ","MAREA":" ","LANE":" ","ALLEY":" ","HOUSE_NO":"１８４號","E_COORD97":169591.75,"N_COORD97":2549931.0800000001,"ADDRESS":"育安街１８４號","OBJECTID":549605},"geometry":{"x":169591.75000000093,"y":2549931.0800000019}},{"attributes":{"ID":549633,"DIS_CODE":0,"TOWNNAME":"歸仁區","LI":"八甲里","LIN":"10鄰","STREET":"中正北路","SECT":"一段","MAREA":" ","LANE":" ","ALLEY":" ","HOUSE_NO":"３９２號十一樓之３","E_COORD97":177728.64999999999,"N_COORD97":2541923.6200000001,"ADDRESS":"中正北路一段３９２號十一樓之３","OBJECTID":549606},"geometry":{"x":177728.65000000037,"y":2541923.6200000029}},{"attributes":{"ID":549634,"DIS_CODE":0,"TOWNNAME":"歸仁區","LI":"八甲里","LIN":"10鄰","STREET":"中正北路","SECT":"一段","MAREA":" ","LANE":" ","ALLEY":" ","HOUSE_NO":"３９２號十樓之３","E_COORD97":177728.39999999999,"N_COORD97":2541923.6200000001,"ADDRESS":"中正北路一段３９２號十樓之３","OBJECTID":549607},"geometry":{"x":177728.4000000013,"y":2541923.6200000029}},{"attributes":{"ID":549635,"DIS_CODE":0,"TOWNNAME":"歸仁區","LI":"八甲里","LIN":"10鄰","STREET":"中正北路","SECT":"一段","MAREA":" ","LANE":" ","ALLEY":" ","HOUSE_NO":"３９０號十一樓之１","E_COORD97":177728.63,"N_COORD97":2541923.6200000001,"ADDRESS":"中正北路一段３９０號十一樓之１","OBJECTID":549608},"geometry":{"x":177728.62999999989,"y":2541923.6200000029}},{"attributes":{"ID":549636,"DIS_CODE":0,"TOWNNAME":"歸仁區","LI":"八甲里","LIN":"10鄰","STREET":"中正北路","SECT":"一段","MAREA":" ","LANE":" ","ALLEY":" ","HOUSE_NO":"３９２號九樓之３","E_COORD97":177728.39999999999,"N_COORD97":2541923.6200000001,"ADDRESS":"中正北路一段３９２號九樓之３","OBJECTID":549609},"geometry":{"x":177728.4000000013,"y":2541923.6200000029}},{"attributes":{"ID":549637,"DIS_CODE":0,"TOWNNAME":"歸仁區","LI":"八甲里","LIN":"10鄰","STREET":"中正北路","SECT":"一段","MAREA":" ","LANE":" ","ALLEY":" ","HOUSE_NO":"３９２號七樓之１","E_COORD97":177728.38,"N_COORD97":2541923.6200000001,"ADDRESS":"中正北路一段３９２號七樓之１","OBJECTID":549610},"geometry":{"x":177728.37999999989,"y":2541923.6200000029}},{"attributes":{"ID":549638,"DIS_CODE":0,"TOWNNAME":"歸仁區","LI":"八甲里","LIN":"10鄰","STREET":"中正北路","SECT":"一段","MAREA":" ","LANE":" ","ALLEY":" ","HOUSE_NO":"３９２號五樓之５","E_COORD97":177728.41,"N_COORD97":2541923.6200000001,"ADDRESS":"中正北路一段３９２號五樓之５","OBJECTID":549611},"geometry":{"x":177728.41000000015,"y":2541923.6200000029}},{"attributes":{"ID":549639,"DIS_CODE":0,"TOWNNAME":"歸仁區","LI":"八甲里","LIN":"10鄰","STREET":"中正北路","SECT":"一段","MAREA":" ","LANE":" ","ALLEY":" ","HOUSE_NO":"３９２號二樓之５","E_COORD97":177728.41,"N_COORD97":2541923.6200000001,"ADDRESS":"中正北路一段３９２號二樓之５","OBJECTID":549612},"geometry":{"x":177728.41000000015,"y":2541923.6200000029}},{"attributes":{"ID":549640,"DIS_CODE":0,"TOWNNAME":"歸仁區","LI":"八甲里","LIN":"10鄰","STREET":"中正北路","SECT":"一段","MAREA":" ","LANE":" ","ALLEY":" ","HOUSE_NO":"３９２號六樓之３","E_COORD97":177728.39999999999,"N_COORD97":2541923.6200000001,"ADDRESS":"中正北路一段３９２號六樓之３","OBJECTID":549613},"geometry":{"x":177728.4000000013,"y":2541923.6200000029}},{"attributes":{"ID":549641,"DIS_CODE":0,"TOWNNAME":"歸仁區","LI":"八甲里","LIN":"10鄰","STREET":"中正北路","SECT":"一段","MAREA":" ","LANE":" ","ALLEY":" ","HOUSE_NO":"３９２號十樓之５","E_COORD97":177728.41,"N_COORD97":2541923.6200000001,"ADDRESS":"中正北路一段３９２號十樓之５","OBJECTID":549614},"geometry":{"x":177728.41000000015,"y":2541923.6200000029}},{"attributes":{"ID":549642,"DIS_CODE":0,"TOWNNAME":"歸仁區","LI":"八甲里","LIN":"10鄰","STREET":"中正北路","SECT":"一段","MAREA":" ","LANE":" ","ALLEY":" ","HOUSE_NO":"３９２號九樓之５","E_COORD97":177728.41,"N_COORD97":2541923.6200000001,"ADDRESS":"中正北路一段３９２號九樓之５","OBJECTID":549615},"geometry":{"x":177728.41000000015,"y":2541923.6200000029}},{"attributes":{"ID":549643,"DIS_CODE":0,"TOWNNAME":"歸仁區","LI":"八甲里","LIN":"10鄰","STREET":"中正北路","SECT":"一段","MAREA":" ","LANE":" ","ALLEY":" ","HOUSE_NO":"３９０號六樓之２","E_COORD97":177728.41,"N_COORD97":2541923.6200000001,"ADDRESS":"中正北路一段３９０號六樓之２","OBJECTID":549616},"geometry":{"x":177728.41000000015,"y":2541923.6200000029}},{"attributes":{"ID":549644,"DIS_CODE":0,"TOWNNAME":"歸仁區","LI":"八甲里","LIN":"10鄰","STREET":"中正北路","SECT":"一段","MAREA":" ","LANE":" ","ALLEY":" ","HOUSE_NO":"３９２號四樓之５","E_COORD97":177728.41,"N_COORD97":2541923.6200000001,"ADDRESS":"中正北路一段３９２號四樓之５","OBJECTID":549617},"geometry":{"x":177728.41000000015,"y":2541923.6200000029}},{"attributes":{"ID":549645,"DIS_CODE":0,"TOWNNAME":"歸仁區","LI":"八甲里","LIN":"10鄰","STREET":"中正北路","SECT":"一段","MAREA":" ","LANE":" ","ALLEY":" ","HOUSE_NO":"３９２號十三樓之１","E_COORD97":177728.63,"N_COORD97":2541923.6200000001,"ADDRESS":"中正北路一段３９２號十三樓之１","OBJECTID":549618},"geometry":{"x":177728.62999999989,"y":2541923.6200000029}},{"attributes":{"ID":549646,"DIS_CODE":0,"TOWNNAME":"歸仁區","LI":"八甲里","LIN":"10鄰","STREET":"中正北路","SECT":"一段","MAREA":" ","LANE":" ","ALLEY":" ","HOUSE_NO":"３９２號八樓之１","E_COORD97":177728.38,"N_COORD97":2541923.6200000001,"ADDRESS":"中正北路一段３９２號八樓之１","OBJECTID":549619},"geometry":{"x":177728.37999999989,"y":2541923.6200000029}},{"attributes":{"ID":549647,"DIS_CODE":0,"TOWNNAME":"歸仁區","LI":"八甲里","LIN":"10鄰","STREET":"中正北路","SECT":"一段","MAREA":" ","LANE":" ","ALLEY":" ","HOUSE_NO":"３９０號八樓之２","E_COORD97":177728.41,"N_COORD97":2541923.6200000001,"ADDRESS":"中正北路一段３９０號八樓之２","OBJECTID":549620},"geometry":{"x":177728.41000000015,"y":2541923.6200000029}},{"attributes":{"ID":549648,"DIS_CODE":0,"TOWNNAME":"歸仁區","LI":"八甲里","LIN":"10鄰","STREET":"中正北路","SECT":"一段","MAREA":" ","LANE":" ","ALLEY":" ","HOUSE_NO":"３９２號三樓之２","E_COORD97":177728.41,"N_COORD97":2541923.6200000001,"ADDRESS":"中正北路一段３９２號三樓之２","OBJECTID":549621},"geometry":{"x":177728.41000000015,"y":2541923.6200000029}},{"attributes":{"ID":549649,"DIS_CODE":0,"TOWNNAME":"歸仁區","LI":"八甲里","LIN":"10鄰","STREET":"中正北路","SECT":"一段","MAREA":" ","LANE":" ","ALLEY":" ","HOUSE_NO":"３９０號十樓之２","E_COORD97":177728.41,"N_COORD97":2541923.6200000001,"ADDRESS":"中正北路一段３９０號十樓之２","OBJECTID":549622},"geometry":{"x":177728.41000000015,"y":2541923.6200000029}},{"attributes":{"ID":549650,"DIS_CODE":0,"TOWNNAME":"歸仁區","LI":"八甲里","LIN":"10鄰","STREET":"中正北路","SECT":"一段","MAREA":" ","LANE":" ","ALLEY":" ","HOUSE_NO":"３９２號五樓之２","E_COORD97":177728.41,"N_COORD97":2541923.6200000001,"ADDRESS":"中正北路一段３９２號五樓之２","OBJECTID":549623},"geometry":{"x":177728.41000000015,"y":2541923.6200000029}},{"attributes":{"ID":549651,"DIS_CODE":0,"TOWNNAME":"歸仁區","LI":"八甲里","LIN":"10鄰","STREET":"中正北路","SECT":"一段","MAREA":" ","LANE":" ","ALLEY":" ","HOUSE_NO":"３９２號九樓之２","E_COORD97":177728.41,"N_COORD97":2541923.6200000001,"ADDRESS":"中正北路一段３９２號九樓之２","OBJECTID":549624},"geometry":{"x":177728.41000000015,"y":2541923.6200000029}},{"attributes":{"ID":549652,"DIS_CODE":0,"TOWNNAME":"歸仁區","LI":"八甲里","LIN":"10鄰","STREET":"中正北路","SECT":"一段","MAREA":" ","LANE":" ","ALLEY":" ","HOUSE_NO":"３９２號十三樓之５","E_COORD97":177728.66,"N_COORD97":2541923.6200000001,"ADDRESS":"中正北路一段３９２號十三樓之５","OBJECTID":549625},"geometry":{"x":177728.66000000015,"y":2541923.6200000029}},{"attributes":{"ID":549653,"DIS_CODE":0,"TOWNNAME":"歸仁區","LI":"八甲里","LIN":"10鄰","STREET":"中正北路","SECT":"一段","MAREA":" ","LANE":" ","ALLEY":" ","HOUSE_NO":"３９０號十樓之１","E_COORD97":177728.38,"N_COORD97":2541923.6200000001,"ADDRESS":"中正北路一段３９０號十樓之１","OBJECTID":549626},"geometry":{"x":177728.37999999989,"y":2541923.6200000029}},{"attributes":{"ID":549654,"DIS_CODE":0,"TOWNNAME":"歸仁區","LI":"八甲里","LIN":"10鄰","STREET":"中正北路","SECT":"一段","MAREA":" ","LANE":" ","ALLEY":" ","HOUSE_NO":"３９０號七樓之１","E_COORD97":177728.38,"N_COORD97":2541923.6200000001,"ADDRESS":"中正北路一段３９０號七樓之１","OBJECTID":549627},"geometry":{"x":177728.37999999989,"y":2541923.6200000029}},{"attributes":{"ID":549655,"DIS_CODE":0,"TOWNNAME":"歸仁區","LI":"八甲里","LIN":"10鄰","STREET":"中正北路","SECT":"一段","MAREA":" ","LANE":" ","ALLEY":" ","HOUSE_NO":"３９０號十二樓之１","E_COORD97":177728.63,"N_COORD97":2541923.6200000001,"ADDRESS":"中正北路一段３９０號十二樓之１","OBJECTID":549628},"geometry":{"x":177728.62999999989,"y":2541923.6200000029}},{"attributes":{"ID":549656,"DIS_CODE":0,"TOWNNAME":"歸仁區","LI":"八甲里","LIN":"10鄰","STREET":"中正北路","SECT":"一段","MAREA":" ","LANE":" ","ALLEY":" ","HOUSE_NO":"３９２號十三樓之３","E_COORD97":177728.64999999999,"N_COORD97":2541923.6200000001,"ADDRESS":"中正北路一段３９２號十三樓之３","OBJECTID":549629},"geometry":{"x":177728.65000000037,"y":2541923.6200000029}},{"attributes":{"ID":549657,"DIS_CODE":0,"TOWNNAME":"東區","LI":"崇成里","LIN":"10鄰","STREET":"崇德十四街","SECT":" ","MAREA":" ","LANE":" ","ALLEY":" ","HOUSE_NO":"６９號","E_COORD97":171016.06,"N_COORD97":2541264.5299999998,"ADDRESS":"崇德十四街６９號","OBJECTID":549630},"geometry":{"x":171016.05999999959,"y":2541264.5300000012}},{"attributes":{"ID":549658,"DIS_CODE":0,"TOWNNAME":"歸仁區","LI":"八甲里","LIN":"10鄰","STREET":"中正北路","SECT":"一段","MAREA":" ","LANE":" ","ALLEY":" ","HOUSE_NO":"３９２號六樓之１","E_COORD97":177728.38,"N_COORD97":2541923.6200000001,"ADDRESS":"中正北路一段３９２號六樓之１","OBJECTID":549631},"geometry":{"x":177728.37999999989,"y":2541923.6200000029}},{"attributes":{"ID":549659,"DIS_CODE":0,"TOWNNAME":"歸仁區","LI":"八甲里","LIN":"10鄰","STREET":"中正北路","SECT":"一段","MAREA":" ","LANE":" ","ALLEY":" ","HOUSE_NO":"３９０號四樓之２","E_COORD97":177728.41,"N_COORD97":2541923.6200000001,"ADDRESS":"中正北路一段３９０號四樓之２","OBJECTID":549632},"geometry":{"x":177728.41000000015,"y":2541923.6200000029}},{"attributes":{"ID":549660,"DIS_CODE":0,"TOWNNAME":"歸仁區","LI":"八甲里","LIN":"10鄰","STREET":"中正北路","SECT":"一段","MAREA":" ","LANE":" ","ALLEY":" ","HOUSE_NO":"３９２號十二樓之２","E_COORD97":177728.66,"N_COORD97":2541923.6200000001,"ADDRESS":"中正北路一段３９２號十二樓之２","OBJECTID":549633},"geometry":{"x":177728.66000000015,"y":2541923.6200000029}},{"attributes":{"ID":549661,"DIS_CODE":0,"TOWNNAME":"歸仁區","LI":"八甲里","LIN":"10鄰","STREET":"中正北路","SECT":"一段","MAREA":" ","LANE":" ","ALLEY":" ","HOUSE_NO":"３９２號四樓之２","E_COORD97":177728.41,"N_COORD97":2541923.6200000001,"ADDRESS":"中正北路一段３９２號四樓之２","OBJECTID":549634},"geometry":{"x":177728.41000000015,"y":2541923.6200000029}},{"attributes":{"ID":549662,"DIS_CODE":0,"TOWNNAME":"歸仁區","LI":"八甲里","LIN":"10鄰","STREET":"大明街","SECT":" ","MAREA":" ","LANE":" ","ALLEY":" ","HOUSE_NO":"３號五樓之２","E_COORD97":177727.17999999999,"N_COORD97":2541923.6200000001,"ADDRESS":"大明街３號五樓之２","OBJECTID":549635},"geometry":{"x":177727.18000000063,"y":2541923.6200000029}},{"attributes":{"ID":549663,"DIS_CODE":0,"TOWNNAME":"歸仁區","LI":"八甲里","LIN":"10鄰","STREET":"大明街","SECT":" ","MAREA":" ","LANE":" ","ALLEY":" ","HOUSE_NO":"３號八樓之１","E_COORD97":177727.14999999999,"N_COORD97":2541923.6200000001,"ADDRESS":"大明街３號八樓之１","OBJECTID":549636},"geometry":{"x":177727.15000000037,"y":2541923.6200000029}},{"attributes":{"ID":549664,"DIS_CODE":0,"TOWNNAME":"歸仁區","LI":"八甲里","LIN":"10鄰","STREET":"大明街","SECT":" ","MAREA":" ","LANE":" ","ALLEY":" ","HOUSE_NO":"３號十三樓之２","E_COORD97":177727.42999999999,"N_COORD97":2541923.6200000001,"ADDRESS":"大明街３號十三樓之２","OBJECTID":549637},"geometry":{"x":177727.43000000063,"y":2541923.6200000029}},{"attributes":{"ID":549665,"DIS_CODE":0,"TOWNNAME":"歸仁區","LI":"八甲里","LIN":"10鄰","STREET":"大明街","SECT":" ","MAREA":" ","LANE":" ","ALLEY":" ","HOUSE_NO":"３號八樓之３","E_COORD97":177727.17000000001,"N_COORD97":2541923.6200000001,"ADDRESS":"大明街３號八樓之３","OBJECTID":549638},"geometry":{"x":177727.17000000179,"y":2541923.6200000029}},{"attributes":{"ID":549666,"DIS_CODE":0,"TOWNNAME":"歸仁區","LI":"八甲里","LIN":"10鄰","STREET":"大明街","SECT":" ","MAREA":" ","LANE":" ","ALLEY":" ","HOUSE_NO":"３號四樓之１","E_COORD97":177727.14999999999,"N_COORD97":2541923.6200000001,"ADDRESS":"大明街３號四樓之１","OBJECTID":549639},"geometry":{"x":177727.15000000037,"y":2541923.6200000029}},{"attributes":{"ID":549667,"DIS_CODE":0,"TOWNNAME":"歸仁區","LI":"八甲里","LIN":"10鄰","STREET":"大明街","SECT":" ","MAREA":" ","LANE":" ","ALLEY":" ","HOUSE_NO":"３號九樓之３","E_COORD97":177727.17000000001,"N_COORD97":2541923.6200000001,"ADDRESS":"大明街３號九樓之３","OBJECTID":549640},"geometry":{"x":177727.17000000179,"y":2541923.6200000029}},{"attributes":{"ID":549668,"DIS_CODE":0,"TOWNNAME":"歸仁區","LI":"八甲里","LIN":"10鄰","STREET":"大明街","SECT":" ","MAREA":" ","LANE":" ","ALLEY":" ","HOUSE_NO":"３號五樓之３","E_COORD97":177727.17000000001,"N_COORD97":2541923.6200000001,"ADDRESS":"大明街３號五樓之３","OBJECTID":549641},"geometry":{"x":177727.17000000179,"y":2541923.6200000029}},{"attributes":{"ID":549669,"DIS_CODE":0,"TOWNNAME":"歸仁區","LI":"八甲里","LIN":"10鄰","STREET":"大明街","SECT":" ","MAREA":" ","LANE":" ","ALLEY":" ","HOUSE_NO":"３號十二樓之１","E_COORD97":177727.39999999999,"N_COORD97":2541923.6200000001,"ADDRESS":"大明街３號十二樓之１","OBJECTID":549642},"geometry":{"x":177727.40000000037,"y":2541923.6200000029}},{"attributes":{"ID":549670,"DIS_CODE":0,"TOWNNAME":"歸仁區","LI":"八甲里","LIN":"10鄰","STREET":"大明街","SECT":" ","MAREA":" ","LANE":" ","ALLEY":" ","HOUSE_NO":"３號十二樓之３","E_COORD97":177727.42000000001,"N_COORD97":2541923.6200000001,"ADDRESS":"大明街３號十二樓之３","OBJECTID":549643},"geometry":{"x":177727.42000000086,"y":2541923.6200000029}},{"attributes":{"ID":549671,"DIS_CODE":0,"TOWNNAME":"歸仁區","LI":"八甲里","LIN":"10鄰","STREET":"大明街","SECT":" ","MAREA":" ","LANE":" ","ALLEY":" ","HOUSE_NO":"３號十一樓之１","E_COORD97":177727.39999999999,"N_COORD97":2541923.6200000001,"ADDRESS":"大明街３號十一樓之１","OBJECTID":549644},"geometry":{"x":177727.40000000037,"y":2541923.6200000029}},{"attributes":{"ID":549672,"DIS_CODE":0,"TOWNNAME":"歸仁區","LI":"八甲里","LIN":"10鄰","STREET":"大明街","SECT":" ","MAREA":" ","LANE":" ","ALLEY":" ","HOUSE_NO":"３號三樓之１","E_COORD97":177727.14999999999,"N_COORD97":2541923.6200000001,"ADDRESS":"大明街３號三樓之１","OBJECTID":549645},"geometry":{"x":177727.15000000037,"y":2541923.6200000029}},{"attributes":{"ID":549673,"DIS_CODE":0,"TOWNNAME":"歸仁區","LI":"八甲里","LIN":"10鄰","STREET":"大明街","SECT":" ","MAREA":" ","LANE":" ","ALLEY":" ","HOUSE_NO":"３號七樓之１","E_COORD97":177727.14999999999,"N_COORD97":2541923.6200000001,"ADDRESS":"大明街３號七樓之１","OBJECTID":549646},"geometry":{"x":177727.15000000037,"y":2541923.6200000029}},{"attributes":{"ID":549674,"DIS_CODE":0,"TOWNNAME":"歸仁區","LI":"八甲里","LIN":"10鄰","STREET":"大明街","SECT":" ","MAREA":" ","LANE":" ","ALLEY":" ","HOUSE_NO":"３號四樓之２","E_COORD97":177727.17999999999,"N_COORD97":2541923.6200000001,"ADDRESS":"大明街３號四樓之２","OBJECTID":549647},"geometry":{"x":177727.18000000063,"y":2541923.6200000029}},{"attributes":{"ID":549675,"DIS_CODE":0,"TOWNNAME":"北區","LI":"實踐里","LIN":"10鄰","STREET":"長榮路","SECT":"五段","MAREA":" ","LANE":" ","ALLEY":" ","HOUSE_NO":"３３０號三樓之１","E_COORD97":169658.37,"N_COORD97":2545946.8199999998,"ADDRESS":"長榮路五段３３０號三樓之１","OBJECTID":549648},"geometry":{"x":169658.37000000011,"y":2545946.8200000003}},{"attributes":{"ID":549676,"DIS_CODE":0,"TOWNNAME":"北區","LI":"實踐里","LIN":"10鄰","STREET":"長榮路","SECT":"五段","MAREA":" ","LANE":" ","ALLEY":" ","HOUSE_NO":"３３０號三樓之２","E_COORD97":169658.37,"N_COORD97":2545946.8199999998,"ADDRESS":"長榮路五段３３０號三樓之２","OBJECTID":549649},"geometry":{"x":169658.37000000011,"y":2545946.8200000003}},{"attributes":{"ID":549677,"DIS_CODE":0,"TOWNNAME":"北區","LI":"實踐里","LIN":"10鄰","STREET":"大武街","SECT":" ","MAREA":" ","LANE":" ","ALLEY":" ","HOUSE_NO":"１３８號三樓之１","E_COORD97":169653.04000000001,"N_COORD97":2545963.5899999999,"ADDRESS":"大武街１３８號三樓之１","OBJECTID":549650},"geometry":{"x":169653.04000000097,"y":2545963.5900000017}},{"attributes":{"ID":549678,"DIS_CODE":0,"TOWNNAME":"北區","LI":"實踐里","LIN":"10鄰","STREET":"大武街","SECT":" ","MAREA":" ","LANE":" ","ALLEY":" ","HOUSE_NO":"１３８號三樓之２","E_COORD97":169653.04000000001,"N_COORD97":2545963.5899999999,"ADDRESS":"大武街１３８號三樓之２","OBJECTID":549651},"geometry":{"x":169653.04000000097,"y":2545963.5900000017}},{"attributes":{"ID":549679,"DIS_CODE":0,"TOWNNAME":"北區","LI":"實踐里","LIN":"10鄰","STREET":"大武街","SECT":" ","MAREA":" ","LANE":" ","ALLEY":" ","HOUSE_NO":"１３８號三樓之３","E_COORD97":169653.04000000001,"N_COORD97":2545963.5899999999,"ADDRESS":"大武街１３８號三樓之３","OBJECTID":549652},"geometry":{"x":169653.04000000097,"y":2545963.5900000017}},{"attributes":{"ID":549680,"DIS_CODE":0,"TOWNNAME":"北區","LI":"實踐里","LIN":"10鄰","STREET":"大武街","SECT":" ","MAREA":" ","LANE":" ","ALLEY":" ","HOUSE_NO":"１３８號三樓之５","E_COORD97":169653.04000000001,"N_COORD97":2545963.5899999999,"ADDRESS":"大武街１３８號三樓之５","OBJECTID":549653},"geometry":{"x":169653.04000000097,"y":2545963.5900000017}},{"attributes":{"ID":549681,"DIS_CODE":0,"TOWNNAME":"北區","LI":"實踐里","LIN":"10鄰","STREET":"長榮路","SECT":"五段","MAREA":" ","LANE":" ","ALLEY":" ","HOUSE_NO":"３３０號四樓之１","E_COORD97":169658.37,"N_COORD97":2545946.8199999998,"ADDRESS":"長榮路五段３３０號四樓之１","OBJECTID":549654},"geometry":{"x":169658.37000000011,"y":2545946.8200000003}},{"attributes":{"ID":549682,"DIS_CODE":0,"TOWNNAME":"北區","LI":"實踐里","LIN":"10鄰","STREET":"長榮路","SECT":"五段","MAREA":" ","LANE":" ","ALLEY":" ","HOUSE_NO":"３３０號四樓之２","E_COORD97":169658.37,"N_COORD97":2545946.8199999998,"ADDRESS":"長榮路五段３３０號四樓之２","OBJECTID":549655},"geometry":{"x":169658.37000000011,"y":2545946.8200000003}},{"attributes":{"ID":549683,"DIS_CODE":0,"TOWNNAME":"北區","LI":"實踐里","LIN":"10鄰","STREET":"大武街","SECT":" ","MAREA":" ","LANE":" ","ALLEY":" ","HOUSE_NO":"１３８號四樓之１","E_COORD97":169653.04000000001,"N_COORD97":2545963.5899999999,"ADDRESS":"大武街１３８號四樓之１","OBJECTID":549656},"geometry":{"x":169653.04000000097,"y":2545963.5900000017}},{"attributes":{"ID":549684,"DIS_CODE":0,"TOWNNAME":"北區","LI":"實踐里","LIN":"10鄰","STREET":"大武街","SECT":" ","MAREA":" ","LANE":" ","ALLEY":" ","HOUSE_NO":"１３８號四樓之２","E_COORD97":169653.04000000001,"N_COORD97":2545963.5899999999,"ADDRESS":"大武街１３８號四樓之２","OBJECTID":549657},"geometry":{"x":169653.04000000097,"y":2545963.5900000017}},{"attributes":{"ID":549685,"DIS_CODE":0,"TOWNNAME":"北區","LI":"實踐里","LIN":"10鄰","STREET":"大武街","SECT":" ","MAREA":" ","LANE":" ","ALLEY":" ","HOUSE_NO":"１３８號四樓之３","E_COORD97":169653.04000000001,"N_COORD97":2545963.5899999999,"ADDRESS":"大武街１３８號四樓之３","OBJECTID":549658},"geometry":{"x":169653.04000000097,"y":2545963.5900000017}},{"attributes":{"ID":549686,"DIS_CODE":0,"TOWNNAME":"北區","LI":"實踐里","LIN":"10鄰","STREET":"大武街","SECT":" ","MAREA":" ","LANE":" ","ALLEY":" ","HOUSE_NO":"１３８號四樓之５","E_COORD97":169653.04000000001,"N_COORD97":2545963.5899999999,"ADDRESS":"大武街１３８號四樓之５","OBJECTID":549659},"geometry":{"x":169653.04000000097,"y":2545963.5900000017}},{"attributes":{"ID":549687,"DIS_CODE":0,"TOWNNAME":"北區","LI":"實踐里","LIN":"10鄰","STREET":"長榮路","SECT":"五段","MAREA":" ","LANE":" ","ALLEY":" ","HOUSE_NO":"３３０號五樓之１","E_COORD97":169658.37,"N_COORD97":2545946.8199999998,"ADDRESS":"長榮路五段３３０號五樓之１","OBJECTID":549660},"geometry":{"x":169658.37000000011,"y":2545946.8200000003}},{"attributes":{"ID":549688,"DIS_CODE":0,"TOWNNAME":"北區","LI":"實踐里","LIN":"10鄰","STREET":"長榮路","SECT":"五段","MAREA":" ","LANE":" ","ALLEY":" ","HOUSE_NO":"３３０號五樓之２","E_COORD97":169658.37,"N_COORD97":2545946.8199999998,"ADDRESS":"長榮路五段３３０號五樓之２","OBJECTID":549661},"geometry":{"x":169658.37000000011,"y":2545946.8200000003}},{"attributes":{"ID":549689,"DIS_CODE":0,"TOWNNAME":"北區","LI":"實踐里","LIN":"10鄰","STREET":"大武街","SECT":" ","MAREA":" ","LANE":" ","ALLEY":" ","HOUSE_NO":"１３８號五樓之１","E_COORD97":169653.04000000001,"N_COORD97":2545963.5899999999,"ADDRESS":"大武街１３８號五樓之１","OBJECTID":549662},"geometry":{"x":169653.04000000097,"y":2545963.5900000017}},{"attributes":{"ID":549690,"DIS_CODE":0,"TOWNNAME":"北區","LI":"實踐里","LIN":"10鄰","STREET":"大武街","SECT":" ","MAREA":" ","LANE":" ","ALLEY":" ","HOUSE_NO":"１３８號五樓之２","E_COORD97":169653.04000000001,"N_COORD97":2545963.5899999999,"ADDRESS":"大武街１３８號五樓之２","OBJECTID":549663},"geometry":{"x":169653.04000000097,"y":2545963.5900000017}},{"attributes":{"ID":549691,"DIS_CODE":0,"TOWNNAME":"北區","LI":"實踐里","LIN":"10鄰","STREET":"大武街","SECT":" ","MAREA":" ","LANE":" ","ALLEY":" ","HOUSE_NO":"１３８號五樓之３","E_COORD97":169653.04000000001,"N_COORD97":2545963.5899999999,"ADDRESS":"大武街１３８號五樓之３","OBJECTID":549664},"geometry":{"x":169653.04000000097,"y":2545963.5900000017}},{"attributes":{"ID":549692,"DIS_CODE":0,"TOWNNAME":"北區","LI":"實踐里","LIN":"10鄰","STREET":"大武街","SECT":" ","MAREA":" ","LANE":" ","ALLEY":" ","HOUSE_NO":"１３８號五樓之５","E_COORD97":169653.04000000001,"N_COORD97":2545963.5899999999,"ADDRESS":"大武街１３８號五樓之５","OBJECTID":549665},"geometry":{"x":169653.04000000097,"y":2545963.5900000017}},{"attributes":{"ID":549693,"DIS_CODE":0,"TOWNNAME":"北區","LI":"實踐里","LIN":"10鄰","STREET":"長榮路","SECT":"五段","MAREA":" ","LANE":" ","ALLEY":" ","HOUSE_NO":"３３０號六樓之１","E_COORD97":169658.37,"N_COORD97":2545946.8199999998,"ADDRESS":"長榮路五段３３０號六樓之１","OBJECTID":549666},"geometry":{"x":169658.37000000011,"y":2545946.8200000003}},{"attributes":{"ID":549694,"DIS_CODE":0,"TOWNNAME":"北區","LI":"實踐里","LIN":"10鄰","STREET":"長榮路","SECT":"五段","MAREA":" ","LANE":" ","ALLEY":" ","HOUSE_NO":"３３０號六樓之２","E_COORD97":169658.37,"N_COORD97":2545946.8199999998,"ADDRESS":"長榮路五段３３０號六樓之２","OBJECTID":549667},"geometry":{"x":169658.37000000011,"y":2545946.8200000003}},{"attributes":{"ID":549695,"DIS_CODE":0,"TOWNNAME":"北區","LI":"實踐里","LIN":"10鄰","STREET":"大武街","SECT":" ","MAREA":" ","LANE":" ","ALLEY":" ","HOUSE_NO":"１３８號六樓之１","E_COORD97":169653.04000000001,"N_COORD97":2545963.5899999999,"ADDRESS":"大武街１３８號六樓之１","OBJECTID":549668},"geometry":{"x":169653.04000000097,"y":2545963.5900000017}},{"attributes":{"ID":549696,"DIS_CODE":0,"TOWNNAME":"北區","LI":"實踐里","LIN":"10鄰","STREET":"大武街","SECT":" ","MAREA":" ","LANE":" ","ALLEY":" ","HOUSE_NO":"１３８號六樓之２","E_COORD97":169653.04000000001,"N_COORD97":2545963.5899999999,"ADDRESS":"大武街１３８號六樓之２","OBJECTID":549669},"geometry":{"x":169653.04000000097,"y":2545963.5900000017}},{"attributes":{"ID":549697,"DIS_CODE":0,"TOWNNAME":"北區","LI":"實踐里","LIN":"10鄰","STREET":"大武街","SECT":" ","MAREA":" ","LANE":" ","ALLEY":" ","HOUSE_NO":"１３８號六樓之３","E_COORD97":169653.04000000001,"N_COORD97":2545963.5899999999,"ADDRESS":"大武街１３８號六樓之３","OBJECTID":549670},"geometry":{"x":169653.04000000097,"y":2545963.5900000017}},{"attributes":{"ID":549698,"DIS_CODE":0,"TOWNNAME":"北區","LI":"實踐里","LIN":"10鄰","STREET":"大武街","SECT":" ","MAREA":" ","LANE":" ","ALLEY":" ","HOUSE_NO":"１３８號六樓之５","E_COORD97":169653.04000000001,"N_COORD97":2545963.5899999999,"ADDRESS":"大武街１３８號六樓之５","OBJECTID":549671},"geometry":{"x":169653.04000000097,"y":2545963.5900000017}},{"attributes":{"ID":549699,"DIS_CODE":0,"TOWNNAME":"安南區","LI":"州南里","LIN":"17鄰","STREET":"安和路","SECT":"四段","MAREA":" ","LANE":" ","ALLEY":" ","HOUSE_NO":"３５９號","E_COORD97":169911.41,"N_COORD97":2550958.73,"ADDRESS":"安和路四段３５９號","OBJECTID":549672},"geometry":{"x":169911.41000000108,"y":2550958.7300000004}},{"attributes":{"ID":549700,"DIS_CODE":0,"TOWNNAME":"北區","LI":"實踐里","LIN":"10鄰","STREET":"長榮路","SECT":"五段","MAREA":" ","LANE":" ","ALLEY":" ","HOUSE_NO":"３３０號七樓之１","E_COORD97":169658.37,"N_COORD97":2545946.8199999998,"ADDRESS":"長榮路五段３３０號七樓之１","OBJECTID":549673},"geometry":{"x":169658.37000000011,"y":2545946.8200000003}},{"attributes":{"ID":549701,"DIS_CODE":0,"TOWNNAME":"北區","LI":"實踐里","LIN":"10鄰","STREET":"長榮路","SECT":"五段","MAREA":" ","LANE":" ","ALLEY":" ","HOUSE_NO":"３３０號七樓之２","E_COORD97":169658.37,"N_COORD97":2545946.8199999998,"ADDRESS":"長榮路五段３３０號七樓之２","OBJECTID":549674},"geometry":{"x":169658.37000000011,"y":2545946.8200000003}},{"attributes":{"ID":549702,"DIS_CODE":0,"TOWNNAME":"北區","LI":"實踐里","LIN":"10鄰","STREET":"大武街","SECT":" ","MAREA":" ","LANE":" ","ALLEY":" ","HOUSE_NO":"１３８號七樓之１","E_COORD97":169653.04000000001,"N_COORD97":2545963.5899999999,"ADDRESS":"大武街１３８號七樓之１","OBJECTID":549675},"geometry":{"x":169653.04000000097,"y":2545963.5900000017}},{"attributes":{"ID":549703,"DIS_CODE":0,"TOWNNAME":"北區","LI":"實踐里","LIN":"10鄰","STREET":"大武街","SECT":" ","MAREA":" ","LANE":" ","ALLEY":" ","HOUSE_NO":"１３８號七樓之２","E_COORD97":169653.04000000001,"N_COORD97":2545963.5899999999,"ADDRESS":"大武街１３８號七樓之２","OBJECTID":549676},"geometry":{"x":169653.04000000097,"y":2545963.5900000017}},{"attributes":{"ID":549704,"DIS_CODE":0,"TOWNNAME":"北區","LI":"實踐里","LIN":"10鄰","STREET":"大武街","SECT":" ","MAREA":" ","LANE":" ","ALLEY":" ","HOUSE_NO":"１３８號七樓之３","E_COORD97":169653.04000000001,"N_COORD97":2545963.5899999999,"ADDRESS":"大武街１３８號七樓之３","OBJECTID":549677},"geometry":{"x":169653.04000000097,"y":2545963.5900000017}},{"attributes":{"ID":549705,"DIS_CODE":0,"TOWNNAME":"北區","LI":"實踐里","LIN":"10鄰","STREET":"大武街","SECT":" ","MAREA":" ","LANE":" ","ALLEY":" ","HOUSE_NO":"１３８號七樓之５","E_COORD97":169653.04000000001,"N_COORD97":2545963.5899999999,"ADDRESS":"大武街１３８號七樓之５","OBJECTID":549678},"geometry":{"x":169653.04000000097,"y":2545963.5900000017}},{"attributes":{"ID":549706,"DIS_CODE":0,"TOWNNAME":"北區","LI":"實踐里","LIN":"10鄰","STREET":"長榮路","SECT":"五段","MAREA":" ","LANE":" ","ALLEY":" ","HOUSE_NO":"３３０號八樓之１","E_COORD97":169658.37,"N_COORD97":2545946.8199999998,"ADDRESS":"長榮路五段３３０號八樓之１","OBJECTID":549679},"geometry":{"x":169658.37000000011,"y":2545946.8200000003}},{"attributes":{"ID":549707,"DIS_CODE":0,"TOWNNAME":"北區","LI":"實踐里","LIN":"10鄰","STREET":"長榮路","SECT":"五段","MAREA":" ","LANE":" ","ALLEY":" ","HOUSE_NO":"３３０號八樓之２","E_COORD97":169658.37,"N_COORD97":2545946.8199999998,"ADDRESS":"長榮路五段３３０號八樓之２","OBJECTID":549680},"geometry":{"x":169658.37000000011,"y":2545946.8200000003}},{"attributes":{"ID":549708,"DIS_CODE":0,"TOWNNAME":"北區","LI":"實踐里","LIN":"10鄰","STREET":"大武街","SECT":" ","MAREA":" ","LANE":" ","ALLEY":" ","HOUSE_NO":"１３８號八樓之１","E_COORD97":169653.04000000001,"N_COORD97":2545963.5899999999,"ADDRESS":"大武街１３８號八樓之１","OBJECTID":549681},"geometry":{"x":169653.04000000097,"y":2545963.5900000017}},{"attributes":{"ID":549709,"DIS_CODE":0,"TOWNNAME":"北區","LI":"實踐里","LIN":"10鄰","STREET":"大武街","SECT":" ","MAREA":" ","LANE":" ","ALLEY":" ","HOUSE_NO":"１３８號八樓之２","E_COORD97":169653.04000000001,"N_COORD97":2545963.5899999999,"ADDRESS":"大武街１３８號八樓之２","OBJECTID":549682},"geometry":{"x":169653.04000000097,"y":2545963.5900000017}},{"attributes":{"ID":549710,"DIS_CODE":0,"TOWNNAME":"北區","LI":"實踐里","LIN":"10鄰","STREET":"大武街","SECT":" ","MAREA":" ","LANE":" ","ALLEY":" ","HOUSE_NO":"１３８號八樓之３","E_COORD97":169653.04000000001,"N_COORD97":2545963.5899999999,"ADDRESS":"大武街１３８號八樓之３","OBJECTID":549683},"geometry":{"x":169653.04000000097,"y":2545963.5900000017}},{"attributes":{"ID":549711,"DIS_CODE":0,"TOWNNAME":"北區","LI":"實踐里","LIN":"10鄰","STREET":"大武街","SECT":" ","MAREA":" ","LANE":" ","ALLEY":" ","HOUSE_NO":"１３８號八樓之５","E_COORD97":169653.04000000001,"N_COORD97":2545963.5899999999,"ADDRESS":"大武街１３８號八樓之５","OBJECTID":549684},"geometry":{"x":169653.04000000097,"y":2545963.5900000017}},{"attributes":{"ID":549712,"DIS_CODE":0,"TOWNNAME":"北區","LI":"實踐里","LIN":"10鄰","STREET":"長榮路","SECT":"五段","MAREA":" ","LANE":" ","ALLEY":" ","HOUSE_NO":"３３０號九樓之１","E_COORD97":169658.37,"N_COORD97":2545946.8199999998,"ADDRESS":"長榮路五段３３０號九樓之１","OBJECTID":549685},"geometry":{"x":169658.37000000011,"y":2545946.8200000003}},{"attributes":{"ID":549713,"DIS_CODE":0,"TOWNNAME":"北區","LI":"實踐里","LIN":"10鄰","STREET":"長榮路","SECT":"五段","MAREA":" ","LANE":" ","ALLEY":" ","HOUSE_NO":"３３０號九樓之２","E_COORD97":169658.37,"N_COORD97":2545946.8199999998,"ADDRESS":"長榮路五段３３０號九樓之２","OBJECTID":549686},"geometry":{"x":169658.37000000011,"y":2545946.8200000003}},{"attributes":{"ID":549714,"DIS_CODE":0,"TOWNNAME":"北區","LI":"實踐里","LIN":"10鄰","STREET":"大武街","SECT":" ","MAREA":" ","LANE":" ","ALLEY":" ","HOUSE_NO":"１３８號九樓之１","E_COORD97":169653.04000000001,"N_COORD97":2545963.5899999999,"ADDRESS":"大武街１３８號九樓之１","OBJECTID":549687},"geometry":{"x":169653.04000000097,"y":2545963.5900000017}},{"attributes":{"ID":549715,"DIS_CODE":0,"TOWNNAME":"北區","LI":"實踐里","LIN":"10鄰","STREET":"大武街","SECT":" ","MAREA":" ","LANE":" ","ALLEY":" ","HOUSE_NO":"１３８號九樓之２","E_COORD97":169653.04000000001,"N_COORD97":2545963.5899999999,"ADDRESS":"大武街１３８號九樓之２","OBJECTID":549688},"geometry":{"x":169653.04000000097,"y":2545963.5900000017}},{"attributes":{"ID":549716,"DIS_CODE":0,"TOWNNAME":"北區","LI":"實踐里","LIN":"10鄰","STREET":"大武街","SECT":" ","MAREA":" ","LANE":" ","ALLEY":" ","HOUSE_NO":"１３８號九樓之３","E_COORD97":169653.04000000001,"N_COORD97":2545963.5899999999,"ADDRESS":"大武街１３８號九樓之３","OBJECTID":549689},"geometry":{"x":169653.04000000097,"y":2545963.5900000017}},{"attributes":{"ID":549717,"DIS_CODE":0,"TOWNNAME":"北區","LI":"實踐里","LIN":"10鄰","STREET":"大武街","SECT":" ","MAREA":" ","LANE":" ","ALLEY":" ","HOUSE_NO":"１３８號九樓之５","E_COORD97":169653.04000000001,"N_COORD97":2545963.5899999999,"ADDRESS":"大武街１３８號九樓之５","OBJECTID":549690},"geometry":{"x":169653.04000000097,"y":2545963.5900000017}},{"attributes":{"ID":549718,"DIS_CODE":0,"TOWNNAME":"北區","LI":"實踐里","LIN":"10鄰","STREET":"長榮路","SECT":"五段","MAREA":" ","LANE":" ","ALLEY":" ","HOUSE_NO":"３３０號十樓之１","E_COORD97":169658.37,"N_COORD97":2545946.8199999998,"ADDRESS":"長榮路五段３３０號十樓之１","OBJECTID":549691},"geometry":{"x":169658.37000000011,"y":2545946.8200000003}},{"attributes":{"ID":549719,"DIS_CODE":0,"TOWNNAME":"北區","LI":"實踐里","LIN":"10鄰","STREET":"長榮路","SECT":"五段","MAREA":" ","LANE":" ","ALLEY":" ","HOUSE_NO":"３３０號十樓之２","E_COORD97":169658.37,"N_COORD97":2545946.8199999998,"ADDRESS":"長榮路五段３３０號十樓之２","OBJECTID":549692},"geometry":{"x":169658.37000000011,"y":2545946.8200000003}},{"attributes":{"ID":549720,"DIS_CODE":0,"TOWNNAME":"北區","LI":"實踐里","LIN":"10鄰","STREET":"大武街","SECT":" ","MAREA":" ","LANE":" ","ALLEY":" ","HOUSE_NO":"１３８號十樓之１","E_COORD97":169653.04000000001,"N_COORD97":2545963.5899999999,"ADDRESS":"大武街１３８號十樓之１","OBJECTID":549693},"geometry":{"x":169653.04000000097,"y":2545963.5900000017}},{"attributes":{"ID":549721,"DIS_CODE":0,"TOWNNAME":"北區","LI":"實踐里","LIN":"10鄰","STREET":"大武街","SECT":" ","MAREA":" ","LANE":" ","ALLEY":" ","HOUSE_NO":"１３８號十樓之２","E_COORD97":169653.04000000001,"N_COORD97":2545963.5899999999,"ADDRESS":"大武街１３８號十樓之２","OBJECTID":549694},"geometry":{"x":169653.04000000097,"y":2545963.5900000017}},{"attributes":{"ID":549722,"DIS_CODE":0,"TOWNNAME":"北區","LI":"實踐里","LIN":"10鄰","STREET":"大武街","SECT":" ","MAREA":" ","LANE":" ","ALLEY":" ","HOUSE_NO":"１３８號十樓之５","E_COORD97":169653.04000000001,"N_COORD97":2545963.5899999999,"ADDRESS":"大武街１３８號十樓之５","OBJECTID":549695},"geometry":{"x":169653.04000000097,"y":2545963.5900000017}},{"attributes":{"ID":549723,"DIS_CODE":0,"TOWNNAME":"北區","LI":"實踐里","LIN":"10鄰","STREET":"長榮路","SECT":"五段","MAREA":" ","LANE":" ","ALLEY":" ","HOUSE_NO":"３３０號十一樓之１","E_COORD97":169658.37,"N_COORD97":2545946.8199999998,"ADDRESS":"長榮路五段３３０號十一樓之１","OBJECTID":549696},"geometry":{"x":169658.37000000011,"y":2545946.8200000003}},{"attributes":{"ID":549724,"DIS_CODE":0,"TOWNNAME":"南區","LI":"金華里","LIN":"10鄰","STREET":"聖南街","SECT":" ","MAREA":" ","LANE":" ","ALLEY":" ","HOUSE_NO":"１０７號五樓","E_COORD97":166886.94,"N_COORD97":2542242.1000000001,"ADDRESS":"聖南街１０７號五樓","OBJECTID":549697},"geometry":{"x":166886.94000000227,"y":2542242.0999999996}},{"attributes":{"ID":549725,"DIS_CODE":0,"TOWNNAME":"北區","LI":"實踐里","LIN":"10鄰","STREET":"長榮路","SECT":"五段","MAREA":" ","LANE":" ","ALLEY":" ","HOUSE_NO":"３３０號十一樓之２","E_COORD97":169658.37,"N_COORD97":2545946.8199999998,"ADDRESS":"長榮路五段３３０號十一樓之２","OBJECTID":549698},"geometry":{"x":169658.37000000011,"y":2545946.8200000003}},{"attributes":{"ID":549726,"DIS_CODE":0,"TOWNNAME":"北區","LI":"實踐里","LIN":"10鄰","STREET":"大武街","SECT":" ","MAREA":" ","LANE":" ","ALLEY":" ","HOUSE_NO":"１３８號十一樓之１","E_COORD97":169653.04000000001,"N_COORD97":2545963.5899999999,"ADDRESS":"大武街１３８號十一樓之１","OBJECTID":549699},"geometry":{"x":169653.04000000097,"y":2545963.5900000017}},{"attributes":{"ID":549727,"DIS_CODE":0,"TOWNNAME":"北區","LI":"實踐里","LIN":"10鄰","STREET":"大武街","SECT":" ","MAREA":" ","LANE":" ","ALLEY":" ","HOUSE_NO":"１３８號十一樓之２","E_COORD97":169653.04000000001,"N_COORD97":2545963.5899999999,"ADDRESS":"大武街１３８號十一樓之２","OBJECTID":549700},"geometry":{"x":169653.04000000097,"y":2545963.5900000017}},{"attributes":{"ID":549728,"DIS_CODE":0,"TOWNNAME":"北區","LI":"實踐里","LIN":"10鄰","STREET":"大武街","SECT":" ","MAREA":" ","LANE":" ","ALLEY":" ","HOUSE_NO":"１３８號十一樓之３","E_COORD97":169653.04000000001,"N_COORD97":2545963.5899999999,"ADDRESS":"大武街１３８號十一樓之３","OBJECTID":549701},"geometry":{"x":169653.04000000097,"y":2545963.5900000017}},{"attributes":{"ID":549729,"DIS_CODE":0,"TOWNNAME":"善化區","LI":"光文里","LIN":"13鄰","STREET":"樹人路","SECT":" ","MAREA":" ","LANE":" ","ALLEY":" ","HOUSE_NO":"５６號之１","E_COORD97":178376.38,"N_COORD97":2559061.52,"ADDRESS":"樹人路５６號之１","OBJECTID":549702},"geometry":{"x":178376.37999999989,"y":2559061.5200000014}},{"attributes":{"ID":549730,"DIS_CODE":0,"TOWNNAME":"北區","LI":"實踐里","LIN":"10鄰","STREET":"大武街","SECT":" ","MAREA":" ","LANE":" ","ALLEY":" ","HOUSE_NO":"１３８號十一樓之５","E_COORD97":169653.04000000001,"N_COORD97":2545963.5899999999,"ADDRESS":"大武街１３８號十一樓之５","OBJECTID":549703},"geometry":{"x":169653.04000000097,"y":2545963.5900000017}},{"attributes":{"ID":549731,"DIS_CODE":0,"TOWNNAME":"北區","LI":"實踐里","LIN":"10鄰","STREET":"長榮路","SECT":"五段","MAREA":" ","LANE":" ","ALLEY":" ","HOUSE_NO":"３３０號十二樓之１","E_COORD97":169658.37,"N_COORD97":2545946.8199999998,"ADDRESS":"長榮路五段３３０號十二樓之１","OBJECTID":549704},"geometry":{"x":169658.37000000011,"y":2545946.8200000003}},{"attributes":{"ID":549732,"DIS_CODE":0,"TOWNNAME":"北區","LI":"實踐里","LIN":"10鄰","STREET":"長榮路","SECT":"五段","MAREA":" ","LANE":" ","ALLEY":" ","HOUSE_NO":"３３０號十二樓之２","E_COORD97":169658.37,"N_COORD97":2545946.8199999998,"ADDRESS":"長榮路五段３３０號十二樓之２","OBJECTID":549705},"geometry":{"x":169658.37000000011,"y":2545946.8200000003}},{"attributes":{"ID":549733,"DIS_CODE":0,"TOWNNAME":"歸仁區","LI":"八甲里","LIN":"10鄰","STREET":"大明街","SECT":" ","MAREA":" ","LANE":" ","ALLEY":" ","HOUSE_NO":"３號九樓之１","E_COORD97":177727.14999999999,"N_COORD97":2541923.6200000001,"ADDRESS":"大明街３號九樓之１","OBJECTID":549706},"geometry":{"x":177727.15000000037,"y":2541923.6200000029}},{"attributes":{"ID":549734,"DIS_CODE":0,"TOWNNAME":"歸仁區","LI":"八甲里","LIN":"10鄰","STREET":"大明街","SECT":" ","MAREA":" ","LANE":" ","ALLEY":" ","HOUSE_NO":"３號八樓之２","E_COORD97":177727.17999999999,"N_COORD97":2541923.6200000001,"ADDRESS":"大明街３號八樓之２","OBJECTID":549707},"geometry":{"x":177727.18000000063,"y":2541923.6200000029}},{"attributes":{"ID":549735,"DIS_CODE":0,"TOWNNAME":"歸仁區","LI":"八甲里","LIN":"10鄰","STREET":"大明街","SECT":" ","MAREA":" ","LANE":" ","ALLEY":" ","HOUSE_NO":"３號十一樓之２","E_COORD97":177727.42999999999,"N_COORD97":2541923.6200000001,"ADDRESS":"大明街３號十一樓之２","OBJECTID":549708},"geometry":{"x":177727.43000000063,"y":2541923.6200000029}},{"attributes":{"ID":549736,"DIS_CODE":0,"TOWNNAME":"歸仁區","LI":"八甲里","LIN":"10鄰","STREET":"大明街","SECT":" ","MAREA":" ","LANE":" ","ALLEY":" ","HOUSE_NO":"３號三樓之２","E_COORD97":177727.17999999999,"N_COORD97":2541923.6200000001,"ADDRESS":"大明街３號三樓之２","OBJECTID":549709},"geometry":{"x":177727.18000000063,"y":2541923.6200000029}},{"attributes":{"ID":549737,"DIS_CODE":0,"TOWNNAME":"歸仁區","LI":"八甲里","LIN":"10鄰","STREET":"中正北路","SECT":"一段","MAREA":" ","LANE":" ","ALLEY":" ","HOUSE_NO":"３９２號七樓之２","E_COORD97":177728.41,"N_COORD97":2541923.6200000001,"ADDRESS":"中正北路一段３９２號七樓之２","OBJECTID":549710},"geometry":{"x":177728.41000000015,"y":2541923.6200000029}},{"attributes":{"ID":549738,"DIS_CODE":0,"TOWNNAME":"歸仁區","LI":"八甲里","LIN":"10鄰","STREET":"中正北路","SECT":"一段","MAREA":" ","LANE":" ","ALLEY":" ","HOUSE_NO":"３９０號八樓之１","E_COORD97":177728.38,"N_COORD97":2541923.6200000001,"ADDRESS":"中正北路一段３９０號八樓之１","OBJECTID":549711},"geometry":{"x":177728.37999999989,"y":2541923.6200000029}},{"attributes":{"ID":549739,"DIS_CODE":0,"TOWNNAME":"歸仁區","LI":"八甲里","LIN":"10鄰","STREET":"中正北路","SECT":"一段","MAREA":" ","LANE":" ","ALLEY":" ","HOUSE_NO":"３９２號三樓之３","E_COORD97":177728.39999999999,"N_COORD97":2541923.6200000001,"ADDRESS":"中正北路一段３９２號三樓之３","OBJECTID":549712},"geometry":{"x":177728.4000000013,"y":2541923.6200000029}},{"attributes":{"ID":549740,"DIS_CODE":0,"TOWNNAME":"善化區","LI":"文昌里","LIN":"12鄰","STREET":"大信路","SECT":" ","MAREA":" ","LANE":" ","ALLEY":" ","HOUSE_NO":"２２號之５","E_COORD97":177518.56,"N_COORD97":2558914.77,"ADDRESS":"大信路２２號之５","OBJECTID":549713},"geometry":{"x":177518.55999999959,"y":2558914.7699999996}},{"attributes":{"ID":549741,"DIS_CODE":0,"TOWNNAME":"善化區","LI":"光文里","LIN":"13鄰","STREET":"民權路","SECT":" ","MAREA":" ","LANE":" ","ALLEY":" ","HOUSE_NO":"１１０號","E_COORD97":178469.54999999999,"N_COORD97":2559056.5099999998,"ADDRESS":"民權路１１０號","OBJECTID":549714},"geometry":{"x":178469.54999999981,"y":2559056.5099999998}},{"attributes":{"ID":549742,"DIS_CODE":0,"TOWNNAME":"南區","LI":"金華里","LIN":"10鄰","STREET":"聖南街","SECT":" ","MAREA":" ","LANE":" ","ALLEY":" ","HOUSE_NO":"１０１號四樓之１","E_COORD97":166915.07999999999,"N_COORD97":2542239.0099999998,"ADDRESS":"聖南街１０１號四樓之１","OBJECTID":549715},"geometry":{"x":166915.08000000101,"y":2542239.0099999998}},{"attributes":{"ID":549743,"DIS_CODE":0,"TOWNNAME":"南區","LI":"金華里","LIN":"10鄰","STREET":"聖南街","SECT":" ","MAREA":" ","LANE":" ","ALLEY":" ","HOUSE_NO":"１０３號二樓","E_COORD97":166906.42000000001,"N_COORD97":2542241.1800000002,"ADDRESS":"聖南街１０３號二樓","OBJECTID":549716},"geometry":{"x":166906.41999999993,"y":2542241.1799999997}},{"attributes":{"ID":549744,"DIS_CODE":0,"TOWNNAME":"南區","LI":"金華里","LIN":"10鄰","STREET":"聖南街","SECT":" ","MAREA":" ","LANE":" ","ALLEY":" ","HOUSE_NO":"１０３號三樓","E_COORD97":166906.42000000001,"N_COORD97":2542241.1800000002,"ADDRESS":"聖南街１０３號三樓","OBJECTID":549717},"geometry":{"x":166906.41999999993,"y":2542241.1799999997}},{"attributes":{"ID":549745,"DIS_CODE":0,"TOWNNAME":"南區","LI":"金華里","LIN":"10鄰","STREET":"聖南街","SECT":" ","MAREA":" ","LANE":" ","ALLEY":" ","HOUSE_NO":"１０３號五樓","E_COORD97":166906.42000000001,"N_COORD97":2542241.1800000002,"ADDRESS":"聖南街１０３號五樓","OBJECTID":549718},"geometry":{"x":166906.41999999993,"y":2542241.1799999997}},{"attributes":{"ID":549746,"DIS_CODE":0,"TOWNNAME":"中西區","LI":"三合里","LIN":"10鄰","STREET":"信義街","SECT":" ","MAREA":" ","LANE":" ","ALLEY":" ","HOUSE_NO":"５４號","E_COORD97":167559.23000000001,"N_COORD97":2544506.1200000001,"ADDRESS":"信義街５４號","OBJECTID":549719},"geometry":{"x":167559.23000000045,"y":2544506.1200000048}},{"attributes":{"ID":549747,"DIS_CODE":0,"TOWNNAME":"南區","LI":"金華里","LIN":"10鄰","STREET":"聖南街","SECT":" ","MAREA":" ","LANE":" ","ALLEY":" ","HOUSE_NO":"１０３號四樓之２","E_COORD97":166906.42000000001,"N_COORD97":2542241.1800000002,"ADDRESS":"聖南街１０３號四樓之２","OBJECTID":549720},"geometry":{"x":166906.41999999993,"y":2542241.1799999997}},{"attributes":{"ID":549748,"DIS_CODE":0,"TOWNNAME":"南區","LI":"金華里","LIN":"10鄰","STREET":"聖南街","SECT":" ","MAREA":" ","LANE":" ","ALLEY":" ","HOUSE_NO":"１０５號二樓","E_COORD97":166895.91,"N_COORD97":2542241.1800000002,"ADDRESS":"聖南街１０５號二樓","OBJECTID":549721},"geometry":{"x":166895.91000000108,"y":2542241.1799999997}},{"attributes":{"ID":549749,"DIS_CODE":0,"TOWNNAME":"南區","LI":"金華里","LIN":"10鄰","STREET":"聖南街","SECT":" ","MAREA":" ","LANE":" ","ALLEY":" ","HOUSE_NO":"１０５號三樓之１","E_COORD97":166895.91,"N_COORD97":2542241.1800000002,"ADDRESS":"聖南街１０５號三樓之１","OBJECTID":549722},"geometry":{"x":166895.91000000108,"y":2542241.1799999997}},{"attributes":{"ID":549750,"DIS_CODE":0,"TOWNNAME":"南區","LI":"金華里","LIN":"10鄰","STREET":"聖南街","SECT":" ","MAREA":" ","LANE":" ","ALLEY":" ","HOUSE_NO":"１０５號三樓之２","E_COORD97":166895.91,"N_COORD97":2542241.1800000002,"ADDRESS":"聖南街１０５號三樓之２","OBJECTID":549723},"geometry":{"x":166895.91000000108,"y":2542241.1799999997}},{"attributes":{"ID":549751,"DIS_CODE":0,"TOWNNAME":"南區","LI":"金華里","LIN":"10鄰","STREET":"聖南街","SECT":" ","MAREA":" ","LANE":" ","ALLEY":" ","HOUSE_NO":"１０５號四樓之１","E_COORD97":166895.91,"N_COORD97":2542241.1800000002,"ADDRESS":"聖南街１０５號四樓之１","OBJECTID":549724},"geometry":{"x":166895.91000000108,"y":2542241.1799999997}},{"attributes":{"ID":549752,"DIS_CODE":0,"TOWNNAME":"南區","LI":"金華里","LIN":"10鄰","STREET":"聖南街","SECT":" ","MAREA":" ","LANE":" ","ALLEY":" ","HOUSE_NO":"１０５號四樓之２","E_COORD97":166895.91,"N_COORD97":2542241.1800000002,"ADDRESS":"聖南街１０５號四樓之２","OBJECTID":549725},"geometry":{"x":166895.91000000108,"y":2542241.1799999997}},{"attributes":{"ID":549753,"DIS_CODE":0,"TOWNNAME":"南區","LI":"金華里","LIN":"10鄰","STREET":"聖南街","SECT":" ","MAREA":" ","LANE":" ","ALLEY":" ","HOUSE_NO":"１０７號二樓之１","E_COORD97":166886.94,"N_COORD97":2542242.1000000001,"ADDRESS":"聖南街１０７號二樓之１","OBJECTID":549726},"geometry":{"x":166886.94000000227,"y":2542242.0999999996}},{"attributes":{"ID":549754,"DIS_CODE":0,"TOWNNAME":"南區","LI":"金華里","LIN":"10鄰","STREET":"聖南街","SECT":" ","MAREA":" ","LANE":" ","ALLEY":" ","HOUSE_NO":"１０７號二樓之２","E_COORD97":166886.94,"N_COORD97":2542242.1000000001,"ADDRESS":"聖南街１０７號二樓之２","OBJECTID":549727},"geometry":{"x":166886.94000000227,"y":2542242.0999999996}},{"attributes":{"ID":549755,"DIS_CODE":0,"TOWNNAME":"南區","LI":"金華里","LIN":"10鄰","STREET":"聖南街","SECT":" ","MAREA":" ","LANE":" ","ALLEY":" ","HOUSE_NO":"１０７號三樓之２","E_COORD97":166886.94,"N_COORD97":2542242.1000000001,"ADDRESS":"聖南街１０７號三樓之２","OBJECTID":549728},"geometry":{"x":166886.94000000227,"y":2542242.0999999996}},{"attributes":{"ID":549756,"DIS_CODE":0,"TOWNNAME":"南區","LI":"金華里","LIN":"10鄰","STREET":"聖南街","SECT":" ","MAREA":" ","LANE":" ","ALLEY":" ","HOUSE_NO":"１０７號五樓之２","E_COORD97":166886.94,"N_COORD97":2542242.1000000001,"ADDRESS":"聖南街１０７號五樓之２","OBJECTID":549729},"geometry":{"x":166886.94000000227,"y":2542242.0999999996}},{"attributes":{"ID":549757,"DIS_CODE":0,"TOWNNAME":"南區","LI":"金華里","LIN":"10鄰","STREET":"聖南街","SECT":" ","MAREA":" ","LANE":" ","ALLEY":" ","HOUSE_NO":"１０７號四樓之２","E_COORD97":166886.94,"N_COORD97":2542242.1000000001,"ADDRESS":"聖南街１０７號四樓之２","OBJECTID":549730},"geometry":{"x":166886.94000000227,"y":2542242.0999999996}},{"attributes":{"ID":549758,"DIS_CODE":0,"TOWNNAME":"南區","LI":"金華里","LIN":"10鄰","STREET":"聖南街","SECT":" ","MAREA":" ","LANE":" ","ALLEY":" ","HOUSE_NO":"１０９號二樓","E_COORD97":166876.42000000001,"N_COORD97":2542241.4900000002,"ADDRESS":"聖南街１０９號二樓","OBJECTID":549731},"geometry":{"x":166876.42000000086,"y":2542241.4900000021}},{"attributes":{"ID":549759,"DIS_CODE":0,"TOWNNAME":"南區","LI":"金華里","LIN":"10鄰","STREET":"聖南街","SECT":" ","MAREA":" ","LANE":" ","ALLEY":" ","HOUSE_NO":"１０９號二樓之１","E_COORD97":166876.42000000001,"N_COORD97":2542241.4900000002,"ADDRESS":"聖南街１０９號二樓之１","OBJECTID":549732},"geometry":{"x":166876.42000000086,"y":2542241.4900000021}},{"attributes":{"ID":549760,"DIS_CODE":0,"TOWNNAME":"南區","LI":"金華里","LIN":"10鄰","STREET":"聖南街","SECT":" ","MAREA":" ","LANE":" ","ALLEY":" ","HOUSE_NO":"１０９號二樓之２","E_COORD97":166876.42000000001,"N_COORD97":2542241.4900000002,"ADDRESS":"聖南街１０９號二樓之２","OBJECTID":549733},"geometry":{"x":166876.42000000086,"y":2542241.4900000021}},{"attributes":{"ID":549761,"DIS_CODE":0,"TOWNNAME":"南區","LI":"金華里","LIN":"10鄰","STREET":"聖南街","SECT":" ","MAREA":" ","LANE":" ","ALLEY":" ","HOUSE_NO":"１０９號三樓之１","E_COORD97":166876.42000000001,"N_COORD97":2542241.4900000002,"ADDRESS":"聖南街１０９號三樓之１","OBJECTID":549734},"geometry":{"x":166876.42000000086,"y":2542241.4900000021}},{"attributes":{"ID":549762,"DIS_CODE":0,"TOWNNAME":"南區","LI":"金華里","LIN":"10鄰","STREET":"聖南街","SECT":" ","MAREA":" ","LANE":" ","ALLEY":" ","HOUSE_NO":"１０９號三樓之２","E_COORD97":166876.42000000001,"N_COORD97":2542241.4900000002,"ADDRESS":"聖南街１０９號三樓之２","OBJECTID":549735},"geometry":{"x":166876.42000000086,"y":2542241.4900000021}},{"attributes":{"ID":549763,"DIS_CODE":0,"TOWNNAME":"南區","LI":"金華里","LIN":"10鄰","STREET":"聖南街","SECT":" ","MAREA":" ","LANE":" ","ALLEY":" ","HOUSE_NO":"１０９號五樓","E_COORD97":166876.42000000001,"N_COORD97":2542241.4900000002,"ADDRESS":"聖南街１０９號五樓","OBJECTID":549736},"geometry":{"x":166876.42000000086,"y":2542241.4900000021}},{"attributes":{"ID":549764,"DIS_CODE":0,"TOWNNAME":"南區","LI":"金華里","LIN":"10鄰","STREET":"聖南街","SECT":" ","MAREA":" ","LANE":" ","ALLEY":" ","HOUSE_NO":"１０９號四樓之１","E_COORD97":166876.42000000001,"N_COORD97":2542241.4900000002,"ADDRESS":"聖南街１０９號四樓之１","OBJECTID":549737},"geometry":{"x":166876.42000000086,"y":2542241.4900000021}},{"attributes":{"ID":549765,"DIS_CODE":0,"TOWNNAME":"南區","LI":"金華里","LIN":"10鄰","STREET":"聖南街","SECT":" ","MAREA":" ","LANE":" ","ALLEY":" ","HOUSE_NO":"９９號二樓之２","E_COORD97":166925.91,"N_COORD97":2542237.4700000002,"ADDRESS":"聖南街９９號二樓之２","OBJECTID":549738},"geometry":{"x":166925.91000000108,"y":2542237.4700000007}},{"attributes":{"ID":549766,"DIS_CODE":0,"TOWNNAME":"新營區","LI":"永生里","LIN":"10鄰","STREET":"康樂街","SECT":" ","MAREA":" ","LANE":" ","ALLEY":" ","HOUSE_NO":"１６之２號七樓之７","E_COORD97":179970.14999999999,"N_COORD97":2577908.4700000002,"ADDRESS":"康樂街１６之２號七樓之７","OBJECTID":549739},"geometry":{"x":179970.15000000037,"y":2577908.4700000044}},{"attributes":{"ID":549767,"DIS_CODE":0,"TOWNNAME":"新營區","LI":"忠政里","LIN":"10鄰","STREET":"中正路","SECT":" ","MAREA":" ","LANE":" ","ALLEY":" ","HOUSE_NO":"５３之２號十三樓之２","E_COORD97":180071,"N_COORD97":2579486.1200000001,"ADDRESS":"中正路５３之２號十三樓之２","OBJECTID":549740},"geometry":{"x":180071,"y":2579486.1200000029}},{"attributes":{"ID":549768,"DIS_CODE":0,"TOWNNAME":"新營區","LI":"忠政里","LIN":"10鄰","STREET":"中正路","SECT":" ","MAREA":" ","LANE":" ","ALLEY":" ","HOUSE_NO":"５３之２號十二樓之２","E_COORD97":180071,"N_COORD97":2579486.1200000001,"ADDRESS":"中正路５３之２號十二樓之２","OBJECTID":549741},"geometry":{"x":180071,"y":2579486.1200000029}},{"attributes":{"ID":549769,"DIS_CODE":0,"TOWNNAME":"新營區","LI":"忠政里","LIN":"10鄰","STREET":"中正路","SECT":" ","MAREA":" ","LANE":" ","ALLEY":" ","HOUSE_NO":"５３之２號八樓之３","E_COORD97":180069.70999999999,"N_COORD97":2579486.1200000001,"ADDRESS":"中正路５３之２號八樓之３","OBJECTID":549742},"geometry":{"x":180069.71000000183,"y":2579486.1200000029}},{"attributes":{"ID":549770,"DIS_CODE":0,"TOWNNAME":"新營區","LI":"忠政里","LIN":"10鄰","STREET":"中正路","SECT":" ","MAREA":" ","LANE":" ","ALLEY":" ","HOUSE_NO":"５３之２號十四樓之２","E_COORD97":180071,"N_COORD97":2579486.1200000001,"ADDRESS":"中正路５３之２號十四樓之２","OBJECTID":549743},"geometry":{"x":180071,"y":2579486.1200000029}},{"attributes":{"ID":549771,"DIS_CODE":0,"TOWNNAME":"新營區","LI":"忠政里","LIN":"10鄰","STREET":"中正路","SECT":" ","MAREA":" ","LANE":" ","ALLEY":" ","HOUSE_NO":"５３之２號十四樓之１","E_COORD97":180070.87,"N_COORD97":2579486.1200000001,"ADDRESS":"中正路５３之２號十四樓之１","OBJECTID":549744},"geometry":{"x":180070.87000000104,"y":2579486.1200000029}},{"attributes":{"ID":549772,"DIS_CODE":0,"TOWNNAME":"新營區","LI":"忠政里","LIN":"10鄰","STREET":"中正路","SECT":" ","MAREA":" ","LANE":" ","ALLEY":" ","HOUSE_NO":"５３之２號十樓之１","E_COORD97":180069.62,"N_COORD97":2579486.1200000001,"ADDRESS":"中正路５３之２號十樓之１","OBJECTID":549745},"geometry":{"x":180069.62000000011,"y":2579486.1200000029}},{"attributes":{"ID":549773,"DIS_CODE":0,"TOWNNAME":"新營區","LI":"忠政里","LIN":"10鄰","STREET":"中正路","SECT":" ","MAREA":" ","LANE":" ","ALLEY":" ","HOUSE_NO":"５３之２號十二樓之１","E_COORD97":180070.87,"N_COORD97":2579486.1200000001,"ADDRESS":"中正路５３之２號十二樓之１","OBJECTID":549746},"geometry":{"x":180070.87000000104,"y":2579486.1200000029}},{"attributes":{"ID":549774,"DIS_CODE":0,"TOWNNAME":"新營區","LI":"忠政里","LIN":"10鄰","STREET":"中正路","SECT":" ","MAREA":" ","LANE":" ","ALLEY":" ","HOUSE_NO":"５３之２號十一樓之３","E_COORD97":180070.95999999999,"N_COORD97":2579486.1200000001,"ADDRESS":"中正路５３之２號十一樓之３","OBJECTID":549747},"geometry":{"x":180070.95999999996,"y":2579486.1200000029}},{"attributes":{"ID":549775,"DIS_CODE":0,"TOWNNAME":"新營區","LI":"忠政里","LIN":"10鄰","STREET":"中正路","SECT":" ","MAREA":" ","LANE":" ","ALLEY":" ","HOUSE_NO":"５３之２號五樓之３","E_COORD97":180069.70999999999,"N_COORD97":2579486.1200000001,"ADDRESS":"中正路５３之２號五樓之３","OBJECTID":549748},"geometry":{"x":180069.71000000183,"y":2579486.1200000029}},{"attributes":{"ID":549776,"DIS_CODE":0,"TOWNNAME":"新營區","LI":"忠政里","LIN":"10鄰","STREET":"中正路","SECT":" ","MAREA":" ","LANE":" ","ALLEY":" ","HOUSE_NO":"５３之２號八樓之１","E_COORD97":180069.62,"N_COORD97":2579486.1200000001,"ADDRESS":"中正路５３之２號八樓之１","OBJECTID":549749},"geometry":{"x":180069.62000000011,"y":2579486.1200000029}},{"attributes":{"ID":549777,"DIS_CODE":0,"TOWNNAME":"新營區","LI":"忠政里","LIN":"10鄰","STREET":"中正路","SECT":" ","MAREA":" ","LANE":" ","ALLEY":" ","HOUSE_NO":"５３之６號十二樓之１","E_COORD97":180036.09,"N_COORD97":2579485.1800000002,"ADDRESS":"中正路５３之６號十二樓之１","OBJECTID":549750},"geometry":{"x":180036.08999999985,"y":2579485.1799999997}},{"attributes":{"ID":549778,"DIS_CODE":0,"TOWNNAME":"新營區","LI":"忠政里","LIN":"10鄰","STREET":"中正路","SECT":" ","MAREA":" ","LANE":" ","ALLEY":" ","HOUSE_NO":"５３之２號六樓之３","E_COORD97":180069.70999999999,"N_COORD97":2579486.1200000001,"ADDRESS":"中正路５３之２號六樓之３","OBJECTID":549751},"geometry":{"x":180069.71000000183,"y":2579486.1200000029}},{"attributes":{"ID":549779,"DIS_CODE":0,"TOWNNAME":"北區","LI":"長德里","LIN":"10鄰","STREET":"長北街","SECT":" ","MAREA":" ","LANE":" ","ALLEY":" ","HOUSE_NO":"１７２號三樓","E_COORD97":168524.66,"N_COORD97":2544930.0899999999,"ADDRESS":"長北街１７２號三樓","OBJECTID":549752},"geometry":{"x":168524.66000000108,"y":2544930.0900000017}},{"attributes":{"ID":549780,"DIS_CODE":0,"TOWNNAME":"北區","LI":"長德里","LIN":"10鄰","STREET":"長北街","SECT":" ","MAREA":" ","LANE":" ","ALLEY":" ","HOUSE_NO":"１７２號五樓","E_COORD97":168524.66,"N_COORD97":2544930.0899999999,"ADDRESS":"長北街１７２號五樓","OBJECTID":549753},"geometry":{"x":168524.66000000108,"y":2544930.0900000017}},{"attributes":{"ID":549781,"DIS_CODE":0,"TOWNNAME":"北區","LI":"長德里","LIN":"10鄰","STREET":"長北街","SECT":" ","MAREA":" ","LANE":" ","ALLEY":" ","HOUSE_NO":"１７２號四樓之１","E_COORD97":168524.66,"N_COORD97":2544930.0899999999,"ADDRESS":"長北街１７２號四樓之１","OBJECTID":549754},"geometry":{"x":168524.66000000108,"y":2544930.0900000017}},{"attributes":{"ID":549782,"DIS_CODE":0,"TOWNNAME":"北區","LI":"長德里","LIN":"10鄰","STREET":"長北街","SECT":" ","MAREA":" ","LANE":" ","ALLEY":" ","HOUSE_NO":"１７２號四樓之２","E_COORD97":168524.66,"N_COORD97":2544930.0899999999,"ADDRESS":"長北街１７２號四樓之２","OBJECTID":549755},"geometry":{"x":168524.66000000108,"y":2544930.0900000017}},{"attributes":{"ID":549783,"DIS_CODE":0,"TOWNNAME":"北區","LI":"長德里","LIN":"10鄰","STREET":"長北街","SECT":" ","MAREA":" ","LANE":" ","ALLEY":" ","HOUSE_NO":"１７４號二樓","E_COORD97":168529.51000000001,"N_COORD97":2544927.6699999999,"ADDRESS":"長北街１７４號二樓","OBJECTID":549756},"geometry":{"x":168529.50999999978,"y":2544927.6699999999}},{"attributes":{"ID":549784,"DIS_CODE":0,"TOWNNAME":"北區","LI":"長德里","LIN":"10鄰","STREET":"長北街","SECT":" ","MAREA":" ","LANE":" ","ALLEY":" ","HOUSE_NO":"１７４號三樓","E_COORD97":168529.51000000001,"N_COORD97":2544927.6699999999,"ADDRESS":"長北街１７４號三樓","OBJECTID":549757},"geometry":{"x":168529.50999999978,"y":2544927.6699999999}},{"attributes":{"ID":549785,"DIS_CODE":0,"TOWNNAME":"北區","LI":"長德里","LIN":"10鄰","STREET":"長北街","SECT":" ","MAREA":" ","LANE":" ","ALLEY":" ","HOUSE_NO":"１７４號五樓","E_COORD97":168529.51000000001,"N_COORD97":2544927.6699999999,"ADDRESS":"長北街１７４號五樓","OBJECTID":549758},"geometry":{"x":168529.50999999978,"y":2544927.6699999999}},{"attributes":{"ID":549786,"DIS_CODE":0,"TOWNNAME":"北區","LI":"長德里","LIN":"10鄰","STREET":"長北街","SECT":" ","MAREA":" ","LANE":" ","ALLEY":" ","HOUSE_NO":"１７４號四樓","E_COORD97":168529.51000000001,"N_COORD97":2544927.6699999999,"ADDRESS":"長北街１７４號四樓","OBJECTID":549759},"geometry":{"x":168529.50999999978,"y":2544927.6699999999}},{"attributes":{"ID":549787,"DIS_CODE":0,"TOWNNAME":"北區","LI":"長德里","LIN":"10鄰","STREET":"長北街","SECT":" ","MAREA":" ","LANE":" ","ALLEY":" ","HOUSE_NO":"１７６號二樓之１","E_COORD97":168535.39999999999,"N_COORD97":2544925.5899999999,"ADDRESS":"長北街１７６號二樓之１","OBJECTID":549760},"geometry":{"x":168535.4000000013,"y":2544925.5900000036}},{"attributes":{"ID":549788,"DIS_CODE":0,"TOWNNAME":"北區","LI":"長德里","LIN":"10鄰","STREET":"長北街","SECT":" ","MAREA":" ","LANE":" ","ALLEY":" ","HOUSE_NO":"１７６號二樓之２","E_COORD97":168535.39999999999,"N_COORD97":2544925.5899999999,"ADDRESS":"長北街１７６號二樓之２","OBJECTID":549761},"geometry":{"x":168535.4000000013,"y":2544925.5900000036}},{"attributes":{"ID":549789,"DIS_CODE":0,"TOWNNAME":"北區","LI":"長德里","LIN":"10鄰","STREET":"長北街","SECT":" ","MAREA":" ","LANE":" ","ALLEY":" ","HOUSE_NO":"１７６號三樓之１","E_COORD97":168535.39999999999,"N_COORD97":2544925.5899999999,"ADDRESS":"長北街１７６號三樓之１","OBJECTID":549762},"geometry":{"x":168535.4000000013,"y":2544925.5900000036}},{"attributes":{"ID":549790,"DIS_CODE":0,"TOWNNAME":"北區","LI":"長德里","LIN":"10鄰","STREET":"長北街","SECT":" ","MAREA":" ","LANE":" ","ALLEY":" ","HOUSE_NO":"１７６號三樓之２","E_COORD97":168535.39999999999,"N_COORD97":2544925.5899999999,"ADDRESS":"長北街１７６號三樓之２","OBJECTID":549763},"geometry":{"x":168535.4000000013,"y":2544925.5900000036}},{"attributes":{"ID":549791,"DIS_CODE":0,"TOWNNAME":"北區","LI":"長德里","LIN":"10鄰","STREET":"長北街","SECT":" ","MAREA":" ","LANE":" ","ALLEY":" ","HOUSE_NO":"１７６號五樓","E_COORD97":168535.39999999999,"N_COORD97":2544925.5899999999,"ADDRESS":"長北街１７６號五樓","OBJECTID":549764},"geometry":{"x":168535.4000000013,"y":2544925.5900000036}},{"attributes":{"ID":549792,"DIS_CODE":0,"TOWNNAME":"北區","LI":"長德里","LIN":"10鄰","STREET":"長北街","SECT":" ","MAREA":" ","LANE":" ","ALLEY":" ","HOUSE_NO":"１７６號四樓之１","E_COORD97":168535.39999999999,"N_COORD97":2544925.5899999999,"ADDRESS":"長北街１７６號四樓之１","OBJECTID":549765},"geometry":{"x":168535.4000000013,"y":2544925.5900000036}},{"attributes":{"ID":549793,"DIS_CODE":0,"TOWNNAME":"北區","LI":"長德里","LIN":"10鄰","STREET":"長北街","SECT":" ","MAREA":" ","LANE":" ","ALLEY":" ","HOUSE_NO":"１７６號四樓之２","E_COORD97":168535.39999999999,"N_COORD97":2544925.5899999999,"ADDRESS":"長北街１７６號四樓之２","OBJECTID":549766},"geometry":{"x":168535.4000000013,"y":2544925.5900000036}},{"attributes":{"ID":549794,"DIS_CODE":0,"TOWNNAME":"北區","LI":"長德里","LIN":"10鄰","STREET":"長北街","SECT":" ","MAREA":" ","LANE":" ","ALLEY":" ","HOUSE_NO":"１７８號二樓","E_COORD97":168539.20999999999,"N_COORD97":2544922.48,"ADDRESS":"長北街１７８號二樓","OBJECTID":549767},"geometry":{"x":168539.21000000089,"y":2544922.4800000004}},{"attributes":{"ID":549795,"DIS_CODE":0,"TOWNNAME":"北區","LI":"長德里","LIN":"10鄰","STREET":"長北街","SECT":" ","MAREA":" ","LANE":" ","ALLEY":" ","HOUSE_NO":"１７８號三樓","E_COORD97":168539.20999999999,"N_COORD97":2544922.48,"ADDRESS":"長北街１７８號三樓","OBJECTID":549768},"geometry":{"x":168539.21000000089,"y":2544922.4800000004}},{"attributes":{"ID":549796,"DIS_CODE":0,"TOWNNAME":"北區","LI":"長德里","LIN":"10鄰","STREET":"長北街","SECT":" ","MAREA":" ","LANE":" ","ALLEY":" ","HOUSE_NO":"１７８號五樓","E_COORD97":168539.20999999999,"N_COORD97":2544922.48,"ADDRESS":"長北街１７８號五樓","OBJECTID":549769},"geometry":{"x":168539.21000000089,"y":2544922.4800000004}},{"attributes":{"ID":549797,"DIS_CODE":0,"TOWNNAME":"北區","LI":"長德里","LIN":"10鄰","STREET":"長北街","SECT":" ","MAREA":" ","LANE":" ","ALLEY":" ","HOUSE_NO":"１７８號四樓","E_COORD97":168539.20999999999,"N_COORD97":2544922.48,"ADDRESS":"長北街１７８號四樓","OBJECTID":549770},"geometry":{"x":168539.21000000089,"y":2544922.4800000004}},{"attributes":{"ID":549798,"DIS_CODE":0,"TOWNNAME":"麻豆區","LI":"新建里","LIN":"10鄰","STREET":"麻學路","SECT":"一段","MAREA":" ","LANE":" ","ALLEY":" ","HOUSE_NO":"１５號之１四樓","E_COORD97":172206.97,"N_COORD97":2565018.4399999999,"ADDRESS":"麻學路一段１５號之１四樓","OBJECTID":549771},"geometry":{"x":172206.96999999881,"y":2565018.4400000013}},{"attributes":{"ID":549799,"DIS_CODE":0,"TOWNNAME":"北區","LI":"長德里","LIN":"10鄰","STREET":"長北街","SECT":" ","MAREA":" ","LANE":" ","ALLEY":" ","HOUSE_NO":"１８０號二樓之１","E_COORD97":168532.98000000001,"N_COORD97":2544934.2400000002,"ADDRESS":"長北街１８０號二樓之１","OBJECTID":549772},"geometry":{"x":168532.98000000138,"y":2544934.2400000002}},{"attributes":{"ID":549800,"DIS_CODE":0,"TOWNNAME":"北區","LI":"長德里","LIN":"10鄰","STREET":"長北街","SECT":" ","MAREA":" ","LANE":" ","ALLEY":" ","HOUSE_NO":"１８０號二樓之２","E_COORD97":168532.98000000001,"N_COORD97":2544934.2400000002,"ADDRESS":"長北街１８０號二樓之２","OBJECTID":549773},"geometry":{"x":168532.98000000138,"y":2544934.2400000002}},{"attributes":{"ID":549801,"DIS_CODE":0,"TOWNNAME":"北區","LI":"長德里","LIN":"10鄰","STREET":"長北街","SECT":" ","MAREA":" ","LANE":" ","ALLEY":" ","HOUSE_NO":"１８０號三樓之１","E_COORD97":168532.98000000001,"N_COORD97":2544934.2400000002,"ADDRESS":"長北街１８０號三樓之１","OBJECTID":549774},"geometry":{"x":168532.98000000138,"y":2544934.2400000002}},{"attributes":{"ID":549802,"DIS_CODE":0,"TOWNNAME":"北區","LI":"長德里","LIN":"10鄰","STREET":"長北街","SECT":" ","MAREA":" ","LANE":" ","ALLEY":" ","HOUSE_NO":"１８０號三樓之２","E_COORD97":168532.98000000001,"N_COORD97":2544934.2400000002,"ADDRESS":"長北街１８０號三樓之２","OBJECTID":549775},"geometry":{"x":168532.98000000138,"y":2544934.2400000002}},{"attributes":{"ID":549803,"DIS_CODE":0,"TOWNNAME":"北區","LI":"長德里","LIN":"10鄰","STREET":"長北街","SECT":" ","MAREA":" ","LANE":" ","ALLEY":" ","HOUSE_NO":"１８０號五樓","E_COORD97":168532.98000000001,"N_COORD97":2544934.2400000002,"ADDRESS":"長北街１８０號五樓","OBJECTID":549776},"geometry":{"x":168532.98000000138,"y":2544934.2400000002}},{"attributes":{"ID":549804,"DIS_CODE":0,"TOWNNAME":"北區","LI":"長德里","LIN":"10鄰","STREET":"長北街","SECT":" ","MAREA":" ","LANE":" ","ALLEY":" ","HOUSE_NO":"１８０號四樓之１","E_COORD97":168532.98000000001,"N_COORD97":2544934.2400000002,"ADDRESS":"長北街１８０號四樓之１","OBJECTID":549777},"geometry":{"x":168532.98000000138,"y":2544934.2400000002}},{"attributes":{"ID":549805,"DIS_CODE":0,"TOWNNAME":"北區","LI":"長德里","LIN":"10鄰","STREET":"長北街","SECT":" ","MAREA":" ","LANE":" ","ALLEY":" ","HOUSE_NO":"１８０號四樓之２","E_COORD97":168532.98000000001,"N_COORD97":2544934.2400000002,"ADDRESS":"長北街１８０號四樓之２","OBJECTID":549778},"geometry":{"x":168532.98000000138,"y":2544934.2400000002}},{"attributes":{"ID":549806,"DIS_CODE":0,"TOWNNAME":"北區","LI":"長德里","LIN":"10鄰","STREET":"長北街","SECT":" ","MAREA":" ","LANE":" ","ALLEY":" ","HOUSE_NO":"１８２號二樓","E_COORD97":168529.51000000001,"N_COORD97":2544935.2799999998,"ADDRESS":"長北街１８２號二樓","OBJECTID":549779},"geometry":{"x":168529.50999999978,"y":2544935.2800000012}},{"attributes":{"ID":549807,"DIS_CODE":0,"TOWNNAME":"北區","LI":"長德里","LIN":"10鄰","STREET":"長北街","SECT":" ","MAREA":" ","LANE":" ","ALLEY":" ","HOUSE_NO":"１８２號三樓","E_COORD97":168529.51000000001,"N_COORD97":2544935.2799999998,"ADDRESS":"長北街１８２號三樓","OBJECTID":549780},"geometry":{"x":168529.50999999978,"y":2544935.2800000012}},{"attributes":{"ID":549808,"DIS_CODE":0,"TOWNNAME":"北區","LI":"長德里","LIN":"10鄰","STREET":"長北街","SECT":" ","MAREA":" ","LANE":" ","ALLEY":" ","HOUSE_NO":"１８２號五樓","E_COORD97":168529.51000000001,"N_COORD97":2544935.2799999998,"ADDRESS":"長北街１８２號五樓","OBJECTID":549781},"geometry":{"x":168529.50999999978,"y":2544935.2800000012}},{"attributes":{"ID":549809,"DIS_CODE":0,"TOWNNAME":"北區","LI":"長德里","LIN":"10鄰","STREET":"長北街","SECT":" ","MAREA":" ","LANE":" ","ALLEY":" ","HOUSE_NO":"１８２號四樓","E_COORD97":168529.51000000001,"N_COORD97":2544935.2799999998,"ADDRESS":"長北街１８２號四樓","OBJECTID":549782},"geometry":{"x":168529.50999999978,"y":2544935.2800000012}},{"attributes":{"ID":549810,"DIS_CODE":0,"TOWNNAME":"北區","LI":"長德里","LIN":"10鄰","STREET":"長北街","SECT":" ","MAREA":" ","LANE":" ","ALLEY":" ","HOUSE_NO":"１８４號三樓","E_COORD97":168523.62,"N_COORD97":2544937.3599999999,"ADDRESS":"長北街１８４號三樓","OBJECTID":549783},"geometry":{"x":168523.62000000104,"y":2544937.3600000013}},{"attributes":{"ID":549811,"DIS_CODE":0,"TOWNNAME":"北區","LI":"長德里","LIN":"10鄰","STREET":"長北街","SECT":" ","MAREA":" ","LANE":" ","ALLEY":" ","HOUSE_NO":"１８４號五樓","E_COORD97":168523.62,"N_COORD97":2544937.3599999999,"ADDRESS":"長北街１８４號五樓","OBJECTID":549784},"geometry":{"x":168523.62000000104,"y":2544937.3600000013}},{"attributes":{"ID":549812,"DIS_CODE":0,"TOWNNAME":"北區","LI":"長德里","LIN":"10鄰","STREET":"長北街","SECT":" ","MAREA":" ","LANE":" ","ALLEY":" ","HOUSE_NO":"１８４號四樓","E_COORD97":168523.62,"N_COORD97":2544937.3599999999,"ADDRESS":"長北街１８４號四樓","OBJECTID":549785},"geometry":{"x":168523.62000000104,"y":2544937.3600000013}},{"attributes":{"ID":549813,"DIS_CODE":0,"TOWNNAME":"麻豆區","LI":"新建里","LIN":"10鄰","STREET":"麻學路","SECT":"一段","MAREA":" ","LANE":" ","ALLEY":" ","HOUSE_NO":"１１號七樓","E_COORD97":172235.10999999999,"N_COORD97":2565024.8100000001,"ADDRESS":"麻學路一段１１號七樓","OBJECTID":549786},"geometry":{"x":172235.11000000034,"y":2565024.8100000005}},{"attributes":{"ID":549814,"DIS_CODE":0,"TOWNNAME":"麻豆區","LI":"新建里","LIN":"10鄰","STREET":"麻學路","SECT":"一段","MAREA":" ","LANE":" ","ALLEY":" ","HOUSE_NO":"１１號五樓","E_COORD97":172235.10999999999,"N_COORD97":2565024.8100000001,"ADDRESS":"麻學路一段１１號五樓","OBJECTID":549787},"geometry":{"x":172235.11000000034,"y":2565024.8100000005}},{"attributes":{"ID":549815,"DIS_CODE":0,"TOWNNAME":"麻豆區","LI":"新建里","LIN":"10鄰","STREET":"麻學路","SECT":"一段","MAREA":" ","LANE":" ","ALLEY":" ","HOUSE_NO":"１１號六樓","E_COORD97":172235.10999999999,"N_COORD97":2565024.8100000001,"ADDRESS":"麻學路一段１１號六樓","OBJECTID":549788},"geometry":{"x":172235.11000000034,"y":2565024.8100000005}},{"attributes":{"ID":549816,"DIS_CODE":0,"TOWNNAME":"麻豆區","LI":"新建里","LIN":"10鄰","STREET":"麻學路","SECT":"一段","MAREA":" ","LANE":" ","ALLEY":" ","HOUSE_NO":"１１號四樓","E_COORD97":172235.10999999999,"N_COORD97":2565024.8100000001,"ADDRESS":"麻學路一段１１號四樓","OBJECTID":549789},"geometry":{"x":172235.11000000034,"y":2565024.8100000005}},{"attributes":{"ID":549817,"DIS_CODE":0,"TOWNNAME":"麻豆區","LI":"新建里","LIN":"10鄰","STREET":"麻學路","SECT":"一段","MAREA":" ","LANE":" ","ALLEY":" ","HOUSE_NO":"１３號七樓","E_COORD97":172231.37,"N_COORD97":2565027.6099999999,"ADDRESS":"麻學路一段１３號七樓","OBJECTID":549790},"geometry":{"x":172231.37000000011,"y":2565027.6100000013}},{"attributes":{"ID":549818,"DIS_CODE":0,"TOWNNAME":"麻豆區","LI":"新建里","LIN":"10鄰","STREET":"麻學路","SECT":"一段","MAREA":" ","LANE":" ","ALLEY":" ","HOUSE_NO":"１３號九樓","E_COORD97":172231.37,"N_COORD97":2565027.6099999999,"ADDRESS":"麻學路一段１３號九樓","OBJECTID":549791},"geometry":{"x":172231.37000000011,"y":2565027.6100000013}},{"attributes":{"ID":549819,"DIS_CODE":0,"TOWNNAME":"麻豆區","LI":"新建里","LIN":"10鄰","STREET":"麻學路","SECT":"一段","MAREA":" ","LANE":" ","ALLEY":" ","HOUSE_NO":"１３號八樓","E_COORD97":172231.37,"N_COORD97":2565027.6099999999,"ADDRESS":"麻學路一段１３號八樓","OBJECTID":549792},"geometry":{"x":172231.37000000011,"y":2565027.6100000013}},{"attributes":{"ID":549820,"DIS_CODE":0,"TOWNNAME":"麻豆區","LI":"新建里","LIN":"10鄰","STREET":"麻學路","SECT":"一段","MAREA":" ","LANE":" ","ALLEY":" ","HOUSE_NO":"１３號十一樓","E_COORD97":172231.37,"N_COORD97":2565027.6099999999,"ADDRESS":"麻學路一段１３號十一樓","OBJECTID":549793},"geometry":{"x":172231.37000000011,"y":2565027.6100000013}},{"attributes":{"ID":549821,"DIS_CODE":0,"TOWNNAME":"麻豆區","LI":"新建里","LIN":"10鄰","STREET":"麻學路","SECT":"一段","MAREA":" ","LANE":" ","ALLEY":" ","HOUSE_NO":"１３號十二樓","E_COORD97":172231.37,"N_COORD97":2565027.6099999999,"ADDRESS":"麻學路一段１３號十二樓","OBJECTID":549794},"geometry":{"x":172231.37000000011,"y":2565027.6100000013}},{"attributes":{"ID":549822,"DIS_CODE":0,"TOWNNAME":"麻豆區","LI":"新建里","LIN":"10鄰","STREET":"麻學路","SECT":"一段","MAREA":" ","LANE":" ","ALLEY":" ","HOUSE_NO":"１３號十樓","E_COORD97":172231.37,"N_COORD97":2565027.6099999999,"ADDRESS":"麻學路一段１３號十樓","OBJECTID":549795},"geometry":{"x":172231.37000000011,"y":2565027.6100000013}},{"attributes":{"ID":549823,"DIS_CODE":0,"TOWNNAME":"麻豆區","LI":"新建里","LIN":"10鄰","STREET":"麻學路","SECT":"一段","MAREA":" ","LANE":" ","ALLEY":" ","HOUSE_NO":"１３號五樓","E_COORD97":172231.37,"N_COORD97":2565027.6099999999,"ADDRESS":"麻學路一段１３號五樓","OBJECTID":549796},"geometry":{"x":172231.37000000011,"y":2565027.6100000013}},{"attributes":{"ID":549824,"DIS_CODE":0,"TOWNNAME":"麻豆區","LI":"新建里","LIN":"10鄰","STREET":"麻學路","SECT":"一段","MAREA":" ","LANE":" ","ALLEY":" ","HOUSE_NO":"１３號六樓","E_COORD97":172231.37,"N_COORD97":2565027.6099999999,"ADDRESS":"麻學路一段１３號六樓","OBJECTID":549797},"geometry":{"x":172231.37000000011,"y":2565027.6100000013}},{"attributes":{"ID":549825,"DIS_CODE":0,"TOWNNAME":"麻豆區","LI":"新建里","LIN":"10鄰","STREET":"麻學路","SECT":"一段","MAREA":" ","LANE":" ","ALLEY":" ","HOUSE_NO":"１３號四樓","E_COORD97":172231.37,"N_COORD97":2565027.6099999999,"ADDRESS":"麻學路一段１３號四樓","OBJECTID":549798},"geometry":{"x":172231.37000000011,"y":2565027.6100000013}},{"attributes":{"ID":549826,"DIS_CODE":0,"TOWNNAME":"麻豆區","LI":"新建里","LIN":"10鄰","STREET":"麻學路","SECT":"一段","MAREA":" ","LANE":" ","ALLEY":" ","HOUSE_NO":"１５號之１七樓","E_COORD97":172206.97,"N_COORD97":2565018.4399999999,"ADDRESS":"麻學路一段１５號之１七樓","OBJECTID":549799},"geometry":{"x":172206.96999999881,"y":2565018.4400000013}},{"attributes":{"ID":549827,"DIS_CODE":0,"TOWNNAME":"麻豆區","LI":"新建里","LIN":"10鄰","STREET":"麻學路","SECT":"一段","MAREA":" ","LANE":" ","ALLEY":" ","HOUSE_NO":"１５號之１九樓","E_COORD97":172206.97,"N_COORD97":2565018.4399999999,"ADDRESS":"麻學路一段１５號之１九樓","OBJECTID":549800},"geometry":{"x":172206.96999999881,"y":2565018.4400000013}}]}