{"displayFieldName":"TOWNNAME","fieldAliases":{"ID":"ID","DIS_CODE":"DIS_CODE","TOWNNAME":"TOWNNAME","LI":"LI","LIN":"LIN","STREET":"STREET","SECT":"SECT","MAREA":"MAREA","LANE":"LANE","ALLEY":"ALLEY","HOUSE_NO":"HOUSE_NO","E_COORD97":"E_COORD97","N_COORD97":"N_COORD97","ADDRESS":"ADDRESS","OBJECTID":"OBJECTID"},"geometryType":"esriGeometryPoint","spatialReference":{"wkid":102443,"latestWkid":3826},"fields":[{"name":"ID","type":"esriFieldTypeDouble","alias":"ID"},{"name":"DIS_CODE","type":"esriFieldTypeInteger","alias":"DIS_CODE"},{"name":"TOWNNAME","type":"esriFieldTypeString","alias":"TOWNNAME","length":8},{"name":"LI","type":"esriFieldTypeString","alias":"LI","length":8},{"name":"LIN","type":"esriFieldTypeString","alias":"LIN","length":12},{"name":"STREET","type":"esriFieldTypeString","alias":"STREET","length":20},{"name":"SECT","type":"esriFieldTypeString","alias":"SECT","length":8},{"name":"MAREA","type":"esriFieldTypeString","alias":"MAREA","length":12},{"name":"LANE","type":"esriFieldTypeString","alias":"LANE","length":10},{"name":"ALLEY","type":"esriFieldTypeString","alias":"ALLEY","length":10},{"name":"HOUSE_NO","type":"esriFieldTypeString","alias":"HOUSE_NO","length":20},{"name":"E_COORD97","type":"esriFieldTypeDouble","alias":"E_COORD97"},{"name":"N_COORD97","type":"esriFieldTypeDouble","alias":"N_COORD97"},{"name":"ADDRESS","type":"esriFieldTypeString","alias":"ADDRESS","length":50},{"name":"OBJECTID","type":"esriFieldTypeOID","alias":"OBJECTID"}],"features":[{"attributes":{"ID":655828,"DIS_CODE":0,"TOWNNAME":"關廟區","LI":"深坑里","LIN":"1鄰","STREET":"南雄路","SECT":"一段","MAREA":" ","LANE":" ","ALLEY":" ","HOUSE_NO":"１５號","E_COORD97":182455.97085700001,"N_COORD97":2536692.0737899998,"ADDRESS":"南雄路一段１５號","OBJECTID":655801},"geometry":{"x":182455.97085700184,"y":2536692.0737890005}},{"attributes":{"ID":655829,"DIS_CODE":0,"TOWNNAME":"中西區","LI":"三合里","LIN":"5鄰","STREET":"海安路","SECT":"二段","MAREA":" ","LANE":" ","ALLEY":" ","HOUSE_NO":"３４７號","E_COORD97":167750.554256,"N_COORD97":2544351.5581499999,"ADDRESS":"海安路二段３４７號","OBJECTID":655802},"geometry":{"x":167750.55425600056,"y":2544351.5581500027}},{"attributes":{"ID":655830,"DIS_CODE":0,"TOWNNAME":"中西區","LI":"三合里","LIN":"5鄰","STREET":"海安路","SECT":"二段","MAREA":" ","LANE":" ","ALLEY":" ","HOUSE_NO":"３４９號","E_COORD97":167749.494882,"N_COORD97":2544353.6748199998,"ADDRESS":"海安路二段３４９號","OBJECTID":655803},"geometry":{"x":167749.49488200061,"y":2544353.6748159993}},{"attributes":{"ID":655831,"DIS_CODE":0,"TOWNNAME":"中西區","LI":"三合里","LIN":"5鄰","STREET":"海安路","SECT":"二段","MAREA":" ","LANE":" ","ALLEY":" ","HOUSE_NO":"３５１號","E_COORD97":167751.18987999999,"N_COORD97":2544353.6748199998,"ADDRESS":"海安路二段３５１號","OBJECTID":655804},"geometry":{"x":167751.18988000043,"y":2544353.6748159993}},{"attributes":{"ID":655832,"DIS_CODE":0,"TOWNNAME":"中西區","LI":"三合里","LIN":"5鄰","STREET":"海安路","SECT":"二段","MAREA":" ","LANE":" ","ALLEY":" ","HOUSE_NO":"３５３號","E_COORD97":167750.13050599999,"N_COORD97":2544355.57981,"ADDRESS":"海安路二段３５３號","OBJECTID":655805},"geometry":{"x":167750.13050600048,"y":2544355.5798150022}},{"attributes":{"ID":655833,"DIS_CODE":0,"TOWNNAME":"中西區","LI":"三合里","LIN":"5鄰","STREET":"海安路","SECT":"二段","MAREA":" ","LANE":" ","ALLEY":" ","HOUSE_NO":"３５５號","E_COORD97":167751.18987999999,"N_COORD97":2544356.0031499998,"ADDRESS":"海安路二段３５５號","OBJECTID":655806},"geometry":{"x":167751.18988000043,"y":2544356.0031480007}},{"attributes":{"ID":655834,"DIS_CODE":0,"TOWNNAME":"中西區","LI":"三合里","LIN":"5鄰","STREET":"海安路","SECT":"二段","MAREA":" ","LANE":" ","ALLEY":" ","HOUSE_NO":"３５７號","E_COORD97":167752.461128,"N_COORD97":2544356.63815,"ADDRESS":"海安路二段３５７號","OBJECTID":655807},"geometry":{"x":167752.4611280011,"y":2544356.6381480005}},{"attributes":{"ID":655835,"DIS_CODE":0,"TOWNNAME":"中西區","LI":"三合里","LIN":"5鄰","STREET":"海安路","SECT":"二段","MAREA":" ","LANE":" ","ALLEY":" ","HOUSE_NO":"３５９號","E_COORD97":167750.97800500001,"N_COORD97":2544358.1198100001,"ADDRESS":"海安路二段３５９號","OBJECTID":655808},"geometry":{"x":167750.97800500039,"y":2544358.119814001}},{"attributes":{"ID":655836,"DIS_CODE":0,"TOWNNAME":"中西區","LI":"三合里","LIN":"5鄰","STREET":"海安路","SECT":"二段","MAREA":" ","LANE":" ","ALLEY":" ","HOUSE_NO":"３６１號","E_COORD97":167752.673003,"N_COORD97":2544358.3314800002,"ADDRESS":"海安路二段３６１號","OBJECTID":655809},"geometry":{"x":167752.67300300114,"y":2544358.3314800002}},{"attributes":{"ID":655837,"DIS_CODE":0,"TOWNNAME":"中西區","LI":"三合里","LIN":"5鄰","STREET":"海安路","SECT":"二段","MAREA":" ","LANE":" ","ALLEY":" ","HOUSE_NO":"３６３號","E_COORD97":167750.554256,"N_COORD97":2544359.8131499998,"ADDRESS":"海安路二段３６３號","OBJECTID":655810},"geometry":{"x":167750.55425600056,"y":2544359.8131460007}},{"attributes":{"ID":655838,"DIS_CODE":0,"TOWNNAME":"中西區","LI":"三合里","LIN":"5鄰","STREET":"海安路","SECT":"二段","MAREA":" ","LANE":" ","ALLEY":" ","HOUSE_NO":"３６５號","E_COORD97":167753.09675200001,"N_COORD97":2544359.6014800002,"ADDRESS":"海安路二段３６５號","OBJECTID":655811},"geometry":{"x":167753.0967520019,"y":2544359.6014789995}},{"attributes":{"ID":655839,"DIS_CODE":0,"TOWNNAME":"中西區","LI":"三合里","LIN":"5鄰","STREET":"海安路","SECT":"二段","MAREA":" ","LANE":" ","ALLEY":" ","HOUSE_NO":"３６７號","E_COORD97":167753.30862699999,"N_COORD97":2544359.6014800002,"ADDRESS":"海安路二段３６７號","OBJECTID":655812},"geometry":{"x":167753.30862700101,"y":2544359.6014789995}},{"attributes":{"ID":655840,"DIS_CODE":0,"TOWNNAME":"中西區","LI":"三合里","LIN":"5鄰","STREET":"海安路","SECT":"二段","MAREA":" ","LANE":" ","ALLEY":" ","HOUSE_NO":"３６９號","E_COORD97":167753.73237700001,"N_COORD97":2544360.0248099999,"ADDRESS":"海安路二段３６９號","OBJECTID":655813},"geometry":{"x":167753.73237700108,"y":2544360.024813002}},{"attributes":{"ID":655841,"DIS_CODE":0,"TOWNNAME":"關廟區","LI":"深坑里","LIN":"1鄰","STREET":"南雄路","SECT":"一段","MAREA":" ","LANE":" ","ALLEY":" ","HOUSE_NO":"６號","E_COORD97":182599.10779400001,"N_COORD97":2536667.40821,"ADDRESS":"南雄路一段６號","OBJECTID":655814},"geometry":{"x":182599.10779400077,"y":2536667.4082079995}},{"attributes":{"ID":655842,"DIS_CODE":0,"TOWNNAME":"關廟區","LI":"深坑里","LIN":"1鄰","STREET":"南雄路","SECT":"一段","MAREA":" ","LANE":"１２巷","ALLEY":" ","HOUSE_NO":"６１號","E_COORD97":182566.70117799999,"N_COORD97":2536833.3547899998,"ADDRESS":"南雄路一段１２巷６１號","OBJECTID":655815},"geometry":{"x":182566.70117800031,"y":2536833.3547850009}},{"attributes":{"ID":655843,"DIS_CODE":0,"TOWNNAME":"中西區","LI":"三合里","LIN":"5鄰","STREET":"海安路","SECT":"二段","MAREA":" ","LANE":" ","ALLEY":" ","HOUSE_NO":"３７１號","E_COORD97":167753.520502,"N_COORD97":2544360.23648,"ADDRESS":"海安路二段３７１號","OBJECTID":655816},"geometry":{"x":167753.52050200105,"y":2544360.2364789993}},{"attributes":{"ID":655844,"DIS_CODE":0,"TOWNNAME":"中西區","LI":"三合里","LIN":"5鄰","STREET":"海安路","SECT":"二段","MAREA":" ","LANE":" ","ALLEY":" ","HOUSE_NO":"３７３號","E_COORD97":167753.30862699999,"N_COORD97":2544360.0248099999,"ADDRESS":"海安路二段３７３號","OBJECTID":655817},"geometry":{"x":167753.30862700101,"y":2544360.024813002}},{"attributes":{"ID":655845,"DIS_CODE":0,"TOWNNAME":"中西區","LI":"三合里","LIN":"5鄰","STREET":"海安路","SECT":"二段","MAREA":" ","LANE":" ","ALLEY":" ","HOUSE_NO":"３７５號","E_COORD97":167753.73237700001,"N_COORD97":2544360.23648,"ADDRESS":"海安路二段３７５號","OBJECTID":655818},"geometry":{"x":167753.73237700108,"y":2544360.2364789993}},{"attributes":{"ID":655846,"DIS_CODE":0,"TOWNNAME":"中西區","LI":"三合里","LIN":"5鄰","STREET":"海安路","SECT":"二段","MAREA":" ","LANE":" ","ALLEY":" ","HOUSE_NO":"３７７號","E_COORD97":167753.73237700001,"N_COORD97":2544360.4481500001,"ADDRESS":"海安路二段３７７號","OBJECTID":655819},"geometry":{"x":167753.73237700108,"y":2544360.4481460005}},{"attributes":{"ID":655847,"DIS_CODE":0,"TOWNNAME":"關廟區","LI":"北花里","LIN":"1鄰","STREET":"四維街","SECT":" ","MAREA":" ","LANE":" ","ALLEY":" ","HOUSE_NO":"４４２號","E_COORD97":181898.18509099999,"N_COORD97":2540493.0945799998,"ADDRESS":"四維街４４２號","OBJECTID":655820},"geometry":{"x":181898.18509100098,"y":2540493.0945819989}},{"attributes":{"ID":655848,"DIS_CODE":0,"TOWNNAME":"中西區","LI":"三合里","LIN":"5鄰","STREET":"海安路","SECT":"二段","MAREA":" ","LANE":" ","ALLEY":" ","HOUSE_NO":"３７９號","E_COORD97":167753.94425100001,"N_COORD97":2544360.8714800002,"ADDRESS":"海安路二段３７９號","OBJECTID":655821},"geometry":{"x":167753.94425099902,"y":2544360.8714790028}},{"attributes":{"ID":655849,"DIS_CODE":0,"TOWNNAME":"關廟區","LI":"深坑里","LIN":"13鄰","STREET":"南雄路","SECT":"一段","MAREA":" ","LANE":"９８巷","ALLEY":" ","HOUSE_NO":"１９９號","E_COORD97":182981.632942,"N_COORD97":2537102.3829700002,"ADDRESS":"南雄路一段９８巷１９９號","OBJECTID":655822},"geometry":{"x":182981.63294200227,"y":2537102.3829740025}},{"attributes":{"ID":655850,"DIS_CODE":0,"TOWNNAME":"中西區","LI":"三合里","LIN":"5鄰","STREET":"海安路","SECT":"二段","MAREA":" ","LANE":" ","ALLEY":" ","HOUSE_NO":"３８１號","E_COORD97":167753.94425100001,"N_COORD97":2544361.2948099999,"ADDRESS":"海安路二段３８１號","OBJECTID":655823},"geometry":{"x":167753.94425099902,"y":2544361.2948120013}},{"attributes":{"ID":655851,"DIS_CODE":0,"TOWNNAME":"仁德區","LI":"仁德里","LIN":"17鄰","STREET":"文華路","SECT":"三段","MAREA":" ","LANE":"４２８巷","ALLEY":" ","HOUSE_NO":"５２號","E_COORD97":172544.509441,"N_COORD97":2541192.7120599998,"ADDRESS":"文華路三段４２８巷５２號","OBJECTID":655824},"geometry":{"x":172544.50944099948,"y":2541192.7120629996}},{"attributes":{"ID":655852,"DIS_CODE":0,"TOWNNAME":"仁德區","LI":"仁德里","LIN":"17鄰","STREET":"文華路","SECT":"三段","MAREA":" ","LANE":"４２８巷","ALLEY":" ","HOUSE_NO":"５６號","E_COORD97":172551.92481200001,"N_COORD97":2541191.0187300001,"ADDRESS":"文華路三段４２８巷５６號","OBJECTID":655825},"geometry":{"x":172551.92481200211,"y":2541191.0187309999}},{"attributes":{"ID":655853,"DIS_CODE":0,"TOWNNAME":"仁德區","LI":"仁德里","LIN":"17鄰","STREET":"文華路","SECT":"三段","MAREA":" ","LANE":"４２８巷","ALLEY":" ","HOUSE_NO":"５８號","E_COORD97":172558.916448,"N_COORD97":2541189.1137299999,"ADDRESS":"文華路三段４２８巷５８號","OBJECTID":655826},"geometry":{"x":172558.91644799989,"y":2541189.1137320008}},{"attributes":{"ID":655854,"DIS_CODE":0,"TOWNNAME":"仁德區","LI":"仁德里","LIN":"17鄰","STREET":"文華路","SECT":"三段","MAREA":" ","LANE":"４２８巷","ALLEY":" ","HOUSE_NO":"６０號","E_COORD97":172566.119951,"N_COORD97":2541187.4204000002,"ADDRESS":"文華路三段４２８巷６０號","OBJECTID":655827},"geometry":{"x":172566.11995100137,"y":2541187.420398999}},{"attributes":{"ID":655855,"DIS_CODE":0,"TOWNNAME":"仁德區","LI":"仁德里","LIN":"17鄰","STREET":"文華路","SECT":"三段","MAREA":" ","LANE":"４２８巷","ALLEY":" ","HOUSE_NO":"６２號","E_COORD97":172573.959057,"N_COORD97":2541186.5737299998,"ADDRESS":"文華路三段４２８巷６２號","OBJECTID":655828},"geometry":{"x":172573.95905700047,"y":2541186.5737330019}},{"attributes":{"ID":655856,"DIS_CODE":0,"TOWNNAME":"關廟區","LI":"深坑里","LIN":"13鄰","STREET":"南雄路","SECT":"一段","MAREA":" ","LANE":"９８巷","ALLEY":" ","HOUSE_NO":"２１６號","E_COORD97":183022.948729,"N_COORD97":2536989.9483500002,"ADDRESS":"南雄路一段９８巷２１６號","OBJECTID":655829},"geometry":{"x":183022.94872900099,"y":2536989.9483470041}},{"attributes":{"ID":655857,"DIS_CODE":0,"TOWNNAME":"仁德區","LI":"仁德里","LIN":"17鄰","STREET":"文華路","SECT":"三段","MAREA":" ","LANE":"４２８巷","ALLEY":" ","HOUSE_NO":"６６號","E_COORD97":172581.37442899999,"N_COORD97":2541185.0920699998,"ADDRESS":"文華路三段４２８巷６６號","OBJECTID":655830},"geometry":{"x":172581.37442899961,"y":2541185.0920669995}},{"attributes":{"ID":655858,"DIS_CODE":0,"TOWNNAME":"仁德區","LI":"仁德里","LIN":"17鄰","STREET":"文華路","SECT":"三段","MAREA":" ","LANE":"４２８巷","ALLEY":" ","HOUSE_NO":"６８號","E_COORD97":172588.366064,"N_COORD97":2541182.9753999999,"ADDRESS":"文華路三段４２８巷６８號","OBJECTID":655831},"geometry":{"x":172588.36606400087,"y":2541182.9754019994}},{"attributes":{"ID":655859,"DIS_CODE":0,"TOWNNAME":"仁德區","LI":"仁德里","LIN":"17鄰","STREET":"文華路","SECT":"三段","MAREA":" ","LANE":"４２８巷","ALLEY":" ","HOUSE_NO":"７０號","E_COORD97":172595.78143500001,"N_COORD97":2541181.91707,"ADDRESS":"文華路三段４２８巷７０號","OBJECTID":655832},"geometry":{"x":172595.78143500071,"y":2541181.9170690011}},{"attributes":{"ID":655860,"DIS_CODE":0,"TOWNNAME":"仁德區","LI":"仁德里","LIN":"17鄰","STREET":"文華路","SECT":"三段","MAREA":" ","LANE":"４２８巷","ALLEY":" ","HOUSE_NO":"７２號","E_COORD97":172602.34933500001,"N_COORD97":2541180.8587400001,"ADDRESS":"文華路三段４２８巷７２號","OBJECTID":655833},"geometry":{"x":172602.34933500085,"y":2541180.8587360028}},{"attributes":{"ID":655861,"DIS_CODE":0,"TOWNNAME":"仁德區","LI":"仁德里","LIN":"17鄰","STREET":"文華路","SECT":"三段","MAREA":" ","LANE":"４２８巷","ALLEY":" ","HOUSE_NO":"７６號","E_COORD97":172608.917235,"N_COORD97":2541178.9537399998,"ADDRESS":"文華路三段４２８巷７６號","OBJECTID":655834},"geometry":{"x":172608.91723500099,"y":2541178.9537370019}},{"attributes":{"ID":655862,"DIS_CODE":0,"TOWNNAME":"仁德區","LI":"仁德里","LIN":"17鄰","STREET":"文華路","SECT":"三段","MAREA":" ","LANE":"４２８巷","ALLEY":" ","HOUSE_NO":"７８號","E_COORD97":172615.90887099999,"N_COORD97":2541178.1070699999,"ADDRESS":"文華路三段４２８巷７８號","OBJECTID":655835},"geometry":{"x":172615.90887100156,"y":2541178.1070710011}},{"attributes":{"ID":655863,"DIS_CODE":0,"TOWNNAME":"中西區","LI":"三合里","LIN":"5鄰","STREET":"海安路","SECT":"二段","MAREA":" ","LANE":" ","ALLEY":" ","HOUSE_NO":"３８３號","E_COORD97":167755.00362500001,"N_COORD97":2544362.5648099999,"ADDRESS":"海安路二段３８３號","OBJECTID":655836},"geometry":{"x":167755.0036249999,"y":2544362.5648110025}},{"attributes":{"ID":655864,"DIS_CODE":0,"TOWNNAME":"仁德區","LI":"仁德里","LIN":"17鄰","STREET":"文華路","SECT":"三段","MAREA":" ","LANE":"４２８巷","ALLEY":" ","HOUSE_NO":"８０號","E_COORD97":172622.688639,"N_COORD97":2541176.8370699999,"ADDRESS":"文華路三段４２８巷８０號","OBJECTID":655837},"geometry":{"x":172622.68863900192,"y":2541176.8370720018}},{"attributes":{"ID":655865,"DIS_CODE":0,"TOWNNAME":"仁德區","LI":"仁德里","LIN":"17鄰","STREET":"文華路","SECT":"三段","MAREA":" ","LANE":"４２８巷","ALLEY":" ","HOUSE_NO":"８２號","E_COORD97":172630.10401000001,"N_COORD97":2541173.8737400002,"ADDRESS":"文華路三段４２８巷８２號","OBJECTID":655838},"geometry":{"x":172630.10401000176,"y":2541173.8737400025}},{"attributes":{"ID":655866,"DIS_CODE":0,"TOWNNAME":"仁德區","LI":"仁德里","LIN":"17鄰","STREET":"文華路","SECT":"三段","MAREA":" ","LANE":"４２８巷","ALLEY":" ","HOUSE_NO":"８６號","E_COORD97":172636.67191,"N_COORD97":2541173.0270699998,"ADDRESS":"文華路三段４２８巷８６號","OBJECTID":655839},"geometry":{"x":172636.6719100019,"y":2541173.0270740017}},{"attributes":{"ID":655867,"DIS_CODE":0,"TOWNNAME":"中西區","LI":"三合里","LIN":"5鄰","STREET":"海安路","SECT":"二段","MAREA":" ","LANE":" ","ALLEY":" ","HOUSE_NO":"３８５號","E_COORD97":167754.79175,"N_COORD97":2544363.6231399998,"ADDRESS":"海安路二段３８５號","OBJECTID":655840},"geometry":{"x":167754.79174999986,"y":2544363.6231439989}},{"attributes":{"ID":655868,"DIS_CODE":0,"TOWNNAME":"關廟區","LI":"深坑里","LIN":"13鄰","STREET":"南雄路","SECT":"一段","MAREA":" ","LANE":"１９５巷","ALLEY":"６２弄","HOUSE_NO":"３０號","E_COORD97":181877.173652,"N_COORD97":2536879.45841,"ADDRESS":"南雄路一段１９５巷６２弄３０號","OBJECTID":655841},"geometry":{"x":181877.17365199979,"y":2536879.4584059995}},{"attributes":{"ID":655869,"DIS_CODE":0,"TOWNNAME":"仁德區","LI":"仁德里","LIN":"16鄰","STREET":"文華路","SECT":"三段","MAREA":" ","LANE":"４２８巷","ALLEY":" ","HOUSE_NO":"９０號","E_COORD97":172653.62132000001,"N_COORD97":2541144.4520800002,"ADDRESS":"文華路三段４２８巷９０號","OBJECTID":655842},"geometry":{"x":172653.62132000085,"y":2541144.4520800002}},{"attributes":{"ID":655870,"DIS_CODE":0,"TOWNNAME":"仁德區","LI":"仁德里","LIN":"16鄰","STREET":"文華路","SECT":"三段","MAREA":" ","LANE":"４２８巷","ALLEY":" ","HOUSE_NO":"９２號","E_COORD97":172654.68066000001,"N_COORD97":2541151.22541,"ADDRESS":"文華路三段４２８巷９２號","OBJECTID":655843},"geometry":{"x":172654.68065999914,"y":2541151.2254100014}},{"attributes":{"ID":655871,"DIS_CODE":0,"TOWNNAME":"仁德區","LI":"仁德里","LIN":"16鄰","STREET":"文華路","SECT":"三段","MAREA":" ","LANE":"４２８巷","ALLEY":" ","HOUSE_NO":"９６號","E_COORD97":172656.16373999999,"N_COORD97":2541157.57541,"ADDRESS":"文華路三段４２８巷９６號","OBJECTID":655844},"geometry":{"x":172656.16374000069,"y":2541157.5754100028}},{"attributes":{"ID":655872,"DIS_CODE":0,"TOWNNAME":"仁德區","LI":"仁德里","LIN":"16鄰","STREET":"文華路","SECT":"三段","MAREA":" ","LANE":"４２８巷","ALLEY":" ","HOUSE_NO":"９８號","E_COORD97":172657.85868,"N_COORD97":2541164.1370700002,"ADDRESS":"文華路三段４２８巷９８號","OBJECTID":655845},"geometry":{"x":172657.85868000146,"y":2541164.1370700002}},{"attributes":{"ID":655873,"DIS_CODE":0,"TOWNNAME":"中西區","LI":"三合里","LIN":"5鄰","STREET":"海安路","SECT":"二段","MAREA":" ","LANE":" ","ALLEY":" ","HOUSE_NO":"３８７號","E_COORD97":167755.21549999999,"N_COORD97":2544364.04648,"ADDRESS":"海安路二段３８７號","OBJECTID":655846},"geometry":{"x":167755.2155000018,"y":2544364.046477003}},{"attributes":{"ID":655874,"DIS_CODE":0,"TOWNNAME":"仁德區","LI":"仁德里","LIN":"16鄰","STREET":"文華路","SECT":"三段","MAREA":" ","LANE":"４２８巷","ALLEY":" ","HOUSE_NO":"１００號","E_COORD97":172658.91802000001,"N_COORD97":2541170.9103999999,"ADDRESS":"文華路三段４２８巷１００號","OBJECTID":655847},"geometry":{"x":172658.91802000068,"y":2541170.9104000013}},{"attributes":{"ID":655875,"DIS_CODE":0,"TOWNNAME":"仁德區","LI":"仁德里","LIN":"16鄰","STREET":"文華路","SECT":"三段","MAREA":" ","LANE":"４２８巷","ALLEY":" ","HOUSE_NO":"１０２號","E_COORD97":172659.97735999999,"N_COORD97":2541178.5304,"ADDRESS":"文華路三段４２８巷１０２號","OBJECTID":655848},"geometry":{"x":172659.97736000177,"y":2541178.5304000024}},{"attributes":{"ID":655876,"DIS_CODE":0,"TOWNNAME":"中西區","LI":"三合里","LIN":"5鄰","STREET":"海安路","SECT":"二段","MAREA":" ","LANE":" ","ALLEY":" ","HOUSE_NO":"３８９號","E_COORD97":167755.42737399999,"N_COORD97":2544364.4698100002,"ADDRESS":"海安路二段３８９號","OBJECTID":655849},"geometry":{"x":167755.42737399973,"y":2544364.4698100016}},{"attributes":{"ID":655877,"DIS_CODE":0,"TOWNNAME":"仁德區","LI":"仁德里","LIN":"16鄰","STREET":"文華路","SECT":"三段","MAREA":" ","LANE":"４２８巷","ALLEY":" ","HOUSE_NO":"１０６號","E_COORD97":172660.82483,"N_COORD97":2541185.7270599999,"ADDRESS":"文華路三段４２８巷１０６號","OBJECTID":655850},"geometry":{"x":172660.82483000215,"y":2541185.7270599995}},{"attributes":{"ID":655878,"DIS_CODE":0,"TOWNNAME":"仁德區","LI":"仁德里","LIN":"16鄰","STREET":"文華路","SECT":"三段","MAREA":" ","LANE":"４２８巷","ALLEY":" ","HOUSE_NO":"１０８號","E_COORD97":172662.30790000001,"N_COORD97":2541192.07706,"ADDRESS":"文華路三段４２８巷１０８號","OBJECTID":655851},"geometry":{"x":172662.30790000129,"y":2541192.077060001}},{"attributes":{"ID":655879,"DIS_CODE":0,"TOWNNAME":"仁德區","LI":"仁德里","LIN":"16鄰","STREET":"文華路","SECT":"三段","MAREA":" ","LANE":"４２８巷","ALLEY":" ","HOUSE_NO":"１１０號","E_COORD97":172663.36723999999,"N_COORD97":2541199.0620599999,"ADDRESS":"文華路三段４２８巷１１０號","OBJECTID":655852},"geometry":{"x":172663.36723999958,"y":2541199.0620600022}},{"attributes":{"ID":655880,"DIS_CODE":0,"TOWNNAME":"中西區","LI":"三合里","LIN":"5鄰","STREET":"海安路","SECT":"二段","MAREA":" ","LANE":" ","ALLEY":" ","HOUSE_NO":"３９１號","E_COORD97":167755.85112400001,"N_COORD97":2544365.9514799998,"ADDRESS":"海安路二段３９１號","OBJECTID":655853},"geometry":{"x":167755.8511239998,"y":2544365.9514760021}},{"attributes":{"ID":655881,"DIS_CODE":0,"TOWNNAME":"仁德區","LI":"仁德里","LIN":"16鄰","STREET":"文華路","SECT":"三段","MAREA":" ","LANE":"４２８巷","ALLEY":" ","HOUSE_NO":"１１２號","E_COORD97":172664.00284,"N_COORD97":2541206.2587199998,"ADDRESS":"文華路三段４２８巷１１２號","OBJECTID":655854},"geometry":{"x":172664.00284000114,"y":2541206.2587199993}},{"attributes":{"ID":655882,"DIS_CODE":0,"TOWNNAME":"仁德區","LI":"仁德里","LIN":"16鄰","STREET":"文華路","SECT":"三段","MAREA":" ","LANE":"４２８巷","ALLEY":" ","HOUSE_NO":"１１６號","E_COORD97":172665.90964999999,"N_COORD97":2541213.2437100001,"ADDRESS":"文華路三段４２８巷１１６號","OBJECTID":655855},"geometry":{"x":172665.90965000074,"y":2541213.2437100019}},{"attributes":{"ID":655883,"DIS_CODE":0,"TOWNNAME":"關廟區","LI":"深坑里","LIN":"13鄰","STREET":"南雄路","SECT":"一段","MAREA":" ","LANE":"１９５巷","ALLEY":" ","HOUSE_NO":"４３號","E_COORD97":182002.24624400001,"N_COORD97":2536968.2525200001,"ADDRESS":"南雄路一段１９５巷４３號","OBJECTID":655856},"geometry":{"x":182002.2462440012,"y":2536968.2525250018}},{"attributes":{"ID":655884,"DIS_CODE":0,"TOWNNAME":"仁德區","LI":"仁德里","LIN":"16鄰","STREET":"文華路","SECT":"三段","MAREA":" ","LANE":"４２８巷","ALLEY":" ","HOUSE_NO":"１１８號","E_COORD97":172666.75711999999,"N_COORD97":2541219.8053799998,"ADDRESS":"文華路三段４２８巷１１８號","OBJECTID":655857},"geometry":{"x":172666.75712000113,"y":2541219.8053800035}},{"attributes":{"ID":655885,"DIS_CODE":0,"TOWNNAME":"中西區","LI":"三合里","LIN":"5鄰","STREET":"海安路","SECT":"二段","MAREA":" ","LANE":" ","ALLEY":" ","HOUSE_NO":"３９３號","E_COORD97":167755.85112400001,"N_COORD97":2544367.2214799998,"ADDRESS":"海安路二段３９３號","OBJECTID":655858},"geometry":{"x":167755.8511239998,"y":2544367.2214750014}},{"attributes":{"ID":655886,"DIS_CODE":0,"TOWNNAME":"仁德區","LI":"仁德里","LIN":"16鄰","STREET":"文華路","SECT":"三段","MAREA":" ","LANE":"４２８巷","ALLEY":" ","HOUSE_NO":"１２０號","E_COORD97":172667.81646,"N_COORD97":2541226.57871,"ADDRESS":"文華路三段４２８巷１２０號","OBJECTID":655859},"geometry":{"x":172667.81645999942,"y":2541226.5787099991}},{"attributes":{"ID":655887,"DIS_CODE":0,"TOWNNAME":"關廟區","LI":"深坑里","LIN":"13鄰","STREET":"南雄路","SECT":"一段","MAREA":" ","LANE":"１９５巷","ALLEY":" ","HOUSE_NO":"４５號","E_COORD97":181987.41968699999,"N_COORD97":2536947.0858700001,"ADDRESS":"南雄路一段１９５巷４５號","OBJECTID":655860},"geometry":{"x":181987.41968700197,"y":2536947.0858699996}},{"attributes":{"ID":655888,"DIS_CODE":0,"TOWNNAME":"仁德區","LI":"仁德里","LIN":"16鄰","STREET":"文華路","SECT":"三段","MAREA":" ","LANE":"４２８巷","ALLEY":" ","HOUSE_NO":"１２２號","E_COORD97":172669.51141000001,"N_COORD97":2541233.5636999998,"ADDRESS":"文華路三段４２８巷１２２號","OBJECTID":655861},"geometry":{"x":172669.5114099998,"y":2541233.5637000035}},{"attributes":{"ID":655889,"DIS_CODE":0,"TOWNNAME":"仁德區","LI":"仁德里","LIN":"16鄰","STREET":"文華路","SECT":"三段","MAREA":" ","LANE":"４２８巷","ALLEY":" ","HOUSE_NO":"１２６號","E_COORD97":172670.99447999999,"N_COORD97":2541240.9720299998,"ADDRESS":"文華路三段４２８巷１２６號","OBJECTID":655862},"geometry":{"x":172670.99448000174,"y":2541240.9720300008}},{"attributes":{"ID":655890,"DIS_CODE":0,"TOWNNAME":"中西區","LI":"三合里","LIN":"5鄰","STREET":"海安路","SECT":"二段","MAREA":" ","LANE":" ","ALLEY":" ","HOUSE_NO":"３９５號","E_COORD97":167758.18174500001,"N_COORD97":2544370.18481,"ADDRESS":"海安路二段３９５號","OBJECTID":655863},"geometry":{"x":167758.18174500111,"y":2544370.1848070007}},{"attributes":{"ID":655891,"DIS_CODE":0,"TOWNNAME":"仁德區","LI":"仁德里","LIN":"16鄰","STREET":"文華路","SECT":"三段","MAREA":" ","LANE":"４２８巷","ALLEY":" ","HOUSE_NO":"１２８號","E_COORD97":172672.90129000001,"N_COORD97":2541247.5337,"ADDRESS":"文華路三段４２８巷１２８號","OBJECTID":655864},"geometry":{"x":172672.90129000042,"y":2541247.5337000005}},{"attributes":{"ID":655892,"DIS_CODE":0,"TOWNNAME":"仁德區","LI":"仁德里","LIN":"16鄰","STREET":"文華路","SECT":"三段","MAREA":" ","LANE":"４２８巷","ALLEY":" ","HOUSE_NO":"１３２號","E_COORD97":172675.65557,"N_COORD97":2541267.43035,"ADDRESS":"文華路三段４２８巷１３２號","OBJECTID":655865},"geometry":{"x":172675.65557000041,"y":2541267.4303500019}},{"attributes":{"ID":655893,"DIS_CODE":0,"TOWNNAME":"仁德區","LI":"仁德里","LIN":"16鄰","STREET":"文華路","SECT":"三段","MAREA":" ","LANE":"４２８巷","ALLEY":" ","HOUSE_NO":"１３６號","E_COORD97":172677.35050999999,"N_COORD97":2541273.7803500001,"ADDRESS":"文華路三段４２８巷１３６號","OBJECTID":655866},"geometry":{"x":172677.35051000025,"y":2541273.7803499997}},{"attributes":{"ID":655894,"DIS_CODE":0,"TOWNNAME":"仁德區","LI":"仁德里","LIN":"16鄰","STREET":"文華路","SECT":"三段","MAREA":" ","LANE":"４２８巷","ALLEY":" ","HOUSE_NO":"１３８號","E_COORD97":172679.25732,"N_COORD97":2541280.7653399999,"ADDRESS":"文華路三段４２８巷１３８號","OBJECTID":655867},"geometry":{"x":172679.25731999986,"y":2541280.7653400023}},{"attributes":{"ID":655895,"DIS_CODE":0,"TOWNNAME":"仁德區","LI":"仁德里","LIN":"16鄰","STREET":"文華路","SECT":"三段","MAREA":" ","LANE":"４２８巷","ALLEY":" ","HOUSE_NO":"１４０號","E_COORD97":172680.31666000001,"N_COORD97":2541287.11534,"ADDRESS":"文華路三段４２８巷１４０號","OBJECTID":655868},"geometry":{"x":172680.31666000094,"y":2541287.1153400037}},{"attributes":{"ID":655896,"DIS_CODE":0,"TOWNNAME":"仁德區","LI":"仁德里","LIN":"16鄰","STREET":"文華路","SECT":"三段","MAREA":" ","LANE":"４２８巷","ALLEY":" ","HOUSE_NO":"１４２號","E_COORD97":172681.58786999999,"N_COORD97":2541293.4653400001,"ADDRESS":"文華路三段４２８巷１４２號","OBJECTID":655869},"geometry":{"x":172681.58787000086,"y":2541293.4653399996}},{"attributes":{"ID":655897,"DIS_CODE":0,"TOWNNAME":"仁德區","LI":"仁德里","LIN":"16鄰","STREET":"文華路","SECT":"三段","MAREA":" ","LANE":"４２８巷","ALLEY":" ","HOUSE_NO":"１４６號","E_COORD97":172682.64721,"N_COORD97":2541300.2386699999,"ADDRESS":"文華路三段４２８巷１４６號","OBJECTID":655870},"geometry":{"x":172682.64721000008,"y":2541300.2386700008}},{"attributes":{"ID":655898,"DIS_CODE":0,"TOWNNAME":"仁德區","LI":"仁德里","LIN":"16鄰","STREET":"文華路","SECT":"三段","MAREA":" ","LANE":"４２８巷","ALLEY":" ","HOUSE_NO":"１４８號","E_COORD97":172683.70654000001,"N_COORD97":2541307.4353299998,"ADDRESS":"文華路三段４２８巷１４８號","OBJECTID":655871},"geometry":{"x":172683.70653999969,"y":2541307.4353299979}},{"attributes":{"ID":655899,"DIS_CODE":0,"TOWNNAME":"仁德區","LI":"仁德里","LIN":"16鄰","STREET":"文華路","SECT":"三段","MAREA":" ","LANE":"４２８巷","ALLEY":" ","HOUSE_NO":"１５０號","E_COORD97":172685.61335,"N_COORD97":2541313.9969899999,"ADDRESS":"文華路三段４２８巷１５０號","OBJECTID":655872},"geometry":{"x":172685.61335000116,"y":2541313.9969900008}},{"attributes":{"ID":655900,"DIS_CODE":0,"TOWNNAME":"仁德區","LI":"仁德里","LIN":"16鄰","STREET":"文華路","SECT":"三段","MAREA":" ","LANE":"４２８巷","ALLEY":"１３０弄","HOUSE_NO":"１號","E_COORD97":172706.80012999999,"N_COORD97":2541263.1970199998,"ADDRESS":"文華路三段４２８巷１３０弄１號","OBJECTID":655873},"geometry":{"x":172706.80013000034,"y":2541263.1970199998}},{"attributes":{"ID":655901,"DIS_CODE":0,"TOWNNAME":"仁德區","LI":"仁德里","LIN":"16鄰","STREET":"文華路","SECT":"三段","MAREA":" ","LANE":"４２８巷","ALLEY":"１３０弄","HOUSE_NO":"３號","E_COORD97":172714.8511,"N_COORD97":2541260.8686899999,"ADDRESS":"文華路三段４２８巷１３０弄３號","OBJECTID":655874},"geometry":{"x":172714.85109999962,"y":2541260.868689999}},{"attributes":{"ID":655902,"DIS_CODE":0,"TOWNNAME":"仁德區","LI":"仁德里","LIN":"16鄰","STREET":"文華路","SECT":"三段","MAREA":" ","LANE":"４２８巷","ALLEY":"１３０弄","HOUSE_NO":"５號","E_COORD97":172722.47834,"N_COORD97":2541258.75202,"ADDRESS":"文華路三段４２８巷１３０弄５號","OBJECTID":655875},"geometry":{"x":172722.47834000178,"y":2541258.7520200014}},{"attributes":{"ID":655903,"DIS_CODE":0,"TOWNNAME":"仁德區","LI":"仁德里","LIN":"16鄰","STREET":"文華路","SECT":"三段","MAREA":" ","LANE":"４２８巷","ALLEY":"１３０弄","HOUSE_NO":"７號","E_COORD97":172730.74118000001,"N_COORD97":2541256.6353600002,"ADDRESS":"文華路三段４２８巷１３０弄７號","OBJECTID":655876},"geometry":{"x":172730.7411799999,"y":2541256.6353600007}},{"attributes":{"ID":655904,"DIS_CODE":0,"TOWNNAME":"中西區","LI":"三合里","LIN":"5鄰","STREET":"海安路","SECT":"二段","MAREA":" ","LANE":" ","ALLEY":" ","HOUSE_NO":"３９７號","E_COORD97":167759.029244,"N_COORD97":2544372.3014699998,"ADDRESS":"海安路二段３９７號","OBJECTID":655877},"geometry":{"x":167759.02924400102,"y":2544372.301473001}},{"attributes":{"ID":655905,"DIS_CODE":0,"TOWNNAME":"仁德區","LI":"仁德里","LIN":"16鄰","STREET":"文華路","SECT":"三段","MAREA":" ","LANE":"４２８巷","ALLEY":"１３０弄","HOUSE_NO":"９號","E_COORD97":172738.79216000001,"N_COORD97":2541254.5186899998,"ADDRESS":"文華路三段４２８巷１３０弄９號","OBJECTID":655878},"geometry":{"x":172738.79216000065,"y":2541254.5186899994}},{"attributes":{"ID":655906,"DIS_CODE":0,"TOWNNAME":"仁德區","LI":"仁德里","LIN":"16鄰","STREET":"文華路","SECT":"三段","MAREA":" ","LANE":"４２８巷","ALLEY":"１３０弄","HOUSE_NO":"１１號","E_COORD97":172748.11434,"N_COORD97":2541252.61369,"ADDRESS":"文華路三段４２８巷１３０弄１１號","OBJECTID":655879},"geometry":{"x":172748.11434000079,"y":2541252.61369}},{"attributes":{"ID":655907,"DIS_CODE":0,"TOWNNAME":"仁德區","LI":"仁德里","LIN":"16鄰","STREET":"文華路","SECT":"三段","MAREA":" ","LANE":"４２８巷","ALLEY":"１５２弄","HOUSE_NO":"２號","E_COORD97":172716.54603999999,"N_COORD97":2541306.1653300002,"ADDRESS":"文華路三段４２８巷１５２弄２號","OBJECTID":655880},"geometry":{"x":172716.54604000039,"y":2541306.1653300002}},{"attributes":{"ID":655908,"DIS_CODE":0,"TOWNNAME":"仁德區","LI":"仁德里","LIN":"16鄰","STREET":"文華路","SECT":"三段","MAREA":" ","LANE":"４２８巷","ALLEY":"１５２弄","HOUSE_NO":"６號","E_COORD97":172723.96142000001,"N_COORD97":2541303.4136700002,"ADDRESS":"文華路三段４２８巷１５２弄６號","OBJECTID":655881},"geometry":{"x":172723.96142000053,"y":2541303.4136699997}},{"attributes":{"ID":655909,"DIS_CODE":0,"TOWNNAME":"仁德區","LI":"仁德里","LIN":"16鄰","STREET":"文華路","SECT":"三段","MAREA":" ","LANE":"４２８巷","ALLEY":"１５２弄","HOUSE_NO":"８號","E_COORD97":172732.43612999999,"N_COORD97":2541300.8736700001,"ADDRESS":"文華路三段４２８巷１５２弄８號","OBJECTID":655882},"geometry":{"x":172732.43612999935,"y":2541300.8736700006}},{"attributes":{"ID":655910,"DIS_CODE":0,"TOWNNAME":"仁德區","LI":"仁德里","LIN":"16鄰","STREET":"文華路","SECT":"三段","MAREA":" ","LANE":"４２８巷","ALLEY":"１５２弄","HOUSE_NO":"１０號","E_COORD97":172740.27523,"N_COORD97":2541298.7570000002,"ADDRESS":"文華路三段４２８巷１５２弄１０號","OBJECTID":655883},"geometry":{"x":172740.27523000073,"y":2541298.7569999974}},{"attributes":{"ID":655911,"DIS_CODE":0,"TOWNNAME":"關廟區","LI":"深坑里","LIN":"13鄰","STREET":"南雄路","SECT":"一段","MAREA":" ","LANE":" ","ALLEY":" ","HOUSE_NO":"１７０號","E_COORD97":182015.00767200001,"N_COORD97":2537203.7844799999,"ADDRESS":"南雄路一段１７０號","OBJECTID":655884},"geometry":{"x":182015.00767200068,"y":2537203.7844810002}},{"attributes":{"ID":655912,"DIS_CODE":0,"TOWNNAME":"仁德區","LI":"仁德里","LIN":"16鄰","STREET":"文華路","SECT":"三段","MAREA":" ","LANE":"４２８巷","ALLEY":"１５２弄","HOUSE_NO":"１２號","E_COORD97":172747.90247599999,"N_COORD97":2541297.2753400002,"ADDRESS":"文華路三段４２８巷１５２弄１２號","OBJECTID":655885},"geometry":{"x":172747.90247599967,"y":2541297.275340002}},{"attributes":{"ID":655913,"DIS_CODE":0,"TOWNNAME":"仁德區","LI":"仁德里","LIN":"16鄰","STREET":"文華路","SECT":"三段","MAREA":" ","LANE":"４２８巷","ALLEY":"１５２弄","HOUSE_NO":"１６號","E_COORD97":172757.012789,"N_COORD97":2541295.79367,"ADDRESS":"文華路三段４２８巷１５２弄１６號","OBJECTID":655886},"geometry":{"x":172757.01278900076,"y":2541295.7936740015}},{"attributes":{"ID":655914,"DIS_CODE":0,"TOWNNAME":"中西區","LI":"三合里","LIN":"11鄰","STREET":"文賢路","SECT":" ","MAREA":" ","LANE":" ","ALLEY":" ","HOUSE_NO":"４２號之６","E_COORD97":167432.31843700001,"N_COORD97":2544529.4638899998,"ADDRESS":"文賢路４２號之６","OBJECTID":655887},"geometry":{"x":167432.31843700167,"y":2544529.4638880026}},{"attributes":{"ID":655915,"DIS_CODE":0,"TOWNNAME":"關廟區","LI":"深坑里","LIN":"13鄰","STREET":"南雄路","SECT":"一段","MAREA":" ","LANE":" ","ALLEY":" ","HOUSE_NO":"１９８號","E_COORD97":181990.570331,"N_COORD97":2537246.6734199999,"ADDRESS":"南雄路一段１９８號","OBJECTID":655888},"geometry":{"x":181990.57033099979,"y":2537246.6734160017}},{"attributes":{"ID":655916,"DIS_CODE":0,"TOWNNAME":"中西區","LI":"三合里","LIN":"11鄰","STREET":"文賢路","SECT":" ","MAREA":" ","LANE":" ","ALLEY":" ","HOUSE_NO":"４４號之１","E_COORD97":167430.41156400001,"N_COORD97":2544525.75972,"ADDRESS":"文賢路４４號之１","OBJECTID":655889},"geometry":{"x":167430.41156400088,"y":2544525.7597230002}},{"attributes":{"ID":655917,"DIS_CODE":0,"TOWNNAME":"中西區","LI":"三合里","LIN":"11鄰","STREET":"文賢路","SECT":" ","MAREA":" ","LANE":" ","ALLEY":" ","HOUSE_NO":"４６號之１","E_COORD97":167428.716567,"N_COORD97":2544520.3622300001,"ADDRESS":"文賢路４６號之１","OBJECTID":655890},"geometry":{"x":167428.71656700037,"y":2544520.3622260001}},{"attributes":{"ID":655918,"DIS_CODE":0,"TOWNNAME":"中西區","LI":"三合里","LIN":"11鄰","STREET":"文賢路","SECT":" ","MAREA":" ","LANE":" ","ALLEY":" ","HOUSE_NO":"５０號之１","E_COORD97":167417.487207,"N_COORD97":2544537.1897200001,"ADDRESS":"文賢路５０號之１","OBJECTID":655891},"geometry":{"x":167417.48720700108,"y":2544537.1897170022}},{"attributes":{"ID":655919,"DIS_CODE":0,"TOWNNAME":"中西區","LI":"三合里","LIN":"11鄰","STREET":"文賢路","SECT":" ","MAREA":" ","LANE":" ","ALLEY":" ","HOUSE_NO":"５０號之２","E_COORD97":167420.45345299999,"N_COORD97":2544536.1313800002,"ADDRESS":"文賢路５０號之２","OBJECTID":655892},"geometry":{"x":167420.4534529997,"y":2544536.1313840002}},{"attributes":{"ID":655920,"DIS_CODE":0,"TOWNNAME":"中西區","LI":"三合里","LIN":"11鄰","STREET":"文賢路","SECT":" ","MAREA":" ","LANE":" ","ALLEY":" ","HOUSE_NO":"５０號之３","E_COORD97":167421.93657600001,"N_COORD97":2544534.8613800001,"ADDRESS":"文賢路５０號之３","OBJECTID":655893},"geometry":{"x":167421.93657600041,"y":2544534.8613850009}},{"attributes":{"ID":655921,"DIS_CODE":0,"TOWNNAME":"中西區","LI":"三合里","LIN":"11鄰","STREET":"文賢路","SECT":" ","MAREA":" ","LANE":" ","ALLEY":" ","HOUSE_NO":"５０號之４","E_COORD97":167422.995949,"N_COORD97":2544532.9563899999,"ADDRESS":"文賢路５０號之４","OBJECTID":655894},"geometry":{"x":167422.99594900105,"y":2544532.9563859999}},{"attributes":{"ID":655922,"DIS_CODE":0,"TOWNNAME":"中西區","LI":"三合里","LIN":"9鄰","STREET":"金華路","SECT":"四段","MAREA":" ","LANE":" ","ALLEY":" ","HOUSE_NO":"１５２號","E_COORD97":167527.238308,"N_COORD97":2544487.2364099999,"ADDRESS":"金華路四段１５２號","OBJECTID":655895},"geometry":{"x":167527.23830799945,"y":2544487.2364109997}},{"attributes":{"ID":655923,"DIS_CODE":0,"TOWNNAME":"中西區","LI":"三合里","LIN":"9鄰","STREET":"金華路","SECT":"四段","MAREA":" ","LANE":" ","ALLEY":" ","HOUSE_NO":"１５４號","E_COORD97":167528.93330599999,"N_COORD97":2544492.9514100002,"ADDRESS":"金華路四段１５４號","OBJECTID":655896},"geometry":{"x":167528.9333060002,"y":2544492.9514070041}},{"attributes":{"ID":655924,"DIS_CODE":0,"TOWNNAME":"中西區","LI":"三合里","LIN":"9鄰","STREET":"民族路","SECT":"三段","MAREA":" ","LANE":"１７６巷","ALLEY":" ","HOUSE_NO":"１０號","E_COORD97":167538.467668,"N_COORD97":2544442.46893,"ADDRESS":"民族路三段１７６巷１０號","OBJECTID":655897},"geometry":{"x":167538.46766800154,"y":2544442.4689349998}},{"attributes":{"ID":655925,"DIS_CODE":0,"TOWNNAME":"中西區","LI":"三合里","LIN":"9鄰","STREET":"民族路","SECT":"三段","MAREA":" ","LANE":"１７６巷","ALLEY":" ","HOUSE_NO":"１２號","E_COORD97":167539.738916,"N_COORD97":2544442.2572699999,"ADDRESS":"民族路三段１７６巷１２號","OBJECTID":655898},"geometry":{"x":167539.73891600221,"y":2544442.2572680041}},{"attributes":{"ID":655926,"DIS_CODE":0,"TOWNNAME":"中西區","LI":"三合里","LIN":"6鄰","STREET":"民族路","SECT":"三段","MAREA":" ","LANE":"１４８巷","ALLEY":" ","HOUSE_NO":"１９號","E_COORD97":167563.04513499999,"N_COORD97":2544449.2422600002,"ADDRESS":"民族路三段１４８巷１９號","OBJECTID":655899},"geometry":{"x":167563.04513500072,"y":2544449.2422639988}},{"attributes":{"ID":655927,"DIS_CODE":0,"TOWNNAME":"中西區","LI":"三合里","LIN":"6鄰","STREET":"民族路","SECT":"三段","MAREA":" ","LANE":"１４８巷","ALLEY":" ","HOUSE_NO":"３６號","E_COORD97":167607.962574,"N_COORD97":2544442.0455999998,"ADDRESS":"民族路三段１４８巷３６號","OBJECTID":655900},"geometry":{"x":167607.96257399954,"y":2544442.0456020012}},{"attributes":{"ID":655928,"DIS_CODE":0,"TOWNNAME":"中西區","LI":"三合里","LIN":"6鄰","STREET":"民族路","SECT":"三段","MAREA":" ","LANE":"１４８巷","ALLEY":" ","HOUSE_NO":"３８號","E_COORD97":167609.44569699999,"N_COORD97":2544441.19894,"ADDRESS":"民族路三段１４８巷３８號","OBJECTID":655901},"geometry":{"x":167609.44569700025,"y":2544441.1989350002}},{"attributes":{"ID":655929,"DIS_CODE":0,"TOWNNAME":"中西區","LI":"三合里","LIN":"6鄰","STREET":"民族路","SECT":"三段","MAREA":" ","LANE":"１４８巷","ALLEY":" ","HOUSE_NO":"４０號","E_COORD97":167610.50507000001,"N_COORD97":2544439.7172699999,"ADDRESS":"民族路三段１４８巷４０號","OBJECTID":655902},"geometry":{"x":167610.50507000089,"y":2544439.7172699999}},{"attributes":{"ID":655930,"DIS_CODE":0,"TOWNNAME":"中西區","LI":"三合里","LIN":"6鄰","STREET":"民族路","SECT":"三段","MAREA":" ","LANE":"１４８巷","ALLEY":" ","HOUSE_NO":"４２號","E_COORD97":167611.988193,"N_COORD97":2544437.8122700001,"ADDRESS":"民族路三段１４８巷４２號","OBJECTID":655903},"geometry":{"x":167611.9881929988,"y":2544437.812270999}},{"attributes":{"ID":655931,"DIS_CODE":0,"TOWNNAME":"中西區","LI":"三合里","LIN":"7鄰","STREET":"信義街","SECT":" ","MAREA":" ","LANE":" ","ALLEY":" ","HOUSE_NO":"２６號","E_COORD97":167609.021947,"N_COORD97":2544474.3247500001,"ADDRESS":"信義街２６號","OBJECTID":655904},"geometry":{"x":167609.02194700018,"y":2544474.3247510009}},{"attributes":{"ID":655932,"DIS_CODE":0,"TOWNNAME":"中西區","LI":"三合里","LIN":"7鄰","STREET":"康樂街","SECT":" ","MAREA":" ","LANE":" ","ALLEY":" ","HOUSE_NO":"３７７號","E_COORD97":167660.719377,"N_COORD97":2544480.1455799998,"ADDRESS":"康樂街３７７號","OBJECTID":655905},"geometry":{"x":167660.71937699988,"y":2544480.1455809996}},{"attributes":{"ID":655933,"DIS_CODE":0,"TOWNNAME":"中西區","LI":"三合里","LIN":"7鄰","STREET":"忠孝街","SECT":" ","MAREA":" ","LANE":"９３巷","ALLEY":" ","HOUSE_NO":"２９號","E_COORD97":167660.507503,"N_COORD97":2544569.1513700001,"ADDRESS":"忠孝街９３巷２９號","OBJECTID":655906},"geometry":{"x":167660.50750300102,"y":2544569.1513659991}},{"attributes":{"ID":655934,"DIS_CODE":0,"TOWNNAME":"中西區","LI":"三合里","LIN":"7鄰","STREET":"信義街","SECT":" ","MAREA":" ","LANE":"４６巷","ALLEY":" ","HOUSE_NO":"３２號","E_COORD97":167649.066268,"N_COORD97":2544572.8555299998,"ADDRESS":"信義街４６巷３２號","OBJECTID":655907},"geometry":{"x":167649.06626799982,"y":2544572.8555310015}},{"attributes":{"ID":655935,"DIS_CODE":0,"TOWNNAME":"中西區","LI":"三合里","LIN":"7鄰","STREET":"信義街","SECT":" ","MAREA":" ","LANE":"４６巷","ALLEY":" ","HOUSE_NO":"３４號","E_COORD97":167650.76126599999,"N_COORD97":2544571.7971999999,"ADDRESS":"信義街４６巷３４號","OBJECTID":655908},"geometry":{"x":167650.76126600057,"y":2544571.7971979994}},{"attributes":{"ID":655936,"DIS_CODE":0,"TOWNNAME":"中西區","LI":"三合里","LIN":"13鄰","STREET":"金華路","SECT":"四段","MAREA":" ","LANE":" ","ALLEY":" ","HOUSE_NO":"１２３號","E_COORD97":167521.51769099999,"N_COORD97":2544541.4230499999,"ADDRESS":"金華路四段１２３號","OBJECTID":655909},"geometry":{"x":167521.51769100036,"y":2544541.4230480008}},{"attributes":{"ID":655937,"DIS_CODE":0,"TOWNNAME":"關廟區","LI":"北花里","LIN":"1鄰","STREET":"中正路","SECT":" ","MAREA":" ","LANE":"６５２巷","ALLEY":" ","HOUSE_NO":"１８號","E_COORD97":181827.83378700001,"N_COORD97":2540440.06012,"ADDRESS":"中正路６５２巷１８號","OBJECTID":655910},"geometry":{"x":181827.83378700167,"y":2540440.0601160005}},{"attributes":{"ID":655938,"DIS_CODE":0,"TOWNNAME":"中西區","LI":"三合里","LIN":"13鄰","STREET":"金華路","SECT":"四段","MAREA":" ","LANE":" ","ALLEY":" ","HOUSE_NO":"１２１號","E_COORD97":167521.09394200001,"N_COORD97":2544539.5180500001,"ADDRESS":"金華路四段１２１號","OBJECTID":655911},"geometry":{"x":167521.0939419996,"y":2544539.5180490017}},{"attributes":{"ID":655939,"DIS_CODE":0,"TOWNNAME":"中西區","LI":"三合里","LIN":"13鄰","STREET":"信義街","SECT":" ","MAREA":" ","LANE":" ","ALLEY":" ","HOUSE_NO":"８１號","E_COORD97":167447.99716599999,"N_COORD97":2544569.8922000001,"ADDRESS":"信義街８１號","OBJECTID":655912},"geometry":{"x":167447.99716599938,"y":2544569.8921990003}},{"attributes":{"ID":655940,"DIS_CODE":0,"TOWNNAME":"中西區","LI":"三合里","LIN":"7鄰","STREET":"康樂街","SECT":" ","MAREA":" ","LANE":" ","ALLEY":" ","HOUSE_NO":"３５８號","E_COORD97":167699.916199,"N_COORD97":2544522.2672299999,"ADDRESS":"康樂街３５８號","OBJECTID":655913},"geometry":{"x":167699.91619899962,"y":2544522.2672250029}},{"attributes":{"ID":655941,"DIS_CODE":0,"TOWNNAME":"中西區","LI":"三合里","LIN":"7鄰","STREET":"康樂街","SECT":" ","MAREA":" ","LANE":" ","ALLEY":" ","HOUSE_NO":"３５４號","E_COORD97":167697.797452,"N_COORD97":2544516.7638900001,"ADDRESS":"康樂街３５４號","OBJECTID":655914},"geometry":{"x":167697.7974520009,"y":2544516.7638950013}},{"attributes":{"ID":655942,"DIS_CODE":0,"TOWNNAME":"中西區","LI":"三合里","LIN":"7鄰","STREET":"康樂街","SECT":" ","MAREA":" ","LANE":" ","ALLEY":" ","HOUSE_NO":"３５２號","E_COORD97":167696.52620399999,"N_COORD97":2544514.6472299998,"ADDRESS":"康樂街３５２號","OBJECTID":655915},"geometry":{"x":167696.52620400023,"y":2544514.6472290009}},{"attributes":{"ID":655943,"DIS_CODE":0,"TOWNNAME":"中西區","LI":"三合里","LIN":"7鄰","STREET":"康樂街","SECT":" ","MAREA":" ","LANE":" ","ALLEY":" ","HOUSE_NO":"３５０號","E_COORD97":167696.10245499999,"N_COORD97":2544512.5305599999,"ADDRESS":"康樂街３５０號","OBJECTID":655916},"geometry":{"x":167696.10245500226,"y":2544512.530563999}},{"attributes":{"ID":655944,"DIS_CODE":0,"TOWNNAME":"中西區","LI":"三合里","LIN":"7鄰","STREET":"康樂街","SECT":" ","MAREA":" ","LANE":" ","ALLEY":" ","HOUSE_NO":"３４８號","E_COORD97":167695.46682999999,"N_COORD97":2544510.2022299999,"ADDRESS":"康樂街３４８號","OBJECTID":655917},"geometry":{"x":167695.46683000028,"y":2544510.2022310011}},{"attributes":{"ID":655945,"DIS_CODE":0,"TOWNNAME":"中西區","LI":"三合里","LIN":"7鄰","STREET":"康樂街","SECT":" ","MAREA":" ","LANE":" ","ALLEY":" ","HOUSE_NO":"３４６號","E_COORD97":167696.738079,"N_COORD97":2544507.4505699999,"ADDRESS":"康樂街３４６號","OBJECTID":655918},"geometry":{"x":167696.73807900026,"y":2544507.4505659994}},{"attributes":{"ID":655946,"DIS_CODE":0,"TOWNNAME":"中西區","LI":"三合里","LIN":"7鄰","STREET":"康樂街","SECT":" ","MAREA":" ","LANE":" ","ALLEY":" ","HOUSE_NO":"３９１號","E_COORD97":167677.245605,"N_COORD97":2544526.6063899999,"ADDRESS":"康樂街３９１號","OBJECTID":655919},"geometry":{"x":167677.24560500029,"y":2544526.6063890029}},{"attributes":{"ID":655947,"DIS_CODE":0,"TOWNNAME":"中西區","LI":"三合里","LIN":"7鄰","STREET":"康樂街","SECT":" ","MAREA":" ","LANE":" ","ALLEY":" ","HOUSE_NO":"３９５號","E_COORD97":167681.271225,"N_COORD97":2544537.8247199999,"ADDRESS":"康樂街３９５號","OBJECTID":655920},"geometry":{"x":167681.2712249998,"y":2544537.824717002}},{"attributes":{"ID":655948,"DIS_CODE":0,"TOWNNAME":"關廟區","LI":"北花里","LIN":"4鄰","STREET":"中正路","SECT":" ","MAREA":" ","LANE":"６８１巷","ALLEY":" ","HOUSE_NO":"２號","E_COORD97":181980.469014,"N_COORD97":2540373.1102399998,"ADDRESS":"中正路６８１巷２號","OBJECTID":655921},"geometry":{"x":181980.46901400108,"y":2540373.1102370005}},{"attributes":{"ID":655949,"DIS_CODE":0,"TOWNNAME":"中西區","LI":"三合里","LIN":"8鄰","STREET":"忠孝街","SECT":" ","MAREA":" ","LANE":"９３巷","ALLEY":" ","HOUSE_NO":"５０號","E_COORD97":167656.90563299999,"N_COORD97":2544602.2771800002,"ADDRESS":"忠孝街９３巷５０號","OBJECTID":655922},"geometry":{"x":167656.90563300066,"y":2544602.2771820035}},{"attributes":{"ID":655950,"DIS_CODE":0,"TOWNNAME":"中西區","LI":"三合里","LIN":"14鄰","STREET":"忠孝街","SECT":" ","MAREA":" ","LANE":"９３巷","ALLEY":" ","HOUSE_NO":"１０６號","E_COORD97":167554.146397,"N_COORD97":2544632.01633,"ADDRESS":"忠孝街９３巷１０６號","OBJECTID":655923},"geometry":{"x":167554.14639700204,"y":2544632.0163320024}},{"attributes":{"ID":655951,"DIS_CODE":0,"TOWNNAME":"中西區","LI":"三合里","LIN":"16鄰","STREET":"文賢路","SECT":" ","MAREA":" ","LANE":"１１０巷","ALLEY":" ","HOUSE_NO":"３號","E_COORD97":167456.47215399999,"N_COORD97":2544675.72548,"ADDRESS":"文賢路１１０巷３號","OBJECTID":655924},"geometry":{"x":167456.47215400077,"y":2544675.7254750021}},{"attributes":{"ID":655952,"DIS_CODE":0,"TOWNNAME":"中西區","LI":"三合里","LIN":"16鄰","STREET":"信義街","SECT":" ","MAREA":" ","LANE":"１０８巷","ALLEY":" ","HOUSE_NO":"７３號","E_COORD97":167518.33957000001,"N_COORD97":2544672.65631,"ADDRESS":"信義街１０８巷７３號","OBJECTID":655925},"geometry":{"x":167518.3395700017,"y":2544672.6563099995}},{"attributes":{"ID":655953,"DIS_CODE":0,"TOWNNAME":"中西區","LI":"三合里","LIN":"16鄰","STREET":"信義街","SECT":" ","MAREA":" ","LANE":"１０８巷","ALLEY":" ","HOUSE_NO":"５５號之１","E_COORD97":167478.93087400001,"N_COORD97":2544644.1871600002,"ADDRESS":"信義街１０８巷５５號之１","OBJECTID":655926},"geometry":{"x":167478.93087400123,"y":2544644.187159}},{"attributes":{"ID":655954,"DIS_CODE":0,"TOWNNAME":"中西區","LI":"三合里","LIN":"16鄰","STREET":"信義街","SECT":" ","MAREA":" ","LANE":"１０８巷","ALLEY":" ","HOUSE_NO":"５５號之２","E_COORD97":167478.718999,"N_COORD97":2544646.09216,"ADDRESS":"信義街１０８巷５５號之２","OBJECTID":655927},"geometry":{"x":167478.7189990012,"y":2544646.0921580009}},{"attributes":{"ID":655955,"DIS_CODE":0,"TOWNNAME":"中西區","LI":"三合里","LIN":"16鄰","STREET":"信義街","SECT":" ","MAREA":" ","LANE":"１０８巷","ALLEY":" ","HOUSE_NO":"５５號之３","E_COORD97":167476.388377,"N_COORD97":2544646.7271599998,"ADDRESS":"信義街１０８巷５５號之３","OBJECTID":655928},"geometry":{"x":167476.38837700058,"y":2544646.7271580007}},{"attributes":{"ID":655956,"DIS_CODE":0,"TOWNNAME":"中西區","LI":"三合里","LIN":"15鄰","STREET":"信義街","SECT":" ","MAREA":" ","LANE":"１２２巷","ALLEY":" ","HOUSE_NO":"１２號","E_COORD97":167456.684029,"N_COORD97":2544639.95383,"ADDRESS":"信義街１２２巷１２號","OBJECTID":655929},"geometry":{"x":167456.68402900081,"y":2544639.9538279977}},{"attributes":{"ID":655957,"DIS_CODE":0,"TOWNNAME":"中西區","LI":"三合里","LIN":"15鄰","STREET":"信義街","SECT":" ","MAREA":" ","LANE":"１２２巷","ALLEY":" ","HOUSE_NO":"１４號","E_COORD97":167459.014651,"N_COORD97":2544641.4354900001,"ADDRESS":"信義街１２２巷１４號","OBJECTID":655930},"geometry":{"x":167459.01465099864,"y":2544641.4354940001}},{"attributes":{"ID":655958,"DIS_CODE":0,"TOWNNAME":"中西區","LI":"三合里","LIN":"15鄰","STREET":"信義街","SECT":" ","MAREA":" ","LANE":"１２２巷","ALLEY":" ","HOUSE_NO":"１３號","E_COORD97":167453.717783,"N_COORD97":2544635.8263300001,"ADDRESS":"信義街１２２巷１３號","OBJECTID":655931},"geometry":{"x":167453.71778300218,"y":2544635.8263300024}},{"attributes":{"ID":655959,"DIS_CODE":0,"TOWNNAME":"中西區","LI":"三合里","LIN":"15鄰","STREET":"信義街","SECT":" ","MAREA":" ","LANE":"１２２巷","ALLEY":" ","HOUSE_NO":"１５號","E_COORD97":167454.777156,"N_COORD97":2544637.0963300001,"ADDRESS":"信義街１２２巷１５號","OBJECTID":655932},"geometry":{"x":167454.77715600003,"y":2544637.0963300001}},{"attributes":{"ID":655960,"DIS_CODE":0,"TOWNNAME":"中西區","LI":"三合里","LIN":"14鄰","STREET":"金華路","SECT":"四段","MAREA":" ","LANE":" ","ALLEY":" ","HOUSE_NO":"１４３號","E_COORD97":167539.31516699999,"N_COORD97":2544588.9421899999,"ADDRESS":"金華路四段１４３號","OBJECTID":655933},"geometry":{"x":167539.31516699959,"y":2544588.9421890005}},{"attributes":{"ID":655961,"DIS_CODE":0,"TOWNNAME":"安南區","LI":"海佃里","LIN":"22鄰","STREET":"海佃路","SECT":"一段","MAREA":" ","LANE":"３４５巷","ALLEY":" ","HOUSE_NO":"５號","E_COORD97":167046.226884,"N_COORD97":2547492.3534300001,"ADDRESS":"海佃路一段３４５巷５號","OBJECTID":655934},"geometry":{"x":167046.226884,"y":2547492.3534260001}},{"attributes":{"ID":655962,"DIS_CODE":0,"TOWNNAME":"中西區","LI":"三合里","LIN":"10鄰","STREET":"忠孝街","SECT":" ","MAREA":" ","LANE":"９３巷","ALLEY":" ","HOUSE_NO":"３３號","E_COORD97":167657.96500600001,"N_COORD97":2544568.8338700002,"ADDRESS":"忠孝街９３巷３３號","OBJECTID":655935},"geometry":{"x":167657.96500600129,"y":2544568.833866002}},{"attributes":{"ID":655963,"DIS_CODE":0,"TOWNNAME":"中西區","LI":"三合里","LIN":"10鄰","STREET":"忠孝街","SECT":" ","MAREA":" ","LANE":" ","ALLEY":" ","HOUSE_NO":"４７號之１","E_COORD97":167578.088239,"N_COORD97":2544593.4930199999,"ADDRESS":"忠孝街４７號之１","OBJECTID":655936},"geometry":{"x":167578.08823900111,"y":2544593.4930200018}},{"attributes":{"ID":655964,"DIS_CODE":0,"TOWNNAME":"中西區","LI":"三合里","LIN":"10鄰","STREET":"信義街","SECT":" ","MAREA":" ","LANE":"４６巷","ALLEY":" ","HOUSE_NO":"２３號","E_COORD97":167609.44569699999,"N_COORD97":2544558.0388699998,"ADDRESS":"信義街４６巷２３號","OBJECTID":655937},"geometry":{"x":167609.44569700025,"y":2544558.0388719998}},{"attributes":{"ID":655965,"DIS_CODE":0,"TOWNNAME":"中西區","LI":"保安里","LIN":"5鄰","STREET":"友愛街","SECT":" ","MAREA":" ","LANE":"２１５巷","ALLEY":" ","HOUSE_NO":"１６號","E_COORD97":167696.949953,"N_COORD97":2543611.5718800002,"ADDRESS":"友愛街２１５巷１６號","OBJECTID":655938},"geometry":{"x":167696.94995300099,"y":2543611.5718830004}},{"attributes":{"ID":655966,"DIS_CODE":0,"TOWNNAME":"中西區","LI":"保安里","LIN":"5鄰","STREET":"友愛街","SECT":" ","MAREA":" ","LANE":"２１５巷","ALLEY":" ","HOUSE_NO":"１８號","E_COORD97":167696.31432899999,"N_COORD97":2543609.2435499998,"ADDRESS":"友愛街２１５巷１８號","OBJECTID":655939},"geometry":{"x":167696.31432900019,"y":2543609.2435510028}},{"attributes":{"ID":655967,"DIS_CODE":0,"TOWNNAME":"關廟區","LI":"北花里","LIN":"13鄰","STREET":"中正路","SECT":" ","MAREA":" ","LANE":"２２１巷","ALLEY":"２弄","HOUSE_NO":"１號","E_COORD97":183355.096035,"N_COORD97":2540867.38943,"ADDRESS":"中正路２２１巷２弄１號","OBJECTID":655940},"geometry":{"x":183355.09603500087,"y":2540867.3894340005}},{"attributes":{"ID":655968,"DIS_CODE":0,"TOWNNAME":"關廟區","LI":"北花里","LIN":"13鄰","STREET":"中正路","SECT":" ","MAREA":" ","LANE":"２２１巷","ALLEY":"２弄","HOUSE_NO":"３號","E_COORD97":183348.949227,"N_COORD97":2540866.3311000001,"ADDRESS":"中正路２２１巷２弄３號","OBJECTID":655941},"geometry":{"x":183348.94922700152,"y":2540866.3311010022}},{"attributes":{"ID":655969,"DIS_CODE":0,"TOWNNAME":"中西區","LI":"保安里","LIN":"5鄰","STREET":"友愛街","SECT":" ","MAREA":" ","LANE":"２１５巷","ALLEY":" ","HOUSE_NO":"２０號","E_COORD97":167696.949953,"N_COORD97":2543606.59772,"ADDRESS":"友愛街２１５巷２０號","OBJECTID":655942},"geometry":{"x":167696.94995300099,"y":2543606.5977190025}},{"attributes":{"ID":655970,"DIS_CODE":0,"TOWNNAME":"中西區","LI":"保安里","LIN":"5鄰","STREET":"友愛街","SECT":" ","MAREA":" ","LANE":"２１５巷","ALLEY":" ","HOUSE_NO":"２２號","E_COORD97":167697.16182800001,"N_COORD97":2543604.9043899998,"ADDRESS":"友愛街２１５巷２２號","OBJECTID":655943},"geometry":{"x":167697.1618280001,"y":2543604.9043870047}},{"attributes":{"ID":655971,"DIS_CODE":0,"TOWNNAME":"中西區","LI":"保安里","LIN":"5鄰","STREET":"友愛街","SECT":" ","MAREA":" ","LANE":"２１５巷","ALLEY":" ","HOUSE_NO":"２４號","E_COORD97":167695.678705,"N_COORD97":2543602.99939,"ADDRESS":"友愛街２１５巷２４號","OBJECTID":655944},"geometry":{"x":167695.67870500032,"y":2543602.999388}},{"attributes":{"ID":655972,"DIS_CODE":0,"TOWNNAME":"關廟區","LI":"北花里","LIN":"13鄰","STREET":"中正路","SECT":" ","MAREA":" ","LANE":"２２１巷","ALLEY":"２弄","HOUSE_NO":"５號","E_COORD97":183344.922009,"N_COORD97":2540863.4736000001,"ADDRESS":"中正路２２１巷２弄５號","OBJECTID":655945},"geometry":{"x":183344.92200900055,"y":2540863.4736030009}},{"attributes":{"ID":655973,"DIS_CODE":0,"TOWNNAME":"中西區","LI":"保安里","LIN":"5鄰","STREET":"友愛街","SECT":" ","MAREA":" ","LANE":"２１５巷","ALLEY":" ","HOUSE_NO":"２６號","E_COORD97":167697.16182800001,"N_COORD97":2543601.94105,"ADDRESS":"友愛街２１５巷２６號","OBJECTID":655946},"geometry":{"x":167697.1618280001,"y":2543601.9410550017}},{"attributes":{"ID":655974,"DIS_CODE":0,"TOWNNAME":"關廟區","LI":"北花里","LIN":"13鄰","STREET":"中正路","SECT":" ","MAREA":" ","LANE":"２２１巷","ALLEY":"２弄","HOUSE_NO":"７號","E_COORD97":183341.106749,"N_COORD97":2540858.6052700002,"ADDRESS":"中正路２２１巷２弄７號","OBJECTID":655947},"geometry":{"x":183341.10674900003,"y":2540858.6052720025}},{"attributes":{"ID":655975,"DIS_CODE":0,"TOWNNAME":"中西區","LI":"保安里","LIN":"5鄰","STREET":"友愛街","SECT":" ","MAREA":" ","LANE":"２１５巷","ALLEY":" ","HOUSE_NO":"３０號","E_COORD97":167694.619332,"N_COORD97":2543601.3060599999,"ADDRESS":"友愛街２１５巷３０號","OBJECTID":655948},"geometry":{"x":167694.61933199968,"y":2543601.3060560022}},{"attributes":{"ID":655976,"DIS_CODE":0,"TOWNNAME":"中西區","LI":"保安里","LIN":"5鄰","STREET":"友愛街","SECT":" ","MAREA":" ","LANE":"２１５巷","ALLEY":" ","HOUSE_NO":"３４號","E_COORD97":167696.10245499999,"N_COORD97":2543600.0360599998,"ADDRESS":"友愛街２１５巷３４號","OBJECTID":655949},"geometry":{"x":167696.10245500226,"y":2543600.0360560026}},{"attributes":{"ID":655977,"DIS_CODE":0,"TOWNNAME":"中西區","LI":"保安里","LIN":"5鄰","STREET":"友愛街","SECT":" ","MAREA":" ","LANE":"２１５巷","ALLEY":" ","HOUSE_NO":"４２號之１","E_COORD97":167693.77183300001,"N_COORD97":2543598.9777199998,"ADDRESS":"友愛街２１５巷４２號之１","OBJECTID":655950},"geometry":{"x":167693.77183300164,"y":2543598.9777240027}},{"attributes":{"ID":655978,"DIS_CODE":0,"TOWNNAME":"關廟區","LI":"北花里","LIN":"13鄰","STREET":"中正路","SECT":" ","MAREA":" ","LANE":"２２１巷","ALLEY":"２弄","HOUSE_NO":"１１號","E_COORD97":183358.69933599999,"N_COORD97":2540837.5444499999,"ADDRESS":"中正路２２１巷２弄１１號","OBJECTID":655951},"geometry":{"x":183358.69933599979,"y":2540837.5444500018}},{"attributes":{"ID":655979,"DIS_CODE":0,"TOWNNAME":"中西區","LI":"保安里","LIN":"6鄰","STREET":"友愛街","SECT":" ","MAREA":" ","LANE":"２１５巷","ALLEY":" ","HOUSE_NO":"５號","E_COORD97":167699.704325,"N_COORD97":2543604.5868899999,"ADDRESS":"友愛街２１５巷５號","OBJECTID":655952},"geometry":{"x":167699.70432500076,"y":2543604.586887002}},{"attributes":{"ID":655980,"DIS_CODE":0,"TOWNNAME":"中西區","LI":"保安里","LIN":"6鄰","STREET":"友愛街","SECT":" ","MAREA":" ","LANE":"２１５巷","ALLEY":" ","HOUSE_NO":"９號","E_COORD97":167699.49244999999,"N_COORD97":2543602.47022,"ADDRESS":"友愛街２１５巷９號","OBJECTID":655953},"geometry":{"x":167699.49245000165,"y":2543602.470222}},{"attributes":{"ID":655981,"DIS_CODE":0,"TOWNNAME":"中西區","LI":"保安里","LIN":"6鄰","STREET":"友愛街","SECT":" ","MAREA":" ","LANE":"２１５巷","ALLEY":" ","HOUSE_NO":"１３號","E_COORD97":167699.49244999999,"N_COORD97":2543599.0835600002,"ADDRESS":"友愛街２１５巷１３號","OBJECTID":655954},"geometry":{"x":167699.49245000165,"y":2543599.0835570004}},{"attributes":{"ID":655982,"DIS_CODE":0,"TOWNNAME":"關廟區","LI":"新埔里","LIN":"9鄰","STREET":"新埔二街","SECT":" ","MAREA":" ","LANE":"７２巷","ALLEY":" ","HOUSE_NO":"６０號","E_COORD97":181728.755878,"N_COORD97":2541294.3116899999,"ADDRESS":"新埔二街７２巷６０號","OBJECTID":655955},"geometry":{"x":181728.75587800052,"y":2541294.3116900008}},{"attributes":{"ID":655983,"DIS_CODE":0,"TOWNNAME":"中西區","LI":"保安里","LIN":"8鄰","STREET":"府前路","SECT":"二段","MAREA":" ","LANE":"４０巷","ALLEY":"２０弄","HOUSE_NO":"１號","E_COORD97":167596.521339,"N_COORD97":2543542.0394199998,"ADDRESS":"府前路二段４０巷２０弄１號","OBJECTID":655956},"geometry":{"x":167596.52133900113,"y":2543542.0394210014}},{"attributes":{"ID":655984,"DIS_CODE":0,"TOWNNAME":"中西區","LI":"保安里","LIN":"8鄰","STREET":"府前路","SECT":"二段","MAREA":" ","LANE":"４０巷","ALLEY":"２０弄","HOUSE_NO":"２號","E_COORD97":167594.82634199999,"N_COORD97":2543544.79109,"ADDRESS":"府前路二段４０巷２０弄２號","OBJECTID":655957},"geometry":{"x":167594.82634199969,"y":2543544.7910860013}},{"attributes":{"ID":655985,"DIS_CODE":0,"TOWNNAME":"中西區","LI":"保安里","LIN":"8鄰","STREET":"府前路","SECT":"二段","MAREA":" ","LANE":"４０巷","ALLEY":"２０弄","HOUSE_NO":"３號","E_COORD97":167589.95322299999,"N_COORD97":2543544.6587999999,"ADDRESS":"府前路二段４０巷２０弄３號","OBJECTID":655958},"geometry":{"x":167589.95322300028,"y":2543544.6587949991}},{"attributes":{"ID":655986,"DIS_CODE":0,"TOWNNAME":"中西區","LI":"保安里","LIN":"8鄰","STREET":"府前路","SECT":"二段","MAREA":" ","LANE":"４０巷","ALLEY":"２０弄","HOUSE_NO":"４號","E_COORD97":167589.52947400001,"N_COORD97":2543546.9871299998,"ADDRESS":"府前路二段４０巷２０弄４號","OBJECTID":655959},"geometry":{"x":167589.52947400045,"y":2543546.9871270023}},{"attributes":{"ID":655987,"DIS_CODE":0,"TOWNNAME":"關廟區","LI":"北花里","LIN":"13鄰","STREET":"中正路","SECT":" ","MAREA":" ","LANE":"２６５巷","ALLEY":"１弄","HOUSE_NO":"２號","E_COORD97":183280.168572,"N_COORD97":2540849.8475700002,"ADDRESS":"中正路２６５巷１弄２號","OBJECTID":655960},"geometry":{"x":183280.16857200023,"y":2540849.8475680035}},{"attributes":{"ID":655988,"DIS_CODE":0,"TOWNNAME":"關廟區","LI":"北花里","LIN":"13鄰","STREET":"中正路","SECT":" ","MAREA":" ","LANE":"２６５巷","ALLEY":"１弄","HOUSE_NO":"６號","E_COORD97":183284.83166699999,"N_COORD97":2540851.3292299998,"ADDRESS":"中正路２６５巷１弄６號","OBJECTID":655961},"geometry":{"x":183284.83166700043,"y":2540851.3292339984}},{"attributes":{"ID":655989,"DIS_CODE":0,"TOWNNAME":"關廟區","LI":"北花里","LIN":"13鄰","STREET":"中正路","SECT":" ","MAREA":" ","LANE":"２６５巷","ALLEY":" ","HOUSE_NO":"９號","E_COORD97":183279.320737,"N_COORD97":2540833.1259099999,"ADDRESS":"中正路２６５巷９號","OBJECTID":655962},"geometry":{"x":183279.32073700055,"y":2540833.125911003}},{"attributes":{"ID":655990,"DIS_CODE":0,"TOWNNAME":"善化區","LI":"南關里","LIN":"6鄰","STREET":"光復路","SECT":" ","MAREA":" ","LANE":" ","ALLEY":" ","HOUSE_NO":"２７３號","E_COORD97":177154.451474,"N_COORD97":2558539.8192099999,"ADDRESS":"光復路２７３號","OBJECTID":655963},"geometry":{"x":177154.4514740007,"y":2558539.8192139994}},{"attributes":{"ID":655991,"DIS_CODE":0,"TOWNNAME":"中西區","LI":"保安里","LIN":"7鄰","STREET":"海安路","SECT":"一段","MAREA":" ","LANE":" ","ALLEY":" ","HOUSE_NO":"１８６號","E_COORD97":167550.89787300001,"N_COORD97":2543538.2307500001,"ADDRESS":"海安路一段１８６號","OBJECTID":655964},"geometry":{"x":167550.89787300117,"y":2543538.230750002}},{"attributes":{"ID":655992,"DIS_CODE":0,"TOWNNAME":"中西區","LI":"保安里","LIN":"7鄰","STREET":"海安路","SECT":"一段","MAREA":" ","LANE":"１９０巷","ALLEY":" ","HOUSE_NO":"１號","E_COORD97":167550.685998,"N_COORD97":2543541.6174099999,"ADDRESS":"海安路一段１９０巷１號","OBJECTID":655965},"geometry":{"x":167550.68599800114,"y":2543541.6174139995}},{"attributes":{"ID":655993,"DIS_CODE":0,"TOWNNAME":"中西區","LI":"保安里","LIN":"7鄰","STREET":"海安路","SECT":"一段","MAREA":" ","LANE":"１９０巷","ALLEY":" ","HOUSE_NO":"３號","E_COORD97":167552.804745,"N_COORD97":2543540.9824199998,"ADDRESS":"海安路一段１９０巷３號","OBJECTID":655966},"geometry":{"x":167552.80474499986,"y":2543540.9824150037}},{"attributes":{"ID":655994,"DIS_CODE":0,"TOWNNAME":"中西區","LI":"保安里","LIN":"7鄰","STREET":"海安路","SECT":"一段","MAREA":" ","LANE":"１９０巷","ALLEY":" ","HOUSE_NO":"５號","E_COORD97":167554.71161699999,"N_COORD97":2543542.2524100002,"ADDRESS":"海安路一段１９０巷５號","OBJECTID":655967},"geometry":{"x":167554.7116170004,"y":2543542.2524139993}},{"attributes":{"ID":655995,"DIS_CODE":0,"TOWNNAME":"西港區","LI":"港東里","LIN":"1鄰","STREET":" ","SECT":" ","MAREA":"\u25A0張\u25A0","LANE":" ","ALLEY":" ","HOUSE_NO":"６之５號","E_COORD97":169294.57014699999,"N_COORD97":2557765.9730600002,"ADDRESS":"\u25A0張\u25A0６之５號","OBJECTID":655968},"geometry":{"x":169294.57014700025,"y":2557765.9730560035}},{"attributes":{"ID":655996,"DIS_CODE":0,"TOWNNAME":"中西區","LI":"保安里","LIN":"7鄰","STREET":"海安路","SECT":"一段","MAREA":" ","LANE":"１９０巷","ALLEY":" ","HOUSE_NO":"１５號","E_COORD97":167557.042239,"N_COORD97":2543545.21575,"ADDRESS":"海安路一段１９０巷１５號","OBJECTID":655969},"geometry":{"x":167557.04223900195,"y":2543545.2157460004}},{"attributes":{"ID":655997,"DIS_CODE":0,"TOWNNAME":"中西區","LI":"保安里","LIN":"7鄰","STREET":"海安路","SECT":"一段","MAREA":" ","LANE":"１９０巷","ALLEY":" ","HOUSE_NO":"１７號","E_COORD97":167558.949112,"N_COORD97":2543547.5440799999,"ADDRESS":"海安路一段１９０巷１７號","OBJECTID":655970},"geometry":{"x":167558.94911199994,"y":2543547.5440779999}},{"attributes":{"ID":655998,"DIS_CODE":0,"TOWNNAME":"中西區","LI":"保安里","LIN":"7鄰","STREET":"海安路","SECT":"一段","MAREA":" ","LANE":" ","ALLEY":" ","HOUSE_NO":"１９２號","E_COORD97":167550.685998,"N_COORD97":2543543.94575,"ADDRESS":"海安路一段１９２號","OBJECTID":655971},"geometry":{"x":167550.68599800114,"y":2543543.9457470011}},{"attributes":{"ID":655999,"DIS_CODE":0,"TOWNNAME":"中西區","LI":"保安里","LIN":"6鄰","STREET":"海安路","SECT":"一段","MAREA":" ","LANE":" ","ALLEY":" ","HOUSE_NO":"２２６號","E_COORD97":167552.59286999999,"N_COORD97":2543547.7557399999,"ADDRESS":"海安路一段２２６號","OBJECTID":655972},"geometry":{"x":167552.59286999982,"y":2543547.7557440009}},{"attributes":{"ID":656000,"DIS_CODE":0,"TOWNNAME":"中西區","LI":"保安里","LIN":"6鄰","STREET":"海安路","SECT":"一段","MAREA":" ","LANE":" ","ALLEY":" ","HOUSE_NO":"２３０號","E_COORD97":167553.652244,"N_COORD97":2543550.0840799999,"ADDRESS":"海安路一段２３０號","OBJECTID":655973},"geometry":{"x":167553.65224399976,"y":2543550.0840770025}},{"attributes":{"ID":656001,"DIS_CODE":0,"TOWNNAME":"中西區","LI":"保安里","LIN":"5鄰","STREET":"海安路","SECT":"一段","MAREA":" ","LANE":"２３８巷","ALLEY":" ","HOUSE_NO":"３號","E_COORD97":167554.923492,"N_COORD97":2543553.4707399998,"ADDRESS":"海安路一段２３８巷３號","OBJECTID":655974},"geometry":{"x":167554.92349200044,"y":2543553.470741}},{"attributes":{"ID":656002,"DIS_CODE":0,"TOWNNAME":"西港區","LI":"港東里","LIN":"1鄰","STREET":" ","SECT":" ","MAREA":"\u25A0張\u25A0","LANE":" ","ALLEY":" ","HOUSE_NO":"６之３號","E_COORD97":169291.391989,"N_COORD97":2557765.6555599999,"ADDRESS":"\u25A0張\u25A0６之３號","OBJECTID":655975},"geometry":{"x":169291.39198900107,"y":2557765.6555560008}},{"attributes":{"ID":656003,"DIS_CODE":0,"TOWNNAME":"中西區","LI":"保安里","LIN":"5鄰","STREET":"海安路","SECT":"一段","MAREA":" ","LANE":"２３８巷","ALLEY":" ","HOUSE_NO":"７號","E_COORD97":167557.25411400001,"N_COORD97":2543553.2590800002,"ADDRESS":"海安路一段２３８巷７號","OBJECTID":655976},"geometry":{"x":167557.25411400106,"y":2543553.2590750027}},{"attributes":{"ID":656004,"DIS_CODE":0,"TOWNNAME":"關廟區","LI":"深坑里","LIN":"13鄰","STREET":"南雄路","SECT":"一段","MAREA":" ","LANE":" ","ALLEY":" ","HOUSE_NO":"２９９號","E_COORD97":181889.01136900001,"N_COORD97":2537370.6806100002,"ADDRESS":"南雄路一段２９９號","OBJECTID":655977},"geometry":{"x":181889.01136900019,"y":2537370.6806120034}},{"attributes":{"ID":656005,"DIS_CODE":0,"TOWNNAME":"中西區","LI":"保安里","LIN":"13鄰","STREET":"海安路","SECT":"一段","MAREA":" ","LANE":" ","ALLEY":" ","HOUSE_NO":"２８２號","E_COORD97":167554.71161699999,"N_COORD97":2543559.1857400001,"ADDRESS":"海安路一段２８２號","OBJECTID":655978},"geometry":{"x":167554.7116170004,"y":2543559.1857380029}},{"attributes":{"ID":656006,"DIS_CODE":0,"TOWNNAME":"中西區","LI":"保安里","LIN":"13鄰","STREET":"海安路","SECT":"一段","MAREA":" ","LANE":" ","ALLEY":" ","HOUSE_NO":"２８６號","E_COORD97":167555.98286600001,"N_COORD97":2543563.9482399998,"ADDRESS":"海安路一段２８６號","OBJECTID":655979},"geometry":{"x":167555.98286600038,"y":2543563.9482359998}},{"attributes":{"ID":656007,"DIS_CODE":0,"TOWNNAME":"新市區","LI":"新和里","LIN":"11鄰","STREET":"仁愛街","SECT":" ","MAREA":" ","LANE":" ","ALLEY":" ","HOUSE_NO":"１５６之３號","E_COORD97":177582.11843199999,"N_COORD97":2552651.8267600001,"ADDRESS":"仁愛街１５６之３號","OBJECTID":655980},"geometry":{"x":177582.11843200121,"y":2552651.8267630041}},{"attributes":{"ID":656008,"DIS_CODE":0,"TOWNNAME":"中西區","LI":"保安里","LIN":"13鄰","STREET":"海安路","SECT":"一段","MAREA":" ","LANE":" ","ALLEY":" ","HOUSE_NO":"２８８號","E_COORD97":167556.19474000001,"N_COORD97":2543566.2765700002,"ADDRESS":"海安路一段２８８號","OBJECTID":655981},"geometry":{"x":167556.19474000111,"y":2543566.276568003}},{"attributes":{"ID":656009,"DIS_CODE":0,"TOWNNAME":"中西區","LI":"保安里","LIN":"13鄰","STREET":"海安路","SECT":"一段","MAREA":" ","LANE":" ","ALLEY":" ","HOUSE_NO":"２９０號","E_COORD97":167557.67786299999,"N_COORD97":2543568.39323,"ADDRESS":"海安路一段２９０號","OBJECTID":655982},"geometry":{"x":167557.67786299996,"y":2543568.3932329994}},{"attributes":{"ID":656010,"DIS_CODE":0,"TOWNNAME":"中西區","LI":"保安里","LIN":"13鄰","STREET":"海安路","SECT":"一段","MAREA":" ","LANE":" ","ALLEY":" ","HOUSE_NO":"２９２號","E_COORD97":167559.160986,"N_COORD97":2543569.6632300001,"ADDRESS":"海安路一段２９２號","OBJECTID":655983},"geometry":{"x":167559.16098599974,"y":2543569.6632330026}},{"attributes":{"ID":656011,"DIS_CODE":0,"TOWNNAME":"中西區","LI":"保安里","LIN":"13鄰","STREET":"海安路","SECT":"一段","MAREA":" ","LANE":" ","ALLEY":" ","HOUSE_NO":"２９６號","E_COORD97":167560.008485,"N_COORD97":2543572.2032300001,"ADDRESS":"海安路一段２９６號","OBJECTID":655984},"geometry":{"x":167560.00848500058,"y":2543572.2032309994}},{"attributes":{"ID":656012,"DIS_CODE":0,"TOWNNAME":"新營區","LI":"延平里","LIN":"8鄰","STREET":"復興路","SECT":" ","MAREA":" ","LANE":" ","ALLEY":" ","HOUSE_NO":"３３之１號","E_COORD97":179692.21431000001,"N_COORD97":2577987.9556399998,"ADDRESS":"復興路３３號之２","OBJECTID":655985},"geometry":{"x":179692.21431000065,"y":2577987.9556400012}},{"attributes":{"ID":656013,"DIS_CODE":0,"TOWNNAME":"新營區","LI":"延平里","LIN":"8鄰","STREET":"復興路","SECT":" ","MAREA":" ","LANE":" ","ALLEY":" ","HOUSE_NO":"３５號","E_COORD97":179684.161227,"N_COORD97":2577992.18897,"ADDRESS":"復興路３５號","OBJECTID":655986},"geometry":{"x":179684.16122700181,"y":2577992.1889750008}},{"attributes":{"ID":656014,"DIS_CODE":0,"TOWNNAME":"中西區","LI":"保安里","LIN":"13鄰","STREET":"海安路","SECT":"一段","MAREA":" ","LANE":" ","ALLEY":" ","HOUSE_NO":"２９８號","E_COORD97":167560.64410899999,"N_COORD97":2543575.1665599998,"ADDRESS":"海安路一段２９８號","OBJECTID":655987},"geometry":{"x":167560.64410900045,"y":2543575.1665630005}},{"attributes":{"ID":656015,"DIS_CODE":0,"TOWNNAME":"新營區","LI":"延平里","LIN":"8鄰","STREET":"復興路","SECT":" ","MAREA":" ","LANE":" ","ALLEY":" ","HOUSE_NO":"３９號","E_COORD97":179681.40622400001,"N_COORD97":2577993.6706400001,"ADDRESS":"復興路３９號","OBJECTID":655988},"geometry":{"x":179681.40622400027,"y":2577993.6706399992}},{"attributes":{"ID":656016,"DIS_CODE":0,"TOWNNAME":"中西區","LI":"保安里","LIN":"13鄰","STREET":"海安路","SECT":"一段","MAREA":" ","LANE":" ","ALLEY":" ","HOUSE_NO":"３００號","E_COORD97":167562.76285599999,"N_COORD97":2543576.2248999998,"ADDRESS":"海安路一段３００號","OBJECTID":655989},"geometry":{"x":167562.76285600103,"y":2543576.2248960044}},{"attributes":{"ID":656017,"DIS_CODE":0,"TOWNNAME":"新營區","LI":"延平里","LIN":"8鄰","STREET":"復興路","SECT":" ","MAREA":" ","LANE":" ","ALLEY":" ","HOUSE_NO":"３９之１號","E_COORD97":179677.80352700001,"N_COORD97":2577995.5756399999,"ADDRESS":"復興路３９之１號","OBJECTID":655990},"geometry":{"x":179677.80352700129,"y":2577995.575639002}},{"attributes":{"ID":656018,"DIS_CODE":0,"TOWNNAME":"中西區","LI":"保安里","LIN":"14鄰","STREET":"海安路","SECT":"一段","MAREA":" ","LANE":" ","ALLEY":" ","HOUSE_NO":"２０３號","E_COORD97":167541.36351,"N_COORD97":2543692.1652500001,"ADDRESS":"海安路一段２０３號","OBJECTID":655991},"geometry":{"x":167541.36351000052,"y":2543692.1652500033}},{"attributes":{"ID":656019,"DIS_CODE":0,"TOWNNAME":"新營區","LI":"延平里","LIN":"8鄰","STREET":"復興路","SECT":" ","MAREA":" ","LANE":" ","ALLEY":" ","HOUSE_NO":"４１號","E_COORD97":179674.62467700001,"N_COORD97":2577996.4223099998,"ADDRESS":"復興路４１號","OBJECTID":655992},"geometry":{"x":179674.62467700057,"y":2577996.4223059993}},{"attributes":{"ID":656020,"DIS_CODE":0,"TOWNNAME":"新營區","LI":"延平里","LIN":"8鄰","STREET":"復興路","SECT":" ","MAREA":" ","LANE":" ","ALLEY":" ","HOUSE_NO":"４３號","E_COORD97":179671.23390299999,"N_COORD97":2577998.7506400002,"ADDRESS":"復興路４３號","OBJECTID":655993},"geometry":{"x":179671.23390300106,"y":2577998.7506380007}},{"attributes":{"ID":656021,"DIS_CODE":0,"TOWNNAME":"中西區","LI":"保安里","LIN":"14鄰","STREET":"海安路","SECT":"一段","MAREA":" ","LANE":" ","ALLEY":" ","HOUSE_NO":"２０９號","E_COORD97":167541.575385,"N_COORD97":2543697.2452500002,"ADDRESS":"海安路一段２０９號","OBJECTID":655994},"geometry":{"x":167541.57538500056,"y":2543697.2452470008}},{"attributes":{"ID":656022,"DIS_CODE":0,"TOWNNAME":"新營區","LI":"延平里","LIN":"8鄰","STREET":"復興路","SECT":" ","MAREA":" ","LANE":" ","ALLEY":" ","HOUSE_NO":"４５號","E_COORD97":179667.84312999999,"N_COORD97":2578000.4439699999,"ADDRESS":"復興路４５號","OBJECTID":655995},"geometry":{"x":179667.84313000087,"y":2578000.4439700004}},{"attributes":{"ID":656023,"DIS_CODE":0,"TOWNNAME":"新營區","LI":"延平里","LIN":"8鄰","STREET":"復興路","SECT":" ","MAREA":" ","LANE":" ","ALLEY":" ","HOUSE_NO":"４９號","E_COORD97":179660.42581300001,"N_COORD97":2578003.8306399998,"ADDRESS":"復興路４９號","OBJECTID":655996},"geometry":{"x":179660.42581299972,"y":2578003.830635}},{"attributes":{"ID":656024,"DIS_CODE":0,"TOWNNAME":"中西區","LI":"保安里","LIN":"14鄰","STREET":"海安路","SECT":"一段","MAREA":" ","LANE":" ","ALLEY":" ","HOUSE_NO":"２１１號","E_COORD97":167541.78726000001,"N_COORD97":2543700.63191,"ADDRESS":"海安路一段２１１號","OBJECTID":655997},"geometry":{"x":167541.78726000059,"y":2543700.6319120023}},{"attributes":{"ID":656025,"DIS_CODE":0,"TOWNNAME":"關廟區","LI":"北花里","LIN":"13鄰","STREET":"中正路","SECT":" ","MAREA":" ","LANE":" ","ALLEY":" ","HOUSE_NO":"４１９號","E_COORD97":182888.69792400001,"N_COORD97":2540813.2452099998,"ADDRESS":"中正路４１９號","OBJECTID":655998},"geometry":{"x":182888.69792400114,"y":2540813.2452090047}},{"attributes":{"ID":656026,"DIS_CODE":0,"TOWNNAME":"中西區","LI":"保安里","LIN":"13鄰","STREET":"海安路","SECT":"一段","MAREA":" ","LANE":" ","ALLEY":" ","HOUSE_NO":"２７８號","E_COORD97":167547.507877,"N_COORD97":2543727.3193199998,"ADDRESS":"海安路一段２７８號","OBJECTID":655999},"geometry":{"x":167547.50787700061,"y":2543727.3193150014}},{"attributes":{"ID":656027,"DIS_CODE":0,"TOWNNAME":"關廟區","LI":"深坑里","LIN":"13鄰","STREET":"南雄路","SECT":"一段","MAREA":" ","LANE":" ","ALLEY":" ","HOUSE_NO":"３０３號","E_COORD97":181880.75085000001,"N_COORD97":2537382.2680700002,"ADDRESS":"南雄路一段３０３號","OBJECTID":656000},"geometry":{"x":181880.75085000042,"y":2537382.268070003}}]}