{"displayFieldName":"TOWNNAME","fieldAliases":{"ID":"ID","DIS_CODE":"DIS_CODE","TOWNNAME":"TOWNNAME","LI":"LI","LIN":"LIN","STREET":"STREET","SECT":"SECT","MAREA":"MAREA","LANE":"LANE","ALLEY":"ALLEY","HOUSE_NO":"HOUSE_NO","E_COORD97":"E_COORD97","N_COORD97":"N_COORD97","ADDRESS":"ADDRESS","OBJECTID":"OBJECTID"},"geometryType":"esriGeometryPoint","spatialReference":{"wkid":102443,"latestWkid":3826},"fields":[{"name":"ID","type":"esriFieldTypeDouble","alias":"ID"},{"name":"DIS_CODE","type":"esriFieldTypeInteger","alias":"DIS_CODE"},{"name":"TOWNNAME","type":"esriFieldTypeString","alias":"TOWNNAME","length":8},{"name":"LI","type":"esriFieldTypeString","alias":"LI","length":8},{"name":"LIN","type":"esriFieldTypeString","alias":"LIN","length":12},{"name":"STREET","type":"esriFieldTypeString","alias":"STREET","length":20},{"name":"SECT","type":"esriFieldTypeString","alias":"SECT","length":8},{"name":"MAREA","type":"esriFieldTypeString","alias":"MAREA","length":12},{"name":"LANE","type":"esriFieldTypeString","alias":"LANE","length":10},{"name":"ALLEY","type":"esriFieldTypeString","alias":"ALLEY","length":10},{"name":"HOUSE_NO","type":"esriFieldTypeString","alias":"HOUSE_NO","length":20},{"name":"E_COORD97","type":"esriFieldTypeDouble","alias":"E_COORD97"},{"name":"N_COORD97","type":"esriFieldTypeDouble","alias":"N_COORD97"},{"name":"ADDRESS","type":"esriFieldTypeString","alias":"ADDRESS","length":50},{"name":"OBJECTID","type":"esriFieldTypeOID","alias":"OBJECTID"}],"features":[{"attributes":{"ID":512228,"DIS_CODE":0,"TOWNNAME":"學甲區","LI":"仁得里","LIN":"1鄰","STREET":"建國路","SECT":" ","MAREA":" ","LANE":" ","ALLEY":" ","HOUSE_NO":"６４號之１０","E_COORD97":166130.32999999999,"N_COORD97":2570066.98,"ADDRESS":"建國路６４號之１０","OBJECTID":512201},"geometry":{"x":166130.33000000007,"y":2570066.9800000023}},{"attributes":{"ID":512229,"DIS_CODE":0,"TOWNNAME":"學甲區","LI":"仁得里","LIN":"1鄰","STREET":"建國路","SECT":" ","MAREA":" ","LANE":" ","ALLEY":" ","HOUSE_NO":"６４號之１１","E_COORD97":166130.63,"N_COORD97":2570071.2799999998,"ADDRESS":"建國路６４號之１１","OBJECTID":512202},"geometry":{"x":166130.63000000175,"y":2570071.2800000012}},{"attributes":{"ID":512230,"DIS_CODE":0,"TOWNNAME":"學甲區","LI":"仁得里","LIN":"1鄰","STREET":"建國路","SECT":" ","MAREA":" ","LANE":" ","ALLEY":" ","HOUSE_NO":"６４號之１","E_COORD97":166129.32000000001,"N_COORD97":2570025.7000000002,"ADDRESS":"建國路６４號之１","OBJECTID":512203},"geometry":{"x":166129.3200000003,"y":2570025.6999999993}},{"attributes":{"ID":512231,"DIS_CODE":0,"TOWNNAME":"學甲區","LI":"仁得里","LIN":"1鄰","STREET":"建國路","SECT":" ","MAREA":" ","LANE":" ","ALLEY":" ","HOUSE_NO":"６４號之２","E_COORD97":166124.66,"N_COORD97":2570026.4199999999,"ADDRESS":"建國路６４號之２","OBJECTID":512204},"geometry":{"x":166124.66000000108,"y":2570026.4200000018}},{"attributes":{"ID":512232,"DIS_CODE":0,"TOWNNAME":"學甲區","LI":"仁得里","LIN":"1鄰","STREET":"建國路","SECT":" ","MAREA":" ","LANE":" ","ALLEY":" ","HOUSE_NO":"６４號之３","E_COORD97":166120.12,"N_COORD97":2570027.6099999999,"ADDRESS":"建國路６４號之３","OBJECTID":512205},"geometry":{"x":166120.12000000011,"y":2570027.6100000013}},{"attributes":{"ID":512233,"DIS_CODE":0,"TOWNNAME":"學甲區","LI":"仁得里","LIN":"1鄰","STREET":"建國路","SECT":" ","MAREA":" ","LANE":" ","ALLEY":" ","HOUSE_NO":"６４號之４","E_COORD97":166126.69,"N_COORD97":2570042.7999999998,"ADDRESS":"建國路６４號之４","OBJECTID":512206},"geometry":{"x":166126.69000000041,"y":2570042.8000000007}},{"attributes":{"ID":512234,"DIS_CODE":0,"TOWNNAME":"學甲區","LI":"仁得里","LIN":"1鄰","STREET":"建國路","SECT":" ","MAREA":" ","LANE":" ","ALLEY":" ","HOUSE_NO":"６４號之５","E_COORD97":166127.32999999999,"N_COORD97":2570046.7799999998,"ADDRESS":"建國路６４號之５","OBJECTID":512207},"geometry":{"x":166127.33000000007,"y":2570046.7800000012}},{"attributes":{"ID":512235,"DIS_CODE":0,"TOWNNAME":"學甲區","LI":"仁得里","LIN":"1鄰","STREET":"建國路","SECT":" ","MAREA":" ","LANE":" ","ALLEY":" ","HOUSE_NO":"６４號之６","E_COORD97":166127.97,"N_COORD97":2570050.7599999998,"ADDRESS":"建國路６４號之６","OBJECTID":512208},"geometry":{"x":166127.96999999974,"y":2570050.7600000016}},{"attributes":{"ID":512236,"DIS_CODE":0,"TOWNNAME":"學甲區","LI":"仁得里","LIN":"1鄰","STREET":"建國路","SECT":" ","MAREA":" ","LANE":" ","ALLEY":" ","HOUSE_NO":"６４號之７","E_COORD97":166128.60999999999,"N_COORD97":2570054.7400000002,"ADDRESS":"建國路６４號之７","OBJECTID":512209},"geometry":{"x":166128.61000000127,"y":2570054.7400000021}},{"attributes":{"ID":512237,"DIS_CODE":0,"TOWNNAME":"學甲區","LI":"仁得里","LIN":"1鄰","STREET":"建國路","SECT":" ","MAREA":" ","LANE":" ","ALLEY":" ","HOUSE_NO":"６４號之８","E_COORD97":166129.25,"N_COORD97":2570058.73,"ADDRESS":"建國路６４號之８","OBJECTID":512210},"geometry":{"x":166129.25,"y":2570058.7300000023}},{"attributes":{"ID":512238,"DIS_CODE":0,"TOWNNAME":"學甲區","LI":"仁得里","LIN":"1鄰","STREET":"建國路","SECT":" ","MAREA":" ","LANE":" ","ALLEY":" ","HOUSE_NO":"６４號之９","E_COORD97":166129.89000000001,"N_COORD97":2570062.71,"ADDRESS":"建國路６４號之９","OBJECTID":512211},"geometry":{"x":166129.88999999966,"y":2570062.7100000028}},{"attributes":{"ID":512239,"DIS_CODE":0,"TOWNNAME":"北區","LI":"大豐里","LIN":"1鄰","STREET":"文賢路","SECT":" ","MAREA":" ","LANE":" ","ALLEY":" ","HOUSE_NO":"２７９號","E_COORD97":167320.64999999999,"N_COORD97":2545160.2799999998,"ADDRESS":"文賢路２７９號","OBJECTID":512212},"geometry":{"x":167320.65000000037,"y":2545160.2799999993}},{"attributes":{"ID":512240,"DIS_CODE":0,"TOWNNAME":"北區","LI":"國姓里","LIN":"1鄰","STREET":"公園路","SECT":" ","MAREA":" ","LANE":" ","ALLEY":" ","HOUSE_NO":"３８１號","E_COORD97":169018.12,"N_COORD97":2545218,"ADDRESS":"公園路３８１號","OBJECTID":512213},"geometry":{"x":169018.12000000104,"y":2545218.0000000019}},{"attributes":{"ID":512241,"DIS_CODE":0,"TOWNNAME":"北區","LI":"新勝里","LIN":"1鄰","STREET":"開元路","SECT":" ","MAREA":" ","LANE":" ","ALLEY":" ","HOUSE_NO":"３５１號","E_COORD97":170288.04000000001,"N_COORD97":2545464.0499999998,"ADDRESS":"開元路３５１號","OBJECTID":512214},"geometry":{"x":170288.0400000019,"y":2545464.0500000007}},{"attributes":{"ID":512242,"DIS_CODE":0,"TOWNNAME":"北區","LI":"國興里","LIN":"1鄰","STREET":"開元路","SECT":" ","MAREA":" ","LANE":" ","ALLEY":" ","HOUSE_NO":"３２６號","E_COORD97":170438.82999999999,"N_COORD97":2545525.1699999999,"ADDRESS":"開元路３２６號","OBJECTID":512215},"geometry":{"x":170438.83000000101,"y":2545525.1700000037}},{"attributes":{"ID":512243,"DIS_CODE":0,"TOWNNAME":"北區","LI":"國興里","LIN":"1鄰","STREET":"開元路","SECT":" ","MAREA":" ","LANE":" ","ALLEY":" ","HOUSE_NO":"３２８號","E_COORD97":170442.57999999999,"N_COORD97":2545527.8599999999,"ADDRESS":"開元路３２８號","OBJECTID":512216},"geometry":{"x":170442.58000000101,"y":2545527.8600000013}},{"attributes":{"ID":512244,"DIS_CODE":0,"TOWNNAME":"北區","LI":"新勝里","LIN":"1鄰","STREET":"開元路","SECT":" ","MAREA":" ","LANE":" ","ALLEY":" ","HOUSE_NO":"３３７號之１","E_COORD97":170247.48000000001,"N_COORD97":2545438.3599999999,"ADDRESS":"開元路３３７號之１","OBJECTID":512217},"geometry":{"x":170247.48000000045,"y":2545438.3600000031}},{"attributes":{"ID":512245,"DIS_CODE":0,"TOWNNAME":"北區","LI":"正風里","LIN":"1鄰","STREET":"長榮路","SECT":"五段","MAREA":" ","LANE":" ","ALLEY":" ","HOUSE_NO":"４６２號","E_COORD97":169330.16,"N_COORD97":2545975.4700000002,"ADDRESS":"長榮路五段４６２號","OBJECTID":512218},"geometry":{"x":169330.16000000108,"y":2545975.4700000025}},{"attributes":{"ID":512246,"DIS_CODE":0,"TOWNNAME":"北區","LI":"正風里","LIN":"1鄰","STREET":"長榮路","SECT":"五段","MAREA":" ","LANE":" ","ALLEY":" ","HOUSE_NO":"４６４號","E_COORD97":169323,"N_COORD97":2545977.21,"ADDRESS":"長榮路五段４６４號","OBJECTID":512219},"geometry":{"x":169323,"y":2545977.2100000028}},{"attributes":{"ID":512247,"DIS_CODE":0,"TOWNNAME":"北區","LI":"正風里","LIN":"1鄰","STREET":"長榮路","SECT":"五段","MAREA":" ","LANE":" ","ALLEY":" ","HOUSE_NO":"４６６號","E_COORD97":169317.45000000001,"N_COORD97":2545979.0800000001,"ADDRESS":"長榮路五段４６６號","OBJECTID":512220},"geometry":{"x":169317.45000000205,"y":2545979.0800000001}},{"attributes":{"ID":512248,"DIS_CODE":0,"TOWNNAME":"北區","LI":"正風里","LIN":"1鄰","STREET":"長榮路","SECT":"五段","MAREA":" ","LANE":" ","ALLEY":" ","HOUSE_NO":"４６８號","E_COORD97":169312.79999999999,"N_COORD97":2545981.27,"ADDRESS":"長榮路五段４６８號","OBJECTID":512221},"geometry":{"x":169312.79999999981,"y":2545981.2699999996}},{"attributes":{"ID":512249,"DIS_CODE":0,"TOWNNAME":"北區","LI":"正風里","LIN":"1鄰","STREET":"長榮路","SECT":"五段","MAREA":" ","LANE":" ","ALLEY":" ","HOUSE_NO":"４７０號","E_COORD97":169309.38,"N_COORD97":2545982.2999999998,"ADDRESS":"長榮路五段４７０號","OBJECTID":512222},"geometry":{"x":169309.38000000082,"y":2545982.3000000007}},{"attributes":{"ID":512250,"DIS_CODE":0,"TOWNNAME":"北區","LI":"正風里","LIN":"1鄰","STREET":"長榮路","SECT":"五段","MAREA":" ","LANE":" ","ALLEY":" ","HOUSE_NO":"４７２號","E_COORD97":169304.98999999999,"N_COORD97":2545983.8500000001,"ADDRESS":"長榮路五段４７２號","OBJECTID":512223},"geometry":{"x":169304.99000000022,"y":2545983.8499999996}},{"attributes":{"ID":512251,"DIS_CODE":0,"TOWNNAME":"北區","LI":"正風里","LIN":"1鄰","STREET":"長榮路","SECT":"五段","MAREA":" ","LANE":" ","ALLEY":" ","HOUSE_NO":"４７４號","E_COORD97":169299.17999999999,"N_COORD97":2545986.25,"ADDRESS":"長榮路五段４７４號","OBJECTID":512224},"geometry":{"x":169299.18000000063,"y":2545986.2500000019}},{"attributes":{"ID":512252,"DIS_CODE":0,"TOWNNAME":"北區","LI":"正風里","LIN":"1鄰","STREET":"長榮路","SECT":"五段","MAREA":" ","LANE":" ","ALLEY":" ","HOUSE_NO":"４７８號","E_COORD97":169289.04000000001,"N_COORD97":2545989.2200000002,"ADDRESS":"長榮路五段４７８號","OBJECTID":512225},"geometry":{"x":169289.04000000004,"y":2545989.2200000007}},{"attributes":{"ID":512253,"DIS_CODE":0,"TOWNNAME":"北區","LI":"正風里","LIN":"1鄰","STREET":"長榮路","SECT":"五段","MAREA":" ","LANE":" ","ALLEY":" ","HOUSE_NO":"４８２號","E_COORD97":169278.54000000001,"N_COORD97":2545992.52,"ADDRESS":"長榮路五段４８２號","OBJECTID":512226},"geometry":{"x":169278.54000000004,"y":2545992.5199999996}},{"attributes":{"ID":512254,"DIS_CODE":0,"TOWNNAME":"北區","LI":"正風里","LIN":"1鄰","STREET":"長榮路","SECT":"五段","MAREA":" ","LANE":" ","ALLEY":" ","HOUSE_NO":"４８４號","E_COORD97":169272.60000000001,"N_COORD97":2545994.5800000001,"ADDRESS":"長榮路五段４８４號","OBJECTID":512227},"geometry":{"x":169272.59999999963,"y":2545994.5800000019}},{"attributes":{"ID":512255,"DIS_CODE":0,"TOWNNAME":"北區","LI":"正風里","LIN":"1鄰","STREET":"長榮路","SECT":"五段","MAREA":" ","LANE":" ","ALLEY":" ","HOUSE_NO":"４８６號","E_COORD97":169267.70000000001,"N_COORD97":2545996.71,"ADDRESS":"長榮路五段４８６號","OBJECTID":512228},"geometry":{"x":169267.70000000019,"y":2545996.709999999}},{"attributes":{"ID":512256,"DIS_CODE":0,"TOWNNAME":"北區","LI":"正風里","LIN":"1鄰","STREET":"長榮路","SECT":"五段","MAREA":" ","LANE":" ","ALLEY":" ","HOUSE_NO":"４８８號","E_COORD97":169263.82000000001,"N_COORD97":2545997.7400000002,"ADDRESS":"長榮路五段４８８號","OBJECTID":512229},"geometry":{"x":169263.8200000003,"y":2545997.7400000021}},{"attributes":{"ID":512257,"DIS_CODE":0,"TOWNNAME":"北區","LI":"正覺里","LIN":"1鄰","STREET":"西門路","SECT":"四段","MAREA":" ","LANE":" ","ALLEY":" ","HOUSE_NO":"３５０號","E_COORD97":168998.94,"N_COORD97":2546040.6899999999,"ADDRESS":"西門路四段３５０號","OBJECTID":512230},"geometry":{"x":168998.93999999948,"y":2546040.6900000013}},{"attributes":{"ID":512258,"DIS_CODE":0,"TOWNNAME":"北區","LI":"正覺里","LIN":"1鄰","STREET":"西門路","SECT":"四段","MAREA":" ","LANE":" ","ALLEY":" ","HOUSE_NO":"３５２號","E_COORD97":169000.01999999999,"N_COORD97":2546044.5,"ADDRESS":"西門路四段３５２號","OBJECTID":512231},"geometry":{"x":169000.02000000048,"y":2546044.5}},{"attributes":{"ID":512259,"DIS_CODE":0,"TOWNNAME":"北區","LI":"正覺里","LIN":"1鄰","STREET":"西門路","SECT":"四段","MAREA":" ","LANE":" ","ALLEY":" ","HOUSE_NO":"３５６號","E_COORD97":169001.48999999999,"N_COORD97":2546052.6299999999,"ADDRESS":"西門路四段３５６號","OBJECTID":512232},"geometry":{"x":169001.49000000022,"y":2546052.629999999}},{"attributes":{"ID":512260,"DIS_CODE":0,"TOWNNAME":"北區","LI":"正覺里","LIN":"1鄰","STREET":"西門路","SECT":"四段","MAREA":" ","LANE":" ","ALLEY":" ","HOUSE_NO":"３５８號","E_COORD97":169003.26000000001,"N_COORD97":2546056.6600000001,"ADDRESS":"西門路四段３５８號","OBJECTID":512233},"geometry":{"x":169003.26000000071,"y":2546056.6600000001}},{"attributes":{"ID":512261,"DIS_CODE":0,"TOWNNAME":"北區","LI":"正覺里","LIN":"1鄰","STREET":"西門路","SECT":"四段","MAREA":" ","LANE":" ","ALLEY":" ","HOUSE_NO":"３６０號","E_COORD97":169004.85999999999,"N_COORD97":2546060.2000000002,"ADDRESS":"西門路四段３６０號","OBJECTID":512234},"geometry":{"x":169004.86000000127,"y":2546060.2000000011}},{"attributes":{"ID":512262,"DIS_CODE":0,"TOWNNAME":"北區","LI":"正覺里","LIN":"1鄰","STREET":"西門路","SECT":"四段","MAREA":" ","LANE":" ","ALLEY":" ","HOUSE_NO":"３６２號","E_COORD97":169005.54999999999,"N_COORD97":2546064.1099999999,"ADDRESS":"西門路四段３６２號","OBJECTID":512235},"geometry":{"x":169005.54999999981,"y":2546064.1100000031}},{"attributes":{"ID":512263,"DIS_CODE":0,"TOWNNAME":"北區","LI":"正風里","LIN":"1鄰","STREET":"公園路","SECT":" ","MAREA":" ","LANE":" ","ALLEY":" ","HOUSE_NO":"８６０號之２","E_COORD97":169290.35999999999,"N_COORD97":2546027.1200000001,"ADDRESS":"公園路８６０號之２","OBJECTID":512236},"geometry":{"x":169290.36000000034,"y":2546027.120000001}},{"attributes":{"ID":512264,"DIS_CODE":0,"TOWNNAME":"北區","LI":"正風里","LIN":"1鄰","STREET":"公園路","SECT":" ","MAREA":" ","LANE":" ","ALLEY":" ","HOUSE_NO":"８６０號之３","E_COORD97":169293.20000000001,"N_COORD97":2546024.0299999998,"ADDRESS":"公園路８６０號之３","OBJECTID":512237},"geometry":{"x":169293.20000000019,"y":2546024.0300000012}},{"attributes":{"ID":512265,"DIS_CODE":0,"TOWNNAME":"北區","LI":"大仁里","LIN":"1鄰","STREET":"北門路","SECT":"二段","MAREA":" ","LANE":" ","ALLEY":" ","HOUSE_NO":"２１０號","E_COORD97":169471.35000000001,"N_COORD97":2545165.0499999998,"ADDRESS":"北門路二段２１０號","OBJECTID":512238},"geometry":{"x":169471.34999999963,"y":2545165.0500000026}},{"attributes":{"ID":512266,"DIS_CODE":0,"TOWNNAME":"北區","LI":"大仁里","LIN":"1鄰","STREET":"北門路","SECT":"二段","MAREA":" ","LANE":" ","ALLEY":" ","HOUSE_NO":"２１２號","E_COORD97":169472.82999999999,"N_COORD97":2545169.8399999999,"ADDRESS":"北門路二段２１２號","OBJECTID":512239},"geometry":{"x":169472.83000000101,"y":2545169.8399999999}},{"attributes":{"ID":512267,"DIS_CODE":0,"TOWNNAME":"北區","LI":"大仁里","LIN":"1鄰","STREET":"北門路","SECT":"二段","MAREA":" ","LANE":" ","ALLEY":" ","HOUSE_NO":"２１４號","E_COORD97":169474.56,"N_COORD97":2545173.7200000002,"ADDRESS":"北門路二段２１４號","OBJECTID":512240},"geometry":{"x":169474.55999999959,"y":2545173.7200000025}},{"attributes":{"ID":512268,"DIS_CODE":0,"TOWNNAME":"北區","LI":"大仁里","LIN":"1鄰","STREET":"北門路","SECT":"二段","MAREA":" ","LANE":" ","ALLEY":" ","HOUSE_NO":"２１６號","E_COORD97":169475.85000000001,"N_COORD97":2545177.1699999999,"ADDRESS":"北門路二段２１６號","OBJECTID":512241},"geometry":{"x":169475.85000000056,"y":2545177.1700000018}},{"attributes":{"ID":512269,"DIS_CODE":0,"TOWNNAME":"北區","LI":"大仁里","LIN":"1鄰","STREET":"北門路","SECT":"二段","MAREA":" ","LANE":" ","ALLEY":" ","HOUSE_NO":"２１８號","E_COORD97":169477.79999999999,"N_COORD97":2545180.6200000001,"ADDRESS":"北門路二段２１８號","OBJECTID":512242},"geometry":{"x":169477.80000000075,"y":2545180.6200000048}},{"attributes":{"ID":512270,"DIS_CODE":0,"TOWNNAME":"北區","LI":"國興里","LIN":"1鄰","STREET":"開元路","SECT":" ","MAREA":" ","LANE":" ","ALLEY":" ","HOUSE_NO":"３６０號","E_COORD97":170506.63,"N_COORD97":2545579.8500000001,"ADDRESS":"開元路３６０號","OBJECTID":512243},"geometry":{"x":170506.63000000082,"y":2545579.8499999996}},{"attributes":{"ID":512271,"DIS_CODE":0,"TOWNNAME":"歸仁區","LI":"八甲里","LIN":"1鄰","STREET":"大德路","SECT":" ","MAREA":" ","LANE":" ","ALLEY":" ","HOUSE_NO":"１６０號","E_COORD97":177947.69,"N_COORD97":2541402.25,"ADDRESS":"大德路１６０號","OBJECTID":512244},"geometry":{"x":177947.69000000041,"y":2541402.2500000019}},{"attributes":{"ID":512272,"DIS_CODE":0,"TOWNNAME":"歸仁區","LI":"歸仁里","LIN":"1鄰","STREET":"中正北路","SECT":"一段","MAREA":" ","LANE":" ","ALLEY":" ","HOUSE_NO":"１２６號","E_COORD97":177717.45999999999,"N_COORD97":2541148.25,"ADDRESS":"中正北路一段１２６號","OBJECTID":512245},"geometry":{"x":177717.46000000089,"y":2541148.2500000019}},{"attributes":{"ID":512273,"DIS_CODE":0,"TOWNNAME":"歸仁區","LI":"大廟里","LIN":"1鄰","STREET":"保大路","SECT":"三段","MAREA":" ","LANE":" ","ALLEY":" ","HOUSE_NO":"１６１號","E_COORD97":176023.07000000001,"N_COORD97":2544104.2799999998,"ADDRESS":"保大路三段１６１號","OBJECTID":512246},"geometry":{"x":176023.07000000123,"y":2544104.2800000012}},{"attributes":{"ID":512274,"DIS_CODE":0,"TOWNNAME":"歸仁區","LI":"大廟里","LIN":"1鄰","STREET":"保大路","SECT":"三段","MAREA":" ","LANE":" ","ALLEY":" ","HOUSE_NO":"１５１號","E_COORD97":176048.67000000001,"N_COORD97":2544098.2799999998,"ADDRESS":"保大路三段１５１號","OBJECTID":512247},"geometry":{"x":176048.66999999993,"y":2544098.2799999993}},{"attributes":{"ID":512275,"DIS_CODE":0,"TOWNNAME":"歸仁區","LI":"七甲里","LIN":"1鄰","STREET":"七甲五街","SECT":" ","MAREA":" ","LANE":" ","ALLEY":" ","HOUSE_NO":"３６號","E_COORD97":177405.48999999999,"N_COORD97":2542650.6600000001,"ADDRESS":"七甲五街３６號","OBJECTID":512248},"geometry":{"x":177405.49000000115,"y":2542650.660000002}},{"attributes":{"ID":512276,"DIS_CODE":0,"TOWNNAME":"歸仁區","LI":"七甲里","LIN":"1鄰","STREET":"七甲五街","SECT":" ","MAREA":" ","LANE":" ","ALLEY":" ","HOUSE_NO":"１１號","E_COORD97":177480.98999999999,"N_COORD97":2542583.6600000001,"ADDRESS":"七甲五街１１號","OBJECTID":512249},"geometry":{"x":177480.99000000022,"y":2542583.660000002}},{"attributes":{"ID":512277,"DIS_CODE":0,"TOWNNAME":"歸仁區","LI":"南興里","LIN":"1鄰","STREET":"文化街","SECT":"三段","MAREA":" ","LANE":" ","ALLEY":" ","HOUSE_NO":"２３６號","E_COORD97":176480.54000000001,"N_COORD97":2541219.3300000001,"ADDRESS":"文化街三段２３６號","OBJECTID":512250},"geometry":{"x":176480.5400000019,"y":2541219.3300000019}},{"attributes":{"ID":512278,"DIS_CODE":0,"TOWNNAME":"楠西區","LI":"楠西里","LIN":"1鄰","STREET":"中華路","SECT":" ","MAREA":" ","LANE":" ","ALLEY":" ","HOUSE_NO":"１５５號","E_COORD97":197009.98999999999,"N_COORD97":2564269.5800000001,"ADDRESS":"中華路１５５號","OBJECTID":512251},"geometry":{"x":197009.99000000115,"y":2564269.5800000001}},{"attributes":{"ID":512279,"DIS_CODE":0,"TOWNNAME":"楠西區","LI":"楠西里","LIN":"1鄰","STREET":"民族路","SECT":" ","MAREA":" ","LANE":" ","ALLEY":" ","HOUSE_NO":"１１０號","E_COORD97":197050.48999999999,"N_COORD97":2564157.29,"ADDRESS":"民族路１１０號","OBJECTID":512252},"geometry":{"x":197050.49000000209,"y":2564157.290000001}},{"attributes":{"ID":512280,"DIS_CODE":0,"TOWNNAME":"歸仁區","LI":"八甲里","LIN":"1鄰","STREET":"中正北路","SECT":"一段","MAREA":" ","LANE":" ","ALLEY":" ","HOUSE_NO":"１６８號","E_COORD97":177799.82999999999,"N_COORD97":2541483.4900000002,"ADDRESS":"中正北路一段１６８號","OBJECTID":512253},"geometry":{"x":177799.83000000101,"y":2541483.4900000002}},{"attributes":{"ID":512281,"DIS_CODE":0,"TOWNNAME":"歸仁區","LI":"大廟里","LIN":"1鄰","STREET":"保大路","SECT":"三段","MAREA":" ","LANE":" ","ALLEY":" ","HOUSE_NO":"１４９號","E_COORD97":176055.87,"N_COORD97":2544096.2799999998,"ADDRESS":"保大路三段１４９號","OBJECTID":512254},"geometry":{"x":176055.87000000011,"y":2544096.2800000031}},{"attributes":{"ID":512282,"DIS_CODE":0,"TOWNNAME":"歸仁區","LI":"大廟里","LIN":"1鄰","STREET":"保大路","SECT":"三段","MAREA":" ","LANE":" ","ALLEY":" ","HOUSE_NO":"１４７號","E_COORD97":176066.07000000001,"N_COORD97":2544095.2799999998,"ADDRESS":"保大路三段１４７號","OBJECTID":512255},"geometry":{"x":176066.07000000123,"y":2544095.2799999993}},{"attributes":{"ID":512283,"DIS_CODE":0,"TOWNNAME":"歸仁區","LI":"八甲里","LIN":"1鄰","STREET":"忠孝北路","SECT":" ","MAREA":" ","LANE":" ","ALLEY":" ","HOUSE_NO":"２５７號","E_COORD97":177942.92999999999,"N_COORD97":2541426.25,"ADDRESS":"忠孝北路２５７號","OBJECTID":512256},"geometry":{"x":177942.93000000063,"y":2541426.2500000019}},{"attributes":{"ID":512284,"DIS_CODE":0,"TOWNNAME":"南區","LI":"田寮里","LIN":"1鄰","STREET":"大成路","SECT":"二段","MAREA":" ","LANE":" ","ALLEY":" ","HOUSE_NO":"２３０號","E_COORD97":167160.95999999999,"N_COORD97":2541750.0600000001,"ADDRESS":"大成路二段２３０號","OBJECTID":512257},"geometry":{"x":167160.96000000089,"y":2541750.0600000024}},{"attributes":{"ID":512285,"DIS_CODE":0,"TOWNNAME":"南區","LI":"大成里","LIN":"1鄰","STREET":"健康路","SECT":"一段","MAREA":" ","LANE":" ","ALLEY":" ","HOUSE_NO":"４０３號","E_COORD97":167864.67000000001,"N_COORD97":2542427.9300000002,"ADDRESS":"健康路一段４０３號","OBJECTID":512258},"geometry":{"x":167864.67000000179,"y":2542427.9300000016}},{"attributes":{"ID":512286,"DIS_CODE":0,"TOWNNAME":"南區","LI":"佛壇里","LIN":"1鄰","STREET":"濱南路","SECT":" ","MAREA":" ","LANE":" ","ALLEY":" ","HOUSE_NO":"５０１號","E_COORD97":165508.41,"N_COORD97":2535584.2200000002,"ADDRESS":"濱南路５０１號","OBJECTID":512259},"geometry":{"x":165508.41000000015,"y":2535584.2200000007}},{"attributes":{"ID":512287,"DIS_CODE":0,"TOWNNAME":"南區","LI":"大成里","LIN":"1鄰","STREET":"水交社路","SECT":" ","MAREA":" ","LANE":" ","ALLEY":" ","HOUSE_NO":"３３９號","E_COORD97":167980.56,"N_COORD97":2542338.3300000001,"ADDRESS":"水交社路３３９號","OBJECTID":512260},"geometry":{"x":167980.56000000052,"y":2542338.3300000019}},{"attributes":{"ID":512288,"DIS_CODE":0,"TOWNNAME":"南區","LI":"大成里","LIN":"1鄰","STREET":"健康路","SECT":"一段","MAREA":" ","LANE":" ","ALLEY":" ","HOUSE_NO":"３５９號","E_COORD97":167987.26000000001,"N_COORD97":2542432.1099999999,"ADDRESS":"健康路一段３５９號","OBJECTID":512261},"geometry":{"x":167987.25999999978,"y":2542432.1099999994}},{"attributes":{"ID":512289,"DIS_CODE":0,"TOWNNAME":"南區","LI":"大成里","LIN":"1鄰","STREET":"健康路","SECT":"一段","MAREA":" ","LANE":" ","ALLEY":" ","HOUSE_NO":"３６１號","E_COORD97":167981.14999999999,"N_COORD97":2542432.1099999999,"ADDRESS":"健康路一段３６１號","OBJECTID":512262},"geometry":{"x":167981.1500000013,"y":2542432.1099999994}},{"attributes":{"ID":512290,"DIS_CODE":0,"TOWNNAME":"南區","LI":"大成里","LIN":"1鄰","STREET":"健康路","SECT":"一段","MAREA":" ","LANE":" ","ALLEY":" ","HOUSE_NO":"３６５號","E_COORD97":167972.95999999999,"N_COORD97":2542433.7400000002,"ADDRESS":"健康路一段３６５號","OBJECTID":512263},"geometry":{"x":167972.96000000089,"y":2542433.7400000021}},{"attributes":{"ID":512291,"DIS_CODE":0,"TOWNNAME":"南區","LI":"大成里","LIN":"1鄰","STREET":"健康路","SECT":"一段","MAREA":" ","LANE":" ","ALLEY":" ","HOUSE_NO":"３６７號","E_COORD97":167964.60999999999,"N_COORD97":2542433.8900000001,"ADDRESS":"健康路一段３６７號","OBJECTID":512264},"geometry":{"x":167964.61000000034,"y":2542433.8900000006}},{"attributes":{"ID":512292,"DIS_CODE":0,"TOWNNAME":"南區","LI":"大成里","LIN":"1鄰","STREET":"健康路","SECT":"一段","MAREA":" ","LANE":" ","ALLEY":" ","HOUSE_NO":"３６９號","E_COORD97":167960.29000000001,"N_COORD97":2542434.04,"ADDRESS":"健康路一段３６９號","OBJECTID":512265},"geometry":{"x":167960.29000000004,"y":2542434.040000001}},{"attributes":{"ID":512293,"DIS_CODE":0,"TOWNNAME":"南區","LI":"大成里","LIN":"1鄰","STREET":"健康路","SECT":"一段","MAREA":" ","LANE":" ","ALLEY":" ","HOUSE_NO":"３７１號","E_COORD97":167955.95999999999,"N_COORD97":2542434.1899999999,"ADDRESS":"健康路一段３７１號","OBJECTID":512266},"geometry":{"x":167955.96000000183,"y":2542434.1899999995}},{"attributes":{"ID":512294,"DIS_CODE":0,"TOWNNAME":"南區","LI":"大成里","LIN":"1鄰","STREET":"健康路","SECT":"一段","MAREA":" ","LANE":" ","ALLEY":" ","HOUSE_NO":"３７３號","E_COORD97":167951.94,"N_COORD97":2542434.48,"ADDRESS":"健康路一段３７３號","OBJECTID":512267},"geometry":{"x":167951.94000000134,"y":2542434.4800000004}},{"attributes":{"ID":512295,"DIS_CODE":0,"TOWNNAME":"南區","LI":"大成里","LIN":"1鄰","STREET":"健康路","SECT":"一段","MAREA":" ","LANE":" ","ALLEY":" ","HOUSE_NO":"３７５號","E_COORD97":167948.07000000001,"N_COORD97":2542434.6299999999,"ADDRESS":"健康路一段３７５號","OBJECTID":512268},"geometry":{"x":167948.0700000003,"y":2542434.629999999}},{"attributes":{"ID":512296,"DIS_CODE":0,"TOWNNAME":"南區","LI":"大成里","LIN":"1鄰","STREET":"健康路","SECT":"一段","MAREA":" ","LANE":" ","ALLEY":" ","HOUSE_NO":"３７７號","E_COORD97":167943.89000000001,"N_COORD97":2542434.9300000002,"ADDRESS":"健康路一段３７７號","OBJECTID":512269},"geometry":{"x":167943.88999999966,"y":2542434.9300000016}},{"attributes":{"ID":512297,"DIS_CODE":0,"TOWNNAME":"南區","LI":"大成里","LIN":"1鄰","STREET":"健康路","SECT":"一段","MAREA":" ","LANE":" ","ALLEY":" ","HOUSE_NO":"３７９號","E_COORD97":167939.72,"N_COORD97":2542435.0800000001,"ADDRESS":"健康路一段３７９號","OBJECTID":512270},"geometry":{"x":167939.71999999974,"y":2542435.0800000019}},{"attributes":{"ID":512298,"DIS_CODE":0,"TOWNNAME":"南區","LI":"大成里","LIN":"1鄰","STREET":"健康路","SECT":"一段","MAREA":" ","LANE":" ","ALLEY":" ","HOUSE_NO":"３８１號","E_COORD97":167935.39999999999,"N_COORD97":2542435.0800000001,"ADDRESS":"健康路一段３８１號","OBJECTID":512271},"geometry":{"x":167935.4000000013,"y":2542435.0800000019}},{"attributes":{"ID":512299,"DIS_CODE":0,"TOWNNAME":"南區","LI":"大成里","LIN":"1鄰","STREET":"健康路","SECT":"一段","MAREA":" ","LANE":" ","ALLEY":" ","HOUSE_NO":"３８３號","E_COORD97":167929.14000000001,"N_COORD97":2542430.4700000002,"ADDRESS":"健康路一段３８３號","OBJECTID":512272},"geometry":{"x":167929.1400000006,"y":2542430.4700000007}},{"attributes":{"ID":512300,"DIS_CODE":0,"TOWNNAME":"南區","LI":"大成里","LIN":"1鄰","STREET":"健康路","SECT":"一段","MAREA":" ","LANE":" ","ALLEY":" ","HOUSE_NO":"３８５號","E_COORD97":167924.22,"N_COORD97":2542430.3199999998,"ADDRESS":"健康路一段３８５號","OBJECTID":512273},"geometry":{"x":167924.21999999974,"y":2542430.3200000022}},{"attributes":{"ID":512301,"DIS_CODE":0,"TOWNNAME":"南區","LI":"大成里","LIN":"1鄰","STREET":"健康路","SECT":"一段","MAREA":" ","LANE":" ","ALLEY":" ","HOUSE_NO":"３８７號","E_COORD97":167919.14999999999,"N_COORD97":2542430.0299999998,"ADDRESS":"健康路一段３８７號","OBJECTID":512274},"geometry":{"x":167919.15000000037,"y":2542430.0300000031}},{"attributes":{"ID":512302,"DIS_CODE":0,"TOWNNAME":"南區","LI":"大成里","LIN":"1鄰","STREET":"健康路","SECT":"一段","MAREA":" ","LANE":" ","ALLEY":" ","HOUSE_NO":"３８９號","E_COORD97":167915.13,"N_COORD97":2542429.8799999999,"ADDRESS":"健康路一段３８９號","OBJECTID":512275},"geometry":{"x":167915.12999999989,"y":2542429.879999999}},{"attributes":{"ID":512303,"DIS_CODE":0,"TOWNNAME":"南區","LI":"大成里","LIN":"1鄰","STREET":"健康路","SECT":"一段","MAREA":" ","LANE":" ","ALLEY":" ","HOUSE_NO":"４２５號","E_COORD97":167826.60000000001,"N_COORD97":2542433.75,"ADDRESS":"健康路一段４２５號","OBJECTID":512276},"geometry":{"x":167826.59999999963,"y":2542433.7500000019}},{"attributes":{"ID":512304,"DIS_CODE":0,"TOWNNAME":"南區","LI":"大成里","LIN":"1鄰","STREET":"健康路","SECT":"一段","MAREA":" ","LANE":" ","ALLEY":" ","HOUSE_NO":"４２７號","E_COORD97":167821.89000000001,"N_COORD97":2542433.75,"ADDRESS":"健康路一段４２７號","OBJECTID":512277},"geometry":{"x":167821.88999999966,"y":2542433.7500000019}},{"attributes":{"ID":512305,"DIS_CODE":0,"TOWNNAME":"南區","LI":"大成里","LIN":"1鄰","STREET":"健康路","SECT":"一段","MAREA":" ","LANE":" ","ALLEY":" ","HOUSE_NO":"４２９號","E_COORD97":167815.10999999999,"N_COORD97":2542433.75,"ADDRESS":"健康路一段４２９號","OBJECTID":512278},"geometry":{"x":167815.11000000127,"y":2542433.7500000019}},{"attributes":{"ID":512306,"DIS_CODE":0,"TOWNNAME":"南區","LI":"大成里","LIN":"1鄰","STREET":"健康路","SECT":"一段","MAREA":" ","LANE":" ","ALLEY":" ","HOUSE_NO":"４３１號","E_COORD97":167807.76000000001,"N_COORD97":2542433.5699999998,"ADDRESS":"健康路一段４３１號","OBJECTID":512279},"geometry":{"x":167807.75999999885,"y":2542433.5700000003}},{"attributes":{"ID":512307,"DIS_CODE":0,"TOWNNAME":"南區","LI":"大成里","LIN":"1鄰","STREET":"健康路","SECT":"一段","MAREA":" ","LANE":" ","ALLEY":" ","HOUSE_NO":"４３５號","E_COORD97":167801.92000000001,"N_COORD97":2542438.8300000001,"ADDRESS":"健康路一段４３５號","OBJECTID":512280},"geometry":{"x":167801.92000000179,"y":2542438.8300000038}},{"attributes":{"ID":512308,"DIS_CODE":0,"TOWNNAME":"南區","LI":"大忠里","LIN":"1鄰","STREET":"大同路","SECT":"二段","MAREA":" ","LANE":" ","ALLEY":" ","HOUSE_NO":"４８４號","E_COORD97":169464.03,"N_COORD97":2541499.75,"ADDRESS":"大同路二段４８４號","OBJECTID":512281},"geometry":{"x":169464.03000000026,"y":2541499.75}},{"attributes":{"ID":512309,"DIS_CODE":0,"TOWNNAME":"南區","LI":"大忠里","LIN":"1鄰","STREET":"大同路","SECT":"二段","MAREA":" ","LANE":" ","ALLEY":" ","HOUSE_NO":"４８６號","E_COORD97":169464.42000000001,"N_COORD97":2541495.8399999999,"ADDRESS":"大同路二段４８６號","OBJECTID":512282},"geometry":{"x":169464.41999999993,"y":2541495.8400000036}},{"attributes":{"ID":512310,"DIS_CODE":0,"TOWNNAME":"南區","LI":"大忠里","LIN":"1鄰","STREET":"大同路","SECT":"二段","MAREA":" ","LANE":" ","ALLEY":" ","HOUSE_NO":"４９４號","E_COORD97":169466.39000000001,"N_COORD97":2541478.6000000001,"ADDRESS":"大同路二段４９４號","OBJECTID":512283},"geometry":{"x":169466.39000000153,"y":2541478.6000000015}},{"attributes":{"ID":512311,"DIS_CODE":0,"TOWNNAME":"南區","LI":"大忠里","LIN":"1鄰","STREET":"大同路","SECT":"二段","MAREA":" ","LANE":" ","ALLEY":" ","HOUSE_NO":"４９６號","E_COORD97":169466.59,"N_COORD97":2541471.5499999998,"ADDRESS":"大同路二段４９６號","OBJECTID":512284},"geometry":{"x":169466.58999999985,"y":2541471.5499999989}},{"attributes":{"ID":512312,"DIS_CODE":0,"TOWNNAME":"南區","LI":"大忠里","LIN":"1鄰","STREET":"大同路","SECT":"二段","MAREA":" ","LANE":" ","ALLEY":" ","HOUSE_NO":"４９８號","E_COORD97":169472.67000000001,"N_COORD97":2541463.8700000001,"ADDRESS":"大同路二段４９８號","OBJECTID":512285},"geometry":{"x":169472.66999999993,"y":2541463.8700000029}},{"attributes":{"ID":512313,"DIS_CODE":0,"TOWNNAME":"南區","LI":"大忠里","LIN":"1鄰","STREET":"大同路","SECT":"二段","MAREA":" ","LANE":" ","ALLEY":" ","HOUSE_NO":"５００號","E_COORD97":169468.97,"N_COORD97":2541418.1699999999,"ADDRESS":"大同路二段５００號","OBJECTID":512286},"geometry":{"x":169468.96999999974,"y":2541418.1699999999}},{"attributes":{"ID":512314,"DIS_CODE":0,"TOWNNAME":"南區","LI":"大忠里","LIN":"1鄰","STREET":"大同路","SECT":"二段","MAREA":" ","LANE":" ","ALLEY":" ","HOUSE_NO":"５０２號","E_COORD97":169472.04999999999,"N_COORD97":2541411.3100000001,"ADDRESS":"大同路二段５０２號","OBJECTID":512287},"geometry":{"x":169472.04999999981,"y":2541411.3100000005}},{"attributes":{"ID":512315,"DIS_CODE":0,"TOWNNAME":"南區","LI":"大忠里","LIN":"1鄰","STREET":"大同路","SECT":"二段","MAREA":" ","LANE":" ","ALLEY":" ","HOUSE_NO":"５０４號","E_COORD97":169473,"N_COORD97":2541406.3399999999,"ADDRESS":"大同路二段５０４號","OBJECTID":512288},"geometry":{"x":169473.00000000093,"y":2541406.3399999999}},{"attributes":{"ID":512316,"DIS_CODE":0,"TOWNNAME":"南區","LI":"大忠里","LIN":"1鄰","STREET":"大同路","SECT":"二段","MAREA":" ","LANE":" ","ALLEY":" ","HOUSE_NO":"５０６號","E_COORD97":169474.42999999999,"N_COORD97":2541399.71,"ADDRESS":"大同路二段５０６號","OBJECTID":512289},"geometry":{"x":169474.4299999997,"y":2541399.7100000046}},{"attributes":{"ID":512317,"DIS_CODE":0,"TOWNNAME":"南區","LI":"大忠里","LIN":"1鄰","STREET":"大同路","SECT":"二段","MAREA":" ","LANE":" ","ALLEY":" ","HOUSE_NO":"５０８號","E_COORD97":169475.85000000001,"N_COORD97":2541393.0899999999,"ADDRESS":"大同路二段５０８號","OBJECTID":512290},"geometry":{"x":169475.85000000056,"y":2541393.0900000017}},{"attributes":{"ID":512318,"DIS_CODE":0,"TOWNNAME":"南區","LI":"大忠里","LIN":"1鄰","STREET":"大同路","SECT":"二段","MAREA":" ","LANE":" ","ALLEY":" ","HOUSE_NO":"５１０號","E_COORD97":169477.35999999999,"N_COORD97":2541386.77,"ADDRESS":"大同路二段５１０號","OBJECTID":512291},"geometry":{"x":169477.36000000034,"y":2541386.7699999996}},{"attributes":{"ID":512319,"DIS_CODE":0,"TOWNNAME":"南區","LI":"大忠里","LIN":"1鄰","STREET":"大同路","SECT":"二段","MAREA":" ","LANE":" ","ALLEY":" ","HOUSE_NO":"５１４號","E_COORD97":169479.62,"N_COORD97":2541375.7599999998,"ADDRESS":"大同路二段５１４號","OBJECTID":512292},"geometry":{"x":169479.62000000104,"y":2541375.7600000016}},{"attributes":{"ID":512320,"DIS_CODE":0,"TOWNNAME":"南區","LI":"大忠里","LIN":"1鄰","STREET":"大同路","SECT":"二段","MAREA":" ","LANE":" ","ALLEY":" ","HOUSE_NO":"５１６號","E_COORD97":169481.12,"N_COORD97":2541368.2599999998,"ADDRESS":"大同路二段５１６號","OBJECTID":512293},"geometry":{"x":169481.12000000104,"y":2541368.2600000016}},{"attributes":{"ID":512321,"DIS_CODE":0,"TOWNNAME":"南區","LI":"大忠里","LIN":"1鄰","STREET":"大同路","SECT":"二段","MAREA":" ","LANE":" ","ALLEY":" ","HOUSE_NO":"５１８號","E_COORD97":169482.38,"N_COORD97":2541360,"ADDRESS":"大同路二段５１８號","OBJECTID":512294},"geometry":{"x":169482.38000000082,"y":2541360.0000000019}},{"attributes":{"ID":512322,"DIS_CODE":0,"TOWNNAME":"南區","LI":"大林里","LIN":"1鄰","STREET":"大同路","SECT":"二段","MAREA":" ","LANE":" ","ALLEY":" ","HOUSE_NO":"３５６號","E_COORD97":169396.16,"N_COORD97":2541803.2799999998,"ADDRESS":"大同路二段３５６號","OBJECTID":512295},"geometry":{"x":169396.16000000108,"y":2541803.2799999993}},{"attributes":{"ID":512323,"DIS_CODE":0,"TOWNNAME":"南區","LI":"大林里","LIN":"1鄰","STREET":"大同路","SECT":"二段","MAREA":" ","LANE":" ","ALLEY":" ","HOUSE_NO":"３５０號","E_COORD97":169393.92999999999,"N_COORD97":2541815.8399999999,"ADDRESS":"大同路二段３５０號","OBJECTID":512296},"geometry":{"x":169393.93000000063,"y":2541815.8400000017}},{"attributes":{"ID":512324,"DIS_CODE":0,"TOWNNAME":"南區","LI":"大林里","LIN":"1鄰","STREET":"大同路","SECT":"二段","MAREA":" ","LANE":" ","ALLEY":" ","HOUSE_NO":"３５２號","E_COORD97":169395.35999999999,"N_COORD97":2541811.7200000002,"ADDRESS":"大同路二段３５２號","OBJECTID":512297},"geometry":{"x":169395.36000000034,"y":2541811.7200000007}},{"attributes":{"ID":512325,"DIS_CODE":0,"TOWNNAME":"南區","LI":"大林里","LIN":"1鄰","STREET":"大同路","SECT":"二段","MAREA":" ","LANE":" ","ALLEY":" ","HOUSE_NO":"３６６號","E_COORD97":169389.73000000001,"N_COORD97":2541776.2599999998,"ADDRESS":"大同路二段３６６號","OBJECTID":512298},"geometry":{"x":169389.73000000045,"y":2541776.2599999998}},{"attributes":{"ID":512326,"DIS_CODE":0,"TOWNNAME":"楠西區","LI":"東勢里","LIN":"1鄰","STREET":"水庫路","SECT":" ","MAREA":" ","LANE":" ","ALLEY":" ","HOUSE_NO":"４９號","E_COORD97":197917.22,"N_COORD97":2564478.25,"ADDRESS":"水庫路４９號","OBJECTID":512299},"geometry":{"x":197917.21999999974,"y":2564478.2500000019}},{"attributes":{"ID":512327,"DIS_CODE":0,"TOWNNAME":"楠西區","LI":"東勢里","LIN":"1鄰","STREET":"水庫路","SECT":" ","MAREA":" ","LANE":" ","ALLEY":" ","HOUSE_NO":"３５號","E_COORD97":197834.72,"N_COORD97":2564491.25,"ADDRESS":"水庫路３５號","OBJECTID":512300},"geometry":{"x":197834.71999999974,"y":2564491.2500000019}},{"attributes":{"ID":512328,"DIS_CODE":0,"TOWNNAME":"楠西區","LI":"東勢里","LIN":"1鄰","STREET":"水庫路","SECT":" ","MAREA":" ","LANE":" ","ALLEY":" ","HOUSE_NO":"５５號","E_COORD97":197916.82000000001,"N_COORD97":2564432.25,"ADDRESS":"水庫路５５號","OBJECTID":512301},"geometry":{"x":197916.82000000123,"y":2564432.25}},{"attributes":{"ID":512329,"DIS_CODE":0,"TOWNNAME":"楠西區","LI":"東勢里","LIN":"1鄰","STREET":"水庫路","SECT":" ","MAREA":" ","LANE":" ","ALLEY":" ","HOUSE_NO":"４３號","E_COORD97":197884.92000000001,"N_COORD97":2564483.25,"ADDRESS":"水庫路４３號","OBJECTID":512302},"geometry":{"x":197884.92000000086,"y":2564483.2499999981}},{"attributes":{"ID":512330,"DIS_CODE":0,"TOWNNAME":"楠西區","LI":"東勢里","LIN":"1鄰","STREET":"水庫路","SECT":" ","MAREA":" ","LANE":" ","ALLEY":" ","HOUSE_NO":"５１號","E_COORD97":197923.92000000001,"N_COORD97":2564476.25,"ADDRESS":"水庫路５１號","OBJECTID":512303},"geometry":{"x":197923.92000000086,"y":2564476.25}},{"attributes":{"ID":512331,"DIS_CODE":0,"TOWNNAME":"楠西區","LI":"東勢里","LIN":"1鄰","STREET":"水庫路","SECT":" ","MAREA":" ","LANE":" ","ALLEY":" ","HOUSE_NO":"２１號","E_COORD97":197778.01999999999,"N_COORD97":2564501.25,"ADDRESS":"水庫路２１號","OBJECTID":512304},"geometry":{"x":197778.01999999955,"y":2564501.2500000019}},{"attributes":{"ID":512332,"DIS_CODE":0,"TOWNNAME":"楠西區","LI":"東勢里","LIN":"1鄰","STREET":"水庫路","SECT":" ","MAREA":" ","LANE":" ","ALLEY":" ","HOUSE_NO":"８７號","E_COORD97":197824.51999999999,"N_COORD97":2564471.25,"ADDRESS":"水庫路８７號","OBJECTID":512305},"geometry":{"x":197824.52000000048,"y":2564471.2500000019}},{"attributes":{"ID":512333,"DIS_CODE":0,"TOWNNAME":"楠西區","LI":"東勢里","LIN":"1鄰","STREET":"水庫路","SECT":" ","MAREA":" ","LANE":" ","ALLEY":" ","HOUSE_NO":"４７號","E_COORD97":197910.72,"N_COORD97":2564478.25,"ADDRESS":"水庫路４７號","OBJECTID":512306},"geometry":{"x":197910.71999999974,"y":2564478.2500000019}},{"attributes":{"ID":512334,"DIS_CODE":0,"TOWNNAME":"楠西區","LI":"東勢里","LIN":"1鄰","STREET":"水庫路","SECT":" ","MAREA":" ","LANE":" ","ALLEY":" ","HOUSE_NO":"３９號","E_COORD97":197872.42000000001,"N_COORD97":2564485.25,"ADDRESS":"水庫路３９號","OBJECTID":512307},"geometry":{"x":197872.41999999993,"y":2564485.25}},{"attributes":{"ID":512335,"DIS_CODE":0,"TOWNNAME":"楠西區","LI":"楠西里","LIN":"1鄰","STREET":"民族路","SECT":" ","MAREA":" ","LANE":" ","ALLEY":" ","HOUSE_NO":"９６號之２","E_COORD97":197039.10999999999,"N_COORD97":2564086.2999999998,"ADDRESS":"民族路９６號之２","OBJECTID":512308},"geometry":{"x":197039.11000000034,"y":2564086.3000000007}},{"attributes":{"ID":512336,"DIS_CODE":0,"TOWNNAME":"楠西區","LI":"東勢里","LIN":"1鄰","STREET":"水庫路","SECT":" ","MAREA":" ","LANE":" ","ALLEY":" ","HOUSE_NO":"７１號","E_COORD97":197877.22,"N_COORD97":2564439.25,"ADDRESS":"水庫路７１號","OBJECTID":512309},"geometry":{"x":197877.21999999881,"y":2564439.2499999981}},{"attributes":{"ID":512337,"DIS_CODE":0,"TOWNNAME":"楠西區","LI":"東勢里","LIN":"1鄰","STREET":"水庫路","SECT":" ","MAREA":" ","LANE":" ","ALLEY":" ","HOUSE_NO":"６５號","E_COORD97":197900.72,"N_COORD97":2564455.25,"ADDRESS":"水庫路６５號","OBJECTID":512310},"geometry":{"x":197900.71999999974,"y":2564455.25}},{"attributes":{"ID":512338,"DIS_CODE":0,"TOWNNAME":"楠西區","LI":"東勢里","LIN":"1鄰","STREET":"水庫路","SECT":" ","MAREA":" ","LANE":" ","ALLEY":" ","HOUSE_NO":"２９號","E_COORD97":197814.82000000001,"N_COORD97":2564494.25,"ADDRESS":"水庫路２９號","OBJECTID":512311},"geometry":{"x":197814.82000000123,"y":2564494.2500000019}},{"attributes":{"ID":512339,"DIS_CODE":0,"TOWNNAME":"楠西區","LI":"東勢里","LIN":"1鄰","STREET":"水庫路","SECT":" ","MAREA":" ","LANE":" ","ALLEY":" ","HOUSE_NO":"２３號","E_COORD97":197784.12,"N_COORD97":2564500.25,"ADDRESS":"水庫路２３號","OBJECTID":512312},"geometry":{"x":197784.12000000104,"y":2564500.2499999981}},{"attributes":{"ID":512340,"DIS_CODE":0,"TOWNNAME":"楠西區","LI":"東勢里","LIN":"1鄰","STREET":"水庫路","SECT":" ","MAREA":" ","LANE":" ","ALLEY":" ","HOUSE_NO":"８３號","E_COORD97":197858.82000000001,"N_COORD97":2564442.25,"ADDRESS":"水庫路８３號","OBJECTID":512313},"geometry":{"x":197858.82000000123,"y":2564442.25}},{"attributes":{"ID":512341,"DIS_CODE":0,"TOWNNAME":"楠西區","LI":"東勢里","LIN":"1鄰","STREET":"水庫路","SECT":" ","MAREA":" ","LANE":" ","ALLEY":" ","HOUSE_NO":"８１號","E_COORD97":197861.12,"N_COORD97":2564461.25,"ADDRESS":"水庫路８１號","OBJECTID":512314},"geometry":{"x":197861.12000000011,"y":2564461.2500000019}},{"attributes":{"ID":512342,"DIS_CODE":0,"TOWNNAME":"楠西區","LI":"東勢里","LIN":"1鄰","STREET":"水庫路","SECT":" ","MAREA":" ","LANE":" ","ALLEY":" ","HOUSE_NO":"５９號","E_COORD97":197910.12,"N_COORD97":2564433.25,"ADDRESS":"水庫路５９號","OBJECTID":512315},"geometry":{"x":197910.12000000011,"y":2564433.2500000019}},{"attributes":{"ID":512343,"DIS_CODE":0,"TOWNNAME":"楠西區","LI":"東勢里","LIN":"1鄰","STREET":"水庫路","SECT":" ","MAREA":" ","LANE":" ","ALLEY":" ","HOUSE_NO":"８５號","E_COORD97":197830.82000000001,"N_COORD97":2564470.25,"ADDRESS":"水庫路８５號","OBJECTID":512316},"geometry":{"x":197830.8200000003,"y":2564470.2500000019}},{"attributes":{"ID":512344,"DIS_CODE":0,"TOWNNAME":"楠西區","LI":"東勢里","LIN":"1鄰","STREET":"水庫路","SECT":" ","MAREA":" ","LANE":" ","ALLEY":" ","HOUSE_NO":"８９號","E_COORD97":197820.12,"N_COORD97":2564472.25,"ADDRESS":"水庫路８９號","OBJECTID":512317},"geometry":{"x":197820.12000000011,"y":2564472.25}},{"attributes":{"ID":512345,"DIS_CODE":0,"TOWNNAME":"楠西區","LI":"東勢里","LIN":"1鄰","STREET":"水庫路","SECT":" ","MAREA":" ","LANE":" ","ALLEY":" ","HOUSE_NO":"９７號","E_COORD97":197786.42000000001,"N_COORD97":2564478.25,"ADDRESS":"水庫路９７號","OBJECTID":512318},"geometry":{"x":197786.42000000179,"y":2564478.2500000019}},{"attributes":{"ID":512346,"DIS_CODE":0,"TOWNNAME":"楠西區","LI":"東勢里","LIN":"1鄰","STREET":"水庫路","SECT":" ","MAREA":" ","LANE":" ","ALLEY":" ","HOUSE_NO":"５３號","E_COORD97":197920.92000000001,"N_COORD97":2564452.25,"ADDRESS":"水庫路５３號","OBJECTID":512319},"geometry":{"x":197920.92000000086,"y":2564452.25}},{"attributes":{"ID":512347,"DIS_CODE":0,"TOWNNAME":"楠西區","LI":"楠西里","LIN":"1鄰","STREET":"中華路","SECT":" ","MAREA":" ","LANE":" ","ALLEY":" ","HOUSE_NO":"１４９號","E_COORD97":197014.48999999999,"N_COORD97":2564257.5800000001,"ADDRESS":"中華路１４９號","OBJECTID":512320},"geometry":{"x":197014.49000000022,"y":2564257.5800000038}},{"attributes":{"ID":512348,"DIS_CODE":0,"TOWNNAME":"楠西區","LI":"楠西里","LIN":"1鄰","STREET":"民族路","SECT":" ","MAREA":" ","LANE":" ","ALLEY":" ","HOUSE_NO":"１０６號","E_COORD97":197049.89000000001,"N_COORD97":2564139.29,"ADDRESS":"民族路１０６號","OBJECTID":512321},"geometry":{"x":197049.88999999966,"y":2564139.2899999991}},{"attributes":{"ID":512349,"DIS_CODE":0,"TOWNNAME":"楠西區","LI":"楠西里","LIN":"1鄰","STREET":"民族路","SECT":" ","MAREA":" ","LANE":" ","ALLEY":" ","HOUSE_NO":"１０２號","E_COORD97":197046.59,"N_COORD97":2564118.29,"ADDRESS":"民族路１０２號","OBJECTID":512322},"geometry":{"x":197046.59000000078,"y":2564118.2899999991}},{"attributes":{"ID":512350,"DIS_CODE":0,"TOWNNAME":"楠西區","LI":"楠西里","LIN":"1鄰","STREET":"民族路","SECT":" ","MAREA":" ","LANE":" ","ALLEY":" ","HOUSE_NO":"１１２號","E_COORD97":197051.09,"N_COORD97":2564188.29,"ADDRESS":"民族路１１２號","OBJECTID":512323},"geometry":{"x":197051.09000000171,"y":2564188.290000001}},{"attributes":{"ID":512351,"DIS_CODE":0,"TOWNNAME":"楠西區","LI":"楠西里","LIN":"1鄰","STREET":"民族路","SECT":" ","MAREA":" ","LANE":" ","ALLEY":" ","HOUSE_NO":"１０８號","E_COORD97":197027.09,"N_COORD97":2564152.29,"ADDRESS":"民族路１０８號","OBJECTID":512324},"geometry":{"x":197027.08999999985,"y":2564152.2899999991}},{"attributes":{"ID":512352,"DIS_CODE":0,"TOWNNAME":"柳營區","LI":"東昇里","LIN":"1鄰","STREET":"十美街","SECT":" ","MAREA":" ","LANE":" ","ALLEY":" ","HOUSE_NO":"３８１號","E_COORD97":179842.34,"N_COORD97":2575518.5,"ADDRESS":"十美街３８１號","OBJECTID":512325},"geometry":{"x":179842.34000000078,"y":2575518.5000000019}},{"attributes":{"ID":512353,"DIS_CODE":0,"TOWNNAME":"柳營區","LI":"東昇里","LIN":"1鄰","STREET":"十美街","SECT":" ","MAREA":" ","LANE":" ","ALLEY":" ","HOUSE_NO":"３８３號","E_COORD97":179837.78,"N_COORD97":2575516.6400000001,"ADDRESS":"十美街３８３號","OBJECTID":512326},"geometry":{"x":179837.78000000119,"y":2575516.6400000006}},{"attributes":{"ID":512354,"DIS_CODE":0,"TOWNNAME":"柳營區","LI":"東昇里","LIN":"1鄰","STREET":"十美街","SECT":" ","MAREA":" ","LANE":" ","ALLEY":" ","HOUSE_NO":"３８５號","E_COORD97":179833.23000000001,"N_COORD97":2575514.77,"ADDRESS":"十美街３８５號","OBJECTID":512327},"geometry":{"x":179833.23000000138,"y":2575514.7699999996}},{"attributes":{"ID":512355,"DIS_CODE":0,"TOWNNAME":"柳營區","LI":"東昇里","LIN":"1鄰","STREET":"十美街","SECT":" ","MAREA":" ","LANE":" ","ALLEY":" ","HOUSE_NO":"３８７號","E_COORD97":179828.67999999999,"N_COORD97":2575512.9100000001,"ADDRESS":"十美街３８７號","OBJECTID":512328},"geometry":{"x":179828.6799999997,"y":2575512.910000002}},{"attributes":{"ID":512356,"DIS_CODE":0,"TOWNNAME":"柳營區","LI":"東昇里","LIN":"1鄰","STREET":"十美街","SECT":" ","MAREA":" ","LANE":" ","ALLEY":" ","HOUSE_NO":"３８９號","E_COORD97":179824.13,"N_COORD97":2575511.0499999998,"ADDRESS":"十美街３８９號","OBJECTID":512329},"geometry":{"x":179824.12999999989,"y":2575511.0500000045}},{"attributes":{"ID":512357,"DIS_CODE":0,"TOWNNAME":"柳營區","LI":"士林里","LIN":"1鄰","STREET":"士林街","SECT":" ","MAREA":" ","LANE":" ","ALLEY":" ","HOUSE_NO":"１１號","E_COORD97":179281.03,"N_COORD97":2575109.3199999998,"ADDRESS":"士林街１１號","OBJECTID":512330},"geometry":{"x":179281.03000000026,"y":2575109.3200000022}},{"attributes":{"ID":512358,"DIS_CODE":0,"TOWNNAME":"柳營區","LI":"士林里","LIN":"1鄰","STREET":"士林街","SECT":" ","MAREA":" ","LANE":" ","ALLEY":" ","HOUSE_NO":"１３號","E_COORD97":179278.23999999999,"N_COORD97":2575114.96,"ADDRESS":"士林街１３號","OBJECTID":512331},"geometry":{"x":179278.24000000209,"y":2575114.9600000009}},{"attributes":{"ID":512359,"DIS_CODE":0,"TOWNNAME":"柳營區","LI":"士林里","LIN":"1鄰","STREET":"士林街","SECT":" ","MAREA":" ","LANE":" ","ALLEY":" ","HOUSE_NO":"１號","E_COORD97":179294.70000000001,"N_COORD97":2575085.48,"ADDRESS":"士林街１號","OBJECTID":512332},"geometry":{"x":179294.70000000019,"y":2575085.4800000023}},{"attributes":{"ID":512360,"DIS_CODE":0,"TOWNNAME":"柳營區","LI":"士林里","LIN":"1鄰","STREET":"士林街","SECT":" ","MAREA":" ","LANE":" ","ALLEY":" ","HOUSE_NO":"２７號","E_COORD97":179245.16,"N_COORD97":2575157.0699999998,"ADDRESS":"士林街２７號","OBJECTID":512333},"geometry":{"x":179245.16000000108,"y":2575157.0700000003}},{"attributes":{"ID":512361,"DIS_CODE":0,"TOWNNAME":"柳營區","LI":"士林里","LIN":"1鄰","STREET":"士林街","SECT":" ","MAREA":" ","LANE":" ","ALLEY":" ","HOUSE_NO":"３５號","E_COORD97":179253.85000000001,"N_COORD97":2575168.4900000002,"ADDRESS":"士林街３５號","OBJECTID":512334},"geometry":{"x":179253.84999999963,"y":2575168.4900000039}},{"attributes":{"ID":512362,"DIS_CODE":0,"TOWNNAME":"柳營區","LI":"士林里","LIN":"1鄰","STREET":"士林街","SECT":" ","MAREA":" ","LANE":" ","ALLEY":" ","HOUSE_NO":"３９號","E_COORD97":179239.78,"N_COORD97":2575170.2000000002,"ADDRESS":"士林街３９號","OBJECTID":512335},"geometry":{"x":179239.78000000026,"y":2575170.2000000011}},{"attributes":{"ID":512363,"DIS_CODE":0,"TOWNNAME":"柳營區","LI":"士林里","LIN":"1鄰","STREET":"士林街","SECT":" ","MAREA":" ","LANE":" ","ALLEY":" ","HOUSE_NO":"３號","E_COORD97":179292.73000000001,"N_COORD97":2575091.1099999999,"ADDRESS":"士林街３號","OBJECTID":512336},"geometry":{"x":179292.73000000138,"y":2575091.1099999994}},{"attributes":{"ID":512364,"DIS_CODE":0,"TOWNNAME":"柳營區","LI":"士林里","LIN":"1鄰","STREET":"士林街","SECT":" ","MAREA":" ","LANE":" ","ALLEY":" ","HOUSE_NO":"４１號","E_COORD97":179239.79000000001,"N_COORD97":2575175.9399999999,"ADDRESS":"士林街４１號","OBJECTID":512337},"geometry":{"x":179239.79000000004,"y":2575175.9400000013}},{"attributes":{"ID":512365,"DIS_CODE":0,"TOWNNAME":"新營區","LI":"埤寮里","LIN":"1鄰","STREET":"中正路","SECT":" ","MAREA":" ","LANE":" ","ALLEY":" ","HOUSE_NO":"５１０之３號","E_COORD97":180092.14000000001,"N_COORD97":2580858.1299999999,"ADDRESS":"中正路５１０之３號","OBJECTID":512338},"geometry":{"x":180092.1400000006,"y":2580858.129999999}},{"attributes":{"ID":512366,"DIS_CODE":0,"TOWNNAME":"新營區","LI":"新北里","LIN":"1鄰","STREET":"三興街","SECT":" ","MAREA":" ","LANE":" ","ALLEY":" ","HOUSE_NO":"４７號之８","E_COORD97":179424.67000000001,"N_COORD97":2578868.98,"ADDRESS":"三興街４７號之８","OBJECTID":512339},"geometry":{"x":179424.67000000086,"y":2578868.9800000023}},{"attributes":{"ID":512367,"DIS_CODE":0,"TOWNNAME":"新營區","LI":"三仙里","LIN":"1鄰","STREET":"民權路","SECT":" ","MAREA":" ","LANE":" ","ALLEY":" ","HOUSE_NO":"１３號之２","E_COORD97":179735.92999999999,"N_COORD97":2578090.0699999998,"ADDRESS":"民權路１３號之２","OBJECTID":512340},"geometry":{"x":179735.93000000063,"y":2578090.0700000003}},{"attributes":{"ID":512368,"DIS_CODE":0,"TOWNNAME":"新營區","LI":"新南里","LIN":"1鄰","STREET":"民治路","SECT":" ","MAREA":" ","LANE":" ","ALLEY":" ","HOUSE_NO":"２０２號之３","E_COORD97":178894.76000000001,"N_COORD97":2578603.52,"ADDRESS":"民治路２０２號之３","OBJECTID":512341},"geometry":{"x":178894.76000000071,"y":2578603.5200000014}},{"attributes":{"ID":512369,"DIS_CODE":0,"TOWNNAME":"新營區","LI":"三仙里","LIN":"1鄰","STREET":"民權路","SECT":" ","MAREA":" ","LANE":" ","ALLEY":" ","HOUSE_NO":"１號","E_COORD97":179756.48000000001,"N_COORD97":2577991.3399999999,"ADDRESS":"民權路１號","OBJECTID":512342},"geometry":{"x":179756.48000000231,"y":2577991.3400000017}},{"attributes":{"ID":512370,"DIS_CODE":0,"TOWNNAME":"新營區","LI":"埤寮里","LIN":"1鄰","STREET":"中正路","SECT":" ","MAREA":" ","LANE":" ","ALLEY":" ","HOUSE_NO":"４７８號","E_COORD97":180083.82999999999,"N_COORD97":2580698.6400000001,"ADDRESS":"中正路４７８號","OBJECTID":512343},"geometry":{"x":180083.83000000007,"y":2580698.6400000025}},{"attributes":{"ID":512371,"DIS_CODE":0,"TOWNNAME":"新營區","LI":"三仙里","LIN":"1鄰","STREET":"民權路","SECT":" ","MAREA":" ","LANE":" ","ALLEY":" ","HOUSE_NO":"１９號","E_COORD97":179729.63,"N_COORD97":2578105.5499999998,"ADDRESS":"民權路１９號","OBJECTID":512344},"geometry":{"x":179729.63000000082,"y":2578105.5500000026}},{"attributes":{"ID":512372,"DIS_CODE":0,"TOWNNAME":"新營區","LI":"埤寮里","LIN":"1鄰","STREET":"中正路","SECT":" ","MAREA":" ","LANE":" ","ALLEY":" ","HOUSE_NO":"４９８號","E_COORD97":180086.38,"N_COORD97":2580804.9399999999,"ADDRESS":"中正路４９８號","OBJECTID":512345},"geometry":{"x":180086.37999999989,"y":2580804.9399999995}},{"attributes":{"ID":512373,"DIS_CODE":0,"TOWNNAME":"新營區","LI":"延平里","LIN":"1鄰","STREET":"新進路","SECT":"二段","MAREA":" ","LANE":" ","ALLEY":" ","HOUSE_NO":"１號","E_COORD97":179755.62071300001,"N_COORD97":2577729.5340700001,"ADDRESS":"新進路二段１號","OBJECTID":512346},"geometry":{"x":179755.62071300019,"y":2577729.5340720043}},{"attributes":{"ID":512374,"DIS_CODE":0,"TOWNNAME":"新營區","LI":"埤寮里","LIN":"1鄰","STREET":"中正路","SECT":" ","MAREA":" ","LANE":" ","ALLEY":" ","HOUSE_NO":"５７９號","E_COORD97":180084.29000000001,"N_COORD97":2580960.4300000002,"ADDRESS":"中正路５７９號","OBJECTID":512347},"geometry":{"x":180084.29000000004,"y":2580960.4300000016}},{"attributes":{"ID":512375,"DIS_CODE":0,"TOWNNAME":"新營區","LI":"延平里","LIN":"1鄰","STREET":"新進路","SECT":"二段","MAREA":" ","LANE":" ","ALLEY":" ","HOUSE_NO":"１５號","E_COORD97":179725.315676,"N_COORD97":2577730.4865700002,"ADDRESS":"新進路二段１５號","OBJECTID":512348},"geometry":{"x":179725.31567599997,"y":2577730.4865720011}},{"attributes":{"ID":512376,"DIS_CODE":0,"TOWNNAME":"新營區","LI":"新北里","LIN":"1鄰","STREET":"周武街","SECT":" ","MAREA":" ","LANE":" ","ALLEY":" ","HOUSE_NO":"７號","E_COORD97":179399.44,"N_COORD97":2578832.4900000002,"ADDRESS":"周武街７號","OBJECTID":512349},"geometry":{"x":179399.44000000134,"y":2578832.4900000002}},{"attributes":{"ID":512377,"DIS_CODE":0,"TOWNNAME":"新營區","LI":"護鎮里","LIN":"1鄰","STREET":"建國路","SECT":" ","MAREA":" ","LANE":" ","ALLEY":" ","HOUSE_NO":"１３８號","E_COORD97":179650.67999999999,"N_COORD97":2581031.8199999998,"ADDRESS":"建國路１３８號","OBJECTID":512350},"geometry":{"x":179650.6799999997,"y":2581031.820000004}},{"attributes":{"ID":512378,"DIS_CODE":0,"TOWNNAME":"新營區","LI":"新北里","LIN":"1鄰","STREET":"周武街","SECT":" ","MAREA":" ","LANE":" ","ALLEY":" ","HOUSE_NO":"８號","E_COORD97":179415.85999999999,"N_COORD97":2578836.8399999999,"ADDRESS":"周武街８號","OBJECTID":512351},"geometry":{"x":179415.86000000034,"y":2578836.8399999999}},{"attributes":{"ID":512379,"DIS_CODE":0,"TOWNNAME":"新營區","LI":"永生里","LIN":"1鄰","STREET":"中山路","SECT":" ","MAREA":" ","LANE":" ","ALLEY":" ","HOUSE_NO":"１３９號","E_COORD97":180099.22,"N_COORD97":2578125.9500000002,"ADDRESS":"中山路１３９號","OBJECTID":512352},"geometry":{"x":180099.21999999974,"y":2578125.9499999993}},{"attributes":{"ID":512380,"DIS_CODE":0,"TOWNNAME":"新營區","LI":"王公里","LIN":"1鄰","STREET":"中正路","SECT":" ","MAREA":" ","LANE":" ","ALLEY":" ","HOUSE_NO":"５２號","E_COORD97":180123.42999999999,"N_COORD97":2578966.3900000001,"ADDRESS":"中正路５２號","OBJECTID":512353},"geometry":{"x":180123.4299999997,"y":2578966.3900000006}},{"attributes":{"ID":512381,"DIS_CODE":0,"TOWNNAME":"新營區","LI":"王公里","LIN":"1鄰","STREET":"中正路","SECT":" ","MAREA":" ","LANE":" ","ALLEY":" ","HOUSE_NO":"６６號","E_COORD97":180126.70999999999,"N_COORD97":2579010.6699999999,"ADDRESS":"中正路６６號","OBJECTID":512354},"geometry":{"x":180126.70999999996,"y":2579010.6699999999}},{"attributes":{"ID":512382,"DIS_CODE":0,"TOWNNAME":"新營區","LI":"三仙里","LIN":"1鄰","STREET":"民權路","SECT":" ","MAREA":" ","LANE":" ","ALLEY":" ","HOUSE_NO":"５號","E_COORD97":179748.47,"N_COORD97":2578022.3900000001,"ADDRESS":"民權路５號","OBJECTID":512355},"geometry":{"x":179748.46999999974,"y":2578022.3900000025}},{"attributes":{"ID":512383,"DIS_CODE":0,"TOWNNAME":"新營區","LI":"大宏里","LIN":"1鄰","STREET":"民治路","SECT":" ","MAREA":" ","LANE":" ","ALLEY":" ","HOUSE_NO":"１９號","E_COORD97":180412.42000000001,"N_COORD97":2578869.7799999998,"ADDRESS":"民治路１９號","OBJECTID":512356},"geometry":{"x":180412.42000000179,"y":2578869.7799999993}},{"attributes":{"ID":512384,"DIS_CODE":0,"TOWNNAME":"新營區","LI":"中營里","LIN":"1鄰","STREET":"中山路","SECT":" ","MAREA":" ","LANE":" ","ALLEY":" ","HOUSE_NO":"１４０之３號","E_COORD97":180153.35000000001,"N_COORD97":2578229.8599999999,"ADDRESS":"中山路１４０之３號","OBJECTID":512357},"geometry":{"x":180153.35000000056,"y":2578229.8599999975}},{"attributes":{"ID":512385,"DIS_CODE":0,"TOWNNAME":"新營區","LI":"中營里","LIN":"1鄰","STREET":"中山路","SECT":" ","MAREA":" ","LANE":" ","ALLEY":" ","HOUSE_NO":"１３８之３號","E_COORD97":180166.70999999999,"N_COORD97":2578240.8700000001,"ADDRESS":"中山路１３８之３號","OBJECTID":512358},"geometry":{"x":180166.71000000089,"y":2578240.870000001}},{"attributes":{"ID":512386,"DIS_CODE":0,"TOWNNAME":"新營區","LI":"埤寮里","LIN":"1鄰","STREET":"中正路","SECT":" ","MAREA":" ","LANE":" ","ALLEY":" ","HOUSE_NO":"５０３號","E_COORD97":180053.76000000001,"N_COORD97":2580624.5800000001,"ADDRESS":"中正路５０３號","OBJECTID":512359},"geometry":{"x":180053.75999999885,"y":2580624.5800000019}},{"attributes":{"ID":512387,"DIS_CODE":0,"TOWNNAME":"新營區","LI":"王公里","LIN":"1鄰","STREET":"中正路","SECT":" ","MAREA":" ","LANE":" ","ALLEY":" ","HOUSE_NO":"３４號","E_COORD97":180107.82000000001,"N_COORD97":2578892.2599999998,"ADDRESS":"中正路３４號","OBJECTID":512360},"geometry":{"x":180107.8200000003,"y":2578892.2600000035}},{"attributes":{"ID":512388,"DIS_CODE":0,"TOWNNAME":"新營區","LI":"新東里","LIN":"1鄰","STREET":"開元路","SECT":" ","MAREA":" ","LANE":" ","ALLEY":" ","HOUSE_NO":"１８３號","E_COORD97":181512.48000000001,"N_COORD97":2579374.0899999999,"ADDRESS":"開元路１８３號","OBJECTID":512361},"geometry":{"x":181512.48000000045,"y":2579374.0899999999}},{"attributes":{"ID":512389,"DIS_CODE":0,"TOWNNAME":"新營區","LI":"大宏里","LIN":"1鄰","STREET":"民族路","SECT":" ","MAREA":" ","LANE":" ","ALLEY":" ","HOUSE_NO":"７０號","E_COORD97":180279.45000000001,"N_COORD97":2578863.77,"ADDRESS":"民族路７０號","OBJECTID":512362},"geometry":{"x":180279.45000000019,"y":2578863.7699999996}},{"attributes":{"ID":512390,"DIS_CODE":0,"TOWNNAME":"新營區","LI":"中營里","LIN":"1鄰","STREET":"中山路","SECT":" ","MAREA":" ","LANE":" ","ALLEY":" ","HOUSE_NO":"１４８號","E_COORD97":180092.60999999999,"N_COORD97":2578243.3700000001,"ADDRESS":"中山路１４８號","OBJECTID":512363},"geometry":{"x":180092.61000000034,"y":2578243.3700000029}},{"attributes":{"ID":512391,"DIS_CODE":0,"TOWNNAME":"新營區","LI":"大宏里","LIN":"1鄰","STREET":"民治路","SECT":" ","MAREA":" ","LANE":" ","ALLEY":" ","HOUSE_NO":"２１號","E_COORD97":180390,"N_COORD97":2578873.21,"ADDRESS":"民治路２１號","OBJECTID":512364},"geometry":{"x":180390.00000000093,"y":2578873.209999999}},{"attributes":{"ID":512392,"DIS_CODE":0,"TOWNNAME":"新營區","LI":"護鎮里","LIN":"1鄰","STREET":"建國路","SECT":" ","MAREA":" ","LANE":" ","ALLEY":" ","HOUSE_NO":"２２６號","E_COORD97":179418.66,"N_COORD97":2581042.8900000001,"ADDRESS":"建國路２２６號","OBJECTID":512365},"geometry":{"x":179418.66000000015,"y":2581042.8900000025}},{"attributes":{"ID":512393,"DIS_CODE":0,"TOWNNAME":"新營區","LI":"埤寮里","LIN":"1鄰","STREET":"中正路","SECT":" ","MAREA":" ","LANE":" ","ALLEY":" ","HOUSE_NO":"５１２之１號","E_COORD97":180095.35999999999,"N_COORD97":2580891.3399999999,"ADDRESS":"中正路５１２之１號","OBJECTID":512366},"geometry":{"x":180095.36000000034,"y":2580891.3399999999}},{"attributes":{"ID":512394,"DIS_CODE":0,"TOWNNAME":"新營區","LI":"新北里","LIN":"1鄰","STREET":"周武街","SECT":" ","MAREA":" ","LANE":" ","ALLEY":" ","HOUSE_NO":"１１號","E_COORD97":179392.51999999999,"N_COORD97":2578841.3900000001,"ADDRESS":"周武街１１號","OBJECTID":512367},"geometry":{"x":179392.52000000142,"y":2578841.3900000043}},{"attributes":{"ID":512395,"DIS_CODE":0,"TOWNNAME":"新營區","LI":"新南里","LIN":"1鄰","STREET":"民治路","SECT":" ","MAREA":" ","LANE":" ","ALLEY":" ","HOUSE_NO":"２０６號","E_COORD97":178885.34,"N_COORD97":2578597.96,"ADDRESS":"民治路２０６號","OBJECTID":512368},"geometry":{"x":178885.33999999892,"y":2578597.9600000028}},{"attributes":{"ID":512396,"DIS_CODE":0,"TOWNNAME":"新營區","LI":"護鎮里","LIN":"1鄰","STREET":"建國路","SECT":" ","MAREA":" ","LANE":" ","ALLEY":" ","HOUSE_NO":"２２４號","E_COORD97":179423.76999999999,"N_COORD97":2581042.8700000001,"ADDRESS":"建國路２２４號","OBJECTID":512369},"geometry":{"x":179423.77000000048,"y":2581042.8700000029}},{"attributes":{"ID":512397,"DIS_CODE":0,"TOWNNAME":"新營區","LI":"埤寮里","LIN":"1鄰","STREET":"中正路","SECT":" ","MAREA":" ","LANE":" ","ALLEY":" ","HOUSE_NO":"５０２號","E_COORD97":180086.38,"N_COORD97":2580817.1200000001,"ADDRESS":"中正路５０２號","OBJECTID":512370},"geometry":{"x":180086.37999999989,"y":2580817.1200000048}},{"attributes":{"ID":512398,"DIS_CODE":0,"TOWNNAME":"新營區","LI":"埤寮里","LIN":"1鄰","STREET":"中正路","SECT":" ","MAREA":" ","LANE":" ","ALLEY":" ","HOUSE_NO":"４８１號","E_COORD97":180049.23999999999,"N_COORD97":2580520.5,"ADDRESS":"中正路４８１號","OBJECTID":512371},"geometry":{"x":180049.24000000022,"y":2580520.5}},{"attributes":{"ID":512399,"DIS_CODE":0,"TOWNNAME":"新營區","LI":"護鎮里","LIN":"1鄰","STREET":"建國路","SECT":" ","MAREA":" ","LANE":" ","ALLEY":" ","HOUSE_NO":"１５０號","E_COORD97":179618.98999999999,"N_COORD97":2581033.0800000001,"ADDRESS":"建國路１５０號","OBJECTID":512372},"geometry":{"x":179618.99000000115,"y":2581033.0800000038}},{"attributes":{"ID":512400,"DIS_CODE":0,"TOWNNAME":"新營區","LI":"中營里","LIN":"1鄰","STREET":"文昌街","SECT":" ","MAREA":" ","LANE":" ","ALLEY":" ","HOUSE_NO":"３３號之１","E_COORD97":180270.81,"N_COORD97":2578296.8500000001,"ADDRESS":"文昌街３３號之１","OBJECTID":512373},"geometry":{"x":180270.81000000052,"y":2578296.8499999996}},{"attributes":{"ID":512401,"DIS_CODE":0,"TOWNNAME":"新營區","LI":"民權里","LIN":"1鄰","STREET":"中山路","SECT":" ","MAREA":" ","LANE":" ","ALLEY":" ","HOUSE_NO":"１５４號","E_COORD97":180071.69,"N_COORD97":2578144.9100000001,"ADDRESS":"中山路１５４號","OBJECTID":512374},"geometry":{"x":180071.69000000041,"y":2578144.9100000001}},{"attributes":{"ID":512402,"DIS_CODE":0,"TOWNNAME":"南區","LI":"鯤鯓里","LIN":"1鄰","STREET":"鯤鯓路","SECT":" ","MAREA":" ","LANE":" ","ALLEY":" ","HOUSE_NO":"８７號","E_COORD97":165143.28,"N_COORD97":2539980.9900000002,"ADDRESS":"鯤鯓路８７號","OBJECTID":512375},"geometry":{"x":165143.27999999933,"y":2539980.9900000021}},{"attributes":{"ID":512403,"DIS_CODE":0,"TOWNNAME":"南區","LI":"南都里","LIN":"1鄰","STREET":"中華南路","SECT":"二段","MAREA":" ","LANE":" ","ALLEY":" ","HOUSE_NO":"３１７號","E_COORD97":166450.06,"N_COORD97":2540256.6000000001,"ADDRESS":"中華南路二段３１７號","OBJECTID":512376},"geometry":{"x":166450.06000000052,"y":2540256.6000000034}},{"attributes":{"ID":512404,"DIS_CODE":0,"TOWNNAME":"南區","LI":"南都里","LIN":"1鄰","STREET":"中華南路","SECT":"二段","MAREA":" ","LANE":" ","ALLEY":" ","HOUSE_NO":"３１９號","E_COORD97":166446.10000000001,"N_COORD97":2540259.4199999999,"ADDRESS":"中華南路二段３１９號","OBJECTID":512377},"geometry":{"x":166446.10000000056,"y":2540259.4200000018}},{"attributes":{"ID":512405,"DIS_CODE":0,"TOWNNAME":"南區","LI":"南都里","LIN":"1鄰","STREET":"中華南路","SECT":"二段","MAREA":" ","LANE":" ","ALLEY":" ","HOUSE_NO":"３２１號","E_COORD97":166442.14000000001,"N_COORD97":2540256.6000000001,"ADDRESS":"中華南路二段３２１號","OBJECTID":512378},"geometry":{"x":166442.13999999873,"y":2540256.6000000034}},{"attributes":{"ID":512406,"DIS_CODE":0,"TOWNNAME":"南區","LI":"南都里","LIN":"1鄰","STREET":"中華南路","SECT":"二段","MAREA":" ","LANE":" ","ALLEY":" ","HOUSE_NO":"３２３號","E_COORD97":166437.89999999999,"N_COORD97":2540259.1400000001,"ADDRESS":"中華南路二段３２３號","OBJECTID":512379},"geometry":{"x":166437.90000000224,"y":2540259.1400000006}},{"attributes":{"ID":512407,"DIS_CODE":0,"TOWNNAME":"南區","LI":"南都里","LIN":"1鄰","STREET":"中華南路","SECT":"二段","MAREA":" ","LANE":" ","ALLEY":" ","HOUSE_NO":"３２５號","E_COORD97":166432.25,"N_COORD97":2540256.6000000001,"ADDRESS":"中華南路二段３２５號","OBJECTID":512380},"geometry":{"x":166432.25000000093,"y":2540256.6000000034}},{"attributes":{"ID":512408,"DIS_CODE":0,"TOWNNAME":"南區","LI":"南都里","LIN":"1鄰","STREET":"中華南路","SECT":"二段","MAREA":" ","LANE":" ","ALLEY":" ","HOUSE_NO":"３２７號","E_COORD97":166428.57000000001,"N_COORD97":2540258.8599999999,"ADDRESS":"中華南路二段３２７號","OBJECTID":512381},"geometry":{"x":166428.57000000123,"y":2540258.8600000013}},{"attributes":{"ID":512409,"DIS_CODE":0,"TOWNNAME":"南區","LI":"南都里","LIN":"1鄰","STREET":"中華南路","SECT":"二段","MAREA":" ","LANE":" ","ALLEY":" ","HOUSE_NO":"３２９號","E_COORD97":166423.47,"N_COORD97":2540258.1899999999,"ADDRESS":"中華南路二段３２９號","OBJECTID":512382},"geometry":{"x":166423.47000000067,"y":2540258.1899999995}},{"attributes":{"ID":512410,"DIS_CODE":0,"TOWNNAME":"南區","LI":"南都里","LIN":"1鄰","STREET":"中華南路","SECT":"二段","MAREA":" ","LANE":" ","ALLEY":" ","HOUSE_NO":"３３１號","E_COORD97":166419.31,"N_COORD97":2540260.1099999999,"ADDRESS":"中華南路二段３３１號","OBJECTID":512383},"geometry":{"x":166419.31000000052,"y":2540260.1100000013}},{"attributes":{"ID":512411,"DIS_CODE":0,"TOWNNAME":"南區","LI":"南都里","LIN":"1鄰","STREET":"中華南路","SECT":"二段","MAREA":" ","LANE":" ","ALLEY":" ","HOUSE_NO":"３３３號","E_COORD97":166415.14000000001,"N_COORD97":2540257.8700000001,"ADDRESS":"中華南路二段３３３號","OBJECTID":512384},"geometry":{"x":166415.14000000153,"y":2540257.870000001}},{"attributes":{"ID":512412,"DIS_CODE":0,"TOWNNAME":"南區","LI":"南都里","LIN":"1鄰","STREET":"中華南路","SECT":"二段","MAREA":" ","LANE":" ","ALLEY":" ","HOUSE_NO":"３３５號","E_COORD97":166411.29999999999,"N_COORD97":2540259.9500000002,"ADDRESS":"中華南路二段３３５號","OBJECTID":512385},"geometry":{"x":166411.30000000075,"y":2540259.9499999993}},{"attributes":{"ID":512413,"DIS_CODE":0,"TOWNNAME":"南區","LI":"鯤鯓里","LIN":"1鄰","STREET":"鯤鯓路","SECT":" ","MAREA":" ","LANE":" ","ALLEY":" ","HOUSE_NO":"９４號","E_COORD97":165098.34,"N_COORD97":2540015.9399999999,"ADDRESS":"鯤鯓路９４號","OBJECTID":512386},"geometry":{"x":165098.33999999892,"y":2540015.9399999995}},{"attributes":{"ID":512414,"DIS_CODE":0,"TOWNNAME":"南區","LI":"鯤鯓里","LIN":"1鄰","STREET":"鯤鯓路","SECT":" ","MAREA":" ","LANE":" ","ALLEY":" ","HOUSE_NO":"７７號之１５","E_COORD97":165149.51000000001,"N_COORD97":2539940.0299999998,"ADDRESS":"鯤鯓路７７號之１５","OBJECTID":512387},"geometry":{"x":165149.50999999978,"y":2539940.0299999993}},{"attributes":{"ID":512415,"DIS_CODE":0,"TOWNNAME":"南區","LI":"鯤鯓里","LIN":"1鄰","STREET":"鯤鯓路","SECT":" ","MAREA":" ","LANE":" ","ALLEY":" ","HOUSE_NO":"１００號之１","E_COORD97":165108.37,"N_COORD97":2540032.8399999999,"ADDRESS":"鯤鯓路１００號之１","OBJECTID":512388},"geometry":{"x":165108.37000000011,"y":2540032.8400000017}},{"attributes":{"ID":512416,"DIS_CODE":0,"TOWNNAME":"南區","LI":"鯤鯓里","LIN":"1鄰","STREET":"鯤鯓路","SECT":" ","MAREA":" ","LANE":" ","ALLEY":" ","HOUSE_NO":"２６之２號","E_COORD97":165723.56,"N_COORD97":2539998.9199999999,"ADDRESS":"鯤鯓路２６之２號","OBJECTID":512389},"geometry":{"x":165723.55999999959,"y":2539998.9199999999}},{"attributes":{"ID":512417,"DIS_CODE":0,"TOWNNAME":"南區","LI":"鯤鯓里","LIN":"1鄰","STREET":"鯤鯓路","SECT":" ","MAREA":" ","LANE":" ","ALLEY":" ","HOUSE_NO":"２６之３號","E_COORD97":165734.04000000001,"N_COORD97":2539998.9199999999,"ADDRESS":"鯤鯓路２６之３號","OBJECTID":512390},"geometry":{"x":165734.04000000004,"y":2539998.9199999999}},{"attributes":{"ID":512418,"DIS_CODE":0,"TOWNNAME":"南區","LI":"鯤鯓里","LIN":"1鄰","STREET":"鯤鯓路","SECT":" ","MAREA":" ","LANE":" ","ALLEY":" ","HOUSE_NO":"２６之５號","E_COORD97":165745.41,"N_COORD97":2539998.9199999999,"ADDRESS":"鯤鯓路２６之５號","OBJECTID":512391},"geometry":{"x":165745.41000000015,"y":2539998.9199999999}},{"attributes":{"ID":512419,"DIS_CODE":0,"TOWNNAME":"學甲區","LI":"仁得里","LIN":"1鄰","STREET":"華宗路","SECT":" ","MAREA":" ","LANE":" ","ALLEY":" ","HOUSE_NO":"２２３號","E_COORD97":166388.17000000001,"N_COORD97":2569659.6200000001,"ADDRESS":"華宗路２２３號","OBJECTID":512392},"geometry":{"x":166388.17000000179,"y":2569659.6200000029}},{"attributes":{"ID":512420,"DIS_CODE":0,"TOWNNAME":"南區","LI":"鯤鯓里","LIN":"1鄰","STREET":"鯤鯓路","SECT":" ","MAREA":" ","LANE":" ","ALLEY":" ","HOUSE_NO":"２６之６號","E_COORD97":165757.17999999999,"N_COORD97":2539998.79,"ADDRESS":"鯤鯓路２６之６號","OBJECTID":512393},"geometry":{"x":165757.18000000156,"y":2539998.7899999991}},{"attributes":{"ID":512421,"DIS_CODE":0,"TOWNNAME":"南區","LI":"鯤鯓里","LIN":"1鄰","STREET":"鯤鯓路","SECT":" ","MAREA":" ","LANE":" ","ALLEY":" ","HOUSE_NO":"２６號","E_COORD97":165670.10000000001,"N_COORD97":2540002.9300000002,"ADDRESS":"鯤鯓路２６號","OBJECTID":512394},"geometry":{"x":165670.10000000056,"y":2540002.9299999997}},{"attributes":{"ID":512422,"DIS_CODE":0,"TOWNNAME":"南區","LI":"鯤鯓里","LIN":"1鄰","STREET":"鯤鯓路","SECT":" ","MAREA":" ","LANE":" ","ALLEY":" ","HOUSE_NO":"２６號之１","E_COORD97":165709.20999999999,"N_COORD97":2540003.8300000001,"ADDRESS":"鯤鯓路２６號之１","OBJECTID":512395},"geometry":{"x":165709.20999999996,"y":2540003.8300000001}},{"attributes":{"ID":512423,"DIS_CODE":0,"TOWNNAME":"南區","LI":"鯤鯓里","LIN":"1鄰","STREET":"鯤鯓路","SECT":" ","MAREA":" ","LANE":" ","ALLEY":" ","HOUSE_NO":"５９號","E_COORD97":165291.31,"N_COORD97":2539977.8300000001,"ADDRESS":"鯤鯓路５９號","OBJECTID":512396},"geometry":{"x":165291.30999999959,"y":2539977.8300000019}},{"attributes":{"ID":512424,"DIS_CODE":0,"TOWNNAME":"南區","LI":"鯤鯓里","LIN":"1鄰","STREET":"鯤鯓路","SECT":" ","MAREA":" ","LANE":" ","ALLEY":" ","HOUSE_NO":"７４號","E_COORD97":165151.72,"N_COORD97":2540016.5499999998,"ADDRESS":"鯤鯓路７４號","OBJECTID":512397},"geometry":{"x":165151.7200000016,"y":2540016.5500000007}},{"attributes":{"ID":512425,"DIS_CODE":0,"TOWNNAME":"南區","LI":"鯤鯓里","LIN":"1鄰","STREET":"鯤鯓路","SECT":" ","MAREA":" ","LANE":" ","ALLEY":" ","HOUSE_NO":"７７號","E_COORD97":165167.57999999999,"N_COORD97":2539982.4500000002,"ADDRESS":"鯤鯓路７７號","OBJECTID":512398},"geometry":{"x":165167.58000000007,"y":2539982.450000003}},{"attributes":{"ID":512426,"DIS_CODE":0,"TOWNNAME":"南區","LI":"鯤鯓里","LIN":"1鄰","STREET":"鯤鯓路","SECT":" ","MAREA":" ","LANE":" ","ALLEY":" ","HOUSE_NO":"７７號之１","E_COORD97":165162.79999999999,"N_COORD97":2539966.9399999999,"ADDRESS":"鯤鯓路７７號之１","OBJECTID":512399},"geometry":{"x":165162.79999999981,"y":2539966.9400000013}},{"attributes":{"ID":512427,"DIS_CODE":0,"TOWNNAME":"南區","LI":"鯤鯓里","LIN":"1鄰","STREET":"鯤鯓路","SECT":" ","MAREA":" ","LANE":" ","ALLEY":" ","HOUSE_NO":"７７號之１０","E_COORD97":165163.51999999999,"N_COORD97":2539922.9199999999,"ADDRESS":"鯤鯓路７７號之１０","OBJECTID":512400},"geometry":{"x":165163.52000000048,"y":2539922.9200000018}}]}