{"displayFieldName":"TOWNNAME","fieldAliases":{"ID":"ID","DIS_CODE":"DIS_CODE","TOWNNAME":"TOWNNAME","LI":"LI","LIN":"LIN","STREET":"STREET","SECT":"SECT","MAREA":"MAREA","LANE":"LANE","ALLEY":"ALLEY","HOUSE_NO":"HOUSE_NO","E_COORD97":"E_COORD97","N_COORD97":"N_COORD97","ADDRESS":"ADDRESS","OBJECTID":"OBJECTID"},"geometryType":"esriGeometryPoint","spatialReference":{"wkid":102443,"latestWkid":3826},"fields":[{"name":"ID","type":"esriFieldTypeDouble","alias":"ID"},{"name":"DIS_CODE","type":"esriFieldTypeInteger","alias":"DIS_CODE"},{"name":"TOWNNAME","type":"esriFieldTypeString","alias":"TOWNNAME","length":8},{"name":"LI","type":"esriFieldTypeString","alias":"LI","length":8},{"name":"LIN","type":"esriFieldTypeString","alias":"LIN","length":12},{"name":"STREET","type":"esriFieldTypeString","alias":"STREET","length":20},{"name":"SECT","type":"esriFieldTypeString","alias":"SECT","length":8},{"name":"MAREA","type":"esriFieldTypeString","alias":"MAREA","length":12},{"name":"LANE","type":"esriFieldTypeString","alias":"LANE","length":10},{"name":"ALLEY","type":"esriFieldTypeString","alias":"ALLEY","length":10},{"name":"HOUSE_NO","type":"esriFieldTypeString","alias":"HOUSE_NO","length":20},{"name":"E_COORD97","type":"esriFieldTypeDouble","alias":"E_COORD97"},{"name":"N_COORD97","type":"esriFieldTypeDouble","alias":"N_COORD97"},{"name":"ADDRESS","type":"esriFieldTypeString","alias":"ADDRESS","length":50},{"name":"OBJECTID","type":"esriFieldTypeOID","alias":"OBJECTID"}],"features":[{"attributes":{"ID":643228,"DIS_CODE":0,"TOWNNAME":"歸仁區","LI":"後市里","LIN":"18鄰","STREET":"中山路","SECT":"二段","MAREA":" ","LANE":" ","ALLEY":" ","HOUSE_NO":"４６號","E_COORD97":177479.72,"N_COORD97":2540806.25,"ADDRESS":"中山路二段４６號","OBJECTID":643201},"geometry":{"x":177479.72000000067,"y":2540806.2500000019}},{"attributes":{"ID":643229,"DIS_CODE":0,"TOWNNAME":"歸仁區","LI":"後市里","LIN":"26鄰","STREET":"中山路","SECT":"二段","MAREA":" ","LANE":" ","ALLEY":" ","HOUSE_NO":"７０號","E_COORD97":177399.07999999999,"N_COORD97":2540817.7400000002,"ADDRESS":"中山路二段７０號","OBJECTID":643202},"geometry":{"x":177399.08000000194,"y":2540817.7400000002}},{"attributes":{"ID":643230,"DIS_CODE":0,"TOWNNAME":"歸仁區","LI":"六甲里","LIN":"18鄰","STREET":"六甲路","SECT":" ","MAREA":" ","LANE":" ","ALLEY":" ","HOUSE_NO":"３５１號","E_COORD97":175652.97,"N_COORD97":2539218.25,"ADDRESS":"六甲路３５１號","OBJECTID":643203},"geometry":{"x":175652.96999999974,"y":2539218.2500000037}},{"attributes":{"ID":643231,"DIS_CODE":0,"TOWNNAME":"歸仁區","LI":"文化里","LIN":"18鄰","STREET":"文化北二街","SECT":" ","MAREA":" ","LANE":" ","ALLEY":" ","HOUSE_NO":"３號","E_COORD97":177218.35999999999,"N_COORD97":2541438.3399999999,"ADDRESS":"文化北二街３號","OBJECTID":643204},"geometry":{"x":177218.36000000127,"y":2541438.3400000036}},{"attributes":{"ID":643232,"DIS_CODE":0,"TOWNNAME":"歸仁區","LI":"後市里","LIN":"25鄰","STREET":"民族北街","SECT":" ","MAREA":" ","LANE":" ","ALLEY":" ","HOUSE_NO":"９６號","E_COORD97":177462.28,"N_COORD97":2541071.25,"ADDRESS":"民族北街９６號","OBJECTID":643205},"geometry":{"x":177462.28000000212,"y":2541071.25}},{"attributes":{"ID":643233,"DIS_CODE":0,"TOWNNAME":"歸仁區","LI":"南興里","LIN":"32鄰","STREET":"文化九街","SECT":" ","MAREA":" ","LANE":" ","ALLEY":" ","HOUSE_NO":"５１號","E_COORD97":176365.73999999999,"N_COORD97":2541105.3300000001,"ADDRESS":"文化九街５１號","OBJECTID":643206},"geometry":{"x":176365.74000000209,"y":2541105.3300000001}},{"attributes":{"ID":643234,"DIS_CODE":0,"TOWNNAME":"歸仁區","LI":"南保里","LIN":"53鄰","STREET":"大順街","SECT":" ","MAREA":" ","LANE":" ","ALLEY":" ","HOUSE_NO":"２１３號","E_COORD97":176832.97,"N_COORD97":2540596.25,"ADDRESS":"大順街２１３號","OBJECTID":643207},"geometry":{"x":176832.96999999974,"y":2540596.2500000019}},{"attributes":{"ID":643235,"DIS_CODE":0,"TOWNNAME":"歸仁區","LI":"六甲里","LIN":"38鄰","STREET":"六甲八街","SECT":" ","MAREA":" ","LANE":" ","ALLEY":" ","HOUSE_NO":"１０９號","E_COORD97":175287.82000000001,"N_COORD97":2539565.25,"ADDRESS":"六甲八街１０９號","OBJECTID":643208},"geometry":{"x":175287.82000000123,"y":2539565.2500000019}},{"attributes":{"ID":643236,"DIS_CODE":0,"TOWNNAME":"歸仁區","LI":"歸仁里","LIN":"18鄰","STREET":"大仁二街","SECT":" ","MAREA":" ","LANE":" ","ALLEY":" ","HOUSE_NO":"３５號","E_COORD97":178118.14000000001,"N_COORD97":2541089.1099999999,"ADDRESS":"大仁二街３５號","OBJECTID":643209},"geometry":{"x":178118.13999999966,"y":2541089.1099999994}},{"attributes":{"ID":643237,"DIS_CODE":0,"TOWNNAME":"歸仁區","LI":"後市里","LIN":"26鄰","STREET":"中山路","SECT":"二段","MAREA":" ","LANE":" ","ALLEY":" ","HOUSE_NO":"９４號","E_COORD97":177350.88,"N_COORD97":2540823.7400000002,"ADDRESS":"中山路二段９４號","OBJECTID":643210},"geometry":{"x":177350.87999999989,"y":2540823.7400000021}},{"attributes":{"ID":643238,"DIS_CODE":0,"TOWNNAME":"歸仁區","LI":"後市里","LIN":"38鄰","STREET":"民權三街","SECT":" ","MAREA":" ","LANE":" ","ALLEY":" ","HOUSE_NO":"１０６號","E_COORD97":177244.38,"N_COORD97":2541064.75,"ADDRESS":"民權三街１０６號","OBJECTID":643211},"geometry":{"x":177244.38000000175,"y":2541064.75}},{"attributes":{"ID":643239,"DIS_CODE":0,"TOWNNAME":"歸仁區","LI":"崙頂里","LIN":"18鄰","STREET":"大成一街","SECT":" ","MAREA":" ","LANE":" ","ALLEY":" ","HOUSE_NO":"４５號","E_COORD97":177873.48000000001,"N_COORD97":2540259.9100000001,"ADDRESS":"大成一街４５號","OBJECTID":643212},"geometry":{"x":177873.48000000138,"y":2540259.910000002}},{"attributes":{"ID":643240,"DIS_CODE":0,"TOWNNAME":"歸仁區","LI":"六甲里","LIN":"26鄰","STREET":"六甲路","SECT":" ","MAREA":" ","LANE":" ","ALLEY":" ","HOUSE_NO":"２１２號","E_COORD97":175992.37,"N_COORD97":2539207.25,"ADDRESS":"六甲路２１２號","OBJECTID":643213},"geometry":{"x":175992.37000000104,"y":2539207.25}},{"attributes":{"ID":643241,"DIS_CODE":0,"TOWNNAME":"歸仁區","LI":"歸仁里","LIN":"26鄰","STREET":"文化一街","SECT":" ","MAREA":" ","LANE":" ","ALLEY":" ","HOUSE_NO":"４７號","E_COORD97":178251.76999999999,"N_COORD97":2541175.1299999999,"ADDRESS":"文化一街４７號","OBJECTID":643214},"geometry":{"x":178251.77000000048,"y":2541175.1300000008}},{"attributes":{"ID":643242,"DIS_CODE":0,"TOWNNAME":"歸仁區","LI":"辜厝里","LIN":"46鄰","STREET":"中正南路","SECT":"一段","MAREA":" ","LANE":" ","ALLEY":" ","HOUSE_NO":"３２２號","E_COORD97":177157.23999999999,"N_COORD97":2540227.9500000002,"ADDRESS":"中正南路一段３２２號","OBJECTID":643215},"geometry":{"x":177157.24000000022,"y":2540227.9500000011}},{"attributes":{"ID":643243,"DIS_CODE":0,"TOWNNAME":"歸仁區","LI":"媽廟里","LIN":"5鄰","STREET":"和順路","SECT":"一段","MAREA":" ","LANE":" ","ALLEY":" ","HOUSE_NO":"１２號","E_COORD97":177521.76999999999,"N_COORD97":2543726.7200000002,"ADDRESS":"和順路一段１２號","OBJECTID":643216},"geometry":{"x":177521.77000000048,"y":2543726.7200000025}},{"attributes":{"ID":643244,"DIS_CODE":0,"TOWNNAME":"歸仁區","LI":"辜厝里","LIN":"50鄰","STREET":"中正南路","SECT":"一段","MAREA":" ","LANE":" ","ALLEY":" ","HOUSE_NO":"３８４號","E_COORD97":177062.82999999999,"N_COORD97":2540166.5499999998,"ADDRESS":"中正南路一段３８４號","OBJECTID":643217},"geometry":{"x":177062.83000000007,"y":2540166.5500000045}},{"attributes":{"ID":643245,"DIS_CODE":0,"TOWNNAME":"歸仁區","LI":"南保里","LIN":"26鄰","STREET":"民權六街","SECT":" ","MAREA":" ","LANE":" ","ALLEY":" ","HOUSE_NO":"１９３號","E_COORD97":176590.44,"N_COORD97":2541105.29,"ADDRESS":"民權六街１９３號","OBJECTID":643218},"geometry":{"x":176590.44000000134,"y":2541105.2899999991}},{"attributes":{"ID":643246,"DIS_CODE":0,"TOWNNAME":"歸仁區","LI":"南保里","LIN":"43鄰","STREET":"民權南路","SECT":" ","MAREA":" ","LANE":" ","ALLEY":" ","HOUSE_NO":"５２號","E_COORD97":176963.69,"N_COORD97":2540711.29,"ADDRESS":"民權南路５２號","OBJECTID":643219},"geometry":{"x":176963.69000000134,"y":2540711.2899999991}},{"attributes":{"ID":643247,"DIS_CODE":0,"TOWNNAME":"歸仁區","LI":"崙頂里","LIN":"24鄰","STREET":"崙頂街","SECT":" ","MAREA":" ","LANE":" ","ALLEY":" ","HOUSE_NO":"８８號","E_COORD97":177847.98000000001,"N_COORD97":2539911.25,"ADDRESS":"崙頂街８８號","OBJECTID":643220},"geometry":{"x":177847.98000000138,"y":2539911.2500000019}},{"attributes":{"ID":643248,"DIS_CODE":0,"TOWNNAME":"歸仁區","LI":"南興里","LIN":"34鄰","STREET":"文化九街","SECT":" ","MAREA":" ","LANE":" ","ALLEY":" ","HOUSE_NO":"２６號","E_COORD97":176350.44,"N_COORD97":2541114.3300000001,"ADDRESS":"文化九街２６號","OBJECTID":643221},"geometry":{"x":176350.44000000041,"y":2541114.3300000019}},{"attributes":{"ID":643249,"DIS_CODE":0,"TOWNNAME":"歸仁區","LI":"看東里","LIN":"4鄰","STREET":"成功六街","SECT":" ","MAREA":" ","LANE":" ","ALLEY":" ","HOUSE_NO":"１８號","E_COORD97":178403.70999999999,"N_COORD97":2540144.1099999999,"ADDRESS":"成功六街１８號","OBJECTID":643222},"geometry":{"x":178403.71000000089,"y":2540144.1099999975}},{"attributes":{"ID":643250,"DIS_CODE":0,"TOWNNAME":"歸仁區","LI":"辜厝里","LIN":"20鄰","STREET":"中正南路","SECT":"一段","MAREA":" ","LANE":" ","ALLEY":" ","HOUSE_NO":"１６０號","E_COORD97":177427.56,"N_COORD97":2540417.9500000002,"ADDRESS":"中正南路一段１６０號","OBJECTID":643223},"geometry":{"x":177427.56000000145,"y":2540417.9500000011}},{"attributes":{"ID":643251,"DIS_CODE":0,"TOWNNAME":"歸仁區","LI":"歸仁里","LIN":"26鄰","STREET":"文化一街","SECT":" ","MAREA":" ","LANE":" ","ALLEY":" ","HOUSE_NO":"２６之３號","E_COORD97":178224.76999999999,"N_COORD97":2541212.1299999999,"ADDRESS":"文化一街２６之３號","OBJECTID":643224},"geometry":{"x":178224.77000000048,"y":2541212.1300000008}},{"attributes":{"ID":643252,"DIS_CODE":0,"TOWNNAME":"歸仁區","LI":"歸南里","LIN":"25鄰","STREET":"民生南街","SECT":"二段","MAREA":" ","LANE":" ","ALLEY":" ","HOUSE_NO":"１９０號","E_COORD97":176100.34,"N_COORD97":2540187.29,"ADDRESS":"民生南街二段１９０號","OBJECTID":643225},"geometry":{"x":176100.34000000171,"y":2540187.290000001}},{"attributes":{"ID":643253,"DIS_CODE":0,"TOWNNAME":"歸仁區","LI":"南興里","LIN":"39鄰","STREET":"文化街","SECT":"三段","MAREA":" ","LANE":" ","ALLEY":" ","HOUSE_NO":"４７３號","E_COORD97":175556.44,"N_COORD97":2541181.3300000001,"ADDRESS":"文化街三段４７３號","OBJECTID":643226},"geometry":{"x":175556.44000000134,"y":2541181.3300000019}},{"attributes":{"ID":643254,"DIS_CODE":0,"TOWNNAME":"歸仁區","LI":"八甲里","LIN":"13鄰","STREET":"大明街","SECT":" ","MAREA":" ","LANE":" ","ALLEY":" ","HOUSE_NO":"１１３號","E_COORD97":178065.72,"N_COORD97":2541848.6099999999,"ADDRESS":"大明街１１３號","OBJECTID":643227},"geometry":{"x":178065.7200000016,"y":2541848.6099999994}},{"attributes":{"ID":643255,"DIS_CODE":0,"TOWNNAME":"歸仁區","LI":"看東里","LIN":"4鄰","STREET":"忠孝南路","SECT":" ","MAREA":" ","LANE":" ","ALLEY":" ","HOUSE_NO":"２０４號","E_COORD97":178532.17000000001,"N_COORD97":2540209.8300000001,"ADDRESS":"忠孝南路２０４號","OBJECTID":643228},"geometry":{"x":178532.16999999993,"y":2540209.8300000001}},{"attributes":{"ID":643256,"DIS_CODE":0,"TOWNNAME":"歸仁區","LI":"後市里","LIN":"26鄰","STREET":"中山路","SECT":"二段","MAREA":" ","LANE":" ","ALLEY":" ","HOUSE_NO":"１２２號","E_COORD97":177281.42999999999,"N_COORD97":2540832.7400000002,"ADDRESS":"中山路二段１２２號","OBJECTID":643229},"geometry":{"x":177281.43000000063,"y":2540832.7400000039}},{"attributes":{"ID":643257,"DIS_CODE":0,"TOWNNAME":"歸仁區","LI":"六甲里","LIN":"25鄰","STREET":"中正南路","SECT":"一段","MAREA":" ","LANE":" ","ALLEY":" ","HOUSE_NO":"９９６號","E_COORD97":176136.51999999999,"N_COORD97":2539320.2799999998,"ADDRESS":"中正南路一段９９６號","OBJECTID":643230},"geometry":{"x":176136.52000000048,"y":2539320.2800000012}},{"attributes":{"ID":643258,"DIS_CODE":0,"TOWNNAME":"歸仁區","LI":"許厝里","LIN":"26鄰","STREET":"信義北路","SECT":" ","MAREA":" ","LANE":" ","ALLEY":" ","HOUSE_NO":"６號","E_COORD97":178003.04999999999,"N_COORD97":2540753.9300000002,"ADDRESS":"信義北路６號","OBJECTID":643231},"geometry":{"x":178003.05000000075,"y":2540753.9300000016}},{"attributes":{"ID":643259,"DIS_CODE":0,"TOWNNAME":"歸仁區","LI":"後市里","LIN":"26鄰","STREET":"中山路","SECT":"二段","MAREA":" ","LANE":" ","ALLEY":" ","HOUSE_NO":"１４８號","E_COORD97":177228.13,"N_COORD97":2540841.7400000002,"ADDRESS":"中山路二段１４８號","OBJECTID":643232},"geometry":{"x":177228.13000000082,"y":2540841.7400000002}},{"attributes":{"ID":643260,"DIS_CODE":0,"TOWNNAME":"歸仁區","LI":"許厝里","LIN":"13鄰","STREET":"中山路","SECT":"一段","MAREA":" ","LANE":" ","ALLEY":" ","HOUSE_NO":"４６３號","E_COORD97":178077.01000000001,"N_COORD97":2540703.25,"ADDRESS":"中山路一段４６３號","OBJECTID":643233},"geometry":{"x":178077.00999999978,"y":2540703.2500000037}},{"attributes":{"ID":643261,"DIS_CODE":0,"TOWNNAME":"歸仁區","LI":"後市里","LIN":"40鄰","STREET":"中山路","SECT":"二段","MAREA":" ","LANE":" ","ALLEY":" ","HOUSE_NO":"２３８號","E_COORD97":177019.78,"N_COORD97":2540867.77,"ADDRESS":"中山路二段２３８號","OBJECTID":643234},"geometry":{"x":177019.77999999933,"y":2540867.7699999996}},{"attributes":{"ID":643262,"DIS_CODE":0,"TOWNNAME":"歸仁區","LI":"八甲里","LIN":"4鄰","STREET":"大明三街","SECT":" ","MAREA":" ","LANE":" ","ALLEY":" ","HOUSE_NO":"２６號","E_COORD97":178055.01999999999,"N_COORD97":2541759.6099999999,"ADDRESS":"大明三街２６號","OBJECTID":643235},"geometry":{"x":178055.02000000142,"y":2541759.6100000013}},{"attributes":{"ID":643263,"DIS_CODE":0,"TOWNNAME":"歸仁區","LI":"大潭里","LIN":"4鄰","STREET":"大潭一街","SECT":" ","MAREA":" ","LANE":" ","ALLEY":" ","HOUSE_NO":"１００號","E_COORD97":175294.72,"N_COORD97":2534549.25,"ADDRESS":"大潭一街１００號","OBJECTID":643236},"geometry":{"x":175294.72000000067,"y":2534549.25}},{"attributes":{"ID":643264,"DIS_CODE":0,"TOWNNAME":"歸仁區","LI":"八甲里","LIN":"20鄰","STREET":"大仁街","SECT":" ","MAREA":" ","LANE":" ","ALLEY":" ","HOUSE_NO":"２７４號","E_COORD97":178357.76999999999,"N_COORD97":2541252.1099999999,"ADDRESS":"大仁街２７４號","OBJECTID":643237},"geometry":{"x":178357.76999999955,"y":2541252.1099999994}},{"attributes":{"ID":643265,"DIS_CODE":0,"TOWNNAME":"歸仁區","LI":"南保里","LIN":"26鄰","STREET":"民權六街","SECT":" ","MAREA":" ","LANE":" ","ALLEY":" ","HOUSE_NO":"１８３號","E_COORD97":176610.94,"N_COORD97":2541105.29,"ADDRESS":"民權六街１８３號","OBJECTID":643238},"geometry":{"x":176610.94000000134,"y":2541105.2899999991}},{"attributes":{"ID":643266,"DIS_CODE":0,"TOWNNAME":"新營區","LI":"忠政里","LIN":"25鄰","STREET":"府西路","SECT":" ","MAREA":" ","LANE":" ","ALLEY":" ","HOUSE_NO":"１１５之３號","E_COORD97":179800.32000000001,"N_COORD97":2579280.2799999998,"ADDRESS":"府西路１１５之３號","OBJECTID":643239},"geometry":{"x":179800.32000000123,"y":2579280.2799999993}},{"attributes":{"ID":643267,"DIS_CODE":0,"TOWNNAME":"歸仁區","LI":"南興里","LIN":"39鄰","STREET":"中山路","SECT":"三段","MAREA":" ","LANE":" ","ALLEY":" ","HOUSE_NO":"６５２號之１","E_COORD97":175406.29999999999,"N_COORD97":2541095.2999999998,"ADDRESS":"中山路三段６５２號之１","OBJECTID":643240},"geometry":{"x":175406.30000000075,"y":2541095.3000000026}},{"attributes":{"ID":643268,"DIS_CODE":0,"TOWNNAME":"歸仁區","LI":"看西里","LIN":"4鄰","STREET":"仁愛南街","SECT":" ","MAREA":" ","LANE":" ","ALLEY":" ","HOUSE_NO":"１１０號","E_COORD97":178271.64999999999,"N_COORD97":2540378.29,"ADDRESS":"仁愛南街１１０號","OBJECTID":643241},"geometry":{"x":178271.65000000037,"y":2540378.290000001}},{"attributes":{"ID":643269,"DIS_CODE":0,"TOWNNAME":"歸仁區","LI":"南保里","LIN":"50鄰","STREET":"民生南街","SECT":"一段","MAREA":" ","LANE":" ","ALLEY":" ","HOUSE_NO":"９５號","E_COORD97":176294.79000000001,"N_COORD97":2540556.29,"ADDRESS":"民生南街一段９５號","OBJECTID":643242},"geometry":{"x":176294.79000000097,"y":2540556.2900000028}},{"attributes":{"ID":643270,"DIS_CODE":0,"TOWNNAME":"新營區","LI":"忠政里","LIN":"20鄰","STREET":"府西路","SECT":" ","MAREA":" ","LANE":" ","ALLEY":" ","HOUSE_NO":"２４８號","E_COORD97":179811.89999999999,"N_COORD97":2579645.6200000001,"ADDRESS":"府西路２４８號","OBJECTID":643243},"geometry":{"x":179811.9000000013,"y":2579645.620000001}},{"attributes":{"ID":643271,"DIS_CODE":0,"TOWNNAME":"歸仁區","LI":"後市里","LIN":"26鄰","STREET":"中山路","SECT":"二段","MAREA":" ","LANE":" ","ALLEY":" ","HOUSE_NO":"１３０號","E_COORD97":177265.03,"N_COORD97":2540835.7400000002,"ADDRESS":"中山路二段１３０號","OBJECTID":643244},"geometry":{"x":177265.03000000026,"y":2540835.7399999984}},{"attributes":{"ID":643272,"DIS_CODE":0,"TOWNNAME":"歸仁區","LI":"許厝里","LIN":"39鄰","STREET":"公園路","SECT":" ","MAREA":" ","LANE":" ","ALLEY":" ","HOUSE_NO":"７０號","E_COORD97":178016.04000000001,"N_COORD97":2540530.2799999998,"ADDRESS":"公園路７０號","OBJECTID":643245},"geometry":{"x":178016.04000000004,"y":2540530.2800000012}},{"attributes":{"ID":643273,"DIS_CODE":0,"TOWNNAME":"新營區","LI":"忠政里","LIN":"32鄰","STREET":"民治路","SECT":" ","MAREA":" ","LANE":" ","ALLEY":" ","HOUSE_NO":"６０號","E_COORD97":179747.54000000001,"N_COORD97":2578858.5299999998,"ADDRESS":"民治路６０號","OBJECTID":643246},"geometry":{"x":179747.54000000097,"y":2578858.5299999993}},{"attributes":{"ID":643274,"DIS_CODE":0,"TOWNNAME":"歸仁區","LI":"歸仁里","LIN":"13鄰","STREET":"和平二街","SECT":" ","MAREA":" ","LANE":" ","ALLEY":" ","HOUSE_NO":"２號","E_COORD97":177877.54999999999,"N_COORD97":2541056.1800000002,"ADDRESS":"和平二街２號","OBJECTID":643247},"geometry":{"x":177877.55000000075,"y":2541056.1800000034}},{"attributes":{"ID":643275,"DIS_CODE":0,"TOWNNAME":"新營區","LI":"埤寮里","LIN":"14鄰","STREET":"中正路","SECT":" ","MAREA":" ","LANE":" ","ALLEY":" ","HOUSE_NO":"３６８號之２","E_COORD97":180132.31,"N_COORD97":2580253.27,"ADDRESS":"中正路３６８號之２","OBJECTID":643248},"geometry":{"x":180132.30999999959,"y":2580253.2699999996}},{"attributes":{"ID":643276,"DIS_CODE":0,"TOWNNAME":"新營區","LI":"南紙里","LIN":"18鄰","STREET":"南紙街","SECT":" ","MAREA":" ","LANE":" ","ALLEY":" ","HOUSE_NO":"１８號","E_COORD97":177811.01000000001,"N_COORD97":2577749.2999999998,"ADDRESS":"南紙街１８號","OBJECTID":643249},"geometry":{"x":177811.00999999978,"y":2577749.3000000007}},{"attributes":{"ID":643277,"DIS_CODE":0,"TOWNNAME":"新營區","LI":"忠政里","LIN":"20鄰","STREET":"府西路","SECT":" ","MAREA":" ","LANE":" ","ALLEY":" ","HOUSE_NO":"２４１號","E_COORD97":179796.48999999999,"N_COORD97":2579631.2999999998,"ADDRESS":"府西路２４１號","OBJECTID":643250},"geometry":{"x":179796.49000000022,"y":2579631.3000000007}},{"attributes":{"ID":643278,"DIS_CODE":0,"TOWNNAME":"新營區","LI":"中營里","LIN":"4鄰","STREET":"中山路","SECT":" ","MAREA":" ","LANE":" ","ALLEY":" ","HOUSE_NO":"８３號之１","E_COORD97":180501.06,"N_COORD97":2578324.5699999998,"ADDRESS":"中山路８３號之１","OBJECTID":643251},"geometry":{"x":180501.06000000052,"y":2578324.570000004}},{"attributes":{"ID":643279,"DIS_CODE":0,"TOWNNAME":"新營區","LI":"三仙里","LIN":"25鄰","STREET":"三興街","SECT":" ","MAREA":" ","LANE":" ","ALLEY":" ","HOUSE_NO":"５８號","E_COORD97":179451.32000000001,"N_COORD97":2578941.8900000001,"ADDRESS":"三興街５８號","OBJECTID":643252},"geometry":{"x":179451.32000000123,"y":2578941.8900000006}},{"attributes":{"ID":643280,"DIS_CODE":0,"TOWNNAME":"新營區","LI":"三仙里","LIN":"25鄰","STREET":"三興街","SECT":" ","MAREA":" ","LANE":" ","ALLEY":" ","HOUSE_NO":"５６號","E_COORD97":179453.34,"N_COORD97":2578936.3399999999,"ADDRESS":"三興街５６號","OBJECTID":643253},"geometry":{"x":179453.34000000171,"y":2578936.3400000017}},{"attributes":{"ID":643281,"DIS_CODE":0,"TOWNNAME":"新營區","LI":"大宏里","LIN":"13鄰","STREET":"三民路","SECT":" ","MAREA":" ","LANE":" ","ALLEY":" ","HOUSE_NO":"４７號","E_COORD97":180286.85000000001,"N_COORD97":2578469.48,"ADDRESS":"三民路４７號","OBJECTID":643254},"geometry":{"x":180286.84999999963,"y":2578469.4800000004}},{"attributes":{"ID":643282,"DIS_CODE":0,"TOWNNAME":"新營區","LI":"南紙里","LIN":"4鄰","STREET":"太子路","SECT":" ","MAREA":" ","LANE":" ","ALLEY":" ","HOUSE_NO":"１８３號","E_COORD97":177861.67999999999,"N_COORD97":2577816.6200000001,"ADDRESS":"太子路１８３號","OBJECTID":643255},"geometry":{"x":177861.6799999997,"y":2577816.6200000048}},{"attributes":{"ID":643283,"DIS_CODE":0,"TOWNNAME":"新營區","LI":"埤寮里","LIN":" ","STREET":"建國路","SECT":" ","MAREA":" ","LANE":" ","ALLEY":" ","HOUSE_NO":"１１５之２號","E_COORD97":179673.41,"N_COORD97":2580983.04,"ADDRESS":"建國路１１５之２號","OBJECTID":643256},"geometry":{"x":179673.41000000015,"y":2580983.040000001}},{"attributes":{"ID":643284,"DIS_CODE":0,"TOWNNAME":"新營區","LI":"民權里","LIN":" ","STREET":"武昌街","SECT":" ","MAREA":" ","LANE":" ","ALLEY":" ","HOUSE_NO":"５２號","E_COORD97":179731.75,"N_COORD97":2578332.5600000001,"ADDRESS":"武昌街５２號","OBJECTID":643257},"geometry":{"x":179731.75,"y":2578332.5600000024}},{"attributes":{"ID":643285,"DIS_CODE":0,"TOWNNAME":"新營區","LI":"民生里","LIN":" ","STREET":"復興路","SECT":" ","MAREA":" ","LANE":" ","ALLEY":" ","HOUSE_NO":"２２８之２號","E_COORD97":178943.62,"N_COORD97":2578070.6000000001,"ADDRESS":"復興路２２８之２號","OBJECTID":643258},"geometry":{"x":178943.62000000104,"y":2578070.6000000015}},{"attributes":{"ID":643286,"DIS_CODE":0,"TOWNNAME":"新營區","LI":"民生里","LIN":"18鄰","STREET":"進修街","SECT":" ","MAREA":" ","LANE":" ","ALLEY":" ","HOUSE_NO":"９之１４號","E_COORD97":178914.09,"N_COORD97":2578380.8199999998,"ADDRESS":"進修街９之１４號","OBJECTID":643259},"geometry":{"x":178914.08999999985,"y":2578380.8200000022}},{"attributes":{"ID":643287,"DIS_CODE":0,"TOWNNAME":"新營區","LI":"民生里","LIN":"13鄰","STREET":"復興路","SECT":" ","MAREA":" ","LANE":" ","ALLEY":" ","HOUSE_NO":"２６６號","E_COORD97":178783.82000000001,"N_COORD97":2578118.9300000002,"ADDRESS":"復興路２６６號","OBJECTID":643260},"geometry":{"x":178783.8200000003,"y":2578118.9300000016}},{"attributes":{"ID":643288,"DIS_CODE":0,"TOWNNAME":"新營區","LI":"民生里","LIN":" ","STREET":"復興路","SECT":" ","MAREA":" ","LANE":" ","ALLEY":" ","HOUSE_NO":"２６４之４號","E_COORD97":178834.62,"N_COORD97":2578165.2599999998,"ADDRESS":"復興路２６４之４號","OBJECTID":643261},"geometry":{"x":178834.62000000197,"y":2578165.2599999998}},{"attributes":{"ID":643289,"DIS_CODE":0,"TOWNNAME":"新營區","LI":"忠政里","LIN":"25鄰","STREET":"府西路","SECT":" ","MAREA":" ","LANE":" ","ALLEY":" ","HOUSE_NO":"１１３號","E_COORD97":179796.76999999999,"N_COORD97":2579272.4900000002,"ADDRESS":"府西路１１３號","OBJECTID":643262},"geometry":{"x":179796.77000000048,"y":2579272.4900000021}},{"attributes":{"ID":643290,"DIS_CODE":0,"TOWNNAME":"歸仁區","LI":"南保里","LIN":"18鄰","STREET":"文化十街","SECT":" ","MAREA":" ","LANE":" ","ALLEY":" ","HOUSE_NO":"３３號","E_COORD97":176539.04000000001,"N_COORD97":2541313.3300000001,"ADDRESS":"文化十街３３號","OBJECTID":643263},"geometry":{"x":176539.04000000004,"y":2541313.3300000038}},{"attributes":{"ID":643291,"DIS_CODE":0,"TOWNNAME":"新營區","LI":"民榮里","LIN":" ","STREET":"太子路","SECT":" ","MAREA":" ","LANE":" ","ALLEY":" ","HOUSE_NO":"６２之３號","E_COORD97":178229.28,"N_COORD97":2578056.3199999998,"ADDRESS":"太子路６２之３號","OBJECTID":643264},"geometry":{"x":178229.28000000119,"y":2578056.3200000022}},{"attributes":{"ID":643292,"DIS_CODE":0,"TOWNNAME":"新營區","LI":"民榮里","LIN":" ","STREET":"新進路","SECT":"二段","MAREA":" ","LANE":" ","ALLEY":" ","HOUSE_NO":"４４３之１號","E_COORD97":178641.73999999999,"N_COORD97":2578043.2599999998,"ADDRESS":"新進路二段４４３之１號","OBJECTID":643265},"geometry":{"x":178641.74000000022,"y":2578043.2599999998}},{"attributes":{"ID":643293,"DIS_CODE":0,"TOWNNAME":"新營區","LI":"忠政里","LIN":"25鄰","STREET":"府西路","SECT":" ","MAREA":" ","LANE":" ","ALLEY":" ","HOUSE_NO":"１３０號","E_COORD97":179812.84,"N_COORD97":2579425.2400000002,"ADDRESS":"府西路１３０號","OBJECTID":643266},"geometry":{"x":179812.84000000171,"y":2579425.2400000039}},{"attributes":{"ID":643294,"DIS_CODE":0,"TOWNNAME":"新營區","LI":"忠政里","LIN":"25鄰","STREET":"府西路","SECT":" ","MAREA":" ","LANE":" ","ALLEY":" ","HOUSE_NO":"１１５號","E_COORD97":179797.82000000001,"N_COORD97":2579280.23,"ADDRESS":"府西路１１５號","OBJECTID":643267},"geometry":{"x":179797.8200000003,"y":2579280.2300000023}},{"attributes":{"ID":643295,"DIS_CODE":0,"TOWNNAME":"新營區","LI":"忠政里","LIN":"32鄰","STREET":"民治路","SECT":" ","MAREA":" ","LANE":" ","ALLEY":" ","HOUSE_NO":"４４號","E_COORD97":179793.64999999999,"N_COORD97":2578862.7400000002,"ADDRESS":"民治路４４號","OBJECTID":643268},"geometry":{"x":179793.65000000037,"y":2578862.7400000021}},{"attributes":{"ID":643296,"DIS_CODE":0,"TOWNNAME":"新營區","LI":"忠政里","LIN":"20鄰","STREET":"府西路","SECT":" ","MAREA":" ","LANE":" ","ALLEY":" ","HOUSE_NO":"２５７之１號","E_COORD97":179785.89000000001,"N_COORD97":2579671.29,"ADDRESS":"府西路２５７之１號","OBJECTID":643269},"geometry":{"x":179785.8900000006,"y":2579671.2900000028}},{"attributes":{"ID":643297,"DIS_CODE":0,"TOWNNAME":"新營區","LI":"太北里","LIN":"17鄰","STREET":"忠孝路","SECT":" ","MAREA":" ","LANE":" ","ALLEY":" ","HOUSE_NO":"６６號","E_COORD97":175747.72,"N_COORD97":2577941.1299999999,"ADDRESS":"忠孝路６６號","OBJECTID":643270},"geometry":{"x":175747.71999999974,"y":2577941.1300000008}},{"attributes":{"ID":643298,"DIS_CODE":0,"TOWNNAME":"新營區","LI":"民生里","LIN":"13鄰","STREET":"復興路","SECT":" ","MAREA":" ","LANE":" ","ALLEY":" ","HOUSE_NO":"２４６號","E_COORD97":178852.25,"N_COORD97":2578096.4399999999,"ADDRESS":"復興路２４６號","OBJECTID":643271},"geometry":{"x":178852.25000000186,"y":2578096.4399999995}},{"attributes":{"ID":643299,"DIS_CODE":0,"TOWNNAME":"新營區","LI":"大宏里","LIN":"13鄰","STREET":"三民路","SECT":" ","MAREA":" ","LANE":" ","ALLEY":" ","HOUSE_NO":"５５號","E_COORD97":180220.29999999999,"N_COORD97":2578468.6800000002,"ADDRESS":"三民路５５號","OBJECTID":643272},"geometry":{"x":180220.30000000075,"y":2578468.6799999997}},{"attributes":{"ID":643300,"DIS_CODE":0,"TOWNNAME":"新營區","LI":"新北里","LIN":"24鄰","STREET":"長榮路","SECT":"二段","MAREA":" ","LANE":" ","ALLEY":" ","HOUSE_NO":"４６６號","E_COORD97":178744.48000000001,"N_COORD97":2579505.6499999999,"ADDRESS":"長榮路二段４６６號","OBJECTID":643273},"geometry":{"x":178744.48000000231,"y":2579505.6500000004}},{"attributes":{"ID":643301,"DIS_CODE":0,"TOWNNAME":"新營區","LI":"民生里","LIN":" ","STREET":"復興路","SECT":" ","MAREA":" ","LANE":" ","ALLEY":" ","HOUSE_NO":"２４２之１號","E_COORD97":178861.89999999999,"N_COORD97":2578094.2400000002,"ADDRESS":"復興路２４２之１號","OBJECTID":643274},"geometry":{"x":178861.90000000224,"y":2578094.2400000021}},{"attributes":{"ID":643302,"DIS_CODE":0,"TOWNNAME":"新營區","LI":"民生里","LIN":" ","STREET":"復興路","SECT":" ","MAREA":" ","LANE":" ","ALLEY":" ","HOUSE_NO":"２３８之４號","E_COORD97":178892.70999999999,"N_COORD97":2578119.5800000001,"ADDRESS":"復興路２３８之４號","OBJECTID":643275},"geometry":{"x":178892.70999999996,"y":2578119.5800000001}},{"attributes":{"ID":643303,"DIS_CODE":0,"TOWNNAME":"新營區","LI":"忠政里","LIN":"32鄰","STREET":"民治路","SECT":" ","MAREA":" ","LANE":" ","ALLEY":" ","HOUSE_NO":"４８號","E_COORD97":179784.45000000001,"N_COORD97":2578862.7799999998,"ADDRESS":"民治路４８號","OBJECTID":643276},"geometry":{"x":179784.45000000019,"y":2578862.7800000012}},{"attributes":{"ID":643304,"DIS_CODE":0,"TOWNNAME":"新營區","LI":"南紙里","LIN":" ","STREET":"南紙街","SECT":" ","MAREA":" ","LANE":" ","ALLEY":" ","HOUSE_NO":"３０號","E_COORD97":177806.95000000001,"N_COORD97":2577740.4700000002,"ADDRESS":"南紙街３０號","OBJECTID":643277},"geometry":{"x":177806.95000000205,"y":2577740.4700000025}},{"attributes":{"ID":643305,"DIS_CODE":0,"TOWNNAME":"新營區","LI":"民榮里","LIN":" ","STREET":"新進路","SECT":"二段","MAREA":" ","LANE":" ","ALLEY":" ","HOUSE_NO":"４４７號","E_COORD97":178634.20000000001,"N_COORD97":2578058.7400000002,"ADDRESS":"新進路二段４４７號","OBJECTID":643278},"geometry":{"x":178634.20000000205,"y":2578058.7400000039}},{"attributes":{"ID":643306,"DIS_CODE":0,"TOWNNAME":"新營區","LI":"大宏里","LIN":"5鄰","STREET":"三民路","SECT":" ","MAREA":" ","LANE":" ","ALLEY":" ","HOUSE_NO":"７６之５號","E_COORD97":180123.67999999999,"N_COORD97":2578485.8100000001,"ADDRESS":"三民路７６之５號","OBJECTID":643279},"geometry":{"x":180123.6799999997,"y":2578485.8100000042}},{"attributes":{"ID":643307,"DIS_CODE":0,"TOWNNAME":"新營區","LI":"南紙里","LIN":"18鄰","STREET":"南紙街","SECT":" ","MAREA":" ","LANE":" ","ALLEY":" ","HOUSE_NO":"２６號","E_COORD97":177762.88,"N_COORD97":2577726.29,"ADDRESS":"南紙街２６號","OBJECTID":643280},"geometry":{"x":177762.87999999896,"y":2577726.290000001}},{"attributes":{"ID":643308,"DIS_CODE":0,"TOWNNAME":"新營區","LI":"忠政里","LIN":"18鄰","STREET":"中正路","SECT":" ","MAREA":" ","LANE":" ","ALLEY":" ","HOUSE_NO":"２１１號之６","E_COORD97":180001.76000000001,"N_COORD97":2579742.2400000002,"ADDRESS":"中正路２１１號之６","OBJECTID":643281},"geometry":{"x":180001.76000000071,"y":2579742.2400000002}},{"attributes":{"ID":643309,"DIS_CODE":0,"TOWNNAME":"新營區","LI":"忠政里","LIN":"18鄰","STREET":"中正路","SECT":" ","MAREA":" ","LANE":" ","ALLEY":" ","HOUSE_NO":"２１１號之１","E_COORD97":180042.57000000001,"N_COORD97":2579744.2599999998,"ADDRESS":"中正路２１１號之１","OBJECTID":643282},"geometry":{"x":180042.57000000123,"y":2579744.2600000016}},{"attributes":{"ID":643310,"DIS_CODE":0,"TOWNNAME":"新營區","LI":"忠政里","LIN":"25鄰","STREET":"府西路","SECT":" ","MAREA":" ","LANE":" ","ALLEY":" ","HOUSE_NO":"８４號","E_COORD97":179812.04000000001,"N_COORD97":2579291.23,"ADDRESS":"府西路８４號","OBJECTID":643283},"geometry":{"x":179812.04000000097,"y":2579291.2300000023}},{"attributes":{"ID":643311,"DIS_CODE":0,"TOWNNAME":"新營區","LI":"民權里","LIN":" ","STREET":"中華路","SECT":" ","MAREA":" ","LANE":" ","ALLEY":" ","HOUSE_NO":"３２號","E_COORD97":179737.42999999999,"N_COORD97":2578220.6899999999,"ADDRESS":"中華路３２號","OBJECTID":643284},"geometry":{"x":179737.43000000156,"y":2578220.6899999995}},{"attributes":{"ID":643312,"DIS_CODE":0,"TOWNNAME":"新營區","LI":"忠政里","LIN":"18鄰","STREET":"中正路","SECT":" ","MAREA":" ","LANE":" ","ALLEY":" ","HOUSE_NO":"２１１號之４","E_COORD97":180021.13,"N_COORD97":2579743.2599999998,"ADDRESS":"中正路２１１號之４","OBJECTID":643285},"geometry":{"x":180021.13000000082,"y":2579743.2600000035}},{"attributes":{"ID":643313,"DIS_CODE":0,"TOWNNAME":"新營區","LI":"民生里","LIN":" ","STREET":"復興路","SECT":" ","MAREA":" ","LANE":" ","ALLEY":" ","HOUSE_NO":"２７８之５號","E_COORD97":178746.79999999999,"N_COORD97":2578196.6800000002,"ADDRESS":"復興路２７８之５號","OBJECTID":643286},"geometry":{"x":178746.80000000168,"y":2578196.6799999997}},{"attributes":{"ID":643314,"DIS_CODE":0,"TOWNNAME":"新營區","LI":"忠政里","LIN":"18鄰","STREET":"中正路","SECT":" ","MAREA":" ","LANE":" ","ALLEY":" ","HOUSE_NO":"２２７號之１","E_COORD97":180065.48999999999,"N_COORD97":2579830.54,"ADDRESS":"中正路２２７號之１","OBJECTID":643287},"geometry":{"x":180065.49000000115,"y":2579830.5399999991}},{"attributes":{"ID":643315,"DIS_CODE":0,"TOWNNAME":"新營區","LI":"忠政里","LIN":"18鄰","STREET":"中正路","SECT":" ","MAREA":" ","LANE":" ","ALLEY":" ","HOUSE_NO":"２２５號之８","E_COORD97":179998.07999999999,"N_COORD97":2579819.7799999998,"ADDRESS":"中正路２２５號之８","OBJECTID":643288},"geometry":{"x":179998.08000000101,"y":2579819.7799999993}},{"attributes":{"ID":643316,"DIS_CODE":0,"TOWNNAME":"新營區","LI":"忠政里","LIN":"25鄰","STREET":"府西路","SECT":" ","MAREA":" ","LANE":" ","ALLEY":" ","HOUSE_NO":"１１３之４號","E_COORD97":179799.26999999999,"N_COORD97":2579272.54,"ADDRESS":"府西路１１３之４號","OBJECTID":643289},"geometry":{"x":179799.27000000142,"y":2579272.5399999972}},{"attributes":{"ID":643317,"DIS_CODE":0,"TOWNNAME":"新營區","LI":"新北里","LIN":"24鄰","STREET":"長榮路","SECT":"二段","MAREA":" ","LANE":" ","ALLEY":" ","HOUSE_NO":"５３７號","E_COORD97":178764.64000000001,"N_COORD97":2579457.9399999999,"ADDRESS":"長榮路二段５３７號","OBJECTID":643290},"geometry":{"x":178764.64000000153,"y":2579457.9400000013}},{"attributes":{"ID":643318,"DIS_CODE":0,"TOWNNAME":"新營區","LI":"忠政里","LIN":"25鄰","STREET":"府西路","SECT":" ","MAREA":" ","LANE":" ","ALLEY":" ","HOUSE_NO":"１５３之１號","E_COORD97":179799.75,"N_COORD97":2579374.4199999999,"ADDRESS":"府西路１５３之１號","OBJECTID":643291},"geometry":{"x":179799.75,"y":2579374.4200000018}},{"attributes":{"ID":643319,"DIS_CODE":0,"TOWNNAME":"新營區","LI":"忠政里","LIN":" ","STREET":"中正路","SECT":" ","MAREA":" ","LANE":" ","ALLEY":" ","HOUSE_NO":"６１之１１號","E_COORD97":179930.56,"N_COORD97":2579565.3900000001,"ADDRESS":"中正路６１之１１號","OBJECTID":643292},"geometry":{"x":179930.55999999959,"y":2579565.3900000006}},{"attributes":{"ID":643320,"DIS_CODE":0,"TOWNNAME":"新營區","LI":"民生里","LIN":" ","STREET":"復興路","SECT":" ","MAREA":" ","LANE":" ","ALLEY":" ","HOUSE_NO":"２８２號","E_COORD97":178710.34,"N_COORD97":2578152.5,"ADDRESS":"復興路２８２號","OBJECTID":643293},"geometry":{"x":178710.33999999985,"y":2578152.5000000019}},{"attributes":{"ID":643321,"DIS_CODE":0,"TOWNNAME":"新營區","LI":"民權里","LIN":" ","STREET":"三民路","SECT":" ","MAREA":" ","LANE":" ","ALLEY":" ","HOUSE_NO":"１２８之５號","E_COORD97":179729.92000000001,"N_COORD97":2578453.3500000001,"ADDRESS":"三民路１２８之５號","OBJECTID":643294},"geometry":{"x":179729.92000000086,"y":2578453.3499999996}},{"attributes":{"ID":643322,"DIS_CODE":0,"TOWNNAME":"新營區","LI":"忠政里","LIN":"18鄰","STREET":"中正路","SECT":" ","MAREA":" ","LANE":" ","ALLEY":" ","HOUSE_NO":"２１１號之３","E_COORD97":180026.31,"N_COORD97":2579743.23,"ADDRESS":"中正路２１１號之３","OBJECTID":643295},"geometry":{"x":180026.31000000145,"y":2579743.2300000004}},{"attributes":{"ID":643323,"DIS_CODE":0,"TOWNNAME":"新營區","LI":"民生里","LIN":"13鄰","STREET":"復興路","SECT":" ","MAREA":" ","LANE":" ","ALLEY":" ","HOUSE_NO":"２５０號","E_COORD97":178844.14000000001,"N_COORD97":2578112,"ADDRESS":"復興路２５０號","OBJECTID":643296},"geometry":{"x":178844.13999999873,"y":2578112.0000000019}},{"attributes":{"ID":643324,"DIS_CODE":0,"TOWNNAME":"歸仁區","LI":"大潭里","LIN":"4鄰","STREET":"大潭一街","SECT":" ","MAREA":" ","LANE":" ","ALLEY":" ","HOUSE_NO":"８０號","E_COORD97":175282.37,"N_COORD97":2534589.25,"ADDRESS":"大潭一街８０號","OBJECTID":643297},"geometry":{"x":175282.37000000104,"y":2534589.25}},{"attributes":{"ID":643325,"DIS_CODE":0,"TOWNNAME":"新營區","LI":"大宏里","LIN":" ","STREET":"三民路","SECT":" ","MAREA":" ","LANE":" ","ALLEY":" ","HOUSE_NO":"７０號","E_COORD97":180194.92000000001,"N_COORD97":2578506.4500000002,"ADDRESS":"三民路７０號","OBJECTID":643298},"geometry":{"x":180194.91999999993,"y":2578506.4499999993}},{"attributes":{"ID":643326,"DIS_CODE":0,"TOWNNAME":"新營區","LI":"忠政里","LIN":"6鄰","STREET":"府西路","SECT":" ","MAREA":" ","LANE":" ","ALLEY":" ","HOUSE_NO":"４８號","E_COORD97":179817.60000000001,"N_COORD97":2579166.0699999998,"ADDRESS":"府西路４８號","OBJECTID":643299},"geometry":{"x":179817.60000000149,"y":2579166.0700000022}},{"attributes":{"ID":643327,"DIS_CODE":0,"TOWNNAME":"新營區","LI":"忠政里","LIN":"5鄰","STREET":"中正路","SECT":" ","MAREA":" ","LANE":" ","ALLEY":" ","HOUSE_NO":"３９之８號","E_COORD97":180092.51000000001,"N_COORD97":2579237.9100000001,"ADDRESS":"中正路３９之８號","OBJECTID":643300},"geometry":{"x":180092.50999999978,"y":2579237.910000002}},{"attributes":{"ID":643328,"DIS_CODE":0,"TOWNNAME":"新營區","LI":"忠政里","LIN":"25鄰","STREET":"府西路","SECT":" ","MAREA":" ","LANE":" ","ALLEY":" ","HOUSE_NO":"１４７號","E_COORD97":179798.20000000001,"N_COORD97":2579357.7599999998,"ADDRESS":"府西路１４７號","OBJECTID":643301},"geometry":{"x":179798.20000000019,"y":2579357.7600000016}},{"attributes":{"ID":643329,"DIS_CODE":0,"TOWNNAME":"新營區","LI":"南紙里","LIN":"4鄰","STREET":"南紙街","SECT":" ","MAREA":" ","LANE":" ","ALLEY":" ","HOUSE_NO":"７號","E_COORD97":177831.47,"N_COORD97":2577791.29,"ADDRESS":"南紙街７號","OBJECTID":643302},"geometry":{"x":177831.46999999974,"y":2577791.2899999991}},{"attributes":{"ID":643330,"DIS_CODE":0,"TOWNNAME":"新營區","LI":"忠政里","LIN":"4鄰","STREET":"中正路","SECT":" ","MAREA":" ","LANE":" ","ALLEY":" ","HOUSE_NO":"３７號之４","E_COORD97":180088.82000000001,"N_COORD97":2579178.1299999999,"ADDRESS":"中正路３７號之４","OBJECTID":643303},"geometry":{"x":180088.8200000003,"y":2579178.1300000008}},{"attributes":{"ID":643331,"DIS_CODE":0,"TOWNNAME":"新營區","LI":"民生里","LIN":" ","STREET":"復興路","SECT":" ","MAREA":" ","LANE":" ","ALLEY":" ","HOUSE_NO":"２７８之４號","E_COORD97":178742.70999999999,"N_COORD97":2578195.6000000001,"ADDRESS":"復興路２７８之４號","OBJECTID":643304},"geometry":{"x":178742.71000000089,"y":2578195.6000000015}},{"attributes":{"ID":643332,"DIS_CODE":0,"TOWNNAME":"新營區","LI":"新東里","LIN":"26鄰","STREET":"東興五街","SECT":" ","MAREA":" ","LANE":" ","ALLEY":" ","HOUSE_NO":"１號","E_COORD97":180726.13,"N_COORD97":2579509.52,"ADDRESS":"東興五街１號","OBJECTID":643305},"geometry":{"x":180726.13000000175,"y":2579509.5199999996}},{"attributes":{"ID":643333,"DIS_CODE":0,"TOWNNAME":"新營區","LI":"忠政里","LIN":"18鄰","STREET":"中正路","SECT":" ","MAREA":" ","LANE":" ","ALLEY":" ","HOUSE_NO":"２２５號之３","E_COORD97":180031.79999999999,"N_COORD97":2579822.9399999999,"ADDRESS":"中正路２２５號之３","OBJECTID":643306},"geometry":{"x":180031.80000000075,"y":2579822.9399999976}},{"attributes":{"ID":643334,"DIS_CODE":0,"TOWNNAME":"新營區","LI":"忠政里","LIN":"18鄰","STREET":"中正路","SECT":" ","MAREA":" ","LANE":" ","ALLEY":" ","HOUSE_NO":"２１９號之２","E_COORD97":180033.73000000001,"N_COORD97":2579789.7200000002,"ADDRESS":"中正路２１９號之２","OBJECTID":643307},"geometry":{"x":180033.73000000045,"y":2579789.7200000025}},{"attributes":{"ID":643335,"DIS_CODE":0,"TOWNNAME":"新營區","LI":"民生里","LIN":" ","STREET":"民治路","SECT":" ","MAREA":" ","LANE":" ","ALLEY":" ","HOUSE_NO":"７７號","E_COORD97":179085.91,"N_COORD97":2578672.2999999998,"ADDRESS":"民治路７７號","OBJECTID":643308},"geometry":{"x":179085.91000000108,"y":2578672.3000000007}},{"attributes":{"ID":643336,"DIS_CODE":0,"TOWNNAME":"新營區","LI":"南紙里","LIN":"5鄰","STREET":"南紙街","SECT":" ","MAREA":" ","LANE":" ","ALLEY":" ","HOUSE_NO":"３５號","E_COORD97":177830.29000000001,"N_COORD97":2577700.4900000002,"ADDRESS":"南紙街３５號","OBJECTID":643309},"geometry":{"x":177830.29000000097,"y":2577700.4900000002}},{"attributes":{"ID":643337,"DIS_CODE":0,"TOWNNAME":"新營區","LI":"南紙里","LIN":"18鄰","STREET":"太子路","SECT":" ","MAREA":" ","LANE":" ","ALLEY":" ","HOUSE_NO":"１９１號","E_COORD97":177811.45000000001,"N_COORD97":2577793.6200000001,"ADDRESS":"太子路１９１號","OBJECTID":643310},"geometry":{"x":177811.45000000019,"y":2577793.6200000029}},{"attributes":{"ID":643338,"DIS_CODE":0,"TOWNNAME":"新營區","LI":"忠政里","LIN":"20鄰","STREET":"府西路","SECT":" ","MAREA":" ","LANE":" ","ALLEY":" ","HOUSE_NO":"２５５號","E_COORD97":179796.64999999999,"N_COORD97":2579663.4199999999,"ADDRESS":"府西路２５５號","OBJECTID":643311},"geometry":{"x":179796.6500000013,"y":2579663.4199999999}},{"attributes":{"ID":643339,"DIS_CODE":0,"TOWNNAME":"新營區","LI":"南紙里","LIN":"14鄰","STREET":"南紙街","SECT":" ","MAREA":" ","LANE":" ","ALLEY":" ","HOUSE_NO":"１３０號","E_COORD97":177793.23999999999,"N_COORD97":2577417.1699999999,"ADDRESS":"南紙街１３０號","OBJECTID":643312},"geometry":{"x":177793.24000000209,"y":2577417.1699999999}},{"attributes":{"ID":643340,"DIS_CODE":0,"TOWNNAME":"新營區","LI":"埤寮里","LIN":"14鄰","STREET":"中正路","SECT":" ","MAREA":" ","LANE":" ","ALLEY":" ","HOUSE_NO":"３６６號","E_COORD97":180109.26999999999,"N_COORD97":2580236.71,"ADDRESS":"中正路３６６號","OBJECTID":643313},"geometry":{"x":180109.26999999955,"y":2580236.7100000028}},{"attributes":{"ID":643341,"DIS_CODE":0,"TOWNNAME":"新營區","LI":"民權里","LIN":" ","STREET":"三民路","SECT":" ","MAREA":" ","LANE":" ","ALLEY":" ","HOUSE_NO":"９２之３號","E_COORD97":179964.13,"N_COORD97":2578503.1699999999,"ADDRESS":"三民路９２之３號","OBJECTID":643314},"geometry":{"x":179964.13000000082,"y":2578503.1700000037}},{"attributes":{"ID":643342,"DIS_CODE":0,"TOWNNAME":"新營區","LI":"新北里","LIN":"5鄰","STREET":"三興街","SECT":" ","MAREA":" ","LANE":" ","ALLEY":" ","HOUSE_NO":"１０９號之６","E_COORD97":179425.70999999999,"N_COORD97":2579278.7400000002,"ADDRESS":"三興街１０９號之６","OBJECTID":643315},"geometry":{"x":179425.71000000089,"y":2579278.7400000002}},{"attributes":{"ID":643343,"DIS_CODE":0,"TOWNNAME":"新營區","LI":"新北里","LIN":"5鄰","STREET":"三興街","SECT":" ","MAREA":" ","LANE":" ","ALLEY":" ","HOUSE_NO":"１０９號之２","E_COORD97":179426.62,"N_COORD97":2579248.8399999999,"ADDRESS":"三興街１０９號之２","OBJECTID":643316},"geometry":{"x":179426.62000000104,"y":2579248.8400000017}},{"attributes":{"ID":643344,"DIS_CODE":0,"TOWNNAME":"新營區","LI":"新東里","LIN":"20鄰","STREET":"東興八街","SECT":" ","MAREA":" ","LANE":" ","ALLEY":" ","HOUSE_NO":"４６號","E_COORD97":180872.51000000001,"N_COORD97":2579470.0899999999,"ADDRESS":"東興八街４６號","OBJECTID":643317},"geometry":{"x":180872.50999999978,"y":2579470.0900000036}},{"attributes":{"ID":643345,"DIS_CODE":0,"TOWNNAME":"新營區","LI":"三仙里","LIN":"25鄰","STREET":"三興街","SECT":" ","MAREA":" ","LANE":" ","ALLEY":" ","HOUSE_NO":"５４號","E_COORD97":179454.35000000001,"N_COORD97":2578933.02,"ADDRESS":"三興街５４號","OBJECTID":643318},"geometry":{"x":179454.34999999963,"y":2578933.0199999996}},{"attributes":{"ID":643346,"DIS_CODE":0,"TOWNNAME":"新營區","LI":"民權里","LIN":"14鄰","STREET":"三民路","SECT":" ","MAREA":" ","LANE":" ","ALLEY":" ","HOUSE_NO":"８７號","E_COORD97":179821.28,"N_COORD97":2578436.2400000002,"ADDRESS":"三民路８７號","OBJECTID":643319},"geometry":{"x":179821.28000000026,"y":2578436.2400000021}},{"attributes":{"ID":643347,"DIS_CODE":0,"TOWNNAME":"新營區","LI":"南紙里","LIN":"18鄰","STREET":"南紙街","SECT":" ","MAREA":" ","LANE":" ","ALLEY":" ","HOUSE_NO":"４２號","E_COORD97":177808.84,"N_COORD97":2577709.4500000002,"ADDRESS":"南紙街４２號","OBJECTID":643320},"geometry":{"x":177808.83999999985,"y":2577709.4499999993}},{"attributes":{"ID":643348,"DIS_CODE":0,"TOWNNAME":"關廟區","LI":"東勢里","LIN":"18鄰","STREET":"東德街","SECT":" ","MAREA":" ","LANE":" ","ALLEY":" ","HOUSE_NO":"６５號","E_COORD97":181921.51999999999,"N_COORD97":2539268.27,"ADDRESS":"東德街６５號","OBJECTID":643321},"geometry":{"x":181921.51999999955,"y":2539268.2699999996}},{"attributes":{"ID":643349,"DIS_CODE":0,"TOWNNAME":"新營區","LI":"民權里","LIN":"14鄰","STREET":"三民路","SECT":" ","MAREA":" ","LANE":" ","ALLEY":" ","HOUSE_NO":"８９之１號","E_COORD97":179803.29999999999,"N_COORD97":2578430.8500000001,"ADDRESS":"三民路８９之１號","OBJECTID":643322},"geometry":{"x":179803.30000000075,"y":2578430.8500000015}},{"attributes":{"ID":643350,"DIS_CODE":0,"TOWNNAME":"新營區","LI":"南紙里","LIN":"14鄰","STREET":"南紙街","SECT":" ","MAREA":" ","LANE":" ","ALLEY":" ","HOUSE_NO":"１４２號","E_COORD97":177791.09,"N_COORD97":2577395.0299999998,"ADDRESS":"南紙街１４２號","OBJECTID":643323},"geometry":{"x":177791.09000000078,"y":2577395.0300000031}},{"attributes":{"ID":643351,"DIS_CODE":0,"TOWNNAME":"新營區","LI":"民榮里","LIN":"17鄰","STREET":"裕民路","SECT":" ","MAREA":" ","LANE":" ","ALLEY":" ","HOUSE_NO":"８０號","E_COORD97":179133.73000000001,"N_COORD97":2577756.21,"ADDRESS":"裕民路８０號","OBJECTID":643324},"geometry":{"x":179133.73000000045,"y":2577756.2100000028}},{"attributes":{"ID":643352,"DIS_CODE":0,"TOWNNAME":"新營區","LI":"三仙里","LIN":" ","STREET":"中華路","SECT":" ","MAREA":" ","LANE":" ","ALLEY":" ","HOUSE_NO":"４５號","E_COORD97":179632.94,"N_COORD97":2578190.1699999999,"ADDRESS":"中華路４５號","OBJECTID":643325},"geometry":{"x":179632.94000000227,"y":2578190.1699999999}},{"attributes":{"ID":643353,"DIS_CODE":0,"TOWNNAME":"新營區","LI":"民權里","LIN":"5鄰","STREET":"三民路","SECT":" ","MAREA":" ","LANE":" ","ALLEY":" ","HOUSE_NO":"９２號之１","E_COORD97":179963.76999999999,"N_COORD97":2578503.1699999999,"ADDRESS":"三民路９２號之１","OBJECTID":643326},"geometry":{"x":179963.77000000142,"y":2578503.1700000037}},{"attributes":{"ID":643354,"DIS_CODE":0,"TOWNNAME":"新營區","LI":"南紙里","LIN":"18鄰","STREET":"南紙街","SECT":" ","MAREA":" ","LANE":" ","ALLEY":" ","HOUSE_NO":"１０號","E_COORD97":177812.12,"N_COORD97":2577768.1299999999,"ADDRESS":"南紙街１０號","OBJECTID":643327},"geometry":{"x":177812.12000000011,"y":2577768.1300000008}},{"attributes":{"ID":643355,"DIS_CODE":0,"TOWNNAME":"新營區","LI":"忠政里","LIN":"32鄰","STREET":"民治路","SECT":" ","MAREA":" ","LANE":" ","ALLEY":" ","HOUSE_NO":"５４號","E_COORD97":179765.97,"N_COORD97":2578860.6600000001,"ADDRESS":"民治路５４號","OBJECTID":643328},"geometry":{"x":179765.9700000016,"y":2578860.660000002}},{"attributes":{"ID":643356,"DIS_CODE":0,"TOWNNAME":"新營區","LI":"民生里","LIN":" ","STREET":"復興路","SECT":" ","MAREA":" ","LANE":" ","ALLEY":" ","HOUSE_NO":"２６０之１號","E_COORD97":178802.64999999999,"N_COORD97":2578111.1499999999,"ADDRESS":"復興路２６０之１號","OBJECTID":643329},"geometry":{"x":178802.65000000224,"y":2578111.1500000022}},{"attributes":{"ID":643357,"DIS_CODE":0,"TOWNNAME":"新營區","LI":"忠政里","LIN":"25鄰","STREET":"府西路","SECT":" ","MAREA":" ","LANE":" ","ALLEY":" ","HOUSE_NO":"１１５之１號","E_COORD97":179800.32000000001,"N_COORD97":2579280.2799999998,"ADDRESS":"府西路１１５之１號","OBJECTID":643330},"geometry":{"x":179800.32000000123,"y":2579280.2799999993}},{"attributes":{"ID":643358,"DIS_CODE":0,"TOWNNAME":"新營區","LI":"忠政里","LIN":"25鄰","STREET":"府西路","SECT":" ","MAREA":" ","LANE":" ","ALLEY":" ","HOUSE_NO":"１００號","E_COORD97":179813.39000000001,"N_COORD97":2579326.6699999999,"ADDRESS":"府西路１００號","OBJECTID":643331},"geometry":{"x":179813.38999999966,"y":2579326.6699999999}},{"attributes":{"ID":643359,"DIS_CODE":0,"TOWNNAME":"新營區","LI":"新北里","LIN":"5鄰","STREET":"三興街","SECT":" ","MAREA":" ","LANE":" ","ALLEY":" ","HOUSE_NO":"１０９號之１","E_COORD97":179428.51000000001,"N_COORD97":2579243.29,"ADDRESS":"三興街１０９號之１","OBJECTID":643332},"geometry":{"x":179428.51000000071,"y":2579243.2899999991}},{"attributes":{"ID":643360,"DIS_CODE":0,"TOWNNAME":"新營區","LI":"南紙里","LIN":"4鄰","STREET":"南紙街","SECT":" ","MAREA":" ","LANE":" ","ALLEY":" ","HOUSE_NO":"２５號","E_COORD97":177842.72,"N_COORD97":2577736.96,"ADDRESS":"南紙街２５號","OBJECTID":643333},"geometry":{"x":177842.72000000067,"y":2577736.9600000028}},{"attributes":{"ID":643361,"DIS_CODE":0,"TOWNNAME":"新營區","LI":"民生里","LIN":" ","STREET":"復興路","SECT":" ","MAREA":" ","LANE":" ","ALLEY":" ","HOUSE_NO":"２６４之６號","E_COORD97":178830.57999999999,"N_COORD97":2578176.3500000001,"ADDRESS":"復興路２６４之６號","OBJECTID":643334},"geometry":{"x":178830.58000000101,"y":2578176.3500000034}},{"attributes":{"ID":643362,"DIS_CODE":0,"TOWNNAME":"新營區","LI":"民生里","LIN":" ","STREET":"復興路","SECT":" ","MAREA":" ","LANE":" ","ALLEY":" ","HOUSE_NO":"２６２號","E_COORD97":178796.13,"N_COORD97":2578125.5099999998,"ADDRESS":"復興路２６２號","OBJECTID":643335},"geometry":{"x":178796.13000000082,"y":2578125.5100000016}},{"attributes":{"ID":643363,"DIS_CODE":0,"TOWNNAME":"新營區","LI":"忠政里","LIN":"5鄰","STREET":"安和街","SECT":" ","MAREA":" ","LANE":" ","ALLEY":" ","HOUSE_NO":"２３號","E_COORD97":180023.60000000001,"N_COORD97":2579255.9100000001,"ADDRESS":"安和街２３號","OBJECTID":643336},"geometry":{"x":180023.59999999963,"y":2579255.910000002}},{"attributes":{"ID":643364,"DIS_CODE":0,"TOWNNAME":"新營區","LI":"南紙里","LIN":"18鄰","STREET":"南紙街","SECT":" ","MAREA":" ","LANE":" ","ALLEY":" ","HOUSE_NO":"４０號","E_COORD97":177811.94,"N_COORD97":2577714.98,"ADDRESS":"南紙街４０號","OBJECTID":643337},"geometry":{"x":177811.94000000041,"y":2577714.9800000042}},{"attributes":{"ID":643365,"DIS_CODE":0,"TOWNNAME":"新營區","LI":"民生里","LIN":" ","STREET":"復興路","SECT":" ","MAREA":" ","LANE":" ","ALLEY":" ","HOUSE_NO":"２５６號","E_COORD97":178831.91,"N_COORD97":2578120.9100000001,"ADDRESS":"復興路２５６號","OBJECTID":643338},"geometry":{"x":178831.91000000015,"y":2578120.9100000001}},{"attributes":{"ID":643366,"DIS_CODE":0,"TOWNNAME":"新營區","LI":"新北里","LIN":"5鄰","STREET":"三興街","SECT":" ","MAREA":" ","LANE":" ","ALLEY":" ","HOUSE_NO":"１０５號之６","E_COORD97":179414.26999999999,"N_COORD97":2579237.8100000001,"ADDRESS":"三興街１０５號之６","OBJECTID":643339},"geometry":{"x":179414.26999999955,"y":2579237.8100000005}},{"attributes":{"ID":643367,"DIS_CODE":0,"TOWNNAME":"新營區","LI":"民生里","LIN":"18鄰","STREET":"進修街","SECT":" ","MAREA":" ","LANE":" ","ALLEY":" ","HOUSE_NO":"９之４號","E_COORD97":178928.20999999999,"N_COORD97":2578385.1800000002,"ADDRESS":"進修街９之４號","OBJECTID":643340},"geometry":{"x":178928.20999999996,"y":2578385.1800000016}},{"attributes":{"ID":643368,"DIS_CODE":0,"TOWNNAME":"新營區","LI":"新北里","LIN":"20鄰","STREET":"金華路","SECT":"一段","MAREA":" ","LANE":" ","ALLEY":" ","HOUSE_NO":"３９０號","E_COORD97":179011.70000000001,"N_COORD97":2579134.4700000002,"ADDRESS":"金華路一段３９０號","OBJECTID":643341},"geometry":{"x":179011.70000000019,"y":2579134.4700000007}},{"attributes":{"ID":643369,"DIS_CODE":0,"TOWNNAME":"新營區","LI":"民生里","LIN":"25鄰","STREET":"民治路","SECT":" ","MAREA":" ","LANE":" ","ALLEY":" ","HOUSE_NO":"７３號","E_COORD97":179099.23000000001,"N_COORD97":2578675.5600000001,"ADDRESS":"民治路７３號","OBJECTID":643342},"geometry":{"x":179099.23000000138,"y":2578675.5600000024}},{"attributes":{"ID":643370,"DIS_CODE":0,"TOWNNAME":"新營區","LI":"忠政里","LIN":"32鄰","STREET":"民治路","SECT":" ","MAREA":" ","LANE":" ","ALLEY":" ","HOUSE_NO":"６２之１號","E_COORD97":179731.63,"N_COORD97":2578858.6699999999,"ADDRESS":"民治路６２之１號","OBJECTID":643343},"geometry":{"x":179731.63000000082,"y":2578858.6699999999}},{"attributes":{"ID":643371,"DIS_CODE":0,"TOWNNAME":"新營區","LI":"南紙里","LIN":"18鄰","STREET":"南紙街","SECT":" ","MAREA":" ","LANE":" ","ALLEY":" ","HOUSE_NO":"３２號","E_COORD97":177808.98000000001,"N_COORD97":2577736.0299999998,"ADDRESS":"南紙街３２號","OBJECTID":643344},"geometry":{"x":177808.98000000138,"y":2577736.0299999993}},{"attributes":{"ID":643372,"DIS_CODE":0,"TOWNNAME":"新營區","LI":"忠政里","LIN":"25鄰","STREET":"府西路","SECT":" ","MAREA":" ","LANE":" ","ALLEY":" ","HOUSE_NO":"１５３號","E_COORD97":179798.25,"N_COORD97":2579369.9399999999,"ADDRESS":"府西路１５３號","OBJECTID":643345},"geometry":{"x":179798.25000000186,"y":2579369.9400000013}},{"attributes":{"ID":643373,"DIS_CODE":0,"TOWNNAME":"新營區","LI":"忠政里","LIN":"32鄰","STREET":"民治路","SECT":" ","MAREA":" ","LANE":" ","ALLEY":" ","HOUSE_NO":"６６號","E_COORD97":179705.59,"N_COORD97":2578856.5099999998,"ADDRESS":"民治路６６號","OBJECTID":643346},"geometry":{"x":179705.58999999985,"y":2578856.5099999979}},{"attributes":{"ID":643374,"DIS_CODE":0,"TOWNNAME":"新營區","LI":"南紙里","LIN":"4鄰","STREET":"南紙街","SECT":" ","MAREA":" ","LANE":" ","ALLEY":" ","HOUSE_NO":"１號","E_COORD97":177835.60999999999,"N_COORD97":2577806.77,"ADDRESS":"南紙街１號","OBJECTID":643347},"geometry":{"x":177835.61000000127,"y":2577806.7699999996}},{"attributes":{"ID":643375,"DIS_CODE":0,"TOWNNAME":"新營區","LI":"民生里","LIN":"13鄰","STREET":"復興路","SECT":" ","MAREA":" ","LANE":" ","ALLEY":" ","HOUSE_NO":"２２８號","E_COORD97":178950.29999999999,"N_COORD97":2578067.1800000002,"ADDRESS":"復興路２２８號","OBJECTID":643348},"geometry":{"x":178950.30000000075,"y":2578067.1800000016}},{"attributes":{"ID":643376,"DIS_CODE":0,"TOWNNAME":"新營區","LI":"忠政里","LIN":"25鄰","STREET":"府西路","SECT":" ","MAREA":" ","LANE":" ","ALLEY":" ","HOUSE_NO":"９０號","E_COORD97":179812,"N_COORD97":2579304.52,"ADDRESS":"府西路９０號","OBJECTID":643349},"geometry":{"x":179812.00000000093,"y":2579304.5200000014}},{"attributes":{"ID":643377,"DIS_CODE":0,"TOWNNAME":"新營區","LI":"忠政里","LIN":"25鄰","STREET":"府西路","SECT":" ","MAREA":" ","LANE":" ","ALLEY":" ","HOUSE_NO":"１１５之４號","E_COORD97":179800.32000000001,"N_COORD97":2579280.2799999998,"ADDRESS":"府西路１１５之４號","OBJECTID":643350},"geometry":{"x":179800.32000000123,"y":2579280.2799999993}},{"attributes":{"ID":643378,"DIS_CODE":0,"TOWNNAME":"新營區","LI":"民生里","LIN":"25鄰","STREET":"民治路","SECT":" ","MAREA":" ","LANE":" ","ALLEY":" ","HOUSE_NO":"７１號","E_COORD97":179109.45999999999,"N_COORD97":2578677.73,"ADDRESS":"民治路７１號","OBJECTID":643351},"geometry":{"x":179109.45999999996,"y":2578677.7300000023}},{"attributes":{"ID":643379,"DIS_CODE":0,"TOWNNAME":"新營區","LI":"忠政里","LIN":"32鄰","STREET":"民治路","SECT":" ","MAREA":" ","LANE":" ","ALLEY":" ","HOUSE_NO":"６０之２號","E_COORD97":179740.82999999999,"N_COORD97":2578859.73,"ADDRESS":"民治路６０之２號","OBJECTID":643352},"geometry":{"x":179740.83000000101,"y":2578859.7300000023}},{"attributes":{"ID":643380,"DIS_CODE":0,"TOWNNAME":"新營區","LI":"民生里","LIN":"13鄰","STREET":"復興路","SECT":" ","MAREA":" ","LANE":" ","ALLEY":" ","HOUSE_NO":"２２８之６號","E_COORD97":178923.19,"N_COORD97":2578076.23,"ADDRESS":"復興路２２８之６號","OBJECTID":643353},"geometry":{"x":178923.19000000134,"y":2578076.2300000042}},{"attributes":{"ID":643381,"DIS_CODE":0,"TOWNNAME":"新營區","LI":"忠政里","LIN":"32鄰","STREET":"府西路","SECT":" ","MAREA":" ","LANE":" ","ALLEY":" ","HOUSE_NO":"３９號","E_COORD97":179811.67000000001,"N_COORD97":2578993.3300000001,"ADDRESS":"府西路３９號","OBJECTID":643354},"geometry":{"x":179811.66999999993,"y":2578993.3300000001}},{"attributes":{"ID":643382,"DIS_CODE":0,"TOWNNAME":"新營區","LI":"民生里","LIN":" ","STREET":"復興路","SECT":" ","MAREA":" ","LANE":" ","ALLEY":" ","HOUSE_NO":"２６４之２號","E_COORD97":178830.48999999999,"N_COORD97":2578156.4199999999,"ADDRESS":"復興路２６４之２號","OBJECTID":643355},"geometry":{"x":178830.48999999929,"y":2578156.4200000018}},{"attributes":{"ID":643383,"DIS_CODE":0,"TOWNNAME":"新營區","LI":"王公里","LIN":"26鄰","STREET":"大公街","SECT":" ","MAREA":" ","LANE":" ","ALLEY":" ","HOUSE_NO":"３８號","E_COORD97":180211.64000000001,"N_COORD97":2579652.5899999999,"ADDRESS":"大公街３８號","OBJECTID":643356},"geometry":{"x":180211.63999999966,"y":2579652.5899999999}},{"attributes":{"ID":643384,"DIS_CODE":0,"TOWNNAME":"新營區","LI":"忠政里","LIN":"25鄰","STREET":"府西路","SECT":" ","MAREA":" ","LANE":" ","ALLEY":" ","HOUSE_NO":"１２５號","E_COORD97":179798.98000000001,"N_COORD97":2579307.9100000001,"ADDRESS":"府西路１２５號","OBJECTID":643357},"geometry":{"x":179798.98000000138,"y":2579307.9100000001}},{"attributes":{"ID":643385,"DIS_CODE":0,"TOWNNAME":"新營區","LI":"民生里","LIN":" ","STREET":"復興路","SECT":" ","MAREA":" ","LANE":" ","ALLEY":" ","HOUSE_NO":"２７４之２號","E_COORD97":178768.07999999999,"N_COORD97":2578153.3900000001,"ADDRESS":"復興路２７４之２號","OBJECTID":643358},"geometry":{"x":178768.08000000007,"y":2578153.3900000043}},{"attributes":{"ID":643386,"DIS_CODE":0,"TOWNNAME":"新營區","LI":"南紙里","LIN":"18鄰","STREET":"太子路","SECT":" ","MAREA":" ","LANE":" ","ALLEY":" ","HOUSE_NO":"２２１號","E_COORD97":177755.12,"N_COORD97":2577765.0899999999,"ADDRESS":"太子路２２１號","OBJECTID":643359},"geometry":{"x":177755.12000000104,"y":2577765.0900000017}},{"attributes":{"ID":643387,"DIS_CODE":0,"TOWNNAME":"新營區","LI":"忠政里","LIN":"20鄰","STREET":"府西路","SECT":" ","MAREA":" ","LANE":" ","ALLEY":" ","HOUSE_NO":"２４５號","E_COORD97":179796.54000000001,"N_COORD97":2579641.27,"ADDRESS":"府西路２４５號","OBJECTID":643360},"geometry":{"x":179796.54000000097,"y":2579641.2700000033}},{"attributes":{"ID":643388,"DIS_CODE":0,"TOWNNAME":"新營區","LI":"民榮里","LIN":"34鄰","STREET":"新進路","SECT":"二段","MAREA":" ","LANE":" ","ALLEY":" ","HOUSE_NO":"４５３號","E_COORD97":178636.32999999999,"N_COORD97":2578077.5499999998,"ADDRESS":"新進路二段４５３號","OBJECTID":643361},"geometry":{"x":178636.33000000007,"y":2578077.5500000045}},{"attributes":{"ID":643389,"DIS_CODE":0,"TOWNNAME":"新營區","LI":"埤寮里","LIN":" ","STREET":"中正路","SECT":" ","MAREA":" ","LANE":" ","ALLEY":" ","HOUSE_NO":"２８８號","E_COORD97":180094.85999999999,"N_COORD97":2580004.21,"ADDRESS":"中正路２８８號","OBJECTID":643362},"geometry":{"x":180094.86000000127,"y":2580004.2100000009}},{"attributes":{"ID":643390,"DIS_CODE":0,"TOWNNAME":"新營區","LI":"新南里","LIN":" ","STREET":"復興路","SECT":" ","MAREA":" ","LANE":" ","ALLEY":" ","HOUSE_NO":"６１０號","E_COORD97":178063.64000000001,"N_COORD97":2578328.3999999999,"ADDRESS":"復興路６１０號","OBJECTID":643363},"geometry":{"x":178063.63999999966,"y":2578328.4000000004}},{"attributes":{"ID":643391,"DIS_CODE":0,"TOWNNAME":"新營區","LI":"忠政里","LIN":"25鄰","STREET":"府西路","SECT":" ","MAREA":" ","LANE":" ","ALLEY":" ","HOUSE_NO":"１９９號","E_COORD97":179797.97,"N_COORD97":2579526.0800000001,"ADDRESS":"府西路１９９號","OBJECTID":643364},"geometry":{"x":179797.96999999974,"y":2579526.0800000019}},{"attributes":{"ID":643392,"DIS_CODE":0,"TOWNNAME":"新營區","LI":"民權里","LIN":" ","STREET":"仁愛街","SECT":" ","MAREA":" ","LANE":" ","ALLEY":" ","HOUSE_NO":"１０之２號","E_COORD97":179868.54999999999,"N_COORD97":2578184.6800000002,"ADDRESS":"仁愛街１０之２號","OBJECTID":643365},"geometry":{"x":179868.54999999981,"y":2578184.6800000016}},{"attributes":{"ID":643393,"DIS_CODE":0,"TOWNNAME":"新營區","LI":"延平里","LIN":" ","STREET":"復興路","SECT":" ","MAREA":" ","LANE":" ","ALLEY":" ","HOUSE_NO":"１之１３３號","E_COORD97":179715.17999999999,"N_COORD97":2577935.1299999999,"ADDRESS":"復興路１之１３３號","OBJECTID":643366},"geometry":{"x":179715.1799999997,"y":2577935.129999999}},{"attributes":{"ID":643394,"DIS_CODE":0,"TOWNNAME":"新營區","LI":"忠政里","LIN":"25鄰","STREET":"府西路","SECT":" ","MAREA":" ","LANE":" ","ALLEY":" ","HOUSE_NO":"１９４號","E_COORD97":179812.23000000001,"N_COORD97":2579513.8399999999,"ADDRESS":"府西路１９４號","OBJECTID":643367},"geometry":{"x":179812.23000000045,"y":2579513.8400000017}},{"attributes":{"ID":643395,"DIS_CODE":0,"TOWNNAME":"新營區","LI":"延平里","LIN":" ","STREET":"復興路","SECT":" ","MAREA":" ","LANE":" ","ALLEY":" ","HOUSE_NO":"１之１３４號","E_COORD97":179715.17999999999,"N_COORD97":2577935.1299999999,"ADDRESS":"復興路１之１３４號","OBJECTID":643368},"geometry":{"x":179715.1799999997,"y":2577935.129999999}},{"attributes":{"ID":643396,"DIS_CODE":0,"TOWNNAME":"新營區","LI":"三仙里","LIN":" ","STREET":"武昌街","SECT":" ","MAREA":" ","LANE":" ","ALLEY":" ","HOUSE_NO":"６９號","E_COORD97":179570.98000000001,"N_COORD97":2578296.77,"ADDRESS":"武昌街６９號","OBJECTID":643369},"geometry":{"x":179570.98000000045,"y":2578296.7700000014}},{"attributes":{"ID":643397,"DIS_CODE":0,"TOWNNAME":"新營區","LI":"民權里","LIN":"4鄰","STREET":"武昌街","SECT":" ","MAREA":" ","LANE":" ","ALLEY":" ","HOUSE_NO":"６號","E_COORD97":180001.67000000001,"N_COORD97":2578357.8599999999,"ADDRESS":"武昌街６號","OBJECTID":643370},"geometry":{"x":180001.66999999993,"y":2578357.8599999994}},{"attributes":{"ID":643398,"DIS_CODE":0,"TOWNNAME":"新營區","LI":"大宏里","LIN":" ","STREET":"三民路","SECT":" ","MAREA":" ","LANE":" ","ALLEY":" ","HOUSE_NO":"４６之６８號","E_COORD97":180346.14999999999,"N_COORD97":2578536.8199999998,"ADDRESS":"三民路４６之６８號","OBJECTID":643371},"geometry":{"x":180346.15000000037,"y":2578536.8200000022}},{"attributes":{"ID":643399,"DIS_CODE":0,"TOWNNAME":"新營區","LI":"延平里","LIN":" ","STREET":"復興路","SECT":" ","MAREA":" ","LANE":" ","ALLEY":" ","HOUSE_NO":"１之１３９號","E_COORD97":179715.17999999999,"N_COORD97":2577935.1299999999,"ADDRESS":"復興路１之１３９號","OBJECTID":643372},"geometry":{"x":179715.1799999997,"y":2577935.129999999}},{"attributes":{"ID":643400,"DIS_CODE":0,"TOWNNAME":"新營區","LI":"王公里","LIN":"26鄰","STREET":"大公街","SECT":" ","MAREA":" ","LANE":" ","ALLEY":" ","HOUSE_NO":"４２號","E_COORD97":180221.84,"N_COORD97":2579649.2200000002,"ADDRESS":"大公街４２號","OBJECTID":643373},"geometry":{"x":180221.84000000078,"y":2579649.2200000007}},{"attributes":{"ID":643401,"DIS_CODE":0,"TOWNNAME":"新營區","LI":"忠政里","LIN":"25鄰","STREET":"府西路","SECT":" ","MAREA":" ","LANE":" ","ALLEY":" ","HOUSE_NO":"１９３號","E_COORD97":179796.85999999999,"N_COORD97":2579508.3700000001,"ADDRESS":"府西路１９３號","OBJECTID":643374},"geometry":{"x":179796.86000000127,"y":2579508.370000001}},{"attributes":{"ID":643402,"DIS_CODE":0,"TOWNNAME":"新營區","LI":"三仙里","LIN":"14鄰","STREET":"武昌街","SECT":" ","MAREA":" ","LANE":" ","ALLEY":" ","HOUSE_NO":"７１號之６","E_COORD97":179546.51000000001,"N_COORD97":2578268.1600000001,"ADDRESS":"武昌街７１號之６","OBJECTID":643375},"geometry":{"x":179546.50999999978,"y":2578268.1600000001}},{"attributes":{"ID":643403,"DIS_CODE":0,"TOWNNAME":"新營區","LI":"忠政里","LIN":"25鄰","STREET":"府西路","SECT":" ","MAREA":" ","LANE":" ","ALLEY":" ","HOUSE_NO":"１９０號","E_COORD97":179812.17999999999,"N_COORD97":2579504.98,"ADDRESS":"府西路１９０號","OBJECTID":643376},"geometry":{"x":179812.18000000063,"y":2579504.9799999986}},{"attributes":{"ID":643404,"DIS_CODE":0,"TOWNNAME":"新營區","LI":"三仙里","LIN":"13鄰","STREET":"武昌街","SECT":" ","MAREA":" ","LANE":" ","ALLEY":" ","HOUSE_NO":"６３號之２","E_COORD97":179592.62,"N_COORD97":2578284.5499999998,"ADDRESS":"武昌街６３號之２","OBJECTID":643377},"geometry":{"x":179592.62000000104,"y":2578284.5500000045}},{"attributes":{"ID":643405,"DIS_CODE":0,"TOWNNAME":"新營區","LI":"大宏里","LIN":" ","STREET":"三民路","SECT":" ","MAREA":" ","LANE":" ","ALLEY":" ","HOUSE_NO":"４６之４號","E_COORD97":180344.89999999999,"N_COORD97":2578536.8199999998,"ADDRESS":"三民路４６之４號","OBJECTID":643378},"geometry":{"x":180344.90000000037,"y":2578536.8200000022}},{"attributes":{"ID":643406,"DIS_CODE":0,"TOWNNAME":"新營區","LI":"王公里","LIN":"32鄰","STREET":"大德街","SECT":" ","MAREA":" ","LANE":" ","ALLEY":" ","HOUSE_NO":"５６號","E_COORD97":180334.66,"N_COORD97":2579513.5800000001,"ADDRESS":"大德街５６號","OBJECTID":643379},"geometry":{"x":180334.66000000201,"y":2579513.5800000001}},{"attributes":{"ID":643407,"DIS_CODE":0,"TOWNNAME":"新營區","LI":"王公里","LIN":"32鄰","STREET":"大德街","SECT":" ","MAREA":" ","LANE":" ","ALLEY":" ","HOUSE_NO":"５７號","E_COORD97":180344.95000000001,"N_COORD97":2579524.6000000001,"ADDRESS":"大德街５７號","OBJECTID":643380},"geometry":{"x":180344.95000000112,"y":2579524.6000000015}},{"attributes":{"ID":643408,"DIS_CODE":0,"TOWNNAME":"新營區","LI":"延平里","LIN":"6鄰","STREET":"復興路","SECT":" ","MAREA":" ","LANE":" ","ALLEY":" ","HOUSE_NO":"１號之１２２","E_COORD97":179715.17999999999,"N_COORD97":2577935.1299999999,"ADDRESS":"復興路１號之１２２","OBJECTID":643381},"geometry":{"x":179715.1799999997,"y":2577935.129999999}},{"attributes":{"ID":643409,"DIS_CODE":0,"TOWNNAME":"新營區","LI":"忠政里","LIN":"25鄰","STREET":"府西路","SECT":" ","MAREA":" ","LANE":" ","ALLEY":" ","HOUSE_NO":"１９５號","E_COORD97":179797.91,"N_COORD97":2579515.0099999998,"ADDRESS":"府西路１９５號","OBJECTID":643382},"geometry":{"x":179797.91000000108,"y":2579515.0100000016}},{"attributes":{"ID":643410,"DIS_CODE":0,"TOWNNAME":"新營區","LI":"新北里","LIN":"4鄰","STREET":"三興街","SECT":" ","MAREA":" ","LANE":" ","ALLEY":" ","HOUSE_NO":"９３號之２","E_COORD97":179415.70999999999,"N_COORD97":2579160.29,"ADDRESS":"三興街９３號之２","OBJECTID":643383},"geometry":{"x":179415.71000000089,"y":2579160.290000001}},{"attributes":{"ID":643411,"DIS_CODE":0,"TOWNNAME":"新營區","LI":"新北里","LIN":"4鄰","STREET":"三興街","SECT":" ","MAREA":" ","LANE":" ","ALLEY":" ","HOUSE_NO":"８９號之１５","E_COORD97":179372.81,"N_COORD97":2579099.5800000001,"ADDRESS":"三興街８９號之１５","OBJECTID":643384},"geometry":{"x":179372.80999999959,"y":2579099.5800000001}},{"attributes":{"ID":643412,"DIS_CODE":0,"TOWNNAME":"新營區","LI":"大宏里","LIN":" ","STREET":"三民路","SECT":" ","MAREA":" ","LANE":" ","ALLEY":" ","HOUSE_NO":"２８之８號","E_COORD97":180370.70000000001,"N_COORD97":2578586.5299999998,"ADDRESS":"三民路２８之８號","OBJECTID":643385},"geometry":{"x":180370.70000000112,"y":2578586.5300000012}},{"attributes":{"ID":643413,"DIS_CODE":0,"TOWNNAME":"新營區","LI":"南興里","LIN":"32鄰","STREET":"延平路","SECT":" ","MAREA":" ","LANE":" ","ALLEY":" ","HOUSE_NO":"１６０號","E_COORD97":179722.17000000001,"N_COORD97":2577346.98,"ADDRESS":"延平路１６０號","OBJECTID":643386},"geometry":{"x":179722.16999999993,"y":2577346.9800000023}},{"attributes":{"ID":643414,"DIS_CODE":0,"TOWNNAME":"新營區","LI":"大宏里","LIN":" ","STREET":"東山路","SECT":" ","MAREA":" ","LANE":" ","ALLEY":" ","HOUSE_NO":"１１號","E_COORD97":181063.29000000001,"N_COORD97":2578726.1000000001,"ADDRESS":"東山路１１號","OBJECTID":643387},"geometry":{"x":181063.29000000097,"y":2578726.0999999996}},{"attributes":{"ID":643415,"DIS_CODE":0,"TOWNNAME":"新營區","LI":"民權里","LIN":" ","STREET":"中華路","SECT":" ","MAREA":" ","LANE":" ","ALLEY":" ","HOUSE_NO":"３０之１號","E_COORD97":179757.32999999999,"N_COORD97":2578222.8700000001,"ADDRESS":"中華路３０之１號","OBJECTID":643388},"geometry":{"x":179757.33000000101,"y":2578222.8700000029}},{"attributes":{"ID":643416,"DIS_CODE":0,"TOWNNAME":"新營區","LI":"大宏里","LIN":" ","STREET":"開元路","SECT":" ","MAREA":" ","LANE":" ","ALLEY":" ","HOUSE_NO":"１７之２號","E_COORD97":180792.09,"N_COORD97":2578595.6299999999,"ADDRESS":"開元路１７之２號","OBJECTID":643389},"geometry":{"x":180792.08999999985,"y":2578595.6300000008}},{"attributes":{"ID":643417,"DIS_CODE":0,"TOWNNAME":"新營區","LI":"三仙里","LIN":" ","STREET":"民權路","SECT":" ","MAREA":" ","LANE":" ","ALLEY":" ","HOUSE_NO":"４９號","E_COORD97":179691.79000000001,"N_COORD97":2578306.1699999999,"ADDRESS":"民權路４９號","OBJECTID":643390},"geometry":{"x":179691.79000000097,"y":2578306.1699999999}},{"attributes":{"ID":643418,"DIS_CODE":0,"TOWNNAME":"新營區","LI":"民權里","LIN":" ","STREET":"武昌街","SECT":" ","MAREA":" ","LANE":" ","ALLEY":" ","HOUSE_NO":"１１號之２","E_COORD97":179890.51999999999,"N_COORD97":2578335.1899999999,"ADDRESS":"武昌街１１號之２","OBJECTID":643391},"geometry":{"x":179890.51999999955,"y":2578335.1899999995}},{"attributes":{"ID":643419,"DIS_CODE":0,"TOWNNAME":"新營區","LI":"三仙里","LIN":"26鄰","STREET":"育德街","SECT":" ","MAREA":" ","LANE":" ","ALLEY":" ","HOUSE_NO":"５３號","E_COORD97":179592.98000000001,"N_COORD97":2579047.5299999998,"ADDRESS":"育德街５３號","OBJECTID":643392},"geometry":{"x":179592.98000000045,"y":2579047.5300000012}},{"attributes":{"ID":643420,"DIS_CODE":0,"TOWNNAME":"新營區","LI":"王公里","LIN":"32鄰","STREET":"大德街","SECT":" ","MAREA":" ","LANE":" ","ALLEY":" ","HOUSE_NO":"７號","E_COORD97":180190.37,"N_COORD97":2579543.04,"ADDRESS":"大德街７號","OBJECTID":643393},"geometry":{"x":180190.37000000011,"y":2579543.0399999991}},{"attributes":{"ID":643421,"DIS_CODE":0,"TOWNNAME":"新營區","LI":"永生里","LIN":" ","STREET":"康樂街","SECT":" ","MAREA":" ","LANE":" ","ALLEY":" ","HOUSE_NO":"２之３號","E_COORD97":180101.48000000001,"N_COORD97":2577939.9399999999,"ADDRESS":"康樂街２之３號","OBJECTID":643394},"geometry":{"x":180101.48000000045,"y":2577939.9399999995}},{"attributes":{"ID":643422,"DIS_CODE":0,"TOWNNAME":"新營區","LI":"大宏里","LIN":" ","STREET":"開元路","SECT":" ","MAREA":" ","LANE":" ","ALLEY":" ","HOUSE_NO":"１７之１號","E_COORD97":180792.09,"N_COORD97":2578595.6299999999,"ADDRESS":"開元路１７之１號","OBJECTID":643395},"geometry":{"x":180792.08999999985,"y":2578595.6300000008}},{"attributes":{"ID":643423,"DIS_CODE":0,"TOWNNAME":"新營區","LI":"南興里","LIN":" ","STREET":"延平路","SECT":" ","MAREA":" ","LANE":" ","ALLEY":" ","HOUSE_NO":"１４２之２７號","E_COORD97":179675.98999999999,"N_COORD97":2577387.1400000001,"ADDRESS":"延平路１４２之２７號","OBJECTID":643396},"geometry":{"x":179675.99000000022,"y":2577387.1400000006}},{"attributes":{"ID":643424,"DIS_CODE":0,"TOWNNAME":"新營區","LI":"忠政里","LIN":"18鄰","STREET":"中正路","SECT":" ","MAREA":" ","LANE":" ","ALLEY":" ","HOUSE_NO":"２０９之１號","E_COORD97":180069.48999999999,"N_COORD97":2579733.0600000001,"ADDRESS":"中正路２０９之１號","OBJECTID":643397},"geometry":{"x":180069.49000000022,"y":2579733.0600000024}},{"attributes":{"ID":643425,"DIS_CODE":0,"TOWNNAME":"新營區","LI":"民榮里","LIN":"32鄰","STREET":"太子路","SECT":" ","MAREA":" ","LANE":" ","ALLEY":" ","HOUSE_NO":"７５號","E_COORD97":178260.5,"N_COORD97":2578045.0299999998,"ADDRESS":"太子路７５號","OBJECTID":643398},"geometry":{"x":178260.5,"y":2578045.0299999993}},{"attributes":{"ID":643426,"DIS_CODE":0,"TOWNNAME":"新營區","LI":"忠政里","LIN":"18鄰","STREET":"中正路","SECT":" ","MAREA":" ","LANE":" ","ALLEY":" ","HOUSE_NO":"２０７號之５","E_COORD97":180012.98000000001,"N_COORD97":2579724.4700000002,"ADDRESS":"中正路２０７號之５","OBJECTID":643399},"geometry":{"x":180012.98000000138,"y":2579724.4700000007}},{"attributes":{"ID":643427,"DIS_CODE":0,"TOWNNAME":"新營區","LI":"南興里","LIN":"32鄰","STREET":"延平路","SECT":" ","MAREA":" ","LANE":" ","ALLEY":" ","HOUSE_NO":"１４２之２９號","E_COORD97":179676.97,"N_COORD97":2577378.2799999998,"ADDRESS":"延平路１４２之２９號","OBJECTID":643400},"geometry":{"x":179676.96999999974,"y":2577378.2799999993}}]}