{"displayFieldName":"TOWNNAME","fieldAliases":{"ID":"ID","DIS_CODE":"DIS_CODE","TOWNNAME":"TOWNNAME","LI":"LI","LIN":"LIN","STREET":"STREET","SECT":"SECT","MAREA":"MAREA","LANE":"LANE","ALLEY":"ALLEY","HOUSE_NO":"HOUSE_NO","E_COORD97":"E_COORD97","N_COORD97":"N_COORD97","ADDRESS":"ADDRESS","OBJECTID":"OBJECTID"},"geometryType":"esriGeometryPoint","spatialReference":{"wkid":102443,"latestWkid":3826},"fields":[{"name":"ID","type":"esriFieldTypeDouble","alias":"ID"},{"name":"DIS_CODE","type":"esriFieldTypeInteger","alias":"DIS_CODE"},{"name":"TOWNNAME","type":"esriFieldTypeString","alias":"TOWNNAME","length":8},{"name":"LI","type":"esriFieldTypeString","alias":"LI","length":8},{"name":"LIN","type":"esriFieldTypeString","alias":"LIN","length":12},{"name":"STREET","type":"esriFieldTypeString","alias":"STREET","length":20},{"name":"SECT","type":"esriFieldTypeString","alias":"SECT","length":8},{"name":"MAREA","type":"esriFieldTypeString","alias":"MAREA","length":12},{"name":"LANE","type":"esriFieldTypeString","alias":"LANE","length":10},{"name":"ALLEY","type":"esriFieldTypeString","alias":"ALLEY","length":10},{"name":"HOUSE_NO","type":"esriFieldTypeString","alias":"HOUSE_NO","length":20},{"name":"E_COORD97","type":"esriFieldTypeDouble","alias":"E_COORD97"},{"name":"N_COORD97","type":"esriFieldTypeDouble","alias":"N_COORD97"},{"name":"ADDRESS","type":"esriFieldTypeString","alias":"ADDRESS","length":50},{"name":"OBJECTID","type":"esriFieldTypeOID","alias":"OBJECTID"}],"features":[{"attributes":{"ID":664428,"DIS_CODE":0,"TOWNNAME":"新化區","LI":"中央里","LIN":"6鄰","STREET":"信義路","SECT":" ","MAREA":" ","LANE":" ","ALLEY":" ","HOUSE_NO":"３５０號","E_COORD97":178853.143281,"N_COORD97":2548321.6049500001,"ADDRESS":"信義路３５０號","OBJECTID":664401},"geometry":{"x":178853.14328099973,"y":2548321.6049460005}},{"attributes":{"ID":664429,"DIS_CODE":0,"TOWNNAME":"南區","LI":"荔宅里","LIN":"2鄰","STREET":"西門路","SECT":"一段","MAREA":" ","LANE":"３００巷","ALLEY":" ","HOUSE_NO":"７６號","E_COORD97":167878.24223199999,"N_COORD97":2542041.28168,"ADDRESS":"西門路一段３００巷７６號","OBJECTID":664402},"geometry":{"x":167878.24223200139,"y":2542041.2816770021}},{"attributes":{"ID":664430,"DIS_CODE":0,"TOWNNAME":"南區","LI":"荔宅里","LIN":"2鄰","STREET":"西門路","SECT":"一段","MAREA":" ","LANE":"３００巷","ALLEY":" ","HOUSE_NO":"７８號","E_COORD97":167880.996958,"N_COORD97":2542041.28168,"ADDRESS":"西門路一段３００巷７８號","OBJECTID":664403},"geometry":{"x":167880.99695800059,"y":2542041.2816770021}},{"attributes":{"ID":664431,"DIS_CODE":0,"TOWNNAME":"南區","LI":"荔宅里","LIN":"2鄰","STREET":"西門路","SECT":"一段","MAREA":" ","LANE":"３００巷","ALLEY":" ","HOUSE_NO":"８０號","E_COORD97":167884.17548800001,"N_COORD97":2542041.28168,"ADDRESS":"西門路一段３００巷８０號","OBJECTID":664404},"geometry":{"x":167884.17548800074,"y":2542041.2816770021}},{"attributes":{"ID":664432,"DIS_CODE":0,"TOWNNAME":"南區","LI":"荔宅里","LIN":"2鄰","STREET":"西門路","SECT":"一段","MAREA":" ","LANE":"３００巷","ALLEY":" ","HOUSE_NO":"８２號","E_COORD97":167887.35401800001,"N_COORD97":2542041.49334,"ADDRESS":"西門路一段３００巷８２號","OBJECTID":664405},"geometry":{"x":167887.35401799995,"y":2542041.4933429994}},{"attributes":{"ID":664433,"DIS_CODE":0,"TOWNNAME":"南區","LI":"荔宅里","LIN":"2鄰","STREET":"西門路","SECT":"一段","MAREA":" ","LANE":"３００巷","ALLEY":" ","HOUSE_NO":"８６號","E_COORD97":167890.32064600001,"N_COORD97":2542041.0700099999,"ADDRESS":"西門路一段３００巷８６號","OBJECTID":664406},"geometry":{"x":167890.32064600196,"y":2542041.0700100008}},{"attributes":{"ID":664434,"DIS_CODE":0,"TOWNNAME":"南區","LI":"荔宅里","LIN":"2鄰","STREET":"西門路","SECT":"一段","MAREA":" ","LANE":"３００巷","ALLEY":" ","HOUSE_NO":"８８號","E_COORD97":167893.07537199999,"N_COORD97":2542041.28168,"ADDRESS":"西門路一段３００巷８８號","OBJECTID":664407},"geometry":{"x":167893.07537200022,"y":2542041.2816770021}},{"attributes":{"ID":664435,"DIS_CODE":0,"TOWNNAME":"南區","LI":"荔宅里","LIN":"2鄰","STREET":"西門路","SECT":"一段","MAREA":" ","LANE":"３００巷","ALLEY":" ","HOUSE_NO":"９０號","E_COORD97":167896.46580400001,"N_COORD97":2542041.49334,"ADDRESS":"西門路一段３００巷９０號","OBJECTID":664408},"geometry":{"x":167896.46580400039,"y":2542041.4933429994}},{"attributes":{"ID":664436,"DIS_CODE":0,"TOWNNAME":"北區","LI":"仁愛里","LIN":"12鄰","STREET":"長榮路","SECT":"四段","MAREA":" ","LANE":"３１巷","ALLEY":" ","HOUSE_NO":"２１號之１","E_COORD97":170166.9534,"N_COORD97":2544894.4266499998,"ADDRESS":"長榮路四段３１巷２１號之１","OBJECTID":664409},"geometry":{"x":170166.9534,"y":2544894.4266500007}},{"attributes":{"ID":664437,"DIS_CODE":0,"TOWNNAME":"北區","LI":"仁愛里","LIN":"12鄰","STREET":"長榮路","SECT":"四段","MAREA":" ","LANE":"３１巷","ALLEY":" ","HOUSE_NO":"２１號之２","E_COORD97":170163.77257100001,"N_COORD97":2544894.6383199999,"ADDRESS":"長榮路四段３１巷２１號之２","OBJECTID":664410},"geometry":{"x":170163.7725710012,"y":2544894.6383230016}},{"attributes":{"ID":664438,"DIS_CODE":0,"TOWNNAME":"北區","LI":"仁愛里","LIN":"12鄰","STREET":"長榮路","SECT":"四段","MAREA":" ","LANE":"３１巷","ALLEY":" ","HOUSE_NO":"２１號之３","E_COORD97":170161.23105,"N_COORD97":2544894.4266599999,"ADDRESS":"長榮路四段３１巷２１號之３","OBJECTID":664411},"geometry":{"x":170161.23105000053,"y":2544894.4266560003}},{"attributes":{"ID":664439,"DIS_CODE":0,"TOWNNAME":"後壁區","LI":"後壁里","LIN":"5鄰","STREET":" ","SECT":" ","MAREA":"後壁","LANE":" ","ALLEY":" ","HOUSE_NO":"１００號之３","E_COORD97":184720.82945799999,"N_COORD97":2585019.12708,"ADDRESS":"後壁１００號之３","OBJECTID":664412},"geometry":{"x":184720.82945800014,"y":2585019.127076}},{"attributes":{"ID":664440,"DIS_CODE":0,"TOWNNAME":"後壁區","LI":"後壁里","LIN":"1鄰","STREET":" ","SECT":" ","MAREA":"後壁","LANE":" ","ALLEY":" ","HOUSE_NO":"１０號","E_COORD97":184725.78397799999,"N_COORD97":2584931.8146199998,"ADDRESS":"後壁１０號","OBJECTID":664413},"geometry":{"x":184725.78397800028,"y":2584931.8146240003}},{"attributes":{"ID":664441,"DIS_CODE":0,"TOWNNAME":"北區","LI":"仁愛里","LIN":"12鄰","STREET":"長榮路","SECT":"四段","MAREA":" ","LANE":"３１巷","ALLEY":" ","HOUSE_NO":"２１號之４","E_COORD97":170159.32884,"N_COORD97":2544895.4849800002,"ADDRESS":"長榮路四段３１巷２１號之４","OBJECTID":664414},"geometry":{"x":170159.32883999869,"y":2544895.4849800002}},{"attributes":{"ID":664442,"DIS_CODE":0,"TOWNNAME":"南區","LI":"永寧里","LIN":"12鄰","STREET":"灣裡路","SECT":" ","MAREA":" ","LANE":"８８巷","ALLEY":" ","HOUSE_NO":"１６６之１０號","E_COORD97":165845.890209,"N_COORD97":2536443.5480300002,"ADDRESS":"灣裡路８８巷１６６之１０號","OBJECTID":664415},"geometry":{"x":165845.89020900056,"y":2536443.5480330009}},{"attributes":{"ID":664443,"DIS_CODE":0,"TOWNNAME":"南區","LI":"竹溪里","LIN":"1鄰","STREET":"竹溪街","SECT":" ","MAREA":" ","LANE":" ","ALLEY":" ","HOUSE_NO":"１３６號","E_COORD97":169010.85839000001,"N_COORD97":2542106.4749799999,"ADDRESS":"竹溪街１３６號","OBJECTID":664416},"geometry":{"x":169010.85838999972,"y":2542106.4749750029}},{"attributes":{"ID":664444,"DIS_CODE":0,"TOWNNAME":"南區","LI":"省躬里","LIN":"14鄰","STREET":"萬年路","SECT":" ","MAREA":" ","LANE":" ","ALLEY":" ","HOUSE_NO":"２３８號","E_COORD97":166730.792935,"N_COORD97":2537389.90919,"ADDRESS":"萬年路２３８號","OBJECTID":664417},"geometry":{"x":166730.7929349998,"y":2537389.9091880042}},{"attributes":{"ID":664445,"DIS_CODE":0,"TOWNNAME":"南區","LI":"廣州里","LIN":"24鄰","STREET":"健康路","SECT":"二段","MAREA":" ","LANE":" ","ALLEY":" ","HOUSE_NO":"２２０號","E_COORD97":167137.43286199999,"N_COORD97":2542486.83977,"ADDRESS":"健康路二段２２０號","OBJECTID":664418},"geometry":{"x":167137.43286199961,"y":2542486.8397690021}},{"attributes":{"ID":664446,"DIS_CODE":0,"TOWNNAME":"北區","LI":"中樓里","LIN":"19鄰","STREET":"勝利路","SECT":" ","MAREA":" ","LANE":" ","ALLEY":" ","HOUSE_NO":"４０７號","E_COORD97":169913.22101199999,"N_COORD97":2544989.67661,"ADDRESS":"勝利路４０７號","OBJECTID":664419},"geometry":{"x":169913.22101200093,"y":2544989.6766050011}},{"attributes":{"ID":664447,"DIS_CODE":0,"TOWNNAME":"南區","LI":"文南里","LIN":"27鄰","STREET":"健康路","SECT":"二段","MAREA":" ","LANE":" ","ALLEY":" ","HOUSE_NO":"５０１號五樓之５","E_COORD97":166294.06292600001,"N_COORD97":2542553.0913999998,"ADDRESS":"健康路二段５０１號五樓之５","OBJECTID":664420},"geometry":{"x":166294.06292599998,"y":2542553.0914000012}},{"attributes":{"ID":664448,"DIS_CODE":0,"TOWNNAME":"南區","LI":"文南里","LIN":"27鄰","STREET":"健康路","SECT":"二段","MAREA":" ","LANE":" ","ALLEY":" ","HOUSE_NO":"５０１號五樓之６","E_COORD97":166294.06292600001,"N_COORD97":2542553.0913999998,"ADDRESS":"健康路二段５０１號五樓之６","OBJECTID":664421},"geometry":{"x":166294.06292599998,"y":2542553.0914000012}},{"attributes":{"ID":664449,"DIS_CODE":0,"TOWNNAME":"南區","LI":"田寮里","LIN":"26鄰","STREET":"大成路","SECT":"二段","MAREA":" ","LANE":" ","ALLEY":" ","HOUSE_NO":"８８號","E_COORD97":167455.285852,"N_COORD97":2541747.7001700001,"ADDRESS":"大成路二段８８號","OBJECTID":664422},"geometry":{"x":167455.28585200105,"y":2541747.7001690008}},{"attributes":{"ID":664450,"DIS_CODE":0,"TOWNNAME":"南區","LI":"田寮里","LIN":"26鄰","STREET":"大成路","SECT":"二段","MAREA":" ","LANE":" ","ALLEY":" ","HOUSE_NO":"８６號","E_COORD97":167459.31198999999,"N_COORD97":2541747.7001700001,"ADDRESS":"大成路二段８６號","OBJECTID":664423},"geometry":{"x":167459.31199000031,"y":2541747.7001690008}},{"attributes":{"ID":664451,"DIS_CODE":0,"TOWNNAME":"北區","LI":"五福里","LIN":"10鄰","STREET":"自強街","SECT":" ","MAREA":" ","LANE":" ","ALLEY":" ","HOUSE_NO":"４５號","E_COORD97":168237.30006099999,"N_COORD97":2544516.3901900002,"ADDRESS":"自強街４５號","OBJECTID":664424},"geometry":{"x":168237.30006100051,"y":2544516.3901940007}},{"attributes":{"ID":664452,"DIS_CODE":0,"TOWNNAME":"北區","LI":"五福里","LIN":"10鄰","STREET":"自強街","SECT":" ","MAREA":" ","LANE":" ","ALLEY":" ","HOUSE_NO":"４７號","E_COORD97":168239.206202,"N_COORD97":2544521.0468600001,"ADDRESS":"自強街４７號","OBJECTID":664425},"geometry":{"x":168239.20620200131,"y":2544521.0468580015}},{"attributes":{"ID":664453,"DIS_CODE":0,"TOWNNAME":"北區","LI":"五福里","LIN":"10鄰","STREET":"自強街","SECT":" ","MAREA":" ","LANE":" ","ALLEY":" ","HOUSE_NO":"４９號","E_COORD97":168240.68875500001,"N_COORD97":2544525.9151900001,"ADDRESS":"自強街４９號","OBJECTID":664426},"geometry":{"x":168240.68875500187,"y":2544525.9151879996}},{"attributes":{"ID":664454,"DIS_CODE":0,"TOWNNAME":"北區","LI":"五福里","LIN":"13鄰","STREET":"西門路","SECT":"三段","MAREA":" ","LANE":" ","ALLEY":" ","HOUSE_NO":"２２號","E_COORD97":168172.49129000001,"N_COORD97":2544526.5501899999,"ADDRESS":"西門路三段２２號","OBJECTID":664427},"geometry":{"x":168172.4912900012,"y":2544526.5501879994}},{"attributes":{"ID":664455,"DIS_CODE":0,"TOWNNAME":"北區","LI":"五福里","LIN":"6鄰","STREET":"自強街","SECT":" ","MAREA":" ","LANE":"８５巷","ALLEY":" ","HOUSE_NO":"１０號","E_COORD97":168254.45532499999,"N_COORD97":2544635.3467999999,"ADDRESS":"自強街８５巷１０號","OBJECTID":664428},"geometry":{"x":168254.45532499999,"y":2544635.3467959985}},{"attributes":{"ID":664456,"DIS_CODE":0,"TOWNNAME":"北區","LI":"五福里","LIN":"6鄰","STREET":"自強街","SECT":" ","MAREA":" ","LANE":"８５巷","ALLEY":" ","HOUSE_NO":"８號","E_COORD97":168256.78505199999,"N_COORD97":2544633.0184599999,"ADDRESS":"自強街８５巷８號","OBJECTID":664429},"geometry":{"x":168256.78505199961,"y":2544633.0184640009}},{"attributes":{"ID":664457,"DIS_CODE":0,"TOWNNAME":"北區","LI":"五福里","LIN":"6鄰","STREET":"西門路","SECT":"三段","MAREA":" ","LANE":" ","ALLEY":" ","HOUSE_NO":"８０號","E_COORD97":168250.643044,"N_COORD97":2544633.4418000001,"ADDRESS":"西門路三段８０號","OBJECTID":664430},"geometry":{"x":168250.64304399956,"y":2544633.4417969994}},{"attributes":{"ID":664458,"DIS_CODE":0,"TOWNNAME":"北區","LI":"五福里","LIN":"13鄰","STREET":"自強街","SECT":" ","MAREA":" ","LANE":" ","ALLEY":" ","HOUSE_NO":"５號","E_COORD97":168205.43659900001,"N_COORD97":2544460.7022199999,"ADDRESS":"自強街５號","OBJECTID":664431},"geometry":{"x":168205.43659900222,"y":2544460.7022239994}},{"attributes":{"ID":664459,"DIS_CODE":0,"TOWNNAME":"北區","LI":"五福里","LIN":"13鄰","STREET":"自強街","SECT":" ","MAREA":" ","LANE":" ","ALLEY":" ","HOUSE_NO":"５號","E_COORD97":168205.43659900001,"N_COORD97":2544460.7022199999,"ADDRESS":"自強街５號","OBJECTID":664432},"geometry":{"x":168205.43659900222,"y":2544460.7022239994}},{"attributes":{"ID":664460,"DIS_CODE":0,"TOWNNAME":"北區","LI":"五福里","LIN":"10鄰","STREET":"自強街","SECT":" ","MAREA":" ","LANE":"６９巷","ALLEY":" ","HOUSE_NO":"１號","E_COORD97":168230.85180400001,"N_COORD97":2544601.4604799999,"ADDRESS":"自強街６９巷１號","OBJECTID":664433},"geometry":{"x":168230.85180400126,"y":2544601.4604810011}},{"attributes":{"ID":664461,"DIS_CODE":0,"TOWNNAME":"北區","LI":"五福里","LIN":"10鄰","STREET":"自強街","SECT":" ","MAREA":" ","LANE":"６９巷","ALLEY":" ","HOUSE_NO":"３號","E_COORD97":168233.393324,"N_COORD97":2544598.9204799999,"ADDRESS":"自強街６９巷３號","OBJECTID":664434},"geometry":{"x":168233.39332399983,"y":2544598.9204820022}},{"attributes":{"ID":664462,"DIS_CODE":0,"TOWNNAME":"北區","LI":"五福里","LIN":"10鄰","STREET":"自強街","SECT":" ","MAREA":" ","LANE":"６９巷","ALLEY":" ","HOUSE_NO":"７號","E_COORD97":168236.782018,"N_COORD97":2544595.74548,"ADDRESS":"自強街６９巷７號","OBJECTID":664435},"geometry":{"x":168236.78201800119,"y":2544595.7454840019}},{"attributes":{"ID":664463,"DIS_CODE":0,"TOWNNAME":"北區","LI":"五福里","LIN":"10鄰","STREET":"西門路","SECT":"三段","MAREA":" ","LANE":"２４巷","ALLEY":"１５弄","HOUSE_NO":"１號","E_COORD97":168206.70735899999,"N_COORD97":2544558.9155000001,"ADDRESS":"西門路三段２４巷１５弄１號","OBJECTID":664436},"geometry":{"x":168206.70735900104,"y":2544558.9155040048}},{"attributes":{"ID":664464,"DIS_CODE":0,"TOWNNAME":"北區","LI":"五福里","LIN":"10鄰","STREET":"西門路","SECT":"三段","MAREA":" ","LANE":"２４巷","ALLEY":"１５弄","HOUSE_NO":"３號","E_COORD97":168211.7904,"N_COORD97":2544556.1638400001,"ADDRESS":"西門路三段２４巷１５弄３號","OBJECTID":664437},"geometry":{"x":168211.79040000029,"y":2544556.1638389993}},{"attributes":{"ID":664465,"DIS_CODE":0,"TOWNNAME":"北區","LI":"五福里","LIN":"10鄰","STREET":"西門路","SECT":"三段","MAREA":" ","LANE":" ","ALLEY":" ","HOUSE_NO":"３０號","E_COORD97":168185.52802200001,"N_COORD97":2544545.5805100002,"ADDRESS":"西門路三段３０號","OBJECTID":664438},"geometry":{"x":168185.52802200057,"y":2544545.5805110019}},{"attributes":{"ID":664466,"DIS_CODE":0,"TOWNNAME":"北區","LI":"五福里","LIN":"10鄰","STREET":"西門路","SECT":"三段","MAREA":" ","LANE":" ","ALLEY":" ","HOUSE_NO":"３２號","E_COORD97":168198.447418,"N_COORD97":2544560.8204999999,"ADDRESS":"西門路三段３２號","OBJECTID":664439},"geometry":{"x":168198.44741800055,"y":2544560.8205030002}},{"attributes":{"ID":664467,"DIS_CODE":0,"TOWNNAME":"北區","LI":"五福里","LIN":"10鄰","STREET":"西門路","SECT":"三段","MAREA":" ","LANE":" ","ALLEY":" ","HOUSE_NO":"３４號","E_COORD97":168200.56535200001,"N_COORD97":2544564.8421700001,"ADDRESS":"西門路三段３４號","OBJECTID":664440},"geometry":{"x":168200.5653520003,"y":2544564.8421670012}},{"attributes":{"ID":664468,"DIS_CODE":0,"TOWNNAME":"北區","LI":"五福里","LIN":"10鄰","STREET":"西門路","SECT":"三段","MAREA":" ","LANE":" ","ALLEY":" ","HOUSE_NO":"３６號","E_COORD97":168202.89507900001,"N_COORD97":2544567.3821700001,"ADDRESS":"西門路三段３６號","OBJECTID":664441},"geometry":{"x":168202.89507900085,"y":2544567.3821660001}},{"attributes":{"ID":664469,"DIS_CODE":0,"TOWNNAME":"北區","LI":"五福里","LIN":"13鄰","STREET":"自強街","SECT":" ","MAREA":" ","LANE":" ","ALLEY":" ","HOUSE_NO":"３７號","E_COORD97":168231.69897699999,"N_COORD97":2544503.8821999999,"ADDRESS":"自強街３７號","OBJECTID":664442},"geometry":{"x":168231.69897699915,"y":2544503.8822000027}},{"attributes":{"ID":664470,"DIS_CODE":0,"TOWNNAME":"北區","LI":"五福里","LIN":"13鄰","STREET":"自強街","SECT":" ","MAREA":" ","LANE":" ","ALLEY":" ","HOUSE_NO":"３９號","E_COORD97":168233.18153100001,"N_COORD97":2544506.2105299998,"ADDRESS":"自強街３９號","OBJECTID":664443},"geometry":{"x":168233.18153100181,"y":2544506.2105320003}},{"attributes":{"ID":664471,"DIS_CODE":0,"TOWNNAME":"北區","LI":"五福里","LIN":"13鄰","STREET":"自強街","SECT":" ","MAREA":" ","LANE":" ","ALLEY":" ","HOUSE_NO":"３號","E_COORD97":168204.58942599999,"N_COORD97":2544457.1038899999,"ADDRESS":"自強街３號","OBJECTID":664444},"geometry":{"x":168204.58942600153,"y":2544457.1038920023}},{"attributes":{"ID":664472,"DIS_CODE":0,"TOWNNAME":"北區","LI":"安民里","LIN":"9鄰","STREET":"成功路","SECT":" ","MAREA":" ","LANE":" ","ALLEY":" ","HOUSE_NO":"４００號","E_COORD97":167939.42412400001,"N_COORD97":2544553.8355100001,"ADDRESS":"成功路４００號","OBJECTID":664445},"geometry":{"x":167939.42412400059,"y":2544553.8355069999}},{"attributes":{"ID":664473,"DIS_CODE":0,"TOWNNAME":"北區","LI":"六甲里","LIN":"2鄰","STREET":"公園路","SECT":" ","MAREA":" ","LANE":"４５１巷","ALLEY":"３８弄","HOUSE_NO":"１４號","E_COORD97":168908.37880000001,"N_COORD97":2545575.54996,"ADDRESS":"公園路４５１巷３８弄１４號","OBJECTID":664446},"geometry":{"x":168908.378800001,"y":2545575.5499550011}},{"attributes":{"ID":664474,"DIS_CODE":0,"TOWNNAME":"北區","LI":"文元里","LIN":"3鄰","STREET":"文賢路","SECT":" ","MAREA":" ","LANE":"１１２２巷","ALLEY":" ","HOUSE_NO":"１０２號","E_COORD97":167853.01242899999,"N_COORD97":2546473.4394700001,"ADDRESS":"文賢路１１２２巷１０２號","OBJECTID":664447},"geometry":{"x":167853.01242899988,"y":2546473.4394700024}},{"attributes":{"ID":664475,"DIS_CODE":0,"TOWNNAME":"北區","LI":"文元里","LIN":"3鄰","STREET":"文賢路","SECT":" ","MAREA":" ","LANE":"１１２２巷","ALLEY":"１０７弄","HOUSE_NO":"２８號","E_COORD97":167668.75219500001,"N_COORD97":2546439.99615,"ADDRESS":"文賢路１１２２巷１０７弄２８號","OBJECTID":664448},"geometry":{"x":167668.75219500158,"y":2546439.9961549994}},{"attributes":{"ID":664476,"DIS_CODE":0,"TOWNNAME":"北區","LI":"文元里","LIN":"3鄰","STREET":"文賢路","SECT":" ","MAREA":" ","LANE":"１１２２巷","ALLEY":" ","HOUSE_NO":"１０８號","E_COORD97":167866.56720399999,"N_COORD97":2546481.90613,"ADDRESS":"文賢路１１２２巷１０８號","OBJECTID":664449},"geometry":{"x":167866.56720400043,"y":2546481.9061320014}},{"attributes":{"ID":664477,"DIS_CODE":0,"TOWNNAME":"北區","LI":"文元里","LIN":"3鄰","STREET":"文賢二街","SECT":" ","MAREA":" ","LANE":" ","ALLEY":" ","HOUSE_NO":"２３２號","E_COORD97":167720.64157099999,"N_COORD97":2545749.3281899998,"ADDRESS":"文賢二街２３２號","OBJECTID":664450},"geometry":{"x":167720.64157100208,"y":2545749.3281940017}},{"attributes":{"ID":664478,"DIS_CODE":0,"TOWNNAME":"北區","LI":"文元里","LIN":"3鄰","STREET":"文賢路","SECT":" ","MAREA":" ","LANE":"１１２２巷","ALLEY":" ","HOUSE_NO":"１１６號","E_COORD97":167872.92100599999,"N_COORD97":2546502.0144500001,"ADDRESS":"文賢路１１２２巷１１６號","OBJECTID":664451},"geometry":{"x":167872.9210060006,"y":2546502.0144550018}},{"attributes":{"ID":664479,"DIS_CODE":0,"TOWNNAME":"北區","LI":"文元里","LIN":"3鄰","STREET":"文賢路","SECT":" ","MAREA":" ","LANE":"１１２２巷","ALLEY":" ","HOUSE_NO":"１２０號","E_COORD97":167879.910187,"N_COORD97":2546504.3427900001,"ADDRESS":"文賢路１１２２巷１２０號","OBJECTID":664452},"geometry":{"x":167879.91018700227,"y":2546504.3427869994}},{"attributes":{"ID":664480,"DIS_CODE":0,"TOWNNAME":"北區","LI":"文元里","LIN":"11鄰","STREET":"文賢路","SECT":" ","MAREA":" ","LANE":"１０８０巷","ALLEY":" ","HOUSE_NO":"５號","E_COORD97":167400.83358000001,"N_COORD97":2546217.53461,"ADDRESS":"文賢路１０８０巷５號","OBJECTID":664453},"geometry":{"x":167400.83358000126,"y":2546217.5346080009}},{"attributes":{"ID":664481,"DIS_CODE":0,"TOWNNAME":"北區","LI":"文元里","LIN":"14鄰","STREET":"文賢路","SECT":" ","MAREA":" ","LANE":"１０８０巷","ALLEY":" ","HOUSE_NO":"６號之１","E_COORD97":167387.91417999999,"N_COORD97":2546187.4779500002,"ADDRESS":"文賢路１０８０巷６號之１","OBJECTID":664454},"geometry":{"x":167387.91418000124,"y":2546187.4779500011}},{"attributes":{"ID":664482,"DIS_CODE":0,"TOWNNAME":"北區","LI":"文元里","LIN":"11鄰","STREET":"文賢路","SECT":" ","MAREA":" ","LANE":"１０８０巷","ALLEY":" ","HOUSE_NO":"９號","E_COORD97":167409.728902,"N_COORD97":2546219.8629399999,"ADDRESS":"文賢路１０８０巷９號","OBJECTID":664455},"geometry":{"x":167409.728902,"y":2546219.8629400041}},{"attributes":{"ID":664483,"DIS_CODE":0,"TOWNNAME":"北區","LI":"文成里","LIN":"5鄰","STREET":"文賢路","SECT":" ","MAREA":" ","LANE":" ","ALLEY":" ","HOUSE_NO":"６００號","E_COORD97":167372.45326800001,"N_COORD97":2545485.59167,"ADDRESS":"文賢路６００號","OBJECTID":664456},"geometry":{"x":167372.45326800179,"y":2545485.5916700009}},{"attributes":{"ID":664484,"DIS_CODE":0,"TOWNNAME":"北區","LI":"文成里","LIN":"6鄰","STREET":"文賢路","SECT":" ","MAREA":" ","LANE":"５７２巷","ALLEY":" ","HOUSE_NO":"１１號","E_COORD97":167420.742157,"N_COORD97":2545424.2083700001,"ADDRESS":"文賢路５７２巷１１號","OBJECTID":664457},"geometry":{"x":167420.74215700012,"y":2545424.2083700001}},{"attributes":{"ID":664485,"DIS_CODE":0,"TOWNNAME":"北區","LI":"文成里","LIN":"7鄰","STREET":"文賢路","SECT":" ","MAREA":" ","LANE":"５２０巷","ALLEY":"５５弄","HOUSE_NO":"４號","E_COORD97":167524.73270200001,"N_COORD97":2545312.6601,"ADDRESS":"文賢路５２０巷５５弄４號","OBJECTID":664458},"geometry":{"x":167524.73270200193,"y":2545312.6600970011}},{"attributes":{"ID":664486,"DIS_CODE":0,"TOWNNAME":"北區","LI":"文成里","LIN":"7鄰","STREET":"文賢路","SECT":" ","MAREA":" ","LANE":"５４６巷","ALLEY":" ","HOUSE_NO":"３８號","E_COORD97":167510.75434000001,"N_COORD97":2545342.50508,"ADDRESS":"文賢路５４６巷３８號","OBJECTID":664459},"geometry":{"x":167510.75434000231,"y":2545342.5050810017}},{"attributes":{"ID":664487,"DIS_CODE":0,"TOWNNAME":"北區","LI":"文成里","LIN":"8鄰","STREET":"文賢路","SECT":" ","MAREA":" ","LANE":"５２０巷","ALLEY":" ","HOUSE_NO":"６４號","E_COORD97":167558.19605500001,"N_COORD97":2545280.69845,"ADDRESS":"文賢路５２０巷６４號","OBJECTID":664460},"geometry":{"x":167558.19605500065,"y":2545280.6984480005}},{"attributes":{"ID":664488,"DIS_CODE":0,"TOWNNAME":"北區","LI":"文成里","LIN":"10鄰","STREET":"文賢路","SECT":" ","MAREA":" ","LANE":" ","ALLEY":" ","HOUSE_NO":"４５６號之２","E_COORD97":167349.15599,"N_COORD97":2545131.6851900001,"ADDRESS":"文賢路４５６號之２","OBJECTID":664461},"geometry":{"x":167349.15598999988,"y":2545131.6851899996}},{"attributes":{"ID":664489,"DIS_CODE":0,"TOWNNAME":"北區","LI":"文成里","LIN":"10鄰","STREET":"文賢路","SECT":" ","MAREA":" ","LANE":" ","ALLEY":" ","HOUSE_NO":"４６０號","E_COORD97":167348.30882400001,"N_COORD97":2545136.1301899999,"ADDRESS":"文賢路４６０號","OBJECTID":664462},"geometry":{"x":167348.30882400088,"y":2545136.1301920004}},{"attributes":{"ID":664490,"DIS_CODE":0,"TOWNNAME":"北區","LI":"文成里","LIN":"10鄰","STREET":"文賢路","SECT":" ","MAREA":" ","LANE":" ","ALLEY":" ","HOUSE_NO":"４６２之３號","E_COORD97":167347.67344399999,"N_COORD97":2545147.34852,"ADDRESS":"文賢路４６２之３號","OBJECTID":664463},"geometry":{"x":167347.673444001,"y":2545147.3485200014}},{"attributes":{"ID":664491,"DIS_CODE":0,"TOWNNAME":"北區","LI":"文成里","LIN":"10鄰","STREET":"文賢路","SECT":" ","MAREA":" ","LANE":" ","ALLEY":" ","HOUSE_NO":"４６６號之１","E_COORD97":167347.24984999999,"N_COORD97":2545154.3335099998,"ADDRESS":"文賢路４６６號之１","OBJECTID":664464},"geometry":{"x":167347.24985000025,"y":2545154.3335100003}},{"attributes":{"ID":664492,"DIS_CODE":0,"TOWNNAME":"北區","LI":"文成里","LIN":"15鄰","STREET":"文賢路","SECT":" ","MAREA":" ","LANE":"２４２巷","ALLEY":" ","HOUSE_NO":"１號","E_COORD97":167385.37266399999,"N_COORD97":2545017.5969199999,"ADDRESS":"文賢路２４２巷１號","OBJECTID":664465},"geometry":{"x":167385.37266399991,"y":2545017.5969230048}},{"attributes":{"ID":664493,"DIS_CODE":0,"TOWNNAME":"北區","LI":"文成里","LIN":"15鄰","STREET":"文賢路","SECT":" ","MAREA":" ","LANE":"２４２巷","ALLEY":" ","HOUSE_NO":"３號","E_COORD97":167389.82032500001,"N_COORD97":2545018.0202600001,"ADDRESS":"文賢路２４２巷３號","OBJECTID":664466},"geometry":{"x":167389.82032500114,"y":2545018.0202560034}},{"attributes":{"ID":664494,"DIS_CODE":0,"TOWNNAME":"北區","LI":"文成里","LIN":"17鄰","STREET":"文賢路","SECT":" ","MAREA":" ","LANE":" ","ALLEY":" ","HOUSE_NO":"２６０號","E_COORD97":167354.662625,"N_COORD97":2545028.6035799999,"ADDRESS":"文賢路２６０號","OBJECTID":664467},"geometry":{"x":167354.66262499988,"y":2545028.603583999}},{"attributes":{"ID":664495,"DIS_CODE":0,"TOWNNAME":"北區","LI":"文成里","LIN":"13鄰","STREET":"文賢路","SECT":" ","MAREA":" ","LANE":"２９２巷","ALLEY":" ","HOUSE_NO":"１６３號","E_COORD97":167744.99780899999,"N_COORD97":2545243.6568,"ADDRESS":"文賢路２９２巷１６３號","OBJECTID":664468},"geometry":{"x":167744.99780900031,"y":2545243.6568010021}},{"attributes":{"ID":664496,"DIS_CODE":0,"TOWNNAME":"北區","LI":"文成里","LIN":"15鄰","STREET":"文賢路","SECT":" ","MAREA":" ","LANE":"２４２巷","ALLEY":"９弄","HOUSE_NO":"３７號","E_COORD97":167379.86603599999,"N_COORD97":2545104.3802100001,"ADDRESS":"文賢路２４２巷９弄３７號","OBJECTID":664469},"geometry":{"x":167379.86603600159,"y":2545104.3802090008}},{"attributes":{"ID":664497,"DIS_CODE":0,"TOWNNAME":"北區","LI":"文成里","LIN":"17鄰","STREET":"文賢路","SECT":" ","MAREA":" ","LANE":" ","ALLEY":" ","HOUSE_NO":"２２４號","E_COORD97":167359.745666,"N_COORD97":2544953.2502899999,"ADDRESS":"文賢路２２４號","OBJECTID":664470},"geometry":{"x":167359.74566600099,"y":2544953.2502910011}},{"attributes":{"ID":664498,"DIS_CODE":0,"TOWNNAME":"北區","LI":"文成里","LIN":"18鄰","STREET":"文賢路","SECT":" ","MAREA":" ","LANE":" ","ALLEY":" ","HOUSE_NO":"２０４號之１","E_COORD97":167372.24147000001,"N_COORD97":2544904.5669800001,"ADDRESS":"文賢路２０４號之１","OBJECTID":664471},"geometry":{"x":167372.24146999978,"y":2544904.5669800043}},{"attributes":{"ID":664499,"DIS_CODE":0,"TOWNNAME":"北區","LI":"文成里","LIN":"18鄰","STREET":"文賢路","SECT":" ","MAREA":" ","LANE":" ","ALLEY":" ","HOUSE_NO":"２０４號之１２","E_COORD97":167370.12354,"N_COORD97":2544906.0486499998,"ADDRESS":"文賢路２０４號之１２","OBJECTID":664472},"geometry":{"x":167370.12354000006,"y":2544906.0486500021}},{"attributes":{"ID":664500,"DIS_CODE":0,"TOWNNAME":"北區","LI":"文成里","LIN":"18鄰","STREET":"文賢路","SECT":" ","MAREA":" ","LANE":" ","ALLEY":" ","HOUSE_NO":"２０４號之１４","E_COORD97":167367.79381,"N_COORD97":2544909.22364,"ADDRESS":"文賢路２０４號之１４","OBJECTID":664473},"geometry":{"x":167367.79380999878,"y":2544909.2236400023}},{"attributes":{"ID":664501,"DIS_CODE":0,"TOWNNAME":"北區","LI":"中樓里","LIN":"13鄰","STREET":"開元路","SECT":" ","MAREA":" ","LANE":" ","ALLEY":" ","HOUSE_NO":"９８之１號","E_COORD97":169804.688349,"N_COORD97":2545196.0318300002,"ADDRESS":"開元路９８之１號","OBJECTID":664474},"geometry":{"x":169804.68834900018,"y":2545196.0318270009}},{"attributes":{"ID":664502,"DIS_CODE":0,"TOWNNAME":"北區","LI":"中樓里","LIN":"13鄰","STREET":"開元路","SECT":" ","MAREA":" ","LANE":" ","ALLEY":" ","HOUSE_NO":"９８之２號","E_COORD97":169807.86525,"N_COORD97":2545197.5134899998,"ADDRESS":"開元路９８之２號","OBJECTID":664475},"geometry":{"x":169807.86525000073,"y":2545197.5134920031}},{"attributes":{"ID":664503,"DIS_CODE":0,"TOWNNAME":"北區","LI":"中樓里","LIN":"13鄰","STREET":"開元路","SECT":" ","MAREA":" ","LANE":" ","ALLEY":" ","HOUSE_NO":"９８之３號","E_COORD97":169809.983183,"N_COORD97":2545198.7834899998,"ADDRESS":"開元路９８之３號","OBJECTID":664476},"geometry":{"x":169809.98318300024,"y":2545198.7834920008}},{"attributes":{"ID":664504,"DIS_CODE":0,"TOWNNAME":"西港區","LI":"慶安里","LIN":"30鄰","STREET":"中山路","SECT":" ","MAREA":" ","LANE":"２２９巷","ALLEY":"６弄","HOUSE_NO":"６７號","E_COORD97":168357.770242,"N_COORD97":2557678.8355999999,"ADDRESS":"中山路２２９巷６弄６７號","OBJECTID":664477},"geometry":{"x":168357.770242,"y":2557678.8355970047}},{"attributes":{"ID":664505,"DIS_CODE":0,"TOWNNAME":"北區","LI":"中樓里","LIN":"13鄰","STREET":"開元路","SECT":" ","MAREA":" ","LANE":" ","ALLEY":" ","HOUSE_NO":"９８之４號","E_COORD97":169812.52470400001,"N_COORD97":2545199.8418299998,"ADDRESS":"開元路９８之４號","OBJECTID":664478},"geometry":{"x":169812.52470400091,"y":2545199.8418250047}},{"attributes":{"ID":664506,"DIS_CODE":0,"TOWNNAME":"西港區","LI":"慶安里","LIN":"30鄰","STREET":"中山路","SECT":" ","MAREA":" ","LANE":"２２９巷","ALLEY":"６弄","HOUSE_NO":"６９號","E_COORD97":168364.760794,"N_COORD97":2557679.4706000001,"ADDRESS":"中山路２２９巷６弄６９號","OBJECTID":664479},"geometry":{"x":168364.76079400163,"y":2557679.4705960006}},{"attributes":{"ID":664507,"DIS_CODE":0,"TOWNNAME":"西港區","LI":"慶安里","LIN":"30鄰","STREET":"中山路","SECT":" ","MAREA":" ","LANE":"２２９巷","ALLEY":"６弄","HOUSE_NO":"７１號","E_COORD97":168370.904007,"N_COORD97":2557681.1639299998,"ADDRESS":"中山路２２９巷６弄７１號","OBJECTID":664480},"geometry":{"x":168370.90400700178,"y":2557681.1639290024}},{"attributes":{"ID":664508,"DIS_CODE":0,"TOWNNAME":"西港區","LI":"慶安里","LIN":"30鄰","STREET":"中山路","SECT":" ","MAREA":" ","LANE":"２２９巷","ALLEY":"６弄","HOUSE_NO":"７３號","E_COORD97":168375.35253999999,"N_COORD97":2557681.5872599999,"ADDRESS":"中山路２２９巷６弄７３號","OBJECTID":664481},"geometry":{"x":168375.3525400022,"y":2557681.5872620009}},{"attributes":{"ID":664509,"DIS_CODE":0,"TOWNNAME":"西港區","LI":"慶安里","LIN":"30鄰","STREET":"中山路","SECT":" ","MAREA":" ","LANE":"２２９巷","ALLEY":"６弄","HOUSE_NO":"７５號","E_COORD97":168379.80107300001,"N_COORD97":2557682.0105900001,"ADDRESS":"中山路２２９巷６弄７５號","OBJECTID":664482},"geometry":{"x":168379.80107299984,"y":2557682.0105949994}},{"attributes":{"ID":664510,"DIS_CODE":0,"TOWNNAME":"西港區","LI":"慶安里","LIN":"30鄰","STREET":"中山路","SECT":" ","MAREA":" ","LANE":"２２９巷","ALLEY":"６弄","HOUSE_NO":"７７號","E_COORD97":168384.24960700001,"N_COORD97":2557682.4339299998,"ADDRESS":"中山路２２９巷６弄７７號","OBJECTID":664483},"geometry":{"x":168384.24960699957,"y":2557682.4339280017}},{"attributes":{"ID":664511,"DIS_CODE":0,"TOWNNAME":"西港區","LI":"慶安里","LIN":"30鄰","STREET":"中山路","SECT":" ","MAREA":" ","LANE":"２２９巷","ALLEY":"６弄","HOUSE_NO":"７９號","E_COORD97":168389.12181000001,"N_COORD97":2557683.4922600002,"ADDRESS":"中山路２２９巷６弄７９號","OBJECTID":664484},"geometry":{"x":168389.12181000132,"y":2557683.492261}},{"attributes":{"ID":664512,"DIS_CODE":0,"TOWNNAME":"西港區","LI":"慶安里","LIN":"30鄰","STREET":"中山路","SECT":" ","MAREA":" ","LANE":"２２９巷","ALLEY":"６弄","HOUSE_NO":"８１號","E_COORD97":168394.417682,"N_COORD97":2557683.7039299998,"ADDRESS":"中山路２２９巷６弄８１號","OBJECTID":664485},"geometry":{"x":168394.41768200137,"y":2557683.7039280012}},{"attributes":{"ID":664513,"DIS_CODE":0,"TOWNNAME":"西港區","LI":"慶安里","LIN":"30鄰","STREET":"中山路","SECT":" ","MAREA":" ","LANE":"２２９巷","ALLEY":"６弄","HOUSE_NO":"８３號","E_COORD97":168360.735931,"N_COORD97":2557663.3839400001,"ADDRESS":"中山路２２９巷６弄８３號","OBJECTID":664486},"geometry":{"x":168360.73593100067,"y":2557663.3839389998}},{"attributes":{"ID":664514,"DIS_CODE":0,"TOWNNAME":"西港區","LI":"慶安里","LIN":"30鄰","STREET":"中山路","SECT":" ","MAREA":" ","LANE":"２２９巷","ALLEY":"６弄","HOUSE_NO":"８５號","E_COORD97":168365.819969,"N_COORD97":2557664.6539400001,"ADDRESS":"中山路２２９巷６弄８５號","OBJECTID":664487},"geometry":{"x":168365.81996900123,"y":2557664.653938001}},{"attributes":{"ID":664515,"DIS_CODE":0,"TOWNNAME":"西港區","LI":"慶安里","LIN":"30鄰","STREET":"中山路","SECT":" ","MAREA":" ","LANE":"２２９巷","ALLEY":"６弄","HOUSE_NO":"８７號","E_COORD97":168371.32767699999,"N_COORD97":2557665.5005999999,"ADDRESS":"中山路２２９巷６弄８７號","OBJECTID":664488},"geometry":{"x":168371.32767700125,"y":2557665.5006040018}},{"attributes":{"ID":664516,"DIS_CODE":0,"TOWNNAME":"西港區","LI":"慶安里","LIN":"30鄰","STREET":"中山路","SECT":" ","MAREA":" ","LANE":"２２９巷","ALLEY":"６弄","HOUSE_NO":"８９號","E_COORD97":168377.47088899999,"N_COORD97":2557666.5589399999,"ADDRESS":"中山路２２９巷６弄８９號","OBJECTID":664489},"geometry":{"x":168377.47088900208,"y":2557666.5589370001}},{"attributes":{"ID":664517,"DIS_CODE":0,"TOWNNAME":"西港區","LI":"慶安里","LIN":"30鄰","STREET":"中山路","SECT":" ","MAREA":" ","LANE":"２２９巷","ALLEY":"６弄","HOUSE_NO":"９１號","E_COORD97":168382.76676200001,"N_COORD97":2557667.8289399999,"ADDRESS":"中山路２２９巷６弄９１號","OBJECTID":664490},"geometry":{"x":168382.76676200051,"y":2557667.8289359994}},{"attributes":{"ID":664518,"DIS_CODE":0,"TOWNNAME":"西港區","LI":"慶安里","LIN":"30鄰","STREET":"中山路","SECT":" ","MAREA":" ","LANE":"２２９巷","ALLEY":"６弄","HOUSE_NO":"９３號","E_COORD97":168387.00346000001,"N_COORD97":2557669.0989399999,"ADDRESS":"中山路２２９巷６弄９３號","OBJECTID":664491},"geometry":{"x":168387.00346000027,"y":2557669.0989350006}},{"attributes":{"ID":664519,"DIS_CODE":0,"TOWNNAME":"西港區","LI":"慶安里","LIN":"30鄰","STREET":"中山路","SECT":" ","MAREA":" ","LANE":"２２９巷","ALLEY":"６弄","HOUSE_NO":"９３之１號","E_COORD97":168391.663829,"N_COORD97":2557668.8872699998,"ADDRESS":"中山路２２９巷６弄９３之１號","OBJECTID":664492},"geometry":{"x":168391.66382900067,"y":2557668.8872690033}},{"attributes":{"ID":664520,"DIS_CODE":0,"TOWNNAME":"北區","LI":"中樓里","LIN":"15鄰","STREET":"開元路","SECT":" ","MAREA":" ","LANE":"９０巷","ALLEY":" ","HOUSE_NO":"９１號","E_COORD97":169831.37431399999,"N_COORD97":2545082.7902199998,"ADDRESS":"開元路９０巷９１號","OBJECTID":664493},"geometry":{"x":169831.37431400176,"y":2545082.7902210001}},{"attributes":{"ID":664521,"DIS_CODE":0,"TOWNNAME":"西港區","LI":"慶安里","LIN":"30鄰","STREET":"中山路","SECT":" ","MAREA":" ","LANE":"２２９巷","ALLEY":"６弄","HOUSE_NO":"９３之２號","E_COORD97":168396.32419700001,"N_COORD97":2557669.9456000002,"ADDRESS":"中山路２２９巷６弄９３之２號","OBJECTID":664494},"geometry":{"x":168396.32419699989,"y":2557669.9456020016}},{"attributes":{"ID":664522,"DIS_CODE":0,"TOWNNAME":"北區","LI":"中樓里","LIN":"15鄰","STREET":"開元路","SECT":" ","MAREA":" ","LANE":"９０巷","ALLEY":" ","HOUSE_NO":"８９號","E_COORD97":169830.315347,"N_COORD97":2545085.9652200001,"ADDRESS":"開元路９０巷８９號","OBJECTID":664495},"geometry":{"x":169830.31534700096,"y":2545085.9652190004}},{"attributes":{"ID":664523,"DIS_CODE":0,"TOWNNAME":"北區","LI":"中樓里","LIN":"15鄰","STREET":"開元路","SECT":" ","MAREA":" ","LANE":"９０巷","ALLEY":" ","HOUSE_NO":"８７號","E_COORD97":169830.103554,"N_COORD97":2545089.9868800002,"ADDRESS":"開元路９０巷８７號","OBJECTID":664496},"geometry":{"x":169830.10355400015,"y":2545089.9868839998}},{"attributes":{"ID":664524,"DIS_CODE":0,"TOWNNAME":"北區","LI":"中樓里","LIN":"15鄰","STREET":"開元路","SECT":" ","MAREA":" ","LANE":"９０巷","ALLEY":" ","HOUSE_NO":"８５號","E_COORD97":169827.56203299999,"N_COORD97":2545092.3152200002,"ADDRESS":"開元路９０巷８５號","OBJECTID":664497},"geometry":{"x":169827.56203300133,"y":2545092.315216003}},{"attributes":{"ID":664525,"DIS_CODE":0,"TOWNNAME":"北區","LI":"中樓里","LIN":"15鄰","STREET":"開元路","SECT":" ","MAREA":" ","LANE":"９０巷","ALLEY":" ","HOUSE_NO":"４６號","E_COORD97":169819.725679,"N_COORD97":2545078.7685600002,"ADDRESS":"開元路９０巷４６號","OBJECTID":664498},"geometry":{"x":169819.72567899991,"y":2545078.7685570046}},{"attributes":{"ID":664526,"DIS_CODE":0,"TOWNNAME":"北區","LI":"中樓里","LIN":"15鄰","STREET":"開元路","SECT":" ","MAREA":" ","LANE":"９０巷","ALLEY":" ","HOUSE_NO":"４８號","E_COORD97":169820.36105899999,"N_COORD97":2545074.53523,"ADDRESS":"開元路９０巷４８號","OBJECTID":664499},"geometry":{"x":169820.36105899978,"y":2545074.5352260023}},{"attributes":{"ID":664527,"DIS_CODE":0,"TOWNNAME":"西港區","LI":"慶安里","LIN":"33鄰","STREET":"中山路","SECT":" ","MAREA":" ","LANE":"２２９巷","ALLEY":"６弄","HOUSE_NO":"１０２號","E_COORD97":168367.09097799999,"N_COORD97":2557550.77733,"ADDRESS":"中山路２２９巷６弄１０２號","OBJECTID":664500},"geometry":{"x":168367.09097800218,"y":2557550.7773330007}},{"attributes":{"ID":664528,"DIS_CODE":0,"TOWNNAME":"西港區","LI":"慶安里","LIN":"33鄰","STREET":"中山路","SECT":" ","MAREA":" ","LANE":"２２９巷","ALLEY":"６弄","HOUSE_NO":"１０６號","E_COORD97":168367.09097799999,"N_COORD97":2557546.1206700001,"ADDRESS":"中山路２２９巷６弄１０６號","OBJECTID":664501},"geometry":{"x":168367.09097800218,"y":2557546.1206689999}},{"attributes":{"ID":664529,"DIS_CODE":0,"TOWNNAME":"西港區","LI":"慶安里","LIN":"33鄰","STREET":"中山路","SECT":" ","MAREA":" ","LANE":"２２９巷","ALLEY":"６弄","HOUSE_NO":"１０８號","E_COORD97":168367.72648300001,"N_COORD97":2557540.6173399999,"ADDRESS":"中山路２２９巷６弄１０８號","OBJECTID":664502},"geometry":{"x":168367.72648299951,"y":2557540.6173380017}},{"attributes":{"ID":664530,"DIS_CODE":0,"TOWNNAME":"西港區","LI":"慶安里","LIN":"33鄰","STREET":"中山路","SECT":" ","MAREA":" ","LANE":"２２９巷","ALLEY":"６弄","HOUSE_NO":"１１０號","E_COORD97":168369.42116200001,"N_COORD97":2557536.8073399998,"ADDRESS":"中山路２２９巷６弄１１０號","OBJECTID":664503},"geometry":{"x":168369.42116199993,"y":2557536.8073400036}},{"attributes":{"ID":664531,"DIS_CODE":0,"TOWNNAME":"北區","LI":"中樓里","LIN":"19鄰","STREET":"勝利路","SECT":" ","MAREA":" ","LANE":"４０１巷","ALLEY":" ","HOUSE_NO":"１０號之１","E_COORD97":169880.72216999999,"N_COORD97":2544955.7902899999,"ADDRESS":"勝利路４０１巷１０號之１","OBJECTID":664504},"geometry":{"x":169880.7221700009,"y":2544955.7902899999}},{"attributes":{"ID":664532,"DIS_CODE":0,"TOWNNAME":"北區","LI":"中樓里","LIN":"19鄰","STREET":"勝利路","SECT":" ","MAREA":" ","LANE":"４０１巷","ALLEY":" ","HOUSE_NO":"１０號之３","E_COORD97":169881.35754999999,"N_COORD97":2544953.8852900001,"ADDRESS":"勝利路４０１巷１０號之３","OBJECTID":664505},"geometry":{"x":169881.35755000077,"y":2544953.8852900006}},{"attributes":{"ID":664533,"DIS_CODE":0,"TOWNNAME":"北區","LI":"中樓里","LIN":"19鄰","STREET":"勝利路","SECT":" ","MAREA":" ","LANE":"４０１巷","ALLEY":" ","HOUSE_NO":"１０號之４","E_COORD97":169881.78112999999,"N_COORD97":2544951.9802899999,"ADDRESS":"勝利路４０１巷１０號之４","OBJECTID":664506},"geometry":{"x":169881.78113000002,"y":2544951.9802900013}},{"attributes":{"ID":664534,"DIS_CODE":0,"TOWNNAME":"西港區","LI":"慶安里","LIN":"33鄰","STREET":"中山路","SECT":" ","MAREA":" ","LANE":"１２１巷","ALLEY":" ","HOUSE_NO":"５０號","E_COORD97":168374.92887,"N_COORD97":2557520.5090200002,"ADDRESS":"中山路１２１巷５０號","OBJECTID":664507},"geometry":{"x":168374.92886999995,"y":2557520.5090160016}},{"attributes":{"ID":664535,"DIS_CODE":0,"TOWNNAME":"西港區","LI":"慶安里","LIN":"33鄰","STREET":"中山路","SECT":" ","MAREA":" ","LANE":"１２１巷","ALLEY":" ","HOUSE_NO":"５２號","E_COORD97":168370.48033699999,"N_COORD97":2557520.7206799998,"ADDRESS":"中山路１２１巷５２號","OBJECTID":664508},"geometry":{"x":168370.48033699952,"y":2557520.7206820007}},{"attributes":{"ID":664536,"DIS_CODE":0,"TOWNNAME":"北區","LI":"中樓里","LIN":"19鄰","STREET":"勝利路","SECT":" ","MAREA":" ","LANE":"４０１巷","ALLEY":" ","HOUSE_NO":"１１號之１","E_COORD97":169886.01699999999,"N_COORD97":2544951.5569500001,"ADDRESS":"勝利路４０１巷１１號之１","OBJECTID":664509},"geometry":{"x":169886.01700000186,"y":2544951.5569499992}},{"attributes":{"ID":664537,"DIS_CODE":0,"TOWNNAME":"北區","LI":"中樓里","LIN":"19鄰","STREET":"勝利路","SECT":" ","MAREA":" ","LANE":"４０１巷","ALLEY":" ","HOUSE_NO":"１１號之２","E_COORD97":169887.49955000001,"N_COORD97":2544951.3452900001,"ADDRESS":"勝利路４０１巷１１號之２","OBJECTID":664510},"geometry":{"x":169887.49954999983,"y":2544951.3452900015}},{"attributes":{"ID":664538,"DIS_CODE":0,"TOWNNAME":"西港區","LI":"慶安里","LIN":"33鄰","STREET":"中山路","SECT":" ","MAREA":" ","LANE":"１２１巷","ALLEY":" ","HOUSE_NO":"５６號","E_COORD97":168365.60813400001,"N_COORD97":2557519.87402,"ADDRESS":"中山路１２１巷５６號","OBJECTID":664511},"geometry":{"x":168365.60813399963,"y":2557519.8740160037}},{"attributes":{"ID":664539,"DIS_CODE":0,"TOWNNAME":"北區","LI":"中樓里","LIN":"19鄰","STREET":"勝利路","SECT":" ","MAREA":" ","LANE":"４０１巷","ALLEY":" ","HOUSE_NO":"１１號之３","E_COORD97":169888.77030999999,"N_COORD97":2544952.1919499999,"ADDRESS":"勝利路４０１巷１１號之３","OBJECTID":664512},"geometry":{"x":169888.77031000145,"y":2544952.1919500027}},{"attributes":{"ID":664540,"DIS_CODE":0,"TOWNNAME":"西港區","LI":"慶安里","LIN":"33鄰","STREET":"中山路","SECT":" ","MAREA":" ","LANE":"１２１巷","ALLEY":" ","HOUSE_NO":"５８號","E_COORD97":168360.947766,"N_COORD97":2557518.81568,"ADDRESS":"中山路１２１巷５８號","OBJECTID":664513},"geometry":{"x":168360.94776600134,"y":2557518.8156829998}},{"attributes":{"ID":664541,"DIS_CODE":0,"TOWNNAME":"西港區","LI":"慶安里","LIN":"33鄰","STREET":"中山路","SECT":" ","MAREA":" ","LANE":"１２１巷","ALLEY":" ","HOUSE_NO":"６０號","E_COORD97":168356.92290199999,"N_COORD97":2557517.7573500001,"ADDRESS":"中山路１２１巷６０號","OBJECTID":664514},"geometry":{"x":168356.92290200107,"y":2557517.7573500015}},{"attributes":{"ID":664542,"DIS_CODE":0,"TOWNNAME":"西港區","LI":"慶安里","LIN":"33鄰","STREET":"中山路","SECT":" ","MAREA":" ","LANE":"１２１巷","ALLEY":" ","HOUSE_NO":"６２號","E_COORD97":168352.89803899999,"N_COORD97":2557517.54568,"ADDRESS":"中山路１２１巷６２號","OBJECTID":664515},"geometry":{"x":168352.89803900011,"y":2557517.5456840005}},{"attributes":{"ID":664543,"DIS_CODE":0,"TOWNNAME":"北區","LI":"中樓里","LIN":"19鄰","STREET":"勝利路","SECT":" ","MAREA":" ","LANE":"４０１巷","ALLEY":" ","HOUSE_NO":"１１號之４","E_COORD97":169890.88824999999,"N_COORD97":2544952.8269500001,"ADDRESS":"勝利路４０１巷１１號之４","OBJECTID":664516},"geometry":{"x":169890.88825000077,"y":2544952.8269500025}},{"attributes":{"ID":664544,"DIS_CODE":0,"TOWNNAME":"西港區","LI":"慶安里","LIN":"33鄰","STREET":"中山路","SECT":" ","MAREA":" ","LANE":"１２１巷","ALLEY":" ","HOUSE_NO":"６６號","E_COORD97":168349.08501000001,"N_COORD97":2557517.1223499998,"ADDRESS":"中山路１２１巷６６號","OBJECTID":664517},"geometry":{"x":168349.0850100005,"y":2557517.1223510019}},{"attributes":{"ID":664545,"DIS_CODE":0,"TOWNNAME":"西港區","LI":"慶安里","LIN":"33鄰","STREET":"中山路","SECT":" ","MAREA":" ","LANE":"１２１巷","ALLEY":" ","HOUSE_NO":"６８號","E_COORD97":168345.69565199999,"N_COORD97":2557516.9106800002,"ADDRESS":"中山路１２１巷６８號","OBJECTID":664518},"geometry":{"x":168345.69565199967,"y":2557516.9106840007}},{"attributes":{"ID":664546,"DIS_CODE":0,"TOWNNAME":"西港區","LI":"慶安里","LIN":"33鄰","STREET":"中山路","SECT":" ","MAREA":" ","LANE":"１２１巷","ALLEY":" ","HOUSE_NO":"７０號","E_COORD97":168342.09445800001,"N_COORD97":2557516.4873500001,"ADDRESS":"中山路１２１巷７０號","OBJECTID":664519},"geometry":{"x":168342.09445800073,"y":2557516.4873510022}},{"attributes":{"ID":664547,"DIS_CODE":0,"TOWNNAME":"西港區","LI":"慶安里","LIN":"33鄰","STREET":"中山路","SECT":" ","MAREA":" ","LANE":"１２１巷","ALLEY":" ","HOUSE_NO":"７２號","E_COORD97":168339.128769,"N_COORD97":2557514.7940199999,"ADDRESS":"中山路１２１巷７２號","OBJECTID":664520},"geometry":{"x":168339.12876900006,"y":2557514.7940190043}},{"attributes":{"ID":664548,"DIS_CODE":0,"TOWNNAME":"西港區","LI":"慶安里","LIN":"33鄰","STREET":"中山路","SECT":" ","MAREA":" ","LANE":"１２１巷","ALLEY":"７６弄","HOUSE_NO":"１０號","E_COORD97":168335.103906,"N_COORD97":2557544.4273399999,"ADDRESS":"中山路１２１巷７６弄１０號","OBJECTID":664521},"geometry":{"x":168335.10390600096,"y":2557544.4273360018}},{"attributes":{"ID":664549,"DIS_CODE":0,"TOWNNAME":"西港區","LI":"慶安里","LIN":"33鄰","STREET":"中山路","SECT":" ","MAREA":" ","LANE":"１２１巷","ALLEY":"７６弄","HOUSE_NO":"８號","E_COORD97":168335.103906,"N_COORD97":2557540.1940000001,"ADDRESS":"中山路１２１巷７６弄８號","OBJECTID":664522},"geometry":{"x":168335.10390600096,"y":2557540.1940049995}},{"attributes":{"ID":664550,"DIS_CODE":0,"TOWNNAME":"北區","LI":"中樓里","LIN":"19鄰","STREET":"勝利路","SECT":" ","MAREA":" ","LANE":"４０１巷","ALLEY":" ","HOUSE_NO":"１２號之１","E_COORD97":169894.91232,"N_COORD97":2544954.94362,"ADDRESS":"勝利路４０１巷１２號之１","OBJECTID":664523},"geometry":{"x":169894.91232000012,"y":2544954.94362}},{"attributes":{"ID":664551,"DIS_CODE":0,"TOWNNAME":"西港區","LI":"慶安里","LIN":"33鄰","STREET":"中山路","SECT":" ","MAREA":" ","LANE":"１２１巷","ALLEY":"７６弄","HOUSE_NO":"６號","E_COORD97":168337.01042000001,"N_COORD97":2557535.9606699999,"ADDRESS":"中山路１２１巷７６弄６號","OBJECTID":664524},"geometry":{"x":168337.01042000018,"y":2557535.9606740009}},{"attributes":{"ID":664552,"DIS_CODE":0,"TOWNNAME":"西港區","LI":"慶安里","LIN":"33鄰","STREET":"中山路","SECT":" ","MAREA":" ","LANE":"１２１巷","ALLEY":"７６弄","HOUSE_NO":"２號","E_COORD97":168337.43409,"N_COORD97":2557531.3040100001,"ADDRESS":"中山路１２１巷７６弄２號","OBJECTID":664525},"geometry":{"x":168337.43408999965,"y":2557531.3040100001}},{"attributes":{"ID":664553,"DIS_CODE":0,"TOWNNAME":"北區","LI":"中樓里","LIN":"19鄰","STREET":"勝利路","SECT":" ","MAREA":" ","LANE":"４０１巷","ALLEY":" ","HOUSE_NO":"１２號之２","E_COORD97":169896.81846000001,"N_COORD97":2544956.4252800001,"ADDRESS":"勝利路４０１巷１２號之２","OBJECTID":664526},"geometry":{"x":169896.81845999975,"y":2544956.425280001}},{"attributes":{"ID":664554,"DIS_CODE":0,"TOWNNAME":"北區","LI":"中樓里","LIN":"19鄰","STREET":"勝利路","SECT":" ","MAREA":" ","LANE":"４０１巷","ALLEY":" ","HOUSE_NO":"１２號之３","E_COORD97":169898.72459999999,"N_COORD97":2544958.1186199998,"ADDRESS":"勝利路４０１巷１２號之３","OBJECTID":664527},"geometry":{"x":169898.72460000031,"y":2544958.1186200026}},{"attributes":{"ID":664555,"DIS_CODE":0,"TOWNNAME":"北區","LI":"中樓里","LIN":"19鄰","STREET":"勝利路","SECT":" ","MAREA":" ","LANE":"４０１巷","ALLEY":" ","HOUSE_NO":"１２號之４","E_COORD97":169900.41894999999,"N_COORD97":2544959.3886199999,"ADDRESS":"勝利路４０１巷１２號之４","OBJECTID":664528},"geometry":{"x":169900.41895000171,"y":2544959.3886200022}},{"attributes":{"ID":664556,"DIS_CODE":0,"TOWNNAME":"北區","LI":"中樓里","LIN":"19鄰","STREET":"勝利路","SECT":" ","MAREA":" ","LANE":"４０１巷","ALLEY":" ","HOUSE_NO":"１３號之１","E_COORD97":169902.32509,"N_COORD97":2544963.8336100001,"ADDRESS":"勝利路４０１巷１３號之１","OBJECTID":664529},"geometry":{"x":169902.32509000041,"y":2544963.833610002}},{"attributes":{"ID":664557,"DIS_CODE":0,"TOWNNAME":"北區","LI":"中樓里","LIN":"19鄰","STREET":"勝利路","SECT":" ","MAREA":" ","LANE":"４０１巷","ALLEY":" ","HOUSE_NO":"１３號之２","E_COORD97":169903.38406000001,"N_COORD97":2544965.5269499999,"ADDRESS":"勝利路４０１巷１３號之２","OBJECTID":664530},"geometry":{"x":169903.38406000193,"y":2544965.5269499999}},{"attributes":{"ID":664558,"DIS_CODE":0,"TOWNNAME":"北區","LI":"中樓里","LIN":"19鄰","STREET":"勝利路","SECT":" ","MAREA":" ","LANE":"４０１巷","ALLEY":" ","HOUSE_NO":"１３號之３","E_COORD97":169904.01944,"N_COORD97":2544967.8552799998,"ADDRESS":"勝利路４０１巷１３號之３","OBJECTID":664531},"geometry":{"x":169904.01944000181,"y":2544967.8552800007}},{"attributes":{"ID":664559,"DIS_CODE":0,"TOWNNAME":"北區","LI":"中樓里","LIN":"19鄰","STREET":"勝利路","SECT":" ","MAREA":" ","LANE":"４０１巷","ALLEY":" ","HOUSE_NO":"１３號之４","E_COORD97":169905.0784,"N_COORD97":2544969.76028,"ADDRESS":"勝利路４０１巷１３號之４","OBJECTID":664532},"geometry":{"x":169905.0784,"y":2544969.7602800038}},{"attributes":{"ID":664560,"DIS_CODE":0,"TOWNNAME":"北區","LI":"中樓里","LIN":"18鄰","STREET":"勝利路","SECT":" ","MAREA":" ","LANE":"３７７巷","ALLEY":" ","HOUSE_NO":"６號之１","E_COORD97":169885.38162,"N_COORD97":2544918.7486399999,"ADDRESS":"勝利路３７７巷６號之１","OBJECTID":664533},"geometry":{"x":169885.38161999919,"y":2544918.7486400027}},{"attributes":{"ID":664561,"DIS_CODE":0,"TOWNNAME":"北區","LI":"中樓里","LIN":"18鄰","STREET":"勝利路","SECT":" ","MAREA":" ","LANE":"３７７巷","ALLEY":" ","HOUSE_NO":"６號之２","E_COORD97":169882.62831,"N_COORD97":2544916.8436400001,"ADDRESS":"勝利路３７７巷６號之２","OBJECTID":664534},"geometry":{"x":169882.62830999959,"y":2544916.8436399978}},{"attributes":{"ID":664562,"DIS_CODE":0,"TOWNNAME":"北區","LI":"中樓里","LIN":"18鄰","STREET":"勝利路","SECT":" ","MAREA":" ","LANE":"３７７巷","ALLEY":" ","HOUSE_NO":"６號之３","E_COORD97":169880.29858,"N_COORD97":2544915.7853100002,"ADDRESS":"勝利路３７７巷６號之３","OBJECTID":664535},"geometry":{"x":169880.29858000204,"y":2544915.785310002}},{"attributes":{"ID":664563,"DIS_CODE":0,"TOWNNAME":"北區","LI":"中樓里","LIN":"18鄰","STREET":"勝利路","SECT":" ","MAREA":" ","LANE":"３７７巷","ALLEY":" ","HOUSE_NO":"６號之４","E_COORD97":169877.75706,"N_COORD97":2544915.5736400001,"ADDRESS":"勝利路３７７巷６號之４","OBJECTID":664536},"geometry":{"x":169877.75706000067,"y":2544915.5736400001}},{"attributes":{"ID":664564,"DIS_CODE":0,"TOWNNAME":"北區","LI":"中樓里","LIN":"18鄰","STREET":"勝利路","SECT":" ","MAREA":" ","LANE":"３７７巷","ALLEY":" ","HOUSE_NO":"８號之１","E_COORD97":169872.25042999999,"N_COORD97":2544912.3986399998,"ADDRESS":"勝利路３７７巷８號之１","OBJECTID":664537},"geometry":{"x":169872.25043000095,"y":2544912.3986400012}},{"attributes":{"ID":664565,"DIS_CODE":0,"TOWNNAME":"北區","LI":"中樓里","LIN":"18鄰","STREET":"勝利路","SECT":" ","MAREA":" ","LANE":"３７７巷","ALLEY":" ","HOUSE_NO":"８號之２","E_COORD97":169869.28532,"N_COORD97":2544910.9169800002,"ADDRESS":"勝利路３７７巷８號之２","OBJECTID":664538},"geometry":{"x":169869.28532000072,"y":2544910.9169800002}},{"attributes":{"ID":664566,"DIS_CODE":0,"TOWNNAME":"北區","LI":"中樓里","LIN":"18鄰","STREET":"勝利路","SECT":" ","MAREA":" ","LANE":"３７７巷","ALLEY":" ","HOUSE_NO":"８號之３","E_COORD97":169866.10842,"N_COORD97":2544909.6469800002,"ADDRESS":"勝利路３７７巷８號之３","OBJECTID":664539},"geometry":{"x":169866.10842000041,"y":2544909.6469800007}},{"attributes":{"ID":664567,"DIS_CODE":0,"TOWNNAME":"北區","LI":"中樓里","LIN":"18鄰","STREET":"勝利路","SECT":" ","MAREA":" ","LANE":"３７７巷","ALLEY":" ","HOUSE_NO":"８號之４","E_COORD97":169863.14332,"N_COORD97":2544909.4353100001,"ADDRESS":"勝利路３７７巷８號之４","OBJECTID":664540},"geometry":{"x":169863.1433199998,"y":2544909.4353100024}},{"attributes":{"ID":664568,"DIS_CODE":0,"TOWNNAME":"北區","LI":"公園里","LIN":"1鄰","STREET":"北門路","SECT":"二段","MAREA":" ","LANE":"１５巷","ALLEY":" ","HOUSE_NO":"１號","E_COORD97":169200.65365299999,"N_COORD97":2544297.93065,"ADDRESS":"北門路二段１５巷１號","OBJECTID":664541},"geometry":{"x":169200.65365300048,"y":2544297.9306450002}},{"attributes":{"ID":664569,"DIS_CODE":0,"TOWNNAME":"北區","LI":"公園里","LIN":"1鄰","STREET":"北門路","SECT":"二段","MAREA":" ","LANE":"１５巷","ALLEY":" ","HOUSE_NO":"３號之１","E_COORD97":169198.95929999999,"N_COORD97":2544305.7623000001,"ADDRESS":"北門路二段１５巷３號之１","OBJECTID":664542},"geometry":{"x":169198.95930000115,"y":2544305.7622999996}},{"attributes":{"ID":664570,"DIS_CODE":0,"TOWNNAME":"北區","LI":"公園里","LIN":"1鄰","STREET":"北門路","SECT":"二段","MAREA":" ","LANE":" ","ALLEY":" ","HOUSE_NO":"５號","E_COORD97":169185.23996499999,"N_COORD97":2544257.7061299998,"ADDRESS":"北門路二段５號","OBJECTID":664543},"geometry":{"x":169185.23996500112,"y":2544257.7061330006}},{"attributes":{"ID":664571,"DIS_CODE":0,"TOWNNAME":"北區","LI":"公園里","LIN":"1鄰","STREET":"北門路","SECT":"二段","MAREA":" ","LANE":" ","ALLEY":" ","HOUSE_NO":"７號","E_COORD97":169187.99327899999,"N_COORD97":2544256.6477999999,"ADDRESS":"北門路二段７號","OBJECTID":664544},"geometry":{"x":169187.99327899981,"y":2544256.6478010025}},{"attributes":{"ID":664572,"DIS_CODE":0,"TOWNNAME":"北區","LI":"公園里","LIN":"1鄰","STREET":"北門路","SECT":"二段","MAREA":" ","LANE":" ","ALLEY":" ","HOUSE_NO":"９號","E_COORD97":169190.32300599999,"N_COORD97":2544256.0128000001,"ADDRESS":"北門路二段９號","OBJECTID":664545},"geometry":{"x":169190.32300600037,"y":2544256.0128010027}},{"attributes":{"ID":664573,"DIS_CODE":0,"TOWNNAME":"北區","LI":"公園里","LIN":"1鄰","STREET":"北門路","SECT":"二段","MAREA":" ","LANE":" ","ALLEY":" ","HOUSE_NO":"１１號","E_COORD97":169192.86452599999,"N_COORD97":2544256.2244699998,"ADDRESS":"北門路二段１１號","OBJECTID":664546},"geometry":{"x":169192.86452599987,"y":2544256.224467}},{"attributes":{"ID":664574,"DIS_CODE":0,"TOWNNAME":"北區","LI":"公園里","LIN":"1鄰","STREET":"北門路","SECT":"二段","MAREA":" ","LANE":" ","ALLEY":" ","HOUSE_NO":"１３號","E_COORD97":169195.406047,"N_COORD97":2544255.1661399999,"ADDRESS":"北門路二段１３號","OBJECTID":664547},"geometry":{"x":169195.40604699962,"y":2544255.1661350001}},{"attributes":{"ID":664575,"DIS_CODE":0,"TOWNNAME":"北區","LI":"公園里","LIN":"1鄰","STREET":"富北街","SECT":" ","MAREA":" ","LANE":" ","ALLEY":" ","HOUSE_NO":"８號","E_COORD97":169181.004098,"N_COORD97":2544292.2077799998,"ADDRESS":"富北街８號","OBJECTID":664548},"geometry":{"x":169181.00409800187,"y":2544292.2077810001}},{"attributes":{"ID":664576,"DIS_CODE":0,"TOWNNAME":"北區","LI":"公園里","LIN":"2鄰","STREET":"北門路","SECT":"二段","MAREA":" ","LANE":" ","ALLEY":" ","HOUSE_NO":"６１號","E_COORD97":169254.91998400001,"N_COORD97":2544351.4744199999,"ADDRESS":"北門路二段６１號","OBJECTID":664549},"geometry":{"x":169254.91998400073,"y":2544351.4744160008}},{"attributes":{"ID":664577,"DIS_CODE":0,"TOWNNAME":"北區","LI":"公園里","LIN":"1鄰","STREET":"北門路","SECT":"二段","MAREA":" ","LANE":" ","ALLEY":" ","HOUSE_NO":"５５號","E_COORD97":169250.89590999999,"N_COORD97":2544333.6944300001,"ADDRESS":"北門路二段５５號","OBJECTID":664550},"geometry":{"x":169250.89591000043,"y":2544333.6944259983}},{"attributes":{"ID":664578,"DIS_CODE":0,"TOWNNAME":"北區","LI":"公園里","LIN":"4鄰","STREET":"公園南路","SECT":" ","MAREA":" ","LANE":" ","ALLEY":" ","HOUSE_NO":"１３號","E_COORD97":169239.88265499999,"N_COORD97":2544502.39267,"ADDRESS":"公園南路１３號","OBJECTID":664551},"geometry":{"x":169239.88265500031,"y":2544502.3926680014}},{"attributes":{"ID":664579,"DIS_CODE":0,"TOWNNAME":"北區","LI":"公園里","LIN":"4鄰","STREET":"公園南路","SECT":" ","MAREA":" ","LANE":"７巷","ALLEY":" ","HOUSE_NO":"１０號","E_COORD97":169246.02466299999,"N_COORD97":2544479.9560099998,"ADDRESS":"公園南路７巷１０號","OBJECTID":664552},"geometry":{"x":169246.0246630013,"y":2544479.9560129978}},{"attributes":{"ID":664580,"DIS_CODE":0,"TOWNNAME":"北區","LI":"公園里","LIN":"4鄰","STREET":"公園南路","SECT":" ","MAREA":" ","LANE":"７巷","ALLEY":" ","HOUSE_NO":"１２號","E_COORD97":169244.33031600001,"N_COORD97":2544476.9926800001,"ADDRESS":"公園南路７巷１２號","OBJECTID":664553},"geometry":{"x":169244.33031600062,"y":2544476.9926820006}},{"attributes":{"ID":664581,"DIS_CODE":0,"TOWNNAME":"北區","LI":"公園里","LIN":"3鄰","STREET":"北忠街","SECT":" ","MAREA":" ","LANE":"１６巷","ALLEY":" ","HOUSE_NO":"４５號","E_COORD97":169243.90672900001,"N_COORD97":2544444.8193700002,"ADDRESS":"北忠街１６巷４５號","OBJECTID":664554},"geometry":{"x":169243.90672899969,"y":2544444.8193660025}},{"attributes":{"ID":664582,"DIS_CODE":0,"TOWNNAME":"北區","LI":"公園里","LIN":"3鄰","STREET":"富北街","SECT":" ","MAREA":" ","LANE":"１６巷","ALLEY":" ","HOUSE_NO":"８０號之２","E_COORD97":169188.41686600001,"N_COORD97":2544462.5993599999,"ADDRESS":"富北街１６巷８０號之２","OBJECTID":664555},"geometry":{"x":169188.41686600167,"y":2544462.5993559994}},{"attributes":{"ID":664583,"DIS_CODE":0,"TOWNNAME":"北區","LI":"公園里","LIN":"3鄰","STREET":"富北街","SECT":" ","MAREA":" ","LANE":" ","ALLEY":" ","HOUSE_NO":"８０號之２","E_COORD97":169188.20507,"N_COORD97":2544462.8110199999,"ADDRESS":"富北街８０號之２","OBJECTID":664556},"geometry":{"x":169188.20507000014,"y":2544462.8110200036}},{"attributes":{"ID":664584,"DIS_CODE":0,"TOWNNAME":"北區","LI":"公園里","LIN":"3鄰","STREET":"富北街","SECT":" ","MAREA":" ","LANE":" ","ALLEY":" ","HOUSE_NO":"８０號之３","E_COORD97":169187.78148000001,"N_COORD97":2544466.1976800002,"ADDRESS":"富北街８０號之３","OBJECTID":664557},"geometry":{"x":169187.78148000129,"y":2544466.1976800021}},{"attributes":{"ID":664585,"DIS_CODE":0,"TOWNNAME":"北區","LI":"公園里","LIN":"3鄰","STREET":"富北街","SECT":" ","MAREA":" ","LANE":" ","ALLEY":" ","HOUSE_NO":"８０號之４","E_COORD97":169187.78148000001,"N_COORD97":2544469.1610099999,"ADDRESS":"富北街８０號之４","OBJECTID":664558},"geometry":{"x":169187.78148000129,"y":2544469.1610100027}},{"attributes":{"ID":664586,"DIS_CODE":0,"TOWNNAME":"北區","LI":"公園里","LIN":"2鄰","STREET":"北忠街","SECT":" ","MAREA":" ","LANE":" ","ALLEY":" ","HOUSE_NO":"１８號之１","E_COORD97":169218.91511,"N_COORD97":2544357.40894,"ADDRESS":"北忠街１８號之１","OBJECTID":664559},"geometry":{"x":169218.91511000134,"y":2544357.4089400005}},{"attributes":{"ID":664587,"DIS_CODE":0,"TOWNNAME":"北區","LI":"公園里","LIN":"1鄰","STREET":"北門路","SECT":"二段","MAREA":" ","LANE":"１５巷","ALLEY":" ","HOUSE_NO":"２３號","E_COORD97":169221.24483800001,"N_COORD97":2544343.2272899998,"ADDRESS":"北門路二段１５巷２３號","OBJECTID":664560},"geometry":{"x":169221.24483800121,"y":2544343.2272870019}},{"attributes":{"ID":664588,"DIS_CODE":0,"TOWNNAME":"北區","LI":"公園里","LIN":"1鄰","STREET":"北忠街","SECT":" ","MAREA":" ","LANE":" ","ALLEY":" ","HOUSE_NO":"３７號","E_COORD97":169176.13284999999,"N_COORD97":2544358.67894,"ADDRESS":"北忠街３７號","OBJECTID":664561},"geometry":{"x":169176.13285000063,"y":2544358.6789450012}},{"attributes":{"ID":664589,"DIS_CODE":0,"TOWNNAME":"北區","LI":"公園里","LIN":"1鄰","STREET":"富北街","SECT":" ","MAREA":" ","LANE":" ","ALLEY":" ","HOUSE_NO":"２６號","E_COORD97":169168.93187500001,"N_COORD97":2544343.8622900001,"ADDRESS":"富北街２６號","OBJECTID":664562},"geometry":{"x":169168.93187499978,"y":2544343.8622870017}},{"attributes":{"ID":664590,"DIS_CODE":0,"TOWNNAME":"北區","LI":"公園里","LIN":"1鄰","STREET":"富北街","SECT":" ","MAREA":" ","LANE":" ","ALLEY":" ","HOUSE_NO":"３０號","E_COORD97":169167.872909,"N_COORD97":2544350.2122800001,"ADDRESS":"富北街３０號","OBJECTID":664563},"geometry":{"x":169167.87290900014,"y":2544350.2122830003}},{"attributes":{"ID":664591,"DIS_CODE":0,"TOWNNAME":"北區","LI":"公園里","LIN":"2鄰","STREET":"富北街","SECT":" ","MAREA":" ","LANE":" ","ALLEY":" ","HOUSE_NO":"４２號","E_COORD97":169166.81394200001,"N_COORD97":2544377.3056000001,"ADDRESS":"富北街４２號","OBJECTID":664564},"geometry":{"x":169166.81394200213,"y":2544377.3056019992}},{"attributes":{"ID":664592,"DIS_CODE":0,"TOWNNAME":"北區","LI":"公園里","LIN":"2鄰","STREET":"富北街","SECT":" ","MAREA":" ","LANE":" ","ALLEY":" ","HOUSE_NO":"４６號","E_COORD97":169168.29649499999,"N_COORD97":2544384.0789299998,"ADDRESS":"富北街４６號","OBJECTID":664565},"geometry":{"x":169168.2964949999,"y":2544384.0789320003}},{"attributes":{"ID":664593,"DIS_CODE":0,"TOWNNAME":"北區","LI":"公園里","LIN":"8鄰","STREET":"富北街","SECT":" ","MAREA":" ","LANE":"７７巷","ALLEY":" ","HOUSE_NO":"３號之１","E_COORD97":169160.24833999999,"N_COORD97":2544467.8988800002,"ADDRESS":"富北街７７巷３號之１","OBJECTID":664566},"geometry":{"x":169160.24834000133,"y":2544467.8988800012}},{"attributes":{"ID":664594,"DIS_CODE":0,"TOWNNAME":"北區","LI":"公園里","LIN":"9鄰","STREET":"公園南路","SECT":" ","MAREA":" ","LANE":" ","ALLEY":" ","HOUSE_NO":"４３號","E_COORD97":169168.93187500001,"N_COORD97":2544517.2171900002,"ADDRESS":"公園南路４３號","OBJECTID":664567},"geometry":{"x":169168.93187499978,"y":2544517.217193}},{"attributes":{"ID":664595,"DIS_CODE":0,"TOWNNAME":"北區","LI":"公園里","LIN":"9鄰","STREET":"公園南路","SECT":" ","MAREA":" ","LANE":" ","ALLEY":" ","HOUSE_NO":"５５號","E_COORD97":169154.52992599999,"N_COORD97":2544528.85885,"ADDRESS":"公園南路５５號","OBJECTID":664568},"geometry":{"x":169154.52992600109,"y":2544528.8588539995}},{"attributes":{"ID":664596,"DIS_CODE":0,"TOWNNAME":"北區","LI":"公園里","LIN":"9鄰","STREET":"公園南路","SECT":" ","MAREA":" ","LANE":" ","ALLEY":" ","HOUSE_NO":"５７號","E_COORD97":169151.77661199999,"N_COORD97":2544529.7055199998,"ADDRESS":"公園南路５７號","OBJECTID":664569},"geometry":{"x":169151.77661199961,"y":2544529.7055200003}},{"attributes":{"ID":664597,"DIS_CODE":0,"TOWNNAME":"北區","LI":"公園里","LIN":"9鄰","STREET":"公園南路","SECT":" ","MAREA":" ","LANE":" ","ALLEY":" ","HOUSE_NO":"７５號","E_COORD97":169099.04006299999,"N_COORD97":2544544.3105100002,"ADDRESS":"公園南路７５號","OBJECTID":664570},"geometry":{"x":169099.04006300122,"y":2544544.3105120026}},{"attributes":{"ID":664598,"DIS_CODE":0,"TOWNNAME":"北區","LI":"公園里","LIN":"9鄰","STREET":"北忠街","SECT":" ","MAREA":" ","LANE":"５８巷","ALLEY":" ","HOUSE_NO":"６８號","E_COORD97":169110.90049199999,"N_COORD97":2544505.7872000001,"ADDRESS":"北忠街５８巷６８號","OBJECTID":664571},"geometry":{"x":169110.90049200039,"y":2544505.7871990018}},{"attributes":{"ID":664599,"DIS_CODE":0,"TOWNNAME":"北區","LI":"公園里","LIN":"7鄰","STREET":"西華街","SECT":" ","MAREA":" ","LANE":" ","ALLEY":" ","HOUSE_NO":"３４號","E_COORD97":169082.30838599999,"N_COORD97":2544425.14224,"ADDRESS":"西華街３４號","OBJECTID":664572},"geometry":{"x":169082.3083860008,"y":2544425.1422430016}},{"attributes":{"ID":664600,"DIS_CODE":0,"TOWNNAME":"北區","LI":"公園里","LIN":"7鄰","STREET":"西華街","SECT":" ","MAREA":" ","LANE":" ","ALLEY":" ","HOUSE_NO":"３６號","E_COORD97":169083.15556000001,"N_COORD97":2544430.0105699999,"ADDRESS":"西華街３６號","OBJECTID":664573},"geometry":{"x":169083.1555600008,"y":2544430.010574}},{"attributes":{"ID":664601,"DIS_CODE":0,"TOWNNAME":"北區","LI":"公園里","LIN":"7鄰","STREET":"西華街","SECT":" ","MAREA":" ","LANE":" ","ALLEY":" ","HOUSE_NO":"３６號之１","E_COORD97":169084.42632,"N_COORD97":2544434.6672299998,"ADDRESS":"西華街３６號之１","OBJECTID":664574},"geometry":{"x":169084.42632000055,"y":2544434.6672300007}},{"attributes":{"ID":664602,"DIS_CODE":0,"TOWNNAME":"北區","LI":"公園里","LIN":"8鄰","STREET":"西華街","SECT":" ","MAREA":" ","LANE":" ","ALLEY":" ","HOUSE_NO":"４０號","E_COORD97":169095.01598900001,"N_COORD97":2544480.1755499998,"ADDRESS":"西華街４０號","OBJECTID":664575},"geometry":{"x":169095.01598899998,"y":2544480.1755459998}},{"attributes":{"ID":664603,"DIS_CODE":0,"TOWNNAME":"北區","LI":"公園里","LIN":"6鄰","STREET":"北忠街","SECT":" ","MAREA":" ","LANE":" ","ALLEY":" ","HOUSE_NO":"６７號","E_COORD97":169096.28674899999,"N_COORD97":2544385.3489299999,"ADDRESS":"北忠街６７號","OBJECTID":664576},"geometry":{"x":169096.28674899973,"y":2544385.3489310015}},{"attributes":{"ID":664604,"DIS_CODE":0,"TOWNNAME":"北區","LI":"公園里","LIN":"4鄰","STREET":"公園路","SECT":" ","MAREA":" ","LANE":" ","ALLEY":" ","HOUSE_NO":"２４４號","E_COORD97":169048.63324,"N_COORD97":2544783.4937200001,"ADDRESS":"公園路２４４號","OBJECTID":664577},"geometry":{"x":169048.63324000128,"y":2544783.4937160015}},{"attributes":{"ID":664605,"DIS_CODE":0,"TOWNNAME":"北區","LI":"公園里","LIN":"4鄰","STREET":"公園路","SECT":" ","MAREA":" ","LANE":" ","ALLEY":" ","HOUSE_NO":"３５６號之１","E_COORD97":169077.22534,"N_COORD97":2544846.9936799998,"ADDRESS":"公園路３５６號之１","OBJECTID":664578},"geometry":{"x":169077.22534000035,"y":2544846.9936800003}},{"attributes":{"ID":664606,"DIS_CODE":0,"TOWNNAME":"北區","LI":"公園里","LIN":"4鄰","STREET":"公園路","SECT":" ","MAREA":" ","LANE":" ","ALLEY":" ","HOUSE_NO":"３５６號之２","E_COORD97":169079.34327000001,"N_COORD97":2544851.22701,"ADDRESS":"公園路３５６號之２","OBJECTID":664579},"geometry":{"x":169079.34327000007,"y":2544851.2270100024}},{"attributes":{"ID":664607,"DIS_CODE":0,"TOWNNAME":"北區","LI":"公園里","LIN":"4鄰","STREET":"公園路","SECT":" ","MAREA":" ","LANE":" ","ALLEY":" ","HOUSE_NO":"３５６號之３","E_COORD97":169081.46121000001,"N_COORD97":2544855.2486700001,"ADDRESS":"公園路３５６號之３","OBJECTID":664580},"geometry":{"x":169081.46121000033,"y":2544855.2486700024}},{"attributes":{"ID":664608,"DIS_CODE":0,"TOWNNAME":"北區","LI":"公園里","LIN":"4鄰","STREET":"公園路","SECT":" ","MAREA":" ","LANE":" ","ALLEY":" ","HOUSE_NO":"３５６號之４","E_COORD97":169083.36734999999,"N_COORD97":2544859.9053400001,"ADDRESS":"公園路３５６號之４","OBJECTID":664581},"geometry":{"x":169083.36735000182,"y":2544859.9053400028}},{"attributes":{"ID":664609,"DIS_CODE":0,"TOWNNAME":"北區","LI":"公園里","LIN":"5鄰","STREET":"北門路","SECT":"二段","MAREA":" ","LANE":" ","ALLEY":" ","HOUSE_NO":"１４４號之１","E_COORD97":169386.86330999999,"N_COORD97":2544871.9900000002,"ADDRESS":"北門路二段１４４號之１","OBJECTID":664582},"geometry":{"x":169386.86330999993,"y":2544871.9899999984}},{"attributes":{"ID":664610,"DIS_CODE":0,"TOWNNAME":"北區","LI":"公園里","LIN":"5鄰","STREET":"北門路","SECT":"二段","MAREA":" ","LANE":" ","ALLEY":" ","HOUSE_NO":"９０號","E_COORD97":169386.651526,"N_COORD97":2544743.5084000002,"ADDRESS":"北門路二段９０號","OBJECTID":664583},"geometry":{"x":169386.65152600128,"y":2544743.5084039997}},{"attributes":{"ID":664611,"DIS_CODE":0,"TOWNNAME":"北區","LI":"公園里","LIN":"5鄰","STREET":"北門路","SECT":"二段","MAREA":" ","LANE":"１０４巷","ALLEY":" ","HOUSE_NO":"１號","E_COORD97":169379.88988100001,"N_COORD97":2544770.59779,"ADDRESS":"北門路二段１０４巷１號","OBJECTID":664584},"geometry":{"x":169379.88988100085,"y":2544770.597790001}},{"attributes":{"ID":664612,"DIS_CODE":0,"TOWNNAME":"北區","LI":"正風里","LIN":"4鄰","STREET":"公園路","SECT":" ","MAREA":" ","LANE":"９３４巷","ALLEY":" ","HOUSE_NO":"３６號之１","E_COORD97":169477.10303,"N_COORD97":2546185.5886900001,"ADDRESS":"公園路９３４巷３６之１號","OBJECTID":664585},"geometry":{"x":169477.10302999988,"y":2546185.5886900015}},{"attributes":{"ID":664613,"DIS_CODE":0,"TOWNNAME":"北區","LI":"正風里","LIN":"4鄰","STREET":"公園路","SECT":" ","MAREA":" ","LANE":"９３４巷","ALLEY":" ","HOUSE_NO":"４８號","E_COORD97":169487.06126300001,"N_COORD97":2546179.5172299999,"ADDRESS":"公園路９３４巷４８號","OBJECTID":664586},"geometry":{"x":169487.06126300152,"y":2546179.5172290001}},{"attributes":{"ID":664614,"DIS_CODE":0,"TOWNNAME":"北區","LI":"正風里","LIN":"7鄰","STREET":"公園路","SECT":" ","MAREA":" ","LANE":"９５２巷","ALLEY":" ","HOUSE_NO":"３１號","E_COORD97":169529.843524,"N_COORD97":2546261.0088499999,"ADDRESS":"公園路９５２巷３１號","OBJECTID":664587},"geometry":{"x":169529.84352399874,"y":2546261.008851001}},{"attributes":{"ID":664615,"DIS_CODE":0,"TOWNNAME":"北區","LI":"正風里","LIN":"7鄰","STREET":"公園路","SECT":" ","MAREA":" ","LANE":"９５２巷","ALLEY":" ","HOUSE_NO":"３號","E_COORD97":169471.17676,"N_COORD97":2546254.4471900002,"ADDRESS":"公園路９５２巷３號","OBJECTID":664588},"geometry":{"x":169471.17676000111,"y":2546254.4471880011}},{"attributes":{"ID":664616,"DIS_CODE":0,"TOWNNAME":"北區","LI":"正風里","LIN":"7鄰","STREET":"公園路","SECT":" ","MAREA":" ","LANE":" ","ALLEY":" ","HOUSE_NO":"９８０號之１","E_COORD97":169498.07451000001,"N_COORD97":2546316.0421500001,"ADDRESS":"公園路９８０號之１","OBJECTID":664589},"geometry":{"x":169498.07450999971,"y":2546316.042150002}},{"attributes":{"ID":664617,"DIS_CODE":0,"TOWNNAME":"北區","LI":"正風里","LIN":"7鄰","STREET":"公園路","SECT":" ","MAREA":" ","LANE":" ","ALLEY":" ","HOUSE_NO":"９８０號之３","E_COORD97":169499.55707000001,"N_COORD97":2546318.7938199998,"ADDRESS":"公園路９８０號之３","OBJECTID":664590},"geometry":{"x":169499.55706999917,"y":2546318.7938199993}},{"attributes":{"ID":664618,"DIS_CODE":0,"TOWNNAME":"南區","LI":"荔宅里","LIN":"2鄰","STREET":"興昌路","SECT":" ","MAREA":" ","LANE":"７６巷","ALLEY":" ","HOUSE_NO":"４０號","E_COORD97":167870.75795900001,"N_COORD97":2542038.4818899999,"ADDRESS":"興昌路７６巷４０號","OBJECTID":664591},"geometry":{"x":167870.75795899983,"y":2542038.4818939995}},{"attributes":{"ID":664619,"DIS_CODE":0,"TOWNNAME":"南區","LI":"荔宅里","LIN":"2鄰","STREET":"興昌路","SECT":" ","MAREA":" ","LANE":"７６巷","ALLEY":" ","HOUSE_NO":"３８號","E_COORD97":167870.86384599999,"N_COORD97":2542035.5185600002,"ADDRESS":"興昌路７６巷３８號","OBJECTID":664592},"geometry":{"x":167870.86384600122,"y":2542035.5185620002}},{"attributes":{"ID":664620,"DIS_CODE":0,"TOWNNAME":"南區","LI":"荔宅里","LIN":"2鄰","STREET":"興昌路","SECT":" ","MAREA":" ","LANE":"７６巷","ALLEY":" ","HOUSE_NO":"３６號","E_COORD97":167870.86384599999,"N_COORD97":2542032.7669000002,"ADDRESS":"興昌路７６巷３６號","OBJECTID":664593},"geometry":{"x":167870.86384600122,"y":2542032.7668970004}},{"attributes":{"ID":664621,"DIS_CODE":0,"TOWNNAME":"南區","LI":"荔宅里","LIN":"2鄰","STREET":"興昌路","SECT":" ","MAREA":" ","LANE":"７６巷","ALLEY":" ","HOUSE_NO":"３２號","E_COORD97":167870.75795900001,"N_COORD97":2542030.01523,"ADDRESS":"興昌路７６巷３２號","OBJECTID":664594},"geometry":{"x":167870.75795899983,"y":2542030.0152320024}},{"attributes":{"ID":664622,"DIS_CODE":0,"TOWNNAME":"南區","LI":"荔宅里","LIN":"2鄰","STREET":"興昌路","SECT":" ","MAREA":" ","LANE":"７６巷","ALLEY":" ","HOUSE_NO":"３０號","E_COORD97":167870.75795900001,"N_COORD97":2542027.3694000002,"ADDRESS":"興昌路７６巷３０號","OBJECTID":664595},"geometry":{"x":167870.75795899983,"y":2542027.3694000021}},{"attributes":{"ID":664623,"DIS_CODE":0,"TOWNNAME":"南區","LI":"荔宅里","LIN":"2鄰","STREET":"興昌路","SECT":" ","MAREA":" ","LANE":"７６巷","ALLEY":" ","HOUSE_NO":"２８號","E_COORD97":167870.75795900001,"N_COORD97":2542025.1469000001,"ADDRESS":"興昌路７６巷２８號","OBJECTID":664596},"geometry":{"x":167870.75795899983,"y":2542025.1469010003}},{"attributes":{"ID":664624,"DIS_CODE":0,"TOWNNAME":"南區","LI":"荔宅里","LIN":"2鄰","STREET":"興昌路","SECT":" ","MAREA":" ","LANE":"７６巷","ALLEY":" ","HOUSE_NO":"２６號","E_COORD97":167870.75795900001,"N_COORD97":2542022.8185700001,"ADDRESS":"興昌路７６巷２６號","OBJECTID":664597},"geometry":{"x":167870.75795899983,"y":2542022.8185690027}},{"attributes":{"ID":664625,"DIS_CODE":0,"TOWNNAME":"南區","LI":"荔宅里","LIN":"2鄰","STREET":"興昌路","SECT":" ","MAREA":" ","LANE":"７６巷","ALLEY":" ","HOUSE_NO":"２２號","E_COORD97":167870.96973300001,"N_COORD97":2542020.1727399998,"ADDRESS":"興昌路７６巷２２號","OBJECTID":664598},"geometry":{"x":167870.96973300073,"y":2542020.1727370024}},{"attributes":{"ID":664626,"DIS_CODE":0,"TOWNNAME":"南區","LI":"荔宅里","LIN":"2鄰","STREET":"興昌路","SECT":" ","MAREA":" ","LANE":"３８巷","ALLEY":"２９弄","HOUSE_NO":"１６號","E_COORD97":167875.20521399999,"N_COORD97":2542037.95273,"ADDRESS":"興昌路３８巷２９弄１６號","OBJECTID":664599},"geometry":{"x":167875.20521400031,"y":2542037.9527279995}},{"attributes":{"ID":664627,"DIS_CODE":0,"TOWNNAME":"南區","LI":"荔宅里","LIN":"2鄰","STREET":"興昌路","SECT":" ","MAREA":" ","LANE":"３８巷","ALLEY":"２９弄","HOUSE_NO":"１２號","E_COORD97":167878.38182499999,"N_COORD97":2542037.95273,"ADDRESS":"興昌路３８巷２９弄１２號","OBJECTID":664600},"geometry":{"x":167878.38182500005,"y":2542037.9527279995}}]}