{"displayFieldName":"TOWNNAME","fieldAliases":{"ID":"ID","DIS_CODE":"DIS_CODE","TOWNNAME":"TOWNNAME","LI":"LI","LIN":"LIN","STREET":"STREET","SECT":"SECT","MAREA":"MAREA","LANE":"LANE","ALLEY":"ALLEY","HOUSE_NO":"HOUSE_NO","E_COORD97":"E_COORD97","N_COORD97":"N_COORD97","ADDRESS":"ADDRESS","OBJECTID":"OBJECTID"},"geometryType":"esriGeometryPoint","spatialReference":{"wkid":102443,"latestWkid":3826},"fields":[{"name":"ID","type":"esriFieldTypeDouble","alias":"ID"},{"name":"DIS_CODE","type":"esriFieldTypeInteger","alias":"DIS_CODE"},{"name":"TOWNNAME","type":"esriFieldTypeString","alias":"TOWNNAME","length":8},{"name":"LI","type":"esriFieldTypeString","alias":"LI","length":8},{"name":"LIN","type":"esriFieldTypeString","alias":"LIN","length":12},{"name":"STREET","type":"esriFieldTypeString","alias":"STREET","length":20},{"name":"SECT","type":"esriFieldTypeString","alias":"SECT","length":8},{"name":"MAREA","type":"esriFieldTypeString","alias":"MAREA","length":12},{"name":"LANE","type":"esriFieldTypeString","alias":"LANE","length":10},{"name":"ALLEY","type":"esriFieldTypeString","alias":"ALLEY","length":10},{"name":"HOUSE_NO","type":"esriFieldTypeString","alias":"HOUSE_NO","length":20},{"name":"E_COORD97","type":"esriFieldTypeDouble","alias":"E_COORD97"},{"name":"N_COORD97","type":"esriFieldTypeDouble","alias":"N_COORD97"},{"name":"ADDRESS","type":"esriFieldTypeString","alias":"ADDRESS","length":50},{"name":"OBJECTID","type":"esriFieldTypeOID","alias":"OBJECTID"}],"features":[{"attributes":{"ID":13401,"DIS_CODE":0,"TOWNNAME":"東區","LI":"後甲里","LIN":"24鄰","STREET":"裕農路","SECT":" ","MAREA":" ","LANE":"６２１巷","ALLEY":"４５弄","HOUSE_NO":"１８號三樓之４","E_COORD97":171558.45000000001,"N_COORD97":2543484.98,"ADDRESS":"裕農路６２１巷４５弄１８號三樓之４","OBJECTID":13401},"geometry":{"x":171558.45000000205,"y":2543484.9800000004}},{"attributes":{"ID":13402,"DIS_CODE":0,"TOWNNAME":"東區","LI":"後甲里","LIN":"24鄰","STREET":"裕農路","SECT":" ","MAREA":" ","LANE":"６２１巷","ALLEY":"４５弄","HOUSE_NO":"１８號三樓之５","E_COORD97":171558.45000000001,"N_COORD97":2543484.98,"ADDRESS":"裕農路６２１巷４５弄１８號三樓之５","OBJECTID":13402},"geometry":{"x":171558.45000000205,"y":2543484.9800000004}},{"attributes":{"ID":13403,"DIS_CODE":0,"TOWNNAME":"東區","LI":"後甲里","LIN":"24鄰","STREET":"裕農路","SECT":" ","MAREA":" ","LANE":"６２１巷","ALLEY":"４５弄","HOUSE_NO":"１８號三樓之６","E_COORD97":171558.45000000001,"N_COORD97":2543484.98,"ADDRESS":"裕農路６２１巷４５弄１８號三樓之６","OBJECTID":13403},"geometry":{"x":171558.45000000205,"y":2543484.9800000004}},{"attributes":{"ID":13404,"DIS_CODE":0,"TOWNNAME":"東區","LI":"後甲里","LIN":"24鄰","STREET":"裕農路","SECT":" ","MAREA":" ","LANE":"６２１巷","ALLEY":"４５弄","HOUSE_NO":"１８號五樓","E_COORD97":171558.45000000001,"N_COORD97":2543484.98,"ADDRESS":"裕農路６２１巷４５弄１８號五樓","OBJECTID":13404},"geometry":{"x":171558.45000000205,"y":2543484.9800000004}},{"attributes":{"ID":13405,"DIS_CODE":0,"TOWNNAME":"東區","LI":"後甲里","LIN":"24鄰","STREET":"裕農路","SECT":" ","MAREA":" ","LANE":"６２１巷","ALLEY":"４５弄","HOUSE_NO":"１８號五樓之２","E_COORD97":171558.45000000001,"N_COORD97":2543484.98,"ADDRESS":"裕農路６２１巷４５弄１８號五樓之２","OBJECTID":13405},"geometry":{"x":171558.45000000205,"y":2543484.9800000004}},{"attributes":{"ID":13406,"DIS_CODE":0,"TOWNNAME":"東區","LI":"後甲里","LIN":"24鄰","STREET":"裕農路","SECT":" ","MAREA":" ","LANE":"６２１巷","ALLEY":"４５弄","HOUSE_NO":"１８號五樓之５","E_COORD97":171558.45000000001,"N_COORD97":2543484.98,"ADDRESS":"裕農路６２１巷４５弄１８號五樓之５","OBJECTID":13406},"geometry":{"x":171558.45000000205,"y":2543484.9800000004}},{"attributes":{"ID":13407,"DIS_CODE":0,"TOWNNAME":"東區","LI":"後甲里","LIN":"24鄰","STREET":"裕農路","SECT":" ","MAREA":" ","LANE":"６２１巷","ALLEY":"４５弄","HOUSE_NO":"１８號五樓之６","E_COORD97":171558.45000000001,"N_COORD97":2543484.98,"ADDRESS":"裕農路６２１巷４５弄１８號五樓之６","OBJECTID":13407},"geometry":{"x":171558.45000000205,"y":2543484.9800000004}},{"attributes":{"ID":13408,"DIS_CODE":0,"TOWNNAME":"東區","LI":"後甲里","LIN":"24鄰","STREET":"裕農路","SECT":" ","MAREA":" ","LANE":"６２１巷","ALLEY":"４５弄","HOUSE_NO":"１８號六樓之１","E_COORD97":171558.45000000001,"N_COORD97":2543484.98,"ADDRESS":"裕農路６２１巷４５弄１８號六樓之１","OBJECTID":13408},"geometry":{"x":171558.45000000205,"y":2543484.9800000004}},{"attributes":{"ID":13409,"DIS_CODE":0,"TOWNNAME":"東區","LI":"後甲里","LIN":"24鄰","STREET":"裕農路","SECT":" ","MAREA":" ","LANE":"６２１巷","ALLEY":"４５弄","HOUSE_NO":"１８號六樓之４","E_COORD97":171558.45000000001,"N_COORD97":2543484.98,"ADDRESS":"裕農路６２１巷４５弄１８號六樓之４","OBJECTID":13409},"geometry":{"x":171558.45000000205,"y":2543484.9800000004}},{"attributes":{"ID":13410,"DIS_CODE":0,"TOWNNAME":"東區","LI":"後甲里","LIN":"24鄰","STREET":"裕農路","SECT":" ","MAREA":" ","LANE":"６２１巷","ALLEY":"４５弄","HOUSE_NO":"１８號四樓","E_COORD97":171558.45000000001,"N_COORD97":2543484.98,"ADDRESS":"裕農路６２１巷４５弄１８號四樓","OBJECTID":13410},"geometry":{"x":171558.45000000205,"y":2543484.9800000004}},{"attributes":{"ID":13411,"DIS_CODE":0,"TOWNNAME":"南區","LI":"文南里","LIN":"20鄰","STREET":"仁南四街","SECT":" ","MAREA":" ","LANE":" ","ALLEY":" ","HOUSE_NO":"２５號","E_COORD97":166476.04999999999,"N_COORD97":2542762.1699999999,"ADDRESS":"仁南四街２５號","OBJECTID":13411},"geometry":{"x":166476.04999999981,"y":2542762.1700000018}},{"attributes":{"ID":13412,"DIS_CODE":0,"TOWNNAME":"南區","LI":"文南里","LIN":"20鄰","STREET":"仁南四街","SECT":" ","MAREA":" ","LANE":" ","ALLEY":" ","HOUSE_NO":"３９號","E_COORD97":166454.14000000001,"N_COORD97":2542758.8399999999,"ADDRESS":"仁南四街３９號","OBJECTID":13412},"geometry":{"x":166454.14000000153,"y":2542758.8400000017}},{"attributes":{"ID":13413,"DIS_CODE":0,"TOWNNAME":"南區","LI":"文南里","LIN":"20鄰","STREET":"仁南四街","SECT":" ","MAREA":" ","LANE":" ","ALLEY":" ","HOUSE_NO":"４１號","E_COORD97":166455.57000000001,"N_COORD97":2542765.3500000001,"ADDRESS":"仁南四街４１號","OBJECTID":13413},"geometry":{"x":166455.57000000123,"y":2542765.3499999996}},{"attributes":{"ID":13414,"DIS_CODE":0,"TOWNNAME":"南區","LI":"文南里","LIN":"20鄰","STREET":"仁南四街","SECT":" ","MAREA":" ","LANE":" ","ALLEY":" ","HOUSE_NO":"４３號","E_COORD97":166444.94,"N_COORD97":2542767.25,"ADDRESS":"仁南四街４３號","OBJECTID":13414},"geometry":{"x":166444.94000000134,"y":2542767.25}},{"attributes":{"ID":13415,"DIS_CODE":0,"TOWNNAME":"南區","LI":"文南里","LIN":"20鄰","STREET":"仁南四街","SECT":" ","MAREA":" ","LANE":" ","ALLEY":" ","HOUSE_NO":"４５號","E_COORD97":166444.45999999999,"N_COORD97":2542761.7000000002,"ADDRESS":"仁南四街４５號","OBJECTID":13415},"geometry":{"x":166444.46000000089,"y":2542761.7000000011}},{"attributes":{"ID":13416,"DIS_CODE":0,"TOWNNAME":"南區","LI":"文南里","LIN":"20鄰","STREET":"仁南四街","SECT":" ","MAREA":" ","LANE":" ","ALLEY":" ","HOUSE_NO":"４７號","E_COORD97":166444.45999999999,"N_COORD97":2542753.9199999999,"ADDRESS":"仁南四街４７號","OBJECTID":13416},"geometry":{"x":166444.46000000089,"y":2542753.9200000018}},{"attributes":{"ID":13417,"DIS_CODE":0,"TOWNNAME":"南區","LI":"文南里","LIN":"20鄰","STREET":"仁南四街","SECT":" ","MAREA":" ","LANE":" ","ALLEY":" ","HOUSE_NO":"４９號","E_COORD97":166443.19,"N_COORD97":2542748.6800000002,"ADDRESS":"仁南四街４９號","OBJECTID":13417},"geometry":{"x":166443.19000000134,"y":2542748.6800000016}},{"attributes":{"ID":13418,"DIS_CODE":0,"TOWNNAME":"南區","LI":"文南里","LIN":"20鄰","STREET":"仁南四街","SECT":" ","MAREA":" ","LANE":" ","ALLEY":" ","HOUSE_NO":"５１號","E_COORD97":166430.97,"N_COORD97":2542750.7400000002,"ADDRESS":"仁南四街５１號","OBJECTID":13418},"geometry":{"x":166430.96999999974,"y":2542750.7400000002}},{"attributes":{"ID":13419,"DIS_CODE":0,"TOWNNAME":"南區","LI":"文南里","LIN":"20鄰","STREET":"仁南四街","SECT":" ","MAREA":" ","LANE":" ","ALLEY":" ","HOUSE_NO":"５３號","E_COORD97":166431.60000000001,"N_COORD97":2542756.1400000001,"ADDRESS":"仁南四街５３號","OBJECTID":13419},"geometry":{"x":166431.59999999963,"y":2542756.1400000043}},{"attributes":{"ID":13420,"DIS_CODE":0,"TOWNNAME":"南區","LI":"文南里","LIN":"20鄰","STREET":"仁南四街","SECT":" ","MAREA":" ","LANE":" ","ALLEY":" ","HOUSE_NO":"５５號","E_COORD97":166431.60000000001,"N_COORD97":2542762.6499999999,"ADDRESS":"仁南四街５５號","OBJECTID":13420},"geometry":{"x":166431.59999999963,"y":2542762.6500000041}},{"attributes":{"ID":13421,"DIS_CODE":0,"TOWNNAME":"南區","LI":"文南里","LIN":"20鄰","STREET":"仁南四街","SECT":" ","MAREA":" ","LANE":" ","ALLEY":" ","HOUSE_NO":"５７號","E_COORD97":166431.76000000001,"N_COORD97":2542767.4100000001,"ADDRESS":"仁南四街５７號","OBJECTID":13421},"geometry":{"x":166431.76000000071,"y":2542767.4100000039}},{"attributes":{"ID":13422,"DIS_CODE":0,"TOWNNAME":"南區","LI":"文南里","LIN":"20鄰","STREET":"仁南街","SECT":" ","MAREA":" ","LANE":" ","ALLEY":" ","HOUSE_NO":"３８號","E_COORD97":166386.35999999999,"N_COORD97":2542657.3999999999,"ADDRESS":"仁南街３８號","OBJECTID":13422},"geometry":{"x":166386.36000000034,"y":2542657.4000000004}},{"attributes":{"ID":13423,"DIS_CODE":0,"TOWNNAME":"東區","LI":"和平里","LIN":"20鄰","STREET":"仁和路","SECT":" ","MAREA":" ","LANE":" ","ALLEY":" ","HOUSE_NO":"７１之２號","E_COORD97":171214.20999999999,"N_COORD97":2541609.3100000001,"ADDRESS":"仁和路７１之２號","OBJECTID":13423},"geometry":{"x":171214.21000000089,"y":2541609.3100000024}},{"attributes":{"ID":13424,"DIS_CODE":0,"TOWNNAME":"東區","LI":"和平里","LIN":"20鄰","STREET":"仁和路","SECT":" ","MAREA":" ","LANE":" ","ALLEY":" ","HOUSE_NO":"６７之１號","E_COORD97":171196.85000000001,"N_COORD97":2541642.71,"ADDRESS":"仁和路６７之１號","OBJECTID":13424},"geometry":{"x":171196.84999999963,"y":2541642.7100000009}},{"attributes":{"ID":13425,"DIS_CODE":0,"TOWNNAME":"東區","LI":"和平里","LIN":"20鄰","STREET":"仁和路","SECT":" ","MAREA":" ","LANE":" ","ALLEY":" ","HOUSE_NO":"６７之２號","E_COORD97":171202.09,"N_COORD97":2541642.0499999998,"ADDRESS":"仁和路６７之２號","OBJECTID":13425},"geometry":{"x":171202.08999999985,"y":2541642.0500000026}},{"attributes":{"ID":13426,"DIS_CODE":0,"TOWNNAME":"東區","LI":"後甲里","LIN":"24鄰","STREET":"裕農路","SECT":" ","MAREA":" ","LANE":"６２１巷","ALLEY":"４５弄","HOUSE_NO":"１８號四樓之１","E_COORD97":171558.45000000001,"N_COORD97":2543484.98,"ADDRESS":"裕農路６２１巷４５弄１８號四樓之１","OBJECTID":13426},"geometry":{"x":171558.45000000205,"y":2543484.9800000004}},{"attributes":{"ID":13427,"DIS_CODE":0,"TOWNNAME":"北區","LI":"三德里","LIN":"5鄰","STREET":"裕民街","SECT":" ","MAREA":" ","LANE":" ","ALLEY":" ","HOUSE_NO":"６２號","E_COORD97":168490.14000000001,"N_COORD97":2544482.5099999998,"ADDRESS":"裕民街６２號","OBJECTID":13427},"geometry":{"x":168490.14000000153,"y":2544482.5100000016}},{"attributes":{"ID":13428,"DIS_CODE":0,"TOWNNAME":"南區","LI":"金華里","LIN":"34鄰","STREET":" ","SECT":" ","MAREA":"台南觀光城","LANE":" ","ALLEY":" ","HOUSE_NO":"７９號","E_COORD97":166681.67999999999,"N_COORD97":2542150.5600000001,"ADDRESS":"台南觀光城７９號","OBJECTID":13428},"geometry":{"x":166681.68000000063,"y":2542150.5600000024}},{"attributes":{"ID":13429,"DIS_CODE":0,"TOWNNAME":"東區","LI":"後甲里","LIN":"24鄰","STREET":"裕農路","SECT":" ","MAREA":" ","LANE":"６２１巷","ALLEY":"４５弄","HOUSE_NO":"１８號四樓之２","E_COORD97":171558.45000000001,"N_COORD97":2543484.98,"ADDRESS":"裕農路６２１巷４５弄１８號四樓之２","OBJECTID":13429},"geometry":{"x":171558.45000000205,"y":2543484.9800000004}},{"attributes":{"ID":13430,"DIS_CODE":0,"TOWNNAME":"東區","LI":"後甲里","LIN":"24鄰","STREET":"裕農路","SECT":" ","MAREA":" ","LANE":"６２１巷","ALLEY":"４５弄","HOUSE_NO":"１８號四樓之３","E_COORD97":171558.45000000001,"N_COORD97":2543484.98,"ADDRESS":"裕農路６２１巷４５弄１８號四樓之３","OBJECTID":13430},"geometry":{"x":171558.45000000205,"y":2543484.9800000004}},{"attributes":{"ID":13431,"DIS_CODE":0,"TOWNNAME":"東區","LI":"後甲里","LIN":"24鄰","STREET":"裕農路","SECT":" ","MAREA":" ","LANE":"６２１巷","ALLEY":"４５弄","HOUSE_NO":"１８號四樓之５","E_COORD97":171558.45000000001,"N_COORD97":2543484.98,"ADDRESS":"裕農路６２１巷４５弄１８號四樓之５","OBJECTID":13431},"geometry":{"x":171558.45000000205,"y":2543484.9800000004}},{"attributes":{"ID":13432,"DIS_CODE":0,"TOWNNAME":"東區","LI":"後甲里","LIN":"24鄰","STREET":"裕農路","SECT":" ","MAREA":" ","LANE":"６２１巷","ALLEY":"４５弄","HOUSE_NO":"１８號六樓之３","E_COORD97":171558.45000000001,"N_COORD97":2543484.98,"ADDRESS":"裕農路６２１巷４５弄１８號六樓之３","OBJECTID":13432},"geometry":{"x":171558.45000000205,"y":2543484.9800000004}},{"attributes":{"ID":13433,"DIS_CODE":0,"TOWNNAME":"東區","LI":"後甲里","LIN":"24鄰","STREET":"裕農路","SECT":" ","MAREA":" ","LANE":"６２１巷","ALLEY":"４５弄","HOUSE_NO":"１８號六樓之５","E_COORD97":171558.45000000001,"N_COORD97":2543484.98,"ADDRESS":"裕農路６２１巷４５弄１８號六樓之５","OBJECTID":13433},"geometry":{"x":171558.45000000205,"y":2543484.9800000004}},{"attributes":{"ID":13434,"DIS_CODE":0,"TOWNNAME":"東區","LI":"後甲里","LIN":"24鄰","STREET":"裕農路","SECT":" ","MAREA":" ","LANE":"６２１巷","ALLEY":"４５弄","HOUSE_NO":"１８號三樓之１","E_COORD97":171558.45000000001,"N_COORD97":2543484.98,"ADDRESS":"裕農路６２１巷４５弄１８號三樓之１","OBJECTID":13434},"geometry":{"x":171558.45000000205,"y":2543484.9800000004}},{"attributes":{"ID":13435,"DIS_CODE":0,"TOWNNAME":"東區","LI":"後甲里","LIN":"24鄰","STREET":"裕農路","SECT":" ","MAREA":" ","LANE":"６２１巷","ALLEY":"４５弄","HOUSE_NO":"１８號五樓之３","E_COORD97":171558.45000000001,"N_COORD97":2543484.98,"ADDRESS":"裕農路６２１巷４５弄１８號五樓之３","OBJECTID":13435},"geometry":{"x":171558.45000000205,"y":2543484.9800000004}},{"attributes":{"ID":13436,"DIS_CODE":0,"TOWNNAME":"東區","LI":"後甲里","LIN":"24鄰","STREET":"裕農路","SECT":" ","MAREA":" ","LANE":"６２１巷","ALLEY":"４５弄","HOUSE_NO":"１８號三樓之３","E_COORD97":171558.45000000001,"N_COORD97":2543484.98,"ADDRESS":"裕農路６２１巷４５弄１８號三樓之３","OBJECTID":13436},"geometry":{"x":171558.45000000205,"y":2543484.9800000004}},{"attributes":{"ID":13437,"DIS_CODE":0,"TOWNNAME":"東區","LI":"和平里","LIN":"20鄰","STREET":"仁和路","SECT":" ","MAREA":" ","LANE":" ","ALLEY":" ","HOUSE_NO":"６７之３號","E_COORD97":171203.39999999999,"N_COORD97":2541637.7999999998,"ADDRESS":"仁和路６７之３號","OBJECTID":13437},"geometry":{"x":171203.4000000013,"y":2541637.8000000026}},{"attributes":{"ID":13438,"DIS_CODE":0,"TOWNNAME":"東區","LI":"和平里","LIN":"20鄰","STREET":"仁和路","SECT":" ","MAREA":" ","LANE":" ","ALLEY":" ","HOUSE_NO":"６７之５號","E_COORD97":171204.88,"N_COORD97":2541633.21,"ADDRESS":"仁和路６７之５號","OBJECTID":13438},"geometry":{"x":171204.88000000082,"y":2541633.2100000009}},{"attributes":{"ID":13439,"DIS_CODE":0,"TOWNNAME":"東區","LI":"和平里","LIN":"20鄰","STREET":"仁和路","SECT":" ","MAREA":" ","LANE":" ","ALLEY":" ","HOUSE_NO":"６７之６號","E_COORD97":171205.85999999999,"N_COORD97":2541628.2999999998,"ADDRESS":"仁和路６７之６號","OBJECTID":13439},"geometry":{"x":171205.86000000034,"y":2541628.3000000007}},{"attributes":{"ID":13440,"DIS_CODE":0,"TOWNNAME":"東區","LI":"和平里","LIN":"20鄰","STREET":"文化一街","SECT":" ","MAREA":" ","LANE":" ","ALLEY":" ","HOUSE_NO":"２３６號","E_COORD97":171309.66,"N_COORD97":2541680.3599999999,"ADDRESS":"文化一街２３６號","OBJECTID":13440},"geometry":{"x":171309.66000000108,"y":2541680.3599999994}},{"attributes":{"ID":13441,"DIS_CODE":0,"TOWNNAME":"東區","LI":"和平里","LIN":"20鄰","STREET":"文化一街","SECT":" ","MAREA":" ","LANE":" ","ALLEY":" ","HOUSE_NO":"１８１號","E_COORD97":171323.09,"N_COORD97":2541679.3799999999,"ADDRESS":"文化一街１８１號","OBJECTID":13441},"geometry":{"x":171323.08999999892,"y":2541679.3800000008}},{"attributes":{"ID":13442,"DIS_CODE":0,"TOWNNAME":"東區","LI":"和平里","LIN":"20鄰","STREET":"文化一街","SECT":" ","MAREA":" ","LANE":" ","ALLEY":" ","HOUSE_NO":"１８１之１號","E_COORD97":171327.67000000001,"N_COORD97":2541677.0899999999,"ADDRESS":"文化一街１８１之１號","OBJECTID":13442},"geometry":{"x":171327.66999999993,"y":2541677.089999998}},{"attributes":{"ID":13443,"DIS_CODE":0,"TOWNNAME":"東區","LI":"和平里","LIN":"20鄰","STREET":"文化一街","SECT":" ","MAREA":" ","LANE":" ","ALLEY":" ","HOUSE_NO":"１８１之２號","E_COORD97":171332.42000000001,"N_COORD97":2541679.3799999999,"ADDRESS":"文化一街１８１之２號","OBJECTID":13443},"geometry":{"x":171332.41999999993,"y":2541679.3800000008}},{"attributes":{"ID":13444,"DIS_CODE":0,"TOWNNAME":"東區","LI":"和平里","LIN":"20鄰","STREET":"文化一街","SECT":" ","MAREA":" ","LANE":" ","ALLEY":" ","HOUSE_NO":"１８１之３號","E_COORD97":171337.98999999999,"N_COORD97":2541677.25,"ADDRESS":"文化一街１８１之３號","OBJECTID":13444},"geometry":{"x":171337.99000000115,"y":2541677.2500000019}},{"attributes":{"ID":13445,"DIS_CODE":0,"TOWNNAME":"東區","LI":"和平里","LIN":"20鄰","STREET":"文化六街","SECT":" ","MAREA":" ","LANE":" ","ALLEY":" ","HOUSE_NO":"２號","E_COORD97":171211.59,"N_COORD97":2541650.5699999998,"ADDRESS":"文化六街２號","OBJECTID":13445},"geometry":{"x":171211.59000000078,"y":2541650.5699999984}},{"attributes":{"ID":13446,"DIS_CODE":0,"TOWNNAME":"東區","LI":"和平里","LIN":"20鄰","STREET":"文化六街","SECT":" ","MAREA":" ","LANE":" ","ALLEY":" ","HOUSE_NO":"６號","E_COORD97":171216.17000000001,"N_COORD97":2541652.3700000001,"ADDRESS":"文化六街６號","OBJECTID":13446},"geometry":{"x":171216.17000000086,"y":2541652.370000001}},{"attributes":{"ID":13447,"DIS_CODE":0,"TOWNNAME":"東區","LI":"和平里","LIN":"20鄰","STREET":"文化六街","SECT":" ","MAREA":" ","LANE":" ","ALLEY":" ","HOUSE_NO":"８號","E_COORD97":171220.92000000001,"N_COORD97":2541654.6600000001,"ADDRESS":"文化六街８號","OBJECTID":13447},"geometry":{"x":171220.91999999899,"y":2541654.660000002}},{"attributes":{"ID":13448,"DIS_CODE":0,"TOWNNAME":"東區","LI":"和平里","LIN":"20鄰","STREET":"文化六街","SECT":" ","MAREA":" ","LANE":" ","ALLEY":" ","HOUSE_NO":"１２號","E_COORD97":171232.22,"N_COORD97":2541659.2400000002,"ADDRESS":"文化六街１２號","OBJECTID":13448},"geometry":{"x":171232.21999999974,"y":2541659.2400000002}},{"attributes":{"ID":13449,"DIS_CODE":0,"TOWNNAME":"佳里區","LI":"民安里","LIN":"13鄰","STREET":" ","SECT":" ","MAREA":"新宅","LANE":" ","ALLEY":" ","HOUSE_NO":"２３號之１","E_COORD97":167619.63,"N_COORD97":2564621.5099999998,"ADDRESS":"新宅２３號之１","OBJECTID":13449},"geometry":{"x":167619.63000000082,"y":2564621.5100000016}},{"attributes":{"ID":13450,"DIS_CODE":0,"TOWNNAME":"東區","LI":"後甲里","LIN":"24鄰","STREET":"裕農路","SECT":" ","MAREA":" ","LANE":"６２１巷","ALLEY":"４５弄","HOUSE_NO":"１８號六樓","E_COORD97":171558.45000000001,"N_COORD97":2543484.98,"ADDRESS":"裕農路６２１巷４５弄１８號六樓","OBJECTID":13450},"geometry":{"x":171558.45000000205,"y":2543484.9800000004}},{"attributes":{"ID":13451,"DIS_CODE":0,"TOWNNAME":"東區","LI":"後甲里","LIN":"24鄰","STREET":"裕農路","SECT":" ","MAREA":" ","LANE":"６２１巷","ALLEY":"４５弄","HOUSE_NO":"１８號五樓之４","E_COORD97":171558.45000000001,"N_COORD97":2543484.98,"ADDRESS":"裕農路６２１巷４５弄１８號五樓之４","OBJECTID":13451},"geometry":{"x":171558.45000000205,"y":2543484.9800000004}},{"attributes":{"ID":13452,"DIS_CODE":0,"TOWNNAME":"北區","LI":"重興里","LIN":"13鄰","STREET":"開南街","SECT":" ","MAREA":" ","LANE":"１６５巷","ALLEY":"６弄","HOUSE_NO":"２號","E_COORD97":170704.14000000001,"N_COORD97":2545090.0499999998,"ADDRESS":"開南街１６５巷６弄２號","OBJECTID":13452},"geometry":{"x":170704.1400000006,"y":2545090.0500000026}},{"attributes":{"ID":13453,"DIS_CODE":0,"TOWNNAME":"北區","LI":"重興里","LIN":"13鄰","STREET":"開南街","SECT":" ","MAREA":" ","LANE":"１６５巷","ALLEY":"６弄","HOUSE_NO":"３號","E_COORD97":170699.10999999999,"N_COORD97":2545113.6499999999,"ADDRESS":"開南街１６５巷６弄３號","OBJECTID":13453},"geometry":{"x":170699.11000000034,"y":2545113.6500000004}},{"attributes":{"ID":13454,"DIS_CODE":0,"TOWNNAME":"北區","LI":"重興里","LIN":"13鄰","STREET":"開南街","SECT":" ","MAREA":" ","LANE":"１６５巷","ALLEY":"６弄","HOUSE_NO":"４號","E_COORD97":170707.87,"N_COORD97":2545087.2000000002,"ADDRESS":"開南街１６５巷６弄４號","OBJECTID":13454},"geometry":{"x":170707.87000000197,"y":2545087.2000000011}},{"attributes":{"ID":13455,"DIS_CODE":0,"TOWNNAME":"佳里區","LI":"民安里","LIN":"13鄰","STREET":" ","SECT":" ","MAREA":"新宅","LANE":" ","ALLEY":" ","HOUSE_NO":"２３號之２","E_COORD97":167650.54999999999,"N_COORD97":2564628.46,"ADDRESS":"新宅２３號之２","OBJECTID":13455},"geometry":{"x":167650.55000000075,"y":2564628.4600000009}},{"attributes":{"ID":13456,"DIS_CODE":0,"TOWNNAME":"佳里區","LI":"民安里","LIN":"13鄰","STREET":" ","SECT":" ","MAREA":"新宅","LANE":" ","ALLEY":" ","HOUSE_NO":"２３號之３","E_COORD97":167606.98999999999,"N_COORD97":2564640.1899999999,"ADDRESS":"新宅２３號之３","OBJECTID":13456},"geometry":{"x":167606.99000000115,"y":2564640.1900000013}},{"attributes":{"ID":13457,"DIS_CODE":0,"TOWNNAME":"佳里區","LI":"民安里","LIN":"13鄰","STREET":" ","SECT":" ","MAREA":"新宅","LANE":" ","ALLEY":" ","HOUSE_NO":"２３號","E_COORD97":167605.85000000001,"N_COORD97":2564625,"ADDRESS":"新宅２３號","OBJECTID":13457},"geometry":{"x":167605.85000000056,"y":2564625.0000000019}},{"attributes":{"ID":13458,"DIS_CODE":0,"TOWNNAME":"佳里區","LI":"民安里","LIN":"13鄰","STREET":" ","SECT":" ","MAREA":"新宅","LANE":" ","ALLEY":" ","HOUSE_NO":"２５號之１","E_COORD97":167583.45999999999,"N_COORD97":2564649.1499999999,"ADDRESS":"新宅２５號之１","OBJECTID":13458},"geometry":{"x":167583.46000000089,"y":2564649.1500000004}},{"attributes":{"ID":13459,"DIS_CODE":0,"TOWNNAME":"佳里區","LI":"民安里","LIN":"13鄰","STREET":" ","SECT":" ","MAREA":"新宅","LANE":" ","ALLEY":" ","HOUSE_NO":"２５號之２","E_COORD97":167573.22,"N_COORD97":2564658.54,"ADDRESS":"新宅２５號之２","OBJECTID":13459},"geometry":{"x":167573.22000000067,"y":2564658.540000001}},{"attributes":{"ID":13460,"DIS_CODE":0,"TOWNNAME":"佳里區","LI":"民安里","LIN":"13鄰","STREET":" ","SECT":" ","MAREA":"新宅","LANE":" ","ALLEY":" ","HOUSE_NO":"２５號之３","E_COORD97":167581.04000000001,"N_COORD97":2564668.6299999999,"ADDRESS":"新宅２５號之３","OBJECTID":13460},"geometry":{"x":167581.04000000097,"y":2564668.629999999}},{"attributes":{"ID":13461,"DIS_CODE":0,"TOWNNAME":"佳里區","LI":"民安里","LIN":"13鄰","STREET":" ","SECT":" ","MAREA":"新宅","LANE":" ","ALLEY":" ","HOUSE_NO":"２６號之１","E_COORD97":167576.23999999999,"N_COORD97":2564683.0899999999,"ADDRESS":"新宅２６號之１","OBJECTID":13461},"geometry":{"x":167576.24000000209,"y":2564683.0899999999}},{"attributes":{"ID":13462,"DIS_CODE":0,"TOWNNAME":"佳里區","LI":"民安里","LIN":"13鄰","STREET":" ","SECT":" ","MAREA":"新宅","LANE":" ","ALLEY":" ","HOUSE_NO":"２６號之２","E_COORD97":167579.81,"N_COORD97":2564675.5800000001,"ADDRESS":"新宅２６號之２","OBJECTID":13462},"geometry":{"x":167579.80999999959,"y":2564675.5800000019}},{"attributes":{"ID":13463,"DIS_CODE":0,"TOWNNAME":"佳里區","LI":"民安里","LIN":"13鄰","STREET":" ","SECT":" ","MAREA":"新宅","LANE":" ","ALLEY":" ","HOUSE_NO":"２６號","E_COORD97":167609.42000000001,"N_COORD97":2564670.4500000002,"ADDRESS":"新宅２６號","OBJECTID":13463},"geometry":{"x":167609.42000000086,"y":2564670.4499999993}},{"attributes":{"ID":13464,"DIS_CODE":0,"TOWNNAME":"南區","LI":"金華里","LIN":"34鄰","STREET":" ","SECT":" ","MAREA":"台南觀光城","LANE":" ","ALLEY":" ","HOUSE_NO":"８１號","E_COORD97":166682.95000000001,"N_COORD97":2542154.52,"ADDRESS":"台南觀光城８１號","OBJECTID":13464},"geometry":{"x":166682.94999999925,"y":2542154.5199999996}},{"attributes":{"ID":13465,"DIS_CODE":0,"TOWNNAME":"南區","LI":"金華里","LIN":"34鄰","STREET":" ","SECT":" ","MAREA":"台南觀光城","LANE":" ","ALLEY":" ","HOUSE_NO":"８３號","E_COORD97":166689.45000000001,"N_COORD97":2542175.6600000001,"ADDRESS":"台南觀光城８３號","OBJECTID":13465},"geometry":{"x":166689.45000000019,"y":2542175.6600000039}},{"attributes":{"ID":13466,"DIS_CODE":0,"TOWNNAME":"南區","LI":"金華里","LIN":"34鄰","STREET":" ","SECT":" ","MAREA":"台南觀光城","LANE":" ","ALLEY":" ","HOUSE_NO":"８５號","E_COORD97":166690.56,"N_COORD97":2542180.5800000001,"ADDRESS":"台南觀光城８５號","OBJECTID":13466},"geometry":{"x":166690.56000000052,"y":2542180.5800000019}},{"attributes":{"ID":13467,"DIS_CODE":0,"TOWNNAME":"南區","LI":"金華里","LIN":"34鄰","STREET":" ","SECT":" ","MAREA":"台南觀光城","LANE":" ","ALLEY":" ","HOUSE_NO":"９８號","E_COORD97":166682.94,"N_COORD97":2542110.3799999999,"ADDRESS":"台南觀光城９８號","OBJECTID":13467},"geometry":{"x":166682.94000000041,"y":2542110.379999999}},{"attributes":{"ID":13468,"DIS_CODE":0,"TOWNNAME":"東區","LI":"後甲里","LIN":"34鄰","STREET":" ","SECT":" ","MAREA":"精忠三村","LANE":" ","ALLEY":" ","HOUSE_NO":"１號之４１","E_COORD97":171746.76000000001,"N_COORD97":2543605.6000000001,"ADDRESS":"精忠三村１號之４１","OBJECTID":13468},"geometry":{"x":171746.75999999978,"y":2543605.5999999996}},{"attributes":{"ID":13469,"DIS_CODE":0,"TOWNNAME":"東區","LI":"後甲里","LIN":"34鄰","STREET":" ","SECT":" ","MAREA":"精忠三村","LANE":" ","ALLEY":" ","HOUSE_NO":"１號之４０","E_COORD97":171748.45999999999,"N_COORD97":2543603.2799999998,"ADDRESS":"精忠三村１號之４０","OBJECTID":13469},"geometry":{"x":171748.46000000089,"y":2543603.2799999993}},{"attributes":{"ID":13470,"DIS_CODE":0,"TOWNNAME":"東區","LI":"後甲里","LIN":"34鄰","STREET":" ","SECT":" ","MAREA":"精忠三村","LANE":" ","ALLEY":" ","HOUSE_NO":"１號之３９","E_COORD97":171747.39999999999,"N_COORD97":2543600.52,"ADDRESS":"精忠三村１號之３９","OBJECTID":13470},"geometry":{"x":171747.4000000013,"y":2543600.5200000014}},{"attributes":{"ID":13471,"DIS_CODE":0,"TOWNNAME":"北區","LI":"重興里","LIN":"13鄰","STREET":"開南街","SECT":" ","MAREA":" ","LANE":"１６５巷","ALLEY":"６弄","HOUSE_NO":"５號","E_COORD97":170702.32999999999,"N_COORD97":2545111.1699999999,"ADDRESS":"開南街１６５巷６弄５號","OBJECTID":13471},"geometry":{"x":170702.33000000007,"y":2545111.1699999981}},{"attributes":{"ID":13472,"DIS_CODE":0,"TOWNNAME":"東區","LI":"崇善里","LIN":"24鄰","STREET":"崇善十二街","SECT":" ","MAREA":" ","LANE":"６巷","ALLEY":"１５弄","HOUSE_NO":"１０號五樓","E_COORD97":171276.75,"N_COORD97":2541054.6600000001,"ADDRESS":"崇善十二街６巷１５弄１０號五樓","OBJECTID":13472},"geometry":{"x":171276.75000000093,"y":2541054.660000002}},{"attributes":{"ID":13473,"DIS_CODE":0,"TOWNNAME":"佳里區","LI":"建南里","LIN":"13鄰","STREET":"新生路","SECT":" ","MAREA":" ","LANE":" ","ALLEY":" ","HOUSE_NO":"４４３號","E_COORD97":165189.29000000001,"N_COORD97":2562156.25,"ADDRESS":"新生路４４３號","OBJECTID":13473},"geometry":{"x":165189.29000000097,"y":2562156.25}},{"attributes":{"ID":13474,"DIS_CODE":0,"TOWNNAME":"東區","LI":"後甲里","LIN":"34鄰","STREET":" ","SECT":" ","MAREA":"精忠三村","LANE":" ","ALLEY":" ","HOUSE_NO":"１號之３８","E_COORD97":171749.09,"N_COORD97":2543598.4100000001,"ADDRESS":"精忠三村１號之３８","OBJECTID":13474},"geometry":{"x":171749.09000000078,"y":2543598.410000002}},{"attributes":{"ID":13475,"DIS_CODE":0,"TOWNNAME":"東區","LI":"崇善里","LIN":"24鄰","STREET":"崇善十二街","SECT":" ","MAREA":" ","LANE":"６巷","ALLEY":"１５弄","HOUSE_NO":"１０號五樓之１","E_COORD97":171276.75,"N_COORD97":2541054.6600000001,"ADDRESS":"崇善十二街６巷１５弄１０號五樓之１","OBJECTID":13475},"geometry":{"x":171276.75000000093,"y":2541054.660000002}},{"attributes":{"ID":13476,"DIS_CODE":0,"TOWNNAME":"東區","LI":"崇善里","LIN":"24鄰","STREET":"崇善十二街","SECT":" ","MAREA":" ","LANE":"６巷","ALLEY":"１５弄","HOUSE_NO":"１６號三樓之１","E_COORD97":171285.97,"N_COORD97":2541059.6000000001,"ADDRESS":"崇善十二街６巷１５弄１６號三樓之１","OBJECTID":13476},"geometry":{"x":171285.96999999974,"y":2541059.5999999996}},{"attributes":{"ID":13477,"DIS_CODE":0,"TOWNNAME":"東區","LI":"後甲里","LIN":"34鄰","STREET":" ","SECT":" ","MAREA":"精忠三村","LANE":" ","ALLEY":" ","HOUSE_NO":"４９號","E_COORD97":171747.82000000001,"N_COORD97":2543633.7599999998,"ADDRESS":"精忠三村４９號","OBJECTID":13477},"geometry":{"x":171747.82000000123,"y":2543633.7600000016}},{"attributes":{"ID":13478,"DIS_CODE":0,"TOWNNAME":"東區","LI":"崇善里","LIN":"24鄰","STREET":"崇善十二街","SECT":" ","MAREA":" ","LANE":"６巷","ALLEY":"１５弄","HOUSE_NO":"１６號五樓","E_COORD97":171285.97,"N_COORD97":2541059.6000000001,"ADDRESS":"崇善十二街６巷１５弄１６號五樓","OBJECTID":13478},"geometry":{"x":171285.96999999974,"y":2541059.5999999996}},{"attributes":{"ID":13479,"DIS_CODE":0,"TOWNNAME":"東區","LI":"後甲里","LIN":"34鄰","STREET":" ","SECT":" ","MAREA":"精忠三村","LANE":" ","ALLEY":" ","HOUSE_NO":"５０號","E_COORD97":171747.60999999999,"N_COORD97":2543639.0499999998,"ADDRESS":"精忠三村５０號","OBJECTID":13479},"geometry":{"x":171747.61000000127,"y":2543639.0500000026}},{"attributes":{"ID":13480,"DIS_CODE":0,"TOWNNAME":"東區","LI":"後甲里","LIN":"34鄰","STREET":" ","SECT":" ","MAREA":"精忠三村","LANE":" ","ALLEY":" ","HOUSE_NO":"５１號","E_COORD97":171748.67000000001,"N_COORD97":2543645.8199999998,"ADDRESS":"精忠三村５１號","OBJECTID":13480},"geometry":{"x":171748.67000000086,"y":2543645.8199999984}},{"attributes":{"ID":13481,"DIS_CODE":0,"TOWNNAME":"東區","LI":"後甲里","LIN":"34鄰","STREET":" ","SECT":" ","MAREA":"精忠三村","LANE":" ","ALLEY":" ","HOUSE_NO":"１號之１６","E_COORD97":171748.44,"N_COORD97":2543535.2799999998,"ADDRESS":"精忠三村１號之１６","OBJECTID":13481},"geometry":{"x":171748.44000000041,"y":2543535.2799999993}},{"attributes":{"ID":13482,"DIS_CODE":0,"TOWNNAME":"東區","LI":"崇善里","LIN":"24鄰","STREET":"崇善十二街","SECT":" ","MAREA":" ","LANE":"６巷","ALLEY":"１５弄","HOUSE_NO":"１６號五樓之１","E_COORD97":171285.97,"N_COORD97":2541059.6000000001,"ADDRESS":"崇善十二街６巷１５弄１６號五樓之１","OBJECTID":13482},"geometry":{"x":171285.96999999974,"y":2541059.5999999996}},{"attributes":{"ID":13483,"DIS_CODE":0,"TOWNNAME":"東區","LI":"崇善里","LIN":"24鄰","STREET":"崇善十二街","SECT":" ","MAREA":" ","LANE":"６巷","ALLEY":"１５弄","HOUSE_NO":"１６號六樓","E_COORD97":171285.97,"N_COORD97":2541059.6000000001,"ADDRESS":"崇善十二街６巷１５弄１６號六樓","OBJECTID":13483},"geometry":{"x":171285.96999999974,"y":2541059.5999999996}},{"attributes":{"ID":13484,"DIS_CODE":0,"TOWNNAME":"東區","LI":"後甲里","LIN":"34鄰","STREET":" ","SECT":" ","MAREA":"精忠三村","LANE":" ","ALLEY":" ","HOUSE_NO":"１號之１５","E_COORD97":171749.5,"N_COORD97":2543533.3700000001,"ADDRESS":"精忠三村１號之１５","OBJECTID":13484},"geometry":{"x":171749.50000000186,"y":2543533.370000001}},{"attributes":{"ID":13485,"DIS_CODE":0,"TOWNNAME":"東區","LI":"崇善里","LIN":"24鄰","STREET":"崇善十二街","SECT":" ","MAREA":" ","LANE":"６巷","ALLEY":"１５弄","HOUSE_NO":"１６號四樓","E_COORD97":171285.97,"N_COORD97":2541059.6000000001,"ADDRESS":"崇善十二街６巷１５弄１６號四樓","OBJECTID":13485},"geometry":{"x":171285.96999999974,"y":2541059.5999999996}},{"attributes":{"ID":13486,"DIS_CODE":0,"TOWNNAME":"東區","LI":"後甲里","LIN":"34鄰","STREET":" ","SECT":" ","MAREA":"精忠三村","LANE":" ","ALLEY":" ","HOUSE_NO":"３３號","E_COORD97":171660.92999999999,"N_COORD97":2543496.75,"ADDRESS":"精忠三村３３號","OBJECTID":13486},"geometry":{"x":171660.9299999997,"y":2543496.75}},{"attributes":{"ID":13487,"DIS_CODE":0,"TOWNNAME":"東區","LI":"後甲里","LIN":"34鄰","STREET":" ","SECT":" ","MAREA":"精忠三村","LANE":" ","ALLEY":" ","HOUSE_NO":"５３號","E_COORD97":171702.45999999999,"N_COORD97":2543519.8300000001,"ADDRESS":"精忠三村５３號","OBJECTID":13487},"geometry":{"x":171702.46000000089,"y":2543519.8300000001}},{"attributes":{"ID":13488,"DIS_CODE":0,"TOWNNAME":"東區","LI":"崇善里","LIN":"24鄰","STREET":"崇善十二街","SECT":" ","MAREA":" ","LANE":"６巷","ALLEY":"１５弄","HOUSE_NO":"１０號六樓","E_COORD97":171276.75,"N_COORD97":2541054.6600000001,"ADDRESS":"崇善十二街６巷１５弄１０號六樓","OBJECTID":13488},"geometry":{"x":171276.75000000093,"y":2541054.660000002}},{"attributes":{"ID":13489,"DIS_CODE":0,"TOWNNAME":"東區","LI":"崇善里","LIN":"24鄰","STREET":"崇善十二街","SECT":" ","MAREA":" ","LANE":"６巷","ALLEY":"１５弄","HOUSE_NO":"１６號三樓","E_COORD97":171285.97,"N_COORD97":2541059.6000000001,"ADDRESS":"崇善十二街６巷１５弄１６號三樓","OBJECTID":13489},"geometry":{"x":171285.96999999974,"y":2541059.5999999996}},{"attributes":{"ID":13490,"DIS_CODE":0,"TOWNNAME":"東區","LI":"崇善里","LIN":"24鄰","STREET":"崇善十二街","SECT":" ","MAREA":" ","LANE":"６巷","ALLEY":"１５弄","HOUSE_NO":"１０號三樓之１","E_COORD97":171276.75,"N_COORD97":2541054.6600000001,"ADDRESS":"崇善十二街６巷１５弄１０號三樓之１","OBJECTID":13490},"geometry":{"x":171276.75000000093,"y":2541054.660000002}},{"attributes":{"ID":13491,"DIS_CODE":0,"TOWNNAME":"東區","LI":"崇善里","LIN":"24鄰","STREET":"崇善十二街","SECT":" ","MAREA":" ","LANE":"６巷","ALLEY":"１５弄","HOUSE_NO":"１０號四樓","E_COORD97":171276.75,"N_COORD97":2541054.6600000001,"ADDRESS":"崇善十二街６巷１５弄１０號四樓","OBJECTID":13491},"geometry":{"x":171276.75000000093,"y":2541054.660000002}},{"attributes":{"ID":13492,"DIS_CODE":0,"TOWNNAME":"東區","LI":"崇善里","LIN":"24鄰","STREET":"崇善十二街","SECT":" ","MAREA":" ","LANE":"６巷","ALLEY":"１５弄","HOUSE_NO":"１０號四樓之１","E_COORD97":171276.75,"N_COORD97":2541054.6600000001,"ADDRESS":"崇善十二街６巷１５弄１０號四樓之１","OBJECTID":13492},"geometry":{"x":171276.75000000093,"y":2541054.660000002}},{"attributes":{"ID":13493,"DIS_CODE":0,"TOWNNAME":"東區","LI":"崇善里","LIN":"24鄰","STREET":"崇善十二街","SECT":" ","MAREA":" ","LANE":"６巷","ALLEY":"１５弄","HOUSE_NO":"１０號六樓之１","E_COORD97":171276.75,"N_COORD97":2541054.6600000001,"ADDRESS":"崇善十二街６巷１５弄１０號六樓之１","OBJECTID":13493},"geometry":{"x":171276.75000000093,"y":2541054.660000002}},{"attributes":{"ID":13494,"DIS_CODE":0,"TOWNNAME":"東區","LI":"崇善里","LIN":"24鄰","STREET":"崇善十二街","SECT":" ","MAREA":" ","LANE":"６巷","ALLEY":"１５弄","HOUSE_NO":"１６號四樓之１","E_COORD97":171285.97,"N_COORD97":2541059.6000000001,"ADDRESS":"崇善十二街６巷１５弄１６號四樓之１","OBJECTID":13494},"geometry":{"x":171285.96999999974,"y":2541059.5999999996}},{"attributes":{"ID":13495,"DIS_CODE":0,"TOWNNAME":"永康區","LI":"復華里","LIN":"13鄰","STREET":"復國二路","SECT":" ","MAREA":" ","LANE":" ","ALLEY":" ","HOUSE_NO":"１９５號","E_COORD97":172977.04999999999,"N_COORD97":2545964.02,"ADDRESS":"復國二路１９５號","OBJECTID":13495},"geometry":{"x":172977.05000000075,"y":2545964.0200000014}},{"attributes":{"ID":13496,"DIS_CODE":0,"TOWNNAME":"永康區","LI":"王行里","LIN":"13鄰","STREET":"王行路","SECT":" ","MAREA":" ","LANE":" ","ALLEY":" ","HOUSE_NO":"１０７４號","E_COORD97":175679.04000000001,"N_COORD97":2550208.4900000002,"ADDRESS":"王行路１０７４號","OBJECTID":13496},"geometry":{"x":175679.04000000097,"y":2550208.4900000039}},{"attributes":{"ID":13497,"DIS_CODE":0,"TOWNNAME":"永康區","LI":"復國里","LIN":"13鄰","STREET":"復華三街","SECT":" ","MAREA":" ","LANE":" ","ALLEY":" ","HOUSE_NO":"６１號","E_COORD97":172786.53,"N_COORD97":2545539.2999999998,"ADDRESS":"復華三街６１號","OBJECTID":13497},"geometry":{"x":172786.53000000026,"y":2545539.3000000026}},{"attributes":{"ID":13498,"DIS_CODE":0,"TOWNNAME":"永康區","LI":"南灣里","LIN":"13鄰","STREET":"大灣路","SECT":" ","MAREA":" ","LANE":" ","ALLEY":" ","HOUSE_NO":"５６２號","E_COORD97":174640.14000000001,"N_COORD97":2544726.2400000002,"ADDRESS":"大灣路５６２號","OBJECTID":13498},"geometry":{"x":174640.14000000153,"y":2544726.2400000021}},{"attributes":{"ID":13499,"DIS_CODE":0,"TOWNNAME":"永康區","LI":"埔園里","LIN":"13鄰","STREET":"中山路","SECT":" ","MAREA":" ","LANE":" ","ALLEY":" ","HOUSE_NO":"２２９號","E_COORD97":173652.66,"N_COORD97":2548141.9900000002,"ADDRESS":"中山路２２９號","OBJECTID":13499},"geometry":{"x":173652.66000000108,"y":2548141.9900000021}},{"attributes":{"ID":13500,"DIS_CODE":0,"TOWNNAME":"永康區","LI":"埔園里","LIN":"13鄰","STREET":"中山路","SECT":" ","MAREA":" ","LANE":" ","ALLEY":" ","HOUSE_NO":"２１３號","E_COORD97":173663.01000000001,"N_COORD97":2548108.75,"ADDRESS":"中山路２１３號","OBJECTID":13500},"geometry":{"x":173663.01000000164,"y":2548108.7500000019}},{"attributes":{"ID":13501,"DIS_CODE":0,"TOWNNAME":"東區","LI":"後甲里","LIN":"34鄰","STREET":" ","SECT":" ","MAREA":"精忠三村","LANE":" ","ALLEY":" ","HOUSE_NO":"５５號","E_COORD97":171698.44,"N_COORD97":2543521.1000000001,"ADDRESS":"精忠三村５５號","OBJECTID":13501},"geometry":{"x":171698.44000000134,"y":2543521.0999999996}},{"attributes":{"ID":13502,"DIS_CODE":0,"TOWNNAME":"東區","LI":"後甲里","LIN":"34鄰","STREET":" ","SECT":" ","MAREA":"精忠三村","LANE":" ","ALLEY":" ","HOUSE_NO":"５７號","E_COORD97":171694.62,"N_COORD97":2543521.1000000001,"ADDRESS":"精忠三村５７號","OBJECTID":13502},"geometry":{"x":171694.62000000197,"y":2543521.0999999996}},{"attributes":{"ID":13503,"DIS_CODE":0,"TOWNNAME":"永康區","LI":"埔園里","LIN":"13鄰","STREET":"中山路","SECT":" ","MAREA":" ","LANE":" ","ALLEY":" ","HOUSE_NO":"１９３號","E_COORD97":173680.34,"N_COORD97":2548055.9900000002,"ADDRESS":"中山路１９３號","OBJECTID":13503},"geometry":{"x":173680.34000000078,"y":2548055.9900000021}},{"attributes":{"ID":13504,"DIS_CODE":0,"TOWNNAME":"永康區","LI":"埔園里","LIN":"13鄰","STREET":"中山路","SECT":" ","MAREA":" ","LANE":" ","ALLEY":" ","HOUSE_NO":"１８７號","E_COORD97":173687.59,"N_COORD97":2548037.4100000001,"ADDRESS":"中山路１８７號","OBJECTID":13504},"geometry":{"x":173687.58999999985,"y":2548037.410000002}},{"attributes":{"ID":13505,"DIS_CODE":0,"TOWNNAME":"永康區","LI":"埔園里","LIN":"13鄰","STREET":"中山路","SECT":" ","MAREA":" ","LANE":" ","ALLEY":" ","HOUSE_NO":"２０１號","E_COORD97":173656.26000000001,"N_COORD97":2548076,"ADDRESS":"中山路２０１號","OBJECTID":13505},"geometry":{"x":173656.26000000164,"y":2548076.0000000037}},{"attributes":{"ID":13506,"DIS_CODE":0,"TOWNNAME":"東區","LI":"和平里","LIN":"20鄰","STREET":"文化六街","SECT":" ","MAREA":" ","LANE":" ","ALLEY":" ","HOUSE_NO":"１６號","E_COORD97":171236.97,"N_COORD97":2541661.21,"ADDRESS":"文化六街１６號","OBJECTID":13506},"geometry":{"x":171236.96999999974,"y":2541661.2100000028}},{"attributes":{"ID":13507,"DIS_CODE":0,"TOWNNAME":"東區","LI":"和平里","LIN":"20鄰","STREET":"文化六街","SECT":" ","MAREA":" ","LANE":" ","ALLEY":" ","HOUSE_NO":"１８號","E_COORD97":171242.54000000001,"N_COORD97":2541663.3399999999,"ADDRESS":"文化六街１８號","OBJECTID":13507},"geometry":{"x":171242.54000000097,"y":2541663.3400000017}},{"attributes":{"ID":13508,"DIS_CODE":0,"TOWNNAME":"東區","LI":"和平里","LIN":"20鄰","STREET":"文化六街","SECT":" ","MAREA":" ","LANE":" ","ALLEY":" ","HOUSE_NO":"２０號","E_COORD97":171247.45000000001,"N_COORD97":2541665.6299999999,"ADDRESS":"文化六街２０號","OBJECTID":13508},"geometry":{"x":171247.45000000019,"y":2541665.629999999}},{"attributes":{"ID":13509,"DIS_CODE":0,"TOWNNAME":"東區","LI":"和平里","LIN":"20鄰","STREET":"文化六街","SECT":" ","MAREA":" ","LANE":" ","ALLEY":" ","HOUSE_NO":"２２號","E_COORD97":171252.51999999999,"N_COORD97":2541667.4300000002,"ADDRESS":"文化六街２２號","OBJECTID":13509},"geometry":{"x":171252.52000000048,"y":2541667.4299999997}},{"attributes":{"ID":13510,"DIS_CODE":0,"TOWNNAME":"東區","LI":"和平里","LIN":"20鄰","STREET":"文化六街","SECT":" ","MAREA":" ","LANE":" ","ALLEY":" ","HOUSE_NO":"２６號","E_COORD97":171256.29000000001,"N_COORD97":2541668.98,"ADDRESS":"文化六街２６號","OBJECTID":13510},"geometry":{"x":171256.29000000097,"y":2541668.9800000023}},{"attributes":{"ID":13511,"DIS_CODE":0,"TOWNNAME":"東區","LI":"和平里","LIN":"20鄰","STREET":"文化六街","SECT":" ","MAREA":" ","LANE":" ","ALLEY":" ","HOUSE_NO":"２８號","E_COORD97":171261.20000000001,"N_COORD97":2541671.27,"ADDRESS":"文化六街２８號","OBJECTID":13511},"geometry":{"x":171261.20000000019,"y":2541671.2699999996}},{"attributes":{"ID":13512,"DIS_CODE":0,"TOWNNAME":"東區","LI":"後甲里","LIN":"34鄰","STREET":" ","SECT":" ","MAREA":"精忠三村","LANE":" ","ALLEY":" ","HOUSE_NO":"１０１號","E_COORD97":171657.54000000001,"N_COORD97":2543534.4300000002,"ADDRESS":"精忠三村１０１號","OBJECTID":13512},"geometry":{"x":171657.54000000004,"y":2543534.4300000016}},{"attributes":{"ID":13513,"DIS_CODE":0,"TOWNNAME":"東區","LI":"後甲里","LIN":"34鄰","STREET":" ","SECT":" ","MAREA":"精忠三村","LANE":" ","ALLEY":" ","HOUSE_NO":"１１１號","E_COORD97":171620.38,"N_COORD97":2543530.0899999999,"ADDRESS":"精忠三村１１１號","OBJECTID":13513},"geometry":{"x":171620.38000000082,"y":2543530.0900000017}},{"attributes":{"ID":13514,"DIS_CODE":0,"TOWNNAME":"東區","LI":"後甲里","LIN":"34鄰","STREET":" ","SECT":" ","MAREA":"精忠三村","LANE":" ","ALLEY":" ","HOUSE_NO":"１１３號","E_COORD97":171612.75,"N_COORD97":2543529.25,"ADDRESS":"精忠三村１１３號","OBJECTID":13514},"geometry":{"x":171612.75000000093,"y":2543529.2500000019}},{"attributes":{"ID":13515,"DIS_CODE":0,"TOWNNAME":"東區","LI":"後甲里","LIN":"34鄰","STREET":" ","SECT":" ","MAREA":"精忠三村","LANE":" ","ALLEY":" ","HOUSE_NO":"１２３號","E_COORD97":171730.54999999999,"N_COORD97":2543553.1600000001,"ADDRESS":"精忠三村１２３號","OBJECTID":13515},"geometry":{"x":171730.55000000075,"y":2543553.160000002}},{"attributes":{"ID":13516,"DIS_CODE":0,"TOWNNAME":"東區","LI":"崇善里","LIN":"24鄰","STREET":"崇善十二街","SECT":" ","MAREA":" ","LANE":"６巷","ALLEY":"１５弄","HOUSE_NO":"１６號六樓之１","E_COORD97":171285.97,"N_COORD97":2541059.6000000001,"ADDRESS":"崇善十二街６巷１５弄１６號六樓之１","OBJECTID":13516},"geometry":{"x":171285.96999999974,"y":2541059.5999999996}},{"attributes":{"ID":13517,"DIS_CODE":0,"TOWNNAME":"東區","LI":"大同里","LIN":"24鄰","STREET":"大同路","SECT":"一段","MAREA":" ","LANE":"２４１巷","ALLEY":"６弄","HOUSE_NO":"１０號二樓","E_COORD97":169185.56,"N_COORD97":2542603.7400000002,"ADDRESS":"大同路一段２４１巷６弄１０號二樓","OBJECTID":13517},"geometry":{"x":169185.56000000145,"y":2542603.7400000021}},{"attributes":{"ID":13518,"DIS_CODE":0,"TOWNNAME":"東區","LI":"大同里","LIN":"24鄰","STREET":"大同路","SECT":"一段","MAREA":" ","LANE":"２４１巷","ALLEY":"６弄","HOUSE_NO":"１０號三樓","E_COORD97":169185.56,"N_COORD97":2542603.7400000002,"ADDRESS":"大同路一段２４１巷６弄１０號三樓","OBJECTID":13518},"geometry":{"x":169185.56000000145,"y":2542603.7400000021}},{"attributes":{"ID":13519,"DIS_CODE":0,"TOWNNAME":"東區","LI":"大同里","LIN":"24鄰","STREET":"大同路","SECT":"一段","MAREA":" ","LANE":"２４１巷","ALLEY":"６弄","HOUSE_NO":"１０號五樓","E_COORD97":169185.56,"N_COORD97":2542603.7400000002,"ADDRESS":"大同路一段２４１巷６弄１０號五樓","OBJECTID":13519},"geometry":{"x":169185.56000000145,"y":2542603.7400000021}},{"attributes":{"ID":13520,"DIS_CODE":0,"TOWNNAME":"東區","LI":"大同里","LIN":"24鄰","STREET":"大同路","SECT":"一段","MAREA":" ","LANE":"２４１巷","ALLEY":"６弄","HOUSE_NO":"１０號四樓","E_COORD97":169185.56,"N_COORD97":2542603.7400000002,"ADDRESS":"大同路一段２４１巷６弄１０號四樓","OBJECTID":13520},"geometry":{"x":169185.56000000145,"y":2542603.7400000021}},{"attributes":{"ID":13521,"DIS_CODE":0,"TOWNNAME":"東區","LI":"大同里","LIN":"24鄰","STREET":"大同路","SECT":"一段","MAREA":" ","LANE":"２４１巷","ALLEY":"６弄","HOUSE_NO":"１２號二樓","E_COORD97":169196.63,"N_COORD97":2542609.0499999998,"ADDRESS":"大同路一段２４１巷６弄１２號二樓","OBJECTID":13521},"geometry":{"x":169196.62999999989,"y":2542609.0500000026}},{"attributes":{"ID":13522,"DIS_CODE":0,"TOWNNAME":"東區","LI":"大同里","LIN":"24鄰","STREET":"大同路","SECT":"一段","MAREA":" ","LANE":"２４１巷","ALLEY":"６弄","HOUSE_NO":"１２號三樓","E_COORD97":169196.63,"N_COORD97":2542609.0499999998,"ADDRESS":"大同路一段２４１巷６弄１２號三樓","OBJECTID":13522},"geometry":{"x":169196.62999999989,"y":2542609.0500000026}},{"attributes":{"ID":13523,"DIS_CODE":0,"TOWNNAME":"東區","LI":"大同里","LIN":"24鄰","STREET":"大同路","SECT":"一段","MAREA":" ","LANE":"２４１巷","ALLEY":"６弄","HOUSE_NO":"１２號五樓","E_COORD97":169196.63,"N_COORD97":2542609.0499999998,"ADDRESS":"大同路一段２４１巷６弄１２號五樓","OBJECTID":13523},"geometry":{"x":169196.62999999989,"y":2542609.0500000026}},{"attributes":{"ID":13524,"DIS_CODE":0,"TOWNNAME":"東區","LI":"大同里","LIN":"24鄰","STREET":"大同路","SECT":"一段","MAREA":" ","LANE":"２４１巷","ALLEY":"６弄","HOUSE_NO":"１２號四樓","E_COORD97":169196.63,"N_COORD97":2542609.0499999998,"ADDRESS":"大同路一段２４１巷６弄１２號四樓","OBJECTID":13524},"geometry":{"x":169196.62999999989,"y":2542609.0500000026}},{"attributes":{"ID":13525,"DIS_CODE":0,"TOWNNAME":"東區","LI":"大同里","LIN":"24鄰","STREET":"大同路","SECT":"一段","MAREA":" ","LANE":"２４１巷","ALLEY":"６弄","HOUSE_NO":"２４號三樓","E_COORD97":169235.82999999999,"N_COORD97":2542595.29,"ADDRESS":"大同路一段２４１巷６弄２４號三樓","OBJECTID":13525},"geometry":{"x":169235.83000000101,"y":2542595.290000001}},{"attributes":{"ID":13526,"DIS_CODE":0,"TOWNNAME":"東區","LI":"大同里","LIN":"24鄰","STREET":"大同路","SECT":"一段","MAREA":" ","LANE":"２４１巷","ALLEY":"６弄","HOUSE_NO":"２４號五樓","E_COORD97":169235.82999999999,"N_COORD97":2542595.29,"ADDRESS":"大同路一段２４１巷６弄２４號五樓","OBJECTID":13526},"geometry":{"x":169235.83000000101,"y":2542595.290000001}},{"attributes":{"ID":13527,"DIS_CODE":0,"TOWNNAME":"東區","LI":"大同里","LIN":"24鄰","STREET":"大同路","SECT":"一段","MAREA":" ","LANE":"２４１巷","ALLEY":"６弄","HOUSE_NO":"２４號六樓","E_COORD97":169235.82999999999,"N_COORD97":2542595.29,"ADDRESS":"大同路一段２４１巷６弄２４號六樓","OBJECTID":13527},"geometry":{"x":169235.83000000101,"y":2542595.290000001}},{"attributes":{"ID":13528,"DIS_CODE":0,"TOWNNAME":"東區","LI":"大同里","LIN":"24鄰","STREET":"大同路","SECT":"一段","MAREA":" ","LANE":"２４１巷","ALLEY":"６弄","HOUSE_NO":"２４號四樓","E_COORD97":169235.82999999999,"N_COORD97":2542595.29,"ADDRESS":"大同路一段２４１巷６弄２４號四樓","OBJECTID":13528},"geometry":{"x":169235.83000000101,"y":2542595.290000001}},{"attributes":{"ID":13529,"DIS_CODE":0,"TOWNNAME":"南區","LI":"明亮里","LIN":"13鄰","STREET":"新都路","SECT":" ","MAREA":" ","LANE":" ","ALLEY":" ","HOUSE_NO":"３７２號","E_COORD97":167486.31,"N_COORD97":2540891.2000000002,"ADDRESS":"新都路３７２號","OBJECTID":13529},"geometry":{"x":167486.30999999959,"y":2540891.1999999993}},{"attributes":{"ID":13530,"DIS_CODE":0,"TOWNNAME":"南區","LI":"明亮里","LIN":"13鄰","STREET":"新都路","SECT":" ","MAREA":" ","LANE":" ","ALLEY":" ","HOUSE_NO":"３７４號","E_COORD97":167480.54000000001,"N_COORD97":2540888.98,"ADDRESS":"新都路３７４號","OBJECTID":13530},"geometry":{"x":167480.54000000004,"y":2540888.9800000042}},{"attributes":{"ID":13531,"DIS_CODE":0,"TOWNNAME":"南區","LI":"明亮里","LIN":"13鄰","STREET":"新都路","SECT":" ","MAREA":" ","LANE":" ","ALLEY":" ","HOUSE_NO":"３７６號","E_COORD97":167475.64999999999,"N_COORD97":2540889.4300000002,"ADDRESS":"新都路３７６號","OBJECTID":13531},"geometry":{"x":167475.6500000013,"y":2540889.4300000016}},{"attributes":{"ID":13532,"DIS_CODE":0,"TOWNNAME":"南區","LI":"明亮里","LIN":"13鄰","STREET":"新都路","SECT":" ","MAREA":" ","LANE":" ","ALLEY":" ","HOUSE_NO":"３７８號","E_COORD97":167471.66,"N_COORD97":2540887.6499999999,"ADDRESS":"新都路３７８號","OBJECTID":13532},"geometry":{"x":167471.66000000201,"y":2540887.6500000041}},{"attributes":{"ID":13533,"DIS_CODE":0,"TOWNNAME":"南區","LI":"明亮里","LIN":"13鄰","STREET":"新都路","SECT":" ","MAREA":" ","LANE":" ","ALLEY":" ","HOUSE_NO":"３８０號","E_COORD97":167466.76999999999,"N_COORD97":2540888.1000000001,"ADDRESS":"新都路３８０號","OBJECTID":13533},"geometry":{"x":167466.77000000142,"y":2540888.1000000015}},{"attributes":{"ID":13534,"DIS_CODE":0,"TOWNNAME":"東區","LI":"後甲里","LIN":"34鄰","STREET":" ","SECT":" ","MAREA":"精忠三村","LANE":" ","ALLEY":" ","HOUSE_NO":"１號之２５","E_COORD97":171749.62,"N_COORD97":2543559.25,"ADDRESS":"精忠三村１號之２５","OBJECTID":13534},"geometry":{"x":171749.62000000011,"y":2543559.2500000019}},{"attributes":{"ID":13535,"DIS_CODE":0,"TOWNNAME":"東區","LI":"後甲里","LIN":"34鄰","STREET":" ","SECT":" ","MAREA":"精忠三村","LANE":" ","ALLEY":" ","HOUSE_NO":"１號之２６","E_COORD97":171749.41,"N_COORD97":2543561.1499999999,"ADDRESS":"精忠三村１號之２６","OBJECTID":13535},"geometry":{"x":171749.41000000015,"y":2543561.1500000004}},{"attributes":{"ID":13536,"DIS_CODE":0,"TOWNNAME":"東區","LI":"大同里","LIN":"24鄰","STREET":"大同路","SECT":"一段","MAREA":" ","LANE":"２４１巷","ALLEY":"６弄","HOUSE_NO":"２６號三樓","E_COORD97":169232.92999999999,"N_COORD97":2542594.27,"ADDRESS":"大同路一段２４１巷６弄２６號三樓","OBJECTID":13536},"geometry":{"x":169232.93000000063,"y":2542594.2699999996}},{"attributes":{"ID":13537,"DIS_CODE":0,"TOWNNAME":"仁德區","LI":"後壁里","LIN":"12鄰","STREET":"德南路","SECT":" ","MAREA":" ","LANE":"２５１巷","ALLEY":"２９弄","HOUSE_NO":"２０號","E_COORD97":173812.14296999999,"N_COORD97":2538514.5172899999,"ADDRESS":"德南路２５１巷２９弄２０號","OBJECTID":13537},"geometry":{"x":173812.14297000039,"y":2538514.5172899999}},{"attributes":{"ID":13538,"DIS_CODE":0,"TOWNNAME":"東區","LI":"大同里","LIN":"24鄰","STREET":"大同路","SECT":"一段","MAREA":" ","LANE":"２４１巷","ALLEY":"６弄","HOUSE_NO":"２６號五樓","E_COORD97":169232.92999999999,"N_COORD97":2542594.27,"ADDRESS":"大同路一段２４１巷６弄２６號五樓","OBJECTID":13538},"geometry":{"x":169232.93000000063,"y":2542594.2699999996}},{"attributes":{"ID":13539,"DIS_CODE":0,"TOWNNAME":"東區","LI":"大同里","LIN":"24鄰","STREET":"大同路","SECT":"一段","MAREA":" ","LANE":"２４１巷","ALLEY":"６弄","HOUSE_NO":"２６號六樓","E_COORD97":169232.92999999999,"N_COORD97":2542594.27,"ADDRESS":"大同路一段２４１巷６弄２６號六樓","OBJECTID":13539},"geometry":{"x":169232.93000000063,"y":2542594.2699999996}},{"attributes":{"ID":13540,"DIS_CODE":0,"TOWNNAME":"東區","LI":"大同里","LIN":"24鄰","STREET":"大同路","SECT":"一段","MAREA":" ","LANE":"２４１巷","ALLEY":"６弄","HOUSE_NO":"２６號四樓","E_COORD97":169232.92999999999,"N_COORD97":2542594.27,"ADDRESS":"大同路一段２４１巷６弄２６號四樓","OBJECTID":13540},"geometry":{"x":169232.93000000063,"y":2542594.2699999996}},{"attributes":{"ID":13541,"DIS_CODE":0,"TOWNNAME":"東區","LI":"大同里","LIN":"24鄰","STREET":"大同路","SECT":"一段","MAREA":" ","LANE":"２４１巷","ALLEY":"６弄","HOUSE_NO":"２８號三樓","E_COORD97":169227.42000000001,"N_COORD97":2542593.3999999999,"ADDRESS":"大同路一段２４１巷６弄２８號三樓","OBJECTID":13541},"geometry":{"x":169227.41999999899,"y":2542593.4000000004}},{"attributes":{"ID":13542,"DIS_CODE":0,"TOWNNAME":"東區","LI":"大同里","LIN":"24鄰","STREET":"大同路","SECT":"一段","MAREA":" ","LANE":"２４１巷","ALLEY":"６弄","HOUSE_NO":"２８號五樓","E_COORD97":169227.42000000001,"N_COORD97":2542593.3999999999,"ADDRESS":"大同路一段２４１巷６弄２８號五樓","OBJECTID":13542},"geometry":{"x":169227.41999999899,"y":2542593.4000000004}},{"attributes":{"ID":13543,"DIS_CODE":0,"TOWNNAME":"東區","LI":"大同里","LIN":"24鄰","STREET":"大同路","SECT":"一段","MAREA":" ","LANE":"２４１巷","ALLEY":"６弄","HOUSE_NO":"２８號六樓","E_COORD97":169227.42000000001,"N_COORD97":2542593.3999999999,"ADDRESS":"大同路一段２４１巷６弄２８號六樓","OBJECTID":13543},"geometry":{"x":169227.41999999899,"y":2542593.4000000004}},{"attributes":{"ID":13544,"DIS_CODE":0,"TOWNNAME":"東區","LI":"大同里","LIN":"24鄰","STREET":"大同路","SECT":"一段","MAREA":" ","LANE":"２４１巷","ALLEY":"６弄","HOUSE_NO":"２８號四樓","E_COORD97":169227.42000000001,"N_COORD97":2542593.3999999999,"ADDRESS":"大同路一段２４１巷６弄２８號四樓","OBJECTID":13544},"geometry":{"x":169227.41999999899,"y":2542593.4000000004}},{"attributes":{"ID":13545,"DIS_CODE":0,"TOWNNAME":"東區","LI":"大同里","LIN":"24鄰","STREET":"大同路","SECT":"一段","MAREA":" ","LANE":"２４１巷","ALLEY":"６弄","HOUSE_NO":"２號二樓","E_COORD97":169177.60000000001,"N_COORD97":2542630.9500000002,"ADDRESS":"大同路一段２４１巷６弄２號二樓","OBJECTID":13545},"geometry":{"x":169177.60000000056,"y":2542630.9500000011}},{"attributes":{"ID":13546,"DIS_CODE":0,"TOWNNAME":"東區","LI":"大同里","LIN":"24鄰","STREET":"大同路","SECT":"一段","MAREA":" ","LANE":"２４１巷","ALLEY":"６弄","HOUSE_NO":"２號三樓","E_COORD97":169177.60000000001,"N_COORD97":2542630.9500000002,"ADDRESS":"大同路一段２４１巷６弄２號三樓","OBJECTID":13546},"geometry":{"x":169177.60000000056,"y":2542630.9500000011}},{"attributes":{"ID":13547,"DIS_CODE":0,"TOWNNAME":"東區","LI":"大同里","LIN":"24鄰","STREET":"大同路","SECT":"一段","MAREA":" ","LANE":"２４１巷","ALLEY":"６弄","HOUSE_NO":"２號五樓","E_COORD97":169177.60000000001,"N_COORD97":2542630.9500000002,"ADDRESS":"大同路一段２４１巷６弄２號五樓","OBJECTID":13547},"geometry":{"x":169177.60000000056,"y":2542630.9500000011}},{"attributes":{"ID":13548,"DIS_CODE":0,"TOWNNAME":"東區","LI":"大同里","LIN":"24鄰","STREET":"大同路","SECT":"一段","MAREA":" ","LANE":"２４１巷","ALLEY":"６弄","HOUSE_NO":"２號四樓","E_COORD97":169177.60000000001,"N_COORD97":2542630.9500000002,"ADDRESS":"大同路一段２４１巷６弄２號四樓","OBJECTID":13548},"geometry":{"x":169177.60000000056,"y":2542630.9500000011}},{"attributes":{"ID":13549,"DIS_CODE":0,"TOWNNAME":"東區","LI":"大同里","LIN":"24鄰","STREET":"大同路","SECT":"一段","MAREA":" ","LANE":"２４１巷","ALLEY":"６弄","HOUSE_NO":"３０號三樓","E_COORD97":169222.94,"N_COORD97":2542588.4700000002,"ADDRESS":"大同路一段２４１巷６弄３０號三樓","OBJECTID":13549},"geometry":{"x":169222.94000000134,"y":2542588.4700000025}},{"attributes":{"ID":13550,"DIS_CODE":0,"TOWNNAME":"東區","LI":"大同里","LIN":"24鄰","STREET":"大同路","SECT":"一段","MAREA":" ","LANE":"２４１巷","ALLEY":"６弄","HOUSE_NO":"３０號五樓","E_COORD97":169222.94,"N_COORD97":2542588.4700000002,"ADDRESS":"大同路一段２４１巷６弄３０號五樓","OBJECTID":13550},"geometry":{"x":169222.94000000134,"y":2542588.4700000025}},{"attributes":{"ID":13551,"DIS_CODE":0,"TOWNNAME":"東區","LI":"大同里","LIN":"24鄰","STREET":"大同路","SECT":"一段","MAREA":" ","LANE":"２４１巷","ALLEY":"６弄","HOUSE_NO":"３０號六樓","E_COORD97":169222.94,"N_COORD97":2542588.4700000002,"ADDRESS":"大同路一段２４１巷６弄３０號六樓","OBJECTID":13551},"geometry":{"x":169222.94000000134,"y":2542588.4700000025}},{"attributes":{"ID":13552,"DIS_CODE":0,"TOWNNAME":"東區","LI":"大同里","LIN":"24鄰","STREET":"大同路","SECT":"一段","MAREA":" ","LANE":"２４１巷","ALLEY":"６弄","HOUSE_NO":"３０號四樓","E_COORD97":169222.94,"N_COORD97":2542588.4700000002,"ADDRESS":"大同路一段２４１巷６弄３０號四樓","OBJECTID":13552},"geometry":{"x":169222.94000000134,"y":2542588.4700000025}},{"attributes":{"ID":13553,"DIS_CODE":0,"TOWNNAME":"東區","LI":"大同里","LIN":"24鄰","STREET":"大同路","SECT":"一段","MAREA":" ","LANE":"２４１巷","ALLEY":"６弄","HOUSE_NO":"３２號三樓","E_COORD97":169219.69,"N_COORD97":2542584.8900000001,"ADDRESS":"大同路一段２４１巷６弄３２號三樓","OBJECTID":13553},"geometry":{"x":169219.69000000134,"y":2542584.8900000043}},{"attributes":{"ID":13554,"DIS_CODE":0,"TOWNNAME":"永康區","LI":"北灣里","LIN":"24鄰","STREET":"大灣路","SECT":" ","MAREA":" ","LANE":"３７巷","ALLEY":"８弄","HOUSE_NO":"７號","E_COORD97":175376.20999999999,"N_COORD97":2545829.5,"ADDRESS":"大灣路３７巷８弄７號","OBJECTID":13554},"geometry":{"x":175376.21000000089,"y":2545829.5000000019}},{"attributes":{"ID":13555,"DIS_CODE":0,"TOWNNAME":"東區","LI":"大同里","LIN":"24鄰","STREET":"大同路","SECT":"一段","MAREA":" ","LANE":"２４１巷","ALLEY":"６弄","HOUSE_NO":"３２號五樓","E_COORD97":169219.69,"N_COORD97":2542584.8900000001,"ADDRESS":"大同路一段２４１巷６弄３２號五樓","OBJECTID":13555},"geometry":{"x":169219.69000000134,"y":2542584.8900000043}},{"attributes":{"ID":13556,"DIS_CODE":0,"TOWNNAME":"東區","LI":"大同里","LIN":"24鄰","STREET":"大同路","SECT":"一段","MAREA":" ","LANE":"２４１巷","ALLEY":"６弄","HOUSE_NO":"３２號六樓","E_COORD97":169219.69,"N_COORD97":2542584.8900000001,"ADDRESS":"大同路一段２４１巷６弄３２號六樓","OBJECTID":13556},"geometry":{"x":169219.69000000134,"y":2542584.8900000043}},{"attributes":{"ID":13557,"DIS_CODE":0,"TOWNNAME":"東區","LI":"大同里","LIN":"24鄰","STREET":"大同路","SECT":"一段","MAREA":" ","LANE":"２４１巷","ALLEY":"６弄","HOUSE_NO":"３２號四樓","E_COORD97":169219.69,"N_COORD97":2542584.8900000001,"ADDRESS":"大同路一段２４１巷６弄３２號四樓","OBJECTID":13557},"geometry":{"x":169219.69000000134,"y":2542584.8900000043}},{"attributes":{"ID":13558,"DIS_CODE":0,"TOWNNAME":"東區","LI":"大同里","LIN":"24鄰","STREET":"大同路","SECT":"一段","MAREA":" ","LANE":"２４１巷","ALLEY":"６弄","HOUSE_NO":"３４號三樓","E_COORD97":169218.84,"N_COORD97":2542579.25,"ADDRESS":"大同路一段２４１巷６弄３４號三樓","OBJECTID":13558},"geometry":{"x":169218.83999999985,"y":2542579.2500000019}},{"attributes":{"ID":13559,"DIS_CODE":0,"TOWNNAME":"東區","LI":"富強里","LIN":"28鄰","STREET":"東門路","SECT":"二段","MAREA":" ","LANE":"３６５巷","ALLEY":"３４弄","HOUSE_NO":"９號三樓","E_COORD97":170903.78,"N_COORD97":2542690.8300000001,"ADDRESS":"東門路二段３６５巷３４弄９號三樓","OBJECTID":13559},"geometry":{"x":170903.78000000119,"y":2542690.8300000019}},{"attributes":{"ID":13560,"DIS_CODE":0,"TOWNNAME":"東區","LI":"後甲里","LIN":"34鄰","STREET":" ","SECT":" ","MAREA":"精忠三村","LANE":" ","ALLEY":" ","HOUSE_NO":"１號之３６","E_COORD97":171749.73000000001,"N_COORD97":2543587.2999999998,"ADDRESS":"精忠三村１號之３６","OBJECTID":13560},"geometry":{"x":171749.73000000045,"y":2543587.3000000026}},{"attributes":{"ID":13561,"DIS_CODE":0,"TOWNNAME":"東區","LI":"後甲里","LIN":"34鄰","STREET":" ","SECT":" ","MAREA":"精忠三村","LANE":" ","ALLEY":" ","HOUSE_NO":"１號之３５","E_COORD97":171749.51999999999,"N_COORD97":2543585.6000000001,"ADDRESS":"精忠三村１號之３５","OBJECTID":13561},"geometry":{"x":171749.52000000048,"y":2543585.5999999978}},{"attributes":{"ID":13562,"DIS_CODE":0,"TOWNNAME":"東區","LI":"後甲里","LIN":"34鄰","STREET":" ","SECT":" ","MAREA":"精忠三村","LANE":" ","ALLEY":" ","HOUSE_NO":"１號之３４","E_COORD97":171749.09,"N_COORD97":2543582.1099999999,"ADDRESS":"精忠三村１號之３４","OBJECTID":13562},"geometry":{"x":171749.09000000078,"y":2543582.1100000031}},{"attributes":{"ID":13563,"DIS_CODE":0,"TOWNNAME":"東區","LI":"後甲里","LIN":"34鄰","STREET":" ","SECT":" ","MAREA":"精忠三村","LANE":" ","ALLEY":" ","HOUSE_NO":"１號之３３","E_COORD97":171749.09,"N_COORD97":2543578.9300000002,"ADDRESS":"精忠三村１號之３３","OBJECTID":13563},"geometry":{"x":171749.09000000078,"y":2543578.9299999997}},{"attributes":{"ID":13564,"DIS_CODE":0,"TOWNNAME":"東區","LI":"大同里","LIN":"24鄰","STREET":"大同路","SECT":"一段","MAREA":" ","LANE":"２４１巷","ALLEY":"６弄","HOUSE_NO":"３４號五樓","E_COORD97":169218.84,"N_COORD97":2542579.25,"ADDRESS":"大同路一段２４１巷６弄３４號五樓","OBJECTID":13564},"geometry":{"x":169218.83999999985,"y":2542579.2500000019}},{"attributes":{"ID":13565,"DIS_CODE":0,"TOWNNAME":"東區","LI":"大同里","LIN":"24鄰","STREET":"大同路","SECT":"一段","MAREA":" ","LANE":"２４１巷","ALLEY":"６弄","HOUSE_NO":"３４號六樓","E_COORD97":169218.84,"N_COORD97":2542579.25,"ADDRESS":"大同路一段２４１巷６弄３４號六樓","OBJECTID":13565},"geometry":{"x":169218.83999999985,"y":2542579.2500000019}},{"attributes":{"ID":13566,"DIS_CODE":0,"TOWNNAME":"東區","LI":"大同里","LIN":"24鄰","STREET":"大同路","SECT":"一段","MAREA":" ","LANE":"２４１巷","ALLEY":"６弄","HOUSE_NO":"３４號四樓","E_COORD97":169218.84,"N_COORD97":2542579.25,"ADDRESS":"大同路一段２４１巷６弄３４號四樓","OBJECTID":13566},"geometry":{"x":169218.83999999985,"y":2542579.2500000019}},{"attributes":{"ID":13567,"DIS_CODE":0,"TOWNNAME":"東區","LI":"大同里","LIN":"24鄰","STREET":"大同路","SECT":"一段","MAREA":" ","LANE":"２４１巷","ALLEY":"６弄","HOUSE_NO":"３６號二樓","E_COORD97":169221.79000000001,"N_COORD97":2542574.1499999999,"ADDRESS":"大同路一段２４１巷６弄３６號二樓","OBJECTID":13567},"geometry":{"x":169221.7900000019,"y":2542574.1500000022}},{"attributes":{"ID":13568,"DIS_CODE":0,"TOWNNAME":"東區","LI":"大同里","LIN":"24鄰","STREET":"大同路","SECT":"一段","MAREA":" ","LANE":"２４１巷","ALLEY":"６弄","HOUSE_NO":"３６號三樓","E_COORD97":169221.79000000001,"N_COORD97":2542574.1499999999,"ADDRESS":"大同路一段２４１巷６弄３６號三樓","OBJECTID":13568},"geometry":{"x":169221.7900000019,"y":2542574.1500000022}},{"attributes":{"ID":13569,"DIS_CODE":0,"TOWNNAME":"東區","LI":"大同里","LIN":"24鄰","STREET":"大同路","SECT":"一段","MAREA":" ","LANE":"２４１巷","ALLEY":"６弄","HOUSE_NO":"３６號五樓","E_COORD97":169221.79000000001,"N_COORD97":2542574.1499999999,"ADDRESS":"大同路一段２４１巷６弄３６號五樓","OBJECTID":13569},"geometry":{"x":169221.7900000019,"y":2542574.1500000022}},{"attributes":{"ID":13570,"DIS_CODE":0,"TOWNNAME":"仁德區","LI":"後壁里","LIN":"12鄰","STREET":"德南路","SECT":" ","MAREA":" ","LANE":"２５１巷","ALLEY":"２９弄","HOUSE_NO":"２２號","E_COORD97":173814.89635900001,"N_COORD97":2538517.6922900002,"ADDRESS":"德南路２５１巷２９弄２２號","OBJECTID":13570},"geometry":{"x":173814.89635900129,"y":2538517.6922880001}},{"attributes":{"ID":13571,"DIS_CODE":0,"TOWNNAME":"東區","LI":"大同里","LIN":"24鄰","STREET":"大同路","SECT":"一段","MAREA":" ","LANE":"２４１巷","ALLEY":"６弄","HOUSE_NO":"３６號六樓","E_COORD97":169221.79000000001,"N_COORD97":2542574.1499999999,"ADDRESS":"大同路一段２４１巷６弄３６號六樓","OBJECTID":13571},"geometry":{"x":169221.7900000019,"y":2542574.1500000022}},{"attributes":{"ID":13572,"DIS_CODE":0,"TOWNNAME":"東區","LI":"大同里","LIN":"24鄰","STREET":"大同路","SECT":"一段","MAREA":" ","LANE":"２４１巷","ALLEY":"６弄","HOUSE_NO":"３６號四樓","E_COORD97":169221.79000000001,"N_COORD97":2542574.1499999999,"ADDRESS":"大同路一段２４１巷６弄３６號四樓","OBJECTID":13572},"geometry":{"x":169221.7900000019,"y":2542574.1500000022}},{"attributes":{"ID":13573,"DIS_CODE":0,"TOWNNAME":"東區","LI":"大同里","LIN":"24鄰","STREET":"大同路","SECT":"一段","MAREA":" ","LANE":"２４１巷","ALLEY":"６弄","HOUSE_NO":"３８號二樓","E_COORD97":169229.64000000001,"N_COORD97":2542563.02,"ADDRESS":"大同路一段２４１巷６弄３８號二樓","OBJECTID":13573},"geometry":{"x":169229.6400000006,"y":2542563.0200000014}},{"attributes":{"ID":13574,"DIS_CODE":0,"TOWNNAME":"東區","LI":"大同里","LIN":"24鄰","STREET":"大同路","SECT":"一段","MAREA":" ","LANE":"２４１巷","ALLEY":"６弄","HOUSE_NO":"３８號三樓","E_COORD97":169229.64000000001,"N_COORD97":2542563.02,"ADDRESS":"大同路一段２４１巷６弄３８號三樓","OBJECTID":13574},"geometry":{"x":169229.6400000006,"y":2542563.0200000014}},{"attributes":{"ID":13575,"DIS_CODE":0,"TOWNNAME":"東區","LI":"大同里","LIN":"24鄰","STREET":"大同路","SECT":"一段","MAREA":" ","LANE":"２４１巷","ALLEY":"６弄","HOUSE_NO":"３８號五樓","E_COORD97":169229.64000000001,"N_COORD97":2542563.02,"ADDRESS":"大同路一段２４１巷６弄３８號五樓","OBJECTID":13575},"geometry":{"x":169229.6400000006,"y":2542563.0200000014}},{"attributes":{"ID":13576,"DIS_CODE":0,"TOWNNAME":"東區","LI":"大同里","LIN":"24鄰","STREET":"大同路","SECT":"一段","MAREA":" ","LANE":"２４１巷","ALLEY":"６弄","HOUSE_NO":"３８號六樓","E_COORD97":169229.64000000001,"N_COORD97":2542563.02,"ADDRESS":"大同路一段２４１巷６弄３８號六樓","OBJECTID":13576},"geometry":{"x":169229.6400000006,"y":2542563.0200000014}},{"attributes":{"ID":13577,"DIS_CODE":0,"TOWNNAME":"東區","LI":"大同里","LIN":"24鄰","STREET":"大同路","SECT":"一段","MAREA":" ","LANE":"２４１巷","ALLEY":"６弄","HOUSE_NO":"３８號四樓","E_COORD97":169229.64000000001,"N_COORD97":2542563.02,"ADDRESS":"大同路一段２４１巷６弄３８號四樓","OBJECTID":13577},"geometry":{"x":169229.6400000006,"y":2542563.0200000014}},{"attributes":{"ID":13578,"DIS_CODE":0,"TOWNNAME":"東區","LI":"大同里","LIN":"24鄰","STREET":"大同路","SECT":"一段","MAREA":" ","LANE":"２４１巷","ALLEY":"６弄","HOUSE_NO":"４０號二樓","E_COORD97":169224.5,"N_COORD97":2542571.8500000001,"ADDRESS":"大同路一段２４１巷６弄４０號二樓","OBJECTID":13578},"geometry":{"x":169224.5,"y":2542571.8500000015}},{"attributes":{"ID":13579,"DIS_CODE":0,"TOWNNAME":"東區","LI":"大同里","LIN":"24鄰","STREET":"大同路","SECT":"一段","MAREA":" ","LANE":"２４１巷","ALLEY":"６弄","HOUSE_NO":"４０號三樓","E_COORD97":169224.5,"N_COORD97":2542571.8500000001,"ADDRESS":"大同路一段２４１巷６弄４０號三樓","OBJECTID":13579},"geometry":{"x":169224.5,"y":2542571.8500000015}},{"attributes":{"ID":13580,"DIS_CODE":0,"TOWNNAME":"東區","LI":"大同里","LIN":"24鄰","STREET":"大同路","SECT":"一段","MAREA":" ","LANE":"２４１巷","ALLEY":"６弄","HOUSE_NO":"４０號五樓","E_COORD97":169224.5,"N_COORD97":2542571.8500000001,"ADDRESS":"大同路一段２４１巷６弄４０號五樓","OBJECTID":13580},"geometry":{"x":169224.5,"y":2542571.8500000015}},{"attributes":{"ID":13581,"DIS_CODE":0,"TOWNNAME":"東區","LI":"大同里","LIN":"24鄰","STREET":"大同路","SECT":"一段","MAREA":" ","LANE":"２４１巷","ALLEY":"６弄","HOUSE_NO":"４０號六樓","E_COORD97":169224.5,"N_COORD97":2542571.8500000001,"ADDRESS":"大同路一段２４１巷６弄４０號六樓","OBJECTID":13581},"geometry":{"x":169224.5,"y":2542571.8500000015}},{"attributes":{"ID":13582,"DIS_CODE":0,"TOWNNAME":"東區","LI":"大同里","LIN":"24鄰","STREET":"大同路","SECT":"一段","MAREA":" ","LANE":"２４１巷","ALLEY":"６弄","HOUSE_NO":"４０號四樓","E_COORD97":169224.5,"N_COORD97":2542571.8500000001,"ADDRESS":"大同路一段２４１巷６弄４０號四樓","OBJECTID":13582},"geometry":{"x":169224.5,"y":2542571.8500000015}},{"attributes":{"ID":13583,"DIS_CODE":0,"TOWNNAME":"東區","LI":"大同里","LIN":"24鄰","STREET":"大同路","SECT":"一段","MAREA":" ","LANE":"２４１巷","ALLEY":"６弄","HOUSE_NO":"４２號三樓","E_COORD97":169233.95999999999,"N_COORD97":2542576.1600000001,"ADDRESS":"大同路一段２４１巷６弄４２號三樓","OBJECTID":13583},"geometry":{"x":169233.95999999903,"y":2542576.160000002}},{"attributes":{"ID":13584,"DIS_CODE":0,"TOWNNAME":"東區","LI":"大同里","LIN":"24鄰","STREET":"大同路","SECT":"一段","MAREA":" ","LANE":"２４１巷","ALLEY":"６弄","HOUSE_NO":"４２號五樓","E_COORD97":169233.95999999999,"N_COORD97":2542576.1600000001,"ADDRESS":"大同路一段２４１巷６弄４２號五樓","OBJECTID":13584},"geometry":{"x":169233.95999999903,"y":2542576.160000002}},{"attributes":{"ID":13585,"DIS_CODE":0,"TOWNNAME":"東區","LI":"大同里","LIN":"24鄰","STREET":"大同路","SECT":"一段","MAREA":" ","LANE":"２４１巷","ALLEY":"６弄","HOUSE_NO":"４２號六樓","E_COORD97":169233.95999999999,"N_COORD97":2542576.1600000001,"ADDRESS":"大同路一段２４１巷６弄４２號六樓","OBJECTID":13585},"geometry":{"x":169233.95999999903,"y":2542576.160000002}},{"attributes":{"ID":13586,"DIS_CODE":0,"TOWNNAME":"東區","LI":"大同里","LIN":"24鄰","STREET":"大同路","SECT":"一段","MAREA":" ","LANE":"２４１巷","ALLEY":"６弄","HOUSE_NO":"４２號四樓","E_COORD97":169233.95999999999,"N_COORD97":2542576.1600000001,"ADDRESS":"大同路一段２４１巷６弄４２號四樓","OBJECTID":13586},"geometry":{"x":169233.95999999903,"y":2542576.160000002}},{"attributes":{"ID":13587,"DIS_CODE":0,"TOWNNAME":"東區","LI":"大同里","LIN":"24鄰","STREET":"大同路","SECT":"一段","MAREA":" ","LANE":"２４１巷","ALLEY":"６弄","HOUSE_NO":"４４號三樓","E_COORD97":169238.26999999999,"N_COORD97":2542578.2200000002,"ADDRESS":"大同路一段２４１巷６弄４４號三樓","OBJECTID":13587},"geometry":{"x":169238.27000000142,"y":2542578.2200000007}},{"attributes":{"ID":13588,"DIS_CODE":0,"TOWNNAME":"東區","LI":"大同里","LIN":"24鄰","STREET":"大同路","SECT":"一段","MAREA":" ","LANE":"２４１巷","ALLEY":"６弄","HOUSE_NO":"４４號五樓","E_COORD97":169238.26999999999,"N_COORD97":2542578.2200000002,"ADDRESS":"大同路一段２４１巷６弄４４號五樓","OBJECTID":13588},"geometry":{"x":169238.27000000142,"y":2542578.2200000007}},{"attributes":{"ID":13589,"DIS_CODE":0,"TOWNNAME":"東區","LI":"大同里","LIN":"24鄰","STREET":"大同路","SECT":"一段","MAREA":" ","LANE":"２４１巷","ALLEY":"６弄","HOUSE_NO":"４４號六樓","E_COORD97":169238.26999999999,"N_COORD97":2542578.2200000002,"ADDRESS":"大同路一段２４１巷６弄４４號六樓","OBJECTID":13589},"geometry":{"x":169238.27000000142,"y":2542578.2200000007}},{"attributes":{"ID":13590,"DIS_CODE":0,"TOWNNAME":"東區","LI":"和平里","LIN":"20鄰","STREET":"文化六街","SECT":" ","MAREA":" ","LANE":" ","ALLEY":" ","HOUSE_NO":"３０號","E_COORD97":171266.10999999999,"N_COORD97":2541673.8900000001,"ADDRESS":"文化六街３０號","OBJECTID":13590},"geometry":{"x":171266.11000000127,"y":2541673.8900000025}},{"attributes":{"ID":13591,"DIS_CODE":0,"TOWNNAME":"東區","LI":"大同里","LIN":"24鄰","STREET":"大同路","SECT":"一段","MAREA":" ","LANE":"２４１巷","ALLEY":"６弄","HOUSE_NO":"４４號四樓","E_COORD97":169238.26999999999,"N_COORD97":2542578.2200000002,"ADDRESS":"大同路一段２４１巷６弄４４號四樓","OBJECTID":13591},"geometry":{"x":169238.27000000142,"y":2542578.2200000007}},{"attributes":{"ID":13592,"DIS_CODE":0,"TOWNNAME":"東區","LI":"大同里","LIN":"24鄰","STREET":"大同路","SECT":"一段","MAREA":" ","LANE":"２４１巷","ALLEY":"６弄","HOUSE_NO":"４６號三樓","E_COORD97":169242.59,"N_COORD97":2542579.6499999999,"ADDRESS":"大同路一段２４１巷６弄４６號三樓","OBJECTID":13592},"geometry":{"x":169242.58999999985,"y":2542579.6500000022}},{"attributes":{"ID":13593,"DIS_CODE":0,"TOWNNAME":"東區","LI":"大同里","LIN":"24鄰","STREET":"大同路","SECT":"一段","MAREA":" ","LANE":"２４１巷","ALLEY":"６弄","HOUSE_NO":"４６號五樓","E_COORD97":169242.59,"N_COORD97":2542579.6499999999,"ADDRESS":"大同路一段２４１巷６弄４６號五樓","OBJECTID":13593},"geometry":{"x":169242.58999999985,"y":2542579.6500000022}},{"attributes":{"ID":13594,"DIS_CODE":0,"TOWNNAME":"東區","LI":"大同里","LIN":"24鄰","STREET":"大同路","SECT":"一段","MAREA":" ","LANE":"２４１巷","ALLEY":"６弄","HOUSE_NO":"４６號六樓","E_COORD97":169242.59,"N_COORD97":2542579.6499999999,"ADDRESS":"大同路一段２４１巷６弄４６號六樓","OBJECTID":13594},"geometry":{"x":169242.58999999985,"y":2542579.6500000022}},{"attributes":{"ID":13595,"DIS_CODE":0,"TOWNNAME":"東區","LI":"大同里","LIN":"24鄰","STREET":"大同路","SECT":"一段","MAREA":" ","LANE":"２４１巷","ALLEY":"６弄","HOUSE_NO":"４６號四樓","E_COORD97":169242.59,"N_COORD97":2542579.6499999999,"ADDRESS":"大同路一段２４１巷６弄４６號四樓","OBJECTID":13595},"geometry":{"x":169242.58999999985,"y":2542579.6500000022}},{"attributes":{"ID":13596,"DIS_CODE":0,"TOWNNAME":"東區","LI":"大同里","LIN":"24鄰","STREET":"大同路","SECT":"一段","MAREA":" ","LANE":"２４１巷","ALLEY":"６弄","HOUSE_NO":"４８號三樓","E_COORD97":169246.29000000001,"N_COORD97":2542582.5299999998,"ADDRESS":"大同路一段２４１巷６弄４８號三樓","OBJECTID":13596},"geometry":{"x":169246.29000000004,"y":2542582.5300000031}},{"attributes":{"ID":13597,"DIS_CODE":0,"TOWNNAME":"東區","LI":"大同里","LIN":"24鄰","STREET":"大同路","SECT":"一段","MAREA":" ","LANE":"２４１巷","ALLEY":"６弄","HOUSE_NO":"４８號五樓","E_COORD97":169246.29000000001,"N_COORD97":2542582.5299999998,"ADDRESS":"大同路一段２４１巷６弄４８號五樓","OBJECTID":13597},"geometry":{"x":169246.29000000004,"y":2542582.5300000031}},{"attributes":{"ID":13598,"DIS_CODE":0,"TOWNNAME":"東區","LI":"大同里","LIN":"24鄰","STREET":"大同路","SECT":"一段","MAREA":" ","LANE":"２４１巷","ALLEY":"６弄","HOUSE_NO":"４８號六樓","E_COORD97":169246.29000000001,"N_COORD97":2542582.5299999998,"ADDRESS":"大同路一段２４１巷６弄４８號六樓","OBJECTID":13598},"geometry":{"x":169246.29000000004,"y":2542582.5300000031}},{"attributes":{"ID":13599,"DIS_CODE":0,"TOWNNAME":"東區","LI":"大同里","LIN":"24鄰","STREET":"大同路","SECT":"一段","MAREA":" ","LANE":"２４１巷","ALLEY":"６弄","HOUSE_NO":"４８號四樓","E_COORD97":169246.29000000001,"N_COORD97":2542582.5299999998,"ADDRESS":"大同路一段２４１巷６弄４８號四樓","OBJECTID":13599},"geometry":{"x":169246.29000000004,"y":2542582.5300000031}},{"attributes":{"ID":13600,"DIS_CODE":0,"TOWNNAME":"東區","LI":"大同里","LIN":"24鄰","STREET":"大同路","SECT":"一段","MAREA":" ","LANE":"２４１巷","ALLEY":"６弄","HOUSE_NO":"４號二樓","E_COORD97":169168.51999999999,"N_COORD97":2542630.5099999998,"ADDRESS":"大同路一段２４１巷６弄４號二樓","OBJECTID":13600},"geometry":{"x":169168.51999999955,"y":2542630.5100000035}}]}