{"displayFieldName":"TOWNNAME","fieldAliases":{"ID":"ID","DIS_CODE":"DIS_CODE","TOWNNAME":"TOWNNAME","LI":"LI","LIN":"LIN","STREET":"STREET","SECT":"SECT","MAREA":"MAREA","LANE":"LANE","ALLEY":"ALLEY","HOUSE_NO":"HOUSE_NO","E_COORD97":"E_COORD97","N_COORD97":"N_COORD97","ADDRESS":"ADDRESS","OBJECTID":"OBJECTID"},"geometryType":"esriGeometryPoint","spatialReference":{"wkid":102443,"latestWkid":3826},"fields":[{"name":"ID","type":"esriFieldTypeDouble","alias":"ID"},{"name":"DIS_CODE","type":"esriFieldTypeInteger","alias":"DIS_CODE"},{"name":"TOWNNAME","type":"esriFieldTypeString","alias":"TOWNNAME","length":8},{"name":"LI","type":"esriFieldTypeString","alias":"LI","length":8},{"name":"LIN","type":"esriFieldTypeString","alias":"LIN","length":12},{"name":"STREET","type":"esriFieldTypeString","alias":"STREET","length":20},{"name":"SECT","type":"esriFieldTypeString","alias":"SECT","length":8},{"name":"MAREA","type":"esriFieldTypeString","alias":"MAREA","length":12},{"name":"LANE","type":"esriFieldTypeString","alias":"LANE","length":10},{"name":"ALLEY","type":"esriFieldTypeString","alias":"ALLEY","length":10},{"name":"HOUSE_NO","type":"esriFieldTypeString","alias":"HOUSE_NO","length":20},{"name":"E_COORD97","type":"esriFieldTypeDouble","alias":"E_COORD97"},{"name":"N_COORD97","type":"esriFieldTypeDouble","alias":"N_COORD97"},{"name":"ADDRESS","type":"esriFieldTypeString","alias":"ADDRESS","length":50},{"name":"OBJECTID","type":"esriFieldTypeOID","alias":"OBJECTID"}],"features":[{"attributes":{"ID":610428,"DIS_CODE":0,"TOWNNAME":"東區","LI":"崇德里","LIN":"3鄰","STREET":"崇德六街","SECT":" ","MAREA":" ","LANE":" ","ALLEY":" ","HOUSE_NO":"５５號","E_COORD97":170780.32000000001,"N_COORD97":2541824.4100000001,"ADDRESS":"崇德六街５５號","OBJECTID":610401},"geometry":{"x":170780.32000000123,"y":2541824.4099999983}},{"attributes":{"ID":610429,"DIS_CODE":0,"TOWNNAME":"東區","LI":"崇德里","LIN":"3鄰","STREET":"崇德六街","SECT":" ","MAREA":" ","LANE":" ","ALLEY":" ","HOUSE_NO":"５７號","E_COORD97":170783.09,"N_COORD97":2541827.73,"ADDRESS":"崇德六街５７號","OBJECTID":610402},"geometry":{"x":170783.09000000078,"y":2541827.7300000023}},{"attributes":{"ID":610430,"DIS_CODE":0,"TOWNNAME":"東區","LI":"崇德里","LIN":"3鄰","STREET":"崇德六街","SECT":" ","MAREA":" ","LANE":" ","ALLEY":" ","HOUSE_NO":"５９號","E_COORD97":170787.14000000001,"N_COORD97":2541831.7799999998,"ADDRESS":"崇德六街５９號","OBJECTID":610403},"geometry":{"x":170787.1400000006,"y":2541831.7800000012}},{"attributes":{"ID":610431,"DIS_CODE":0,"TOWNNAME":"東區","LI":"崇德里","LIN":"3鄰","STREET":"崇德六街","SECT":" ","MAREA":" ","LANE":" ","ALLEY":" ","HOUSE_NO":"６５號","E_COORD97":170796.82000000001,"N_COORD97":2541841.5600000001,"ADDRESS":"崇德六街６５號","OBJECTID":610404},"geometry":{"x":170796.82000000123,"y":2541841.5600000024}},{"attributes":{"ID":610432,"DIS_CODE":0,"TOWNNAME":"東區","LI":"崇德里","LIN":"3鄰","STREET":"崇德六街","SECT":" ","MAREA":" ","LANE":" ","ALLEY":" ","HOUSE_NO":"６７號","E_COORD97":170800.06,"N_COORD97":2541844.5,"ADDRESS":"崇德六街６７號","OBJECTID":610405},"geometry":{"x":170800.06000000052,"y":2541844.5000000037}},{"attributes":{"ID":610433,"DIS_CODE":0,"TOWNNAME":"東區","LI":"崇德里","LIN":"3鄰","STREET":"崇德六街","SECT":" ","MAREA":" ","LANE":" ","ALLEY":" ","HOUSE_NO":"７５號","E_COORD97":170812.28,"N_COORD97":2541859.6499999999,"ADDRESS":"崇德六街７５號","OBJECTID":610406},"geometry":{"x":170812.28000000119,"y":2541859.6500000004}},{"attributes":{"ID":610434,"DIS_CODE":0,"TOWNNAME":"東區","LI":"崇德里","LIN":"3鄰","STREET":"崇德六街","SECT":" ","MAREA":" ","LANE":" ","ALLEY":" ","HOUSE_NO":"７７號","E_COORD97":170814.48999999999,"N_COORD97":2541863.3300000001,"ADDRESS":"崇德六街７７號","OBJECTID":610407},"geometry":{"x":170814.49000000115,"y":2541863.3300000019}},{"attributes":{"ID":610435,"DIS_CODE":0,"TOWNNAME":"東區","LI":"崇德里","LIN":"3鄰","STREET":"崇德六街","SECT":" ","MAREA":" ","LANE":" ","ALLEY":" ","HOUSE_NO":"７９號","E_COORD97":170817.42999999999,"N_COORD97":2541865.5299999998,"ADDRESS":"崇德六街７９號","OBJECTID":610408},"geometry":{"x":170817.43000000063,"y":2541865.5299999993}},{"attributes":{"ID":610436,"DIS_CODE":0,"TOWNNAME":"東區","LI":"崇德里","LIN":"3鄰","STREET":"崇德六街","SECT":" ","MAREA":" ","LANE":" ","ALLEY":" ","HOUSE_NO":"８１號","E_COORD97":170819.64000000001,"N_COORD97":2541868.9100000001,"ADDRESS":"崇德六街８１號","OBJECTID":610409},"geometry":{"x":170819.6400000006,"y":2541868.9100000039}},{"attributes":{"ID":610437,"DIS_CODE":0,"TOWNNAME":"東區","LI":"崇德里","LIN":"3鄰","STREET":"崇德六街","SECT":" ","MAREA":" ","LANE":" ","ALLEY":" ","HOUSE_NO":"８３號","E_COORD97":170822.14000000001,"N_COORD97":2541872.8900000001,"ADDRESS":"崇德六街８３號","OBJECTID":610410},"geometry":{"x":170822.13999999966,"y":2541872.8900000043}},{"attributes":{"ID":610438,"DIS_CODE":0,"TOWNNAME":"東區","LI":"崇德里","LIN":"3鄰","STREET":"崇德六街","SECT":" ","MAREA":" ","LANE":" ","ALLEY":" ","HOUSE_NO":"８５號","E_COORD97":170825.09,"N_COORD97":2541875.8300000001,"ADDRESS":"崇德六街８５號","OBJECTID":610411},"geometry":{"x":170825.09000000078,"y":2541875.8299999982}},{"attributes":{"ID":610439,"DIS_CODE":0,"TOWNNAME":"東區","LI":"崇德里","LIN":"3鄰","STREET":"崇德六街","SECT":" ","MAREA":" ","LANE":" ","ALLEY":" ","HOUSE_NO":"８７號","E_COORD97":170827.44,"N_COORD97":2541879.0600000001,"ADDRESS":"崇德六街８７號","OBJECTID":610412},"geometry":{"x":170827.44000000041,"y":2541879.0600000024}},{"attributes":{"ID":610440,"DIS_CODE":0,"TOWNNAME":"東區","LI":"崇德里","LIN":"3鄰","STREET":"崇德六街","SECT":" ","MAREA":" ","LANE":" ","ALLEY":" ","HOUSE_NO":"８９號","E_COORD97":170830.67999999999,"N_COORD97":2541882.4500000002,"ADDRESS":"崇德六街８９號","OBJECTID":610413},"geometry":{"x":170830.6799999997,"y":2541882.4500000011}},{"attributes":{"ID":610441,"DIS_CODE":0,"TOWNNAME":"東區","LI":"崇德里","LIN":"3鄰","STREET":"崇德六街","SECT":" ","MAREA":" ","LANE":" ","ALLEY":" ","HOUSE_NO":"９３號","E_COORD97":170849.92000000001,"N_COORD97":2541890.52,"ADDRESS":"崇德六街９３號","OBJECTID":610414},"geometry":{"x":170849.92000000179,"y":2541890.5199999996}},{"attributes":{"ID":610442,"DIS_CODE":0,"TOWNNAME":"東區","LI":"崇德里","LIN":"3鄰","STREET":"崇德路","SECT":" ","MAREA":" ","LANE":" ","ALLEY":" ","HOUSE_NO":"４４９號","E_COORD97":170635.70999999999,"N_COORD97":2541754.6600000001,"ADDRESS":"崇德路４４９號","OBJECTID":610415},"geometry":{"x":170635.70999999996,"y":2541754.6600000001}},{"attributes":{"ID":610443,"DIS_CODE":0,"TOWNNAME":"東區","LI":"崇德里","LIN":"3鄰","STREET":"崇德路","SECT":" ","MAREA":" ","LANE":" ","ALLEY":" ","HOUSE_NO":"４５７號","E_COORD97":170651.53,"N_COORD97":2541743.1499999999,"ADDRESS":"崇德路４５７號","OBJECTID":610416},"geometry":{"x":170651.53000000119,"y":2541743.1500000022}},{"attributes":{"ID":610444,"DIS_CODE":0,"TOWNNAME":"東區","LI":"崇德里","LIN":"3鄰","STREET":"崇德路","SECT":" ","MAREA":" ","LANE":" ","ALLEY":" ","HOUSE_NO":"４６１號","E_COORD97":170658.64000000001,"N_COORD97":2541736.6200000001,"ADDRESS":"崇德路４６１號","OBJECTID":610417},"geometry":{"x":170658.6400000006,"y":2541736.6200000029}},{"attributes":{"ID":610445,"DIS_CODE":0,"TOWNNAME":"東區","LI":"崇德里","LIN":"3鄰","STREET":"崇德路","SECT":" ","MAREA":" ","LANE":" ","ALLEY":" ","HOUSE_NO":"４６３號","E_COORD97":170662.17000000001,"N_COORD97":2541733.8700000001,"ADDRESS":"崇德路４６３號","OBJECTID":610418},"geometry":{"x":170662.17000000086,"y":2541733.870000001}},{"attributes":{"ID":610446,"DIS_CODE":0,"TOWNNAME":"東區","LI":"崇德里","LIN":"3鄰","STREET":"崇德路","SECT":" ","MAREA":" ","LANE":" ","ALLEY":" ","HOUSE_NO":"４６５號","E_COORD97":170664.69,"N_COORD97":2541730.3500000001,"ADDRESS":"崇德路４６５號","OBJECTID":610419},"geometry":{"x":170664.69000000041,"y":2541730.3500000015}},{"attributes":{"ID":610447,"DIS_CODE":0,"TOWNNAME":"安南區","LI":"海佃里","LIN":"3鄰","STREET":"國安街","SECT":" ","MAREA":" ","LANE":" ","ALLEY":" ","HOUSE_NO":"１１６號","E_COORD97":166849.54000000001,"N_COORD97":2546994.1299999999,"ADDRESS":"國安街１１６號","OBJECTID":610420},"geometry":{"x":166849.54000000004,"y":2546994.129999999}},{"attributes":{"ID":610448,"DIS_CODE":0,"TOWNNAME":"安南區","LI":"海佃里","LIN":"3鄰","STREET":"國安街","SECT":" ","MAREA":" ","LANE":" ","ALLEY":" ","HOUSE_NO":"１１８號","E_COORD97":166844.22,"N_COORD97":2546994.1299999999,"ADDRESS":"國安街１１８號","OBJECTID":610421},"geometry":{"x":166844.22000000067,"y":2546994.129999999}},{"attributes":{"ID":610449,"DIS_CODE":0,"TOWNNAME":"安南區","LI":"海佃里","LIN":"3鄰","STREET":"國安街","SECT":" ","MAREA":" ","LANE":" ","ALLEY":" ","HOUSE_NO":"１２０號","E_COORD97":166838.89999999999,"N_COORD97":2546991.4700000002,"ADDRESS":"國安街１２０號","OBJECTID":610422},"geometry":{"x":166838.90000000037,"y":2546991.4699999988}},{"attributes":{"ID":610450,"DIS_CODE":0,"TOWNNAME":"安南區","LI":"海佃里","LIN":"3鄰","STREET":"國安街","SECT":" ","MAREA":" ","LANE":" ","ALLEY":" ","HOUSE_NO":"１２２號","E_COORD97":166833.57999999999,"N_COORD97":2546991.4700000002,"ADDRESS":"國安街１２２號","OBJECTID":610423},"geometry":{"x":166833.58000000101,"y":2546991.4699999988}},{"attributes":{"ID":610451,"DIS_CODE":0,"TOWNNAME":"安南區","LI":"海佃里","LIN":"3鄰","STREET":"國安街","SECT":" ","MAREA":" ","LANE":" ","ALLEY":" ","HOUSE_NO":"１２４號","E_COORD97":166828.26000000001,"N_COORD97":2546988.1499999999,"ADDRESS":"國安街１２４號","OBJECTID":610424},"geometry":{"x":166828.26000000071,"y":2546988.1500000022}},{"attributes":{"ID":610452,"DIS_CODE":0,"TOWNNAME":"麻豆區","LI":"中興里","LIN":"3鄰","STREET":"三民路","SECT":" ","MAREA":" ","LANE":" ","ALLEY":" ","HOUSE_NO":"２３號之３","E_COORD97":172801.88,"N_COORD97":2564633.8199999998,"ADDRESS":"三民路２３號之３","OBJECTID":610425},"geometry":{"x":172801.88000000082,"y":2564633.8200000022}},{"attributes":{"ID":610453,"DIS_CODE":0,"TOWNNAME":"麻豆區","LI":"油車里","LIN":"3鄰","STREET":"大同街","SECT":" ","MAREA":" ","LANE":" ","ALLEY":" ","HOUSE_NO":"１１號之１","E_COORD97":172815.76000000001,"N_COORD97":2565206.8399999999,"ADDRESS":"大同街１１號之１","OBJECTID":610426},"geometry":{"x":172815.76000000071,"y":2565206.8399999999}},{"attributes":{"ID":610454,"DIS_CODE":0,"TOWNNAME":"麻豆區","LI":"油車里","LIN":"3鄰","STREET":"大同街","SECT":" ","MAREA":" ","LANE":" ","ALLEY":" ","HOUSE_NO":"５號","E_COORD97":172769.01999999999,"N_COORD97":2565131.5899999999,"ADDRESS":"大同街５號","OBJECTID":610427},"geometry":{"x":172769.01999999955,"y":2565131.5899999999}},{"attributes":{"ID":610455,"DIS_CODE":0,"TOWNNAME":"麻豆區","LI":"油車里","LIN":"3鄰","STREET":"大同街","SECT":" ","MAREA":" ","LANE":" ","ALLEY":" ","HOUSE_NO":"９號之１","E_COORD97":172803.5,"N_COORD97":2565174.6800000002,"ADDRESS":"大同街９號之１","OBJECTID":610428},"geometry":{"x":172803.5,"y":2565174.6799999997}},{"attributes":{"ID":610456,"DIS_CODE":0,"TOWNNAME":"安南區","LI":"海佃里","LIN":"3鄰","STREET":"國安街","SECT":" ","MAREA":" ","LANE":" ","ALLEY":" ","HOUSE_NO":"１００號","E_COORD97":166889.44,"N_COORD97":2547002.77,"ADDRESS":"國安街１００號","OBJECTID":610429},"geometry":{"x":166889.44000000041,"y":2547002.7700000014}},{"attributes":{"ID":610457,"DIS_CODE":0,"TOWNNAME":"安南區","LI":"海佃里","LIN":"3鄰","STREET":"國安街","SECT":" ","MAREA":" ","LANE":" ","ALLEY":" ","HOUSE_NO":"１０４號","E_COORD97":166880.13,"N_COORD97":2546999.4500000002,"ADDRESS":"國安街１０４號","OBJECTID":610430},"geometry":{"x":166880.13000000082,"y":2546999.4499999993}},{"attributes":{"ID":610458,"DIS_CODE":0,"TOWNNAME":"安南區","LI":"海佃里","LIN":"3鄰","STREET":"國安街","SECT":" ","MAREA":" ","LANE":" ","ALLEY":" ","HOUSE_NO":"１０６號","E_COORD97":166875.48000000001,"N_COORD97":2546999.4500000002,"ADDRESS":"國安街１０６號","OBJECTID":610431},"geometry":{"x":166875.48000000138,"y":2546999.4499999993}},{"attributes":{"ID":610459,"DIS_CODE":0,"TOWNNAME":"安南區","LI":"海佃里","LIN":"3鄰","STREET":"國安街","SECT":" ","MAREA":" ","LANE":" ","ALLEY":" ","HOUSE_NO":"９４號","E_COORD97":166903.41,"N_COORD97":2547004.7599999998,"ADDRESS":"國安街９４號","OBJECTID":610432},"geometry":{"x":166903.41000000015,"y":2547004.7599999998}},{"attributes":{"ID":610460,"DIS_CODE":0,"TOWNNAME":"安南區","LI":"海佃里","LIN":"3鄰","STREET":"國安街","SECT":" ","MAREA":" ","LANE":" ","ALLEY":" ","HOUSE_NO":"９６號","E_COORD97":166898.75,"N_COORD97":2547002.77,"ADDRESS":"國安街９６號","OBJECTID":610433},"geometry":{"x":166898.75,"y":2547002.7700000014}},{"attributes":{"ID":610461,"DIS_CODE":0,"TOWNNAME":"安南區","LI":"海佃里","LIN":"3鄰","STREET":"國安街","SECT":" ","MAREA":" ","LANE":" ","ALLEY":" ","HOUSE_NO":"９８號","E_COORD97":166894.76000000001,"N_COORD97":2547002.77,"ADDRESS":"國安街９８號","OBJECTID":610434},"geometry":{"x":166894.76000000071,"y":2547002.7700000014}},{"attributes":{"ID":610462,"DIS_CODE":0,"TOWNNAME":"善化區","LI":"西關里","LIN":"3鄰","STREET":"中興路","SECT":" ","MAREA":" ","LANE":" ","ALLEY":" ","HOUSE_NO":"１８６號","E_COORD97":177187.01000000001,"N_COORD97":2559074.25,"ADDRESS":"中興路１８６號","OBJECTID":610435},"geometry":{"x":177187.00999999978,"y":2559074.25}},{"attributes":{"ID":610463,"DIS_CODE":0,"TOWNNAME":"善化區","LI":"西關里","LIN":"3鄰","STREET":"中華路","SECT":" ","MAREA":" ","LANE":" ","ALLEY":" ","HOUSE_NO":"１５１號","E_COORD97":177216.28,"N_COORD97":2559078,"ADDRESS":"中華路１５１號","OBJECTID":610436},"geometry":{"x":177216.28000000026,"y":2559078.0000000019}},{"attributes":{"ID":610464,"DIS_CODE":0,"TOWNNAME":"善化區","LI":"坐駕里","LIN":"3鄰","STREET":"中興路","SECT":" ","MAREA":" ","LANE":" ","ALLEY":" ","HOUSE_NO":"１６號","E_COORD97":177759.62,"N_COORD97":2559036.5,"ADDRESS":"中興路１６號","OBJECTID":610437},"geometry":{"x":177759.62000000011,"y":2559036.5}},{"attributes":{"ID":610465,"DIS_CODE":0,"TOWNNAME":"善化區","LI":"坐駕里","LIN":"3鄰","STREET":"中山路","SECT":" ","MAREA":" ","LANE":" ","ALLEY":" ","HOUSE_NO":"３３７號","E_COORD97":177739.79999999999,"N_COORD97":2559075.25,"ADDRESS":"中山路３３７號","OBJECTID":610438},"geometry":{"x":177739.80000000168,"y":2559075.25}},{"attributes":{"ID":610466,"DIS_CODE":0,"TOWNNAME":"善化區","LI":"坐駕里","LIN":"3鄰","STREET":"中興路","SECT":" ","MAREA":" ","LANE":" ","ALLEY":" ","HOUSE_NO":"１４號","E_COORD97":177761.44,"N_COORD97":2559009.5,"ADDRESS":"中興路１４號","OBJECTID":610439},"geometry":{"x":177761.44000000227,"y":2559009.4999999981}},{"attributes":{"ID":610467,"DIS_CODE":0,"TOWNNAME":"善化區","LI":"西關里","LIN":"3鄰","STREET":"中興路","SECT":" ","MAREA":" ","LANE":" ","ALLEY":" ","HOUSE_NO":"１９２號","E_COORD97":177163.88,"N_COORD97":2559069.75,"ADDRESS":"中興路１９２號","OBJECTID":610440},"geometry":{"x":177163.87999999989,"y":2559069.7500000019}},{"attributes":{"ID":610468,"DIS_CODE":0,"TOWNNAME":"善化區","LI":"南關里","LIN":"3鄰","STREET":"自由路","SECT":" ","MAREA":" ","LANE":" ","ALLEY":" ","HOUSE_NO":"１１０號","E_COORD97":177132.53,"N_COORD97":2558879,"ADDRESS":"自由路１１０號","OBJECTID":610441},"geometry":{"x":177132.53000000119,"y":2558879.0000000019}},{"attributes":{"ID":610469,"DIS_CODE":0,"TOWNNAME":"永康區","LI":"網寮里","LIN":"3鄰","STREET":"永和街","SECT":" ","MAREA":" ","LANE":" ","ALLEY":" ","HOUSE_NO":"１９１號","E_COORD97":173481.70999999999,"N_COORD97":2546515.3599999999,"ADDRESS":"永和街１９１號","OBJECTID":610442},"geometry":{"x":173481.70999999996,"y":2546515.3599999994}},{"attributes":{"ID":610470,"DIS_CODE":0,"TOWNNAME":"永康區","LI":"網寮里","LIN":"3鄰","STREET":"永和街","SECT":" ","MAREA":" ","LANE":" ","ALLEY":" ","HOUSE_NO":"２２８號","E_COORD97":173488.95999999999,"N_COORD97":2546559.5099999998,"ADDRESS":"永和街２２８號","OBJECTID":610443},"geometry":{"x":173488.96000000183,"y":2546559.5099999998}},{"attributes":{"ID":610471,"DIS_CODE":0,"TOWNNAME":"永康區","LI":"網寮里","LIN":"3鄰","STREET":"永和街","SECT":" ","MAREA":" ","LANE":" ","ALLEY":" ","HOUSE_NO":"１９９號","E_COORD97":173465.14000000001,"N_COORD97":2546523.1099999999,"ADDRESS":"永和街１９９號","OBJECTID":610444},"geometry":{"x":173465.13999999966,"y":2546523.1100000013}},{"attributes":{"ID":610472,"DIS_CODE":0,"TOWNNAME":"永康區","LI":"網寮里","LIN":"3鄰","STREET":"永和街","SECT":" ","MAREA":" ","LANE":" ","ALLEY":" ","HOUSE_NO":"２１５號","E_COORD97":173426.47,"N_COORD97":2546538.5699999998,"ADDRESS":"永和街２１５號","OBJECTID":610445},"geometry":{"x":173426.47000000067,"y":2546538.5700000003}},{"attributes":{"ID":610473,"DIS_CODE":0,"TOWNNAME":"永康區","LI":"網寮里","LIN":"3鄰","STREET":"永和街","SECT":" ","MAREA":" ","LANE":" ","ALLEY":" ","HOUSE_NO":"２１９號","E_COORD97":173418.32999999999,"N_COORD97":2546542.3199999998,"ADDRESS":"永和街２１９號","OBJECTID":610446},"geometry":{"x":173418.33000000007,"y":2546542.3200000022}},{"attributes":{"ID":610474,"DIS_CODE":0,"TOWNNAME":"永康區","LI":"網寮里","LIN":"3鄰","STREET":"永和街","SECT":" ","MAREA":" ","LANE":" ","ALLEY":" ","HOUSE_NO":"２４８號","E_COORD97":173425.94,"N_COORD97":2546562.6899999999,"ADDRESS":"永和街２４８號","OBJECTID":610447},"geometry":{"x":173425.94000000134,"y":2546562.6900000013}},{"attributes":{"ID":610475,"DIS_CODE":0,"TOWNNAME":"永康區","LI":"網寮里","LIN":"3鄰","STREET":"永二街","SECT":" ","MAREA":" ","LANE":" ","ALLEY":" ","HOUSE_NO":"５６號","E_COORD97":173608.64999999999,"N_COORD97":2546675.7400000002,"ADDRESS":"永二街５６號","OBJECTID":610448},"geometry":{"x":173608.6500000013,"y":2546675.7400000021}},{"attributes":{"ID":610476,"DIS_CODE":0,"TOWNNAME":"永康區","LI":"網寮里","LIN":"3鄰","STREET":"永和街","SECT":" ","MAREA":" ","LANE":" ","ALLEY":" ","HOUSE_NO":"２２１號","E_COORD97":173413.98999999999,"N_COORD97":2546544.3199999998,"ADDRESS":"永和街２２１號","OBJECTID":610449},"geometry":{"x":173413.99000000022,"y":2546544.3200000003}},{"attributes":{"ID":610477,"DIS_CODE":0,"TOWNNAME":"永康區","LI":"網寮里","LIN":"3鄰","STREET":"永和街","SECT":" ","MAREA":" ","LANE":" ","ALLEY":" ","HOUSE_NO":"２１８號","E_COORD97":173503.39000000001,"N_COORD97":2546538.8799999999,"ADDRESS":"永和街２１８號","OBJECTID":610450},"geometry":{"x":173503.3900000006,"y":2546538.879999999}},{"attributes":{"ID":610478,"DIS_CODE":0,"TOWNNAME":"永康區","LI":"網寮里","LIN":"3鄰","STREET":"永和街","SECT":" ","MAREA":" ","LANE":" ","ALLEY":" ","HOUSE_NO":"２４２號","E_COORD97":173446.56,"N_COORD97":2546554.3700000001,"ADDRESS":"永和街２４２號","OBJECTID":610451},"geometry":{"x":173446.55999999959,"y":2546554.370000001}},{"attributes":{"ID":610479,"DIS_CODE":0,"TOWNNAME":"永康區","LI":"網寮里","LIN":"3鄰","STREET":"永和街","SECT":" ","MAREA":" ","LANE":" ","ALLEY":" ","HOUSE_NO":"１９７號","E_COORD97":173468.76000000001,"N_COORD97":2546521.3599999999,"ADDRESS":"永和街１９７號","OBJECTID":610452},"geometry":{"x":173468.76000000071,"y":2546521.3600000013}},{"attributes":{"ID":610480,"DIS_CODE":0,"TOWNNAME":"永康區","LI":"網寮里","LIN":"3鄰","STREET":"永和街","SECT":" ","MAREA":" ","LANE":" ","ALLEY":" ","HOUSE_NO":"２０９號","E_COORD97":173439.59,"N_COORD97":2546532.5699999998,"ADDRESS":"永和街２０９號","OBJECTID":610453},"geometry":{"x":173439.59000000078,"y":2546532.5700000003}},{"attributes":{"ID":610481,"DIS_CODE":0,"TOWNNAME":"永康區","LI":"網寮里","LIN":"3鄰","STREET":"永和街","SECT":" ","MAREA":" ","LANE":" ","ALLEY":" ","HOUSE_NO":"２１３號","E_COORD97":173430.87,"N_COORD97":2546536.5699999998,"ADDRESS":"永和街２１３號","OBJECTID":610454},"geometry":{"x":173430.87000000104,"y":2546536.570000004}},{"attributes":{"ID":610482,"DIS_CODE":0,"TOWNNAME":"永康區","LI":"網寮里","LIN":"3鄰","STREET":"永二街","SECT":" ","MAREA":" ","LANE":" ","ALLEY":" ","HOUSE_NO":"４８號","E_COORD97":173616.38,"N_COORD97":2546691.7400000002,"ADDRESS":"永二街４８號","OBJECTID":610455},"geometry":{"x":173616.37999999989,"y":2546691.7400000021}},{"attributes":{"ID":610483,"DIS_CODE":0,"TOWNNAME":"永康區","LI":"網寮里","LIN":"3鄰","STREET":"永二街","SECT":" ","MAREA":" ","LANE":" ","ALLEY":" ","HOUSE_NO":"５２號","E_COORD97":173613.22,"N_COORD97":2546683.9900000002,"ADDRESS":"永二街５２號","OBJECTID":610456},"geometry":{"x":173613.22000000067,"y":2546683.9900000021}},{"attributes":{"ID":610484,"DIS_CODE":0,"TOWNNAME":"永康區","LI":"網寮里","LIN":"3鄰","STREET":"永二街","SECT":" ","MAREA":" ","LANE":" ","ALLEY":" ","HOUSE_NO":"５０號","E_COORD97":173614.81,"N_COORD97":2546687.9900000002,"ADDRESS":"永二街５０號","OBJECTID":610457},"geometry":{"x":173614.80999999959,"y":2546687.9900000002}},{"attributes":{"ID":610485,"DIS_CODE":0,"TOWNNAME":"永康區","LI":"新樹里","LIN":"3鄰","STREET":"富強路","SECT":"二段","MAREA":" ","LANE":" ","ALLEY":" ","HOUSE_NO":"４０４號","E_COORD97":175599.38,"N_COORD97":2547730.7999999998,"ADDRESS":"富強路二段４０４號","OBJECTID":610458},"geometry":{"x":175599.37999999989,"y":2547730.8000000007}},{"attributes":{"ID":610486,"DIS_CODE":0,"TOWNNAME":"永康區","LI":"\u25A0行里","LIN":"3鄰","STREET":"中正七街","SECT":" ","MAREA":" ","LANE":" ","ALLEY":" ","HOUSE_NO":"２號","E_COORD97":172064.22,"N_COORD97":2548856.7000000002,"ADDRESS":"中正七街２號","OBJECTID":610459},"geometry":{"x":172064.21999999974,"y":2548856.700000003}},{"attributes":{"ID":610487,"DIS_CODE":0,"TOWNNAME":"永康區","LI":"龍潭里","LIN":"3鄰","STREET":"龍安街","SECT":" ","MAREA":" ","LANE":" ","ALLEY":" ","HOUSE_NO":"１９號","E_COORD97":174563.29999999999,"N_COORD97":2548088.27,"ADDRESS":"龍安街１９號","OBJECTID":610460},"geometry":{"x":174563.30000000075,"y":2548088.2700000014}},{"attributes":{"ID":610488,"DIS_CODE":0,"TOWNNAME":"永康區","LI":"\u25A0行里","LIN":"3鄰","STREET":"中正七街","SECT":" ","MAREA":" ","LANE":" ","ALLEY":" ","HOUSE_NO":"６號","E_COORD97":172067.17000000001,"N_COORD97":2548859.4500000002,"ADDRESS":"中正七街６號","OBJECTID":610461},"geometry":{"x":172067.17000000086,"y":2548859.4500000011}},{"attributes":{"ID":610489,"DIS_CODE":0,"TOWNNAME":"善化區","LI":"東關里","LIN":"3鄰","STREET":"中山路","SECT":" ","MAREA":" ","LANE":" ","ALLEY":" ","HOUSE_NO":"４０４號","E_COORD97":177443.57999999999,"N_COORD97":2559117.5,"ADDRESS":"中山路４０４號","OBJECTID":610462},"geometry":{"x":177443.58000000101,"y":2559117.5}},{"attributes":{"ID":610490,"DIS_CODE":0,"TOWNNAME":"善化區","LI":"東關里","LIN":"3鄰","STREET":"中山路","SECT":" ","MAREA":" ","LANE":" ","ALLEY":" ","HOUSE_NO":"４１６號","E_COORD97":177416.72,"N_COORD97":2559119,"ADDRESS":"中山路４１６號","OBJECTID":610463},"geometry":{"x":177416.72000000067,"y":2559119.0000000019}},{"attributes":{"ID":610491,"DIS_CODE":0,"TOWNNAME":"善化區","LI":"東關里","LIN":"3鄰","STREET":"中山路","SECT":" ","MAREA":" ","LANE":" ","ALLEY":" ","HOUSE_NO":"４１２號","E_COORD97":177425.62,"N_COORD97":2559118.75,"ADDRESS":"中山路４１２號","OBJECTID":610464},"geometry":{"x":177425.62000000011,"y":2559118.75}},{"attributes":{"ID":610492,"DIS_CODE":0,"TOWNNAME":"安南區","LI":"幸福里","LIN":"3鄰","STREET":"國安街","SECT":" ","MAREA":" ","LANE":" ","ALLEY":" ","HOUSE_NO":"８１號","E_COORD97":166937.51999999999,"N_COORD97":2546985.1499999999,"ADDRESS":"國安街８１號","OBJECTID":610465},"geometry":{"x":166937.51999999955,"y":2546985.1500000004}},{"attributes":{"ID":610493,"DIS_CODE":0,"TOWNNAME":"安南區","LI":"幸福里","LIN":"3鄰","STREET":"國安街","SECT":" ","MAREA":" ","LANE":" ","ALLEY":" ","HOUSE_NO":"８３號","E_COORD97":166932.88,"N_COORD97":2546984.29,"ADDRESS":"國安街８３號","OBJECTID":610466},"geometry":{"x":166932.88000000082,"y":2546984.2899999972}},{"attributes":{"ID":610494,"DIS_CODE":0,"TOWNNAME":"安南區","LI":"幸福里","LIN":"3鄰","STREET":"國安街","SECT":" ","MAREA":" ","LANE":" ","ALLEY":" ","HOUSE_NO":"８５號","E_COORD97":166928.31,"N_COORD97":2546983.7200000002,"ADDRESS":"國安街８５號","OBJECTID":610467},"geometry":{"x":166928.31000000052,"y":2546983.7200000025}},{"attributes":{"ID":610495,"DIS_CODE":0,"TOWNNAME":"安南區","LI":"幸福里","LIN":"3鄰","STREET":"國安街","SECT":" ","MAREA":" ","LANE":" ","ALLEY":" ","HOUSE_NO":"６７號","E_COORD97":166972.12,"N_COORD97":2546990.9500000002,"ADDRESS":"國安街６７號","OBJECTID":610468},"geometry":{"x":166972.12000000104,"y":2546990.9500000011}},{"attributes":{"ID":610496,"DIS_CODE":0,"TOWNNAME":"永康區","LI":"三民里","LIN":"3鄰","STREET":"三民街","SECT":" ","MAREA":" ","LANE":" ","ALLEY":" ","HOUSE_NO":"５０號","E_COORD97":173027.67999999999,"N_COORD97":2550254.04,"ADDRESS":"三民街５０號","OBJECTID":610469},"geometry":{"x":173027.67999999877,"y":2550254.0399999991}},{"attributes":{"ID":610497,"DIS_CODE":0,"TOWNNAME":"永康區","LI":"三民里","LIN":"3鄰","STREET":"三民街","SECT":" ","MAREA":" ","LANE":" ","ALLEY":" ","HOUSE_NO":"５０號之１","E_COORD97":173025.92999999999,"N_COORD97":2550254.7999999998,"ADDRESS":"三民街５０號之１","OBJECTID":610470},"geometry":{"x":173025.9299999997,"y":2550254.8000000026}},{"attributes":{"ID":610498,"DIS_CODE":0,"TOWNNAME":"永康區","LI":"二王里","LIN":"3鄰","STREET":"永二街","SECT":" ","MAREA":" ","LANE":" ","ALLEY":" ","HOUSE_NO":"２９２號","E_COORD97":173054.42999999999,"N_COORD97":2546538,"ADDRESS":"永二街２９２號","OBJECTID":610471},"geometry":{"x":173054.4299999997,"y":2546538.0000000019}},{"attributes":{"ID":610499,"DIS_CODE":0,"TOWNNAME":"永康區","LI":"二王里","LIN":"3鄰","STREET":"永二街","SECT":" ","MAREA":" ","LANE":" ","ALLEY":" ","HOUSE_NO":"３１０號","E_COORD97":173028.69,"N_COORD97":2546562.9900000002,"ADDRESS":"永二街３１０號","OBJECTID":610472},"geometry":{"x":173028.69000000134,"y":2546562.9900000002}},{"attributes":{"ID":610500,"DIS_CODE":0,"TOWNNAME":"永康區","LI":"二王里","LIN":"3鄰","STREET":"永二街","SECT":" ","MAREA":" ","LANE":" ","ALLEY":" ","HOUSE_NO":"３００號","E_COORD97":173041.98000000001,"N_COORD97":2546548.75,"ADDRESS":"永二街３００號","OBJECTID":610473},"geometry":{"x":173041.98000000138,"y":2546548.7500000019}},{"attributes":{"ID":610501,"DIS_CODE":0,"TOWNNAME":"永康區","LI":"二王里","LIN":"3鄰","STREET":"永二街","SECT":" ","MAREA":" ","LANE":" ","ALLEY":" ","HOUSE_NO":"３３６號之４","E_COORD97":172998.07000000001,"N_COORD97":2546626.2200000002,"ADDRESS":"永二街３３６號之４","OBJECTID":610474},"geometry":{"x":172998.0700000003,"y":2546626.2200000007}},{"attributes":{"ID":610502,"DIS_CODE":0,"TOWNNAME":"永康區","LI":"二王里","LIN":"3鄰","STREET":"永二街","SECT":" ","MAREA":" ","LANE":" ","ALLEY":" ","HOUSE_NO":"３０６號","E_COORD97":173033.76000000001,"N_COORD97":2546557,"ADDRESS":"永二街３０６號","OBJECTID":610475},"geometry":{"x":173033.75999999978,"y":2546557.0000000037}},{"attributes":{"ID":610503,"DIS_CODE":0,"TOWNNAME":"永康區","LI":"二王里","LIN":"3鄰","STREET":"永二街","SECT":" ","MAREA":" ","LANE":" ","ALLEY":" ","HOUSE_NO":"２９６號","E_COORD97":173048.32999999999,"N_COORD97":2546543,"ADDRESS":"永二街２９６號","OBJECTID":610476},"geometry":{"x":173048.33000000101,"y":2546543}},{"attributes":{"ID":610504,"DIS_CODE":0,"TOWNNAME":"永康區","LI":"二王里","LIN":"3鄰","STREET":"永二街","SECT":" ","MAREA":" ","LANE":" ","ALLEY":" ","HOUSE_NO":"３３６號","E_COORD97":172987.54000000001,"N_COORD97":2546608.6299999999,"ADDRESS":"永二街３３６號","OBJECTID":610477},"geometry":{"x":172987.54000000097,"y":2546608.629999999}},{"attributes":{"ID":610505,"DIS_CODE":0,"TOWNNAME":"永康區","LI":"二王里","LIN":"3鄰","STREET":"永二街","SECT":" ","MAREA":" ","LANE":" ","ALLEY":" ","HOUSE_NO":"３４６號","E_COORD97":172970.87,"N_COORD97":2546623.3399999999,"ADDRESS":"永二街３４６號","OBJECTID":610478},"geometry":{"x":172970.86999999918,"y":2546623.3400000017}},{"attributes":{"ID":610506,"DIS_CODE":0,"TOWNNAME":"永康區","LI":"二王里","LIN":"3鄰","STREET":"永二街","SECT":" ","MAREA":" ","LANE":" ","ALLEY":" ","HOUSE_NO":"２９８號","E_COORD97":173045.17000000001,"N_COORD97":2546545.75,"ADDRESS":"永二街２９８號","OBJECTID":610479},"geometry":{"x":173045.17000000179,"y":2546545.7500000019}},{"attributes":{"ID":610507,"DIS_CODE":0,"TOWNNAME":"永康區","LI":"三民里","LIN":"3鄰","STREET":"三民街","SECT":" ","MAREA":" ","LANE":" ","ALLEY":" ","HOUSE_NO":"４５號","E_COORD97":173079.62,"N_COORD97":2550233.3199999998,"ADDRESS":"三民街４５號","OBJECTID":610480},"geometry":{"x":173079.62000000197,"y":2550233.3199999984}},{"attributes":{"ID":610508,"DIS_CODE":0,"TOWNNAME":"永康區","LI":"三民里","LIN":"3鄰","STREET":"三民街","SECT":" ","MAREA":" ","LANE":" ","ALLEY":" ","HOUSE_NO":"５９號","E_COORD97":172911.78,"N_COORD97":2550259.3999999999,"ADDRESS":"三民街５９號","OBJECTID":610481},"geometry":{"x":172911.78000000026,"y":2550259.4000000004}},{"attributes":{"ID":610509,"DIS_CODE":0,"TOWNNAME":"永康區","LI":"三民里","LIN":"3鄰","STREET":"三民街","SECT":" ","MAREA":" ","LANE":" ","ALLEY":" ","HOUSE_NO":"６６號","E_COORD97":172958.10999999999,"N_COORD97":2550261.79,"ADDRESS":"三民街６６號","OBJECTID":610482},"geometry":{"x":172958.11000000127,"y":2550261.7899999991}},{"attributes":{"ID":610510,"DIS_CODE":0,"TOWNNAME":"永康區","LI":"二王里","LIN":"3鄰","STREET":"永二街","SECT":" ","MAREA":" ","LANE":" ","ALLEY":" ","HOUSE_NO":"３３２號","E_COORD97":173002.42999999999,"N_COORD97":2546593.8700000001,"ADDRESS":"永二街３３２號","OBJECTID":610483},"geometry":{"x":173002.43000000156,"y":2546593.8700000029}},{"attributes":{"ID":610511,"DIS_CODE":0,"TOWNNAME":"永康區","LI":"三民里","LIN":"3鄰","STREET":"三民街","SECT":" ","MAREA":" ","LANE":" ","ALLEY":" ","HOUSE_NO":"６２號","E_COORD97":172975.14999999999,"N_COORD97":2550253.79,"ADDRESS":"三民街６２號","OBJECTID":610484},"geometry":{"x":172975.1500000013,"y":2550253.790000001}},{"attributes":{"ID":610512,"DIS_CODE":0,"TOWNNAME":"永康區","LI":"復國里","LIN":"3鄰","STREET":"復國一路","SECT":" ","MAREA":" ","LANE":" ","ALLEY":" ","HOUSE_NO":"１０號","E_COORD97":172726.76000000001,"N_COORD97":2544713.27,"ADDRESS":"復國一路１０號","OBJECTID":610485},"geometry":{"x":172726.75999999978,"y":2544713.2699999996}},{"attributes":{"ID":610513,"DIS_CODE":0,"TOWNNAME":"永康區","LI":"北灣里","LIN":"3鄰","STREET":"文賢街","SECT":" ","MAREA":" ","LANE":" ","ALLEY":" ","HOUSE_NO":"２０１號","E_COORD97":175360.23999999999,"N_COORD97":2545527.8399999999,"ADDRESS":"文賢街２０１號","OBJECTID":610486},"geometry":{"x":175360.24000000022,"y":2545527.8400000017}},{"attributes":{"ID":610514,"DIS_CODE":0,"TOWNNAME":"永康區","LI":"三民里","LIN":"3鄰","STREET":"三民街","SECT":" ","MAREA":" ","LANE":" ","ALLEY":" ","HOUSE_NO":"６４號","E_COORD97":172967.04000000001,"N_COORD97":2550255.04,"ADDRESS":"三民街６４號","OBJECTID":610487},"geometry":{"x":172967.04000000097,"y":2550255.040000001}},{"attributes":{"ID":610515,"DIS_CODE":0,"TOWNNAME":"安南區","LI":"幸福里","LIN":"3鄰","STREET":"國安街","SECT":" ","MAREA":" ","LANE":" ","ALLEY":" ","HOUSE_NO":"６５號","E_COORD97":166977.16,"N_COORD97":2546992.1000000001,"ADDRESS":"國安街６５號","OBJECTID":610488},"geometry":{"x":166977.16000000108,"y":2546992.0999999996}},{"attributes":{"ID":610516,"DIS_CODE":0,"TOWNNAME":"安南區","LI":"城中里","LIN":"3鄰","STREET":"安中路","SECT":"六段","MAREA":" ","LANE":" ","ALLEY":" ","HOUSE_NO":"５１７號之１","E_COORD97":160927.75,"N_COORD97":2551322.73,"ADDRESS":"安中路六段５１７號之１","OBJECTID":610489},"geometry":{"x":160927.75000000093,"y":2551322.7300000042}},{"attributes":{"ID":610517,"DIS_CODE":0,"TOWNNAME":"安南區","LI":"城中里","LIN":"3鄰","STREET":"安中路","SECT":"六段","MAREA":" ","LANE":" ","ALLEY":" ","HOUSE_NO":"５１５號","E_COORD97":160943.92999999999,"N_COORD97":2551314.7200000002,"ADDRESS":"安中路六段５１５號","OBJECTID":610490},"geometry":{"x":160943.9299999997,"y":2551314.7200000007}},{"attributes":{"ID":610518,"DIS_CODE":0,"TOWNNAME":"安南區","LI":"城中里","LIN":"3鄰","STREET":"安中路","SECT":"六段","MAREA":" ","LANE":" ","ALLEY":" ","HOUSE_NO":"５１７號","E_COORD97":160939.26999999999,"N_COORD97":2551317.1800000002,"ADDRESS":"安中路六段５１７號","OBJECTID":610491},"geometry":{"x":160939.27000000048,"y":2551317.1799999997}},{"attributes":{"ID":610519,"DIS_CODE":0,"TOWNNAME":"安南區","LI":"顯宮里","LIN":"3鄰","STREET":"安中路","SECT":"五段","MAREA":" ","LANE":" ","ALLEY":" ","HOUSE_NO":"４６３號","E_COORD97":162358.82999999999,"N_COORD97":2551173.7200000002,"ADDRESS":"安中路五段４６３號","OBJECTID":610492},"geometry":{"x":162358.83000000007,"y":2551173.7200000044}},{"attributes":{"ID":610520,"DIS_CODE":0,"TOWNNAME":"安南區","LI":"南興里","LIN":"3鄰","STREET":"安興街","SECT":" ","MAREA":" ","LANE":" ","ALLEY":" ","HOUSE_NO":"４７９號之１","E_COORD97":163479.14235099999,"N_COORD97":2552332.4517299999,"ADDRESS":"安興街４７９號之１","OBJECTID":610493},"geometry":{"x":163479.14235099964,"y":2552332.4517290015}},{"attributes":{"ID":610521,"DIS_CODE":0,"TOWNNAME":"安南區","LI":"溪心里","LIN":"3鄰","STREET":"安中路","SECT":"二段","MAREA":" ","LANE":" ","ALLEY":" ","HOUSE_NO":"３３２號之１","E_COORD97":166380.39000000001,"N_COORD97":2549747.3300000001,"ADDRESS":"安中路二段３３２號之１","OBJECTID":610494},"geometry":{"x":166380.38999999966,"y":2549747.3300000001}},{"attributes":{"ID":610522,"DIS_CODE":0,"TOWNNAME":"新市區","LI":"新和里","LIN":"3鄰","STREET":"延平街","SECT":" ","MAREA":" ","LANE":" ","ALLEY":" ","HOUSE_NO":"１４號","E_COORD97":177400.10000000001,"N_COORD97":2552048.0800000001,"ADDRESS":"延平街１４號","OBJECTID":610495},"geometry":{"x":177400.10000000149,"y":2552048.0800000001}},{"attributes":{"ID":610523,"DIS_CODE":0,"TOWNNAME":"新市區","LI":"新和里","LIN":"3鄰","STREET":"延平街","SECT":" ","MAREA":" ","LANE":" ","ALLEY":" ","HOUSE_NO":"２４號","E_COORD97":177414.42999999999,"N_COORD97":2552062.5800000001,"ADDRESS":"延平街２４號","OBJECTID":610496},"geometry":{"x":177414.4299999997,"y":2552062.5800000038}},{"attributes":{"ID":610524,"DIS_CODE":0,"TOWNNAME":"新市區","LI":"新和里","LIN":"3鄰","STREET":"延平街","SECT":" ","MAREA":" ","LANE":" ","ALLEY":" ","HOUSE_NO":"８之４號","E_COORD97":177327.88,"N_COORD97":2552007.8300000001,"ADDRESS":"延平街８之４號","OBJECTID":610497},"geometry":{"x":177327.88000000082,"y":2552007.8300000019}},{"attributes":{"ID":610525,"DIS_CODE":0,"TOWNNAME":"新市區","LI":"新和里","LIN":"3鄰","STREET":"延平街","SECT":" ","MAREA":" ","LANE":" ","ALLEY":" ","HOUSE_NO":"３３號","E_COORD97":177473.48999999999,"N_COORD97":2552127.5800000001,"ADDRESS":"延平街３３號","OBJECTID":610498},"geometry":{"x":177473.49000000115,"y":2552127.5800000019}},{"attributes":{"ID":610526,"DIS_CODE":0,"TOWNNAME":"新市區","LI":"新和里","LIN":"3鄰","STREET":"延平街","SECT":" ","MAREA":" ","LANE":" ","ALLEY":" ","HOUSE_NO":"４１號","E_COORD97":177487.35000000001,"N_COORD97":2552136.5800000001,"ADDRESS":"延平街４１號","OBJECTID":610499},"geometry":{"x":177487.35000000056,"y":2552136.5800000001}},{"attributes":{"ID":610527,"DIS_CODE":0,"TOWNNAME":"中西區","LI":"建國里","LIN":"3鄰","STREET":"中正路","SECT":" ","MAREA":" ","LANE":" ","ALLEY":" ","HOUSE_NO":"１６２號","E_COORD97":167873.60999999999,"N_COORD97":2543717.29,"ADDRESS":"中正路１６２號","OBJECTID":610500},"geometry":{"x":167873.61000000034,"y":2543717.290000001}},{"attributes":{"ID":610528,"DIS_CODE":0,"TOWNNAME":"中西區","LI":"建國里","LIN":"3鄰","STREET":"西門路","SECT":"二段","MAREA":" ","LANE":" ","ALLEY":" ","HOUSE_NO":"１０２號","E_COORD97":167866.54999999999,"N_COORD97":2543734.3300000001,"ADDRESS":"西門路二段１０２號","OBJECTID":610501},"geometry":{"x":167866.54999999981,"y":2543734.3300000019}},{"attributes":{"ID":610529,"DIS_CODE":0,"TOWNNAME":"中西區","LI":"建國里","LIN":"3鄰","STREET":"西門路","SECT":"二段","MAREA":" ","LANE":" ","ALLEY":" ","HOUSE_NO":"１０８號","E_COORD97":167868.89999999999,"N_COORD97":2543740.6000000001,"ADDRESS":"西門路二段１０８號","OBJECTID":610502},"geometry":{"x":167868.9000000013,"y":2543740.5999999996}},{"attributes":{"ID":610530,"DIS_CODE":0,"TOWNNAME":"中西區","LI":"建國里","LIN":"3鄰","STREET":"西門路","SECT":"二段","MAREA":" ","LANE":" ","ALLEY":" ","HOUSE_NO":"１１０號","E_COORD97":167869.69,"N_COORD97":2543744.1200000001,"ADDRESS":"西門路二段１１０號","OBJECTID":610503},"geometry":{"x":167869.69000000041,"y":2543744.1200000029}},{"attributes":{"ID":610531,"DIS_CODE":0,"TOWNNAME":"中西區","LI":"建國里","LIN":"3鄰","STREET":"西門路","SECT":"二段","MAREA":" ","LANE":" ","ALLEY":" ","HOUSE_NO":"１１２號","E_COORD97":167870.67000000001,"N_COORD97":2543747.8399999999,"ADDRESS":"西門路二段１１２號","OBJECTID":610504},"geometry":{"x":167870.66999999993,"y":2543747.8400000017}},{"attributes":{"ID":610532,"DIS_CODE":0,"TOWNNAME":"中西區","LI":"建國里","LIN":"3鄰","STREET":"西門路","SECT":"二段","MAREA":" ","LANE":" ","ALLEY":" ","HOUSE_NO":"１１４號","E_COORD97":167871.84,"N_COORD97":2543751.96,"ADDRESS":"西門路二段１１４號","OBJECTID":610505},"geometry":{"x":167871.84000000171,"y":2543751.9600000028}},{"attributes":{"ID":610533,"DIS_CODE":0,"TOWNNAME":"中西區","LI":"建國里","LIN":"3鄰","STREET":"西門路","SECT":"二段","MAREA":" ","LANE":" ","ALLEY":" ","HOUSE_NO":"９６號","E_COORD97":167862.42999999999,"N_COORD97":2543720.6200000001,"ADDRESS":"西門路二段９６號","OBJECTID":610506},"geometry":{"x":167862.42999999877,"y":2543720.6200000029}},{"attributes":{"ID":610534,"DIS_CODE":0,"TOWNNAME":"中西區","LI":"建國里","LIN":"3鄰","STREET":"中正路","SECT":" ","MAREA":" ","LANE":" ","ALLEY":" ","HOUSE_NO":"１４２號","E_COORD97":167914,"N_COORD97":2543711.6099999999,"ADDRESS":"中正路１４２號","OBJECTID":610507},"geometry":{"x":167914.00000000093,"y":2543711.6100000013}},{"attributes":{"ID":610535,"DIS_CODE":0,"TOWNNAME":"中西區","LI":"建國里","LIN":"3鄰","STREET":"中正路","SECT":" ","MAREA":" ","LANE":" ","ALLEY":" ","HOUSE_NO":"１１０號","E_COORD97":167996.23000000001,"N_COORD97":2543684.77,"ADDRESS":"中正路１１０號","OBJECTID":610508},"geometry":{"x":167996.23000000045,"y":2543684.7699999996}},{"attributes":{"ID":610536,"DIS_CODE":0,"TOWNNAME":"中西區","LI":"建國里","LIN":"3鄰","STREET":"中正路","SECT":" ","MAREA":" ","LANE":" ","ALLEY":" ","HOUSE_NO":"１１２號","E_COORD97":167991.42000000001,"N_COORD97":2543685.8500000001,"ADDRESS":"中正路１１２號","OBJECTID":610509},"geometry":{"x":167991.41999999993,"y":2543685.8500000034}},{"attributes":{"ID":610537,"DIS_CODE":0,"TOWNNAME":"中西區","LI":"建國里","LIN":"3鄰","STREET":"中正路","SECT":" ","MAREA":" ","LANE":" ","ALLEY":" ","HOUSE_NO":"１１４號","E_COORD97":167987.32000000001,"N_COORD97":2543686.79,"ADDRESS":"中正路１１４號","OBJECTID":610510},"geometry":{"x":167987.3200000003,"y":2543686.790000001}},{"attributes":{"ID":610538,"DIS_CODE":0,"TOWNNAME":"中西區","LI":"建國里","LIN":"3鄰","STREET":"中正路","SECT":" ","MAREA":" ","LANE":" ","ALLEY":" ","HOUSE_NO":"１１６號","E_COORD97":167982.89000000001,"N_COORD97":2543687.7799999998,"ADDRESS":"中正路１１６號","OBJECTID":610511},"geometry":{"x":167982.88999999966,"y":2543687.7799999993}},{"attributes":{"ID":610539,"DIS_CODE":0,"TOWNNAME":"中西區","LI":"建國里","LIN":"3鄰","STREET":"中正路","SECT":" ","MAREA":" ","LANE":" ","ALLEY":" ","HOUSE_NO":"１１８號","E_COORD97":167978.73999999999,"N_COORD97":2543689.0499999998,"ADDRESS":"中正路１１８號","OBJECTID":610512},"geometry":{"x":167978.74000000115,"y":2543689.0500000045}},{"attributes":{"ID":610540,"DIS_CODE":0,"TOWNNAME":"中西區","LI":"建國里","LIN":"3鄰","STREET":"中正路","SECT":" ","MAREA":" ","LANE":" ","ALLEY":" ","HOUSE_NO":"１２０號","E_COORD97":167975,"N_COORD97":2543689.46,"ADDRESS":"中正路１２０號","OBJECTID":610513},"geometry":{"x":167975.00000000093,"y":2543689.4600000009}},{"attributes":{"ID":610541,"DIS_CODE":0,"TOWNNAME":"中西區","LI":"建國里","LIN":"3鄰","STREET":"中正路","SECT":" ","MAREA":" ","LANE":" ","ALLEY":" ","HOUSE_NO":"１２２號","E_COORD97":167970.10000000001,"N_COORD97":2543690.2599999998,"ADDRESS":"中正路１２２號","OBJECTID":610514},"geometry":{"x":167970.10000000056,"y":2543690.2600000035}},{"attributes":{"ID":610542,"DIS_CODE":0,"TOWNNAME":"中西區","LI":"建國里","LIN":"3鄰","STREET":"中正路","SECT":" ","MAREA":" ","LANE":" ","ALLEY":" ","HOUSE_NO":"１２４號","E_COORD97":167964.67999999999,"N_COORD97":2543691.6699999999,"ADDRESS":"中正路１２４號","OBJECTID":610515},"geometry":{"x":167964.68000000063,"y":2543691.6700000018}},{"attributes":{"ID":610543,"DIS_CODE":0,"TOWNNAME":"中西區","LI":"建國里","LIN":"3鄰","STREET":"中正路","SECT":" ","MAREA":" ","LANE":" ","ALLEY":" ","HOUSE_NO":"１２６號","E_COORD97":167959.07000000001,"N_COORD97":2543692.8500000001,"ADDRESS":"中正路１２６號","OBJECTID":610516},"geometry":{"x":167959.07000000123,"y":2543692.8500000034}},{"attributes":{"ID":610544,"DIS_CODE":0,"TOWNNAME":"中西區","LI":"建國里","LIN":"3鄰","STREET":"中正路","SECT":" ","MAREA":" ","LANE":" ","ALLEY":" ","HOUSE_NO":"１２８號","E_COORD97":167952.79000000001,"N_COORD97":2543693.8799999999,"ADDRESS":"中正路１２８號","OBJECTID":610517},"geometry":{"x":167952.79000000097,"y":2543693.879999999}},{"attributes":{"ID":610545,"DIS_CODE":0,"TOWNNAME":"中西區","LI":"建國里","LIN":"3鄰","STREET":"中正路","SECT":" ","MAREA":" ","LANE":" ","ALLEY":" ","HOUSE_NO":"１３０號","E_COORD97":167947.64999999999,"N_COORD97":2543695.1099999999,"ADDRESS":"中正路１３０號","OBJECTID":610518},"geometry":{"x":167947.65000000037,"y":2543695.1100000013}},{"attributes":{"ID":610546,"DIS_CODE":0,"TOWNNAME":"中西區","LI":"建國里","LIN":"3鄰","STREET":"中正路","SECT":" ","MAREA":" ","LANE":" ","ALLEY":" ","HOUSE_NO":"１３２號","E_COORD97":167943.22,"N_COORD97":2543695.96,"ADDRESS":"中正路１３２號","OBJECTID":610519},"geometry":{"x":167943.21999999974,"y":2543695.9600000009}},{"attributes":{"ID":610547,"DIS_CODE":0,"TOWNNAME":"中西區","LI":"建國里","LIN":"3鄰","STREET":"中正路","SECT":" ","MAREA":" ","LANE":" ","ALLEY":" ","HOUSE_NO":"１３４號","E_COORD97":167938.70999999999,"N_COORD97":2543697.1499999999,"ADDRESS":"中正路１３４號","OBJECTID":610520},"geometry":{"x":167938.70999999996,"y":2543697.1500000004}},{"attributes":{"ID":610548,"DIS_CODE":0,"TOWNNAME":"中西區","LI":"建國里","LIN":"3鄰","STREET":"中正路","SECT":" ","MAREA":" ","LANE":" ","ALLEY":" ","HOUSE_NO":"１３４號之１","E_COORD97":167933.01999999999,"N_COORD97":2543698.1299999999,"ADDRESS":"中正路１３４號之１","OBJECTID":610521},"geometry":{"x":167933.02000000142,"y":2543698.1300000008}},{"attributes":{"ID":610549,"DIS_CODE":0,"TOWNNAME":"中西區","LI":"建國里","LIN":"3鄰","STREET":"中正路","SECT":" ","MAREA":" ","LANE":" ","ALLEY":" ","HOUSE_NO":"１３６號","E_COORD97":167928.32000000001,"N_COORD97":2543699.3100000001,"ADDRESS":"中正路１３６號","OBJECTID":610522},"geometry":{"x":167928.32000000216,"y":2543699.3100000005}},{"attributes":{"ID":610550,"DIS_CODE":0,"TOWNNAME":"中西區","LI":"青年里","LIN":"3鄰","STREET":"興華街","SECT":" ","MAREA":" ","LANE":" ","ALLEY":" ","HOUSE_NO":"１１號","E_COORD97":169038,"N_COORD97":2543617.2200000002,"ADDRESS":"興華街１１號","OBJECTID":610523},"geometry":{"x":169038.00000000093,"y":2543617.2200000025}},{"attributes":{"ID":610551,"DIS_CODE":0,"TOWNNAME":"中西區","LI":"青年里","LIN":"3鄰","STREET":"興華街","SECT":" ","MAREA":" ","LANE":" ","ALLEY":" ","HOUSE_NO":"１１號之１","E_COORD97":169045.78,"N_COORD97":2543623.8100000001,"ADDRESS":"興華街１１號之１","OBJECTID":610524},"geometry":{"x":169045.78000000212,"y":2543623.8100000024}},{"attributes":{"ID":610552,"DIS_CODE":0,"TOWNNAME":"中西區","LI":"青年里","LIN":"3鄰","STREET":"興華街","SECT":" ","MAREA":" ","LANE":" ","ALLEY":" ","HOUSE_NO":"１１號之２","E_COORD97":169040.26000000001,"N_COORD97":2543621.8300000001,"ADDRESS":"興華街１１號之２","OBJECTID":610525},"geometry":{"x":169040.26000000164,"y":2543621.8299999982}},{"attributes":{"ID":610553,"DIS_CODE":0,"TOWNNAME":"中西區","LI":"青年里","LIN":"3鄰","STREET":"興華街","SECT":" ","MAREA":" ","LANE":" ","ALLEY":" ","HOUSE_NO":"１５號","E_COORD97":169055.14999999999,"N_COORD97":2543626.0299999998,"ADDRESS":"興華街１５號","OBJECTID":610526},"geometry":{"x":169055.15000000224,"y":2543626.0299999993}},{"attributes":{"ID":610554,"DIS_CODE":0,"TOWNNAME":"中西區","LI":"青年里","LIN":"3鄰","STREET":"興華街","SECT":" ","MAREA":" ","LANE":" ","ALLEY":" ","HOUSE_NO":"５號","E_COORD97":169027.37,"N_COORD97":2543609.4900000002,"ADDRESS":"興華街５號","OBJECTID":610527},"geometry":{"x":169027.37000000011,"y":2543609.4900000002}},{"attributes":{"ID":610555,"DIS_CODE":0,"TOWNNAME":"中西區","LI":"青年里","LIN":"3鄰","STREET":"興華街","SECT":" ","MAREA":" ","LANE":" ","ALLEY":" ","HOUSE_NO":"７號","E_COORD97":169029.35000000001,"N_COORD97":2543611.3700000001,"ADDRESS":"興華街７號","OBJECTID":610528},"geometry":{"x":169029.35000000149,"y":2543611.370000001}},{"attributes":{"ID":610556,"DIS_CODE":0,"TOWNNAME":"中西區","LI":"青年里","LIN":"3鄰","STREET":"興華街","SECT":" ","MAREA":" ","LANE":" ","ALLEY":" ","HOUSE_NO":"９號","E_COORD97":169034.92999999999,"N_COORD97":2543612.9900000002,"ADDRESS":"興華街９號","OBJECTID":610529},"geometry":{"x":169034.9299999997,"y":2543612.9900000002}},{"attributes":{"ID":610557,"DIS_CODE":0,"TOWNNAME":"仁德區","LI":"仁德里","LIN":"3鄰","STREET":"仁中六街","SECT":" ","MAREA":" ","LANE":" ","ALLEY":" ","HOUSE_NO":"９５號","E_COORD97":173345.89999999999,"N_COORD97":2540389.2400000002,"ADDRESS":"仁中六街９５號","OBJECTID":610530},"geometry":{"x":173345.9000000013,"y":2540389.2400000021}},{"attributes":{"ID":610558,"DIS_CODE":0,"TOWNNAME":"仁德區","LI":"仁德里","LIN":"3鄰","STREET":"仁中六街","SECT":" ","MAREA":" ","LANE":" ","ALLEY":" ","HOUSE_NO":"６７號","E_COORD97":173331.04999999999,"N_COORD97":2540381.2400000002,"ADDRESS":"仁中六街６７號","OBJECTID":610531},"geometry":{"x":173331.05000000075,"y":2540381.2400000002}},{"attributes":{"ID":610559,"DIS_CODE":0,"TOWNNAME":"仁德區","LI":"仁德里","LIN":"3鄰","STREET":"仁中六街","SECT":" ","MAREA":" ","LANE":" ","ALLEY":" ","HOUSE_NO":"５１號","E_COORD97":173371.06,"N_COORD97":2540380.7400000002,"ADDRESS":"仁中六街５１號","OBJECTID":610532},"geometry":{"x":173371.06000000145,"y":2540380.7400000002}},{"attributes":{"ID":610560,"DIS_CODE":0,"TOWNNAME":"仁德區","LI":"保安里","LIN":"3鄰","STREET":"保安路","SECT":"一段","MAREA":" ","LANE":" ","ALLEY":" ","HOUSE_NO":"１８號","E_COORD97":170458.64999999999,"N_COORD97":2535997.8100000001,"ADDRESS":"保安路一段１８號","OBJECTID":610533},"geometry":{"x":170458.65000000037,"y":2535997.8100000042}},{"attributes":{"ID":610561,"DIS_CODE":0,"TOWNNAME":"仁德區","LI":"保安里","LIN":"3鄰","STREET":"保安路","SECT":"一段","MAREA":" ","LANE":" ","ALLEY":" ","HOUSE_NO":"２８號","E_COORD97":170477.34,"N_COORD97":2536012.5600000001,"ADDRESS":"保安路一段２８號","OBJECTID":610534},"geometry":{"x":170477.34000000171,"y":2536012.5600000005}},{"attributes":{"ID":610562,"DIS_CODE":0,"TOWNNAME":"仁德區","LI":"保安里","LIN":"3鄰","STREET":"保安路","SECT":"一段","MAREA":" ","LANE":" ","ALLEY":" ","HOUSE_NO":"１３５號","E_COORD97":171171.70000000001,"N_COORD97":2536866.8100000001,"ADDRESS":"保安路一段１３５號","OBJECTID":610535},"geometry":{"x":171171.70000000019,"y":2536866.8100000024}},{"attributes":{"ID":610563,"DIS_CODE":0,"TOWNNAME":"仁德區","LI":"後壁里","LIN":"3鄰","STREET":"中正路","SECT":"二段","MAREA":" ","LANE":" ","ALLEY":" ","HOUSE_NO":"３１２號","E_COORD97":173260.26000000001,"N_COORD97":2539039.77,"ADDRESS":"中正路二段３１２號","OBJECTID":610536},"geometry":{"x":173260.26000000071,"y":2539039.7700000014}},{"attributes":{"ID":610564,"DIS_CODE":0,"TOWNNAME":"仁德區","LI":"仁德里","LIN":"3鄰","STREET":"中正路","SECT":"二段","MAREA":" ","LANE":" ","ALLEY":" ","HOUSE_NO":"７７９號","E_COORD97":173449.89999999999,"N_COORD97":2540328.7799999998,"ADDRESS":"中正路二段７７９號","OBJECTID":610537},"geometry":{"x":173449.9000000013,"y":2540328.7799999993}},{"attributes":{"ID":610565,"DIS_CODE":0,"TOWNNAME":"仁德區","LI":"保安里","LIN":"3鄰","STREET":"保安路","SECT":"一段","MAREA":" ","LANE":" ","ALLEY":" ","HOUSE_NO":"６４號","E_COORD97":170657.41,"N_COORD97":2536196.8199999998,"ADDRESS":"保安路一段６４號","OBJECTID":610538},"geometry":{"x":170657.41000000108,"y":2536196.8200000003}},{"attributes":{"ID":610566,"DIS_CODE":0,"TOWNNAME":"仁德區","LI":"田厝里","LIN":"3鄰","STREET":"田厝三街","SECT":" ","MAREA":" ","LANE":" ","ALLEY":" ","HOUSE_NO":"１１８號","E_COORD97":172632.19,"N_COORD97":2537508.25,"ADDRESS":"田厝三街１１８號","OBJECTID":610539},"geometry":{"x":172632.19000000134,"y":2537508.25}},{"attributes":{"ID":610567,"DIS_CODE":0,"TOWNNAME":"仁德區","LI":"保安里","LIN":"3鄰","STREET":"保安路","SECT":"一段","MAREA":" ","LANE":" ","ALLEY":" ","HOUSE_NO":"６２號","E_COORD97":170607.48000000001,"N_COORD97":2536195.8199999998,"ADDRESS":"保安路一段６２號","OBJECTID":610540},"geometry":{"x":170607.48000000231,"y":2536195.8200000003}},{"attributes":{"ID":610568,"DIS_CODE":0,"TOWNNAME":"仁德區","LI":"田厝里","LIN":"3鄰","STREET":"田厝三街","SECT":" ","MAREA":" ","LANE":" ","ALLEY":" ","HOUSE_NO":"１２５號","E_COORD97":172615.98999999999,"N_COORD97":2537544.25,"ADDRESS":"田厝三街１２５號","OBJECTID":610541},"geometry":{"x":172615.99000000209,"y":2537544.2500000019}},{"attributes":{"ID":610569,"DIS_CODE":0,"TOWNNAME":"仁德區","LI":"仁德里","LIN":"3鄰","STREET":"仁中六街","SECT":" ","MAREA":" ","LANE":" ","ALLEY":" ","HOUSE_NO":"５６號","E_COORD97":173400.25,"N_COORD97":2540394.2400000002,"ADDRESS":"仁中六街５６號","OBJECTID":610542},"geometry":{"x":173400.25,"y":2540394.2400000002}},{"attributes":{"ID":610570,"DIS_CODE":0,"TOWNNAME":"仁德區","LI":"仁德里","LIN":"3鄰","STREET":"仁中六街","SECT":" ","MAREA":" ","LANE":" ","ALLEY":" ","HOUSE_NO":"７７號","E_COORD97":173306.39999999999,"N_COORD97":2540379.7400000002,"ADDRESS":"仁中六街７７號","OBJECTID":610543},"geometry":{"x":173306.40000000037,"y":2540379.7400000021}},{"attributes":{"ID":610571,"DIS_CODE":0,"TOWNNAME":"仁德區","LI":"保安里","LIN":"3鄰","STREET":"保安路","SECT":"一段","MAREA":" ","LANE":" ","ALLEY":" ","HOUSE_NO":"２０號","E_COORD97":170462.45000000001,"N_COORD97":2536000.3100000001,"ADDRESS":"保安路一段２０號","OBJECTID":610544},"geometry":{"x":170462.45000000112,"y":2536000.3100000005}},{"attributes":{"ID":610572,"DIS_CODE":0,"TOWNNAME":"仁德區","LI":"仁德里","LIN":"3鄰","STREET":"中正路","SECT":"二段","MAREA":" ","LANE":" ","ALLEY":" ","HOUSE_NO":"７４３號","E_COORD97":173459.54000000001,"N_COORD97":2540237.7799999998,"ADDRESS":"中正路二段７４３號","OBJECTID":610545},"geometry":{"x":173459.54000000004,"y":2540237.7799999975}},{"attributes":{"ID":610573,"DIS_CODE":0,"TOWNNAME":"仁德區","LI":"仁德里","LIN":"3鄰","STREET":"中正路","SECT":"二段","MAREA":" ","LANE":" ","ALLEY":" ","HOUSE_NO":"７４９號","E_COORD97":173458.57000000001,"N_COORD97":2540250.52,"ADDRESS":"中正路二段７４９號","OBJECTID":610546},"geometry":{"x":173458.57000000123,"y":2540250.5200000014}},{"attributes":{"ID":610574,"DIS_CODE":0,"TOWNNAME":"仁德區","LI":"仁德里","LIN":"3鄰","STREET":"仁中六街","SECT":" ","MAREA":" ","LANE":" ","ALLEY":" ","HOUSE_NO":"５０號","E_COORD97":173389.87,"N_COORD97":2540392.4900000002,"ADDRESS":"仁中六街５０號","OBJECTID":610547},"geometry":{"x":173389.87000000104,"y":2540392.4900000002}},{"attributes":{"ID":610575,"DIS_CODE":0,"TOWNNAME":"仁德區","LI":"田厝里","LIN":"3鄰","STREET":"田厝三街","SECT":" ","MAREA":" ","LANE":" ","ALLEY":" ","HOUSE_NO":"１２６號","E_COORD97":172626.85000000001,"N_COORD97":2537532,"ADDRESS":"田厝三街１２６號","OBJECTID":610548},"geometry":{"x":172626.85000000056,"y":2537532.0000000019}},{"attributes":{"ID":610576,"DIS_CODE":0,"TOWNNAME":"仁德區","LI":"仁德里","LIN":"3鄰","STREET":"中正路","SECT":"二段","MAREA":" ","LANE":" ","ALLEY":" ","HOUSE_NO":"７３９號","E_COORD97":173460.12,"N_COORD97":2540229.0299999998,"ADDRESS":"中正路二段７３９號","OBJECTID":610549},"geometry":{"x":173460.12000000011,"y":2540229.0299999993}},{"attributes":{"ID":610577,"DIS_CODE":0,"TOWNNAME":"仁德區","LI":"後壁里","LIN":"3鄰","STREET":"中正路","SECT":"二段","MAREA":" ","LANE":" ","ALLEY":" ","HOUSE_NO":"３１４號","E_COORD97":173260.85999999999,"N_COORD97":2539043.77,"ADDRESS":"中正路二段３１４號","OBJECTID":610550},"geometry":{"x":173260.86000000034,"y":2539043.7699999996}},{"attributes":{"ID":610578,"DIS_CODE":0,"TOWNNAME":"仁德區","LI":"仁德里","LIN":"3鄰","STREET":"中正路","SECT":"二段","MAREA":" ","LANE":" ","ALLEY":" ","HOUSE_NO":"７８７號","E_COORD97":173447.47,"N_COORD97":2540352.52,"ADDRESS":"中正路二段７８７號","OBJECTID":610551},"geometry":{"x":173447.46999999974,"y":2540352.5200000014}},{"attributes":{"ID":610579,"DIS_CODE":0,"TOWNNAME":"仁德區","LI":"保安里","LIN":"3鄰","STREET":"保安路","SECT":"一段","MAREA":" ","LANE":" ","ALLEY":" ","HOUSE_NO":"８０號","E_COORD97":170668.92000000001,"N_COORD97":2536364.8199999998,"ADDRESS":"保安路一段８０號","OBJECTID":610552},"geometry":{"x":170668.92000000086,"y":2536364.8200000022}},{"attributes":{"ID":610580,"DIS_CODE":0,"TOWNNAME":"仁德區","LI":"仁德里","LIN":"3鄰","STREET":"中正路","SECT":"二段","MAREA":" ","LANE":" ","ALLEY":" ","HOUSE_NO":"７９７號","E_COORD97":173446.12,"N_COORD97":2540377.27,"ADDRESS":"中正路二段７９７號","OBJECTID":610553},"geometry":{"x":173446.12000000104,"y":2540377.2700000033}},{"attributes":{"ID":610581,"DIS_CODE":0,"TOWNNAME":"仁德區","LI":"仁德里","LIN":"3鄰","STREET":"中正路","SECT":"二段","MAREA":" ","LANE":" ","ALLEY":" ","HOUSE_NO":"７８５號","E_COORD97":173447.73000000001,"N_COORD97":2540348.27,"ADDRESS":"中正路二段７８５號","OBJECTID":610554},"geometry":{"x":173447.73000000138,"y":2540348.2700000014}},{"attributes":{"ID":610582,"DIS_CODE":0,"TOWNNAME":"仁德區","LI":"保安里","LIN":"3鄰","STREET":"保安路","SECT":"一段","MAREA":" ","LANE":" ","ALLEY":" ","HOUSE_NO":"７８號","E_COORD97":170667,"N_COORD97":2536360.5699999998,"ADDRESS":"保安路一段７８號","OBJECTID":610555},"geometry":{"x":170667.00000000093,"y":2536360.5700000003}},{"attributes":{"ID":610583,"DIS_CODE":0,"TOWNNAME":"仁德區","LI":"仁德里","LIN":"3鄰","STREET":"仁中三街","SECT":" ","MAREA":" ","LANE":" ","ALLEY":" ","HOUSE_NO":"７３號","E_COORD97":173273.97,"N_COORD97":2540411.75,"ADDRESS":"仁中三街７３號","OBJECTID":610556},"geometry":{"x":173273.97000000067,"y":2540411.7500000037}},{"attributes":{"ID":610584,"DIS_CODE":0,"TOWNNAME":"仁德區","LI":"仁德里","LIN":"3鄰","STREET":"中正路","SECT":"二段","MAREA":" ","LANE":" ","ALLEY":" ","HOUSE_NO":"７５１號","E_COORD97":173458.25,"N_COORD97":2540254.52,"ADDRESS":"中正路二段７５１號","OBJECTID":610557},"geometry":{"x":173458.25000000186,"y":2540254.5200000014}},{"attributes":{"ID":610585,"DIS_CODE":0,"TOWNNAME":"仁德區","LI":"仁德里","LIN":"3鄰","STREET":"中正路","SECT":"二段","MAREA":" ","LANE":" ","ALLEY":" ","HOUSE_NO":"７５７號之１","E_COORD97":173456.26999999999,"N_COORD97":2540296.7999999998,"ADDRESS":"中正路二段７５７號之１","OBJECTID":610558},"geometry":{"x":173456.27000000048,"y":2540296.7999999989}},{"attributes":{"ID":610586,"DIS_CODE":0,"TOWNNAME":"仁德區","LI":"保安里","LIN":"3鄰","STREET":"保安路","SECT":"一段","MAREA":" ","LANE":" ","ALLEY":" ","HOUSE_NO":"１４９號","E_COORD97":171223.47,"N_COORD97":2536894.8199999998,"ADDRESS":"保安路一段１４９號","OBJECTID":610559},"geometry":{"x":171223.46999999974,"y":2536894.8200000003}},{"attributes":{"ID":610587,"DIS_CODE":0,"TOWNNAME":"仁德區","LI":"保安里","LIN":"3鄰","STREET":"保安路","SECT":"一段","MAREA":" ","LANE":" ","ALLEY":" ","HOUSE_NO":"１４６號","E_COORD97":171145.34,"N_COORD97":2536840.5600000001,"ADDRESS":"保安路一段１４６號","OBJECTID":610560},"geometry":{"x":171145.34000000171,"y":2536840.5600000024}},{"attributes":{"ID":610588,"DIS_CODE":0,"TOWNNAME":"仁德區","LI":"保安里","LIN":"3鄰","STREET":"保安路","SECT":"一段","MAREA":" ","LANE":" ","ALLEY":" ","HOUSE_NO":"１４３號","E_COORD97":171186.92999999999,"N_COORD97":2536872.8100000001,"ADDRESS":"保安路一段１４３號","OBJECTID":610561},"geometry":{"x":171186.93000000156,"y":2536872.8100000024}},{"attributes":{"ID":610589,"DIS_CODE":0,"TOWNNAME":"仁德區","LI":"保安里","LIN":"3鄰","STREET":"保安路","SECT":"一段","MAREA":" ","LANE":" ","ALLEY":" ","HOUSE_NO":"１１４號","E_COORD97":171046.04000000001,"N_COORD97":2536776.8199999998,"ADDRESS":"保安路一段１１４號","OBJECTID":610562},"geometry":{"x":171046.04000000097,"y":2536776.8200000003}},{"attributes":{"ID":610590,"DIS_CODE":0,"TOWNNAME":"仁德區","LI":"仁德里","LIN":"3鄰","STREET":"中正路","SECT":"二段","MAREA":" ","LANE":" ","ALLEY":" ","HOUSE_NO":"７５５號","E_COORD97":173457.42999999999,"N_COORD97":2540263.02,"ADDRESS":"中正路二段７５５號","OBJECTID":610563},"geometry":{"x":173457.43000000063,"y":2540263.0199999996}},{"attributes":{"ID":610591,"DIS_CODE":0,"TOWNNAME":"仁德區","LI":"仁德里","LIN":"3鄰","STREET":"中正路","SECT":"二段","MAREA":" ","LANE":" ","ALLEY":" ","HOUSE_NO":"７５３號","E_COORD97":173457.87,"N_COORD97":2540258.77,"ADDRESS":"中正路二段７５３號","OBJECTID":610564},"geometry":{"x":173457.87000000104,"y":2540258.7700000033}},{"attributes":{"ID":610592,"DIS_CODE":0,"TOWNNAME":"仁德區","LI":"仁德里","LIN":"3鄰","STREET":"中正路","SECT":"二段","MAREA":" ","LANE":" ","ALLEY":" ","HOUSE_NO":"７５７號","E_COORD97":173456.31,"N_COORD97":2540269.77,"ADDRESS":"中正路二段７５７號","OBJECTID":610565},"geometry":{"x":173456.31000000052,"y":2540269.7700000014}},{"attributes":{"ID":610593,"DIS_CODE":0,"TOWNNAME":"仁德區","LI":"保安里","LIN":"3鄰","STREET":"保安路","SECT":"一段","MAREA":" ","LANE":" ","ALLEY":" ","HOUSE_NO":"２２號","E_COORD97":170465.82000000001,"N_COORD97":2536003.3100000001,"ADDRESS":"保安路一段２２號","OBJECTID":610566},"geometry":{"x":170465.8200000003,"y":2536003.3100000005}},{"attributes":{"ID":610594,"DIS_CODE":0,"TOWNNAME":"仁德區","LI":"仁德里","LIN":"3鄰","STREET":"仁中六街","SECT":" ","MAREA":" ","LANE":" ","ALLEY":" ","HOUSE_NO":"８０號","E_COORD97":173394.67999999999,"N_COORD97":2540439,"ADDRESS":"仁中六街８０號","OBJECTID":610567},"geometry":{"x":173394.68000000063,"y":2540439}},{"attributes":{"ID":610595,"DIS_CODE":0,"TOWNNAME":"仁德區","LI":"保安里","LIN":"3鄰","STREET":"保安路","SECT":"一段","MAREA":" ","LANE":" ","ALLEY":" ","HOUSE_NO":"１４７號","E_COORD97":171195.78,"N_COORD97":2536873.3100000001,"ADDRESS":"保安路一段１４７號","OBJECTID":610568},"geometry":{"x":171195.78000000119,"y":2536873.3100000024}},{"attributes":{"ID":610596,"DIS_CODE":0,"TOWNNAME":"仁德區","LI":"仁德里","LIN":"3鄰","STREET":"仁中三街","SECT":" ","MAREA":" ","LANE":" ","ALLEY":" ","HOUSE_NO":"６５號","E_COORD97":173292.53,"N_COORD97":2540411.25,"ADDRESS":"仁中三街６５號","OBJECTID":610569},"geometry":{"x":173292.53000000119,"y":2540411.25}},{"attributes":{"ID":610597,"DIS_CODE":0,"TOWNNAME":"仁德區","LI":"保安里","LIN":"3鄰","STREET":"保安路","SECT":"一段","MAREA":" ","LANE":" ","ALLEY":" ","HOUSE_NO":"１３１號","E_COORD97":171162.54999999999,"N_COORD97":2536864.3100000001,"ADDRESS":"保安路一段１３１號","OBJECTID":610570},"geometry":{"x":171162.55000000075,"y":2536864.3100000005}},{"attributes":{"ID":610598,"DIS_CODE":0,"TOWNNAME":"仁德區","LI":"仁德里","LIN":"3鄰","STREET":"仁中五街","SECT":" ","MAREA":" ","LANE":" ","ALLEY":" ","HOUSE_NO":"６０號","E_COORD97":173366.60000000001,"N_COORD97":2540302.5,"ADDRESS":"仁中五街６０號","OBJECTID":610571},"geometry":{"x":173366.59999999963,"y":2540302.5000000019}},{"attributes":{"ID":610599,"DIS_CODE":0,"TOWNNAME":"仁德區","LI":"仁德里","LIN":"3鄰","STREET":"仁中五街","SECT":" ","MAREA":" ","LANE":" ","ALLEY":" ","HOUSE_NO":"６７號","E_COORD97":173358.73999999999,"N_COORD97":2540283.2400000002,"ADDRESS":"仁中五街６７號","OBJECTID":610572},"geometry":{"x":173358.74000000115,"y":2540283.2400000039}},{"attributes":{"ID":610600,"DIS_CODE":0,"TOWNNAME":"仁德區","LI":"仁德里","LIN":"3鄰","STREET":"仁德五街","SECT":" ","MAREA":" ","LANE":" ","ALLEY":" ","HOUSE_NO":"２８號","E_COORD97":173355.54000000001,"N_COORD97":2540262.7599999998,"ADDRESS":"仁德五街２８號","OBJECTID":610573},"geometry":{"x":173355.54000000004,"y":2540262.7600000016}},{"attributes":{"ID":610601,"DIS_CODE":0,"TOWNNAME":"仁德區","LI":"保安里","LIN":"3鄰","STREET":"保安路","SECT":"一段","MAREA":" ","LANE":" ","ALLEY":" ","HOUSE_NO":"１５８號","E_COORD97":171168.09,"N_COORD97":2536848.3100000001,"ADDRESS":"保安路一段１５８號","OBJECTID":610574},"geometry":{"x":171168.09000000078,"y":2536848.3100000005}},{"attributes":{"ID":610602,"DIS_CODE":0,"TOWNNAME":"仁德區","LI":"仁德里","LIN":"3鄰","STREET":"仁中三街","SECT":" ","MAREA":" ","LANE":" ","ALLEY":" ","HOUSE_NO":"５９號","E_COORD97":173305.48000000001,"N_COORD97":2540411,"ADDRESS":"仁中三街５９號","OBJECTID":610575},"geometry":{"x":173305.48000000045,"y":2540411.0000000019}},{"attributes":{"ID":610603,"DIS_CODE":0,"TOWNNAME":"仁德區","LI":"保安里","LIN":"3鄰","STREET":"保安路","SECT":"一段","MAREA":" ","LANE":" ","ALLEY":" ","HOUSE_NO":"１５６號","E_COORD97":171164.37,"N_COORD97":2536847.5600000001,"ADDRESS":"保安路一段１５６號","OBJECTID":610576},"geometry":{"x":171164.37000000104,"y":2536847.5600000024}},{"attributes":{"ID":610604,"DIS_CODE":0,"TOWNNAME":"仁德區","LI":"後壁里","LIN":"3鄰","STREET":"中正路","SECT":"二段","MAREA":" ","LANE":" ","ALLEY":" ","HOUSE_NO":"２８４號","E_COORD97":173253.28,"N_COORD97":2538978.0299999998,"ADDRESS":"中正路二段２８４號","OBJECTID":610577},"geometry":{"x":173253.28000000212,"y":2538978.0299999993}},{"attributes":{"ID":610605,"DIS_CODE":0,"TOWNNAME":"永康區","LI":"大橋里","LIN":"3鄰","STREET":"大橋二街","SECT":" ","MAREA":" ","LANE":" ","ALLEY":" ","HOUSE_NO":"１３１號","E_COORD97":170821.67000000001,"N_COORD97":2546637.52,"ADDRESS":"大橋二街１３１號","OBJECTID":610578},"geometry":{"x":170821.67000000086,"y":2546637.5200000033}},{"attributes":{"ID":610606,"DIS_CODE":0,"TOWNNAME":"仁德區","LI":"仁德里","LIN":"3鄰","STREET":"仁中五街","SECT":" ","MAREA":" ","LANE":" ","ALLEY":" ","HOUSE_NO":"６５號","E_COORD97":173362.79000000001,"N_COORD97":2540281.9900000002,"ADDRESS":"仁中五街６５號","OBJECTID":610579},"geometry":{"x":173362.79000000004,"y":2540281.9900000021}},{"attributes":{"ID":610607,"DIS_CODE":0,"TOWNNAME":"仁德區","LI":"仁德里","LIN":"3鄰","STREET":"仁中三街","SECT":" ","MAREA":" ","LANE":" ","ALLEY":" ","HOUSE_NO":"５７號","E_COORD97":173310.19,"N_COORD97":2540411,"ADDRESS":"仁中三街５７號","OBJECTID":610580},"geometry":{"x":173310.19000000134,"y":2540411.0000000019}},{"attributes":{"ID":610608,"DIS_CODE":0,"TOWNNAME":"仁德區","LI":"仁德里","LIN":"3鄰","STREET":"仁中六街","SECT":" ","MAREA":" ","LANE":" ","ALLEY":" ","HOUSE_NO":"８６號","E_COORD97":173403.67999999999,"N_COORD97":2540440.25,"ADDRESS":"仁中六街８６號","OBJECTID":610581},"geometry":{"x":173403.6799999997,"y":2540440.2500000019}},{"attributes":{"ID":610609,"DIS_CODE":0,"TOWNNAME":"仁德區","LI":"後壁里","LIN":"3鄰","STREET":"中正路","SECT":"二段","MAREA":" ","LANE":" ","ALLEY":" ","HOUSE_NO":"２８２號","E_COORD97":173252.81,"N_COORD97":2538972.5299999998,"ADDRESS":"中正路二段２８２號","OBJECTID":610582},"geometry":{"x":173252.81000000052,"y":2538972.5300000012}},{"attributes":{"ID":610610,"DIS_CODE":0,"TOWNNAME":"仁德區","LI":"成功里","LIN":"3鄰","STREET":"保生東路","SECT":" ","MAREA":" ","LANE":" ","ALLEY":" ","HOUSE_NO":"１５１號","E_COORD97":171160.72,"N_COORD97":2539620.7599999998,"ADDRESS":"保生東路１５１號","OBJECTID":610583},"geometry":{"x":171160.71999999974,"y":2539620.7599999998}},{"attributes":{"ID":610611,"DIS_CODE":0,"TOWNNAME":"仁德區","LI":"新田里","LIN":"3鄰","STREET":"新田二街","SECT":" ","MAREA":" ","LANE":" ","ALLEY":" ","HOUSE_NO":"４２之７號","E_COORD97":174736.26000000001,"N_COORD97":2539715.7999999998,"ADDRESS":"新田二街４２之７號","OBJECTID":610584},"geometry":{"x":174736.26000000071,"y":2539715.8000000007}},{"attributes":{"ID":610612,"DIS_CODE":0,"TOWNNAME":"仁德區","LI":"新田里","LIN":"3鄰","STREET":"新田二街","SECT":" ","MAREA":" ","LANE":" ","ALLEY":" ","HOUSE_NO":"９８號","E_COORD97":174844.67000000001,"N_COORD97":2539804.5,"ADDRESS":"新田二街９８號","OBJECTID":610585},"geometry":{"x":174844.66999999993,"y":2539804.5000000019}},{"attributes":{"ID":610613,"DIS_CODE":0,"TOWNNAME":"仁德區","LI":"新田里","LIN":"3鄰","STREET":"新田二街","SECT":" ","MAREA":" ","LANE":" ","ALLEY":" ","HOUSE_NO":"４２之５號","E_COORD97":174722.85999999999,"N_COORD97":2539697.7999999998,"ADDRESS":"新田二街４２之５號","OBJECTID":610586},"geometry":{"x":174722.86000000127,"y":2539697.8000000026}},{"attributes":{"ID":610614,"DIS_CODE":0,"TOWNNAME":"仁德區","LI":"新田里","LIN":"3鄰","STREET":"新田二街","SECT":" ","MAREA":" ","LANE":" ","ALLEY":" ","HOUSE_NO":"１號","E_COORD97":174511.04000000001,"N_COORD97":2539762.7400000002,"ADDRESS":"新田二街１號","OBJECTID":610587},"geometry":{"x":174511.04000000097,"y":2539762.7400000021}},{"attributes":{"ID":610615,"DIS_CODE":0,"TOWNNAME":"仁德區","LI":"後壁里","LIN":"3鄰","STREET":"德善路","SECT":" ","MAREA":" ","LANE":" ","ALLEY":" ","HOUSE_NO":"１９號","E_COORD97":173273.04999999999,"N_COORD97":2538938.2599999998,"ADDRESS":"德善路１９號","OBJECTID":610588},"geometry":{"x":173273.05000000075,"y":2538938.2600000016}},{"attributes":{"ID":610616,"DIS_CODE":0,"TOWNNAME":"仁德區","LI":"新田里","LIN":"3鄰","STREET":"新田二街","SECT":" ","MAREA":" ","LANE":" ","ALLEY":" ","HOUSE_NO":"１５號","E_COORD97":174701.48000000001,"N_COORD97":2539820.5,"ADDRESS":"新田二街１５號","OBJECTID":610589},"geometry":{"x":174701.48000000231,"y":2539820.5000000019}},{"attributes":{"ID":610617,"DIS_CODE":0,"TOWNNAME":"仁德區","LI":"後壁里","LIN":"3鄰","STREET":"德善路","SECT":" ","MAREA":" ","LANE":" ","ALLEY":" ","HOUSE_NO":"２３號","E_COORD97":173281.09,"N_COORD97":2538933.7599999998,"ADDRESS":"德善路２３號","OBJECTID":610590},"geometry":{"x":173281.09000000171,"y":2538933.7600000016}},{"attributes":{"ID":610618,"DIS_CODE":0,"TOWNNAME":"仁德區","LI":"新田里","LIN":"3鄰","STREET":"新田二街","SECT":" ","MAREA":" ","LANE":" ","ALLEY":" ","HOUSE_NO":"３６號","E_COORD97":174663.13,"N_COORD97":2539758.2400000002,"ADDRESS":"新田二街３６號","OBJECTID":610591},"geometry":{"x":174663.13000000082,"y":2539758.2400000021}},{"attributes":{"ID":610619,"DIS_CODE":0,"TOWNNAME":"官田區","LI":"隆田里","LIN":"3鄰","STREET":"裕民街","SECT":" ","MAREA":" ","LANE":" ","ALLEY":" ","HOUSE_NO":"１０號","E_COORD97":180241.67000000001,"N_COORD97":2565723.9199999999,"ADDRESS":"裕民街１０號","OBJECTID":610592},"geometry":{"x":180241.67000000086,"y":2565723.9200000018}},{"attributes":{"ID":610620,"DIS_CODE":0,"TOWNNAME":"官田區","LI":"隆田里","LIN":"3鄰","STREET":"裕民街","SECT":" ","MAREA":" ","LANE":" ","ALLEY":" ","HOUSE_NO":"１２號","E_COORD97":180233.48999999999,"N_COORD97":2565723.8399999999,"ADDRESS":"裕民街１２號","OBJECTID":610593},"geometry":{"x":180233.49000000022,"y":2565723.8400000036}},{"attributes":{"ID":610621,"DIS_CODE":0,"TOWNNAME":"官田區","LI":"隆田里","LIN":"3鄰","STREET":"裕民街","SECT":" ","MAREA":" ","LANE":" ","ALLEY":" ","HOUSE_NO":"１６號","E_COORD97":180223.07999999999,"N_COORD97":2565725.3999999999,"ADDRESS":"裕民街１６號","OBJECTID":610594},"geometry":{"x":180223.08000000007,"y":2565725.4000000022}},{"attributes":{"ID":610622,"DIS_CODE":0,"TOWNNAME":"官田區","LI":"隆田里","LIN":"3鄰","STREET":"裕民街","SECT":" ","MAREA":" ","LANE":" ","ALLEY":" ","HOUSE_NO":"１８號","E_COORD97":180201.47,"N_COORD97":2565691.6600000001,"ADDRESS":"裕民街１８號","OBJECTID":610595},"geometry":{"x":180201.46999999974,"y":2565691.660000002}},{"attributes":{"ID":610623,"DIS_CODE":0,"TOWNNAME":"官田區","LI":"隆田里","LIN":"3鄰","STREET":"裕民街","SECT":" ","MAREA":" ","LANE":" ","ALLEY":" ","HOUSE_NO":"６號","E_COORD97":180247.57999999999,"N_COORD97":2565723.8399999999,"ADDRESS":"裕民街６號","OBJECTID":610596},"geometry":{"x":180247.58000000101,"y":2565723.8400000036}},{"attributes":{"ID":610624,"DIS_CODE":0,"TOWNNAME":"官田區","LI":"隆田里","LIN":"3鄰","STREET":"中山路","SECT":"一段","MAREA":" ","LANE":" ","ALLEY":" ","HOUSE_NO":"３１號","E_COORD97":180227.04000000001,"N_COORD97":2565763.8500000001,"ADDRESS":"中山路一段３１號","OBJECTID":610597},"geometry":{"x":180227.04000000097,"y":2565763.8500000034}},{"attributes":{"ID":610625,"DIS_CODE":0,"TOWNNAME":"官田區","LI":"隆田里","LIN":"3鄰","STREET":"中山路","SECT":"一段","MAREA":" ","LANE":" ","ALLEY":" ","HOUSE_NO":"３３號","E_COORD97":180223.63,"N_COORD97":2565763.0899999999,"ADDRESS":"中山路一段３３號","OBJECTID":610598},"geometry":{"x":180223.62999999989,"y":2565763.0900000017}},{"attributes":{"ID":610626,"DIS_CODE":0,"TOWNNAME":"新市區","LI":"新和里","LIN":"3鄰","STREET":"仁愛街","SECT":" ","MAREA":" ","LANE":" ","ALLEY":" ","HOUSE_NO":"３８號","E_COORD97":177468.95000000001,"N_COORD97":2552177.2799999998,"ADDRESS":"仁愛街３８號","OBJECTID":610599},"geometry":{"x":177468.95000000019,"y":2552177.2799999993}},{"attributes":{"ID":610627,"DIS_CODE":0,"TOWNNAME":"新市區","LI":"新和里","LIN":"3鄰","STREET":"延平街","SECT":" ","MAREA":" ","LANE":" ","ALLEY":" ","HOUSE_NO":"２６號","E_COORD97":177427.42999999999,"N_COORD97":2552072.3300000001,"ADDRESS":"延平街２６號","OBJECTID":610600},"geometry":{"x":177427.43000000063,"y":2552072.3300000019}}]}