{"displayFieldName":"TOWNNAME","fieldAliases":{"ID":"ID","DIS_CODE":"DIS_CODE","TOWNNAME":"TOWNNAME","LI":"LI","LIN":"LIN","STREET":"STREET","SECT":"SECT","MAREA":"MAREA","LANE":"LANE","ALLEY":"ALLEY","HOUSE_NO":"HOUSE_NO","E_COORD97":"E_COORD97","N_COORD97":"N_COORD97","ADDRESS":"ADDRESS","OBJECTID":"OBJECTID"},"geometryType":"esriGeometryPoint","spatialReference":{"wkid":102443,"latestWkid":3826},"fields":[{"name":"ID","type":"esriFieldTypeDouble","alias":"ID"},{"name":"DIS_CODE","type":"esriFieldTypeInteger","alias":"DIS_CODE"},{"name":"TOWNNAME","type":"esriFieldTypeString","alias":"TOWNNAME","length":8},{"name":"LI","type":"esriFieldTypeString","alias":"LI","length":8},{"name":"LIN","type":"esriFieldTypeString","alias":"LIN","length":12},{"name":"STREET","type":"esriFieldTypeString","alias":"STREET","length":20},{"name":"SECT","type":"esriFieldTypeString","alias":"SECT","length":8},{"name":"MAREA","type":"esriFieldTypeString","alias":"MAREA","length":12},{"name":"LANE","type":"esriFieldTypeString","alias":"LANE","length":10},{"name":"ALLEY","type":"esriFieldTypeString","alias":"ALLEY","length":10},{"name":"HOUSE_NO","type":"esriFieldTypeString","alias":"HOUSE_NO","length":20},{"name":"E_COORD97","type":"esriFieldTypeDouble","alias":"E_COORD97"},{"name":"N_COORD97","type":"esriFieldTypeDouble","alias":"N_COORD97"},{"name":"ADDRESS","type":"esriFieldTypeString","alias":"ADDRESS","length":50},{"name":"OBJECTID","type":"esriFieldTypeOID","alias":"OBJECTID"}],"features":[{"attributes":{"ID":449026,"DIS_CODE":0,"TOWNNAME":"東區","LI":"德高里","LIN":"18鄰","STREET":"城東街","SECT":" ","MAREA":" ","LANE":"５２巷","ALLEY":" ","HOUSE_NO":"１８號","E_COORD97":171647.06,"N_COORD97":2540692.8199999998,"ADDRESS":"城東街５２巷１８號","OBJECTID":449001},"geometry":{"x":171647.06000000052,"y":2540692.8199999984}},{"attributes":{"ID":449027,"DIS_CODE":0,"TOWNNAME":"東區","LI":"德高里","LIN":"18鄰","STREET":"城東街","SECT":" ","MAREA":" ","LANE":"５２巷","ALLEY":" ","HOUSE_NO":"１９號","E_COORD97":171684.62,"N_COORD97":2540686.7000000002,"ADDRESS":"城東街５２巷１９號","OBJECTID":449002},"geometry":{"x":171684.62000000104,"y":2540686.7000000011}},{"attributes":{"ID":449028,"DIS_CODE":0,"TOWNNAME":"東區","LI":"德高里","LIN":"18鄰","STREET":"城東街","SECT":" ","MAREA":" ","LANE":"５２巷","ALLEY":" ","HOUSE_NO":"２０號","E_COORD97":171647.94,"N_COORD97":2540688.1299999999,"ADDRESS":"城東街５２巷２０號","OBJECTID":449003},"geometry":{"x":171647.94000000041,"y":2540688.129999999}},{"attributes":{"ID":449029,"DIS_CODE":0,"TOWNNAME":"東區","LI":"德高里","LIN":"18鄰","STREET":"城東街","SECT":" ","MAREA":" ","LANE":"５２巷","ALLEY":" ","HOUSE_NO":"２１號","E_COORD97":171688.42999999999,"N_COORD97":2540683.77,"ADDRESS":"城東街５２巷２１號","OBJECTID":449004},"geometry":{"x":171688.4299999997,"y":2540683.7700000014}},{"attributes":{"ID":449030,"DIS_CODE":0,"TOWNNAME":"東區","LI":"德高里","LIN":"18鄰","STREET":"城東街","SECT":" ","MAREA":" ","LANE":"５２巷","ALLEY":" ","HOUSE_NO":"２２號","E_COORD97":171649.85000000001,"N_COORD97":2540684.0600000001,"ADDRESS":"城東街５２巷２２號","OBJECTID":449005},"geometry":{"x":171649.84999999963,"y":2540684.0600000005}},{"attributes":{"ID":449031,"DIS_CODE":0,"TOWNNAME":"東區","LI":"德高里","LIN":"18鄰","STREET":"城東街","SECT":" ","MAREA":" ","LANE":"５２巷","ALLEY":" ","HOUSE_NO":"２４號","E_COORD97":171651.01999999999,"N_COORD97":2540679.6699999999,"ADDRESS":"城東街５２巷２４號","OBJECTID":449006},"geometry":{"x":171651.02000000048,"y":2540679.6699999999}},{"attributes":{"ID":449032,"DIS_CODE":0,"TOWNNAME":"東區","LI":"德高里","LIN":"18鄰","STREET":"城東街","SECT":" ","MAREA":" ","LANE":"５２巷","ALLEY":" ","HOUSE_NO":"２６號","E_COORD97":171659.97,"N_COORD97":2540661.46,"ADDRESS":"城東街５２巷２６號","OBJECTID":449007},"geometry":{"x":171659.97000000067,"y":2540661.4600000009}},{"attributes":{"ID":449033,"DIS_CODE":0,"TOWNNAME":"東區","LI":"德高里","LIN":"18鄰","STREET":"城東街","SECT":" ","MAREA":" ","LANE":"５２巷","ALLEY":" ","HOUSE_NO":"２８號","E_COORD97":171663.79000000001,"N_COORD97":2540663.9500000002,"ADDRESS":"城東街５２巷２８號","OBJECTID":449008},"geometry":{"x":171663.79000000004,"y":2540663.950000003}},{"attributes":{"ID":449034,"DIS_CODE":0,"TOWNNAME":"東區","LI":"德高里","LIN":"18鄰","STREET":"城東街","SECT":" ","MAREA":" ","LANE":"５２巷","ALLEY":" ","HOUSE_NO":"２號","E_COORD97":171628.45000000001,"N_COORD97":2540736.29,"ADDRESS":"城東街５２巷２號","OBJECTID":449009},"geometry":{"x":171628.45000000112,"y":2540736.2900000028}},{"attributes":{"ID":449035,"DIS_CODE":0,"TOWNNAME":"東區","LI":"德高里","LIN":"18鄰","STREET":"城東街","SECT":" ","MAREA":" ","LANE":"５２巷","ALLEY":" ","HOUSE_NO":"３０號","E_COORD97":171668.04000000001,"N_COORD97":2540665.27,"ADDRESS":"城東街５２巷３０號","OBJECTID":449010},"geometry":{"x":171668.04000000097,"y":2540665.2699999977}},{"attributes":{"ID":449036,"DIS_CODE":0,"TOWNNAME":"東區","LI":"德高里","LIN":"18鄰","STREET":"城東街","SECT":" ","MAREA":" ","LANE":"５２巷","ALLEY":" ","HOUSE_NO":"３２號","E_COORD97":171672.73999999999,"N_COORD97":2540666.2999999998,"ADDRESS":"城東街５２巷３２號","OBJECTID":449011},"geometry":{"x":171672.74000000022,"y":2540666.2999999989}},{"attributes":{"ID":449037,"DIS_CODE":0,"TOWNNAME":"東區","LI":"德高里","LIN":"18鄰","STREET":"城東街","SECT":" ","MAREA":" ","LANE":"５２巷","ALLEY":" ","HOUSE_NO":"４號","E_COORD97":171629.92000000001,"N_COORD97":2540732.9199999999,"ADDRESS":"城東街５２巷４號","OBJECTID":449012},"geometry":{"x":171629.92000000086,"y":2540732.9200000037}},{"attributes":{"ID":449038,"DIS_CODE":0,"TOWNNAME":"東區","LI":"德高里","LIN":"18鄰","STREET":"城東街","SECT":" ","MAREA":" ","LANE":"５２巷","ALLEY":" ","HOUSE_NO":"７號","E_COORD97":171661.44,"N_COORD97":2540705.02,"ADDRESS":"城東街５２巷７號","OBJECTID":449013},"geometry":{"x":171661.44000000041,"y":2540705.0200000014}},{"attributes":{"ID":449039,"DIS_CODE":0,"TOWNNAME":"東區","LI":"德高里","LIN":"18鄰","STREET":"城東街","SECT":" ","MAREA":" ","LANE":"５２巷","ALLEY":" ","HOUSE_NO":"９號","E_COORD97":171663.48999999999,"N_COORD97":2540700.9199999999,"ADDRESS":"城東街５２巷９號","OBJECTID":449014},"geometry":{"x":171663.49000000115,"y":2540700.9199999999}},{"attributes":{"ID":449040,"DIS_CODE":0,"TOWNNAME":"東區","LI":"德高里","LIN":"18鄰","STREET":"城東街","SECT":" ","MAREA":" ","LANE":"１２巷","ALLEY":" ","HOUSE_NO":"３９號","E_COORD97":171650.73000000001,"N_COORD97":2540640.9399999999,"ADDRESS":"城東街１２巷３９號","OBJECTID":449015},"geometry":{"x":171650.73000000138,"y":2540640.9400000013}},{"attributes":{"ID":449041,"DIS_CODE":0,"TOWNNAME":"東區","LI":"德高里","LIN":"18鄰","STREET":"城東街","SECT":" ","MAREA":" ","LANE":"５２巷","ALLEY":" ","HOUSE_NO":"６號","E_COORD97":171632.41,"N_COORD97":2540729.5499999998,"ADDRESS":"城東街５２巷６號","OBJECTID":449016},"geometry":{"x":171632.41000000108,"y":2540729.5500000026}},{"attributes":{"ID":449042,"DIS_CODE":0,"TOWNNAME":"東區","LI":"德高里","LIN":"18鄰","STREET":"城東街","SECT":" ","MAREA":" ","LANE":"５２巷","ALLEY":" ","HOUSE_NO":"８號","E_COORD97":171633.88,"N_COORD97":2540725.7400000002,"ADDRESS":"城東街５２巷８號","OBJECTID":449017},"geometry":{"x":171633.88000000082,"y":2540725.7400000002}},{"attributes":{"ID":449043,"DIS_CODE":0,"TOWNNAME":"東區","LI":"德高里","LIN":"18鄰","STREET":"城東街","SECT":" ","MAREA":" ","LANE":"５２巷","ALLEY":" ","HOUSE_NO":"３４號","E_COORD97":171681.98000000001,"N_COORD97":2540665.71,"ADDRESS":"城東街５２巷３４號","OBJECTID":449018},"geometry":{"x":171681.98000000045,"y":2540665.7100000009}},{"attributes":{"ID":449044,"DIS_CODE":0,"TOWNNAME":"東區","LI":"崇德里","LIN":"18鄰","STREET":"崇明十三街","SECT":" ","MAREA":" ","LANE":"１１巷","ALLEY":" ","HOUSE_NO":"６６號","E_COORD97":170544.14000000001,"N_COORD97":2541728.2799999998,"ADDRESS":"崇明十三街１１巷６６號","OBJECTID":449019},"geometry":{"x":170544.13999999966,"y":2541728.2799999993}},{"attributes":{"ID":449045,"DIS_CODE":0,"TOWNNAME":"東區","LI":"崇德里","LIN":"18鄰","STREET":"崇明十三街","SECT":" ","MAREA":" ","LANE":"１１巷","ALLEY":" ","HOUSE_NO":"６８號","E_COORD97":170550.17000000001,"N_COORD97":2541724.21,"ADDRESS":"崇明十三街１１巷６８號","OBJECTID":449020},"geometry":{"x":170550.17000000086,"y":2541724.2100000009}},{"attributes":{"ID":449046,"DIS_CODE":0,"TOWNNAME":"中西區","LI":"萬昌里","LIN":"18鄰","STREET":"青年路","SECT":" ","MAREA":" ","LANE":"１６４巷","ALLEY":" ","HOUSE_NO":"２６號之１","E_COORD97":169009.20999999999,"N_COORD97":2543526.6499999999,"ADDRESS":"青年路１６４巷２６號之１","OBJECTID":449021},"geometry":{"x":169009.21000000089,"y":2543526.6500000022}},{"attributes":{"ID":449047,"DIS_CODE":0,"TOWNNAME":"中西區","LI":"萬昌里","LIN":"18鄰","STREET":"青年路","SECT":" ","MAREA":" ","LANE":"１６４巷","ALLEY":" ","HOUSE_NO":"２６號之２","E_COORD97":169005.76999999999,"N_COORD97":2543526.5499999998,"ADDRESS":"青年路１６４巷２６號之２","OBJECTID":449022},"geometry":{"x":169005.76999999955,"y":2543526.5500000045}},{"attributes":{"ID":449048,"DIS_CODE":0,"TOWNNAME":"中西區","LI":"萬昌里","LIN":"18鄰","STREET":"青年路","SECT":" ","MAREA":" ","LANE":"１６４巷","ALLEY":" ","HOUSE_NO":"２６號之３","E_COORD97":169000.76999999999,"N_COORD97":2543527.1299999999,"ADDRESS":"青年路１６４巷２６號之３","OBJECTID":449023},"geometry":{"x":169000.76999999955,"y":2543527.1299999971}},{"attributes":{"ID":449049,"DIS_CODE":0,"TOWNNAME":"中西區","LI":"萬昌里","LIN":"18鄰","STREET":"青年路","SECT":" ","MAREA":" ","LANE":"１６４巷","ALLEY":" ","HOUSE_NO":"２６號之４","E_COORD97":168996.81,"N_COORD97":2543527.5899999999,"ADDRESS":"青年路１６４巷２６號之４","OBJECTID":449024},"geometry":{"x":168996.80999999959,"y":2543527.5899999999}},{"attributes":{"ID":449050,"DIS_CODE":0,"TOWNNAME":"中西區","LI":"萬昌里","LIN":"18鄰","STREET":"青年路","SECT":" ","MAREA":" ","LANE":"１６４巷","ALLEY":" ","HOUSE_NO":"２６號之５","E_COORD97":168992.16,"N_COORD97":2543528.4100000001,"ADDRESS":"青年路１６４巷２６號之５","OBJECTID":449025},"geometry":{"x":168992.16000000201,"y":2543528.4100000001}},{"attributes":{"ID":449051,"DIS_CODE":0,"TOWNNAME":"中西區","LI":"萬昌里","LIN":"18鄰","STREET":"青年路","SECT":" ","MAREA":" ","LANE":"１６４巷","ALLEY":" ","HOUSE_NO":"２６號之６","E_COORD97":168988.09,"N_COORD97":2543529.2200000002,"ADDRESS":"青年路１６４巷２６號之６","OBJECTID":449026},"geometry":{"x":168988.08999999985,"y":2543529.2200000025}},{"attributes":{"ID":449052,"DIS_CODE":0,"TOWNNAME":"中西區","LI":"萬昌里","LIN":"18鄰","STREET":"青年路","SECT":" ","MAREA":" ","LANE":"１６４巷","ALLEY":" ","HOUSE_NO":"２６號之７","E_COORD97":168984.94,"N_COORD97":2543528.9900000002,"ADDRESS":"青年路１６４巷２６號之７","OBJECTID":449027},"geometry":{"x":168984.94000000041,"y":2543528.9900000002}},{"attributes":{"ID":449053,"DIS_CODE":0,"TOWNNAME":"中西區","LI":"萬昌里","LIN":"18鄰","STREET":"青年路","SECT":" ","MAREA":" ","LANE":"１６４巷","ALLEY":" ","HOUSE_NO":"２６號之８","E_COORD97":168980.87,"N_COORD97":2543529.2200000002,"ADDRESS":"青年路１６４巷２６號之８","OBJECTID":449028},"geometry":{"x":168980.87000000104,"y":2543529.2200000025}},{"attributes":{"ID":449054,"DIS_CODE":0,"TOWNNAME":"中西區","LI":"萬昌里","LIN":"18鄰","STREET":"青年路","SECT":" ","MAREA":" ","LANE":"１６４巷","ALLEY":" ","HOUSE_NO":"２８號","E_COORD97":169007.75,"N_COORD97":2543515.9700000002,"ADDRESS":"青年路１６４巷２８號","OBJECTID":449029},"geometry":{"x":169007.75,"y":2543515.9700000007}},{"attributes":{"ID":449055,"DIS_CODE":0,"TOWNNAME":"仁德區","LI":"太子里","LIN":"18鄰","STREET":"長興四街","SECT":" ","MAREA":" ","LANE":"５９巷","ALLEY":" ","HOUSE_NO":"１號","E_COORD97":173981.48000000001,"N_COORD97":2543545.7599999998,"ADDRESS":"長興四街５９巷１號","OBJECTID":449030},"geometry":{"x":173981.48000000138,"y":2543545.7600000016}},{"attributes":{"ID":449056,"DIS_CODE":0,"TOWNNAME":"仁德區","LI":"新田里","LIN":"18鄰","STREET":"德糖路","SECT":" ","MAREA":" ","LANE":" ","ALLEY":" ","HOUSE_NO":"３２７號","E_COORD97":173619.95999999999,"N_COORD97":2539163.8199999998,"ADDRESS":"德糖路３２７號","OBJECTID":449031},"geometry":{"x":173619.96000000089,"y":2539163.8199999984}},{"attributes":{"ID":449057,"DIS_CODE":0,"TOWNNAME":"仁德區","LI":"新田里","LIN":"18鄰","STREET":"民安路","SECT":"二段","MAREA":" ","LANE":"１５５巷","ALLEY":" ","HOUSE_NO":"２號","E_COORD97":173704.95999999999,"N_COORD97":2539085.3199999998,"ADDRESS":"民安路二段１５５巷２號","OBJECTID":449032},"geometry":{"x":173704.96000000089,"y":2539085.3200000003}},{"attributes":{"ID":449058,"DIS_CODE":0,"TOWNNAME":"永康區","LI":"西勢里","LIN":"18鄰","STREET":"富強路","SECT":"一段","MAREA":" ","LANE":"１巷","ALLEY":" ","HOUSE_NO":"１２號","E_COORD97":175350.32000000001,"N_COORD97":2546030.6699999999,"ADDRESS":"富強路一段１巷１２號","OBJECTID":449033},"geometry":{"x":175350.32000000123,"y":2546030.6700000018}},{"attributes":{"ID":449059,"DIS_CODE":0,"TOWNNAME":"永康區","LI":"西勢里","LIN":"18鄰","STREET":"富強路","SECT":"一段","MAREA":" ","LANE":"１巷","ALLEY":" ","HOUSE_NO":"１６號","E_COORD97":175348.07000000001,"N_COORD97":2546032.6899999999,"ADDRESS":"富強路一段１巷１６號","OBJECTID":449034},"geometry":{"x":175348.06999999937,"y":2546032.6899999976}},{"attributes":{"ID":449060,"DIS_CODE":0,"TOWNNAME":"永康區","LI":"西勢里","LIN":"18鄰","STREET":"富強路","SECT":"一段","MAREA":" ","LANE":"１巷","ALLEY":" ","HOUSE_NO":"１８號","E_COORD97":175345.48999999999,"N_COORD97":2546034.48,"ADDRESS":"富強路一段１巷１８號","OBJECTID":449035},"geometry":{"x":175345.49000000115,"y":2546034.4800000004}},{"attributes":{"ID":449061,"DIS_CODE":0,"TOWNNAME":"永康區","LI":"西勢里","LIN":"18鄰","STREET":"富強路","SECT":"一段","MAREA":" ","LANE":"１巷","ALLEY":" ","HOUSE_NO":"２０號","E_COORD97":175343.19,"N_COORD97":2546036.5,"ADDRESS":"富強路一段１巷２０號","OBJECTID":449036},"geometry":{"x":175343.19000000134,"y":2546036.5}},{"attributes":{"ID":449062,"DIS_CODE":0,"TOWNNAME":"永康區","LI":"西勢里","LIN":"18鄰","STREET":"富強路","SECT":"一段","MAREA":" ","LANE":"１巷","ALLEY":" ","HOUSE_NO":"２２號","E_COORD97":175340.67000000001,"N_COORD97":2546038.1499999999,"ADDRESS":"富強路一段１巷２２號","OBJECTID":449037},"geometry":{"x":175340.67000000086,"y":2546038.1500000022}},{"attributes":{"ID":449063,"DIS_CODE":0,"TOWNNAME":"永康區","LI":"西勢里","LIN":"18鄰","STREET":"富強路","SECT":"一段","MAREA":" ","LANE":"１巷","ALLEY":" ","HOUSE_NO":"２６號","E_COORD97":175338.54000000001,"N_COORD97":2546040.2400000002,"ADDRESS":"富強路一段１巷２６號","OBJECTID":449038},"geometry":{"x":175338.54000000097,"y":2546040.2400000039}},{"attributes":{"ID":449064,"DIS_CODE":0,"TOWNNAME":"永康區","LI":"西勢里","LIN":"18鄰","STREET":"富強路","SECT":"一段","MAREA":" ","LANE":"１巷","ALLEY":" ","HOUSE_NO":"２８號","E_COORD97":175336.09,"N_COORD97":2546042.1099999999,"ADDRESS":"富強路一段１巷２８號","OBJECTID":449039},"geometry":{"x":175336.09000000078,"y":2546042.1099999994}},{"attributes":{"ID":449065,"DIS_CODE":0,"TOWNNAME":"永康區","LI":"西勢里","LIN":"18鄰","STREET":"富強路","SECT":"一段","MAREA":" ","LANE":"１巷","ALLEY":" ","HOUSE_NO":"３０號","E_COORD97":175333.64000000001,"N_COORD97":2546044.1499999999,"ADDRESS":"富強路一段１巷３０號","OBJECTID":449040},"geometry":{"x":175333.6400000006,"y":2546044.1499999985}},{"attributes":{"ID":449066,"DIS_CODE":0,"TOWNNAME":"永康區","LI":"西勢里","LIN":"18鄰","STREET":"富強路","SECT":"一段","MAREA":" ","LANE":"１巷","ALLEY":" ","HOUSE_NO":"６號","E_COORD97":175356.25,"N_COORD97":2546024.8900000001,"ADDRESS":"富強路一段１巷６號","OBJECTID":449041},"geometry":{"x":175356.25,"y":2546024.8900000006}},{"attributes":{"ID":449067,"DIS_CODE":0,"TOWNNAME":"永康區","LI":"西勢里","LIN":"18鄰","STREET":"富強路","SECT":"一段","MAREA":" ","LANE":"１巷","ALLEY":" ","HOUSE_NO":"８號","E_COORD97":175353.84,"N_COORD97":2546026.5800000001,"ADDRESS":"富強路一段１巷８號","OBJECTID":449042},"geometry":{"x":175353.83999999985,"y":2546026.5800000001}},{"attributes":{"ID":449068,"DIS_CODE":0,"TOWNNAME":"永康區","LI":"六合里","LIN":"18鄰","STREET":"中華路","SECT":" ","MAREA":" ","LANE":"４１３巷","ALLEY":" ","HOUSE_NO":"１號","E_COORD97":171355.16,"N_COORD97":2545554.1299999999,"ADDRESS":"中華路４１３巷１號","OBJECTID":449043},"geometry":{"x":171355.15999999922,"y":2545554.129999999}},{"attributes":{"ID":449069,"DIS_CODE":0,"TOWNNAME":"永康區","LI":"六合里","LIN":"18鄰","STREET":"中華路","SECT":" ","MAREA":" ","LANE":"４５９巷","ALLEY":" ","HOUSE_NO":"１號","E_COORD97":171283.70999999999,"N_COORD97":2545659.2400000002,"ADDRESS":"中華路４５９巷１號","OBJECTID":449044},"geometry":{"x":171283.71000000089,"y":2545659.2400000002}},{"attributes":{"ID":449070,"DIS_CODE":0,"TOWNNAME":"永康區","LI":"六合里","LIN":"18鄰","STREET":"中華路","SECT":" ","MAREA":" ","LANE":"４５９巷","ALLEY":" ","HOUSE_NO":"２號","E_COORD97":171291.98999999999,"N_COORD97":2545682.5,"ADDRESS":"中華路４５９巷２號","OBJECTID":449045},"geometry":{"x":171291.98999999929,"y":2545682.5000000019}},{"attributes":{"ID":449071,"DIS_CODE":0,"TOWNNAME":"永康區","LI":"六合里","LIN":"18鄰","STREET":"中華路","SECT":" ","MAREA":" ","LANE":"４５９巷","ALLEY":" ","HOUSE_NO":"３號","E_COORD97":171275.45000000001,"N_COORD97":2545645.7400000002,"ADDRESS":"中華路４５９巷３號","OBJECTID":449046},"geometry":{"x":171275.45000000205,"y":2545645.7400000002}},{"attributes":{"ID":449072,"DIS_CODE":0,"TOWNNAME":"永康區","LI":"六合里","LIN":"18鄰","STREET":"中華路","SECT":" ","MAREA":" ","LANE":"４５９巷","ALLEY":" ","HOUSE_NO":"４號","E_COORD97":171286.54000000001,"N_COORD97":2545679.4900000002,"ADDRESS":"中華路４５９巷４號","OBJECTID":449047},"geometry":{"x":171286.5400000019,"y":2545679.4900000021}},{"attributes":{"ID":449073,"DIS_CODE":0,"TOWNNAME":"仁德區","LI":"仁義里","LIN":"18鄰","STREET":"正義三街","SECT":" ","MAREA":" ","LANE":"２８６巷","ALLEY":" ","HOUSE_NO":"２５號","E_COORD97":174020.70000000001,"N_COORD97":2541462.1699999999,"ADDRESS":"正義三街２８６巷２５號","OBJECTID":449048},"geometry":{"x":174020.70000000112,"y":2541462.1699999999}},{"attributes":{"ID":449074,"DIS_CODE":0,"TOWNNAME":"佳里區","LI":"鎮山里","LIN":"18鄰","STREET":"祥和三街","SECT":" ","MAREA":" ","LANE":"１９巷","ALLEY":" ","HOUSE_NO":"１１號","E_COORD97":166080.59,"N_COORD97":2561261.4399999999,"ADDRESS":"祥和三街１９巷１１號","OBJECTID":449049},"geometry":{"x":166080.59000000078,"y":2561261.4400000013}},{"attributes":{"ID":449075,"DIS_CODE":0,"TOWNNAME":"佳里區","LI":"鎮山里","LIN":"18鄰","STREET":"祥和三街","SECT":" ","MAREA":" ","LANE":"１９巷","ALLEY":" ","HOUSE_NO":"１３號","E_COORD97":166080.20999999999,"N_COORD97":2561257.1800000002,"ADDRESS":"祥和三街１９巷１３號","OBJECTID":449050},"geometry":{"x":166080.20999999996,"y":2561257.1800000016}},{"attributes":{"ID":449076,"DIS_CODE":0,"TOWNNAME":"佳里區","LI":"鎮山里","LIN":"18鄰","STREET":"祥和三街","SECT":" ","MAREA":" ","LANE":"１９巷","ALLEY":" ","HOUSE_NO":"１５號","E_COORD97":166079.82999999999,"N_COORD97":2561252.9100000001,"ADDRESS":"祥和三街１９巷１５號","OBJECTID":449051},"geometry":{"x":166079.83000000007,"y":2561252.910000002}},{"attributes":{"ID":449077,"DIS_CODE":0,"TOWNNAME":"佳里區","LI":"鎮山里","LIN":"18鄰","STREET":"祥和三街","SECT":" ","MAREA":" ","LANE":"１９巷","ALLEY":" ","HOUSE_NO":"１７號","E_COORD97":166079.45000000001,"N_COORD97":2561248.6499999999,"ADDRESS":"祥和三街１９巷１７號","OBJECTID":449052},"geometry":{"x":166079.45000000019,"y":2561248.6500000004}},{"attributes":{"ID":449078,"DIS_CODE":0,"TOWNNAME":"佳里區","LI":"鎮山里","LIN":"18鄰","STREET":"祥和三街","SECT":" ","MAREA":" ","LANE":"１９巷","ALLEY":" ","HOUSE_NO":"１９號","E_COORD97":166079.06,"N_COORD97":2561244.3900000001,"ADDRESS":"祥和三街１９巷１９號","OBJECTID":449053},"geometry":{"x":166079.06000000052,"y":2561244.3900000006}},{"attributes":{"ID":449079,"DIS_CODE":0,"TOWNNAME":"佳里區","LI":"鎮山里","LIN":"18鄰","STREET":"祥和三街","SECT":" ","MAREA":" ","LANE":"１９巷","ALLEY":" ","HOUSE_NO":"２１號","E_COORD97":166078.67999999999,"N_COORD97":2561240.1299999999,"ADDRESS":"祥和三街１９巷２１號","OBJECTID":449054},"geometry":{"x":166078.6799999997,"y":2561240.1300000008}},{"attributes":{"ID":449080,"DIS_CODE":0,"TOWNNAME":"佳里區","LI":"鎮山里","LIN":"18鄰","STREET":"祥和三街","SECT":" ","MAREA":" ","LANE":"１９巷","ALLEY":" ","HOUSE_NO":"２３號","E_COORD97":166078.29999999999,"N_COORD97":2561235.8700000001,"ADDRESS":"祥和三街１９巷２３號","OBJECTID":449055},"geometry":{"x":166078.29999999981,"y":2561235.8700000048}},{"attributes":{"ID":449081,"DIS_CODE":0,"TOWNNAME":"佳里區","LI":"鎮山里","LIN":"18鄰","STREET":"祥和三街","SECT":" ","MAREA":" ","LANE":"１９巷","ALLEY":" ","HOUSE_NO":"２號","E_COORD97":166064.32999999999,"N_COORD97":2561240,"ADDRESS":"祥和三街１９巷２號","OBJECTID":449056},"geometry":{"x":166064.33000000007,"y":2561240}},{"attributes":{"ID":449082,"DIS_CODE":0,"TOWNNAME":"佳里區","LI":"鎮山里","LIN":"18鄰","STREET":"祥和三街","SECT":" ","MAREA":" ","LANE":"１９巷","ALLEY":" ","HOUSE_NO":"３號","E_COORD97":166082.10999999999,"N_COORD97":2561278.48,"ADDRESS":"祥和三街１９巷３號","OBJECTID":449057},"geometry":{"x":166082.1100000022,"y":2561278.4800000042}},{"attributes":{"ID":449083,"DIS_CODE":0,"TOWNNAME":"佳里區","LI":"鎮山里","LIN":"18鄰","STREET":"祥和三街","SECT":" ","MAREA":" ","LANE":"１９巷","ALLEY":" ","HOUSE_NO":"５號","E_COORD97":166081.73000000001,"N_COORD97":2561274.2200000002,"ADDRESS":"祥和三街１９巷５號","OBJECTID":449058},"geometry":{"x":166081.73000000138,"y":2561274.2200000025}},{"attributes":{"ID":449084,"DIS_CODE":0,"TOWNNAME":"佳里區","LI":"鎮山里","LIN":"18鄰","STREET":"祥和三街","SECT":" ","MAREA":" ","LANE":"１９巷","ALLEY":" ","HOUSE_NO":"７號","E_COORD97":166081.35000000001,"N_COORD97":2561269.96,"ADDRESS":"祥和三街１９巷７號","OBJECTID":449059},"geometry":{"x":166081.35000000149,"y":2561269.9600000028}},{"attributes":{"ID":449085,"DIS_CODE":0,"TOWNNAME":"佳里區","LI":"鎮山里","LIN":"18鄰","STREET":"祥和三街","SECT":" ","MAREA":" ","LANE":"１９巷","ALLEY":" ","HOUSE_NO":"９號","E_COORD97":166080.97,"N_COORD97":2561265.7000000002,"ADDRESS":"祥和三街１９巷９號","OBJECTID":449060},"geometry":{"x":166080.97000000067,"y":2561265.700000003}},{"attributes":{"ID":449086,"DIS_CODE":0,"TOWNNAME":"佳里區","LI":"鎮山里","LIN":"18鄰","STREET":"勝利路","SECT":" ","MAREA":" ","LANE":"１３３巷","ALLEY":" ","HOUSE_NO":"１１號","E_COORD97":166043.07000000001,"N_COORD97":2561164.27,"ADDRESS":"勝利路１３３巷１１號","OBJECTID":449061},"geometry":{"x":166043.0700000003,"y":2561164.2700000014}},{"attributes":{"ID":449087,"DIS_CODE":0,"TOWNNAME":"佳里區","LI":"鎮山里","LIN":"18鄰","STREET":"勝利路","SECT":" ","MAREA":" ","LANE":"１３３巷","ALLEY":" ","HOUSE_NO":"２號","E_COORD97":166027.22,"N_COORD97":2561138.2000000002,"ADDRESS":"勝利路１３３巷２號","OBJECTID":449062},"geometry":{"x":166027.22000000067,"y":2561138.2000000011}},{"attributes":{"ID":449088,"DIS_CODE":0,"TOWNNAME":"佳里區","LI":"鎮山里","LIN":"18鄰","STREET":"勝利路","SECT":" ","MAREA":" ","LANE":"１３３巷","ALLEY":" ","HOUSE_NO":"３號","E_COORD97":166026.45000000001,"N_COORD97":2561157.8300000001,"ADDRESS":"勝利路１３３巷３號","OBJECTID":449063},"geometry":{"x":166026.45000000019,"y":2561157.8300000019}},{"attributes":{"ID":449089,"DIS_CODE":0,"TOWNNAME":"佳里區","LI":"鎮山里","LIN":"18鄰","STREET":"勝利路","SECT":" ","MAREA":" ","LANE":"１３３巷","ALLEY":" ","HOUSE_NO":"４號","E_COORD97":166031.31,"N_COORD97":2561139.5299999998,"ADDRESS":"勝利路１３３巷４號","OBJECTID":449064},"geometry":{"x":166031.31000000052,"y":2561139.5300000012}},{"attributes":{"ID":449090,"DIS_CODE":0,"TOWNNAME":"佳里區","LI":"鎮山里","LIN":"18鄰","STREET":"勝利路","SECT":" ","MAREA":" ","LANE":"１３３巷","ALLEY":" ","HOUSE_NO":"５號","E_COORD97":166030.60999999999,"N_COORD97":2561159.4399999999,"ADDRESS":"勝利路１３３巷５號","OBJECTID":449065},"geometry":{"x":166030.61000000034,"y":2561159.4400000013}},{"attributes":{"ID":449091,"DIS_CODE":0,"TOWNNAME":"佳里區","LI":"鎮山里","LIN":"18鄰","STREET":"勝利路","SECT":" ","MAREA":" ","LANE":"１３３巷","ALLEY":" ","HOUSE_NO":"６號","E_COORD97":166036.01000000001,"N_COORD97":2561141.3999999999,"ADDRESS":"勝利路１３３巷６號","OBJECTID":449066},"geometry":{"x":166036.00999999978,"y":2561141.4000000022}},{"attributes":{"ID":449092,"DIS_CODE":0,"TOWNNAME":"佳里區","LI":"鎮山里","LIN":"18鄰","STREET":"勝利路","SECT":" ","MAREA":" ","LANE":"１３３巷","ALLEY":" ","HOUSE_NO":"７號","E_COORD97":166033.82000000001,"N_COORD97":2561160.7999999998,"ADDRESS":"勝利路１３３巷７號","OBJECTID":449067},"geometry":{"x":166033.82000000123,"y":2561160.8000000007}},{"attributes":{"ID":449093,"DIS_CODE":0,"TOWNNAME":"佳里區","LI":"鎮山里","LIN":"18鄰","STREET":"勝利路","SECT":" ","MAREA":" ","LANE":"１３３巷","ALLEY":" ","HOUSE_NO":"８號","E_COORD97":166040.37,"N_COORD97":2561143.5,"ADDRESS":"勝利路１３３巷８號","OBJECTID":449068},"geometry":{"x":166040.37000000011,"y":2561143.5000000019}},{"attributes":{"ID":449094,"DIS_CODE":0,"TOWNNAME":"佳里區","LI":"鎮山里","LIN":"18鄰","STREET":"勝利路","SECT":" ","MAREA":" ","LANE":"１３３巷","ALLEY":" ","HOUSE_NO":"９號","E_COORD97":166038.10999999999,"N_COORD97":2561162.4100000001,"ADDRESS":"勝利路１３３巷９號","OBJECTID":449069},"geometry":{"x":166038.1100000022,"y":2561162.4100000001}},{"attributes":{"ID":449095,"DIS_CODE":0,"TOWNNAME":"佳里區","LI":"鎮山里","LIN":"18鄰","STREET":"勝利路","SECT":" ","MAREA":" ","LANE":"９７巷","ALLEY":" ","HOUSE_NO":"１９號","E_COORD97":166046.20000000001,"N_COORD97":2561217.9100000001,"ADDRESS":"勝利路９７巷１９號","OBJECTID":449070},"geometry":{"x":166046.20000000112,"y":2561217.910000002}},{"attributes":{"ID":449096,"DIS_CODE":0,"TOWNNAME":"佳里區","LI":"鎮山里","LIN":"18鄰","STREET":"勝利路","SECT":" ","MAREA":" ","LANE":"９７巷","ALLEY":" ","HOUSE_NO":"１號","E_COORD97":165986.10000000001,"N_COORD97":2561216.8399999999,"ADDRESS":"勝利路９７巷１號","OBJECTID":449071},"geometry":{"x":165986.09999999963,"y":2561216.8399999999}},{"attributes":{"ID":449097,"DIS_CODE":0,"TOWNNAME":"佳里區","LI":"鎮山里","LIN":"18鄰","STREET":"勝利路","SECT":" ","MAREA":" ","LANE":"９７巷","ALLEY":" ","HOUSE_NO":"２３號","E_COORD97":166056.73000000001,"N_COORD97":2561219.1000000001,"ADDRESS":"勝利路９７巷２３號","OBJECTID":449072},"geometry":{"x":166056.73000000138,"y":2561219.1000000034}},{"attributes":{"ID":449098,"DIS_CODE":0,"TOWNNAME":"佳里區","LI":"鎮山里","LIN":"18鄰","STREET":"勝利路","SECT":" ","MAREA":" ","LANE":"９７巷","ALLEY":" ","HOUSE_NO":"２５號","E_COORD97":166061.92999999999,"N_COORD97":2561219.2200000002,"ADDRESS":"勝利路９７巷２５號","OBJECTID":449073},"geometry":{"x":166061.9299999997,"y":2561219.2199999988}},{"attributes":{"ID":449099,"DIS_CODE":0,"TOWNNAME":"佳里區","LI":"鎮山里","LIN":"18鄰","STREET":"勝利路","SECT":" ","MAREA":" ","LANE":"９７巷","ALLEY":" ","HOUSE_NO":"３號","E_COORD97":165991.95000000001,"N_COORD97":2561216.6800000002,"ADDRESS":"勝利路９７巷３號","OBJECTID":449074},"geometry":{"x":165991.95000000112,"y":2561216.6800000016}},{"attributes":{"ID":449100,"DIS_CODE":0,"TOWNNAME":"佳里區","LI":"鎮山里","LIN":"18鄰","STREET":"勝利路","SECT":" ","MAREA":" ","LANE":"９７巷","ALLEY":" ","HOUSE_NO":"５號","E_COORD97":165997.98000000001,"N_COORD97":2561216.8799999999,"ADDRESS":"勝利路９７巷５號","OBJECTID":449075},"geometry":{"x":165997.98000000045,"y":2561216.8800000008}},{"attributes":{"ID":449101,"DIS_CODE":0,"TOWNNAME":"佳里區","LI":"鎮山里","LIN":"18鄰","STREET":"勝利路","SECT":" ","MAREA":" ","LANE":"９７巷","ALLEY":" ","HOUSE_NO":"７號","E_COORD97":166003.54000000001,"N_COORD97":2561217.02,"ADDRESS":"勝利路９７巷７號","OBJECTID":449076},"geometry":{"x":166003.54000000004,"y":2561217.0200000014}},{"attributes":{"ID":449102,"DIS_CODE":0,"TOWNNAME":"佳里區","LI":"建南里","LIN":"18鄰","STREET":"博愛街","SECT":" ","MAREA":" ","LANE":"１４３巷","ALLEY":" ","HOUSE_NO":"１１號","E_COORD97":165716.53,"N_COORD97":2561933.71,"ADDRESS":"博愛街１４３巷１１號","OBJECTID":449077},"geometry":{"x":165716.53000000119,"y":2561933.7100000009}},{"attributes":{"ID":449103,"DIS_CODE":0,"TOWNNAME":"佳里區","LI":"建南里","LIN":"18鄰","STREET":"博愛街","SECT":" ","MAREA":" ","LANE":"１４３巷","ALLEY":" ","HOUSE_NO":"１２號","E_COORD97":165704.07000000001,"N_COORD97":2561931.75,"ADDRESS":"博愛街１４３巷１２號","OBJECTID":449078},"geometry":{"x":165704.0700000003,"y":2561931.7500000019}},{"attributes":{"ID":449104,"DIS_CODE":0,"TOWNNAME":"佳里區","LI":"建南里","LIN":"18鄰","STREET":"博愛街","SECT":" ","MAREA":" ","LANE":"１４３巷","ALLEY":" ","HOUSE_NO":"１３號","E_COORD97":165716.66,"N_COORD97":2561929.1800000002,"ADDRESS":"博愛街１４３巷１３號","OBJECTID":449079},"geometry":{"x":165716.66000000015,"y":2561929.1799999997}},{"attributes":{"ID":449105,"DIS_CODE":0,"TOWNNAME":"佳里區","LI":"建南里","LIN":"18鄰","STREET":"博愛街","SECT":" ","MAREA":" ","LANE":"１４３巷","ALLEY":" ","HOUSE_NO":"１４號","E_COORD97":165703.95000000001,"N_COORD97":2561928.5,"ADDRESS":"博愛街１４３巷１４號","OBJECTID":449080},"geometry":{"x":165703.95000000112,"y":2561928.5}},{"attributes":{"ID":449106,"DIS_CODE":0,"TOWNNAME":"佳里區","LI":"建南里","LIN":"18鄰","STREET":"博愛街","SECT":" ","MAREA":" ","LANE":"１４３巷","ALLEY":" ","HOUSE_NO":"１５號","E_COORD97":165717.26000000001,"N_COORD97":2561925.2799999998,"ADDRESS":"博愛街１４３巷１５號","OBJECTID":449081},"geometry":{"x":165717.25999999978,"y":2561925.2799999993}},{"attributes":{"ID":449107,"DIS_CODE":0,"TOWNNAME":"佳里區","LI":"建南里","LIN":"18鄰","STREET":"博愛街","SECT":" ","MAREA":" ","LANE":"１４３巷","ALLEY":" ","HOUSE_NO":"１６號","E_COORD97":165704.25,"N_COORD97":2561924.7400000002,"ADDRESS":"博愛街１４３巷１６號","OBJECTID":449082},"geometry":{"x":165704.25,"y":2561924.7400000021}},{"attributes":{"ID":449108,"DIS_CODE":0,"TOWNNAME":"佳里區","LI":"建南里","LIN":"18鄰","STREET":"博愛街","SECT":" ","MAREA":" ","LANE":"１４３巷","ALLEY":" ","HOUSE_NO":"１７號","E_COORD97":165717.5,"N_COORD97":2561922.0699999998,"ADDRESS":"博愛街１４３巷１７號","OBJECTID":449083},"geometry":{"x":165717.5,"y":2561922.070000004}},{"attributes":{"ID":449109,"DIS_CODE":0,"TOWNNAME":"佳里區","LI":"建南里","LIN":"18鄰","STREET":"博愛街","SECT":" ","MAREA":" ","LANE":"１４３巷","ALLEY":" ","HOUSE_NO":"１８號","E_COORD97":165705.17999999999,"N_COORD97":2561920.5499999998,"ADDRESS":"博愛街１４３巷１８號","OBJECTID":449084},"geometry":{"x":165705.18000000063,"y":2561920.5500000026}},{"attributes":{"ID":449110,"DIS_CODE":0,"TOWNNAME":"佳里區","LI":"建南里","LIN":"18鄰","STREET":"博愛街","SECT":" ","MAREA":" ","LANE":"１４３巷","ALLEY":" ","HOUSE_NO":"２０號","E_COORD97":165705.38,"N_COORD97":2561916.9700000002,"ADDRESS":"博愛街１４３巷２０號","OBJECTID":449085},"geometry":{"x":165705.38000000082,"y":2561916.9700000025}},{"attributes":{"ID":449111,"DIS_CODE":0,"TOWNNAME":"佳里區","LI":"建南里","LIN":"18鄰","STREET":"博愛街","SECT":" ","MAREA":" ","LANE":"１４３巷","ALLEY":" ","HOUSE_NO":"２號","E_COORD97":165702.28,"N_COORD97":2561952.29,"ADDRESS":"博愛街１４３巷２號","OBJECTID":449086},"geometry":{"x":165702.28000000026,"y":2561952.2899999991}},{"attributes":{"ID":449112,"DIS_CODE":0,"TOWNNAME":"佳里區","LI":"建南里","LIN":"18鄰","STREET":"博愛街","SECT":" ","MAREA":" ","LANE":"１４３巷","ALLEY":" ","HOUSE_NO":"３號","E_COORD97":165715.16,"N_COORD97":2561949.6299999999,"ADDRESS":"博愛街１４３巷３號","OBJECTID":449087},"geometry":{"x":165715.16000000015,"y":2561949.629999999}},{"attributes":{"ID":449113,"DIS_CODE":0,"TOWNNAME":"佳里區","LI":"建南里","LIN":"18鄰","STREET":"博愛街","SECT":" ","MAREA":" ","LANE":"１４３巷","ALLEY":" ","HOUSE_NO":"４號","E_COORD97":165702.67999999999,"N_COORD97":2561948.29,"ADDRESS":"博愛街１４３巷４號","OBJECTID":449088},"geometry":{"x":165702.6799999997,"y":2561948.2899999991}},{"attributes":{"ID":449114,"DIS_CODE":0,"TOWNNAME":"佳里區","LI":"建南里","LIN":"18鄰","STREET":"博愛街","SECT":" ","MAREA":" ","LANE":"１４３巷","ALLEY":" ","HOUSE_NO":"５號","E_COORD97":165715.54000000001,"N_COORD97":2561945.48,"ADDRESS":"博愛街１４３巷５號","OBJECTID":449089},"geometry":{"x":165715.54000000004,"y":2561945.4800000004}},{"attributes":{"ID":449115,"DIS_CODE":0,"TOWNNAME":"佳里區","LI":"建南里","LIN":"18鄰","STREET":"博愛街","SECT":" ","MAREA":" ","LANE":"１４３巷","ALLEY":" ","HOUSE_NO":"６號","E_COORD97":165702.98999999999,"N_COORD97":2561944.3599999999,"ADDRESS":"博愛街１４３巷６號","OBJECTID":449090},"geometry":{"x":165702.99000000209,"y":2561944.3600000013}},{"attributes":{"ID":449116,"DIS_CODE":0,"TOWNNAME":"佳里區","LI":"建南里","LIN":"18鄰","STREET":"博愛街","SECT":" ","MAREA":" ","LANE":"１４３巷","ALLEY":" ","HOUSE_NO":"７號","E_COORD97":165715.85000000001,"N_COORD97":2561941.5600000001,"ADDRESS":"博愛街１４３巷７號","OBJECTID":449091},"geometry":{"x":165715.85000000056,"y":2561941.5600000005}},{"attributes":{"ID":449117,"DIS_CODE":0,"TOWNNAME":"佳里區","LI":"建南里","LIN":"18鄰","STREET":"博愛街","SECT":" ","MAREA":" ","LANE":"１４３巷","ALLEY":" ","HOUSE_NO":"８號","E_COORD97":165703.44,"N_COORD97":2561940.2999999998,"ADDRESS":"博愛街１４３巷８號","OBJECTID":449092},"geometry":{"x":165703.43999999948,"y":2561940.3000000007}},{"attributes":{"ID":449118,"DIS_CODE":0,"TOWNNAME":"佳里區","LI":"建南里","LIN":"18鄰","STREET":"博愛街","SECT":" ","MAREA":" ","LANE":"１４３巷","ALLEY":" ","HOUSE_NO":"９號","E_COORD97":165716.19,"N_COORD97":2561937.6699999999,"ADDRESS":"博愛街１４３巷９號","OBJECTID":449093},"geometry":{"x":165716.19000000134,"y":2561937.6700000037}},{"attributes":{"ID":449119,"DIS_CODE":0,"TOWNNAME":"學甲區","LI":"明宜里","LIN":"18鄰","STREET":"天水路","SECT":" ","MAREA":" ","LANE":"１８巷","ALLEY":" ","HOUSE_NO":"１３號","E_COORD97":166087.42000000001,"N_COORD97":2570741.3100000001,"ADDRESS":"天水路１８巷１３號","OBJECTID":449094},"geometry":{"x":166087.41999999993,"y":2570741.3100000005}},{"attributes":{"ID":449120,"DIS_CODE":0,"TOWNNAME":"學甲區","LI":"明宜里","LIN":"18鄰","STREET":"天水路","SECT":" ","MAREA":" ","LANE":"１８巷","ALLEY":" ","HOUSE_NO":"１９號","E_COORD97":166120.63,"N_COORD97":2570735.71,"ADDRESS":"天水路１８巷１９號","OBJECTID":449095},"geometry":{"x":166120.63000000082,"y":2570735.7100000009}},{"attributes":{"ID":449121,"DIS_CODE":0,"TOWNNAME":"學甲區","LI":"明宜里","LIN":"18鄰","STREET":"天水路","SECT":" ","MAREA":" ","LANE":"１８巷","ALLEY":" ","HOUSE_NO":"７號","E_COORD97":166069.16,"N_COORD97":2570705.6000000001,"ADDRESS":"天水路１８巷７號","OBJECTID":449096},"geometry":{"x":166069.16000000015,"y":2570705.6000000034}},{"attributes":{"ID":449122,"DIS_CODE":0,"TOWNNAME":"北區","LI":"永祥里","LIN":"18鄰","STREET":"大武街","SECT":" ","MAREA":" ","LANE":"５４２巷","ALLEY":" ","HOUSE_NO":"４７號","E_COORD97":170225.17000000001,"N_COORD97":2546301.8599999999,"ADDRESS":"大武街５４２巷４７號","OBJECTID":449097},"geometry":{"x":170225.16999999993,"y":2546301.8599999994}},{"attributes":{"ID":449123,"DIS_CODE":0,"TOWNNAME":"北區","LI":"永祥里","LIN":"18鄰","STREET":"大武街","SECT":" ","MAREA":" ","LANE":"５４２巷","ALLEY":" ","HOUSE_NO":"４９號","E_COORD97":170225.17000000001,"N_COORD97":2546297.4900000002,"ADDRESS":"大武街５４２巷４９號","OBJECTID":449098},"geometry":{"x":170225.16999999993,"y":2546297.4900000021}},{"attributes":{"ID":449124,"DIS_CODE":0,"TOWNNAME":"北區","LI":"永祥里","LIN":"18鄰","STREET":"大武街","SECT":" ","MAREA":" ","LANE":"５４２巷","ALLEY":" ","HOUSE_NO":"５１號","E_COORD97":170225.5,"N_COORD97":2546292.77,"ADDRESS":"大武街５４２巷５１號","OBJECTID":449099},"geometry":{"x":170225.50000000186,"y":2546292.7699999996}},{"attributes":{"ID":449125,"DIS_CODE":0,"TOWNNAME":"北區","LI":"永祥里","LIN":"18鄰","STREET":"大武街","SECT":" ","MAREA":" ","LANE":"５４２巷","ALLEY":" ","HOUSE_NO":"５３號","E_COORD97":170223.48000000001,"N_COORD97":2546286.54,"ADDRESS":"大武街５４２巷５３號","OBJECTID":449100},"geometry":{"x":170223.48000000138,"y":2546286.5399999991}},{"attributes":{"ID":449126,"DIS_CODE":0,"TOWNNAME":"北區","LI":"永祥里","LIN":"18鄰","STREET":"大武街","SECT":" ","MAREA":" ","LANE":"５４２巷","ALLEY":" ","HOUSE_NO":"５５號","E_COORD97":170221.88,"N_COORD97":2546280.2999999998,"ADDRESS":"大武街５４２巷５５號","OBJECTID":449101},"geometry":{"x":170221.88000000082,"y":2546280.3000000007}},{"attributes":{"ID":449127,"DIS_CODE":0,"TOWNNAME":"北區","LI":"永祥里","LIN":"18鄰","STREET":"大武街","SECT":" ","MAREA":" ","LANE":"５４２巷","ALLEY":" ","HOUSE_NO":"５號","E_COORD97":170223.35999999999,"N_COORD97":2546405.6600000001,"ADDRESS":"大武街５４２巷５號","OBJECTID":449102},"geometry":{"x":170223.3600000022,"y":2546405.6600000001}},{"attributes":{"ID":449128,"DIS_CODE":0,"TOWNNAME":"北區","LI":"永祥里","LIN":"18鄰","STREET":"大武街","SECT":" ","MAREA":" ","LANE":"５４２巷","ALLEY":" ","HOUSE_NO":"７號","E_COORD97":170223.19,"N_COORD97":2546400.6000000001,"ADDRESS":"大武街５４２巷７號","OBJECTID":449103},"geometry":{"x":170223.19000000134,"y":2546400.6000000015}},{"attributes":{"ID":449129,"DIS_CODE":0,"TOWNNAME":"北區","LI":"永祥里","LIN":"18鄰","STREET":"大武街","SECT":" ","MAREA":" ","LANE":"５４２巷","ALLEY":" ","HOUSE_NO":"９號","E_COORD97":170223.01999999999,"N_COORD97":2546396.3900000001,"ADDRESS":"大武街５４２巷９號","OBJECTID":449104},"geometry":{"x":170223.01999999955,"y":2546396.3900000025}},{"attributes":{"ID":449130,"DIS_CODE":0,"TOWNNAME":"安平區","LI":"怡平里","LIN":"18鄰","STREET":"文平路","SECT":" ","MAREA":" ","LANE":"４６１巷","ALLEY":" ","HOUSE_NO":"５０號","E_COORD97":165687.13,"N_COORD97":2543896.2000000002,"ADDRESS":"文平路４６１巷５０號","OBJECTID":449105},"geometry":{"x":165687.13000000082,"y":2543896.1999999993}},{"attributes":{"ID":449131,"DIS_CODE":0,"TOWNNAME":"安平區","LI":"怡平里","LIN":"18鄰","STREET":"文平路","SECT":" ","MAREA":" ","LANE":"４６１巷","ALLEY":" ","HOUSE_NO":"５２號","E_COORD97":165682.04999999999,"N_COORD97":2543896.3599999999,"ADDRESS":"文平路４６１巷５２號","OBJECTID":449106},"geometry":{"x":165682.05000000075,"y":2543896.3600000013}},{"attributes":{"ID":449132,"DIS_CODE":0,"TOWNNAME":"安平區","LI":"怡平里","LIN":"18鄰","STREET":"文平路","SECT":" ","MAREA":" ","LANE":"４６１巷","ALLEY":" ","HOUSE_NO":"５６號","E_COORD97":165677.13,"N_COORD97":2543896.6699999999,"ADDRESS":"文平路４６１巷５６號","OBJECTID":449107},"geometry":{"x":165677.13000000082,"y":2543896.6699999999}},{"attributes":{"ID":449133,"DIS_CODE":0,"TOWNNAME":"安平區","LI":"怡平里","LIN":"18鄰","STREET":"文平路","SECT":" ","MAREA":" ","LANE":"４６１巷","ALLEY":" ","HOUSE_NO":"５８號","E_COORD97":165673,"N_COORD97":2543897.1499999999,"ADDRESS":"文平路４６１巷５８號","OBJECTID":449108},"geometry":{"x":165673.00000000093,"y":2543897.1500000004}},{"attributes":{"ID":449134,"DIS_CODE":0,"TOWNNAME":"安平區","LI":"怡平里","LIN":"18鄰","STREET":"文平路","SECT":" ","MAREA":" ","LANE":"４６１巷","ALLEY":" ","HOUSE_NO":"６０號","E_COORD97":165667.60999999999,"N_COORD97":2543898.1000000001,"ADDRESS":"文平路４６１巷６０號","OBJECTID":449109},"geometry":{"x":165667.61000000034,"y":2543898.1000000015}},{"attributes":{"ID":449135,"DIS_CODE":0,"TOWNNAME":"安平區","LI":"怡平里","LIN":"18鄰","STREET":"文平路","SECT":" ","MAREA":" ","LANE":"４６１巷","ALLEY":" ","HOUSE_NO":"６２號","E_COORD97":165663.95000000001,"N_COORD97":2543899.8500000001,"ADDRESS":"文平路４６１巷６２號","OBJECTID":449110},"geometry":{"x":165663.95000000019,"y":2543899.8500000015}},{"attributes":{"ID":449136,"DIS_CODE":0,"TOWNNAME":"新營區","LI":"民生里","LIN":"18鄰","STREET":"民治路","SECT":" ","MAREA":" ","LANE":"１８３巷","ALLEY":" ","HOUSE_NO":"６６號","E_COORD97":178898.19,"N_COORD97":2578349.8300000001,"ADDRESS":"民治路１８３巷６６號","OBJECTID":449111},"geometry":{"x":178898.19000000041,"y":2578349.8300000038}},{"attributes":{"ID":449137,"DIS_CODE":0,"TOWNNAME":"新營區","LI":"民生里","LIN":"18鄰","STREET":"民治路","SECT":" ","MAREA":" ","LANE":"１８３巷","ALLEY":" ","HOUSE_NO":"４８號","E_COORD97":178881.76000000001,"N_COORD97":2578323.3300000001,"ADDRESS":"民治路１８３巷４８號","OBJECTID":449112},"geometry":{"x":178881.75999999978,"y":2578323.3300000019}},{"attributes":{"ID":449138,"DIS_CODE":0,"TOWNNAME":"新營區","LI":"南興里","LIN":"18鄰","STREET":"建業路","SECT":" ","MAREA":" ","LANE":"１５７巷","ALLEY":" ","HOUSE_NO":"２６號","E_COORD97":178380.26000000001,"N_COORD97":2577417.6299999999,"ADDRESS":"建業路１５７巷２６號","OBJECTID":449113},"geometry":{"x":178380.25999999978,"y":2577417.6300000027}},{"attributes":{"ID":449139,"DIS_CODE":0,"TOWNNAME":"安平區","LI":"文平里","LIN":"18鄰","STREET":"健康一街","SECT":" ","MAREA":" ","LANE":"７１巷","ALLEY":" ","HOUSE_NO":"２１號","E_COORD97":165879.07999999999,"N_COORD97":2542835.7799999998,"ADDRESS":"健康一街７１巷２１號","OBJECTID":449114},"geometry":{"x":165879.08000000101,"y":2542835.7800000012}},{"attributes":{"ID":449140,"DIS_CODE":0,"TOWNNAME":"安平區","LI":"文平里","LIN":"18鄰","STREET":"健康一街","SECT":" ","MAREA":" ","LANE":"７１巷","ALLEY":" ","HOUSE_NO":"２３號","E_COORD97":165874.69,"N_COORD97":2542836.1699999999,"ADDRESS":"健康一街７１巷２３號","OBJECTID":449115},"geometry":{"x":165874.68999999948,"y":2542836.1699999981}},{"attributes":{"ID":449141,"DIS_CODE":0,"TOWNNAME":"安平區","LI":"文平里","LIN":"18鄰","STREET":"健康一街","SECT":" ","MAREA":" ","LANE":"７１巷","ALLEY":" ","HOUSE_NO":"２５號","E_COORD97":165870.29000000001,"N_COORD97":2542836.6699999999,"ADDRESS":"健康一街７１巷２５號","OBJECTID":449116},"geometry":{"x":165870.2900000019,"y":2542836.6700000018}},{"attributes":{"ID":449142,"DIS_CODE":0,"TOWNNAME":"安平區","LI":"文平里","LIN":"18鄰","STREET":"健康一街","SECT":" ","MAREA":" ","LANE":"７１巷","ALLEY":" ","HOUSE_NO":"２７號","E_COORD97":165865.60000000001,"N_COORD97":2542837.3700000001,"ADDRESS":"健康一街７１巷２７號","OBJECTID":449117},"geometry":{"x":165865.59999999963,"y":2542837.3700000029}},{"attributes":{"ID":449143,"DIS_CODE":0,"TOWNNAME":"安平區","LI":"文平里","LIN":"18鄰","STREET":"健康一街","SECT":" ","MAREA":" ","LANE":"７１巷","ALLEY":" ","HOUSE_NO":"２９號","E_COORD97":165861.20000000001,"N_COORD97":2542837.77,"ADDRESS":"健康一街７１巷２９號","OBJECTID":449118},"geometry":{"x":165861.20000000112,"y":2542837.7699999996}},{"attributes":{"ID":449144,"DIS_CODE":0,"TOWNNAME":"安平區","LI":"文平里","LIN":"18鄰","STREET":"健康一街","SECT":" ","MAREA":" ","LANE":"７１巷","ALLEY":" ","HOUSE_NO":"３３號","E_COORD97":165852.20999999999,"N_COORD97":2542838.6699999999,"ADDRESS":"健康一街７１巷３３號","OBJECTID":449119},"geometry":{"x":165852.21000000183,"y":2542838.6699999999}},{"attributes":{"ID":449145,"DIS_CODE":0,"TOWNNAME":"安平區","LI":"文平里","LIN":"18鄰","STREET":"健康一街","SECT":" ","MAREA":" ","LANE":"７１巷","ALLEY":" ","HOUSE_NO":"３５號","E_COORD97":165847.82000000001,"N_COORD97":2542839.3700000001,"ADDRESS":"健康一街７１巷３５號","OBJECTID":449120},"geometry":{"x":165847.8200000003,"y":2542839.3699999992}},{"attributes":{"ID":449146,"DIS_CODE":0,"TOWNNAME":"安平區","LI":"文平里","LIN":"18鄰","STREET":"健康一街","SECT":" ","MAREA":" ","LANE":"７１巷","ALLEY":" ","HOUSE_NO":"３７號","E_COORD97":165842.92999999999,"N_COORD97":2542839.8700000001,"ADDRESS":"健康一街７１巷３７號","OBJECTID":449121},"geometry":{"x":165842.9299999997,"y":2542839.8700000048}},{"attributes":{"ID":449147,"DIS_CODE":0,"TOWNNAME":"安平區","LI":"文平里","LIN":"18鄰","STREET":"健康一街","SECT":" ","MAREA":" ","LANE":"７１巷","ALLEY":" ","HOUSE_NO":"３９號","E_COORD97":165838.82999999999,"N_COORD97":2542840.6699999999,"ADDRESS":"健康一街７１巷３９號","OBJECTID":449122},"geometry":{"x":165838.83000000007,"y":2542840.6700000018}},{"attributes":{"ID":449148,"DIS_CODE":0,"TOWNNAME":"安平區","LI":"文平里","LIN":"18鄰","STREET":"健康一街","SECT":" ","MAREA":" ","LANE":"７１巷","ALLEY":" ","HOUSE_NO":"４１號","E_COORD97":165834.54000000001,"N_COORD97":2542841.1699999999,"ADDRESS":"健康一街７１巷４１號","OBJECTID":449123},"geometry":{"x":165834.54000000004,"y":2542841.1700000018}},{"attributes":{"ID":449149,"DIS_CODE":0,"TOWNNAME":"安平區","LI":"文平里","LIN":"18鄰","STREET":"健康一街","SECT":" ","MAREA":" ","LANE":"７１巷","ALLEY":" ","HOUSE_NO":"４３號","E_COORD97":165829.94,"N_COORD97":2542841.6699999999,"ADDRESS":"健康一街７１巷４３號","OBJECTID":449124},"geometry":{"x":165829.94000000041,"y":2542841.6699999999}},{"attributes":{"ID":449150,"DIS_CODE":0,"TOWNNAME":"安平區","LI":"文平里","LIN":"18鄰","STREET":"健康一街","SECT":" ","MAREA":" ","LANE":"７１巷","ALLEY":" ","HOUSE_NO":"４５號","E_COORD97":165825.44,"N_COORD97":2542842.2599999998,"ADDRESS":"健康一街７１巷４５號","OBJECTID":449125},"geometry":{"x":165825.44000000041,"y":2542842.2600000035}},{"attributes":{"ID":449151,"DIS_CODE":0,"TOWNNAME":"安平區","LI":"文平里","LIN":"18鄰","STREET":"健康一街","SECT":" ","MAREA":" ","LANE":"７１巷","ALLEY":" ","HOUSE_NO":"４７號","E_COORD97":165820.85000000001,"N_COORD97":2542842.8599999999,"ADDRESS":"健康一街７１巷４７號","OBJECTID":449126},"geometry":{"x":165820.85000000056,"y":2542842.8600000013}},{"attributes":{"ID":449152,"DIS_CODE":0,"TOWNNAME":"安平區","LI":"文平里","LIN":"18鄰","STREET":"健康一街","SECT":" ","MAREA":" ","LANE":"７１巷","ALLEY":" ","HOUSE_NO":"４９號","E_COORD97":165816.64999999999,"N_COORD97":2542843.5600000001,"ADDRESS":"健康一街７１巷４９號","OBJECTID":449127},"geometry":{"x":165816.65000000037,"y":2542843.5600000005}},{"attributes":{"ID":449153,"DIS_CODE":0,"TOWNNAME":"安平區","LI":"文平里","LIN":"18鄰","STREET":"健康一街","SECT":" ","MAREA":" ","LANE":"７１巷","ALLEY":" ","HOUSE_NO":"５１號","E_COORD97":165812.06,"N_COORD97":2542843.96,"ADDRESS":"健康一街７１巷５１號","OBJECTID":449128},"geometry":{"x":165812.06000000145,"y":2542843.9600000009}},{"attributes":{"ID":449154,"DIS_CODE":0,"TOWNNAME":"安平區","LI":"文平里","LIN":"18鄰","STREET":"健康一街","SECT":" ","MAREA":" ","LANE":"７１巷","ALLEY":" ","HOUSE_NO":"５３號","E_COORD97":165808.06,"N_COORD97":2542844.7599999998,"ADDRESS":"健康一街７１巷５３號","OBJECTID":449129},"geometry":{"x":165808.05999999959,"y":2542844.7599999998}},{"attributes":{"ID":449155,"DIS_CODE":0,"TOWNNAME":"新市區","LI":"永就里","LIN":"1鄰","STREET":" ","SECT":" ","MAREA":"永就","LANE":" ","ALLEY":" ","HOUSE_NO":"６之４２號","E_COORD97":178826.264643,"N_COORD97":2551298.25239,"ADDRESS":"永就６之４２號","OBJECTID":449130},"geometry":{"x":178826.26464300137,"y":2551298.2523889989}},{"attributes":{"ID":449156,"DIS_CODE":0,"TOWNNAME":"安平區","LI":"文平里","LIN":"18鄰","STREET":"健康一街","SECT":" ","MAREA":" ","LANE":"７１巷","ALLEY":" ","HOUSE_NO":"５５號","E_COORD97":165803.16,"N_COORD97":2542845.46,"ADDRESS":"健康一街７１巷５５號","OBJECTID":449131},"geometry":{"x":165803.16000000015,"y":2542845.459999999}},{"attributes":{"ID":449157,"DIS_CODE":0,"TOWNNAME":"安平區","LI":"文平里","LIN":"18鄰","STREET":"健康一街","SECT":" ","MAREA":" ","LANE":"７１巷","ALLEY":" ","HOUSE_NO":"５７號","E_COORD97":165798.47,"N_COORD97":2542846.2599999998,"ADDRESS":"健康一街７１巷５７號","OBJECTID":449132},"geometry":{"x":165798.46999999974,"y":2542846.2600000016}},{"attributes":{"ID":449158,"DIS_CODE":0,"TOWNNAME":"安平區","LI":"文平里","LIN":"18鄰","STREET":"健康一街","SECT":" ","MAREA":" ","LANE":"７１巷","ALLEY":" ","HOUSE_NO":"５９號","E_COORD97":165794.47,"N_COORD97":2542846.6600000001,"ADDRESS":"健康一街７１巷５９號","OBJECTID":449133},"geometry":{"x":165794.47000000067,"y":2542846.6599999983}},{"attributes":{"ID":449159,"DIS_CODE":0,"TOWNNAME":"安平區","LI":"文平里","LIN":"18鄰","STREET":"健康一街","SECT":" ","MAREA":" ","LANE":"７１巷","ALLEY":" ","HOUSE_NO":"６１號","E_COORD97":165789.98000000001,"N_COORD97":2542847.0600000001,"ADDRESS":"健康一街７１巷６１號","OBJECTID":449134},"geometry":{"x":165789.98000000138,"y":2542847.0600000005}},{"attributes":{"ID":449160,"DIS_CODE":0,"TOWNNAME":"北區","LI":"東興里","LIN":"18鄰","STREET":"小東路","SECT":" ","MAREA":" ","LANE":"２９９巷","ALLEY":" ","HOUSE_NO":"４２號","E_COORD97":171131.82999999999,"N_COORD97":2544516.52,"ADDRESS":"小東路２９９巷４２號","OBJECTID":449135},"geometry":{"x":171131.82999999914,"y":2544516.5200000014}},{"attributes":{"ID":449161,"DIS_CODE":0,"TOWNNAME":"北區","LI":"東興里","LIN":"18鄰","STREET":"小東路","SECT":" ","MAREA":" ","LANE":"２９９巷","ALLEY":" ","HOUSE_NO":"４４號","E_COORD97":171131.63,"N_COORD97":2544520.4100000001,"ADDRESS":"小東路２９９巷４４號","OBJECTID":449136},"geometry":{"x":171131.63000000082,"y":2544520.410000002}},{"attributes":{"ID":449162,"DIS_CODE":0,"TOWNNAME":"北區","LI":"東興里","LIN":"18鄰","STREET":"小東路","SECT":" ","MAREA":" ","LANE":"２９９巷","ALLEY":" ","HOUSE_NO":"４６號","E_COORD97":171131.63,"N_COORD97":2544524.3500000001,"ADDRESS":"小東路２９９巷４６號","OBJECTID":449137},"geometry":{"x":171131.63000000082,"y":2544524.3500000015}},{"attributes":{"ID":449163,"DIS_CODE":0,"TOWNNAME":"北區","LI":"東興里","LIN":"18鄰","STREET":"小東路","SECT":" ","MAREA":" ","LANE":"２９９巷","ALLEY":" ","HOUSE_NO":"４８號","E_COORD97":171131.82999999999,"N_COORD97":2544528.0499999998,"ADDRESS":"小東路２９９巷４８號","OBJECTID":449138},"geometry":{"x":171131.82999999914,"y":2544528.0500000026}},{"attributes":{"ID":449164,"DIS_CODE":0,"TOWNNAME":"北區","LI":"東興里","LIN":"18鄰","STREET":"小東路","SECT":" ","MAREA":" ","LANE":"２９９巷","ALLEY":" ","HOUSE_NO":"５０號","E_COORD97":171132.12,"N_COORD97":2544531.6400000001,"ADDRESS":"小東路２９９巷５０號","OBJECTID":449139},"geometry":{"x":171132.12000000104,"y":2544531.6400000006}},{"attributes":{"ID":449165,"DIS_CODE":0,"TOWNNAME":"北區","LI":"東興里","LIN":"18鄰","STREET":"小東路","SECT":" ","MAREA":" ","LANE":"２９９巷","ALLEY":" ","HOUSE_NO":"５２號","E_COORD97":171132.01999999999,"N_COORD97":2544535.6299999999,"ADDRESS":"小東路２９９巷５２號","OBJECTID":449140},"geometry":{"x":171132.02000000048,"y":2544535.6300000008}},{"attributes":{"ID":449166,"DIS_CODE":0,"TOWNNAME":"北區","LI":"東興里","LIN":"18鄰","STREET":"小東路","SECT":" ","MAREA":" ","LANE":"３０７巷","ALLEY":" ","HOUSE_NO":"５１號","E_COORD97":171156.01999999999,"N_COORD97":2544512.3199999998,"ADDRESS":"小東路３０７巷５１號","OBJECTID":449141},"geometry":{"x":171156.02000000048,"y":2544512.3200000003}},{"attributes":{"ID":449167,"DIS_CODE":0,"TOWNNAME":"北區","LI":"東興里","LIN":"18鄰","STREET":"小東路","SECT":" ","MAREA":" ","LANE":"３０７巷","ALLEY":" ","HOUSE_NO":"５３號","E_COORD97":171155.53,"N_COORD97":2544516.5899999999,"ADDRESS":"小東路３０７巷５３號","OBJECTID":449142},"geometry":{"x":171155.53000000026,"y":2544516.5900000017}},{"attributes":{"ID":449168,"DIS_CODE":0,"TOWNNAME":"北區","LI":"東興里","LIN":"18鄰","STREET":"小東路","SECT":" ","MAREA":" ","LANE":"３０７巷","ALLEY":" ","HOUSE_NO":"５５號","E_COORD97":171155.72,"N_COORD97":2544520.1899999999,"ADDRESS":"小東路３０７巷５５號","OBJECTID":449143},"geometry":{"x":171155.71999999974,"y":2544520.1899999995}},{"attributes":{"ID":449169,"DIS_CODE":0,"TOWNNAME":"北區","LI":"東興里","LIN":"18鄰","STREET":"小東路","SECT":" ","MAREA":" ","LANE":"３０７巷","ALLEY":" ","HOUSE_NO":"５７號","E_COORD97":171155.23999999999,"N_COORD97":2544524.27,"ADDRESS":"小東路３０７巷５７號","OBJECTID":449144},"geometry":{"x":171155.24000000115,"y":2544524.2700000014}},{"attributes":{"ID":449170,"DIS_CODE":0,"TOWNNAME":"北區","LI":"東興里","LIN":"18鄰","STREET":"小東路","SECT":" ","MAREA":" ","LANE":"３０７巷","ALLEY":" ","HOUSE_NO":"５９號","E_COORD97":171155.04000000001,"N_COORD97":2544528.1600000001,"ADDRESS":"小東路３０７巷５９號","OBJECTID":449145},"geometry":{"x":171155.04000000097,"y":2544528.1600000001}},{"attributes":{"ID":449171,"DIS_CODE":0,"TOWNNAME":"北區","LI":"東興里","LIN":"18鄰","STREET":"小東路","SECT":" ","MAREA":" ","LANE":"３０７巷","ALLEY":" ","HOUSE_NO":"６１號","E_COORD97":171153.88,"N_COORD97":2544532.25,"ADDRESS":"小東路３０７巷６１號","OBJECTID":449146},"geometry":{"x":171153.88000000082,"y":2544532.2500000019}},{"attributes":{"ID":449172,"DIS_CODE":0,"TOWNNAME":"北區","LI":"東興里","LIN":"18鄰","STREET":"小東路","SECT":" ","MAREA":" ","LANE":"３０７巷","ALLEY":" ","HOUSE_NO":"６３號","E_COORD97":171153,"N_COORD97":2544536.23,"ADDRESS":"小東路３０７巷６３號","OBJECTID":449147},"geometry":{"x":171153.00000000093,"y":2544536.2300000023}},{"attributes":{"ID":449173,"DIS_CODE":0,"TOWNNAME":"北區","LI":"東興里","LIN":"18鄰","STREET":"小東路","SECT":" ","MAREA":" ","LANE":"３０７巷","ALLEY":" ","HOUSE_NO":"６５號","E_COORD97":171152.13,"N_COORD97":2544540.2200000002,"ADDRESS":"小東路３０７巷６５號","OBJECTID":449148},"geometry":{"x":171152.13000000082,"y":2544540.2200000025}},{"attributes":{"ID":449174,"DIS_CODE":0,"TOWNNAME":"北區","LI":"東興里","LIN":"18鄰","STREET":"小東路","SECT":" ","MAREA":" ","LANE":"３０７巷","ALLEY":" ","HOUSE_NO":"６７號","E_COORD97":171151.44,"N_COORD97":2544543.9100000001,"ADDRESS":"小東路３０７巷６７號","OBJECTID":449149},"geometry":{"x":171151.44000000041,"y":2544543.9100000039}},{"attributes":{"ID":449175,"DIS_CODE":0,"TOWNNAME":"北區","LI":"東興里","LIN":"18鄰","STREET":"小東路","SECT":" ","MAREA":" ","LANE":"３０７巷","ALLEY":" ","HOUSE_NO":"６９號","E_COORD97":171151.54000000001,"N_COORD97":2544548.6699999999,"ADDRESS":"小東路３０７巷６９號","OBJECTID":449150},"geometry":{"x":171151.54000000097,"y":2544548.6700000037}},{"attributes":{"ID":449176,"DIS_CODE":0,"TOWNNAME":"北區","LI":"東興里","LIN":"18鄰","STREET":"小東路","SECT":" ","MAREA":" ","LANE":"３０７巷","ALLEY":" ","HOUSE_NO":"７１號","E_COORD97":171139.51000000001,"N_COORD97":2544547.2000000002,"ADDRESS":"小東路３０７巷７１號","OBJECTID":449151},"geometry":{"x":171139.51000000071,"y":2544547.1999999993}},{"attributes":{"ID":449177,"DIS_CODE":0,"TOWNNAME":"北區","LI":"東興里","LIN":"18鄰","STREET":"小東路","SECT":" ","MAREA":" ","LANE":"３０７巷","ALLEY":" ","HOUSE_NO":"７３號","E_COORD97":171134.94,"N_COORD97":2544547.5899999999,"ADDRESS":"小東路３０７巷７３號","OBJECTID":449152},"geometry":{"x":171134.94000000227,"y":2544547.5899999999}},{"attributes":{"ID":449178,"DIS_CODE":0,"TOWNNAME":"北區","LI":"東興里","LIN":"18鄰","STREET":"小東路","SECT":" ","MAREA":" ","LANE":"３０７巷","ALLEY":" ","HOUSE_NO":"７５號","E_COORD97":171131.14999999999,"N_COORD97":2544548.5600000001,"ADDRESS":"小東路３０７巷７５號","OBJECTID":449153},"geometry":{"x":171131.15000000037,"y":2544548.5600000005}},{"attributes":{"ID":449179,"DIS_CODE":0,"TOWNNAME":"北區","LI":"東興里","LIN":"18鄰","STREET":"小東路","SECT":" ","MAREA":" ","LANE":"３０７巷","ALLEY":" ","HOUSE_NO":"７７號","E_COORD97":171126.67000000001,"N_COORD97":2544549.04,"ADDRESS":"小東路３０７巷７７號","OBJECTID":449154},"geometry":{"x":171126.67000000086,"y":2544549.040000001}},{"attributes":{"ID":449180,"DIS_CODE":0,"TOWNNAME":"北區","LI":"東興里","LIN":"18鄰","STREET":"小東路","SECT":" ","MAREA":" ","LANE":"２９９巷","ALLEY":" ","HOUSE_NO":"２９號","E_COORD97":171104.28,"N_COORD97":2544517.75,"ADDRESS":"小東路２９９巷２９號","OBJECTID":449155},"geometry":{"x":171104.28000000119,"y":2544517.7500000037}},{"attributes":{"ID":449181,"DIS_CODE":0,"TOWNNAME":"北區","LI":"東興里","LIN":"18鄰","STREET":"小東路","SECT":" ","MAREA":" ","LANE":"２９９巷","ALLEY":" ","HOUSE_NO":"３１號","E_COORD97":171104.85999999999,"N_COORD97":2544521.1600000001,"ADDRESS":"小東路２９９巷３１號","OBJECTID":449156},"geometry":{"x":171104.8600000022,"y":2544521.1600000001}},{"attributes":{"ID":449182,"DIS_CODE":0,"TOWNNAME":"北區","LI":"東興里","LIN":"18鄰","STREET":"小東路","SECT":" ","MAREA":" ","LANE":"２９９巷","ALLEY":" ","HOUSE_NO":"３３號","E_COORD97":171104.95999999999,"N_COORD97":2544525.1400000001,"ADDRESS":"小東路２９９巷３３號","OBJECTID":449157},"geometry":{"x":171104.95999999996,"y":2544525.1400000006}},{"attributes":{"ID":449183,"DIS_CODE":0,"TOWNNAME":"北區","LI":"東興里","LIN":"18鄰","STREET":"小東路","SECT":" ","MAREA":" ","LANE":"２９９巷","ALLEY":" ","HOUSE_NO":"３５號","E_COORD97":171105.35000000001,"N_COORD97":2544528.4500000002,"ADDRESS":"小東路２９９巷３５號","OBJECTID":449158},"geometry":{"x":171105.34999999963,"y":2544528.4499999993}},{"attributes":{"ID":449184,"DIS_CODE":0,"TOWNNAME":"北區","LI":"東興里","LIN":"18鄰","STREET":"小東路","SECT":" ","MAREA":" ","LANE":"２９９巷","ALLEY":" ","HOUSE_NO":"３７號","E_COORD97":171105.14999999999,"N_COORD97":2544532.6299999999,"ADDRESS":"小東路２９９巷３７號","OBJECTID":449159},"geometry":{"x":171105.1500000013,"y":2544532.629999999}},{"attributes":{"ID":449185,"DIS_CODE":0,"TOWNNAME":"北區","LI":"東興里","LIN":"18鄰","STREET":"小東路","SECT":" ","MAREA":" ","LANE":"２９９巷","ALLEY":" ","HOUSE_NO":"３９號","E_COORD97":171106.12,"N_COORD97":2544536.4199999999,"ADDRESS":"小東路２９９巷３９號","OBJECTID":449160},"geometry":{"x":171106.12000000011,"y":2544536.4199999981}},{"attributes":{"ID":449186,"DIS_CODE":0,"TOWNNAME":"北區","LI":"東興里","LIN":"18鄰","STREET":"小東路","SECT":" ","MAREA":" ","LANE":"２９９巷","ALLEY":" ","HOUSE_NO":"４１號","E_COORD97":171106.22,"N_COORD97":2544539.8900000001,"ADDRESS":"小東路２９９巷４１號","OBJECTID":449161},"geometry":{"x":171106.21999999974,"y":2544539.8900000006}},{"attributes":{"ID":449187,"DIS_CODE":0,"TOWNNAME":"北區","LI":"東興里","LIN":"18鄰","STREET":"小東路","SECT":" ","MAREA":" ","LANE":"３０７巷","ALLEY":" ","HOUSE_NO":"７９號","E_COORD97":171112.84,"N_COORD97":2544552.6200000001,"ADDRESS":"小東路３０７巷７９號","OBJECTID":449162},"geometry":{"x":171112.83999999985,"y":2544552.620000001}},{"attributes":{"ID":449188,"DIS_CODE":0,"TOWNNAME":"北區","LI":"東興里","LIN":"18鄰","STREET":"小東路","SECT":" ","MAREA":" ","LANE":"３０７巷","ALLEY":" ","HOUSE_NO":"８１號","E_COORD97":171108.45999999999,"N_COORD97":2544552.7200000002,"ADDRESS":"小東路３０７巷８１號","OBJECTID":449163},"geometry":{"x":171108.45999999996,"y":2544552.7200000025}},{"attributes":{"ID":449189,"DIS_CODE":0,"TOWNNAME":"北區","LI":"東興里","LIN":"18鄰","STREET":"小東路","SECT":" ","MAREA":" ","LANE":"３０７巷","ALLEY":" ","HOUSE_NO":"８３號","E_COORD97":171104.28,"N_COORD97":2544554.0800000001,"ADDRESS":"小東路３０７巷８３號","OBJECTID":449164},"geometry":{"x":171104.28000000119,"y":2544554.0800000019}},{"attributes":{"ID":449190,"DIS_CODE":0,"TOWNNAME":"北區","LI":"東興里","LIN":"18鄰","STREET":"小東路","SECT":" ","MAREA":" ","LANE":"３０７巷","ALLEY":" ","HOUSE_NO":"８５號","E_COORD97":171100.57999999999,"N_COORD97":2544555.1499999999,"ADDRESS":"小東路３０７巷８５號","OBJECTID":449165},"geometry":{"x":171100.58000000101,"y":2544555.1500000004}},{"attributes":{"ID":449191,"DIS_CODE":0,"TOWNNAME":"北區","LI":"東興里","LIN":"18鄰","STREET":"小東路","SECT":" ","MAREA":" ","LANE":"３０７巷","ALLEY":" ","HOUSE_NO":"８７號","E_COORD97":171095.51999999999,"N_COORD97":2544555.0499999998,"ADDRESS":"小東路３０７巷８７號","OBJECTID":449166},"geometry":{"x":171095.51999999955,"y":2544555.0500000026}},{"attributes":{"ID":449192,"DIS_CODE":0,"TOWNNAME":"北區","LI":"和順里","LIN":"18鄰","STREET":"民德路","SECT":" ","MAREA":" ","LANE":"９５巷","ALLEY":" ","HOUSE_NO":"３７號","E_COORD97":168146.76999999999,"N_COORD97":2545089.7799999998,"ADDRESS":"民德路９５巷３７號","OBJECTID":449167},"geometry":{"x":168146.77000000048,"y":2545089.7800000031}},{"attributes":{"ID":449193,"DIS_CODE":0,"TOWNNAME":"北區","LI":"和順里","LIN":"18鄰","STREET":"民德路","SECT":" ","MAREA":" ","LANE":"９５巷","ALLEY":" ","HOUSE_NO":"１１號","E_COORD97":168198.32000000001,"N_COORD97":2545109.7400000002,"ADDRESS":"民德路９５巷１１號","OBJECTID":449168},"geometry":{"x":168198.32000000123,"y":2545109.7400000002}},{"attributes":{"ID":449194,"DIS_CODE":0,"TOWNNAME":"北區","LI":"和順里","LIN":"18鄰","STREET":"民德路","SECT":" ","MAREA":" ","LANE":"９５巷","ALLEY":" ","HOUSE_NO":"１３號","E_COORD97":168194.73000000001,"N_COORD97":2545108.1400000001,"ADDRESS":"民德路９５巷１３號","OBJECTID":449169},"geometry":{"x":168194.73000000045,"y":2545108.1400000006}},{"attributes":{"ID":449195,"DIS_CODE":0,"TOWNNAME":"北區","LI":"和順里","LIN":"18鄰","STREET":"民德路","SECT":" ","MAREA":" ","LANE":"９５巷","ALLEY":" ","HOUSE_NO":"１５號","E_COORD97":168190.73000000001,"N_COORD97":2545105.9500000002,"ADDRESS":"民德路９５巷１５號","OBJECTID":449170},"geometry":{"x":168190.73000000138,"y":2545105.9500000011}},{"attributes":{"ID":449196,"DIS_CODE":0,"TOWNNAME":"北區","LI":"和順里","LIN":"18鄰","STREET":"民德路","SECT":" ","MAREA":" ","LANE":"９５巷","ALLEY":" ","HOUSE_NO":"１號","E_COORD97":168217.31,"N_COORD97":2545118.7200000002,"ADDRESS":"民德路９５巷１號","OBJECTID":449171},"geometry":{"x":168217.30999999959,"y":2545118.7200000044}},{"attributes":{"ID":449197,"DIS_CODE":0,"TOWNNAME":"北區","LI":"和順里","LIN":"18鄰","STREET":"民德路","SECT":" ","MAREA":" ","LANE":"９５巷","ALLEY":" ","HOUSE_NO":"１９號","E_COORD97":168183.14000000001,"N_COORD97":2545102.9500000002,"ADDRESS":"民德路９５巷１９號","OBJECTID":449172},"geometry":{"x":168183.14000000153,"y":2545102.9500000011}},{"attributes":{"ID":449198,"DIS_CODE":0,"TOWNNAME":"北區","LI":"和順里","LIN":"18鄰","STREET":"民德路","SECT":" ","MAREA":" ","LANE":"９５巷","ALLEY":" ","HOUSE_NO":"２１號","E_COORD97":168178.73999999999,"N_COORD97":2545101.3599999999,"ADDRESS":"民德路９５巷２１號","OBJECTID":449173},"geometry":{"x":168178.74000000115,"y":2545101.3599999994}},{"attributes":{"ID":449199,"DIS_CODE":0,"TOWNNAME":"北區","LI":"和順里","LIN":"18鄰","STREET":"民德路","SECT":" ","MAREA":" ","LANE":"９５巷","ALLEY":" ","HOUSE_NO":"２５號","E_COORD97":168171.06,"N_COORD97":2545098.8900000001,"ADDRESS":"民德路９５巷２５號","OBJECTID":449174},"geometry":{"x":168171.05999999959,"y":2545098.8900000006}},{"attributes":{"ID":449200,"DIS_CODE":0,"TOWNNAME":"北區","LI":"和順里","LIN":"18鄰","STREET":"民德路","SECT":" ","MAREA":" ","LANE":"９５巷","ALLEY":" ","HOUSE_NO":"２７號","E_COORD97":168167.03,"N_COORD97":2545097.02,"ADDRESS":"民德路９５巷２７號","OBJECTID":449175},"geometry":{"x":168167.03000000026,"y":2545097.0199999996}},{"attributes":{"ID":449201,"DIS_CODE":0,"TOWNNAME":"北區","LI":"和順里","LIN":"18鄰","STREET":"民德路","SECT":" ","MAREA":" ","LANE":"９５巷","ALLEY":" ","HOUSE_NO":"２９號","E_COORD97":168163.20000000001,"N_COORD97":2545095.5499999998,"ADDRESS":"民德路９５巷２９號","OBJECTID":449176},"geometry":{"x":168163.20000000112,"y":2545095.5500000007}},{"attributes":{"ID":449202,"DIS_CODE":0,"TOWNNAME":"北區","LI":"和順里","LIN":"18鄰","STREET":"民德路","SECT":" ","MAREA":" ","LANE":"９５巷","ALLEY":" ","HOUSE_NO":"３１號","E_COORD97":168158.82000000001,"N_COORD97":2545094.54,"ADDRESS":"民德路９５巷３１號","OBJECTID":449177},"geometry":{"x":168158.81999999937,"y":2545094.5400000028}},{"attributes":{"ID":449203,"DIS_CODE":0,"TOWNNAME":"北區","LI":"和順里","LIN":"18鄰","STREET":"民德路","SECT":" ","MAREA":" ","LANE":"９５巷","ALLEY":" ","HOUSE_NO":"３３號","E_COORD97":168154.76000000001,"N_COORD97":2545093.77,"ADDRESS":"民德路９５巷３３號","OBJECTID":449178},"geometry":{"x":168154.75999999978,"y":2545093.7700000014}},{"attributes":{"ID":449204,"DIS_CODE":0,"TOWNNAME":"北區","LI":"和順里","LIN":"18鄰","STREET":"民德路","SECT":" ","MAREA":" ","LANE":"９５巷","ALLEY":" ","HOUSE_NO":"３５號","E_COORD97":168150.73999999999,"N_COORD97":2545091.75,"ADDRESS":"民德路９５巷３５號","OBJECTID":449179},"geometry":{"x":168150.74000000022,"y":2545091.7500000019}},{"attributes":{"ID":449205,"DIS_CODE":0,"TOWNNAME":"北區","LI":"和順里","LIN":"18鄰","STREET":"民德路","SECT":" ","MAREA":" ","LANE":"９５巷","ALLEY":" ","HOUSE_NO":"３９號","E_COORD97":168143.37,"N_COORD97":2545088.5800000001,"ADDRESS":"民德路９５巷３９號","OBJECTID":449180},"geometry":{"x":168143.37000000104,"y":2545088.5800000038}},{"attributes":{"ID":449206,"DIS_CODE":0,"TOWNNAME":"北區","LI":"和順里","LIN":"18鄰","STREET":"民德路","SECT":" ","MAREA":" ","LANE":"９５巷","ALLEY":" ","HOUSE_NO":"３號","E_COORD97":168213.51000000001,"N_COORD97":2545117.1299999999,"ADDRESS":"民德路９５巷３號","OBJECTID":449181},"geometry":{"x":168213.51000000071,"y":2545117.1299999971}},{"attributes":{"ID":449207,"DIS_CODE":0,"TOWNNAME":"北區","LI":"和順里","LIN":"18鄰","STREET":"民德路","SECT":" ","MAREA":" ","LANE":"９５巷","ALLEY":" ","HOUSE_NO":"４１號","E_COORD97":168139.38,"N_COORD97":2545087.1899999999,"ADDRESS":"民德路９５巷４１號","OBJECTID":449182},"geometry":{"x":168139.38000000175,"y":2545087.1900000032}},{"attributes":{"ID":449208,"DIS_CODE":0,"TOWNNAME":"北區","LI":"和順里","LIN":"18鄰","STREET":"民德路","SECT":" ","MAREA":" ","LANE":"９５巷","ALLEY":" ","HOUSE_NO":"４３號","E_COORD97":168134.78,"N_COORD97":2545085.3900000001,"ADDRESS":"民德路９５巷４３號","OBJECTID":449183},"geometry":{"x":168134.78000000026,"y":2545085.3900000006}},{"attributes":{"ID":449209,"DIS_CODE":0,"TOWNNAME":"北區","LI":"和順里","LIN":"18鄰","STREET":"民德路","SECT":" ","MAREA":" ","LANE":"９５巷","ALLEY":" ","HOUSE_NO":"４５號","E_COORD97":168131.5,"N_COORD97":2545083.4300000002,"ADDRESS":"民德路９５巷４５號","OBJECTID":449184},"geometry":{"x":168131.5,"y":2545083.4300000016}},{"attributes":{"ID":449210,"DIS_CODE":0,"TOWNNAME":"北區","LI":"和順里","LIN":"18鄰","STREET":"民德路","SECT":" ","MAREA":" ","LANE":"９５巷","ALLEY":" ","HOUSE_NO":"４７號","E_COORD97":168127.79000000001,"N_COORD97":2545082,"ADDRESS":"民德路９５巷４７號","OBJECTID":449185},"geometry":{"x":168127.79000000004,"y":2545082.0000000037}},{"attributes":{"ID":449211,"DIS_CODE":0,"TOWNNAME":"北區","LI":"和順里","LIN":"18鄰","STREET":"民德路","SECT":" ","MAREA":" ","LANE":"９５巷","ALLEY":" ","HOUSE_NO":"４９號","E_COORD97":168123.82000000001,"N_COORD97":2545080.54,"ADDRESS":"民德路９５巷４９號","OBJECTID":449186},"geometry":{"x":168123.82000000123,"y":2545080.5399999991}},{"attributes":{"ID":449212,"DIS_CODE":0,"TOWNNAME":"北區","LI":"和順里","LIN":"18鄰","STREET":"民德路","SECT":" ","MAREA":" ","LANE":"９５巷","ALLEY":" ","HOUSE_NO":"５３號","E_COORD97":168115.92000000001,"N_COORD97":2545077.5,"ADDRESS":"民德路９５巷５３號","OBJECTID":449187},"geometry":{"x":168115.92000000086,"y":2545077.5}},{"attributes":{"ID":449213,"DIS_CODE":0,"TOWNNAME":"北區","LI":"和順里","LIN":"18鄰","STREET":"民德路","SECT":" ","MAREA":" ","LANE":"９５巷","ALLEY":" ","HOUSE_NO":"５５號","E_COORD97":168111.97,"N_COORD97":2545075.8700000001,"ADDRESS":"民德路９５巷５５號","OBJECTID":449188},"geometry":{"x":168111.97000000067,"y":2545075.870000001}},{"attributes":{"ID":449214,"DIS_CODE":0,"TOWNNAME":"北區","LI":"和順里","LIN":"18鄰","STREET":"民德路","SECT":" ","MAREA":" ","LANE":"９５巷","ALLEY":" ","HOUSE_NO":"５７號","E_COORD97":168107.87,"N_COORD97":2545074.8999999999,"ADDRESS":"民德路９５巷５７號","OBJECTID":449189},"geometry":{"x":168107.87000000104,"y":2545074.9000000004}},{"attributes":{"ID":449215,"DIS_CODE":0,"TOWNNAME":"北區","LI":"和順里","LIN":"18鄰","STREET":"民德路","SECT":" ","MAREA":" ","LANE":"９５巷","ALLEY":" ","HOUSE_NO":"５９號","E_COORD97":168104.22,"N_COORD97":2545073.2599999998,"ADDRESS":"民德路９５巷５９號","OBJECTID":449190},"geometry":{"x":168104.21999999974,"y":2545073.2600000035}},{"attributes":{"ID":449216,"DIS_CODE":0,"TOWNNAME":"北區","LI":"和順里","LIN":"18鄰","STREET":"民德路","SECT":" ","MAREA":" ","LANE":"９５巷","ALLEY":" ","HOUSE_NO":"５號","E_COORD97":168209.70999999999,"N_COORD97":2545115.5299999998,"ADDRESS":"民德路９５巷５號","OBJECTID":449191},"geometry":{"x":168209.70999999996,"y":2545115.5300000012}},{"attributes":{"ID":449217,"DIS_CODE":0,"TOWNNAME":"北區","LI":"和順里","LIN":"18鄰","STREET":"民德路","SECT":" ","MAREA":" ","LANE":"９５巷","ALLEY":" ","HOUSE_NO":"６１號","E_COORD97":168100.19,"N_COORD97":2545071.6200000001,"ADDRESS":"民德路９５巷６１號","OBJECTID":449192},"geometry":{"x":168100.19000000041,"y":2545071.620000001}},{"attributes":{"ID":449218,"DIS_CODE":0,"TOWNNAME":"北區","LI":"和順里","LIN":"18鄰","STREET":"民德路","SECT":" ","MAREA":" ","LANE":"９５巷","ALLEY":" ","HOUSE_NO":"６３號","E_COORD97":168096.47,"N_COORD97":2545070.4300000002,"ADDRESS":"民德路９５巷６３號","OBJECTID":449193},"geometry":{"x":168096.47000000067,"y":2545070.4299999997}},{"attributes":{"ID":449219,"DIS_CODE":0,"TOWNNAME":"北區","LI":"和順里","LIN":"18鄰","STREET":"民德路","SECT":" ","MAREA":" ","LANE":"９５巷","ALLEY":" ","HOUSE_NO":"６５號","E_COORD97":168092.14000000001,"N_COORD97":2545069.1699999999,"ADDRESS":"民德路９５巷６５號","OBJECTID":449194},"geometry":{"x":168092.1400000006,"y":2545069.1699999999}},{"attributes":{"ID":449220,"DIS_CODE":0,"TOWNNAME":"北區","LI":"和順里","LIN":"18鄰","STREET":"民德路","SECT":" ","MAREA":" ","LANE":"９５巷","ALLEY":" ","HOUSE_NO":"６７號","E_COORD97":168088.25,"N_COORD97":2545067.77,"ADDRESS":"民德路９５巷６７號","OBJECTID":449195},"geometry":{"x":168088.25000000093,"y":2545067.7700000014}},{"attributes":{"ID":449221,"DIS_CODE":0,"TOWNNAME":"北區","LI":"和順里","LIN":"18鄰","STREET":"民德路","SECT":" ","MAREA":" ","LANE":"９５巷","ALLEY":" ","HOUSE_NO":"６９號","E_COORD97":168084.45000000001,"N_COORD97":2545066.25,"ADDRESS":"民德路９５巷６９號","OBJECTID":449196},"geometry":{"x":168084.45000000019,"y":2545066.25}},{"attributes":{"ID":449222,"DIS_CODE":0,"TOWNNAME":"北區","LI":"和順里","LIN":"18鄰","STREET":"民德路","SECT":" ","MAREA":" ","LANE":"９５巷","ALLEY":" ","HOUSE_NO":"９號","E_COORD97":168202.51999999999,"N_COORD97":2545111.9399999999,"ADDRESS":"民德路９５巷９號","OBJECTID":449197},"geometry":{"x":168202.52000000142,"y":2545111.9399999995}},{"attributes":{"ID":449223,"DIS_CODE":0,"TOWNNAME":"新市區","LI":"永就里","LIN":"8鄰","STREET":" ","SECT":" ","MAREA":"永就","LANE":" ","ALLEY":" ","HOUSE_NO":"８１之３號","E_COORD97":177665.01273300001,"N_COORD97":2551568.9739100002,"ADDRESS":"永就８１之３號","OBJECTID":449198},"geometry":{"x":177665.01273300126,"y":2551568.9739100002}},{"attributes":{"ID":449224,"DIS_CODE":0,"TOWNNAME":"南區","LI":"鯤鯓里","LIN":"18鄰","STREET":"鯤鯓路","SECT":" ","MAREA":" ","LANE":"１０２巷","ALLEY":" ","HOUSE_NO":"１２０之１５號","E_COORD97":165148.56,"N_COORD97":2540183.75,"ADDRESS":"鯤鯓路１０２巷１２０之１５號","OBJECTID":449199},"geometry":{"x":165148.55999999959,"y":2540183.75}},{"attributes":{"ID":449225,"DIS_CODE":0,"TOWNNAME":"南區","LI":"大忠里","LIN":"18鄰","STREET":"大同路","SECT":"二段","MAREA":" ","LANE":"６４０巷","ALLEY":" ","HOUSE_NO":"１０號","E_COORD97":169490.03,"N_COORD97":2541047.9500000002,"ADDRESS":"大同路二段６４０巷１０號","OBJECTID":449200},"geometry":{"x":169490.03000000119,"y":2541047.9500000011}}]}