{"displayFieldName":"TOWNNAME","fieldAliases":{"ID":"ID","DIS_CODE":"DIS_CODE","TOWNNAME":"TOWNNAME","LI":"LI","LIN":"LIN","STREET":"STREET","SECT":"SECT","MAREA":"MAREA","LANE":"LANE","ALLEY":"ALLEY","HOUSE_NO":"HOUSE_NO","E_COORD97":"E_COORD97","N_COORD97":"N_COORD97","ADDRESS":"ADDRESS","OBJECTID":"OBJECTID"},"geometryType":"esriGeometryPoint","spatialReference":{"wkid":102443,"latestWkid":3826},"fields":[{"name":"ID","type":"esriFieldTypeDouble","alias":"ID"},{"name":"DIS_CODE","type":"esriFieldTypeInteger","alias":"DIS_CODE"},{"name":"TOWNNAME","type":"esriFieldTypeString","alias":"TOWNNAME","length":8},{"name":"LI","type":"esriFieldTypeString","alias":"LI","length":8},{"name":"LIN","type":"esriFieldTypeString","alias":"LIN","length":12},{"name":"STREET","type":"esriFieldTypeString","alias":"STREET","length":20},{"name":"SECT","type":"esriFieldTypeString","alias":"SECT","length":8},{"name":"MAREA","type":"esriFieldTypeString","alias":"MAREA","length":12},{"name":"LANE","type":"esriFieldTypeString","alias":"LANE","length":10},{"name":"ALLEY","type":"esriFieldTypeString","alias":"ALLEY","length":10},{"name":"HOUSE_NO","type":"esriFieldTypeString","alias":"HOUSE_NO","length":20},{"name":"E_COORD97","type":"esriFieldTypeDouble","alias":"E_COORD97"},{"name":"N_COORD97","type":"esriFieldTypeDouble","alias":"N_COORD97"},{"name":"ADDRESS","type":"esriFieldTypeString","alias":"ADDRESS","length":50},{"name":"OBJECTID","type":"esriFieldTypeOID","alias":"OBJECTID"}],"features":[{"attributes":{"ID":67401,"DIS_CODE":0,"TOWNNAME":"新市區","LI":"大社里","LIN":"35鄰","STREET":" ","SECT":" ","MAREA":"大社","LANE":" ","ALLEY":" ","HOUSE_NO":"５８９之２６號","E_COORD97":179312.73000000001,"N_COORD97":2554523.5499999998,"ADDRESS":"大社５８９之２６號","OBJECTID":67401},"geometry":{"x":179312.73000000138,"y":2554523.5500000007}},{"attributes":{"ID":67402,"DIS_CODE":0,"TOWNNAME":"新市區","LI":"大社里","LIN":"35鄰","STREET":" ","SECT":" ","MAREA":"大社","LANE":" ","ALLEY":" ","HOUSE_NO":"５８９之９９號","E_COORD97":179399.07000000001,"N_COORD97":2554597.7999999998,"ADDRESS":"大社５８９之９９號","OBJECTID":67402},"geometry":{"x":179399.0700000003,"y":2554597.8000000045}},{"attributes":{"ID":67403,"DIS_CODE":0,"TOWNNAME":"新市區","LI":"大社里","LIN":"35鄰","STREET":" ","SECT":" ","MAREA":"大社","LANE":" ","ALLEY":" ","HOUSE_NO":"５８９之１６號","E_COORD97":179307.98000000001,"N_COORD97":2554504.2999999998,"ADDRESS":"大社５８９之１６號","OBJECTID":67403},"geometry":{"x":179307.98000000138,"y":2554504.3000000026}},{"attributes":{"ID":67404,"DIS_CODE":0,"TOWNNAME":"新市區","LI":"大社里","LIN":"35鄰","STREET":" ","SECT":" ","MAREA":"大社","LANE":" ","ALLEY":" ","HOUSE_NO":"５８９之６９號","E_COORD97":179345.54000000001,"N_COORD97":2554572.5499999998,"ADDRESS":"大社５８９之６９號","OBJECTID":67404},"geometry":{"x":179345.54000000097,"y":2554572.5500000026}},{"attributes":{"ID":67405,"DIS_CODE":0,"TOWNNAME":"安南區","LI":"長安里","LIN":"6鄰","STREET":"長溪路","SECT":"三段","MAREA":" ","LANE":"４０５巷","ALLEY":"４０弄","HOUSE_NO":"６２號之１","E_COORD97":167425.42999999999,"N_COORD97":2552019.3900000001,"ADDRESS":"長溪路三段４０５巷４０弄６２號之１","OBJECTID":67405},"geometry":{"x":167425.43000000063,"y":2552019.3900000006}},{"attributes":{"ID":67406,"DIS_CODE":0,"TOWNNAME":"安南區","LI":"長安里","LIN":"6鄰","STREET":"長溪路","SECT":"三段","MAREA":" ","LANE":"４０５巷","ALLEY":"４０弄","HOUSE_NO":"６４號","E_COORD97":167428.62,"N_COORD97":2552015.8199999998,"ADDRESS":"長溪路三段４０５巷４０弄６４號","OBJECTID":67406},"geometry":{"x":167428.62000000011,"y":2552015.8200000003}},{"attributes":{"ID":67407,"DIS_CODE":0,"TOWNNAME":"安南區","LI":"長安里","LIN":"6鄰","STREET":"長溪路","SECT":"三段","MAREA":" ","LANE":"４０５巷","ALLEY":"４０弄","HOUSE_NO":"６４號之１","E_COORD97":167431.79999999999,"N_COORD97":2552012.7599999998,"ADDRESS":"長溪路三段４０５巷４０弄６４號之１","OBJECTID":67407},"geometry":{"x":167431.80000000075,"y":2552012.7599999998}},{"attributes":{"ID":67408,"DIS_CODE":0,"TOWNNAME":"安南區","LI":"長安里","LIN":"6鄰","STREET":"長溪路","SECT":"三段","MAREA":" ","LANE":"４０５巷","ALLEY":"４０弄","HOUSE_NO":"６６號","E_COORD97":167435.37,"N_COORD97":2552009.5099999998,"ADDRESS":"長溪路三段４０５巷４０弄６６號","OBJECTID":67408},"geometry":{"x":167435.37000000011,"y":2552009.5100000016}},{"attributes":{"ID":67409,"DIS_CODE":0,"TOWNNAME":"安南區","LI":"城中里","LIN":"6鄰","STREET":"城西街","SECT":"一段","MAREA":" ","LANE":"６１巷","ALLEY":"２７弄","HOUSE_NO":"１５號","E_COORD97":160747.95000000001,"N_COORD97":2551403.4500000002,"ADDRESS":"城西街一段６１巷２７弄１５號","OBJECTID":67409},"geometry":{"x":160747.95000000019,"y":2551403.4499999993}},{"attributes":{"ID":67410,"DIS_CODE":0,"TOWNNAME":"學甲區","LI":"秀昌里","LIN":"31鄰","STREET":" ","SECT":" ","MAREA":"煥昌","LANE":" ","ALLEY":" ","HOUSE_NO":"９０號","E_COORD97":166239.57000000001,"N_COORD97":2571079.4100000001,"ADDRESS":"煥昌９０號","OBJECTID":67410},"geometry":{"x":166239.5700000003,"y":2571079.4100000001}},{"attributes":{"ID":67411,"DIS_CODE":0,"TOWNNAME":"安南區","LI":"城中里","LIN":"6鄰","STREET":"城西街","SECT":"一段","MAREA":" ","LANE":"６１巷","ALLEY":"２７弄","HOUSE_NO":"５號","E_COORD97":160770.04000000001,"N_COORD97":2551365.0600000001,"ADDRESS":"城西街一段６１巷２７弄５號","OBJECTID":67411},"geometry":{"x":160770.04000000097,"y":2551365.0600000024}},{"attributes":{"ID":67412,"DIS_CODE":0,"TOWNNAME":"安南區","LI":"城中里","LIN":"6鄰","STREET":"城西街","SECT":"一段","MAREA":" ","LANE":"６１巷","ALLEY":"２７弄","HOUSE_NO":"９號","E_COORD97":160800.57999999999,"N_COORD97":2551384.21,"ADDRESS":"城西街一段６１巷２７弄９號","OBJECTID":67412},"geometry":{"x":160800.58000000101,"y":2551384.2100000046}},{"attributes":{"ID":67413,"DIS_CODE":0,"TOWNNAME":"安南區","LI":"砂崙里","LIN":"6鄰","STREET":"青砂街","SECT":"一段","MAREA":" ","LANE":"５７２巷","ALLEY":"１１６弄","HOUSE_NO":"１０號","E_COORD97":160116.29999999999,"N_COORD97":2552896.9900000002,"ADDRESS":"青砂街一段５７２巷１１６弄１０號","OBJECTID":67413},"geometry":{"x":160116.29999999981,"y":2552896.9899999984}},{"attributes":{"ID":67414,"DIS_CODE":0,"TOWNNAME":"安南區","LI":"砂崙里","LIN":"6鄰","STREET":"青砂街","SECT":"一段","MAREA":" ","LANE":"５７２巷","ALLEY":"１１６弄","HOUSE_NO":"１２號","E_COORD97":160117.14999999999,"N_COORD97":2552902.6299999999,"ADDRESS":"青砂街一段５７２巷１１６弄１２號","OBJECTID":67414},"geometry":{"x":160117.1500000013,"y":2552902.6300000008}},{"attributes":{"ID":67415,"DIS_CODE":0,"TOWNNAME":"安南區","LI":"砂崙里","LIN":"6鄰","STREET":"青砂街","SECT":"一段","MAREA":" ","LANE":"５７２巷","ALLEY":"１１６弄","HOUSE_NO":"３２號","E_COORD97":160149.91,"N_COORD97":2552894.5499999998,"ADDRESS":"青砂街一段５７２巷１１６弄３２號","OBJECTID":67415},"geometry":{"x":160149.91000000015,"y":2552894.5500000026}},{"attributes":{"ID":67416,"DIS_CODE":0,"TOWNNAME":"新市區","LI":"大社里","LIN":"35鄰","STREET":" ","SECT":" ","MAREA":"大社","LANE":" ","ALLEY":" ","HOUSE_NO":"５８９之３３號","E_COORD97":179329.62,"N_COORD97":2554498.7999999998,"ADDRESS":"大社５８９之３３號","OBJECTID":67416},"geometry":{"x":179329.62000000197,"y":2554498.8000000007}},{"attributes":{"ID":67417,"DIS_CODE":0,"TOWNNAME":"新市區","LI":"大社里","LIN":"35鄰","STREET":" ","SECT":" ","MAREA":"大社","LANE":" ","ALLEY":" ","HOUSE_NO":"５８９之３６號","E_COORD97":179336.48000000001,"N_COORD97":2554488.2999999998,"ADDRESS":"大社５８９之３６號","OBJECTID":67417},"geometry":{"x":179336.48000000138,"y":2554488.3000000007}},{"attributes":{"ID":67418,"DIS_CODE":0,"TOWNNAME":"新市區","LI":"大社里","LIN":"35鄰","STREET":" ","SECT":" ","MAREA":"大社","LANE":" ","ALLEY":" ","HOUSE_NO":"５８９之４９號","E_COORD97":179331.06,"N_COORD97":2554580.0499999998,"ADDRESS":"大社５８９之４９號","OBJECTID":67418},"geometry":{"x":179331.05999999959,"y":2554580.0500000026}},{"attributes":{"ID":67419,"DIS_CODE":0,"TOWNNAME":"新市區","LI":"大社里","LIN":"35鄰","STREET":" ","SECT":" ","MAREA":"大社","LANE":" ","ALLEY":" ","HOUSE_NO":"５８９之２８號","E_COORD97":179317.42999999999,"N_COORD97":2554516.7999999998,"ADDRESS":"大社５８９之２８號","OBJECTID":67419},"geometry":{"x":179317.43000000063,"y":2554516.8000000026}},{"attributes":{"ID":67420,"DIS_CODE":0,"TOWNNAME":"新市區","LI":"大社里","LIN":"35鄰","STREET":" ","SECT":" ","MAREA":"大社","LANE":" ","ALLEY":" ","HOUSE_NO":"５８９之２３號","E_COORD97":179324.82000000001,"N_COORD97":2554479.5499999998,"ADDRESS":"大社５８９之２３號","OBJECTID":67420},"geometry":{"x":179324.8200000003,"y":2554479.5500000007}},{"attributes":{"ID":67421,"DIS_CODE":0,"TOWNNAME":"新市區","LI":"大社里","LIN":"35鄰","STREET":" ","SECT":" ","MAREA":"大社","LANE":" ","ALLEY":" ","HOUSE_NO":"５８９之３５號","E_COORD97":179334.48000000001,"N_COORD97":2554491.5499999998,"ADDRESS":"大社５８９之３５號","OBJECTID":67421},"geometry":{"x":179334.48000000231,"y":2554491.5500000026}},{"attributes":{"ID":67422,"DIS_CODE":0,"TOWNNAME":"新市區","LI":"大社里","LIN":"35鄰","STREET":" ","SECT":" ","MAREA":"大社","LANE":" ","ALLEY":" ","HOUSE_NO":"５８９之８５號","E_COORD97":179378.23000000001,"N_COORD97":2554578.0499999998,"ADDRESS":"大社５８９之８５號","OBJECTID":67422},"geometry":{"x":179378.23000000045,"y":2554578.0500000007}},{"attributes":{"ID":67423,"DIS_CODE":0,"TOWNNAME":"新市區","LI":"大社里","LIN":"35鄰","STREET":" ","SECT":" ","MAREA":"大社","LANE":" ","ALLEY":" ","HOUSE_NO":"５８９之１０４號","E_COORD97":179415.17999999999,"N_COORD97":2554631.0499999998,"ADDRESS":"大社５８９之１０４號","OBJECTID":67423},"geometry":{"x":179415.17999999877,"y":2554631.0500000026}},{"attributes":{"ID":67424,"DIS_CODE":0,"TOWNNAME":"安南區","LI":"砂崙里","LIN":"6鄰","STREET":"青砂街","SECT":"一段","MAREA":" ","LANE":"５７２巷","ALLEY":"１１６弄","HOUSE_NO":"３４之１號","E_COORD97":160175.44,"N_COORD97":2552897.52,"ADDRESS":"青砂街一段５７２巷１１６弄３４之１號","OBJECTID":67424},"geometry":{"x":160175.43999999948,"y":2552897.5200000014}},{"attributes":{"ID":67425,"DIS_CODE":0,"TOWNNAME":"安南區","LI":"砂崙里","LIN":"6鄰","STREET":"青砂街","SECT":"一段","MAREA":" ","LANE":"５７２巷","ALLEY":"１１６弄","HOUSE_NO":"３４號","E_COORD97":160166.39000000001,"N_COORD97":2552904.0299999998,"ADDRESS":"青砂街一段５７２巷１１６弄３４號","OBJECTID":67425},"geometry":{"x":160166.38999999966,"y":2552904.0300000012}},{"attributes":{"ID":67426,"DIS_CODE":0,"TOWNNAME":"官田區","LI":"渡頭里","LIN":"31鄰","STREET":" ","SECT":" ","MAREA":"三塊厝","LANE":" ","ALLEY":" ","HOUSE_NO":"２２３號","E_COORD97":183402.04000000001,"N_COORD97":2561341.2400000002,"ADDRESS":"三塊厝２２３號","OBJECTID":67426},"geometry":{"x":183402.0400000019,"y":2561341.2400000021}},{"attributes":{"ID":67427,"DIS_CODE":0,"TOWNNAME":"安南區","LI":"砂崙里","LIN":"6鄰","STREET":"青砂街","SECT":"一段","MAREA":" ","LANE":"５７２巷","ALLEY":"１１６弄","HOUSE_NO":"６０號","E_COORD97":160244.60999999999,"N_COORD97":2552945.1800000002,"ADDRESS":"青砂街一段５７２巷１１６弄６０號","OBJECTID":67427},"geometry":{"x":160244.61000000127,"y":2552945.1799999997}},{"attributes":{"ID":67428,"DIS_CODE":0,"TOWNNAME":"安南區","LI":"砂崙里","LIN":"6鄰","STREET":"青砂街","SECT":"一段","MAREA":" ","LANE":"５７２巷","ALLEY":"１１６弄","HOUSE_NO":"６２號","E_COORD97":160237.48999999999,"N_COORD97":2552938.3700000001,"ADDRESS":"青砂街一段５７２巷１１６弄６２號","OBJECTID":67428},"geometry":{"x":160237.49000000022,"y":2552938.370000001}},{"attributes":{"ID":67429,"DIS_CODE":0,"TOWNNAME":"安南區","LI":"砂崙里","LIN":"6鄰","STREET":"青砂街","SECT":"一段","MAREA":" ","LANE":"５７２巷","ALLEY":"１１６弄","HOUSE_NO":"６６號","E_COORD97":160215.16,"N_COORD97":2552934.3700000001,"ADDRESS":"青砂街一段５７２巷１１６弄６６號","OBJECTID":67429},"geometry":{"x":160215.16000000108,"y":2552934.3700000029}},{"attributes":{"ID":67430,"DIS_CODE":0,"TOWNNAME":"安南區","LI":"砂崙里","LIN":"6鄰","STREET":"青砂街","SECT":"一段","MAREA":" ","LANE":"５７２巷","ALLEY":"１１６弄","HOUSE_NO":"７０號","E_COORD97":160187.04000000001,"N_COORD97":2552926.4300000002,"ADDRESS":"青砂街一段５７２巷１１６弄７０號","OBJECTID":67430},"geometry":{"x":160187.04000000097,"y":2552926.4299999997}},{"attributes":{"ID":67431,"DIS_CODE":0,"TOWNNAME":"安南區","LI":"砂崙里","LIN":"6鄰","STREET":"青砂街","SECT":"一段","MAREA":" ","LANE":"５７２巷","ALLEY":"１１６弄","HOUSE_NO":"７６號","E_COORD97":160170.35000000001,"N_COORD97":2552926.5299999998,"ADDRESS":"青砂街一段５７２巷１１６弄７６號","OBJECTID":67431},"geometry":{"x":160170.35000000149,"y":2552926.5300000031}},{"attributes":{"ID":67432,"DIS_CODE":0,"TOWNNAME":"安南區","LI":"砂崙里","LIN":"6鄰","STREET":"青砂街","SECT":"一段","MAREA":" ","LANE":"５７２巷","ALLEY":"１１６弄","HOUSE_NO":"８０號","E_COORD97":160153.47,"N_COORD97":2552926.8399999999,"ADDRESS":"青砂街一段５７２巷１１６弄８０號","OBJECTID":67432},"geometry":{"x":160153.46999999974,"y":2552926.8399999999}},{"attributes":{"ID":67433,"DIS_CODE":0,"TOWNNAME":"安南區","LI":"砂崙里","LIN":"6鄰","STREET":"青砂街","SECT":"一段","MAREA":" ","LANE":"５７２巷","ALLEY":"１１６弄","HOUSE_NO":"８４號","E_COORD97":160137.34,"N_COORD97":2552921.6899999999,"ADDRESS":"青砂街一段５７２巷１１６弄８４號","OBJECTID":67433},"geometry":{"x":160137.34000000078,"y":2552921.6899999995}},{"attributes":{"ID":67434,"DIS_CODE":0,"TOWNNAME":"安南區","LI":"砂崙里","LIN":"6鄰","STREET":"青砂街","SECT":"一段","MAREA":" ","LANE":"５７２巷","ALLEY":"１１６弄","HOUSE_NO":"８８號","E_COORD97":160121.26999999999,"N_COORD97":2552951.2799999998,"ADDRESS":"青砂街一段５７２巷１１６弄８８號","OBJECTID":67434},"geometry":{"x":160121.26999999955,"y":2552951.2799999993}},{"attributes":{"ID":67435,"DIS_CODE":0,"TOWNNAME":"安南區","LI":"淵西里","LIN":"6鄰","STREET":"安中路","SECT":"四段","MAREA":" ","LANE":"３２０巷","ALLEY":"１２９弄","HOUSE_NO":"３２號","E_COORD97":164754.82999999999,"N_COORD97":2550500.0099999998,"ADDRESS":"安中路四段３２０巷１２９弄３２號","OBJECTID":67435},"geometry":{"x":164754.83000000101,"y":2550500.0100000016}},{"attributes":{"ID":67436,"DIS_CODE":0,"TOWNNAME":"安南區","LI":"淵西里","LIN":"6鄰","STREET":"安中路","SECT":"四段","MAREA":" ","LANE":"３２０巷","ALLEY":"１２９弄","HOUSE_NO":"３２號之１","E_COORD97":164759.69,"N_COORD97":2550498.52,"ADDRESS":"安中路四段３２０巷１２９弄３２號之１","OBJECTID":67436},"geometry":{"x":164759.69000000134,"y":2550498.5199999996}},{"attributes":{"ID":67437,"DIS_CODE":0,"TOWNNAME":"安南區","LI":"淵西里","LIN":"6鄰","STREET":"安中路","SECT":"四段","MAREA":" ","LANE":"３２０巷","ALLEY":"１２９弄","HOUSE_NO":"３２號之１０","E_COORD97":164799.13,"N_COORD97":2550491.6099999999,"ADDRESS":"安中路四段３２０巷１２９弄３２號之１０","OBJECTID":67437},"geometry":{"x":164799.12999999989,"y":2550491.6100000031}},{"attributes":{"ID":67438,"DIS_CODE":0,"TOWNNAME":"善化區","LI":"嘉北里","LIN":"7鄰","STREET":" ","SECT":" ","MAREA":"茄拔","LANE":" ","ALLEY":" ","HOUSE_NO":"１７６號之７","E_COORD97":181122.01999999999,"N_COORD97":2559973.02,"ADDRESS":"茄拔１７６號之７","OBJECTID":67438},"geometry":{"x":181122.02000000048,"y":2559973.0200000014}},{"attributes":{"ID":67439,"DIS_CODE":0,"TOWNNAME":"安南區","LI":"淵西里","LIN":"6鄰","STREET":"安中路","SECT":"四段","MAREA":" ","LANE":"３２０巷","ALLEY":"１２９弄","HOUSE_NO":"３２號之１１","E_COORD97":164802.67999999999,"N_COORD97":2550489.9300000002,"ADDRESS":"安中路四段３２０巷１２９弄３２號之１１","OBJECTID":67439},"geometry":{"x":164802.68000000156,"y":2550489.9300000034}},{"attributes":{"ID":67440,"DIS_CODE":0,"TOWNNAME":"安南區","LI":"淵西里","LIN":"6鄰","STREET":"安中路","SECT":"四段","MAREA":" ","LANE":"３２０巷","ALLEY":"１２９弄","HOUSE_NO":"３２號之１２","E_COORD97":164807.73000000001,"N_COORD97":2550488.4399999999,"ADDRESS":"安中路四段３２０巷１２９弄３２號之１２","OBJECTID":67440},"geometry":{"x":164807.73000000045,"y":2550488.4399999995}},{"attributes":{"ID":67441,"DIS_CODE":0,"TOWNNAME":"安南區","LI":"淵西里","LIN":"6鄰","STREET":"安中路","SECT":"四段","MAREA":" ","LANE":"３２０巷","ALLEY":"１２９弄","HOUSE_NO":"３２號之１３","E_COORD97":164811.84,"N_COORD97":2550486.5699999998,"ADDRESS":"安中路四段３２０巷１２９弄３２號之１３","OBJECTID":67441},"geometry":{"x":164811.83999999985,"y":2550486.5700000022}},{"attributes":{"ID":67442,"DIS_CODE":0,"TOWNNAME":"官田區","LI":"渡頭里","LIN":"31鄰","STREET":" ","SECT":" ","MAREA":"三塊厝","LANE":" ","ALLEY":" ","HOUSE_NO":"２２４號","E_COORD97":183403.70000000001,"N_COORD97":2561336.2200000002,"ADDRESS":"三塊厝２２４號","OBJECTID":67442},"geometry":{"x":183403.70000000019,"y":2561336.2200000025}},{"attributes":{"ID":67443,"DIS_CODE":0,"TOWNNAME":"官田區","LI":"渡頭里","LIN":"31鄰","STREET":" ","SECT":" ","MAREA":"三塊厝","LANE":" ","ALLEY":" ","HOUSE_NO":"２２５號","E_COORD97":183404.57999999999,"N_COORD97":2561331.5499999998,"ADDRESS":"三塊厝２２５號","OBJECTID":67443},"geometry":{"x":183404.58000000007,"y":2561331.5500000007}},{"attributes":{"ID":67444,"DIS_CODE":0,"TOWNNAME":"官田區","LI":"渡頭里","LIN":"31鄰","STREET":" ","SECT":" ","MAREA":"三塊厝","LANE":" ","ALLEY":" ","HOUSE_NO":"２２６號","E_COORD97":183405.62,"N_COORD97":2561327.4300000002,"ADDRESS":"三塊厝２２６號","OBJECTID":67444},"geometry":{"x":183405.62000000104,"y":2561327.4299999997}},{"attributes":{"ID":67445,"DIS_CODE":0,"TOWNNAME":"官田區","LI":"渡頭里","LIN":"31鄰","STREET":" ","SECT":" ","MAREA":"三塊厝","LANE":" ","ALLEY":" ","HOUSE_NO":"２２８號","E_COORD97":183411.72,"N_COORD97":2561315.2599999998,"ADDRESS":"三塊厝２２８號","OBJECTID":67445},"geometry":{"x":183411.71999999974,"y":2561315.2599999998}},{"attributes":{"ID":67446,"DIS_CODE":0,"TOWNNAME":"官田區","LI":"渡頭里","LIN":"31鄰","STREET":" ","SECT":" ","MAREA":"三塊厝","LANE":" ","ALLEY":" ","HOUSE_NO":"２２９號","E_COORD97":183413.10999999999,"N_COORD97":2561310.5099999998,"ADDRESS":"三塊厝２２９號","OBJECTID":67446},"geometry":{"x":183413.11000000034,"y":2561310.5099999998}},{"attributes":{"ID":67447,"DIS_CODE":0,"TOWNNAME":"官田區","LI":"渡頭里","LIN":"31鄰","STREET":" ","SECT":" ","MAREA":"三塊厝","LANE":" ","ALLEY":" ","HOUSE_NO":"２３０號","E_COORD97":183414.20999999999,"N_COORD97":2561306.2000000002,"ADDRESS":"三塊厝２３０號","OBJECTID":67447},"geometry":{"x":183414.20999999903,"y":2561306.200000003}},{"attributes":{"ID":67448,"DIS_CODE":0,"TOWNNAME":"安南區","LI":"淵西里","LIN":"6鄰","STREET":"安中路","SECT":"四段","MAREA":" ","LANE":"３２０巷","ALLEY":"１２９弄","HOUSE_NO":"３２號之２","E_COORD97":164764.17000000001,"N_COORD97":2550496.6499999999,"ADDRESS":"安中路四段３２０巷１２９弄３２號之２","OBJECTID":67448},"geometry":{"x":164764.17000000179,"y":2550496.6500000022}},{"attributes":{"ID":67449,"DIS_CODE":0,"TOWNNAME":"麻豆區","LI":"中興里","LIN":"7鄰","STREET":"三民路","SECT":" ","MAREA":" ","LANE":" ","ALLEY":" ","HOUSE_NO":"４３號之８","E_COORD97":172852.89000000001,"N_COORD97":2564454.3100000001,"ADDRESS":"三民路４３號之８","OBJECTID":67449},"geometry":{"x":172852.88999999966,"y":2564454.3100000024}},{"attributes":{"ID":67450,"DIS_CODE":0,"TOWNNAME":"善化區","LI":"牛庄里","LIN":"7鄰","STREET":" ","SECT":" ","MAREA":"牛庄","LANE":" ","ALLEY":" ","HOUSE_NO":"８７號","E_COORD97":180092.66,"N_COORD97":2560047.75,"ADDRESS":"牛庄８７號","OBJECTID":67450},"geometry":{"x":180092.66000000108,"y":2560047.75}},{"attributes":{"ID":67451,"DIS_CODE":0,"TOWNNAME":"安南區","LI":"淵西里","LIN":"6鄰","STREET":"安中路","SECT":"四段","MAREA":" ","LANE":"３２０巷","ALLEY":"１２９弄","HOUSE_NO":"３２號之３","E_COORD97":164768.85000000001,"N_COORD97":2550495.52,"ADDRESS":"安中路四段３２０巷１２９弄３２號之３","OBJECTID":67451},"geometry":{"x":164768.84999999963,"y":2550495.5199999996}},{"attributes":{"ID":67452,"DIS_CODE":0,"TOWNNAME":"安南區","LI":"淵西里","LIN":"6鄰","STREET":"安中路","SECT":"四段","MAREA":" ","LANE":"３２０巷","ALLEY":"１２９弄","HOUSE_NO":"３２號之４","E_COORD97":164773.14999999999,"N_COORD97":2550495.3300000001,"ADDRESS":"安中路四段３２０巷１２９弄３２號之４","OBJECTID":67452},"geometry":{"x":164773.15000000224,"y":2550495.3300000019}},{"attributes":{"ID":67453,"DIS_CODE":0,"TOWNNAME":"安南區","LI":"淵西里","LIN":"6鄰","STREET":"安中路","SECT":"四段","MAREA":" ","LANE":"３２０巷","ALLEY":"１２９弄","HOUSE_NO":"３２號之５","E_COORD97":164777.07000000001,"N_COORD97":2550494.2200000002,"ADDRESS":"安中路四段３２０巷１２９弄３２號之５","OBJECTID":67453},"geometry":{"x":164777.07000000216,"y":2550494.2200000007}},{"attributes":{"ID":67454,"DIS_CODE":0,"TOWNNAME":"安南區","LI":"淵西里","LIN":"6鄰","STREET":"安中路","SECT":"四段","MAREA":" ","LANE":"３２０巷","ALLEY":"１２９弄","HOUSE_NO":"３２號之６","E_COORD97":164782.31,"N_COORD97":2550494.4100000001,"ADDRESS":"安中路四段３２０巷１２９弄３２號之６","OBJECTID":67454},"geometry":{"x":164782.30999999959,"y":2550494.410000002}},{"attributes":{"ID":67455,"DIS_CODE":0,"TOWNNAME":"安南區","LI":"淵西里","LIN":"6鄰","STREET":"安中路","SECT":"四段","MAREA":" ","LANE":"３２０巷","ALLEY":"１２９弄","HOUSE_NO":"３２號之７","E_COORD97":164786.79000000001,"N_COORD97":2550493.8500000001,"ADDRESS":"安中路四段３２０巷１２９弄３２號之７","OBJECTID":67455},"geometry":{"x":164786.79000000004,"y":2550493.8500000034}},{"attributes":{"ID":67456,"DIS_CODE":0,"TOWNNAME":"安南區","LI":"淵西里","LIN":"6鄰","STREET":"安中路","SECT":"四段","MAREA":" ","LANE":"３２０巷","ALLEY":"１２９弄","HOUSE_NO":"３２號之８","E_COORD97":164790.53,"N_COORD97":2550493.6600000001,"ADDRESS":"安中路四段３２０巷１２９弄３２號之８","OBJECTID":67456},"geometry":{"x":164790.53000000026,"y":2550493.660000002}},{"attributes":{"ID":67457,"DIS_CODE":0,"TOWNNAME":"安南區","LI":"淵西里","LIN":"6鄰","STREET":"安中路","SECT":"四段","MAREA":" ","LANE":"３２０巷","ALLEY":"１２９弄","HOUSE_NO":"３２號之９","E_COORD97":164795.01999999999,"N_COORD97":2550492.1699999999,"ADDRESS":"安中路四段３２０巷１２９弄３２號之９","OBJECTID":67457},"geometry":{"x":164795.01999999955,"y":2550492.1700000018}},{"attributes":{"ID":67458,"DIS_CODE":0,"TOWNNAME":"安南區","LI":"淵西里","LIN":"6鄰","STREET":"安中路","SECT":"四段","MAREA":" ","LANE":"３２０巷","ALLEY":"１２９弄","HOUSE_NO":"３４號","E_COORD97":164763.98999999999,"N_COORD97":2550519.2400000002,"ADDRESS":"安中路四段３２０巷１２９弄３４號","OBJECTID":67458},"geometry":{"x":164763.99000000209,"y":2550519.2400000021}},{"attributes":{"ID":67459,"DIS_CODE":0,"TOWNNAME":"安南區","LI":"淵西里","LIN":"6鄰","STREET":"安中路","SECT":"四段","MAREA":" ","LANE":"３２０巷","ALLEY":"１２９弄","HOUSE_NO":"３４號之１","E_COORD97":164769.41,"N_COORD97":2550518.5,"ADDRESS":"安中路四段３２０巷１２９弄３４號之１","OBJECTID":67459},"geometry":{"x":164769.41000000201,"y":2550518.5000000019}},{"attributes":{"ID":67460,"DIS_CODE":0,"TOWNNAME":"善化區","LI":"牛庄里","LIN":"7鄰","STREET":" ","SECT":" ","MAREA":"牛庄","LANE":" ","ALLEY":" ","HOUSE_NO":"９９號之１","E_COORD97":180053.45999999999,"N_COORD97":2560014.52,"ADDRESS":"牛庄９９號之１","OBJECTID":67460},"geometry":{"x":180053.46000000089,"y":2560014.5199999996}},{"attributes":{"ID":67461,"DIS_CODE":0,"TOWNNAME":"善化區","LI":"牛庄里","LIN":"7鄰","STREET":" ","SECT":" ","MAREA":"牛庄","LANE":" ","ALLEY":" ","HOUSE_NO":"８６號","E_COORD97":180101.07000000001,"N_COORD97":2560018.75,"ADDRESS":"牛庄８６號","OBJECTID":67461},"geometry":{"x":180101.0700000003,"y":2560018.7500000019}},{"attributes":{"ID":67462,"DIS_CODE":0,"TOWNNAME":"安南區","LI":"淵西里","LIN":"6鄰","STREET":"安中路","SECT":"四段","MAREA":" ","LANE":"３２０巷","ALLEY":"１２９弄","HOUSE_NO":"３４號之１０","E_COORD97":164809.23000000001,"N_COORD97":2550512.52,"ADDRESS":"安中路四段３２０巷１２９弄３４號之１０","OBJECTID":67462},"geometry":{"x":164809.23000000045,"y":2550512.5199999996}},{"attributes":{"ID":67463,"DIS_CODE":0,"TOWNNAME":"安南區","LI":"淵西里","LIN":"6鄰","STREET":"安中路","SECT":"四段","MAREA":" ","LANE":"３２０巷","ALLEY":"１２９弄","HOUSE_NO":"３４號之１１","E_COORD97":164814.64999999999,"N_COORD97":2550511.5899999999,"ADDRESS":"安中路四段３２０巷１２９弄３４號之１１","OBJECTID":67463},"geometry":{"x":164814.6500000013,"y":2550511.5899999999}},{"attributes":{"ID":67464,"DIS_CODE":0,"TOWNNAME":"安南區","LI":"淵西里","LIN":"6鄰","STREET":"安中路","SECT":"四段","MAREA":" ","LANE":"３２０巷","ALLEY":"１２９弄","HOUSE_NO":"３４號之１２","E_COORD97":164818.76000000001,"N_COORD97":2550511.21,"ADDRESS":"安中路四段３２０巷１２９弄３４號之１２","OBJECTID":67464},"geometry":{"x":164818.75999999978,"y":2550511.2100000028}},{"attributes":{"ID":67465,"DIS_CODE":0,"TOWNNAME":"善化區","LI":"小新里","LIN":"7鄰","STREET":" ","SECT":" ","MAREA":"小新營","LANE":" ","ALLEY":" ","HOUSE_NO":"５６號之１５","E_COORD97":179596.64000000001,"N_COORD97":2558656.27,"ADDRESS":"小新營５６號之１５","OBJECTID":67465},"geometry":{"x":179596.63999999966,"y":2558656.2700000014}},{"attributes":{"ID":67466,"DIS_CODE":0,"TOWNNAME":"安南區","LI":"淵西里","LIN":"6鄰","STREET":"安中路","SECT":"四段","MAREA":" ","LANE":"３２０巷","ALLEY":"１２９弄","HOUSE_NO":"３４號之１３","E_COORD97":164822.31,"N_COORD97":2550508.6000000001,"ADDRESS":"安中路四段３２０巷１２９弄３４號之１３","OBJECTID":67466},"geometry":{"x":164822.31000000052,"y":2550508.5999999996}},{"attributes":{"ID":67467,"DIS_CODE":0,"TOWNNAME":"善化區","LI":"溪美里","LIN":"7鄰","STREET":" ","SECT":" ","MAREA":"溪尾","LANE":" ","ALLEY":" ","HOUSE_NO":"６３號之２","E_COORD97":176843.98999999999,"N_COORD97":2561321.52,"ADDRESS":"溪尾６３號之２","OBJECTID":67467},"geometry":{"x":176843.99000000115,"y":2561321.5200000033}},{"attributes":{"ID":67468,"DIS_CODE":0,"TOWNNAME":"安南區","LI":"淵西里","LIN":"6鄰","STREET":"安中路","SECT":"四段","MAREA":" ","LANE":"３２０巷","ALLEY":"１２９弄","HOUSE_NO":"３４號之２","E_COORD97":164773.51999999999,"N_COORD97":2550517.9300000002,"ADDRESS":"安中路四段３２０巷１２９弄３４號之２","OBJECTID":67468},"geometry":{"x":164773.52000000048,"y":2550517.9300000016}},{"attributes":{"ID":67469,"DIS_CODE":0,"TOWNNAME":"善化區","LI":"田寮里","LIN":"7鄰","STREET":" ","SECT":" ","MAREA":"六分寮","LANE":" ","ALLEY":" ","HOUSE_NO":"８６號之２","E_COORD97":178487.45999999999,"N_COORD97":2561396.27,"ADDRESS":"六分寮８６號之２","OBJECTID":67469},"geometry":{"x":178487.45999999996,"y":2561396.2699999996}},{"attributes":{"ID":67470,"DIS_CODE":0,"TOWNNAME":"安南區","LI":"淵西里","LIN":"6鄰","STREET":"安中路","SECT":"四段","MAREA":" ","LANE":"３２０巷","ALLEY":"１２９弄","HOUSE_NO":"３４號之３","E_COORD97":164777.82000000001,"N_COORD97":2550517,"ADDRESS":"安中路四段３２０巷１２９弄３４號之３","OBJECTID":67470},"geometry":{"x":164777.82000000123,"y":2550517.0000000037}},{"attributes":{"ID":67471,"DIS_CODE":0,"TOWNNAME":"安南區","LI":"淵西里","LIN":"6鄰","STREET":"安中路","SECT":"四段","MAREA":" ","LANE":"３２０巷","ALLEY":"１２９弄","HOUSE_NO":"３４號之４","E_COORD97":164782.48999999999,"N_COORD97":2550515.6899999999,"ADDRESS":"安中路四段３２０巷１２９弄３４號之４","OBJECTID":67471},"geometry":{"x":164782.49000000209,"y":2550515.6900000013}},{"attributes":{"ID":67472,"DIS_CODE":0,"TOWNNAME":"安南區","LI":"溪頂里","LIN":"7鄰","STREET":"府安路","SECT":"四段","MAREA":" ","LANE":" ","ALLEY":" ","HOUSE_NO":"１７７號","E_COORD97":168711.92999999999,"N_COORD97":2547243.3599999999,"ADDRESS":"府安路四段１７７號","OBJECTID":67472},"geometry":{"x":168711.93000000156,"y":2547243.3600000013}},{"attributes":{"ID":67473,"DIS_CODE":0,"TOWNNAME":"善化區","LI":"小新里","LIN":"7鄰","STREET":" ","SECT":" ","MAREA":"小新營","LANE":" ","ALLEY":" ","HOUSE_NO":"５６號之２２","E_COORD97":179610.54999999999,"N_COORD97":2558508.27,"ADDRESS":"小新營５６號之２２","OBJECTID":67473},"geometry":{"x":179610.54999999981,"y":2558508.2699999996}},{"attributes":{"ID":67474,"DIS_CODE":0,"TOWNNAME":"善化區","LI":"田寮里","LIN":"7鄰","STREET":" ","SECT":" ","MAREA":"六分寮","LANE":" ","ALLEY":" ","HOUSE_NO":"７５號之１","E_COORD97":178453.41,"N_COORD97":2561409.02,"ADDRESS":"六分寮７５號之１","OBJECTID":67474},"geometry":{"x":178453.41000000108,"y":2561409.0199999996}},{"attributes":{"ID":67475,"DIS_CODE":0,"TOWNNAME":"善化區","LI":"東昌里","LIN":"7鄰","STREET":" ","SECT":" ","MAREA":"東勢寮","LANE":" ","ALLEY":" ","HOUSE_NO":"７６號","E_COORD97":180437.94,"N_COORD97":2561887.7599999998,"ADDRESS":"東勢寮７６號","OBJECTID":67475},"geometry":{"x":180437.94000000041,"y":2561887.7600000016}},{"attributes":{"ID":67476,"DIS_CODE":0,"TOWNNAME":"安南區","LI":"淵西里","LIN":"6鄰","STREET":"安中路","SECT":"四段","MAREA":" ","LANE":"３２０巷","ALLEY":"１２９弄","HOUSE_NO":"３４號之５","E_COORD97":164787.35000000001,"N_COORD97":2550515.5099999998,"ADDRESS":"安中路四段３２０巷１２９弄３４號之５","OBJECTID":67476},"geometry":{"x":164787.34999999963,"y":2550515.5099999998}},{"attributes":{"ID":67477,"DIS_CODE":0,"TOWNNAME":"善化區","LI":"溪美里","LIN":"7鄰","STREET":" ","SECT":" ","MAREA":"溪尾","LANE":" ","ALLEY":" ","HOUSE_NO":"６６號之２","E_COORD97":176780.72,"N_COORD97":2561279.52,"ADDRESS":"溪尾６６號之２","OBJECTID":67477},"geometry":{"x":176780.7200000016,"y":2561279.5199999996}},{"attributes":{"ID":67478,"DIS_CODE":0,"TOWNNAME":"安南區","LI":"淵西里","LIN":"6鄰","STREET":"安中路","SECT":"四段","MAREA":" ","LANE":"３２０巷","ALLEY":"１２９弄","HOUSE_NO":"３４號之６","E_COORD97":164792.20999999999,"N_COORD97":2550515.3199999998,"ADDRESS":"安中路四段３２０巷１２９弄３４號之６","OBJECTID":67478},"geometry":{"x":164792.20999999996,"y":2550515.3200000022}},{"attributes":{"ID":67479,"DIS_CODE":0,"TOWNNAME":"安南區","LI":"淵西里","LIN":"6鄰","STREET":"安中路","SECT":"四段","MAREA":" ","LANE":"３２０巷","ALLEY":"１２９弄","HOUSE_NO":"３４號之７","E_COORD97":164796.32999999999,"N_COORD97":2550514.3900000001,"ADDRESS":"安中路四段３２０巷１２９弄３４號之７","OBJECTID":67479},"geometry":{"x":164796.33000000007,"y":2550514.3900000006}},{"attributes":{"ID":67480,"DIS_CODE":0,"TOWNNAME":"安南區","LI":"淵西里","LIN":"6鄰","STREET":"安中路","SECT":"四段","MAREA":" ","LANE":"３２０巷","ALLEY":"１２９弄","HOUSE_NO":"３４號之８","E_COORD97":164800.07000000001,"N_COORD97":2550513.6400000001,"ADDRESS":"安中路四段３２０巷１２９弄３４號之８","OBJECTID":67480},"geometry":{"x":164800.0700000003,"y":2550513.6400000025}},{"attributes":{"ID":67481,"DIS_CODE":0,"TOWNNAME":"安南區","LI":"淵西里","LIN":"6鄰","STREET":"安中路","SECT":"四段","MAREA":" ","LANE":"３２０巷","ALLEY":"１２９弄","HOUSE_NO":"３４號之９","E_COORD97":164804.73999999999,"N_COORD97":2550513.27,"ADDRESS":"安中路四段３２０巷１２９弄３４號之９","OBJECTID":67481},"geometry":{"x":164804.74000000115,"y":2550513.2699999996}},{"attributes":{"ID":67482,"DIS_CODE":0,"TOWNNAME":"善化區","LI":"嘉北里","LIN":"7鄰","STREET":" ","SECT":" ","MAREA":"茄拔","LANE":" ","ALLEY":" ","HOUSE_NO":"１７４之９號","E_COORD97":181042.78,"N_COORD97":2559948.77,"ADDRESS":"茄拔１７４之９號","OBJECTID":67482},"geometry":{"x":181042.78000000119,"y":2559948.7699999996}},{"attributes":{"ID":67483,"DIS_CODE":0,"TOWNNAME":"善化區","LI":"嘉北里","LIN":"7鄰","STREET":" ","SECT":" ","MAREA":"茄拔","LANE":" ","ALLEY":" ","HOUSE_NO":"１７６之３號","E_COORD97":181098.06,"N_COORD97":2559975.77,"ADDRESS":"茄拔１７６之３號","OBJECTID":67483},"geometry":{"x":181098.06000000052,"y":2559975.7699999996}},{"attributes":{"ID":67484,"DIS_CODE":0,"TOWNNAME":"善化區","LI":"溪美里","LIN":"7鄰","STREET":" ","SECT":" ","MAREA":"溪尾","LANE":" ","ALLEY":" ","HOUSE_NO":"６２之３號","E_COORD97":176834.13,"N_COORD97":2561295.77,"ADDRESS":"溪尾６２之３號","OBJECTID":67484},"geometry":{"x":176834.13000000175,"y":2561295.7699999977}},{"attributes":{"ID":67485,"DIS_CODE":0,"TOWNNAME":"安南區","LI":"淵西里","LIN":"6鄰","STREET":"安中路","SECT":"四段","MAREA":" ","LANE":"３２０巷","ALLEY":"１２９弄","HOUSE_NO":"３６號","E_COORD97":164718.64999999999,"N_COORD97":2550466.7599999998,"ADDRESS":"安中路四段３２０巷１２９弄３６號","OBJECTID":67485},"geometry":{"x":164718.65000000037,"y":2550466.7599999998}},{"attributes":{"ID":67486,"DIS_CODE":0,"TOWNNAME":"安南區","LI":"淵西里","LIN":"6鄰","STREET":"安中路","SECT":"四段","MAREA":" ","LANE":"３２０巷","ALLEY":"１２９弄","HOUSE_NO":"３８號","E_COORD97":164740.34,"N_COORD97":2550500.2000000002,"ADDRESS":"安中路四段３２０巷１２９弄３８號","OBJECTID":67486},"geometry":{"x":164740.33999999985,"y":2550500.1999999993}},{"attributes":{"ID":67487,"DIS_CODE":0,"TOWNNAME":"官田區","LI":"渡頭里","LIN":"31鄰","STREET":" ","SECT":" ","MAREA":"三塊厝","LANE":" ","ALLEY":" ","HOUSE_NO":"２３１號","E_COORD97":183419.17999999999,"N_COORD97":2561301.4399999999,"ADDRESS":"三塊厝２３１號","OBJECTID":67487},"geometry":{"x":183419.17999999877,"y":2561301.4400000032}},{"attributes":{"ID":67488,"DIS_CODE":0,"TOWNNAME":"官田區","LI":"渡頭里","LIN":"31鄰","STREET":" ","SECT":" ","MAREA":"三塊厝","LANE":" ","ALLEY":" ","HOUSE_NO":"２３２號","E_COORD97":183419.29999999999,"N_COORD97":2561296.9300000002,"ADDRESS":"三塊厝２３２號","OBJECTID":67488},"geometry":{"x":183419.30000000075,"y":2561296.9299999997}},{"attributes":{"ID":67489,"DIS_CODE":0,"TOWNNAME":"官田區","LI":"渡頭里","LIN":"31鄰","STREET":" ","SECT":" ","MAREA":"三塊厝","LANE":" ","ALLEY":" ","HOUSE_NO":"２３３號","E_COORD97":183418.45999999999,"N_COORD97":2561292.9500000002,"ADDRESS":"三塊厝２３３號","OBJECTID":67489},"geometry":{"x":183418.46000000089,"y":2561292.9499999993}},{"attributes":{"ID":67490,"DIS_CODE":0,"TOWNNAME":"善化區","LI":"南關里","LIN":"7鄰","STREET":"三民路","SECT":" ","MAREA":" ","LANE":" ","ALLEY":" ","HOUSE_NO":"３號之７","E_COORD97":177034.51000000001,"N_COORD97":2558758.27,"ADDRESS":"三民路３號之７","OBJECTID":67490},"geometry":{"x":177034.50999999978,"y":2558758.2699999996}},{"attributes":{"ID":67491,"DIS_CODE":0,"TOWNNAME":"善化區","LI":"南關里","LIN":"7鄰","STREET":"三民路","SECT":" ","MAREA":" ","LANE":" ","ALLEY":" ","HOUSE_NO":"９號","E_COORD97":177057,"N_COORD97":2558844.0099999998,"ADDRESS":"三民路９號","OBJECTID":67491},"geometry":{"x":177056.99999999907,"y":2558844.0100000016}},{"attributes":{"ID":67492,"DIS_CODE":0,"TOWNNAME":"善化區","LI":"南關里","LIN":"7鄰","STREET":"三民路","SECT":" ","MAREA":" ","LANE":" ","ALLEY":" ","HOUSE_NO":"７號之１","E_COORD97":177054.29000000001,"N_COORD97":2558816.77,"ADDRESS":"三民路７號之１","OBJECTID":67492},"geometry":{"x":177054.29000000097,"y":2558816.7699999996}},{"attributes":{"ID":67493,"DIS_CODE":0,"TOWNNAME":"善化區","LI":"東關里","LIN":"7鄰","STREET":"中華路","SECT":" ","MAREA":" ","LANE":" ","ALLEY":" ","HOUSE_NO":"１５２號","E_COORD97":177239.73999999999,"N_COORD97":2559083.5,"ADDRESS":"中華路１５２號","OBJECTID":67493},"geometry":{"x":177239.74000000022,"y":2559083.5}},{"attributes":{"ID":67494,"DIS_CODE":0,"TOWNNAME":"永康區","LI":"蔦松里","LIN":"7鄰","STREET":"中正北路","SECT":" ","MAREA":" ","LANE":" ","ALLEY":" ","HOUSE_NO":"５６６之１號","E_COORD97":174182.39999999999,"N_COORD97":2549387.54,"ADDRESS":"中正北路５６６之１號","OBJECTID":67494},"geometry":{"x":174182.40000000037,"y":2549387.540000001}},{"attributes":{"ID":67495,"DIS_CODE":0,"TOWNNAME":"官田區","LI":"渡頭里","LIN":"31鄰","STREET":" ","SECT":" ","MAREA":"三塊厝","LANE":" ","ALLEY":" ","HOUSE_NO":"２３４號","E_COORD97":183418.95999999999,"N_COORD97":2561284.5099999998,"ADDRESS":"三塊厝２３４號","OBJECTID":67495},"geometry":{"x":183418.95999999996,"y":2561284.5100000035}},{"attributes":{"ID":67496,"DIS_CODE":0,"TOWNNAME":"永康區","LI":"蔦松里","LIN":"7鄰","STREET":"正北三路","SECT":" ","MAREA":" ","LANE":" ","ALLEY":" ","HOUSE_NO":"８３號","E_COORD97":174479.22,"N_COORD97":2549906.9500000002,"ADDRESS":"正北三路８３號","OBJECTID":67496},"geometry":{"x":174479.22000000067,"y":2549906.9500000011}},{"attributes":{"ID":67497,"DIS_CODE":0,"TOWNNAME":"永康區","LI":"蔦松里","LIN":"7鄰","STREET":"中正北路","SECT":" ","MAREA":" ","LANE":" ","ALLEY":" ","HOUSE_NO":"６９７之１號","E_COORD97":174150.94,"N_COORD97":2549429.9399999999,"ADDRESS":"中正北路６９７之１號","OBJECTID":67497},"geometry":{"x":174150.94000000134,"y":2549429.9400000013}},{"attributes":{"ID":67498,"DIS_CODE":0,"TOWNNAME":"永康區","LI":"蔦松里","LIN":"7鄰","STREET":"蔦松一街","SECT":" ","MAREA":" ","LANE":" ","ALLEY":" ","HOUSE_NO":"２８號","E_COORD97":174008.67000000001,"N_COORD97":2549380.8799999999,"ADDRESS":"蔦松一街２８號","OBJECTID":67498},"geometry":{"x":174008.67000000086,"y":2549380.8800000027}},{"attributes":{"ID":67499,"DIS_CODE":0,"TOWNNAME":"善化區","LI":"南關里","LIN":"7鄰","STREET":" ","SECT":" ","MAREA":"三抱竹","LANE":" ","ALLEY":" ","HOUSE_NO":"１號之３９","E_COORD97":176400.97,"N_COORD97":2558094.77,"ADDRESS":"三抱竹１號之３９","OBJECTID":67499},"geometry":{"x":176400.9700000016,"y":2558094.7699999996}},{"attributes":{"ID":67500,"DIS_CODE":0,"TOWNNAME":"安南區","LI":"淵西里","LIN":"6鄰","STREET":"安中路","SECT":"四段","MAREA":" ","LANE":"３２０巷","ALLEY":"１２９弄","HOUSE_NO":"３８號之１","E_COORD97":164733.79999999999,"N_COORD97":2550501.5099999998,"ADDRESS":"安中路四段３２０巷１２９弄３８號之１","OBJECTID":67500},"geometry":{"x":164733.79999999981,"y":2550501.5099999998}},{"attributes":{"ID":67501,"DIS_CODE":0,"TOWNNAME":"善化區","LI":"胡厝里","LIN":"7鄰","STREET":" ","SECT":" ","MAREA":"胡厝寮","LANE":" ","ALLEY":" ","HOUSE_NO":"２０２號之１","E_COORD97":175258.82999999999,"N_COORD97":2560379.27,"ADDRESS":"胡厝寮２０２號之１","OBJECTID":67501},"geometry":{"x":175258.83000000101,"y":2560379.2699999996}},{"attributes":{"ID":67502,"DIS_CODE":0,"TOWNNAME":"安南區","LI":"淵西里","LIN":"6鄰","STREET":"安中路","SECT":"四段","MAREA":" ","LANE":"３２０巷","ALLEY":"１２９弄","HOUSE_NO":"３８號之２","E_COORD97":164724.45000000001,"N_COORD97":2550503.75,"ADDRESS":"安中路四段３２０巷１２９弄３８號之２","OBJECTID":67502},"geometry":{"x":164724.45000000019,"y":2550503.75}},{"attributes":{"ID":67503,"DIS_CODE":0,"TOWNNAME":"安南區","LI":"淵西里","LIN":"6鄰","STREET":"安中路","SECT":"四段","MAREA":" ","LANE":"３２０巷","ALLEY":"１２９弄","HOUSE_NO":"３８號之３","E_COORD97":164717.35000000001,"N_COORD97":2550507.6699999999,"ADDRESS":"安中路四段３２０巷１２９弄３８號之３","OBJECTID":67503},"geometry":{"x":164717.35000000056,"y":2550507.6699999999}},{"attributes":{"ID":67504,"DIS_CODE":0,"TOWNNAME":"安南區","LI":"淵西里","LIN":"6鄰","STREET":"安中路","SECT":"四段","MAREA":" ","LANE":"３２０巷","ALLEY":"１２９弄","HOUSE_NO":"３８號之４","E_COORD97":164712.29999999999,"N_COORD97":2550509.5299999998,"ADDRESS":"安中路四段３２０巷１２９弄３８號之４","OBJECTID":67504},"geometry":{"x":164712.30000000168,"y":2550509.5300000012}},{"attributes":{"ID":67505,"DIS_CODE":0,"TOWNNAME":"安南區","LI":"淵西里","LIN":"6鄰","STREET":"安中路","SECT":"四段","MAREA":" ","LANE":"３２０巷","ALLEY":"１２９弄","HOUSE_NO":"４０號","E_COORD97":164751.92999999999,"N_COORD97":2550523.9100000001,"ADDRESS":"安中路四段３２０巷１２９弄４０號","OBJECTID":67505},"geometry":{"x":164751.93000000156,"y":2550523.9100000001}},{"attributes":{"ID":67506,"DIS_CODE":0,"TOWNNAME":"善化區","LI":"溪美里","LIN":"7鄰","STREET":" ","SECT":" ","MAREA":"溪尾","LANE":" ","ALLEY":" ","HOUSE_NO":"６２號之４","E_COORD97":176853.12,"N_COORD97":2561278.02,"ADDRESS":"溪尾６２號之４","OBJECTID":67506},"geometry":{"x":176853.12000000197,"y":2561278.0200000014}},{"attributes":{"ID":67507,"DIS_CODE":0,"TOWNNAME":"善化區","LI":"溪美里","LIN":"7鄰","STREET":" ","SECT":" ","MAREA":"溪尾","LANE":" ","ALLEY":" ","HOUSE_NO":"６３號之１","E_COORD97":176847.89999999999,"N_COORD97":2561324.77,"ADDRESS":"溪尾６３號之１","OBJECTID":67507},"geometry":{"x":176847.89999999944,"y":2561324.7699999996}},{"attributes":{"ID":67508,"DIS_CODE":0,"TOWNNAME":"官田區","LI":"渡頭里","LIN":"31鄰","STREET":" ","SECT":" ","MAREA":"三塊厝","LANE":" ","ALLEY":" ","HOUSE_NO":"２３５號","E_COORD97":183423.28,"N_COORD97":2561276.3700000001,"ADDRESS":"三塊厝２３５號","OBJECTID":67508},"geometry":{"x":183423.28000000119,"y":2561276.3700000048}},{"attributes":{"ID":67509,"DIS_CODE":0,"TOWNNAME":"安南區","LI":"淵西里","LIN":"6鄰","STREET":"安中路","SECT":"四段","MAREA":" ","LANE":"３２０巷","ALLEY":"１２９弄","HOUSE_NO":"４０號之１","E_COORD97":164748,"N_COORD97":2550525.5899999999,"ADDRESS":"安中路四段３２０巷１２９弄４０號之１","OBJECTID":67509},"geometry":{"x":164748,"y":2550525.5899999999}},{"attributes":{"ID":67510,"DIS_CODE":0,"TOWNNAME":"善化區","LI":"溪美里","LIN":"7鄰","STREET":" ","SECT":" ","MAREA":"溪尾","LANE":" ","ALLEY":" ","HOUSE_NO":"６６號（已半毀）","E_COORD97":176769.32000000001,"N_COORD97":2561302.02,"ADDRESS":"溪尾６６號（已半毀）","OBJECTID":67510},"geometry":{"x":176769.32000000123,"y":2561302.0200000014}},{"attributes":{"ID":67511,"DIS_CODE":0,"TOWNNAME":"善化區","LI":"南關里","LIN":"7鄰","STREET":"三民路","SECT":" ","MAREA":" ","LANE":"南興巷","ALLEY":" ","HOUSE_NO":"２７號","E_COORD97":176905.64999999999,"N_COORD97":2558606.5099999998,"ADDRESS":"三民路南興巷２７號","OBJECTID":67511},"geometry":{"x":176905.65000000224,"y":2558606.5100000016}},{"attributes":{"ID":67512,"DIS_CODE":0,"TOWNNAME":"北區","LI":"正風里","LIN":"8鄰","STREET":"公園路","SECT":" ","MAREA":" ","LANE":" ","ALLEY":" ","HOUSE_NO":"１０１８號","E_COORD97":169569.39000000001,"N_COORD97":2546409.8599999999,"ADDRESS":"公園路１０１８號","OBJECTID":67512},"geometry":{"x":169569.38999999966,"y":2546409.8599999994}},{"attributes":{"ID":67513,"DIS_CODE":0,"TOWNNAME":"北區","LI":"正風里","LIN":"8鄰","STREET":"公園路","SECT":" ","MAREA":" ","LANE":" ","ALLEY":" ","HOUSE_NO":"１０２０號","E_COORD97":169571.89999999999,"N_COORD97":2546413.1800000002,"ADDRESS":"公園路１０２０號","OBJECTID":67513},"geometry":{"x":169571.90000000037,"y":2546413.1800000034}},{"attributes":{"ID":67514,"DIS_CODE":0,"TOWNNAME":"善化區","LI":"溪美里","LIN":"7鄰","STREET":" ","SECT":" ","MAREA":"溪尾","LANE":" ","ALLEY":" ","HOUSE_NO":"６３號之６","E_COORD97":176809.42999999999,"N_COORD97":2561333.02,"ADDRESS":"溪尾６３號之６","OBJECTID":67514},"geometry":{"x":176809.4299999997,"y":2561333.0200000014}},{"attributes":{"ID":67515,"DIS_CODE":0,"TOWNNAME":"善化區","LI":"東昌里","LIN":"7鄰","STREET":" ","SECT":" ","MAREA":"東勢寮","LANE":" ","ALLEY":" ","HOUSE_NO":"７３之１號","E_COORD97":180396.82000000001,"N_COORD97":2561863.77,"ADDRESS":"東勢寮７３之１號","OBJECTID":67515},"geometry":{"x":180396.82000000123,"y":2561863.7700000014}},{"attributes":{"ID":67516,"DIS_CODE":0,"TOWNNAME":"善化區","LI":"溪美里","LIN":"7鄰","STREET":" ","SECT":" ","MAREA":"溪尾","LANE":" ","ALLEY":" ","HOUSE_NO":"５８之１號","E_COORD97":176762.07000000001,"N_COORD97":2561240.52,"ADDRESS":"溪尾５８之１號","OBJECTID":67516},"geometry":{"x":176762.07000000216,"y":2561240.5200000014}},{"attributes":{"ID":67517,"DIS_CODE":0,"TOWNNAME":"仁德區","LI":"保安里","LIN":" ","STREET":"保安路","SECT":"一段","MAREA":" ","LANE":" ","ALLEY":" ","HOUSE_NO":"５９之１號","E_COORD97":170714.79999999999,"N_COORD97":2536599.5699999998,"ADDRESS":"保安路一段５９之１號","OBJECTID":67517},"geometry":{"x":170714.80000000168,"y":2536599.5700000022}},{"attributes":{"ID":67518,"DIS_CODE":0,"TOWNNAME":"仁德區","LI":"土庫里","LIN":" ","STREET":"太子二街","SECT":" ","MAREA":" ","LANE":" ","ALLEY":" ","HOUSE_NO":"１４２號","E_COORD97":174487.64999999999,"N_COORD97":2543251.75,"ADDRESS":"太子二街１４２號","OBJECTID":67518},"geometry":{"x":174487.65000000037,"y":2543251.75}},{"attributes":{"ID":67519,"DIS_CODE":0,"TOWNNAME":"仁德區","LI":"保安里","LIN":" ","STREET":"保安路","SECT":"一段","MAREA":" ","LANE":" ","ALLEY":" ","HOUSE_NO":"５９之５號","E_COORD97":170761.31,"N_COORD97":2536646.0600000001,"ADDRESS":"保安路一段５９之５號","OBJECTID":67519},"geometry":{"x":170761.30999999959,"y":2536646.0600000005}},{"attributes":{"ID":67520,"DIS_CODE":0,"TOWNNAME":"善化區","LI":"東隆里","LIN":"7鄰","STREET":" ","SECT":" ","MAREA":"東勢寮","LANE":" ","ALLEY":" ","HOUSE_NO":"１９３號之１０","E_COORD97":179827.69,"N_COORD97":2561789.77,"ADDRESS":"東勢寮１９３號之１０","OBJECTID":67520},"geometry":{"x":179827.69000000041,"y":2561789.7699999996}},{"attributes":{"ID":67521,"DIS_CODE":0,"TOWNNAME":"善化區","LI":"溪美里","LIN":"7鄰","STREET":" ","SECT":" ","MAREA":"溪尾","LANE":" ","ALLEY":" ","HOUSE_NO":"６３號","E_COORD97":176849.48999999999,"N_COORD97":2561330.02,"ADDRESS":"溪尾６３號","OBJECTID":67521},"geometry":{"x":176849.49000000115,"y":2561330.0199999996}},{"attributes":{"ID":67522,"DIS_CODE":0,"TOWNNAME":"善化區","LI":"溪美里","LIN":"7鄰","STREET":" ","SECT":" ","MAREA":"溪尾","LANE":" ","ALLEY":" ","HOUSE_NO":"５９號","E_COORD97":176775.57000000001,"N_COORD97":2561250.52,"ADDRESS":"溪尾５９號","OBJECTID":67522},"geometry":{"x":176775.57000000216,"y":2561250.5200000014}},{"attributes":{"ID":67523,"DIS_CODE":0,"TOWNNAME":"善化區","LI":"溪美里","LIN":"7鄰","STREET":" ","SECT":" ","MAREA":"溪尾","LANE":" ","ALLEY":" ","HOUSE_NO":"６３號之５","E_COORD97":176826.45999999999,"N_COORD97":2561321.52,"ADDRESS":"溪尾６３號之５","OBJECTID":67523},"geometry":{"x":176826.45999999996,"y":2561321.5200000033}},{"attributes":{"ID":67524,"DIS_CODE":0,"TOWNNAME":"安南區","LI":"淵西里","LIN":"6鄰","STREET":"安中路","SECT":"四段","MAREA":" ","LANE":"３２０巷","ALLEY":"１２９弄","HOUSE_NO":"４０號之２","E_COORD97":164744.07999999999,"N_COORD97":2550526.71,"ADDRESS":"安中路四段３２０巷１２９弄４０號之２","OBJECTID":67524},"geometry":{"x":164744.08000000007,"y":2550526.7100000046}},{"attributes":{"ID":67525,"DIS_CODE":0,"TOWNNAME":"安南區","LI":"淵西里","LIN":"6鄰","STREET":"安中路","SECT":"四段","MAREA":" ","LANE":"３２０巷","ALLEY":"１２９弄","HOUSE_NO":"４０號之３","E_COORD97":164739.78,"N_COORD97":2550528.2000000002,"ADDRESS":"安中路四段３２０巷１２９弄４０號之３","OBJECTID":67525},"geometry":{"x":164739.78000000026,"y":2550528.200000003}},{"attributes":{"ID":67526,"DIS_CODE":0,"TOWNNAME":"安南區","LI":"淵西里","LIN":"6鄰","STREET":"安中路","SECT":"四段","MAREA":" ","LANE":"３２０巷","ALLEY":"１２９弄","HOUSE_NO":"４０號之４","E_COORD97":164736.41,"N_COORD97":2550529.7000000002,"ADDRESS":"安中路四段３２０巷１２９弄４０號之４","OBJECTID":67526},"geometry":{"x":164736.41000000015,"y":2550529.7000000011}},{"attributes":{"ID":67527,"DIS_CODE":0,"TOWNNAME":"安南區","LI":"淵西里","LIN":"6鄰","STREET":"安中路","SECT":"四段","MAREA":" ","LANE":"３２０巷","ALLEY":"１２９弄","HOUSE_NO":"４０號之５","E_COORD97":164731.73999999999,"N_COORD97":2550530.0699999998,"ADDRESS":"安中路四段３２０巷１２９弄４０號之５","OBJECTID":67527},"geometry":{"x":164731.74000000209,"y":2550530.0699999984}},{"attributes":{"ID":67528,"DIS_CODE":0,"TOWNNAME":"安南區","LI":"淵西里","LIN":"6鄰","STREET":"安中路","SECT":"四段","MAREA":" ","LANE":"３２０巷","ALLEY":"１２９弄","HOUSE_NO":"４０號之６","E_COORD97":164725.95000000001,"N_COORD97":2550528.3900000001,"ADDRESS":"安中路四段３２０巷１２９弄４０號之６","OBJECTID":67528},"geometry":{"x":164725.95000000112,"y":2550528.3900000043}},{"attributes":{"ID":67529,"DIS_CODE":0,"TOWNNAME":"新化區","LI":"唪口里","LIN":"7鄰","STREET":" ","SECT":" ","MAREA":"唪口","LANE":" ","ALLEY":" ","HOUSE_NO":"３１號","E_COORD97":178024,"N_COORD97":2548893.25,"ADDRESS":"唪口３１號","OBJECTID":67529},"geometry":{"x":178024.00000000093,"y":2548893.25}},{"attributes":{"ID":67530,"DIS_CODE":0,"TOWNNAME":"安南區","LI":"淵西里","LIN":"6鄰","STREET":"安中路","SECT":"四段","MAREA":" ","LANE":"３２０巷","ALLEY":"１２９弄","HOUSE_NO":"４０號之７","E_COORD97":164720.51999999999,"N_COORD97":2550527.27,"ADDRESS":"安中路四段３２０巷１２９弄４０號之７","OBJECTID":67530},"geometry":{"x":164720.51999999862,"y":2550527.2699999996}},{"attributes":{"ID":67531,"DIS_CODE":0,"TOWNNAME":"安南區","LI":"淵西里","LIN":"6鄰","STREET":"安中路","SECT":"四段","MAREA":" ","LANE":"３２０巷","ALLEY":"１２９弄","HOUSE_NO":"４０號之８","E_COORD97":164716.60000000001,"N_COORD97":2550527.6400000001,"ADDRESS":"安中路四段３２０巷１２９弄４０號之８","OBJECTID":67531},"geometry":{"x":164716.59999999963,"y":2550527.6400000025}},{"attributes":{"ID":67532,"DIS_CODE":0,"TOWNNAME":"安南區","LI":"淵西里","LIN":"6鄰","STREET":"安中路","SECT":"四段","MAREA":" ","LANE":"３２０巷","ALLEY":"１２９弄","HOUSE_NO":"４３號","E_COORD97":164658.57000000001,"N_COORD97":2550460.1099999999,"ADDRESS":"安中路四段３２０巷１２９弄４３號","OBJECTID":67532},"geometry":{"x":164658.57000000123,"y":2550460.1099999994}},{"attributes":{"ID":67533,"DIS_CODE":0,"TOWNNAME":"安南區","LI":"淵西里","LIN":"6鄰","STREET":"安中路","SECT":"四段","MAREA":" ","LANE":"３２０巷","ALLEY":"１２９弄","HOUSE_NO":"４９號","E_COORD97":164682.54000000001,"N_COORD97":2550485.8199999998,"ADDRESS":"安中路四段３２０巷１２９弄４９號","OBJECTID":67533},"geometry":{"x":164682.54000000097,"y":2550485.8200000022}},{"attributes":{"ID":67534,"DIS_CODE":0,"TOWNNAME":"安南區","LI":"淵西里","LIN":"6鄰","STREET":"安中路","SECT":"四段","MAREA":" ","LANE":"３２０巷","ALLEY":"１２９弄","HOUSE_NO":"５７號","E_COORD97":164694.92000000001,"N_COORD97":2550507.21,"ADDRESS":"安中路四段３２０巷１２９弄５７號","OBJECTID":67534},"geometry":{"x":164694.92000000086,"y":2550507.2100000028}},{"attributes":{"ID":67535,"DIS_CODE":0,"TOWNNAME":"安南區","LI":"淵西里","LIN":"6鄰","STREET":"安中路","SECT":"四段","MAREA":" ","LANE":"３２０巷","ALLEY":"１２９弄","HOUSE_NO":"６２號之１００","E_COORD97":164711.06,"N_COORD97":2550909.4300000002,"ADDRESS":"安中路四段３２０巷１２９弄６２號之１００","OBJECTID":67535},"geometry":{"x":164711.05999999959,"y":2550909.4299999997}},{"attributes":{"ID":67536,"DIS_CODE":0,"TOWNNAME":"安南區","LI":"淵西里","LIN":"6鄰","STREET":"安中路","SECT":"四段","MAREA":" ","LANE":"３２０巷","ALLEY":"１４１弄","HOUSE_NO":"３號","E_COORD97":164751.42999999999,"N_COORD97":2550377.1200000001,"ADDRESS":"安中路四段３２０巷１４１弄３號","OBJECTID":67536},"geometry":{"x":164751.4299999997,"y":2550377.120000001}},{"attributes":{"ID":67537,"DIS_CODE":0,"TOWNNAME":"安南區","LI":"淵西里","LIN":"6鄰","STREET":"安中路","SECT":"四段","MAREA":" ","LANE":"３２０巷","ALLEY":"１５０弄","HOUSE_NO":"２號","E_COORD97":164753.198294,"N_COORD97":2550345.2455099998,"ADDRESS":"安中路四段３２０巷１５０弄２號","OBJECTID":67537},"geometry":{"x":164753.19829399977,"y":2550345.2455130015}},{"attributes":{"ID":67538,"DIS_CODE":0,"TOWNNAME":"善化區","LI":"南關里","LIN":"7鄰","STREET":"三民路","SECT":" ","MAREA":" ","LANE":" ","ALLEY":" ","HOUSE_NO":"１號之３３","E_COORD97":176769.29000000001,"N_COORD97":2557695.02,"ADDRESS":"三民路１號之３３","OBJECTID":67538},"geometry":{"x":176769.29000000097,"y":2557695.0200000014}},{"attributes":{"ID":67539,"DIS_CODE":0,"TOWNNAME":"善化區","LI":"南關里","LIN":"7鄰","STREET":"三民路","SECT":" ","MAREA":" ","LANE":" ","ALLEY":" ","HOUSE_NO":"３號之５","E_COORD97":177036.85999999999,"N_COORD97":2558765.77,"ADDRESS":"三民路３號之５","OBJECTID":67539},"geometry":{"x":177036.86000000127,"y":2558765.7699999996}},{"attributes":{"ID":67540,"DIS_CODE":0,"TOWNNAME":"善化區","LI":"南關里","LIN":"7鄰","STREET":"三民路","SECT":" ","MAREA":" ","LANE":" ","ALLEY":" ","HOUSE_NO":"３號之１１","E_COORD97":177025.17000000001,"N_COORD97":2558745.52,"ADDRESS":"三民路３號之１１","OBJECTID":67540},"geometry":{"x":177025.16999999993,"y":2558745.5200000014}},{"attributes":{"ID":67541,"DIS_CODE":0,"TOWNNAME":"善化區","LI":"南關里","LIN":"7鄰","STREET":"三民路","SECT":" ","MAREA":" ","LANE":" ","ALLEY":" ","HOUSE_NO":"３號之９","E_COORD97":177025.56,"N_COORD97":2558752.52,"ADDRESS":"三民路３號之９","OBJECTID":67541},"geometry":{"x":177025.55999999959,"y":2558752.5200000014}},{"attributes":{"ID":67542,"DIS_CODE":0,"TOWNNAME":"永康區","LI":"安康里","LIN":"6鄰","STREET":"中華路","SECT":" ","MAREA":" ","LANE":"７２７巷","ALLEY":"２８弄","HOUSE_NO":"２號","E_COORD97":170770.92999999999,"N_COORD97":2546400.7400000002,"ADDRESS":"中華路７２７巷２８弄２號","OBJECTID":67542},"geometry":{"x":170770.9299999997,"y":2546400.7400000021}},{"attributes":{"ID":67543,"DIS_CODE":0,"TOWNNAME":"永康區","LI":"安康里","LIN":"6鄰","STREET":"中華路","SECT":" ","MAREA":" ","LANE":"７２７巷","ALLEY":"６６弄","HOUSE_NO":"１號","E_COORD97":170693.85999999999,"N_COORD97":2546353.1600000001,"ADDRESS":"中華路７２７巷６６弄１號","OBJECTID":67543},"geometry":{"x":170693.86000000034,"y":2546353.160000002}},{"attributes":{"ID":67544,"DIS_CODE":0,"TOWNNAME":"永康區","LI":"安康里","LIN":"6鄰","STREET":"中華路","SECT":" ","MAREA":" ","LANE":"７２７巷","ALLEY":"６６弄","HOUSE_NO":"６號","E_COORD97":170698.92000000001,"N_COORD97":2546363.5,"ADDRESS":"中華路７２７巷６６弄６號","OBJECTID":67544},"geometry":{"x":170698.92000000179,"y":2546363.5000000037}},{"attributes":{"ID":67545,"DIS_CODE":0,"TOWNNAME":"永康區","LI":"安康里","LIN":"6鄰","STREET":"中華路","SECT":" ","MAREA":" ","LANE":"７２７巷","ALLEY":"６６弄","HOUSE_NO":"５號","E_COORD97":170689.10999999999,"N_COORD97":2546360.1600000001,"ADDRESS":"中華路７２７巷６６弄５號","OBJECTID":67545},"geometry":{"x":170689.11000000034,"y":2546360.160000002}},{"attributes":{"ID":67546,"DIS_CODE":0,"TOWNNAME":"安南區","LI":"州北里","LIN":"6鄰","STREET":"安和路","SECT":"五段","MAREA":" ","LANE":"１７１巷","ALLEY":"４７弄","HOUSE_NO":"２４號","E_COORD97":169703.57999999999,"N_COORD97":2551763.9300000002,"ADDRESS":"安和路五段１７１巷４７弄２４號","OBJECTID":67546},"geometry":{"x":169703.58000000101,"y":2551763.9299999997}},{"attributes":{"ID":67547,"DIS_CODE":0,"TOWNNAME":"安南區","LI":"州北里","LIN":"6鄰","STREET":"安和路","SECT":"五段","MAREA":" ","LANE":"１７１巷","ALLEY":"４７弄","HOUSE_NO":"５１號","E_COORD97":169702.73999999999,"N_COORD97":2551741.8799999999,"ADDRESS":"安和路五段１７１巷４７弄５１號","OBJECTID":67547},"geometry":{"x":169702.74000000115,"y":2551741.8800000008}},{"attributes":{"ID":67548,"DIS_CODE":0,"TOWNNAME":"安南區","LI":"州北里","LIN":"6鄰","STREET":"安和路","SECT":"五段","MAREA":" ","LANE":"１７１巷","ALLEY":"４７弄","HOUSE_NO":"２９號之４","E_COORD97":169737.44,"N_COORD97":2551711.8799999999,"ADDRESS":"安和路五段１７１巷４７弄２９號之４","OBJECTID":67548},"geometry":{"x":169737.44000000041,"y":2551711.879999999}},{"attributes":{"ID":67549,"DIS_CODE":0,"TOWNNAME":"安南區","LI":"州北里","LIN":"6鄰","STREET":"安和路","SECT":"五段","MAREA":" ","LANE":"１７１巷","ALLEY":"４７弄","HOUSE_NO":"２２號","E_COORD97":169711.92999999999,"N_COORD97":2551766.71,"ADDRESS":"安和路五段１７１巷４７弄２２號","OBJECTID":67549},"geometry":{"x":169711.92999999877,"y":2551766.7100000009}},{"attributes":{"ID":67550,"DIS_CODE":0,"TOWNNAME":"安南區","LI":"溪北里","LIN":"6鄰","STREET":"安和路","SECT":"一段","MAREA":" ","LANE":"１５巷","ALLEY":"２０弄","HOUSE_NO":"３１號","E_COORD97":169441.98000000001,"N_COORD97":2547470.5,"ADDRESS":"安和路一段１５巷２０弄３１號","OBJECTID":67550},"geometry":{"x":169441.98000000138,"y":2547470.5000000019}},{"attributes":{"ID":67551,"DIS_CODE":0,"TOWNNAME":"安南區","LI":"溪北里","LIN":"6鄰","STREET":"安和路","SECT":"一段","MAREA":" ","LANE":"１５巷","ALLEY":"２０弄","HOUSE_NO":"１８號","E_COORD97":169478.22,"N_COORD97":2547436.4100000001,"ADDRESS":"安和路一段１５巷２０弄１８號","OBJECTID":67551},"geometry":{"x":169478.22000000067,"y":2547436.410000002}},{"attributes":{"ID":67552,"DIS_CODE":0,"TOWNNAME":"安南區","LI":"溪北里","LIN":"6鄰","STREET":"安和路","SECT":"一段","MAREA":" ","LANE":"１５巷","ALLEY":"２０弄","HOUSE_NO":"１９號","E_COORD97":169453.42000000001,"N_COORD97":2547441.6099999999,"ADDRESS":"安和路一段１５巷２０弄１９號","OBJECTID":67552},"geometry":{"x":169453.42000000086,"y":2547441.6100000013}},{"attributes":{"ID":67553,"DIS_CODE":0,"TOWNNAME":"安南區","LI":"溪北里","LIN":"6鄰","STREET":"安和路","SECT":"一段","MAREA":" ","LANE":"１５巷","ALLEY":"２０弄","HOUSE_NO":"１號","E_COORD97":169473.67999999999,"N_COORD97":2547393.27,"ADDRESS":"安和路一段１５巷２０弄１號","OBJECTID":67553},"geometry":{"x":169473.68000000063,"y":2547393.2700000014}},{"attributes":{"ID":67554,"DIS_CODE":0,"TOWNNAME":"安南區","LI":"溪北里","LIN":"6鄰","STREET":"安和路","SECT":"一段","MAREA":" ","LANE":"１５巷","ALLEY":"２０弄","HOUSE_NO":"２０號","E_COORD97":169475.26999999999,"N_COORD97":2547442.3999999999,"ADDRESS":"安和路一段１５巷２０弄２０號","OBJECTID":67554},"geometry":{"x":169475.26999999955,"y":2547442.4000000004}},{"attributes":{"ID":67555,"DIS_CODE":0,"TOWNNAME":"安南區","LI":"溪北里","LIN":"6鄰","STREET":"安和路","SECT":"一段","MAREA":" ","LANE":"１５巷","ALLEY":"２０弄","HOUSE_NO":"２１號","E_COORD97":169452.12,"N_COORD97":2547446.5499999998,"ADDRESS":"安和路一段１５巷２０弄２１號","OBJECTID":67555},"geometry":{"x":169452.12000000104,"y":2547446.5500000026}},{"attributes":{"ID":67556,"DIS_CODE":0,"TOWNNAME":"安南區","LI":"溪北里","LIN":"6鄰","STREET":"安和路","SECT":"一段","MAREA":" ","LANE":"１５巷","ALLEY":"２０弄","HOUSE_NO":"２２號","E_COORD97":169472.20999999999,"N_COORD97":2547451.2000000002,"ADDRESS":"安和路一段１５巷２０弄２２號","OBJECTID":67556},"geometry":{"x":169472.21000000089,"y":2547451.2000000011}},{"attributes":{"ID":67557,"DIS_CODE":0,"TOWNNAME":"安南區","LI":"溪北里","LIN":"6鄰","STREET":"安和路","SECT":"一段","MAREA":" ","LANE":"１５巷","ALLEY":"２０弄","HOUSE_NO":"２３號","E_COORD97":169450.14999999999,"N_COORD97":2547451.25,"ADDRESS":"安和路一段１５巷２０弄２３號","OBJECTID":67557},"geometry":{"x":169450.15000000224,"y":2547451.2500000019}},{"attributes":{"ID":67558,"DIS_CODE":0,"TOWNNAME":"安南區","LI":"溪北里","LIN":"6鄰","STREET":"安和路","SECT":"一段","MAREA":" ","LANE":"１５巷","ALLEY":"２０弄","HOUSE_NO":"２４號","E_COORD97":169471.16,"N_COORD97":2547455.5699999998,"ADDRESS":"安和路一段１５巷２０弄２４號","OBJECTID":67558},"geometry":{"x":169471.16000000015,"y":2547455.5700000022}},{"attributes":{"ID":67559,"DIS_CODE":0,"TOWNNAME":"安南區","LI":"溪北里","LIN":"6鄰","STREET":"安和路","SECT":"一段","MAREA":" ","LANE":"１５巷","ALLEY":"２０弄","HOUSE_NO":"２５號","E_COORD97":169450.53,"N_COORD97":2547455.3500000001,"ADDRESS":"安和路一段１５巷２０弄２５號","OBJECTID":67559},"geometry":{"x":169450.53000000026,"y":2547455.3499999996}},{"attributes":{"ID":67560,"DIS_CODE":0,"TOWNNAME":"安南區","LI":"溪北里","LIN":"6鄰","STREET":"安和路","SECT":"一段","MAREA":" ","LANE":"１５巷","ALLEY":"２０弄","HOUSE_NO":"２６號","E_COORD97":169469.16,"N_COORD97":2547459.4700000002,"ADDRESS":"安和路一段１５巷２０弄２６號","OBJECTID":67560},"geometry":{"x":169469.16000000108,"y":2547459.4699999988}},{"attributes":{"ID":67561,"DIS_CODE":0,"TOWNNAME":"安南區","LI":"溪北里","LIN":"6鄰","STREET":"安和路","SECT":"一段","MAREA":" ","LANE":"１５巷","ALLEY":"２０弄","HOUSE_NO":"２７號","E_COORD97":169446.88,"N_COORD97":2547460.02,"ADDRESS":"安和路一段１５巷２０弄２７號","OBJECTID":67561},"geometry":{"x":169446.88000000082,"y":2547460.0199999996}},{"attributes":{"ID":67562,"DIS_CODE":0,"TOWNNAME":"安南區","LI":"溪北里","LIN":"6鄰","STREET":"安和路","SECT":"一段","MAREA":" ","LANE":"１５巷","ALLEY":"２０弄","HOUSE_NO":"２８號","E_COORD97":169466.67999999999,"N_COORD97":2547465.6600000001,"ADDRESS":"安和路一段１５巷２０弄２８號","OBJECTID":67562},"geometry":{"x":169466.68000000063,"y":2547465.660000002}},{"attributes":{"ID":67563,"DIS_CODE":0,"TOWNNAME":"安南區","LI":"溪北里","LIN":"6鄰","STREET":"安和路","SECT":"一段","MAREA":" ","LANE":"１５巷","ALLEY":"２０弄","HOUSE_NO":"２９號","E_COORD97":169444.62,"N_COORD97":2547464.98,"ADDRESS":"安和路一段１５巷２０弄２９號","OBJECTID":67563},"geometry":{"x":169444.62000000011,"y":2547464.9800000004}},{"attributes":{"ID":67564,"DIS_CODE":0,"TOWNNAME":"東區","LI":"崇德里","LIN":"7鄰","STREET":"崇德七街","SECT":" ","MAREA":" ","LANE":" ","ALLEY":" ","HOUSE_NO":"６５號","E_COORD97":170838.76000000001,"N_COORD97":2541811.8199999998,"ADDRESS":"崇德七街６５號","OBJECTID":67564},"geometry":{"x":170838.75999999885,"y":2541811.820000004}},{"attributes":{"ID":67565,"DIS_CODE":0,"TOWNNAME":"東區","LI":"東光里","LIN":"7鄰","STREET":"東興路","SECT":" ","MAREA":" ","LANE":" ","ALLEY":" ","HOUSE_NO":"１８７號","E_COORD97":170994.38,"N_COORD97":2543836.9199999999,"ADDRESS":"東興路１８７號","OBJECTID":67565},"geometry":{"x":170994.38000000082,"y":2543836.9199999999}},{"attributes":{"ID":67566,"DIS_CODE":0,"TOWNNAME":"仁德區","LI":"保安里","LIN":" ","STREET":"中正路","SECT":"一段","MAREA":" ","LANE":" ","ALLEY":" ","HOUSE_NO":"８９號","E_COORD97":171112.51000000001,"N_COORD97":2535563.5299999998,"ADDRESS":"中正路一段８９號","OBJECTID":67566},"geometry":{"x":171112.51000000071,"y":2535563.5299999993}},{"attributes":{"ID":67567,"DIS_CODE":0,"TOWNNAME":"仁德區","LI":"後壁里","LIN":" ","STREET":"中正路","SECT":"二段","MAREA":" ","LANE":" ","ALLEY":" ","HOUSE_NO":"６２號","E_COORD97":173137.98000000001,"N_COORD97":2538359.2799999998,"ADDRESS":"中正路二段６２號","OBJECTID":67567},"geometry":{"x":173137.98000000045,"y":2538359.2799999993}},{"attributes":{"ID":67568,"DIS_CODE":0,"TOWNNAME":"仁德區","LI":"土庫里","LIN":" ","STREET":"土庫路","SECT":" ","MAREA":" ","LANE":" ","ALLEY":" ","HOUSE_NO":"２４５號","E_COORD97":174156.56,"N_COORD97":2542738.7400000002,"ADDRESS":"土庫路２４５號","OBJECTID":67568},"geometry":{"x":174156.56000000052,"y":2542738.7400000021}},{"attributes":{"ID":67569,"DIS_CODE":0,"TOWNNAME":"仁德區","LI":"保安里","LIN":" ","STREET":"文賢路","SECT":"一段","MAREA":" ","LANE":" ","ALLEY":" ","HOUSE_NO":"８１１號","E_COORD97":171572.23000000001,"N_COORD97":2536063.3300000001,"ADDRESS":"文賢路一段８１１號","OBJECTID":67569},"geometry":{"x":171572.23000000138,"y":2536063.3300000001}},{"attributes":{"ID":67570,"DIS_CODE":0,"TOWNNAME":"仁德區","LI":"田厝里","LIN":" ","STREET":"保安路","SECT":"二段","MAREA":" ","LANE":" ","ALLEY":" ","HOUSE_NO":"６２１號","E_COORD97":172773.79000000001,"N_COORD97":2537602.3199999998,"ADDRESS":"保安路二段６２１號","OBJECTID":67570},"geometry":{"x":172773.79000000097,"y":2537602.3200000022}},{"attributes":{"ID":67571,"DIS_CODE":0,"TOWNNAME":"仁德區","LI":"土庫里","LIN":" ","STREET":"太乙路","SECT":" ","MAREA":" ","LANE":" ","ALLEY":" ","HOUSE_NO":"６２號","E_COORD97":173239.59,"N_COORD97":2542550.25,"ADDRESS":"太乙路６２號","OBJECTID":67571},"geometry":{"x":173239.59000000078,"y":2542550.25}},{"attributes":{"ID":67572,"DIS_CODE":0,"TOWNNAME":"仁德區","LI":"田厝里","LIN":" ","STREET":"保安路","SECT":"二段","MAREA":" ","LANE":" ","ALLEY":" ","HOUSE_NO":"３７０之８號","E_COORD97":172130.70000000001,"N_COORD97":2537355.0600000001,"ADDRESS":"保安路二段３７０之８號","OBJECTID":67572},"geometry":{"x":172130.70000000019,"y":2537355.0600000005}},{"attributes":{"ID":67573,"DIS_CODE":0,"TOWNNAME":"仁德區","LI":"保安里","LIN":" ","STREET":"中正路","SECT":"一段","MAREA":" ","LANE":" ","ALLEY":" ","HOUSE_NO":"１８３號","E_COORD97":171521.63,"N_COORD97":2535736.0299999998,"ADDRESS":"中正路一段１８３號","OBJECTID":67573},"geometry":{"x":171521.63000000082,"y":2535736.0299999993}},{"attributes":{"ID":67574,"DIS_CODE":0,"TOWNNAME":"仁德區","LI":"土庫里","LIN":" ","STREET":"太子二街","SECT":" ","MAREA":" ","LANE":" ","ALLEY":" ","HOUSE_NO":"１８０號","E_COORD97":174480.51000000001,"N_COORD97":2543157.25,"ADDRESS":"太子二街１８０號","OBJECTID":67574},"geometry":{"x":174480.51000000071,"y":2543157.25}},{"attributes":{"ID":67575,"DIS_CODE":0,"TOWNNAME":"仁德區","LI":"後壁里","LIN":" ","STREET":"中正路","SECT":"二段","MAREA":" ","LANE":" ","ALLEY":" ","HOUSE_NO":"３７９號","E_COORD97":173262.73999999999,"N_COORD97":2539269.7799999998,"ADDRESS":"中正路二段３７９號","OBJECTID":67575},"geometry":{"x":173262.74000000022,"y":2539269.7800000012}},{"attributes":{"ID":67576,"DIS_CODE":0,"TOWNNAME":"安南區","LI":"溪北里","LIN":"6鄰","STREET":"安和路","SECT":"一段","MAREA":" ","LANE":"１５巷","ALLEY":"２０弄","HOUSE_NO":"２號","E_COORD97":169493.70000000001,"N_COORD97":2547396.23,"ADDRESS":"安和路一段１５巷２０弄２號","OBJECTID":67576},"geometry":{"x":169493.70000000205,"y":2547396.2300000004}},{"attributes":{"ID":67577,"DIS_CODE":0,"TOWNNAME":"安南區","LI":"溪北里","LIN":"6鄰","STREET":"安和路","SECT":"一段","MAREA":" ","LANE":"１５巷","ALLEY":"２０弄","HOUSE_NO":"３０號","E_COORD97":169465.14999999999,"N_COORD97":2547470.2000000002,"ADDRESS":"安和路一段１５巷２０弄３０號","OBJECTID":67577},"geometry":{"x":169465.15000000037,"y":2547470.200000003}},{"attributes":{"ID":67578,"DIS_CODE":0,"TOWNNAME":"安南區","LI":"溪北里","LIN":"6鄰","STREET":"安和路","SECT":"一段","MAREA":" ","LANE":"１５巷","ALLEY":"２０弄","HOUSE_NO":"３２號","E_COORD97":169463.34,"N_COORD97":2547475.3399999999,"ADDRESS":"安和路一段１５巷２０弄３２號","OBJECTID":67578},"geometry":{"x":169463.33999999985,"y":2547475.3399999999}},{"attributes":{"ID":67579,"DIS_CODE":0,"TOWNNAME":"安南區","LI":"溪北里","LIN":"6鄰","STREET":"安和路","SECT":"一段","MAREA":" ","LANE":"１５巷","ALLEY":"２０弄","HOUSE_NO":"３４號","E_COORD97":169461.44,"N_COORD97":2547481.4300000002,"ADDRESS":"安和路一段１５巷２０弄３４號","OBJECTID":67579},"geometry":{"x":169461.44000000041,"y":2547481.4299999997}},{"attributes":{"ID":67580,"DIS_CODE":0,"TOWNNAME":"安南區","LI":"溪北里","LIN":"6鄰","STREET":"安和路","SECT":"一段","MAREA":" ","LANE":"１５巷","ALLEY":"２０弄","HOUSE_NO":"３６號","E_COORD97":169459.63,"N_COORD97":2547486.0899999999,"ADDRESS":"安和路一段１５巷２０弄３６號","OBJECTID":67580},"geometry":{"x":169459.62999999989,"y":2547486.0900000017}},{"attributes":{"ID":67581,"DIS_CODE":0,"TOWNNAME":"安南區","LI":"溪北里","LIN":"6鄰","STREET":"安和路","SECT":"一段","MAREA":" ","LANE":"１５巷","ALLEY":"２０弄","HOUSE_NO":"３號","E_COORD97":169470.73000000001,"N_COORD97":2547396.2400000002,"ADDRESS":"安和路一段１５巷２０弄３號","OBJECTID":67581},"geometry":{"x":169470.73000000138,"y":2547396.2400000039}},{"attributes":{"ID":67582,"DIS_CODE":0,"TOWNNAME":"安南區","LI":"溪北里","LIN":"6鄰","STREET":"安和路","SECT":"一段","MAREA":" ","LANE":"１５巷","ALLEY":"２０弄","HOUSE_NO":"４號","E_COORD97":169492.57999999999,"N_COORD97":2547401.2400000002,"ADDRESS":"安和路一段１５巷２０弄４號","OBJECTID":67582},"geometry":{"x":169492.57999999914,"y":2547401.2400000021}},{"attributes":{"ID":67583,"DIS_CODE":0,"TOWNNAME":"安南區","LI":"溪北里","LIN":"6鄰","STREET":"安和路","SECT":"一段","MAREA":" ","LANE":"１５巷","ALLEY":"２０弄","HOUSE_NO":"５號","E_COORD97":169468.64000000001,"N_COORD97":2547401.8599999999,"ADDRESS":"安和路一段１５巷２０弄５號","OBJECTID":67583},"geometry":{"x":169468.6400000006,"y":2547401.8600000013}},{"attributes":{"ID":67584,"DIS_CODE":0,"TOWNNAME":"安南區","LI":"溪北里","LIN":"6鄰","STREET":"安和路","SECT":"一段","MAREA":" ","LANE":"１５巷","ALLEY":"２０弄","HOUSE_NO":"６號","E_COORD97":169490.20000000001,"N_COORD97":2547405.7000000002,"ADDRESS":"安和路一段１５巷２０弄６號","OBJECTID":67584},"geometry":{"x":169490.19999999925,"y":2547405.700000003}},{"attributes":{"ID":67585,"DIS_CODE":0,"TOWNNAME":"安南區","LI":"溪北里","LIN":"6鄰","STREET":"安和路","SECT":"一段","MAREA":" ","LANE":"１５巷","ALLEY":"２０弄","HOUSE_NO":"７號","E_COORD97":169467.10000000001,"N_COORD97":2547406.3999999999,"ADDRESS":"安和路一段１５巷２０弄７號","OBJECTID":67585},"geometry":{"x":169467.10000000056,"y":2547406.4000000022}},{"attributes":{"ID":67586,"DIS_CODE":0,"TOWNNAME":"安南區","LI":"溪北里","LIN":"6鄰","STREET":"安和路","SECT":"一段","MAREA":" ","LANE":"１５巷","ALLEY":"２０弄","HOUSE_NO":"８號","E_COORD97":169488.63,"N_COORD97":2547411.71,"ADDRESS":"安和路一段１５巷２０弄８號","OBJECTID":67586},"geometry":{"x":169488.62999999989,"y":2547411.7100000028}},{"attributes":{"ID":67587,"DIS_CODE":0,"TOWNNAME":"安南區","LI":"溪北里","LIN":"6鄰","STREET":"安和路","SECT":"一段","MAREA":" ","LANE":"１５巷","ALLEY":"２０弄","HOUSE_NO":"９號","E_COORD97":169464.54999999999,"N_COORD97":2547411.25,"ADDRESS":"安和路一段１５巷２０弄９號","OBJECTID":67587},"geometry":{"x":169464.55000000075,"y":2547411.25}},{"attributes":{"ID":67588,"DIS_CODE":0,"TOWNNAME":"仁德區","LI":"仁愛里","LIN":" ","STREET":"大同路","SECT":"二段","MAREA":" ","LANE":" ","ALLEY":" ","HOUSE_NO":"８２０號","E_COORD97":169690.14999999999,"N_COORD97":2540126.5299999998,"ADDRESS":"大同路二段８２０號","OBJECTID":67588},"geometry":{"x":169690.15000000037,"y":2540126.5299999993}},{"attributes":{"ID":67589,"DIS_CODE":0,"TOWNNAME":"仁德區","LI":"土庫里","LIN":"2鄰","STREET":"中正路","SECT":"三段","MAREA":" ","LANE":" ","ALLEY":" ","HOUSE_NO":"４２０號","E_COORD97":174008.39999999999,"N_COORD97":2542871.77,"ADDRESS":"中正路三段４２０號","OBJECTID":67589},"geometry":{"x":174008.39999999944,"y":2542871.7699999996}},{"attributes":{"ID":67590,"DIS_CODE":0,"TOWNNAME":"學甲區","LI":"秀昌里","LIN":"31鄰","STREET":" ","SECT":" ","MAREA":"煥昌","LANE":" ","ALLEY":" ","HOUSE_NO":"１５１號","E_COORD97":166597.20000000001,"N_COORD97":2571242.7599999998,"ADDRESS":"煥昌１５１號","OBJECTID":67590},"geometry":{"x":166597.20000000112,"y":2571242.7599999998}},{"attributes":{"ID":67591,"DIS_CODE":0,"TOWNNAME":"仁德區","LI":"仁愛里","LIN":" ","STREET":"大同路","SECT":"二段","MAREA":" ","LANE":" ","ALLEY":" ","HOUSE_NO":"９３７之２號","E_COORD97":169732.91,"N_COORD97":2540139.79,"ADDRESS":"大同路二段９３７之２號","OBJECTID":67591},"geometry":{"x":169732.91000000201,"y":2540139.790000001}},{"attributes":{"ID":67592,"DIS_CODE":0,"TOWNNAME":"仁德區","LI":"一甲里","LIN":" ","STREET":"忠義路","SECT":" ","MAREA":" ","LANE":" ","ALLEY":" ","HOUSE_NO":"２０９號","E_COORD97":173359.87,"N_COORD97":2541995.77,"ADDRESS":"忠義路２０９號","OBJECTID":67592},"geometry":{"x":173359.87000000104,"y":2541995.7700000014}},{"attributes":{"ID":67593,"DIS_CODE":0,"TOWNNAME":"北區","LI":"振興里","LIN":"6鄰","STREET":"長榮路","SECT":"四段","MAREA":" ","LANE":"１８３巷","ALLEY":"１１弄","HOUSE_NO":"１號","E_COORD97":170165.09,"N_COORD97":2545184.6299999999,"ADDRESS":"長榮路四段１８３巷１１弄１號","OBJECTID":67593},"geometry":{"x":170165.08999999985,"y":2545184.629999999}},{"attributes":{"ID":67594,"DIS_CODE":0,"TOWNNAME":"北區","LI":"振興里","LIN":"6鄰","STREET":"長榮路","SECT":"四段","MAREA":" ","LANE":"１８３巷","ALLEY":"１１弄","HOUSE_NO":"２號","E_COORD97":170152.84,"N_COORD97":2545171.4100000001,"ADDRESS":"長榮路四段１８３巷１１弄２號","OBJECTID":67594},"geometry":{"x":170152.83999999985,"y":2545171.410000002}},{"attributes":{"ID":67595,"DIS_CODE":0,"TOWNNAME":"北區","LI":"振興里","LIN":"6鄰","STREET":"長榮路","SECT":"四段","MAREA":" ","LANE":"１８３巷","ALLEY":"１１弄","HOUSE_NO":"３號","E_COORD97":170171.42999999999,"N_COORD97":2545180.4100000001,"ADDRESS":"長榮路四段１８３巷１１弄３號","OBJECTID":67595},"geometry":{"x":170171.43000000156,"y":2545180.4100000001}},{"attributes":{"ID":67596,"DIS_CODE":0,"TOWNNAME":"北區","LI":"振興里","LIN":"6鄰","STREET":"長榮路","SECT":"四段","MAREA":" ","LANE":"１８３巷","ALLEY":"１１弄","HOUSE_NO":"５號","E_COORD97":170174.66,"N_COORD97":2545168.8799999999,"ADDRESS":"長榮路四段１８３巷１１弄５號","OBJECTID":67596},"geometry":{"x":170174.66000000015,"y":2545168.879999999}},{"attributes":{"ID":67597,"DIS_CODE":0,"TOWNNAME":"東區","LI":"崇德里","LIN":"7鄰","STREET":"崇德七街","SECT":" ","MAREA":" ","LANE":" ","ALLEY":" ","HOUSE_NO":"６７號","E_COORD97":170840.32000000001,"N_COORD97":2541816.3199999998,"ADDRESS":"崇德七街６７號","OBJECTID":67597},"geometry":{"x":170840.3200000003,"y":2541816.3200000022}},{"attributes":{"ID":67598,"DIS_CODE":0,"TOWNNAME":"永康區","LI":"二王里","LIN":"7鄰","STREET":"永二街","SECT":" ","MAREA":" ","LANE":" ","ALLEY":" ","HOUSE_NO":"３９８號","E_COORD97":172804.41,"N_COORD97":2546670.9900000002,"ADDRESS":"永二街３９８號","OBJECTID":67598},"geometry":{"x":172804.41000000015,"y":2546670.9900000002}},{"attributes":{"ID":67599,"DIS_CODE":0,"TOWNNAME":"仁德區","LI":"仁義里","LIN":" ","STREET":"正義二街","SECT":" ","MAREA":" ","LANE":" ","ALLEY":" ","HOUSE_NO":"８８之８號","E_COORD97":173650.60999999999,"N_COORD97":2541552.0499999998,"ADDRESS":"正義二街８８之８號","OBJECTID":67599},"geometry":{"x":173650.61000000034,"y":2541552.0500000007}},{"attributes":{"ID":67600,"DIS_CODE":0,"TOWNNAME":"仁德區","LI":"新田里","LIN":" ","STREET":"勝利路","SECT":" ","MAREA":" ","LANE":" ","ALLEY":" ","HOUSE_NO":"９９之２號","E_COORD97":174030.98999999999,"N_COORD97":2539648.79,"ADDRESS":"勝利路９９之２號","OBJECTID":67600},"geometry":{"x":174030.99000000022,"y":2539648.790000001}}]}