{"displayFieldName":"TOWNNAME","fieldAliases":{"ID":"ID","DIS_CODE":"DIS_CODE","TOWNNAME":"TOWNNAME","LI":"LI","LIN":"LIN","STREET":"STREET","SECT":"SECT","MAREA":"MAREA","LANE":"LANE","ALLEY":"ALLEY","HOUSE_NO":"HOUSE_NO","E_COORD97":"E_COORD97","N_COORD97":"N_COORD97","ADDRESS":"ADDRESS","OBJECTID":"OBJECTID"},"geometryType":"esriGeometryPoint","spatialReference":{"wkid":102443,"latestWkid":3826},"fields":[{"name":"ID","type":"esriFieldTypeDouble","alias":"ID"},{"name":"DIS_CODE","type":"esriFieldTypeInteger","alias":"DIS_CODE"},{"name":"TOWNNAME","type":"esriFieldTypeString","alias":"TOWNNAME","length":8},{"name":"LI","type":"esriFieldTypeString","alias":"LI","length":8},{"name":"LIN","type":"esriFieldTypeString","alias":"LIN","length":12},{"name":"STREET","type":"esriFieldTypeString","alias":"STREET","length":20},{"name":"SECT","type":"esriFieldTypeString","alias":"SECT","length":8},{"name":"MAREA","type":"esriFieldTypeString","alias":"MAREA","length":12},{"name":"LANE","type":"esriFieldTypeString","alias":"LANE","length":10},{"name":"ALLEY","type":"esriFieldTypeString","alias":"ALLEY","length":10},{"name":"HOUSE_NO","type":"esriFieldTypeString","alias":"HOUSE_NO","length":20},{"name":"E_COORD97","type":"esriFieldTypeDouble","alias":"E_COORD97"},{"name":"N_COORD97","type":"esriFieldTypeDouble","alias":"N_COORD97"},{"name":"ADDRESS","type":"esriFieldTypeString","alias":"ADDRESS","length":50},{"name":"OBJECTID","type":"esriFieldTypeOID","alias":"OBJECTID"}],"features":[{"attributes":{"ID":8401,"DIS_CODE":0,"TOWNNAME":"北區","LI":"長德里","LIN":"13鄰","STREET":"長北街","SECT":" ","MAREA":" ","LANE":"２１０巷","ALLEY":"５弄","HOUSE_NO":"４號三樓","E_COORD97":168617.70999999999,"N_COORD97":2545053.6800000002,"ADDRESS":"長北街２１０巷５弄４號三樓","OBJECTID":8401},"geometry":{"x":168617.71000000089,"y":2545053.6800000016}},{"attributes":{"ID":8402,"DIS_CODE":0,"TOWNNAME":"北區","LI":"長德里","LIN":"13鄰","STREET":"長北街","SECT":" ","MAREA":" ","LANE":"２１０巷","ALLEY":"５弄","HOUSE_NO":"４號五樓","E_COORD97":168617.70999999999,"N_COORD97":2545053.6800000002,"ADDRESS":"長北街２１０巷５弄４號五樓","OBJECTID":8402},"geometry":{"x":168617.71000000089,"y":2545053.6800000016}},{"attributes":{"ID":8403,"DIS_CODE":0,"TOWNNAME":"北區","LI":"長德里","LIN":"13鄰","STREET":"長北街","SECT":" ","MAREA":" ","LANE":"２１０巷","ALLEY":"５弄","HOUSE_NO":"４號四樓","E_COORD97":168617.70999999999,"N_COORD97":2545053.6800000002,"ADDRESS":"長北街２１０巷５弄４號四樓","OBJECTID":8403},"geometry":{"x":168617.71000000089,"y":2545053.6800000016}},{"attributes":{"ID":8404,"DIS_CODE":0,"TOWNNAME":"北區","LI":"長德里","LIN":"13鄰","STREET":"長北街","SECT":" ","MAREA":" ","LANE":"２１０巷","ALLEY":"５弄","HOUSE_NO":"１號二樓","E_COORD97":168596.01000000001,"N_COORD97":2545041.5600000001,"ADDRESS":"長北街２１０巷５弄１號二樓","OBJECTID":8404},"geometry":{"x":168596.00999999885,"y":2545041.5600000042}},{"attributes":{"ID":8405,"DIS_CODE":0,"TOWNNAME":"北區","LI":"長德里","LIN":"13鄰","STREET":"長北街","SECT":" ","MAREA":" ","LANE":"２１０巷","ALLEY":"５弄","HOUSE_NO":"３號二樓","E_COORD97":168597.26000000001,"N_COORD97":2545046.3500000001,"ADDRESS":"長北街２１０巷５弄３號二樓","OBJECTID":8405},"geometry":{"x":168597.25999999978,"y":2545046.3500000015}},{"attributes":{"ID":8406,"DIS_CODE":0,"TOWNNAME":"安平區","LI":"平安里","LIN":"13鄰","STREET":"安平路","SECT":" ","MAREA":" ","LANE":"５５０巷","ALLEY":"１７弄","HOUSE_NO":"１號七樓之１","E_COORD97":164984.54000000001,"N_COORD97":2544425.3500000001,"ADDRESS":"安平路５５０巷１７弄１號七樓之１","OBJECTID":8406},"geometry":{"x":164984.54000000097,"y":2544425.3500000015}},{"attributes":{"ID":8407,"DIS_CODE":0,"TOWNNAME":"安平區","LI":"平安里","LIN":"13鄰","STREET":"安平路","SECT":" ","MAREA":" ","LANE":"５５０巷","ALLEY":"１７弄","HOUSE_NO":"１號七樓之２","E_COORD97":164984.54000000001,"N_COORD97":2544425.3500000001,"ADDRESS":"安平路５５０巷１７弄１號七樓之２","OBJECTID":8407},"geometry":{"x":164984.54000000097,"y":2544425.3500000015}},{"attributes":{"ID":8408,"DIS_CODE":0,"TOWNNAME":"安平區","LI":"平安里","LIN":"13鄰","STREET":"安平路","SECT":" ","MAREA":" ","LANE":"５５０巷","ALLEY":"１７弄","HOUSE_NO":"１號七樓之３","E_COORD97":164984.54000000001,"N_COORD97":2544425.3500000001,"ADDRESS":"安平路５５０巷１７弄１號七樓之３","OBJECTID":8408},"geometry":{"x":164984.54000000097,"y":2544425.3500000015}},{"attributes":{"ID":8409,"DIS_CODE":0,"TOWNNAME":"安平區","LI":"平安里","LIN":"13鄰","STREET":"安平路","SECT":" ","MAREA":" ","LANE":"５５０巷","ALLEY":"１７弄","HOUSE_NO":"１號七樓之４","E_COORD97":164984.54000000001,"N_COORD97":2544425.3500000001,"ADDRESS":"安平路５５０巷１７弄１號七樓之４","OBJECTID":8409},"geometry":{"x":164984.54000000097,"y":2544425.3500000015}},{"attributes":{"ID":8410,"DIS_CODE":0,"TOWNNAME":"安平區","LI":"平安里","LIN":"13鄰","STREET":"安平路","SECT":" ","MAREA":" ","LANE":"５５０巷","ALLEY":"１７弄","HOUSE_NO":"１號七樓之５","E_COORD97":164984.54000000001,"N_COORD97":2544425.3500000001,"ADDRESS":"安平路５５０巷１７弄１號七樓之５","OBJECTID":8410},"geometry":{"x":164984.54000000097,"y":2544425.3500000015}},{"attributes":{"ID":8411,"DIS_CODE":0,"TOWNNAME":"安平區","LI":"平安里","LIN":"13鄰","STREET":"安平路","SECT":" ","MAREA":" ","LANE":"５５０巷","ALLEY":"１７弄","HOUSE_NO":"１號二樓","E_COORD97":164984.54000000001,"N_COORD97":2544425.3500000001,"ADDRESS":"安平路５５０巷１７弄１號二樓","OBJECTID":8411},"geometry":{"x":164984.54000000097,"y":2544425.3500000015}},{"attributes":{"ID":8412,"DIS_CODE":0,"TOWNNAME":"安平區","LI":"平安里","LIN":"13鄰","STREET":"安平路","SECT":" ","MAREA":" ","LANE":"５５０巷","ALLEY":"１７弄","HOUSE_NO":"１號二樓之１","E_COORD97":164984.54000000001,"N_COORD97":2544425.3500000001,"ADDRESS":"安平路５５０巷１７弄１號二樓之１","OBJECTID":8412},"geometry":{"x":164984.54000000097,"y":2544425.3500000015}},{"attributes":{"ID":8413,"DIS_CODE":0,"TOWNNAME":"安平區","LI":"平安里","LIN":"13鄰","STREET":"安平路","SECT":" ","MAREA":" ","LANE":"５５０巷","ALLEY":"１７弄","HOUSE_NO":"１號二樓之２","E_COORD97":164984.54000000001,"N_COORD97":2544425.3500000001,"ADDRESS":"安平路５５０巷１７弄１號二樓之２","OBJECTID":8413},"geometry":{"x":164984.54000000097,"y":2544425.3500000015}},{"attributes":{"ID":8414,"DIS_CODE":0,"TOWNNAME":"安平區","LI":"平安里","LIN":"13鄰","STREET":"安平路","SECT":" ","MAREA":" ","LANE":"５５０巷","ALLEY":"１７弄","HOUSE_NO":"１號八樓","E_COORD97":164984.54000000001,"N_COORD97":2544425.3500000001,"ADDRESS":"安平路５５０巷１７弄１號八樓","OBJECTID":8414},"geometry":{"x":164984.54000000097,"y":2544425.3500000015}},{"attributes":{"ID":8415,"DIS_CODE":0,"TOWNNAME":"安平區","LI":"平安里","LIN":"13鄰","STREET":"安平路","SECT":" ","MAREA":" ","LANE":"５５０巷","ALLEY":"１７弄","HOUSE_NO":"１號三樓","E_COORD97":164984.54000000001,"N_COORD97":2544425.3500000001,"ADDRESS":"安平路５５０巷１７弄１號三樓","OBJECTID":8415},"geometry":{"x":164984.54000000097,"y":2544425.3500000015}},{"attributes":{"ID":8416,"DIS_CODE":0,"TOWNNAME":"安平區","LI":"平安里","LIN":"13鄰","STREET":"安平路","SECT":" ","MAREA":" ","LANE":"５５０巷","ALLEY":"１７弄","HOUSE_NO":"１號三樓之１","E_COORD97":164984.54000000001,"N_COORD97":2544425.3500000001,"ADDRESS":"安平路５５０巷１７弄１號三樓之１","OBJECTID":8416},"geometry":{"x":164984.54000000097,"y":2544425.3500000015}},{"attributes":{"ID":8417,"DIS_CODE":0,"TOWNNAME":"安平區","LI":"平安里","LIN":"13鄰","STREET":"安平路","SECT":" ","MAREA":" ","LANE":"５５０巷","ALLEY":"１７弄","HOUSE_NO":"１號三樓之２","E_COORD97":164984.54000000001,"N_COORD97":2544425.3500000001,"ADDRESS":"安平路５５０巷１７弄１號三樓之２","OBJECTID":8417},"geometry":{"x":164984.54000000097,"y":2544425.3500000015}},{"attributes":{"ID":8418,"DIS_CODE":0,"TOWNNAME":"安平區","LI":"平安里","LIN":"13鄰","STREET":"安平路","SECT":" ","MAREA":" ","LANE":"５５０巷","ALLEY":"１７弄","HOUSE_NO":"１號五樓之１","E_COORD97":164984.54000000001,"N_COORD97":2544425.3500000001,"ADDRESS":"安平路５５０巷１７弄１號五樓之１","OBJECTID":8418},"geometry":{"x":164984.54000000097,"y":2544425.3500000015}},{"attributes":{"ID":8419,"DIS_CODE":0,"TOWNNAME":"安平區","LI":"平安里","LIN":"13鄰","STREET":"安平路","SECT":" ","MAREA":" ","LANE":"５５０巷","ALLEY":"１７弄","HOUSE_NO":"１號五樓之２","E_COORD97":164984.54000000001,"N_COORD97":2544425.3500000001,"ADDRESS":"安平路５５０巷１７弄１號五樓之２","OBJECTID":8419},"geometry":{"x":164984.54000000097,"y":2544425.3500000015}},{"attributes":{"ID":8420,"DIS_CODE":0,"TOWNNAME":"安平區","LI":"平安里","LIN":"13鄰","STREET":"安平路","SECT":" ","MAREA":" ","LANE":"５５０巷","ALLEY":"１７弄","HOUSE_NO":"１號五樓之３","E_COORD97":164984.54000000001,"N_COORD97":2544425.3500000001,"ADDRESS":"安平路５５０巷１７弄１號五樓之３","OBJECTID":8420},"geometry":{"x":164984.54000000097,"y":2544425.3500000015}},{"attributes":{"ID":8421,"DIS_CODE":0,"TOWNNAME":"安平區","LI":"平安里","LIN":"13鄰","STREET":"安平路","SECT":" ","MAREA":" ","LANE":"５５０巷","ALLEY":"１７弄","HOUSE_NO":"１號五樓之４","E_COORD97":164984.54000000001,"N_COORD97":2544425.3500000001,"ADDRESS":"安平路５５０巷１７弄１號五樓之４","OBJECTID":8421},"geometry":{"x":164984.54000000097,"y":2544425.3500000015}},{"attributes":{"ID":8422,"DIS_CODE":0,"TOWNNAME":"安平區","LI":"平安里","LIN":"13鄰","STREET":"安平路","SECT":" ","MAREA":" ","LANE":"５５０巷","ALLEY":"１７弄","HOUSE_NO":"１號五樓之５","E_COORD97":164984.54000000001,"N_COORD97":2544425.3500000001,"ADDRESS":"安平路５５０巷１７弄１號五樓之５","OBJECTID":8422},"geometry":{"x":164984.54000000097,"y":2544425.3500000015}},{"attributes":{"ID":8423,"DIS_CODE":0,"TOWNNAME":"安平區","LI":"平安里","LIN":"13鄰","STREET":"安平路","SECT":" ","MAREA":" ","LANE":"５５０巷","ALLEY":"１７弄","HOUSE_NO":"１號六樓之１","E_COORD97":164984.54000000001,"N_COORD97":2544425.3500000001,"ADDRESS":"安平路５５０巷１７弄１號六樓之１","OBJECTID":8423},"geometry":{"x":164984.54000000097,"y":2544425.3500000015}},{"attributes":{"ID":8424,"DIS_CODE":0,"TOWNNAME":"安平區","LI":"平安里","LIN":"13鄰","STREET":"安平路","SECT":" ","MAREA":" ","LANE":"５５０巷","ALLEY":"１７弄","HOUSE_NO":"１號六樓之２","E_COORD97":164984.54000000001,"N_COORD97":2544425.3500000001,"ADDRESS":"安平路５５０巷１７弄１號六樓之２","OBJECTID":8424},"geometry":{"x":164984.54000000097,"y":2544425.3500000015}},{"attributes":{"ID":8425,"DIS_CODE":0,"TOWNNAME":"安平區","LI":"平安里","LIN":"13鄰","STREET":"安平路","SECT":" ","MAREA":" ","LANE":"５５０巷","ALLEY":"１７弄","HOUSE_NO":"１號六樓之３","E_COORD97":164984.54000000001,"N_COORD97":2544425.3500000001,"ADDRESS":"安平路５５０巷１７弄１號六樓之３","OBJECTID":8425},"geometry":{"x":164984.54000000097,"y":2544425.3500000015}},{"attributes":{"ID":8426,"DIS_CODE":0,"TOWNNAME":"安平區","LI":"平安里","LIN":"13鄰","STREET":"安平路","SECT":" ","MAREA":" ","LANE":"５５０巷","ALLEY":"１７弄","HOUSE_NO":"１號六樓之４","E_COORD97":164984.54000000001,"N_COORD97":2544425.3500000001,"ADDRESS":"安平路５５０巷１７弄１號六樓之４","OBJECTID":8426},"geometry":{"x":164984.54000000097,"y":2544425.3500000015}},{"attributes":{"ID":8427,"DIS_CODE":0,"TOWNNAME":"安平區","LI":"平安里","LIN":"13鄰","STREET":"安平路","SECT":" ","MAREA":" ","LANE":"５５０巷","ALLEY":"１７弄","HOUSE_NO":"１號六樓之５","E_COORD97":164984.54000000001,"N_COORD97":2544425.3500000001,"ADDRESS":"安平路５５０巷１７弄１號六樓之５","OBJECTID":8427},"geometry":{"x":164984.54000000097,"y":2544425.3500000015}},{"attributes":{"ID":8428,"DIS_CODE":0,"TOWNNAME":"安平區","LI":"平安里","LIN":"13鄰","STREET":"安平路","SECT":" ","MAREA":" ","LANE":"５５０巷","ALLEY":"１７弄","HOUSE_NO":"１號四樓","E_COORD97":164984.54000000001,"N_COORD97":2544425.3500000001,"ADDRESS":"安平路５５０巷１７弄１號四樓","OBJECTID":8428},"geometry":{"x":164984.54000000097,"y":2544425.3500000015}},{"attributes":{"ID":8429,"DIS_CODE":0,"TOWNNAME":"安平區","LI":"平安里","LIN":"13鄰","STREET":"安平路","SECT":" ","MAREA":" ","LANE":"５５０巷","ALLEY":"１７弄","HOUSE_NO":"１號四樓之１","E_COORD97":164984.54000000001,"N_COORD97":2544425.3500000001,"ADDRESS":"安平路５５０巷１７弄１號四樓之１","OBJECTID":8429},"geometry":{"x":164984.54000000097,"y":2544425.3500000015}},{"attributes":{"ID":8430,"DIS_CODE":0,"TOWNNAME":"安平區","LI":"平安里","LIN":"13鄰","STREET":"安平路","SECT":" ","MAREA":" ","LANE":"５５０巷","ALLEY":"１７弄","HOUSE_NO":"１號四樓之２","E_COORD97":164984.54000000001,"N_COORD97":2544425.3500000001,"ADDRESS":"安平路５５０巷１７弄１號四樓之２","OBJECTID":8430},"geometry":{"x":164984.54000000097,"y":2544425.3500000015}},{"attributes":{"ID":8431,"DIS_CODE":0,"TOWNNAME":"安平區","LI":"平安里","LIN":"13鄰","STREET":"安平路","SECT":" ","MAREA":" ","LANE":"５５０巷","ALLEY":"１７弄","HOUSE_NO":"１號四樓之３","E_COORD97":164984.54000000001,"N_COORD97":2544425.3500000001,"ADDRESS":"安平路５５０巷１７弄１號四樓之３","OBJECTID":8431},"geometry":{"x":164984.54000000097,"y":2544425.3500000015}},{"attributes":{"ID":8432,"DIS_CODE":0,"TOWNNAME":"安平區","LI":"平安里","LIN":"13鄰","STREET":"安平路","SECT":" ","MAREA":" ","LANE":"５５０巷","ALLEY":"１７弄","HOUSE_NO":"１號四樓之３之１","E_COORD97":164984.54000000001,"N_COORD97":2544425.3500000001,"ADDRESS":"安平路５５０巷１７弄１號四樓之３之１","OBJECTID":8432},"geometry":{"x":164984.54000000097,"y":2544425.3500000015}},{"attributes":{"ID":8433,"DIS_CODE":0,"TOWNNAME":"安平區","LI":"平安里","LIN":"13鄰","STREET":"安平路","SECT":" ","MAREA":" ","LANE":"５５０巷","ALLEY":"１７弄","HOUSE_NO":"１號四樓之５","E_COORD97":164984.54000000001,"N_COORD97":2544425.3500000001,"ADDRESS":"安平路５５０巷１７弄１號四樓之５","OBJECTID":8433},"geometry":{"x":164984.54000000097,"y":2544425.3500000015}},{"attributes":{"ID":8434,"DIS_CODE":0,"TOWNNAME":"安平區","LI":"平安里","LIN":"13鄰","STREET":"安平路","SECT":" ","MAREA":" ","LANE":"５５０巷","ALLEY":"１７弄","HOUSE_NO":"２號二樓","E_COORD97":164998.64000000001,"N_COORD97":2544436.3399999999,"ADDRESS":"安平路５５０巷１７弄２號二樓","OBJECTID":8434},"geometry":{"x":164998.6400000006,"y":2544436.3400000017}},{"attributes":{"ID":8435,"DIS_CODE":0,"TOWNNAME":"安平區","LI":"平安里","LIN":"13鄰","STREET":"安平路","SECT":" ","MAREA":" ","LANE":"５５０巷","ALLEY":"１７弄","HOUSE_NO":"２號四樓","E_COORD97":164998.64000000001,"N_COORD97":2544436.3399999999,"ADDRESS":"安平路５５０巷１７弄２號四樓","OBJECTID":8435},"geometry":{"x":164998.6400000006,"y":2544436.3400000017}},{"attributes":{"ID":8436,"DIS_CODE":0,"TOWNNAME":"安平區","LI":"平安里","LIN":"13鄰","STREET":"安平路","SECT":" ","MAREA":" ","LANE":"５５０巷","ALLEY":"１７弄","HOUSE_NO":"４號二樓","E_COORD97":164992.98999999999,"N_COORD97":2544437.4900000002,"ADDRESS":"安平路５５０巷１７弄４號二樓","OBJECTID":8436},"geometry":{"x":164992.99000000115,"y":2544437.4900000002}},{"attributes":{"ID":8437,"DIS_CODE":0,"TOWNNAME":"將軍區","LI":"長沙里","LIN":"13鄰","STREET":" ","SECT":" ","MAREA":"長沙","LANE":" ","ALLEY":" ","HOUSE_NO":"１１０之１號","E_COORD97":157165.32999999999,"N_COORD97":2568658.5899999999,"ADDRESS":"長沙１１０之１號","OBJECTID":8437},"geometry":{"x":157165.33000000194,"y":2568658.5900000017}},{"attributes":{"ID":8438,"DIS_CODE":0,"TOWNNAME":"將軍區","LI":"長沙里","LIN":"13鄰","STREET":" ","SECT":" ","MAREA":"長沙","LANE":" ","ALLEY":" ","HOUSE_NO":"１１０之２號","E_COORD97":157165.51999999999,"N_COORD97":2568662.3700000001,"ADDRESS":"長沙１１０之２號","OBJECTID":8438},"geometry":{"x":157165.52000000048,"y":2568662.3700000029}},{"attributes":{"ID":8439,"DIS_CODE":0,"TOWNNAME":"將軍區","LI":"長沙里","LIN":"13鄰","STREET":" ","SECT":" ","MAREA":"長沙","LANE":" ","ALLEY":" ","HOUSE_NO":"１１０號","E_COORD97":157162.09,"N_COORD97":2568652.1200000001,"ADDRESS":"長沙１１０號","OBJECTID":8439},"geometry":{"x":157162.09000000078,"y":2568652.1200000048}},{"attributes":{"ID":8440,"DIS_CODE":0,"TOWNNAME":"將軍區","LI":"長沙里","LIN":"13鄰","STREET":" ","SECT":" ","MAREA":"長沙","LANE":" ","ALLEY":" ","HOUSE_NO":"１１１之１號","E_COORD97":157166.82999999999,"N_COORD97":2568674.71,"ADDRESS":"長沙１１１之１號","OBJECTID":8440},"geometry":{"x":157166.83000000007,"y":2568674.7100000009}},{"attributes":{"ID":8441,"DIS_CODE":0,"TOWNNAME":"將軍區","LI":"長沙里","LIN":"13鄰","STREET":" ","SECT":" ","MAREA":"長沙","LANE":" ","ALLEY":" ","HOUSE_NO":"１１１之２號","E_COORD97":157168.01999999999,"N_COORD97":2568678.3500000001,"ADDRESS":"長沙１１１之２號","OBJECTID":8441},"geometry":{"x":157168.01999999955,"y":2568678.3499999996}},{"attributes":{"ID":8442,"DIS_CODE":0,"TOWNNAME":"將軍區","LI":"長沙里","LIN":"13鄰","STREET":" ","SECT":" ","MAREA":"長沙","LANE":" ","ALLEY":" ","HOUSE_NO":"１１３號","E_COORD97":157171.31,"N_COORD97":2568699.7000000002,"ADDRESS":"長沙１１３號","OBJECTID":8442},"geometry":{"x":157171.30999999959,"y":2568699.6999999993}},{"attributes":{"ID":8443,"DIS_CODE":0,"TOWNNAME":"將軍區","LI":"長沙里","LIN":"13鄰","STREET":" ","SECT":" ","MAREA":"長沙","LANE":" ","ALLEY":" ","HOUSE_NO":"１１４號","E_COORD97":157173.67000000001,"N_COORD97":2568713.6299999999,"ADDRESS":"長沙１１４號","OBJECTID":8443},"geometry":{"x":157173.67000000086,"y":2568713.629999999}},{"attributes":{"ID":8444,"DIS_CODE":0,"TOWNNAME":"白河區","LI":"庄內里","LIN":"13鄰","STREET":" ","SECT":" ","MAREA":"客庄內","LANE":" ","ALLEY":" ","HOUSE_NO":"８４之６號","E_COORD97":190740.31,"N_COORD97":2583667.21,"ADDRESS":"客庄內８４之６號","OBJECTID":8444},"geometry":{"x":190740.31000000052,"y":2583667.209999999}},{"attributes":{"ID":8445,"DIS_CODE":0,"TOWNNAME":"白河區","LI":"庄內里","LIN":"13鄰","STREET":" ","SECT":" ","MAREA":"客庄內","LANE":" ","ALLEY":" ","HOUSE_NO":"８９號","E_COORD97":190850.01999999999,"N_COORD97":2583647.1200000001,"ADDRESS":"客庄內８９號","OBJECTID":8445},"geometry":{"x":190850.01999999955,"y":2583647.120000001}},{"attributes":{"ID":8446,"DIS_CODE":0,"TOWNNAME":"白河區","LI":"玉豐里","LIN":"13鄰","STREET":" ","SECT":" ","MAREA":"海豐厝","LANE":" ","ALLEY":" ","HOUSE_NO":"１２７之２號","E_COORD97":190220.60000000001,"N_COORD97":2586144.1200000001,"ADDRESS":"海豐厝１２７之２號","OBJECTID":8446},"geometry":{"x":190220.59999999963,"y":2586144.1200000029}},{"attributes":{"ID":8447,"DIS_CODE":0,"TOWNNAME":"白河區","LI":"玉豐里","LIN":"13鄰","STREET":" ","SECT":" ","MAREA":"海豐厝","LANE":" ","ALLEY":" ","HOUSE_NO":"１２７之３號","E_COORD97":190234.37,"N_COORD97":2586152.8100000001,"ADDRESS":"海豐厝１２７之３號","OBJECTID":8447},"geometry":{"x":190234.37000000011,"y":2586152.8100000024}},{"attributes":{"ID":8448,"DIS_CODE":0,"TOWNNAME":"鹽水區","LI":"歡雅里","LIN":"13鄰","STREET":" ","SECT":" ","MAREA":"尾寮","LANE":" ","ALLEY":" ","HOUSE_NO":"７３號","E_COORD97":172069.07000000001,"N_COORD97":2576468.7400000002,"ADDRESS":"尾寮７３號","OBJECTID":8448},"geometry":{"x":172069.0700000003,"y":2576468.7400000039}},{"attributes":{"ID":8449,"DIS_CODE":0,"TOWNNAME":"白河區","LI":"玉豐里","LIN":"13鄰","STREET":" ","SECT":" ","MAREA":"海豐厝","LANE":" ","ALLEY":" ","HOUSE_NO":"１２７之５號","E_COORD97":190207.13,"N_COORD97":2586150.8300000001,"ADDRESS":"海豐厝１２７之５號","OBJECTID":8449},"geometry":{"x":190207.12999999989,"y":2586150.8300000038}},{"attributes":{"ID":8450,"DIS_CODE":0,"TOWNNAME":"白河區","LI":"玉豐里","LIN":"13鄰","STREET":" ","SECT":" ","MAREA":"海豐厝","LANE":" ","ALLEY":" ","HOUSE_NO":"１２７之７號","E_COORD97":190198.32999999999,"N_COORD97":2586131.54,"ADDRESS":"海豐厝１２７之７號","OBJECTID":8450},"geometry":{"x":190198.33000000101,"y":2586131.5400000028}},{"attributes":{"ID":8451,"DIS_CODE":0,"TOWNNAME":"白河區","LI":"玉豐里","LIN":"13鄰","STREET":" ","SECT":" ","MAREA":"海豐厝","LANE":" ","ALLEY":" ","HOUSE_NO":"１２７號","E_COORD97":190219.07000000001,"N_COORD97":2586127.0699999998,"ADDRESS":"海豐厝１２７號","OBJECTID":8451},"geometry":{"x":190219.07000000123,"y":2586127.0700000022}},{"attributes":{"ID":8452,"DIS_CODE":0,"TOWNNAME":"白河區","LI":"玉豐里","LIN":"13鄰","STREET":" ","SECT":" ","MAREA":"海豐厝","LANE":" ","ALLEY":" ","HOUSE_NO":"１２９號","E_COORD97":190273.75,"N_COORD97":2586077.2999999998,"ADDRESS":"海豐厝１２９號","OBJECTID":8452},"geometry":{"x":190273.75,"y":2586077.3000000045}},{"attributes":{"ID":8453,"DIS_CODE":0,"TOWNNAME":"白河區","LI":"玉豐里","LIN":"13鄰","STREET":" ","SECT":" ","MAREA":"海豐厝","LANE":" ","ALLEY":" ","HOUSE_NO":"１３０號","E_COORD97":190283.91,"N_COORD97":2586074.29,"ADDRESS":"海豐厝１３０號","OBJECTID":8453},"geometry":{"x":190283.91000000108,"y":2586074.2899999991}},{"attributes":{"ID":8454,"DIS_CODE":0,"TOWNNAME":"白河區","LI":"玉豐里","LIN":"13鄰","STREET":" ","SECT":" ","MAREA":"海豐厝","LANE":" ","ALLEY":" ","HOUSE_NO":"１３１號","E_COORD97":190296.75,"N_COORD97":2586101.04,"ADDRESS":"海豐厝１３１號","OBJECTID":8454},"geometry":{"x":190296.75000000093,"y":2586101.0400000028}},{"attributes":{"ID":8455,"DIS_CODE":0,"TOWNNAME":"白河區","LI":"玉豐里","LIN":"13鄰","STREET":" ","SECT":" ","MAREA":"海豐厝","LANE":" ","ALLEY":" ","HOUSE_NO":"１３６號","E_COORD97":190274.98000000001,"N_COORD97":2586167.7799999998,"ADDRESS":"海豐厝１３６號","OBJECTID":8455},"geometry":{"x":190274.97999999952,"y":2586167.7800000012}},{"attributes":{"ID":8456,"DIS_CODE":0,"TOWNNAME":"白河區","LI":"玉豐里","LIN":"13鄰","STREET":" ","SECT":" ","MAREA":"海豐厝","LANE":" ","ALLEY":" ","HOUSE_NO":"１３７號","E_COORD97":190314.07999999999,"N_COORD97":2586152.3300000001,"ADDRESS":"海豐厝１３７號","OBJECTID":8456},"geometry":{"x":190314.08000000007,"y":2586152.3300000019}},{"attributes":{"ID":8457,"DIS_CODE":0,"TOWNNAME":"白河區","LI":"玉豐里","LIN":"13鄰","STREET":" ","SECT":" ","MAREA":"海豐厝","LANE":" ","ALLEY":" ","HOUSE_NO":"１３８號","E_COORD97":190287.42000000001,"N_COORD97":2586188.2999999998,"ADDRESS":"海豐厝１３８號","OBJECTID":8457},"geometry":{"x":190287.42000000086,"y":2586188.3000000007}},{"attributes":{"ID":8458,"DIS_CODE":0,"TOWNNAME":"白河區","LI":"玉豐里","LIN":"13鄰","STREET":" ","SECT":" ","MAREA":"海豐厝","LANE":" ","ALLEY":" ","HOUSE_NO":"１３９號","E_COORD97":190336.29000000001,"N_COORD97":2586204.7400000002,"ADDRESS":"海豐厝１３９號","OBJECTID":8458},"geometry":{"x":190336.29000000004,"y":2586204.7400000002}},{"attributes":{"ID":8459,"DIS_CODE":0,"TOWNNAME":"白河區","LI":"玉豐里","LIN":"13鄰","STREET":" ","SECT":" ","MAREA":"海豐厝","LANE":" ","ALLEY":" ","HOUSE_NO":"１４０號","E_COORD97":190346.01000000001,"N_COORD97":2586219.1099999999,"ADDRESS":"海豐厝１４０號","OBJECTID":8459},"geometry":{"x":190346.01000000071,"y":2586219.1099999994}},{"attributes":{"ID":8460,"DIS_CODE":0,"TOWNNAME":"白河區","LI":"玉豐里","LIN":"13鄰","STREET":" ","SECT":" ","MAREA":"海豐厝","LANE":" ","ALLEY":" ","HOUSE_NO":"１４２之１號","E_COORD97":190378.59,"N_COORD97":2586213.2000000002,"ADDRESS":"海豐厝１４２之１號","OBJECTID":8460},"geometry":{"x":190378.58999999985,"y":2586213.2000000011}},{"attributes":{"ID":8461,"DIS_CODE":0,"TOWNNAME":"白河區","LI":"玉豐里","LIN":"13鄰","STREET":" ","SECT":" ","MAREA":"海豐厝","LANE":" ","ALLEY":" ","HOUSE_NO":"１４２之３號","E_COORD97":190424.62,"N_COORD97":2586173.4100000001,"ADDRESS":"海豐厝１４２之３號","OBJECTID":8461},"geometry":{"x":190424.62000000197,"y":2586173.4100000001}},{"attributes":{"ID":8462,"DIS_CODE":0,"TOWNNAME":"白河區","LI":"玉豐里","LIN":"13鄰","STREET":" ","SECT":" ","MAREA":"海豐厝","LANE":" ","ALLEY":" ","HOUSE_NO":"１４２之５號","E_COORD97":190417,"N_COORD97":2586171.6600000001,"ADDRESS":"海豐厝１４２之５號","OBJECTID":8462},"geometry":{"x":190417.00000000186,"y":2586171.6600000001}},{"attributes":{"ID":8463,"DIS_CODE":0,"TOWNNAME":"白河區","LI":"玉豐里","LIN":"13鄰","STREET":" ","SECT":" ","MAREA":"海豐厝","LANE":" ","ALLEY":" ","HOUSE_NO":"１４２之６號","E_COORD97":190412.82999999999,"N_COORD97":2586173.8100000001,"ADDRESS":"海豐厝１４２之６號","OBJECTID":8463},"geometry":{"x":190412.83000000007,"y":2586173.8100000005}},{"attributes":{"ID":8464,"DIS_CODE":0,"TOWNNAME":"白河區","LI":"玉豐里","LIN":"13鄰","STREET":" ","SECT":" ","MAREA":"海豐厝","LANE":" ","ALLEY":" ","HOUSE_NO":"１４２號","E_COORD97":190369.01999999999,"N_COORD97":2586219.71,"ADDRESS":"海豐厝１４２號","OBJECTID":8464},"geometry":{"x":190369.02000000048,"y":2586219.7100000009}},{"attributes":{"ID":8465,"DIS_CODE":0,"TOWNNAME":"白河區","LI":"玉豐里","LIN":"13鄰","STREET":" ","SECT":" ","MAREA":"海豐厝","LANE":" ","ALLEY":" ","HOUSE_NO":"１４４之１號","E_COORD97":190395.81,"N_COORD97":2586213.9199999999,"ADDRESS":"海豐厝１４４之１號","OBJECTID":8465},"geometry":{"x":190395.81000000145,"y":2586213.9199999999}},{"attributes":{"ID":8466,"DIS_CODE":0,"TOWNNAME":"白河區","LI":"玉豐里","LIN":"13鄰","STREET":" ","SECT":" ","MAREA":"海豐厝","LANE":" ","ALLEY":" ","HOUSE_NO":"１４４號","E_COORD97":190401.76999999999,"N_COORD97":2586214.7999999998,"ADDRESS":"海豐厝１４４號","OBJECTID":8466},"geometry":{"x":190401.77000000048,"y":2586214.8000000007}},{"attributes":{"ID":8467,"DIS_CODE":0,"TOWNNAME":"白河區","LI":"玉豐里","LIN":"13鄰","STREET":" ","SECT":" ","MAREA":"海豐厝","LANE":" ","ALLEY":" ","HOUSE_NO":"１４７號","E_COORD97":190378.10999999999,"N_COORD97":2586051.8599999999,"ADDRESS":"海豐厝１４７號","OBJECTID":8467},"geometry":{"x":190378.11000000127,"y":2586051.8600000031}},{"attributes":{"ID":8468,"DIS_CODE":0,"TOWNNAME":"白河區","LI":"玉豐里","LIN":"13鄰","STREET":" ","SECT":" ","MAREA":"海豐厝","LANE":" ","ALLEY":" ","HOUSE_NO":"１６０號","E_COORD97":190281.60999999999,"N_COORD97":2585897.9399999999,"ADDRESS":"海豐厝１６０號","OBJECTID":8468},"geometry":{"x":190281.61000000127,"y":2585897.9399999995}},{"attributes":{"ID":8469,"DIS_CODE":0,"TOWNNAME":"白河區","LI":"玉豐里","LIN":"13鄰","STREET":" ","SECT":" ","MAREA":"海豐厝","LANE":" ","ALLEY":" ","HOUSE_NO":"１６１號","E_COORD97":190222.51999999999,"N_COORD97":2585881.2000000002,"ADDRESS":"海豐厝１６１號","OBJECTID":8469},"geometry":{"x":190222.51999999955,"y":2585881.2000000011}},{"attributes":{"ID":8470,"DIS_CODE":0,"TOWNNAME":"白河區","LI":"竹門里","LIN":"13鄰","STREET":" ","SECT":" ","MAREA":"番子園","LANE":" ","ALLEY":" ","HOUSE_NO":"１１號","E_COORD97":192368.75,"N_COORD97":2586561.79,"ADDRESS":"番子園１１號","OBJECTID":8470},"geometry":{"x":192368.75000000093,"y":2586561.790000001}},{"attributes":{"ID":8471,"DIS_CODE":0,"TOWNNAME":"白河區","LI":"竹門里","LIN":"13鄰","STREET":" ","SECT":" ","MAREA":"番子園","LANE":" ","ALLEY":" ","HOUSE_NO":"１２號","E_COORD97":192407.20000000001,"N_COORD97":2586590.9399999999,"ADDRESS":"番子園１２號","OBJECTID":8471},"geometry":{"x":192407.20000000019,"y":2586590.9400000013}},{"attributes":{"ID":8472,"DIS_CODE":0,"TOWNNAME":"白河區","LI":"竹門里","LIN":"13鄰","STREET":" ","SECT":" ","MAREA":"番子園","LANE":" ","ALLEY":" ","HOUSE_NO":"１３號","E_COORD97":192371.10999999999,"N_COORD97":2586592.6499999999,"ADDRESS":"番子園１３號","OBJECTID":8472},"geometry":{"x":192371.1100000022,"y":2586592.6500000004}},{"attributes":{"ID":8473,"DIS_CODE":0,"TOWNNAME":"白河區","LI":"竹門里","LIN":"13鄰","STREET":" ","SECT":" ","MAREA":"番子園","LANE":" ","ALLEY":" ","HOUSE_NO":"１４號","E_COORD97":192385.31,"N_COORD97":2586605.0800000001,"ADDRESS":"番子園１４號","OBJECTID":8473},"geometry":{"x":192385.30999999959,"y":2586605.0800000019}},{"attributes":{"ID":8474,"DIS_CODE":0,"TOWNNAME":"白河區","LI":"竹門里","LIN":"13鄰","STREET":" ","SECT":" ","MAREA":"番子園","LANE":" ","ALLEY":" ","HOUSE_NO":"１７之１２號","E_COORD97":191399.09,"N_COORD97":2586112.8900000001,"ADDRESS":"番子園１７之１２號","OBJECTID":8474},"geometry":{"x":191399.08999999985,"y":2586112.8900000006}},{"attributes":{"ID":8475,"DIS_CODE":0,"TOWNNAME":"白河區","LI":"竹門里","LIN":"13鄰","STREET":" ","SECT":" ","MAREA":"番子園","LANE":" ","ALLEY":" ","HOUSE_NO":"１７之１號","E_COORD97":191716.60000000001,"N_COORD97":2586088.8199999998,"ADDRESS":"番子園１７之１號","OBJECTID":8475},"geometry":{"x":191716.60000000056,"y":2586088.8200000003}},{"attributes":{"ID":8476,"DIS_CODE":0,"TOWNNAME":"白河區","LI":"竹門里","LIN":"13鄰","STREET":" ","SECT":" ","MAREA":"番子園","LANE":" ","ALLEY":" ","HOUSE_NO":"１７之２號","E_COORD97":191711.04999999999,"N_COORD97":2586053.6600000001,"ADDRESS":"番子園１７之２號","OBJECTID":8476},"geometry":{"x":191711.04999999981,"y":2586053.6599999983}},{"attributes":{"ID":8477,"DIS_CODE":0,"TOWNNAME":"白河區","LI":"竹門里","LIN":"13鄰","STREET":" ","SECT":" ","MAREA":"番子園","LANE":" ","ALLEY":" ","HOUSE_NO":"１８之１１號","E_COORD97":191733.23000000001,"N_COORD97":2586023.5499999998,"ADDRESS":"番子園１８之１１號","OBJECTID":8477},"geometry":{"x":191733.23000000138,"y":2586023.5500000007}},{"attributes":{"ID":8478,"DIS_CODE":0,"TOWNNAME":"白河區","LI":"竹門里","LIN":"13鄰","STREET":" ","SECT":" ","MAREA":"番子園","LANE":" ","ALLEY":" ","HOUSE_NO":"５號","E_COORD97":192420.67000000001,"N_COORD97":2586426.3100000001,"ADDRESS":"番子園５號","OBJECTID":8478},"geometry":{"x":192420.66999999993,"y":2586426.3100000042}},{"attributes":{"ID":8479,"DIS_CODE":0,"TOWNNAME":"白河區","LI":"竹門里","LIN":"13鄰","STREET":" ","SECT":" ","MAREA":"番子園","LANE":" ","ALLEY":" ","HOUSE_NO":"１８之１７號","E_COORD97":191728.10000000001,"N_COORD97":2586007.3799999999,"ADDRESS":"番子園１８之１７號","OBJECTID":8479},"geometry":{"x":191728.10000000056,"y":2586007.3800000008}},{"attributes":{"ID":8480,"DIS_CODE":0,"TOWNNAME":"白河區","LI":"竹門里","LIN":"13鄰","STREET":" ","SECT":" ","MAREA":"番子園","LANE":" ","ALLEY":" ","HOUSE_NO":"１８之１９號","E_COORD97":191725.73000000001,"N_COORD97":2585998.5600000001,"ADDRESS":"番子園１８之１９號","OBJECTID":8480},"geometry":{"x":191725.73000000045,"y":2585998.5600000024}},{"attributes":{"ID":8481,"DIS_CODE":0,"TOWNNAME":"白河區","LI":"竹門里","LIN":"13鄰","STREET":" ","SECT":" ","MAREA":"番子園","LANE":" ","ALLEY":" ","HOUSE_NO":"１８之１號","E_COORD97":191737.10000000001,"N_COORD97":2586042.04,"ADDRESS":"番子園１８之１號","OBJECTID":8481},"geometry":{"x":191737.10000000056,"y":2586042.0399999991}},{"attributes":{"ID":8482,"DIS_CODE":0,"TOWNNAME":"白河區","LI":"竹門里","LIN":"13鄰","STREET":" ","SECT":" ","MAREA":"番子園","LANE":" ","ALLEY":" ","HOUSE_NO":"１８之２５號","E_COORD97":191715.51999999999,"N_COORD97":2585986.02,"ADDRESS":"番子園１８之２５號","OBJECTID":8482},"geometry":{"x":191715.52000000048,"y":2585986.0199999996}},{"attributes":{"ID":8483,"DIS_CODE":0,"TOWNNAME":"左鎮區","LI":"榮和里","LIN":"13鄰","STREET":" ","SECT":" ","MAREA":"菜寮","LANE":" ","ALLEY":" ","HOUSE_NO":"６１號","E_COORD97":187306.73999999999,"N_COORD97":2551537.25,"ADDRESS":"菜寮６１號","OBJECTID":8483},"geometry":{"x":187306.74000000115,"y":2551537.2500000019}},{"attributes":{"ID":8484,"DIS_CODE":0,"TOWNNAME":"白河區","LI":"竹門里","LIN":"13鄰","STREET":" ","SECT":" ","MAREA":"番子園","LANE":" ","ALLEY":" ","HOUSE_NO":"１８之２７號","E_COORD97":191714.20000000001,"N_COORD97":2585981.9100000001,"ADDRESS":"番子園１８之２７號","OBJECTID":8484},"geometry":{"x":191714.20000000205,"y":2585981.910000002}},{"attributes":{"ID":8485,"DIS_CODE":0,"TOWNNAME":"白河區","LI":"竹門里","LIN":"13鄰","STREET":" ","SECT":" ","MAREA":"番子園","LANE":" ","ALLEY":" ","HOUSE_NO":"１８之３１號","E_COORD97":191711.51000000001,"N_COORD97":2585974.1299999999,"ADDRESS":"番子園１８之３１號","OBJECTID":8485},"geometry":{"x":191711.50999999978,"y":2585974.129999999}},{"attributes":{"ID":8486,"DIS_CODE":0,"TOWNNAME":"白河區","LI":"竹門里","LIN":"13鄰","STREET":" ","SECT":" ","MAREA":"番子園","LANE":" ","ALLEY":" ","HOUSE_NO":"１８之３３號","E_COORD97":191710.26000000001,"N_COORD97":2585970.3599999999,"ADDRESS":"番子園１８之３３號","OBJECTID":8486},"geometry":{"x":191710.26000000071,"y":2585970.3600000031}},{"attributes":{"ID":8487,"DIS_CODE":0,"TOWNNAME":"白河區","LI":"竹門里","LIN":"13鄰","STREET":" ","SECT":" ","MAREA":"番子園","LANE":" ","ALLEY":" ","HOUSE_NO":"１８之６號","E_COORD97":191814.82000000001,"N_COORD97":2586046.4700000002,"ADDRESS":"番子園１８之６號","OBJECTID":8487},"geometry":{"x":191814.8200000003,"y":2586046.4700000025}},{"attributes":{"ID":8488,"DIS_CODE":0,"TOWNNAME":"白河區","LI":"竹門里","LIN":"13鄰","STREET":" ","SECT":" ","MAREA":"番子園","LANE":" ","ALLEY":" ","HOUSE_NO":"１８之７號","E_COORD97":191734.35000000001,"N_COORD97":2586029.3500000001,"ADDRESS":"番子園１８之７號","OBJECTID":8488},"geometry":{"x":191734.34999999963,"y":2586029.3500000015}},{"attributes":{"ID":8489,"DIS_CODE":0,"TOWNNAME":"白河區","LI":"竹門里","LIN":"13鄰","STREET":" ","SECT":" ","MAREA":"番子園","LANE":" ","ALLEY":" ","HOUSE_NO":"１８號","E_COORD97":191741.04999999999,"N_COORD97":2586053.4500000002,"ADDRESS":"番子園１８號","OBJECTID":8489},"geometry":{"x":191741.05000000075,"y":2586053.4499999993}},{"attributes":{"ID":8490,"DIS_CODE":0,"TOWNNAME":"白河區","LI":"竹門里","LIN":"13鄰","STREET":" ","SECT":" ","MAREA":"番子園","LANE":" ","ALLEY":" ","HOUSE_NO":"１９之１號","E_COORD97":191723.53,"N_COORD97":2586100.7400000002,"ADDRESS":"番子園１９之１號","OBJECTID":8490},"geometry":{"x":191723.53000000026,"y":2586100.7400000039}},{"attributes":{"ID":8491,"DIS_CODE":0,"TOWNNAME":"白河區","LI":"竹門里","LIN":"13鄰","STREET":" ","SECT":" ","MAREA":"番子園","LANE":" ","ALLEY":" ","HOUSE_NO":"１９號","E_COORD97":191722.73000000001,"N_COORD97":2586095.4900000002,"ADDRESS":"番子園１９號","OBJECTID":8491},"geometry":{"x":191722.73000000231,"y":2586095.4899999984}},{"attributes":{"ID":8492,"DIS_CODE":0,"TOWNNAME":"白河區","LI":"竹門里","LIN":"13鄰","STREET":" ","SECT":" ","MAREA":"番子園","LANE":" ","ALLEY":" ","HOUSE_NO":"１之１０號","E_COORD97":192503.76000000001,"N_COORD97":2585904.9900000002,"ADDRESS":"番子園１之１０號","OBJECTID":8492},"geometry":{"x":192503.76000000071,"y":2585904.9900000002}},{"attributes":{"ID":8493,"DIS_CODE":0,"TOWNNAME":"白河區","LI":"竹門里","LIN":"13鄰","STREET":" ","SECT":" ","MAREA":"番子園","LANE":" ","ALLEY":" ","HOUSE_NO":"１之２號","E_COORD97":192438.35999999999,"N_COORD97":2586213.52,"ADDRESS":"番子園１之２號","OBJECTID":8493},"geometry":{"x":192438.36000000034,"y":2586213.5200000033}},{"attributes":{"ID":8494,"DIS_CODE":0,"TOWNNAME":"白河區","LI":"竹門里","LIN":"13鄰","STREET":" ","SECT":" ","MAREA":"番子園","LANE":" ","ALLEY":" ","HOUSE_NO":"１之８號","E_COORD97":192447.60000000001,"N_COORD97":2586037.9700000002,"ADDRESS":"番子園１之８號","OBJECTID":8494},"geometry":{"x":192447.59999999963,"y":2586037.9700000007}},{"attributes":{"ID":8495,"DIS_CODE":0,"TOWNNAME":"白河區","LI":"竹門里","LIN":"13鄰","STREET":" ","SECT":" ","MAREA":"番子園","LANE":" ","ALLEY":" ","HOUSE_NO":"１號","E_COORD97":192371.47,"N_COORD97":2586280.5,"ADDRESS":"番子園１號","OBJECTID":8495},"geometry":{"x":192371.4700000016,"y":2586280.5}},{"attributes":{"ID":8496,"DIS_CODE":0,"TOWNNAME":"白河區","LI":"竹門里","LIN":"13鄰","STREET":" ","SECT":" ","MAREA":"番子園","LANE":" ","ALLEY":" ","HOUSE_NO":"２０之１１號","E_COORD97":191798.48000000001,"N_COORD97":2586077.7599999998,"ADDRESS":"番子園２０之１１號","OBJECTID":8496},"geometry":{"x":191798.48000000045,"y":2586077.7600000016}},{"attributes":{"ID":8497,"DIS_CODE":0,"TOWNNAME":"白河區","LI":"竹門里","LIN":"13鄰","STREET":" ","SECT":" ","MAREA":"番子園","LANE":" ","ALLEY":" ","HOUSE_NO":"２０之１３號","E_COORD97":191802.39000000001,"N_COORD97":2586077.27,"ADDRESS":"番子園２０之１３號","OBJECTID":8497},"geometry":{"x":191802.39000000153,"y":2586077.2700000014}},{"attributes":{"ID":8498,"DIS_CODE":0,"TOWNNAME":"白河區","LI":"竹門里","LIN":"13鄰","STREET":" ","SECT":" ","MAREA":"番子園","LANE":" ","ALLEY":" ","HOUSE_NO":"２０之１５號","E_COORD97":191806.73000000001,"N_COORD97":2586076.5499999998,"ADDRESS":"番子園２０之１５號","OBJECTID":8498},"geometry":{"x":191806.73000000045,"y":2586076.5500000026}},{"attributes":{"ID":8499,"DIS_CODE":0,"TOWNNAME":"白河區","LI":"竹門里","LIN":"13鄰","STREET":" ","SECT":" ","MAREA":"番子園","LANE":" ","ALLEY":" ","HOUSE_NO":"２０之１７號","E_COORD97":191810.54999999999,"N_COORD97":2586075.9900000002,"ADDRESS":"番子園２０之１７號","OBJECTID":8499},"geometry":{"x":191810.55000000075,"y":2586075.9900000021}},{"attributes":{"ID":8500,"DIS_CODE":0,"TOWNNAME":"白河區","LI":"竹門里","LIN":"13鄰","STREET":" ","SECT":" ","MAREA":"番子園","LANE":" ","ALLEY":" ","HOUSE_NO":"２０之１９號","E_COORD97":191814.20999999999,"N_COORD97":2586072.3599999999,"ADDRESS":"番子園２０之１９號","OBJECTID":8500},"geometry":{"x":191814.21000000089,"y":2586072.3600000013}},{"attributes":{"ID":8501,"DIS_CODE":0,"TOWNNAME":"白河區","LI":"竹門里","LIN":"13鄰","STREET":" ","SECT":" ","MAREA":"番子園","LANE":" ","ALLEY":" ","HOUSE_NO":"２０之５號","E_COORD97":191775.34,"N_COORD97":2586089.7599999998,"ADDRESS":"番子園２０之５號","OBJECTID":8501},"geometry":{"x":191775.33999999985,"y":2586089.7599999998}},{"attributes":{"ID":8502,"DIS_CODE":0,"TOWNNAME":"白河區","LI":"竹門里","LIN":"13鄰","STREET":" ","SECT":" ","MAREA":"番子園","LANE":" ","ALLEY":" ","HOUSE_NO":"２０之７號","E_COORD97":191785.31,"N_COORD97":2586088.8599999999,"ADDRESS":"番子園２０之７號","OBJECTID":8502},"geometry":{"x":191785.30999999959,"y":2586088.8600000031}},{"attributes":{"ID":8503,"DIS_CODE":0,"TOWNNAME":"白河區","LI":"竹門里","LIN":"13鄰","STREET":" ","SECT":" ","MAREA":"番子園","LANE":" ","ALLEY":" ","HOUSE_NO":"２０之９號","E_COORD97":191794.28,"N_COORD97":2586078.2599999998,"ADDRESS":"番子園２０之９號","OBJECTID":8503},"geometry":{"x":191794.28000000119,"y":2586078.2599999998}},{"attributes":{"ID":8504,"DIS_CODE":0,"TOWNNAME":"白河區","LI":"竹門里","LIN":"13鄰","STREET":" ","SECT":" ","MAREA":"番子園","LANE":" ","ALLEY":" ","HOUSE_NO":"２０號","E_COORD97":191756.17000000001,"N_COORD97":2586079.3199999998,"ADDRESS":"番子園２０號","OBJECTID":8504},"geometry":{"x":191756.16999999993,"y":2586079.3200000003}},{"attributes":{"ID":8505,"DIS_CODE":0,"TOWNNAME":"新營區","LI":"新北里","LIN":"13鄰","STREET":"周武街","SECT":" ","MAREA":" ","LANE":"７９巷","ALLEY":"４６弄","HOUSE_NO":"１號四樓之２","E_COORD97":179296.85000000001,"N_COORD97":2579060.0800000001,"ADDRESS":"周武街７９巷４６弄１號四樓之２","OBJECTID":8505},"geometry":{"x":179296.84999999963,"y":2579060.0800000038}},{"attributes":{"ID":8506,"DIS_CODE":0,"TOWNNAME":"白河區","LI":"竹門里","LIN":"13鄰","STREET":" ","SECT":" ","MAREA":"番子園","LANE":" ","ALLEY":" ","HOUSE_NO":"２２號","E_COORD97":191757.91,"N_COORD97":2586087.7599999998,"ADDRESS":"番子園２２號","OBJECTID":8506},"geometry":{"x":191757.91000000015,"y":2586087.7600000016}},{"attributes":{"ID":8507,"DIS_CODE":0,"TOWNNAME":"白河區","LI":"竹門里","LIN":"13鄰","STREET":" ","SECT":" ","MAREA":"番子園","LANE":" ","ALLEY":" ","HOUSE_NO":"２３之１１號","E_COORD97":191497.14000000001,"N_COORD97":2586131.3700000001,"ADDRESS":"番子園２３之１１號","OBJECTID":8507},"geometry":{"x":191497.14000000153,"y":2586131.3700000048}},{"attributes":{"ID":8508,"DIS_CODE":0,"TOWNNAME":"白河區","LI":"竹門里","LIN":"13鄰","STREET":" ","SECT":" ","MAREA":"番子園","LANE":" ","ALLEY":" ","HOUSE_NO":"２３號","E_COORD97":191693.01999999999,"N_COORD97":2586094.2799999998,"ADDRESS":"番子園２３號","OBJECTID":8508},"geometry":{"x":191693.02000000048,"y":2586094.2800000012}},{"attributes":{"ID":8509,"DIS_CODE":0,"TOWNNAME":"白河區","LI":"竹門里","LIN":"13鄰","STREET":" ","SECT":" ","MAREA":"番子園","LANE":" ","ALLEY":" ","HOUSE_NO":"２４號","E_COORD97":191760.03,"N_COORD97":2586092.73,"ADDRESS":"番子園２４號","OBJECTID":8509},"geometry":{"x":191760.03000000119,"y":2586092.7300000004}},{"attributes":{"ID":8510,"DIS_CODE":0,"TOWNNAME":"白河區","LI":"竹門里","LIN":"13鄰","STREET":" ","SECT":" ","MAREA":"番子園","LANE":" ","ALLEY":" ","HOUSE_NO":"２６號","E_COORD97":191771.76000000001,"N_COORD97":2586103.4700000002,"ADDRESS":"番子園２６號","OBJECTID":8510},"geometry":{"x":191771.76000000071,"y":2586103.4700000025}},{"attributes":{"ID":8511,"DIS_CODE":0,"TOWNNAME":"白河區","LI":"竹門里","LIN":"13鄰","STREET":" ","SECT":" ","MAREA":"番子園","LANE":" ","ALLEY":" ","HOUSE_NO":"２８號","E_COORD97":191907.20999999999,"N_COORD97":2586305.27,"ADDRESS":"番子園２８號","OBJECTID":8511},"geometry":{"x":191907.21000000183,"y":2586305.2699999996}},{"attributes":{"ID":8512,"DIS_CODE":0,"TOWNNAME":"白河區","LI":"竹門里","LIN":"13鄰","STREET":" ","SECT":" ","MAREA":"番子園","LANE":" ","ALLEY":" ","HOUSE_NO":"２之１０號","E_COORD97":192302.53,"N_COORD97":2586095.1899999999,"ADDRESS":"番子園２之１０號","OBJECTID":8512},"geometry":{"x":192302.53000000119,"y":2586095.1900000013}},{"attributes":{"ID":8513,"DIS_CODE":0,"TOWNNAME":"白河區","LI":"竹門里","LIN":"13鄰","STREET":" ","SECT":" ","MAREA":"番子園","LANE":" ","ALLEY":" ","HOUSE_NO":"２之１號","E_COORD97":192323.48000000001,"N_COORD97":2586292.1800000002,"ADDRESS":"番子園２之１號","OBJECTID":8513},"geometry":{"x":192323.48000000138,"y":2586292.1800000016}},{"attributes":{"ID":8514,"DIS_CODE":0,"TOWNNAME":"白河區","LI":"竹門里","LIN":"13鄰","STREET":" ","SECT":" ","MAREA":"番子園","LANE":" ","ALLEY":" ","HOUSE_NO":"２號","E_COORD97":192293.20999999999,"N_COORD97":2586285.25,"ADDRESS":"番子園２號","OBJECTID":8514},"geometry":{"x":192293.20999999996,"y":2586285.2500000019}},{"attributes":{"ID":8515,"DIS_CODE":0,"TOWNNAME":"白河區","LI":"竹門里","LIN":"13鄰","STREET":" ","SECT":" ","MAREA":"番子園","LANE":" ","ALLEY":" ","HOUSE_NO":"５之３號","E_COORD97":192408.39999999999,"N_COORD97":2586449.4399999999,"ADDRESS":"番子園５之３號","OBJECTID":8515},"geometry":{"x":192408.4000000013,"y":2586449.4400000013}},{"attributes":{"ID":8516,"DIS_CODE":0,"TOWNNAME":"白河區","LI":"竹門里","LIN":"13鄰","STREET":" ","SECT":" ","MAREA":"番子園","LANE":" ","ALLEY":" ","HOUSE_NO":"７之１０號","E_COORD97":192369.45000000001,"N_COORD97":2586526.02,"ADDRESS":"番子園７之１０號","OBJECTID":8516},"geometry":{"x":192369.45000000019,"y":2586526.0200000014}},{"attributes":{"ID":8517,"DIS_CODE":0,"TOWNNAME":"白河區","LI":"竹門里","LIN":"13鄰","STREET":" ","SECT":" ","MAREA":"番子園","LANE":" ","ALLEY":" ","HOUSE_NO":"７之１１號","E_COORD97":192369.23000000001,"N_COORD97":2586530.4300000002,"ADDRESS":"番子園７之１１號","OBJECTID":8517},"geometry":{"x":192369.23000000138,"y":2586530.4300000016}},{"attributes":{"ID":8518,"DIS_CODE":0,"TOWNNAME":"白河區","LI":"竹門里","LIN":"13鄰","STREET":" ","SECT":" ","MAREA":"番子園","LANE":" ","ALLEY":" ","HOUSE_NO":"７之１２號","E_COORD97":192368.78,"N_COORD97":2586535.21,"ADDRESS":"番子園７之１２號","OBJECTID":8518},"geometry":{"x":192368.78000000119,"y":2586535.2100000009}},{"attributes":{"ID":8519,"DIS_CODE":0,"TOWNNAME":"白河區","LI":"竹門里","LIN":"13鄰","STREET":" ","SECT":" ","MAREA":"番子園","LANE":" ","ALLEY":" ","HOUSE_NO":"７之１３號","E_COORD97":192395.73999999999,"N_COORD97":2586505.4500000002,"ADDRESS":"番子園７之１３號","OBJECTID":8519},"geometry":{"x":192395.74000000115,"y":2586505.450000003}},{"attributes":{"ID":8520,"DIS_CODE":0,"TOWNNAME":"白河區","LI":"竹門里","LIN":"13鄰","STREET":" ","SECT":" ","MAREA":"番子園","LANE":" ","ALLEY":" ","HOUSE_NO":"７之１４號","E_COORD97":192395.57999999999,"N_COORD97":2586510.3199999998,"ADDRESS":"番子園７之１４號","OBJECTID":8520},"geometry":{"x":192395.58000000007,"y":2586510.3200000003}},{"attributes":{"ID":8521,"DIS_CODE":0,"TOWNNAME":"白河區","LI":"竹門里","LIN":"13鄰","STREET":" ","SECT":" ","MAREA":"番子園","LANE":" ","ALLEY":" ","HOUSE_NO":"７之１５號","E_COORD97":192395.32000000001,"N_COORD97":2586514.77,"ADDRESS":"番子園７之１５號","OBJECTID":8521},"geometry":{"x":192395.32000000123,"y":2586514.7700000014}},{"attributes":{"ID":8522,"DIS_CODE":0,"TOWNNAME":"白河區","LI":"竹門里","LIN":"13鄰","STREET":" ","SECT":" ","MAREA":"番子園","LANE":" ","ALLEY":" ","HOUSE_NO":"７之１６號","E_COORD97":192394.89999999999,"N_COORD97":2586519.2200000002,"ADDRESS":"番子園７之１６號","OBJECTID":8522},"geometry":{"x":192394.9000000013,"y":2586519.2200000025}},{"attributes":{"ID":8523,"DIS_CODE":0,"TOWNNAME":"白河區","LI":"竹門里","LIN":"13鄰","STREET":" ","SECT":" ","MAREA":"番子園","LANE":" ","ALLEY":" ","HOUSE_NO":"７之１７號","E_COORD97":192394.48999999999,"N_COORD97":2586523.6899999999,"ADDRESS":"番子園７之１７號","OBJECTID":8523},"geometry":{"x":192394.49000000115,"y":2586523.6899999995}},{"attributes":{"ID":8524,"DIS_CODE":0,"TOWNNAME":"白河區","LI":"竹門里","LIN":"13鄰","STREET":" ","SECT":" ","MAREA":"番子園","LANE":" ","ALLEY":" ","HOUSE_NO":"７之１８號","E_COORD97":192394.07000000001,"N_COORD97":2586528,"ADDRESS":"番子園７之１８號","OBJECTID":8524},"geometry":{"x":192394.07000000123,"y":2586528}},{"attributes":{"ID":8525,"DIS_CODE":0,"TOWNNAME":"白河區","LI":"竹門里","LIN":"13鄰","STREET":" ","SECT":" ","MAREA":"番子園","LANE":" ","ALLEY":" ","HOUSE_NO":"７之１９號","E_COORD97":192393.76000000001,"N_COORD97":2586532.71,"ADDRESS":"番子園７之１９號","OBJECTID":8525},"geometry":{"x":192393.76000000071,"y":2586532.7100000028}},{"attributes":{"ID":8526,"DIS_CODE":0,"TOWNNAME":"白河區","LI":"竹門里","LIN":"13鄰","STREET":" ","SECT":" ","MAREA":"番子園","LANE":" ","ALLEY":" ","HOUSE_NO":"７之１號","E_COORD97":192378.78,"N_COORD97":2586471.6200000001,"ADDRESS":"番子園７之１號","OBJECTID":8526},"geometry":{"x":192378.78000000119,"y":2586471.620000001}},{"attributes":{"ID":8527,"DIS_CODE":0,"TOWNNAME":"白河區","LI":"竹門里","LIN":"13鄰","STREET":" ","SECT":" ","MAREA":"番子園","LANE":" ","ALLEY":" ","HOUSE_NO":"７之２０號","E_COORD97":192393.57999999999,"N_COORD97":2586537.1000000001,"ADDRESS":"番子園７之２０號","OBJECTID":8527},"geometry":{"x":192393.58000000101,"y":2586537.0999999996}},{"attributes":{"ID":8528,"DIS_CODE":0,"TOWNNAME":"白河區","LI":"竹門里","LIN":"13鄰","STREET":" ","SECT":" ","MAREA":"番子園","LANE":" ","ALLEY":" ","HOUSE_NO":"７之２號","E_COORD97":192376.85000000001,"N_COORD97":2586493.2400000002,"ADDRESS":"番子園７之２號","OBJECTID":8528},"geometry":{"x":192376.84999999963,"y":2586493.2400000002}},{"attributes":{"ID":8529,"DIS_CODE":0,"TOWNNAME":"白河區","LI":"竹門里","LIN":"13鄰","STREET":" ","SECT":" ","MAREA":"番子園","LANE":" ","ALLEY":" ","HOUSE_NO":"７之３號","E_COORD97":192374.92000000001,"N_COORD97":2586498.0600000001,"ADDRESS":"番子園７之３號","OBJECTID":8529},"geometry":{"x":192374.91999999993,"y":2586498.0600000005}},{"attributes":{"ID":8530,"DIS_CODE":0,"TOWNNAME":"白河區","LI":"竹門里","LIN":"13鄰","STREET":" ","SECT":" ","MAREA":"番子園","LANE":" ","ALLEY":" ","HOUSE_NO":"７之５號","E_COORD97":192370.57000000001,"N_COORD97":2586502.8900000001,"ADDRESS":"番子園７之５號","OBJECTID":8530},"geometry":{"x":192370.5700000003,"y":2586502.8900000006}},{"attributes":{"ID":8531,"DIS_CODE":0,"TOWNNAME":"白河區","LI":"竹門里","LIN":"13鄰","STREET":" ","SECT":" ","MAREA":"番子園","LANE":" ","ALLEY":" ","HOUSE_NO":"７之６號","E_COORD97":192370.35000000001,"N_COORD97":2586507.6800000002,"ADDRESS":"番子園７之６號","OBJECTID":8531},"geometry":{"x":192370.35000000149,"y":2586507.6800000034}},{"attributes":{"ID":8532,"DIS_CODE":0,"TOWNNAME":"白河區","LI":"竹門里","LIN":"13鄰","STREET":" ","SECT":" ","MAREA":"番子園","LANE":" ","ALLEY":" ","HOUSE_NO":"７之８號","E_COORD97":192369.97,"N_COORD97":2586516.7999999998,"ADDRESS":"番子園７之８號","OBJECTID":8532},"geometry":{"x":192369.97000000067,"y":2586516.8000000007}},{"attributes":{"ID":8533,"DIS_CODE":0,"TOWNNAME":"白河區","LI":"竹門里","LIN":"13鄰","STREET":" ","SECT":" ","MAREA":"番子園","LANE":" ","ALLEY":" ","HOUSE_NO":"７之９號","E_COORD97":192369.75,"N_COORD97":2586521.3599999999,"ADDRESS":"番子園７之９號","OBJECTID":8533},"geometry":{"x":192369.75000000186,"y":2586521.3599999994}},{"attributes":{"ID":8534,"DIS_CODE":0,"TOWNNAME":"白河區","LI":"竹門里","LIN":"13鄰","STREET":" ","SECT":" ","MAREA":"番子園","LANE":" ","ALLEY":" ","HOUSE_NO":"７號","E_COORD97":192417.48000000001,"N_COORD97":2586485.6000000001,"ADDRESS":"番子園７號","OBJECTID":8534},"geometry":{"x":192417.48000000045,"y":2586485.6000000015}},{"attributes":{"ID":8535,"DIS_CODE":0,"TOWNNAME":"白河區","LI":"竹門里","LIN":"13鄰","STREET":" ","SECT":" ","MAREA":"番子園","LANE":" ","ALLEY":" ","HOUSE_NO":"８之１號","E_COORD97":192433.73999999999,"N_COORD97":2586534.4700000002,"ADDRESS":"番子園８之１號","OBJECTID":8535},"geometry":{"x":192433.74000000022,"y":2586534.4700000025}},{"attributes":{"ID":8536,"DIS_CODE":0,"TOWNNAME":"白河區","LI":"竹門里","LIN":"13鄰","STREET":" ","SECT":" ","MAREA":"番子園","LANE":" ","ALLEY":" ","HOUSE_NO":"８號","E_COORD97":192430.78,"N_COORD97":2586505.7599999998,"ADDRESS":"番子園８號","OBJECTID":8536},"geometry":{"x":192430.77999999933,"y":2586505.7599999998}},{"attributes":{"ID":8537,"DIS_CODE":0,"TOWNNAME":"白河區","LI":"竹門里","LIN":"13鄰","STREET":" ","SECT":" ","MAREA":"番子園","LANE":" ","ALLEY":" ","HOUSE_NO":"９號","E_COORD97":192360.42000000001,"N_COORD97":2586511.6600000001,"ADDRESS":"番子園９號","OBJECTID":8537},"geometry":{"x":192360.42000000086,"y":2586511.6600000039}},{"attributes":{"ID":8538,"DIS_CODE":0,"TOWNNAME":"安定區","LI":"海寮里","LIN":"13鄰","STREET":" ","SECT":" ","MAREA":"海寮","LANE":" ","ALLEY":" ","HOUSE_NO":"１２６號之３０","E_COORD97":168983.67999999999,"N_COORD97":2555253.2999999998,"ADDRESS":"海寮１２６號之３０","OBJECTID":8538},"geometry":{"x":168983.68000000063,"y":2555253.3000000026}},{"attributes":{"ID":8539,"DIS_CODE":0,"TOWNNAME":"安定區","LI":"蘇林里","LIN":"13鄰","STREET":" ","SECT":" ","MAREA":"蘇厝","LANE":" ","ALLEY":" ","HOUSE_NO":"１４８號之３","E_COORD97":173469.25,"N_COORD97":2558892.2999999998,"ADDRESS":"蘇厝１４８號之３","OBJECTID":8539},"geometry":{"x":173469.25,"y":2558892.3000000007}},{"attributes":{"ID":8540,"DIS_CODE":0,"TOWNNAME":"安定區","LI":"港口里","LIN":"13鄰","STREET":" ","SECT":" ","MAREA":"港口","LANE":" ","ALLEY":" ","HOUSE_NO":"３４５之２１號","E_COORD97":171156.94,"N_COORD97":2554677.2999999998,"ADDRESS":"港口３４５之２１號","OBJECTID":8540},"geometry":{"x":171156.94000000227,"y":2554677.3000000007}},{"attributes":{"ID":8541,"DIS_CODE":0,"TOWNNAME":"安定區","LI":"港尾里","LIN":"13鄰","STREET":" ","SECT":" ","MAREA":"港子尾","LANE":" ","ALLEY":" ","HOUSE_NO":"７７號","E_COORD97":171389.29000000001,"N_COORD97":2556042.2599999998,"ADDRESS":"港子尾７７號","OBJECTID":8541},"geometry":{"x":171389.29000000004,"y":2556042.2600000016}},{"attributes":{"ID":8542,"DIS_CODE":0,"TOWNNAME":"將軍區","LI":"長榮里","LIN":"13鄰","STREET":" ","SECT":" ","MAREA":"長榮","LANE":" ","ALLEY":" ","HOUSE_NO":"２０８號","E_COORD97":163810.04999999999,"N_COORD97":2566030.21,"ADDRESS":"長榮２０８號","OBJECTID":8542},"geometry":{"x":163810.04999999981,"y":2566030.2100000009}},{"attributes":{"ID":8543,"DIS_CODE":0,"TOWNNAME":"將軍區","LI":"長榮里","LIN":"13鄰","STREET":" ","SECT":" ","MAREA":"長榮","LANE":" ","ALLEY":" ","HOUSE_NO":"１９４號","E_COORD97":163714.26000000001,"N_COORD97":2566052.6200000001,"ADDRESS":"長榮１９４號","OBJECTID":8543},"geometry":{"x":163714.26000000071,"y":2566052.6200000029}},{"attributes":{"ID":8544,"DIS_CODE":0,"TOWNNAME":"將軍區","LI":"長榮里","LIN":"13鄰","STREET":" ","SECT":" ","MAREA":"長榮","LANE":" ","ALLEY":" ","HOUSE_NO":"１９５之１０號","E_COORD97":163760.76999999999,"N_COORD97":2566062.25,"ADDRESS":"長榮１９５之１０號","OBJECTID":8544},"geometry":{"x":163760.76999999955,"y":2566062.25}},{"attributes":{"ID":8545,"DIS_CODE":0,"TOWNNAME":"將軍區","LI":"長榮里","LIN":"13鄰","STREET":" ","SECT":" ","MAREA":"長榮","LANE":" ","ALLEY":" ","HOUSE_NO":"１９５之１１號","E_COORD97":163767.06,"N_COORD97":2566062.7200000002,"ADDRESS":"長榮１９５之１１號","OBJECTID":8545},"geometry":{"x":163767.05999999959,"y":2566062.7200000007}},{"attributes":{"ID":8546,"DIS_CODE":0,"TOWNNAME":"將軍區","LI":"長榮里","LIN":"13鄰","STREET":" ","SECT":" ","MAREA":"長榮","LANE":" ","ALLEY":" ","HOUSE_NO":"１９５之６號","E_COORD97":163733.32000000001,"N_COORD97":2566061.3100000001,"ADDRESS":"長榮１９５之６號","OBJECTID":8546},"geometry":{"x":163733.32000000123,"y":2566061.3100000024}},{"attributes":{"ID":8547,"DIS_CODE":0,"TOWNNAME":"將軍區","LI":"長榮里","LIN":"13鄰","STREET":" ","SECT":" ","MAREA":"長榮","LANE":" ","ALLEY":" ","HOUSE_NO":"１９５之７號","E_COORD97":163740.07999999999,"N_COORD97":2566061.5800000001,"ADDRESS":"長榮１９５之７號","OBJECTID":8547},"geometry":{"x":163740.08000000101,"y":2566061.5800000019}},{"attributes":{"ID":8548,"DIS_CODE":0,"TOWNNAME":"將軍區","LI":"長榮里","LIN":"13鄰","STREET":" ","SECT":" ","MAREA":"長榮","LANE":" ","ALLEY":" ","HOUSE_NO":"１９５之８號","E_COORD97":163747.04999999999,"N_COORD97":2566061.6499999999,"ADDRESS":"長榮１９５之８號","OBJECTID":8548},"geometry":{"x":163747.04999999981,"y":2566061.6500000022}},{"attributes":{"ID":8549,"DIS_CODE":0,"TOWNNAME":"將軍區","LI":"長榮里","LIN":"13鄰","STREET":" ","SECT":" ","MAREA":"長榮","LANE":" ","ALLEY":" ","HOUSE_NO":"１９５之９號","E_COORD97":163753.87,"N_COORD97":2566062.3199999998,"ADDRESS":"長榮１９５之９號","OBJECTID":8549},"geometry":{"x":163753.87000000011,"y":2566062.3200000003}},{"attributes":{"ID":8550,"DIS_CODE":0,"TOWNNAME":"將軍區","LI":"長榮里","LIN":"13鄰","STREET":" ","SECT":" ","MAREA":"長榮","LANE":" ","ALLEY":" ","HOUSE_NO":"１９５號","E_COORD97":163722.42000000001,"N_COORD97":2566050.6099999999,"ADDRESS":"長榮１９５號","OBJECTID":8550},"geometry":{"x":163722.41999999993,"y":2566050.6100000013}},{"attributes":{"ID":8551,"DIS_CODE":0,"TOWNNAME":"將軍區","LI":"長榮里","LIN":"13鄰","STREET":" ","SECT":" ","MAREA":"長榮","LANE":" ","ALLEY":" ","HOUSE_NO":"１９６號","E_COORD97":163708.38,"N_COORD97":2566036.8999999999,"ADDRESS":"長榮１９６號","OBJECTID":8551},"geometry":{"x":163708.38000000082,"y":2566036.9000000022}},{"attributes":{"ID":8552,"DIS_CODE":0,"TOWNNAME":"東區","LI":"崇信里","LIN":"13鄰","STREET":"崇信街","SECT":" ","MAREA":" ","LANE":"５０巷","ALLEY":"５弄","HOUSE_NO":"５６號","E_COORD97":170706.51000000001,"N_COORD97":2542373.1299999999,"ADDRESS":"崇信街５０巷５弄５６號","OBJECTID":8552},"geometry":{"x":170706.50999999885,"y":2542373.129999999}},{"attributes":{"ID":8553,"DIS_CODE":0,"TOWNNAME":"將軍區","LI":"長榮里","LIN":"13鄰","STREET":" ","SECT":" ","MAREA":"長榮","LANE":" ","ALLEY":" ","HOUSE_NO":"２０２之１０號","E_COORD97":163781.5,"N_COORD97":2566016.2799999998,"ADDRESS":"長榮２０２之１０號","OBJECTID":8553},"geometry":{"x":163781.5,"y":2566016.2800000012}},{"attributes":{"ID":8554,"DIS_CODE":0,"TOWNNAME":"將軍區","LI":"長榮里","LIN":"13鄰","STREET":" ","SECT":" ","MAREA":"長榮","LANE":" ","ALLEY":" ","HOUSE_NO":"２０２之１１號","E_COORD97":163781.41,"N_COORD97":2566020.54,"ADDRESS":"長榮２０２之１１號","OBJECTID":8554},"geometry":{"x":163781.41000000108,"y":2566020.540000001}},{"attributes":{"ID":8555,"DIS_CODE":0,"TOWNNAME":"將軍區","LI":"長榮里","LIN":"13鄰","STREET":" ","SECT":" ","MAREA":"長榮","LANE":" ","ALLEY":" ","HOUSE_NO":"２０２之１２號","E_COORD97":163781.32000000001,"N_COORD97":2566024.79,"ADDRESS":"長榮２０２之１２號","OBJECTID":8555},"geometry":{"x":163781.3200000003,"y":2566024.7900000028}},{"attributes":{"ID":8556,"DIS_CODE":0,"TOWNNAME":"將軍區","LI":"長榮里","LIN":"13鄰","STREET":" ","SECT":" ","MAREA":"長榮","LANE":" ","ALLEY":" ","HOUSE_NO":"２０２之１３號","E_COORD97":163781.23000000001,"N_COORD97":2566029.0499999998,"ADDRESS":"長榮２０２之１３號","OBJECTID":8556},"geometry":{"x":163781.23000000138,"y":2566029.0500000026}},{"attributes":{"ID":8557,"DIS_CODE":0,"TOWNNAME":"將軍區","LI":"長榮里","LIN":"13鄰","STREET":" ","SECT":" ","MAREA":"長榮","LANE":" ","ALLEY":" ","HOUSE_NO":"２０２之１４號","E_COORD97":163781.14000000001,"N_COORD97":2566033.2999999998,"ADDRESS":"長榮２０２之１４號","OBJECTID":8557},"geometry":{"x":163781.1400000006,"y":2566033.3000000045}},{"attributes":{"ID":8558,"DIS_CODE":0,"TOWNNAME":"將軍區","LI":"長榮里","LIN":"13鄰","STREET":" ","SECT":" ","MAREA":"長榮","LANE":" ","ALLEY":" ","HOUSE_NO":"２０２之１５號","E_COORD97":163781.04999999999,"N_COORD97":2566037.5600000001,"ADDRESS":"長榮２０２之１５號","OBJECTID":8558},"geometry":{"x":163781.04999999981,"y":2566037.5600000005}},{"attributes":{"ID":8559,"DIS_CODE":0,"TOWNNAME":"將軍區","LI":"長榮里","LIN":"13鄰","STREET":" ","SECT":" ","MAREA":"長榮","LANE":" ","ALLEY":" ","HOUSE_NO":"２０２之１６號","E_COORD97":163780.95000000001,"N_COORD97":2566041.8199999998,"ADDRESS":"長榮２０２之１６號","OBJECTID":8559},"geometry":{"x":163780.95000000205,"y":2566041.8200000003}},{"attributes":{"ID":8560,"DIS_CODE":0,"TOWNNAME":"將軍區","LI":"長榮里","LIN":"13鄰","STREET":" ","SECT":" ","MAREA":"長榮","LANE":" ","ALLEY":" ","HOUSE_NO":"２０２之１７號","E_COORD97":163780.85999999999,"N_COORD97":2566046.0699999998,"ADDRESS":"長榮２０２之１７號","OBJECTID":8560},"geometry":{"x":163780.86000000034,"y":2566046.0700000022}},{"attributes":{"ID":8561,"DIS_CODE":0,"TOWNNAME":"將軍區","LI":"長榮里","LIN":"13鄰","STREET":" ","SECT":" ","MAREA":"長榮","LANE":" ","ALLEY":" ","HOUSE_NO":"２０２之１８號","E_COORD97":163780.76999999999,"N_COORD97":2566050.3300000001,"ADDRESS":"長榮２０２之１８號","OBJECTID":8561},"geometry":{"x":163780.76999999955,"y":2566050.3300000019}},{"attributes":{"ID":8562,"DIS_CODE":0,"TOWNNAME":"將軍區","LI":"長榮里","LIN":"13鄰","STREET":" ","SECT":" ","MAREA":"長榮","LANE":" ","ALLEY":" ","HOUSE_NO":"２０２之１９號","E_COORD97":163780.67999999999,"N_COORD97":2566054.5800000001,"ADDRESS":"長榮２０２之１９號","OBJECTID":8562},"geometry":{"x":163780.68000000063,"y":2566054.5800000038}},{"attributes":{"ID":8563,"DIS_CODE":0,"TOWNNAME":"將軍區","LI":"長榮里","LIN":"13鄰","STREET":" ","SECT":" ","MAREA":"長榮","LANE":" ","ALLEY":" ","HOUSE_NO":"２０２之５號","E_COORD97":163784.48999999999,"N_COORD97":2565982.3300000001,"ADDRESS":"長榮２０２之５號","OBJECTID":8563},"geometry":{"x":163784.49000000115,"y":2565982.3300000019}},{"attributes":{"ID":8564,"DIS_CODE":0,"TOWNNAME":"將軍區","LI":"長榮里","LIN":"13鄰","STREET":" ","SECT":" ","MAREA":"長榮","LANE":" ","ALLEY":" ","HOUSE_NO":"２０２之６號","E_COORD97":163781.81,"N_COORD97":2565999.5600000001,"ADDRESS":"長榮２０２之６號","OBJECTID":8564},"geometry":{"x":163781.81000000052,"y":2565999.5600000005}},{"attributes":{"ID":8565,"DIS_CODE":0,"TOWNNAME":"將軍區","LI":"長榮里","LIN":"13鄰","STREET":" ","SECT":" ","MAREA":"長榮","LANE":" ","ALLEY":" ","HOUSE_NO":"２０２之７號","E_COORD97":163781.75,"N_COORD97":2566003.9199999999,"ADDRESS":"長榮２０２之７號","OBJECTID":8565},"geometry":{"x":163781.75,"y":2566003.9199999999}},{"attributes":{"ID":8566,"DIS_CODE":0,"TOWNNAME":"將軍區","LI":"長榮里","LIN":"13鄰","STREET":" ","SECT":" ","MAREA":"長榮","LANE":" ","ALLEY":" ","HOUSE_NO":"２０２之８號","E_COORD97":163781.70000000001,"N_COORD97":2566008.29,"ADDRESS":"長榮２０２之８號","OBJECTID":8566},"geometry":{"x":163781.70000000112,"y":2566008.290000001}},{"attributes":{"ID":8567,"DIS_CODE":0,"TOWNNAME":"將軍區","LI":"長榮里","LIN":"13鄰","STREET":" ","SECT":" ","MAREA":"長榮","LANE":" ","ALLEY":" ","HOUSE_NO":"２０２之９號","E_COORD97":163781.64000000001,"N_COORD97":2566012.6499999999,"ADDRESS":"長榮２０２之９號","OBJECTID":8567},"geometry":{"x":163781.63999999966,"y":2566012.6500000004}},{"attributes":{"ID":8568,"DIS_CODE":0,"TOWNNAME":"將軍區","LI":"長榮里","LIN":"13鄰","STREET":" ","SECT":" ","MAREA":"長榮","LANE":" ","ALLEY":" ","HOUSE_NO":"２０３之２號","E_COORD97":163735.37,"N_COORD97":2566030.6000000001,"ADDRESS":"長榮２０３之２號","OBJECTID":8568},"geometry":{"x":163735.37000000011,"y":2566030.6000000015}},{"attributes":{"ID":8569,"DIS_CODE":0,"TOWNNAME":"將軍區","LI":"長榮里","LIN":"13鄰","STREET":" ","SECT":" ","MAREA":"長榮","LANE":" ","ALLEY":" ","HOUSE_NO":"２０３號","E_COORD97":163735.75,"N_COORD97":2566011.02,"ADDRESS":"長榮２０３號","OBJECTID":8569},"geometry":{"x":163735.75,"y":2566011.0200000014}},{"attributes":{"ID":8570,"DIS_CODE":0,"TOWNNAME":"將軍區","LI":"長榮里","LIN":"13鄰","STREET":" ","SECT":" ","MAREA":"長榮","LANE":" ","ALLEY":" ","HOUSE_NO":"２０６之１號","E_COORD97":163810.85000000001,"N_COORD97":2566004.1000000001,"ADDRESS":"長榮２０６之１號","OBJECTID":8570},"geometry":{"x":163810.84999999963,"y":2566004.1000000015}},{"attributes":{"ID":8571,"DIS_CODE":0,"TOWNNAME":"將軍區","LI":"長榮里","LIN":"13鄰","STREET":" ","SECT":" ","MAREA":"長榮","LANE":" ","ALLEY":" ","HOUSE_NO":"２０６號","E_COORD97":163810.48000000001,"N_COORD97":2565996.0899999999,"ADDRESS":"長榮２０６號","OBJECTID":8571},"geometry":{"x":163810.48000000138,"y":2565996.0899999999}},{"attributes":{"ID":8572,"DIS_CODE":0,"TOWNNAME":"將軍區","LI":"長榮里","LIN":"13鄰","STREET":" ","SECT":" ","MAREA":"長榮","LANE":" ","ALLEY":" ","HOUSE_NO":"２０８之３號","E_COORD97":163810.73999999999,"N_COORD97":2566043.8999999999,"ADDRESS":"長榮２０８之３號","OBJECTID":8572},"geometry":{"x":163810.74000000022,"y":2566043.9000000022}},{"attributes":{"ID":8573,"DIS_CODE":0,"TOWNNAME":"將軍區","LI":"長榮里","LIN":"13鄰","STREET":" ","SECT":" ","MAREA":"長榮","LANE":" ","ALLEY":" ","HOUSE_NO":"２１３號","E_COORD97":163789.17000000001,"N_COORD97":2566067.8300000001,"ADDRESS":"長榮２１３號","OBJECTID":8573},"geometry":{"x":163789.16999999993,"y":2566067.8300000019}},{"attributes":{"ID":8574,"DIS_CODE":0,"TOWNNAME":"新營區","LI":"新北里","LIN":"13鄰","STREET":"周武街","SECT":" ","MAREA":" ","LANE":"７９巷","ALLEY":"４６弄","HOUSE_NO":"１號一樓之１","E_COORD97":179296.72,"N_COORD97":2579060.0800000001,"ADDRESS":"周武街７９巷４６弄１號一樓之１","OBJECTID":8574},"geometry":{"x":179296.72000000067,"y":2579060.0800000038}},{"attributes":{"ID":8575,"DIS_CODE":0,"TOWNNAME":"新營區","LI":"新北里","LIN":"13鄰","STREET":"周武街","SECT":" ","MAREA":" ","LANE":"７９巷","ALLEY":"４６弄","HOUSE_NO":"１號三樓之３","E_COORD97":179296.81,"N_COORD97":2579060.0800000001,"ADDRESS":"周武街７９巷４６弄１號三樓之３","OBJECTID":8575},"geometry":{"x":179296.80999999959,"y":2579060.0800000038}},{"attributes":{"ID":8576,"DIS_CODE":0,"TOWNNAME":"新營區","LI":"新北里","LIN":"13鄰","STREET":"周武街","SECT":" ","MAREA":" ","LANE":"７９巷","ALLEY":"４６弄","HOUSE_NO":"１號五樓之４","E_COORD97":179296.73999999999,"N_COORD97":2579060.0800000001,"ADDRESS":"周武街７９巷４６弄１號五樓之４","OBJECTID":8576},"geometry":{"x":179296.74000000209,"y":2579060.0800000038}},{"attributes":{"ID":8577,"DIS_CODE":0,"TOWNNAME":"永康區","LI":"正強里","LIN":"13鄰","STREET":"正強街","SECT":" ","MAREA":" ","LANE":"１１１巷","ALLEY":"１６弄","HOUSE_NO":"９號","E_COORD97":173260.20000000001,"N_COORD97":2547429.1200000001,"ADDRESS":"正強街１１１巷１６弄９號","OBJECTID":8577},"geometry":{"x":173260.20000000019,"y":2547429.1200000029}},{"attributes":{"ID":8578,"DIS_CODE":0,"TOWNNAME":"安南區","LI":"總頭里","LIN":"13鄰","STREET":"長溪路","SECT":"二段","MAREA":" ","LANE":"４８３巷","ALLEY":"２１弄","HOUSE_NO":"１０號","E_COORD97":168170.20999999999,"N_COORD97":2550342.48,"ADDRESS":"長溪路二段４８３巷２１弄１０號","OBJECTID":8578},"geometry":{"x":168170.21000000089,"y":2550342.4800000023}},{"attributes":{"ID":8579,"DIS_CODE":0,"TOWNNAME":"安南區","LI":"總頭里","LIN":"13鄰","STREET":"長溪路","SECT":"二段","MAREA":" ","LANE":"４８３巷","ALLEY":"２１弄","HOUSE_NO":"１１號","E_COORD97":168189.51000000001,"N_COORD97":2550339.1800000002,"ADDRESS":"長溪路二段４８３巷２１弄１１號","OBJECTID":8579},"geometry":{"x":168189.51000000071,"y":2550339.1800000034}},{"attributes":{"ID":8580,"DIS_CODE":0,"TOWNNAME":"安南區","LI":"總頭里","LIN":"13鄰","STREET":"長溪路","SECT":"二段","MAREA":" ","LANE":"４８３巷","ALLEY":"２１弄","HOUSE_NO":"３號","E_COORD97":168189.51000000001,"N_COORD97":2550362.2999999998,"ADDRESS":"長溪路二段４８３巷２１弄３號","OBJECTID":8580},"geometry":{"x":168189.51000000071,"y":2550362.3000000007}},{"attributes":{"ID":8581,"DIS_CODE":0,"TOWNNAME":"安南區","LI":"總頭里","LIN":"13鄰","STREET":"長溪路","SECT":"二段","MAREA":" ","LANE":"４８３巷","ALLEY":"２１弄","HOUSE_NO":"４號","E_COORD97":168171.87,"N_COORD97":2550361.2000000002,"ADDRESS":"長溪路二段４８３巷２１弄４號","OBJECTID":8581},"geometry":{"x":168171.87000000197,"y":2550361.1999999993}},{"attributes":{"ID":8582,"DIS_CODE":0,"TOWNNAME":"西港區","LI":"\u25A0林里","LIN":"13鄰","STREET":" ","SECT":" ","MAREA":"太西","LANE":" ","ALLEY":" ","HOUSE_NO":"１號之２","E_COORD97":170589.26000000001,"N_COORD97":2560268.5299999998,"ADDRESS":"太西１號之２","OBJECTID":8582},"geometry":{"x":170589.25999999978,"y":2560268.5299999993}},{"attributes":{"ID":8583,"DIS_CODE":0,"TOWNNAME":"安南區","LI":"總頭里","LIN":"13鄰","STREET":"長溪路","SECT":"二段","MAREA":" ","LANE":"４８３巷","ALLEY":"２１弄","HOUSE_NO":"５號","E_COORD97":168189.51000000001,"N_COORD97":2550356.2400000002,"ADDRESS":"長溪路二段４８３巷２１弄５號","OBJECTID":8583},"geometry":{"x":168189.51000000071,"y":2550356.2400000039}},{"attributes":{"ID":8584,"DIS_CODE":0,"TOWNNAME":"安南區","LI":"總頭里","LIN":"13鄰","STREET":"長溪路","SECT":"二段","MAREA":" ","LANE":"４８３巷","ALLEY":"２１弄","HOUSE_NO":"６號","E_COORD97":168171.32000000001,"N_COORD97":2550354.04,"ADDRESS":"長溪路二段４８３巷２１弄６號","OBJECTID":8584},"geometry":{"x":168171.32000000123,"y":2550354.040000001}},{"attributes":{"ID":8585,"DIS_CODE":0,"TOWNNAME":"安南區","LI":"總頭里","LIN":"13鄰","STREET":"長溪路","SECT":"二段","MAREA":" ","LANE":"４８３巷","ALLEY":"２１弄","HOUSE_NO":"７號","E_COORD97":168190.07000000001,"N_COORD97":2550351.29,"ADDRESS":"長溪路二段４８３巷２１弄７號","OBJECTID":8585},"geometry":{"x":168190.07000000123,"y":2550351.2900000028}},{"attributes":{"ID":8586,"DIS_CODE":0,"TOWNNAME":"安南區","LI":"總頭里","LIN":"13鄰","STREET":"長溪路","SECT":"二段","MAREA":" ","LANE":"４８３巷","ALLEY":"２１弄","HOUSE_NO":"８號","E_COORD97":168169.66,"N_COORD97":2550349.0899999999,"ADDRESS":"長溪路二段４８３巷２１弄８號","OBJECTID":8586},"geometry":{"x":168169.66000000015,"y":2550349.0899999999}},{"attributes":{"ID":8587,"DIS_CODE":0,"TOWNNAME":"安南區","LI":"總頭里","LIN":"13鄰","STREET":"長溪路","SECT":"二段","MAREA":" ","LANE":"４８３巷","ALLEY":"２１弄","HOUSE_NO":"９號","E_COORD97":168189.51000000001,"N_COORD97":2550344.1299999999,"ADDRESS":"長溪路二段４８３巷２１弄９號","OBJECTID":8587},"geometry":{"x":168189.51000000071,"y":2550344.129999999}},{"attributes":{"ID":8588,"DIS_CODE":0,"TOWNNAME":"安南區","LI":"總頭里","LIN":"13鄰","STREET":"長溪路","SECT":"二段","MAREA":" ","LANE":"４８３巷","ALLEY":"３５弄","HOUSE_NO":"１號","E_COORD97":168155.32999999999,"N_COORD97":2550358.9900000002,"ADDRESS":"長溪路二段４８３巷３５弄１號","OBJECTID":8588},"geometry":{"x":168155.33000000194,"y":2550358.9900000021}},{"attributes":{"ID":8589,"DIS_CODE":0,"TOWNNAME":"安南區","LI":"總頭里","LIN":"13鄰","STREET":"長溪路","SECT":"二段","MAREA":" ","LANE":"４８３巷","ALLEY":"３５弄","HOUSE_NO":"２號","E_COORD97":168133.26999999999,"N_COORD97":2550358.4399999999,"ADDRESS":"長溪路二段４８３巷３５弄２號","OBJECTID":8589},"geometry":{"x":168133.27000000048,"y":2550358.4400000013}},{"attributes":{"ID":8590,"DIS_CODE":0,"TOWNNAME":"安南區","LI":"總頭里","LIN":"13鄰","STREET":"長溪路","SECT":"二段","MAREA":" ","LANE":"４８３巷","ALLEY":"３５弄","HOUSE_NO":"３號","E_COORD97":168154.76999999999,"N_COORD97":2550354.04,"ADDRESS":"長溪路二段４８３巷３５弄３號","OBJECTID":8590},"geometry":{"x":168154.76999999955,"y":2550354.040000001}},{"attributes":{"ID":8591,"DIS_CODE":0,"TOWNNAME":"安南區","LI":"總頭里","LIN":"13鄰","STREET":"長溪路","SECT":"二段","MAREA":" ","LANE":"４８３巷","ALLEY":"３５弄","HOUSE_NO":"５號","E_COORD97":168155.32999999999,"N_COORD97":2550347.98,"ADDRESS":"長溪路二段４８３巷３５弄５號","OBJECTID":8591},"geometry":{"x":168155.33000000194,"y":2550347.9800000042}},{"attributes":{"ID":8592,"DIS_CODE":0,"TOWNNAME":"將軍區","LI":"長榮里","LIN":"13鄰","STREET":" ","SECT":" ","MAREA":"長榮","LANE":" ","ALLEY":" ","HOUSE_NO":"２１４號","E_COORD97":163806.29000000001,"N_COORD97":2566078.1099999999,"ADDRESS":"長榮２１４號","OBJECTID":8592},"geometry":{"x":163806.29000000097,"y":2566078.1100000013}},{"attributes":{"ID":8593,"DIS_CODE":0,"TOWNNAME":"永康區","LI":"正強里","LIN":"13鄰","STREET":"正強街","SECT":" ","MAREA":" ","LANE":"１１１巷","ALLEY":"１６弄","HOUSE_NO":"１號","E_COORD97":173263,"N_COORD97":2547413.1200000001,"ADDRESS":"正強街１１１巷１６弄１號","OBJECTID":8593},"geometry":{"x":173263,"y":2547413.1200000029}},{"attributes":{"ID":8594,"DIS_CODE":0,"TOWNNAME":"永康區","LI":"復華里","LIN":"13鄰","STREET":"國華街","SECT":" ","MAREA":" ","LANE":"９６巷","ALLEY":"１９弄","HOUSE_NO":"２號","E_COORD97":172953.84,"N_COORD97":2545953.7400000002,"ADDRESS":"國華街９６巷１９弄２號","OBJECTID":8594},"geometry":{"x":172953.83999999985,"y":2545953.7400000002}},{"attributes":{"ID":8595,"DIS_CODE":0,"TOWNNAME":"東區","LI":"崇信里","LIN":"13鄰","STREET":"崇信街","SECT":" ","MAREA":" ","LANE":"５０巷","ALLEY":"５弄","HOUSE_NO":"２６號","E_COORD97":170698.12,"N_COORD97":2542410.98,"ADDRESS":"崇信街５０巷５弄２６號","OBJECTID":8595},"geometry":{"x":170698.12000000104,"y":2542410.9800000042}},{"attributes":{"ID":8596,"DIS_CODE":0,"TOWNNAME":"東區","LI":"崇信里","LIN":"13鄰","STREET":"崇信街","SECT":" ","MAREA":" ","LANE":"５０巷","ALLEY":"５弄","HOUSE_NO":"２８號","E_COORD97":170704.28,"N_COORD97":2542400.5099999998,"ADDRESS":"崇信街５０巷５弄２８號","OBJECTID":8596},"geometry":{"x":170704.28000000119,"y":2542400.5100000016}},{"attributes":{"ID":8597,"DIS_CODE":0,"TOWNNAME":"東區","LI":"崇信里","LIN":"13鄰","STREET":"崇信街","SECT":" ","MAREA":" ","LANE":"５０巷","ALLEY":"５弄","HOUSE_NO":"３０號","E_COORD97":170698.60000000001,"N_COORD97":2542399.1400000001,"ADDRESS":"崇信街５０巷５弄３０號","OBJECTID":8597},"geometry":{"x":170698.59999999963,"y":2542399.1400000006}},{"attributes":{"ID":8598,"DIS_CODE":0,"TOWNNAME":"東區","LI":"崇信里","LIN":"13鄰","STREET":"崇信街","SECT":" ","MAREA":" ","LANE":"５０巷","ALLEY":"５弄","HOUSE_NO":"３２號","E_COORD97":170693.78,"N_COORD97":2542397.25,"ADDRESS":"崇信街５０巷５弄３２號","OBJECTID":8598},"geometry":{"x":170693.78000000119,"y":2542397.25}},{"attributes":{"ID":8599,"DIS_CODE":0,"TOWNNAME":"六甲區","LI":"甲東里","LIN":"24鄰","STREET":"裕農街","SECT":" ","MAREA":" ","LANE":"２巷","ALLEY":"１１弄","HOUSE_NO":"７號","E_COORD97":183980.51000000001,"N_COORD97":2569555.1299999999,"ADDRESS":"裕農街２巷１１弄７號","OBJECTID":8599},"geometry":{"x":183980.51000000071,"y":2569555.1300000027}},{"attributes":{"ID":8600,"DIS_CODE":0,"TOWNNAME":"東區","LI":"崇信里","LIN":"13鄰","STREET":"崇信街","SECT":" ","MAREA":" ","LANE":"５０巷","ALLEY":"５弄","HOUSE_NO":"３４號","E_COORD97":170682.07000000001,"N_COORD97":2542393.8100000001,"ADDRESS":"崇信街５０巷５弄３４號","OBJECTID":8600},"geometry":{"x":170682.07000000123,"y":2542393.8100000005}}]}