{"displayFieldName":"TOWNNAME","fieldAliases":{"ID":"ID","DIS_CODE":"DIS_CODE","TOWNNAME":"TOWNNAME","LI":"LI","LIN":"LIN","STREET":"STREET","SECT":"SECT","MAREA":"MAREA","LANE":"LANE","ALLEY":"ALLEY","HOUSE_NO":"HOUSE_NO","E_COORD97":"E_COORD97","N_COORD97":"N_COORD97","ADDRESS":"ADDRESS","OBJECTID":"OBJECTID"},"geometryType":"esriGeometryPoint","spatialReference":{"wkid":102443,"latestWkid":3826},"fields":[{"name":"ID","type":"esriFieldTypeDouble","alias":"ID"},{"name":"DIS_CODE","type":"esriFieldTypeInteger","alias":"DIS_CODE"},{"name":"TOWNNAME","type":"esriFieldTypeString","alias":"TOWNNAME","length":8},{"name":"LI","type":"esriFieldTypeString","alias":"LI","length":8},{"name":"LIN","type":"esriFieldTypeString","alias":"LIN","length":12},{"name":"STREET","type":"esriFieldTypeString","alias":"STREET","length":20},{"name":"SECT","type":"esriFieldTypeString","alias":"SECT","length":8},{"name":"MAREA","type":"esriFieldTypeString","alias":"MAREA","length":12},{"name":"LANE","type":"esriFieldTypeString","alias":"LANE","length":10},{"name":"ALLEY","type":"esriFieldTypeString","alias":"ALLEY","length":10},{"name":"HOUSE_NO","type":"esriFieldTypeString","alias":"HOUSE_NO","length":20},{"name":"E_COORD97","type":"esriFieldTypeDouble","alias":"E_COORD97"},{"name":"N_COORD97","type":"esriFieldTypeDouble","alias":"N_COORD97"},{"name":"ADDRESS","type":"esriFieldTypeString","alias":"ADDRESS","length":50},{"name":"OBJECTID","type":"esriFieldTypeOID","alias":"OBJECTID"}],"features":[{"attributes":{"ID":393625,"DIS_CODE":0,"TOWNNAME":"東區","LI":"圍下里","LIN":"23鄰","STREET":"前鋒路","SECT":" ","MAREA":" ","LANE":"１３７巷","ALLEY":" ","HOUSE_NO":"１１號","E_COORD97":169280.57999999999,"N_COORD97":2543857.5,"ADDRESS":"前鋒路１３７巷１１號","OBJECTID":393601},"geometry":{"x":169280.58000000007,"y":2543857.5}},{"attributes":{"ID":393626,"DIS_CODE":0,"TOWNNAME":"東區","LI":"圍下里","LIN":"23鄰","STREET":"前鋒路","SECT":" ","MAREA":" ","LANE":"１３７巷","ALLEY":" ","HOUSE_NO":"１２號","E_COORD97":169285.10999999999,"N_COORD97":2543857.5,"ADDRESS":"前鋒路１３７巷１２號","OBJECTID":393602},"geometry":{"x":169285.11000000127,"y":2543857.5}},{"attributes":{"ID":393627,"DIS_CODE":0,"TOWNNAME":"東區","LI":"圍下里","LIN":"23鄰","STREET":"前鋒路","SECT":" ","MAREA":" ","LANE":"１３７巷","ALLEY":" ","HOUSE_NO":"１３號","E_COORD97":169288.79000000001,"N_COORD97":2543856.3300000001,"ADDRESS":"前鋒路１３７巷１３號","OBJECTID":393603},"geometry":{"x":169288.79000000004,"y":2543856.3300000019}},{"attributes":{"ID":393628,"DIS_CODE":0,"TOWNNAME":"東區","LI":"圍下里","LIN":"23鄰","STREET":"前鋒路","SECT":" ","MAREA":" ","LANE":"１３７巷","ALLEY":" ","HOUSE_NO":"１６號","E_COORD97":169294.48999999999,"N_COORD97":2543857.6699999999,"ADDRESS":"前鋒路１３７巷１６號","OBJECTID":393604},"geometry":{"x":169294.49000000022,"y":2543857.6700000018}},{"attributes":{"ID":393629,"DIS_CODE":0,"TOWNNAME":"東區","LI":"圍下里","LIN":"23鄰","STREET":"前鋒路","SECT":" ","MAREA":" ","LANE":"１３７巷","ALLEY":" ","HOUSE_NO":"１７號","E_COORD97":169289.79999999999,"N_COORD97":2543849.9700000002,"ADDRESS":"前鋒路１３７巷１７號","OBJECTID":393605},"geometry":{"x":169289.80000000075,"y":2543849.9700000025}},{"attributes":{"ID":393630,"DIS_CODE":0,"TOWNNAME":"東區","LI":"圍下里","LIN":"23鄰","STREET":"前鋒路","SECT":" ","MAREA":" ","LANE":"１３７巷","ALLEY":" ","HOUSE_NO":"１８號","E_COORD97":169294.32000000001,"N_COORD97":2543846.4500000002,"ADDRESS":"前鋒路１３７巷１８號","OBJECTID":393606},"geometry":{"x":169294.3200000003,"y":2543846.4499999993}},{"attributes":{"ID":393631,"DIS_CODE":0,"TOWNNAME":"東區","LI":"圍下里","LIN":"23鄰","STREET":"前鋒路","SECT":" ","MAREA":" ","LANE":"１３７巷","ALLEY":" ","HOUSE_NO":"１９號","E_COORD97":169277.39999999999,"N_COORD97":2543854.1499999999,"ADDRESS":"前鋒路１３７巷１９號","OBJECTID":393607},"geometry":{"x":169277.4000000013,"y":2543854.1500000041}},{"attributes":{"ID":393632,"DIS_CODE":0,"TOWNNAME":"東區","LI":"圍下里","LIN":"23鄰","STREET":"前鋒路","SECT":" ","MAREA":" ","LANE":"１３７巷","ALLEY":" ","HOUSE_NO":"１號","E_COORD97":169302.70000000001,"N_COORD97":2543838.2000000002,"ADDRESS":"前鋒路１３７巷１號","OBJECTID":393608},"geometry":{"x":169302.70000000112,"y":2543838.1999999993}},{"attributes":{"ID":393633,"DIS_CODE":0,"TOWNNAME":"東區","LI":"圍下里","LIN":"23鄰","STREET":"前鋒路","SECT":" ","MAREA":" ","LANE":"１３７巷","ALLEY":" ","HOUSE_NO":"２０號","E_COORD97":169283.42999999999,"N_COORD97":2543851.98,"ADDRESS":"前鋒路１３７巷２０號","OBJECTID":393609},"geometry":{"x":169283.43000000063,"y":2543851.9800000042}},{"attributes":{"ID":393634,"DIS_CODE":0,"TOWNNAME":"東區","LI":"圍下里","LIN":"23鄰","STREET":"前鋒路","SECT":" ","MAREA":" ","LANE":"１３７巷","ALLEY":" ","HOUSE_NO":"２號","E_COORD97":169292.98000000001,"N_COORD97":2543838.25,"ADDRESS":"前鋒路１３７巷２號","OBJECTID":393610},"geometry":{"x":169292.98000000045,"y":2543838.25}},{"attributes":{"ID":393635,"DIS_CODE":0,"TOWNNAME":"東區","LI":"圍下里","LIN":"23鄰","STREET":"前鋒路","SECT":" ","MAREA":" ","LANE":"１３７巷","ALLEY":" ","HOUSE_NO":"４號","E_COORD97":169285.10999999999,"N_COORD97":2543839.4199999999,"ADDRESS":"前鋒路１３７巷４號","OBJECTID":393611},"geometry":{"x":169285.11000000127,"y":2543839.4200000018}},{"attributes":{"ID":393636,"DIS_CODE":0,"TOWNNAME":"東區","LI":"圍下里","LIN":"23鄰","STREET":"前鋒路","SECT":" ","MAREA":" ","LANE":"１３７巷","ALLEY":" ","HOUSE_NO":"５號","E_COORD97":169305.89000000001,"N_COORD97":2543832,"ADDRESS":"前鋒路１３７巷５號","OBJECTID":393612},"geometry":{"x":169305.8900000006,"y":2543832.0000000019}},{"attributes":{"ID":393637,"DIS_CODE":0,"TOWNNAME":"東區","LI":"圍下里","LIN":"23鄰","STREET":"前鋒路","SECT":" ","MAREA":" ","LANE":"１３７巷","ALLEY":" ","HOUSE_NO":"６號","E_COORD97":169278.73999999999,"N_COORD97":2543839.9300000002,"ADDRESS":"前鋒路１３７巷６號","OBJECTID":393613},"geometry":{"x":169278.74000000115,"y":2543839.9299999997}},{"attributes":{"ID":393638,"DIS_CODE":0,"TOWNNAME":"東區","LI":"圍下里","LIN":"23鄰","STREET":"前鋒路","SECT":" ","MAREA":" ","LANE":"１３７巷","ALLEY":" ","HOUSE_NO":"７號","E_COORD97":169267.17000000001,"N_COORD97":2543844.2799999998,"ADDRESS":"前鋒路１３７巷７號","OBJECTID":393614},"geometry":{"x":169267.17000000086,"y":2543844.2799999993}},{"attributes":{"ID":393639,"DIS_CODE":0,"TOWNNAME":"東區","LI":"圍下里","LIN":"23鄰","STREET":"前鋒路","SECT":" ","MAREA":" ","LANE":"１３７巷","ALLEY":" ","HOUSE_NO":"８號","E_COORD97":169268.51000000001,"N_COORD97":2543854.6600000001,"ADDRESS":"前鋒路１３７巷８號","OBJECTID":393615},"geometry":{"x":169268.50999999978,"y":2543854.660000002}},{"attributes":{"ID":393640,"DIS_CODE":0,"TOWNNAME":"東區","LI":"圍下里","LIN":"23鄰","STREET":"前鋒路","SECT":" ","MAREA":" ","LANE":"１３７巷","ALLEY":" ","HOUSE_NO":"９號","E_COORD97":169268.35000000001,"N_COORD97":2543860.3500000001,"ADDRESS":"前鋒路１３７巷９號","OBJECTID":393616},"geometry":{"x":169268.35000000149,"y":2543860.3500000015}},{"attributes":{"ID":393641,"DIS_CODE":0,"TOWNNAME":"永康區","LI":"西橋里","LIN":"23鄰","STREET":"大橋三街","SECT":" ","MAREA":" ","LANE":"５７巷","ALLEY":" ","HOUSE_NO":"２５號","E_COORD97":170496.44,"N_COORD97":2546586.4900000002,"ADDRESS":"大橋三街５７巷２５號","OBJECTID":393617},"geometry":{"x":170496.44000000134,"y":2546586.4900000002}},{"attributes":{"ID":393642,"DIS_CODE":0,"TOWNNAME":"安南區","LI":"州南里","LIN":"23鄰","STREET":"安和路","SECT":"四段","MAREA":" ","LANE":"５３３巷","ALLEY":" ","HOUSE_NO":"４４號","E_COORD97":169834.47,"N_COORD97":2551291.8500000001,"ADDRESS":"安和路四段５３３巷４４號","OBJECTID":393618},"geometry":{"x":169834.47000000067,"y":2551291.8500000015}},{"attributes":{"ID":393643,"DIS_CODE":0,"TOWNNAME":"安南區","LI":"州南里","LIN":"23鄰","STREET":"安和路","SECT":"四段","MAREA":" ","LANE":"５３３巷","ALLEY":" ","HOUSE_NO":"４６號","E_COORD97":169829.98000000001,"N_COORD97":2551290.2200000002,"ADDRESS":"安和路四段５３３巷４６號","OBJECTID":393619},"geometry":{"x":169829.98000000138,"y":2551290.2200000025}},{"attributes":{"ID":393644,"DIS_CODE":0,"TOWNNAME":"安南區","LI":"州南里","LIN":"23鄰","STREET":"安和路","SECT":"四段","MAREA":" ","LANE":"５３３巷","ALLEY":" ","HOUSE_NO":"５０號","E_COORD97":169813.35999999999,"N_COORD97":2551336.96,"ADDRESS":"安和路四段５３３巷５０號","OBJECTID":393620},"geometry":{"x":169813.36000000127,"y":2551336.9600000009}},{"attributes":{"ID":393645,"DIS_CODE":0,"TOWNNAME":"安南區","LI":"州南里","LIN":"23鄰","STREET":"安和路","SECT":"四段","MAREA":" ","LANE":"５３３巷","ALLEY":" ","HOUSE_NO":"５６號","E_COORD97":169818.75,"N_COORD97":2551285.5299999998,"ADDRESS":"安和路四段５３３巷５６號","OBJECTID":393621},"geometry":{"x":169818.75000000186,"y":2551285.5300000031}},{"attributes":{"ID":393646,"DIS_CODE":0,"TOWNNAME":"安南區","LI":"州南里","LIN":"23鄰","STREET":"安和路","SECT":"四段","MAREA":" ","LANE":"５３３巷","ALLEY":" ","HOUSE_NO":"６０號","E_COORD97":169810.37,"N_COORD97":2551283.6899999999,"ADDRESS":"安和路四段５３３巷６０號","OBJECTID":393622},"geometry":{"x":169810.37000000011,"y":2551283.6899999995}},{"attributes":{"ID":393647,"DIS_CODE":0,"TOWNNAME":"安南區","LI":"州南里","LIN":"23鄰","STREET":"安和路","SECT":"四段","MAREA":" ","LANE":"５３３巷","ALLEY":" ","HOUSE_NO":"６號","E_COORD97":169912.14999999999,"N_COORD97":2551315.4900000002,"ADDRESS":"安和路四段５３３巷６號","OBJECTID":393623},"geometry":{"x":169912.15000000037,"y":2551315.4900000021}},{"attributes":{"ID":393648,"DIS_CODE":0,"TOWNNAME":"安南區","LI":"州南里","LIN":"23鄰","STREET":"安和路","SECT":"四段","MAREA":" ","LANE":"５３３巷","ALLEY":" ","HOUSE_NO":"８號","E_COORD97":169904.39000000001,"N_COORD97":2551314.5800000001,"ADDRESS":"安和路四段５３３巷８號","OBJECTID":393624},"geometry":{"x":169904.3900000006,"y":2551314.5800000019}},{"attributes":{"ID":393649,"DIS_CODE":0,"TOWNNAME":"安南區","LI":"州南里","LIN":"23鄰","STREET":"安和路","SECT":"四段","MAREA":" ","LANE":"５３７巷","ALLEY":" ","HOUSE_NO":"１１號","E_COORD97":169901.26999999999,"N_COORD97":2551333.2799999998,"ADDRESS":"安和路四段５３７巷１１號","OBJECTID":393625},"geometry":{"x":169901.27000000048,"y":2551333.2799999993}},{"attributes":{"ID":393650,"DIS_CODE":0,"TOWNNAME":"安南區","LI":"州南里","LIN":"23鄰","STREET":"安和路","SECT":"四段","MAREA":" ","LANE":"５３７巷","ALLEY":" ","HOUSE_NO":"１３號","E_COORD97":169898.17999999999,"N_COORD97":2551335.0800000001,"ADDRESS":"安和路四段５３７巷１３號","OBJECTID":393626},"geometry":{"x":169898.1799999997,"y":2551335.0800000019}},{"attributes":{"ID":393651,"DIS_CODE":0,"TOWNNAME":"安南區","LI":"州南里","LIN":"23鄰","STREET":"安和路","SECT":"四段","MAREA":" ","LANE":"５３７巷","ALLEY":" ","HOUSE_NO":"１５號","E_COORD97":169895.39000000001,"N_COORD97":2551338.6899999999,"ADDRESS":"安和路四段５３７巷１５號","OBJECTID":393627},"geometry":{"x":169895.39000000153,"y":2551338.6899999976}},{"attributes":{"ID":393652,"DIS_CODE":0,"TOWNNAME":"安南區","LI":"州南里","LIN":"23鄰","STREET":"安和路","SECT":"四段","MAREA":" ","LANE":"５３７巷","ALLEY":" ","HOUSE_NO":"１７號","E_COORD97":169891.48999999999,"N_COORD97":2551342.8700000001,"ADDRESS":"安和路四段５３７巷１７號","OBJECTID":393628},"geometry":{"x":169891.49000000022,"y":2551342.8700000048}},{"attributes":{"ID":393653,"DIS_CODE":0,"TOWNNAME":"安南區","LI":"州南里","LIN":"23鄰","STREET":"安和路","SECT":"四段","MAREA":" ","LANE":"５３７巷","ALLEY":" ","HOUSE_NO":"１９號","E_COORD97":169887.04000000001,"N_COORD97":2551344.2599999998,"ADDRESS":"安和路四段５３７巷１９號","OBJECTID":393629},"geometry":{"x":169887.04000000097,"y":2551344.2599999998}},{"attributes":{"ID":393654,"DIS_CODE":0,"TOWNNAME":"安南區","LI":"州南里","LIN":"23鄰","STREET":"安和路","SECT":"四段","MAREA":" ","LANE":"５３７巷","ALLEY":" ","HOUSE_NO":"２３號","E_COORD97":169882.29999999999,"N_COORD97":2551352.3300000001,"ADDRESS":"安和路四段５３７巷２３號","OBJECTID":393630},"geometry":{"x":169882.29999999981,"y":2551352.3300000038}},{"attributes":{"ID":393655,"DIS_CODE":0,"TOWNNAME":"安南區","LI":"州南里","LIN":"23鄰","STREET":"安和路","SECT":"四段","MAREA":" ","LANE":"５３７巷","ALLEY":" ","HOUSE_NO":"２５號","E_COORD97":169878.39999999999,"N_COORD97":2551353.9900000002,"ADDRESS":"安和路四段５３７巷２５號","OBJECTID":393631},"geometry":{"x":169878.40000000037,"y":2551353.9900000002}},{"attributes":{"ID":393656,"DIS_CODE":0,"TOWNNAME":"安南區","LI":"州南里","LIN":"23鄰","STREET":"安和路","SECT":"四段","MAREA":" ","LANE":"５３７巷","ALLEY":" ","HOUSE_NO":"２７號","E_COORD97":169873.67000000001,"N_COORD97":2551356.5,"ADDRESS":"安和路四段５３７巷２７號","OBJECTID":393632},"geometry":{"x":169873.67000000086,"y":2551356.5}},{"attributes":{"ID":393657,"DIS_CODE":0,"TOWNNAME":"安南區","LI":"州南里","LIN":"23鄰","STREET":"安和路","SECT":"四段","MAREA":" ","LANE":"５３７巷","ALLEY":" ","HOUSE_NO":"３號","E_COORD97":169920.17999999999,"N_COORD97":2551323.6699999999,"ADDRESS":"安和路四段５３７巷３號","OBJECTID":393633},"geometry":{"x":169920.1799999997,"y":2551323.6700000018}},{"attributes":{"ID":393658,"DIS_CODE":0,"TOWNNAME":"安南區","LI":"州南里","LIN":"23鄰","STREET":"安和路","SECT":"四段","MAREA":" ","LANE":"５３７巷","ALLEY":" ","HOUSE_NO":"５號","E_COORD97":169913.5,"N_COORD97":2551325.8999999999,"ADDRESS":"安和路四段５３７巷５號","OBJECTID":393634},"geometry":{"x":169913.49999999907,"y":2551325.9000000022}},{"attributes":{"ID":393659,"DIS_CODE":0,"TOWNNAME":"安平區","LI":"文平里","LIN":"23鄰","STREET":"健康一街","SECT":" ","MAREA":" ","LANE":"５８巷","ALLEY":" ","HOUSE_NO":"１０號","E_COORD97":165981.09,"N_COORD97":2542781.98,"ADDRESS":"健康一街５８巷１０號","OBJECTID":393635},"geometry":{"x":165981.08999999985,"y":2542781.9800000023}},{"attributes":{"ID":393660,"DIS_CODE":0,"TOWNNAME":"安平區","LI":"文平里","LIN":"23鄰","STREET":"健康一街","SECT":" ","MAREA":" ","LANE":"５８巷","ALLEY":" ","HOUSE_NO":"１２號","E_COORD97":165985.48999999999,"N_COORD97":2542781.3799999999,"ADDRESS":"健康一街５８巷１２號","OBJECTID":393636},"geometry":{"x":165985.49000000022,"y":2542781.3800000008}},{"attributes":{"ID":393661,"DIS_CODE":0,"TOWNNAME":"安平區","LI":"文平里","LIN":"23鄰","STREET":"健康一街","SECT":" ","MAREA":" ","LANE":"５８巷","ALLEY":" ","HOUSE_NO":"２號","E_COORD97":165957.01000000001,"N_COORD97":2542784.48,"ADDRESS":"健康一街５８巷２號","OBJECTID":393637},"geometry":{"x":165957.01000000071,"y":2542784.4800000023}},{"attributes":{"ID":393662,"DIS_CODE":0,"TOWNNAME":"安平區","LI":"文平里","LIN":"23鄰","STREET":"健康一街","SECT":" ","MAREA":" ","LANE":"５８巷","ALLEY":" ","HOUSE_NO":"２號之１","E_COORD97":165962.91,"N_COORD97":2542783.7799999998,"ADDRESS":"健康一街５８巷２號之１","OBJECTID":393638},"geometry":{"x":165962.91000000201,"y":2542783.7799999993}},{"attributes":{"ID":393663,"DIS_CODE":0,"TOWNNAME":"安平區","LI":"文平里","LIN":"23鄰","STREET":"健康一街","SECT":" ","MAREA":" ","LANE":"５８巷","ALLEY":" ","HOUSE_NO":"６號","E_COORD97":165968.60000000001,"N_COORD97":2542783.0800000001,"ADDRESS":"健康一街５８巷６號","OBJECTID":393639},"geometry":{"x":165968.60000000056,"y":2542783.0800000038}},{"attributes":{"ID":393664,"DIS_CODE":0,"TOWNNAME":"安平區","LI":"文平里","LIN":"23鄰","STREET":"健康一街","SECT":" ","MAREA":" ","LANE":"５８巷","ALLEY":" ","HOUSE_NO":"８號","E_COORD97":165975.29999999999,"N_COORD97":2542782.5800000001,"ADDRESS":"健康一街５８巷８號","OBJECTID":393640},"geometry":{"x":165975.30000000075,"y":2542782.5800000001}},{"attributes":{"ID":393665,"DIS_CODE":0,"TOWNNAME":"新營區","LI":"民榮里","LIN":"23鄰","STREET":"裕民路","SECT":" ","MAREA":" ","LANE":"１６巷","ALLEY":" ","HOUSE_NO":"１１號","E_COORD97":179092.45999999999,"N_COORD97":2577911.46,"ADDRESS":"裕民路１６巷１１號","OBJECTID":393641},"geometry":{"x":179092.45999999996,"y":2577911.4600000009}},{"attributes":{"ID":393666,"DIS_CODE":0,"TOWNNAME":"六甲區","LI":"甲南里","LIN":"23鄰","STREET":"中正路","SECT":" ","MAREA":" ","LANE":"２４２巷","ALLEY":" ","HOUSE_NO":"１８號","E_COORD97":183652.09,"N_COORD97":2569243.2200000002,"ADDRESS":"中正路２４２巷１８號","OBJECTID":393642},"geometry":{"x":183652.08999999985,"y":2569243.2200000007}},{"attributes":{"ID":393667,"DIS_CODE":0,"TOWNNAME":"六甲區","LI":"甲南里","LIN":"23鄰","STREET":"中正路","SECT":" ","MAREA":" ","LANE":"２４２巷","ALLEY":" ","HOUSE_NO":"２８號","E_COORD97":183739.75,"N_COORD97":2569207.6400000001,"ADDRESS":"中正路２４２巷２８號","OBJECTID":393643},"geometry":{"x":183739.75000000093,"y":2569207.6400000043}},{"attributes":{"ID":393668,"DIS_CODE":0,"TOWNNAME":"六甲區","LI":"六甲里","LIN":"23鄰","STREET":"中正路","SECT":" ","MAREA":" ","LANE":"４８５巷","ALLEY":" ","HOUSE_NO":"１５號","E_COORD97":183558.89999999999,"N_COORD97":2569875.1600000001,"ADDRESS":"中正路４８５巷１５號","OBJECTID":393644},"geometry":{"x":183558.90000000037,"y":2569875.1600000039}},{"attributes":{"ID":393669,"DIS_CODE":0,"TOWNNAME":"六甲區","LI":"六甲里","LIN":"23鄰","STREET":"中正路","SECT":" ","MAREA":" ","LANE":"４８５巷","ALLEY":" ","HOUSE_NO":"１７號","E_COORD97":183555.10000000001,"N_COORD97":2569876.3700000001,"ADDRESS":"中正路４８５巷１７號","OBJECTID":393645},"geometry":{"x":183555.09999999963,"y":2569876.370000001}},{"attributes":{"ID":393670,"DIS_CODE":0,"TOWNNAME":"六甲區","LI":"六甲里","LIN":"23鄰","STREET":"中正路","SECT":" ","MAREA":" ","LANE":"４８５巷","ALLEY":" ","HOUSE_NO":"１９號","E_COORD97":183548.06,"N_COORD97":2569878.0899999999,"ADDRESS":"中正路４８５巷１９號","OBJECTID":393646},"geometry":{"x":183548.05999999959,"y":2569878.0899999999}},{"attributes":{"ID":393671,"DIS_CODE":0,"TOWNNAME":"六甲區","LI":"六甲里","LIN":"23鄰","STREET":"中正路","SECT":" ","MAREA":" ","LANE":"４８５巷","ALLEY":" ","HOUSE_NO":"２０號","E_COORD97":183559.85000000001,"N_COORD97":2569900.6699999999,"ADDRESS":"中正路４８５巷２０號","OBJECTID":393647},"geometry":{"x":183559.84999999963,"y":2569900.6699999999}},{"attributes":{"ID":393672,"DIS_CODE":0,"TOWNNAME":"六甲區","LI":"六甲里","LIN":"23鄰","STREET":"中正路","SECT":" ","MAREA":" ","LANE":"４８５巷","ALLEY":" ","HOUSE_NO":"２２號","E_COORD97":183555.42999999999,"N_COORD97":2569901.0899999999,"ADDRESS":"中正路４８５巷２２號","OBJECTID":393648},"geometry":{"x":183555.43000000063,"y":2569901.0899999999}},{"attributes":{"ID":393673,"DIS_CODE":0,"TOWNNAME":"六甲區","LI":"六甲里","LIN":"23鄰","STREET":"中正路","SECT":" ","MAREA":" ","LANE":"４８５巷","ALLEY":" ","HOUSE_NO":"２號","E_COORD97":183597.73000000001,"N_COORD97":2569888.6499999999,"ADDRESS":"中正路４８５巷２號","OBJECTID":393649},"geometry":{"x":183597.73000000231,"y":2569888.6499999985}},{"attributes":{"ID":393674,"DIS_CODE":0,"TOWNNAME":"六甲區","LI":"六甲里","LIN":"23鄰","STREET":"中正路","SECT":" ","MAREA":" ","LANE":"４８５巷","ALLEY":" ","HOUSE_NO":"３號","E_COORD97":183582.73000000001,"N_COORD97":2569869.1699999999,"ADDRESS":"中正路４８５巷３號","OBJECTID":393650},"geometry":{"x":183582.73000000138,"y":2569869.1700000018}},{"attributes":{"ID":393675,"DIS_CODE":0,"TOWNNAME":"六甲區","LI":"六甲里","LIN":"23鄰","STREET":"中正路","SECT":" ","MAREA":" ","LANE":"４８５巷","ALLEY":" ","HOUSE_NO":"４號","E_COORD97":183593.53,"N_COORD97":2569889.6499999999,"ADDRESS":"中正路４８５巷４號","OBJECTID":393651},"geometry":{"x":183593.53000000026,"y":2569889.6500000022}},{"attributes":{"ID":393676,"DIS_CODE":0,"TOWNNAME":"六甲區","LI":"六甲里","LIN":"23鄰","STREET":"中正路","SECT":" ","MAREA":" ","LANE":"４８５巷","ALLEY":" ","HOUSE_NO":"５號","E_COORD97":183578.82000000001,"N_COORD97":2569870.0099999998,"ADDRESS":"中正路４８５巷５號","OBJECTID":393652},"geometry":{"x":183578.82000000123,"y":2569870.0100000016}},{"attributes":{"ID":393677,"DIS_CODE":0,"TOWNNAME":"六甲區","LI":"六甲里","LIN":"23鄰","STREET":"中正路","SECT":" ","MAREA":" ","LANE":"４８５巷","ALLEY":" ","HOUSE_NO":"４２號","E_COORD97":183531.75,"N_COORD97":2569923.3199999998,"ADDRESS":"中正路４８５巷６２號","OBJECTID":393653},"geometry":{"x":183531.75000000093,"y":2569923.3200000003}},{"attributes":{"ID":393678,"DIS_CODE":0,"TOWNNAME":"六甲區","LI":"六甲里","LIN":"23鄰","STREET":"中正路","SECT":" ","MAREA":" ","LANE":"４８５巷","ALLEY":" ","HOUSE_NO":"６之２號","E_COORD97":183582.5,"N_COORD97":2569892.46,"ADDRESS":"中正路４８５巷６之２號","OBJECTID":393654},"geometry":{"x":183582.50000000093,"y":2569892.4600000009}},{"attributes":{"ID":393679,"DIS_CODE":0,"TOWNNAME":"六甲區","LI":"六甲里","LIN":"23鄰","STREET":"中正路","SECT":" ","MAREA":" ","LANE":"４８５巷","ALLEY":" ","HOUSE_NO":"６號","E_COORD97":183589.82000000001,"N_COORD97":2569890.6899999999,"ADDRESS":"中正路４８５巷６號","OBJECTID":393655},"geometry":{"x":183589.8200000003,"y":2569890.6899999995}},{"attributes":{"ID":393680,"DIS_CODE":0,"TOWNNAME":"六甲區","LI":"六甲里","LIN":"23鄰","STREET":"中正路","SECT":" ","MAREA":" ","LANE":"４８５巷","ALLEY":" ","HOUSE_NO":"８號","E_COORD97":183578.45999999999,"N_COORD97":2569893.27,"ADDRESS":"中正路４８５巷８號","OBJECTID":393656},"geometry":{"x":183578.45999999996,"y":2569893.2699999996}},{"attributes":{"ID":393681,"DIS_CODE":0,"TOWNNAME":"六甲區","LI":"六甲里","LIN":"23鄰","STREET":"中正路","SECT":" ","MAREA":" ","LANE":"４８５巷","ALLEY":" ","HOUSE_NO":"９號","E_COORD97":183571.06,"N_COORD97":2569872.0299999998,"ADDRESS":"中正路４８５巷９號","OBJECTID":393657},"geometry":{"x":183571.06000000052,"y":2569872.0300000012}},{"attributes":{"ID":393682,"DIS_CODE":0,"TOWNNAME":"六甲區","LI":"甲南里","LIN":"23鄰","STREET":"中華路","SECT":" ","MAREA":" ","LANE":"３５巷","ALLEY":" ","HOUSE_NO":"１１號","E_COORD97":183625.54000000001,"N_COORD97":2569346.3500000001,"ADDRESS":"中華路３５巷１１號","OBJECTID":393658},"geometry":{"x":183625.54000000004,"y":2569346.3499999996}},{"attributes":{"ID":393683,"DIS_CODE":0,"TOWNNAME":"六甲區","LI":"甲南里","LIN":"23鄰","STREET":"中華路","SECT":" ","MAREA":" ","LANE":"３５巷","ALLEY":" ","HOUSE_NO":"１３號","E_COORD97":183623.31,"N_COORD97":2569342.6699999999,"ADDRESS":"中華路３５巷１３號","OBJECTID":393659},"geometry":{"x":183623.30999999866,"y":2569342.6700000018}},{"attributes":{"ID":393684,"DIS_CODE":0,"TOWNNAME":"六甲區","LI":"甲南里","LIN":"23鄰","STREET":"中華路","SECT":" ","MAREA":" ","LANE":"３５巷","ALLEY":" ","HOUSE_NO":"１５號","E_COORD97":183620.92000000001,"N_COORD97":2569338.1200000001,"ADDRESS":"中華路３５巷１５號","OBJECTID":393660},"geometry":{"x":183620.91999999993,"y":2569338.1200000029}},{"attributes":{"ID":393685,"DIS_CODE":0,"TOWNNAME":"六甲區","LI":"甲南里","LIN":"23鄰","STREET":"中華路","SECT":" ","MAREA":" ","LANE":"３５巷","ALLEY":" ","HOUSE_NO":"１７號","E_COORD97":183619.81,"N_COORD97":2569334.2799999998,"ADDRESS":"中華路３５巷１７號","OBJECTID":393661},"geometry":{"x":183619.80999999959,"y":2569334.2800000031}},{"attributes":{"ID":393686,"DIS_CODE":0,"TOWNNAME":"六甲區","LI":"甲南里","LIN":"23鄰","STREET":"中華路","SECT":" ","MAREA":" ","LANE":"３５巷","ALLEY":" ","HOUSE_NO":"１９號","E_COORD97":183617.53,"N_COORD97":2569330.4300000002,"ADDRESS":"中華路３５巷１９號","OBJECTID":393662},"geometry":{"x":183617.53000000212,"y":2569330.4300000034}},{"attributes":{"ID":393687,"DIS_CODE":0,"TOWNNAME":"六甲區","LI":"甲南里","LIN":"23鄰","STREET":"中華路","SECT":" ","MAREA":" ","LANE":"３５巷","ALLEY":" ","HOUSE_NO":"２１號","E_COORD97":183616.42000000001,"N_COORD97":2569326.6600000001,"ADDRESS":"中華路３５巷２１號","OBJECTID":393663},"geometry":{"x":183616.42000000086,"y":2569326.660000002}},{"attributes":{"ID":393688,"DIS_CODE":0,"TOWNNAME":"南區","LI":"建南里","LIN":"16鄰","STREET":"中華南路","SECT":"二段","MAREA":" ","LANE":"２３３巷","ALLEY":" ","HOUSE_NO":"２４號","E_COORD97":166902.85000000001,"N_COORD97":2540095.3999999999,"ADDRESS":"中華南路二段２３３巷２４號","OBJECTID":393664},"geometry":{"x":166902.84999999963,"y":2540095.4000000004}},{"attributes":{"ID":393689,"DIS_CODE":0,"TOWNNAME":"南區","LI":"建南里","LIN":"16鄰","STREET":"中華南路","SECT":"二段","MAREA":" ","LANE":"２３３巷","ALLEY":" ","HOUSE_NO":"２６號","E_COORD97":166903.82999999999,"N_COORD97":2540090.7000000002,"ADDRESS":"中華南路二段２３３巷２６號","OBJECTID":393665},"geometry":{"x":166903.83000000007,"y":2540090.7000000011}},{"attributes":{"ID":393690,"DIS_CODE":0,"TOWNNAME":"南區","LI":"建南里","LIN":"16鄰","STREET":"中華南路","SECT":"二段","MAREA":" ","LANE":"２３３巷","ALLEY":" ","HOUSE_NO":"２８號","E_COORD97":166905,"N_COORD97":2540085.4100000001,"ADDRESS":"中華南路二段２３３巷２８號","OBJECTID":393666},"geometry":{"x":166905.00000000093,"y":2540085.4100000039}},{"attributes":{"ID":393691,"DIS_CODE":0,"TOWNNAME":"南區","LI":"建南里","LIN":"16鄰","STREET":"中華南路","SECT":"二段","MAREA":" ","LANE":"２３３巷","ALLEY":" ","HOUSE_NO":"８號","E_COORD97":166887.94,"N_COORD97":2540131.3599999999,"ADDRESS":"中華南路二段２３３巷８號","OBJECTID":393667},"geometry":{"x":166887.94000000041,"y":2540131.3599999994}},{"attributes":{"ID":393692,"DIS_CODE":0,"TOWNNAME":"南區","LI":"喜北里","LIN":"16鄰","STREET":"喜樹路","SECT":" ","MAREA":" ","LANE":"２２２巷","ALLEY":" ","HOUSE_NO":"１０２號","E_COORD97":165467.48000000001,"N_COORD97":2538159.2400000002,"ADDRESS":"喜樹路２２２巷１０２號","OBJECTID":393668},"geometry":{"x":165467.48000000045,"y":2538159.2400000002}},{"attributes":{"ID":393693,"DIS_CODE":0,"TOWNNAME":"南區","LI":"建南里","LIN":"16鄰","STREET":"中華南路","SECT":"二段","MAREA":" ","LANE":"２３３巷","ALLEY":" ","HOUSE_NO":"２４０號","E_COORD97":167037.41,"N_COORD97":2539351.8199999998,"ADDRESS":"中華南路二段２３３巷２４０號","OBJECTID":393669},"geometry":{"x":167037.41000000015,"y":2539351.8200000022}},{"attributes":{"ID":393694,"DIS_CODE":0,"TOWNNAME":"南區","LI":"白雪里","LIN":"16鄰","STREET":"金華路","SECT":"一段","MAREA":" ","LANE":"１０１巷","ALLEY":" ","HOUSE_NO":"１２號","E_COORD97":166756.19,"N_COORD97":2540516,"ADDRESS":"金華路一段１０１巷１２號","OBJECTID":393670},"geometry":{"x":166756.18999999948,"y":2540516.0000000019}},{"attributes":{"ID":393695,"DIS_CODE":0,"TOWNNAME":"南區","LI":"建南里","LIN":"16鄰","STREET":"中華南路","SECT":"二段","MAREA":" ","LANE":"２３３巷","ALLEY":" ","HOUSE_NO":"６之９號","E_COORD97":166849.34,"N_COORD97":2540119.8700000001,"ADDRESS":"中華南路二段２３３巷６之９號","OBJECTID":393671},"geometry":{"x":166849.33999999985,"y":2540119.870000001}},{"attributes":{"ID":393696,"DIS_CODE":0,"TOWNNAME":"南區","LI":"建南里","LIN":"16鄰","STREET":"中華南路","SECT":"二段","MAREA":" ","LANE":"２３３巷","ALLEY":" ","HOUSE_NO":"６之１０號","E_COORD97":166845.41,"N_COORD97":2540116.9900000002,"ADDRESS":"中華南路二段２３３巷６之１０號","OBJECTID":393672},"geometry":{"x":166845.41000000015,"y":2540116.9900000021}},{"attributes":{"ID":393697,"DIS_CODE":0,"TOWNNAME":"歸仁區","LI":"崙頂里","LIN":"16鄰","STREET":"崙頂一街","SECT":" ","MAREA":" ","LANE":"２３巷","ALLEY":" ","HOUSE_NO":"１５號","E_COORD97":177945.88,"N_COORD97":2540024.25,"ADDRESS":"崙頂一街２３巷１５號","OBJECTID":393673},"geometry":{"x":177945.87999999989,"y":2540024.25}},{"attributes":{"ID":393698,"DIS_CODE":0,"TOWNNAME":"歸仁區","LI":"南保里","LIN":"16鄰","STREET":"文化十街","SECT":" ","MAREA":" ","LANE":"２８巷","ALLEY":" ","HOUSE_NO":"１１號","E_COORD97":176611.97,"N_COORD97":2541340.2599999998,"ADDRESS":"文化十街２８巷１１號","OBJECTID":393674},"geometry":{"x":176611.97000000067,"y":2541340.2599999979}},{"attributes":{"ID":393699,"DIS_CODE":0,"TOWNNAME":"歸仁區","LI":"南保里","LIN":"16鄰","STREET":"文化十街","SECT":" ","MAREA":" ","LANE":"２８巷","ALLEY":" ","HOUSE_NO":"１３號","E_COORD97":176620.17000000001,"N_COORD97":2541338.2599999998,"ADDRESS":"文化十街２８巷１３號","OBJECTID":393675},"geometry":{"x":176620.17000000179,"y":2541338.2600000016}},{"attributes":{"ID":393700,"DIS_CODE":0,"TOWNNAME":"歸仁區","LI":"南保里","LIN":"16鄰","STREET":"文化十街","SECT":" ","MAREA":" ","LANE":"２８巷","ALLEY":" ","HOUSE_NO":"１號","E_COORD97":176563.23999999999,"N_COORD97":2541342.3300000001,"ADDRESS":"文化十街２８巷１號","OBJECTID":393676},"geometry":{"x":176563.24000000115,"y":2541342.3300000001}},{"attributes":{"ID":393701,"DIS_CODE":0,"TOWNNAME":"歸仁區","LI":"南保里","LIN":"16鄰","STREET":"文化十街","SECT":" ","MAREA":" ","LANE":"２８巷","ALLEY":" ","HOUSE_NO":"９號","E_COORD97":176609.34,"N_COORD97":2541341.3300000001,"ADDRESS":"文化十街２８巷９號","OBJECTID":393677},"geometry":{"x":176609.34000000078,"y":2541341.3300000019}},{"attributes":{"ID":393702,"DIS_CODE":0,"TOWNNAME":"歸仁區","LI":"南保里","LIN":"16鄰","STREET":"文化十街","SECT":" ","MAREA":" ","LANE":"２８巷","ALLEY":" ","HOUSE_NO":"１９號","E_COORD97":176646.59,"N_COORD97":2541356.3300000001,"ADDRESS":"文化十街２８巷１９號","OBJECTID":393678},"geometry":{"x":176646.59000000078,"y":2541356.3300000001}},{"attributes":{"ID":393703,"DIS_CODE":0,"TOWNNAME":"歸仁區","LI":"南保里","LIN":"16鄰","STREET":"文化十街","SECT":" ","MAREA":" ","LANE":"２８巷","ALLEY":" ","HOUSE_NO":"３５號","E_COORD97":176677.29000000001,"N_COORD97":2541355.3300000001,"ADDRESS":"文化十街２８巷３５號","OBJECTID":393679},"geometry":{"x":176677.29000000097,"y":2541355.3300000019}},{"attributes":{"ID":393704,"DIS_CODE":0,"TOWNNAME":"歸仁區","LI":"南保里","LIN":"16鄰","STREET":"文化十街","SECT":" ","MAREA":" ","LANE":"２８巷","ALLEY":" ","HOUSE_NO":"１７號","E_COORD97":176646.48999999999,"N_COORD97":2541343.3300000001,"ADDRESS":"文化十街２８巷１７號","OBJECTID":393680},"geometry":{"x":176646.49000000022,"y":2541343.3300000001}},{"attributes":{"ID":393705,"DIS_CODE":0,"TOWNNAME":"歸仁區","LI":"南保里","LIN":"16鄰","STREET":"文化十街","SECT":" ","MAREA":" ","LANE":"２８巷","ALLEY":" ","HOUSE_NO":"３９號","E_COORD97":176690.69,"N_COORD97":2541357.3300000001,"ADDRESS":"文化十街２８巷３９號","OBJECTID":393681},"geometry":{"x":176690.69000000134,"y":2541357.3300000038}},{"attributes":{"ID":393706,"DIS_CODE":0,"TOWNNAME":"歸仁區","LI":"武東里","LIN":"16鄰","STREET":"光明街","SECT":" ","MAREA":" ","LANE":"３６巷","ALLEY":" ","HOUSE_NO":"５號","E_COORD97":175737.89000000001,"N_COORD97":2536644.25,"ADDRESS":"光明街３６巷５號","OBJECTID":393682},"geometry":{"x":175737.88999999966,"y":2536644.25}},{"attributes":{"ID":393707,"DIS_CODE":0,"TOWNNAME":"歸仁區","LI":"武東里","LIN":"16鄰","STREET":"光明街","SECT":" ","MAREA":" ","LANE":"３６巷","ALLEY":" ","HOUSE_NO":"６號","E_COORD97":175762.69,"N_COORD97":2536666.25,"ADDRESS":"光明街３６巷６號","OBJECTID":393683},"geometry":{"x":175762.68999999948,"y":2536666.2500000019}},{"attributes":{"ID":393708,"DIS_CODE":0,"TOWNNAME":"歸仁區","LI":"武東里","LIN":"16鄰","STREET":"光明街","SECT":" ","MAREA":" ","LANE":"３６巷","ALLEY":" ","HOUSE_NO":"３號","E_COORD97":175754.39000000001,"N_COORD97":2536641.25,"ADDRESS":"光明街３６巷３號","OBJECTID":393684},"geometry":{"x":175754.3900000006,"y":2536641.25}},{"attributes":{"ID":393709,"DIS_CODE":0,"TOWNNAME":"玉井區","LI":"中正里","LIN":"16鄰","STREET":"玉安街","SECT":" ","MAREA":" ","LANE":"１７８巷","ALLEY":" ","HOUSE_NO":"６號","E_COORD97":195170.66,"N_COORD97":2558599.3100000001,"ADDRESS":"玉安街１７８巷６號","OBJECTID":393685},"geometry":{"x":195170.66000000015,"y":2558599.3100000024}},{"attributes":{"ID":393710,"DIS_CODE":0,"TOWNNAME":"玉井區","LI":"中正里","LIN":"16鄰","STREET":"玉安街","SECT":" ","MAREA":" ","LANE":"１７８巷","ALLEY":" ","HOUSE_NO":"２號","E_COORD97":195167.76000000001,"N_COORD97":2558601.3100000001,"ADDRESS":"玉安街１７８巷２號","OBJECTID":393686},"geometry":{"x":195167.75999999978,"y":2558601.3100000042}},{"attributes":{"ID":393711,"DIS_CODE":0,"TOWNNAME":"玉井區","LI":"中正里","LIN":"16鄰","STREET":"玉安街","SECT":" ","MAREA":" ","LANE":"１７８巷","ALLEY":" ","HOUSE_NO":"３號","E_COORD97":195194.07000000001,"N_COORD97":2558626.3100000001,"ADDRESS":"玉安街１７８巷３號","OBJECTID":393687},"geometry":{"x":195194.07000000123,"y":2558626.3100000024}},{"attributes":{"ID":393712,"DIS_CODE":0,"TOWNNAME":"玉井區","LI":"玉井里","LIN":"16鄰","STREET":"中正路","SECT":" ","MAREA":" ","LANE":"１００巷","ALLEY":" ","HOUSE_NO":"３０號","E_COORD97":194901.51000000001,"N_COORD97":2558107.2400000002,"ADDRESS":"中正路１００巷３０號","OBJECTID":393688},"geometry":{"x":194901.50999999978,"y":2558107.2400000021}},{"attributes":{"ID":393713,"DIS_CODE":0,"TOWNNAME":"玉井區","LI":"玉井里","LIN":"16鄰","STREET":"民主街","SECT":" ","MAREA":" ","LANE":"３９巷","ALLEY":" ","HOUSE_NO":"２之１號","E_COORD97":194864.54000000001,"N_COORD97":2558100.29,"ADDRESS":"民主街３９巷２之１號","OBJECTID":393689},"geometry":{"x":194864.54000000004,"y":2558100.2899999991}},{"attributes":{"ID":393714,"DIS_CODE":0,"TOWNNAME":"玉井區","LI":"玉井里","LIN":"16鄰","STREET":"中正路","SECT":" ","MAREA":" ","LANE":"１００巷","ALLEY":" ","HOUSE_NO":"７號","E_COORD97":194896.54999999999,"N_COORD97":2558123.25,"ADDRESS":"中正路１００巷７號","OBJECTID":393690},"geometry":{"x":194896.54999999981,"y":2558123.2500000037}},{"attributes":{"ID":393715,"DIS_CODE":0,"TOWNNAME":"玉井區","LI":"玉井里","LIN":"16鄰","STREET":"民主街","SECT":" ","MAREA":" ","LANE":"３９巷","ALLEY":" ","HOUSE_NO":"２號","E_COORD97":194862.13,"N_COORD97":2558091.2799999998,"ADDRESS":"民主街３９巷２號","OBJECTID":393691},"geometry":{"x":194862.12999999989,"y":2558091.2799999993}},{"attributes":{"ID":393716,"DIS_CODE":0,"TOWNNAME":"玉井區","LI":"玉田里","LIN":"16鄰","STREET":"中正路","SECT":" ","MAREA":" ","LANE":"４巷","ALLEY":" ","HOUSE_NO":"１０號","E_COORD97":194639.51000000001,"N_COORD97":2557714.25,"ADDRESS":"中正路４巷１０號","OBJECTID":393692},"geometry":{"x":194639.51000000071,"y":2557714.2500000019}},{"attributes":{"ID":393717,"DIS_CODE":0,"TOWNNAME":"玉井區","LI":"玉田里","LIN":"16鄰","STREET":"中正路","SECT":" ","MAREA":" ","LANE":"４巷","ALLEY":" ","HOUSE_NO":"４號","E_COORD97":194635.45999999999,"N_COORD97":2557691.2400000002,"ADDRESS":"中正路４巷４號","OBJECTID":393693},"geometry":{"x":194635.46000000089,"y":2557691.2400000002}},{"attributes":{"ID":393718,"DIS_CODE":0,"TOWNNAME":"玉井區","LI":"玉井里","LIN":"16鄰","STREET":"中正路","SECT":" ","MAREA":" ","LANE":"１００巷","ALLEY":" ","HOUSE_NO":"２６號","E_COORD97":194895.60000000001,"N_COORD97":2558108.2400000002,"ADDRESS":"中正路１００巷２６號","OBJECTID":393694},"geometry":{"x":194895.59999999963,"y":2558108.2400000002}},{"attributes":{"ID":393719,"DIS_CODE":0,"TOWNNAME":"玉井區","LI":"玉井里","LIN":"16鄰","STREET":"中正路","SECT":" ","MAREA":" ","LANE":"１００巷","ALLEY":" ","HOUSE_NO":"５號","E_COORD97":194891.76000000001,"N_COORD97":2558125.25,"ADDRESS":"中正路１００巷５號","OBJECTID":393695},"geometry":{"x":194891.75999999885,"y":2558125.25}},{"attributes":{"ID":393720,"DIS_CODE":0,"TOWNNAME":"玉井區","LI":"玉井里","LIN":"16鄰","STREET":"中正路","SECT":" ","MAREA":" ","LANE":"１００巷","ALLEY":" ","HOUSE_NO":"２８號","E_COORD97":194898.60000000001,"N_COORD97":2558108.2400000002,"ADDRESS":"中正路１００巷２８號","OBJECTID":393696},"geometry":{"x":194898.60000000056,"y":2558108.2400000002}},{"attributes":{"ID":393721,"DIS_CODE":0,"TOWNNAME":"玉井區","LI":"玉井里","LIN":"16鄰","STREET":"中正路","SECT":" ","MAREA":" ","LANE":"１００巷","ALLEY":" ","HOUSE_NO":"３２號","E_COORD97":194904.60000000001,"N_COORD97":2558107.2400000002,"ADDRESS":"中正路１００巷３２號","OBJECTID":393697},"geometry":{"x":194904.5999999987,"y":2558107.2400000021}},{"attributes":{"ID":393722,"DIS_CODE":0,"TOWNNAME":"玉井區","LI":"中正里","LIN":"16鄰","STREET":"玉安街","SECT":" ","MAREA":" ","LANE":"１７８巷","ALLEY":" ","HOUSE_NO":"１０號","E_COORD97":195178.82999999999,"N_COORD97":2558595.3100000001,"ADDRESS":"玉安街１７８巷１０號","OBJECTID":393698},"geometry":{"x":195178.83000000101,"y":2558595.3100000024}},{"attributes":{"ID":393723,"DIS_CODE":0,"TOWNNAME":"玉井區","LI":"玉井里","LIN":"16鄰","STREET":"中正路","SECT":" ","MAREA":" ","LANE":"１００巷","ALLEY":" ","HOUSE_NO":"１３號","E_COORD97":194907.60000000001,"N_COORD97":2558121.25,"ADDRESS":"中正路１００巷１３號","OBJECTID":393699},"geometry":{"x":194907.59999999963,"y":2558121.2500000019}},{"attributes":{"ID":393724,"DIS_CODE":0,"TOWNNAME":"玉井區","LI":"玉井里","LIN":"16鄰","STREET":"民主街","SECT":" ","MAREA":" ","LANE":"３９巷","ALLEY":" ","HOUSE_NO":"６號","E_COORD97":194862.13,"N_COORD97":2558106.2799999998,"ADDRESS":"民主街３９巷６號","OBJECTID":393700},"geometry":{"x":194862.12999999989,"y":2558106.2800000012}},{"attributes":{"ID":393725,"DIS_CODE":0,"TOWNNAME":"玉井區","LI":"玉田里","LIN":"16鄰","STREET":"中正路","SECT":" ","MAREA":" ","LANE":"４巷","ALLEY":" ","HOUSE_NO":"１１號","E_COORD97":194629.51000000001,"N_COORD97":2557713.25,"ADDRESS":"中正路４巷１１號","OBJECTID":393701},"geometry":{"x":194629.51000000071,"y":2557713.2500000019}},{"attributes":{"ID":393726,"DIS_CODE":0,"TOWNNAME":"玉井區","LI":"玉井里","LIN":"16鄰","STREET":"中正路","SECT":" ","MAREA":" ","LANE":"１００巷","ALLEY":" ","HOUSE_NO":"２４號","E_COORD97":194893.10000000001,"N_COORD97":2558109.25,"ADDRESS":"中正路１００巷２４號","OBJECTID":393702},"geometry":{"x":194893.10000000056,"y":2558109.25}},{"attributes":{"ID":393727,"DIS_CODE":0,"TOWNNAME":"歸仁區","LI":"歸仁里","LIN":"16鄰","STREET":"信義北路","SECT":" ","MAREA":" ","LANE":"８２巷","ALLEY":" ","HOUSE_NO":"９號","E_COORD97":178044.91,"N_COORD97":2540988.6800000002,"ADDRESS":"信義北路８２巷９號","OBJECTID":393703},"geometry":{"x":178044.91000000108,"y":2540988.6800000016}},{"attributes":{"ID":393728,"DIS_CODE":0,"TOWNNAME":"北區","LI":"中樓里","LIN":"16鄰","STREET":"東豐路","SECT":" ","MAREA":" ","LANE":"１４３巷","ALLEY":" ","HOUSE_NO":"６２號","E_COORD97":169894.76000000001,"N_COORD97":2545004.96,"ADDRESS":"東豐路１４３巷６２號","OBJECTID":393704},"geometry":{"x":169894.76000000164,"y":2545004.9600000009}},{"attributes":{"ID":393729,"DIS_CODE":0,"TOWNNAME":"北區","LI":"中樓里","LIN":"16鄰","STREET":"東豐路","SECT":" ","MAREA":" ","LANE":"１４３巷","ALLEY":" ","HOUSE_NO":"６４號","E_COORD97":169898.73000000001,"N_COORD97":2545042.7799999998,"ADDRESS":"東豐路１４３巷６４號","OBJECTID":393705},"geometry":{"x":169898.73000000045,"y":2545042.7800000012}},{"attributes":{"ID":393730,"DIS_CODE":0,"TOWNNAME":"北區","LI":"中樓里","LIN":"16鄰","STREET":"東豐路","SECT":" ","MAREA":" ","LANE":"１４３巷","ALLEY":" ","HOUSE_NO":"６６號","E_COORD97":169897.57000000001,"N_COORD97":2545027.6800000002,"ADDRESS":"東豐路１４３巷６６號","OBJECTID":393706},"geometry":{"x":169897.5700000003,"y":2545027.6800000016}},{"attributes":{"ID":393731,"DIS_CODE":0,"TOWNNAME":"北區","LI":"中樓里","LIN":"16鄰","STREET":"東豐路","SECT":" ","MAREA":" ","LANE":"１４３巷","ALLEY":" ","HOUSE_NO":"６８號","E_COORD97":169890.35000000001,"N_COORD97":2545023.9100000001,"ADDRESS":"東豐路１４３巷６８號","OBJECTID":393707},"geometry":{"x":169890.3499999987,"y":2545023.9100000001}},{"attributes":{"ID":393732,"DIS_CODE":0,"TOWNNAME":"北區","LI":"中樓里","LIN":"16鄰","STREET":"東豐路","SECT":" ","MAREA":" ","LANE":"１４３巷","ALLEY":" ","HOUSE_NO":"７０號","E_COORD97":169882.42000000001,"N_COORD97":2545006.96,"ADDRESS":"東豐路１４３巷７０號","OBJECTID":393708},"geometry":{"x":169882.42000000086,"y":2545006.9600000028}},{"attributes":{"ID":393733,"DIS_CODE":0,"TOWNNAME":"北區","LI":"中樓里","LIN":"16鄰","STREET":"東豐路","SECT":" ","MAREA":" ","LANE":"１４３巷","ALLEY":" ","HOUSE_NO":"７２號","E_COORD97":169875.23999999999,"N_COORD97":2545001.1099999999,"ADDRESS":"東豐路１４３巷７２號","OBJECTID":393709},"geometry":{"x":169875.24000000115,"y":2545001.1099999994}},{"attributes":{"ID":393734,"DIS_CODE":0,"TOWNNAME":"北區","LI":"中樓里","LIN":"16鄰","STREET":"東豐路","SECT":" ","MAREA":" ","LANE":"１４３巷","ALLEY":" ","HOUSE_NO":"７４號","E_COORD97":169872.03,"N_COORD97":2544999.9900000002,"ADDRESS":"東豐路１４３巷７４號","OBJECTID":393710},"geometry":{"x":169872.03000000119,"y":2544999.9900000002}},{"attributes":{"ID":393735,"DIS_CODE":0,"TOWNNAME":"北區","LI":"中樓里","LIN":"16鄰","STREET":"東豐路","SECT":" ","MAREA":" ","LANE":"１４３巷","ALLEY":" ","HOUSE_NO":"７６號","E_COORD97":169868.59,"N_COORD97":2544998.71,"ADDRESS":"東豐路１４３巷７６號","OBJECTID":393711},"geometry":{"x":169868.58999999985,"y":2544998.7100000009}},{"attributes":{"ID":393736,"DIS_CODE":0,"TOWNNAME":"北區","LI":"中樓里","LIN":"16鄰","STREET":"東豐路","SECT":" ","MAREA":" ","LANE":"１４３巷","ALLEY":" ","HOUSE_NO":"７８號","E_COORD97":169863.29999999999,"N_COORD97":2544997.8199999998,"ADDRESS":"東豐路１４３巷７８號","OBJECTID":393712},"geometry":{"x":169863.29999999981,"y":2544997.8200000003}},{"attributes":{"ID":393737,"DIS_CODE":0,"TOWNNAME":"北區","LI":"中樓里","LIN":"16鄰","STREET":"東豐路","SECT":" ","MAREA":" ","LANE":"１４３巷","ALLEY":" ","HOUSE_NO":"８０號","E_COORD97":169856.23999999999,"N_COORD97":2544996.8599999999,"ADDRESS":"東豐路１４３巷８０號","OBJECTID":393713},"geometry":{"x":169856.24000000209,"y":2544996.8599999994}},{"attributes":{"ID":393738,"DIS_CODE":0,"TOWNNAME":"北區","LI":"正覺里","LIN":"16鄰","STREET":"正覺街","SECT":" ","MAREA":" ","LANE":"６６巷","ALLEY":" ","HOUSE_NO":"１４號","E_COORD97":169357.48000000001,"N_COORD97":2546411.52,"ADDRESS":"正覺街６６巷１４號","OBJECTID":393714},"geometry":{"x":169357.48000000045,"y":2546411.5200000014}},{"attributes":{"ID":393739,"DIS_CODE":0,"TOWNNAME":"北區","LI":"正覺里","LIN":"16鄰","STREET":"正覺街","SECT":" ","MAREA":" ","LANE":"６６巷","ALLEY":" ","HOUSE_NO":"１５號","E_COORD97":169342.01000000001,"N_COORD97":2546411.8900000001,"ADDRESS":"正覺街６６巷１５號","OBJECTID":393715},"geometry":{"x":169342.01000000164,"y":2546411.8900000006}},{"attributes":{"ID":393740,"DIS_CODE":0,"TOWNNAME":"北區","LI":"正覺里","LIN":"16鄰","STREET":"正覺街","SECT":" ","MAREA":" ","LANE":"６６巷","ALLEY":" ","HOUSE_NO":"１６號","E_COORD97":169357.98999999999,"N_COORD97":2546417.8500000001,"ADDRESS":"正覺街６６巷１６號","OBJECTID":393716},"geometry":{"x":169357.99000000209,"y":2546417.8499999996}},{"attributes":{"ID":393741,"DIS_CODE":0,"TOWNNAME":"北區","LI":"正覺里","LIN":"16鄰","STREET":"正覺街","SECT":" ","MAREA":" ","LANE":"６６巷","ALLEY":" ","HOUSE_NO":"１７號","E_COORD97":169342.29999999999,"N_COORD97":2546417.7200000002,"ADDRESS":"正覺街６６巷１７號","OBJECTID":393717},"geometry":{"x":169342.30000000075,"y":2546417.7200000025}},{"attributes":{"ID":393742,"DIS_CODE":0,"TOWNNAME":"北區","LI":"正覺里","LIN":"16鄰","STREET":"正覺街","SECT":" ","MAREA":" ","LANE":"６６巷","ALLEY":" ","HOUSE_NO":"１９號","E_COORD97":169343.35999999999,"N_COORD97":2546421.96,"ADDRESS":"正覺街６６巷１９號","OBJECTID":393718},"geometry":{"x":169343.36000000034,"y":2546421.9600000009}},{"attributes":{"ID":393743,"DIS_CODE":0,"TOWNNAME":"北區","LI":"正覺里","LIN":"16鄰","STREET":"正覺街","SECT":" ","MAREA":" ","LANE":"６６巷","ALLEY":" ","HOUSE_NO":"１號","E_COORD97":169329.47,"N_COORD97":2546372.5499999998,"ADDRESS":"正覺街６６巷１號","OBJECTID":393719},"geometry":{"x":169329.47000000067,"y":2546372.5500000007}},{"attributes":{"ID":393744,"DIS_CODE":0,"TOWNNAME":"北區","LI":"正覺里","LIN":"16鄰","STREET":"正覺街","SECT":" ","MAREA":" ","LANE":"６６巷","ALLEY":" ","HOUSE_NO":"２０號","E_COORD97":169359.41,"N_COORD97":2546428.8199999998,"ADDRESS":"正覺街６６巷２０號","OBJECTID":393720},"geometry":{"x":169359.41000000015,"y":2546428.8200000003}},{"attributes":{"ID":393745,"DIS_CODE":0,"TOWNNAME":"北區","LI":"正覺里","LIN":"16鄰","STREET":"正覺街","SECT":" ","MAREA":" ","LANE":"６６巷","ALLEY":" ","HOUSE_NO":"２１號","E_COORD97":169344.64000000001,"N_COORD97":2546426,"ADDRESS":"正覺街６６巷２１號","OBJECTID":393721},"geometry":{"x":169344.6400000006,"y":2546426.0000000019}},{"attributes":{"ID":393746,"DIS_CODE":0,"TOWNNAME":"北區","LI":"正覺里","LIN":"16鄰","STREET":"正覺街","SECT":" ","MAREA":" ","LANE":"６６巷","ALLEY":" ","HOUSE_NO":"２２號","E_COORD97":169360.32999999999,"N_COORD97":2546432.4300000002,"ADDRESS":"正覺街６６巷２２號","OBJECTID":393722},"geometry":{"x":169360.33000000007,"y":2546432.4300000016}},{"attributes":{"ID":393747,"DIS_CODE":0,"TOWNNAME":"北區","LI":"正覺里","LIN":"16鄰","STREET":"正覺街","SECT":" ","MAREA":" ","LANE":"６６巷","ALLEY":" ","HOUSE_NO":"２３號","E_COORD97":169345.70000000001,"N_COORD97":2546430.6800000002,"ADDRESS":"正覺街６６巷２３號","OBJECTID":393723},"geometry":{"x":169345.70000000019,"y":2546430.6800000016}},{"attributes":{"ID":393748,"DIS_CODE":0,"TOWNNAME":"北區","LI":"正覺里","LIN":"16鄰","STREET":"正覺街","SECT":" ","MAREA":" ","LANE":"６６巷","ALLEY":" ","HOUSE_NO":"２４號","E_COORD97":169362.73000000001,"N_COORD97":2546436.8199999998,"ADDRESS":"正覺街６６巷２４號","OBJECTID":393724},"geometry":{"x":169362.73000000045,"y":2546436.8200000022}},{"attributes":{"ID":393749,"DIS_CODE":0,"TOWNNAME":"北區","LI":"正覺里","LIN":"16鄰","STREET":"正覺街","SECT":" ","MAREA":" ","LANE":"６６巷","ALLEY":" ","HOUSE_NO":"２５號","E_COORD97":169346.20000000001,"N_COORD97":2546436.2000000002,"ADDRESS":"正覺街６６巷２５號","OBJECTID":393725},"geometry":{"x":169346.20000000205,"y":2546436.200000003}},{"attributes":{"ID":393750,"DIS_CODE":0,"TOWNNAME":"北區","LI":"正覺里","LIN":"16鄰","STREET":"正覺街","SECT":" ","MAREA":" ","LANE":"６６巷","ALLEY":" ","HOUSE_NO":"２６號","E_COORD97":169361.53,"N_COORD97":2546441.1400000001,"ADDRESS":"正覺街６６巷２６號","OBJECTID":393726},"geometry":{"x":169361.53000000119,"y":2546441.1400000043}},{"attributes":{"ID":393751,"DIS_CODE":0,"TOWNNAME":"北區","LI":"正覺里","LIN":"16鄰","STREET":"正覺街","SECT":" ","MAREA":" ","LANE":"６６巷","ALLEY":" ","HOUSE_NO":"２７號","E_COORD97":169346.62,"N_COORD97":2546440.02,"ADDRESS":"正覺街６６巷２７號","OBJECTID":393727},"geometry":{"x":169346.61999999918,"y":2546440.0199999996}},{"attributes":{"ID":393752,"DIS_CODE":0,"TOWNNAME":"北區","LI":"正覺里","LIN":"16鄰","STREET":"正覺街","SECT":" ","MAREA":" ","LANE":"６６巷","ALLEY":" ","HOUSE_NO":"２９號","E_COORD97":169348.04000000001,"N_COORD97":2546444.27,"ADDRESS":"正覺街６６巷２９號","OBJECTID":393728},"geometry":{"x":169348.04000000004,"y":2546444.2700000014}},{"attributes":{"ID":393753,"DIS_CODE":0,"TOWNNAME":"北區","LI":"正覺里","LIN":"16鄰","STREET":"正覺街","SECT":" ","MAREA":" ","LANE":"６６巷","ALLEY":" ","HOUSE_NO":"３號","E_COORD97":169317.17000000001,"N_COORD97":2546345.3700000001,"ADDRESS":"正覺街６６巷３號","OBJECTID":393729},"geometry":{"x":169317.16999999993,"y":2546345.3700000048}},{"attributes":{"ID":393754,"DIS_CODE":0,"TOWNNAME":"北區","LI":"正覺里","LIN":"16鄰","STREET":"正覺街","SECT":" ","MAREA":" ","LANE":"６６巷","ALLEY":" ","HOUSE_NO":"４號","E_COORD97":169346.22,"N_COORD97":2546374.04,"ADDRESS":"正覺街６６巷４號","OBJECTID":393730},"geometry":{"x":169346.22000000067,"y":2546374.040000001}},{"attributes":{"ID":393755,"DIS_CODE":0,"TOWNNAME":"北區","LI":"正覺里","LIN":"16鄰","STREET":"正覺街","SECT":" ","MAREA":" ","LANE":"６６巷","ALLEY":" ","HOUSE_NO":"５號","E_COORD97":169334.92999999999,"N_COORD97":2546384.9300000002,"ADDRESS":"正覺街６６巷５號","OBJECTID":393731},"geometry":{"x":169334.9299999997,"y":2546384.9300000016}},{"attributes":{"ID":393756,"DIS_CODE":0,"TOWNNAME":"北區","LI":"正覺里","LIN":"16鄰","STREET":"正覺街","SECT":" ","MAREA":" ","LANE":"６６巷","ALLEY":" ","HOUSE_NO":"７號","E_COORD97":169336.13,"N_COORD97":2546390.3500000001,"ADDRESS":"正覺街６６巷７號","OBJECTID":393732},"geometry":{"x":169336.12999999896,"y":2546390.3499999996}},{"attributes":{"ID":393757,"DIS_CODE":0,"TOWNNAME":"北區","LI":"正覺里","LIN":"16鄰","STREET":"正覺街","SECT":" ","MAREA":" ","LANE":"６６巷","ALLEY":" ","HOUSE_NO":"８號","E_COORD97":169349.45000000001,"N_COORD97":2546379.0699999998,"ADDRESS":"正覺街６６巷８號","OBJECTID":393733},"geometry":{"x":169349.45000000019,"y":2546379.0700000003}},{"attributes":{"ID":393758,"DIS_CODE":0,"TOWNNAME":"北區","LI":"正覺里","LIN":"16鄰","STREET":"正覺街","SECT":" ","MAREA":" ","LANE":"６６巷","ALLEY":" ","HOUSE_NO":"９號","E_COORD97":169337.62,"N_COORD97":2546395.23,"ADDRESS":"正覺街６６巷９號","OBJECTID":393734},"geometry":{"x":169337.62000000011,"y":2546395.2300000004}},{"attributes":{"ID":393759,"DIS_CODE":0,"TOWNNAME":"安平區","LI":"港仔里","LIN":"16鄰","STREET":"運河路","SECT":" ","MAREA":" ","LANE":"２３巷","ALLEY":" ","HOUSE_NO":"１６號","E_COORD97":164115.20999999999,"N_COORD97":2544478.5299999998,"ADDRESS":"運河路２３巷１６號","OBJECTID":393735},"geometry":{"x":164115.21000000089,"y":2544478.5300000012}},{"attributes":{"ID":393760,"DIS_CODE":0,"TOWNNAME":"安平區","LI":"港仔里","LIN":"16鄰","STREET":"運河路","SECT":" ","MAREA":" ","LANE":"２３巷","ALLEY":" ","HOUSE_NO":"１６號之１","E_COORD97":164125.89999999999,"N_COORD97":2544485.6800000002,"ADDRESS":"運河路２３巷１６號之１","OBJECTID":393736},"geometry":{"x":164125.9000000013,"y":2544485.6799999997}},{"attributes":{"ID":393761,"DIS_CODE":0,"TOWNNAME":"安平區","LI":"港仔里","LIN":"16鄰","STREET":"運河路","SECT":" ","MAREA":" ","LANE":"２３巷","ALLEY":" ","HOUSE_NO":"１８號","E_COORD97":164104.42000000001,"N_COORD97":2544481.5499999998,"ADDRESS":"運河路２３巷１８號","OBJECTID":393737},"geometry":{"x":164104.41999999993,"y":2544481.5500000007}},{"attributes":{"ID":393762,"DIS_CODE":0,"TOWNNAME":"安平區","LI":"港仔里","LIN":"16鄰","STREET":"運河路","SECT":" ","MAREA":" ","LANE":"２３巷","ALLEY":" ","HOUSE_NO":"１８號之１","E_COORD97":164109.26000000001,"N_COORD97":2544480.04,"ADDRESS":"運河路２３巷１８號之１","OBJECTID":393738},"geometry":{"x":164109.26000000071,"y":2544480.0399999991}},{"attributes":{"ID":393763,"DIS_CODE":0,"TOWNNAME":"安平區","LI":"港仔里","LIN":"16鄰","STREET":"運河路","SECT":" ","MAREA":" ","LANE":"２３巷","ALLEY":" ","HOUSE_NO":"２０號","E_COORD97":164113.79000000001,"N_COORD97":2544504.52,"ADDRESS":"運河路２３巷２０號","OBJECTID":393739},"geometry":{"x":164113.79000000004,"y":2544504.5199999996}},{"attributes":{"ID":393764,"DIS_CODE":0,"TOWNNAME":"安平區","LI":"港仔里","LIN":"16鄰","STREET":"運河路","SECT":" ","MAREA":" ","LANE":"２３巷","ALLEY":" ","HOUSE_NO":"１０號","E_COORD97":164113.78,"N_COORD97":2544468.5299999998,"ADDRESS":"運河路２３巷１０號","OBJECTID":393740},"geometry":{"x":164113.78000000026,"y":2544468.5300000012}},{"attributes":{"ID":393765,"DIS_CODE":0,"TOWNNAME":"安平區","LI":"港仔里","LIN":"16鄰","STREET":"運河路","SECT":" ","MAREA":" ","LANE":"２３巷","ALLEY":" ","HOUSE_NO":"１２號","E_COORD97":164108.04000000001,"N_COORD97":2544467.9100000001,"ADDRESS":"運河路２３巷１２號","OBJECTID":393741},"geometry":{"x":164108.04000000097,"y":2544467.9100000001}},{"attributes":{"ID":393766,"DIS_CODE":0,"TOWNNAME":"安平區","LI":"港仔里","LIN":"16鄰","STREET":"運河路","SECT":" ","MAREA":" ","LANE":"２３巷","ALLEY":" ","HOUSE_NO":"１４號","E_COORD97":164104.14999999999,"N_COORD97":2544468.5299999998,"ADDRESS":"運河路２３巷１４號","OBJECTID":393742},"geometry":{"x":164104.1500000013,"y":2544468.5300000012}},{"attributes":{"ID":393767,"DIS_CODE":0,"TOWNNAME":"安平區","LI":"港仔里","LIN":"16鄰","STREET":"運河路","SECT":" ","MAREA":" ","LANE":"２３巷","ALLEY":" ","HOUSE_NO":"６號","E_COORD97":164109.67999999999,"N_COORD97":2544454.8999999999,"ADDRESS":"運河路２３巷６號","OBJECTID":393743},"geometry":{"x":164109.68000000063,"y":2544454.9000000004}},{"attributes":{"ID":393768,"DIS_CODE":0,"TOWNNAME":"安平區","LI":"港仔里","LIN":"16鄰","STREET":"運河路","SECT":" ","MAREA":" ","LANE":"２３巷","ALLEY":" ","HOUSE_NO":"８號","E_COORD97":164102.32000000001,"N_COORD97":2544455,"ADDRESS":"運河路２３巷８號","OBJECTID":393744},"geometry":{"x":164102.32000000216,"y":2544455.0000000037}},{"attributes":{"ID":393769,"DIS_CODE":0,"TOWNNAME":"六甲區","LI":"甲南里","LIN":"16鄰","STREET":"忠孝街","SECT":" ","MAREA":" ","LANE":"１２３巷","ALLEY":" ","HOUSE_NO":"２號","E_COORD97":183972.23999999999,"N_COORD97":2569812.9199999999,"ADDRESS":"忠孝街１２３巷２號","OBJECTID":393745},"geometry":{"x":183972.24000000115,"y":2569812.9200000018}},{"attributes":{"ID":393770,"DIS_CODE":0,"TOWNNAME":"六甲區","LI":"甲南里","LIN":"16鄰","STREET":"忠孝街","SECT":" ","MAREA":" ","LANE":"１２３巷","ALLEY":" ","HOUSE_NO":"４號","E_COORD97":183971.5,"N_COORD97":2569821.6699999999,"ADDRESS":"忠孝街１２３巷４號","OBJECTID":393746},"geometry":{"x":183971.5,"y":2569821.6700000018}},{"attributes":{"ID":393771,"DIS_CODE":0,"TOWNNAME":"六甲區","LI":"水林里","LIN":"16鄰","STREET":"信義街","SECT":" ","MAREA":" ","LANE":"３４９巷","ALLEY":" ","HOUSE_NO":"１０號","E_COORD97":183377.66,"N_COORD97":2570116.73,"ADDRESS":"信義街３４９巷１０號","OBJECTID":393747},"geometry":{"x":183377.66000000201,"y":2570116.7300000023}},{"attributes":{"ID":393772,"DIS_CODE":0,"TOWNNAME":"六甲區","LI":"水林里","LIN":"16鄰","STREET":"林森街","SECT":" ","MAREA":" ","LANE":"１２巷","ALLEY":" ","HOUSE_NO":"１１號","E_COORD97":183289.92000000001,"N_COORD97":2570121.1200000001,"ADDRESS":"林森街１２巷１１號","OBJECTID":393748},"geometry":{"x":183289.92000000086,"y":2570121.1200000029}},{"attributes":{"ID":393773,"DIS_CODE":0,"TOWNNAME":"六甲區","LI":"水林里","LIN":"16鄰","STREET":"林森街","SECT":" ","MAREA":" ","LANE":"１２巷","ALLEY":" ","HOUSE_NO":"１３號","E_COORD97":183294.51000000001,"N_COORD97":2570119.7200000002,"ADDRESS":"林森街１２巷１３號","OBJECTID":393749},"geometry":{"x":183294.50999999978,"y":2570119.7200000025}},{"attributes":{"ID":393774,"DIS_CODE":0,"TOWNNAME":"六甲區","LI":"水林里","LIN":"16鄰","STREET":"林森街","SECT":" ","MAREA":" ","LANE":"１２巷","ALLEY":" ","HOUSE_NO":"１５號","E_COORD97":183299.35999999999,"N_COORD97":2570119.2200000002,"ADDRESS":"林森街１２巷１５號","OBJECTID":393750},"geometry":{"x":183299.36000000034,"y":2570119.2200000044}},{"attributes":{"ID":393775,"DIS_CODE":0,"TOWNNAME":"六甲區","LI":"水林里","LIN":"16鄰","STREET":"林森街","SECT":" ","MAREA":" ","LANE":"２４巷","ALLEY":" ","HOUSE_NO":"５號","E_COORD97":183286.51999999999,"N_COORD97":2570185.6200000001,"ADDRESS":"林森街２４巷５號","OBJECTID":393751},"geometry":{"x":183286.52000000048,"y":2570185.6200000029}},{"attributes":{"ID":393776,"DIS_CODE":0,"TOWNNAME":"六甲區","LI":"水林里","LIN":"16鄰","STREET":"林森街","SECT":" ","MAREA":" ","LANE":"２４巷","ALLEY":" ","HOUSE_NO":"６號","E_COORD97":183279.69,"N_COORD97":2570173.8300000001,"ADDRESS":"林森街２４巷６號","OBJECTID":393752},"geometry":{"x":183279.69000000134,"y":2570173.8300000001}},{"attributes":{"ID":393777,"DIS_CODE":0,"TOWNNAME":"六甲區","LI":"水林里","LIN":"16鄰","STREET":"林森街","SECT":" ","MAREA":" ","LANE":"２４巷","ALLEY":" ","HOUSE_NO":"８號","E_COORD97":183284.89000000001,"N_COORD97":2570172.4100000001,"ADDRESS":"林森街２４巷８號","OBJECTID":393753},"geometry":{"x":183284.88999999966,"y":2570172.410000002}},{"attributes":{"ID":393778,"DIS_CODE":0,"TOWNNAME":"六甲區","LI":"水林里","LIN":"16鄰","STREET":"信義街","SECT":" ","MAREA":" ","LANE":"３４９巷","ALLEY":" ","HOUSE_NO":"２號","E_COORD97":183391.04000000001,"N_COORD97":2570113.2799999998,"ADDRESS":"信義街３４９巷２號","OBJECTID":393754},"geometry":{"x":183391.04000000004,"y":2570113.2799999993}},{"attributes":{"ID":393779,"DIS_CODE":0,"TOWNNAME":"六甲區","LI":"水林里","LIN":"16鄰","STREET":"信義街","SECT":" ","MAREA":" ","LANE":"３４９巷","ALLEY":" ","HOUSE_NO":"６號","E_COORD97":183386.48999999999,"N_COORD97":2570114.4199999999,"ADDRESS":"信義街３４９巷６號","OBJECTID":393755},"geometry":{"x":183386.49000000022,"y":2570114.4200000018}},{"attributes":{"ID":393780,"DIS_CODE":0,"TOWNNAME":"六甲區","LI":"水林里","LIN":"16鄰","STREET":"信義街","SECT":" ","MAREA":" ","LANE":"３４９巷","ALLEY":" ","HOUSE_NO":"８號","E_COORD97":183382,"N_COORD97":2570115.3799999999,"ADDRESS":"信義街３４９巷８號","OBJECTID":393756},"geometry":{"x":183382.00000000093,"y":2570115.379999999}},{"attributes":{"ID":393781,"DIS_CODE":0,"TOWNNAME":"六甲區","LI":"六甲里","LIN":"16鄰","STREET":"復興街","SECT":" ","MAREA":" ","LANE":"７８巷","ALLEY":" ","HOUSE_NO":"２號","E_COORD97":183784.5,"N_COORD97":2569965.6800000002,"ADDRESS":"復興街７８巷２號","OBJECTID":393757},"geometry":{"x":183784.5,"y":2569965.6799999978}},{"attributes":{"ID":393782,"DIS_CODE":0,"TOWNNAME":"六甲區","LI":"甲東里","LIN":"16鄰","STREET":"裕農街","SECT":" ","MAREA":" ","LANE":"２５巷","ALLEY":" ","HOUSE_NO":"２號","E_COORD97":184014.07999999999,"N_COORD97":2569719.6200000001,"ADDRESS":"裕農街２５巷２號","OBJECTID":393758},"geometry":{"x":184014.08000000101,"y":2569719.620000001}},{"attributes":{"ID":393783,"DIS_CODE":0,"TOWNNAME":"新營區","LI":"南興里","LIN":"16鄰","STREET":"興農街","SECT":" ","MAREA":" ","LANE":"１４０巷","ALLEY":" ","HOUSE_NO":"１６號之３","E_COORD97":179176.82999999999,"N_COORD97":2577546.7599999998,"ADDRESS":"興農街１４０巷１６號之３","OBJECTID":393759},"geometry":{"x":179176.83000000007,"y":2577546.7600000016}},{"attributes":{"ID":393784,"DIS_CODE":0,"TOWNNAME":"新營區","LI":"新東里","LIN":"16鄰","STREET":"東泰九街","SECT":" ","MAREA":" ","LANE":"１６巷","ALLEY":" ","HOUSE_NO":"５號","E_COORD97":181060.07999999999,"N_COORD97":2579837.98,"ADDRESS":"東泰九街１６巷５號","OBJECTID":393760},"geometry":{"x":181060.08000000007,"y":2579837.9800000023}},{"attributes":{"ID":393785,"DIS_CODE":0,"TOWNNAME":"新營區","LI":"南興里","LIN":"16鄰","STREET":"興農街","SECT":" ","MAREA":" ","LANE":"１４０巷","ALLEY":" ","HOUSE_NO":"１４之３號","E_COORD97":179181.19,"N_COORD97":2577546.7400000002,"ADDRESS":"興農街１４０巷１４之３號","OBJECTID":393761},"geometry":{"x":179181.19000000041,"y":2577546.7399999984}},{"attributes":{"ID":393786,"DIS_CODE":0,"TOWNNAME":"新營區","LI":"南興里","LIN":"16鄰","STREET":"裕民路","SECT":" ","MAREA":" ","LANE":"１４２巷","ALLEY":" ","HOUSE_NO":"２之１號","E_COORD97":179116.51000000001,"N_COORD97":2577529.3199999998,"ADDRESS":"裕民路１４２巷２之１號","OBJECTID":393762},"geometry":{"x":179116.51000000164,"y":2577529.3199999984}},{"attributes":{"ID":393787,"DIS_CODE":0,"TOWNNAME":"新營區","LI":"南興里","LIN":"16鄰","STREET":"興農街","SECT":" ","MAREA":" ","LANE":"１４０巷","ALLEY":" ","HOUSE_NO":"１０號","E_COORD97":179208.35000000001,"N_COORD97":2577545.4399999999,"ADDRESS":"興農街１４０巷１０號","OBJECTID":393763},"geometry":{"x":179208.34999999963,"y":2577545.4400000013}},{"attributes":{"ID":393788,"DIS_CODE":0,"TOWNNAME":"新營區","LI":"南興里","LIN":"16鄰","STREET":"興農街","SECT":" ","MAREA":" ","LANE":"１４０巷","ALLEY":" ","HOUSE_NO":"１８之１號","E_COORD97":179161.76000000001,"N_COORD97":2577546.8300000001,"ADDRESS":"興農街１４０巷１８之１號","OBJECTID":393764},"geometry":{"x":179161.75999999978,"y":2577546.8300000019}},{"attributes":{"ID":393789,"DIS_CODE":0,"TOWNNAME":"新營區","LI":"新東里","LIN":"16鄰","STREET":"東泰九街","SECT":" ","MAREA":" ","LANE":"１６巷","ALLEY":" ","HOUSE_NO":"１號","E_COORD97":181065.10999999999,"N_COORD97":2579823.5600000001,"ADDRESS":"東泰九街１６巷１號","OBJECTID":393765},"geometry":{"x":181065.11000000034,"y":2579823.5600000042}},{"attributes":{"ID":393790,"DIS_CODE":0,"TOWNNAME":"新營區","LI":"民榮里","LIN":"16鄰","STREET":"復興路","SECT":" ","MAREA":" ","LANE":"３０５巷","ALLEY":" ","HOUSE_NO":"８號","E_COORD97":178581.88,"N_COORD97":2578122.1000000001,"ADDRESS":"復興路３０５巷８號","OBJECTID":393766},"geometry":{"x":178581.88000000175,"y":2578122.0999999996}},{"attributes":{"ID":393791,"DIS_CODE":0,"TOWNNAME":"新營區","LI":"民榮里","LIN":"16鄰","STREET":"復興路","SECT":" ","MAREA":" ","LANE":"３０５巷","ALLEY":" ","HOUSE_NO":"６號","E_COORD97":178582.85999999999,"N_COORD97":2578126.5299999998,"ADDRESS":"復興路３０５巷６號","OBJECTID":393767},"geometry":{"x":178582.86000000127,"y":2578126.5299999993}},{"attributes":{"ID":393792,"DIS_CODE":0,"TOWNNAME":"新營區","LI":"南興里","LIN":"16鄰","STREET":"興農街","SECT":" ","MAREA":" ","LANE":"１４０巷","ALLEY":" ","HOUSE_NO":"１４號之１","E_COORD97":179180.82999999999,"N_COORD97":2577546.7400000002,"ADDRESS":"興農街１４０巷１４號之１","OBJECTID":393768},"geometry":{"x":179180.83000000194,"y":2577546.7399999984}},{"attributes":{"ID":393793,"DIS_CODE":0,"TOWNNAME":"新營區","LI":"民榮里","LIN":"16鄰","STREET":"太子路","SECT":" ","MAREA":" ","LANE":"１９巷","ALLEY":" ","HOUSE_NO":"３６之１號","E_COORD97":178466.73000000001,"N_COORD97":2578068.46,"ADDRESS":"太子路１９巷３６之１號","OBJECTID":393769},"geometry":{"x":178466.73000000138,"y":2578068.4600000046}},{"attributes":{"ID":393794,"DIS_CODE":0,"TOWNNAME":"新營區","LI":"南興里","LIN":"16鄰","STREET":"興農街","SECT":" ","MAREA":" ","LANE":"１４０巷","ALLEY":" ","HOUSE_NO":"２０號之２","E_COORD97":179156.48999999999,"N_COORD97":2577547.96,"ADDRESS":"興農街１４０巷２０號之２","OBJECTID":393770},"geometry":{"x":179156.49000000115,"y":2577547.9600000009}},{"attributes":{"ID":393795,"DIS_CODE":0,"TOWNNAME":"新營區","LI":"南興里","LIN":"16鄰","STREET":"興農街","SECT":" ","MAREA":" ","LANE":"１４０巷","ALLEY":" ","HOUSE_NO":"２０號","E_COORD97":179149.10999999999,"N_COORD97":2577547.9399999999,"ADDRESS":"興農街１４０巷２０號","OBJECTID":393771},"geometry":{"x":179149.11000000127,"y":2577547.9399999976}},{"attributes":{"ID":393796,"DIS_CODE":0,"TOWNNAME":"新營區","LI":"南興里","LIN":"16鄰","STREET":"興農街","SECT":" ","MAREA":" ","LANE":"１４０巷","ALLEY":" ","HOUSE_NO":"１６號之２","E_COORD97":179176.87,"N_COORD97":2577546.7599999998,"ADDRESS":"興農街１４０巷１６號之２","OBJECTID":393772},"geometry":{"x":179176.87000000011,"y":2577546.7600000016}},{"attributes":{"ID":393797,"DIS_CODE":0,"TOWNNAME":"新營區","LI":"南興里","LIN":"16鄰","STREET":"興農街","SECT":" ","MAREA":" ","LANE":"１４０巷","ALLEY":" ","HOUSE_NO":"２０號之１","E_COORD97":179156.35000000001,"N_COORD97":2577547.96,"ADDRESS":"興農街１４０巷２０號之１","OBJECTID":393773},"geometry":{"x":179156.35000000149,"y":2577547.9600000009}},{"attributes":{"ID":393798,"DIS_CODE":0,"TOWNNAME":"新營區","LI":"南興里","LIN":"16鄰","STREET":"興農街","SECT":" ","MAREA":" ","LANE":"１４０巷","ALLEY":" ","HOUSE_NO":"１８之２號","E_COORD97":179161.76000000001,"N_COORD97":2577546.8300000001,"ADDRESS":"興農街１４０巷１８之２號","OBJECTID":393774},"geometry":{"x":179161.75999999978,"y":2577546.8300000019}},{"attributes":{"ID":393799,"DIS_CODE":0,"TOWNNAME":"新營區","LI":"民榮里","LIN":"16鄰","STREET":"太子路","SECT":" ","MAREA":" ","LANE":"１９巷","ALLEY":" ","HOUSE_NO":"２６號","E_COORD97":178449.03,"N_COORD97":2578101.71,"ADDRESS":"太子路１９巷２６號","OBJECTID":393775},"geometry":{"x":178449.03000000212,"y":2578101.7100000028}},{"attributes":{"ID":393800,"DIS_CODE":0,"TOWNNAME":"新營區","LI":"南興里","LIN":"16鄰","STREET":"興農街","SECT":" ","MAREA":" ","LANE":"１４０巷","ALLEY":" ","HOUSE_NO":"１４之２號","E_COORD97":179181.19,"N_COORD97":2577546.7400000002,"ADDRESS":"興農街１４０巷１４之２號","OBJECTID":393776},"geometry":{"x":179181.19000000041,"y":2577546.7399999984}},{"attributes":{"ID":393801,"DIS_CODE":0,"TOWNNAME":"新營區","LI":"民榮里","LIN":"16鄰","STREET":"太子路","SECT":" ","MAREA":" ","LANE":"１９巷","ALLEY":" ","HOUSE_NO":"３６號","E_COORD97":178446.81,"N_COORD97":2578061.8500000001,"ADDRESS":"太子路１９巷３６號","OBJECTID":393777},"geometry":{"x":178446.81000000052,"y":2578061.8500000015}},{"attributes":{"ID":393802,"DIS_CODE":0,"TOWNNAME":"新營區","LI":"南興里","LIN":"16鄰","STREET":"興農街","SECT":" ","MAREA":" ","LANE":"１４０巷","ALLEY":" ","HOUSE_NO":"１８號","E_COORD97":179165.39999999999,"N_COORD97":2577546.75,"ADDRESS":"興農街１４０巷１８號","OBJECTID":393778},"geometry":{"x":179165.40000000224,"y":2577546.7500000037}},{"attributes":{"ID":393803,"DIS_CODE":0,"TOWNNAME":"新營區","LI":"南興里","LIN":"16鄰","STREET":"興農街","SECT":" ","MAREA":" ","LANE":"１４０巷","ALLEY":" ","HOUSE_NO":"１２之１號","E_COORD97":179200.63,"N_COORD97":2577546.6400000001,"ADDRESS":"興農街１４０巷１２之１號","OBJECTID":393779},"geometry":{"x":179200.63000000175,"y":2577546.6400000006}},{"attributes":{"ID":393804,"DIS_CODE":0,"TOWNNAME":"新營區","LI":"南興里","LIN":"16鄰","STREET":"興農街","SECT":" ","MAREA":" ","LANE":"１４０巷","ALLEY":" ","HOUSE_NO":"２之２號","E_COORD97":179244.45000000001,"N_COORD97":2577544.21,"ADDRESS":"興農街１４０巷２之２號","OBJECTID":393780},"geometry":{"x":179244.45000000205,"y":2577544.209999999}},{"attributes":{"ID":393805,"DIS_CODE":0,"TOWNNAME":"新營區","LI":"民榮里","LIN":"16鄰","STREET":"太子路","SECT":" ","MAREA":" ","LANE":"１９巷","ALLEY":" ","HOUSE_NO":"１８號","E_COORD97":178446.59,"N_COORD97":2578035.27,"ADDRESS":"太子路１９巷１８號","OBJECTID":393781},"geometry":{"x":178446.59000000078,"y":2578035.2700000014}},{"attributes":{"ID":393806,"DIS_CODE":0,"TOWNNAME":"新營區","LI":"民榮里","LIN":"16鄰","STREET":"太子路","SECT":" ","MAREA":" ","LANE":"１９巷","ALLEY":" ","HOUSE_NO":"１０號","E_COORD97":178429.32000000001,"N_COORD97":2578058.6099999999,"ADDRESS":"太子路１９巷１０號","OBJECTID":393782},"geometry":{"x":178429.3200000003,"y":2578058.6099999975}},{"attributes":{"ID":393807,"DIS_CODE":0,"TOWNNAME":"新營區","LI":"南興里","LIN":"16鄰","STREET":"興農街","SECT":" ","MAREA":" ","LANE":"１４０巷","ALLEY":" ","HOUSE_NO":"１２之３號","E_COORD97":179200.63,"N_COORD97":2577546.6400000001,"ADDRESS":"興農街１４０巷１２之３號","OBJECTID":393783},"geometry":{"x":179200.63000000175,"y":2577546.6400000006}},{"attributes":{"ID":393808,"DIS_CODE":0,"TOWNNAME":"新營區","LI":"民榮里","LIN":"16鄰","STREET":"太子路","SECT":" ","MAREA":" ","LANE":"１９巷","ALLEY":" ","HOUSE_NO":"４０號","E_COORD97":178460.01000000001,"N_COORD97":2578045.1699999999,"ADDRESS":"太子路１９巷４０號","OBJECTID":393784},"geometry":{"x":178460.00999999978,"y":2578045.1699999999}},{"attributes":{"ID":393809,"DIS_CODE":0,"TOWNNAME":"新營區","LI":"南興里","LIN":"16鄰","STREET":"興農街","SECT":" ","MAREA":" ","LANE":"１４０巷","ALLEY":" ","HOUSE_NO":"１２之２號","E_COORD97":179200.63,"N_COORD97":2577546.6400000001,"ADDRESS":"興農街１４０巷１２之２號","OBJECTID":393785},"geometry":{"x":179200.63000000175,"y":2577546.6400000006}},{"attributes":{"ID":393810,"DIS_CODE":0,"TOWNNAME":"新營區","LI":"南興里","LIN":"16鄰","STREET":"興農街","SECT":" ","MAREA":" ","LANE":"１４０巷","ALLEY":" ","HOUSE_NO":"２號","E_COORD97":179248.09,"N_COORD97":2577544.1400000001,"ADDRESS":"興農街１４０巷２號","OBJECTID":393786},"geometry":{"x":179248.08999999892,"y":2577544.1400000006}},{"attributes":{"ID":393811,"DIS_CODE":0,"TOWNNAME":"北區","LI":"新勝里","LIN":"16鄰","STREET":"長榮路","SECT":"五段","MAREA":" ","LANE":"１９９巷","ALLEY":" ","HOUSE_NO":"８號","E_COORD97":170026.12,"N_COORD97":2545851.79,"ADDRESS":"長榮路五段１９９巷８號","OBJECTID":393787},"geometry":{"x":170026.12000000011,"y":2545851.7899999991}},{"attributes":{"ID":393812,"DIS_CODE":0,"TOWNNAME":"北區","LI":"重興里","LIN":"16鄰","STREET":"南園街","SECT":" ","MAREA":" ","LANE":"１２７巷","ALLEY":" ","HOUSE_NO":"２號","E_COORD97":170701.01999999999,"N_COORD97":2545271.7200000002,"ADDRESS":"南園街１２７巷２號","OBJECTID":393788},"geometry":{"x":170701.01999999955,"y":2545271.7200000025}},{"attributes":{"ID":393813,"DIS_CODE":0,"TOWNNAME":"柳營區","LI":"士林里","LIN":"16鄰","STREET":"柳營路","SECT":"二段","MAREA":" ","LANE":"２１１巷","ALLEY":" ","HOUSE_NO":"１１號","E_COORD97":179555.26999999999,"N_COORD97":2575627.3199999998,"ADDRESS":"柳營路二段２１１巷１１號","OBJECTID":393789},"geometry":{"x":179555.27000000142,"y":2575627.3199999984}},{"attributes":{"ID":393814,"DIS_CODE":0,"TOWNNAME":"柳營區","LI":"士林里","LIN":"16鄰","STREET":"柳營路","SECT":"二段","MAREA":" ","LANE":"２１１巷","ALLEY":" ","HOUSE_NO":"２１號","E_COORD97":179557,"N_COORD97":2575648.8100000001,"ADDRESS":"柳營路二段２１１巷２１號","OBJECTID":393790},"geometry":{"x":179557,"y":2575648.8100000024}},{"attributes":{"ID":393815,"DIS_CODE":0,"TOWNNAME":"柳營區","LI":"士林里","LIN":"16鄰","STREET":"柳營路","SECT":"二段","MAREA":" ","LANE":"２１１巷","ALLEY":" ","HOUSE_NO":"３１號","E_COORD97":179550.88,"N_COORD97":2575678.5299999998,"ADDRESS":"柳營路二段２１１巷３１號","OBJECTID":393791},"geometry":{"x":179550.87999999989,"y":2575678.5299999993}},{"attributes":{"ID":393816,"DIS_CODE":0,"TOWNNAME":"東區","LI":"崇德里","LIN":"2鄰","STREET":"崇善路","SECT":" ","MAREA":" ","LANE":"２３２巷","ALLEY":" ","HOUSE_NO":"８４號","E_COORD97":170599.19,"N_COORD97":2541832.4399999999,"ADDRESS":"崇善路２３２巷８４號","OBJECTID":393792},"geometry":{"x":170599.18999999948,"y":2541832.4399999995}},{"attributes":{"ID":393817,"DIS_CODE":0,"TOWNNAME":"東區","LI":"東明里","LIN":"8鄰","STREET":"怡東路","SECT":" ","MAREA":" ","LANE":"８６巷","ALLEY":" ","HOUSE_NO":"１６號","E_COORD97":170935.17999999999,"N_COORD97":2543675.2400000002,"ADDRESS":"怡東路８６巷１６號","OBJECTID":393793},"geometry":{"x":170935.1799999997,"y":2543675.2400000021}},{"attributes":{"ID":393818,"DIS_CODE":0,"TOWNNAME":"東區","LI":"莊敬里","LIN":"19鄰","STREET":"莊敬路","SECT":" ","MAREA":" ","LANE":"１８１巷","ALLEY":" ","HOUSE_NO":"１１號","E_COORD97":171325.13,"N_COORD97":2544096.6200000001,"ADDRESS":"莊敬路１８１巷１１號","OBJECTID":393794},"geometry":{"x":171325.13000000082,"y":2544096.6200000029}},{"attributes":{"ID":393819,"DIS_CODE":0,"TOWNNAME":"柳營區","LI":"士林里","LIN":"16鄰","STREET":"柳營路","SECT":"二段","MAREA":" ","LANE":"２１１巷","ALLEY":" ","HOUSE_NO":"４１號","E_COORD97":179539.73000000001,"N_COORD97":2575718.7599999998,"ADDRESS":"柳營路二段２１１巷４１號","OBJECTID":393795},"geometry":{"x":179539.73000000138,"y":2575718.7599999979}},{"attributes":{"ID":393820,"DIS_CODE":0,"TOWNNAME":"柳營區","LI":"士林里","LIN":"16鄰","STREET":"柳營路","SECT":"二段","MAREA":" ","LANE":"２１１巷","ALLEY":" ","HOUSE_NO":"９號","E_COORD97":179559.67999999999,"N_COORD97":2575614.7999999998,"ADDRESS":"柳營路二段２１１巷９號","OBJECTID":393796},"geometry":{"x":179559.68000000063,"y":2575614.8000000045}},{"attributes":{"ID":393821,"DIS_CODE":0,"TOWNNAME":"柳營區","LI":"人和里","LIN":"16鄰","STREET":"柳營路","SECT":"三段","MAREA":" ","LANE":"１巷","ALLEY":" ","HOUSE_NO":"３６號","E_COORD97":179552.04000000001,"N_COORD97":2576225.2200000002,"ADDRESS":"柳營路三段１巷３６號","OBJECTID":393797},"geometry":{"x":179552.04000000004,"y":2576225.2200000044}},{"attributes":{"ID":393822,"DIS_CODE":0,"TOWNNAME":"東區","LI":"虎尾里","LIN":"28鄰","STREET":"東門路","SECT":"三段","MAREA":" ","LANE":"２７３巷","ALLEY":" ","HOUSE_NO":"４１號","E_COORD97":171716.26000000001,"N_COORD97":2541961.02,"ADDRESS":"東門路三段２７３巷４１號","OBJECTID":393798},"geometry":{"x":171716.25999999978,"y":2541961.0199999996}},{"attributes":{"ID":393823,"DIS_CODE":0,"TOWNNAME":"北區","LI":"實踐里","LIN":"16鄰","STREET":"長榮路","SECT":"五段","MAREA":" ","LANE":"３９４巷","ALLEY":" ","HOUSE_NO":"１１號","E_COORD97":169511.22,"N_COORD97":2546007.6099999999,"ADDRESS":"長榮路五段３９４巷１１號","OBJECTID":393799},"geometry":{"x":169511.21999999974,"y":2546007.6100000013}},{"attributes":{"ID":393824,"DIS_CODE":0,"TOWNNAME":"北區","LI":"實踐里","LIN":"16鄰","STREET":"長榮路","SECT":"五段","MAREA":" ","LANE":"３９４巷","ALLEY":" ","HOUSE_NO":"１５號","E_COORD97":169514.29999999999,"N_COORD97":2546015.2799999998,"ADDRESS":"長榮路五段３９４巷１５號","OBJECTID":393800},"geometry":{"x":169514.29999999981,"y":2546015.2800000031}}]}