{"displayFieldName":"TOWNNAME","fieldAliases":{"ID":"ID","DIS_CODE":"DIS_CODE","TOWNNAME":"TOWNNAME","LI":"LI","LIN":"LIN","STREET":"STREET","SECT":"SECT","MAREA":"MAREA","LANE":"LANE","ALLEY":"ALLEY","HOUSE_NO":"HOUSE_NO","E_COORD97":"E_COORD97","N_COORD97":"N_COORD97","ADDRESS":"ADDRESS","OBJECTID":"OBJECTID"},"geometryType":"esriGeometryPoint","spatialReference":{"wkid":102443,"latestWkid":3826},"fields":[{"name":"ID","type":"esriFieldTypeDouble","alias":"ID"},{"name":"DIS_CODE","type":"esriFieldTypeInteger","alias":"DIS_CODE"},{"name":"TOWNNAME","type":"esriFieldTypeString","alias":"TOWNNAME","length":8},{"name":"LI","type":"esriFieldTypeString","alias":"LI","length":8},{"name":"LIN","type":"esriFieldTypeString","alias":"LIN","length":12},{"name":"STREET","type":"esriFieldTypeString","alias":"STREET","length":20},{"name":"SECT","type":"esriFieldTypeString","alias":"SECT","length":8},{"name":"MAREA","type":"esriFieldTypeString","alias":"MAREA","length":12},{"name":"LANE","type":"esriFieldTypeString","alias":"LANE","length":10},{"name":"ALLEY","type":"esriFieldTypeString","alias":"ALLEY","length":10},{"name":"HOUSE_NO","type":"esriFieldTypeString","alias":"HOUSE_NO","length":20},{"name":"E_COORD97","type":"esriFieldTypeDouble","alias":"E_COORD97"},{"name":"N_COORD97","type":"esriFieldTypeDouble","alias":"N_COORD97"},{"name":"ADDRESS","type":"esriFieldTypeString","alias":"ADDRESS","length":50},{"name":"OBJECTID","type":"esriFieldTypeOID","alias":"OBJECTID"}],"features":[{"attributes":{"ID":194602,"DIS_CODE":0,"TOWNNAME":"下營區","LI":"營前里","LIN":"21鄰","STREET":"文化街","SECT":" ","MAREA":" ","LANE":" ","ALLEY":" ","HOUSE_NO":"５６號","E_COORD97":174822.14999999999,"N_COORD97":2570331.2400000002,"ADDRESS":"文化街５６號","OBJECTID":194601},"geometry":{"x":174822.14999999944,"y":2570331.2400000002}},{"attributes":{"ID":194603,"DIS_CODE":0,"TOWNNAME":"鹽水區","LI":"義稠里","LIN":"3鄰","STREET":" ","SECT":" ","MAREA":"義稠","LANE":" ","ALLEY":" ","HOUSE_NO":"３７號","E_COORD97":174125.53,"N_COORD97":2580762.8999999999,"ADDRESS":"義稠３７號","OBJECTID":194602},"geometry":{"x":174125.53000000026,"y":2580762.9000000004}},{"attributes":{"ID":194604,"DIS_CODE":0,"TOWNNAME":"鹽水區","LI":"義稠里","LIN":"3鄰","STREET":" ","SECT":" ","MAREA":"義稠","LANE":" ","ALLEY":" ","HOUSE_NO":"３８號","E_COORD97":174128.5,"N_COORD97":2580750.02,"ADDRESS":"義稠３８號","OBJECTID":194603},"geometry":{"x":174128.50000000093,"y":2580750.0199999996}},{"attributes":{"ID":194605,"DIS_CODE":0,"TOWNNAME":"鹽水區","LI":"義稠里","LIN":"3鄰","STREET":" ","SECT":" ","MAREA":"義稠","LANE":" ","ALLEY":" ","HOUSE_NO":"４０號","E_COORD97":174137.72,"N_COORD97":2580732.1000000001,"ADDRESS":"義稠４０號","OBJECTID":194604},"geometry":{"x":174137.71999999974,"y":2580732.1000000015}},{"attributes":{"ID":194606,"DIS_CODE":0,"TOWNNAME":"鹽水區","LI":"義稠里","LIN":"3鄰","STREET":" ","SECT":" ","MAREA":"義稠","LANE":" ","ALLEY":" ","HOUSE_NO":"４８號","E_COORD97":174119.53,"N_COORD97":2580726.2400000002,"ADDRESS":"義稠４８號","OBJECTID":194605},"geometry":{"x":174119.53000000212,"y":2580726.2400000002}},{"attributes":{"ID":194607,"DIS_CODE":0,"TOWNNAME":"鹽水區","LI":"義稠里","LIN":"3鄰","STREET":" ","SECT":" ","MAREA":"義稠","LANE":" ","ALLEY":" ","HOUSE_NO":"４９號","E_COORD97":174119.67999999999,"N_COORD97":2580711.7200000002,"ADDRESS":"義稠４９號","OBJECTID":194606},"geometry":{"x":174119.68000000063,"y":2580711.7200000025}},{"attributes":{"ID":194608,"DIS_CODE":0,"TOWNNAME":"新營區","LI":"民榮里","LIN":"38鄰","STREET":"太子路","SECT":" ","MAREA":" ","LANE":"５３巷","ALLEY":"６弄","HOUSE_NO":"２５之２號","E_COORD97":178259.42999999999,"N_COORD97":2577932.1400000001,"ADDRESS":"太子路５３巷６弄２５之２號","OBJECTID":194607},"geometry":{"x":178259.43000000063,"y":2577932.1400000025}},{"attributes":{"ID":194609,"DIS_CODE":0,"TOWNNAME":"新營區","LI":"民榮里","LIN":"38鄰","STREET":"太子路","SECT":" ","MAREA":" ","LANE":"５３巷","ALLEY":"６弄","HOUSE_NO":"２９之３號","E_COORD97":178244.07999999999,"N_COORD97":2577931.1099999999,"ADDRESS":"太子路５３巷６弄２９之３號","OBJECTID":194608},"geometry":{"x":178244.08000000101,"y":2577931.1100000013}},{"attributes":{"ID":194610,"DIS_CODE":0,"TOWNNAME":"新營區","LI":"民榮里","LIN":"38鄰","STREET":"太子路","SECT":" ","MAREA":" ","LANE":"５３巷","ALLEY":"６弄","HOUSE_NO":"３之３號","E_COORD97":178334.07000000001,"N_COORD97":2577968.3100000001,"ADDRESS":"太子路５３巷６弄３之３號","OBJECTID":194609},"geometry":{"x":178334.07000000123,"y":2577968.3100000024}},{"attributes":{"ID":194611,"DIS_CODE":0,"TOWNNAME":"南區","LI":"大忠里","LIN":"38鄰","STREET":"國民路","SECT":" ","MAREA":" ","LANE":"２７０巷","ALLEY":"７３弄","HOUSE_NO":"３０之２號","E_COORD97":168861.57000000001,"N_COORD97":2541448.0099999998,"ADDRESS":"國民路２７０巷７３弄３０之２號","OBJECTID":194610},"geometry":{"x":168861.5700000003,"y":2541448.0100000016}},{"attributes":{"ID":194612,"DIS_CODE":0,"TOWNNAME":"新營區","LI":"民榮里","LIN":"38鄰","STREET":"太子路","SECT":" ","MAREA":" ","LANE":"５３巷","ALLEY":"６弄","HOUSE_NO":"７之６號","E_COORD97":178323.73000000001,"N_COORD97":2577959.5099999998,"ADDRESS":"太子路５３巷６弄７之６號","OBJECTID":194611},"geometry":{"x":178323.73000000045,"y":2577959.5100000016}},{"attributes":{"ID":194613,"DIS_CODE":0,"TOWNNAME":"新營區","LI":"民榮里","LIN":"38鄰","STREET":"太子路","SECT":" ","MAREA":" ","LANE":"５３巷","ALLEY":"６弄","HOUSE_NO":"９之４號","E_COORD97":178314.45000000001,"N_COORD97":2577955.1200000001,"ADDRESS":"太子路５３巷６弄９之４號","OBJECTID":194612},"geometry":{"x":178314.45000000112,"y":2577955.120000001}},{"attributes":{"ID":194614,"DIS_CODE":0,"TOWNNAME":"新營區","LI":"民榮里","LIN":"38鄰","STREET":"太子路","SECT":" ","MAREA":" ","LANE":"５３巷","ALLEY":"６弄","HOUSE_NO":"９號之３","E_COORD97":178314.19,"N_COORD97":2577955.1200000001,"ADDRESS":"太子路５３巷６弄９號之３","OBJECTID":194613},"geometry":{"x":178314.19000000227,"y":2577955.120000001}},{"attributes":{"ID":194615,"DIS_CODE":0,"TOWNNAME":"鹽水區","LI":"義稠里","LIN":"3鄰","STREET":" ","SECT":" ","MAREA":"義稠","LANE":" ","ALLEY":" ","HOUSE_NO":"５０號","E_COORD97":174129.22,"N_COORD97":2580687.73,"ADDRESS":"義稠５０號","OBJECTID":194614},"geometry":{"x":174129.21999999974,"y":2580687.7300000023}},{"attributes":{"ID":194616,"DIS_CODE":0,"TOWNNAME":"鹽水區","LI":"義稠里","LIN":"3鄰","STREET":" ","SECT":" ","MAREA":"義稠","LANE":" ","ALLEY":" ","HOUSE_NO":"５２號","E_COORD97":174153.53,"N_COORD97":2580642.4100000001,"ADDRESS":"義稠５２號","OBJECTID":194615},"geometry":{"x":174153.53000000119,"y":2580642.410000002}},{"attributes":{"ID":194617,"DIS_CODE":0,"TOWNNAME":"鹽水區","LI":"舊營里","LIN":"3鄰","STREET":" ","SECT":" ","MAREA":"舊營","LANE":" ","ALLEY":" ","HOUSE_NO":"３２號","E_COORD97":174063.54000000001,"N_COORD97":2577766.46,"ADDRESS":"舊營３２號","OBJECTID":194616},"geometry":{"x":174063.54000000097,"y":2577766.4600000046}},{"attributes":{"ID":194618,"DIS_CODE":0,"TOWNNAME":"鹽水區","LI":"歡雅里","LIN":"3鄰","STREET":" ","SECT":" ","MAREA":"歡雅","LANE":" ","ALLEY":" ","HOUSE_NO":"６０號","E_COORD97":172328.64999999999,"N_COORD97":2576642.8100000001,"ADDRESS":"歡雅６０號","OBJECTID":194617},"geometry":{"x":172328.65000000224,"y":2576642.8100000024}},{"attributes":{"ID":194619,"DIS_CODE":0,"TOWNNAME":"鹽水區","LI":"歡雅里","LIN":"3鄰","STREET":" ","SECT":" ","MAREA":"歡雅","LANE":" ","ALLEY":" ","HOUSE_NO":"５５號之１","E_COORD97":172479.04999999999,"N_COORD97":2576757.29,"ADDRESS":"歡雅５５號之１","OBJECTID":194618},"geometry":{"x":172479.04999999981,"y":2576757.2899999991}},{"attributes":{"ID":194620,"DIS_CODE":0,"TOWNNAME":"鹽水區","LI":"歡雅里","LIN":"3鄰","STREET":" ","SECT":" ","MAREA":"歡雅","LANE":" ","ALLEY":" ","HOUSE_NO":"５５號之２","E_COORD97":172455.22,"N_COORD97":2576768.4900000002,"ADDRESS":"歡雅５５號之２","OBJECTID":194619},"geometry":{"x":172455.22000000067,"y":2576768.4900000002}},{"attributes":{"ID":194621,"DIS_CODE":0,"TOWNNAME":"下營區","LI":"營前里","LIN":"21鄰","STREET":"文化街","SECT":" ","MAREA":" ","LANE":" ","ALLEY":" ","HOUSE_NO":"５８號","E_COORD97":174821.10999999999,"N_COORD97":2570335.5800000001,"ADDRESS":"文化街５８號","OBJECTID":194620},"geometry":{"x":174821.11000000127,"y":2570335.5800000001}},{"attributes":{"ID":194622,"DIS_CODE":0,"TOWNNAME":"下營區","LI":"營前里","LIN":"21鄰","STREET":"文化街","SECT":" ","MAREA":" ","LANE":" ","ALLEY":" ","HOUSE_NO":"６０號","E_COORD97":174819.70999999999,"N_COORD97":2570339.4300000002,"ADDRESS":"文化街６０號","OBJECTID":194621},"geometry":{"x":174819.71000000183,"y":2570339.4299999997}},{"attributes":{"ID":194623,"DIS_CODE":0,"TOWNNAME":"下營區","LI":"營前里","LIN":"21鄰","STREET":"文化街","SECT":" ","MAREA":" ","LANE":" ","ALLEY":" ","HOUSE_NO":"６２號","E_COORD97":174818.17000000001,"N_COORD97":2570343.73,"ADDRESS":"文化街６２號","OBJECTID":194622},"geometry":{"x":174818.17000000179,"y":2570343.7300000023}},{"attributes":{"ID":194624,"DIS_CODE":0,"TOWNNAME":"下營區","LI":"營前里","LIN":"21鄰","STREET":"文化街","SECT":" ","MAREA":" ","LANE":" ","ALLEY":" ","HOUSE_NO":"６６號","E_COORD97":174816.88,"N_COORD97":2570348.7000000002,"ADDRESS":"文化街６６號","OBJECTID":194623},"geometry":{"x":174816.88000000175,"y":2570348.7000000011}},{"attributes":{"ID":194625,"DIS_CODE":0,"TOWNNAME":"鹽水區","LI":"歡雅里","LIN":"3鄰","STREET":" ","SECT":" ","MAREA":"歡雅","LANE":" ","ALLEY":" ","HOUSE_NO":"５５號","E_COORD97":172454.76000000001,"N_COORD97":2576760.6699999999,"ADDRESS":"歡雅５５號","OBJECTID":194624},"geometry":{"x":172454.76000000071,"y":2576760.6700000037}},{"attributes":{"ID":194626,"DIS_CODE":0,"TOWNNAME":"鹽水區","LI":"歡雅里","LIN":"3鄰","STREET":" ","SECT":" ","MAREA":"歡雅","LANE":" ","ALLEY":" ","HOUSE_NO":"５６號之１","E_COORD97":172445.07000000001,"N_COORD97":2576694.3199999998,"ADDRESS":"歡雅５６號之１","OBJECTID":194625},"geometry":{"x":172445.07000000123,"y":2576694.3200000003}},{"attributes":{"ID":194627,"DIS_CODE":0,"TOWNNAME":"鹽水區","LI":"歡雅里","LIN":"3鄰","STREET":" ","SECT":" ","MAREA":"歡雅","LANE":" ","ALLEY":" ","HOUSE_NO":"５６號","E_COORD97":172453.28,"N_COORD97":2576740.3300000001,"ADDRESS":"歡雅５６號","OBJECTID":194626},"geometry":{"x":172453.28000000119,"y":2576740.3300000019}},{"attributes":{"ID":194628,"DIS_CODE":0,"TOWNNAME":"鹽水區","LI":"歡雅里","LIN":"3鄰","STREET":" ","SECT":" ","MAREA":"歡雅","LANE":" ","ALLEY":" ","HOUSE_NO":"５７號","E_COORD97":172403.63,"N_COORD97":2576652.23,"ADDRESS":"歡雅５７號","OBJECTID":194627},"geometry":{"x":172403.63000000082,"y":2576652.2300000042}},{"attributes":{"ID":194629,"DIS_CODE":0,"TOWNNAME":"鹽水區","LI":"歡雅里","LIN":"3鄰","STREET":" ","SECT":" ","MAREA":"歡雅","LANE":" ","ALLEY":" ","HOUSE_NO":"５９號","E_COORD97":172409.67000000001,"N_COORD97":2576694.1600000001,"ADDRESS":"歡雅５９號","OBJECTID":194628},"geometry":{"x":172409.67000000086,"y":2576694.160000002}},{"attributes":{"ID":194630,"DIS_CODE":0,"TOWNNAME":"鹽水區","LI":"歡雅里","LIN":"3鄰","STREET":" ","SECT":" ","MAREA":"歡雅","LANE":" ","ALLEY":" ","HOUSE_NO":"６０號之１","E_COORD97":172329.85999999999,"N_COORD97":2576624.8199999998,"ADDRESS":"歡雅６０號之１","OBJECTID":194629},"geometry":{"x":172329.86000000034,"y":2576624.8200000022}},{"attributes":{"ID":194631,"DIS_CODE":0,"TOWNNAME":"鹽水區","LI":"歡雅里","LIN":"3鄰","STREET":" ","SECT":" ","MAREA":"歡雅","LANE":" ","ALLEY":" ","HOUSE_NO":"６０號之２","E_COORD97":172312.67000000001,"N_COORD97":2576633.54,"ADDRESS":"歡雅６０號之２","OBJECTID":194630},"geometry":{"x":172312.67000000179,"y":2576633.5399999991}},{"attributes":{"ID":194632,"DIS_CODE":0,"TOWNNAME":"將軍區","LI":"西和里","LIN":"21鄰","STREET":" ","SECT":" ","MAREA":"西湖","LANE":" ","ALLEY":" ","HOUSE_NO":"６２之１號","E_COORD97":163079.98999999999,"N_COORD97":2566180.4300000002,"ADDRESS":"西湖６２之１號","OBJECTID":194631},"geometry":{"x":163079.99000000022,"y":2566180.4300000034}},{"attributes":{"ID":194633,"DIS_CODE":0,"TOWNNAME":"新營區","LI":"民榮里","LIN":"38鄰","STREET":"太子路","SECT":" ","MAREA":" ","LANE":"５３巷","ALLEY":"６弄","HOUSE_NO":"７之５號","E_COORD97":178323.73000000001,"N_COORD97":2577959.5099999998,"ADDRESS":"太子路５３巷６弄７之５號","OBJECTID":194632},"geometry":{"x":178323.73000000045,"y":2577959.5100000016}},{"attributes":{"ID":194634,"DIS_CODE":0,"TOWNNAME":"新營區","LI":"民榮里","LIN":"38鄰","STREET":"太子路","SECT":" ","MAREA":" ","LANE":"５３巷","ALLEY":"６弄","HOUSE_NO":"２７之１號","E_COORD97":178252.25,"N_COORD97":2577929.96,"ADDRESS":"太子路５３巷６弄２７之１號","OBJECTID":194633},"geometry":{"x":178252.25000000186,"y":2577929.9600000028}},{"attributes":{"ID":194635,"DIS_CODE":0,"TOWNNAME":"新營區","LI":"民榮里","LIN":"38鄰","STREET":"太子路","SECT":" ","MAREA":" ","LANE":"５３巷","ALLEY":"６弄","HOUSE_NO":"２９之１號","E_COORD97":178244.07999999999,"N_COORD97":2577931.1099999999,"ADDRESS":"太子路５３巷６弄２９之１號","OBJECTID":194634},"geometry":{"x":178244.08000000101,"y":2577931.1100000013}},{"attributes":{"ID":194636,"DIS_CODE":0,"TOWNNAME":"新營區","LI":"民榮里","LIN":"38鄰","STREET":"太子路","SECT":" ","MAREA":" ","LANE":"５３巷","ALLEY":"６弄","HOUSE_NO":"２７之４號","E_COORD97":178252.25,"N_COORD97":2577929.96,"ADDRESS":"太子路５３巷６弄２７之４號","OBJECTID":194635},"geometry":{"x":178252.25000000186,"y":2577929.9600000028}},{"attributes":{"ID":194637,"DIS_CODE":0,"TOWNNAME":"七股區","LI":"大埕里","LIN":"3鄰","STREET":" ","SECT":" ","MAREA":"大埕","LANE":" ","ALLEY":" ","HOUSE_NO":"８７號","E_COORD97":162917.35000000001,"N_COORD97":2561034.1099999999,"ADDRESS":"大埕８７號","OBJECTID":194636},"geometry":{"x":162917.34999999963,"y":2561034.1099999994}},{"attributes":{"ID":194638,"DIS_CODE":0,"TOWNNAME":"新營區","LI":"民榮里","LIN":"38鄰","STREET":"太子路","SECT":" ","MAREA":" ","LANE":"５３巷","ALLEY":"６弄","HOUSE_NO":"３１之４號","E_COORD97":178238.98000000001,"N_COORD97":2577930.02,"ADDRESS":"太子路５３巷６弄３１之４號","OBJECTID":194637},"geometry":{"x":178238.98000000045,"y":2577930.0199999996}},{"attributes":{"ID":194639,"DIS_CODE":0,"TOWNNAME":"新營區","LI":"民榮里","LIN":"38鄰","STREET":"太子路","SECT":" ","MAREA":" ","LANE":"５３巷","ALLEY":"６弄","HOUSE_NO":"５之６號","E_COORD97":178330.89000000001,"N_COORD97":2577960.5800000001,"ADDRESS":"太子路５３巷６弄５之６號","OBJECTID":194638},"geometry":{"x":178330.8900000006,"y":2577960.5800000001}},{"attributes":{"ID":194640,"DIS_CODE":0,"TOWNNAME":"新營區","LI":"民榮里","LIN":"38鄰","STREET":"太子路","SECT":" ","MAREA":" ","LANE":"５３巷","ALLEY":"６弄","HOUSE_NO":"９號之６","E_COORD97":178314.19,"N_COORD97":2577955.1200000001,"ADDRESS":"太子路５３巷６弄９號之６","OBJECTID":194639},"geometry":{"x":178314.19000000227,"y":2577955.120000001}},{"attributes":{"ID":194641,"DIS_CODE":0,"TOWNNAME":"新營區","LI":"民榮里","LIN":"38鄰","STREET":"太子路","SECT":" ","MAREA":" ","LANE":"５３巷","ALLEY":"６弄","HOUSE_NO":"３號之６","E_COORD97":178333.81,"N_COORD97":2577968.3100000001,"ADDRESS":"太子路５３巷６弄３號之６","OBJECTID":194640},"geometry":{"x":178333.80999999959,"y":2577968.3100000024}},{"attributes":{"ID":194642,"DIS_CODE":0,"TOWNNAME":"新營區","LI":"民榮里","LIN":"38鄰","STREET":"太子路","SECT":" ","MAREA":" ","LANE":"５３巷","ALLEY":"６弄","HOUSE_NO":"２９之５號","E_COORD97":178244.07999999999,"N_COORD97":2577931.1099999999,"ADDRESS":"太子路５３巷６弄２９之５號","OBJECTID":194641},"geometry":{"x":178244.08000000101,"y":2577931.1100000013}},{"attributes":{"ID":194643,"DIS_CODE":0,"TOWNNAME":"新營區","LI":"民榮里","LIN":"38鄰","STREET":"太子路","SECT":" ","MAREA":" ","LANE":"５３巷","ALLEY":"６弄","HOUSE_NO":"１之５號","E_COORD97":178339.09,"N_COORD97":2577969.3999999999,"ADDRESS":"太子路５３巷６弄１之５號","OBJECTID":194642},"geometry":{"x":178339.08999999985,"y":2577969.4000000004}},{"attributes":{"ID":194644,"DIS_CODE":0,"TOWNNAME":"永康區","LI":"\u25A0行里","LIN":"24鄰","STREET":"中正南路","SECT":" ","MAREA":" ","LANE":"５９２巷","ALLEY":"１１弄","HOUSE_NO":"７號","E_COORD97":171549.82999999999,"N_COORD97":2548692.4399999999,"ADDRESS":"中正南路５９２巷１１弄７號","OBJECTID":194643},"geometry":{"x":171549.83000000007,"y":2548692.4399999976}},{"attributes":{"ID":194645,"DIS_CODE":0,"TOWNNAME":"永康區","LI":"大橋里","LIN":" ","STREET":"大橋一街","SECT":" ","MAREA":" ","LANE":"１０３巷","ALLEY":"６１弄","HOUSE_NO":"１２之１號","E_COORD97":170892.34,"N_COORD97":2546564.8399999999,"ADDRESS":"大橋一街１０３巷６１弄１２之１號","OBJECTID":194644},"geometry":{"x":170892.33999999985,"y":2546564.8400000036}},{"attributes":{"ID":194646,"DIS_CODE":0,"TOWNNAME":"永康區","LI":"龍潭里","LIN":" ","STREET":"中山北路","SECT":" ","MAREA":" ","LANE":"１６４巷","ALLEY":"１１０弄","HOUSE_NO":"１４之２號","E_COORD97":174485.42000000001,"N_COORD97":2547338.0299999998,"ADDRESS":"中山北路１６４巷１１０弄１４之２號","OBJECTID":194645},"geometry":{"x":174485.41999999993,"y":2547338.0299999993}},{"attributes":{"ID":194647,"DIS_CODE":0,"TOWNNAME":"下營區","LI":"營前里","LIN":"21鄰","STREET":"健康路","SECT":" ","MAREA":" ","LANE":" ","ALLEY":" ","HOUSE_NO":"２８２號","E_COORD97":174985.14000000001,"N_COORD97":2570394.04,"ADDRESS":"健康路２８２號","OBJECTID":194646},"geometry":{"x":174985.13999999966,"y":2570394.040000001}},{"attributes":{"ID":194648,"DIS_CODE":0,"TOWNNAME":"下營區","LI":"營前里","LIN":"21鄰","STREET":"健康路","SECT":" ","MAREA":" ","LANE":" ","ALLEY":" ","HOUSE_NO":"２８６號","E_COORD97":174984.51000000001,"N_COORD97":2570397.6600000001,"ADDRESS":"健康路２８６號","OBJECTID":194647},"geometry":{"x":174984.50999999978,"y":2570397.660000002}},{"attributes":{"ID":194649,"DIS_CODE":0,"TOWNNAME":"將軍區","LI":"西和里","LIN":"21鄰","STREET":" ","SECT":" ","MAREA":"西湖","LANE":" ","ALLEY":" ","HOUSE_NO":"６２號","E_COORD97":163079.19,"N_COORD97":2566195.21,"ADDRESS":"西湖６２號","OBJECTID":194648},"geometry":{"x":163079.19000000041,"y":2566195.2100000009}},{"attributes":{"ID":194650,"DIS_CODE":0,"TOWNNAME":"將軍區","LI":"西和里","LIN":"21鄰","STREET":" ","SECT":" ","MAREA":"西湖","LANE":" ","ALLEY":" ","HOUSE_NO":"６３號","E_COORD97":163080.48000000001,"N_COORD97":2566218.9300000002,"ADDRESS":"西湖６３號","OBJECTID":194649},"geometry":{"x":163080.48000000045,"y":2566218.9300000016}},{"attributes":{"ID":194651,"DIS_CODE":0,"TOWNNAME":"鹽水區","LI":"歡雅里","LIN":"3鄰","STREET":" ","SECT":" ","MAREA":"歡雅","LANE":" ","ALLEY":" ","HOUSE_NO":"６０號之３","E_COORD97":172271.23999999999,"N_COORD97":2576647.6299999999,"ADDRESS":"歡雅６０號之３","OBJECTID":194650},"geometry":{"x":172271.24000000022,"y":2576647.6299999971}},{"attributes":{"ID":194652,"DIS_CODE":0,"TOWNNAME":"北區","LI":"成德里","LIN":"38鄰","STREET":"育德二路","SECT":" ","MAREA":" ","LANE":"８０９巷","ALLEY":"３０弄","HOUSE_NO":"１０號","E_COORD97":168034.42000000001,"N_COORD97":2546748.0299999998,"ADDRESS":"育德二路８０９巷３０弄１０號","OBJECTID":194651},"geometry":{"x":168034.42000000086,"y":2546748.0299999993}},{"attributes":{"ID":194653,"DIS_CODE":0,"TOWNNAME":"鹽水區","LI":"歡雅里","LIN":"3鄰","STREET":" ","SECT":" ","MAREA":"歡雅","LANE":" ","ALLEY":" ","HOUSE_NO":"６０號之５","E_COORD97":172300.12,"N_COORD97":2576632.75,"ADDRESS":"歡雅６０號之５","OBJECTID":194652},"geometry":{"x":172300.12000000104,"y":2576632.7500000019}},{"attributes":{"ID":194654,"DIS_CODE":0,"TOWNNAME":"將軍區","LI":"仁和里","LIN":"21鄰","STREET":" ","SECT":" ","MAREA":"和巷","LANE":" ","ALLEY":" ","HOUSE_NO":"８１號","E_COORD97":163853.82999999999,"N_COORD97":2569326.1600000001,"ADDRESS":"和巷８１號","OBJECTID":194653},"geometry":{"x":163853.83000000007,"y":2569326.160000002}},{"attributes":{"ID":194655,"DIS_CODE":0,"TOWNNAME":"將軍區","LI":"仁和里","LIN":"21鄰","STREET":" ","SECT":" ","MAREA":"和巷","LANE":" ","ALLEY":" ","HOUSE_NO":"８２號","E_COORD97":163870.82000000001,"N_COORD97":2569316.7599999998,"ADDRESS":"和巷８２號","OBJECTID":194654},"geometry":{"x":163870.82000000123,"y":2569316.7599999998}},{"attributes":{"ID":194656,"DIS_CODE":0,"TOWNNAME":"將軍區","LI":"仁和里","LIN":"21鄰","STREET":" ","SECT":" ","MAREA":"和巷","LANE":" ","ALLEY":" ","HOUSE_NO":"８３號","E_COORD97":163889.28,"N_COORD97":2569317.1899999999,"ADDRESS":"和巷８３號","OBJECTID":194655},"geometry":{"x":163889.28000000119,"y":2569317.1899999995}},{"attributes":{"ID":194657,"DIS_CODE":0,"TOWNNAME":"北區","LI":"成德里","LIN":"38鄰","STREET":"育德二路","SECT":" ","MAREA":" ","LANE":"８０９巷","ALLEY":"３０弄","HOUSE_NO":"２號","E_COORD97":168040.60999999999,"N_COORD97":2546732.4700000002,"ADDRESS":"育德二路８０９巷３０弄２號","OBJECTID":194656},"geometry":{"x":168040.61000000127,"y":2546732.4700000007}},{"attributes":{"ID":194658,"DIS_CODE":0,"TOWNNAME":"北區","LI":"成德里","LIN":"38鄰","STREET":"育德二路","SECT":" ","MAREA":" ","LANE":"８０９巷","ALLEY":"３０弄","HOUSE_NO":"６號","E_COORD97":168038.70999999999,"N_COORD97":2546737.5499999998,"ADDRESS":"育德二路８０９巷３０弄６號","OBJECTID":194657},"geometry":{"x":168038.70999999996,"y":2546737.5500000026}},{"attributes":{"ID":194659,"DIS_CODE":0,"TOWNNAME":"永康區","LI":"\u25A0行里","LIN":"21鄰","STREET":"正南五街","SECT":" ","MAREA":" ","LANE":" ","ALLEY":" ","HOUSE_NO":"３９３號","E_COORD97":171646.35000000001,"N_COORD97":2548692.8599999999,"ADDRESS":"正南五街３９３號","OBJECTID":194658},"geometry":{"x":171646.34999999963,"y":2548692.8599999975}},{"attributes":{"ID":194660,"DIS_CODE":0,"TOWNNAME":"北區","LI":"成德里","LIN":"38鄰","STREET":"育德二路","SECT":" ","MAREA":" ","LANE":"８０９巷","ALLEY":"３０弄","HOUSE_NO":"８號","E_COORD97":168036.17000000001,"N_COORD97":2546743.1000000001,"ADDRESS":"育德二路８０９巷３０弄８號","OBJECTID":194659},"geometry":{"x":168036.17000000086,"y":2546743.1000000015}},{"attributes":{"ID":194661,"DIS_CODE":0,"TOWNNAME":"永康區","LI":"中華里","LIN":"21鄰","STREET":"中華路","SECT":" ","MAREA":" ","LANE":" ","ALLEY":" ","HOUSE_NO":"１４號","E_COORD97":171581.20000000001,"N_COORD97":2544513.4100000001,"ADDRESS":"中華路１４號","OBJECTID":194660},"geometry":{"x":171581.20000000112,"y":2544513.4100000039}},{"attributes":{"ID":194662,"DIS_CODE":0,"TOWNNAME":"永康區","LI":"\u25A0行里","LIN":"21鄰","STREET":"正南五街","SECT":" ","MAREA":" ","LANE":" ","ALLEY":" ","HOUSE_NO":"３３５號","E_COORD97":171751.51000000001,"N_COORD97":2548587,"ADDRESS":"正南五街３３５號","OBJECTID":194661},"geometry":{"x":171751.51000000071,"y":2548587}},{"attributes":{"ID":194663,"DIS_CODE":0,"TOWNNAME":"北區","LI":"成德里","LIN":"38鄰","STREET":"育德二路","SECT":" ","MAREA":" ","LANE":"８０９巷","ALLEY":"３０弄","HOUSE_NO":"１號","E_COORD97":168033.78,"N_COORD97":2546730.25,"ADDRESS":"育德二路８０９巷３０弄１號","OBJECTID":194662},"geometry":{"x":168033.78000000212,"y":2546730.25}},{"attributes":{"ID":194664,"DIS_CODE":0,"TOWNNAME":"北區","LI":"成德里","LIN":"38鄰","STREET":"育德二路","SECT":" ","MAREA":" ","LANE":"８０９巷","ALLEY":"３０弄","HOUSE_NO":"３號","E_COORD97":168031.72,"N_COORD97":2546735.0099999998,"ADDRESS":"育德二路８０９巷３０弄３號","OBJECTID":194663},"geometry":{"x":168031.71999999881,"y":2546735.0099999998}},{"attributes":{"ID":194665,"DIS_CODE":0,"TOWNNAME":"北區","LI":"成德里","LIN":"38鄰","STREET":"育德二路","SECT":" ","MAREA":" ","LANE":"８０９巷","ALLEY":"３０弄","HOUSE_NO":"５號","E_COORD97":168029.34,"N_COORD97":2546740.7200000002,"ADDRESS":"育德二路８０９巷３０弄５號","OBJECTID":194664},"geometry":{"x":168029.33999999892,"y":2546740.7200000025}},{"attributes":{"ID":194666,"DIS_CODE":0,"TOWNNAME":"北區","LI":"成德里","LIN":"38鄰","STREET":"育德二路","SECT":" ","MAREA":" ","LANE":"８０９巷","ALLEY":"３０弄","HOUSE_NO":"７號","E_COORD97":168027.42999999999,"N_COORD97":2546745.3300000001,"ADDRESS":"育德二路８０９巷３０弄７號","OBJECTID":194665},"geometry":{"x":168027.43000000063,"y":2546745.3300000019}},{"attributes":{"ID":194667,"DIS_CODE":0,"TOWNNAME":"北區","LI":"成德里","LIN":"38鄰","STREET":"育德二路","SECT":" ","MAREA":" ","LANE":"８０９巷","ALLEY":"３２弄","HOUSE_NO":"１０號","E_COORD97":168009.5,"N_COORD97":2546738.98,"ADDRESS":"育德二路８０９巷３２弄１０號","OBJECTID":194666},"geometry":{"x":168009.5,"y":2546738.9800000004}},{"attributes":{"ID":194668,"DIS_CODE":0,"TOWNNAME":"北區","LI":"成德里","LIN":"38鄰","STREET":"育德二路","SECT":" ","MAREA":" ","LANE":"８０９巷","ALLEY":"３２弄","HOUSE_NO":"２號","E_COORD97":168015.04999999999,"N_COORD97":2546723.1000000001,"ADDRESS":"育德二路８０９巷３２弄２號","OBJECTID":194667},"geometry":{"x":168015.05000000075,"y":2546723.1000000015}},{"attributes":{"ID":194669,"DIS_CODE":0,"TOWNNAME":"安定區","LI":"蘇厝里","LIN":"21鄰","STREET":" ","SECT":" ","MAREA":"蘇厝","LANE":" ","ALLEY":" ","HOUSE_NO":"４９０號","E_COORD97":173139.01999999999,"N_COORD97":2558972.25,"ADDRESS":"蘇厝４９０號","OBJECTID":194668},"geometry":{"x":173139.02000000142,"y":2558972.2500000019}},{"attributes":{"ID":194670,"DIS_CODE":0,"TOWNNAME":"北區","LI":"成德里","LIN":"38鄰","STREET":"育德二路","SECT":" ","MAREA":" ","LANE":"８０９巷","ALLEY":"３２弄","HOUSE_NO":"６號","E_COORD97":168013.62,"N_COORD97":2546728.1800000002,"ADDRESS":"育德二路８０９巷３２弄６號","OBJECTID":194669},"geometry":{"x":168013.62000000011,"y":2546728.1800000034}},{"attributes":{"ID":194671,"DIS_CODE":0,"TOWNNAME":"鹽水區","LI":"歡雅里","LIN":"3鄰","STREET":" ","SECT":" ","MAREA":"歡雅","LANE":" ","ALLEY":" ","HOUSE_NO":"６０之６號","E_COORD97":172273.95000000001,"N_COORD97":2576651.5600000001,"ADDRESS":"歡雅６０之６號","OBJECTID":194670},"geometry":{"x":172273.95000000205,"y":2576651.5600000024}},{"attributes":{"ID":194672,"DIS_CODE":0,"TOWNNAME":"鹽水區","LI":"歡雅里","LIN":"3鄰","STREET":" ","SECT":" ","MAREA":"歡雅","LANE":" ","ALLEY":" ","HOUSE_NO":"６０之７號","E_COORD97":172276.10000000001,"N_COORD97":2576655.25,"ADDRESS":"歡雅６０之７號","OBJECTID":194671},"geometry":{"x":172276.10000000056,"y":2576655.2500000019}},{"attributes":{"ID":194673,"DIS_CODE":0,"TOWNNAME":"北區","LI":"成德里","LIN":"38鄰","STREET":"育德二路","SECT":" ","MAREA":" ","LANE":"８０９巷","ALLEY":"３２弄","HOUSE_NO":"８號","E_COORD97":168011.39999999999,"N_COORD97":2546733.4199999999,"ADDRESS":"育德二路８０９巷３２弄８號","OBJECTID":194672},"geometry":{"x":168011.4000000013,"y":2546733.4199999981}},{"attributes":{"ID":194674,"DIS_CODE":0,"TOWNNAME":"鹽水區","LI":"歡雅里","LIN":"3鄰","STREET":" ","SECT":" ","MAREA":"歡雅","LANE":" ","ALLEY":" ","HOUSE_NO":"６２之１號","E_COORD97":172459.32000000001,"N_COORD97":2576637.5699999998,"ADDRESS":"歡雅６２之１號","OBJECTID":194673},"geometry":{"x":172459.3200000003,"y":2576637.5700000022}},{"attributes":{"ID":194675,"DIS_CODE":0,"TOWNNAME":"鹽水區","LI":"歡雅里","LIN":"3鄰","STREET":" ","SECT":" ","MAREA":"歡雅","LANE":" ","ALLEY":" ","HOUSE_NO":"６２號之１","E_COORD97":172459.32000000001,"N_COORD97":2576637.5699999998,"ADDRESS":"歡雅６２號之１","OBJECTID":194674},"geometry":{"x":172459.3200000003,"y":2576637.5700000022}},{"attributes":{"ID":194676,"DIS_CODE":0,"TOWNNAME":"鹽水區","LI":"歡雅里","LIN":"3鄰","STREET":" ","SECT":" ","MAREA":"歡雅","LANE":" ","ALLEY":" ","HOUSE_NO":"６２之２號","E_COORD97":172458.98999999999,"N_COORD97":2576632.75,"ADDRESS":"歡雅６２之２號","OBJECTID":194675},"geometry":{"x":172458.99000000115,"y":2576632.7500000019}},{"attributes":{"ID":194677,"DIS_CODE":0,"TOWNNAME":"北區","LI":"成德里","LIN":"38鄰","STREET":"育德二路","SECT":" ","MAREA":" ","LANE":"８０９巷","ALLEY":"３２弄","HOUSE_NO":"１號","E_COORD97":168008.38,"N_COORD97":2546720.8799999999,"ADDRESS":"育德二路８０９巷３２弄１號","OBJECTID":194676},"geometry":{"x":168008.37999999989,"y":2546720.8800000008}},{"attributes":{"ID":194678,"DIS_CODE":0,"TOWNNAME":"鹽水區","LI":"歡雅里","LIN":"3鄰","STREET":" ","SECT":" ","MAREA":"歡雅","LANE":" ","ALLEY":" ","HOUSE_NO":"６３號之１０","E_COORD97":172352.37,"N_COORD97":2576618.29,"ADDRESS":"歡雅６３號之１０","OBJECTID":194677},"geometry":{"x":172352.37000000197,"y":2576618.2899999991}},{"attributes":{"ID":194679,"DIS_CODE":0,"TOWNNAME":"鹽水區","LI":"歡雅里","LIN":"3鄰","STREET":" ","SECT":" ","MAREA":"歡雅","LANE":" ","ALLEY":" ","HOUSE_NO":"６３之１１號","E_COORD97":172351.69,"N_COORD97":2576622.7999999998,"ADDRESS":"歡雅６３之１１號","OBJECTID":194678},"geometry":{"x":172351.69000000041,"y":2576622.8000000026}},{"attributes":{"ID":194680,"DIS_CODE":0,"TOWNNAME":"北區","LI":"成德里","LIN":"38鄰","STREET":"育德二路","SECT":" ","MAREA":" ","LANE":"８０９巷","ALLEY":"３２弄","HOUSE_NO":"３號","E_COORD97":168006.95999999999,"N_COORD97":2546725.7999999998,"ADDRESS":"育德二路８０９巷３２弄３號","OBJECTID":194679},"geometry":{"x":168006.96000000089,"y":2546725.8000000026}},{"attributes":{"ID":194681,"DIS_CODE":0,"TOWNNAME":"鹽水區","LI":"歡雅里","LIN":"3鄰","STREET":" ","SECT":" ","MAREA":"歡雅","LANE":" ","ALLEY":" ","HOUSE_NO":"６３號之１１","E_COORD97":172351.69,"N_COORD97":2576622.7999999998,"ADDRESS":"歡雅６３號之１１","OBJECTID":194680},"geometry":{"x":172351.69000000041,"y":2576622.8000000026}},{"attributes":{"ID":194682,"DIS_CODE":0,"TOWNNAME":"北區","LI":"成德里","LIN":"38鄰","STREET":"育德二路","SECT":" ","MAREA":" ","LANE":"８０９巷","ALLEY":"３２弄","HOUSE_NO":"５號","E_COORD97":168005.04999999999,"N_COORD97":2546731.2000000002,"ADDRESS":"育德二路８０９巷３２弄５號","OBJECTID":194681},"geometry":{"x":168005.05000000075,"y":2546731.200000003}},{"attributes":{"ID":194683,"DIS_CODE":0,"TOWNNAME":"鹽水區","LI":"歡雅里","LIN":"3鄰","STREET":" ","SECT":" ","MAREA":"歡雅","LANE":" ","ALLEY":" ","HOUSE_NO":"６３之１２號","E_COORD97":172351.12,"N_COORD97":2576627.1200000001,"ADDRESS":"歡雅６３之１２號","OBJECTID":194682},"geometry":{"x":172351.12000000104,"y":2576627.1200000029}},{"attributes":{"ID":194684,"DIS_CODE":0,"TOWNNAME":"鹽水區","LI":"歡雅里","LIN":"3鄰","STREET":" ","SECT":" ","MAREA":"歡雅","LANE":" ","ALLEY":" ","HOUSE_NO":"６３之１３號","E_COORD97":172350.14999999999,"N_COORD97":2576631.7999999998,"ADDRESS":"歡雅６３之１３號","OBJECTID":194683},"geometry":{"x":172350.15000000037,"y":2576631.8000000045}},{"attributes":{"ID":194685,"DIS_CODE":0,"TOWNNAME":"鹽水區","LI":"歡雅里","LIN":"3鄰","STREET":" ","SECT":" ","MAREA":"歡雅","LANE":" ","ALLEY":" ","HOUSE_NO":"６３之１４號","E_COORD97":172349.10000000001,"N_COORD97":2576636.8900000001,"ADDRESS":"歡雅６３之１４號","OBJECTID":194684},"geometry":{"x":172349.10000000056,"y":2576636.8900000006}},{"attributes":{"ID":194686,"DIS_CODE":0,"TOWNNAME":"鹽水區","LI":"歡雅里","LIN":"3鄰","STREET":" ","SECT":" ","MAREA":"歡雅","LANE":" ","ALLEY":" ","HOUSE_NO":"６３之１５號","E_COORD97":172348.35000000001,"N_COORD97":2576641.0099999998,"ADDRESS":"歡雅６３之１５號","OBJECTID":194685},"geometry":{"x":172348.34999999963,"y":2576641.0100000016}},{"attributes":{"ID":194687,"DIS_CODE":0,"TOWNNAME":"鹽水區","LI":"歡雅里","LIN":"3鄰","STREET":" ","SECT":" ","MAREA":"歡雅","LANE":" ","ALLEY":" ","HOUSE_NO":"６３之１６號","E_COORD97":172347.85000000001,"N_COORD97":2576645.8700000001,"ADDRESS":"歡雅６３之１６號","OBJECTID":194686},"geometry":{"x":172347.84999999963,"y":2576645.8700000029}},{"attributes":{"ID":194688,"DIS_CODE":0,"TOWNNAME":"鹽水區","LI":"歡雅里","LIN":"3鄰","STREET":" ","SECT":" ","MAREA":"歡雅","LANE":" ","ALLEY":" ","HOUSE_NO":"６３號之１６","E_COORD97":172347.85000000001,"N_COORD97":2576645.8700000001,"ADDRESS":"歡雅６３號之１６","OBJECTID":194687},"geometry":{"x":172347.84999999963,"y":2576645.8700000029}},{"attributes":{"ID":194689,"DIS_CODE":0,"TOWNNAME":"將軍區","LI":"嘉昌里","LIN":"21鄰","STREET":" ","SECT":" ","MAREA":"昌平","LANE":" ","ALLEY":" ","HOUSE_NO":"８８號","E_COORD97":163342.42000000001,"N_COORD97":2567047.23,"ADDRESS":"昌平８８號","OBJECTID":194688},"geometry":{"x":163342.42000000086,"y":2567047.2300000042}},{"attributes":{"ID":194690,"DIS_CODE":0,"TOWNNAME":"將軍區","LI":"嘉昌里","LIN":"21鄰","STREET":" ","SECT":" ","MAREA":"昌平","LANE":" ","ALLEY":" ","HOUSE_NO":"８４號","E_COORD97":163283.56,"N_COORD97":2567250.2200000002,"ADDRESS":"昌平８４號","OBJECTID":194689},"geometry":{"x":163283.56000000052,"y":2567250.2200000007}},{"attributes":{"ID":194691,"DIS_CODE":0,"TOWNNAME":"將軍區","LI":"嘉昌里","LIN":"21鄰","STREET":" ","SECT":" ","MAREA":"昌平","LANE":" ","ALLEY":" ","HOUSE_NO":"８５號","E_COORD97":163298.38,"N_COORD97":2567255.8199999998,"ADDRESS":"昌平８５號","OBJECTID":194690},"geometry":{"x":163298.38000000082,"y":2567255.8200000003}},{"attributes":{"ID":194692,"DIS_CODE":0,"TOWNNAME":"將軍區","LI":"嘉昌里","LIN":"21鄰","STREET":" ","SECT":" ","MAREA":"昌平","LANE":" ","ALLEY":" ","HOUSE_NO":"８６之１號","E_COORD97":163320.23000000001,"N_COORD97":2567220.1000000001,"ADDRESS":"昌平８６之１號","OBJECTID":194691},"geometry":{"x":163320.23000000138,"y":2567220.1000000034}},{"attributes":{"ID":194693,"DIS_CODE":0,"TOWNNAME":"將軍區","LI":"嘉昌里","LIN":"21鄰","STREET":" ","SECT":" ","MAREA":"昌平","LANE":" ","ALLEY":" ","HOUSE_NO":"８６之２號","E_COORD97":163319.07000000001,"N_COORD97":2567241.79,"ADDRESS":"昌平８６之２號","OBJECTID":194692},"geometry":{"x":163319.07000000216,"y":2567241.7899999972}},{"attributes":{"ID":194694,"DIS_CODE":0,"TOWNNAME":"將軍區","LI":"嘉昌里","LIN":"21鄰","STREET":" ","SECT":" ","MAREA":"昌平","LANE":" ","ALLEY":" ","HOUSE_NO":"８６號","E_COORD97":163312.89000000001,"N_COORD97":2567258.29,"ADDRESS":"昌平８６號","OBJECTID":194693},"geometry":{"x":163312.89000000153,"y":2567258.2899999991}},{"attributes":{"ID":194695,"DIS_CODE":0,"TOWNNAME":"將軍區","LI":"嘉昌里","LIN":"21鄰","STREET":" ","SECT":" ","MAREA":"昌平","LANE":" ","ALLEY":" ","HOUSE_NO":"８７號","E_COORD97":163297.98999999999,"N_COORD97":2567216.2400000002,"ADDRESS":"昌平８７號","OBJECTID":194694},"geometry":{"x":163297.99000000115,"y":2567216.2399999984}},{"attributes":{"ID":194696,"DIS_CODE":0,"TOWNNAME":"安定區","LI":"海寮里","LIN":"21鄰","STREET":" ","SECT":" ","MAREA":"海寮","LANE":" ","ALLEY":" ","HOUSE_NO":"１９９之９號","E_COORD97":169538.44,"N_COORD97":2555547.2999999998,"ADDRESS":"海寮１９９之９號","OBJECTID":194695},"geometry":{"x":169538.44000000134,"y":2555547.3000000026}},{"attributes":{"ID":194697,"DIS_CODE":0,"TOWNNAME":"安定區","LI":"海寮里","LIN":"21鄰","STREET":" ","SECT":" ","MAREA":"海寮","LANE":" ","ALLEY":" ","HOUSE_NO":"１９４號","E_COORD97":169499.44,"N_COORD97":2555548.25,"ADDRESS":"海寮１９４號","OBJECTID":194696},"geometry":{"x":169499.44000000134,"y":2555548.25}},{"attributes":{"ID":194698,"DIS_CODE":0,"TOWNNAME":"北區","LI":"成德里","LIN":"38鄰","STREET":"育德二路","SECT":" ","MAREA":" ","LANE":"８０９巷","ALLEY":"３２弄","HOUSE_NO":"７號","E_COORD97":168002.82999999999,"N_COORD97":2546736.6000000001,"ADDRESS":"育德二路８０９巷３２弄７號","OBJECTID":194697},"geometry":{"x":168002.83000000101,"y":2546736.6000000015}},{"attributes":{"ID":194699,"DIS_CODE":0,"TOWNNAME":"新營區","LI":"民榮里","LIN":"38鄰","STREET":"太子路","SECT":" ","MAREA":" ","LANE":"５３巷","ALLEY":"６弄","HOUSE_NO":"１７號之２","E_COORD97":178283.75,"N_COORD97":2577947.52,"ADDRESS":"太子路５３巷６弄１７號之２","OBJECTID":194698},"geometry":{"x":178283.75,"y":2577947.5199999977}},{"attributes":{"ID":194700,"DIS_CODE":0,"TOWNNAME":"新營區","LI":"民榮里","LIN":"38鄰","STREET":"太子路","SECT":" ","MAREA":" ","LANE":"５３巷","ALLEY":"６弄","HOUSE_NO":"１３號之５","E_COORD97":178299.14999999999,"N_COORD97":2577954.0899999999,"ADDRESS":"太子路５３巷６弄１３號之５","OBJECTID":194699},"geometry":{"x":178299.15000000224,"y":2577954.0899999999}},{"attributes":{"ID":194701,"DIS_CODE":0,"TOWNNAME":"新營區","LI":"民榮里","LIN":"38鄰","STREET":"太子路","SECT":" ","MAREA":" ","LANE":"５３巷","ALLEY":"６弄","HOUSE_NO":"１１之６號","E_COORD97":178307.51999999999,"N_COORD97":2577950.73,"ADDRESS":"太子路５３巷６弄１１之６號","OBJECTID":194700},"geometry":{"x":178307.52000000142,"y":2577950.7300000042}},{"attributes":{"ID":194702,"DIS_CODE":0,"TOWNNAME":"新營區","LI":"民榮里","LIN":"38鄰","STREET":"太子路","SECT":" ","MAREA":" ","LANE":"５３巷","ALLEY":"６弄","HOUSE_NO":"１９之６號","E_COORD97":178279.88,"N_COORD97":2577946.4399999999,"ADDRESS":"太子路５３巷６弄１９之６號","OBJECTID":194701},"geometry":{"x":178279.87999999989,"y":2577946.4400000013}},{"attributes":{"ID":194703,"DIS_CODE":0,"TOWNNAME":"新營區","LI":"民榮里","LIN":"38鄰","STREET":"太子路","SECT":" ","MAREA":" ","LANE":"５３巷","ALLEY":"６弄","HOUSE_NO":"２３之５號","E_COORD97":178267.63,"N_COORD97":2577935.4199999999,"ADDRESS":"太子路５３巷６弄２３之５號","OBJECTID":194702},"geometry":{"x":178267.62999999989,"y":2577935.4200000037}},{"attributes":{"ID":194704,"DIS_CODE":0,"TOWNNAME":"新營區","LI":"民榮里","LIN":"38鄰","STREET":"太子路","SECT":" ","MAREA":" ","LANE":"５３巷","ALLEY":"６弄","HOUSE_NO":"９之２號","E_COORD97":178314.45000000001,"N_COORD97":2577955.1200000001,"ADDRESS":"太子路５３巷６弄９之２號","OBJECTID":194703},"geometry":{"x":178314.45000000112,"y":2577955.120000001}},{"attributes":{"ID":194705,"DIS_CODE":0,"TOWNNAME":"安定區","LI":"海寮里","LIN":"21鄰","STREET":" ","SECT":" ","MAREA":"海寮","LANE":" ","ALLEY":" ","HOUSE_NO":"２０１之２６號","E_COORD97":169780.26132600001,"N_COORD97":2555719.2185800001,"ADDRESS":"海寮２０１之２６號","OBJECTID":194704},"geometry":{"x":169780.26132600103,"y":2555719.218578998}},{"attributes":{"ID":194706,"DIS_CODE":0,"TOWNNAME":"新化區","LI":"太平里","LIN":"4鄰","STREET":"中正路","SECT":" ","MAREA":" ","LANE":" ","ALLEY":" ","HOUSE_NO":"５３４號","E_COORD97":179059.41,"N_COORD97":2548851.25,"ADDRESS":"中正路５３４號","OBJECTID":194705},"geometry":{"x":179059.41000000015,"y":2548851.2500000019}},{"attributes":{"ID":194707,"DIS_CODE":0,"TOWNNAME":"新化區","LI":"唪口里","LIN":"4鄰","STREET":"大德路","SECT":" ","MAREA":" ","LANE":" ","ALLEY":" ","HOUSE_NO":"８８號之１１","E_COORD97":178168.16,"N_COORD97":2549519.2599999998,"ADDRESS":"大德路８８號之１１","OBJECTID":194706},"geometry":{"x":178168.16000000201,"y":2549519.2600000016}},{"attributes":{"ID":194708,"DIS_CODE":0,"TOWNNAME":"新營區","LI":"民榮里","LIN":"38鄰","STREET":"太子路","SECT":" ","MAREA":" ","LANE":"５３巷","ALLEY":"６弄","HOUSE_NO":"２７號","E_COORD97":178249.75,"N_COORD97":2577929.9100000001,"ADDRESS":"太子路５３巷６弄２７號","OBJECTID":194707},"geometry":{"x":178249.75,"y":2577929.910000002}},{"attributes":{"ID":194709,"DIS_CODE":0,"TOWNNAME":"新營區","LI":"民榮里","LIN":"38鄰","STREET":"太子路","SECT":" ","MAREA":" ","LANE":"５３巷","ALLEY":"６弄","HOUSE_NO":"５之１號","E_COORD97":178330.89000000001,"N_COORD97":2577960.5800000001,"ADDRESS":"太子路５３巷６弄５之１號","OBJECTID":194708},"geometry":{"x":178330.8900000006,"y":2577960.5800000001}},{"attributes":{"ID":194710,"DIS_CODE":0,"TOWNNAME":"永康區","LI":"埔園里","LIN":" ","STREET":"八德街","SECT":" ","MAREA":" ","LANE":"３２６巷","ALLEY":"２９弄","HOUSE_NO":"１０號","E_COORD97":173632.03,"N_COORD97":2548725.9500000002,"ADDRESS":"八德街３２６巷２９弄１０號","OBJECTID":194709},"geometry":{"x":173632.03000000119,"y":2548725.9499999993}},{"attributes":{"ID":194711,"DIS_CODE":0,"TOWNNAME":"新營區","LI":"民榮里","LIN":"38鄰","STREET":"太子路","SECT":" ","MAREA":" ","LANE":"５３巷","ALLEY":"６弄","HOUSE_NO":"２１號之２","E_COORD97":178275.59,"N_COORD97":2577937.6000000001,"ADDRESS":"太子路５３巷６弄２１號之２","OBJECTID":194710},"geometry":{"x":178275.59000000078,"y":2577937.6000000015}},{"attributes":{"ID":194712,"DIS_CODE":0,"TOWNNAME":"新營區","LI":"民榮里","LIN":"38鄰","STREET":"太子路","SECT":" ","MAREA":" ","LANE":"５３巷","ALLEY":"６弄","HOUSE_NO":"１５號之５","E_COORD97":178295.04999999999,"N_COORD97":2577953,"ADDRESS":"太子路５３巷６弄１５號之５","OBJECTID":194711},"geometry":{"x":178295.04999999981,"y":2577953.0000000019}},{"attributes":{"ID":194713,"DIS_CODE":0,"TOWNNAME":"南區","LI":"大忠里","LIN":"38鄰","STREET":"國民路","SECT":" ","MAREA":" ","LANE":"２７０巷","ALLEY":"７３弄","HOUSE_NO":"２９號","E_COORD97":168829.38,"N_COORD97":2541366.8700000001,"ADDRESS":"國民路２７０巷７３弄２９號","OBJECTID":194712},"geometry":{"x":168829.38000000175,"y":2541366.870000001}},{"attributes":{"ID":194714,"DIS_CODE":0,"TOWNNAME":"南區","LI":"大忠里","LIN":"38鄰","STREET":"國民路","SECT":" ","MAREA":" ","LANE":"２７０巷","ALLEY":"７３弄","HOUSE_NO":"１０１號","E_COORD97":168836.17999999999,"N_COORD97":2541416.6099999999,"ADDRESS":"國民路２７０巷７３弄１０１號","OBJECTID":194713},"geometry":{"x":168836.18000000063,"y":2541416.6100000013}},{"attributes":{"ID":194715,"DIS_CODE":0,"TOWNNAME":"南區","LI":"大忠里","LIN":"38鄰","STREET":"國民路","SECT":" ","MAREA":" ","LANE":"２７０巷","ALLEY":"７３弄","HOUSE_NO":"１０３號","E_COORD97":168839.89000000001,"N_COORD97":2541419.73,"ADDRESS":"國民路２７０巷７３弄１０３號","OBJECTID":194714},"geometry":{"x":168839.8900000006,"y":2541419.7300000023}},{"attributes":{"ID":194716,"DIS_CODE":0,"TOWNNAME":"南區","LI":"大忠里","LIN":"38鄰","STREET":"國民路","SECT":" ","MAREA":" ","LANE":"２７０巷","ALLEY":"７３弄","HOUSE_NO":"１０５號","E_COORD97":168843.59,"N_COORD97":2541422.29,"ADDRESS":"國民路２７０巷７３弄１０５號","OBJECTID":194715},"geometry":{"x":168843.59000000078,"y":2541422.290000001}},{"attributes":{"ID":194717,"DIS_CODE":0,"TOWNNAME":"南區","LI":"大忠里","LIN":"38鄰","STREET":"國民路","SECT":" ","MAREA":" ","LANE":"２７０巷","ALLEY":"７３弄","HOUSE_NO":"１０７號","E_COORD97":168847.29999999999,"N_COORD97":2541425.4199999999,"ADDRESS":"國民路２７０巷７３弄１０７號","OBJECTID":194716},"geometry":{"x":168847.30000000075,"y":2541425.4200000018}},{"attributes":{"ID":194718,"DIS_CODE":0,"TOWNNAME":"南區","LI":"大忠里","LIN":"38鄰","STREET":"國民路","SECT":" ","MAREA":" ","LANE":"２７０巷","ALLEY":"７３弄","HOUSE_NO":"１０９號","E_COORD97":168854.03,"N_COORD97":2541428.5099999998,"ADDRESS":"國民路２７０巷７３弄１０９號","OBJECTID":194717},"geometry":{"x":168854.02999999933,"y":2541428.5100000016}},{"attributes":{"ID":194719,"DIS_CODE":0,"TOWNNAME":"南區","LI":"大忠里","LIN":"38鄰","STREET":"國民路","SECT":" ","MAREA":" ","LANE":"２７０巷","ALLEY":"７３弄","HOUSE_NO":"１１１號","E_COORD97":168850.85000000001,"N_COORD97":2541432.1099999999,"ADDRESS":"國民路２７０巷７３弄１１１號","OBJECTID":194718},"geometry":{"x":168850.84999999963,"y":2541432.1099999994}},{"attributes":{"ID":194720,"DIS_CODE":0,"TOWNNAME":"南區","LI":"大忠里","LIN":"38鄰","STREET":"國民路","SECT":" ","MAREA":" ","LANE":"２７０巷","ALLEY":"７３弄","HOUSE_NO":"１１３號","E_COORD97":168844.69,"N_COORD97":2541438.8799999999,"ADDRESS":"國民路２７０巷７３弄１１３號","OBJECTID":194719},"geometry":{"x":168844.69000000227,"y":2541438.879999999}},{"attributes":{"ID":194721,"DIS_CODE":0,"TOWNNAME":"南區","LI":"大忠里","LIN":"38鄰","STREET":"國民路","SECT":" ","MAREA":" ","LANE":"２７０巷","ALLEY":"７３弄","HOUSE_NO":"１１５號","E_COORD97":168841.92999999999,"N_COORD97":2541442.4700000002,"ADDRESS":"國民路２７０巷７３弄１１５號","OBJECTID":194720},"geometry":{"x":168841.9299999997,"y":2541442.4700000025}},{"attributes":{"ID":194722,"DIS_CODE":0,"TOWNNAME":"南區","LI":"大忠里","LIN":"38鄰","STREET":"國民路","SECT":" ","MAREA":" ","LANE":"２７０巷","ALLEY":"７３弄","HOUSE_NO":"１１７號","E_COORD97":168838.28,"N_COORD97":2541435.23,"ADDRESS":"國民路２７０巷７３弄１１７號","OBJECTID":194721},"geometry":{"x":168838.28000000026,"y":2541435.2300000004}},{"attributes":{"ID":194723,"DIS_CODE":0,"TOWNNAME":"南區","LI":"大忠里","LIN":"38鄰","STREET":"國民路","SECT":" ","MAREA":" ","LANE":"２７０巷","ALLEY":"７３弄","HOUSE_NO":"１１９號","E_COORD97":168834.69,"N_COORD97":2541432.1600000001,"ADDRESS":"國民路２７０巷７３弄１１９號","OBJECTID":194722},"geometry":{"x":168834.69000000227,"y":2541432.1600000001}},{"attributes":{"ID":194724,"DIS_CODE":0,"TOWNNAME":"南區","LI":"大忠里","LIN":"38鄰","STREET":"國民路","SECT":" ","MAREA":" ","LANE":"２７０巷","ALLEY":"７３弄","HOUSE_NO":"１１號","E_COORD97":168871.47,"N_COORD97":2541377.3599999999,"ADDRESS":"國民路２７０巷７３弄１１號","OBJECTID":194723},"geometry":{"x":168871.47000000067,"y":2541377.3600000013}},{"attributes":{"ID":194725,"DIS_CODE":0,"TOWNNAME":"南區","LI":"大忠里","LIN":"38鄰","STREET":"國民路","SECT":" ","MAREA":" ","LANE":"２７０巷","ALLEY":"７３弄","HOUSE_NO":"１２１號","E_COORD97":168831.10999999999,"N_COORD97":2541429.3500000001,"ADDRESS":"國民路２７０巷７３弄１２１號","OBJECTID":194724},"geometry":{"x":168831.11000000034,"y":2541429.3500000015}},{"attributes":{"ID":194726,"DIS_CODE":0,"TOWNNAME":"左鎮區","LI":"二寮里","LIN":"3鄰","STREET":" ","SECT":" ","MAREA":"二寮","LANE":" ","ALLEY":" ","HOUSE_NO":"２５號","E_COORD97":189467.84,"N_COORD97":2543337.25,"ADDRESS":"二寮２５號","OBJECTID":194725},"geometry":{"x":189467.83999999985,"y":2543337.25}},{"attributes":{"ID":194727,"DIS_CODE":0,"TOWNNAME":"南區","LI":"大忠里","LIN":"38鄰","STREET":"國民路","SECT":" ","MAREA":" ","LANE":"２７０巷","ALLEY":"７３弄","HOUSE_NO":"１２３號","E_COORD97":168828.06,"N_COORD97":2541425,"ADDRESS":"國民路２７０巷７３弄１２３號","OBJECTID":194726},"geometry":{"x":168828.06000000052,"y":2541425.0000000019}},{"attributes":{"ID":194728,"DIS_CODE":0,"TOWNNAME":"南區","LI":"大忠里","LIN":"38鄰","STREET":"國民路","SECT":" ","MAREA":" ","LANE":"２７０巷","ALLEY":"７３弄","HOUSE_NO":"１２５號","E_COORD97":168825.07000000001,"N_COORD97":2541421.3999999999,"ADDRESS":"國民路２７０巷７３弄１２５號","OBJECTID":194727},"geometry":{"x":168825.07000000216,"y":2541421.4000000041}},{"attributes":{"ID":194729,"DIS_CODE":0,"TOWNNAME":"南區","LI":"大忠里","LIN":"38鄰","STREET":"國民路","SECT":" ","MAREA":" ","LANE":"２７０巷","ALLEY":"７３弄","HOUSE_NO":"１２７號","E_COORD97":168820.98999999999,"N_COORD97":2541418.73,"ADDRESS":"國民路２７０巷７３弄１２７號","OBJECTID":194728},"geometry":{"x":168820.99000000115,"y":2541418.7300000004}},{"attributes":{"ID":194730,"DIS_CODE":0,"TOWNNAME":"南區","LI":"大忠里","LIN":"38鄰","STREET":"國民路","SECT":" ","MAREA":" ","LANE":"２７０巷","ALLEY":"７３弄","HOUSE_NO":"１２９號","E_COORD97":168817.37,"N_COORD97":2541415.7599999998,"ADDRESS":"國民路２７０巷７３弄１２９號","OBJECTID":194729},"geometry":{"x":168817.37000000011,"y":2541415.7600000016}},{"attributes":{"ID":194731,"DIS_CODE":0,"TOWNNAME":"南區","LI":"大忠里","LIN":"38鄰","STREET":"國民路","SECT":" ","MAREA":" ","LANE":"２７０巷","ALLEY":"７３弄","HOUSE_NO":"１３１號","E_COORD97":168813.44,"N_COORD97":2541412.7799999998,"ADDRESS":"國民路２７０巷７３弄１３１號","OBJECTID":194730},"geometry":{"x":168813.44000000041,"y":2541412.7799999993}},{"attributes":{"ID":194732,"DIS_CODE":0,"TOWNNAME":"南區","LI":"大忠里","LIN":"38鄰","STREET":"國民路","SECT":" ","MAREA":" ","LANE":"２７０巷","ALLEY":"７３弄","HOUSE_NO":"１３３號","E_COORD97":168809.67000000001,"N_COORD97":2541409.7999999998,"ADDRESS":"國民路２７０巷７３弄１３３號","OBJECTID":194731},"geometry":{"x":168809.66999999993,"y":2541409.8000000026}},{"attributes":{"ID":194733,"DIS_CODE":0,"TOWNNAME":"南區","LI":"大忠里","LIN":"38鄰","STREET":"國民路","SECT":" ","MAREA":" ","LANE":"２７０巷","ALLEY":"７３弄","HOUSE_NO":"１３５號","E_COORD97":168806.04999999999,"N_COORD97":2541406.3500000001,"ADDRESS":"國民路２７０巷７３弄１３５號","OBJECTID":194732},"geometry":{"x":168806.05000000168,"y":2541406.3499999996}},{"attributes":{"ID":194734,"DIS_CODE":0,"TOWNNAME":"南區","LI":"大忠里","LIN":"38鄰","STREET":"國民路","SECT":" ","MAREA":" ","LANE":"２７０巷","ALLEY":"７３弄","HOUSE_NO":"１３７號","E_COORD97":168802.28,"N_COORD97":2541404,"ADDRESS":"國民路２７０巷７３弄１３７號","OBJECTID":194733},"geometry":{"x":168802.28000000119,"y":2541404.0000000019}},{"attributes":{"ID":194735,"DIS_CODE":0,"TOWNNAME":"佳里區","LI":"六安里","LIN":"21鄰","STREET":"延平路","SECT":" ","MAREA":" ","LANE":"５７７巷","ALLEY":" ","HOUSE_NO":"１８號","E_COORD97":165902.56,"N_COORD97":2563540.6299999999,"ADDRESS":"延平路５７７巷１８號","OBJECTID":194734},"geometry":{"x":165902.56000000052,"y":2563540.6300000027}},{"attributes":{"ID":194736,"DIS_CODE":0,"TOWNNAME":"北區","LI":"成德里","LIN":"24鄰","STREET":"海安路","SECT":"三段","MAREA":" ","LANE":" ","ALLEY":" ","HOUSE_NO":"７３６號","E_COORD97":168081.44,"N_COORD97":2546184.6499999999,"ADDRESS":"海安路三段７３６號","OBJECTID":194735},"geometry":{"x":168081.44000000041,"y":2546184.6500000022}},{"attributes":{"ID":194737,"DIS_CODE":0,"TOWNNAME":"北區","LI":"成德里","LIN":"24鄰","STREET":"海安路","SECT":"三段","MAREA":" ","LANE":" ","ALLEY":" ","HOUSE_NO":"７３８號","E_COORD97":168086.04999999999,"N_COORD97":2546185.0299999998,"ADDRESS":"海安路三段７３８號","OBJECTID":194736},"geometry":{"x":168086.05000000075,"y":2546185.0299999993}},{"attributes":{"ID":194738,"DIS_CODE":0,"TOWNNAME":"安定區","LI":"蘇厝里","LIN":"21鄰","STREET":" ","SECT":" ","MAREA":"蘇厝","LANE":" ","ALLEY":" ","HOUSE_NO":"４８８號","E_COORD97":173158.22,"N_COORD97":2558967.25,"ADDRESS":"蘇厝４８８號","OBJECTID":194737},"geometry":{"x":173158.2200000016,"y":2558967.2500000037}},{"attributes":{"ID":194739,"DIS_CODE":0,"TOWNNAME":"安定區","LI":"港南里","LIN":"21鄰","STREET":" ","SECT":" ","MAREA":"港口","LANE":" ","ALLEY":" ","HOUSE_NO":"１６８號","E_COORD97":171409.645269,"N_COORD97":2554548.04953,"ADDRESS":"港口１６８號","OBJECTID":194738},"geometry":{"x":171409.6452690009,"y":2554548.0495280009}},{"attributes":{"ID":194740,"DIS_CODE":0,"TOWNNAME":"安定區","LI":"海寮里","LIN":"21鄰","STREET":" ","SECT":" ","MAREA":"海寮","LANE":" ","ALLEY":" ","HOUSE_NO":"１９９之１３號","E_COORD97":169536.48999999999,"N_COORD97":2555563.2999999998,"ADDRESS":"海寮１９９之１３號","OBJECTID":194739},"geometry":{"x":169536.49000000115,"y":2555563.3000000007}},{"attributes":{"ID":194741,"DIS_CODE":0,"TOWNNAME":"安定區","LI":"港南里","LIN":"21鄰","STREET":" ","SECT":" ","MAREA":"港口","LANE":" ","ALLEY":" ","HOUSE_NO":"１６２號","E_COORD97":171421.19810800001,"N_COORD97":2554547.8275000001,"ADDRESS":"港口１６２號","OBJECTID":194740},"geometry":{"x":171421.19810799975,"y":2554547.8275010008}},{"attributes":{"ID":194742,"DIS_CODE":0,"TOWNNAME":"北區","LI":"成德里","LIN":"24鄰","STREET":"海安路","SECT":"三段","MAREA":" ","LANE":" ","ALLEY":" ","HOUSE_NO":"７４０號","E_COORD97":168090.09,"N_COORD97":2546185.4100000001,"ADDRESS":"海安路三段７４０號","OBJECTID":194741},"geometry":{"x":168090.08999999985,"y":2546185.410000002}},{"attributes":{"ID":194743,"DIS_CODE":0,"TOWNNAME":"安定區","LI":"蘇林里","LIN":"21鄰","STREET":" ","SECT":" ","MAREA":"蘇厝","LANE":" ","ALLEY":" ","HOUSE_NO":"２４２號之１","E_COORD97":173298.35000000001,"N_COORD97":2558819.2999999998,"ADDRESS":"蘇厝２４２號之１","OBJECTID":194742},"geometry":{"x":173298.35000000056,"y":2558819.3000000026}},{"attributes":{"ID":194744,"DIS_CODE":0,"TOWNNAME":"南區","LI":"大忠里","LIN":"38鄰","STREET":"國民路","SECT":" ","MAREA":" ","LANE":"２７０巷","ALLEY":"７３弄","HOUSE_NO":"１３９號","E_COORD97":168798.35000000001,"N_COORD97":2541401.02,"ADDRESS":"國民路２７０巷７３弄１３９號","OBJECTID":194743},"geometry":{"x":168798.34999999963,"y":2541401.0200000014}},{"attributes":{"ID":194745,"DIS_CODE":0,"TOWNNAME":"南區","LI":"大忠里","LIN":"38鄰","STREET":"國民路","SECT":" ","MAREA":" ","LANE":"２７０巷","ALLEY":"７３弄","HOUSE_NO":"１３號","E_COORD97":168867.95999999999,"N_COORD97":2541373.8599999999,"ADDRESS":"國民路２７０巷７３弄１３號","OBJECTID":194744},"geometry":{"x":168867.96000000183,"y":2541373.8600000013}},{"attributes":{"ID":194746,"DIS_CODE":0,"TOWNNAME":"安定區","LI":"蘇厝里","LIN":"21鄰","STREET":" ","SECT":" ","MAREA":"蘇厝","LANE":" ","ALLEY":" ","HOUSE_NO":"４８２之３號","E_COORD97":173242.12,"N_COORD97":2558948.2999999998,"ADDRESS":"蘇厝４８２之３號","OBJECTID":194745},"geometry":{"x":173242.11999999918,"y":2558948.3000000026}},{"attributes":{"ID":194747,"DIS_CODE":0,"TOWNNAME":"安定區","LI":"港南里","LIN":"21鄰","STREET":" ","SECT":" ","MAREA":"港口","LANE":" ","ALLEY":" ","HOUSE_NO":"１６３之１號","E_COORD97":171405.39000000001,"N_COORD97":2554517.2999999998,"ADDRESS":"港口１６３之１號","OBJECTID":194746},"geometry":{"x":171405.38999999966,"y":2554517.3000000026}},{"attributes":{"ID":194748,"DIS_CODE":0,"TOWNNAME":"安定區","LI":"蘇厝里","LIN":"21鄰","STREET":" ","SECT":" ","MAREA":"蘇厝","LANE":" ","ALLEY":" ","HOUSE_NO":"４９０之２號","E_COORD97":173132.22,"N_COORD97":2558971.2999999998,"ADDRESS":"蘇厝４９０之２號","OBJECTID":194747},"geometry":{"x":173132.21999999974,"y":2558971.3000000045}},{"attributes":{"ID":194749,"DIS_CODE":0,"TOWNNAME":"南區","LI":"大忠里","LIN":"38鄰","STREET":"國民路","SECT":" ","MAREA":" ","LANE":"２７０巷","ALLEY":"７３弄","HOUSE_NO":"１４１號","E_COORD97":168783.88,"N_COORD97":2541417.3199999998,"ADDRESS":"國民路２７０巷７３弄１４１號","OBJECTID":194748},"geometry":{"x":168783.88000000082,"y":2541417.3200000003}},{"attributes":{"ID":194750,"DIS_CODE":0,"TOWNNAME":"南區","LI":"大忠里","LIN":"38鄰","STREET":"國民路","SECT":" ","MAREA":" ","LANE":"２７０巷","ALLEY":"７３弄","HOUSE_NO":"１４３號","E_COORD97":168787.5,"N_COORD97":2541420.6099999999,"ADDRESS":"國民路２７０巷７３弄１４３號","OBJECTID":194749},"geometry":{"x":168787.5,"y":2541420.6100000013}},{"attributes":{"ID":194751,"DIS_CODE":0,"TOWNNAME":"南區","LI":"大忠里","LIN":"38鄰","STREET":"國民路","SECT":" ","MAREA":" ","LANE":"２７０巷","ALLEY":"７３弄","HOUSE_NO":"１４７號","E_COORD97":168794.57000000001,"N_COORD97":2541427.04,"ADDRESS":"國民路２７０巷７３弄１４７號","OBJECTID":194750},"geometry":{"x":168794.57000000216,"y":2541427.040000001}},{"attributes":{"ID":194752,"DIS_CODE":0,"TOWNNAME":"安定區","LI":"蘇厝里","LIN":"21鄰","STREET":" ","SECT":" ","MAREA":"蘇厝","LANE":" ","ALLEY":" ","HOUSE_NO":"４８２之１５號","E_COORD97":173228.37,"N_COORD97":2558912.2999999998,"ADDRESS":"蘇厝４８２之１５號","OBJECTID":194751},"geometry":{"x":173228.37000000011,"y":2558912.3000000007}},{"attributes":{"ID":194753,"DIS_CODE":0,"TOWNNAME":"安定區","LI":"蘇厝里","LIN":"21鄰","STREET":" ","SECT":" ","MAREA":"蘇厝","LANE":" ","ALLEY":" ","HOUSE_NO":"４８６號","E_COORD97":173209.22,"N_COORD97":2558978.25,"ADDRESS":"蘇厝４８６號","OBJECTID":194752},"geometry":{"x":173209.22000000067,"y":2558978.2500000019}},{"attributes":{"ID":194754,"DIS_CODE":0,"TOWNNAME":"安定區","LI":"蘇厝里","LIN":"21鄰","STREET":" ","SECT":" ","MAREA":"蘇厝","LANE":" ","ALLEY":" ","HOUSE_NO":"４８９號","E_COORD97":173143.92000000001,"N_COORD97":2558971.25,"ADDRESS":"蘇厝４８９號","OBJECTID":194753},"geometry":{"x":173143.92000000086,"y":2558971.2500000019}},{"attributes":{"ID":194755,"DIS_CODE":0,"TOWNNAME":"安定區","LI":"蘇厝里","LIN":"21鄰","STREET":" ","SECT":" ","MAREA":"蘇厝","LANE":" ","ALLEY":" ","HOUSE_NO":"４８２之１號","E_COORD97":173250.32000000001,"N_COORD97":2558947.2999999998,"ADDRESS":"蘇厝４８２之１號","OBJECTID":194754},"geometry":{"x":173250.32000000123,"y":2558947.2999999989}},{"attributes":{"ID":194756,"DIS_CODE":0,"TOWNNAME":"安定區","LI":"港南里","LIN":"21鄰","STREET":" ","SECT":" ","MAREA":"港口","LANE":" ","ALLEY":" ","HOUSE_NO":"１６３號之７","E_COORD97":171403.10000000001,"N_COORD97":2554493.2999999998,"ADDRESS":"港口１６３號之７","OBJECTID":194755},"geometry":{"x":171403.10000000056,"y":2554493.3000000026}},{"attributes":{"ID":194757,"DIS_CODE":0,"TOWNNAME":"安定區","LI":"蘇林里","LIN":"21鄰","STREET":" ","SECT":" ","MAREA":"蘇厝","LANE":" ","ALLEY":" ","HOUSE_NO":"２４５號之２","E_COORD97":173273.98999999999,"N_COORD97":2558754.2999999998,"ADDRESS":"蘇厝２４５號之２","OBJECTID":194756},"geometry":{"x":173273.99000000115,"y":2558754.3000000045}},{"attributes":{"ID":194758,"DIS_CODE":0,"TOWNNAME":"安定區","LI":"蘇厝里","LIN":"21鄰","STREET":" ","SECT":" ","MAREA":"蘇厝","LANE":" ","ALLEY":" ","HOUSE_NO":"４９０之１號","E_COORD97":173136.62,"N_COORD97":2558972.2999999998,"ADDRESS":"蘇厝４９０之１號","OBJECTID":194757},"geometry":{"x":173136.62000000011,"y":2558972.3000000026}},{"attributes":{"ID":194759,"DIS_CODE":0,"TOWNNAME":"鹽水區","LI":"歡雅里","LIN":"3鄰","STREET":" ","SECT":" ","MAREA":"歡雅","LANE":" ","ALLEY":" ","HOUSE_NO":"６３之１７號","E_COORD97":172346.95999999999,"N_COORD97":2576650.02,"ADDRESS":"歡雅６３之１７號","OBJECTID":194758},"geometry":{"x":172346.96000000089,"y":2576650.0200000014}},{"attributes":{"ID":194760,"DIS_CODE":0,"TOWNNAME":"鹽水區","LI":"歡雅里","LIN":"3鄰","STREET":" ","SECT":" ","MAREA":"歡雅","LANE":" ","ALLEY":" ","HOUSE_NO":"６３號之１７","E_COORD97":172346.95999999999,"N_COORD97":2576650.02,"ADDRESS":"歡雅６３號之１７","OBJECTID":194759},"geometry":{"x":172346.96000000089,"y":2576650.0200000014}},{"attributes":{"ID":194761,"DIS_CODE":0,"TOWNNAME":"鹽水區","LI":"歡雅里","LIN":"3鄰","STREET":" ","SECT":" ","MAREA":"歡雅","LANE":" ","ALLEY":" ","HOUSE_NO":"６３之１８號","E_COORD97":172346.39999999999,"N_COORD97":2576654.9100000001,"ADDRESS":"歡雅６３之１８號","OBJECTID":194760},"geometry":{"x":172346.40000000037,"y":2576654.910000002}},{"attributes":{"ID":194762,"DIS_CODE":0,"TOWNNAME":"鹽水區","LI":"歡雅里","LIN":"3鄰","STREET":" ","SECT":" ","MAREA":"歡雅","LANE":" ","ALLEY":" ","HOUSE_NO":"６３號之１８","E_COORD97":172346.39999999999,"N_COORD97":2576654.9100000001,"ADDRESS":"歡雅６３號之１８","OBJECTID":194761},"geometry":{"x":172346.40000000037,"y":2576654.910000002}},{"attributes":{"ID":194763,"DIS_CODE":0,"TOWNNAME":"鹽水區","LI":"歡雅里","LIN":"3鄰","STREET":" ","SECT":" ","MAREA":"歡雅","LANE":" ","ALLEY":" ","HOUSE_NO":"６３之１９號","E_COORD97":172345.98000000001,"N_COORD97":2576658.8900000001,"ADDRESS":"歡雅６３之１９號","OBJECTID":194762},"geometry":{"x":172345.98000000045,"y":2576658.8900000025}},{"attributes":{"ID":194764,"DIS_CODE":0,"TOWNNAME":"鹽水區","LI":"歡雅里","LIN":"3鄰","STREET":" ","SECT":" ","MAREA":"歡雅","LANE":" ","ALLEY":" ","HOUSE_NO":"６３號之１９","E_COORD97":172345.98000000001,"N_COORD97":2576658.8900000001,"ADDRESS":"歡雅６３號之１９","OBJECTID":194763},"geometry":{"x":172345.98000000045,"y":2576658.8900000025}},{"attributes":{"ID":194765,"DIS_CODE":0,"TOWNNAME":"鹽水區","LI":"歡雅里","LIN":"3鄰","STREET":" ","SECT":" ","MAREA":"歡雅","LANE":" ","ALLEY":" ","HOUSE_NO":"６３之１號","E_COORD97":172359.04000000001,"N_COORD97":2576578.2799999998,"ADDRESS":"歡雅６３之１號","OBJECTID":194764},"geometry":{"x":172359.04000000004,"y":2576578.2799999993}},{"attributes":{"ID":194766,"DIS_CODE":0,"TOWNNAME":"鹽水區","LI":"歡雅里","LIN":"3鄰","STREET":" ","SECT":" ","MAREA":"歡雅","LANE":" ","ALLEY":" ","HOUSE_NO":"６３之２０號","E_COORD97":172373.29999999999,"N_COORD97":2576647.0299999998,"ADDRESS":"歡雅６３之２０號","OBJECTID":194765},"geometry":{"x":172373.30000000075,"y":2576647.0300000012}},{"attributes":{"ID":194767,"DIS_CODE":0,"TOWNNAME":"鹽水區","LI":"歡雅里","LIN":"3鄰","STREET":" ","SECT":" ","MAREA":"歡雅","LANE":" ","ALLEY":" ","HOUSE_NO":"６３之２１號","E_COORD97":172374.26000000001,"N_COORD97":2576642.0600000001,"ADDRESS":"歡雅６３之２１號","OBJECTID":194766},"geometry":{"x":172374.25999999978,"y":2576642.0600000005}},{"attributes":{"ID":194768,"DIS_CODE":0,"TOWNNAME":"鹽水區","LI":"歡雅里","LIN":"3鄰","STREET":" ","SECT":" ","MAREA":"歡雅","LANE":" ","ALLEY":" ","HOUSE_NO":"６３之２２號","E_COORD97":172374.85000000001,"N_COORD97":2576636.9900000002,"ADDRESS":"歡雅６３之２２號","OBJECTID":194767},"geometry":{"x":172374.84999999963,"y":2576636.9900000021}},{"attributes":{"ID":194769,"DIS_CODE":0,"TOWNNAME":"南區","LI":"大忠里","LIN":"38鄰","STREET":"國民路","SECT":" ","MAREA":" ","LANE":"２７０巷","ALLEY":"７３弄","HOUSE_NO":"１４９號","E_COORD97":168798.19,"N_COORD97":2541430.1800000002,"ADDRESS":"國民路２７０巷７３弄１４９號","OBJECTID":194768},"geometry":{"x":168798.19000000041,"y":2541430.1800000016}},{"attributes":{"ID":194770,"DIS_CODE":0,"TOWNNAME":"南區","LI":"大忠里","LIN":"38鄰","STREET":"國民路","SECT":" ","MAREA":" ","LANE":"２７０巷","ALLEY":"７３弄","HOUSE_NO":"１５１號","E_COORD97":168801.64999999999,"N_COORD97":2541433.3100000001,"ADDRESS":"國民路２７０巷７３弄１５１號","OBJECTID":194769},"geometry":{"x":168801.6500000013,"y":2541433.3100000024}},{"attributes":{"ID":194771,"DIS_CODE":0,"TOWNNAME":"南區","LI":"大忠里","LIN":"38鄰","STREET":"國民路","SECT":" ","MAREA":" ","LANE":"２７０巷","ALLEY":"７３弄","HOUSE_NO":"１５３號","E_COORD97":168805.26000000001,"N_COORD97":2541435.98,"ADDRESS":"國民路２７０巷７３弄１５３號","OBJECTID":194770},"geometry":{"x":168805.26000000071,"y":2541435.9800000023}},{"attributes":{"ID":194772,"DIS_CODE":0,"TOWNNAME":"南區","LI":"大忠里","LIN":"38鄰","STREET":"國民路","SECT":" ","MAREA":" ","LANE":"２７０巷","ALLEY":"７３弄","HOUSE_NO":"１５５號","E_COORD97":168810.14000000001,"N_COORD97":2541438.7999999998,"ADDRESS":"國民路２７０巷７３弄１５５號","OBJECTID":194771},"geometry":{"x":168810.13999999966,"y":2541438.8000000007}},{"attributes":{"ID":194773,"DIS_CODE":0,"TOWNNAME":"南區","LI":"大忠里","LIN":"38鄰","STREET":"國民路","SECT":" ","MAREA":" ","LANE":"２７０巷","ALLEY":"７３弄","HOUSE_NO":"１５７號","E_COORD97":168812.81,"N_COORD97":2541442.0899999999,"ADDRESS":"國民路２７０巷７３弄１５７號","OBJECTID":194772},"geometry":{"x":168812.81000000052,"y":2541442.0899999999}},{"attributes":{"ID":194774,"DIS_CODE":0,"TOWNNAME":"南區","LI":"大忠里","LIN":"38鄰","STREET":"國民路","SECT":" ","MAREA":" ","LANE":"２７０巷","ALLEY":"７３弄","HOUSE_NO":"１５９號","E_COORD97":168816.26999999999,"N_COORD97":2541445.0699999998,"ADDRESS":"國民路２７０巷７３弄１５９號","OBJECTID":194773},"geometry":{"x":168816.27000000142,"y":2541445.0700000022}},{"attributes":{"ID":194775,"DIS_CODE":0,"TOWNNAME":"南區","LI":"大忠里","LIN":"38鄰","STREET":"國民路","SECT":" ","MAREA":" ","LANE":"２７０巷","ALLEY":"７３弄","HOUSE_NO":"１５號","E_COORD97":168864.45000000001,"N_COORD97":2541370.9500000002,"ADDRESS":"國民路２７０巷７３弄１５號","OBJECTID":194774},"geometry":{"x":168864.45000000019,"y":2541370.9499999993}},{"attributes":{"ID":194776,"DIS_CODE":0,"TOWNNAME":"南區","LI":"大忠里","LIN":"38鄰","STREET":"國民路","SECT":" ","MAREA":" ","LANE":"２７０巷","ALLEY":"７３弄","HOUSE_NO":"１６１號","E_COORD97":168820.35999999999,"N_COORD97":2541448.04,"ADDRESS":"國民路２７０巷７３弄１６１號","OBJECTID":194775},"geometry":{"x":168820.36000000127,"y":2541448.0399999991}},{"attributes":{"ID":194777,"DIS_CODE":0,"TOWNNAME":"南區","LI":"大忠里","LIN":"38鄰","STREET":"國民路","SECT":" ","MAREA":" ","LANE":"２７０巷","ALLEY":"７３弄","HOUSE_NO":"１６３號","E_COORD97":168823.39999999999,"N_COORD97":2541452.1099999999,"ADDRESS":"國民路２７０巷７３弄１６３號","OBJECTID":194776},"geometry":{"x":168823.4000000013,"y":2541452.1099999994}},{"attributes":{"ID":194778,"DIS_CODE":0,"TOWNNAME":"南區","LI":"大忠里","LIN":"38鄰","STREET":"國民路","SECT":" ","MAREA":" ","LANE":"２７０巷","ALLEY":"７３弄","HOUSE_NO":"１６５號","E_COORD97":168831.32000000001,"N_COORD97":2541453.48,"ADDRESS":"國民路２７０巷７３弄１６５號","OBJECTID":194777},"geometry":{"x":168831.3200000003,"y":2541453.4800000004}},{"attributes":{"ID":194779,"DIS_CODE":0,"TOWNNAME":"南區","LI":"大忠里","LIN":"38鄰","STREET":"國民路","SECT":" ","MAREA":" ","LANE":"２７０巷","ALLEY":"７３弄","HOUSE_NO":"１６７號","E_COORD97":168827.92999999999,"N_COORD97":2541457.5,"ADDRESS":"國民路２７０巷７３弄１６７號","OBJECTID":194778},"geometry":{"x":168827.93000000063,"y":2541457.4999999981}},{"attributes":{"ID":194780,"DIS_CODE":0,"TOWNNAME":"南區","LI":"大忠里","LIN":"38鄰","STREET":"國民路","SECT":" ","MAREA":" ","LANE":"２７０巷","ALLEY":"７３弄","HOUSE_NO":"１７號","E_COORD97":168860.35999999999,"N_COORD97":2541368.0299999998,"ADDRESS":"國民路２７０巷７３弄１７號","OBJECTID":194779},"geometry":{"x":168860.3599999994,"y":2541368.0299999993}},{"attributes":{"ID":194781,"DIS_CODE":0,"TOWNNAME":"南區","LI":"大忠里","LIN":"38鄰","STREET":"國民路","SECT":" ","MAREA":" ","LANE":"２７０巷","ALLEY":"７３弄","HOUSE_NO":"１９號","E_COORD97":168856.26999999999,"N_COORD97":2541365.1200000001,"ADDRESS":"國民路２７０巷７３弄１９號","OBJECTID":194780},"geometry":{"x":168856.26999999955,"y":2541365.120000001}},{"attributes":{"ID":194782,"DIS_CODE":0,"TOWNNAME":"南區","LI":"大忠里","LIN":"38鄰","STREET":"國民路","SECT":" ","MAREA":" ","LANE":"２７０巷","ALLEY":"７３弄","HOUSE_NO":"１號","E_COORD97":168889.88,"N_COORD97":2541389.3100000001,"ADDRESS":"國民路２７０巷７３弄１號","OBJECTID":194781},"geometry":{"x":168889.87999999989,"y":2541389.3100000024}},{"attributes":{"ID":194783,"DIS_CODE":0,"TOWNNAME":"南區","LI":"大忠里","LIN":"38鄰","STREET":"國民路","SECT":" ","MAREA":" ","LANE":"２７０巷","ALLEY":"７３弄","HOUSE_NO":"２１號","E_COORD97":168852.47,"N_COORD97":2541362.5,"ADDRESS":"國民路２７０巷７３弄２１號","OBJECTID":194782},"geometry":{"x":168852.47000000067,"y":2541362.5}},{"attributes":{"ID":194784,"DIS_CODE":0,"TOWNNAME":"南區","LI":"大忠里","LIN":"38鄰","STREET":"國民路","SECT":" ","MAREA":" ","LANE":"２７０巷","ALLEY":"７３弄","HOUSE_NO":"２３號","E_COORD97":168848.95999999999,"N_COORD97":2541359.5800000001,"ADDRESS":"國民路２７０巷７３弄２３號","OBJECTID":194783},"geometry":{"x":168848.95999999996,"y":2541359.5800000019}},{"attributes":{"ID":194785,"DIS_CODE":0,"TOWNNAME":"南區","LI":"大忠里","LIN":"38鄰","STREET":"國民路","SECT":" ","MAREA":" ","LANE":"２７０巷","ALLEY":"７３弄","HOUSE_NO":"２５號","E_COORD97":168845.16,"N_COORD97":2541356.6699999999,"ADDRESS":"國民路２７０巷７３弄２５號","OBJECTID":194784},"geometry":{"x":168845.16000000108,"y":2541356.6699999999}},{"attributes":{"ID":194786,"DIS_CODE":0,"TOWNNAME":"南區","LI":"大忠里","LIN":"38鄰","STREET":"國民路","SECT":" ","MAREA":" ","LANE":"２７０巷","ALLEY":"７３弄","HOUSE_NO":"２７號","E_COORD97":168841.35999999999,"N_COORD97":2541353.46,"ADDRESS":"國民路２７０巷７３弄２７號","OBJECTID":194785},"geometry":{"x":168841.36000000034,"y":2541353.4600000009}},{"attributes":{"ID":194787,"DIS_CODE":0,"TOWNNAME":"南區","LI":"大忠里","LIN":"38鄰","STREET":"國民路","SECT":" ","MAREA":" ","LANE":"２７０巷","ALLEY":"７３弄","HOUSE_NO":"３１號","E_COORD97":168832.88,"N_COORD97":2541370.0699999998,"ADDRESS":"國民路２７０巷７３弄３１號","OBJECTID":194786},"geometry":{"x":168832.88000000082,"y":2541370.0700000022}},{"attributes":{"ID":194788,"DIS_CODE":0,"TOWNNAME":"南區","LI":"大忠里","LIN":"38鄰","STREET":"國民路","SECT":" ","MAREA":" ","LANE":"２７０巷","ALLEY":"７３弄","HOUSE_NO":"３２號","E_COORD97":168876.10999999999,"N_COORD97":2541442.3599999999,"ADDRESS":"國民路２７０巷７３弄３２號","OBJECTID":194787},"geometry":{"x":168876.11000000127,"y":2541442.3600000013}},{"attributes":{"ID":194789,"DIS_CODE":0,"TOWNNAME":"南區","LI":"大忠里","LIN":"38鄰","STREET":"國民路","SECT":" ","MAREA":" ","LANE":"２７０巷","ALLEY":"７３弄","HOUSE_NO":"３３號","E_COORD97":168836.98000000001,"N_COORD97":2541373.2799999998,"ADDRESS":"國民路２７０巷７３弄３３號","OBJECTID":194788},"geometry":{"x":168836.98000000045,"y":2541373.2799999993}},{"attributes":{"ID":194790,"DIS_CODE":0,"TOWNNAME":"南區","LI":"大忠里","LIN":"38鄰","STREET":"國民路","SECT":" ","MAREA":" ","LANE":"２７０巷","ALLEY":"７３弄","HOUSE_NO":"３５號","E_COORD97":168840.78,"N_COORD97":2541375.8999999999,"ADDRESS":"國民路２７０巷７３弄３５號","OBJECTID":194789},"geometry":{"x":168840.78000000119,"y":2541375.9000000004}},{"attributes":{"ID":194791,"DIS_CODE":0,"TOWNNAME":"南區","LI":"大忠里","LIN":"38鄰","STREET":"國民路","SECT":" ","MAREA":" ","LANE":"２７０巷","ALLEY":"７３弄","HOUSE_NO":"３７號","E_COORD97":168844.57999999999,"N_COORD97":2541379.1099999999,"ADDRESS":"國民路２７０巷７３弄３７號","OBJECTID":194790},"geometry":{"x":168844.58000000007,"y":2541379.1100000013}},{"attributes":{"ID":194792,"DIS_CODE":0,"TOWNNAME":"南區","LI":"大忠里","LIN":"38鄰","STREET":"國民路","SECT":" ","MAREA":" ","LANE":"２７０巷","ALLEY":"７３弄","HOUSE_NO":"３９號","E_COORD97":168848.38,"N_COORD97":2541382.02,"ADDRESS":"國民路２７０巷７３弄３９號","OBJECTID":194791},"geometry":{"x":168848.38000000082,"y":2541382.0199999996}},{"attributes":{"ID":194793,"DIS_CODE":0,"TOWNNAME":"南區","LI":"大忠里","LIN":"38鄰","STREET":"國民路","SECT":" ","MAREA":" ","LANE":"２７０巷","ALLEY":"７３弄","HOUSE_NO":"３號","E_COORD97":168886.07999999999,"N_COORD97":2541393.0899999999,"ADDRESS":"國民路２７０巷７３弄３號","OBJECTID":194792},"geometry":{"x":168886.08000000101,"y":2541393.0900000017}},{"attributes":{"ID":194794,"DIS_CODE":0,"TOWNNAME":"南區","LI":"大忠里","LIN":"38鄰","STREET":"國民路","SECT":" ","MAREA":" ","LANE":"２７０巷","ALLEY":"７３弄","HOUSE_NO":"４１號","E_COORD97":168851.88,"N_COORD97":2541384.9399999999,"ADDRESS":"國民路２７０巷７３弄４１號","OBJECTID":194793},"geometry":{"x":168851.88000000082,"y":2541384.9399999995}},{"attributes":{"ID":194795,"DIS_CODE":0,"TOWNNAME":"南區","LI":"大忠里","LIN":"38鄰","STREET":"國民路","SECT":" ","MAREA":" ","LANE":"２７０巷","ALLEY":"７３弄","HOUSE_NO":"４３號","E_COORD97":168855.67999999999,"N_COORD97":2541388.1400000001,"ADDRESS":"國民路２７０巷７３弄４３號","OBJECTID":194794},"geometry":{"x":168855.6799999997,"y":2541388.1400000006}},{"attributes":{"ID":194796,"DIS_CODE":0,"TOWNNAME":"南區","LI":"大忠里","LIN":"38鄰","STREET":"國民路","SECT":" ","MAREA":" ","LANE":"２７０巷","ALLEY":"７３弄","HOUSE_NO":"４５號","E_COORD97":168859.48000000001,"N_COORD97":2541390.7599999998,"ADDRESS":"國民路２７０巷７３弄４５號","OBJECTID":194795},"geometry":{"x":168859.48000000045,"y":2541390.7599999998}},{"attributes":{"ID":194797,"DIS_CODE":0,"TOWNNAME":"七股區","LI":"大埕里","LIN":"3鄰","STREET":" ","SECT":" ","MAREA":"大埕","LANE":" ","ALLEY":" ","HOUSE_NO":"８８號","E_COORD97":162913.60999999999,"N_COORD97":2561031.7200000002,"ADDRESS":"大埕８８號","OBJECTID":194796},"geometry":{"x":162913.61000000034,"y":2561031.7200000007}},{"attributes":{"ID":194798,"DIS_CODE":0,"TOWNNAME":"南區","LI":"大忠里","LIN":"38鄰","STREET":"國民路","SECT":" ","MAREA":" ","LANE":"２７０巷","ALLEY":"７３弄","HOUSE_NO":"４７號","E_COORD97":168862.51999999999,"N_COORD97":2541394.8799999999,"ADDRESS":"國民路２７０巷７３弄４７號","OBJECTID":194797},"geometry":{"x":168862.52000000048,"y":2541394.879999999}},{"attributes":{"ID":194799,"DIS_CODE":0,"TOWNNAME":"南區","LI":"大忠里","LIN":"38鄰","STREET":"國民路","SECT":" ","MAREA":" ","LANE":"２７０巷","ALLEY":"７３弄","HOUSE_NO":"４９號","E_COORD97":168865.85000000001,"N_COORD97":2541397.8599999999,"ADDRESS":"國民路２７０巷７３弄４９號","OBJECTID":194798},"geometry":{"x":168865.84999999963,"y":2541397.8600000013}},{"attributes":{"ID":194800,"DIS_CODE":0,"TOWNNAME":"南區","LI":"大忠里","LIN":"38鄰","STREET":"國民路","SECT":" ","MAREA":" ","LANE":"２７０巷","ALLEY":"７３弄","HOUSE_NO":"５１號","E_COORD97":168869.17000000001,"N_COORD97":2541400.8399999999,"ADDRESS":"國民路２７０巷７３弄５１號","OBJECTID":194799},"geometry":{"x":168869.16999999993,"y":2541400.839999998}},{"attributes":{"ID":194801,"DIS_CODE":0,"TOWNNAME":"南區","LI":"大忠里","LIN":"38鄰","STREET":"國民路","SECT":" ","MAREA":" ","LANE":"２７０巷","ALLEY":"７３弄","HOUSE_NO":"５３號","E_COORD97":168876.14000000001,"N_COORD97":2541403.8199999998,"ADDRESS":"國民路２７０巷７３弄５３號","OBJECTID":194800},"geometry":{"x":168876.13999999966,"y":2541403.8200000003}}]}