{"displayFieldName":"TOWNNAME","fieldAliases":{"ID":"ID","DIS_CODE":"DIS_CODE","TOWNNAME":"TOWNNAME","LI":"LI","LIN":"LIN","STREET":"STREET","SECT":"SECT","MAREA":"MAREA","LANE":"LANE","ALLEY":"ALLEY","HOUSE_NO":"HOUSE_NO","E_COORD97":"E_COORD97","N_COORD97":"N_COORD97","ADDRESS":"ADDRESS","OBJECTID":"OBJECTID"},"geometryType":"esriGeometryPoint","spatialReference":{"wkid":102443,"latestWkid":3826},"fields":[{"name":"ID","type":"esriFieldTypeDouble","alias":"ID"},{"name":"DIS_CODE","type":"esriFieldTypeInteger","alias":"DIS_CODE"},{"name":"TOWNNAME","type":"esriFieldTypeString","alias":"TOWNNAME","length":8},{"name":"LI","type":"esriFieldTypeString","alias":"LI","length":8},{"name":"LIN","type":"esriFieldTypeString","alias":"LIN","length":12},{"name":"STREET","type":"esriFieldTypeString","alias":"STREET","length":20},{"name":"SECT","type":"esriFieldTypeString","alias":"SECT","length":8},{"name":"MAREA","type":"esriFieldTypeString","alias":"MAREA","length":12},{"name":"LANE","type":"esriFieldTypeString","alias":"LANE","length":10},{"name":"ALLEY","type":"esriFieldTypeString","alias":"ALLEY","length":10},{"name":"HOUSE_NO","type":"esriFieldTypeString","alias":"HOUSE_NO","length":20},{"name":"E_COORD97","type":"esriFieldTypeDouble","alias":"E_COORD97"},{"name":"N_COORD97","type":"esriFieldTypeDouble","alias":"N_COORD97"},{"name":"ADDRESS","type":"esriFieldTypeString","alias":"ADDRESS","length":50},{"name":"OBJECTID","type":"esriFieldTypeOID","alias":"OBJECTID"}],"features":[{"attributes":{"ID":292809,"DIS_CODE":0,"TOWNNAME":"南區","LI":"鯤鯓里","LIN":"17鄰","STREET":"鯤鯓路","SECT":" ","MAREA":" ","LANE":"１９４巷","ALLEY":" ","HOUSE_NO":"２３號","E_COORD97":164947.95000000001,"N_COORD97":2540318.1899999999,"ADDRESS":"鯤鯓路１９４巷２３號","OBJECTID":292801},"geometry":{"x":164947.95000000112,"y":2540318.1900000013}},{"attributes":{"ID":292810,"DIS_CODE":0,"TOWNNAME":"南區","LI":"鯤鯓里","LIN":"17鄰","STREET":"鯤鯓路","SECT":" ","MAREA":" ","LANE":"１９４巷","ALLEY":" ","HOUSE_NO":"２５號","E_COORD97":164960.63,"N_COORD97":2540320.8500000001,"ADDRESS":"鯤鯓路１９４巷２５號","OBJECTID":292802},"geometry":{"x":164960.62999999989,"y":2540320.8500000015}},{"attributes":{"ID":292811,"DIS_CODE":0,"TOWNNAME":"南區","LI":"鯤鯓里","LIN":"17鄰","STREET":"鯤鯓路","SECT":" ","MAREA":" ","LANE":"１９４巷","ALLEY":" ","HOUSE_NO":"２７號","E_COORD97":164959.91,"N_COORD97":2540333.7599999998,"ADDRESS":"鯤鯓路１９４巷２７號","OBJECTID":292803},"geometry":{"x":164959.91000000108,"y":2540333.7600000035}},{"attributes":{"ID":292812,"DIS_CODE":0,"TOWNNAME":"南區","LI":"鯤鯓里","LIN":"17鄰","STREET":"鯤鯓路","SECT":" ","MAREA":" ","LANE":"１９４巷","ALLEY":" ","HOUSE_NO":"２９號","E_COORD97":164964.26000000001,"N_COORD97":2540345.46,"ADDRESS":"鯤鯓路１９４巷２９號","OBJECTID":292804},"geometry":{"x":164964.25999999978,"y":2540345.4600000009}},{"attributes":{"ID":292813,"DIS_CODE":0,"TOWNNAME":"南區","LI":"鯤鯓里","LIN":"17鄰","STREET":"鯤鯓路","SECT":" ","MAREA":" ","LANE":"１９４巷","ALLEY":" ","HOUSE_NO":"３１號","E_COORD97":164976.70000000001,"N_COORD97":2540325.5499999998,"ADDRESS":"鯤鯓路１９４巷３１號","OBJECTID":292805},"geometry":{"x":164976.70000000112,"y":2540325.5499999989}},{"attributes":{"ID":292814,"DIS_CODE":0,"TOWNNAME":"南區","LI":"鯤鯓里","LIN":"17鄰","STREET":"鯤鯓路","SECT":" ","MAREA":" ","LANE":"１９４巷","ALLEY":" ","HOUSE_NO":"３５號","E_COORD97":164978.51000000001,"N_COORD97":2540342.3300000001,"ADDRESS":"鯤鯓路１９４巷３５號","OBJECTID":292806},"geometry":{"x":164978.51000000164,"y":2540342.3300000001}},{"attributes":{"ID":292815,"DIS_CODE":0,"TOWNNAME":"南區","LI":"鯤鯓里","LIN":"17鄰","STREET":"鯤鯓路","SECT":" ","MAREA":" ","LANE":"１９４巷","ALLEY":" ","HOUSE_NO":"３９號","E_COORD97":164991.56,"N_COORD97":2540325.48,"ADDRESS":"鯤鯓路１９４巷３９號","OBJECTID":292807},"geometry":{"x":164991.56000000145,"y":2540325.4800000004}},{"attributes":{"ID":292816,"DIS_CODE":0,"TOWNNAME":"安平區","LI":"育平里","LIN":"8鄰","STREET":"育平五街","SECT":" ","MAREA":" ","LANE":" ","ALLEY":" ","HOUSE_NO":"７０號十八樓之６","E_COORD97":164650.70000000001,"N_COORD97":2543539.8100000001,"ADDRESS":"育平五街７０號十八樓之６","OBJECTID":292808},"geometry":{"x":164650.70000000112,"y":2543539.8100000005}},{"attributes":{"ID":292817,"DIS_CODE":0,"TOWNNAME":"安平區","LI":"育平里","LIN":"8鄰","STREET":"育平五街","SECT":" ","MAREA":" ","LANE":" ","ALLEY":" ","HOUSE_NO":"７０號十三樓之４","E_COORD97":164650.70000000001,"N_COORD97":2543539.8100000001,"ADDRESS":"育平五街７０號十三樓之４","OBJECTID":292809},"geometry":{"x":164650.70000000112,"y":2543539.8100000005}},{"attributes":{"ID":292818,"DIS_CODE":0,"TOWNNAME":"安平區","LI":"育平里","LIN":"8鄰","STREET":"育平五街","SECT":" ","MAREA":" ","LANE":" ","ALLEY":" ","HOUSE_NO":"７０號十三樓之５","E_COORD97":164650.70000000001,"N_COORD97":2543539.8100000001,"ADDRESS":"育平五街７０號十三樓之５","OBJECTID":292810},"geometry":{"x":164650.70000000112,"y":2543539.8100000005}},{"attributes":{"ID":292819,"DIS_CODE":0,"TOWNNAME":"白河區","LI":"草店里","LIN":" ","STREET":" ","SECT":" ","MAREA":"草店","LANE":" ","ALLEY":" ","HOUSE_NO":"７１號","E_COORD97":192061.51999999999,"N_COORD97":2587556.5299999998,"ADDRESS":"草店７１號","OBJECTID":292811},"geometry":{"x":192061.51999999955,"y":2587556.5300000012}},{"attributes":{"ID":292820,"DIS_CODE":0,"TOWNNAME":"仁德區","LI":"新田里","LIN":"4鄰","STREET":"勝利路","SECT":" ","MAREA":" ","LANE":"１３２巷","ALLEY":" ","HOUSE_NO":"２號","E_COORD97":174282.14999999999,"N_COORD97":2539558.75,"ADDRESS":"勝利路１３２巷２號","OBJECTID":292812},"geometry":{"x":174282.1500000013,"y":2539558.7500000019}},{"attributes":{"ID":292821,"DIS_CODE":0,"TOWNNAME":"仁德區","LI":"成功里","LIN":"26鄰","STREET":"成功一街","SECT":" ","MAREA":" ","LANE":"３０巷","ALLEY":" ","HOUSE_NO":"５號","E_COORD97":170510.79999999999,"N_COORD97":2540074.7599999998,"ADDRESS":"成功一街３０巷５號","OBJECTID":292813},"geometry":{"x":170510.79999999981,"y":2540074.7599999998}},{"attributes":{"ID":292822,"DIS_CODE":0,"TOWNNAME":"白河區","LI":"草店里","LIN":" ","STREET":" ","SECT":" ","MAREA":"草店","LANE":" ","ALLEY":" ","HOUSE_NO":"７２之２號","E_COORD97":192064,"N_COORD97":2587542.2200000002,"ADDRESS":"草店７２之２號","OBJECTID":292814},"geometry":{"x":192064,"y":2587542.2199999988}},{"attributes":{"ID":292823,"DIS_CODE":0,"TOWNNAME":"白河區","LI":"草店里","LIN":" ","STREET":" ","SECT":" ","MAREA":"草店","LANE":" ","ALLEY":" ","HOUSE_NO":"７５號","E_COORD97":192062.60999999999,"N_COORD97":2587522.7999999998,"ADDRESS":"草店７５號","OBJECTID":292815},"geometry":{"x":192062.6100000022,"y":2587522.8000000026}},{"attributes":{"ID":292824,"DIS_CODE":0,"TOWNNAME":"仁德區","LI":"仁德里","LIN":"25鄰","STREET":"淨修街","SECT":" ","MAREA":" ","LANE":"１５７巷","ALLEY":" ","HOUSE_NO":"１６號","E_COORD97":171933.73000000001,"N_COORD97":2541306.5,"ADDRESS":"淨修街１５７巷１６號","OBJECTID":292816},"geometry":{"x":171933.73000000138,"y":2541306.5000000019}},{"attributes":{"ID":292825,"DIS_CODE":0,"TOWNNAME":"仁德區","LI":"太子里","LIN":"38鄰","STREET":"長興一街","SECT":" ","MAREA":" ","LANE":"５９巷","ALLEY":" ","HOUSE_NO":"１號","E_COORD97":174475.19,"N_COORD97":2543799.75,"ADDRESS":"長興一街５９巷１號","OBJECTID":292817},"geometry":{"x":174475.19000000134,"y":2543799.7500000019}},{"attributes":{"ID":292826,"DIS_CODE":0,"TOWNNAME":"仁德區","LI":"成功里","LIN":"38鄰","STREET":"保華路","SECT":" ","MAREA":" ","LANE":"２巷","ALLEY":" ","HOUSE_NO":"１３號","E_COORD97":170764.59,"N_COORD97":2540047.4900000002,"ADDRESS":"保華路２巷１３號","OBJECTID":292818},"geometry":{"x":170764.59000000078,"y":2540047.4899999984}},{"attributes":{"ID":292827,"DIS_CODE":0,"TOWNNAME":"仁德區","LI":"成功里","LIN":"26鄰","STREET":"成功一街","SECT":" ","MAREA":" ","LANE":"３０巷","ALLEY":" ","HOUSE_NO":"４號","E_COORD97":170521.14999999999,"N_COORD97":2540082.7599999998,"ADDRESS":"成功一街３０巷４號","OBJECTID":292819},"geometry":{"x":170521.15000000037,"y":2540082.7600000035}},{"attributes":{"ID":292828,"DIS_CODE":0,"TOWNNAME":"南區","LI":"鯤鯓里","LIN":"17鄰","STREET":"鯤鯓路","SECT":" ","MAREA":" ","LANE":"１９４巷","ALLEY":" ","HOUSE_NO":"３號","E_COORD97":164886.82999999999,"N_COORD97":2540296.0699999998,"ADDRESS":"鯤鯓路１９４巷３號","OBJECTID":292820},"geometry":{"x":164886.83000000194,"y":2540296.0700000022}},{"attributes":{"ID":292829,"DIS_CODE":0,"TOWNNAME":"南區","LI":"鯤鯓里","LIN":"17鄰","STREET":"鯤鯓路","SECT":" ","MAREA":" ","LANE":"１９４巷","ALLEY":" ","HOUSE_NO":"５號","E_COORD97":164894.44,"N_COORD97":2540303.3999999999,"ADDRESS":"鯤鯓路１９４巷５號","OBJECTID":292821},"geometry":{"x":164894.44000000041,"y":2540303.4000000022}},{"attributes":{"ID":292830,"DIS_CODE":0,"TOWNNAME":"南區","LI":"鯤鯓里","LIN":"17鄰","STREET":"鯤鯓路","SECT":" ","MAREA":" ","LANE":"１９４巷","ALLEY":" ","HOUSE_NO":"７號","E_COORD97":164898.79000000001,"N_COORD97":2540305.21,"ADDRESS":"鯤鯓路１９４巷７號","OBJECTID":292822},"geometry":{"x":164898.79000000004,"y":2540305.2100000028}},{"attributes":{"ID":292831,"DIS_CODE":0,"TOWNNAME":"南區","LI":"鯤鯓里","LIN":"17鄰","STREET":"鯤鯓路","SECT":" ","MAREA":" ","LANE":"１９４巷","ALLEY":" ","HOUSE_NO":"９號","E_COORD97":164904.59,"N_COORD97":2540305.9300000002,"ADDRESS":"鯤鯓路１９４巷９號","OBJECTID":292823},"geometry":{"x":164904.58999999985,"y":2540305.9300000016}},{"attributes":{"ID":292832,"DIS_CODE":0,"TOWNNAME":"南區","LI":"鯤鯓里","LIN":"17鄰","STREET":"鯤鯓路","SECT":" ","MAREA":" ","LANE":"２０８巷","ALLEY":" ","HOUSE_NO":"１０號","E_COORD97":164882.23999999999,"N_COORD97":2540303.4300000002,"ADDRESS":"鯤鯓路２０８巷１０號","OBJECTID":292824},"geometry":{"x":164882.24000000022,"y":2540303.4300000016}},{"attributes":{"ID":292833,"DIS_CODE":0,"TOWNNAME":"南區","LI":"鯤鯓里","LIN":"17鄰","STREET":"鯤鯓路","SECT":" ","MAREA":" ","LANE":"２０８巷","ALLEY":" ","HOUSE_NO":"１２號","E_COORD97":164891.42000000001,"N_COORD97":2540317.7599999998,"ADDRESS":"鯤鯓路２０８巷１２號","OBJECTID":292825},"geometry":{"x":164891.42000000086,"y":2540317.7600000016}},{"attributes":{"ID":292834,"DIS_CODE":0,"TOWNNAME":"南區","LI":"鯤鯓里","LIN":"17鄰","STREET":"鯤鯓路","SECT":" ","MAREA":" ","LANE":"２０８巷","ALLEY":" ","HOUSE_NO":"１４號","E_COORD97":164896.13,"N_COORD97":2540319.0899999999,"ADDRESS":"鯤鯓路２０８巷１４號","OBJECTID":292826},"geometry":{"x":164896.12999999989,"y":2540319.0900000017}},{"attributes":{"ID":292835,"DIS_CODE":0,"TOWNNAME":"安平區","LI":"育平里","LIN":"8鄰","STREET":"育平五街","SECT":" ","MAREA":" ","LANE":" ","ALLEY":" ","HOUSE_NO":"７０號十三樓之６","E_COORD97":164650.70000000001,"N_COORD97":2543539.8100000001,"ADDRESS":"育平五街７０號十三樓之６","OBJECTID":292827},"geometry":{"x":164650.70000000112,"y":2543539.8100000005}},{"attributes":{"ID":292836,"DIS_CODE":0,"TOWNNAME":"安平區","LI":"育平里","LIN":"8鄰","STREET":"育平五街","SECT":" ","MAREA":" ","LANE":" ","ALLEY":" ","HOUSE_NO":"７０號十五樓之４","E_COORD97":164650.70000000001,"N_COORD97":2543539.8100000001,"ADDRESS":"育平五街７０號十五樓之４","OBJECTID":292828},"geometry":{"x":164650.70000000112,"y":2543539.8100000005}},{"attributes":{"ID":292837,"DIS_CODE":0,"TOWNNAME":"安平區","LI":"育平里","LIN":"8鄰","STREET":"育平五街","SECT":" ","MAREA":" ","LANE":" ","ALLEY":" ","HOUSE_NO":"７０號十五樓之５","E_COORD97":164650.70000000001,"N_COORD97":2543539.8100000001,"ADDRESS":"育平五街７０號十五樓之５","OBJECTID":292829},"geometry":{"x":164650.70000000112,"y":2543539.8100000005}},{"attributes":{"ID":292838,"DIS_CODE":0,"TOWNNAME":"安平區","LI":"育平里","LIN":"8鄰","STREET":"育平五街","SECT":" ","MAREA":" ","LANE":" ","ALLEY":" ","HOUSE_NO":"７０號十五樓之６","E_COORD97":164650.70000000001,"N_COORD97":2543539.8100000001,"ADDRESS":"育平五街７０號十五樓之６","OBJECTID":292830},"geometry":{"x":164650.70000000112,"y":2543539.8100000005}},{"attributes":{"ID":292839,"DIS_CODE":0,"TOWNNAME":"安平區","LI":"育平里","LIN":"8鄰","STREET":"育平五街","SECT":" ","MAREA":" ","LANE":" ","ALLEY":" ","HOUSE_NO":"７０號十六樓之４","E_COORD97":164650.70000000001,"N_COORD97":2543539.8100000001,"ADDRESS":"育平五街７０號十六樓之４","OBJECTID":292831},"geometry":{"x":164650.70000000112,"y":2543539.8100000005}},{"attributes":{"ID":292840,"DIS_CODE":0,"TOWNNAME":"安平區","LI":"育平里","LIN":"8鄰","STREET":"育平五街","SECT":" ","MAREA":" ","LANE":" ","ALLEY":" ","HOUSE_NO":"７０號十六樓之５","E_COORD97":164650.70000000001,"N_COORD97":2543539.8100000001,"ADDRESS":"育平五街７０號十六樓之５","OBJECTID":292832},"geometry":{"x":164650.70000000112,"y":2543539.8100000005}},{"attributes":{"ID":292841,"DIS_CODE":0,"TOWNNAME":"仁德區","LI":"保安里","LIN":"20鄰","STREET":"保安路","SECT":"一段","MAREA":" ","LANE":"１０５巷","ALLEY":" ","HOUSE_NO":"８號","E_COORD97":171074.41,"N_COORD97":2536859.0600000001,"ADDRESS":"保安路一段１０５巷８號","OBJECTID":292833},"geometry":{"x":171074.41000000108,"y":2536859.0600000005}},{"attributes":{"ID":292842,"DIS_CODE":0,"TOWNNAME":"仁德區","LI":"保安里","LIN":"13鄰","STREET":"二仁路","SECT":"一段","MAREA":" ","LANE":"１２２巷","ALLEY":" ","HOUSE_NO":"１５號","E_COORD97":170487.12,"N_COORD97":2535964.7799999998,"ADDRESS":"二仁路一段１２２巷１５號","OBJECTID":292834},"geometry":{"x":170487.12000000011,"y":2535964.7799999993}},{"attributes":{"ID":292843,"DIS_CODE":0,"TOWNNAME":"仁德區","LI":"成功里","LIN":"26鄰","STREET":"成功一街","SECT":" ","MAREA":" ","LANE":"３０巷","ALLEY":" ","HOUSE_NO":"６號","E_COORD97":170515.29000000001,"N_COORD97":2540082.7599999998,"ADDRESS":"成功一街３０巷６號","OBJECTID":292835},"geometry":{"x":170515.29000000097,"y":2540082.7600000035}},{"attributes":{"ID":292844,"DIS_CODE":0,"TOWNNAME":"仁德區","LI":"仁德里","LIN":"25鄰","STREET":"淨修街","SECT":" ","MAREA":" ","LANE":"１７５巷","ALLEY":" ","HOUSE_NO":"２４號","E_COORD97":171963.75,"N_COORD97":2541259.1899999999,"ADDRESS":"淨修街１７５巷２４號","OBJECTID":292836},"geometry":{"x":171963.75000000093,"y":2541259.1900000032}},{"attributes":{"ID":292845,"DIS_CODE":0,"TOWNNAME":"仁德區","LI":"成功里","LIN":"20鄰","STREET":"成功一街","SECT":" ","MAREA":" ","LANE":"１３１巷","ALLEY":" ","HOUSE_NO":"２２號","E_COORD97":170613.17999999999,"N_COORD97":2539869.2599999998,"ADDRESS":"成功一街１３１巷２２號","OBJECTID":292837},"geometry":{"x":170613.1799999997,"y":2539869.2600000035}},{"attributes":{"ID":292846,"DIS_CODE":0,"TOWNNAME":"仁德區","LI":"太子里","LIN":"43鄰","STREET":"太子路","SECT":" ","MAREA":" ","LANE":"１０１巷","ALLEY":" ","HOUSE_NO":"６７號","E_COORD97":174926.78,"N_COORD97":2543390.25,"ADDRESS":"太子路１０１巷６７號","OBJECTID":292838},"geometry":{"x":174926.78000000119,"y":2543390.25}},{"attributes":{"ID":292847,"DIS_CODE":0,"TOWNNAME":"仁德區","LI":"成功里","LIN":"24鄰","STREET":"保華路","SECT":" ","MAREA":" ","LANE":"２７９巷","ALLEY":" ","HOUSE_NO":"１號","E_COORD97":170605.39999999999,"N_COORD97":2539962.2400000002,"ADDRESS":"保華路２７９巷１號","OBJECTID":292839},"geometry":{"x":170605.4000000013,"y":2539962.2400000021}},{"attributes":{"ID":292848,"DIS_CODE":0,"TOWNNAME":"南區","LI":"鯤鯓里","LIN":"17鄰","STREET":"鯤鯓路","SECT":" ","MAREA":" ","LANE":"２０８巷","ALLEY":" ","HOUSE_NO":"１６號","E_COORD97":164901.69,"N_COORD97":2540320.1699999999,"ADDRESS":"鯤鯓路２０８巷１６號","OBJECTID":292840},"geometry":{"x":164901.69000000227,"y":2540320.1699999999}},{"attributes":{"ID":292849,"DIS_CODE":0,"TOWNNAME":"南區","LI":"鯤鯓里","LIN":"17鄰","STREET":"鯤鯓路","SECT":" ","MAREA":" ","LANE":"２０８巷","ALLEY":" ","HOUSE_NO":"１８號","E_COORD97":164905.79000000001,"N_COORD97":2540320.6499999999,"ADDRESS":"鯤鯓路２０８巷１８號","OBJECTID":292841},"geometry":{"x":164905.7900000019,"y":2540320.6500000004}},{"attributes":{"ID":292850,"DIS_CODE":0,"TOWNNAME":"南區","LI":"鯤鯓里","LIN":"17鄰","STREET":"鯤鯓路","SECT":" ","MAREA":" ","LANE":"２０８巷","ALLEY":" ","HOUSE_NO":"２０號","E_COORD97":164910.5,"N_COORD97":2540321.8599999999,"ADDRESS":"鯤鯓路２０８巷２０號","OBJECTID":292842},"geometry":{"x":164910.5,"y":2540321.8599999994}},{"attributes":{"ID":292851,"DIS_CODE":0,"TOWNNAME":"南區","LI":"鯤鯓里","LIN":"17鄰","STREET":"鯤鯓路","SECT":" ","MAREA":" ","LANE":"２０８巷","ALLEY":" ","HOUSE_NO":"２號","E_COORD97":164879.47,"N_COORD97":2540320.6800000002,"ADDRESS":"鯤鯓路２０８巷２號","OBJECTID":292843},"geometry":{"x":164879.47000000067,"y":2540320.6800000034}},{"attributes":{"ID":292852,"DIS_CODE":0,"TOWNNAME":"南區","LI":"鯤鯓里","LIN":"17鄰","STREET":"鯤鯓路","SECT":" ","MAREA":" ","LANE":"２０８巷","ALLEY":" ","HOUSE_NO":"４號","E_COORD97":164879.95000000001,"N_COORD97":2540316.2200000002,"ADDRESS":"鯤鯓路２０８巷４號","OBJECTID":292844},"geometry":{"x":164879.95000000112,"y":2540316.2200000007}},{"attributes":{"ID":292853,"DIS_CODE":0,"TOWNNAME":"歸仁區","LI":"大潭里","LIN":"15鄰","STREET":"大潭二街","SECT":" ","MAREA":" ","LANE":"３０巷","ALLEY":" ","HOUSE_NO":"２８號","E_COORD97":174982.20999999999,"N_COORD97":2534737.25,"ADDRESS":"大潭二街３０巷２８號","OBJECTID":292845},"geometry":{"x":174982.20999999996,"y":2534737.2500000019}},{"attributes":{"ID":292854,"DIS_CODE":0,"TOWNNAME":"南區","LI":"鯤鯓里","LIN":"17鄰","STREET":"鯤鯓路","SECT":" ","MAREA":" ","LANE":"２０８巷","ALLEY":" ","HOUSE_NO":"６號","E_COORD97":164881.04000000001,"N_COORD97":2540311.9900000002,"ADDRESS":"鯤鯓路２０８巷６號","OBJECTID":292846},"geometry":{"x":164881.04000000097,"y":2540311.9900000039}},{"attributes":{"ID":292855,"DIS_CODE":0,"TOWNNAME":"南區","LI":"大忠里","LIN":"17鄰","STREET":"大同路","SECT":"二段","MAREA":" ","LANE":"６２０巷","ALLEY":" ","HOUSE_NO":"８號","E_COORD97":169493.73999999999,"N_COORD97":2541101.4399999999,"ADDRESS":"大同路二段６２０巷８號","OBJECTID":292847},"geometry":{"x":169493.74000000115,"y":2541101.4399999976}},{"attributes":{"ID":292856,"DIS_CODE":0,"TOWNNAME":"安平區","LI":"育平里","LIN":"8鄰","STREET":"育平五街","SECT":" ","MAREA":" ","LANE":" ","ALLEY":" ","HOUSE_NO":"７０號十六樓之６","E_COORD97":164650.70000000001,"N_COORD97":2543539.8100000001,"ADDRESS":"育平五街７０號十六樓之６","OBJECTID":292848},"geometry":{"x":164650.70000000112,"y":2543539.8100000005}},{"attributes":{"ID":292857,"DIS_CODE":0,"TOWNNAME":"安平區","LI":"育平里","LIN":"8鄰","STREET":"育平五街","SECT":" ","MAREA":" ","LANE":" ","ALLEY":" ","HOUSE_NO":"７０號十四樓之４","E_COORD97":164650.70000000001,"N_COORD97":2543539.8100000001,"ADDRESS":"育平五街７０號十四樓之４","OBJECTID":292849},"geometry":{"x":164650.70000000112,"y":2543539.8100000005}},{"attributes":{"ID":292858,"DIS_CODE":0,"TOWNNAME":"安平區","LI":"育平里","LIN":"8鄰","STREET":"育平五街","SECT":" ","MAREA":" ","LANE":" ","ALLEY":" ","HOUSE_NO":"７０號十四樓之５","E_COORD97":164650.70000000001,"N_COORD97":2543539.8100000001,"ADDRESS":"育平五街７０號十四樓之５","OBJECTID":292850},"geometry":{"x":164650.70000000112,"y":2543539.8100000005}},{"attributes":{"ID":292859,"DIS_CODE":0,"TOWNNAME":"安平區","LI":"育平里","LIN":"8鄰","STREET":"育平五街","SECT":" ","MAREA":" ","LANE":" ","ALLEY":" ","HOUSE_NO":"７０號十四樓之６","E_COORD97":164650.70000000001,"N_COORD97":2543539.8100000001,"ADDRESS":"育平五街７０號十四樓之６","OBJECTID":292851},"geometry":{"x":164650.70000000112,"y":2543539.8100000005}},{"attributes":{"ID":292860,"DIS_CODE":0,"TOWNNAME":"安平區","LI":"育平里","LIN":"8鄰","STREET":"育平五街","SECT":" ","MAREA":" ","LANE":" ","ALLEY":" ","HOUSE_NO":"７０號十樓之４","E_COORD97":164650.70000000001,"N_COORD97":2543539.8100000001,"ADDRESS":"育平五街７０號十樓之４","OBJECTID":292852},"geometry":{"x":164650.70000000112,"y":2543539.8100000005}},{"attributes":{"ID":292861,"DIS_CODE":0,"TOWNNAME":"安平區","LI":"育平里","LIN":"8鄰","STREET":"育平五街","SECT":" ","MAREA":" ","LANE":" ","ALLEY":" ","HOUSE_NO":"７０號十樓之５","E_COORD97":164650.70000000001,"N_COORD97":2543539.8100000001,"ADDRESS":"育平五街７０號十樓之５","OBJECTID":292853},"geometry":{"x":164650.70000000112,"y":2543539.8100000005}},{"attributes":{"ID":292862,"DIS_CODE":0,"TOWNNAME":"安平區","LI":"育平里","LIN":"8鄰","STREET":"育平五街","SECT":" ","MAREA":" ","LANE":" ","ALLEY":" ","HOUSE_NO":"７０號十樓之６","E_COORD97":164650.70000000001,"N_COORD97":2543539.8100000001,"ADDRESS":"育平五街７０號十樓之６","OBJECTID":292854},"geometry":{"x":164650.70000000112,"y":2543539.8100000005}},{"attributes":{"ID":292863,"DIS_CODE":0,"TOWNNAME":"白河區","LI":"仙草里","LIN":"20鄰","STREET":" ","SECT":" ","MAREA":"仙草","LANE":" ","ALLEY":" ","HOUSE_NO":"１１４號","E_COORD97":196843.01999999999,"N_COORD97":2582306.5499999998,"ADDRESS":"仙草１１４號","OBJECTID":292855},"geometry":{"x":196843.02000000048,"y":2582306.5500000026}},{"attributes":{"ID":292864,"DIS_CODE":0,"TOWNNAME":"白河區","LI":"仙草里","LIN":"20鄰","STREET":" ","SECT":" ","MAREA":"仙草","LANE":" ","ALLEY":" ","HOUSE_NO":"１１５號","E_COORD97":196834.07000000001,"N_COORD97":2582306.8999999999,"ADDRESS":"仙草１１５號","OBJECTID":292856},"geometry":{"x":196834.0700000003,"y":2582306.9000000022}},{"attributes":{"ID":292865,"DIS_CODE":0,"TOWNNAME":"仁德區","LI":"成功里","LIN":"31鄰","STREET":"成功一街","SECT":" ","MAREA":" ","LANE":"１１巷","ALLEY":" ","HOUSE_NO":"７號","E_COORD97":170577.51999999999,"N_COORD97":2540192.27,"ADDRESS":"成功一街１１巷７號","OBJECTID":292857},"geometry":{"x":170577.52000000142,"y":2540192.2700000014}},{"attributes":{"ID":292866,"DIS_CODE":0,"TOWNNAME":"仁德區","LI":"成功里","LIN":"28鄰","STREET":"成功一街","SECT":" ","MAREA":" ","LANE":"１６巷","ALLEY":" ","HOUSE_NO":"２號","E_COORD97":170535.47,"N_COORD97":2540180.7599999998,"ADDRESS":"成功一街１６巷２號","OBJECTID":292858},"geometry":{"x":170535.46999999974,"y":2540180.7599999979}},{"attributes":{"ID":292867,"DIS_CODE":0,"TOWNNAME":"仁德區","LI":"太子里","LIN":"11鄰","STREET":"長興二街","SECT":" ","MAREA":" ","LANE":"９２巷","ALLEY":" ","HOUSE_NO":"６號","E_COORD97":174208.59,"N_COORD97":2543718.5099999998,"ADDRESS":"長興二街９２巷６號","OBJECTID":292859},"geometry":{"x":174208.59000000078,"y":2543718.5099999998}},{"attributes":{"ID":292868,"DIS_CODE":0,"TOWNNAME":"仁德區","LI":"新田里","LIN":"2鄰","STREET":"新田二街","SECT":" ","MAREA":" ","LANE":"１３８巷","ALLEY":" ","HOUSE_NO":"１２號","E_COORD97":174899.38,"N_COORD97":2539993.6600000001,"ADDRESS":"新田二街１３８巷１２號","OBJECTID":292860},"geometry":{"x":174899.37999999989,"y":2539993.660000002}},{"attributes":{"ID":292869,"DIS_CODE":0,"TOWNNAME":"永康區","LI":"東橋里","LIN":"25鄰","STREET":"中正路","SECT":" ","MAREA":" ","LANE":"２６９巷","ALLEY":" ","HOUSE_NO":"３０號","E_COORD97":172761.89999999999,"N_COORD97":2547938.23,"ADDRESS":"中正路２６９巷３０號","OBJECTID":292861},"geometry":{"x":172761.90000000037,"y":2547938.2300000004}},{"attributes":{"ID":292870,"DIS_CODE":0,"TOWNNAME":"永康區","LI":"埔園里","LIN":"34鄰","STREET":"龍中街","SECT":" ","MAREA":" ","LANE":"６５１巷","ALLEY":" ","HOUSE_NO":"８號","E_COORD97":174259.42999999999,"N_COORD97":2548943.7599999998,"ADDRESS":"龍中街６５１巷８號","OBJECTID":292862},"geometry":{"x":174259.4299999997,"y":2548943.7599999998}},{"attributes":{"ID":292871,"DIS_CODE":0,"TOWNNAME":"仁德區","LI":"後壁里","LIN":"38鄰","STREET":"德安路","SECT":" ","MAREA":" ","LANE":"４８巷","ALLEY":" ","HOUSE_NO":"２６號","E_COORD97":173358.51000000001,"N_COORD97":2539119.3100000001,"ADDRESS":"德安路４８巷２６號","OBJECTID":292863},"geometry":{"x":173358.51000000071,"y":2539119.3100000005}},{"attributes":{"ID":292872,"DIS_CODE":0,"TOWNNAME":"南區","LI":"大忠里","LIN":"17鄰","STREET":"大同路","SECT":"二段","MAREA":" ","LANE":"６２０巷","ALLEY":" ","HOUSE_NO":"９號","E_COORD97":169501.97,"N_COORD97":2541070.8199999998,"ADDRESS":"大同路二段６２０巷９號","OBJECTID":292864},"geometry":{"x":169501.97000000067,"y":2541070.8200000022}},{"attributes":{"ID":292873,"DIS_CODE":0,"TOWNNAME":"南區","LI":"大林里","LIN":"17鄰","STREET":"大同路","SECT":"二段","MAREA":" ","LANE":"４０６巷","ALLEY":" ","HOUSE_NO":"１６號","E_COORD97":169365.85999999999,"N_COORD97":2541694.2999999998,"ADDRESS":"大同路二段４０６巷１６號","OBJECTID":292865},"geometry":{"x":169365.86000000127,"y":2541694.3000000026}},{"attributes":{"ID":292874,"DIS_CODE":0,"TOWNNAME":"南區","LI":"大林里","LIN":"17鄰","STREET":"大同路","SECT":"二段","MAREA":" ","LANE":"４０６巷","ALLEY":" ","HOUSE_NO":"１８號","E_COORD97":169356.01000000001,"N_COORD97":2541690.6099999999,"ADDRESS":"大同路二段４０６巷１８號","OBJECTID":292866},"geometry":{"x":169356.01000000071,"y":2541690.6100000013}},{"attributes":{"ID":292875,"DIS_CODE":0,"TOWNNAME":"南區","LI":"大林里","LIN":"17鄰","STREET":"大同路","SECT":"二段","MAREA":" ","LANE":"４０６巷","ALLEY":" ","HOUSE_NO":"２０號","E_COORD97":169347.79000000001,"N_COORD97":2541688.9700000002,"ADDRESS":"大同路二段４０６巷２０號","OBJECTID":292867},"geometry":{"x":169347.79000000097,"y":2541688.9699999988}},{"attributes":{"ID":292876,"DIS_CODE":0,"TOWNNAME":"南區","LI":"大林里","LIN":"17鄰","STREET":"大同路","SECT":"二段","MAREA":" ","LANE":"４０６巷","ALLEY":" ","HOUSE_NO":"２２號","E_COORD97":169338.20000000001,"N_COORD97":2541686.6400000001,"ADDRESS":"大同路二段４０６巷２２號","OBJECTID":292868},"geometry":{"x":169338.20000000112,"y":2541686.6400000006}},{"attributes":{"ID":292877,"DIS_CODE":0,"TOWNNAME":"南區","LI":"大林里","LIN":"17鄰","STREET":"大同路","SECT":"二段","MAREA":" ","LANE":"４０６巷","ALLEY":" ","HOUSE_NO":"２４號","E_COORD97":169328.62,"N_COORD97":2541685.1400000001,"ADDRESS":"大同路二段４０６巷２４號","OBJECTID":292869},"geometry":{"x":169328.62000000104,"y":2541685.1400000025}},{"attributes":{"ID":292878,"DIS_CODE":0,"TOWNNAME":"安平區","LI":"育平里","LIN":"8鄰","STREET":"育平五街","SECT":" ","MAREA":" ","LANE":" ","ALLEY":" ","HOUSE_NO":"７０號三樓之４","E_COORD97":164650.70000000001,"N_COORD97":2543539.8100000001,"ADDRESS":"育平五街７０號三樓之４","OBJECTID":292870},"geometry":{"x":164650.70000000112,"y":2543539.8100000005}},{"attributes":{"ID":292879,"DIS_CODE":0,"TOWNNAME":"安平區","LI":"育平里","LIN":"8鄰","STREET":"育平五街","SECT":" ","MAREA":" ","LANE":" ","ALLEY":" ","HOUSE_NO":"７０號三樓之５","E_COORD97":164650.70000000001,"N_COORD97":2543539.8100000001,"ADDRESS":"育平五街７０號三樓之５","OBJECTID":292871},"geometry":{"x":164650.70000000112,"y":2543539.8100000005}},{"attributes":{"ID":292880,"DIS_CODE":0,"TOWNNAME":"安平區","LI":"育平里","LIN":"8鄰","STREET":"育平五街","SECT":" ","MAREA":" ","LANE":" ","ALLEY":" ","HOUSE_NO":"７０號三樓之６","E_COORD97":164650.70000000001,"N_COORD97":2543539.8100000001,"ADDRESS":"育平五街７０號三樓之６","OBJECTID":292872},"geometry":{"x":164650.70000000112,"y":2543539.8100000005}},{"attributes":{"ID":292881,"DIS_CODE":0,"TOWNNAME":"安平區","LI":"育平里","LIN":"8鄰","STREET":"育平五街","SECT":" ","MAREA":" ","LANE":" ","ALLEY":" ","HOUSE_NO":"７０號五樓之４","E_COORD97":164650.70000000001,"N_COORD97":2543539.8100000001,"ADDRESS":"育平五街７０號五樓之４","OBJECTID":292873},"geometry":{"x":164650.70000000112,"y":2543539.8100000005}},{"attributes":{"ID":292882,"DIS_CODE":0,"TOWNNAME":"安平區","LI":"育平里","LIN":"8鄰","STREET":"育平五街","SECT":" ","MAREA":" ","LANE":" ","ALLEY":" ","HOUSE_NO":"７０號五樓之５","E_COORD97":164650.70000000001,"N_COORD97":2543539.8100000001,"ADDRESS":"育平五街７０號五樓之５","OBJECTID":292874},"geometry":{"x":164650.70000000112,"y":2543539.8100000005}},{"attributes":{"ID":292883,"DIS_CODE":0,"TOWNNAME":"安平區","LI":"育平里","LIN":"8鄰","STREET":"育平五街","SECT":" ","MAREA":" ","LANE":" ","ALLEY":" ","HOUSE_NO":"７０號五樓之６","E_COORD97":164650.70000000001,"N_COORD97":2543539.8100000001,"ADDRESS":"育平五街７０號五樓之６","OBJECTID":292875},"geometry":{"x":164650.70000000112,"y":2543539.8100000005}},{"attributes":{"ID":292884,"DIS_CODE":0,"TOWNNAME":"仁德區","LI":"成功里","LIN":"26鄰","STREET":"成功一街","SECT":" ","MAREA":" ","LANE":"３８巷","ALLEY":" ","HOUSE_NO":"２號","E_COORD97":170510.98000000001,"N_COORD97":2540062.7599999998,"ADDRESS":"成功一街３８巷２號","OBJECTID":292876},"geometry":{"x":170510.98000000231,"y":2540062.7600000016}},{"attributes":{"ID":292885,"DIS_CODE":0,"TOWNNAME":"白河區","LI":"虎山里","LIN":"5鄰","STREET":" ","SECT":" ","MAREA":"木屐寮","LANE":" ","ALLEY":" ","HOUSE_NO":"７１號","E_COORD97":195590.91,"N_COORD97":2583597.3100000001,"ADDRESS":"木屐寮７１號","OBJECTID":292877},"geometry":{"x":195590.91000000015,"y":2583597.3100000005}},{"attributes":{"ID":292886,"DIS_CODE":0,"TOWNNAME":"仁德區","LI":"新田里","LIN":"4鄰","STREET":"勝利一街","SECT":" ","MAREA":" ","LANE":"５８巷","ALLEY":" ","HOUSE_NO":"１５號","E_COORD97":174011.01999999999,"N_COORD97":2539302.0099999998,"ADDRESS":"勝利一街５８巷１５號","OBJECTID":292878},"geometry":{"x":174011.02000000048,"y":2539302.0100000016}},{"attributes":{"ID":292887,"DIS_CODE":0,"TOWNNAME":"仁德區","LI":"保安里","LIN":"20鄰","STREET":"保安路","SECT":"一段","MAREA":" ","LANE":"１０５巷","ALLEY":" ","HOUSE_NO":"６號","E_COORD97":171077.41,"N_COORD97":2536852.0600000001,"ADDRESS":"保安路一段１０５巷６號","OBJECTID":292879},"geometry":{"x":171077.41000000108,"y":2536852.0600000005}},{"attributes":{"ID":292888,"DIS_CODE":0,"TOWNNAME":"仁德區","LI":"新田里","LIN":"4鄰","STREET":"勝利一街","SECT":" ","MAREA":" ","LANE":"１１巷","ALLEY":" ","HOUSE_NO":"１１號","E_COORD97":174033.37,"N_COORD97":2539580.0099999998,"ADDRESS":"勝利一街１１巷１１號","OBJECTID":292880},"geometry":{"x":174033.37000000011,"y":2539580.0100000016}},{"attributes":{"ID":292889,"DIS_CODE":0,"TOWNNAME":"仁德區","LI":"後壁里","LIN":"39鄰","STREET":"德糖路","SECT":" ","MAREA":" ","LANE":"３５７巷","ALLEY":" ","HOUSE_NO":"１號","E_COORD97":173511.47,"N_COORD97":2539128.5600000001,"ADDRESS":"德糖路３５７巷１號","OBJECTID":292881},"geometry":{"x":173511.47000000067,"y":2539128.5600000042}},{"attributes":{"ID":292890,"DIS_CODE":0,"TOWNNAME":"仁德區","LI":"新田里","LIN":"4鄰","STREET":"勝利一街","SECT":" ","MAREA":" ","LANE":"５８巷","ALLEY":" ","HOUSE_NO":"１號","E_COORD97":174038.70000000001,"N_COORD97":2539401.7599999998,"ADDRESS":"勝利一街５８巷１號","OBJECTID":292882},"geometry":{"x":174038.70000000112,"y":2539401.7600000016}},{"attributes":{"ID":292891,"DIS_CODE":0,"TOWNNAME":"仁德區","LI":"後壁里","LIN":"5鄰","STREET":"德善路","SECT":" ","MAREA":" ","LANE":"１３９巷","ALLEY":" ","HOUSE_NO":"５號","E_COORD97":173459.54000000001,"N_COORD97":2538896.5099999998,"ADDRESS":"德善路１３９巷５號","OBJECTID":292883},"geometry":{"x":173459.54000000004,"y":2538896.5099999998}},{"attributes":{"ID":292892,"DIS_CODE":0,"TOWNNAME":"南區","LI":"大林里","LIN":"17鄰","STREET":"大同路","SECT":"二段","MAREA":" ","LANE":"４０６巷","ALLEY":" ","HOUSE_NO":"２６號之１","E_COORD97":169315.44,"N_COORD97":2541683.5,"ADDRESS":"大同路二段４０６巷２６號之１","OBJECTID":292884},"geometry":{"x":169315.44000000041,"y":2541683.5}},{"attributes":{"ID":292893,"DIS_CODE":0,"TOWNNAME":"楠西區","LI":"東勢里","LIN":"17鄰","STREET":"信義路","SECT":" ","MAREA":" ","LANE":"５７巷","ALLEY":" ","HOUSE_NO":"１０號","E_COORD97":197597.17000000001,"N_COORD97":2563526.27,"ADDRESS":"信義路５７巷１０號","OBJECTID":292885},"geometry":{"x":197597.17000000086,"y":2563526.2699999996}},{"attributes":{"ID":292894,"DIS_CODE":0,"TOWNNAME":"安平區","LI":"育平里","LIN":"8鄰","STREET":"育平五街","SECT":" ","MAREA":" ","LANE":" ","ALLEY":" ","HOUSE_NO":"７０號六樓之４","E_COORD97":164650.70000000001,"N_COORD97":2543539.8100000001,"ADDRESS":"育平五街７０號六樓之４","OBJECTID":292886},"geometry":{"x":164650.70000000112,"y":2543539.8100000005}},{"attributes":{"ID":292895,"DIS_CODE":0,"TOWNNAME":"安平區","LI":"育平里","LIN":"8鄰","STREET":"育平五街","SECT":" ","MAREA":" ","LANE":" ","ALLEY":" ","HOUSE_NO":"７０號六樓之５","E_COORD97":164650.70000000001,"N_COORD97":2543539.8100000001,"ADDRESS":"育平五街７０號六樓之５","OBJECTID":292887},"geometry":{"x":164650.70000000112,"y":2543539.8100000005}},{"attributes":{"ID":292896,"DIS_CODE":0,"TOWNNAME":"安平區","LI":"育平里","LIN":"8鄰","STREET":"育平五街","SECT":" ","MAREA":" ","LANE":" ","ALLEY":" ","HOUSE_NO":"７０號六樓之６","E_COORD97":164650.70000000001,"N_COORD97":2543539.8100000001,"ADDRESS":"育平五街７０號六樓之６","OBJECTID":292888},"geometry":{"x":164650.70000000112,"y":2543539.8100000005}},{"attributes":{"ID":292897,"DIS_CODE":0,"TOWNNAME":"安平區","LI":"育平里","LIN":"8鄰","STREET":"育平五街","SECT":" ","MAREA":" ","LANE":" ","ALLEY":" ","HOUSE_NO":"７０號四樓之４","E_COORD97":164650.70000000001,"N_COORD97":2543539.8100000001,"ADDRESS":"育平五街７０號四樓之４","OBJECTID":292889},"geometry":{"x":164650.70000000112,"y":2543539.8100000005}},{"attributes":{"ID":292898,"DIS_CODE":0,"TOWNNAME":"安平區","LI":"育平里","LIN":"8鄰","STREET":"育平五街","SECT":" ","MAREA":" ","LANE":" ","ALLEY":" ","HOUSE_NO":"７０號四樓之５","E_COORD97":164650.70000000001,"N_COORD97":2543539.8100000001,"ADDRESS":"育平五街７０號四樓之５","OBJECTID":292890},"geometry":{"x":164650.70000000112,"y":2543539.8100000005}},{"attributes":{"ID":292899,"DIS_CODE":0,"TOWNNAME":"新營區","LI":"大宏里","LIN":"8鄰","STREET":"文昌街","SECT":" ","MAREA":" ","LANE":" ","ALLEY":" ","HOUSE_NO":"１６號六樓之６","E_COORD97":180442.64000000001,"N_COORD97":2578413.4500000002,"ADDRESS":"文昌街１６號六樓之６","OBJECTID":292891},"geometry":{"x":180442.63999999966,"y":2578413.4500000011}},{"attributes":{"ID":292900,"DIS_CODE":0,"TOWNNAME":"仁德區","LI":"成功里","LIN":"25鄰","STREET":"保華路","SECT":" ","MAREA":" ","LANE":" ","ALLEY":" ","HOUSE_NO":"３０９號","E_COORD97":170508.95999999999,"N_COORD97":2539964.7400000002,"ADDRESS":"保華路３０９號","OBJECTID":292892},"geometry":{"x":170508.96000000089,"y":2539964.7400000039}},{"attributes":{"ID":292901,"DIS_CODE":0,"TOWNNAME":"仁德區","LI":"新田里","LIN":"4鄰","STREET":"勝利一街","SECT":" ","MAREA":" ","LANE":"１１巷","ALLEY":" ","HOUSE_NO":"７號","E_COORD97":174002.37,"N_COORD97":2539586.0099999998,"ADDRESS":"勝利一街１１巷７號","OBJECTID":292893},"geometry":{"x":174002.37000000104,"y":2539586.0100000035}},{"attributes":{"ID":292902,"DIS_CODE":0,"TOWNNAME":"白河區","LI":"仙草里","LIN":"20鄰","STREET":" ","SECT":" ","MAREA":"仙草","LANE":" ","ALLEY":" ","HOUSE_NO":"１１０號","E_COORD97":196802.56,"N_COORD97":2582280.4900000002,"ADDRESS":"仙草１１０號","OBJECTID":292894},"geometry":{"x":196802.56000000052,"y":2582280.4900000002}},{"attributes":{"ID":292903,"DIS_CODE":0,"TOWNNAME":"仁德區","LI":"後壁里","LIN":"39鄰","STREET":"德糖路","SECT":" ","MAREA":" ","LANE":"３４１巷","ALLEY":" ","HOUSE_NO":"２５號","E_COORD97":173525.10999999999,"N_COORD97":2539101.5600000001,"ADDRESS":"德糖路３４１巷２５號","OBJECTID":292895},"geometry":{"x":173525.11000000034,"y":2539101.5600000042}},{"attributes":{"ID":292904,"DIS_CODE":0,"TOWNNAME":"仁德區","LI":"後壁里","LIN":"18鄰","STREET":"德南路","SECT":" ","MAREA":" ","LANE":"７０巷","ALLEY":" ","HOUSE_NO":"３５號","E_COORD97":173377.98000000001,"N_COORD97":2538622.0099999998,"ADDRESS":"德南路７０巷３５號","OBJECTID":292896},"geometry":{"x":173377.98000000138,"y":2538622.0099999998}},{"attributes":{"ID":292905,"DIS_CODE":0,"TOWNNAME":"仁德區","LI":"後壁里","LIN":"25鄰","STREET":"德糖路","SECT":" ","MAREA":" ","LANE":" ","ALLEY":" ","HOUSE_NO":"５５０號","E_COORD97":173127.59,"N_COORD97":2539051.52,"ADDRESS":"德糖路５５０號","OBJECTID":292897},"geometry":{"x":173127.59000000078,"y":2539051.5200000014}},{"attributes":{"ID":292906,"DIS_CODE":0,"TOWNNAME":"仁德區","LI":"後壁里","LIN":"25鄰","STREET":"德洋一街","SECT":" ","MAREA":" ","LANE":"２１巷","ALLEY":" ","HOUSE_NO":"３號","E_COORD97":173070.22,"N_COORD97":2539142.2599999998,"ADDRESS":"德洋一街２１巷３號","OBJECTID":292898},"geometry":{"x":173070.22000000067,"y":2539142.2599999998}},{"attributes":{"ID":292907,"DIS_CODE":0,"TOWNNAME":"仁德區","LI":"新田里","LIN":"4鄰","STREET":"新田路","SECT":" ","MAREA":" ","LANE":"２２６巷","ALLEY":" ","HOUSE_NO":"２號","E_COORD97":174529.04999999999,"N_COORD97":2539550.7400000002,"ADDRESS":"新田路２２６巷２號","OBJECTID":292899},"geometry":{"x":174529.05000000168,"y":2539550.7399999984}},{"attributes":{"ID":292908,"DIS_CODE":0,"TOWNNAME":"仁德區","LI":"後壁里","LIN":"25鄰","STREET":"德洋一街","SECT":" ","MAREA":" ","LANE":"２１巷","ALLEY":" ","HOUSE_NO":"９號","E_COORD97":173059.39000000001,"N_COORD97":2539152.2599999998,"ADDRESS":"德洋一街２１巷９號","OBJECTID":292900},"geometry":{"x":173059.3900000006,"y":2539152.2599999998}},{"attributes":{"ID":292909,"DIS_CODE":0,"TOWNNAME":"仁德區","LI":"仁義里","LIN":"18鄰","STREET":"正義三街","SECT":" ","MAREA":" ","LANE":"２８６巷","ALLEY":" ","HOUSE_NO":"６號","E_COORD97":174010.08345500001,"N_COORD97":2541532.6905,"ADDRESS":"正義三街２８６巷６號","OBJECTID":292901},"geometry":{"x":174010.083455001,"y":2541532.6904969998}},{"attributes":{"ID":292910,"DIS_CODE":0,"TOWNNAME":"楠西區","LI":"東勢里","LIN":"17鄰","STREET":"信義路","SECT":" ","MAREA":" ","LANE":"７７巷","ALLEY":" ","HOUSE_NO":"３２號","E_COORD97":197550.87,"N_COORD97":2563590.27,"ADDRESS":"信義路７７巷３２號","OBJECTID":292902},"geometry":{"x":197550.87000000011,"y":2563590.2699999996}},{"attributes":{"ID":292911,"DIS_CODE":0,"TOWNNAME":"楠西區","LI":"東勢里","LIN":"17鄰","STREET":"信義路","SECT":" ","MAREA":" ","LANE":"４１巷","ALLEY":" ","HOUSE_NO":"２號","E_COORD97":197579.92000000001,"N_COORD97":2563475.27,"ADDRESS":"信義路４１巷２號","OBJECTID":292903},"geometry":{"x":197579.92000000086,"y":2563475.2699999996}},{"attributes":{"ID":292912,"DIS_CODE":0,"TOWNNAME":"楠西區","LI":"東勢里","LIN":"17鄰","STREET":"信義路","SECT":" ","MAREA":" ","LANE":"５７巷","ALLEY":" ","HOUSE_NO":"４０號","E_COORD97":197525.17000000001,"N_COORD97":2563564.27,"ADDRESS":"信義路５７巷４０號","OBJECTID":292904},"geometry":{"x":197525.16999999899,"y":2563564.2700000033}},{"attributes":{"ID":292913,"DIS_CODE":0,"TOWNNAME":"楠西區","LI":"東勢里","LIN":"17鄰","STREET":"信義路","SECT":" ","MAREA":" ","LANE":"５７巷","ALLEY":" ","HOUSE_NO":"２０號","E_COORD97":197574.97,"N_COORD97":2563536.27,"ADDRESS":"信義路５７巷２０號","OBJECTID":292905},"geometry":{"x":197574.96999999974,"y":2563536.2699999996}},{"attributes":{"ID":292914,"DIS_CODE":0,"TOWNNAME":"北區","LI":"安民里","LIN":"8鄰","STREET":"海安路","SECT":"三段","MAREA":" ","LANE":" ","ALLEY":" ","HOUSE_NO":"２５號四樓","E_COORD97":167863.53,"N_COORD97":2544647.8999999999,"ADDRESS":"海安路三段２５號四樓","OBJECTID":292906},"geometry":{"x":167863.53000000026,"y":2544647.9000000004}},{"attributes":{"ID":292915,"DIS_CODE":0,"TOWNNAME":"鹽水區","LI":"中境里","LIN":"8鄰","STREET":"中山路","SECT":" ","MAREA":" ","LANE":" ","ALLEY":" ","HOUSE_NO":"２２號二樓","E_COORD97":174977.63,"N_COORD97":2579931.0499999998,"ADDRESS":"中山路２２號二樓","OBJECTID":292907},"geometry":{"x":174977.62999999989,"y":2579931.0500000007}},{"attributes":{"ID":292916,"DIS_CODE":0,"TOWNNAME":"鹽水區","LI":"中境里","LIN":"8鄰","STREET":"中山路","SECT":" ","MAREA":" ","LANE":" ","ALLEY":" ","HOUSE_NO":"２２號三樓","E_COORD97":174977.63,"N_COORD97":2579931.0499999998,"ADDRESS":"中山路２２號三樓","OBJECTID":292908},"geometry":{"x":174977.62999999989,"y":2579931.0500000007}},{"attributes":{"ID":292917,"DIS_CODE":0,"TOWNNAME":"鹽水區","LI":"中境里","LIN":"8鄰","STREET":"中山路","SECT":" ","MAREA":" ","LANE":" ","ALLEY":" ","HOUSE_NO":"２２號四樓","E_COORD97":174977.63,"N_COORD97":2579931.0499999998,"ADDRESS":"中山路２２號四樓","OBJECTID":292909},"geometry":{"x":174977.62999999989,"y":2579931.0500000007}},{"attributes":{"ID":292918,"DIS_CODE":0,"TOWNNAME":"安平區","LI":"平安里","LIN":"8鄰","STREET":"安平路","SECT":" ","MAREA":" ","LANE":" ","ALLEY":" ","HOUSE_NO":"４１８號七樓","E_COORD97":165352.51000000001,"N_COORD97":2544323.6800000002,"ADDRESS":"安平路４１８號七樓","OBJECTID":292910},"geometry":{"x":165352.50999999978,"y":2544323.6799999997}},{"attributes":{"ID":292919,"DIS_CODE":0,"TOWNNAME":"安平區","LI":"平安里","LIN":"8鄰","STREET":"安平路","SECT":" ","MAREA":" ","LANE":" ","ALLEY":" ","HOUSE_NO":"４１８號九樓","E_COORD97":165352.51000000001,"N_COORD97":2544323.6800000002,"ADDRESS":"安平路４１８號九樓","OBJECTID":292911},"geometry":{"x":165352.50999999978,"y":2544323.6799999997}},{"attributes":{"ID":292920,"DIS_CODE":0,"TOWNNAME":"安平區","LI":"平安里","LIN":"8鄰","STREET":"安平路","SECT":" ","MAREA":" ","LANE":" ","ALLEY":" ","HOUSE_NO":"４１８號十一樓","E_COORD97":165352.51000000001,"N_COORD97":2544323.6800000002,"ADDRESS":"安平路４１８號十一樓","OBJECTID":292912},"geometry":{"x":165352.50999999978,"y":2544323.6799999997}},{"attributes":{"ID":292921,"DIS_CODE":0,"TOWNNAME":"安平區","LI":"平安里","LIN":"8鄰","STREET":"安平路","SECT":" ","MAREA":" ","LANE":" ","ALLEY":" ","HOUSE_NO":"４１８號十二樓","E_COORD97":165352.51000000001,"N_COORD97":2544323.6800000002,"ADDRESS":"安平路４１８號十二樓","OBJECTID":292913},"geometry":{"x":165352.50999999978,"y":2544323.6799999997}},{"attributes":{"ID":292922,"DIS_CODE":0,"TOWNNAME":"仁德區","LI":"仁愛里","LIN":"26鄰","STREET":"大同路","SECT":"三段","MAREA":" ","LANE":"３５８巷","ALLEY":" ","HOUSE_NO":"３９號","E_COORD97":169734.20499999999,"N_COORD97":2539368.6341300001,"ADDRESS":"大同路三段３５８巷３９號","OBJECTID":292914},"geometry":{"x":169734.20500000194,"y":2539368.6341260038}},{"attributes":{"ID":292923,"DIS_CODE":0,"TOWNNAME":"仁德區","LI":"仁愛里","LIN":"26鄰","STREET":"大同路","SECT":"三段","MAREA":" ","LANE":"３５８巷","ALLEY":" ","HOUSE_NO":"２８號","E_COORD97":169712.85000000001,"N_COORD97":2539487.1499999999,"ADDRESS":"大同路三段３５８巷２８號","OBJECTID":292915},"geometry":{"x":169712.85000000056,"y":2539487.1499999985}},{"attributes":{"ID":292924,"DIS_CODE":0,"TOWNNAME":"仁德區","LI":"後壁里","LIN":"26鄰","STREET":"民安路","SECT":"一段","MAREA":" ","LANE":" ","ALLEY":" ","HOUSE_NO":"４３４號","E_COORD97":173255.19,"N_COORD97":2539299.5699999998,"ADDRESS":"民安路一段４３４號","OBJECTID":292916},"geometry":{"x":173255.19000000041,"y":2539299.5700000022}},{"attributes":{"ID":292925,"DIS_CODE":0,"TOWNNAME":"仁德區","LI":"仁愛里","LIN":"26鄰","STREET":"大同路","SECT":"三段","MAREA":" ","LANE":" ","ALLEY":" ","HOUSE_NO":"９８號","E_COORD97":169709.87,"N_COORD97":2539934.77,"ADDRESS":"大同路三段９８號","OBJECTID":292917},"geometry":{"x":169709.87000000104,"y":2539934.7700000014}},{"attributes":{"ID":292926,"DIS_CODE":0,"TOWNNAME":"仁德區","LI":"大甲里","LIN":"18鄰","STREET":"行大街","SECT":" ","MAREA":" ","LANE":"５５５巷","ALLEY":" ","HOUSE_NO":"５號","E_COORD97":169184.04000000001,"N_COORD97":2535401.2400000002,"ADDRESS":"行大街５５５巷５號","OBJECTID":292918},"geometry":{"x":169184.04000000004,"y":2535401.2400000039}},{"attributes":{"ID":292927,"DIS_CODE":0,"TOWNNAME":"仁德區","LI":"後壁里","LIN":"25鄰","STREET":"德洋一街","SECT":" ","MAREA":" ","LANE":"１０巷","ALLEY":" ","HOUSE_NO":"１１號","E_COORD97":173127.48000000001,"N_COORD97":2539096.77,"ADDRESS":"德洋一街１０巷１１號","OBJECTID":292919},"geometry":{"x":173127.48000000045,"y":2539096.7700000014}},{"attributes":{"ID":292928,"DIS_CODE":0,"TOWNNAME":"仁德區","LI":"後壁里","LIN":"25鄰","STREET":"德洋一街","SECT":" ","MAREA":" ","LANE":"２１巷","ALLEY":" ","HOUSE_NO":"１號","E_COORD97":173073.78,"N_COORD97":2539139.5099999998,"ADDRESS":"德洋一街２１巷１號","OBJECTID":292920},"geometry":{"x":173073.78000000119,"y":2539139.5100000016}},{"attributes":{"ID":292929,"DIS_CODE":0,"TOWNNAME":"仁德區","LI":"後壁里","LIN":"25鄰","STREET":"德洋一街","SECT":" ","MAREA":" ","LANE":"１０巷","ALLEY":" ","HOUSE_NO":"２２號","E_COORD97":173134.04000000001,"N_COORD97":2539070.77,"ADDRESS":"德洋一街１０巷２２號","OBJECTID":292921},"geometry":{"x":173134.04000000004,"y":2539070.7699999996}},{"attributes":{"ID":292930,"DIS_CODE":0,"TOWNNAME":"仁德區","LI":"後壁里","LIN":"26鄰","STREET":"民安路","SECT":"一段","MAREA":" ","LANE":" ","ALLEY":" ","HOUSE_NO":"４２８號","E_COORD97":173244.22,"N_COORD97":2539305.5699999998,"ADDRESS":"民安路一段４２８號","OBJECTID":292922},"geometry":{"x":173244.21999999974,"y":2539305.5700000022}},{"attributes":{"ID":292931,"DIS_CODE":0,"TOWNNAME":"仁德區","LI":"後壁里","LIN":"25鄰","STREET":"德洋一街","SECT":" ","MAREA":" ","LANE":" ","ALLEY":" ","HOUSE_NO":"１號","E_COORD97":173047.35000000001,"N_COORD97":2539094.52,"ADDRESS":"德洋一街１號","OBJECTID":292923},"geometry":{"x":173047.35000000056,"y":2539094.5200000014}},{"attributes":{"ID":292932,"DIS_CODE":0,"TOWNNAME":"仁德區","LI":"新田里","LIN":"15鄰","STREET":"民安路","SECT":"二段","MAREA":" ","LANE":" ","ALLEY":" ","HOUSE_NO":"１號","E_COORD97":173309.51000000001,"N_COORD97":2539318.5600000001,"ADDRESS":"民安路二段１號","OBJECTID":292924},"geometry":{"x":173309.51000000071,"y":2539318.5600000042}},{"attributes":{"ID":292933,"DIS_CODE":0,"TOWNNAME":"仁德區","LI":"中生里","LIN":"5鄰","STREET":" ","SECT":" ","MAREA":"中洲","LANE":" ","ALLEY":" ","HOUSE_NO":"１２７之２５號","E_COORD97":172855.09,"N_COORD97":2534263.54,"ADDRESS":"中洲１２７之２５號","OBJECTID":292925},"geometry":{"x":172855.08999999985,"y":2534263.540000001}},{"attributes":{"ID":292934,"DIS_CODE":0,"TOWNNAME":"仁德區","LI":"後壁里","LIN":"42鄰","STREET":"德崙路","SECT":" ","MAREA":" ","LANE":" ","ALLEY":" ","HOUSE_NO":"１６號","E_COORD97":173249.82999999999,"N_COORD97":2538598.5099999998,"ADDRESS":"德崙路１６號","OBJECTID":292926},"geometry":{"x":173249.83000000101,"y":2538598.5099999998}},{"attributes":{"ID":292935,"DIS_CODE":0,"TOWNNAME":"仁德區","LI":"後壁里","LIN":"24鄰","STREET":"德洋路","SECT":" ","MAREA":" ","LANE":" ","ALLEY":" ","HOUSE_NO":"１９之１號","E_COORD97":173168.32999999999,"N_COORD97":2538995.2999999998,"ADDRESS":"德洋路１９之１號","OBJECTID":292927},"geometry":{"x":173168.33000000101,"y":2538995.3000000045}},{"attributes":{"ID":292936,"DIS_CODE":0,"TOWNNAME":"仁德區","LI":"仁愛里","LIN":"1鄰","STREET":"二空路","SECT":" ","MAREA":" ","LANE":" ","ALLEY":" ","HOUSE_NO":"２３５號","E_COORD97":170347.28,"N_COORD97":2540257.04,"ADDRESS":"二空路２３５號","OBJECTID":292928},"geometry":{"x":170347.28000000026,"y":2540257.040000001}},{"attributes":{"ID":292937,"DIS_CODE":0,"TOWNNAME":"仁德區","LI":"後壁里","LIN":"33鄰","STREET":"民安路","SECT":"一段","MAREA":" ","LANE":" ","ALLEY":" ","HOUSE_NO":"３２之１號","E_COORD97":171968.67999999999,"N_COORD97":2540050.3100000001,"ADDRESS":"民安路一段３２之１號","OBJECTID":292929},"geometry":{"x":171968.68000000063,"y":2540050.3100000024}},{"attributes":{"ID":292938,"DIS_CODE":0,"TOWNNAME":"仁德區","LI":"後壁里","LIN":"33鄰","STREET":"民安路","SECT":"一段","MAREA":" ","LANE":" ","ALLEY":" ","HOUSE_NO":"１３２號之３","E_COORD97":172155.98999999999,"N_COORD97":2539901.5699999998,"ADDRESS":"民安路一段１３２號之３","OBJECTID":292930},"geometry":{"x":172155.99000000022,"y":2539901.570000004}},{"attributes":{"ID":292939,"DIS_CODE":0,"TOWNNAME":"仁德區","LI":"新田里","LIN":"4鄰","STREET":"勝利路","SECT":" ","MAREA":" ","LANE":" ","ALLEY":" ","HOUSE_NO":"１２５號","E_COORD97":174185.39999999999,"N_COORD97":2539677.7599999998,"ADDRESS":"勝利路１２５號","OBJECTID":292931},"geometry":{"x":174185.4000000013,"y":2539677.7599999998}},{"attributes":{"ID":292940,"DIS_CODE":0,"TOWNNAME":"仁德區","LI":"後壁里","LIN":"42鄰","STREET":"德崙路","SECT":" ","MAREA":" ","LANE":" ","ALLEY":" ","HOUSE_NO":"４０號","E_COORD97":173293.39999999999,"N_COORD97":2538563.77,"ADDRESS":"德崙路４０號","OBJECTID":292932},"geometry":{"x":173293.4000000013,"y":2538563.7700000014}},{"attributes":{"ID":292941,"DIS_CODE":0,"TOWNNAME":"仁德區","LI":"三甲里","LIN":"5鄰","STREET":" ","SECT":" ","MAREA":"三甲子","LANE":" ","ALLEY":" ","HOUSE_NO":"４５之１號","E_COORD97":171905.48999999999,"N_COORD97":2536756.29,"ADDRESS":"三甲子４５之１號","OBJECTID":292933},"geometry":{"x":171905.49000000022,"y":2536756.290000001}},{"attributes":{"ID":292942,"DIS_CODE":0,"TOWNNAME":"仁德區","LI":"後壁里","LIN":"18鄰","STREET":"德南路","SECT":" ","MAREA":" ","LANE":"５４巷","ALLEY":" ","HOUSE_NO":"１０號","E_COORD97":173353.69,"N_COORD97":2538735.0099999998,"ADDRESS":"德南路５４巷１０號","OBJECTID":292934},"geometry":{"x":173353.69000000041,"y":2538735.0100000035}},{"attributes":{"ID":292943,"DIS_CODE":0,"TOWNNAME":"白河區","LI":"關嶺里","LIN":"13鄰","STREET":" ","SECT":" ","MAREA":"水火洞","LANE":" ","ALLEY":" ","HOUSE_NO":"１０之５號","E_COORD97":197251.57000000001,"N_COORD97":2580029.1899999999,"ADDRESS":"水火洞１０之５號","OBJECTID":292935},"geometry":{"x":197251.5700000003,"y":2580029.1900000013}},{"attributes":{"ID":292944,"DIS_CODE":0,"TOWNNAME":"仁德區","LI":"後壁里","LIN":"25鄰","STREET":"德糖路","SECT":" ","MAREA":" ","LANE":" ","ALLEY":" ","HOUSE_NO":"５０３號","E_COORD97":173196.292563,"N_COORD97":2539045.7907199999,"ADDRESS":"德糖路５０３號","OBJECTID":292936},"geometry":{"x":173196.29256300069,"y":2539045.7907180022}},{"attributes":{"ID":292945,"DIS_CODE":0,"TOWNNAME":"仁德區","LI":"後壁里","LIN":"41鄰","STREET":"德善路","SECT":" ","MAREA":" ","LANE":"２７３巷","ALLEY":" ","HOUSE_NO":"３號","E_COORD97":173920.95000000001,"N_COORD97":2538670.52,"ADDRESS":"德善路２７３巷３號","OBJECTID":292937},"geometry":{"x":173920.95000000019,"y":2538670.5200000014}},{"attributes":{"ID":292946,"DIS_CODE":0,"TOWNNAME":"仁德區","LI":"新田里","LIN":"4鄰","STREET":"新田路","SECT":" ","MAREA":" ","LANE":"２４０巷","ALLEY":" ","HOUSE_NO":"６號","E_COORD97":174534.48000000001,"N_COORD97":2539591.75,"ADDRESS":"新田路２４０巷６號","OBJECTID":292938},"geometry":{"x":174534.48000000045,"y":2539591.7500000019}},{"attributes":{"ID":292947,"DIS_CODE":0,"TOWNNAME":"仁德區","LI":"後壁里","LIN":"25鄰","STREET":"德洋一街","SECT":" ","MAREA":" ","LANE":"１０巷","ALLEY":" ","HOUSE_NO":"１５號","E_COORD97":173134.01000000001,"N_COORD97":2539091.27,"ADDRESS":"德洋一街１０巷１５號","OBJECTID":292939},"geometry":{"x":173134.00999999885,"y":2539091.2699999996}},{"attributes":{"ID":292948,"DIS_CODE":0,"TOWNNAME":"仁德區","LI":"後壁里","LIN":"18鄰","STREET":"德南路","SECT":" ","MAREA":" ","LANE":"７０巷","ALLEY":" ","HOUSE_NO":"８號","E_COORD97":173374.103099,"N_COORD97":2538650.4337599999,"ADDRESS":"德南路７０巷８號","OBJECTID":292940},"geometry":{"x":173374.10309900157,"y":2538650.433759002}},{"attributes":{"ID":292949,"DIS_CODE":0,"TOWNNAME":"仁德區","LI":"新田里","LIN":"4鄰","STREET":"新田路","SECT":" ","MAREA":" ","LANE":"２４０巷","ALLEY":" ","HOUSE_NO":"１３號","E_COORD97":174540.67999999999,"N_COORD97":2539609,"ADDRESS":"新田路２４０巷１３號","OBJECTID":292941},"geometry":{"x":174540.68000000063,"y":2539609}},{"attributes":{"ID":292950,"DIS_CODE":0,"TOWNNAME":"仁德區","LI":"後壁里","LIN":"25鄰","STREET":"德洋一街","SECT":" ","MAREA":" ","LANE":"１０巷","ALLEY":" ","HOUSE_NO":"１９號","E_COORD97":173140.07000000001,"N_COORD97":2539084.77,"ADDRESS":"德洋一街１０巷１９號","OBJECTID":292942},"geometry":{"x":173140.07000000123,"y":2539084.7699999996}},{"attributes":{"ID":292951,"DIS_CODE":0,"TOWNNAME":"仁德區","LI":"後壁里","LIN":"32鄰","STREET":"德洋路","SECT":" ","MAREA":" ","LANE":"２０５巷","ALLEY":" ","HOUSE_NO":"２８號","E_COORD97":172433.39999999999,"N_COORD97":2539534.7599999998,"ADDRESS":"德洋路２０５巷２８號","OBJECTID":292943},"geometry":{"x":172433.40000000037,"y":2539534.7600000016}},{"attributes":{"ID":292952,"DIS_CODE":0,"TOWNNAME":"楠西區","LI":"東勢里","LIN":"17鄰","STREET":"信義路","SECT":" ","MAREA":" ","LANE":"４１巷","ALLEY":" ","HOUSE_NO":"６號","E_COORD97":197576.72,"N_COORD97":2563475.27,"ADDRESS":"信義路４１巷６號","OBJECTID":292944},"geometry":{"x":197576.71999999974,"y":2563475.2699999996}},{"attributes":{"ID":292953,"DIS_CODE":0,"TOWNNAME":"安平區","LI":"平安里","LIN":"8鄰","STREET":"安平路","SECT":" ","MAREA":" ","LANE":" ","ALLEY":" ","HOUSE_NO":"４１８號十三樓","E_COORD97":165352.51000000001,"N_COORD97":2544323.6800000002,"ADDRESS":"安平路４１８號十三樓","OBJECTID":292945},"geometry":{"x":165352.50999999978,"y":2544323.6799999997}},{"attributes":{"ID":292954,"DIS_CODE":0,"TOWNNAME":"安平區","LI":"平安里","LIN":"8鄰","STREET":"安平路","SECT":" ","MAREA":" ","LANE":" ","ALLEY":" ","HOUSE_NO":"４１８號十樓","E_COORD97":165352.51000000001,"N_COORD97":2544323.6800000002,"ADDRESS":"安平路４１８號十樓","OBJECTID":292946},"geometry":{"x":165352.50999999978,"y":2544323.6799999997}},{"attributes":{"ID":292955,"DIS_CODE":0,"TOWNNAME":"安平區","LI":"平安里","LIN":"8鄰","STREET":"安平路","SECT":" ","MAREA":" ","LANE":" ","ALLEY":" ","HOUSE_NO":"４１８號三樓","E_COORD97":165352.51000000001,"N_COORD97":2544323.6800000002,"ADDRESS":"安平路４１８號三樓","OBJECTID":292947},"geometry":{"x":165352.50999999978,"y":2544323.6799999997}},{"attributes":{"ID":292956,"DIS_CODE":0,"TOWNNAME":"安平區","LI":"平安里","LIN":"8鄰","STREET":"安平路","SECT":" ","MAREA":" ","LANE":" ","ALLEY":" ","HOUSE_NO":"４１８號五樓","E_COORD97":165352.51000000001,"N_COORD97":2544323.6800000002,"ADDRESS":"安平路４１８號五樓","OBJECTID":292948},"geometry":{"x":165352.50999999978,"y":2544323.6799999997}},{"attributes":{"ID":292957,"DIS_CODE":0,"TOWNNAME":"安平區","LI":"平安里","LIN":"8鄰","STREET":"安平路","SECT":" ","MAREA":" ","LANE":" ","ALLEY":" ","HOUSE_NO":"４１８號六樓","E_COORD97":165352.51000000001,"N_COORD97":2544323.6800000002,"ADDRESS":"安平路４１８號六樓","OBJECTID":292949},"geometry":{"x":165352.50999999978,"y":2544323.6799999997}},{"attributes":{"ID":292958,"DIS_CODE":0,"TOWNNAME":"安平區","LI":"平安里","LIN":"8鄰","STREET":"安平路","SECT":" ","MAREA":" ","LANE":" ","ALLEY":" ","HOUSE_NO":"４１８號四樓","E_COORD97":165352.51000000001,"N_COORD97":2544323.6800000002,"ADDRESS":"安平路４１８號四樓","OBJECTID":292950},"geometry":{"x":165352.50999999978,"y":2544323.6799999997}},{"attributes":{"ID":292959,"DIS_CODE":0,"TOWNNAME":"安平區","LI":"平安里","LIN":"8鄰","STREET":"安平路","SECT":" ","MAREA":" ","LANE":" ","ALLEY":" ","HOUSE_NO":"４２０號七樓之１","E_COORD97":165342.62,"N_COORD97":2544345.21,"ADDRESS":"安平路４２０號七樓之１","OBJECTID":292951},"geometry":{"x":165342.62000000197,"y":2544345.2100000009}},{"attributes":{"ID":292960,"DIS_CODE":0,"TOWNNAME":"安平區","LI":"平安里","LIN":"8鄰","STREET":"安平路","SECT":" ","MAREA":" ","LANE":" ","ALLEY":" ","HOUSE_NO":"４２０號七樓之２","E_COORD97":165342.62,"N_COORD97":2544345.21,"ADDRESS":"安平路４２０號七樓之２","OBJECTID":292952},"geometry":{"x":165342.62000000197,"y":2544345.2100000009}},{"attributes":{"ID":292961,"DIS_CODE":0,"TOWNNAME":"安平區","LI":"平安里","LIN":"8鄰","STREET":"安平路","SECT":" ","MAREA":" ","LANE":" ","ALLEY":" ","HOUSE_NO":"４２０號九樓之１","E_COORD97":165342.62,"N_COORD97":2544345.21,"ADDRESS":"安平路４２０號九樓之１","OBJECTID":292953},"geometry":{"x":165342.62000000197,"y":2544345.2100000009}},{"attributes":{"ID":292962,"DIS_CODE":0,"TOWNNAME":"白河區","LI":"關嶺里","LIN":"13鄰","STREET":" ","SECT":" ","MAREA":"水火洞","LANE":" ","ALLEY":" ","HOUSE_NO":"１號","E_COORD97":197502.76999999999,"N_COORD97":2580129.9700000002,"ADDRESS":"水火洞１號","OBJECTID":292954},"geometry":{"x":197502.77000000048,"y":2580129.9700000025}},{"attributes":{"ID":292963,"DIS_CODE":0,"TOWNNAME":"官田區","LI":"隆田里","LIN":"8鄰","STREET":"勝利路","SECT":" ","MAREA":" ","LANE":"３１巷","ALLEY":" ","HOUSE_NO":"１號","E_COORD97":179930.85999999999,"N_COORD97":2565880.5299999998,"ADDRESS":"勝利路３１巷１號","OBJECTID":292955},"geometry":{"x":179930.86000000127,"y":2565880.5299999993}},{"attributes":{"ID":292964,"DIS_CODE":0,"TOWNNAME":"官田區","LI":"隆田里","LIN":"8鄰","STREET":"勝利路","SECT":" ","MAREA":" ","LANE":"３１巷","ALLEY":" ","HOUSE_NO":"３號","E_COORD97":179933.04000000001,"N_COORD97":2565878.3300000001,"ADDRESS":"勝利路３１巷３號","OBJECTID":292956},"geometry":{"x":179933.04000000004,"y":2565878.3300000001}},{"attributes":{"ID":292965,"DIS_CODE":0,"TOWNNAME":"官田區","LI":"隆田里","LIN":"8鄰","STREET":"勝利路","SECT":" ","MAREA":" ","LANE":"３１巷","ALLEY":" ","HOUSE_NO":"５號","E_COORD97":179936.09,"N_COORD97":2565875.25,"ADDRESS":"勝利路３１巷５號","OBJECTID":292957},"geometry":{"x":179936.08999999985,"y":2565875.25}},{"attributes":{"ID":292966,"DIS_CODE":0,"TOWNNAME":"官田區","LI":"隆田里","LIN":"8鄰","STREET":"勝利路","SECT":" ","MAREA":" ","LANE":"３１巷","ALLEY":" ","HOUSE_NO":"７號","E_COORD97":179939.01000000001,"N_COORD97":2565872.3799999999,"ADDRESS":"勝利路３１巷７號","OBJECTID":292958},"geometry":{"x":179939.01000000071,"y":2565872.3800000008}},{"attributes":{"ID":292967,"DIS_CODE":0,"TOWNNAME":"官田區","LI":"隆田里","LIN":"8鄰","STREET":"勝利路","SECT":" ","MAREA":" ","LANE":"３１巷","ALLEY":" ","HOUSE_NO":"８號","E_COORD97":179946.70000000001,"N_COORD97":2565877.4900000002,"ADDRESS":"勝利路３１巷８號","OBJECTID":292959},"geometry":{"x":179946.70000000112,"y":2565877.4900000002}},{"attributes":{"ID":292968,"DIS_CODE":0,"TOWNNAME":"官田區","LI":"隆本里","LIN":"20鄰","STREET":"勝利路","SECT":" ","MAREA":" ","LANE":" ","ALLEY":" ","HOUSE_NO":"２３６號","E_COORD97":180124.98000000001,"N_COORD97":2566317.1099999999,"ADDRESS":"勝利路２３６號","OBJECTID":292960},"geometry":{"x":180124.98000000138,"y":2566317.1099999994}},{"attributes":{"ID":292969,"DIS_CODE":0,"TOWNNAME":"永康區","LI":"網寮里","LIN":"20鄰","STREET":"永二街","SECT":" ","MAREA":" ","LANE":" ","ALLEY":" ","HOUSE_NO":"２５３號","E_COORD97":173313.54000000001,"N_COORD97":2546230,"ADDRESS":"永二街２５３號","OBJECTID":292961},"geometry":{"x":173313.54000000004,"y":2546230}},{"attributes":{"ID":292970,"DIS_CODE":0,"TOWNNAME":"永康區","LI":"新樹里","LIN":"7鄰","STREET":"富強路","SECT":"二段","MAREA":" ","LANE":" ","ALLEY":" ","HOUSE_NO":"５２號","E_COORD97":175701.07000000001,"N_COORD97":2546920.6299999999,"ADDRESS":"富強路二段５２號","OBJECTID":292962},"geometry":{"x":175701.07000000123,"y":2546920.629999999}},{"attributes":{"ID":292971,"DIS_CODE":0,"TOWNNAME":"永康區","LI":"蔦松里","LIN":"4鄰","STREET":"蔦松一街","SECT":" ","MAREA":" ","LANE":" ","ALLEY":" ","HOUSE_NO":"５７號","E_COORD97":173910.85000000001,"N_COORD97":2549423.75,"ADDRESS":"蔦松一街５７號","OBJECTID":292963},"geometry":{"x":173910.84999999963,"y":2549423.7500000019}},{"attributes":{"ID":292972,"DIS_CODE":0,"TOWNNAME":"永康區","LI":"網寮里","LIN":"5鄰","STREET":"永二街","SECT":" ","MAREA":" ","LANE":" ","ALLEY":" ","HOUSE_NO":"１４９號","E_COORD97":173505.5,"N_COORD97":2546422.77,"ADDRESS":"永二街１４９號","OBJECTID":292964},"geometry":{"x":173505.5,"y":2546422.7700000014}},{"attributes":{"ID":292973,"DIS_CODE":0,"TOWNNAME":"永康區","LI":"網寮里","LIN":"20鄰","STREET":"永二街","SECT":" ","MAREA":" ","LANE":" ","ALLEY":" ","HOUSE_NO":"２６３號","E_COORD97":173270.32999999999,"N_COORD97":2546261.6400000001,"ADDRESS":"永二街２６３號","OBJECTID":292965},"geometry":{"x":173270.33000000101,"y":2546261.6400000043}},{"attributes":{"ID":292974,"DIS_CODE":0,"TOWNNAME":"白河區","LI":"白河里","LIN":"4鄰","STREET":" ","SECT":" ","MAREA":"瓦\u25A0子","LANE":" ","ALLEY":" ","HOUSE_NO":"１０之３號","E_COORD97":190324,"N_COORD97":2582558.7200000002,"ADDRESS":"瓦\u25A0子１０之３號","OBJECTID":292966},"geometry":{"x":190324.00000000093,"y":2582558.7200000044}},{"attributes":{"ID":292975,"DIS_CODE":0,"TOWNNAME":"官田區","LI":"渡頭里","LIN":"24鄰","STREET":" ","SECT":" ","MAREA":"渡子頭","LANE":" ","ALLEY":" ","HOUSE_NO":"２００號","E_COORD97":181712.35999999999,"N_COORD97":2563500.02,"ADDRESS":"渡子頭２００號","OBJECTID":292967},"geometry":{"x":181712.36000000127,"y":2563500.0199999996}},{"attributes":{"ID":292976,"DIS_CODE":0,"TOWNNAME":"官田區","LI":"渡頭里","LIN":"17鄰","STREET":" ","SECT":" ","MAREA":"渡子頭","LANE":" ","ALLEY":" ","HOUSE_NO":"１２３號之１","E_COORD97":181173.20999999999,"N_COORD97":2563081.0299999998,"ADDRESS":"渡子頭１２３號之１","OBJECTID":292968},"geometry":{"x":181173.21000000183,"y":2563081.0300000012}},{"attributes":{"ID":292977,"DIS_CODE":0,"TOWNNAME":"官田區","LI":"渡頭里","LIN":"17鄰","STREET":" ","SECT":" ","MAREA":"渡子頭","LANE":" ","ALLEY":" ","HOUSE_NO":"１２３號之２","E_COORD97":181189.79999999999,"N_COORD97":2563107.9100000001,"ADDRESS":"渡子頭１２３號之２","OBJECTID":292969},"geometry":{"x":181189.80000000075,"y":2563107.9100000001}},{"attributes":{"ID":292978,"DIS_CODE":0,"TOWNNAME":"官田區","LI":"渡頭里","LIN":"17鄰","STREET":" ","SECT":" ","MAREA":"渡子頭","LANE":" ","ALLEY":" ","HOUSE_NO":"１２３號","E_COORD97":181177.97,"N_COORD97":2563099.6000000001,"ADDRESS":"渡子頭１２３號","OBJECTID":292970},"geometry":{"x":181177.96999999881,"y":2563099.5999999996}},{"attributes":{"ID":292979,"DIS_CODE":0,"TOWNNAME":"官田區","LI":"渡頭里","LIN":"17鄰","STREET":" ","SECT":" ","MAREA":"渡子頭","LANE":" ","ALLEY":" ","HOUSE_NO":"１２４號之１","E_COORD97":181201.78771900001,"N_COORD97":2563086.9679,"ADDRESS":"渡子頭１２４號之１","OBJECTID":292971},"geometry":{"x":181201.78771900199,"y":2563086.9678990021}},{"attributes":{"ID":292980,"DIS_CODE":0,"TOWNNAME":"官田區","LI":"渡頭里","LIN":"17鄰","STREET":" ","SECT":" ","MAREA":"渡子頭","LANE":" ","ALLEY":" ","HOUSE_NO":"１２４號之２","E_COORD97":181193.736665,"N_COORD97":2563083.3695700001,"ADDRESS":"渡子頭１２４號之２","OBJECTID":292972},"geometry":{"x":181193.73666500021,"y":2563083.3695679996}},{"attributes":{"ID":292981,"DIS_CODE":0,"TOWNNAME":"南區","LI":"南都里","LIN":"17鄰","STREET":"明興路","SECT":" ","MAREA":" ","LANE":"８８巷","ALLEY":" ","HOUSE_NO":"７號","E_COORD97":166661.07000000001,"N_COORD97":2540044.3199999998,"ADDRESS":"明興路８８巷７號","OBJECTID":292973},"geometry":{"x":166661.07000000123,"y":2540044.3200000003}},{"attributes":{"ID":292982,"DIS_CODE":0,"TOWNNAME":"官田區","LI":"渡頭里","LIN":"4鄰","STREET":" ","SECT":" ","MAREA":"渡子頭","LANE":" ","ALLEY":" ","HOUSE_NO":"３０號之３","E_COORD97":181366.73000000001,"N_COORD97":2563047.5299999998,"ADDRESS":"渡子頭３０號之３","OBJECTID":292974},"geometry":{"x":181366.73000000045,"y":2563047.5300000012}},{"attributes":{"ID":292983,"DIS_CODE":0,"TOWNNAME":"官田區","LI":"渡頭里","LIN":"4鄰","STREET":" ","SECT":" ","MAREA":"渡子頭","LANE":" ","ALLEY":" ","HOUSE_NO":"３０號","E_COORD97":181361.85000000001,"N_COORD97":2563067.1400000001,"ADDRESS":"渡子頭３０號","OBJECTID":292975},"geometry":{"x":181361.85000000149,"y":2563067.1400000006}},{"attributes":{"ID":292984,"DIS_CODE":0,"TOWNNAME":"官田區","LI":"渡頭里","LIN":"4鄰","STREET":" ","SECT":" ","MAREA":"渡子頭","LANE":" ","ALLEY":" ","HOUSE_NO":"３１號之３","E_COORD97":181324.14000000001,"N_COORD97":2563029.3700000001,"ADDRESS":"渡子頭３１號之３","OBJECTID":292976},"geometry":{"x":181324.13999999966,"y":2563029.3700000048}},{"attributes":{"ID":292985,"DIS_CODE":0,"TOWNNAME":"官田區","LI":"渡頭里","LIN":"4鄰","STREET":" ","SECT":" ","MAREA":"渡子頭","LANE":" ","ALLEY":" ","HOUSE_NO":"３１號","E_COORD97":181321.01000000001,"N_COORD97":2563049.1400000001,"ADDRESS":"渡子頭３１號","OBJECTID":292977},"geometry":{"x":181321.01000000071,"y":2563049.1400000006}},{"attributes":{"ID":292986,"DIS_CODE":0,"TOWNNAME":"官田區","LI":"渡頭里","LIN":"4鄰","STREET":" ","SECT":" ","MAREA":"渡子頭","LANE":" ","ALLEY":" ","HOUSE_NO":"３２號之１","E_COORD97":181356.54999999999,"N_COORD97":2563026.7599999998,"ADDRESS":"渡子頭３２號之１","OBJECTID":292978},"geometry":{"x":181356.54999999981,"y":2563026.7600000016}},{"attributes":{"ID":292987,"DIS_CODE":0,"TOWNNAME":"北區","LI":"仁愛里","LIN":"17鄰","STREET":"東豐路","SECT":" ","MAREA":" ","LANE":"２７３巷","ALLEY":" ","HOUSE_NO":"１２號之１","E_COORD97":170343.85999999999,"N_COORD97":2544902.6000000001,"ADDRESS":"東豐路２７３巷１２號之１","OBJECTID":292979},"geometry":{"x":170343.8600000022,"y":2544902.6000000015}},{"attributes":{"ID":292988,"DIS_CODE":0,"TOWNNAME":"北區","LI":"仁愛里","LIN":"17鄰","STREET":"東豐路","SECT":" ","MAREA":" ","LANE":"２７３巷","ALLEY":" ","HOUSE_NO":"９號","E_COORD97":170329.92999999999,"N_COORD97":2544865.75,"ADDRESS":"東豐路２７３巷９號","OBJECTID":292980},"geometry":{"x":170329.9299999997,"y":2544865.75}},{"attributes":{"ID":292989,"DIS_CODE":0,"TOWNNAME":"北區","LI":"仁愛里","LIN":"17鄰","STREET":"東豐路","SECT":" ","MAREA":" ","LANE":"３０５巷","ALLEY":" ","HOUSE_NO":"１１號","E_COORD97":170408.45000000001,"N_COORD97":2544820.6299999999,"ADDRESS":"東豐路３０５巷１１號","OBJECTID":292981},"geometry":{"x":170408.45000000019,"y":2544820.6300000008}},{"attributes":{"ID":292990,"DIS_CODE":0,"TOWNNAME":"北區","LI":"仁愛里","LIN":"17鄰","STREET":"東豐路","SECT":" ","MAREA":" ","LANE":"３０５巷","ALLEY":" ","HOUSE_NO":"１３號","E_COORD97":170413.32000000001,"N_COORD97":2544842.3900000001,"ADDRESS":"東豐路３０５巷１３號","OBJECTID":292982},"geometry":{"x":170413.3200000003,"y":2544842.3900000006}},{"attributes":{"ID":292991,"DIS_CODE":0,"TOWNNAME":"北區","LI":"仁愛里","LIN":"17鄰","STREET":"東豐路","SECT":" ","MAREA":" ","LANE":"３０５巷","ALLEY":" ","HOUSE_NO":"１５號","E_COORD97":170413.04999999999,"N_COORD97":2544846.1699999999,"ADDRESS":"東豐路３０５巷１５號","OBJECTID":292983},"geometry":{"x":170413.04999999888,"y":2544846.1699999999}},{"attributes":{"ID":292992,"DIS_CODE":0,"TOWNNAME":"北區","LI":"文成里","LIN":"17鄰","STREET":"文賢路","SECT":" ","MAREA":" ","LANE":"２１８巷","ALLEY":" ","HOUSE_NO":"１號","E_COORD97":167391.73000000001,"N_COORD97":2544950.0600000001,"ADDRESS":"文賢路２１８巷１號","OBJECTID":292984},"geometry":{"x":167391.73000000231,"y":2544950.0600000042}},{"attributes":{"ID":292993,"DIS_CODE":0,"TOWNNAME":"北區","LI":"文成里","LIN":"17鄰","STREET":"文賢路","SECT":" ","MAREA":" ","LANE":"２１８巷","ALLEY":" ","HOUSE_NO":"３號","E_COORD97":167396.39999999999,"N_COORD97":2544950.7999999998,"ADDRESS":"文賢路２１８巷３號","OBJECTID":292985},"geometry":{"x":167396.4000000013,"y":2544950.8000000007}},{"attributes":{"ID":292994,"DIS_CODE":0,"TOWNNAME":"北區","LI":"文元里","LIN":"17鄰","STREET":"文成路","SECT":" ","MAREA":" ","LANE":"７５０巷","ALLEY":" ","HOUSE_NO":"１４９號","E_COORD97":167605.42999999999,"N_COORD97":2546103.7200000002,"ADDRESS":"文成路７５０巷１４９號","OBJECTID":292986},"geometry":{"x":167605.43000000063,"y":2546103.7200000007}},{"attributes":{"ID":292995,"DIS_CODE":0,"TOWNNAME":"東區","LI":"東門里","LIN":"1鄰","STREET":"東門路","SECT":"一段","MAREA":" ","LANE":" ","ALLEY":" ","HOUSE_NO":"４７號","E_COORD97":169230.87,"N_COORD97":2543258.8999999999,"ADDRESS":"東門路一段４７號","OBJECTID":292987},"geometry":{"x":169230.87000000011,"y":2543258.8999999985}},{"attributes":{"ID":292996,"DIS_CODE":0,"TOWNNAME":"官田區","LI":"嘉南里","LIN":"4鄰","STREET":" ","SECT":" ","MAREA":"嘉南","LANE":" ","ALLEY":" ","HOUSE_NO":"３４號之１３","E_COORD97":184890.88,"N_COORD97":2568072.5699999998,"ADDRESS":"嘉南３４號之１３","OBJECTID":292988},"geometry":{"x":184890.87999999989,"y":2568072.5700000022}},{"attributes":{"ID":292997,"DIS_CODE":0,"TOWNNAME":"官田區","LI":"嘉南里","LIN":"4鄰","STREET":" ","SECT":" ","MAREA":"嘉南","LANE":" ","ALLEY":" ","HOUSE_NO":"３４號之１４","E_COORD97":184890.95999999999,"N_COORD97":2568076.7999999998,"ADDRESS":"嘉南３４號之１４","OBJECTID":292989},"geometry":{"x":184890.96000000089,"y":2568076.8000000007}},{"attributes":{"ID":292998,"DIS_CODE":0,"TOWNNAME":"官田區","LI":"嘉南里","LIN":"4鄰","STREET":" ","SECT":" ","MAREA":"嘉南","LANE":" ","ALLEY":" ","HOUSE_NO":"３４號之１５","E_COORD97":184891.01000000001,"N_COORD97":2568080.96,"ADDRESS":"嘉南３４號之１５","OBJECTID":292990},"geometry":{"x":184891.01000000071,"y":2568080.9600000028}},{"attributes":{"ID":292999,"DIS_CODE":0,"TOWNNAME":"官田區","LI":"嘉南里","LIN":"4鄰","STREET":" ","SECT":" ","MAREA":"嘉南","LANE":" ","ALLEY":" ","HOUSE_NO":"３４號之１６","E_COORD97":184891.20000000001,"N_COORD97":2568085.2599999998,"ADDRESS":"嘉南３４號之１６","OBJECTID":292991},"geometry":{"x":184891.20000000205,"y":2568085.2600000016}},{"attributes":{"ID":293000,"DIS_CODE":0,"TOWNNAME":"官田區","LI":"嘉南里","LIN":"4鄰","STREET":" ","SECT":" ","MAREA":"嘉南","LANE":" ","ALLEY":" ","HOUSE_NO":"３４號之１７","E_COORD97":184891.20000000001,"N_COORD97":2568089.48,"ADDRESS":"嘉南３４號之１７","OBJECTID":292992},"geometry":{"x":184891.20000000205,"y":2568089.4800000004}},{"attributes":{"ID":293001,"DIS_CODE":0,"TOWNNAME":"官田區","LI":"嘉南里","LIN":"4鄰","STREET":" ","SECT":" ","MAREA":"嘉南","LANE":" ","ALLEY":" ","HOUSE_NO":"３４號之２","E_COORD97":184885.199941,"N_COORD97":2568026.9376099999,"ADDRESS":"嘉南３４號之２","OBJECTID":292993},"geometry":{"x":184885.1999410009,"y":2568026.9376120027}},{"attributes":{"ID":293002,"DIS_CODE":0,"TOWNNAME":"官田區","LI":"社子里","LIN":"1鄰","STREET":" ","SECT":" ","MAREA":"舊社","LANE":" ","ALLEY":" ","HOUSE_NO":"７號","E_COORD97":184689.37,"N_COORD97":2564912.3300000001,"ADDRESS":"舊社７號","OBJECTID":292994},"geometry":{"x":184689.37000000011,"y":2564912.3300000001}},{"attributes":{"ID":293003,"DIS_CODE":0,"TOWNNAME":"新市區","LI":"新和里","LIN":"24鄰","STREET":"永福街","SECT":" ","MAREA":" ","LANE":"１０８巷","ALLEY":" ","HOUSE_NO":"１號","E_COORD97":177502.37,"N_COORD97":2552755.25,"ADDRESS":"永福街１０８巷１號","OBJECTID":292995},"geometry":{"x":177502.37000000197,"y":2552755.25}},{"attributes":{"ID":293004,"DIS_CODE":0,"TOWNNAME":"新市區","LI":"新和里","LIN":"38鄰","STREET":"成功街","SECT":" ","MAREA":" ","LANE":"７７巷","ALLEY":" ","HOUSE_NO":"９號","E_COORD97":177455.98000000001,"N_COORD97":2552824.02,"ADDRESS":"成功街７７巷９號","OBJECTID":292996},"geometry":{"x":177455.97999999952,"y":2552824.0199999996}},{"attributes":{"ID":293005,"DIS_CODE":0,"TOWNNAME":"安定區","LI":"港口里","LIN":"18鄰","STREET":" ","SECT":" ","MAREA":"港口","LANE":" ","ALLEY":" ","HOUSE_NO":"３８０之１４號","E_COORD97":171412.84,"N_COORD97":2555054.2999999998,"ADDRESS":"港口３８０之１４號","OBJECTID":292997},"geometry":{"x":171412.83999999985,"y":2555054.3000000007}},{"attributes":{"ID":293006,"DIS_CODE":0,"TOWNNAME":"安定區","LI":"港口里","LIN":"20鄰","STREET":" ","SECT":" ","MAREA":"港口","LANE":" ","ALLEY":" ","HOUSE_NO":"３９９之３６號","E_COORD97":171545.73999999999,"N_COORD97":2554911.2999999998,"ADDRESS":"港口３９９之３６號","OBJECTID":292998},"geometry":{"x":171545.74000000022,"y":2554911.3000000007}},{"attributes":{"ID":293007,"DIS_CODE":0,"TOWNNAME":"安定區","LI":"海寮里","LIN":"13鄰","STREET":" ","SECT":" ","MAREA":"海寮","LANE":" ","ALLEY":" ","HOUSE_NO":"１２６之２６號","E_COORD97":168990.79000000001,"N_COORD97":2555238.2999999998,"ADDRESS":"海寮１２６之２６號","OBJECTID":292999},"geometry":{"x":168990.79000000004,"y":2555238.3000000045}},{"attributes":{"ID":293008,"DIS_CODE":0,"TOWNNAME":"安定區","LI":"保西里","LIN":"8鄰","STREET":" ","SECT":" ","MAREA":"安定","LANE":" ","ALLEY":" ","HOUSE_NO":"４０１號","E_COORD97":171750.42000000001,"N_COORD97":2557821.3199999998,"ADDRESS":"安定４０１號","OBJECTID":293000},"geometry":{"x":171750.42000000086,"y":2557821.320000004}}]}