{"displayFieldName":"TOWNNAME","fieldAliases":{"ID":"ID","DIS_CODE":"DIS_CODE","TOWNNAME":"TOWNNAME","LI":"LI","LIN":"LIN","STREET":"STREET","SECT":"SECT","MAREA":"MAREA","LANE":"LANE","ALLEY":"ALLEY","HOUSE_NO":"HOUSE_NO","E_COORD97":"E_COORD97","N_COORD97":"N_COORD97","ADDRESS":"ADDRESS","OBJECTID":"OBJECTID"},"geometryType":"esriGeometryPoint","spatialReference":{"wkid":102443,"latestWkid":3826},"fields":[{"name":"ID","type":"esriFieldTypeDouble","alias":"ID"},{"name":"DIS_CODE","type":"esriFieldTypeInteger","alias":"DIS_CODE"},{"name":"TOWNNAME","type":"esriFieldTypeString","alias":"TOWNNAME","length":8},{"name":"LI","type":"esriFieldTypeString","alias":"LI","length":8},{"name":"LIN","type":"esriFieldTypeString","alias":"LIN","length":12},{"name":"STREET","type":"esriFieldTypeString","alias":"STREET","length":20},{"name":"SECT","type":"esriFieldTypeString","alias":"SECT","length":8},{"name":"MAREA","type":"esriFieldTypeString","alias":"MAREA","length":12},{"name":"LANE","type":"esriFieldTypeString","alias":"LANE","length":10},{"name":"ALLEY","type":"esriFieldTypeString","alias":"ALLEY","length":10},{"name":"HOUSE_NO","type":"esriFieldTypeString","alias":"HOUSE_NO","length":20},{"name":"E_COORD97","type":"esriFieldTypeDouble","alias":"E_COORD97"},{"name":"N_COORD97","type":"esriFieldTypeDouble","alias":"N_COORD97"},{"name":"ADDRESS","type":"esriFieldTypeString","alias":"ADDRESS","length":50},{"name":"OBJECTID","type":"esriFieldTypeOID","alias":"OBJECTID"}],"features":[{"attributes":{"ID":78401,"DIS_CODE":0,"TOWNNAME":"安平區","LI":"建平里","LIN":"19鄰","STREET":"怡平路","SECT":" ","MAREA":" ","LANE":"１４０巷","ALLEY":"１７弄","HOUSE_NO":"３號四樓之９","E_COORD97":165856.32999999999,"N_COORD97":2543806.5699999998,"ADDRESS":"怡平路１４０巷１７弄３號四樓之９","OBJECTID":78401},"geometry":{"x":165856.33000000007,"y":2543806.5700000003}},{"attributes":{"ID":78402,"DIS_CODE":0,"TOWNNAME":"大內區","LI":"頭社里","LIN":"6鄰","STREET":" ","SECT":" ","MAREA":"頭社","LANE":" ","ALLEY":" ","HOUSE_NO":"７３號","E_COORD97":187209.64000000001,"N_COORD97":2560390.25,"ADDRESS":"頭社７３號","OBJECTID":78402},"geometry":{"x":187209.63999999966,"y":2560390.25}},{"attributes":{"ID":78403,"DIS_CODE":0,"TOWNNAME":"安平區","LI":"建平里","LIN":"19鄰","STREET":"怡平路","SECT":" ","MAREA":" ","LANE":"１４０巷","ALLEY":"１７弄","HOUSE_NO":"３號四樓之１０","E_COORD97":165856.32999999999,"N_COORD97":2543806.5699999998,"ADDRESS":"怡平路１４０巷１７弄３號四樓之１０","OBJECTID":78403},"geometry":{"x":165856.33000000007,"y":2543806.5700000003}},{"attributes":{"ID":78404,"DIS_CODE":0,"TOWNNAME":"安平區","LI":"建平里","LIN":"19鄰","STREET":"怡平路","SECT":" ","MAREA":" ","LANE":"１４０巷","ALLEY":"１７弄","HOUSE_NO":"３號四樓之１１","E_COORD97":165856.32999999999,"N_COORD97":2543806.5699999998,"ADDRESS":"怡平路１４０巷１７弄３號四樓之１１","OBJECTID":78404},"geometry":{"x":165856.33000000007,"y":2543806.5700000003}},{"attributes":{"ID":78405,"DIS_CODE":0,"TOWNNAME":"安平區","LI":"建平里","LIN":"19鄰","STREET":"怡平路","SECT":" ","MAREA":" ","LANE":"１４０巷","ALLEY":"１７弄","HOUSE_NO":"３號四樓之１２","E_COORD97":165856.32999999999,"N_COORD97":2543806.5699999998,"ADDRESS":"怡平路１４０巷１７弄３號四樓之１２","OBJECTID":78405},"geometry":{"x":165856.33000000007,"y":2543806.5700000003}},{"attributes":{"ID":78406,"DIS_CODE":0,"TOWNNAME":"安平區","LI":"建平里","LIN":"19鄰","STREET":"怡平路","SECT":" ","MAREA":" ","LANE":"１４０巷","ALLEY":"１７弄","HOUSE_NO":"３號四樓之１３","E_COORD97":165856.32999999999,"N_COORD97":2543806.5699999998,"ADDRESS":"怡平路１４０巷１７弄３號四樓之１３","OBJECTID":78406},"geometry":{"x":165856.33000000007,"y":2543806.5700000003}},{"attributes":{"ID":78407,"DIS_CODE":0,"TOWNNAME":"安平區","LI":"建平里","LIN":"19鄰","STREET":"怡平路","SECT":" ","MAREA":" ","LANE":"１４０巷","ALLEY":"１７弄","HOUSE_NO":"３號四樓之１４","E_COORD97":165856.32999999999,"N_COORD97":2543806.5699999998,"ADDRESS":"怡平路１４０巷１７弄３號四樓之１４","OBJECTID":78407},"geometry":{"x":165856.33000000007,"y":2543806.5700000003}},{"attributes":{"ID":78408,"DIS_CODE":0,"TOWNNAME":"安平區","LI":"建平里","LIN":"19鄰","STREET":"怡平路","SECT":" ","MAREA":" ","LANE":"１４０巷","ALLEY":"１７弄","HOUSE_NO":"３號四樓之１５","E_COORD97":165856.32999999999,"N_COORD97":2543806.5699999998,"ADDRESS":"怡平路１４０巷１７弄３號四樓之１５","OBJECTID":78408},"geometry":{"x":165856.33000000007,"y":2543806.5700000003}},{"attributes":{"ID":78409,"DIS_CODE":0,"TOWNNAME":"安平區","LI":"建平里","LIN":"19鄰","STREET":"怡平路","SECT":" ","MAREA":" ","LANE":"１４０巷","ALLEY":"１７弄","HOUSE_NO":"３號四樓之１６","E_COORD97":165856.32999999999,"N_COORD97":2543806.5699999998,"ADDRESS":"怡平路１４０巷１７弄３號四樓之１６","OBJECTID":78409},"geometry":{"x":165856.33000000007,"y":2543806.5700000003}},{"attributes":{"ID":78410,"DIS_CODE":0,"TOWNNAME":"安平區","LI":"建平里","LIN":"19鄰","STREET":"怡平路","SECT":" ","MAREA":" ","LANE":"１４０巷","ALLEY":"１７弄","HOUSE_NO":"３號四樓之１７","E_COORD97":165856.32999999999,"N_COORD97":2543806.5699999998,"ADDRESS":"怡平路１４０巷１７弄３號四樓之１７","OBJECTID":78410},"geometry":{"x":165856.33000000007,"y":2543806.5700000003}},{"attributes":{"ID":78411,"DIS_CODE":0,"TOWNNAME":"安平區","LI":"建平里","LIN":"19鄰","STREET":"怡平路","SECT":" ","MAREA":" ","LANE":"１４０巷","ALLEY":"１７弄","HOUSE_NO":"３號四樓之１８","E_COORD97":165856.32999999999,"N_COORD97":2543806.5699999998,"ADDRESS":"怡平路１４０巷１７弄３號四樓之１８","OBJECTID":78411},"geometry":{"x":165856.33000000007,"y":2543806.5700000003}},{"attributes":{"ID":78412,"DIS_CODE":0,"TOWNNAME":"安平區","LI":"建平里","LIN":"19鄰","STREET":"怡平路","SECT":" ","MAREA":" ","LANE":"１４０巷","ALLEY":"１７弄","HOUSE_NO":"３號五樓之１","E_COORD97":165856.32999999999,"N_COORD97":2543806.5699999998,"ADDRESS":"怡平路１４０巷１７弄３號五樓之１","OBJECTID":78412},"geometry":{"x":165856.33000000007,"y":2543806.5700000003}},{"attributes":{"ID":78413,"DIS_CODE":0,"TOWNNAME":"安平區","LI":"建平里","LIN":"19鄰","STREET":"怡平路","SECT":" ","MAREA":" ","LANE":"１４０巷","ALLEY":"１７弄","HOUSE_NO":"３號五樓之２","E_COORD97":165856.32999999999,"N_COORD97":2543806.5699999998,"ADDRESS":"怡平路１４０巷１７弄３號五樓之２","OBJECTID":78413},"geometry":{"x":165856.33000000007,"y":2543806.5700000003}},{"attributes":{"ID":78414,"DIS_CODE":0,"TOWNNAME":"安平區","LI":"建平里","LIN":"19鄰","STREET":"怡平路","SECT":" ","MAREA":" ","LANE":"１４０巷","ALLEY":"１７弄","HOUSE_NO":"３號五樓之３","E_COORD97":165856.32999999999,"N_COORD97":2543806.5699999998,"ADDRESS":"怡平路１４０巷１７弄３號五樓之３","OBJECTID":78414},"geometry":{"x":165856.33000000007,"y":2543806.5700000003}},{"attributes":{"ID":78415,"DIS_CODE":0,"TOWNNAME":"安平區","LI":"建平里","LIN":"19鄰","STREET":"怡平路","SECT":" ","MAREA":" ","LANE":"１４０巷","ALLEY":"１７弄","HOUSE_NO":"３號五樓之５","E_COORD97":165856.32999999999,"N_COORD97":2543806.5699999998,"ADDRESS":"怡平路１４０巷１７弄３號五樓之５","OBJECTID":78415},"geometry":{"x":165856.33000000007,"y":2543806.5700000003}},{"attributes":{"ID":78416,"DIS_CODE":0,"TOWNNAME":"安平區","LI":"建平里","LIN":"19鄰","STREET":"怡平路","SECT":" ","MAREA":" ","LANE":"１４０巷","ALLEY":"１７弄","HOUSE_NO":"３號五樓之６","E_COORD97":165856.32999999999,"N_COORD97":2543806.5699999998,"ADDRESS":"怡平路１４０巷１７弄３號五樓之６","OBJECTID":78416},"geometry":{"x":165856.33000000007,"y":2543806.5700000003}},{"attributes":{"ID":78417,"DIS_CODE":0,"TOWNNAME":"中西區","LI":"中正里","LIN":"7鄰","STREET":"正興街","SECT":" ","MAREA":" ","LANE":"６１巷","ALLEY":" ","HOUSE_NO":"２２號","E_COORD97":167667.57000000001,"N_COORD97":2543824.3599999999,"ADDRESS":"正興街６１巷２２號","OBJECTID":78417},"geometry":{"x":167667.57000000123,"y":2543824.3599999975}},{"attributes":{"ID":78418,"DIS_CODE":0,"TOWNNAME":"柳營區","LI":"東昇里","LIN":"8鄰","STREET":"康樂街","SECT":" ","MAREA":" ","LANE":" ","ALLEY":" ","HOUSE_NO":"２２５號","E_COORD97":180049.66,"N_COORD97":2575390.1299999999,"ADDRESS":"康樂街２２５號","OBJECTID":78418},"geometry":{"x":180049.66000000015,"y":2575390.1300000027}},{"attributes":{"ID":78419,"DIS_CODE":0,"TOWNNAME":"柳營區","LI":"士林里","LIN":"8鄰","STREET":"博愛街","SECT":" ","MAREA":" ","LANE":" ","ALLEY":" ","HOUSE_NO":"１５號","E_COORD97":179557.19,"N_COORD97":2575225.27,"ADDRESS":"博愛街１５號","OBJECTID":78419},"geometry":{"x":179557.19000000134,"y":2575225.2700000014}},{"attributes":{"ID":78420,"DIS_CODE":0,"TOWNNAME":"柳營區","LI":"士林里","LIN":"8鄰","STREET":"博愛街","SECT":" ","MAREA":" ","LANE":" ","ALLEY":" ","HOUSE_NO":"１７號","E_COORD97":179546.60999999999,"N_COORD97":2575226.8300000001,"ADDRESS":"博愛街１７號","OBJECTID":78420},"geometry":{"x":179546.61000000034,"y":2575226.8300000001}},{"attributes":{"ID":78421,"DIS_CODE":0,"TOWNNAME":"柳營區","LI":"士林里","LIN":"8鄰","STREET":"博愛街","SECT":" ","MAREA":" ","LANE":" ","ALLEY":" ","HOUSE_NO":"３９號","E_COORD97":179513.39000000001,"N_COORD97":2575208.6200000001,"ADDRESS":"博愛街３９號","OBJECTID":78421},"geometry":{"x":179513.38999999966,"y":2575208.620000001}},{"attributes":{"ID":78422,"DIS_CODE":0,"TOWNNAME":"柳營區","LI":"士林里","LIN":"8鄰","STREET":"博愛街","SECT":" ","MAREA":" ","LANE":" ","ALLEY":" ","HOUSE_NO":"４１號","E_COORD97":179508.57999999999,"N_COORD97":2575206.7999999998,"ADDRESS":"博愛街４１號","OBJECTID":78422},"geometry":{"x":179508.58000000101,"y":2575206.8000000007}},{"attributes":{"ID":78423,"DIS_CODE":0,"TOWNNAME":"柳營區","LI":"士林里","LIN":"8鄰","STREET":"博愛街","SECT":" ","MAREA":" ","LANE":" ","ALLEY":" ","HOUSE_NO":"４３號","E_COORD97":179495.85000000001,"N_COORD97":2575208.6600000001,"ADDRESS":"博愛街４３號","OBJECTID":78423},"geometry":{"x":179495.85000000056,"y":2575208.660000002}},{"attributes":{"ID":78424,"DIS_CODE":0,"TOWNNAME":"安平區","LI":"建平里","LIN":"19鄰","STREET":"怡平路","SECT":" ","MAREA":" ","LANE":"１４０巷","ALLEY":"１７弄","HOUSE_NO":"３號五樓之７","E_COORD97":165856.32999999999,"N_COORD97":2543806.5699999998,"ADDRESS":"怡平路１４０巷１７弄３號五樓之７","OBJECTID":78424},"geometry":{"x":165856.33000000007,"y":2543806.5700000003}},{"attributes":{"ID":78425,"DIS_CODE":0,"TOWNNAME":"安平區","LI":"建平里","LIN":"19鄰","STREET":"怡平路","SECT":" ","MAREA":" ","LANE":"１４０巷","ALLEY":"１７弄","HOUSE_NO":"３號五樓之８","E_COORD97":165856.32999999999,"N_COORD97":2543806.5699999998,"ADDRESS":"怡平路１４０巷１７弄３號五樓之８","OBJECTID":78425},"geometry":{"x":165856.33000000007,"y":2543806.5700000003}},{"attributes":{"ID":78426,"DIS_CODE":0,"TOWNNAME":"安平區","LI":"建平里","LIN":"19鄰","STREET":"怡平路","SECT":" ","MAREA":" ","LANE":"１４０巷","ALLEY":"１７弄","HOUSE_NO":"３號五樓之９","E_COORD97":165856.32999999999,"N_COORD97":2543806.5699999998,"ADDRESS":"怡平路１４０巷１７弄３號五樓之９","OBJECTID":78426},"geometry":{"x":165856.33000000007,"y":2543806.5700000003}},{"attributes":{"ID":78427,"DIS_CODE":0,"TOWNNAME":"南區","LI":"文南里","LIN":"20鄰","STREET":"仁南一街","SECT":" ","MAREA":" ","LANE":" ","ALLEY":" ","HOUSE_NO":"３１號","E_COORD97":166477.12,"N_COORD97":2542622.9900000002,"ADDRESS":"仁南一街３１號","OBJECTID":78427},"geometry":{"x":166477.12000000104,"y":2542622.9900000002}},{"attributes":{"ID":78428,"DIS_CODE":0,"TOWNNAME":"安平區","LI":"建平里","LIN":"19鄰","STREET":"怡平路","SECT":" ","MAREA":" ","LANE":"１４０巷","ALLEY":"１７弄","HOUSE_NO":"３號五樓之１０","E_COORD97":165856.32999999999,"N_COORD97":2543806.5699999998,"ADDRESS":"怡平路１４０巷１７弄３號五樓之１０","OBJECTID":78428},"geometry":{"x":165856.33000000007,"y":2543806.5700000003}},{"attributes":{"ID":78429,"DIS_CODE":0,"TOWNNAME":"安平區","LI":"建平里","LIN":"19鄰","STREET":"怡平路","SECT":" ","MAREA":" ","LANE":"１４０巷","ALLEY":"１７弄","HOUSE_NO":"３號五樓之１１","E_COORD97":165856.32999999999,"N_COORD97":2543806.5699999998,"ADDRESS":"怡平路１４０巷１７弄３號五樓之１１","OBJECTID":78429},"geometry":{"x":165856.33000000007,"y":2543806.5700000003}},{"attributes":{"ID":78430,"DIS_CODE":0,"TOWNNAME":"大內區","LI":"內郭里","LIN":"6鄰","STREET":" ","SECT":" ","MAREA":"內庄","LANE":" ","ALLEY":" ","HOUSE_NO":"１９８號","E_COORD97":184852.28,"N_COORD97":2557293.25,"ADDRESS":"內庄１９８號","OBJECTID":78430},"geometry":{"x":184852.28000000119,"y":2557293.2500000019}},{"attributes":{"ID":78431,"DIS_CODE":0,"TOWNNAME":"大內區","LI":"二溪里","LIN":"6鄰","STREET":" ","SECT":" ","MAREA":"二重溪","LANE":" ","ALLEY":" ","HOUSE_NO":"１９９之５號","E_COORD97":188149.44,"N_COORD97":2558093.3100000001,"ADDRESS":"二重溪１９９之５號","OBJECTID":78431},"geometry":{"x":188149.43999999948,"y":2558093.3100000024}},{"attributes":{"ID":78432,"DIS_CODE":0,"TOWNNAME":"大內區","LI":"石城里","LIN":"6鄰","STREET":" ","SECT":" ","MAREA":"石子瀨","LANE":" ","ALLEY":" ","HOUSE_NO":"６０號","E_COORD97":184155.72,"N_COORD97":2557996.25,"ADDRESS":"石子瀨６０號","OBJECTID":78432},"geometry":{"x":184155.71999999974,"y":2557996.25}},{"attributes":{"ID":78433,"DIS_CODE":0,"TOWNNAME":"大內區","LI":"二溪里","LIN":"6鄰","STREET":" ","SECT":" ","MAREA":"二重溪","LANE":" ","ALLEY":" ","HOUSE_NO":"２０１之１２號","E_COORD97":189380.39000000001,"N_COORD97":2558120.3100000001,"ADDRESS":"二重溪２０１之１２號","OBJECTID":78433},"geometry":{"x":189380.3900000006,"y":2558120.3100000024}},{"attributes":{"ID":78434,"DIS_CODE":0,"TOWNNAME":"大內區","LI":"石湖里","LIN":"6鄰","STREET":" ","SECT":" ","MAREA":"石子瀨","LANE":" ","ALLEY":" ","HOUSE_NO":"２７４號之２２","E_COORD97":184073.98999999999,"N_COORD97":2558487.2999999998,"ADDRESS":"石子瀨２７４號之２２","OBJECTID":78434},"geometry":{"x":184073.99000000115,"y":2558487.3000000026}},{"attributes":{"ID":78435,"DIS_CODE":0,"TOWNNAME":"安平區","LI":"建平里","LIN":"19鄰","STREET":"怡平路","SECT":" ","MAREA":" ","LANE":"１４０巷","ALLEY":"１７弄","HOUSE_NO":"３號五樓之１２","E_COORD97":165856.32999999999,"N_COORD97":2543806.5699999998,"ADDRESS":"怡平路１４０巷１７弄３號五樓之１２","OBJECTID":78435},"geometry":{"x":165856.33000000007,"y":2543806.5700000003}},{"attributes":{"ID":78436,"DIS_CODE":0,"TOWNNAME":"安平區","LI":"建平里","LIN":"19鄰","STREET":"怡平路","SECT":" ","MAREA":" ","LANE":"１４０巷","ALLEY":"１７弄","HOUSE_NO":"３號五樓之１３","E_COORD97":165856.32999999999,"N_COORD97":2543806.5699999998,"ADDRESS":"怡平路１４０巷１７弄３號五樓之１３","OBJECTID":78436},"geometry":{"x":165856.33000000007,"y":2543806.5700000003}},{"attributes":{"ID":78437,"DIS_CODE":0,"TOWNNAME":"安平區","LI":"建平里","LIN":"19鄰","STREET":"怡平路","SECT":" ","MAREA":" ","LANE":"１４０巷","ALLEY":"１７弄","HOUSE_NO":"３號五樓之１４","E_COORD97":165856.32999999999,"N_COORD97":2543806.5699999998,"ADDRESS":"怡平路１４０巷１７弄３號五樓之１４","OBJECTID":78437},"geometry":{"x":165856.33000000007,"y":2543806.5700000003}},{"attributes":{"ID":78438,"DIS_CODE":0,"TOWNNAME":"安平區","LI":"建平里","LIN":"19鄰","STREET":"怡平路","SECT":" ","MAREA":" ","LANE":"１４０巷","ALLEY":"１７弄","HOUSE_NO":"３號五樓之１５","E_COORD97":165856.32999999999,"N_COORD97":2543806.5699999998,"ADDRESS":"怡平路１４０巷１７弄３號五樓之１５","OBJECTID":78438},"geometry":{"x":165856.33000000007,"y":2543806.5700000003}},{"attributes":{"ID":78439,"DIS_CODE":0,"TOWNNAME":"安平區","LI":"建平里","LIN":"19鄰","STREET":"怡平路","SECT":" ","MAREA":" ","LANE":"１４０巷","ALLEY":"１７弄","HOUSE_NO":"３號五樓之１６","E_COORD97":165856.32999999999,"N_COORD97":2543806.5699999998,"ADDRESS":"怡平路１４０巷１７弄３號五樓之１６","OBJECTID":78439},"geometry":{"x":165856.33000000007,"y":2543806.5700000003}},{"attributes":{"ID":78440,"DIS_CODE":0,"TOWNNAME":"安平區","LI":"建平里","LIN":"19鄰","STREET":"怡平路","SECT":" ","MAREA":" ","LANE":"１４０巷","ALLEY":"１７弄","HOUSE_NO":"３號五樓之１７","E_COORD97":165856.32999999999,"N_COORD97":2543806.5699999998,"ADDRESS":"怡平路１４０巷１７弄３號五樓之１７","OBJECTID":78440},"geometry":{"x":165856.33000000007,"y":2543806.5700000003}},{"attributes":{"ID":78441,"DIS_CODE":0,"TOWNNAME":"大內區","LI":"內郭里","LIN":"6鄰","STREET":" ","SECT":" ","MAREA":"內庄","LANE":" ","ALLEY":" ","HOUSE_NO":"２０４號","E_COORD97":184743.17999999999,"N_COORD97":2557277.25,"ADDRESS":"內庄２０４號","OBJECTID":78441},"geometry":{"x":184743.17999999877,"y":2557277.25}},{"attributes":{"ID":78442,"DIS_CODE":0,"TOWNNAME":"安平區","LI":"建平里","LIN":"19鄰","STREET":"怡平路","SECT":" ","MAREA":" ","LANE":"１４０巷","ALLEY":"１７弄","HOUSE_NO":"３號五樓之１８","E_COORD97":165856.32999999999,"N_COORD97":2543806.5699999998,"ADDRESS":"怡平路１４０巷１７弄３號五樓之１８","OBJECTID":78442},"geometry":{"x":165856.33000000007,"y":2543806.5700000003}},{"attributes":{"ID":78443,"DIS_CODE":0,"TOWNNAME":"安平區","LI":"建平里","LIN":"19鄰","STREET":"怡平路","SECT":" ","MAREA":" ","LANE":"１４０巷","ALLEY":"１７弄","HOUSE_NO":"３號六樓之１","E_COORD97":165856.32999999999,"N_COORD97":2543806.5699999998,"ADDRESS":"怡平路１４０巷１７弄３號六樓之１","OBJECTID":78443},"geometry":{"x":165856.33000000007,"y":2543806.5700000003}},{"attributes":{"ID":78444,"DIS_CODE":0,"TOWNNAME":"永康區","LI":"安康里","LIN":"7鄰","STREET":"中山南路","SECT":" ","MAREA":" ","LANE":" ","ALLEY":" ","HOUSE_NO":"１１１號","E_COORD97":170943.09,"N_COORD97":2545927.75,"ADDRESS":"中山南路１１１號","OBJECTID":78444},"geometry":{"x":170943.08999999985,"y":2545927.7499999981}},{"attributes":{"ID":78445,"DIS_CODE":0,"TOWNNAME":"大內區","LI":"石城里","LIN":"6鄰","STREET":" ","SECT":" ","MAREA":"石子瀨","LANE":" ","ALLEY":" ","HOUSE_NO":"６１號","E_COORD97":184161.12,"N_COORD97":2557986.25,"ADDRESS":"石子瀨６１號","OBJECTID":78445},"geometry":{"x":184161.12000000104,"y":2557986.25}},{"attributes":{"ID":78446,"DIS_CODE":0,"TOWNNAME":"永康區","LI":"安康里","LIN":"7鄰","STREET":"中山南路","SECT":" ","MAREA":" ","LANE":" ","ALLEY":" ","HOUSE_NO":"１０３號","E_COORD97":170913.51999999999,"N_COORD97":2545919,"ADDRESS":"中山南路１０３號","OBJECTID":78446},"geometry":{"x":170913.52000000048,"y":2545919}},{"attributes":{"ID":78447,"DIS_CODE":0,"TOWNNAME":"永康區","LI":"永康里","LIN":"7鄰","STREET":"永中街","SECT":" ","MAREA":" ","LANE":" ","ALLEY":" ","HOUSE_NO":"７３號","E_COORD97":173944.56,"N_COORD97":2547247.25,"ADDRESS":"永中街７３號","OBJECTID":78447},"geometry":{"x":173944.56000000052,"y":2547247.2500000019}},{"attributes":{"ID":78448,"DIS_CODE":0,"TOWNNAME":"大內區","LI":"石湖里","LIN":"6鄰","STREET":" ","SECT":" ","MAREA":"石子瀨","LANE":" ","ALLEY":" ","HOUSE_NO":"２７４號之１１","E_COORD97":184025.85000000001,"N_COORD97":2558473.2999999998,"ADDRESS":"石子瀨２７４號之１１","OBJECTID":78448},"geometry":{"x":184025.84999999963,"y":2558473.3000000026}},{"attributes":{"ID":78449,"DIS_CODE":0,"TOWNNAME":"永康區","LI":"安康里","LIN":"7鄰","STREET":"中山南路","SECT":" ","MAREA":" ","LANE":" ","ALLEY":" ","HOUSE_NO":"８９號","E_COORD97":170876.09,"N_COORD97":2545905,"ADDRESS":"中山南路８９號","OBJECTID":78449},"geometry":{"x":170876.09000000078,"y":2545905}},{"attributes":{"ID":78450,"DIS_CODE":0,"TOWNNAME":"永康區","LI":"安康里","LIN":"7鄰","STREET":"中山南路","SECT":" ","MAREA":" ","LANE":" ","ALLEY":" ","HOUSE_NO":"１０５號","E_COORD97":170917.12,"N_COORD97":2545920.5,"ADDRESS":"中山南路１０５號","OBJECTID":78450},"geometry":{"x":170917.12000000104,"y":2545920.5000000019}},{"attributes":{"ID":78451,"DIS_CODE":0,"TOWNNAME":"永康區","LI":"安康里","LIN":"7鄰","STREET":"中山南路","SECT":" ","MAREA":" ","LANE":" ","ALLEY":" ","HOUSE_NO":"１０５號之３","E_COORD97":170931.64999999999,"N_COORD97":2545925.7999999998,"ADDRESS":"中山南路１０５號之３","OBJECTID":78451},"geometry":{"x":170931.64999999944,"y":2545925.8000000026}},{"attributes":{"ID":78452,"DIS_CODE":0,"TOWNNAME":"永康區","LI":"安康里","LIN":"7鄰","STREET":"中山南路","SECT":" ","MAREA":" ","LANE":" ","ALLEY":" ","HOUSE_NO":"１１１號之２","E_COORD97":170953.26999999999,"N_COORD97":2545932.0499999998,"ADDRESS":"中山南路１１１號之２","OBJECTID":78452},"geometry":{"x":170953.26999999955,"y":2545932.0500000007}},{"attributes":{"ID":78453,"DIS_CODE":0,"TOWNNAME":"永康區","LI":"安康里","LIN":"7鄰","STREET":"中山南路","SECT":" ","MAREA":" ","LANE":" ","ALLEY":" ","HOUSE_NO":"１１１號之４","E_COORD97":170959.79999999999,"N_COORD97":2545936.2999999998,"ADDRESS":"中山南路１１１號之４","OBJECTID":78453},"geometry":{"x":170959.80000000075,"y":2545936.3000000026}},{"attributes":{"ID":78454,"DIS_CODE":0,"TOWNNAME":"新營區","LI":"三仙里","LIN":"14鄰","STREET":"武昌街","SECT":" ","MAREA":" ","LANE":" ","ALLEY":" ","HOUSE_NO":"７１號之７","E_COORD97":179548.5,"N_COORD97":2578262.6099999999,"ADDRESS":"武昌街７１號之７","OBJECTID":78454},"geometry":{"x":179548.5,"y":2578262.6100000013}},{"attributes":{"ID":78455,"DIS_CODE":0,"TOWNNAME":"安平區","LI":"建平里","LIN":"19鄰","STREET":"怡平路","SECT":" ","MAREA":" ","LANE":"１４０巷","ALLEY":"１７弄","HOUSE_NO":"３號六樓之２","E_COORD97":165856.32999999999,"N_COORD97":2543806.5699999998,"ADDRESS":"怡平路１４０巷１７弄３號六樓之２","OBJECTID":78455},"geometry":{"x":165856.33000000007,"y":2543806.5700000003}},{"attributes":{"ID":78456,"DIS_CODE":0,"TOWNNAME":"安平區","LI":"建平里","LIN":"19鄰","STREET":"怡平路","SECT":" ","MAREA":" ","LANE":"１４０巷","ALLEY":"１７弄","HOUSE_NO":"３號六樓之３","E_COORD97":165856.32999999999,"N_COORD97":2543806.5699999998,"ADDRESS":"怡平路１４０巷１７弄３號六樓之３","OBJECTID":78456},"geometry":{"x":165856.33000000007,"y":2543806.5700000003}},{"attributes":{"ID":78457,"DIS_CODE":0,"TOWNNAME":"新化區","LI":"全興里","LIN":"7鄰","STREET":" ","SECT":" ","MAREA":"竹子\u25A0","LANE":" ","ALLEY":" ","HOUSE_NO":"９８號","E_COORD97":177476.17999999999,"N_COORD97":2547795.25,"ADDRESS":"竹子\u25A0９８號","OBJECTID":78457},"geometry":{"x":177476.18000000063,"y":2547795.25}},{"attributes":{"ID":78458,"DIS_CODE":0,"TOWNNAME":"安平區","LI":"建平里","LIN":"19鄰","STREET":"怡平路","SECT":" ","MAREA":" ","LANE":"１４０巷","ALLEY":"１７弄","HOUSE_NO":"３號六樓之５","E_COORD97":165856.32999999999,"N_COORD97":2543806.5699999998,"ADDRESS":"怡平路１４０巷１７弄３號六樓之５","OBJECTID":78458},"geometry":{"x":165856.33000000007,"y":2543806.5700000003}},{"attributes":{"ID":78459,"DIS_CODE":0,"TOWNNAME":"安平區","LI":"建平里","LIN":"19鄰","STREET":"怡平路","SECT":" ","MAREA":" ","LANE":"１４０巷","ALLEY":"１７弄","HOUSE_NO":"３號六樓之６","E_COORD97":165856.32999999999,"N_COORD97":2543806.5699999998,"ADDRESS":"怡平路１４０巷１７弄３號六樓之６","OBJECTID":78459},"geometry":{"x":165856.33000000007,"y":2543806.5700000003}},{"attributes":{"ID":78460,"DIS_CODE":0,"TOWNNAME":"大內區","LI":"曲溪里","LIN":"6鄰","STREET":" ","SECT":" ","MAREA":"二重溪","LANE":" ","ALLEY":" ","HOUSE_NO":"５４號","E_COORD97":187256.79000000001,"N_COORD97":2557580.3100000001,"ADDRESS":"二重溪５４號","OBJECTID":78460},"geometry":{"x":187256.7900000019,"y":2557580.3100000005}},{"attributes":{"ID":78461,"DIS_CODE":0,"TOWNNAME":"安平區","LI":"建平里","LIN":"19鄰","STREET":"怡平路","SECT":" ","MAREA":" ","LANE":"１４０巷","ALLEY":"１７弄","HOUSE_NO":"３號六樓之７","E_COORD97":165856.32999999999,"N_COORD97":2543806.5699999998,"ADDRESS":"怡平路１４０巷１７弄３號六樓之７","OBJECTID":78461},"geometry":{"x":165856.33000000007,"y":2543806.5700000003}},{"attributes":{"ID":78462,"DIS_CODE":0,"TOWNNAME":"大內區","LI":"石林里","LIN":"6鄰","STREET":" ","SECT":" ","MAREA":"石子瀨","LANE":" ","ALLEY":" ","HOUSE_NO":"１７９號","E_COORD97":183963.37,"N_COORD97":2558126.25,"ADDRESS":"石子瀨１７９號","OBJECTID":78462},"geometry":{"x":183963.37000000104,"y":2558126.25}},{"attributes":{"ID":78463,"DIS_CODE":0,"TOWNNAME":"大內區","LI":"頭社里","LIN":"6鄰","STREET":" ","SECT":" ","MAREA":"頭社","LANE":" ","ALLEY":" ","HOUSE_NO":"８３號","E_COORD97":187214.84,"N_COORD97":2560521.25,"ADDRESS":"頭社８３號","OBJECTID":78463},"geometry":{"x":187214.83999999985,"y":2560521.2500000019}},{"attributes":{"ID":78464,"DIS_CODE":0,"TOWNNAME":"大內區","LI":"曲溪里","LIN":"6鄰","STREET":" ","SECT":" ","MAREA":"二重溪","LANE":" ","ALLEY":" ","HOUSE_NO":"５８號之１","E_COORD97":187314.23000000001,"N_COORD97":2557603.3100000001,"ADDRESS":"二重溪５８號之１","OBJECTID":78464},"geometry":{"x":187314.23000000138,"y":2557603.3100000005}},{"attributes":{"ID":78465,"DIS_CODE":0,"TOWNNAME":"大內區","LI":"石湖里","LIN":"6鄰","STREET":" ","SECT":" ","MAREA":"石子瀨","LANE":" ","ALLEY":" ","HOUSE_NO":"２７４號之６","E_COORD97":184016.10999999999,"N_COORD97":2558474.2999999998,"ADDRESS":"石子瀨２７４號之６","OBJECTID":78465},"geometry":{"x":184016.11000000127,"y":2558474.3000000026}},{"attributes":{"ID":78466,"DIS_CODE":0,"TOWNNAME":"安平區","LI":"建平里","LIN":"19鄰","STREET":"怡平路","SECT":" ","MAREA":" ","LANE":"１４０巷","ALLEY":"１７弄","HOUSE_NO":"３號六樓之８","E_COORD97":165856.32999999999,"N_COORD97":2543806.5699999998,"ADDRESS":"怡平路１４０巷１７弄３號六樓之８","OBJECTID":78466},"geometry":{"x":165856.33000000007,"y":2543806.5700000003}},{"attributes":{"ID":78467,"DIS_CODE":0,"TOWNNAME":"安平區","LI":"建平里","LIN":"19鄰","STREET":"怡平路","SECT":" ","MAREA":" ","LANE":"１４０巷","ALLEY":"１７弄","HOUSE_NO":"３號六樓之９","E_COORD97":165856.32999999999,"N_COORD97":2543806.5699999998,"ADDRESS":"怡平路１４０巷１７弄３號六樓之９","OBJECTID":78467},"geometry":{"x":165856.33000000007,"y":2543806.5700000003}},{"attributes":{"ID":78468,"DIS_CODE":0,"TOWNNAME":"北區","LI":"成功里","LIN":"19鄰","STREET":"北成路","SECT":" ","MAREA":" ","LANE":"１２８巷","ALLEY":"４５弄","HOUSE_NO":"２號二樓","E_COORD97":168954.97,"N_COORD97":2546835.6099999999,"ADDRESS":"北成路１２８巷４５弄２號二樓","OBJECTID":78468},"geometry":{"x":168954.96999999974,"y":2546835.6099999994}},{"attributes":{"ID":78469,"DIS_CODE":0,"TOWNNAME":"安平區","LI":"建平里","LIN":"19鄰","STREET":"怡平路","SECT":" ","MAREA":" ","LANE":"１４０巷","ALLEY":"１７弄","HOUSE_NO":"３號六樓之１０","E_COORD97":165856.32999999999,"N_COORD97":2543806.5699999998,"ADDRESS":"怡平路１４０巷１７弄３號六樓之１０","OBJECTID":78469},"geometry":{"x":165856.33000000007,"y":2543806.5700000003}},{"attributes":{"ID":78470,"DIS_CODE":0,"TOWNNAME":"安平區","LI":"建平里","LIN":"19鄰","STREET":"怡平路","SECT":" ","MAREA":" ","LANE":"１４０巷","ALLEY":"１７弄","HOUSE_NO":"３號六樓之１１","E_COORD97":165856.32999999999,"N_COORD97":2543806.5699999998,"ADDRESS":"怡平路１４０巷１７弄３號六樓之１１","OBJECTID":78470},"geometry":{"x":165856.33000000007,"y":2543806.5700000003}},{"attributes":{"ID":78471,"DIS_CODE":0,"TOWNNAME":"大內區","LI":"石湖里","LIN":"6鄰","STREET":" ","SECT":" ","MAREA":"石子瀨","LANE":" ","ALLEY":" ","HOUSE_NO":"２７４號","E_COORD97":184038.17000000001,"N_COORD97":2558577.25,"ADDRESS":"石子瀨２７４號","OBJECTID":78471},"geometry":{"x":184038.16999999993,"y":2558577.2499999981}},{"attributes":{"ID":78472,"DIS_CODE":0,"TOWNNAME":"安平區","LI":"建平里","LIN":"19鄰","STREET":"怡平路","SECT":" ","MAREA":" ","LANE":"１４０巷","ALLEY":"１７弄","HOUSE_NO":"３號六樓之１２","E_COORD97":165856.32999999999,"N_COORD97":2543806.5699999998,"ADDRESS":"怡平路１４０巷１７弄３號六樓之１２","OBJECTID":78472},"geometry":{"x":165856.33000000007,"y":2543806.5700000003}},{"attributes":{"ID":78473,"DIS_CODE":0,"TOWNNAME":"安平區","LI":"建平里","LIN":"19鄰","STREET":"怡平路","SECT":" ","MAREA":" ","LANE":"１４０巷","ALLEY":"１７弄","HOUSE_NO":"３號六樓之１３","E_COORD97":165856.32999999999,"N_COORD97":2543806.5699999998,"ADDRESS":"怡平路１４０巷１７弄３號六樓之１３","OBJECTID":78473},"geometry":{"x":165856.33000000007,"y":2543806.5700000003}},{"attributes":{"ID":78474,"DIS_CODE":0,"TOWNNAME":"安平區","LI":"建平里","LIN":"19鄰","STREET":"怡平路","SECT":" ","MAREA":" ","LANE":"１４０巷","ALLEY":"１７弄","HOUSE_NO":"３號六樓之１４","E_COORD97":165856.32999999999,"N_COORD97":2543806.5699999998,"ADDRESS":"怡平路１４０巷１７弄３號六樓之１４","OBJECTID":78474},"geometry":{"x":165856.33000000007,"y":2543806.5700000003}},{"attributes":{"ID":78475,"DIS_CODE":0,"TOWNNAME":"安平區","LI":"建平里","LIN":"19鄰","STREET":"怡平路","SECT":" ","MAREA":" ","LANE":"１４０巷","ALLEY":"１７弄","HOUSE_NO":"３號六樓之１５","E_COORD97":165856.32999999999,"N_COORD97":2543806.5699999998,"ADDRESS":"怡平路１４０巷１７弄３號六樓之１５","OBJECTID":78475},"geometry":{"x":165856.33000000007,"y":2543806.5700000003}},{"attributes":{"ID":78476,"DIS_CODE":0,"TOWNNAME":"安平區","LI":"建平里","LIN":"19鄰","STREET":"怡平路","SECT":" ","MAREA":" ","LANE":"１４０巷","ALLEY":"１７弄","HOUSE_NO":"３號六樓之１６","E_COORD97":165856.32999999999,"N_COORD97":2543806.5699999998,"ADDRESS":"怡平路１４０巷１７弄３號六樓之１６","OBJECTID":78476},"geometry":{"x":165856.33000000007,"y":2543806.5700000003}},{"attributes":{"ID":78477,"DIS_CODE":0,"TOWNNAME":"安平區","LI":"建平里","LIN":"19鄰","STREET":"怡平路","SECT":" ","MAREA":" ","LANE":"１４０巷","ALLEY":"１７弄","HOUSE_NO":"３號六樓之１７","E_COORD97":165856.32999999999,"N_COORD97":2543806.5699999998,"ADDRESS":"怡平路１４０巷１７弄３號六樓之１７","OBJECTID":78477},"geometry":{"x":165856.33000000007,"y":2543806.5700000003}},{"attributes":{"ID":78478,"DIS_CODE":0,"TOWNNAME":"永康區","LI":"安康里","LIN":"7鄰","STREET":"中山南路","SECT":" ","MAREA":" ","LANE":" ","ALLEY":" ","HOUSE_NO":"１１１號之３","E_COORD97":170956.78,"N_COORD97":2545934.2999999998,"ADDRESS":"中山南路１１１號之３","OBJECTID":78478},"geometry":{"x":170956.78000000119,"y":2545934.3000000007}},{"attributes":{"ID":78479,"DIS_CODE":0,"TOWNNAME":"永康區","LI":"永康里","LIN":"7鄰","STREET":"永中街","SECT":" ","MAREA":" ","LANE":" ","ALLEY":" ","HOUSE_NO":"８３號","E_COORD97":173950.35999999999,"N_COORD97":2547260.75,"ADDRESS":"永中街８３號","OBJECTID":78479},"geometry":{"x":173950.36000000034,"y":2547260.7500000019}},{"attributes":{"ID":78480,"DIS_CODE":0,"TOWNNAME":"永康區","LI":"甲頂里","LIN":"7鄰","STREET":"中華路","SECT":" ","MAREA":" ","LANE":" ","ALLEY":" ","HOUSE_NO":"９０９號","E_COORD97":170181.76999999999,"N_COORD97":2546872.7400000002,"ADDRESS":"中華路９０９號","OBJECTID":78480},"geometry":{"x":170181.76999999955,"y":2546872.7400000002}},{"attributes":{"ID":78481,"DIS_CODE":0,"TOWNNAME":"中西區","LI":"元安里","LIN":"7鄰","STREET":"永華路","SECT":"一段","MAREA":" ","LANE":" ","ALLEY":" ","HOUSE_NO":"６８號","E_COORD97":167507.10000000001,"N_COORD97":2543133.5699999998,"ADDRESS":"永華路一段６８號","OBJECTID":78481},"geometry":{"x":167507.10000000149,"y":2543133.5700000022}},{"attributes":{"ID":78482,"DIS_CODE":0,"TOWNNAME":"中西區","LI":"元安里","LIN":"7鄰","STREET":"永華路","SECT":"一段","MAREA":" ","LANE":" ","ALLEY":" ","HOUSE_NO":"７０號","E_COORD97":167503.51000000001,"N_COORD97":2543133.7400000002,"ADDRESS":"永華路一段７０號","OBJECTID":78482},"geometry":{"x":167503.51000000071,"y":2543133.7400000002}},{"attributes":{"ID":78483,"DIS_CODE":0,"TOWNNAME":"安平區","LI":"建平里","LIN":"19鄰","STREET":"怡平路","SECT":" ","MAREA":" ","LANE":"１４０巷","ALLEY":"１７弄","HOUSE_NO":"３號六樓之１８","E_COORD97":165856.32999999999,"N_COORD97":2543806.5699999998,"ADDRESS":"怡平路１４０巷１７弄３號六樓之１８","OBJECTID":78483},"geometry":{"x":165856.33000000007,"y":2543806.5700000003}},{"attributes":{"ID":78484,"DIS_CODE":0,"TOWNNAME":"安定區","LI":"新吉里","LIN":"7鄰","STREET":" ","SECT":" ","MAREA":"新吉","LANE":" ","ALLEY":" ","HOUSE_NO":"５８之１２號","E_COORD97":168914.51999999999,"N_COORD97":2553822.2999999998,"ADDRESS":"新吉５８之１２號","OBJECTID":78484},"geometry":{"x":168914.52000000142,"y":2553822.3000000026}},{"attributes":{"ID":78485,"DIS_CODE":0,"TOWNNAME":"安定區","LI":"安定里","LIN":"7鄰","STREET":" ","SECT":" ","MAREA":"安定","LANE":" ","ALLEY":" ","HOUSE_NO":"５２之２號","E_COORD97":171989.07000000001,"N_COORD97":2558000.3199999998,"ADDRESS":"安定５２之２號","OBJECTID":78485},"geometry":{"x":171989.07000000123,"y":2558000.3200000003}},{"attributes":{"ID":78486,"DIS_CODE":0,"TOWNNAME":"安定區","LI":"安定里","LIN":"7鄰","STREET":" ","SECT":" ","MAREA":"安定","LANE":" ","ALLEY":" ","HOUSE_NO":"４７之１６號","E_COORD97":172023.42000000001,"N_COORD97":2557968.3199999998,"ADDRESS":"安定４７之１６號","OBJECTID":78486},"geometry":{"x":172023.42000000086,"y":2557968.3200000022}},{"attributes":{"ID":78487,"DIS_CODE":0,"TOWNNAME":"安定區","LI":"安定里","LIN":"7鄰","STREET":" ","SECT":" ","MAREA":"安定","LANE":" ","ALLEY":" ","HOUSE_NO":"５２之６號","E_COORD97":171990.321605,"N_COORD97":2558019.4868200002,"ADDRESS":"安定５２之６號","OBJECTID":78487},"geometry":{"x":171990.32160500064,"y":2558019.486820003}},{"attributes":{"ID":78488,"DIS_CODE":0,"TOWNNAME":"安定區","LI":"港尾里","LIN":"7鄰","STREET":" ","SECT":" ","MAREA":"港子尾","LANE":" ","ALLEY":" ","HOUSE_NO":"３７之１３號","E_COORD97":171761.73999999999,"N_COORD97":2555780.2999999998,"ADDRESS":"港子尾３７之１３號","OBJECTID":78488},"geometry":{"x":171761.74000000209,"y":2555780.3000000007}},{"attributes":{"ID":78489,"DIS_CODE":0,"TOWNNAME":"安定區","LI":"新吉里","LIN":"7鄰","STREET":" ","SECT":" ","MAREA":"新吉","LANE":" ","ALLEY":" ","HOUSE_NO":"５６之１０１號","E_COORD97":168484.07000000001,"N_COORD97":2553636.2999999998,"ADDRESS":"新吉５６之１０１號","OBJECTID":78489},"geometry":{"x":168484.0700000003,"y":2553636.3000000026}},{"attributes":{"ID":78490,"DIS_CODE":0,"TOWNNAME":"安定區","LI":"新吉里","LIN":"7鄰","STREET":" ","SECT":" ","MAREA":"新吉","LANE":" ","ALLEY":" ","HOUSE_NO":"５６之１５６號","E_COORD97":168375.57000000001,"N_COORD97":2553667.2999999998,"ADDRESS":"新吉５６之１５６號","OBJECTID":78490},"geometry":{"x":168375.5700000003,"y":2553667.3000000007}},{"attributes":{"ID":78491,"DIS_CODE":0,"TOWNNAME":"安定區","LI":"安定里","LIN":"7鄰","STREET":" ","SECT":" ","MAREA":"安定","LANE":" ","ALLEY":" ","HOUSE_NO":"４８號之１","E_COORD97":171961.39999999999,"N_COORD97":2557964.3199999998,"ADDRESS":"安定４８號之１","OBJECTID":78491},"geometry":{"x":171961.4000000013,"y":2557964.3200000022}},{"attributes":{"ID":78492,"DIS_CODE":0,"TOWNNAME":"安定區","LI":"新吉里","LIN":"7鄰","STREET":" ","SECT":" ","MAREA":"新吉","LANE":" ","ALLEY":" ","HOUSE_NO":"５６之１５１號","E_COORD97":168394.26999999999,"N_COORD97":2553660.2999999998,"ADDRESS":"新吉５６之１５１號","OBJECTID":78492},"geometry":{"x":168394.27000000048,"y":2553660.3000000007}},{"attributes":{"ID":78493,"DIS_CODE":0,"TOWNNAME":"新化區","LI":"全興里","LIN":"7鄰","STREET":" ","SECT":" ","MAREA":"竹子\u25A0","LANE":" ","ALLEY":" ","HOUSE_NO":"８７號","E_COORD97":177566.07999999999,"N_COORD97":2547822.25,"ADDRESS":"竹子\u25A0８７號","OBJECTID":78493},"geometry":{"x":177566.08000000007,"y":2547822.25}},{"attributes":{"ID":78494,"DIS_CODE":0,"TOWNNAME":"安定區","LI":"港尾里","LIN":"7鄰","STREET":" ","SECT":" ","MAREA":"港子尾","LANE":" ","ALLEY":" ","HOUSE_NO":"３７之２３號","E_COORD97":172198.04000000001,"N_COORD97":2555628.2999999998,"ADDRESS":"港子尾３７之２３號","OBJECTID":78494},"geometry":{"x":172198.04000000004,"y":2555628.3000000045}},{"attributes":{"ID":78495,"DIS_CODE":0,"TOWNNAME":"大內區","LI":"石林里","LIN":"6鄰","STREET":" ","SECT":" ","MAREA":"石子瀨","LANE":" ","ALLEY":" ","HOUSE_NO":"１７９號之３","E_COORD97":183952.60000000001,"N_COORD97":2558123.2999999998,"ADDRESS":"石子瀨１７９號之３","OBJECTID":78495},"geometry":{"x":183952.60000000056,"y":2558123.3000000007}},{"attributes":{"ID":78496,"DIS_CODE":0,"TOWNNAME":"大內區","LI":"石林里","LIN":"6鄰","STREET":" ","SECT":" ","MAREA":"石子瀨","LANE":" ","ALLEY":" ","HOUSE_NO":"１８３號","E_COORD97":183932.47,"N_COORD97":2558160.2400000002,"ADDRESS":"石子瀨１８３號","OBJECTID":78496},"geometry":{"x":183932.46999999974,"y":2558160.2400000002}},{"attributes":{"ID":78497,"DIS_CODE":0,"TOWNNAME":"大內區","LI":"曲溪里","LIN":"6鄰","STREET":" ","SECT":" ","MAREA":"二重溪","LANE":" ","ALLEY":" ","HOUSE_NO":"６１號","E_COORD97":187275.59,"N_COORD97":2557623.3100000001,"ADDRESS":"二重溪６１號","OBJECTID":78497},"geometry":{"x":187275.59000000078,"y":2557623.3100000005}},{"attributes":{"ID":78498,"DIS_CODE":0,"TOWNNAME":"大內區","LI":"石林里","LIN":"6鄰","STREET":" ","SECT":" ","MAREA":"石子瀨","LANE":" ","ALLEY":" ","HOUSE_NO":"１８０號","E_COORD97":183943.47,"N_COORD97":2558123.25,"ADDRESS":"石子瀨１８０號","OBJECTID":78498},"geometry":{"x":183943.47000000067,"y":2558123.2500000037}},{"attributes":{"ID":78499,"DIS_CODE":0,"TOWNNAME":"大內區","LI":"石城里","LIN":"6鄰","STREET":" ","SECT":" ","MAREA":"石子瀨","LANE":" ","ALLEY":" ","HOUSE_NO":"４９號","E_COORD97":184181.72,"N_COORD97":2557990.25,"ADDRESS":"石子瀨４９號","OBJECTID":78499},"geometry":{"x":184181.71999999974,"y":2557990.25}},{"attributes":{"ID":78500,"DIS_CODE":0,"TOWNNAME":"大內區","LI":"石城里","LIN":"6鄰","STREET":" ","SECT":" ","MAREA":"石子瀨","LANE":" ","ALLEY":" ","HOUSE_NO":"５１號","E_COORD97":184171.22,"N_COORD97":2558035.25,"ADDRESS":"石子瀨５１號","OBJECTID":78500},"geometry":{"x":184171.21999999974,"y":2558035.2500000037}},{"attributes":{"ID":78501,"DIS_CODE":0,"TOWNNAME":"大內區","LI":"石城里","LIN":"6鄰","STREET":" ","SECT":" ","MAREA":"石子瀨","LANE":" ","ALLEY":" ","HOUSE_NO":"５３號","E_COORD97":184183.82000000001,"N_COORD97":2558067.25,"ADDRESS":"石子瀨５３號","OBJECTID":78501},"geometry":{"x":184183.82000000123,"y":2558067.25}},{"attributes":{"ID":78502,"DIS_CODE":0,"TOWNNAME":"安平區","LI":"建平里","LIN":"19鄰","STREET":"怡平路","SECT":" ","MAREA":" ","LANE":"１４０巷","ALLEY":"１７弄","HOUSE_NO":"３號七樓之１","E_COORD97":165856.32999999999,"N_COORD97":2543806.5699999998,"ADDRESS":"怡平路１４０巷１７弄３號七樓之１","OBJECTID":78502},"geometry":{"x":165856.33000000007,"y":2543806.5700000003}},{"attributes":{"ID":78503,"DIS_CODE":0,"TOWNNAME":"大內區","LI":"石城里","LIN":"6鄰","STREET":" ","SECT":" ","MAREA":"石子瀨","LANE":" ","ALLEY":" ","HOUSE_NO":"５８號","E_COORD97":184160.72,"N_COORD97":2558011.25,"ADDRESS":"石子瀨５８號","OBJECTID":78503},"geometry":{"x":184160.72000000067,"y":2558011.2500000037}},{"attributes":{"ID":78504,"DIS_CODE":0,"TOWNNAME":"安平區","LI":"建平里","LIN":"19鄰","STREET":"怡平路","SECT":" ","MAREA":" ","LANE":"１４０巷","ALLEY":"１７弄","HOUSE_NO":"３號七樓之２","E_COORD97":165856.32999999999,"N_COORD97":2543806.5699999998,"ADDRESS":"怡平路１４０巷１７弄３號七樓之２","OBJECTID":78504},"geometry":{"x":165856.33000000007,"y":2543806.5700000003}},{"attributes":{"ID":78505,"DIS_CODE":0,"TOWNNAME":"中西區","LI":"元安里","LIN":"7鄰","STREET":"永華路","SECT":"一段","MAREA":" ","LANE":" ","ALLEY":" ","HOUSE_NO":"７８號","E_COORD97":167477.66,"N_COORD97":2543139.1099999999,"ADDRESS":"永華路一段７８號","OBJECTID":78505},"geometry":{"x":167477.66000000015,"y":2543139.1100000013}},{"attributes":{"ID":78506,"DIS_CODE":0,"TOWNNAME":"安定區","LI":"新吉里","LIN":"7鄰","STREET":" ","SECT":" ","MAREA":"新吉","LANE":" ","ALLEY":" ","HOUSE_NO":"５８號之４","E_COORD97":168973.73000000001,"N_COORD97":2553863.2999999998,"ADDRESS":"新吉５８號之４","OBJECTID":78506},"geometry":{"x":168973.73000000138,"y":2553863.3000000026}},{"attributes":{"ID":78507,"DIS_CODE":0,"TOWNNAME":"安定區","LI":"安定里","LIN":"7鄰","STREET":" ","SECT":" ","MAREA":"安定","LANE":" ","ALLEY":" ","HOUSE_NO":"５０之１號","E_COORD97":171968.07000000001,"N_COORD97":2557904.3199999998,"ADDRESS":"安定５０之１號","OBJECTID":78507},"geometry":{"x":171968.07000000216,"y":2557904.3200000003}},{"attributes":{"ID":78508,"DIS_CODE":0,"TOWNNAME":"安平區","LI":"建平里","LIN":"19鄰","STREET":"怡平路","SECT":" ","MAREA":" ","LANE":"１４０巷","ALLEY":"１７弄","HOUSE_NO":"３號七樓之３","E_COORD97":165856.32999999999,"N_COORD97":2543806.5699999998,"ADDRESS":"怡平路１４０巷１７弄３號七樓之３","OBJECTID":78508},"geometry":{"x":165856.33000000007,"y":2543806.5700000003}},{"attributes":{"ID":78509,"DIS_CODE":0,"TOWNNAME":"安定區","LI":"六嘉里","LIN":"7鄰","STREET":" ","SECT":" ","MAREA":"六塊寮","LANE":" ","ALLEY":" ","HOUSE_NO":"６２號","E_COORD97":170157.51999999999,"N_COORD97":2553322.27,"ADDRESS":"六塊寮６２號","OBJECTID":78509},"geometry":{"x":170157.52000000048,"y":2553322.2700000014}},{"attributes":{"ID":78510,"DIS_CODE":0,"TOWNNAME":"安平區","LI":"建平里","LIN":"19鄰","STREET":"怡平路","SECT":" ","MAREA":" ","LANE":"１４０巷","ALLEY":"１７弄","HOUSE_NO":"３號七樓之５","E_COORD97":165856.32999999999,"N_COORD97":2543806.5699999998,"ADDRESS":"怡平路１４０巷１７弄３號七樓之５","OBJECTID":78510},"geometry":{"x":165856.33000000007,"y":2543806.5700000003}},{"attributes":{"ID":78511,"DIS_CODE":0,"TOWNNAME":"安定區","LI":"港口里","LIN":"7鄰","STREET":" ","SECT":" ","MAREA":"港口","LANE":" ","ALLEY":" ","HOUSE_NO":"２８４之８號","E_COORD97":171501.69,"N_COORD97":2554661.2999999998,"ADDRESS":"港口２８４之８號","OBJECTID":78511},"geometry":{"x":171501.69000000134,"y":2554661.3000000007}},{"attributes":{"ID":78512,"DIS_CODE":0,"TOWNNAME":"安定區","LI":"安定里","LIN":"7鄰","STREET":" ","SECT":" ","MAREA":"安定","LANE":" ","ALLEY":" ","HOUSE_NO":"５４號之４","E_COORD97":171927.53,"N_COORD97":2557866.3199999998,"ADDRESS":"安定５４號之４","OBJECTID":78512},"geometry":{"x":171927.53000000212,"y":2557866.3200000022}},{"attributes":{"ID":78513,"DIS_CODE":0,"TOWNNAME":"安定區","LI":"大同里","LIN":"7鄰","STREET":" ","SECT":" ","MAREA":"大同","LANE":" ","ALLEY":" ","HOUSE_NO":"７２號","E_COORD97":170417.07000000001,"N_COORD97":2553823.25,"ADDRESS":"大同７２號","OBJECTID":78513},"geometry":{"x":170417.07000000123,"y":2553823.25}},{"attributes":{"ID":78514,"DIS_CODE":0,"TOWNNAME":"新營區","LI":"忠政里","LIN":"18鄰","STREET":"中正路","SECT":" ","MAREA":" ","LANE":" ","ALLEY":" ","HOUSE_NO":"２０７號之３","E_COORD97":180031.34,"N_COORD97":2579725.4900000002,"ADDRESS":"中正路２０７號之３","OBJECTID":78514},"geometry":{"x":180031.34000000171,"y":2579725.4900000039}},{"attributes":{"ID":78515,"DIS_CODE":0,"TOWNNAME":"新營區","LI":"五興里","LIN":"13鄰","STREET":" ","SECT":" ","MAREA":"五間厝","LANE":" ","ALLEY":" ","HOUSE_NO":"１３４號","E_COORD97":175442.54999999999,"N_COORD97":2574370,"ADDRESS":"五間厝１３４號","OBJECTID":78515},"geometry":{"x":175442.54999999981,"y":2574370}},{"attributes":{"ID":78516,"DIS_CODE":0,"TOWNNAME":"安定區","LI":"大同里","LIN":"7鄰","STREET":" ","SECT":" ","MAREA":"大同","LANE":" ","ALLEY":" ","HOUSE_NO":"７１之１號","E_COORD97":170410.57000000001,"N_COORD97":2553815.2999999998,"ADDRESS":"大同７１之１號","OBJECTID":78516},"geometry":{"x":170410.57000000123,"y":2553815.3000000026}},{"attributes":{"ID":78517,"DIS_CODE":0,"TOWNNAME":"安平區","LI":"建平里","LIN":"19鄰","STREET":"怡平路","SECT":" ","MAREA":" ","LANE":"１４０巷","ALLEY":"１７弄","HOUSE_NO":"３號七樓之６","E_COORD97":165856.32999999999,"N_COORD97":2543806.5699999998,"ADDRESS":"怡平路１４０巷１７弄３號七樓之６","OBJECTID":78517},"geometry":{"x":165856.33000000007,"y":2543806.5700000003}},{"attributes":{"ID":78518,"DIS_CODE":0,"TOWNNAME":"柳營區","LI":"光福里","LIN":"8鄰","STREET":"福德二街","SECT":" ","MAREA":" ","LANE":" ","ALLEY":" ","HOUSE_NO":"１６號","E_COORD97":179764.35000000001,"N_COORD97":2575147.8500000001,"ADDRESS":"福德二街１６號","OBJECTID":78518},"geometry":{"x":179764.34999999963,"y":2575147.8499999996}},{"attributes":{"ID":78519,"DIS_CODE":0,"TOWNNAME":"大內區","LI":"頭社里","LIN":"6鄰","STREET":" ","SECT":" ","MAREA":"頭社","LANE":" ","ALLEY":" ","HOUSE_NO":"７２號","E_COORD97":187220.04000000001,"N_COORD97":2560383.25,"ADDRESS":"頭社７２號","OBJECTID":78519},"geometry":{"x":187220.04000000097,"y":2560383.25}},{"attributes":{"ID":78520,"DIS_CODE":0,"TOWNNAME":"安定區","LI":"安定里","LIN":"7鄰","STREET":" ","SECT":" ","MAREA":"安定","LANE":" ","ALLEY":" ","HOUSE_NO":"５２之２０號","E_COORD97":172006.47209600001,"N_COORD97":2558059.4388799998,"ADDRESS":"安定５２之２０號","OBJECTID":78520},"geometry":{"x":172006.4720960008,"y":2558059.4388820007}},{"attributes":{"ID":78521,"DIS_CODE":0,"TOWNNAME":"安定區","LI":"港口里","LIN":"7鄰","STREET":" ","SECT":" ","MAREA":"港口","LANE":" ","ALLEY":" ","HOUSE_NO":"２８１之３號","E_COORD97":171462.29000000001,"N_COORD97":2554634.2999999998,"ADDRESS":"港口２８１之３號","OBJECTID":78521},"geometry":{"x":171462.29000000004,"y":2554634.3000000007}},{"attributes":{"ID":78522,"DIS_CODE":0,"TOWNNAME":"安定區","LI":"六嘉里","LIN":"7鄰","STREET":" ","SECT":" ","MAREA":"六塊寮","LANE":" ","ALLEY":" ","HOUSE_NO":"６３之９號","E_COORD97":170187.12,"N_COORD97":2553294.2999999998,"ADDRESS":"六塊寮６３之９號","OBJECTID":78522},"geometry":{"x":170187.12000000011,"y":2553294.3000000007}},{"attributes":{"ID":78523,"DIS_CODE":0,"TOWNNAME":"安定區","LI":"安加里","LIN":"7鄰","STREET":" ","SECT":" ","MAREA":"安定","LANE":" ","ALLEY":" ","HOUSE_NO":"２２３號之２","E_COORD97":171874.59,"N_COORD97":2557456.3199999998,"ADDRESS":"安定２２３號之２","OBJECTID":78523},"geometry":{"x":171874.59000000078,"y":2557456.3200000022}},{"attributes":{"ID":78524,"DIS_CODE":0,"TOWNNAME":"安定區","LI":"保西里","LIN":"7鄰","STREET":" ","SECT":" ","MAREA":"安定","LANE":" ","ALLEY":" ","HOUSE_NO":"３８９之１號","E_COORD97":171614.51999999999,"N_COORD97":2557774.3199999998,"ADDRESS":"安定３８９之１號","OBJECTID":78524},"geometry":{"x":171614.51999999955,"y":2557774.3200000022}},{"attributes":{"ID":78525,"DIS_CODE":0,"TOWNNAME":"柳營區","LI":"光福里","LIN":"8鄰","STREET":"福德二街","SECT":" ","MAREA":" ","LANE":" ","ALLEY":" ","HOUSE_NO":"２號","E_COORD97":179769.98999999999,"N_COORD97":2575105.2599999998,"ADDRESS":"福德二街２號","OBJECTID":78525},"geometry":{"x":179769.99000000115,"y":2575105.2600000035}},{"attributes":{"ID":78526,"DIS_CODE":0,"TOWNNAME":"新化區","LI":"全興里","LIN":"7鄰","STREET":" ","SECT":" ","MAREA":"竹子\u25A0","LANE":" ","ALLEY":" ","HOUSE_NO":"９９號之２","E_COORD97":177423.14000000001,"N_COORD97":2547808.2599999998,"ADDRESS":"竹子\u25A0９９號之２","OBJECTID":78526},"geometry":{"x":177423.13999999966,"y":2547808.2599999998}},{"attributes":{"ID":78527,"DIS_CODE":0,"TOWNNAME":"安平區","LI":"建平里","LIN":"19鄰","STREET":"怡平路","SECT":" ","MAREA":" ","LANE":"１４０巷","ALLEY":"１７弄","HOUSE_NO":"３號七樓之７","E_COORD97":165856.32999999999,"N_COORD97":2543806.5699999998,"ADDRESS":"怡平路１４０巷１７弄３號七樓之７","OBJECTID":78527},"geometry":{"x":165856.33000000007,"y":2543806.5700000003}},{"attributes":{"ID":78528,"DIS_CODE":0,"TOWNNAME":"安平區","LI":"建平里","LIN":"19鄰","STREET":"怡平路","SECT":" ","MAREA":" ","LANE":"１４０巷","ALLEY":"１７弄","HOUSE_NO":"３號七樓之８","E_COORD97":165856.32999999999,"N_COORD97":2543806.5699999998,"ADDRESS":"怡平路１４０巷１７弄３號七樓之８","OBJECTID":78528},"geometry":{"x":165856.33000000007,"y":2543806.5700000003}},{"attributes":{"ID":78529,"DIS_CODE":0,"TOWNNAME":"新化區","LI":"山\u25A0里","LIN":"7鄰","STREET":" ","SECT":" ","MAREA":"頂山\u25A0","LANE":" ","ALLEY":" ","HOUSE_NO":"１４１號之１","E_COORD97":179690.95999999999,"N_COORD97":2546794.2599999998,"ADDRESS":"頂山\u25A0１４１號之１","OBJECTID":78529},"geometry":{"x":179690.95999999996,"y":2546794.2599999998}},{"attributes":{"ID":78530,"DIS_CODE":0,"TOWNNAME":"安平區","LI":"建平里","LIN":"19鄰","STREET":"怡平路","SECT":" ","MAREA":" ","LANE":"１４０巷","ALLEY":"１７弄","HOUSE_NO":"３號七樓之９","E_COORD97":165856.32999999999,"N_COORD97":2543806.5699999998,"ADDRESS":"怡平路１４０巷１７弄３號七樓之９","OBJECTID":78530},"geometry":{"x":165856.33000000007,"y":2543806.5700000003}},{"attributes":{"ID":78531,"DIS_CODE":0,"TOWNNAME":"安平區","LI":"建平里","LIN":"19鄰","STREET":"怡平路","SECT":" ","MAREA":" ","LANE":"１４０巷","ALLEY":"１７弄","HOUSE_NO":"３號七樓之１０","E_COORD97":165856.32999999999,"N_COORD97":2543806.5699999998,"ADDRESS":"怡平路１４０巷１７弄３號七樓之１０","OBJECTID":78531},"geometry":{"x":165856.33000000007,"y":2543806.5700000003}},{"attributes":{"ID":78532,"DIS_CODE":0,"TOWNNAME":"大內區","LI":"石林里","LIN":"6鄰","STREET":" ","SECT":" ","MAREA":"石子瀨","LANE":" ","ALLEY":" ","HOUSE_NO":"１７９號之１","E_COORD97":183961.5,"N_COORD97":2558125.2999999998,"ADDRESS":"石子瀨１７９號之１","OBJECTID":78532},"geometry":{"x":183961.49999999907,"y":2558125.3000000007}},{"attributes":{"ID":78533,"DIS_CODE":0,"TOWNNAME":"安平區","LI":"建平里","LIN":"19鄰","STREET":"怡平路","SECT":" ","MAREA":" ","LANE":"１４０巷","ALLEY":"１７弄","HOUSE_NO":"３號七樓之１１","E_COORD97":165856.32999999999,"N_COORD97":2543806.5699999998,"ADDRESS":"怡平路１４０巷１７弄３號七樓之１１","OBJECTID":78533},"geometry":{"x":165856.33000000007,"y":2543806.5700000003}},{"attributes":{"ID":78534,"DIS_CODE":0,"TOWNNAME":"大內區","LI":"頭社里","LIN":"6鄰","STREET":" ","SECT":" ","MAREA":"頭社","LANE":" ","ALLEY":" ","HOUSE_NO":"８３之１３號","E_COORD97":187494.39000000001,"N_COORD97":2560552.2999999998,"ADDRESS":"頭社８３之１３號","OBJECTID":78534},"geometry":{"x":187494.38999999966,"y":2560552.3000000026}},{"attributes":{"ID":78535,"DIS_CODE":0,"TOWNNAME":"安平區","LI":"建平里","LIN":"19鄰","STREET":"怡平路","SECT":" ","MAREA":" ","LANE":"１４０巷","ALLEY":"１７弄","HOUSE_NO":"３號七樓之１２","E_COORD97":165856.32999999999,"N_COORD97":2543806.5699999998,"ADDRESS":"怡平路１４０巷１７弄３號七樓之１２","OBJECTID":78535},"geometry":{"x":165856.33000000007,"y":2543806.5700000003}},{"attributes":{"ID":78536,"DIS_CODE":0,"TOWNNAME":"安平區","LI":"建平里","LIN":"19鄰","STREET":"怡平路","SECT":" ","MAREA":" ","LANE":"１４０巷","ALLEY":"１７弄","HOUSE_NO":"３號七樓之１３","E_COORD97":165856.32999999999,"N_COORD97":2543806.5699999998,"ADDRESS":"怡平路１４０巷１７弄３號七樓之１３","OBJECTID":78536},"geometry":{"x":165856.33000000007,"y":2543806.5700000003}},{"attributes":{"ID":78537,"DIS_CODE":0,"TOWNNAME":"安平區","LI":"建平里","LIN":"19鄰","STREET":"怡平路","SECT":" ","MAREA":" ","LANE":"１４０巷","ALLEY":"１７弄","HOUSE_NO":"３號七樓之１４","E_COORD97":165856.32999999999,"N_COORD97":2543806.5699999998,"ADDRESS":"怡平路１４０巷１７弄３號七樓之１４","OBJECTID":78537},"geometry":{"x":165856.33000000007,"y":2543806.5700000003}},{"attributes":{"ID":78538,"DIS_CODE":0,"TOWNNAME":"安平區","LI":"建平里","LIN":"19鄰","STREET":"怡平路","SECT":" ","MAREA":" ","LANE":"１４０巷","ALLEY":"１７弄","HOUSE_NO":"３號七樓之１５","E_COORD97":165856.32999999999,"N_COORD97":2543806.5699999998,"ADDRESS":"怡平路１４０巷１７弄３號七樓之１５","OBJECTID":78538},"geometry":{"x":165856.33000000007,"y":2543806.5700000003}},{"attributes":{"ID":78539,"DIS_CODE":0,"TOWNNAME":"大內區","LI":"石城里","LIN":"6鄰","STREET":" ","SECT":" ","MAREA":"石子瀨","LANE":" ","ALLEY":" ","HOUSE_NO":"５７號之１","E_COORD97":184147.95000000001,"N_COORD97":2558033.2999999998,"ADDRESS":"石子瀨５７號之１","OBJECTID":78539},"geometry":{"x":184147.95000000019,"y":2558033.3000000026}},{"attributes":{"ID":78540,"DIS_CODE":0,"TOWNNAME":"大內區","LI":"內郭里","LIN":"6鄰","STREET":" ","SECT":" ","MAREA":"內庄","LANE":" ","ALLEY":" ","HOUSE_NO":"２０６號","E_COORD97":184755.78,"N_COORD97":2557299.25,"ADDRESS":"內庄２０６號","OBJECTID":78540},"geometry":{"x":184755.78000000119,"y":2557299.2500000037}},{"attributes":{"ID":78541,"DIS_CODE":0,"TOWNNAME":"大內區","LI":"二溪里","LIN":"6鄰","STREET":" ","SECT":" ","MAREA":"二重溪","LANE":" ","ALLEY":" ","HOUSE_NO":"１９９號之２","E_COORD97":187986.60999999999,"N_COORD97":2558050.3100000001,"ADDRESS":"二重溪１９９號之２","OBJECTID":78541},"geometry":{"x":187986.61000000034,"y":2558050.3100000024}},{"attributes":{"ID":78542,"DIS_CODE":0,"TOWNNAME":"大內區","LI":"二溪里","LIN":"6鄰","STREET":" ","SECT":" ","MAREA":"二重溪","LANE":" ","ALLEY":" ","HOUSE_NO":"１９４號","E_COORD97":187809.73999999999,"N_COORD97":2558080.3100000001,"ADDRESS":"二重溪１９４號","OBJECTID":78542},"geometry":{"x":187809.74000000022,"y":2558080.3100000024}},{"attributes":{"ID":78543,"DIS_CODE":0,"TOWNNAME":"大內區","LI":"內江里","LIN":"6鄰","STREET":" ","SECT":" ","MAREA":"內庄","LANE":" ","ALLEY":" ","HOUSE_NO":"２８３號","E_COORD97":184507.48000000001,"N_COORD97":2557474.25,"ADDRESS":"內庄２８３號","OBJECTID":78543},"geometry":{"x":184507.48000000045,"y":2557474.25}},{"attributes":{"ID":78544,"DIS_CODE":0,"TOWNNAME":"大內區","LI":"內江里","LIN":"6鄰","STREET":" ","SECT":" ","MAREA":"內庄","LANE":" ","ALLEY":" ","HOUSE_NO":"２７７號","E_COORD97":184524.38,"N_COORD97":2557469.25,"ADDRESS":"內庄２７７號","OBJECTID":78544},"geometry":{"x":184524.37999999989,"y":2557469.2500000019}},{"attributes":{"ID":78545,"DIS_CODE":0,"TOWNNAME":"大內區","LI":"大內里","LIN":"6鄰","STREET":" ","SECT":" ","MAREA":"內庄","LANE":" ","ALLEY":" ","HOUSE_NO":"７９號之６","E_COORD97":184684.17000000001,"N_COORD97":2557578.2999999998,"ADDRESS":"內庄７９號之６","OBJECTID":78545},"geometry":{"x":184684.17000000179,"y":2557578.3000000026}},{"attributes":{"ID":78546,"DIS_CODE":0,"TOWNNAME":"安平區","LI":"建平里","LIN":"19鄰","STREET":"怡平路","SECT":" ","MAREA":" ","LANE":"１４０巷","ALLEY":"１７弄","HOUSE_NO":"３號七樓之１６","E_COORD97":165856.32999999999,"N_COORD97":2543806.5699999998,"ADDRESS":"怡平路１４０巷１７弄３號七樓之１６","OBJECTID":78546},"geometry":{"x":165856.33000000007,"y":2543806.5700000003}},{"attributes":{"ID":78547,"DIS_CODE":0,"TOWNNAME":"大內區","LI":"大內里","LIN":"6鄰","STREET":" ","SECT":" ","MAREA":"內庄","LANE":" ","ALLEY":" ","HOUSE_NO":"７９號之５","E_COORD97":184677.72,"N_COORD97":2557582.2999999998,"ADDRESS":"內庄７９號之５","OBJECTID":78547},"geometry":{"x":184677.72000000067,"y":2557582.3000000026}},{"attributes":{"ID":78548,"DIS_CODE":0,"TOWNNAME":"大內區","LI":"大內里","LIN":"6鄰","STREET":" ","SECT":" ","MAREA":"內庄","LANE":" ","ALLEY":" ","HOUSE_NO":"７４號之１","E_COORD97":184642.35999999999,"N_COORD97":2557616.2999999998,"ADDRESS":"內庄７４號之１","OBJECTID":78548},"geometry":{"x":184642.36000000034,"y":2557616.3000000026}},{"attributes":{"ID":78549,"DIS_CODE":0,"TOWNNAME":"安平區","LI":"建平里","LIN":"19鄰","STREET":"怡平路","SECT":" ","MAREA":" ","LANE":"１４０巷","ALLEY":"１７弄","HOUSE_NO":"３號七樓之１７","E_COORD97":165856.32999999999,"N_COORD97":2543806.5699999998,"ADDRESS":"怡平路１４０巷１７弄３號七樓之１７","OBJECTID":78549},"geometry":{"x":165856.33000000007,"y":2543806.5700000003}},{"attributes":{"ID":78550,"DIS_CODE":0,"TOWNNAME":"安平區","LI":"建平里","LIN":"19鄰","STREET":"怡平路","SECT":" ","MAREA":" ","LANE":"１４０巷","ALLEY":"１７弄","HOUSE_NO":"３號七樓之１８","E_COORD97":165856.32999999999,"N_COORD97":2543806.5699999998,"ADDRESS":"怡平路１４０巷１７弄３號七樓之１８","OBJECTID":78550},"geometry":{"x":165856.33000000007,"y":2543806.5700000003}},{"attributes":{"ID":78551,"DIS_CODE":0,"TOWNNAME":"新化區","LI":"太平里","LIN":"7鄰","STREET":"民生路","SECT":" ","MAREA":" ","LANE":"３１４巷","ALLEY":" ","HOUSE_NO":"３３號","E_COORD97":179024.35999999999,"N_COORD97":2549244.25,"ADDRESS":"民生路３１４巷３３號","OBJECTID":78551},"geometry":{"x":179024.36000000034,"y":2549244.2500000019}},{"attributes":{"ID":78552,"DIS_CODE":0,"TOWNNAME":"柳營區","LI":"大農里","LIN":"8鄰","STREET":"德元埤大道","SECT":" ","MAREA":" ","LANE":" ","ALLEY":" ","HOUSE_NO":"１７號","E_COORD97":184349.29999999999,"N_COORD97":2575646.3399999999,"ADDRESS":"德元埤大道１７號","OBJECTID":78552},"geometry":{"x":184349.30000000168,"y":2575646.3399999999}},{"attributes":{"ID":78553,"DIS_CODE":0,"TOWNNAME":"新營區","LI":"忠政里","LIN":"18鄰","STREET":"中正路","SECT":" ","MAREA":" ","LANE":" ","ALLEY":" ","HOUSE_NO":"２０７號","E_COORD97":180066.95000000001,"N_COORD97":2579724.1499999999,"ADDRESS":"中正路２０７號","OBJECTID":78553},"geometry":{"x":180066.95000000112,"y":2579724.1499999985}},{"attributes":{"ID":78554,"DIS_CODE":0,"TOWNNAME":"大內區","LI":"大內里","LIN":"6鄰","STREET":" ","SECT":" ","MAREA":"內庄","LANE":" ","ALLEY":" ","HOUSE_NO":"７９號之１","E_COORD97":184699.26000000001,"N_COORD97":2557600.2999999998,"ADDRESS":"內庄７９號之１","OBJECTID":78554},"geometry":{"x":184699.26000000071,"y":2557600.3000000007}},{"attributes":{"ID":78555,"DIS_CODE":0,"TOWNNAME":"大內區","LI":"大內里","LIN":"6鄰","STREET":" ","SECT":" ","MAREA":"內庄","LANE":" ","ALLEY":" ","HOUSE_NO":"７８號","E_COORD97":184675.13,"N_COORD97":2557599.25,"ADDRESS":"內庄７８號","OBJECTID":78555},"geometry":{"x":184675.13000000082,"y":2557599.2500000019}},{"attributes":{"ID":78556,"DIS_CODE":0,"TOWNNAME":"麻豆區","LI":"油車里","LIN":"6鄰","STREET":" ","SECT":" ","MAREA":"油車","LANE":" ","ALLEY":" ","HOUSE_NO":"２號之９","E_COORD97":172566.26999999999,"N_COORD97":2565380.8700000001,"ADDRESS":"油車２號之９","OBJECTID":78556},"geometry":{"x":172566.27000000048,"y":2565380.870000001}},{"attributes":{"ID":78557,"DIS_CODE":0,"TOWNNAME":"安平區","LI":"建平里","LIN":"19鄰","STREET":"怡平路","SECT":" ","MAREA":" ","LANE":"１４０巷","ALLEY":"１７弄","HOUSE_NO":"３號八樓之１","E_COORD97":165856.32999999999,"N_COORD97":2543806.5699999998,"ADDRESS":"怡平路１４０巷１７弄３號八樓之１","OBJECTID":78557},"geometry":{"x":165856.33000000007,"y":2543806.5700000003}},{"attributes":{"ID":78558,"DIS_CODE":0,"TOWNNAME":"安平區","LI":"建平里","LIN":"19鄰","STREET":"怡平路","SECT":" ","MAREA":" ","LANE":"１４０巷","ALLEY":"１７弄","HOUSE_NO":"３號八樓之２","E_COORD97":165856.32999999999,"N_COORD97":2543806.5699999998,"ADDRESS":"怡平路１４０巷１７弄３號八樓之２","OBJECTID":78558},"geometry":{"x":165856.33000000007,"y":2543806.5700000003}},{"attributes":{"ID":78559,"DIS_CODE":0,"TOWNNAME":"麻豆區","LI":"油車里","LIN":"6鄰","STREET":" ","SECT":" ","MAREA":"油車","LANE":" ","ALLEY":" ","HOUSE_NO":"７號之２８","E_COORD97":172676.47,"N_COORD97":2565343.5099999998,"ADDRESS":"油車７號之２８","OBJECTID":78559},"geometry":{"x":172676.46999999974,"y":2565343.5100000016}},{"attributes":{"ID":78560,"DIS_CODE":0,"TOWNNAME":"安平區","LI":"建平里","LIN":"19鄰","STREET":"怡平路","SECT":" ","MAREA":" ","LANE":"１４０巷","ALLEY":"１７弄","HOUSE_NO":"３號八樓之３","E_COORD97":165856.32999999999,"N_COORD97":2543806.5699999998,"ADDRESS":"怡平路１４０巷１７弄３號八樓之３","OBJECTID":78560},"geometry":{"x":165856.33000000007,"y":2543806.5700000003}},{"attributes":{"ID":78561,"DIS_CODE":0,"TOWNNAME":"安平區","LI":"建平里","LIN":"19鄰","STREET":"怡平路","SECT":" ","MAREA":" ","LANE":"１４０巷","ALLEY":"１７弄","HOUSE_NO":"３號八樓之５","E_COORD97":165856.32999999999,"N_COORD97":2543806.5699999998,"ADDRESS":"怡平路１４０巷１７弄３號八樓之５","OBJECTID":78561},"geometry":{"x":165856.33000000007,"y":2543806.5700000003}},{"attributes":{"ID":78562,"DIS_CODE":0,"TOWNNAME":"佳里區","LI":"六安里","LIN":"19鄰","STREET":"延平路","SECT":" ","MAREA":" ","LANE":"５７７巷","ALLEY":"１弄","HOUSE_NO":"３４號","E_COORD97":165813.89000000001,"N_COORD97":2563510.3900000001,"ADDRESS":"延平路５７７巷１弄３４號","OBJECTID":78562},"geometry":{"x":165813.8900000006,"y":2563510.3900000043}},{"attributes":{"ID":78563,"DIS_CODE":0,"TOWNNAME":"安平區","LI":"建平里","LIN":"19鄰","STREET":"怡平路","SECT":" ","MAREA":" ","LANE":"１４０巷","ALLEY":"１７弄","HOUSE_NO":"３號八樓之６","E_COORD97":165856.32999999999,"N_COORD97":2543806.5699999998,"ADDRESS":"怡平路１４０巷１７弄３號八樓之６","OBJECTID":78563},"geometry":{"x":165856.33000000007,"y":2543806.5700000003}},{"attributes":{"ID":78564,"DIS_CODE":0,"TOWNNAME":"安平區","LI":"建平里","LIN":"19鄰","STREET":"怡平路","SECT":" ","MAREA":" ","LANE":"１４０巷","ALLEY":"１７弄","HOUSE_NO":"３號八樓之７","E_COORD97":165856.32999999999,"N_COORD97":2543806.5699999998,"ADDRESS":"怡平路１４０巷１７弄３號八樓之７","OBJECTID":78564},"geometry":{"x":165856.33000000007,"y":2543806.5700000003}},{"attributes":{"ID":78565,"DIS_CODE":0,"TOWNNAME":"麻豆區","LI":"油車里","LIN":"6鄰","STREET":" ","SECT":" ","MAREA":"油車","LANE":" ","ALLEY":" ","HOUSE_NO":"２號","E_COORD97":172543.10999999999,"N_COORD97":2565381.6899999999,"ADDRESS":"油車２號","OBJECTID":78565},"geometry":{"x":172543.11000000127,"y":2565381.6900000032}},{"attributes":{"ID":78566,"DIS_CODE":0,"TOWNNAME":"安平區","LI":"建平里","LIN":"19鄰","STREET":"怡平路","SECT":" ","MAREA":" ","LANE":"１４０巷","ALLEY":"１７弄","HOUSE_NO":"３號八樓之８","E_COORD97":165856.32999999999,"N_COORD97":2543806.5699999998,"ADDRESS":"怡平路１４０巷１７弄３號八樓之８","OBJECTID":78566},"geometry":{"x":165856.33000000007,"y":2543806.5700000003}},{"attributes":{"ID":78567,"DIS_CODE":0,"TOWNNAME":"安平區","LI":"建平里","LIN":"19鄰","STREET":"怡平路","SECT":" ","MAREA":" ","LANE":"１４０巷","ALLEY":"１７弄","HOUSE_NO":"３號八樓之９","E_COORD97":165856.32999999999,"N_COORD97":2543806.5699999998,"ADDRESS":"怡平路１４０巷１７弄３號八樓之９","OBJECTID":78567},"geometry":{"x":165856.33000000007,"y":2543806.5700000003}},{"attributes":{"ID":78568,"DIS_CODE":0,"TOWNNAME":"安平區","LI":"建平里","LIN":"19鄰","STREET":"怡平路","SECT":" ","MAREA":" ","LANE":"１４０巷","ALLEY":"１７弄","HOUSE_NO":"３號八樓之１０","E_COORD97":165856.32999999999,"N_COORD97":2543806.5699999998,"ADDRESS":"怡平路１４０巷１７弄３號八樓之１０","OBJECTID":78568},"geometry":{"x":165856.33000000007,"y":2543806.5700000003}},{"attributes":{"ID":78569,"DIS_CODE":0,"TOWNNAME":"安平區","LI":"建平里","LIN":"19鄰","STREET":"怡平路","SECT":" ","MAREA":" ","LANE":"１４０巷","ALLEY":"１７弄","HOUSE_NO":"３號八樓之１１","E_COORD97":165856.32999999999,"N_COORD97":2543806.5699999998,"ADDRESS":"怡平路１４０巷１７弄３號八樓之１１","OBJECTID":78569},"geometry":{"x":165856.33000000007,"y":2543806.5700000003}},{"attributes":{"ID":78570,"DIS_CODE":0,"TOWNNAME":"安南區","LI":"鳳凰里","LIN":"28鄰","STREET":"安中路","SECT":"一段","MAREA":" ","LANE":"６２２巷","ALLEY":"８８弄","HOUSE_NO":"１３號","E_COORD97":168077.44,"N_COORD97":2549111.1800000002,"ADDRESS":"安中路一段６２２巷８８弄１３號","OBJECTID":78570},"geometry":{"x":168077.44000000134,"y":2549111.1799999997}},{"attributes":{"ID":78571,"DIS_CODE":0,"TOWNNAME":"麻豆區","LI":"油車里","LIN":"6鄰","STREET":" ","SECT":" ","MAREA":"油車","LANE":" ","ALLEY":" ","HOUSE_NO":"４號之３","E_COORD97":172632.97,"N_COORD97":2565371.1499999999,"ADDRESS":"油車４號之３","OBJECTID":78571},"geometry":{"x":172632.97000000067,"y":2565371.1500000004}},{"attributes":{"ID":78572,"DIS_CODE":0,"TOWNNAME":"麻豆區","LI":"油車里","LIN":"6鄰","STREET":" ","SECT":" ","MAREA":"油車","LANE":" ","ALLEY":" ","HOUSE_NO":"３號之１","E_COORD97":172602.17000000001,"N_COORD97":2565342.0099999998,"ADDRESS":"油車３號之１","OBJECTID":78572},"geometry":{"x":172602.16999999993,"y":2565342.0099999998}},{"attributes":{"ID":78573,"DIS_CODE":0,"TOWNNAME":"麻豆區","LI":"油車里","LIN":"6鄰","STREET":" ","SECT":" ","MAREA":"油車","LANE":" ","ALLEY":" ","HOUSE_NO":"３號之２","E_COORD97":172601.98000000001,"N_COORD97":2565366,"ADDRESS":"油車３號之２","OBJECTID":78573},"geometry":{"x":172601.98000000045,"y":2565366}},{"attributes":{"ID":78574,"DIS_CODE":0,"TOWNNAME":"麻豆區","LI":"油車里","LIN":"6鄰","STREET":" ","SECT":" ","MAREA":"油車","LANE":" ","ALLEY":" ","HOUSE_NO":"３號","E_COORD97":172584.79999999999,"N_COORD97":2565336.1499999999,"ADDRESS":"油車３號","OBJECTID":78574},"geometry":{"x":172584.80000000075,"y":2565336.1500000022}},{"attributes":{"ID":78575,"DIS_CODE":0,"TOWNNAME":"麻豆區","LI":"油車里","LIN":"6鄰","STREET":" ","SECT":" ","MAREA":"油車","LANE":" ","ALLEY":" ","HOUSE_NO":"５號之１","E_COORD97":172641.79999999999,"N_COORD97":2565345.8700000001,"ADDRESS":"油車５號之１","OBJECTID":78575},"geometry":{"x":172641.79999999981,"y":2565345.8700000029}},{"attributes":{"ID":78576,"DIS_CODE":0,"TOWNNAME":"麻豆區","LI":"油車里","LIN":"6鄰","STREET":" ","SECT":" ","MAREA":"油車","LANE":" ","ALLEY":" ","HOUSE_NO":"５號","E_COORD97":172637.70999999999,"N_COORD97":2565345.9300000002,"ADDRESS":"油車５號","OBJECTID":78576},"geometry":{"x":172637.70999999996,"y":2565345.9299999997}},{"attributes":{"ID":78577,"DIS_CODE":0,"TOWNNAME":"麻豆區","LI":"油車里","LIN":"6鄰","STREET":" ","SECT":" ","MAREA":"油車","LANE":" ","ALLEY":" ","HOUSE_NO":"７號之１０","E_COORD97":172653.48000000001,"N_COORD97":2565371.0499999998,"ADDRESS":"油車７號之１０","OBJECTID":78577},"geometry":{"x":172653.47999999952,"y":2565371.0500000026}},{"attributes":{"ID":78578,"DIS_CODE":0,"TOWNNAME":"麻豆區","LI":"油車里","LIN":"6鄰","STREET":" ","SECT":" ","MAREA":"油車","LANE":" ","ALLEY":" ","HOUSE_NO":"７號之１１","E_COORD97":172653.48999999999,"N_COORD97":2565375.3900000001,"ADDRESS":"油車７號之１１","OBJECTID":78578},"geometry":{"x":172653.49000000115,"y":2565375.3900000025}},{"attributes":{"ID":78579,"DIS_CODE":0,"TOWNNAME":"麻豆區","LI":"油車里","LIN":"6鄰","STREET":" ","SECT":" ","MAREA":"油車","LANE":" ","ALLEY":" ","HOUSE_NO":"７號之１２","E_COORD97":172652.97,"N_COORD97":2565379.4100000001,"ADDRESS":"油車７號之１２","OBJECTID":78579},"geometry":{"x":172652.9700000016,"y":2565379.4100000001}},{"attributes":{"ID":78580,"DIS_CODE":0,"TOWNNAME":"麻豆區","LI":"油車里","LIN":"6鄰","STREET":" ","SECT":" ","MAREA":"油車","LANE":" ","ALLEY":" ","HOUSE_NO":"７號之１３","E_COORD97":172671.22,"N_COORD97":2565379.2400000002,"ADDRESS":"油車７號之１３","OBJECTID":78580},"geometry":{"x":172671.21999999974,"y":2565379.2400000021}},{"attributes":{"ID":78581,"DIS_CODE":0,"TOWNNAME":"麻豆區","LI":"油車里","LIN":"6鄰","STREET":" ","SECT":" ","MAREA":"油車","LANE":" ","ALLEY":" ","HOUSE_NO":"７號之１４","E_COORD97":172675.03,"N_COORD97":2565379.7200000002,"ADDRESS":"油車７號之１４","OBJECTID":78581},"geometry":{"x":172675.02999999933,"y":2565379.7200000044}},{"attributes":{"ID":78582,"DIS_CODE":0,"TOWNNAME":"麻豆區","LI":"油車里","LIN":"6鄰","STREET":" ","SECT":" ","MAREA":"油車","LANE":" ","ALLEY":" ","HOUSE_NO":"７號之１５","E_COORD97":172679.59,"N_COORD97":2565379.9700000002,"ADDRESS":"油車７號之１５","OBJECTID":78582},"geometry":{"x":172679.59000000078,"y":2565379.9700000007}},{"attributes":{"ID":78583,"DIS_CODE":0,"TOWNNAME":"麻豆區","LI":"油車里","LIN":"6鄰","STREET":" ","SECT":" ","MAREA":"油車","LANE":" ","ALLEY":" ","HOUSE_NO":"７號之１６","E_COORD97":172683.73999999999,"N_COORD97":2565380.2999999998,"ADDRESS":"油車７號之１６","OBJECTID":78583},"geometry":{"x":172683.73999999929,"y":2565380.3000000026}},{"attributes":{"ID":78584,"DIS_CODE":0,"TOWNNAME":"麻豆區","LI":"油車里","LIN":"6鄰","STREET":" ","SECT":" ","MAREA":"油車","LANE":" ","ALLEY":" ","HOUSE_NO":"７號之１７","E_COORD97":172687.63,"N_COORD97":2565380.8399999999,"ADDRESS":"油車７號之１７","OBJECTID":78584},"geometry":{"x":172687.63000000175,"y":2565380.8399999999}},{"attributes":{"ID":78585,"DIS_CODE":0,"TOWNNAME":"麻豆區","LI":"油車里","LIN":"6鄰","STREET":" ","SECT":" ","MAREA":"油車","LANE":" ","ALLEY":" ","HOUSE_NO":"７號之１８","E_COORD97":172691.38,"N_COORD97":2565381.25,"ADDRESS":"油車７號之１８","OBJECTID":78585},"geometry":{"x":172691.38000000082,"y":2565381.25}},{"attributes":{"ID":78586,"DIS_CODE":0,"TOWNNAME":"麻豆區","LI":"油車里","LIN":"6鄰","STREET":" ","SECT":" ","MAREA":"油車","LANE":" ","ALLEY":" ","HOUSE_NO":"７號之１９","E_COORD97":172696.01999999999,"N_COORD97":2565382.0899999999,"ADDRESS":"油車７號之１９","OBJECTID":78586},"geometry":{"x":172696.01999999955,"y":2565382.0899999999}},{"attributes":{"ID":78587,"DIS_CODE":0,"TOWNNAME":"麻豆區","LI":"油車里","LIN":"6鄰","STREET":" ","SECT":" ","MAREA":"油車","LANE":" ","ALLEY":" ","HOUSE_NO":"７號之１","E_COORD97":172658.14999999999,"N_COORD97":2565333.8799999999,"ADDRESS":"油車７號之１","OBJECTID":78587},"geometry":{"x":172658.1500000013,"y":2565333.8800000008}},{"attributes":{"ID":78588,"DIS_CODE":0,"TOWNNAME":"麻豆區","LI":"油車里","LIN":"6鄰","STREET":" ","SECT":" ","MAREA":"油車","LANE":" ","ALLEY":" ","HOUSE_NO":"７號之２０","E_COORD97":172699.89999999999,"N_COORD97":2565382.4100000001,"ADDRESS":"油車７號之２０","OBJECTID":78588},"geometry":{"x":172699.90000000224,"y":2565382.410000002}},{"attributes":{"ID":78589,"DIS_CODE":0,"TOWNNAME":"麻豆區","LI":"油車里","LIN":"6鄰","STREET":" ","SECT":" ","MAREA":"油車","LANE":" ","ALLEY":" ","HOUSE_NO":"７號之２１","E_COORD97":172700.13,"N_COORD97":2565363.96,"ADDRESS":"油車７號之２１","OBJECTID":78589},"geometry":{"x":172700.13000000082,"y":2565363.9600000009}},{"attributes":{"ID":78590,"DIS_CODE":0,"TOWNNAME":"麻豆區","LI":"油車里","LIN":"6鄰","STREET":" ","SECT":" ","MAREA":"油車","LANE":" ","ALLEY":" ","HOUSE_NO":"７號之２２","E_COORD97":172695.76999999999,"N_COORD97":2565363.2200000002,"ADDRESS":"油車７號之２２","OBJECTID":78590},"geometry":{"x":172695.76999999955,"y":2565363.2200000025}},{"attributes":{"ID":78591,"DIS_CODE":0,"TOWNNAME":"麻豆區","LI":"油車里","LIN":"6鄰","STREET":" ","SECT":" ","MAREA":"油車","LANE":" ","ALLEY":" ","HOUSE_NO":"７號之２３","E_COORD97":172691.38,"N_COORD97":2565362.8500000001,"ADDRESS":"油車７號之２３","OBJECTID":78591},"geometry":{"x":172691.38000000082,"y":2565362.8499999996}},{"attributes":{"ID":78592,"DIS_CODE":0,"TOWNNAME":"麻豆區","LI":"油車里","LIN":"6鄰","STREET":" ","SECT":" ","MAREA":"油車","LANE":" ","ALLEY":" ","HOUSE_NO":"７號之２４","E_COORD97":172686.91,"N_COORD97":2565362.3900000001,"ADDRESS":"油車７號之２４","OBJECTID":78592},"geometry":{"x":172686.91000000015,"y":2565362.3900000025}},{"attributes":{"ID":78593,"DIS_CODE":0,"TOWNNAME":"麻豆區","LI":"油車里","LIN":"6鄰","STREET":" ","SECT":" ","MAREA":"油車","LANE":" ","ALLEY":" ","HOUSE_NO":"７號之２５","E_COORD97":172682.92999999999,"N_COORD97":2565362.0899999999,"ADDRESS":"油車７號之２５","OBJECTID":78593},"geometry":{"x":172682.9299999997,"y":2565362.0899999999}},{"attributes":{"ID":78594,"DIS_CODE":0,"TOWNNAME":"麻豆區","LI":"油車里","LIN":"6鄰","STREET":" ","SECT":" ","MAREA":"油車","LANE":" ","ALLEY":" ","HOUSE_NO":"７號之２６","E_COORD97":172678.70999999999,"N_COORD97":2565361.6000000001,"ADDRESS":"油車７號之２６","OBJECTID":78594},"geometry":{"x":172678.71000000183,"y":2565361.5999999996}},{"attributes":{"ID":78595,"DIS_CODE":0,"TOWNNAME":"麻豆區","LI":"油車里","LIN":"6鄰","STREET":" ","SECT":" ","MAREA":"油車","LANE":" ","ALLEY":" ","HOUSE_NO":"７號之２７","E_COORD97":172674.17999999999,"N_COORD97":2565360.9300000002,"ADDRESS":"油車７號之２７","OBJECTID":78595},"geometry":{"x":172674.18000000063,"y":2565360.9300000016}},{"attributes":{"ID":78596,"DIS_CODE":0,"TOWNNAME":"麻豆區","LI":"油車里","LIN":"6鄰","STREET":" ","SECT":" ","MAREA":"油車","LANE":" ","ALLEY":" ","HOUSE_NO":"７號之２９","E_COORD97":172680.51999999999,"N_COORD97":2565344.1099999999,"ADDRESS":"油車７號之２９","OBJECTID":78596},"geometry":{"x":172680.51999999955,"y":2565344.1099999994}},{"attributes":{"ID":78597,"DIS_CODE":0,"TOWNNAME":"麻豆區","LI":"油車里","LIN":"6鄰","STREET":" ","SECT":" ","MAREA":"油車","LANE":" ","ALLEY":" ","HOUSE_NO":"７號之２","E_COORD97":172657.73999999999,"N_COORD97":2565338.0099999998,"ADDRESS":"油車７號之２","OBJECTID":78597},"geometry":{"x":172657.74000000022,"y":2565338.0099999998}},{"attributes":{"ID":78598,"DIS_CODE":0,"TOWNNAME":"麻豆區","LI":"油車里","LIN":"6鄰","STREET":" ","SECT":" ","MAREA":"油車","LANE":" ","ALLEY":" ","HOUSE_NO":"７號之３０","E_COORD97":172684.63,"N_COORD97":2565344.4199999999,"ADDRESS":"油車７號之３０","OBJECTID":78598},"geometry":{"x":172684.63000000082,"y":2565344.4200000018}},{"attributes":{"ID":78599,"DIS_CODE":0,"TOWNNAME":"麻豆區","LI":"油車里","LIN":"6鄰","STREET":" ","SECT":" ","MAREA":"油車","LANE":" ","ALLEY":" ","HOUSE_NO":"７號之３１","E_COORD97":172688.73999999999,"N_COORD97":2565345.1200000001,"ADDRESS":"油車７號之３１","OBJECTID":78599},"geometry":{"x":172688.74000000022,"y":2565345.120000001}},{"attributes":{"ID":78600,"DIS_CODE":0,"TOWNNAME":"麻豆區","LI":"油車里","LIN":"6鄰","STREET":" ","SECT":" ","MAREA":"油車","LANE":" ","ALLEY":" ","HOUSE_NO":"７號之３２","E_COORD97":172693.20999999999,"N_COORD97":2565345.6299999999,"ADDRESS":"油車７號之３２","OBJECTID":78600},"geometry":{"x":172693.20999999996,"y":2565345.6300000008}}]}