{"displayFieldName":"TOWNNAME","fieldAliases":{"ID":"ID","DIS_CODE":"DIS_CODE","TOWNNAME":"TOWNNAME","LI":"LI","LIN":"LIN","STREET":"STREET","SECT":"SECT","MAREA":"MAREA","LANE":"LANE","ALLEY":"ALLEY","HOUSE_NO":"HOUSE_NO","E_COORD97":"E_COORD97","N_COORD97":"N_COORD97","ADDRESS":"ADDRESS","OBJECTID":"OBJECTID"},"geometryType":"esriGeometryPoint","spatialReference":{"wkid":102443,"latestWkid":3826},"fields":[{"name":"ID","type":"esriFieldTypeDouble","alias":"ID"},{"name":"DIS_CODE","type":"esriFieldTypeInteger","alias":"DIS_CODE"},{"name":"TOWNNAME","type":"esriFieldTypeString","alias":"TOWNNAME","length":8},{"name":"LI","type":"esriFieldTypeString","alias":"LI","length":8},{"name":"LIN","type":"esriFieldTypeString","alias":"LIN","length":12},{"name":"STREET","type":"esriFieldTypeString","alias":"STREET","length":20},{"name":"SECT","type":"esriFieldTypeString","alias":"SECT","length":8},{"name":"MAREA","type":"esriFieldTypeString","alias":"MAREA","length":12},{"name":"LANE","type":"esriFieldTypeString","alias":"LANE","length":10},{"name":"ALLEY","type":"esriFieldTypeString","alias":"ALLEY","length":10},{"name":"HOUSE_NO","type":"esriFieldTypeString","alias":"HOUSE_NO","length":20},{"name":"E_COORD97","type":"esriFieldTypeDouble","alias":"E_COORD97"},{"name":"N_COORD97","type":"esriFieldTypeDouble","alias":"N_COORD97"},{"name":"ADDRESS","type":"esriFieldTypeString","alias":"ADDRESS","length":50},{"name":"OBJECTID","type":"esriFieldTypeOID","alias":"OBJECTID"}],"features":[{"attributes":{"ID":611828,"DIS_CODE":0,"TOWNNAME":"中西區","LI":"文賢里","LIN":"3鄰","STREET":"文和街","SECT":" ","MAREA":" ","LANE":" ","ALLEY":" ","HOUSE_NO":"３１號","E_COORD97":167250.66,"N_COORD97":2544932.2400000002,"ADDRESS":"文和街３１號","OBJECTID":611801},"geometry":{"x":167250.66000000015,"y":2544932.2400000021}},{"attributes":{"ID":611829,"DIS_CODE":0,"TOWNNAME":"中西區","LI":"文賢里","LIN":"3鄰","STREET":"文和街","SECT":" ","MAREA":" ","LANE":" ","ALLEY":" ","HOUSE_NO":"３３號","E_COORD97":167242.29000000001,"N_COORD97":2544922.48,"ADDRESS":"文和街３３號","OBJECTID":611802},"geometry":{"x":167242.29000000097,"y":2544922.4800000004}},{"attributes":{"ID":611830,"DIS_CODE":0,"TOWNNAME":"中西區","LI":"文賢里","LIN":"3鄰","STREET":"文和街","SECT":" ","MAREA":" ","LANE":" ","ALLEY":" ","HOUSE_NO":"３５號","E_COORD97":167238.10000000001,"N_COORD97":2544919.0600000001,"ADDRESS":"文和街３５號","OBJECTID":611803},"geometry":{"x":167238.10000000056,"y":2544919.0600000005}},{"attributes":{"ID":611831,"DIS_CODE":0,"TOWNNAME":"中西區","LI":"文賢里","LIN":"3鄰","STREET":"文和街","SECT":" ","MAREA":" ","LANE":" ","ALLEY":" ","HOUSE_NO":"３７號","E_COORD97":167234.92999999999,"N_COORD97":2544916.1400000001,"ADDRESS":"文和街３７號","OBJECTID":611804},"geometry":{"x":167234.9299999997,"y":2544916.1400000025}},{"attributes":{"ID":611832,"DIS_CODE":0,"TOWNNAME":"中西區","LI":"文賢里","LIN":"3鄰","STREET":"文和街","SECT":" ","MAREA":" ","LANE":" ","ALLEY":" ","HOUSE_NO":"３９號","E_COORD97":167230.87,"N_COORD97":2544912.98,"ADDRESS":"文和街３９號","OBJECTID":611805},"geometry":{"x":167230.87000000011,"y":2544912.9799999986}},{"attributes":{"ID":611833,"DIS_CODE":0,"TOWNNAME":"中西區","LI":"文賢里","LIN":"3鄰","STREET":"文和街","SECT":" ","MAREA":" ","LANE":" ","ALLEY":" ","HOUSE_NO":"４１號","E_COORD97":167227.16,"N_COORD97":2544910.3799999999,"ADDRESS":"文和街４１號","OBJECTID":611806},"geometry":{"x":167227.16000000015,"y":2544910.3800000008}},{"attributes":{"ID":611834,"DIS_CODE":0,"TOWNNAME":"中西區","LI":"文賢里","LIN":"3鄰","STREET":"文和街","SECT":" ","MAREA":" ","LANE":" ","ALLEY":" ","HOUSE_NO":"４３號","E_COORD97":167223.82000000001,"N_COORD97":2544906.7599999998,"ADDRESS":"文和街４３號","OBJECTID":611807},"geometry":{"x":167223.82000000123,"y":2544906.7599999998}},{"attributes":{"ID":611835,"DIS_CODE":0,"TOWNNAME":"中西區","LI":"文賢里","LIN":"3鄰","STREET":"文和街","SECT":" ","MAREA":" ","LANE":" ","ALLEY":" ","HOUSE_NO":"４５號","E_COORD97":167221.78,"N_COORD97":2544903.1299999999,"ADDRESS":"文和街４５號","OBJECTID":611808},"geometry":{"x":167221.78000000212,"y":2544903.129999999}},{"attributes":{"ID":611836,"DIS_CODE":0,"TOWNNAME":"中西區","LI":"文賢里","LIN":"3鄰","STREET":"文和街","SECT":" ","MAREA":" ","LANE":" ","ALLEY":" ","HOUSE_NO":"５７號","E_COORD97":167213.64999999999,"N_COORD97":2544897.4700000002,"ADDRESS":"文和街５７號","OBJECTID":611809},"geometry":{"x":167213.65000000037,"y":2544897.4700000025}},{"attributes":{"ID":611837,"DIS_CODE":0,"TOWNNAME":"中西區","LI":"文賢里","LIN":"3鄰","STREET":"文和街","SECT":" ","MAREA":" ","LANE":" ","ALLEY":" ","HOUSE_NO":"５９號","E_COORD97":167210.73999999999,"N_COORD97":2544893.8399999999,"ADDRESS":"文和街５９號","OBJECTID":611810},"geometry":{"x":167210.74000000115,"y":2544893.8400000017}},{"attributes":{"ID":611838,"DIS_CODE":0,"TOWNNAME":"中西區","LI":"文賢里","LIN":"3鄰","STREET":"文和街","SECT":" ","MAREA":" ","LANE":" ","ALLEY":" ","HOUSE_NO":"５９號之１","E_COORD97":167206.87,"N_COORD97":2544887.96,"ADDRESS":"文和街５９號之１","OBJECTID":611811},"geometry":{"x":167206.87000000011,"y":2544887.9600000028}},{"attributes":{"ID":611839,"DIS_CODE":0,"TOWNNAME":"中西區","LI":"文賢里","LIN":"3鄰","STREET":"文和街","SECT":" ","MAREA":" ","LANE":" ","ALLEY":" ","HOUSE_NO":"６１號","E_COORD97":167200.62,"N_COORD97":2544884.5699999998,"ADDRESS":"文和街６１號","OBJECTID":611812},"geometry":{"x":167200.62000000197,"y":2544884.5700000003}},{"attributes":{"ID":611840,"DIS_CODE":0,"TOWNNAME":"中西區","LI":"文賢里","LIN":"3鄰","STREET":"文和街","SECT":" ","MAREA":" ","LANE":" ","ALLEY":" ","HOUSE_NO":"６３號","E_COORD97":167197.64000000001,"N_COORD97":2544880.1400000001,"ADDRESS":"文和街６３號","OBJECTID":611813},"geometry":{"x":167197.63999999966,"y":2544880.1400000006}},{"attributes":{"ID":611841,"DIS_CODE":0,"TOWNNAME":"中西區","LI":"文賢里","LIN":"3鄰","STREET":"文和街","SECT":" ","MAREA":" ","LANE":" ","ALLEY":" ","HOUSE_NO":"６５號","E_COORD97":167194.73000000001,"N_COORD97":2544876.6600000001,"ADDRESS":"文和街６５號","OBJECTID":611814},"geometry":{"x":167194.73000000045,"y":2544876.6600000001}},{"attributes":{"ID":611842,"DIS_CODE":0,"TOWNNAME":"中西區","LI":"文賢里","LIN":"3鄰","STREET":"文和街","SECT":" ","MAREA":" ","LANE":" ","ALLEY":" ","HOUSE_NO":"６７號","E_COORD97":167191.25,"N_COORD97":2544874.3399999999,"ADDRESS":"文和街６７號","OBJECTID":611815},"geometry":{"x":167191.25000000093,"y":2544874.3400000017}},{"attributes":{"ID":611843,"DIS_CODE":0,"TOWNNAME":"中西區","LI":"文賢里","LIN":"3鄰","STREET":"文和街","SECT":" ","MAREA":" ","LANE":" ","ALLEY":" ","HOUSE_NO":"６９號","E_COORD97":167187.60999999999,"N_COORD97":2544871.29,"ADDRESS":"文和街６９號","OBJECTID":611816},"geometry":{"x":167187.61000000127,"y":2544871.2899999991}},{"attributes":{"ID":611844,"DIS_CODE":0,"TOWNNAME":"中西區","LI":"文賢里","LIN":"3鄰","STREET":"文和街","SECT":" ","MAREA":" ","LANE":" ","ALLEY":" ","HOUSE_NO":"７１號","E_COORD97":167185.10999999999,"N_COORD97":2544868.77,"ADDRESS":"文和街７１號","OBJECTID":611817},"geometry":{"x":167185.11000000034,"y":2544868.7699999996}},{"attributes":{"ID":611845,"DIS_CODE":0,"TOWNNAME":"中西區","LI":"文賢里","LIN":"3鄰","STREET":"文和街","SECT":" ","MAREA":" ","LANE":" ","ALLEY":" ","HOUSE_NO":"７３號","E_COORD97":167181.04000000001,"N_COORD97":2544864.5600000001,"ADDRESS":"文和街７３號","OBJECTID":611818},"geometry":{"x":167181.04000000097,"y":2544864.5600000005}},{"attributes":{"ID":611846,"DIS_CODE":0,"TOWNNAME":"中西區","LI":"文賢里","LIN":"3鄰","STREET":"文和街","SECT":" ","MAREA":" ","LANE":" ","ALLEY":" ","HOUSE_NO":"７５號","E_COORD97":167178.28,"N_COORD97":2544861.3700000001,"ADDRESS":"文和街７５號","OBJECTID":611819},"geometry":{"x":167178.28000000119,"y":2544861.3700000029}},{"attributes":{"ID":611847,"DIS_CODE":0,"TOWNNAME":"中西區","LI":"文賢里","LIN":"3鄰","STREET":"文和街","SECT":" ","MAREA":" ","LANE":" ","ALLEY":" ","HOUSE_NO":"７７號","E_COORD97":167175.95999999999,"N_COORD97":2544858.3199999998,"ADDRESS":"文和街７７號","OBJECTID":611820},"geometry":{"x":167175.95999999903,"y":2544858.3200000003}},{"attributes":{"ID":611848,"DIS_CODE":0,"TOWNNAME":"中西區","LI":"文賢里","LIN":"3鄰","STREET":"文和街","SECT":" ","MAREA":" ","LANE":" ","ALLEY":" ","HOUSE_NO":"７９號","E_COORD97":167172.17999999999,"N_COORD97":2544855.71,"ADDRESS":"文和街７９號","OBJECTID":611821},"geometry":{"x":167172.1799999997,"y":2544855.7100000028}},{"attributes":{"ID":611849,"DIS_CODE":0,"TOWNNAME":"中西區","LI":"文賢里","LIN":"3鄰","STREET":"文和街","SECT":" ","MAREA":" ","LANE":" ","ALLEY":" ","HOUSE_NO":"８９號","E_COORD97":167155.91,"N_COORD97":2544839.1699999999,"ADDRESS":"文和街８９號","OBJECTID":611822},"geometry":{"x":167155.91000000015,"y":2544839.1699999999}},{"attributes":{"ID":611850,"DIS_CODE":0,"TOWNNAME":"中西區","LI":"普濟里","LIN":"3鄰","STREET":"民族路","SECT":"三段","MAREA":" ","LANE":" ","ALLEY":" ","HOUSE_NO":"１０號","E_COORD97":167918.34,"N_COORD97":2544262.02,"ADDRESS":"民族路三段１０號","OBJECTID":611823},"geometry":{"x":167918.34000000078,"y":2544262.0200000014}},{"attributes":{"ID":611851,"DIS_CODE":0,"TOWNNAME":"中西區","LI":"普濟里","LIN":"3鄰","STREET":"民族路","SECT":"三段","MAREA":" ","LANE":" ","ALLEY":" ","HOUSE_NO":"１２號","E_COORD97":167913.19,"N_COORD97":2544263.7400000002,"ADDRESS":"民族路三段１２號","OBJECTID":611824},"geometry":{"x":167913.19000000134,"y":2544263.7400000039}},{"attributes":{"ID":611852,"DIS_CODE":0,"TOWNNAME":"中西區","LI":"普濟里","LIN":"3鄰","STREET":"民族路","SECT":"三段","MAREA":" ","LANE":" ","ALLEY":" ","HOUSE_NO":"１４號","E_COORD97":167908.39000000001,"N_COORD97":2544264.5899999999,"ADDRESS":"民族路三段１４號","OBJECTID":611825},"geometry":{"x":167908.38999999966,"y":2544264.5900000017}},{"attributes":{"ID":611853,"DIS_CODE":0,"TOWNNAME":"中西區","LI":"普濟里","LIN":"3鄰","STREET":"民族路","SECT":"三段","MAREA":" ","LANE":" ","ALLEY":" ","HOUSE_NO":"１６號","E_COORD97":167904.62,"N_COORD97":2544267.5099999998,"ADDRESS":"民族路三段１６號","OBJECTID":611826},"geometry":{"x":167904.62000000104,"y":2544267.5099999998}},{"attributes":{"ID":611854,"DIS_CODE":0,"TOWNNAME":"中西區","LI":"普濟里","LIN":"3鄰","STREET":"民族路","SECT":"三段","MAREA":" ","LANE":" ","ALLEY":" ","HOUSE_NO":"２６號","E_COORD97":167888.51000000001,"N_COORD97":2544275.1200000001,"ADDRESS":"民族路三段２６號","OBJECTID":611827},"geometry":{"x":167888.50999999978,"y":2544275.120000001}},{"attributes":{"ID":611855,"DIS_CODE":0,"TOWNNAME":"中西區","LI":"普濟里","LIN":"3鄰","STREET":"民族路","SECT":"三段","MAREA":" ","LANE":" ","ALLEY":" ","HOUSE_NO":"２８號","E_COORD97":167881.73000000001,"N_COORD97":2544275.6000000001,"ADDRESS":"民族路三段２８號","OBJECTID":611828},"geometry":{"x":167881.73000000231,"y":2544275.6000000015}},{"attributes":{"ID":611856,"DIS_CODE":0,"TOWNNAME":"中西區","LI":"普濟里","LIN":"3鄰","STREET":"民族路","SECT":"三段","MAREA":" ","LANE":" ","ALLEY":" ","HOUSE_NO":"２號","E_COORD97":167935.84,"N_COORD97":2544255.1699999999,"ADDRESS":"民族路三段２號","OBJECTID":611829},"geometry":{"x":167935.83999999985,"y":2544255.1700000018}},{"attributes":{"ID":611857,"DIS_CODE":0,"TOWNNAME":"中西區","LI":"普濟里","LIN":"3鄰","STREET":"民族路","SECT":"三段","MAREA":" ","LANE":" ","ALLEY":" ","HOUSE_NO":"３０號","E_COORD97":167877.78,"N_COORD97":2544277.96,"ADDRESS":"民族路三段３０號","OBJECTID":611830},"geometry":{"x":167877.78000000212,"y":2544277.9600000028}},{"attributes":{"ID":611858,"DIS_CODE":0,"TOWNNAME":"中西區","LI":"普濟里","LIN":"3鄰","STREET":"民族路","SECT":"三段","MAREA":" ","LANE":" ","ALLEY":" ","HOUSE_NO":"３２號","E_COORD97":167873.84,"N_COORD97":2544279.0600000001,"ADDRESS":"民族路三段３２號","OBJECTID":611831},"geometry":{"x":167873.84000000078,"y":2544279.0600000024}},{"attributes":{"ID":611859,"DIS_CODE":0,"TOWNNAME":"中西區","LI":"普濟里","LIN":"3鄰","STREET":"民族路","SECT":"三段","MAREA":" ","LANE":" ","ALLEY":" ","HOUSE_NO":"３４號","E_COORD97":167869.89999999999,"N_COORD97":2544280.6299999999,"ADDRESS":"民族路三段３４號","OBJECTID":611832},"geometry":{"x":167869.90000000037,"y":2544280.6300000008}},{"attributes":{"ID":611860,"DIS_CODE":0,"TOWNNAME":"中西區","LI":"普濟里","LIN":"3鄰","STREET":"民族路","SECT":"三段","MAREA":" ","LANE":" ","ALLEY":" ","HOUSE_NO":"４號","E_COORD97":167932.92000000001,"N_COORD97":2544256.8799999999,"ADDRESS":"民族路三段４號","OBJECTID":611833},"geometry":{"x":167932.92000000086,"y":2544256.879999999}},{"attributes":{"ID":611861,"DIS_CODE":0,"TOWNNAME":"中西區","LI":"普濟里","LIN":"3鄰","STREET":"民族路","SECT":"三段","MAREA":" ","LANE":" ","ALLEY":" ","HOUSE_NO":"６號","E_COORD97":167928.12,"N_COORD97":2544258.0800000001,"ADDRESS":"民族路三段６號","OBJECTID":611834},"geometry":{"x":167928.12000000104,"y":2544258.0800000019}},{"attributes":{"ID":611862,"DIS_CODE":0,"TOWNNAME":"中西區","LI":"普濟里","LIN":"3鄰","STREET":"民族路","SECT":"三段","MAREA":" ","LANE":" ","ALLEY":" ","HOUSE_NO":"８號","E_COORD97":167922.63,"N_COORD97":2544260.6499999999,"ADDRESS":"民族路三段８號","OBJECTID":611835},"geometry":{"x":167922.63000000082,"y":2544260.6500000004}},{"attributes":{"ID":611863,"DIS_CODE":0,"TOWNNAME":"中西區","LI":"普濟里","LIN":"3鄰","STREET":"西門路","SECT":"二段","MAREA":" ","LANE":" ","ALLEY":" ","HOUSE_NO":"３３５號","E_COORD97":167935.84,"N_COORD97":2544268.8799999999,"ADDRESS":"西門路二段３３５號","OBJECTID":611836},"geometry":{"x":167935.83999999985,"y":2544268.8800000008}},{"attributes":{"ID":611864,"DIS_CODE":0,"TOWNNAME":"中西區","LI":"普濟里","LIN":"3鄰","STREET":"國華街","SECT":"三段","MAREA":" ","LANE":" ","ALLEY":" ","HOUSE_NO":"１９１號","E_COORD97":167891.19,"N_COORD97":2544279.8500000001,"ADDRESS":"國華街三段１９１號","OBJECTID":611837},"geometry":{"x":167891.19000000134,"y":2544279.8500000015}},{"attributes":{"ID":611865,"DIS_CODE":0,"TOWNNAME":"中西區","LI":"普濟里","LIN":"3鄰","STREET":"國華街","SECT":"三段","MAREA":" ","LANE":" ","ALLEY":" ","HOUSE_NO":"１９３號","E_COORD97":167891.98000000001,"N_COORD97":2544284.8900000001,"ADDRESS":"國華街三段１９３號","OBJECTID":611838},"geometry":{"x":167891.98000000138,"y":2544284.8900000025}},{"attributes":{"ID":611866,"DIS_CODE":0,"TOWNNAME":"中西區","LI":"普濟里","LIN":"3鄰","STREET":"國華街","SECT":"三段","MAREA":" ","LANE":" ","ALLEY":" ","HOUSE_NO":"１９５號","E_COORD97":167895.13,"N_COORD97":2544288.8300000001,"ADDRESS":"國華街三段１９５號","OBJECTID":611839},"geometry":{"x":167895.12999999989,"y":2544288.8300000001}},{"attributes":{"ID":611867,"DIS_CODE":0,"TOWNNAME":"中西區","LI":"普濟里","LIN":"3鄰","STREET":"國華街","SECT":"三段","MAREA":" ","LANE":" ","ALLEY":" ","HOUSE_NO":"１９６號","E_COORD97":167904.62,"N_COORD97":2544274.8700000001,"ADDRESS":"國華街三段１９６號","OBJECTID":611840},"geometry":{"x":167904.62000000104,"y":2544274.8700000029}},{"attributes":{"ID":611868,"DIS_CODE":0,"TOWNNAME":"中西區","LI":"普濟里","LIN":"3鄰","STREET":"國華街","SECT":"三段","MAREA":" ","LANE":" ","ALLEY":" ","HOUSE_NO":"１９９號","E_COORD97":167891.98999999999,"N_COORD97":2544305.3500000001,"ADDRESS":"國華街三段１９９號","OBJECTID":611841},"geometry":{"x":167891.99000000115,"y":2544305.3499999996}},{"attributes":{"ID":611869,"DIS_CODE":0,"TOWNNAME":"中西區","LI":"普濟里","LIN":"3鄰","STREET":"國華街","SECT":"三段","MAREA":" ","LANE":" ","ALLEY":" ","HOUSE_NO":"２００號","E_COORD97":167906.32999999999,"N_COORD97":2544284.2999999998,"ADDRESS":"國華街三段２００號","OBJECTID":611842},"geometry":{"x":167906.33000000101,"y":2544284.3000000045}},{"attributes":{"ID":611870,"DIS_CODE":0,"TOWNNAME":"中西區","LI":"普濟里","LIN":"3鄰","STREET":"國華街","SECT":"三段","MAREA":" ","LANE":" ","ALLEY":" ","HOUSE_NO":"２０１號","E_COORD97":167895.10999999999,"N_COORD97":2544309.25,"ADDRESS":"國華街三段２０１號","OBJECTID":611843},"geometry":{"x":167895.11000000034,"y":2544309.25}},{"attributes":{"ID":611871,"DIS_CODE":0,"TOWNNAME":"中西區","LI":"普濟里","LIN":"3鄰","STREET":"國華街","SECT":"三段","MAREA":" ","LANE":" ","ALLEY":" ","HOUSE_NO":"２０３號","E_COORD97":167895.57999999999,"N_COORD97":2544314.71,"ADDRESS":"國華街三段２０３號","OBJECTID":611844},"geometry":{"x":167895.58000000007,"y":2544314.7100000009}},{"attributes":{"ID":611872,"DIS_CODE":0,"TOWNNAME":"中西區","LI":"普濟里","LIN":"3鄰","STREET":"國華街","SECT":"三段","MAREA":" ","LANE":" ","ALLEY":" ","HOUSE_NO":"２０５號","E_COORD97":167898.54999999999,"N_COORD97":2544317.8300000001,"ADDRESS":"國華街三段２０５號","OBJECTID":611845},"geometry":{"x":167898.54999999981,"y":2544317.8300000019}},{"attributes":{"ID":611873,"DIS_CODE":0,"TOWNNAME":"中西區","LI":"普濟里","LIN":"3鄰","STREET":"慈聖街","SECT":" ","MAREA":" ","LANE":" ","ALLEY":" ","HOUSE_NO":"３號","E_COORD97":167883.87,"N_COORD97":2544294.7400000002,"ADDRESS":"慈聖街３號","OBJECTID":611846},"geometry":{"x":167883.87000000197,"y":2544294.7400000021}},{"attributes":{"ID":611874,"DIS_CODE":0,"TOWNNAME":"中西區","LI":"普濟里","LIN":"3鄰","STREET":"慈聖街","SECT":" ","MAREA":" ","LANE":" ","ALLEY":" ","HOUSE_NO":"５號","E_COORD97":167887.31,"N_COORD97":2544297.5499999998,"ADDRESS":"慈聖街５號","OBJECTID":611847},"geometry":{"x":167887.31000000052,"y":2544297.5500000026}},{"attributes":{"ID":611875,"DIS_CODE":0,"TOWNNAME":"中西區","LI":"普濟里","LIN":"3鄰","STREET":"民族路","SECT":"三段","MAREA":" ","LANE":" ","ALLEY":" ","HOUSE_NO":"３６號","E_COORD97":167863.59,"N_COORD97":2544283.79,"ADDRESS":"民族路三段３６號","OBJECTID":611848},"geometry":{"x":167863.59000000078,"y":2544283.790000001}},{"attributes":{"ID":611876,"DIS_CODE":0,"TOWNNAME":"中西區","LI":"普濟里","LIN":"3鄰","STREET":"民族路","SECT":"三段","MAREA":" ","LANE":" ","ALLEY":" ","HOUSE_NO":"３６號底層","E_COORD97":167852.23000000001,"N_COORD97":2544287.4199999999,"ADDRESS":"民族路三段３６號底層","OBJECTID":611849},"geometry":{"x":167852.23000000045,"y":2544287.4200000018}},{"attributes":{"ID":611877,"DIS_CODE":0,"TOWNNAME":"中西區","LI":"普濟里","LIN":"3鄰","STREET":"民族路","SECT":"三段","MAREA":" ","LANE":" ","ALLEY":" ","HOUSE_NO":"４６號","E_COORD97":167846.54999999999,"N_COORD97":2544289.3100000001,"ADDRESS":"民族路三段４６號","OBJECTID":611850},"geometry":{"x":167846.55000000168,"y":2544289.3100000005}},{"attributes":{"ID":611878,"DIS_CODE":0,"TOWNNAME":"中西區","LI":"普濟里","LIN":"3鄰","STREET":"民族路","SECT":"三段","MAREA":" ","LANE":" ","ALLEY":" ","HOUSE_NO":"４８號","E_COORD97":167841.51000000001,"N_COORD97":2544292.1400000001,"ADDRESS":"民族路三段４８號","OBJECTID":611851},"geometry":{"x":167841.50999999978,"y":2544292.1400000025}},{"attributes":{"ID":611879,"DIS_CODE":0,"TOWNNAME":"中西區","LI":"普濟里","LIN":"3鄰","STREET":"普濟街","SECT":" ","MAREA":" ","LANE":" ","ALLEY":" ","HOUSE_NO":"５２號","E_COORD97":167847.73000000001,"N_COORD97":2544306.79,"ADDRESS":"普濟街５２號","OBJECTID":611852},"geometry":{"x":167847.73000000231,"y":2544306.790000001}},{"attributes":{"ID":611880,"DIS_CODE":0,"TOWNNAME":"中西區","LI":"普濟里","LIN":"3鄰","STREET":"普濟街","SECT":" ","MAREA":" ","LANE":" ","ALLEY":" ","HOUSE_NO":"５４號","E_COORD97":167850.01000000001,"N_COORD97":2544311.8500000001,"ADDRESS":"普濟街５４號","OBJECTID":611853},"geometry":{"x":167850.00999999978,"y":2544311.8499999996}},{"attributes":{"ID":611881,"DIS_CODE":0,"TOWNNAME":"中西區","LI":"普濟里","LIN":"3鄰","STREET":"普濟街","SECT":" ","MAREA":" ","LANE":" ","ALLEY":" ","HOUSE_NO":"５６號","E_COORD97":167852.17000000001,"N_COORD97":2544315.27,"ADDRESS":"普濟街５６號","OBJECTID":611854},"geometry":{"x":167852.16999999993,"y":2544315.2699999996}},{"attributes":{"ID":611882,"DIS_CODE":0,"TOWNNAME":"中西區","LI":"普濟里","LIN":"3鄰","STREET":"普濟街","SECT":" ","MAREA":" ","LANE":" ","ALLEY":" ","HOUSE_NO":"５８號","E_COORD97":167853.69,"N_COORD97":2544320.46,"ADDRESS":"普濟街５８號","OBJECTID":611855},"geometry":{"x":167853.69000000134,"y":2544320.4600000046}},{"attributes":{"ID":611883,"DIS_CODE":0,"TOWNNAME":"中西區","LI":"普濟里","LIN":"3鄰","STREET":"普濟街","SECT":" ","MAREA":" ","LANE":" ","ALLEY":" ","HOUSE_NO":"６０號","E_COORD97":167854.70000000001,"N_COORD97":2544324.77,"ADDRESS":"普濟街６０號","OBJECTID":611856},"geometry":{"x":167854.70000000112,"y":2544324.7700000014}},{"attributes":{"ID":611884,"DIS_CODE":0,"TOWNNAME":"中西區","LI":"普濟里","LIN":"3鄰","STREET":"普濟街","SECT":" ","MAREA":" ","LANE":" ","ALLEY":" ","HOUSE_NO":"６２號","E_COORD97":167852.42000000001,"N_COORD97":2544331.23,"ADDRESS":"普濟街６２號","OBJECTID":611857},"geometry":{"x":167852.41999999993,"y":2544331.2300000004}},{"attributes":{"ID":611885,"DIS_CODE":0,"TOWNNAME":"中西區","LI":"普濟里","LIN":"3鄰","STREET":"普濟街","SECT":" ","MAREA":" ","LANE":" ","ALLEY":" ","HOUSE_NO":"６４號","E_COORD97":167852.76999999999,"N_COORD97":2544338.5099999998,"ADDRESS":"普濟街６４號","OBJECTID":611858},"geometry":{"x":167852.76999999955,"y":2544338.5099999998}},{"attributes":{"ID":611886,"DIS_CODE":0,"TOWNNAME":"中西區","LI":"普濟里","LIN":"3鄰","STREET":"普濟街","SECT":" ","MAREA":" ","LANE":" ","ALLEY":" ","HOUSE_NO":"６６號","E_COORD97":167860.26000000001,"N_COORD97":2544341.9300000002,"ADDRESS":"普濟街６６號","OBJECTID":611859},"geometry":{"x":167860.25999999978,"y":2544341.9299999997}},{"attributes":{"ID":611887,"DIS_CODE":0,"TOWNNAME":"中西區","LI":"開山里","LIN":"3鄰","STREET":"府前路","SECT":"一段","MAREA":" ","LANE":" ","ALLEY":" ","HOUSE_NO":"１０１號","E_COORD97":168903.53,"N_COORD97":2543263.6699999999,"ADDRESS":"府前路一段１０１號","OBJECTID":611860},"geometry":{"x":168903.53000000119,"y":2543263.6700000037}},{"attributes":{"ID":611888,"DIS_CODE":0,"TOWNNAME":"中西區","LI":"開山里","LIN":"3鄰","STREET":"府前路","SECT":"一段","MAREA":" ","LANE":" ","ALLEY":" ","HOUSE_NO":"１０３號","E_COORD97":168898.17000000001,"N_COORD97":2543261.7599999998,"ADDRESS":"府前路一段１０３號","OBJECTID":611861},"geometry":{"x":168898.16999999993,"y":2543261.7599999998}},{"attributes":{"ID":611889,"DIS_CODE":0,"TOWNNAME":"中西區","LI":"開山里","LIN":"3鄰","STREET":"府前路","SECT":"一段","MAREA":" ","LANE":" ","ALLEY":" ","HOUSE_NO":"１０５號","E_COORD97":168894.14999999999,"N_COORD97":2543263.8700000001,"ADDRESS":"府前路一段１０５號","OBJECTID":611862},"geometry":{"x":168894.15000000224,"y":2543263.8700000029}},{"attributes":{"ID":611890,"DIS_CODE":0,"TOWNNAME":"中西區","LI":"開山里","LIN":"3鄰","STREET":"府前路","SECT":"一段","MAREA":" ","LANE":" ","ALLEY":" ","HOUSE_NO":"１０７號","E_COORD97":168888.69,"N_COORD97":2543263.8700000001,"ADDRESS":"府前路一段１０７號","OBJECTID":611863},"geometry":{"x":168888.69000000041,"y":2543263.8700000029}},{"attributes":{"ID":611891,"DIS_CODE":0,"TOWNNAME":"中西區","LI":"開山里","LIN":"3鄰","STREET":"府前路","SECT":"一段","MAREA":" ","LANE":" ","ALLEY":" ","HOUSE_NO":"１０９號","E_COORD97":168883.32999999999,"N_COORD97":2543265.2999999998,"ADDRESS":"府前路一段１０９號","OBJECTID":611864},"geometry":{"x":168883.33000000007,"y":2543265.3000000007}},{"attributes":{"ID":611892,"DIS_CODE":0,"TOWNNAME":"中西區","LI":"開山里","LIN":"3鄰","STREET":"府前路","SECT":"一段","MAREA":" ","LANE":" ","ALLEY":" ","HOUSE_NO":"１１１號","E_COORD97":168878.35000000001,"N_COORD97":2543266.1600000001,"ADDRESS":"府前路一段１１１號","OBJECTID":611865},"geometry":{"x":168878.3499999987,"y":2543266.1600000001}},{"attributes":{"ID":611893,"DIS_CODE":0,"TOWNNAME":"中西區","LI":"開山里","LIN":"3鄰","STREET":"府前路","SECT":"一段","MAREA":" ","LANE":" ","ALLEY":" ","HOUSE_NO":"１１３號","E_COORD97":168870.67000000001,"N_COORD97":2543266.2200000002,"ADDRESS":"府前路一段１１３號","OBJECTID":611866},"geometry":{"x":168870.66999999993,"y":2543266.2200000007}},{"attributes":{"ID":611894,"DIS_CODE":0,"TOWNNAME":"中西區","LI":"開山里","LIN":"3鄰","STREET":"府前路","SECT":"一段","MAREA":" ","LANE":" ","ALLEY":" ","HOUSE_NO":"１１５號","E_COORD97":168864.10999999999,"N_COORD97":2543263.6000000001,"ADDRESS":"府前路一段１１５號","OBJECTID":611867},"geometry":{"x":168864.11000000127,"y":2543263.6000000034}},{"attributes":{"ID":611895,"DIS_CODE":0,"TOWNNAME":"中西區","LI":"開山里","LIN":"3鄰","STREET":"府前路","SECT":"一段","MAREA":" ","LANE":" ","ALLEY":" ","HOUSE_NO":"１１７號","E_COORD97":168858.26999999999,"N_COORD97":2543264.6099999999,"ADDRESS":"府前路一段１１７號","OBJECTID":611868},"geometry":{"x":168858.26999999955,"y":2543264.6100000013}},{"attributes":{"ID":611896,"DIS_CODE":0,"TOWNNAME":"中西區","LI":"開山里","LIN":"3鄰","STREET":"府前路","SECT":"一段","MAREA":" ","LANE":" ","ALLEY":" ","HOUSE_NO":"１１９號","E_COORD97":168852.22,"N_COORD97":2543267.4300000002,"ADDRESS":"府前路一段１１９號","OBJECTID":611869},"geometry":{"x":168852.21999999881,"y":2543267.4299999997}},{"attributes":{"ID":611897,"DIS_CODE":0,"TOWNNAME":"中西區","LI":"開山里","LIN":"3鄰","STREET":"府前路","SECT":"一段","MAREA":" ","LANE":" ","ALLEY":" ","HOUSE_NO":"１２１號","E_COORD97":168845.97,"N_COORD97":2543265.4100000001,"ADDRESS":"府前路一段１２１號","OBJECTID":611870},"geometry":{"x":168845.97000000067,"y":2543265.4099999983}},{"attributes":{"ID":611898,"DIS_CODE":0,"TOWNNAME":"中西區","LI":"開山里","LIN":"3鄰","STREET":"府前路","SECT":"一段","MAREA":" ","LANE":" ","ALLEY":" ","HOUSE_NO":"１２３號","E_COORD97":168841.23000000001,"N_COORD97":2543263.5,"ADDRESS":"府前路一段１２３號","OBJECTID":611871},"geometry":{"x":168841.23000000231,"y":2543263.5}},{"attributes":{"ID":611899,"DIS_CODE":0,"TOWNNAME":"中西區","LI":"開山里","LIN":"3鄰","STREET":"府前路","SECT":"一段","MAREA":" ","LANE":" ","ALLEY":" ","HOUSE_NO":"１２５號","E_COORD97":168836.89000000001,"N_COORD97":2543265.3100000001,"ADDRESS":"府前路一段１２５號","OBJECTID":611872},"geometry":{"x":168836.88999999966,"y":2543265.3100000005}},{"attributes":{"ID":611900,"DIS_CODE":0,"TOWNNAME":"中西區","LI":"開山里","LIN":"3鄰","STREET":"府前路","SECT":"一段","MAREA":" ","LANE":" ","ALLEY":" ","HOUSE_NO":"１２７號","E_COORD97":168831.45000000001,"N_COORD97":2543265.4100000001,"ADDRESS":"府前路一段１２７號","OBJECTID":611873},"geometry":{"x":168831.45000000112,"y":2543265.4099999983}},{"attributes":{"ID":611901,"DIS_CODE":0,"TOWNNAME":"中西區","LI":"開山里","LIN":"3鄰","STREET":"府前路","SECT":"一段","MAREA":" ","LANE":" ","ALLEY":" ","HOUSE_NO":"１２９號","E_COORD97":168828.32999999999,"N_COORD97":2543268.6499999999,"ADDRESS":"府前路一段１２９號","OBJECTID":611874},"geometry":{"x":168828.33000000101,"y":2543268.6500000022}},{"attributes":{"ID":611902,"DIS_CODE":0,"TOWNNAME":"新市區","LI":"新和里","LIN":"3鄰","STREET":"仁愛街","SECT":" ","MAREA":" ","LANE":" ","ALLEY":" ","HOUSE_NO":"２號","E_COORD97":177421.39000000001,"N_COORD97":2552097.2799999998,"ADDRESS":"仁愛街２號","OBJECTID":611875},"geometry":{"x":177421.38999999966,"y":2552097.2799999975}},{"attributes":{"ID":611903,"DIS_CODE":0,"TOWNNAME":"白河區","LI":"白河里","LIN":"3鄰","STREET":"新起街","SECT":" ","MAREA":" ","LANE":" ","ALLEY":" ","HOUSE_NO":"１７８號","E_COORD97":190170.57000000001,"N_COORD97":2582725.4300000002,"ADDRESS":"新起街１７８號","OBJECTID":611876},"geometry":{"x":190170.5700000003,"y":2582725.4299999978}},{"attributes":{"ID":611904,"DIS_CODE":0,"TOWNNAME":"安南區","LI":"州北里","LIN":"23鄰","STREET":"安和路","SECT":"五段","MAREA":" ","LANE":" ","ALLEY":" ","HOUSE_NO":"２８５號","E_COORD97":169709.03,"N_COORD97":2552060.9700000002,"ADDRESS":"安和路五段２８５號","OBJECTID":611877},"geometry":{"x":169709.03000000119,"y":2552060.9700000025}},{"attributes":{"ID":611905,"DIS_CODE":0,"TOWNNAME":"安南區","LI":"州北里","LIN":"23鄰","STREET":"安和路","SECT":"五段","MAREA":" ","LANE":" ","ALLEY":" ","HOUSE_NO":"２８９號","E_COORD97":169706.07000000001,"N_COORD97":2552068.7599999998,"ADDRESS":"安和路五段２８９號","OBJECTID":611878},"geometry":{"x":169706.0700000003,"y":2552068.7600000016}},{"attributes":{"ID":611906,"DIS_CODE":0,"TOWNNAME":"新市區","LI":"港墘里","LIN":"3鄰","STREET":"三民街","SECT":" ","MAREA":" ","LANE":" ","ALLEY":" ","HOUSE_NO":"１８號","E_COORD97":178544.76000000001,"N_COORD97":2553365.29,"ADDRESS":"三民街１８號","OBJECTID":611879},"geometry":{"x":178544.75999999978,"y":2553365.2900000028}},{"attributes":{"ID":611907,"DIS_CODE":0,"TOWNNAME":"新市區","LI":"新和里","LIN":"3鄰","STREET":"延平街","SECT":" ","MAREA":" ","LANE":" ","ALLEY":" ","HOUSE_NO":"３５號","E_COORD97":177476.89000000001,"N_COORD97":2552129.8300000001,"ADDRESS":"延平街３５號","OBJECTID":611880},"geometry":{"x":177476.8900000006,"y":2552129.8300000019}},{"attributes":{"ID":611908,"DIS_CODE":0,"TOWNNAME":"新市區","LI":"新和里","LIN":"3鄰","STREET":"中正路","SECT":" ","MAREA":" ","LANE":" ","ALLEY":" ","HOUSE_NO":"１３號","E_COORD97":177493.67999999999,"N_COORD97":2552163.25,"ADDRESS":"中正路１３號","OBJECTID":611881},"geometry":{"x":177493.68000000063,"y":2552163.2500000019}},{"attributes":{"ID":611909,"DIS_CODE":0,"TOWNNAME":"新市區","LI":"新和里","LIN":"3鄰","STREET":"中正路","SECT":" ","MAREA":" ","LANE":" ","ALLEY":" ","HOUSE_NO":"１號","E_COORD97":177508.29000000001,"N_COORD97":2552107,"ADDRESS":"中正路１號","OBJECTID":611882},"geometry":{"x":177508.29000000097,"y":2552107.0000000037}},{"attributes":{"ID":611910,"DIS_CODE":0,"TOWNNAME":"新市區","LI":"新和里","LIN":"3鄰","STREET":"中正路","SECT":" ","MAREA":" ","LANE":" ","ALLEY":" ","HOUSE_NO":"１１號","E_COORD97":177494.82000000001,"N_COORD97":2552159,"ADDRESS":"中正路１１號","OBJECTID":611883},"geometry":{"x":177494.82000000123,"y":2552159.0000000019}},{"attributes":{"ID":611911,"DIS_CODE":0,"TOWNNAME":"新市區","LI":"新和里","LIN":"3鄰","STREET":"中正路","SECT":" ","MAREA":" ","LANE":" ","ALLEY":" ","HOUSE_NO":"１５號","E_COORD97":177492.42999999999,"N_COORD97":2552167.25,"ADDRESS":"中正路１５號","OBJECTID":611884},"geometry":{"x":177492.4299999997,"y":2552167.2500000019}},{"attributes":{"ID":611912,"DIS_CODE":0,"TOWNNAME":"新市區","LI":"新和里","LIN":"3鄰","STREET":"仁愛街","SECT":" ","MAREA":" ","LANE":" ","ALLEY":" ","HOUSE_NO":"１５號","E_COORD97":177392.97,"N_COORD97":2552082.7799999998,"ADDRESS":"仁愛街１５號","OBJECTID":611885},"geometry":{"x":177392.97000000067,"y":2552082.7799999993}},{"attributes":{"ID":611913,"DIS_CODE":0,"TOWNNAME":"永康區","LI":"大橋里","LIN":"3鄰","STREET":"大橋二街","SECT":" ","MAREA":" ","LANE":" ","ALLEY":" ","HOUSE_NO":"１３５號","E_COORD97":170856.88,"N_COORD97":2546637.5699999998,"ADDRESS":"大橋二街１３５號","OBJECTID":611886},"geometry":{"x":170856.88000000175,"y":2546637.5700000003}},{"attributes":{"ID":611914,"DIS_CODE":0,"TOWNNAME":"永康區","LI":"大橋里","LIN":"3鄰","STREET":"大橋二街","SECT":" ","MAREA":" ","LANE":" ","ALLEY":" ","HOUSE_NO":"１０１號","E_COORD97":170816.51999999999,"N_COORD97":2546605.8100000001,"ADDRESS":"大橋二街１０１號","OBJECTID":611887},"geometry":{"x":170816.52000000142,"y":2546605.8100000005}},{"attributes":{"ID":611915,"DIS_CODE":0,"TOWNNAME":"永康區","LI":"大橋里","LIN":"3鄰","STREET":"大橋二街","SECT":" ","MAREA":" ","LANE":" ","ALLEY":" ","HOUSE_NO":"１０９號","E_COORD97":170831.79999999999,"N_COORD97":2546620.8199999998,"ADDRESS":"大橋二街１０９號","OBJECTID":611888},"geometry":{"x":170831.80000000168,"y":2546620.8200000022}},{"attributes":{"ID":611916,"DIS_CODE":0,"TOWNNAME":"永康區","LI":"三合里","LIN":"3鄰","STREET":"中華二路","SECT":" ","MAREA":" ","LANE":" ","ALLEY":" ","HOUSE_NO":"８２號","E_COORD97":172088.01999999999,"N_COORD97":2545444.2400000002,"ADDRESS":"中華二路８２號","OBJECTID":611889},"geometry":{"x":172088.02000000142,"y":2545444.2400000021}},{"attributes":{"ID":611917,"DIS_CODE":0,"TOWNNAME":"永康區","LI":"復國里","LIN":"3鄰","STREET":"復國一路","SECT":" ","MAREA":" ","LANE":" ","ALLEY":" ","HOUSE_NO":"３４號","E_COORD97":172727.53,"N_COORD97":2544774.2799999998,"ADDRESS":"復國一路３４號","OBJECTID":611890},"geometry":{"x":172727.52999999933,"y":2544774.2800000031}},{"attributes":{"ID":611918,"DIS_CODE":0,"TOWNNAME":"安南區","LI":"溪頂里","LIN":"21鄰","STREET":"聖安街","SECT":" ","MAREA":" ","LANE":" ","ALLEY":" ","HOUSE_NO":"６號","E_COORD97":168703.85999999999,"N_COORD97":2547497.0299999998,"ADDRESS":"聖安街６號","OBJECTID":611891},"geometry":{"x":168703.86000000034,"y":2547497.0299999993}},{"attributes":{"ID":611919,"DIS_CODE":0,"TOWNNAME":"仁德區","LI":"仁德里","LIN":"3鄰","STREET":"仁中六街","SECT":" ","MAREA":" ","LANE":" ","ALLEY":" ","HOUSE_NO":"５５號","E_COORD97":173360.31,"N_COORD97":2540381.4900000002,"ADDRESS":"仁中六街５５號","OBJECTID":611892},"geometry":{"x":173360.30999999959,"y":2540381.4900000021}},{"attributes":{"ID":611920,"DIS_CODE":0,"TOWNNAME":"仁德區","LI":"後壁里","LIN":"3鄰","STREET":"中正路","SECT":"二段","MAREA":" ","LANE":" ","ALLEY":" ","HOUSE_NO":"３０２號","E_COORD97":173257.84,"N_COORD97":2539018.77,"ADDRESS":"中正路二段３０２號","OBJECTID":611893},"geometry":{"x":173257.84000000078,"y":2539018.7700000014}},{"attributes":{"ID":611921,"DIS_CODE":0,"TOWNNAME":"仁德區","LI":"仁德里","LIN":"3鄰","STREET":"仁中六街","SECT":" ","MAREA":" ","LANE":" ","ALLEY":" ","HOUSE_NO":"１４２號","E_COORD97":173404.04999999999,"N_COORD97":2540491.2400000002,"ADDRESS":"仁中六街１４２號","OBJECTID":611894},"geometry":{"x":173404.05000000075,"y":2540491.2400000021}},{"attributes":{"ID":611922,"DIS_CODE":0,"TOWNNAME":"仁德區","LI":"仁德里","LIN":"3鄰","STREET":"仁中六街","SECT":" ","MAREA":" ","LANE":" ","ALLEY":" ","HOUSE_NO":"２８號","E_COORD97":173392.84,"N_COORD97":2540347.2400000002,"ADDRESS":"仁中六街２８號","OBJECTID":611895},"geometry":{"x":173392.83999999985,"y":2540347.2400000002}},{"attributes":{"ID":611923,"DIS_CODE":0,"TOWNNAME":"仁德區","LI":"保安里","LIN":"3鄰","STREET":"保安路","SECT":"一段","MAREA":" ","LANE":" ","ALLEY":" ","HOUSE_NO":"６號","E_COORD97":170434.37,"N_COORD97":2535983.0699999998,"ADDRESS":"保安路一段６號","OBJECTID":611896},"geometry":{"x":170434.37000000011,"y":2535983.0700000022}},{"attributes":{"ID":611924,"DIS_CODE":0,"TOWNNAME":"仁德區","LI":"保安里","LIN":"3鄰","STREET":"保安路","SECT":"一段","MAREA":" ","LANE":" ","ALLEY":" ","HOUSE_NO":"１２９號","E_COORD97":171158.48999999999,"N_COORD97":2536863.5600000001,"ADDRESS":"保安路一段１２９號","OBJECTID":611897},"geometry":{"x":171158.49000000115,"y":2536863.5600000005}},{"attributes":{"ID":611925,"DIS_CODE":0,"TOWNNAME":"仁德區","LI":"仁德里","LIN":"3鄰","STREET":"仁中七街","SECT":" ","MAREA":" ","LANE":" ","ALLEY":" ","HOUSE_NO":"１０２號","E_COORD97":173351.25,"N_COORD97":2540359.75,"ADDRESS":"仁中七街１０２號","OBJECTID":611898},"geometry":{"x":173351.25,"y":2540359.75}},{"attributes":{"ID":611926,"DIS_CODE":0,"TOWNNAME":"仁德區","LI":"後壁里","LIN":"3鄰","STREET":"中正路","SECT":"二段","MAREA":" ","LANE":" ","ALLEY":" ","HOUSE_NO":"３２４號","E_COORD97":173274.70000000001,"N_COORD97":2539066.2799999998,"ADDRESS":"中正路二段３２４號","OBJECTID":611899},"geometry":{"x":173274.70000000112,"y":2539066.2800000012}},{"attributes":{"ID":611927,"DIS_CODE":0,"TOWNNAME":"仁德區","LI":"田厝里","LIN":"3鄰","STREET":"田厝三街","SECT":" ","MAREA":" ","LANE":" ","ALLEY":" ","HOUSE_NO":"１０５號","E_COORD97":172626.16,"N_COORD97":2537446.9900000002,"ADDRESS":"田厝三街１０５號","OBJECTID":611900},"geometry":{"x":172626.16000000015,"y":2537446.9899999984}},{"attributes":{"ID":611928,"DIS_CODE":0,"TOWNNAME":"仁德區","LI":"仁德里","LIN":"3鄰","STREET":"仁中七街","SECT":" ","MAREA":" ","LANE":" ","ALLEY":" ","HOUSE_NO":"１１６號","E_COORD97":173328.82000000001,"N_COORD97":2540359.75,"ADDRESS":"仁中七街１１６號","OBJECTID":611901},"geometry":{"x":173328.8200000003,"y":2540359.75}},{"attributes":{"ID":611929,"DIS_CODE":0,"TOWNNAME":"仁德區","LI":"仁德里","LIN":"3鄰","STREET":"仁中六街","SECT":" ","MAREA":" ","LANE":" ","ALLEY":" ","HOUSE_NO":"３６號","E_COORD97":173391.57000000001,"N_COORD97":2540360.9900000002,"ADDRESS":"仁中六街３６號","OBJECTID":611902},"geometry":{"x":173391.5700000003,"y":2540360.9900000021}},{"attributes":{"ID":611930,"DIS_CODE":0,"TOWNNAME":"仁德區","LI":"仁德里","LIN":"3鄰","STREET":"仁中七街","SECT":" ","MAREA":" ","LANE":" ","ALLEY":" ","HOUSE_NO":"１４２號","E_COORD97":173280.03,"N_COORD97":2540360.25,"ADDRESS":"仁中七街１４２號","OBJECTID":611903},"geometry":{"x":173280.03000000026,"y":2540360.25}},{"attributes":{"ID":611931,"DIS_CODE":0,"TOWNNAME":"仁德區","LI":"田厝里","LIN":"3鄰","STREET":"田厝三街","SECT":" ","MAREA":" ","LANE":" ","ALLEY":" ","HOUSE_NO":"１０８號","E_COORD97":172640.35999999999,"N_COORD97":2537480.9900000002,"ADDRESS":"田厝三街１０８號","OBJECTID":611904},"geometry":{"x":172640.36000000034,"y":2537480.9900000039}},{"attributes":{"ID":611932,"DIS_CODE":0,"TOWNNAME":"仁德區","LI":"仁德里","LIN":"3鄰","STREET":"仁中六街","SECT":" ","MAREA":" ","LANE":" ","ALLEY":" ","HOUSE_NO":"１４０號","E_COORD97":173408.67000000001,"N_COORD97":2540491.7400000002,"ADDRESS":"仁中六街１４０號","OBJECTID":611905},"geometry":{"x":173408.67000000086,"y":2540491.7400000021}},{"attributes":{"ID":611933,"DIS_CODE":0,"TOWNNAME":"仁德區","LI":"仁德里","LIN":"3鄰","STREET":"仁中六街","SECT":" ","MAREA":" ","LANE":" ","ALLEY":" ","HOUSE_NO":"４０號","E_COORD97":173390.59,"N_COORD97":2540369.7400000002,"ADDRESS":"仁中六街４０號","OBJECTID":611906},"geometry":{"x":173390.58999999985,"y":2540369.7400000002}},{"attributes":{"ID":611934,"DIS_CODE":0,"TOWNNAME":"仁德區","LI":"仁德里","LIN":"3鄰","STREET":"仁中六街","SECT":" ","MAREA":" ","LANE":" ","ALLEY":" ","HOUSE_NO":"６號","E_COORD97":173395.63,"N_COORD97":2540308.25,"ADDRESS":"仁中六街６號","OBJECTID":611907},"geometry":{"x":173395.62999999989,"y":2540308.2500000019}},{"attributes":{"ID":611935,"DIS_CODE":0,"TOWNNAME":"仁德區","LI":"保安里","LIN":"3鄰","STREET":"保安路","SECT":"一段","MAREA":" ","LANE":" ","ALLEY":" ","HOUSE_NO":"７０號之２","E_COORD97":170661.13,"N_COORD97":2536334.3100000001,"ADDRESS":"保安路一段７０號之２","OBJECTID":611908},"geometry":{"x":170661.12999999989,"y":2536334.3100000024}},{"attributes":{"ID":611936,"DIS_CODE":0,"TOWNNAME":"仁德區","LI":"保安里","LIN":"3鄰","STREET":"保安路","SECT":"一段","MAREA":" ","LANE":" ","ALLEY":" ","HOUSE_NO":"６６號","E_COORD97":170635.78,"N_COORD97":2536256.0699999998,"ADDRESS":"保安路一段６６號","OBJECTID":611909},"geometry":{"x":170635.78000000212,"y":2536256.0700000003}},{"attributes":{"ID":611937,"DIS_CODE":0,"TOWNNAME":"仁德區","LI":"仁德里","LIN":"3鄰","STREET":"仁中六街","SECT":" ","MAREA":" ","LANE":" ","ALLEY":" ","HOUSE_NO":"１２６號","E_COORD97":173402.41,"N_COORD97":2540469.9900000002,"ADDRESS":"仁中六街１２６號","OBJECTID":611910},"geometry":{"x":173402.41000000015,"y":2540469.9900000002}},{"attributes":{"ID":611938,"DIS_CODE":0,"TOWNNAME":"仁德區","LI":"仁德里","LIN":"3鄰","STREET":"仁中六街","SECT":" ","MAREA":" ","LANE":" ","ALLEY":" ","HOUSE_NO":"１５０號","E_COORD97":173390.17999999999,"N_COORD97":2540489.9900000002,"ADDRESS":"仁中六街１５０號","OBJECTID":611911},"geometry":{"x":173390.1799999997,"y":2540489.9900000021}},{"attributes":{"ID":611939,"DIS_CODE":0,"TOWNNAME":"仁德區","LI":"仁德里","LIN":"3鄰","STREET":"仁中七街","SECT":" ","MAREA":" ","LANE":" ","ALLEY":" ","HOUSE_NO":"１２０號","E_COORD97":173319.57999999999,"N_COORD97":2540360,"ADDRESS":"仁中七街１２０號","OBJECTID":611912},"geometry":{"x":173319.58000000101,"y":2540360.0000000019}},{"attributes":{"ID":611940,"DIS_CODE":0,"TOWNNAME":"仁德區","LI":"仁德里","LIN":"3鄰","STREET":"仁中六街","SECT":" ","MAREA":" ","LANE":" ","ALLEY":" ","HOUSE_NO":"１１６號","E_COORD97":173383.57999999999,"N_COORD97":2540467.9900000002,"ADDRESS":"仁中六街１１６號","OBJECTID":611913},"geometry":{"x":173383.58000000101,"y":2540467.9900000039}},{"attributes":{"ID":611941,"DIS_CODE":0,"TOWNNAME":"仁德區","LI":"仁德里","LIN":"3鄰","STREET":"仁中六街","SECT":" ","MAREA":" ","LANE":" ","ALLEY":" ","HOUSE_NO":"８９號","E_COORD97":173330.82000000001,"N_COORD97":2540388.7400000002,"ADDRESS":"仁中六街８９號","OBJECTID":611914},"geometry":{"x":173330.81999999937,"y":2540388.7400000021}},{"attributes":{"ID":611942,"DIS_CODE":0,"TOWNNAME":"仁德區","LI":"田厝里","LIN":"3鄰","STREET":"田厝三街","SECT":" ","MAREA":" ","LANE":" ","ALLEY":" ","HOUSE_NO":"９７號","E_COORD97":172604.98999999999,"N_COORD97":2537431.25,"ADDRESS":"田厝三街９７號","OBJECTID":611915},"geometry":{"x":172604.99000000115,"y":2537431.25}},{"attributes":{"ID":611943,"DIS_CODE":0,"TOWNNAME":"仁德區","LI":"仁德里","LIN":"3鄰","STREET":"仁中六街","SECT":" ","MAREA":" ","LANE":" ","ALLEY":" ","HOUSE_NO":"１１０號","E_COORD97":173388.5,"N_COORD97":2540459.4900000002,"ADDRESS":"仁中六街１１０號","OBJECTID":611916},"geometry":{"x":173388.5,"y":2540459.4900000021}},{"attributes":{"ID":611944,"DIS_CODE":0,"TOWNNAME":"仁德區","LI":"保安里","LIN":"3鄰","STREET":"保安路","SECT":"一段","MAREA":" ","LANE":" ","ALLEY":" ","HOUSE_NO":"１０號","E_COORD97":170442.89999999999,"N_COORD97":2535988.0699999998,"ADDRESS":"保安路一段１０號","OBJECTID":611917},"geometry":{"x":170442.90000000037,"y":2535988.0700000003}},{"attributes":{"ID":611945,"DIS_CODE":0,"TOWNNAME":"仁德區","LI":"保安里","LIN":"3鄰","STREET":"文賢路","SECT":"一段","MAREA":" ","LANE":" ","ALLEY":" ","HOUSE_NO":"５６３號","E_COORD97":171138.42999999999,"N_COORD97":2536917.3300000001,"ADDRESS":"文賢路一段５６３號","OBJECTID":611918},"geometry":{"x":171138.43000000063,"y":2536917.3300000019}},{"attributes":{"ID":611946,"DIS_CODE":0,"TOWNNAME":"仁德區","LI":"仁德里","LIN":"3鄰","STREET":"仁中六街","SECT":" ","MAREA":" ","LANE":" ","ALLEY":" ","HOUSE_NO":"６６號","E_COORD97":173403,"N_COORD97":2540405.75,"ADDRESS":"仁中六街６６號","OBJECTID":611919},"geometry":{"x":173403.00000000093,"y":2540405.7500000019}},{"attributes":{"ID":611947,"DIS_CODE":0,"TOWNNAME":"仁德區","LI":"仁德里","LIN":"3鄰","STREET":"仁中六街","SECT":" ","MAREA":" ","LANE":" ","ALLEY":" ","HOUSE_NO":"１０１號","E_COORD97":173361.28,"N_COORD97":2540389.2400000002,"ADDRESS":"仁中六街１０１號","OBJECTID":611920},"geometry":{"x":173361.28000000026,"y":2540389.2400000021}},{"attributes":{"ID":611948,"DIS_CODE":0,"TOWNNAME":"仁德區","LI":"仁德里","LIN":"3鄰","STREET":"仁中六街","SECT":" ","MAREA":" ","LANE":" ","ALLEY":" ","HOUSE_NO":"７１號","E_COORD97":173320.53,"N_COORD97":2540381.4900000002,"ADDRESS":"仁中六街７１號","OBJECTID":611921},"geometry":{"x":173320.53000000026,"y":2540381.4900000021}},{"attributes":{"ID":611949,"DIS_CODE":0,"TOWNNAME":"仁德區","LI":"田厝里","LIN":"3鄰","STREET":"田厝三街","SECT":" ","MAREA":" ","LANE":" ","ALLEY":" ","HOUSE_NO":"１２２號","E_COORD97":172630.23999999999,"N_COORD97":2537519.75,"ADDRESS":"田厝三街１２２號","OBJECTID":611922},"geometry":{"x":172630.24000000115,"y":2537519.7500000037}},{"attributes":{"ID":611950,"DIS_CODE":0,"TOWNNAME":"仁德區","LI":"後壁里","LIN":"3鄰","STREET":"中正路","SECT":"二段","MAREA":" ","LANE":" ","ALLEY":" ","HOUSE_NO":"３１０號","E_COORD97":173259.82999999999,"N_COORD97":2539035.52,"ADDRESS":"中正路二段３１０號","OBJECTID":611923},"geometry":{"x":173259.83000000101,"y":2539035.5199999996}},{"attributes":{"ID":611951,"DIS_CODE":0,"TOWNNAME":"仁德區","LI":"保安里","LIN":"3鄰","STREET":"保安路","SECT":"一段","MAREA":" ","LANE":" ","ALLEY":" ","HOUSE_NO":"８６號","E_COORD97":170676.64999999999,"N_COORD97":2536380.8199999998,"ADDRESS":"保安路一段８６號","OBJECTID":611924},"geometry":{"x":170676.65000000037,"y":2536380.8200000022}},{"attributes":{"ID":611952,"DIS_CODE":0,"TOWNNAME":"仁德區","LI":"仁德里","LIN":"3鄰","STREET":"仁中六街","SECT":" ","MAREA":" ","LANE":" ","ALLEY":" ","HOUSE_NO":"１０５號","E_COORD97":173372.57000000001,"N_COORD97":2540389.2400000002,"ADDRESS":"仁中六街１０５號","OBJECTID":611925},"geometry":{"x":173372.5700000003,"y":2540389.2400000021}},{"attributes":{"ID":611953,"DIS_CODE":0,"TOWNNAME":"仁德區","LI":"後壁里","LIN":"3鄰","STREET":"中正路","SECT":"二段","MAREA":" ","LANE":" ","ALLEY":" ","HOUSE_NO":"３２８號","E_COORD97":173273.20999999999,"N_COORD97":2539069.5299999998,"ADDRESS":"中正路二段３２８號","OBJECTID":611926},"geometry":{"x":173273.20999999996,"y":2539069.5299999993}},{"attributes":{"ID":611954,"DIS_CODE":0,"TOWNNAME":"仁德區","LI":"保安里","LIN":"3鄰","STREET":"保安路","SECT":"一段","MAREA":" ","LANE":" ","ALLEY":" ","HOUSE_NO":"１２號","E_COORD97":170446.87,"N_COORD97":2535990.3199999998,"ADDRESS":"保安路一段１２號","OBJECTID":611927},"geometry":{"x":170446.87000000197,"y":2535990.3199999984}},{"attributes":{"ID":611955,"DIS_CODE":0,"TOWNNAME":"仁德區","LI":"仁德里","LIN":"3鄰","STREET":"仁中六街","SECT":" ","MAREA":" ","LANE":" ","ALLEY":" ","HOUSE_NO":"８８號","E_COORD97":173408.45999999999,"N_COORD97":2540440.75,"ADDRESS":"仁中六街８８號","OBJECTID":611928},"geometry":{"x":173408.45999999996,"y":2540440.75}},{"attributes":{"ID":611956,"DIS_CODE":0,"TOWNNAME":"仁德區","LI":"成功里","LIN":"3鄰","STREET":"保生東路","SECT":" ","MAREA":" ","LANE":" ","ALLEY":" ","HOUSE_NO":"２０２號","E_COORD97":171196.01000000001,"N_COORD97":2539725.5099999998,"ADDRESS":"保生東路２０２號","OBJECTID":611929},"geometry":{"x":171196.00999999978,"y":2539725.5100000016}},{"attributes":{"ID":611957,"DIS_CODE":0,"TOWNNAME":"仁德區","LI":"仁德里","LIN":"3鄰","STREET":"中正路","SECT":"二段","MAREA":" ","LANE":" ","ALLEY":" ","HOUSE_NO":"８０１號","E_COORD97":173441.82000000001,"N_COORD97":2540398.2799999998,"ADDRESS":"中正路二段８０１號","OBJECTID":611930},"geometry":{"x":173441.82000000123,"y":2540398.2800000012}},{"attributes":{"ID":611958,"DIS_CODE":0,"TOWNNAME":"仁德區","LI":"仁德里","LIN":"3鄰","STREET":"中正路","SECT":"二段","MAREA":" ","LANE":" ","ALLEY":" ","HOUSE_NO":"７４５號","E_COORD97":173459.01999999999,"N_COORD97":2540242.27,"ADDRESS":"中正路二段７４５號","OBJECTID":611931},"geometry":{"x":173459.01999999955,"y":2540242.2700000014}},{"attributes":{"ID":611959,"DIS_CODE":0,"TOWNNAME":"仁德區","LI":"後壁里","LIN":"3鄰","STREET":"中正路","SECT":"二段","MAREA":" ","LANE":" ","ALLEY":" ","HOUSE_NO":"３０６號","E_COORD97":173258.95999999999,"N_COORD97":2539027.52,"ADDRESS":"中正路二段３０６號","OBJECTID":611932},"geometry":{"x":173258.96000000089,"y":2539027.5200000014}},{"attributes":{"ID":611960,"DIS_CODE":0,"TOWNNAME":"仁德區","LI":"仁德里","LIN":"3鄰","STREET":"仁中六街","SECT":" ","MAREA":" ","LANE":" ","ALLEY":" ","HOUSE_NO":"９０號","E_COORD97":173413.53,"N_COORD97":2540441.75,"ADDRESS":"仁中六街９０號","OBJECTID":611933},"geometry":{"x":173413.53000000026,"y":2540441.75}},{"attributes":{"ID":611961,"DIS_CODE":0,"TOWNNAME":"仁德區","LI":"成功里","LIN":"3鄰","STREET":"保生東路","SECT":" ","MAREA":" ","LANE":" ","ALLEY":" ","HOUSE_NO":"１９６號","E_COORD97":171189.97,"N_COORD97":2539697.02,"ADDRESS":"保生東路１９６號","OBJECTID":611934},"geometry":{"x":171189.9700000016,"y":2539697.0199999996}},{"attributes":{"ID":611962,"DIS_CODE":0,"TOWNNAME":"仁德區","LI":"仁德里","LIN":"3鄰","STREET":"仁中六街","SECT":" ","MAREA":" ","LANE":" ","ALLEY":" ","HOUSE_NO":"８５號","E_COORD97":173321.16,"N_COORD97":2540388.9900000002,"ADDRESS":"仁中六街８５號","OBJECTID":611935},"geometry":{"x":173321.16000000015,"y":2540388.9900000002}},{"attributes":{"ID":611963,"DIS_CODE":0,"TOWNNAME":"安南區","LI":"理想里","LIN":"3鄰","STREET":"大安街","SECT":" ","MAREA":" ","LANE":" ","ALLEY":" ","HOUSE_NO":"６７８號","E_COORD97":167143.56,"N_COORD97":2548932.29,"ADDRESS":"大安街６７８號","OBJECTID":611936},"geometry":{"x":167143.56000000052,"y":2548932.290000001}},{"attributes":{"ID":611964,"DIS_CODE":0,"TOWNNAME":"安南區","LI":"理想里","LIN":"3鄰","STREET":"大安街","SECT":" ","MAREA":" ","LANE":" ","ALLEY":" ","HOUSE_NO":"６９２號","E_COORD97":167113.39000000001,"N_COORD97":2548955.5499999998,"ADDRESS":"大安街６９２號","OBJECTID":611937},"geometry":{"x":167113.38999999873,"y":2548955.5500000026}},{"attributes":{"ID":611965,"DIS_CODE":0,"TOWNNAME":"安南區","LI":"理想里","LIN":"3鄰","STREET":"大安街","SECT":" ","MAREA":" ","LANE":" ","ALLEY":" ","HOUSE_NO":"７１０號","E_COORD97":167074.79000000001,"N_COORD97":2548982.7400000002,"ADDRESS":"大安街７１０號","OBJECTID":611938},"geometry":{"x":167074.79000000004,"y":2548982.7399999984}},{"attributes":{"ID":611966,"DIS_CODE":0,"TOWNNAME":"安南區","LI":"理想里","LIN":"3鄰","STREET":"大安街","SECT":" ","MAREA":" ","LANE":" ","ALLEY":" ","HOUSE_NO":"７１４號","E_COORD97":167067.14000000001,"N_COORD97":2548988.4300000002,"ADDRESS":"大安街７１４號","OBJECTID":611939},"geometry":{"x":167067.13999999966,"y":2548988.4300000016}},{"attributes":{"ID":611967,"DIS_CODE":0,"TOWNNAME":"安南區","LI":"理想里","LIN":"3鄰","STREET":"大安街","SECT":" ","MAREA":" ","LANE":" ","ALLEY":" ","HOUSE_NO":"７１６號","E_COORD97":167063.39999999999,"N_COORD97":2548992.3399999999,"ADDRESS":"大安街７１６號","OBJECTID":611940},"geometry":{"x":167063.40000000224,"y":2548992.3400000036}},{"attributes":{"ID":611968,"DIS_CODE":0,"TOWNNAME":"安南區","LI":"理想里","LIN":"3鄰","STREET":"大安街","SECT":" ","MAREA":" ","LANE":" ","ALLEY":" ","HOUSE_NO":"７２０號","E_COORD97":167054.85999999999,"N_COORD97":2548998.2000000002,"ADDRESS":"大安街７２０號","OBJECTID":611941},"geometry":{"x":167054.86000000034,"y":2548998.1999999993}},{"attributes":{"ID":611969,"DIS_CODE":0,"TOWNNAME":"安南區","LI":"理想里","LIN":"3鄰","STREET":"大安街","SECT":" ","MAREA":" ","LANE":" ","ALLEY":" ","HOUSE_NO":"６６４號","E_COORD97":167168.64000000001,"N_COORD97":2548914.3399999999,"ADDRESS":"大安街６６４號","OBJECTID":611942},"geometry":{"x":167168.63999999966,"y":2548914.3400000036}},{"attributes":{"ID":611970,"DIS_CODE":0,"TOWNNAME":"安南區","LI":"理想里","LIN":"3鄰","STREET":"大安街","SECT":" ","MAREA":" ","LANE":" ","ALLEY":" ","HOUSE_NO":"７１８號","E_COORD97":167060.20000000001,"N_COORD97":2548995,"ADDRESS":"大安街７１８號","OBJECTID":611943},"geometry":{"x":167060.20000000112,"y":2548995.0000000019}},{"attributes":{"ID":611971,"DIS_CODE":0,"TOWNNAME":"安南區","LI":"\u25A0南里","LIN":"3鄰","STREET":"環福街","SECT":" ","MAREA":" ","LANE":" ","ALLEY":" ","HOUSE_NO":"７７號之１１","E_COORD97":170342.06,"N_COORD97":2552453.7000000002,"ADDRESS":"環福街７７號之１１","OBJECTID":611944},"geometry":{"x":170342.06000000052,"y":2552453.6999999993}},{"attributes":{"ID":611972,"DIS_CODE":0,"TOWNNAME":"安南區","LI":"新順里","LIN":"3鄰","STREET":"安和路","SECT":"三段","MAREA":" ","LANE":" ","ALLEY":" ","HOUSE_NO":"６４號","E_COORD97":169808.98000000001,"N_COORD97":2549467.7000000002,"ADDRESS":"安和路三段６４號","OBJECTID":611945},"geometry":{"x":169808.97999999952,"y":2549467.7000000011}},{"attributes":{"ID":611973,"DIS_CODE":0,"TOWNNAME":"永康區","LI":"大灣里","LIN":"3鄰","STREET":"信義二街","SECT":" ","MAREA":" ","LANE":" ","ALLEY":" ","HOUSE_NO":"１３５號","E_COORD97":174808.92999999999,"N_COORD97":2545715.6099999999,"ADDRESS":"信義二街１３５號","OBJECTID":611946},"geometry":{"x":174808.9299999997,"y":2545715.6100000013}},{"attributes":{"ID":611974,"DIS_CODE":0,"TOWNNAME":"永康區","LI":"中興里","LIN":"3鄰","STREET":"中華一路","SECT":" ","MAREA":" ","LANE":" ","ALLEY":" ","HOUSE_NO":"２２號","E_COORD97":171915.13,"N_COORD97":2544992.25,"ADDRESS":"中華一路２２號","OBJECTID":611947},"geometry":{"x":171915.13000000082,"y":2544992.2500000037}},{"attributes":{"ID":611975,"DIS_CODE":0,"TOWNNAME":"永康區","LI":"大灣里","LIN":"3鄰","STREET":"大同街","SECT":" ","MAREA":" ","LANE":" ","ALLEY":" ","HOUSE_NO":"２１２號","E_COORD97":174827.17999999999,"N_COORD97":2545653.6099999999,"ADDRESS":"大同街２１２號","OBJECTID":611948},"geometry":{"x":174827.18000000063,"y":2545653.6100000031}},{"attributes":{"ID":611976,"DIS_CODE":0,"TOWNNAME":"永康區","LI":"大灣里","LIN":"3鄰","STREET":"大同街","SECT":" ","MAREA":" ","LANE":" ","ALLEY":" ","HOUSE_NO":"２２８號","E_COORD97":174812.91,"N_COORD97":2545678.5899999999,"ADDRESS":"大同街２２８號","OBJECTID":611949},"geometry":{"x":174812.91000000015,"y":2545678.5900000017}},{"attributes":{"ID":611977,"DIS_CODE":0,"TOWNNAME":"安南區","LI":"新順里","LIN":"3鄰","STREET":"安和路","SECT":"三段","MAREA":" ","LANE":" ","ALLEY":" ","HOUSE_NO":"８６號之１","E_COORD97":169831.35999999999,"N_COORD97":2549526.4399999999,"ADDRESS":"安和路三段８６號之１","OBJECTID":611950},"geometry":{"x":169831.36000000034,"y":2549526.4399999976}},{"attributes":{"ID":611978,"DIS_CODE":0,"TOWNNAME":"安南區","LI":"溪東里","LIN":"3鄰","STREET":"府安路","SECT":"五段","MAREA":" ","LANE":" ","ALLEY":" ","HOUSE_NO":"１１３號","E_COORD97":168010.20725400001,"N_COORD97":2547171.1548600001,"ADDRESS":"府安路五段１１３號","OBJECTID":611951},"geometry":{"x":168010.20725400001,"y":2547171.1548619997}},{"attributes":{"ID":611979,"DIS_CODE":0,"TOWNNAME":"中西區","LI":"西賢里","LIN":"3鄰","STREET":"西賢街","SECT":" ","MAREA":" ","LANE":" ","ALLEY":" ","HOUSE_NO":"１１２號","E_COORD97":165828.17999999999,"N_COORD97":2544771.7200000002,"ADDRESS":"西賢街１１２號","OBJECTID":611952},"geometry":{"x":165828.1799999997,"y":2544771.7200000007}},{"attributes":{"ID":611980,"DIS_CODE":0,"TOWNNAME":"中西區","LI":"西賢里","LIN":"3鄰","STREET":"西賢街","SECT":" ","MAREA":" ","LANE":" ","ALLEY":" ","HOUSE_NO":"１１６號","E_COORD97":165832.31,"N_COORD97":2544771.9900000002,"ADDRESS":"西賢街１１６號","OBJECTID":611953},"geometry":{"x":165832.30999999866,"y":2544771.9900000021}},{"attributes":{"ID":611981,"DIS_CODE":0,"TOWNNAME":"中西區","LI":"西賢里","LIN":"3鄰","STREET":"西賢街","SECT":" ","MAREA":" ","LANE":" ","ALLEY":" ","HOUSE_NO":"１１８號","E_COORD97":165839.48000000001,"N_COORD97":2544771.7200000002,"ADDRESS":"西賢街１１８號","OBJECTID":611954},"geometry":{"x":165839.48000000138,"y":2544771.7200000007}},{"attributes":{"ID":611982,"DIS_CODE":0,"TOWNNAME":"中西區","LI":"西賢里","LIN":"3鄰","STREET":"西賢街","SECT":" ","MAREA":" ","LANE":" ","ALLEY":" ","HOUSE_NO":"１２０號","E_COORD97":165845.81,"N_COORD97":2544773.0899999999,"ADDRESS":"西賢街１２０號","OBJECTID":611955},"geometry":{"x":165845.80999999959,"y":2544773.0900000017}},{"attributes":{"ID":611983,"DIS_CODE":0,"TOWNNAME":"中西區","LI":"西賢里","LIN":"3鄰","STREET":"西賢街","SECT":" ","MAREA":" ","LANE":" ","ALLEY":" ","HOUSE_NO":"１２２號","E_COORD97":165846.64000000001,"N_COORD97":2544786.8500000001,"ADDRESS":"西賢街１２２號","OBJECTID":611956},"geometry":{"x":165846.63999999966,"y":2544786.8499999996}},{"attributes":{"ID":611984,"DIS_CODE":0,"TOWNNAME":"中西區","LI":"西賢里","LIN":"3鄰","STREET":"西賢街","SECT":" ","MAREA":" ","LANE":" ","ALLEY":" ","HOUSE_NO":"１２６號","E_COORD97":165840.57999999999,"N_COORD97":2544787.3999999999,"ADDRESS":"西賢街１２６號","OBJECTID":611957},"geometry":{"x":165840.58000000007,"y":2544787.4000000004}},{"attributes":{"ID":611985,"DIS_CODE":0,"TOWNNAME":"中西區","LI":"西賢里","LIN":"3鄰","STREET":"西賢街","SECT":" ","MAREA":" ","LANE":" ","ALLEY":" ","HOUSE_NO":"１２８號","E_COORD97":165833.69,"N_COORD97":2544787.1299999999,"ADDRESS":"西賢街１２８號","OBJECTID":611958},"geometry":{"x":165833.69000000041,"y":2544787.129999999}},{"attributes":{"ID":611986,"DIS_CODE":0,"TOWNNAME":"中西區","LI":"西賢里","LIN":"3鄰","STREET":"西賢街","SECT":" ","MAREA":" ","LANE":" ","ALLEY":" ","HOUSE_NO":"１３０號","E_COORD97":165828.17999999999,"N_COORD97":2544786.0299999998,"ADDRESS":"西賢街１３０號","OBJECTID":611959},"geometry":{"x":165828.1799999997,"y":2544786.0299999975}},{"attributes":{"ID":611987,"DIS_CODE":0,"TOWNNAME":"中西區","LI":"西賢里","LIN":"3鄰","STREET":"西賢街","SECT":" ","MAREA":" ","LANE":" ","ALLEY":" ","HOUSE_NO":"１３２號","E_COORD97":165825.98000000001,"N_COORD97":2544800.6099999999,"ADDRESS":"西賢街１３２號","OBJECTID":611960},"geometry":{"x":165825.98000000138,"y":2544800.6100000013}},{"attributes":{"ID":611988,"DIS_CODE":0,"TOWNNAME":"中西區","LI":"西賢里","LIN":"3鄰","STREET":"西賢街","SECT":" ","MAREA":" ","LANE":" ","ALLEY":" ","HOUSE_NO":"１３６號","E_COORD97":165831.48999999999,"N_COORD97":2544801.4300000002,"ADDRESS":"西賢街１３６號","OBJECTID":611961},"geometry":{"x":165831.49000000022,"y":2544801.4300000016}},{"attributes":{"ID":611989,"DIS_CODE":0,"TOWNNAME":"中西區","LI":"西賢里","LIN":"3鄰","STREET":"西賢街","SECT":" ","MAREA":" ","LANE":" ","ALLEY":" ","HOUSE_NO":"１３８號","E_COORD97":165838.92999999999,"N_COORD97":2544800.8799999999,"ADDRESS":"西賢街１３８號","OBJECTID":611962},"geometry":{"x":165838.93000000063,"y":2544800.8800000008}},{"attributes":{"ID":611990,"DIS_CODE":0,"TOWNNAME":"中西區","LI":"西賢里","LIN":"3鄰","STREET":"西賢街","SECT":" ","MAREA":" ","LANE":" ","ALLEY":" ","HOUSE_NO":"１４０號","E_COORD97":165845.54000000001,"N_COORD97":2544800.8799999999,"ADDRESS":"西賢街１４０號","OBJECTID":611963},"geometry":{"x":165845.54000000097,"y":2544800.8800000008}},{"attributes":{"ID":611991,"DIS_CODE":0,"TOWNNAME":"中西區","LI":"西賢里","LIN":"3鄰","STREET":"西賢街","SECT":" ","MAREA":" ","LANE":" ","ALLEY":" ","HOUSE_NO":"１４２號","E_COORD97":165844.16,"N_COORD97":2544814.3700000001,"ADDRESS":"西賢街１４２號","OBJECTID":611964},"geometry":{"x":165844.16000000201,"y":2544814.3700000029}},{"attributes":{"ID":611992,"DIS_CODE":0,"TOWNNAME":"中西區","LI":"西賢里","LIN":"3鄰","STREET":"西賢街","SECT":" ","MAREA":" ","LANE":" ","ALLEY":" ","HOUSE_NO":"１４６號","E_COORD97":165839.20000000001,"N_COORD97":2544815.7400000002,"ADDRESS":"西賢街１４６號","OBJECTID":611965},"geometry":{"x":165839.20000000112,"y":2544815.7400000002}},{"attributes":{"ID":611993,"DIS_CODE":0,"TOWNNAME":"中西區","LI":"西賢里","LIN":"3鄰","STREET":"西賢街","SECT":" ","MAREA":" ","LANE":" ","ALLEY":" ","HOUSE_NO":"１４８號","E_COORD97":165833.14000000001,"N_COORD97":2544815.4700000002,"ADDRESS":"西賢街１４８號","OBJECTID":611966},"geometry":{"x":165833.13999999966,"y":2544815.4700000025}},{"attributes":{"ID":611994,"DIS_CODE":0,"TOWNNAME":"中西區","LI":"西賢里","LIN":"3鄰","STREET":"西賢街","SECT":" ","MAREA":" ","LANE":" ","ALLEY":" ","HOUSE_NO":"１５０號","E_COORD97":165828.17999999999,"N_COORD97":2544815.1899999999,"ADDRESS":"西賢街１５０號","OBJECTID":611967},"geometry":{"x":165828.1799999997,"y":2544815.1899999995}},{"attributes":{"ID":611995,"DIS_CODE":0,"TOWNNAME":"中西區","LI":"西賢里","LIN":"3鄰","STREET":"湖美街","SECT":" ","MAREA":" ","LANE":" ","ALLEY":" ","HOUSE_NO":"１２１號","E_COORD97":165921.91,"N_COORD97":2544778.1200000001,"ADDRESS":"湖美街１２１號","OBJECTID":611968},"geometry":{"x":165921.91000000015,"y":2544778.1200000029}},{"attributes":{"ID":611996,"DIS_CODE":0,"TOWNNAME":"中西區","LI":"西賢里","LIN":"3鄰","STREET":"湖美街","SECT":" ","MAREA":" ","LANE":" ","ALLEY":" ","HOUSE_NO":"１２３號","E_COORD97":165922.04999999999,"N_COORD97":2544782.5899999999,"ADDRESS":"湖美街１２３號","OBJECTID":611969},"geometry":{"x":165922.04999999981,"y":2544782.5899999999}},{"attributes":{"ID":611997,"DIS_CODE":0,"TOWNNAME":"中西區","LI":"西賢里","LIN":"3鄰","STREET":"湖美街","SECT":" ","MAREA":" ","LANE":" ","ALLEY":" ","HOUSE_NO":"１２５號","E_COORD97":165920.89999999999,"N_COORD97":2544787.2000000002,"ADDRESS":"湖美街１２５號","OBJECTID":611970},"geometry":{"x":165920.90000000224,"y":2544787.1999999993}},{"attributes":{"ID":611998,"DIS_CODE":0,"TOWNNAME":"中西區","LI":"西賢里","LIN":"3鄰","STREET":"湖美街","SECT":" ","MAREA":" ","LANE":" ","ALLEY":" ","HOUSE_NO":"１２７號","E_COORD97":165921.19,"N_COORD97":2544792.3900000001,"ADDRESS":"湖美街１２７號","OBJECTID":611971},"geometry":{"x":165921.19000000134,"y":2544792.3900000025}},{"attributes":{"ID":611999,"DIS_CODE":0,"TOWNNAME":"中西區","LI":"藥王里","LIN":"3鄰","STREET":"大福街","SECT":" ","MAREA":" ","LANE":" ","ALLEY":" ","HOUSE_NO":"２６號","E_COORD97":167342.34,"N_COORD97":2544381.8900000001,"ADDRESS":"大福街２６號","OBJECTID":611972},"geometry":{"x":167342.33999999985,"y":2544381.8900000025}},{"attributes":{"ID":612000,"DIS_CODE":0,"TOWNNAME":"中西區","LI":"藥王里","LIN":"3鄰","STREET":"大福街","SECT":" ","MAREA":" ","LANE":" ","ALLEY":" ","HOUSE_NO":"２８號","E_COORD97":167343.79000000001,"N_COORD97":2544386.7200000002,"ADDRESS":"大福街２８號","OBJECTID":611973},"geometry":{"x":167343.79000000097,"y":2544386.7200000025}},{"attributes":{"ID":612001,"DIS_CODE":0,"TOWNNAME":"中西區","LI":"藥王里","LIN":"3鄰","STREET":"大福街","SECT":" ","MAREA":" ","LANE":" ","ALLEY":" ","HOUSE_NO":"３０號","E_COORD97":167344.04000000001,"N_COORD97":2544390.5899999999,"ADDRESS":"大福街３０號","OBJECTID":611974},"geometry":{"x":167344.04000000097,"y":2544390.5900000017}},{"attributes":{"ID":612002,"DIS_CODE":0,"TOWNNAME":"中西區","LI":"藥王里","LIN":"3鄰","STREET":"大福街","SECT":" ","MAREA":" ","LANE":" ","ALLEY":" ","HOUSE_NO":"３２號","E_COORD97":167341.95999999999,"N_COORD97":2544396.0600000001,"ADDRESS":"大福街３２號","OBJECTID":611975},"geometry":{"x":167341.95999999996,"y":2544396.0600000005}},{"attributes":{"ID":612003,"DIS_CODE":0,"TOWNNAME":"中西區","LI":"藥王里","LIN":"3鄰","STREET":"大福街","SECT":" ","MAREA":" ","LANE":" ","ALLEY":" ","HOUSE_NO":"３４號","E_COORD97":167344.85999999999,"N_COORD97":2544401.1400000001,"ADDRESS":"大福街３４號","OBJECTID":611976},"geometry":{"x":167344.8599999994,"y":2544401.1400000025}},{"attributes":{"ID":612004,"DIS_CODE":0,"TOWNNAME":"永康區","LI":"復國里","LIN":"3鄰","STREET":"復國一路","SECT":" ","MAREA":" ","LANE":" ","ALLEY":" ","HOUSE_NO":"１６號","E_COORD97":172728.01000000001,"N_COORD97":2544728.27,"ADDRESS":"復國一路１６號","OBJECTID":611977},"geometry":{"x":172728.01000000071,"y":2544728.2700000014}},{"attributes":{"ID":612005,"DIS_CODE":0,"TOWNNAME":"永康區","LI":"復國里","LIN":"3鄰","STREET":"復國一路","SECT":" ","MAREA":" ","LANE":" ","ALLEY":" ","HOUSE_NO":"４２號","E_COORD97":172726.14999999999,"N_COORD97":2544793.2799999998,"ADDRESS":"復國一路４２號","OBJECTID":611978},"geometry":{"x":172726.15000000037,"y":2544793.2799999993}},{"attributes":{"ID":612006,"DIS_CODE":0,"TOWNNAME":"永康區","LI":"東灣里","LIN":"3鄰","STREET":"大安街","SECT":" ","MAREA":" ","LANE":" ","ALLEY":" ","HOUSE_NO":"１０２號","E_COORD97":174533.38,"N_COORD97":2545029.8999999999,"ADDRESS":"大安街１０２號","OBJECTID":611979},"geometry":{"x":174533.37999999989,"y":2545029.9000000022}},{"attributes":{"ID":612007,"DIS_CODE":0,"TOWNNAME":"永康區","LI":"大橋里","LIN":"3鄰","STREET":"大橋三街","SECT":" ","MAREA":" ","LANE":" ","ALLEY":" ","HOUSE_NO":"９２號","E_COORD97":170712.44,"N_COORD97":2546649.6600000001,"ADDRESS":"大橋三街９２號","OBJECTID":611980},"geometry":{"x":170712.44000000041,"y":2546649.6600000001}},{"attributes":{"ID":612008,"DIS_CODE":0,"TOWNNAME":"永康區","LI":"新樹里","LIN":"3鄰","STREET":"中山北路","SECT":" ","MAREA":" ","LANE":" ","ALLEY":" ","HOUSE_NO":"７５０號","E_COORD97":176227.70000000001,"N_COORD97":2547947.9399999999,"ADDRESS":"中山北路７５０號","OBJECTID":611981},"geometry":{"x":176227.70000000112,"y":2547947.9400000013}},{"attributes":{"ID":612009,"DIS_CODE":0,"TOWNNAME":"永康區","LI":"尚頂里","LIN":"3鄰","STREET":"中正二街","SECT":" ","MAREA":" ","LANE":" ","ALLEY":" ","HOUSE_NO":"１８６號","E_COORD97":171453.64999999999,"N_COORD97":2547748.7400000002,"ADDRESS":"中正二街１８６號","OBJECTID":611982},"geometry":{"x":171453.65000000037,"y":2547748.7399999984}},{"attributes":{"ID":612010,"DIS_CODE":0,"TOWNNAME":"永康區","LI":"西勢里","LIN":"3鄰","STREET":"西勢路","SECT":" ","MAREA":" ","LANE":" ","ALLEY":" ","HOUSE_NO":"４８１號","E_COORD97":175071.12,"N_COORD97":2546766.77,"ADDRESS":"西勢路４８１號","OBJECTID":611983},"geometry":{"x":175071.12000000011,"y":2546766.7699999996}},{"attributes":{"ID":612011,"DIS_CODE":0,"TOWNNAME":"永康區","LI":"西勢里","LIN":"3鄰","STREET":"西勢路","SECT":" ","MAREA":" ","LANE":" ","ALLEY":" ","HOUSE_NO":"４８５號","E_COORD97":175046.67999999999,"N_COORD97":2546765.96,"ADDRESS":"西勢路４８５號","OBJECTID":611984},"geometry":{"x":175046.67999999877,"y":2546765.9600000028}},{"attributes":{"ID":612012,"DIS_CODE":0,"TOWNNAME":"永康區","LI":"西勢里","LIN":"3鄰","STREET":"西勢路","SECT":" ","MAREA":" ","LANE":" ","ALLEY":" ","HOUSE_NO":"４９７號","E_COORD97":174982.04999999999,"N_COORD97":2546765.3100000001,"ADDRESS":"西勢路４９７號","OBJECTID":611985},"geometry":{"x":174982.05000000075,"y":2546765.3099999987}},{"attributes":{"ID":612013,"DIS_CODE":0,"TOWNNAME":"永康區","LI":"西勢里","LIN":"3鄰","STREET":"西勢路","SECT":" ","MAREA":" ","LANE":" ","ALLEY":" ","HOUSE_NO":"５０７號","E_COORD97":175005.92000000001,"N_COORD97":2546707.7599999998,"ADDRESS":"西勢路５０７號","OBJECTID":611986},"geometry":{"x":175005.91999999993,"y":2546707.7600000016}},{"attributes":{"ID":612014,"DIS_CODE":0,"TOWNNAME":"東區","LI":"德高里","LIN":"3鄰","STREET":"仁和路","SECT":" ","MAREA":" ","LANE":" ","ALLEY":" ","HOUSE_NO":"２５８號","E_COORD97":171611.25,"N_COORD97":2540870.3300000001,"ADDRESS":"仁和路２５８號","OBJECTID":611987},"geometry":{"x":171611.25000000093,"y":2540870.3300000019}},{"attributes":{"ID":612015,"DIS_CODE":0,"TOWNNAME":"東區","LI":"德高里","LIN":"3鄰","STREET":"仁和路","SECT":" ","MAREA":" ","LANE":" ","ALLEY":" ","HOUSE_NO":"２６０號","E_COORD97":171629.57000000001,"N_COORD97":2540849.0099999998,"ADDRESS":"仁和路２６０號","OBJECTID":611988},"geometry":{"x":171629.57000000123,"y":2540849.0099999998}},{"attributes":{"ID":612016,"DIS_CODE":0,"TOWNNAME":"東區","LI":"德高里","LIN":"3鄰","STREET":"仁和路","SECT":" ","MAREA":" ","LANE":" ","ALLEY":" ","HOUSE_NO":"２６２號","E_COORD97":171634.23000000001,"N_COORD97":2540816.0600000001,"ADDRESS":"仁和路２６２號","OBJECTID":611989},"geometry":{"x":171634.23000000045,"y":2540816.0600000005}},{"attributes":{"ID":612017,"DIS_CODE":0,"TOWNNAME":"東區","LI":"德高里","LIN":"3鄰","STREET":"仁和路","SECT":" ","MAREA":" ","LANE":" ","ALLEY":" ","HOUSE_NO":"２６４號","E_COORD97":171644.94,"N_COORD97":2540819.1899999999,"ADDRESS":"仁和路２６４號","OBJECTID":611990},"geometry":{"x":171644.94000000041,"y":2540819.1900000013}},{"attributes":{"ID":612018,"DIS_CODE":0,"TOWNNAME":"東區","LI":"德高里","LIN":"3鄰","STREET":"仁和路","SECT":" ","MAREA":" ","LANE":" ","ALLEY":" ","HOUSE_NO":"２６８號","E_COORD97":171652.51000000001,"N_COORD97":2540808.5800000001,"ADDRESS":"仁和路２６８號","OBJECTID":611991},"geometry":{"x":171652.51000000164,"y":2540808.5800000001}},{"attributes":{"ID":612019,"DIS_CODE":0,"TOWNNAME":"東區","LI":"德高里","LIN":"3鄰","STREET":"城東街","SECT":" ","MAREA":" ","LANE":" ","ALLEY":" ","HOUSE_NO":"６７號","E_COORD97":171626.20999999999,"N_COORD97":2540782.1800000002,"ADDRESS":"城東街６７號","OBJECTID":611992},"geometry":{"x":171626.21000000089,"y":2540782.1800000016}},{"attributes":{"ID":612020,"DIS_CODE":0,"TOWNNAME":"東區","LI":"德高里","LIN":"3鄰","STREET":"城東街","SECT":" ","MAREA":" ","LANE":" ","ALLEY":" ","HOUSE_NO":"７１號","E_COORD97":171620.82999999999,"N_COORD97":2540799.1600000001,"ADDRESS":"城東街７１號","OBJECTID":611993},"geometry":{"x":171620.83000000101,"y":2540799.1600000039}},{"attributes":{"ID":612021,"DIS_CODE":0,"TOWNNAME":"東區","LI":"德高里","LIN":"3鄰","STREET":"城東街","SECT":" ","MAREA":" ","LANE":" ","ALLEY":" ","HOUSE_NO":"７３號","E_COORD97":171611.16,"N_COORD97":2540810.6800000002,"ADDRESS":"城東街７３號","OBJECTID":611994},"geometry":{"x":171611.15999999922,"y":2540810.6799999997}},{"attributes":{"ID":612022,"DIS_CODE":0,"TOWNNAME":"東區","LI":"德高里","LIN":"3鄰","STREET":"城東街","SECT":" ","MAREA":" ","LANE":" ","ALLEY":" ","HOUSE_NO":"７５號","E_COORD97":171605.23000000001,"N_COORD97":2540816.9500000002,"ADDRESS":"城東街７５號","OBJECTID":611995},"geometry":{"x":171605.23000000045,"y":2540816.9500000011}},{"attributes":{"ID":612023,"DIS_CODE":0,"TOWNNAME":"東區","LI":"德高里","LIN":"3鄰","STREET":"城東街","SECT":" ","MAREA":" ","LANE":" ","ALLEY":" ","HOUSE_NO":"８３號","E_COORD97":171582,"N_COORD97":2540844,"ADDRESS":"城東街８３號","OBJECTID":611996},"geometry":{"x":171582.00000000093,"y":2540844.0000000037}},{"attributes":{"ID":612024,"DIS_CODE":0,"TOWNNAME":"東區","LI":"德高里","LIN":"3鄰","STREET":"城東街","SECT":" ","MAREA":" ","LANE":" ","ALLEY":" ","HOUSE_NO":"８５號","E_COORD97":171592.85000000001,"N_COORD97":2540852.8100000001,"ADDRESS":"城東街８５號","OBJECTID":611997},"geometry":{"x":171592.85000000056,"y":2540852.8100000042}},{"attributes":{"ID":612025,"DIS_CODE":0,"TOWNNAME":"東區","LI":"德高里","LIN":"3鄰","STREET":"城東街","SECT":" ","MAREA":" ","LANE":" ","ALLEY":" ","HOUSE_NO":"８７號","E_COORD97":171642.01000000001,"N_COORD97":2540803.1699999999,"ADDRESS":"城東街８７號","OBJECTID":611998},"geometry":{"x":171642.00999999978,"y":2540803.1700000018}},{"attributes":{"ID":612026,"DIS_CODE":0,"TOWNNAME":"東區","LI":"德高里","LIN":"3鄰","STREET":"仁和路","SECT":" ","MAREA":" ","LANE":" ","ALLEY":" ","HOUSE_NO":"２６６號","E_COORD97":171636.76999999999,"N_COORD97":2540799.4500000002,"ADDRESS":"仁和路２６６號","OBJECTID":611999},"geometry":{"x":171636.76999999955,"y":2540799.450000003}},{"attributes":{"ID":612027,"DIS_CODE":0,"TOWNNAME":"東區","LI":"德高里","LIN":"3鄰","STREET":"城東街","SECT":" ","MAREA":" ","LANE":" ","ALLEY":" ","HOUSE_NO":"６９號","E_COORD97":171631.94,"N_COORD97":2540786.5099999998,"ADDRESS":"城東街６９號","OBJECTID":612000},"geometry":{"x":171631.94000000134,"y":2540786.5100000016}}]}