{"displayFieldName":"TOWNNAME","fieldAliases":{"ID":"ID","DIS_CODE":"DIS_CODE","TOWNNAME":"TOWNNAME","LI":"LI","LIN":"LIN","STREET":"STREET","SECT":"SECT","MAREA":"MAREA","LANE":"LANE","ALLEY":"ALLEY","HOUSE_NO":"HOUSE_NO","E_COORD97":"E_COORD97","N_COORD97":"N_COORD97","ADDRESS":"ADDRESS","OBJECTID":"OBJECTID"},"geometryType":"esriGeometryPoint","spatialReference":{"wkid":102443,"latestWkid":3826},"fields":[{"name":"ID","type":"esriFieldTypeDouble","alias":"ID"},{"name":"DIS_CODE","type":"esriFieldTypeInteger","alias":"DIS_CODE"},{"name":"TOWNNAME","type":"esriFieldTypeString","alias":"TOWNNAME","length":8},{"name":"LI","type":"esriFieldTypeString","alias":"LI","length":8},{"name":"LIN","type":"esriFieldTypeString","alias":"LIN","length":12},{"name":"STREET","type":"esriFieldTypeString","alias":"STREET","length":20},{"name":"SECT","type":"esriFieldTypeString","alias":"SECT","length":8},{"name":"MAREA","type":"esriFieldTypeString","alias":"MAREA","length":12},{"name":"LANE","type":"esriFieldTypeString","alias":"LANE","length":10},{"name":"ALLEY","type":"esriFieldTypeString","alias":"ALLEY","length":10},{"name":"HOUSE_NO","type":"esriFieldTypeString","alias":"HOUSE_NO","length":20},{"name":"E_COORD97","type":"esriFieldTypeDouble","alias":"E_COORD97"},{"name":"N_COORD97","type":"esriFieldTypeDouble","alias":"N_COORD97"},{"name":"ADDRESS","type":"esriFieldTypeString","alias":"ADDRESS","length":50},{"name":"OBJECTID","type":"esriFieldTypeOID","alias":"OBJECTID"}],"features":[{"attributes":{"ID":530428,"DIS_CODE":0,"TOWNNAME":"永康區","LI":"復華里","LIN":"33鄰","STREET":"復華十街","SECT":" ","MAREA":" ","LANE":" ","ALLEY":" ","HOUSE_NO":"１５號","E_COORD97":172528.57999999999,"N_COORD97":2546192.79,"ADDRESS":"復華十街１５號","OBJECTID":530401},"geometry":{"x":172528.58000000007,"y":2546192.790000001}},{"attributes":{"ID":530429,"DIS_CODE":0,"TOWNNAME":"永康區","LI":"復華里","LIN":"33鄰","STREET":"復國一路","SECT":" ","MAREA":" ","LANE":" ","ALLEY":" ","HOUSE_NO":"５１１號","E_COORD97":172529.23999999999,"N_COORD97":2546232.7799999998,"ADDRESS":"復國一路５１１號","OBJECTID":530402},"geometry":{"x":172529.24000000022,"y":2546232.7800000012}},{"attributes":{"ID":530430,"DIS_CODE":0,"TOWNNAME":"永康區","LI":"勝利里","LIN":"33鄰","STREET":"中華路","SECT":" ","MAREA":" ","LANE":" ","ALLEY":" ","HOUSE_NO":"１之１５１號","E_COORD97":171503.47,"N_COORD97":2544353.0499999998,"ADDRESS":"中華路１之１５１號","OBJECTID":530403},"geometry":{"x":171503.46999999881,"y":2544353.0500000007}},{"attributes":{"ID":530431,"DIS_CODE":0,"TOWNNAME":"永康區","LI":"勝利里","LIN":"33鄰","STREET":"中華路","SECT":" ","MAREA":" ","LANE":" ","ALLEY":" ","HOUSE_NO":"１號之１３７","E_COORD97":171503.19,"N_COORD97":2544353.0499999998,"ADDRESS":"中華路１號之１３７","OBJECTID":530404},"geometry":{"x":171503.19000000134,"y":2544353.0500000007}},{"attributes":{"ID":530432,"DIS_CODE":0,"TOWNNAME":"永康區","LI":"勝利里","LIN":"33鄰","STREET":"中華路","SECT":" ","MAREA":" ","LANE":" ","ALLEY":" ","HOUSE_NO":"１號之１３２","E_COORD97":171503.23999999999,"N_COORD97":2544353.0499999998,"ADDRESS":"中華路１號之１３２","OBJECTID":530405},"geometry":{"x":171503.24000000022,"y":2544353.0500000007}},{"attributes":{"ID":530433,"DIS_CODE":0,"TOWNNAME":"永康區","LI":"勝利里","LIN":"33鄰","STREET":"中華路","SECT":" ","MAREA":" ","LANE":" ","ALLEY":" ","HOUSE_NO":"１號之３２","E_COORD97":171501.98999999999,"N_COORD97":2544353.0499999998,"ADDRESS":"中華路１號之３２","OBJECTID":530406},"geometry":{"x":171501.99000000022,"y":2544353.0500000007}},{"attributes":{"ID":530434,"DIS_CODE":0,"TOWNNAME":"永康區","LI":"勝利里","LIN":"33鄰","STREET":"中華路","SECT":" ","MAREA":" ","LANE":" ","ALLEY":" ","HOUSE_NO":"１號之１４８","E_COORD97":171503.26000000001,"N_COORD97":2544353.0499999998,"ADDRESS":"中華路１號之１４８","OBJECTID":530407},"geometry":{"x":171503.25999999885,"y":2544353.0500000007}},{"attributes":{"ID":530435,"DIS_CODE":0,"TOWNNAME":"永康區","LI":"勝利里","LIN":"33鄰","STREET":"中華路","SECT":" ","MAREA":" ","LANE":" ","ALLEY":" ","HOUSE_NO":"１號之１１５","E_COORD97":171503.26000000001,"N_COORD97":2544353.0499999998,"ADDRESS":"中華路１號之１１５","OBJECTID":530408},"geometry":{"x":171503.25999999885,"y":2544353.0500000007}},{"attributes":{"ID":530436,"DIS_CODE":0,"TOWNNAME":"永康區","LI":"勝利里","LIN":"33鄰","STREET":"中華路","SECT":" ","MAREA":" ","LANE":" ","ALLEY":" ","HOUSE_NO":"１號之１２８","E_COORD97":171503.26000000001,"N_COORD97":2544353.0499999998,"ADDRESS":"中華路１號之１２８","OBJECTID":530409},"geometry":{"x":171503.25999999885,"y":2544353.0500000007}},{"attributes":{"ID":530437,"DIS_CODE":0,"TOWNNAME":"永康區","LI":"勝利里","LIN":"33鄰","STREET":"中華路","SECT":" ","MAREA":" ","LANE":" ","ALLEY":" ","HOUSE_NO":"１號之１２３","E_COORD97":171503.20999999999,"N_COORD97":2544353.0499999998,"ADDRESS":"中華路１號之１２３","OBJECTID":530410},"geometry":{"x":171503.20999999996,"y":2544353.0500000007}},{"attributes":{"ID":530438,"DIS_CODE":0,"TOWNNAME":"永康區","LI":"崑山里","LIN":"33鄰","STREET":"大仁街","SECT":" ","MAREA":" ","LANE":" ","ALLEY":" ","HOUSE_NO":"１３６號","E_COORD97":173891.54999999999,"N_COORD97":2544922.8500000001,"ADDRESS":"大仁街１３６號","OBJECTID":530411},"geometry":{"x":173891.54999999888,"y":2544922.8499999996}},{"attributes":{"ID":530439,"DIS_CODE":0,"TOWNNAME":"永康區","LI":"勝利里","LIN":"33鄰","STREET":"中華路","SECT":" ","MAREA":" ","LANE":" ","ALLEY":" ","HOUSE_NO":"１號之８５","E_COORD97":171502.01000000001,"N_COORD97":2544353.0499999998,"ADDRESS":"中華路１號之８５","OBJECTID":530412},"geometry":{"x":171502.01000000071,"y":2544353.0500000007}},{"attributes":{"ID":530440,"DIS_CODE":0,"TOWNNAME":"永康區","LI":"勝利里","LIN":"33鄰","STREET":"中華路","SECT":" ","MAREA":" ","LANE":" ","ALLEY":" ","HOUSE_NO":"１號之６９","E_COORD97":171501.94,"N_COORD97":2544353.0499999998,"ADDRESS":"中華路１號之６９","OBJECTID":530413},"geometry":{"x":171501.94000000134,"y":2544353.0500000007}},{"attributes":{"ID":530441,"DIS_CODE":0,"TOWNNAME":"永康區","LI":"崑山里","LIN":"33鄰","STREET":"國光三街","SECT":" ","MAREA":" ","LANE":" ","ALLEY":" ","HOUSE_NO":"５１號","E_COORD97":173960.66,"N_COORD97":2544913.7599999998,"ADDRESS":"國光三街５１號","OBJECTID":530414},"geometry":{"x":173960.65999999922,"y":2544913.7599999979}},{"attributes":{"ID":530442,"DIS_CODE":0,"TOWNNAME":"仁德區","LI":"仁德里","LIN":"33鄰","STREET":"中山路","SECT":" ","MAREA":" ","LANE":" ","ALLEY":" ","HOUSE_NO":"７１２號","E_COORD97":172774.41,"N_COORD97":2541503.9900000002,"ADDRESS":"中山路７１２號","OBJECTID":530415},"geometry":{"x":172774.41000000108,"y":2541503.9900000002}},{"attributes":{"ID":530443,"DIS_CODE":0,"TOWNNAME":"仁德區","LI":"仁德里","LIN":"33鄰","STREET":"文德路","SECT":" ","MAREA":" ","LANE":" ","ALLEY":" ","HOUSE_NO":"３３號","E_COORD97":172897.70000000001,"N_COORD97":2541591.8199999998,"ADDRESS":"文德路３３號","OBJECTID":530416},"geometry":{"x":172897.70000000205,"y":2541591.8200000022}},{"attributes":{"ID":530444,"DIS_CODE":0,"TOWNNAME":"仁德區","LI":"太子里","LIN":"33鄰","STREET":"太興路","SECT":" ","MAREA":" ","LANE":" ","ALLEY":" ","HOUSE_NO":"５７號","E_COORD97":174044.20000000001,"N_COORD97":2543388,"ADDRESS":"太興路５７號","OBJECTID":530417},"geometry":{"x":174044.20000000112,"y":2543388.0000000019}},{"attributes":{"ID":530445,"DIS_CODE":0,"TOWNNAME":"仁德區","LI":"太子里","LIN":"33鄰","STREET":"太興路","SECT":" ","MAREA":" ","LANE":" ","ALLEY":" ","HOUSE_NO":"６號","E_COORD97":174070.48000000001,"N_COORD97":2543475.75,"ADDRESS":"太興路６號","OBJECTID":530418},"geometry":{"x":174070.48000000045,"y":2543475.75}},{"attributes":{"ID":530446,"DIS_CODE":0,"TOWNNAME":"仁德區","LI":"太子里","LIN":"33鄰","STREET":"太子路","SECT":" ","MAREA":" ","LANE":" ","ALLEY":" ","HOUSE_NO":"４６１號","E_COORD97":174144.17000000001,"N_COORD97":2543477,"ADDRESS":"太子路４６１號","OBJECTID":530419},"geometry":{"x":174144.17000000086,"y":2543477}},{"attributes":{"ID":530447,"DIS_CODE":0,"TOWNNAME":"仁德區","LI":"成功里","LIN":"33鄰","STREET":"成功一街","SECT":" ","MAREA":" ","LANE":" ","ALLEY":" ","HOUSE_NO":"４５號","E_COORD97":170538.14999999999,"N_COORD97":2540105.77,"ADDRESS":"成功一街４５號","OBJECTID":530420},"geometry":{"x":170538.15000000037,"y":2540105.7699999996}},{"attributes":{"ID":530448,"DIS_CODE":0,"TOWNNAME":"仁德區","LI":"後壁里","LIN":"33鄰","STREET":"德洋二街","SECT":" ","MAREA":" ","LANE":" ","ALLEY":" ","HOUSE_NO":"６３之１號","E_COORD97":172360.67999999999,"N_COORD97":2539501.0499999998,"ADDRESS":"德洋二街６３之１號","OBJECTID":530421},"geometry":{"x":172360.68000000063,"y":2539501.0500000007}},{"attributes":{"ID":530449,"DIS_CODE":0,"TOWNNAME":"仁德區","LI":"後壁里","LIN":"33鄰","STREET":"德洋二街","SECT":" ","MAREA":" ","LANE":" ","ALLEY":" ","HOUSE_NO":"５１號","E_COORD97":172343.89999999999,"N_COORD97":2539467.02,"ADDRESS":"德洋二街５１號","OBJECTID":530422},"geometry":{"x":172343.90000000224,"y":2539467.0200000033}},{"attributes":{"ID":530450,"DIS_CODE":0,"TOWNNAME":"永康區","LI":"埔園里","LIN":"33鄰","STREET":"埔園街","SECT":" ","MAREA":" ","LANE":" ","ALLEY":" ","HOUSE_NO":"１１７號","E_COORD97":173931.17999999999,"N_COORD97":2548127.29,"ADDRESS":"埔園街１１７號","OBJECTID":530423},"geometry":{"x":173931.1799999997,"y":2548127.2900000028}},{"attributes":{"ID":530451,"DIS_CODE":0,"TOWNNAME":"永康區","LI":"勝利里","LIN":"33鄰","STREET":"中華路","SECT":" ","MAREA":" ","LANE":" ","ALLEY":" ","HOUSE_NO":"１號之１１９","E_COORD97":171503.19,"N_COORD97":2544353.0499999998,"ADDRESS":"中華路１號之１１９","OBJECTID":530424},"geometry":{"x":171503.19000000134,"y":2544353.0500000007}},{"attributes":{"ID":530452,"DIS_CODE":0,"TOWNNAME":"永康區","LI":"勝利里","LIN":"33鄰","STREET":"中華路","SECT":" ","MAREA":" ","LANE":" ","ALLEY":" ","HOUSE_NO":"１號之３７","E_COORD97":171501.94,"N_COORD97":2544353.0499999998,"ADDRESS":"中華路１號之３７","OBJECTID":530425},"geometry":{"x":171501.94000000134,"y":2544353.0500000007}},{"attributes":{"ID":530453,"DIS_CODE":0,"TOWNNAME":"永康區","LI":"勝利里","LIN":"33鄰","STREET":"中華路","SECT":" ","MAREA":" ","LANE":" ","ALLEY":" ","HOUSE_NO":"１號之４９","E_COORD97":171501.94,"N_COORD97":2544353.0499999998,"ADDRESS":"中華路１號之４９","OBJECTID":530426},"geometry":{"x":171501.94000000134,"y":2544353.0500000007}},{"attributes":{"ID":530454,"DIS_CODE":0,"TOWNNAME":"永康區","LI":"勝利里","LIN":"33鄰","STREET":"中華路","SECT":" ","MAREA":" ","LANE":" ","ALLEY":" ","HOUSE_NO":"１號之８４","E_COORD97":171501.88,"N_COORD97":2544353.0499999998,"ADDRESS":"中華路１號之８４","OBJECTID":530427},"geometry":{"x":171501.87999999989,"y":2544353.0500000007}},{"attributes":{"ID":530455,"DIS_CODE":0,"TOWNNAME":"永康區","LI":"勝利里","LIN":"33鄰","STREET":"中華路","SECT":" ","MAREA":" ","LANE":" ","ALLEY":" ","HOUSE_NO":"１號之４１","E_COORD97":171501.85999999999,"N_COORD97":2544353.0499999998,"ADDRESS":"中華路１號之４１","OBJECTID":530428},"geometry":{"x":171501.86000000127,"y":2544353.0500000007}},{"attributes":{"ID":530456,"DIS_CODE":0,"TOWNNAME":"永康區","LI":"勝利里","LIN":"33鄰","STREET":"中華路","SECT":" ","MAREA":" ","LANE":" ","ALLEY":" ","HOUSE_NO":"１號之９１","E_COORD97":171501.85999999999,"N_COORD97":2544353.0499999998,"ADDRESS":"中華路１號之９１","OBJECTID":530429},"geometry":{"x":171501.86000000127,"y":2544353.0500000007}},{"attributes":{"ID":530457,"DIS_CODE":0,"TOWNNAME":"永康區","LI":"勝利里","LIN":"33鄰","STREET":"中華路","SECT":" ","MAREA":" ","LANE":" ","ALLEY":" ","HOUSE_NO":"１號之４０","E_COORD97":171501.91,"N_COORD97":2544353.0499999998,"ADDRESS":"中華路１號之４０","OBJECTID":530430},"geometry":{"x":171501.91000000015,"y":2544353.0500000007}},{"attributes":{"ID":530458,"DIS_CODE":0,"TOWNNAME":"永康區","LI":"勝利里","LIN":"33鄰","STREET":"中華路","SECT":" ","MAREA":" ","LANE":" ","ALLEY":" ","HOUSE_NO":"１號之７０","E_COORD97":171501.91,"N_COORD97":2544353.0499999998,"ADDRESS":"中華路１號之７０","OBJECTID":530431},"geometry":{"x":171501.91000000015,"y":2544353.0500000007}},{"attributes":{"ID":530459,"DIS_CODE":0,"TOWNNAME":"永康區","LI":"勝利里","LIN":"33鄰","STREET":"中華路","SECT":" ","MAREA":" ","LANE":" ","ALLEY":" ","HOUSE_NO":"１號之３３","E_COORD97":171501.95999999999,"N_COORD97":2544353.0499999998,"ADDRESS":"中華路１號之３３","OBJECTID":530432},"geometry":{"x":171501.95999999996,"y":2544353.0500000007}},{"attributes":{"ID":530460,"DIS_CODE":0,"TOWNNAME":"永康區","LI":"勝利里","LIN":"33鄰","STREET":"中華路","SECT":" ","MAREA":" ","LANE":" ","ALLEY":" ","HOUSE_NO":"１號之１３９","E_COORD97":171503.19,"N_COORD97":2544353.0499999998,"ADDRESS":"中華路１號之１３９","OBJECTID":530433},"geometry":{"x":171503.19000000134,"y":2544353.0500000007}},{"attributes":{"ID":530461,"DIS_CODE":0,"TOWNNAME":"永康區","LI":"勝利里","LIN":"33鄰","STREET":"中華路","SECT":" ","MAREA":" ","LANE":" ","ALLEY":" ","HOUSE_NO":"１號之１３５","E_COORD97":171503.26000000001,"N_COORD97":2544353.0499999998,"ADDRESS":"中華路１號之１３５","OBJECTID":530434},"geometry":{"x":171503.25999999885,"y":2544353.0500000007}},{"attributes":{"ID":530462,"DIS_CODE":0,"TOWNNAME":"永康區","LI":"勝利里","LIN":"33鄰","STREET":"中華路","SECT":" ","MAREA":" ","LANE":" ","ALLEY":" ","HOUSE_NO":"１號之１１１","E_COORD97":171503.10999999999,"N_COORD97":2544353.0499999998,"ADDRESS":"中華路１號之１１１","OBJECTID":530435},"geometry":{"x":171503.11000000034,"y":2544353.0500000007}},{"attributes":{"ID":530463,"DIS_CODE":0,"TOWNNAME":"永康區","LI":"勝利里","LIN":"33鄰","STREET":"中華路","SECT":" ","MAREA":" ","LANE":" ","ALLEY":" ","HOUSE_NO":"１號之５６","E_COORD97":171501.95999999999,"N_COORD97":2544353.0499999998,"ADDRESS":"中華路１號之５６","OBJECTID":530436},"geometry":{"x":171501.95999999996,"y":2544353.0500000007}},{"attributes":{"ID":530464,"DIS_CODE":0,"TOWNNAME":"永康區","LI":"勝利里","LIN":"33鄰","STREET":"中華路","SECT":" ","MAREA":" ","LANE":" ","ALLEY":" ","HOUSE_NO":"１號之７２","E_COORD97":171501.98999999999,"N_COORD97":2544353.0499999998,"ADDRESS":"中華路１號之７２","OBJECTID":530437},"geometry":{"x":171501.99000000022,"y":2544353.0500000007}},{"attributes":{"ID":530465,"DIS_CODE":0,"TOWNNAME":"永康區","LI":"勝利里","LIN":"33鄰","STREET":"中華路","SECT":" ","MAREA":" ","LANE":" ","ALLEY":" ","HOUSE_NO":"１號之９８","E_COORD97":171502.01000000001,"N_COORD97":2544353.0499999998,"ADDRESS":"中華路１號之９８","OBJECTID":530438},"geometry":{"x":171502.01000000071,"y":2544353.0500000007}},{"attributes":{"ID":530466,"DIS_CODE":0,"TOWNNAME":"永康區","LI":"勝利里","LIN":"33鄰","STREET":"中華路","SECT":" ","MAREA":" ","LANE":" ","ALLEY":" ","HOUSE_NO":"１號之７４","E_COORD97":171501.88,"N_COORD97":2544353.0499999998,"ADDRESS":"中華路１號之７４","OBJECTID":530439},"geometry":{"x":171501.87999999989,"y":2544353.0500000007}},{"attributes":{"ID":530467,"DIS_CODE":0,"TOWNNAME":"永康區","LI":"勝利里","LIN":"33鄰","STREET":"中華路","SECT":" ","MAREA":" ","LANE":" ","ALLEY":" ","HOUSE_NO":"１號之７９","E_COORD97":171501.94,"N_COORD97":2544353.0499999998,"ADDRESS":"中華路１號之７９","OBJECTID":530440},"geometry":{"x":171501.94000000134,"y":2544353.0500000007}},{"attributes":{"ID":530468,"DIS_CODE":0,"TOWNNAME":"永康區","LI":"勝利里","LIN":"33鄰","STREET":"中華路","SECT":" ","MAREA":" ","LANE":" ","ALLEY":" ","HOUSE_NO":"１號之９０","E_COORD97":171501.91,"N_COORD97":2544353.0499999998,"ADDRESS":"中華路１號之９０","OBJECTID":530441},"geometry":{"x":171501.91000000015,"y":2544353.0500000007}},{"attributes":{"ID":530469,"DIS_CODE":0,"TOWNNAME":"永康區","LI":"勝利里","LIN":"33鄰","STREET":"中華路","SECT":" ","MAREA":" ","LANE":" ","ALLEY":" ","HOUSE_NO":"１號之５１","E_COORD97":171501.85999999999,"N_COORD97":2544353.0499999998,"ADDRESS":"中華路１號之５１","OBJECTID":530442},"geometry":{"x":171501.86000000127,"y":2544353.0500000007}},{"attributes":{"ID":530470,"DIS_CODE":0,"TOWNNAME":"永康區","LI":"勝利里","LIN":"33鄰","STREET":"中華路","SECT":" ","MAREA":" ","LANE":" ","ALLEY":" ","HOUSE_NO":"１號之１４１","E_COORD97":171503.10999999999,"N_COORD97":2544353.0499999998,"ADDRESS":"中華路１號之１４１","OBJECTID":530443},"geometry":{"x":171503.11000000034,"y":2544353.0500000007}},{"attributes":{"ID":530471,"DIS_CODE":0,"TOWNNAME":"永康區","LI":"勝利里","LIN":"33鄰","STREET":"中華路","SECT":" ","MAREA":" ","LANE":" ","ALLEY":" ","HOUSE_NO":"１號之１３１","E_COORD97":171503.10999999999,"N_COORD97":2544353.0499999998,"ADDRESS":"中華路１號之１３１","OBJECTID":530444},"geometry":{"x":171503.11000000034,"y":2544353.0500000007}},{"attributes":{"ID":530472,"DIS_CODE":0,"TOWNNAME":"永康區","LI":"勝利里","LIN":"33鄰","STREET":"中華路","SECT":" ","MAREA":" ","LANE":" ","ALLEY":" ","HOUSE_NO":"１號之１２７","E_COORD97":171503.19,"N_COORD97":2544353.0499999998,"ADDRESS":"中華路１號之１２７","OBJECTID":530445},"geometry":{"x":171503.19000000134,"y":2544353.0500000007}},{"attributes":{"ID":530473,"DIS_CODE":0,"TOWNNAME":"永康區","LI":"勝利里","LIN":"33鄰","STREET":"中華路","SECT":" ","MAREA":" ","LANE":" ","ALLEY":" ","HOUSE_NO":"２１號","E_COORD97":171532.29999999999,"N_COORD97":2544457,"ADDRESS":"中華路２１號","OBJECTID":530446},"geometry":{"x":171532.30000000075,"y":2544457}},{"attributes":{"ID":530474,"DIS_CODE":0,"TOWNNAME":"永康區","LI":"勝利里","LIN":"33鄰","STREET":"中華路","SECT":" ","MAREA":" ","LANE":" ","ALLEY":" ","HOUSE_NO":"１號之５５","E_COORD97":171502.01000000001,"N_COORD97":2544353.0499999998,"ADDRESS":"中華路１號之５５","OBJECTID":530447},"geometry":{"x":171502.01000000071,"y":2544353.0500000007}},{"attributes":{"ID":530475,"DIS_CODE":0,"TOWNNAME":"永康區","LI":"崑山里","LIN":"33鄰","STREET":"大仁街","SECT":" ","MAREA":" ","LANE":" ","ALLEY":" ","HOUSE_NO":"１４０號","E_COORD97":173895.76999999999,"N_COORD97":2544932.4500000002,"ADDRESS":"大仁街１４０號","OBJECTID":530448},"geometry":{"x":173895.77000000048,"y":2544932.450000003}},{"attributes":{"ID":530476,"DIS_CODE":0,"TOWNNAME":"永康區","LI":"勝利里","LIN":"33鄰","STREET":"中華路","SECT":" ","MAREA":" ","LANE":" ","ALLEY":" ","HOUSE_NO":"１號之７５","E_COORD97":171502.01000000001,"N_COORD97":2544353.0499999998,"ADDRESS":"中華路１號之７５","OBJECTID":530449},"geometry":{"x":171502.01000000071,"y":2544353.0500000007}},{"attributes":{"ID":530477,"DIS_CODE":0,"TOWNNAME":"永康區","LI":"勝利里","LIN":"33鄰","STREET":"中華路","SECT":" ","MAREA":" ","LANE":" ","ALLEY":" ","HOUSE_NO":"１號之１１８","E_COORD97":171503.26000000001,"N_COORD97":2544353.0499999998,"ADDRESS":"中華路１號之１１８","OBJECTID":530450},"geometry":{"x":171503.25999999885,"y":2544353.0500000007}},{"attributes":{"ID":530478,"DIS_CODE":0,"TOWNNAME":"永康區","LI":"勝利里","LIN":"33鄰","STREET":"中華路","SECT":" ","MAREA":" ","LANE":" ","ALLEY":" ","HOUSE_NO":"１號之５２","E_COORD97":171501.98999999999,"N_COORD97":2544353.0499999998,"ADDRESS":"中華路１號之５２","OBJECTID":530451},"geometry":{"x":171501.99000000022,"y":2544353.0500000007}},{"attributes":{"ID":530479,"DIS_CODE":0,"TOWNNAME":"永康區","LI":"崑山里","LIN":"33鄰","STREET":"大仁街","SECT":" ","MAREA":" ","LANE":" ","ALLEY":" ","HOUSE_NO":"１１６之１號","E_COORD97":173873.39000000001,"N_COORD97":2544861.4399999999,"ADDRESS":"大仁街１１６之１號","OBJECTID":530452},"geometry":{"x":173873.38999999966,"y":2544861.4400000032}},{"attributes":{"ID":530480,"DIS_CODE":0,"TOWNNAME":"永康區","LI":"勝利里","LIN":"33鄰","STREET":"中華路","SECT":" ","MAREA":" ","LANE":" ","ALLEY":" ","HOUSE_NO":"１號之９３","E_COORD97":171501.95999999999,"N_COORD97":2544353.0499999998,"ADDRESS":"中華路１號之９３","OBJECTID":530453},"geometry":{"x":171501.95999999996,"y":2544353.0500000007}},{"attributes":{"ID":530481,"DIS_CODE":0,"TOWNNAME":"永康區","LI":"勝利里","LIN":"33鄰","STREET":"中華路","SECT":" ","MAREA":" ","LANE":" ","ALLEY":" ","HOUSE_NO":"１號之７１","E_COORD97":171501.85999999999,"N_COORD97":2544353.0499999998,"ADDRESS":"中華路１號之７１","OBJECTID":530454},"geometry":{"x":171501.86000000127,"y":2544353.0500000007}},{"attributes":{"ID":530482,"DIS_CODE":0,"TOWNNAME":"永康區","LI":"崑山里","LIN":"33鄰","STREET":"大仁街","SECT":" ","MAREA":" ","LANE":" ","ALLEY":" ","HOUSE_NO":"１２８號","E_COORD97":173880.41,"N_COORD97":2544887.3900000001,"ADDRESS":"大仁街１２８號","OBJECTID":530455},"geometry":{"x":173880.41000000015,"y":2544887.3900000025}},{"attributes":{"ID":530483,"DIS_CODE":0,"TOWNNAME":"永康區","LI":"勝利里","LIN":"33鄰","STREET":"中華路","SECT":" ","MAREA":" ","LANE":" ","ALLEY":" ","HOUSE_NO":"１號之１３８","E_COORD97":171503.26000000001,"N_COORD97":2544353.0499999998,"ADDRESS":"中華路１號之１３８","OBJECTID":530456},"geometry":{"x":171503.25999999885,"y":2544353.0500000007}},{"attributes":{"ID":530484,"DIS_CODE":0,"TOWNNAME":"永康區","LI":"勝利里","LIN":"33鄰","STREET":"中華路","SECT":" ","MAREA":" ","LANE":" ","ALLEY":" ","HOUSE_NO":"１號之４２","E_COORD97":171501.98999999999,"N_COORD97":2544353.0499999998,"ADDRESS":"中華路１號之４２","OBJECTID":530457},"geometry":{"x":171501.99000000022,"y":2544353.0500000007}},{"attributes":{"ID":530485,"DIS_CODE":0,"TOWNNAME":"永康區","LI":"勝利里","LIN":"33鄰","STREET":"中華路","SECT":" ","MAREA":" ","LANE":" ","ALLEY":" ","HOUSE_NO":"１號之１１２","E_COORD97":171503.23999999999,"N_COORD97":2544353.0499999998,"ADDRESS":"中華路１號之１１２","OBJECTID":530458},"geometry":{"x":171503.24000000022,"y":2544353.0500000007}},{"attributes":{"ID":530486,"DIS_CODE":0,"TOWNNAME":"永康區","LI":"崑山里","LIN":"33鄰","STREET":"國光三街","SECT":" ","MAREA":" ","LANE":" ","ALLEY":" ","HOUSE_NO":"４９號","E_COORD97":173966.04000000001,"N_COORD97":2544912.0099999998,"ADDRESS":"國光三街４９號","OBJECTID":530459},"geometry":{"x":173966.04000000004,"y":2544912.0099999979}},{"attributes":{"ID":530487,"DIS_CODE":0,"TOWNNAME":"永康區","LI":"勝利里","LIN":"33鄰","STREET":"中華路","SECT":" ","MAREA":" ","LANE":" ","ALLEY":" ","HOUSE_NO":"１號之１２６","E_COORD97":171503.20999999999,"N_COORD97":2544353.0499999998,"ADDRESS":"中華路１號之１２６","OBJECTID":530460},"geometry":{"x":171503.20999999996,"y":2544353.0500000007}},{"attributes":{"ID":530488,"DIS_CODE":0,"TOWNNAME":"永康區","LI":"勝利里","LIN":"33鄰","STREET":"中華路","SECT":" ","MAREA":" ","LANE":" ","ALLEY":" ","HOUSE_NO":"１號之１００","E_COORD97":171503.16,"N_COORD97":2544353.0499999998,"ADDRESS":"中華路１號之１００","OBJECTID":530461},"geometry":{"x":171503.16000000108,"y":2544353.0500000007}},{"attributes":{"ID":530489,"DIS_CODE":0,"TOWNNAME":"永康區","LI":"勝利里","LIN":"33鄰","STREET":"中華路","SECT":" ","MAREA":" ","LANE":" ","ALLEY":" ","HOUSE_NO":"１號之１２２","E_COORD97":171503.23999999999,"N_COORD97":2544353.0499999998,"ADDRESS":"中華路１號之１２２","OBJECTID":530462},"geometry":{"x":171503.24000000022,"y":2544353.0500000007}},{"attributes":{"ID":530490,"DIS_CODE":0,"TOWNNAME":"永康區","LI":"勝利里","LIN":"33鄰","STREET":"中華路","SECT":" ","MAREA":" ","LANE":" ","ALLEY":" ","HOUSE_NO":"１號之１４３","E_COORD97":171503.20999999999,"N_COORD97":2544353.0499999998,"ADDRESS":"中華路１號之１４３","OBJECTID":530463},"geometry":{"x":171503.20999999996,"y":2544353.0500000007}},{"attributes":{"ID":530491,"DIS_CODE":0,"TOWNNAME":"永康區","LI":"勝利里","LIN":"33鄰","STREET":"中華路","SECT":" ","MAREA":" ","LANE":" ","ALLEY":" ","HOUSE_NO":"１號之１４６","E_COORD97":171503.20999999999,"N_COORD97":2544353.0499999998,"ADDRESS":"中華路１號之１４６","OBJECTID":530464},"geometry":{"x":171503.20999999996,"y":2544353.0500000007}},{"attributes":{"ID":530492,"DIS_CODE":0,"TOWNNAME":"永康區","LI":"勝利里","LIN":"33鄰","STREET":"中華路","SECT":" ","MAREA":" ","LANE":" ","ALLEY":" ","HOUSE_NO":"１號之１２９","E_COORD97":171503.19,"N_COORD97":2544353.0499999998,"ADDRESS":"中華路１號之１２９","OBJECTID":530465},"geometry":{"x":171503.19000000134,"y":2544353.0500000007}},{"attributes":{"ID":530493,"DIS_CODE":0,"TOWNNAME":"永康區","LI":"勝利里","LIN":"33鄰","STREET":"中華路","SECT":" ","MAREA":" ","LANE":" ","ALLEY":" ","HOUSE_NO":"１號之１３４","E_COORD97":171503.13,"N_COORD97":2544353.0499999998,"ADDRESS":"中華路１號之１３４","OBJECTID":530466},"geometry":{"x":171503.13000000082,"y":2544353.0500000007}},{"attributes":{"ID":530494,"DIS_CODE":0,"TOWNNAME":"永康區","LI":"\u25A0行里","LIN":"33鄰","STREET":"中正北路","SECT":" ","MAREA":" ","LANE":" ","ALLEY":" ","HOUSE_NO":"３５號","E_COORD97":171940.76999999999,"N_COORD97":2549094.0699999998,"ADDRESS":"中正北路３５號","OBJECTID":530467},"geometry":{"x":171940.77000000048,"y":2549094.0700000022}},{"attributes":{"ID":530495,"DIS_CODE":0,"TOWNNAME":"永康區","LI":"埔園里","LIN":"33鄰","STREET":"埔園街","SECT":" ","MAREA":" ","LANE":" ","ALLEY":" ","HOUSE_NO":"１３７號","E_COORD97":173893.98999999999,"N_COORD97":2548162.29,"ADDRESS":"埔園街１３７號","OBJECTID":530468},"geometry":{"x":173893.99000000022,"y":2548162.290000001}},{"attributes":{"ID":530496,"DIS_CODE":0,"TOWNNAME":"永康區","LI":"埔園里","LIN":"33鄰","STREET":"自強路","SECT":" ","MAREA":" ","LANE":" ","ALLEY":" ","HOUSE_NO":"４５７號","E_COORD97":173866.38,"N_COORD97":2548060.9900000002,"ADDRESS":"自強路４５７號","OBJECTID":530469},"geometry":{"x":173866.38000000082,"y":2548060.9900000002}},{"attributes":{"ID":530497,"DIS_CODE":0,"TOWNNAME":"永康區","LI":"勝利里","LIN":"33鄰","STREET":"中華路","SECT":" ","MAREA":" ","LANE":" ","ALLEY":" ","HOUSE_NO":"１號之８","E_COORD97":171500.76000000001,"N_COORD97":2544353.0499999998,"ADDRESS":"中華路１號之８","OBJECTID":530470},"geometry":{"x":171500.76000000071,"y":2544353.0500000007}},{"attributes":{"ID":530498,"DIS_CODE":0,"TOWNNAME":"永康區","LI":"埔園里","LIN":"33鄰","STREET":"埔園街","SECT":" ","MAREA":" ","LANE":" ","ALLEY":" ","HOUSE_NO":"１２３號","E_COORD97":173922.01999999999,"N_COORD97":2548136.54,"ADDRESS":"埔園街１２３號","OBJECTID":530471},"geometry":{"x":173922.01999999862,"y":2548136.540000001}},{"attributes":{"ID":530499,"DIS_CODE":0,"TOWNNAME":"永康區","LI":"勝利里","LIN":"33鄰","STREET":"中華路","SECT":" ","MAREA":" ","LANE":" ","ALLEY":" ","HOUSE_NO":"１號之１３","E_COORD97":171501.95999999999,"N_COORD97":2544353.0499999998,"ADDRESS":"中華路１號之１３","OBJECTID":530472},"geometry":{"x":171501.95999999996,"y":2544353.0500000007}},{"attributes":{"ID":530500,"DIS_CODE":0,"TOWNNAME":"永康區","LI":"勝利里","LIN":"33鄰","STREET":"中華路","SECT":" ","MAREA":" ","LANE":" ","ALLEY":" ","HOUSE_NO":"１號之１０","E_COORD97":171501.91,"N_COORD97":2544353.0499999998,"ADDRESS":"中華路１號之１０","OBJECTID":530473},"geometry":{"x":171501.91000000015,"y":2544353.0500000007}},{"attributes":{"ID":530501,"DIS_CODE":0,"TOWNNAME":"永康區","LI":"勝利里","LIN":"33鄰","STREET":"中華路","SECT":" ","MAREA":" ","LANE":" ","ALLEY":" ","HOUSE_NO":"１號之１１","E_COORD97":171501.85999999999,"N_COORD97":2544353.0499999998,"ADDRESS":"中華路１號之１１","OBJECTID":530474},"geometry":{"x":171501.86000000127,"y":2544353.0500000007}},{"attributes":{"ID":530502,"DIS_CODE":0,"TOWNNAME":"永康區","LI":"勝利里","LIN":"33鄰","STREET":"中華路","SECT":" ","MAREA":" ","LANE":" ","ALLEY":" ","HOUSE_NO":"１號之５","E_COORD97":171500.76000000001,"N_COORD97":2544353.0499999998,"ADDRESS":"中華路１號之５","OBJECTID":530475},"geometry":{"x":171500.76000000071,"y":2544353.0500000007}},{"attributes":{"ID":530503,"DIS_CODE":0,"TOWNNAME":"永康區","LI":"勝利里","LIN":"33鄰","STREET":"中華路","SECT":" ","MAREA":" ","LANE":" ","ALLEY":" ","HOUSE_NO":"１號之１０３","E_COORD97":171503.20999999999,"N_COORD97":2544353.0499999998,"ADDRESS":"中華路１號之１０３","OBJECTID":530476},"geometry":{"x":171503.20999999996,"y":2544353.0500000007}},{"attributes":{"ID":530504,"DIS_CODE":0,"TOWNNAME":"永康區","LI":"勝利里","LIN":"33鄰","STREET":"中華路","SECT":" ","MAREA":" ","LANE":" ","ALLEY":" ","HOUSE_NO":"１號之１１０","E_COORD97":171503.16,"N_COORD97":2544353.0499999998,"ADDRESS":"中華路１號之１１０","OBJECTID":530477},"geometry":{"x":171503.16000000108,"y":2544353.0500000007}},{"attributes":{"ID":530505,"DIS_CODE":0,"TOWNNAME":"永康區","LI":"勝利里","LIN":"33鄰","STREET":"中華路","SECT":" ","MAREA":" ","LANE":" ","ALLEY":" ","HOUSE_NO":"１號之１７","E_COORD97":171501.94,"N_COORD97":2544353.0499999998,"ADDRESS":"中華路１號之１７","OBJECTID":530478},"geometry":{"x":171501.94000000134,"y":2544353.0500000007}},{"attributes":{"ID":530506,"DIS_CODE":0,"TOWNNAME":"永康區","LI":"勝利里","LIN":"33鄰","STREET":"中華路","SECT":" ","MAREA":" ","LANE":" ","ALLEY":" ","HOUSE_NO":"１號之２０","E_COORD97":171501.91,"N_COORD97":2544353.0499999998,"ADDRESS":"中華路１號之２０","OBJECTID":530479},"geometry":{"x":171501.91000000015,"y":2544353.0500000007}},{"attributes":{"ID":530507,"DIS_CODE":0,"TOWNNAME":"永康區","LI":"勝利里","LIN":"33鄰","STREET":"中華路","SECT":" ","MAREA":" ","LANE":" ","ALLEY":" ","HOUSE_NO":"１號之６","E_COORD97":171500.70999999999,"N_COORD97":2544353.0499999998,"ADDRESS":"中華路１號之６","OBJECTID":530480},"geometry":{"x":171500.71000000089,"y":2544353.0500000007}},{"attributes":{"ID":530508,"DIS_CODE":0,"TOWNNAME":"永康區","LI":"埔園里","LIN":"33鄰","STREET":"埔園街","SECT":" ","MAREA":" ","LANE":" ","ALLEY":" ","HOUSE_NO":"１２５號","E_COORD97":173918.92000000001,"N_COORD97":2548139.54,"ADDRESS":"埔園街１２５號","OBJECTID":530481},"geometry":{"x":173918.92000000086,"y":2548139.540000001}},{"attributes":{"ID":530509,"DIS_CODE":0,"TOWNNAME":"永康區","LI":"埔園里","LIN":"33鄰","STREET":"埔園街","SECT":" ","MAREA":" ","LANE":" ","ALLEY":" ","HOUSE_NO":"１３１號","E_COORD97":173903.79000000001,"N_COORD97":2548153.29,"ADDRESS":"埔園街１３１號","OBJECTID":530482},"geometry":{"x":173903.7900000019,"y":2548153.2899999991}},{"attributes":{"ID":530510,"DIS_CODE":0,"TOWNNAME":"永康區","LI":"埔園里","LIN":"33鄰","STREET":"埔園街","SECT":" ","MAREA":" ","LANE":" ","ALLEY":" ","HOUSE_NO":"１１５號","E_COORD97":173934.67999999999,"N_COORD97":2548123.79,"ADDRESS":"埔園街１１５號","OBJECTID":530483},"geometry":{"x":173934.68000000156,"y":2548123.7900000028}},{"attributes":{"ID":530511,"DIS_CODE":0,"TOWNNAME":"永康區","LI":"勝利里","LIN":"33鄰","STREET":"中華路","SECT":" ","MAREA":" ","LANE":" ","ALLEY":" ","HOUSE_NO":"１號之２６","E_COORD97":171501.95999999999,"N_COORD97":2544353.0499999998,"ADDRESS":"中華路１號之２６","OBJECTID":530484},"geometry":{"x":171501.95999999996,"y":2544353.0500000007}},{"attributes":{"ID":530512,"DIS_CODE":0,"TOWNNAME":"永康區","LI":"勝利里","LIN":"33鄰","STREET":"中華路","SECT":" ","MAREA":" ","LANE":" ","ALLEY":" ","HOUSE_NO":"１號之１０８","E_COORD97":171503.26000000001,"N_COORD97":2544353.0499999998,"ADDRESS":"中華路１號之１０８","OBJECTID":530485},"geometry":{"x":171503.25999999885,"y":2544353.0500000007}},{"attributes":{"ID":530513,"DIS_CODE":0,"TOWNNAME":"永康區","LI":"勝利里","LIN":"33鄰","STREET":"中華路","SECT":" ","MAREA":" ","LANE":" ","ALLEY":" ","HOUSE_NO":"１號之２１","E_COORD97":171501.85999999999,"N_COORD97":2544353.0499999998,"ADDRESS":"中華路１號之２１","OBJECTID":530486},"geometry":{"x":171501.86000000127,"y":2544353.0500000007}},{"attributes":{"ID":530514,"DIS_CODE":0,"TOWNNAME":"永康區","LI":"勝利里","LIN":"33鄰","STREET":"中華路","SECT":" ","MAREA":" ","LANE":" ","ALLEY":" ","HOUSE_NO":"１號之２","E_COORD97":171500.73999999999,"N_COORD97":2544353.0499999998,"ADDRESS":"中華路１號之２","OBJECTID":530487},"geometry":{"x":171500.74000000115,"y":2544353.0500000007}},{"attributes":{"ID":530515,"DIS_CODE":0,"TOWNNAME":"永康區","LI":"埔園里","LIN":"33鄰","STREET":"埔園街","SECT":" ","MAREA":" ","LANE":" ","ALLEY":" ","HOUSE_NO":"１３３號","E_COORD97":173900.70000000001,"N_COORD97":2548156.54,"ADDRESS":"埔園街１３３號","OBJECTID":530488},"geometry":{"x":173900.70000000019,"y":2548156.540000001}},{"attributes":{"ID":530516,"DIS_CODE":0,"TOWNNAME":"永康區","LI":"勝利里","LIN":"33鄰","STREET":"中華路","SECT":" ","MAREA":" ","LANE":" ","ALLEY":" ","HOUSE_NO":"１號之１１６","E_COORD97":171503.20999999999,"N_COORD97":2544353.0499999998,"ADDRESS":"中華路１號之１１６","OBJECTID":530489},"geometry":{"x":171503.20999999996,"y":2544353.0500000007}},{"attributes":{"ID":530517,"DIS_CODE":0,"TOWNNAME":"永康區","LI":"埔園里","LIN":"33鄰","STREET":"埔園街","SECT":" ","MAREA":" ","LANE":" ","ALLEY":" ","HOUSE_NO":"１２７號","E_COORD97":173915.48000000001,"N_COORD97":2548141.79,"ADDRESS":"埔園街１２７號","OBJECTID":530490},"geometry":{"x":173915.48000000138,"y":2548141.790000001}},{"attributes":{"ID":530518,"DIS_CODE":0,"TOWNNAME":"永康區","LI":"勝利里","LIN":"33鄰","STREET":"中華路","SECT":" ","MAREA":" ","LANE":" ","ALLEY":" ","HOUSE_NO":"１號之２７","E_COORD97":171501.94,"N_COORD97":2544353.0499999998,"ADDRESS":"中華路１號之２７","OBJECTID":530491},"geometry":{"x":171501.94000000134,"y":2544353.0500000007}},{"attributes":{"ID":530519,"DIS_CODE":0,"TOWNNAME":"仁德區","LI":"一甲里","LIN":"19鄰","STREET":"太乙三街","SECT":" ","MAREA":" ","LANE":" ","ALLEY":" ","HOUSE_NO":"８號","E_COORD97":173388.98000000001,"N_COORD97":2542431.25,"ADDRESS":"太乙三街８號","OBJECTID":530492},"geometry":{"x":173388.98000000045,"y":2542431.25}},{"attributes":{"ID":530520,"DIS_CODE":0,"TOWNNAME":"仁德區","LI":"土庫里","LIN":"1鄰","STREET":"大發路","SECT":" ","MAREA":" ","LANE":" ","ALLEY":" ","HOUSE_NO":"６之１號","E_COORD97":173234.48000000001,"N_COORD97":2542581.2999999998,"ADDRESS":"大發路６之１號","OBJECTID":530493},"geometry":{"x":173234.48000000045,"y":2542581.3000000007}},{"attributes":{"ID":530521,"DIS_CODE":0,"TOWNNAME":"永康區","LI":"勝利里","LIN":"33鄰","STREET":"中華路","SECT":" ","MAREA":" ","LANE":" ","ALLEY":" ","HOUSE_NO":"１號之１５","E_COORD97":171502.01000000001,"N_COORD97":2544353.0499999998,"ADDRESS":"中華路１號之１５","OBJECTID":530494},"geometry":{"x":171502.01000000071,"y":2544353.0500000007}},{"attributes":{"ID":530522,"DIS_CODE":0,"TOWNNAME":"永康區","LI":"埔園里","LIN":"33鄰","STREET":"埔園街","SECT":" ","MAREA":" ","LANE":" ","ALLEY":" ","HOUSE_NO":"１４３號","E_COORD97":173883.79000000001,"N_COORD97":2548171.0499999998,"ADDRESS":"埔園街１４３號","OBJECTID":530495},"geometry":{"x":173883.79000000097,"y":2548171.0500000045}},{"attributes":{"ID":530523,"DIS_CODE":0,"TOWNNAME":"永康區","LI":"埔園里","LIN":"33鄰","STREET":"埔園街","SECT":" ","MAREA":" ","LANE":" ","ALLEY":" ","HOUSE_NO":"１１９號","E_COORD97":173927.10999999999,"N_COORD97":2548131.04,"ADDRESS":"埔園街１１９號","OBJECTID":530496},"geometry":{"x":173927.11000000034,"y":2548131.0399999991}},{"attributes":{"ID":530524,"DIS_CODE":0,"TOWNNAME":"永康區","LI":"勝利里","LIN":"33鄰","STREET":"中華路","SECT":" ","MAREA":" ","LANE":" ","ALLEY":" ","HOUSE_NO":"１號之３０","E_COORD97":171501.91,"N_COORD97":2544353.0499999998,"ADDRESS":"中華路１號之３０","OBJECTID":530497},"geometry":{"x":171501.91000000015,"y":2544353.0500000007}},{"attributes":{"ID":530525,"DIS_CODE":0,"TOWNNAME":"永康區","LI":"勝利里","LIN":"33鄰","STREET":"中華路","SECT":" ","MAREA":" ","LANE":" ","ALLEY":" ","HOUSE_NO":"１號之１０５","E_COORD97":171503.26000000001,"N_COORD97":2544353.0499999998,"ADDRESS":"中華路１號之１０５","OBJECTID":530498},"geometry":{"x":171503.25999999885,"y":2544353.0500000007}},{"attributes":{"ID":530526,"DIS_CODE":0,"TOWNNAME":"永康區","LI":"勝利里","LIN":"33鄰","STREET":"中華路","SECT":" ","MAREA":" ","LANE":" ","ALLEY":" ","HOUSE_NO":"１號之１３０","E_COORD97":171503.16,"N_COORD97":2544353.0499999998,"ADDRESS":"中華路１號之１３０","OBJECTID":530499},"geometry":{"x":171503.16000000108,"y":2544353.0500000007}},{"attributes":{"ID":530527,"DIS_CODE":0,"TOWNNAME":"永康區","LI":"復國里","LIN":"33鄰","STREET":"復華一街","SECT":" ","MAREA":" ","LANE":" ","ALLEY":" ","HOUSE_NO":"１１６號","E_COORD97":172448.22,"N_COORD97":2545090.7200000002,"ADDRESS":"復華一街１１６號","OBJECTID":530500},"geometry":{"x":172448.22000000067,"y":2545090.7200000007}},{"attributes":{"ID":530528,"DIS_CODE":0,"TOWNNAME":"仁德區","LI":"仁義里","LIN":"33鄰","STREET":"中清五街","SECT":" ","MAREA":" ","LANE":" ","ALLEY":" ","HOUSE_NO":"３５號","E_COORD97":173410.39999999999,"N_COORD97":2541498.79,"ADDRESS":"中清五街３５號","OBJECTID":530501},"geometry":{"x":173410.4000000013,"y":2541498.7900000028}},{"attributes":{"ID":530529,"DIS_CODE":0,"TOWNNAME":"仁德區","LI":"仁義里","LIN":"33鄰","STREET":"正義二街","SECT":" ","MAREA":" ","LANE":" ","ALLEY":" ","HOUSE_NO":"２２號","E_COORD97":173454.62,"N_COORD97":2541550.27,"ADDRESS":"正義二街２２號","OBJECTID":530502},"geometry":{"x":173454.62000000104,"y":2541550.2700000033}},{"attributes":{"ID":530530,"DIS_CODE":0,"TOWNNAME":"仁德區","LI":"成功里","LIN":"33鄰","STREET":"成功一街","SECT":" ","MAREA":" ","LANE":" ","ALLEY":" ","HOUSE_NO":"４９號","E_COORD97":170538.28,"N_COORD97":2540097.77,"ADDRESS":"成功一街４９號","OBJECTID":530503},"geometry":{"x":170538.28000000119,"y":2540097.7699999996}},{"attributes":{"ID":530531,"DIS_CODE":0,"TOWNNAME":"新化區","LI":"東榮里","LIN":"33鄰","STREET":"護安街","SECT":" ","MAREA":" ","LANE":" ","ALLEY":" ","HOUSE_NO":"７３號","E_COORD97":179197.38,"N_COORD97":2548384.2599999998,"ADDRESS":"護安街７３號","OBJECTID":530504},"geometry":{"x":179197.38000000082,"y":2548384.2599999998}},{"attributes":{"ID":530532,"DIS_CODE":0,"TOWNNAME":"新化區","LI":"東榮里","LIN":"33鄰","STREET":"信義路","SECT":" ","MAREA":" ","LANE":" ","ALLEY":" ","HOUSE_NO":"２１０號","E_COORD97":179154.73000000001,"N_COORD97":2548339.25,"ADDRESS":"信義路２１０號","OBJECTID":530505},"geometry":{"x":179154.73000000231,"y":2548339.2500000019}},{"attributes":{"ID":530533,"DIS_CODE":0,"TOWNNAME":"新化區","LI":"東榮里","LIN":"33鄰","STREET":"信義路","SECT":" ","MAREA":" ","LANE":" ","ALLEY":" ","HOUSE_NO":"２１８號","E_COORD97":179140.53,"N_COORD97":2548338.25,"ADDRESS":"信義路２１８號","OBJECTID":530506},"geometry":{"x":179140.53000000212,"y":2548338.2499999981}},{"attributes":{"ID":530534,"DIS_CODE":0,"TOWNNAME":"新化區","LI":"東榮里","LIN":"33鄰","STREET":"信義路","SECT":" ","MAREA":" ","LANE":" ","ALLEY":" ","HOUSE_NO":"２１２號","E_COORD97":179150.92999999999,"N_COORD97":2548339.25,"ADDRESS":"信義路２１２號","OBJECTID":530507},"geometry":{"x":179150.93000000156,"y":2548339.2500000019}},{"attributes":{"ID":530535,"DIS_CODE":0,"TOWNNAME":"歸仁區","LI":"許厝里","LIN":"33鄰","STREET":"公園八街","SECT":" ","MAREA":" ","LANE":" ","ALLEY":" ","HOUSE_NO":"２號","E_COORD97":177882.67999999999,"N_COORD97":2540489.8199999998,"ADDRESS":"公園八街２號","OBJECTID":530508},"geometry":{"x":177882.6799999997,"y":2540489.820000004}},{"attributes":{"ID":530536,"DIS_CODE":0,"TOWNNAME":"歸仁區","LI":"許厝里","LIN":"33鄰","STREET":"公園八街","SECT":" ","MAREA":" ","LANE":" ","ALLEY":" ","HOUSE_NO":"１６號","E_COORD97":177887.23000000001,"N_COORD97":2540517.8199999998,"ADDRESS":"公園八街１６號","OBJECTID":530509},"geometry":{"x":177887.23000000138,"y":2540517.8200000022}},{"attributes":{"ID":530537,"DIS_CODE":0,"TOWNNAME":"歸仁區","LI":"許厝里","LIN":"33鄰","STREET":"公園八街","SECT":" ","MAREA":" ","LANE":" ","ALLEY":" ","HOUSE_NO":"６號","E_COORD97":177884.78,"N_COORD97":2540500.8199999998,"ADDRESS":"公園八街６號","OBJECTID":530510},"geometry":{"x":177884.78000000119,"y":2540500.8200000022}},{"attributes":{"ID":530538,"DIS_CODE":0,"TOWNNAME":"歸仁區","LI":"許厝里","LIN":"33鄰","STREET":"公園八街","SECT":" ","MAREA":" ","LANE":" ","ALLEY":" ","HOUSE_NO":"３８號","E_COORD97":177902.92999999999,"N_COORD97":2540583.8100000001,"ADDRESS":"公園八街３８號","OBJECTID":530511},"geometry":{"x":177902.9299999997,"y":2540583.8100000005}},{"attributes":{"ID":530539,"DIS_CODE":0,"TOWNNAME":"歸仁區","LI":"許厝里","LIN":"33鄰","STREET":"公園八街","SECT":" ","MAREA":" ","LANE":" ","ALLEY":" ","HOUSE_NO":"１９號","E_COORD97":177874.92999999999,"N_COORD97":2540523.8199999998,"ADDRESS":"公園八街１９號","OBJECTID":530512},"geometry":{"x":177874.93000000063,"y":2540523.8200000022}},{"attributes":{"ID":530540,"DIS_CODE":0,"TOWNNAME":"歸仁區","LI":"許厝里","LIN":"33鄰","STREET":"公園八街","SECT":" ","MAREA":" ","LANE":" ","ALLEY":" ","HOUSE_NO":"２８號","E_COORD97":177890.53,"N_COORD97":2540567.8199999998,"ADDRESS":"公園八街２８號","OBJECTID":530513},"geometry":{"x":177890.53000000026,"y":2540567.820000004}},{"attributes":{"ID":530541,"DIS_CODE":0,"TOWNNAME":"歸仁區","LI":"許厝里","LIN":"33鄰","STREET":"公園八街","SECT":" ","MAREA":" ","LANE":" ","ALLEY":" ","HOUSE_NO":"１號","E_COORD97":177870.38,"N_COORD97":2540489.8199999998,"ADDRESS":"公園八街１號","OBJECTID":530514},"geometry":{"x":177870.38000000082,"y":2540489.820000004}},{"attributes":{"ID":530542,"DIS_CODE":0,"TOWNNAME":"歸仁區","LI":"辜厝里","LIN":"33鄰","STREET":"大吉二街","SECT":" ","MAREA":" ","LANE":" ","ALLEY":" ","HOUSE_NO":"３２號","E_COORD97":177289.94,"N_COORD97":2540531.6800000002,"ADDRESS":"大吉二街３２號","OBJECTID":530515},"geometry":{"x":177289.94000000041,"y":2540531.6800000016}},{"attributes":{"ID":530543,"DIS_CODE":0,"TOWNNAME":"歸仁區","LI":"許厝里","LIN":"33鄰","STREET":"公園八街","SECT":" ","MAREA":" ","LANE":" ","ALLEY":" ","HOUSE_NO":"１０號","E_COORD97":177886.13,"N_COORD97":2540507.8199999998,"ADDRESS":"公園八街１０號","OBJECTID":530516},"geometry":{"x":177886.12999999989,"y":2540507.8200000022}},{"attributes":{"ID":530544,"DIS_CODE":0,"TOWNNAME":"歸仁區","LI":"許厝里","LIN":"33鄰","STREET":"公園八街","SECT":" ","MAREA":" ","LANE":" ","ALLEY":" ","HOUSE_NO":"１３號","E_COORD97":177873.82999999999,"N_COORD97":2540512.8199999998,"ADDRESS":"公園八街１３號","OBJECTID":530517},"geometry":{"x":177873.83000000194,"y":2540512.8200000003}},{"attributes":{"ID":530545,"DIS_CODE":0,"TOWNNAME":"安平區","LI":"育平里","LIN":"33鄰","STREET":"建平七街","SECT":" ","MAREA":" ","LANE":" ","ALLEY":" ","HOUSE_NO":"８３８之１號","E_COORD97":164475.35999999999,"N_COORD97":2543485,"ADDRESS":"建平七街８３８之１號","OBJECTID":530518},"geometry":{"x":164475.36000000127,"y":2543484.9999999981}},{"attributes":{"ID":530546,"DIS_CODE":0,"TOWNNAME":"安平區","LI":"育平里","LIN":"33鄰","STREET":"建平七街","SECT":" ","MAREA":" ","LANE":" ","ALLEY":" ","HOUSE_NO":"８３８之２號","E_COORD97":164470.04999999999,"N_COORD97":2543485.2999999998,"ADDRESS":"建平七街８３８之２號","OBJECTID":530519},"geometry":{"x":164470.05000000075,"y":2543485.3000000026}},{"attributes":{"ID":530547,"DIS_CODE":0,"TOWNNAME":"安平區","LI":"育平里","LIN":"33鄰","STREET":"建平七街","SECT":" ","MAREA":" ","LANE":" ","ALLEY":" ","HOUSE_NO":"８４０號","E_COORD97":164464.73000000001,"N_COORD97":2543486.2999999998,"ADDRESS":"建平七街８４０號","OBJECTID":530520},"geometry":{"x":164464.73000000138,"y":2543486.3000000007}},{"attributes":{"ID":530548,"DIS_CODE":0,"TOWNNAME":"仁德區","LI":"土庫里","LIN":"1鄰","STREET":"大發路","SECT":" ","MAREA":" ","LANE":" ","ALLEY":" ","HOUSE_NO":"５２號","E_COORD97":173239.62,"N_COORD97":2542717.52,"ADDRESS":"大發路５２號","OBJECTID":530521},"geometry":{"x":173239.62000000104,"y":2542717.5199999996}},{"attributes":{"ID":530549,"DIS_CODE":0,"TOWNNAME":"安平區","LI":"育平里","LIN":"33鄰","STREET":"光州六街","SECT":" ","MAREA":" ","LANE":" ","ALLEY":" ","HOUSE_NO":"１２號","E_COORD97":164476.48999999999,"N_COORD97":2543545.9500000002,"ADDRESS":"光州六街１２號","OBJECTID":530522},"geometry":{"x":164476.49000000115,"y":2543545.950000003}},{"attributes":{"ID":530550,"DIS_CODE":0,"TOWNNAME":"安平區","LI":"育平里","LIN":"33鄰","STREET":"光州六街","SECT":" ","MAREA":" ","LANE":" ","ALLEY":" ","HOUSE_NO":"３３號","E_COORD97":164449.70000000001,"N_COORD97":2543531.8799999999,"ADDRESS":"光州六街３３號","OBJECTID":530523},"geometry":{"x":164449.70000000019,"y":2543531.879999999}},{"attributes":{"ID":530551,"DIS_CODE":0,"TOWNNAME":"安平區","LI":"育平里","LIN":"33鄰","STREET":"光州六街","SECT":" ","MAREA":" ","LANE":" ","ALLEY":" ","HOUSE_NO":"３１號","E_COORD97":164457.89999999999,"N_COORD97":2543531.3599999999,"ADDRESS":"光州六街３１號","OBJECTID":530524},"geometry":{"x":164457.90000000224,"y":2543531.3599999994}},{"attributes":{"ID":530552,"DIS_CODE":0,"TOWNNAME":"安平區","LI":"育平里","LIN":"33鄰","STREET":"光州六街","SECT":" ","MAREA":" ","LANE":" ","ALLEY":" ","HOUSE_NO":"２９號","E_COORD97":164466.63,"N_COORD97":2543530.1600000001,"ADDRESS":"光州六街２９號","OBJECTID":530525},"geometry":{"x":164466.63000000082,"y":2543530.1600000001}},{"attributes":{"ID":530553,"DIS_CODE":0,"TOWNNAME":"新營區","LI":"三仙里","LIN":"21鄰","STREET":"健康路","SECT":" ","MAREA":" ","LANE":" ","ALLEY":" ","HOUSE_NO":"２１１號","E_COORD97":179626.97,"N_COORD97":2579471.5299999998,"ADDRESS":"健康路２１１號","OBJECTID":530526},"geometry":{"x":179626.9700000016,"y":2579471.5299999993}},{"attributes":{"ID":530554,"DIS_CODE":0,"TOWNNAME":"安平區","LI":"華平里","LIN":"33鄰","STREET":"永華八街","SECT":" ","MAREA":" ","LANE":" ","ALLEY":" ","HOUSE_NO":"３０５號","E_COORD97":165187.95000000001,"N_COORD97":2544007.4700000002,"ADDRESS":"永華八街３０５號","OBJECTID":530527},"geometry":{"x":165187.95000000205,"y":2544007.4700000007}},{"attributes":{"ID":530555,"DIS_CODE":0,"TOWNNAME":"安平區","LI":"華平里","LIN":"33鄰","STREET":"永華八街","SECT":" ","MAREA":" ","LANE":" ","ALLEY":" ","HOUSE_NO":"３０７號","E_COORD97":165188.35000000001,"N_COORD97":2544011.8999999999,"ADDRESS":"永華八街３０７號","OBJECTID":530528},"geometry":{"x":165188.35000000056,"y":2544011.9000000041}},{"attributes":{"ID":530556,"DIS_CODE":0,"TOWNNAME":"安平區","LI":"華平里","LIN":"33鄰","STREET":"永華八街","SECT":" ","MAREA":" ","LANE":" ","ALLEY":" ","HOUSE_NO":"３０９號","E_COORD97":165189.03,"N_COORD97":2544016.2000000002,"ADDRESS":"永華八街３０９號","OBJECTID":530529},"geometry":{"x":165189.02999999933,"y":2544016.2000000011}},{"attributes":{"ID":530557,"DIS_CODE":0,"TOWNNAME":"安平區","LI":"華平里","LIN":"33鄰","STREET":"永華八街","SECT":" ","MAREA":" ","LANE":" ","ALLEY":" ","HOUSE_NO":"３１３號","E_COORD97":165190.5,"N_COORD97":2544024.9300000002,"ADDRESS":"永華八街３１３號","OBJECTID":530530},"geometry":{"x":165190.5,"y":2544024.9300000016}},{"attributes":{"ID":530558,"DIS_CODE":0,"TOWNNAME":"安平區","LI":"華平里","LIN":"33鄰","STREET":"永華八街","SECT":" ","MAREA":" ","LANE":" ","ALLEY":" ","HOUSE_NO":"３１７號","E_COORD97":165191.04000000001,"N_COORD97":2544033.1200000001,"ADDRESS":"永華八街３１７號","OBJECTID":530531},"geometry":{"x":165191.04000000097,"y":2544033.120000001}},{"attributes":{"ID":530559,"DIS_CODE":0,"TOWNNAME":"安平區","LI":"華平里","LIN":"33鄰","STREET":"永華八街","SECT":" ","MAREA":" ","LANE":" ","ALLEY":" ","HOUSE_NO":"３１９號","E_COORD97":165191.98000000001,"N_COORD97":2544037.4199999999,"ADDRESS":"永華八街３１９號","OBJECTID":530532},"geometry":{"x":165191.98000000138,"y":2544037.4199999999}},{"attributes":{"ID":530560,"DIS_CODE":0,"TOWNNAME":"安平區","LI":"華平里","LIN":"33鄰","STREET":"永華八街","SECT":" ","MAREA":" ","LANE":" ","ALLEY":" ","HOUSE_NO":"３２１號","E_COORD97":165192.51999999999,"N_COORD97":2544041.4399999999,"ADDRESS":"永華八街３２１號","OBJECTID":530533},"geometry":{"x":165192.52000000048,"y":2544041.4400000013}},{"attributes":{"ID":530561,"DIS_CODE":0,"TOWNNAME":"安平區","LI":"華平里","LIN":"33鄰","STREET":"永華八街","SECT":" ","MAREA":" ","LANE":" ","ALLEY":" ","HOUSE_NO":"３２３號","E_COORD97":165192.51999999999,"N_COORD97":2544046.0099999998,"ADDRESS":"永華八街３２３號","OBJECTID":530534},"geometry":{"x":165192.52000000048,"y":2544046.0099999998}},{"attributes":{"ID":530562,"DIS_CODE":0,"TOWNNAME":"安平區","LI":"華平里","LIN":"33鄰","STREET":"永華八街","SECT":" ","MAREA":" ","LANE":" ","ALLEY":" ","HOUSE_NO":"３２５號","E_COORD97":165192.66,"N_COORD97":2544049.3900000001,"ADDRESS":"永華八街３２５號","OBJECTID":530535},"geometry":{"x":165192.66000000015,"y":2544049.3900000043}},{"attributes":{"ID":530563,"DIS_CODE":0,"TOWNNAME":"安平區","LI":"華平里","LIN":"33鄰","STREET":"永華八街","SECT":" ","MAREA":" ","LANE":" ","ALLEY":" ","HOUSE_NO":"３２７號","E_COORD97":165193.19,"N_COORD97":2544054.23,"ADDRESS":"永華八街３２７號","OBJECTID":530536},"geometry":{"x":165193.18999999948,"y":2544054.2300000023}},{"attributes":{"ID":530564,"DIS_CODE":0,"TOWNNAME":"安平區","LI":"華平里","LIN":"33鄰","STREET":"永華八街","SECT":" ","MAREA":" ","LANE":" ","ALLEY":" ","HOUSE_NO":"３２９號","E_COORD97":165193.87,"N_COORD97":2544058.5299999998,"ADDRESS":"永華八街３２９號","OBJECTID":530537},"geometry":{"x":165193.87000000104,"y":2544058.5300000012}},{"attributes":{"ID":530565,"DIS_CODE":0,"TOWNNAME":"安平區","LI":"華平里","LIN":"33鄰","STREET":"永華八街","SECT":" ","MAREA":" ","LANE":" ","ALLEY":" ","HOUSE_NO":"３３１號","E_COORD97":165194.54000000001,"N_COORD97":2544062.8199999998,"ADDRESS":"永華八街３３１號","OBJECTID":530538},"geometry":{"x":165194.54000000097,"y":2544062.8199999984}},{"attributes":{"ID":530566,"DIS_CODE":0,"TOWNNAME":"安平區","LI":"華平里","LIN":"33鄰","STREET":"永華八街","SECT":" ","MAREA":" ","LANE":" ","ALLEY":" ","HOUSE_NO":"３３３號","E_COORD97":165194.81,"N_COORD97":2544066.8500000001,"ADDRESS":"永華八街３３３號","OBJECTID":530539},"geometry":{"x":165194.80999999959,"y":2544066.8500000015}},{"attributes":{"ID":530567,"DIS_CODE":0,"TOWNNAME":"安平區","LI":"華平里","LIN":"33鄰","STREET":"永華八街","SECT":" ","MAREA":" ","LANE":" ","ALLEY":" ","HOUSE_NO":"３３５號","E_COORD97":165195.20999999999,"N_COORD97":2544071.1499999999,"ADDRESS":"永華八街３３５號","OBJECTID":530540},"geometry":{"x":165195.21000000089,"y":2544071.1500000041}},{"attributes":{"ID":530568,"DIS_CODE":0,"TOWNNAME":"仁德區","LI":"土庫里","LIN":"8鄰","STREET":"土庫六街","SECT":" ","MAREA":" ","LANE":" ","ALLEY":" ","HOUSE_NO":"３８號","E_COORD97":174206.64999999999,"N_COORD97":2543272.4900000002,"ADDRESS":"土庫六街３８號","OBJECTID":530541},"geometry":{"x":174206.65000000037,"y":2543272.4900000021}},{"attributes":{"ID":530569,"DIS_CODE":0,"TOWNNAME":"安平區","LI":"華平里","LIN":"33鄰","STREET":"永華八街","SECT":" ","MAREA":" ","LANE":" ","ALLEY":" ","HOUSE_NO":"３７３號","E_COORD97":165203.78,"N_COORD97":2544119.3300000001,"ADDRESS":"永華八街３７３號","OBJECTID":530542},"geometry":{"x":165203.78000000026,"y":2544119.3300000001}},{"attributes":{"ID":530570,"DIS_CODE":0,"TOWNNAME":"歸仁區","LI":"南保里","LIN":"33鄰","STREET":"中山路","SECT":"三段","MAREA":" ","LANE":" ","ALLEY":" ","HOUSE_NO":"６４號","E_COORD97":176836.51000000001,"N_COORD97":2540890.2799999998,"ADDRESS":"中山路三段６４號","OBJECTID":530543},"geometry":{"x":176836.51000000164,"y":2540890.2800000012}},{"attributes":{"ID":530571,"DIS_CODE":0,"TOWNNAME":"歸仁區","LI":"南保里","LIN":"33鄰","STREET":"中山路","SECT":"三段","MAREA":" ","LANE":" ","ALLEY":" ","HOUSE_NO":"５６號","E_COORD97":176851.91,"N_COORD97":2540888.2799999998,"ADDRESS":"中山路三段５６號","OBJECTID":530544},"geometry":{"x":176851.91000000015,"y":2540888.2799999993}},{"attributes":{"ID":530572,"DIS_CODE":0,"TOWNNAME":"歸仁區","LI":"南興里","LIN":"33鄰","STREET":"民生北街","SECT":" ","MAREA":" ","LANE":" ","ALLEY":" ","HOUSE_NO":"９４號","E_COORD97":176285.98999999999,"N_COORD97":2541164.29,"ADDRESS":"民生北街９４號","OBJECTID":530545},"geometry":{"x":176285.98999999929,"y":2541164.290000001}},{"attributes":{"ID":530573,"DIS_CODE":0,"TOWNNAME":"歸仁區","LI":"後市里","LIN":"33鄰","STREET":"民族一街","SECT":" ","MAREA":" ","LANE":" ","ALLEY":" ","HOUSE_NO":"３２號","E_COORD97":177356.73000000001,"N_COORD97":2541024.75,"ADDRESS":"民族一街３２號","OBJECTID":530546},"geometry":{"x":177356.73000000138,"y":2541024.75}},{"attributes":{"ID":530574,"DIS_CODE":0,"TOWNNAME":"歸仁區","LI":"南保里","LIN":"33鄰","STREET":"中山路","SECT":"三段","MAREA":" ","LANE":" ","ALLEY":" ","HOUSE_NO":"５８號","E_COORD97":176847.81,"N_COORD97":2540889.2799999998,"ADDRESS":"中山路三段５８號","OBJECTID":530547},"geometry":{"x":176847.81000000145,"y":2540889.2800000012}},{"attributes":{"ID":530575,"DIS_CODE":0,"TOWNNAME":"歸仁區","LI":"許厝里","LIN":"33鄰","STREET":"公園八街","SECT":" ","MAREA":" ","LANE":" ","ALLEY":" ","HOUSE_NO":"３２號","E_COORD97":177891.63,"N_COORD97":2540575.8199999998,"ADDRESS":"公園八街３２號","OBJECTID":530548},"geometry":{"x":177891.62999999989,"y":2540575.8200000022}},{"attributes":{"ID":530576,"DIS_CODE":0,"TOWNNAME":"玉井區","LI":"玉田里","LIN":"33鄰","STREET":"大勇街","SECT":" ","MAREA":" ","LANE":" ","ALLEY":" ","HOUSE_NO":"３５號","E_COORD97":195564.12,"N_COORD97":2558187.25,"ADDRESS":"大勇街３５號","OBJECTID":530549},"geometry":{"x":195564.12000000011,"y":2558187.25}},{"attributes":{"ID":530577,"DIS_CODE":0,"TOWNNAME":"玉井區","LI":"玉田里","LIN":"33鄰","STREET":"大勇街","SECT":" ","MAREA":" ","LANE":" ","ALLEY":" ","HOUSE_NO":"７２號","E_COORD97":195552.92000000001,"N_COORD97":2558197.25,"ADDRESS":"大勇街７２號","OBJECTID":530550},"geometry":{"x":195552.92000000086,"y":2558197.25}},{"attributes":{"ID":530578,"DIS_CODE":0,"TOWNNAME":"玉井區","LI":"玉田里","LIN":"33鄰","STREET":"民族路","SECT":" ","MAREA":" ","LANE":" ","ALLEY":" ","HOUSE_NO":"２２５號","E_COORD97":195563.88,"N_COORD97":2558095.2799999998,"ADDRESS":"民族路２２５號","OBJECTID":530551},"geometry":{"x":195563.87999999989,"y":2558095.2800000031}},{"attributes":{"ID":530579,"DIS_CODE":0,"TOWNNAME":"玉井區","LI":"玉田里","LIN":"33鄰","STREET":"大勇街","SECT":" ","MAREA":" ","LANE":" ","ALLEY":" ","HOUSE_NO":"４３號","E_COORD97":195545.01000000001,"N_COORD97":2558187.25,"ADDRESS":"大勇街４３號","OBJECTID":530552},"geometry":{"x":195545.01000000071,"y":2558187.25}},{"attributes":{"ID":530580,"DIS_CODE":0,"TOWNNAME":"玉井區","LI":"玉田里","LIN":"33鄰","STREET":"忠孝街","SECT":" ","MAREA":" ","LANE":" ","ALLEY":" ","HOUSE_NO":"１９９號","E_COORD97":195506.64000000001,"N_COORD97":2558159.25,"ADDRESS":"忠孝街１９９號","OBJECTID":530553},"geometry":{"x":195506.6400000006,"y":2558159.25}},{"attributes":{"ID":530581,"DIS_CODE":0,"TOWNNAME":"玉井區","LI":"玉田里","LIN":"33鄰","STREET":"忠孝街","SECT":" ","MAREA":" ","LANE":" ","ALLEY":" ","HOUSE_NO":"２７８號","E_COORD97":195525.63,"N_COORD97":2558116.25,"ADDRESS":"忠孝街２７８號","OBJECTID":530554},"geometry":{"x":195525.63000000082,"y":2558116.2500000037}},{"attributes":{"ID":530582,"DIS_CODE":0,"TOWNNAME":"玉井區","LI":"玉田里","LIN":"33鄰","STREET":"忠孝街","SECT":" ","MAREA":" ","LANE":" ","ALLEY":" ","HOUSE_NO":"３３６號","E_COORD97":195525.63,"N_COORD97":2558228.25,"ADDRESS":"忠孝街３３６號","OBJECTID":530555},"geometry":{"x":195525.63000000082,"y":2558228.2500000037}},{"attributes":{"ID":530583,"DIS_CODE":0,"TOWNNAME":"玉井區","LI":"玉田里","LIN":"33鄰","STREET":"大勇街","SECT":" ","MAREA":" ","LANE":" ","ALLEY":" ","HOUSE_NO":"７０號","E_COORD97":195557.01000000001,"N_COORD97":2558197.25,"ADDRESS":"大勇街７０號","OBJECTID":530556},"geometry":{"x":195557.01000000071,"y":2558197.25}},{"attributes":{"ID":530584,"DIS_CODE":0,"TOWNNAME":"玉井區","LI":"玉田里","LIN":"33鄰","STREET":"大勇街","SECT":" ","MAREA":" ","LANE":" ","ALLEY":" ","HOUSE_NO":"８０號","E_COORD97":195540.41,"N_COORD97":2558198.25,"ADDRESS":"大勇街８０號","OBJECTID":530557},"geometry":{"x":195540.40999999922,"y":2558198.2500000019}},{"attributes":{"ID":530585,"DIS_CODE":0,"TOWNNAME":"玉井區","LI":"玉田里","LIN":"33鄰","STREET":"大勇街","SECT":" ","MAREA":" ","LANE":" ","ALLEY":" ","HOUSE_NO":"７８號","E_COORD97":195544.22,"N_COORD97":2558198.25,"ADDRESS":"大勇街７８號","OBJECTID":530558},"geometry":{"x":195544.21999999974,"y":2558198.2500000019}},{"attributes":{"ID":530586,"DIS_CODE":0,"TOWNNAME":"玉井區","LI":"玉田里","LIN":"33鄰","STREET":"大勇街","SECT":" ","MAREA":" ","LANE":" ","ALLEY":" ","HOUSE_NO":"６８號","E_COORD97":195561.92000000001,"N_COORD97":2558197.25,"ADDRESS":"大勇街６８號","OBJECTID":530559},"geometry":{"x":195561.91999999993,"y":2558197.25}},{"attributes":{"ID":530587,"DIS_CODE":0,"TOWNNAME":"玉井區","LI":"玉田里","LIN":"33鄰","STREET":"民族路","SECT":" ","MAREA":" ","LANE":" ","ALLEY":" ","HOUSE_NO":"２２３號","E_COORD97":195559.88,"N_COORD97":2558095.2799999998,"ADDRESS":"民族路２２３號","OBJECTID":530560},"geometry":{"x":195559.88000000082,"y":2558095.2800000031}},{"attributes":{"ID":530588,"DIS_CODE":0,"TOWNNAME":"歸仁區","LI":"南興里","LIN":"33鄰","STREET":"文化街","SECT":"三段","MAREA":" ","LANE":" ","ALLEY":" ","HOUSE_NO":"２４７號","E_COORD97":176356.34,"N_COORD97":2541183.3300000001,"ADDRESS":"文化街三段２４７號","OBJECTID":530561},"geometry":{"x":176356.34000000171,"y":2541183.3300000001}},{"attributes":{"ID":530589,"DIS_CODE":0,"TOWNNAME":"新營區","LI":"王公里","LIN":"33鄰","STREET":"長榮路","SECT":"一段","MAREA":" ","LANE":" ","ALLEY":" ","HOUSE_NO":"５０５號","E_COORD97":180321.17000000001,"N_COORD97":2579855.8500000001,"ADDRESS":"長榮路一段５０５號","OBJECTID":530562},"geometry":{"x":180321.17000000086,"y":2579855.8500000015}},{"attributes":{"ID":530590,"DIS_CODE":0,"TOWNNAME":"新營區","LI":"王公里","LIN":"33鄰","STREET":"民族路","SECT":" ","MAREA":" ","LANE":" ","ALLEY":" ","HOUSE_NO":"３３６號","E_COORD97":180397.69,"N_COORD97":2579824.7000000002,"ADDRESS":"民族路３３６號","OBJECTID":530563},"geometry":{"x":180397.69000000134,"y":2579824.700000003}},{"attributes":{"ID":530591,"DIS_CODE":0,"TOWNNAME":"新營區","LI":"王公里","LIN":"33鄰","STREET":"長榮路","SECT":"一段","MAREA":" ","LANE":" ","ALLEY":" ","HOUSE_NO":"４７７號","E_COORD97":180458.72,"N_COORD97":2579841.1400000001,"ADDRESS":"長榮路一段４７７號","OBJECTID":530564},"geometry":{"x":180458.71999999974,"y":2579841.1400000025}},{"attributes":{"ID":530592,"DIS_CODE":0,"TOWNNAME":"新營區","LI":"三仙里","LIN":"21鄰","STREET":"金華路","SECT":"一段","MAREA":" ","LANE":" ","ALLEY":" ","HOUSE_NO":"８號","E_COORD97":179621.34,"N_COORD97":2579694.3599999999,"ADDRESS":"金華路一段８號","OBJECTID":530565},"geometry":{"x":179621.34000000078,"y":2579694.3599999994}},{"attributes":{"ID":530593,"DIS_CODE":0,"TOWNNAME":"新營區","LI":"王公里","LIN":"33鄰","STREET":"長榮路","SECT":"一段","MAREA":" ","LANE":" ","ALLEY":" ","HOUSE_NO":"５０９號","E_COORD97":180311.95999999999,"N_COORD97":2579855.8900000001,"ADDRESS":"長榮路一段５０９號","OBJECTID":530566},"geometry":{"x":180311.95999999996,"y":2579855.8900000025}},{"attributes":{"ID":530594,"DIS_CODE":0,"TOWNNAME":"新營區","LI":"三仙里","LIN":"21鄰","STREET":"金華路","SECT":"一段","MAREA":" ","LANE":" ","ALLEY":" ","HOUSE_NO":"１８號","E_COORD97":179596.85999999999,"N_COORD97":2579675.2200000002,"ADDRESS":"金華路一段１８號","OBJECTID":530567},"geometry":{"x":179596.86000000127,"y":2579675.2200000007}},{"attributes":{"ID":530595,"DIS_CODE":0,"TOWNNAME":"仁德區","LI":"大甲里","LIN":"24鄰","STREET":"中正西路","SECT":" ","MAREA":" ","LANE":" ","ALLEY":" ","HOUSE_NO":"３６９號","E_COORD97":169690.67000000001,"N_COORD97":2535394.9900000002,"ADDRESS":"中正西路３６９號","OBJECTID":530568},"geometry":{"x":169690.67000000086,"y":2535394.9900000002}},{"attributes":{"ID":530596,"DIS_CODE":0,"TOWNNAME":"新營區","LI":"新北里","LIN":"33鄰","STREET":"新北八街","SECT":" ","MAREA":" ","LANE":" ","ALLEY":" ","HOUSE_NO":"５８號","E_COORD97":178753.97,"N_COORD97":2579198.8300000001,"ADDRESS":"新北八街５８號","OBJECTID":530569},"geometry":{"x":178753.9700000016,"y":2579198.8300000019}},{"attributes":{"ID":530597,"DIS_CODE":0,"TOWNNAME":"新營區","LI":"新北里","LIN":"33鄰","STREET":"新北八街","SECT":" ","MAREA":" ","LANE":" ","ALLEY":" ","HOUSE_NO":"７２號","E_COORD97":178783.64000000001,"N_COORD97":2579199.7999999998,"ADDRESS":"新北八街７２號","OBJECTID":530570},"geometry":{"x":178783.6400000006,"y":2579199.8000000026}},{"attributes":{"ID":530598,"DIS_CODE":0,"TOWNNAME":"仁德區","LI":"仁義里","LIN":"17鄰","STREET":"義林八街","SECT":" ","MAREA":" ","LANE":" ","ALLEY":" ","HOUSE_NO":"１３７號","E_COORD97":174157.51999999999,"N_COORD97":2541280.7599999998,"ADDRESS":"義林八街１３７號","OBJECTID":530571},"geometry":{"x":174157.51999999955,"y":2541280.7600000016}},{"attributes":{"ID":530599,"DIS_CODE":0,"TOWNNAME":"北區","LI":"成德里","LIN":"33鄰","STREET":"育成路","SECT":" ","MAREA":" ","LANE":" ","ALLEY":" ","HOUSE_NO":"１７７號","E_COORD97":168694.01000000001,"N_COORD97":2546508.3799999999,"ADDRESS":"育成路１７７號","OBJECTID":530572},"geometry":{"x":168694.00999999978,"y":2546508.379999999}},{"attributes":{"ID":530600,"DIS_CODE":0,"TOWNNAME":"仁德區","LI":"太子里","LIN":"13鄰","STREET":"長興二街","SECT":" ","MAREA":" ","LANE":" ","ALLEY":" ","HOUSE_NO":"６號","E_COORD97":174440.85000000001,"N_COORD97":2543710.5,"ADDRESS":"長興二街６號","OBJECTID":530573},"geometry":{"x":174440.85000000056,"y":2543710.5000000019}},{"attributes":{"ID":530601,"DIS_CODE":0,"TOWNNAME":"北區","LI":"成德里","LIN":"33鄰","STREET":"育成路","SECT":" ","MAREA":" ","LANE":" ","ALLEY":" ","HOUSE_NO":"１６９號","E_COORD97":168710.20000000001,"N_COORD97":2546495.2000000002,"ADDRESS":"育成路１６９號","OBJECTID":530574},"geometry":{"x":168710.20000000019,"y":2546495.2000000011}},{"attributes":{"ID":530602,"DIS_CODE":0,"TOWNNAME":"北區","LI":"成德里","LIN":"33鄰","STREET":"育成路","SECT":" ","MAREA":" ","LANE":" ","ALLEY":" ","HOUSE_NO":"１８５號","E_COORD97":168677.17999999999,"N_COORD97":2546520.6000000001,"ADDRESS":"育成路１８５號","OBJECTID":530575},"geometry":{"x":168677.1799999997,"y":2546520.5999999996}},{"attributes":{"ID":530603,"DIS_CODE":0,"TOWNNAME":"北區","LI":"成德里","LIN":"33鄰","STREET":"育成路","SECT":" ","MAREA":" ","LANE":" ","ALLEY":" ","HOUSE_NO":"１５３號","E_COORD97":168740.37,"N_COORD97":2546473.2200000002,"ADDRESS":"育成路１５３號","OBJECTID":530576},"geometry":{"x":168740.37000000104,"y":2546473.2200000007}},{"attributes":{"ID":530604,"DIS_CODE":0,"TOWNNAME":"北區","LI":"成德里","LIN":"33鄰","STREET":"育成路","SECT":" ","MAREA":" ","LANE":" ","ALLEY":" ","HOUSE_NO":"１５５號","E_COORD97":168736.39999999999,"N_COORD97":2546475.6800000002,"ADDRESS":"育成路１５５號","OBJECTID":530577},"geometry":{"x":168736.39999999944,"y":2546475.6799999997}},{"attributes":{"ID":530605,"DIS_CODE":0,"TOWNNAME":"北區","LI":"成德里","LIN":"33鄰","STREET":"育成路","SECT":" ","MAREA":" ","LANE":" ","ALLEY":" ","HOUSE_NO":"１５７號","E_COORD97":168732.59,"N_COORD97":2546478.3799999999,"ADDRESS":"育成路１５７號","OBJECTID":530578},"geometry":{"x":168732.58999999985,"y":2546478.3799999971}},{"attributes":{"ID":530606,"DIS_CODE":0,"TOWNNAME":"北區","LI":"成德里","LIN":"33鄰","STREET":"育成路","SECT":" ","MAREA":" ","LANE":" ","ALLEY":" ","HOUSE_NO":"１５９號","E_COORD97":168728.62,"N_COORD97":2546481.23,"ADDRESS":"育成路１５９號","OBJECTID":530579},"geometry":{"x":168728.62000000104,"y":2546481.2300000042}},{"attributes":{"ID":530607,"DIS_CODE":0,"TOWNNAME":"北區","LI":"成德里","LIN":"33鄰","STREET":"育成路","SECT":" ","MAREA":" ","LANE":" ","ALLEY":" ","HOUSE_NO":"１６１號","E_COORD97":168725.13,"N_COORD97":2546484.0899999999,"ADDRESS":"育成路１６１號","OBJECTID":530580},"geometry":{"x":168725.12999999989,"y":2546484.0899999999}},{"attributes":{"ID":530608,"DIS_CODE":0,"TOWNNAME":"北區","LI":"成德里","LIN":"33鄰","STREET":"育成路","SECT":" ","MAREA":" ","LANE":" ","ALLEY":" ","HOUSE_NO":"１６３號","E_COORD97":168721.16,"N_COORD97":2546486.9500000002,"ADDRESS":"育成路１６３號","OBJECTID":530581},"geometry":{"x":168721.16000000108,"y":2546486.9499999993}},{"attributes":{"ID":530609,"DIS_CODE":0,"TOWNNAME":"北區","LI":"成德里","LIN":"33鄰","STREET":"育成路","SECT":" ","MAREA":" ","LANE":" ","ALLEY":" ","HOUSE_NO":"１６５號","E_COORD97":168717.82000000001,"N_COORD97":2546489.96,"ADDRESS":"育成路１６５號","OBJECTID":530582},"geometry":{"x":168717.8200000003,"y":2546489.9600000009}},{"attributes":{"ID":530610,"DIS_CODE":0,"TOWNNAME":"北區","LI":"成德里","LIN":"33鄰","STREET":"育成路","SECT":" ","MAREA":" ","LANE":" ","ALLEY":" ","HOUSE_NO":"１６７號","E_COORD97":168713.85999999999,"N_COORD97":2546492.6600000001,"ADDRESS":"育成路１６７號","OBJECTID":530583},"geometry":{"x":168713.86000000034,"y":2546492.660000002}},{"attributes":{"ID":530611,"DIS_CODE":0,"TOWNNAME":"北區","LI":"成德里","LIN":"33鄰","STREET":"育成路","SECT":" ","MAREA":" ","LANE":" ","ALLEY":" ","HOUSE_NO":"１７１號","E_COORD97":168706.54999999999,"N_COORD97":2546497.8999999999,"ADDRESS":"育成路１７１號","OBJECTID":530584},"geometry":{"x":168706.55000000075,"y":2546497.9000000022}},{"attributes":{"ID":530612,"DIS_CODE":0,"TOWNNAME":"仁德區","LI":"後壁里","LIN":"24鄰","STREET":"中正路","SECT":"二段","MAREA":" ","LANE":" ","ALLEY":" ","HOUSE_NO":"２２３號之４","E_COORD97":173220.53,"N_COORD97":2538901.1699999999,"ADDRESS":"中正路二段２２３號之４","OBJECTID":530585},"geometry":{"x":173220.53000000026,"y":2538901.1700000018}},{"attributes":{"ID":530613,"DIS_CODE":0,"TOWNNAME":"北區","LI":"成德里","LIN":"33鄰","STREET":"育成路","SECT":" ","MAREA":" ","LANE":" ","ALLEY":" ","HOUSE_NO":"１８３號","E_COORD97":168681.31,"N_COORD97":2546517.8999999999,"ADDRESS":"育成路１８３號","OBJECTID":530586},"geometry":{"x":168681.30999999959,"y":2546517.9000000022}},{"attributes":{"ID":530614,"DIS_CODE":0,"TOWNNAME":"北區","LI":"成德里","LIN":"33鄰","STREET":"育成路","SECT":" ","MAREA":" ","LANE":" ","ALLEY":" ","HOUSE_NO":"１８７號","E_COORD97":168670.51999999999,"N_COORD97":2546531.2400000002,"ADDRESS":"育成路１８７號","OBJECTID":530587},"geometry":{"x":168670.52000000142,"y":2546531.2400000002}},{"attributes":{"ID":530615,"DIS_CODE":0,"TOWNNAME":"北區","LI":"成德里","LIN":"33鄰","STREET":"育成路","SECT":" ","MAREA":" ","LANE":" ","ALLEY":" ","HOUSE_NO":"１８７之１號","E_COORD97":168665.59,"N_COORD97":2546530.1299999999,"ADDRESS":"育成路１８７之１號","OBJECTID":530588},"geometry":{"x":168665.59000000078,"y":2546530.129999999}},{"attributes":{"ID":530616,"DIS_CODE":0,"TOWNNAME":"仁德區","LI":"成功里","LIN":"34鄰","STREET":"成功一街","SECT":" ","MAREA":" ","LANE":" ","ALLEY":" ","HOUSE_NO":"５５號","E_COORD97":170537.09,"N_COORD97":2540084.2599999998,"ADDRESS":"成功一街５５號","OBJECTID":530589},"geometry":{"x":170537.09000000078,"y":2540084.2600000016}},{"attributes":{"ID":530617,"DIS_CODE":0,"TOWNNAME":"北區","LI":"成德里","LIN":"33鄰","STREET":"育成路","SECT":" ","MAREA":" ","LANE":" ","ALLEY":" ","HOUSE_NO":"１８７之２號","E_COORD97":168660.20000000001,"N_COORD97":2546529.1800000002,"ADDRESS":"育成路１８７之２號","OBJECTID":530590},"geometry":{"x":168660.20000000112,"y":2546529.1800000016}},{"attributes":{"ID":530618,"DIS_CODE":0,"TOWNNAME":"北區","LI":"成德里","LIN":"33鄰","STREET":"育成路","SECT":" ","MAREA":" ","LANE":" ","ALLEY":" ","HOUSE_NO":"１８７之３號","E_COORD97":168654.48000000001,"N_COORD97":2546528.2200000002,"ADDRESS":"育成路１８７之３號","OBJECTID":530591},"geometry":{"x":168654.48000000045,"y":2546528.2200000007}},{"attributes":{"ID":530619,"DIS_CODE":0,"TOWNNAME":"北區","LI":"成德里","LIN":"33鄰","STREET":"育成路","SECT":" ","MAREA":" ","LANE":" ","ALLEY":" ","HOUSE_NO":"１８７之５號","E_COORD97":168649.07999999999,"N_COORD97":2546526.6400000001,"ADDRESS":"育成路１８７之５號","OBJECTID":530592},"geometry":{"x":168649.08000000101,"y":2546526.6400000025}},{"attributes":{"ID":530620,"DIS_CODE":0,"TOWNNAME":"北區","LI":"成德里","LIN":"33鄰","STREET":"育成路","SECT":" ","MAREA":" ","LANE":" ","ALLEY":" ","HOUSE_NO":"１８７之６號","E_COORD97":168642.42000000001,"N_COORD97":2546525.3700000001,"ADDRESS":"育成路１８７之６號","OBJECTID":530593},"geometry":{"x":168642.41999999993,"y":2546525.3700000029}},{"attributes":{"ID":530621,"DIS_CODE":0,"TOWNNAME":"北區","LI":"成德里","LIN":"33鄰","STREET":"育成路","SECT":" ","MAREA":" ","LANE":" ","ALLEY":" ","HOUSE_NO":"１８７之７號","E_COORD97":168638.13,"N_COORD97":2546534.5699999998,"ADDRESS":"育成路１８７之７號","OBJECTID":530594},"geometry":{"x":168638.13000000082,"y":2546534.5700000022}},{"attributes":{"ID":530622,"DIS_CODE":0,"TOWNNAME":"北區","LI":"成德里","LIN":"33鄰","STREET":"育成路","SECT":" ","MAREA":" ","LANE":" ","ALLEY":" ","HOUSE_NO":"１８７之８號","E_COORD97":168643.20999999999,"N_COORD97":2546536.3199999998,"ADDRESS":"育成路１８７之８號","OBJECTID":530595},"geometry":{"x":168643.21000000089,"y":2546536.3200000022}},{"attributes":{"ID":530623,"DIS_CODE":0,"TOWNNAME":"北區","LI":"成德里","LIN":"33鄰","STREET":"育成路","SECT":" ","MAREA":" ","LANE":" ","ALLEY":" ","HOUSE_NO":"１８７之９號","E_COORD97":168648.29000000001,"N_COORD97":2546537.9100000001,"ADDRESS":"育成路１８７之９號","OBJECTID":530596},"geometry":{"x":168648.29000000004,"y":2546537.910000002}},{"attributes":{"ID":530624,"DIS_CODE":0,"TOWNNAME":"北區","LI":"成德里","LIN":"33鄰","STREET":"育成路","SECT":" ","MAREA":" ","LANE":" ","ALLEY":" ","HOUSE_NO":"１８７之１０號","E_COORD97":168653.53,"N_COORD97":2546539.1800000002,"ADDRESS":"育成路１８７之１０號","OBJECTID":530597},"geometry":{"x":168653.53000000026,"y":2546539.1800000016}},{"attributes":{"ID":530625,"DIS_CODE":0,"TOWNNAME":"北區","LI":"成德里","LIN":"33鄰","STREET":"育成路","SECT":" ","MAREA":" ","LANE":" ","ALLEY":" ","HOUSE_NO":"１８７之１１號","E_COORD97":168658.13,"N_COORD97":2546540.1299999999,"ADDRESS":"育成路１８７之１１號","OBJECTID":530598},"geometry":{"x":168658.13000000175,"y":2546540.129999999}},{"attributes":{"ID":530626,"DIS_CODE":0,"TOWNNAME":"北區","LI":"成德里","LIN":"33鄰","STREET":"育成路","SECT":" ","MAREA":" ","LANE":" ","ALLEY":" ","HOUSE_NO":"１８７之１２號","E_COORD97":168663.37,"N_COORD97":2546541.0800000001,"ADDRESS":"育成路１８７之１２號","OBJECTID":530599},"geometry":{"x":168663.37000000011,"y":2546541.0800000019}},{"attributes":{"ID":530627,"DIS_CODE":0,"TOWNNAME":"仁德區","LI":"後壁里","LIN":"38鄰","STREET":"德安路","SECT":" ","MAREA":" ","LANE":" ","ALLEY":" ","HOUSE_NO":"６２號","E_COORD97":173425.03,"N_COORD97":2539154.3199999998,"ADDRESS":"德安路６２號","OBJECTID":530600},"geometry":{"x":173425.03000000119,"y":2539154.3200000022}}]}