{"displayFieldName":"TOWNNAME","fieldAliases":{"ID":"ID","DIS_CODE":"DIS_CODE","TOWNNAME":"TOWNNAME","LI":"LI","LIN":"LIN","STREET":"STREET","SECT":"SECT","MAREA":"MAREA","LANE":"LANE","ALLEY":"ALLEY","HOUSE_NO":"HOUSE_NO","E_COORD97":"E_COORD97","N_COORD97":"N_COORD97","ADDRESS":"ADDRESS","OBJECTID":"OBJECTID"},"geometryType":"esriGeometryPoint","spatialReference":{"wkid":102443,"latestWkid":3826},"fields":[{"name":"ID","type":"esriFieldTypeDouble","alias":"ID"},{"name":"DIS_CODE","type":"esriFieldTypeInteger","alias":"DIS_CODE"},{"name":"TOWNNAME","type":"esriFieldTypeString","alias":"TOWNNAME","length":8},{"name":"LI","type":"esriFieldTypeString","alias":"LI","length":8},{"name":"LIN","type":"esriFieldTypeString","alias":"LIN","length":12},{"name":"STREET","type":"esriFieldTypeString","alias":"STREET","length":20},{"name":"SECT","type":"esriFieldTypeString","alias":"SECT","length":8},{"name":"MAREA","type":"esriFieldTypeString","alias":"MAREA","length":12},{"name":"LANE","type":"esriFieldTypeString","alias":"LANE","length":10},{"name":"ALLEY","type":"esriFieldTypeString","alias":"ALLEY","length":10},{"name":"HOUSE_NO","type":"esriFieldTypeString","alias":"HOUSE_NO","length":20},{"name":"E_COORD97","type":"esriFieldTypeDouble","alias":"E_COORD97"},{"name":"N_COORD97","type":"esriFieldTypeDouble","alias":"N_COORD97"},{"name":"ADDRESS","type":"esriFieldTypeString","alias":"ADDRESS","length":50},{"name":"OBJECTID","type":"esriFieldTypeOID","alias":"OBJECTID"}],"features":[{"attributes":{"ID":178002,"DIS_CODE":0,"TOWNNAME":"南區","LI":"明亮里","LIN":"19鄰","STREET":"金華路","SECT":"一段","MAREA":" ","LANE":"３５２巷","ALLEY":"３４弄","HOUSE_NO":"４２號","E_COORD97":167070.35999999999,"N_COORD97":2541072.3399999999,"ADDRESS":"金華路一段３５２巷３４弄４２號","OBJECTID":178001},"geometry":{"x":167070.3600000022,"y":2541072.3400000036}},{"attributes":{"ID":178003,"DIS_CODE":0,"TOWNNAME":"南區","LI":"明亮里","LIN":"19鄰","STREET":"金華路","SECT":"一段","MAREA":" ","LANE":"３５２巷","ALLEY":"３４弄","HOUSE_NO":"４４號","E_COORD97":167068.04000000001,"N_COORD97":2541068.48,"ADDRESS":"金華路一段３５２巷３４弄４４號","OBJECTID":178002},"geometry":{"x":167068.04000000004,"y":2541068.4800000042}},{"attributes":{"ID":178004,"DIS_CODE":0,"TOWNNAME":"南區","LI":"明亮里","LIN":"19鄰","STREET":"金華路","SECT":"一段","MAREA":" ","LANE":"３５２巷","ALLEY":"３４弄","HOUSE_NO":"４６號","E_COORD97":167066.23999999999,"N_COORD97":2541065.1400000001,"ADDRESS":"金華路一段３５２巷３４弄４６號","OBJECTID":178003},"geometry":{"x":167066.24000000115,"y":2541065.1400000025}},{"attributes":{"ID":178005,"DIS_CODE":0,"TOWNNAME":"南區","LI":"明亮里","LIN":"19鄰","STREET":"金華路","SECT":"一段","MAREA":" ","LANE":"３５２巷","ALLEY":"３４弄","HOUSE_NO":"４８號","E_COORD97":167064.44,"N_COORD97":2541061.54,"ADDRESS":"金華路一段３５２巷３４弄４８號","OBJECTID":178004},"geometry":{"x":167064.44000000041,"y":2541061.5399999991}},{"attributes":{"ID":178006,"DIS_CODE":0,"TOWNNAME":"南區","LI":"明亮里","LIN":"19鄰","STREET":"金華路","SECT":"一段","MAREA":" ","LANE":"３５２巷","ALLEY":"３４弄","HOUSE_NO":"５０號","E_COORD97":167062.12,"N_COORD97":2541057.9399999999,"ADDRESS":"金華路一段３５２巷３４弄５０號","OBJECTID":178005},"geometry":{"x":167062.12000000104,"y":2541057.9400000013}},{"attributes":{"ID":178007,"DIS_CODE":0,"TOWNNAME":"南區","LI":"明亮里","LIN":"21鄰","STREET":"金華路","SECT":"一段","MAREA":" ","LANE":"３５２巷","ALLEY":"３４弄","HOUSE_NO":"１號","E_COORD97":167103.91,"N_COORD97":2541128.3700000001,"ADDRESS":"金華路一段３５２巷３４弄１號","OBJECTID":178006},"geometry":{"x":167103.91000000108,"y":2541128.3700000029}},{"attributes":{"ID":178008,"DIS_CODE":0,"TOWNNAME":"南區","LI":"明亮里","LIN":"21鄰","STREET":"金華路","SECT":"一段","MAREA":" ","LANE":"３５２巷","ALLEY":"３４弄","HOUSE_NO":"３號","E_COORD97":167106.98000000001,"N_COORD97":2541125.9100000001,"ADDRESS":"金華路一段３５２巷３４弄３號","OBJECTID":178007},"geometry":{"x":167106.98000000231,"y":2541125.9100000001}},{"attributes":{"ID":178009,"DIS_CODE":0,"TOWNNAME":"南區","LI":"明亮里","LIN":"25鄰","STREET":"金華路","SECT":"一段","MAREA":" ","LANE":"４８４巷","ALLEY":"５０弄","HOUSE_NO":"１５號","E_COORD97":167124.78,"N_COORD97":2541402.2400000002,"ADDRESS":"金華路一段４８４巷５０弄１５號","OBJECTID":178008},"geometry":{"x":167124.78000000026,"y":2541402.2400000039}},{"attributes":{"ID":178010,"DIS_CODE":0,"TOWNNAME":"南區","LI":"明亮里","LIN":"25鄰","STREET":"金華路","SECT":"一段","MAREA":" ","LANE":"４８４巷","ALLEY":"５０弄","HOUSE_NO":"１６號","E_COORD97":167116.07000000001,"N_COORD97":2541406.8199999998,"ADDRESS":"金華路一段４８４巷５０弄１６號","OBJECTID":178009},"geometry":{"x":167116.0700000003,"y":2541406.8200000003}},{"attributes":{"ID":178011,"DIS_CODE":0,"TOWNNAME":"南區","LI":"明亮里","LIN":"25鄰","STREET":"金華路","SECT":"一段","MAREA":" ","LANE":"４８４巷","ALLEY":"５０弄","HOUSE_NO":"１７號","E_COORD97":167122.59,"N_COORD97":2541398.75,"ADDRESS":"金華路一段４８４巷５０弄１７號","OBJECTID":178010},"geometry":{"x":167122.59000000171,"y":2541398.7500000019}},{"attributes":{"ID":178012,"DIS_CODE":0,"TOWNNAME":"南區","LI":"明亮里","LIN":"25鄰","STREET":"金華路","SECT":"一段","MAREA":" ","LANE":"４８４巷","ALLEY":"５０弄","HOUSE_NO":"１８號","E_COORD97":167114.63,"N_COORD97":2541403.4700000002,"ADDRESS":"金華路一段４８４巷５０弄１８號","OBJECTID":178011},"geometry":{"x":167114.63000000082,"y":2541403.4700000007}},{"attributes":{"ID":178013,"DIS_CODE":0,"TOWNNAME":"南區","LI":"明亮里","LIN":"25鄰","STREET":"金華路","SECT":"一段","MAREA":" ","LANE":"４８４巷","ALLEY":"５０弄","HOUSE_NO":"１９號","E_COORD97":167121.14999999999,"N_COORD97":2541394.0600000001,"ADDRESS":"金華路一段４８４巷５０弄１９號","OBJECTID":178012},"geometry":{"x":167121.1500000013,"y":2541394.0600000024}},{"attributes":{"ID":178014,"DIS_CODE":0,"TOWNNAME":"南區","LI":"明亮里","LIN":"25鄰","STREET":"金華路","SECT":"一段","MAREA":" ","LANE":"４８４巷","ALLEY":"５０弄","HOUSE_NO":"２０號","E_COORD97":167112.70999999999,"N_COORD97":2541400.1099999999,"ADDRESS":"金華路一段４８４巷５０弄２０號","OBJECTID":178013},"geometry":{"x":167112.70999999996,"y":2541400.1100000013}},{"attributes":{"ID":178015,"DIS_CODE":0,"TOWNNAME":"南區","LI":"明亮里","LIN":"25鄰","STREET":"金華路","SECT":"一段","MAREA":" ","LANE":"４８４巷","ALLEY":"５０弄","HOUSE_NO":"２１號","E_COORD97":167118.60999999999,"N_COORD97":2541390.6299999999,"ADDRESS":"金華路一段４８４巷５０弄２１號","OBJECTID":178014},"geometry":{"x":167118.61000000127,"y":2541390.629999999}},{"attributes":{"ID":178016,"DIS_CODE":0,"TOWNNAME":"南區","LI":"明亮里","LIN":"28鄰","STREET":"金華路","SECT":"一段","MAREA":" ","LANE":"４８４巷","ALLEY":"２４０弄","HOUSE_NO":"３７號","E_COORD97":167377.34,"N_COORD97":2540998.5099999998,"ADDRESS":"金華路一段４８４巷２４０弄３７號","OBJECTID":178015},"geometry":{"x":167377.34000000078,"y":2540998.5099999998}},{"attributes":{"ID":178017,"DIS_CODE":0,"TOWNNAME":"南區","LI":"明亮里","LIN":"14鄰","STREET":"金華路","SECT":"一段","MAREA":" ","LANE":"３５２巷","ALLEY":"１４１弄","HOUSE_NO":"２１號","E_COORD97":167369.73999999999,"N_COORD97":2541026.8799999999,"ADDRESS":"金華路一段３５２巷１４１弄２１號","OBJECTID":178016},"geometry":{"x":167369.74000000115,"y":2541026.8800000027}},{"attributes":{"ID":178018,"DIS_CODE":0,"TOWNNAME":"南區","LI":"明亮里","LIN":"16鄰","STREET":"金華路","SECT":"一段","MAREA":" ","LANE":"３５２巷","ALLEY":"１１１弄","HOUSE_NO":"８號","E_COORD97":167285.76999999999,"N_COORD97":2541066.21,"ADDRESS":"金華路一段３５２巷１１１弄８號","OBJECTID":178017},"geometry":{"x":167285.77000000048,"y":2541066.2100000009}},{"attributes":{"ID":178019,"DIS_CODE":0,"TOWNNAME":"南區","LI":"明德里","LIN":" ","STREET":"大成路","SECT":"一段","MAREA":" ","LANE":"８８巷","ALLEY":"５弄","HOUSE_NO":"７號","E_COORD97":168017.82000000001,"N_COORD97":2541762.0600000001,"ADDRESS":"大成路一段８８巷５弄７號","OBJECTID":178018},"geometry":{"x":168017.8200000003,"y":2541762.0600000005}},{"attributes":{"ID":178020,"DIS_CODE":0,"TOWNNAME":"南區","LI":"明德里","LIN":" ","STREET":"大成路","SECT":"一段","MAREA":" ","LANE":"８８巷","ALLEY":"５弄","HOUSE_NO":"１３號","E_COORD97":168007.17999999999,"N_COORD97":2541760.1499999999,"ADDRESS":"大成路一段８８巷５弄１３號","OBJECTID":178019},"geometry":{"x":168007.18000000063,"y":2541760.1500000022}},{"attributes":{"ID":178021,"DIS_CODE":0,"TOWNNAME":"南區","LI":"明德里","LIN":" ","STREET":"大成路","SECT":"一段","MAREA":" ","LANE":"８８巷","ALLEY":"５弄","HOUSE_NO":"３５號","E_COORD97":167948.57999999999,"N_COORD97":2541764.0499999998,"ADDRESS":"大成路一段８８巷５弄３５號","OBJECTID":178020},"geometry":{"x":167948.58000000101,"y":2541764.0500000026}},{"attributes":{"ID":178022,"DIS_CODE":0,"TOWNNAME":"南區","LI":"松安里","LIN":" ","STREET":"灣裡路","SECT":" ","MAREA":" ","LANE":"２８２巷","ALLEY":"６８弄","HOUSE_NO":"３０號","E_COORD97":165958.29000000001,"N_COORD97":2536271.1600000001,"ADDRESS":"灣裡路２８２巷６８弄３０號","OBJECTID":178021},"geometry":{"x":165958.29000000004,"y":2536271.160000002}},{"attributes":{"ID":178023,"DIS_CODE":0,"TOWNNAME":"南區","LI":"松安里","LIN":" ","STREET":"灣裡路","SECT":" ","MAREA":" ","LANE":"２８２巷","ALLEY":"３６弄","HOUSE_NO":"５號","E_COORD97":166000.22,"N_COORD97":2536331.21,"ADDRESS":"灣裡路２８２巷３６弄５號","OBJECTID":178022},"geometry":{"x":166000.21999999974,"y":2536331.2100000046}},{"attributes":{"ID":178024,"DIS_CODE":0,"TOWNNAME":"官田區","LI":"官田里","LIN":"16鄰","STREET":" ","SECT":" ","MAREA":"官田","LANE":" ","ALLEY":" ","HOUSE_NO":"１８３號之３","E_COORD97":182416.60000000001,"N_COORD97":2564707.6299999999,"ADDRESS":"官田１８３號之３","OBJECTID":178023},"geometry":{"x":182416.60000000056,"y":2564707.6300000008}},{"attributes":{"ID":178025,"DIS_CODE":0,"TOWNNAME":"官田區","LI":"官田里","LIN":"16鄰","STREET":" ","SECT":" ","MAREA":"官田","LANE":" ","ALLEY":" ","HOUSE_NO":"１８３號之４","E_COORD97":182417.64999999999,"N_COORD97":2564702.98,"ADDRESS":"官田１８３號之４","OBJECTID":178024},"geometry":{"x":182417.65000000037,"y":2564702.9800000042}},{"attributes":{"ID":178026,"DIS_CODE":0,"TOWNNAME":"官田區","LI":"官田里","LIN":"16鄰","STREET":" ","SECT":" ","MAREA":"官田","LANE":" ","ALLEY":" ","HOUSE_NO":"１８３號之５","E_COORD97":182435.87,"N_COORD97":2564729.6299999999,"ADDRESS":"官田１８３號之５","OBJECTID":178025},"geometry":{"x":182435.87000000104,"y":2564729.629999999}},{"attributes":{"ID":178027,"DIS_CODE":0,"TOWNNAME":"官田區","LI":"官田里","LIN":"16鄰","STREET":" ","SECT":" ","MAREA":"官田","LANE":" ","ALLEY":" ","HOUSE_NO":"１８３號之６","E_COORD97":182436.82000000001,"N_COORD97":2564725.3500000001,"ADDRESS":"官田１８３號之６","OBJECTID":178026},"geometry":{"x":182436.8200000003,"y":2564725.3499999996}},{"attributes":{"ID":178028,"DIS_CODE":0,"TOWNNAME":"南區","LI":"建南里","LIN":" ","STREET":"德興路","SECT":" ","MAREA":" ","LANE":"３６６巷","ALLEY":"１５弄","HOUSE_NO":"７號","E_COORD97":167153.35000000001,"N_COORD97":2539769.3500000001,"ADDRESS":"德興路３６６巷１５弄７號","OBJECTID":178027},"geometry":{"x":167153.35000000056,"y":2539769.3499999996}},{"attributes":{"ID":178029,"DIS_CODE":0,"TOWNNAME":"西港區","LI":"慶安里","LIN":"34鄰","STREET":"中山路","SECT":" ","MAREA":" ","LANE":"１１７巷","ALLEY":"７弄","HOUSE_NO":"５６號","E_COORD97":168355.54999999999,"N_COORD97":2557306.6699999999,"ADDRESS":"中山路１１７巷７弄５６號","OBJECTID":178028},"geometry":{"x":168355.55000000075,"y":2557306.6700000037}},{"attributes":{"ID":178030,"DIS_CODE":0,"TOWNNAME":"西港區","LI":"慶安里","LIN":"34鄰","STREET":"中山路","SECT":" ","MAREA":" ","LANE":"１１７巷","ALLEY":"７弄","HOUSE_NO":"５８號","E_COORD97":168356.51000000001,"N_COORD97":2557301.1800000002,"ADDRESS":"中山路１１７巷７弄５８號","OBJECTID":178029},"geometry":{"x":168356.50999999978,"y":2557301.1799999997}},{"attributes":{"ID":178031,"DIS_CODE":0,"TOWNNAME":"西港區","LI":"慶安里","LIN":"34鄰","STREET":"中山路","SECT":" ","MAREA":" ","LANE":"１１７巷","ALLEY":"７弄","HOUSE_NO":"５號","E_COORD97":168406.48999999999,"N_COORD97":2557449.4700000002,"ADDRESS":"中山路１１７巷７弄５號","OBJECTID":178030},"geometry":{"x":168406.49000000022,"y":2557449.4700000007}},{"attributes":{"ID":178032,"DIS_CODE":0,"TOWNNAME":"東區","LI":"大德里","LIN":"9鄰","STREET":"立德十一路","SECT":" ","MAREA":" ","LANE":"５５巷","ALLEY":"７０弄","HOUSE_NO":"２號","E_COORD97":169497.95000000001,"N_COORD97":2542239.7999999998,"ADDRESS":"立德十一路５５巷７０弄２號","OBJECTID":178031},"geometry":{"x":169497.95000000019,"y":2542239.8000000045}},{"attributes":{"ID":178033,"DIS_CODE":0,"TOWNNAME":"東區","LI":"大德里","LIN":"9鄰","STREET":"立德十一路","SECT":" ","MAREA":" ","LANE":"５５巷","ALLEY":"７０弄","HOUSE_NO":"４號","E_COORD97":169500.13,"N_COORD97":2542240.5499999998,"ADDRESS":"立德十一路５５巷７０弄４號","OBJECTID":178032},"geometry":{"x":169500.12999999989,"y":2542240.5500000007}},{"attributes":{"ID":178034,"DIS_CODE":0,"TOWNNAME":"官田區","LI":"官田里","LIN":"16鄰","STREET":" ","SECT":" ","MAREA":"官田","LANE":" ","ALLEY":" ","HOUSE_NO":"１８３號之７","E_COORD97":182437.76999999999,"N_COORD97":2564721.0699999998,"ADDRESS":"官田１８３號之７","OBJECTID":178033},"geometry":{"x":182437.77000000048,"y":2564721.0700000003}},{"attributes":{"ID":178035,"DIS_CODE":0,"TOWNNAME":"官田區","LI":"官田里","LIN":"16鄰","STREET":" ","SECT":" ","MAREA":"官田","LANE":" ","ALLEY":" ","HOUSE_NO":"１８３號之８","E_COORD97":182438.73000000001,"N_COORD97":2564716.79,"ADDRESS":"官田１８３號之８","OBJECTID":178034},"geometry":{"x":182438.73000000138,"y":2564716.790000001}},{"attributes":{"ID":178036,"DIS_CODE":0,"TOWNNAME":"官田區","LI":"官田里","LIN":"16鄰","STREET":" ","SECT":" ","MAREA":"官田","LANE":" ","ALLEY":" ","HOUSE_NO":"１８３號之９","E_COORD97":182439.67999999999,"N_COORD97":2564712.5,"ADDRESS":"官田１８３號之９","OBJECTID":178035},"geometry":{"x":182439.68000000063,"y":2564712.5000000037}},{"attributes":{"ID":178037,"DIS_CODE":0,"TOWNNAME":"官田區","LI":"官田里","LIN":"16鄰","STREET":" ","SECT":" ","MAREA":"官田","LANE":" ","ALLEY":" ","HOUSE_NO":"１８３號","E_COORD97":182462.32999999999,"N_COORD97":2564716.5099999998,"ADDRESS":"官田１８３號","OBJECTID":178036},"geometry":{"x":182462.33000000007,"y":2564716.5100000016}},{"attributes":{"ID":178038,"DIS_CODE":0,"TOWNNAME":"官田區","LI":"官田里","LIN":"16鄰","STREET":" ","SECT":" ","MAREA":"官田","LANE":" ","ALLEY":" ","HOUSE_NO":"１８４號之４","E_COORD97":182479.01000000001,"N_COORD97":2564706.46,"ADDRESS":"官田１８４號之４","OBJECTID":178037},"geometry":{"x":182479.00999999978,"y":2564706.4600000009}},{"attributes":{"ID":178039,"DIS_CODE":0,"TOWNNAME":"官田區","LI":"官田里","LIN":"16鄰","STREET":" ","SECT":" ","MAREA":"官田","LANE":" ","ALLEY":" ","HOUSE_NO":"１８４號之５","E_COORD97":182480.57999999999,"N_COORD97":2564701.5,"ADDRESS":"官田１８４號之５","OBJECTID":178038},"geometry":{"x":182480.58000000007,"y":2564701.5}},{"attributes":{"ID":178040,"DIS_CODE":0,"TOWNNAME":"官田區","LI":"官田里","LIN":"16鄰","STREET":" ","SECT":" ","MAREA":"官田","LANE":" ","ALLEY":" ","HOUSE_NO":"１８４號之６","E_COORD97":182482.16,"N_COORD97":2564696.54,"ADDRESS":"官田１８４號之６","OBJECTID":178039},"geometry":{"x":182482.16000000015,"y":2564696.5399999991}},{"attributes":{"ID":178041,"DIS_CODE":0,"TOWNNAME":"官田區","LI":"官田里","LIN":"16鄰","STREET":" ","SECT":" ","MAREA":"官田","LANE":" ","ALLEY":" ","HOUSE_NO":"１８４號之７","E_COORD97":182483.73000000001,"N_COORD97":2564691.5699999998,"ADDRESS":"官田１８４號之７","OBJECTID":178040},"geometry":{"x":182483.73000000045,"y":2564691.5699999984}},{"attributes":{"ID":178042,"DIS_CODE":0,"TOWNNAME":"官田區","LI":"官田里","LIN":"16鄰","STREET":" ","SECT":" ","MAREA":"官田","LANE":" ","ALLEY":" ","HOUSE_NO":"１８４號","E_COORD97":182480.45000000001,"N_COORD97":2564729.6600000001,"ADDRESS":"官田１８４號","OBJECTID":178041},"geometry":{"x":182480.44999999925,"y":2564729.660000002}},{"attributes":{"ID":178043,"DIS_CODE":0,"TOWNNAME":"歸仁區","LI":"武東里","LIN":"7鄰","STREET":"武東一街","SECT":" ","MAREA":" ","LANE":"４８巷","ALLEY":"１９弄","HOUSE_NO":"６號","E_COORD97":175625.22312000001,"N_COORD97":2535381.1973899999,"ADDRESS":"武東一街４８巷１９弄６號","OBJECTID":178042},"geometry":{"x":175625.22312000114,"y":2535381.1973940022}},{"attributes":{"ID":178044,"DIS_CODE":0,"TOWNNAME":"官田區","LI":"官田里","LIN":"16鄰","STREET":" ","SECT":" ","MAREA":"官田","LANE":" ","ALLEY":" ","HOUSE_NO":"１８６號之１","E_COORD97":182508.59,"N_COORD97":2564760.2999999998,"ADDRESS":"官田１８６號之１","OBJECTID":178043},"geometry":{"x":182508.59000000078,"y":2564760.3000000007}},{"attributes":{"ID":178045,"DIS_CODE":0,"TOWNNAME":"官田區","LI":"官田里","LIN":"16鄰","STREET":" ","SECT":" ","MAREA":"官田","LANE":" ","ALLEY":" ","HOUSE_NO":"１８６號","E_COORD97":182509.85000000001,"N_COORD97":2564787.6800000002,"ADDRESS":"官田１８６號","OBJECTID":178044},"geometry":{"x":182509.85000000056,"y":2564787.6799999997}},{"attributes":{"ID":178046,"DIS_CODE":0,"TOWNNAME":"官田區","LI":"官田里","LIN":"16鄰","STREET":" ","SECT":" ","MAREA":"官田","LANE":" ","ALLEY":" ","HOUSE_NO":"１８７號","E_COORD97":182502.22,"N_COORD97":2564807.3199999998,"ADDRESS":"官田１８７號","OBJECTID":178045},"geometry":{"x":182502.22000000067,"y":2564807.3200000003}},{"attributes":{"ID":178047,"DIS_CODE":0,"TOWNNAME":"官田區","LI":"官田里","LIN":"16鄰","STREET":" ","SECT":" ","MAREA":"官田","LANE":" ","ALLEY":" ","HOUSE_NO":"１８８號","E_COORD97":182496.98999999999,"N_COORD97":2564635.7599999998,"ADDRESS":"官田１８８號","OBJECTID":178046},"geometry":{"x":182496.99000000022,"y":2564635.7600000035}},{"attributes":{"ID":178048,"DIS_CODE":0,"TOWNNAME":"官田區","LI":"官田里","LIN":"16鄰","STREET":" ","SECT":" ","MAREA":"官田","LANE":" ","ALLEY":" ","HOUSE_NO":"１８９號之２","E_COORD97":182444.39000000001,"N_COORD97":2564652.2599999998,"ADDRESS":"官田１８９號之２","OBJECTID":178047},"geometry":{"x":182444.38999999966,"y":2564652.2599999998}},{"attributes":{"ID":178049,"DIS_CODE":0,"TOWNNAME":"官田區","LI":"官田里","LIN":"16鄰","STREET":" ","SECT":" ","MAREA":"官田","LANE":" ","ALLEY":" ","HOUSE_NO":"１８９號","E_COORD97":182443.54999999999,"N_COORD97":2564620.2200000002,"ADDRESS":"官田１８９號","OBJECTID":178048},"geometry":{"x":182443.54999999981,"y":2564620.2200000044}},{"attributes":{"ID":178050,"DIS_CODE":0,"TOWNNAME":"善化區","LI":"田寮里","LIN":"16鄰","STREET":" ","SECT":" ","MAREA":"六分寮","LANE":" ","ALLEY":" ","HOUSE_NO":"１９８號之１２","E_COORD97":179036.32000000001,"N_COORD97":2561631.02,"ADDRESS":"六分寮１９８號之１２","OBJECTID":178049},"geometry":{"x":179036.3200000003,"y":2561631.0200000014}},{"attributes":{"ID":178051,"DIS_CODE":0,"TOWNNAME":"善化區","LI":"田寮里","LIN":"16鄰","STREET":" ","SECT":" ","MAREA":"六分寮","LANE":" ","ALLEY":" ","HOUSE_NO":"１９０號","E_COORD97":178910.60000000001,"N_COORD97":2561508.75,"ADDRESS":"六分寮１９０號","OBJECTID":178050},"geometry":{"x":178910.60000000149,"y":2561508.75}},{"attributes":{"ID":178052,"DIS_CODE":0,"TOWNNAME":"善化區","LI":"田寮里","LIN":"16鄰","STREET":" ","SECT":" ","MAREA":"六分寮","LANE":" ","ALLEY":" ","HOUSE_NO":"１８６號之８","E_COORD97":178965.57999999999,"N_COORD97":2561606.77,"ADDRESS":"六分寮１８６號之８","OBJECTID":178051},"geometry":{"x":178965.58000000101,"y":2561606.7699999996}},{"attributes":{"ID":178053,"DIS_CODE":0,"TOWNNAME":"善化區","LI":"田寮里","LIN":"16鄰","STREET":" ","SECT":" ","MAREA":"六分寮","LANE":" ","ALLEY":" ","HOUSE_NO":"１８９號之６","E_COORD97":178923.66,"N_COORD97":2561463.52,"ADDRESS":"六分寮１８９號之６","OBJECTID":178052},"geometry":{"x":178923.66000000015,"y":2561463.5199999977}},{"attributes":{"ID":178054,"DIS_CODE":0,"TOWNNAME":"善化區","LI":"田寮里","LIN":"16鄰","STREET":" ","SECT":" ","MAREA":"六分寮","LANE":" ","ALLEY":" ","HOUSE_NO":"１８６號","E_COORD97":178937.87,"N_COORD97":2561661.75,"ADDRESS":"六分寮１８６號","OBJECTID":178053},"geometry":{"x":178937.87000000011,"y":2561661.75}},{"attributes":{"ID":178055,"DIS_CODE":0,"TOWNNAME":"善化區","LI":"田寮里","LIN":"16鄰","STREET":" ","SECT":" ","MAREA":"六分寮","LANE":" ","ALLEY":" ","HOUSE_NO":"１８５號","E_COORD97":178885.31,"N_COORD97":2561561.5,"ADDRESS":"六分寮１８５號","OBJECTID":178054},"geometry":{"x":178885.31000000145,"y":2561561.5}},{"attributes":{"ID":178056,"DIS_CODE":0,"TOWNNAME":"善化區","LI":"胡厝里","LIN":"16鄰","STREET":" ","SECT":" ","MAREA":"胡厝寮","LANE":" ","ALLEY":" ","HOUSE_NO":"２５１之３號","E_COORD97":174908.94,"N_COORD97":2560105.52,"ADDRESS":"胡厝寮２５１之３號","OBJECTID":178055},"geometry":{"x":174908.94000000134,"y":2560105.5200000014}},{"attributes":{"ID":178057,"DIS_CODE":0,"TOWNNAME":"善化區","LI":"田寮里","LIN":"16鄰","STREET":" ","SECT":" ","MAREA":"六分寮","LANE":" ","ALLEY":" ","HOUSE_NO":"１９１之１２號","E_COORD97":178945.62,"N_COORD97":2561370.52,"ADDRESS":"六分寮１９１之１２號","OBJECTID":178056},"geometry":{"x":178945.62000000104,"y":2561370.5199999996}},{"attributes":{"ID":178058,"DIS_CODE":0,"TOWNNAME":"善化區","LI":"田寮里","LIN":"16鄰","STREET":" ","SECT":" ","MAREA":"六分寮","LANE":" ","ALLEY":" ","HOUSE_NO":"１９８號","E_COORD97":179015.63,"N_COORD97":2561675.5,"ADDRESS":"六分寮１９８號","OBJECTID":178057},"geometry":{"x":179015.62999999896,"y":2561675.5000000019}},{"attributes":{"ID":178059,"DIS_CODE":0,"TOWNNAME":"善化區","LI":"胡厝里","LIN":"16鄰","STREET":" ","SECT":" ","MAREA":"胡厝寮","LANE":" ","ALLEY":" ","HOUSE_NO":"２４６號之２","E_COORD97":174916.82999999999,"N_COORD97":2560179.77,"ADDRESS":"胡厝寮２４６號之２","OBJECTID":178058},"geometry":{"x":174916.83000000007,"y":2560179.7699999996}},{"attributes":{"ID":178060,"DIS_CODE":0,"TOWNNAME":"善化區","LI":"田寮里","LIN":"16鄰","STREET":" ","SECT":" ","MAREA":"六分寮","LANE":" ","ALLEY":" ","HOUSE_NO":"１７９號","E_COORD97":178865.07000000001,"N_COORD97":2561634.5,"ADDRESS":"六分寮１７９號","OBJECTID":178059},"geometry":{"x":178865.0700000003,"y":2561634.5000000019}},{"attributes":{"ID":178061,"DIS_CODE":0,"TOWNNAME":"善化區","LI":"胡厝里","LIN":"16鄰","STREET":" ","SECT":" ","MAREA":"胡厝寮","LANE":" ","ALLEY":" ","HOUSE_NO":"２５１號之１","E_COORD97":174917.60000000001,"N_COORD97":2560077.77,"ADDRESS":"胡厝寮２５１號之１","OBJECTID":178060},"geometry":{"x":174917.59999999963,"y":2560077.7699999996}},{"attributes":{"ID":178062,"DIS_CODE":0,"TOWNNAME":"善化區","LI":"田寮里","LIN":"16鄰","STREET":" ","SECT":" ","MAREA":"六分寮","LANE":" ","ALLEY":" ","HOUSE_NO":"１８６號之７","E_COORD97":178963.73999999999,"N_COORD97":2561612.52,"ADDRESS":"六分寮１８６號之７","OBJECTID":178061},"geometry":{"x":178963.74000000022,"y":2561612.5199999996}},{"attributes":{"ID":178063,"DIS_CODE":0,"TOWNNAME":"善化區","LI":"田寮里","LIN":"16鄰","STREET":" ","SECT":" ","MAREA":"六分寮","LANE":" ","ALLEY":" ","HOUSE_NO":"１９８號之１１","E_COORD97":179035.20999999999,"N_COORD97":2561635.02,"ADDRESS":"六分寮１９８號之１１","OBJECTID":178062},"geometry":{"x":179035.20999999996,"y":2561635.0199999996}},{"attributes":{"ID":178064,"DIS_CODE":0,"TOWNNAME":"善化區","LI":"田寮里","LIN":"16鄰","STREET":" ","SECT":" ","MAREA":"六分寮","LANE":" ","ALLEY":" ","HOUSE_NO":"１８６號之１２","E_COORD97":178973.54000000001,"N_COORD97":2561583.02,"ADDRESS":"六分寮１８６號之１２","OBJECTID":178063},"geometry":{"x":178973.54000000004,"y":2561583.0200000014}},{"attributes":{"ID":178065,"DIS_CODE":0,"TOWNNAME":"善化區","LI":"田寮里","LIN":"16鄰","STREET":" ","SECT":" ","MAREA":"六分寮","LANE":" ","ALLEY":" ","HOUSE_NO":"１９８號之２","E_COORD97":179025.56,"N_COORD97":2561676.27,"ADDRESS":"六分寮１９８號之２","OBJECTID":178064},"geometry":{"x":179025.55999999959,"y":2561676.2700000014}},{"attributes":{"ID":178066,"DIS_CODE":0,"TOWNNAME":"善化區","LI":"胡厝里","LIN":"16鄰","STREET":" ","SECT":" ","MAREA":"胡厝寮","LANE":" ","ALLEY":" ","HOUSE_NO":"２３６號之２","E_COORD97":174957.39000000001,"N_COORD97":2560138.02,"ADDRESS":"胡厝寮２３６號之２","OBJECTID":178065},"geometry":{"x":174957.3900000006,"y":2560138.0200000033}},{"attributes":{"ID":178067,"DIS_CODE":0,"TOWNNAME":"善化區","LI":"田寮里","LIN":"16鄰","STREET":" ","SECT":" ","MAREA":"六分寮","LANE":" ","ALLEY":" ","HOUSE_NO":"１８９號之３","E_COORD97":178908.10000000001,"N_COORD97":2561537.52,"ADDRESS":"六分寮１８９號之３","OBJECTID":178066},"geometry":{"x":178908.09999999963,"y":2561537.5199999996}},{"attributes":{"ID":178068,"DIS_CODE":0,"TOWNNAME":"大內區","LI":"石城里","LIN":"16鄰","STREET":" ","SECT":" ","MAREA":"石子瀨","LANE":" ","ALLEY":" ","HOUSE_NO":"１２２號之３０","E_COORD97":184008.39999999999,"N_COORD97":2557711.2999999998,"ADDRESS":"石子瀨１２２號之３０","OBJECTID":178067},"geometry":{"x":184008.40000000224,"y":2557711.3000000026}},{"attributes":{"ID":178069,"DIS_CODE":0,"TOWNNAME":"大內區","LI":"石城里","LIN":"16鄰","STREET":" ","SECT":" ","MAREA":"石子瀨","LANE":" ","ALLEY":" ","HOUSE_NO":"１２２號之３６","E_COORD97":184051.76000000001,"N_COORD97":2557658.2999999998,"ADDRESS":"石子瀨１２２號之３６","OBJECTID":178068},"geometry":{"x":184051.76000000071,"y":2557658.3000000007}},{"attributes":{"ID":178070,"DIS_CODE":0,"TOWNNAME":"東區","LI":"大德里","LIN":"9鄰","STREET":"立德十一路","SECT":" ","MAREA":" ","LANE":"５５巷","ALLEY":"７０弄","HOUSE_NO":"６號","E_COORD97":169503.14000000001,"N_COORD97":2542240.3300000001,"ADDRESS":"立德十一路５５巷７０弄６號","OBJECTID":178069},"geometry":{"x":169503.13999999966,"y":2542240.3300000019}},{"attributes":{"ID":178071,"DIS_CODE":0,"TOWNNAME":"東區","LI":"大德里","LIN":"9鄰","STREET":"立德十一路","SECT":" ","MAREA":" ","LANE":"５５巷","ALLEY":"７０弄","HOUSE_NO":"８號","E_COORD97":169505.76999999999,"N_COORD97":2542240.8500000001,"ADDRESS":"立德十一路５５巷７０弄８號","OBJECTID":178070},"geometry":{"x":169505.76999999955,"y":2542240.8499999996}},{"attributes":{"ID":178072,"DIS_CODE":0,"TOWNNAME":"東區","LI":"大德里","LIN":"9鄰","STREET":"立德十一路","SECT":" ","MAREA":" ","LANE":"５５巷","ALLEY":"７０弄","HOUSE_NO":"１２號","E_COORD97":169510.88,"N_COORD97":2542243.5600000001,"ADDRESS":"立德十一路５５巷７０弄１２號","OBJECTID":178071},"geometry":{"x":169510.88000000175,"y":2542243.5600000005}},{"attributes":{"ID":178073,"DIS_CODE":0,"TOWNNAME":"東區","LI":"自強里","LIN":" ","STREET":"東門路","SECT":"三段","MAREA":" ","LANE":"３７巷","ALLEY":"７５弄","HOUSE_NO":"４２號","E_COORD97":171137.06,"N_COORD97":2542422.1699999999,"ADDRESS":"東門路三段３７巷７５弄４２號","OBJECTID":178072},"geometry":{"x":171137.06000000052,"y":2542422.1699999999}},{"attributes":{"ID":178074,"DIS_CODE":0,"TOWNNAME":"歸仁區","LI":"武東里","LIN":"7鄰","STREET":"武東一街","SECT":" ","MAREA":" ","LANE":"４８巷","ALLEY":"１９弄","HOUSE_NO":"８號","E_COORD97":175627.23437600001,"N_COORD97":2535380.2448900002,"ADDRESS":"武東一街４８巷１９弄８號","OBJECTID":178073},"geometry":{"x":175627.23437600117,"y":2535380.2448940016}},{"attributes":{"ID":178075,"DIS_CODE":0,"TOWNNAME":"仁德區","LI":"仁愛里","LIN":"16鄰","STREET":" ","SECT":" ","MAREA":"仁愛","LANE":" ","ALLEY":" ","HOUSE_NO":"３１９號","E_COORD97":170214.35430899999,"N_COORD97":2539958.02,"ADDRESS":"仁愛３１９號","OBJECTID":178074},"geometry":{"x":170214.35430900007,"y":2539958.0199999996}},{"attributes":{"ID":178076,"DIS_CODE":0,"TOWNNAME":"東區","LI":"自強里","LIN":" ","STREET":"東門路","SECT":"三段","MAREA":" ","LANE":"３７巷","ALLEY":"７５弄","HOUSE_NO":"５５號","E_COORD97":171120.92999999999,"N_COORD97":2542410.0699999998,"ADDRESS":"東門路三段３７巷７５弄５５號","OBJECTID":178075},"geometry":{"x":171120.93000000063,"y":2542410.0699999984}},{"attributes":{"ID":178077,"DIS_CODE":0,"TOWNNAME":"東區","LI":"自強里","LIN":" ","STREET":"中華東路","SECT":"二段","MAREA":" ","LANE":"２０３巷","ALLEY":"９弄","HOUSE_NO":"５號","E_COORD97":171324.73000000001,"N_COORD97":2542699.3300000001,"ADDRESS":"中華東路二段２０３巷９弄５號","OBJECTID":178076},"geometry":{"x":171324.73000000138,"y":2542699.3300000001}},{"attributes":{"ID":178078,"DIS_CODE":0,"TOWNNAME":"東區","LI":"自強里","LIN":" ","STREET":"中華東路","SECT":"二段","MAREA":" ","LANE":"２０３巷","ALLEY":"９弄","HOUSE_NO":"１７號","E_COORD97":171370.92000000001,"N_COORD97":2542709.4500000002,"ADDRESS":"中華東路二段２０３巷９弄１７號","OBJECTID":178077},"geometry":{"x":171370.92000000086,"y":2542709.4500000011}},{"attributes":{"ID":178079,"DIS_CODE":0,"TOWNNAME":"東區","LI":"自強里","LIN":" ","STREET":"中華東路","SECT":"二段","MAREA":" ","LANE":"２０３巷","ALLEY":"９弄","HOUSE_NO":"１９號","E_COORD97":171378.14999999999,"N_COORD97":2542710.71,"ADDRESS":"中華東路二段２０３巷９弄１９號","OBJECTID":178078},"geometry":{"x":171378.1500000013,"y":2542710.7100000009}},{"attributes":{"ID":178080,"DIS_CODE":0,"TOWNNAME":"東區","LI":"自強里","LIN":"3鄰","STREET":"東門路","SECT":"三段","MAREA":" ","LANE":"３７巷","ALLEY":"６弄","HOUSE_NO":"３６號","E_COORD97":171312.37,"N_COORD97":2542303.4199999999,"ADDRESS":"東門路三段３７巷６弄３６號","OBJECTID":178079},"geometry":{"x":171312.37000000011,"y":2542303.4200000018}},{"attributes":{"ID":178081,"DIS_CODE":0,"TOWNNAME":"東區","LI":"和平里","LIN":" ","STREET":"仁和路","SECT":" ","MAREA":" ","LANE":"２２６巷","ALLEY":"８弄","HOUSE_NO":"８號","E_COORD97":171486.5,"N_COORD97":2541942.75,"ADDRESS":"仁和路２２６巷８弄８號","OBJECTID":178080},"geometry":{"x":171486.5,"y":2541942.75}},{"attributes":{"ID":178082,"DIS_CODE":0,"TOWNNAME":"東區","LI":"忠孝里","LIN":"25鄰","STREET":"崇明三街","SECT":" ","MAREA":" ","LANE":"３８巷","ALLEY":"７弄","HOUSE_NO":"１號","E_COORD97":169628.94,"N_COORD97":2542320.6699999999,"ADDRESS":"崇明三街３８巷７弄１號","OBJECTID":178081},"geometry":{"x":169628.94000000041,"y":2542320.6699999999}},{"attributes":{"ID":178083,"DIS_CODE":0,"TOWNNAME":"東區","LI":"忠孝里","LIN":"32鄰","STREET":"崇明六街","SECT":" ","MAREA":" ","LANE":"８巷","ALLEY":"３弄","HOUSE_NO":"１５號","E_COORD97":169673.91,"N_COORD97":2542188.3700000001,"ADDRESS":"崇明六街８巷３弄１５號","OBJECTID":178082},"geometry":{"x":169673.91000000108,"y":2542188.370000001}},{"attributes":{"ID":178084,"DIS_CODE":0,"TOWNNAME":"東區","LI":"東安里","LIN":" ","STREET":"長榮路","SECT":"二段","MAREA":" ","LANE":"２４巷","ALLEY":"７１弄","HOUSE_NO":"８之１號","E_COORD97":170153.5,"N_COORD97":2543064.3300000001,"ADDRESS":"長榮路二段２４巷７１弄８之１號","OBJECTID":178083},"geometry":{"x":170153.5,"y":2543064.3300000001}},{"attributes":{"ID":178085,"DIS_CODE":0,"TOWNNAME":"東區","LI":"東聖里","LIN":" ","STREET":"中華東路","SECT":"二段","MAREA":" ","LANE":"１３３巷","ALLEY":"１７弄","HOUSE_NO":"１號","E_COORD97":171431.09,"N_COORD97":2542889.3599999999,"ADDRESS":"中華東路二段１３３巷１７弄１號","OBJECTID":178084},"geometry":{"x":171431.08999999985,"y":2542889.3600000013}},{"attributes":{"ID":178086,"DIS_CODE":0,"TOWNNAME":"東區","LI":"後甲里","LIN":"20鄰","STREET":"裕農路","SECT":" ","MAREA":" ","LANE":"７７１巷","ALLEY":"３弄","HOUSE_NO":"２號","E_COORD97":171888.07000000001,"N_COORD97":2543333.98,"ADDRESS":"裕農路７７１巷３弄２號","OBJECTID":178085},"geometry":{"x":171888.0700000003,"y":2543333.9800000023}},{"attributes":{"ID":178087,"DIS_CODE":0,"TOWNNAME":"東區","LI":"後甲里","LIN":"24鄰","STREET":"裕農路","SECT":" ","MAREA":" ","LANE":"６２１巷","ALLEY":"４５弄","HOUSE_NO":"１９號","E_COORD97":171559.89999999999,"N_COORD97":2543454.1499999999,"ADDRESS":"裕農路６２１巷４５弄１９號","OBJECTID":178086},"geometry":{"x":171559.90000000037,"y":2543454.1500000041}},{"attributes":{"ID":178088,"DIS_CODE":0,"TOWNNAME":"東區","LI":"後甲里","LIN":" ","STREET":"裕農路","SECT":" ","MAREA":" ","LANE":"６２１巷","ALLEY":"３０弄","HOUSE_NO":"１５之１號","E_COORD97":171681.48999999999,"N_COORD97":2543314.04,"ADDRESS":"裕農路６２１巷３０弄１５之１號","OBJECTID":178087},"geometry":{"x":171681.49000000022,"y":2543314.0399999991}},{"attributes":{"ID":178089,"DIS_CODE":0,"TOWNNAME":"東區","LI":"後甲里","LIN":"8鄰","STREET":"裕農路","SECT":" ","MAREA":" ","LANE":"６２１巷","ALLEY":"７２弄","HOUSE_NO":"３號之１","E_COORD97":171643.01000000001,"N_COORD97":2543458.8199999998,"ADDRESS":"裕農路６２１巷７２弄３號之１","OBJECTID":178088},"geometry":{"x":171643.01000000071,"y":2543458.8200000003}},{"attributes":{"ID":178090,"DIS_CODE":0,"TOWNNAME":"東區","LI":"後甲里","LIN":"4鄰","STREET":"裕農路","SECT":" ","MAREA":" ","LANE":"６２１巷","ALLEY":"３０弄","HOUSE_NO":"１５號","E_COORD97":171673.04999999999,"N_COORD97":2543313.7999999998,"ADDRESS":"裕農路６２１巷３０弄１５號","OBJECTID":178089},"geometry":{"x":171673.05000000075,"y":2543313.8000000007}},{"attributes":{"ID":178091,"DIS_CODE":0,"TOWNNAME":"東區","LI":"後甲里","LIN":"4鄰","STREET":"裕農路","SECT":" ","MAREA":" ","LANE":"６６１巷","ALLEY":"２５弄","HOUSE_NO":"１０號","E_COORD97":171692.10000000001,"N_COORD97":2543313.7999999998,"ADDRESS":"裕農路６６１巷２５弄１０號","OBJECTID":178090},"geometry":{"x":171692.09999999963,"y":2543313.8000000007}},{"attributes":{"ID":178092,"DIS_CODE":0,"TOWNNAME":"東區","LI":"後甲里","LIN":"24鄰","STREET":"裕農路","SECT":" ","MAREA":" ","LANE":"６２１巷","ALLEY":"４５弄","HOUSE_NO":"２５號","E_COORD97":171547.84,"N_COORD97":2543453.8999999999,"ADDRESS":"裕農路６２１巷４５弄２５號","OBJECTID":178091},"geometry":{"x":171547.83999999985,"y":2543453.9000000022}},{"attributes":{"ID":178093,"DIS_CODE":0,"TOWNNAME":"東區","LI":"後甲里","LIN":"2鄰","STREET":"裕農路","SECT":" ","MAREA":" ","LANE":"７７１巷","ALLEY":"１弄","HOUSE_NO":"３８號","E_COORD97":171822.07999999999,"N_COORD97":2543283.6400000001,"ADDRESS":"裕農路７７１巷１弄３８號","OBJECTID":178092},"geometry":{"x":171822.08000000101,"y":2543283.6400000006}},{"attributes":{"ID":178094,"DIS_CODE":0,"TOWNNAME":"東區","LI":"泉南里","LIN":" ","STREET":"府連路","SECT":" ","MAREA":" ","LANE":"２６０巷","ALLEY":"２弄","HOUSE_NO":"３１號","E_COORD97":169417.57999999999,"N_COORD97":2542815.1400000001,"ADDRESS":"府連路２６０巷２弄３１號","OBJECTID":178093},"geometry":{"x":169417.58000000007,"y":2542815.1400000025}},{"attributes":{"ID":178095,"DIS_CODE":0,"TOWNNAME":"東區","LI":"泉南里","LIN":" ","STREET":"光華街","SECT":" ","MAREA":" ","LANE":"２２９巷","ALLEY":"２７弄","HOUSE_NO":"３０號","E_COORD97":169542.01999999999,"N_COORD97":2542893.6400000001,"ADDRESS":"光華街２２９巷２７弄３０號","OBJECTID":178094},"geometry":{"x":169542.02000000048,"y":2542893.6400000006}},{"attributes":{"ID":178096,"DIS_CODE":0,"TOWNNAME":"東區","LI":"崇誨里","LIN":" ","STREET":"林森路","SECT":"二段","MAREA":" ","LANE":"１９２巷","ALLEY":"３６弄","HOUSE_NO":"３號２Ｆ","E_COORD97":170630.64999999999,"N_COORD97":2543317.3100000001,"ADDRESS":"林森路二段１９２巷３６弄３號２Ｆ","OBJECTID":178095},"geometry":{"x":170630.6500000013,"y":2543317.3099999987}},{"attributes":{"ID":178097,"DIS_CODE":0,"TOWNNAME":"東區","LI":"崇誨里","LIN":" ","STREET":"林森路","SECT":"二段","MAREA":" ","LANE":"１９２巷","ALLEY":"３６弄","HOUSE_NO":"５號２Ｆ","E_COORD97":170632.47,"N_COORD97":2543311.5299999998,"ADDRESS":"林森路二段１９２巷３６弄５號２Ｆ","OBJECTID":178096},"geometry":{"x":170632.47000000067,"y":2543311.5300000031}},{"attributes":{"ID":178098,"DIS_CODE":0,"TOWNNAME":"東區","LI":"崇誨里","LIN":" ","STREET":"林森路","SECT":"二段","MAREA":" ","LANE":"１９２巷","ALLEY":"３６弄","HOUSE_NO":"７號２Ｆ","E_COORD97":170634.28,"N_COORD97":2543304.0800000001,"ADDRESS":"林森路二段１９２巷３６弄７號２Ｆ","OBJECTID":178097},"geometry":{"x":170634.28000000119,"y":2543304.0800000001}},{"attributes":{"ID":178099,"DIS_CODE":0,"TOWNNAME":"東區","LI":"崇誨里","LIN":" ","STREET":"林森路","SECT":"二段","MAREA":" ","LANE":"１９２巷","ALLEY":"３６弄","HOUSE_NO":"９號２Ｆ","E_COORD97":170635.53,"N_COORD97":2543296.04,"ADDRESS":"林森路二段１９２巷３６弄９號２Ｆ","OBJECTID":178098},"geometry":{"x":170635.53000000026,"y":2543296.0399999991}},{"attributes":{"ID":178100,"DIS_CODE":0,"TOWNNAME":"東區","LI":"崇誨里","LIN":" ","STREET":"裕豐街","SECT":" ","MAREA":" ","LANE":"１８５巷","ALLEY":"１２弄","HOUSE_NO":"１８號２Ｆ之１","E_COORD97":170740.79999999999,"N_COORD97":2543264.2799999998,"ADDRESS":"裕豐街１８５巷１２弄１８號２Ｆ之１","OBJECTID":178099},"geometry":{"x":170740.80000000075,"y":2543264.2799999993}},{"attributes":{"ID":178101,"DIS_CODE":0,"TOWNNAME":"大內區","LI":"石城里","LIN":"16鄰","STREET":" ","SECT":" ","MAREA":"石子瀨","LANE":" ","ALLEY":" ","HOUSE_NO":"１２２號之１１９","E_COORD97":183959.29000000001,"N_COORD97":2557648.2999999998,"ADDRESS":"石子瀨１２２號之１１９","OBJECTID":178100},"geometry":{"x":183959.29000000004,"y":2557648.3000000007}},{"attributes":{"ID":178102,"DIS_CODE":0,"TOWNNAME":"東區","LI":"崇德里","LIN":" ","STREET":"崇德五街","SECT":" ","MAREA":" ","LANE":"２巷","ALLEY":"１１弄","HOUSE_NO":"１２號","E_COORD97":170724.89000000001,"N_COORD97":2541793.3799999999,"ADDRESS":"崇德五街２巷１１弄１２號","OBJECTID":178101},"geometry":{"x":170724.8900000006,"y":2541793.3800000008}},{"attributes":{"ID":178103,"DIS_CODE":0,"TOWNNAME":"東區","LI":"莊敬里","LIN":"3鄰","STREET":"小東路","SECT":" ","MAREA":" ","LANE":"２５４巷","ALLEY":"１８弄","HOUSE_NO":"２２號","E_COORD97":171079.20000000001,"N_COORD97":2544266.5499999998,"ADDRESS":"小東路２５４巷１８弄２２號","OBJECTID":178102},"geometry":{"x":171079.20000000112,"y":2544266.5500000026}},{"attributes":{"ID":178104,"DIS_CODE":0,"TOWNNAME":"東區","LI":"莊敬里","LIN":"3鄰","STREET":"小東路","SECT":" ","MAREA":" ","LANE":"２５４巷","ALLEY":"１８弄","HOUSE_NO":"２３號","E_COORD97":171122.98999999999,"N_COORD97":2544229.9700000002,"ADDRESS":"小東路２５４巷１８弄２３號","OBJECTID":178103},"geometry":{"x":171122.99000000115,"y":2544229.9700000025}},{"attributes":{"ID":178105,"DIS_CODE":0,"TOWNNAME":"東區","LI":"莊敬里","LIN":"3鄰","STREET":"小東路","SECT":" ","MAREA":" ","LANE":"２５４巷","ALLEY":"１８弄","HOUSE_NO":"２４號","E_COORD97":171072.10999999999,"N_COORD97":2544265.54,"ADDRESS":"小東路２５４巷１８弄２４號","OBJECTID":178104},"geometry":{"x":171072.11000000034,"y":2544265.5399999991}},{"attributes":{"ID":178106,"DIS_CODE":0,"TOWNNAME":"東區","LI":"莊敬里","LIN":"3鄰","STREET":"小東路","SECT":" ","MAREA":" ","LANE":"２５４巷","ALLEY":"１８弄","HOUSE_NO":"２５號","E_COORD97":171105.87,"N_COORD97":2544229.7599999998,"ADDRESS":"小東路２５４巷１８弄２５號","OBJECTID":178105},"geometry":{"x":171105.87000000011,"y":2544229.7600000016}},{"attributes":{"ID":178107,"DIS_CODE":0,"TOWNNAME":"東區","LI":"莊敬里","LIN":"3鄰","STREET":"小東路","SECT":" ","MAREA":" ","LANE":"２５４巷","ALLEY":"１８弄","HOUSE_NO":"２６號","E_COORD97":171069.81,"N_COORD97":2544274.1800000002,"ADDRESS":"小東路２５４巷１８弄２６號","OBJECTID":178106},"geometry":{"x":171069.80999999959,"y":2544274.1800000016}},{"attributes":{"ID":178108,"DIS_CODE":0,"TOWNNAME":"大內區","LI":"石城里","LIN":"16鄰","STREET":" ","SECT":" ","MAREA":"石子瀨","LANE":" ","ALLEY":" ","HOUSE_NO":"１２２號之１１２","E_COORD97":183984.54000000001,"N_COORD97":2557670.2999999998,"ADDRESS":"石子瀨１２２號之１１２","OBJECTID":178107},"geometry":{"x":183984.54000000004,"y":2557670.3000000026}},{"attributes":{"ID":178109,"DIS_CODE":0,"TOWNNAME":"東區","LI":"富強里","LIN":"14鄰","STREET":"裕農路","SECT":" ","MAREA":" ","LANE":"２８８巷","ALLEY":"１６３弄","HOUSE_NO":"１號","E_COORD97":171092.62,"N_COORD97":2542875.1600000001,"ADDRESS":"裕農路２８８巷１６３弄１號","OBJECTID":178108},"geometry":{"x":171092.61999999918,"y":2542875.160000002}},{"attributes":{"ID":178110,"DIS_CODE":0,"TOWNNAME":"東區","LI":"富強里","LIN":"14鄰","STREET":"裕農路","SECT":" ","MAREA":" ","LANE":"２８８巷","ALLEY":"１６３弄","HOUSE_NO":"２號","E_COORD97":171093.10000000001,"N_COORD97":2542855.9700000002,"ADDRESS":"裕農路２８８巷１６３弄２號","OBJECTID":178109},"geometry":{"x":171093.10000000056,"y":2542855.9700000025}},{"attributes":{"ID":178111,"DIS_CODE":0,"TOWNNAME":"東區","LI":"富強里","LIN":" ","STREET":"裕農路","SECT":" ","MAREA":" ","LANE":"２８８巷","ALLEY":"１２４弄","HOUSE_NO":"４７號","E_COORD97":171044.70999999999,"N_COORD97":2542866.3300000001,"ADDRESS":"裕農路２８８巷１２４弄４７號","OBJECTID":178110},"geometry":{"x":171044.71000000089,"y":2542866.3300000019}},{"attributes":{"ID":178112,"DIS_CODE":0,"TOWNNAME":"東區","LI":"富強里","LIN":"17鄰","STREET":"裕農路","SECT":" ","MAREA":" ","LANE":"２８８巷","ALLEY":"１２４弄","HOUSE_NO":"３５號","E_COORD97":171052.98999999999,"N_COORD97":2542881.7799999998,"ADDRESS":"裕農路２８８巷１２４弄３５號","OBJECTID":178111},"geometry":{"x":171052.99000000209,"y":2542881.7799999993}},{"attributes":{"ID":178113,"DIS_CODE":0,"TOWNNAME":"東區","LI":"富強里","LIN":" ","STREET":"中華東路","SECT":"二段","MAREA":" ","LANE":"４８巷","ALLEY":"２５弄","HOUSE_NO":"２０號","E_COORD97":171276.97,"N_COORD97":2542943.9300000002,"ADDRESS":"中華東路二段４８巷２５弄２０號","OBJECTID":178112},"geometry":{"x":171276.97000000067,"y":2542943.9300000016}},{"attributes":{"ID":178114,"DIS_CODE":0,"TOWNNAME":"東區","LI":"富裕里","LIN":"8鄰","STREET":"裕農路","SECT":" ","MAREA":" ","LANE":"２８８巷","ALLEY":"６０弄","HOUSE_NO":"４０號","E_COORD97":170897.91,"N_COORD97":2542828.8500000001,"ADDRESS":"裕農路２８８巷６０弄４０號","OBJECTID":178113},"geometry":{"x":170897.91000000108,"y":2542828.8500000015}},{"attributes":{"ID":178115,"DIS_CODE":0,"TOWNNAME":"東區","LI":"富裕里","LIN":"6鄰","STREET":"裕農路","SECT":" ","MAREA":" ","LANE":"２８８巷","ALLEY":"２０弄","HOUSE_NO":"３號","E_COORD97":170853.82999999999,"N_COORD97":2542916.2200000002,"ADDRESS":"裕農路２８８巷２０弄３號","OBJECTID":178114},"geometry":{"x":170853.82999999914,"y":2542916.2200000025}},{"attributes":{"ID":178116,"DIS_CODE":0,"TOWNNAME":"東區","LI":"富裕里","LIN":"6鄰","STREET":"裕農路","SECT":" ","MAREA":" ","LANE":"２８８巷","ALLEY":"２０弄","HOUSE_NO":"１１號","E_COORD97":170856.42999999999,"N_COORD97":2542906.4500000002,"ADDRESS":"裕農路２８８巷２０弄１１號","OBJECTID":178115},"geometry":{"x":170856.43000000063,"y":2542906.4500000011}},{"attributes":{"ID":178117,"DIS_CODE":0,"TOWNNAME":"東區","LI":"富裕里","LIN":"6鄰","STREET":"裕農路","SECT":" ","MAREA":" ","LANE":"２８８巷","ALLEY":"２０弄","HOUSE_NO":"１３號","E_COORD97":170857.04999999999,"N_COORD97":2542903.48,"ADDRESS":"裕農路２８８巷２０弄１３號","OBJECTID":178116},"geometry":{"x":170857.04999999981,"y":2542903.4800000023}},{"attributes":{"ID":178118,"DIS_CODE":0,"TOWNNAME":"東區","LI":"富裕里","LIN":"6鄰","STREET":"裕農路","SECT":" ","MAREA":" ","LANE":"２８８巷","ALLEY":"２０弄","HOUSE_NO":"２１號","E_COORD97":170859.76999999999,"N_COORD97":2542879.1600000001,"ADDRESS":"裕農路２８８巷２０弄２１號","OBJECTID":178117},"geometry":{"x":170859.76999999955,"y":2542879.1600000001}},{"attributes":{"ID":178119,"DIS_CODE":0,"TOWNNAME":"東區","LI":"富裕里","LIN":"6鄰","STREET":"裕農路","SECT":" ","MAREA":" ","LANE":"２８８巷","ALLEY":"２０弄","HOUSE_NO":"２９號","E_COORD97":170860.01999999999,"N_COORD97":2542862.5600000001,"ADDRESS":"裕農路２８８巷２０弄２９號","OBJECTID":178118},"geometry":{"x":170860.01999999955,"y":2542862.5600000024}},{"attributes":{"ID":178120,"DIS_CODE":0,"TOWNNAME":"東區","LI":"富裕里","LIN":"6鄰","STREET":"裕農路","SECT":" ","MAREA":" ","LANE":"２８８巷","ALLEY":"２０弄","HOUSE_NO":"３１號","E_COORD97":170861.04000000001,"N_COORD97":2542855.2999999998,"ADDRESS":"裕農路２８８巷２０弄３１號","OBJECTID":178119},"geometry":{"x":170861.0400000019,"y":2542855.3000000007}},{"attributes":{"ID":178121,"DIS_CODE":0,"TOWNNAME":"東區","LI":"富裕里","LIN":"6鄰","STREET":"裕農路","SECT":" ","MAREA":" ","LANE":"２８８巷","ALLEY":"２０弄","HOUSE_NO":"３３號","E_COORD97":170860.98999999999,"N_COORD97":2542847.5600000001,"ADDRESS":"裕農路２８８巷２０弄３３號","OBJECTID":178120},"geometry":{"x":170860.99000000022,"y":2542847.5600000005}},{"attributes":{"ID":178122,"DIS_CODE":0,"TOWNNAME":"東區","LI":"富裕里","LIN":"10鄰","STREET":"東門路","SECT":"二段","MAREA":" ","LANE":"３０１巷","ALLEY":"４３弄","HOUSE_NO":"１２號","E_COORD97":170811.97,"N_COORD97":2542771.4399999999,"ADDRESS":"東門路二段３０１巷４３弄１２號","OBJECTID":178121},"geometry":{"x":170811.9700000016,"y":2542771.4399999995}},{"attributes":{"ID":178123,"DIS_CODE":0,"TOWNNAME":"東區","LI":"新東里","LIN":" ","STREET":"衛國街","SECT":" ","MAREA":" ","LANE":"１０６巷","ALLEY":"５弄","HOUSE_NO":"３４號","E_COORD97":170496.47,"N_COORD97":2543038.29,"ADDRESS":"衛國街１０６巷５弄３４號","OBJECTID":178122},"geometry":{"x":170496.46999999974,"y":2543038.2900000028}},{"attributes":{"ID":178124,"DIS_CODE":0,"TOWNNAME":"東區","LI":"復興里","LIN":"17鄰","STREET":"東成街","SECT":" ","MAREA":" ","LANE":"１３１巷","ALLEY":"１２弄","HOUSE_NO":"２８號","E_COORD97":171764.45000000001,"N_COORD97":2542349.23,"ADDRESS":"東成街１３１巷１２弄２８號","OBJECTID":178123},"geometry":{"x":171764.45000000019,"y":2542349.2300000023}},{"attributes":{"ID":178125,"DIS_CODE":0,"TOWNNAME":"東區","LI":"裕農里","LIN":"4鄰","STREET":"裕農路","SECT":" ","MAREA":" ","LANE":"２９１巷","ALLEY":"５４弄","HOUSE_NO":"７號","E_COORD97":170919.79000000001,"N_COORD97":2543059.5499999998,"ADDRESS":"裕農路２９１巷５４弄７號","OBJECTID":178124},"geometry":{"x":170919.79000000004,"y":2543059.5500000026}},{"attributes":{"ID":178126,"DIS_CODE":0,"TOWNNAME":"東區","LI":"路東里","LIN":" ","STREET":"大同路","SECT":"二段","MAREA":" ","LANE":"１９巷","ALLEY":"５弄","HOUSE_NO":"７號","E_COORD97":169273.91,"N_COORD97":2542368.5600000001,"ADDRESS":"大同路二段１９巷５弄７號","OBJECTID":178125},"geometry":{"x":169273.91000000108,"y":2542368.5600000005}},{"attributes":{"ID":178127,"DIS_CODE":0,"TOWNNAME":"東區","LI":"路東里","LIN":" ","STREET":"大同路","SECT":"二段","MAREA":" ","LANE":"１９巷","ALLEY":"５弄","HOUSE_NO":"８號","E_COORD97":169270.37,"N_COORD97":2542367.4700000002,"ADDRESS":"大同路二段１９巷５弄８號","OBJECTID":178126},"geometry":{"x":169270.37000000197,"y":2542367.4700000044}},{"attributes":{"ID":178128,"DIS_CODE":0,"TOWNNAME":"東區","LI":"裕農里","LIN":"20鄰","STREET":"裕豐街","SECT":" ","MAREA":" ","LANE":"２２２巷","ALLEY":"４３弄","HOUSE_NO":"１號","E_COORD97":170875.04000000001,"N_COORD97":2543221.6099999999,"ADDRESS":"裕豐街２２２巷４３弄１號","OBJECTID":178127},"geometry":{"x":170875.04000000097,"y":2543221.6099999994}},{"attributes":{"ID":178129,"DIS_CODE":0,"TOWNNAME":"東區","LI":"德高里","LIN":" ","STREET":"崇善路","SECT":" ","MAREA":" ","LANE":"９１３巷","ALLEY":"６弄","HOUSE_NO":"５號","E_COORD97":171470.39000000001,"N_COORD97":2540717.1800000002,"ADDRESS":"崇善路９１３巷６弄５號","OBJECTID":178128},"geometry":{"x":171470.3900000006,"y":2540717.1800000034}},{"attributes":{"ID":178130,"DIS_CODE":0,"TOWNNAME":"東區","LI":"衛國里","LIN":"24鄰","STREET":"林森路","SECT":"二段","MAREA":" ","LANE":"１９０巷","ALLEY":"１８弄","HOUSE_NO":"１號","E_COORD97":170564.91,"N_COORD97":2543268.4900000002,"ADDRESS":"林森路二段１９０巷１８弄１號","OBJECTID":178129},"geometry":{"x":170564.91000000015,"y":2543268.4900000039}},{"attributes":{"ID":178131,"DIS_CODE":0,"TOWNNAME":"新市區","LI":"港墘里","LIN":"13鄰","STREET":"中山路","SECT":" ","MAREA":" ","LANE":"７８巷","ALLEY":"１３弄","HOUSE_NO":"３號","E_COORD97":178374.63,"N_COORD97":2552825,"ADDRESS":"中山路７８巷１３弄３號","OBJECTID":178130},"geometry":{"x":178374.62999999989,"y":2552825}},{"attributes":{"ID":178132,"DIS_CODE":0,"TOWNNAME":"新市區","LI":"新市里","LIN":"13鄰","STREET":"中正路","SECT":" ","MAREA":" ","LANE":"３０１巷","ALLEY":"１５弄","HOUSE_NO":"１４號","E_COORD97":177526.16,"N_COORD97":2553306.75,"ADDRESS":"中正路３０１巷１５弄１４號","OBJECTID":178131},"geometry":{"x":177526.16000000108,"y":2553306.7500000019}},{"attributes":{"ID":178133,"DIS_CODE":0,"TOWNNAME":"大內區","LI":"石城里","LIN":"16鄰","STREET":" ","SECT":" ","MAREA":"石子瀨","LANE":" ","ALLEY":" ","HOUSE_NO":"１２２號之１０８","E_COORD97":183975.75,"N_COORD97":2557684.2999999998,"ADDRESS":"石子瀨１２２號之１０８","OBJECTID":178132},"geometry":{"x":183975.75000000093,"y":2557684.3000000026}},{"attributes":{"ID":178134,"DIS_CODE":0,"TOWNNAME":"新市區","LI":"新市里","LIN":"13鄰","STREET":"中正路","SECT":" ","MAREA":" ","LANE":"３０１巷","ALLEY":"１５弄","HOUSE_NO":"１０號","E_COORD97":177540.95999999999,"N_COORD97":2553307.5,"ADDRESS":"中正路３０１巷１５弄１０號","OBJECTID":178133},"geometry":{"x":177540.96000000089,"y":2553307.5000000019}},{"attributes":{"ID":178135,"DIS_CODE":0,"TOWNNAME":"麻豆區","LI":"北勢里","LIN":"16鄰","STREET":" ","SECT":" ","MAREA":"北勢寮","LANE":" ","ALLEY":" ","HOUSE_NO":"６５號之３","E_COORD97":171770.98000000001,"N_COORD97":2568359.3900000001,"ADDRESS":"北勢寮６５號之３","OBJECTID":178134},"geometry":{"x":171770.98000000138,"y":2568359.3900000025}},{"attributes":{"ID":178136,"DIS_CODE":0,"TOWNNAME":"大內區","LI":"石城里","LIN":"16鄰","STREET":" ","SECT":" ","MAREA":"石子瀨","LANE":" ","ALLEY":" ","HOUSE_NO":"１２２號之１０３","E_COORD97":183964,"N_COORD97":2557707.2999999998,"ADDRESS":"石子瀨１２２號之１０３","OBJECTID":178135},"geometry":{"x":183964.00000000093,"y":2557707.3000000026}},{"attributes":{"ID":178137,"DIS_CODE":0,"TOWNNAME":"大內區","LI":"頭社里","LIN":"16鄰","STREET":" ","SECT":" ","MAREA":"頭社","LANE":" ","ALLEY":" ","HOUSE_NO":"２０７號之５","E_COORD97":187064.67999999999,"N_COORD97":2561258.2999999998,"ADDRESS":"頭社２０７號之５","OBJECTID":178136},"geometry":{"x":187064.68000000063,"y":2561258.3000000007}},{"attributes":{"ID":178138,"DIS_CODE":0,"TOWNNAME":"大內區","LI":"二溪里","LIN":"16鄰","STREET":" ","SECT":" ","MAREA":"其子瓦","LANE":" ","ALLEY":" ","HOUSE_NO":"６５號","E_COORD97":191661.12,"N_COORD97":2559484.25,"ADDRESS":"其子瓦６５號","OBJECTID":178137},"geometry":{"x":191661.12000000104,"y":2559484.2500000019}},{"attributes":{"ID":178139,"DIS_CODE":0,"TOWNNAME":"新市區","LI":"港墘里","LIN":"5鄰","STREET":"民族路","SECT":" ","MAREA":" ","LANE":"１２１巷","ALLEY":"４弄","HOUSE_NO":"１號","E_COORD97":178306.98999999999,"N_COORD97":2553556.04,"ADDRESS":"民族路１２１巷４弄１號","OBJECTID":178138},"geometry":{"x":178306.99000000115,"y":2553556.0399999991}},{"attributes":{"ID":178140,"DIS_CODE":0,"TOWNNAME":"大內區","LI":"二溪里","LIN":"16鄰","STREET":" ","SECT":" ","MAREA":"其子瓦","LANE":" ","ALLEY":" ","HOUSE_NO":"６１號","E_COORD97":191121.72,"N_COORD97":2559618.25,"ADDRESS":"其子瓦６１號","OBJECTID":178139},"geometry":{"x":191121.71999999974,"y":2559618.2500000037}},{"attributes":{"ID":178141,"DIS_CODE":0,"TOWNNAME":"大內區","LI":"頭社里","LIN":"16鄰","STREET":" ","SECT":" ","MAREA":"頭社","LANE":" ","ALLEY":" ","HOUSE_NO":"２０４號","E_COORD97":187471.98999999999,"N_COORD97":2561234.25,"ADDRESS":"頭社２０４號","OBJECTID":178140},"geometry":{"x":187471.99000000022,"y":2561234.25}},{"attributes":{"ID":178142,"DIS_CODE":0,"TOWNNAME":"大內區","LI":"石城里","LIN":"16鄰","STREET":" ","SECT":" ","MAREA":"石子瀨","LANE":" ","ALLEY":" ","HOUSE_NO":"１２２號之１１３","E_COORD97":183993.70000000001,"N_COORD97":2557648.2999999998,"ADDRESS":"石子瀨１２２號之１１３","OBJECTID":178141},"geometry":{"x":183993.70000000019,"y":2557648.3000000007}},{"attributes":{"ID":178143,"DIS_CODE":0,"TOWNNAME":"大內區","LI":"石城里","LIN":"16鄰","STREET":" ","SECT":" ","MAREA":"石子瀨","LANE":" ","ALLEY":" ","HOUSE_NO":"１２２號之５９","E_COORD97":183924.54000000001,"N_COORD97":2557726.2999999998,"ADDRESS":"石子瀨１２２號之５９","OBJECTID":178142},"geometry":{"x":183924.54000000097,"y":2557726.3000000007}},{"attributes":{"ID":178144,"DIS_CODE":0,"TOWNNAME":"大內區","LI":"石城里","LIN":"16鄰","STREET":" ","SECT":" ","MAREA":"石子瀨","LANE":" ","ALLEY":" ","HOUSE_NO":"１２２號之１６","E_COORD97":183954.06,"N_COORD97":2557804.2999999998,"ADDRESS":"石子瀨１２２號之１６","OBJECTID":178143},"geometry":{"x":183954.06000000145,"y":2557804.3000000007}},{"attributes":{"ID":178145,"DIS_CODE":0,"TOWNNAME":"大內區","LI":"石城里","LIN":"16鄰","STREET":" ","SECT":" ","MAREA":"石子瀨","LANE":" ","ALLEY":" ","HOUSE_NO":"１２２號之１２４","E_COORD97":183950.92999999999,"N_COORD97":2557666.2999999998,"ADDRESS":"石子瀨１２２號之１２４","OBJECTID":178144},"geometry":{"x":183950.9299999997,"y":2557666.3000000026}},{"attributes":{"ID":178146,"DIS_CODE":0,"TOWNNAME":"大內區","LI":"石城里","LIN":"16鄰","STREET":" ","SECT":" ","MAREA":"石子瀨","LANE":" ","ALLEY":" ","HOUSE_NO":"１２２號之１１５","E_COORD97":183985.26000000001,"N_COORD97":2557643.2999999998,"ADDRESS":"石子瀨１２２號之１１５","OBJECTID":178145},"geometry":{"x":183985.26000000071,"y":2557643.3000000026}},{"attributes":{"ID":178147,"DIS_CODE":0,"TOWNNAME":"大內區","LI":"石城里","LIN":"16鄰","STREET":" ","SECT":" ","MAREA":"石子瀨","LANE":" ","ALLEY":" ","HOUSE_NO":"１２２號之１１８","E_COORD97":183960.75,"N_COORD97":2557645.2999999998,"ADDRESS":"石子瀨１２２號之１１８","OBJECTID":178146},"geometry":{"x":183960.75000000093,"y":2557645.2999999989}},{"attributes":{"ID":178148,"DIS_CODE":0,"TOWNNAME":"大內區","LI":"石城里","LIN":"16鄰","STREET":" ","SECT":" ","MAREA":"石子瀨","LANE":" ","ALLEY":" ","HOUSE_NO":"１２２號之５４","E_COORD97":183985.98000000001,"N_COORD97":2557666.2999999998,"ADDRESS":"石子瀨１２２號之５４","OBJECTID":178147},"geometry":{"x":183985.98000000231,"y":2557666.3000000026}},{"attributes":{"ID":178149,"DIS_CODE":0,"TOWNNAME":"大內區","LI":"石城里","LIN":"16鄰","STREET":" ","SECT":" ","MAREA":"石子瀨","LANE":" ","ALLEY":" ","HOUSE_NO":"１２２號之１０６","E_COORD97":183971.01000000001,"N_COORD97":2557691.2999999998,"ADDRESS":"石子瀨１２２號之１０６","OBJECTID":178148},"geometry":{"x":183971.00999999978,"y":2557691.3000000026}},{"attributes":{"ID":178150,"DIS_CODE":0,"TOWNNAME":"大內區","LI":"石城里","LIN":"16鄰","STREET":" ","SECT":" ","MAREA":"石子瀨","LANE":" ","ALLEY":" ","HOUSE_NO":"１２２號之２９","E_COORD97":184006.23999999999,"N_COORD97":2557715.2999999998,"ADDRESS":"石子瀨１２２號之２９","OBJECTID":178149},"geometry":{"x":184006.24000000115,"y":2557715.3000000007}},{"attributes":{"ID":178151,"DIS_CODE":0,"TOWNNAME":"大內區","LI":"石城里","LIN":"16鄰","STREET":" ","SECT":" ","MAREA":"石子瀨","LANE":" ","ALLEY":" ","HOUSE_NO":"１２２號之１２６","E_COORD97":183948.01000000001,"N_COORD97":2557674.2999999998,"ADDRESS":"石子瀨１２２號之１２６","OBJECTID":178150},"geometry":{"x":183948.01000000071,"y":2557674.3000000026}},{"attributes":{"ID":178152,"DIS_CODE":0,"TOWNNAME":"大內區","LI":"石城里","LIN":"16鄰","STREET":" ","SECT":" ","MAREA":"石子瀨","LANE":" ","ALLEY":" ","HOUSE_NO":"１２２號之１２３","E_COORD97":183952.70000000001,"N_COORD97":2557663.2999999998,"ADDRESS":"石子瀨１２２號之１２３","OBJECTID":178151},"geometry":{"x":183952.70000000112,"y":2557663.3000000026}},{"attributes":{"ID":178153,"DIS_CODE":0,"TOWNNAME":"大內區","LI":"石城里","LIN":"16鄰","STREET":" ","SECT":" ","MAREA":"石子瀨","LANE":" ","ALLEY":" ","HOUSE_NO":"１２２號之１０４","E_COORD97":183965.32999999999,"N_COORD97":2557701.2999999998,"ADDRESS":"石子瀨１２２號之１０４","OBJECTID":178152},"geometry":{"x":183965.33000000101,"y":2557701.3000000026}},{"attributes":{"ID":178154,"DIS_CODE":0,"TOWNNAME":"大內區","LI":"石城里","LIN":"16鄰","STREET":" ","SECT":" ","MAREA":"石子瀨","LANE":" ","ALLEY":" ","HOUSE_NO":"１２２號之１００","E_COORD97":184076.25,"N_COORD97":2557618.2999999998,"ADDRESS":"石子瀨１２２號之１００","OBJECTID":178153},"geometry":{"x":184076.25,"y":2557618.3000000045}},{"attributes":{"ID":178155,"DIS_CODE":0,"TOWNNAME":"大內區","LI":"石城里","LIN":"16鄰","STREET":" ","SECT":" ","MAREA":"石子瀨","LANE":" ","ALLEY":" ","HOUSE_NO":"１２２號之１２５","E_COORD97":183949.85999999999,"N_COORD97":2557670.2999999998,"ADDRESS":"石子瀨１２２號之１２５","OBJECTID":178154},"geometry":{"x":183949.86000000127,"y":2557670.3000000026}},{"attributes":{"ID":178156,"DIS_CODE":0,"TOWNNAME":"大內區","LI":"石城里","LIN":"16鄰","STREET":" ","SECT":" ","MAREA":"石子瀨","LANE":" ","ALLEY":" ","HOUSE_NO":"１２２號之６１","E_COORD97":183912.95000000001,"N_COORD97":2557789.2999999998,"ADDRESS":"石子瀨１２２號之６１","OBJECTID":178155},"geometry":{"x":183912.95000000205,"y":2557789.3000000026}},{"attributes":{"ID":178157,"DIS_CODE":0,"TOWNNAME":"大內區","LI":"石城里","LIN":"16鄰","STREET":" ","SECT":" ","MAREA":"石子瀨","LANE":" ","ALLEY":" ","HOUSE_NO":"１２２號之２３","E_COORD97":183975.85000000001,"N_COORD97":2557771.2999999998,"ADDRESS":"石子瀨１２２號之２３","OBJECTID":178156},"geometry":{"x":183975.85000000149,"y":2557771.3000000026}},{"attributes":{"ID":178158,"DIS_CODE":0,"TOWNNAME":"大內區","LI":"石城里","LIN":"16鄰","STREET":" ","SECT":" ","MAREA":"石子瀨","LANE":" ","ALLEY":" ","HOUSE_NO":"１２２號之３５","E_COORD97":184047.81,"N_COORD97":2557663.2999999998,"ADDRESS":"石子瀨１２２號之３５","OBJECTID":178157},"geometry":{"x":184047.81000000052,"y":2557663.3000000026}},{"attributes":{"ID":178159,"DIS_CODE":0,"TOWNNAME":"大內區","LI":"石城里","LIN":"16鄰","STREET":" ","SECT":" ","MAREA":"石子瀨","LANE":" ","ALLEY":" ","HOUSE_NO":"１２２號之５５","E_COORD97":183990.81,"N_COORD97":2557707.2999999998,"ADDRESS":"石子瀨１２２號之５５","OBJECTID":178158},"geometry":{"x":183990.80999999959,"y":2557707.3000000026}},{"attributes":{"ID":178160,"DIS_CODE":0,"TOWNNAME":"大內區","LI":"石城里","LIN":"16鄰","STREET":" ","SECT":" ","MAREA":"石子瀨","LANE":" ","ALLEY":" ","HOUSE_NO":"１２２號之１２１","E_COORD97":183956.10000000001,"N_COORD97":2557655.2999999998,"ADDRESS":"石子瀨１２２號之１２１","OBJECTID":178159},"geometry":{"x":183956.10000000056,"y":2557655.3000000007}},{"attributes":{"ID":178161,"DIS_CODE":0,"TOWNNAME":"大內區","LI":"石城里","LIN":"16鄰","STREET":" ","SECT":" ","MAREA":"石子瀨","LANE":" ","ALLEY":" ","HOUSE_NO":"１２２號之５１","E_COORD97":183962.64999999999,"N_COORD97":2557637.2999999998,"ADDRESS":"石子瀨１２２號之５１","OBJECTID":178160},"geometry":{"x":183962.65000000224,"y":2557637.3000000007}},{"attributes":{"ID":178162,"DIS_CODE":0,"TOWNNAME":"大內區","LI":"石城里","LIN":"16鄰","STREET":" ","SECT":" ","MAREA":"石子瀨","LANE":" ","ALLEY":" ","HOUSE_NO":"１２２號之５２","E_COORD97":183965.39000000001,"N_COORD97":2557633.2999999998,"ADDRESS":"石子瀨１２２號之５２","OBJECTID":178161},"geometry":{"x":183965.39000000153,"y":2557633.3000000026}},{"attributes":{"ID":178163,"DIS_CODE":0,"TOWNNAME":"大內區","LI":"石城里","LIN":"16鄰","STREET":" ","SECT":" ","MAREA":"石子瀨","LANE":" ","ALLEY":" ","HOUSE_NO":"１２２號之１２２","E_COORD97":183954.34,"N_COORD97":2557658.2999999998,"ADDRESS":"石子瀨１２２號之１２２","OBJECTID":178162},"geometry":{"x":183954.34000000078,"y":2557658.3000000007}},{"attributes":{"ID":178164,"DIS_CODE":0,"TOWNNAME":"大內區","LI":"石城里","LIN":"16鄰","STREET":" ","SECT":" ","MAREA":"石子瀨","LANE":" ","ALLEY":" ","HOUSE_NO":"１２２號之５８","E_COORD97":183949.10000000001,"N_COORD97":2557750.2999999998,"ADDRESS":"石子瀨１２２號之５８","OBJECTID":178163},"geometry":{"x":183949.10000000056,"y":2557750.3000000007}},{"attributes":{"ID":178165,"DIS_CODE":0,"TOWNNAME":"大內區","LI":"石城里","LIN":"16鄰","STREET":" ","SECT":" ","MAREA":"石子瀨","LANE":" ","ALLEY":" ","HOUSE_NO":"１２２號之１０２","E_COORD97":183961.14000000001,"N_COORD97":2557712.2999999998,"ADDRESS":"石子瀨１２２號之１０２","OBJECTID":178164},"geometry":{"x":183961.1400000006,"y":2557712.3000000007}},{"attributes":{"ID":178166,"DIS_CODE":0,"TOWNNAME":"大內區","LI":"石城里","LIN":"16鄰","STREET":" ","SECT":" ","MAREA":"石子瀨","LANE":" ","ALLEY":" ","HOUSE_NO":"１２２號之１１４","E_COORD97":183988.42999999999,"N_COORD97":2557645.2999999998,"ADDRESS":"石子瀨１２２號之１１４","OBJECTID":178165},"geometry":{"x":183988.4299999997,"y":2557645.2999999989}},{"attributes":{"ID":178167,"DIS_CODE":0,"TOWNNAME":"大內區","LI":"石城里","LIN":"16鄰","STREET":" ","SECT":" ","MAREA":"石子瀨","LANE":" ","ALLEY":" ","HOUSE_NO":"１２２號之２８","E_COORD97":184005.70000000001,"N_COORD97":2557724.2999999998,"ADDRESS":"石子瀨１２２號之２８","OBJECTID":178166},"geometry":{"x":184005.70000000019,"y":2557724.3000000026}},{"attributes":{"ID":178168,"DIS_CODE":0,"TOWNNAME":"大內區","LI":"石城里","LIN":"16鄰","STREET":" ","SECT":" ","MAREA":"石子瀨","LANE":" ","ALLEY":" ","HOUSE_NO":"１２２號之３７","E_COORD97":184055.03,"N_COORD97":2557652.2999999998,"ADDRESS":"石子瀨１２２號之３７","OBJECTID":178167},"geometry":{"x":184055.03000000212,"y":2557652.3000000045}},{"attributes":{"ID":178169,"DIS_CODE":0,"TOWNNAME":"大內區","LI":"頭社里","LIN":"16鄰","STREET":" ","SECT":" ","MAREA":"頭社","LANE":" ","ALLEY":" ","HOUSE_NO":"２００號","E_COORD97":187486.89000000001,"N_COORD97":2561181.25,"ADDRESS":"頭社２００號","OBJECTID":178168},"geometry":{"x":187486.8900000006,"y":2561181.2500000037}},{"attributes":{"ID":178170,"DIS_CODE":0,"TOWNNAME":"大內區","LI":"石城里","LIN":"16鄰","STREET":" ","SECT":" ","MAREA":"石子瀨","LANE":" ","ALLEY":" ","HOUSE_NO":"１２２號之４７","E_COORD97":184009.13,"N_COORD97":2557640.2999999998,"ADDRESS":"石子瀨１２２號之４７","OBJECTID":178169},"geometry":{"x":184009.12999999989,"y":2557640.3000000026}},{"attributes":{"ID":178171,"DIS_CODE":0,"TOWNNAME":"大內區","LI":"石城里","LIN":"16鄰","STREET":" ","SECT":" ","MAREA":"石子瀨","LANE":" ","ALLEY":" ","HOUSE_NO":"１２２號之５３","E_COORD97":183960.85000000001,"N_COORD97":2557641.2999999998,"ADDRESS":"石子瀨１２２號之５３","OBJECTID":178170},"geometry":{"x":183960.85000000056,"y":2557641.3000000007}},{"attributes":{"ID":178172,"DIS_CODE":0,"TOWNNAME":"大內區","LI":"石城里","LIN":"16鄰","STREET":" ","SECT":" ","MAREA":"石子瀨","LANE":" ","ALLEY":" ","HOUSE_NO":"１２２號之１２７","E_COORD97":183946.28,"N_COORD97":2557677.2999999998,"ADDRESS":"石子瀨１２２號之１２７","OBJECTID":178171},"geometry":{"x":183946.28000000026,"y":2557677.3000000026}},{"attributes":{"ID":178173,"DIS_CODE":0,"TOWNNAME":"大內區","LI":"石城里","LIN":"16鄰","STREET":" ","SECT":" ","MAREA":"石子瀨","LANE":" ","ALLEY":" ","HOUSE_NO":"１２２號之１１１","E_COORD97":183982.29999999999,"N_COORD97":2557673.2999999998,"ADDRESS":"石子瀨１２２號之１１１","OBJECTID":178172},"geometry":{"x":183982.29999999981,"y":2557673.3000000026}},{"attributes":{"ID":178174,"DIS_CODE":0,"TOWNNAME":"大內區","LI":"石城里","LIN":"16鄰","STREET":" ","SECT":" ","MAREA":"石子瀨","LANE":" ","ALLEY":" ","HOUSE_NO":"１２２之１７０號","E_COORD97":183994.67000000001,"N_COORD97":2557743.2999999998,"ADDRESS":"石子瀨１２２之１７０號","OBJECTID":178173},"geometry":{"x":183994.67000000086,"y":2557743.3000000007}},{"attributes":{"ID":178175,"DIS_CODE":0,"TOWNNAME":"大內區","LI":"石城里","LIN":"16鄰","STREET":" ","SECT":" ","MAREA":"石子瀨","LANE":" ","ALLEY":" ","HOUSE_NO":"１２２號之４９","E_COORD97":184005.64000000001,"N_COORD97":2557665.2999999998,"ADDRESS":"石子瀨１２２號之４９","OBJECTID":178174},"geometry":{"x":184005.63999999966,"y":2557665.3000000007}},{"attributes":{"ID":178176,"DIS_CODE":0,"TOWNNAME":"麻豆區","LI":"油車里","LIN":"16鄰","STREET":" ","SECT":" ","MAREA":"油車","LANE":" ","ALLEY":" ","HOUSE_NO":"１２５號之７","E_COORD97":172514.51000000001,"N_COORD97":2565373.0499999998,"ADDRESS":"油車１２５號之７","OBJECTID":178175},"geometry":{"x":172514.51000000071,"y":2565373.0500000007}},{"attributes":{"ID":178177,"DIS_CODE":0,"TOWNNAME":"大內區","LI":"石城里","LIN":"16鄰","STREET":" ","SECT":" ","MAREA":"石子瀨","LANE":" ","ALLEY":" ","HOUSE_NO":"１２２號之１９","E_COORD97":183965.04000000001,"N_COORD97":2557788.2999999998,"ADDRESS":"石子瀨１２２號之１９","OBJECTID":178176},"geometry":{"x":183965.04000000097,"y":2557788.3000000026}},{"attributes":{"ID":178178,"DIS_CODE":0,"TOWNNAME":"大內區","LI":"頭社里","LIN":"16鄰","STREET":" ","SECT":" ","MAREA":"頭社","LANE":" ","ALLEY":" ","HOUSE_NO":"２０７之６號","E_COORD97":187074.59,"N_COORD97":2561269.2999999998,"ADDRESS":"頭社２０７之６號","OBJECTID":178177},"geometry":{"x":187074.58999999985,"y":2561269.3000000007}},{"attributes":{"ID":178179,"DIS_CODE":0,"TOWNNAME":"新市區","LI":"港墘里","LIN":"5鄰","STREET":"民族路","SECT":" ","MAREA":" ","LANE":"９９巷","ALLEY":"８弄","HOUSE_NO":"３號","E_COORD97":178335.35000000001,"N_COORD97":2553576.29,"ADDRESS":"民族路９９巷８弄３號","OBJECTID":178178},"geometry":{"x":178335.34999999963,"y":2553576.290000001}},{"attributes":{"ID":178180,"DIS_CODE":0,"TOWNNAME":"新市區","LI":"港墘里","LIN":"13鄰","STREET":"中山路","SECT":" ","MAREA":" ","LANE":"７８巷","ALLEY":"５３弄","HOUSE_NO":"３號","E_COORD97":178223.59,"N_COORD97":2552827.75,"ADDRESS":"中山路７８巷５３弄３號","OBJECTID":178179},"geometry":{"x":178223.58999999985,"y":2552827.7500000019}},{"attributes":{"ID":178181,"DIS_CODE":0,"TOWNNAME":"新市區","LI":"新市里","LIN":"14鄰","STREET":"中正路","SECT":" ","MAREA":" ","LANE":"３０１巷","ALLEY":"１８弄","HOUSE_NO":"１０號","E_COORD97":177639.23999999999,"N_COORD97":2553342.25,"ADDRESS":"中正路３０１巷１８弄１０號","OBJECTID":178180},"geometry":{"x":177639.24000000115,"y":2553342.25}},{"attributes":{"ID":178182,"DIS_CODE":0,"TOWNNAME":"新市區","LI":"新市里","LIN":"26鄰","STREET":"復興路","SECT":" ","MAREA":" ","LANE":"６巷","ALLEY":"１９弄","HOUSE_NO":"１２之２號","E_COORD97":177913.39999999999,"N_COORD97":2553401.7999999998,"ADDRESS":"復興路６巷１９弄１２之２號","OBJECTID":178181},"geometry":{"x":177913.4000000013,"y":2553401.8000000026}},{"attributes":{"ID":178183,"DIS_CODE":0,"TOWNNAME":"新市區","LI":"港墘里","LIN":"24鄰","STREET":"南昌街","SECT":" ","MAREA":" ","LANE":"３９巷","ALLEY":"２弄","HOUSE_NO":"１８號","E_COORD97":177969.12,"N_COORD97":2552997.25,"ADDRESS":"南昌街３９巷２弄１８號","OBJECTID":178182},"geometry":{"x":177969.12000000104,"y":2552997.2500000019}},{"attributes":{"ID":178184,"DIS_CODE":0,"TOWNNAME":"新市區","LI":"港墘里","LIN":"24鄰","STREET":"南昌街","SECT":" ","MAREA":" ","LANE":"３９巷","ALLEY":"２弄","HOUSE_NO":"５２號","E_COORD97":177983.66,"N_COORD97":2553074.25,"ADDRESS":"南昌街３９巷２弄５２號","OBJECTID":178183},"geometry":{"x":177983.66000000108,"y":2553074.25}},{"attributes":{"ID":178185,"DIS_CODE":0,"TOWNNAME":"新市區","LI":"新市里","LIN":"18鄰","STREET":"和平街","SECT":" ","MAREA":" ","LANE":"１５巷","ALLEY":"９弄","HOUSE_NO":"２號","E_COORD97":177779.73000000001,"N_COORD97":2553417.75,"ADDRESS":"和平街１５巷９弄２號","OBJECTID":178184},"geometry":{"x":177779.72999999952,"y":2553417.7500000019}},{"attributes":{"ID":178186,"DIS_CODE":0,"TOWNNAME":"大內區","LI":"石城里","LIN":"16鄰","STREET":" ","SECT":" ","MAREA":"石子瀨","LANE":" ","ALLEY":" ","HOUSE_NO":"１２２號之２０","E_COORD97":183967.60000000001,"N_COORD97":2557783.2999999998,"ADDRESS":"石子瀨１２２號之２０","OBJECTID":178185},"geometry":{"x":183967.60000000056,"y":2557783.3000000007}},{"attributes":{"ID":178187,"DIS_CODE":0,"TOWNNAME":"新市區","LI":"新市里","LIN":"26鄰","STREET":"復興路","SECT":" ","MAREA":" ","LANE":"６巷","ALLEY":"１９弄","HOUSE_NO":"１８號","E_COORD97":177891.37,"N_COORD97":2553414.5299999998,"ADDRESS":"復興路６巷１９弄１８號","OBJECTID":178186},"geometry":{"x":177891.37000000011,"y":2553414.5299999975}},{"attributes":{"ID":178188,"DIS_CODE":0,"TOWNNAME":"新市區","LI":"港墘里","LIN":"24鄰","STREET":"南昌街","SECT":" ","MAREA":" ","LANE":"３９巷","ALLEY":"２弄","HOUSE_NO":"４４號","E_COORD97":177980.64999999999,"N_COORD97":2553058.25,"ADDRESS":"南昌街３９巷２弄４４號","OBJECTID":178187},"geometry":{"x":177980.6500000013,"y":2553058.2500000019}},{"attributes":{"ID":178189,"DIS_CODE":0,"TOWNNAME":"新市區","LI":"港墘里","LIN":"24鄰","STREET":"南昌街","SECT":" ","MAREA":" ","LANE":"３９巷","ALLEY":"２弄","HOUSE_NO":"１６號","E_COORD97":177968.51000000001,"N_COORD97":2552993.25,"ADDRESS":"南昌街３９巷２弄１６號","OBJECTID":178188},"geometry":{"x":177968.50999999978,"y":2552993.2499999981}},{"attributes":{"ID":178190,"DIS_CODE":0,"TOWNNAME":"大內區","LI":"石城里","LIN":"16鄰","STREET":" ","SECT":" ","MAREA":"石子瀨","LANE":" ","ALLEY":" ","HOUSE_NO":"１２２號之１２９","E_COORD97":183937.39000000001,"N_COORD97":2557699.2999999998,"ADDRESS":"石子瀨１２２號之１２９","OBJECTID":178189},"geometry":{"x":183937.3900000006,"y":2557699.3000000007}},{"attributes":{"ID":178191,"DIS_CODE":0,"TOWNNAME":"大內區","LI":"頭社里","LIN":"16鄰","STREET":" ","SECT":" ","MAREA":"頭社","LANE":" ","ALLEY":" ","HOUSE_NO":"２０７號之３","E_COORD97":187251.51999999999,"N_COORD97":2561204.2999999998,"ADDRESS":"頭社２０７號之３","OBJECTID":178190},"geometry":{"x":187251.52000000048,"y":2561204.3000000007}},{"attributes":{"ID":178192,"DIS_CODE":0,"TOWNNAME":"大內區","LI":"石城里","LIN":"16鄰","STREET":" ","SECT":" ","MAREA":"石子瀨","LANE":" ","ALLEY":" ","HOUSE_NO":"１２２號之２１","E_COORD97":183969.75,"N_COORD97":2557780.2999999998,"ADDRESS":"石子瀨１２２號之２１","OBJECTID":178191},"geometry":{"x":183969.75,"y":2557780.3000000007}},{"attributes":{"ID":178193,"DIS_CODE":0,"TOWNNAME":"大內區","LI":"頭社里","LIN":"16鄰","STREET":" ","SECT":" ","MAREA":"頭社","LANE":" ","ALLEY":" ","HOUSE_NO":"２０３號之１０","E_COORD97":187321.42999999999,"N_COORD97":2561124.2999999998,"ADDRESS":"頭社２０３號之１０","OBJECTID":178192},"geometry":{"x":187321.4299999997,"y":2561124.3000000045}},{"attributes":{"ID":178194,"DIS_CODE":0,"TOWNNAME":"大內區","LI":"頭社里","LIN":"16鄰","STREET":" ","SECT":" ","MAREA":"頭社","LANE":" ","ALLEY":" ","HOUSE_NO":"２０３號","E_COORD97":187437.98999999999,"N_COORD97":2561183.25,"ADDRESS":"頭社２０３號","OBJECTID":178193},"geometry":{"x":187437.99000000022,"y":2561183.25}},{"attributes":{"ID":178195,"DIS_CODE":0,"TOWNNAME":"大內區","LI":"頭社里","LIN":"16鄰","STREET":" ","SECT":" ","MAREA":"頭社","LANE":" ","ALLEY":" ","HOUSE_NO":"２０７號之１","E_COORD97":187219.13,"N_COORD97":2561148.2999999998,"ADDRESS":"頭社２０７號之１","OBJECTID":178194},"geometry":{"x":187219.13000000082,"y":2561148.3000000026}},{"attributes":{"ID":178196,"DIS_CODE":0,"TOWNNAME":"大內區","LI":"二溪里","LIN":"16鄰","STREET":" ","SECT":" ","MAREA":"其子瓦","LANE":" ","ALLEY":" ","HOUSE_NO":"６０號","E_COORD97":191237.17611299999,"N_COORD97":2559524.3723800001,"ADDRESS":"其子瓦６０號","OBJECTID":178195},"geometry":{"x":191237.17611300107,"y":2559524.3723770026}},{"attributes":{"ID":178197,"DIS_CODE":0,"TOWNNAME":"麻豆區","LI":"油車里","LIN":"16鄰","STREET":" ","SECT":" ","MAREA":"油車","LANE":" ","ALLEY":" ","HOUSE_NO":"１２３號之１２","E_COORD97":172502.23999999999,"N_COORD97":2565421.6400000001,"ADDRESS":"油車１２３號之１２","OBJECTID":178196},"geometry":{"x":172502.24000000022,"y":2565421.6400000025}},{"attributes":{"ID":178198,"DIS_CODE":0,"TOWNNAME":"麻豆區","LI":"油車里","LIN":"16鄰","STREET":" ","SECT":" ","MAREA":"油車","LANE":" ","ALLEY":" ","HOUSE_NO":"１２３號之１","E_COORD97":172510.62,"N_COORD97":2565492.4399999999,"ADDRESS":"油車１２３號之１","OBJECTID":178197},"geometry":{"x":172510.62000000104,"y":2565492.4400000013}},{"attributes":{"ID":178199,"DIS_CODE":0,"TOWNNAME":"麻豆區","LI":"油車里","LIN":"16鄰","STREET":" ","SECT":" ","MAREA":"油車","LANE":" ","ALLEY":" ","HOUSE_NO":"１２３號之２３","E_COORD97":172492.60000000001,"N_COORD97":2565500.9300000002,"ADDRESS":"油車１２３號之２３","OBJECTID":178198},"geometry":{"x":172492.60000000149,"y":2565500.9299999997}},{"attributes":{"ID":178200,"DIS_CODE":0,"TOWNNAME":"安南區","LI":"海東里","LIN":"21鄰","STREET":"海東二街","SECT":" ","MAREA":" ","LANE":" ","ALLEY":" ","HOUSE_NO":"３９號","E_COORD97":166911.751456,"N_COORD97":2547896.6694100001,"ADDRESS":"海東二街３９號","OBJECTID":178199},"geometry":{"x":166911.75145600084,"y":2547896.6694130003}},{"attributes":{"ID":178201,"DIS_CODE":0,"TOWNNAME":"麻豆區","LI":"油車里","LIN":"16鄰","STREET":" ","SECT":" ","MAREA":"油車","LANE":" ","ALLEY":" ","HOUSE_NO":"１２３號之２５","E_COORD97":172492.75,"N_COORD97":2565513.8900000001,"ADDRESS":"油車１２３號之２５","OBJECTID":178200},"geometry":{"x":172492.75000000093,"y":2565513.8900000043}}]}