{"displayFieldName":"TOWNNAME","fieldAliases":{"ID":"ID","DIS_CODE":"DIS_CODE","TOWNNAME":"TOWNNAME","LI":"LI","LIN":"LIN","STREET":"STREET","SECT":"SECT","MAREA":"MAREA","LANE":"LANE","ALLEY":"ALLEY","HOUSE_NO":"HOUSE_NO","E_COORD97":"E_COORD97","N_COORD97":"N_COORD97","ADDRESS":"ADDRESS","OBJECTID":"OBJECTID"},"geometryType":"esriGeometryPoint","spatialReference":{"wkid":102443,"latestWkid":3826},"fields":[{"name":"ID","type":"esriFieldTypeDouble","alias":"ID"},{"name":"DIS_CODE","type":"esriFieldTypeInteger","alias":"DIS_CODE"},{"name":"TOWNNAME","type":"esriFieldTypeString","alias":"TOWNNAME","length":8},{"name":"LI","type":"esriFieldTypeString","alias":"LI","length":8},{"name":"LIN","type":"esriFieldTypeString","alias":"LIN","length":12},{"name":"STREET","type":"esriFieldTypeString","alias":"STREET","length":20},{"name":"SECT","type":"esriFieldTypeString","alias":"SECT","length":8},{"name":"MAREA","type":"esriFieldTypeString","alias":"MAREA","length":12},{"name":"LANE","type":"esriFieldTypeString","alias":"LANE","length":10},{"name":"ALLEY","type":"esriFieldTypeString","alias":"ALLEY","length":10},{"name":"HOUSE_NO","type":"esriFieldTypeString","alias":"HOUSE_NO","length":20},{"name":"E_COORD97","type":"esriFieldTypeDouble","alias":"E_COORD97"},{"name":"N_COORD97","type":"esriFieldTypeDouble","alias":"N_COORD97"},{"name":"ADDRESS","type":"esriFieldTypeString","alias":"ADDRESS","length":50},{"name":"OBJECTID","type":"esriFieldTypeOID","alias":"OBJECTID"}],"features":[{"attributes":{"ID":275206,"DIS_CODE":0,"TOWNNAME":"安南區","LI":"長安里","LIN":"15鄰","STREET":"公學路","SECT":"二段","MAREA":" ","LANE":"１２３巷","ALLEY":" ","HOUSE_NO":"１３３號","E_COORD97":167943.29000000001,"N_COORD97":2552491.2999999998,"ADDRESS":"公學路二段１２３巷１３３號","OBJECTID":275201},"geometry":{"x":167943.29000000004,"y":2552491.3000000007}},{"attributes":{"ID":275207,"DIS_CODE":0,"TOWNNAME":"安南區","LI":"長安里","LIN":"15鄰","STREET":"公學路","SECT":"二段","MAREA":" ","LANE":"１２３巷","ALLEY":" ","HOUSE_NO":"１３５號","E_COORD97":167946.26999999999,"N_COORD97":2552487.8599999999,"ADDRESS":"公學路二段１２３巷１３５號","OBJECTID":275202},"geometry":{"x":167946.26999999955,"y":2552487.8600000013}},{"attributes":{"ID":275208,"DIS_CODE":0,"TOWNNAME":"安南區","LI":"長安里","LIN":"15鄰","STREET":"公學路","SECT":"二段","MAREA":" ","LANE":"１２３巷","ALLEY":" ","HOUSE_NO":"１３９號","E_COORD97":167952.89999999999,"N_COORD97":2552482.3500000001,"ADDRESS":"公學路二段１２３巷１３９號","OBJECTID":275203},"geometry":{"x":167952.90000000037,"y":2552482.3499999996}},{"attributes":{"ID":275209,"DIS_CODE":0,"TOWNNAME":"仁德區","LI":"仁義里","LIN":"32鄰","STREET":"中清三街","SECT":" ","MAREA":" ","LANE":" ","ALLEY":" ","HOUSE_NO":"２６號","E_COORD97":173506.23000000001,"N_COORD97":2541529.04,"ADDRESS":"中清三街２６號","OBJECTID":275204},"geometry":{"x":173506.23000000231,"y":2541529.040000001}},{"attributes":{"ID":275210,"DIS_CODE":0,"TOWNNAME":"仁德區","LI":"大甲里","LIN":"18鄰","STREET":"行大一街","SECT":" ","MAREA":" ","LANE":" ","ALLEY":" ","HOUSE_NO":"４５９號","E_COORD97":169301.76000000001,"N_COORD97":2535234.5,"ADDRESS":"行大一街４５９號","OBJECTID":275205},"geometry":{"x":169301.76000000071,"y":2535234.5000000019}},{"attributes":{"ID":275211,"DIS_CODE":0,"TOWNNAME":"安南區","LI":"長安里","LIN":"15鄰","STREET":"公學路","SECT":"二段","MAREA":" ","LANE":"１２３巷","ALLEY":" ","HOUSE_NO":"１４１號","E_COORD97":167955.35999999999,"N_COORD97":2552478.4100000001,"ADDRESS":"公學路二段１２３巷１４１號","OBJECTID":275206},"geometry":{"x":167955.3600000022,"y":2552478.410000002}},{"attributes":{"ID":275212,"DIS_CODE":0,"TOWNNAME":"永康區","LI":"正強里","LIN":"15鄰","STREET":"正強街","SECT":" ","MAREA":" ","LANE":"７１巷","ALLEY":" ","HOUSE_NO":"１８號","E_COORD97":173297.13,"N_COORD97":2547322.4199999999,"ADDRESS":"正強街７１巷１８號","OBJECTID":275207},"geometry":{"x":173297.12999999989,"y":2547322.4199999999}},{"attributes":{"ID":275213,"DIS_CODE":0,"TOWNNAME":"永康區","LI":"正強里","LIN":"15鄰","STREET":"正強街","SECT":" ","MAREA":" ","LANE":"６３巷","ALLEY":" ","HOUSE_NO":"３８號","E_COORD97":173254.76999999999,"N_COORD97":2547299.4900000002,"ADDRESS":"正強街６３巷３８號","OBJECTID":275208},"geometry":{"x":173254.77000000048,"y":2547299.4899999984}},{"attributes":{"ID":275214,"DIS_CODE":0,"TOWNNAME":"永康區","LI":"正強里","LIN":"15鄰","STREET":"正強街","SECT":" ","MAREA":" ","LANE":"６３巷","ALLEY":" ","HOUSE_NO":"１０號","E_COORD97":173314.79999999999,"N_COORD97":2547304.3999999999,"ADDRESS":"正強街６３巷１０號","OBJECTID":275209},"geometry":{"x":173314.79999999981,"y":2547304.4000000022}},{"attributes":{"ID":275215,"DIS_CODE":0,"TOWNNAME":"永康區","LI":"正強里","LIN":"15鄰","STREET":"中山南路","SECT":" ","MAREA":" ","LANE":"４７１巷","ALLEY":" ","HOUSE_NO":"９１號","E_COORD97":173329.23999999999,"N_COORD97":2547210.7400000002,"ADDRESS":"中山南路４７１巷９１號","OBJECTID":275210},"geometry":{"x":173329.24000000022,"y":2547210.7400000021}},{"attributes":{"ID":275216,"DIS_CODE":0,"TOWNNAME":"新市區","LI":"新和里","LIN":"3鄰","STREET":"延平街","SECT":" ","MAREA":" ","LANE":" ","ALLEY":" ","HOUSE_NO":"２９號","E_COORD97":177466.54999999999,"N_COORD97":2552123.0800000001,"ADDRESS":"延平街２９號","OBJECTID":275211},"geometry":{"x":177466.54999999981,"y":2552123.0800000001}},{"attributes":{"ID":275217,"DIS_CODE":0,"TOWNNAME":"永康區","LI":"復華里","LIN":"15鄰","STREET":"國華街","SECT":" ","MAREA":" ","LANE":"８９巷","ALLEY":" ","HOUSE_NO":"７號","E_COORD97":172817.07000000001,"N_COORD97":2545915.25,"ADDRESS":"國華街８９巷７號","OBJECTID":275212},"geometry":{"x":172817.0700000003,"y":2545915.2500000019}},{"attributes":{"ID":275218,"DIS_CODE":0,"TOWNNAME":"安南區","LI":"溪心里","LIN":"15鄰","STREET":"本原街","SECT":"二段","MAREA":" ","LANE":"５１３巷","ALLEY":" ","HOUSE_NO":"２９號","E_COORD97":165963.91,"N_COORD97":2550475.6800000002,"ADDRESS":"本原街二段５１３巷２９號","OBJECTID":275213},"geometry":{"x":165963.91000000015,"y":2550475.6800000016}},{"attributes":{"ID":275219,"DIS_CODE":0,"TOWNNAME":"新市區","LI":"社內里","LIN":"3鄰","STREET":" ","SECT":" ","MAREA":"社內","LANE":" ","ALLEY":" ","HOUSE_NO":"３８號","E_COORD97":176863.98000000001,"N_COORD97":2552581,"ADDRESS":"社內３８號","OBJECTID":275214},"geometry":{"x":176863.98000000045,"y":2552581}},{"attributes":{"ID":275220,"DIS_CODE":0,"TOWNNAME":"新市區","LI":"永就里","LIN":"3鄰","STREET":" ","SECT":" ","MAREA":"永就","LANE":" ","ALLEY":" ","HOUSE_NO":"３２號","E_COORD97":178399.23000000001,"N_COORD97":2551407,"ADDRESS":"永就３２號","OBJECTID":275215},"geometry":{"x":178399.23000000138,"y":2551407}},{"attributes":{"ID":275221,"DIS_CODE":0,"TOWNNAME":"新市區","LI":"社內里","LIN":"3鄰","STREET":" ","SECT":" ","MAREA":"社內","LANE":" ","ALLEY":" ","HOUSE_NO":"３１之２號","E_COORD97":177054.48000000001,"N_COORD97":2552596.2999999998,"ADDRESS":"社內３１之２號","OBJECTID":275216},"geometry":{"x":177054.48000000138,"y":2552596.3000000007}},{"attributes":{"ID":275222,"DIS_CODE":0,"TOWNNAME":"新市區","LI":"三舍里","LIN":"3鄰","STREET":" ","SECT":" ","MAREA":"三舍","LANE":" ","ALLEY":" ","HOUSE_NO":"７１號","E_COORD97":177948.12,"N_COORD97":2554464.75,"ADDRESS":"三舍７１號","OBJECTID":275217},"geometry":{"x":177948.12000000197,"y":2554464.7499999981}},{"attributes":{"ID":275223,"DIS_CODE":0,"TOWNNAME":"新市區","LI":"三舍里","LIN":"3鄰","STREET":" ","SECT":" ","MAREA":"三舍","LANE":" ","ALLEY":" ","HOUSE_NO":"７０號","E_COORD97":177934.92999999999,"N_COORD97":2554456,"ADDRESS":"三舍７０號","OBJECTID":275218},"geometry":{"x":177934.9299999997,"y":2554456}},{"attributes":{"ID":275224,"DIS_CODE":0,"TOWNNAME":"新市區","LI":"社內里","LIN":"3鄰","STREET":" ","SECT":" ","MAREA":"社內","LANE":" ","ALLEY":" ","HOUSE_NO":"３７之２１７號","E_COORD97":176620.37,"N_COORD97":2552239.2999999998,"ADDRESS":"社內３７之２１７號","OBJECTID":275219},"geometry":{"x":176620.37000000011,"y":2552239.3000000026}},{"attributes":{"ID":275225,"DIS_CODE":0,"TOWNNAME":"新市區","LI":"大營里","LIN":"3鄰","STREET":" ","SECT":" ","MAREA":"大營","LANE":" ","ALLEY":" ","HOUSE_NO":"４８號","E_COORD97":179657.59,"N_COORD97":2555570.5,"ADDRESS":"大營４８號","OBJECTID":275220},"geometry":{"x":179657.59000000078,"y":2555570.5}},{"attributes":{"ID":275226,"DIS_CODE":0,"TOWNNAME":"新市區","LI":"新和里","LIN":"3鄰","STREET":"延平街","SECT":" ","MAREA":" ","LANE":" ","ALLEY":" ","HOUSE_NO":"３１號","E_COORD97":177469.98999999999,"N_COORD97":2552125.3300000001,"ADDRESS":"延平街３１號","OBJECTID":275221},"geometry":{"x":177469.99000000115,"y":2552125.3300000038}},{"attributes":{"ID":275227,"DIS_CODE":0,"TOWNNAME":"新市區","LI":"三舍里","LIN":"3鄰","STREET":" ","SECT":" ","MAREA":"三舍","LANE":" ","ALLEY":" ","HOUSE_NO":"７５號","E_COORD97":177928.23000000001,"N_COORD97":2554478.75,"ADDRESS":"三舍７５號","OBJECTID":275222},"geometry":{"x":177928.23000000045,"y":2554478.7500000037}},{"attributes":{"ID":275228,"DIS_CODE":0,"TOWNNAME":"新市區","LI":"社內里","LIN":"3鄰","STREET":" ","SECT":" ","MAREA":"社內","LANE":" ","ALLEY":" ","HOUSE_NO":"３７之２１８號","E_COORD97":176591.64000000001,"N_COORD97":2552248.2999999998,"ADDRESS":"社內３７之２１８號","OBJECTID":275223},"geometry":{"x":176591.6400000006,"y":2552248.3000000045}},{"attributes":{"ID":275229,"DIS_CODE":0,"TOWNNAME":"新市區","LI":"新和里","LIN":"3鄰","STREET":"延平街","SECT":" ","MAREA":" ","LANE":" ","ALLEY":" ","HOUSE_NO":"２０號","E_COORD97":177406.67999999999,"N_COORD97":2552059.8300000001,"ADDRESS":"延平街２０號","OBJECTID":275224},"geometry":{"x":177406.68000000063,"y":2552059.8300000001}},{"attributes":{"ID":275230,"DIS_CODE":0,"TOWNNAME":"新市區","LI":"新和里","LIN":"3鄰","STREET":"仁愛街","SECT":" ","MAREA":" ","LANE":" ","ALLEY":" ","HOUSE_NO":"１４之１號","E_COORD97":177445.84,"N_COORD97":2552129.2999999998,"ADDRESS":"仁愛街１４之１號","OBJECTID":275225},"geometry":{"x":177445.83999999985,"y":2552129.3000000045}},{"attributes":{"ID":275231,"DIS_CODE":0,"TOWNNAME":"新市區","LI":"社內里","LIN":"3鄰","STREET":" ","SECT":" ","MAREA":"社內","LANE":" ","ALLEY":" ","HOUSE_NO":"３７之１２１號","E_COORD97":176864.5,"N_COORD97":2552139.0499999998,"ADDRESS":"社內３７之１２１號","OBJECTID":275226},"geometry":{"x":176864.50000000093,"y":2552139.0500000026}},{"attributes":{"ID":275232,"DIS_CODE":0,"TOWNNAME":"新市區","LI":"社內里","LIN":"3鄰","STREET":" ","SECT":" ","MAREA":"社內","LANE":" ","ALLEY":" ","HOUSE_NO":"３３之６號","E_COORD97":176951.20000000001,"N_COORD97":2552557.0499999998,"ADDRESS":"社內３３之６號","OBJECTID":275227},"geometry":{"x":176951.20000000112,"y":2552557.0500000007}},{"attributes":{"ID":275233,"DIS_CODE":0,"TOWNNAME":"新市區","LI":"大營里","LIN":"3鄰","STREET":" ","SECT":" ","MAREA":"大營","LANE":" ","ALLEY":" ","HOUSE_NO":"４２號","E_COORD97":179678.39999999999,"N_COORD97":2555591.5,"ADDRESS":"大營４２號","OBJECTID":275228},"geometry":{"x":179678.40000000037,"y":2555591.5}},{"attributes":{"ID":275234,"DIS_CODE":0,"TOWNNAME":"新市區","LI":"港墘里","LIN":"3鄰","STREET":"三民街","SECT":" ","MAREA":" ","LANE":" ","ALLEY":" ","HOUSE_NO":"３４號","E_COORD97":178512.26000000001,"N_COORD97":2553385.79,"ADDRESS":"三民街３４號","OBJECTID":275229},"geometry":{"x":178512.25999999978,"y":2553385.7900000028}},{"attributes":{"ID":275235,"DIS_CODE":0,"TOWNNAME":"新市區","LI":"新市里","LIN":"3鄰","STREET":"仁愛街","SECT":" ","MAREA":" ","LANE":" ","ALLEY":" ","HOUSE_NO":"３３６號","E_COORD97":177673.45000000001,"N_COORD97":2553097.2799999998,"ADDRESS":"仁愛街３３６號","OBJECTID":275230},"geometry":{"x":177673.45000000112,"y":2553097.2799999993}},{"attributes":{"ID":275236,"DIS_CODE":0,"TOWNNAME":"佳里區","LI":"安西里","LIN":"15鄰","STREET":"長安街","SECT":" ","MAREA":" ","LANE":"９９巷","ALLEY":" ","HOUSE_NO":"１０號","E_COORD97":165390.92999999999,"N_COORD97":2562516.3999999999,"ADDRESS":"長安街９９巷１０號","OBJECTID":275231},"geometry":{"x":165390.93000000156,"y":2562516.4000000041}},{"attributes":{"ID":275237,"DIS_CODE":0,"TOWNNAME":"佳里區","LI":"安西里","LIN":"15鄰","STREET":"長安街","SECT":" ","MAREA":" ","LANE":"９９巷","ALLEY":" ","HOUSE_NO":"１２號","E_COORD97":165386.75,"N_COORD97":2562516.3300000001,"ADDRESS":"長安街９９巷１２號","OBJECTID":275232},"geometry":{"x":165386.75,"y":2562516.3300000001}},{"attributes":{"ID":275238,"DIS_CODE":0,"TOWNNAME":"新市區","LI":"港墘里","LIN":"3鄰","STREET":"三民街","SECT":" ","MAREA":" ","LANE":" ","ALLEY":" ","HOUSE_NO":"１２號","E_COORD97":178556.87,"N_COORD97":2553361.54,"ADDRESS":"三民街１２號","OBJECTID":275233},"geometry":{"x":178556.87000000104,"y":2553361.540000001}},{"attributes":{"ID":275239,"DIS_CODE":0,"TOWNNAME":"新市區","LI":"港墘里","LIN":"3鄰","STREET":"三民街","SECT":" ","MAREA":" ","LANE":" ","ALLEY":" ","HOUSE_NO":"２８號","E_COORD97":178526.82000000001,"N_COORD97":2553376.54,"ADDRESS":"三民街２８號","OBJECTID":275234},"geometry":{"x":178526.82000000123,"y":2553376.5399999991}},{"attributes":{"ID":275240,"DIS_CODE":0,"TOWNNAME":"佳里區","LI":"安西里","LIN":"15鄰","STREET":"長安街","SECT":" ","MAREA":" ","LANE":"９９巷","ALLEY":" ","HOUSE_NO":"１４號","E_COORD97":165382.04999999999,"N_COORD97":2562516.4399999999,"ADDRESS":"長安街９９巷１４號","OBJECTID":275235},"geometry":{"x":165382.05000000075,"y":2562516.4400000013}},{"attributes":{"ID":275241,"DIS_CODE":0,"TOWNNAME":"安南區","LI":"海西里","LIN":"15鄰","STREET":"海環街","SECT":" ","MAREA":" ","LANE":"３２０巷","ALLEY":" ","HOUSE_NO":"１０號","E_COORD97":166123.57000000001,"N_COORD97":2548861.77,"ADDRESS":"海環街３２０巷１０號","OBJECTID":275236},"geometry":{"x":166123.57000000123,"y":2548861.7699999996}},{"attributes":{"ID":275242,"DIS_CODE":0,"TOWNNAME":"新市區","LI":"港墘里","LIN":"3鄰","STREET":"三民街","SECT":" ","MAREA":" ","LANE":" ","ALLEY":" ","HOUSE_NO":"４６號","E_COORD97":178491.06,"N_COORD97":2553399.79,"ADDRESS":"三民街４６號","OBJECTID":275237},"geometry":{"x":178491.06000000052,"y":2553399.790000001}},{"attributes":{"ID":275243,"DIS_CODE":0,"TOWNNAME":"新市區","LI":"港墘里","LIN":"3鄰","STREET":"三民街","SECT":" ","MAREA":" ","LANE":" ","ALLEY":" ","HOUSE_NO":"３８號","E_COORD97":178504.89999999999,"N_COORD97":2553390.29,"ADDRESS":"三民街３８號","OBJECTID":275238},"geometry":{"x":178504.9000000013,"y":2553390.290000001}},{"attributes":{"ID":275244,"DIS_CODE":0,"TOWNNAME":"新市區","LI":"新市里","LIN":"3鄰","STREET":"仁愛街","SECT":" ","MAREA":" ","LANE":" ","ALLEY":" ","HOUSE_NO":"３２４號","E_COORD97":177666.81,"N_COORD97":2553066.5299999998,"ADDRESS":"仁愛街３２４號","OBJECTID":275239},"geometry":{"x":177666.81000000052,"y":2553066.5300000012}},{"attributes":{"ID":275245,"DIS_CODE":0,"TOWNNAME":"安南區","LI":"州南里","LIN":"3鄰","STREET":"北安路","SECT":"四段","MAREA":" ","LANE":" ","ALLEY":" ","HOUSE_NO":"２８８號","E_COORD97":169483.23999999999,"N_COORD97":2551247.5499999998,"ADDRESS":"北安路四段２８８號","OBJECTID":275240},"geometry":{"x":169483.24000000209,"y":2551247.5500000026}},{"attributes":{"ID":275246,"DIS_CODE":0,"TOWNNAME":"仁德區","LI":"仁義里","LIN":"20鄰","STREET":"中山路","SECT":" ","MAREA":" ","LANE":" ","ALLEY":" ","HOUSE_NO":"３２０號","E_COORD97":173962.14999999999,"N_COORD97":2541262,"ADDRESS":"中山路３２０號","OBJECTID":275241},"geometry":{"x":173962.15000000037,"y":2541262.0000000019}},{"attributes":{"ID":275247,"DIS_CODE":0,"TOWNNAME":"安南區","LI":"海西里","LIN":"15鄰","STREET":"海中街","SECT":" ","MAREA":" ","LANE":"１０１巷","ALLEY":" ","HOUSE_NO":"１００號","E_COORD97":166152.29999999999,"N_COORD97":2548877.5,"ADDRESS":"海中街１０１巷１００號","OBJECTID":275242},"geometry":{"x":166152.29999999981,"y":2548877.5000000019}},{"attributes":{"ID":275248,"DIS_CODE":0,"TOWNNAME":"安南區","LI":"海西里","LIN":"15鄰","STREET":"海中街","SECT":" ","MAREA":" ","LANE":"１０１巷","ALLEY":" ","HOUSE_NO":"１０８號","E_COORD97":166140.47,"N_COORD97":2548863.7400000002,"ADDRESS":"海中街１０１巷１０８號","OBJECTID":275243},"geometry":{"x":166140.47000000067,"y":2548863.7400000002}},{"attributes":{"ID":275249,"DIS_CODE":0,"TOWNNAME":"永康區","LI":"成功里","LIN":"15鄰","STREET":"忠孝路","SECT":" ","MAREA":" ","LANE":"１９５巷","ALLEY":" ","HOUSE_NO":"２５號","E_COORD97":171992.53,"N_COORD97":2544809.75,"ADDRESS":"忠孝路１９５巷２５號","OBJECTID":275244},"geometry":{"x":171992.53000000119,"y":2544809.7500000019}},{"attributes":{"ID":275250,"DIS_CODE":0,"TOWNNAME":"安南區","LI":"安慶里","LIN":"15鄰","STREET":"安中路","SECT":"一段","MAREA":" ","LANE":"１８９巷","ALLEY":" ","HOUSE_NO":"１６號","E_COORD97":168756.12,"N_COORD97":2548429.6800000002,"ADDRESS":"安中路一段１８９巷１６號","OBJECTID":275245},"geometry":{"x":168756.12000000011,"y":2548429.6799999997}},{"attributes":{"ID":275251,"DIS_CODE":0,"TOWNNAME":"仁德區","LI":"仁義里","LIN":"38鄰","STREET":"仁義五街","SECT":" ","MAREA":" ","LANE":" ","ALLEY":" ","HOUSE_NO":"１６號","E_COORD97":173521.73000000001,"N_COORD97":2540427.27,"ADDRESS":"仁義五街１６號","OBJECTID":275246},"geometry":{"x":173521.73000000138,"y":2540427.2699999996}},{"attributes":{"ID":275252,"DIS_CODE":0,"TOWNNAME":"仁德區","LI":"大甲里","LIN":"18鄰","STREET":"行大一街","SECT":" ","MAREA":" ","LANE":" ","ALLEY":" ","HOUSE_NO":"８６０號","E_COORD97":169059.17000000001,"N_COORD97":2535136,"ADDRESS":"行大一街８６０號","OBJECTID":275247},"geometry":{"x":169059.16999999993,"y":2535136.0000000019}},{"attributes":{"ID":275253,"DIS_CODE":0,"TOWNNAME":"新市區","LI":"社內里","LIN":"3鄰","STREET":" ","SECT":" ","MAREA":"社內","LANE":" ","ALLEY":" ","HOUSE_NO":"３６之１號","E_COORD97":176925.94,"N_COORD97":2552534.0499999998,"ADDRESS":"社內３６之１號","OBJECTID":275248},"geometry":{"x":176925.94000000134,"y":2552534.0500000007}},{"attributes":{"ID":275254,"DIS_CODE":0,"TOWNNAME":"新市區","LI":"社內里","LIN":"3鄰","STREET":" ","SECT":" ","MAREA":"社內","LANE":" ","ALLEY":" ","HOUSE_NO":"３６之２號","E_COORD97":176921.92000000001,"N_COORD97":2552532.5499999998,"ADDRESS":"社內３６之２號","OBJECTID":275249},"geometry":{"x":176921.92000000179,"y":2552532.5500000026}},{"attributes":{"ID":275255,"DIS_CODE":0,"TOWNNAME":"新市區","LI":"社內里","LIN":"3鄰","STREET":" ","SECT":" ","MAREA":"社內","LANE":" ","ALLEY":" ","HOUSE_NO":"３７號之２","E_COORD97":176849.85000000001,"N_COORD97":2552545.0499999998,"ADDRESS":"社內３７號之２","OBJECTID":275250},"geometry":{"x":176849.85000000056,"y":2552545.0500000026}},{"attributes":{"ID":275256,"DIS_CODE":0,"TOWNNAME":"新市區","LI":"社內里","LIN":"3鄰","STREET":" ","SECT":" ","MAREA":"社內","LANE":" ","ALLEY":" ","HOUSE_NO":"３６之５號","E_COORD97":176911.25,"N_COORD97":2552526.0499999998,"ADDRESS":"社內３６之５號","OBJECTID":275251},"geometry":{"x":176911.24999999907,"y":2552526.0500000026}},{"attributes":{"ID":275257,"DIS_CODE":0,"TOWNNAME":"新市區","LI":"社內里","LIN":"3鄰","STREET":" ","SECT":" ","MAREA":"社內","LANE":" ","ALLEY":" ","HOUSE_NO":"３７號","E_COORD97":176857.85999999999,"N_COORD97":2552516,"ADDRESS":"社內３７號","OBJECTID":275252},"geometry":{"x":176857.86000000034,"y":2552516}},{"attributes":{"ID":275258,"DIS_CODE":0,"TOWNNAME":"新市區","LI":"大營里","LIN":"3鄰","STREET":" ","SECT":" ","MAREA":"大營","LANE":" ","ALLEY":" ","HOUSE_NO":"４１號","E_COORD97":179688.98000000001,"N_COORD97":2555562.25,"ADDRESS":"大營４１號","OBJECTID":275253},"geometry":{"x":179688.98000000138,"y":2555562.25}},{"attributes":{"ID":275259,"DIS_CODE":0,"TOWNNAME":"新市區","LI":"大營里","LIN":"3鄰","STREET":" ","SECT":" ","MAREA":"大營","LANE":" ","ALLEY":" ","HOUSE_NO":"３９號","E_COORD97":179716.23999999999,"N_COORD97":2555586.75,"ADDRESS":"大營３９號","OBJECTID":275254},"geometry":{"x":179716.24000000115,"y":2555586.75}},{"attributes":{"ID":275260,"DIS_CODE":0,"TOWNNAME":"仁德區","LI":"仁義里","LIN":"20鄰","STREET":"中山路","SECT":" ","MAREA":" ","LANE":" ","ALLEY":" ","HOUSE_NO":"３２２號","E_COORD97":173958.19,"N_COORD97":2541262.75,"ADDRESS":"中山路３２２號","OBJECTID":275255},"geometry":{"x":173958.19000000134,"y":2541262.7500000037}},{"attributes":{"ID":275261,"DIS_CODE":0,"TOWNNAME":"安南區","LI":"安慶里","LIN":"15鄰","STREET":"安中路","SECT":"一段","MAREA":" ","LANE":"１８９巷","ALLEY":" ","HOUSE_NO":"１７號","E_COORD97":168777.92000000001,"N_COORD97":2548411.1299999999,"ADDRESS":"安中路一段１８９巷１７號","OBJECTID":275256},"geometry":{"x":168777.91999999993,"y":2548411.129999999}},{"attributes":{"ID":275262,"DIS_CODE":0,"TOWNNAME":"仁德區","LI":"仁義里","LIN":"25鄰","STREET":"中山路","SECT":" ","MAREA":" ","LANE":" ","ALLEY":" ","HOUSE_NO":"４８６號","E_COORD97":173533.73000000001,"N_COORD97":2541317.4900000002,"ADDRESS":"中山路４８６號","OBJECTID":275257},"geometry":{"x":173533.73000000138,"y":2541317.4900000002}},{"attributes":{"ID":275263,"DIS_CODE":0,"TOWNNAME":"安南區","LI":"安慶里","LIN":"15鄰","STREET":"安中路","SECT":"一段","MAREA":" ","LANE":"１８９巷","ALLEY":" ","HOUSE_NO":"１８號","E_COORD97":168755.72,"N_COORD97":2548424.77,"ADDRESS":"安中路一段１８９巷１８號","OBJECTID":275258},"geometry":{"x":168755.7200000016,"y":2548424.7699999996}},{"attributes":{"ID":275264,"DIS_CODE":0,"TOWNNAME":"安南區","LI":"安慶里","LIN":"15鄰","STREET":"安中路","SECT":"一段","MAREA":" ","LANE":"１８９巷","ALLEY":" ","HOUSE_NO":"１９號","E_COORD97":168777.42000000001,"N_COORD97":2548406.3199999998,"ADDRESS":"安中路一段１８９巷１９號","OBJECTID":275259},"geometry":{"x":168777.41999999993,"y":2548406.320000004}},{"attributes":{"ID":275265,"DIS_CODE":0,"TOWNNAME":"佳里區","LI":"六安里","LIN":"3鄰","STREET":" ","SECT":" ","MAREA":"六安","LANE":" ","ALLEY":" ","HOUSE_NO":"１７號之１３","E_COORD97":166523.09,"N_COORD97":2562761.1200000001,"ADDRESS":"六安１７號之１３","OBJECTID":275260},"geometry":{"x":166523.09000000078,"y":2562761.1200000029}},{"attributes":{"ID":275266,"DIS_CODE":0,"TOWNNAME":"佳里區","LI":"六安里","LIN":"3鄰","STREET":" ","SECT":" ","MAREA":"六安","LANE":" ","ALLEY":" ","HOUSE_NO":"１７號之１４","E_COORD97":166518.92000000001,"N_COORD97":2562759.8999999999,"ADDRESS":"六安１７號之１４","OBJECTID":275261},"geometry":{"x":166518.92000000086,"y":2562759.9000000004}},{"attributes":{"ID":275267,"DIS_CODE":0,"TOWNNAME":"佳里區","LI":"六安里","LIN":"3鄰","STREET":"六安街","SECT":" ","MAREA":" ","LANE":" ","ALLEY":" ","HOUSE_NO":"３２號","E_COORD97":166174.59,"N_COORD97":2562826.0299999998,"ADDRESS":"六安街３２號","OBJECTID":275262},"geometry":{"x":166174.58999999985,"y":2562826.0299999993}},{"attributes":{"ID":275268,"DIS_CODE":0,"TOWNNAME":"佳里區","LI":"六安里","LIN":"3鄰","STREET":"六安街","SECT":" ","MAREA":" ","LANE":" ","ALLEY":" ","HOUSE_NO":"３４號","E_COORD97":166174.5,"N_COORD97":2562830.8100000001,"ADDRESS":"六安街３４號","OBJECTID":275263},"geometry":{"x":166174.50000000093,"y":2562830.8100000024}},{"attributes":{"ID":275269,"DIS_CODE":0,"TOWNNAME":"安南區","LI":"安慶里","LIN":"15鄰","STREET":"安中路","SECT":"一段","MAREA":" ","LANE":"１８９巷","ALLEY":" ","HOUSE_NO":"１號","E_COORD97":168781.19,"N_COORD97":2548446.8399999999,"ADDRESS":"安中路一段１８９巷１號","OBJECTID":275264},"geometry":{"x":168781.19000000041,"y":2548446.8400000017}},{"attributes":{"ID":275270,"DIS_CODE":0,"TOWNNAME":"安南區","LI":"安慶里","LIN":"15鄰","STREET":"安中路","SECT":"一段","MAREA":" ","LANE":"１８９巷","ALLEY":" ","HOUSE_NO":"２０號","E_COORD97":168755.17999999999,"N_COORD97":2548420.1800000002,"ADDRESS":"安中路一段１８９巷２０號","OBJECTID":275265},"geometry":{"x":168755.1799999997,"y":2548420.1800000034}},{"attributes":{"ID":275271,"DIS_CODE":0,"TOWNNAME":"佳里區","LI":"六安里","LIN":"3鄰","STREET":" ","SECT":" ","MAREA":"六安","LANE":" ","ALLEY":" ","HOUSE_NO":"１７號之１５","E_COORD97":166514.67999999999,"N_COORD97":2562758.9199999999,"ADDRESS":"六安１７號之１５","OBJECTID":275266},"geometry":{"x":166514.6799999997,"y":2562758.9199999999}},{"attributes":{"ID":275272,"DIS_CODE":0,"TOWNNAME":"安南區","LI":"安慶里","LIN":"15鄰","STREET":"安中路","SECT":"一段","MAREA":" ","LANE":"１８９巷","ALLEY":" ","HOUSE_NO":"２１號","E_COORD97":168776.78,"N_COORD97":2548402.5299999998,"ADDRESS":"安中路一段１８９巷２１號","OBJECTID":275267},"geometry":{"x":168776.78000000119,"y":2548402.5299999993}},{"attributes":{"ID":275273,"DIS_CODE":0,"TOWNNAME":"安南區","LI":"安西里","LIN":"15鄰","STREET":"安和路","SECT":"一段","MAREA":" ","LANE":"４５９巷","ALLEY":" ","HOUSE_NO":"３８號","E_COORD97":169268.45000000001,"N_COORD97":2548520.3500000001,"ADDRESS":"安和路一段４５９巷３８號","OBJECTID":275268},"geometry":{"x":169268.45000000112,"y":2548520.3499999978}},{"attributes":{"ID":275274,"DIS_CODE":0,"TOWNNAME":"安南區","LI":"安西里","LIN":"15鄰","STREET":"安和路","SECT":"一段","MAREA":" ","LANE":"４５９巷","ALLEY":" ","HOUSE_NO":"４０號","E_COORD97":169263.89999999999,"N_COORD97":2548519.52,"ADDRESS":"安和路一段４５９巷４０號","OBJECTID":275269},"geometry":{"x":169263.9000000013,"y":2548519.5200000033}},{"attributes":{"ID":275275,"DIS_CODE":0,"TOWNNAME":"佳里區","LI":"六安里","LIN":"3鄰","STREET":" ","SECT":" ","MAREA":"六安","LANE":" ","ALLEY":" ","HOUSE_NO":"１７號之１６","E_COORD97":166510.42000000001,"N_COORD97":2562757.5899999999,"ADDRESS":"六安１７號之１６","OBJECTID":275270},"geometry":{"x":166510.42000000086,"y":2562757.5899999999}},{"attributes":{"ID":275276,"DIS_CODE":0,"TOWNNAME":"安南區","LI":"安西里","LIN":"15鄰","STREET":"安和路","SECT":"一段","MAREA":" ","LANE":"４５９巷","ALLEY":" ","HOUSE_NO":"４２號","E_COORD97":169259.97,"N_COORD97":2548517.6600000001,"ADDRESS":"安和路一段４５９巷４２號","OBJECTID":275271},"geometry":{"x":169259.97000000067,"y":2548517.6600000001}},{"attributes":{"ID":275277,"DIS_CODE":0,"TOWNNAME":"安南區","LI":"安西里","LIN":"15鄰","STREET":"安和路","SECT":"一段","MAREA":" ","LANE":"４５９巷","ALLEY":" ","HOUSE_NO":"４４號","E_COORD97":169255.42999999999,"N_COORD97":2548516.6299999999,"ADDRESS":"安和路一段４５９巷４４號","OBJECTID":275272},"geometry":{"x":169255.4299999997,"y":2548516.629999999}},{"attributes":{"ID":275278,"DIS_CODE":0,"TOWNNAME":"佳里區","LI":"六安里","LIN":"3鄰","STREET":" ","SECT":" ","MAREA":"六安","LANE":" ","ALLEY":" ","HOUSE_NO":"１７號之１７","E_COORD97":166506.14000000001,"N_COORD97":2562756.7599999998,"ADDRESS":"六安１７號之１７","OBJECTID":275273},"geometry":{"x":166506.13999999966,"y":2562756.7599999998}},{"attributes":{"ID":275279,"DIS_CODE":0,"TOWNNAME":"安南區","LI":"溪墘里","LIN":"15鄰","STREET":"海佃路","SECT":"一段","MAREA":" ","LANE":"３４０巷","ALLEY":" ","HOUSE_NO":"１２號","E_COORD97":167144.26999999999,"N_COORD97":2547506.4300000002,"ADDRESS":"海佃路一段３４０巷１２號","OBJECTID":275274},"geometry":{"x":167144.26999999955,"y":2547506.4300000034}},{"attributes":{"ID":275280,"DIS_CODE":0,"TOWNNAME":"安南區","LI":"溪墘里","LIN":"15鄰","STREET":"海佃路","SECT":"一段","MAREA":" ","LANE":"３４０巷","ALLEY":" ","HOUSE_NO":"１６號","E_COORD97":167153.92000000001,"N_COORD97":2547508.5299999998,"ADDRESS":"海佃路一段３４０巷１６號","OBJECTID":275275},"geometry":{"x":167153.91999999993,"y":2547508.5300000031}},{"attributes":{"ID":275281,"DIS_CODE":0,"TOWNNAME":"永康區","LI":"六合里","LIN":"3鄰","STREET":"中山南路","SECT":" ","MAREA":" ","LANE":" ","ALLEY":" ","HOUSE_NO":"８４號","E_COORD97":170949.23000000001,"N_COORD97":2545904.3900000001,"ADDRESS":"中山南路８４號","OBJECTID":275276},"geometry":{"x":170949.23000000045,"y":2545904.3900000025}},{"attributes":{"ID":275282,"DIS_CODE":0,"TOWNNAME":"佳里區","LI":"六安里","LIN":"3鄰","STREET":" ","SECT":" ","MAREA":"六安","LANE":" ","ALLEY":" ","HOUSE_NO":"１７號之１８","E_COORD97":166501.88,"N_COORD97":2562755.73,"ADDRESS":"六安１７號之１８","OBJECTID":275277},"geometry":{"x":166501.88000000175,"y":2562755.7300000023}},{"attributes":{"ID":275283,"DIS_CODE":0,"TOWNNAME":"佳里區","LI":"六安里","LIN":"3鄰","STREET":" ","SECT":" ","MAREA":"六安","LANE":" ","ALLEY":" ","HOUSE_NO":"１７號之２２","E_COORD97":166629.45000000001,"N_COORD97":2562759.5499999998,"ADDRESS":"六安１７號之２２","OBJECTID":275278},"geometry":{"x":166629.45000000112,"y":2562759.5500000007}},{"attributes":{"ID":275284,"DIS_CODE":0,"TOWNNAME":"佳里區","LI":"六安里","LIN":"3鄰","STREET":" ","SECT":" ","MAREA":"六安","LANE":" ","ALLEY":" ","HOUSE_NO":"１７號之２４","E_COORD97":166513.09,"N_COORD97":2562848.21,"ADDRESS":"六安１７號之２４","OBJECTID":275279},"geometry":{"x":166513.09000000078,"y":2562848.2100000028}},{"attributes":{"ID":275285,"DIS_CODE":0,"TOWNNAME":"佳里區","LI":"安西里","LIN":"3鄰","STREET":"民生街","SECT":" ","MAREA":" ","LANE":" ","ALLEY":" ","HOUSE_NO":"１１號","E_COORD97":165606.81,"N_COORD97":2562626.8399999999,"ADDRESS":"民生街１１號","OBJECTID":275280},"geometry":{"x":165606.80999999959,"y":2562626.8399999999}},{"attributes":{"ID":275286,"DIS_CODE":0,"TOWNNAME":"安南區","LI":"溪墘里","LIN":"15鄰","STREET":"海佃路","SECT":"一段","MAREA":" ","LANE":"３４０巷","ALLEY":" ","HOUSE_NO":"１８號","E_COORD97":167157.92999999999,"N_COORD97":2547509.8700000001,"ADDRESS":"海佃路一段３４０巷１８號","OBJECTID":275281},"geometry":{"x":167157.93000000063,"y":2547509.870000001}},{"attributes":{"ID":275287,"DIS_CODE":0,"TOWNNAME":"六甲區","LI":"龍湖里","LIN":"15鄰","STREET":"中正路","SECT":" ","MAREA":" ","LANE":"１０４巷","ALLEY":" ","HOUSE_NO":"２號","E_COORD97":183467.07999999999,"N_COORD97":2568766.8399999999,"ADDRESS":"中正路１０４巷２號","OBJECTID":275282},"geometry":{"x":183467.08000000007,"y":2568766.8399999999}},{"attributes":{"ID":275288,"DIS_CODE":0,"TOWNNAME":"六甲區","LI":"龍湖里","LIN":"15鄰","STREET":"中正路","SECT":" ","MAREA":" ","LANE":"１０４巷","ALLEY":" ","HOUSE_NO":"３號","E_COORD97":183499.54999999999,"N_COORD97":2568780.1000000001,"ADDRESS":"中正路１０４巷３號","OBJECTID":275283},"geometry":{"x":183499.54999999981,"y":2568780.1000000015}},{"attributes":{"ID":275289,"DIS_CODE":0,"TOWNNAME":"六甲區","LI":"龍湖里","LIN":"15鄰","STREET":"中正路","SECT":" ","MAREA":" ","LANE":"１０４巷","ALLEY":" ","HOUSE_NO":"５號","E_COORD97":183503.54000000001,"N_COORD97":2568780.25,"ADDRESS":"中正路１０４巷５號","OBJECTID":275284},"geometry":{"x":183503.54000000004,"y":2568780.2500000019}},{"attributes":{"ID":275290,"DIS_CODE":0,"TOWNNAME":"六甲區","LI":"龍湖里","LIN":"15鄰","STREET":"中正路","SECT":" ","MAREA":" ","LANE":"１０４巷","ALLEY":" ","HOUSE_NO":"６號","E_COORD97":183507.54000000001,"N_COORD97":2568780.4199999999,"ADDRESS":"中正路１０４巷６號","OBJECTID":275285},"geometry":{"x":183507.54000000097,"y":2568780.4199999999}},{"attributes":{"ID":275291,"DIS_CODE":0,"TOWNNAME":"六甲區","LI":"龍湖里","LIN":"15鄰","STREET":"中正路","SECT":" ","MAREA":" ","LANE":"１０４巷","ALLEY":" ","HOUSE_NO":"８號","E_COORD97":183514.42999999999,"N_COORD97":2568780.8799999999,"ADDRESS":"中正路１０４巷８號","OBJECTID":275286},"geometry":{"x":183514.43000000063,"y":2568780.8800000008}},{"attributes":{"ID":275292,"DIS_CODE":0,"TOWNNAME":"六甲區","LI":"龍湖里","LIN":"15鄰","STREET":"中正路","SECT":" ","MAREA":" ","LANE":"１０４巷","ALLEY":" ","HOUSE_NO":"９７號","E_COORD97":183725.14999999999,"N_COORD97":2568688.4300000002,"ADDRESS":"中正路１０４巷９７號","OBJECTID":275287},"geometry":{"x":183725.15000000037,"y":2568688.4299999997}},{"attributes":{"ID":275293,"DIS_CODE":0,"TOWNNAME":"六甲區","LI":"水林里","LIN":"15鄰","STREET":"民族街","SECT":" ","MAREA":" ","LANE":"２４０巷","ALLEY":" ","HOUSE_NO":"１８０號","E_COORD97":183062.22,"N_COORD97":2572404.1099999999,"ADDRESS":"民族街２４０巷１８０號","OBJECTID":275288},"geometry":{"x":183062.22000000067,"y":2572404.1100000013}},{"attributes":{"ID":275294,"DIS_CODE":0,"TOWNNAME":"六甲區","LI":"水林里","LIN":"15鄰","STREET":"民族街","SECT":" ","MAREA":" ","LANE":"２４０巷","ALLEY":" ","HOUSE_NO":"１號","E_COORD97":183265.13,"N_COORD97":2570378.52,"ADDRESS":"民族街２４０巷１號","OBJECTID":275289},"geometry":{"x":183265.12999999989,"y":2570378.5200000014}},{"attributes":{"ID":275295,"DIS_CODE":0,"TOWNNAME":"六甲區","LI":"水林里","LIN":"15鄰","STREET":"民族街","SECT":" ","MAREA":" ","LANE":"２４０巷","ALLEY":" ","HOUSE_NO":"２７號","E_COORD97":183264.82000000001,"N_COORD97":2570438.1699999999,"ADDRESS":"民族街２４０巷２７號","OBJECTID":275290},"geometry":{"x":183264.82000000216,"y":2570438.1700000018}},{"attributes":{"ID":275296,"DIS_CODE":0,"TOWNNAME":"佳里區","LI":"安西里","LIN":"3鄰","STREET":"民生街","SECT":" ","MAREA":" ","LANE":" ","ALLEY":" ","HOUSE_NO":"２５號","E_COORD97":165617.51999999999,"N_COORD97":2562666.6099999999,"ADDRESS":"民生街２５號","OBJECTID":275291},"geometry":{"x":165617.52000000048,"y":2562666.6100000031}},{"attributes":{"ID":275297,"DIS_CODE":0,"TOWNNAME":"七股區","LI":"大寮里","LIN":"3鄰","STREET":" ","SECT":" ","MAREA":"大寮","LANE":" ","ALLEY":" ","HOUSE_NO":"１４號","E_COORD97":163038.17999999999,"N_COORD97":2560981.79,"ADDRESS":"大寮１４號","OBJECTID":275292},"geometry":{"x":163038.18000000156,"y":2560981.7899999991}},{"attributes":{"ID":275298,"DIS_CODE":0,"TOWNNAME":"七股區","LI":"三股里","LIN":"3鄰","STREET":" ","SECT":" ","MAREA":"三股","LANE":" ","ALLEY":" ","HOUSE_NO":"３０號之１０","E_COORD97":159532.20000000001,"N_COORD97":2555511.52,"ADDRESS":"三股３０號之１０","OBJECTID":275293},"geometry":{"x":159532.20000000019,"y":2555511.5200000014}},{"attributes":{"ID":275299,"DIS_CODE":0,"TOWNNAME":"七股區","LI":"三股里","LIN":"3鄰","STREET":" ","SECT":" ","MAREA":"三股","LANE":" ","ALLEY":" ","HOUSE_NO":"３０號之１１","E_COORD97":159527.62,"N_COORD97":2555511.46,"ADDRESS":"三股３０號之１１","OBJECTID":275294},"geometry":{"x":159527.62000000011,"y":2555511.4600000009}},{"attributes":{"ID":275300,"DIS_CODE":0,"TOWNNAME":"七股區","LI":"三股里","LIN":"3鄰","STREET":" ","SECT":" ","MAREA":"三股","LANE":" ","ALLEY":" ","HOUSE_NO":"３０號之１２","E_COORD97":159523.04000000001,"N_COORD97":2555511.3999999999,"ADDRESS":"三股３０號之１２","OBJECTID":275295},"geometry":{"x":159523.04000000004,"y":2555511.4000000004}},{"attributes":{"ID":275301,"DIS_CODE":0,"TOWNNAME":"七股區","LI":"三股里","LIN":"3鄰","STREET":" ","SECT":" ","MAREA":"三股","LANE":" ","ALLEY":" ","HOUSE_NO":"３０號之１３","E_COORD97":159518.45999999999,"N_COORD97":2555511.3399999999,"ADDRESS":"三股３０號之１３","OBJECTID":275296},"geometry":{"x":159518.45999999996,"y":2555511.3399999999}},{"attributes":{"ID":275302,"DIS_CODE":0,"TOWNNAME":"七股區","LI":"三股里","LIN":"3鄰","STREET":" ","SECT":" ","MAREA":"三股","LANE":" ","ALLEY":" ","HOUSE_NO":"３３號之６","E_COORD97":159555.35999999999,"N_COORD97":2555582.29,"ADDRESS":"三股３３號之６","OBJECTID":275297},"geometry":{"x":159555.36000000034,"y":2555582.2899999972}},{"attributes":{"ID":275303,"DIS_CODE":0,"TOWNNAME":"六甲區","LI":"水林里","LIN":"15鄰","STREET":"民族街","SECT":" ","MAREA":" ","LANE":"２４０巷","ALLEY":" ","HOUSE_NO":"３０號","E_COORD97":183326.20999999999,"N_COORD97":2570520.23,"ADDRESS":"民族街２４０巷３０號","OBJECTID":275298},"geometry":{"x":183326.21000000183,"y":2570520.2300000023}},{"attributes":{"ID":275304,"DIS_CODE":0,"TOWNNAME":"七股區","LI":"三股里","LIN":"3鄰","STREET":" ","SECT":" ","MAREA":"三股","LANE":" ","ALLEY":" ","HOUSE_NO":"３３號之７","E_COORD97":159550.41,"N_COORD97":2555582.29,"ADDRESS":"三股３３號之７","OBJECTID":275299},"geometry":{"x":159550.41000000108,"y":2555582.2899999972}},{"attributes":{"ID":275305,"DIS_CODE":0,"TOWNNAME":"六甲區","LI":"水林里","LIN":"15鄰","STREET":"民族街","SECT":" ","MAREA":" ","LANE":"２４０巷","ALLEY":" ","HOUSE_NO":"３２號","E_COORD97":183327.95999999999,"N_COORD97":2570527.5299999998,"ADDRESS":"民族街２４０巷３２號","OBJECTID":275300},"geometry":{"x":183327.96000000183,"y":2570527.5300000012}},{"attributes":{"ID":275306,"DIS_CODE":0,"TOWNNAME":"六甲區","LI":"水林里","LIN":"15鄰","STREET":"民族街","SECT":" ","MAREA":" ","LANE":"２４０巷","ALLEY":" ","HOUSE_NO":"３８０號","E_COORD97":183604.41,"N_COORD97":2571648.8700000001,"ADDRESS":"民族街２４０巷３８０號","OBJECTID":275301},"geometry":{"x":183604.41000000015,"y":2571648.8700000029}},{"attributes":{"ID":275307,"DIS_CODE":0,"TOWNNAME":"安南區","LI":"新順里","LIN":"3鄰","STREET":"安和路","SECT":"三段","MAREA":" ","LANE":" ","ALLEY":" ","HOUSE_NO":"２６之１號","E_COORD97":169769.89999999999,"N_COORD97":2549381.8700000001,"ADDRESS":"安和路三段２６之１號","OBJECTID":275302},"geometry":{"x":169769.90000000037,"y":2549381.870000001}},{"attributes":{"ID":275308,"DIS_CODE":0,"TOWNNAME":"安南區","LI":"溪心里","LIN":"3鄰","STREET":"安吉路","SECT":"一段","MAREA":" ","LANE":" ","ALLEY":" ","HOUSE_NO":"４６５號","E_COORD97":166852.58205,"N_COORD97":2549820.59932,"ADDRESS":"安吉路一段４６５號","OBJECTID":275303},"geometry":{"x":166852.58205000218,"y":2549820.5993219987}},{"attributes":{"ID":275309,"DIS_CODE":0,"TOWNNAME":"仁德區","LI":"仁義里","LIN":"32鄰","STREET":"中清二街","SECT":" ","MAREA":" ","LANE":" ","ALLEY":" ","HOUSE_NO":"４７號","E_COORD97":173547.45999999999,"N_COORD97":2541511.04,"ADDRESS":"中清二街４７號","OBJECTID":275304},"geometry":{"x":173547.45999999996,"y":2541511.040000001}},{"attributes":{"ID":275310,"DIS_CODE":0,"TOWNNAME":"六甲區","LI":"水林里","LIN":"15鄰","STREET":"民族街","SECT":" ","MAREA":" ","LANE":"２４０巷","ALLEY":" ","HOUSE_NO":"６０號","E_COORD97":183371.12,"N_COORD97":2570650.3199999998,"ADDRESS":"民族街２４０巷６０號","OBJECTID":275305},"geometry":{"x":183371.12000000197,"y":2570650.320000004}},{"attributes":{"ID":275311,"DIS_CODE":0,"TOWNNAME":"六甲區","LI":"水林里","LIN":"15鄰","STREET":"民族街","SECT":" ","MAREA":" ","LANE":"２４０巷","ALLEY":" ","HOUSE_NO":"６３號","E_COORD97":183328.56,"N_COORD97":2570651.0299999998,"ADDRESS":"民族街２４０巷６３號","OBJECTID":275306},"geometry":{"x":183328.56000000145,"y":2570651.0299999993}},{"attributes":{"ID":275312,"DIS_CODE":0,"TOWNNAME":"六甲區","LI":"水林里","LIN":"15鄰","STREET":"民族街","SECT":" ","MAREA":" ","LANE":"２４０巷","ALLEY":" ","HOUSE_NO":"７６號之１","E_COORD97":183322.20000000001,"N_COORD97":2571120.8399999999,"ADDRESS":"民族街２４０巷７６號之１","OBJECTID":275307},"geometry":{"x":183322.20000000112,"y":2571120.839999998}},{"attributes":{"ID":275313,"DIS_CODE":0,"TOWNNAME":"六甲區","LI":"水林里","LIN":"15鄰","STREET":"民族街","SECT":" ","MAREA":" ","LANE":"２６０巷","ALLEY":" ","HOUSE_NO":"６號","E_COORD97":183226.57000000001,"N_COORD97":2570424.5099999998,"ADDRESS":"民族街２６０巷６號","OBJECTID":275308},"geometry":{"x":183226.57000000123,"y":2570424.5099999998}},{"attributes":{"ID":275314,"DIS_CODE":0,"TOWNNAME":"南區","LI":"文南里","LIN":"15鄰","STREET":"美南街","SECT":" ","MAREA":" ","LANE":"１８２巷","ALLEY":" ","HOUSE_NO":"６號","E_COORD97":166677.84,"N_COORD97":2542717.1499999999,"ADDRESS":"美南街１８２巷６號","OBJECTID":275309},"geometry":{"x":166677.83999999985,"y":2542717.1500000004}},{"attributes":{"ID":275315,"DIS_CODE":0,"TOWNNAME":"南區","LI":"同安里","LIN":"15鄰","STREET":"明興路","SECT":" ","MAREA":" ","LANE":"１３９５巷","ALLEY":" ","HOUSE_NO":"１１號","E_COORD97":166414.85000000001,"N_COORD97":2535842.21,"ADDRESS":"明興路１３９５巷１１號","OBJECTID":275310},"geometry":{"x":166414.84999999963,"y":2535842.2100000009}},{"attributes":{"ID":275316,"DIS_CODE":0,"TOWNNAME":"南區","LI":"同安里","LIN":"15鄰","STREET":"明興路","SECT":" ","MAREA":" ","LANE":"１３９５巷","ALLEY":" ","HOUSE_NO":"１３號","E_COORD97":166418.82999999999,"N_COORD97":2535839.1000000001,"ADDRESS":"明興路１３９５巷１３號","OBJECTID":275311},"geometry":{"x":166418.83000000007,"y":2535839.1000000015}},{"attributes":{"ID":275317,"DIS_CODE":0,"TOWNNAME":"南區","LI":"同安里","LIN":"15鄰","STREET":"明興路","SECT":" ","MAREA":" ","LANE":"１３９５巷","ALLEY":" ","HOUSE_NO":"１４號","E_COORD97":166415.51000000001,"N_COORD97":2535818.8700000001,"ADDRESS":"明興路１３９５巷１４號","OBJECTID":275312},"geometry":{"x":166415.50999999978,"y":2535818.8700000029}},{"attributes":{"ID":275318,"DIS_CODE":0,"TOWNNAME":"南區","LI":"同安里","LIN":"15鄰","STREET":"明興路","SECT":" ","MAREA":" ","LANE":"１３９５巷","ALLEY":" ","HOUSE_NO":"１５號","E_COORD97":166423.42000000001,"N_COORD97":2535840.9199999999,"ADDRESS":"明興路１３９５巷１５號","OBJECTID":275313},"geometry":{"x":166423.41999999993,"y":2535840.9200000018}},{"attributes":{"ID":275319,"DIS_CODE":0,"TOWNNAME":"南區","LI":"同安里","LIN":"15鄰","STREET":"明興路","SECT":" ","MAREA":" ","LANE":"１３９５巷","ALLEY":" ","HOUSE_NO":"１６號","E_COORD97":166419.51000000001,"N_COORD97":2535817.23,"ADDRESS":"明興路１３９５巷１６號","OBJECTID":275314},"geometry":{"x":166419.51000000164,"y":2535817.2300000004}},{"attributes":{"ID":275320,"DIS_CODE":0,"TOWNNAME":"南區","LI":"同安里","LIN":"15鄰","STREET":"明興路","SECT":" ","MAREA":" ","LANE":"１３９５巷","ALLEY":" ","HOUSE_NO":"１７號","E_COORD97":166427.39999999999,"N_COORD97":2535837.3700000001,"ADDRESS":"明興路１３９５巷１７號","OBJECTID":275315},"geometry":{"x":166427.40000000037,"y":2535837.370000001}},{"attributes":{"ID":275321,"DIS_CODE":0,"TOWNNAME":"南區","LI":"同安里","LIN":"15鄰","STREET":"明興路","SECT":" ","MAREA":" ","LANE":"１３９５巷","ALLEY":" ","HOUSE_NO":"１８號","E_COORD97":166423.23000000001,"N_COORD97":2535815.1499999999,"ADDRESS":"明興路１３９５巷１８號","OBJECTID":275316},"geometry":{"x":166423.23000000045,"y":2535815.1500000004}},{"attributes":{"ID":275322,"DIS_CODE":0,"TOWNNAME":"南區","LI":"同安里","LIN":"15鄰","STREET":"明興路","SECT":" ","MAREA":" ","LANE":"１３９５巷","ALLEY":" ","HOUSE_NO":"１９號","E_COORD97":166431.51000000001,"N_COORD97":2535836.0600000001,"ADDRESS":"明興路１３９５巷１９號","OBJECTID":275317},"geometry":{"x":166431.51000000071,"y":2535836.0600000005}},{"attributes":{"ID":275323,"DIS_CODE":0,"TOWNNAME":"南區","LI":"同安里","LIN":"15鄰","STREET":"明興路","SECT":" ","MAREA":" ","LANE":"１３９５巷","ALLEY":" ","HOUSE_NO":"１號","E_COORD97":166392.60000000001,"N_COORD97":2535841.6899999999,"ADDRESS":"明興路１３９５巷１號","OBJECTID":275318},"geometry":{"x":166392.59999999963,"y":2535841.6900000032}},{"attributes":{"ID":275324,"DIS_CODE":0,"TOWNNAME":"南區","LI":"同安里","LIN":"15鄰","STREET":"明興路","SECT":" ","MAREA":" ","LANE":"１３９５巷","ALLEY":" ","HOUSE_NO":"２７號","E_COORD97":166448.29999999999,"N_COORD97":2535832.52,"ADDRESS":"明興路１３９５巷２７號","OBJECTID":275319},"geometry":{"x":166448.30000000075,"y":2535832.5200000033}},{"attributes":{"ID":275325,"DIS_CODE":0,"TOWNNAME":"南區","LI":"同安里","LIN":"15鄰","STREET":"明興路","SECT":" ","MAREA":" ","LANE":"１３９５巷","ALLEY":" ","HOUSE_NO":"２８號","E_COORD97":166445.35999999999,"N_COORD97":2535814.1400000001,"ADDRESS":"明興路１３９５巷２８號","OBJECTID":275320},"geometry":{"x":166445.36000000127,"y":2535814.1400000006}},{"attributes":{"ID":275326,"DIS_CODE":0,"TOWNNAME":"仁德區","LI":"仁義里","LIN":"26鄰","STREET":"中清四街","SECT":" ","MAREA":" ","LANE":" ","ALLEY":" ","HOUSE_NO":"５號","E_COORD97":173423.70000000001,"N_COORD97":2541359.5499999998,"ADDRESS":"中清四街５號","OBJECTID":275321},"geometry":{"x":173423.70000000112,"y":2541359.5500000007}},{"attributes":{"ID":275327,"DIS_CODE":0,"TOWNNAME":"七股區","LI":"頂山里","LIN":"3鄰","STREET":" ","SECT":" ","MAREA":"頂山","LANE":" ","ALLEY":" ","HOUSE_NO":"３０號","E_COORD97":159040.75,"N_COORD97":2564499.0099999998,"ADDRESS":"頂山３０號","OBJECTID":275322},"geometry":{"x":159040.75000000186,"y":2564499.0100000016}},{"attributes":{"ID":275328,"DIS_CODE":0,"TOWNNAME":"七股區","LI":"竹港里","LIN":"3鄰","STREET":" ","SECT":" ","MAREA":"竹港","LANE":" ","ALLEY":" ","HOUSE_NO":"２６號之１０","E_COORD97":165170.37,"N_COORD97":2556947.2000000002,"ADDRESS":"竹港２６號之１０","OBJECTID":275323},"geometry":{"x":165170.37000000104,"y":2556947.2000000011}},{"attributes":{"ID":275329,"DIS_CODE":0,"TOWNNAME":"仁德區","LI":"上崙里","LIN":"1鄰","STREET":"德崙路","SECT":" ","MAREA":" ","LANE":"７７巷","ALLEY":" ","HOUSE_NO":"８２號四樓之３","E_COORD97":173603.19909000001,"N_COORD97":2538484.4586299998,"ADDRESS":"德崙路７７巷８２號四樓之３","OBJECTID":275324},"geometry":{"x":173603.19909000024,"y":2538484.4586299993}},{"attributes":{"ID":275330,"DIS_CODE":0,"TOWNNAME":"安南區","LI":"安順里","LIN":"3鄰","STREET":"育安街","SECT":" ","MAREA":" ","LANE":" ","ALLEY":" ","HOUSE_NO":"１３５號","E_COORD97":169566.26000000001,"N_COORD97":2549892.3399999999,"ADDRESS":"育安街１３５號","OBJECTID":275325},"geometry":{"x":169566.26000000071,"y":2549892.3399999999}},{"attributes":{"ID":275331,"DIS_CODE":0,"TOWNNAME":"安南區","LI":"顯宮里","LIN":"3鄰","STREET":"安明路","SECT":"三段","MAREA":" ","LANE":" ","ALLEY":" ","HOUSE_NO":"９９０之１００號","E_COORD97":161965.19,"N_COORD97":2550554.3199999998,"ADDRESS":"安明路三段９９０之１００號","OBJECTID":275326},"geometry":{"x":161965.19000000041,"y":2550554.3200000003}},{"attributes":{"ID":275332,"DIS_CODE":0,"TOWNNAME":"安南區","LI":"顯宮里","LIN":"3鄰","STREET":"安中路","SECT":"五段","MAREA":" ","LANE":" ","ALLEY":" ","HOUSE_NO":"５０１之１號","E_COORD97":162291.13,"N_COORD97":2551205.5299999998,"ADDRESS":"安中路五段５０１之１號","OBJECTID":275327},"geometry":{"x":162291.13000000175,"y":2551205.5300000012}},{"attributes":{"ID":275333,"DIS_CODE":0,"TOWNNAME":"仁德區","LI":"仁義里","LIN":"32鄰","STREET":"中清二街","SECT":" ","MAREA":" ","LANE":" ","ALLEY":" ","HOUSE_NO":"４３號","E_COORD97":173565.42000000001,"N_COORD97":2541506.04,"ADDRESS":"中清二街４３號","OBJECTID":275328},"geometry":{"x":173565.42000000179,"y":2541506.0399999991}},{"attributes":{"ID":275334,"DIS_CODE":0,"TOWNNAME":"仁德區","LI":"仁義里","LIN":"26鄰","STREET":"中正路","SECT":"三段","MAREA":" ","LANE":" ","ALLEY":" ","HOUSE_NO":"８號","E_COORD97":173292.41,"N_COORD97":2541370.5299999998,"ADDRESS":"中正路三段８號","OBJECTID":275329},"geometry":{"x":173292.41000000015,"y":2541370.5299999993}},{"attributes":{"ID":275335,"DIS_CODE":0,"TOWNNAME":"仁德區","LI":"仁義里","LIN":"38鄰","STREET":"仁義五街","SECT":" ","MAREA":" ","LANE":" ","ALLEY":" ","HOUSE_NO":"４號","E_COORD97":173489.29000000001,"N_COORD97":2540425.02,"ADDRESS":"仁義五街４號","OBJECTID":275330},"geometry":{"x":173489.29000000097,"y":2540425.0199999996}},{"attributes":{"ID":275336,"DIS_CODE":0,"TOWNNAME":"歸仁區","LI":"西埔里","LIN":"15鄰","STREET":"西埔二街","SECT":" ","MAREA":" ","LANE":"７０巷","ALLEY":" ","HOUSE_NO":"７６號","E_COORD97":176918.39000000001,"N_COORD97":2544901.3700000001,"ADDRESS":"西埔二街７０巷７６號","OBJECTID":275331},"geometry":{"x":176918.38999999873,"y":2544901.3700000029}},{"attributes":{"ID":275337,"DIS_CODE":0,"TOWNNAME":"安平區","LI":"港仔里","LIN":"15鄰","STREET":"運河路","SECT":" ","MAREA":" ","LANE":"２３巷","ALLEY":" ","HOUSE_NO":"２５號","E_COORD97":164097.09,"N_COORD97":2544485.0099999998,"ADDRESS":"運河路２３巷２５號","OBJECTID":275332},"geometry":{"x":164097.09000000078,"y":2544485.0100000035}},{"attributes":{"ID":275338,"DIS_CODE":0,"TOWNNAME":"新營區","LI":"興業里","LIN":"15鄰","STREET":"中興路","SECT":" ","MAREA":" ","LANE":"１５巷","ALLEY":" ","HOUSE_NO":"２３號","E_COORD97":180257.73000000001,"N_COORD97":2577933.6099999999,"ADDRESS":"中興路１５巷２３號","OBJECTID":275333},"geometry":{"x":180257.73000000045,"y":2577933.6100000031}},{"attributes":{"ID":275339,"DIS_CODE":0,"TOWNNAME":"新營區","LI":"嘉芳里","LIN":"15鄰","STREET":"復興路","SECT":" ","MAREA":" ","LANE":"１１１２巷","ALLEY":" ","HOUSE_NO":"１７號","E_COORD97":176052.32999999999,"N_COORD97":2578923.0299999998,"ADDRESS":"復興路１１１２巷１７號","OBJECTID":275334},"geometry":{"x":176052.33000000007,"y":2578923.0299999993}},{"attributes":{"ID":275340,"DIS_CODE":0,"TOWNNAME":"新營區","LI":"嘉芳里","LIN":"15鄰","STREET":"復興路","SECT":" ","MAREA":" ","LANE":"１１１２巷","ALLEY":" ","HOUSE_NO":"１８號","E_COORD97":176067.66,"N_COORD97":2578920.7400000002,"ADDRESS":"復興路１１１２巷１８號","OBJECTID":275335},"geometry":{"x":176067.66000000015,"y":2578920.7400000021}},{"attributes":{"ID":275341,"DIS_CODE":0,"TOWNNAME":"新營區","LI":"嘉芳里","LIN":"15鄰","STREET":"復興路","SECT":" ","MAREA":" ","LANE":"１１１２巷","ALLEY":" ","HOUSE_NO":"１１號","E_COORD97":176050.20999999999,"N_COORD97":2578909.75,"ADDRESS":"復興路１１１２巷１１號","OBJECTID":275336},"geometry":{"x":176050.20999999996,"y":2578909.7500000037}},{"attributes":{"ID":275342,"DIS_CODE":0,"TOWNNAME":"歸仁區","LI":"西埔里","LIN":"15鄰","STREET":"西埔二街","SECT":" ","MAREA":" ","LANE":"１１０巷","ALLEY":" ","HOUSE_NO":"２６０號","E_COORD97":176694.29000000001,"N_COORD97":2545372.25,"ADDRESS":"西埔二街１１０巷２６０號","OBJECTID":275337},"geometry":{"x":176694.29000000097,"y":2545372.2500000019}},{"attributes":{"ID":275343,"DIS_CODE":0,"TOWNNAME":"歸仁區","LI":"西埔里","LIN":"15鄰","STREET":"西埔二街","SECT":" ","MAREA":" ","LANE":"７０巷","ALLEY":" ","HOUSE_NO":"５號","E_COORD97":176872.44,"N_COORD97":2544835.25,"ADDRESS":"西埔二街７０巷５號","OBJECTID":275338},"geometry":{"x":176872.44000000041,"y":2544835.25}},{"attributes":{"ID":275344,"DIS_CODE":0,"TOWNNAME":"歸仁區","LI":"西埔里","LIN":"15鄰","STREET":"西埔二街","SECT":" ","MAREA":" ","LANE":"７０巷","ALLEY":" ","HOUSE_NO":"６０號","E_COORD97":176934.69,"N_COORD97":2544881.3700000001,"ADDRESS":"西埔二街７０巷６０號","OBJECTID":275339},"geometry":{"x":176934.69000000134,"y":2544881.3700000029}},{"attributes":{"ID":275345,"DIS_CODE":0,"TOWNNAME":"歸仁區","LI":"西埔里","LIN":"15鄰","STREET":"西埔二街","SECT":" ","MAREA":" ","LANE":"１５０巷","ALLEY":" ","HOUSE_NO":"１００號","E_COORD97":176347.39000000001,"N_COORD97":2545092.25,"ADDRESS":"西埔二街１５０巷１００號","OBJECTID":275340},"geometry":{"x":176347.3900000006,"y":2545092.25}},{"attributes":{"ID":275346,"DIS_CODE":0,"TOWNNAME":"六甲區","LI":"甲東里","LIN":"15鄰","STREET":"裕農街","SECT":" ","MAREA":" ","LANE":"４１巷","ALLEY":" ","HOUSE_NO":"１５號","E_COORD97":184056.28,"N_COORD97":2569788.1899999999,"ADDRESS":"裕農街４１巷１５號","OBJECTID":275341},"geometry":{"x":184056.28000000026,"y":2569788.1899999995}},{"attributes":{"ID":275347,"DIS_CODE":0,"TOWNNAME":"關廟區","LI":"山西里","LIN":"15鄰","STREET":"忠孝街","SECT":" ","MAREA":" ","LANE":"１３７巷","ALLEY":" ","HOUSE_NO":"６號","E_COORD97":181042.73999999999,"N_COORD97":2540434.25,"ADDRESS":"忠孝街１３７巷６號","OBJECTID":275342},"geometry":{"x":181042.74000000209,"y":2540434.25}},{"attributes":{"ID":275348,"DIS_CODE":0,"TOWNNAME":"關廟區","LI":"松腳里","LIN":"15鄰","STREET":"和平路","SECT":" ","MAREA":" ","LANE":"１４５巷","ALLEY":" ","HOUSE_NO":"８號","E_COORD97":181640.84,"N_COORD97":2539671.25,"ADDRESS":"和平路１４５巷８號","OBJECTID":275343},"geometry":{"x":181640.84000000078,"y":2539671.25}},{"attributes":{"ID":275349,"DIS_CODE":0,"TOWNNAME":"關廟區","LI":"南花里","LIN":"15鄰","STREET":"花園一街","SECT":" ","MAREA":" ","LANE":"２６８巷","ALLEY":" ","HOUSE_NO":"９號","E_COORD97":181547.59,"N_COORD97":2540205.25,"ADDRESS":"花園一街２６８巷９號","OBJECTID":275344},"geometry":{"x":181547.59000000078,"y":2540205.2500000037}},{"attributes":{"ID":275350,"DIS_CODE":0,"TOWNNAME":"關廟區","LI":"東勢里","LIN":"15鄰","STREET":"東興路","SECT":" ","MAREA":" ","LANE":"１７９巷","ALLEY":" ","HOUSE_NO":"３０號","E_COORD97":181630.92000000001,"N_COORD97":2539653.25,"ADDRESS":"東興路１７９巷３０號","OBJECTID":275345},"geometry":{"x":181630.91999999993,"y":2539653.2500000019}},{"attributes":{"ID":275351,"DIS_CODE":0,"TOWNNAME":"關廟區","LI":"北花里","LIN":"15鄰","STREET":"中正路","SECT":" ","MAREA":" ","LANE":"８８巷","ALLEY":" ","HOUSE_NO":"１０號","E_COORD97":183526.95999999999,"N_COORD97":2540980.25,"ADDRESS":"中正路８８巷１０號","OBJECTID":275346},"geometry":{"x":183526.96000000089,"y":2540980.25}},{"attributes":{"ID":275352,"DIS_CODE":0,"TOWNNAME":"關廟區","LI":"東勢里","LIN":"15鄰","STREET":"和平路","SECT":" ","MAREA":" ","LANE":"１４５巷","ALLEY":" ","HOUSE_NO":"３７號","E_COORD97":181598.29000000001,"N_COORD97":2539656.25,"ADDRESS":"和平路１４５巷３７號","OBJECTID":275347},"geometry":{"x":181598.2900000019,"y":2539656.2500000019}},{"attributes":{"ID":275353,"DIS_CODE":0,"TOWNNAME":"關廟區","LI":"五甲里","LIN":"15鄰","STREET":"東興二街","SECT":" ","MAREA":" ","LANE":"７８巷","ALLEY":" ","HOUSE_NO":"２號","E_COORD97":181303.47,"N_COORD97":2539475.25,"ADDRESS":"東興二街７８巷２號","OBJECTID":275348},"geometry":{"x":181303.4700000016,"y":2539475.25}},{"attributes":{"ID":275354,"DIS_CODE":0,"TOWNNAME":"關廟區","LI":"山西里","LIN":"15鄰","STREET":"忠孝街","SECT":" ","MAREA":" ","LANE":"１３７巷","ALLEY":" ","HOUSE_NO":"２號","E_COORD97":181046.94,"N_COORD97":2540432.25,"ADDRESS":"忠孝街１３７巷２號","OBJECTID":275349},"geometry":{"x":181046.94000000134,"y":2540432.2500000037}},{"attributes":{"ID":275355,"DIS_CODE":0,"TOWNNAME":"關廟區","LI":"山西里","LIN":"15鄰","STREET":"忠孝街","SECT":" ","MAREA":" ","LANE":"１５１巷","ALLEY":" ","HOUSE_NO":"１３號","E_COORD97":181032.89000000001,"N_COORD97":2540462.25,"ADDRESS":"忠孝街１５１巷１３號","OBJECTID":275350},"geometry":{"x":181032.8900000006,"y":2540462.25}},{"attributes":{"ID":275356,"DIS_CODE":0,"TOWNNAME":"關廟區","LI":"山西里","LIN":"15鄰","STREET":"忠孝街","SECT":" ","MAREA":" ","LANE":"１５１巷","ALLEY":" ","HOUSE_NO":"１０號","E_COORD97":181048.59,"N_COORD97":2540470.25,"ADDRESS":"忠孝街１５１巷１０號","OBJECTID":275351},"geometry":{"x":181048.59000000171,"y":2540470.2500000019}},{"attributes":{"ID":275357,"DIS_CODE":0,"TOWNNAME":"仁德區","LI":"土庫里","LIN":"18鄰","STREET":"土庫一街","SECT":" ","MAREA":" ","LANE":" ","ALLEY":" ","HOUSE_NO":"４８號","E_COORD97":174569.73000000001,"N_COORD97":2543119.25,"ADDRESS":"土庫一街４８號","OBJECTID":275352},"geometry":{"x":174569.73000000138,"y":2543119.25}},{"attributes":{"ID":275358,"DIS_CODE":0,"TOWNNAME":"安南區","LI":"城西里","LIN":"3鄰","STREET":"城西街","SECT":"三段","MAREA":" ","LANE":"５１０巷","ALLEY":" ","HOUSE_NO":"２８３號","E_COORD97":157376.59,"N_COORD97":2551457.5800000001,"ADDRESS":"城西街三段５１０巷２８３號","OBJECTID":275353},"geometry":{"x":157376.58999999985,"y":2551457.5800000001}},{"attributes":{"ID":275359,"DIS_CODE":0,"TOWNNAME":"關廟區","LI":"山西里","LIN":"15鄰","STREET":"忠孝街","SECT":" ","MAREA":" ","LANE":"１３７巷","ALLEY":" ","HOUSE_NO":"３號","E_COORD97":181040.04000000001,"N_COORD97":2540426.25,"ADDRESS":"忠孝街１３７巷３號","OBJECTID":275354},"geometry":{"x":181040.04000000004,"y":2540426.2500000019}},{"attributes":{"ID":275360,"DIS_CODE":0,"TOWNNAME":"關廟區","LI":"山西里","LIN":"15鄰","STREET":"忠孝街","SECT":" ","MAREA":" ","LANE":"１５１巷","ALLEY":" ","HOUSE_NO":"１９號","E_COORD97":181015.98999999999,"N_COORD97":2540468.25,"ADDRESS":"忠孝街１５１巷１９號","OBJECTID":275355},"geometry":{"x":181015.99000000115,"y":2540468.25}},{"attributes":{"ID":275361,"DIS_CODE":0,"TOWNNAME":"關廟區","LI":"山西里","LIN":"15鄰","STREET":"忠孝街","SECT":" ","MAREA":" ","LANE":"１５１巷","ALLEY":" ","HOUSE_NO":"３２號","E_COORD97":181015.59,"N_COORD97":2540487.25,"ADDRESS":"忠孝街１５１巷３２號","OBJECTID":275356},"geometry":{"x":181015.58999999985,"y":2540487.2500000019}},{"attributes":{"ID":275362,"DIS_CODE":0,"TOWNNAME":"關廟區","LI":"山西里","LIN":"15鄰","STREET":"忠孝街","SECT":" ","MAREA":" ","LANE":"１５１巷","ALLEY":" ","HOUSE_NO":"７號","E_COORD97":181044.34,"N_COORD97":2540459.25,"ADDRESS":"忠孝街１５１巷７號","OBJECTID":275357},"geometry":{"x":181044.33999999985,"y":2540459.2500000037}},{"attributes":{"ID":275363,"DIS_CODE":0,"TOWNNAME":"關廟區","LI":"山西里","LIN":"15鄰","STREET":"忠孝街","SECT":" ","MAREA":" ","LANE":"１５１巷","ALLEY":" ","HOUSE_NO":"５號","E_COORD97":181048.54000000001,"N_COORD97":2540457.25,"ADDRESS":"忠孝街１５１巷５號","OBJECTID":275358},"geometry":{"x":181048.54000000004,"y":2540457.2500000019}},{"attributes":{"ID":275364,"DIS_CODE":0,"TOWNNAME":"關廟區","LI":"山西里","LIN":"15鄰","STREET":"忠孝街","SECT":" ","MAREA":" ","LANE":"１３７巷","ALLEY":" ","HOUSE_NO":"８號","E_COORD97":181037.73999999999,"N_COORD97":2540437.25,"ADDRESS":"忠孝街１３７巷８號","OBJECTID":275359},"geometry":{"x":181037.74000000209,"y":2540437.25}},{"attributes":{"ID":275365,"DIS_CODE":0,"TOWNNAME":"關廟區","LI":"山西里","LIN":"15鄰","STREET":"忠孝街","SECT":" ","MAREA":" ","LANE":"１５１巷","ALLEY":" ","HOUSE_NO":"２１號","E_COORD97":181010.59,"N_COORD97":2540470.25,"ADDRESS":"忠孝街１５１巷２１號","OBJECTID":275360},"geometry":{"x":181010.58999999985,"y":2540470.2500000019}},{"attributes":{"ID":275366,"DIS_CODE":0,"TOWNNAME":"關廟區","LI":"山西里","LIN":"15鄰","STREET":"忠孝街","SECT":" ","MAREA":" ","LANE":"１５１巷","ALLEY":" ","HOUSE_NO":"１７號","E_COORD97":181021.39000000001,"N_COORD97":2540466.25,"ADDRESS":"忠孝街１５１巷１７號","OBJECTID":275361},"geometry":{"x":181021.3900000006,"y":2540466.2500000037}},{"attributes":{"ID":275367,"DIS_CODE":0,"TOWNNAME":"關廟區","LI":"山西里","LIN":"15鄰","STREET":"忠孝街","SECT":" ","MAREA":" ","LANE":"１５１巷","ALLEY":" ","HOUSE_NO":"９號","E_COORD97":181040.04000000001,"N_COORD97":2540459.25,"ADDRESS":"忠孝街１５１巷９號","OBJECTID":275362},"geometry":{"x":181040.04000000004,"y":2540459.2500000037}},{"attributes":{"ID":275368,"DIS_CODE":0,"TOWNNAME":"關廟區","LI":"東勢里","LIN":"15鄰","STREET":"東興路","SECT":" ","MAREA":" ","LANE":"１４５巷","ALLEY":" ","HOUSE_NO":"２７號","E_COORD97":181592.22,"N_COORD97":2539631.25,"ADDRESS":"東興路１４５巷２７號","OBJECTID":275363},"geometry":{"x":181592.22000000067,"y":2539631.25}},{"attributes":{"ID":275369,"DIS_CODE":0,"TOWNNAME":"安平區","LI":"海頭里","LIN":"15鄰","STREET":"安北路","SECT":" ","MAREA":" ","LANE":"１４６巷","ALLEY":" ","HOUSE_NO":"１號之４","E_COORD97":164059.82999999999,"N_COORD97":2544893.1499999999,"ADDRESS":"安北路１４６巷１號之４","OBJECTID":275364},"geometry":{"x":164059.83000000101,"y":2544893.1500000022}},{"attributes":{"ID":275370,"DIS_CODE":0,"TOWNNAME":"北區","LI":"長榮里","LIN":"15鄰","STREET":"開元路","SECT":" ","MAREA":" ","LANE":"２４９巷","ALLEY":" ","HOUSE_NO":"６８號","E_COORD97":169826.51000000001,"N_COORD97":2545570.0800000001,"ADDRESS":"開元路２４９巷６８號","OBJECTID":275365},"geometry":{"x":169826.50999999978,"y":2545570.0800000019}},{"attributes":{"ID":275371,"DIS_CODE":0,"TOWNNAME":"新營區","LI":"嘉芳里","LIN":"15鄰","STREET":"復興路","SECT":" ","MAREA":" ","LANE":"１０００巷","ALLEY":" ","HOUSE_NO":"１之８號","E_COORD97":176320.48999999999,"N_COORD97":2578912.8900000001,"ADDRESS":"復興路１０００巷１之８號","OBJECTID":275366},"geometry":{"x":176320.49000000115,"y":2578912.8900000043}},{"attributes":{"ID":275372,"DIS_CODE":0,"TOWNNAME":"新營區","LI":"嘉芳里","LIN":"15鄰","STREET":"復興路","SECT":" ","MAREA":" ","LANE":"１０００巷","ALLEY":" ","HOUSE_NO":"１號","E_COORD97":176310.66,"N_COORD97":2578878.5499999998,"ADDRESS":"復興路１０００巷１號","OBJECTID":275367},"geometry":{"x":176310.66000000108,"y":2578878.5500000026}},{"attributes":{"ID":275373,"DIS_CODE":0,"TOWNNAME":"新營區","LI":"嘉芳里","LIN":"15鄰","STREET":"復興路","SECT":" ","MAREA":" ","LANE":"１１１２巷","ALLEY":" ","HOUSE_NO":"９號","E_COORD97":176048.92000000001,"N_COORD97":2578905.3199999998,"ADDRESS":"復興路１１１２巷９號","OBJECTID":275368},"geometry":{"x":176048.92000000179,"y":2578905.3200000003}},{"attributes":{"ID":275374,"DIS_CODE":0,"TOWNNAME":"新營區","LI":"嘉芳里","LIN":"15鄰","STREET":"復興路","SECT":" ","MAREA":" ","LANE":"１１１２巷","ALLEY":" ","HOUSE_NO":"７號","E_COORD97":176048.94,"N_COORD97":2578899.7799999998,"ADDRESS":"復興路１１１２巷７號","OBJECTID":275369},"geometry":{"x":176048.94000000041,"y":2578899.7800000012}},{"attributes":{"ID":275375,"DIS_CODE":0,"TOWNNAME":"新營區","LI":"嘉芳里","LIN":"15鄰","STREET":"復興路","SECT":" ","MAREA":" ","LANE":"１１２８巷","ALLEY":" ","HOUSE_NO":"２號","E_COORD97":176021.32999999999,"N_COORD97":2578893.2799999998,"ADDRESS":"復興路１１２８巷２號","OBJECTID":275370},"geometry":{"x":176021.33000000101,"y":2578893.2800000012}},{"attributes":{"ID":275376,"DIS_CODE":0,"TOWNNAME":"新營區","LI":"嘉芳里","LIN":"15鄰","STREET":"復興路","SECT":" ","MAREA":" ","LANE":"１０７０巷","ALLEY":" ","HOUSE_NO":"８號","E_COORD97":176157.31,"N_COORD97":2578880.4199999999,"ADDRESS":"復興路１０７０巷８號","OBJECTID":275371},"geometry":{"x":176157.30999999959,"y":2578880.4199999999}},{"attributes":{"ID":275377,"DIS_CODE":0,"TOWNNAME":"安南區","LI":"公親里","LIN":"3鄰","STREET":"公學路","SECT":"一段","MAREA":" ","LANE":" ","ALLEY":" ","HOUSE_NO":"２２８號","E_COORD97":167987.41,"N_COORD97":2553118.8100000001,"ADDRESS":"公學路一段２２８號","OBJECTID":275372},"geometry":{"x":167987.41000000108,"y":2553118.8099999987}},{"attributes":{"ID":275378,"DIS_CODE":0,"TOWNNAME":"安南區","LI":"佃東里","LIN":"3鄰","STREET":"公學路","SECT":"四段","MAREA":" ","LANE":" ","ALLEY":" ","HOUSE_NO":"７８號","E_COORD97":165703.87,"N_COORD97":2552017.0800000001,"ADDRESS":"公學路四段７８號","OBJECTID":275373},"geometry":{"x":165703.87000000104,"y":2552017.0800000001}},{"attributes":{"ID":275379,"DIS_CODE":0,"TOWNNAME":"仁德區","LI":"大甲里","LIN":"18鄰","STREET":"行大一街","SECT":" ","MAREA":" ","LANE":" ","ALLEY":" ","HOUSE_NO":"４９６號","E_COORD97":169321.42000000001,"N_COORD97":2535247.25,"ADDRESS":"行大一街４９６號","OBJECTID":275374},"geometry":{"x":169321.42000000086,"y":2535247.25}},{"attributes":{"ID":275380,"DIS_CODE":0,"TOWNNAME":"仁德區","LI":"仁義里","LIN":"53鄰","STREET":"仁義三街","SECT":" ","MAREA":" ","LANE":" ","ALLEY":" ","HOUSE_NO":"８２號","E_COORD97":173491.54000000001,"N_COORD97":2541122.77,"ADDRESS":"仁義三街８２號","OBJECTID":275375},"geometry":{"x":173491.54000000004,"y":2541122.7699999996}},{"attributes":{"ID":275381,"DIS_CODE":0,"TOWNNAME":"仁德區","LI":"仁義里","LIN":"5鄰","STREET":"仁義二街","SECT":" ","MAREA":" ","LANE":" ","ALLEY":" ","HOUSE_NO":"７９號","E_COORD97":173926.04999999999,"N_COORD97":2541213.0099999998,"ADDRESS":"仁義二街７９號","OBJECTID":275376},"geometry":{"x":173926.05000000075,"y":2541213.0099999998}},{"attributes":{"ID":275382,"DIS_CODE":0,"TOWNNAME":"仁德區","LI":"仁義里","LIN":"38鄰","STREET":"仁義五街","SECT":" ","MAREA":" ","LANE":" ","ALLEY":" ","HOUSE_NO":"６號","E_COORD97":173495.09,"N_COORD97":2540425.52,"ADDRESS":"仁義五街６號","OBJECTID":275377},"geometry":{"x":173495.09000000078,"y":2540425.5199999996}},{"attributes":{"ID":275383,"DIS_CODE":0,"TOWNNAME":"仁德區","LI":"仁義里","LIN":"25鄰","STREET":"中山路","SECT":" ","MAREA":" ","LANE":" ","ALLEY":" ","HOUSE_NO":"４５２號","E_COORD97":173625.79999999999,"N_COORD97":2541305.4900000002,"ADDRESS":"中山路４５２號","OBJECTID":275378},"geometry":{"x":173625.80000000075,"y":2541305.4900000039}},{"attributes":{"ID":275384,"DIS_CODE":0,"TOWNNAME":"仁德區","LI":"仁義里","LIN":"53鄰","STREET":"仁義三街","SECT":" ","MAREA":" ","LANE":" ","ALLEY":" ","HOUSE_NO":"６７號","E_COORD97":173465.19,"N_COORD97":2541136.27,"ADDRESS":"仁義三街６７號","OBJECTID":275379},"geometry":{"x":173465.19000000041,"y":2541136.2699999996}},{"attributes":{"ID":275385,"DIS_CODE":0,"TOWNNAME":"仁德區","LI":"仁義里","LIN":"26鄰","STREET":"中清四街","SECT":" ","MAREA":" ","LANE":" ","ALLEY":" ","HOUSE_NO":"１號","E_COORD97":173422.63,"N_COORD97":2541350.7999999998,"ADDRESS":"中清四街１號","OBJECTID":275380},"geometry":{"x":173422.62999999989,"y":2541350.8000000007}},{"attributes":{"ID":275386,"DIS_CODE":0,"TOWNNAME":"仁德區","LI":"仁義里","LIN":"25鄰","STREET":"中清一街","SECT":" ","MAREA":" ","LANE":" ","ALLEY":" ","HOUSE_NO":"１７號","E_COORD97":173616.94,"N_COORD97":2541338.0499999998,"ADDRESS":"中清一街１７號","OBJECTID":275381},"geometry":{"x":173616.94000000134,"y":2541338.0500000007}},{"attributes":{"ID":275387,"DIS_CODE":0,"TOWNNAME":"仁德區","LI":"仁義里","LIN":"4鄰","STREET":"仁義四街","SECT":" ","MAREA":" ","LANE":" ","ALLEY":" ","HOUSE_NO":"５３號","E_COORD97":173826.64999999999,"N_COORD97":2541061.27,"ADDRESS":"仁義四街５３號","OBJECTID":275382},"geometry":{"x":173826.65000000037,"y":2541061.2699999996}},{"attributes":{"ID":275388,"DIS_CODE":0,"TOWNNAME":"仁德區","LI":"仁義里","LIN":"4鄰","STREET":"仁義二街","SECT":" ","MAREA":" ","LANE":" ","ALLEY":" ","HOUSE_NO":"５８號","E_COORD97":173851.32999999999,"N_COORD97":2541180.2599999998,"ADDRESS":"仁義二街５８號","OBJECTID":275383},"geometry":{"x":173851.33000000101,"y":2541180.2599999998}},{"attributes":{"ID":275389,"DIS_CODE":0,"TOWNNAME":"仁德區","LI":"大甲里","LIN":"18鄰","STREET":"行大一街","SECT":" ","MAREA":" ","LANE":" ","ALLEY":" ","HOUSE_NO":"４６９號","E_COORD97":169275.85000000001,"N_COORD97":2535248.5,"ADDRESS":"行大一街４６９號","OBJECTID":275384},"geometry":{"x":169275.85000000056,"y":2535248.5}},{"attributes":{"ID":275390,"DIS_CODE":0,"TOWNNAME":"仁德區","LI":"仁義里","LIN":"26鄰","STREET":"中清五街","SECT":" ","MAREA":" ","LANE":" ","ALLEY":" ","HOUSE_NO":"５號","E_COORD97":173389.39999999999,"N_COORD97":2541410.54,"ADDRESS":"中清五街５號","OBJECTID":275385},"geometry":{"x":173389.40000000037,"y":2541410.540000001}},{"attributes":{"ID":275391,"DIS_CODE":0,"TOWNNAME":"仁德區","LI":"仁義里","LIN":"25鄰","STREET":"正義一街","SECT":" ","MAREA":" ","LANE":" ","ALLEY":" ","HOUSE_NO":"７８號","E_COORD97":173528.25,"N_COORD97":2541367.02,"ADDRESS":"正義一街７８號","OBJECTID":275386},"geometry":{"x":173528.25000000093,"y":2541367.0200000014}},{"attributes":{"ID":275392,"DIS_CODE":0,"TOWNNAME":"新營區","LI":"埤寮里","LIN":"2鄰","STREET":" ","SECT":" ","MAREA":"許丑","LANE":" ","ALLEY":" ","HOUSE_NO":"１９號之５","E_COORD97":179963.21901,"N_COORD97":2580994.5518299998,"ADDRESS":"許丑１９號之５","OBJECTID":275387},"geometry":{"x":179963.21901000105,"y":2580994.551830003}},{"attributes":{"ID":275393,"DIS_CODE":0,"TOWNNAME":"新市區","LI":"社內里","LIN":"3鄰","STREET":" ","SECT":" ","MAREA":"社內","LANE":" ","ALLEY":" ","HOUSE_NO":"３７之２００號","E_COORD97":176652,"N_COORD97":2552325.5499999998,"ADDRESS":"社內３７之２００號","OBJECTID":275388},"geometry":{"x":176652.00000000186,"y":2552325.5500000026}},{"attributes":{"ID":275394,"DIS_CODE":0,"TOWNNAME":"新市區","LI":"豐華里","LIN":"3鄰","STREET":" ","SECT":" ","MAREA":"豐華","LANE":" ","ALLEY":" ","HOUSE_NO":"１５之１０號","E_COORD97":173983.34,"N_COORD97":2554183.5499999998,"ADDRESS":"豐華１５之１０號","OBJECTID":275389},"geometry":{"x":173983.34000000078,"y":2554183.5500000026}},{"attributes":{"ID":275395,"DIS_CODE":0,"TOWNNAME":"新營區","LI":"嘉芳里","LIN":"15鄰","STREET":"復興路","SECT":" ","MAREA":" ","LANE":"１０７０巷","ALLEY":" ","HOUSE_NO":"３６號","E_COORD97":176164.03,"N_COORD97":2578947.9500000002,"ADDRESS":"復興路１０７０巷３６號","OBJECTID":275390},"geometry":{"x":176164.03000000119,"y":2578947.9499999974}},{"attributes":{"ID":275396,"DIS_CODE":0,"TOWNNAME":"新營區","LI":"嘉芳里","LIN":"15鄰","STREET":"復興路","SECT":" ","MAREA":" ","LANE":"１１１２巷","ALLEY":" ","HOUSE_NO":"３號","E_COORD97":176046.92000000001,"N_COORD97":2578892.04,"ADDRESS":"復興路１１１２巷３號","OBJECTID":275391},"geometry":{"x":176046.91999999993,"y":2578892.0399999991}},{"attributes":{"ID":275397,"DIS_CODE":0,"TOWNNAME":"新營區","LI":"嘉芳里","LIN":"15鄰","STREET":"復興路","SECT":" ","MAREA":" ","LANE":"１０７０巷","ALLEY":" ","HOUSE_NO":"４號","E_COORD97":176156.25,"N_COORD97":2578870.46,"ADDRESS":"復興路１０７０巷４號","OBJECTID":275392},"geometry":{"x":176156.25,"y":2578870.4600000009}},{"attributes":{"ID":275398,"DIS_CODE":0,"TOWNNAME":"新營區","LI":"嘉芳里","LIN":"15鄰","STREET":"復興路","SECT":" ","MAREA":" ","LANE":"１０００巷","ALLEY":" ","HOUSE_NO":"１之５號","E_COORD97":176318.39000000001,"N_COORD97":2578900.7200000002,"ADDRESS":"復興路１０００巷１之５號","OBJECTID":275393},"geometry":{"x":176318.39000000153,"y":2578900.7200000025}},{"attributes":{"ID":275399,"DIS_CODE":0,"TOWNNAME":"新營區","LI":"嘉芳里","LIN":"15鄰","STREET":"復興路","SECT":" ","MAREA":" ","LANE":"１１２８巷","ALLEY":" ","HOUSE_NO":"１４號","E_COORD97":176028.89000000001,"N_COORD97":2578940.8700000001,"ADDRESS":"復興路１１２８巷１４號","OBJECTID":275394},"geometry":{"x":176028.8900000006,"y":2578940.8700000029}},{"attributes":{"ID":275400,"DIS_CODE":0,"TOWNNAME":"新營區","LI":"嘉芳里","LIN":"15鄰","STREET":"復興路","SECT":" ","MAREA":" ","LANE":"１０７０巷","ALLEY":" ","HOUSE_NO":"２８號","E_COORD97":176161.87,"N_COORD97":2578929.1299999999,"ADDRESS":"復興路１０７０巷２８號","OBJECTID":275395},"geometry":{"x":176161.87000000104,"y":2578929.129999999}},{"attributes":{"ID":275401,"DIS_CODE":0,"TOWNNAME":"新營區","LI":"嘉芳里","LIN":"15鄰","STREET":"復興路","SECT":" ","MAREA":" ","LANE":"１１２８巷","ALLEY":" ","HOUSE_NO":"５號","E_COORD97":176022.37,"N_COORD97":2578905.4500000002,"ADDRESS":"復興路１１２８巷５號","OBJECTID":275396},"geometry":{"x":176022.37000000197,"y":2578905.4500000011}},{"attributes":{"ID":275402,"DIS_CODE":0,"TOWNNAME":"新營區","LI":"民榮里","LIN":"15鄰","STREET":"復興路","SECT":" ","MAREA":" ","LANE":"２２５巷","ALLEY":" ","HOUSE_NO":"１號","E_COORD97":178868.84,"N_COORD97":2578039.8799999999,"ADDRESS":"復興路２２５巷１號","OBJECTID":275397},"geometry":{"x":178868.84000000078,"y":2578039.8800000027}},{"attributes":{"ID":275403,"DIS_CODE":0,"TOWNNAME":"新營區","LI":"嘉芳里","LIN":"15鄰","STREET":"復興路","SECT":" ","MAREA":" ","LANE":"１０７０巷","ALLEY":" ","HOUSE_NO":"２６號","E_COORD97":176160.82000000001,"N_COORD97":2578923.5899999999,"ADDRESS":"復興路１０７０巷２６號","OBJECTID":275398},"geometry":{"x":176160.82000000123,"y":2578923.5899999999}},{"attributes":{"ID":275404,"DIS_CODE":0,"TOWNNAME":"新營區","LI":"嘉芳里","LIN":"15鄰","STREET":"復興路","SECT":" ","MAREA":" ","LANE":"１１２８巷","ALLEY":" ","HOUSE_NO":"１號","E_COORD97":176020.23000000001,"N_COORD97":2578889.96,"ADDRESS":"復興路１１２８巷１號","OBJECTID":275399},"geometry":{"x":176020.23000000231,"y":2578889.9600000028}},{"attributes":{"ID":275405,"DIS_CODE":0,"TOWNNAME":"新營區","LI":"嘉芳里","LIN":"15鄰","STREET":"復興路","SECT":" ","MAREA":" ","LANE":"１１２８巷","ALLEY":" ","HOUSE_NO":"１２號","E_COORD97":176027.82999999999,"N_COORD97":2578934.23,"ADDRESS":"復興路１１２８巷１２號","OBJECTID":275400},"geometry":{"x":176027.83000000101,"y":2578934.2300000023}}]}