{"displayFieldName":"TOWNNAME","fieldAliases":{"ID":"ID","DIS_CODE":"DIS_CODE","TOWNNAME":"TOWNNAME","LI":"LI","LIN":"LIN","STREET":"STREET","SECT":"SECT","MAREA":"MAREA","LANE":"LANE","ALLEY":"ALLEY","HOUSE_NO":"HOUSE_NO","E_COORD97":"E_COORD97","N_COORD97":"N_COORD97","ADDRESS":"ADDRESS","OBJECTID":"OBJECTID"},"geometryType":"esriGeometryPoint","spatialReference":{"wkid":102443,"latestWkid":3826},"fields":[{"name":"ID","type":"esriFieldTypeDouble","alias":"ID"},{"name":"DIS_CODE","type":"esriFieldTypeInteger","alias":"DIS_CODE"},{"name":"TOWNNAME","type":"esriFieldTypeString","alias":"TOWNNAME","length":8},{"name":"LI","type":"esriFieldTypeString","alias":"LI","length":8},{"name":"LIN","type":"esriFieldTypeString","alias":"LIN","length":12},{"name":"STREET","type":"esriFieldTypeString","alias":"STREET","length":20},{"name":"SECT","type":"esriFieldTypeString","alias":"SECT","length":8},{"name":"MAREA","type":"esriFieldTypeString","alias":"MAREA","length":12},{"name":"LANE","type":"esriFieldTypeString","alias":"LANE","length":10},{"name":"ALLEY","type":"esriFieldTypeString","alias":"ALLEY","length":10},{"name":"HOUSE_NO","type":"esriFieldTypeString","alias":"HOUSE_NO","length":20},{"name":"E_COORD97","type":"esriFieldTypeDouble","alias":"E_COORD97"},{"name":"N_COORD97","type":"esriFieldTypeDouble","alias":"N_COORD97"},{"name":"ADDRESS","type":"esriFieldTypeString","alias":"ADDRESS","length":50},{"name":"OBJECTID","type":"esriFieldTypeOID","alias":"OBJECTID"}],"features":[{"attributes":{"ID":645628,"DIS_CODE":0,"TOWNNAME":"善化區","LI":"小新里","LIN":"11鄰","STREET":"蓮潭北二街","SECT":" ","MAREA":" ","LANE":" ","ALLEY":" ","HOUSE_NO":"１９８號","E_COORD97":178755.93864099999,"N_COORD97":2557398.68946,"ADDRESS":"蓮潭北二街１９８號","OBJECTID":645601},"geometry":{"x":178755.93864100054,"y":2557398.6894630026}},{"attributes":{"ID":645629,"DIS_CODE":0,"TOWNNAME":"仁德區","LI":"一甲里","LIN":"14鄰","STREET":"忠義路","SECT":" ","MAREA":" ","LANE":"１９９巷","ALLEY":"２９弄","HOUSE_NO":"１０號","E_COORD97":174050.96898999999,"N_COORD97":2541735.1079899999,"ADDRESS":"忠義路１９９巷２９弄１０號","OBJECTID":645602},"geometry":{"x":174050.9689900009,"y":2541735.1079859994}},{"attributes":{"ID":645630,"DIS_CODE":0,"TOWNNAME":"仁德區","LI":"一甲里","LIN":"14鄰","STREET":"忠義路","SECT":" ","MAREA":" ","LANE":"１９９巷","ALLEY":"２９弄","HOUSE_NO":"１２號","E_COORD97":174056.69051099999,"N_COORD97":2541737.0129800001,"ADDRESS":"忠義路１９９巷２９弄１２號","OBJECTID":645603},"geometry":{"x":174056.69051100127,"y":2541737.0129850004}},{"attributes":{"ID":645631,"DIS_CODE":0,"TOWNNAME":"仁德區","LI":"仁和里","LIN":"3鄰","STREET":"和愛街","SECT":" ","MAREA":" ","LANE":" ","ALLEY":" ","HOUSE_NO":"５號四樓之１","E_COORD97":170386.64999999999,"N_COORD97":2540155.8599999999,"ADDRESS":"和愛街５號四樓之１","OBJECTID":645604},"geometry":{"x":170386.6500000013,"y":2540155.8599999994}},{"attributes":{"ID":645632,"DIS_CODE":0,"TOWNNAME":"仁德區","LI":"仁和里","LIN":"3鄰","STREET":"和愛街","SECT":" ","MAREA":" ","LANE":" ","ALLEY":" ","HOUSE_NO":"５號四樓之２","E_COORD97":170386.64999999999,"N_COORD97":2540155.8599999999,"ADDRESS":"和愛街５號四樓之２","OBJECTID":645605},"geometry":{"x":170386.6500000013,"y":2540155.8599999994}},{"attributes":{"ID":645633,"DIS_CODE":0,"TOWNNAME":"仁德區","LI":"一甲里","LIN":"14鄰","STREET":"忠義路","SECT":" ","MAREA":" ","LANE":"１９９巷","ALLEY":"２９弄","HOUSE_NO":"１６號","E_COORD97":174062.20012299999,"N_COORD97":2541739.5529800002,"ADDRESS":"忠義路１９９巷２９弄１６號","OBJECTID":645606},"geometry":{"x":174062.20012300182,"y":2541739.5529830046}},{"attributes":{"ID":645634,"DIS_CODE":0,"TOWNNAME":"仁德區","LI":"仁和里","LIN":"3鄰","STREET":"和愛街","SECT":" ","MAREA":" ","LANE":" ","ALLEY":" ","HOUSE_NO":"５號四樓之３","E_COORD97":170386.64999999999,"N_COORD97":2540155.8599999999,"ADDRESS":"和愛街５號四樓之３","OBJECTID":645607},"geometry":{"x":170386.6500000013,"y":2540155.8599999994}},{"attributes":{"ID":645635,"DIS_CODE":0,"TOWNNAME":"仁德區","LI":"仁和里","LIN":"3鄰","STREET":"和愛街","SECT":" ","MAREA":" ","LANE":" ","ALLEY":" ","HOUSE_NO":"５號四樓之５","E_COORD97":170386.64999999999,"N_COORD97":2540155.8599999999,"ADDRESS":"和愛街５號四樓之５","OBJECTID":645608},"geometry":{"x":170386.6500000013,"y":2540155.8599999994}},{"attributes":{"ID":645636,"DIS_CODE":0,"TOWNNAME":"學甲區","LI":"明宜里","LIN":"23鄰","STREET":"重信路","SECT":" ","MAREA":" ","LANE":" ","ALLEY":" ","HOUSE_NO":"３２號之１","E_COORD97":165887.04123599999,"N_COORD97":2570641.2876200001,"ADDRESS":"重信路３２號之１","OBJECTID":645609},"geometry":{"x":165887.04123600014,"y":2570641.2876159996}},{"attributes":{"ID":645637,"DIS_CODE":0,"TOWNNAME":"仁德區","LI":"仁和里","LIN":"3鄰","STREET":"和愛街","SECT":" ","MAREA":" ","LANE":" ","ALLEY":" ","HOUSE_NO":"５號五樓之１","E_COORD97":170386.64999999999,"N_COORD97":2540155.8599999999,"ADDRESS":"和愛街５號五樓之１","OBJECTID":645610},"geometry":{"x":170386.6500000013,"y":2540155.8599999994}},{"attributes":{"ID":645638,"DIS_CODE":0,"TOWNNAME":"仁德區","LI":"仁和里","LIN":"3鄰","STREET":"和愛街","SECT":" ","MAREA":" ","LANE":" ","ALLEY":" ","HOUSE_NO":"５號五樓之２","E_COORD97":170386.64999999999,"N_COORD97":2540155.8599999999,"ADDRESS":"和愛街５號五樓之２","OBJECTID":645611},"geometry":{"x":170386.6500000013,"y":2540155.8599999994}},{"attributes":{"ID":645639,"DIS_CODE":0,"TOWNNAME":"仁德區","LI":"仁和里","LIN":"3鄰","STREET":"和愛街","SECT":" ","MAREA":" ","LANE":" ","ALLEY":" ","HOUSE_NO":"５號五樓之３","E_COORD97":170386.64999999999,"N_COORD97":2540155.8599999999,"ADDRESS":"和愛街５號五樓之３","OBJECTID":645612},"geometry":{"x":170386.6500000013,"y":2540155.8599999994}},{"attributes":{"ID":645640,"DIS_CODE":0,"TOWNNAME":"學甲區","LI":"明宜里","LIN":"23鄰","STREET":"重信路","SECT":" ","MAREA":" ","LANE":" ","ALLEY":" ","HOUSE_NO":"３２號之２","E_COORD97":165881.535336,"N_COORD97":2570642.7692800001,"ADDRESS":"重信路３２號之２","OBJECTID":645613},"geometry":{"x":165881.53533599991,"y":2570642.7692820001}},{"attributes":{"ID":645641,"DIS_CODE":0,"TOWNNAME":"仁德區","LI":"仁和里","LIN":"3鄰","STREET":"和愛街","SECT":" ","MAREA":" ","LANE":" ","ALLEY":" ","HOUSE_NO":"５號五樓之５","E_COORD97":170386.64999999999,"N_COORD97":2540155.8599999999,"ADDRESS":"和愛街５號五樓之５","OBJECTID":645614},"geometry":{"x":170386.6500000013,"y":2540155.8599999994}},{"attributes":{"ID":645642,"DIS_CODE":0,"TOWNNAME":"仁德區","LI":"一甲里","LIN":"14鄰","STREET":"忠義路","SECT":" ","MAREA":" ","LANE":"１９９巷","ALLEY":"２９弄","HOUSE_NO":"１８號","E_COORD97":174066.86210299999,"N_COORD97":2541741.4579799999,"ADDRESS":"忠義路１９９巷２９弄１８號","OBJECTID":645615},"geometry":{"x":174066.86210300215,"y":2541741.457982}},{"attributes":{"ID":645643,"DIS_CODE":0,"TOWNNAME":"仁德區","LI":"仁和里","LIN":"3鄰","STREET":"和愛街","SECT":" ","MAREA":" ","LANE":" ","ALLEY":" ","HOUSE_NO":"５號六樓之１","E_COORD97":170386.64999999999,"N_COORD97":2540155.8599999999,"ADDRESS":"和愛街５號六樓之１","OBJECTID":645616},"geometry":{"x":170386.6500000013,"y":2540155.8599999994}},{"attributes":{"ID":645644,"DIS_CODE":0,"TOWNNAME":"仁德區","LI":"一甲里","LIN":"14鄰","STREET":"忠義路","SECT":" ","MAREA":" ","LANE":"１９９巷","ALLEY":"２９弄","HOUSE_NO":"２０號","E_COORD97":174071.10026599999,"N_COORD97":2541742.9396500001,"ADDRESS":"忠義路１９９巷２９弄２０號","OBJECTID":645617},"geometry":{"x":174071.10026600212,"y":2541742.9396480005}},{"attributes":{"ID":645645,"DIS_CODE":0,"TOWNNAME":"仁德區","LI":"仁和里","LIN":"3鄰","STREET":"和愛街","SECT":" ","MAREA":" ","LANE":" ","ALLEY":" ","HOUSE_NO":"５號六樓之２","E_COORD97":170386.64999999999,"N_COORD97":2540155.8599999999,"ADDRESS":"和愛街５號六樓之２","OBJECTID":645618},"geometry":{"x":170386.6500000013,"y":2540155.8599999994}},{"attributes":{"ID":645646,"DIS_CODE":0,"TOWNNAME":"仁德區","LI":"仁和里","LIN":"3鄰","STREET":"和愛街","SECT":" ","MAREA":" ","LANE":" ","ALLEY":" ","HOUSE_NO":"５號六樓之３","E_COORD97":170386.64999999999,"N_COORD97":2540155.8599999999,"ADDRESS":"和愛街５號六樓之３","OBJECTID":645619},"geometry":{"x":170386.6500000013,"y":2540155.8599999994}},{"attributes":{"ID":645647,"DIS_CODE":0,"TOWNNAME":"仁德區","LI":"一甲里","LIN":"14鄰","STREET":"忠義路","SECT":" ","MAREA":" ","LANE":"１９９巷","ALLEY":"２９弄","HOUSE_NO":"２２號","E_COORD97":174075.550338,"N_COORD97":2541744.8446499999,"ADDRESS":"忠義路１９９巷２９弄２２號","OBJECTID":645620},"geometry":{"x":174075.55033800006,"y":2541744.8446469996}},{"attributes":{"ID":645648,"DIS_CODE":0,"TOWNNAME":"仁德區","LI":"仁和里","LIN":"3鄰","STREET":"和愛街","SECT":" ","MAREA":" ","LANE":" ","ALLEY":" ","HOUSE_NO":"５號六樓之５","E_COORD97":170386.64999999999,"N_COORD97":2540155.8599999999,"ADDRESS":"和愛街５號六樓之５","OBJECTID":645621},"geometry":{"x":170386.6500000013,"y":2540155.8599999994}},{"attributes":{"ID":645649,"DIS_CODE":0,"TOWNNAME":"仁德區","LI":"仁和里","LIN":"3鄰","STREET":"和愛街","SECT":" ","MAREA":" ","LANE":" ","ALLEY":" ","HOUSE_NO":"５號七樓之１","E_COORD97":170386.64999999999,"N_COORD97":2540155.8599999999,"ADDRESS":"和愛街５號七樓之１","OBJECTID":645622},"geometry":{"x":170386.6500000013,"y":2540155.8599999994}},{"attributes":{"ID":645650,"DIS_CODE":0,"TOWNNAME":"仁德區","LI":"一甲里","LIN":"14鄰","STREET":"忠義路","SECT":" ","MAREA":" ","LANE":"１９９巷","ALLEY":"２９弄","HOUSE_NO":"２６號","E_COORD97":174080.848042,"N_COORD97":2541747.5963099999,"ADDRESS":"忠義路１９９巷２９弄２６號","OBJECTID":645623},"geometry":{"x":174080.84804200102,"y":2541747.5963120013}},{"attributes":{"ID":645651,"DIS_CODE":0,"TOWNNAME":"仁德區","LI":"仁和里","LIN":"3鄰","STREET":"和愛街","SECT":" ","MAREA":" ","LANE":" ","ALLEY":" ","HOUSE_NO":"５號七樓之２","E_COORD97":170386.64999999999,"N_COORD97":2540155.8599999999,"ADDRESS":"和愛街５號七樓之２","OBJECTID":645624},"geometry":{"x":170386.6500000013,"y":2540155.8599999994}},{"attributes":{"ID":645652,"DIS_CODE":0,"TOWNNAME":"仁德區","LI":"仁和里","LIN":"3鄰","STREET":"和愛街","SECT":" ","MAREA":" ","LANE":" ","ALLEY":" ","HOUSE_NO":"５號七樓之３","E_COORD97":170386.64999999999,"N_COORD97":2540155.8599999999,"ADDRESS":"和愛街５號七樓之３","OBJECTID":645625},"geometry":{"x":170386.6500000013,"y":2540155.8599999994}},{"attributes":{"ID":645653,"DIS_CODE":0,"TOWNNAME":"仁德區","LI":"一甲里","LIN":"14鄰","STREET":"忠義路","SECT":" ","MAREA":" ","LANE":"１９９巷","ALLEY":"２９弄","HOUSE_NO":"２８號","E_COORD97":174085.086205,"N_COORD97":2541749.9246399999,"ADDRESS":"忠義路１９９巷２９弄２８號","OBJECTID":645626},"geometry":{"x":174085.08620500099,"y":2541749.9246440046}},{"attributes":{"ID":645654,"DIS_CODE":0,"TOWNNAME":"仁德區","LI":"仁和里","LIN":"3鄰","STREET":"和愛街","SECT":" ","MAREA":" ","LANE":" ","ALLEY":" ","HOUSE_NO":"５號七樓之５","E_COORD97":170386.64999999999,"N_COORD97":2540155.8599999999,"ADDRESS":"和愛街５號七樓之５","OBJECTID":645627},"geometry":{"x":170386.6500000013,"y":2540155.8599999994}},{"attributes":{"ID":645655,"DIS_CODE":0,"TOWNNAME":"仁德區","LI":"仁和里","LIN":"3鄰","STREET":"和愛街","SECT":" ","MAREA":" ","LANE":" ","ALLEY":" ","HOUSE_NO":"５號八樓之１","E_COORD97":170386.64999999999,"N_COORD97":2540155.8599999999,"ADDRESS":"和愛街５號八樓之１","OBJECTID":645628},"geometry":{"x":170386.6500000013,"y":2540155.8599999994}},{"attributes":{"ID":645656,"DIS_CODE":0,"TOWNNAME":"仁德區","LI":"仁和里","LIN":"3鄰","STREET":"和愛街","SECT":" ","MAREA":" ","LANE":" ","ALLEY":" ","HOUSE_NO":"５號八樓之２","E_COORD97":170386.64999999999,"N_COORD97":2540155.8599999999,"ADDRESS":"和愛街５號八樓之２","OBJECTID":645629},"geometry":{"x":170386.6500000013,"y":2540155.8599999994}},{"attributes":{"ID":645657,"DIS_CODE":0,"TOWNNAME":"仁德區","LI":"仁和里","LIN":"3鄰","STREET":"和愛街","SECT":" ","MAREA":" ","LANE":" ","ALLEY":" ","HOUSE_NO":"５號八樓之３","E_COORD97":170386.64999999999,"N_COORD97":2540155.8599999999,"ADDRESS":"和愛街５號八樓之３","OBJECTID":645630},"geometry":{"x":170386.6500000013,"y":2540155.8599999994}},{"attributes":{"ID":645658,"DIS_CODE":0,"TOWNNAME":"仁德區","LI":"仁和里","LIN":"3鄰","STREET":"和愛街","SECT":" ","MAREA":" ","LANE":" ","ALLEY":" ","HOUSE_NO":"５號八樓之５","E_COORD97":170386.64999999999,"N_COORD97":2540155.8599999999,"ADDRESS":"和愛街５號八樓之５","OBJECTID":645631},"geometry":{"x":170386.6500000013,"y":2540155.8599999994}},{"attributes":{"ID":645659,"DIS_CODE":0,"TOWNNAME":"仁德區","LI":"一甲里","LIN":"14鄰","STREET":"忠義路","SECT":" ","MAREA":" ","LANE":"１９９巷","ALLEY":"３１弄","HOUSE_NO":"１號","E_COORD97":174032.10916299999,"N_COORD97":2541717.8571600001,"ADDRESS":"忠義路１９９巷３１弄１號","OBJECTID":645632},"geometry":{"x":174032.10916300025,"y":2541717.8571620025}},{"attributes":{"ID":645660,"DIS_CODE":0,"TOWNNAME":"仁德區","LI":"一甲里","LIN":"14鄰","STREET":"忠義路","SECT":" ","MAREA":" ","LANE":"１９９巷","ALLEY":"３１弄","HOUSE_NO":"３號","E_COORD97":174039.10213300001,"N_COORD97":2541721.6671600002,"ADDRESS":"忠義路１９９巷３１弄３號","OBJECTID":645633},"geometry":{"x":174039.10213300027,"y":2541721.6671590023}},{"attributes":{"ID":645661,"DIS_CODE":0,"TOWNNAME":"善化區","LI":"小新里","LIN":"11鄰","STREET":"善新西路","SECT":" ","MAREA":" ","LANE":" ","ALLEY":" ","HOUSE_NO":"４８０號","E_COORD97":178692.81841400001,"N_COORD97":2557250.31121,"ADDRESS":"善新西路４８０號","OBJECTID":645634},"geometry":{"x":178692.81841400079,"y":2557250.3112090025}},{"attributes":{"ID":645662,"DIS_CODE":0,"TOWNNAME":"仁德區","LI":"一甲里","LIN":"14鄰","STREET":"忠義路","SECT":" ","MAREA":" ","LANE":"１９９巷","ALLEY":"３１弄","HOUSE_NO":"５號","E_COORD97":174045.671286,"N_COORD97":2541724.2071600002,"ADDRESS":"忠義路１９９巷３１弄５號","OBJECTID":645635},"geometry":{"x":174045.67128600087,"y":2541724.2071580011}},{"attributes":{"ID":645663,"DIS_CODE":0,"TOWNNAME":"仁德區","LI":"一甲里","LIN":"14鄰","STREET":"忠義路","SECT":" ","MAREA":" ","LANE":"１９９巷","ALLEY":"３１弄","HOUSE_NO":"７號","E_COORD97":174052.87616399999,"N_COORD97":2541726.9588199998,"ADDRESS":"忠義路１９９巷３１弄７號","OBJECTID":645636},"geometry":{"x":174052.87616400048,"y":2541726.9588230029}},{"attributes":{"ID":645664,"DIS_CODE":0,"TOWNNAME":"仁德區","LI":"一甲里","LIN":"14鄰","STREET":"忠義路","SECT":" ","MAREA":" ","LANE":"１９９巷","ALLEY":"３１弄","HOUSE_NO":"９號","E_COORD97":174058.38577600001,"N_COORD97":2541729.71049,"ADDRESS":"忠義路１９９巷３１弄９號","OBJECTID":645637},"geometry":{"x":174058.3857760001,"y":2541729.710487999}},{"attributes":{"ID":645665,"DIS_CODE":0,"TOWNNAME":"仁德區","LI":"一甲里","LIN":"14鄰","STREET":"忠義路","SECT":" ","MAREA":" ","LANE":"１９９巷","ALLEY":"３１弄","HOUSE_NO":"１１號","E_COORD97":174063.68348000001,"N_COORD97":2541732.8854899998,"ADDRESS":"忠義路１９９巷３１弄１１號","OBJECTID":645638},"geometry":{"x":174063.68348000012,"y":2541732.8854870033}},{"attributes":{"ID":645666,"DIS_CODE":0,"TOWNNAME":"仁德區","LI":"仁和里","LIN":"3鄰","STREET":"和愛街","SECT":" ","MAREA":" ","LANE":" ","ALLEY":" ","HOUSE_NO":"５號九樓之１","E_COORD97":170386.64999999999,"N_COORD97":2540155.8599999999,"ADDRESS":"和愛街５號九樓之１","OBJECTID":645639},"geometry":{"x":170386.6500000013,"y":2540155.8599999994}},{"attributes":{"ID":645667,"DIS_CODE":0,"TOWNNAME":"仁德區","LI":"仁和里","LIN":"3鄰","STREET":"和愛街","SECT":" ","MAREA":" ","LANE":" ","ALLEY":" ","HOUSE_NO":"５號九樓之２","E_COORD97":170386.64999999999,"N_COORD97":2540155.8599999999,"ADDRESS":"和愛街５號九樓之２","OBJECTID":645640},"geometry":{"x":170386.6500000013,"y":2540155.8599999994}},{"attributes":{"ID":645668,"DIS_CODE":0,"TOWNNAME":"仁德區","LI":"仁和里","LIN":"3鄰","STREET":"和愛街","SECT":" ","MAREA":" ","LANE":" ","ALLEY":" ","HOUSE_NO":"５號九樓之３","E_COORD97":170386.64999999999,"N_COORD97":2540155.8599999999,"ADDRESS":"和愛街５號九樓之３","OBJECTID":645641},"geometry":{"x":170386.6500000013,"y":2540155.8599999994}},{"attributes":{"ID":645669,"DIS_CODE":0,"TOWNNAME":"仁德區","LI":"仁和里","LIN":"3鄰","STREET":"和愛街","SECT":" ","MAREA":" ","LANE":" ","ALLEY":" ","HOUSE_NO":"５號九樓之５","E_COORD97":170386.64999999999,"N_COORD97":2540155.8599999999,"ADDRESS":"和愛街５號九樓之５","OBJECTID":645642},"geometry":{"x":170386.6500000013,"y":2540155.8599999994}},{"attributes":{"ID":645670,"DIS_CODE":0,"TOWNNAME":"仁德區","LI":"一甲里","LIN":"14鄰","STREET":"忠義路","SECT":" ","MAREA":" ","LANE":"１９９巷","ALLEY":"３１弄","HOUSE_NO":"１３號","E_COORD97":174070.464542,"N_COORD97":2541735.0021500001,"ADDRESS":"忠義路１９９巷３１弄１３號","OBJECTID":645643},"geometry":{"x":174070.46454199962,"y":2541735.0021519996}},{"attributes":{"ID":645671,"DIS_CODE":0,"TOWNNAME":"仁德區","LI":"仁和里","LIN":"3鄰","STREET":"和愛街","SECT":" ","MAREA":" ","LANE":" ","ALLEY":" ","HOUSE_NO":"５號十樓之１","E_COORD97":170386.64999999999,"N_COORD97":2540155.8599999999,"ADDRESS":"和愛街５號十樓之１","OBJECTID":645644},"geometry":{"x":170386.6500000013,"y":2540155.8599999994}},{"attributes":{"ID":645672,"DIS_CODE":0,"TOWNNAME":"仁德區","LI":"仁和里","LIN":"3鄰","STREET":"和愛街","SECT":" ","MAREA":" ","LANE":" ","ALLEY":" ","HOUSE_NO":"５號十樓之２","E_COORD97":170386.64999999999,"N_COORD97":2540155.8599999999,"ADDRESS":"和愛街５號十樓之２","OBJECTID":645645},"geometry":{"x":170386.6500000013,"y":2540155.8599999994}},{"attributes":{"ID":645673,"DIS_CODE":0,"TOWNNAME":"仁德區","LI":"一甲里","LIN":"14鄰","STREET":"忠義路","SECT":" ","MAREA":" ","LANE":"１９９巷","ALLEY":"３１弄","HOUSE_NO":"１５號","E_COORD97":174076.82178699999,"N_COORD97":2541738.1771499999,"ADDRESS":"忠義路１９９巷３１弄１５號","OBJECTID":645646},"geometry":{"x":174076.82178700063,"y":2541738.1771510039}},{"attributes":{"ID":645674,"DIS_CODE":0,"TOWNNAME":"仁德區","LI":"仁和里","LIN":"3鄰","STREET":"和愛街","SECT":" ","MAREA":" ","LANE":" ","ALLEY":" ","HOUSE_NO":"５號十樓之３","E_COORD97":170386.64999999999,"N_COORD97":2540155.8599999999,"ADDRESS":"和愛街５號十樓之３","OBJECTID":645647},"geometry":{"x":170386.6500000013,"y":2540155.8599999994}},{"attributes":{"ID":645675,"DIS_CODE":0,"TOWNNAME":"仁德區","LI":"仁和里","LIN":"3鄰","STREET":"和愛街","SECT":" ","MAREA":" ","LANE":" ","ALLEY":" ","HOUSE_NO":"５號十樓之５","E_COORD97":170386.64999999999,"N_COORD97":2540155.8599999999,"ADDRESS":"和愛街５號十樓之５","OBJECTID":645648},"geometry":{"x":170386.6500000013,"y":2540155.8599999994}},{"attributes":{"ID":645676,"DIS_CODE":0,"TOWNNAME":"仁德區","LI":"一甲里","LIN":"14鄰","STREET":"忠義路","SECT":" ","MAREA":" ","LANE":"１９９巷","ALLEY":"３１弄","HOUSE_NO":"１７號","E_COORD97":174083.60284800001,"N_COORD97":2541741.5638199998,"ADDRESS":"忠義路１９９巷３１弄１７號","OBJECTID":645649},"geometry":{"x":174083.60284799989,"y":2541741.5638149995}},{"attributes":{"ID":645677,"DIS_CODE":0,"TOWNNAME":"仁德區","LI":"一甲里","LIN":"14鄰","STREET":"忠義路","SECT":" ","MAREA":" ","LANE":"１９９巷","ALLEY":"３１弄","HOUSE_NO":"２號","E_COORD97":174034.22824500001,"N_COORD97":2541712.3538299999,"ADDRESS":"忠義路１９９巷３１弄２號","OBJECTID":645650},"geometry":{"x":174034.22824500035,"y":2541712.3538310006}},{"attributes":{"ID":645678,"DIS_CODE":0,"TOWNNAME":"仁德區","LI":"一甲里","LIN":"14鄰","STREET":"忠義路","SECT":" ","MAREA":" ","LANE":"１９９巷","ALLEY":"３１弄","HOUSE_NO":"６號","E_COORD97":174043.34029600001,"N_COORD97":2541716.5871600001,"ADDRESS":"忠義路１９９巷３１弄６號","OBJECTID":645651},"geometry":{"x":174043.34029600024,"y":2541716.5871619973}},{"attributes":{"ID":645679,"DIS_CODE":0,"TOWNNAME":"仁德區","LI":"仁和里","LIN":"4鄰","STREET":"和愛街","SECT":" ","MAREA":" ","LANE":" ","ALLEY":" ","HOUSE_NO":"７號一樓之１","E_COORD97":170385.85000000001,"N_COORD97":2540190.9700000002,"ADDRESS":"和愛街７號一樓之１","OBJECTID":645652},"geometry":{"x":170385.85000000056,"y":2540190.9700000025}},{"attributes":{"ID":645680,"DIS_CODE":0,"TOWNNAME":"仁德區","LI":"仁和里","LIN":"4鄰","STREET":"和愛街","SECT":" ","MAREA":" ","LANE":" ","ALLEY":" ","HOUSE_NO":"７號一樓之２","E_COORD97":170385.85000000001,"N_COORD97":2540190.9700000002,"ADDRESS":"和愛街７號一樓之２","OBJECTID":645653},"geometry":{"x":170385.85000000056,"y":2540190.9700000025}},{"attributes":{"ID":645681,"DIS_CODE":0,"TOWNNAME":"仁德區","LI":"一甲里","LIN":"14鄰","STREET":"忠義路","SECT":" ","MAREA":" ","LANE":"１９９巷","ALLEY":"３１弄","HOUSE_NO":"８號","E_COORD97":174051.60471499999,"N_COORD97":2541719.97383,"ADDRESS":"忠義路１９９巷３１弄８號","OBJECTID":645654},"geometry":{"x":174051.60471500084,"y":2541719.9738270026}},{"attributes":{"ID":645682,"DIS_CODE":0,"TOWNNAME":"仁德區","LI":"一甲里","LIN":"14鄰","STREET":"忠義路","SECT":" ","MAREA":" ","LANE":"１９９巷","ALLEY":"３１弄","HOUSE_NO":"１０號","E_COORD97":174059.44531700001,"N_COORD97":2541723.78382,"ADDRESS":"忠義路１９９巷３１弄１０號","OBJECTID":645655},"geometry":{"x":174059.44531700015,"y":2541723.7838249989}},{"attributes":{"ID":645683,"DIS_CODE":0,"TOWNNAME":"仁德區","LI":"一甲里","LIN":"14鄰","STREET":"忠義路","SECT":" ","MAREA":" ","LANE":"１９９巷","ALLEY":"３１弄","HOUSE_NO":"１２號","E_COORD97":174066.86210299999,"N_COORD97":2541727.8054900002,"ADDRESS":"忠義路１９９巷３１弄１２號","OBJECTID":645656},"geometry":{"x":174066.86210300215,"y":2541727.8054889999}},{"attributes":{"ID":645684,"DIS_CODE":0,"TOWNNAME":"仁德區","LI":"仁和里","LIN":"4鄰","STREET":"和愛街","SECT":" ","MAREA":" ","LANE":" ","ALLEY":" ","HOUSE_NO":"７號二樓之１","E_COORD97":170385.85000000001,"N_COORD97":2540190.9700000002,"ADDRESS":"和愛街７號二樓之１","OBJECTID":645657},"geometry":{"x":170385.85000000056,"y":2540190.9700000025}},{"attributes":{"ID":645685,"DIS_CODE":0,"TOWNNAME":"仁德區","LI":"一甲里","LIN":"14鄰","STREET":"忠義路","SECT":" ","MAREA":" ","LANE":"１９９巷","ALLEY":"３１弄","HOUSE_NO":"１６號","E_COORD97":174073.85507200001,"N_COORD97":2541731.4038200001,"ADDRESS":"忠義路１９９巷３１弄１６號","OBJECTID":645658},"geometry":{"x":174073.855072001,"y":2541731.4038210008}},{"attributes":{"ID":645686,"DIS_CODE":0,"TOWNNAME":"仁德區","LI":"仁和里","LIN":"4鄰","STREET":"和愛街","SECT":" ","MAREA":" ","LANE":" ","ALLEY":" ","HOUSE_NO":"７號二樓之２","E_COORD97":170385.85000000001,"N_COORD97":2540190.9700000002,"ADDRESS":"和愛街７號二樓之２","OBJECTID":645659},"geometry":{"x":170385.85000000056,"y":2540190.9700000025}},{"attributes":{"ID":645687,"DIS_CODE":0,"TOWNNAME":"善化區","LI":"小新里","LIN":"11鄰","STREET":"蓮潭北三街","SECT":" ","MAREA":" ","LANE":" ","ALLEY":" ","HOUSE_NO":"１３２號","E_COORD97":179186.765962,"N_COORD97":2557562.0960400002,"ADDRESS":"蓮潭北三街１３２號","OBJECTID":645660},"geometry":{"x":179186.76596200094,"y":2557562.0960409995}},{"attributes":{"ID":645688,"DIS_CODE":0,"TOWNNAME":"仁德區","LI":"仁和里","LIN":"4鄰","STREET":"和愛街","SECT":" ","MAREA":" ","LANE":" ","ALLEY":" ","HOUSE_NO":"７號二樓之３","E_COORD97":170385.85000000001,"N_COORD97":2540190.9700000002,"ADDRESS":"和愛街７號二樓之３","OBJECTID":645661},"geometry":{"x":170385.85000000056,"y":2540190.9700000025}},{"attributes":{"ID":645689,"DIS_CODE":0,"TOWNNAME":"仁德區","LI":"仁和里","LIN":"4鄰","STREET":"和愛街","SECT":" ","MAREA":" ","LANE":" ","ALLEY":" ","HOUSE_NO":"７號二樓之５","E_COORD97":170385.85000000001,"N_COORD97":2540190.9700000002,"ADDRESS":"和愛街７號二樓之５","OBJECTID":645662},"geometry":{"x":170385.85000000056,"y":2540190.9700000025}},{"attributes":{"ID":645690,"DIS_CODE":0,"TOWNNAME":"仁德區","LI":"仁和里","LIN":"4鄰","STREET":"和愛街","SECT":" ","MAREA":" ","LANE":" ","ALLEY":" ","HOUSE_NO":"７號三樓之１","E_COORD97":170385.85000000001,"N_COORD97":2540190.9700000002,"ADDRESS":"和愛街７號三樓之１","OBJECTID":645663},"geometry":{"x":170385.85000000056,"y":2540190.9700000025}},{"attributes":{"ID":645691,"DIS_CODE":0,"TOWNNAME":"仁德區","LI":"仁和里","LIN":"4鄰","STREET":"和愛街","SECT":" ","MAREA":" ","LANE":" ","ALLEY":" ","HOUSE_NO":"７號三樓之２","E_COORD97":170385.85000000001,"N_COORD97":2540190.9700000002,"ADDRESS":"和愛街７號三樓之２","OBJECTID":645664},"geometry":{"x":170385.85000000056,"y":2540190.9700000025}},{"attributes":{"ID":645692,"DIS_CODE":0,"TOWNNAME":"仁德區","LI":"仁和里","LIN":"4鄰","STREET":"和愛街","SECT":" ","MAREA":" ","LANE":" ","ALLEY":" ","HOUSE_NO":"７號三樓之３","E_COORD97":170385.85000000001,"N_COORD97":2540190.9700000002,"ADDRESS":"和愛街７號三樓之３","OBJECTID":645665},"geometry":{"x":170385.85000000056,"y":2540190.9700000025}},{"attributes":{"ID":645693,"DIS_CODE":0,"TOWNNAME":"仁德區","LI":"仁和里","LIN":"4鄰","STREET":"和愛街","SECT":" ","MAREA":" ","LANE":" ","ALLEY":" ","HOUSE_NO":"７號三樓之５","E_COORD97":170385.85000000001,"N_COORD97":2540190.9700000002,"ADDRESS":"和愛街７號三樓之５","OBJECTID":645666},"geometry":{"x":170385.85000000056,"y":2540190.9700000025}},{"attributes":{"ID":645694,"DIS_CODE":0,"TOWNNAME":"仁德區","LI":"仁和里","LIN":"4鄰","STREET":"和愛街","SECT":" ","MAREA":" ","LANE":" ","ALLEY":" ","HOUSE_NO":"７號四樓之１","E_COORD97":170385.85000000001,"N_COORD97":2540190.9700000002,"ADDRESS":"和愛街７號四樓之１","OBJECTID":645667},"geometry":{"x":170385.85000000056,"y":2540190.9700000025}},{"attributes":{"ID":645695,"DIS_CODE":0,"TOWNNAME":"仁德區","LI":"仁和里","LIN":"4鄰","STREET":"和愛街","SECT":" ","MAREA":" ","LANE":" ","ALLEY":" ","HOUSE_NO":"７號四樓之２","E_COORD97":170385.85000000001,"N_COORD97":2540190.9700000002,"ADDRESS":"和愛街７號四樓之２","OBJECTID":645668},"geometry":{"x":170385.85000000056,"y":2540190.9700000025}},{"attributes":{"ID":645696,"DIS_CODE":0,"TOWNNAME":"仁德區","LI":"仁和里","LIN":"4鄰","STREET":"和愛街","SECT":" ","MAREA":" ","LANE":" ","ALLEY":" ","HOUSE_NO":"７號四樓之３","E_COORD97":170385.85000000001,"N_COORD97":2540190.9700000002,"ADDRESS":"和愛街７號四樓之３","OBJECTID":645669},"geometry":{"x":170385.85000000056,"y":2540190.9700000025}},{"attributes":{"ID":645697,"DIS_CODE":0,"TOWNNAME":"仁德區","LI":"仁和里","LIN":"4鄰","STREET":"和愛街","SECT":" ","MAREA":" ","LANE":" ","ALLEY":" ","HOUSE_NO":"７號四樓之５","E_COORD97":170385.85000000001,"N_COORD97":2540190.9700000002,"ADDRESS":"和愛街７號四樓之５","OBJECTID":645670},"geometry":{"x":170385.85000000056,"y":2540190.9700000025}},{"attributes":{"ID":645698,"DIS_CODE":0,"TOWNNAME":"仁德區","LI":"仁和里","LIN":"4鄰","STREET":"和愛街","SECT":" ","MAREA":" ","LANE":" ","ALLEY":" ","HOUSE_NO":"７號五樓之１","E_COORD97":170385.85000000001,"N_COORD97":2540190.9700000002,"ADDRESS":"和愛街７號五樓之１","OBJECTID":645671},"geometry":{"x":170385.85000000056,"y":2540190.9700000025}},{"attributes":{"ID":645699,"DIS_CODE":0,"TOWNNAME":"仁德區","LI":"仁和里","LIN":"4鄰","STREET":"和愛街","SECT":" ","MAREA":" ","LANE":" ","ALLEY":" ","HOUSE_NO":"７號五樓之２","E_COORD97":170385.85000000001,"N_COORD97":2540190.9700000002,"ADDRESS":"和愛街７號五樓之２","OBJECTID":645672},"geometry":{"x":170385.85000000056,"y":2540190.9700000025}},{"attributes":{"ID":645700,"DIS_CODE":0,"TOWNNAME":"仁德區","LI":"仁和里","LIN":"4鄰","STREET":"和愛街","SECT":" ","MAREA":" ","LANE":" ","ALLEY":" ","HOUSE_NO":"７號五樓之３","E_COORD97":170385.85000000001,"N_COORD97":2540190.9700000002,"ADDRESS":"和愛街７號五樓之３","OBJECTID":645673},"geometry":{"x":170385.85000000056,"y":2540190.9700000025}},{"attributes":{"ID":645701,"DIS_CODE":0,"TOWNNAME":"仁德區","LI":"仁和里","LIN":"4鄰","STREET":"和愛街","SECT":" ","MAREA":" ","LANE":" ","ALLEY":" ","HOUSE_NO":"７號五樓之５","E_COORD97":170385.85000000001,"N_COORD97":2540190.9700000002,"ADDRESS":"和愛街７號五樓之５","OBJECTID":645674},"geometry":{"x":170385.85000000056,"y":2540190.9700000025}},{"attributes":{"ID":645702,"DIS_CODE":0,"TOWNNAME":"仁德區","LI":"仁和里","LIN":"4鄰","STREET":"和愛街","SECT":" ","MAREA":" ","LANE":" ","ALLEY":" ","HOUSE_NO":"７號六樓之１","E_COORD97":170385.85000000001,"N_COORD97":2540190.9700000002,"ADDRESS":"和愛街７號六樓之１","OBJECTID":645675},"geometry":{"x":170385.85000000056,"y":2540190.9700000025}},{"attributes":{"ID":645703,"DIS_CODE":0,"TOWNNAME":"仁德區","LI":"仁和里","LIN":"4鄰","STREET":"和愛街","SECT":" ","MAREA":" ","LANE":" ","ALLEY":" ","HOUSE_NO":"７號六樓之２","E_COORD97":170385.85000000001,"N_COORD97":2540190.9700000002,"ADDRESS":"和愛街７號六樓之２","OBJECTID":645676},"geometry":{"x":170385.85000000056,"y":2540190.9700000025}},{"attributes":{"ID":645704,"DIS_CODE":0,"TOWNNAME":"仁德區","LI":"仁和里","LIN":"4鄰","STREET":"和愛街","SECT":" ","MAREA":" ","LANE":" ","ALLEY":" ","HOUSE_NO":"７號六樓之３","E_COORD97":170385.85000000001,"N_COORD97":2540190.9700000002,"ADDRESS":"和愛街７號六樓之３","OBJECTID":645677},"geometry":{"x":170385.85000000056,"y":2540190.9700000025}},{"attributes":{"ID":645705,"DIS_CODE":0,"TOWNNAME":"仁德區","LI":"仁和里","LIN":"4鄰","STREET":"和愛街","SECT":" ","MAREA":" ","LANE":" ","ALLEY":" ","HOUSE_NO":"７號六樓之５","E_COORD97":170385.85000000001,"N_COORD97":2540190.9700000002,"ADDRESS":"和愛街７號六樓之５","OBJECTID":645678},"geometry":{"x":170385.85000000056,"y":2540190.9700000025}},{"attributes":{"ID":645706,"DIS_CODE":0,"TOWNNAME":"仁德區","LI":"仁和里","LIN":"4鄰","STREET":"和愛街","SECT":" ","MAREA":" ","LANE":" ","ALLEY":" ","HOUSE_NO":"７號七樓之１","E_COORD97":170385.85000000001,"N_COORD97":2540190.9700000002,"ADDRESS":"和愛街７號七樓之１","OBJECTID":645679},"geometry":{"x":170385.85000000056,"y":2540190.9700000025}},{"attributes":{"ID":645707,"DIS_CODE":0,"TOWNNAME":"仁德區","LI":"仁和里","LIN":"4鄰","STREET":"和愛街","SECT":" ","MAREA":" ","LANE":" ","ALLEY":" ","HOUSE_NO":"７號七樓之２","E_COORD97":170385.85000000001,"N_COORD97":2540190.9700000002,"ADDRESS":"和愛街７號七樓之２","OBJECTID":645680},"geometry":{"x":170385.85000000056,"y":2540190.9700000025}},{"attributes":{"ID":645708,"DIS_CODE":0,"TOWNNAME":"仁德區","LI":"仁和里","LIN":"4鄰","STREET":"和愛街","SECT":" ","MAREA":" ","LANE":" ","ALLEY":" ","HOUSE_NO":"７號七樓之３","E_COORD97":170385.85000000001,"N_COORD97":2540190.9700000002,"ADDRESS":"和愛街７號七樓之３","OBJECTID":645681},"geometry":{"x":170385.85000000056,"y":2540190.9700000025}},{"attributes":{"ID":645709,"DIS_CODE":0,"TOWNNAME":"仁德區","LI":"仁和里","LIN":"4鄰","STREET":"和愛街","SECT":" ","MAREA":" ","LANE":" ","ALLEY":" ","HOUSE_NO":"７號七樓之５","E_COORD97":170385.85000000001,"N_COORD97":2540190.9700000002,"ADDRESS":"和愛街７號七樓之５","OBJECTID":645682},"geometry":{"x":170385.85000000056,"y":2540190.9700000025}},{"attributes":{"ID":645710,"DIS_CODE":0,"TOWNNAME":"仁德區","LI":"仁和里","LIN":"4鄰","STREET":"和愛街","SECT":" ","MAREA":" ","LANE":" ","ALLEY":" ","HOUSE_NO":"７號八樓之１","E_COORD97":170385.85000000001,"N_COORD97":2540190.9700000002,"ADDRESS":"和愛街７號八樓之１","OBJECTID":645683},"geometry":{"x":170385.85000000056,"y":2540190.9700000025}},{"attributes":{"ID":645711,"DIS_CODE":0,"TOWNNAME":"仁德區","LI":"一甲里","LIN":"14鄰","STREET":"忠義路","SECT":" ","MAREA":" ","LANE":"１９９巷","ALLEY":"３１弄","HOUSE_NO":"１８號","E_COORD97":174080.848042,"N_COORD97":2541733.8379899999,"ADDRESS":"忠義路１９９巷３１弄１８號","OBJECTID":645684},"geometry":{"x":174080.84804200102,"y":2541733.8379859999}},{"attributes":{"ID":645712,"DIS_CODE":0,"TOWNNAME":"仁德區","LI":"仁和里","LIN":"4鄰","STREET":"和愛街","SECT":" ","MAREA":" ","LANE":" ","ALLEY":" ","HOUSE_NO":"７號八樓之２","E_COORD97":170385.85000000001,"N_COORD97":2540190.9700000002,"ADDRESS":"和愛街７號八樓之２","OBJECTID":645685},"geometry":{"x":170385.85000000056,"y":2540190.9700000025}},{"attributes":{"ID":645713,"DIS_CODE":0,"TOWNNAME":"仁德區","LI":"仁和里","LIN":"4鄰","STREET":"和愛街","SECT":" ","MAREA":" ","LANE":" ","ALLEY":" ","HOUSE_NO":"７號八樓之３","E_COORD97":170385.85000000001,"N_COORD97":2540190.9700000002,"ADDRESS":"和愛街７號八樓之３","OBJECTID":645686},"geometry":{"x":170385.85000000056,"y":2540190.9700000025}},{"attributes":{"ID":645714,"DIS_CODE":0,"TOWNNAME":"仁德區","LI":"仁和里","LIN":"4鄰","STREET":"和愛街","SECT":" ","MAREA":" ","LANE":" ","ALLEY":" ","HOUSE_NO":"７號八樓之５","E_COORD97":170385.85000000001,"N_COORD97":2540190.9700000002,"ADDRESS":"和愛街７號八樓之５","OBJECTID":645687},"geometry":{"x":170385.85000000056,"y":2540190.9700000025}},{"attributes":{"ID":645715,"DIS_CODE":0,"TOWNNAME":"仁德區","LI":"一甲里","LIN":"14鄰","STREET":"忠義路","SECT":" ","MAREA":" ","LANE":"１９９巷","ALLEY":"３１弄","HOUSE_NO":"２０號","E_COORD97":174087.20528699999,"N_COORD97":2541737.6479799999,"ADDRESS":"忠義路１９９巷３１弄２０號","OBJECTID":645688},"geometry":{"x":174087.20528699923,"y":2541737.6479839999}},{"attributes":{"ID":645716,"DIS_CODE":0,"TOWNNAME":"仁德區","LI":"仁和里","LIN":"4鄰","STREET":"和愛街","SECT":" ","MAREA":" ","LANE":" ","ALLEY":" ","HOUSE_NO":"７號九樓之１","E_COORD97":170385.85000000001,"N_COORD97":2540190.9700000002,"ADDRESS":"和愛街７號九樓之１","OBJECTID":645689},"geometry":{"x":170385.85000000056,"y":2540190.9700000025}},{"attributes":{"ID":645717,"DIS_CODE":0,"TOWNNAME":"仁德區","LI":"仁和里","LIN":"4鄰","STREET":"和愛街","SECT":" ","MAREA":" ","LANE":" ","ALLEY":" ","HOUSE_NO":"７號九樓之２","E_COORD97":170385.85000000001,"N_COORD97":2540190.9700000002,"ADDRESS":"和愛街７號九樓之２","OBJECTID":645690},"geometry":{"x":170385.85000000056,"y":2540190.9700000025}},{"attributes":{"ID":645718,"DIS_CODE":0,"TOWNNAME":"仁德區","LI":"仁和里","LIN":"4鄰","STREET":"和愛街","SECT":" ","MAREA":" ","LANE":" ","ALLEY":" ","HOUSE_NO":"７號九樓之３","E_COORD97":170385.85000000001,"N_COORD97":2540190.9700000002,"ADDRESS":"和愛街７號九樓之３","OBJECTID":645691},"geometry":{"x":170385.85000000056,"y":2540190.9700000025}},{"attributes":{"ID":645719,"DIS_CODE":0,"TOWNNAME":"仁德區","LI":"仁和里","LIN":"4鄰","STREET":"和愛街","SECT":" ","MAREA":" ","LANE":" ","ALLEY":" ","HOUSE_NO":"７號九樓之５","E_COORD97":170385.85000000001,"N_COORD97":2540190.9700000002,"ADDRESS":"和愛街７號九樓之５","OBJECTID":645692},"geometry":{"x":170385.85000000056,"y":2540190.9700000025}},{"attributes":{"ID":645720,"DIS_CODE":0,"TOWNNAME":"仁德區","LI":"仁和里","LIN":"5鄰","STREET":"和愛街","SECT":" ","MAREA":" ","LANE":" ","ALLEY":" ","HOUSE_NO":"９號一樓之１","E_COORD97":170435.25,"N_COORD97":2540192.1400000001,"ADDRESS":"和愛街９號一樓之１","OBJECTID":645693},"geometry":{"x":170435.25,"y":2540192.1400000006}},{"attributes":{"ID":645721,"DIS_CODE":0,"TOWNNAME":"仁德區","LI":"仁和里","LIN":"5鄰","STREET":"和愛街","SECT":" ","MAREA":" ","LANE":" ","ALLEY":" ","HOUSE_NO":"９號一樓之２","E_COORD97":170435.25,"N_COORD97":2540192.1400000001,"ADDRESS":"和愛街９號一樓之２","OBJECTID":645694},"geometry":{"x":170435.25,"y":2540192.1400000006}},{"attributes":{"ID":645722,"DIS_CODE":0,"TOWNNAME":"仁德區","LI":"仁和里","LIN":"5鄰","STREET":"和愛街","SECT":" ","MAREA":" ","LANE":" ","ALLEY":" ","HOUSE_NO":"９號一樓之３","E_COORD97":170435.25,"N_COORD97":2540192.1400000001,"ADDRESS":"和愛街９號一樓之３","OBJECTID":645695},"geometry":{"x":170435.25,"y":2540192.1400000006}},{"attributes":{"ID":645723,"DIS_CODE":0,"TOWNNAME":"仁德區","LI":"仁和里","LIN":"5鄰","STREET":"和愛街","SECT":" ","MAREA":" ","LANE":" ","ALLEY":" ","HOUSE_NO":"９號一樓之５","E_COORD97":170435.25,"N_COORD97":2540192.1400000001,"ADDRESS":"和愛街９號一樓之５","OBJECTID":645696},"geometry":{"x":170435.25,"y":2540192.1400000006}},{"attributes":{"ID":645724,"DIS_CODE":0,"TOWNNAME":"仁德區","LI":"仁和里","LIN":"5鄰","STREET":"和愛街","SECT":" ","MAREA":" ","LANE":" ","ALLEY":" ","HOUSE_NO":"９號二樓之１","E_COORD97":170435.25,"N_COORD97":2540192.1400000001,"ADDRESS":"和愛街９號二樓之１","OBJECTID":645697},"geometry":{"x":170435.25,"y":2540192.1400000006}},{"attributes":{"ID":645725,"DIS_CODE":0,"TOWNNAME":"仁德區","LI":"仁和里","LIN":"5鄰","STREET":"和愛街","SECT":" ","MAREA":" ","LANE":" ","ALLEY":" ","HOUSE_NO":"９號二樓之２","E_COORD97":170435.25,"N_COORD97":2540192.1400000001,"ADDRESS":"和愛街９號二樓之２","OBJECTID":645698},"geometry":{"x":170435.25,"y":2540192.1400000006}},{"attributes":{"ID":645726,"DIS_CODE":0,"TOWNNAME":"仁德區","LI":"仁和里","LIN":"5鄰","STREET":"和愛街","SECT":" ","MAREA":" ","LANE":" ","ALLEY":" ","HOUSE_NO":"９號二樓之３","E_COORD97":170435.25,"N_COORD97":2540192.1400000001,"ADDRESS":"和愛街９號二樓之３","OBJECTID":645699},"geometry":{"x":170435.25,"y":2540192.1400000006}},{"attributes":{"ID":645727,"DIS_CODE":0,"TOWNNAME":"仁德區","LI":"仁和里","LIN":"5鄰","STREET":"和愛街","SECT":" ","MAREA":" ","LANE":" ","ALLEY":" ","HOUSE_NO":"９號二樓之５","E_COORD97":170435.25,"N_COORD97":2540192.1400000001,"ADDRESS":"和愛街９號二樓之５","OBJECTID":645700},"geometry":{"x":170435.25,"y":2540192.1400000006}},{"attributes":{"ID":645728,"DIS_CODE":0,"TOWNNAME":"仁德區","LI":"仁和里","LIN":"5鄰","STREET":"和愛街","SECT":" ","MAREA":" ","LANE":" ","ALLEY":" ","HOUSE_NO":"９號三樓之１","E_COORD97":170435.25,"N_COORD97":2540192.1400000001,"ADDRESS":"和愛街９號三樓之１","OBJECTID":645701},"geometry":{"x":170435.25,"y":2540192.1400000006}},{"attributes":{"ID":645729,"DIS_CODE":0,"TOWNNAME":"仁德區","LI":"仁和里","LIN":"5鄰","STREET":"和愛街","SECT":" ","MAREA":" ","LANE":" ","ALLEY":" ","HOUSE_NO":"９號三樓之２","E_COORD97":170435.25,"N_COORD97":2540192.1400000001,"ADDRESS":"和愛街９號三樓之２","OBJECTID":645702},"geometry":{"x":170435.25,"y":2540192.1400000006}},{"attributes":{"ID":645730,"DIS_CODE":0,"TOWNNAME":"仁德區","LI":"仁和里","LIN":"5鄰","STREET":"和愛街","SECT":" ","MAREA":" ","LANE":" ","ALLEY":" ","HOUSE_NO":"９號三樓之３","E_COORD97":170435.25,"N_COORD97":2540192.1400000001,"ADDRESS":"和愛街９號三樓之３","OBJECTID":645703},"geometry":{"x":170435.25,"y":2540192.1400000006}},{"attributes":{"ID":645731,"DIS_CODE":0,"TOWNNAME":"仁德區","LI":"仁和里","LIN":"5鄰","STREET":"和愛街","SECT":" ","MAREA":" ","LANE":" ","ALLEY":" ","HOUSE_NO":"９號三樓之５","E_COORD97":170435.25,"N_COORD97":2540192.1400000001,"ADDRESS":"和愛街９號三樓之５","OBJECTID":645704},"geometry":{"x":170435.25,"y":2540192.1400000006}},{"attributes":{"ID":645732,"DIS_CODE":0,"TOWNNAME":"仁德區","LI":"仁和里","LIN":"5鄰","STREET":"和愛街","SECT":" ","MAREA":" ","LANE":" ","ALLEY":" ","HOUSE_NO":"９號四樓之１","E_COORD97":170435.25,"N_COORD97":2540192.1400000001,"ADDRESS":"和愛街９號四樓之１","OBJECTID":645705},"geometry":{"x":170435.25,"y":2540192.1400000006}},{"attributes":{"ID":645733,"DIS_CODE":0,"TOWNNAME":"仁德區","LI":"仁和里","LIN":"5鄰","STREET":"和愛街","SECT":" ","MAREA":" ","LANE":" ","ALLEY":" ","HOUSE_NO":"９號四樓之２","E_COORD97":170435.25,"N_COORD97":2540192.1400000001,"ADDRESS":"和愛街９號四樓之２","OBJECTID":645706},"geometry":{"x":170435.25,"y":2540192.1400000006}},{"attributes":{"ID":645734,"DIS_CODE":0,"TOWNNAME":"仁德區","LI":"仁和里","LIN":"5鄰","STREET":"和愛街","SECT":" ","MAREA":" ","LANE":" ","ALLEY":" ","HOUSE_NO":"９號四樓之３","E_COORD97":170435.25,"N_COORD97":2540192.1400000001,"ADDRESS":"和愛街９號四樓之３","OBJECTID":645707},"geometry":{"x":170435.25,"y":2540192.1400000006}},{"attributes":{"ID":645735,"DIS_CODE":0,"TOWNNAME":"仁德區","LI":"仁和里","LIN":"5鄰","STREET":"和愛街","SECT":" ","MAREA":" ","LANE":" ","ALLEY":" ","HOUSE_NO":"９號四樓之５","E_COORD97":170435.25,"N_COORD97":2540192.1400000001,"ADDRESS":"和愛街９號四樓之５","OBJECTID":645708},"geometry":{"x":170435.25,"y":2540192.1400000006}},{"attributes":{"ID":645736,"DIS_CODE":0,"TOWNNAME":"仁德區","LI":"仁和里","LIN":"5鄰","STREET":"和愛街","SECT":" ","MAREA":" ","LANE":" ","ALLEY":" ","HOUSE_NO":"９號五樓之１","E_COORD97":170435.25,"N_COORD97":2540192.1400000001,"ADDRESS":"和愛街９號五樓之１","OBJECTID":645709},"geometry":{"x":170435.25,"y":2540192.1400000006}},{"attributes":{"ID":645737,"DIS_CODE":0,"TOWNNAME":"仁德區","LI":"仁和里","LIN":"5鄰","STREET":"和愛街","SECT":" ","MAREA":" ","LANE":" ","ALLEY":" ","HOUSE_NO":"９號五樓之２","E_COORD97":170435.25,"N_COORD97":2540192.1400000001,"ADDRESS":"和愛街９號五樓之２","OBJECTID":645710},"geometry":{"x":170435.25,"y":2540192.1400000006}},{"attributes":{"ID":645738,"DIS_CODE":0,"TOWNNAME":"仁德區","LI":"仁和里","LIN":"5鄰","STREET":"和愛街","SECT":" ","MAREA":" ","LANE":" ","ALLEY":" ","HOUSE_NO":"９號五樓之３","E_COORD97":170435.25,"N_COORD97":2540192.1400000001,"ADDRESS":"和愛街９號五樓之３","OBJECTID":645711},"geometry":{"x":170435.25,"y":2540192.1400000006}},{"attributes":{"ID":645739,"DIS_CODE":0,"TOWNNAME":"仁德區","LI":"仁和里","LIN":"5鄰","STREET":"和愛街","SECT":" ","MAREA":" ","LANE":" ","ALLEY":" ","HOUSE_NO":"９號五樓之５","E_COORD97":170435.25,"N_COORD97":2540192.1400000001,"ADDRESS":"和愛街９號五樓之５","OBJECTID":645712},"geometry":{"x":170435.25,"y":2540192.1400000006}},{"attributes":{"ID":645740,"DIS_CODE":0,"TOWNNAME":"仁德區","LI":"仁和里","LIN":"5鄰","STREET":"和愛街","SECT":" ","MAREA":" ","LANE":" ","ALLEY":" ","HOUSE_NO":"９號六樓之１","E_COORD97":170435.25,"N_COORD97":2540192.1400000001,"ADDRESS":"和愛街９號六樓之１","OBJECTID":645713},"geometry":{"x":170435.25,"y":2540192.1400000006}},{"attributes":{"ID":645741,"DIS_CODE":0,"TOWNNAME":"仁德區","LI":"仁和里","LIN":"5鄰","STREET":"和愛街","SECT":" ","MAREA":" ","LANE":" ","ALLEY":" ","HOUSE_NO":"９號六樓之２","E_COORD97":170435.25,"N_COORD97":2540192.1400000001,"ADDRESS":"和愛街９號六樓之２","OBJECTID":645714},"geometry":{"x":170435.25,"y":2540192.1400000006}},{"attributes":{"ID":645742,"DIS_CODE":0,"TOWNNAME":"仁德區","LI":"仁和里","LIN":"5鄰","STREET":"和愛街","SECT":" ","MAREA":" ","LANE":" ","ALLEY":" ","HOUSE_NO":"９號六樓之３","E_COORD97":170435.25,"N_COORD97":2540192.1400000001,"ADDRESS":"和愛街９號六樓之３","OBJECTID":645715},"geometry":{"x":170435.25,"y":2540192.1400000006}},{"attributes":{"ID":645743,"DIS_CODE":0,"TOWNNAME":"仁德區","LI":"仁和里","LIN":"5鄰","STREET":"和愛街","SECT":" ","MAREA":" ","LANE":" ","ALLEY":" ","HOUSE_NO":"９號六樓之５","E_COORD97":170435.25,"N_COORD97":2540192.1400000001,"ADDRESS":"和愛街９號六樓之５","OBJECTID":645716},"geometry":{"x":170435.25,"y":2540192.1400000006}},{"attributes":{"ID":645744,"DIS_CODE":0,"TOWNNAME":"仁德區","LI":"仁和里","LIN":"5鄰","STREET":"和愛街","SECT":" ","MAREA":" ","LANE":" ","ALLEY":" ","HOUSE_NO":"９號七樓之１","E_COORD97":170435.25,"N_COORD97":2540192.1400000001,"ADDRESS":"和愛街９號七樓之１","OBJECTID":645717},"geometry":{"x":170435.25,"y":2540192.1400000006}},{"attributes":{"ID":645745,"DIS_CODE":0,"TOWNNAME":"仁德區","LI":"仁和里","LIN":"5鄰","STREET":"和愛街","SECT":" ","MAREA":" ","LANE":" ","ALLEY":" ","HOUSE_NO":"９號七樓之２","E_COORD97":170435.25,"N_COORD97":2540192.1400000001,"ADDRESS":"和愛街９號七樓之２","OBJECTID":645718},"geometry":{"x":170435.25,"y":2540192.1400000006}},{"attributes":{"ID":645746,"DIS_CODE":0,"TOWNNAME":"仁德區","LI":"仁和里","LIN":"5鄰","STREET":"和愛街","SECT":" ","MAREA":" ","LANE":" ","ALLEY":" ","HOUSE_NO":"９號七樓之３","E_COORD97":170435.25,"N_COORD97":2540192.1400000001,"ADDRESS":"和愛街９號七樓之３","OBJECTID":645719},"geometry":{"x":170435.25,"y":2540192.1400000006}},{"attributes":{"ID":645747,"DIS_CODE":0,"TOWNNAME":"仁德區","LI":"仁和里","LIN":"5鄰","STREET":"和愛街","SECT":" ","MAREA":" ","LANE":" ","ALLEY":" ","HOUSE_NO":"９號七樓之５","E_COORD97":170435.25,"N_COORD97":2540192.1400000001,"ADDRESS":"和愛街９號七樓之５","OBJECTID":645720},"geometry":{"x":170435.25,"y":2540192.1400000006}},{"attributes":{"ID":645748,"DIS_CODE":0,"TOWNNAME":"仁德區","LI":"仁和里","LIN":"5鄰","STREET":"和愛街","SECT":" ","MAREA":" ","LANE":" ","ALLEY":" ","HOUSE_NO":"９號八樓之１","E_COORD97":170435.25,"N_COORD97":2540192.1400000001,"ADDRESS":"和愛街９號八樓之１","OBJECTID":645721},"geometry":{"x":170435.25,"y":2540192.1400000006}},{"attributes":{"ID":645749,"DIS_CODE":0,"TOWNNAME":"仁德區","LI":"仁和里","LIN":"5鄰","STREET":"和愛街","SECT":" ","MAREA":" ","LANE":" ","ALLEY":" ","HOUSE_NO":"９號八樓之２","E_COORD97":170435.25,"N_COORD97":2540192.1400000001,"ADDRESS":"和愛街９號八樓之２","OBJECTID":645722},"geometry":{"x":170435.25,"y":2540192.1400000006}},{"attributes":{"ID":645750,"DIS_CODE":0,"TOWNNAME":"仁德區","LI":"仁和里","LIN":"5鄰","STREET":"和愛街","SECT":" ","MAREA":" ","LANE":" ","ALLEY":" ","HOUSE_NO":"９號八樓之３","E_COORD97":170435.25,"N_COORD97":2540192.1400000001,"ADDRESS":"和愛街９號八樓之３","OBJECTID":645723},"geometry":{"x":170435.25,"y":2540192.1400000006}},{"attributes":{"ID":645751,"DIS_CODE":0,"TOWNNAME":"仁德區","LI":"仁和里","LIN":"5鄰","STREET":"和愛街","SECT":" ","MAREA":" ","LANE":" ","ALLEY":" ","HOUSE_NO":"９號八樓之５","E_COORD97":170435.25,"N_COORD97":2540192.1400000001,"ADDRESS":"和愛街９號八樓之５","OBJECTID":645724},"geometry":{"x":170435.25,"y":2540192.1400000006}},{"attributes":{"ID":645752,"DIS_CODE":0,"TOWNNAME":"仁德區","LI":"仁和里","LIN":"5鄰","STREET":"和愛街","SECT":" ","MAREA":" ","LANE":" ","ALLEY":" ","HOUSE_NO":"９號九樓之１","E_COORD97":170435.25,"N_COORD97":2540192.1400000001,"ADDRESS":"和愛街９號九樓之１","OBJECTID":645725},"geometry":{"x":170435.25,"y":2540192.1400000006}},{"attributes":{"ID":645753,"DIS_CODE":0,"TOWNNAME":"仁德區","LI":"仁和里","LIN":"5鄰","STREET":"和愛街","SECT":" ","MAREA":" ","LANE":" ","ALLEY":" ","HOUSE_NO":"９號九樓之２","E_COORD97":170435.25,"N_COORD97":2540192.1400000001,"ADDRESS":"和愛街９號九樓之２","OBJECTID":645726},"geometry":{"x":170435.25,"y":2540192.1400000006}},{"attributes":{"ID":645754,"DIS_CODE":0,"TOWNNAME":"仁德區","LI":"仁和里","LIN":"5鄰","STREET":"和愛街","SECT":" ","MAREA":" ","LANE":" ","ALLEY":" ","HOUSE_NO":"９號九樓之３","E_COORD97":170435.25,"N_COORD97":2540192.1400000001,"ADDRESS":"和愛街９號九樓之３","OBJECTID":645727},"geometry":{"x":170435.25,"y":2540192.1400000006}},{"attributes":{"ID":645755,"DIS_CODE":0,"TOWNNAME":"仁德區","LI":"仁和里","LIN":"5鄰","STREET":"和愛街","SECT":" ","MAREA":" ","LANE":" ","ALLEY":" ","HOUSE_NO":"９號九樓之５","E_COORD97":170435.25,"N_COORD97":2540192.1400000001,"ADDRESS":"和愛街９號九樓之５","OBJECTID":645728},"geometry":{"x":170435.25,"y":2540192.1400000006}},{"attributes":{"ID":645756,"DIS_CODE":0,"TOWNNAME":"仁德區","LI":"仁和里","LIN":"5鄰","STREET":"和愛街","SECT":" ","MAREA":" ","LANE":" ","ALLEY":" ","HOUSE_NO":"９號十樓之１","E_COORD97":170435.25,"N_COORD97":2540192.1400000001,"ADDRESS":"和愛街９號十樓之１","OBJECTID":645729},"geometry":{"x":170435.25,"y":2540192.1400000006}},{"attributes":{"ID":645757,"DIS_CODE":0,"TOWNNAME":"仁德區","LI":"仁和里","LIN":"5鄰","STREET":"和愛街","SECT":" ","MAREA":" ","LANE":" ","ALLEY":" ","HOUSE_NO":"９號十樓之２","E_COORD97":170435.25,"N_COORD97":2540192.1400000001,"ADDRESS":"和愛街９號十樓之２","OBJECTID":645730},"geometry":{"x":170435.25,"y":2540192.1400000006}},{"attributes":{"ID":645758,"DIS_CODE":0,"TOWNNAME":"仁德區","LI":"仁和里","LIN":"5鄰","STREET":"和愛街","SECT":" ","MAREA":" ","LANE":" ","ALLEY":" ","HOUSE_NO":"９號十樓之３","E_COORD97":170435.25,"N_COORD97":2540192.1400000001,"ADDRESS":"和愛街９號十樓之３","OBJECTID":645731},"geometry":{"x":170435.25,"y":2540192.1400000006}},{"attributes":{"ID":645759,"DIS_CODE":0,"TOWNNAME":"仁德區","LI":"仁和里","LIN":"5鄰","STREET":"和愛街","SECT":" ","MAREA":" ","LANE":" ","ALLEY":" ","HOUSE_NO":"９號十樓之５","E_COORD97":170435.25,"N_COORD97":2540192.1400000001,"ADDRESS":"和愛街９號十樓之５","OBJECTID":645732},"geometry":{"x":170435.25,"y":2540192.1400000006}},{"attributes":{"ID":645760,"DIS_CODE":0,"TOWNNAME":"仁德區","LI":"仁和里","LIN":"5鄰","STREET":"和愛街","SECT":" ","MAREA":" ","LANE":" ","ALLEY":" ","HOUSE_NO":"９號十一樓之１","E_COORD97":170435.25,"N_COORD97":2540192.1400000001,"ADDRESS":"和愛街９號十一樓之１","OBJECTID":645733},"geometry":{"x":170435.25,"y":2540192.1400000006}},{"attributes":{"ID":645761,"DIS_CODE":0,"TOWNNAME":"仁德區","LI":"仁和里","LIN":"5鄰","STREET":"和愛街","SECT":" ","MAREA":" ","LANE":" ","ALLEY":" ","HOUSE_NO":"９號十一樓之２","E_COORD97":170435.25,"N_COORD97":2540192.1400000001,"ADDRESS":"和愛街９號十一樓之２","OBJECTID":645734},"geometry":{"x":170435.25,"y":2540192.1400000006}},{"attributes":{"ID":645762,"DIS_CODE":0,"TOWNNAME":"仁德區","LI":"仁和里","LIN":"5鄰","STREET":"和愛街","SECT":" ","MAREA":" ","LANE":" ","ALLEY":" ","HOUSE_NO":"９號十一樓之３","E_COORD97":170435.25,"N_COORD97":2540192.1400000001,"ADDRESS":"和愛街９號十一樓之３","OBJECTID":645735},"geometry":{"x":170435.25,"y":2540192.1400000006}},{"attributes":{"ID":645763,"DIS_CODE":0,"TOWNNAME":"仁德區","LI":"仁和里","LIN":"5鄰","STREET":"和愛街","SECT":" ","MAREA":" ","LANE":" ","ALLEY":" ","HOUSE_NO":"９號十一樓之５","E_COORD97":170435.25,"N_COORD97":2540192.1400000001,"ADDRESS":"和愛街９號十一樓之５","OBJECTID":645736},"geometry":{"x":170435.25,"y":2540192.1400000006}},{"attributes":{"ID":645764,"DIS_CODE":0,"TOWNNAME":"仁德區","LI":"仁和里","LIN":"5鄰","STREET":"和愛街","SECT":" ","MAREA":" ","LANE":" ","ALLEY":" ","HOUSE_NO":"９號十二樓之１","E_COORD97":170435.25,"N_COORD97":2540192.1400000001,"ADDRESS":"和愛街９號十二樓之１","OBJECTID":645737},"geometry":{"x":170435.25,"y":2540192.1400000006}},{"attributes":{"ID":645765,"DIS_CODE":0,"TOWNNAME":"仁德區","LI":"仁和里","LIN":"5鄰","STREET":"和愛街","SECT":" ","MAREA":" ","LANE":" ","ALLEY":" ","HOUSE_NO":"９號十二樓之２","E_COORD97":170435.25,"N_COORD97":2540192.1400000001,"ADDRESS":"和愛街９號十二樓之２","OBJECTID":645738},"geometry":{"x":170435.25,"y":2540192.1400000006}},{"attributes":{"ID":645766,"DIS_CODE":0,"TOWNNAME":"仁德區","LI":"仁和里","LIN":"5鄰","STREET":"和愛街","SECT":" ","MAREA":" ","LANE":" ","ALLEY":" ","HOUSE_NO":"９號十二樓之３","E_COORD97":170435.25,"N_COORD97":2540192.1400000001,"ADDRESS":"和愛街９號十二樓之３","OBJECTID":645739},"geometry":{"x":170435.25,"y":2540192.1400000006}},{"attributes":{"ID":645767,"DIS_CODE":0,"TOWNNAME":"仁德區","LI":"仁和里","LIN":"5鄰","STREET":"和愛街","SECT":" ","MAREA":" ","LANE":" ","ALLEY":" ","HOUSE_NO":"９號十二樓之５","E_COORD97":170435.25,"N_COORD97":2540192.1400000001,"ADDRESS":"和愛街９號十二樓之５","OBJECTID":645740},"geometry":{"x":170435.25,"y":2540192.1400000006}},{"attributes":{"ID":645768,"DIS_CODE":0,"TOWNNAME":"仁德區","LI":"一甲里","LIN":"14鄰","STREET":"忠義路","SECT":" ","MAREA":" ","LANE":"１９９巷","ALLEY":"３３弄","HOUSE_NO":"１號","E_COORD97":174033.80442900001,"N_COORD97":2541703.2521700002,"ADDRESS":"忠義路１９９巷３３弄１號","OBJECTID":645741},"geometry":{"x":174033.80442899931,"y":2541703.252169}},{"attributes":{"ID":645769,"DIS_CODE":0,"TOWNNAME":"仁德區","LI":"仁和里","LIN":"5鄰","STREET":"和愛街","SECT":" ","MAREA":" ","LANE":" ","ALLEY":" ","HOUSE_NO":"９號十三樓之１","E_COORD97":170435.25,"N_COORD97":2540192.1400000001,"ADDRESS":"和愛街９號十三樓之１","OBJECTID":645742},"geometry":{"x":170435.25,"y":2540192.1400000006}},{"attributes":{"ID":645770,"DIS_CODE":0,"TOWNNAME":"仁德區","LI":"仁和里","LIN":"5鄰","STREET":"和愛街","SECT":" ","MAREA":" ","LANE":" ","ALLEY":" ","HOUSE_NO":"９號十三樓之２","E_COORD97":170435.25,"N_COORD97":2540192.1400000001,"ADDRESS":"和愛街９號十三樓之２","OBJECTID":645743},"geometry":{"x":170435.25,"y":2540192.1400000006}},{"attributes":{"ID":645771,"DIS_CODE":0,"TOWNNAME":"仁德區","LI":"仁和里","LIN":"5鄰","STREET":"和愛街","SECT":" ","MAREA":" ","LANE":" ","ALLEY":" ","HOUSE_NO":"９號十三樓之３","E_COORD97":170435.25,"N_COORD97":2540192.1400000001,"ADDRESS":"和愛街９號十三樓之３","OBJECTID":645744},"geometry":{"x":170435.25,"y":2540192.1400000006}},{"attributes":{"ID":645772,"DIS_CODE":0,"TOWNNAME":"仁德區","LI":"一甲里","LIN":"14鄰","STREET":"忠義路","SECT":" ","MAREA":" ","LANE":"１９９巷","ALLEY":"３３弄","HOUSE_NO":"３號","E_COORD97":174041.433123,"N_COORD97":2541707.0621699998,"ADDRESS":"忠義路１９９巷３３弄３號","OBJECTID":645745},"geometry":{"x":174041.43312299997,"y":2541707.062167}},{"attributes":{"ID":645773,"DIS_CODE":0,"TOWNNAME":"仁德區","LI":"仁和里","LIN":"5鄰","STREET":"和愛街","SECT":" ","MAREA":" ","LANE":" ","ALLEY":" ","HOUSE_NO":"９號十三樓之５","E_COORD97":170435.25,"N_COORD97":2540192.1400000001,"ADDRESS":"和愛街９號十三樓之５","OBJECTID":645746},"geometry":{"x":170435.25,"y":2540192.1400000006}},{"attributes":{"ID":645774,"DIS_CODE":0,"TOWNNAME":"仁德區","LI":"仁和里","LIN":"5鄰","STREET":"和愛街","SECT":" ","MAREA":" ","LANE":" ","ALLEY":" ","HOUSE_NO":"９號十四樓之１","E_COORD97":170435.25,"N_COORD97":2540192.1400000001,"ADDRESS":"和愛街９號十四樓之１","OBJECTID":645747},"geometry":{"x":170435.25,"y":2540192.1400000006}},{"attributes":{"ID":645775,"DIS_CODE":0,"TOWNNAME":"仁德區","LI":"一甲里","LIN":"14鄰","STREET":"忠義路","SECT":" ","MAREA":" ","LANE":"１９９巷","ALLEY":"３３弄","HOUSE_NO":"５號","E_COORD97":174050.545174,"N_COORD97":2541710.8721699999,"ADDRESS":"忠義路１９９巷３３弄５號","OBJECTID":645748},"geometry":{"x":174050.54517399985,"y":2541710.8721650001}},{"attributes":{"ID":645776,"DIS_CODE":0,"TOWNNAME":"仁德區","LI":"仁和里","LIN":"5鄰","STREET":"和愛街","SECT":" ","MAREA":" ","LANE":" ","ALLEY":" ","HOUSE_NO":"９號十四樓之２","E_COORD97":170435.25,"N_COORD97":2540192.1400000001,"ADDRESS":"和愛街９號十四樓之２","OBJECTID":645749},"geometry":{"x":170435.25,"y":2540192.1400000006}},{"attributes":{"ID":645777,"DIS_CODE":0,"TOWNNAME":"仁德區","LI":"仁和里","LIN":"5鄰","STREET":"和愛街","SECT":" ","MAREA":" ","LANE":" ","ALLEY":" ","HOUSE_NO":"９號十四樓之３","E_COORD97":170435.25,"N_COORD97":2540192.1400000001,"ADDRESS":"和愛街９號十四樓之３","OBJECTID":645750},"geometry":{"x":170435.25,"y":2540192.1400000006}},{"attributes":{"ID":645778,"DIS_CODE":0,"TOWNNAME":"仁德區","LI":"一甲里","LIN":"14鄰","STREET":"忠義路","SECT":" ","MAREA":" ","LANE":"１９９巷","ALLEY":"３３弄","HOUSE_NO":"７號","E_COORD97":174060.08104200001,"N_COORD97":2541716.3755000001,"ADDRESS":"忠義路１９９巷３３弄７號","OBJECTID":645751},"geometry":{"x":174060.08104200009,"y":2541716.3754960001}},{"attributes":{"ID":645779,"DIS_CODE":0,"TOWNNAME":"仁德區","LI":"仁和里","LIN":"5鄰","STREET":"和愛街","SECT":" ","MAREA":" ","LANE":" ","ALLEY":" ","HOUSE_NO":"９號十四樓之５","E_COORD97":170435.25,"N_COORD97":2540192.1400000001,"ADDRESS":"和愛街９號十四樓之５","OBJECTID":645752},"geometry":{"x":170435.25,"y":2540192.1400000006}},{"attributes":{"ID":645780,"DIS_CODE":0,"TOWNNAME":"仁德區","LI":"一甲里","LIN":"14鄰","STREET":"忠義路","SECT":" ","MAREA":" ","LANE":"１９９巷","ALLEY":"３３弄","HOUSE_NO":"９號","E_COORD97":174068.13355200001,"N_COORD97":2541719.97383,"ADDRESS":"忠義路１９９巷３３弄９號","OBJECTID":645753},"geometry":{"x":174068.13355200179,"y":2541719.9738270026}},{"attributes":{"ID":645781,"DIS_CODE":0,"TOWNNAME":"仁德區","LI":"一甲里","LIN":"14鄰","STREET":"忠義路","SECT":" ","MAREA":" ","LANE":"１９９巷","ALLEY":"３３弄","HOUSE_NO":"１１號","E_COORD97":174075.550338,"N_COORD97":2541724.2071600002,"ADDRESS":"忠義路１９９巷３３弄１１號","OBJECTID":645754},"geometry":{"x":174075.55033800006,"y":2541724.2071580011}},{"attributes":{"ID":645782,"DIS_CODE":0,"TOWNNAME":"仁德區","LI":"一甲里","LIN":"14鄰","STREET":"忠義路","SECT":" ","MAREA":" ","LANE":"１９９巷","ALLEY":"３３弄","HOUSE_NO":"１３號","E_COORD97":174083.60284800001,"N_COORD97":2541728.2288199998,"ADDRESS":"忠義路１９９巷３３弄１３號","OBJECTID":645755},"geometry":{"x":174083.60284799989,"y":2541728.2288230024}},{"attributes":{"ID":645783,"DIS_CODE":0,"TOWNNAME":"仁德區","LI":"一甲里","LIN":"14鄰","STREET":"忠義路","SECT":" ","MAREA":" ","LANE":"１９９巷","ALLEY":"３３弄","HOUSE_NO":"２號","E_COORD97":174035.075878,"N_COORD97":2541697.5371699999,"ADDRESS":"忠義路１９９巷３３弄２號","OBJECTID":645756},"geometry":{"x":174035.07587799989,"y":2541697.5371720009}},{"attributes":{"ID":645784,"DIS_CODE":0,"TOWNNAME":"仁德區","LI":"仁和里","LIN":"6鄰","STREET":"和愛街","SECT":" ","MAREA":" ","LANE":" ","ALLEY":" ","HOUSE_NO":"１１號一樓之１","E_COORD97":170462.35000000001,"N_COORD97":2540172.6600000001,"ADDRESS":"和愛街１１號一樓之１","OBJECTID":645757},"geometry":{"x":170462.35000000056,"y":2540172.660000002}},{"attributes":{"ID":645785,"DIS_CODE":0,"TOWNNAME":"仁德區","LI":"仁和里","LIN":"6鄰","STREET":"和愛街","SECT":" ","MAREA":" ","LANE":" ","ALLEY":" ","HOUSE_NO":"１１號一樓之２","E_COORD97":170462.35000000001,"N_COORD97":2540172.6600000001,"ADDRESS":"和愛街１１號一樓之２","OBJECTID":645758},"geometry":{"x":170462.35000000056,"y":2540172.660000002}},{"attributes":{"ID":645786,"DIS_CODE":0,"TOWNNAME":"仁德區","LI":"仁和里","LIN":"6鄰","STREET":"和愛街","SECT":" ","MAREA":" ","LANE":" ","ALLEY":" ","HOUSE_NO":"１１號一樓之３","E_COORD97":170462.35000000001,"N_COORD97":2540172.6600000001,"ADDRESS":"和愛街１１號一樓之３","OBJECTID":645759},"geometry":{"x":170462.35000000056,"y":2540172.660000002}},{"attributes":{"ID":645787,"DIS_CODE":0,"TOWNNAME":"仁德區","LI":"仁和里","LIN":"6鄰","STREET":"和愛街","SECT":" ","MAREA":" ","LANE":" ","ALLEY":" ","HOUSE_NO":"１１號一樓之５","E_COORD97":170462.35000000001,"N_COORD97":2540172.6600000001,"ADDRESS":"和愛街１１號一樓之５","OBJECTID":645760},"geometry":{"x":170462.35000000056,"y":2540172.660000002}},{"attributes":{"ID":645788,"DIS_CODE":0,"TOWNNAME":"仁德區","LI":"一甲里","LIN":"14鄰","STREET":"忠義路","SECT":" ","MAREA":" ","LANE":"１９９巷","ALLEY":"３３弄","HOUSE_NO":"６號","E_COORD97":174042.91648000001,"N_COORD97":2541701.9821700002,"ADDRESS":"忠義路１９９巷３３弄６號","OBJECTID":645761},"geometry":{"x":174042.91648000199,"y":2541701.9821700007}},{"attributes":{"ID":645789,"DIS_CODE":0,"TOWNNAME":"仁德區","LI":"一甲里","LIN":"14鄰","STREET":"忠義路","SECT":" ","MAREA":" ","LANE":"１９９巷","ALLEY":"３３弄","HOUSE_NO":"８號","E_COORD97":174052.45234700001,"N_COORD97":2541705.5805000002,"ADDRESS":"忠義路１９９巷３３弄８號","OBJECTID":645762},"geometry":{"x":174052.45234700013,"y":2541705.5805009995}},{"attributes":{"ID":645790,"DIS_CODE":0,"TOWNNAME":"仁德區","LI":"一甲里","LIN":"14鄰","STREET":"忠義路","SECT":" ","MAREA":" ","LANE":"１９９巷","ALLEY":"３３弄","HOUSE_NO":"１０號","E_COORD97":174061.14058199999,"N_COORD97":2541708.7555,"ADDRESS":"忠義路１９９巷３３弄１０號","OBJECTID":645763},"geometry":{"x":174061.14058200084,"y":2541708.7555000018}},{"attributes":{"ID":645791,"DIS_CODE":0,"TOWNNAME":"仁德區","LI":"仁和里","LIN":"6鄰","STREET":"和愛街","SECT":" ","MAREA":" ","LANE":" ","ALLEY":" ","HOUSE_NO":"１１號二樓之１","E_COORD97":170462.35000000001,"N_COORD97":2540172.6600000001,"ADDRESS":"和愛街１１號二樓之１","OBJECTID":645764},"geometry":{"x":170462.35000000056,"y":2540172.660000002}},{"attributes":{"ID":645792,"DIS_CODE":0,"TOWNNAME":"仁德區","LI":"仁和里","LIN":"6鄰","STREET":"和愛街","SECT":" ","MAREA":" ","LANE":" ","ALLEY":" ","HOUSE_NO":"１１號二樓之２","E_COORD97":170462.35000000001,"N_COORD97":2540172.6600000001,"ADDRESS":"和愛街１１號二樓之２","OBJECTID":645765},"geometry":{"x":170462.35000000056,"y":2540172.660000002}},{"attributes":{"ID":645793,"DIS_CODE":0,"TOWNNAME":"仁德區","LI":"一甲里","LIN":"14鄰","STREET":"忠義路","SECT":" ","MAREA":" ","LANE":"１９９巷","ALLEY":"３３弄","HOUSE_NO":"１２號","E_COORD97":174069.19309300001,"N_COORD97":2541713.8355,"ADDRESS":"忠義路１９９巷３３弄１２號","OBJECTID":645766},"geometry":{"x":174069.19309299998,"y":2541713.8354970012}},{"attributes":{"ID":645794,"DIS_CODE":0,"TOWNNAME":"仁德區","LI":"仁和里","LIN":"6鄰","STREET":"和愛街","SECT":" ","MAREA":" ","LANE":" ","ALLEY":" ","HOUSE_NO":"１１號二樓之３","E_COORD97":170462.35000000001,"N_COORD97":2540172.6600000001,"ADDRESS":"和愛街１１號二樓之３","OBJECTID":645767},"geometry":{"x":170462.35000000056,"y":2540172.660000002}},{"attributes":{"ID":645795,"DIS_CODE":0,"TOWNNAME":"仁德區","LI":"仁和里","LIN":"6鄰","STREET":"和愛街","SECT":" ","MAREA":" ","LANE":" ","ALLEY":" ","HOUSE_NO":"１１號二樓之５","E_COORD97":170462.35000000001,"N_COORD97":2540172.6600000001,"ADDRESS":"和愛街１１號二樓之５","OBJECTID":645768},"geometry":{"x":170462.35000000056,"y":2540172.660000002}},{"attributes":{"ID":645796,"DIS_CODE":0,"TOWNNAME":"仁德區","LI":"一甲里","LIN":"14鄰","STREET":"忠義路","SECT":" ","MAREA":" ","LANE":"１９９巷","ALLEY":"３３弄","HOUSE_NO":"１６號","E_COORD97":174078.51705200001,"N_COORD97":2541717.8571600001,"ADDRESS":"忠義路１９９巷３３弄１６號","OBJECTID":645769},"geometry":{"x":174078.51705200039,"y":2541717.8571620025}},{"attributes":{"ID":645797,"DIS_CODE":0,"TOWNNAME":"仁德區","LI":"仁和里","LIN":"6鄰","STREET":"和愛街","SECT":" ","MAREA":" ","LANE":" ","ALLEY":" ","HOUSE_NO":"１１號三樓之１","E_COORD97":170462.35000000001,"N_COORD97":2540172.6600000001,"ADDRESS":"和愛街１１號三樓之１","OBJECTID":645770},"geometry":{"x":170462.35000000056,"y":2540172.660000002}},{"attributes":{"ID":645798,"DIS_CODE":0,"TOWNNAME":"仁德區","LI":"仁和里","LIN":"6鄰","STREET":"和愛街","SECT":" ","MAREA":" ","LANE":" ","ALLEY":" ","HOUSE_NO":"１１號三樓之２","E_COORD97":170462.35000000001,"N_COORD97":2540172.6600000001,"ADDRESS":"和愛街１１號三樓之２","OBJECTID":645771},"geometry":{"x":170462.35000000056,"y":2540172.660000002}},{"attributes":{"ID":645799,"DIS_CODE":0,"TOWNNAME":"仁德區","LI":"仁和里","LIN":"6鄰","STREET":"和愛街","SECT":" ","MAREA":" ","LANE":" ","ALLEY":" ","HOUSE_NO":"１１號三樓之３","E_COORD97":170462.35000000001,"N_COORD97":2540172.6600000001,"ADDRESS":"和愛街１１號三樓之３","OBJECTID":645772},"geometry":{"x":170462.35000000056,"y":2540172.660000002}},{"attributes":{"ID":645800,"DIS_CODE":0,"TOWNNAME":"仁德區","LI":"一甲里","LIN":"14鄰","STREET":"忠義路","SECT":" ","MAREA":" ","LANE":"１９９巷","ALLEY":"３５弄","HOUSE_NO":"１號","E_COORD97":174037.83068399999,"N_COORD97":2541686.53051,"ADDRESS":"忠義路１９９巷３５弄１號","OBJECTID":645773},"geometry":{"x":174037.83068400063,"y":2541686.5305120014}},{"attributes":{"ID":645801,"DIS_CODE":0,"TOWNNAME":"仁德區","LI":"仁和里","LIN":"6鄰","STREET":"和愛街","SECT":" ","MAREA":" ","LANE":" ","ALLEY":" ","HOUSE_NO":"１１號三樓之５","E_COORD97":170462.35000000001,"N_COORD97":2540172.6600000001,"ADDRESS":"和愛街１１號三樓之５","OBJECTID":645774},"geometry":{"x":170462.35000000056,"y":2540172.660000002}},{"attributes":{"ID":645802,"DIS_CODE":0,"TOWNNAME":"仁德區","LI":"仁和里","LIN":"6鄰","STREET":"和愛街","SECT":" ","MAREA":" ","LANE":" ","ALLEY":" ","HOUSE_NO":"１１號四樓之１","E_COORD97":170462.35000000001,"N_COORD97":2540172.6600000001,"ADDRESS":"和愛街１１號四樓之１","OBJECTID":645775},"geometry":{"x":170462.35000000056,"y":2540172.660000002}},{"attributes":{"ID":645803,"DIS_CODE":0,"TOWNNAME":"仁德區","LI":"一甲里","LIN":"14鄰","STREET":"忠義路","SECT":" ","MAREA":" ","LANE":"１９９巷","ALLEY":"３５弄","HOUSE_NO":"３號","E_COORD97":174045.671286,"N_COORD97":2541691.8221800001,"ADDRESS":"忠義路１９９巷３５弄３號","OBJECTID":645776},"geometry":{"x":174045.67128600087,"y":2541691.822176002}},{"attributes":{"ID":645804,"DIS_CODE":0,"TOWNNAME":"仁德區","LI":"仁和里","LIN":"6鄰","STREET":"和愛街","SECT":" ","MAREA":" ","LANE":" ","ALLEY":" ","HOUSE_NO":"１１號四樓之２","E_COORD97":170462.35000000001,"N_COORD97":2540172.6600000001,"ADDRESS":"和愛街１１號四樓之２","OBJECTID":645777},"geometry":{"x":170462.35000000056,"y":2540172.660000002}},{"attributes":{"ID":645805,"DIS_CODE":0,"TOWNNAME":"仁德區","LI":"仁和里","LIN":"6鄰","STREET":"和愛街","SECT":" ","MAREA":" ","LANE":" ","ALLEY":" ","HOUSE_NO":"１１號四樓之３","E_COORD97":170462.35000000001,"N_COORD97":2540172.6600000001,"ADDRESS":"和愛街１１號四樓之３","OBJECTID":645778},"geometry":{"x":170462.35000000056,"y":2540172.660000002}},{"attributes":{"ID":645806,"DIS_CODE":0,"TOWNNAME":"仁德區","LI":"仁和里","LIN":"6鄰","STREET":"和愛街","SECT":" ","MAREA":" ","LANE":" ","ALLEY":" ","HOUSE_NO":"１１號四樓之５","E_COORD97":170462.35000000001,"N_COORD97":2540172.6600000001,"ADDRESS":"和愛街１１號四樓之５","OBJECTID":645779},"geometry":{"x":170462.35000000056,"y":2540172.660000002}},{"attributes":{"ID":645807,"DIS_CODE":0,"TOWNNAME":"仁德區","LI":"一甲里","LIN":"14鄰","STREET":"忠義路","SECT":" ","MAREA":" ","LANE":"１９９巷","ALLEY":"３５弄","HOUSE_NO":"５號","E_COORD97":174054.571429,"N_COORD97":2541696.47884,"ADDRESS":"忠義路１９９巷３５弄５號","OBJECTID":645780},"geometry":{"x":174054.57142900117,"y":2541696.4788400028}},{"attributes":{"ID":645808,"DIS_CODE":0,"TOWNNAME":"仁德區","LI":"仁和里","LIN":"6鄰","STREET":"和愛街","SECT":" ","MAREA":" ","LANE":" ","ALLEY":" ","HOUSE_NO":"１１號五樓之１","E_COORD97":170462.35000000001,"N_COORD97":2540172.6600000001,"ADDRESS":"和愛街１１號五樓之１","OBJECTID":645781},"geometry":{"x":170462.35000000056,"y":2540172.660000002}},{"attributes":{"ID":645809,"DIS_CODE":0,"TOWNNAME":"仁德區","LI":"仁和里","LIN":"6鄰","STREET":"和愛街","SECT":" ","MAREA":" ","LANE":" ","ALLEY":" ","HOUSE_NO":"１１號五樓之２","E_COORD97":170462.35000000001,"N_COORD97":2540172.6600000001,"ADDRESS":"和愛街１１號五樓之２","OBJECTID":645782},"geometry":{"x":170462.35000000056,"y":2540172.660000002}},{"attributes":{"ID":645810,"DIS_CODE":0,"TOWNNAME":"仁德區","LI":"仁和里","LIN":"6鄰","STREET":"和愛街","SECT":" ","MAREA":" ","LANE":" ","ALLEY":" ","HOUSE_NO":"１１號五樓之３","E_COORD97":170462.35000000001,"N_COORD97":2540172.6600000001,"ADDRESS":"和愛街１１號五樓之３","OBJECTID":645783},"geometry":{"x":170462.35000000056,"y":2540172.660000002}},{"attributes":{"ID":645811,"DIS_CODE":0,"TOWNNAME":"仁德區","LI":"一甲里","LIN":"14鄰","STREET":"忠義路","SECT":" ","MAREA":" ","LANE":"１９９巷","ALLEY":"３５弄","HOUSE_NO":"７號","E_COORD97":174063.25966400001,"N_COORD97":2541700.5005000001,"ADDRESS":"忠義路１９９巷３５弄７號","OBJECTID":645784},"geometry":{"x":174063.25966400001,"y":2541700.5005040001}},{"attributes":{"ID":645812,"DIS_CODE":0,"TOWNNAME":"仁德區","LI":"仁和里","LIN":"6鄰","STREET":"和愛街","SECT":" ","MAREA":" ","LANE":" ","ALLEY":" ","HOUSE_NO":"１１號五樓之５","E_COORD97":170462.35000000001,"N_COORD97":2540172.6600000001,"ADDRESS":"和愛街１１號五樓之５","OBJECTID":645785},"geometry":{"x":170462.35000000056,"y":2540172.660000002}},{"attributes":{"ID":645813,"DIS_CODE":0,"TOWNNAME":"仁德區","LI":"仁和里","LIN":"6鄰","STREET":"和愛街","SECT":" ","MAREA":" ","LANE":" ","ALLEY":" ","HOUSE_NO":"１１號六樓之１","E_COORD97":170462.35000000001,"N_COORD97":2540172.6600000001,"ADDRESS":"和愛街１１號六樓之１","OBJECTID":645786},"geometry":{"x":170462.35000000056,"y":2540172.660000002}},{"attributes":{"ID":645814,"DIS_CODE":0,"TOWNNAME":"仁德區","LI":"一甲里","LIN":"14鄰","STREET":"忠義路","SECT":" ","MAREA":" ","LANE":"１９９巷","ALLEY":"３５弄","HOUSE_NO":"９號","E_COORD97":174072.15980699999,"N_COORD97":2541705.3688300001,"ADDRESS":"忠義路１９９巷３５弄９號","OBJECTID":645787},"geometry":{"x":174072.15980700031,"y":2541705.3688350022}},{"attributes":{"ID":645815,"DIS_CODE":0,"TOWNNAME":"仁德區","LI":"仁和里","LIN":"6鄰","STREET":"和愛街","SECT":" ","MAREA":" ","LANE":" ","ALLEY":" ","HOUSE_NO":"１１號六樓之２","E_COORD97":170462.35000000001,"N_COORD97":2540172.6600000001,"ADDRESS":"和愛街１１號六樓之２","OBJECTID":645788},"geometry":{"x":170462.35000000056,"y":2540172.660000002}},{"attributes":{"ID":645816,"DIS_CODE":0,"TOWNNAME":"仁德區","LI":"仁和里","LIN":"6鄰","STREET":"和愛街","SECT":" ","MAREA":" ","LANE":" ","ALLEY":" ","HOUSE_NO":"１１號六樓之３","E_COORD97":170462.35000000001,"N_COORD97":2540172.6600000001,"ADDRESS":"和愛街１１號六樓之３","OBJECTID":645789},"geometry":{"x":170462.35000000056,"y":2540172.660000002}},{"attributes":{"ID":645817,"DIS_CODE":0,"TOWNNAME":"仁德區","LI":"仁和里","LIN":"6鄰","STREET":"和愛街","SECT":" ","MAREA":" ","LANE":" ","ALLEY":" ","HOUSE_NO":"１１號六樓之５","E_COORD97":170462.35000000001,"N_COORD97":2540172.6600000001,"ADDRESS":"和愛街１１號六樓之５","OBJECTID":645790},"geometry":{"x":170462.35000000056,"y":2540172.660000002}},{"attributes":{"ID":645818,"DIS_CODE":0,"TOWNNAME":"仁德區","LI":"一甲里","LIN":"14鄰","STREET":"忠義路","SECT":" ","MAREA":" ","LANE":"１９９巷","ALLEY":"３５弄","HOUSE_NO":"２號","E_COORD97":174040.161674,"N_COORD97":2541680.39218,"ADDRESS":"忠義路１９９巷３５弄２號","OBJECTID":645791},"geometry":{"x":174040.16167400032,"y":2541680.392182}},{"attributes":{"ID":645819,"DIS_CODE":0,"TOWNNAME":"仁德區","LI":"仁和里","LIN":"6鄰","STREET":"和愛街","SECT":" ","MAREA":" ","LANE":" ","ALLEY":" ","HOUSE_NO":"１１號七樓之１","E_COORD97":170462.35000000001,"N_COORD97":2540172.6600000001,"ADDRESS":"和愛街１１號七樓之１","OBJECTID":645792},"geometry":{"x":170462.35000000056,"y":2540172.660000002}},{"attributes":{"ID":645820,"DIS_CODE":0,"TOWNNAME":"仁德區","LI":"仁和里","LIN":"6鄰","STREET":"和愛街","SECT":" ","MAREA":" ","LANE":" ","ALLEY":" ","HOUSE_NO":"１１號七樓之２","E_COORD97":170462.35000000001,"N_COORD97":2540172.6600000001,"ADDRESS":"和愛街１１號七樓之２","OBJECTID":645793},"geometry":{"x":170462.35000000056,"y":2540172.660000002}},{"attributes":{"ID":645821,"DIS_CODE":0,"TOWNNAME":"仁德區","LI":"一甲里","LIN":"14鄰","STREET":"忠義路","SECT":" ","MAREA":" ","LANE":"１９９巷","ALLEY":"３５弄","HOUSE_NO":"６號","E_COORD97":174048.21418400001,"N_COORD97":2541685.2605099999,"ADDRESS":"忠義路１９９巷３５弄６號","OBJECTID":645794},"geometry":{"x":174048.21418400016,"y":2541685.2605120018}},{"attributes":{"ID":645822,"DIS_CODE":0,"TOWNNAME":"仁德區","LI":"一甲里","LIN":"14鄰","STREET":"忠義路","SECT":" ","MAREA":" ","LANE":"１９９巷","ALLEY":"３５弄","HOUSE_NO":"８號","E_COORD97":174058.38577600001,"N_COORD97":2541690.7638400001,"ADDRESS":"忠義路１９９巷３５弄８號","OBJECTID":645795},"geometry":{"x":174058.3857760001,"y":2541690.7638429999}},{"attributes":{"ID":645823,"DIS_CODE":0,"TOWNNAME":"仁德區","LI":"一甲里","LIN":"14鄰","STREET":"忠義路","SECT":" ","MAREA":" ","LANE":"１９９巷","ALLEY":" ","HOUSE_NO":"３７號","E_COORD97":174045.671286,"N_COORD97":2541674.78302,"ADDRESS":"忠義路１９９巷３７號","OBJECTID":645796},"geometry":{"x":174045.67128600087,"y":2541674.7830180023}},{"attributes":{"ID":645824,"DIS_CODE":0,"TOWNNAME":"仁德區","LI":"一甲里","LIN":"14鄰","STREET":"忠義路","SECT":" ","MAREA":" ","LANE":"１９９巷","ALLEY":" ","HOUSE_NO":"３９號","E_COORD97":174048.42609200001,"N_COORD97":2541664.8346899999,"ADDRESS":"忠義路１９９巷３９號","OBJECTID":645797},"geometry":{"x":174048.42609199882,"y":2541664.8346900009}},{"attributes":{"ID":645825,"DIS_CODE":0,"TOWNNAME":"仁德區","LI":"仁和里","LIN":"6鄰","STREET":"和愛街","SECT":" ","MAREA":" ","LANE":" ","ALLEY":" ","HOUSE_NO":"１１號七樓之３","E_COORD97":170462.35000000001,"N_COORD97":2540172.6600000001,"ADDRESS":"和愛街１１號七樓之３","OBJECTID":645798},"geometry":{"x":170462.35000000056,"y":2540172.660000002}},{"attributes":{"ID":645826,"DIS_CODE":0,"TOWNNAME":"仁德區","LI":"仁和里","LIN":"6鄰","STREET":"和愛街","SECT":" ","MAREA":" ","LANE":" ","ALLEY":" ","HOUSE_NO":"１１號七樓之５","E_COORD97":170462.35000000001,"N_COORD97":2540172.6600000001,"ADDRESS":"和愛街１１號七樓之５","OBJECTID":645799},"geometry":{"x":170462.35000000056,"y":2540172.660000002}},{"attributes":{"ID":645827,"DIS_CODE":0,"TOWNNAME":"仁德區","LI":"仁和里","LIN":"6鄰","STREET":"和愛街","SECT":" ","MAREA":" ","LANE":" ","ALLEY":" ","HOUSE_NO":"１１號八樓之１","E_COORD97":170462.35000000001,"N_COORD97":2540172.6600000001,"ADDRESS":"和愛街１１號八樓之１","OBJECTID":645800},"geometry":{"x":170462.35000000056,"y":2540172.660000002}}]}