{"displayFieldName":"TOWNNAME","fieldAliases":{"ID":"ID","DIS_CODE":"DIS_CODE","TOWNNAME":"TOWNNAME","LI":"LI","LIN":"LIN","STREET":"STREET","SECT":"SECT","MAREA":"MAREA","LANE":"LANE","ALLEY":"ALLEY","HOUSE_NO":"HOUSE_NO","E_COORD97":"E_COORD97","N_COORD97":"N_COORD97","ADDRESS":"ADDRESS","OBJECTID":"OBJECTID"},"geometryType":"esriGeometryPoint","spatialReference":{"wkid":102443,"latestWkid":3826},"fields":[{"name":"ID","type":"esriFieldTypeDouble","alias":"ID"},{"name":"DIS_CODE","type":"esriFieldTypeInteger","alias":"DIS_CODE"},{"name":"TOWNNAME","type":"esriFieldTypeString","alias":"TOWNNAME","length":8},{"name":"LI","type":"esriFieldTypeString","alias":"LI","length":8},{"name":"LIN","type":"esriFieldTypeString","alias":"LIN","length":12},{"name":"STREET","type":"esriFieldTypeString","alias":"STREET","length":20},{"name":"SECT","type":"esriFieldTypeString","alias":"SECT","length":8},{"name":"MAREA","type":"esriFieldTypeString","alias":"MAREA","length":12},{"name":"LANE","type":"esriFieldTypeString","alias":"LANE","length":10},{"name":"ALLEY","type":"esriFieldTypeString","alias":"ALLEY","length":10},{"name":"HOUSE_NO","type":"esriFieldTypeString","alias":"HOUSE_NO","length":20},{"name":"E_COORD97","type":"esriFieldTypeDouble","alias":"E_COORD97"},{"name":"N_COORD97","type":"esriFieldTypeDouble","alias":"N_COORD97"},{"name":"ADDRESS","type":"esriFieldTypeString","alias":"ADDRESS","length":50},{"name":"OBJECTID","type":"esriFieldTypeOID","alias":"OBJECTID"}],"features":[{"attributes":{"ID":479426,"DIS_CODE":0,"TOWNNAME":"東區","LI":"富裕里","LIN":"20鄰","STREET":"東門路","SECT":"二段","MAREA":" ","LANE":" ","ALLEY":" ","HOUSE_NO":"２９７號九樓之１","E_COORD97":170713.95999999999,"N_COORD97":2542674.9399999999,"ADDRESS":"東門路二段２９７號九樓之１","OBJECTID":479401},"geometry":{"x":170713.96000000183,"y":2542674.9400000032}},{"attributes":{"ID":479427,"DIS_CODE":0,"TOWNNAME":"東區","LI":"富裕里","LIN":"20鄰","STREET":"東門路","SECT":"二段","MAREA":" ","LANE":" ","ALLEY":" ","HOUSE_NO":"２９７號八樓","E_COORD97":170713.95999999999,"N_COORD97":2542674.9399999999,"ADDRESS":"東門路二段２９７號八樓","OBJECTID":479402},"geometry":{"x":170713.96000000183,"y":2542674.9400000032}},{"attributes":{"ID":479428,"DIS_CODE":0,"TOWNNAME":"東區","LI":"富裕里","LIN":"20鄰","STREET":"東門路","SECT":"二段","MAREA":" ","LANE":" ","ALLEY":" ","HOUSE_NO":"２９７號八樓之１","E_COORD97":170713.95999999999,"N_COORD97":2542674.9399999999,"ADDRESS":"東門路二段２９７號八樓之１","OBJECTID":479403},"geometry":{"x":170713.96000000183,"y":2542674.9400000032}},{"attributes":{"ID":479429,"DIS_CODE":0,"TOWNNAME":"東區","LI":"富裕里","LIN":"20鄰","STREET":"東門路","SECT":"二段","MAREA":" ","LANE":" ","ALLEY":" ","HOUSE_NO":"２９７號十一樓","E_COORD97":170713.95999999999,"N_COORD97":2542674.9399999999,"ADDRESS":"東門路二段２９７號十一樓","OBJECTID":479404},"geometry":{"x":170713.96000000183,"y":2542674.9400000032}},{"attributes":{"ID":479430,"DIS_CODE":0,"TOWNNAME":"東區","LI":"富裕里","LIN":"20鄰","STREET":"東門路","SECT":"二段","MAREA":" ","LANE":" ","ALLEY":" ","HOUSE_NO":"２９７號十一樓之１","E_COORD97":170713.95999999999,"N_COORD97":2542674.9399999999,"ADDRESS":"東門路二段２９７號十一樓之１","OBJECTID":479405},"geometry":{"x":170713.96000000183,"y":2542674.9400000032}},{"attributes":{"ID":479431,"DIS_CODE":0,"TOWNNAME":"東區","LI":"富裕里","LIN":"20鄰","STREET":"東門路","SECT":"二段","MAREA":" ","LANE":" ","ALLEY":" ","HOUSE_NO":"２９７號十二樓","E_COORD97":170713.95999999999,"N_COORD97":2542674.9399999999,"ADDRESS":"東門路二段２９７號十二樓","OBJECTID":479406},"geometry":{"x":170713.96000000183,"y":2542674.9400000032}},{"attributes":{"ID":479432,"DIS_CODE":0,"TOWNNAME":"東區","LI":"富裕里","LIN":"20鄰","STREET":"東門路","SECT":"二段","MAREA":" ","LANE":" ","ALLEY":" ","HOUSE_NO":"２９７號十二樓之１","E_COORD97":170713.95999999999,"N_COORD97":2542674.9399999999,"ADDRESS":"東門路二段２９７號十二樓之１","OBJECTID":479407},"geometry":{"x":170713.96000000183,"y":2542674.9400000032}},{"attributes":{"ID":479433,"DIS_CODE":0,"TOWNNAME":"新營區","LI":"三仙里","LIN":"4鄰","STREET":"復興路","SECT":" ","MAREA":" ","LANE":" ","ALLEY":" ","HOUSE_NO":"５４號","E_COORD97":179592.38,"N_COORD97":2578063,"ADDRESS":"復興路５４號","OBJECTID":479408},"geometry":{"x":179592.38000000082,"y":2578063}},{"attributes":{"ID":479434,"DIS_CODE":0,"TOWNNAME":"東區","LI":"富裕里","LIN":"20鄰","STREET":"東門路","SECT":"二段","MAREA":" ","LANE":" ","ALLEY":" ","HOUSE_NO":"２９７號十三樓","E_COORD97":170713.95999999999,"N_COORD97":2542674.9399999999,"ADDRESS":"東門路二段２９７號十三樓","OBJECTID":479409},"geometry":{"x":170713.96000000183,"y":2542674.9400000032}},{"attributes":{"ID":479435,"DIS_CODE":0,"TOWNNAME":"東區","LI":"富裕里","LIN":"20鄰","STREET":"東門路","SECT":"二段","MAREA":" ","LANE":" ","ALLEY":" ","HOUSE_NO":"２９７號十三樓之１","E_COORD97":170713.95999999999,"N_COORD97":2542674.9399999999,"ADDRESS":"東門路二段２９７號十三樓之１","OBJECTID":479410},"geometry":{"x":170713.96000000183,"y":2542674.9400000032}},{"attributes":{"ID":479436,"DIS_CODE":0,"TOWNNAME":"東區","LI":"富裕里","LIN":"20鄰","STREET":"東門路","SECT":"二段","MAREA":" ","LANE":" ","ALLEY":" ","HOUSE_NO":"２９７號十四樓","E_COORD97":170713.95999999999,"N_COORD97":2542674.9399999999,"ADDRESS":"東門路二段２９７號十四樓","OBJECTID":479411},"geometry":{"x":170713.96000000183,"y":2542674.9400000032}},{"attributes":{"ID":479437,"DIS_CODE":0,"TOWNNAME":"東區","LI":"富裕里","LIN":"20鄰","STREET":"東門路","SECT":"二段","MAREA":" ","LANE":" ","ALLEY":" ","HOUSE_NO":"２９７號十樓","E_COORD97":170713.95999999999,"N_COORD97":2542674.9399999999,"ADDRESS":"東門路二段２９７號十樓","OBJECTID":479412},"geometry":{"x":170713.96000000183,"y":2542674.9400000032}},{"attributes":{"ID":479438,"DIS_CODE":0,"TOWNNAME":"東區","LI":"富裕里","LIN":"20鄰","STREET":"東門路","SECT":"二段","MAREA":" ","LANE":" ","ALLEY":" ","HOUSE_NO":"２９７號十樓之１","E_COORD97":170713.95999999999,"N_COORD97":2542674.9399999999,"ADDRESS":"東門路二段２９７號十樓之１","OBJECTID":479413},"geometry":{"x":170713.96000000183,"y":2542674.9400000032}},{"attributes":{"ID":479439,"DIS_CODE":0,"TOWNNAME":"東區","LI":"富裕里","LIN":"20鄰","STREET":"東門路","SECT":"二段","MAREA":" ","LANE":" ","ALLEY":" ","HOUSE_NO":"２９７號三樓","E_COORD97":170713.95999999999,"N_COORD97":2542674.9399999999,"ADDRESS":"東門路二段２９７號三樓","OBJECTID":479414},"geometry":{"x":170713.96000000183,"y":2542674.9400000032}},{"attributes":{"ID":479440,"DIS_CODE":0,"TOWNNAME":"東區","LI":"富裕里","LIN":"20鄰","STREET":"東門路","SECT":"二段","MAREA":" ","LANE":" ","ALLEY":" ","HOUSE_NO":"２９７號三樓之１","E_COORD97":170713.95999999999,"N_COORD97":2542674.9399999999,"ADDRESS":"東門路二段２９７號三樓之１","OBJECTID":479415},"geometry":{"x":170713.96000000183,"y":2542674.9400000032}},{"attributes":{"ID":479441,"DIS_CODE":0,"TOWNNAME":"東區","LI":"富裕里","LIN":"20鄰","STREET":"東門路","SECT":"二段","MAREA":" ","LANE":" ","ALLEY":" ","HOUSE_NO":"２９７號五樓","E_COORD97":170713.95999999999,"N_COORD97":2542674.9399999999,"ADDRESS":"東門路二段２９７號五樓","OBJECTID":479416},"geometry":{"x":170713.96000000183,"y":2542674.9400000032}},{"attributes":{"ID":479442,"DIS_CODE":0,"TOWNNAME":"東區","LI":"富裕里","LIN":"20鄰","STREET":"東門路","SECT":"二段","MAREA":" ","LANE":" ","ALLEY":" ","HOUSE_NO":"２９７號五樓之１","E_COORD97":170713.95999999999,"N_COORD97":2542674.9399999999,"ADDRESS":"東門路二段２９７號五樓之１","OBJECTID":479417},"geometry":{"x":170713.96000000183,"y":2542674.9400000032}},{"attributes":{"ID":479443,"DIS_CODE":0,"TOWNNAME":"東區","LI":"富裕里","LIN":"20鄰","STREET":"東門路","SECT":"二段","MAREA":" ","LANE":" ","ALLEY":" ","HOUSE_NO":"２９７號六樓","E_COORD97":170713.95999999999,"N_COORD97":2542674.9399999999,"ADDRESS":"東門路二段２９７號六樓","OBJECTID":479418},"geometry":{"x":170713.96000000183,"y":2542674.9400000032}},{"attributes":{"ID":479444,"DIS_CODE":0,"TOWNNAME":"東區","LI":"富裕里","LIN":"20鄰","STREET":"東門路","SECT":"二段","MAREA":" ","LANE":" ","ALLEY":" ","HOUSE_NO":"２９７號六樓之１","E_COORD97":170713.95999999999,"N_COORD97":2542674.9399999999,"ADDRESS":"東門路二段２９７號六樓之１","OBJECTID":479419},"geometry":{"x":170713.96000000183,"y":2542674.9400000032}},{"attributes":{"ID":479445,"DIS_CODE":0,"TOWNNAME":"東區","LI":"富裕里","LIN":"20鄰","STREET":"東門路","SECT":"二段","MAREA":" ","LANE":" ","ALLEY":" ","HOUSE_NO":"２９７號四樓","E_COORD97":170713.95999999999,"N_COORD97":2542674.9399999999,"ADDRESS":"東門路二段２９７號四樓","OBJECTID":479420},"geometry":{"x":170713.96000000183,"y":2542674.9400000032}},{"attributes":{"ID":479446,"DIS_CODE":0,"TOWNNAME":"東區","LI":"富裕里","LIN":"20鄰","STREET":"東門路","SECT":"二段","MAREA":" ","LANE":" ","ALLEY":" ","HOUSE_NO":"２９７號四樓之１","E_COORD97":170713.95999999999,"N_COORD97":2542674.9399999999,"ADDRESS":"東門路二段２９７號四樓之１","OBJECTID":479421},"geometry":{"x":170713.96000000183,"y":2542674.9400000032}},{"attributes":{"ID":479447,"DIS_CODE":0,"TOWNNAME":"東區","LI":"富裕里","LIN":"20鄰","STREET":"裕豐街","SECT":" ","MAREA":" ","LANE":" ","ALLEY":" ","HOUSE_NO":"１０號七樓","E_COORD97":170765.85000000001,"N_COORD97":2542700.8300000001,"ADDRESS":"裕豐街１０號七樓","OBJECTID":479422},"geometry":{"x":170765.85000000056,"y":2542700.8300000019}},{"attributes":{"ID":479448,"DIS_CODE":0,"TOWNNAME":"東區","LI":"富裕里","LIN":"20鄰","STREET":"裕豐街","SECT":" ","MAREA":" ","LANE":" ","ALLEY":" ","HOUSE_NO":"１０號九樓","E_COORD97":170765.85000000001,"N_COORD97":2542700.8300000001,"ADDRESS":"裕豐街１０號九樓","OBJECTID":479423},"geometry":{"x":170765.85000000056,"y":2542700.8300000019}},{"attributes":{"ID":479449,"DIS_CODE":0,"TOWNNAME":"東區","LI":"富裕里","LIN":"20鄰","STREET":"裕豐街","SECT":" ","MAREA":" ","LANE":" ","ALLEY":" ","HOUSE_NO":"１０號八樓","E_COORD97":170765.85000000001,"N_COORD97":2542700.8300000001,"ADDRESS":"裕豐街１０號八樓","OBJECTID":479424},"geometry":{"x":170765.85000000056,"y":2542700.8300000019}},{"attributes":{"ID":479450,"DIS_CODE":0,"TOWNNAME":"東區","LI":"富裕里","LIN":"20鄰","STREET":"裕豐街","SECT":" ","MAREA":" ","LANE":" ","ALLEY":" ","HOUSE_NO":"１０號十一樓","E_COORD97":170765.85000000001,"N_COORD97":2542700.8300000001,"ADDRESS":"裕豐街１０號十一樓","OBJECTID":479425},"geometry":{"x":170765.85000000056,"y":2542700.8300000019}},{"attributes":{"ID":479451,"DIS_CODE":0,"TOWNNAME":"東區","LI":"富裕里","LIN":"20鄰","STREET":"裕豐街","SECT":" ","MAREA":" ","LANE":" ","ALLEY":" ","HOUSE_NO":"１０號十二樓","E_COORD97":170765.85000000001,"N_COORD97":2542700.8300000001,"ADDRESS":"裕豐街１０號十二樓","OBJECTID":479426},"geometry":{"x":170765.85000000056,"y":2542700.8300000019}},{"attributes":{"ID":479452,"DIS_CODE":0,"TOWNNAME":"東區","LI":"富裕里","LIN":"20鄰","STREET":"裕豐街","SECT":" ","MAREA":" ","LANE":" ","ALLEY":" ","HOUSE_NO":"１０號十三樓","E_COORD97":170765.85000000001,"N_COORD97":2542700.8300000001,"ADDRESS":"裕豐街１０號十三樓","OBJECTID":479427},"geometry":{"x":170765.85000000056,"y":2542700.8300000019}},{"attributes":{"ID":479453,"DIS_CODE":0,"TOWNNAME":"東區","LI":"富裕里","LIN":"20鄰","STREET":"裕豐街","SECT":" ","MAREA":" ","LANE":" ","ALLEY":" ","HOUSE_NO":"１０號十四樓","E_COORD97":170765.85000000001,"N_COORD97":2542700.8300000001,"ADDRESS":"裕豐街１０號十四樓","OBJECTID":479428},"geometry":{"x":170765.85000000056,"y":2542700.8300000019}},{"attributes":{"ID":479454,"DIS_CODE":0,"TOWNNAME":"東區","LI":"富裕里","LIN":"20鄰","STREET":"裕豐街","SECT":" ","MAREA":" ","LANE":" ","ALLEY":" ","HOUSE_NO":"１０號十樓","E_COORD97":170765.85000000001,"N_COORD97":2542700.8300000001,"ADDRESS":"裕豐街１０號十樓","OBJECTID":479429},"geometry":{"x":170765.85000000056,"y":2542700.8300000019}},{"attributes":{"ID":479455,"DIS_CODE":0,"TOWNNAME":"東區","LI":"富裕里","LIN":"20鄰","STREET":"裕豐街","SECT":" ","MAREA":" ","LANE":" ","ALLEY":" ","HOUSE_NO":"１２號六樓","E_COORD97":170771.32999999999,"N_COORD97":2542705.7999999998,"ADDRESS":"裕豐街１２號六樓","OBJECTID":479430},"geometry":{"x":170771.33000000101,"y":2542705.8000000026}},{"attributes":{"ID":479456,"DIS_CODE":0,"TOWNNAME":"東區","LI":"富裕里","LIN":"20鄰","STREET":"裕豐街","SECT":" ","MAREA":" ","LANE":" ","ALLEY":" ","HOUSE_NO":"１２號四樓","E_COORD97":170771.32999999999,"N_COORD97":2542705.7999999998,"ADDRESS":"裕豐街１２號四樓","OBJECTID":479431},"geometry":{"x":170771.33000000101,"y":2542705.8000000026}},{"attributes":{"ID":479457,"DIS_CODE":0,"TOWNNAME":"東區","LI":"富裕里","LIN":"20鄰","STREET":"裕豐街","SECT":" ","MAREA":" ","LANE":" ","ALLEY":" ","HOUSE_NO":"１４號七樓","E_COORD97":170777.79999999999,"N_COORD97":2542705.7999999998,"ADDRESS":"裕豐街１４號七樓","OBJECTID":479432},"geometry":{"x":170777.80000000075,"y":2542705.8000000026}},{"attributes":{"ID":479458,"DIS_CODE":0,"TOWNNAME":"東區","LI":"富裕里","LIN":"20鄰","STREET":"裕豐街","SECT":" ","MAREA":" ","LANE":" ","ALLEY":" ","HOUSE_NO":"１４號九樓","E_COORD97":170777.79999999999,"N_COORD97":2542705.7999999998,"ADDRESS":"裕豐街１４號九樓","OBJECTID":479433},"geometry":{"x":170777.80000000075,"y":2542705.8000000026}},{"attributes":{"ID":479459,"DIS_CODE":0,"TOWNNAME":"東區","LI":"富裕里","LIN":"20鄰","STREET":"裕豐街","SECT":" ","MAREA":" ","LANE":" ","ALLEY":" ","HOUSE_NO":"１４號八樓","E_COORD97":170777.79999999999,"N_COORD97":2542705.7999999998,"ADDRESS":"裕豐街１４號八樓","OBJECTID":479434},"geometry":{"x":170777.80000000075,"y":2542705.8000000026}},{"attributes":{"ID":479460,"DIS_CODE":0,"TOWNNAME":"東區","LI":"富裕里","LIN":"20鄰","STREET":"裕豐街","SECT":" ","MAREA":" ","LANE":" ","ALLEY":" ","HOUSE_NO":"１４號十一樓","E_COORD97":170777.79999999999,"N_COORD97":2542705.7999999998,"ADDRESS":"裕豐街１４號十一樓","OBJECTID":479435},"geometry":{"x":170777.80000000075,"y":2542705.8000000026}},{"attributes":{"ID":479461,"DIS_CODE":0,"TOWNNAME":"東區","LI":"富裕里","LIN":"20鄰","STREET":"裕豐街","SECT":" ","MAREA":" ","LANE":" ","ALLEY":" ","HOUSE_NO":"１４號十二樓","E_COORD97":170777.79999999999,"N_COORD97":2542705.7999999998,"ADDRESS":"裕豐街１４號十二樓","OBJECTID":479436},"geometry":{"x":170777.80000000075,"y":2542705.8000000026}},{"attributes":{"ID":479462,"DIS_CODE":0,"TOWNNAME":"東區","LI":"富裕里","LIN":"20鄰","STREET":"裕豐街","SECT":" ","MAREA":" ","LANE":" ","ALLEY":" ","HOUSE_NO":"１４號十三樓","E_COORD97":170777.79999999999,"N_COORD97":2542705.7999999998,"ADDRESS":"裕豐街１４號十三樓","OBJECTID":479437},"geometry":{"x":170777.80000000075,"y":2542705.8000000026}},{"attributes":{"ID":479463,"DIS_CODE":0,"TOWNNAME":"東區","LI":"富裕里","LIN":"20鄰","STREET":"裕豐街","SECT":" ","MAREA":" ","LANE":" ","ALLEY":" ","HOUSE_NO":"１４號十五樓","E_COORD97":170777.79999999999,"N_COORD97":2542705.7999999998,"ADDRESS":"裕豐街１４號十五樓","OBJECTID":479438},"geometry":{"x":170777.80000000075,"y":2542705.8000000026}},{"attributes":{"ID":479464,"DIS_CODE":0,"TOWNNAME":"東區","LI":"富裕里","LIN":"20鄰","STREET":"裕豐街","SECT":" ","MAREA":" ","LANE":" ","ALLEY":" ","HOUSE_NO":"１４號十四樓","E_COORD97":170777.79999999999,"N_COORD97":2542705.7999999998,"ADDRESS":"裕豐街１４號十四樓","OBJECTID":479439},"geometry":{"x":170777.80000000075,"y":2542705.8000000026}},{"attributes":{"ID":479465,"DIS_CODE":0,"TOWNNAME":"東區","LI":"富裕里","LIN":"20鄰","STREET":"裕豐街","SECT":" ","MAREA":" ","LANE":" ","ALLEY":" ","HOUSE_NO":"１４號十樓","E_COORD97":170777.79999999999,"N_COORD97":2542705.7999999998,"ADDRESS":"裕豐街１４號十樓","OBJECTID":479440},"geometry":{"x":170777.80000000075,"y":2542705.8000000026}},{"attributes":{"ID":479466,"DIS_CODE":0,"TOWNNAME":"東區","LI":"富裕里","LIN":"20鄰","STREET":"裕豐街","SECT":" ","MAREA":" ","LANE":" ","ALLEY":" ","HOUSE_NO":"１４號三樓","E_COORD97":170777.79999999999,"N_COORD97":2542705.7999999998,"ADDRESS":"裕豐街１４號三樓","OBJECTID":479441},"geometry":{"x":170777.80000000075,"y":2542705.8000000026}},{"attributes":{"ID":479467,"DIS_CODE":0,"TOWNNAME":"東區","LI":"富裕里","LIN":"20鄰","STREET":"裕豐街","SECT":" ","MAREA":" ","LANE":" ","ALLEY":" ","HOUSE_NO":"１４號五樓","E_COORD97":170777.79999999999,"N_COORD97":2542705.7999999998,"ADDRESS":"裕豐街１４號五樓","OBJECTID":479442},"geometry":{"x":170777.80000000075,"y":2542705.8000000026}},{"attributes":{"ID":479468,"DIS_CODE":0,"TOWNNAME":"東區","LI":"富裕里","LIN":"20鄰","STREET":"裕豐街","SECT":" ","MAREA":" ","LANE":" ","ALLEY":" ","HOUSE_NO":"１４號六樓","E_COORD97":170777.79999999999,"N_COORD97":2542705.7999999998,"ADDRESS":"裕豐街１４號六樓","OBJECTID":479443},"geometry":{"x":170777.80000000075,"y":2542705.8000000026}},{"attributes":{"ID":479469,"DIS_CODE":0,"TOWNNAME":"東區","LI":"富裕里","LIN":"20鄰","STREET":"裕豐街","SECT":" ","MAREA":" ","LANE":" ","ALLEY":" ","HOUSE_NO":"１４號四樓","E_COORD97":170777.79999999999,"N_COORD97":2542705.7999999998,"ADDRESS":"裕豐街１４號四樓","OBJECTID":479444},"geometry":{"x":170777.80000000075,"y":2542705.8000000026}},{"attributes":{"ID":479470,"DIS_CODE":0,"TOWNNAME":"東區","LI":"富裕里","LIN":"20鄰","STREET":"裕豐街","SECT":" ","MAREA":" ","LANE":" ","ALLEY":" ","HOUSE_NO":"１６號七樓","E_COORD97":170783.20999999999,"N_COORD97":2542705.7999999998,"ADDRESS":"裕豐街１６號七樓","OBJECTID":479445},"geometry":{"x":170783.20999999996,"y":2542705.8000000026}},{"attributes":{"ID":479471,"DIS_CODE":0,"TOWNNAME":"東區","LI":"富裕里","LIN":"20鄰","STREET":"裕豐街","SECT":" ","MAREA":" ","LANE":" ","ALLEY":" ","HOUSE_NO":"１６號九樓","E_COORD97":170783.20999999999,"N_COORD97":2542705.7999999998,"ADDRESS":"裕豐街１６號九樓","OBJECTID":479446},"geometry":{"x":170783.20999999996,"y":2542705.8000000026}},{"attributes":{"ID":479472,"DIS_CODE":0,"TOWNNAME":"東區","LI":"富裕里","LIN":"20鄰","STREET":"裕豐街","SECT":" ","MAREA":" ","LANE":" ","ALLEY":" ","HOUSE_NO":"１６號二樓","E_COORD97":170783.20999999999,"N_COORD97":2542705.7999999998,"ADDRESS":"裕豐街１６號二樓","OBJECTID":479447},"geometry":{"x":170783.20999999996,"y":2542705.8000000026}},{"attributes":{"ID":479473,"DIS_CODE":0,"TOWNNAME":"東區","LI":"富裕里","LIN":"20鄰","STREET":"裕豐街","SECT":" ","MAREA":" ","LANE":" ","ALLEY":" ","HOUSE_NO":"１６號八樓","E_COORD97":170783.20999999999,"N_COORD97":2542705.7999999998,"ADDRESS":"裕豐街１６號八樓","OBJECTID":479448},"geometry":{"x":170783.20999999996,"y":2542705.8000000026}},{"attributes":{"ID":479474,"DIS_CODE":0,"TOWNNAME":"東區","LI":"富裕里","LIN":"20鄰","STREET":"裕豐街","SECT":" ","MAREA":" ","LANE":" ","ALLEY":" ","HOUSE_NO":"１６號十一樓","E_COORD97":170783.20999999999,"N_COORD97":2542705.7999999998,"ADDRESS":"裕豐街１６號十一樓","OBJECTID":479449},"geometry":{"x":170783.20999999996,"y":2542705.8000000026}},{"attributes":{"ID":479475,"DIS_CODE":0,"TOWNNAME":"東區","LI":"富裕里","LIN":"20鄰","STREET":"裕豐街","SECT":" ","MAREA":" ","LANE":" ","ALLEY":" ","HOUSE_NO":"１６號十二樓","E_COORD97":170783.20999999999,"N_COORD97":2542705.7999999998,"ADDRESS":"裕豐街１６號十二樓","OBJECTID":479450},"geometry":{"x":170783.20999999996,"y":2542705.8000000026}},{"attributes":{"ID":479476,"DIS_CODE":0,"TOWNNAME":"東區","LI":"富裕里","LIN":"20鄰","STREET":"裕豐街","SECT":" ","MAREA":" ","LANE":" ","ALLEY":" ","HOUSE_NO":"１６號十三樓","E_COORD97":170783.20999999999,"N_COORD97":2542705.7999999998,"ADDRESS":"裕豐街１６號十三樓","OBJECTID":479451},"geometry":{"x":170783.20999999996,"y":2542705.8000000026}},{"attributes":{"ID":479477,"DIS_CODE":0,"TOWNNAME":"東區","LI":"富裕里","LIN":"20鄰","STREET":"裕豐街","SECT":" ","MAREA":" ","LANE":" ","ALLEY":" ","HOUSE_NO":"１６號十五樓","E_COORD97":170783.20999999999,"N_COORD97":2542705.7999999998,"ADDRESS":"裕豐街１６號十五樓","OBJECTID":479452},"geometry":{"x":170783.20999999996,"y":2542705.8000000026}},{"attributes":{"ID":479478,"DIS_CODE":0,"TOWNNAME":"東區","LI":"富裕里","LIN":"20鄰","STREET":"裕豐街","SECT":" ","MAREA":" ","LANE":" ","ALLEY":" ","HOUSE_NO":"１６號十四樓","E_COORD97":170783.20999999999,"N_COORD97":2542705.7999999998,"ADDRESS":"裕豐街１６號十四樓","OBJECTID":479453},"geometry":{"x":170783.20999999996,"y":2542705.8000000026}},{"attributes":{"ID":479479,"DIS_CODE":0,"TOWNNAME":"東區","LI":"富裕里","LIN":"20鄰","STREET":"裕豐街","SECT":" ","MAREA":" ","LANE":" ","ALLEY":" ","HOUSE_NO":"１６號十樓","E_COORD97":170783.20999999999,"N_COORD97":2542705.7999999998,"ADDRESS":"裕豐街１６號十樓","OBJECTID":479454},"geometry":{"x":170783.20999999996,"y":2542705.8000000026}},{"attributes":{"ID":479480,"DIS_CODE":0,"TOWNNAME":"東區","LI":"富裕里","LIN":"20鄰","STREET":"裕豐街","SECT":" ","MAREA":" ","LANE":" ","ALLEY":" ","HOUSE_NO":"１６號三樓","E_COORD97":170783.20999999999,"N_COORD97":2542705.7999999998,"ADDRESS":"裕豐街１６號三樓","OBJECTID":479455},"geometry":{"x":170783.20999999996,"y":2542705.8000000026}},{"attributes":{"ID":479481,"DIS_CODE":0,"TOWNNAME":"東區","LI":"富裕里","LIN":"20鄰","STREET":"裕豐街","SECT":" ","MAREA":" ","LANE":" ","ALLEY":" ","HOUSE_NO":"１６號四樓","E_COORD97":170783.20999999999,"N_COORD97":2542705.7999999998,"ADDRESS":"裕豐街１６號四樓","OBJECTID":479456},"geometry":{"x":170783.20999999996,"y":2542705.8000000026}},{"attributes":{"ID":479482,"DIS_CODE":0,"TOWNNAME":"東區","LI":"富裕里","LIN":"20鄰","STREET":"裕豐街","SECT":" ","MAREA":" ","LANE":" ","ALLEY":" ","HOUSE_NO":"２號八樓","E_COORD97":170718.54000000001,"N_COORD97":2542700.1800000002,"ADDRESS":"裕豐街２號八樓","OBJECTID":479457},"geometry":{"x":170718.5400000019,"y":2542700.1799999997}},{"attributes":{"ID":479483,"DIS_CODE":0,"TOWNNAME":"東區","LI":"富裕里","LIN":"20鄰","STREET":"裕豐街","SECT":" ","MAREA":" ","LANE":" ","ALLEY":" ","HOUSE_NO":"２號十一樓","E_COORD97":170718.54000000001,"N_COORD97":2542700.1800000002,"ADDRESS":"裕豐街２號十一樓","OBJECTID":479458},"geometry":{"x":170718.5400000019,"y":2542700.1799999997}},{"attributes":{"ID":479484,"DIS_CODE":0,"TOWNNAME":"東區","LI":"富裕里","LIN":"20鄰","STREET":"裕豐街","SECT":" ","MAREA":" ","LANE":" ","ALLEY":" ","HOUSE_NO":"２號十二樓","E_COORD97":170718.54000000001,"N_COORD97":2542700.1800000002,"ADDRESS":"裕豐街２號十二樓","OBJECTID":479459},"geometry":{"x":170718.5400000019,"y":2542700.1799999997}},{"attributes":{"ID":479485,"DIS_CODE":0,"TOWNNAME":"東區","LI":"富裕里","LIN":"20鄰","STREET":"裕豐街","SECT":" ","MAREA":" ","LANE":" ","ALLEY":" ","HOUSE_NO":"２號十三樓","E_COORD97":170718.54000000001,"N_COORD97":2542700.1800000002,"ADDRESS":"裕豐街２號十三樓","OBJECTID":479460},"geometry":{"x":170718.5400000019,"y":2542700.1799999997}},{"attributes":{"ID":479486,"DIS_CODE":0,"TOWNNAME":"東區","LI":"富裕里","LIN":"20鄰","STREET":"裕豐街","SECT":" ","MAREA":" ","LANE":" ","ALLEY":" ","HOUSE_NO":"２號十五樓","E_COORD97":170718.54000000001,"N_COORD97":2542700.1800000002,"ADDRESS":"裕豐街２號十五樓","OBJECTID":479461},"geometry":{"x":170718.5400000019,"y":2542700.1799999997}},{"attributes":{"ID":479487,"DIS_CODE":0,"TOWNNAME":"東區","LI":"富裕里","LIN":"20鄰","STREET":"裕豐街","SECT":" ","MAREA":" ","LANE":" ","ALLEY":" ","HOUSE_NO":"２號十四樓","E_COORD97":170718.54000000001,"N_COORD97":2542700.1800000002,"ADDRESS":"裕豐街２號十四樓","OBJECTID":479462},"geometry":{"x":170718.5400000019,"y":2542700.1799999997}},{"attributes":{"ID":479488,"DIS_CODE":0,"TOWNNAME":"新營區","LI":"延平里","LIN":" ","STREET":"復興路","SECT":" ","MAREA":" ","LANE":" ","ALLEY":" ","HOUSE_NO":"１之６４號","E_COORD97":179713.92999999999,"N_COORD97":2577935.1299999999,"ADDRESS":"復興路１之６４號","OBJECTID":479463},"geometry":{"x":179713.93000000063,"y":2577935.129999999}},{"attributes":{"ID":479489,"DIS_CODE":0,"TOWNNAME":"東區","LI":"富裕里","LIN":"20鄰","STREET":"裕豐街","SECT":" ","MAREA":" ","LANE":" ","ALLEY":" ","HOUSE_NO":"２號十樓","E_COORD97":170718.54000000001,"N_COORD97":2542700.1800000002,"ADDRESS":"裕豐街２號十樓","OBJECTID":479464},"geometry":{"x":170718.5400000019,"y":2542700.1799999997}},{"attributes":{"ID":479490,"DIS_CODE":0,"TOWNNAME":"新營區","LI":"三仙里","LIN":"20鄰","STREET":"三民路","SECT":" ","MAREA":" ","LANE":" ","ALLEY":" ","HOUSE_NO":"１４８號之２","E_COORD97":179510.54000000001,"N_COORD97":2578397.9100000001,"ADDRESS":"三民路１４８號之２","OBJECTID":479465},"geometry":{"x":179510.54000000097,"y":2578397.910000002}},{"attributes":{"ID":479491,"DIS_CODE":0,"TOWNNAME":"東區","LI":"富裕里","LIN":"20鄰","STREET":"裕豐街","SECT":" ","MAREA":" ","LANE":" ","ALLEY":" ","HOUSE_NO":"２號三樓","E_COORD97":170718.54000000001,"N_COORD97":2542700.1800000002,"ADDRESS":"裕豐街２號三樓","OBJECTID":479466},"geometry":{"x":170718.5400000019,"y":2542700.1799999997}},{"attributes":{"ID":479492,"DIS_CODE":0,"TOWNNAME":"東區","LI":"富裕里","LIN":"20鄰","STREET":"裕豐街","SECT":" ","MAREA":" ","LANE":" ","ALLEY":" ","HOUSE_NO":"２號五樓","E_COORD97":170718.54000000001,"N_COORD97":2542700.1800000002,"ADDRESS":"裕豐街２號五樓","OBJECTID":479467},"geometry":{"x":170718.5400000019,"y":2542700.1799999997}},{"attributes":{"ID":479493,"DIS_CODE":0,"TOWNNAME":"東區","LI":"富裕里","LIN":"20鄰","STREET":"裕豐街","SECT":" ","MAREA":" ","LANE":" ","ALLEY":" ","HOUSE_NO":"２號六樓","E_COORD97":170718.54000000001,"N_COORD97":2542700.1800000002,"ADDRESS":"裕豐街２號六樓","OBJECTID":479468},"geometry":{"x":170718.5400000019,"y":2542700.1799999997}},{"attributes":{"ID":479494,"DIS_CODE":0,"TOWNNAME":"東區","LI":"富裕里","LIN":"20鄰","STREET":"裕豐街","SECT":" ","MAREA":" ","LANE":" ","ALLEY":" ","HOUSE_NO":"２號四樓","E_COORD97":170718.54000000001,"N_COORD97":2542700.1800000002,"ADDRESS":"裕豐街２號四樓","OBJECTID":479469},"geometry":{"x":170718.5400000019,"y":2542700.1799999997}},{"attributes":{"ID":479495,"DIS_CODE":0,"TOWNNAME":"東區","LI":"富裕里","LIN":"20鄰","STREET":"裕豐街","SECT":" ","MAREA":" ","LANE":" ","ALLEY":" ","HOUSE_NO":"４號七樓","E_COORD97":170724,"N_COORD97":2542700.0800000001,"ADDRESS":"裕豐街４號七樓","OBJECTID":479470},"geometry":{"x":170724.00000000186,"y":2542700.0800000001}},{"attributes":{"ID":479496,"DIS_CODE":0,"TOWNNAME":"東區","LI":"富裕里","LIN":"20鄰","STREET":"裕豐街","SECT":" ","MAREA":" ","LANE":" ","ALLEY":" ","HOUSE_NO":"４號九樓","E_COORD97":170724,"N_COORD97":2542700.0800000001,"ADDRESS":"裕豐街４號九樓","OBJECTID":479471},"geometry":{"x":170724.00000000186,"y":2542700.0800000001}},{"attributes":{"ID":479497,"DIS_CODE":0,"TOWNNAME":"東區","LI":"富裕里","LIN":"20鄰","STREET":"裕豐街","SECT":" ","MAREA":" ","LANE":" ","ALLEY":" ","HOUSE_NO":"４號八樓","E_COORD97":170724,"N_COORD97":2542700.0800000001,"ADDRESS":"裕豐街４號八樓","OBJECTID":479472},"geometry":{"x":170724.00000000186,"y":2542700.0800000001}},{"attributes":{"ID":479498,"DIS_CODE":0,"TOWNNAME":"東區","LI":"富裕里","LIN":"20鄰","STREET":"裕豐街","SECT":" ","MAREA":" ","LANE":" ","ALLEY":" ","HOUSE_NO":"４號十一樓","E_COORD97":170724,"N_COORD97":2542700.0800000001,"ADDRESS":"裕豐街４號十一樓","OBJECTID":479473},"geometry":{"x":170724.00000000186,"y":2542700.0800000001}},{"attributes":{"ID":479499,"DIS_CODE":0,"TOWNNAME":"東區","LI":"富裕里","LIN":"20鄰","STREET":"裕豐街","SECT":" ","MAREA":" ","LANE":" ","ALLEY":" ","HOUSE_NO":"４號十二樓","E_COORD97":170724,"N_COORD97":2542700.0800000001,"ADDRESS":"裕豐街４號十二樓","OBJECTID":479474},"geometry":{"x":170724.00000000186,"y":2542700.0800000001}},{"attributes":{"ID":479500,"DIS_CODE":0,"TOWNNAME":"東區","LI":"富裕里","LIN":"20鄰","STREET":"裕豐街","SECT":" ","MAREA":" ","LANE":" ","ALLEY":" ","HOUSE_NO":"４號十三樓","E_COORD97":170724,"N_COORD97":2542700.0800000001,"ADDRESS":"裕豐街４號十三樓","OBJECTID":479475},"geometry":{"x":170724.00000000186,"y":2542700.0800000001}},{"attributes":{"ID":479501,"DIS_CODE":0,"TOWNNAME":"東區","LI":"富裕里","LIN":"20鄰","STREET":"裕豐街","SECT":" ","MAREA":" ","LANE":" ","ALLEY":" ","HOUSE_NO":"４號十五樓","E_COORD97":170724,"N_COORD97":2542700.0800000001,"ADDRESS":"裕豐街４號十五樓","OBJECTID":479476},"geometry":{"x":170724.00000000186,"y":2542700.0800000001}},{"attributes":{"ID":479502,"DIS_CODE":0,"TOWNNAME":"東區","LI":"富裕里","LIN":"20鄰","STREET":"裕豐街","SECT":" ","MAREA":" ","LANE":" ","ALLEY":" ","HOUSE_NO":"４號十四樓","E_COORD97":170724,"N_COORD97":2542700.0800000001,"ADDRESS":"裕豐街４號十四樓","OBJECTID":479477},"geometry":{"x":170724.00000000186,"y":2542700.0800000001}},{"attributes":{"ID":479503,"DIS_CODE":0,"TOWNNAME":"東區","LI":"富裕里","LIN":"20鄰","STREET":"裕豐街","SECT":" ","MAREA":" ","LANE":" ","ALLEY":" ","HOUSE_NO":"４號十樓","E_COORD97":170724,"N_COORD97":2542700.0800000001,"ADDRESS":"裕豐街４號十樓","OBJECTID":479478},"geometry":{"x":170724.00000000186,"y":2542700.0800000001}},{"attributes":{"ID":479504,"DIS_CODE":0,"TOWNNAME":"東區","LI":"富裕里","LIN":"20鄰","STREET":"裕豐街","SECT":" ","MAREA":" ","LANE":" ","ALLEY":" ","HOUSE_NO":"４號三樓","E_COORD97":170724,"N_COORD97":2542700.0800000001,"ADDRESS":"裕豐街４號三樓","OBJECTID":479479},"geometry":{"x":170724.00000000186,"y":2542700.0800000001}},{"attributes":{"ID":479505,"DIS_CODE":0,"TOWNNAME":"東區","LI":"富裕里","LIN":"20鄰","STREET":"裕豐街","SECT":" ","MAREA":" ","LANE":" ","ALLEY":" ","HOUSE_NO":"４號五樓","E_COORD97":170724,"N_COORD97":2542700.0800000001,"ADDRESS":"裕豐街４號五樓","OBJECTID":479480},"geometry":{"x":170724.00000000186,"y":2542700.0800000001}},{"attributes":{"ID":479506,"DIS_CODE":0,"TOWNNAME":"東區","LI":"富裕里","LIN":"20鄰","STREET":"裕豐街","SECT":" ","MAREA":" ","LANE":" ","ALLEY":" ","HOUSE_NO":"４號六樓","E_COORD97":170724,"N_COORD97":2542700.0800000001,"ADDRESS":"裕豐街４號六樓","OBJECTID":479481},"geometry":{"x":170724.00000000186,"y":2542700.0800000001}},{"attributes":{"ID":479507,"DIS_CODE":0,"TOWNNAME":"東區","LI":"富裕里","LIN":"20鄰","STREET":"裕豐街","SECT":" ","MAREA":" ","LANE":" ","ALLEY":" ","HOUSE_NO":"４號四樓","E_COORD97":170724,"N_COORD97":2542700.0800000001,"ADDRESS":"裕豐街４號四樓","OBJECTID":479482},"geometry":{"x":170724.00000000186,"y":2542700.0800000001}},{"attributes":{"ID":479508,"DIS_CODE":0,"TOWNNAME":"東區","LI":"富裕里","LIN":"20鄰","STREET":"裕豐街","SECT":" ","MAREA":" ","LANE":" ","ALLEY":" ","HOUSE_NO":"６號三樓","E_COORD97":170730.32000000001,"N_COORD97":2542700.0800000001,"ADDRESS":"裕豐街６號三樓","OBJECTID":479483},"geometry":{"x":170730.3200000003,"y":2542700.0800000001}},{"attributes":{"ID":479509,"DIS_CODE":0,"TOWNNAME":"東區","LI":"富裕里","LIN":"20鄰","STREET":"裕豐街","SECT":" ","MAREA":" ","LANE":" ","ALLEY":" ","HOUSE_NO":"６號五樓","E_COORD97":170730.32000000001,"N_COORD97":2542700.0800000001,"ADDRESS":"裕豐街６號五樓","OBJECTID":479484},"geometry":{"x":170730.3200000003,"y":2542700.0800000001}},{"attributes":{"ID":479510,"DIS_CODE":0,"TOWNNAME":"東區","LI":"富裕里","LIN":"20鄰","STREET":"裕豐街","SECT":" ","MAREA":" ","LANE":" ","ALLEY":" ","HOUSE_NO":"６號六樓","E_COORD97":170730.32000000001,"N_COORD97":2542700.0800000001,"ADDRESS":"裕豐街６號六樓","OBJECTID":479485},"geometry":{"x":170730.3200000003,"y":2542700.0800000001}},{"attributes":{"ID":479511,"DIS_CODE":0,"TOWNNAME":"東區","LI":"富裕里","LIN":"20鄰","STREET":"裕豐街","SECT":" ","MAREA":" ","LANE":" ","ALLEY":" ","HOUSE_NO":"６號四樓","E_COORD97":170730.32000000001,"N_COORD97":2542700.0800000001,"ADDRESS":"裕豐街６號四樓","OBJECTID":479486},"geometry":{"x":170730.3200000003,"y":2542700.0800000001}},{"attributes":{"ID":479512,"DIS_CODE":0,"TOWNNAME":"東區","LI":"富裕里","LIN":"20鄰","STREET":"裕豐街","SECT":" ","MAREA":" ","LANE":" ","ALLEY":" ","HOUSE_NO":"８號七樓","E_COORD97":170736.51000000001,"N_COORD97":2542700.3300000001,"ADDRESS":"裕豐街８號七樓","OBJECTID":479487},"geometry":{"x":170736.50999999978,"y":2542700.3300000019}},{"attributes":{"ID":479513,"DIS_CODE":0,"TOWNNAME":"東區","LI":"富裕里","LIN":"20鄰","STREET":"裕豐街","SECT":" ","MAREA":" ","LANE":" ","ALLEY":" ","HOUSE_NO":"８號九樓","E_COORD97":170736.51000000001,"N_COORD97":2542700.3300000001,"ADDRESS":"裕豐街８號九樓","OBJECTID":479488},"geometry":{"x":170736.50999999978,"y":2542700.3300000019}},{"attributes":{"ID":479514,"DIS_CODE":0,"TOWNNAME":"東區","LI":"富裕里","LIN":"20鄰","STREET":"裕豐街","SECT":" ","MAREA":" ","LANE":" ","ALLEY":" ","HOUSE_NO":"８號八樓","E_COORD97":170736.51000000001,"N_COORD97":2542700.3300000001,"ADDRESS":"裕豐街８號八樓","OBJECTID":479489},"geometry":{"x":170736.50999999978,"y":2542700.3300000019}},{"attributes":{"ID":479515,"DIS_CODE":0,"TOWNNAME":"東區","LI":"富裕里","LIN":"20鄰","STREET":"裕豐街","SECT":" ","MAREA":" ","LANE":" ","ALLEY":" ","HOUSE_NO":"８號十一樓","E_COORD97":170736.51000000001,"N_COORD97":2542700.3300000001,"ADDRESS":"裕豐街８號十一樓","OBJECTID":479490},"geometry":{"x":170736.50999999978,"y":2542700.3300000019}},{"attributes":{"ID":479516,"DIS_CODE":0,"TOWNNAME":"東區","LI":"富裕里","LIN":"20鄰","STREET":"裕豐街","SECT":" ","MAREA":" ","LANE":" ","ALLEY":" ","HOUSE_NO":"８號十二樓","E_COORD97":170736.51000000001,"N_COORD97":2542700.3300000001,"ADDRESS":"裕豐街８號十二樓","OBJECTID":479491},"geometry":{"x":170736.50999999978,"y":2542700.3300000019}},{"attributes":{"ID":479517,"DIS_CODE":0,"TOWNNAME":"東區","LI":"富裕里","LIN":"20鄰","STREET":"裕豐街","SECT":" ","MAREA":" ","LANE":" ","ALLEY":" ","HOUSE_NO":"８號十三樓","E_COORD97":170736.51000000001,"N_COORD97":2542700.3300000001,"ADDRESS":"裕豐街８號十三樓","OBJECTID":479492},"geometry":{"x":170736.50999999978,"y":2542700.3300000019}},{"attributes":{"ID":479518,"DIS_CODE":0,"TOWNNAME":"東區","LI":"富裕里","LIN":"20鄰","STREET":"裕豐街","SECT":" ","MAREA":" ","LANE":" ","ALLEY":" ","HOUSE_NO":"８號十五樓","E_COORD97":170736.51000000001,"N_COORD97":2542700.3300000001,"ADDRESS":"裕豐街８號十五樓","OBJECTID":479493},"geometry":{"x":170736.50999999978,"y":2542700.3300000019}},{"attributes":{"ID":479519,"DIS_CODE":0,"TOWNNAME":"東區","LI":"富裕里","LIN":"20鄰","STREET":"裕豐街","SECT":" ","MAREA":" ","LANE":" ","ALLEY":" ","HOUSE_NO":"８號十六樓","E_COORD97":170736.51000000001,"N_COORD97":2542700.3300000001,"ADDRESS":"裕豐街８號十六樓","OBJECTID":479494},"geometry":{"x":170736.50999999978,"y":2542700.3300000019}},{"attributes":{"ID":479520,"DIS_CODE":0,"TOWNNAME":"東區","LI":"富裕里","LIN":"20鄰","STREET":"裕豐街","SECT":" ","MAREA":" ","LANE":" ","ALLEY":" ","HOUSE_NO":"８號十四樓","E_COORD97":170736.51000000001,"N_COORD97":2542700.3300000001,"ADDRESS":"裕豐街８號十四樓","OBJECTID":479495},"geometry":{"x":170736.50999999978,"y":2542700.3300000019}},{"attributes":{"ID":479521,"DIS_CODE":0,"TOWNNAME":"永康區","LI":"復國里","LIN":"20鄰","STREET":"國華街","SECT":" ","MAREA":" ","LANE":" ","ALLEY":" ","HOUSE_NO":"５７號三樓之２","E_COORD97":172811.19,"N_COORD97":2545757.6699999999,"ADDRESS":"國華街５７號三樓之２","OBJECTID":479496},"geometry":{"x":172811.19000000041,"y":2545757.6699999999}},{"attributes":{"ID":479522,"DIS_CODE":0,"TOWNNAME":"永康區","LI":"中華里","LIN":"20鄰","STREET":"小東路","SECT":" ","MAREA":" ","LANE":" ","ALLEY":" ","HOUSE_NO":"４７３號之２７六樓","E_COORD97":171593.10999999999,"N_COORD97":2544367.3500000001,"ADDRESS":"小東路４７３號之２７六樓","OBJECTID":479497},"geometry":{"x":171593.1100000022,"y":2544367.3500000034}},{"attributes":{"ID":479523,"DIS_CODE":0,"TOWNNAME":"永康區","LI":"勝利里","LIN":"20鄰","STREET":"勝學路","SECT":" ","MAREA":" ","LANE":" ","ALLEY":" ","HOUSE_NO":"２３７號六樓之１","E_COORD97":171181.29999999999,"N_COORD97":2545265.6699999999,"ADDRESS":"勝學路２３７號六樓之１","OBJECTID":479498},"geometry":{"x":171181.30000000075,"y":2545265.6699999999}},{"attributes":{"ID":479524,"DIS_CODE":0,"TOWNNAME":"永康區","LI":"網寮里","LIN":"20鄰","STREET":"文化路","SECT":" ","MAREA":" ","LANE":" ","ALLEY":" ","HOUSE_NO":"３０７號八樓之２","E_COORD97":173464.98999999999,"N_COORD97":2546123.7599999998,"ADDRESS":"文化路３０７號八樓之２","OBJECTID":479499},"geometry":{"x":173464.99000000022,"y":2546123.7599999998}},{"attributes":{"ID":479525,"DIS_CODE":0,"TOWNNAME":"永康區","LI":"網寮里","LIN":"20鄰","STREET":"文化路","SECT":" ","MAREA":" ","LANE":" ","ALLEY":" ","HOUSE_NO":"３１５號六樓之２","E_COORD97":173450.39000000001,"N_COORD97":2546134.21,"ADDRESS":"文化路３１５號六樓之２","OBJECTID":479500},"geometry":{"x":173450.3900000006,"y":2546134.2100000028}},{"attributes":{"ID":479526,"DIS_CODE":0,"TOWNNAME":"永康區","LI":"五王里","LIN":"20鄰","STREET":"成功路","SECT":" ","MAREA":" ","LANE":" ","ALLEY":" ","HOUSE_NO":"１２１號三樓之１","E_COORD97":171408.35999999999,"N_COORD97":2545647.54,"ADDRESS":"成功路１２１號三樓之１","OBJECTID":479501},"geometry":{"x":171408.3600000022,"y":2545647.540000001}},{"attributes":{"ID":479527,"DIS_CODE":0,"TOWNNAME":"永康區","LI":"復國里","LIN":"20鄰","STREET":"國華街","SECT":" ","MAREA":" ","LANE":" ","ALLEY":" ","HOUSE_NO":"５５號三樓之２","E_COORD97":172799.54999999999,"N_COORD97":2545761.4199999999,"ADDRESS":"國華街５５號三樓之２","OBJECTID":479502},"geometry":{"x":172799.54999999981,"y":2545761.4200000018}},{"attributes":{"ID":479528,"DIS_CODE":0,"TOWNNAME":"永康區","LI":"復國里","LIN":"20鄰","STREET":"國華街","SECT":" ","MAREA":" ","LANE":" ","ALLEY":" ","HOUSE_NO":"５５號十五樓之２","E_COORD97":172800.79999999999,"N_COORD97":2545761.4199999999,"ADDRESS":"國華街５５號十五樓之２","OBJECTID":479503},"geometry":{"x":172800.79999999981,"y":2545761.4200000018}},{"attributes":{"ID":479529,"DIS_CODE":0,"TOWNNAME":"新營區","LI":"王公里","LIN":"20鄰","STREET":"樂利街","SECT":" ","MAREA":" ","LANE":" ","ALLEY":" ","HOUSE_NO":"１３５號七樓之３","E_COORD97":180507.29999999999,"N_COORD97":2579285.8199999998,"ADDRESS":"樂利街１３５號七樓之３","OBJECTID":479504},"geometry":{"x":180507.29999999981,"y":2579285.820000004}},{"attributes":{"ID":479530,"DIS_CODE":0,"TOWNNAME":"南區","LI":"新興里","LIN":"20鄰","STREET":"新興路","SECT":" ","MAREA":" ","LANE":" ","ALLEY":" ","HOUSE_NO":"２４０號三樓之３","E_COORD97":167195.44,"N_COORD97":2541898.48,"ADDRESS":"新興路２４０號三樓之３","OBJECTID":479505},"geometry":{"x":167195.44000000227,"y":2541898.4800000004}},{"attributes":{"ID":479531,"DIS_CODE":0,"TOWNNAME":"南區","LI":"新興里","LIN":"20鄰","STREET":"新興路","SECT":" ","MAREA":" ","LANE":" ","ALLEY":" ","HOUSE_NO":"２４０號五樓之１","E_COORD97":167195.44,"N_COORD97":2541898.48,"ADDRESS":"新興路２４０號五樓之１","OBJECTID":479506},"geometry":{"x":167195.44000000227,"y":2541898.4800000004}},{"attributes":{"ID":479532,"DIS_CODE":0,"TOWNNAME":"南區","LI":"新興里","LIN":"20鄰","STREET":"新興路","SECT":" ","MAREA":" ","LANE":" ","ALLEY":" ","HOUSE_NO":"２４０號五樓之２","E_COORD97":167195.44,"N_COORD97":2541898.48,"ADDRESS":"新興路２４０號五樓之２","OBJECTID":479507},"geometry":{"x":167195.44000000227,"y":2541898.4800000004}},{"attributes":{"ID":479533,"DIS_CODE":0,"TOWNNAME":"南區","LI":"新興里","LIN":"20鄰","STREET":"新興路","SECT":" ","MAREA":" ","LANE":" ","ALLEY":" ","HOUSE_NO":"２４０號六樓之１","E_COORD97":167195.44,"N_COORD97":2541898.48,"ADDRESS":"新興路２４０號六樓之１","OBJECTID":479508},"geometry":{"x":167195.44000000227,"y":2541898.4800000004}},{"attributes":{"ID":479534,"DIS_CODE":0,"TOWNNAME":"南區","LI":"新興里","LIN":"20鄰","STREET":"新興路","SECT":" ","MAREA":" ","LANE":" ","ALLEY":" ","HOUSE_NO":"２４０號六樓之２","E_COORD97":167195.44,"N_COORD97":2541898.48,"ADDRESS":"新興路２４０號六樓之２","OBJECTID":479509},"geometry":{"x":167195.44000000227,"y":2541898.4800000004}},{"attributes":{"ID":479535,"DIS_CODE":0,"TOWNNAME":"南區","LI":"新興里","LIN":"20鄰","STREET":"新興路","SECT":" ","MAREA":" ","LANE":" ","ALLEY":" ","HOUSE_NO":"２４０號六樓之３","E_COORD97":167195.44,"N_COORD97":2541898.48,"ADDRESS":"新興路２４０號六樓之３","OBJECTID":479510},"geometry":{"x":167195.44000000227,"y":2541898.4800000004}},{"attributes":{"ID":479536,"DIS_CODE":0,"TOWNNAME":"南區","LI":"新興里","LIN":"20鄰","STREET":"新興路","SECT":" ","MAREA":" ","LANE":" ","ALLEY":" ","HOUSE_NO":"２４０號四樓之１","E_COORD97":167195.44,"N_COORD97":2541898.48,"ADDRESS":"新興路２４０號四樓之１","OBJECTID":479511},"geometry":{"x":167195.44000000227,"y":2541898.4800000004}},{"attributes":{"ID":479537,"DIS_CODE":0,"TOWNNAME":"南區","LI":"新興里","LIN":"20鄰","STREET":"新興路","SECT":" ","MAREA":" ","LANE":" ","ALLEY":" ","HOUSE_NO":"２４０號四樓之２","E_COORD97":167195.44,"N_COORD97":2541898.48,"ADDRESS":"新興路２４０號四樓之２","OBJECTID":479512},"geometry":{"x":167195.44000000227,"y":2541898.4800000004}},{"attributes":{"ID":479538,"DIS_CODE":0,"TOWNNAME":"新營區","LI":"忠政里","LIN":"30鄰","STREET":"府西路","SECT":" ","MAREA":" ","LANE":" ","ALLEY":" ","HOUSE_NO":"６５號","E_COORD97":179805,"N_COORD97":2579112.96,"ADDRESS":"府西路６５號","OBJECTID":479513},"geometry":{"x":179805.00000000186,"y":2579112.9600000028}},{"attributes":{"ID":479539,"DIS_CODE":0,"TOWNNAME":"新營區","LI":"民權里","LIN":"18鄰","STREET":"博愛街","SECT":" ","MAREA":" ","LANE":" ","ALLEY":" ","HOUSE_NO":"７０號之３","E_COORD97":179751.48999999999,"N_COORD97":2578139.8300000001,"ADDRESS":"博愛街７０號之３","OBJECTID":479514},"geometry":{"x":179751.49000000115,"y":2578139.8300000019}},{"attributes":{"ID":479540,"DIS_CODE":0,"TOWNNAME":"新營區","LI":"大宏里","LIN":"20鄰","STREET":"三民路","SECT":" ","MAREA":" ","LANE":" ","ALLEY":" ","HOUSE_NO":"４３號","E_COORD97":180370.76000000001,"N_COORD97":2578475.73,"ADDRESS":"三民路４３號","OBJECTID":479515},"geometry":{"x":180370.75999999978,"y":2578475.7300000004}},{"attributes":{"ID":479541,"DIS_CODE":0,"TOWNNAME":"歸仁區","LI":"文化里","LIN":"20鄰","STREET":"大德路","SECT":" ","MAREA":" ","LANE":" ","ALLEY":" ","HOUSE_NO":"２１１號四樓之３","E_COORD97":177223.62,"N_COORD97":2541515.3399999999,"ADDRESS":"大德路２１１號四樓之３","OBJECTID":479516},"geometry":{"x":177223.62000000011,"y":2541515.3399999999}},{"attributes":{"ID":479542,"DIS_CODE":0,"TOWNNAME":"新營區","LI":"埤寮里","LIN":"13鄰","STREET":"中正路","SECT":" ","MAREA":" ","LANE":" ","ALLEY":" ","HOUSE_NO":"２６７號","E_COORD97":180056.82999999999,"N_COORD97":2579963.4100000001,"ADDRESS":"中正路２６７號","OBJECTID":479517},"geometry":{"x":180056.83000000007,"y":2579963.410000002}},{"attributes":{"ID":479543,"DIS_CODE":0,"TOWNNAME":"新營區","LI":"新北里","LIN":"18鄰","STREET":"民生路","SECT":" ","MAREA":" ","LANE":" ","ALLEY":" ","HOUSE_NO":"１８８號","E_COORD97":179102.95999999999,"N_COORD97":2578986.75,"ADDRESS":"民生路１８８號","OBJECTID":479518},"geometry":{"x":179102.95999999996,"y":2578986.75}},{"attributes":{"ID":479544,"DIS_CODE":0,"TOWNNAME":"東區","LI":"大學里","LIN":"20鄰","STREET":"長榮路","SECT":"三段","MAREA":" ","LANE":" ","ALLEY":" ","HOUSE_NO":"３７號","E_COORD97":170194.70999999999,"N_COORD97":2543788.1800000002,"ADDRESS":"長榮路三段３７號","OBJECTID":479519},"geometry":{"x":170194.70999999996,"y":2543788.1799999997}},{"attributes":{"ID":479545,"DIS_CODE":0,"TOWNNAME":"東區","LI":"大學里","LIN":"20鄰","STREET":"長榮路","SECT":"三段","MAREA":" ","LANE":" ","ALLEY":" ","HOUSE_NO":"４５號","E_COORD97":170194.28,"N_COORD97":2543811.5099999998,"ADDRESS":"長榮路三段４５號","OBJECTID":479520},"geometry":{"x":170194.28000000026,"y":2543811.5100000016}},{"attributes":{"ID":479546,"DIS_CODE":0,"TOWNNAME":"東區","LI":"大學里","LIN":"20鄰","STREET":"長榮路","SECT":"三段","MAREA":" ","LANE":" ","ALLEY":" ","HOUSE_NO":"４７號","E_COORD97":170195.70999999999,"N_COORD97":2543817.7000000002,"ADDRESS":"長榮路三段４７號","OBJECTID":479521},"geometry":{"x":170195.71000000089,"y":2543817.6999999993}},{"attributes":{"ID":479547,"DIS_CODE":0,"TOWNNAME":"東區","LI":"和平里","LIN":"20鄰","STREET":"仁和路","SECT":" ","MAREA":" ","LANE":" ","ALLEY":" ","HOUSE_NO":"６５號之１０","E_COORD97":171378.62,"N_COORD97":2541680.75,"ADDRESS":"仁和路６５號之１０","OBJECTID":479522},"geometry":{"x":171378.62000000011,"y":2541680.7500000019}},{"attributes":{"ID":479548,"DIS_CODE":0,"TOWNNAME":"東區","LI":"和平里","LIN":"20鄰","STREET":"仁和路","SECT":" ","MAREA":" ","LANE":" ","ALLEY":" ","HOUSE_NO":"６５號之１１","E_COORD97":171382.53,"N_COORD97":2541681.7000000002,"ADDRESS":"仁和路６５號之１１","OBJECTID":479523},"geometry":{"x":171382.53000000119,"y":2541681.6999999993}},{"attributes":{"ID":479549,"DIS_CODE":0,"TOWNNAME":"東區","LI":"和平里","LIN":"20鄰","STREET":"仁和路","SECT":" ","MAREA":" ","LANE":" ","ALLEY":" ","HOUSE_NO":"６５號之５","E_COORD97":171357.20000000001,"N_COORD97":2541681.4399999999,"ADDRESS":"仁和路６５號之５","OBJECTID":479524},"geometry":{"x":171357.20000000112,"y":2541681.4400000032}},{"attributes":{"ID":479550,"DIS_CODE":0,"TOWNNAME":"東區","LI":"和平里","LIN":"20鄰","STREET":"仁和路","SECT":" ","MAREA":" ","LANE":" ","ALLEY":" ","HOUSE_NO":"６５號之７","E_COORD97":171365.67999999999,"N_COORD97":2541681.7200000002,"ADDRESS":"仁和路６５號之７","OBJECTID":479525},"geometry":{"x":171365.6799999997,"y":2541681.7200000025}},{"attributes":{"ID":479551,"DIS_CODE":0,"TOWNNAME":"東區","LI":"和平里","LIN":"20鄰","STREET":"仁和路","SECT":" ","MAREA":" ","LANE":" ","ALLEY":" ","HOUSE_NO":"６５號之８","E_COORD97":171369.26999999999,"N_COORD97":2541682.4700000002,"ADDRESS":"仁和路６５號之８","OBJECTID":479526},"geometry":{"x":171369.27000000142,"y":2541682.4700000044}},{"attributes":{"ID":479552,"DIS_CODE":0,"TOWNNAME":"東區","LI":"和平里","LIN":"20鄰","STREET":"仁和路","SECT":" ","MAREA":" ","LANE":" ","ALLEY":" ","HOUSE_NO":"６５號之９","E_COORD97":171374.42000000001,"N_COORD97":2541680.0800000001,"ADDRESS":"仁和路６５號之９","OBJECTID":479527},"geometry":{"x":171374.42000000086,"y":2541680.0800000001}},{"attributes":{"ID":479553,"DIS_CODE":0,"TOWNNAME":"東區","LI":"衛國里","LIN":"20鄰","STREET":"林森路","SECT":"二段","MAREA":" ","LANE":" ","ALLEY":" ","HOUSE_NO":"１２４號","E_COORD97":170417.16,"N_COORD97":2543180.6000000001,"ADDRESS":"林森路二段１２４號","OBJECTID":479528},"geometry":{"x":170417.16000000015,"y":2543180.6000000015}},{"attributes":{"ID":479554,"DIS_CODE":0,"TOWNNAME":"東區","LI":"衛國里","LIN":"20鄰","STREET":"林森路","SECT":"二段","MAREA":" ","LANE":" ","ALLEY":" ","HOUSE_NO":"１２８號","E_COORD97":170431.35999999999,"N_COORD97":2543183.79,"ADDRESS":"林森路二段１２８號","OBJECTID":479529},"geometry":{"x":170431.36000000034,"y":2543183.7900000028}},{"attributes":{"ID":479555,"DIS_CODE":0,"TOWNNAME":"東區","LI":"衛國里","LIN":"20鄰","STREET":"林森路","SECT":"二段","MAREA":" ","LANE":" ","ALLEY":" ","HOUSE_NO":"１３２號","E_COORD97":170421.57999999999,"N_COORD97":2543197.4900000002,"ADDRESS":"林森路二段１３２號","OBJECTID":479530},"geometry":{"x":170421.57999999914,"y":2543197.4900000039}},{"attributes":{"ID":479556,"DIS_CODE":0,"TOWNNAME":"東區","LI":"衛國里","LIN":"20鄰","STREET":"林森路","SECT":"二段","MAREA":" ","LANE":" ","ALLEY":" ","HOUSE_NO":"１３６號","E_COORD97":170410.07000000001,"N_COORD97":2543197.6800000002,"ADDRESS":"林森路二段１３６號","OBJECTID":479531},"geometry":{"x":170410.07000000216,"y":2543197.6799999997}},{"attributes":{"ID":479557,"DIS_CODE":0,"TOWNNAME":"東區","LI":"衛國里","LIN":"20鄰","STREET":"林森路","SECT":"二段","MAREA":" ","LANE":" ","ALLEY":" ","HOUSE_NO":"１３８號","E_COORD97":170411.60000000001,"N_COORD97":2543202.8599999999,"ADDRESS":"林森路二段１３８號","OBJECTID":479532},"geometry":{"x":170411.60000000056,"y":2543202.8599999994}},{"attributes":{"ID":479558,"DIS_CODE":0,"TOWNNAME":"東區","LI":"衛國里","LIN":"20鄰","STREET":"林森路","SECT":"二段","MAREA":" ","LANE":" ","ALLEY":" ","HOUSE_NO":"１５０號","E_COORD97":170424.64000000001,"N_COORD97":2543231.0299999998,"ADDRESS":"林森路二段１５０號","OBJECTID":479533},"geometry":{"x":170424.6400000006,"y":2543231.0300000012}},{"attributes":{"ID":479559,"DIS_CODE":0,"TOWNNAME":"東區","LI":"衛國里","LIN":"20鄰","STREET":"林森路","SECT":"二段","MAREA":" ","LANE":" ","ALLEY":" ","HOUSE_NO":"１５２號","E_COORD97":170425.98999999999,"N_COORD97":2543235.6299999999,"ADDRESS":"林森路二段１５２號","OBJECTID":479534},"geometry":{"x":170425.99000000115,"y":2543235.6300000027}},{"attributes":{"ID":479560,"DIS_CODE":0,"TOWNNAME":"東區","LI":"衛國里","LIN":"20鄰","STREET":"林森路","SECT":"二段","MAREA":" ","LANE":" ","ALLEY":" ","HOUSE_NO":"１７０號","E_COORD97":170443.88,"N_COORD97":2543262.7400000002,"ADDRESS":"林森路二段１７０號","OBJECTID":479535},"geometry":{"x":170443.88000000082,"y":2543262.7400000002}},{"attributes":{"ID":479561,"DIS_CODE":0,"TOWNNAME":"永康區","LI":"西勢里","LIN":"20鄰","STREET":"富強路","SECT":"一段","MAREA":" ","LANE":" ","ALLEY":" ","HOUSE_NO":"２０７號","E_COORD97":175609.10999999999,"N_COORD97":2546428.9900000002,"ADDRESS":"富強路一段２０７號","OBJECTID":479536},"geometry":{"x":175609.1100000022,"y":2546428.9900000021}},{"attributes":{"ID":479562,"DIS_CODE":0,"TOWNNAME":"官田區","LI":"隆本里","LIN":"20鄰","STREET":"忠孝街","SECT":" ","MAREA":" ","LANE":" ","ALLEY":" ","HOUSE_NO":"６２號","E_COORD97":180054.31,"N_COORD97":2566219.7999999998,"ADDRESS":"忠孝街６２號","OBJECTID":479537},"geometry":{"x":180054.30999999959,"y":2566219.8000000045}},{"attributes":{"ID":479563,"DIS_CODE":0,"TOWNNAME":"官田區","LI":"隆本里","LIN":"20鄰","STREET":"忠孝街","SECT":" ","MAREA":" ","LANE":" ","ALLEY":" ","HOUSE_NO":"６６號","E_COORD97":180053.26999999999,"N_COORD97":2566223.8300000001,"ADDRESS":"忠孝街６６號","OBJECTID":479538},"geometry":{"x":180053.26999999955,"y":2566223.8300000019}},{"attributes":{"ID":479564,"DIS_CODE":0,"TOWNNAME":"官田區","LI":"隆本里","LIN":"20鄰","STREET":"忠孝街","SECT":" ","MAREA":" ","LANE":" ","ALLEY":" ","HOUSE_NO":"６８號","E_COORD97":180052.37,"N_COORD97":2566228.1000000001,"ADDRESS":"忠孝街６８號","OBJECTID":479539},"geometry":{"x":180052.37000000104,"y":2566228.1000000015}},{"attributes":{"ID":479565,"DIS_CODE":0,"TOWNNAME":"官田區","LI":"隆本里","LIN":"20鄰","STREET":"忠孝街","SECT":" ","MAREA":" ","LANE":" ","ALLEY":" ","HOUSE_NO":"７０號","E_COORD97":180051.51000000001,"N_COORD97":2566232.8500000001,"ADDRESS":"忠孝街７０號","OBJECTID":479540},"geometry":{"x":180051.50999999978,"y":2566232.8500000015}},{"attributes":{"ID":479566,"DIS_CODE":0,"TOWNNAME":"官田區","LI":"隆本里","LIN":"20鄰","STREET":"忠孝街","SECT":" ","MAREA":" ","LANE":" ","ALLEY":" ","HOUSE_NO":"７２號","E_COORD97":180051.06,"N_COORD97":2566237.0699999998,"ADDRESS":"忠孝街７２號","OBJECTID":479541},"geometry":{"x":180051.05999999959,"y":2566237.0700000003}},{"attributes":{"ID":479567,"DIS_CODE":0,"TOWNNAME":"官田區","LI":"隆本里","LIN":"20鄰","STREET":"忠孝街","SECT":" ","MAREA":" ","LANE":" ","ALLEY":" ","HOUSE_NO":"７６號","E_COORD97":180050.26000000001,"N_COORD97":2566241.9100000001,"ADDRESS":"忠孝街７６號","OBJECTID":479542},"geometry":{"x":180050.25999999978,"y":2566241.9099999983}},{"attributes":{"ID":479568,"DIS_CODE":0,"TOWNNAME":"新營區","LI":"忠政里","LIN":"18鄰","STREET":"中正路","SECT":" ","MAREA":" ","LANE":" ","ALLEY":" ","HOUSE_NO":"２２９號","E_COORD97":180063.39999999999,"N_COORD97":2579839.3399999999,"ADDRESS":"中正路２２９號","OBJECTID":479543},"geometry":{"x":180063.40000000037,"y":2579839.3400000017}},{"attributes":{"ID":479569,"DIS_CODE":0,"TOWNNAME":"新營區","LI":"忠政里","LIN":"18鄰","STREET":"中正路","SECT":" ","MAREA":" ","LANE":" ","ALLEY":" ","HOUSE_NO":"２１７號之５","E_COORD97":180007.07999999999,"N_COORD97":2579775.4500000002,"ADDRESS":"中正路２１７號之５","OBJECTID":479544},"geometry":{"x":180007.08000000101,"y":2579775.450000003}},{"attributes":{"ID":479570,"DIS_CODE":0,"TOWNNAME":"官田區","LI":"隆本里","LIN":"20鄰","STREET":"忠義街","SECT":" ","MAREA":" ","LANE":" ","ALLEY":" ","HOUSE_NO":"１０號","E_COORD97":180088.12,"N_COORD97":2566286.96,"ADDRESS":"忠義街１０號","OBJECTID":479545},"geometry":{"x":180088.12000000104,"y":2566286.9600000046}},{"attributes":{"ID":479571,"DIS_CODE":0,"TOWNNAME":"官田區","LI":"隆本里","LIN":"20鄰","STREET":"忠義街","SECT":" ","MAREA":" ","LANE":" ","ALLEY":" ","HOUSE_NO":"１７號","E_COORD97":180111.23999999999,"N_COORD97":2566253.5699999998,"ADDRESS":"忠義街１７號","OBJECTID":479546},"geometry":{"x":180111.24000000115,"y":2566253.5700000003}},{"attributes":{"ID":479572,"DIS_CODE":0,"TOWNNAME":"官田區","LI":"隆本里","LIN":"20鄰","STREET":"忠義街","SECT":" ","MAREA":" ","LANE":" ","ALLEY":" ","HOUSE_NO":"１號","E_COORD97":180096.26999999999,"N_COORD97":2566319.2200000002,"ADDRESS":"忠義街１號","OBJECTID":479547},"geometry":{"x":180096.27000000048,"y":2566319.2200000025}},{"attributes":{"ID":479573,"DIS_CODE":0,"TOWNNAME":"官田區","LI":"隆本里","LIN":"20鄰","STREET":"忠義街","SECT":" ","MAREA":" ","LANE":" ","ALLEY":" ","HOUSE_NO":"２號","E_COORD97":180081.79000000001,"N_COORD97":2566323.9300000002,"ADDRESS":"忠義街２號","OBJECTID":479548},"geometry":{"x":180081.79000000097,"y":2566323.9300000016}},{"attributes":{"ID":479574,"DIS_CODE":0,"TOWNNAME":"官田區","LI":"隆本里","LIN":"20鄰","STREET":"忠義街","SECT":" ","MAREA":" ","LANE":" ","ALLEY":" ","HOUSE_NO":"７號","E_COORD97":180110.01000000001,"N_COORD97":2566297.98,"ADDRESS":"忠義街７號","OBJECTID":479549},"geometry":{"x":180110.01000000071,"y":2566297.9800000004}},{"attributes":{"ID":479575,"DIS_CODE":0,"TOWNNAME":"官田區","LI":"隆本里","LIN":"20鄰","STREET":"忠義街","SECT":" ","MAREA":" ","LANE":" ","ALLEY":" ","HOUSE_NO":"８號","E_COORD97":180063.63,"N_COORD97":2566283.9199999999,"ADDRESS":"忠義街８號","OBJECTID":479550},"geometry":{"x":180063.63000000082,"y":2566283.9200000018}},{"attributes":{"ID":479576,"DIS_CODE":0,"TOWNNAME":"善化區","LI":"光文里","LIN":"20鄰","STREET":"建國路","SECT":" ","MAREA":" ","LANE":" ","ALLEY":" ","HOUSE_NO":"９４號","E_COORD97":178007.79999999999,"N_COORD97":2558859.7799999998,"ADDRESS":"建國路９４號","OBJECTID":479551},"geometry":{"x":178007.80000000075,"y":2558859.7799999993}},{"attributes":{"ID":479577,"DIS_CODE":0,"TOWNNAME":"善化區","LI":"光文里","LIN":"20鄰","STREET":"建國路","SECT":" ","MAREA":" ","LANE":" ","ALLEY":" ","HOUSE_NO":"８８號","E_COORD97":178013.85000000001,"N_COORD97":2558835.0299999998,"ADDRESS":"建國路８８號","OBJECTID":479552},"geometry":{"x":178013.85000000149,"y":2558835.0299999993}},{"attributes":{"ID":479578,"DIS_CODE":0,"TOWNNAME":"新營區","LI":"民生里","LIN":"4鄰","STREET":"三興街","SECT":" ","MAREA":" ","LANE":" ","ALLEY":" ","HOUSE_NO":"１５號","E_COORD97":179464.41,"N_COORD97":2578258.52,"ADDRESS":"三興街１５號","OBJECTID":479553},"geometry":{"x":179464.41000000015,"y":2578258.5199999996}},{"attributes":{"ID":479579,"DIS_CODE":0,"TOWNNAME":"東區","LI":"和平里","LIN":"20鄰","STREET":"文化路","SECT":" ","MAREA":" ","LANE":" ","ALLEY":" ","HOUSE_NO":"１６號","E_COORD97":171141.17999999999,"N_COORD97":2541907.8500000001,"ADDRESS":"文化路１６號","OBJECTID":479554},"geometry":{"x":171141.18000000156,"y":2541907.8499999996}},{"attributes":{"ID":479580,"DIS_CODE":0,"TOWNNAME":"善化區","LI":"光文里","LIN":"20鄰","STREET":"民生路","SECT":" ","MAREA":" ","LANE":" ","ALLEY":" ","HOUSE_NO":"３２２號","E_COORD97":178092.56,"N_COORD97":2558912.5099999998,"ADDRESS":"民生路３２２號","OBJECTID":479555},"geometry":{"x":178092.56000000052,"y":2558912.5100000016}},{"attributes":{"ID":479581,"DIS_CODE":0,"TOWNNAME":"善化區","LI":"光文里","LIN":"20鄰","STREET":"民生路","SECT":" ","MAREA":" ","LANE":" ","ALLEY":" ","HOUSE_NO":"３４２號","E_COORD97":178072.54999999999,"N_COORD97":2558911.7599999998,"ADDRESS":"民生路３４２號","OBJECTID":479556},"geometry":{"x":178072.55000000075,"y":2558911.7599999998}},{"attributes":{"ID":479582,"DIS_CODE":0,"TOWNNAME":"東區","LI":"衛國里","LIN":"20鄰","STREET":"林森路","SECT":"二段","MAREA":" ","LANE":" ","ALLEY":" ","HOUSE_NO":"１５６號","E_COORD97":170428.85999999999,"N_COORD97":2543242.3300000001,"ADDRESS":"林森路二段１５６號","OBJECTID":479557},"geometry":{"x":170428.86000000127,"y":2543242.3300000038}},{"attributes":{"ID":479583,"DIS_CODE":0,"TOWNNAME":"東區","LI":"衛國里","LIN":"20鄰","STREET":"林森路","SECT":"二段","MAREA":" ","LANE":" ","ALLEY":" ","HOUSE_NO":"１７２號","E_COORD97":170447.91,"N_COORD97":2543263.1299999999,"ADDRESS":"林森路二段１７２號","OBJECTID":479558},"geometry":{"x":170447.91000000015,"y":2543263.1300000008}},{"attributes":{"ID":479584,"DIS_CODE":0,"TOWNNAME":"東區","LI":"和平里","LIN":"20鄰","STREET":"仁和路","SECT":" ","MAREA":" ","LANE":" ","ALLEY":" ","HOUSE_NO":"７３號之２０","E_COORD97":171326.04000000001,"N_COORD97":2541658.1800000002,"ADDRESS":"仁和路７３號之２０","OBJECTID":479559},"geometry":{"x":171326.04000000097,"y":2541658.1799999997}},{"attributes":{"ID":479585,"DIS_CODE":0,"TOWNNAME":"新營區","LI":"新北里","LIN":"27鄰","STREET":"民生路","SECT":" ","MAREA":" ","LANE":" ","ALLEY":" ","HOUSE_NO":"３７３號","E_COORD97":178912.48000000001,"N_COORD97":2579132.73,"ADDRESS":"民生路３７３號","OBJECTID":479560},"geometry":{"x":178912.48000000138,"y":2579132.7300000004}},{"attributes":{"ID":479586,"DIS_CODE":0,"TOWNNAME":"南區","LI":"同安里","LIN":"8鄰","STREET":"灣裡路","SECT":" ","MAREA":" ","LANE":"３５１巷","ALLEY":" ","HOUSE_NO":"１１號","E_COORD97":166243.60999999999,"N_COORD97":2536204.0499999998,"ADDRESS":"灣裡路３５１巷１１號","OBJECTID":479561},"geometry":{"x":166243.61000000127,"y":2536204.0500000026}},{"attributes":{"ID":479587,"DIS_CODE":0,"TOWNNAME":"南區","LI":"同安里","LIN":"8鄰","STREET":"灣裡路","SECT":" ","MAREA":" ","LANE":"３５１巷","ALLEY":" ","HOUSE_NO":"１３號","E_COORD97":166264.57000000001,"N_COORD97":2536205.8999999999,"ADDRESS":"灣裡路３５１巷１３號","OBJECTID":479562},"geometry":{"x":166264.5700000003,"y":2536205.9000000004}},{"attributes":{"ID":479588,"DIS_CODE":0,"TOWNNAME":"新營區","LI":"民榮里","LIN":" ","STREET":"裕民路","SECT":" ","MAREA":" ","LANE":" ","ALLEY":" ","HOUSE_NO":"１５之４號","E_COORD97":179172.26999999999,"N_COORD97":2577819.2200000002,"ADDRESS":"裕民路１５之４號","OBJECTID":479563},"geometry":{"x":179172.27000000048,"y":2577819.2200000025}},{"attributes":{"ID":479589,"DIS_CODE":0,"TOWNNAME":"新營區","LI":"忠政里","LIN":"18鄰","STREET":"中正路","SECT":" ","MAREA":" ","LANE":" ","ALLEY":" ","HOUSE_NO":"２２１號之１","E_COORD97":180066.35000000001,"N_COORD97":2579797.3100000001,"ADDRESS":"中正路２２１號之１","OBJECTID":479564},"geometry":{"x":180066.34999999963,"y":2579797.3100000005}},{"attributes":{"ID":479590,"DIS_CODE":0,"TOWNNAME":"東區","LI":"衛國里","LIN":"20鄰","STREET":"林森路","SECT":"二段","MAREA":" ","LANE":" ","ALLEY":" ","HOUSE_NO":"１４２號","E_COORD97":170418.31,"N_COORD97":2543214.9300000002,"ADDRESS":"林森路二段１４２號","OBJECTID":479565},"geometry":{"x":170418.31000000052,"y":2543214.9300000016}},{"attributes":{"ID":479591,"DIS_CODE":0,"TOWNNAME":"東區","LI":"衛國里","LIN":"20鄰","STREET":"林森路","SECT":"二段","MAREA":" ","LANE":" ","ALLEY":" ","HOUSE_NO":"１４４號","E_COORD97":170419.85000000001,"N_COORD97":2543218.7599999998,"ADDRESS":"林森路二段１４４號","OBJECTID":479566},"geometry":{"x":170419.85000000056,"y":2543218.7600000035}},{"attributes":{"ID":479592,"DIS_CODE":0,"TOWNNAME":"東區","LI":"衛國里","LIN":"20鄰","STREET":"林森路","SECT":"二段","MAREA":" ","LANE":" ","ALLEY":" ","HOUSE_NO":"１４６號","E_COORD97":170420.81,"N_COORD97":2543222.21,"ADDRESS":"林森路二段１４６號","OBJECTID":479567},"geometry":{"x":170420.80999999959,"y":2543222.2100000009}},{"attributes":{"ID":479593,"DIS_CODE":0,"TOWNNAME":"東區","LI":"龍山里","LIN":"20鄰","STREET":"崇善路","SECT":" ","MAREA":" ","LANE":" ","ALLEY":" ","HOUSE_NO":"１６３號","E_COORD97":170337.76000000001,"N_COORD97":2542386.8900000001,"ADDRESS":"崇善路１６３號","OBJECTID":479568},"geometry":{"x":170337.76000000071,"y":2542386.8900000006}},{"attributes":{"ID":479594,"DIS_CODE":0,"TOWNNAME":"東區","LI":"龍山里","LIN":"20鄰","STREET":"崇善路","SECT":" ","MAREA":" ","LANE":" ","ALLEY":" ","HOUSE_NO":"１６７號","E_COORD97":170344.53,"N_COORD97":2542383.21,"ADDRESS":"崇善路１６７號","OBJECTID":479569},"geometry":{"x":170344.53000000119,"y":2542383.2100000028}},{"attributes":{"ID":479595,"DIS_CODE":0,"TOWNNAME":"東區","LI":"和平里","LIN":"20鄰","STREET":"文化路","SECT":" ","MAREA":" ","LANE":" ","ALLEY":" ","HOUSE_NO":"２號","E_COORD97":171116.48999999999,"N_COORD97":2541902.02,"ADDRESS":"文化路２號","OBJECTID":479570},"geometry":{"x":171116.49000000115,"y":2541902.0200000014}},{"attributes":{"ID":479596,"DIS_CODE":0,"TOWNNAME":"東區","LI":"和平里","LIN":"20鄰","STREET":"文化路","SECT":" ","MAREA":" ","LANE":" ","ALLEY":" ","HOUSE_NO":"１８之１號","E_COORD97":171151.37,"N_COORD97":2541911.3199999998,"ADDRESS":"文化路１８之１號","OBJECTID":479571},"geometry":{"x":171151.37000000011,"y":2541911.3200000022}},{"attributes":{"ID":479597,"DIS_CODE":0,"TOWNNAME":"東區","LI":"和平里","LIN":"20鄰","STREET":"文化路","SECT":" ","MAREA":" ","LANE":" ","ALLEY":" ","HOUSE_NO":"６號","E_COORD97":171121.47,"N_COORD97":2541904.48,"ADDRESS":"文化路６號","OBJECTID":479572},"geometry":{"x":171121.46999999974,"y":2541904.4800000004}},{"attributes":{"ID":479598,"DIS_CODE":0,"TOWNNAME":"東區","LI":"和平里","LIN":"20鄰","STREET":"文化路","SECT":" ","MAREA":" ","LANE":" ","ALLEY":" ","HOUSE_NO":"８號","E_COORD97":171126.39000000001,"N_COORD97":2541905.3199999998,"ADDRESS":"文化路８號","OBJECTID":479573},"geometry":{"x":171126.3900000006,"y":2541905.3200000003}},{"attributes":{"ID":479599,"DIS_CODE":0,"TOWNNAME":"東區","LI":"和平里","LIN":"20鄰","STREET":"文化路","SECT":" ","MAREA":" ","LANE":" ","ALLEY":" ","HOUSE_NO":"１８號","E_COORD97":171146.10999999999,"N_COORD97":2541908.7000000002,"ADDRESS":"文化路１８號","OBJECTID":479574},"geometry":{"x":171146.11000000127,"y":2541908.6999999993}},{"attributes":{"ID":479600,"DIS_CODE":0,"TOWNNAME":"東區","LI":"和平里","LIN":"20鄰","STREET":"仁和路","SECT":" ","MAREA":" ","LANE":" ","ALLEY":" ","HOUSE_NO":"４７之１號","E_COORD97":171103.12,"N_COORD97":2541898.8599999999,"ADDRESS":"仁和路４７之１號","OBJECTID":479575},"geometry":{"x":171103.12000000104,"y":2541898.8600000031}},{"attributes":{"ID":479601,"DIS_CODE":0,"TOWNNAME":"東區","LI":"和平里","LIN":"20鄰","STREET":"仁和路","SECT":" ","MAREA":" ","LANE":" ","ALLEY":" ","HOUSE_NO":"４７之２號","E_COORD97":171107.10000000001,"N_COORD97":2541894.52,"ADDRESS":"仁和路４７之２號","OBJECTID":479576},"geometry":{"x":171107.09999999963,"y":2541894.5200000033}},{"attributes":{"ID":479602,"DIS_CODE":0,"TOWNNAME":"東區","LI":"和平里","LIN":"20鄰","STREET":"仁和路","SECT":" ","MAREA":" ","LANE":" ","ALLEY":" ","HOUSE_NO":"４７之３號","E_COORD97":171104.51000000001,"N_COORD97":2541889.9700000002,"ADDRESS":"仁和路４７之３號","OBJECTID":479577},"geometry":{"x":171104.50999999978,"y":2541889.9700000025}},{"attributes":{"ID":479603,"DIS_CODE":0,"TOWNNAME":"東區","LI":"和平里","LIN":"20鄰","STREET":"仁和路","SECT":" ","MAREA":" ","LANE":" ","ALLEY":" ","HOUSE_NO":"４７號","E_COORD97":171101.79999999999,"N_COORD97":2541906.0600000001,"ADDRESS":"仁和路４７號","OBJECTID":479578},"geometry":{"x":171101.80000000075,"y":2541906.0600000024}},{"attributes":{"ID":479604,"DIS_CODE":0,"TOWNNAME":"東區","LI":"和平里","LIN":"20鄰","STREET":"仁和路","SECT":" ","MAREA":" ","LANE":" ","ALLEY":" ","HOUSE_NO":"４７之５號","E_COORD97":171105.26999999999,"N_COORD97":2541885.5,"ADDRESS":"仁和路４７之５號","OBJECTID":479579},"geometry":{"x":171105.27000000048,"y":2541885.5000000019}},{"attributes":{"ID":479605,"DIS_CODE":0,"TOWNNAME":"東區","LI":"和平里","LIN":"20鄰","STREET":"仁和路","SECT":" ","MAREA":" ","LANE":" ","ALLEY":" ","HOUSE_NO":"４７之６號","E_COORD97":171117.20999999999,"N_COORD97":2541889.75,"ADDRESS":"仁和路４７之６號","OBJECTID":479580},"geometry":{"x":171117.20999999996,"y":2541889.7499999981}},{"attributes":{"ID":479606,"DIS_CODE":0,"TOWNNAME":"東區","LI":"和平里","LIN":"20鄰","STREET":"仁和路","SECT":" ","MAREA":" ","LANE":" ","ALLEY":" ","HOUSE_NO":"４７之７號","E_COORD97":171122.45999999999,"N_COORD97":2541892.5600000001,"ADDRESS":"仁和路４７之７號","OBJECTID":479581},"geometry":{"x":171122.46000000183,"y":2541892.5600000024}},{"attributes":{"ID":479607,"DIS_CODE":0,"TOWNNAME":"東區","LI":"和平里","LIN":"20鄰","STREET":"仁和路","SECT":" ","MAREA":" ","LANE":" ","ALLEY":" ","HOUSE_NO":"４７之８號","E_COORD97":171127.39000000001,"N_COORD97":2541893.3999999999,"ADDRESS":"仁和路４７之８號","OBJECTID":479582},"geometry":{"x":171127.38999999966,"y":2541893.4000000022}},{"attributes":{"ID":479608,"DIS_CODE":0,"TOWNNAME":"東區","LI":"和平里","LIN":"20鄰","STREET":"仁和路","SECT":" ","MAREA":" ","LANE":" ","ALLEY":" ","HOUSE_NO":"４７之９號","E_COORD97":171132.31,"N_COORD97":2541894.2400000002,"ADDRESS":"仁和路４７之９號","OBJECTID":479583},"geometry":{"x":171132.31000000052,"y":2541894.2400000021}},{"attributes":{"ID":479609,"DIS_CODE":0,"TOWNNAME":"東區","LI":"和平里","LIN":"20鄰","STREET":"仁和路","SECT":" ","MAREA":" ","LANE":" ","ALLEY":" ","HOUSE_NO":"４７之１０號","E_COORD97":171137.23999999999,"N_COORD97":2541895.0800000001,"ADDRESS":"仁和路４７之１０號","OBJECTID":479584},"geometry":{"x":171137.24000000022,"y":2541895.0800000019}},{"attributes":{"ID":479610,"DIS_CODE":0,"TOWNNAME":"東區","LI":"和平里","LIN":"20鄰","STREET":"仁和路","SECT":" ","MAREA":" ","LANE":" ","ALLEY":" ","HOUSE_NO":"４７之１１號","E_COORD97":171142.17000000001,"N_COORD97":2541895.9300000002,"ADDRESS":"仁和路４７之１１號","OBJECTID":479585},"geometry":{"x":171142.17000000086,"y":2541895.9300000016}},{"attributes":{"ID":479611,"DIS_CODE":0,"TOWNNAME":"東區","LI":"和平里","LIN":"20鄰","STREET":"仁和路","SECT":" ","MAREA":" ","LANE":" ","ALLEY":" ","HOUSE_NO":"４７之１２號","E_COORD97":171147.10000000001,"N_COORD97":2541896.77,"ADDRESS":"仁和路４７之１２號","OBJECTID":479586},"geometry":{"x":171147.10000000056,"y":2541896.7700000014}},{"attributes":{"ID":479612,"DIS_CODE":0,"TOWNNAME":"東區","LI":"和平里","LIN":"20鄰","STREET":"仁和路","SECT":" ","MAREA":" ","LANE":" ","ALLEY":" ","HOUSE_NO":"４７之１３號","E_COORD97":171153.51999999999,"N_COORD97":2541897.4199999999,"ADDRESS":"仁和路４７之１３號","OBJECTID":479587},"geometry":{"x":171153.51999999955,"y":2541897.4199999999}},{"attributes":{"ID":479613,"DIS_CODE":0,"TOWNNAME":"東區","LI":"和平里","LIN":"20鄰","STREET":"仁和路","SECT":" ","MAREA":" ","LANE":" ","ALLEY":" ","HOUSE_NO":"４７之１５號","E_COORD97":171156.25,"N_COORD97":2541879.5699999998,"ADDRESS":"仁和路４７之１５號","OBJECTID":479588},"geometry":{"x":171156.25000000186,"y":2541879.5700000022}},{"attributes":{"ID":479614,"DIS_CODE":0,"TOWNNAME":"東區","LI":"和平里","LIN":"20鄰","STREET":"仁和路","SECT":" ","MAREA":" ","LANE":" ","ALLEY":" ","HOUSE_NO":"４７之１８號","E_COORD97":171141.07000000001,"N_COORD97":2541876.8399999999,"ADDRESS":"仁和路４７之１８號","OBJECTID":479589},"geometry":{"x":171141.07000000123,"y":2541876.8400000017}},{"attributes":{"ID":479615,"DIS_CODE":0,"TOWNNAME":"東區","LI":"和平里","LIN":"20鄰","STREET":"仁和路","SECT":" ","MAREA":" ","LANE":" ","ALLEY":" ","HOUSE_NO":"４７之１９號","E_COORD97":171136.17000000001,"N_COORD97":2541875.79,"ADDRESS":"仁和路４７之１９號","OBJECTID":479590},"geometry":{"x":171136.16999999899,"y":2541875.790000001}},{"attributes":{"ID":479616,"DIS_CODE":0,"TOWNNAME":"東區","LI":"和平里","LIN":"20鄰","STREET":"仁和路","SECT":" ","MAREA":" ","LANE":" ","ALLEY":" ","HOUSE_NO":"４７之２０號","E_COORD97":171131.28,"N_COORD97":2541874.7400000002,"ADDRESS":"仁和路４７之２０號","OBJECTID":479591},"geometry":{"x":171131.28000000119,"y":2541874.7400000021}},{"attributes":{"ID":479617,"DIS_CODE":0,"TOWNNAME":"東區","LI":"和平里","LIN":"20鄰","STREET":"仁和路","SECT":" ","MAREA":" ","LANE":" ","ALLEY":" ","HOUSE_NO":"４７之２１號","E_COORD97":171126.39000000001,"N_COORD97":2541873.6800000002,"ADDRESS":"仁和路４７之２１號","OBJECTID":479592},"geometry":{"x":171126.3900000006,"y":2541873.6800000016}},{"attributes":{"ID":479618,"DIS_CODE":0,"TOWNNAME":"東區","LI":"和平里","LIN":"20鄰","STREET":"仁和路","SECT":" ","MAREA":" ","LANE":" ","ALLEY":" ","HOUSE_NO":"４７之２２號","E_COORD97":171120.47,"N_COORD97":2541873.23,"ADDRESS":"仁和路４７之２２號","OBJECTID":479593},"geometry":{"x":171120.4700000016,"y":2541873.2300000004}},{"attributes":{"ID":479619,"DIS_CODE":0,"TOWNNAME":"東區","LI":"和平里","LIN":"20鄰","STREET":"仁和路","SECT":" ","MAREA":" ","LANE":" ","ALLEY":" ","HOUSE_NO":"４９之２號","E_COORD97":171112.44,"N_COORD97":2541865.3799999999,"ADDRESS":"仁和路４９之２號","OBJECTID":479594},"geometry":{"x":171112.44000000041,"y":2541865.3800000008}},{"attributes":{"ID":479620,"DIS_CODE":0,"TOWNNAME":"東區","LI":"和平里","LIN":"20鄰","STREET":"仁和路","SECT":" ","MAREA":" ","LANE":" ","ALLEY":" ","HOUSE_NO":"４９之３號","E_COORD97":171110.23000000001,"N_COORD97":2541860.46,"ADDRESS":"仁和路４９之３號","OBJECTID":479595},"geometry":{"x":171110.23000000045,"y":2541860.4600000028}},{"attributes":{"ID":479621,"DIS_CODE":0,"TOWNNAME":"東區","LI":"和平里","LIN":"20鄰","STREET":"仁和路","SECT":" ","MAREA":" ","LANE":" ","ALLEY":" ","HOUSE_NO":"４９之５號","E_COORD97":171109.70000000001,"N_COORD97":2541856.29,"ADDRESS":"仁和路４９之５號","OBJECTID":479596},"geometry":{"x":171109.70000000112,"y":2541856.290000001}},{"attributes":{"ID":479622,"DIS_CODE":0,"TOWNNAME":"東區","LI":"和平里","LIN":"20鄰","STREET":"仁和路","SECT":" ","MAREA":" ","LANE":" ","ALLEY":" ","HOUSE_NO":"４９之６號","E_COORD97":171112.70000000001,"N_COORD97":2541851.96,"ADDRESS":"仁和路４９之６號","OBJECTID":479597},"geometry":{"x":171112.70000000205,"y":2541851.959999999}},{"attributes":{"ID":479623,"DIS_CODE":0,"TOWNNAME":"東區","LI":"和平里","LIN":"20鄰","STREET":"仁和路","SECT":" ","MAREA":" ","LANE":" ","ALLEY":" ","HOUSE_NO":"４９之７號","E_COORD97":171124.22,"N_COORD97":2541859.3300000001,"ADDRESS":"仁和路４９之７號","OBJECTID":479598},"geometry":{"x":171124.22000000067,"y":2541859.3300000019}},{"attributes":{"ID":479624,"DIS_CODE":0,"TOWNNAME":"東區","LI":"和平里","LIN":"20鄰","STREET":"仁和路","SECT":" ","MAREA":" ","LANE":" ","ALLEY":" ","HOUSE_NO":"４９之８號","E_COORD97":171129.76000000001,"N_COORD97":2541861.3399999999,"ADDRESS":"仁和路４９之８號","OBJECTID":479599},"geometry":{"x":171129.75999999978,"y":2541861.3399999999}},{"attributes":{"ID":479625,"DIS_CODE":0,"TOWNNAME":"東區","LI":"和平里","LIN":"20鄰","STREET":"仁和路","SECT":" ","MAREA":" ","LANE":" ","ALLEY":" ","HOUSE_NO":"４９之９號","E_COORD97":171134.54000000001,"N_COORD97":2541862.7999999998,"ADDRESS":"仁和路４９之９號","OBJECTID":479600},"geometry":{"x":171134.54000000097,"y":2541862.8000000007}}]}