{"displayFieldName":"TOWNNAME","fieldAliases":{"ID":"ID","DIS_CODE":"DIS_CODE","TOWNNAME":"TOWNNAME","LI":"LI","LIN":"LIN","STREET":"STREET","SECT":"SECT","MAREA":"MAREA","LANE":"LANE","ALLEY":"ALLEY","HOUSE_NO":"HOUSE_NO","E_COORD97":"E_COORD97","N_COORD97":"N_COORD97","ADDRESS":"ADDRESS","OBJECTID":"OBJECTID"},"geometryType":"esriGeometryPoint","spatialReference":{"wkid":102443,"latestWkid":3826},"fields":[{"name":"ID","type":"esriFieldTypeDouble","alias":"ID"},{"name":"DIS_CODE","type":"esriFieldTypeInteger","alias":"DIS_CODE"},{"name":"TOWNNAME","type":"esriFieldTypeString","alias":"TOWNNAME","length":8},{"name":"LI","type":"esriFieldTypeString","alias":"LI","length":8},{"name":"LIN","type":"esriFieldTypeString","alias":"LIN","length":12},{"name":"STREET","type":"esriFieldTypeString","alias":"STREET","length":20},{"name":"SECT","type":"esriFieldTypeString","alias":"SECT","length":8},{"name":"MAREA","type":"esriFieldTypeString","alias":"MAREA","length":12},{"name":"LANE","type":"esriFieldTypeString","alias":"LANE","length":10},{"name":"ALLEY","type":"esriFieldTypeString","alias":"ALLEY","length":10},{"name":"HOUSE_NO","type":"esriFieldTypeString","alias":"HOUSE_NO","length":20},{"name":"E_COORD97","type":"esriFieldTypeDouble","alias":"E_COORD97"},{"name":"N_COORD97","type":"esriFieldTypeDouble","alias":"N_COORD97"},{"name":"ADDRESS","type":"esriFieldTypeString","alias":"ADDRESS","length":50},{"name":"OBJECTID","type":"esriFieldTypeOID","alias":"OBJECTID"}],"features":[{"attributes":{"ID":58201,"DIS_CODE":0,"TOWNNAME":"安南區","LI":"淵西里","LIN":"1鄰","STREET":"安中路","SECT":"四段","MAREA":" ","LANE":"２９０巷","ALLEY":"２９１弄","HOUSE_NO":"７６號","E_COORD97":165012.94,"N_COORD97":2550469.6200000001,"ADDRESS":"安中路四段２９０巷２９１弄７６號","OBJECTID":58201},"geometry":{"x":165012.94000000041,"y":2550469.6200000048}},{"attributes":{"ID":58202,"DIS_CODE":0,"TOWNNAME":"安南區","LI":"淵西里","LIN":"1鄰","STREET":"安中路","SECT":"四段","MAREA":" ","LANE":"２９０巷","ALLEY":"２９１弄","HOUSE_NO":"７８號","E_COORD97":165011.13,"N_COORD97":2550465.3300000001,"ADDRESS":"安中路四段２９０巷２９１弄７８號","OBJECTID":58202},"geometry":{"x":165011.12999999989,"y":2550465.3300000019}},{"attributes":{"ID":58203,"DIS_CODE":0,"TOWNNAME":"安南區","LI":"淵西里","LIN":"1鄰","STREET":"安中路","SECT":"四段","MAREA":" ","LANE":"２９０巷","ALLEY":"２９１弄","HOUSE_NO":"８８號","E_COORD97":164993.39000000001,"N_COORD97":2550452.9199999999,"ADDRESS":"安中路四段２９０巷２９１弄８８號","OBJECTID":58203},"geometry":{"x":164993.3900000006,"y":2550452.9200000037}},{"attributes":{"ID":58204,"DIS_CODE":0,"TOWNNAME":"安南區","LI":"淵西里","LIN":"1鄰","STREET":"安中路","SECT":"四段","MAREA":" ","LANE":"２９０巷","ALLEY":"２９１弄","HOUSE_NO":"９０號","E_COORD97":164990.22,"N_COORD97":2550456.0800000001,"ADDRESS":"安中路四段２９０巷２９１弄９０號","OBJECTID":58204},"geometry":{"x":164990.21999999974,"y":2550456.0800000019}},{"attributes":{"ID":58205,"DIS_CODE":0,"TOWNNAME":"安南區","LI":"淵西里","LIN":"1鄰","STREET":"安中路","SECT":"四段","MAREA":" ","LANE":"２９０巷","ALLEY":"２９１弄","HOUSE_NO":"９２號","E_COORD97":164986.60999999999,"N_COORD97":2550458.5600000001,"ADDRESS":"安中路四段２９０巷２９１弄９２號","OBJECTID":58205},"geometry":{"x":164986.61000000034,"y":2550458.5600000005}},{"attributes":{"ID":58206,"DIS_CODE":0,"TOWNNAME":"安南區","LI":"淵西里","LIN":"1鄰","STREET":"安中路","SECT":"四段","MAREA":" ","LANE":"２９０巷","ALLEY":"２９１弄","HOUSE_NO":"９４號","E_COORD97":164982.98999999999,"N_COORD97":2550461.27,"ADDRESS":"安中路四段２９０巷２９１弄９４號","OBJECTID":58206},"geometry":{"x":164982.99000000115,"y":2550461.2700000014}},{"attributes":{"ID":58207,"DIS_CODE":0,"TOWNNAME":"安南區","LI":"淵西里","LIN":"1鄰","STREET":"安中路","SECT":"四段","MAREA":" ","LANE":"２９０巷","ALLEY":"２９１弄","HOUSE_NO":"９６號","E_COORD97":164980.04999999999,"N_COORD97":2550464.6499999999,"ADDRESS":"安中路四段２９０巷２９１弄９６號","OBJECTID":58207},"geometry":{"x":164980.05000000168,"y":2550464.6500000004}},{"attributes":{"ID":58208,"DIS_CODE":0,"TOWNNAME":"安南區","LI":"學東里","LIN":"1鄰","STREET":"公學路","SECT":"六段","MAREA":" ","LANE":"７２１巷","ALLEY":"３１６弄","HOUSE_NO":"１２０號","E_COORD97":162173.89999999999,"N_COORD97":2552752.5899999999,"ADDRESS":"公學路六段７２１巷３１６弄１２０號","OBJECTID":58208},"geometry":{"x":162173.90000000037,"y":2552752.5899999999}},{"attributes":{"ID":58209,"DIS_CODE":0,"TOWNNAME":"安南區","LI":"學東里","LIN":"1鄰","STREET":"公學路","SECT":"六段","MAREA":" ","LANE":"７２１巷","ALLEY":"３１６弄","HOUSE_NO":"１３０號","E_COORD97":162155.678701,"N_COORD97":2552706.7326099998,"ADDRESS":"公學路六段７２１巷３１６弄１３０號","OBJECTID":58209},"geometry":{"x":162155.67870100029,"y":2552706.7326120008}},{"attributes":{"ID":58210,"DIS_CODE":0,"TOWNNAME":"安南區","LI":"學東里","LIN":"1鄰","STREET":"公學路","SECT":"六段","MAREA":" ","LANE":"７２１巷","ALLEY":"３１６弄","HOUSE_NO":"１３２號","E_COORD97":162182.15913300001,"N_COORD97":2552708.0026099999,"ADDRESS":"公學路六段７２１巷３１６弄１３２號","OBJECTID":58210},"geometry":{"x":162182.1591330003,"y":2552708.0026110001}},{"attributes":{"ID":58211,"DIS_CODE":0,"TOWNNAME":"安南區","LI":"學東里","LIN":"1鄰","STREET":"公學路","SECT":"六段","MAREA":" ","LANE":"７２１巷","ALLEY":"３１６弄","HOUSE_NO":"１６０號","E_COORD97":162156.23000000001,"N_COORD97":2552616.3500000001,"ADDRESS":"公學路六段７２１巷３１６弄１６０號","OBJECTID":58211},"geometry":{"x":162156.23000000045,"y":2552616.3500000034}},{"attributes":{"ID":58212,"DIS_CODE":0,"TOWNNAME":"安南區","LI":"城東里","LIN":"1鄰","STREET":"城北路","SECT":" ","MAREA":" ","LANE":"１３８巷","ALLEY":"１０１弄","HOUSE_NO":"１４號","E_COORD97":161217.14000000001,"N_COORD97":2551784.96,"ADDRESS":"城北路１３８巷１０１弄１４號","OBJECTID":58212},"geometry":{"x":161217.13999999966,"y":2551784.9600000009}},{"attributes":{"ID":58213,"DIS_CODE":0,"TOWNNAME":"安南區","LI":"城東里","LIN":"1鄰","STREET":"城北路","SECT":" ","MAREA":" ","LANE":"１３８巷","ALLEY":"１０１弄","HOUSE_NO":"１７號","E_COORD97":161190.89000000001,"N_COORD97":2551770.71,"ADDRESS":"城北路１３８巷１０１弄１７號","OBJECTID":58213},"geometry":{"x":161190.8900000006,"y":2551770.7100000046}},{"attributes":{"ID":58214,"DIS_CODE":0,"TOWNNAME":"安南區","LI":"城東里","LIN":"1鄰","STREET":"城北路","SECT":" ","MAREA":" ","LANE":"２３４巷","ALLEY":"１０５弄","HOUSE_NO":"２２號","E_COORD97":161212.69,"N_COORD97":2551852.3300000001,"ADDRESS":"城北路２３４巷１０５弄２２號","OBJECTID":58214},"geometry":{"x":161212.69000000041,"y":2551852.3300000001}},{"attributes":{"ID":58215,"DIS_CODE":0,"TOWNNAME":"善化區","LI":"小新里","LIN":"1鄰","STREET":"成功路","SECT":" ","MAREA":" ","LANE":"３巷","ALLEY":"２２弄","HOUSE_NO":"７號","E_COORD97":180081.63,"N_COORD97":2558439,"ADDRESS":"成功路３巷２２弄７號","OBJECTID":58215},"geometry":{"x":180081.62999999989,"y":2558439}},{"attributes":{"ID":58216,"DIS_CODE":0,"TOWNNAME":"東區","LI":"文聖里","LIN":"1鄰","STREET":"裕農路","SECT":" ","MAREA":" ","LANE":"６６８巷","ALLEY":"７５弄","HOUSE_NO":"１號之１","E_COORD97":171823.45999999999,"N_COORD97":2542861.1000000001,"ADDRESS":"裕農路６６８巷７５弄１號之１","OBJECTID":58216},"geometry":{"x":171823.45999999996,"y":2542861.1000000015}},{"attributes":{"ID":58217,"DIS_CODE":0,"TOWNNAME":"東區","LI":"文聖里","LIN":"1鄰","STREET":"裕農路","SECT":" ","MAREA":" ","LANE":"６６８巷","ALLEY":"７５弄","HOUSE_NO":"２號","E_COORD97":171789.47,"N_COORD97":2542846.1800000002,"ADDRESS":"裕農路６６８巷７５弄２號","OBJECTID":58217},"geometry":{"x":171789.46999999974,"y":2542846.1800000034}},{"attributes":{"ID":58218,"DIS_CODE":0,"TOWNNAME":"東區","LI":"文聖里","LIN":"1鄰","STREET":"裕農路","SECT":" ","MAREA":" ","LANE":"６６８巷","ALLEY":"７５弄","HOUSE_NO":"１３號","E_COORD97":171808.72,"N_COORD97":2542814.5600000001,"ADDRESS":"裕農路６６８巷７５弄１３號","OBJECTID":58218},"geometry":{"x":171808.7200000016,"y":2542814.5600000024}},{"attributes":{"ID":58219,"DIS_CODE":0,"TOWNNAME":"東區","LI":"文聖里","LIN":"1鄰","STREET":"裕農路","SECT":" ","MAREA":" ","LANE":"６６８巷","ALLEY":"７５弄","HOUSE_NO":"１６號","E_COORD97":171792.92000000001,"N_COORD97":2542818.3300000001,"ADDRESS":"裕農路６６８巷７５弄１６號","OBJECTID":58219},"geometry":{"x":171792.92000000086,"y":2542818.3299999982}},{"attributes":{"ID":58220,"DIS_CODE":0,"TOWNNAME":"東區","LI":"文聖里","LIN":"1鄰","STREET":"裕農路","SECT":" ","MAREA":" ","LANE":"６６８巷","ALLEY":"７５弄","HOUSE_NO":"１８號","E_COORD97":171794.13,"N_COORD97":2542811.98,"ADDRESS":"裕農路６６８巷７５弄１８號","OBJECTID":58220},"geometry":{"x":171794.12999999896,"y":2542811.9800000023}},{"attributes":{"ID":58221,"DIS_CODE":0,"TOWNNAME":"安定區","LI":"港南里","LIN":"1鄰","STREET":" ","SECT":" ","MAREA":"港口","LANE":" ","ALLEY":" ","HOUSE_NO":"１之１０號","E_COORD97":170824.94,"N_COORD97":2554079.2999999998,"ADDRESS":"港口１之１０號","OBJECTID":58221},"geometry":{"x":170824.94000000134,"y":2554079.3000000026}},{"attributes":{"ID":58222,"DIS_CODE":0,"TOWNNAME":"東區","LI":"新東里","LIN":"1鄰","STREET":"東門路","SECT":"二段","MAREA":" ","LANE":"１６７巷","ALLEY":"１６弄","HOUSE_NO":"１號","E_COORD97":170406.57000000001,"N_COORD97":2542920.1000000001,"ADDRESS":"東門路二段１６７巷１６弄１號","OBJECTID":58222},"geometry":{"x":170406.5700000003,"y":2542920.0999999996}},{"attributes":{"ID":58223,"DIS_CODE":0,"TOWNNAME":"東區","LI":"新東里","LIN":"1鄰","STREET":"東門路","SECT":"二段","MAREA":" ","LANE":"１６７巷","ALLEY":"１６弄","HOUSE_NO":"１１號","E_COORD97":170438.38,"N_COORD97":2542924.9700000002,"ADDRESS":"東門路二段１６７巷１６弄１１號","OBJECTID":58223},"geometry":{"x":170438.38000000082,"y":2542924.9700000025}},{"attributes":{"ID":58224,"DIS_CODE":0,"TOWNNAME":"安定區","LI":"蘇林里","LIN":"1鄰","STREET":" ","SECT":" ","MAREA":"蘇厝","LANE":" ","ALLEY":" ","HOUSE_NO":"１之３９號","E_COORD97":174262.37,"N_COORD97":2558931.2999999998,"ADDRESS":"蘇厝１之３９號","OBJECTID":58224},"geometry":{"x":174262.37000000011,"y":2558931.3000000026}},{"attributes":{"ID":58225,"DIS_CODE":0,"TOWNNAME":"安定區","LI":"六嘉里","LIN":"1鄰","STREET":" ","SECT":" ","MAREA":"六塊寮","LANE":" ","ALLEY":" ","HOUSE_NO":"１０號之７","E_COORD97":170427.23000000001,"N_COORD97":2553665.2999999998,"ADDRESS":"六塊寮１０號之７","OBJECTID":58225},"geometry":{"x":170427.23000000045,"y":2553665.3000000045}},{"attributes":{"ID":58226,"DIS_CODE":0,"TOWNNAME":"安定區","LI":"保西里","LIN":"1鄰","STREET":" ","SECT":" ","MAREA":"安定","LANE":" ","ALLEY":" ","HOUSE_NO":"３２９號","E_COORD97":171658.92000000001,"N_COORD97":2557563.3199999998,"ADDRESS":"安定３２９號","OBJECTID":58226},"geometry":{"x":171658.92000000086,"y":2557563.3199999984}},{"attributes":{"ID":58227,"DIS_CODE":0,"TOWNNAME":"六甲區","LI":"中社里","LIN":"8鄰","STREET":" ","SECT":" ","MAREA":"中社","LANE":" ","ALLEY":" ","HOUSE_NO":"３４６號","E_COORD97":180885.32999999999,"N_COORD97":2570851.04,"ADDRESS":"中社３４６號","OBJECTID":58227},"geometry":{"x":180885.33000000007,"y":2570851.0400000028}},{"attributes":{"ID":58228,"DIS_CODE":0,"TOWNNAME":"安定區","LI":"海寮里","LIN":"1鄰","STREET":" ","SECT":" ","MAREA":"海寮","LANE":" ","ALLEY":" ","HOUSE_NO":"１９之３號","E_COORD97":169289.09,"N_COORD97":2555129.2999999998,"ADDRESS":"海寮１９之３號","OBJECTID":58228},"geometry":{"x":169289.09000000171,"y":2555129.3000000007}},{"attributes":{"ID":58229,"DIS_CODE":0,"TOWNNAME":"安定區","LI":"安加里","LIN":"1鄰","STREET":" ","SECT":" ","MAREA":"安定","LANE":" ","ALLEY":" ","HOUSE_NO":"１５９號之１１","E_COORD97":171981.85293699999,"N_COORD97":2557505.65943,"ADDRESS":"安定１５９號之１１","OBJECTID":58229},"geometry":{"x":171981.85293699987,"y":2557505.6594310012}},{"attributes":{"ID":58230,"DIS_CODE":0,"TOWNNAME":"東區","LI":"新東里","LIN":"1鄰","STREET":"東門路","SECT":"二段","MAREA":" ","LANE":"１６７巷","ALLEY":"１６弄","HOUSE_NO":"１３號","E_COORD97":170444.81,"N_COORD97":2542926.1899999999,"ADDRESS":"東門路二段１６７巷１６弄１３號","OBJECTID":58230},"geometry":{"x":170444.80999999959,"y":2542926.1899999995}},{"attributes":{"ID":58231,"DIS_CODE":0,"TOWNNAME":"東區","LI":"新東里","LIN":"1鄰","STREET":"東門路","SECT":"二段","MAREA":" ","LANE":"１６７巷","ALLEY":"１６弄","HOUSE_NO":"１５號","E_COORD97":170451.59,"N_COORD97":2542927.23,"ADDRESS":"東門路二段１６７巷１６弄１５號","OBJECTID":58231},"geometry":{"x":170451.58999999985,"y":2542927.2300000004}},{"attributes":{"ID":58232,"DIS_CODE":0,"TOWNNAME":"東區","LI":"新東里","LIN":"1鄰","STREET":"東門路","SECT":"二段","MAREA":" ","LANE":"１６７巷","ALLEY":"１６弄","HOUSE_NO":"１７號","E_COORD97":170458.37,"N_COORD97":2542928.4500000002,"ADDRESS":"東門路二段１６７巷１６弄１７號","OBJECTID":58232},"geometry":{"x":170458.37000000011,"y":2542928.4499999974}},{"attributes":{"ID":58233,"DIS_CODE":0,"TOWNNAME":"東區","LI":"新東里","LIN":"1鄰","STREET":"東門路","SECT":"二段","MAREA":" ","LANE":"１６７巷","ALLEY":"１６弄","HOUSE_NO":"１９號","E_COORD97":170462.89000000001,"N_COORD97":2542929.8399999999,"ADDRESS":"東門路二段１６７巷１６弄１９號","OBJECTID":58233},"geometry":{"x":170462.88999999966,"y":2542929.839999998}},{"attributes":{"ID":58234,"DIS_CODE":0,"TOWNNAME":"東區","LI":"新東里","LIN":"1鄰","STREET":"東門路","SECT":"二段","MAREA":" ","LANE":"１６７巷","ALLEY":"１６弄","HOUSE_NO":"２１號","E_COORD97":170468.97,"N_COORD97":2542930.0099999998,"ADDRESS":"東門路二段１６７巷１６弄２１號","OBJECTID":58234},"geometry":{"x":170468.96999999974,"y":2542930.0100000016}},{"attributes":{"ID":58235,"DIS_CODE":0,"TOWNNAME":"東區","LI":"新東里","LIN":"1鄰","STREET":"東門路","SECT":"二段","MAREA":" ","LANE":"１６７巷","ALLEY":"１６弄","HOUSE_NO":"２８號","E_COORD97":170471.06,"N_COORD97":2542914.8900000001,"ADDRESS":"東門路二段１６７巷１６弄２８號","OBJECTID":58235},"geometry":{"x":170471.06000000052,"y":2542914.8900000025}},{"attributes":{"ID":58236,"DIS_CODE":0,"TOWNNAME":"東區","LI":"新東里","LIN":"1鄰","STREET":"東門路","SECT":"二段","MAREA":" ","LANE":"１６７巷","ALLEY":"１６弄","HOUSE_NO":"２號","E_COORD97":170407.60999999999,"N_COORD97":2542907.2400000002,"ADDRESS":"東門路二段１６７巷１６弄２號","OBJECTID":58236},"geometry":{"x":170407.61000000034,"y":2542907.2399999984}},{"attributes":{"ID":58237,"DIS_CODE":0,"TOWNNAME":"東區","LI":"新東里","LIN":"1鄰","STREET":"東門路","SECT":"二段","MAREA":" ","LANE":"１６７巷","ALLEY":"１６弄","HOUSE_NO":"２６號","E_COORD97":170466.01999999999,"N_COORD97":2542915.0600000001,"ADDRESS":"東門路二段１６７巷１６弄２６號","OBJECTID":58237},"geometry":{"x":170466.02000000048,"y":2542915.0600000005}},{"attributes":{"ID":58238,"DIS_CODE":0,"TOWNNAME":"東區","LI":"新東里","LIN":"1鄰","STREET":"東門路","SECT":"二段","MAREA":" ","LANE":"１６７巷","ALLEY":"１６弄","HOUSE_NO":"１０號","E_COORD97":170427.60000000001,"N_COORD97":2542909.8500000001,"ADDRESS":"東門路二段１６７巷１６弄１０號","OBJECTID":58238},"geometry":{"x":170427.59999999963,"y":2542909.8500000015}},{"attributes":{"ID":58239,"DIS_CODE":0,"TOWNNAME":"東區","LI":"新東里","LIN":"1鄰","STREET":"東門路","SECT":"二段","MAREA":" ","LANE":"１６７巷","ALLEY":"１６弄","HOUSE_NO":"２２號","E_COORD97":170460.10999999999,"N_COORD97":2542914.8900000001,"ADDRESS":"東門路二段１６７巷１６弄２２號","OBJECTID":58239},"geometry":{"x":170460.11000000034,"y":2542914.8900000025}},{"attributes":{"ID":58240,"DIS_CODE":0,"TOWNNAME":"安定區","LI":"南安里","LIN":"1鄰","STREET":" ","SECT":" ","MAREA":"油車","LANE":" ","ALLEY":" ","HOUSE_NO":"６之１７號","E_COORD97":170766.54000000001,"N_COORD97":2555949.2999999998,"ADDRESS":"油車６之１７號","OBJECTID":58240},"geometry":{"x":170766.54000000097,"y":2555949.3000000007}},{"attributes":{"ID":58241,"DIS_CODE":0,"TOWNNAME":"安定區","LI":"海寮里","LIN":"1鄰","STREET":" ","SECT":" ","MAREA":"海寮","LANE":" ","ALLEY":" ","HOUSE_NO":"２之１號","E_COORD97":169011.44,"N_COORD97":2555179.2999999998,"ADDRESS":"海寮２之１號","OBJECTID":58241},"geometry":{"x":169011.44000000134,"y":2555179.3000000007}},{"attributes":{"ID":58242,"DIS_CODE":0,"TOWNNAME":"安定區","LI":"六嘉里","LIN":"1鄰","STREET":" ","SECT":" ","MAREA":"六塊寮","LANE":" ","ALLEY":" ","HOUSE_NO":"１０之１０號","E_COORD97":170420.97,"N_COORD97":2553689.2999999998,"ADDRESS":"六塊寮１０之１０號","OBJECTID":58242},"geometry":{"x":170420.97000000067,"y":2553689.3000000026}},{"attributes":{"ID":58243,"DIS_CODE":0,"TOWNNAME":"安定區","LI":"六嘉里","LIN":"1鄰","STREET":" ","SECT":" ","MAREA":"六塊寮","LANE":" ","ALLEY":" ","HOUSE_NO":"１０號之８","E_COORD97":170308.275337,"N_COORD97":2553584.0310999998,"ADDRESS":"六塊寮１０號之８","OBJECTID":58243},"geometry":{"x":170308.27533700131,"y":2553584.0310990009}},{"attributes":{"ID":58244,"DIS_CODE":0,"TOWNNAME":"東區","LI":"新東里","LIN":"1鄰","STREET":"東門路","SECT":"二段","MAREA":" ","LANE":"１６７巷","ALLEY":"１６弄","HOUSE_NO":"２０號","E_COORD97":170453.85000000001,"N_COORD97":2542914.8900000001,"ADDRESS":"東門路二段１６７巷１６弄２０號","OBJECTID":58244},"geometry":{"x":170453.85000000056,"y":2542914.8900000025}},{"attributes":{"ID":58245,"DIS_CODE":0,"TOWNNAME":"東區","LI":"新東里","LIN":"1鄰","STREET":"東門路","SECT":"二段","MAREA":" ","LANE":"１６７巷","ALLEY":"１６弄","HOUSE_NO":"７號","E_COORD97":170424.29999999999,"N_COORD97":2542924.27,"ADDRESS":"東門路二段１６７巷１６弄７號","OBJECTID":58245},"geometry":{"x":170424.29999999981,"y":2542924.2700000014}},{"attributes":{"ID":58246,"DIS_CODE":0,"TOWNNAME":"東區","LI":"新東里","LIN":"1鄰","STREET":"東門路","SECT":"二段","MAREA":" ","LANE":"１６７巷","ALLEY":"１６弄","HOUSE_NO":"８號","E_COORD97":170419.07999999999,"N_COORD97":2542908.2799999998,"ADDRESS":"東門路二段１６７巷１６弄８號","OBJECTID":58246},"geometry":{"x":170419.08000000101,"y":2542908.2799999993}},{"attributes":{"ID":58247,"DIS_CODE":0,"TOWNNAME":"安定區","LI":"管寮里","LIN":"1鄰","STREET":" ","SECT":" ","MAREA":"管寮","LANE":" ","ALLEY":" ","HOUSE_NO":"１０號","E_COORD97":169968.14000000001,"N_COORD97":2556115.25,"ADDRESS":"管寮１０號","OBJECTID":58247},"geometry":{"x":169968.13999999873,"y":2556115.25}},{"attributes":{"ID":58248,"DIS_CODE":0,"TOWNNAME":"安定區","LI":"海寮里","LIN":"1鄰","STREET":" ","SECT":" ","MAREA":"海寮","LANE":" ","ALLEY":" ","HOUSE_NO":"１８之１８號","E_COORD97":169224.64000000001,"N_COORD97":2555060.2999999998,"ADDRESS":"海寮１８之１８號","OBJECTID":58248},"geometry":{"x":169224.6400000006,"y":2555060.3000000026}},{"attributes":{"ID":58249,"DIS_CODE":0,"TOWNNAME":"安定區","LI":"海寮里","LIN":"1鄰","STREET":" ","SECT":" ","MAREA":"海寮","LANE":" ","ALLEY":" ","HOUSE_NO":"１４號之４","E_COORD97":169181.95000000001,"N_COORD97":2555120.2999999998,"ADDRESS":"海寮１４號之４","OBJECTID":58249},"geometry":{"x":169181.95000000112,"y":2555120.3000000026}},{"attributes":{"ID":58250,"DIS_CODE":0,"TOWNNAME":"安定區","LI":"海寮里","LIN":"1鄰","STREET":" ","SECT":" ","MAREA":"海寮","LANE":" ","ALLEY":" ","HOUSE_NO":"１８號之４","E_COORD97":169264.14999999999,"N_COORD97":2555076.2999999998,"ADDRESS":"海寮１８號之４","OBJECTID":58250},"geometry":{"x":169264.1500000013,"y":2555076.3000000026}},{"attributes":{"ID":58251,"DIS_CODE":0,"TOWNNAME":"安定區","LI":"蘇厝里","LIN":"1鄰","STREET":" ","SECT":" ","MAREA":"蘇厝","LANE":" ","ALLEY":" ","HOUSE_NO":"２７６之１號","E_COORD97":173428.12,"N_COORD97":2558534.2999999998,"ADDRESS":"蘇厝２７６之１號","OBJECTID":58251},"geometry":{"x":173428.12000000011,"y":2558534.3000000026}},{"attributes":{"ID":58252,"DIS_CODE":0,"TOWNNAME":"安定區","LI":"蘇林里","LIN":"1鄰","STREET":" ","SECT":" ","MAREA":"蘇厝","LANE":" ","ALLEY":" ","HOUSE_NO":"１１號","E_COORD97":173603.47,"N_COORD97":2558594.25,"ADDRESS":"蘇厝１１號","OBJECTID":58252},"geometry":{"x":173603.46999999974,"y":2558594.2499999981}},{"attributes":{"ID":58253,"DIS_CODE":0,"TOWNNAME":"安定區","LI":"海寮里","LIN":"1鄰","STREET":" ","SECT":" ","MAREA":"海寮","LANE":" ","ALLEY":" ","HOUSE_NO":"１２之７號","E_COORD97":169134.59,"N_COORD97":2555175.2999999998,"ADDRESS":"海寮１２之７號","OBJECTID":58253},"geometry":{"x":169134.58999999892,"y":2555175.3000000026}},{"attributes":{"ID":58254,"DIS_CODE":0,"TOWNNAME":"安定區","LI":"安加里","LIN":"1鄰","STREET":" ","SECT":" ","MAREA":"安定","LANE":" ","ALLEY":" ","HOUSE_NO":"１５９號之１３","E_COORD97":171988.39999999999,"N_COORD97":2557608.3199999998,"ADDRESS":"安定１５９號之１３","OBJECTID":58254},"geometry":{"x":171988.4000000013,"y":2557608.3200000022}},{"attributes":{"ID":58255,"DIS_CODE":0,"TOWNNAME":"安定區","LI":"蘇林里","LIN":"1鄰","STREET":" ","SECT":" ","MAREA":"蘇厝","LANE":" ","ALLEY":" ","HOUSE_NO":"２之１５號","E_COORD97":173907.26999999999,"N_COORD97":2558503.2999999998,"ADDRESS":"蘇厝２之１５號","OBJECTID":58255},"geometry":{"x":173907.27000000048,"y":2558503.3000000045}},{"attributes":{"ID":58256,"DIS_CODE":0,"TOWNNAME":"六甲區","LI":"六甲里","LIN":" ","STREET":"仁愛街","SECT":" ","MAREA":" ","LANE":" ","ALLEY":" ","HOUSE_NO":"５８之２號","E_COORD97":183871.85999999999,"N_COORD97":2570016.5299999998,"ADDRESS":"仁愛街５８之２號","OBJECTID":58256},"geometry":{"x":183871.86000000127,"y":2570016.5299999993}},{"attributes":{"ID":58257,"DIS_CODE":0,"TOWNNAME":"六甲區","LI":"六甲里","LIN":" ","STREET":"民生街","SECT":" ","MAREA":" ","LANE":" ","ALLEY":" ","HOUSE_NO":"１１７號","E_COORD97":183714.39000000001,"N_COORD97":2569769,"ADDRESS":"民生街１１７號","OBJECTID":58257},"geometry":{"x":183714.38999999873,"y":2569769.0000000019}},{"attributes":{"ID":58258,"DIS_CODE":0,"TOWNNAME":"六甲區","LI":"龍湖里","LIN":"14鄰","STREET":"中正路","SECT":" ","MAREA":" ","LANE":" ","ALLEY":" ","HOUSE_NO":"１６７號","E_COORD97":183418.47,"N_COORD97":2569058.71,"ADDRESS":"中正路１６７號","OBJECTID":58258},"geometry":{"x":183418.46999999974,"y":2569058.7100000028}},{"attributes":{"ID":58259,"DIS_CODE":0,"TOWNNAME":"東區","LI":"新東里","LIN":"1鄰","STREET":"東門路","SECT":"二段","MAREA":" ","LANE":"１６７巷","ALLEY":"１６弄","HOUSE_NO":"９號","E_COORD97":170430.56,"N_COORD97":2542924.7999999998,"ADDRESS":"東門路二段１６７巷１６弄９號","OBJECTID":58259},"geometry":{"x":170430.56000000052,"y":2542924.8000000026}},{"attributes":{"ID":58260,"DIS_CODE":0,"TOWNNAME":"善化區","LI":"小新里","LIN":"1鄰","STREET":"成功路","SECT":" ","MAREA":" ","LANE":"３巷","ALLEY":"２２弄","HOUSE_NO":"９號","E_COORD97":180076.59,"N_COORD97":2558456.25,"ADDRESS":"成功路３巷２２弄９號","OBJECTID":58260},"geometry":{"x":180076.58999999985,"y":2558456.2500000019}},{"attributes":{"ID":58261,"DIS_CODE":0,"TOWNNAME":"善化區","LI":"小新里","LIN":"1鄰","STREET":"成功路","SECT":" ","MAREA":" ","LANE":"３巷","ALLEY":"６６弄","HOUSE_NO":"２號","E_COORD97":180003.20999999999,"N_COORD97":2558318.75,"ADDRESS":"成功路３巷６６弄２號","OBJECTID":58261},"geometry":{"x":180003.20999999996,"y":2558318.75}},{"attributes":{"ID":58262,"DIS_CODE":0,"TOWNNAME":"善化區","LI":"小新里","LIN":"1鄰","STREET":"成功路","SECT":" ","MAREA":" ","LANE":"３巷","ALLEY":"６６弄","HOUSE_NO":"８號","E_COORD97":179996.79000000001,"N_COORD97":2558317.5,"ADDRESS":"成功路３巷６６弄８號","OBJECTID":58262},"geometry":{"x":179996.79000000097,"y":2558317.5}},{"attributes":{"ID":58263,"DIS_CODE":0,"TOWNNAME":"善化區","LI":"小新里","LIN":"1鄰","STREET":"成功路","SECT":" ","MAREA":" ","LANE":"３巷","ALLEY":"３６弄","HOUSE_NO":"２５號","E_COORD97":180038.09,"N_COORD97":2558417.5,"ADDRESS":"成功路３巷３６弄２５號","OBJECTID":58263},"geometry":{"x":180038.08999999892,"y":2558417.5000000019}},{"attributes":{"ID":58264,"DIS_CODE":0,"TOWNNAME":"善化區","LI":"小新里","LIN":"1鄰","STREET":"成功路","SECT":" ","MAREA":" ","LANE":"３巷","ALLEY":"３６弄","HOUSE_NO":"１５號","E_COORD97":180057.41,"N_COORD97":2558411.5,"ADDRESS":"成功路３巷３６弄１５號","OBJECTID":58264},"geometry":{"x":180057.41000000108,"y":2558411.5}},{"attributes":{"ID":58265,"DIS_CODE":0,"TOWNNAME":"善化區","LI":"小新里","LIN":"1鄰","STREET":"成功路","SECT":" ","MAREA":" ","LANE":"３巷","ALLEY":"２２弄","HOUSE_NO":"２５號","E_COORD97":180042.95000000001,"N_COORD97":2558463,"ADDRESS":"成功路３巷２２弄２５號","OBJECTID":58265},"geometry":{"x":180042.95000000205,"y":2558463}},{"attributes":{"ID":58266,"DIS_CODE":0,"TOWNNAME":"仁德區","LI":"上崙里","LIN":"1鄰","STREET":"德崙路","SECT":" ","MAREA":" ","LANE":"１６１巷","ALLEY":"７弄","HOUSE_NO":"１０號","E_COORD97":173562.81,"N_COORD97":2538401.4300000002,"ADDRESS":"德崙路１６１巷７弄１０號","OBJECTID":58266},"geometry":{"x":173562.81000000052,"y":2538401.4300000016}},{"attributes":{"ID":58267,"DIS_CODE":0,"TOWNNAME":"仁德區","LI":"仁義里","LIN":"1鄰","STREET":"義林路","SECT":" ","MAREA":" ","LANE":"１４５巷","ALLEY":"２弄","HOUSE_NO":"３號","E_COORD97":174273.95999999999,"N_COORD97":2540612.2400000002,"ADDRESS":"義林路１４５巷２弄３號","OBJECTID":58267},"geometry":{"x":174273.96000000183,"y":2540612.2400000039}},{"attributes":{"ID":58268,"DIS_CODE":0,"TOWNNAME":"仁德區","LI":"上崙里","LIN":"1鄰","STREET":"德崙路","SECT":" ","MAREA":" ","LANE":"１７５巷","ALLEY":"５弄","HOUSE_NO":"７號","E_COORD97":173601.12,"N_COORD97":2538374.3799999999,"ADDRESS":"德崙路１７５巷５弄７號","OBJECTID":58268},"geometry":{"x":173601.12000000011,"y":2538374.379999999}},{"attributes":{"ID":58269,"DIS_CODE":0,"TOWNNAME":"仁德區","LI":"上崙里","LIN":"1鄰","STREET":"德崙路","SECT":" ","MAREA":" ","LANE":"１７５巷","ALLEY":"５弄","HOUSE_NO":"９號","E_COORD97":173602.53,"N_COORD97":2538379.8700000001,"ADDRESS":"德崙路１７５巷５弄９號","OBJECTID":58269},"geometry":{"x":173602.53000000119,"y":2538379.870000001}},{"attributes":{"ID":58270,"DIS_CODE":0,"TOWNNAME":"仁德區","LI":"上崙里","LIN":"1鄰","STREET":"德崙路","SECT":" ","MAREA":" ","LANE":"１７５巷","ALLEY":"５弄","HOUSE_NO":"６號","E_COORD97":173622.38,"N_COORD97":2538370.77,"ADDRESS":"德崙路１７５巷５弄６號","OBJECTID":58270},"geometry":{"x":173622.38000000082,"y":2538370.7700000014}},{"attributes":{"ID":58271,"DIS_CODE":0,"TOWNNAME":"仁德區","LI":"上崙里","LIN":"1鄰","STREET":"德崙路","SECT":" ","MAREA":" ","LANE":"１７５巷","ALLEY":"５弄","HOUSE_NO":"１５號","E_COORD97":173607.01000000001,"N_COORD97":2538396.1200000001,"ADDRESS":"德崙路１７５巷５弄１５號","OBJECTID":58271},"geometry":{"x":173607.00999999885,"y":2538396.120000001}},{"attributes":{"ID":58272,"DIS_CODE":0,"TOWNNAME":"北區","LI":"大道里","LIN":"8鄰","STREET":"和緯路","SECT":"一段","MAREA":" ","LANE":" ","ALLEY":" ","HOUSE_NO":"７２號","E_COORD97":169501.39000000001,"N_COORD97":2545569.0600000001,"ADDRESS":"和緯路一段７２號","OBJECTID":58272},"geometry":{"x":169501.38999999966,"y":2545569.0600000005}},{"attributes":{"ID":58273,"DIS_CODE":0,"TOWNNAME":"北區","LI":"大道里","LIN":"8鄰","STREET":"和緯路","SECT":"一段","MAREA":" ","LANE":" ","ALLEY":" ","HOUSE_NO":"６８號","E_COORD97":169511.23000000001,"N_COORD97":2545565.8799999999,"ADDRESS":"和緯路一段６８號","OBJECTID":58273},"geometry":{"x":169511.23000000138,"y":2545565.879999999}},{"attributes":{"ID":58274,"DIS_CODE":0,"TOWNNAME":"六甲區","LI":"甲南里","LIN":" ","STREET":"民生街","SECT":" ","MAREA":" ","LANE":" ","ALLEY":" ","HOUSE_NO":"１２０號","E_COORD97":183765.57000000001,"N_COORD97":2569817.1299999999,"ADDRESS":"民生街１２０號","OBJECTID":58274},"geometry":{"x":183765.57000000123,"y":2569817.1300000008}},{"attributes":{"ID":58275,"DIS_CODE":0,"TOWNNAME":"六甲區","LI":"六甲里","LIN":" ","STREET":"民生街","SECT":" ","MAREA":" ","LANE":" ","ALLEY":" ","HOUSE_NO":"１８５號","E_COORD97":183796.76999999999,"N_COORD97":2569896.8300000001,"ADDRESS":"民生街１８５號","OBJECTID":58275},"geometry":{"x":183796.77000000048,"y":2569896.8300000001}},{"attributes":{"ID":58276,"DIS_CODE":0,"TOWNNAME":"六甲區","LI":"六甲里","LIN":" ","STREET":"民生街","SECT":" ","MAREA":" ","LANE":" ","ALLEY":" ","HOUSE_NO":"５５號","E_COORD97":183662.48000000001,"N_COORD97":2569652.73,"ADDRESS":"民生街５５號","OBJECTID":58276},"geometry":{"x":183662.48000000138,"y":2569652.7300000004}},{"attributes":{"ID":58277,"DIS_CODE":0,"TOWNNAME":"六甲區","LI":"六甲里","LIN":" ","STREET":"民生街","SECT":" ","MAREA":" ","LANE":" ","ALLEY":" ","HOUSE_NO":"６５號","E_COORD97":183671.19,"N_COORD97":2569671.5099999998,"ADDRESS":"民生街６５號","OBJECTID":58277},"geometry":{"x":183671.19000000134,"y":2569671.5099999998}},{"attributes":{"ID":58278,"DIS_CODE":0,"TOWNNAME":"六甲區","LI":"水林里","LIN":" ","STREET":"民族街","SECT":" ","MAREA":" ","LANE":" ","ALLEY":" ","HOUSE_NO":"３１０號","E_COORD97":183103.54000000001,"N_COORD97":2570369.3199999998,"ADDRESS":"民族街３１０號","OBJECTID":58278},"geometry":{"x":183103.53999999911,"y":2570369.3200000022}},{"attributes":{"ID":58279,"DIS_CODE":0,"TOWNNAME":"安定區","LI":"蘇林里","LIN":"1鄰","STREET":" ","SECT":" ","MAREA":"蘇厝","LANE":" ","ALLEY":" ","HOUSE_NO":"２號之７","E_COORD97":174025.63,"N_COORD97":2558550.2999999998,"ADDRESS":"蘇厝２號之７","OBJECTID":58279},"geometry":{"x":174025.63000000082,"y":2558550.3000000007}},{"attributes":{"ID":58280,"DIS_CODE":0,"TOWNNAME":"安定區","LI":"蘇林里","LIN":"1鄰","STREET":" ","SECT":" ","MAREA":"蘇厝","LANE":" ","ALLEY":" ","HOUSE_NO":"３之１０號","E_COORD97":173793.87,"N_COORD97":2558526.2999999998,"ADDRESS":"蘇厝３之１０號","OBJECTID":58280},"geometry":{"x":173793.87000000104,"y":2558526.3000000007}},{"attributes":{"ID":58281,"DIS_CODE":0,"TOWNNAME":"安定區","LI":"海寮里","LIN":"1鄰","STREET":" ","SECT":" ","MAREA":"海寮","LANE":" ","ALLEY":" ","HOUSE_NO":"１８號之５","E_COORD97":169241.38,"N_COORD97":2555111.2999999998,"ADDRESS":"海寮１８號之５","OBJECTID":58281},"geometry":{"x":169241.38000000175,"y":2555111.3000000007}},{"attributes":{"ID":58282,"DIS_CODE":0,"TOWNNAME":"安定區","LI":"安加里","LIN":"1鄰","STREET":" ","SECT":" ","MAREA":"安定","LANE":" ","ALLEY":" ","HOUSE_NO":"１５９號之１２","E_COORD97":171988.44,"N_COORD97":2557602.3199999998,"ADDRESS":"安定１５９號之１２","OBJECTID":58282},"geometry":{"x":171988.44000000134,"y":2557602.3200000022}},{"attributes":{"ID":58283,"DIS_CODE":0,"TOWNNAME":"北區","LI":"大道里","LIN":"8鄰","STREET":"和緯路","SECT":"一段","MAREA":" ","LANE":" ","ALLEY":" ","HOUSE_NO":"６６號","E_COORD97":169515.67999999999,"N_COORD97":2545564.6099999999,"ADDRESS":"和緯路一段６６號","OBJECTID":58283},"geometry":{"x":169515.68000000063,"y":2545564.6099999994}},{"attributes":{"ID":58284,"DIS_CODE":0,"TOWNNAME":"北區","LI":"大道里","LIN":"8鄰","STREET":"和緯路","SECT":"一段","MAREA":" ","LANE":" ","ALLEY":" ","HOUSE_NO":"７０號","E_COORD97":169506.47,"N_COORD97":2545567.79,"ADDRESS":"和緯路一段７０號","OBJECTID":58284},"geometry":{"x":169506.46999999974,"y":2545567.790000001}},{"attributes":{"ID":58285,"DIS_CODE":0,"TOWNNAME":"北區","LI":"大道里","LIN":"8鄰","STREET":"和緯路","SECT":"一段","MAREA":" ","LANE":" ","ALLEY":" ","HOUSE_NO":"７８號","E_COORD97":169491.54999999999,"N_COORD97":2545573.1800000002,"ADDRESS":"和緯路一段７８號","OBJECTID":58285},"geometry":{"x":169491.55000000075,"y":2545573.1800000016}},{"attributes":{"ID":58286,"DIS_CODE":0,"TOWNNAME":"北區","LI":"大道里","LIN":"8鄰","STREET":"和緯路","SECT":"一段","MAREA":" ","LANE":" ","ALLEY":" ","HOUSE_NO":"７６號","E_COORD97":169496.63,"N_COORD97":2545571.6000000001,"ADDRESS":"和緯路一段７６號","OBJECTID":58286},"geometry":{"x":169496.62999999989,"y":2545571.5999999996}},{"attributes":{"ID":58287,"DIS_CODE":0,"TOWNNAME":"北區","LI":"大道里","LIN":"8鄰","STREET":"和緯路","SECT":"一段","MAREA":" ","LANE":" ","ALLEY":" ","HOUSE_NO":"８０號","E_COORD97":169486.79000000001,"N_COORD97":2545574.77,"ADDRESS":"和緯路一段８０號","OBJECTID":58287},"geometry":{"x":169486.79000000097,"y":2545574.7700000033}},{"attributes":{"ID":58288,"DIS_CODE":0,"TOWNNAME":"安定區","LI":"管寮里","LIN":"1鄰","STREET":" ","SECT":" ","MAREA":"管寮","LANE":" ","ALLEY":" ","HOUSE_NO":"１１號","E_COORD97":170016.44,"N_COORD97":2556118.25,"ADDRESS":"管寮１１號","OBJECTID":58288},"geometry":{"x":170016.44000000134,"y":2556118.25}},{"attributes":{"ID":58289,"DIS_CODE":0,"TOWNNAME":"安定區","LI":"南安里","LIN":"1鄰","STREET":" ","SECT":" ","MAREA":"油車","LANE":" ","ALLEY":" ","HOUSE_NO":"６之１９號","E_COORD97":170756.73999999999,"N_COORD97":2555951.2999999998,"ADDRESS":"油車６之１９號","OBJECTID":58289},"geometry":{"x":170756.74000000115,"y":2555951.3000000026}},{"attributes":{"ID":58290,"DIS_CODE":0,"TOWNNAME":"安定區","LI":"中沙里","LIN":"1鄰","STREET":" ","SECT":" ","MAREA":"中崙","LANE":" ","ALLEY":" ","HOUSE_NO":"８６之２號","E_COORD97":168907.35999999999,"N_COORD97":2553310.2999999998,"ADDRESS":"中崙８６之２號","OBJECTID":58290},"geometry":{"x":168907.36000000034,"y":2553310.3000000026}},{"attributes":{"ID":58291,"DIS_CODE":0,"TOWNNAME":"安定區","LI":"海寮里","LIN":"1鄰","STREET":" ","SECT":" ","MAREA":"海寮","LANE":" ","ALLEY":" ","HOUSE_NO":"１８號之１６","E_COORD97":169256.67999999999,"N_COORD97":2555115.2999999998,"ADDRESS":"海寮１８號之１６","OBJECTID":58291},"geometry":{"x":169256.68000000063,"y":2555115.3000000007}},{"attributes":{"ID":58292,"DIS_CODE":0,"TOWNNAME":"安定區","LI":"蘇林里","LIN":"1鄰","STREET":" ","SECT":" ","MAREA":"蘇厝","LANE":" ","ALLEY":" ","HOUSE_NO":"１號之２２","E_COORD97":174119.44,"N_COORD97":2558833.2999999998,"ADDRESS":"蘇厝１號之２２","OBJECTID":58292},"geometry":{"x":174119.44000000041,"y":2558833.3000000026}},{"attributes":{"ID":58293,"DIS_CODE":0,"TOWNNAME":"安定區","LI":"安加里","LIN":"1鄰","STREET":" ","SECT":" ","MAREA":"安定","LANE":" ","ALLEY":" ","HOUSE_NO":"１５６號之７","E_COORD97":172047.63,"N_COORD97":2557617.3199999998,"ADDRESS":"安定１５６號之７","OBJECTID":58293},"geometry":{"x":172047.63000000082,"y":2557617.3200000003}},{"attributes":{"ID":58294,"DIS_CODE":0,"TOWNNAME":"安定區","LI":"海寮里","LIN":"1鄰","STREET":" ","SECT":" ","MAREA":"海寮","LANE":" ","ALLEY":" ","HOUSE_NO":"１６號之４","E_COORD97":169185.75,"N_COORD97":2555194.2999999998,"ADDRESS":"海寮１６號之４","OBJECTID":58294},"geometry":{"x":169185.75,"y":2555194.3000000045}},{"attributes":{"ID":58295,"DIS_CODE":0,"TOWNNAME":"仁德區","LI":"上崙里","LIN":"1鄰","STREET":"德崙路","SECT":" ","MAREA":" ","LANE":"１７５巷","ALLEY":"５弄","HOUSE_NO":"１號","E_COORD97":173598.69,"N_COORD97":2538358.3799999999,"ADDRESS":"德崙路１７５巷５弄１號","OBJECTID":58295},"geometry":{"x":173598.69000000134,"y":2538358.3799999971}},{"attributes":{"ID":58296,"DIS_CODE":0,"TOWNNAME":"仁德區","LI":"上崙里","LIN":"1鄰","STREET":"德崙路","SECT":" ","MAREA":" ","LANE":"１７５巷","ALLEY":"５弄","HOUSE_NO":"１３號","E_COORD97":173605.60999999999,"N_COORD97":2538390.1200000001,"ADDRESS":"德崙路１７５巷５弄１３號","OBJECTID":58296},"geometry":{"x":173605.61000000127,"y":2538390.1200000029}},{"attributes":{"ID":58297,"DIS_CODE":0,"TOWNNAME":"仁德區","LI":"上崙里","LIN":"1鄰","STREET":"德崙路","SECT":" ","MAREA":" ","LANE":"１７５巷","ALLEY":"５弄","HOUSE_NO":"１０號","E_COORD97":173626.07999999999,"N_COORD97":2538384.0099999998,"ADDRESS":"德崙路１７５巷５弄１０號","OBJECTID":58297},"geometry":{"x":173626.08000000101,"y":2538384.0100000016}},{"attributes":{"ID":58298,"DIS_CODE":0,"TOWNNAME":"仁德區","LI":"上崙里","LIN":"1鄰","STREET":"德崙路","SECT":" ","MAREA":" ","LANE":"１７５巷","ALLEY":"５弄","HOUSE_NO":"１１號","E_COORD97":173604.73999999999,"N_COORD97":2538385.1200000001,"ADDRESS":"德崙路１７５巷５弄１１號","OBJECTID":58298},"geometry":{"x":173604.74000000115,"y":2538385.120000001}},{"attributes":{"ID":58299,"DIS_CODE":0,"TOWNNAME":"仁德區","LI":"上崙里","LIN":"1鄰","STREET":"德崙路","SECT":" ","MAREA":" ","LANE":"１７５巷","ALLEY":"５弄","HOUSE_NO":"８號","E_COORD97":173623.07999999999,"N_COORD97":2538375.52,"ADDRESS":"德崙路１７５巷５弄８號","OBJECTID":58299},"geometry":{"x":173623.08000000007,"y":2538375.5200000033}},{"attributes":{"ID":58300,"DIS_CODE":0,"TOWNNAME":"仁德區","LI":"上崙里","LIN":"1鄰","STREET":"德崙路","SECT":" ","MAREA":" ","LANE":"１７５巷","ALLEY":"５弄","HOUSE_NO":"１２號","E_COORD97":173626.62,"N_COORD97":2538388.5099999998,"ADDRESS":"德崙路１７５巷５弄１２號","OBJECTID":58300},"geometry":{"x":173626.62000000011,"y":2538388.5099999998}},{"attributes":{"ID":58301,"DIS_CODE":0,"TOWNNAME":"仁德區","LI":"上崙里","LIN":"1鄰","STREET":"德崙路","SECT":" ","MAREA":" ","LANE":"１７５巷","ALLEY":"５弄","HOUSE_NO":"５號","E_COORD97":173600.17000000001,"N_COORD97":2538369.1299999999,"ADDRESS":"德崙路１７５巷５弄５號","OBJECTID":58301},"geometry":{"x":173600.17000000086,"y":2538369.129999999}},{"attributes":{"ID":58302,"DIS_CODE":0,"TOWNNAME":"仁德區","LI":"上崙里","LIN":"1鄰","STREET":"德崙路","SECT":" ","MAREA":" ","LANE":"１７５巷","ALLEY":"５弄","HOUSE_NO":"２號","E_COORD97":173619.67999999999,"N_COORD97":2538357.52,"ADDRESS":"德崙路１７５巷５弄２號","OBJECTID":58302},"geometry":{"x":173619.68000000063,"y":2538357.5199999996}},{"attributes":{"ID":58303,"DIS_CODE":0,"TOWNNAME":"南區","LI":"建南里","LIN":"8鄰","STREET":"德興路","SECT":" ","MAREA":" ","LANE":" ","ALLEY":" ","HOUSE_NO":"２０４號","E_COORD97":167199.92000000001,"N_COORD97":2540178.5499999998,"ADDRESS":"德興路２０４號","OBJECTID":58303},"geometry":{"x":167199.91999999899,"y":2540178.5500000007}},{"attributes":{"ID":58304,"DIS_CODE":0,"TOWNNAME":"安定區","LI":"海寮里","LIN":"1鄰","STREET":" ","SECT":" ","MAREA":"海寮","LANE":" ","ALLEY":" ","HOUSE_NO":"１４號之１","E_COORD97":169187.03,"N_COORD97":2555075.2999999998,"ADDRESS":"海寮１４號之１","OBJECTID":58304},"geometry":{"x":169187.03000000119,"y":2555075.3000000007}},{"attributes":{"ID":58305,"DIS_CODE":0,"TOWNNAME":"安定區","LI":"安加里","LIN":"1鄰","STREET":" ","SECT":" ","MAREA":"安定","LANE":" ","ALLEY":" ","HOUSE_NO":"１５８號之１０","E_COORD97":172070.64999999999,"N_COORD97":2557563.3199999998,"ADDRESS":"安定１５８號之１０","OBJECTID":58305},"geometry":{"x":172070.65000000037,"y":2557563.3199999984}},{"attributes":{"ID":58306,"DIS_CODE":0,"TOWNNAME":"安定區","LI":"南安里","LIN":"1鄰","STREET":" ","SECT":" ","MAREA":"油車","LANE":" ","ALLEY":" ","HOUSE_NO":"６之１５號","E_COORD97":170780.84,"N_COORD97":2555948.2999999998,"ADDRESS":"油車６之１５號","OBJECTID":58306},"geometry":{"x":170780.84000000171,"y":2555948.3000000026}},{"attributes":{"ID":58307,"DIS_CODE":0,"TOWNNAME":"安定區","LI":"海寮里","LIN":"1鄰","STREET":" ","SECT":" ","MAREA":"海寮","LANE":" ","ALLEY":" ","HOUSE_NO":"１５之２號","E_COORD97":169132.29000000001,"N_COORD97":2555207.2999999998,"ADDRESS":"海寮１５之２號","OBJECTID":58307},"geometry":{"x":169132.29000000097,"y":2555207.3000000007}},{"attributes":{"ID":58308,"DIS_CODE":0,"TOWNNAME":"安定區","LI":"海寮里","LIN":"1鄰","STREET":" ","SECT":" ","MAREA":"海寮","LANE":" ","ALLEY":" ","HOUSE_NO":"２之２號","E_COORD97":169011.84,"N_COORD97":2555176.2999999998,"ADDRESS":"海寮２之２號","OBJECTID":58308},"geometry":{"x":169011.83999999985,"y":2555176.3000000007}},{"attributes":{"ID":58309,"DIS_CODE":0,"TOWNNAME":"安定區","LI":"海寮里","LIN":"1鄰","STREET":" ","SECT":" ","MAREA":"海寮","LANE":" ","ALLEY":" ","HOUSE_NO":"１４之２號","E_COORD97":169193.98999999999,"N_COORD97":2555051.2999999998,"ADDRESS":"海寮１４之２號","OBJECTID":58309},"geometry":{"x":169193.99000000115,"y":2555051.3000000007}},{"attributes":{"ID":58310,"DIS_CODE":0,"TOWNNAME":"安定區","LI":"蘇林里","LIN":"1鄰","STREET":" ","SECT":" ","MAREA":"蘇厝","LANE":" ","ALLEY":" ","HOUSE_NO":"１之３８號","E_COORD97":174352.97,"N_COORD97":2558707.2999999998,"ADDRESS":"蘇厝１之３８號","OBJECTID":58310},"geometry":{"x":174352.96999999974,"y":2558707.3000000026}},{"attributes":{"ID":58311,"DIS_CODE":0,"TOWNNAME":"安定區","LI":"海寮里","LIN":"1鄰","STREET":" ","SECT":" ","MAREA":"海寮","LANE":" ","ALLEY":" ","HOUSE_NO":"１８號之１１","E_COORD97":169291.78,"N_COORD97":2555102.2999999998,"ADDRESS":"海寮１８號之１１","OBJECTID":58311},"geometry":{"x":169291.78000000119,"y":2555102.3000000007}},{"attributes":{"ID":58312,"DIS_CODE":0,"TOWNNAME":"安定區","LI":"中沙里","LIN":"1鄰","STREET":" ","SECT":" ","MAREA":"中崙","LANE":" ","ALLEY":" ","HOUSE_NO":"７４號","E_COORD97":169027.16,"N_COORD97":2553338.25,"ADDRESS":"中崙７４號","OBJECTID":58312},"geometry":{"x":169027.16000000015,"y":2553338.25}},{"attributes":{"ID":58313,"DIS_CODE":0,"TOWNNAME":"安定區","LI":"中沙里","LIN":"1鄰","STREET":" ","SECT":" ","MAREA":"中崙","LANE":" ","ALLEY":" ","HOUSE_NO":"５６號","E_COORD97":169155.85999999999,"N_COORD97":2553234.25,"ADDRESS":"中崙５６號","OBJECTID":58313},"geometry":{"x":169155.86000000127,"y":2553234.2500000037}},{"attributes":{"ID":58314,"DIS_CODE":0,"TOWNNAME":"安定區","LI":"海寮里","LIN":"1鄰","STREET":" ","SECT":" ","MAREA":"海寮","LANE":" ","ALLEY":" ","HOUSE_NO":"１２之１４號","E_COORD97":169124.34,"N_COORD97":2555163.2999999998,"ADDRESS":"海寮１２之１４號","OBJECTID":58314},"geometry":{"x":169124.33999999985,"y":2555163.3000000007}},{"attributes":{"ID":58315,"DIS_CODE":0,"TOWNNAME":"安定區","LI":"港南里","LIN":"1鄰","STREET":" ","SECT":" ","MAREA":"港口","LANE":" ","ALLEY":" ","HOUSE_NO":"１之４８號","E_COORD97":171049.64000000001,"N_COORD97":2554212.2999999998,"ADDRESS":"港口１之４８號","OBJECTID":58315},"geometry":{"x":171049.63999999873,"y":2554212.3000000026}},{"attributes":{"ID":58316,"DIS_CODE":0,"TOWNNAME":"安定區","LI":"港南里","LIN":"1鄰","STREET":" ","SECT":" ","MAREA":"港口","LANE":" ","ALLEY":" ","HOUSE_NO":"１之１９號","E_COORD97":170756.84,"N_COORD97":2554035.2999999998,"ADDRESS":"港口１之１９號","OBJECTID":58316},"geometry":{"x":170756.83999999985,"y":2554035.3000000026}},{"attributes":{"ID":58317,"DIS_CODE":0,"TOWNNAME":"安定區","LI":"港南里","LIN":"1鄰","STREET":" ","SECT":" ","MAREA":"港口","LANE":" ","ALLEY":" ","HOUSE_NO":"１之３９號","E_COORD97":170750.84,"N_COORD97":2554021.2999999998,"ADDRESS":"港口１之３９號","OBJECTID":58317},"geometry":{"x":170750.84000000078,"y":2554021.3000000045}},{"attributes":{"ID":58318,"DIS_CODE":0,"TOWNNAME":"安定區","LI":"六嘉里","LIN":"1鄰","STREET":" ","SECT":" ","MAREA":"六塊寮","LANE":" ","ALLEY":" ","HOUSE_NO":"１號之１４","E_COORD97":170484.67999999999,"N_COORD97":2553697.2999999998,"ADDRESS":"六塊寮１號之１４","OBJECTID":58318},"geometry":{"x":170484.6799999997,"y":2553697.3000000026}},{"attributes":{"ID":58319,"DIS_CODE":0,"TOWNNAME":"安定區","LI":"六嘉里","LIN":"1鄰","STREET":" ","SECT":" ","MAREA":"六塊寮","LANE":" ","ALLEY":" ","HOUSE_NO":"２號","E_COORD97":170457.87,"N_COORD97":2553664.27,"ADDRESS":"六塊寮２號","OBJECTID":58319},"geometry":{"x":170457.87000000104,"y":2553664.2700000033}},{"attributes":{"ID":58320,"DIS_CODE":0,"TOWNNAME":"安定區","LI":"蘇林里","LIN":"1鄰","STREET":" ","SECT":" ","MAREA":"蘇厝","LANE":" ","ALLEY":" ","HOUSE_NO":"７之８號","E_COORD97":173619.62,"N_COORD97":2558416.2999999998,"ADDRESS":"蘇厝７之８號","OBJECTID":58320},"geometry":{"x":173619.62000000011,"y":2558416.3000000026}},{"attributes":{"ID":58321,"DIS_CODE":0,"TOWNNAME":"安定區","LI":"港南里","LIN":"1鄰","STREET":" ","SECT":" ","MAREA":"港口","LANE":" ","ALLEY":" ","HOUSE_NO":"５之６號","E_COORD97":171050.29000000001,"N_COORD97":2554269.2999999998,"ADDRESS":"港口５之６號","OBJECTID":58321},"geometry":{"x":171050.29000000004,"y":2554269.3000000026}},{"attributes":{"ID":58322,"DIS_CODE":0,"TOWNNAME":"安定區","LI":"蘇林里","LIN":"1鄰","STREET":" ","SECT":" ","MAREA":"蘇厝","LANE":" ","ALLEY":" ","HOUSE_NO":"８之２０號","E_COORD97":173704.72531000001,"N_COORD97":2558555.8139399998,"ADDRESS":"蘇厝８之２０號","OBJECTID":58322},"geometry":{"x":173704.72530999966,"y":2558555.8139350023}},{"attributes":{"ID":58323,"DIS_CODE":0,"TOWNNAME":"安定區","LI":"港南里","LIN":"1鄰","STREET":" ","SECT":" ","MAREA":"港口","LANE":" ","ALLEY":" ","HOUSE_NO":"８之３號","E_COORD97":171203.98999999999,"N_COORD97":2554332.2999999998,"ADDRESS":"港口８之３號","OBJECTID":58323},"geometry":{"x":171203.99000000209,"y":2554332.3000000007}},{"attributes":{"ID":58324,"DIS_CODE":0,"TOWNNAME":"安定區","LI":"港南里","LIN":"1鄰","STREET":" ","SECT":" ","MAREA":"港口","LANE":" ","ALLEY":" ","HOUSE_NO":"５之１５號","E_COORD97":171045.54000000001,"N_COORD97":2554352.2999999998,"ADDRESS":"港口５之１５號","OBJECTID":58324},"geometry":{"x":171045.54000000004,"y":2554352.3000000007}},{"attributes":{"ID":58325,"DIS_CODE":0,"TOWNNAME":"安定區","LI":"港南里","LIN":"1鄰","STREET":" ","SECT":" ","MAREA":"港口","LANE":" ","ALLEY":" ","HOUSE_NO":"２之１７號","E_COORD97":171118.64000000001,"N_COORD97":2554270.2999999998,"ADDRESS":"港口２之１７號","OBJECTID":58325},"geometry":{"x":171118.63999999966,"y":2554270.3000000026}},{"attributes":{"ID":58326,"DIS_CODE":0,"TOWNNAME":"安定區","LI":"港南里","LIN":"1鄰","STREET":" ","SECT":" ","MAREA":"港口","LANE":" ","ALLEY":" ","HOUSE_NO":"７號之１５","E_COORD97":171147.82999999999,"N_COORD97":2554321.2999999998,"ADDRESS":"港口７號之１５","OBJECTID":58326},"geometry":{"x":171147.83000000101,"y":2554321.3000000007}},{"attributes":{"ID":58327,"DIS_CODE":0,"TOWNNAME":"仁德區","LI":"上崙里","LIN":"1鄰","STREET":"德崙路","SECT":" ","MAREA":" ","LANE":"１７５巷","ALLEY":"５弄","HOUSE_NO":"３號","E_COORD97":173599.81,"N_COORD97":2538363.8799999999,"ADDRESS":"德崙路１７５巷５弄３號","OBJECTID":58327},"geometry":{"x":173599.81000000145,"y":2538363.879999999}},{"attributes":{"ID":58328,"DIS_CODE":0,"TOWNNAME":"安南區","LI":"大安里","LIN":"1鄰","STREET":"大安街","SECT":" ","MAREA":" ","LANE":"２６巷","ALLEY":"２弄","HOUSE_NO":"１０號","E_COORD97":167089.56,"N_COORD97":2547933.4399999999,"ADDRESS":"大安街２６巷２弄１０號","OBJECTID":58328},"geometry":{"x":167089.55999999959,"y":2547933.4400000032}},{"attributes":{"ID":58329,"DIS_CODE":0,"TOWNNAME":"安南區","LI":"大安里","LIN":"1鄰","STREET":"大安街","SECT":" ","MAREA":" ","LANE":"２６巷","ALLEY":"２弄","HOUSE_NO":"１２號","E_COORD97":167084.66,"N_COORD97":2547931.75,"ADDRESS":"大安街２６巷２弄１２號","OBJECTID":58329},"geometry":{"x":167084.66000000015,"y":2547931.7500000037}},{"attributes":{"ID":58330,"DIS_CODE":0,"TOWNNAME":"安定區","LI":"港南里","LIN":"1鄰","STREET":" ","SECT":" ","MAREA":"港口","LANE":" ","ALLEY":" ","HOUSE_NO":"７之１２號","E_COORD97":171165.44,"N_COORD97":2554310.2999999998,"ADDRESS":"港口７之１２號","OBJECTID":58330},"geometry":{"x":171165.44000000227,"y":2554310.3000000026}},{"attributes":{"ID":58331,"DIS_CODE":0,"TOWNNAME":"安定區","LI":"港南里","LIN":"1鄰","STREET":" ","SECT":" ","MAREA":"港口","LANE":" ","ALLEY":" ","HOUSE_NO":"３之３號","E_COORD97":171105.98999999999,"N_COORD97":2554286.2999999998,"ADDRESS":"港口３之３號","OBJECTID":58331},"geometry":{"x":171105.99000000115,"y":2554286.3000000026}},{"attributes":{"ID":58332,"DIS_CODE":0,"TOWNNAME":"安定區","LI":"蘇林里","LIN":"1鄰","STREET":" ","SECT":" ","MAREA":"蘇厝","LANE":" ","ALLEY":" ","HOUSE_NO":"８號之１７","E_COORD97":173656.57999999999,"N_COORD97":2558551.2999999998,"ADDRESS":"蘇厝８號之１７","OBJECTID":58332},"geometry":{"x":173656.58000000101,"y":2558551.3000000026}},{"attributes":{"ID":58333,"DIS_CODE":0,"TOWNNAME":"安南區","LI":"大安里","LIN":"1鄰","STREET":"大安街","SECT":" ","MAREA":" ","LANE":"２６巷","ALLEY":"２弄","HOUSE_NO":"１４號","E_COORD97":167079.57999999999,"N_COORD97":2547931.1800000002,"ADDRESS":"大安街２６巷２弄１４號","OBJECTID":58333},"geometry":{"x":167079.58000000101,"y":2547931.1799999997}},{"attributes":{"ID":58334,"DIS_CODE":0,"TOWNNAME":"安南區","LI":"大安里","LIN":"1鄰","STREET":"大安街","SECT":" ","MAREA":" ","LANE":"２６巷","ALLEY":"２弄","HOUSE_NO":"１６號","E_COORD97":167074.87,"N_COORD97":2547930.2400000002,"ADDRESS":"大安街２６巷２弄１６號","OBJECTID":58334},"geometry":{"x":167074.87000000011,"y":2547930.2400000021}},{"attributes":{"ID":58335,"DIS_CODE":0,"TOWNNAME":"安南區","LI":"大安里","LIN":"1鄰","STREET":"大安街","SECT":" ","MAREA":" ","LANE":"２６巷","ALLEY":"２弄","HOUSE_NO":"１８號","E_COORD97":167069.60000000001,"N_COORD97":2547928.9300000002,"ADDRESS":"大安街２６巷２弄１８號","OBJECTID":58335},"geometry":{"x":167069.5999999987,"y":2547928.9299999997}},{"attributes":{"ID":58336,"DIS_CODE":0,"TOWNNAME":"安南區","LI":"大安里","LIN":"1鄰","STREET":"大安街","SECT":" ","MAREA":" ","LANE":"２６巷","ALLEY":"２弄","HOUSE_NO":"１號","E_COORD97":167113.84,"N_COORD97":2547914.25,"ADDRESS":"大安街２６巷２弄１號","OBJECTID":58336},"geometry":{"x":167113.83999999985,"y":2547914.25}},{"attributes":{"ID":58337,"DIS_CODE":0,"TOWNNAME":"安南區","LI":"大安里","LIN":"1鄰","STREET":"大安街","SECT":" ","MAREA":" ","LANE":"２６巷","ALLEY":"２弄","HOUSE_NO":"２０號","E_COORD97":167063.01000000001,"N_COORD97":2547927.7999999998,"ADDRESS":"大安街２６巷２弄２０號","OBJECTID":58337},"geometry":{"x":167063.00999999978,"y":2547927.8000000007}},{"attributes":{"ID":58338,"DIS_CODE":0,"TOWNNAME":"安南區","LI":"大安里","LIN":"1鄰","STREET":"大安街","SECT":" ","MAREA":" ","LANE":"２６巷","ALLEY":"２弄","HOUSE_NO":"２２號","E_COORD97":167056.23000000001,"N_COORD97":2547927.23,"ADDRESS":"大安街２６巷２弄２２號","OBJECTID":58338},"geometry":{"x":167056.23000000231,"y":2547927.2300000004}},{"attributes":{"ID":58339,"DIS_CODE":0,"TOWNNAME":"安南區","LI":"大安里","LIN":"1鄰","STREET":"大安街","SECT":" ","MAREA":" ","LANE":"２６巷","ALLEY":"２弄","HOUSE_NO":"２號","E_COORD97":167110.64000000001,"N_COORD97":2547935.6899999999,"ADDRESS":"大安街２６巷２弄２號","OBJECTID":58339},"geometry":{"x":167110.6400000006,"y":2547935.6900000013}},{"attributes":{"ID":58340,"DIS_CODE":0,"TOWNNAME":"安南區","LI":"大安里","LIN":"1鄰","STREET":"大安街","SECT":" ","MAREA":" ","LANE":"２６巷","ALLEY":"２弄","HOUSE_NO":"３號","E_COORD97":167109.32000000001,"N_COORD97":2547913.8799999999,"ADDRESS":"大安街２６巷２弄３號","OBJECTID":58340},"geometry":{"x":167109.3200000003,"y":2547913.8800000008}},{"attributes":{"ID":58341,"DIS_CODE":0,"TOWNNAME":"安南區","LI":"大安里","LIN":"1鄰","STREET":"大安街","SECT":" ","MAREA":" ","LANE":"２６巷","ALLEY":"２弄","HOUSE_NO":"４號","E_COORD97":167105.17999999999,"N_COORD97":2547935.6899999999,"ADDRESS":"大安街２６巷２弄４號","OBJECTID":58341},"geometry":{"x":167105.18000000063,"y":2547935.6900000013}},{"attributes":{"ID":58342,"DIS_CODE":0,"TOWNNAME":"安南區","LI":"大安里","LIN":"1鄰","STREET":"大安街","SECT":" ","MAREA":" ","LANE":"２６巷","ALLEY":"２弄","HOUSE_NO":"５號","E_COORD97":167103.10999999999,"N_COORD97":2547912.75,"ADDRESS":"大安街２６巷２弄５號","OBJECTID":58342},"geometry":{"x":167103.11000000127,"y":2547912.7500000019}},{"attributes":{"ID":58343,"DIS_CODE":0,"TOWNNAME":"安南區","LI":"大安里","LIN":"1鄰","STREET":"大安街","SECT":" ","MAREA":" ","LANE":"２６巷","ALLEY":"２弄","HOUSE_NO":"６號","E_COORD97":167099.35000000001,"N_COORD97":2547934.75,"ADDRESS":"大安街２６巷２弄６號","OBJECTID":58343},"geometry":{"x":167099.34999999963,"y":2547934.75}},{"attributes":{"ID":58344,"DIS_CODE":0,"TOWNNAME":"安定區","LI":"新吉里","LIN":"1鄰","STREET":" ","SECT":" ","MAREA":"新吉","LANE":" ","ALLEY":" ","HOUSE_NO":"７之２號","E_COORD97":169286.42000000001,"N_COORD97":2554149.2999999998,"ADDRESS":"新吉７之２號","OBJECTID":58344},"geometry":{"x":169286.41999999993,"y":2554149.3000000007}},{"attributes":{"ID":58345,"DIS_CODE":0,"TOWNNAME":"安南區","LI":"大安里","LIN":"1鄰","STREET":"大安街","SECT":" ","MAREA":" ","LANE":"２６巷","ALLEY":"２弄","HOUSE_NO":"７號","E_COORD97":167097.64999999999,"N_COORD97":2547913.5,"ADDRESS":"大安街２６巷２弄７號","OBJECTID":58345},"geometry":{"x":167097.6500000013,"y":2547913.5000000019}},{"attributes":{"ID":58346,"DIS_CODE":0,"TOWNNAME":"安南區","LI":"大安里","LIN":"1鄰","STREET":"大安街","SECT":" ","MAREA":" ","LANE":"２６巷","ALLEY":"２弄","HOUSE_NO":"８號","E_COORD97":167095.01999999999,"N_COORD97":2547933.8100000001,"ADDRESS":"大安街２６巷２弄８號","OBJECTID":58346},"geometry":{"x":167095.01999999955,"y":2547933.8100000005}},{"attributes":{"ID":58347,"DIS_CODE":0,"TOWNNAME":"安南區","LI":"大安里","LIN":"1鄰","STREET":"大安街","SECT":" ","MAREA":" ","LANE":"２６巷","ALLEY":"２弄","HOUSE_NO":"９號","E_COORD97":167092.57000000001,"N_COORD97":2547912.5600000001,"ADDRESS":"大安街２６巷２弄９號","OBJECTID":58347},"geometry":{"x":167092.57000000216,"y":2547912.5600000005}},{"attributes":{"ID":58348,"DIS_CODE":0,"TOWNNAME":"安南區","LI":"大安里","LIN":"1鄰","STREET":"大安街","SECT":" ","MAREA":" ","LANE":"２６巷","ALLEY":"４弄","HOUSE_NO":"４號","E_COORD97":167110.07999999999,"N_COORD97":2547902.6000000001,"ADDRESS":"大安街２６巷４弄４號","OBJECTID":58348},"geometry":{"x":167110.08000000101,"y":2547902.6000000015}},{"attributes":{"ID":58349,"DIS_CODE":0,"TOWNNAME":"南區","LI":"興農里","LIN":"1鄰","STREET":"灣裡路","SECT":" ","MAREA":" ","LANE":"２６３巷","ALLEY":"１２弄","HOUSE_NO":"１號","E_COORD97":166217.38,"N_COORD97":2536388.8599999999,"ADDRESS":"灣裡路２６３巷１２弄１號","OBJECTID":58349},"geometry":{"x":166217.38000000082,"y":2536388.8599999994}},{"attributes":{"ID":58350,"DIS_CODE":0,"TOWNNAME":"南區","LI":"興農里","LIN":"1鄰","STREET":"灣裡路","SECT":" ","MAREA":" ","LANE":"２６３巷","ALLEY":"１２弄","HOUSE_NO":"３號","E_COORD97":166226.60999999999,"N_COORD97":2536377,"ADDRESS":"灣裡路２６３巷１２弄３號","OBJECTID":58350},"geometry":{"x":166226.61000000127,"y":2536377.0000000019}},{"attributes":{"ID":58351,"DIS_CODE":0,"TOWNNAME":"南區","LI":"興農里","LIN":"1鄰","STREET":"灣裡路","SECT":" ","MAREA":" ","LANE":"２６３巷","ALLEY":"１２弄","HOUSE_NO":"５號","E_COORD97":166230.48999999999,"N_COORD97":2536368.3799999999,"ADDRESS":"灣裡路２６３巷１２弄５號","OBJECTID":58351},"geometry":{"x":166230.49000000115,"y":2536368.3800000027}},{"attributes":{"ID":58352,"DIS_CODE":0,"TOWNNAME":"南區","LI":"興農里","LIN":"1鄰","STREET":"灣裡路","SECT":" ","MAREA":" ","LANE":"２６３巷","ALLEY":"１２弄","HOUSE_NO":"７號","E_COORD97":166237.39999999999,"N_COORD97":2536358.04,"ADDRESS":"灣裡路２６３巷１２弄７號","OBJECTID":58352},"geometry":{"x":166237.40000000037,"y":2536358.040000001}},{"attributes":{"ID":58353,"DIS_CODE":0,"TOWNNAME":"北區","LI":"重興里","LIN":"8鄰","STREET":"東豐路","SECT":" ","MAREA":" ","LANE":" ","ALLEY":" ","HOUSE_NO":"４７５號","E_COORD97":170820.84,"N_COORD97":2544731.96,"ADDRESS":"東豐路４７５號","OBJECTID":58353},"geometry":{"x":170820.83999999985,"y":2544731.9600000028}},{"attributes":{"ID":58354,"DIS_CODE":0,"TOWNNAME":"北區","LI":"重興里","LIN":"8鄰","STREET":"東豐路","SECT":" ","MAREA":" ","LANE":" ","ALLEY":" ","HOUSE_NO":"４７７號","E_COORD97":170824.25,"N_COORD97":2544729.4199999999,"ADDRESS":"東豐路４７７號","OBJECTID":58354},"geometry":{"x":170824.25000000093,"y":2544729.4199999999}},{"attributes":{"ID":58355,"DIS_CODE":0,"TOWNNAME":"安定區","LI":"中榮里","LIN":"1鄰","STREET":" ","SECT":" ","MAREA":"許中營","LANE":" ","ALLEY":" ","HOUSE_NO":"１之２０號","E_COORD97":172229.84,"N_COORD97":2554859.2999999998,"ADDRESS":"許中營１之２０號","OBJECTID":58355},"geometry":{"x":172229.83999999985,"y":2554859.3000000026}},{"attributes":{"ID":58356,"DIS_CODE":0,"TOWNNAME":"安定區","LI":"蘇林里","LIN":"1鄰","STREET":" ","SECT":" ","MAREA":"蘇厝","LANE":" ","ALLEY":" ","HOUSE_NO":"７之２０號","E_COORD97":173641.14313300001,"N_COORD97":2558269.4969899999,"ADDRESS":"蘇厝７之２０號","OBJECTID":58356},"geometry":{"x":173641.14313300047,"y":2558269.4969900008}},{"attributes":{"ID":58357,"DIS_CODE":0,"TOWNNAME":"安定區","LI":"港口里","LIN":"1鄰","STREET":" ","SECT":" ","MAREA":"港口","LANE":" ","ALLEY":" ","HOUSE_NO":"２３５號之８","E_COORD97":171622.57000000001,"N_COORD97":2554571.2999999998,"ADDRESS":"港口２３５號之８","OBJECTID":58357},"geometry":{"x":171622.57000000123,"y":2554571.3000000026}},{"attributes":{"ID":58358,"DIS_CODE":0,"TOWNNAME":"安定區","LI":"港口里","LIN":"1鄰","STREET":" ","SECT":" ","MAREA":"港口","LANE":" ","ALLEY":" ","HOUSE_NO":"２３５號之７","E_COORD97":171597.29999999999,"N_COORD97":2554583.2999999998,"ADDRESS":"港口２３５號之７","OBJECTID":58358},"geometry":{"x":171597.29999999981,"y":2554583.3000000007}},{"attributes":{"ID":58359,"DIS_CODE":0,"TOWNNAME":"安定區","LI":"新吉里","LIN":"1鄰","STREET":" ","SECT":" ","MAREA":"新吉","LANE":" ","ALLEY":" ","HOUSE_NO":"７之１１號","E_COORD97":169109.67000000001,"N_COORD97":2554519.2999999998,"ADDRESS":"新吉７之１１號","OBJECTID":58359},"geometry":{"x":169109.67000000086,"y":2554519.3000000007}},{"attributes":{"ID":58360,"DIS_CODE":0,"TOWNNAME":"安定區","LI":"蘇林里","LIN":"1鄰","STREET":" ","SECT":" ","MAREA":"蘇厝","LANE":" ","ALLEY":" ","HOUSE_NO":"８號之１１","E_COORD97":173646.60000000001,"N_COORD97":2558559.2999999998,"ADDRESS":"蘇厝８號之１１","OBJECTID":58360},"geometry":{"x":173646.59999999963,"y":2558559.3000000007}},{"attributes":{"ID":58361,"DIS_CODE":0,"TOWNNAME":"安定區","LI":"港南里","LIN":"1鄰","STREET":" ","SECT":" ","MAREA":"港口","LANE":" ","ALLEY":" ","HOUSE_NO":"２之８號","E_COORD97":171160.48999999999,"N_COORD97":2554247.2999999998,"ADDRESS":"港口２之８號","OBJECTID":58361},"geometry":{"x":171160.49000000115,"y":2554247.3000000007}},{"attributes":{"ID":58362,"DIS_CODE":0,"TOWNNAME":"安定區","LI":"新吉里","LIN":"1鄰","STREET":" ","SECT":" ","MAREA":"新吉","LANE":" ","ALLEY":" ","HOUSE_NO":"３號","E_COORD97":169215.039166,"N_COORD97":2554123.98012,"ADDRESS":"新吉３號","OBJECTID":58362},"geometry":{"x":169215.0391660016,"y":2554123.9801200014}},{"attributes":{"ID":58363,"DIS_CODE":0,"TOWNNAME":"安定區","LI":"蘇林里","LIN":"1鄰","STREET":" ","SECT":" ","MAREA":"蘇厝","LANE":" ","ALLEY":" ","HOUSE_NO":"９號之１","E_COORD97":173621.14999999999,"N_COORD97":2558605.2999999998,"ADDRESS":"蘇厝９號之１","OBJECTID":58363},"geometry":{"x":173621.1500000013,"y":2558605.3000000026}},{"attributes":{"ID":58364,"DIS_CODE":0,"TOWNNAME":"安定區","LI":"港南里","LIN":"1鄰","STREET":" ","SECT":" ","MAREA":"港口","LANE":" ","ALLEY":" ","HOUSE_NO":"５之１０號","E_COORD97":171042.04000000001,"N_COORD97":2554260.2999999998,"ADDRESS":"港口５之１０號","OBJECTID":58364},"geometry":{"x":171042.04000000004,"y":2554260.3000000007}},{"attributes":{"ID":58365,"DIS_CODE":0,"TOWNNAME":"安定區","LI":"港南里","LIN":"1鄰","STREET":" ","SECT":" ","MAREA":"港口","LANE":" ","ALLEY":" ","HOUSE_NO":"２之７號","E_COORD97":171163.39000000001,"N_COORD97":2554249.2999999998,"ADDRESS":"港口２之７號","OBJECTID":58365},"geometry":{"x":171163.39000000153,"y":2554249.3000000026}},{"attributes":{"ID":58366,"DIS_CODE":0,"TOWNNAME":"安定區","LI":"港南里","LIN":"1鄰","STREET":" ","SECT":" ","MAREA":"港口","LANE":" ","ALLEY":" ","HOUSE_NO":"２之１２號","E_COORD97":171146.54000000001,"N_COORD97":2554253.2999999998,"ADDRESS":"港口２之１２號","OBJECTID":58366},"geometry":{"x":171146.54000000097,"y":2554253.3000000026}},{"attributes":{"ID":58367,"DIS_CODE":0,"TOWNNAME":"安定區","LI":"港南里","LIN":"1鄰","STREET":" ","SECT":" ","MAREA":"港口","LANE":" ","ALLEY":" ","HOUSE_NO":"７之１０號","E_COORD97":171168.14000000001,"N_COORD97":2554307.2999999998,"ADDRESS":"港口７之１０號","OBJECTID":58367},"geometry":{"x":171168.13999999966,"y":2554307.3000000026}},{"attributes":{"ID":58368,"DIS_CODE":0,"TOWNNAME":"安定區","LI":"港南里","LIN":"1鄰","STREET":" ","SECT":" ","MAREA":"港口","LANE":" ","ALLEY":" ","HOUSE_NO":"２之１５號","E_COORD97":171137.54000000001,"N_COORD97":2554260.2999999998,"ADDRESS":"港口２之１５號","OBJECTID":58368},"geometry":{"x":171137.54000000097,"y":2554260.3000000007}},{"attributes":{"ID":58369,"DIS_CODE":0,"TOWNNAME":"安定區","LI":"新吉里","LIN":"1鄰","STREET":" ","SECT":" ","MAREA":"新吉","LANE":" ","ALLEY":" ","HOUSE_NO":"２號之７","E_COORD97":169155.73000000001,"N_COORD97":2554140.2999999998,"ADDRESS":"新吉２號之７","OBJECTID":58369},"geometry":{"x":169155.73000000045,"y":2554140.3000000026}},{"attributes":{"ID":58370,"DIS_CODE":0,"TOWNNAME":"安定區","LI":"安定里","LIN":"1鄰","STREET":" ","SECT":" ","MAREA":"領寄","LANE":" ","ALLEY":" ","HOUSE_NO":"１之２號","E_COORD97":173593.14000000001,"N_COORD97":2557079.2999999998,"ADDRESS":"領寄１之２號","OBJECTID":58370},"geometry":{"x":173593.1400000006,"y":2557079.3000000045}},{"attributes":{"ID":58371,"DIS_CODE":0,"TOWNNAME":"安定區","LI":"港口里","LIN":"1鄰","STREET":" ","SECT":" ","MAREA":"港口","LANE":" ","ALLEY":" ","HOUSE_NO":"２３４號之３","E_COORD97":171581.12,"N_COORD97":2554570.2999999998,"ADDRESS":"港口２３４號之３","OBJECTID":58371},"geometry":{"x":171581.12000000104,"y":2554570.2999999989}},{"attributes":{"ID":58372,"DIS_CODE":0,"TOWNNAME":"安定區","LI":"新吉里","LIN":"1鄰","STREET":" ","SECT":" ","MAREA":"新吉","LANE":" ","ALLEY":" ","HOUSE_NO":"６號之２","E_COORD97":169278.79000000001,"N_COORD97":2554127.2999999998,"ADDRESS":"新吉６號之２","OBJECTID":58372},"geometry":{"x":169278.79000000004,"y":2554127.3000000026}},{"attributes":{"ID":58373,"DIS_CODE":0,"TOWNNAME":"安定區","LI":"新吉里","LIN":"1鄰","STREET":" ","SECT":" ","MAREA":"新吉","LANE":" ","ALLEY":" ","HOUSE_NO":"７之８號","E_COORD97":169257.98193800001,"N_COORD97":2554534.2382899998,"ADDRESS":"新吉７之８號","OBJECTID":58373},"geometry":{"x":169257.98193800077,"y":2554534.2382860016}},{"attributes":{"ID":58374,"DIS_CODE":0,"TOWNNAME":"安定區","LI":"新吉里","LIN":"1鄰","STREET":" ","SECT":" ","MAREA":"新吉","LANE":" ","ALLEY":" ","HOUSE_NO":"２之１號","E_COORD97":169144.72,"N_COORD97":2554117.2999999998,"ADDRESS":"新吉２之１號","OBJECTID":58374},"geometry":{"x":169144.72000000067,"y":2554117.3000000026}},{"attributes":{"ID":58375,"DIS_CODE":0,"TOWNNAME":"安定區","LI":"蘇林里","LIN":"1鄰","STREET":" ","SECT":" ","MAREA":"蘇厝","LANE":" ","ALLEY":" ","HOUSE_NO":"８號之１３","E_COORD97":173647.89999999999,"N_COORD97":2558550.2999999998,"ADDRESS":"蘇厝８號之１３","OBJECTID":58375},"geometry":{"x":173647.9000000013,"y":2558550.3000000007}},{"attributes":{"ID":58376,"DIS_CODE":0,"TOWNNAME":"安定區","LI":"蘇林里","LIN":"1鄰","STREET":" ","SECT":" ","MAREA":"蘇厝","LANE":" ","ALLEY":" ","HOUSE_NO":"９號之３","E_COORD97":173630.75,"N_COORD97":2558605.2999999998,"ADDRESS":"蘇厝９號之３","OBJECTID":58376},"geometry":{"x":173630.75,"y":2558605.3000000026}},{"attributes":{"ID":58377,"DIS_CODE":0,"TOWNNAME":"安定區","LI":"蘇林里","LIN":"1鄰","STREET":" ","SECT":" ","MAREA":"蘇厝","LANE":" ","ALLEY":" ","HOUSE_NO":"１０號之７","E_COORD97":173651.07999999999,"N_COORD97":2558584.2999999998,"ADDRESS":"蘇厝１０號之７","OBJECTID":58377},"geometry":{"x":173651.08000000194,"y":2558584.3000000007}},{"attributes":{"ID":58378,"DIS_CODE":0,"TOWNNAME":"安定區","LI":"港南里","LIN":"1鄰","STREET":" ","SECT":" ","MAREA":"港口","LANE":" ","ALLEY":" ","HOUSE_NO":"７之６號","E_COORD97":171172.98999999999,"N_COORD97":2554301.2999999998,"ADDRESS":"港口７之６號","OBJECTID":58378},"geometry":{"x":171172.99000000022,"y":2554301.3000000007}},{"attributes":{"ID":58379,"DIS_CODE":0,"TOWNNAME":"安定區","LI":"蘇林里","LIN":"1鄰","STREET":" ","SECT":" ","MAREA":"蘇厝","LANE":" ","ALLEY":" ","HOUSE_NO":"９號之２","E_COORD97":173625.79000000001,"N_COORD97":2558605.2999999998,"ADDRESS":"蘇厝９號之２","OBJECTID":58379},"geometry":{"x":173625.7900000019,"y":2558605.3000000026}},{"attributes":{"ID":58380,"DIS_CODE":0,"TOWNNAME":"安定區","LI":"中榮里","LIN":"1鄰","STREET":" ","SECT":" ","MAREA":"許中營","LANE":" ","ALLEY":" ","HOUSE_NO":"１之２５號","E_COORD97":172210.04000000001,"N_COORD97":2554869.2999999998,"ADDRESS":"許中營１之２５號","OBJECTID":58380},"geometry":{"x":172210.04000000004,"y":2554869.3000000026}},{"attributes":{"ID":58381,"DIS_CODE":0,"TOWNNAME":"安定區","LI":"管寮里","LIN":"1鄰","STREET":" ","SECT":" ","MAREA":"管寮","LANE":" ","ALLEY":" ","HOUSE_NO":"６之２號","E_COORD97":169873.89000000001,"N_COORD97":2556055.2999999998,"ADDRESS":"管寮６之２號","OBJECTID":58381},"geometry":{"x":169873.8900000006,"y":2556055.2999999989}},{"attributes":{"ID":58382,"DIS_CODE":0,"TOWNNAME":"安定區","LI":"新吉里","LIN":"1鄰","STREET":" ","SECT":" ","MAREA":"新吉","LANE":" ","ALLEY":" ","HOUSE_NO":"２之１９號","E_COORD97":169172.67000000001,"N_COORD97":2554155.2999999998,"ADDRESS":"新吉２之１９號","OBJECTID":58382},"geometry":{"x":169172.66999999993,"y":2554155.3000000007}},{"attributes":{"ID":58383,"DIS_CODE":0,"TOWNNAME":"安定區","LI":"蘇林里","LIN":"1鄰","STREET":" ","SECT":" ","MAREA":"蘇厝","LANE":" ","ALLEY":" ","HOUSE_NO":"８號之１","E_COORD97":173669.72,"N_COORD97":2558508.2999999998,"ADDRESS":"蘇厝８之１號","OBJECTID":58383},"geometry":{"x":173669.71999999974,"y":2558508.3000000026}},{"attributes":{"ID":58384,"DIS_CODE":0,"TOWNNAME":"安定區","LI":"中榮里","LIN":"1鄰","STREET":" ","SECT":" ","MAREA":"許中營","LANE":" ","ALLEY":" ","HOUSE_NO":"１號","E_COORD97":172125.39000000001,"N_COORD97":2555000.25,"ADDRESS":"許中營１號","OBJECTID":58384},"geometry":{"x":172125.38999999966,"y":2555000.25}},{"attributes":{"ID":58385,"DIS_CODE":0,"TOWNNAME":"安定區","LI":"蘇林里","LIN":"1鄰","STREET":" ","SECT":" ","MAREA":"蘇厝","LANE":" ","ALLEY":" ","HOUSE_NO":"１３號","E_COORD97":173560.26999999999,"N_COORD97":2558601.25,"ADDRESS":"蘇厝１３號","OBJECTID":58385},"geometry":{"x":173560.26999999955,"y":2558601.2500000037}},{"attributes":{"ID":58386,"DIS_CODE":0,"TOWNNAME":"安定區","LI":"蘇林里","LIN":"1鄰","STREET":" ","SECT":" ","MAREA":"蘇厝","LANE":" ","ALLEY":" ","HOUSE_NO":"８之４號","E_COORD97":173638.62,"N_COORD97":2558523.2999999998,"ADDRESS":"蘇厝８之４號","OBJECTID":58386},"geometry":{"x":173638.62000000011,"y":2558523.3000000007}},{"attributes":{"ID":58387,"DIS_CODE":0,"TOWNNAME":"安定區","LI":"港南里","LIN":"1鄰","STREET":" ","SECT":" ","MAREA":"港口","LANE":" ","ALLEY":" ","HOUSE_NO":"２之１３號","E_COORD97":171143.14000000001,"N_COORD97":2554256.2999999998,"ADDRESS":"港口２之１３號","OBJECTID":58387},"geometry":{"x":171143.1400000006,"y":2554256.3000000026}},{"attributes":{"ID":58388,"DIS_CODE":0,"TOWNNAME":"安定區","LI":"蘇林里","LIN":"1鄰","STREET":" ","SECT":" ","MAREA":"蘇厝","LANE":" ","ALLEY":" ","HOUSE_NO":"１６號","E_COORD97":173570.87,"N_COORD97":2558578.25,"ADDRESS":"蘇厝１６號","OBJECTID":58388},"geometry":{"x":173570.87000000011,"y":2558578.2500000019}},{"attributes":{"ID":58389,"DIS_CODE":0,"TOWNNAME":"安定區","LI":"蘇林里","LIN":"1鄰","STREET":" ","SECT":" ","MAREA":"蘇厝","LANE":" ","ALLEY":" ","HOUSE_NO":"１０號之２","E_COORD97":173640.14000000001,"N_COORD97":2558581.2999999998,"ADDRESS":"蘇厝１０號之２","OBJECTID":58389},"geometry":{"x":173640.1400000006,"y":2558581.3000000045}},{"attributes":{"ID":58390,"DIS_CODE":0,"TOWNNAME":"安定區","LI":"蘇林里","LIN":"1鄰","STREET":" ","SECT":" ","MAREA":"蘇厝","LANE":" ","ALLEY":" ","HOUSE_NO":"１７號","E_COORD97":173559.67000000001,"N_COORD97":2558529.25,"ADDRESS":"蘇厝１７號","OBJECTID":58390},"geometry":{"x":173559.66999999993,"y":2558529.25}},{"attributes":{"ID":58391,"DIS_CODE":0,"TOWNNAME":"安定區","LI":"港南里","LIN":"1鄰","STREET":" ","SECT":" ","MAREA":"港口","LANE":" ","ALLEY":" ","HOUSE_NO":"２號之１４","E_COORD97":171139.94,"N_COORD97":2554258.2999999998,"ADDRESS":"港口２之１４號","OBJECTID":58391},"geometry":{"x":171139.93999999948,"y":2554258.2999999989}},{"attributes":{"ID":58392,"DIS_CODE":0,"TOWNNAME":"安定區","LI":"港南里","LIN":"1鄰","STREET":" ","SECT":" ","MAREA":"港口","LANE":" ","ALLEY":" ","HOUSE_NO":"５之１號","E_COORD97":171064.19,"N_COORD97":2554319.2999999998,"ADDRESS":"港口５之１號","OBJECTID":58392},"geometry":{"x":171064.19000000134,"y":2554319.3000000007}},{"attributes":{"ID":58393,"DIS_CODE":0,"TOWNNAME":"安定區","LI":"港南里","LIN":"1鄰","STREET":" ","SECT":" ","MAREA":"港口","LANE":" ","ALLEY":" ","HOUSE_NO":"９之６號","E_COORD97":171221.39000000001,"N_COORD97":2554309.2999999998,"ADDRESS":"港口９之６號","OBJECTID":58393},"geometry":{"x":171221.3900000006,"y":2554309.3000000045}},{"attributes":{"ID":58394,"DIS_CODE":0,"TOWNNAME":"安定區","LI":"港南里","LIN":"1鄰","STREET":" ","SECT":" ","MAREA":"港口","LANE":" ","ALLEY":" ","HOUSE_NO":"１０號之１０","E_COORD97":171255.07999999999,"N_COORD97":2554297.2999999998,"ADDRESS":"港口１０號之１０","OBJECTID":58394},"geometry":{"x":171255.08000000007,"y":2554297.3000000026}},{"attributes":{"ID":58395,"DIS_CODE":0,"TOWNNAME":"安定區","LI":"蘇林里","LIN":"1鄰","STREET":" ","SECT":" ","MAREA":"蘇厝","LANE":" ","ALLEY":" ","HOUSE_NO":"９號之６","E_COORD97":173654.95999999999,"N_COORD97":2558605.2999999998,"ADDRESS":"蘇厝９號之６","OBJECTID":58395},"geometry":{"x":173654.95999999903,"y":2558605.3000000026}},{"attributes":{"ID":58396,"DIS_CODE":0,"TOWNNAME":"安定區","LI":"新吉里","LIN":"1鄰","STREET":" ","SECT":" ","MAREA":"新吉","LANE":" ","ALLEY":" ","HOUSE_NO":"２號之１８","E_COORD97":169172.45000000001,"N_COORD97":2554150.2999999998,"ADDRESS":"新吉２號之１８","OBJECTID":58396},"geometry":{"x":169172.45000000112,"y":2554150.3000000045}},{"attributes":{"ID":58397,"DIS_CODE":0,"TOWNNAME":"安定區","LI":"新吉里","LIN":"1鄰","STREET":" ","SECT":" ","MAREA":"新吉","LANE":" ","ALLEY":" ","HOUSE_NO":"７之１號","E_COORD97":169287.32000000001,"N_COORD97":2554145.2999999998,"ADDRESS":"新吉７之１號","OBJECTID":58397},"geometry":{"x":169287.3200000003,"y":2554145.3000000007}},{"attributes":{"ID":58398,"DIS_CODE":0,"TOWNNAME":"安定區","LI":"新吉里","LIN":"1鄰","STREET":" ","SECT":" ","MAREA":"新吉","LANE":" ","ALLEY":" ","HOUSE_NO":"３之２號","E_COORD97":169212.85853600001,"N_COORD97":2554149.4093499999,"ADDRESS":"新吉３之２號","OBJECTID":58398},"geometry":{"x":169212.85853600129,"y":2554149.409345001}},{"attributes":{"ID":58399,"DIS_CODE":0,"TOWNNAME":"安定區","LI":"新吉里","LIN":"1鄰","STREET":" ","SECT":" ","MAREA":"新吉","LANE":" ","ALLEY":" ","HOUSE_NO":"５號","E_COORD97":169254.72,"N_COORD97":2554125.25,"ADDRESS":"新吉５號","OBJECTID":58399},"geometry":{"x":169254.72000000067,"y":2554125.25}},{"attributes":{"ID":58400,"DIS_CODE":0,"TOWNNAME":"安定區","LI":"新吉里","LIN":"1鄰","STREET":" ","SECT":" ","MAREA":"新吉","LANE":" ","ALLEY":" ","HOUSE_NO":"２之１１號","E_COORD97":169171,"N_COORD97":2554120.2999999998,"ADDRESS":"新吉２號之１１","OBJECTID":58400},"geometry":{"x":169170.99999999907,"y":2554120.3000000026}}]}