{"displayFieldName":"TOWNNAME","fieldAliases":{"ID":"ID","DIS_CODE":"DIS_CODE","TOWNNAME":"TOWNNAME","LI":"LI","LIN":"LIN","STREET":"STREET","SECT":"SECT","MAREA":"MAREA","LANE":"LANE","ALLEY":"ALLEY","HOUSE_NO":"HOUSE_NO","E_COORD97":"E_COORD97","N_COORD97":"N_COORD97","ADDRESS":"ADDRESS","OBJECTID":"OBJECTID"},"geometryType":"esriGeometryPoint","spatialReference":{"wkid":102443,"latestWkid":3826},"fields":[{"name":"ID","type":"esriFieldTypeDouble","alias":"ID"},{"name":"DIS_CODE","type":"esriFieldTypeInteger","alias":"DIS_CODE"},{"name":"TOWNNAME","type":"esriFieldTypeString","alias":"TOWNNAME","length":8},{"name":"LI","type":"esriFieldTypeString","alias":"LI","length":8},{"name":"LIN","type":"esriFieldTypeString","alias":"LIN","length":12},{"name":"STREET","type":"esriFieldTypeString","alias":"STREET","length":20},{"name":"SECT","type":"esriFieldTypeString","alias":"SECT","length":8},{"name":"MAREA","type":"esriFieldTypeString","alias":"MAREA","length":12},{"name":"LANE","type":"esriFieldTypeString","alias":"LANE","length":10},{"name":"ALLEY","type":"esriFieldTypeString","alias":"ALLEY","length":10},{"name":"HOUSE_NO","type":"esriFieldTypeString","alias":"HOUSE_NO","length":20},{"name":"E_COORD97","type":"esriFieldTypeDouble","alias":"E_COORD97"},{"name":"N_COORD97","type":"esriFieldTypeDouble","alias":"N_COORD97"},{"name":"ADDRESS","type":"esriFieldTypeString","alias":"ADDRESS","length":50},{"name":"OBJECTID","type":"esriFieldTypeOID","alias":"OBJECTID"}],"features":[{"attributes":{"ID":524828,"DIS_CODE":0,"TOWNNAME":"北區","LI":"和順里","LIN":"6鄰","STREET":"育德路","SECT":" ","MAREA":" ","LANE":" ","ALLEY":" ","HOUSE_NO":"４１號","E_COORD97":168338.92000000001,"N_COORD97":2545243.54,"ADDRESS":"育德路４１號","OBJECTID":524801},"geometry":{"x":168338.91999999993,"y":2545243.5400000028}},{"attributes":{"ID":524829,"DIS_CODE":0,"TOWNNAME":"北區","LI":"和順里","LIN":"6鄰","STREET":"育德路","SECT":" ","MAREA":" ","LANE":" ","ALLEY":" ","HOUSE_NO":"４３號","E_COORD97":168341.54999999999,"N_COORD97":2545247.4700000002,"ADDRESS":"育德路４３號","OBJECTID":524802},"geometry":{"x":168341.55000000168,"y":2545247.4700000007}},{"attributes":{"ID":524830,"DIS_CODE":0,"TOWNNAME":"北區","LI":"和順里","LIN":"6鄰","STREET":"育德路","SECT":" ","MAREA":" ","LANE":" ","ALLEY":" ","HOUSE_NO":"４５號","E_COORD97":168343.92000000001,"N_COORD97":2545250.6200000001,"ADDRESS":"育德路４５號","OBJECTID":524803},"geometry":{"x":168343.91999999993,"y":2545250.620000001}},{"attributes":{"ID":524831,"DIS_CODE":0,"TOWNNAME":"北區","LI":"和順里","LIN":"6鄰","STREET":"育德路","SECT":" ","MAREA":" ","LANE":" ","ALLEY":" ","HOUSE_NO":"４７號","E_COORD97":168346.81,"N_COORD97":2545254.8199999998,"ADDRESS":"育德路４７號","OBJECTID":524804},"geometry":{"x":168346.81000000052,"y":2545254.8200000003}},{"attributes":{"ID":524832,"DIS_CODE":0,"TOWNNAME":"北區","LI":"和順里","LIN":"6鄰","STREET":"育德路","SECT":" ","MAREA":" ","LANE":" ","ALLEY":" ","HOUSE_NO":"５１號","E_COORD97":168354.42000000001,"N_COORD97":2545264.5299999998,"ADDRESS":"育德路５１號","OBJECTID":524805},"geometry":{"x":168354.42000000179,"y":2545264.5300000012}},{"attributes":{"ID":524833,"DIS_CODE":0,"TOWNNAME":"北區","LI":"和順里","LIN":"6鄰","STREET":"育德路","SECT":" ","MAREA":" ","LANE":" ","ALLEY":" ","HOUSE_NO":"５７號","E_COORD97":168362.04000000001,"N_COORD97":2545276.0800000001,"ADDRESS":"育德路５７號","OBJECTID":524806},"geometry":{"x":168362.04000000004,"y":2545276.0800000019}},{"attributes":{"ID":524834,"DIS_CODE":0,"TOWNNAME":"北區","LI":"和順里","LIN":"6鄰","STREET":"育德路","SECT":" ","MAREA":" ","LANE":" ","ALLEY":" ","HOUSE_NO":"５９號","E_COORD97":168365.45999999999,"N_COORD97":2545279.75,"ADDRESS":"育德路５９號","OBJECTID":524807},"geometry":{"x":168365.45999999996,"y":2545279.75}},{"attributes":{"ID":524835,"DIS_CODE":0,"TOWNNAME":"北區","LI":"和順里","LIN":"6鄰","STREET":"育德路","SECT":" ","MAREA":" ","LANE":" ","ALLEY":" ","HOUSE_NO":"６１號","E_COORD97":168367.29999999999,"N_COORD97":2545283.4199999999,"ADDRESS":"育德路６１號","OBJECTID":524808},"geometry":{"x":168367.30000000075,"y":2545283.4200000018}},{"attributes":{"ID":524836,"DIS_CODE":0,"TOWNNAME":"北區","LI":"和順里","LIN":"6鄰","STREET":"育德路","SECT":" ","MAREA":" ","LANE":" ","ALLEY":" ","HOUSE_NO":"６３號","E_COORD97":168370.98000000001,"N_COORD97":2545287.8900000001,"ADDRESS":"育德路６３號","OBJECTID":524809},"geometry":{"x":168370.98000000045,"y":2545287.8900000025}},{"attributes":{"ID":524837,"DIS_CODE":0,"TOWNNAME":"北區","LI":"裕民里","LIN":"6鄰","STREET":"臨安路","SECT":"二段","MAREA":" ","LANE":" ","ALLEY":" ","HOUSE_NO":"７０號","E_COORD97":167700.16,"N_COORD97":2544811.8399999999,"ADDRESS":"臨安路二段７０號","OBJECTID":524810},"geometry":{"x":167700.16000000015,"y":2544811.8400000036}},{"attributes":{"ID":524838,"DIS_CODE":0,"TOWNNAME":"北區","LI":"裕民里","LIN":"6鄰","STREET":"臨安路","SECT":"二段","MAREA":" ","LANE":" ","ALLEY":" ","HOUSE_NO":"７２號","E_COORD97":167705.09,"N_COORD97":2544812.5499999998,"ADDRESS":"臨安路二段７２號","OBJECTID":524811},"geometry":{"x":167705.08999999985,"y":2544812.5500000026}},{"attributes":{"ID":524839,"DIS_CODE":0,"TOWNNAME":"北區","LI":"裕民里","LIN":"6鄰","STREET":"臨安路","SECT":"二段","MAREA":" ","LANE":" ","ALLEY":" ","HOUSE_NO":"７４號","E_COORD97":167708.95999999999,"N_COORD97":2544813.9500000002,"ADDRESS":"臨安路二段７４號","OBJECTID":524812},"geometry":{"x":167708.96000000089,"y":2544813.950000003}},{"attributes":{"ID":524840,"DIS_CODE":0,"TOWNNAME":"北區","LI":"裕民里","LIN":"6鄰","STREET":"臨安路","SECT":"二段","MAREA":" ","LANE":" ","ALLEY":" ","HOUSE_NO":"７６號","E_COORD97":167713.19,"N_COORD97":2544815.71,"ADDRESS":"臨安路二段７６號","OBJECTID":524813},"geometry":{"x":167713.19000000134,"y":2544815.7100000009}},{"attributes":{"ID":524841,"DIS_CODE":0,"TOWNNAME":"北區","LI":"裕民里","LIN":"6鄰","STREET":"臨安路","SECT":"二段","MAREA":" ","LANE":" ","ALLEY":" ","HOUSE_NO":"８０號","E_COORD97":167732.20999999999,"N_COORD97":2544819.25,"ADDRESS":"臨安路二段８０號","OBJECTID":524814},"geometry":{"x":167732.21000000183,"y":2544819.2500000037}},{"attributes":{"ID":524842,"DIS_CODE":0,"TOWNNAME":"北區","LI":"裕民里","LIN":"6鄰","STREET":"臨安路","SECT":"二段","MAREA":" ","LANE":" ","ALLEY":" ","HOUSE_NO":"８２號","E_COORD97":167735.01999999999,"N_COORD97":2544822.7599999998,"ADDRESS":"臨安路二段８２號","OBJECTID":524815},"geometry":{"x":167735.02000000048,"y":2544822.7600000016}},{"attributes":{"ID":524843,"DIS_CODE":0,"TOWNNAME":"北區","LI":"東興里","LIN":"6鄰","STREET":"小東路","SECT":" ","MAREA":" ","LANE":" ","ALLEY":" ","HOUSE_NO":"２８９號","E_COORD97":171008.42999999999,"N_COORD97":2544453.3799999999,"ADDRESS":"小東路２８９號","OBJECTID":524816},"geometry":{"x":171008.4299999997,"y":2544453.379999999}},{"attributes":{"ID":524844,"DIS_CODE":0,"TOWNNAME":"北區","LI":"東興里","LIN":"6鄰","STREET":"小東路","SECT":" ","MAREA":" ","LANE":" ","ALLEY":" ","HOUSE_NO":"２８９號之１","E_COORD97":171012.70999999999,"N_COORD97":2544452.1200000001,"ADDRESS":"小東路２８９號之１","OBJECTID":524817},"geometry":{"x":171012.71000000089,"y":2544452.1200000029}},{"attributes":{"ID":524845,"DIS_CODE":0,"TOWNNAME":"北區","LI":"東興里","LIN":"6鄰","STREET":"小東路","SECT":" ","MAREA":" ","LANE":" ","ALLEY":" ","HOUSE_NO":"２８９號之２","E_COORD97":171016.41,"N_COORD97":2544450.6600000001,"ADDRESS":"小東路２８９號之２","OBJECTID":524818},"geometry":{"x":171016.41000000108,"y":2544450.6600000039}},{"attributes":{"ID":524846,"DIS_CODE":0,"TOWNNAME":"北區","LI":"東興里","LIN":"6鄰","STREET":"小東路","SECT":" ","MAREA":" ","LANE":" ","ALLEY":" ","HOUSE_NO":"２８９號之３","E_COORD97":171020.20000000001,"N_COORD97":2544449.3999999999,"ADDRESS":"小東路２８９號之３","OBJECTID":524819},"geometry":{"x":171020.20000000112,"y":2544449.4000000022}},{"attributes":{"ID":524847,"DIS_CODE":0,"TOWNNAME":"北區","LI":"東興里","LIN":"6鄰","STREET":"小東路","SECT":" ","MAREA":" ","LANE":" ","ALLEY":" ","HOUSE_NO":"２９１號","E_COORD97":171024.09,"N_COORD97":2544448.23,"ADDRESS":"小東路２９１號","OBJECTID":524820},"geometry":{"x":171024.08999999985,"y":2544448.2300000023}},{"attributes":{"ID":524848,"DIS_CODE":0,"TOWNNAME":"北區","LI":"東興里","LIN":"6鄰","STREET":"小東路","SECT":" ","MAREA":" ","LANE":" ","ALLEY":" ","HOUSE_NO":"２９１號之１","E_COORD97":171028.07999999999,"N_COORD97":2544446.77,"ADDRESS":"小東路２９１號之１","OBJECTID":524821},"geometry":{"x":171028.08000000007,"y":2544446.7700000014}},{"attributes":{"ID":524849,"DIS_CODE":0,"TOWNNAME":"北區","LI":"東興里","LIN":"6鄰","STREET":"小東路","SECT":" ","MAREA":" ","LANE":" ","ALLEY":" ","HOUSE_NO":"２９１號之２","E_COORD97":171031.97,"N_COORD97":2544445.5099999998,"ADDRESS":"小東路２９１號之２","OBJECTID":524822},"geometry":{"x":171031.96999999974,"y":2544445.5100000016}},{"attributes":{"ID":524850,"DIS_CODE":0,"TOWNNAME":"北區","LI":"東興里","LIN":"6鄰","STREET":"小東路","SECT":" ","MAREA":" ","LANE":" ","ALLEY":" ","HOUSE_NO":"２９１號之３","E_COORD97":171035.57000000001,"N_COORD97":2544444.3399999999,"ADDRESS":"小東路２９１號之３","OBJECTID":524823},"geometry":{"x":171035.57000000216,"y":2544444.3399999999}},{"attributes":{"ID":524851,"DIS_CODE":0,"TOWNNAME":"北區","LI":"東興里","LIN":"6鄰","STREET":"小東路","SECT":" ","MAREA":" ","LANE":" ","ALLEY":" ","HOUSE_NO":"２９３號","E_COORD97":171039.45999999999,"N_COORD97":2544443.1699999999,"ADDRESS":"小東路２９３號","OBJECTID":524824},"geometry":{"x":171039.46000000183,"y":2544443.1699999981}},{"attributes":{"ID":524852,"DIS_CODE":0,"TOWNNAME":"北區","LI":"東興里","LIN":"6鄰","STREET":"小東路","SECT":" ","MAREA":" ","LANE":" ","ALLEY":" ","HOUSE_NO":"２９３號之１","E_COORD97":171042.87,"N_COORD97":2544441.9100000001,"ADDRESS":"小東路２９３號之１","OBJECTID":524825},"geometry":{"x":171042.87000000011,"y":2544441.9100000039}},{"attributes":{"ID":524853,"DIS_CODE":0,"TOWNNAME":"北區","LI":"東興里","LIN":"6鄰","STREET":"小東路","SECT":" ","MAREA":" ","LANE":" ","ALLEY":" ","HOUSE_NO":"２９３號之２","E_COORD97":171046.85999999999,"N_COORD97":2544440.2599999998,"ADDRESS":"小東路２９３號之２","OBJECTID":524826},"geometry":{"x":171046.86000000034,"y":2544440.2600000016}},{"attributes":{"ID":524854,"DIS_CODE":0,"TOWNNAME":"北區","LI":"東興里","LIN":"6鄰","STREET":"小東路","SECT":" ","MAREA":" ","LANE":" ","ALLEY":" ","HOUSE_NO":"２９３號之３","E_COORD97":171052.01000000001,"N_COORD97":2544439.1899999999,"ADDRESS":"小東路２９３號之３","OBJECTID":524827},"geometry":{"x":171052.00999999978,"y":2544439.1899999976}},{"attributes":{"ID":524855,"DIS_CODE":0,"TOWNNAME":"北區","LI":"東興里","LIN":"6鄰","STREET":"小東路","SECT":" ","MAREA":" ","LANE":" ","ALLEY":" ","HOUSE_NO":"２９５號","E_COORD97":171057.95000000001,"N_COORD97":2544437.73,"ADDRESS":"小東路２９５號","OBJECTID":524828},"geometry":{"x":171057.95000000019,"y":2544437.7300000023}},{"attributes":{"ID":524856,"DIS_CODE":0,"TOWNNAME":"北區","LI":"東興里","LIN":"6鄰","STREET":"小東路","SECT":" ","MAREA":" ","LANE":" ","ALLEY":" ","HOUSE_NO":"２９７號之１","E_COORD97":171078.09,"N_COORD97":2544430.25,"ADDRESS":"小東路２９７號之１","OBJECTID":524829},"geometry":{"x":171078.09000000078,"y":2544430.2500000019}},{"attributes":{"ID":524857,"DIS_CODE":0,"TOWNNAME":"北區","LI":"東興里","LIN":"6鄰","STREET":"小東路","SECT":" ","MAREA":" ","LANE":" ","ALLEY":" ","HOUSE_NO":"２９７號之２","E_COORD97":171081.69,"N_COORD97":2544428.6899999999,"ADDRESS":"小東路２９７號之２","OBJECTID":524830},"geometry":{"x":171081.69000000041,"y":2544428.6899999995}},{"attributes":{"ID":524858,"DIS_CODE":0,"TOWNNAME":"北區","LI":"東興里","LIN":"6鄰","STREET":"小東路","SECT":" ","MAREA":" ","LANE":" ","ALLEY":" ","HOUSE_NO":"２９７號之３","E_COORD97":171085.76999999999,"N_COORD97":2544427.52,"ADDRESS":"小東路２９７號之３","OBJECTID":524831},"geometry":{"x":171085.76999999955,"y":2544427.5200000014}},{"attributes":{"ID":524859,"DIS_CODE":0,"TOWNNAME":"歸仁區","LI":"七甲里","LIN":"6鄰","STREET":"中正北路","SECT":"二段","MAREA":" ","LANE":" ","ALLEY":" ","HOUSE_NO":"３７６號","E_COORD97":177522.32000000001,"N_COORD97":2542905.2599999998,"ADDRESS":"中正北路二段３７６號","OBJECTID":524832},"geometry":{"x":177522.3200000003,"y":2542905.2599999998}},{"attributes":{"ID":524860,"DIS_CODE":0,"TOWNNAME":"歸仁區","LI":"大潭里","LIN":"6鄰","STREET":"中正南路","SECT":"三段","MAREA":" ","LANE":" ","ALLEY":" ","HOUSE_NO":"２８１號","E_COORD97":175140.70999999999,"N_COORD97":2534660.2799999998,"ADDRESS":"中正南路三段２８１號","OBJECTID":524833},"geometry":{"x":175140.71000000089,"y":2534660.2799999993}},{"attributes":{"ID":524861,"DIS_CODE":0,"TOWNNAME":"歸仁區","LI":"七甲里","LIN":"6鄰","STREET":"中正北路","SECT":"二段","MAREA":" ","LANE":" ","ALLEY":" ","HOUSE_NO":"３５２號","E_COORD97":177516.38,"N_COORD97":2542871.6699999999,"ADDRESS":"中正北路二段３５２號","OBJECTID":524834},"geometry":{"x":177516.37999999989,"y":2542871.6700000018}},{"attributes":{"ID":524862,"DIS_CODE":0,"TOWNNAME":"歸仁區","LI":"八甲里","LIN":"6鄰","STREET":"大光二街","SECT":" ","MAREA":" ","LANE":" ","ALLEY":" ","HOUSE_NO":"１５號","E_COORD97":177906.22,"N_COORD97":2541726.6099999999,"ADDRESS":"大光二街１５號","OBJECTID":524835},"geometry":{"x":177906.21999999881,"y":2541726.6099999994}},{"attributes":{"ID":524863,"DIS_CODE":0,"TOWNNAME":"歸仁區","LI":"七甲里","LIN":"6鄰","STREET":"中正北路","SECT":"二段","MAREA":" ","LANE":" ","ALLEY":" ","HOUSE_NO":"３５０號","E_COORD97":177516.38,"N_COORD97":2542866.6699999999,"ADDRESS":"中正北路二段３５０號","OBJECTID":524836},"geometry":{"x":177516.37999999989,"y":2542866.6699999981}},{"attributes":{"ID":524864,"DIS_CODE":0,"TOWNNAME":"歸仁區","LI":"大潭里","LIN":"6鄰","STREET":"中正南路","SECT":"三段","MAREA":" ","LANE":" ","ALLEY":" ","HOUSE_NO":"２７３號","E_COORD97":175142.81,"N_COORD97":2534668.2799999998,"ADDRESS":"中正南路三段２７３號","OBJECTID":524837},"geometry":{"x":175142.81000000052,"y":2534668.2800000012}},{"attributes":{"ID":524865,"DIS_CODE":0,"TOWNNAME":"歸仁區","LI":"八甲里","LIN":"6鄰","STREET":"大光二街","SECT":" ","MAREA":" ","LANE":" ","ALLEY":" ","HOUSE_NO":"１３號","E_COORD97":177910.32000000001,"N_COORD97":2541725.6099999999,"ADDRESS":"大光二街１３號","OBJECTID":524838},"geometry":{"x":177910.32000000123,"y":2541725.6100000013}},{"attributes":{"ID":524866,"DIS_CODE":0,"TOWNNAME":"歸仁區","LI":"八甲里","LIN":"6鄰","STREET":"大光二街","SECT":" ","MAREA":" ","LANE":" ","ALLEY":" ","HOUSE_NO":"３５號","E_COORD97":177864.22,"N_COORD97":2541736.6099999999,"ADDRESS":"大光二街３５號","OBJECTID":524839},"geometry":{"x":177864.22000000067,"y":2541736.6099999994}},{"attributes":{"ID":524867,"DIS_CODE":0,"TOWNNAME":"歸仁區","LI":"八甲里","LIN":"6鄰","STREET":"大光二街","SECT":" ","MAREA":" ","LANE":" ","ALLEY":" ","HOUSE_NO":"２７號","E_COORD97":177879.51999999999,"N_COORD97":2541717.6099999999,"ADDRESS":"大光二街２７號","OBJECTID":524840},"geometry":{"x":177879.51999999955,"y":2541717.6100000031}},{"attributes":{"ID":524868,"DIS_CODE":0,"TOWNNAME":"歸仁區","LI":"八甲里","LIN":"6鄰","STREET":"大光二街","SECT":" ","MAREA":" ","LANE":" ","ALLEY":" ","HOUSE_NO":"３１號","E_COORD97":177877.42000000001,"N_COORD97":2541706.6099999999,"ADDRESS":"大光二街３１號","OBJECTID":524841},"geometry":{"x":177877.41999999993,"y":2541706.6099999994}},{"attributes":{"ID":524869,"DIS_CODE":0,"TOWNNAME":"歸仁區","LI":"大潭里","LIN":"6鄰","STREET":"中正南路","SECT":"三段","MAREA":" ","LANE":" ","ALLEY":" ","HOUSE_NO":"２６３號","E_COORD97":175155.20999999999,"N_COORD97":2534692.2799999998,"ADDRESS":"中正南路三段２６３號","OBJECTID":524842},"geometry":{"x":175155.20999999903,"y":2534692.2800000012}},{"attributes":{"ID":524870,"DIS_CODE":0,"TOWNNAME":"歸仁區","LI":"八甲里","LIN":"6鄰","STREET":"大光二街","SECT":" ","MAREA":" ","LANE":" ","ALLEY":" ","HOUSE_NO":"２５號","E_COORD97":177881.62,"N_COORD97":2541732.6099999999,"ADDRESS":"大光二街２５號","OBJECTID":524843},"geometry":{"x":177881.62000000011,"y":2541732.6100000013}},{"attributes":{"ID":524871,"DIS_CODE":0,"TOWNNAME":"歸仁區","LI":"八甲里","LIN":"6鄰","STREET":"大光二街","SECT":" ","MAREA":" ","LANE":" ","ALLEY":" ","HOUSE_NO":"２９號","E_COORD97":177878.51999999999,"N_COORD97":2541713.6099999999,"ADDRESS":"大光二街２９號","OBJECTID":524844},"geometry":{"x":177878.51999999955,"y":2541713.6099999994}},{"attributes":{"ID":524872,"DIS_CODE":0,"TOWNNAME":"歸仁區","LI":"八甲里","LIN":"6鄰","STREET":"大光二街","SECT":" ","MAREA":" ","LANE":" ","ALLEY":" ","HOUSE_NO":"３３號","E_COORD97":177868.32000000001,"N_COORD97":2541734.6099999999,"ADDRESS":"大光二街３３號","OBJECTID":524845},"geometry":{"x":177868.3200000003,"y":2541734.6100000031}},{"attributes":{"ID":524873,"DIS_CODE":0,"TOWNNAME":"歸仁區","LI":"八甲里","LIN":"6鄰","STREET":"大光二街","SECT":" ","MAREA":" ","LANE":" ","ALLEY":" ","HOUSE_NO":"２３號","E_COORD97":177886.72,"N_COORD97":2541731.6099999999,"ADDRESS":"大光二街２３號","OBJECTID":524846},"geometry":{"x":177886.72000000067,"y":2541731.6100000013}},{"attributes":{"ID":524874,"DIS_CODE":0,"TOWNNAME":"歸仁區","LI":"大廟里","LIN":"6鄰","STREET":"大廟一街","SECT":" ","MAREA":" ","LANE":" ","ALLEY":" ","HOUSE_NO":"１５９號","E_COORD97":175676.92000000001,"N_COORD97":2543805.25,"ADDRESS":"大廟一街１５９號","OBJECTID":524847},"geometry":{"x":175676.91999999993,"y":2543805.25}},{"attributes":{"ID":524875,"DIS_CODE":0,"TOWNNAME":"歸仁區","LI":"大廟里","LIN":"6鄰","STREET":"大廟一街","SECT":" ","MAREA":" ","LANE":" ","ALLEY":" ","HOUSE_NO":"２０５號","E_COORD97":175665.12,"N_COORD97":2543697.25,"ADDRESS":"大廟一街２０５號","OBJECTID":524848},"geometry":{"x":175665.12000000104,"y":2543697.2500000037}},{"attributes":{"ID":524876,"DIS_CODE":0,"TOWNNAME":"歸仁區","LI":"七甲里","LIN":"6鄰","STREET":"七甲三街","SECT":" ","MAREA":" ","LANE":" ","ALLEY":" ","HOUSE_NO":"２１號","E_COORD97":177563.85000000001,"N_COORD97":2542874.6699999999,"ADDRESS":"七甲三街２１號","OBJECTID":524849},"geometry":{"x":177563.84999999963,"y":2542874.6700000018}},{"attributes":{"ID":524877,"DIS_CODE":0,"TOWNNAME":"歸仁區","LI":"六甲里","LIN":"6鄰","STREET":"中正十五街","SECT":" ","MAREA":" ","LANE":" ","ALLEY":" ","HOUSE_NO":"７３號","E_COORD97":176447.01000000001,"N_COORD97":2539442.25,"ADDRESS":"中正十五街７３號","OBJECTID":524850},"geometry":{"x":176447.01000000071,"y":2539442.2500000037}},{"attributes":{"ID":524878,"DIS_CODE":0,"TOWNNAME":"歸仁區","LI":"六甲里","LIN":"6鄰","STREET":"中正十五街","SECT":" ","MAREA":" ","LANE":" ","ALLEY":" ","HOUSE_NO":"６１號","E_COORD97":176452.31,"N_COORD97":2539478.25,"ADDRESS":"中正十五街６１號","OBJECTID":524851},"geometry":{"x":176452.30999999959,"y":2539478.25}},{"attributes":{"ID":524879,"DIS_CODE":0,"TOWNNAME":"歸仁區","LI":"六甲里","LIN":"6鄰","STREET":"中正十五街","SECT":" ","MAREA":" ","LANE":" ","ALLEY":" ","HOUSE_NO":"６３號","E_COORD97":176451.20999999999,"N_COORD97":2539473.25,"ADDRESS":"中正十五街６３號","OBJECTID":524852},"geometry":{"x":176451.21000000089,"y":2539473.2500000019}},{"attributes":{"ID":524880,"DIS_CODE":0,"TOWNNAME":"歸仁區","LI":"六甲里","LIN":"6鄰","STREET":"中正十五街","SECT":" ","MAREA":" ","LANE":" ","ALLEY":" ","HOUSE_NO":"７９號","E_COORD97":176444.81,"N_COORD97":2539424.25,"ADDRESS":"中正十五街７９號","OBJECTID":524853},"geometry":{"x":176444.81000000052,"y":2539424.25}},{"attributes":{"ID":524881,"DIS_CODE":0,"TOWNNAME":"歸仁區","LI":"文化里","LIN":"6鄰","STREET":"國光街","SECT":" ","MAREA":" ","LANE":" ","ALLEY":" ","HOUSE_NO":"２０７號","E_COORD97":177345.26000000001,"N_COORD97":2541390.3300000001,"ADDRESS":"國光街２０７號","OBJECTID":524854},"geometry":{"x":177345.26000000071,"y":2541390.3300000001}},{"attributes":{"ID":524882,"DIS_CODE":0,"TOWNNAME":"歸仁區","LI":"六甲里","LIN":"6鄰","STREET":"中正十五街","SECT":" ","MAREA":" ","LANE":" ","ALLEY":" ","HOUSE_NO":"８９號","E_COORD97":176440.60999999999,"N_COORD97":2539393.25,"ADDRESS":"中正十五街８９號","OBJECTID":524855},"geometry":{"x":176440.61000000034,"y":2539393.25}},{"attributes":{"ID":524883,"DIS_CODE":0,"TOWNNAME":"歸仁區","LI":"七甲里","LIN":"6鄰","STREET":"七甲三街","SECT":" ","MAREA":" ","LANE":" ","ALLEY":" ","HOUSE_NO":"９３號","E_COORD97":177649.59,"N_COORD97":2542882.25,"ADDRESS":"七甲三街９３號","OBJECTID":524856},"geometry":{"x":177649.59000000171,"y":2542882.25}},{"attributes":{"ID":524884,"DIS_CODE":0,"TOWNNAME":"歸仁區","LI":"西埔里","LIN":"6鄰","STREET":"保大路","SECT":"二段","MAREA":" ","LANE":" ","ALLEY":" ","HOUSE_NO":"７６號","E_COORD97":177160.28,"N_COORD97":2544138.25,"ADDRESS":"保大路二段７６號","OBJECTID":524857},"geometry":{"x":177160.28000000026,"y":2544138.2500000019}},{"attributes":{"ID":524885,"DIS_CODE":0,"TOWNNAME":"歸仁區","LI":"大廟里","LIN":"6鄰","STREET":"大廟一街","SECT":" ","MAREA":" ","LANE":" ","ALLEY":" ","HOUSE_NO":"２１３號","E_COORD97":175632.12,"N_COORD97":2543655.25,"ADDRESS":"大廟一街２１３號","OBJECTID":524858},"geometry":{"x":175632.12000000011,"y":2543655.25}},{"attributes":{"ID":524886,"DIS_CODE":0,"TOWNNAME":"楠西區","LI":"楠西里","LIN":"6鄰","STREET":"中興路","SECT":" ","MAREA":" ","LANE":" ","ALLEY":" ","HOUSE_NO":"８５號","E_COORD97":197223.10999999999,"N_COORD97":2564391.25,"ADDRESS":"中興路８５號","OBJECTID":524859},"geometry":{"x":197223.11000000127,"y":2564391.25}},{"attributes":{"ID":524887,"DIS_CODE":0,"TOWNNAME":"楠西區","LI":"楠西里","LIN":"6鄰","STREET":"中興路","SECT":" ","MAREA":" ","LANE":" ","ALLEY":" ","HOUSE_NO":"６７號","E_COORD97":197215.81,"N_COORD97":2564364.25,"ADDRESS":"中興路６７號","OBJECTID":524860},"geometry":{"x":197215.81000000052,"y":2564364.25}},{"attributes":{"ID":524888,"DIS_CODE":0,"TOWNNAME":"楠西區","LI":"東勢里","LIN":"6鄰","STREET":"東勢路","SECT":" ","MAREA":" ","LANE":" ","ALLEY":" ","HOUSE_NO":"１１３號","E_COORD97":197394.57000000001,"N_COORD97":2564026.29,"ADDRESS":"東勢路１１３號","OBJECTID":524861},"geometry":{"x":197394.57000000123,"y":2564026.2899999991}},{"attributes":{"ID":524889,"DIS_CODE":0,"TOWNNAME":"楠西區","LI":"東勢里","LIN":"6鄰","STREET":"民生路","SECT":" ","MAREA":" ","LANE":" ","ALLEY":" ","HOUSE_NO":"３７號","E_COORD97":197445.84,"N_COORD97":2564016.29,"ADDRESS":"民生路３７號","OBJECTID":524862},"geometry":{"x":197445.83999999985,"y":2564016.2899999991}},{"attributes":{"ID":524890,"DIS_CODE":0,"TOWNNAME":"楠西區","LI":"楠西里","LIN":"6鄰","STREET":"中興路","SECT":" ","MAREA":" ","LANE":" ","ALLEY":" ","HOUSE_NO":"３７號之５","E_COORD97":197197.29999999999,"N_COORD97":2564264.2999999998,"ADDRESS":"中興路３７號之５","OBJECTID":524863},"geometry":{"x":197197.30000000075,"y":2564264.3000000026}},{"attributes":{"ID":524891,"DIS_CODE":0,"TOWNNAME":"楠西區","LI":"東勢里","LIN":"6鄰","STREET":"中正路","SECT":" ","MAREA":" ","LANE":" ","ALLEY":" ","HOUSE_NO":"１４３號","E_COORD97":197327.85999999999,"N_COORD97":2563900.25,"ADDRESS":"中正路１４３號","OBJECTID":524864},"geometry":{"x":197327.8600000022,"y":2563900.2500000037}},{"attributes":{"ID":524892,"DIS_CODE":0,"TOWNNAME":"楠西區","LI":"東勢里","LIN":"6鄰","STREET":"民生路","SECT":" ","MAREA":" ","LANE":" ","ALLEY":" ","HOUSE_NO":"３２號","E_COORD97":197394.37,"N_COORD97":2564012.29,"ADDRESS":"民生路３２號","OBJECTID":524865},"geometry":{"x":197394.37000000104,"y":2564012.290000001}},{"attributes":{"ID":524893,"DIS_CODE":0,"TOWNNAME":"楠西區","LI":"東勢里","LIN":"6鄰","STREET":"仁愛路","SECT":" ","MAREA":" ","LANE":" ","ALLEY":" ","HOUSE_NO":"１０３號","E_COORD97":197473.69,"N_COORD97":2563959.2799999998,"ADDRESS":"仁愛路１０３號","OBJECTID":524866},"geometry":{"x":197473.69000000134,"y":2563959.2799999993}},{"attributes":{"ID":524894,"DIS_CODE":0,"TOWNNAME":"楠西區","LI":"東勢里","LIN":"6鄰","STREET":"中正路","SECT":" ","MAREA":" ","LANE":" ","ALLEY":" ","HOUSE_NO":"１３９號","E_COORD97":197317.66,"N_COORD97":2563912.25,"ADDRESS":"中正路１３９號","OBJECTID":524867},"geometry":{"x":197317.66000000108,"y":2563912.25}},{"attributes":{"ID":524895,"DIS_CODE":0,"TOWNNAME":"楠西區","LI":"楠西里","LIN":"6鄰","STREET":"中興路","SECT":" ","MAREA":" ","LANE":" ","ALLEY":" ","HOUSE_NO":"３７號之９","E_COORD97":197200.23000000001,"N_COORD97":2564278.2999999998,"ADDRESS":"中興路３７號之９","OBJECTID":524868},"geometry":{"x":197200.23000000138,"y":2564278.3000000026}},{"attributes":{"ID":524896,"DIS_CODE":0,"TOWNNAME":"楠西區","LI":"楠西里","LIN":"6鄰","STREET":"中興路","SECT":" ","MAREA":" ","LANE":" ","ALLEY":" ","HOUSE_NO":"８７號之１","E_COORD97":197204.35000000001,"N_COORD97":2564401.2999999998,"ADDRESS":"中興路８７號之１","OBJECTID":524869},"geometry":{"x":197204.34999999963,"y":2564401.3000000007}},{"attributes":{"ID":524897,"DIS_CODE":0,"TOWNNAME":"楠西區","LI":"楠西里","LIN":"6鄰","STREET":"中興路","SECT":" ","MAREA":" ","LANE":" ","ALLEY":" ","HOUSE_NO":"２７號","E_COORD97":197182.70999999999,"N_COORD97":2564211.25,"ADDRESS":"中興路２７號","OBJECTID":524870},"geometry":{"x":197182.71000000183,"y":2564211.25}},{"attributes":{"ID":524898,"DIS_CODE":0,"TOWNNAME":"楠西區","LI":"東勢里","LIN":"6鄰","STREET":"民生路","SECT":" ","MAREA":" ","LANE":" ","ALLEY":" ","HOUSE_NO":"１２號","E_COORD97":197366.73999999999,"N_COORD97":2563927.29,"ADDRESS":"民生路１２號","OBJECTID":524871},"geometry":{"x":197366.74000000022,"y":2563927.290000001}},{"attributes":{"ID":524899,"DIS_CODE":0,"TOWNNAME":"楠西區","LI":"東勢里","LIN":"6鄰","STREET":"東勢路","SECT":" ","MAREA":" ","LANE":" ","ALLEY":" ","HOUSE_NO":"１０３號","E_COORD97":197462.07000000001,"N_COORD97":2564033.29,"ADDRESS":"東勢路１０３號","OBJECTID":524872},"geometry":{"x":197462.07000000216,"y":2564033.2899999991}},{"attributes":{"ID":524900,"DIS_CODE":0,"TOWNNAME":"楠西區","LI":"楠西里","LIN":"6鄰","STREET":"中興路","SECT":" ","MAREA":" ","LANE":" ","ALLEY":" ","HOUSE_NO":"２１號","E_COORD97":197178.31,"N_COORD97":2564193.25,"ADDRESS":"中興路２１號","OBJECTID":524873},"geometry":{"x":197178.31000000052,"y":2564193.2500000019}},{"attributes":{"ID":524901,"DIS_CODE":0,"TOWNNAME":"楠西區","LI":"東勢里","LIN":"6鄰","STREET":"中正路","SECT":" ","MAREA":" ","LANE":" ","ALLEY":" ","HOUSE_NO":"１３５號","E_COORD97":197315.76000000001,"N_COORD97":2563915.25,"ADDRESS":"中正路１３５號","OBJECTID":524874},"geometry":{"x":197315.75999999978,"y":2563915.2500000019}},{"attributes":{"ID":524902,"DIS_CODE":0,"TOWNNAME":"楠西區","LI":"東勢里","LIN":"6鄰","STREET":"中正路","SECT":" ","MAREA":" ","LANE":" ","ALLEY":" ","HOUSE_NO":"１４９號","E_COORD97":197332.06,"N_COORD97":2563877.25,"ADDRESS":"中正路１４９號","OBJECTID":524875},"geometry":{"x":197332.05999999959,"y":2563877.2500000019}},{"attributes":{"ID":524903,"DIS_CODE":0,"TOWNNAME":"楠西區","LI":"楠西里","LIN":"6鄰","STREET":"中興路","SECT":" ","MAREA":" ","LANE":" ","ALLEY":" ","HOUSE_NO":"３７號之２","E_COORD97":197194.28,"N_COORD97":2564251.2999999998,"ADDRESS":"中興路３７號之２","OBJECTID":524876},"geometry":{"x":197194.28000000212,"y":2564251.3000000026}},{"attributes":{"ID":524904,"DIS_CODE":0,"TOWNNAME":"楠西區","LI":"楠西里","LIN":"6鄰","STREET":"中興路","SECT":" ","MAREA":" ","LANE":" ","ALLEY":" ","HOUSE_NO":"３７號之１０","E_COORD97":197202.45000000001,"N_COORD97":2564281.2999999998,"ADDRESS":"中興路３７號之１０","OBJECTID":524877},"geometry":{"x":197202.45000000019,"y":2564281.3000000026}},{"attributes":{"ID":524905,"DIS_CODE":0,"TOWNNAME":"楠西區","LI":"楠西里","LIN":"6鄰","STREET":"中興路","SECT":" ","MAREA":" ","LANE":" ","ALLEY":" ","HOUSE_NO":"３７號之１２","E_COORD97":197204.63,"N_COORD97":2564290.2999999998,"ADDRESS":"中興路３７號之１２","OBJECTID":524878},"geometry":{"x":197204.62999999989,"y":2564290.3000000007}},{"attributes":{"ID":524906,"DIS_CODE":0,"TOWNNAME":"楠西區","LI":"東勢里","LIN":"6鄰","STREET":"仁愛路","SECT":" ","MAREA":" ","LANE":" ","ALLEY":" ","HOUSE_NO":"９５號","E_COORD97":197474.94,"N_COORD97":2563945.2799999998,"ADDRESS":"仁愛路９５號","OBJECTID":524879},"geometry":{"x":197474.94000000227,"y":2563945.2799999993}},{"attributes":{"ID":524907,"DIS_CODE":0,"TOWNNAME":"楠西區","LI":"東勢里","LIN":"6鄰","STREET":"中正路","SECT":" ","MAREA":" ","LANE":" ","ALLEY":" ","HOUSE_NO":"１５５號","E_COORD97":197336.85999999999,"N_COORD97":2563869.25,"ADDRESS":"中正路１５５號","OBJECTID":524880},"geometry":{"x":197336.86000000127,"y":2563869.25}},{"attributes":{"ID":524908,"DIS_CODE":0,"TOWNNAME":"楠西區","LI":"楠西里","LIN":"6鄰","STREET":"中興路","SECT":" ","MAREA":" ","LANE":" ","ALLEY":" ","HOUSE_NO":"３３號","E_COORD97":197185.10999999999,"N_COORD97":2564223.25,"ADDRESS":"中興路３３號","OBJECTID":524881},"geometry":{"x":197185.11000000034,"y":2564223.2500000019}},{"attributes":{"ID":524909,"DIS_CODE":0,"TOWNNAME":"楠西區","LI":"楠西里","LIN":"6鄰","STREET":"中興路","SECT":" ","MAREA":" ","LANE":" ","ALLEY":" ","HOUSE_NO":"１７號","E_COORD97":197172.81,"N_COORD97":2564178.25,"ADDRESS":"中興路１７號","OBJECTID":524882},"geometry":{"x":197172.80999999959,"y":2564178.2500000037}},{"attributes":{"ID":524910,"DIS_CODE":0,"TOWNNAME":"楠西區","LI":"東勢里","LIN":"6鄰","STREET":"中正路","SECT":" ","MAREA":" ","LANE":" ","ALLEY":" ","HOUSE_NO":"１４７號","E_COORD97":197331.66,"N_COORD97":2563885.25,"ADDRESS":"中正路１４７號","OBJECTID":524883},"geometry":{"x":197331.66000000015,"y":2563885.25}},{"attributes":{"ID":524911,"DIS_CODE":0,"TOWNNAME":"楠西區","LI":"楠西里","LIN":"6鄰","STREET":"中興路","SECT":" ","MAREA":" ","LANE":" ","ALLEY":" ","HOUSE_NO":"３５號之１","E_COORD97":197189.95000000001,"N_COORD97":2564233.2999999998,"ADDRESS":"中興路３５號之１","OBJECTID":524884},"geometry":{"x":197189.95000000112,"y":2564233.3000000045}},{"attributes":{"ID":524912,"DIS_CODE":0,"TOWNNAME":"楠西區","LI":"東勢里","LIN":"6鄰","STREET":"中正路","SECT":" ","MAREA":" ","LANE":" ","ALLEY":" ","HOUSE_NO":"１３３號","E_COORD97":197292.85999999999,"N_COORD97":2563973.25,"ADDRESS":"中正路１３３號","OBJECTID":524885},"geometry":{"x":197292.86000000127,"y":2563973.25}},{"attributes":{"ID":524913,"DIS_CODE":0,"TOWNNAME":"楠西區","LI":"楠西里","LIN":"6鄰","STREET":"中興路","SECT":" ","MAREA":" ","LANE":" ","ALLEY":" ","HOUSE_NO":"３７號之７","E_COORD97":197198.53,"N_COORD97":2564270.2999999998,"ADDRESS":"中興路３７號之７","OBJECTID":524886},"geometry":{"x":197198.53000000119,"y":2564270.3000000045}},{"attributes":{"ID":524914,"DIS_CODE":0,"TOWNNAME":"楠西區","LI":"楠西里","LIN":"6鄰","STREET":"中興路","SECT":" ","MAREA":" ","LANE":" ","ALLEY":" ","HOUSE_NO":"３１號","E_COORD97":197184.31,"N_COORD97":2564219.25,"ADDRESS":"中興路３１號","OBJECTID":524887},"geometry":{"x":197184.30999999959,"y":2564219.2500000037}},{"attributes":{"ID":524915,"DIS_CODE":0,"TOWNNAME":"楠西區","LI":"楠西里","LIN":"6鄰","STREET":"中興路","SECT":" ","MAREA":" ","LANE":" ","ALLEY":" ","HOUSE_NO":"３７號之８","E_COORD97":197199.39999999999,"N_COORD97":2564274.2999999998,"ADDRESS":"中興路３７號之８","OBJECTID":524888},"geometry":{"x":197199.4000000013,"y":2564274.3000000026}},{"attributes":{"ID":524916,"DIS_CODE":0,"TOWNNAME":"楠西區","LI":"楠西里","LIN":"6鄰","STREET":"中華路","SECT":" ","MAREA":" ","LANE":" ","ALLEY":" ","HOUSE_NO":"１２６號","E_COORD97":197131.45999999999,"N_COORD97":2564204.25,"ADDRESS":"中華路１２６號","OBJECTID":524889},"geometry":{"x":197131.45999999996,"y":2564204.25}},{"attributes":{"ID":524917,"DIS_CODE":0,"TOWNNAME":"楠西區","LI":"楠西里","LIN":"6鄰","STREET":"中興路","SECT":" ","MAREA":" ","LANE":" ","ALLEY":" ","HOUSE_NO":"３７號之４","E_COORD97":197196.17000000001,"N_COORD97":2564260.2999999998,"ADDRESS":"中興路３７號之４","OBJECTID":524890},"geometry":{"x":197196.16999999993,"y":2564260.3000000045}},{"attributes":{"ID":524918,"DIS_CODE":0,"TOWNNAME":"楠西區","LI":"東勢里","LIN":"6鄰","STREET":"中正路","SECT":" ","MAREA":" ","LANE":" ","ALLEY":" ","HOUSE_NO":"１６５號","E_COORD97":197344.85999999999,"N_COORD97":2563854.25,"ADDRESS":"中正路１６５號","OBJECTID":524891},"geometry":{"x":197344.8600000022,"y":2563854.2500000019}},{"attributes":{"ID":524919,"DIS_CODE":0,"TOWNNAME":"楠西區","LI":"東勢里","LIN":"6鄰","STREET":"中正路","SECT":" ","MAREA":" ","LANE":" ","ALLEY":" ","HOUSE_NO":"１６１號之２","E_COORD97":197330.53,"N_COORD97":2563919.2999999998,"ADDRESS":"中正路１６１號之２","OBJECTID":524892},"geometry":{"x":197330.53000000119,"y":2563919.3000000026}},{"attributes":{"ID":524920,"DIS_CODE":0,"TOWNNAME":"楠西區","LI":"楠西里","LIN":"6鄰","STREET":"中興路","SECT":" ","MAREA":" ","LANE":" ","ALLEY":" ","HOUSE_NO":"３７號","E_COORD97":197189.81,"N_COORD97":2564240.25,"ADDRESS":"中興路３７號","OBJECTID":524893},"geometry":{"x":197189.80999999959,"y":2564240.2500000019}},{"attributes":{"ID":524921,"DIS_CODE":0,"TOWNNAME":"柳營區","LI":"士林里","LIN":"6鄰","STREET":"士賢街","SECT":" ","MAREA":" ","LANE":" ","ALLEY":" ","HOUSE_NO":"１０號","E_COORD97":179479.01999999999,"N_COORD97":2575281.25,"ADDRESS":"士賢街１０號","OBJECTID":524894},"geometry":{"x":179479.02000000142,"y":2575281.25}},{"attributes":{"ID":524922,"DIS_CODE":0,"TOWNNAME":"柳營區","LI":"士林里","LIN":"6鄰","STREET":"士賢街","SECT":" ","MAREA":" ","LANE":" ","ALLEY":" ","HOUSE_NO":"１２號","E_COORD97":179473.81,"N_COORD97":2575280.2599999998,"ADDRESS":"士賢街１２號","OBJECTID":524895},"geometry":{"x":179473.81000000052,"y":2575280.2599999998}},{"attributes":{"ID":524923,"DIS_CODE":0,"TOWNNAME":"柳營區","LI":"士林里","LIN":"6鄰","STREET":"士賢街","SECT":" ","MAREA":" ","LANE":" ","ALLEY":" ","HOUSE_NO":"１６號","E_COORD97":179468.97,"N_COORD97":2575279.5800000001,"ADDRESS":"士賢街１６號","OBJECTID":524896},"geometry":{"x":179468.96999999974,"y":2575279.5800000038}},{"attributes":{"ID":524924,"DIS_CODE":0,"TOWNNAME":"柳營區","LI":"士林里","LIN":"6鄰","STREET":"士賢街","SECT":" ","MAREA":" ","LANE":" ","ALLEY":" ","HOUSE_NO":"１８號","E_COORD97":179460.60000000001,"N_COORD97":2575283.6200000001,"ADDRESS":"士賢街１８號","OBJECTID":524897},"geometry":{"x":179460.60000000056,"y":2575283.6199999992}},{"attributes":{"ID":524925,"DIS_CODE":0,"TOWNNAME":"柳營區","LI":"士林里","LIN":"6鄰","STREET":"士賢街","SECT":" ","MAREA":" ","LANE":" ","ALLEY":" ","HOUSE_NO":"２７號","E_COORD97":179453.45999999999,"N_COORD97":2575239.0499999998,"ADDRESS":"士賢街２７號","OBJECTID":524898},"geometry":{"x":179453.46000000089,"y":2575239.0500000007}},{"attributes":{"ID":524926,"DIS_CODE":0,"TOWNNAME":"柳營區","LI":"士林里","LIN":"6鄰","STREET":"士賢街","SECT":" ","MAREA":" ","LANE":" ","ALLEY":" ","HOUSE_NO":"３１號","E_COORD97":179424.87,"N_COORD97":2575231.4700000002,"ADDRESS":"士賢街３１號","OBJECTID":524899},"geometry":{"x":179424.87000000104,"y":2575231.4700000025}},{"attributes":{"ID":524927,"DIS_CODE":0,"TOWNNAME":"柳營區","LI":"士林里","LIN":"6鄰","STREET":"士賢街","SECT":" ","MAREA":" ","LANE":" ","ALLEY":" ","HOUSE_NO":"３８號","E_COORD97":179426.64000000001,"N_COORD97":2575277.3300000001,"ADDRESS":"士賢街３８號","OBJECTID":524900},"geometry":{"x":179426.63999999966,"y":2575277.3300000001}},{"attributes":{"ID":524928,"DIS_CODE":0,"TOWNNAME":"柳營區","LI":"士林里","LIN":"6鄰","STREET":"士賢街","SECT":" ","MAREA":" ","LANE":" ","ALLEY":" ","HOUSE_NO":"４０號","E_COORD97":179416.09,"N_COORD97":2575277.98,"ADDRESS":"士賢街４０號","OBJECTID":524901},"geometry":{"x":179416.09000000171,"y":2575277.9800000023}},{"attributes":{"ID":524929,"DIS_CODE":0,"TOWNNAME":"柳營區","LI":"士林里","LIN":"6鄰","STREET":"士賢街","SECT":" ","MAREA":" ","LANE":" ","ALLEY":" ","HOUSE_NO":"４２號","E_COORD97":179404.94,"N_COORD97":2575274.6000000001,"ADDRESS":"士賢街４２號","OBJECTID":524902},"geometry":{"x":179404.94000000041,"y":2575274.5999999996}},{"attributes":{"ID":524930,"DIS_CODE":0,"TOWNNAME":"柳營區","LI":"士林里","LIN":"6鄰","STREET":"士賢街","SECT":" ","MAREA":" ","LANE":" ","ALLEY":" ","HOUSE_NO":"４６號","E_COORD97":179386.63,"N_COORD97":2575269.0499999998,"ADDRESS":"士賢街４６號","OBJECTID":524903},"geometry":{"x":179386.62999999989,"y":2575269.0500000007}},{"attributes":{"ID":524931,"DIS_CODE":0,"TOWNNAME":"柳營區","LI":"士林里","LIN":"6鄰","STREET":"士賢街","SECT":" ","MAREA":" ","LANE":" ","ALLEY":" ","HOUSE_NO":"４８號","E_COORD97":179381.89000000001,"N_COORD97":2575268.0600000001,"ADDRESS":"士賢街４８號","OBJECTID":524904},"geometry":{"x":179381.8900000006,"y":2575268.0600000024}},{"attributes":{"ID":524932,"DIS_CODE":0,"TOWNNAME":"柳營區","LI":"士林里","LIN":"6鄰","STREET":"士賢街","SECT":" ","MAREA":" ","LANE":" ","ALLEY":" ","HOUSE_NO":"５０號","E_COORD97":179377.19,"N_COORD97":2575267.2599999998,"ADDRESS":"士賢街５０號","OBJECTID":524905},"geometry":{"x":179377.19000000134,"y":2575267.2599999998}},{"attributes":{"ID":524933,"DIS_CODE":0,"TOWNNAME":"柳營區","LI":"士林里","LIN":"6鄰","STREET":"士賢街","SECT":" ","MAREA":" ","LANE":" ","ALLEY":" ","HOUSE_NO":"５２號","E_COORD97":179372.20000000001,"N_COORD97":2575266.7999999998,"ADDRESS":"士賢街５２號","OBJECTID":524906},"geometry":{"x":179372.20000000112,"y":2575266.8000000026}},{"attributes":{"ID":524934,"DIS_CODE":0,"TOWNNAME":"柳營區","LI":"士林里","LIN":"6鄰","STREET":"士賢街","SECT":" ","MAREA":" ","LANE":" ","ALLEY":" ","HOUSE_NO":"８號","E_COORD97":179486.14000000001,"N_COORD97":2575281.7599999998,"ADDRESS":"士賢街８號","OBJECTID":524907},"geometry":{"x":179486.13999999966,"y":2575281.7600000035}},{"attributes":{"ID":524935,"DIS_CODE":0,"TOWNNAME":"新營區","LI":"永生里","LIN":"6鄰","STREET":"仁壽街","SECT":" ","MAREA":" ","LANE":" ","ALLEY":" ","HOUSE_NO":"１１號","E_COORD97":179975.62,"N_COORD97":2577993.6299999999,"ADDRESS":"仁壽街１１號","OBJECTID":524908},"geometry":{"x":179975.62000000197,"y":2577993.6299999971}},{"attributes":{"ID":524936,"DIS_CODE":0,"TOWNNAME":"新營區","LI":"大宏里","LIN":"6鄰","STREET":"同濟街","SECT":" ","MAREA":" ","LANE":" ","ALLEY":" ","HOUSE_NO":"１１６號","E_COORD97":180470.47,"N_COORD97":2578548.3599999999,"ADDRESS":"同濟街１１６號","OBJECTID":524909},"geometry":{"x":180470.46999999974,"y":2578548.3599999994}},{"attributes":{"ID":524937,"DIS_CODE":0,"TOWNNAME":"新營區","LI":"新北里","LIN":"6鄰","STREET":"三興街","SECT":" ","MAREA":" ","LANE":" ","ALLEY":" ","HOUSE_NO":"２０７號","E_COORD97":179286.23000000001,"N_COORD97":2579652.5499999998,"ADDRESS":"三興街２０７號","OBJECTID":524910},"geometry":{"x":179286.23000000045,"y":2579652.5500000007}},{"attributes":{"ID":524938,"DIS_CODE":0,"TOWNNAME":"新營區","LI":"三仙里","LIN":"6鄰","STREET":"復興路","SECT":" ","MAREA":" ","LANE":" ","ALLEY":" ","HOUSE_NO":"９６號","E_COORD97":179515.56,"N_COORD97":2578052.29,"ADDRESS":"復興路９６號","OBJECTID":524911},"geometry":{"x":179515.55999999959,"y":2578052.2899999991}},{"attributes":{"ID":524939,"DIS_CODE":0,"TOWNNAME":"新營區","LI":"好平里","LIN":"6鄰","STREET":"長春街","SECT":" ","MAREA":" ","LANE":" ","ALLEY":" ","HOUSE_NO":"１４３號","E_COORD97":179443.04000000001,"N_COORD97":2577804.5800000001,"ADDRESS":"長春街１４３號","OBJECTID":524912},"geometry":{"x":179443.04000000004,"y":2577804.5800000001}},{"attributes":{"ID":524940,"DIS_CODE":0,"TOWNNAME":"新營區","LI":"好平里","LIN":"6鄰","STREET":"和平路","SECT":" ","MAREA":" ","LANE":" ","ALLEY":" ","HOUSE_NO":"５３之１號","E_COORD97":179422.72,"N_COORD97":2577781.4700000002,"ADDRESS":"和平路５３之１號","OBJECTID":524913},"geometry":{"x":179422.71999999974,"y":2577781.4700000007}},{"attributes":{"ID":524941,"DIS_CODE":0,"TOWNNAME":"新營區","LI":"永生里","LIN":"6鄰","STREET":"仁壽街","SECT":" ","MAREA":" ","LANE":" ","ALLEY":" ","HOUSE_NO":"１７號","E_COORD97":179993.92999999999,"N_COORD97":2577971.3999999999,"ADDRESS":"仁壽街１７號","OBJECTID":524914},"geometry":{"x":179993.93000000063,"y":2577971.4000000022}},{"attributes":{"ID":524942,"DIS_CODE":0,"TOWNNAME":"新營區","LI":"中營里","LIN":"6鄰","STREET":"新進路","SECT":" ","MAREA":" ","LANE":" ","ALLEY":" ","HOUSE_NO":"３５號","E_COORD97":180641,"N_COORD97":2578299.48,"ADDRESS":"新進路３５號","OBJECTID":524915},"geometry":{"x":180641.00000000093,"y":2578299.4800000023}},{"attributes":{"ID":524943,"DIS_CODE":0,"TOWNNAME":"新營區","LI":"王公里","LIN":"6鄰","STREET":"民治路","SECT":" ","MAREA":" ","LANE":" ","ALLEY":" ","HOUSE_NO":"１６之１號","E_COORD97":180385.38,"N_COORD97":2578896.5499999998,"ADDRESS":"民治路１６之１號","OBJECTID":524916},"geometry":{"x":180385.37999999896,"y":2578896.5500000007}},{"attributes":{"ID":524944,"DIS_CODE":0,"TOWNNAME":"新營區","LI":"王公里","LIN":"6鄰","STREET":"民治路","SECT":" ","MAREA":" ","LANE":" ","ALLEY":" ","HOUSE_NO":"１６號","E_COORD97":180385.95000000001,"N_COORD97":2578896.48,"ADDRESS":"民治路１６號","OBJECTID":524917},"geometry":{"x":180385.95000000112,"y":2578896.4800000023}},{"attributes":{"ID":524945,"DIS_CODE":0,"TOWNNAME":"新營區","LI":"中營里","LIN":"6鄰","STREET":"新進路","SECT":" ","MAREA":" ","LANE":" ","ALLEY":" ","HOUSE_NO":"６９之５號","E_COORD97":180545.67999999999,"N_COORD97":2578178.1699999999,"ADDRESS":"新進路６９之５號","OBJECTID":524918},"geometry":{"x":180545.6799999997,"y":2578178.1700000018}},{"attributes":{"ID":524946,"DIS_CODE":0,"TOWNNAME":"新營區","LI":"民榮里","LIN":"6鄰","STREET":"和平路","SECT":" ","MAREA":" ","LANE":" ","ALLEY":" ","HOUSE_NO":"２８號","E_COORD97":179403.19,"N_COORD97":2577846.8399999999,"ADDRESS":"和平路２８號","OBJECTID":524919},"geometry":{"x":179403.19000000134,"y":2577846.8399999999}},{"attributes":{"ID":524947,"DIS_CODE":0,"TOWNNAME":"新營區","LI":"三仙里","LIN":"6鄰","STREET":"博愛街","SECT":" ","MAREA":" ","LANE":" ","ALLEY":" ","HOUSE_NO":"１７７號","E_COORD97":179527.32000000001,"N_COORD97":2578104.2999999998,"ADDRESS":"博愛街１７７號","OBJECTID":524920},"geometry":{"x":179527.32000000123,"y":2578104.3000000026}},{"attributes":{"ID":524948,"DIS_CODE":0,"TOWNNAME":"新營區","LI":"新北里","LIN":"6鄰","STREET":"三興街","SECT":" ","MAREA":" ","LANE":" ","ALLEY":" ","HOUSE_NO":"１９３號","E_COORD97":179361.54999999999,"N_COORD97":2579591.29,"ADDRESS":"三興街１９３號","OBJECTID":524921},"geometry":{"x":179361.54999999981,"y":2579591.290000001}},{"attributes":{"ID":524949,"DIS_CODE":0,"TOWNNAME":"新營區","LI":"民榮里","LIN":"6鄰","STREET":"濟安街","SECT":" ","MAREA":" ","LANE":" ","ALLEY":" ","HOUSE_NO":"２９號","E_COORD97":179373.92999999999,"N_COORD97":2577930.04,"ADDRESS":"濟安街２９號","OBJECTID":524922},"geometry":{"x":179373.9299999997,"y":2577930.0399999972}},{"attributes":{"ID":524950,"DIS_CODE":0,"TOWNNAME":"新營區","LI":"民權里","LIN":"6鄰","STREET":"博愛街","SECT":" ","MAREA":" ","LANE":" ","ALLEY":" ","HOUSE_NO":"４９號","E_COORD97":179902.75,"N_COORD97":2578141.27,"ADDRESS":"博愛街４９號","OBJECTID":524923},"geometry":{"x":179902.75,"y":2578141.2699999996}},{"attributes":{"ID":524951,"DIS_CODE":0,"TOWNNAME":"新營區","LI":"三仙里","LIN":"6鄰","STREET":"博愛街","SECT":" ","MAREA":" ","LANE":" ","ALLEY":" ","HOUSE_NO":"１６１號","E_COORD97":179562.04999999999,"N_COORD97":2578091.9399999999,"ADDRESS":"博愛街１６１號","OBJECTID":524924},"geometry":{"x":179562.05000000168,"y":2578091.9400000013}},{"attributes":{"ID":524952,"DIS_CODE":0,"TOWNNAME":"新營區","LI":"民榮里","LIN":"6鄰","STREET":"和平路","SECT":" ","MAREA":" ","LANE":" ","ALLEY":" ","HOUSE_NO":"２４號","E_COORD97":179401.32999999999,"N_COORD97":2577884.5,"ADDRESS":"和平路２４號","OBJECTID":524925},"geometry":{"x":179401.33000000101,"y":2577884.5000000019}},{"attributes":{"ID":524953,"DIS_CODE":0,"TOWNNAME":"新營區","LI":"民生里","LIN":"6鄰","STREET":"民生路","SECT":" ","MAREA":" ","LANE":" ","ALLEY":" ","HOUSE_NO":"２６之１號","E_COORD97":179383.01999999999,"N_COORD97":2578239.04,"ADDRESS":"民生路２６之１號","OBJECTID":524926},"geometry":{"x":179383.02000000048,"y":2578239.040000001}},{"attributes":{"ID":524954,"DIS_CODE":0,"TOWNNAME":"新營區","LI":"三仙里","LIN":"6鄰","STREET":"復興路","SECT":" ","MAREA":" ","LANE":" ","ALLEY":" ","HOUSE_NO":"７２之１號","E_COORD97":179560.06,"N_COORD97":2578051.04,"ADDRESS":"復興路７２之１號","OBJECTID":524927},"geometry":{"x":179560.06000000145,"y":2578051.0399999991}},{"attributes":{"ID":524955,"DIS_CODE":0,"TOWNNAME":"新營區","LI":"永生里","LIN":"6鄰","STREET":"光明街","SECT":" ","MAREA":" ","LANE":" ","ALLEY":" ","HOUSE_NO":"２２號","E_COORD97":180024.73999999999,"N_COORD97":2577984.54,"ADDRESS":"光明街２２號","OBJECTID":524928},"geometry":{"x":180024.74000000115,"y":2577984.5400000028}},{"attributes":{"ID":524956,"DIS_CODE":0,"TOWNNAME":"新營區","LI":"民權里","LIN":"6鄰","STREET":"中山路","SECT":" ","MAREA":" ","LANE":" ","ALLEY":" ","HOUSE_NO":"２２２號","E_COORD97":179939.35000000001,"N_COORD97":2578048.0800000001,"ADDRESS":"中山路２２２號","OBJECTID":524929},"geometry":{"x":179939.34999999963,"y":2578048.0800000001}},{"attributes":{"ID":524957,"DIS_CODE":0,"TOWNNAME":"新營區","LI":"民生里","LIN":"6鄰","STREET":"民生路","SECT":" ","MAREA":" ","LANE":" ","ALLEY":" ","HOUSE_NO":"２２之３號","E_COORD97":179374.76000000001,"N_COORD97":2578224.6899999999,"ADDRESS":"民生路２２之３號","OBJECTID":524930},"geometry":{"x":179374.76000000071,"y":2578224.6900000032}},{"attributes":{"ID":524958,"DIS_CODE":0,"TOWNNAME":"新營區","LI":"王公里","LIN":"6鄰","STREET":"民治路","SECT":" ","MAREA":" ","LANE":" ","ALLEY":" ","HOUSE_NO":"６之１８號","E_COORD97":180555.45000000001,"N_COORD97":2578953.3399999999,"ADDRESS":"民治路６之１８號","OBJECTID":524931},"geometry":{"x":180555.45000000112,"y":2578953.3400000017}},{"attributes":{"ID":524959,"DIS_CODE":0,"TOWNNAME":"新營區","LI":"延平里","LIN":"6鄰","STREET":"復興路","SECT":" ","MAREA":" ","LANE":" ","ALLEY":" ","HOUSE_NO":"１之１２３號","E_COORD97":179715.17999999999,"N_COORD97":2577935.1299999999,"ADDRESS":"復興路１之１２３號","OBJECTID":524932},"geometry":{"x":179715.1799999997,"y":2577935.129999999}},{"attributes":{"ID":524960,"DIS_CODE":0,"TOWNNAME":"新營區","LI":"永生里","LIN":"6鄰","STREET":"光明街","SECT":" ","MAREA":" ","LANE":" ","ALLEY":" ","HOUSE_NO":"１８號","E_COORD97":180010.45000000001,"N_COORD97":2578005.6499999999,"ADDRESS":"光明街１８號","OBJECTID":524933},"geometry":{"x":180010.45000000019,"y":2578005.6500000041}},{"attributes":{"ID":524961,"DIS_CODE":0,"TOWNNAME":"新營區","LI":"南紙里","LIN":"6鄰","STREET":"南紙街","SECT":" ","MAREA":" ","LANE":" ","ALLEY":" ","HOUSE_NO":"１４９號","E_COORD97":177877.76000000001,"N_COORD97":2577338.1200000001,"ADDRESS":"南紙街１４９號","OBJECTID":524934},"geometry":{"x":177877.76000000071,"y":2577338.120000001}},{"attributes":{"ID":524962,"DIS_CODE":0,"TOWNNAME":"新營區","LI":"王公里","LIN":"6鄰","STREET":"民治路","SECT":" ","MAREA":" ","LANE":" ","ALLEY":" ","HOUSE_NO":"６之２４號","E_COORD97":180568.89999999999,"N_COORD97":2578986.5,"ADDRESS":"民治路６之２４號","OBJECTID":524935},"geometry":{"x":180568.90000000224,"y":2578986.5000000019}},{"attributes":{"ID":524963,"DIS_CODE":0,"TOWNNAME":"新營區","LI":"三仙里","LIN":"6鄰","STREET":"博愛街","SECT":" ","MAREA":" ","LANE":" ","ALLEY":" ","HOUSE_NO":"１６７號","E_COORD97":179559.07000000001,"N_COORD97":2578111.8999999999,"ADDRESS":"博愛街１６７號","OBJECTID":524936},"geometry":{"x":179559.07000000216,"y":2578111.9000000004}},{"attributes":{"ID":524964,"DIS_CODE":0,"TOWNNAME":"新營區","LI":"民生里","LIN":"6鄰","STREET":"民生路","SECT":" ","MAREA":" ","LANE":" ","ALLEY":" ","HOUSE_NO":"２６之２號","E_COORD97":179386.07000000001,"N_COORD97":2578235.71,"ADDRESS":"民生路２６之２號","OBJECTID":524937},"geometry":{"x":179386.07000000216,"y":2578235.7100000009}},{"attributes":{"ID":524965,"DIS_CODE":0,"TOWNNAME":"安平區","LI":"億載里","LIN":"6鄰","STREET":"永華路","SECT":"二段","MAREA":" ","LANE":" ","ALLEY":" ","HOUSE_NO":"１１１８號","E_COORD97":164278.57999999999,"N_COORD97":2543644.7599999998,"ADDRESS":"永華路二段１１１８號","OBJECTID":524938},"geometry":{"x":164278.58000000101,"y":2543644.7599999998}},{"attributes":{"ID":524966,"DIS_CODE":0,"TOWNNAME":"安平區","LI":"億載里","LIN":"6鄰","STREET":"光州七街","SECT":" ","MAREA":" ","LANE":" ","ALLEY":" ","HOUSE_NO":"４５號","E_COORD97":164156.44,"N_COORD97":2543741.4300000002,"ADDRESS":"光州七街４５號","OBJECTID":524939},"geometry":{"x":164156.44000000134,"y":2543741.4299999997}},{"attributes":{"ID":524967,"DIS_CODE":0,"TOWNNAME":"安平區","LI":"億載里","LIN":"6鄰","STREET":"光州七街","SECT":" ","MAREA":" ","LANE":" ","ALLEY":" ","HOUSE_NO":"４７號","E_COORD97":164149.67000000001,"N_COORD97":2543743.1200000001,"ADDRESS":"光州七街４７號","OBJECTID":524940},"geometry":{"x":164149.66999999993,"y":2543743.1200000048}},{"attributes":{"ID":524968,"DIS_CODE":0,"TOWNNAME":"安平區","LI":"億載里","LIN":"6鄰","STREET":"光州七街","SECT":" ","MAREA":" ","LANE":" ","ALLEY":" ","HOUSE_NO":"４９號","E_COORD97":164144.59,"N_COORD97":2543742.2799999998,"ADDRESS":"光州七街４９號","OBJECTID":524941},"geometry":{"x":164144.59000000078,"y":2543742.2799999993}},{"attributes":{"ID":524969,"DIS_CODE":0,"TOWNNAME":"安平區","LI":"億載里","LIN":"6鄰","STREET":"光州七街","SECT":" ","MAREA":" ","LANE":" ","ALLEY":" ","HOUSE_NO":"５９號","E_COORD97":164118.35999999999,"N_COORD97":2543738.0499999998,"ADDRESS":"光州七街５９號","OBJECTID":524942},"geometry":{"x":164118.36000000034,"y":2543738.0500000026}},{"attributes":{"ID":524970,"DIS_CODE":0,"TOWNNAME":"安平區","LI":"億載里","LIN":"6鄰","STREET":"光州七街","SECT":" ","MAREA":" ","LANE":" ","ALLEY":" ","HOUSE_NO":"６１號","E_COORD97":164114.69,"N_COORD97":2543737.77,"ADDRESS":"光州七街６１號","OBJECTID":524943},"geometry":{"x":164114.69000000041,"y":2543737.7700000014}},{"attributes":{"ID":524971,"DIS_CODE":0,"TOWNNAME":"安平區","LI":"億載里","LIN":"6鄰","STREET":"光州七街","SECT":" ","MAREA":" ","LANE":" ","ALLEY":" ","HOUSE_NO":"６３號","E_COORD97":164110.45999999999,"N_COORD97":2543738.0499999998,"ADDRESS":"光州七街６３號","OBJECTID":524944},"geometry":{"x":164110.45999999996,"y":2543738.0500000026}},{"attributes":{"ID":524972,"DIS_CODE":0,"TOWNNAME":"中西區","LI":"三合里","LIN":"1鄰","STREET":"康樂街","SECT":" ","MAREA":" ","LANE":" ","ALLEY":" ","HOUSE_NO":"２６６號","E_COORD97":167668.35999999999,"N_COORD97":2544384.7200000002,"ADDRESS":"康樂街２６６號","OBJECTID":524945},"geometry":{"x":167668.36000000034,"y":2544384.7200000007}},{"attributes":{"ID":524973,"DIS_CODE":0,"TOWNNAME":"中西區","LI":"三合里","LIN":"1鄰","STREET":"康樂街","SECT":" ","MAREA":" ","LANE":" ","ALLEY":" ","HOUSE_NO":"２６８號","E_COORD97":167673.25,"N_COORD97":2544382.3799999999,"ADDRESS":"康樂街２６８號","OBJECTID":524946},"geometry":{"x":167673.25000000093,"y":2544382.379999999}},{"attributes":{"ID":524974,"DIS_CODE":0,"TOWNNAME":"中西區","LI":"三合里","LIN":"1鄰","STREET":"康樂街","SECT":" ","MAREA":" ","LANE":" ","ALLEY":" ","HOUSE_NO":"２７０號","E_COORD97":167676.66,"N_COORD97":2544394.5800000001,"ADDRESS":"康樂街２７０號","OBJECTID":524947},"geometry":{"x":167676.66000000201,"y":2544394.5800000019}},{"attributes":{"ID":524975,"DIS_CODE":0,"TOWNNAME":"中西區","LI":"三合里","LIN":"1鄰","STREET":"康樂街","SECT":" ","MAREA":" ","LANE":" ","ALLEY":" ","HOUSE_NO":"２７２號","E_COORD97":167664.70999999999,"N_COORD97":2544399.6800000002,"ADDRESS":"康樂街２７２號","OBJECTID":524948},"geometry":{"x":167664.71000000089,"y":2544399.6800000016}},{"attributes":{"ID":524976,"DIS_CODE":0,"TOWNNAME":"中西區","LI":"三合里","LIN":"1鄰","STREET":"康樂街","SECT":" ","MAREA":" ","LANE":" ","ALLEY":" ","HOUSE_NO":"２７４號","E_COORD97":167654.72,"N_COORD97":2544408.21,"ADDRESS":"康樂街２７４號","OBJECTID":524949},"geometry":{"x":167654.71999999974,"y":2544408.2100000028}},{"attributes":{"ID":524977,"DIS_CODE":0,"TOWNNAME":"中西區","LI":"三合里","LIN":"1鄰","STREET":"康樂街","SECT":" ","MAREA":" ","LANE":" ","ALLEY":" ","HOUSE_NO":"２７６號","E_COORD97":167656.45000000001,"N_COORD97":2544413.5,"ADDRESS":"康樂街２７６號","OBJECTID":524950},"geometry":{"x":167656.45000000112,"y":2544413.5}},{"attributes":{"ID":524978,"DIS_CODE":0,"TOWNNAME":"中西區","LI":"三合里","LIN":"1鄰","STREET":"康樂街","SECT":" ","MAREA":" ","LANE":" ","ALLEY":" ","HOUSE_NO":"２７８號","E_COORD97":167656.89999999999,"N_COORD97":2544417.77,"ADDRESS":"康樂街２７８號","OBJECTID":524951},"geometry":{"x":167656.9000000013,"y":2544417.7699999996}},{"attributes":{"ID":524979,"DIS_CODE":0,"TOWNNAME":"中西區","LI":"三合里","LIN":"1鄰","STREET":"民族路","SECT":"三段","MAREA":" ","LANE":" ","ALLEY":" ","HOUSE_NO":"１０６號","E_COORD97":167693.45000000001,"N_COORD97":2544349.1099999999,"ADDRESS":"民族路三段１０６號","OBJECTID":524952},"geometry":{"x":167693.45000000205,"y":2544349.1100000013}},{"attributes":{"ID":524980,"DIS_CODE":0,"TOWNNAME":"中西區","LI":"三合里","LIN":"1鄰","STREET":"民族路","SECT":"三段","MAREA":" ","LANE":" ","ALLEY":" ","HOUSE_NO":"１０８號","E_COORD97":167690.51999999999,"N_COORD97":2544351.2599999998,"ADDRESS":"民族路三段１０８號","OBJECTID":524953},"geometry":{"x":167690.52000000142,"y":2544351.2600000035}},{"attributes":{"ID":524981,"DIS_CODE":0,"TOWNNAME":"中西區","LI":"三合里","LIN":"1鄰","STREET":"民族路","SECT":"三段","MAREA":" ","LANE":" ","ALLEY":" ","HOUSE_NO":"１１２號","E_COORD97":167684.06,"N_COORD97":2544357.1299999999,"ADDRESS":"民族路三段１１２號","OBJECTID":524954},"geometry":{"x":167684.06000000052,"y":2544357.129999999}},{"attributes":{"ID":524982,"DIS_CODE":0,"TOWNNAME":"中西區","LI":"三合里","LIN":"1鄰","STREET":"民族路","SECT":"三段","MAREA":" ","LANE":" ","ALLEY":" ","HOUSE_NO":"１１４號","E_COORD97":167674.48000000001,"N_COORD97":2544357.71,"ADDRESS":"民族路三段１１４號","OBJECTID":524955},"geometry":{"x":167674.48000000045,"y":2544357.7100000028}},{"attributes":{"ID":524983,"DIS_CODE":0,"TOWNNAME":"中西區","LI":"三合里","LIN":"1鄰","STREET":"民族路","SECT":"三段","MAREA":" ","LANE":" ","ALLEY":" ","HOUSE_NO":"１１６號","E_COORD97":167669.98000000001,"N_COORD97":2544360.6400000001,"ADDRESS":"民族路三段１１６號","OBJECTID":524956},"geometry":{"x":167669.98000000138,"y":2544360.6400000025}},{"attributes":{"ID":524984,"DIS_CODE":0,"TOWNNAME":"中西區","LI":"三合里","LIN":"1鄰","STREET":"民族路","SECT":"三段","MAREA":" ","LANE":" ","ALLEY":" ","HOUSE_NO":"１１８號","E_COORD97":167663.67000000001,"N_COORD97":2544360.2999999998,"ADDRESS":"民族路三段１１８號","OBJECTID":524957},"geometry":{"x":167663.67000000086,"y":2544360.3000000026}},{"attributes":{"ID":524985,"DIS_CODE":0,"TOWNNAME":"中西區","LI":"三合里","LIN":"1鄰","STREET":"民族路","SECT":"三段","MAREA":" ","LANE":" ","ALLEY":" ","HOUSE_NO":"１２０號","E_COORD97":167660.73000000001,"N_COORD97":2544363.0299999998,"ADDRESS":"民族路三段１２０號","OBJECTID":524958},"geometry":{"x":167660.73000000045,"y":2544363.0300000012}},{"attributes":{"ID":524986,"DIS_CODE":0,"TOWNNAME":"中西區","LI":"三合里","LIN":"1鄰","STREET":"民族路","SECT":"三段","MAREA":" ","LANE":" ","ALLEY":" ","HOUSE_NO":"１２２號","E_COORD97":167655.64999999999,"N_COORD97":2544364.79,"ADDRESS":"民族路三段１２２號","OBJECTID":524959},"geometry":{"x":167655.6500000013,"y":2544364.790000001}},{"attributes":{"ID":524987,"DIS_CODE":0,"TOWNNAME":"中西區","LI":"三合里","LIN":"1鄰","STREET":"民族路","SECT":"三段","MAREA":" ","LANE":" ","ALLEY":" ","HOUSE_NO":"１２４號","E_COORD97":167651.54000000001,"N_COORD97":2544366.75,"ADDRESS":"民族路三段１２４號","OBJECTID":524960},"geometry":{"x":167651.54000000004,"y":2544366.75}},{"attributes":{"ID":524988,"DIS_CODE":0,"TOWNNAME":"安平區","LI":"億載里","LIN":"6鄰","STREET":"光州七街","SECT":" ","MAREA":" ","LANE":" ","ALLEY":" ","HOUSE_NO":"６５號","E_COORD97":164106.79000000001,"N_COORD97":2543738.3300000001,"ADDRESS":"光州七街６５號","OBJECTID":524961},"geometry":{"x":164106.79000000004,"y":2543738.3300000019}},{"attributes":{"ID":524989,"DIS_CODE":0,"TOWNNAME":"學甲區","LI":"新達里","LIN":"6鄰","STREET":"法源路","SECT":" ","MAREA":" ","LANE":" ","ALLEY":" ","HOUSE_NO":"２７號","E_COORD97":166463.01999999999,"N_COORD97":2570644.9900000002,"ADDRESS":"法源路２７號","OBJECTID":524962},"geometry":{"x":166463.01999999955,"y":2570644.9900000002}},{"attributes":{"ID":524990,"DIS_CODE":0,"TOWNNAME":"南區","LI":"省躬里","LIN":"6鄰","STREET":"省躬一街","SECT":" ","MAREA":" ","LANE":" ","ALLEY":" ","HOUSE_NO":"２１號","E_COORD97":165849.85999999999,"N_COORD97":2536916.1000000001,"ADDRESS":"省躬一街２１號","OBJECTID":524963},"geometry":{"x":165849.8600000022,"y":2536916.0999999996}},{"attributes":{"ID":524991,"DIS_CODE":0,"TOWNNAME":"南區","LI":"省躬里","LIN":"6鄰","STREET":"省躬一街","SECT":" ","MAREA":" ","LANE":" ","ALLEY":" ","HOUSE_NO":"２３號","E_COORD97":165850.76999999999,"N_COORD97":2536911.2599999998,"ADDRESS":"省躬一街２３號","OBJECTID":524964},"geometry":{"x":165850.76999999955,"y":2536911.2599999998}},{"attributes":{"ID":524992,"DIS_CODE":0,"TOWNNAME":"南區","LI":"省躬里","LIN":"6鄰","STREET":"省躬一街","SECT":" ","MAREA":" ","LANE":" ","ALLEY":" ","HOUSE_NO":"２５號","E_COORD97":165851.67999999999,"N_COORD97":2536905.7999999998,"ADDRESS":"省躬一街２５號","OBJECTID":524965},"geometry":{"x":165851.6799999997,"y":2536905.8000000007}},{"attributes":{"ID":524993,"DIS_CODE":0,"TOWNNAME":"南區","LI":"省躬里","LIN":"6鄰","STREET":"省躬一街","SECT":" ","MAREA":" ","LANE":" ","ALLEY":" ","HOUSE_NO":"２７號","E_COORD97":165851.67999999999,"N_COORD97":2536901.8700000001,"ADDRESS":"省躬一街２７號","OBJECTID":524966},"geometry":{"x":165851.6799999997,"y":2536901.870000001}},{"attributes":{"ID":524994,"DIS_CODE":0,"TOWNNAME":"南區","LI":"省躬里","LIN":"6鄰","STREET":"灣裡路","SECT":" ","MAREA":" ","LANE":" ","ALLEY":" ","HOUSE_NO":"６４號","E_COORD97":165910.91,"N_COORD97":2537133.3999999999,"ADDRESS":"灣裡路６４號","OBJECTID":524967},"geometry":{"x":165910.91000000108,"y":2537133.4000000022}},{"attributes":{"ID":524995,"DIS_CODE":0,"TOWNNAME":"南區","LI":"省躬里","LIN":"6鄰","STREET":"灣裡路","SECT":" ","MAREA":" ","LANE":" ","ALLEY":" ","HOUSE_NO":"６６號","E_COORD97":165910.48999999999,"N_COORD97":2537106.8100000001,"ADDRESS":"灣裡路６６號","OBJECTID":524968},"geometry":{"x":165910.49000000115,"y":2537106.8100000024}},{"attributes":{"ID":524996,"DIS_CODE":0,"TOWNNAME":"南區","LI":"省躬里","LIN":"6鄰","STREET":"灣裡路","SECT":" ","MAREA":" ","LANE":" ","ALLEY":" ","HOUSE_NO":"７０號","E_COORD97":165931.32000000001,"N_COORD97":2537042.7200000002,"ADDRESS":"灣裡路７０號","OBJECTID":524969},"geometry":{"x":165931.31999999937,"y":2537042.7200000044}},{"attributes":{"ID":524997,"DIS_CODE":0,"TOWNNAME":"南區","LI":"省躬里","LIN":"6鄰","STREET":"灣裡路","SECT":" ","MAREA":" ","LANE":" ","ALLEY":" ","HOUSE_NO":"７４號","E_COORD97":165948.53,"N_COORD97":2536963.0800000001,"ADDRESS":"灣裡路７４號","OBJECTID":524970},"geometry":{"x":165948.52999999933,"y":2536963.0800000019}},{"attributes":{"ID":524998,"DIS_CODE":0,"TOWNNAME":"南區","LI":"省躬里","LIN":"6鄰","STREET":"灣裡路","SECT":" ","MAREA":" ","LANE":" ","ALLEY":" ","HOUSE_NO":"７４號之１","E_COORD97":165943.76000000001,"N_COORD97":2536968.8500000001,"ADDRESS":"灣裡路７４號之１","OBJECTID":524971},"geometry":{"x":165943.76000000071,"y":2536968.8499999996}},{"attributes":{"ID":524999,"DIS_CODE":0,"TOWNNAME":"南區","LI":"省躬里","LIN":"6鄰","STREET":"灣裡路","SECT":" ","MAREA":" ","LANE":" ","ALLEY":" ","HOUSE_NO":"７６號","E_COORD97":165951.79999999999,"N_COORD97":2536958.5699999998,"ADDRESS":"灣裡路７６號","OBJECTID":524972},"geometry":{"x":165951.80000000075,"y":2536958.570000004}},{"attributes":{"ID":525000,"DIS_CODE":0,"TOWNNAME":"南區","LI":"省躬里","LIN":"6鄰","STREET":"灣裡路","SECT":" ","MAREA":" ","LANE":" ","ALLEY":" ","HOUSE_NO":"７８號","E_COORD97":165957.07000000001,"N_COORD97":2536950.5499999998,"ADDRESS":"灣裡路７８號","OBJECTID":524973},"geometry":{"x":165957.07000000123,"y":2536950.5500000026}},{"attributes":{"ID":525001,"DIS_CODE":0,"TOWNNAME":"南區","LI":"省躬里","LIN":"6鄰","STREET":"灣裡路","SECT":" ","MAREA":" ","LANE":" ","ALLEY":" ","HOUSE_NO":"８０號","E_COORD97":165956.06,"N_COORD97":2536942.5299999998,"ADDRESS":"灣裡路８０號","OBJECTID":524974},"geometry":{"x":165956.05999999866,"y":2536942.5299999993}},{"attributes":{"ID":525002,"DIS_CODE":0,"TOWNNAME":"南區","LI":"省躬里","LIN":"6鄰","STREET":"灣裡路","SECT":" ","MAREA":" ","LANE":" ","ALLEY":" ","HOUSE_NO":"８２號","E_COORD97":165955.56,"N_COORD97":2536931.7599999998,"ADDRESS":"灣裡路８２號","OBJECTID":524975},"geometry":{"x":165955.55999999959,"y":2536931.7599999998}},{"attributes":{"ID":525003,"DIS_CODE":0,"TOWNNAME":"南區","LI":"省躬里","LIN":"6鄰","STREET":"灣裡路","SECT":" ","MAREA":" ","LANE":" ","ALLEY":" ","HOUSE_NO":"８４號","E_COORD97":165967.85999999999,"N_COORD97":2536924.9900000002,"ADDRESS":"灣裡路８４號","OBJECTID":524976},"geometry":{"x":165967.86000000034,"y":2536924.9900000039}},{"attributes":{"ID":525004,"DIS_CODE":0,"TOWNNAME":"南區","LI":"省躬里","LIN":"6鄰","STREET":"灣裡路","SECT":" ","MAREA":" ","LANE":" ","ALLEY":" ","HOUSE_NO":"８６號","E_COORD97":165959.07000000001,"N_COORD97":2536905.5099999998,"ADDRESS":"灣裡路８６號","OBJECTID":524977},"geometry":{"x":165959.07000000123,"y":2536905.5100000016}},{"attributes":{"ID":525005,"DIS_CODE":0,"TOWNNAME":"中西區","LI":"中正里","LIN":"8鄰","STREET":"中正路","SECT":" ","MAREA":" ","LANE":" ","ALLEY":" ","HOUSE_NO":"２２０號","E_COORD97":167709.72,"N_COORD97":2543752.5499999998,"ADDRESS":"中正路２２０號","OBJECTID":524978},"geometry":{"x":167709.7200000016,"y":2543752.5500000007}},{"attributes":{"ID":525006,"DIS_CODE":0,"TOWNNAME":"中西區","LI":"中正里","LIN":"8鄰","STREET":"中正路","SECT":" ","MAREA":" ","LANE":" ","ALLEY":" ","HOUSE_NO":"２２２號","E_COORD97":167699.45000000001,"N_COORD97":2543756.2400000002,"ADDRESS":"中正路２２２號","OBJECTID":524979},"geometry":{"x":167699.45000000019,"y":2543756.2400000021}},{"attributes":{"ID":525007,"DIS_CODE":0,"TOWNNAME":"學甲區","LI":"新榮里","LIN":"6鄰","STREET":"華宗路","SECT":" ","MAREA":" ","LANE":" ","ALLEY":" ","HOUSE_NO":"１號之３","E_COORD97":166230.57999999999,"N_COORD97":2568820.25,"ADDRESS":"華宗路１號之３","OBJECTID":524980},"geometry":{"x":166230.58000000007,"y":2568820.2500000019}},{"attributes":{"ID":525008,"DIS_CODE":0,"TOWNNAME":"學甲區","LI":"新榮里","LIN":"6鄰","STREET":"華宗路","SECT":" ","MAREA":" ","LANE":" ","ALLEY":" ","HOUSE_NO":"２００號","E_COORD97":166463.48999999999,"N_COORD97":2569496.7999999998,"ADDRESS":"華宗路２００號","OBJECTID":524981},"geometry":{"x":166463.49000000022,"y":2569496.8000000007}},{"attributes":{"ID":525009,"DIS_CODE":0,"TOWNNAME":"學甲區","LI":"新榮里","LIN":"6鄰","STREET":"華宗路","SECT":" ","MAREA":" ","LANE":" ","ALLEY":" ","HOUSE_NO":"２０２號之１０","E_COORD97":166523.26000000001,"N_COORD97":2569489.48,"ADDRESS":"華宗路２０２號之１０","OBJECTID":524982},"geometry":{"x":166523.26000000071,"y":2569489.4800000004}},{"attributes":{"ID":525010,"DIS_CODE":0,"TOWNNAME":"學甲區","LI":"新榮里","LIN":"6鄰","STREET":"華宗路","SECT":" ","MAREA":" ","LANE":" ","ALLEY":" ","HOUSE_NO":"２０２號之１１","E_COORD97":166529.34,"N_COORD97":2569489.6600000001,"ADDRESS":"華宗路２０２號之１１","OBJECTID":524983},"geometry":{"x":166529.34000000171,"y":2569489.660000002}},{"attributes":{"ID":525011,"DIS_CODE":0,"TOWNNAME":"學甲區","LI":"新榮里","LIN":"6鄰","STREET":"華宗路","SECT":" ","MAREA":" ","LANE":" ","ALLEY":" ","HOUSE_NO":"２０２號之１２","E_COORD97":166535.25,"N_COORD97":2569488.46,"ADDRESS":"華宗路２０２號之１２","OBJECTID":524984},"geometry":{"x":166535.25000000093,"y":2569488.4600000028}},{"attributes":{"ID":525012,"DIS_CODE":0,"TOWNNAME":"學甲區","LI":"新榮里","LIN":"6鄰","STREET":"華宗路","SECT":" ","MAREA":" ","LANE":" ","ALLEY":" ","HOUSE_NO":"２０２號之１３","E_COORD97":166541.20000000001,"N_COORD97":2569488.4300000002,"ADDRESS":"華宗路２０２號之１３","OBJECTID":524985},"geometry":{"x":166541.20000000112,"y":2569488.4299999997}},{"attributes":{"ID":525013,"DIS_CODE":0,"TOWNNAME":"學甲區","LI":"新榮里","LIN":"6鄰","STREET":"華宗路","SECT":" ","MAREA":" ","LANE":" ","ALLEY":" ","HOUSE_NO":"２０２號之１４","E_COORD97":166549.20000000001,"N_COORD97":2569488.3500000001,"ADDRESS":"華宗路２０２號之１４","OBJECTID":524986},"geometry":{"x":166549.20000000205,"y":2569488.3499999996}},{"attributes":{"ID":525014,"DIS_CODE":0,"TOWNNAME":"學甲區","LI":"新榮里","LIN":"6鄰","STREET":"華宗路","SECT":" ","MAREA":" ","LANE":" ","ALLEY":" ","HOUSE_NO":"２０２號之１５","E_COORD97":166469.14999999999,"N_COORD97":2569452.1299999999,"ADDRESS":"華宗路２０２號之１５","OBJECTID":524987},"geometry":{"x":166469.1500000013,"y":2569452.129999999}},{"attributes":{"ID":525015,"DIS_CODE":0,"TOWNNAME":"學甲區","LI":"新榮里","LIN":"6鄰","STREET":"華宗路","SECT":" ","MAREA":" ","LANE":" ","ALLEY":" ","HOUSE_NO":"２０２號之１６","E_COORD97":166479.42000000001,"N_COORD97":2569465.3700000001,"ADDRESS":"華宗路２０２號之１６","OBJECTID":524988},"geometry":{"x":166479.41999999993,"y":2569465.3700000029}},{"attributes":{"ID":525016,"DIS_CODE":0,"TOWNNAME":"學甲區","LI":"新榮里","LIN":"6鄰","STREET":"華宗路","SECT":" ","MAREA":" ","LANE":" ","ALLEY":" ","HOUSE_NO":"２０２號之１７","E_COORD97":166479.04000000001,"N_COORD97":2569459.2599999998,"ADDRESS":"華宗路２０２號之１７","OBJECTID":524989},"geometry":{"x":166479.04000000097,"y":2569459.2599999998}},{"attributes":{"ID":525017,"DIS_CODE":0,"TOWNNAME":"學甲區","LI":"新榮里","LIN":"6鄰","STREET":"華宗路","SECT":" ","MAREA":" ","LANE":" ","ALLEY":" ","HOUSE_NO":"２０２號之１８","E_COORD97":166479.14999999999,"N_COORD97":2569453.4199999999,"ADDRESS":"華宗路２０２號之１８","OBJECTID":524990},"geometry":{"x":166479.1500000013,"y":2569453.4200000018}},{"attributes":{"ID":525018,"DIS_CODE":0,"TOWNNAME":"學甲區","LI":"新榮里","LIN":"6鄰","STREET":"華宗路","SECT":" ","MAREA":" ","LANE":" ","ALLEY":" ","HOUSE_NO":"２０２號之１９","E_COORD97":166479.56,"N_COORD97":2569447.5699999998,"ADDRESS":"華宗路２０２號之１９","OBJECTID":524991},"geometry":{"x":166479.55999999959,"y":2569447.5700000003}},{"attributes":{"ID":525019,"DIS_CODE":0,"TOWNNAME":"學甲區","LI":"新榮里","LIN":"6鄰","STREET":"華宗路","SECT":" ","MAREA":" ","LANE":" ","ALLEY":" ","HOUSE_NO":"２０２號之１","E_COORD97":166469.54000000001,"N_COORD97":2569495.6400000001,"ADDRESS":"華宗路２０２號之１","OBJECTID":524992},"geometry":{"x":166469.54000000097,"y":2569495.6399999987}},{"attributes":{"ID":525020,"DIS_CODE":0,"TOWNNAME":"學甲區","LI":"新榮里","LIN":"6鄰","STREET":"華宗路","SECT":" ","MAREA":" ","LANE":" ","ALLEY":" ","HOUSE_NO":"２０２號之２０","E_COORD97":166479.60000000001,"N_COORD97":2569441.29,"ADDRESS":"華宗路２０２號之２０","OBJECTID":524993},"geometry":{"x":166479.59999999963,"y":2569441.2899999991}},{"attributes":{"ID":525021,"DIS_CODE":0,"TOWNNAME":"學甲區","LI":"新榮里","LIN":"6鄰","STREET":"華宗路","SECT":" ","MAREA":" ","LANE":" ","ALLEY":" ","HOUSE_NO":"２０２號之２１","E_COORD97":166501.20000000001,"N_COORD97":2569466.5099999998,"ADDRESS":"華宗路２０２號之２１","OBJECTID":524994},"geometry":{"x":166501.20000000019,"y":2569466.5100000016}},{"attributes":{"ID":525022,"DIS_CODE":0,"TOWNNAME":"學甲區","LI":"新榮里","LIN":"6鄰","STREET":"華宗路","SECT":" ","MAREA":" ","LANE":" ","ALLEY":" ","HOUSE_NO":"１０２號","E_COORD97":166530.91,"N_COORD97":2569053.9300000002,"ADDRESS":"華宗路１０２號","OBJECTID":524995},"geometry":{"x":166530.91000000108,"y":2569053.9299999997}},{"attributes":{"ID":525023,"DIS_CODE":0,"TOWNNAME":"學甲區","LI":"新榮里","LIN":"6鄰","STREET":"華宗路","SECT":" ","MAREA":" ","LANE":" ","ALLEY":" ","HOUSE_NO":"１０號之１","E_COORD97":166582.17999999999,"N_COORD97":2568877.73,"ADDRESS":"華宗路１０號之１","OBJECTID":524996},"geometry":{"x":166582.1799999997,"y":2568877.7300000004}},{"attributes":{"ID":525024,"DIS_CODE":0,"TOWNNAME":"學甲區","LI":"新榮里","LIN":"6鄰","STREET":"華宗路","SECT":" ","MAREA":" ","LANE":" ","ALLEY":" ","HOUSE_NO":"１０號之２","E_COORD97":166624.84,"N_COORD97":2568864.1400000001,"ADDRESS":"華宗路１０號之２","OBJECTID":524997},"geometry":{"x":166624.84000000078,"y":2568864.1400000006}},{"attributes":{"ID":525025,"DIS_CODE":0,"TOWNNAME":"學甲區","LI":"新榮里","LIN":"6鄰","STREET":"華宗路","SECT":" ","MAREA":" ","LANE":" ","ALLEY":" ","HOUSE_NO":"１１８號之１","E_COORD97":166504.01999999999,"N_COORD97":2569150.6899999999,"ADDRESS":"華宗路１１８號之１","OBJECTID":524998},"geometry":{"x":166504.02000000142,"y":2569150.6899999995}},{"attributes":{"ID":525026,"DIS_CODE":0,"TOWNNAME":"學甲區","LI":"新榮里","LIN":"6鄰","STREET":"華宗路","SECT":" ","MAREA":" ","LANE":" ","ALLEY":" ","HOUSE_NO":"１１８號","E_COORD97":166535.98999999999,"N_COORD97":2569209.8999999999,"ADDRESS":"華宗路１１８號","OBJECTID":524999},"geometry":{"x":166535.99000000115,"y":2569209.9000000022}},{"attributes":{"ID":525027,"DIS_CODE":0,"TOWNNAME":"學甲區","LI":"新榮里","LIN":"6鄰","STREET":"華宗路","SECT":" ","MAREA":" ","LANE":" ","ALLEY":" ","HOUSE_NO":"１２０號","E_COORD97":166486.70999999999,"N_COORD97":2569218.71,"ADDRESS":"華宗路１２０號","OBJECTID":525000},"geometry":{"x":166486.71000000089,"y":2569218.7100000028}}]}