{"displayFieldName":"TOWNNAME","fieldAliases":{"ID":"ID","DIS_CODE":"DIS_CODE","TOWNNAME":"TOWNNAME","LI":"LI","LIN":"LIN","STREET":"STREET","SECT":"SECT","MAREA":"MAREA","LANE":"LANE","ALLEY":"ALLEY","HOUSE_NO":"HOUSE_NO","E_COORD97":"E_COORD97","N_COORD97":"N_COORD97","ADDRESS":"ADDRESS","OBJECTID":"OBJECTID"},"geometryType":"esriGeometryPoint","spatialReference":{"wkid":102443,"latestWkid":3826},"fields":[{"name":"ID","type":"esriFieldTypeDouble","alias":"ID"},{"name":"DIS_CODE","type":"esriFieldTypeInteger","alias":"DIS_CODE"},{"name":"TOWNNAME","type":"esriFieldTypeString","alias":"TOWNNAME","length":8},{"name":"LI","type":"esriFieldTypeString","alias":"LI","length":8},{"name":"LIN","type":"esriFieldTypeString","alias":"LIN","length":12},{"name":"STREET","type":"esriFieldTypeString","alias":"STREET","length":20},{"name":"SECT","type":"esriFieldTypeString","alias":"SECT","length":8},{"name":"MAREA","type":"esriFieldTypeString","alias":"MAREA","length":12},{"name":"LANE","type":"esriFieldTypeString","alias":"LANE","length":10},{"name":"ALLEY","type":"esriFieldTypeString","alias":"ALLEY","length":10},{"name":"HOUSE_NO","type":"esriFieldTypeString","alias":"HOUSE_NO","length":20},{"name":"E_COORD97","type":"esriFieldTypeDouble","alias":"E_COORD97"},{"name":"N_COORD97","type":"esriFieldTypeDouble","alias":"N_COORD97"},{"name":"ADDRESS","type":"esriFieldTypeString","alias":"ADDRESS","length":50},{"name":"OBJECTID","type":"esriFieldTypeOID","alias":"OBJECTID"}],"features":[{"attributes":{"ID":57601,"DIS_CODE":0,"TOWNNAME":"白河區","LI":"外角里","LIN":"1鄰","STREET":" ","SECT":" ","MAREA":"崎子頭","LANE":" ","ALLEY":" ","HOUSE_NO":"１１之１號","E_COORD97":190764.64999999999,"N_COORD97":2583198.6400000001,"ADDRESS":"崎子頭１１之１號","OBJECTID":57601},"geometry":{"x":190764.65000000037,"y":2583198.6400000006}},{"attributes":{"ID":57602,"DIS_CODE":0,"TOWNNAME":"白河區","LI":"外角里","LIN":"1鄰","STREET":" ","SECT":" ","MAREA":"崎子頭","LANE":" ","ALLEY":" ","HOUSE_NO":"１１號","E_COORD97":190768.85999999999,"N_COORD97":2583200.6099999999,"ADDRESS":"崎子頭１１號","OBJECTID":57602},"geometry":{"x":190768.86000000034,"y":2583200.6099999994}},{"attributes":{"ID":57603,"DIS_CODE":0,"TOWNNAME":"白河區","LI":"外角里","LIN":"1鄰","STREET":" ","SECT":" ","MAREA":"崎子頭","LANE":" ","ALLEY":" ","HOUSE_NO":"１２號","E_COORD97":190781.01000000001,"N_COORD97":2583183.0600000001,"ADDRESS":"崎子頭１２號","OBJECTID":57603},"geometry":{"x":190781.01000000164,"y":2583183.0599999987}},{"attributes":{"ID":57604,"DIS_CODE":0,"TOWNNAME":"白河區","LI":"外角里","LIN":"1鄰","STREET":" ","SECT":" ","MAREA":"崎子頭","LANE":" ","ALLEY":" ","HOUSE_NO":"１３之１號","E_COORD97":190758.38,"N_COORD97":2583181.0899999999,"ADDRESS":"崎子頭１３之１號","OBJECTID":57604},"geometry":{"x":190758.38000000175,"y":2583181.0899999999}},{"attributes":{"ID":57605,"DIS_CODE":0,"TOWNNAME":"白河區","LI":"外角里","LIN":"1鄰","STREET":" ","SECT":" ","MAREA":"崎子頭","LANE":" ","ALLEY":" ","HOUSE_NO":"１６號","E_COORD97":190780.39000000001,"N_COORD97":2583152.04,"ADDRESS":"崎子頭１６號","OBJECTID":57605},"geometry":{"x":190780.3900000006,"y":2583152.040000001}},{"attributes":{"ID":57606,"DIS_CODE":0,"TOWNNAME":"白河區","LI":"外角里","LIN":"1鄰","STREET":" ","SECT":" ","MAREA":"崎子頭","LANE":" ","ALLEY":" ","HOUSE_NO":"１７號","E_COORD97":190765.06,"N_COORD97":2583164.6499999999,"ADDRESS":"崎子頭１７號","OBJECTID":57606},"geometry":{"x":190765.05999999959,"y":2583164.6500000004}},{"attributes":{"ID":57607,"DIS_CODE":0,"TOWNNAME":"白河區","LI":"外角里","LIN":"1鄰","STREET":" ","SECT":" ","MAREA":"崎子頭","LANE":" ","ALLEY":" ","HOUSE_NO":"１８號","E_COORD97":190754.38,"N_COORD97":2583157.2400000002,"ADDRESS":"崎子頭１８號","OBJECTID":57607},"geometry":{"x":190754.37999999989,"y":2583157.2400000002}},{"attributes":{"ID":57608,"DIS_CODE":0,"TOWNNAME":"白河區","LI":"外角里","LIN":"1鄰","STREET":" ","SECT":" ","MAREA":"崎子頭","LANE":" ","ALLEY":" ","HOUSE_NO":"１之１號","E_COORD97":190866.57000000001,"N_COORD97":2583224.1200000001,"ADDRESS":"崎子頭１之１號","OBJECTID":57608},"geometry":{"x":190866.57000000123,"y":2583224.1200000048}},{"attributes":{"ID":57609,"DIS_CODE":0,"TOWNNAME":"白河區","LI":"外角里","LIN":"1鄰","STREET":" ","SECT":" ","MAREA":"崎子頭","LANE":" ","ALLEY":" ","HOUSE_NO":"１之２號","E_COORD97":190840.69,"N_COORD97":2583217.73,"ADDRESS":"崎子頭１之２號","OBJECTID":57609},"geometry":{"x":190840.69000000041,"y":2583217.7300000004}},{"attributes":{"ID":57610,"DIS_CODE":0,"TOWNNAME":"白河區","LI":"外角里","LIN":"1鄰","STREET":" ","SECT":" ","MAREA":"崎子頭","LANE":" ","ALLEY":" ","HOUSE_NO":"２號","E_COORD97":190816.76000000001,"N_COORD97":2583230.5899999999,"ADDRESS":"崎子頭２號","OBJECTID":57610},"geometry":{"x":190816.76000000164,"y":2583230.5900000017}},{"attributes":{"ID":57611,"DIS_CODE":0,"TOWNNAME":"白河區","LI":"秀祐里","LIN":"1鄰","STREET":" ","SECT":" ","MAREA":"頂秀祐","LANE":" ","ALLEY":" ","HOUSE_NO":"１０號","E_COORD97":188986.07999999999,"N_COORD97":2583398.79,"ADDRESS":"頂秀祐１０號","OBJECTID":57611},"geometry":{"x":188986.08000000101,"y":2583398.790000001}},{"attributes":{"ID":57612,"DIS_CODE":0,"TOWNNAME":"白河區","LI":"秀祐里","LIN":"1鄰","STREET":" ","SECT":" ","MAREA":"頂秀祐","LANE":" ","ALLEY":" ","HOUSE_NO":"１３號","E_COORD97":188960.76999999999,"N_COORD97":2583400.8300000001,"ADDRESS":"頂秀祐１３號","OBJECTID":57612},"geometry":{"x":188960.77000000048,"y":2583400.8300000001}},{"attributes":{"ID":57613,"DIS_CODE":0,"TOWNNAME":"白河區","LI":"秀祐里","LIN":"1鄰","STREET":" ","SECT":" ","MAREA":"頂秀祐","LANE":" ","ALLEY":" ","HOUSE_NO":"１４號","E_COORD97":188982.81,"N_COORD97":2583383.5699999998,"ADDRESS":"頂秀祐１４號","OBJECTID":57613},"geometry":{"x":188982.80999999959,"y":2583383.5700000022}},{"attributes":{"ID":57614,"DIS_CODE":0,"TOWNNAME":"白河區","LI":"秀祐里","LIN":"1鄰","STREET":" ","SECT":" ","MAREA":"頂秀祐","LANE":" ","ALLEY":" ","HOUSE_NO":"１５號","E_COORD97":188970.51000000001,"N_COORD97":2583385.8199999998,"ADDRESS":"頂秀祐１５號","OBJECTID":57614},"geometry":{"x":188970.50999999885,"y":2583385.8200000022}},{"attributes":{"ID":57615,"DIS_CODE":0,"TOWNNAME":"白河區","LI":"秀祐里","LIN":"1鄰","STREET":" ","SECT":" ","MAREA":"頂秀祐","LANE":" ","ALLEY":" ","HOUSE_NO":"１６號","E_COORD97":188953.57000000001,"N_COORD97":2583371.1000000001,"ADDRESS":"頂秀祐１６號","OBJECTID":57615},"geometry":{"x":188953.5700000003,"y":2583371.0999999996}},{"attributes":{"ID":57616,"DIS_CODE":0,"TOWNNAME":"白河區","LI":"秀祐里","LIN":"1鄰","STREET":" ","SECT":" ","MAREA":"頂秀祐","LANE":" ","ALLEY":" ","HOUSE_NO":"１７號","E_COORD97":188959.23999999999,"N_COORD97":2583351.6899999999,"ADDRESS":"頂秀祐１７號","OBJECTID":57616},"geometry":{"x":188959.23999999929,"y":2583351.6900000013}},{"attributes":{"ID":57617,"DIS_CODE":0,"TOWNNAME":"白河區","LI":"秀祐里","LIN":"1鄰","STREET":" ","SECT":" ","MAREA":"頂秀祐","LANE":" ","ALLEY":" ","HOUSE_NO":"１之１號","E_COORD97":189066.89999999999,"N_COORD97":2583590.73,"ADDRESS":"頂秀祐１之１號","OBJECTID":57617},"geometry":{"x":189066.90000000224,"y":2583590.7300000004}},{"attributes":{"ID":57618,"DIS_CODE":0,"TOWNNAME":"白河區","LI":"秀祐里","LIN":"1鄰","STREET":" ","SECT":" ","MAREA":"頂秀祐","LANE":" ","ALLEY":" ","HOUSE_NO":"１之２２號","E_COORD97":189281.76000000001,"N_COORD97":2583613.6099999999,"ADDRESS":"頂秀祐１之２２號","OBJECTID":57618},"geometry":{"x":189281.75999999978,"y":2583613.6100000013}},{"attributes":{"ID":57619,"DIS_CODE":0,"TOWNNAME":"白河區","LI":"秀祐里","LIN":"1鄰","STREET":" ","SECT":" ","MAREA":"頂秀祐","LANE":" ","ALLEY":" ","HOUSE_NO":"１之５６號","E_COORD97":189543.03,"N_COORD97":2583839.5800000001,"ADDRESS":"頂秀祐１之５６號","OBJECTID":57619},"geometry":{"x":189543.03000000119,"y":2583839.5800000001}},{"attributes":{"ID":57620,"DIS_CODE":0,"TOWNNAME":"白河區","LI":"秀祐里","LIN":"1鄰","STREET":" ","SECT":" ","MAREA":"頂秀祐","LANE":" ","ALLEY":" ","HOUSE_NO":"１號","E_COORD97":189090.04000000001,"N_COORD97":2583601.75,"ADDRESS":"頂秀祐１號","OBJECTID":57620},"geometry":{"x":189090.04000000097,"y":2583601.7500000037}},{"attributes":{"ID":57621,"DIS_CODE":0,"TOWNNAME":"白河區","LI":"秀祐里","LIN":"1鄰","STREET":" ","SECT":" ","MAREA":"頂秀祐","LANE":" ","ALLEY":" ","HOUSE_NO":"２號","E_COORD97":189089.75,"N_COORD97":2583575.3300000001,"ADDRESS":"頂秀祐２號","OBJECTID":57621},"geometry":{"x":189089.75000000093,"y":2583575.3300000019}},{"attributes":{"ID":57622,"DIS_CODE":0,"TOWNNAME":"安南區","LI":"淵東里","LIN":"1鄰","STREET":"海佃路","SECT":"四段","MAREA":" ","LANE":"１１８巷","ALLEY":"８弄","HOUSE_NO":"１６號","E_COORD97":165731.48999999999,"N_COORD97":2550714.29,"ADDRESS":"海佃路四段１１８巷８弄１６號","OBJECTID":57622},"geometry":{"x":165731.49000000022,"y":2550714.290000001}},{"attributes":{"ID":57623,"DIS_CODE":0,"TOWNNAME":"安南區","LI":"淵東里","LIN":"1鄰","STREET":"海佃路","SECT":"四段","MAREA":" ","LANE":"１１８巷","ALLEY":"８弄","HOUSE_NO":"１８號","E_COORD97":165732.60000000001,"N_COORD97":2550710,"ADDRESS":"海佃路四段１１８巷８弄１８號","OBJECTID":57623},"geometry":{"x":165732.60000000056,"y":2550710.0000000037}},{"attributes":{"ID":57624,"DIS_CODE":0,"TOWNNAME":"安南區","LI":"淵東里","LIN":"1鄰","STREET":"海佃路","SECT":"四段","MAREA":" ","LANE":"１１８巷","ALLEY":"８弄","HOUSE_NO":"２０號","E_COORD97":165733.87,"N_COORD97":2550706.3500000001,"ADDRESS":"海佃路四段１１８巷８弄２０號","OBJECTID":57624},"geometry":{"x":165733.87000000011,"y":2550706.3499999996}},{"attributes":{"ID":57625,"DIS_CODE":0,"TOWNNAME":"安南區","LI":"淵東里","LIN":"1鄰","STREET":"海佃路","SECT":"四段","MAREA":" ","LANE":"１１８巷","ALLEY":"８弄","HOUSE_NO":"２２號","E_COORD97":165734.19,"N_COORD97":2550702.2200000002,"ADDRESS":"海佃路四段１１８巷８弄２２號","OBJECTID":57625},"geometry":{"x":165734.19000000227,"y":2550702.2200000007}},{"attributes":{"ID":57626,"DIS_CODE":0,"TOWNNAME":"安南區","LI":"淵東里","LIN":"1鄰","STREET":"海佃路","SECT":"四段","MAREA":" ","LANE":"１１８巷","ALLEY":"８弄","HOUSE_NO":"２６號","E_COORD97":165735.45999999999,"N_COORD97":2550698.4100000001,"ADDRESS":"海佃路四段１１８巷８弄２６號","OBJECTID":57626},"geometry":{"x":165735.46000000089,"y":2550698.410000002}},{"attributes":{"ID":57627,"DIS_CODE":0,"TOWNNAME":"安南區","LI":"淵東里","LIN":"1鄰","STREET":"海佃路","SECT":"四段","MAREA":" ","LANE":"１１８巷","ALLEY":"８弄","HOUSE_NO":"２８號","E_COORD97":165736.09,"N_COORD97":2550694.1299999999,"ADDRESS":"海佃路四段１１８巷８弄２８號","OBJECTID":57627},"geometry":{"x":165736.09000000078,"y":2550694.129999999}},{"attributes":{"ID":57628,"DIS_CODE":0,"TOWNNAME":"安南區","LI":"淵東里","LIN":"1鄰","STREET":"海佃路","SECT":"四段","MAREA":" ","LANE":"１１８巷","ALLEY":"８弄","HOUSE_NO":"２號","E_COORD97":165725.29999999999,"N_COORD97":2550736.8300000001,"ADDRESS":"海佃路四段１１８巷８弄２號","OBJECTID":57628},"geometry":{"x":165725.29999999981,"y":2550736.8300000001}},{"attributes":{"ID":57629,"DIS_CODE":0,"TOWNNAME":"安南區","LI":"公\u25A0里","LIN":"1鄰","STREET":"公學路","SECT":"五段","MAREA":" ","LANE":"３３２巷","ALLEY":"１０７弄","HOUSE_NO":"５２號","E_COORD97":164655.64000000001,"N_COORD97":2552503.4300000002,"ADDRESS":"公學路五段３３２巷１０７弄５２號","OBJECTID":57629},"geometry":{"x":164655.6400000006,"y":2552503.4299999997}},{"attributes":{"ID":57630,"DIS_CODE":0,"TOWNNAME":"安南區","LI":"砂崙里","LIN":"1鄰","STREET":"城北路","SECT":" ","MAREA":" ","LANE":"８７１巷","ALLEY":"８７弄","HOUSE_NO":"３３號","E_COORD97":159665.85999999999,"N_COORD97":2550906.4100000001,"ADDRESS":"城北路８７１巷８７弄３３號","OBJECTID":57630},"geometry":{"x":159665.8600000022,"y":2550906.4100000001}},{"attributes":{"ID":57631,"DIS_CODE":0,"TOWNNAME":"安南區","LI":"\u25A0田里","LIN":"1鄰","STREET":"\u25A0田路","SECT":" ","MAREA":" ","LANE":"３２９巷","ALLEY":"１０弄","HOUSE_NO":"１號","E_COORD97":162008.20999999999,"N_COORD97":2548026.1200000001,"ADDRESS":"\u25A0田路３２９巷１０弄１號","OBJECTID":57631},"geometry":{"x":162008.21000000089,"y":2548026.1200000029}},{"attributes":{"ID":57632,"DIS_CODE":0,"TOWNNAME":"安南區","LI":"\u25A0田里","LIN":"1鄰","STREET":"\u25A0田路","SECT":" ","MAREA":" ","LANE":"３２９巷","ALLEY":"１０弄","HOUSE_NO":"３號","E_COORD97":162003.13,"N_COORD97":2548024.5299999998,"ADDRESS":"\u25A0田路３２９巷１０弄３號","OBJECTID":57632},"geometry":{"x":162003.13000000082,"y":2548024.5300000012}},{"attributes":{"ID":57633,"DIS_CODE":0,"TOWNNAME":"安南區","LI":"\u25A0田里","LIN":"1鄰","STREET":"\u25A0田路","SECT":" ","MAREA":" ","LANE":"３２９巷","ALLEY":"１０弄","HOUSE_NO":"５號","E_COORD97":161997.25,"N_COORD97":2548023.5,"ADDRESS":"\u25A0田路３２９巷１０弄５號","OBJECTID":57633},"geometry":{"x":161997.25000000093,"y":2548023.5}},{"attributes":{"ID":57634,"DIS_CODE":0,"TOWNNAME":"安南區","LI":"\u25A0田里","LIN":"1鄰","STREET":"\u25A0田路","SECT":" ","MAREA":" ","LANE":"３２９巷","ALLEY":"１０弄","HOUSE_NO":"７號","E_COORD97":161992.97,"N_COORD97":2548021.9100000001,"ADDRESS":"\u25A0田路３２９巷１０弄７號","OBJECTID":57634},"geometry":{"x":161992.96999999974,"y":2548021.9100000001}},{"attributes":{"ID":57635,"DIS_CODE":0,"TOWNNAME":"安南區","LI":"\u25A0田里","LIN":"1鄰","STREET":"\u25A0田路","SECT":" ","MAREA":" ","LANE":"３２９巷","ALLEY":"１０弄","HOUSE_NO":"１１號","E_COORD97":161987.41,"N_COORD97":2548021.75,"ADDRESS":"\u25A0田路３２９巷１０弄１１號","OBJECTID":57635},"geometry":{"x":161987.41000000015,"y":2548021.75}},{"attributes":{"ID":57636,"DIS_CODE":0,"TOWNNAME":"安南區","LI":"\u25A0田里","LIN":"1鄰","STREET":"\u25A0田路","SECT":" ","MAREA":" ","LANE":"３２９巷","ALLEY":"２弄","HOUSE_NO":"９號","E_COORD97":161965.56,"N_COORD97":2548098.1600000001,"ADDRESS":"\u25A0田路３２９巷２弄９號","OBJECTID":57636},"geometry":{"x":161965.55999999866,"y":2548098.1600000001}},{"attributes":{"ID":57637,"DIS_CODE":0,"TOWNNAME":"安南區","LI":"\u25A0田里","LIN":"1鄰","STREET":"\u25A0田路","SECT":" ","MAREA":" ","LANE":"３２９巷","ALLEY":"６弄","HOUSE_NO":"２２號","E_COORD97":161955.39999999999,"N_COORD97":2548080.2200000002,"ADDRESS":"\u25A0田路３２９巷６弄２２號","OBJECTID":57637},"geometry":{"x":161955.40000000037,"y":2548080.2200000007}},{"attributes":{"ID":57638,"DIS_CODE":0,"TOWNNAME":"安南區","LI":"\u25A0田里","LIN":"1鄰","STREET":"\u25A0田路","SECT":" ","MAREA":" ","LANE":"３２９巷","ALLEY":"６弄","HOUSE_NO":"２３號","E_COORD97":161933.01000000001,"N_COORD97":2548051.4100000001,"ADDRESS":"\u25A0田路３２９巷６弄２３號","OBJECTID":57638},"geometry":{"x":161933.01000000071,"y":2548051.4100000001}},{"attributes":{"ID":57639,"DIS_CODE":0,"TOWNNAME":"安南區","LI":"\u25A0田里","LIN":"1鄰","STREET":"\u25A0田路","SECT":" ","MAREA":" ","LANE":"３２９巷","ALLEY":"６弄","HOUSE_NO":"２５號","E_COORD97":161929.67999999999,"N_COORD97":2548049.8199999998,"ADDRESS":"\u25A0田路３２９巷６弄２５號","OBJECTID":57639},"geometry":{"x":161929.68000000063,"y":2548049.8200000003}},{"attributes":{"ID":57640,"DIS_CODE":0,"TOWNNAME":"北區","LI":"正覺里","LIN":"8鄰","STREET":"北安路","SECT":"一段","MAREA":" ","LANE":" ","ALLEY":" ","HOUSE_NO":"７號","E_COORD97":169294.19,"N_COORD97":2546148.8500000001,"ADDRESS":"北安路一段７號","OBJECTID":57640},"geometry":{"x":169294.19000000134,"y":2546148.8500000015}},{"attributes":{"ID":57641,"DIS_CODE":0,"TOWNNAME":"北區","LI":"正覺里","LIN":"8鄰","STREET":"北安路","SECT":"一段","MAREA":" ","LANE":" ","ALLEY":" ","HOUSE_NO":"８１號","E_COORD97":169151.04999999999,"N_COORD97":2546260.9100000001,"ADDRESS":"北安路一段８１號","OBJECTID":57641},"geometry":{"x":169151.05000000075,"y":2546260.910000002}},{"attributes":{"ID":57642,"DIS_CODE":0,"TOWNNAME":"北區","LI":"正覺里","LIN":"8鄰","STREET":"北安路","SECT":"一段","MAREA":" ","LANE":" ","ALLEY":" ","HOUSE_NO":"８３號","E_COORD97":169147.54000000001,"N_COORD97":2546263.8700000001,"ADDRESS":"北安路一段８３號","OBJECTID":57642},"geometry":{"x":169147.54000000097,"y":2546263.8700000048}},{"attributes":{"ID":57643,"DIS_CODE":0,"TOWNNAME":"七股區","LI":"?榔里","LIN":"6鄰","STREET":" ","SECT":" ","MAREA":"?榔","LANE":" ","ALLEY":" ","HOUSE_NO":"５５號","E_COORD97":162376.29000000001,"N_COORD97":2555220.2799999998,"ADDRESS":"?榔５５號","OBJECTID":57643},"geometry":{"x":162376.29000000004,"y":2555220.2800000031}},{"attributes":{"ID":57644,"DIS_CODE":0,"TOWNNAME":"北區","LI":"正覺里","LIN":"8鄰","STREET":"北安路","SECT":"一段","MAREA":" ","LANE":" ","ALLEY":" ","HOUSE_NO":"８５號","E_COORD97":169143.94,"N_COORD97":2546266.0800000001,"ADDRESS":"北安路一段８５號","OBJECTID":57644},"geometry":{"x":169143.94000000134,"y":2546266.0800000019}},{"attributes":{"ID":57645,"DIS_CODE":0,"TOWNNAME":"北區","LI":"正覺里","LIN":"8鄰","STREET":"北安路","SECT":"一段","MAREA":" ","LANE":" ","ALLEY":" ","HOUSE_NO":"８７號","E_COORD97":169140.42999999999,"N_COORD97":2546268.5800000001,"ADDRESS":"北安路一段８７號","OBJECTID":57645},"geometry":{"x":169140.4299999997,"y":2546268.5800000019}},{"attributes":{"ID":57646,"DIS_CODE":0,"TOWNNAME":"北區","LI":"正覺里","LIN":"8鄰","STREET":"北安路","SECT":"一段","MAREA":" ","LANE":" ","ALLEY":" ","HOUSE_NO":"９１號","E_COORD97":169133.87,"N_COORD97":2546273.9300000002,"ADDRESS":"北安路一段９１號","OBJECTID":57646},"geometry":{"x":169133.87000000104,"y":2546273.9299999997}},{"attributes":{"ID":57647,"DIS_CODE":0,"TOWNNAME":"北區","LI":"正覺里","LIN":"8鄰","STREET":"北安路","SECT":"一段","MAREA":" ","LANE":" ","ALLEY":" ","HOUSE_NO":"９３號","E_COORD97":169129.89000000001,"N_COORD97":2546276.52,"ADDRESS":"北安路一段９３號","OBJECTID":57647},"geometry":{"x":169129.8900000006,"y":2546276.5200000014}},{"attributes":{"ID":57648,"DIS_CODE":0,"TOWNNAME":"白河區","LI":"秀祐里","LIN":"1鄰","STREET":" ","SECT":" ","MAREA":"頂秀祐","LANE":" ","ALLEY":" ","HOUSE_NO":"３號","E_COORD97":189068.75,"N_COORD97":2583570.4199999999,"ADDRESS":"頂秀祐３號","OBJECTID":57648},"geometry":{"x":189068.75,"y":2583570.4200000018}},{"attributes":{"ID":57649,"DIS_CODE":0,"TOWNNAME":"玉井區","LI":"玉井里","LIN":" ","STREET":"中正路","SECT":" ","MAREA":" ","LANE":" ","ALLEY":" ","HOUSE_NO":"５３之３號","E_COORD97":194776.10999999999,"N_COORD97":2558172.29,"ADDRESS":"中正路５３之３號","OBJECTID":57649},"geometry":{"x":194776.11000000034,"y":2558172.2899999991}},{"attributes":{"ID":57650,"DIS_CODE":0,"TOWNNAME":"玉井區","LI":"玉田里","LIN":" ","STREET":"中正路","SECT":" ","MAREA":" ","LANE":" ","ALLEY":" ","HOUSE_NO":"１８２號","E_COORD97":194991.76000000001,"N_COORD97":2558219.25,"ADDRESS":"中正路１８２號","OBJECTID":57650},"geometry":{"x":194991.75999999978,"y":2558219.2500000019}},{"attributes":{"ID":57651,"DIS_CODE":0,"TOWNNAME":"玉井區","LI":"玉田里","LIN":" ","STREET":"中山路","SECT":" ","MAREA":" ","LANE":" ","ALLEY":" ","HOUSE_NO":"２４１號","E_COORD97":195284.06,"N_COORD97":2558133.25,"ADDRESS":"中山路２４１號","OBJECTID":57651},"geometry":{"x":195284.05999999959,"y":2558133.2500000037}},{"attributes":{"ID":57652,"DIS_CODE":0,"TOWNNAME":"安南區","LI":"\u25A0田里","LIN":"1鄰","STREET":"\u25A0田路","SECT":" ","MAREA":" ","LANE":"３２９巷","ALLEY":"６弄","HOUSE_NO":"２６號","E_COORD97":161951.73999999999,"N_COORD97":2548078.9500000002,"ADDRESS":"\u25A0田路３２９巷６弄２６號","OBJECTID":57652},"geometry":{"x":161951.74000000115,"y":2548078.950000003}},{"attributes":{"ID":57653,"DIS_CODE":0,"TOWNNAME":"安南區","LI":"\u25A0田里","LIN":"1鄰","STREET":"\u25A0田路","SECT":" ","MAREA":" ","LANE":"３２９巷","ALLEY":"６弄","HOUSE_NO":"２７號","E_COORD97":161924.60000000001,"N_COORD97":2548049.0299999998,"ADDRESS":"\u25A0田路３２９巷６弄２７號","OBJECTID":57653},"geometry":{"x":161924.59999999963,"y":2548049.0300000012}},{"attributes":{"ID":57654,"DIS_CODE":0,"TOWNNAME":"安南區","LI":"\u25A0田里","LIN":"1鄰","STREET":"\u25A0田路","SECT":" ","MAREA":" ","LANE":"３２９巷","ALLEY":"６弄","HOUSE_NO":"２８號","E_COORD97":161947.62,"N_COORD97":2548078,"ADDRESS":"\u25A0田路３２９巷６弄２８號","OBJECTID":57654},"geometry":{"x":161947.62000000104,"y":2548078}},{"attributes":{"ID":57655,"DIS_CODE":0,"TOWNNAME":"安南區","LI":"\u25A0田里","LIN":"1鄰","STREET":"\u25A0田路","SECT":" ","MAREA":" ","LANE":"３２９巷","ALLEY":"６弄","HOUSE_NO":"３０號","E_COORD97":161943.01000000001,"N_COORD97":2548077.3700000001,"ADDRESS":"\u25A0田路３２９巷６弄３０號","OBJECTID":57655},"geometry":{"x":161943.01000000071,"y":2548077.370000001}},{"attributes":{"ID":57656,"DIS_CODE":0,"TOWNNAME":"安南區","LI":"\u25A0田里","LIN":"1鄰","STREET":"\u25A0田路","SECT":" ","MAREA":" ","LANE":"３２９巷","ALLEY":"６弄","HOUSE_NO":"３２號","E_COORD97":161938.89000000001,"N_COORD97":2548076.5699999998,"ADDRESS":"\u25A0田路３２９巷６弄３２號","OBJECTID":57656},"geometry":{"x":161938.8900000006,"y":2548076.5700000022}},{"attributes":{"ID":57657,"DIS_CODE":0,"TOWNNAME":"安南區","LI":"\u25A0田里","LIN":"1鄰","STREET":"\u25A0田路","SECT":" ","MAREA":" ","LANE":"３２９巷","ALLEY":"６弄","HOUSE_NO":"３６號","E_COORD97":161935.54999999999,"N_COORD97":2548075.46,"ADDRESS":"\u25A0田路３２９巷６弄３６號","OBJECTID":57657},"geometry":{"x":161935.55000000168,"y":2548075.4600000009}},{"attributes":{"ID":57658,"DIS_CODE":0,"TOWNNAME":"安南區","LI":"\u25A0田里","LIN":"1鄰","STREET":"\u25A0田路","SECT":" ","MAREA":" ","LANE":"３２９巷","ALLEY":"６弄","HOUSE_NO":"３８號","E_COORD97":161931.89999999999,"N_COORD97":2548074.6699999999,"ADDRESS":"\u25A0田路３２９巷６弄３８號","OBJECTID":57658},"geometry":{"x":161931.89999999944,"y":2548074.6700000037}},{"attributes":{"ID":57659,"DIS_CODE":0,"TOWNNAME":"安南區","LI":"\u25A0田里","LIN":"1鄰","STREET":"\u25A0田路","SECT":" ","MAREA":" ","LANE":"３２９巷","ALLEY":"６弄","HOUSE_NO":"４２號","E_COORD97":161923.95999999999,"N_COORD97":2548072.4500000002,"ADDRESS":"\u25A0田路３２９巷６弄４２號","OBJECTID":57659},"geometry":{"x":161923.95999999996,"y":2548072.4500000011}},{"attributes":{"ID":57660,"DIS_CODE":0,"TOWNNAME":"安南區","LI":"\u25A0田里","LIN":"1鄰","STREET":"\u25A0田路","SECT":" ","MAREA":" ","LANE":"３２９巷","ALLEY":"６弄","HOUSE_NO":"４６號","E_COORD97":161918.88,"N_COORD97":2548071.4900000002,"ADDRESS":"\u25A0田路３２９巷６弄４６號","OBJECTID":57660},"geometry":{"x":161918.88000000082,"y":2548071.4900000002}},{"attributes":{"ID":57661,"DIS_CODE":0,"TOWNNAME":"安南區","LI":"\u25A0田里","LIN":"1鄰","STREET":"\u25A0田路","SECT":" ","MAREA":" ","LANE":"３２９巷","ALLEY":"６弄","HOUSE_NO":"９號","E_COORD97":161960.63,"N_COORD97":2548059.3500000001,"ADDRESS":"\u25A0田路３２９巷６弄９號","OBJECTID":57661},"geometry":{"x":161960.63000000082,"y":2548059.3500000034}},{"attributes":{"ID":57662,"DIS_CODE":0,"TOWNNAME":"安南區","LI":"\u25A0田里","LIN":"1鄰","STREET":"\u25A0田路","SECT":" ","MAREA":" ","LANE":"３９５巷","ALLEY":"１弄","HOUSE_NO":"４０號","E_COORD97":161908.04000000001,"N_COORD97":2548101.9900000002,"ADDRESS":"\u25A0田路３９５巷１弄４０號","OBJECTID":57662},"geometry":{"x":161908.04000000004,"y":2548101.9900000002}},{"attributes":{"ID":57663,"DIS_CODE":0,"TOWNNAME":"安南區","LI":"\u25A0田里","LIN":"1鄰","STREET":"\u25A0田路","SECT":" ","MAREA":" ","LANE":"３９５巷","ALLEY":"１弄","HOUSE_NO":"３８號","E_COORD97":161903.39999999999,"N_COORD97":2548102.25,"ADDRESS":"\u25A0田路３９５巷１弄３８號","OBJECTID":57663},"geometry":{"x":161903.4000000013,"y":2548102.2500000019}},{"attributes":{"ID":57664,"DIS_CODE":0,"TOWNNAME":"安南區","LI":"\u25A0田里","LIN":"1鄰","STREET":"\u25A0田路","SECT":" ","MAREA":" ","LANE":"３９５巷","ALLEY":"１弄","HOUSE_NO":"３６號","E_COORD97":161898.25,"N_COORD97":2548101.7200000002,"ADDRESS":"\u25A0田路３９５巷１弄３６號","OBJECTID":57664},"geometry":{"x":161898.25,"y":2548101.7200000007}},{"attributes":{"ID":57665,"DIS_CODE":0,"TOWNNAME":"安南區","LI":"\u25A0田里","LIN":"1鄰","STREET":"\u25A0田路","SECT":" ","MAREA":" ","LANE":"３９５巷","ALLEY":"１弄","HOUSE_NO":"３２號","E_COORD97":161893.88,"N_COORD97":2548101.46,"ADDRESS":"\u25A0田路３９５巷１弄３２號","OBJECTID":57665},"geometry":{"x":161893.87999999989,"y":2548101.4600000028}},{"attributes":{"ID":57666,"DIS_CODE":0,"TOWNNAME":"安南區","LI":"\u25A0田里","LIN":"1鄰","STREET":"\u25A0田路","SECT":" ","MAREA":" ","LANE":"３９５巷","ALLEY":"１弄","HOUSE_NO":"３０號","E_COORD97":161889.38,"N_COORD97":2548100.9300000002,"ADDRESS":"\u25A0田路３９５巷１弄３０號","OBJECTID":57666},"geometry":{"x":161889.38000000175,"y":2548100.9300000016}},{"attributes":{"ID":57667,"DIS_CODE":0,"TOWNNAME":"六甲區","LI":"甲東里","LIN":" ","STREET":"珊瑚路","SECT":" ","MAREA":" ","LANE":" ","ALLEY":" ","HOUSE_NO":"９７號","E_COORD97":183857.20999999999,"N_COORD97":2569282.4199999999,"ADDRESS":"珊瑚路９７號","OBJECTID":57667},"geometry":{"x":183857.21000000089,"y":2569282.4199999999}},{"attributes":{"ID":57668,"DIS_CODE":0,"TOWNNAME":"六甲區","LI":"七甲里","LIN":" ","STREET":"七甲街","SECT":" ","MAREA":" ","LANE":" ","ALLEY":" ","HOUSE_NO":"１７號","E_COORD97":183355.54999999999,"N_COORD97":2568957.79,"ADDRESS":"七甲街１７號","OBJECTID":57668},"geometry":{"x":183355.54999999981,"y":2568957.7900000028}},{"attributes":{"ID":57669,"DIS_CODE":0,"TOWNNAME":"六甲區","LI":"二甲里","LIN":" ","STREET":"中山路","SECT":" ","MAREA":" ","LANE":" ","ALLEY":" ","HOUSE_NO":"２８９號","E_COORD97":182970.41,"N_COORD97":2570121.6800000002,"ADDRESS":"中山路２８９號","OBJECTID":57669},"geometry":{"x":182970.41000000015,"y":2570121.6799999978}},{"attributes":{"ID":57670,"DIS_CODE":0,"TOWNNAME":"六甲區","LI":"水林里","LIN":" ","STREET":"中山路","SECT":" ","MAREA":" ","LANE":" ","ALLEY":" ","HOUSE_NO":"４１２之１號","E_COORD97":182736.91,"N_COORD97":2570251.6800000002,"ADDRESS":"中山路４１２之１號","OBJECTID":57670},"geometry":{"x":182736.91000000108,"y":2570251.6800000016}},{"attributes":{"ID":57671,"DIS_CODE":0,"TOWNNAME":"六甲區","LI":"水林里","LIN":" ","STREET":"中山路","SECT":" ","MAREA":" ","LANE":" ","ALLEY":" ","HOUSE_NO":"４６０號","E_COORD97":182565.17999999999,"N_COORD97":2570272.0499999998,"ADDRESS":"中山路４６０號","OBJECTID":57671},"geometry":{"x":182565.18000000063,"y":2570272.0500000007}},{"attributes":{"ID":57672,"DIS_CODE":0,"TOWNNAME":"柳營區","LI":"士林里","LIN":"11鄰","STREET":"博愛街","SECT":" ","MAREA":" ","LANE":" ","ALLEY":" ","HOUSE_NO":"２號","E_COORD97":179570.82999999999,"N_COORD97":2575265.21,"ADDRESS":"博愛街２號","OBJECTID":57672},"geometry":{"x":179570.83000000101,"y":2575265.2100000009}},{"attributes":{"ID":57673,"DIS_CODE":0,"TOWNNAME":"六甲區","LI":"水林里","LIN":" ","STREET":"中山路","SECT":" ","MAREA":" ","LANE":" ","ALLEY":" ","HOUSE_NO":"６０６號","E_COORD97":182280.09,"N_COORD97":2570356.6699999999,"ADDRESS":"中山路６０６號","OBJECTID":57673},"geometry":{"x":182280.08999999985,"y":2570356.6700000018}},{"attributes":{"ID":57674,"DIS_CODE":0,"TOWNNAME":"白河區","LI":"秀祐里","LIN":"1鄰","STREET":" ","SECT":" ","MAREA":"頂秀祐","LANE":" ","ALLEY":" ","HOUSE_NO":"５號","E_COORD97":189053.35000000001,"N_COORD97":2583532.1099999999,"ADDRESS":"頂秀祐５號","OBJECTID":57674},"geometry":{"x":189053.35000000056,"y":2583532.1100000013}},{"attributes":{"ID":57675,"DIS_CODE":0,"TOWNNAME":"白河區","LI":"秀祐里","LIN":"1鄰","STREET":" ","SECT":" ","MAREA":"頂秀祐","LANE":" ","ALLEY":" ","HOUSE_NO":"６之１號","E_COORD97":189074.62,"N_COORD97":2583515.8999999999,"ADDRESS":"頂秀祐６之１號","OBJECTID":57675},"geometry":{"x":189074.62000000011,"y":2583515.9000000004}},{"attributes":{"ID":57676,"DIS_CODE":0,"TOWNNAME":"歸仁區","LI":"西埔里","LIN":"8鄰","STREET":"保大路","SECT":"二段","MAREA":" ","LANE":" ","ALLEY":" ","HOUSE_NO":"３０８號","E_COORD97":176554.47,"N_COORD97":2544177.27,"ADDRESS":"保大路二段３０８號","OBJECTID":57676},"geometry":{"x":176554.46999999974,"y":2544177.2699999996}},{"attributes":{"ID":57677,"DIS_CODE":0,"TOWNNAME":"歸仁區","LI":"崙頂里","LIN":"8鄰","STREET":"崙頂三街","SECT":" ","MAREA":" ","LANE":" ","ALLEY":" ","HOUSE_NO":"７２號","E_COORD97":178006.81,"N_COORD97":2539923.1099999999,"ADDRESS":"崙頂三街７２號","OBJECTID":57677},"geometry":{"x":178006.80999999959,"y":2539923.1099999994}},{"attributes":{"ID":57678,"DIS_CODE":0,"TOWNNAME":"歸仁區","LI":"七甲里","LIN":"8鄰","STREET":"七甲三街","SECT":" ","MAREA":" ","LANE":" ","ALLEY":" ","HOUSE_NO":"９０號","E_COORD97":177664.79000000001,"N_COORD97":2542839.6600000001,"ADDRESS":"七甲三街９０號","OBJECTID":57678},"geometry":{"x":177664.79000000004,"y":2542839.6600000001}},{"attributes":{"ID":57679,"DIS_CODE":0,"TOWNNAME":"歸仁區","LI":"文化里","LIN":"8鄰","STREET":"文化北街","SECT":" ","MAREA":" ","LANE":" ","ALLEY":" ","HOUSE_NO":"１３３號","E_COORD97":177143.60999999999,"N_COORD97":2541404.3399999999,"ADDRESS":"文化北街１３３號","OBJECTID":57679},"geometry":{"x":177143.61000000127,"y":2541404.3400000036}},{"attributes":{"ID":57680,"DIS_CODE":0,"TOWNNAME":"白河區","LI":"秀祐里","LIN":"1鄰","STREET":" ","SECT":" ","MAREA":"頂秀祐","LANE":" ","ALLEY":" ","HOUSE_NO":"７之１號","E_COORD97":189048.84,"N_COORD97":2583465.7999999998,"ADDRESS":"頂秀祐７之１號","OBJECTID":57680},"geometry":{"x":189048.84000000078,"y":2583465.8000000007}},{"attributes":{"ID":57681,"DIS_CODE":0,"TOWNNAME":"安南區","LI":"\u25A0田里","LIN":"1鄰","STREET":"\u25A0田路","SECT":" ","MAREA":" ","LANE":"３９５巷","ALLEY":"１弄","HOUSE_NO":"２８號","E_COORD97":161884.09,"N_COORD97":2548100.6600000001,"ADDRESS":"\u25A0田路３９５巷１弄２８號","OBJECTID":57681},"geometry":{"x":161884.08999999985,"y":2548100.6600000001}},{"attributes":{"ID":57682,"DIS_CODE":0,"TOWNNAME":"白河區","LI":"秀祐里","LIN":"1鄰","STREET":" ","SECT":" ","MAREA":"頂秀祐","LANE":" ","ALLEY":" ","HOUSE_NO":"７之２號","E_COORD97":189102.10999999999,"N_COORD97":2583495.7400000002,"ADDRESS":"頂秀祐７之２號","OBJECTID":57682},"geometry":{"x":189102.11000000034,"y":2583495.7400000002}},{"attributes":{"ID":57683,"DIS_CODE":0,"TOWNNAME":"白河區","LI":"秀祐里","LIN":"1鄰","STREET":" ","SECT":" ","MAREA":"頂秀祐","LANE":" ","ALLEY":" ","HOUSE_NO":"７之３號","E_COORD97":189048.76000000001,"N_COORD97":2583458.1899999999,"ADDRESS":"頂秀祐７之３號","OBJECTID":57683},"geometry":{"x":189048.76000000071,"y":2583458.1899999995}},{"attributes":{"ID":57684,"DIS_CODE":0,"TOWNNAME":"白河區","LI":"秀祐里","LIN":"1鄰","STREET":" ","SECT":" ","MAREA":"頂秀祐","LANE":" ","ALLEY":" ","HOUSE_NO":"７號","E_COORD97":189050.98000000001,"N_COORD97":2583471.1800000002,"ADDRESS":"頂秀祐７號","OBJECTID":57684},"geometry":{"x":189050.98000000045,"y":2583471.1800000016}},{"attributes":{"ID":57685,"DIS_CODE":0,"TOWNNAME":"白河區","LI":"秀祐里","LIN":"1鄰","STREET":" ","SECT":" ","MAREA":"頂秀祐","LANE":" ","ALLEY":" ","HOUSE_NO":"８之１號","E_COORD97":189025.59,"N_COORD97":2583393.5800000001,"ADDRESS":"頂秀祐８之１號","OBJECTID":57685},"geometry":{"x":189025.58999999985,"y":2583393.5800000019}},{"attributes":{"ID":57686,"DIS_CODE":0,"TOWNNAME":"安南區","LI":"\u25A0田里","LIN":"1鄰","STREET":"\u25A0田路","SECT":" ","MAREA":" ","LANE":"３９５巷","ALLEY":"１弄","HOUSE_NO":"２６號","E_COORD97":161879.06,"N_COORD97":2548101.46,"ADDRESS":"\u25A0田路３９５巷１弄２６號","OBJECTID":57686},"geometry":{"x":161879.05999999959,"y":2548101.4600000028}},{"attributes":{"ID":57687,"DIS_CODE":0,"TOWNNAME":"白河區","LI":"秀祐里","LIN":"1鄰","STREET":" ","SECT":" ","MAREA":"頂秀祐","LANE":" ","ALLEY":" ","HOUSE_NO":"８號","E_COORD97":188996.42000000001,"N_COORD97":2583362.6800000002,"ADDRESS":"頂秀祐８號","OBJECTID":57687},"geometry":{"x":188996.41999999993,"y":2583362.6800000016}},{"attributes":{"ID":57688,"DIS_CODE":0,"TOWNNAME":"白河區","LI":"玉豐里","LIN":"1鄰","STREET":" ","SECT":" ","MAREA":"頂崁頭","LANE":" ","ALLEY":" ","HOUSE_NO":"１０號","E_COORD97":191062.35000000001,"N_COORD97":2586938.6499999999,"ADDRESS":"頂崁頭１０號","OBJECTID":57688},"geometry":{"x":191062.35000000056,"y":2586938.6500000004}},{"attributes":{"ID":57689,"DIS_CODE":0,"TOWNNAME":"白河區","LI":"玉豐里","LIN":"1鄰","STREET":" ","SECT":" ","MAREA":"頂崁頭","LANE":" ","ALLEY":" ","HOUSE_NO":"２號","E_COORD97":191083.14999999999,"N_COORD97":2587112.9199999999,"ADDRESS":"頂崁頭２號","OBJECTID":57689},"geometry":{"x":191083.1500000013,"y":2587112.9200000037}},{"attributes":{"ID":57690,"DIS_CODE":0,"TOWNNAME":"白河區","LI":"玉豐里","LIN":"1鄰","STREET":" ","SECT":" ","MAREA":"頂崁頭","LANE":" ","ALLEY":" ","HOUSE_NO":"３號","E_COORD97":191092.92000000001,"N_COORD97":2587101.9700000002,"ADDRESS":"頂崁頭３號","OBJECTID":57690},"geometry":{"x":191092.91999999993,"y":2587101.9700000007}},{"attributes":{"ID":57691,"DIS_CODE":0,"TOWNNAME":"安南區","LI":"\u25A0田里","LIN":"1鄰","STREET":"\u25A0田路","SECT":" ","MAREA":" ","LANE":"３９５巷","ALLEY":"１弄","HOUSE_NO":"２２號","E_COORD97":161873.89999999999,"N_COORD97":2548101.0600000001,"ADDRESS":"\u25A0田路３９５巷１弄２２號","OBJECTID":57691},"geometry":{"x":161873.90000000037,"y":2548101.0600000024}},{"attributes":{"ID":57692,"DIS_CODE":0,"TOWNNAME":"安南區","LI":"\u25A0田里","LIN":"1鄰","STREET":"\u25A0田路","SECT":" ","MAREA":" ","LANE":"３９５巷","ALLEY":"１弄","HOUSE_NO":"２０號","E_COORD97":161869.14000000001,"N_COORD97":2548102.1200000001,"ADDRESS":"\u25A0田路３９５巷１弄２０號","OBJECTID":57692},"geometry":{"x":161869.1400000006,"y":2548102.120000001}},{"attributes":{"ID":57693,"DIS_CODE":0,"TOWNNAME":"白河區","LI":"玉豐里","LIN":"1鄰","STREET":" ","SECT":" ","MAREA":"頂崁頭","LANE":" ","ALLEY":" ","HOUSE_NO":"８號","E_COORD97":191083.29999999999,"N_COORD97":2586874.0699999998,"ADDRESS":"頂崁頭８號","OBJECTID":57693},"geometry":{"x":191083.30000000075,"y":2586874.0700000003}},{"attributes":{"ID":57694,"DIS_CODE":0,"TOWNNAME":"安南區","LI":"\u25A0田里","LIN":"1鄰","STREET":"\u25A0田路","SECT":" ","MAREA":" ","LANE":"３９５巷","ALLEY":"３弄","HOUSE_NO":"４０號","E_COORD97":161909.75,"N_COORD97":2548087.1699999999,"ADDRESS":"\u25A0田路３９５巷３弄４０號","OBJECTID":57694},"geometry":{"x":161909.75,"y":2548087.1699999999}},{"attributes":{"ID":57695,"DIS_CODE":0,"TOWNNAME":"安南區","LI":"\u25A0田里","LIN":"1鄰","STREET":"\u25A0田路","SECT":" ","MAREA":" ","LANE":"３９５巷","ALLEY":"３弄","HOUSE_NO":"３８號","E_COORD97":161905.92000000001,"N_COORD97":2548087.8300000001,"ADDRESS":"\u25A0田路３９５巷３弄３８號","OBJECTID":57695},"geometry":{"x":161905.92000000179,"y":2548087.8300000019}},{"attributes":{"ID":57696,"DIS_CODE":0,"TOWNNAME":"白河區","LI":"玉豐里","LIN":"1鄰","STREET":" ","SECT":" ","MAREA":"頂崁頭","LANE":" ","ALLEY":" ","HOUSE_NO":"９號","E_COORD97":191070.29000000001,"N_COORD97":2586905.5099999998,"ADDRESS":"頂崁頭９號","OBJECTID":57696},"geometry":{"x":191070.29000000004,"y":2586905.5100000035}},{"attributes":{"ID":57697,"DIS_CODE":0,"TOWNNAME":"白河區","LI":"詔安里","LIN":"1鄰","STREET":" ","SECT":" ","MAREA":"詔安厝","LANE":" ","ALLEY":" ","HOUSE_NO":"１３號","E_COORD97":189928.37,"N_COORD97":2588073.6400000001,"ADDRESS":"詔安厝１３號","OBJECTID":57697},"geometry":{"x":189928.37000000104,"y":2588073.6400000006}},{"attributes":{"ID":57698,"DIS_CODE":0,"TOWNNAME":"安南區","LI":"\u25A0田里","LIN":"1鄰","STREET":"\u25A0田路","SECT":" ","MAREA":" ","LANE":"３９５巷","ALLEY":"３弄","HOUSE_NO":"３６號","E_COORD97":161901.95000000001,"N_COORD97":2548087.1699999999,"ADDRESS":"\u25A0田路３９５巷３弄３６號","OBJECTID":57698},"geometry":{"x":161901.95000000019,"y":2548087.1699999999}},{"attributes":{"ID":57699,"DIS_CODE":0,"TOWNNAME":"安南區","LI":"\u25A0田里","LIN":"1鄰","STREET":"\u25A0田路","SECT":" ","MAREA":" ","LANE":"３９５巷","ALLEY":"３弄","HOUSE_NO":"３２號","E_COORD97":161897.04999999999,"N_COORD97":2548087.5699999998,"ADDRESS":"\u25A0田路３９５巷３弄３２號","OBJECTID":57699},"geometry":{"x":161897.05000000075,"y":2548087.5700000003}},{"attributes":{"ID":57700,"DIS_CODE":0,"TOWNNAME":"安南區","LI":"\u25A0田里","LIN":"1鄰","STREET":"\u25A0田路","SECT":" ","MAREA":" ","LANE":"３９５巷","ALLEY":"３弄","HOUSE_NO":"３０號","E_COORD97":161892.16,"N_COORD97":2548086.8999999999,"ADDRESS":"\u25A0田路３９５巷３弄３０號","OBJECTID":57700},"geometry":{"x":161892.16000000015,"y":2548086.9000000041}},{"attributes":{"ID":57701,"DIS_CODE":0,"TOWNNAME":"白河區","LI":"詔安里","LIN":"1鄰","STREET":" ","SECT":" ","MAREA":"詔安厝","LANE":" ","ALLEY":" ","HOUSE_NO":"１０號","E_COORD97":189953.14000000001,"N_COORD97":2588043.8500000001,"ADDRESS":"詔安厝１０號","OBJECTID":57701},"geometry":{"x":189953.1400000006,"y":2588043.8500000015}},{"attributes":{"ID":57702,"DIS_CODE":0,"TOWNNAME":"安南區","LI":"\u25A0田里","LIN":"1鄰","STREET":"\u25A0田路","SECT":" ","MAREA":" ","LANE":"３９５巷","ALLEY":"３弄","HOUSE_NO":"２８號","E_COORD97":161888.59,"N_COORD97":2548087.04,"ADDRESS":"\u25A0田路３９５巷３弄２８號","OBJECTID":57702},"geometry":{"x":161888.59000000078,"y":2548087.0399999991}},{"attributes":{"ID":57703,"DIS_CODE":0,"TOWNNAME":"白河區","LI":"詔安里","LIN":"1鄰","STREET":" ","SECT":" ","MAREA":"詔安厝","LANE":" ","ALLEY":" ","HOUSE_NO":"１１之１號","E_COORD97":189938.98999999999,"N_COORD97":2588055.1099999999,"ADDRESS":"詔安厝１１之１號","OBJECTID":57703},"geometry":{"x":189938.99000000022,"y":2588055.1100000013}},{"attributes":{"ID":57704,"DIS_CODE":0,"TOWNNAME":"白河區","LI":"詔安里","LIN":"1鄰","STREET":" ","SECT":" ","MAREA":"詔安厝","LANE":" ","ALLEY":" ","HOUSE_NO":"１１號","E_COORD97":189943.87,"N_COORD97":2588049.5600000001,"ADDRESS":"詔安厝１１號","OBJECTID":57704},"geometry":{"x":189943.87000000104,"y":2588049.5600000024}},{"attributes":{"ID":57705,"DIS_CODE":0,"TOWNNAME":"白河區","LI":"詔安里","LIN":"1鄰","STREET":" ","SECT":" ","MAREA":"詔安厝","LANE":" ","ALLEY":" ","HOUSE_NO":"１２５之１９號","E_COORD97":190330.54999999999,"N_COORD97":2588817.7599999998,"ADDRESS":"詔安厝１２５之１９號","OBJECTID":57705},"geometry":{"x":190330.55000000075,"y":2588817.7599999998}},{"attributes":{"ID":57706,"DIS_CODE":0,"TOWNNAME":"安南區","LI":"\u25A0田里","LIN":"1鄰","STREET":"\u25A0田路","SECT":" ","MAREA":" ","LANE":"３９５巷","ALLEY":"３弄","HOUSE_NO":"２６號","E_COORD97":161884.75,"N_COORD97":2548086.8999999999,"ADDRESS":"\u25A0田路３９５巷３弄２６號","OBJECTID":57706},"geometry":{"x":161884.75,"y":2548086.9000000041}},{"attributes":{"ID":57707,"DIS_CODE":0,"TOWNNAME":"白河區","LI":"詔安里","LIN":"1鄰","STREET":" ","SECT":" ","MAREA":"詔安厝","LANE":" ","ALLEY":" ","HOUSE_NO":"１２５之１號","E_COORD97":190401.82000000001,"N_COORD97":2588712.7400000002,"ADDRESS":"詔安厝１２５之１號","OBJECTID":57707},"geometry":{"x":190401.82000000123,"y":2588712.7400000021}},{"attributes":{"ID":57708,"DIS_CODE":0,"TOWNNAME":"安南區","LI":"\u25A0田里","LIN":"1鄰","STREET":"\u25A0田路","SECT":" ","MAREA":" ","LANE":"３９５巷","ALLEY":"３弄","HOUSE_NO":"２２號","E_COORD97":161881.04999999999,"N_COORD97":2548087.5699999998,"ADDRESS":"\u25A0田路３９５巷３弄２２號","OBJECTID":57708},"geometry":{"x":161881.04999999981,"y":2548087.5700000003}},{"attributes":{"ID":57709,"DIS_CODE":0,"TOWNNAME":"白河區","LI":"詔安里","LIN":"1鄰","STREET":" ","SECT":" ","MAREA":"詔安厝","LANE":" ","ALLEY":" ","HOUSE_NO":"１２５號","E_COORD97":190411.06,"N_COORD97":2588678.4900000002,"ADDRESS":"詔安厝１２５號","OBJECTID":57709},"geometry":{"x":190411.06000000145,"y":2588678.4900000002}},{"attributes":{"ID":57710,"DIS_CODE":0,"TOWNNAME":"白河區","LI":"詔安里","LIN":"1鄰","STREET":" ","SECT":" ","MAREA":"詔安厝","LANE":" ","ALLEY":" ","HOUSE_NO":"１２號","E_COORD97":189914.56,"N_COORD97":2588045.75,"ADDRESS":"詔安厝１２號","OBJECTID":57710},"geometry":{"x":189914.56000000052,"y":2588045.75}},{"attributes":{"ID":57711,"DIS_CODE":0,"TOWNNAME":"安定區","LI":"中沙里","LIN":"6鄰","STREET":" ","SECT":" ","MAREA":"沙崙","LANE":" ","ALLEY":" ","HOUSE_NO":"１５號","E_COORD97":168518.621988,"N_COORD97":2552251.4553100001,"ADDRESS":"沙崙１５號","OBJECTID":57711},"geometry":{"x":168518.62198800035,"y":2552251.4553120006}},{"attributes":{"ID":57712,"DIS_CODE":0,"TOWNNAME":"白河區","LI":"詔安里","LIN":"1鄰","STREET":" ","SECT":" ","MAREA":"詔安厝","LANE":" ","ALLEY":" ","HOUSE_NO":"１之１１號","E_COORD97":190067.54000000001,"N_COORD97":2588019.7000000002,"ADDRESS":"詔安厝１之１１號","OBJECTID":57712},"geometry":{"x":190067.5400000019,"y":2588019.7000000011}},{"attributes":{"ID":57713,"DIS_CODE":0,"TOWNNAME":"安南區","LI":"\u25A0田里","LIN":"1鄰","STREET":"\u25A0田路","SECT":" ","MAREA":" ","LANE":"３９５巷","ALLEY":"３弄","HOUSE_NO":"２０號","E_COORD97":161875.62,"N_COORD97":2548087.8300000001,"ADDRESS":"\u25A0田路３９５巷３弄２０號","OBJECTID":57713},"geometry":{"x":161875.62000000011,"y":2548087.8300000019}},{"attributes":{"ID":57714,"DIS_CODE":0,"TOWNNAME":"歸仁區","LI":"西埔里","LIN":"8鄰","STREET":"保大路","SECT":"二段","MAREA":" ","LANE":" ","ALLEY":" ","HOUSE_NO":"３０４號","E_COORD97":176550.47,"N_COORD97":2544185.2799999998,"ADDRESS":"保大路二段３０４號","OBJECTID":57714},"geometry":{"x":176550.47000000067,"y":2544185.2800000012}},{"attributes":{"ID":57715,"DIS_CODE":0,"TOWNNAME":"歸仁區","LI":"八甲里","LIN":"8鄰","STREET":"大明街","SECT":" ","MAREA":" ","LANE":" ","ALLEY":" ","HOUSE_NO":"４２號","E_COORD97":177890.17000000001,"N_COORD97":2541858.6099999999,"ADDRESS":"大明街４２號","OBJECTID":57715},"geometry":{"x":177890.17000000086,"y":2541858.6099999994}},{"attributes":{"ID":57716,"DIS_CODE":0,"TOWNNAME":"楠西區","LI":"照興里","LIN":"8鄰","STREET":" ","SECT":" ","MAREA":"興北","LANE":" ","ALLEY":" ","HOUSE_NO":"１０５號","E_COORD97":197008.51999999999,"N_COORD97":2565729.25,"ADDRESS":"興北１０５號","OBJECTID":57716},"geometry":{"x":197008.51999999955,"y":2565729.2500000019}},{"attributes":{"ID":57717,"DIS_CODE":0,"TOWNNAME":"楠西區","LI":"照興里","LIN":"8鄰","STREET":" ","SECT":" ","MAREA":"興北","LANE":" ","ALLEY":" ","HOUSE_NO":"１０４號","E_COORD97":197027.42000000001,"N_COORD97":2565765.25,"ADDRESS":"興北１０４號","OBJECTID":57717},"geometry":{"x":197027.42000000086,"y":2565765.2500000037}},{"attributes":{"ID":57718,"DIS_CODE":0,"TOWNNAME":"楠西區","LI":"照興里","LIN":"8鄰","STREET":" ","SECT":" ","MAREA":"興北","LANE":" ","ALLEY":" ","HOUSE_NO":"９６號之６","E_COORD97":197339.51000000001,"N_COORD97":2565878.2999999998,"ADDRESS":"興北９６號之６","OBJECTID":57718},"geometry":{"x":197339.50999999978,"y":2565878.3000000026}},{"attributes":{"ID":57719,"DIS_CODE":0,"TOWNNAME":"楠西區","LI":"密枝里","LIN":"8鄰","STREET":" ","SECT":" ","MAREA":"密枝","LANE":" ","ALLEY":" ","HOUSE_NO":"８４號","E_COORD97":198729.47,"N_COORD97":2568922.2799999998,"ADDRESS":"密枝８４號","OBJECTID":57719},"geometry":{"x":198729.46999999974,"y":2568922.2799999993}},{"attributes":{"ID":57720,"DIS_CODE":0,"TOWNNAME":"楠西區","LI":"照興里","LIN":"8鄰","STREET":" ","SECT":" ","MAREA":"興北","LANE":" ","ALLEY":" ","HOUSE_NO":"１０１號","E_COORD97":197075.22,"N_COORD97":2565738.25,"ADDRESS":"興北１０１號","OBJECTID":57720},"geometry":{"x":197075.21999999974,"y":2565738.2500000019}},{"attributes":{"ID":57721,"DIS_CODE":0,"TOWNNAME":"楠西區","LI":"鹿田里","LIN":"8鄰","STREET":" ","SECT":" ","MAREA":"油車","LANE":" ","ALLEY":" ","HOUSE_NO":"２７號","E_COORD97":197987.44,"N_COORD97":2562128.25,"ADDRESS":"油車２７號","OBJECTID":57721},"geometry":{"x":197987.44000000134,"y":2562128.2500000019}},{"attributes":{"ID":57722,"DIS_CODE":0,"TOWNNAME":"楠西區","LI":"密枝里","LIN":"8鄰","STREET":" ","SECT":" ","MAREA":"密枝","LANE":" ","ALLEY":" ","HOUSE_NO":"９２號","E_COORD97":198797.37,"N_COORD97":2568959.2799999998,"ADDRESS":"密枝９２號","OBJECTID":57722},"geometry":{"x":198797.37000000104,"y":2568959.2800000012}},{"attributes":{"ID":57723,"DIS_CODE":0,"TOWNNAME":"楠西區","LI":"鹿田里","LIN":"8鄰","STREET":" ","SECT":" ","MAREA":"油車","LANE":" ","ALLEY":" ","HOUSE_NO":"２４號","E_COORD97":198024.04000000001,"N_COORD97":2562118.25,"ADDRESS":"油車２４號","OBJECTID":57723},"geometry":{"x":198024.04000000004,"y":2562118.2500000019}},{"attributes":{"ID":57724,"DIS_CODE":0,"TOWNNAME":"楠西區","LI":"密枝里","LIN":"8鄰","STREET":" ","SECT":" ","MAREA":"密枝","LANE":" ","ALLEY":" ","HOUSE_NO":"８５號之２","E_COORD97":198662.73999999999,"N_COORD97":2568981.2999999998,"ADDRESS":"密枝８５號之２","OBJECTID":57724},"geometry":{"x":198662.74000000115,"y":2568981.3000000007}},{"attributes":{"ID":57725,"DIS_CODE":0,"TOWNNAME":"楠西區","LI":"密枝里","LIN":"8鄰","STREET":" ","SECT":" ","MAREA":"密枝","LANE":" ","ALLEY":" ","HOUSE_NO":"９７號之１","E_COORD97":198775.20000000001,"N_COORD97":2568937.2999999998,"ADDRESS":"密枝９７號之１","OBJECTID":57725},"geometry":{"x":198775.20000000112,"y":2568937.3000000007}},{"attributes":{"ID":57726,"DIS_CODE":0,"TOWNNAME":"楠西區","LI":"鹿田里","LIN":"8鄰","STREET":" ","SECT":" ","MAREA":"油車","LANE":" ","ALLEY":" ","HOUSE_NO":"２３號之６","E_COORD97":197998.07999999999,"N_COORD97":2562079.2999999998,"ADDRESS":"油車２３號之６","OBJECTID":57726},"geometry":{"x":197998.08000000101,"y":2562079.3000000007}},{"attributes":{"ID":57727,"DIS_CODE":0,"TOWNNAME":"安南區","LI":"\u25A0田里","LIN":"1鄰","STREET":"\u25A0田路","SECT":" ","MAREA":" ","LANE":"３９５巷","ALLEY":"３弄","HOUSE_NO":"１８號","E_COORD97":161870.98999999999,"N_COORD97":2548088.1000000001,"ADDRESS":"\u25A0田路３９５巷３弄１８號","OBJECTID":57727},"geometry":{"x":161870.99000000115,"y":2548088.0999999978}},{"attributes":{"ID":57728,"DIS_CODE":0,"TOWNNAME":"仁德區","LI":"上崙里","LIN":"1鄰","STREET":"德崙路","SECT":" ","MAREA":" ","LANE":"７７巷","ALLEY":"１２０弄","HOUSE_NO":"３號","E_COORD97":173721.78,"N_COORD97":2538391.0899999999,"ADDRESS":"德崙路７７巷１２０弄３號","OBJECTID":57728},"geometry":{"x":173721.78000000119,"y":2538391.0899999999}},{"attributes":{"ID":57729,"DIS_CODE":0,"TOWNNAME":"仁德區","LI":"上崙里","LIN":"1鄰","STREET":"德崙路","SECT":" ","MAREA":" ","LANE":"７７巷","ALLEY":"１１４弄","HOUSE_NO":"１號","E_COORD97":173693.35999999999,"N_COORD97":2538446.52,"ADDRESS":"德崙路７７巷１１４弄１號","OBJECTID":57729},"geometry":{"x":173693.3599999994,"y":2538446.5200000033}},{"attributes":{"ID":57730,"DIS_CODE":0,"TOWNNAME":"楠西區","LI":"密枝里","LIN":"8鄰","STREET":" ","SECT":" ","MAREA":"密枝","LANE":" ","ALLEY":" ","HOUSE_NO":"９３號","E_COORD97":198801.37,"N_COORD97":2568956.2799999998,"ADDRESS":"密枝９３號","OBJECTID":57730},"geometry":{"x":198801.37000000104,"y":2568956.2799999993}},{"attributes":{"ID":57731,"DIS_CODE":0,"TOWNNAME":"楠西區","LI":"鹿田里","LIN":"8鄰","STREET":" ","SECT":" ","MAREA":"油車","LANE":" ","ALLEY":" ","HOUSE_NO":"２６號","E_COORD97":197990.54000000001,"N_COORD97":2562121.25,"ADDRESS":"油車２６號","OBJECTID":57731},"geometry":{"x":197990.54000000004,"y":2562121.2500000019}},{"attributes":{"ID":57732,"DIS_CODE":0,"TOWNNAME":"白河區","LI":"詔安里","LIN":"1鄰","STREET":" ","SECT":" ","MAREA":"詔安厝","LANE":" ","ALLEY":" ","HOUSE_NO":"１之１５號","E_COORD97":190045.79000000001,"N_COORD97":2588042.0600000001,"ADDRESS":"詔安厝１之１５號","OBJECTID":57732},"geometry":{"x":190045.79000000097,"y":2588042.0600000024}},{"attributes":{"ID":57733,"DIS_CODE":0,"TOWNNAME":"白河區","LI":"詔安里","LIN":"1鄰","STREET":" ","SECT":" ","MAREA":"詔安厝","LANE":" ","ALLEY":" ","HOUSE_NO":"１之１６號","E_COORD97":190056.22,"N_COORD97":2588066.1299999999,"ADDRESS":"詔安厝１之１６號","OBJECTID":57733},"geometry":{"x":190056.22000000067,"y":2588066.129999999}},{"attributes":{"ID":57734,"DIS_CODE":0,"TOWNNAME":"白河區","LI":"詔安里","LIN":"1鄰","STREET":" ","SECT":" ","MAREA":"詔安厝","LANE":" ","ALLEY":" ","HOUSE_NO":"１之１號","E_COORD97":190026.12,"N_COORD97":2588031.1400000001,"ADDRESS":"詔安厝１之１號","OBJECTID":57734},"geometry":{"x":190026.12000000011,"y":2588031.1400000043}},{"attributes":{"ID":57735,"DIS_CODE":0,"TOWNNAME":"白河區","LI":"詔安里","LIN":"1鄰","STREET":" ","SECT":" ","MAREA":"詔安厝","LANE":" ","ALLEY":" ","HOUSE_NO":"１之２６號","E_COORD97":190084.84,"N_COORD97":2588092.1200000001,"ADDRESS":"詔安厝１之２６號","OBJECTID":57735},"geometry":{"x":190084.83999999985,"y":2588092.120000001}},{"attributes":{"ID":57736,"DIS_CODE":0,"TOWNNAME":"白河區","LI":"詔安里","LIN":"1鄰","STREET":" ","SECT":" ","MAREA":"詔安厝","LANE":" ","ALLEY":" ","HOUSE_NO":"１之２８號","E_COORD97":190080.03,"N_COORD97":2588156.9700000002,"ADDRESS":"詔安厝１之２８號","OBJECTID":57736},"geometry":{"x":190080.03000000119,"y":2588156.9700000007}},{"attributes":{"ID":57737,"DIS_CODE":0,"TOWNNAME":"白河區","LI":"詔安里","LIN":"1鄰","STREET":" ","SECT":" ","MAREA":"詔安厝","LANE":" ","ALLEY":" ","HOUSE_NO":"１之３６號","E_COORD97":190221.95000000001,"N_COORD97":2587981.52,"ADDRESS":"詔安厝１之３６號","OBJECTID":57737},"geometry":{"x":190221.95000000019,"y":2587981.5200000014}},{"attributes":{"ID":57738,"DIS_CODE":0,"TOWNNAME":"白河區","LI":"詔安里","LIN":"1鄰","STREET":" ","SECT":" ","MAREA":"詔安厝","LANE":" ","ALLEY":" ","HOUSE_NO":"１之３７號","E_COORD97":190215.73000000001,"N_COORD97":2587981.5800000001,"ADDRESS":"詔安厝１之３７號","OBJECTID":57738},"geometry":{"x":190215.73000000231,"y":2587981.5800000019}},{"attributes":{"ID":57739,"DIS_CODE":0,"TOWNNAME":"白河區","LI":"詔安里","LIN":"1鄰","STREET":" ","SECT":" ","MAREA":"詔安厝","LANE":" ","ALLEY":" ","HOUSE_NO":"１之３號","E_COORD97":190010.76999999999,"N_COORD97":2588128.71,"ADDRESS":"詔安厝１之３號","OBJECTID":57739},"geometry":{"x":190010.76999999955,"y":2588128.7100000009}},{"attributes":{"ID":57740,"DIS_CODE":0,"TOWNNAME":"白河區","LI":"詔安里","LIN":"1鄰","STREET":" ","SECT":" ","MAREA":"詔安厝","LANE":" ","ALLEY":" ","HOUSE_NO":"１之５號","E_COORD97":190038.39999999999,"N_COORD97":2587986.8599999999,"ADDRESS":"詔安厝１之５號","OBJECTID":57740},"geometry":{"x":190038.4000000013,"y":2587986.8599999994}},{"attributes":{"ID":57741,"DIS_CODE":0,"TOWNNAME":"楠西區","LI":"密枝里","LIN":"8鄰","STREET":" ","SECT":" ","MAREA":"密枝","LANE":" ","ALLEY":" ","HOUSE_NO":"９７號","E_COORD97":198768.17000000001,"N_COORD97":2568938.2799999998,"ADDRESS":"密枝９７號","OBJECTID":57741},"geometry":{"x":198768.17000000086,"y":2568938.2800000012}},{"attributes":{"ID":57742,"DIS_CODE":0,"TOWNNAME":"楠西區","LI":"密枝里","LIN":"8鄰","STREET":" ","SECT":" ","MAREA":"密枝","LANE":" ","ALLEY":" ","HOUSE_NO":"９４號","E_COORD97":198804.76999999999,"N_COORD97":2568954.2799999998,"ADDRESS":"密枝９４號","OBJECTID":57742},"geometry":{"x":198804.77000000048,"y":2568954.2799999975}},{"attributes":{"ID":57743,"DIS_CODE":0,"TOWNNAME":"楠西區","LI":"密枝里","LIN":"8鄰","STREET":" ","SECT":" ","MAREA":"密枝","LANE":" ","ALLEY":" ","HOUSE_NO":"９６號","E_COORD97":198812.76999999999,"N_COORD97":2568950.2799999998,"ADDRESS":"密枝９６號","OBJECTID":57743},"geometry":{"x":198812.77000000048,"y":2568950.2799999993}},{"attributes":{"ID":57744,"DIS_CODE":0,"TOWNNAME":"仁德區","LI":"新田里","LIN":"1鄰","STREET":"新田二街","SECT":" ","MAREA":" ","LANE":"１１６巷","ALLEY":"２５弄","HOUSE_NO":"１００號","E_COORD97":175205.95999999999,"N_COORD97":2539788.75,"ADDRESS":"新田二街１１６巷２５弄１００號","OBJECTID":57744},"geometry":{"x":175205.95999999996,"y":2539788.7500000019}},{"attributes":{"ID":57745,"DIS_CODE":0,"TOWNNAME":"楠西區","LI":"照興里","LIN":"8鄰","STREET":" ","SECT":" ","MAREA":"興北","LANE":" ","ALLEY":" ","HOUSE_NO":"９９號之８","E_COORD97":197286.25,"N_COORD97":2565879.2999999998,"ADDRESS":"興北９９號之８","OBJECTID":57745},"geometry":{"x":197286.25000000093,"y":2565879.3000000007}},{"attributes":{"ID":57746,"DIS_CODE":0,"TOWNNAME":"楠西區","LI":"照興里","LIN":"8鄰","STREET":" ","SECT":" ","MAREA":"興北","LANE":" ","ALLEY":" ","HOUSE_NO":"１０７號之１","E_COORD97":196925.75,"N_COORD97":2565701.2999999998,"ADDRESS":"興北１０７號之１","OBJECTID":57746},"geometry":{"x":196925.75,"y":2565701.3000000045}},{"attributes":{"ID":57747,"DIS_CODE":0,"TOWNNAME":"楠西區","LI":"照興里","LIN":"8鄰","STREET":" ","SECT":" ","MAREA":"興北","LANE":" ","ALLEY":" ","HOUSE_NO":"１０７號","E_COORD97":196930.82000000001,"N_COORD97":2565700.25,"ADDRESS":"興北１０７號","OBJECTID":57747},"geometry":{"x":196930.8200000003,"y":2565700.25}},{"attributes":{"ID":57748,"DIS_CODE":0,"TOWNNAME":"楠西區","LI":"照興里","LIN":"8鄰","STREET":" ","SECT":" ","MAREA":"興北","LANE":" ","ALLEY":" ","HOUSE_NO":"９６號之２","E_COORD97":197301.54000000001,"N_COORD97":2565760.2999999998,"ADDRESS":"興北９６號之２","OBJECTID":57748},"geometry":{"x":197301.54000000097,"y":2565760.3000000026}},{"attributes":{"ID":57749,"DIS_CODE":0,"TOWNNAME":"仁德區","LI":"上崙里","LIN":"1鄰","STREET":"德崙路","SECT":" ","MAREA":" ","LANE":"１７５巷","ALLEY":"５弄","HOUSE_NO":"２之１號","E_COORD97":173622.89000000001,"N_COORD97":2538361.5499999998,"ADDRESS":"德崙路１７５巷５弄２之１號","OBJECTID":57749},"geometry":{"x":173622.88999999966,"y":2538361.5500000007}},{"attributes":{"ID":57750,"DIS_CODE":0,"TOWNNAME":"楠西區","LI":"照興里","LIN":"8鄰","STREET":" ","SECT":" ","MAREA":"興北","LANE":" ","ALLEY":" ","HOUSE_NO":"９６號","E_COORD97":197333.87,"N_COORD97":2565841.25,"ADDRESS":"興北９６號","OBJECTID":57750},"geometry":{"x":197333.87000000011,"y":2565841.2500000019}},{"attributes":{"ID":57751,"DIS_CODE":0,"TOWNNAME":"楠西區","LI":"照興里","LIN":"8鄰","STREET":" ","SECT":" ","MAREA":"興北","LANE":" ","ALLEY":" ","HOUSE_NO":"１０２號","E_COORD97":197054.32000000001,"N_COORD97":2565705.25,"ADDRESS":"興北１０２號","OBJECTID":57751},"geometry":{"x":197054.3200000003,"y":2565705.2500000019}},{"attributes":{"ID":57752,"DIS_CODE":0,"TOWNNAME":"楠西區","LI":"鹿田里","LIN":"8鄰","STREET":" ","SECT":" ","MAREA":"油車","LANE":" ","ALLEY":" ","HOUSE_NO":"２３號之５","E_COORD97":197990.53,"N_COORD97":2562076.2999999998,"ADDRESS":"油車２３號之５","OBJECTID":57752},"geometry":{"x":197990.53000000026,"y":2562076.3000000007}},{"attributes":{"ID":57753,"DIS_CODE":0,"TOWNNAME":"楠西區","LI":"照興里","LIN":"8鄰","STREET":" ","SECT":" ","MAREA":"興北","LANE":" ","ALLEY":" ","HOUSE_NO":"１０３號","E_COORD97":197022.01999999999,"N_COORD97":2565794.25,"ADDRESS":"興北１０３號","OBJECTID":57753},"geometry":{"x":197022.01999999955,"y":2565794.25}},{"attributes":{"ID":57754,"DIS_CODE":0,"TOWNNAME":"楠西區","LI":"照興里","LIN":"8鄰","STREET":" ","SECT":" ","MAREA":"興北","LANE":" ","ALLEY":" ","HOUSE_NO":"９６號之５","E_COORD97":197236.26000000001,"N_COORD97":2565808.2999999998,"ADDRESS":"興北９６號之５","OBJECTID":57754},"geometry":{"x":197236.25999999885,"y":2565808.3000000007}},{"attributes":{"ID":57755,"DIS_CODE":0,"TOWNNAME":"楠西區","LI":"鹿田里","LIN":"8鄰","STREET":" ","SECT":" ","MAREA":"油車","LANE":" ","ALLEY":" ","HOUSE_NO":"２３號之２","E_COORD97":197984.70999999999,"N_COORD97":2562095.2999999998,"ADDRESS":"油車２３號之２","OBJECTID":57755},"geometry":{"x":197984.71000000089,"y":2562095.3000000026}},{"attributes":{"ID":57756,"DIS_CODE":0,"TOWNNAME":"楠西區","LI":"龜丹里","LIN":"8鄰","STREET":" ","SECT":" ","MAREA":"龜丹","LANE":" ","ALLEY":" ","HOUSE_NO":"１０３號","E_COORD97":198266.59,"N_COORD97":2560333.25,"ADDRESS":"龜丹１０３號","OBJECTID":57756},"geometry":{"x":198266.59000000171,"y":2560333.25}},{"attributes":{"ID":57757,"DIS_CODE":0,"TOWNNAME":"楠西區","LI":"灣丘里","LIN":"8鄰","STREET":" ","SECT":" ","MAREA":"灣丘","LANE":" ","ALLEY":" ","HOUSE_NO":"８６號","E_COORD97":201458.67000000001,"N_COORD97":2564587.25,"ADDRESS":"灣丘８６號","OBJECTID":57757},"geometry":{"x":201458.67000000086,"y":2564587.25}},{"attributes":{"ID":57758,"DIS_CODE":0,"TOWNNAME":"仁德區","LI":"新田里","LIN":"1鄰","STREET":"新田二街","SECT":" ","MAREA":" ","LANE":"１３８巷","ALLEY":"２０弄","HOUSE_NO":"５號","E_COORD97":174997.95000000001,"N_COORD97":2540018.1200000001,"ADDRESS":"新田二街１３８巷２０弄５號","OBJECTID":57758},"geometry":{"x":174997.95000000205,"y":2540018.1200000029}},{"attributes":{"ID":57759,"DIS_CODE":0,"TOWNNAME":"仁德區","LI":"新田里","LIN":"1鄰","STREET":"新田二街","SECT":" ","MAREA":" ","LANE":"１２０巷","ALLEY":"２２弄","HOUSE_NO":"２７號","E_COORD97":175020.51000000001,"N_COORD97":2539967.2400000002,"ADDRESS":"新田二街１２０巷２２弄２７號","OBJECTID":57759},"geometry":{"x":175020.50999999978,"y":2539967.2400000002}},{"attributes":{"ID":57760,"DIS_CODE":0,"TOWNNAME":"楠西區","LI":"密枝里","LIN":"8鄰","STREET":" ","SECT":" ","MAREA":"密枝","LANE":" ","ALLEY":" ","HOUSE_NO":"１１４號","E_COORD97":198971.92000000001,"N_COORD97":2568887.2799999998,"ADDRESS":"密枝１１４號","OBJECTID":57760},"geometry":{"x":198971.92000000086,"y":2568887.2800000012}},{"attributes":{"ID":57761,"DIS_CODE":0,"TOWNNAME":"楠西區","LI":"龜丹里","LIN":"8鄰","STREET":" ","SECT":" ","MAREA":"龜丹","LANE":" ","ALLEY":" ","HOUSE_NO":"１０８號","E_COORD97":198180.29000000001,"N_COORD97":2560390.25,"ADDRESS":"龜丹１０８號","OBJECTID":57761},"geometry":{"x":198180.29000000004,"y":2560390.25}},{"attributes":{"ID":57762,"DIS_CODE":0,"TOWNNAME":"楠西區","LI":"灣丘里","LIN":"8鄰","STREET":" ","SECT":" ","MAREA":"灣丘","LANE":" ","ALLEY":" ","HOUSE_NO":"８５號","E_COORD97":201473.57000000001,"N_COORD97":2564509.25,"ADDRESS":"灣丘８５號","OBJECTID":57762},"geometry":{"x":201473.57000000123,"y":2564509.25}},{"attributes":{"ID":57763,"DIS_CODE":0,"TOWNNAME":"楠西區","LI":"灣丘里","LIN":"8鄰","STREET":" ","SECT":" ","MAREA":"灣丘","LANE":" ","ALLEY":" ","HOUSE_NO":"８１號","E_COORD97":201204.37,"N_COORD97":2564364.25,"ADDRESS":"灣丘８１號","OBJECTID":57763},"geometry":{"x":201204.37000000197,"y":2564364.25}},{"attributes":{"ID":57764,"DIS_CODE":0,"TOWNNAME":"楠西區","LI":"照興里","LIN":"8鄰","STREET":" ","SECT":" ","MAREA":"興北","LANE":" ","ALLEY":" ","HOUSE_NO":"１０３號之６","E_COORD97":196986.03,"N_COORD97":2565797.8999999999,"ADDRESS":"興北１０３號之６","OBJECTID":57764},"geometry":{"x":196986.03000000119,"y":2565797.9000000004}},{"attributes":{"ID":57765,"DIS_CODE":0,"TOWNNAME":"柳營區","LI":"八翁里","LIN":"8鄰","STREET":" ","SECT":" ","MAREA":"八老爺","LANE":" ","ALLEY":" ","HOUSE_NO":"６６之１號","E_COORD97":178134.04000000001,"N_COORD97":2574687.3999999999,"ADDRESS":"八老爺６６之１號","OBJECTID":57765},"geometry":{"x":178134.04000000097,"y":2574687.4000000004}},{"attributes":{"ID":57766,"DIS_CODE":0,"TOWNNAME":"柳營區","LI":"八翁里","LIN":"8鄰","STREET":" ","SECT":" ","MAREA":"八老爺","LANE":" ","ALLEY":" ","HOUSE_NO":"６６號之１","E_COORD97":178134.04000000001,"N_COORD97":2574687.3999999999,"ADDRESS":"八老爺６６號之１","OBJECTID":57766},"geometry":{"x":178134.04000000097,"y":2574687.4000000004}},{"attributes":{"ID":57767,"DIS_CODE":0,"TOWNNAME":"仁德區","LI":"成功里","LIN":"1鄰","STREET":"保生東路","SECT":" ","MAREA":" ","LANE":"１３８巷","ALLEY":"２８弄","HOUSE_NO":"１２號","E_COORD97":171226.63,"N_COORD97":2539552.1499999999,"ADDRESS":"保生東路１３８巷２８弄１２號","OBJECTID":57767},"geometry":{"x":171226.63000000082,"y":2539552.1500000022}},{"attributes":{"ID":57768,"DIS_CODE":0,"TOWNNAME":"仁德區","LI":"保安里","LIN":"1鄰","STREET":"文賢路","SECT":"一段","MAREA":" ","LANE":"５２９巷","ALLEY":"１３弄","HOUSE_NO":"３號","E_COORD97":171168.37,"N_COORD97":2537121.0800000001,"ADDRESS":"文賢路一段５２９巷１３弄３號","OBJECTID":57768},"geometry":{"x":171168.37000000011,"y":2537121.0800000038}},{"attributes":{"ID":57769,"DIS_CODE":0,"TOWNNAME":"佳里區","LI":"東寧里","LIN":"1鄰","STREET":"新生路","SECT":" ","MAREA":" ","LANE":"１４８巷","ALLEY":"１弄","HOUSE_NO":"２２號","E_COORD97":165742.98999999999,"N_COORD97":2562310.6699999999,"ADDRESS":"新生路１４８巷１弄２２號","OBJECTID":57769},"geometry":{"x":165742.99000000022,"y":2562310.6700000037}},{"attributes":{"ID":57770,"DIS_CODE":0,"TOWNNAME":"永康區","LI":"正強里","LIN":"1鄰","STREET":"中正路","SECT":" ","MAREA":" ","LANE":"１巷","ALLEY":"１弄","HOUSE_NO":"５號","E_COORD97":173738.26999999999,"N_COORD97":2547629.9900000002,"ADDRESS":"中正路１巷１弄５號","OBJECTID":57770},"geometry":{"x":173738.26999999955,"y":2547629.9900000021}},{"attributes":{"ID":57771,"DIS_CODE":0,"TOWNNAME":"永康區","LI":"新樹里","LIN":"1鄰","STREET":"富強路","SECT":"二段","MAREA":" ","LANE":"２７５巷","ALLEY":"２弄","HOUSE_NO":"２號","E_COORD97":175570.57000000001,"N_COORD97":2547457.73,"ADDRESS":"富強路二段２７５巷２弄２號","OBJECTID":57771},"geometry":{"x":175570.57000000123,"y":2547457.7300000042}},{"attributes":{"ID":57772,"DIS_CODE":0,"TOWNNAME":"楠西區","LI":"楠西里","LIN":"8鄰","STREET":"中華路","SECT":" ","MAREA":" ","LANE":" ","ALLEY":" ","HOUSE_NO":"９２號","E_COORD97":197250.94,"N_COORD97":2564164.9100000001,"ADDRESS":"中華路９２號","OBJECTID":57772},"geometry":{"x":197250.93999999948,"y":2564164.910000002}},{"attributes":{"ID":57773,"DIS_CODE":0,"TOWNNAME":"楠西區","LI":"楠西里","LIN":"8鄰","STREET":"中華路","SECT":" ","MAREA":" ","LANE":" ","ALLEY":" ","HOUSE_NO":"８８號","E_COORD97":197197.81,"N_COORD97":2564157.25,"ADDRESS":"中華路８８號","OBJECTID":57773},"geometry":{"x":197197.80999999959,"y":2564157.25}},{"attributes":{"ID":57774,"DIS_CODE":0,"TOWNNAME":"楠西區","LI":"東勢里","LIN":"8鄰","STREET":"東勢路","SECT":" ","MAREA":" ","LANE":" ","ALLEY":" ","HOUSE_NO":"４２號","E_COORD97":197656.72,"N_COORD97":2564070.29,"ADDRESS":"東勢路４２號","OBJECTID":57774},"geometry":{"x":197656.71999999974,"y":2564070.290000001}},{"attributes":{"ID":57775,"DIS_CODE":0,"TOWNNAME":"永康區","LI":"五王里","LIN":"1鄰","STREET":"中華二路","SECT":" ","MAREA":" ","LANE":"２０６巷","ALLEY":"１５弄","HOUSE_NO":"１２號","E_COORD97":171549.67999999999,"N_COORD97":2545513.7599999998,"ADDRESS":"中華二路２０６巷１５弄１２號","OBJECTID":57775},"geometry":{"x":171549.68000000156,"y":2545513.7599999979}},{"attributes":{"ID":57776,"DIS_CODE":0,"TOWNNAME":"永康區","LI":"二王里","LIN":"1鄰","STREET":"二王路","SECT":" ","MAREA":" ","LANE":"２７巷","ALLEY":"１２弄","HOUSE_NO":"２６號","E_COORD97":173054.38,"N_COORD97":2546728.4700000002,"ADDRESS":"二王路２７巷１２弄２６號","OBJECTID":57776},"geometry":{"x":173054.38000000082,"y":2546728.4700000025}},{"attributes":{"ID":57777,"DIS_CODE":0,"TOWNNAME":"安南區","LI":"\u25A0田里","LIN":"1鄰","STREET":"\u25A0田路","SECT":" ","MAREA":" ","LANE":"３９５巷","ALLEY":"３弄","HOUSE_NO":"１６號","E_COORD97":161865.29999999999,"N_COORD97":2548088.8900000001,"ADDRESS":"\u25A0田路３９５巷３弄１６號","OBJECTID":57777},"geometry":{"x":161865.29999999981,"y":2548088.8900000025}},{"attributes":{"ID":57778,"DIS_CODE":0,"TOWNNAME":"安南區","LI":"\u25A0田里","LIN":"1鄰","STREET":"\u25A0田路","SECT":" ","MAREA":" ","LANE":"３９５巷","ALLEY":"３弄","HOUSE_NO":"１２號","E_COORD97":161859.09,"N_COORD97":2548088.8900000001,"ADDRESS":"\u25A0田路３９５巷３弄１２號","OBJECTID":57778},"geometry":{"x":161859.09000000171,"y":2548088.8900000025}},{"attributes":{"ID":57779,"DIS_CODE":0,"TOWNNAME":"安定區","LI":"海寮里","LIN":"1鄰","STREET":" ","SECT":" ","MAREA":"海寮","LANE":" ","ALLEY":" ","HOUSE_NO":"３之１號","E_COORD97":168991.14000000001,"N_COORD97":2555196.2999999998,"ADDRESS":"海寮３之１號","OBJECTID":57779},"geometry":{"x":168991.13999999966,"y":2555196.3000000007}},{"attributes":{"ID":57780,"DIS_CODE":0,"TOWNNAME":"安南區","LI":"\u25A0田里","LIN":"1鄰","STREET":"\u25A0田路","SECT":" ","MAREA":" ","LANE":"３９５巷","ALLEY":"３弄","HOUSE_NO":"１０號","E_COORD97":161852.87,"N_COORD97":2548087.96,"ADDRESS":"\u25A0田路３９５巷３弄１０號","OBJECTID":57780},"geometry":{"x":161852.87000000104,"y":2548087.9600000028}},{"attributes":{"ID":57781,"DIS_CODE":0,"TOWNNAME":"安南區","LI":"\u25A0田里","LIN":"1鄰","STREET":"\u25A0田路","SECT":" ","MAREA":" ","LANE":"３９５巷","ALLEY":"３弄","HOUSE_NO":"８號","E_COORD97":161848.64000000001,"N_COORD97":2548088.23,"ADDRESS":"\u25A0田路３９５巷３弄８號","OBJECTID":57781},"geometry":{"x":161848.6400000006,"y":2548088.2300000042}},{"attributes":{"ID":57782,"DIS_CODE":0,"TOWNNAME":"安南區","LI":"\u25A0田里","LIN":"1鄰","STREET":"\u25A0田路","SECT":" ","MAREA":" ","LANE":"３９５巷","ALLEY":"３弄","HOUSE_NO":"６號","E_COORD97":161843.73999999999,"N_COORD97":2548087.8300000001,"ADDRESS":"\u25A0田路３９５巷３弄６號","OBJECTID":57782},"geometry":{"x":161843.74000000115,"y":2548087.8300000019}},{"attributes":{"ID":57783,"DIS_CODE":0,"TOWNNAME":"永康區","LI":"二王里","LIN":"1鄰","STREET":"二王路","SECT":" ","MAREA":" ","LANE":"２７巷","ALLEY":"２２弄","HOUSE_NO":"３７號","E_COORD97":173101.76433199999,"N_COORD97":2546706.98911,"ADDRESS":"二王路２７巷２２弄３７號","OBJECTID":57783},"geometry":{"x":173101.76433200017,"y":2546706.9891130012}},{"attributes":{"ID":57784,"DIS_CODE":0,"TOWNNAME":"安南區","LI":"\u25A0田里","LIN":"1鄰","STREET":"\u25A0田路","SECT":" ","MAREA":" ","LANE":"３９５巷","ALLEY":"３弄","HOUSE_NO":"２號","E_COORD97":161837.39000000001,"N_COORD97":2548088.4900000002,"ADDRESS":"\u25A0田路３９５巷３弄２號","OBJECTID":57784},"geometry":{"x":161837.38999999966,"y":2548088.4900000002}},{"attributes":{"ID":57785,"DIS_CODE":0,"TOWNNAME":"白河區","LI":"詔安里","LIN":"1鄰","STREET":" ","SECT":" ","MAREA":"詔安厝","LANE":" ","ALLEY":" ","HOUSE_NO":"１之６號","E_COORD97":190036.85999999999,"N_COORD97":2588102.2799999998,"ADDRESS":"詔安厝１之６號","OBJECTID":57785},"geometry":{"x":190036.8600000022,"y":2588102.2799999993}},{"attributes":{"ID":57786,"DIS_CODE":0,"TOWNNAME":"白河區","LI":"詔安里","LIN":"1鄰","STREET":" ","SECT":" ","MAREA":"詔安厝","LANE":" ","ALLEY":" ","HOUSE_NO":"１之８號","E_COORD97":190014.73000000001,"N_COORD97":2588026.8599999999,"ADDRESS":"詔安厝１之８號","OBJECTID":57786},"geometry":{"x":190014.73000000138,"y":2588026.8599999994}},{"attributes":{"ID":57787,"DIS_CODE":0,"TOWNNAME":"白河區","LI":"詔安里","LIN":"1鄰","STREET":" ","SECT":" ","MAREA":"詔安厝","LANE":" ","ALLEY":" ","HOUSE_NO":"１號","E_COORD97":190026.94,"N_COORD97":2588086.0699999998,"ADDRESS":"詔安厝１號","OBJECTID":57787},"geometry":{"x":190026.94000000134,"y":2588086.0700000022}},{"attributes":{"ID":57788,"DIS_CODE":0,"TOWNNAME":"麻豆區","LI":"總榮里","LIN":"1鄰","STREET":" ","SECT":" ","MAREA":"總爺\u25A0","LANE":" ","ALLEY":" ","HOUSE_NO":"３號之１５","E_COORD97":174961.12,"N_COORD97":2564754.52,"ADDRESS":"總爺\u25A0３號之１５","OBJECTID":57788},"geometry":{"x":174961.12000000197,"y":2564754.5199999996}},{"attributes":{"ID":57789,"DIS_CODE":0,"TOWNNAME":"安南區","LI":"\u25A0田里","LIN":"1鄰","STREET":"\u25A0田路","SECT":" ","MAREA":" ","LANE":"３９５巷","ALLEY":"５弄","HOUSE_NO":"１號","E_COORD97":161842.14999999999,"N_COORD97":2548062.2999999998,"ADDRESS":"\u25A0田路３９５巷５弄１號","OBJECTID":57789},"geometry":{"x":161842.15000000224,"y":2548062.3000000026}},{"attributes":{"ID":57790,"DIS_CODE":0,"TOWNNAME":"安南區","LI":"\u25A0田里","LIN":"1鄰","STREET":"\u25A0田路","SECT":" ","MAREA":" ","LANE":"３９５巷","ALLEY":"５弄","HOUSE_NO":"３號","E_COORD97":161847.97,"N_COORD97":2548064.02,"ADDRESS":"\u25A0田路３９５巷５弄３號","OBJECTID":57790},"geometry":{"x":161847.97000000067,"y":2548064.0199999996}},{"attributes":{"ID":57791,"DIS_CODE":0,"TOWNNAME":"安南區","LI":"\u25A0田里","LIN":"1鄰","STREET":"\u25A0田路","SECT":" ","MAREA":" ","LANE":"３９５巷","ALLEY":"５弄","HOUSE_NO":"７號","E_COORD97":161857.10000000001,"N_COORD97":2548065.4700000002,"ADDRESS":"\u25A0田路３９５巷５弄７號","OBJECTID":57791},"geometry":{"x":161857.10000000149,"y":2548065.4700000007}},{"attributes":{"ID":57792,"DIS_CODE":0,"TOWNNAME":"安南區","LI":"\u25A0田里","LIN":"1鄰","STREET":"\u25A0田路","SECT":" ","MAREA":" ","LANE":"３９５巷","ALLEY":"５弄","HOUSE_NO":"１１號","E_COORD97":161867.54999999999,"N_COORD97":2548068.3799999999,"ADDRESS":"\u25A0田路３９５巷５弄１１號","OBJECTID":57792},"geometry":{"x":161867.54999999888,"y":2548068.379999999}},{"attributes":{"ID":57793,"DIS_CODE":0,"TOWNNAME":"安南區","LI":"\u25A0田里","LIN":"1鄰","STREET":"\u25A0田路","SECT":" ","MAREA":" ","LANE":"３９５巷","ALLEY":"５弄","HOUSE_NO":"１３號","E_COORD97":161872.85000000001,"N_COORD97":2548069.5699999998,"ADDRESS":"\u25A0田路３９５巷５弄１３號","OBJECTID":57793},"geometry":{"x":161872.85000000056,"y":2548069.5700000022}},{"attributes":{"ID":57794,"DIS_CODE":0,"TOWNNAME":"安南區","LI":"\u25A0田里","LIN":"1鄰","STREET":"\u25A0田路","SECT":" ","MAREA":" ","LANE":"３９５巷","ALLEY":"５弄","HOUSE_NO":"１５號","E_COORD97":161877.60999999999,"N_COORD97":2548069.0499999998,"ADDRESS":"\u25A0田路３９５巷５弄１５號","OBJECTID":57794},"geometry":{"x":161877.61000000034,"y":2548069.0500000007}},{"attributes":{"ID":57795,"DIS_CODE":0,"TOWNNAME":"安南區","LI":"\u25A0田里","LIN":"1鄰","STREET":"\u25A0田路","SECT":" ","MAREA":" ","LANE":"３９５巷","ALLEY":"５弄","HOUSE_NO":"９號","E_COORD97":161861.73000000001,"N_COORD97":2548066.3999999999,"ADDRESS":"\u25A0田路３９５巷５弄９號","OBJECTID":57795},"geometry":{"x":161861.73000000045,"y":2548066.3999999985}},{"attributes":{"ID":57796,"DIS_CODE":0,"TOWNNAME":"安南區","LI":"\u25A0田里","LIN":"1鄰","STREET":"\u25A0田路","SECT":" ","MAREA":" ","LANE":"３９５巷","ALLEY":"５弄","HOUSE_NO":"１７號","E_COORD97":161882.23999999999,"N_COORD97":2548068.6499999999,"ADDRESS":"\u25A0田路３９５巷５弄１７號","OBJECTID":57796},"geometry":{"x":161882.24000000115,"y":2548068.6500000022}},{"attributes":{"ID":57797,"DIS_CODE":0,"TOWNNAME":"安南區","LI":"\u25A0田里","LIN":"1鄰","STREET":"\u25A0田路","SECT":" ","MAREA":" ","LANE":"３９５巷","ALLEY":"５弄","HOUSE_NO":"１９號","E_COORD97":161887.13,"N_COORD97":2548069.0499999998,"ADDRESS":"\u25A0田路３９５巷５弄１９號","OBJECTID":57797},"geometry":{"x":161887.12999999989,"y":2548069.0500000007}},{"attributes":{"ID":57798,"DIS_CODE":0,"TOWNNAME":"安南區","LI":"\u25A0田里","LIN":"1鄰","STREET":"\u25A0田路","SECT":" ","MAREA":" ","LANE":"３９５巷","ALLEY":"５弄","HOUSE_NO":"２１號","E_COORD97":161892.03,"N_COORD97":2548069.3100000001,"ADDRESS":"\u25A0田路３９５巷５弄２１號","OBJECTID":57798},"geometry":{"x":161892.03000000212,"y":2548069.3100000005}},{"attributes":{"ID":57799,"DIS_CODE":0,"TOWNNAME":"安南區","LI":"\u25A0田里","LIN":"1鄰","STREET":"\u25A0田路","SECT":" ","MAREA":" ","LANE":"３９５巷","ALLEY":"５弄","HOUSE_NO":"２３號","E_COORD97":161895.20000000001,"N_COORD97":2548069.5699999998,"ADDRESS":"\u25A0田路３９５巷５弄２３號","OBJECTID":57799},"geometry":{"x":161895.20000000019,"y":2548069.5700000022}},{"attributes":{"ID":57800,"DIS_CODE":0,"TOWNNAME":"安南區","LI":"\u25A0田里","LIN":"1鄰","STREET":"\u25A0田路","SECT":" ","MAREA":" ","LANE":"３９５巷","ALLEY":"５弄","HOUSE_NO":"２５號","E_COORD97":161899.57000000001,"N_COORD97":2548069.5699999998,"ADDRESS":"\u25A0田路３９５巷５弄２５號","OBJECTID":57800},"geometry":{"x":161899.5700000003,"y":2548069.5700000022}}]}