{"displayFieldName":"TOWNNAME","fieldAliases":{"ID":"ID","DIS_CODE":"DIS_CODE","TOWNNAME":"TOWNNAME","LI":"LI","LIN":"LIN","STREET":"STREET","SECT":"SECT","MAREA":"MAREA","LANE":"LANE","ALLEY":"ALLEY","HOUSE_NO":"HOUSE_NO","E_COORD97":"E_COORD97","N_COORD97":"N_COORD97","ADDRESS":"ADDRESS","OBJECTID":"OBJECTID"},"geometryType":"esriGeometryPoint","spatialReference":{"wkid":102443,"latestWkid":3826},"fields":[{"name":"ID","type":"esriFieldTypeDouble","alias":"ID"},{"name":"DIS_CODE","type":"esriFieldTypeInteger","alias":"DIS_CODE"},{"name":"TOWNNAME","type":"esriFieldTypeString","alias":"TOWNNAME","length":8},{"name":"LI","type":"esriFieldTypeString","alias":"LI","length":8},{"name":"LIN","type":"esriFieldTypeString","alias":"LIN","length":12},{"name":"STREET","type":"esriFieldTypeString","alias":"STREET","length":20},{"name":"SECT","type":"esriFieldTypeString","alias":"SECT","length":8},{"name":"MAREA","type":"esriFieldTypeString","alias":"MAREA","length":12},{"name":"LANE","type":"esriFieldTypeString","alias":"LANE","length":10},{"name":"ALLEY","type":"esriFieldTypeString","alias":"ALLEY","length":10},{"name":"HOUSE_NO","type":"esriFieldTypeString","alias":"HOUSE_NO","length":20},{"name":"E_COORD97","type":"esriFieldTypeDouble","alias":"E_COORD97"},{"name":"N_COORD97","type":"esriFieldTypeDouble","alias":"N_COORD97"},{"name":"ADDRESS","type":"esriFieldTypeString","alias":"ADDRESS","length":50},{"name":"OBJECTID","type":"esriFieldTypeOID","alias":"OBJECTID"}],"features":[{"attributes":{"ID":587028,"DIS_CODE":0,"TOWNNAME":"中西區","LI":"開山里","LIN":"23鄰","STREET":"大同路","SECT":"一段","MAREA":" ","LANE":" ","ALLEY":" ","HOUSE_NO":"１２２號","E_COORD97":169115,"N_COORD97":2542886.79,"ADDRESS":"大同路一段１２２號","OBJECTID":587001},"geometry":{"x":169115,"y":2542886.790000001}},{"attributes":{"ID":587029,"DIS_CODE":0,"TOWNNAME":"中西區","LI":"開山里","LIN":"23鄰","STREET":"大同路","SECT":"一段","MAREA":" ","LANE":" ","ALLEY":" ","HOUSE_NO":"１２４號","E_COORD97":169114.91,"N_COORD97":2542883.0899999999,"ADDRESS":"大同路一段１２４號","OBJECTID":587002},"geometry":{"x":169114.91000000108,"y":2542883.0899999999}},{"attributes":{"ID":587030,"DIS_CODE":0,"TOWNNAME":"中西區","LI":"開山里","LIN":"23鄰","STREET":"大同路","SECT":"一段","MAREA":" ","LANE":" ","ALLEY":" ","HOUSE_NO":"１２６號","E_COORD97":169115.88,"N_COORD97":2542879.02,"ADDRESS":"大同路一段１２６號","OBJECTID":587003},"geometry":{"x":169115.88000000175,"y":2542879.0200000014}},{"attributes":{"ID":587031,"DIS_CODE":0,"TOWNNAME":"中西區","LI":"開山里","LIN":"23鄰","STREET":"大同路","SECT":"一段","MAREA":" ","LANE":" ","ALLEY":" ","HOUSE_NO":"１２８號","E_COORD97":169116.67999999999,"N_COORD97":2542875.3999999999,"ADDRESS":"大同路一段１２８號","OBJECTID":587004},"geometry":{"x":169116.6799999997,"y":2542875.4000000004}},{"attributes":{"ID":587032,"DIS_CODE":0,"TOWNNAME":"中西區","LI":"開山里","LIN":"23鄰","STREET":"大同路","SECT":"一段","MAREA":" ","LANE":" ","ALLEY":" ","HOUSE_NO":"１３０號","E_COORD97":169116.76999999999,"N_COORD97":2542871.7799999998,"ADDRESS":"大同路一段１３０號","OBJECTID":587005},"geometry":{"x":169116.77000000048,"y":2542871.7799999993}},{"attributes":{"ID":587033,"DIS_CODE":0,"TOWNNAME":"中西區","LI":"開山里","LIN":"23鄰","STREET":"大同路","SECT":"一段","MAREA":" ","LANE":" ","ALLEY":" ","HOUSE_NO":"１３２號","E_COORD97":169117.03,"N_COORD97":2542868.3300000001,"ADDRESS":"大同路一段１３２號","OBJECTID":587006},"geometry":{"x":169117.03000000212,"y":2542868.3300000001}},{"attributes":{"ID":587034,"DIS_CODE":0,"TOWNNAME":"中西區","LI":"開山里","LIN":"23鄰","STREET":"大同路","SECT":"一段","MAREA":" ","LANE":" ","ALLEY":" ","HOUSE_NO":"１３４號","E_COORD97":169117.12,"N_COORD97":2542865.3199999998,"ADDRESS":"大同路一段１３４號","OBJECTID":587007},"geometry":{"x":169117.12000000011,"y":2542865.3200000003}},{"attributes":{"ID":587035,"DIS_CODE":0,"TOWNNAME":"中西區","LI":"開山里","LIN":"23鄰","STREET":"大同路","SECT":"一段","MAREA":" ","LANE":" ","ALLEY":" ","HOUSE_NO":"１３６號","E_COORD97":169116.85999999999,"N_COORD97":2542861.3500000001,"ADDRESS":"大同路一段１３６號","OBJECTID":587008},"geometry":{"x":169116.86000000127,"y":2542861.3499999996}},{"attributes":{"ID":587036,"DIS_CODE":0,"TOWNNAME":"中西區","LI":"開山里","LIN":"23鄰","STREET":"大同路","SECT":"一段","MAREA":" ","LANE":" ","ALLEY":" ","HOUSE_NO":"１３８號","E_COORD97":169116.76999999999,"N_COORD97":2542858.25,"ADDRESS":"大同路一段１３８號","OBJECTID":587009},"geometry":{"x":169116.77000000048,"y":2542858.25}},{"attributes":{"ID":587037,"DIS_CODE":0,"TOWNNAME":"中西區","LI":"開山里","LIN":"23鄰","STREET":"大同路","SECT":"一段","MAREA":" ","LANE":" ","ALLEY":" ","HOUSE_NO":"１４０號","E_COORD97":169116.14999999999,"N_COORD97":2542855.4300000002,"ADDRESS":"大同路一段１４０號","OBJECTID":587010},"geometry":{"x":169116.15000000224,"y":2542855.4300000016}},{"attributes":{"ID":587038,"DIS_CODE":0,"TOWNNAME":"中西區","LI":"開山里","LIN":"23鄰","STREET":"大同路","SECT":"一段","MAREA":" ","LANE":" ","ALLEY":" ","HOUSE_NO":"９８號","E_COORD97":169113.17000000001,"N_COORD97":2542959.96,"ADDRESS":"大同路一段９８號","OBJECTID":587011},"geometry":{"x":169113.16999999993,"y":2542959.9600000009}},{"attributes":{"ID":587039,"DIS_CODE":0,"TOWNNAME":"中西區","LI":"開山里","LIN":"23鄰","STREET":"開山路","SECT":" ","MAREA":" ","LANE":" ","ALLEY":" ","HOUSE_NO":"３０１號","E_COORD97":169092.26000000001,"N_COORD97":2542884.2799999998,"ADDRESS":"開山路３０１號","OBJECTID":587012},"geometry":{"x":169092.25999999978,"y":2542884.2799999993}},{"attributes":{"ID":587040,"DIS_CODE":0,"TOWNNAME":"中西區","LI":"開山里","LIN":"23鄰","STREET":"開山路","SECT":" ","MAREA":" ","LANE":" ","ALLEY":" ","HOUSE_NO":"３０３號","E_COORD97":169095.45000000001,"N_COORD97":2542880.48,"ADDRESS":"開山路３０３號","OBJECTID":587013},"geometry":{"x":169095.45000000205,"y":2542880.4800000023}},{"attributes":{"ID":587041,"DIS_CODE":0,"TOWNNAME":"中西區","LI":"開山里","LIN":"23鄰","STREET":"開山路","SECT":" ","MAREA":" ","LANE":" ","ALLEY":" ","HOUSE_NO":"３０５號","E_COORD97":169097.84,"N_COORD97":2542876.6800000002,"ADDRESS":"開山路３０５號","OBJECTID":587014},"geometry":{"x":169097.84000000078,"y":2542876.6800000034}},{"attributes":{"ID":587042,"DIS_CODE":0,"TOWNNAME":"中西區","LI":"開山里","LIN":"23鄰","STREET":"開山路","SECT":" ","MAREA":" ","LANE":" ","ALLEY":" ","HOUSE_NO":"３０７號","E_COORD97":169098.63,"N_COORD97":2542873.5,"ADDRESS":"開山路３０７號","OBJECTID":587015},"geometry":{"x":169098.62999999989,"y":2542873.5}},{"attributes":{"ID":587043,"DIS_CODE":0,"TOWNNAME":"南區","LI":"國宅里","LIN":"11鄰","STREET":"尊南街","SECT":" ","MAREA":" ","LANE":" ","ALLEY":" ","HOUSE_NO":"１０號","E_COORD97":166817.32999999999,"N_COORD97":2541792.5899999999,"ADDRESS":"尊南街１０號","OBJECTID":587016},"geometry":{"x":166817.33000000007,"y":2541792.5900000036}},{"attributes":{"ID":587044,"DIS_CODE":0,"TOWNNAME":"南區","LI":"國宅里","LIN":"11鄰","STREET":"尊南街","SECT":" ","MAREA":" ","LANE":" ","ALLEY":" ","HOUSE_NO":"１４號","E_COORD97":166818.72,"N_COORD97":2541800.3399999999,"ADDRESS":"尊南街１４號","OBJECTID":587017},"geometry":{"x":166818.72000000067,"y":2541800.3399999999}},{"attributes":{"ID":587045,"DIS_CODE":0,"TOWNNAME":"北區","LI":"成功里","LIN":"11鄰","STREET":"北成路","SECT":" ","MAREA":" ","LANE":" ","ALLEY":" ","HOUSE_NO":"２２號","E_COORD97":169170.23000000001,"N_COORD97":2546568.2000000002,"ADDRESS":"北成路２２號","OBJECTID":587018},"geometry":{"x":169170.23000000138,"y":2546568.200000003}},{"attributes":{"ID":587046,"DIS_CODE":0,"TOWNNAME":"新化區","LI":"太平里","LIN":"11鄰","STREET":"正新北路","SECT":" ","MAREA":" ","LANE":" ","ALLEY":" ","HOUSE_NO":"１８號","E_COORD97":178726.22,"N_COORD97":2549113.25,"ADDRESS":"正新北路１８號","OBJECTID":587019},"geometry":{"x":178726.21999999974,"y":2549113.25}},{"attributes":{"ID":587047,"DIS_CODE":0,"TOWNNAME":"新化區","LI":"太平里","LIN":"11鄰","STREET":"正新北路","SECT":" ","MAREA":" ","LANE":" ","ALLEY":" ","HOUSE_NO":"７０號","E_COORD97":178602.62,"N_COORD97":2549047.25,"ADDRESS":"正新北路７０號","OBJECTID":587020},"geometry":{"x":178602.62000000104,"y":2549047.2500000037}},{"attributes":{"ID":587048,"DIS_CODE":0,"TOWNNAME":"新化區","LI":"武安里","LIN":"11鄰","STREET":"信義路","SECT":" ","MAREA":" ","LANE":" ","ALLEY":" ","HOUSE_NO":"３４３號","E_COORD97":178822.92999999999,"N_COORD97":2548278.25,"ADDRESS":"信義路３４３號","OBJECTID":587021},"geometry":{"x":178822.9299999997,"y":2548278.2500000019}},{"attributes":{"ID":587049,"DIS_CODE":0,"TOWNNAME":"關廟區","LI":"關廟里","LIN":"11鄰","STREET":"大富街","SECT":" ","MAREA":" ","LANE":" ","ALLEY":" ","HOUSE_NO":"２９３號","E_COORD97":181038.23999999999,"N_COORD97":2539697.1499999999,"ADDRESS":"大富街２９３號","OBJECTID":587022},"geometry":{"x":181038.24000000115,"y":2539697.1500000004}},{"attributes":{"ID":587050,"DIS_CODE":0,"TOWNNAME":"關廟區","LI":"南花里","LIN":"11鄰","STREET":"明德街","SECT":" ","MAREA":" ","LANE":" ","ALLEY":" ","HOUSE_NO":"２６號","E_COORD97":181801.496495,"N_COORD97":2540076.3980100001,"ADDRESS":"明德街２６號","OBJECTID":587023},"geometry":{"x":181801.49649500009,"y":2540076.3980080038}},{"attributes":{"ID":587051,"DIS_CODE":0,"TOWNNAME":"關廟區","LI":"新光里","LIN":"11鄰","STREET":"新光街","SECT":" ","MAREA":" ","LANE":" ","ALLEY":" ","HOUSE_NO":"２２０號","E_COORD97":184262.07000000001,"N_COORD97":2541827.25,"ADDRESS":"新光街２２０號","OBJECTID":587024},"geometry":{"x":184262.07000000123,"y":2541827.2500000019}},{"attributes":{"ID":587052,"DIS_CODE":0,"TOWNNAME":"關廟區","LI":"香洋里","LIN":"11鄰","STREET":"市場北街","SECT":" ","MAREA":" ","LANE":" ","ALLEY":" ","HOUSE_NO":"５５號","E_COORD97":181168.79000000001,"N_COORD97":2540176.2799999998,"ADDRESS":"市場北街５５號","OBJECTID":587025},"geometry":{"x":181168.79000000004,"y":2540176.2799999993}},{"attributes":{"ID":587053,"DIS_CODE":0,"TOWNNAME":"關廟區","LI":"南花里","LIN":"11鄰","STREET":"明德街","SECT":" ","MAREA":" ","LANE":" ","ALLEY":" ","HOUSE_NO":"９號","E_COORD97":181833.39000000001,"N_COORD97":2540044.27,"ADDRESS":"明德街９號","OBJECTID":587026},"geometry":{"x":181833.3900000006,"y":2540044.2699999996}},{"attributes":{"ID":587054,"DIS_CODE":0,"TOWNNAME":"新市區","LI":"新和里","LIN":"44鄰","STREET":"民生路","SECT":" ","MAREA":" ","LANE":" ","ALLEY":" ","HOUSE_NO":"８號","E_COORD97":177372.04999999999,"N_COORD97":2553156.54,"ADDRESS":"民生路８號","OBJECTID":587027},"geometry":{"x":177372.05000000075,"y":2553156.5399999972}},{"attributes":{"ID":587055,"DIS_CODE":0,"TOWNNAME":"關廟區","LI":"五甲里","LIN":"11鄰","STREET":"五義街","SECT":" ","MAREA":" ","LANE":" ","ALLEY":" ","HOUSE_NO":"７５號","E_COORD97":180995.32000000001,"N_COORD97":2538994.27,"ADDRESS":"五義街７５號","OBJECTID":587028},"geometry":{"x":180995.32000000123,"y":2538994.2700000033}},{"attributes":{"ID":587056,"DIS_CODE":0,"TOWNNAME":"關廟區","LI":"南花里","LIN":"11鄰","STREET":"明德街","SECT":" ","MAREA":" ","LANE":" ","ALLEY":" ","HOUSE_NO":"３０號","E_COORD97":181780.14000000001,"N_COORD97":2540082.27,"ADDRESS":"明德街３０號","OBJECTID":587029},"geometry":{"x":181780.13999999966,"y":2540082.2700000033}},{"attributes":{"ID":587057,"DIS_CODE":0,"TOWNNAME":"關廟區","LI":"關廟里","LIN":"11鄰","STREET":"大富街","SECT":" ","MAREA":" ","LANE":" ","ALLEY":" ","HOUSE_NO":"２８７號","E_COORD97":181044.84,"N_COORD97":2539667.1499999999,"ADDRESS":"大富街２８７號","OBJECTID":587030},"geometry":{"x":181044.83999999985,"y":2539667.1500000041}},{"attributes":{"ID":587058,"DIS_CODE":0,"TOWNNAME":"關廟區","LI":"南花里","LIN":"11鄰","STREET":"明德街","SECT":" ","MAREA":" ","LANE":" ","ALLEY":" ","HOUSE_NO":"１０號","E_COORD97":181822.04000000001,"N_COORD97":2540061.27,"ADDRESS":"明德街１０號","OBJECTID":587031},"geometry":{"x":181822.0400000019,"y":2540061.2699999996}},{"attributes":{"ID":587059,"DIS_CODE":0,"TOWNNAME":"關廟區","LI":"五甲里","LIN":"11鄰","STREET":"五義街","SECT":" ","MAREA":" ","LANE":" ","ALLEY":" ","HOUSE_NO":"７３號","E_COORD97":180998.72,"N_COORD97":2538995.27,"ADDRESS":"五義街７３號","OBJECTID":587032},"geometry":{"x":180998.72000000067,"y":2538995.2700000014}},{"attributes":{"ID":587060,"DIS_CODE":0,"TOWNNAME":"關廟區","LI":"五甲里","LIN":"11鄰","STREET":"五義街","SECT":" ","MAREA":" ","LANE":" ","ALLEY":" ","HOUSE_NO":"７７號","E_COORD97":180991.82000000001,"N_COORD97":2538992.27,"ADDRESS":"五義街７７號","OBJECTID":587033},"geometry":{"x":180991.82000000123,"y":2538992.2700000014}},{"attributes":{"ID":587061,"DIS_CODE":0,"TOWNNAME":"關廟區","LI":"香洋里","LIN":"11鄰","STREET":"市場北街","SECT":" ","MAREA":" ","LANE":" ","ALLEY":" ","HOUSE_NO":"５７號","E_COORD97":181152.64000000001,"N_COORD97":2540187.2799999998,"ADDRESS":"市場北街５７號","OBJECTID":587034},"geometry":{"x":181152.63999999966,"y":2540187.2800000031}},{"attributes":{"ID":587062,"DIS_CODE":0,"TOWNNAME":"關廟區","LI":"香洋里","LIN":"11鄰","STREET":"南雄路","SECT":"二段","MAREA":" ","LANE":" ","ALLEY":" ","HOUSE_NO":"８８號","E_COORD97":181133.23999999999,"N_COORD97":2540192.2799999998,"ADDRESS":"南雄路二段８８號","OBJECTID":587035},"geometry":{"x":181133.24000000115,"y":2540192.2799999993}},{"attributes":{"ID":587063,"DIS_CODE":0,"TOWNNAME":"關廟區","LI":"北花里","LIN":"11鄰","STREET":"中正路","SECT":" ","MAREA":" ","LANE":" ","ALLEY":" ","HOUSE_NO":"７６７號","E_COORD97":181751.45999999999,"N_COORD97":2540339.25,"ADDRESS":"中正路７６７號","OBJECTID":587036},"geometry":{"x":181751.46000000089,"y":2540339.25}},{"attributes":{"ID":587064,"DIS_CODE":0,"TOWNNAME":"關廟區","LI":"五甲里","LIN":"11鄰","STREET":"五義街","SECT":" ","MAREA":" ","LANE":" ","ALLEY":" ","HOUSE_NO":"１０８號","E_COORD97":180984.67000000001,"N_COORD97":2539002.27,"ADDRESS":"五義街１０８號","OBJECTID":587037},"geometry":{"x":180984.66999999993,"y":2539002.2700000014}},{"attributes":{"ID":587065,"DIS_CODE":0,"TOWNNAME":"關廟區","LI":"香洋里","LIN":"11鄰","STREET":"南雄路","SECT":"二段","MAREA":" ","LANE":" ","ALLEY":" ","HOUSE_NO":"８６號","E_COORD97":181130.84,"N_COORD97":2540188.2799999998,"ADDRESS":"南雄路二段８６號","OBJECTID":587038},"geometry":{"x":181130.83999999985,"y":2540188.2800000012}},{"attributes":{"ID":587066,"DIS_CODE":0,"TOWNNAME":"關廟區","LI":"南花里","LIN":"11鄰","STREET":"四維街","SECT":" ","MAREA":" ","LANE":" ","ALLEY":" ","HOUSE_NO":"１９３號","E_COORD97":181848.95999999999,"N_COORD97":2540074.25,"ADDRESS":"四維街１９３號","OBJECTID":587039},"geometry":{"x":181848.95999999996,"y":2540074.2500000019}},{"attributes":{"ID":587067,"DIS_CODE":0,"TOWNNAME":"關廟區","LI":"北花里","LIN":"11鄰","STREET":"中正路","SECT":" ","MAREA":" ","LANE":" ","ALLEY":" ","HOUSE_NO":"７００號","E_COORD97":181686.95999999999,"N_COORD97":2540338.25,"ADDRESS":"中正路７００號","OBJECTID":587040},"geometry":{"x":181686.96000000183,"y":2540338.2500000019}},{"attributes":{"ID":587068,"DIS_CODE":0,"TOWNNAME":"關廟區","LI":"新光里","LIN":"11鄰","STREET":"新光街","SECT":" ","MAREA":" ","LANE":" ","ALLEY":" ","HOUSE_NO":"２２６號","E_COORD97":184284.37,"N_COORD97":2541828.25,"ADDRESS":"新光街２２６號","OBJECTID":587041},"geometry":{"x":184284.37000000011,"y":2541828.25}},{"attributes":{"ID":587069,"DIS_CODE":0,"TOWNNAME":"關廟區","LI":"南花里","LIN":"11鄰","STREET":"明德街","SECT":" ","MAREA":" ","LANE":" ","ALLEY":" ","HOUSE_NO":"３２號","E_COORD97":181787.44,"N_COORD97":2540059.27,"ADDRESS":"明德街３２號","OBJECTID":587042},"geometry":{"x":181787.43999999948,"y":2540059.2700000014}},{"attributes":{"ID":587070,"DIS_CODE":0,"TOWNNAME":"關廟區","LI":"香洋里","LIN":"11鄰","STREET":"南雄路","SECT":"二段","MAREA":" ","LANE":" ","ALLEY":" ","HOUSE_NO":"７０號","E_COORD97":181126.64000000001,"N_COORD97":2540165.2799999998,"ADDRESS":"南雄路二段７０號","OBJECTID":587043},"geometry":{"x":181126.6400000006,"y":2540165.2799999993}},{"attributes":{"ID":587071,"DIS_CODE":0,"TOWNNAME":"關廟區","LI":"埤頭里","LIN":"11鄰","STREET":"保東二街","SECT":" ","MAREA":" ","LANE":" ","ALLEY":" ","HOUSE_NO":"１７２號","E_COORD97":178793.64000000001,"N_COORD97":2544492.9399999999,"ADDRESS":"保東二街１７２號","OBJECTID":587044},"geometry":{"x":178793.6400000006,"y":2544492.9400000013}},{"attributes":{"ID":587072,"DIS_CODE":0,"TOWNNAME":"北區","LI":"公園里","LIN":"11鄰","STREET":"北忠街","SECT":" ","MAREA":" ","LANE":" ","ALLEY":" ","HOUSE_NO":"８２號","E_COORD97":169025.63,"N_COORD97":2544421.2799999998,"ADDRESS":"北忠街８２號","OBJECTID":587045},"geometry":{"x":169025.62999999989,"y":2544421.2799999993}},{"attributes":{"ID":587073,"DIS_CODE":0,"TOWNNAME":"北區","LI":"成德里","LIN":"11鄰","STREET":"和緯路","SECT":"二段","MAREA":" ","LANE":" ","ALLEY":" ","HOUSE_NO":"１７３號","E_COORD97":168675.48999999999,"N_COORD97":2545814.98,"ADDRESS":"和緯路二段１７３號","OBJECTID":587046},"geometry":{"x":168675.49000000115,"y":2545814.9800000042}},{"attributes":{"ID":587074,"DIS_CODE":0,"TOWNNAME":"北區","LI":"公園里","LIN":"11鄰","STREET":"北忠街","SECT":" ","MAREA":" ","LANE":" ","ALLEY":" ","HOUSE_NO":"９９號","E_COORD97":168998.88,"N_COORD97":2544416.5299999998,"ADDRESS":"北忠街９９號","OBJECTID":587047},"geometry":{"x":168998.88000000175,"y":2544416.5300000031}},{"attributes":{"ID":587075,"DIS_CODE":0,"TOWNNAME":"北區","LI":"成德里","LIN":"11鄰","STREET":"和緯路","SECT":"二段","MAREA":" ","LANE":" ","ALLEY":" ","HOUSE_NO":"１３３號","E_COORD97":168760.47,"N_COORD97":2545789.73,"ADDRESS":"和緯路二段１３３號","OBJECTID":587048},"geometry":{"x":168760.46999999974,"y":2545789.7300000042}},{"attributes":{"ID":587076,"DIS_CODE":0,"TOWNNAME":"北區","LI":"成德里","LIN":"11鄰","STREET":"和緯路","SECT":"二段","MAREA":" ","LANE":" ","ALLEY":" ","HOUSE_NO":"１３５號","E_COORD97":168755.53,"N_COORD97":2545790.8300000001,"ADDRESS":"和緯路二段１３５號","OBJECTID":587049},"geometry":{"x":168755.53000000026,"y":2545790.8300000001}},{"attributes":{"ID":587077,"DIS_CODE":0,"TOWNNAME":"北區","LI":"成德里","LIN":"11鄰","STREET":"和緯路","SECT":"二段","MAREA":" ","LANE":" ","ALLEY":" ","HOUSE_NO":"１３７號","E_COORD97":168751.31,"N_COORD97":2545792.8399999999,"ADDRESS":"和緯路二段１３７號","OBJECTID":587050},"geometry":{"x":168751.30999999959,"y":2545792.8400000017}},{"attributes":{"ID":587078,"DIS_CODE":0,"TOWNNAME":"北區","LI":"成德里","LIN":"11鄰","STREET":"和緯路","SECT":"二段","MAREA":" ","LANE":" ","ALLEY":" ","HOUSE_NO":"１３９號","E_COORD97":168747.64999999999,"N_COORD97":2545793.7599999998,"ADDRESS":"和緯路二段１３９號","OBJECTID":587051},"geometry":{"x":168747.65000000037,"y":2545793.7599999998}},{"attributes":{"ID":587079,"DIS_CODE":0,"TOWNNAME":"北區","LI":"成德里","LIN":"11鄰","STREET":"和緯路","SECT":"二段","MAREA":" ","LANE":" ","ALLEY":" ","HOUSE_NO":"１４１號","E_COORD97":168743.62,"N_COORD97":2545795.2200000002,"ADDRESS":"和緯路二段１４１號","OBJECTID":587052},"geometry":{"x":168743.62000000104,"y":2545795.2200000007}},{"attributes":{"ID":587080,"DIS_CODE":0,"TOWNNAME":"北區","LI":"成德里","LIN":"11鄰","STREET":"和緯路","SECT":"二段","MAREA":" ","LANE":" ","ALLEY":" ","HOUSE_NO":"１４３號","E_COORD97":168739.41,"N_COORD97":2545797.0499999998,"ADDRESS":"和緯路二段１４３號","OBJECTID":587053},"geometry":{"x":168739.41000000015,"y":2545797.0500000007}},{"attributes":{"ID":587081,"DIS_CODE":0,"TOWNNAME":"北區","LI":"成德里","LIN":"11鄰","STREET":"和緯路","SECT":"二段","MAREA":" ","LANE":" ","ALLEY":" ","HOUSE_NO":"１４５號","E_COORD97":168735.01000000001,"N_COORD97":2545798.5099999998,"ADDRESS":"和緯路二段１４５號","OBJECTID":587054},"geometry":{"x":168735.00999999885,"y":2545798.5100000016}},{"attributes":{"ID":587082,"DIS_CODE":0,"TOWNNAME":"北區","LI":"成德里","LIN":"11鄰","STREET":"和緯路","SECT":"二段","MAREA":" ","LANE":" ","ALLEY":" ","HOUSE_NO":"１４７號","E_COORD97":168730.62,"N_COORD97":2545799.98,"ADDRESS":"和緯路二段１４７號","OBJECTID":587055},"geometry":{"x":168730.62000000011,"y":2545799.9800000004}},{"attributes":{"ID":587083,"DIS_CODE":0,"TOWNNAME":"北區","LI":"成德里","LIN":"11鄰","STREET":"和緯路","SECT":"二段","MAREA":" ","LANE":" ","ALLEY":" ","HOUSE_NO":"１４９號","E_COORD97":168726.22,"N_COORD97":2545801.2599999998,"ADDRESS":"和緯路二段１４９號","OBJECTID":587056},"geometry":{"x":168726.21999999974,"y":2545801.2599999998}},{"attributes":{"ID":587084,"DIS_CODE":0,"TOWNNAME":"北區","LI":"成德里","LIN":"11鄰","STREET":"和緯路","SECT":"二段","MAREA":" ","LANE":" ","ALLEY":" ","HOUSE_NO":"１５１號","E_COORD97":168722.38,"N_COORD97":2545802.1699999999,"ADDRESS":"和緯路二段１５１號","OBJECTID":587057},"geometry":{"x":168722.37999999989,"y":2545802.1699999999}},{"attributes":{"ID":587085,"DIS_CODE":0,"TOWNNAME":"北區","LI":"成德里","LIN":"11鄰","STREET":"和緯路","SECT":"二段","MAREA":" ","LANE":" ","ALLEY":" ","HOUSE_NO":"１５３號","E_COORD97":168718.53,"N_COORD97":2545804,"ADDRESS":"和緯路二段１５３號","OBJECTID":587058},"geometry":{"x":168718.53000000212,"y":2545803.9999999981}},{"attributes":{"ID":587086,"DIS_CODE":0,"TOWNNAME":"北區","LI":"成德里","LIN":"11鄰","STREET":"和緯路","SECT":"二段","MAREA":" ","LANE":" ","ALLEY":" ","HOUSE_NO":"１５５號","E_COORD97":168714.5,"N_COORD97":2545805.6499999999,"ADDRESS":"和緯路二段１５５號","OBJECTID":587059},"geometry":{"x":168714.5,"y":2545805.6500000004}},{"attributes":{"ID":587087,"DIS_CODE":0,"TOWNNAME":"北區","LI":"成德里","LIN":"11鄰","STREET":"和緯路","SECT":"二段","MAREA":" ","LANE":" ","ALLEY":" ","HOUSE_NO":"１５７號","E_COORD97":168709.73999999999,"N_COORD97":2545806.5600000001,"ADDRESS":"和緯路二段１５７號","OBJECTID":587060},"geometry":{"x":168709.74000000022,"y":2545806.5600000005}},{"attributes":{"ID":587088,"DIS_CODE":0,"TOWNNAME":"北區","LI":"公園里","LIN":"11鄰","STREET":"北忠街","SECT":" ","MAREA":" ","LANE":" ","ALLEY":" ","HOUSE_NO":"７７號","E_COORD97":169036.16,"N_COORD97":2544402.54,"ADDRESS":"北忠街７７號","OBJECTID":587061},"geometry":{"x":169036.15999999922,"y":2544402.5399999972}},{"attributes":{"ID":587089,"DIS_CODE":0,"TOWNNAME":"北區","LI":"公園里","LIN":"11鄰","STREET":"北忠街","SECT":" ","MAREA":" ","LANE":" ","ALLEY":" ","HOUSE_NO":"７９號","E_COORD97":169035.32000000001,"N_COORD97":2544398.8300000001,"ADDRESS":"北忠街７９號","OBJECTID":587062},"geometry":{"x":169035.32000000216,"y":2544398.8300000019}},{"attributes":{"ID":587090,"DIS_CODE":0,"TOWNNAME":"北區","LI":"公園里","LIN":"11鄰","STREET":"北忠街","SECT":" ","MAREA":" ","LANE":" ","ALLEY":" ","HOUSE_NO":"８１號","E_COORD97":169034.31,"N_COORD97":2544395.1299999999,"ADDRESS":"北忠街８１號","OBJECTID":587063},"geometry":{"x":169034.30999999959,"y":2544395.1300000027}},{"attributes":{"ID":587091,"DIS_CODE":0,"TOWNNAME":"北區","LI":"公園里","LIN":"11鄰","STREET":"北忠街","SECT":" ","MAREA":" ","LANE":" ","ALLEY":" ","HOUSE_NO":"８３號","E_COORD97":169032.45000000001,"N_COORD97":2544391.7599999998,"ADDRESS":"北忠街８３號","OBJECTID":587064},"geometry":{"x":169032.45000000019,"y":2544391.7600000035}},{"attributes":{"ID":587092,"DIS_CODE":0,"TOWNNAME":"新營區","LI":"忠政里","LIN":"11鄰","STREET":"中正路","SECT":" ","MAREA":" ","LANE":" ","ALLEY":" ","HOUSE_NO":"５５之３６號","E_COORD97":179947.70000000001,"N_COORD97":2579511.04,"ADDRESS":"中正路５５之３６號","OBJECTID":587065},"geometry":{"x":179947.70000000019,"y":2579511.040000001}},{"attributes":{"ID":587093,"DIS_CODE":0,"TOWNNAME":"新營區","LI":"忠政里","LIN":"11鄰","STREET":"中正路","SECT":" ","MAREA":" ","LANE":" ","ALLEY":" ","HOUSE_NO":"５５之４６號","E_COORD97":179976.26999999999,"N_COORD97":2579496.5099999998,"ADDRESS":"中正路５５之４６號","OBJECTID":587066},"geometry":{"x":179976.27000000048,"y":2579496.5099999998}},{"attributes":{"ID":587094,"DIS_CODE":0,"TOWNNAME":"新營區","LI":"民權里","LIN":"11鄰","STREET":"中華路","SECT":" ","MAREA":" ","LANE":" ","ALLEY":" ","HOUSE_NO":"８號之２","E_COORD97":179906.26999999999,"N_COORD97":2578239.8700000001,"ADDRESS":"中華路８號之２","OBJECTID":587067},"geometry":{"x":179906.27000000048,"y":2578239.8700000029}},{"attributes":{"ID":587095,"DIS_CODE":0,"TOWNNAME":"新營區","LI":"忠政里","LIN":"11鄰","STREET":"中正路","SECT":" ","MAREA":" ","LANE":" ","ALLEY":" ","HOUSE_NO":"５５之３８號","E_COORD97":179943.60999999999,"N_COORD97":2579511.0600000001,"ADDRESS":"中正路５５之３８號","OBJECTID":587068},"geometry":{"x":179943.6100000022,"y":2579511.0600000005}},{"attributes":{"ID":587096,"DIS_CODE":0,"TOWNNAME":"新營區","LI":"忠政里","LIN":"11鄰","STREET":"中正路","SECT":" ","MAREA":" ","LANE":" ","ALLEY":" ","HOUSE_NO":"５５之４０號","E_COORD97":179938.5,"N_COORD97":2579511.0899999999,"ADDRESS":"中正路５５之４０號","OBJECTID":587069},"geometry":{"x":179938.5,"y":2579511.0900000017}},{"attributes":{"ID":587097,"DIS_CODE":0,"TOWNNAME":"新營區","LI":"忠政里","LIN":"11鄰","STREET":"中正路","SECT":" ","MAREA":" ","LANE":" ","ALLEY":" ","HOUSE_NO":"５５號之３９","E_COORD97":179949.23000000001,"N_COORD97":2579462.3100000001,"ADDRESS":"中正路５５號之３９","OBJECTID":587070},"geometry":{"x":179949.23000000045,"y":2579462.3100000042}},{"attributes":{"ID":587098,"DIS_CODE":0,"TOWNNAME":"新營區","LI":"民權里","LIN":"11鄰","STREET":"中華路","SECT":" ","MAREA":" ","LANE":" ","ALLEY":" ","HOUSE_NO":"８號之３","E_COORD97":179902.14000000001,"N_COORD97":2578239.8900000001,"ADDRESS":"中華路８號之３","OBJECTID":587071},"geometry":{"x":179902.14000000153,"y":2578239.8900000006}},{"attributes":{"ID":587099,"DIS_CODE":0,"TOWNNAME":"新營區","LI":"忠政里","LIN":"11鄰","STREET":"中正路","SECT":" ","MAREA":" ","LANE":" ","ALLEY":" ","HOUSE_NO":"５５之１０號","E_COORD97":179977.19,"N_COORD97":2579475.4700000002,"ADDRESS":"中正路５５之１０號","OBJECTID":587072},"geometry":{"x":179977.19000000227,"y":2579475.4700000025}},{"attributes":{"ID":587100,"DIS_CODE":0,"TOWNNAME":"新營區","LI":"忠政里","LIN":"11鄰","STREET":"中正路","SECT":" ","MAREA":" ","LANE":" ","ALLEY":" ","HOUSE_NO":"５５號之４","E_COORD97":180007.44,"N_COORD97":2579504.1099999999,"ADDRESS":"中正路５５號之４","OBJECTID":587073},"geometry":{"x":180007.43999999948,"y":2579504.1100000013}},{"attributes":{"ID":587101,"DIS_CODE":0,"TOWNNAME":"新營區","LI":"忠政里","LIN":"11鄰","STREET":"中正路","SECT":" ","MAREA":" ","LANE":" ","ALLEY":" ","HOUSE_NO":"５５號之１５","E_COORD97":179987.10000000001,"N_COORD97":2579452.1600000001,"ADDRESS":"中正路５５號之１５","OBJECTID":587074},"geometry":{"x":179987.10000000149,"y":2579452.1600000001}},{"attributes":{"ID":587102,"DIS_CODE":0,"TOWNNAME":"新營區","LI":"民權里","LIN":"11鄰","STREET":"信義街","SECT":" ","MAREA":" ","LANE":" ","ALLEY":" ","HOUSE_NO":"３９號","E_COORD97":179932.98999999999,"N_COORD97":2578261.8399999999,"ADDRESS":"信義街３９號","OBJECTID":587075},"geometry":{"x":179932.99000000115,"y":2578261.8400000017}},{"attributes":{"ID":587103,"DIS_CODE":0,"TOWNNAME":"新營區","LI":"民權里","LIN":"11鄰","STREET":"信義街","SECT":" ","MAREA":" ","LANE":" ","ALLEY":" ","HOUSE_NO":"４９號","E_COORD97":179931.01000000001,"N_COORD97":2578276.2400000002,"ADDRESS":"信義街４９號","OBJECTID":587076},"geometry":{"x":179931.00999999978,"y":2578276.2400000021}},{"attributes":{"ID":587104,"DIS_CODE":0,"TOWNNAME":"新化區","LI":"知義里","LIN":"11鄰","STREET":"中興路","SECT":" ","MAREA":" ","LANE":" ","ALLEY":" ","HOUSE_NO":"７７號","E_COORD97":181860.66,"N_COORD97":2547304.25,"ADDRESS":"中興路７７號","OBJECTID":587077},"geometry":{"x":181860.66000000108,"y":2547304.2499999981}},{"attributes":{"ID":587105,"DIS_CODE":0,"TOWNNAME":"新化區","LI":"知義里","LIN":"11鄰","STREET":"中興路","SECT":" ","MAREA":" ","LANE":" ","ALLEY":" ","HOUSE_NO":"２１９號","E_COORD97":181529.60999999999,"N_COORD97":2547294.25,"ADDRESS":"中興路２１９號","OBJECTID":587078},"geometry":{"x":181529.61000000034,"y":2547294.2500000037}},{"attributes":{"ID":587106,"DIS_CODE":0,"TOWNNAME":"新化區","LI":"太平里","LIN":"11鄰","STREET":"正新北路","SECT":" ","MAREA":" ","LANE":" ","ALLEY":" ","HOUSE_NO":"１９號","E_COORD97":178730.32000000001,"N_COORD97":2549088.25,"ADDRESS":"正新北路１９號","OBJECTID":587079},"geometry":{"x":178730.32000000123,"y":2549088.2500000019}},{"attributes":{"ID":587107,"DIS_CODE":0,"TOWNNAME":"新化區","LI":"知義里","LIN":"11鄰","STREET":"中興路","SECT":" ","MAREA":" ","LANE":" ","ALLEY":" ","HOUSE_NO":"７３號","E_COORD97":181869.85999999999,"N_COORD97":2547300.25,"ADDRESS":"中興路７３號","OBJECTID":587080},"geometry":{"x":181869.86000000127,"y":2547300.25}},{"attributes":{"ID":587108,"DIS_CODE":0,"TOWNNAME":"南區","LI":"廣州里","LIN":"11鄰","STREET":"健民街","SECT":" ","MAREA":" ","LANE":" ","ALLEY":" ","HOUSE_NO":"１０號","E_COORD97":167409.66,"N_COORD97":2542740.77,"ADDRESS":"健民街１０號","OBJECTID":587081},"geometry":{"x":167409.66000000108,"y":2542740.7700000014}},{"attributes":{"ID":587109,"DIS_CODE":0,"TOWNNAME":"南區","LI":"彰南里","LIN":"11鄰","STREET":"新樂路","SECT":" ","MAREA":" ","LANE":" ","ALLEY":" ","HOUSE_NO":"３之１號","E_COORD97":165800.97,"N_COORD97":2542223.46,"ADDRESS":"新樂路３之１號","OBJECTID":587082},"geometry":{"x":165800.9700000016,"y":2542223.4600000028}},{"attributes":{"ID":587110,"DIS_CODE":0,"TOWNNAME":"南區","LI":"彰南里","LIN":"11鄰","STREET":"新樂路","SECT":" ","MAREA":" ","LANE":" ","ALLEY":" ","HOUSE_NO":"１號","E_COORD97":165833.92000000001,"N_COORD97":2542301.1200000001,"ADDRESS":"新樂路１號","OBJECTID":587083},"geometry":{"x":165833.92000000086,"y":2542301.120000001}},{"attributes":{"ID":587111,"DIS_CODE":0,"TOWNNAME":"南區","LI":"國宅里","LIN":"11鄰","STREET":"尊南街","SECT":" ","MAREA":" ","LANE":" ","ALLEY":" ","HOUSE_NO":"２６號","E_COORD97":166819.76000000001,"N_COORD97":2541829.7400000002,"ADDRESS":"尊南街２６號","OBJECTID":587084},"geometry":{"x":166819.76000000071,"y":2541829.7400000021}},{"attributes":{"ID":587112,"DIS_CODE":0,"TOWNNAME":"南區","LI":"國宅里","LIN":"11鄰","STREET":"尊南街","SECT":" ","MAREA":" ","LANE":" ","ALLEY":" ","HOUSE_NO":"２８號","E_COORD97":166821.17000000001,"N_COORD97":2541835.71,"ADDRESS":"尊南街２８號","OBJECTID":587085},"geometry":{"x":166821.16999999993,"y":2541835.7100000009}},{"attributes":{"ID":587113,"DIS_CODE":0,"TOWNNAME":"歸仁區","LI":"八甲里","LIN":"11鄰","STREET":"大明二街","SECT":" ","MAREA":" ","LANE":" ","ALLEY":" ","HOUSE_NO":"８７號","E_COORD97":177788.42000000001,"N_COORD97":2541968.6099999999,"ADDRESS":"大明二街８７號","OBJECTID":587086},"geometry":{"x":177788.42000000086,"y":2541968.6100000013}},{"attributes":{"ID":587114,"DIS_CODE":0,"TOWNNAME":"歸仁區","LI":"文化里","LIN":"11鄰","STREET":"文化北街","SECT":" ","MAREA":" ","LANE":" ","ALLEY":" ","HOUSE_NO":"１６號","E_COORD97":177403.12,"N_COORD97":2541401.2599999998,"ADDRESS":"文化北街１６號","OBJECTID":587087},"geometry":{"x":177403.12000000011,"y":2541401.2599999979}},{"attributes":{"ID":587115,"DIS_CODE":0,"TOWNNAME":"歸仁區","LI":"八甲里","LIN":"11鄰","STREET":"大明二街","SECT":" ","MAREA":" ","LANE":" ","ALLEY":" ","HOUSE_NO":"８９號","E_COORD97":177783.32000000001,"N_COORD97":2541968.6099999999,"ADDRESS":"大明二街８９號","OBJECTID":587088},"geometry":{"x":177783.32000000123,"y":2541968.6100000013}},{"attributes":{"ID":587116,"DIS_CODE":0,"TOWNNAME":"歸仁區","LI":"文化里","LIN":"11鄰","STREET":"文化北街","SECT":" ","MAREA":" ","LANE":" ","ALLEY":" ","HOUSE_NO":"４２號","E_COORD97":177349.82000000001,"N_COORD97":2541405.2599999998,"ADDRESS":"文化北街４２號","OBJECTID":587089},"geometry":{"x":177349.8200000003,"y":2541405.2600000016}},{"attributes":{"ID":587117,"DIS_CODE":0,"TOWNNAME":"歸仁區","LI":"大廟里","LIN":"11鄰","STREET":"大廟五街","SECT":" ","MAREA":" ","LANE":" ","ALLEY":" ","HOUSE_NO":"２４號","E_COORD97":175946.17000000001,"N_COORD97":2544197.25,"ADDRESS":"大廟五街２４號","OBJECTID":587090},"geometry":{"x":175946.17000000086,"y":2544197.25}},{"attributes":{"ID":587118,"DIS_CODE":0,"TOWNNAME":"歸仁區","LI":"八甲里","LIN":"11鄰","STREET":"大明二街","SECT":" ","MAREA":" ","LANE":" ","ALLEY":" ","HOUSE_NO":"８５號","E_COORD97":177792.51999999999,"N_COORD97":2541968.6099999999,"ADDRESS":"大明二街８５號","OBJECTID":587091},"geometry":{"x":177792.52000000048,"y":2541968.6100000013}},{"attributes":{"ID":587119,"DIS_CODE":0,"TOWNNAME":"歸仁區","LI":"文化里","LIN":"11鄰","STREET":"文化北街","SECT":" ","MAREA":" ","LANE":" ","ALLEY":" ","HOUSE_NO":"４６號","E_COORD97":177344.72,"N_COORD97":2541405.2599999998,"ADDRESS":"文化北街４６號","OBJECTID":587092},"geometry":{"x":177344.71999999974,"y":2541405.2600000016}},{"attributes":{"ID":587120,"DIS_CODE":0,"TOWNNAME":"歸仁區","LI":"大廟里","LIN":"11鄰","STREET":"大廟五街","SECT":" ","MAREA":" ","LANE":" ","ALLEY":" ","HOUSE_NO":"２８號","E_COORD97":175955.17999999999,"N_COORD97":2544204.9900000002,"ADDRESS":"大廟五街２８號","OBJECTID":587093},"geometry":{"x":175955.1799999997,"y":2544204.9900000021}},{"attributes":{"ID":587121,"DIS_CODE":0,"TOWNNAME":"歸仁區","LI":"文化里","LIN":"11鄰","STREET":"文化北街","SECT":" ","MAREA":" ","LANE":" ","ALLEY":" ","HOUSE_NO":"５０號","E_COORD97":177336.51999999999,"N_COORD97":2541405.2599999998,"ADDRESS":"文化北街５０號","OBJECTID":587094},"geometry":{"x":177336.52000000048,"y":2541405.2600000016}},{"attributes":{"ID":587122,"DIS_CODE":0,"TOWNNAME":"歸仁區","LI":"八甲里","LIN":"11鄰","STREET":"大明二街","SECT":" ","MAREA":" ","LANE":" ","ALLEY":" ","HOUSE_NO":"９６號","E_COORD97":177747.51999999999,"N_COORD97":2541984.6099999999,"ADDRESS":"大明二街９６號","OBJECTID":587095},"geometry":{"x":177747.51999999955,"y":2541984.6099999994}},{"attributes":{"ID":587123,"DIS_CODE":0,"TOWNNAME":"歸仁區","LI":"文化里","LIN":"11鄰","STREET":"文化北街","SECT":" ","MAREA":" ","LANE":" ","ALLEY":" ","HOUSE_NO":"５２號","E_COORD97":177333.42000000001,"N_COORD97":2541406.2599999998,"ADDRESS":"文化北街５２號","OBJECTID":587096},"geometry":{"x":177333.41999999993,"y":2541406.2600000016}},{"attributes":{"ID":587124,"DIS_CODE":0,"TOWNNAME":"歸仁區","LI":"八甲里","LIN":"11鄰","STREET":"大明二街","SECT":" ","MAREA":" ","LANE":" ","ALLEY":" ","HOUSE_NO":"８８號","E_COORD97":177790.62,"N_COORD97":2541992.6099999999,"ADDRESS":"大明二街８８號","OBJECTID":587097},"geometry":{"x":177790.62000000104,"y":2541992.6100000013}},{"attributes":{"ID":587125,"DIS_CODE":0,"TOWNNAME":"歸仁區","LI":"七甲里","LIN":"11鄰","STREET":"丁厝街","SECT":" ","MAREA":" ","LANE":" ","ALLEY":" ","HOUSE_NO":"１１７號","E_COORD97":175782.56,"N_COORD97":2541934.54,"ADDRESS":"丁厝街１１７號","OBJECTID":587098},"geometry":{"x":175782.55999999959,"y":2541934.5400000028}},{"attributes":{"ID":587126,"DIS_CODE":0,"TOWNNAME":"歸仁區","LI":"七甲里","LIN":"11鄰","STREET":"大德路","SECT":" ","MAREA":" ","LANE":" ","ALLEY":" ","HOUSE_NO":"１１２２號","E_COORD97":175698.48000000001,"N_COORD97":2541571.4100000001,"ADDRESS":"大德路１１２２號","OBJECTID":587099},"geometry":{"x":175698.48000000138,"y":2541571.410000002}},{"attributes":{"ID":587127,"DIS_CODE":0,"TOWNNAME":"歸仁區","LI":"看東里","LIN":"11鄰","STREET":"中山一街","SECT":" ","MAREA":" ","LANE":" ","ALLEY":" ","HOUSE_NO":"９８號","E_COORD97":178636.37,"N_COORD97":2540432.5800000001,"ADDRESS":"中山一街９８號","OBJECTID":587100},"geometry":{"x":178636.37000000197,"y":2540432.5800000001}},{"attributes":{"ID":587128,"DIS_CODE":0,"TOWNNAME":"歸仁區","LI":"六甲里","LIN":"11鄰","STREET":"凱旋路","SECT":"三段","MAREA":" ","LANE":" ","ALLEY":" ","HOUSE_NO":"１２９號","E_COORD97":176263.45999999999,"N_COORD97":2538987.4300000002,"ADDRESS":"凱旋路三段１２９號","OBJECTID":587101},"geometry":{"x":176263.45999999996,"y":2538987.4300000016}},{"attributes":{"ID":587129,"DIS_CODE":0,"TOWNNAME":"南區","LI":"廣州里","LIN":"11鄰","STREET":"健民街","SECT":" ","MAREA":" ","LANE":" ","ALLEY":" ","HOUSE_NO":"１２號","E_COORD97":167407.97,"N_COORD97":2542736.5600000001,"ADDRESS":"健民街１２號","OBJECTID":587102},"geometry":{"x":167407.9700000016,"y":2542736.5600000024}},{"attributes":{"ID":587130,"DIS_CODE":0,"TOWNNAME":"南區","LI":"佛壇里","LIN":"11鄰","STREET":"灣裡路","SECT":" ","MAREA":" ","LANE":" ","ALLEY":" ","HOUSE_NO":"４２９號","E_COORD97":166256.29999999999,"N_COORD97":2535979.6000000001,"ADDRESS":"灣裡路４２９號","OBJECTID":587103},"geometry":{"x":166256.29999999981,"y":2535979.5999999996}},{"attributes":{"ID":587131,"DIS_CODE":0,"TOWNNAME":"南區","LI":"佛壇里","LIN":"11鄰","STREET":"灣裡路","SECT":" ","MAREA":" ","LANE":" ","ALLEY":" ","HOUSE_NO":"４３１號","E_COORD97":166255.82999999999,"N_COORD97":2535970.7999999998,"ADDRESS":"灣裡路４３１號","OBJECTID":587104},"geometry":{"x":166255.83000000007,"y":2535970.8000000045}},{"attributes":{"ID":587132,"DIS_CODE":0,"TOWNNAME":"南區","LI":"田寮里","LIN":"11鄰","STREET":"新興路","SECT":" ","MAREA":" ","LANE":" ","ALLEY":" ","HOUSE_NO":"１０３號","E_COORD97":167560.07000000001,"N_COORD97":2542140.5499999998,"ADDRESS":"新興路１０３號","OBJECTID":587105},"geometry":{"x":167560.0700000003,"y":2542140.5500000026}},{"attributes":{"ID":587133,"DIS_CODE":0,"TOWNNAME":"南區","LI":"田寮里","LIN":"11鄰","STREET":"新興路","SECT":" ","MAREA":" ","LANE":" ","ALLEY":" ","HOUSE_NO":"１０５號","E_COORD97":167556.79000000001,"N_COORD97":2542138.2799999998,"ADDRESS":"新興路１０５號","OBJECTID":587106},"geometry":{"x":167556.79000000004,"y":2542138.2800000012}},{"attributes":{"ID":587134,"DIS_CODE":0,"TOWNNAME":"南區","LI":"田寮里","LIN":"11鄰","STREET":"新興路","SECT":" ","MAREA":" ","LANE":" ","ALLEY":" ","HOUSE_NO":"１０７號","E_COORD97":167553,"N_COORD97":2542135.8799999999,"ADDRESS":"新興路１０７號","OBJECTID":587107},"geometry":{"x":167553.00000000093,"y":2542135.8800000008}},{"attributes":{"ID":587135,"DIS_CODE":0,"TOWNNAME":"南區","LI":"田寮里","LIN":"11鄰","STREET":"新興路","SECT":" ","MAREA":" ","LANE":" ","ALLEY":" ","HOUSE_NO":"１０９號","E_COORD97":167549.84,"N_COORD97":2542132.8599999999,"ADDRESS":"新興路１０９號","OBJECTID":587108},"geometry":{"x":167549.84000000171,"y":2542132.8600000031}},{"attributes":{"ID":587136,"DIS_CODE":0,"TOWNNAME":"南區","LI":"田寮里","LIN":"11鄰","STREET":"新興路","SECT":" ","MAREA":" ","LANE":" ","ALLEY":" ","HOUSE_NO":"１１１號","E_COORD97":167545.67999999999,"N_COORD97":2542125.04,"ADDRESS":"新興路１１１號","OBJECTID":587109},"geometry":{"x":167545.68000000156,"y":2542125.040000001}},{"attributes":{"ID":587137,"DIS_CODE":0,"TOWNNAME":"南區","LI":"建南里","LIN":"11鄰","STREET":"德興路","SECT":" ","MAREA":" ","LANE":" ","ALLEY":" ","HOUSE_NO":"３１６號","E_COORD97":167205.62,"N_COORD97":2539892.5800000001,"ADDRESS":"德興路３１６號","OBJECTID":587110},"geometry":{"x":167205.62000000197,"y":2539892.5800000019}},{"attributes":{"ID":587138,"DIS_CODE":0,"TOWNNAME":"南區","LI":"建南里","LIN":"11鄰","STREET":"德興路","SECT":" ","MAREA":" ","LANE":" ","ALLEY":" ","HOUSE_NO":"３１８號","E_COORD97":167206,"N_COORD97":2539888.2599999998,"ADDRESS":"德興路３１８號","OBJECTID":587111},"geometry":{"x":167206,"y":2539888.2599999998}},{"attributes":{"ID":587139,"DIS_CODE":0,"TOWNNAME":"南區","LI":"建南里","LIN":"11鄰","STREET":"德興路","SECT":" ","MAREA":" ","LANE":" ","ALLEY":" ","HOUSE_NO":"３２０號","E_COORD97":167205.29000000001,"N_COORD97":2539883.0899999999,"ADDRESS":"德興路３２０號","OBJECTID":587112},"geometry":{"x":167205.29000000004,"y":2539883.0899999999}},{"attributes":{"ID":587140,"DIS_CODE":0,"TOWNNAME":"南區","LI":"彰南里","LIN":"11鄰","STREET":"新忠路","SECT":" ","MAREA":" ","LANE":" ","ALLEY":" ","HOUSE_NO":"３１號","E_COORD97":165907.01999999999,"N_COORD97":2542217.3199999998,"ADDRESS":"新忠路３１號","OBJECTID":587113},"geometry":{"x":165907.01999999955,"y":2542217.3200000003}},{"attributes":{"ID":587141,"DIS_CODE":0,"TOWNNAME":"南區","LI":"新昌里","LIN":"11鄰","STREET":"西門路","SECT":"一段","MAREA":" ","LANE":" ","ALLEY":" ","HOUSE_NO":"５９９號","E_COORD97":167706.56,"N_COORD97":2542831.0899999999,"ADDRESS":"西門路一段５９９號","OBJECTID":587114},"geometry":{"x":167706.55999999959,"y":2542831.0900000017}},{"attributes":{"ID":587142,"DIS_CODE":0,"TOWNNAME":"南區","LI":"喜東里","LIN":"11鄰","STREET":"明興路","SECT":" ","MAREA":" ","LANE":" ","ALLEY":" ","HOUSE_NO":"７３２號","E_COORD97":166037.01999999999,"N_COORD97":2537935.77,"ADDRESS":"明興路７３２號","OBJECTID":587115},"geometry":{"x":166037.01999999955,"y":2537935.7699999996}},{"attributes":{"ID":587143,"DIS_CODE":0,"TOWNNAME":"南區","LI":"佛壇里","LIN":"11鄰","STREET":"灣裡路","SECT":" ","MAREA":" ","LANE":" ","ALLEY":" ","HOUSE_NO":"４１３號","E_COORD97":166245.10000000001,"N_COORD97":2536015.2000000002,"ADDRESS":"灣裡路４１３號","OBJECTID":587116},"geometry":{"x":166245.09999999963,"y":2536015.2000000011}},{"attributes":{"ID":587144,"DIS_CODE":0,"TOWNNAME":"南區","LI":"文華里","LIN":"11鄰","STREET":"文南路","SECT":" ","MAREA":" ","LANE":" ","ALLEY":" ","HOUSE_NO":"２３８號","E_COORD97":166964.70000000001,"N_COORD97":2542904.3999999999,"ADDRESS":"文南路２３８號","OBJECTID":587117},"geometry":{"x":166964.70000000112,"y":2542904.4000000022}},{"attributes":{"ID":587145,"DIS_CODE":0,"TOWNNAME":"南區","LI":"文華里","LIN":"11鄰","STREET":"文南路","SECT":" ","MAREA":" ","LANE":" ","ALLEY":" ","HOUSE_NO":"２４０號","E_COORD97":166964.60999999999,"N_COORD97":2542909.7799999998,"ADDRESS":"文南路２４０號","OBJECTID":587118},"geometry":{"x":166964.61000000034,"y":2542909.7800000031}},{"attributes":{"ID":587146,"DIS_CODE":0,"TOWNNAME":"南區","LI":"文華里","LIN":"11鄰","STREET":"文南路","SECT":" ","MAREA":" ","LANE":" ","ALLEY":" ","HOUSE_NO":"２４２號","E_COORD97":166964.79000000001,"N_COORD97":2542915.1600000001,"ADDRESS":"文南路２４２號","OBJECTID":587119},"geometry":{"x":166964.79000000004,"y":2542915.160000002}},{"attributes":{"ID":587147,"DIS_CODE":0,"TOWNNAME":"安平區","LI":"文平里","LIN":"11鄰","STREET":"文平路","SECT":" ","MAREA":" ","LANE":" ","ALLEY":" ","HOUSE_NO":"２７０號","E_COORD97":165767.03,"N_COORD97":2543286.29,"ADDRESS":"文平路２７０號","OBJECTID":587120},"geometry":{"x":165767.03000000026,"y":2543286.290000001}},{"attributes":{"ID":587148,"DIS_CODE":0,"TOWNNAME":"安平區","LI":"建平里","LIN":"11鄰","STREET":"慶平路","SECT":" ","MAREA":" ","LANE":" ","ALLEY":" ","HOUSE_NO":"１６３號","E_COORD97":166027.79999999999,"N_COORD97":2544172.0899999999,"ADDRESS":"慶平路１６３號","OBJECTID":587121},"geometry":{"x":166027.80000000168,"y":2544172.0899999999}},{"attributes":{"ID":587149,"DIS_CODE":0,"TOWNNAME":"鹽水區","LI":"水秀里","LIN":"11鄰","STREET":"朝琴路","SECT":" ","MAREA":" ","LANE":" ","ALLEY":" ","HOUSE_NO":"１０１號","E_COORD97":175335.12,"N_COORD97":2580110.6299999999,"ADDRESS":"朝琴路１０１號","OBJECTID":587122},"geometry":{"x":175335.12000000011,"y":2580110.6300000008}},{"attributes":{"ID":587150,"DIS_CODE":0,"TOWNNAME":"鹽水區","LI":"水秀里","LIN":"11鄰","STREET":"朝琴路","SECT":" ","MAREA":" ","LANE":" ","ALLEY":" ","HOUSE_NO":"１０３號","E_COORD97":175339.67999999999,"N_COORD97":2580112.79,"ADDRESS":"朝琴路１０３號","OBJECTID":587123},"geometry":{"x":175339.6799999997,"y":2580112.790000001}},{"attributes":{"ID":587151,"DIS_CODE":0,"TOWNNAME":"鹽水區","LI":"水秀里","LIN":"11鄰","STREET":"朝琴路","SECT":" ","MAREA":" ","LANE":" ","ALLEY":" ","HOUSE_NO":"９１號","E_COORD97":175318.91,"N_COORD97":2580099.6899999999,"ADDRESS":"朝琴路９１號","OBJECTID":587124},"geometry":{"x":175318.91000000108,"y":2580099.6900000032}},{"attributes":{"ID":587152,"DIS_CODE":0,"TOWNNAME":"鹽水區","LI":"水秀里","LIN":"11鄰","STREET":"朝琴路","SECT":" ","MAREA":" ","LANE":" ","ALLEY":" ","HOUSE_NO":"９３號","E_COORD97":175322.60999999999,"N_COORD97":2580101.8700000001,"ADDRESS":"朝琴路９３號","OBJECTID":587125},"geometry":{"x":175322.6100000022,"y":2580101.870000001}},{"attributes":{"ID":587153,"DIS_CODE":0,"TOWNNAME":"鹽水區","LI":"水秀里","LIN":"11鄰","STREET":"朝琴路","SECT":" ","MAREA":" ","LANE":" ","ALLEY":" ","HOUSE_NO":"９５號","E_COORD97":175325.92000000001,"N_COORD97":2580103.8500000001,"ADDRESS":"朝琴路９５號","OBJECTID":587126},"geometry":{"x":175325.92000000086,"y":2580103.8499999996}},{"attributes":{"ID":587154,"DIS_CODE":0,"TOWNNAME":"鹽水區","LI":"水秀里","LIN":"11鄰","STREET":"朝琴路","SECT":" ","MAREA":" ","LANE":" ","ALLEY":" ","HOUSE_NO":"９７號","E_COORD97":175328.70000000001,"N_COORD97":2580105.4900000002,"ADDRESS":"朝琴路９７號","OBJECTID":587127},"geometry":{"x":175328.70000000112,"y":2580105.4900000021}},{"attributes":{"ID":587155,"DIS_CODE":0,"TOWNNAME":"鹽水區","LI":"水秀里","LIN":"11鄰","STREET":"朝琴路","SECT":" ","MAREA":" ","LANE":" ","ALLEY":" ","HOUSE_NO":"９９之１號","E_COORD97":175323.45000000001,"N_COORD97":2580128.0800000001,"ADDRESS":"朝琴路９９之１號","OBJECTID":587128},"geometry":{"x":175323.45000000205,"y":2580128.0800000038}},{"attributes":{"ID":587156,"DIS_CODE":0,"TOWNNAME":"鹽水區","LI":"水秀里","LIN":"11鄰","STREET":"朝琴路","SECT":" ","MAREA":" ","LANE":" ","ALLEY":" ","HOUSE_NO":"９９號","E_COORD97":175331.94,"N_COORD97":2580107.8900000001,"ADDRESS":"朝琴路９９號","OBJECTID":587129},"geometry":{"x":175331.94000000041,"y":2580107.8900000006}},{"attributes":{"ID":587157,"DIS_CODE":0,"TOWNNAME":"鹽水區","LI":"橋南里","LIN":"11鄰","STREET":"橋南街","SECT":" ","MAREA":" ","LANE":" ","ALLEY":" ","HOUSE_NO":"６２號","E_COORD97":175096.98999999999,"N_COORD97":2579431.9199999999,"ADDRESS":"橋南街６２號","OBJECTID":587130},"geometry":{"x":175096.99000000022,"y":2579431.9200000018}},{"attributes":{"ID":587158,"DIS_CODE":0,"TOWNNAME":"鹽水區","LI":"橋南里","LIN":"11鄰","STREET":"橋南街","SECT":" ","MAREA":" ","LANE":" ","ALLEY":" ","HOUSE_NO":"６４號","E_COORD97":175117.82000000001,"N_COORD97":2579426.4900000002,"ADDRESS":"橋南街６４號","OBJECTID":587131},"geometry":{"x":175117.82000000123,"y":2579426.4900000002}},{"attributes":{"ID":587159,"DIS_CODE":0,"TOWNNAME":"鹽水區","LI":"橋南里","LIN":"11鄰","STREET":"橋南街","SECT":" ","MAREA":" ","LANE":" ","ALLEY":" ","HOUSE_NO":"７２號","E_COORD97":175125.82000000001,"N_COORD97":2579409.8999999999,"ADDRESS":"橋南街７２號","OBJECTID":587132},"geometry":{"x":175125.8200000003,"y":2579409.9000000004}},{"attributes":{"ID":587160,"DIS_CODE":0,"TOWNNAME":"鹽水區","LI":"橋南里","LIN":"11鄰","STREET":"橋南街","SECT":" ","MAREA":" ","LANE":" ","ALLEY":" ","HOUSE_NO":"７６號","E_COORD97":175127.81,"N_COORD97":2579402.2599999998,"ADDRESS":"橋南街７６號","OBJECTID":587133},"geometry":{"x":175127.81000000052,"y":2579402.2600000016}},{"attributes":{"ID":587161,"DIS_CODE":0,"TOWNNAME":"安平區","LI":"金城里","LIN":"11鄰","STREET":"同平路","SECT":" ","MAREA":" ","LANE":" ","ALLEY":" ","HOUSE_NO":"２２０號","E_COORD97":163064.19,"N_COORD97":2543866.9300000002,"ADDRESS":"同平路２２０號","OBJECTID":587134},"geometry":{"x":163064.19000000227,"y":2543866.9299999997}},{"attributes":{"ID":587162,"DIS_CODE":0,"TOWNNAME":"南區","LI":"大忠里","LIN":"11鄰","STREET":"公英一街","SECT":" ","MAREA":" ","LANE":" ","ALLEY":" ","HOUSE_NO":"５３號","E_COORD97":169351,"N_COORD97":2541239.46,"ADDRESS":"公英一街５３號","OBJECTID":587135},"geometry":{"x":169351.00000000093,"y":2541239.4600000028}},{"attributes":{"ID":587163,"DIS_CODE":0,"TOWNNAME":"南區","LI":"大忠里","LIN":"11鄰","STREET":"公英一街","SECT":" ","MAREA":" ","LANE":" ","ALLEY":" ","HOUSE_NO":"５５號","E_COORD97":169339.57000000001,"N_COORD97":2541235.7999999998,"ADDRESS":"公英一街５５號","OBJECTID":587136},"geometry":{"x":169339.57000000123,"y":2541235.8000000007}},{"attributes":{"ID":587164,"DIS_CODE":0,"TOWNNAME":"南區","LI":"大忠里","LIN":"11鄰","STREET":"公英一街","SECT":" ","MAREA":" ","LANE":" ","ALLEY":" ","HOUSE_NO":"５７號","E_COORD97":169335.67999999999,"N_COORD97":2541235.6299999999,"ADDRESS":"公英一街５７號","OBJECTID":587137},"geometry":{"x":169335.68000000156,"y":2541235.6300000027}},{"attributes":{"ID":587165,"DIS_CODE":0,"TOWNNAME":"南區","LI":"大忠里","LIN":"11鄰","STREET":"公英一街","SECT":" ","MAREA":" ","LANE":" ","ALLEY":" ","HOUSE_NO":"５９號","E_COORD97":169331.79000000001,"N_COORD97":2541234.4500000002,"ADDRESS":"公英一街５９號","OBJECTID":587138},"geometry":{"x":169331.78999999911,"y":2541234.4500000011}},{"attributes":{"ID":587166,"DIS_CODE":0,"TOWNNAME":"南區","LI":"大忠里","LIN":"11鄰","STREET":"公英一街","SECT":" ","MAREA":" ","LANE":" ","ALLEY":" ","HOUSE_NO":"６１號","E_COORD97":169327.73000000001,"N_COORD97":2541233.1000000001,"ADDRESS":"公英一街６１號","OBJECTID":587139},"geometry":{"x":169327.73000000231,"y":2541233.1000000034}},{"attributes":{"ID":587167,"DIS_CODE":0,"TOWNNAME":"南區","LI":"大忠里","LIN":"11鄰","STREET":"公英一街","SECT":" ","MAREA":" ","LANE":" ","ALLEY":" ","HOUSE_NO":"６３號","E_COORD97":169324.34,"N_COORD97":2541231.9199999999,"ADDRESS":"公英一街６３號","OBJECTID":587140},"geometry":{"x":169324.33999999985,"y":2541231.9200000018}},{"attributes":{"ID":587168,"DIS_CODE":0,"TOWNNAME":"南區","LI":"大忠里","LIN":"11鄰","STREET":"公英一街","SECT":" ","MAREA":" ","LANE":" ","ALLEY":" ","HOUSE_NO":"６５號","E_COORD97":169312.16,"N_COORD97":2541229.0499999998,"ADDRESS":"公英一街６５號","OBJECTID":587141},"geometry":{"x":169312.16000000015,"y":2541229.0500000026}},{"attributes":{"ID":587169,"DIS_CODE":0,"TOWNNAME":"南區","LI":"大忠里","LIN":"11鄰","STREET":"公英一街","SECT":" ","MAREA":" ","LANE":" ","ALLEY":" ","HOUSE_NO":"６７號","E_COORD97":169308.44,"N_COORD97":2541228.04,"ADDRESS":"公英一街６７號","OBJECTID":587142},"geometry":{"x":169308.44000000041,"y":2541228.0399999991}},{"attributes":{"ID":587170,"DIS_CODE":0,"TOWNNAME":"南區","LI":"大忠里","LIN":"11鄰","STREET":"公英一街","SECT":" ","MAREA":" ","LANE":" ","ALLEY":" ","HOUSE_NO":"６９號","E_COORD97":169305.04999999999,"N_COORD97":2541228.21,"ADDRESS":"公英一街６９號","OBJECTID":587143},"geometry":{"x":169305.05000000075,"y":2541228.2100000028}},{"attributes":{"ID":587171,"DIS_CODE":0,"TOWNNAME":"南區","LI":"大忠里","LIN":"11鄰","STREET":"公英一街","SECT":" ","MAREA":" ","LANE":" ","ALLEY":" ","HOUSE_NO":"７１號","E_COORD97":169301.67000000001,"N_COORD97":2541227.3599999999,"ADDRESS":"公英一街７１號","OBJECTID":587144},"geometry":{"x":169301.66999999993,"y":2541227.3599999975}},{"attributes":{"ID":587172,"DIS_CODE":0,"TOWNNAME":"南區","LI":"大忠里","LIN":"11鄰","STREET":"公英一街","SECT":" ","MAREA":" ","LANE":" ","ALLEY":" ","HOUSE_NO":"７３號","E_COORD97":169298.12,"N_COORD97":2541226.52,"ADDRESS":"公英一街７３號","OBJECTID":587145},"geometry":{"x":169298.12000000104,"y":2541226.5200000033}},{"attributes":{"ID":587173,"DIS_CODE":0,"TOWNNAME":"南區","LI":"大忠里","LIN":"11鄰","STREET":"公英一街","SECT":" ","MAREA":" ","LANE":" ","ALLEY":" ","HOUSE_NO":"７５號","E_COORD97":169293.72,"N_COORD97":2541225.8399999999,"ADDRESS":"公英一街７５號","OBJECTID":587146},"geometry":{"x":169293.72000000067,"y":2541225.8400000017}},{"attributes":{"ID":587174,"DIS_CODE":0,"TOWNNAME":"南區","LI":"大忠里","LIN":"11鄰","STREET":"公英二街","SECT":" ","MAREA":" ","LANE":" ","ALLEY":" ","HOUSE_NO":"１１號","E_COORD97":169328.59,"N_COORD97":2541203.25,"ADDRESS":"公英二街１１號","OBJECTID":587147},"geometry":{"x":169328.59000000078,"y":2541203.2500000019}},{"attributes":{"ID":587175,"DIS_CODE":0,"TOWNNAME":"南區","LI":"大忠里","LIN":"11鄰","STREET":"公英二街","SECT":" ","MAREA":" ","LANE":" ","ALLEY":" ","HOUSE_NO":"１２號","E_COORD97":169341.81,"N_COORD97":2541222.9199999999,"ADDRESS":"公英二街１２號","OBJECTID":587148},"geometry":{"x":169341.81000000052,"y":2541222.9199999999}},{"attributes":{"ID":587176,"DIS_CODE":0,"TOWNNAME":"南區","LI":"大忠里","LIN":"11鄰","STREET":"公英二街","SECT":" ","MAREA":" ","LANE":" ","ALLEY":" ","HOUSE_NO":"１３號","E_COORD97":169317.10000000001,"N_COORD97":2541201.5299999998,"ADDRESS":"公英二街１３號","OBJECTID":587149},"geometry":{"x":169317.09999999963,"y":2541201.5299999993}},{"attributes":{"ID":587177,"DIS_CODE":0,"TOWNNAME":"南區","LI":"大忠里","LIN":"11鄰","STREET":"公英二街","SECT":" ","MAREA":" ","LANE":" ","ALLEY":" ","HOUSE_NO":"１４號","E_COORD97":169337.59,"N_COORD97":2541222.1600000001,"ADDRESS":"公英二街１４號","OBJECTID":587150},"geometry":{"x":169337.58999999985,"y":2541222.1600000001}},{"attributes":{"ID":587178,"DIS_CODE":0,"TOWNNAME":"南區","LI":"大忠里","LIN":"11鄰","STREET":"公英二街","SECT":" ","MAREA":" ","LANE":" ","ALLEY":" ","HOUSE_NO":"１５號","E_COORD97":169314.03,"N_COORD97":2541200.77,"ADDRESS":"公英二街１５號","OBJECTID":587151},"geometry":{"x":169314.03000000119,"y":2541200.7699999996}},{"attributes":{"ID":587179,"DIS_CODE":0,"TOWNNAME":"南區","LI":"大忠里","LIN":"11鄰","STREET":"公英二街","SECT":" ","MAREA":" ","LANE":" ","ALLEY":" ","HOUSE_NO":"１６號","E_COORD97":169333.95000000001,"N_COORD97":2541221.3999999999,"ADDRESS":"公英二街１６號","OBJECTID":587152},"geometry":{"x":169333.95000000019,"y":2541221.4000000041}},{"attributes":{"ID":587180,"DIS_CODE":0,"TOWNNAME":"南區","LI":"大忠里","LIN":"11鄰","STREET":"公英二街","SECT":" ","MAREA":" ","LANE":" ","ALLEY":" ","HOUSE_NO":"１７號","E_COORD97":169310.20000000001,"N_COORD97":2541199.8100000001,"ADDRESS":"公英二街１７號","OBJECTID":587153},"geometry":{"x":169310.20000000019,"y":2541199.8100000024}},{"attributes":{"ID":587181,"DIS_CODE":0,"TOWNNAME":"南區","LI":"大忠里","LIN":"11鄰","STREET":"公英二街","SECT":" ","MAREA":" ","LANE":" ","ALLEY":" ","HOUSE_NO":"１８號","E_COORD97":169330.12,"N_COORD97":2541220.4399999999,"ADDRESS":"公英二街１８號","OBJECTID":587154},"geometry":{"x":169330.12000000104,"y":2541220.4400000032}},{"attributes":{"ID":587182,"DIS_CODE":0,"TOWNNAME":"南區","LI":"大忠里","LIN":"11鄰","STREET":"公英二街","SECT":" ","MAREA":" ","LANE":" ","ALLEY":" ","HOUSE_NO":"１９號","E_COORD97":169306.75,"N_COORD97":2541199.4300000002,"ADDRESS":"公英二街１９號","OBJECTID":587155},"geometry":{"x":169306.75000000186,"y":2541199.4299999997}},{"attributes":{"ID":587183,"DIS_CODE":0,"TOWNNAME":"南區","LI":"大忠里","LIN":"11鄰","STREET":"公英二街","SECT":" ","MAREA":" ","LANE":" ","ALLEY":" ","HOUSE_NO":"１號","E_COORD97":169347.17000000001,"N_COORD97":2541206.3100000001,"ADDRESS":"公英二街１號","OBJECTID":587156},"geometry":{"x":169347.16999999993,"y":2541206.3100000024}},{"attributes":{"ID":587184,"DIS_CODE":0,"TOWNNAME":"南區","LI":"大忠里","LIN":"11鄰","STREET":"公英二街","SECT":" ","MAREA":" ","LANE":" ","ALLEY":" ","HOUSE_NO":"２０號","E_COORD97":169326.10000000001,"N_COORD97":2541220.0600000001,"ADDRESS":"公英二街２０號","OBJECTID":587157},"geometry":{"x":169326.10000000149,"y":2541220.0600000005}},{"attributes":{"ID":587185,"DIS_CODE":0,"TOWNNAME":"南區","LI":"大忠里","LIN":"11鄰","STREET":"公英二街","SECT":" ","MAREA":" ","LANE":" ","ALLEY":" ","HOUSE_NO":"２１號","E_COORD97":169303.10999999999,"N_COORD97":2541198.6699999999,"ADDRESS":"公英二街２１號","OBJECTID":587158},"geometry":{"x":169303.11000000127,"y":2541198.6699999981}},{"attributes":{"ID":587186,"DIS_CODE":0,"TOWNNAME":"南區","LI":"大忠里","LIN":"11鄰","STREET":"公英二街","SECT":" ","MAREA":" ","LANE":" ","ALLEY":" ","HOUSE_NO":"２２號","E_COORD97":169314.60000000001,"N_COORD97":2541216.8100000001,"ADDRESS":"公英二街２２號","OBJECTID":587159},"geometry":{"x":169314.60000000056,"y":2541216.8100000024}},{"attributes":{"ID":587187,"DIS_CODE":0,"TOWNNAME":"南區","LI":"大忠里","LIN":"11鄰","STREET":"公英二街","SECT":" ","MAREA":" ","LANE":" ","ALLEY":" ","HOUSE_NO":"２３號","E_COORD97":169299.66,"N_COORD97":2541198.1000000001,"ADDRESS":"公英二街２３號","OBJECTID":587160},"geometry":{"x":169299.66000000108,"y":2541198.0999999996}},{"attributes":{"ID":587188,"DIS_CODE":0,"TOWNNAME":"南區","LI":"大忠里","LIN":"11鄰","STREET":"公英二街","SECT":" ","MAREA":" ","LANE":" ","ALLEY":" ","HOUSE_NO":"２４號","E_COORD97":169310.97,"N_COORD97":2541215.8599999999,"ADDRESS":"公英二街２４號","OBJECTID":587161},"geometry":{"x":169310.96999999974,"y":2541215.8599999994}},{"attributes":{"ID":587189,"DIS_CODE":0,"TOWNNAME":"南區","LI":"大忠里","LIN":"11鄰","STREET":"公英二街","SECT":" ","MAREA":" ","LANE":" ","ALLEY":" ","HOUSE_NO":"２５號","E_COORD97":169296.01999999999,"N_COORD97":2541197.71,"ADDRESS":"公英二街２５號","OBJECTID":587162},"geometry":{"x":169296.02000000142,"y":2541197.7100000028}},{"attributes":{"ID":587190,"DIS_CODE":0,"TOWNNAME":"南區","LI":"大忠里","LIN":"11鄰","STREET":"公英二街","SECT":" ","MAREA":" ","LANE":" ","ALLEY":" ","HOUSE_NO":"２６號","E_COORD97":169307.70999999999,"N_COORD97":2541215.29,"ADDRESS":"公英二街２６號","OBJECTID":587163},"geometry":{"x":169307.71000000089,"y":2541215.290000001}},{"attributes":{"ID":587191,"DIS_CODE":0,"TOWNNAME":"南區","LI":"大忠里","LIN":"11鄰","STREET":"公英二街","SECT":" ","MAREA":" ","LANE":" ","ALLEY":" ","HOUSE_NO":"２８號","E_COORD97":169304.07000000001,"N_COORD97":2541214.52,"ADDRESS":"公英二街２８號","OBJECTID":587164},"geometry":{"x":169304.0700000003,"y":2541214.5200000014}},{"attributes":{"ID":587192,"DIS_CODE":0,"TOWNNAME":"南區","LI":"大忠里","LIN":"11鄰","STREET":"公英二街","SECT":" ","MAREA":" ","LANE":" ","ALLEY":" ","HOUSE_NO":"３０號","E_COORD97":169300.42999999999,"N_COORD97":2541214.1400000001,"ADDRESS":"公英二街３０號","OBJECTID":587165},"geometry":{"x":169300.43000000063,"y":2541214.1400000025}},{"attributes":{"ID":587193,"DIS_CODE":0,"TOWNNAME":"南區","LI":"大忠里","LIN":"11鄰","STREET":"公英二街","SECT":" ","MAREA":" ","LANE":" ","ALLEY":" ","HOUSE_NO":"３２號","E_COORD97":169297.17000000001,"N_COORD97":2541213.5699999998,"ADDRESS":"公英二街３２號","OBJECTID":587166},"geometry":{"x":169297.17000000086,"y":2541213.570000004}},{"attributes":{"ID":587194,"DIS_CODE":0,"TOWNNAME":"南區","LI":"大忠里","LIN":"11鄰","STREET":"公英二街","SECT":" ","MAREA":" ","LANE":" ","ALLEY":" ","HOUSE_NO":"３４號","E_COORD97":169293.14999999999,"N_COORD97":2541212.6099999999,"ADDRESS":"公英二街３４號","OBJECTID":587167},"geometry":{"x":169293.1500000013,"y":2541212.6100000013}},{"attributes":{"ID":587195,"DIS_CODE":0,"TOWNNAME":"南區","LI":"大忠里","LIN":"11鄰","STREET":"公英二街","SECT":" ","MAREA":" ","LANE":" ","ALLEY":" ","HOUSE_NO":"３號","E_COORD97":169342.95999999999,"N_COORD97":2541205.7400000002,"ADDRESS":"公英二街３號","OBJECTID":587168},"geometry":{"x":169342.96000000089,"y":2541205.7400000021}},{"attributes":{"ID":587196,"DIS_CODE":0,"TOWNNAME":"南區","LI":"大忠里","LIN":"11鄰","STREET":"公英二街","SECT":" ","MAREA":" ","LANE":" ","ALLEY":" ","HOUSE_NO":"５號","E_COORD97":169339.51000000001,"N_COORD97":2541205.3500000001,"ADDRESS":"公英二街５號","OBJECTID":587169},"geometry":{"x":169339.50999999978,"y":2541205.3500000015}},{"attributes":{"ID":587197,"DIS_CODE":0,"TOWNNAME":"南區","LI":"大忠里","LIN":"11鄰","STREET":"公英二街","SECT":" ","MAREA":" ","LANE":" ","ALLEY":" ","HOUSE_NO":"７號","E_COORD97":169336.06,"N_COORD97":2541204.5899999999,"ADDRESS":"公英二街７號","OBJECTID":587170},"geometry":{"x":169336.05999999959,"y":2541204.5899999999}},{"attributes":{"ID":587198,"DIS_CODE":0,"TOWNNAME":"南區","LI":"大忠里","LIN":"11鄰","STREET":"公英二街","SECT":" ","MAREA":" ","LANE":" ","ALLEY":" ","HOUSE_NO":"９號","E_COORD97":169332.42000000001,"N_COORD97":2541204.02,"ADDRESS":"公英二街９號","OBJECTID":587171},"geometry":{"x":169332.41999999993,"y":2541204.0200000014}},{"attributes":{"ID":587199,"DIS_CODE":0,"TOWNNAME":"歸仁區","LI":"看東里","LIN":"11鄰","STREET":"忠孝南路","SECT":" ","MAREA":" ","LANE":" ","ALLEY":" ","HOUSE_NO":"１１５號","E_COORD97":178545.10000000001,"N_COORD97":2540367.48,"ADDRESS":"忠孝南路１１５號","OBJECTID":587172},"geometry":{"x":178545.10000000056,"y":2540367.4800000023}},{"attributes":{"ID":587200,"DIS_CODE":0,"TOWNNAME":"歸仁區","LI":"許厝里","LIN":"11鄰","STREET":"公園路","SECT":" ","MAREA":" ","LANE":" ","ALLEY":" ","HOUSE_NO":"４１號","E_COORD97":178162.37,"N_COORD97":2540563.1000000001,"ADDRESS":"公園路４１號","OBJECTID":587173},"geometry":{"x":178162.37000000104,"y":2540563.1000000015}},{"attributes":{"ID":587201,"DIS_CODE":0,"TOWNNAME":"歸仁區","LI":"看東里","LIN":"11鄰","STREET":"忠孝南路","SECT":" ","MAREA":" ","LANE":" ","ALLEY":" ","HOUSE_NO":"１０５號","E_COORD97":178535.89999999999,"N_COORD97":2540388.48,"ADDRESS":"忠孝南路１０５號","OBJECTID":587174},"geometry":{"x":178535.90000000037,"y":2540388.4800000023}},{"attributes":{"ID":587202,"DIS_CODE":0,"TOWNNAME":"歸仁區","LI":"南保里","LIN":"11鄰","STREET":"文化街","SECT":"三段","MAREA":" ","LANE":" ","ALLEY":" ","HOUSE_NO":"１４２之１號","E_COORD97":176651.51999999999,"N_COORD97":2541211.2599999998,"ADDRESS":"文化街三段１４２之１號","OBJECTID":587175},"geometry":{"x":176651.52000000048,"y":2541211.2599999998}},{"attributes":{"ID":587203,"DIS_CODE":0,"TOWNNAME":"歸仁區","LI":"看東里","LIN":"11鄰","STREET":"忠孝南路","SECT":" ","MAREA":" ","LANE":" ","ALLEY":" ","HOUSE_NO":"１１３號","E_COORD97":178542,"N_COORD97":2540371.48,"ADDRESS":"忠孝南路１１３號","OBJECTID":587176},"geometry":{"x":178541.99999999907,"y":2540371.4800000023}},{"attributes":{"ID":587204,"DIS_CODE":0,"TOWNNAME":"歸仁區","LI":"看東里","LIN":"11鄰","STREET":"忠孝南路","SECT":" ","MAREA":" ","LANE":" ","ALLEY":" ","HOUSE_NO":"１３１號","E_COORD97":178554.70999999999,"N_COORD97":2540324.96,"ADDRESS":"忠孝南路１３１號","OBJECTID":587177},"geometry":{"x":178554.71000000089,"y":2540324.9600000009}},{"attributes":{"ID":587205,"DIS_CODE":0,"TOWNNAME":"歸仁區","LI":"南保里","LIN":"11鄰","STREET":"文化街","SECT":"三段","MAREA":" ","LANE":" ","ALLEY":" ","HOUSE_NO":"１４６號","E_COORD97":176646.92000000001,"N_COORD97":2541210.2599999998,"ADDRESS":"文化街三段１４６號","OBJECTID":587178},"geometry":{"x":176646.91999999993,"y":2541210.2599999998}},{"attributes":{"ID":587206,"DIS_CODE":0,"TOWNNAME":"歸仁區","LI":"南保里","LIN":"11鄰","STREET":"文化街","SECT":"三段","MAREA":" ","LANE":" ","ALLEY":" ","HOUSE_NO":"１３８號","E_COORD97":176664.42000000001,"N_COORD97":2541213.2599999998,"ADDRESS":"文化街三段１３８號","OBJECTID":587179},"geometry":{"x":176664.42000000179,"y":2541213.2600000016}},{"attributes":{"ID":587207,"DIS_CODE":0,"TOWNNAME":"歸仁區","LI":"南保里","LIN":"11鄰","STREET":"文化街","SECT":"三段","MAREA":" ","LANE":" ","ALLEY":" ","HOUSE_NO":"１７０號","E_COORD97":176574.12,"N_COORD97":2541198.2599999998,"ADDRESS":"文化街三段１７０號","OBJECTID":587180},"geometry":{"x":176574.12000000104,"y":2541198.2600000035}},{"attributes":{"ID":587208,"DIS_CODE":0,"TOWNNAME":"歸仁區","LI":"看東里","LIN":"11鄰","STREET":"忠孝南路","SECT":" ","MAREA":" ","LANE":" ","ALLEY":" ","HOUSE_NO":"１０１號","E_COORD97":178533.89999999999,"N_COORD97":2540393.48,"ADDRESS":"忠孝南路１０１號","OBJECTID":587181},"geometry":{"x":178533.90000000037,"y":2540393.4800000004}},{"attributes":{"ID":587209,"DIS_CODE":0,"TOWNNAME":"歸仁區","LI":"南保里","LIN":"11鄰","STREET":"文化街","SECT":"三段","MAREA":" ","LANE":" ","ALLEY":" ","HOUSE_NO":"１５４號","E_COORD97":176629.51999999999,"N_COORD97":2541208.2599999998,"ADDRESS":"文化街三段１５４號","OBJECTID":587182},"geometry":{"x":176629.52000000048,"y":2541208.2600000035}},{"attributes":{"ID":587210,"DIS_CODE":0,"TOWNNAME":"歸仁區","LI":"南保里","LIN":"11鄰","STREET":"文化街","SECT":"三段","MAREA":" ","LANE":" ","ALLEY":" ","HOUSE_NO":"１４０號","E_COORD97":176660.32000000001,"N_COORD97":2541212.2599999998,"ADDRESS":"文化街三段１４０號","OBJECTID":587183},"geometry":{"x":176660.32000000216,"y":2541212.2600000016}},{"attributes":{"ID":587211,"DIS_CODE":0,"TOWNNAME":"歸仁區","LI":"看東里","LIN":"11鄰","STREET":"忠孝南路","SECT":" ","MAREA":" ","LANE":" ","ALLEY":" ","HOUSE_NO":"１２７號","E_COORD97":178552.70999999999,"N_COORD97":2540332.96,"ADDRESS":"忠孝南路１２７號","OBJECTID":587184},"geometry":{"x":178552.71000000089,"y":2540332.9600000009}},{"attributes":{"ID":587212,"DIS_CODE":0,"TOWNNAME":"歸仁區","LI":"崙頂里","LIN":"11鄰","STREET":"成功九街","SECT":" ","MAREA":" ","LANE":" ","ALLEY":" ","HOUSE_NO":"２５０號","E_COORD97":178182.48000000001,"N_COORD97":2539217.25,"ADDRESS":"成功九街２５０號","OBJECTID":587185},"geometry":{"x":178182.48000000045,"y":2539217.25}},{"attributes":{"ID":587213,"DIS_CODE":0,"TOWNNAME":"歸仁區","LI":"看東里","LIN":"11鄰","STREET":"忠孝南路","SECT":" ","MAREA":" ","LANE":" ","ALLEY":" ","HOUSE_NO":"１３３號","E_COORD97":178555.70999999999,"N_COORD97":2540319.96,"ADDRESS":"忠孝南路１３３號","OBJECTID":587186},"geometry":{"x":178555.70999999996,"y":2540319.9600000046}},{"attributes":{"ID":587214,"DIS_CODE":0,"TOWNNAME":"歸仁區","LI":"看東里","LIN":"11鄰","STREET":"忠孝南路","SECT":" ","MAREA":" ","LANE":" ","ALLEY":" ","HOUSE_NO":"１１１號","E_COORD97":178540,"N_COORD97":2540376.48,"ADDRESS":"忠孝南路１１１號","OBJECTID":587187},"geometry":{"x":178540,"y":2540376.4800000004}},{"attributes":{"ID":587215,"DIS_CODE":0,"TOWNNAME":"歸仁區","LI":"看東里","LIN":"11鄰","STREET":"忠孝南路","SECT":" ","MAREA":" ","LANE":" ","ALLEY":" ","HOUSE_NO":"１３５號","E_COORD97":178555.70999999999,"N_COORD97":2540315.96,"ADDRESS":"忠孝南路１３５號","OBJECTID":587188},"geometry":{"x":178555.70999999996,"y":2540315.9600000009}},{"attributes":{"ID":587216,"DIS_CODE":0,"TOWNNAME":"歸仁區","LI":"崙頂里","LIN":"11鄰","STREET":"成功九街","SECT":" ","MAREA":" ","LANE":" ","ALLEY":" ","HOUSE_NO":"２號","E_COORD97":178079.60000000001,"N_COORD97":2539745.27,"ADDRESS":"成功九街２號","OBJECTID":587189},"geometry":{"x":178079.59999999963,"y":2539745.2699999996}},{"attributes":{"ID":587217,"DIS_CODE":0,"TOWNNAME":"歸仁區","LI":"南保里","LIN":"11鄰","STREET":"文化街","SECT":"三段","MAREA":" ","LANE":" ","ALLEY":" ","HOUSE_NO":"１８２號","E_COORD97":176574.22,"N_COORD97":2541228.2599999998,"ADDRESS":"文化街三段１８２號","OBJECTID":587190},"geometry":{"x":176574.22000000067,"y":2541228.2599999998}},{"attributes":{"ID":587218,"DIS_CODE":0,"TOWNNAME":"歸仁區","LI":"看東里","LIN":"11鄰","STREET":"忠孝南路","SECT":" ","MAREA":" ","LANE":" ","ALLEY":" ","HOUSE_NO":"９７號","E_COORD97":178529.54999999999,"N_COORD97":2540401.48,"ADDRESS":"忠孝南路９７號","OBJECTID":587191},"geometry":{"x":178529.54999999981,"y":2540401.4800000023}},{"attributes":{"ID":587219,"DIS_CODE":0,"TOWNNAME":"歸仁區","LI":"南保里","LIN":"11鄰","STREET":"文化街","SECT":"三段","MAREA":" ","LANE":" ","ALLEY":" ","HOUSE_NO":"１５２號","E_COORD97":176633.62,"N_COORD97":2541209.2599999998,"ADDRESS":"文化街三段１５２號","OBJECTID":587192},"geometry":{"x":176633.62000000011,"y":2541209.2600000016}},{"attributes":{"ID":587220,"DIS_CODE":0,"TOWNNAME":"歸仁區","LI":"南保里","LIN":"11鄰","STREET":"文化街","SECT":"三段","MAREA":" ","LANE":" ","ALLEY":" ","HOUSE_NO":"１６８號","E_COORD97":176579.22,"N_COORD97":2541199.2599999998,"ADDRESS":"文化街三段１６８號","OBJECTID":587193},"geometry":{"x":176579.22000000067,"y":2541199.2600000016}},{"attributes":{"ID":587221,"DIS_CODE":0,"TOWNNAME":"歸仁區","LI":"南保里","LIN":"11鄰","STREET":"文化街","SECT":"三段","MAREA":" ","LANE":" ","ALLEY":" ","HOUSE_NO":"１３６號","E_COORD97":176669.51999999999,"N_COORD97":2541214.2599999998,"ADDRESS":"文化街三段１３６號","OBJECTID":587194},"geometry":{"x":176669.51999999955,"y":2541214.2599999998}},{"attributes":{"ID":587222,"DIS_CODE":0,"TOWNNAME":"歸仁區","LI":"南保里","LIN":"11鄰","STREET":"文化街","SECT":"三段","MAREA":" ","LANE":" ","ALLEY":" ","HOUSE_NO":"１５０號","E_COORD97":176637.72,"N_COORD97":2541209.2599999998,"ADDRESS":"文化街三段１５０號","OBJECTID":587195},"geometry":{"x":176637.71999999974,"y":2541209.2600000016}},{"attributes":{"ID":587223,"DIS_CODE":0,"TOWNNAME":"歸仁區","LI":"南保里","LIN":"11鄰","STREET":"文化街","SECT":"三段","MAREA":" ","LANE":" ","ALLEY":" ","HOUSE_NO":"１８０號","E_COORD97":176575.22,"N_COORD97":2541223.2599999998,"ADDRESS":"文化街三段１８０號","OBJECTID":587196},"geometry":{"x":176575.21999999974,"y":2541223.2600000016}},{"attributes":{"ID":587224,"DIS_CODE":0,"TOWNNAME":"歸仁區","LI":"南保里","LIN":"11鄰","STREET":"文化街","SECT":"三段","MAREA":" ","LANE":" ","ALLEY":" ","HOUSE_NO":"１７６號","E_COORD97":176574.22,"N_COORD97":2541216.2599999998,"ADDRESS":"文化街三段１７６號","OBJECTID":587197},"geometry":{"x":176574.22000000067,"y":2541216.2600000016}},{"attributes":{"ID":587225,"DIS_CODE":0,"TOWNNAME":"北區","LI":"文元里","LIN":"11鄰","STREET":"文賢路","SECT":" ","MAREA":" ","LANE":" ","ALLEY":" ","HOUSE_NO":"１０８２號","E_COORD97":167358.20000000001,"N_COORD97":2546205.3700000001,"ADDRESS":"文賢路１０８２號","OBJECTID":587198},"geometry":{"x":167358.20000000112,"y":2546205.370000001}},{"attributes":{"ID":587226,"DIS_CODE":0,"TOWNNAME":"北區","LI":"文元里","LIN":"11鄰","STREET":"文賢路","SECT":" ","MAREA":" ","LANE":" ","ALLEY":" ","HOUSE_NO":"１０８６號","E_COORD97":167357.89999999999,"N_COORD97":2546218.25,"ADDRESS":"文賢路１０８６號","OBJECTID":587199},"geometry":{"x":167357.90000000037,"y":2546218.25}},{"attributes":{"ID":587227,"DIS_CODE":0,"TOWNNAME":"北區","LI":"文元里","LIN":"11鄰","STREET":"文賢路","SECT":" ","MAREA":" ","LANE":" ","ALLEY":" ","HOUSE_NO":"１０８８號","E_COORD97":167358.56,"N_COORD97":2546225.8500000001,"ADDRESS":"文賢路１０８８號","OBJECTID":587200},"geometry":{"x":167358.56000000052,"y":2546225.8500000015}}]}