{"displayFieldName":"TOWNNAME","fieldAliases":{"ID":"ID","DIS_CODE":"DIS_CODE","TOWNNAME":"TOWNNAME","LI":"LI","LIN":"LIN","STREET":"STREET","SECT":"SECT","MAREA":"MAREA","LANE":"LANE","ALLEY":"ALLEY","HOUSE_NO":"HOUSE_NO","E_COORD97":"E_COORD97","N_COORD97":"N_COORD97","ADDRESS":"ADDRESS","OBJECTID":"OBJECTID"},"geometryType":"esriGeometryPoint","spatialReference":{"wkid":102443,"latestWkid":3826},"fields":[{"name":"ID","type":"esriFieldTypeDouble","alias":"ID"},{"name":"DIS_CODE","type":"esriFieldTypeInteger","alias":"DIS_CODE"},{"name":"TOWNNAME","type":"esriFieldTypeString","alias":"TOWNNAME","length":8},{"name":"LI","type":"esriFieldTypeString","alias":"LI","length":8},{"name":"LIN","type":"esriFieldTypeString","alias":"LIN","length":12},{"name":"STREET","type":"esriFieldTypeString","alias":"STREET","length":20},{"name":"SECT","type":"esriFieldTypeString","alias":"SECT","length":8},{"name":"MAREA","type":"esriFieldTypeString","alias":"MAREA","length":12},{"name":"LANE","type":"esriFieldTypeString","alias":"LANE","length":10},{"name":"ALLEY","type":"esriFieldTypeString","alias":"ALLEY","length":10},{"name":"HOUSE_NO","type":"esriFieldTypeString","alias":"HOUSE_NO","length":20},{"name":"E_COORD97","type":"esriFieldTypeDouble","alias":"E_COORD97"},{"name":"N_COORD97","type":"esriFieldTypeDouble","alias":"N_COORD97"},{"name":"ADDRESS","type":"esriFieldTypeString","alias":"ADDRESS","length":50},{"name":"OBJECTID","type":"esriFieldTypeOID","alias":"OBJECTID"}],"features":[{"attributes":{"ID":61601,"DIS_CODE":0,"TOWNNAME":"安南區","LI":"安富里","LIN":"35鄰","STREET":"海佃路","SECT":"一段","MAREA":" ","LANE":"１５８巷","ALLEY":"１２２弄","HOUSE_NO":"８６號","E_COORD97":167651.26999999999,"N_COORD97":2547122.1899999999,"ADDRESS":"海佃路一段１５８巷１２２弄８６號","OBJECTID":61601},"geometry":{"x":167651.26999999955,"y":2547122.1900000013}},{"attributes":{"ID":61602,"DIS_CODE":0,"TOWNNAME":"安南區","LI":"安富里","LIN":"35鄰","STREET":"海佃路","SECT":"一段","MAREA":" ","LANE":"１５８巷","ALLEY":"１２２弄","HOUSE_NO":"８２號","E_COORD97":167650.45999999999,"N_COORD97":2547126.4100000001,"ADDRESS":"海佃路一段１５８巷１２２弄８２號","OBJECTID":61602},"geometry":{"x":167650.45999999996,"y":2547126.4100000001}},{"attributes":{"ID":61603,"DIS_CODE":0,"TOWNNAME":"安南區","LI":"安富里","LIN":"35鄰","STREET":"海佃路","SECT":"一段","MAREA":" ","LANE":"１５８巷","ALLEY":"１２２弄","HOUSE_NO":"８０號","E_COORD97":167649.64999999999,"N_COORD97":2547130.6299999999,"ADDRESS":"海佃路一段１５８巷１２２弄８０號","OBJECTID":61603},"geometry":{"x":167649.65000000037,"y":2547130.629999999}},{"attributes":{"ID":61604,"DIS_CODE":0,"TOWNNAME":"安南區","LI":"安富里","LIN":"35鄰","STREET":"海佃路","SECT":"一段","MAREA":" ","LANE":"１５８巷","ALLEY":"１２２弄","HOUSE_NO":"７８號","E_COORD97":167648.82999999999,"N_COORD97":2547134.8599999999,"ADDRESS":"海佃路一段１５８巷１２２弄７８號","OBJECTID":61604},"geometry":{"x":167648.83000000101,"y":2547134.8600000013}},{"attributes":{"ID":61605,"DIS_CODE":0,"TOWNNAME":"安南區","LI":"安富里","LIN":"35鄰","STREET":"海佃路","SECT":"一段","MAREA":" ","LANE":"１５８巷","ALLEY":"１２２弄","HOUSE_NO":"７６號","E_COORD97":167648.01999999999,"N_COORD97":2547139.0800000001,"ADDRESS":"海佃路一段１５８巷１２２弄７６號","OBJECTID":61605},"geometry":{"x":167648.01999999955,"y":2547139.0800000001}},{"attributes":{"ID":61606,"DIS_CODE":0,"TOWNNAME":"安南區","LI":"安富里","LIN":"35鄰","STREET":"海佃路","SECT":"一段","MAREA":" ","LANE":"１５８巷","ALLEY":"１２２弄","HOUSE_NO":"７２號","E_COORD97":167647.20000000001,"N_COORD97":2547143.2999999998,"ADDRESS":"海佃路一段１５８巷１２２弄７２號","OBJECTID":61606},"geometry":{"x":167647.20000000019,"y":2547143.3000000026}},{"attributes":{"ID":61607,"DIS_CODE":0,"TOWNNAME":"安南區","LI":"安富里","LIN":"35鄰","STREET":"海佃路","SECT":"一段","MAREA":" ","LANE":"１５８巷","ALLEY":"１２２弄","HOUSE_NO":"７０號","E_COORD97":167646.39000000001,"N_COORD97":2547147.52,"ADDRESS":"海佃路一段１５８巷１２２弄７０號","OBJECTID":61607},"geometry":{"x":167646.3900000006,"y":2547147.5200000014}},{"attributes":{"ID":61608,"DIS_CODE":0,"TOWNNAME":"安定區","LI":"港南里","LIN":"1鄰","STREET":" ","SECT":" ","MAREA":"港口","LANE":" ","ALLEY":" ","HOUSE_NO":"２之５號","E_COORD97":171170.29000000001,"N_COORD97":2554254.2999999998,"ADDRESS":"港口２之５號","OBJECTID":61608},"geometry":{"x":171170.29000000097,"y":2554254.3000000007}},{"attributes":{"ID":61609,"DIS_CODE":0,"TOWNNAME":"安定區","LI":"港南里","LIN":"1鄰","STREET":" ","SECT":" ","MAREA":"港口","LANE":" ","ALLEY":" ","HOUSE_NO":"１之３１號","E_COORD97":170957.68567800001,"N_COORD97":2554151.1917300001,"ADDRESS":"港口１之３１號","OBJECTID":61609},"geometry":{"x":170957.68567800056,"y":2554151.1917300019}},{"attributes":{"ID":61610,"DIS_CODE":0,"TOWNNAME":"安南區","LI":"安富里","LIN":"35鄰","STREET":"海佃路","SECT":"一段","MAREA":" ","LANE":"１５８巷","ALLEY":"１２２弄","HOUSE_NO":"６８號","E_COORD97":167645.57999999999,"N_COORD97":2547151.75,"ADDRESS":"海佃路一段１５８巷１２２弄６８號","OBJECTID":61610},"geometry":{"x":167645.58000000101,"y":2547151.7500000037}},{"attributes":{"ID":61611,"DIS_CODE":0,"TOWNNAME":"安南區","LI":"安富里","LIN":"35鄰","STREET":"海佃路","SECT":"一段","MAREA":" ","LANE":"１５８巷","ALLEY":"１２２弄","HOUSE_NO":"６２號","E_COORD97":167643.95000000001,"N_COORD97":2547160.1899999999,"ADDRESS":"海佃路一段１５８巷１２２弄６２號","OBJECTID":61611},"geometry":{"x":167643.95000000019,"y":2547160.1900000013}},{"attributes":{"ID":61612,"DIS_CODE":0,"TOWNNAME":"安南區","LI":"安富里","LIN":"35鄰","STREET":"海佃路","SECT":"一段","MAREA":" ","LANE":"１５８巷","ALLEY":"１２２弄","HOUSE_NO":"６０號","E_COORD97":167643.13,"N_COORD97":2547164.4100000001,"ADDRESS":"海佃路一段１５８巷１２２弄６０號","OBJECTID":61612},"geometry":{"x":167643.13000000082,"y":2547164.4100000039}},{"attributes":{"ID":61613,"DIS_CODE":0,"TOWNNAME":"安南區","LI":"安富里","LIN":"35鄰","STREET":"海佃路","SECT":"一段","MAREA":" ","LANE":"１５８巷","ALLEY":"１２２弄","HOUSE_NO":"５８號","E_COORD97":167642.32000000001,"N_COORD97":2547168.6400000001,"ADDRESS":"海佃路一段１５８巷１２２弄５８號","OBJECTID":61613},"geometry":{"x":167642.32000000123,"y":2547168.6400000006}},{"attributes":{"ID":61614,"DIS_CODE":0,"TOWNNAME":"安南區","LI":"安富里","LIN":"35鄰","STREET":"海佃路","SECT":"一段","MAREA":" ","LANE":"１５８巷","ALLEY":"１２２弄","HOUSE_NO":"５６號","E_COORD97":167641.34,"N_COORD97":2547173.7000000002,"ADDRESS":"海佃路一段１５８巷１２２弄５６號","OBJECTID":61614},"geometry":{"x":167641.34000000171,"y":2547173.6999999993}},{"attributes":{"ID":61615,"DIS_CODE":0,"TOWNNAME":"安南區","LI":"安富里","LIN":"35鄰","STREET":"海佃路","SECT":"一段","MAREA":" ","LANE":"１５８巷","ALLEY":"１２２弄","HOUSE_NO":"５２號","E_COORD97":167640.53,"N_COORD97":2547177.9199999999,"ADDRESS":"海佃路一段１５８巷１２２弄５２號","OBJECTID":61615},"geometry":{"x":167640.53000000212,"y":2547177.9200000037}},{"attributes":{"ID":61616,"DIS_CODE":0,"TOWNNAME":"安南區","LI":"安富里","LIN":"35鄰","STREET":"海佃路","SECT":"一段","MAREA":" ","LANE":"１５８巷","ALLEY":"１２２弄","HOUSE_NO":"５０號","E_COORD97":167641.07999999999,"N_COORD97":2547182.2599999998,"ADDRESS":"海佃路一段１５８巷１２２弄５０號","OBJECTID":61616},"geometry":{"x":167641.08000000007,"y":2547182.2600000035}},{"attributes":{"ID":61617,"DIS_CODE":0,"TOWNNAME":"安南區","LI":"安富里","LIN":"35鄰","STREET":"海佃路","SECT":"一段","MAREA":" ","LANE":"１５８巷","ALLEY":"１２２弄","HOUSE_NO":"６５號","E_COORD97":167624.38,"N_COORD97":2547117.4900000002,"ADDRESS":"海佃路一段１５８巷１２２弄６５號","OBJECTID":61617},"geometry":{"x":167624.38000000082,"y":2547117.4900000021}},{"attributes":{"ID":61618,"DIS_CODE":0,"TOWNNAME":"安南區","LI":"安富里","LIN":"35鄰","STREET":"海佃路","SECT":"一段","MAREA":" ","LANE":"１５８巷","ALLEY":"１２２弄","HOUSE_NO":"６３號","E_COORD97":167624.59,"N_COORD97":2547121.7200000002,"ADDRESS":"海佃路一段１５８巷１２２弄６３號","OBJECTID":61618},"geometry":{"x":167624.59000000078,"y":2547121.7200000007}},{"attributes":{"ID":61619,"DIS_CODE":0,"TOWNNAME":"安南區","LI":"安富里","LIN":"35鄰","STREET":"海佃路","SECT":"一段","MAREA":" ","LANE":"１５８巷","ALLEY":"１２２弄","HOUSE_NO":"６１號","E_COORD97":167623.69,"N_COORD97":2547126.4700000002,"ADDRESS":"海佃路一段１５８巷１２２弄６１號","OBJECTID":61619},"geometry":{"x":167623.69000000041,"y":2547126.4700000007}},{"attributes":{"ID":61620,"DIS_CODE":0,"TOWNNAME":"安南區","LI":"安富里","LIN":"35鄰","STREET":"海佃路","SECT":"一段","MAREA":" ","LANE":"１５８巷","ALLEY":"１２２弄","HOUSE_NO":"５９號","E_COORD97":167628.37,"N_COORD97":2547131.7999999998,"ADDRESS":"海佃路一段１５８巷１２２弄５９號","OBJECTID":61620},"geometry":{"x":167628.37000000104,"y":2547131.7999999989}},{"attributes":{"ID":61621,"DIS_CODE":0,"TOWNNAME":"安南區","LI":"安富里","LIN":"35鄰","STREET":"海佃路","SECT":"一段","MAREA":" ","LANE":"１５８巷","ALLEY":"１２２弄","HOUSE_NO":"５７號","E_COORD97":167621.10999999999,"N_COORD97":2547134.6899999999,"ADDRESS":"海佃路一段１５８巷１２２弄５７號","OBJECTID":61621},"geometry":{"x":167621.11000000034,"y":2547134.6900000032}},{"attributes":{"ID":61622,"DIS_CODE":0,"TOWNNAME":"安南區","LI":"安富里","LIN":"35鄰","STREET":"海佃路","SECT":"一段","MAREA":" ","LANE":"１５８巷","ALLEY":"１２２弄","HOUSE_NO":"５５號","E_COORD97":167621.35999999999,"N_COORD97":2547138.79,"ADDRESS":"海佃路一段１５８巷１２２弄５５號","OBJECTID":61622},"geometry":{"x":167621.3600000022,"y":2547138.7899999991}},{"attributes":{"ID":61623,"DIS_CODE":0,"TOWNNAME":"安南區","LI":"安富里","LIN":"35鄰","STREET":"海佃路","SECT":"一段","MAREA":" ","LANE":"１５８巷","ALLEY":"１２２弄","HOUSE_NO":"５３號","E_COORD97":167620.59,"N_COORD97":2547143.02,"ADDRESS":"海佃路一段１５８巷１２２弄５３號","OBJECTID":61623},"geometry":{"x":167620.58999999985,"y":2547143.0200000033}},{"attributes":{"ID":61624,"DIS_CODE":0,"TOWNNAME":"安南區","LI":"安富里","LIN":"35鄰","STREET":"海佃路","SECT":"一段","MAREA":" ","LANE":"１５８巷","ALLEY":"１２２弄","HOUSE_NO":"５１號","E_COORD97":167619.81,"N_COORD97":2547147.25,"ADDRESS":"海佃路一段１５８巷１２２弄５１號","OBJECTID":61624},"geometry":{"x":167619.81000000052,"y":2547147.25}},{"attributes":{"ID":61625,"DIS_CODE":0,"TOWNNAME":"永康區","LI":"\u25A0行里","LIN":"35鄰","STREET":"中正北路","SECT":" ","MAREA":" ","LANE":"１７７巷","ALLEY":"１８弄","HOUSE_NO":"７號","E_COORD97":172405.23000000001,"N_COORD97":2549214.1299999999,"ADDRESS":"中正北路１７７巷１８弄７號","OBJECTID":61625},"geometry":{"x":172405.23000000138,"y":2549214.1300000008}},{"attributes":{"ID":61626,"DIS_CODE":0,"TOWNNAME":"永康區","LI":"\u25A0行里","LIN":"35鄰","STREET":"中正北路","SECT":" ","MAREA":" ","LANE":"１７７巷","ALLEY":"１８弄","HOUSE_NO":"１７號","E_COORD97":172427,"N_COORD97":2549215.1299999999,"ADDRESS":"中正北路１７７巷１８弄１７號","OBJECTID":61626},"geometry":{"x":172427,"y":2549215.129999999}},{"attributes":{"ID":61627,"DIS_CODE":0,"TOWNNAME":"北區","LI":"正風里","LIN":"8鄰","STREET":"公園路","SECT":" ","MAREA":" ","LANE":"９９４巷","ALLEY":" ","HOUSE_NO":"７號","E_COORD97":169582.60000000001,"N_COORD97":2546341.2599999998,"ADDRESS":"公園路９９４巷７號","OBJECTID":61627},"geometry":{"x":169582.60000000056,"y":2546341.2600000035}},{"attributes":{"ID":61628,"DIS_CODE":0,"TOWNNAME":"新營區","LI":"民榮里","LIN":"17鄰","STREET":"裕民路","SECT":" ","MAREA":" ","LANE":" ","ALLEY":" ","HOUSE_NO":"６８號","E_COORD97":179132.78,"N_COORD97":2577783.8999999999,"ADDRESS":"裕民路６８號","OBJECTID":61628},"geometry":{"x":179132.78000000119,"y":2577783.9000000022}},{"attributes":{"ID":61629,"DIS_CODE":0,"TOWNNAME":"六甲區","LI":"二甲里","LIN":"8鄰","STREET":"民權街","SECT":" ","MAREA":" ","LANE":" ","ALLEY":" ","HOUSE_NO":"３００號","E_COORD97":182918.97,"N_COORD97":2569790.98,"ADDRESS":"民權街３００號","OBJECTID":61629},"geometry":{"x":182918.9700000016,"y":2569790.9800000004}},{"attributes":{"ID":61630,"DIS_CODE":0,"TOWNNAME":"六甲區","LI":"二甲里","LIN":"8鄰","STREET":"民權街","SECT":" ","MAREA":" ","LANE":" ","ALLEY":" ","HOUSE_NO":"３０２號","E_COORD97":182915.82000000001,"N_COORD97":2569814.73,"ADDRESS":"民權街３０２號","OBJECTID":61630},"geometry":{"x":182915.82000000123,"y":2569814.7300000023}},{"attributes":{"ID":61631,"DIS_CODE":0,"TOWNNAME":"柳營區","LI":"中埕里","LIN":" ","STREET":"福中街","SECT":" ","MAREA":" ","LANE":" ","ALLEY":" ","HOUSE_NO":"３８號","E_COORD97":179844.17999999999,"N_COORD97":2575200.6800000002,"ADDRESS":"福中街３８號","OBJECTID":61631},"geometry":{"x":179844.18000000156,"y":2575200.6800000034}},{"attributes":{"ID":61632,"DIS_CODE":0,"TOWNNAME":"柳營區","LI":"光福里","LIN":" ","STREET":"福德三街","SECT":" ","MAREA":" ","LANE":" ","ALLEY":" ","HOUSE_NO":"３１號","E_COORD97":179677.79999999999,"N_COORD97":2575235.4500000002,"ADDRESS":"福德三街３１號","OBJECTID":61632},"geometry":{"x":179677.80000000075,"y":2575235.4499999974}},{"attributes":{"ID":61633,"DIS_CODE":0,"TOWNNAME":"柳營區","LI":"人和里","LIN":" ","STREET":"雙和路","SECT":" ","MAREA":" ","LANE":" ","ALLEY":" ","HOUSE_NO":"３２號","E_COORD97":179628.47,"N_COORD97":2577033.2799999998,"ADDRESS":"雙和路３２號","OBJECTID":61633},"geometry":{"x":179628.46999999974,"y":2577033.2799999993}},{"attributes":{"ID":61634,"DIS_CODE":0,"TOWNNAME":"歸仁區","LI":"七甲里","LIN":" ","STREET":"中正北路","SECT":"二段","MAREA":" ","LANE":" ","ALLEY":" ","HOUSE_NO":"３７２號","E_COORD97":177525.22,"N_COORD97":2542884.2599999998,"ADDRESS":"中正北路二段３７２號","OBJECTID":61634},"geometry":{"x":177525.22000000067,"y":2542884.2600000016}},{"attributes":{"ID":61635,"DIS_CODE":0,"TOWNNAME":"歸仁區","LI":"七甲里","LIN":" ","STREET":"七甲五街","SECT":" ","MAREA":" ","LANE":" ","ALLEY":" ","HOUSE_NO":"２９號","E_COORD97":177391.89000000001,"N_COORD97":2542596.6600000001,"ADDRESS":"七甲五街２９號","OBJECTID":61635},"geometry":{"x":177391.8900000006,"y":2542596.660000002}},{"attributes":{"ID":61636,"DIS_CODE":0,"TOWNNAME":"歸仁區","LI":"七甲里","LIN":" ","STREET":"七甲五街","SECT":" ","MAREA":" ","LANE":" ","ALLEY":" ","HOUSE_NO":"７７號","E_COORD97":177090.60000000001,"N_COORD97":2542641.9300000002,"ADDRESS":"七甲五街７７號","OBJECTID":61636},"geometry":{"x":177090.60000000056,"y":2542641.9300000016}},{"attributes":{"ID":61637,"DIS_CODE":0,"TOWNNAME":"新營區","LI":"嘉芳里","LIN":"5鄰","STREET":" ","SECT":" ","MAREA":"茄苳腳","LANE":" ","ALLEY":" ","HOUSE_NO":"５６號之１","E_COORD97":176909.19,"N_COORD97":2578356.25,"ADDRESS":"茄苳腳５６之１號","OBJECTID":61637},"geometry":{"x":176909.19000000134,"y":2578356.25}},{"attributes":{"ID":61638,"DIS_CODE":0,"TOWNNAME":"新營區","LI":"太北里","LIN":"18鄰","STREET":" ","SECT":" ","MAREA":"太子宮","LANE":" ","ALLEY":" ","HOUSE_NO":"７之７號","E_COORD97":176257.76999999999,"N_COORD97":2577197.75,"ADDRESS":"太子宮７之７號","OBJECTID":61638},"geometry":{"x":176257.76999999955,"y":2577197.7500000019}},{"attributes":{"ID":61639,"DIS_CODE":0,"TOWNNAME":"永康區","LI":"\u25A0行里","LIN":"35鄰","STREET":"中正北路","SECT":" ","MAREA":" ","LANE":"１７７巷","ALLEY":"１８弄","HOUSE_NO":"３１號","E_COORD97":172457,"N_COORD97":2549215.8799999999,"ADDRESS":"中正北路１７７巷１８弄３１號","OBJECTID":61639},"geometry":{"x":172457.00000000093,"y":2549215.8800000008}},{"attributes":{"ID":61640,"DIS_CODE":0,"TOWNNAME":"永康區","LI":"\u25A0洲里","LIN":"35鄰","STREET":"洲尾街","SECT":" ","MAREA":" ","LANE":"１９１巷","ALLEY":"４弄","HOUSE_NO":"２號","E_COORD97":170858.60999999999,"N_COORD97":2548993.25,"ADDRESS":"洲尾街１９１巷４弄２號","OBJECTID":61640},"geometry":{"x":170858.61000000034,"y":2548993.2500000019}},{"attributes":{"ID":61641,"DIS_CODE":0,"TOWNNAME":"永康區","LI":"\u25A0洲里","LIN":"35鄰","STREET":"洲尾街","SECT":" ","MAREA":" ","LANE":"１９１巷","ALLEY":"４弄","HOUSE_NO":"３號","E_COORD97":170859.13,"N_COORD97":2548997.7599999998,"ADDRESS":"洲尾街１９１巷４弄３號","OBJECTID":61641},"geometry":{"x":170859.13000000082,"y":2548997.7599999998}},{"attributes":{"ID":61642,"DIS_CODE":0,"TOWNNAME":"永康區","LI":"\u25A0洲里","LIN":"35鄰","STREET":"洲尾街","SECT":" ","MAREA":" ","LANE":"１９１巷","ALLEY":"４弄","HOUSE_NO":"８號","E_COORD97":170861.63,"N_COORD97":2549020.0099999998,"ADDRESS":"洲尾街１９１巷４弄８號","OBJECTID":61642},"geometry":{"x":170861.62999999989,"y":2549020.0099999998}},{"attributes":{"ID":61643,"DIS_CODE":0,"TOWNNAME":"永康區","LI":"\u25A0洲里","LIN":"35鄰","STREET":"洲尾街","SECT":" ","MAREA":" ","LANE":"１９１巷","ALLEY":"６弄","HOUSE_NO":"１４號","E_COORD97":170836.23000000001,"N_COORD97":2549019.0699999998,"ADDRESS":"洲尾街１９１巷６弄１４號","OBJECTID":61643},"geometry":{"x":170836.23000000045,"y":2549019.0700000022}},{"attributes":{"ID":61644,"DIS_CODE":0,"TOWNNAME":"永康區","LI":"\u25A0洲里","LIN":"35鄰","STREET":"洲尾街","SECT":" ","MAREA":" ","LANE":"１９１巷","ALLEY":"６弄","HOUSE_NO":"８號","E_COORD97":170833.70999999999,"N_COORD97":2549007.3199999998,"ADDRESS":"洲尾街１９１巷６弄８號","OBJECTID":61644},"geometry":{"x":170833.70999999996,"y":2549007.3200000022}},{"attributes":{"ID":61645,"DIS_CODE":0,"TOWNNAME":"永康區","LI":"\u25A0洲里","LIN":"35鄰","STREET":"洲尾街","SECT":" ","MAREA":" ","LANE":"１９１巷","ALLEY":"４弄","HOUSE_NO":"６號","E_COORD97":170860.72,"N_COORD97":2549011.2599999998,"ADDRESS":"洲尾街１９１巷４弄６號","OBJECTID":61645},"geometry":{"x":170860.71999999974,"y":2549011.2599999998}},{"attributes":{"ID":61646,"DIS_CODE":0,"TOWNNAME":"永康區","LI":"\u25A0洲里","LIN":"35鄰","STREET":"洲尾街","SECT":" ","MAREA":" ","LANE":"１９１巷","ALLEY":"６弄","HOUSE_NO":"１２號","E_COORD97":170835.76000000001,"N_COORD97":2549015.0699999998,"ADDRESS":"洲尾街１９１巷６弄１２號","OBJECTID":61646},"geometry":{"x":170835.76000000071,"y":2549015.0700000022}},{"attributes":{"ID":61647,"DIS_CODE":0,"TOWNNAME":"安定區","LI":"蘇厝里","LIN":"1鄰","STREET":" ","SECT":" ","MAREA":"蘇厝","LANE":" ","ALLEY":" ","HOUSE_NO":"２７４之２號","E_COORD97":173412.32000000001,"N_COORD97":2558556.2999999998,"ADDRESS":"蘇厝２７４之２號","OBJECTID":61647},"geometry":{"x":173412.32000000216,"y":2558556.3000000007}},{"attributes":{"ID":61648,"DIS_CODE":0,"TOWNNAME":"安定區","LI":"蘇厝里","LIN":"1鄰","STREET":" ","SECT":" ","MAREA":"蘇厝","LANE":" ","ALLEY":" ","HOUSE_NO":"２８４號","E_COORD97":173334.32000000001,"N_COORD97":2558531.25,"ADDRESS":"蘇厝２８４號","OBJECTID":61648},"geometry":{"x":173334.32000000216,"y":2558531.2500000019}},{"attributes":{"ID":61649,"DIS_CODE":0,"TOWNNAME":"永康區","LI":"\u25A0洲里","LIN":"35鄰","STREET":"洲尾街","SECT":" ","MAREA":" ","LANE":"１９１巷","ALLEY":"４弄","HOUSE_NO":"１３號","E_COORD97":170871.84,"N_COORD97":2549044.2799999998,"ADDRESS":"洲尾街１９１巷４弄１３號","OBJECTID":61649},"geometry":{"x":170871.83999999985,"y":2549044.2800000012}},{"attributes":{"ID":61650,"DIS_CODE":0,"TOWNNAME":"安定區","LI":"蘇厝里","LIN":"1鄰","STREET":" ","SECT":" ","MAREA":"蘇厝","LANE":" ","ALLEY":" ","HOUSE_NO":"２８０號","E_COORD97":173364.12,"N_COORD97":2558529.25,"ADDRESS":"蘇厝２８０號","OBJECTID":61650},"geometry":{"x":173364.12000000011,"y":2558529.25}},{"attributes":{"ID":61651,"DIS_CODE":0,"TOWNNAME":"安定區","LI":"大同里","LIN":"1鄰","STREET":" ","SECT":" ","MAREA":"大同","LANE":" ","ALLEY":" ","HOUSE_NO":"３之３號","E_COORD97":170537.72,"N_COORD97":2553837.2999999998,"ADDRESS":"大同３之３號","OBJECTID":61651},"geometry":{"x":170537.72000000067,"y":2553837.3000000007}},{"attributes":{"ID":61652,"DIS_CODE":0,"TOWNNAME":"安定區","LI":"大同里","LIN":"1鄰","STREET":" ","SECT":" ","MAREA":"大同","LANE":" ","ALLEY":" ","HOUSE_NO":"８號","E_COORD97":170514.72,"N_COORD97":2553846.25,"ADDRESS":"大同８號","OBJECTID":61652},"geometry":{"x":170514.71999999974,"y":2553846.25}},{"attributes":{"ID":61653,"DIS_CODE":0,"TOWNNAME":"安定區","LI":"大同里","LIN":"1鄰","STREET":" ","SECT":" ","MAREA":"大同","LANE":" ","ALLEY":" ","HOUSE_NO":"１之１號","E_COORD97":170554.92000000001,"N_COORD97":2553852.2999999998,"ADDRESS":"大同１之１號","OBJECTID":61653},"geometry":{"x":170554.92000000179,"y":2553852.3000000026}},{"attributes":{"ID":61654,"DIS_CODE":0,"TOWNNAME":"安定區","LI":"海寮里","LIN":"1鄰","STREET":" ","SECT":" ","MAREA":"海寮","LANE":" ","ALLEY":" ","HOUSE_NO":"５之１０號","E_COORD97":168973.29000000001,"N_COORD97":2555039.2999999998,"ADDRESS":"海寮５之１０號","OBJECTID":61654},"geometry":{"x":168973.29000000097,"y":2555039.3000000026}},{"attributes":{"ID":61655,"DIS_CODE":0,"TOWNNAME":"安定區","LI":"海寮里","LIN":"1鄰","STREET":" ","SECT":" ","MAREA":"海寮","LANE":" ","ALLEY":" ","HOUSE_NO":"１１之２３號","E_COORD97":169080.23999999999,"N_COORD97":2555156.29,"ADDRESS":"海寮１１之２３號","OBJECTID":61655},"geometry":{"x":169080.24000000115,"y":2555156.290000001}},{"attributes":{"ID":61656,"DIS_CODE":0,"TOWNNAME":"安定區","LI":"港尾里","LIN":"1鄰","STREET":" ","SECT":" ","MAREA":"下洲子","LANE":" ","ALLEY":" ","HOUSE_NO":"６號","E_COORD97":172466.23999999999,"N_COORD97":2556622.25,"ADDRESS":"下洲子６號","OBJECTID":61656},"geometry":{"x":172466.24000000022,"y":2556622.2500000019}},{"attributes":{"ID":61657,"DIS_CODE":0,"TOWNNAME":"安定區","LI":"海寮里","LIN":"1鄰","STREET":" ","SECT":" ","MAREA":"海寮","LANE":" ","ALLEY":" ","HOUSE_NO":"１１號","E_COORD97":169107.09,"N_COORD97":2555114.25,"ADDRESS":"海寮１１號","OBJECTID":61657},"geometry":{"x":169107.08999999985,"y":2555114.25}},{"attributes":{"ID":61658,"DIS_CODE":0,"TOWNNAME":"安定區","LI":"海寮里","LIN":"1鄰","STREET":" ","SECT":" ","MAREA":"海寮","LANE":" ","ALLEY":" ","HOUSE_NO":"５之４５號","E_COORD97":168794.48999999999,"N_COORD97":2554725.2999999998,"ADDRESS":"海寮５之４５號","OBJECTID":61658},"geometry":{"x":168794.49000000022,"y":2554725.3000000007}},{"attributes":{"ID":61659,"DIS_CODE":0,"TOWNNAME":"安定區","LI":"海寮里","LIN":"1鄰","STREET":" ","SECT":" ","MAREA":"海寮","LANE":" ","ALLEY":" ","HOUSE_NO":"７之１０號","E_COORD97":169090.59,"N_COORD97":2554562.2999999998,"ADDRESS":"海寮７之１０號","OBJECTID":61659},"geometry":{"x":169090.59000000171,"y":2554562.3000000007}},{"attributes":{"ID":61660,"DIS_CODE":0,"TOWNNAME":"安定區","LI":"海寮里","LIN":"1鄰","STREET":" ","SECT":" ","MAREA":"海寮","LANE":" ","ALLEY":" ","HOUSE_NO":"５之３２號","E_COORD97":169026.961434,"N_COORD97":2554982.6540999999,"ADDRESS":"海寮５之３２號","OBJECTID":61660},"geometry":{"x":169026.9614340011,"y":2554982.6540990006}},{"attributes":{"ID":61661,"DIS_CODE":0,"TOWNNAME":"安定區","LI":"大同里","LIN":"1鄰","STREET":" ","SECT":" ","MAREA":"大同","LANE":" ","ALLEY":" ","HOUSE_NO":"３之２號","E_COORD97":170534.51999999999,"N_COORD97":2553835.2999999998,"ADDRESS":"大同３之２號","OBJECTID":61661},"geometry":{"x":170534.51999999955,"y":2553835.3000000026}},{"attributes":{"ID":61662,"DIS_CODE":0,"TOWNNAME":"安定區","LI":"海寮里","LIN":"1鄰","STREET":" ","SECT":" ","MAREA":"海寮","LANE":" ","ALLEY":" ","HOUSE_NO":"７之８號","E_COORD97":169087.23558899999,"N_COORD97":2554758.7108900002,"ADDRESS":"海寮７之８號","OBJECTID":61662},"geometry":{"x":169087.23558900133,"y":2554758.7108880039}},{"attributes":{"ID":61663,"DIS_CODE":0,"TOWNNAME":"安定區","LI":"海寮里","LIN":"1鄰","STREET":" ","SECT":" ","MAREA":"海寮","LANE":" ","ALLEY":" ","HOUSE_NO":"７之２６號","E_COORD97":169090.89000000001,"N_COORD97":2554719.2999999998,"ADDRESS":"海寮７之２６號","OBJECTID":61663},"geometry":{"x":169090.8900000006,"y":2554719.3000000007}},{"attributes":{"ID":61664,"DIS_CODE":0,"TOWNNAME":"安定區","LI":"海寮里","LIN":"1鄰","STREET":" ","SECT":" ","MAREA":"海寮","LANE":" ","ALLEY":" ","HOUSE_NO":"５之２１號","E_COORD97":169041.48999999999,"N_COORD97":2554816.2999999998,"ADDRESS":"海寮５之２１號","OBJECTID":61664},"geometry":{"x":169041.49000000115,"y":2554816.3000000007}},{"attributes":{"ID":61665,"DIS_CODE":0,"TOWNNAME":"安定區","LI":"海寮里","LIN":"1鄰","STREET":" ","SECT":" ","MAREA":"海寮","LANE":" ","ALLEY":" ","HOUSE_NO":"７之３４號","E_COORD97":169095.48999999999,"N_COORD97":2554679.2999999998,"ADDRESS":"海寮７之３４號","OBJECTID":61665},"geometry":{"x":169095.49000000115,"y":2554679.3000000026}},{"attributes":{"ID":61666,"DIS_CODE":0,"TOWNNAME":"安定區","LI":"海寮里","LIN":"1鄰","STREET":" ","SECT":" ","MAREA":"海寮","LANE":" ","ALLEY":" ","HOUSE_NO":"５之４３號","E_COORD97":168642.702838,"N_COORD97":2554759.1914400002,"ADDRESS":"海寮５之４３號","OBJECTID":61666},"geometry":{"x":168642.70283799991,"y":2554759.1914440021}},{"attributes":{"ID":61667,"DIS_CODE":0,"TOWNNAME":"安定區","LI":"六嘉里","LIN":"1鄰","STREET":" ","SECT":" ","MAREA":"六塊寮","LANE":" ","ALLEY":" ","HOUSE_NO":"９號之３","E_COORD97":170385.79999999999,"N_COORD97":2553631.2999999998,"ADDRESS":"六塊寮９號之３","OBJECTID":61667},"geometry":{"x":170385.79999999981,"y":2553631.3000000045}},{"attributes":{"ID":61668,"DIS_CODE":0,"TOWNNAME":"安定區","LI":"海寮里","LIN":"1鄰","STREET":" ","SECT":" ","MAREA":"海寮","LANE":" ","ALLEY":" ","HOUSE_NO":"５之３１號","E_COORD97":169025.42580900001,"N_COORD97":2554986.9403499998,"ADDRESS":"海寮５之３１號","OBJECTID":61668},"geometry":{"x":169025.42580900155,"y":2554986.9403460026}},{"attributes":{"ID":61669,"DIS_CODE":0,"TOWNNAME":"安定區","LI":"海寮里","LIN":"1鄰","STREET":" ","SECT":" ","MAREA":"海寮","LANE":" ","ALLEY":" ","HOUSE_NO":"１０之１２號","E_COORD97":169055.64000000001,"N_COORD97":2555160.2999999998,"ADDRESS":"海寮１０之１２號","OBJECTID":61669},"geometry":{"x":169055.63999999966,"y":2555160.3000000045}},{"attributes":{"ID":61670,"DIS_CODE":0,"TOWNNAME":"安定區","LI":"海寮里","LIN":"1鄰","STREET":" ","SECT":" ","MAREA":"海寮","LANE":" ","ALLEY":" ","HOUSE_NO":"７之３３號","E_COORD97":169094.69,"N_COORD97":2554684.2999999998,"ADDRESS":"海寮７之３３號","OBJECTID":61670},"geometry":{"x":169094.69000000134,"y":2554684.3000000007}},{"attributes":{"ID":61671,"DIS_CODE":0,"TOWNNAME":"安定區","LI":"海寮里","LIN":"1鄰","STREET":" ","SECT":" ","MAREA":"海寮","LANE":" ","ALLEY":" ","HOUSE_NO":"１０號之４","E_COORD97":169052.64999999999,"N_COORD97":2555130.2999999998,"ADDRESS":"海寮１０號之４","OBJECTID":61671},"geometry":{"x":169052.65000000037,"y":2555130.3000000026}},{"attributes":{"ID":61672,"DIS_CODE":0,"TOWNNAME":"安定區","LI":"海寮里","LIN":"1鄰","STREET":" ","SECT":" ","MAREA":"海寮","LANE":" ","ALLEY":" ","HOUSE_NO":"１１之１８號","E_COORD97":169082.44,"N_COORD97":2555134.2999999998,"ADDRESS":"海寮１１之１８號","OBJECTID":61672},"geometry":{"x":169082.44000000134,"y":2555134.3000000026}},{"attributes":{"ID":61673,"DIS_CODE":0,"TOWNNAME":"安定區","LI":"中榮里","LIN":"1鄰","STREET":" ","SECT":" ","MAREA":"許中營","LANE":" ","ALLEY":" ","HOUSE_NO":"３號之１","E_COORD97":172174.03,"N_COORD97":2554979.2999999998,"ADDRESS":"許中營３號之１","OBJECTID":61673},"geometry":{"x":172174.03000000119,"y":2554979.3000000007}},{"attributes":{"ID":61674,"DIS_CODE":0,"TOWNNAME":"六甲區","LI":"王爺里","LIN":"8鄰","STREET":" ","SECT":" ","MAREA":"番子坑","LANE":" ","ALLEY":" ","HOUSE_NO":"３３號","E_COORD97":188513.17000000001,"N_COORD97":2569301.73,"ADDRESS":"番子坑３３號","OBJECTID":61674},"geometry":{"x":188513.16999999993,"y":2569301.7300000042}},{"attributes":{"ID":61675,"DIS_CODE":0,"TOWNNAME":"六甲區","LI":"王爺里","LIN":"8鄰","STREET":" ","SECT":" ","MAREA":"番子坑","LANE":" ","ALLEY":" ","HOUSE_NO":"３４號","E_COORD97":188642.26999999999,"N_COORD97":2569400.6400000001,"ADDRESS":"番子坑３４號","OBJECTID":61675},"geometry":{"x":188642.26999999955,"y":2569400.6399999987}},{"attributes":{"ID":61676,"DIS_CODE":0,"TOWNNAME":"六甲區","LI":"王爺里","LIN":"8鄰","STREET":" ","SECT":" ","MAREA":"番子坑","LANE":" ","ALLEY":" ","HOUSE_NO":"５３號","E_COORD97":188558.45999999999,"N_COORD97":2569179.0800000001,"ADDRESS":"番子坑５３號","OBJECTID":61676},"geometry":{"x":188558.45999999996,"y":2569179.0800000001}},{"attributes":{"ID":61677,"DIS_CODE":0,"TOWNNAME":"六甲區","LI":"菁埔里","LIN":"8鄰","STREET":" ","SECT":" ","MAREA":"菁埔寮","LANE":" ","ALLEY":" ","HOUSE_NO":"１１０號","E_COORD97":177464.24565699999,"N_COORD97":2570396.05694,"ADDRESS":"菁埔寮１１０號","OBJECTID":61677},"geometry":{"x":177464.24565699976,"y":2570396.0569369998}},{"attributes":{"ID":61678,"DIS_CODE":0,"TOWNNAME":"永康區","LI":"\u25A0洲里","LIN":"35鄰","STREET":"洲尾街","SECT":" ","MAREA":" ","LANE":"１９１巷","ALLEY":"４弄","HOUSE_NO":"９號","E_COORD97":170862.07999999999,"N_COORD97":2549024.5099999998,"ADDRESS":"洲尾街１９１巷４弄９號","OBJECTID":61678},"geometry":{"x":170862.08000000007,"y":2549024.5099999979}},{"attributes":{"ID":61679,"DIS_CODE":0,"TOWNNAME":"六甲區","LI":"菁埔里","LIN":"8鄰","STREET":" ","SECT":" ","MAREA":"菁埔寮","LANE":" ","ALLEY":" ","HOUSE_NO":"１１１號","E_COORD97":177411.26999999999,"N_COORD97":2570497.96,"ADDRESS":"菁埔寮１１１號","OBJECTID":61679},"geometry":{"x":177411.27000000048,"y":2570497.9600000028}},{"attributes":{"ID":61680,"DIS_CODE":0,"TOWNNAME":"六甲區","LI":"菁埔里","LIN":"8鄰","STREET":" ","SECT":" ","MAREA":"菁埔寮","LANE":" ","ALLEY":" ","HOUSE_NO":"１１７號","E_COORD97":177550.26999999999,"N_COORD97":2570123.7000000002,"ADDRESS":"菁埔寮１１７號","OBJECTID":61680},"geometry":{"x":177550.27000000048,"y":2570123.6999999993}},{"attributes":{"ID":61681,"DIS_CODE":0,"TOWNNAME":"六甲區","LI":"菁埔里","LIN":"8鄰","STREET":" ","SECT":" ","MAREA":"菁埔寮","LANE":" ","ALLEY":" ","HOUSE_NO":"１２１號","E_COORD97":177572.23999999999,"N_COORD97":2570133.3399999999,"ADDRESS":"菁埔寮１２１號","OBJECTID":61681},"geometry":{"x":177572.24000000022,"y":2570133.3399999999}},{"attributes":{"ID":61682,"DIS_CODE":0,"TOWNNAME":"永康區","LI":"龍潭里","LIN":"35鄰","STREET":"自強路","SECT":" ","MAREA":" ","LANE":"７５０巷","ALLEY":"６９弄","HOUSE_NO":"１號","E_COORD97":174559.09,"N_COORD97":2548490.3599999999,"ADDRESS":"自強路７５０巷６９弄１號","OBJECTID":61682},"geometry":{"x":174559.08999999985,"y":2548490.3600000013}},{"attributes":{"ID":61683,"DIS_CODE":0,"TOWNNAME":"麻豆區","LI":"安業里","LIN":"8鄰","STREET":" ","SECT":" ","MAREA":"安業","LANE":" ","ALLEY":" ","HOUSE_NO":"１５６號","E_COORD97":172528.89000000001,"N_COORD97":2562150.1200000001,"ADDRESS":"安業１５６號","OBJECTID":61683},"geometry":{"x":172528.88999999966,"y":2562150.1200000029}},{"attributes":{"ID":61684,"DIS_CODE":0,"TOWNNAME":"麻豆區","LI":"\u25A0江里","LIN":"8鄰","STREET":"民權路","SECT":" ","MAREA":" ","LANE":" ","ALLEY":" ","HOUSE_NO":"７０號之１０","E_COORD97":173499.31,"N_COORD97":2564252.8199999998,"ADDRESS":"民權路７０號之１０","OBJECTID":61684},"geometry":{"x":173499.30999999959,"y":2564252.820000004}},{"attributes":{"ID":61685,"DIS_CODE":0,"TOWNNAME":"麻豆區","LI":"安業里","LIN":"8鄰","STREET":" ","SECT":" ","MAREA":"安業","LANE":" ","ALLEY":" ","HOUSE_NO":"１５８號","E_COORD97":172544.53,"N_COORD97":2562140,"ADDRESS":"安業１５８號","OBJECTID":61685},"geometry":{"x":172544.53000000212,"y":2562140.0000000019}},{"attributes":{"ID":61686,"DIS_CODE":0,"TOWNNAME":"新營區","LI":"民權里","LIN":"4鄰","STREET":"三民路","SECT":" ","MAREA":" ","LANE":" ","ALLEY":" ","HOUSE_NO":"７３號","E_COORD97":179968.60000000001,"N_COORD97":2578448.8199999998,"ADDRESS":"三民路７３號","OBJECTID":61686},"geometry":{"x":179968.60000000056,"y":2578448.8200000022}},{"attributes":{"ID":61687,"DIS_CODE":0,"TOWNNAME":"麻豆區","LI":"安東里","LIN":"8鄰","STREET":" ","SECT":" ","MAREA":"安業","LANE":" ","ALLEY":" ","HOUSE_NO":"２７５號之１３","E_COORD97":172836.45999999999,"N_COORD97":2562621.2400000002,"ADDRESS":"安業２７５號之１３","OBJECTID":61687},"geometry":{"x":172836.46000000089,"y":2562621.2400000002}},{"attributes":{"ID":61688,"DIS_CODE":0,"TOWNNAME":"麻豆區","LI":"安東里","LIN":"8鄰","STREET":" ","SECT":" ","MAREA":"安業","LANE":" ","ALLEY":" ","HOUSE_NO":"２７５號之１５","E_COORD97":172835.78,"N_COORD97":2562655.75,"ADDRESS":"安業２７５號之１５","OBJECTID":61688},"geometry":{"x":172835.78000000026,"y":2562655.75}},{"attributes":{"ID":61689,"DIS_CODE":0,"TOWNNAME":"麻豆區","LI":"安東里","LIN":"8鄰","STREET":" ","SECT":" ","MAREA":"安業","LANE":" ","ALLEY":" ","HOUSE_NO":"２７５號之１８","E_COORD97":172861.26000000001,"N_COORD97":2562576.1600000001,"ADDRESS":"安業２７５號之１８","OBJECTID":61689},"geometry":{"x":172861.26000000164,"y":2562576.160000002}},{"attributes":{"ID":61690,"DIS_CODE":0,"TOWNNAME":"麻豆區","LI":"安東里","LIN":"8鄰","STREET":" ","SECT":" ","MAREA":"安業","LANE":" ","ALLEY":" ","HOUSE_NO":"２７５號之１９","E_COORD97":172877.06,"N_COORD97":2562529.4399999999,"ADDRESS":"安業２７５號之１９","OBJECTID":61690},"geometry":{"x":172877.05999999959,"y":2562529.4400000013}},{"attributes":{"ID":61691,"DIS_CODE":0,"TOWNNAME":"麻豆區","LI":"安東里","LIN":"8鄰","STREET":" ","SECT":" ","MAREA":"安業","LANE":" ","ALLEY":" ","HOUSE_NO":"２７５號之１","E_COORD97":172850.28,"N_COORD97":2562500.4700000002,"ADDRESS":"安業２７５號之１","OBJECTID":61691},"geometry":{"x":172850.28000000119,"y":2562500.4700000025}},{"attributes":{"ID":61692,"DIS_CODE":0,"TOWNNAME":"麻豆區","LI":"安東里","LIN":"8鄰","STREET":" ","SECT":" ","MAREA":"安業","LANE":" ","ALLEY":" ","HOUSE_NO":"２７５號之２","E_COORD97":172843.19,"N_COORD97":2562610.8900000001,"ADDRESS":"安業２７５號之２","OBJECTID":61692},"geometry":{"x":172843.19000000041,"y":2562610.8900000006}},{"attributes":{"ID":61693,"DIS_CODE":0,"TOWNNAME":"麻豆區","LI":"安東里","LIN":"8鄰","STREET":" ","SECT":" ","MAREA":"安業","LANE":" ","ALLEY":" ","HOUSE_NO":"２７５號之３","E_COORD97":172904.23000000001,"N_COORD97":2562472.77,"ADDRESS":"安業２７５號之３","OBJECTID":61693},"geometry":{"x":172904.23000000045,"y":2562472.7700000014}},{"attributes":{"ID":61694,"DIS_CODE":0,"TOWNNAME":"新營區","LI":"埤寮里","LIN":"4鄰","STREET":" ","SECT":" ","MAREA":"許丑","LANE":" ","ALLEY":" ","HOUSE_NO":"４５之２５號","E_COORD97":179762.34,"N_COORD97":2580957.1499999999,"ADDRESS":"許丑４５之２５號","OBJECTID":61694},"geometry":{"x":179762.34000000078,"y":2580957.1500000004}},{"attributes":{"ID":61695,"DIS_CODE":0,"TOWNNAME":"新營區","LI":"埤寮里","LIN":"4鄰","STREET":" ","SECT":" ","MAREA":"許丑","LANE":" ","ALLEY":" ","HOUSE_NO":"４５之２２號","E_COORD97":179754.07999999999,"N_COORD97":2580941.6899999999,"ADDRESS":"許丑４５之２２號","OBJECTID":61695},"geometry":{"x":179754.08000000101,"y":2580941.6900000013}},{"attributes":{"ID":61696,"DIS_CODE":0,"TOWNNAME":"麻豆區","LI":"安東里","LIN":"8鄰","STREET":" ","SECT":" ","MAREA":"安業","LANE":" ","ALLEY":" ","HOUSE_NO":"２７５號之７","E_COORD97":172844.84,"N_COORD97":2562605.1499999999,"ADDRESS":"安業２７５號之７","OBJECTID":61696},"geometry":{"x":172844.83999999985,"y":2562605.1500000004}},{"attributes":{"ID":61697,"DIS_CODE":0,"TOWNNAME":"麻豆區","LI":"安東里","LIN":"8鄰","STREET":" ","SECT":" ","MAREA":"安業","LANE":" ","ALLEY":" ","HOUSE_NO":"２７５號之８","E_COORD97":172823.73999999999,"N_COORD97":2562632.2999999998,"ADDRESS":"安業２７５號之８","OBJECTID":61697},"geometry":{"x":172823.74000000022,"y":2562632.3000000007}},{"attributes":{"ID":61698,"DIS_CODE":0,"TOWNNAME":"麻豆區","LI":"安東里","LIN":"8鄰","STREET":" ","SECT":" ","MAREA":"安業","LANE":" ","ALLEY":" ","HOUSE_NO":"２７５號之９","E_COORD97":172825.85000000001,"N_COORD97":2562660.2400000002,"ADDRESS":"安業２７５號之９","OBJECTID":61698},"geometry":{"x":172825.84999999963,"y":2562660.2400000021}},{"attributes":{"ID":61699,"DIS_CODE":0,"TOWNNAME":"麻豆區","LI":"安東里","LIN":"8鄰","STREET":" ","SECT":" ","MAREA":"安業","LANE":" ","ALLEY":" ","HOUSE_NO":"２７５號","E_COORD97":172867.41,"N_COORD97":2562464.3100000001,"ADDRESS":"安業２７５號","OBJECTID":61699},"geometry":{"x":172867.41000000201,"y":2562464.3100000024}},{"attributes":{"ID":61700,"DIS_CODE":0,"TOWNNAME":"新營區","LI":"護鎮里","LIN":"8鄰","STREET":" ","SECT":" ","MAREA":"後鎮","LANE":" ","ALLEY":" ","HOUSE_NO":"８５之２６號","E_COORD97":179175.10000000001,"N_COORD97":2580914.5499999998,"ADDRESS":"後鎮８５之２６號","OBJECTID":61700},"geometry":{"x":179175.10000000149,"y":2580914.5500000007}},{"attributes":{"ID":61701,"DIS_CODE":0,"TOWNNAME":"安定區","LI":"海寮里","LIN":"1鄰","STREET":" ","SECT":" ","MAREA":"海寮","LANE":" ","ALLEY":" ","HOUSE_NO":"５之２５號","E_COORD97":168623.39000000001,"N_COORD97":2554752.2999999998,"ADDRESS":"海寮５之２５號","OBJECTID":61701},"geometry":{"x":168623.38999999966,"y":2554752.3000000007}},{"attributes":{"ID":61702,"DIS_CODE":0,"TOWNNAME":"安定區","LI":"海寮里","LIN":"1鄰","STREET":" ","SECT":" ","MAREA":"海寮","LANE":" ","ALLEY":" ","HOUSE_NO":"７之３８號","E_COORD97":169096.89000000001,"N_COORD97":2554659.2999999998,"ADDRESS":"海寮７之３８號","OBJECTID":61702},"geometry":{"x":169096.89000000153,"y":2554659.3000000026}},{"attributes":{"ID":61703,"DIS_CODE":0,"TOWNNAME":"安定區","LI":"海寮里","LIN":"1鄰","STREET":" ","SECT":" ","MAREA":"海寮","LANE":" ","ALLEY":" ","HOUSE_NO":"７之１３號","E_COORD97":169074.262208,"N_COORD97":2554849.67459,"ADDRESS":"海寮７之１３號","OBJECTID":61703},"geometry":{"x":169074.26220799983,"y":2554849.6745890006}},{"attributes":{"ID":61704,"DIS_CODE":0,"TOWNNAME":"安定區","LI":"海寮里","LIN":"1鄰","STREET":" ","SECT":" ","MAREA":"海寮","LANE":" ","ALLEY":" ","HOUSE_NO":"７之６２號","E_COORD97":169062.89000000001,"N_COORD97":2554971.2999999998,"ADDRESS":"海寮７之６２號","OBJECTID":61704},"geometry":{"x":169062.88999999873,"y":2554971.3000000026}},{"attributes":{"ID":61705,"DIS_CODE":0,"TOWNNAME":"安定區","LI":"海寮里","LIN":"1鄰","STREET":" ","SECT":" ","MAREA":"海寮","LANE":" ","ALLEY":" ","HOUSE_NO":"１１之２４號","E_COORD97":169079.84,"N_COORD97":2555160.2999999998,"ADDRESS":"海寮１１之２４號","OBJECTID":61705},"geometry":{"x":169079.83999999985,"y":2555160.3000000045}},{"attributes":{"ID":61706,"DIS_CODE":0,"TOWNNAME":"新營區","LI":"土庫里","LIN":"8鄰","STREET":" ","SECT":" ","MAREA":"土庫","LANE":" ","ALLEY":" ","HOUSE_NO":"７１之１６號","E_COORD97":182779.51000000001,"N_COORD97":2579897.7000000002,"ADDRESS":"土庫７１之１６號","OBJECTID":61706},"geometry":{"x":182779.50999999978,"y":2579897.6999999993}},{"attributes":{"ID":61707,"DIS_CODE":0,"TOWNNAME":"新營區","LI":"土庫里","LIN":"8鄰","STREET":" ","SECT":" ","MAREA":"土庫","LANE":" ","ALLEY":" ","HOUSE_NO":"７１之２９號","E_COORD97":182495.89999999999,"N_COORD97":2580052.9199999999,"ADDRESS":"土庫７１之２９號","OBJECTID":61707},"geometry":{"x":182495.90000000037,"y":2580052.9199999999}},{"attributes":{"ID":61708,"DIS_CODE":0,"TOWNNAME":"新營區","LI":"土庫里","LIN":"8鄰","STREET":" ","SECT":" ","MAREA":"土庫","LANE":" ","ALLEY":" ","HOUSE_NO":"７１之６０號","E_COORD97":182364.60000000001,"N_COORD97":2579745.6499999999,"ADDRESS":"土庫７１之６０號","OBJECTID":61708},"geometry":{"x":182364.59999999963,"y":2579745.6500000022}},{"attributes":{"ID":61709,"DIS_CODE":0,"TOWNNAME":"新營區","LI":"嘉芳里","LIN":"8鄰","STREET":" ","SECT":" ","MAREA":"茄苳腳","LANE":" ","ALLEY":" ","HOUSE_NO":"７８號之１５","E_COORD97":176846.94,"N_COORD97":2578545.9399999999,"ADDRESS":"茄苳腳７８之１５號","OBJECTID":61709},"geometry":{"x":176846.94000000041,"y":2578545.9400000013}},{"attributes":{"ID":61710,"DIS_CODE":0,"TOWNNAME":"新營區","LI":"土庫里","LIN":"8鄰","STREET":" ","SECT":" ","MAREA":"土庫","LANE":" ","ALLEY":" ","HOUSE_NO":"７１之１３號","E_COORD97":182769.42000000001,"N_COORD97":2579927.6499999999,"ADDRESS":"土庫７１之１３號","OBJECTID":61710},"geometry":{"x":182769.42000000086,"y":2579927.6500000041}},{"attributes":{"ID":61711,"DIS_CODE":0,"TOWNNAME":"安定區","LI":"海寮里","LIN":"1鄰","STREET":" ","SECT":" ","MAREA":"海寮","LANE":" ","ALLEY":" ","HOUSE_NO":"１０號之３","E_COORD97":169053.13,"N_COORD97":2555126.2999999998,"ADDRESS":"海寮１０號之３","OBJECTID":61711},"geometry":{"x":169053.13000000175,"y":2555126.2999999989}},{"attributes":{"ID":61712,"DIS_CODE":0,"TOWNNAME":"永康區","LI":"龍潭里","LIN":"35鄰","STREET":"自強路","SECT":" ","MAREA":" ","LANE":"７５０巷","ALLEY":"６９弄","HOUSE_NO":"１３號","E_COORD97":174564.14999999999,"N_COORD97":2548515.8599999999,"ADDRESS":"自強路７５０巷６９弄１３號","OBJECTID":61712},"geometry":{"x":174564.15000000037,"y":2548515.8599999994}},{"attributes":{"ID":61713,"DIS_CODE":0,"TOWNNAME":"永康區","LI":"龍潭里","LIN":"35鄰","STREET":"自強路","SECT":" ","MAREA":" ","LANE":"７５０巷","ALLEY":"４５弄","HOUSE_NO":"５號","E_COORD97":174514.51000000001,"N_COORD97":2548520.4900000002,"ADDRESS":"自強路７５０巷４５弄５號","OBJECTID":61713},"geometry":{"x":174514.51000000071,"y":2548520.4900000021}},{"attributes":{"ID":61714,"DIS_CODE":0,"TOWNNAME":"安定區","LI":"海寮里","LIN":"1鄰","STREET":" ","SECT":" ","MAREA":"海寮","LANE":" ","ALLEY":" ","HOUSE_NO":"１０號之２","E_COORD97":169053.56,"N_COORD97":2555121.2999999998,"ADDRESS":"海寮１０號之２","OBJECTID":61714},"geometry":{"x":169053.56000000052,"y":2555121.3000000026}},{"attributes":{"ID":61715,"DIS_CODE":0,"TOWNNAME":"永康區","LI":"龍潭里","LIN":"35鄰","STREET":"自強路","SECT":" ","MAREA":" ","LANE":"７５０巷","ALLEY":"４５弄","HOUSE_NO":"１３號","E_COORD97":174526.81,"N_COORD97":2548534.98,"ADDRESS":"自強路７５０巷４５弄１３號","OBJECTID":61715},"geometry":{"x":174526.80999999959,"y":2548534.9800000023}},{"attributes":{"ID":61716,"DIS_CODE":0,"TOWNNAME":"安定區","LI":"海寮里","LIN":"1鄰","STREET":" ","SECT":" ","MAREA":"海寮","LANE":" ","ALLEY":" ","HOUSE_NO":"１２之２號","E_COORD97":169137.29000000001,"N_COORD97":2555150.2999999998,"ADDRESS":"海寮１２之２號","OBJECTID":61716},"geometry":{"x":169137.29000000097,"y":2555150.3000000045}},{"attributes":{"ID":61717,"DIS_CODE":0,"TOWNNAME":"永康區","LI":"龍潭里","LIN":"35鄰","STREET":"自強路","SECT":" ","MAREA":" ","LANE":"８０２巷","ALLEY":"１弄","HOUSE_NO":"８號","E_COORD97":174628.54000000001,"N_COORD97":2548585.75,"ADDRESS":"自強路８０２巷１弄８號","OBJECTID":61717},"geometry":{"x":174628.54000000004,"y":2548585.7499999981}},{"attributes":{"ID":61718,"DIS_CODE":0,"TOWNNAME":"永康區","LI":"龍潭里","LIN":"35鄰","STREET":"自強路","SECT":" ","MAREA":" ","LANE":"７５０巷","ALLEY":"４５弄","HOUSE_NO":"７號","E_COORD97":174517.69,"N_COORD97":2548523.2400000002,"ADDRESS":"自強路７５０巷４５弄７號","OBJECTID":61718},"geometry":{"x":174517.69000000134,"y":2548523.2400000021}},{"attributes":{"ID":61719,"DIS_CODE":0,"TOWNNAME":"安定區","LI":"海寮里","LIN":"1鄰","STREET":" ","SECT":" ","MAREA":"海寮","LANE":" ","ALLEY":" ","HOUSE_NO":"５之３４號","E_COORD97":169027.628639,"N_COORD97":2554974.3602999998,"ADDRESS":"海寮５之３４號","OBJECTID":61719},"geometry":{"x":169027.62863900047,"y":2554974.3603000008}},{"attributes":{"ID":61720,"DIS_CODE":0,"TOWNNAME":"永康區","LI":"龍潭里","LIN":"35鄰","STREET":"自強路","SECT":" ","MAREA":" ","LANE":"７５０巷","ALLEY":"４５弄","HOUSE_NO":"１１號","E_COORD97":174525.54000000001,"N_COORD97":2548528.48,"ADDRESS":"自強路７５０巷４５弄１１號","OBJECTID":61720},"geometry":{"x":174525.54000000004,"y":2548528.4800000023}},{"attributes":{"ID":61721,"DIS_CODE":0,"TOWNNAME":"永康區","LI":"龍潭里","LIN":"35鄰","STREET":"自強路","SECT":" ","MAREA":" ","LANE":"８０２巷","ALLEY":"１弄","HOUSE_NO":"１０號","E_COORD97":174633.19,"N_COORD97":2548588.25,"ADDRESS":"自強路８０２巷１弄１０號","OBJECTID":61721},"geometry":{"x":174633.19000000041,"y":2548588.25}},{"attributes":{"ID":61722,"DIS_CODE":0,"TOWNNAME":"永康區","LI":"龍潭里","LIN":"35鄰","STREET":"自強路","SECT":" ","MAREA":" ","LANE":"８０２巷","ALLEY":"１弄","HOUSE_NO":"１１號","E_COORD97":174620.89000000001,"N_COORD97":2548605.1800000002,"ADDRESS":"自強路８０２巷１弄１１號","OBJECTID":61722},"geometry":{"x":174620.88999999966,"y":2548605.1799999997}},{"attributes":{"ID":61723,"DIS_CODE":0,"TOWNNAME":"永康區","LI":"龍潭里","LIN":"35鄰","STREET":"自強路","SECT":" ","MAREA":" ","LANE":"８０２巷","ALLEY":"１弄","HOUSE_NO":"１３號","E_COORD97":174624.25,"N_COORD97":2548608.23,"ADDRESS":"自強路８０２巷１弄１３號","OBJECTID":61723},"geometry":{"x":174624.25,"y":2548608.2300000023}},{"attributes":{"ID":61724,"DIS_CODE":0,"TOWNNAME":"永康區","LI":"龍潭里","LIN":"35鄰","STREET":"自強路","SECT":" ","MAREA":" ","LANE":"８０２巷","ALLEY":"１弄","HOUSE_NO":"２號","E_COORD97":174615.32000000001,"N_COORD97":2548571.7400000002,"ADDRESS":"自強路８０２巷１弄２號","OBJECTID":61724},"geometry":{"x":174615.3200000003,"y":2548571.7400000002}},{"attributes":{"ID":61725,"DIS_CODE":0,"TOWNNAME":"安定區","LI":"海寮里","LIN":"1鄰","STREET":" ","SECT":" ","MAREA":"海寮","LANE":" ","ALLEY":" ","HOUSE_NO":"５之１７號","E_COORD97":169043.48999999999,"N_COORD97":2554771.2999999998,"ADDRESS":"海寮５之１７號","OBJECTID":61725},"geometry":{"x":169043.49000000022,"y":2554771.3000000026}},{"attributes":{"ID":61726,"DIS_CODE":0,"TOWNNAME":"安定區","LI":"海寮里","LIN":"1鄰","STREET":" ","SECT":" ","MAREA":"海寮","LANE":" ","ALLEY":" ","HOUSE_NO":"８號","E_COORD97":169032.94,"N_COORD97":2555187.25,"ADDRESS":"海寮８號","OBJECTID":61726},"geometry":{"x":169032.94000000227,"y":2555187.2500000037}},{"attributes":{"ID":61727,"DIS_CODE":0,"TOWNNAME":"永康區","LI":"北灣里","LIN":"35鄰","STREET":"大灣路","SECT":" ","MAREA":" ","LANE":"４０巷","ALLEY":"５８弄","HOUSE_NO":"１６號之１","E_COORD97":175146.79000000001,"N_COORD97":2546158.5099999998,"ADDRESS":"大灣路４０巷５８弄１６號之１","OBJECTID":61727},"geometry":{"x":175146.79000000097,"y":2546158.5099999998}},{"attributes":{"ID":61728,"DIS_CODE":0,"TOWNNAME":"永康區","LI":"北灣里","LIN":"35鄰","STREET":"大灣路","SECT":" ","MAREA":" ","LANE":"４０巷","ALLEY":"５８弄","HOUSE_NO":"５３號之２","E_COORD97":175122.38,"N_COORD97":2546147.1099999999,"ADDRESS":"大灣路４０巷５８弄５３號之２","OBJECTID":61728},"geometry":{"x":175122.38000000082,"y":2546147.1099999994}},{"attributes":{"ID":61729,"DIS_CODE":0,"TOWNNAME":"安定區","LI":"海寮里","LIN":"1鄰","STREET":" ","SECT":" ","MAREA":"海寮","LANE":" ","ALLEY":" ","HOUSE_NO":"１０號之１","E_COORD97":169053.73000000001,"N_COORD97":2555118.2999999998,"ADDRESS":"海寮１０號之１","OBJECTID":61729},"geometry":{"x":169053.73000000138,"y":2555118.3000000007}},{"attributes":{"ID":61730,"DIS_CODE":0,"TOWNNAME":"安定區","LI":"海寮里","LIN":"1鄰","STREET":" ","SECT":" ","MAREA":"海寮","LANE":" ","ALLEY":" ","HOUSE_NO":"７之５１號","E_COORD97":169221.69,"N_COORD97":2554802.2999999998,"ADDRESS":"海寮７之５１號","OBJECTID":61730},"geometry":{"x":169221.69000000134,"y":2554802.3000000026}},{"attributes":{"ID":61731,"DIS_CODE":0,"TOWNNAME":"新營區","LI":"民生里","LIN":"20鄰","STREET":"進修街","SECT":" ","MAREA":" ","LANE":"２９巷","ALLEY":" ","HOUSE_NO":"３２號","E_COORD97":178894.81,"N_COORD97":2578482.7400000002,"ADDRESS":"進修街２９巷３２號","OBJECTID":61731},"geometry":{"x":178894.80999999959,"y":2578482.7400000039}},{"attributes":{"ID":61732,"DIS_CODE":0,"TOWNNAME":"安定區","LI":"海寮里","LIN":"1鄰","STREET":" ","SECT":" ","MAREA":"海寮","LANE":" ","ALLEY":" ","HOUSE_NO":"１０號之９","E_COORD97":169050.81,"N_COORD97":2555149.2999999998,"ADDRESS":"海寮１０號之９","OBJECTID":61732},"geometry":{"x":169050.80999999959,"y":2555149.3000000007}},{"attributes":{"ID":61733,"DIS_CODE":0,"TOWNNAME":"安定區","LI":"海寮里","LIN":"1鄰","STREET":" ","SECT":" ","MAREA":"海寮","LANE":" ","ALLEY":" ","HOUSE_NO":"７之８１號","E_COORD97":169231.98999999999,"N_COORD97":2554689.2999999998,"ADDRESS":"海寮７之８１號","OBJECTID":61733},"geometry":{"x":169231.99000000022,"y":2554689.3000000045}},{"attributes":{"ID":61734,"DIS_CODE":0,"TOWNNAME":"麻豆區","LI":"中興里","LIN":"8鄰","STREET":"和平路","SECT":" ","MAREA":" ","LANE":" ","ALLEY":" ","HOUSE_NO":"１２號","E_COORD97":172975.70000000001,"N_COORD97":2564387.3500000001,"ADDRESS":"和平路１２號","OBJECTID":61734},"geometry":{"x":172975.70000000205,"y":2564387.3500000034}},{"attributes":{"ID":61735,"DIS_CODE":0,"TOWNNAME":"新營區","LI":"護鎮里","LIN":"8鄰","STREET":" ","SECT":" ","MAREA":"後鎮","LANE":" ","ALLEY":" ","HOUSE_NO":"８５之５６號","E_COORD97":179302.14999999999,"N_COORD97":2580963.77,"ADDRESS":"後鎮８５之５６號","OBJECTID":61735},"geometry":{"x":179302.15000000037,"y":2580963.7700000033}},{"attributes":{"ID":61736,"DIS_CODE":0,"TOWNNAME":"新營區","LI":"護鎮里","LIN":"8鄰","STREET":" ","SECT":" ","MAREA":"後鎮","LANE":" ","ALLEY":" ","HOUSE_NO":"８７號","E_COORD97":179226.85999999999,"N_COORD97":2580972.9199999999,"ADDRESS":"後鎮８７號","OBJECTID":61736},"geometry":{"x":179226.86000000127,"y":2580972.9199999981}},{"attributes":{"ID":61737,"DIS_CODE":0,"TOWNNAME":"新營區","LI":"土庫里","LIN":"8鄰","STREET":" ","SECT":" ","MAREA":"土庫","LANE":" ","ALLEY":" ","HOUSE_NO":"７１之２５號","E_COORD97":182675.59,"N_COORD97":2579983.4500000002,"ADDRESS":"土庫７１之２５號","OBJECTID":61737},"geometry":{"x":182675.58999999985,"y":2579983.4500000011}},{"attributes":{"ID":61738,"DIS_CODE":0,"TOWNNAME":"永康區","LI":"北灣里","LIN":"35鄰","STREET":"大灣路","SECT":" ","MAREA":" ","LANE":"４０巷","ALLEY":"８６弄","HOUSE_NO":"２０號","E_COORD97":175029.13,"N_COORD97":2546212.3399999999,"ADDRESS":"大灣路４０巷８６弄２０號","OBJECTID":61738},"geometry":{"x":175029.13000000082,"y":2546212.3400000017}},{"attributes":{"ID":61739,"DIS_CODE":0,"TOWNNAME":"永康區","LI":"北灣里","LIN":"35鄰","STREET":"大灣路","SECT":" ","MAREA":" ","LANE":"４０巷","ALLEY":"８６弄","HOUSE_NO":"３８號","E_COORD97":175060.48999999999,"N_COORD97":2546239.1000000001,"ADDRESS":"大灣路４０巷８６弄３８號","OBJECTID":61739},"geometry":{"x":175060.49000000209,"y":2546239.0999999996}},{"attributes":{"ID":61740,"DIS_CODE":0,"TOWNNAME":"永康區","LI":"北灣里","LIN":"35鄰","STREET":"大灣路","SECT":" ","MAREA":" ","LANE":"４０巷","ALLEY":"５８弄","HOUSE_NO":"２２號之１","E_COORD97":175136.48999999999,"N_COORD97":2546167.7599999998,"ADDRESS":"大灣路４０巷５８弄２２號之１","OBJECTID":61740},"geometry":{"x":175136.49000000022,"y":2546167.7599999998}},{"attributes":{"ID":61741,"DIS_CODE":0,"TOWNNAME":"新營區","LI":"土庫里","LIN":"8鄰","STREET":" ","SECT":" ","MAREA":"土庫","LANE":" ","ALLEY":" ","HOUSE_NO":"７１號","E_COORD97":183114.14000000001,"N_COORD97":2579864.0099999998,"ADDRESS":"土庫７１號","OBJECTID":61741},"geometry":{"x":183114.13999999966,"y":2579864.0100000016}},{"attributes":{"ID":61742,"DIS_CODE":0,"TOWNNAME":"永康區","LI":"北灣里","LIN":"35鄰","STREET":"大灣路","SECT":" ","MAREA":" ","LANE":"４０巷","ALLEY":"５８弄","HOUSE_NO":"１５號之１","E_COORD97":175103.26999999999,"N_COORD97":2546120.4199999999,"ADDRESS":"大灣路４０巷５８弄１５號之１","OBJECTID":61742},"geometry":{"x":175103.26999999955,"y":2546120.4200000018}},{"attributes":{"ID":61743,"DIS_CODE":0,"TOWNNAME":"新營區","LI":"嘉芳里","LIN":" ","STREET":" ","SECT":" ","MAREA":"茄苳腳","LANE":" ","ALLEY":" ","HOUSE_NO":"１１之３號","E_COORD97":177200.39000000001,"N_COORD97":2578295.0099999998,"ADDRESS":"茄苳腳１１之３號","OBJECTID":61743},"geometry":{"x":177200.3900000006,"y":2578295.0100000016}},{"attributes":{"ID":61744,"DIS_CODE":0,"TOWNNAME":"新營區","LI":"鐵線里","LIN":"14鄰","STREET":" ","SECT":" ","MAREA":"秀才","LANE":" ","ALLEY":" ","HOUSE_NO":"２１之１號","E_COORD97":174673.84,"N_COORD97":2573845.6800000002,"ADDRESS":"秀才２１之１號","OBJECTID":61744},"geometry":{"x":174673.83999999985,"y":2573845.6800000016}},{"attributes":{"ID":61745,"DIS_CODE":0,"TOWNNAME":"安定區","LI":"海寮里","LIN":"1鄰","STREET":" ","SECT":" ","MAREA":"海寮","LANE":" ","ALLEY":" ","HOUSE_NO":"５之４８號","E_COORD97":168751.69,"N_COORD97":2555026.2999999998,"ADDRESS":"海寮５之４８號","OBJECTID":61745},"geometry":{"x":168751.69000000134,"y":2555026.3000000026}},{"attributes":{"ID":61746,"DIS_CODE":0,"TOWNNAME":"永康區","LI":"北灣里","LIN":"35鄰","STREET":"大灣路","SECT":" ","MAREA":" ","LANE":"４０巷","ALLEY":"５８弄","HOUSE_NO":"２５號之１","E_COORD97":175116.97,"N_COORD97":2546125.9199999999,"ADDRESS":"大灣路４０巷５８弄２５號之１","OBJECTID":61746},"geometry":{"x":175116.96999999974,"y":2546125.9199999999}},{"attributes":{"ID":61747,"DIS_CODE":0,"TOWNNAME":"永康區","LI":"北灣里","LIN":"35鄰","STREET":"大灣路","SECT":" ","MAREA":" ","LANE":"４０巷","ALLEY":"５８弄","HOUSE_NO":"１８號之２","E_COORD97":175148.29999999999,"N_COORD97":2546167.27,"ADDRESS":"大灣路４０巷５８弄１８號之２","OBJECTID":61747},"geometry":{"x":175148.30000000075,"y":2546167.2699999996}},{"attributes":{"ID":61748,"DIS_CODE":0,"TOWNNAME":"安定區","LI":"港尾里","LIN":"1鄰","STREET":" ","SECT":" ","MAREA":"下洲子","LANE":" ","ALLEY":" ","HOUSE_NO":"８之１號","E_COORD97":172544.23999999999,"N_COORD97":2556660.2999999998,"ADDRESS":"下洲子８之１號","OBJECTID":61748},"geometry":{"x":172544.24000000022,"y":2556660.3000000026}},{"attributes":{"ID":61749,"DIS_CODE":0,"TOWNNAME":"安定區","LI":"六嘉里","LIN":"1鄰","STREET":" ","SECT":" ","MAREA":"六塊寮","LANE":" ","ALLEY":" ","HOUSE_NO":"９號","E_COORD97":170396.87,"N_COORD97":2553613.27,"ADDRESS":"六塊寮９號","OBJECTID":61749},"geometry":{"x":170396.87000000011,"y":2553613.2700000033}},{"attributes":{"ID":61750,"DIS_CODE":0,"TOWNNAME":"安定區","LI":"中榮里","LIN":"1鄰","STREET":" ","SECT":" ","MAREA":"許中營","LANE":" ","ALLEY":" ","HOUSE_NO":"２號","E_COORD97":172149.09,"N_COORD97":2555014.25,"ADDRESS":"許中營２號","OBJECTID":61750},"geometry":{"x":172149.09000000078,"y":2555014.2500000037}},{"attributes":{"ID":61751,"DIS_CODE":0,"TOWNNAME":"安定區","LI":"中榮里","LIN":"1鄰","STREET":" ","SECT":" ","MAREA":"許中營","LANE":" ","ALLEY":" ","HOUSE_NO":"３之３號","E_COORD97":172188.79000000001,"N_COORD97":2554975.2999999998,"ADDRESS":"許中營３之３號","OBJECTID":61751},"geometry":{"x":172188.79000000097,"y":2554975.3000000026}},{"attributes":{"ID":61752,"DIS_CODE":0,"TOWNNAME":"安定區","LI":"海寮里","LIN":"1鄰","STREET":" ","SECT":" ","MAREA":"海寮","LANE":" ","ALLEY":" ","HOUSE_NO":"７之３５號","E_COORD97":169095.48999999999,"N_COORD97":2554674.2999999998,"ADDRESS":"海寮７之３５號","OBJECTID":61752},"geometry":{"x":169095.49000000115,"y":2554674.3000000007}},{"attributes":{"ID":61753,"DIS_CODE":0,"TOWNNAME":"永康區","LI":"北灣里","LIN":"35鄰","STREET":"大灣路","SECT":" ","MAREA":" ","LANE":"４０巷","ALLEY":"５８弄","HOUSE_NO":"２６號之２","E_COORD97":175134.76000000001,"N_COORD97":2546179.52,"ADDRESS":"大灣路４０巷５８弄２６號之２","OBJECTID":61753},"geometry":{"x":175134.76000000071,"y":2546179.5199999996}},{"attributes":{"ID":61754,"DIS_CODE":0,"TOWNNAME":"安定區","LI":"海寮里","LIN":"1鄰","STREET":" ","SECT":" ","MAREA":"海寮","LANE":" ","ALLEY":" ","HOUSE_NO":"１１之２７號","E_COORD97":169078.73999999999,"N_COORD97":2555173.2999999998,"ADDRESS":"海寮１１之２７號","OBJECTID":61754},"geometry":{"x":169078.74000000115,"y":2555173.3000000007}},{"attributes":{"ID":61755,"DIS_CODE":0,"TOWNNAME":"安定區","LI":"海寮里","LIN":"1鄰","STREET":" ","SECT":" ","MAREA":"海寮","LANE":" ","ALLEY":" ","HOUSE_NO":"５之２３號","E_COORD97":168652.324418,"N_COORD97":2555031.0027999999,"ADDRESS":"海寮５之２３號","OBJECTID":61755},"geometry":{"x":168652.32441800088,"y":2555031.002799999}},{"attributes":{"ID":61756,"DIS_CODE":0,"TOWNNAME":"安定區","LI":"安定里","LIN":"1鄰","STREET":" ","SECT":" ","MAREA":"領寄","LANE":" ","ALLEY":" ","HOUSE_NO":"１５號","E_COORD97":173470.19,"N_COORD97":2557102.25,"ADDRESS":"領寄１５號","OBJECTID":61756},"geometry":{"x":173470.19000000041,"y":2557102.25}},{"attributes":{"ID":61757,"DIS_CODE":0,"TOWNNAME":"新營區","LI":"大宏里","LIN":"12鄰","STREET":"開元路","SECT":" ","MAREA":" ","LANE":" ","ALLEY":" ","HOUSE_NO":"６１號之２","E_COORD97":180884.85999999999,"N_COORD97":2578746.9199999999,"ADDRESS":"開元路６１號之２","OBJECTID":61757},"geometry":{"x":180884.86000000127,"y":2578746.9200000018}},{"attributes":{"ID":61758,"DIS_CODE":0,"TOWNNAME":"安定區","LI":"港尾里","LIN":"1鄰","STREET":" ","SECT":" ","MAREA":"下洲子","LANE":" ","ALLEY":" ","HOUSE_NO":"１號之２","E_COORD97":172631.70999999999,"N_COORD97":2556553.2999999998,"ADDRESS":"下洲子１號之２","OBJECTID":61758},"geometry":{"x":172631.71000000089,"y":2556553.3000000007}},{"attributes":{"ID":61759,"DIS_CODE":0,"TOWNNAME":"新營區","LI":"興業里","LIN":"8鄰","STREET":"公誠街","SECT":" ","MAREA":" ","LANE":"９巷","ALLEY":" ","HOUSE_NO":"９之１號","E_COORD97":180341.10999999999,"N_COORD97":2578018.5499999998,"ADDRESS":"公誠街９巷９之１號","OBJECTID":61759},"geometry":{"x":180341.11000000127,"y":2578018.5500000007}},{"attributes":{"ID":61760,"DIS_CODE":0,"TOWNNAME":"新營區","LI":"中營里","LIN":"8鄰","STREET":"新進路","SECT":" ","MAREA":" ","LANE":" ","ALLEY":" ","HOUSE_NO":"４６號","E_COORD97":180571.31,"N_COORD97":2578273.23,"ADDRESS":"新進路４６號","OBJECTID":61760},"geometry":{"x":180571.30999999959,"y":2578273.2300000023}},{"attributes":{"ID":61761,"DIS_CODE":0,"TOWNNAME":"安定區","LI":"海寮里","LIN":"1鄰","STREET":" ","SECT":" ","MAREA":"海寮","LANE":" ","ALLEY":" ","HOUSE_NO":"７之２７號","E_COORD97":169091.39000000001,"N_COORD97":2554714.2999999998,"ADDRESS":"海寮７之２７號","OBJECTID":61761},"geometry":{"x":169091.38999999966,"y":2554714.3000000026}},{"attributes":{"ID":61762,"DIS_CODE":0,"TOWNNAME":"安定區","LI":"海寮里","LIN":"1鄰","STREET":" ","SECT":" ","MAREA":"海寮","LANE":" ","ALLEY":" ","HOUSE_NO":"５之１３號","E_COORD97":168896.69,"N_COORD97":2555055.2999999998,"ADDRESS":"海寮５之１３號","OBJECTID":61762},"geometry":{"x":168896.69000000041,"y":2555055.3000000045}},{"attributes":{"ID":61763,"DIS_CODE":0,"TOWNNAME":"新營區","LI":"太北里","LIN":"4鄰","STREET":" ","SECT":" ","MAREA":"太子宮","LANE":" ","ALLEY":" ","HOUSE_NO":"２９之１號","E_COORD97":175985.09,"N_COORD97":2577234.5499999998,"ADDRESS":"太子宮２９之１號","OBJECTID":61763},"geometry":{"x":175985.09000000171,"y":2577234.5500000026}},{"attributes":{"ID":61764,"DIS_CODE":0,"TOWNNAME":"安定區","LI":"海寮里","LIN":"1鄰","STREET":" ","SECT":" ","MAREA":"海寮","LANE":" ","ALLEY":" ","HOUSE_NO":"７之２５號","E_COORD97":169090.39000000001,"N_COORD97":2554724.2999999998,"ADDRESS":"海寮７之２５號","OBJECTID":61764},"geometry":{"x":169090.3900000006,"y":2554724.3000000026}},{"attributes":{"ID":61765,"DIS_CODE":0,"TOWNNAME":"永康區","LI":"北灣里","LIN":"35鄰","STREET":"大灣路","SECT":" ","MAREA":" ","LANE":"４０巷","ALLEY":"５８弄","HOUSE_NO":"２０號之２","E_COORD97":175144.79999999999,"N_COORD97":2546170.27,"ADDRESS":"大灣路４０巷５８弄２０號之２","OBJECTID":61765},"geometry":{"x":175144.80000000075,"y":2546170.2699999996}},{"attributes":{"ID":61766,"DIS_CODE":0,"TOWNNAME":"永康區","LI":"\u25A0洲里","LIN":"35鄰","STREET":"洲尾街","SECT":" ","MAREA":" ","LANE":"１９１巷","ALLEY":"４弄","HOUSE_NO":"１０號","E_COORD97":170863.53,"N_COORD97":2549031.7799999998,"ADDRESS":"洲尾街１９１巷４弄１０號","OBJECTID":61766},"geometry":{"x":170863.53000000119,"y":2549031.7799999993}},{"attributes":{"ID":61767,"DIS_CODE":0,"TOWNNAME":"安定區","LI":"中榮里","LIN":"1鄰","STREET":" ","SECT":" ","MAREA":"許中營","LANE":" ","ALLEY":" ","HOUSE_NO":"３之２號","E_COORD97":172182.98999999999,"N_COORD97":2554976.2999999998,"ADDRESS":"許中營３之２號","OBJECTID":61767},"geometry":{"x":172182.99000000022,"y":2554976.3000000007}},{"attributes":{"ID":61768,"DIS_CODE":0,"TOWNNAME":"安定區","LI":"中榮里","LIN":"1鄰","STREET":" ","SECT":" ","MAREA":"許中營","LANE":" ","ALLEY":" ","HOUSE_NO":"１０之５號","E_COORD97":172242.92999999999,"N_COORD97":2554957.2999999998,"ADDRESS":"許中營１０號之５","OBJECTID":61768},"geometry":{"x":172242.93000000156,"y":2554957.3000000026}},{"attributes":{"ID":61769,"DIS_CODE":0,"TOWNNAME":"安定區","LI":"海寮里","LIN":"1鄰","STREET":" ","SECT":" ","MAREA":"海寮","LANE":" ","ALLEY":" ","HOUSE_NO":"１１之２２號","E_COORD97":169081.14000000001,"N_COORD97":2555151.2999999998,"ADDRESS":"海寮１１之２２號","OBJECTID":61769},"geometry":{"x":169081.13999999966,"y":2555151.3000000026}},{"attributes":{"ID":61770,"DIS_CODE":0,"TOWNNAME":"永康區","LI":"崑山里","LIN":"35鄰","STREET":"大灣路","SECT":" ","MAREA":" ","LANE":"９４２巷","ALLEY":"２７１弄","HOUSE_NO":"２３０號之１","E_COORD97":173404.67000000001,"N_COORD97":2545127.1499999999,"ADDRESS":"大灣路９４２巷２７１弄２３０號之１","OBJECTID":61770},"geometry":{"x":173404.67000000086,"y":2545127.1500000022}},{"attributes":{"ID":61771,"DIS_CODE":0,"TOWNNAME":"永康區","LI":"復華里","LIN":"35鄰","STREET":"復華七街","SECT":" ","MAREA":" ","LANE":"３９巷","ALLEY":"４弄","HOUSE_NO":"８號","E_COORD97":172632.85000000001,"N_COORD97":2546048.2799999998,"ADDRESS":"復華七街３９巷４弄８號","OBJECTID":61771},"geometry":{"x":172632.84999999963,"y":2546048.2799999993}},{"attributes":{"ID":61772,"DIS_CODE":0,"TOWNNAME":"永康區","LI":"埔園里","LIN":"35鄰","STREET":"永大路","SECT":"三段","MAREA":" ","LANE":"４５０巷","ALLEY":"２弄","HOUSE_NO":"３號","E_COORD97":174173.37,"N_COORD97":2548379.0099999998,"ADDRESS":"永大路三段４５０巷２弄３號","OBJECTID":61772},"geometry":{"x":174173.37000000104,"y":2548379.0099999998}},{"attributes":{"ID":61773,"DIS_CODE":0,"TOWNNAME":"永康區","LI":"\u25A0行里","LIN":"35鄰","STREET":"中正北路","SECT":" ","MAREA":" ","LANE":"１７７巷","ALLEY":"１８弄","HOUSE_NO":"８號","E_COORD97":172417.01999999999,"N_COORD97":2549201.98,"ADDRESS":"中正北路１７７巷１８弄８號","OBJECTID":61773},"geometry":{"x":172417.02000000048,"y":2549201.9800000042}},{"attributes":{"ID":61774,"DIS_CODE":0,"TOWNNAME":"安定區","LI":"海寮里","LIN":"1鄰","STREET":" ","SECT":" ","MAREA":"海寮","LANE":" ","ALLEY":" ","HOUSE_NO":"１１之２９號","E_COORD97":169077.84,"N_COORD97":2555181.2999999998,"ADDRESS":"海寮１１之２９號","OBJECTID":61774},"geometry":{"x":169077.84000000078,"y":2555181.3000000026}},{"attributes":{"ID":61775,"DIS_CODE":0,"TOWNNAME":"安定區","LI":"港尾里","LIN":"1鄰","STREET":" ","SECT":" ","MAREA":"下洲子","LANE":" ","ALLEY":" ","HOUSE_NO":"５號","E_COORD97":172441.54000000001,"N_COORD97":2556585.25,"ADDRESS":"下洲子５號","OBJECTID":61775},"geometry":{"x":172441.54000000097,"y":2556585.2500000019}},{"attributes":{"ID":61776,"DIS_CODE":0,"TOWNNAME":"永康區","LI":"\u25A0行里","LIN":"35鄰","STREET":"中正北路","SECT":" ","MAREA":" ","LANE":"１７７巷","ALLEY":"１８弄","HOUSE_NO":"１８號","E_COORD97":172438.97,"N_COORD97":2549202.23,"ADDRESS":"中正北路１７７巷１８弄１８號","OBJECTID":61776},"geometry":{"x":172438.96999999974,"y":2549202.2300000004}},{"attributes":{"ID":61777,"DIS_CODE":0,"TOWNNAME":"永康區","LI":"\u25A0行里","LIN":"35鄰","STREET":"中正北路","SECT":" ","MAREA":" ","LANE":"１７７巷","ALLEY":"１８弄","HOUSE_NO":"２５號","E_COORD97":172444.48000000001,"N_COORD97":2549215.6299999999,"ADDRESS":"中正北路１７７巷１８弄２５號","OBJECTID":61777},"geometry":{"x":172444.48000000045,"y":2549215.629999999}},{"attributes":{"ID":61778,"DIS_CODE":0,"TOWNNAME":"安定區","LI":"海寮里","LIN":"1鄰","STREET":" ","SECT":" ","MAREA":"海寮","LANE":" ","ALLEY":" ","HOUSE_NO":"５之２０號","E_COORD97":169049.48999999999,"N_COORD97":2554619.2999999998,"ADDRESS":"海寮５之２０號","OBJECTID":61778},"geometry":{"x":169049.49000000115,"y":2554619.3000000026}},{"attributes":{"ID":61779,"DIS_CODE":0,"TOWNNAME":"安定區","LI":"海寮里","LIN":"1鄰","STREET":" ","SECT":" ","MAREA":"海寮","LANE":" ","ALLEY":" ","HOUSE_NO":"１１之１３號","E_COORD97":169098.64000000001,"N_COORD97":2555168.2999999998,"ADDRESS":"海寮１１之１３號","OBJECTID":61779},"geometry":{"x":169098.64000000153,"y":2555168.3000000026}},{"attributes":{"ID":61780,"DIS_CODE":0,"TOWNNAME":"永康區","LI":"\u25A0行里","LIN":"35鄰","STREET":"中正北路","SECT":" ","MAREA":" ","LANE":"１７７巷","ALLEY":"１８弄","HOUSE_NO":"３３號","E_COORD97":172460.88,"N_COORD97":2549215.8799999999,"ADDRESS":"中正北路１７７巷１８弄３３號","OBJECTID":61780},"geometry":{"x":172460.88000000082,"y":2549215.8800000008}},{"attributes":{"ID":61781,"DIS_CODE":0,"TOWNNAME":"安定區","LI":"海寮里","LIN":"1鄰","STREET":" ","SECT":" ","MAREA":"海寮","LANE":" ","ALLEY":" ","HOUSE_NO":"５之３７號","E_COORD97":168729.39000000001,"N_COORD97":2554691.2999999998,"ADDRESS":"海寮５之３７號","OBJECTID":61781},"geometry":{"x":168729.3900000006,"y":2554691.3000000007}},{"attributes":{"ID":61782,"DIS_CODE":0,"TOWNNAME":"安定區","LI":"六嘉里","LIN":"1鄰","STREET":" ","SECT":" ","MAREA":"六塊寮","LANE":" ","ALLEY":" ","HOUSE_NO":"９號之１","E_COORD97":170380.20000000001,"N_COORD97":2553586.2999999998,"ADDRESS":"六塊寮９號之１","OBJECTID":61782},"geometry":{"x":170380.19999999925,"y":2553586.3000000007}},{"attributes":{"ID":61783,"DIS_CODE":0,"TOWNNAME":"安定區","LI":"海寮里","LIN":"1鄰","STREET":" ","SECT":" ","MAREA":"海寮","LANE":" ","ALLEY":" ","HOUSE_NO":"１１之４號","E_COORD97":169155.64999999999,"N_COORD97":2555098.2999999998,"ADDRESS":"海寮１１號之４","OBJECTID":61783},"geometry":{"x":169155.6500000013,"y":2555098.3000000007}},{"attributes":{"ID":61784,"DIS_CODE":0,"TOWNNAME":"安定區","LI":"港尾里","LIN":"1鄰","STREET":" ","SECT":" ","MAREA":"下洲子","LANE":" ","ALLEY":" ","HOUSE_NO":"２號","E_COORD97":172491.04000000001,"N_COORD97":2556586.25,"ADDRESS":"下洲子２號","OBJECTID":61784},"geometry":{"x":172491.04000000004,"y":2556586.25}},{"attributes":{"ID":61785,"DIS_CODE":0,"TOWNNAME":"永康區","LI":"\u25A0洲里","LIN":"35鄰","STREET":"洲尾街","SECT":" ","MAREA":" ","LANE":"１９１巷","ALLEY":"６弄","HOUSE_NO":"１０號","E_COORD97":170835.34,"N_COORD97":2549011.0699999998,"ADDRESS":"洲尾街１９１巷６弄１０號","OBJECTID":61785},"geometry":{"x":170835.34000000078,"y":2549011.0699999984}},{"attributes":{"ID":61786,"DIS_CODE":0,"TOWNNAME":"安定區","LI":"海寮里","LIN":"1鄰","STREET":" ","SECT":" ","MAREA":"海寮","LANE":" ","ALLEY":" ","HOUSE_NO":"７之１５號","E_COORD97":169074.73878099999,"N_COORD97":2554844.3300100002,"ADDRESS":"海寮７之１５號","OBJECTID":61786},"geometry":{"x":169074.73878100049,"y":2554844.330008002}},{"attributes":{"ID":61787,"DIS_CODE":0,"TOWNNAME":"安定區","LI":"中榮里","LIN":"1鄰","STREET":" ","SECT":" ","MAREA":"許中營","LANE":" ","ALLEY":" ","HOUSE_NO":"１０之１２號","E_COORD97":172271.79000000001,"N_COORD97":2554949.29,"ADDRESS":"許中營１０之１２號","OBJECTID":61787},"geometry":{"x":172271.79000000097,"y":2554949.290000001}},{"attributes":{"ID":61788,"DIS_CODE":0,"TOWNNAME":"歸仁區","LI":"七甲里","LIN":"8鄰","STREET":"七甲一街","SECT":" ","MAREA":" ","LANE":" ","ALLEY":" ","HOUSE_NO":"１１８號","E_COORD97":177634.23999999999,"N_COORD97":2542623.6600000001,"ADDRESS":"七甲一街１１８號","OBJECTID":61788},"geometry":{"x":177634.24000000115,"y":2542623.660000002}},{"attributes":{"ID":61789,"DIS_CODE":0,"TOWNNAME":"安定區","LI":"港尾里","LIN":"1鄰","STREET":" ","SECT":" ","MAREA":"下洲子","LANE":" ","ALLEY":" ","HOUSE_NO":"３號","E_COORD97":172495.64000000001,"N_COORD97":2556608.25,"ADDRESS":"下洲子３號","OBJECTID":61789},"geometry":{"x":172495.63999999873,"y":2556608.2500000019}},{"attributes":{"ID":61790,"DIS_CODE":0,"TOWNNAME":"安定區","LI":"海寮里","LIN":"1鄰","STREET":" ","SECT":" ","MAREA":"海寮","LANE":" ","ALLEY":" ","HOUSE_NO":"１２之１號","E_COORD97":169137.79000000001,"N_COORD97":2555145.2999999998,"ADDRESS":"海寮１２之１號","OBJECTID":61790},"geometry":{"x":169137.79000000097,"y":2555145.3000000007}},{"attributes":{"ID":61791,"DIS_CODE":0,"TOWNNAME":"歸仁區","LI":"八甲里","LIN":"8鄰","STREET":"大光一街","SECT":" ","MAREA":" ","LANE":" ","ALLEY":" ","HOUSE_NO":"５２號","E_COORD97":177853.12,"N_COORD97":2541777.6099999999,"ADDRESS":"大光一街５２號","OBJECTID":61791},"geometry":{"x":177853.12000000197,"y":2541777.6099999994}},{"attributes":{"ID":61792,"DIS_CODE":0,"TOWNNAME":"歸仁區","LI":"六甲里","LIN":"8鄰","STREET":"中正十五街","SECT":" ","MAREA":" ","LANE":" ","ALLEY":" ","HOUSE_NO":"８０號","E_COORD97":176478.60999999999,"N_COORD97":2539418.25,"ADDRESS":"中正十五街８０號","OBJECTID":61792},"geometry":{"x":176478.6100000022,"y":2539418.2499999981}},{"attributes":{"ID":61793,"DIS_CODE":0,"TOWNNAME":"歸仁區","LI":"八甲里","LIN":"8鄰","STREET":"大明街","SECT":" ","MAREA":" ","LANE":" ","ALLEY":" ","HOUSE_NO":"３６號","E_COORD97":177877.87,"N_COORD97":2541859.6099999999,"ADDRESS":"大明街３６號","OBJECTID":61793},"geometry":{"x":177877.87000000011,"y":2541859.6099999975}},{"attributes":{"ID":61794,"DIS_CODE":0,"TOWNNAME":"歸仁區","LI":"大潭里","LIN":"8鄰","STREET":"長榮路","SECT":"一段","MAREA":" ","LANE":" ","ALLEY":" ","HOUSE_NO":"２０６號","E_COORD97":175051.57000000001,"N_COORD97":2534550.9700000002,"ADDRESS":"長榮路一段２０６號","OBJECTID":61794},"geometry":{"x":175051.57000000216,"y":2534550.9700000007}},{"attributes":{"ID":61795,"DIS_CODE":0,"TOWNNAME":"歸仁區","LI":"八甲里","LIN":"8鄰","STREET":"大光一街","SECT":" ","MAREA":" ","LANE":" ","ALLEY":" ","HOUSE_NO":"５０號","E_COORD97":177848.01999999999,"N_COORD97":2541772.6099999999,"ADDRESS":"大光一街５０號","OBJECTID":61795},"geometry":{"x":177848.01999999862,"y":2541772.6100000013}},{"attributes":{"ID":61796,"DIS_CODE":0,"TOWNNAME":"永康區","LI":"\u25A0行里","LIN":"35鄰","STREET":"中正北路","SECT":" ","MAREA":" ","LANE":"１７７巷","ALLEY":"１８弄","HOUSE_NO":"１３號","E_COORD97":172419,"N_COORD97":2549214.6299999999,"ADDRESS":"中正北路１７７巷１８弄１３號","OBJECTID":61796},"geometry":{"x":172419.00000000186,"y":2549214.629999999}},{"attributes":{"ID":61797,"DIS_CODE":0,"TOWNNAME":"柳營區","LI":"果毅里","LIN":"8鄰","STREET":" ","SECT":" ","MAREA":"果毅後","LANE":" ","ALLEY":" ","HOUSE_NO":"９０之１０號","E_COORD97":185655.62,"N_COORD97":2572714.3700000001,"ADDRESS":"果毅後９０之１０號","OBJECTID":61797},"geometry":{"x":185655.62000000011,"y":2572714.370000001}},{"attributes":{"ID":61798,"DIS_CODE":0,"TOWNNAME":"安平區","LI":"平安里","LIN":"10鄰","STREET":"安平路","SECT":" ","MAREA":" ","LANE":"４４６巷","ALLEY":"１７弄","HOUSE_NO":"２２號","E_COORD97":165218.17000000001,"N_COORD97":2544381.5699999998,"ADDRESS":"安平路４４６巷１７弄２２號","OBJECTID":61798},"geometry":{"x":165218.16999999993,"y":2544381.5700000022}},{"attributes":{"ID":61799,"DIS_CODE":0,"TOWNNAME":"柳營區","LI":"果毅里","LIN":"8鄰","STREET":" ","SECT":" ","MAREA":"果毅後","LANE":" ","ALLEY":" ","HOUSE_NO":"９０號之１０","E_COORD97":185655.62,"N_COORD97":2572714.3700000001,"ADDRESS":"果毅後９０號之１０","OBJECTID":61799},"geometry":{"x":185655.62000000011,"y":2572714.370000001}},{"attributes":{"ID":61800,"DIS_CODE":0,"TOWNNAME":"柳營區","LI":"果毅里","LIN":"8鄰","STREET":" ","SECT":" ","MAREA":"果毅後","LANE":" ","ALLEY":" ","HOUSE_NO":"９０號之１１","E_COORD97":185651.16,"N_COORD97":2572697.6200000001,"ADDRESS":"果毅後９０號之１１","OBJECTID":61800},"geometry":{"x":185651.16000000108,"y":2572697.6200000029}}]}