{"displayFieldName":"TOWNNAME","fieldAliases":{"ID":"ID","DIS_CODE":"DIS_CODE","TOWNNAME":"TOWNNAME","LI":"LI","LIN":"LIN","STREET":"STREET","SECT":"SECT","MAREA":"MAREA","LANE":"LANE","ALLEY":"ALLEY","HOUSE_NO":"HOUSE_NO","E_COORD97":"E_COORD97","N_COORD97":"N_COORD97","ADDRESS":"ADDRESS","OBJECTID":"OBJECTID"},"geometryType":"esriGeometryPoint","spatialReference":{"wkid":102443,"latestWkid":3826},"fields":[{"name":"ID","type":"esriFieldTypeDouble","alias":"ID"},{"name":"DIS_CODE","type":"esriFieldTypeInteger","alias":"DIS_CODE"},{"name":"TOWNNAME","type":"esriFieldTypeString","alias":"TOWNNAME","length":8},{"name":"LI","type":"esriFieldTypeString","alias":"LI","length":8},{"name":"LIN","type":"esriFieldTypeString","alias":"LIN","length":12},{"name":"STREET","type":"esriFieldTypeString","alias":"STREET","length":20},{"name":"SECT","type":"esriFieldTypeString","alias":"SECT","length":8},{"name":"MAREA","type":"esriFieldTypeString","alias":"MAREA","length":12},{"name":"LANE","type":"esriFieldTypeString","alias":"LANE","length":10},{"name":"ALLEY","type":"esriFieldTypeString","alias":"ALLEY","length":10},{"name":"HOUSE_NO","type":"esriFieldTypeString","alias":"HOUSE_NO","length":20},{"name":"E_COORD97","type":"esriFieldTypeDouble","alias":"E_COORD97"},{"name":"N_COORD97","type":"esriFieldTypeDouble","alias":"N_COORD97"},{"name":"ADDRESS","type":"esriFieldTypeString","alias":"ADDRESS","length":50},{"name":"OBJECTID","type":"esriFieldTypeOID","alias":"OBJECTID"}],"features":[{"attributes":{"ID":387225,"DIS_CODE":0,"TOWNNAME":"永康區","LI":"復華里","LIN":"28鄰","STREET":"復華八街","SECT":" ","MAREA":" ","LANE":"３９巷","ALLEY":" ","HOUSE_NO":"１２號","E_COORD97":172701.47,"N_COORD97":2546245.46,"ADDRESS":"復華八街３９巷１２號","OBJECTID":387201},"geometry":{"x":172701.46999999974,"y":2546245.4600000009}},{"attributes":{"ID":387226,"DIS_CODE":0,"TOWNNAME":"安南區","LI":"安富里","LIN":"28鄰","STREET":"府安路","SECT":"五段","MAREA":" ","LANE":"２３０巷","ALLEY":" ","HOUSE_NO":"４９號","E_COORD97":167433.63,"N_COORD97":2547033.1200000001,"ADDRESS":"府安路五段２３０巷４９號","OBJECTID":387202},"geometry":{"x":167433.62999999989,"y":2547033.1200000029}},{"attributes":{"ID":387227,"DIS_CODE":0,"TOWNNAME":"安南區","LI":"安富里","LIN":"28鄰","STREET":"府安路","SECT":"五段","MAREA":" ","LANE":"２３０巷","ALLEY":" ","HOUSE_NO":"３３號","E_COORD97":167442.88,"N_COORD97":2546975.2000000002,"ADDRESS":"府安路五段２３０巷３３號","OBJECTID":387203},"geometry":{"x":167442.88000000082,"y":2546975.200000003}},{"attributes":{"ID":387228,"DIS_CODE":0,"TOWNNAME":"安南區","LI":"安富里","LIN":"28鄰","STREET":"府安路","SECT":"五段","MAREA":" ","LANE":"２３０巷","ALLEY":" ","HOUSE_NO":"４１號","E_COORD97":167439.03,"N_COORD97":2546995.9700000002,"ADDRESS":"府安路五段２３０巷４１號","OBJECTID":387204},"geometry":{"x":167439.03000000119,"y":2546995.9700000025}},{"attributes":{"ID":387229,"DIS_CODE":0,"TOWNNAME":"安南區","LI":"安富里","LIN":"28鄰","STREET":"府安路","SECT":"五段","MAREA":" ","LANE":"２３０巷","ALLEY":" ","HOUSE_NO":"３５號","E_COORD97":167447.12,"N_COORD97":2546977.8900000001,"ADDRESS":"府安路五段２３０巷３５號","OBJECTID":387205},"geometry":{"x":167447.12000000104,"y":2546977.8900000006}},{"attributes":{"ID":387230,"DIS_CODE":0,"TOWNNAME":"永康區","LI":"\u25A0洲里","LIN":"28鄰","STREET":"洲尾街","SECT":" ","MAREA":" ","LANE":"１５２巷","ALLEY":" ","HOUSE_NO":"４１號","E_COORD97":171123.82000000001,"N_COORD97":2549089.29,"ADDRESS":"洲尾街１５２巷４１號","OBJECTID":387206},"geometry":{"x":171123.82000000216,"y":2549089.2899999991}},{"attributes":{"ID":387231,"DIS_CODE":0,"TOWNNAME":"永康區","LI":"\u25A0洲里","LIN":"28鄰","STREET":"洲尾街","SECT":" ","MAREA":" ","LANE":"１５２巷","ALLEY":" ","HOUSE_NO":"２７號","E_COORD97":171101.17000000001,"N_COORD97":2549073.54,"ADDRESS":"洲尾街１５２巷２７號","OBJECTID":387207},"geometry":{"x":171101.17000000086,"y":2549073.5399999991}},{"attributes":{"ID":387232,"DIS_CODE":0,"TOWNNAME":"永康區","LI":"\u25A0洲里","LIN":"28鄰","STREET":"洲尾街","SECT":" ","MAREA":" ","LANE":"１５２巷","ALLEY":" ","HOUSE_NO":"７２號","E_COORD97":171159.07000000001,"N_COORD97":2549101.4399999999,"ADDRESS":"洲尾街１５２巷７２號","OBJECTID":387208},"geometry":{"x":171159.0700000003,"y":2549101.4399999995}},{"attributes":{"ID":387233,"DIS_CODE":0,"TOWNNAME":"永康區","LI":"\u25A0洲里","LIN":"28鄰","STREET":"洲尾街","SECT":" ","MAREA":" ","LANE":"１５２巷","ALLEY":" ","HOUSE_NO":"６４號","E_COORD97":171146.28,"N_COORD97":2549090.9300000002,"ADDRESS":"洲尾街１５２巷６４號","OBJECTID":387209},"geometry":{"x":171146.28000000119,"y":2549090.9300000016}},{"attributes":{"ID":387234,"DIS_CODE":0,"TOWNNAME":"永康區","LI":"\u25A0洲里","LIN":"28鄰","STREET":"洲尾街","SECT":" ","MAREA":" ","LANE":"１５２巷","ALLEY":" ","HOUSE_NO":"６０號","E_COORD97":171140.01000000001,"N_COORD97":2549085.4300000002,"ADDRESS":"洲尾街１５２巷６０號","OBJECTID":387210},"geometry":{"x":171140.00999999978,"y":2549085.4299999997}},{"attributes":{"ID":387235,"DIS_CODE":0,"TOWNNAME":"永康區","LI":"\u25A0洲里","LIN":"28鄰","STREET":"洲尾街","SECT":" ","MAREA":" ","LANE":"１５２巷","ALLEY":" ","HOUSE_NO":"４８號","E_COORD97":171119.87,"N_COORD97":2549070.9300000002,"ADDRESS":"洲尾街１５２巷４８號","OBJECTID":387211},"geometry":{"x":171119.87000000197,"y":2549070.9300000016}},{"attributes":{"ID":387236,"DIS_CODE":0,"TOWNNAME":"永康區","LI":"\u25A0洲里","LIN":"28鄰","STREET":"洲尾街","SECT":" ","MAREA":" ","LANE":"１５２巷","ALLEY":" ","HOUSE_NO":"４３號","E_COORD97":171126.91,"N_COORD97":2549091.54,"ADDRESS":"洲尾街１５２巷４３號","OBJECTID":387212},"geometry":{"x":171126.91000000108,"y":2549091.5400000028}},{"attributes":{"ID":387237,"DIS_CODE":0,"TOWNNAME":"永康區","LI":"\u25A0洲里","LIN":"28鄰","STREET":"洲尾街","SECT":" ","MAREA":" ","LANE":"１５２巷","ALLEY":" ","HOUSE_NO":"５號","E_COORD97":171065.78,"N_COORD97":2549094.6400000001,"ADDRESS":"洲尾街１５２巷５號","OBJECTID":387213},"geometry":{"x":171065.78000000026,"y":2549094.6400000006}},{"attributes":{"ID":387238,"DIS_CODE":0,"TOWNNAME":"永康區","LI":"\u25A0洲里","LIN":"28鄰","STREET":"洲尾街","SECT":" ","MAREA":" ","LANE":"１５２巷","ALLEY":" ","HOUSE_NO":"３５號","E_COORD97":171114.25,"N_COORD97":2549082.29,"ADDRESS":"洲尾街１５２巷３５號","OBJECTID":387214},"geometry":{"x":171114.25000000093,"y":2549082.2899999991}},{"attributes":{"ID":387239,"DIS_CODE":0,"TOWNNAME":"永康區","LI":"\u25A0洲里","LIN":"28鄰","STREET":"洲尾街","SECT":" ","MAREA":" ","LANE":"１５２巷","ALLEY":" ","HOUSE_NO":"３號","E_COORD97":171064.67000000001,"N_COORD97":2549098.6499999999,"ADDRESS":"洲尾街１５２巷３號","OBJECTID":387215},"geometry":{"x":171064.66999999993,"y":2549098.6500000004}},{"attributes":{"ID":387240,"DIS_CODE":0,"TOWNNAME":"永康區","LI":"\u25A0洲里","LIN":"28鄰","STREET":"洲尾街","SECT":" ","MAREA":" ","LANE":"１５２巷","ALLEY":" ","HOUSE_NO":"１１號","E_COORD97":171069.82999999999,"N_COORD97":2549083.3900000001,"ADDRESS":"洲尾街１５２巷１１號","OBJECTID":387216},"geometry":{"x":171069.83000000101,"y":2549083.3900000006}},{"attributes":{"ID":387241,"DIS_CODE":0,"TOWNNAME":"永康區","LI":"\u25A0洲里","LIN":"28鄰","STREET":"洲尾街","SECT":" ","MAREA":" ","LANE":"１５２巷","ALLEY":" ","HOUSE_NO":"５０號","E_COORD97":171123.45000000001,"N_COORD97":2549073.4300000002,"ADDRESS":"洲尾街１５２巷５０號","OBJECTID":387217},"geometry":{"x":171123.45000000112,"y":2549073.4300000016}},{"attributes":{"ID":387242,"DIS_CODE":0,"TOWNNAME":"永康區","LI":"\u25A0洲里","LIN":"28鄰","STREET":"洲尾街","SECT":" ","MAREA":" ","LANE":"１５２巷","ALLEY":" ","HOUSE_NO":"１號","E_COORD97":171063.63,"N_COORD97":2549102.6499999999,"ADDRESS":"洲尾街１５２巷１號","OBJECTID":387218},"geometry":{"x":171063.63000000175,"y":2549102.6500000041}},{"attributes":{"ID":387243,"DIS_CODE":0,"TOWNNAME":"永康區","LI":"\u25A0洲里","LIN":"28鄰","STREET":"洲尾街","SECT":" ","MAREA":" ","LANE":"１５２巷","ALLEY":" ","HOUSE_NO":"６８號","E_COORD97":171152.57999999999,"N_COORD97":2549095.9300000002,"ADDRESS":"洲尾街１５２巷６８號","OBJECTID":387219},"geometry":{"x":171152.58000000101,"y":2549095.9299999997}},{"attributes":{"ID":387244,"DIS_CODE":0,"TOWNNAME":"永康區","LI":"\u25A0洲里","LIN":"28鄰","STREET":"洲尾街","SECT":" ","MAREA":" ","LANE":"１５２巷","ALLEY":" ","HOUSE_NO":"６２號","E_COORD97":171143.23000000001,"N_COORD97":2549087.9300000002,"ADDRESS":"洲尾街１５２巷６２號","OBJECTID":387220},"geometry":{"x":171143.23000000231,"y":2549087.9300000016}},{"attributes":{"ID":387245,"DIS_CODE":0,"TOWNNAME":"永康區","LI":"\u25A0洲里","LIN":"28鄰","STREET":"洲尾街","SECT":" ","MAREA":" ","LANE":"１５２巷","ALLEY":" ","HOUSE_NO":"５６號","E_COORD97":171133.78,"N_COORD97":2549080.4300000002,"ADDRESS":"洲尾街１５２巷５６號","OBJECTID":387221},"geometry":{"x":171133.78000000026,"y":2549080.4300000016}},{"attributes":{"ID":387246,"DIS_CODE":0,"TOWNNAME":"永康區","LI":"\u25A0洲里","LIN":"28鄰","STREET":"洲尾街","SECT":" ","MAREA":" ","LANE":"１５２巷","ALLEY":" ","HOUSE_NO":"１５號","E_COORD97":171074.41,"N_COORD97":2549062.29,"ADDRESS":"洲尾街１５２巷１５號","OBJECTID":387222},"geometry":{"x":171074.41000000108,"y":2549062.2899999991}},{"attributes":{"ID":387247,"DIS_CODE":0,"TOWNNAME":"永康區","LI":"\u25A0洲里","LIN":"28鄰","STREET":"洲尾街","SECT":" ","MAREA":" ","LANE":"１５２巷","ALLEY":" ","HOUSE_NO":"５８號","E_COORD97":171136.97,"N_COORD97":2549082.9300000002,"ADDRESS":"洲尾街１５２巷５８號","OBJECTID":387223},"geometry":{"x":171136.96999999974,"y":2549082.9300000034}},{"attributes":{"ID":387248,"DIS_CODE":0,"TOWNNAME":"永康區","LI":"\u25A0洲里","LIN":"28鄰","STREET":"洲尾街","SECT":" ","MAREA":" ","LANE":"１５２巷","ALLEY":" ","HOUSE_NO":"３９號","E_COORD97":171120.87,"N_COORD97":2549087.29,"ADDRESS":"洲尾街１５２巷３９號","OBJECTID":387224},"geometry":{"x":171120.87000000011,"y":2549087.290000001}},{"attributes":{"ID":387249,"DIS_CODE":0,"TOWNNAME":"永康區","LI":"\u25A0洲里","LIN":"28鄰","STREET":"洲尾街","SECT":" ","MAREA":" ","LANE":"１５２巷","ALLEY":" ","HOUSE_NO":"４７號","E_COORD97":171134.10999999999,"N_COORD97":2549096.54,"ADDRESS":"洲尾街１５２巷４７號","OBJECTID":387225},"geometry":{"x":171134.11000000127,"y":2549096.540000001}},{"attributes":{"ID":387250,"DIS_CODE":0,"TOWNNAME":"永康區","LI":"\u25A0洲里","LIN":"28鄰","STREET":"洲尾街","SECT":" ","MAREA":" ","LANE":"１５２巷","ALLEY":" ","HOUSE_NO":"６６號","E_COORD97":171149.44,"N_COORD97":2549093.4300000002,"ADDRESS":"洲尾街１５２巷６６號","OBJECTID":387226},"geometry":{"x":171149.44000000041,"y":2549093.4300000016}},{"attributes":{"ID":387251,"DIS_CODE":0,"TOWNNAME":"永康區","LI":"\u25A0洲里","LIN":"28鄰","STREET":"洲尾街","SECT":" ","MAREA":" ","LANE":"１５４巷","ALLEY":" ","HOUSE_NO":"２號","E_COORD97":171082.98999999999,"N_COORD97":2549104.6499999999,"ADDRESS":"洲尾街１５４巷２號","OBJECTID":387227},"geometry":{"x":171082.99000000022,"y":2549104.6500000004}},{"attributes":{"ID":387252,"DIS_CODE":0,"TOWNNAME":"永康區","LI":"大灣里","LIN":"28鄰","STREET":"民族路","SECT":" ","MAREA":" ","LANE":"１９０巷","ALLEY":" ","HOUSE_NO":"２２號之２","E_COORD97":175294.35000000001,"N_COORD97":2545091.8199999998,"ADDRESS":"民族路１９０巷２２號之２","OBJECTID":387228},"geometry":{"x":175294.34999999963,"y":2545091.8200000022}},{"attributes":{"ID":387253,"DIS_CODE":0,"TOWNNAME":"安南區","LI":"安富里","LIN":"28鄰","STREET":"府安路","SECT":"五段","MAREA":" ","LANE":"２３０巷","ALLEY":" ","HOUSE_NO":"４７號","E_COORD97":167437.48000000001,"N_COORD97":2547019.6499999999,"ADDRESS":"府安路五段２３０巷４７號","OBJECTID":387229},"geometry":{"x":167437.48000000231,"y":2547019.6500000004}},{"attributes":{"ID":387254,"DIS_CODE":0,"TOWNNAME":"東區","LI":"虎尾里","LIN":"28鄰","STREET":"東門路","SECT":"三段","MAREA":" ","LANE":"２７３巷","ALLEY":" ","HOUSE_NO":"１１號","E_COORD97":171724.37,"N_COORD97":2541891,"ADDRESS":"東門路三段２７３巷１１號","OBJECTID":387230},"geometry":{"x":171724.37000000011,"y":2541891}},{"attributes":{"ID":387255,"DIS_CODE":0,"TOWNNAME":"東區","LI":"虎尾里","LIN":"28鄰","STREET":"東門路","SECT":"三段","MAREA":" ","LANE":"２７３巷","ALLEY":" ","HOUSE_NO":"１３號","E_COORD97":171724.01999999999,"N_COORD97":2541895.5800000001,"ADDRESS":"東門路三段２７３巷１３號","OBJECTID":387231},"geometry":{"x":171724.02000000048,"y":2541895.5800000019}},{"attributes":{"ID":387256,"DIS_CODE":0,"TOWNNAME":"東區","LI":"虎尾里","LIN":"28鄰","STREET":"東門路","SECT":"三段","MAREA":" ","LANE":"２７３巷","ALLEY":" ","HOUSE_NO":"１５號","E_COORD97":171723.48999999999,"N_COORD97":2541900.3300000001,"ADDRESS":"東門路三段２７３巷１５號","OBJECTID":387232},"geometry":{"x":171723.49000000115,"y":2541900.3300000019}},{"attributes":{"ID":387257,"DIS_CODE":0,"TOWNNAME":"東區","LI":"虎尾里","LIN":"28鄰","STREET":"東門路","SECT":"三段","MAREA":" ","LANE":"２７３巷","ALLEY":" ","HOUSE_NO":"１７號","E_COORD97":171723.14000000001,"N_COORD97":2541905.4300000002,"ADDRESS":"東門路三段２７３巷１７號","OBJECTID":387233},"geometry":{"x":171723.1400000006,"y":2541905.4300000034}},{"attributes":{"ID":387258,"DIS_CODE":0,"TOWNNAME":"東區","LI":"虎尾里","LIN":"28鄰","STREET":"東門路","SECT":"三段","MAREA":" ","LANE":"２７３巷","ALLEY":" ","HOUSE_NO":"１９號","E_COORD97":171722.60999999999,"N_COORD97":2541909.6600000001,"ADDRESS":"東門路三段２７３巷１９號","OBJECTID":387234},"geometry":{"x":171722.61000000127,"y":2541909.6600000001}},{"attributes":{"ID":387259,"DIS_CODE":0,"TOWNNAME":"東區","LI":"虎尾里","LIN":"28鄰","STREET":"東門路","SECT":"三段","MAREA":" ","LANE":"２７３巷","ALLEY":" ","HOUSE_NO":"２１號","E_COORD97":171721.91,"N_COORD97":2541914.5800000001,"ADDRESS":"東門路三段２７３巷２１號","OBJECTID":387235},"geometry":{"x":171721.91000000108,"y":2541914.5800000001}},{"attributes":{"ID":387260,"DIS_CODE":0,"TOWNNAME":"東區","LI":"虎尾里","LIN":"28鄰","STREET":"東門路","SECT":"三段","MAREA":" ","LANE":"２７３巷","ALLEY":" ","HOUSE_NO":"２５號","E_COORD97":171720.48000000001,"N_COORD97":2541925.9300000002,"ADDRESS":"東門路三段２７３巷２５號","OBJECTID":387236},"geometry":{"x":171720.48000000045,"y":2541925.9300000034}},{"attributes":{"ID":387261,"DIS_CODE":0,"TOWNNAME":"東區","LI":"虎尾里","LIN":"28鄰","STREET":"東門路","SECT":"三段","MAREA":" ","LANE":"２７３巷","ALLEY":" ","HOUSE_NO":"２７號","E_COORD97":171719.95999999999,"N_COORD97":2541930.3300000001,"ADDRESS":"東門路三段２７３巷２７號","OBJECTID":387237},"geometry":{"x":171719.96000000089,"y":2541930.3300000038}},{"attributes":{"ID":387262,"DIS_CODE":0,"TOWNNAME":"東區","LI":"虎尾里","LIN":"28鄰","STREET":"東門路","SECT":"三段","MAREA":" ","LANE":"２７３巷","ALLEY":" ","HOUSE_NO":"３１號","E_COORD97":171718.89999999999,"N_COORD97":2541938.9500000002,"ADDRESS":"東門路三段２７３巷３１號","OBJECTID":387238},"geometry":{"x":171718.9000000013,"y":2541938.950000003}},{"attributes":{"ID":387263,"DIS_CODE":0,"TOWNNAME":"東區","LI":"虎尾里","LIN":"28鄰","STREET":"東門路","SECT":"三段","MAREA":" ","LANE":"２７３巷","ALLEY":" ","HOUSE_NO":"３３號","E_COORD97":171718.54999999999,"N_COORD97":2541943.5299999998,"ADDRESS":"東門路三段２７３巷３３號","OBJECTID":387239},"geometry":{"x":171718.55000000168,"y":2541943.5299999993}},{"attributes":{"ID":387264,"DIS_CODE":0,"TOWNNAME":"東區","LI":"虎尾里","LIN":"28鄰","STREET":"東門路","SECT":"三段","MAREA":" ","LANE":"２７３巷","ALLEY":" ","HOUSE_NO":"３５號","E_COORD97":171718.01999999999,"N_COORD97":2541948.5299999998,"ADDRESS":"東門路三段２７３巷３５號","OBJECTID":387240},"geometry":{"x":171718.01999999955,"y":2541948.5300000031}},{"attributes":{"ID":387265,"DIS_CODE":0,"TOWNNAME":"東區","LI":"虎尾里","LIN":"28鄰","STREET":"東門路","SECT":"三段","MAREA":" ","LANE":"２７３巷","ALLEY":" ","HOUSE_NO":"３７號","E_COORD97":171717.31,"N_COORD97":2541952.5699999998,"ADDRESS":"東門路三段２７３巷３７號","OBJECTID":387241},"geometry":{"x":171717.30999999959,"y":2541952.570000004}},{"attributes":{"ID":387266,"DIS_CODE":0,"TOWNNAME":"東區","LI":"虎尾里","LIN":"28鄰","STREET":"東門路","SECT":"三段","MAREA":" ","LANE":"２７３巷","ALLEY":" ","HOUSE_NO":"３９號","E_COORD97":171716.60999999999,"N_COORD97":2541956.9700000002,"ADDRESS":"東門路三段２７３巷３９號","OBJECTID":387242},"geometry":{"x":171716.61000000034,"y":2541956.9700000044}},{"attributes":{"ID":387267,"DIS_CODE":0,"TOWNNAME":"東區","LI":"虎尾里","LIN":"28鄰","STREET":"東門路","SECT":"三段","MAREA":" ","LANE":"２７３巷","ALLEY":" ","HOUSE_NO":"４３號","E_COORD97":171716.26000000001,"N_COORD97":2541964.8900000001,"ADDRESS":"東門路三段２７３巷４３號","OBJECTID":387243},"geometry":{"x":171716.25999999978,"y":2541964.8900000025}},{"attributes":{"ID":387268,"DIS_CODE":0,"TOWNNAME":"東區","LI":"虎尾里","LIN":"28鄰","STREET":"東門路","SECT":"三段","MAREA":" ","LANE":"２７３巷","ALLEY":" ","HOUSE_NO":"４７號","E_COORD97":171715.89999999999,"N_COORD97":2541973.5099999998,"ADDRESS":"東門路三段２７３巷４７號","OBJECTID":387244},"geometry":{"x":171715.90000000037,"y":2541973.5100000016}},{"attributes":{"ID":387269,"DIS_CODE":0,"TOWNNAME":"東區","LI":"虎尾里","LIN":"28鄰","STREET":"東門路","SECT":"三段","MAREA":" ","LANE":"２７３巷","ALLEY":" ","HOUSE_NO":"５１號","E_COORD97":171715.38,"N_COORD97":2541982.4900000002,"ADDRESS":"東門路三段２７３巷５１號","OBJECTID":387245},"geometry":{"x":171715.38000000082,"y":2541982.4900000002}},{"attributes":{"ID":387270,"DIS_CODE":0,"TOWNNAME":"東區","LI":"虎尾里","LIN":"28鄰","STREET":"東門路","SECT":"三段","MAREA":" ","LANE":"２７３巷","ALLEY":" ","HOUSE_NO":"５５號","E_COORD97":171713.79000000001,"N_COORD97":2541990.7599999998,"ADDRESS":"東門路三段２７３巷５５號","OBJECTID":387246},"geometry":{"x":171713.79000000097,"y":2541990.7599999998}},{"attributes":{"ID":387271,"DIS_CODE":0,"TOWNNAME":"東區","LI":"虎尾里","LIN":"28鄰","STREET":"東門路","SECT":"三段","MAREA":" ","LANE":"２７３巷","ALLEY":" ","HOUSE_NO":"５７號","E_COORD97":171713.82999999999,"N_COORD97":2541995.1699999999,"ADDRESS":"東門路三段２７３巷５７號","OBJECTID":387247},"geometry":{"x":171713.83000000101,"y":2541995.1699999999}},{"attributes":{"ID":387272,"DIS_CODE":0,"TOWNNAME":"東區","LI":"虎尾里","LIN":"28鄰","STREET":"東門路","SECT":"三段","MAREA":" ","LANE":"２７３巷","ALLEY":" ","HOUSE_NO":"５號","E_COORD97":171709.57999999999,"N_COORD97":2541890.2999999998,"ADDRESS":"東門路三段２７３巷５號","OBJECTID":387248},"geometry":{"x":171709.58000000007,"y":2541890.2999999989}},{"attributes":{"ID":387273,"DIS_CODE":0,"TOWNNAME":"東區","LI":"虎尾里","LIN":"28鄰","STREET":"東門路","SECT":"三段","MAREA":" ","LANE":"２７３巷","ALLEY":" ","HOUSE_NO":"６１號","E_COORD97":171712.85999999999,"N_COORD97":2542003.6000000001,"ADDRESS":"東門路三段２７３巷６１號","OBJECTID":387249},"geometry":{"x":171712.86000000034,"y":2542003.6000000015}},{"attributes":{"ID":387274,"DIS_CODE":0,"TOWNNAME":"東區","LI":"虎尾里","LIN":"28鄰","STREET":"東門路","SECT":"三段","MAREA":" ","LANE":"２７３巷","ALLEY":" ","HOUSE_NO":"６３號","E_COORD97":171712.62,"N_COORD97":2542008.0600000001,"ADDRESS":"東門路三段２７３巷６３號","OBJECTID":387250},"geometry":{"x":171712.62000000011,"y":2542008.0600000024}},{"attributes":{"ID":387275,"DIS_CODE":0,"TOWNNAME":"東區","LI":"虎尾里","LIN":"28鄰","STREET":"東門路","SECT":"三段","MAREA":" ","LANE":"２７３巷","ALLEY":" ","HOUSE_NO":"６５號","E_COORD97":171712.26000000001,"N_COORD97":2542012.0299999998,"ADDRESS":"東門路三段２７３巷６５號","OBJECTID":387251},"geometry":{"x":171712.26000000071,"y":2542012.0299999993}},{"attributes":{"ID":387276,"DIS_CODE":0,"TOWNNAME":"東區","LI":"虎尾里","LIN":"28鄰","STREET":"東門路","SECT":"三段","MAREA":" ","LANE":"２７３巷","ALLEY":" ","HOUSE_NO":"７號","E_COORD97":171725.42999999999,"N_COORD97":2541881.5,"ADDRESS":"東門路三段２７３巷７號","OBJECTID":387252},"geometry":{"x":171725.4299999997,"y":2541881.5000000037}},{"attributes":{"ID":387277,"DIS_CODE":0,"TOWNNAME":"東區","LI":"虎尾里","LIN":"28鄰","STREET":"東門路","SECT":"三段","MAREA":" ","LANE":"２７３巷","ALLEY":" ","HOUSE_NO":"９號","E_COORD97":171724.54999999999,"N_COORD97":2541886.6000000001,"ADDRESS":"東門路三段２７３巷９號","OBJECTID":387253},"geometry":{"x":171724.54999999981,"y":2541886.5999999996}},{"attributes":{"ID":387278,"DIS_CODE":0,"TOWNNAME":"善化區","LI":"光文里","LIN":"28鄰","STREET":"中山路","SECT":" ","MAREA":" ","LANE":"２４０巷","ALLEY":" ","HOUSE_NO":"４３號","E_COORD97":177782.35999999999,"N_COORD97":2559186.5,"ADDRESS":"中山路２４０巷４３號","OBJECTID":387254},"geometry":{"x":177782.3600000022,"y":2559186.5000000019}},{"attributes":{"ID":387279,"DIS_CODE":0,"TOWNNAME":"善化區","LI":"光文里","LIN":"28鄰","STREET":"中山路","SECT":" ","MAREA":" ","LANE":"２４０巷","ALLEY":" ","HOUSE_NO":"３６號","E_COORD97":177809.70000000001,"N_COORD97":2559221,"ADDRESS":"中山路２４０巷３６號","OBJECTID":387255},"geometry":{"x":177809.70000000019,"y":2559221.0000000019}},{"attributes":{"ID":387280,"DIS_CODE":0,"TOWNNAME":"永康區","LI":"復華里","LIN":"28鄰","STREET":"復華八街","SECT":" ","MAREA":" ","LANE":"４３巷","ALLEY":" ","HOUSE_NO":"３號","E_COORD97":172737.23999999999,"N_COORD97":2546298.23,"ADDRESS":"復華八街４３巷３號","OBJECTID":387256},"geometry":{"x":172737.24000000022,"y":2546298.2300000042}},{"attributes":{"ID":387281,"DIS_CODE":0,"TOWNNAME":"永康區","LI":"復華里","LIN":"28鄰","STREET":"復華八街","SECT":" ","MAREA":" ","LANE":"４３巷","ALLEY":" ","HOUSE_NO":"１６號","E_COORD97":172721.87,"N_COORD97":2546321.2799999998,"ADDRESS":"復華八街４３巷１６號","OBJECTID":387257},"geometry":{"x":172721.87000000197,"y":2546321.2800000012}},{"attributes":{"ID":387282,"DIS_CODE":0,"TOWNNAME":"永康區","LI":"復華里","LIN":"28鄰","STREET":"復華八街","SECT":" ","MAREA":" ","LANE":"３９巷","ALLEY":" ","HOUSE_NO":"２號","E_COORD97":172719.12,"N_COORD97":2546239.4700000002,"ADDRESS":"復華八街３９巷２號","OBJECTID":387258},"geometry":{"x":172719.12000000104,"y":2546239.4700000025}},{"attributes":{"ID":387283,"DIS_CODE":0,"TOWNNAME":"永康區","LI":"復華里","LIN":"28鄰","STREET":"復華八街","SECT":" ","MAREA":" ","LANE":"３９巷","ALLEY":" ","HOUSE_NO":"１４號","E_COORD97":172696.78,"N_COORD97":2546247.46,"ADDRESS":"復華八街３９巷１４號","OBJECTID":387259},"geometry":{"x":172696.78000000026,"y":2546247.4600000028}},{"attributes":{"ID":387284,"DIS_CODE":0,"TOWNNAME":"永康區","LI":"復華里","LIN":"28鄰","STREET":"復華八街","SECT":" ","MAREA":" ","LANE":"４１巷","ALLEY":" ","HOUSE_NO":"１３號","E_COORD97":172692.73999999999,"N_COORD97":2546278.2999999998,"ADDRESS":"復華八街４１巷１３號","OBJECTID":387260},"geometry":{"x":172692.74000000115,"y":2546278.3000000026}},{"attributes":{"ID":387285,"DIS_CODE":0,"TOWNNAME":"永康區","LI":"復華里","LIN":"28鄰","STREET":"復華八街","SECT":" ","MAREA":" ","LANE":"４１巷","ALLEY":" ","HOUSE_NO":"６號","E_COORD97":172730.94,"N_COORD97":2546279.1600000001,"ADDRESS":"復華八街４１巷６號","OBJECTID":387261},"geometry":{"x":172730.94000000134,"y":2546279.160000002}},{"attributes":{"ID":387286,"DIS_CODE":0,"TOWNNAME":"永康區","LI":"復華里","LIN":"28鄰","STREET":"復華八街","SECT":" ","MAREA":" ","LANE":"４１巷","ALLEY":" ","HOUSE_NO":"３號","E_COORD97":172724.25,"N_COORD97":2546269.7999999998,"ADDRESS":"復華八街４１巷３號","OBJECTID":387262},"geometry":{"x":172724.25000000186,"y":2546269.8000000007}},{"attributes":{"ID":387287,"DIS_CODE":0,"TOWNNAME":"永康區","LI":"復華里","LIN":"28鄰","STREET":"復華八街","SECT":" ","MAREA":" ","LANE":"４１巷","ALLEY":" ","HOUSE_NO":"２號","E_COORD97":172736.35000000001,"N_COORD97":2546277.6699999999,"ADDRESS":"復華八街４１巷２號","OBJECTID":387263},"geometry":{"x":172736.34999999963,"y":2546277.6700000037}},{"attributes":{"ID":387288,"DIS_CODE":0,"TOWNNAME":"永康區","LI":"復華里","LIN":"28鄰","STREET":"復華八街","SECT":" ","MAREA":" ","LANE":"４１巷","ALLEY":" ","HOUSE_NO":"９號","E_COORD97":172704.70000000001,"N_COORD97":2546274.2999999998,"ADDRESS":"復華八街４１巷９號","OBJECTID":387264},"geometry":{"x":172704.70000000112,"y":2546274.3000000045}},{"attributes":{"ID":387289,"DIS_CODE":0,"TOWNNAME":"永康區","LI":"復華里","LIN":"28鄰","STREET":"復華八街","SECT":" ","MAREA":" ","LANE":"４３巷","ALLEY":" ","HOUSE_NO":"２號","E_COORD97":172750.48000000001,"N_COORD97":2546314.2799999998,"ADDRESS":"復華八街４３巷２號","OBJECTID":387265},"geometry":{"x":172750.48000000138,"y":2546314.2800000012}},{"attributes":{"ID":387290,"DIS_CODE":0,"TOWNNAME":"永康區","LI":"復華里","LIN":"28鄰","STREET":"復華八街","SECT":" ","MAREA":" ","LANE":"３９巷","ALLEY":" ","HOUSE_NO":"６號","E_COORD97":172713.92000000001,"N_COORD97":2546239.96,"ADDRESS":"復華八街３９巷６號","OBJECTID":387266},"geometry":{"x":172713.91999999993,"y":2546239.9600000028}},{"attributes":{"ID":387291,"DIS_CODE":0,"TOWNNAME":"永康區","LI":"復華里","LIN":"28鄰","STREET":"復華八街","SECT":" ","MAREA":" ","LANE":"４３巷","ALLEY":" ","HOUSE_NO":"１９號","E_COORD97":172696.32999999999,"N_COORD97":2546307.7400000002,"ADDRESS":"復華八街４３巷１９號","OBJECTID":387267},"geometry":{"x":172696.33000000007,"y":2546307.7399999984}},{"attributes":{"ID":387292,"DIS_CODE":0,"TOWNNAME":"永康區","LI":"復國里","LIN":"28鄰","STREET":"復華二街","SECT":" ","MAREA":" ","LANE":"１２巷","ALLEY":" ","HOUSE_NO":"６號","E_COORD97":172659.87,"N_COORD97":2545383.7799999998,"ADDRESS":"復華二街１２巷６號","OBJECTID":387268},"geometry":{"x":172659.87000000104,"y":2545383.7799999993}},{"attributes":{"ID":387293,"DIS_CODE":0,"TOWNNAME":"永康區","LI":"復華里","LIN":"28鄰","STREET":"復華八街","SECT":" ","MAREA":" ","LANE":"４３巷","ALLEY":" ","HOUSE_NO":"１３號","E_COORD97":172712.04000000001,"N_COORD97":2546303.9900000002,"ADDRESS":"復華八街４３巷１３號","OBJECTID":387269},"geometry":{"x":172712.0400000019,"y":2546303.9900000021}},{"attributes":{"ID":387294,"DIS_CODE":0,"TOWNNAME":"永康區","LI":"復華里","LIN":"28鄰","STREET":"復華八街","SECT":" ","MAREA":" ","LANE":"３９巷","ALLEY":" ","HOUSE_NO":"１０號","E_COORD97":172706.17000000001,"N_COORD97":2546243.46,"ADDRESS":"復華八街３９巷１０號","OBJECTID":387270},"geometry":{"x":172706.17000000086,"y":2546243.4600000028}},{"attributes":{"ID":387295,"DIS_CODE":0,"TOWNNAME":"永康區","LI":"復華里","LIN":"28鄰","STREET":"復華八街","SECT":" ","MAREA":" ","LANE":"３９巷","ALLEY":" ","HOUSE_NO":"１６號","E_COORD97":172692.19,"N_COORD97":2546249.46,"ADDRESS":"復華八街３９巷１６號","OBJECTID":387271},"geometry":{"x":172692.19000000041,"y":2546249.4600000046}},{"attributes":{"ID":387296,"DIS_CODE":0,"TOWNNAME":"永康區","LI":"復華里","LIN":"28鄰","STREET":"復華八街","SECT":" ","MAREA":" ","LANE":"４１巷","ALLEY":" ","HOUSE_NO":"８號","E_COORD97":172725.95000000001,"N_COORD97":2546280.1699999999,"ADDRESS":"復華八街４１巷８號","OBJECTID":387272},"geometry":{"x":172725.95000000019,"y":2546280.1699999999}},{"attributes":{"ID":387297,"DIS_CODE":0,"TOWNNAME":"永康區","LI":"復華里","LIN":"28鄰","STREET":"復華八街","SECT":" ","MAREA":" ","LANE":"４３巷","ALLEY":" ","HOUSE_NO":"７號","E_COORD97":172726.32999999999,"N_COORD97":2546300.7400000002,"ADDRESS":"復華八街４３巷７號","OBJECTID":387273},"geometry":{"x":172726.33000000007,"y":2546300.7400000002}},{"attributes":{"ID":387298,"DIS_CODE":0,"TOWNNAME":"永康區","LI":"復華里","LIN":"28鄰","STREET":"復華八街","SECT":" ","MAREA":" ","LANE":"４３巷","ALLEY":" ","HOUSE_NO":"２１號","E_COORD97":172690.72,"N_COORD97":2546309.2400000002,"ADDRESS":"復華八街４３巷２１號","OBJECTID":387274},"geometry":{"x":172690.72000000067,"y":2546309.2400000021}},{"attributes":{"ID":387299,"DIS_CODE":0,"TOWNNAME":"永康區","LI":"復華里","LIN":"28鄰","STREET":"復華八街","SECT":" ","MAREA":" ","LANE":"３９巷","ALLEY":" ","HOUSE_NO":"２０號","E_COORD97":172683.48999999999,"N_COORD97":2546253.4500000002,"ADDRESS":"復華八街３９巷２０號","OBJECTID":387275},"geometry":{"x":172683.49000000022,"y":2546253.4499999993}},{"attributes":{"ID":387300,"DIS_CODE":0,"TOWNNAME":"永康區","LI":"復華里","LIN":"28鄰","STREET":"復華八街","SECT":" ","MAREA":" ","LANE":"４１巷","ALLEY":" ","HOUSE_NO":"１６號","E_COORD97":172705.59,"N_COORD97":2546285.4199999999,"ADDRESS":"復華八街４１巷１６號","OBJECTID":387276},"geometry":{"x":172705.59000000078,"y":2546285.4199999999}},{"attributes":{"ID":387301,"DIS_CODE":0,"TOWNNAME":"永康區","LI":"復華里","LIN":"28鄰","STREET":"復華八街","SECT":" ","MAREA":" ","LANE":"４３巷","ALLEY":" ","HOUSE_NO":"１４號","E_COORD97":172726.84,"N_COORD97":2546320.0299999998,"ADDRESS":"復華八街４３巷１４號","OBJECTID":387277},"geometry":{"x":172726.84000000171,"y":2546320.0300000012}},{"attributes":{"ID":387302,"DIS_CODE":0,"TOWNNAME":"永康區","LI":"復國里","LIN":"28鄰","STREET":"復華二街","SECT":" ","MAREA":" ","LANE":"１２巷","ALLEY":" ","HOUSE_NO":"１３號","E_COORD97":172632.97,"N_COORD97":2545388.5299999998,"ADDRESS":"復華二街１２巷１３號","OBJECTID":387278},"geometry":{"x":172632.97000000067,"y":2545388.5299999993}},{"attributes":{"ID":387303,"DIS_CODE":0,"TOWNNAME":"永康區","LI":"復國里","LIN":"28鄰","STREET":"復華二街","SECT":" ","MAREA":" ","LANE":"１２巷","ALLEY":" ","HOUSE_NO":"２號","E_COORD97":172672.32000000001,"N_COORD97":2545382.5299999998,"ADDRESS":"復華二街１２巷２號","OBJECTID":387279},"geometry":{"x":172672.32000000123,"y":2545382.5299999993}},{"attributes":{"ID":387304,"DIS_CODE":0,"TOWNNAME":"永康區","LI":"復華里","LIN":"28鄰","STREET":"復華八街","SECT":" ","MAREA":" ","LANE":"３９巷","ALLEY":" ","HOUSE_NO":"８號","E_COORD97":172709.73999999999,"N_COORD97":2546241.71,"ADDRESS":"復華八街３９巷８號","OBJECTID":387280},"geometry":{"x":172709.74000000115,"y":2546241.7100000028}},{"attributes":{"ID":387305,"DIS_CODE":0,"TOWNNAME":"永康區","LI":"復華里","LIN":"28鄰","STREET":"復華八街","SECT":" ","MAREA":" ","LANE":"４１巷","ALLEY":" ","HOUSE_NO":"５號","E_COORD97":172717.39999999999,"N_COORD97":2546271.5499999998,"ADDRESS":"復華八街４１巷５號","OBJECTID":387281},"geometry":{"x":172717.4000000013,"y":2546271.5500000007}},{"attributes":{"ID":387306,"DIS_CODE":0,"TOWNNAME":"永康區","LI":"復華里","LIN":"28鄰","STREET":"復華八街","SECT":" ","MAREA":" ","LANE":"３９巷","ALLEY":" ","HOUSE_NO":"２２號","E_COORD97":172678.60999999999,"N_COORD97":2546255.7000000002,"ADDRESS":"復華八街３９巷２２號","OBJECTID":387282},"geometry":{"x":172678.61000000127,"y":2546255.6999999993}},{"attributes":{"ID":387307,"DIS_CODE":0,"TOWNNAME":"永康區","LI":"復華里","LIN":"28鄰","STREET":"復華八街","SECT":" ","MAREA":" ","LANE":"４３巷","ALLEY":" ","HOUSE_NO":"６號","E_COORD97":172745.25,"N_COORD97":2546315.5299999998,"ADDRESS":"復華八街４３巷６號","OBJECTID":387283},"geometry":{"x":172745.25000000093,"y":2546315.5300000012}},{"attributes":{"ID":387308,"DIS_CODE":0,"TOWNNAME":"永康區","LI":"復華里","LIN":"28鄰","STREET":"復華八街","SECT":" ","MAREA":" ","LANE":"４１巷","ALLEY":" ","HOUSE_NO":"２２號","E_COORD97":172689.34,"N_COORD97":2546288.9199999999,"ADDRESS":"復華八街４１巷２２號","OBJECTID":387284},"geometry":{"x":172689.33999999985,"y":2546288.9199999999}},{"attributes":{"ID":387309,"DIS_CODE":0,"TOWNNAME":"永康區","LI":"復國里","LIN":"28鄰","STREET":"復華二街","SECT":" ","MAREA":" ","LANE":"１２巷","ALLEY":" ","HOUSE_NO":"１４號","E_COORD97":172629.29999999999,"N_COORD97":2545388.2799999998,"ADDRESS":"復華二街１２巷１４號","OBJECTID":387285},"geometry":{"x":172629.30000000075,"y":2545388.2800000012}},{"attributes":{"ID":387310,"DIS_CODE":0,"TOWNNAME":"永康區","LI":"復華里","LIN":"28鄰","STREET":"復華八街","SECT":" ","MAREA":" ","LANE":"４１巷","ALLEY":" ","HOUSE_NO":"２０號","E_COORD97":172694.73999999999,"N_COORD97":2546287.9199999999,"ADDRESS":"復華八街４１巷２０號","OBJECTID":387286},"geometry":{"x":172694.74000000115,"y":2546287.9199999999}},{"attributes":{"ID":387311,"DIS_CODE":0,"TOWNNAME":"東區","LI":"虎尾里","LIN":"8鄰","STREET":"東成街","SECT":" ","MAREA":" ","LANE":"１４２巷","ALLEY":" ","HOUSE_NO":"２４號","E_COORD97":171655.39000000001,"N_COORD97":2542218.0899999999,"ADDRESS":"東成街１４２巷２４號","OBJECTID":387287},"geometry":{"x":171655.3900000006,"y":2542218.0900000017}},{"attributes":{"ID":387312,"DIS_CODE":0,"TOWNNAME":"東區","LI":"富強里","LIN":"25鄰","STREET":"裕農路","SECT":" ","MAREA":" ","LANE":"３５０巷","ALLEY":" ","HOUSE_NO":"２５之２號","E_COORD97":171074.31,"N_COORD97":2542961.4399999999,"ADDRESS":"裕農路３５０巷２５之２號","OBJECTID":387288},"geometry":{"x":171074.31000000052,"y":2542961.4399999995}},{"attributes":{"ID":387313,"DIS_CODE":0,"TOWNNAME":"永康區","LI":"大灣里","LIN":"28鄰","STREET":"民族路","SECT":" ","MAREA":" ","LANE":"１９０巷","ALLEY":" ","HOUSE_NO":"２２號","E_COORD97":175282.97,"N_COORD97":2545092.0600000001,"ADDRESS":"民族路１９０巷２２號","OBJECTID":387289},"geometry":{"x":175282.97000000067,"y":2545092.0600000005}},{"attributes":{"ID":387314,"DIS_CODE":0,"TOWNNAME":"永康區","LI":"大灣里","LIN":"28鄰","STREET":"民族路","SECT":" ","MAREA":" ","LANE":"１９０巷","ALLEY":" ","HOUSE_NO":"３７號","E_COORD97":175291.03,"N_COORD97":2545107.3100000001,"ADDRESS":"民族路１９０巷３７號","OBJECTID":387290},"geometry":{"x":175291.03000000119,"y":2545107.3100000005}},{"attributes":{"ID":387315,"DIS_CODE":0,"TOWNNAME":"永康區","LI":"二王里","LIN":"28鄰","STREET":"中山南路","SECT":" ","MAREA":" ","LANE":"５４４巷","ALLEY":" ","HOUSE_NO":"４８號","E_COORD97":172313.22,"N_COORD97":2546469.4199999999,"ADDRESS":"中山南路５４４巷４８號","OBJECTID":387291},"geometry":{"x":172313.21999999974,"y":2546469.4200000037}},{"attributes":{"ID":387316,"DIS_CODE":0,"TOWNNAME":"東區","LI":"虎尾里","LIN":"28鄰","STREET":"東門路","SECT":"三段","MAREA":" ","LANE":"２７３巷","ALLEY":" ","HOUSE_NO":"５３號","E_COORD97":171714.48999999999,"N_COORD97":2541986.0099999998,"ADDRESS":"東門路三段２７３巷５３號","OBJECTID":387292},"geometry":{"x":171714.49000000115,"y":2541986.0099999998}},{"attributes":{"ID":387317,"DIS_CODE":0,"TOWNNAME":"東區","LI":"虎尾里","LIN":"28鄰","STREET":"東門路","SECT":"三段","MAREA":" ","LANE":"２７３巷","ALLEY":" ","HOUSE_NO":"５９號","E_COORD97":171713.47,"N_COORD97":2541999.5099999998,"ADDRESS":"東門路三段２７３巷５９號","OBJECTID":387293},"geometry":{"x":171713.46999999974,"y":2541999.5099999998}},{"attributes":{"ID":387318,"DIS_CODE":0,"TOWNNAME":"東區","LI":"虎尾里","LIN":"28鄰","STREET":"東門路","SECT":"三段","MAREA":" ","LANE":"２７３巷","ALLEY":" ","HOUSE_NO":"２９號","E_COORD97":171719.60000000001,"N_COORD97":2541934.9100000001,"ADDRESS":"東門路三段２７３巷２９號","OBJECTID":387294},"geometry":{"x":171719.60000000149,"y":2541934.9100000001}},{"attributes":{"ID":387319,"DIS_CODE":0,"TOWNNAME":"東區","LI":"虎尾里","LIN":"28鄰","STREET":"東門路","SECT":"三段","MAREA":" ","LANE":"２７３巷","ALLEY":" ","HOUSE_NO":"４５號","E_COORD97":171715.73000000001,"N_COORD97":2541969.4700000002,"ADDRESS":"東門路三段２７３巷４５號","OBJECTID":387295},"geometry":{"x":171715.73000000045,"y":2541969.4700000007}},{"attributes":{"ID":387320,"DIS_CODE":0,"TOWNNAME":"安平區","LI":"平安里","LIN":"9鄰","STREET":"安平路","SECT":" ","MAREA":" ","LANE":"４２６巷","ALLEY":" ","HOUSE_NO":"３８號之２","E_COORD97":165357.39780499999,"N_COORD97":2544413.1016899999,"ADDRESS":"安平路４２６巷３８號之２","OBJECTID":387296},"geometry":{"x":165357.39780500159,"y":2544413.1016930044}},{"attributes":{"ID":387321,"DIS_CODE":0,"TOWNNAME":"東區","LI":"虎尾里","LIN":"28鄰","STREET":"東門路","SECT":"三段","MAREA":" ","LANE":"２７３巷","ALLEY":" ","HOUSE_NO":"４９號","E_COORD97":171715.54999999999,"N_COORD97":2541978.2599999998,"ADDRESS":"東門路三段２７３巷４９號","OBJECTID":387297},"geometry":{"x":171715.55000000075,"y":2541978.2600000016}},{"attributes":{"ID":387322,"DIS_CODE":0,"TOWNNAME":"東區","LI":"虎尾里","LIN":"28鄰","STREET":"東門路","SECT":"三段","MAREA":" ","LANE":"２７３巷","ALLEY":" ","HOUSE_NO":"６７號","E_COORD97":171712.01999999999,"N_COORD97":2542016.3700000001,"ADDRESS":"東門路三段２７３巷６７號","OBJECTID":387298},"geometry":{"x":171712.02000000048,"y":2542016.3700000029}},{"attributes":{"ID":387323,"DIS_CODE":0,"TOWNNAME":"新市區","LI":"新市里","LIN":"28鄰","STREET":"復興路","SECT":" ","MAREA":" ","LANE":"６２巷","ALLEY":" ","HOUSE_NO":"１４號","E_COORD97":177869.20000000001,"N_COORD97":2553473.2799999998,"ADDRESS":"復興路６２巷１４號","OBJECTID":387299},"geometry":{"x":177869.20000000019,"y":2553473.2799999993}},{"attributes":{"ID":387324,"DIS_CODE":0,"TOWNNAME":"仁德區","LI":"成功里","LIN":"28鄰","STREET":"成功一街","SECT":" ","MAREA":" ","LANE":"２巷","ALLEY":" ","HOUSE_NO":"２１號","E_COORD97":170468.94,"N_COORD97":2540245.7599999998,"ADDRESS":"成功一街２巷２１號","OBJECTID":387300},"geometry":{"x":170468.94000000134,"y":2540245.7600000016}},{"attributes":{"ID":387325,"DIS_CODE":0,"TOWNNAME":"仁德區","LI":"仁德里","LIN":"28鄰","STREET":"淨修街","SECT":" ","MAREA":" ","LANE":"１７５巷","ALLEY":" ","HOUSE_NO":"６６號","E_COORD97":172012.98999999999,"N_COORD97":2541192.9300000002,"ADDRESS":"淨修街１７５巷６６號","OBJECTID":387301},"geometry":{"x":172012.99000000115,"y":2541192.9299999997}},{"attributes":{"ID":387326,"DIS_CODE":0,"TOWNNAME":"仁德區","LI":"仁德里","LIN":"28鄰","STREET":"淨修街","SECT":" ","MAREA":" ","LANE":"１７５巷","ALLEY":" ","HOUSE_NO":"５４號","E_COORD97":172011.01000000001,"N_COORD97":2541223.1800000002,"ADDRESS":"淨修街１７５巷５４號","OBJECTID":387302},"geometry":{"x":172011.01000000071,"y":2541223.1800000016}},{"attributes":{"ID":387327,"DIS_CODE":0,"TOWNNAME":"仁德區","LI":"仁德里","LIN":"28鄰","STREET":"淨修街","SECT":" ","MAREA":" ","LANE":"１７５巷","ALLEY":" ","HOUSE_NO":"６０號","E_COORD97":172011.70999999999,"N_COORD97":2541208.1800000002,"ADDRESS":"淨修街１７５巷６０號","OBJECTID":387303},"geometry":{"x":172011.70999999996,"y":2541208.1799999997}},{"attributes":{"ID":387328,"DIS_CODE":0,"TOWNNAME":"仁德區","LI":"仁德里","LIN":"28鄰","STREET":"淨修街","SECT":" ","MAREA":" ","LANE":"１７５巷","ALLEY":" ","HOUSE_NO":"５０號","E_COORD97":172010.14000000001,"N_COORD97":2541233.6899999999,"ADDRESS":"淨修街１７５巷５０號","OBJECTID":387304},"geometry":{"x":172010.13999999966,"y":2541233.6900000013}},{"attributes":{"ID":387329,"DIS_CODE":0,"TOWNNAME":"仁德區","LI":"仁德里","LIN":"28鄰","STREET":"淨修街","SECT":" ","MAREA":" ","LANE":"１７５巷","ALLEY":" ","HOUSE_NO":"４６號","E_COORD97":172009.88,"N_COORD97":2541261.6899999999,"ADDRESS":"淨修街１７５巷４６號","OBJECTID":387305},"geometry":{"x":172009.88000000082,"y":2541261.6899999995}},{"attributes":{"ID":387330,"DIS_CODE":0,"TOWNNAME":"仁德區","LI":"成功里","LIN":"28鄰","STREET":"成功一街","SECT":" ","MAREA":" ","LANE":"２巷","ALLEY":" ","HOUSE_NO":"１５號","E_COORD97":170498.38,"N_COORD97":2540239.27,"ADDRESS":"成功一街２巷１５號","OBJECTID":387306},"geometry":{"x":170498.37999999989,"y":2540239.2700000014}},{"attributes":{"ID":387331,"DIS_CODE":0,"TOWNNAME":"仁德區","LI":"仁德里","LIN":"28鄰","STREET":"淨修街","SECT":" ","MAREA":" ","LANE":"１７５巷","ALLEY":" ","HOUSE_NO":"７０號","E_COORD97":172013.82999999999,"N_COORD97":2541183.4300000002,"ADDRESS":"淨修街１７５巷７０號","OBJECTID":387307},"geometry":{"x":172013.83000000101,"y":2541183.4300000034}},{"attributes":{"ID":387332,"DIS_CODE":0,"TOWNNAME":"仁德區","LI":"仁德里","LIN":"28鄰","STREET":"淨修街","SECT":" ","MAREA":" ","LANE":"１７５巷","ALLEY":" ","HOUSE_NO":"５８號","E_COORD97":172011.14999999999,"N_COORD97":2541212.9300000002,"ADDRESS":"淨修街１７５巷５８號","OBJECTID":387308},"geometry":{"x":172011.15000000037,"y":2541212.9299999997}},{"attributes":{"ID":387333,"DIS_CODE":0,"TOWNNAME":"仁德區","LI":"成功里","LIN":"28鄰","STREET":"成功一街","SECT":" ","MAREA":" ","LANE":"８巷","ALLEY":" ","HOUSE_NO":"１２號","E_COORD97":170498.85000000001,"N_COORD97":2540211.27,"ADDRESS":"成功一街８巷１２號","OBJECTID":387309},"geometry":{"x":170498.84999999963,"y":2540211.2700000033}},{"attributes":{"ID":387334,"DIS_CODE":0,"TOWNNAME":"仁德區","LI":"仁德里","LIN":"28鄰","STREET":"淨修街","SECT":" ","MAREA":" ","LANE":"１７５巷","ALLEY":" ","HOUSE_NO":"６８號","E_COORD97":172013.25,"N_COORD97":2541187.4300000002,"ADDRESS":"淨修街１７５巷６８號","OBJECTID":387310},"geometry":{"x":172013.25,"y":2541187.4300000016}},{"attributes":{"ID":387335,"DIS_CODE":0,"TOWNNAME":"仁德區","LI":"仁德里","LIN":"28鄰","STREET":"淨修街","SECT":" ","MAREA":" ","LANE":"１７５巷","ALLEY":" ","HOUSE_NO":"５２號","E_COORD97":172010.73000000001,"N_COORD97":2541228.1899999999,"ADDRESS":"淨修街１７５巷５２號","OBJECTID":387311},"geometry":{"x":172010.73000000045,"y":2541228.1899999995}},{"attributes":{"ID":387336,"DIS_CODE":0,"TOWNNAME":"仁德區","LI":"仁德里","LIN":"28鄰","STREET":"淨修街","SECT":" ","MAREA":" ","LANE":"１７５巷","ALLEY":" ","HOUSE_NO":"４４號","E_COORD97":172005.82999999999,"N_COORD97":2541261.6899999999,"ADDRESS":"淨修街１７５巷４４號","OBJECTID":387312},"geometry":{"x":172005.83000000007,"y":2541261.6899999995}},{"attributes":{"ID":387337,"DIS_CODE":0,"TOWNNAME":"仁德區","LI":"成功里","LIN":"28鄰","STREET":"成功一街","SECT":" ","MAREA":" ","LANE":"１６巷","ALLEY":" ","HOUSE_NO":"１３號","E_COORD97":170495.98000000001,"N_COORD97":2540176.0099999998,"ADDRESS":"成功一街１６巷１３號","OBJECTID":387313},"geometry":{"x":170495.98000000138,"y":2540176.0100000035}},{"attributes":{"ID":387338,"DIS_CODE":0,"TOWNNAME":"仁德區","LI":"仁德里","LIN":"28鄰","STREET":"淨修街","SECT":" ","MAREA":" ","LANE":"１７５巷","ALLEY":" ","HOUSE_NO":"４２號","E_COORD97":172001.82999999999,"N_COORD97":2541261.1899999999,"ADDRESS":"淨修街１７５巷４２號","OBJECTID":387314},"geometry":{"x":172001.83000000101,"y":2541261.1899999995}},{"attributes":{"ID":387339,"DIS_CODE":0,"TOWNNAME":"仁德區","LI":"仁德里","LIN":"28鄰","STREET":"淨修街","SECT":" ","MAREA":" ","LANE":"１７５巷","ALLEY":" ","HOUSE_NO":"６２號","E_COORD97":172012.07999999999,"N_COORD97":2541203.1800000002,"ADDRESS":"淨修街１７５巷６２號","OBJECTID":387315},"geometry":{"x":172012.08000000101,"y":2541203.1800000016}},{"attributes":{"ID":387340,"DIS_CODE":0,"TOWNNAME":"仁德區","LI":"仁德里","LIN":"28鄰","STREET":"淨修街","SECT":" ","MAREA":" ","LANE":"１７５巷","ALLEY":" ","HOUSE_NO":"４０號","E_COORD97":171998.23999999999,"N_COORD97":2541261.1899999999,"ADDRESS":"淨修街１７５巷４０號","OBJECTID":387316},"geometry":{"x":171998.24000000022,"y":2541261.1899999995}},{"attributes":{"ID":387341,"DIS_CODE":0,"TOWNNAME":"仁德區","LI":"成功里","LIN":"28鄰","STREET":"成功一街","SECT":" ","MAREA":" ","LANE":"１６巷","ALLEY":" ","HOUSE_NO":"４號","E_COORD97":170528.76000000001,"N_COORD97":2540180.5099999998,"ADDRESS":"成功一街１６巷４號","OBJECTID":387317},"geometry":{"x":170528.76000000164,"y":2540180.5100000016}},{"attributes":{"ID":387342,"DIS_CODE":0,"TOWNNAME":"仁德區","LI":"成功里","LIN":"28鄰","STREET":"成功一街","SECT":" ","MAREA":" ","LANE":"２巷","ALLEY":" ","HOUSE_NO":"２３號","E_COORD97":170465.54999999999,"N_COORD97":2540246.2599999998,"ADDRESS":"成功一街２巷２３號","OBJECTID":387318},"geometry":{"x":170465.54999999888,"y":2540246.2600000016}},{"attributes":{"ID":387343,"DIS_CODE":0,"TOWNNAME":"仁德區","LI":"成功里","LIN":"28鄰","STREET":"成功一街","SECT":" ","MAREA":" ","LANE":"２巷","ALLEY":" ","HOUSE_NO":"２７號","E_COORD97":170457.79000000001,"N_COORD97":2540248.5099999998,"ADDRESS":"成功一街２巷２７號","OBJECTID":387319},"geometry":{"x":170457.79000000097,"y":2540248.5100000016}},{"attributes":{"ID":387344,"DIS_CODE":0,"TOWNNAME":"仁德區","LI":"後壁里","LIN":"28鄰","STREET":"德洋路","SECT":" ","MAREA":" ","LANE":"３９巷","ALLEY":" ","HOUSE_NO":"１４號","E_COORD97":173099.20000000001,"N_COORD97":2538991.77,"ADDRESS":"德洋路３９巷１４號","OBJECTID":387320},"geometry":{"x":173099.20000000019,"y":2538991.7700000014}},{"attributes":{"ID":387345,"DIS_CODE":0,"TOWNNAME":"仁德區","LI":"後壁里","LIN":"28鄰","STREET":"德洋路","SECT":" ","MAREA":" ","LANE":"４１巷","ALLEY":" ","HOUSE_NO":"１２號","E_COORD97":173024.48999999999,"N_COORD97":2539025.7599999998,"ADDRESS":"德洋路４１巷１２號","OBJECTID":387321},"geometry":{"x":173024.49000000209,"y":2539025.7600000016}},{"attributes":{"ID":387346,"DIS_CODE":0,"TOWNNAME":"仁德區","LI":"後壁里","LIN":"28鄰","STREET":"德洋路","SECT":" ","MAREA":" ","LANE":"３９巷","ALLEY":" ","HOUSE_NO":"２６號","E_COORD97":173076.54000000001,"N_COORD97":2538973.52,"ADDRESS":"德洋路３９巷２６號","OBJECTID":387322},"geometry":{"x":173076.5400000019,"y":2538973.5200000014}},{"attributes":{"ID":387347,"DIS_CODE":0,"TOWNNAME":"仁德區","LI":"後壁里","LIN":"28鄰","STREET":"德洋路","SECT":" ","MAREA":" ","LANE":"３９巷","ALLEY":" ","HOUSE_NO":"１３號","E_COORD97":173056.92999999999,"N_COORD97":2538928.2599999998,"ADDRESS":"德洋路３９巷１３號","OBJECTID":387323},"geometry":{"x":173056.93000000063,"y":2538928.2599999998}},{"attributes":{"ID":387348,"DIS_CODE":0,"TOWNNAME":"仁德區","LI":"後壁里","LIN":"28鄰","STREET":"德洋路","SECT":" ","MAREA":" ","LANE":"２５巷","ALLEY":" ","HOUSE_NO":"３１號","E_COORD97":173104.23000000001,"N_COORD97":2538939.7599999998,"ADDRESS":"德洋路２５巷３１號","OBJECTID":387324},"geometry":{"x":173104.23000000045,"y":2538939.7599999998}},{"attributes":{"ID":387349,"DIS_CODE":0,"TOWNNAME":"仁德區","LI":"後壁里","LIN":"28鄰","STREET":"德洋路","SECT":" ","MAREA":" ","LANE":"２５巷","ALLEY":" ","HOUSE_NO":"２４號","E_COORD97":173095.78,"N_COORD97":2538949.02,"ADDRESS":"德洋路２５巷２４號","OBJECTID":387325},"geometry":{"x":173095.78000000119,"y":2538949.0200000014}},{"attributes":{"ID":387350,"DIS_CODE":0,"TOWNNAME":"仁德區","LI":"後壁里","LIN":"28鄰","STREET":"德洋路","SECT":" ","MAREA":" ","LANE":"３９巷","ALLEY":" ","HOUSE_NO":"２２號","E_COORD97":173084.85999999999,"N_COORD97":2538973.27,"ADDRESS":"德洋路３９巷２２號","OBJECTID":387326},"geometry":{"x":173084.8600000022,"y":2538973.2699999996}},{"attributes":{"ID":387351,"DIS_CODE":0,"TOWNNAME":"仁德區","LI":"後壁里","LIN":"28鄰","STREET":"德洋路","SECT":" ","MAREA":" ","LANE":"４１巷","ALLEY":" ","HOUSE_NO":"７６號","E_COORD97":172744.38,"N_COORD97":2538947.02,"ADDRESS":"德洋路４１巷７６號","OBJECTID":387327},"geometry":{"x":172744.38000000082,"y":2538947.0199999996}},{"attributes":{"ID":387352,"DIS_CODE":0,"TOWNNAME":"仁德區","LI":"後壁里","LIN":"28鄰","STREET":"德洋路","SECT":" ","MAREA":" ","LANE":"２５巷","ALLEY":" ","HOUSE_NO":"２８號","E_COORD97":173095.45999999999,"N_COORD97":2538940.0099999998,"ADDRESS":"德洋路２５巷２８號","OBJECTID":387328},"geometry":{"x":173095.45999999996,"y":2538940.0100000016}},{"attributes":{"ID":387353,"DIS_CODE":0,"TOWNNAME":"安南區","LI":"安順里","LIN":"13鄰","STREET":"育安二街","SECT":" ","MAREA":" ","LANE":" ","ALLEY":" ","HOUSE_NO":"１３７號","E_COORD97":169653.73999999999,"N_COORD97":2550056.0699999998,"ADDRESS":"育安二街１３７號","OBJECTID":387329},"geometry":{"x":169653.74000000022,"y":2550056.0700000022}},{"attributes":{"ID":387354,"DIS_CODE":0,"TOWNNAME":"仁德區","LI":"後壁里","LIN":"28鄰","STREET":"德洋路","SECT":" ","MAREA":" ","LANE":"２５巷","ALLEY":" ","HOUSE_NO":"２５號","E_COORD97":173114.54000000001,"N_COORD97":2538958.77,"ADDRESS":"德洋路２５巷２５號","OBJECTID":387330},"geometry":{"x":173114.54000000097,"y":2538958.7699999996}},{"attributes":{"ID":387355,"DIS_CODE":0,"TOWNNAME":"東區","LI":"富裕里","LIN":"10鄰","STREET":"東門路","SECT":"二段","MAREA":" ","LANE":"３０１巷","ALLEY":" ","HOUSE_NO":"５１號","E_COORD97":170853.44,"N_COORD97":2542735.3100000001,"ADDRESS":"東門路二段３０１巷５１號","OBJECTID":387331},"geometry":{"x":170853.43999999948,"y":2542735.3100000024}},{"attributes":{"ID":387356,"DIS_CODE":0,"TOWNNAME":"新市區","LI":"新和里","LIN":"28鄰","STREET":"永福街","SECT":" ","MAREA":" ","LANE":"１６巷","ALLEY":" ","HOUSE_NO":"２４號","E_COORD97":177796.23000000001,"N_COORD97":2552745.25,"ADDRESS":"永福街１６巷２４號","OBJECTID":387332},"geometry":{"x":177796.23000000045,"y":2552745.25}},{"attributes":{"ID":387357,"DIS_CODE":0,"TOWNNAME":"新市區","LI":"新和里","LIN":"28鄰","STREET":"永福街","SECT":" ","MAREA":" ","LANE":"１６巷","ALLEY":" ","HOUSE_NO":"２８號","E_COORD97":177798.76000000001,"N_COORD97":2552754,"ADDRESS":"永福街１６巷２８號","OBJECTID":387333},"geometry":{"x":177798.75999999978,"y":2552754}},{"attributes":{"ID":387358,"DIS_CODE":0,"TOWNNAME":"新市區","LI":"新和里","LIN":"28鄰","STREET":"永福街","SECT":" ","MAREA":" ","LANE":"１６巷","ALLEY":" ","HOUSE_NO":"２２號","E_COORD97":177795.12,"N_COORD97":2552740.75,"ADDRESS":"永福街１６巷２２號","OBJECTID":387334},"geometry":{"x":177795.12000000011,"y":2552740.7500000019}},{"attributes":{"ID":387359,"DIS_CODE":0,"TOWNNAME":"東區","LI":"大同里","LIN":"28鄰","STREET":"大同路","SECT":"一段","MAREA":" ","LANE":"２７５巷","ALLEY":" ","HOUSE_NO":"１００號","E_COORD97":169345.78,"N_COORD97":2542534.9399999999,"ADDRESS":"大同路一段２７５巷１００號","OBJECTID":387335},"geometry":{"x":169345.78000000212,"y":2542534.9399999995}},{"attributes":{"ID":387360,"DIS_CODE":0,"TOWNNAME":"東區","LI":"大同里","LIN":"28鄰","STREET":"大同路","SECT":"一段","MAREA":" ","LANE":"２７５巷","ALLEY":" ","HOUSE_NO":"１１２號","E_COORD97":169342.64999999999,"N_COORD97":2542537.52,"ADDRESS":"大同路一段２７５巷１１２號","OBJECTID":387336},"geometry":{"x":169342.65000000037,"y":2542537.5199999996}},{"attributes":{"ID":387361,"DIS_CODE":0,"TOWNNAME":"東區","LI":"大同里","LIN":"28鄰","STREET":"大同路","SECT":"一段","MAREA":" ","LANE":"２７５巷","ALLEY":" ","HOUSE_NO":"１１４號","E_COORD97":169341.16,"N_COORD97":2542540.7799999998,"ADDRESS":"大同路一段２７５巷１１４號","OBJECTID":387337},"geometry":{"x":169341.16000000015,"y":2542540.7800000012}},{"attributes":{"ID":387362,"DIS_CODE":0,"TOWNNAME":"東區","LI":"大同里","LIN":"28鄰","STREET":"大同路","SECT":"一段","MAREA":" ","LANE":"２７５巷","ALLEY":" ","HOUSE_NO":"１１６號","E_COORD97":169338.44,"N_COORD97":2542544.3100000001,"ADDRESS":"大同路一段２７５巷１１６號","OBJECTID":387338},"geometry":{"x":169338.44000000134,"y":2542544.3099999987}},{"attributes":{"ID":387363,"DIS_CODE":0,"TOWNNAME":"東區","LI":"大同里","LIN":"28鄰","STREET":"大同路","SECT":"一段","MAREA":" ","LANE":"２７５巷","ALLEY":" ","HOUSE_NO":"１１８號","E_COORD97":169335.85999999999,"N_COORD97":2542547.5600000001,"ADDRESS":"大同路一段２７５巷１１８號","OBJECTID":387339},"geometry":{"x":169335.86000000127,"y":2542547.5600000024}},{"attributes":{"ID":387364,"DIS_CODE":0,"TOWNNAME":"東區","LI":"大同里","LIN":"28鄰","STREET":"大同路","SECT":"一段","MAREA":" ","LANE":"２７５巷","ALLEY":" ","HOUSE_NO":"１２０號","E_COORD97":169333.28,"N_COORD97":2542550.9700000002,"ADDRESS":"大同路一段２７５巷１２０號","OBJECTID":387340},"geometry":{"x":169333.28000000026,"y":2542550.9700000025}},{"attributes":{"ID":387365,"DIS_CODE":0,"TOWNNAME":"東區","LI":"大同里","LIN":"28鄰","STREET":"大同路","SECT":"一段","MAREA":" ","LANE":"２７５巷","ALLEY":" ","HOUSE_NO":"１２２號","E_COORD97":169330.01999999999,"N_COORD97":2542554.23,"ADDRESS":"大同路一段２７５巷１２２號","OBJECTID":387341},"geometry":{"x":169330.02000000048,"y":2542554.2300000004}},{"attributes":{"ID":387366,"DIS_CODE":0,"TOWNNAME":"東區","LI":"大同里","LIN":"28鄰","STREET":"大同路","SECT":"一段","MAREA":" ","LANE":"２７５巷","ALLEY":" ","HOUSE_NO":"２０號","E_COORD97":169221.06,"N_COORD97":2542551.1099999999,"ADDRESS":"大同路一段２７５巷２０號","OBJECTID":387342},"geometry":{"x":169221.06000000145,"y":2542551.1099999994}},{"attributes":{"ID":387367,"DIS_CODE":0,"TOWNNAME":"東區","LI":"大同里","LIN":"28鄰","STREET":"大同路","SECT":"一段","MAREA":" ","LANE":"２７５巷","ALLEY":" ","HOUSE_NO":"２６號","E_COORD97":169243.01000000001,"N_COORD97":2542552.4199999999,"ADDRESS":"大同路一段２７５巷２６號","OBJECTID":387343},"geometry":{"x":169243.00999999978,"y":2542552.4199999999}},{"attributes":{"ID":387368,"DIS_CODE":0,"TOWNNAME":"中西區","LI":"西賢里","LIN":"28鄰","STREET":"西賢六街","SECT":" ","MAREA":" ","LANE":"２０巷","ALLEY":" ","HOUSE_NO":"１１號","E_COORD97":165111.98999999999,"N_COORD97":2544644.54,"ADDRESS":"西賢六街２０巷１１號","OBJECTID":387344},"geometry":{"x":165111.99000000115,"y":2544644.540000001}},{"attributes":{"ID":387369,"DIS_CODE":0,"TOWNNAME":"中西區","LI":"西賢里","LIN":"28鄰","STREET":"西賢六街","SECT":" ","MAREA":" ","LANE":"２０巷","ALLEY":" ","HOUSE_NO":"１３號","E_COORD97":165116.51000000001,"N_COORD97":2544643.1499999999,"ADDRESS":"西賢六街２０巷１３號","OBJECTID":387345},"geometry":{"x":165116.51000000071,"y":2544643.1500000004}},{"attributes":{"ID":387370,"DIS_CODE":0,"TOWNNAME":"中西區","LI":"西賢里","LIN":"28鄰","STREET":"西賢六街","SECT":" ","MAREA":" ","LANE":"２０巷","ALLEY":" ","HOUSE_NO":"１５號","E_COORD97":165120.51000000001,"N_COORD97":2544642.2799999998,"ADDRESS":"西賢六街２０巷１５號","OBJECTID":387346},"geometry":{"x":165120.50999999978,"y":2544642.2800000031}},{"attributes":{"ID":387371,"DIS_CODE":0,"TOWNNAME":"中西區","LI":"西賢里","LIN":"28鄰","STREET":"西賢六街","SECT":" ","MAREA":" ","LANE":"２０巷","ALLEY":" ","HOUSE_NO":"１７號","E_COORD97":165125.03,"N_COORD97":2544640.54,"ADDRESS":"西賢六街２０巷１７號","OBJECTID":387347},"geometry":{"x":165125.03000000119,"y":2544640.540000001}},{"attributes":{"ID":387372,"DIS_CODE":0,"TOWNNAME":"中西區","LI":"西賢里","LIN":"28鄰","STREET":"西賢六街","SECT":" ","MAREA":" ","LANE":"２０巷","ALLEY":" ","HOUSE_NO":"１９號","E_COORD97":165128.69,"N_COORD97":2544641.2400000002,"ADDRESS":"西賢六街２０巷１９號","OBJECTID":387348},"geometry":{"x":165128.69000000041,"y":2544641.2400000021}},{"attributes":{"ID":387373,"DIS_CODE":0,"TOWNNAME":"中西區","LI":"西賢里","LIN":"28鄰","STREET":"西賢六街","SECT":" ","MAREA":" ","LANE":"２０巷","ALLEY":" ","HOUSE_NO":"１號","E_COORD97":165091.64000000001,"N_COORD97":2544649.23,"ADDRESS":"西賢六街２０巷１號","OBJECTID":387349},"geometry":{"x":165091.6400000006,"y":2544649.2300000004}},{"attributes":{"ID":387374,"DIS_CODE":0,"TOWNNAME":"中西區","LI":"西賢里","LIN":"28鄰","STREET":"西賢六街","SECT":" ","MAREA":" ","LANE":"２０巷","ALLEY":" ","HOUSE_NO":"２１號","E_COORD97":165116.87,"N_COORD97":2544658.8599999999,"ADDRESS":"西賢六街２０巷２１號","OBJECTID":387350},"geometry":{"x":165116.87000000011,"y":2544658.8600000013}},{"attributes":{"ID":387375,"DIS_CODE":0,"TOWNNAME":"中西區","LI":"西賢里","LIN":"28鄰","STREET":"西賢六街","SECT":" ","MAREA":" ","LANE":"２０巷","ALLEY":" ","HOUSE_NO":"２３號","E_COORD97":165110.95000000001,"N_COORD97":2544658.6899999999,"ADDRESS":"西賢六街２０巷２３號","OBJECTID":387351},"geometry":{"x":165110.95000000019,"y":2544658.6899999995}},{"attributes":{"ID":387376,"DIS_CODE":0,"TOWNNAME":"中西區","LI":"西賢里","LIN":"28鄰","STREET":"西賢六街","SECT":" ","MAREA":" ","LANE":"２０巷","ALLEY":" ","HOUSE_NO":"２５號","E_COORD97":165103.64999999999,"N_COORD97":2544661.2999999998,"ADDRESS":"西賢六街２０巷２５號","OBJECTID":387352},"geometry":{"x":165103.65000000224,"y":2544661.3000000026}},{"attributes":{"ID":387377,"DIS_CODE":0,"TOWNNAME":"中西區","LI":"西賢里","LIN":"28鄰","STREET":"西賢六街","SECT":" ","MAREA":" ","LANE":"２０巷","ALLEY":" ","HOUSE_NO":"２７號","E_COORD97":165096.51999999999,"N_COORD97":2544662.3399999999,"ADDRESS":"西賢六街２０巷２７號","OBJECTID":387353},"geometry":{"x":165096.51999999955,"y":2544662.339999998}},{"attributes":{"ID":387378,"DIS_CODE":0,"TOWNNAME":"中西區","LI":"西賢里","LIN":"28鄰","STREET":"西賢六街","SECT":" ","MAREA":" ","LANE":"２０巷","ALLEY":" ","HOUSE_NO":"２９號","E_COORD97":165100.69,"N_COORD97":2544683.5299999998,"ADDRESS":"西賢六街２０巷２９號","OBJECTID":387354},"geometry":{"x":165100.69000000134,"y":2544683.5299999993}},{"attributes":{"ID":387379,"DIS_CODE":0,"TOWNNAME":"中西區","LI":"西賢里","LIN":"28鄰","STREET":"西賢六街","SECT":" ","MAREA":" ","LANE":"２０巷","ALLEY":" ","HOUSE_NO":"３１號","E_COORD97":165107.29999999999,"N_COORD97":2544680.5800000001,"ADDRESS":"西賢六街２０巷３１號","OBJECTID":387355},"geometry":{"x":165107.30000000168,"y":2544680.5800000001}},{"attributes":{"ID":387380,"DIS_CODE":0,"TOWNNAME":"中西區","LI":"西賢里","LIN":"28鄰","STREET":"西賢六街","SECT":" ","MAREA":" ","LANE":"２０巷","ALLEY":" ","HOUSE_NO":"３３號","E_COORD97":165112.69,"N_COORD97":2544680.0600000001,"ADDRESS":"西賢六街２０巷３３號","OBJECTID":387356},"geometry":{"x":165112.69000000134,"y":2544680.0600000024}},{"attributes":{"ID":387381,"DIS_CODE":0,"TOWNNAME":"中西區","LI":"西賢里","LIN":"28鄰","STREET":"西賢六街","SECT":" ","MAREA":" ","LANE":"２０巷","ALLEY":" ","HOUSE_NO":"３５號","E_COORD97":165119.82000000001,"N_COORD97":2544678.4900000002,"ADDRESS":"西賢六街２０巷３５號","OBJECTID":387357},"geometry":{"x":165119.82000000123,"y":2544678.4900000002}},{"attributes":{"ID":387382,"DIS_CODE":0,"TOWNNAME":"中西區","LI":"西賢里","LIN":"28鄰","STREET":"西賢六街","SECT":" ","MAREA":" ","LANE":"２０巷","ALLEY":" ","HOUSE_NO":"３７號","E_COORD97":165131.57000000001,"N_COORD97":2544670.2999999998,"ADDRESS":"西賢六街２０巷３７號","OBJECTID":387358},"geometry":{"x":165131.57000000123,"y":2544670.2999999989}},{"attributes":{"ID":387383,"DIS_CODE":0,"TOWNNAME":"中西區","LI":"西賢里","LIN":"28鄰","STREET":"西賢六街","SECT":" ","MAREA":" ","LANE":"２０巷","ALLEY":" ","HOUSE_NO":"３９號","E_COORD97":165131.57000000001,"N_COORD97":2544673.4500000002,"ADDRESS":"西賢六街２０巷３９號","OBJECTID":387359},"geometry":{"x":165131.57000000123,"y":2544673.4499999993}},{"attributes":{"ID":387384,"DIS_CODE":0,"TOWNNAME":"中西區","LI":"西賢里","LIN":"28鄰","STREET":"西賢六街","SECT":" ","MAREA":" ","LANE":"２０巷","ALLEY":" ","HOUSE_NO":"３號","E_COORD97":165095.29000000001,"N_COORD97":2544648.1899999999,"ADDRESS":"西賢六街２０巷３號","OBJECTID":387360},"geometry":{"x":165095.29000000004,"y":2544648.1899999995}},{"attributes":{"ID":387385,"DIS_CODE":0,"TOWNNAME":"中西區","LI":"西賢里","LIN":"28鄰","STREET":"西賢六街","SECT":" ","MAREA":" ","LANE":"２０巷","ALLEY":" ","HOUSE_NO":"４１號","E_COORD97":165132.28,"N_COORD97":2544677.8900000001,"ADDRESS":"西賢六街２０巷４１號","OBJECTID":387361},"geometry":{"x":165132.28000000119,"y":2544677.8900000025}},{"attributes":{"ID":387386,"DIS_CODE":0,"TOWNNAME":"中西區","LI":"西賢里","LIN":"28鄰","STREET":"西賢六街","SECT":" ","MAREA":" ","LANE":"２０巷","ALLEY":" ","HOUSE_NO":"４３號","E_COORD97":165133.57000000001,"N_COORD97":2544682.7599999998,"ADDRESS":"西賢六街２０巷４３號","OBJECTID":387362},"geometry":{"x":165133.57000000123,"y":2544682.7599999998}},{"attributes":{"ID":387387,"DIS_CODE":0,"TOWNNAME":"中西區","LI":"西賢里","LIN":"28鄰","STREET":"西賢六街","SECT":" ","MAREA":" ","LANE":"２０巷","ALLEY":" ","HOUSE_NO":"４５號","E_COORD97":165132.85999999999,"N_COORD97":2544687.2000000002,"ADDRESS":"西賢六街２０巷４５號","OBJECTID":387363},"geometry":{"x":165132.8600000022,"y":2544687.2000000011}},{"attributes":{"ID":387388,"DIS_CODE":0,"TOWNNAME":"中西區","LI":"西賢里","LIN":"28鄰","STREET":"西賢六街","SECT":" ","MAREA":" ","LANE":"２０巷","ALLEY":" ","HOUSE_NO":"４７號","E_COORD97":165135.29999999999,"N_COORD97":2544691.79,"ADDRESS":"西賢六街２０巷４７號","OBJECTID":387364},"geometry":{"x":165135.29999999981,"y":2544691.7899999991}},{"attributes":{"ID":387389,"DIS_CODE":0,"TOWNNAME":"中西區","LI":"西賢里","LIN":"28鄰","STREET":"西賢六街","SECT":" ","MAREA":" ","LANE":"２０巷","ALLEY":" ","HOUSE_NO":"４９號","E_COORD97":165123.95000000001,"N_COORD97":2544691.0800000001,"ADDRESS":"西賢六街２０巷４９號","OBJECTID":387365},"geometry":{"x":165123.95000000112,"y":2544691.0800000001}},{"attributes":{"ID":387390,"DIS_CODE":0,"TOWNNAME":"中西區","LI":"西賢里","LIN":"28鄰","STREET":"西賢六街","SECT":" ","MAREA":" ","LANE":"２０巷","ALLEY":" ","HOUSE_NO":"５１號","E_COORD97":165117.34,"N_COORD97":2544693.0800000001,"ADDRESS":"西賢六街２０巷５１號","OBJECTID":387366},"geometry":{"x":165117.34000000078,"y":2544693.0800000019}},{"attributes":{"ID":387391,"DIS_CODE":0,"TOWNNAME":"中西區","LI":"西賢里","LIN":"28鄰","STREET":"西賢六街","SECT":" ","MAREA":" ","LANE":"２０巷","ALLEY":" ","HOUSE_NO":"５３號","E_COORD97":165111.48000000001,"N_COORD97":2544694.4500000002,"ADDRESS":"西賢六街２０巷５３號","OBJECTID":387367},"geometry":{"x":165111.48000000045,"y":2544694.4499999993}},{"attributes":{"ID":387392,"DIS_CODE":0,"TOWNNAME":"中西區","LI":"西賢里","LIN":"28鄰","STREET":"西賢六街","SECT":" ","MAREA":" ","LANE":"２０巷","ALLEY":" ","HOUSE_NO":"５５號","E_COORD97":165104,"N_COORD97":2544695.6899999999,"ADDRESS":"西賢六街２０巷５５號","OBJECTID":387368},"geometry":{"x":165104,"y":2544695.6899999995}},{"attributes":{"ID":387393,"DIS_CODE":0,"TOWNNAME":"中西區","LI":"西賢里","LIN":"28鄰","STREET":"西賢六街","SECT":" ","MAREA":" ","LANE":"２０巷","ALLEY":" ","HOUSE_NO":"５號","E_COORD97":165099.45999999999,"N_COORD97":2544646.7999999998,"ADDRESS":"西賢六街２０巷５號","OBJECTID":387369},"geometry":{"x":165099.46000000183,"y":2544646.8000000045}},{"attributes":{"ID":387394,"DIS_CODE":0,"TOWNNAME":"中西區","LI":"西賢里","LIN":"28鄰","STREET":"西賢六街","SECT":" ","MAREA":" ","LANE":"２０巷","ALLEY":" ","HOUSE_NO":"７號","E_COORD97":165104.16,"N_COORD97":2544646.2799999998,"ADDRESS":"西賢六街２０巷７號","OBJECTID":387370},"geometry":{"x":165104.16000000108,"y":2544646.2800000012}},{"attributes":{"ID":387395,"DIS_CODE":0,"TOWNNAME":"中西區","LI":"西賢里","LIN":"28鄰","STREET":"西賢六街","SECT":" ","MAREA":" ","LANE":"２０巷","ALLEY":" ","HOUSE_NO":"９號","E_COORD97":165107.81,"N_COORD97":2544644.8900000001,"ADDRESS":"西賢六街２０巷９號","OBJECTID":387371},"geometry":{"x":165107.80999999959,"y":2544644.8900000006}},{"attributes":{"ID":387396,"DIS_CODE":0,"TOWNNAME":"中西區","LI":"西賢里","LIN":"28鄰","STREET":"西賢五街","SECT":" ","MAREA":" ","LANE":"２３巷","ALLEY":" ","HOUSE_NO":"１０號","E_COORD97":165165.95000000001,"N_COORD97":2544632.5699999998,"ADDRESS":"西賢五街２３巷１０號","OBJECTID":387372},"geometry":{"x":165165.95000000205,"y":2544632.5700000022}},{"attributes":{"ID":387397,"DIS_CODE":0,"TOWNNAME":"中西區","LI":"西賢里","LIN":"28鄰","STREET":"西賢五街","SECT":" ","MAREA":" ","LANE":"２３巷","ALLEY":" ","HOUSE_NO":"１２號","E_COORD97":165162.54000000001,"N_COORD97":2544633.0800000001,"ADDRESS":"西賢五街２３巷１２號","OBJECTID":387373},"geometry":{"x":165162.54000000097,"y":2544633.0800000001}},{"attributes":{"ID":387398,"DIS_CODE":0,"TOWNNAME":"中西區","LI":"西賢里","LIN":"28鄰","STREET":"西賢五街","SECT":" ","MAREA":" ","LANE":"２３巷","ALLEY":" ","HOUSE_NO":"１６號","E_COORD97":165157.78,"N_COORD97":2544634.4399999999,"ADDRESS":"西賢五街２３巷１６號","OBJECTID":387374},"geometry":{"x":165157.78000000119,"y":2544634.4400000032}},{"attributes":{"ID":387399,"DIS_CODE":0,"TOWNNAME":"中西區","LI":"西賢里","LIN":"28鄰","STREET":"西賢五街","SECT":" ","MAREA":" ","LANE":"２３巷","ALLEY":" ","HOUSE_NO":"１８號","E_COORD97":165154.38,"N_COORD97":2544634.7799999998,"ADDRESS":"西賢五街２３巷１８號","OBJECTID":387375},"geometry":{"x":165154.38000000082,"y":2544634.7799999993}},{"attributes":{"ID":387400,"DIS_CODE":0,"TOWNNAME":"中西區","LI":"西賢里","LIN":"28鄰","STREET":"西賢五街","SECT":" ","MAREA":" ","LANE":"２３巷","ALLEY":" ","HOUSE_NO":"２０號","E_COORD97":165149.44,"N_COORD97":2544635.29,"ADDRESS":"西賢五街２３巷２０號","OBJECTID":387376},"geometry":{"x":165149.44000000134,"y":2544635.290000001}},{"attributes":{"ID":387401,"DIS_CODE":0,"TOWNNAME":"中西區","LI":"西賢里","LIN":"28鄰","STREET":"西賢五街","SECT":" ","MAREA":" ","LANE":"２３巷","ALLEY":" ","HOUSE_NO":"２２號","E_COORD97":165145.35999999999,"N_COORD97":2544636.48,"ADDRESS":"西賢五街２３巷２２號","OBJECTID":387377},"geometry":{"x":165145.36000000127,"y":2544636.4800000023}},{"attributes":{"ID":387402,"DIS_CODE":0,"TOWNNAME":"中西區","LI":"西賢里","LIN":"28鄰","STREET":"西賢五街","SECT":" ","MAREA":" ","LANE":"２３巷","ALLEY":" ","HOUSE_NO":"２６號","E_COORD97":165142.13,"N_COORD97":2544638.1800000002,"ADDRESS":"西賢五街２３巷２６號","OBJECTID":387378},"geometry":{"x":165142.12999999989,"y":2544638.1799999997}},{"attributes":{"ID":387403,"DIS_CODE":0,"TOWNNAME":"中西區","LI":"西賢里","LIN":"28鄰","STREET":"西賢五街","SECT":" ","MAREA":" ","LANE":"２３巷","ALLEY":" ","HOUSE_NO":"２８號","E_COORD97":165159.12,"N_COORD97":2544646.5899999999,"ADDRESS":"西賢五街２３巷２８號","OBJECTID":387379},"geometry":{"x":165159.12000000011,"y":2544646.5899999999}},{"attributes":{"ID":387404,"DIS_CODE":0,"TOWNNAME":"中西區","LI":"西賢里","LIN":"28鄰","STREET":"西賢五街","SECT":" ","MAREA":" ","LANE":"２３巷","ALLEY":" ","HOUSE_NO":"２號","E_COORD97":165178.19,"N_COORD97":2544629.6800000002,"ADDRESS":"西賢五街２３巷２號","OBJECTID":387380},"geometry":{"x":165178.19000000227,"y":2544629.6800000034}},{"attributes":{"ID":387405,"DIS_CODE":0,"TOWNNAME":"中西區","LI":"西賢里","LIN":"28鄰","STREET":"西賢五街","SECT":" ","MAREA":" ","LANE":"２３巷","ALLEY":" ","HOUSE_NO":"３０號","E_COORD97":165166.09,"N_COORD97":2544648.46,"ADDRESS":"西賢五街２３巷３０號","OBJECTID":387381},"geometry":{"x":165166.08999999985,"y":2544648.4600000009}},{"attributes":{"ID":387406,"DIS_CODE":0,"TOWNNAME":"中西區","LI":"西賢里","LIN":"28鄰","STREET":"西賢五街","SECT":" ","MAREA":" ","LANE":"２３巷","ALLEY":" ","HOUSE_NO":"３６號","E_COORD97":165178.51000000001,"N_COORD97":2544646.0800000001,"ADDRESS":"西賢五街２３巷３６號","OBJECTID":387382},"geometry":{"x":165178.50999999885,"y":2544646.0800000001}},{"attributes":{"ID":387407,"DIS_CODE":0,"TOWNNAME":"中西區","LI":"西賢里","LIN":"28鄰","STREET":"西賢五街","SECT":" ","MAREA":" ","LANE":"２３巷","ALLEY":" ","HOUSE_NO":"３８號","E_COORD97":165182.76000000001,"N_COORD97":2544666.0299999998,"ADDRESS":"西賢五街２３巷３８號","OBJECTID":387383},"geometry":{"x":165182.76000000071,"y":2544666.0299999993}},{"attributes":{"ID":387408,"DIS_CODE":0,"TOWNNAME":"中西區","LI":"西賢里","LIN":"28鄰","STREET":"西賢五街","SECT":" ","MAREA":" ","LANE":"２３巷","ALLEY":" ","HOUSE_NO":"４０號","E_COORD97":165175.78,"N_COORD97":2544663.1400000001,"ADDRESS":"西賢五街２３巷４０號","OBJECTID":387384},"geometry":{"x":165175.78000000119,"y":2544663.1400000006}},{"attributes":{"ID":387409,"DIS_CODE":0,"TOWNNAME":"中西區","LI":"西賢里","LIN":"28鄰","STREET":"西賢五街","SECT":" ","MAREA":" ","LANE":"２３巷","ALLEY":" ","HOUSE_NO":"４２號","E_COORD97":165169.64999999999,"N_COORD97":2544668.0699999998,"ADDRESS":"西賢五街２３巷４２號","OBJECTID":387385},"geometry":{"x":165169.65000000037,"y":2544668.0699999984}},{"attributes":{"ID":387410,"DIS_CODE":0,"TOWNNAME":"中西區","LI":"西賢里","LIN":"28鄰","STREET":"西賢五街","SECT":" ","MAREA":" ","LANE":"２３巷","ALLEY":" ","HOUSE_NO":"４６號","E_COORD97":165163.01999999999,"N_COORD97":2544667.0499999998,"ADDRESS":"西賢五街２３巷４６號","OBJECTID":387386},"geometry":{"x":165163.02000000142,"y":2544667.0500000026}},{"attributes":{"ID":387411,"DIS_CODE":0,"TOWNNAME":"中西區","LI":"西賢里","LIN":"28鄰","STREET":"西賢五街","SECT":" ","MAREA":" ","LANE":"２３巷","ALLEY":" ","HOUSE_NO":"４８號","E_COORD97":165149.92000000001,"N_COORD97":2544665.3500000001,"ADDRESS":"西賢五街２３巷４８號","OBJECTID":387387},"geometry":{"x":165149.91999999993,"y":2544665.3499999996}},{"attributes":{"ID":387412,"DIS_CODE":0,"TOWNNAME":"中西區","LI":"西賢里","LIN":"28鄰","STREET":"西賢五街","SECT":" ","MAREA":" ","LANE":"２３巷","ALLEY":" ","HOUSE_NO":"８號","E_COORD97":165170.20000000001,"N_COORD97":2544631.3799999999,"ADDRESS":"西賢五街２３巷８號","OBJECTID":387388},"geometry":{"x":165170.20000000019,"y":2544631.3800000008}},{"attributes":{"ID":387413,"DIS_CODE":0,"TOWNNAME":"永康區","LI":"西灣里","LIN":"28鄰","STREET":"公園路","SECT":" ","MAREA":" ","LANE":"７巷","ALLEY":" ","HOUSE_NO":"２３號","E_COORD97":174488.20000000001,"N_COORD97":2545968.7400000002,"ADDRESS":"公園路７巷２３號","OBJECTID":387389},"geometry":{"x":174488.20000000112,"y":2545968.7399999984}},{"attributes":{"ID":387414,"DIS_CODE":0,"TOWNNAME":"東區","LI":"大同里","LIN":"28鄰","STREET":"大同路","SECT":"一段","MAREA":" ","LANE":"２７５巷","ALLEY":" ","HOUSE_NO":"３６號","E_COORD97":169259.63,"N_COORD97":2542543.8799999999,"ADDRESS":"大同路一段２７５巷３６號","OBJECTID":387390},"geometry":{"x":169259.62999999989,"y":2542543.8800000008}},{"attributes":{"ID":387415,"DIS_CODE":0,"TOWNNAME":"東區","LI":"大同里","LIN":"28鄰","STREET":"大同路","SECT":"一段","MAREA":" ","LANE":"２７５巷","ALLEY":" ","HOUSE_NO":"３８號","E_COORD97":169260.10999999999,"N_COORD97":2542548.8599999999,"ADDRESS":"大同路一段２７５巷３８號","OBJECTID":387391},"geometry":{"x":169260.11000000034,"y":2542548.8599999994}},{"attributes":{"ID":387416,"DIS_CODE":0,"TOWNNAME":"東區","LI":"大同里","LIN":"28鄰","STREET":"大同路","SECT":"一段","MAREA":" ","LANE":"２７５巷","ALLEY":" ","HOUSE_NO":"４０號","E_COORD97":169260.34,"N_COORD97":2542553.8500000001,"ADDRESS":"大同路一段２７５巷４０號","OBJECTID":387392},"geometry":{"x":169260.34000000078,"y":2542553.8500000015}},{"attributes":{"ID":387417,"DIS_CODE":0,"TOWNNAME":"東區","LI":"大同里","LIN":"28鄰","STREET":"大同路","SECT":"一段","MAREA":" ","LANE":"２７５巷","ALLEY":" ","HOUSE_NO":"４２號","E_COORD97":169260.82000000001,"N_COORD97":2542559.54,"ADDRESS":"大同路一段２７５巷４２號","OBJECTID":387393},"geometry":{"x":169260.82000000216,"y":2542559.540000001}},{"attributes":{"ID":387418,"DIS_CODE":0,"TOWNNAME":"東區","LI":"大同里","LIN":"28鄰","STREET":"大同路","SECT":"一段","MAREA":" ","LANE":"２７５巷","ALLEY":" ","HOUSE_NO":"７２號","E_COORD97":169320.10999999999,"N_COORD97":2542503.7200000002,"ADDRESS":"大同路一段２７５巷７２號","OBJECTID":387394},"geometry":{"x":169320.11000000127,"y":2542503.7200000007}},{"attributes":{"ID":387419,"DIS_CODE":0,"TOWNNAME":"東區","LI":"大同里","LIN":"28鄰","STREET":"大同路","SECT":"一段","MAREA":" ","LANE":"２７５巷","ALLEY":" ","HOUSE_NO":"７４號","E_COORD97":169329.20999999999,"N_COORD97":2542508.8799999999,"ADDRESS":"大同路一段２７５巷７４號","OBJECTID":387395},"geometry":{"x":169329.21000000089,"y":2542508.8800000008}},{"attributes":{"ID":387420,"DIS_CODE":0,"TOWNNAME":"東區","LI":"大同里","LIN":"28鄰","STREET":"大同路","SECT":"一段","MAREA":" ","LANE":"２７５巷","ALLEY":" ","HOUSE_NO":"７６號","E_COORD97":169332.06,"N_COORD97":2542511.3199999998,"ADDRESS":"大同路一段２７５巷７６號","OBJECTID":387396},"geometry":{"x":169332.06000000052,"y":2542511.3200000022}},{"attributes":{"ID":387421,"DIS_CODE":0,"TOWNNAME":"東區","LI":"大同里","LIN":"28鄰","STREET":"大同路","SECT":"一段","MAREA":" ","LANE":"２７５巷","ALLEY":" ","HOUSE_NO":"７８號","E_COORD97":169338.31,"N_COORD97":2542519.3300000001,"ADDRESS":"大同路一段２７５巷７８號","OBJECTID":387397},"geometry":{"x":169338.31000000052,"y":2542519.3300000001}},{"attributes":{"ID":387422,"DIS_CODE":0,"TOWNNAME":"東區","LI":"大同里","LIN":"28鄰","STREET":"大同路","SECT":"一段","MAREA":" ","LANE":"２７５巷","ALLEY":" ","HOUSE_NO":"８０號","E_COORD97":169339.26000000001,"N_COORD97":2542511.8599999999,"ADDRESS":"大同路一段２７５巷８０號","OBJECTID":387398},"geometry":{"x":169339.26000000071,"y":2542511.8599999994}},{"attributes":{"ID":387423,"DIS_CODE":0,"TOWNNAME":"東區","LI":"大同里","LIN":"28鄰","STREET":"大同路","SECT":"一段","MAREA":" ","LANE":"２７５巷","ALLEY":" ","HOUSE_NO":"８２號","E_COORD97":169346.32000000001,"N_COORD97":2542508.3399999999,"ADDRESS":"大同路一段２７５巷８２號","OBJECTID":387399},"geometry":{"x":169346.32000000123,"y":2542508.3399999999}},{"attributes":{"ID":387424,"DIS_CODE":0,"TOWNNAME":"東區","LI":"大同里","LIN":"28鄰","STREET":"大同路","SECT":"一段","MAREA":" ","LANE":"２７５巷","ALLEY":" ","HOUSE_NO":"８４號","E_COORD97":169349.70999999999,"N_COORD97":2542501.5499999998,"ADDRESS":"大同路一段２７５巷８４號","OBJECTID":387400},"geometry":{"x":169349.71000000089,"y":2542501.5500000007}}]}