{"displayFieldName":"TOWNNAME","fieldAliases":{"ID":"ID","DIS_CODE":"DIS_CODE","TOWNNAME":"TOWNNAME","LI":"LI","LIN":"LIN","STREET":"STREET","SECT":"SECT","MAREA":"MAREA","LANE":"LANE","ALLEY":"ALLEY","HOUSE_NO":"HOUSE_NO","E_COORD97":"E_COORD97","N_COORD97":"N_COORD97","ADDRESS":"ADDRESS","OBJECTID":"OBJECTID"},"geometryType":"esriGeometryPoint","spatialReference":{"wkid":102443,"latestWkid":3826},"fields":[{"name":"ID","type":"esriFieldTypeDouble","alias":"ID"},{"name":"DIS_CODE","type":"esriFieldTypeInteger","alias":"DIS_CODE"},{"name":"TOWNNAME","type":"esriFieldTypeString","alias":"TOWNNAME","length":8},{"name":"LI","type":"esriFieldTypeString","alias":"LI","length":8},{"name":"LIN","type":"esriFieldTypeString","alias":"LIN","length":12},{"name":"STREET","type":"esriFieldTypeString","alias":"STREET","length":20},{"name":"SECT","type":"esriFieldTypeString","alias":"SECT","length":8},{"name":"MAREA","type":"esriFieldTypeString","alias":"MAREA","length":12},{"name":"LANE","type":"esriFieldTypeString","alias":"LANE","length":10},{"name":"ALLEY","type":"esriFieldTypeString","alias":"ALLEY","length":10},{"name":"HOUSE_NO","type":"esriFieldTypeString","alias":"HOUSE_NO","length":20},{"name":"E_COORD97","type":"esriFieldTypeDouble","alias":"E_COORD97"},{"name":"N_COORD97","type":"esriFieldTypeDouble","alias":"N_COORD97"},{"name":"ADDRESS","type":"esriFieldTypeString","alias":"ADDRESS","length":50},{"name":"OBJECTID","type":"esriFieldTypeOID","alias":"OBJECTID"}],"features":[{"attributes":{"ID":539828,"DIS_CODE":0,"TOWNNAME":"南區","LI":"田寮里","LIN":"12鄰","STREET":"新興路","SECT":" ","MAREA":" ","LANE":" ","ALLEY":" ","HOUSE_NO":"６１號四樓之２","E_COORD97":167635.45999999999,"N_COORD97":2542181.1499999999,"ADDRESS":"新興路６１號四樓之２","OBJECTID":539801},"geometry":{"x":167635.46000000183,"y":2542181.1500000004}},{"attributes":{"ID":539829,"DIS_CODE":0,"TOWNNAME":"中西區","LI":"郡西里","LIN":"12鄰","STREET":"大智街","SECT":" ","MAREA":" ","LANE":" ","ALLEY":" ","HOUSE_NO":"６３號七樓","E_COORD97":167310.14000000001,"N_COORD97":2543488.6899999999,"ADDRESS":"大智街６３號七樓","OBJECTID":539802},"geometry":{"x":167310.14000000153,"y":2543488.6899999995}},{"attributes":{"ID":539830,"DIS_CODE":0,"TOWNNAME":"中西區","LI":"郡西里","LIN":"12鄰","STREET":"大智街","SECT":" ","MAREA":" ","LANE":" ","ALLEY":" ","HOUSE_NO":"６３號七樓之１","E_COORD97":167310.14000000001,"N_COORD97":2543488.6899999999,"ADDRESS":"大智街６３號七樓之１","OBJECTID":539803},"geometry":{"x":167310.14000000153,"y":2543488.6899999995}},{"attributes":{"ID":539831,"DIS_CODE":0,"TOWNNAME":"中西區","LI":"郡西里","LIN":"12鄰","STREET":"大智街","SECT":" ","MAREA":" ","LANE":" ","ALLEY":" ","HOUSE_NO":"６３號三樓之４","E_COORD97":167310.14000000001,"N_COORD97":2543488.6899999999,"ADDRESS":"大智街６３號三樓之４","OBJECTID":539804},"geometry":{"x":167310.14000000153,"y":2543488.6899999995}},{"attributes":{"ID":539832,"DIS_CODE":0,"TOWNNAME":"中西區","LI":"大涼里","LIN":"12鄰","STREET":"金城街","SECT":" ","MAREA":" ","LANE":" ","ALLEY":" ","HOUSE_NO":"５號四樓之２","E_COORD97":167000.48000000001,"N_COORD97":2543669.2599999998,"ADDRESS":"金城街５號四樓之２","OBJECTID":539805},"geometry":{"x":167000.48000000138,"y":2543669.2599999998}},{"attributes":{"ID":539833,"DIS_CODE":0,"TOWNNAME":"中西區","LI":"郡西里","LIN":"12鄰","STREET":"大智街","SECT":" ","MAREA":" ","LANE":" ","ALLEY":" ","HOUSE_NO":"６３號五樓之１","E_COORD97":167310.14000000001,"N_COORD97":2543488.6899999999,"ADDRESS":"大智街６３號五樓之１","OBJECTID":539806},"geometry":{"x":167310.14000000153,"y":2543488.6899999995}},{"attributes":{"ID":539834,"DIS_CODE":0,"TOWNNAME":"中西區","LI":"郡西里","LIN":"12鄰","STREET":"大智街","SECT":" ","MAREA":" ","LANE":" ","ALLEY":" ","HOUSE_NO":"６３號五樓之２","E_COORD97":167310.14000000001,"N_COORD97":2543488.6899999999,"ADDRESS":"大智街６３號五樓之２","OBJECTID":539807},"geometry":{"x":167310.14000000153,"y":2543488.6899999995}},{"attributes":{"ID":539835,"DIS_CODE":0,"TOWNNAME":"中西區","LI":"郡西里","LIN":"12鄰","STREET":"大智街","SECT":" ","MAREA":" ","LANE":" ","ALLEY":" ","HOUSE_NO":"６３號五樓之３","E_COORD97":167310.14000000001,"N_COORD97":2543488.6899999999,"ADDRESS":"大智街６３號五樓之３","OBJECTID":539808},"geometry":{"x":167310.14000000153,"y":2543488.6899999995}},{"attributes":{"ID":539836,"DIS_CODE":0,"TOWNNAME":"中西區","LI":"郡西里","LIN":"12鄰","STREET":"大智街","SECT":" ","MAREA":" ","LANE":" ","ALLEY":" ","HOUSE_NO":"６３號五樓之４","E_COORD97":167310.14000000001,"N_COORD97":2543488.6899999999,"ADDRESS":"大智街６３號五樓之４","OBJECTID":539809},"geometry":{"x":167310.14000000153,"y":2543488.6899999995}},{"attributes":{"ID":539837,"DIS_CODE":0,"TOWNNAME":"中西區","LI":"郡西里","LIN":"12鄰","STREET":"大智街","SECT":" ","MAREA":" ","LANE":" ","ALLEY":" ","HOUSE_NO":"６３號六樓","E_COORD97":167310.14000000001,"N_COORD97":2543488.6899999999,"ADDRESS":"大智街６３號六樓","OBJECTID":539810},"geometry":{"x":167310.14000000153,"y":2543488.6899999995}},{"attributes":{"ID":539838,"DIS_CODE":0,"TOWNNAME":"中西區","LI":"郡西里","LIN":"12鄰","STREET":"大智街","SECT":" ","MAREA":" ","LANE":" ","ALLEY":" ","HOUSE_NO":"６３號四樓之２","E_COORD97":167310.14000000001,"N_COORD97":2543488.6899999999,"ADDRESS":"大智街６３號四樓之２","OBJECTID":539811},"geometry":{"x":167310.14000000153,"y":2543488.6899999995}},{"attributes":{"ID":539839,"DIS_CODE":0,"TOWNNAME":"中西區","LI":"郡西里","LIN":"12鄰","STREET":"大智街","SECT":" ","MAREA":" ","LANE":" ","ALLEY":" ","HOUSE_NO":"６３號四樓之３","E_COORD97":167310.14000000001,"N_COORD97":2543488.6899999999,"ADDRESS":"大智街６３號四樓之３","OBJECTID":539812},"geometry":{"x":167310.14000000153,"y":2543488.6899999995}},{"attributes":{"ID":539840,"DIS_CODE":0,"TOWNNAME":"永康區","LI":"西橋里","LIN":"12鄰","STREET":"大橋一街","SECT":" ","MAREA":" ","LANE":" ","ALLEY":" ","HOUSE_NO":"４０號四樓之２","E_COORD97":170624.70000000001,"N_COORD97":2546237.2999999998,"ADDRESS":"大橋一街４０號四樓之２","OBJECTID":539813},"geometry":{"x":170624.70000000112,"y":2546237.3000000026}},{"attributes":{"ID":539841,"DIS_CODE":0,"TOWNNAME":"永康區","LI":"西橋里","LIN":"12鄰","STREET":"大橋一街","SECT":" ","MAREA":" ","LANE":" ","ALLEY":" ","HOUSE_NO":"３０號四樓","E_COORD97":170585.87,"N_COORD97":2546211.2599999998,"ADDRESS":"大橋一街３０號四樓","OBJECTID":539814},"geometry":{"x":170585.87000000197,"y":2546211.2599999998}},{"attributes":{"ID":539842,"DIS_CODE":0,"TOWNNAME":"永康區","LI":"西橋里","LIN":"12鄰","STREET":"大橋一街","SECT":" ","MAREA":" ","LANE":" ","ALLEY":" ","HOUSE_NO":"３０號之２四樓","E_COORD97":170600.01999999999,"N_COORD97":2546204.0499999998,"ADDRESS":"大橋一街３０號之２四樓","OBJECTID":539815},"geometry":{"x":170600.02000000048,"y":2546204.0500000007}},{"attributes":{"ID":539843,"DIS_CODE":0,"TOWNNAME":"永康區","LI":"西橋里","LIN":"12鄰","STREET":"大橋一街","SECT":" ","MAREA":" ","LANE":" ","ALLEY":" ","HOUSE_NO":"４０號五樓之１","E_COORD97":170624.56,"N_COORD97":2546237.2999999998,"ADDRESS":"大橋一街４０號五樓之１","OBJECTID":539816},"geometry":{"x":170624.55999999959,"y":2546237.3000000026}},{"attributes":{"ID":539844,"DIS_CODE":0,"TOWNNAME":"永康區","LI":"西橋里","LIN":"12鄰","STREET":"大橋一街","SECT":" ","MAREA":" ","LANE":" ","ALLEY":" ","HOUSE_NO":"３０號三樓","E_COORD97":170585.87,"N_COORD97":2546211.2599999998,"ADDRESS":"大橋一街３０號三樓","OBJECTID":539817},"geometry":{"x":170585.87000000197,"y":2546211.2599999998}},{"attributes":{"ID":539845,"DIS_CODE":0,"TOWNNAME":"永康區","LI":"永康里","LIN":"12鄰","STREET":"永中街","SECT":" ","MAREA":" ","LANE":" ","ALLEY":" ","HOUSE_NO":"３２號五樓之５","E_COORD97":173886.32999999999,"N_COORD97":2547090.52,"ADDRESS":"永中街３２號五樓之５","OBJECTID":539818},"geometry":{"x":173886.33000000007,"y":2547090.5199999996}},{"attributes":{"ID":539846,"DIS_CODE":0,"TOWNNAME":"永康區","LI":"永康里","LIN":"12鄰","STREET":"永中街","SECT":" ","MAREA":" ","LANE":" ","ALLEY":" ","HOUSE_NO":"２２號三樓","E_COORD97":173890.39999999999,"N_COORD97":2547075.0099999998,"ADDRESS":"永中街２２號三樓","OBJECTID":539819},"geometry":{"x":173890.4000000013,"y":2547075.0099999998}},{"attributes":{"ID":539847,"DIS_CODE":0,"TOWNNAME":"永康區","LI":"永康里","LIN":"12鄰","STREET":"永中街","SECT":" ","MAREA":" ","LANE":" ","ALLEY":" ","HOUSE_NO":"３２號四樓之３","E_COORD97":173886.26999999999,"N_COORD97":2547090.52,"ADDRESS":"永中街３２號四樓之３","OBJECTID":539820},"geometry":{"x":173886.26999999955,"y":2547090.5199999996}},{"attributes":{"ID":539848,"DIS_CODE":0,"TOWNNAME":"永康區","LI":"永康里","LIN":"12鄰","STREET":"永中街","SECT":" ","MAREA":" ","LANE":" ","ALLEY":" ","HOUSE_NO":"３２號三樓之１","E_COORD97":173886.17000000001,"N_COORD97":2547090.52,"ADDRESS":"永中街３２號三樓之１","OBJECTID":539821},"geometry":{"x":173886.17000000086,"y":2547090.5199999996}},{"attributes":{"ID":539849,"DIS_CODE":0,"TOWNNAME":"永康區","LI":"崑山里","LIN":"8鄰","STREET":"大灣路","SECT":" ","MAREA":" ","LANE":" ","ALLEY":" ","HOUSE_NO":"９５３號","E_COORD97":173397.87,"N_COORD97":2544344.0499999998,"ADDRESS":"大灣路９５３號","OBJECTID":539822},"geometry":{"x":173397.87000000011,"y":2544344.0500000026}},{"attributes":{"ID":539850,"DIS_CODE":0,"TOWNNAME":"永康區","LI":"永康里","LIN":"12鄰","STREET":"永中街","SECT":" ","MAREA":" ","LANE":" ","ALLEY":" ","HOUSE_NO":"２０號五樓","E_COORD97":173886.73999999999,"N_COORD97":2547066.5699999998,"ADDRESS":"永中街２０號五樓","OBJECTID":539823},"geometry":{"x":173886.74000000022,"y":2547066.5700000022}},{"attributes":{"ID":539851,"DIS_CODE":0,"TOWNNAME":"永康區","LI":"永康里","LIN":"12鄰","STREET":"永中街","SECT":" ","MAREA":" ","LANE":" ","ALLEY":" ","HOUSE_NO":"３２號三樓之２","E_COORD97":173886.31,"N_COORD97":2547090.52,"ADDRESS":"永中街３２號三樓之２","OBJECTID":539824},"geometry":{"x":173886.31000000145,"y":2547090.5199999996}},{"attributes":{"ID":539852,"DIS_CODE":0,"TOWNNAME":"永康區","LI":"永康里","LIN":"12鄰","STREET":"永中街","SECT":" ","MAREA":" ","LANE":" ","ALLEY":" ","HOUSE_NO":"２２號七樓","E_COORD97":173890.39999999999,"N_COORD97":2547075.0099999998,"ADDRESS":"永中街２２號七樓","OBJECTID":539825},"geometry":{"x":173890.4000000013,"y":2547075.0099999998}},{"attributes":{"ID":539853,"DIS_CODE":0,"TOWNNAME":"永康區","LI":"永康里","LIN":"12鄰","STREET":"永中街","SECT":" ","MAREA":" ","LANE":" ","ALLEY":" ","HOUSE_NO":"３２號三樓之５","E_COORD97":173886.32999999999,"N_COORD97":2547090.52,"ADDRESS":"永中街３２號三樓之５","OBJECTID":539826},"geometry":{"x":173886.33000000007,"y":2547090.5199999996}},{"attributes":{"ID":539854,"DIS_CODE":0,"TOWNNAME":"中西區","LI":"元安里","LIN":"12鄰","STREET":"大勇街","SECT":" ","MAREA":" ","LANE":" ","ALLEY":" ","HOUSE_NO":"４號二樓","E_COORD97":167526.51000000001,"N_COORD97":2543345.1800000002,"ADDRESS":"大勇街４號二樓","OBJECTID":539827},"geometry":{"x":167526.51000000164,"y":2543345.1800000016}},{"attributes":{"ID":539855,"DIS_CODE":0,"TOWNNAME":"中西區","LI":"元安里","LIN":"12鄰","STREET":"大勇街","SECT":" ","MAREA":" ","LANE":" ","ALLEY":" ","HOUSE_NO":"４號三樓","E_COORD97":167526.51000000001,"N_COORD97":2543345.1800000002,"ADDRESS":"大勇街４號三樓","OBJECTID":539828},"geometry":{"x":167526.51000000164,"y":2543345.1800000016}},{"attributes":{"ID":539856,"DIS_CODE":0,"TOWNNAME":"中西區","LI":"元安里","LIN":"12鄰","STREET":"大勇街","SECT":" ","MAREA":" ","LANE":" ","ALLEY":" ","HOUSE_NO":"４號四樓","E_COORD97":167526.51000000001,"N_COORD97":2543345.1800000002,"ADDRESS":"大勇街４號四樓","OBJECTID":539829},"geometry":{"x":167526.51000000164,"y":2543345.1800000016}},{"attributes":{"ID":539857,"DIS_CODE":0,"TOWNNAME":"中西區","LI":"中正里","LIN":"12鄰","STREET":"康樂街","SECT":" ","MAREA":" ","LANE":" ","ALLEY":" ","HOUSE_NO":"１５６號七樓之１２","E_COORD97":167498.67999999999,"N_COORD97":2543977.29,"ADDRESS":"康樂街１５６號七樓之１２","OBJECTID":539830},"geometry":{"x":167498.68000000063,"y":2543977.2900000028}},{"attributes":{"ID":539858,"DIS_CODE":0,"TOWNNAME":"南區","LI":"再興里","LIN":"12鄰","STREET":"三官路","SECT":" ","MAREA":" ","LANE":" ","ALLEY":" ","HOUSE_NO":"２３２號三樓之２","E_COORD97":167100.01000000001,"N_COORD97":2541983.4900000002,"ADDRESS":"三官路２３２號三樓之２","OBJECTID":539831},"geometry":{"x":167100.01000000071,"y":2541983.4900000039}},{"attributes":{"ID":539859,"DIS_CODE":0,"TOWNNAME":"南區","LI":"再興里","LIN":"12鄰","STREET":"三官路","SECT":" ","MAREA":" ","LANE":" ","ALLEY":" ","HOUSE_NO":"２３２號四樓之１","E_COORD97":167100.01000000001,"N_COORD97":2541983.4900000002,"ADDRESS":"三官路２３２號四樓之１","OBJECTID":539832},"geometry":{"x":167100.01000000071,"y":2541983.4900000039}},{"attributes":{"ID":539860,"DIS_CODE":0,"TOWNNAME":"南區","LI":"再興里","LIN":"12鄰","STREET":"三官路","SECT":" ","MAREA":" ","LANE":" ","ALLEY":" ","HOUSE_NO":"２３２號四樓之２","E_COORD97":167100.01000000001,"N_COORD97":2541983.4900000002,"ADDRESS":"三官路２３２號四樓之２","OBJECTID":539833},"geometry":{"x":167100.01000000071,"y":2541983.4900000039}},{"attributes":{"ID":539861,"DIS_CODE":0,"TOWNNAME":"南區","LI":"再興里","LIN":"12鄰","STREET":"三官路","SECT":" ","MAREA":" ","LANE":" ","ALLEY":" ","HOUSE_NO":"２３２號五樓之１","E_COORD97":167100.01000000001,"N_COORD97":2541983.4900000002,"ADDRESS":"三官路２３２號五樓之１","OBJECTID":539834},"geometry":{"x":167100.01000000071,"y":2541983.4900000039}},{"attributes":{"ID":539862,"DIS_CODE":0,"TOWNNAME":"南區","LI":"再興里","LIN":"12鄰","STREET":"三官路","SECT":" ","MAREA":" ","LANE":" ","ALLEY":" ","HOUSE_NO":"２３２號五樓之２","E_COORD97":167100.01000000001,"N_COORD97":2541983.4900000002,"ADDRESS":"三官路２３２號五樓之２","OBJECTID":539835},"geometry":{"x":167100.01000000071,"y":2541983.4900000039}},{"attributes":{"ID":539863,"DIS_CODE":0,"TOWNNAME":"南區","LI":"再興里","LIN":"12鄰","STREET":"三官路","SECT":" ","MAREA":" ","LANE":" ","ALLEY":" ","HOUSE_NO":"２３２號六樓之１","E_COORD97":167100.01000000001,"N_COORD97":2541983.4900000002,"ADDRESS":"三官路２３２號六樓之１","OBJECTID":539836},"geometry":{"x":167100.01000000071,"y":2541983.4900000039}},{"attributes":{"ID":539864,"DIS_CODE":0,"TOWNNAME":"南區","LI":"再興里","LIN":"12鄰","STREET":"三官路","SECT":" ","MAREA":" ","LANE":" ","ALLEY":" ","HOUSE_NO":"２３２號六樓之２","E_COORD97":167100.01000000001,"N_COORD97":2541983.4900000002,"ADDRESS":"三官路２３２號六樓之２","OBJECTID":539837},"geometry":{"x":167100.01000000071,"y":2541983.4900000039}},{"attributes":{"ID":539865,"DIS_CODE":0,"TOWNNAME":"南區","LI":"再興里","LIN":"12鄰","STREET":"三官路","SECT":" ","MAREA":" ","LANE":" ","ALLEY":" ","HOUSE_NO":"２３２號七樓之１","E_COORD97":167100.01000000001,"N_COORD97":2541983.4900000002,"ADDRESS":"三官路２３２號七樓之１","OBJECTID":539838},"geometry":{"x":167100.01000000071,"y":2541983.4900000039}},{"attributes":{"ID":539866,"DIS_CODE":0,"TOWNNAME":"南區","LI":"再興里","LIN":"12鄰","STREET":"三官路","SECT":" ","MAREA":" ","LANE":" ","ALLEY":" ","HOUSE_NO":"２３２號七樓之２","E_COORD97":167100.01000000001,"N_COORD97":2541983.4900000002,"ADDRESS":"三官路２３２號七樓之２","OBJECTID":539839},"geometry":{"x":167100.01000000071,"y":2541983.4900000039}},{"attributes":{"ID":539867,"DIS_CODE":0,"TOWNNAME":"仁德區","LI":"仁德里","LIN":"12鄰","STREET":"四維街","SECT":" ","MAREA":" ","LANE":" ","ALLEY":" ","HOUSE_NO":"２１號二樓之４","E_COORD97":173262.26000000001,"N_COORD97":2541501.79,"ADDRESS":"四維街２１號二樓之４","OBJECTID":539840},"geometry":{"x":173262.25999999978,"y":2541501.7899999991}},{"attributes":{"ID":539868,"DIS_CODE":0,"TOWNNAME":"永康區","LI":"埔園里","LIN":"18鄰","STREET":"四維街","SECT":" ","MAREA":" ","LANE":" ","ALLEY":" ","HOUSE_NO":"１５０號","E_COORD97":173316.78,"N_COORD97":2548357.5,"ADDRESS":"四維街１５０號","OBJECTID":539841},"geometry":{"x":173316.78000000026,"y":2548357.5000000019}},{"attributes":{"ID":539869,"DIS_CODE":0,"TOWNNAME":"永康區","LI":"東灣里","LIN":"26鄰","STREET":"大灣一街","SECT":" ","MAREA":" ","LANE":" ","ALLEY":" ","HOUSE_NO":"２２２號","E_COORD97":174897.94,"N_COORD97":2544594.1699999999,"ADDRESS":"大灣一街２２２號","OBJECTID":539842},"geometry":{"x":174897.94000000041,"y":2544594.1700000018}},{"attributes":{"ID":539870,"DIS_CODE":0,"TOWNNAME":"永康區","LI":"埔園里","LIN":"25鄰","STREET":"埔東街","SECT":" ","MAREA":" ","LANE":" ","ALLEY":" ","HOUSE_NO":"２１號","E_COORD97":173777.81,"N_COORD97":2548073.1299999999,"ADDRESS":"埔東街２１號","OBJECTID":539843},"geometry":{"x":173777.81000000145,"y":2548073.129999999}},{"attributes":{"ID":539871,"DIS_CODE":0,"TOWNNAME":"永康區","LI":"崑山里","LIN":"15鄰","STREET":"大灣路","SECT":" ","MAREA":" ","LANE":" ","ALLEY":" ","HOUSE_NO":"９６６號","E_COORD97":173562.20000000001,"N_COORD97":2544412.0699999998,"ADDRESS":"大灣路９６６號","OBJECTID":539844},"geometry":{"x":173562.20000000205,"y":2544412.0700000022}},{"attributes":{"ID":539872,"DIS_CODE":0,"TOWNNAME":"仁德區","LI":"仁德里","LIN":"12鄰","STREET":"四維街","SECT":" ","MAREA":" ","LANE":" ","ALLEY":" ","HOUSE_NO":"２１號一樓之７","E_COORD97":173262.32000000001,"N_COORD97":2541501.79,"ADDRESS":"四維街２１號一樓之７","OBJECTID":539845},"geometry":{"x":173262.3200000003,"y":2541501.7899999991}},{"attributes":{"ID":539873,"DIS_CODE":0,"TOWNNAME":"仁德區","LI":"仁德里","LIN":"12鄰","STREET":"四維街","SECT":" ","MAREA":" ","LANE":" ","ALLEY":" ","HOUSE_NO":"２１號四樓之９","E_COORD97":173262.32000000001,"N_COORD97":2541501.79,"ADDRESS":"四維街２１號四樓之９","OBJECTID":539846},"geometry":{"x":173262.3200000003,"y":2541501.7899999991}},{"attributes":{"ID":539874,"DIS_CODE":0,"TOWNNAME":"仁德區","LI":"仁德里","LIN":"12鄰","STREET":"四維街","SECT":" ","MAREA":" ","LANE":" ","ALLEY":" ","HOUSE_NO":"２１號五樓之４","E_COORD97":173262.26000000001,"N_COORD97":2541501.79,"ADDRESS":"四維街２１號五樓之４","OBJECTID":539847},"geometry":{"x":173262.25999999978,"y":2541501.7899999991}},{"attributes":{"ID":539875,"DIS_CODE":0,"TOWNNAME":"永康區","LI":"神洲里","LIN":"10鄰","STREET":"忠孝路","SECT":" ","MAREA":" ","LANE":" ","ALLEY":" ","HOUSE_NO":"１６８號之１","E_COORD97":172177.78,"N_COORD97":2545126.23,"ADDRESS":"忠孝路１６８號之１","OBJECTID":539848},"geometry":{"x":172177.78000000026,"y":2545126.2300000023}},{"attributes":{"ID":539876,"DIS_CODE":0,"TOWNNAME":"永康區","LI":"埔園里","LIN":"21鄰","STREET":"四維街","SECT":" ","MAREA":" ","LANE":" ","ALLEY":" ","HOUSE_NO":"７２號","E_COORD97":173406.14000000001,"N_COORD97":2548097.5600000001,"ADDRESS":"四維街７２號","OBJECTID":539849},"geometry":{"x":173406.14000000153,"y":2548097.5600000024}},{"attributes":{"ID":539877,"DIS_CODE":0,"TOWNNAME":"永康區","LI":"烏竹里","LIN":"17鄰","STREET":"竹園一街","SECT":" ","MAREA":" ","LANE":" ","ALLEY":" ","HOUSE_NO":"４１之６號","E_COORD97":174436.60999999999,"N_COORD97":2548958.6699999999,"ADDRESS":"竹園一街４１之６號","OBJECTID":539850},"geometry":{"x":174436.61000000127,"y":2548958.6699999999}},{"attributes":{"ID":539878,"DIS_CODE":0,"TOWNNAME":"永康區","LI":"埔園里","LIN":"15鄰","STREET":"中山路","SECT":" ","MAREA":" ","LANE":" ","ALLEY":" ","HOUSE_NO":"３５５號","E_COORD97":173579.09,"N_COORD97":2548462.2400000002,"ADDRESS":"中山路３５５號","OBJECTID":539851},"geometry":{"x":173579.08999999985,"y":2548462.2400000021}},{"attributes":{"ID":539879,"DIS_CODE":0,"TOWNNAME":"仁德區","LI":"後壁里","LIN":"12鄰","STREET":"德南路","SECT":" ","MAREA":" ","LANE":" ","ALLEY":" ","HOUSE_NO":"２１３號一樓","E_COORD97":173731.04000000001,"N_COORD97":2538487.7599999998,"ADDRESS":"德南路２１３號一樓","OBJECTID":539852},"geometry":{"x":173731.0400000019,"y":2538487.7599999998}},{"attributes":{"ID":539880,"DIS_CODE":0,"TOWNNAME":"仁德區","LI":"保安里","LIN":"12鄰","STREET":"開發一路","SECT":" ","MAREA":" ","LANE":" ","ALLEY":" ","HOUSE_NO":"７號四樓","E_COORD97":172337.23000000001,"N_COORD97":2535890.5099999998,"ADDRESS":"開發一路７號四樓","OBJECTID":539853},"geometry":{"x":172337.23000000138,"y":2535890.5100000035}},{"attributes":{"ID":539881,"DIS_CODE":0,"TOWNNAME":"仁德區","LI":"仁德里","LIN":"12鄰","STREET":"四維街","SECT":" ","MAREA":" ","LANE":" ","ALLEY":" ","HOUSE_NO":"２１號六樓之３","E_COORD97":173262.34,"N_COORD97":2541501.79,"ADDRESS":"四維街２１號六樓之３","OBJECTID":539854},"geometry":{"x":173262.33999999985,"y":2541501.7899999991}},{"attributes":{"ID":539882,"DIS_CODE":0,"TOWNNAME":"永康區","LI":"永康里","LIN":"12鄰","STREET":"永中街","SECT":" ","MAREA":" ","LANE":" ","ALLEY":" ","HOUSE_NO":"２２號四樓","E_COORD97":173890.39999999999,"N_COORD97":2547075.0099999998,"ADDRESS":"永中街２２號四樓","OBJECTID":539855},"geometry":{"x":173890.4000000013,"y":2547075.0099999998}},{"attributes":{"ID":539883,"DIS_CODE":0,"TOWNNAME":"永康區","LI":"永康里","LIN":"12鄰","STREET":"永中街","SECT":" ","MAREA":" ","LANE":" ","ALLEY":" ","HOUSE_NO":"３２號七樓之２","E_COORD97":173886.31,"N_COORD97":2547090.52,"ADDRESS":"永中街３２號七樓之２","OBJECTID":539856},"geometry":{"x":173886.31000000145,"y":2547090.5199999996}},{"attributes":{"ID":539884,"DIS_CODE":0,"TOWNNAME":"永康區","LI":"西橋里","LIN":"12鄰","STREET":"大橋一街","SECT":" ","MAREA":" ","LANE":" ","ALLEY":" ","HOUSE_NO":"４０號三樓之２","E_COORD97":170624.70000000001,"N_COORD97":2546237.2999999998,"ADDRESS":"大橋一街４０號三樓之２","OBJECTID":539857},"geometry":{"x":170624.70000000112,"y":2546237.3000000026}},{"attributes":{"ID":539885,"DIS_CODE":0,"TOWNNAME":"永康區","LI":"西橋里","LIN":"12鄰","STREET":"大橋一街","SECT":" ","MAREA":" ","LANE":" ","ALLEY":" ","HOUSE_NO":"４０號五樓之２","E_COORD97":170624.70000000001,"N_COORD97":2546237.2999999998,"ADDRESS":"大橋一街４０號五樓之２","OBJECTID":539858},"geometry":{"x":170624.70000000112,"y":2546237.3000000026}},{"attributes":{"ID":539886,"DIS_CODE":0,"TOWNNAME":"永康區","LI":"永康里","LIN":"12鄰","STREET":"永中街","SECT":" ","MAREA":" ","LANE":" ","ALLEY":" ","HOUSE_NO":"２２號五樓","E_COORD97":173890.39999999999,"N_COORD97":2547075.0099999998,"ADDRESS":"永中街２２號五樓","OBJECTID":539859},"geometry":{"x":173890.4000000013,"y":2547075.0099999998}},{"attributes":{"ID":539887,"DIS_CODE":0,"TOWNNAME":"永康區","LI":"永康里","LIN":"12鄰","STREET":"永中街","SECT":" ","MAREA":" ","LANE":" ","ALLEY":" ","HOUSE_NO":"２０號六樓","E_COORD97":173886.73999999999,"N_COORD97":2547066.5699999998,"ADDRESS":"永中街２０號六樓","OBJECTID":539860},"geometry":{"x":173886.74000000022,"y":2547066.5700000022}},{"attributes":{"ID":539888,"DIS_CODE":0,"TOWNNAME":"永康區","LI":"永康里","LIN":"12鄰","STREET":"永中街","SECT":" ","MAREA":" ","LANE":" ","ALLEY":" ","HOUSE_NO":"３２號五樓之２","E_COORD97":173886.31,"N_COORD97":2547090.52,"ADDRESS":"永中街３２號五樓之２","OBJECTID":539861},"geometry":{"x":173886.31000000145,"y":2547090.5199999996}},{"attributes":{"ID":539889,"DIS_CODE":0,"TOWNNAME":"永康區","LI":"永康里","LIN":"12鄰","STREET":"永中街","SECT":" ","MAREA":" ","LANE":" ","ALLEY":" ","HOUSE_NO":"２２號二樓","E_COORD97":173890.39999999999,"N_COORD97":2547075.0099999998,"ADDRESS":"永中街２２號二樓","OBJECTID":539862},"geometry":{"x":173890.4000000013,"y":2547075.0099999998}},{"attributes":{"ID":539890,"DIS_CODE":0,"TOWNNAME":"永康區","LI":"崑山里","LIN":"10鄰","STREET":"崑大路","SECT":" ","MAREA":" ","LANE":" ","ALLEY":" ","HOUSE_NO":"２５５號","E_COORD97":173214.39000000001,"N_COORD97":2544318.6800000002,"ADDRESS":"崑大路２５５號","OBJECTID":539863},"geometry":{"x":173214.38999999873,"y":2544318.6800000016}},{"attributes":{"ID":539891,"DIS_CODE":0,"TOWNNAME":"永康區","LI":"永康里","LIN":"12鄰","STREET":"永中街","SECT":" ","MAREA":" ","LANE":" ","ALLEY":" ","HOUSE_NO":"３２號四樓之１","E_COORD97":173886.17000000001,"N_COORD97":2547090.52,"ADDRESS":"永中街３２號四樓之１","OBJECTID":539864},"geometry":{"x":173886.17000000086,"y":2547090.5199999996}},{"attributes":{"ID":539892,"DIS_CODE":0,"TOWNNAME":"永康區","LI":"永康里","LIN":"12鄰","STREET":"永中街","SECT":" ","MAREA":" ","LANE":" ","ALLEY":" ","HOUSE_NO":"２０號二樓","E_COORD97":173886.73999999999,"N_COORD97":2547066.5699999998,"ADDRESS":"永中街２０號二樓","OBJECTID":539865},"geometry":{"x":173886.74000000022,"y":2547066.5700000022}},{"attributes":{"ID":539893,"DIS_CODE":0,"TOWNNAME":"中西區","LI":"大南里","LIN":"12鄰","STREET":"樹林街","SECT":"二段","MAREA":" ","LANE":" ","ALLEY":" ","HOUSE_NO":"１１１號四樓","E_COORD97":168350.20000000001,"N_COORD97":2542939.5600000001,"ADDRESS":"樹林街二段１１１號四樓","OBJECTID":539866},"geometry":{"x":168350.20000000112,"y":2542939.5600000042}},{"attributes":{"ID":539894,"DIS_CODE":0,"TOWNNAME":"中西區","LI":"大南里","LIN":"12鄰","STREET":"樹林街","SECT":"二段","MAREA":" ","LANE":" ","ALLEY":" ","HOUSE_NO":"１０５號一樓","E_COORD97":168378.38,"N_COORD97":2542937.0899999999,"ADDRESS":"樹林街二段１０５號一樓","OBJECTID":539867},"geometry":{"x":168378.38000000175,"y":2542937.0899999999}},{"attributes":{"ID":539895,"DIS_CODE":0,"TOWNNAME":"中西區","LI":"大南里","LIN":"12鄰","STREET":"樹林街","SECT":"二段","MAREA":" ","LANE":" ","ALLEY":" ","HOUSE_NO":"１０５號二樓","E_COORD97":168378.38,"N_COORD97":2542937.0899999999,"ADDRESS":"樹林街二段１０５號二樓","OBJECTID":539868},"geometry":{"x":168378.38000000175,"y":2542937.0899999999}},{"attributes":{"ID":539896,"DIS_CODE":0,"TOWNNAME":"中西區","LI":"大南里","LIN":"12鄰","STREET":"樹林街","SECT":"二段","MAREA":" ","LANE":" ","ALLEY":" ","HOUSE_NO":"１０５號三樓","E_COORD97":168378.38,"N_COORD97":2542937.0899999999,"ADDRESS":"樹林街二段１０５號三樓","OBJECTID":539869},"geometry":{"x":168378.38000000175,"y":2542937.0899999999}},{"attributes":{"ID":539897,"DIS_CODE":0,"TOWNNAME":"永康區","LI":"埔園里","LIN":"21鄰","STREET":"四維街","SECT":" ","MAREA":" ","LANE":" ","ALLEY":" ","HOUSE_NO":"１００號之８","E_COORD97":173396.5,"N_COORD97":2548198.0499999998,"ADDRESS":"四維街１００號之８","OBJECTID":539870},"geometry":{"x":173396.5,"y":2548198.0499999989}},{"attributes":{"ID":539898,"DIS_CODE":0,"TOWNNAME":"中西區","LI":"大南里","LIN":"12鄰","STREET":"樹林街","SECT":"二段","MAREA":" ","LANE":" ","ALLEY":" ","HOUSE_NO":"１０５號五樓","E_COORD97":168378.38,"N_COORD97":2542937.0899999999,"ADDRESS":"樹林街二段１０５號五樓","OBJECTID":539871},"geometry":{"x":168378.38000000175,"y":2542937.0899999999}},{"attributes":{"ID":539899,"DIS_CODE":0,"TOWNNAME":"中西區","LI":"大南里","LIN":"12鄰","STREET":"樹林街","SECT":"二段","MAREA":" ","LANE":" ","ALLEY":" ","HOUSE_NO":"１０５號四樓","E_COORD97":168378.38,"N_COORD97":2542937.0899999999,"ADDRESS":"樹林街二段１０５號四樓","OBJECTID":539872},"geometry":{"x":168378.38000000175,"y":2542937.0899999999}},{"attributes":{"ID":539900,"DIS_CODE":0,"TOWNNAME":"中西區","LI":"大南里","LIN":"12鄰","STREET":"樹林街","SECT":"二段","MAREA":" ","LANE":" ","ALLEY":" ","HOUSE_NO":"１０７號一樓","E_COORD97":168370.63,"N_COORD97":2542937.0899999999,"ADDRESS":"樹林街二段１０７號一樓","OBJECTID":539873},"geometry":{"x":168370.63000000082,"y":2542937.0899999999}},{"attributes":{"ID":539901,"DIS_CODE":0,"TOWNNAME":"中西區","LI":"大南里","LIN":"12鄰","STREET":"樹林街","SECT":"二段","MAREA":" ","LANE":" ","ALLEY":" ","HOUSE_NO":"１０７號二樓","E_COORD97":168370.63,"N_COORD97":2542937.0899999999,"ADDRESS":"樹林街二段１０７號二樓","OBJECTID":539874},"geometry":{"x":168370.63000000082,"y":2542937.0899999999}},{"attributes":{"ID":539902,"DIS_CODE":0,"TOWNNAME":"中西區","LI":"大南里","LIN":"12鄰","STREET":"樹林街","SECT":"二段","MAREA":" ","LANE":" ","ALLEY":" ","HOUSE_NO":"１０７號三樓","E_COORD97":168370.63,"N_COORD97":2542937.0899999999,"ADDRESS":"樹林街二段１０７號三樓","OBJECTID":539875},"geometry":{"x":168370.63000000082,"y":2542937.0899999999}},{"attributes":{"ID":539903,"DIS_CODE":0,"TOWNNAME":"中西區","LI":"大南里","LIN":"12鄰","STREET":"樹林街","SECT":"二段","MAREA":" ","LANE":" ","ALLEY":" ","HOUSE_NO":"１０７號五樓","E_COORD97":168370.63,"N_COORD97":2542937.0899999999,"ADDRESS":"樹林街二段１０７號五樓","OBJECTID":539876},"geometry":{"x":168370.63000000082,"y":2542937.0899999999}},{"attributes":{"ID":539904,"DIS_CODE":0,"TOWNNAME":"中西區","LI":"大南里","LIN":"12鄰","STREET":"樹林街","SECT":"二段","MAREA":" ","LANE":" ","ALLEY":" ","HOUSE_NO":"１０７號四樓","E_COORD97":168370.63,"N_COORD97":2542937.0899999999,"ADDRESS":"樹林街二段１０７號四樓","OBJECTID":539877},"geometry":{"x":168370.63000000082,"y":2542937.0899999999}},{"attributes":{"ID":539905,"DIS_CODE":0,"TOWNNAME":"中西區","LI":"大南里","LIN":"12鄰","STREET":"樹林街","SECT":"二段","MAREA":" ","LANE":" ","ALLEY":" ","HOUSE_NO":"１０９號一樓","E_COORD97":168361.12,"N_COORD97":2542937.7999999998,"ADDRESS":"樹林街二段１０９號一樓","OBJECTID":539878},"geometry":{"x":168361.12000000011,"y":2542937.8000000007}},{"attributes":{"ID":539906,"DIS_CODE":0,"TOWNNAME":"中西區","LI":"大南里","LIN":"12鄰","STREET":"樹林街","SECT":"二段","MAREA":" ","LANE":" ","ALLEY":" ","HOUSE_NO":"１０９號二樓","E_COORD97":168361.12,"N_COORD97":2542937.7999999998,"ADDRESS":"樹林街二段１０９號二樓","OBJECTID":539879},"geometry":{"x":168361.12000000011,"y":2542937.8000000007}},{"attributes":{"ID":539907,"DIS_CODE":0,"TOWNNAME":"中西區","LI":"大南里","LIN":"12鄰","STREET":"樹林街","SECT":"二段","MAREA":" ","LANE":" ","ALLEY":" ","HOUSE_NO":"１０９號三樓","E_COORD97":168361.12,"N_COORD97":2542937.7999999998,"ADDRESS":"樹林街二段１０９號三樓","OBJECTID":539880},"geometry":{"x":168361.12000000011,"y":2542937.8000000007}},{"attributes":{"ID":539908,"DIS_CODE":0,"TOWNNAME":"中西區","LI":"大南里","LIN":"12鄰","STREET":"樹林街","SECT":"二段","MAREA":" ","LANE":" ","ALLEY":" ","HOUSE_NO":"１０９號五樓","E_COORD97":168361.12,"N_COORD97":2542937.7999999998,"ADDRESS":"樹林街二段１０９號五樓","OBJECTID":539881},"geometry":{"x":168361.12000000011,"y":2542937.8000000007}},{"attributes":{"ID":539909,"DIS_CODE":0,"TOWNNAME":"中西區","LI":"大南里","LIN":"12鄰","STREET":"樹林街","SECT":"二段","MAREA":" ","LANE":" ","ALLEY":" ","HOUSE_NO":"１０９號四樓","E_COORD97":168361.12,"N_COORD97":2542937.7999999998,"ADDRESS":"樹林街二段１０９號四樓","OBJECTID":539882},"geometry":{"x":168361.12000000011,"y":2542937.8000000007}},{"attributes":{"ID":539910,"DIS_CODE":0,"TOWNNAME":"中西區","LI":"大南里","LIN":"12鄰","STREET":"樹林街","SECT":"二段","MAREA":" ","LANE":" ","ALLEY":" ","HOUSE_NO":"１１１號一樓","E_COORD97":168350.20000000001,"N_COORD97":2542939.5600000001,"ADDRESS":"樹林街二段１１１號一樓","OBJECTID":539883},"geometry":{"x":168350.20000000112,"y":2542939.5600000042}},{"attributes":{"ID":539911,"DIS_CODE":0,"TOWNNAME":"中西區","LI":"大南里","LIN":"12鄰","STREET":"樹林街","SECT":"二段","MAREA":" ","LANE":" ","ALLEY":" ","HOUSE_NO":"１１１號二樓","E_COORD97":168350.20000000001,"N_COORD97":2542939.5600000001,"ADDRESS":"樹林街二段１１１號二樓","OBJECTID":539884},"geometry":{"x":168350.20000000112,"y":2542939.5600000042}},{"attributes":{"ID":539912,"DIS_CODE":0,"TOWNNAME":"中西區","LI":"大南里","LIN":"12鄰","STREET":"樹林街","SECT":"二段","MAREA":" ","LANE":" ","ALLEY":" ","HOUSE_NO":"１１１號三樓","E_COORD97":168350.20000000001,"N_COORD97":2542939.5600000001,"ADDRESS":"樹林街二段１１１號三樓","OBJECTID":539885},"geometry":{"x":168350.20000000112,"y":2542939.5600000042}},{"attributes":{"ID":539913,"DIS_CODE":0,"TOWNNAME":"中西區","LI":"大南里","LIN":"12鄰","STREET":"樹林街","SECT":"二段","MAREA":" ","LANE":" ","ALLEY":" ","HOUSE_NO":"１１１號五樓","E_COORD97":168350.20000000001,"N_COORD97":2542939.5600000001,"ADDRESS":"樹林街二段１１１號五樓","OBJECTID":539886},"geometry":{"x":168350.20000000112,"y":2542939.5600000042}},{"attributes":{"ID":539914,"DIS_CODE":0,"TOWNNAME":"中西區","LI":"大南里","LIN":"12鄰","STREET":"樹林街","SECT":"二段","MAREA":" ","LANE":" ","ALLEY":" ","HOUSE_NO":"１１３號一樓","E_COORD97":168330.82000000001,"N_COORD97":2542943.7799999998,"ADDRESS":"樹林街二段１１３號一樓","OBJECTID":539887},"geometry":{"x":168330.82000000123,"y":2542943.7800000012}},{"attributes":{"ID":539915,"DIS_CODE":0,"TOWNNAME":"中西區","LI":"大南里","LIN":"12鄰","STREET":"樹林街","SECT":"二段","MAREA":" ","LANE":" ","ALLEY":" ","HOUSE_NO":"１１３號二樓","E_COORD97":168330.82000000001,"N_COORD97":2542943.7799999998,"ADDRESS":"樹林街二段１１３號二樓","OBJECTID":539888},"geometry":{"x":168330.82000000123,"y":2542943.7800000012}},{"attributes":{"ID":539916,"DIS_CODE":0,"TOWNNAME":"中西區","LI":"大南里","LIN":"12鄰","STREET":"樹林街","SECT":"二段","MAREA":" ","LANE":" ","ALLEY":" ","HOUSE_NO":"１１３號五樓","E_COORD97":168330.82000000001,"N_COORD97":2542943.7799999998,"ADDRESS":"樹林街二段１１３號五樓","OBJECTID":539889},"geometry":{"x":168330.82000000123,"y":2542943.7800000012}},{"attributes":{"ID":539917,"DIS_CODE":0,"TOWNNAME":"中西區","LI":"大南里","LIN":"12鄰","STREET":"樹林街","SECT":"二段","MAREA":" ","LANE":" ","ALLEY":" ","HOUSE_NO":"１１５號一樓","E_COORD97":168323.42999999999,"N_COORD97":2542944.8300000001,"ADDRESS":"樹林街二段１１５號一樓","OBJECTID":539890},"geometry":{"x":168323.4299999997,"y":2542944.8300000019}},{"attributes":{"ID":539918,"DIS_CODE":0,"TOWNNAME":"中西區","LI":"大南里","LIN":"12鄰","STREET":"樹林街","SECT":"二段","MAREA":" ","LANE":" ","ALLEY":" ","HOUSE_NO":"１１５號二樓","E_COORD97":168323.42999999999,"N_COORD97":2542944.8300000001,"ADDRESS":"樹林街二段１１５號二樓","OBJECTID":539891},"geometry":{"x":168323.4299999997,"y":2542944.8300000019}},{"attributes":{"ID":539919,"DIS_CODE":0,"TOWNNAME":"永康區","LI":"埔園里","LIN":"21鄰","STREET":"四維街","SECT":" ","MAREA":" ","LANE":" ","ALLEY":" ","HOUSE_NO":"８６號","E_COORD97":173392.14000000001,"N_COORD97":2548135.6800000002,"ADDRESS":"四維街８６號","OBJECTID":539892},"geometry":{"x":173392.13999999966,"y":2548135.6800000016}},{"attributes":{"ID":539920,"DIS_CODE":0,"TOWNNAME":"永康區","LI":"崑山里","LIN":"37鄰","STREET":"大仁街","SECT":" ","MAREA":" ","LANE":" ","ALLEY":" ","HOUSE_NO":"２０２號","E_COORD97":173951.97,"N_COORD97":2545078.8799999999,"ADDRESS":"大仁街２０２號","OBJECTID":539893},"geometry":{"x":173951.97000000067,"y":2545078.8800000008}},{"attributes":{"ID":539921,"DIS_CODE":0,"TOWNNAME":"中西區","LI":"大南里","LIN":"12鄰","STREET":"樹林街","SECT":"二段","MAREA":" ","LANE":" ","ALLEY":" ","HOUSE_NO":"１１５號三樓","E_COORD97":168323.42999999999,"N_COORD97":2542944.8300000001,"ADDRESS":"樹林街二段１１５號三樓","OBJECTID":539894},"geometry":{"x":168323.4299999997,"y":2542944.8300000019}},{"attributes":{"ID":539922,"DIS_CODE":0,"TOWNNAME":"中西區","LI":"大南里","LIN":"12鄰","STREET":"樹林街","SECT":"二段","MAREA":" ","LANE":" ","ALLEY":" ","HOUSE_NO":"１１５號五樓","E_COORD97":168323.42999999999,"N_COORD97":2542944.8300000001,"ADDRESS":"樹林街二段１１５號五樓","OBJECTID":539895},"geometry":{"x":168323.4299999997,"y":2542944.8300000019}},{"attributes":{"ID":539923,"DIS_CODE":0,"TOWNNAME":"中西區","LI":"大南里","LIN":"12鄰","STREET":"樹林街","SECT":"二段","MAREA":" ","LANE":" ","ALLEY":" ","HOUSE_NO":"１１５號四樓","E_COORD97":168323.42999999999,"N_COORD97":2542944.8300000001,"ADDRESS":"樹林街二段１１５號四樓","OBJECTID":539896},"geometry":{"x":168323.4299999997,"y":2542944.8300000019}},{"attributes":{"ID":539924,"DIS_CODE":0,"TOWNNAME":"中西區","LI":"大南里","LIN":"12鄰","STREET":"樹林街","SECT":"二段","MAREA":" ","LANE":" ","ALLEY":" ","HOUSE_NO":"１１７號一樓","E_COORD97":168313.92000000001,"N_COORD97":2542946.5899999999,"ADDRESS":"樹林街二段１１７號一樓","OBJECTID":539897},"geometry":{"x":168313.92000000086,"y":2542946.5900000017}},{"attributes":{"ID":539925,"DIS_CODE":0,"TOWNNAME":"中西區","LI":"大南里","LIN":"12鄰","STREET":"樹林街","SECT":"二段","MAREA":" ","LANE":" ","ALLEY":" ","HOUSE_NO":"１１７號二樓","E_COORD97":168313.92000000001,"N_COORD97":2542946.5899999999,"ADDRESS":"樹林街二段１１７號二樓","OBJECTID":539898},"geometry":{"x":168313.92000000086,"y":2542946.5900000017}},{"attributes":{"ID":539926,"DIS_CODE":0,"TOWNNAME":"中西區","LI":"大南里","LIN":"12鄰","STREET":"樹林街","SECT":"二段","MAREA":" ","LANE":" ","ALLEY":" ","HOUSE_NO":"１１７號三樓","E_COORD97":168313.92000000001,"N_COORD97":2542946.5899999999,"ADDRESS":"樹林街二段１１７號三樓","OBJECTID":539899},"geometry":{"x":168313.92000000086,"y":2542946.5900000017}},{"attributes":{"ID":539927,"DIS_CODE":0,"TOWNNAME":"中西區","LI":"大涼里","LIN":"12鄰","STREET":"金城街","SECT":" ","MAREA":" ","LANE":" ","ALLEY":" ","HOUSE_NO":"７號四樓之１","E_COORD97":167000.84,"N_COORD97":2543683.3999999999,"ADDRESS":"金城街７號四樓之１","OBJECTID":539900},"geometry":{"x":167000.84000000078,"y":2543683.4000000022}},{"attributes":{"ID":539928,"DIS_CODE":0,"TOWNNAME":"中西區","LI":"大南里","LIN":"12鄰","STREET":"樹林街","SECT":"二段","MAREA":" ","LANE":" ","ALLEY":" ","HOUSE_NO":"１１７號五樓","E_COORD97":168313.92000000001,"N_COORD97":2542946.5899999999,"ADDRESS":"樹林街二段１１７號五樓","OBJECTID":539901},"geometry":{"x":168313.92000000086,"y":2542946.5900000017}},{"attributes":{"ID":539929,"DIS_CODE":0,"TOWNNAME":"中西區","LI":"大南里","LIN":"12鄰","STREET":"樹林街","SECT":"二段","MAREA":" ","LANE":" ","ALLEY":" ","HOUSE_NO":"１１７號四樓","E_COORD97":168313.92000000001,"N_COORD97":2542946.5899999999,"ADDRESS":"樹林街二段１１７號四樓","OBJECTID":539902},"geometry":{"x":168313.92000000086,"y":2542946.5900000017}},{"attributes":{"ID":539930,"DIS_CODE":0,"TOWNNAME":"中西區","LI":"大南里","LIN":"12鄰","STREET":"樹林街","SECT":"二段","MAREA":" ","LANE":" ","ALLEY":" ","HOUSE_NO":"１１９號一樓","E_COORD97":168303.70000000001,"N_COORD97":2542948.3500000001,"ADDRESS":"樹林街二段１１９號一樓","OBJECTID":539903},"geometry":{"x":168303.70000000205,"y":2542948.3500000015}},{"attributes":{"ID":539931,"DIS_CODE":0,"TOWNNAME":"中西區","LI":"大南里","LIN":"12鄰","STREET":"樹林街","SECT":"二段","MAREA":" ","LANE":" ","ALLEY":" ","HOUSE_NO":"１１９號二樓","E_COORD97":168303.70000000001,"N_COORD97":2542948.3500000001,"ADDRESS":"樹林街二段１１９號二樓","OBJECTID":539904},"geometry":{"x":168303.70000000205,"y":2542948.3500000015}},{"attributes":{"ID":539932,"DIS_CODE":0,"TOWNNAME":"中西區","LI":"大南里","LIN":"12鄰","STREET":"樹林街","SECT":"二段","MAREA":" ","LANE":" ","ALLEY":" ","HOUSE_NO":"１１９號三樓","E_COORD97":168303.70000000001,"N_COORD97":2542948.3500000001,"ADDRESS":"樹林街二段１１９號三樓","OBJECTID":539905},"geometry":{"x":168303.70000000205,"y":2542948.3500000015}},{"attributes":{"ID":539933,"DIS_CODE":0,"TOWNNAME":"中西區","LI":"大南里","LIN":"12鄰","STREET":"樹林街","SECT":"二段","MAREA":" ","LANE":" ","ALLEY":" ","HOUSE_NO":"１１９號五樓","E_COORD97":168303.70000000001,"N_COORD97":2542948.3500000001,"ADDRESS":"樹林街二段１１９號五樓","OBJECTID":539906},"geometry":{"x":168303.70000000205,"y":2542948.3500000015}},{"attributes":{"ID":539934,"DIS_CODE":0,"TOWNNAME":"中西區","LI":"大南里","LIN":"12鄰","STREET":"樹林街","SECT":"二段","MAREA":" ","LANE":" ","ALLEY":" ","HOUSE_NO":"１１９號四樓","E_COORD97":168303.70000000001,"N_COORD97":2542948.3500000001,"ADDRESS":"樹林街二段１１９號四樓","OBJECTID":539907},"geometry":{"x":168303.70000000205,"y":2542948.3500000015}},{"attributes":{"ID":539935,"DIS_CODE":0,"TOWNNAME":"中西區","LI":"大南里","LIN":"12鄰","STREET":"樹林街","SECT":"二段","MAREA":" ","LANE":" ","ALLEY":" ","HOUSE_NO":"１２１號一樓","E_COORD97":168293.48999999999,"N_COORD97":2542949.7599999998,"ADDRESS":"樹林街二段１２１號一樓","OBJECTID":539908},"geometry":{"x":168293.49000000115,"y":2542949.7599999998}},{"attributes":{"ID":539936,"DIS_CODE":0,"TOWNNAME":"中西區","LI":"大南里","LIN":"12鄰","STREET":"樹林街","SECT":"二段","MAREA":" ","LANE":" ","ALLEY":" ","HOUSE_NO":"１２１號二樓","E_COORD97":168293.48999999999,"N_COORD97":2542949.7599999998,"ADDRESS":"樹林街二段１２１號二樓","OBJECTID":539909},"geometry":{"x":168293.49000000115,"y":2542949.7599999998}},{"attributes":{"ID":539937,"DIS_CODE":0,"TOWNNAME":"中西區","LI":"大南里","LIN":"12鄰","STREET":"樹林街","SECT":"二段","MAREA":" ","LANE":" ","ALLEY":" ","HOUSE_NO":"１２１號三樓","E_COORD97":168293.48999999999,"N_COORD97":2542949.7599999998,"ADDRESS":"樹林街二段１２１號三樓","OBJECTID":539910},"geometry":{"x":168293.49000000115,"y":2542949.7599999998}},{"attributes":{"ID":539938,"DIS_CODE":0,"TOWNNAME":"中西區","LI":"大南里","LIN":"12鄰","STREET":"樹林街","SECT":"二段","MAREA":" ","LANE":" ","ALLEY":" ","HOUSE_NO":"１２１號五樓","E_COORD97":168293.48999999999,"N_COORD97":2542949.7599999998,"ADDRESS":"樹林街二段１２１號五樓","OBJECTID":539911},"geometry":{"x":168293.49000000115,"y":2542949.7599999998}},{"attributes":{"ID":539939,"DIS_CODE":0,"TOWNNAME":"中西區","LI":"大南里","LIN":"12鄰","STREET":"樹林街","SECT":"二段","MAREA":" ","LANE":" ","ALLEY":" ","HOUSE_NO":"１２１號四樓","E_COORD97":168293.48999999999,"N_COORD97":2542949.7599999998,"ADDRESS":"樹林街二段１２１號四樓","OBJECTID":539912},"geometry":{"x":168293.49000000115,"y":2542949.7599999998}},{"attributes":{"ID":539940,"DIS_CODE":0,"TOWNNAME":"中西區","LI":"大南里","LIN":"12鄰","STREET":"樹林街","SECT":"二段","MAREA":" ","LANE":" ","ALLEY":" ","HOUSE_NO":"１２３號一樓","E_COORD97":168283.26999999999,"N_COORD97":2542951.1699999999,"ADDRESS":"樹林街二段１２３號一樓","OBJECTID":539913},"geometry":{"x":168283.26999999955,"y":2542951.1699999999}},{"attributes":{"ID":539941,"DIS_CODE":0,"TOWNNAME":"中西區","LI":"大南里","LIN":"12鄰","STREET":"樹林街","SECT":"二段","MAREA":" ","LANE":" ","ALLEY":" ","HOUSE_NO":"１２３號二樓","E_COORD97":168283.26999999999,"N_COORD97":2542951.1699999999,"ADDRESS":"樹林街二段１２３號二樓","OBJECTID":539914},"geometry":{"x":168283.26999999955,"y":2542951.1699999999}},{"attributes":{"ID":539942,"DIS_CODE":0,"TOWNNAME":"中西區","LI":"大南里","LIN":"12鄰","STREET":"樹林街","SECT":"二段","MAREA":" ","LANE":" ","ALLEY":" ","HOUSE_NO":"１２３號三樓","E_COORD97":168283.26999999999,"N_COORD97":2542951.1699999999,"ADDRESS":"樹林街二段１２３號三樓","OBJECTID":539915},"geometry":{"x":168283.26999999955,"y":2542951.1699999999}},{"attributes":{"ID":539943,"DIS_CODE":0,"TOWNNAME":"中西區","LI":"大南里","LIN":"12鄰","STREET":"樹林街","SECT":"二段","MAREA":" ","LANE":" ","ALLEY":" ","HOUSE_NO":"１２３號五樓","E_COORD97":168283.26999999999,"N_COORD97":2542951.1699999999,"ADDRESS":"樹林街二段１２３號五樓","OBJECTID":539916},"geometry":{"x":168283.26999999955,"y":2542951.1699999999}},{"attributes":{"ID":539944,"DIS_CODE":0,"TOWNNAME":"中西區","LI":"大南里","LIN":"12鄰","STREET":"樹林街","SECT":"二段","MAREA":" ","LANE":" ","ALLEY":" ","HOUSE_NO":"１２３號四樓","E_COORD97":168283.26999999999,"N_COORD97":2542951.1699999999,"ADDRESS":"樹林街二段１２３號四樓","OBJECTID":539917},"geometry":{"x":168283.26999999955,"y":2542951.1699999999}},{"attributes":{"ID":539945,"DIS_CODE":0,"TOWNNAME":"中西區","LI":"仙草里","LIN":"12鄰","STREET":"府緯街","SECT":" ","MAREA":" ","LANE":" ","ALLEY":" ","HOUSE_NO":"２４號四樓","E_COORD97":167911.72,"N_COORD97":2542727.0099999998,"ADDRESS":"府緯街２４號四樓","OBJECTID":539918},"geometry":{"x":167911.72000000067,"y":2542727.0100000016}},{"attributes":{"ID":539946,"DIS_CODE":0,"TOWNNAME":"中西區","LI":"仙草里","LIN":"12鄰","STREET":"府緯街","SECT":" ","MAREA":" ","LANE":" ","ALLEY":" ","HOUSE_NO":"２６號五樓","E_COORD97":167901.29999999999,"N_COORD97":2542727.3700000001,"ADDRESS":"府緯街２６號五樓","OBJECTID":539919},"geometry":{"x":167901.30000000075,"y":2542727.370000001}},{"attributes":{"ID":539947,"DIS_CODE":0,"TOWNNAME":"中西區","LI":"仙草里","LIN":"12鄰","STREET":"府緯街","SECT":" ","MAREA":" ","LANE":" ","ALLEY":" ","HOUSE_NO":"２４號七樓","E_COORD97":167911.72,"N_COORD97":2542727.0099999998,"ADDRESS":"府緯街２４號七樓","OBJECTID":539920},"geometry":{"x":167911.72000000067,"y":2542727.0100000016}},{"attributes":{"ID":539948,"DIS_CODE":0,"TOWNNAME":"中西區","LI":"仙草里","LIN":"12鄰","STREET":"府緯街","SECT":" ","MAREA":" ","LANE":" ","ALLEY":" ","HOUSE_NO":"２４號二樓","E_COORD97":167911.72,"N_COORD97":2542727.0099999998,"ADDRESS":"府緯街２４號二樓","OBJECTID":539921},"geometry":{"x":167911.72000000067,"y":2542727.0100000016}},{"attributes":{"ID":539949,"DIS_CODE":0,"TOWNNAME":"中西區","LI":"仙草里","LIN":"12鄰","STREET":"府緯街","SECT":" ","MAREA":" ","LANE":" ","ALLEY":" ","HOUSE_NO":"２６號七樓","E_COORD97":167901.29999999999,"N_COORD97":2542727.3700000001,"ADDRESS":"府緯街２６號七樓","OBJECTID":539922},"geometry":{"x":167901.30000000075,"y":2542727.370000001}},{"attributes":{"ID":539950,"DIS_CODE":0,"TOWNNAME":"中西區","LI":"仙草里","LIN":"12鄰","STREET":"府緯街","SECT":" ","MAREA":" ","LANE":" ","ALLEY":" ","HOUSE_NO":"２６號二樓","E_COORD97":167901.29999999999,"N_COORD97":2542727.3700000001,"ADDRESS":"府緯街２６號二樓","OBJECTID":539923},"geometry":{"x":167901.30000000075,"y":2542727.370000001}},{"attributes":{"ID":539951,"DIS_CODE":0,"TOWNNAME":"中西區","LI":"仙草里","LIN":"12鄰","STREET":"府緯街","SECT":" ","MAREA":" ","LANE":" ","ALLEY":" ","HOUSE_NO":"２６號六樓","E_COORD97":167901.29999999999,"N_COORD97":2542727.3700000001,"ADDRESS":"府緯街２６號六樓","OBJECTID":539924},"geometry":{"x":167901.30000000075,"y":2542727.370000001}},{"attributes":{"ID":539952,"DIS_CODE":0,"TOWNNAME":"中西區","LI":"仙草里","LIN":"12鄰","STREET":"府緯街","SECT":" ","MAREA":" ","LANE":" ","ALLEY":" ","HOUSE_NO":"２６號四樓","E_COORD97":167901.29999999999,"N_COORD97":2542727.3700000001,"ADDRESS":"府緯街２６號四樓","OBJECTID":539925},"geometry":{"x":167901.30000000075,"y":2542727.370000001}},{"attributes":{"ID":539953,"DIS_CODE":0,"TOWNNAME":"中西區","LI":"仙草里","LIN":"12鄰","STREET":"府緯街","SECT":" ","MAREA":" ","LANE":" ","ALLEY":" ","HOUSE_NO":"３０號七樓之１","E_COORD97":167889.67999999999,"N_COORD97":2542730.4900000002,"ADDRESS":"府緯街３０號七樓之１","OBJECTID":539926},"geometry":{"x":167889.68000000156,"y":2542730.4900000021}},{"attributes":{"ID":539954,"DIS_CODE":0,"TOWNNAME":"中西區","LI":"仙草里","LIN":"12鄰","STREET":"府緯街","SECT":" ","MAREA":" ","LANE":" ","ALLEY":" ","HOUSE_NO":"３０號七樓之２","E_COORD97":167889.67999999999,"N_COORD97":2542730.4900000002,"ADDRESS":"府緯街３０號七樓之２","OBJECTID":539927},"geometry":{"x":167889.68000000156,"y":2542730.4900000021}},{"attributes":{"ID":539955,"DIS_CODE":0,"TOWNNAME":"中西區","LI":"仙草里","LIN":"12鄰","STREET":"府緯街","SECT":" ","MAREA":" ","LANE":" ","ALLEY":" ","HOUSE_NO":"３０號七樓之３","E_COORD97":167889.67999999999,"N_COORD97":2542730.4900000002,"ADDRESS":"府緯街３０號七樓之３","OBJECTID":539928},"geometry":{"x":167889.68000000156,"y":2542730.4900000021}},{"attributes":{"ID":539956,"DIS_CODE":0,"TOWNNAME":"中西區","LI":"仙草里","LIN":"12鄰","STREET":"府緯街","SECT":" ","MAREA":" ","LANE":" ","ALLEY":" ","HOUSE_NO":"３０號三樓之２","E_COORD97":167889.67999999999,"N_COORD97":2542730.4900000002,"ADDRESS":"府緯街３０號三樓之２","OBJECTID":539929},"geometry":{"x":167889.68000000156,"y":2542730.4900000021}},{"attributes":{"ID":539957,"DIS_CODE":0,"TOWNNAME":"中西區","LI":"仙草里","LIN":"12鄰","STREET":"府緯街","SECT":" ","MAREA":" ","LANE":" ","ALLEY":" ","HOUSE_NO":"３０號三樓之３","E_COORD97":167889.67999999999,"N_COORD97":2542730.4900000002,"ADDRESS":"府緯街３０號三樓之３","OBJECTID":539930},"geometry":{"x":167889.68000000156,"y":2542730.4900000021}},{"attributes":{"ID":539958,"DIS_CODE":0,"TOWNNAME":"中西區","LI":"仙草里","LIN":"12鄰","STREET":"府緯街","SECT":" ","MAREA":" ","LANE":" ","ALLEY":" ","HOUSE_NO":"３０號三樓之４","E_COORD97":167889.67999999999,"N_COORD97":2542730.4900000002,"ADDRESS":"府緯街３０號三樓之４","OBJECTID":539931},"geometry":{"x":167889.68000000156,"y":2542730.4900000021}},{"attributes":{"ID":539959,"DIS_CODE":0,"TOWNNAME":"中西區","LI":"仙草里","LIN":"12鄰","STREET":"府緯街","SECT":" ","MAREA":" ","LANE":" ","ALLEY":" ","HOUSE_NO":"３０號五樓之１","E_COORD97":167889.67999999999,"N_COORD97":2542730.4900000002,"ADDRESS":"府緯街３０號五樓之１","OBJECTID":539932},"geometry":{"x":167889.68000000156,"y":2542730.4900000021}},{"attributes":{"ID":539960,"DIS_CODE":0,"TOWNNAME":"中西區","LI":"仙草里","LIN":"12鄰","STREET":"府緯街","SECT":" ","MAREA":" ","LANE":" ","ALLEY":" ","HOUSE_NO":"３０號五樓之２","E_COORD97":167889.67999999999,"N_COORD97":2542730.4900000002,"ADDRESS":"府緯街３０號五樓之２","OBJECTID":539933},"geometry":{"x":167889.68000000156,"y":2542730.4900000021}},{"attributes":{"ID":539961,"DIS_CODE":0,"TOWNNAME":"中西區","LI":"仙草里","LIN":"12鄰","STREET":"府緯街","SECT":" ","MAREA":" ","LANE":" ","ALLEY":" ","HOUSE_NO":"３０號五樓之３","E_COORD97":167889.67999999999,"N_COORD97":2542730.4900000002,"ADDRESS":"府緯街３０號五樓之３","OBJECTID":539934},"geometry":{"x":167889.68000000156,"y":2542730.4900000021}},{"attributes":{"ID":539962,"DIS_CODE":0,"TOWNNAME":"中西區","LI":"仙草里","LIN":"12鄰","STREET":"府緯街","SECT":" ","MAREA":" ","LANE":" ","ALLEY":" ","HOUSE_NO":"３０號五樓之４","E_COORD97":167889.67999999999,"N_COORD97":2542730.4900000002,"ADDRESS":"府緯街３０號五樓之４","OBJECTID":539935},"geometry":{"x":167889.68000000156,"y":2542730.4900000021}},{"attributes":{"ID":539963,"DIS_CODE":0,"TOWNNAME":"中西區","LI":"仙草里","LIN":"12鄰","STREET":"府緯街","SECT":" ","MAREA":" ","LANE":" ","ALLEY":" ","HOUSE_NO":"３０號六樓之１","E_COORD97":167889.67999999999,"N_COORD97":2542730.4900000002,"ADDRESS":"府緯街３０號六樓之１","OBJECTID":539936},"geometry":{"x":167889.68000000156,"y":2542730.4900000021}},{"attributes":{"ID":539964,"DIS_CODE":0,"TOWNNAME":"中西區","LI":"仙草里","LIN":"12鄰","STREET":"府緯街","SECT":" ","MAREA":" ","LANE":" ","ALLEY":" ","HOUSE_NO":"３０號六樓之２","E_COORD97":167889.67999999999,"N_COORD97":2542730.4900000002,"ADDRESS":"府緯街３０號六樓之２","OBJECTID":539937},"geometry":{"x":167889.68000000156,"y":2542730.4900000021}},{"attributes":{"ID":539965,"DIS_CODE":0,"TOWNNAME":"中西區","LI":"仙草里","LIN":"12鄰","STREET":"府緯街","SECT":" ","MAREA":" ","LANE":" ","ALLEY":" ","HOUSE_NO":"３０號六樓之３","E_COORD97":167889.67999999999,"N_COORD97":2542730.4900000002,"ADDRESS":"府緯街３０號六樓之３","OBJECTID":539938},"geometry":{"x":167889.68000000156,"y":2542730.4900000021}},{"attributes":{"ID":539966,"DIS_CODE":0,"TOWNNAME":"中西區","LI":"仙草里","LIN":"12鄰","STREET":"府緯街","SECT":" ","MAREA":" ","LANE":" ","ALLEY":" ","HOUSE_NO":"３０號六樓之４","E_COORD97":167889.67999999999,"N_COORD97":2542730.4900000002,"ADDRESS":"府緯街３０號六樓之４","OBJECTID":539939},"geometry":{"x":167889.68000000156,"y":2542730.4900000021}},{"attributes":{"ID":539967,"DIS_CODE":0,"TOWNNAME":"中西區","LI":"仙草里","LIN":"12鄰","STREET":"府緯街","SECT":" ","MAREA":" ","LANE":" ","ALLEY":" ","HOUSE_NO":"３０號四樓之１","E_COORD97":167889.67999999999,"N_COORD97":2542730.4900000002,"ADDRESS":"府緯街３０號四樓之１","OBJECTID":539940},"geometry":{"x":167889.68000000156,"y":2542730.4900000021}},{"attributes":{"ID":539968,"DIS_CODE":0,"TOWNNAME":"中西區","LI":"仙草里","LIN":"12鄰","STREET":"府緯街","SECT":" ","MAREA":" ","LANE":" ","ALLEY":" ","HOUSE_NO":"３０號四樓之２","E_COORD97":167889.67999999999,"N_COORD97":2542730.4900000002,"ADDRESS":"府緯街３０號四樓之２","OBJECTID":539941},"geometry":{"x":167889.68000000156,"y":2542730.4900000021}},{"attributes":{"ID":539969,"DIS_CODE":0,"TOWNNAME":"中西區","LI":"仙草里","LIN":"12鄰","STREET":"府緯街","SECT":" ","MAREA":" ","LANE":" ","ALLEY":" ","HOUSE_NO":"３０號四樓之３","E_COORD97":167889.67999999999,"N_COORD97":2542730.4900000002,"ADDRESS":"府緯街３０號四樓之３","OBJECTID":539942},"geometry":{"x":167889.68000000156,"y":2542730.4900000021}},{"attributes":{"ID":539970,"DIS_CODE":0,"TOWNNAME":"永康區","LI":"崑山里","LIN":"18鄰","STREET":"大灣路","SECT":" ","MAREA":" ","LANE":" ","ALLEY":" ","HOUSE_NO":"９２２號","E_COORD97":173668.35000000001,"N_COORD97":2544436.6800000002,"ADDRESS":"大灣路９２２號","OBJECTID":539943},"geometry":{"x":173668.34999999963,"y":2544436.6800000016}},{"attributes":{"ID":539971,"DIS_CODE":0,"TOWNNAME":"永康區","LI":"崑山里","LIN":"18鄰","STREET":"大灣路","SECT":" ","MAREA":" ","LANE":" ","ALLEY":" ","HOUSE_NO":"９３２號","E_COORD97":173640.19,"N_COORD97":2544430.8300000001,"ADDRESS":"大灣路９３２號","OBJECTID":539944},"geometry":{"x":173640.19000000041,"y":2544430.8300000001}},{"attributes":{"ID":539972,"DIS_CODE":0,"TOWNNAME":"中西區","LI":"開山里","LIN":"12鄰","STREET":"大同路","SECT":"一段","MAREA":" ","LANE":" ","ALLEY":" ","HOUSE_NO":"２４號七樓之１","E_COORD97":169134.79999999999,"N_COORD97":2543163.1000000001,"ADDRESS":"大同路一段２４號七樓之１","OBJECTID":539945},"geometry":{"x":169134.79999999981,"y":2543163.1000000015}},{"attributes":{"ID":539973,"DIS_CODE":0,"TOWNNAME":"中西區","LI":"開山里","LIN":"12鄰","STREET":"大同路","SECT":"一段","MAREA":" ","LANE":" ","ALLEY":" ","HOUSE_NO":"２４號七樓之２","E_COORD97":169134.79999999999,"N_COORD97":2543163.1000000001,"ADDRESS":"大同路一段２４號七樓之２","OBJECTID":539946},"geometry":{"x":169134.79999999981,"y":2543163.1000000015}},{"attributes":{"ID":539974,"DIS_CODE":0,"TOWNNAME":"中西區","LI":"開山里","LIN":"12鄰","STREET":"大同路","SECT":"一段","MAREA":" ","LANE":" ","ALLEY":" ","HOUSE_NO":"２４號七樓之３","E_COORD97":169134.79999999999,"N_COORD97":2543163.1000000001,"ADDRESS":"大同路一段２４號七樓之３","OBJECTID":539947},"geometry":{"x":169134.79999999981,"y":2543163.1000000015}},{"attributes":{"ID":539975,"DIS_CODE":0,"TOWNNAME":"中西區","LI":"開山里","LIN":"12鄰","STREET":"大同路","SECT":"一段","MAREA":" ","LANE":" ","ALLEY":" ","HOUSE_NO":"２４號七樓之４","E_COORD97":169134.79999999999,"N_COORD97":2543163.1000000001,"ADDRESS":"大同路一段２４號七樓之４","OBJECTID":539948},"geometry":{"x":169134.79999999981,"y":2543163.1000000015}},{"attributes":{"ID":539976,"DIS_CODE":0,"TOWNNAME":"中西區","LI":"開山里","LIN":"12鄰","STREET":"大同路","SECT":"一段","MAREA":" ","LANE":" ","ALLEY":" ","HOUSE_NO":"２４號七樓之５","E_COORD97":169134.79999999999,"N_COORD97":2543163.1000000001,"ADDRESS":"大同路一段２４號七樓之５","OBJECTID":539949},"geometry":{"x":169134.79999999981,"y":2543163.1000000015}},{"attributes":{"ID":539977,"DIS_CODE":0,"TOWNNAME":"永康區","LI":"埔園里","LIN":"8鄰","STREET":"中山路","SECT":" ","MAREA":" ","LANE":" ","ALLEY":" ","HOUSE_NO":"８３號","E_COORD97":173753.92999999999,"N_COORD97":2547776.25,"ADDRESS":"中山路８３號","OBJECTID":539950},"geometry":{"x":173753.93000000063,"y":2547776.2500000019}},{"attributes":{"ID":539978,"DIS_CODE":0,"TOWNNAME":"永康區","LI":"勝利里","LIN":"6鄰","STREET":"勝利街","SECT":" ","MAREA":" ","LANE":" ","ALLEY":" ","HOUSE_NO":"３號","E_COORD97":171158.22,"N_COORD97":2544563.5099999998,"ADDRESS":"勝利街３號","OBJECTID":539951},"geometry":{"x":171158.22000000067,"y":2544563.5100000016}},{"attributes":{"ID":539979,"DIS_CODE":0,"TOWNNAME":"東區","LI":"崇明里","LIN":"12鄰","STREET":"大同路","SECT":"二段","MAREA":" ","LANE":" ","ALLEY":" ","HOUSE_NO":"６１５號二十樓之２","E_COORD97":169628.17000000001,"N_COORD97":2540933.8199999998,"ADDRESS":"大同路二段６１５號二十樓之２","OBJECTID":539952},"geometry":{"x":169628.17000000086,"y":2540933.820000004}},{"attributes":{"ID":539980,"DIS_CODE":0,"TOWNNAME":"東區","LI":"龍山里","LIN":"12鄰","STREET":"長榮路","SECT":"一段","MAREA":" ","LANE":" ","ALLEY":" ","HOUSE_NO":"２５６號九樓之１","E_COORD97":169923.89000000001,"N_COORD97":2542985.9199999999,"ADDRESS":"長榮路一段２５６號九樓之１","OBJECTID":539953},"geometry":{"x":169923.88999999966,"y":2542985.9199999999}},{"attributes":{"ID":539981,"DIS_CODE":0,"TOWNNAME":"東區","LI":"崇明里","LIN":"12鄰","STREET":"大同路","SECT":"二段","MAREA":" ","LANE":" ","ALLEY":" ","HOUSE_NO":"６１５號二十樓之１","E_COORD97":169628.17000000001,"N_COORD97":2540933.8199999998,"ADDRESS":"大同路二段６１５號二十樓之１","OBJECTID":539954},"geometry":{"x":169628.17000000086,"y":2540933.820000004}},{"attributes":{"ID":539982,"DIS_CODE":0,"TOWNNAME":"中西區","LI":"大涼里","LIN":"12鄰","STREET":"金城街","SECT":" ","MAREA":" ","LANE":" ","ALLEY":" ","HOUSE_NO":"３號四樓之２","E_COORD97":167011.81,"N_COORD97":2543669.4300000002,"ADDRESS":"金城街３號四樓之２","OBJECTID":539955},"geometry":{"x":167011.80999999959,"y":2543669.4300000016}},{"attributes":{"ID":539983,"DIS_CODE":0,"TOWNNAME":"永康區","LI":"崑山里","LIN":"8鄰","STREET":"大灣路","SECT":" ","MAREA":" ","LANE":" ","ALLEY":" ","HOUSE_NO":"９５５號","E_COORD97":173392.20000000001,"N_COORD97":2544352.5,"ADDRESS":"大灣路９５５號","OBJECTID":539956},"geometry":{"x":173392.20000000019,"y":2544352.5}},{"attributes":{"ID":539984,"DIS_CODE":0,"TOWNNAME":"永康區","LI":"西橋里","LIN":"12鄰","STREET":"大橋一街","SECT":" ","MAREA":" ","LANE":" ","ALLEY":" ","HOUSE_NO":"３６號之１六樓","E_COORD97":170612.26999999999,"N_COORD97":2546211.2999999998,"ADDRESS":"大橋一街３６號之１六樓","OBJECTID":539957},"geometry":{"x":170612.26999999955,"y":2546211.3000000026}},{"attributes":{"ID":539985,"DIS_CODE":0,"TOWNNAME":"永康區","LI":"西橋里","LIN":"12鄰","STREET":"大橋一街","SECT":" ","MAREA":" ","LANE":" ","ALLEY":" ","HOUSE_NO":"４２號五樓之１","E_COORD97":170623.32000000001,"N_COORD97":2546226.7999999998,"ADDRESS":"大橋一街４２號五樓之１","OBJECTID":539958},"geometry":{"x":170623.3200000003,"y":2546226.8000000045}},{"attributes":{"ID":539986,"DIS_CODE":0,"TOWNNAME":"永康區","LI":"西橋里","LIN":"12鄰","STREET":"大橋一街","SECT":" ","MAREA":" ","LANE":" ","ALLEY":" ","HOUSE_NO":"４０號七樓之３","E_COORD97":170624.66,"N_COORD97":2546237.2999999998,"ADDRESS":"大橋一街４０號七樓之３","OBJECTID":539959},"geometry":{"x":170624.66000000201,"y":2546237.3000000026}},{"attributes":{"ID":539987,"DIS_CODE":0,"TOWNNAME":"永康區","LI":"西橋里","LIN":"12鄰","STREET":"大橋一街","SECT":" ","MAREA":" ","LANE":" ","ALLEY":" ","HOUSE_NO":"３０號之１三樓","E_COORD97":170593.78,"N_COORD97":2546200.2999999998,"ADDRESS":"大橋一街３０號之１三樓","OBJECTID":539960},"geometry":{"x":170593.78000000119,"y":2546200.3000000026}},{"attributes":{"ID":539988,"DIS_CODE":0,"TOWNNAME":"永康區","LI":"西橋里","LIN":"12鄰","STREET":"大橋一街","SECT":" ","MAREA":" ","LANE":" ","ALLEY":" ","HOUSE_NO":"４２號七樓之３","E_COORD97":170623.42000000001,"N_COORD97":2546226.7999999998,"ADDRESS":"大橋一街４２號七樓之３","OBJECTID":539961},"geometry":{"x":170623.42000000086,"y":2546226.8000000045}},{"attributes":{"ID":539989,"DIS_CODE":0,"TOWNNAME":"永康區","LI":"西橋里","LIN":"12鄰","STREET":"大橋一街","SECT":" ","MAREA":" ","LANE":" ","ALLEY":" ","HOUSE_NO":"４２號四樓之２","E_COORD97":170623.45999999999,"N_COORD97":2546226.7999999998,"ADDRESS":"大橋一街４２號四樓之２","OBJECTID":539962},"geometry":{"x":170623.45999999996,"y":2546226.8000000045}},{"attributes":{"ID":539990,"DIS_CODE":0,"TOWNNAME":"永康區","LI":"西橋里","LIN":"12鄰","STREET":"大橋一街","SECT":" ","MAREA":" ","LANE":" ","ALLEY":" ","HOUSE_NO":"４２號七樓之１","E_COORD97":170623.32000000001,"N_COORD97":2546226.7999999998,"ADDRESS":"大橋一街４２號七樓之１","OBJECTID":539963},"geometry":{"x":170623.3200000003,"y":2546226.8000000045}},{"attributes":{"ID":539991,"DIS_CODE":0,"TOWNNAME":"永康區","LI":"西橋里","LIN":"12鄰","STREET":"大橋一街","SECT":" ","MAREA":" ","LANE":" ","ALLEY":" ","HOUSE_NO":"４２號六樓之１","E_COORD97":170623.32000000001,"N_COORD97":2546226.7999999998,"ADDRESS":"大橋一街４２號六樓之１","OBJECTID":539964},"geometry":{"x":170623.3200000003,"y":2546226.8000000045}},{"attributes":{"ID":539992,"DIS_CODE":0,"TOWNNAME":"永康區","LI":"西橋里","LIN":"12鄰","STREET":"大橋一街","SECT":" ","MAREA":" ","LANE":" ","ALLEY":" ","HOUSE_NO":"４２號六樓之２","E_COORD97":170623.45999999999,"N_COORD97":2546226.7999999998,"ADDRESS":"大橋一街４２號六樓之２","OBJECTID":539965},"geometry":{"x":170623.45999999996,"y":2546226.8000000045}},{"attributes":{"ID":539993,"DIS_CODE":0,"TOWNNAME":"永康區","LI":"埔園里","LIN":"18鄰","STREET":"四維街","SECT":" ","MAREA":" ","LANE":" ","ALLEY":" ","HOUSE_NO":"１５８號","E_COORD97":173311.23000000001,"N_COORD97":2548373.7599999998,"ADDRESS":"四維街１５８號","OBJECTID":539966},"geometry":{"x":173311.22999999952,"y":2548373.7600000016}},{"attributes":{"ID":539994,"DIS_CODE":0,"TOWNNAME":"永康區","LI":"西橋里","LIN":"12鄰","STREET":"大橋一街","SECT":" ","MAREA":" ","LANE":" ","ALLEY":" ","HOUSE_NO":"４０號九樓之１","E_COORD97":170624.56,"N_COORD97":2546237.2999999998,"ADDRESS":"大橋一街４０號九樓之１","OBJECTID":539967},"geometry":{"x":170624.55999999959,"y":2546237.3000000026}},{"attributes":{"ID":539995,"DIS_CODE":0,"TOWNNAME":"永康區","LI":"西橋里","LIN":"12鄰","STREET":"大橋一街","SECT":" ","MAREA":" ","LANE":" ","ALLEY":" ","HOUSE_NO":"４２號二樓","E_COORD97":170621.19,"N_COORD97":2546226.7599999998,"ADDRESS":"大橋一街４２號二樓","OBJECTID":539968},"geometry":{"x":170621.18999999948,"y":2546226.7600000016}},{"attributes":{"ID":539996,"DIS_CODE":0,"TOWNNAME":"永康區","LI":"西橋里","LIN":"12鄰","STREET":"大橋一街","SECT":" ","MAREA":" ","LANE":" ","ALLEY":" ","HOUSE_NO":"４２號四樓之３","E_COORD97":170623.42000000001,"N_COORD97":2546226.7999999998,"ADDRESS":"大橋一街４２號四樓之３","OBJECTID":539969},"geometry":{"x":170623.42000000086,"y":2546226.8000000045}},{"attributes":{"ID":539997,"DIS_CODE":0,"TOWNNAME":"永康區","LI":"西橋里","LIN":"12鄰","STREET":"大橋一街","SECT":" ","MAREA":" ","LANE":" ","ALLEY":" ","HOUSE_NO":"４２號八樓之３","E_COORD97":170623.42000000001,"N_COORD97":2546226.7999999998,"ADDRESS":"大橋一街４２號八樓之３","OBJECTID":539970},"geometry":{"x":170623.42000000086,"y":2546226.8000000045}},{"attributes":{"ID":539998,"DIS_CODE":0,"TOWNNAME":"永康區","LI":"西橋里","LIN":"12鄰","STREET":"大橋一街","SECT":" ","MAREA":" ","LANE":" ","ALLEY":" ","HOUSE_NO":"４２號九樓之３","E_COORD97":170623.42000000001,"N_COORD97":2546226.7999999998,"ADDRESS":"大橋一街４２號九樓之３","OBJECTID":539971},"geometry":{"x":170623.42000000086,"y":2546226.8000000045}},{"attributes":{"ID":539999,"DIS_CODE":0,"TOWNNAME":"永康區","LI":"西橋里","LIN":"12鄰","STREET":"大橋一街","SECT":" ","MAREA":" ","LANE":" ","ALLEY":" ","HOUSE_NO":"３０號一樓","E_COORD97":170585.87,"N_COORD97":2546211.2599999998,"ADDRESS":"大橋一街３０號一樓","OBJECTID":539972},"geometry":{"x":170585.87000000197,"y":2546211.2599999998}},{"attributes":{"ID":540000,"DIS_CODE":0,"TOWNNAME":"永康區","LI":"西橋里","LIN":"12鄰","STREET":"大橋一街","SECT":" ","MAREA":" ","LANE":" ","ALLEY":" ","HOUSE_NO":"３０號之２三樓","E_COORD97":170600.01999999999,"N_COORD97":2546204.0499999998,"ADDRESS":"大橋一街３０號之２三樓","OBJECTID":539973},"geometry":{"x":170600.02000000048,"y":2546204.0500000007}},{"attributes":{"ID":540001,"DIS_CODE":0,"TOWNNAME":"永康區","LI":"西橋里","LIN":"12鄰","STREET":"大橋一街","SECT":" ","MAREA":" ","LANE":" ","ALLEY":" ","HOUSE_NO":"３６之２號一樓","E_COORD97":170606.12,"N_COORD97":2546207.5499999998,"ADDRESS":"大橋一街３６之２號一樓","OBJECTID":539974},"geometry":{"x":170606.11999999918,"y":2546207.5500000007}},{"attributes":{"ID":540002,"DIS_CODE":0,"TOWNNAME":"永康區","LI":"西橋里","LIN":"12鄰","STREET":"大橋一街","SECT":" ","MAREA":" ","LANE":" ","ALLEY":" ","HOUSE_NO":"３６號之２四樓","E_COORD97":170606.12,"N_COORD97":2546207.5499999998,"ADDRESS":"大橋一街３６號之２四樓","OBJECTID":539975},"geometry":{"x":170606.11999999918,"y":2546207.5500000007}},{"attributes":{"ID":540003,"DIS_CODE":0,"TOWNNAME":"中西區","LI":"開山里","LIN":"12鄰","STREET":"大同路","SECT":"一段","MAREA":" ","LANE":" ","ALLEY":" ","HOUSE_NO":"２４號六樓之２","E_COORD97":169134.79999999999,"N_COORD97":2543163.1000000001,"ADDRESS":"大同路一段２４號六樓之２","OBJECTID":539976},"geometry":{"x":169134.79999999981,"y":2543163.1000000015}},{"attributes":{"ID":540004,"DIS_CODE":0,"TOWNNAME":"永康區","LI":"崑山里","LIN":"11鄰","STREET":"大灣路","SECT":" ","MAREA":" ","LANE":" ","ALLEY":" ","HOUSE_NO":"１０３８號","E_COORD97":173393.76999999999,"N_COORD97":2544379.1699999999,"ADDRESS":"大灣路１０３８號","OBJECTID":539977},"geometry":{"x":173393.77000000048,"y":2544379.1700000037}},{"attributes":{"ID":540005,"DIS_CODE":0,"TOWNNAME":"永康區","LI":"勝利里","LIN":"41鄰","STREET":"中華路","SECT":" ","MAREA":" ","LANE":" ","ALLEY":" ","HOUSE_NO":"２４１號","E_COORD97":171597.64999999999,"N_COORD97":2545110.4900000002,"ADDRESS":"中華路２４１號","OBJECTID":539978},"geometry":{"x":171597.65000000037,"y":2545110.4900000021}},{"attributes":{"ID":540006,"DIS_CODE":0,"TOWNNAME":"永康區","LI":"崑山里","LIN":"7鄰","STREET":"大灣路","SECT":" ","MAREA":" ","LANE":" ","ALLEY":" ","HOUSE_NO":"９２７號","E_COORD97":173520.39999999999,"N_COORD97":2544352.29,"ADDRESS":"大灣路９２７號","OBJECTID":539979},"geometry":{"x":173520.40000000224,"y":2544352.2899999991}},{"attributes":{"ID":540007,"DIS_CODE":0,"TOWNNAME":"東區","LI":"德光里","LIN":"12鄰","STREET":"崇學路","SECT":" ","MAREA":" ","LANE":" ","ALLEY":" ","HOUSE_NO":"１６９號五樓","E_COORD97":170374.54000000001,"N_COORD97":2542302.75,"ADDRESS":"崇學路１６９號五樓","OBJECTID":539980},"geometry":{"x":170374.5400000019,"y":2542302.75}},{"attributes":{"ID":540008,"DIS_CODE":0,"TOWNNAME":"東區","LI":"德光里","LIN":"12鄰","STREET":"崇學路","SECT":" ","MAREA":" ","LANE":" ","ALLEY":" ","HOUSE_NO":"１７１號二樓","E_COORD97":170382.82999999999,"N_COORD97":2542311.1000000001,"ADDRESS":"崇學路１７１號二樓","OBJECTID":539981},"geometry":{"x":170382.83000000101,"y":2542311.1000000034}},{"attributes":{"ID":540009,"DIS_CODE":0,"TOWNNAME":"東區","LI":"德光里","LIN":"12鄰","STREET":"崇學路","SECT":" ","MAREA":" ","LANE":" ","ALLEY":" ","HOUSE_NO":"１７１號三樓","E_COORD97":170382.82999999999,"N_COORD97":2542311.1000000001,"ADDRESS":"崇學路１７１號三樓","OBJECTID":539982},"geometry":{"x":170382.83000000101,"y":2542311.1000000034}},{"attributes":{"ID":540010,"DIS_CODE":0,"TOWNNAME":"東區","LI":"德光里","LIN":"12鄰","STREET":"崇學路","SECT":" ","MAREA":" ","LANE":" ","ALLEY":" ","HOUSE_NO":"１７１號四樓","E_COORD97":170382.82999999999,"N_COORD97":2542311.1000000001,"ADDRESS":"崇學路１７１號四樓","OBJECTID":539983},"geometry":{"x":170382.83000000101,"y":2542311.1000000034}},{"attributes":{"ID":540011,"DIS_CODE":0,"TOWNNAME":"東區","LI":"德光里","LIN":"12鄰","STREET":"崇學路","SECT":" ","MAREA":" ","LANE":" ","ALLEY":" ","HOUSE_NO":"１７１號五樓","E_COORD97":170382.82999999999,"N_COORD97":2542311.1000000001,"ADDRESS":"崇學路１７１號五樓","OBJECTID":539984},"geometry":{"x":170382.83000000101,"y":2542311.1000000034}},{"attributes":{"ID":540012,"DIS_CODE":0,"TOWNNAME":"南區","LI":"新昌里","LIN":"12鄰","STREET":"南寧街","SECT":" ","MAREA":" ","LANE":" ","ALLEY":" ","HOUSE_NO":"１１７號二樓","E_COORD97":167662.48999999999,"N_COORD97":2542846.5099999998,"ADDRESS":"南寧街１１７號二樓","OBJECTID":539985},"geometry":{"x":167662.49000000022,"y":2542846.5099999998}},{"attributes":{"ID":540013,"DIS_CODE":0,"TOWNNAME":"中西區","LI":"開山里","LIN":"12鄰","STREET":"大同路","SECT":"一段","MAREA":" ","LANE":" ","ALLEY":" ","HOUSE_NO":"２４號七樓之７","E_COORD97":169134.79999999999,"N_COORD97":2543163.1000000001,"ADDRESS":"大同路一段２４號七樓之７","OBJECTID":539986},"geometry":{"x":169134.79999999981,"y":2543163.1000000015}},{"attributes":{"ID":540014,"DIS_CODE":0,"TOWNNAME":"中西區","LI":"開山里","LIN":"12鄰","STREET":"大同路","SECT":"一段","MAREA":" ","LANE":" ","ALLEY":" ","HOUSE_NO":"２４號二樓","E_COORD97":169134.79999999999,"N_COORD97":2543163.1000000001,"ADDRESS":"大同路一段２４號二樓","OBJECTID":539987},"geometry":{"x":169134.79999999981,"y":2543163.1000000015}},{"attributes":{"ID":540015,"DIS_CODE":0,"TOWNNAME":"中西區","LI":"開山里","LIN":"12鄰","STREET":"大同路","SECT":"一段","MAREA":" ","LANE":" ","ALLEY":" ","HOUSE_NO":"２４號三樓","E_COORD97":169134.79999999999,"N_COORD97":2543163.1000000001,"ADDRESS":"大同路一段２４號三樓","OBJECTID":539988},"geometry":{"x":169134.79999999981,"y":2543163.1000000015}},{"attributes":{"ID":540016,"DIS_CODE":0,"TOWNNAME":"中西區","LI":"大涼里","LIN":"12鄰","STREET":"金城街","SECT":" ","MAREA":" ","LANE":" ","ALLEY":" ","HOUSE_NO":"５號三樓之２","E_COORD97":167000.48000000001,"N_COORD97":2543669.2599999998,"ADDRESS":"金城街５號三樓之２","OBJECTID":539989},"geometry":{"x":167000.48000000138,"y":2543669.2599999998}},{"attributes":{"ID":540017,"DIS_CODE":0,"TOWNNAME":"中西區","LI":"開山里","LIN":"12鄰","STREET":"大同路","SECT":"一段","MAREA":" ","LANE":" ","ALLEY":" ","HOUSE_NO":"２４號五樓之１","E_COORD97":169134.79999999999,"N_COORD97":2543163.1000000001,"ADDRESS":"大同路一段２４號五樓之１","OBJECTID":539990},"geometry":{"x":169134.79999999981,"y":2543163.1000000015}},{"attributes":{"ID":540018,"DIS_CODE":0,"TOWNNAME":"中西區","LI":"開山里","LIN":"12鄰","STREET":"大同路","SECT":"一段","MAREA":" ","LANE":" ","ALLEY":" ","HOUSE_NO":"２４號五樓之２","E_COORD97":169134.79999999999,"N_COORD97":2543163.1000000001,"ADDRESS":"大同路一段２４號五樓之２","OBJECTID":539991},"geometry":{"x":169134.79999999981,"y":2543163.1000000015}},{"attributes":{"ID":540019,"DIS_CODE":0,"TOWNNAME":"中西區","LI":"開山里","LIN":"12鄰","STREET":"大同路","SECT":"一段","MAREA":" ","LANE":" ","ALLEY":" ","HOUSE_NO":"２４號五樓之３","E_COORD97":169134.79999999999,"N_COORD97":2543163.1000000001,"ADDRESS":"大同路一段２４號五樓之３","OBJECTID":539992},"geometry":{"x":169134.79999999981,"y":2543163.1000000015}},{"attributes":{"ID":540020,"DIS_CODE":0,"TOWNNAME":"中西區","LI":"開山里","LIN":"12鄰","STREET":"大同路","SECT":"一段","MAREA":" ","LANE":" ","ALLEY":" ","HOUSE_NO":"２４號五樓之４","E_COORD97":169134.79999999999,"N_COORD97":2543163.1000000001,"ADDRESS":"大同路一段２４號五樓之４","OBJECTID":539993},"geometry":{"x":169134.79999999981,"y":2543163.1000000015}},{"attributes":{"ID":540021,"DIS_CODE":0,"TOWNNAME":"中西區","LI":"開山里","LIN":"12鄰","STREET":"大同路","SECT":"一段","MAREA":" ","LANE":" ","ALLEY":" ","HOUSE_NO":"２４號五樓之５","E_COORD97":169134.79999999999,"N_COORD97":2543163.1000000001,"ADDRESS":"大同路一段２４號五樓之５","OBJECTID":539994},"geometry":{"x":169134.79999999981,"y":2543163.1000000015}},{"attributes":{"ID":540022,"DIS_CODE":0,"TOWNNAME":"中西區","LI":"開山里","LIN":"12鄰","STREET":"大同路","SECT":"一段","MAREA":" ","LANE":" ","ALLEY":" ","HOUSE_NO":"２４號五樓之６","E_COORD97":169134.79999999999,"N_COORD97":2543163.1000000001,"ADDRESS":"大同路一段２４號五樓之６","OBJECTID":539995},"geometry":{"x":169134.79999999981,"y":2543163.1000000015}},{"attributes":{"ID":540023,"DIS_CODE":0,"TOWNNAME":"中西區","LI":"開山里","LIN":"12鄰","STREET":"大同路","SECT":"一段","MAREA":" ","LANE":" ","ALLEY":" ","HOUSE_NO":"２４號五樓之７","E_COORD97":169134.79999999999,"N_COORD97":2543163.1000000001,"ADDRESS":"大同路一段２４號五樓之７","OBJECTID":539996},"geometry":{"x":169134.79999999981,"y":2543163.1000000015}},{"attributes":{"ID":540024,"DIS_CODE":0,"TOWNNAME":"中西區","LI":"開山里","LIN":"12鄰","STREET":"大同路","SECT":"一段","MAREA":" ","LANE":" ","ALLEY":" ","HOUSE_NO":"２４號五樓之８","E_COORD97":169134.79999999999,"N_COORD97":2543163.1000000001,"ADDRESS":"大同路一段２４號五樓之８","OBJECTID":539997},"geometry":{"x":169134.79999999981,"y":2543163.1000000015}},{"attributes":{"ID":540025,"DIS_CODE":0,"TOWNNAME":"中西區","LI":"開山里","LIN":"12鄰","STREET":"大同路","SECT":"一段","MAREA":" ","LANE":" ","ALLEY":" ","HOUSE_NO":"２４號六樓之１","E_COORD97":169134.79999999999,"N_COORD97":2543163.1000000001,"ADDRESS":"大同路一段２４號六樓之１","OBJECTID":539998},"geometry":{"x":169134.79999999981,"y":2543163.1000000015}},{"attributes":{"ID":540026,"DIS_CODE":0,"TOWNNAME":"中西區","LI":"開山里","LIN":"12鄰","STREET":"大同路","SECT":"一段","MAREA":" ","LANE":" ","ALLEY":" ","HOUSE_NO":"２４號六樓之３","E_COORD97":169134.79999999999,"N_COORD97":2543163.1000000001,"ADDRESS":"大同路一段２４號六樓之３","OBJECTID":539999},"geometry":{"x":169134.79999999981,"y":2543163.1000000015}},{"attributes":{"ID":540027,"DIS_CODE":0,"TOWNNAME":"中西區","LI":"開山里","LIN":"12鄰","STREET":"大同路","SECT":"一段","MAREA":" ","LANE":" ","ALLEY":" ","HOUSE_NO":"２４號六樓之４","E_COORD97":169134.79999999999,"N_COORD97":2543163.1000000001,"ADDRESS":"大同路一段２４號六樓之４","OBJECTID":540000},"geometry":{"x":169134.79999999981,"y":2543163.1000000015}}]}