{"displayFieldName":"TOWNNAME","fieldAliases":{"ID":"ID","DIS_CODE":"DIS_CODE","TOWNNAME":"TOWNNAME","LI":"LI","LIN":"LIN","STREET":"STREET","SECT":"SECT","MAREA":"MAREA","LANE":"LANE","ALLEY":"ALLEY","HOUSE_NO":"HOUSE_NO","E_COORD97":"E_COORD97","N_COORD97":"N_COORD97","ADDRESS":"ADDRESS","OBJECTID":"OBJECTID"},"geometryType":"esriGeometryPoint","spatialReference":{"wkid":102443,"latestWkid":3826},"fields":[{"name":"ID","type":"esriFieldTypeDouble","alias":"ID"},{"name":"DIS_CODE","type":"esriFieldTypeInteger","alias":"DIS_CODE"},{"name":"TOWNNAME","type":"esriFieldTypeString","alias":"TOWNNAME","length":8},{"name":"LI","type":"esriFieldTypeString","alias":"LI","length":8},{"name":"LIN","type":"esriFieldTypeString","alias":"LIN","length":12},{"name":"STREET","type":"esriFieldTypeString","alias":"STREET","length":20},{"name":"SECT","type":"esriFieldTypeString","alias":"SECT","length":8},{"name":"MAREA","type":"esriFieldTypeString","alias":"MAREA","length":12},{"name":"LANE","type":"esriFieldTypeString","alias":"LANE","length":10},{"name":"ALLEY","type":"esriFieldTypeString","alias":"ALLEY","length":10},{"name":"HOUSE_NO","type":"esriFieldTypeString","alias":"HOUSE_NO","length":20},{"name":"E_COORD97","type":"esriFieldTypeDouble","alias":"E_COORD97"},{"name":"N_COORD97","type":"esriFieldTypeDouble","alias":"N_COORD97"},{"name":"ADDRESS","type":"esriFieldTypeString","alias":"ADDRESS","length":50},{"name":"OBJECTID","type":"esriFieldTypeOID","alias":"OBJECTID"}],"features":[{"attributes":{"ID":141601,"DIS_CODE":0,"TOWNNAME":"仁德區","LI":"仁義里","LIN":"22鄰","STREET":"中山路","SECT":" ","MAREA":" ","LANE":"３９６巷","ALLEY":"７弄","HOUSE_NO":"４號","E_COORD97":173770.69,"N_COORD97":2541342.5,"ADDRESS":"中山路３９６巷７弄４號","OBJECTID":141601},"geometry":{"x":173770.69000000041,"y":2541342.5000000037}},{"attributes":{"ID":141602,"DIS_CODE":0,"TOWNNAME":"東山區","LI":"東中里","LIN":" ","STREET":" ","SECT":" ","MAREA":"東山市場","LANE":" ","ALLEY":" ","HOUSE_NO":"５９號","E_COORD97":188944.73999999999,"N_COORD97":2580193.3399999999,"ADDRESS":"東山市場５９號","OBJECTID":141602},"geometry":{"x":188944.74000000115,"y":2580193.3399999999}},{"attributes":{"ID":141603,"DIS_CODE":0,"TOWNNAME":"仁德區","LI":"上崙里","LIN":"22鄰","STREET":"德崙路","SECT":" ","MAREA":" ","LANE":"１９６巷","ALLEY":"２１弄","HOUSE_NO":"２１號","E_COORD97":173670.53,"N_COORD97":2538216.8999999999,"ADDRESS":"德崙路１９６巷２１弄２１號","OBJECTID":141603},"geometry":{"x":173670.53000000119,"y":2538216.9000000004}},{"attributes":{"ID":141604,"DIS_CODE":0,"TOWNNAME":"仁德區","LI":"二行里","LIN":"22鄰","STREET":"行大街","SECT":" ","MAREA":" ","LANE":"５６巷","ALLEY":"３弄","HOUSE_NO":"１０號","E_COORD97":170198.37,"N_COORD97":2535246.5,"ADDRESS":"行大街５６巷３弄１０號","OBJECTID":141604},"geometry":{"x":170198.37000000104,"y":2535246.5000000037}},{"attributes":{"ID":141605,"DIS_CODE":0,"TOWNNAME":"仁德區","LI":"上崙里","LIN":"22鄰","STREET":"德崙路","SECT":" ","MAREA":" ","LANE":"１９６巷","ALLEY":"２１弄","HOUSE_NO":"１２號","E_COORD97":173622.23000000001,"N_COORD97":2538231.1499999999,"ADDRESS":"德崙路１９６巷２１弄１２號","OBJECTID":141605},"geometry":{"x":173622.23000000138,"y":2538231.1500000022}},{"attributes":{"ID":141606,"DIS_CODE":0,"TOWNNAME":"仁德區","LI":"二行里","LIN":"22鄰","STREET":"行大街","SECT":" ","MAREA":" ","LANE":"５６巷","ALLEY":"３弄","HOUSE_NO":"１４號","E_COORD97":170186.38,"N_COORD97":2535266.75,"ADDRESS":"行大街５６巷３弄１４號","OBJECTID":141606},"geometry":{"x":170186.37999999989,"y":2535266.7500000019}},{"attributes":{"ID":141607,"DIS_CODE":0,"TOWNNAME":"仁德區","LI":"上崙里","LIN":"22鄰","STREET":"德崙路","SECT":" ","MAREA":" ","LANE":"１９６巷","ALLEY":"２１弄","HOUSE_NO":"９號","E_COORD97":173649.56,"N_COORD97":2538232.6600000001,"ADDRESS":"德崙路１９６巷２１弄９號","OBJECTID":141607},"geometry":{"x":173649.56000000052,"y":2538232.6600000039}},{"attributes":{"ID":141608,"DIS_CODE":0,"TOWNNAME":"仁德區","LI":"上崙里","LIN":"22鄰","STREET":"德崙路","SECT":" ","MAREA":" ","LANE":"１９６巷","ALLEY":"２１弄","HOUSE_NO":"１９號","E_COORD97":173667.37,"N_COORD97":2538219.6499999999,"ADDRESS":"德崙路１９６巷２１弄１９號","OBJECTID":141608},"geometry":{"x":173667.37000000011,"y":2538219.6500000022}},{"attributes":{"ID":141609,"DIS_CODE":0,"TOWNNAME":"東山區","LI":"東中里","LIN":" ","STREET":" ","SECT":" ","MAREA":"東山市場","LANE":" ","ALLEY":" ","HOUSE_NO":"６６號","E_COORD97":188945.07000000001,"N_COORD97":2580182.0699999998,"ADDRESS":"東山市場６６號","OBJECTID":141609},"geometry":{"x":188945.0700000003,"y":2580182.0700000003}},{"attributes":{"ID":141610,"DIS_CODE":0,"TOWNNAME":"安南區","LI":"溪北里","LIN":"16鄰","STREET":"府安路","SECT":"四段","MAREA":" ","LANE":"９１巷","ALLEY":"８弄","HOUSE_NO":"１６號","E_COORD97":169189.54000000001,"N_COORD97":2547313.2799999998,"ADDRESS":"府安路四段９１巷８弄１６號","OBJECTID":141610},"geometry":{"x":169189.5400000019,"y":2547313.2799999993}},{"attributes":{"ID":141611,"DIS_CODE":0,"TOWNNAME":"東山區","LI":"東正里","LIN":" ","STREET":" ","SECT":" ","MAREA":"東勢","LANE":" ","ALLEY":" ","HOUSE_NO":"１１８之１號","E_COORD97":189194.60000000001,"N_COORD97":2580349.1899999999,"ADDRESS":"東勢１１８之１號","OBJECTID":141611},"geometry":{"x":189194.59999999963,"y":2580349.1899999995}},{"attributes":{"ID":141612,"DIS_CODE":0,"TOWNNAME":"東山區","LI":"東正里","LIN":" ","STREET":" ","SECT":" ","MAREA":"東勢","LANE":" ","ALLEY":" ","HOUSE_NO":"１３７號","E_COORD97":189312.67000000001,"N_COORD97":2580314.8700000001,"ADDRESS":"東勢１３７號","OBJECTID":141612},"geometry":{"x":189312.67000000086,"y":2580314.8700000029}},{"attributes":{"ID":141613,"DIS_CODE":0,"TOWNNAME":"東山區","LI":"東正里","LIN":" ","STREET":" ","SECT":" ","MAREA":"東勢","LANE":" ","ALLEY":" ","HOUSE_NO":"１３９之１號","E_COORD97":189322.5,"N_COORD97":2580311.5299999998,"ADDRESS":"東勢１３９之１號","OBJECTID":141613},"geometry":{"x":189322.50000000093,"y":2580311.5300000012}},{"attributes":{"ID":141614,"DIS_CODE":0,"TOWNNAME":"安南區","LI":"溪北里","LIN":"16鄰","STREET":"府安路","SECT":"四段","MAREA":" ","LANE":"９１巷","ALLEY":"８弄","HOUSE_NO":"１８號","E_COORD97":169199.07999999999,"N_COORD97":2547314.73,"ADDRESS":"府安路四段９１巷８弄１８號","OBJECTID":141614},"geometry":{"x":169199.08000000007,"y":2547314.7300000004}},{"attributes":{"ID":141615,"DIS_CODE":0,"TOWNNAME":"安南區","LI":"溪北里","LIN":"16鄰","STREET":"府安路","SECT":"四段","MAREA":" ","LANE":"９１巷","ALLEY":"８弄","HOUSE_NO":"２４號","E_COORD97":169221.42000000001,"N_COORD97":2547314.7999999998,"ADDRESS":"府安路四段９１巷８弄２４號","OBJECTID":141615},"geometry":{"x":169221.42000000086,"y":2547314.7999999989}},{"attributes":{"ID":141616,"DIS_CODE":0,"TOWNNAME":"安南區","LI":"溪北里","LIN":"16鄰","STREET":"府安路","SECT":"四段","MAREA":" ","LANE":"９１巷","ALLEY":"８弄","HOUSE_NO":"２８號","E_COORD97":169228.26000000001,"N_COORD97":2547324.8599999999,"ADDRESS":"府安路四段９１巷８弄２８號","OBJECTID":141616},"geometry":{"x":169228.25999999978,"y":2547324.8600000013}},{"attributes":{"ID":141617,"DIS_CODE":0,"TOWNNAME":"東山區","LI":"東正里","LIN":" ","STREET":" ","SECT":" ","MAREA":"東勢","LANE":" ","ALLEY":" ","HOUSE_NO":"１４０號","E_COORD97":189343.76000000001,"N_COORD97":2580305.9900000002,"ADDRESS":"東勢１４０號","OBJECTID":141617},"geometry":{"x":189343.76000000071,"y":2580305.9900000021}},{"attributes":{"ID":141618,"DIS_CODE":0,"TOWNNAME":"東山區","LI":"東正里","LIN":" ","STREET":" ","SECT":" ","MAREA":"東勢","LANE":" ","ALLEY":" ","HOUSE_NO":"１４１號","E_COORD97":189377.20999999999,"N_COORD97":2580322.3100000001,"ADDRESS":"東勢１４１號","OBJECTID":141618},"geometry":{"x":189377.20999999996,"y":2580322.3100000005}},{"attributes":{"ID":141619,"DIS_CODE":0,"TOWNNAME":"東山區","LI":"東正里","LIN":" ","STREET":" ","SECT":" ","MAREA":"東勢","LANE":" ","ALLEY":" ","HOUSE_NO":"１５９之１號","E_COORD97":189357.81,"N_COORD97":2580390.9199999999,"ADDRESS":"東勢１５９之１號","OBJECTID":141619},"geometry":{"x":189357.80999999959,"y":2580390.9200000018}},{"attributes":{"ID":141620,"DIS_CODE":0,"TOWNNAME":"東山區","LI":"東正里","LIN":" ","STREET":" ","SECT":" ","MAREA":"東勢","LANE":" ","ALLEY":" ","HOUSE_NO":"１６２之２號","E_COORD97":189486.82999999999,"N_COORD97":2580591.0299999998,"ADDRESS":"東勢１６２之２號","OBJECTID":141620},"geometry":{"x":189486.83000000007,"y":2580591.0299999993}},{"attributes":{"ID":141621,"DIS_CODE":0,"TOWNNAME":"東山區","LI":"東正里","LIN":" ","STREET":" ","SECT":" ","MAREA":"東勢","LANE":" ","ALLEY":" ","HOUSE_NO":"１７３之２號","E_COORD97":189181.14000000001,"N_COORD97":2580472.6699999999,"ADDRESS":"東勢１７３之２號","OBJECTID":141621},"geometry":{"x":189181.13999999966,"y":2580472.6699999999}},{"attributes":{"ID":141622,"DIS_CODE":0,"TOWNNAME":"東山區","LI":"東正里","LIN":" ","STREET":" ","SECT":" ","MAREA":"東勢","LANE":" ","ALLEY":" ","HOUSE_NO":"１７８號","E_COORD97":189211.84,"N_COORD97":2580538,"ADDRESS":"東勢１７８號","OBJECTID":141622},"geometry":{"x":189211.83999999985,"y":2580538}},{"attributes":{"ID":141623,"DIS_CODE":0,"TOWNNAME":"東山區","LI":"東正里","LIN":" ","STREET":" ","SECT":" ","MAREA":"東勢","LANE":" ","ALLEY":" ","HOUSE_NO":"１８３之５號","E_COORD97":189242.20999999999,"N_COORD97":2580610.3500000001,"ADDRESS":"東勢１８３之５號","OBJECTID":141623},"geometry":{"x":189242.20999999996,"y":2580610.3500000034}},{"attributes":{"ID":141624,"DIS_CODE":0,"TOWNNAME":"東區","LI":"東光里","LIN":"33鄰","STREET":"東興路","SECT":" ","MAREA":" ","LANE":" ","ALLEY":" ","HOUSE_NO":"２２６號","E_COORD97":171076.14999999999,"N_COORD97":2543882.4100000001,"ADDRESS":"東興路２２６號","OBJECTID":141624},"geometry":{"x":171076.1500000013,"y":2543882.4099999983}},{"attributes":{"ID":141625,"DIS_CODE":0,"TOWNNAME":"東區","LI":"東光里","LIN":"33鄰","STREET":"東興路","SECT":" ","MAREA":" ","LANE":" ","ALLEY":" ","HOUSE_NO":"２２８號","E_COORD97":171063.41,"N_COORD97":2543885.1600000001,"ADDRESS":"東興路２２８號","OBJECTID":141625},"geometry":{"x":171063.41000000015,"y":2543885.160000002}},{"attributes":{"ID":141626,"DIS_CODE":0,"TOWNNAME":"東區","LI":"東光里","LIN":"33鄰","STREET":"東興路","SECT":" ","MAREA":" ","LANE":" ","ALLEY":" ","HOUSE_NO":"２３０號","E_COORD97":171050.09,"N_COORD97":2543885.8799999999,"ADDRESS":"東興路２３０號","OBJECTID":141626},"geometry":{"x":171050.08999999985,"y":2543885.8800000008}},{"attributes":{"ID":141627,"DIS_CODE":0,"TOWNNAME":"東區","LI":"東光里","LIN":"33鄰","STREET":"東興路","SECT":" ","MAREA":" ","LANE":" ","ALLEY":" ","HOUSE_NO":"２３２號","E_COORD97":171038.07999999999,"N_COORD97":2543888.2000000002,"ADDRESS":"東興路２３２號","OBJECTID":141627},"geometry":{"x":171038.08000000007,"y":2543888.1999999993}},{"attributes":{"ID":141628,"DIS_CODE":0,"TOWNNAME":"安南區","LI":"溪北里","LIN":"16鄰","STREET":"府安路","SECT":"四段","MAREA":" ","LANE":"９１巷","ALLEY":"８弄","HOUSE_NO":"３０號","E_COORD97":169232.35000000001,"N_COORD97":2547321.46,"ADDRESS":"府安路四段９１巷８弄３０號","OBJECTID":141628},"geometry":{"x":169232.34999999963,"y":2547321.4600000028}},{"attributes":{"ID":141629,"DIS_CODE":0,"TOWNNAME":"安南區","LI":"溪北里","LIN":"16鄰","STREET":"府安路","SECT":"四段","MAREA":" ","LANE":"９１巷","ALLEY":"８弄","HOUSE_NO":"３２號","E_COORD97":169235.34,"N_COORD97":2547314.7799999998,"ADDRESS":"府安路四段９１巷８弄３２號","OBJECTID":141629},"geometry":{"x":169235.34000000078,"y":2547314.7800000012}},{"attributes":{"ID":141630,"DIS_CODE":0,"TOWNNAME":"東區","LI":"東光里","LIN":"33鄰","STREET":"東興路","SECT":" ","MAREA":" ","LANE":" ","ALLEY":" ","HOUSE_NO":"２３４號","E_COORD97":171033.45000000001,"N_COORD97":2543893.1099999999,"ADDRESS":"東興路２３４號","OBJECTID":141630},"geometry":{"x":171033.45000000112,"y":2543893.1099999994}},{"attributes":{"ID":141631,"DIS_CODE":0,"TOWNNAME":"永康區","LI":"復國里","LIN":"33鄰","STREET":"復華一街","SECT":" ","MAREA":" ","LANE":" ","ALLEY":" ","HOUSE_NO":"１０８號","E_COORD97":172456.70000000001,"N_COORD97":2545090.5899999999,"ADDRESS":"復華一街１０８號","OBJECTID":141631},"geometry":{"x":172456.70000000019,"y":2545090.5899999999}},{"attributes":{"ID":141632,"DIS_CODE":0,"TOWNNAME":"安南區","LI":"溪北里","LIN":"16鄰","STREET":"府安路","SECT":"四段","MAREA":" ","LANE":"９１巷","ALLEY":"８弄","HOUSE_NO":"３４號","E_COORD97":169253.72,"N_COORD97":2547317.8700000001,"ADDRESS":"府安路四段９１巷８弄３４號","OBJECTID":141632},"geometry":{"x":169253.71999999974,"y":2547317.870000001}},{"attributes":{"ID":141633,"DIS_CODE":0,"TOWNNAME":"安南區","LI":"溪北里","LIN":"16鄰","STREET":"府安路","SECT":"四段","MAREA":" ","LANE":"９１巷","ALLEY":"８弄","HOUSE_NO":"３６號","E_COORD97":169251.12,"N_COORD97":2547322.3900000001,"ADDRESS":"府安路四段９１巷８弄３６號","OBJECTID":141633},"geometry":{"x":169251.12000000011,"y":2547322.3900000025}},{"attributes":{"ID":141634,"DIS_CODE":0,"TOWNNAME":"安南區","LI":"溪北里","LIN":"16鄰","STREET":"府安路","SECT":"四段","MAREA":" ","LANE":"９１巷","ALLEY":"８弄","HOUSE_NO":"３８號","E_COORD97":169248.51000000001,"N_COORD97":2547326.46,"ADDRESS":"府安路四段９１巷８弄３８號","OBJECTID":141634},"geometry":{"x":169248.50999999978,"y":2547326.4600000009}},{"attributes":{"ID":141635,"DIS_CODE":0,"TOWNNAME":"安南區","LI":"溪北里","LIN":"16鄰","STREET":"府安路","SECT":"四段","MAREA":" ","LANE":"９１巷","ALLEY":"８弄","HOUSE_NO":"４０號","E_COORD97":169245.10999999999,"N_COORD97":2547333.2599999998,"ADDRESS":"府安路四段９１巷８弄４０號","OBJECTID":141635},"geometry":{"x":169245.11000000034,"y":2547333.2599999998}},{"attributes":{"ID":141636,"DIS_CODE":0,"TOWNNAME":"安南區","LI":"溪北里","LIN":"16鄰","STREET":"府安路","SECT":"四段","MAREA":" ","LANE":"９１巷","ALLEY":"８弄","HOUSE_NO":"４６號","E_COORD97":169262.45999999999,"N_COORD97":2547338.8300000001,"ADDRESS":"府安路四段９１巷８弄４６號","OBJECTID":141636},"geometry":{"x":169262.45999999996,"y":2547338.8300000019}},{"attributes":{"ID":141637,"DIS_CODE":0,"TOWNNAME":"永康區","LI":"復國里","LIN":"33鄰","STREET":"復華一街","SECT":" ","MAREA":" ","LANE":" ","ALLEY":" ","HOUSE_NO":"１１０號","E_COORD97":172460.59,"N_COORD97":2545090.5299999998,"ADDRESS":"復華一街１１０號","OBJECTID":141637},"geometry":{"x":172460.58999999892,"y":2545090.5299999993}},{"attributes":{"ID":141638,"DIS_CODE":0,"TOWNNAME":"永康區","LI":"復國里","LIN":"33鄰","STREET":"復華一街","SECT":" ","MAREA":" ","LANE":" ","ALLEY":" ","HOUSE_NO":"１１２號","E_COORD97":172452.66,"N_COORD97":2545090.8300000001,"ADDRESS":"復華一街１１２號","OBJECTID":141638},"geometry":{"x":172452.66000000108,"y":2545090.8300000019}},{"attributes":{"ID":141639,"DIS_CODE":0,"TOWNNAME":"學甲區","LI":"中洲里","LIN":"33鄰","STREET":" ","SECT":" ","MAREA":"中洲","LANE":" ","ALLEY":" ","HOUSE_NO":"４４５號之１","E_COORD97":163849.67000000001,"N_COORD97":2571851.3100000001,"ADDRESS":"中洲４４５號之１","OBJECTID":141639},"geometry":{"x":163849.66999999993,"y":2571851.3100000024}},{"attributes":{"ID":141640,"DIS_CODE":0,"TOWNNAME":"學甲區","LI":"中洲里","LIN":"33鄰","STREET":" ","SECT":" ","MAREA":"中洲","LANE":" ","ALLEY":" ","HOUSE_NO":"４４５號","E_COORD97":163841.03,"N_COORD97":2571839.4300000002,"ADDRESS":"中洲４４５號","OBJECTID":141640},"geometry":{"x":163841.03000000026,"y":2571839.4300000016}},{"attributes":{"ID":141641,"DIS_CODE":0,"TOWNNAME":"學甲區","LI":"中洲里","LIN":"33鄰","STREET":" ","SECT":" ","MAREA":"中洲","LANE":" ","ALLEY":" ","HOUSE_NO":"４４６號之２","E_COORD97":163847.04999999999,"N_COORD97":2571807.3599999999,"ADDRESS":"中洲４４６號之２","OBJECTID":141641},"geometry":{"x":163847.04999999981,"y":2571807.3599999994}},{"attributes":{"ID":141642,"DIS_CODE":0,"TOWNNAME":"學甲區","LI":"中洲里","LIN":"33鄰","STREET":" ","SECT":" ","MAREA":"中洲","LANE":" ","ALLEY":" ","HOUSE_NO":"４４６號之３","E_COORD97":163851.92999999999,"N_COORD97":2571806.8100000001,"ADDRESS":"中洲４４６號之３","OBJECTID":141642},"geometry":{"x":163851.93000000063,"y":2571806.8100000042}},{"attributes":{"ID":141643,"DIS_CODE":0,"TOWNNAME":"學甲區","LI":"中洲里","LIN":"33鄰","STREET":" ","SECT":" ","MAREA":"中洲","LANE":" ","ALLEY":" ","HOUSE_NO":"４４６號","E_COORD97":163831.51999999999,"N_COORD97":2571805.4199999999,"ADDRESS":"中洲４４６號","OBJECTID":141643},"geometry":{"x":163831.51999999955,"y":2571805.4200000037}},{"attributes":{"ID":141644,"DIS_CODE":0,"TOWNNAME":"學甲區","LI":"中洲里","LIN":"33鄰","STREET":" ","SECT":" ","MAREA":"中洲","LANE":" ","ALLEY":" ","HOUSE_NO":"４４７號","E_COORD97":163842.39000000001,"N_COORD97":2571790.6400000001,"ADDRESS":"中洲４４７號","OBJECTID":141644},"geometry":{"x":163842.3900000006,"y":2571790.6400000006}},{"attributes":{"ID":141645,"DIS_CODE":0,"TOWNNAME":"東山區","LI":"東正里","LIN":" ","STREET":" ","SECT":" ","MAREA":"東勢","LANE":" ","ALLEY":" ","HOUSE_NO":"１８６號","E_COORD97":189296.12,"N_COORD97":2580611.4100000001,"ADDRESS":"東勢１８６號","OBJECTID":141645},"geometry":{"x":189296.12000000104,"y":2580611.410000002}},{"attributes":{"ID":141646,"DIS_CODE":0,"TOWNNAME":"東山區","LI":"東正里","LIN":" ","STREET":" ","SECT":" ","MAREA":"東勢","LANE":" ","ALLEY":" ","HOUSE_NO":"１８９號","E_COORD97":189315.35999999999,"N_COORD97":2580610.4700000002,"ADDRESS":"東勢１８９號","OBJECTID":141646},"geometry":{"x":189315.36000000127,"y":2580610.4699999988}},{"attributes":{"ID":141647,"DIS_CODE":0,"TOWNNAME":"東山區","LI":"東正里","LIN":" ","STREET":" ","SECT":" ","MAREA":"東勢","LANE":" ","ALLEY":" ","HOUSE_NO":"１９之１２號","E_COORD97":189435.72,"N_COORD97":2579968.3700000001,"ADDRESS":"東勢１９之１２號","OBJECTID":141647},"geometry":{"x":189435.72000000067,"y":2579968.3700000029}},{"attributes":{"ID":141648,"DIS_CODE":0,"TOWNNAME":"東山區","LI":"東正里","LIN":" ","STREET":" ","SECT":" ","MAREA":"東勢","LANE":" ","ALLEY":" ","HOUSE_NO":"１之６號","E_COORD97":189392.26000000001,"N_COORD97":2579868.8500000001,"ADDRESS":"東勢１之６號","OBJECTID":141648},"geometry":{"x":189392.25999999978,"y":2579868.8500000015}},{"attributes":{"ID":141649,"DIS_CODE":0,"TOWNNAME":"東山區","LI":"東正里","LIN":" ","STREET":" ","SECT":" ","MAREA":"東勢","LANE":" ","ALLEY":" ","HOUSE_NO":"２０３號","E_COORD97":189325.34,"N_COORD97":2580561.6899999999,"ADDRESS":"東勢２０３號","OBJECTID":141649},"geometry":{"x":189325.33999999985,"y":2580561.6900000013}},{"attributes":{"ID":141650,"DIS_CODE":0,"TOWNNAME":"東山區","LI":"東正里","LIN":" ","STREET":" ","SECT":" ","MAREA":"東勢","LANE":" ","ALLEY":" ","HOUSE_NO":"３之１６號","E_COORD97":189385.44,"N_COORD97":2580050.5299999998,"ADDRESS":"東勢３之１６號","OBJECTID":141650},"geometry":{"x":189385.44000000227,"y":2580050.5300000012}},{"attributes":{"ID":141651,"DIS_CODE":0,"TOWNNAME":"東山區","LI":"東正里","LIN":" ","STREET":" ","SECT":" ","MAREA":"東勢","LANE":" ","ALLEY":" ","HOUSE_NO":"６８之２號","E_COORD97":189356.01999999999,"N_COORD97":2580268.1200000001,"ADDRESS":"東勢６８之２號","OBJECTID":141651},"geometry":{"x":189356.01999999955,"y":2580268.1200000029}},{"attributes":{"ID":141652,"DIS_CODE":0,"TOWNNAME":"安南區","LI":"溪北里","LIN":"16鄰","STREET":"府安路","SECT":"四段","MAREA":" ","LANE":"９１巷","ALLEY":"８弄","HOUSE_NO":"４８號","E_COORD97":169268.19,"N_COORD97":2547343.2799999998,"ADDRESS":"府安路四段９１巷８弄４８號","OBJECTID":141652},"geometry":{"x":169268.19000000041,"y":2547343.2799999993}},{"attributes":{"ID":141653,"DIS_CODE":0,"TOWNNAME":"安南區","LI":"溪北里","LIN":"16鄰","STREET":"府安路","SECT":"四段","MAREA":" ","LANE":"９１巷","ALLEY":"８弄","HOUSE_NO":"５０號","E_COORD97":169275.82000000001,"N_COORD97":2547346.77,"ADDRESS":"府安路四段９１巷８弄５０號","OBJECTID":141653},"geometry":{"x":169275.8200000003,"y":2547346.7699999996}},{"attributes":{"ID":141654,"DIS_CODE":0,"TOWNNAME":"安南區","LI":"溪北里","LIN":"16鄰","STREET":"府安路","SECT":"四段","MAREA":" ","LANE":"９１巷","ALLEY":"８弄","HOUSE_NO":"５２號","E_COORD97":169282.17999999999,"N_COORD97":2547347.73,"ADDRESS":"府安路四段９１巷８弄５２號","OBJECTID":141654},"geometry":{"x":169282.18000000063,"y":2547347.7300000004}},{"attributes":{"ID":141655,"DIS_CODE":0,"TOWNNAME":"學甲區","LI":"中洲里","LIN":"33鄰","STREET":" ","SECT":" ","MAREA":"中洲","LANE":" ","ALLEY":" ","HOUSE_NO":"４４８號","E_COORD97":163828.76000000001,"N_COORD97":2571759.1800000002,"ADDRESS":"中洲４４８號","OBJECTID":141655},"geometry":{"x":163828.75999999978,"y":2571759.1799999978}},{"attributes":{"ID":141656,"DIS_CODE":0,"TOWNNAME":"東山區","LI":"林安里","LIN":" ","STREET":" ","SECT":" ","MAREA":"林安","LANE":" ","ALLEY":" ","HOUSE_NO":"２１之１號","E_COORD97":192205.57999999999,"N_COORD97":2575111.21,"ADDRESS":"林安２１之１號","OBJECTID":141656},"geometry":{"x":192205.58000000101,"y":2575111.2100000028}},{"attributes":{"ID":141657,"DIS_CODE":0,"TOWNNAME":"東山區","LI":"林安里","LIN":" ","STREET":" ","SECT":" ","MAREA":"林安","LANE":" ","ALLEY":" ","HOUSE_NO":"２１之２號","E_COORD97":192209.57000000001,"N_COORD97":2575108.48,"ADDRESS":"林安２１之２號","OBJECTID":141657},"geometry":{"x":192209.5700000003,"y":2575108.4800000023}},{"attributes":{"ID":141658,"DIS_CODE":0,"TOWNNAME":"東山區","LI":"林安里","LIN":" ","STREET":" ","SECT":" ","MAREA":"林安","LANE":" ","ALLEY":" ","HOUSE_NO":"２６號","E_COORD97":192191.45000000001,"N_COORD97":2575132.9100000001,"ADDRESS":"林安２６號","OBJECTID":141658},"geometry":{"x":192191.45000000019,"y":2575132.910000002}},{"attributes":{"ID":141659,"DIS_CODE":0,"TOWNNAME":"東山區","LI":"林安里","LIN":" ","STREET":" ","SECT":" ","MAREA":"林安","LANE":" ","ALLEY":" ","HOUSE_NO":"３２之１號","E_COORD97":192241.32999999999,"N_COORD97":2575450.46,"ADDRESS":"林安３２之１號","OBJECTID":141659},"geometry":{"x":192241.33000000007,"y":2575450.4600000009}},{"attributes":{"ID":141660,"DIS_CODE":0,"TOWNNAME":"東山區","LI":"林安里","LIN":" ","STREET":" ","SECT":" ","MAREA":"林安","LANE":" ","ALLEY":" ","HOUSE_NO":"４０之２號","E_COORD97":191835.28,"N_COORD97":2575531.9300000002,"ADDRESS":"林安４０之２號","OBJECTID":141660},"geometry":{"x":191835.28000000026,"y":2575531.9300000016}},{"attributes":{"ID":141661,"DIS_CODE":0,"TOWNNAME":"東山區","LI":"青山里","LIN":" ","STREET":" ","SECT":" ","MAREA":"青山","LANE":" ","ALLEY":" ","HOUSE_NO":"１０９之１０號","E_COORD97":200487.17000000001,"N_COORD97":2574968.8399999999,"ADDRESS":"青山１０９之１０號","OBJECTID":141661},"geometry":{"x":200487.17000000086,"y":2574968.8399999999}},{"attributes":{"ID":141662,"DIS_CODE":0,"TOWNNAME":"東山區","LI":"青山里","LIN":" ","STREET":" ","SECT":" ","MAREA":"青山","LANE":" ","ALLEY":" ","HOUSE_NO":"１０９之１號","E_COORD97":194549.41,"N_COORD97":2574123.4399999999,"ADDRESS":"青山１０９之１號","OBJECTID":141662},"geometry":{"x":194549.41000000108,"y":2574123.4399999995}},{"attributes":{"ID":141663,"DIS_CODE":0,"TOWNNAME":"歸仁區","LI":"南保里","LIN":"33鄰","STREET":"中山路","SECT":"三段","MAREA":" ","LANE":" ","ALLEY":" ","HOUSE_NO":"３２號","E_COORD97":176879.95999999999,"N_COORD97":2540883.25,"ADDRESS":"中山路三段３２號","OBJECTID":141663},"geometry":{"x":176879.96000000089,"y":2540883.2500000037}},{"attributes":{"ID":141664,"DIS_CODE":0,"TOWNNAME":"歸仁區","LI":"南保里","LIN":"33鄰","STREET":"中山路","SECT":"三段","MAREA":" ","LANE":" ","ALLEY":" ","HOUSE_NO":"６６號","E_COORD97":176824.56,"N_COORD97":2540890.25,"ADDRESS":"中山路三段６６號","OBJECTID":141664},"geometry":{"x":176824.56000000052,"y":2540890.2500000019}},{"attributes":{"ID":141665,"DIS_CODE":0,"TOWNNAME":"歸仁區","LI":"許厝里","LIN":"33鄰","STREET":"公園八街","SECT":" ","MAREA":" ","LANE":" ","ALLEY":" ","HOUSE_NO":"１２號","E_COORD97":177887.13,"N_COORD97":2540511.8199999998,"ADDRESS":"公園八街１２號","OBJECTID":141665},"geometry":{"x":177887.13000000082,"y":2540511.8200000003}},{"attributes":{"ID":141666,"DIS_CODE":0,"TOWNNAME":"東山區","LI":"青山里","LIN":" ","STREET":" ","SECT":" ","MAREA":"青山","LANE":" ","ALLEY":" ","HOUSE_NO":"１０９之４號","E_COORD97":200261.70000000001,"N_COORD97":2574919.1400000001,"ADDRESS":"青山１０９之４號","OBJECTID":141666},"geometry":{"x":200261.70000000112,"y":2574919.1400000006}},{"attributes":{"ID":141667,"DIS_CODE":0,"TOWNNAME":"仁德區","LI":"土庫里","LIN":"22鄰","STREET":"太子路","SECT":" ","MAREA":" ","LANE":"１７９巷","ALLEY":"１１弄","HOUSE_NO":"１５號","E_COORD97":174444.92000000001,"N_COORD97":2543361.25,"ADDRESS":"太子路１７９巷１１弄１５號","OBJECTID":141667},"geometry":{"x":174444.91999999993,"y":2543361.2499999981}},{"attributes":{"ID":141668,"DIS_CODE":0,"TOWNNAME":"仁德區","LI":"上崙里","LIN":"22鄰","STREET":"德崙路","SECT":" ","MAREA":" ","LANE":"１９６巷","ALLEY":"２１弄","HOUSE_NO":"２９號","E_COORD97":173683.31,"N_COORD97":2538204.3999999999,"ADDRESS":"德崙路１９６巷２１弄２９號","OBJECTID":141668},"geometry":{"x":173683.31000000052,"y":2538204.4000000022}},{"attributes":{"ID":141669,"DIS_CODE":0,"TOWNNAME":"東山區","LI":"青山里","LIN":" ","STREET":" ","SECT":" ","MAREA":"青山","LANE":" ","ALLEY":" ","HOUSE_NO":"１２８號","E_COORD97":195321.51999999999,"N_COORD97":2575144.6000000001,"ADDRESS":"青山１２８號","OBJECTID":141669},"geometry":{"x":195321.51999999955,"y":2575144.6000000015}},{"attributes":{"ID":141670,"DIS_CODE":0,"TOWNNAME":"東山區","LI":"青山里","LIN":" ","STREET":" ","SECT":" ","MAREA":"青山","LANE":" ","ALLEY":" ","HOUSE_NO":"１３０號","E_COORD97":195312.32999999999,"N_COORD97":2575157,"ADDRESS":"青山１３０號","OBJECTID":141670},"geometry":{"x":195312.33000000101,"y":2575157}},{"attributes":{"ID":141671,"DIS_CODE":0,"TOWNNAME":"東山區","LI":"青山里","LIN":" ","STREET":" ","SECT":" ","MAREA":"青山","LANE":" ","ALLEY":" ","HOUSE_NO":"１３３號","E_COORD97":195300.63,"N_COORD97":2575162.02,"ADDRESS":"青山１３３號","OBJECTID":141671},"geometry":{"x":195300.62999999989,"y":2575162.0200000014}},{"attributes":{"ID":141672,"DIS_CODE":0,"TOWNNAME":"仁德區","LI":"上崙里","LIN":"22鄰","STREET":"德崙路","SECT":" ","MAREA":" ","LANE":"１９６巷","ALLEY":"２１弄","HOUSE_NO":"２８號","E_COORD97":173648.56,"N_COORD97":2538209.6400000001,"ADDRESS":"德崙路１９６巷２１弄２８號","OBJECTID":141672},"geometry":{"x":173648.55999999959,"y":2538209.6400000043}},{"attributes":{"ID":141673,"DIS_CODE":0,"TOWNNAME":"東山區","LI":"青山里","LIN":" ","STREET":" ","SECT":" ","MAREA":"青山","LANE":" ","ALLEY":" ","HOUSE_NO":"１４７號","E_COORD97":195386.45999999999,"N_COORD97":2575289.8199999998,"ADDRESS":"青山１４７號","OBJECTID":141673},"geometry":{"x":195386.46000000089,"y":2575289.8200000022}},{"attributes":{"ID":141674,"DIS_CODE":0,"TOWNNAME":"安南區","LI":"溪北里","LIN":"10鄰","STREET":"府安路","SECT":"四段","MAREA":" ","LANE":"３４巷","ALLEY":"７弄","HOUSE_NO":"３號","E_COORD97":169374.06,"N_COORD97":2547323.29,"ADDRESS":"府安路四段３４巷７弄３號","OBJECTID":141674},"geometry":{"x":169374.06000000052,"y":2547323.2899999991}},{"attributes":{"ID":141675,"DIS_CODE":0,"TOWNNAME":"仁德區","LI":"上崙里","LIN":"22鄰","STREET":"德崙路","SECT":" ","MAREA":" ","LANE":"１９６巷","ALLEY":"２１弄","HOUSE_NO":"２５號","E_COORD97":173676.44,"N_COORD97":2538209.6499999999,"ADDRESS":"德崙路１９６巷２１弄２５號","OBJECTID":141675},"geometry":{"x":173676.44000000134,"y":2538209.6500000022}},{"attributes":{"ID":141676,"DIS_CODE":0,"TOWNNAME":"新營區","LI":"民榮里","LIN":"39鄰","STREET":"太子路","SECT":" ","MAREA":" ","LANE":"５３巷","ALLEY":"７弄","HOUSE_NO":"３７號","E_COORD97":178276.863598,"N_COORD97":2577892.8139599999,"ADDRESS":"太子路５３巷７弄３７號","OBJECTID":141676},"geometry":{"x":178276.86359800026,"y":2577892.8139640018}},{"attributes":{"ID":141677,"DIS_CODE":0,"TOWNNAME":"東山區","LI":"青山里","LIN":" ","STREET":" ","SECT":" ","MAREA":"青山","LANE":" ","ALLEY":" ","HOUSE_NO":"１５之５號","E_COORD97":195437.67000000001,"N_COORD97":2575259.1000000001,"ADDRESS":"青山１５之５號","OBJECTID":141677},"geometry":{"x":195437.66999999993,"y":2575259.1000000015}},{"attributes":{"ID":141678,"DIS_CODE":0,"TOWNNAME":"東山區","LI":"青山里","LIN":" ","STREET":" ","SECT":" ","MAREA":"青山","LANE":" ","ALLEY":" ","HOUSE_NO":"１９之３號","E_COORD97":195738.39999999999,"N_COORD97":2575384.6400000001,"ADDRESS":"青山１９之３號","OBJECTID":141678},"geometry":{"x":195738.40000000037,"y":2575384.6400000006}},{"attributes":{"ID":141679,"DIS_CODE":0,"TOWNNAME":"東山區","LI":"青山里","LIN":" ","STREET":" ","SECT":" ","MAREA":"青山","LANE":" ","ALLEY":" ","HOUSE_NO":"２０之１８號","E_COORD97":195741.70000000001,"N_COORD97":2575362.6800000002,"ADDRESS":"青山２０之１８號","OBJECTID":141679},"geometry":{"x":195741.70000000019,"y":2575362.6799999997}},{"attributes":{"ID":141680,"DIS_CODE":0,"TOWNNAME":"東山區","LI":"青山里","LIN":" ","STREET":" ","SECT":" ","MAREA":"青山","LANE":" ","ALLEY":" ","HOUSE_NO":"２０之４號","E_COORD97":195683.76000000001,"N_COORD97":2575373.6200000001,"ADDRESS":"青山２０之４號","OBJECTID":141680},"geometry":{"x":195683.76000000071,"y":2575373.6200000029}},{"attributes":{"ID":141681,"DIS_CODE":0,"TOWNNAME":"東區","LI":"小東里","LIN":"22鄰","STREET":"光明街","SECT":" ","MAREA":" ","LANE":"１７５巷","ALLEY":"８弄","HOUSE_NO":"３號","E_COORD97":170957.67000000001,"N_COORD97":2544139.48,"ADDRESS":"光明街１７５巷８弄３號","OBJECTID":141681},"geometry":{"x":170957.66999999993,"y":2544139.4800000004}},{"attributes":{"ID":141682,"DIS_CODE":0,"TOWNNAME":"東山區","LI":"青山里","LIN":" ","STREET":" ","SECT":" ","MAREA":"青山","LANE":" ","ALLEY":" ","HOUSE_NO":"２１之３號","E_COORD97":195678.72,"N_COORD97":2575393.04,"ADDRESS":"青山２１之３號","OBJECTID":141682},"geometry":{"x":195678.7200000016,"y":2575393.0399999991}},{"attributes":{"ID":141683,"DIS_CODE":0,"TOWNNAME":"東區","LI":"小東里","LIN":"22鄰","STREET":"光明街","SECT":" ","MAREA":" ","LANE":"１７５巷","ALLEY":"８弄","HOUSE_NO":"５號","E_COORD97":170957.67000000001,"N_COORD97":2544135.8799999999,"ADDRESS":"光明街１７５巷８弄５號","OBJECTID":141683},"geometry":{"x":170957.66999999993,"y":2544135.8800000027}},{"attributes":{"ID":141684,"DIS_CODE":0,"TOWNNAME":"東區","LI":"小東里","LIN":"22鄰","STREET":"光明街","SECT":" ","MAREA":" ","LANE":"１７５巷","ALLEY":"２２弄","HOUSE_NO":"１０號","E_COORD97":170989.35000000001,"N_COORD97":2544129.1400000001,"ADDRESS":"光明街１７５巷２２弄１０號","OBJECTID":141684},"geometry":{"x":170989.35000000056,"y":2544129.1400000043}},{"attributes":{"ID":141685,"DIS_CODE":0,"TOWNNAME":"東區","LI":"小東里","LIN":"22鄰","STREET":"光明街","SECT":" ","MAREA":" ","LANE":"１７５巷","ALLEY":"２２弄","HOUSE_NO":"１２號","E_COORD97":170993.57999999999,"N_COORD97":2544129.46,"ADDRESS":"光明街１７５巷２２弄１２號","OBJECTID":141685},"geometry":{"x":170993.58000000101,"y":2544129.4600000009}},{"attributes":{"ID":141686,"DIS_CODE":0,"TOWNNAME":"東區","LI":"小東里","LIN":"22鄰","STREET":"光明街","SECT":" ","MAREA":" ","LANE":"１７５巷","ALLEY":"２２弄","HOUSE_NO":"１４號","E_COORD97":170997.66,"N_COORD97":2544129.77,"ADDRESS":"光明街１７５巷２２弄１４號","OBJECTID":141686},"geometry":{"x":170997.66000000201,"y":2544129.7699999996}},{"attributes":{"ID":141687,"DIS_CODE":0,"TOWNNAME":"東區","LI":"小東里","LIN":"22鄰","STREET":"光明街","SECT":" ","MAREA":" ","LANE":"１７５巷","ALLEY":"２２弄","HOUSE_NO":"１８號","E_COORD97":171005.34,"N_COORD97":2544130.0800000001,"ADDRESS":"光明街１７５巷２２弄１８號","OBJECTID":141687},"geometry":{"x":171005.34000000078,"y":2544130.0800000019}},{"attributes":{"ID":141688,"DIS_CODE":0,"TOWNNAME":"東山區","LI":"青山里","LIN":" ","STREET":" ","SECT":" ","MAREA":"青山","LANE":" ","ALLEY":" ","HOUSE_NO":"２７之２號","E_COORD97":195613.79999999999,"N_COORD97":2575371.2599999998,"ADDRESS":"青山２７之２號","OBJECTID":141688},"geometry":{"x":195613.80000000168,"y":2575371.2600000016}},{"attributes":{"ID":141689,"DIS_CODE":0,"TOWNNAME":"東山區","LI":"青山里","LIN":" ","STREET":" ","SECT":" ","MAREA":"青山","LANE":" ","ALLEY":" ","HOUSE_NO":"３０之１號","E_COORD97":195533.91,"N_COORD97":2575320.9500000002,"ADDRESS":"青山３０之１號","OBJECTID":141689},"geometry":{"x":195533.91000000108,"y":2575320.9500000011}},{"attributes":{"ID":141690,"DIS_CODE":0,"TOWNNAME":"東山區","LI":"青山里","LIN":" ","STREET":" ","SECT":" ","MAREA":"青山","LANE":" ","ALLEY":" ","HOUSE_NO":"３０之４號","E_COORD97":195513.48000000001,"N_COORD97":2575311.5899999999,"ADDRESS":"青山３０之４號","OBJECTID":141690},"geometry":{"x":195513.48000000138,"y":2575311.5899999999}},{"attributes":{"ID":141691,"DIS_CODE":0,"TOWNNAME":"東山區","LI":"青山里","LIN":" ","STREET":" ","SECT":" ","MAREA":"青山","LANE":" ","ALLEY":" ","HOUSE_NO":"３３之３號","E_COORD97":195606.10000000001,"N_COORD97":2575339.8399999999,"ADDRESS":"青山３３之３號","OBJECTID":141691},"geometry":{"x":195606.09999999963,"y":2575339.8400000017}},{"attributes":{"ID":141692,"DIS_CODE":0,"TOWNNAME":"東山區","LI":"青山里","LIN":" ","STREET":" ","SECT":" ","MAREA":"青山","LANE":" ","ALLEY":" ","HOUSE_NO":"３８之１號","E_COORD97":195645.98000000001,"N_COORD97":2575355.4399999999,"ADDRESS":"青山３８之１號","OBJECTID":141692},"geometry":{"x":195645.98000000138,"y":2575355.4400000013}},{"attributes":{"ID":141693,"DIS_CODE":0,"TOWNNAME":"東山區","LI":"青山里","LIN":" ","STREET":" ","SECT":" ","MAREA":"青山","LANE":" ","ALLEY":" ","HOUSE_NO":"３９之１號","E_COORD97":195663.20000000001,"N_COORD97":2575362.4900000002,"ADDRESS":"青山３９之１號","OBJECTID":141693},"geometry":{"x":195663.20000000019,"y":2575362.4900000021}},{"attributes":{"ID":141694,"DIS_CODE":0,"TOWNNAME":"東山區","LI":"青山里","LIN":" ","STREET":" ","SECT":" ","MAREA":"青山","LANE":" ","ALLEY":" ","HOUSE_NO":"４６之１５號","E_COORD97":195603.70999999999,"N_COORD97":2575217.6499999999,"ADDRESS":"青山４６之１５號","OBJECTID":141694},"geometry":{"x":195603.70999999996,"y":2575217.6500000004}},{"attributes":{"ID":141695,"DIS_CODE":0,"TOWNNAME":"東山區","LI":"青山里","LIN":" ","STREET":" ","SECT":" ","MAREA":"青山","LANE":" ","ALLEY":" ","HOUSE_NO":"４９號","E_COORD97":195962.82000000001,"N_COORD97":2575340.9100000001,"ADDRESS":"青山４９號","OBJECTID":141695},"geometry":{"x":195962.8200000003,"y":2575340.9100000001}},{"attributes":{"ID":141696,"DIS_CODE":0,"TOWNNAME":"東山區","LI":"青山里","LIN":" ","STREET":" ","SECT":" ","MAREA":"青山","LANE":" ","ALLEY":" ","HOUSE_NO":"４之１號","E_COORD97":195348.67999999999,"N_COORD97":2575109.2999999998,"ADDRESS":"青山４之１號","OBJECTID":141696},"geometry":{"x":195348.68000000063,"y":2575109.3000000045}},{"attributes":{"ID":141697,"DIS_CODE":0,"TOWNNAME":"東山區","LI":"青山里","LIN":" ","STREET":" ","SECT":" ","MAREA":"青山","LANE":" ","ALLEY":" ","HOUSE_NO":"５９號","E_COORD97":196001.14000000001,"N_COORD97":2575415.5800000001,"ADDRESS":"青山５９號","OBJECTID":141697},"geometry":{"x":196001.13999999873,"y":2575415.5800000019}},{"attributes":{"ID":141698,"DIS_CODE":0,"TOWNNAME":"東山區","LI":"青山里","LIN":" ","STREET":" ","SECT":" ","MAREA":"青山","LANE":" ","ALLEY":" ","HOUSE_NO":"６３號","E_COORD97":196479.48999999999,"N_COORD97":2575504.8100000001,"ADDRESS":"青山６３號","OBJECTID":141698},"geometry":{"x":196479.49000000115,"y":2575504.8100000005}},{"attributes":{"ID":141699,"DIS_CODE":0,"TOWNNAME":"東山區","LI":"青山里","LIN":" ","STREET":" ","SECT":" ","MAREA":"青山","LANE":" ","ALLEY":" ","HOUSE_NO":"７５之１號","E_COORD97":197954.51999999999,"N_COORD97":2574883.5800000001,"ADDRESS":"青山７５之１號","OBJECTID":141699},"geometry":{"x":197954.51999999955,"y":2574883.5800000019}},{"attributes":{"ID":141700,"DIS_CODE":0,"TOWNNAME":"東山區","LI":"青山里","LIN":" ","STREET":" ","SECT":" ","MAREA":"青山","LANE":" ","ALLEY":" ","HOUSE_NO":"８５號","E_COORD97":199138.47,"N_COORD97":2574867.9700000002,"ADDRESS":"青山８５號","OBJECTID":141700},"geometry":{"x":199138.46999999881,"y":2574867.9700000025}},{"attributes":{"ID":141701,"DIS_CODE":0,"TOWNNAME":"東山區","LI":"東原里","LIN":" ","STREET":" ","SECT":" ","MAREA":"前大埔","LANE":" ","ALLEY":" ","HOUSE_NO":"１０６號","E_COORD97":193698.25,"N_COORD97":2573824.8500000001,"ADDRESS":"前大埔１０６號","OBJECTID":141701},"geometry":{"x":193698.25,"y":2573824.8499999996}},{"attributes":{"ID":141702,"DIS_CODE":0,"TOWNNAME":"東區","LI":"小東里","LIN":"22鄰","STREET":"光明街","SECT":" ","MAREA":" ","LANE":"１７５巷","ALLEY":"２２弄","HOUSE_NO":"１號","E_COORD97":170986.51999999999,"N_COORD97":2544144.4900000002,"ADDRESS":"光明街１７５巷２２弄１號","OBJECTID":141702},"geometry":{"x":170986.52000000048,"y":2544144.4900000021}},{"attributes":{"ID":141703,"DIS_CODE":0,"TOWNNAME":"東區","LI":"小東里","LIN":"22鄰","STREET":"光明街","SECT":" ","MAREA":" ","LANE":"１７５巷","ALLEY":"２２弄","HOUSE_NO":"２０號","E_COORD97":171009.26000000001,"N_COORD97":2544130.71,"ADDRESS":"光明街１７５巷２２弄２０號","OBJECTID":141703},"geometry":{"x":171009.25999999978,"y":2544130.7100000009}},{"attributes":{"ID":141704,"DIS_CODE":0,"TOWNNAME":"東區","LI":"小東里","LIN":"22鄰","STREET":"光明街","SECT":" ","MAREA":" ","LANE":"１７５巷","ALLEY":"２２弄","HOUSE_NO":"２２號","E_COORD97":171014.89999999999,"N_COORD97":2544129.46,"ADDRESS":"光明街１７５巷２２弄２２號","OBJECTID":141704},"geometry":{"x":171014.90000000224,"y":2544129.4600000009}},{"attributes":{"ID":141705,"DIS_CODE":0,"TOWNNAME":"東區","LI":"小東里","LIN":"22鄰","STREET":"光明街","SECT":" ","MAREA":" ","LANE":"１７５巷","ALLEY":"２２弄","HOUSE_NO":"２號","E_COORD97":170976.01999999999,"N_COORD97":2544144.3300000001,"ADDRESS":"光明街１７５巷２２弄２號","OBJECTID":141705},"geometry":{"x":170976.02000000048,"y":2544144.3300000038}},{"attributes":{"ID":141706,"DIS_CODE":0,"TOWNNAME":"東區","LI":"小東里","LIN":"22鄰","STREET":"光明街","SECT":" ","MAREA":" ","LANE":"１７５巷","ALLEY":"２２弄","HOUSE_NO":"３號","E_COORD97":170987.14999999999,"N_COORD97":2544140.5699999998,"ADDRESS":"光明街１７５巷２２弄３號","OBJECTID":141706},"geometry":{"x":170987.15000000037,"y":2544140.5700000022}},{"attributes":{"ID":141707,"DIS_CODE":0,"TOWNNAME":"東區","LI":"小東里","LIN":"22鄰","STREET":"光明街","SECT":" ","MAREA":" ","LANE":"１７５巷","ALLEY":"２２弄","HOUSE_NO":"４號","E_COORD97":170976.32999999999,"N_COORD97":2544140.2599999998,"ADDRESS":"光明街１７５巷２２弄４號","OBJECTID":141707},"geometry":{"x":170976.33000000101,"y":2544140.2599999998}},{"attributes":{"ID":141708,"DIS_CODE":0,"TOWNNAME":"東區","LI":"小東里","LIN":"22鄰","STREET":"光明街","SECT":" ","MAREA":" ","LANE":"１７５巷","ALLEY":"２２弄","HOUSE_NO":"６號","E_COORD97":170976.64999999999,"N_COORD97":2544136.6600000001,"ADDRESS":"光明街１７５巷２２弄６號","OBJECTID":141708},"geometry":{"x":170976.6500000013,"y":2544136.660000002}},{"attributes":{"ID":141709,"DIS_CODE":0,"TOWNNAME":"東區","LI":"小東里","LIN":"22鄰","STREET":"光明街","SECT":" ","MAREA":" ","LANE":"１７５巷","ALLEY":"２２弄","HOUSE_NO":"８號","E_COORD97":170985.73999999999,"N_COORD97":2544128.8300000001,"ADDRESS":"光明街１７５巷２２弄８號","OBJECTID":141709},"geometry":{"x":170985.74000000115,"y":2544128.8300000019}},{"attributes":{"ID":141710,"DIS_CODE":0,"TOWNNAME":"東區","LI":"小東里","LIN":"22鄰","STREET":"光明街","SECT":" ","MAREA":" ","LANE":"１７５巷","ALLEY":"８弄","HOUSE_NO":"１０號","E_COORD97":170948.309973,"N_COORD97":2544132.0077900002,"ADDRESS":"光明街１７５巷８弄１０號","OBJECTID":141710},"geometry":{"x":170948.30997299962,"y":2544132.0077899992}},{"attributes":{"ID":141711,"DIS_CODE":0,"TOWNNAME":"東區","LI":"小東里","LIN":"22鄰","STREET":"光明街","SECT":" ","MAREA":" ","LANE":"１７５巷","ALLEY":"８弄","HOUSE_NO":"１２號","E_COORD97":170948.94556699999,"N_COORD97":2544128.1977900001,"ADDRESS":"光明街１７５巷８弄１２號","OBJECTID":141711},"geometry":{"x":170948.94556700066,"y":2544128.1977920048}},{"attributes":{"ID":141712,"DIS_CODE":0,"TOWNNAME":"東區","LI":"小東里","LIN":"22鄰","STREET":"光明街","SECT":" ","MAREA":" ","LANE":"１７５巷","ALLEY":"８弄","HOUSE_NO":"１６號","E_COORD97":170957.51999999999,"N_COORD97":2544127.4199999999,"ADDRESS":"光明街１７５巷８弄１６號","OBJECTID":141712},"geometry":{"x":170957.52000000048,"y":2544127.4200000018}},{"attributes":{"ID":141713,"DIS_CODE":0,"TOWNNAME":"東區","LI":"小東里","LIN":"22鄰","STREET":"光明街","SECT":" ","MAREA":" ","LANE":"１７５巷","ALLEY":"８弄","HOUSE_NO":"１８號","E_COORD97":170960.97,"N_COORD97":2544127.4199999999,"ADDRESS":"光明街１７５巷８弄１８號","OBJECTID":141713},"geometry":{"x":170960.96999999974,"y":2544127.4200000018}},{"attributes":{"ID":141714,"DIS_CODE":0,"TOWNNAME":"東區","LI":"小東里","LIN":"22鄰","STREET":"光明街","SECT":" ","MAREA":" ","LANE":"１７５巷","ALLEY":"８弄","HOUSE_NO":"１號","E_COORD97":170957.51999999999,"N_COORD97":2544144.3300000001,"ADDRESS":"光明街１７５巷８弄１號","OBJECTID":141714},"geometry":{"x":170957.52000000048,"y":2544144.3300000038}},{"attributes":{"ID":141715,"DIS_CODE":0,"TOWNNAME":"東區","LI":"小東里","LIN":"22鄰","STREET":"光明街","SECT":" ","MAREA":" ","LANE":"１７５巷","ALLEY":"８弄","HOUSE_NO":"２０號","E_COORD97":170964.73000000001,"N_COORD97":2544127.73,"ADDRESS":"光明街１７５巷８弄２０號","OBJECTID":141715},"geometry":{"x":170964.73000000045,"y":2544127.7300000004}},{"attributes":{"ID":141716,"DIS_CODE":0,"TOWNNAME":"安南區","LI":"海東里","LIN":"22鄰","STREET":"同安路","SECT":" ","MAREA":" ","LANE":"１７巷","ALLEY":"１弄","HOUSE_NO":"７號","E_COORD97":166814.78,"N_COORD97":2548882.8700000001,"ADDRESS":"同安路１７巷１弄７號","OBJECTID":141716},"geometry":{"x":166814.78000000212,"y":2548882.8700000029}},{"attributes":{"ID":141717,"DIS_CODE":0,"TOWNNAME":"東區","LI":"小東里","LIN":"22鄰","STREET":"光明街","SECT":" ","MAREA":" ","LANE":"１７５巷","ALLEY":"８弄","HOUSE_NO":"２２號","E_COORD97":170968.81,"N_COORD97":2544128.3599999999,"ADDRESS":"光明街１７５巷８弄２２號","OBJECTID":141717},"geometry":{"x":170968.81000000145,"y":2544128.3599999994}},{"attributes":{"ID":141718,"DIS_CODE":0,"TOWNNAME":"東區","LI":"小東里","LIN":"22鄰","STREET":"光明街","SECT":" ","MAREA":" ","LANE":"１７５巷","ALLEY":"８弄","HOUSE_NO":"２４號","E_COORD97":170973.04000000001,"N_COORD97":2544128.9900000002,"ADDRESS":"光明街１７５巷８弄２４號","OBJECTID":141718},"geometry":{"x":170973.04000000097,"y":2544128.9900000002}},{"attributes":{"ID":141719,"DIS_CODE":0,"TOWNNAME":"東區","LI":"小東里","LIN":"22鄰","STREET":"光明街","SECT":" ","MAREA":" ","LANE":"１７５巷","ALLEY":"８弄","HOUSE_NO":"２６號","E_COORD97":170976.95999999999,"N_COORD97":2544128.9900000002,"ADDRESS":"光明街１７５巷８弄２６號","OBJECTID":141719},"geometry":{"x":170976.96000000089,"y":2544128.9900000002}},{"attributes":{"ID":141720,"DIS_CODE":0,"TOWNNAME":"東區","LI":"小東里","LIN":"22鄰","STREET":"光明街","SECT":" ","MAREA":" ","LANE":"１７５巷","ALLEY":"８弄","HOUSE_NO":"２８號","E_COORD97":170980.72,"N_COORD97":2544129.1400000001,"ADDRESS":"光明街１７５巷８弄２８號","OBJECTID":141720},"geometry":{"x":170980.71999999974,"y":2544129.1400000043}},{"attributes":{"ID":141721,"DIS_CODE":0,"TOWNNAME":"東區","LI":"小東里","LIN":"22鄰","STREET":"光明街","SECT":" ","MAREA":" ","LANE":"１７５巷","ALLEY":"８弄","HOUSE_NO":"２號","E_COORD97":170948.733702,"N_COORD97":2544148.0944500002,"ADDRESS":"光明街１７５巷８弄２號","OBJECTID":141721},"geometry":{"x":170948.73370200116,"y":2544148.0944480021}},{"attributes":{"ID":141722,"DIS_CODE":0,"TOWNNAME":"東區","LI":"小東里","LIN":"22鄰","STREET":"光明街","SECT":" ","MAREA":" ","LANE":"１７５巷","ALLEY":"８弄","HOUSE_NO":"４號","E_COORD97":170948.09810900001,"N_COORD97":2544143.6494499999,"ADDRESS":"光明街１７５巷８弄４號","OBJECTID":141722},"geometry":{"x":170948.09810900129,"y":2544143.6494500041}},{"attributes":{"ID":141723,"DIS_CODE":0,"TOWNNAME":"東區","LI":"小東里","LIN":"22鄰","STREET":"光明街","SECT":" ","MAREA":" ","LANE":"１７５巷","ALLEY":"８弄","HOUSE_NO":"６號","E_COORD97":170948.09810900001,"N_COORD97":2544139.6277899998,"ADDRESS":"光明街１７５巷８弄６號","OBJECTID":141723},"geometry":{"x":170948.09810900129,"y":2544139.6277860031}},{"attributes":{"ID":141724,"DIS_CODE":0,"TOWNNAME":"東區","LI":"小東里","LIN":"22鄰","STREET":"光明街","SECT":" ","MAREA":" ","LANE":"１７５巷","ALLEY":"８弄","HOUSE_NO":"８號","E_COORD97":170948.309973,"N_COORD97":2544136.45279,"ADDRESS":"光明街１７５巷８弄８號","OBJECTID":141724},"geometry":{"x":170948.30997299962,"y":2544136.4527870025}},{"attributes":{"ID":141725,"DIS_CODE":0,"TOWNNAME":"東山區","LI":"東原里","LIN":" ","STREET":" ","SECT":" ","MAREA":"前大埔","LANE":" ","ALLEY":" ","HOUSE_NO":"１０７號","E_COORD97":193706.06,"N_COORD97":2573875.2200000002,"ADDRESS":"前大埔１０７號","OBJECTID":141725},"geometry":{"x":193706.05999999959,"y":2573875.2200000007}},{"attributes":{"ID":141726,"DIS_CODE":0,"TOWNNAME":"東山區","LI":"東原里","LIN":" ","STREET":" ","SECT":" ","MAREA":"前大埔","LANE":" ","ALLEY":" ","HOUSE_NO":"１０號","E_COORD97":193345.85999999999,"N_COORD97":2573750.4500000002,"ADDRESS":"前大埔１０號","OBJECTID":141726},"geometry":{"x":193345.8600000022,"y":2573750.4499999974}},{"attributes":{"ID":141727,"DIS_CODE":0,"TOWNNAME":"東區","LI":"小東里","LIN":"22鄰","STREET":"光明街","SECT":" ","MAREA":" ","LANE":"１７５巷","ALLEY":"２２弄","HOUSE_NO":"１６號","E_COORD97":171000.95000000001,"N_COORD97":2544129.9300000002,"ADDRESS":"光明街１７５巷２２弄１６號","OBJECTID":141727},"geometry":{"x":171000.95000000112,"y":2544129.9300000016}},{"attributes":{"ID":141728,"DIS_CODE":0,"TOWNNAME":"東區","LI":"小東里","LIN":"22鄰","STREET":"光明街","SECT":" ","MAREA":" ","LANE":"１７５巷","ALLEY":"２２弄","HOUSE_NO":"５號","E_COORD97":170987.14999999999,"N_COORD97":2544136.3500000001,"ADDRESS":"光明街１７５巷２２弄５號","OBJECTID":141728},"geometry":{"x":170987.15000000037,"y":2544136.3499999996}},{"attributes":{"ID":141729,"DIS_CODE":0,"TOWNNAME":"東區","LI":"小東里","LIN":"22鄰","STREET":"光明街","SECT":" ","MAREA":" ","LANE":"１７５巷","ALLEY":"２２弄","HOUSE_NO":"７號","E_COORD97":171000.48000000001,"N_COORD97":2544137.1299999999,"ADDRESS":"光明街１７５巷２２弄７號","OBJECTID":141729},"geometry":{"x":171000.48000000045,"y":2544137.129999999}},{"attributes":{"ID":141730,"DIS_CODE":0,"TOWNNAME":"東區","LI":"崇誨里","LIN":"22鄰","STREET":"東寧路","SECT":" ","MAREA":" ","LANE":"２９６巷","ALLEY":"６弄","HOUSE_NO":"１７號","E_COORD97":170692.73999999999,"N_COORD97":2543373.02,"ADDRESS":"東寧路２９６巷６弄１７號","OBJECTID":141730},"geometry":{"x":170692.74000000115,"y":2543373.0200000014}},{"attributes":{"ID":141731,"DIS_CODE":0,"TOWNNAME":"東區","LI":"崇誨里","LIN":"22鄰","STREET":"東寧路","SECT":" ","MAREA":" ","LANE":"２９６巷","ALLEY":"６弄","HOUSE_NO":"２２號之２","E_COORD97":170667.31,"N_COORD97":2543388.3900000001,"ADDRESS":"東寧路２９６巷６弄２２號之２","OBJECTID":141731},"geometry":{"x":170667.31000000052,"y":2543388.3900000043}},{"attributes":{"ID":141732,"DIS_CODE":0,"TOWNNAME":"東山區","LI":"東原里","LIN":" ","STREET":" ","SECT":" ","MAREA":"前大埔","LANE":" ","ALLEY":" ","HOUSE_NO":"１１４之３號","E_COORD97":193916.91,"N_COORD97":2573379.4399999999,"ADDRESS":"前大埔１１４之３號","OBJECTID":141732},"geometry":{"x":193916.91000000108,"y":2573379.4400000013}},{"attributes":{"ID":141733,"DIS_CODE":0,"TOWNNAME":"東山區","LI":"東原里","LIN":" ","STREET":" ","SECT":" ","MAREA":"前大埔","LANE":" ","ALLEY":" ","HOUSE_NO":"１１４之４號","E_COORD97":194185.26000000001,"N_COORD97":2573169.8300000001,"ADDRESS":"前大埔１１４之４號","OBJECTID":141733},"geometry":{"x":194185.26000000071,"y":2573169.8300000019}},{"attributes":{"ID":141734,"DIS_CODE":0,"TOWNNAME":"東區","LI":"崇誨里","LIN":"22鄰","STREET":"東寧路","SECT":" ","MAREA":" ","LANE":"２９６巷","ALLEY":"６弄","HOUSE_NO":"２４號之１","E_COORD97":170664.73999999999,"N_COORD97":2543399.5,"ADDRESS":"東寧路２９６巷６弄２４號之１","OBJECTID":141734},"geometry":{"x":170664.73999999929,"y":2543399.5}},{"attributes":{"ID":141735,"DIS_CODE":0,"TOWNNAME":"東區","LI":"崇誨里","LIN":"22鄰","STREET":"東寧路","SECT":" ","MAREA":" ","LANE":"２９６巷","ALLEY":"６弄","HOUSE_NO":"１１號","E_COORD97":170704.45999999999,"N_COORD97":2543375.5899999999,"ADDRESS":"東寧路２９６巷６弄１１號","OBJECTID":141735},"geometry":{"x":170704.46000000089,"y":2543375.5899999999}},{"attributes":{"ID":141736,"DIS_CODE":0,"TOWNNAME":"東山區","LI":"東原里","LIN":" ","STREET":" ","SECT":" ","MAREA":"前大埔","LANE":" ","ALLEY":" ","HOUSE_NO":"１１５之１號","E_COORD97":194310.57000000001,"N_COORD97":2573012.2200000002,"ADDRESS":"前大埔１１５之１號","OBJECTID":141736},"geometry":{"x":194310.57000000216,"y":2573012.2200000025}},{"attributes":{"ID":141737,"DIS_CODE":0,"TOWNNAME":"東山區","LI":"東原里","LIN":" ","STREET":" ","SECT":" ","MAREA":"前大埔","LANE":" ","ALLEY":" ","HOUSE_NO":"１１９之１號","E_COORD97":194485.64000000001,"N_COORD97":2573121.5800000001,"ADDRESS":"前大埔１１９之１號","OBJECTID":141737},"geometry":{"x":194485.63999999873,"y":2573121.5800000019}},{"attributes":{"ID":141738,"DIS_CODE":0,"TOWNNAME":"東區","LI":"崇誨里","LIN":"22鄰","STREET":"東寧路","SECT":" ","MAREA":" ","LANE":"２９６巷","ALLEY":"６弄","HOUSE_NO":"１２號","E_COORD97":170692.79999999999,"N_COORD97":2543396.25,"ADDRESS":"東寧路２９６巷６弄１２號","OBJECTID":141738},"geometry":{"x":170692.80000000168,"y":2543396.2500000019}},{"attributes":{"ID":141739,"DIS_CODE":0,"TOWNNAME":"東區","LI":"崇誨里","LIN":"22鄰","STREET":"東寧路","SECT":" ","MAREA":" ","LANE":"２９６巷","ALLEY":"６弄","HOUSE_NO":"１３號","E_COORD97":170700.13,"N_COORD97":2543374.9100000001,"ADDRESS":"東寧路２９６巷６弄１３號","OBJECTID":141739},"geometry":{"x":170700.12999999989,"y":2543374.910000002}},{"attributes":{"ID":141740,"DIS_CODE":0,"TOWNNAME":"東山區","LI":"東原里","LIN":" ","STREET":" ","SECT":" ","MAREA":"前大埔","LANE":" ","ALLEY":" ","HOUSE_NO":"１１之６號","E_COORD97":193004.57000000001,"N_COORD97":2577418.2200000002,"ADDRESS":"前大埔１１之６號","OBJECTID":141740},"geometry":{"x":193004.5700000003,"y":2577418.2200000007}},{"attributes":{"ID":141741,"DIS_CODE":0,"TOWNNAME":"東山區","LI":"東原里","LIN":" ","STREET":" ","SECT":" ","MAREA":"前大埔","LANE":" ","ALLEY":" ","HOUSE_NO":"１２６之１號","E_COORD97":193006.72,"N_COORD97":2573729.8500000001,"ADDRESS":"前大埔１２６之１號","OBJECTID":141741},"geometry":{"x":193006.71999999974,"y":2573729.8499999996}},{"attributes":{"ID":141742,"DIS_CODE":0,"TOWNNAME":"東山區","LI":"東原里","LIN":" ","STREET":" ","SECT":" ","MAREA":"前大埔","LANE":" ","ALLEY":" ","HOUSE_NO":"１２６之２號","E_COORD97":193009.76999999999,"N_COORD97":2573727.0499999998,"ADDRESS":"前大埔１２６之２號","OBJECTID":141742},"geometry":{"x":193009.76999999955,"y":2573727.0500000007}},{"attributes":{"ID":141743,"DIS_CODE":0,"TOWNNAME":"東山區","LI":"東原里","LIN":" ","STREET":" ","SECT":" ","MAREA":"前大埔","LANE":" ","ALLEY":" ","HOUSE_NO":"１２６之８號","E_COORD97":193030.28,"N_COORD97":2573707.7400000002,"ADDRESS":"前大埔１２６之８號","OBJECTID":141743},"geometry":{"x":193030.28000000026,"y":2573707.7400000002}},{"attributes":{"ID":141744,"DIS_CODE":0,"TOWNNAME":"東山區","LI":"東原里","LIN":" ","STREET":" ","SECT":" ","MAREA":"前大埔","LANE":" ","ALLEY":" ","HOUSE_NO":"１２７號","E_COORD97":192955.19,"N_COORD97":2573767.6499999999,"ADDRESS":"前大埔１２７號","OBJECTID":141744},"geometry":{"x":192955.19000000041,"y":2573767.6500000041}},{"attributes":{"ID":141745,"DIS_CODE":0,"TOWNNAME":"東山區","LI":"東原里","LIN":" ","STREET":" ","SECT":" ","MAREA":"前大埔","LANE":" ","ALLEY":" ","HOUSE_NO":"１２８號","E_COORD97":193117.20000000001,"N_COORD97":2573689.9399999999,"ADDRESS":"前大埔１２８號","OBJECTID":141745},"geometry":{"x":193117.20000000019,"y":2573689.9400000032}},{"attributes":{"ID":141746,"DIS_CODE":0,"TOWNNAME":"東山區","LI":"東原里","LIN":" ","STREET":" ","SECT":" ","MAREA":"前大埔","LANE":" ","ALLEY":" ","HOUSE_NO":"１２之３號","E_COORD97":193272.76999999999,"N_COORD97":2573675.75,"ADDRESS":"前大埔１２之３號","OBJECTID":141746},"geometry":{"x":193272.77000000142,"y":2573675.7500000019}},{"attributes":{"ID":141747,"DIS_CODE":0,"TOWNNAME":"東山區","LI":"東原里","LIN":" ","STREET":" ","SECT":" ","MAREA":"前大埔","LANE":" ","ALLEY":" ","HOUSE_NO":"１３０號","E_COORD97":193109.82999999999,"N_COORD97":2573692.6499999999,"ADDRESS":"前大埔１３０號","OBJECTID":141747},"geometry":{"x":193109.83000000007,"y":2573692.6499999985}},{"attributes":{"ID":141748,"DIS_CODE":0,"TOWNNAME":"東山區","LI":"東原里","LIN":" ","STREET":" ","SECT":" ","MAREA":"前大埔","LANE":" ","ALLEY":" ","HOUSE_NO":"１３３之４號","E_COORD97":193061.12,"N_COORD97":2573711.23,"ADDRESS":"前大埔１３３之４號","OBJECTID":141748},"geometry":{"x":193061.12000000104,"y":2573711.2300000004}},{"attributes":{"ID":141749,"DIS_CODE":0,"TOWNNAME":"玉井區","LI":"玉田里","LIN":"33鄰","STREET":"大勇街","SECT":" ","MAREA":" ","LANE":" ","ALLEY":" ","HOUSE_NO":"３９號","E_COORD97":195554.72,"N_COORD97":2558186.25,"ADDRESS":"大勇街３９號","OBJECTID":141749},"geometry":{"x":195554.71999999974,"y":2558186.25}},{"attributes":{"ID":141750,"DIS_CODE":0,"TOWNNAME":"玉井區","LI":"玉田里","LIN":"33鄰","STREET":"大勇街","SECT":" ","MAREA":" ","LANE":" ","ALLEY":" ","HOUSE_NO":"４１號","E_COORD97":195549.92000000001,"N_COORD97":2558187.25,"ADDRESS":"大勇街４１號","OBJECTID":141750},"geometry":{"x":195549.91999999993,"y":2558187.25}},{"attributes":{"ID":141751,"DIS_CODE":0,"TOWNNAME":"玉井區","LI":"玉田里","LIN":"33鄰","STREET":"大勇街","SECT":" ","MAREA":" ","LANE":" ","ALLEY":" ","HOUSE_NO":"８２號","E_COORD97":195536.51000000001,"N_COORD97":2558198.25,"ADDRESS":"大勇街８２號","OBJECTID":141751},"geometry":{"x":195536.51000000071,"y":2558198.2500000019}},{"attributes":{"ID":141752,"DIS_CODE":0,"TOWNNAME":"玉井區","LI":"玉田里","LIN":"33鄰","STREET":"大勇街","SECT":" ","MAREA":" ","LANE":" ","ALLEY":" ","HOUSE_NO":"３７號","E_COORD97":195559.62,"N_COORD97":2558186.25,"ADDRESS":"大勇街３７號","OBJECTID":141752},"geometry":{"x":195559.62000000104,"y":2558186.25}},{"attributes":{"ID":141753,"DIS_CODE":0,"TOWNNAME":"玉井區","LI":"玉田里","LIN":"33鄰","STREET":"大勇街","SECT":" ","MAREA":" ","LANE":" ","ALLEY":" ","HOUSE_NO":"７６號","E_COORD97":195548.5,"N_COORD97":2558198.25,"ADDRESS":"大勇街７６號","OBJECTID":141753},"geometry":{"x":195548.50000000093,"y":2558198.2500000019}},{"attributes":{"ID":141754,"DIS_CODE":0,"TOWNNAME":"玉井區","LI":"玉田里","LIN":"33鄰","STREET":"忠孝街","SECT":" ","MAREA":" ","LANE":" ","ALLEY":" ","HOUSE_NO":"２３１號","E_COORD97":195507.84,"N_COORD97":2558241.25,"ADDRESS":"忠孝街２３１號","OBJECTID":141754},"geometry":{"x":195507.83999999985,"y":2558241.25}},{"attributes":{"ID":141755,"DIS_CODE":0,"TOWNNAME":"安南區","LI":"海東里","LIN":"21鄰","STREET":"海東二街","SECT":" ","MAREA":" ","LANE":" ","ALLEY":" ","HOUSE_NO":"７６號","E_COORD97":166862.861019,"N_COORD97":2547916.1930200001,"ADDRESS":"海東二街７６號","OBJECTID":141755},"geometry":{"x":166862.86101899948,"y":2547916.1930210013}},{"attributes":{"ID":141756,"DIS_CODE":0,"TOWNNAME":"玉井區","LI":"玉田里","LIN":"33鄰","STREET":"忠孝街","SECT":" ","MAREA":" ","LANE":" ","ALLEY":" ","HOUSE_NO":"１８１號","E_COORD97":195507.04000000001,"N_COORD97":2558112.25,"ADDRESS":"忠孝街１８１號","OBJECTID":141756},"geometry":{"x":195507.04000000004,"y":2558112.25}},{"attributes":{"ID":141757,"DIS_CODE":0,"TOWNNAME":"東山區","LI":"東原里","LIN":" ","STREET":" ","SECT":" ","MAREA":"前大埔","LANE":" ","ALLEY":" ","HOUSE_NO":"１３３號","E_COORD97":193098.76999999999,"N_COORD97":2573696.7200000002,"ADDRESS":"前大埔１３３號","OBJECTID":141757},"geometry":{"x":193098.77000000048,"y":2573696.7200000025}},{"attributes":{"ID":141758,"DIS_CODE":0,"TOWNNAME":"玉井區","LI":"玉田里","LIN":"33鄰","STREET":"忠孝街","SECT":" ","MAREA":" ","LANE":" ","ALLEY":" ","HOUSE_NO":"１８５號","E_COORD97":195506.64000000001,"N_COORD97":2558121.25,"ADDRESS":"忠孝街１８５號","OBJECTID":141758},"geometry":{"x":195506.6400000006,"y":2558121.2500000019}},{"attributes":{"ID":141759,"DIS_CODE":0,"TOWNNAME":"東山區","LI":"東原里","LIN":" ","STREET":" ","SECT":" ","MAREA":"前大埔","LANE":" ","ALLEY":" ","HOUSE_NO":"１３４號","E_COORD97":193046.17999999999,"N_COORD97":2573725.1099999999,"ADDRESS":"前大埔１３４號","OBJECTID":141759},"geometry":{"x":193046.17999999877,"y":2573725.1099999994}},{"attributes":{"ID":141760,"DIS_CODE":0,"TOWNNAME":"東山區","LI":"東原里","LIN":" ","STREET":" ","SECT":" ","MAREA":"前大埔","LANE":" ","ALLEY":" ","HOUSE_NO":"１３７號","E_COORD97":193123.70999999999,"N_COORD97":2573695.3399999999,"ADDRESS":"前大埔１３７號","OBJECTID":141760},"geometry":{"x":193123.70999999996,"y":2573695.3400000017}},{"attributes":{"ID":141761,"DIS_CODE":0,"TOWNNAME":"東區","LI":"崇誨里","LIN":"22鄰","STREET":"東寧路","SECT":" ","MAREA":" ","LANE":"２９６巷","ALLEY":"６弄","HOUSE_NO":"１５號","E_COORD97":170690.09,"N_COORD97":2543362.5899999999,"ADDRESS":"東寧路２９６巷６弄１５號","OBJECTID":141761},"geometry":{"x":170690.08999999985,"y":2543362.5900000036}},{"attributes":{"ID":141762,"DIS_CODE":0,"TOWNNAME":"東區","LI":"崇誨里","LIN":"22鄰","STREET":"東寧路","SECT":" ","MAREA":" ","LANE":"２９６巷","ALLEY":"６弄","HOUSE_NO":"１９號","E_COORD97":170686.5,"N_COORD97":2543371.9300000002,"ADDRESS":"東寧路２９６巷６弄１９號","OBJECTID":141762},"geometry":{"x":170686.49999999907,"y":2543371.9299999997}},{"attributes":{"ID":141763,"DIS_CODE":0,"TOWNNAME":"東區","LI":"崇誨里","LIN":"22鄰","STREET":"東寧路","SECT":" ","MAREA":" ","LANE":"２９６巷","ALLEY":"６弄","HOUSE_NO":"１號","E_COORD97":170726.56,"N_COORD97":2543378.5699999998,"ADDRESS":"東寧路２９６巷６弄１號","OBJECTID":141763},"geometry":{"x":170726.56000000145,"y":2543378.5700000003}},{"attributes":{"ID":141764,"DIS_CODE":0,"TOWNNAME":"東區","LI":"崇誨里","LIN":"22鄰","STREET":"東寧路","SECT":" ","MAREA":" ","LANE":"２９６巷","ALLEY":"６弄","HOUSE_NO":"２１號","E_COORD97":170683.10999999999,"N_COORD97":2543370.9900000002,"ADDRESS":"東寧路２９６巷６弄２１號","OBJECTID":141764},"geometry":{"x":170683.11000000127,"y":2543370.9900000021}},{"attributes":{"ID":141765,"DIS_CODE":0,"TOWNNAME":"東區","LI":"崇誨里","LIN":"22鄰","STREET":"東寧路","SECT":" ","MAREA":" ","LANE":"２９６巷","ALLEY":"６弄","HOUSE_NO":"２３號","E_COORD97":170678.76999999999,"N_COORD97":2543370.1699999999,"ADDRESS":"東寧路２９６巷６弄２３號","OBJECTID":141765},"geometry":{"x":170678.76999999955,"y":2543370.1700000018}},{"attributes":{"ID":141766,"DIS_CODE":0,"TOWNNAME":"東區","LI":"崇誨里","LIN":"22鄰","STREET":"東寧路","SECT":" ","MAREA":" ","LANE":"２９６巷","ALLEY":"６弄","HOUSE_NO":"２５號","E_COORD97":170674.57000000001,"N_COORD97":2543369.0899999999,"ADDRESS":"東寧路２９６巷６弄２５號","OBJECTID":141766},"geometry":{"x":170674.57000000216,"y":2543369.0900000036}},{"attributes":{"ID":141767,"DIS_CODE":0,"TOWNNAME":"東區","LI":"崇誨里","LIN":"22鄰","STREET":"東寧路","SECT":" ","MAREA":" ","LANE":"２９６巷","ALLEY":"６弄","HOUSE_NO":"２７號","E_COORD97":170669.95999999999,"N_COORD97":2543368.4100000001,"ADDRESS":"東寧路２９６巷６弄２７號","OBJECTID":141767},"geometry":{"x":170669.96000000183,"y":2543368.410000002}},{"attributes":{"ID":141768,"DIS_CODE":0,"TOWNNAME":"東區","LI":"崇誨里","LIN":"22鄰","STREET":"東寧路","SECT":" ","MAREA":" ","LANE":"２９６巷","ALLEY":"６弄","HOUSE_NO":"３號","E_COORD97":170722.5,"N_COORD97":2543377.0800000001,"ADDRESS":"東寧路２９６巷６弄３號","OBJECTID":141768},"geometry":{"x":170722.50000000093,"y":2543377.0800000019}},{"attributes":{"ID":141769,"DIS_CODE":0,"TOWNNAME":"東區","LI":"崇誨里","LIN":"22鄰","STREET":"東寧路","SECT":" ","MAREA":" ","LANE":"２９６巷","ALLEY":"６弄","HOUSE_NO":"７號","E_COORD97":170712.06,"N_COORD97":2543377.2200000002,"ADDRESS":"東寧路２９６巷６弄７號","OBJECTID":141769},"geometry":{"x":170712.05999999959,"y":2543377.2200000025}},{"attributes":{"ID":141770,"DIS_CODE":0,"TOWNNAME":"東區","LI":"衛國里","LIN":"22鄰","STREET":"林森路","SECT":"二段","MAREA":" ","LANE":"１９０巷","ALLEY":"６弄","HOUSE_NO":"１４號","E_COORD97":170487.79999999999,"N_COORD97":2543267.1499999999,"ADDRESS":"林森路二段１９０巷６弄１４號","OBJECTID":141770},"geometry":{"x":170487.80000000168,"y":2543267.1500000004}},{"attributes":{"ID":141771,"DIS_CODE":0,"TOWNNAME":"東區","LI":"衛國里","LIN":"22鄰","STREET":"林森路","SECT":"二段","MAREA":" ","LANE":"１９０巷","ALLEY":"６弄","HOUSE_NO":"３０號","E_COORD97":170494.37,"N_COORD97":2543245.21,"ADDRESS":"林森路二段１９０巷６弄３０號","OBJECTID":141771},"geometry":{"x":170494.37000000197,"y":2543245.2100000028}},{"attributes":{"ID":141772,"DIS_CODE":0,"TOWNNAME":"東區","LI":"衛國里","LIN":"22鄰","STREET":"林森路","SECT":"二段","MAREA":" ","LANE":"１９０巷","ALLEY":"６弄","HOUSE_NO":"３２號","E_COORD97":170486.31,"N_COORD97":2543244.4399999999,"ADDRESS":"林森路二段１９０巷６弄３２號","OBJECTID":141772},"geometry":{"x":170486.31000000052,"y":2543244.4400000032}},{"attributes":{"ID":141773,"DIS_CODE":0,"TOWNNAME":"東區","LI":"衛國里","LIN":"22鄰","STREET":"林森路","SECT":"二段","MAREA":" ","LANE":"１９０巷","ALLEY":"６弄","HOUSE_NO":"３４號","E_COORD97":170479.79000000001,"N_COORD97":2543243.29,"ADDRESS":"林森路二段１９０巷６弄３４號","OBJECTID":141773},"geometry":{"x":170479.79000000097,"y":2543243.2899999991}},{"attributes":{"ID":141774,"DIS_CODE":0,"TOWNNAME":"東區","LI":"衛國里","LIN":"22鄰","STREET":"林森路","SECT":"二段","MAREA":" ","LANE":"１９０巷","ALLEY":"６弄","HOUSE_NO":"３６號","E_COORD97":170473.64999999999,"N_COORD97":2543241.5699999998,"ADDRESS":"林森路二段１９０巷６弄３６號","OBJECTID":141774},"geometry":{"x":170473.65000000037,"y":2543241.5700000022}},{"attributes":{"ID":141775,"DIS_CODE":0,"TOWNNAME":"玉井區","LI":"玉田里","LIN":"33鄰","STREET":"民族路","SECT":" ","MAREA":" ","LANE":" ","ALLEY":" ","HOUSE_NO":"２２７號","E_COORD97":195568.48999999999,"N_COORD97":2558095.2799999998,"ADDRESS":"民族路２２７號","OBJECTID":141775},"geometry":{"x":195568.49000000022,"y":2558095.2800000031}},{"attributes":{"ID":141776,"DIS_CODE":0,"TOWNNAME":"東山區","LI":"東原里","LIN":" ","STREET":" ","SECT":" ","MAREA":"前大埔","LANE":" ","ALLEY":" ","HOUSE_NO":"１３號","E_COORD97":193268.69,"N_COORD97":2573737.5499999998,"ADDRESS":"前大埔１３號","OBJECTID":141776},"geometry":{"x":193268.69000000041,"y":2573737.5500000007}},{"attributes":{"ID":141777,"DIS_CODE":0,"TOWNNAME":"東山區","LI":"東原里","LIN":" ","STREET":" ","SECT":" ","MAREA":"前大埔","LANE":" ","ALLEY":" ","HOUSE_NO":"１４０之１號","E_COORD97":193127.97,"N_COORD97":2573718.8999999999,"ADDRESS":"前大埔１４０之１號","OBJECTID":141777},"geometry":{"x":193127.97000000067,"y":2573718.9000000022}},{"attributes":{"ID":141778,"DIS_CODE":0,"TOWNNAME":"東山區","LI":"東原里","LIN":" ","STREET":" ","SECT":" ","MAREA":"前大埔","LANE":" ","ALLEY":" ","HOUSE_NO":"１４６號","E_COORD97":193137.72,"N_COORD97":2573737.8799999999,"ADDRESS":"前大埔１４６號","OBJECTID":141778},"geometry":{"x":193137.7200000016,"y":2573737.8800000008}},{"attributes":{"ID":141779,"DIS_CODE":0,"TOWNNAME":"東山區","LI":"東原里","LIN":" ","STREET":" ","SECT":" ","MAREA":"前大埔","LANE":" ","ALLEY":" ","HOUSE_NO":"１４７號","E_COORD97":193138.87,"N_COORD97":2573741.2400000002,"ADDRESS":"前大埔１４７號","OBJECTID":141779},"geometry":{"x":193138.87000000104,"y":2573741.2400000002}},{"attributes":{"ID":141780,"DIS_CODE":0,"TOWNNAME":"東山區","LI":"東原里","LIN":" ","STREET":" ","SECT":" ","MAREA":"前大埔","LANE":" ","ALLEY":" ","HOUSE_NO":"１４８號","E_COORD97":193145.79000000001,"N_COORD97":2573755.2599999998,"ADDRESS":"前大埔１４８號","OBJECTID":141780},"geometry":{"x":193145.78999999911,"y":2573755.2599999998}},{"attributes":{"ID":141781,"DIS_CODE":0,"TOWNNAME":"東山區","LI":"東原里","LIN":" ","STREET":" ","SECT":" ","MAREA":"前大埔","LANE":" ","ALLEY":" ","HOUSE_NO":"１４號","E_COORD97":193264.98999999999,"N_COORD97":2573723.0699999998,"ADDRESS":"前大埔１４號","OBJECTID":141781},"geometry":{"x":193264.98999999929,"y":2573723.0700000003}},{"attributes":{"ID":141782,"DIS_CODE":0,"TOWNNAME":"東山區","LI":"東原里","LIN":" ","STREET":" ","SECT":" ","MAREA":"前大埔","LANE":" ","ALLEY":" ","HOUSE_NO":"１５０號","E_COORD97":193120.48000000001,"N_COORD97":2573729.5600000001,"ADDRESS":"前大埔１５０號","OBJECTID":141782},"geometry":{"x":193120.48000000138,"y":2573729.5600000005}},{"attributes":{"ID":141783,"DIS_CODE":0,"TOWNNAME":"東區","LI":"衛國里","LIN":"22鄰","STREET":"林森路","SECT":"二段","MAREA":" ","LANE":"１９０巷","ALLEY":"６弄","HOUSE_NO":"４０號","E_COORD97":170477.48999999999,"N_COORD97":2543229.9700000002,"ADDRESS":"林森路二段１９０巷６弄４０號","OBJECTID":141783},"geometry":{"x":170477.49000000115,"y":2543229.9700000025}},{"attributes":{"ID":141784,"DIS_CODE":0,"TOWNNAME":"東區","LI":"衛國里","LIN":"22鄰","STREET":"林森路","SECT":"二段","MAREA":" ","LANE":"１９０巷","ALLEY":"６弄","HOUSE_NO":"４２號","E_COORD97":170489,"N_COORD97":2543232.27,"ADDRESS":"林森路二段１９０巷６弄４２號","OBJECTID":141784},"geometry":{"x":170489.00000000093,"y":2543232.2700000014}},{"attributes":{"ID":141785,"DIS_CODE":0,"TOWNNAME":"東區","LI":"衛國里","LIN":"22鄰","STREET":"林森路","SECT":"二段","MAREA":" ","LANE":"１９０巷","ALLEY":"６弄","HOUSE_NO":"４６號","E_COORD97":170497.06,"N_COORD97":2543219.8199999998,"ADDRESS":"林森路二段１９０巷６弄４６號","OBJECTID":141785},"geometry":{"x":170497.05999999959,"y":2543219.8200000022}},{"attributes":{"ID":141786,"DIS_CODE":0,"TOWNNAME":"學甲區","LI":"三慶里","LIN":"33鄰","STREET":" ","SECT":" ","MAREA":"新芳","LANE":" ","ALLEY":" ","HOUSE_NO":"９１號之１１","E_COORD97":166205.98000000001,"N_COORD97":2575259.8799999999,"ADDRESS":"新芳９１號之１１","OBJECTID":141786},"geometry":{"x":166205.98000000045,"y":2575259.8800000008}},{"attributes":{"ID":141787,"DIS_CODE":0,"TOWNNAME":"學甲區","LI":"三慶里","LIN":"33鄰","STREET":" ","SECT":" ","MAREA":"新芳","LANE":" ","ALLEY":" ","HOUSE_NO":"９１號之１３","E_COORD97":166370.45999999999,"N_COORD97":2575276.71,"ADDRESS":"新芳９１號之１３","OBJECTID":141787},"geometry":{"x":166370.45999999996,"y":2575276.7100000028}},{"attributes":{"ID":141788,"DIS_CODE":0,"TOWNNAME":"學甲區","LI":"三慶里","LIN":"33鄰","STREET":" ","SECT":" ","MAREA":"新芳","LANE":" ","ALLEY":" ","HOUSE_NO":"９１號之１","E_COORD97":165527.28,"N_COORD97":2575433.4500000002,"ADDRESS":"新芳９１號之１","OBJECTID":141788},"geometry":{"x":165527.28000000119,"y":2575433.4500000011}},{"attributes":{"ID":141789,"DIS_CODE":0,"TOWNNAME":"學甲區","LI":"三慶里","LIN":"33鄰","STREET":" ","SECT":" ","MAREA":"新芳","LANE":" ","ALLEY":" ","HOUSE_NO":"９１號之２","E_COORD97":165697.62,"N_COORD97":2575375.5,"ADDRESS":"新芳９１號之２","OBJECTID":141789},"geometry":{"x":165697.62000000104,"y":2575375.5000000019}},{"attributes":{"ID":141790,"DIS_CODE":0,"TOWNNAME":"學甲區","LI":"三慶里","LIN":"33鄰","STREET":" ","SECT":" ","MAREA":"新芳","LANE":" ","ALLEY":" ","HOUSE_NO":"９１號之３","E_COORD97":165759.76000000001,"N_COORD97":2575408.48,"ADDRESS":"新芳９１號之３","OBJECTID":141790},"geometry":{"x":165759.75999999978,"y":2575408.4800000004}},{"attributes":{"ID":141791,"DIS_CODE":0,"TOWNNAME":"學甲區","LI":"三慶里","LIN":"33鄰","STREET":" ","SECT":" ","MAREA":"新芳","LANE":" ","ALLEY":" ","HOUSE_NO":"９１號之４","E_COORD97":165996.35000000001,"N_COORD97":2575565.1200000001,"ADDRESS":"新芳９１號之４","OBJECTID":141791},"geometry":{"x":165996.34999999963,"y":2575565.1200000048}},{"attributes":{"ID":141792,"DIS_CODE":0,"TOWNNAME":"東區","LI":"衛國里","LIN":"22鄰","STREET":"林森路","SECT":"二段","MAREA":" ","LANE":"１９０巷","ALLEY":"６弄","HOUSE_NO":"４號","E_COORD97":170461.14000000001,"N_COORD97":2543275.5800000001,"ADDRESS":"林森路二段１９０巷６弄４號","OBJECTID":141792},"geometry":{"x":170461.13999999966,"y":2543275.5800000019}},{"attributes":{"ID":141793,"DIS_CODE":0,"TOWNNAME":"學甲區","LI":"三慶里","LIN":"33鄰","STREET":" ","SECT":" ","MAREA":"新芳","LANE":" ","ALLEY":" ","HOUSE_NO":"９１號之５","E_COORD97":165920.45000000001,"N_COORD97":2575370.0800000001,"ADDRESS":"新芳９１號之５","OBJECTID":141793},"geometry":{"x":165920.45000000112,"y":2575370.0800000001}},{"attributes":{"ID":141794,"DIS_CODE":0,"TOWNNAME":"東區","LI":"衛國里","LIN":"22鄰","STREET":"林森路","SECT":"二段","MAREA":" ","LANE":"１９０巷","ALLEY":"６弄","HOUSE_NO":"６６號","E_COORD97":170496.10000000001,"N_COORD97":2543208.1299999999,"ADDRESS":"林森路二段１９０巷６弄６６號","OBJECTID":141794},"geometry":{"x":170496.10000000056,"y":2543208.129999999}},{"attributes":{"ID":141795,"DIS_CODE":0,"TOWNNAME":"學甲區","LI":"三慶里","LIN":"33鄰","STREET":" ","SECT":" ","MAREA":"新芳","LANE":" ","ALLEY":" ","HOUSE_NO":"９１號","E_COORD97":165543.81,"N_COORD97":2575429.75,"ADDRESS":"新芳９１號","OBJECTID":141795},"geometry":{"x":165543.80999999959,"y":2575429.75}},{"attributes":{"ID":141796,"DIS_CODE":0,"TOWNNAME":"東區","LI":"衛國里","LIN":"22鄰","STREET":"林森路","SECT":"二段","MAREA":" ","LANE":"１９０巷","ALLEY":"６弄","HOUSE_NO":"６８號","E_COORD97":170502.81,"N_COORD97":2543208.7000000002,"ADDRESS":"林森路二段１９０巷６弄６８號","OBJECTID":141796},"geometry":{"x":170502.81000000052,"y":2543208.7000000011}},{"attributes":{"ID":141797,"DIS_CODE":0,"TOWNNAME":"東區","LI":"衛國里","LIN":"22鄰","STREET":"林森路","SECT":"二段","MAREA":" ","LANE":"１９０巷","ALLEY":"６弄","HOUSE_NO":"６號","E_COORD97":170464.79000000001,"N_COORD97":2543264.4700000002,"ADDRESS":"林森路二段１９０巷６弄６號","OBJECTID":141797},"geometry":{"x":170464.79000000097,"y":2543264.4700000007}},{"attributes":{"ID":141798,"DIS_CODE":0,"TOWNNAME":"永康區","LI":"安康里","LIN":"22鄰","STREET":"中華西街","SECT":" ","MAREA":" ","LANE":"１２２巷","ALLEY":"９弄","HOUSE_NO":"８號","E_COORD97":170734.07999999999,"N_COORD97":2546194.2400000002,"ADDRESS":"中華西街１２２巷９弄８號","OBJECTID":141798},"geometry":{"x":170734.08000000101,"y":2546194.2400000021}},{"attributes":{"ID":141799,"DIS_CODE":0,"TOWNNAME":"學甲區","LI":"三慶里","LIN":"33鄰","STREET":" ","SECT":" ","MAREA":"新芳","LANE":" ","ALLEY":" ","HOUSE_NO":"９２號之１８","E_COORD97":166158.82999999999,"N_COORD97":2575391,"ADDRESS":"新芳９２號之１８","OBJECTID":141799},"geometry":{"x":166158.83000000101,"y":2575391}},{"attributes":{"ID":141800,"DIS_CODE":0,"TOWNNAME":"永康區","LI":"西勢里","LIN":"22鄰","STREET":"富強路","SECT":"一段","MAREA":" ","LANE":"１９４巷","ALLEY":"５弄","HOUSE_NO":"７號","E_COORD97":175649.64999999999,"N_COORD97":2546358.9199999999,"ADDRESS":"富強路一段１９４巷５弄７號","OBJECTID":141800},"geometry":{"x":175649.6500000013,"y":2546358.9200000018}}]}