{"displayFieldName":"TOWNNAME","fieldAliases":{"ID":"ID","DIS_CODE":"DIS_CODE","TOWNNAME":"TOWNNAME","LI":"LI","LIN":"LIN","STREET":"STREET","SECT":"SECT","MAREA":"MAREA","LANE":"LANE","ALLEY":"ALLEY","HOUSE_NO":"HOUSE_NO","E_COORD97":"E_COORD97","N_COORD97":"N_COORD97","ADDRESS":"ADDRESS","OBJECTID":"OBJECTID"},"geometryType":"esriGeometryPoint","spatialReference":{"wkid":102443,"latestWkid":3826},"fields":[{"name":"ID","type":"esriFieldTypeDouble","alias":"ID"},{"name":"DIS_CODE","type":"esriFieldTypeInteger","alias":"DIS_CODE"},{"name":"TOWNNAME","type":"esriFieldTypeString","alias":"TOWNNAME","length":8},{"name":"LI","type":"esriFieldTypeString","alias":"LI","length":8},{"name":"LIN","type":"esriFieldTypeString","alias":"LIN","length":12},{"name":"STREET","type":"esriFieldTypeString","alias":"STREET","length":20},{"name":"SECT","type":"esriFieldTypeString","alias":"SECT","length":8},{"name":"MAREA","type":"esriFieldTypeString","alias":"MAREA","length":12},{"name":"LANE","type":"esriFieldTypeString","alias":"LANE","length":10},{"name":"ALLEY","type":"esriFieldTypeString","alias":"ALLEY","length":10},{"name":"HOUSE_NO","type":"esriFieldTypeString","alias":"HOUSE_NO","length":20},{"name":"E_COORD97","type":"esriFieldTypeDouble","alias":"E_COORD97"},{"name":"N_COORD97","type":"esriFieldTypeDouble","alias":"N_COORD97"},{"name":"ADDRESS","type":"esriFieldTypeString","alias":"ADDRESS","length":50},{"name":"OBJECTID","type":"esriFieldTypeOID","alias":"OBJECTID"}],"features":[{"attributes":{"ID":259605,"DIS_CODE":0,"TOWNNAME":"東區","LI":"莊敬里","LIN":"2鄰","STREET":"東興路","SECT":" ","MAREA":" ","LANE":" ","ALLEY":" ","HOUSE_NO":"３８２號","E_COORD97":171037.98000000001,"N_COORD97":2544271.5,"ADDRESS":"東興路３８２號","OBJECTID":259601},"geometry":{"x":171037.97999999952,"y":2544271.4999999981}},{"attributes":{"ID":259606,"DIS_CODE":0,"TOWNNAME":"東區","LI":"崇明里","LIN":"10鄰","STREET":"大同路","SECT":"二段","MAREA":" ","LANE":" ","ALLEY":" ","HOUSE_NO":"５５５號","E_COORD97":169618.72,"N_COORD97":2541047.5299999998,"ADDRESS":"大同路二段５５５號","OBJECTID":259602},"geometry":{"x":169618.72000000067,"y":2541047.5300000012}},{"attributes":{"ID":259607,"DIS_CODE":0,"TOWNNAME":"東區","LI":"崇德里","LIN":"10鄰","STREET":"崇德八街","SECT":" ","MAREA":" ","LANE":" ","ALLEY":" ","HOUSE_NO":"５號","E_COORD97":170827.82999999999,"N_COORD97":2541626.0699999998,"ADDRESS":"崇德八街５號","OBJECTID":259603},"geometry":{"x":170827.83000000007,"y":2541626.0700000003}},{"attributes":{"ID":259608,"DIS_CODE":0,"TOWNNAME":"東區","LI":"小東里","LIN":"16鄰","STREET":"東安路","SECT":" ","MAREA":" ","LANE":" ","ALLEY":" ","HOUSE_NO":"２９０號地下一層","E_COORD97":170815.45999999999,"N_COORD97":2544209.2799999998,"ADDRESS":"東安路２９０號地下一層","OBJECTID":259604},"geometry":{"x":170815.45999999996,"y":2544209.2800000012}},{"attributes":{"ID":259609,"DIS_CODE":0,"TOWNNAME":"歸仁區","LI":"大廟里","LIN":"3鄰","STREET":"保大路","SECT":"三段","MAREA":" ","LANE":"１０３巷","ALLEY":" ","HOUSE_NO":"２１號","E_COORD97":176226.72149900001,"N_COORD97":2544034.7845000001,"ADDRESS":"保大路三段１０３巷２１號","OBJECTID":259605},"geometry":{"x":176226.72149899974,"y":2544034.784504002}},{"attributes":{"ID":259610,"DIS_CODE":0,"TOWNNAME":"歸仁區","LI":"大廟里","LIN":"3鄰","STREET":"保大路","SECT":"三段","MAREA":" ","LANE":"１０３巷","ALLEY":" ","HOUSE_NO":"２８號","E_COORD97":176219.73158699999,"N_COORD97":2544026.7411799999,"ADDRESS":"保大路三段１０３巷２８號","OBJECTID":259606},"geometry":{"x":176219.73158700112,"y":2544026.7411750015}},{"attributes":{"ID":259611,"DIS_CODE":0,"TOWNNAME":"官田區","LI":"隆田里","LIN":"22鄰","STREET":"信義街","SECT":"一段","MAREA":" ","LANE":"１２８巷","ALLEY":" ","HOUSE_NO":"６號","E_COORD97":179724.96599999999,"N_COORD97":2565681.1140000001,"ADDRESS":"信義街一段１２８巷６號","OBJECTID":259607},"geometry":{"x":179724.96600000095,"y":2565681.1140000019}},{"attributes":{"ID":259612,"DIS_CODE":0,"TOWNNAME":"東區","LI":"小東里","LIN":"16鄰","STREET":"東安路","SECT":" ","MAREA":" ","LANE":" ","ALLEY":" ","HOUSE_NO":"２８８號","E_COORD97":170810.48000000001,"N_COORD97":2544209.2799999998,"ADDRESS":"東安路２８８號","OBJECTID":259608},"geometry":{"x":170810.48000000045,"y":2544209.2800000012}},{"attributes":{"ID":259613,"DIS_CODE":0,"TOWNNAME":"歸仁區","LI":"崙頂里","LIN":"30鄰","STREET":"凱旋路","SECT":"一段","MAREA":" ","LANE":"６０１巷","ALLEY":" ","HOUSE_NO":"９００號","E_COORD97":176988.527906,"N_COORD97":2538350.84344,"ADDRESS":"凱旋路一段６０１巷９００號","OBJECTID":259609},"geometry":{"x":176988.52790600061,"y":2538350.8434360009}},{"attributes":{"ID":259614,"DIS_CODE":0,"TOWNNAME":"歸仁區","LI":"崙頂里","LIN":"12鄰","STREET":"成功路","SECT":"二段","MAREA":" ","LANE":"２５９巷","ALLEY":" ","HOUSE_NO":"５３號","E_COORD97":177787.88498599999,"N_COORD97":2539581.2611099998,"ADDRESS":"成功路二段２５９巷５３號","OBJECTID":259610},"geometry":{"x":177787.88498600014,"y":2539581.261105001}},{"attributes":{"ID":259615,"DIS_CODE":0,"TOWNNAME":"歸仁區","LI":"崙頂里","LIN":"6鄰","STREET":"信義南路","SECT":" ","MAREA":" ","LANE":"２０２巷","ALLEY":" ","HOUSE_NO":"５１號","E_COORD97":178046.21379800001,"N_COORD97":2540035.7091899998,"ADDRESS":"信義南路２０２巷５１號","OBJECTID":259611},"geometry":{"x":178046.21379800048,"y":2540035.7091930024}},{"attributes":{"ID":259616,"DIS_CODE":0,"TOWNNAME":"歸仁區","LI":"崙頂里","LIN":"16鄰","STREET":"崙頂街","SECT":" ","MAREA":" ","LANE":"１７巷","ALLEY":" ","HOUSE_NO":"２５之１號","E_COORD97":177950.244875,"N_COORD97":2540060.68585,"ADDRESS":"崙頂街１７巷２５之１號","OBJECTID":259612},"geometry":{"x":177950.24487499986,"y":2540060.6858460046}},{"attributes":{"ID":259617,"DIS_CODE":0,"TOWNNAME":"歸仁區","LI":"崙頂里","LIN":"16鄰","STREET":"崙頂街","SECT":" ","MAREA":" ","LANE":"１７巷","ALLEY":" ","HOUSE_NO":"４１號","E_COORD97":177965.92685399999,"N_COORD97":2540061.3208499998,"ADDRESS":"崙頂街１７巷４１號","OBJECTID":259613},"geometry":{"x":177965.92685400043,"y":2540061.3208460044}},{"attributes":{"ID":259618,"DIS_CODE":0,"TOWNNAME":"安南區","LI":"淵中里","LIN":"3鄰","STREET":"本淵路","SECT":" ","MAREA":" ","LANE":"５７巷","ALLEY":" ","HOUSE_NO":"３６號","E_COORD97":165182.14082,"N_COORD97":2549908.1653300002,"ADDRESS":"本淵路５７巷３６號","OBJECTID":259614},"geometry":{"x":165182.14082000032,"y":2549908.1653300039}},{"attributes":{"ID":259619,"DIS_CODE":0,"TOWNNAME":"歸仁區","LI":"看西里","LIN":"3鄰","STREET":"仁愛南街","SECT":" ","MAREA":" ","LANE":"１１７巷","ALLEY":" ","HOUSE_NO":"１號","E_COORD97":178310.02084899999,"N_COORD97":2540363.2557799998,"ADDRESS":"仁愛南街１１７巷１號","OBJECTID":259615},"geometry":{"x":178310.02084900066,"y":2540363.255783001}},{"attributes":{"ID":259620,"DIS_CODE":0,"TOWNNAME":"歸仁區","LI":"看西里","LIN":"3鄰","STREET":"仁愛南街","SECT":" ","MAREA":" ","LANE":"１１７巷","ALLEY":" ","HOUSE_NO":"３號","E_COORD97":178314.35217900001,"N_COORD97":2540363.4253400001,"ADDRESS":"仁愛南街１１７巷３號","OBJECTID":259616},"geometry":{"x":178314.35217899922,"y":2540363.4253420029}},{"attributes":{"ID":259621,"DIS_CODE":0,"TOWNNAME":"歸仁區","LI":"看西里","LIN":"3鄰","STREET":"仁愛南街","SECT":" ","MAREA":" ","LANE":"１１７巷","ALLEY":" ","HOUSE_NO":"９號","E_COORD97":178327.738576,"N_COORD97":2540363.6546100001,"ADDRESS":"仁愛南街１１７巷９號","OBJECTID":259617},"geometry":{"x":178327.73857600149,"y":2540363.6546060015}},{"attributes":{"ID":259622,"DIS_CODE":0,"TOWNNAME":"歸仁區","LI":"看西里","LIN":"3鄰","STREET":"仁愛南街","SECT":" ","MAREA":" ","LANE":"１１７巷","ALLEY":" ","HOUSE_NO":"１１號","E_COORD97":178332.09871699999,"N_COORD97":2540363.6546100001,"ADDRESS":"仁愛南街１１７巷１１號","OBJECTID":259618},"geometry":{"x":178332.09871700034,"y":2540363.6546060015}},{"attributes":{"ID":259623,"DIS_CODE":0,"TOWNNAME":"歸仁區","LI":"崙頂里","LIN":"12鄰","STREET":"凱旋路","SECT":"一段","MAREA":" ","LANE":"６０１巷","ALLEY":" ","HOUSE_NO":"８８０號","E_COORD97":177082.619779,"N_COORD97":2538359.2497299998,"ADDRESS":"凱旋路一段６０１巷８８０號","OBJECTID":259619},"geometry":{"x":177082.61977900006,"y":2538359.2497340012}},{"attributes":{"ID":259624,"DIS_CODE":0,"TOWNNAME":"歸仁區","LI":"看西里","LIN":"3鄰","STREET":"仁愛南街","SECT":" ","MAREA":" ","LANE":"１１７巷","ALLEY":" ","HOUSE_NO":"２１號","E_COORD97":178354.35838399999,"N_COORD97":2540364.0367100001,"ADDRESS":"仁愛南街１１７巷２１號","OBJECTID":259620},"geometry":{"x":178354.35838400014,"y":2540364.0367110018}},{"attributes":{"ID":259625,"DIS_CODE":0,"TOWNNAME":"歸仁區","LI":"看西里","LIN":"2鄰","STREET":"仁愛南街","SECT":" ","MAREA":" ","LANE":"１１７巷","ALLEY":" ","HOUSE_NO":"２３號","E_COORD97":178359.01519000001,"N_COORD97":2540364.1818200001,"ADDRESS":"仁愛南街１１７巷２３號","OBJECTID":259621},"geometry":{"x":178359.01519000065,"y":2540364.1818240024}},{"attributes":{"ID":259626,"DIS_CODE":0,"TOWNNAME":"歸仁區","LI":"看西里","LIN":"2鄰","STREET":"仁愛南街","SECT":" ","MAREA":" ","LANE":"１１７巷","ALLEY":" ","HOUSE_NO":"２５號","E_COORD97":178363.305505,"N_COORD97":2540364.2612000001,"ADDRESS":"仁愛南街１１７巷２５號","OBJECTID":259622},"geometry":{"x":178363.30550500005,"y":2540364.2611990031}},{"attributes":{"ID":259627,"DIS_CODE":0,"TOWNNAME":"歸仁區","LI":"崙頂里","LIN":"30鄰","STREET":"凱旋路","SECT":"二段","MAREA":" ","LANE":"１巷","ALLEY":" ","HOUSE_NO":"９８０號","E_COORD97":177042.59776800001,"N_COORD97":2538523.8663400002,"ADDRESS":"凱旋路二段１巷９８０號","OBJECTID":259623},"geometry":{"x":177042.59776800033,"y":2538523.8663410041}},{"attributes":{"ID":259628,"DIS_CODE":0,"TOWNNAME":"歸仁區","LI":"看西里","LIN":"2鄰","STREET":"仁愛南街","SECT":" ","MAREA":" ","LANE":"１１７巷","ALLEY":" ","HOUSE_NO":"２７號","E_COORD97":178367.489886,"N_COORD97":2540364.34057,"ADDRESS":"仁愛南街１１７巷２７號","OBJECTID":259624},"geometry":{"x":178367.48988600075,"y":2540364.3405740019}},{"attributes":{"ID":259629,"DIS_CODE":0,"TOWNNAME":"歸仁區","LI":"看西里","LIN":"2鄰","STREET":"仁愛南街","SECT":" ","MAREA":" ","LANE":"１１７巷","ALLEY":" ","HOUSE_NO":"２９號","E_COORD97":178371.939102,"N_COORD97":2540364.4993199999,"ADDRESS":"仁愛南街１１７巷２９號","OBJECTID":259625},"geometry":{"x":178371.93910200149,"y":2540364.4993239995}},{"attributes":{"ID":259630,"DIS_CODE":0,"TOWNNAME":"安南區","LI":"溪頂里","LIN":"15鄰","STREET":"北安路","SECT":"二段","MAREA":" ","LANE":"３２巷","ALLEY":" ","HOUSE_NO":"９號","E_COORD97":168606.45625300001,"N_COORD97":2547329.0792,"ADDRESS":"北安路二段３２巷９號","OBJECTID":259626},"geometry":{"x":168606.45625300054,"y":2547329.079198001}},{"attributes":{"ID":259631,"DIS_CODE":0,"TOWNNAME":"歸仁區","LI":"崙頂里","LIN":"30鄰","STREET":"凱旋路","SECT":"二段","MAREA":" ","LANE":"１巷","ALLEY":" ","HOUSE_NO":"９８６號","E_COORD97":177033.273349,"N_COORD97":2538522.17301,"ADDRESS":"凱旋路二段１巷９８６號","OBJECTID":259627},"geometry":{"x":177033.27334900107,"y":2538522.1730080005}},{"attributes":{"ID":259632,"DIS_CODE":0,"TOWNNAME":"歸仁區","LI":"崙頂里","LIN":"30鄰","STREET":"凱旋路","SECT":"二段","MAREA":" ","LANE":"１巷","ALLEY":" ","HOUSE_NO":"３６０號","E_COORD97":177398.95386000001,"N_COORD97":2539152.5156100001,"ADDRESS":"凱旋路二段１巷３６０號","OBJECTID":259628},"geometry":{"x":177398.95386000071,"y":2539152.5156089999}},{"attributes":{"ID":259633,"DIS_CODE":0,"TOWNNAME":"歸仁區","LI":"崙頂里","LIN":"30鄰","STREET":"凱旋路","SECT":"二段","MAREA":" ","LANE":"２１１巷","ALLEY":" ","HOUSE_NO":"１９號","E_COORD97":177065.817771,"N_COORD97":2539285.8655400001,"ADDRESS":"凱旋路二段２１１巷１９號","OBJECTID":259629},"geometry":{"x":177065.81777100079,"y":2539285.865536999}},{"attributes":{"ID":259634,"DIS_CODE":0,"TOWNNAME":"永康區","LI":"復華里","LIN":"21鄰","STREET":"復華七街","SECT":" ","MAREA":" ","LANE":"２２５巷","ALLEY":" ","HOUSE_NO":"１號","E_COORD97":172933.44409800001,"N_COORD97":2546427.5808100002,"ADDRESS":"復華七街２２５巷１號","OBJECTID":259630},"geometry":{"x":172933.44409800228,"y":2546427.5808090009}},{"attributes":{"ID":259635,"DIS_CODE":0,"TOWNNAME":"永康區","LI":"復華里","LIN":"21鄰","STREET":"復華七街","SECT":" ","MAREA":" ","LANE":"２２５巷","ALLEY":" ","HOUSE_NO":"１１號","E_COORD97":172908.23090299999,"N_COORD97":2546424.4058099999,"ADDRESS":"復華七街２２５巷１１號","OBJECTID":259631},"geometry":{"x":172908.23090300057,"y":2546424.4058110006}},{"attributes":{"ID":259636,"DIS_CODE":0,"TOWNNAME":"仁德區","LI":"太子里","LIN":"1鄰","STREET":"長興路","SECT":" ","MAREA":" ","LANE":"１２巷","ALLEY":" ","HOUSE_NO":"６號","E_COORD97":174165.202395,"N_COORD97":2543529.7731900001,"ADDRESS":"長興路１２巷６號","OBJECTID":259632},"geometry":{"x":174165.20239499863,"y":2543529.7731880005}},{"attributes":{"ID":259637,"DIS_CODE":0,"TOWNNAME":"永康區","LI":"復華里","LIN":"21鄰","STREET":"復華七街","SECT":" ","MAREA":" ","LANE":"２２５巷","ALLEY":" ","HOUSE_NO":"１３號","E_COORD97":172903.56964,"N_COORD97":2546425.2524799998,"ADDRESS":"復華七街２２５巷１３號","OBJECTID":259633},"geometry":{"x":172903.56964000128,"y":2546425.2524770033}},{"attributes":{"ID":259638,"DIS_CODE":0,"TOWNNAME":"永康區","LI":"復華里","LIN":"21鄰","STREET":"復華七街","SECT":" ","MAREA":" ","LANE":"２２５巷","ALLEY":" ","HOUSE_NO":"２１號","E_COORD97":172886.19584100001,"N_COORD97":2546425.88748,"ADDRESS":"復華七街２２５巷２１號","OBJECTID":259634},"geometry":{"x":172886.19584100135,"y":2546425.8874760028}},{"attributes":{"ID":259639,"DIS_CODE":0,"TOWNNAME":"永康區","LI":"復華里","LIN":"21鄰","STREET":"復華七街","SECT":" ","MAREA":" ","LANE":"２２５巷","ALLEY":" ","HOUSE_NO":"２３號","E_COORD97":172882.170205,"N_COORD97":2546426.0991400001,"ADDRESS":"復華七街２２５巷２３號","OBJECTID":259635},"geometry":{"x":172882.17020499986,"y":2546426.0991430003}},{"attributes":{"ID":259640,"DIS_CODE":0,"TOWNNAME":"永康區","LI":"復華里","LIN":"21鄰","STREET":"復華七街","SECT":" ","MAREA":" ","LANE":"２２５巷","ALLEY":" ","HOUSE_NO":"２７號","E_COORD97":172873.27142999999,"N_COORD97":2546426.7341399998,"ADDRESS":"復華七街２２５巷２７號","OBJECTID":259636},"geometry":{"x":172873.27143000066,"y":2546426.7341430001}},{"attributes":{"ID":259641,"DIS_CODE":0,"TOWNNAME":"永康區","LI":"復華里","LIN":"21鄰","STREET":"復華七街","SECT":" ","MAREA":" ","LANE":"２２５巷","ALLEY":" ","HOUSE_NO":"２９號","E_COORD97":172868.61016700001,"N_COORD97":2546426.3108100002,"ADDRESS":"復華七街２２５巷２９號","OBJECTID":259637},"geometry":{"x":172868.61016700137,"y":2546426.3108100016}},{"attributes":{"ID":259642,"DIS_CODE":0,"TOWNNAME":"永康區","LI":"復華里","LIN":"21鄰","STREET":"復華七街","SECT":" ","MAREA":" ","LANE":"２２５巷","ALLEY":" ","HOUSE_NO":"３１號","E_COORD97":172863.94890399999,"N_COORD97":2546425.4641399998,"ADDRESS":"復華七街２２５巷３１號","OBJECTID":259638},"geometry":{"x":172863.94890400022,"y":2546425.4641430005}},{"attributes":{"ID":259643,"DIS_CODE":0,"TOWNNAME":"安南區","LI":"長安里","LIN":"19鄰","STREET":"公學路","SECT":"二段","MAREA":" ","LANE":"１９０巷","ALLEY":" ","HOUSE_NO":"１２號","E_COORD97":167559.82069200001,"N_COORD97":2552226.1985999998,"ADDRESS":"公學路二段１９０巷１２號","OBJECTID":259639},"geometry":{"x":167559.82069200091,"y":2552226.198601}},{"attributes":{"ID":259644,"DIS_CODE":0,"TOWNNAME":"東區","LI":"德高里","LIN":"11鄰","STREET":"德高街","SECT":" ","MAREA":" ","LANE":" ","ALLEY":" ","HOUSE_NO":"８４號","E_COORD97":171482.39999999999,"N_COORD97":2540795.1800000002,"ADDRESS":"德高街８４號","OBJECTID":259640},"geometry":{"x":171482.40000000037,"y":2540795.1800000034}},{"attributes":{"ID":259645,"DIS_CODE":0,"TOWNNAME":"東區","LI":"崇信里","LIN":"6鄰","STREET":"崇信街","SECT":" ","MAREA":" ","LANE":" ","ALLEY":" ","HOUSE_NO":"２０號","E_COORD97":170687.20999999999,"N_COORD97":2542532.5899999999,"ADDRESS":"崇信街２０號","OBJECTID":259641},"geometry":{"x":170687.21000000089,"y":2542532.5900000017}},{"attributes":{"ID":259646,"DIS_CODE":0,"TOWNNAME":"東區","LI":"崇信里","LIN":"6鄰","STREET":"崇信街","SECT":" ","MAREA":" ","LANE":" ","ALLEY":" ","HOUSE_NO":"１８號","E_COORD97":170686.32999999999,"N_COORD97":2542536.6899999999,"ADDRESS":"崇信街１８號","OBJECTID":259642},"geometry":{"x":170686.33000000101,"y":2542536.6899999995}},{"attributes":{"ID":259647,"DIS_CODE":0,"TOWNNAME":"東區","LI":"龍山里","LIN":"20鄰","STREET":"崇善路","SECT":" ","MAREA":" ","LANE":" ","ALLEY":" ","HOUSE_NO":"１５７號","E_COORD97":170326.48999999999,"N_COORD97":2542394.2999999998,"ADDRESS":"崇善路１５７號","OBJECTID":259643},"geometry":{"x":170326.49000000115,"y":2542394.3000000007}},{"attributes":{"ID":259648,"DIS_CODE":0,"TOWNNAME":"東區","LI":"東智里","LIN":"13鄰","STREET":"崇德三十一街","SECT":" ","MAREA":" ","LANE":" ","ALLEY":" ","HOUSE_NO":"５號","E_COORD97":170837.89000000001,"N_COORD97":2540140.1899999999,"ADDRESS":"崇德三十一街５號","OBJECTID":259644},"geometry":{"x":170837.89000000153,"y":2540140.1899999976}},{"attributes":{"ID":259649,"DIS_CODE":0,"TOWNNAME":"東區","LI":"東智里","LIN":"13鄰","STREET":"崇德三十一街","SECT":" ","MAREA":" ","LANE":" ","ALLEY":" ","HOUSE_NO":"７號","E_COORD97":170846.20999999999,"N_COORD97":2540139.3799999999,"ADDRESS":"崇德三十一街７號","OBJECTID":259645},"geometry":{"x":170846.21000000183,"y":2540139.3800000008}},{"attributes":{"ID":259650,"DIS_CODE":0,"TOWNNAME":"東區","LI":"裕聖里","LIN":"17鄰","STREET":"裕信路","SECT":" ","MAREA":" ","LANE":" ","ALLEY":" ","HOUSE_NO":"３５９號","E_COORD97":172612.12,"N_COORD97":2542146.3599999999,"ADDRESS":"裕信路３５９號","OBJECTID":259646},"geometry":{"x":172612.12000000104,"y":2542146.3600000031}},{"attributes":{"ID":259651,"DIS_CODE":0,"TOWNNAME":"東區","LI":"和平里","LIN":"1鄰","STREET":"文化一街","SECT":" ","MAREA":" ","LANE":" ","ALLEY":" ","HOUSE_NO":"１００號","E_COORD97":171232.87,"N_COORD97":2541989.3100000001,"ADDRESS":"文化一街１００號","OBJECTID":259647},"geometry":{"x":171232.87000000011,"y":2541989.3100000024}},{"attributes":{"ID":259652,"DIS_CODE":0,"TOWNNAME":"東區","LI":"和平里","LIN":"1鄰","STREET":"文化一街","SECT":" ","MAREA":" ","LANE":" ","ALLEY":" ","HOUSE_NO":"１０２號","E_COORD97":171233.37,"N_COORD97":2541983.9100000001,"ADDRESS":"文化一街１０２號","OBJECTID":259648},"geometry":{"x":171233.37000000197,"y":2541983.9100000039}},{"attributes":{"ID":259653,"DIS_CODE":0,"TOWNNAME":"東區","LI":"和平里","LIN":"1鄰","STREET":"文化一街","SECT":" ","MAREA":" ","LANE":" ","ALLEY":" ","HOUSE_NO":"８８號","E_COORD97":171229.44,"N_COORD97":2542016.6600000001,"ADDRESS":"文化一街８８號","OBJECTID":259649},"geometry":{"x":171229.44000000041,"y":2542016.660000002}},{"attributes":{"ID":259654,"DIS_CODE":0,"TOWNNAME":"東區","LI":"龍山里","LIN":"4鄰","STREET":"東門路","SECT":"二段","MAREA":" ","LANE":" ","ALLEY":" ","HOUSE_NO":"３００號","E_COORD97":170600.73000000001,"N_COORD97":2542692.2599999998,"ADDRESS":"東門路二段３００號","OBJECTID":259650},"geometry":{"x":170600.73000000231,"y":2542692.2599999998}},{"attributes":{"ID":259655,"DIS_CODE":0,"TOWNNAME":"東區","LI":"龍山里","LIN":"4鄰","STREET":"東門路","SECT":"二段","MAREA":" ","LANE":" ","ALLEY":" ","HOUSE_NO":"２８６號","E_COORD97":170563.91,"N_COORD97":2542706.7999999998,"ADDRESS":"東門路二段２８６號","OBJECTID":259651},"geometry":{"x":170563.91000000108,"y":2542706.8000000007}},{"attributes":{"ID":259656,"DIS_CODE":0,"TOWNNAME":"東區","LI":"龍山里","LIN":"4鄰","STREET":"東門路","SECT":"二段","MAREA":" ","LANE":" ","ALLEY":" ","HOUSE_NO":"２８８號","E_COORD97":170571.85000000001,"N_COORD97":2542704.0800000001,"ADDRESS":"東門路二段２８８號","OBJECTID":259652},"geometry":{"x":170571.8499999987,"y":2542704.0800000001}},{"attributes":{"ID":259657,"DIS_CODE":0,"TOWNNAME":"東區","LI":"龍山里","LIN":"4鄰","STREET":"東門路","SECT":"二段","MAREA":" ","LANE":" ","ALLEY":" ","HOUSE_NO":"２９０號","E_COORD97":170579.22,"N_COORD97":2542702.1499999999,"ADDRESS":"東門路二段２９０號","OBJECTID":259653},"geometry":{"x":170579.21999999974,"y":2542702.1500000022}},{"attributes":{"ID":259658,"DIS_CODE":0,"TOWNNAME":"安平區","LI":"國平里","LIN":"4鄰","STREET":"建平五街","SECT":" ","MAREA":" ","LANE":"１８４巷","ALLEY":" ","HOUSE_NO":"３６－１號","E_COORD97":165602.5,"N_COORD97":2543288.6499999999,"ADDRESS":"建平五街１８４巷３６－１號","OBJECTID":259654},"geometry":{"x":165602.5,"y":2543288.6500000022}},{"attributes":{"ID":259659,"DIS_CODE":0,"TOWNNAME":"歸仁區","LI":"媽廟里","LIN":"11鄰","STREET":"中正北路","SECT":"三段","MAREA":" ","LANE":"２０５巷","ALLEY":" ","HOUSE_NO":"１４號","E_COORD97":177535.10132300001,"N_COORD97":2543874.6412399998,"ADDRESS":"中正北路三段２０５巷１４號","OBJECTID":259655},"geometry":{"x":177535.10132300016,"y":2543874.641238004}},{"attributes":{"ID":259660,"DIS_CODE":0,"TOWNNAME":"歸仁區","LI":"媽廟里","LIN":"11鄰","STREET":"中正北路","SECT":"三段","MAREA":" ","LANE":"２０５巷","ALLEY":" ","HOUSE_NO":"２０號","E_COORD97":177507.34669100001,"N_COORD97":2543887.76456,"ADDRESS":"中正北路三段２０５巷２０號","OBJECTID":259656},"geometry":{"x":177507.34669100121,"y":2543887.764565004}},{"attributes":{"ID":259661,"DIS_CODE":0,"TOWNNAME":"歸仁區","LI":"媽廟里","LIN":"11鄰","STREET":"中正北路","SECT":"三段","MAREA":" ","LANE":"２０５巷","ALLEY":" ","HOUSE_NO":"２２號","E_COORD97":177499.08386099999,"N_COORD97":2543885.2245700001,"ADDRESS":"中正北路三段２０５巷２２號","OBJECTID":259657},"geometry":{"x":177499.08386100084,"y":2543885.2245659996}},{"attributes":{"ID":259662,"DIS_CODE":0,"TOWNNAME":"仁德區","LI":"太子里","LIN":"10鄰","STREET":"長興路","SECT":" ","MAREA":" ","LANE":"１２巷","ALLEY":" ","HOUSE_NO":"１３號","E_COORD97":174172.73000000001,"N_COORD97":2543570.75,"ADDRESS":"長興路１２巷１３號","OBJECTID":259658},"geometry":{"x":174172.73000000138,"y":2543570.75}},{"attributes":{"ID":259663,"DIS_CODE":0,"TOWNNAME":"新市區","LI":"港墘里","LIN":"13鄰","STREET":"中山路","SECT":" ","MAREA":" ","LANE":"７８巷","ALLEY":" ","HOUSE_NO":"２７號","E_COORD97":178326.47799799999,"N_COORD97":2552845.69582,"ADDRESS":"中山路７８巷２７號","OBJECTID":259659},"geometry":{"x":178326.47799799964,"y":2552845.6958210021}},{"attributes":{"ID":259664,"DIS_CODE":0,"TOWNNAME":"新營區","LI":"延平里","LIN":"7鄰","STREET":"復興路","SECT":" ","MAREA":" ","LANE":"２９巷","ALLEY":" ","HOUSE_NO":"２７之１號","E_COORD97":179687.81690400001,"N_COORD97":2577948.0300400001,"ADDRESS":"復興路２９巷２７之１號","OBJECTID":259660},"geometry":{"x":179687.81690400001,"y":2577948.0300400015}},{"attributes":{"ID":259665,"DIS_CODE":0,"TOWNNAME":"中西區","LI":"保安里","LIN":"12鄰","STREET":"友愛街","SECT":" ","MAREA":" ","LANE":"２０６巷","ALLEY":" ","HOUSE_NO":"３８之１號","E_COORD97":167633.317136,"N_COORD97":2543720.75765,"ADDRESS":"友愛街２０６巷３８之１號","OBJECTID":259661},"geometry":{"x":167633.31713599991,"y":2543720.7576519996}},{"attributes":{"ID":259666,"DIS_CODE":0,"TOWNNAME":"新市區","LI":"港墘里","LIN":"26鄰","STREET":"中山路","SECT":" ","MAREA":" ","LANE":"７８巷","ALLEY":" ","HOUSE_NO":"２之６號","E_COORD97":178309.182634,"N_COORD97":2552858.6081400001,"ADDRESS":"中山路７８巷２之６號","OBJECTID":259662},"geometry":{"x":178309.18263400067,"y":2552858.6081450023}},{"attributes":{"ID":259667,"DIS_CODE":0,"TOWNNAME":"中西區","LI":"保安里","LIN":"12鄰","STREET":"友愛街","SECT":" ","MAREA":" ","LANE":"２０６巷","ALLEY":" ","HOUSE_NO":"３８之２號","E_COORD97":167634.37650899999,"N_COORD97":2543728.5893199998,"ADDRESS":"友愛街２０６巷３８之２號","OBJECTID":259663},"geometry":{"x":167634.37650900055,"y":2543728.5893149991}},{"attributes":{"ID":259668,"DIS_CODE":0,"TOWNNAME":"中西區","LI":"文賢里","LIN":"3鄰","STREET":"文和街","SECT":" ","MAREA":" ","LANE":"９巷","ALLEY":" ","HOUSE_NO":"２號","E_COORD97":167287.20920000001,"N_COORD97":2544956.1747900001,"ADDRESS":"文和街９巷２號","OBJECTID":259664},"geometry":{"x":167287.20920000132,"y":2544956.1747900005}},{"attributes":{"ID":259669,"DIS_CODE":0,"TOWNNAME":"下營區","LI":"下營里","LIN":"8鄰","STREET":"民生街","SECT":" ","MAREA":" ","LANE":"２８巷","ALLEY":" ","HOUSE_NO":"２號","E_COORD97":174469.383336,"N_COORD97":2570456.0486400002,"ADDRESS":"民生街２８巷２號","OBJECTID":259665},"geometry":{"x":174469.38333600014,"y":2570456.0486409999}},{"attributes":{"ID":259670,"DIS_CODE":0,"TOWNNAME":"中西區","LI":"保安里","LIN":"7鄰","STREET":"海安路","SECT":"一段","MAREA":" ","LANE":"１９０巷","ALLEY":" ","HOUSE_NO":"７號","E_COORD97":167564.034105,"N_COORD97":2543544.8627499999,"ADDRESS":"海安路一段１９０巷７號","OBJECTID":259666},"geometry":{"x":167564.03410500102,"y":2543544.8627470024}},{"attributes":{"ID":259671,"DIS_CODE":0,"TOWNNAME":"歸仁區","LI":"南興里","LIN":"34鄰","STREET":"民生北街","SECT":" ","MAREA":" ","LANE":"５０巷","ALLEY":" ","HOUSE_NO":"１號","E_COORD97":176302.34460000001,"N_COORD97":2541081.43621,"ADDRESS":"民生北街５０巷１號","OBJECTID":259667},"geometry":{"x":176302.34460000135,"y":2541081.4362130016}},{"attributes":{"ID":259672,"DIS_CODE":0,"TOWNNAME":"東區","LI":"龍山里","LIN":"4鄰","STREET":"東門路","SECT":"二段","MAREA":" ","LANE":" ","ALLEY":" ","HOUSE_NO":"２９２號","E_COORD97":170585.23000000001,"N_COORD97":2542700.21,"ADDRESS":"東門路二段２９２號","OBJECTID":259668},"geometry":{"x":170585.23000000045,"y":2542700.2100000009}},{"attributes":{"ID":259673,"DIS_CODE":0,"TOWNNAME":"中西區","LI":"保安里","LIN":"7鄰","STREET":"海安路","SECT":"一段","MAREA":" ","LANE":"１９０巷","ALLEY":" ","HOUSE_NO":"９號","E_COORD97":167560.43223499999,"N_COORD97":2543542.74608,"ADDRESS":"海安路一段１９０巷９號","OBJECTID":259669},"geometry":{"x":167560.43223499972,"y":2543542.7460820023}},{"attributes":{"ID":259674,"DIS_CODE":0,"TOWNNAME":"歸仁區","LI":"南興里","LIN":"19鄰","STREET":"南興一街","SECT":" ","MAREA":" ","LANE":"４８巷","ALLEY":" ","HOUSE_NO":"２號","E_COORD97":175731.11013300001,"N_COORD97":2541315.43359,"ADDRESS":"南興一街４８巷２號","OBJECTID":259670},"geometry":{"x":175731.11013300158,"y":2541315.4335859995}},{"attributes":{"ID":259675,"DIS_CODE":0,"TOWNNAME":"歸仁區","LI":"南興里","LIN":"19鄰","STREET":"南興一街","SECT":" ","MAREA":" ","LANE":"４８巷","ALLEY":" ","HOUSE_NO":"６號","E_COORD97":175731.53389699999,"N_COORD97":2541311.2002599998,"ADDRESS":"南興一街４８巷６號","OBJECTID":259671},"geometry":{"x":175731.53389700036,"y":2541311.2002549972}},{"attributes":{"ID":259676,"DIS_CODE":0,"TOWNNAME":"歸仁區","LI":"南興里","LIN":"19鄰","STREET":"南興一街","SECT":" ","MAREA":" ","LANE":"４８巷","ALLEY":" ","HOUSE_NO":"８號","E_COORD97":175730.89825,"N_COORD97":2541307.1785900001,"ADDRESS":"南興一街４８巷８號","OBJECTID":259672},"geometry":{"x":175730.89825000055,"y":2541307.1785910018}},{"attributes":{"ID":259677,"DIS_CODE":0,"TOWNNAME":"歸仁區","LI":"南興里","LIN":"19鄰","STREET":"南興一街","SECT":" ","MAREA":" ","LANE":"４８巷","ALLEY":" ","HOUSE_NO":"１０號","E_COORD97":175733.440837,"N_COORD97":2541302.3102600002,"ADDRESS":"南興一街４８巷１０號","OBJECTID":259673},"geometry":{"x":175733.4408370005,"y":2541302.3102599997}},{"attributes":{"ID":259678,"DIS_CODE":0,"TOWNNAME":"新市區","LI":"新市里","LIN":"8鄰","STREET":"民生路","SECT":" ","MAREA":" ","LANE":"２巷","ALLEY":" ","HOUSE_NO":"２號","E_COORD97":177409.74838199999,"N_COORD97":2553138.9781300002,"ADDRESS":"民生路２巷２號","OBJECTID":259674},"geometry":{"x":177409.74838200025,"y":2553138.9781310037}},{"attributes":{"ID":259679,"DIS_CODE":0,"TOWNNAME":"歸仁區","LI":"看西里","LIN":"11鄰","STREET":"成功六街","SECT":" ","MAREA":" ","LANE":"３８巷","ALLEY":" ","HOUSE_NO":"２７號","E_COORD97":178425.96536999999,"N_COORD97":2540234.9857800002,"ADDRESS":"成功六街３８巷２７號","OBJECTID":259675},"geometry":{"x":178425.96537000034,"y":2540234.9857759997}},{"attributes":{"ID":259680,"DIS_CODE":0,"TOWNNAME":"安南區","LI":"佃西里","LIN":"10鄰","STREET":"海佃路","SECT":"四段","MAREA":" ","LANE":"４５２巷","ALLEY":" ","HOUSE_NO":"１０號","E_COORD97":165479.16415500001,"N_COORD97":2551605.4544899999,"ADDRESS":"海佃路四段４５２巷１０號","OBJECTID":259676},"geometry":{"x":165479.16415500082,"y":2551605.454489002}},{"attributes":{"ID":259681,"DIS_CODE":0,"TOWNNAME":"歸仁區","LI":"看西里","LIN":"22鄰","STREET":"成功七街","SECT":" ","MAREA":" ","LANE":"７９巷","ALLEY":" ","HOUSE_NO":"７號","E_COORD97":178251.22764,"N_COORD97":2539748.09956,"ADDRESS":"成功七街７９巷７號","OBJECTID":259677},"geometry":{"x":178251.2276400011,"y":2539748.0995630026}},{"attributes":{"ID":259682,"DIS_CODE":0,"TOWNNAME":"安南區","LI":"四草里","LIN":"3鄰","STREET":"大眾路","SECT":" ","MAREA":" ","LANE":"３０１巷","ALLEY":" ","HOUSE_NO":"５９８號","E_COORD97":161912.788103,"N_COORD97":2545697.8372599999,"ADDRESS":"大眾路３０１巷５９８號","OBJECTID":259678},"geometry":{"x":161912.78810300026,"y":2545697.8372550011}},{"attributes":{"ID":259683,"DIS_CODE":0,"TOWNNAME":"歸仁區","LI":"大廟里","LIN":"15鄰","STREET":"大廟六街","SECT":" ","MAREA":" ","LANE":"２５３巷","ALLEY":" ","HOUSE_NO":"４０號","E_COORD97":176369.57181699999,"N_COORD97":2544771.0687899999,"ADDRESS":"大廟六街２５３巷４０號","OBJECTID":259679},"geometry":{"x":176369.5718170004,"y":2544771.0687920004}},{"attributes":{"ID":259684,"DIS_CODE":0,"TOWNNAME":"歸仁區","LI":"大廟里","LIN":"12鄰","STREET":"大廟六街","SECT":" ","MAREA":" ","LANE":"６８巷","ALLEY":" ","HOUSE_NO":"９號","E_COORD97":176103.788142,"N_COORD97":2544193.2190999999,"ADDRESS":"大廟六街６８巷９號","OBJECTID":259680},"geometry":{"x":176103.78814200126,"y":2544193.2191039994}},{"attributes":{"ID":259685,"DIS_CODE":0,"TOWNNAME":"歸仁區","LI":"大廟里","LIN":"16鄰","STREET":"大廟六街","SECT":" ","MAREA":" ","LANE":"９３巷","ALLEY":" ","HOUSE_NO":"３５號","E_COORD97":176097.85830699999,"N_COORD97":2544324.6640300001,"ADDRESS":"大廟六街９３巷３５號","OBJECTID":259681},"geometry":{"x":176097.85830700025,"y":2544324.6640329994}},{"attributes":{"ID":259686,"DIS_CODE":0,"TOWNNAME":"歸仁區","LI":"大廟里","LIN":"15鄰","STREET":"大廟六街","SECT":" ","MAREA":" ","LANE":"９３巷","ALLEY":" ","HOUSE_NO":"３８號","E_COORD97":176096.16406800001,"N_COORD97":2544336.9406900001,"ADDRESS":"大廟六街９３巷３８號","OBJECTID":259682},"geometry":{"x":176096.16406800039,"y":2544336.9406930041}},{"attributes":{"ID":259687,"DIS_CODE":0,"TOWNNAME":"歸仁區","LI":"南興里","LIN":"19鄰","STREET":"南興一街","SECT":" ","MAREA":" ","LANE":"２４巷","ALLEY":" ","HOUSE_NO":"５號","E_COORD97":175699.62737999999,"N_COORD97":2541309.35482,"ADDRESS":"南興一街２４巷５號","OBJECTID":259683},"geometry":{"x":175699.62738000043,"y":2541309.3548200019}},{"attributes":{"ID":259688,"DIS_CODE":0,"TOWNNAME":"關廟區","LI":"關廟里","LIN":"3鄰","STREET":"武聖路","SECT":" ","MAREA":" ","LANE":"１９巷","ALLEY":" ","HOUSE_NO":"２３號","E_COORD97":180936.41907999999,"N_COORD97":2540117.9574799999,"ADDRESS":"武聖路１９巷２３號","OBJECTID":259684},"geometry":{"x":180936.41908000037,"y":2540117.9574810024}},{"attributes":{"ID":259689,"DIS_CODE":0,"TOWNNAME":"新市區","LI":"新市里","LIN":"4鄰","STREET":"華興街","SECT":" ","MAREA":" ","LANE":"５２巷","ALLEY":" ","HOUSE_NO":"３號","E_COORD97":177691.149855,"N_COORD97":2553037.0606900002,"ADDRESS":"華興街５２巷３號","OBJECTID":259685},"geometry":{"x":177691.1498550009,"y":2553037.0606859997}},{"attributes":{"ID":259690,"DIS_CODE":0,"TOWNNAME":"佳里區","LI":"建南里","LIN":"13鄰","STREET":"新生路","SECT":" ","MAREA":" ","LANE":"４４１巷","ALLEY":" ","HOUSE_NO":"５２號","E_COORD97":165182.43825400001,"N_COORD97":2562034.5891700001,"ADDRESS":"新生路４４１巷５２號","OBJECTID":259686},"geometry":{"x":165182.43825400062,"y":2562034.5891719982}},{"attributes":{"ID":259691,"DIS_CODE":0,"TOWNNAME":"歸仁區","LI":"歸仁里","LIN":"2鄰","STREET":"文化街","SECT":"一段","MAREA":" ","LANE":"１７５巷","ALLEY":" ","HOUSE_NO":"１號","E_COORD97":177766.43484900001,"N_COORD97":2541094.8369100001,"ADDRESS":"文化街一段１７５巷１號","OBJECTID":259687},"geometry":{"x":177766.4348489996,"y":2541094.8369079996}},{"attributes":{"ID":259692,"DIS_CODE":0,"TOWNNAME":"關廟區","LI":"關廟里","LIN":"2鄰","STREET":"武聖路","SECT":" ","MAREA":" ","LANE":"１９巷","ALLEY":" ","HOUSE_NO":"１７號","E_COORD97":180939.25994799999,"N_COORD97":2540130.40484,"ADDRESS":"武聖路１９巷１７號","OBJECTID":259688},"geometry":{"x":180939.25994800124,"y":2540130.4048410002}},{"attributes":{"ID":259693,"DIS_CODE":0,"TOWNNAME":"關廟區","LI":"山西里","LIN":"7鄰","STREET":"中山路","SECT":"二段","MAREA":" ","LANE":"２６２巷","ALLEY":" ","HOUSE_NO":"２０之１號","E_COORD97":179752.60706400001,"N_COORD97":2540739.8055699999,"ADDRESS":"中山路二段２６２巷２０之１號","OBJECTID":259689},"geometry":{"x":179752.60706400033,"y":2540739.8055739999}},{"attributes":{"ID":259694,"DIS_CODE":0,"TOWNNAME":"安南區","LI":"理想里","LIN":"18鄰","STREET":"大安街","SECT":" ","MAREA":" ","LANE":"２８５巷","ALLEY":" ","HOUSE_NO":"１６號","E_COORD97":167466.53,"N_COORD97":2548540.3500000001,"ADDRESS":"大安街２８５巷１６號","OBJECTID":259690},"geometry":{"x":167466.53000000119,"y":2548540.3499999996}},{"attributes":{"ID":259695,"DIS_CODE":0,"TOWNNAME":"仁德區","LI":"仁愛里","LIN":"28鄰","STREET":"大同路","SECT":"三段","MAREA":" ","LANE":"４９０巷","ALLEY":" ","HOUSE_NO":"５１號","E_COORD97":169701.75701999999,"N_COORD97":2539196.1499999999,"ADDRESS":"大同路三段４９０巷５１號","OBJECTID":259691},"geometry":{"x":169701.7570200013,"y":2539196.1500000022}},{"attributes":{"ID":259696,"DIS_CODE":0,"TOWNNAME":"新市區","LI":"港墘里","LIN":"1鄰","STREET":"中山路","SECT":" ","MAREA":" ","LANE":"１３巷","ALLEY":" ","HOUSE_NO":"２之１１號","E_COORD97":178911.07000000001,"N_COORD97":2553732.5499999998,"ADDRESS":"中山路１３巷２之１１號","OBJECTID":259692},"geometry":{"x":178911.0700000003,"y":2553732.5500000026}},{"attributes":{"ID":259697,"DIS_CODE":0,"TOWNNAME":"新市區","LI":"新和里","LIN":"27鄰","STREET":"永福街","SECT":" ","MAREA":" ","LANE":"１６巷","ALLEY":" ","HOUSE_NO":"３９號","E_COORD97":177789.20999999999,"N_COORD97":2552792,"ADDRESS":"永福街１６巷３９號","OBJECTID":259693},"geometry":{"x":177789.20999999996,"y":2552792.0000000037}},{"attributes":{"ID":259698,"DIS_CODE":0,"TOWNNAME":"新市區","LI":"新和里","LIN":"27鄰","STREET":"永福街","SECT":" ","MAREA":" ","LANE":"１６巷","ALLEY":" ","HOUSE_NO":"３７號","E_COORD97":177788.31,"N_COORD97":2552788.75,"ADDRESS":"永福街１６巷３７號","OBJECTID":259694},"geometry":{"x":177788.30999999959,"y":2552788.75}},{"attributes":{"ID":259699,"DIS_CODE":0,"TOWNNAME":"新市區","LI":"新和里","LIN":"27鄰","STREET":"永福街","SECT":" ","MAREA":" ","LANE":"１６巷","ALLEY":" ","HOUSE_NO":"３３號","E_COORD97":177787.01000000001,"N_COORD97":2552779.25,"ADDRESS":"永福街１６巷３３號","OBJECTID":259695},"geometry":{"x":177787.00999999978,"y":2552779.25}},{"attributes":{"ID":259700,"DIS_CODE":0,"TOWNNAME":"歸仁區","LI":"媽廟里","LIN":"24鄰","STREET":"保大路","SECT":"一段","MAREA":" ","LANE":"１３３巷","ALLEY":" ","HOUSE_NO":"３２號","E_COORD97":177761.32999999999,"N_COORD97":2543934.7200000002,"ADDRESS":"保大路一段１３３巷３２號","OBJECTID":259696},"geometry":{"x":177761.33000000007,"y":2543934.7200000007}},{"attributes":{"ID":259701,"DIS_CODE":0,"TOWNNAME":"歸仁區","LI":"西埔里","LIN":"2鄰","STREET":"保大路","SECT":"二段","MAREA":" ","LANE":"１６５巷","ALLEY":" ","HOUSE_NO":"１７號","E_COORD97":176911.88,"N_COORD97":2544087.25,"ADDRESS":"保大路二段１６５巷１７號","OBJECTID":259697},"geometry":{"x":176911.87999999896,"y":2544087.2500000019}},{"attributes":{"ID":259702,"DIS_CODE":0,"TOWNNAME":"歸仁區","LI":"西埔里","LIN":"7鄰","STREET":"保大路","SECT":"二段","MAREA":" ","LANE":"１１８巷","ALLEY":" ","HOUSE_NO":"５５號","E_COORD97":177131.11851999999,"N_COORD97":2544260.56072,"ADDRESS":"保大路二段１１８巷５５號","OBJECTID":259698},"geometry":{"x":177131.11852000002,"y":2544260.5607200023}},{"attributes":{"ID":259703,"DIS_CODE":0,"TOWNNAME":"關廟區","LI":"布袋里","LIN":"4鄰","STREET":"長和街","SECT":" ","MAREA":" ","LANE":"１２５巷","ALLEY":" ","HOUSE_NO":"７號","E_COORD97":182781.44,"N_COORD97":2535048.2999999998,"ADDRESS":"長和街１２５巷７號","OBJECTID":259699},"geometry":{"x":182781.44000000134,"y":2535048.3000000007}},{"attributes":{"ID":259704,"DIS_CODE":0,"TOWNNAME":"關廟區","LI":"布袋里","LIN":"4鄰","STREET":"長和街","SECT":" ","MAREA":" ","LANE":"１２５巷","ALLEY":" ","HOUSE_NO":"１７號","E_COORD97":182792.19,"N_COORD97":2535018.2999999998,"ADDRESS":"長和街１２５巷１７號","OBJECTID":259700},"geometry":{"x":182792.19000000041,"y":2535018.3000000045}},{"attributes":{"ID":259705,"DIS_CODE":0,"TOWNNAME":"關廟區","LI":"布袋里","LIN":"4鄰","STREET":"長和街","SECT":" ","MAREA":" ","LANE":"１２５巷","ALLEY":" ","HOUSE_NO":"１９號","E_COORD97":182794.89000000001,"N_COORD97":2535011.2999999998,"ADDRESS":"長和街１２５巷１９號","OBJECTID":259701},"geometry":{"x":182794.88999999966,"y":2535011.3000000045}},{"attributes":{"ID":259706,"DIS_CODE":0,"TOWNNAME":"關廟區","LI":"田中里","LIN":"4鄰","STREET":"田大路","SECT":" ","MAREA":" ","LANE":"８０巷","ALLEY":" ","HOUSE_NO":"２號","E_COORD97":184222.39000000001,"N_COORD97":2533776.2999999998,"ADDRESS":"田大路８０巷２號","OBJECTID":259702},"geometry":{"x":184222.38999999966,"y":2533776.3000000007}},{"attributes":{"ID":259707,"DIS_CODE":0,"TOWNNAME":"關廟區","LI":"田中里","LIN":"2鄰","STREET":"田大路","SECT":" ","MAREA":" ","LANE":"１２２巷","ALLEY":" ","HOUSE_NO":"５號","E_COORD97":184314.55321799999,"N_COORD97":2533728.87469,"ADDRESS":"田大路１２２巷５號","OBJECTID":259703},"geometry":{"x":184314.55321800057,"y":2533728.8746900018}},{"attributes":{"ID":259708,"DIS_CODE":0,"TOWNNAME":"關廟區","LI":"布袋里","LIN":"4鄰","STREET":"長和街","SECT":" ","MAREA":" ","LANE":"１２５巷","ALLEY":" ","HOUSE_NO":"９號","E_COORD97":182783.64000000001,"N_COORD97":2535041.2999999998,"ADDRESS":"長和街１２５巷９號","OBJECTID":259704},"geometry":{"x":182783.63999999966,"y":2535041.3000000007}},{"attributes":{"ID":259709,"DIS_CODE":0,"TOWNNAME":"關廟區","LI":"田中里","LIN":"4鄰","STREET":"中大街","SECT":" ","MAREA":" ","LANE":"９７巷","ALLEY":" ","HOUSE_NO":"１號","E_COORD97":184221.161215,"N_COORD97":2533732.1028,"ADDRESS":"中大街９７巷１號","OBJECTID":259705},"geometry":{"x":184221.16121499985,"y":2533732.1027950011}},{"attributes":{"ID":259710,"DIS_CODE":0,"TOWNNAME":"關廟區","LI":"龜洞里","LIN":"4鄰","STREET":"中崙街","SECT":" ","MAREA":" ","LANE":"１１巷","ALLEY":" ","HOUSE_NO":"１１號","E_COORD97":183315.94,"N_COORD97":2533493.25,"ADDRESS":"中崙街１１巷１１號","OBJECTID":259706},"geometry":{"x":183315.94000000041,"y":2533493.2500000019}},{"attributes":{"ID":259711,"DIS_CODE":0,"TOWNNAME":"關廟區","LI":"田中里","LIN":"4鄰","STREET":"田大路","SECT":" ","MAREA":" ","LANE":"８０巷","ALLEY":" ","HOUSE_NO":"８號","E_COORD97":184219.69,"N_COORD97":2533767.2999999998,"ADDRESS":"田大路８０巷８號","OBJECTID":259707},"geometry":{"x":184219.69000000041,"y":2533767.3000000045}},{"attributes":{"ID":259712,"DIS_CODE":0,"TOWNNAME":"關廟區","LI":"龜洞里","LIN":"4鄰","STREET":"南雄南路","SECT":" ","MAREA":" ","LANE":"７８６巷","ALLEY":" ","HOUSE_NO":"８號","E_COORD97":183230.14000000001,"N_COORD97":2533449.2999999998,"ADDRESS":"南雄南路７８６巷８號","OBJECTID":259708},"geometry":{"x":183230.1400000006,"y":2533449.3000000026}},{"attributes":{"ID":259713,"DIS_CODE":0,"TOWNNAME":"歸仁區","LI":"媽廟里","LIN":"23鄰","STREET":"保大路","SECT":"一段","MAREA":" ","LANE":"１５１巷","ALLEY":" ","HOUSE_NO":"１２號","E_COORD97":177707.23000000001,"N_COORD97":2543966.7200000002,"ADDRESS":"保大路一段１５１巷１２號","OBJECTID":259709},"geometry":{"x":177707.23000000138,"y":2543966.7200000025}},{"attributes":{"ID":259714,"DIS_CODE":0,"TOWNNAME":"歸仁區","LI":"媽廟里","LIN":"23鄰","STREET":"保大路","SECT":"一段","MAREA":" ","LANE":"１５１巷","ALLEY":" ","HOUSE_NO":"１８號","E_COORD97":177710.13,"N_COORD97":2543946.7200000002,"ADDRESS":"保大路一段１５１巷１８號","OBJECTID":259710},"geometry":{"x":177710.12999999989,"y":2543946.7200000025}},{"attributes":{"ID":259715,"DIS_CODE":0,"TOWNNAME":"關廟區","LI":"田中里","LIN":"2鄰","STREET":"田大路","SECT":" ","MAREA":" ","LANE":"１２２巷","ALLEY":" ","HOUSE_NO":"１號","E_COORD97":184320.90938500001,"N_COORD97":2533733.5578100001,"ADDRESS":"田大路１２２巷１號","OBJECTID":259711},"geometry":{"x":184320.90938500036,"y":2533733.5578119997}},{"attributes":{"ID":259716,"DIS_CODE":0,"TOWNNAME":"歸仁區","LI":"媽廟里","LIN":"24鄰","STREET":"保大路","SECT":"一段","MAREA":" ","LANE":"１３３巷","ALLEY":" ","HOUSE_NO":"２號","E_COORD97":177769.67999999999,"N_COORD97":2544001.7200000002,"ADDRESS":"保大路一段１３３巷２號","OBJECTID":259712},"geometry":{"x":177769.68000000063,"y":2544001.7200000007}},{"attributes":{"ID":259717,"DIS_CODE":0,"TOWNNAME":"歸仁區","LI":"媽廟里","LIN":"24鄰","STREET":"保大路","SECT":"一段","MAREA":" ","LANE":"１５１巷","ALLEY":" ","HOUSE_NO":"１５號","E_COORD97":177736.82999999999,"N_COORD97":2543953.7200000002,"ADDRESS":"保大路一段１５１巷１５號","OBJECTID":259713},"geometry":{"x":177736.83000000101,"y":2543953.7200000025}},{"attributes":{"ID":259718,"DIS_CODE":0,"TOWNNAME":"歸仁區","LI":"媽廟里","LIN":"24鄰","STREET":"保大路","SECT":"一段","MAREA":" ","LANE":"１５１巷","ALLEY":" ","HOUSE_NO":"２１號","E_COORD97":177720.32999999999,"N_COORD97":2543933.7200000002,"ADDRESS":"保大路一段１５１巷２１號","OBJECTID":259714},"geometry":{"x":177720.33000000007,"y":2543933.7200000007}},{"attributes":{"ID":259719,"DIS_CODE":0,"TOWNNAME":"歸仁區","LI":"媽廟里","LIN":"23鄰","STREET":"保大路","SECT":"一段","MAREA":" ","LANE":"１５１巷","ALLEY":" ","HOUSE_NO":"２號","E_COORD97":177708.17999999999,"N_COORD97":2544005.7200000002,"ADDRESS":"保大路一段１５１巷２號","OBJECTID":259715},"geometry":{"x":177708.18000000156,"y":2544005.7200000007}},{"attributes":{"ID":259720,"DIS_CODE":0,"TOWNNAME":"歸仁區","LI":"媽廟里","LIN":"20鄰","STREET":"保大路","SECT":"一段","MAREA":" ","LANE":"１５１巷","ALLEY":" ","HOUSE_NO":"３６號","E_COORD97":177712.92999999999,"N_COORD97":2543888.7200000002,"ADDRESS":"保大路一段１５１巷３６號","OBJECTID":259716},"geometry":{"x":177712.9299999997,"y":2543888.7200000025}},{"attributes":{"ID":259721,"DIS_CODE":0,"TOWNNAME":"歸仁區","LI":"八甲里","LIN":"5鄰","STREET":"大光街","SECT":" ","MAREA":" ","LANE":"１０１巷","ALLEY":" ","HOUSE_NO":"９號","E_COORD97":177968.340039,"N_COORD97":2541807.8579299999,"ADDRESS":"大光街１０１９號","OBJECTID":259717},"geometry":{"x":177968.34003900085,"y":2541807.8579320014}},{"attributes":{"ID":259722,"DIS_CODE":0,"TOWNNAME":"歸仁區","LI":"八甲里","LIN":"14鄰","STREET":"大明街","SECT":" ","MAREA":" ","LANE":"１３９巷","ALLEY":" ","HOUSE_NO":"１１號","E_COORD97":178148.70881499999,"N_COORD97":2541956.02452,"ADDRESS":"大明街１３９１１號","OBJECTID":259718},"geometry":{"x":178148.70881500188,"y":2541956.0245190002}},{"attributes":{"ID":259723,"DIS_CODE":0,"TOWNNAME":"歸仁區","LI":"西埔里","LIN":"6鄰","STREET":"保大路","SECT":"二段","MAREA":" ","LANE":"１１８巷","ALLEY":" ","HOUSE_NO":"５３號","E_COORD97":177128.04402999999,"N_COORD97":2544257.1740600001,"ADDRESS":"保大路二段１１８巷５３號","OBJECTID":259719},"geometry":{"x":177128.04402999952,"y":2544257.174060002}},{"attributes":{"ID":259724,"DIS_CODE":0,"TOWNNAME":"歸仁區","LI":"西埔里","LIN":"6鄰","STREET":"保大路","SECT":"二段","MAREA":" ","LANE":"１１８巷","ALLEY":" ","HOUSE_NO":"３５號","E_COORD97":177114.40737,"N_COORD97":2544209.0593900001,"ADDRESS":"保大路二段１１８巷３５號","OBJECTID":259720},"geometry":{"x":177114.40736999922,"y":2544209.059390001}},{"attributes":{"ID":259725,"DIS_CODE":0,"TOWNNAME":"仁德區","LI":"上崙里","LIN":"20鄰","STREET":"上崙一街","SECT":" ","MAREA":" ","LANE":"５６巷","ALLEY":" ","HOUSE_NO":"１８號","E_COORD97":173780.22713300001,"N_COORD97":2538015.58366,"ADDRESS":"上崙一街５６巷１８號","OBJECTID":259721},"geometry":{"x":173780.22713300027,"y":2538015.5836650003}},{"attributes":{"ID":259726,"DIS_CODE":0,"TOWNNAME":"歸仁區","LI":"媽廟里","LIN":"24鄰","STREET":"保大路","SECT":"一段","MAREA":" ","LANE":"１５１巷","ALLEY":" ","HOUSE_NO":"１１號","E_COORD97":177719.53,"N_COORD97":2543970.7200000002,"ADDRESS":"保大路一段１５１巷１１號","OBJECTID":259722},"geometry":{"x":177719.53000000026,"y":2543970.7200000025}},{"attributes":{"ID":259727,"DIS_CODE":0,"TOWNNAME":"歸仁區","LI":"媽廟里","LIN":"23鄰","STREET":"保大路","SECT":"一段","MAREA":" ","LANE":"１５１巷","ALLEY":" ","HOUSE_NO":"２０號","E_COORD97":177712.23000000001,"N_COORD97":2543939.7200000002,"ADDRESS":"保大路一段１５１巷２０號","OBJECTID":259723},"geometry":{"x":177712.23000000138,"y":2543939.7200000025}},{"attributes":{"ID":259728,"DIS_CODE":0,"TOWNNAME":"歸仁區","LI":"媽廟里","LIN":"24鄰","STREET":"保大路","SECT":"一段","MAREA":" ","LANE":"１５１巷","ALLEY":" ","HOUSE_NO":"５號","E_COORD97":177723.48000000001,"N_COORD97":2543996.7200000002,"ADDRESS":"保大路一段１５１巷５號","OBJECTID":259724},"geometry":{"x":177723.48000000045,"y":2543996.7200000025}},{"attributes":{"ID":259729,"DIS_CODE":0,"TOWNNAME":"歸仁區","LI":"媽廟里","LIN":"24鄰","STREET":"保大路","SECT":"一段","MAREA":" ","LANE":"１５１巷","ALLEY":" ","HOUSE_NO":"９號","E_COORD97":177718.28,"N_COORD97":2543978.7200000002,"ADDRESS":"保大路一段１５１巷９號","OBJECTID":259725},"geometry":{"x":177718.28000000212,"y":2543978.7200000007}},{"attributes":{"ID":259730,"DIS_CODE":0,"TOWNNAME":"歸仁區","LI":"媽廟里","LIN":"21鄰","STREET":"保大路","SECT":"一段","MAREA":" ","LANE":"１５１巷","ALLEY":" ","HOUSE_NO":"２２號","E_COORD97":177710.13,"N_COORD97":2543933.7200000002,"ADDRESS":"保大路一段１５１巷２２號","OBJECTID":259726},"geometry":{"x":177710.12999999989,"y":2543933.7200000007}},{"attributes":{"ID":259731,"DIS_CODE":0,"TOWNNAME":"歸仁區","LI":"西埔里","LIN":"6鄰","STREET":"保大路","SECT":"二段","MAREA":" ","LANE":"１１８巷","ALLEY":" ","HOUSE_NO":"２５號","E_COORD97":177097.33861999999,"N_COORD97":2544188.95107,"ADDRESS":"保大路二段１１８巷２５號","OBJECTID":259727},"geometry":{"x":177097.33861999959,"y":2544188.9510699995}},{"attributes":{"ID":259732,"DIS_CODE":0,"TOWNNAME":"關廟區","LI":"布袋里","LIN":"4鄰","STREET":"長和街","SECT":" ","MAREA":" ","LANE":"１２５巷","ALLEY":" ","HOUSE_NO":"１３號","E_COORD97":182787.14000000001,"N_COORD97":2535030.2999999998,"ADDRESS":"長和街１２５巷１３號","OBJECTID":259728},"geometry":{"x":182787.13999999873,"y":2535030.3000000007}},{"attributes":{"ID":259733,"DIS_CODE":0,"TOWNNAME":"關廟區","LI":"布袋里","LIN":"4鄰","STREET":"長和街","SECT":" ","MAREA":" ","LANE":"１２５巷","ALLEY":" ","HOUSE_NO":"５號","E_COORD97":182779.44,"N_COORD97":2535053.2999999998,"ADDRESS":"長和街１２５巷５號","OBJECTID":259729},"geometry":{"x":182779.44000000134,"y":2535053.3000000026}},{"attributes":{"ID":259734,"DIS_CODE":0,"TOWNNAME":"東區","LI":"中西里","LIN":"8鄰","STREET":"勝利路","SECT":" ","MAREA":" ","LANE":" ","ALLEY":" ","HOUSE_NO":"２８號","E_COORD97":169805.19,"N_COORD97":2543430.8100000001,"ADDRESS":"勝利路２８號","OBJECTID":259730},"geometry":{"x":169805.19000000041,"y":2543430.8100000024}},{"attributes":{"ID":259735,"DIS_CODE":0,"TOWNNAME":"關廟區","LI":"布袋里","LIN":"4鄰","STREET":"長和街","SECT":" ","MAREA":" ","LANE":"１２５巷","ALLEY":" ","HOUSE_NO":"３號","E_COORD97":182777.54000000001,"N_COORD97":2535058.2999999998,"ADDRESS":"長和街１２５巷３號","OBJECTID":259731},"geometry":{"x":182777.54000000004,"y":2535058.3000000007}},{"attributes":{"ID":259736,"DIS_CODE":0,"TOWNNAME":"關廟區","LI":"布袋里","LIN":"4鄰","STREET":"長和街","SECT":" ","MAREA":" ","LANE":"１２５巷","ALLEY":" ","HOUSE_NO":"１５號","E_COORD97":182790.29000000001,"N_COORD97":2535024.2999999998,"ADDRESS":"長和街１２５巷１５號","OBJECTID":259732},"geometry":{"x":182790.29000000097,"y":2535024.3000000007}},{"attributes":{"ID":259737,"DIS_CODE":0,"TOWNNAME":"關廟區","LI":"田中里","LIN":"4鄰","STREET":"中大街","SECT":" ","MAREA":" ","LANE":"９６巷","ALLEY":" ","HOUSE_NO":"８號","E_COORD97":184081.34,"N_COORD97":2533600.2999999998,"ADDRESS":"中大街９６巷８號","OBJECTID":259733},"geometry":{"x":184081.34000000078,"y":2533600.3000000007}},{"attributes":{"ID":259738,"DIS_CODE":0,"TOWNNAME":"關廟區","LI":"布袋里","LIN":"4鄰","STREET":"長和街","SECT":" ","MAREA":" ","LANE":"１２５巷","ALLEY":" ","HOUSE_NO":"１１號","E_COORD97":182785.23999999999,"N_COORD97":2535036.2999999998,"ADDRESS":"長和街１２５巷１１號","OBJECTID":259734},"geometry":{"x":182785.24000000022,"y":2535036.3000000026}},{"attributes":{"ID":259739,"DIS_CODE":0,"TOWNNAME":"東區","LI":"後甲里","LIN":"1鄰","STREET":"裕農路","SECT":" ","MAREA":" ","LANE":" ","ALLEY":" ","HOUSE_NO":"８４３號","E_COORD97":172298.54000000001,"N_COORD97":2543339.3399999999,"ADDRESS":"裕農路８４３號","OBJECTID":259735},"geometry":{"x":172298.5400000019,"y":2543339.3399999999}},{"attributes":{"ID":259740,"DIS_CODE":0,"TOWNNAME":"安南區","LI":"海東里","LIN":"22鄰","STREET":"同安路","SECT":" ","MAREA":" ","LANE":"８３巷","ALLEY":" ","HOUSE_NO":"２２號","E_COORD97":166898.913065,"N_COORD97":2549004.4920899998,"ADDRESS":"同安路８３巷２２號","OBJECTID":259736},"geometry":{"x":166898.91306500044,"y":2549004.4920920003}},{"attributes":{"ID":259741,"DIS_CODE":0,"TOWNNAME":"關廟區","LI":"布袋里","LIN":"5鄰","STREET":"長文街","SECT":" ","MAREA":" ","LANE":"１０５巷","ALLEY":" ","HOUSE_NO":"３１號","E_COORD97":182946.84,"N_COORD97":2535356.2999999998,"ADDRESS":"長文街１０５３１號","OBJECTID":259737},"geometry":{"x":182946.83999999985,"y":2535356.3000000007}},{"attributes":{"ID":259742,"DIS_CODE":0,"TOWNNAME":"關廟區","LI":"龜洞里","LIN":"8鄰","STREET":"官崙街","SECT":" ","MAREA":" ","LANE":"３２巷","ALLEY":" ","HOUSE_NO":"５號","E_COORD97":183448.54000000001,"N_COORD97":2533412.2999999998,"ADDRESS":"官崙街３２５號","OBJECTID":259738},"geometry":{"x":183448.54000000097,"y":2533412.3000000026}},{"attributes":{"ID":259743,"DIS_CODE":0,"TOWNNAME":"關廟區","LI":"布袋里","LIN":"4鄰","STREET":"長文街","SECT":" ","MAREA":" ","LANE":"２０５巷","ALLEY":" ","HOUSE_NO":"１１號","E_COORD97":182695.04000000001,"N_COORD97":2535236.2999999998,"ADDRESS":"長文街２０５巷１１號","OBJECTID":259739},"geometry":{"x":182695.0400000019,"y":2535236.3000000026}},{"attributes":{"ID":259744,"DIS_CODE":0,"TOWNNAME":"關廟區","LI":"龜洞里","LIN":"8鄰","STREET":"南雄南路","SECT":" ","MAREA":" ","LANE":"７０１巷","ALLEY":" ","HOUSE_NO":"２９號","E_COORD97":183402.19,"N_COORD97":2533340.2999999998,"ADDRESS":"南雄南路７０１２９號","OBJECTID":259740},"geometry":{"x":183402.19000000134,"y":2533340.3000000026}},{"attributes":{"ID":259745,"DIS_CODE":0,"TOWNNAME":"關廟區","LI":"新光里","LIN":"4鄰","STREET":"新湖街","SECT":" ","MAREA":" ","LANE":"９１巷","ALLEY":" ","HOUSE_NO":"８號","E_COORD97":183433.82000000001,"N_COORD97":2541591.2999999998,"ADDRESS":"新湖街９１巷８號","OBJECTID":259741},"geometry":{"x":183433.8200000003,"y":2541591.3000000007}},{"attributes":{"ID":259746,"DIS_CODE":0,"TOWNNAME":"歸仁區","LI":"媽廟里","LIN":"25鄰","STREET":"保大路","SECT":"一段","MAREA":" ","LANE":"１３３巷","ALLEY":" ","HOUSE_NO":"５號","E_COORD97":177780.91,"N_COORD97":2544004.3599999999,"ADDRESS":"保大路一段１３３巷５號","OBJECTID":259742},"geometry":{"x":177780.91000000015,"y":2544004.3600000031}},{"attributes":{"ID":259747,"DIS_CODE":0,"TOWNNAME":"仁德區","LI":"太子里","LIN":"29鄰","STREET":"太子四街","SECT":" ","MAREA":" ","LANE":"３５巷","ALLEY":" ","HOUSE_NO":"２號","E_COORD97":173057.51540400001,"N_COORD97":2542996.7701699999,"ADDRESS":"太子四街３５巷２號","OBJECTID":259743},"geometry":{"x":173057.51540400088,"y":2542996.7701710016}},{"attributes":{"ID":259748,"DIS_CODE":0,"TOWNNAME":"下營區","LI":"下營里","LIN":"7鄰","STREET":"民生街","SECT":" ","MAREA":" ","LANE":"２８巷","ALLEY":" ","HOUSE_NO":"９號","E_COORD97":174454.34305699999,"N_COORD97":2570451.6036399999,"ADDRESS":"民生街２８巷９號","OBJECTID":259744},"geometry":{"x":174454.34305700101,"y":2570451.6036430001}},{"attributes":{"ID":259749,"DIS_CODE":0,"TOWNNAME":"仁德區","LI":"仁愛里","LIN":"28鄰","STREET":"大同路","SECT":"三段","MAREA":" ","LANE":"４９０巷","ALLEY":" ","HOUSE_NO":"４９號","E_COORD97":169705.87226100001,"N_COORD97":2539196.1499999999,"ADDRESS":"大同路三段４９０巷４９號","OBJECTID":259745},"geometry":{"x":169705.87226099987,"y":2539196.1500000022}},{"attributes":{"ID":259750,"DIS_CODE":0,"TOWNNAME":"仁德區","LI":"保安里","LIN":"10鄰","STREET":"文賢二街","SECT":" ","MAREA":" ","LANE":"４６巷","ALLEY":" ","HOUSE_NO":"５號","E_COORD97":171756.267272,"N_COORD97":2536103.3445700002,"ADDRESS":"文賢二街４６巷５號","OBJECTID":259746},"geometry":{"x":171756.2672720002,"y":2536103.3445740007}},{"attributes":{"ID":259751,"DIS_CODE":0,"TOWNNAME":"仁德區","LI":"一甲里","LIN":"12鄰","STREET":"忠義路","SECT":" ","MAREA":" ","LANE":"３４１巷","ALLEY":" ","HOUSE_NO":"９號","E_COORD97":173564.86470999999,"N_COORD97":2541837.1960399998,"ADDRESS":"忠義路３４１巷９號","OBJECTID":259747},"geometry":{"x":173564.86471000127,"y":2541837.1960420012}},{"attributes":{"ID":259752,"DIS_CODE":0,"TOWNNAME":"仁德區","LI":"一甲里","LIN":"3鄰","STREET":"中正路","SECT":"三段","MAREA":" ","LANE":"１１４巷","ALLEY":" ","HOUSE_NO":"２之１號","E_COORD97":173426.41,"N_COORD97":2541644.48,"ADDRESS":"中正路三段１１４巷２之１號","OBJECTID":259748},"geometry":{"x":173426.41000000015,"y":2541644.4800000004}},{"attributes":{"ID":259753,"DIS_CODE":0,"TOWNNAME":"仁德區","LI":"新田里","LIN":"4鄰","STREET":"勝利路","SECT":" ","MAREA":" ","LANE":" ","ALLEY":" ","HOUSE_NO":"１３７號","E_COORD97":174237.78605299999,"N_COORD97":2539658.6423399998,"ADDRESS":"勝利路１３７號","OBJECTID":259749},"geometry":{"x":174237.78605300002,"y":2539658.6423370037}},{"attributes":{"ID":259754,"DIS_CODE":0,"TOWNNAME":"仁德區","LI":"仁義里","LIN":"34鄰","STREET":"正義二街","SECT":" ","MAREA":" ","LANE":" ","ALLEY":" ","HOUSE_NO":"８３號","E_COORD97":173614.73000000001,"N_COORD97":2541582.27,"ADDRESS":"正義二街８３號","OBJECTID":259750},"geometry":{"x":173614.73000000231,"y":2541582.2700000014}},{"attributes":{"ID":259755,"DIS_CODE":0,"TOWNNAME":"仁德區","LI":"仁愛里","LIN":"28鄰","STREET":"大同路","SECT":"三段","MAREA":" ","LANE":"４９０巷","ALLEY":" ","HOUSE_NO":"５３號","E_COORD97":169696.33879000001,"N_COORD97":2539196.1499999999,"ADDRESS":"大同路三段４９０巷５３號","OBJECTID":259751},"geometry":{"x":169696.33878999949,"y":2539196.1500000022}},{"attributes":{"ID":259756,"DIS_CODE":0,"TOWNNAME":"安南區","LI":"青草里","LIN":"9鄰","STREET":"青砂街","SECT":"二段","MAREA":" ","LANE":"２９９巷","ALLEY":" ","HOUSE_NO":"８０號","E_COORD97":159047.23716300001,"N_COORD97":2553007.7446699999,"ADDRESS":"青砂街二段２９９巷８０號","OBJECTID":259752},"geometry":{"x":159047.23716299981,"y":2553007.7446650025}},{"attributes":{"ID":259757,"DIS_CODE":0,"TOWNNAME":"中西區","LI":"中正里","LIN":"11鄰","STREET":"海安路","SECT":"二段","MAREA":" ","LANE":"９７巷","ALLEY":" ","HOUSE_NO":"２３號","E_COORD97":167580.867084,"N_COORD97":2543959.64267,"ADDRESS":"海安路二段９７巷２３號","OBJECTID":259753},"geometry":{"x":167580.86708400119,"y":2543959.6426739991}},{"attributes":{"ID":259758,"DIS_CODE":0,"TOWNNAME":"仁德區","LI":"仁德里","LIN":"4鄰","STREET":"中正路","SECT":"二段","MAREA":" ","LANE":"８６７巷","ALLEY":" ","HOUSE_NO":"１０號","E_COORD97":173391.95104700001,"N_COORD97":2540576.87396,"ADDRESS":"中正路二段８６７巷１０號","OBJECTID":259754},"geometry":{"x":173391.95104700048,"y":2540576.8739630003}},{"attributes":{"ID":259759,"DIS_CODE":0,"TOWNNAME":"關廟區","LI":"關廟里","LIN":"2鄰","STREET":"忠孝街","SECT":" ","MAREA":" ","LANE":"１５巷","ALLEY":" ","HOUSE_NO":"１號","E_COORD97":180920.04767199999,"N_COORD97":2540080.23324,"ADDRESS":"忠孝街１５巷１號","OBJECTID":259755},"geometry":{"x":180920.04767200071,"y":2540080.2332430016}},{"attributes":{"ID":259760,"DIS_CODE":0,"TOWNNAME":"安南區","LI":"佃東里","LIN":"1鄰","STREET":"安吉路","SECT":"二段","MAREA":" ","LANE":"５１１巷","ALLEY":" ","HOUSE_NO":"３９８號","E_COORD97":166501.19533700001,"N_COORD97":2551384.4738799999,"ADDRESS":"安吉路二段５１１巷３９８號","OBJECTID":259756},"geometry":{"x":166501.19533700123,"y":2551384.4738750029}},{"attributes":{"ID":259761,"DIS_CODE":0,"TOWNNAME":"安南區","LI":"佃東里","LIN":"1鄰","STREET":"安吉路","SECT":"二段","MAREA":" ","LANE":"５１１巷","ALLEY":" ","HOUSE_NO":"１９８號","E_COORD97":166833.60215300001,"N_COORD97":2551508.5104700001,"ADDRESS":"安吉路二段５１１巷１９８號","OBJECTID":259757},"geometry":{"x":166833.60215300135,"y":2551508.5104750022}},{"attributes":{"ID":259762,"DIS_CODE":0,"TOWNNAME":"中西區","LI":"永福里","LIN":"8鄰","STREET":"中正路","SECT":" ","MAREA":" ","LANE":" ","ALLEY":" ","HOUSE_NO":"８２號","E_COORD97":168091.45000000001,"N_COORD97":2543660.75,"ADDRESS":"中正路８２號","OBJECTID":259758},"geometry":{"x":168091.45000000019,"y":2543660.7500000019}},{"attributes":{"ID":259763,"DIS_CODE":0,"TOWNNAME":"北區","LI":"文元里","LIN":"22鄰","STREET":"文賢三街","SECT":" ","MAREA":" ","LANE":" ","ALLEY":" ","HOUSE_NO":"２５號二樓","E_COORD97":167817.28,"N_COORD97":2545780.23,"ADDRESS":"文賢三街２５號二樓","OBJECTID":259759},"geometry":{"x":167817.28000000119,"y":2545780.2300000023}},{"attributes":{"ID":259764,"DIS_CODE":0,"TOWNNAME":"歸仁區","LI":"新厝里","LIN":"27鄰","STREET":"中正五街","SECT":" ","MAREA":" ","LANE":"３９巷","ALLEY":" ","HOUSE_NO":"１５號","E_COORD97":177051.62541000001,"N_COORD97":2540095.30748,"ADDRESS":"中正五街３９巷１５號","OBJECTID":259760},"geometry":{"x":177051.62541000079,"y":2540095.3074830044}},{"attributes":{"ID":259765,"DIS_CODE":0,"TOWNNAME":"歸仁區","LI":"七甲里","LIN":"8鄰","STREET":"七甲二街","SECT":" ","MAREA":" ","LANE":"５７巷","ALLEY":" ","HOUSE_NO":"２７號","E_COORD97":177662.67397999999,"N_COORD97":2542728.8380900002,"ADDRESS":"七甲二街５７巷２７號","OBJECTID":259761},"geometry":{"x":177662.67398000043,"y":2542728.8380900025}},{"attributes":{"ID":259766,"DIS_CODE":0,"TOWNNAME":"中西區","LI":"郡西里","LIN":"4鄰","STREET":"永華路","SECT":"一段","MAREA":" ","LANE":"１４４巷","ALLEY":" ","HOUSE_NO":"２之１號","E_COORD97":167285.055823,"N_COORD97":2543209.1431399998,"ADDRESS":"永華路一段１４４巷２之１號","OBJECTID":259762},"geometry":{"x":167285.05582300015,"y":2543209.1431410033}},{"attributes":{"ID":259767,"DIS_CODE":0,"TOWNNAME":"安南區","LI":"海西里","LIN":"4鄰","STREET":"海中街","SECT":" ","MAREA":" ","LANE":"１２１巷","ALLEY":" ","HOUSE_NO":"４２號","E_COORD97":166302.10000000001,"N_COORD97":2549027.7999999998,"ADDRESS":"海中街１２１巷４２號","OBJECTID":259763},"geometry":{"x":166302.10000000056,"y":2549027.8000000026}},{"attributes":{"ID":259768,"DIS_CODE":0,"TOWNNAME":"新營區","LI":"王公里","LIN":"33鄰","STREET":"民族路","SECT":" ","MAREA":" ","LANE":"３０８巷","ALLEY":" ","HOUSE_NO":"４１號","E_COORD97":180508.600921,"N_COORD97":2579766.1964799999,"ADDRESS":"民族路３０８巷４１號","OBJECTID":259764},"geometry":{"x":180508.60092100035,"y":2579766.1964780018}},{"attributes":{"ID":259769,"DIS_CODE":0,"TOWNNAME":"歸仁區","LI":"七甲里","LIN":"6鄰","STREET":"七甲二街","SECT":" ","MAREA":" ","LANE":"９巷","ALLEY":" ","HOUSE_NO":"１６號","E_COORD97":177581.847267,"N_COORD97":2542716.4572800002,"ADDRESS":"七甲二街９巷１６號","OBJECTID":259765},"geometry":{"x":177581.84726699907,"y":2542716.4572790023}},{"attributes":{"ID":259770,"DIS_CODE":0,"TOWNNAME":"中西區","LI":"三民里","LIN":"3鄰","STREET":"忠義路","SECT":"二段","MAREA":" ","LANE":"８４巷","ALLEY":" ","HOUSE_NO":"１８號","E_COORD97":168440.675838,"N_COORD97":2543811.20266,"ADDRESS":"忠義路二段８４巷１８號","OBJECTID":259766},"geometry":{"x":168440.67583800107,"y":2543811.2026560027}},{"attributes":{"ID":259771,"DIS_CODE":0,"TOWNNAME":"白河區","LI":"永安里","LIN":"5鄰","STREET":"中正路","SECT":" ","MAREA":" ","LANE":"９１巷","ALLEY":" ","HOUSE_NO":"３６之２號","E_COORD97":190062.89999999999,"N_COORD97":2583020.0299999998,"ADDRESS":"中正路９１巷３６之２號","OBJECTID":259767},"geometry":{"x":190062.90000000037,"y":2583020.0300000012}},{"attributes":{"ID":259772,"DIS_CODE":0,"TOWNNAME":"白河區","LI":"永安里","LIN":"5鄰","STREET":"中正路","SECT":" ","MAREA":" ","LANE":"９１巷","ALLEY":" ","HOUSE_NO":"３７號","E_COORD97":190054.39000000001,"N_COORD97":2583021.6499999999,"ADDRESS":"中正路９１巷３７號","OBJECTID":259768},"geometry":{"x":190054.38999999873,"y":2583021.6500000004}},{"attributes":{"ID":259773,"DIS_CODE":0,"TOWNNAME":"白河區","LI":"永安里","LIN":"5鄰","STREET":"中正路","SECT":" ","MAREA":" ","LANE":"９１巷","ALLEY":" ","HOUSE_NO":"３６之１號","E_COORD97":190065.48000000001,"N_COORD97":2583019.29,"ADDRESS":"中正路９１巷３６之１號","OBJECTID":259769},"geometry":{"x":190065.48000000138,"y":2583019.2899999991}},{"attributes":{"ID":259774,"DIS_CODE":0,"TOWNNAME":"白河區","LI":"永安里","LIN":"5鄰","STREET":"中正路","SECT":" ","MAREA":" ","LANE":"９１巷","ALLEY":" ","HOUSE_NO":"３６之３號","E_COORD97":190058.57000000001,"N_COORD97":2583019.96,"ADDRESS":"中正路９１巷３６之３號","OBJECTID":259770},"geometry":{"x":190058.5700000003,"y":2583019.9600000009}},{"attributes":{"ID":259775,"DIS_CODE":0,"TOWNNAME":"安南區","LI":"安慶里","LIN":"13鄰","STREET":"培安路","SECT":" ","MAREA":" ","LANE":"２６７巷","ALLEY":" ","HOUSE_NO":"１９號","E_COORD97":169356.41,"N_COORD97":2548946.6899999999,"ADDRESS":"培安路２６７巷１９號","OBJECTID":259771},"geometry":{"x":169356.41000000015,"y":2548946.6900000013}},{"attributes":{"ID":259776,"DIS_CODE":0,"TOWNNAME":"仁德區","LI":"仁愛里","LIN":"26鄰","STREET":"大同路","SECT":"三段","MAREA":" ","LANE":"３５８巷","ALLEY":" ","HOUSE_NO":"２７號","E_COORD97":169733.95499999999,"N_COORD97":2539392.88161,"ADDRESS":"大同路三段３５８巷２７號","OBJECTID":259772},"geometry":{"x":169733.95500000007,"y":2539392.8816100024}},{"attributes":{"ID":259777,"DIS_CODE":0,"TOWNNAME":"安南區","LI":"安順里","LIN":"9鄰","STREET":"安和路","SECT":"四段","MAREA":" ","LANE":"１０１巷","ALLEY":" ","HOUSE_NO":"１０之１號","E_COORD97":169877.26609799999,"N_COORD97":2550368.9367,"ADDRESS":"安和路四段１０１巷１０之１號","OBJECTID":259773},"geometry":{"x":169877.26609800011,"y":2550368.9366960004}},{"attributes":{"ID":259778,"DIS_CODE":0,"TOWNNAME":"安南區","LI":"顯宮里","LIN":"1鄰","STREET":"媽祖宮路","SECT":" ","MAREA":" ","LANE":"１５９巷","ALLEY":" ","HOUSE_NO":"３號","E_COORD97":160513.01000000001,"N_COORD97":2548772.7799999998,"ADDRESS":"媽祖宮路１５９巷３號","OBJECTID":259774},"geometry":{"x":160513.00999999978,"y":2548772.7800000012}},{"attributes":{"ID":259779,"DIS_CODE":0,"TOWNNAME":"安南區","LI":"顯宮里","LIN":"2鄰","STREET":"媽祖宮路","SECT":" ","MAREA":" ","LANE":"１３７巷","ALLEY":" ","HOUSE_NO":"６號","E_COORD97":160546.10999999999,"N_COORD97":2548787.48,"ADDRESS":"媽祖宮路１３７巷６號","OBJECTID":259775},"geometry":{"x":160546.11000000127,"y":2548787.4800000004}},{"attributes":{"ID":259780,"DIS_CODE":0,"TOWNNAME":"安南區","LI":"顯宮里","LIN":"2鄰","STREET":"媽祖宮路","SECT":" ","MAREA":" ","LANE":"１３７巷","ALLEY":" ","HOUSE_NO":"９號","E_COORD97":160564.34,"N_COORD97":2548774.1099999999,"ADDRESS":"媽祖宮路１３７巷９號","OBJECTID":259776},"geometry":{"x":160564.34000000078,"y":2548774.1100000013}},{"attributes":{"ID":259781,"DIS_CODE":0,"TOWNNAME":"安南區","LI":"顯宮里","LIN":"2鄰","STREET":"媽祖宮路","SECT":" ","MAREA":" ","LANE":"１３７巷","ALLEY":" ","HOUSE_NO":"１０號","E_COORD97":160553.35999999999,"N_COORD97":2548765.04,"ADDRESS":"媽祖宮路１３７巷１０號","OBJECTID":259777},"geometry":{"x":160553.36000000034,"y":2548765.0399999991}},{"attributes":{"ID":259782,"DIS_CODE":0,"TOWNNAME":"安南區","LI":"顯宮里","LIN":"2鄰","STREET":"媽祖宮路","SECT":" ","MAREA":" ","LANE":"１３７巷","ALLEY":" ","HOUSE_NO":"１６號","E_COORD97":160558.70000000001,"N_COORD97":2548742.1000000001,"ADDRESS":"媽祖宮路１３７巷１６號","OBJECTID":259778},"geometry":{"x":160558.70000000112,"y":2548742.0999999996}},{"attributes":{"ID":259783,"DIS_CODE":0,"TOWNNAME":"歸仁區","LI":"看東里","LIN":"3鄰","STREET":"成功六街","SECT":" ","MAREA":" ","LANE":"３８巷","ALLEY":" ","HOUSE_NO":"６５號","E_COORD97":178449.61582599999,"N_COORD97":2540268.63295,"ADDRESS":"成功六街３８巷６５號","OBJECTID":259779},"geometry":{"x":178449.61582599953,"y":2540268.6329470016}},{"attributes":{"ID":259784,"DIS_CODE":0,"TOWNNAME":"歸仁區","LI":"新厝里","LIN":"17鄰","STREET":"中正南路","SECT":"一段","MAREA":" ","LANE":"１３１巷","ALLEY":" ","HOUSE_NO":"５０號","E_COORD97":177533.527722,"N_COORD97":2540358.4604500001,"ADDRESS":"中正南路一段１３１巷５０號","OBJECTID":259780},"geometry":{"x":177533.52772200014,"y":2540358.4604480006}},{"attributes":{"ID":259785,"DIS_CODE":0,"TOWNNAME":"東區","LI":"富強里","LIN":"22鄰","STREET":"東門路","SECT":"二段","MAREA":" ","LANE":" ","ALLEY":" ","HOUSE_NO":"３０３號","E_COORD97":170723.23999999999,"N_COORD97":2542648.8500000001,"ADDRESS":"東門路二段３０３號","OBJECTID":259781},"geometry":{"x":170723.24000000115,"y":2542648.8500000015}},{"attributes":{"ID":259786,"DIS_CODE":0,"TOWNNAME":"永康區","LI":"復國里","LIN":"6鄰","STREET":"復華三街","SECT":" ","MAREA":" ","LANE":"７６巷","ALLEY":" ","HOUSE_NO":"３號","E_COORD97":172663.67000000001,"N_COORD97":2545574.02,"ADDRESS":"復華三街７６巷３號","OBJECTID":259782},"geometry":{"x":172663.67000000179,"y":2545574.0200000014}},{"attributes":{"ID":259787,"DIS_CODE":0,"TOWNNAME":"永康區","LI":"龍潭里","LIN":"39鄰","STREET":"永明街","SECT":" ","MAREA":" ","LANE":"２３１巷","ALLEY":" ","HOUSE_NO":"５６號","E_COORD97":174584.22857100001,"N_COORD97":2547335.4231099999,"ADDRESS":"永明街２３１巷５６號","OBJECTID":259783},"geometry":{"x":174584.22857099958,"y":2547335.4231059998}},{"attributes":{"ID":259788,"DIS_CODE":0,"TOWNNAME":"歸仁區","LI":"新厝里","LIN":"18鄰","STREET":"中正南路","SECT":"一段","MAREA":" ","LANE":"１５３巷","ALLEY":" ","HOUSE_NO":"５０號","E_COORD97":177508.72885399999,"N_COORD97":2540335.6940299999,"ADDRESS":"中正南路一段１５３巷５０號","OBJECTID":259784},"geometry":{"x":177508.72885399871,"y":2540335.694033999}},{"attributes":{"ID":259789,"DIS_CODE":0,"TOWNNAME":"仁德區","LI":"仁愛里","LIN":"25鄰","STREET":"保仁路","SECT":" ","MAREA":" ","LANE":"２９５巷","ALLEY":" ","HOUSE_NO":"５號","E_COORD97":169820.09226,"N_COORD97":2540049.656,"ADDRESS":"保仁路２９５巷５號","OBJECTID":259785},"geometry":{"x":169820.09226000216,"y":2540049.6559999976}},{"attributes":{"ID":259790,"DIS_CODE":0,"TOWNNAME":"仁德區","LI":"仁愛里","LIN":"26鄰","STREET":"大同路","SECT":"三段","MAREA":" ","LANE":"３５８巷","ALLEY":" ","HOUSE_NO":"４９號","E_COORD97":169734.20499999999,"N_COORD97":2539348.6316399998,"ADDRESS":"大同路三段３５８巷４９號","OBJECTID":259786},"geometry":{"x":169734.20500000194,"y":2539348.6316359993}},{"attributes":{"ID":259791,"DIS_CODE":0,"TOWNNAME":"歸仁區","LI":"新厝里","LIN":"26鄰","STREET":"中正南路","SECT":"一段","MAREA":" ","LANE":"１８３巷","ALLEY":" ","HOUSE_NO":"１６號","E_COORD97":177379.37260100001,"N_COORD97":2540295.8528100001,"ADDRESS":"中正南路一段１８３巷１６號","OBJECTID":259787},"geometry":{"x":177379.37260099966,"y":2540295.8528090026}},{"attributes":{"ID":259792,"DIS_CODE":0,"TOWNNAME":"新市區","LI":"永就里","LIN":"5鄰","STREET":"中華路","SECT":" ","MAREA":" ","LANE":"１１３巷","ALLEY":" ","HOUSE_NO":"４號","E_COORD97":177926.783123,"N_COORD97":2551235.25936,"ADDRESS":"中華路１１３巷４號","OBJECTID":259788},"geometry":{"x":177926.78312300052,"y":2551235.2593629993}},{"attributes":{"ID":259793,"DIS_CODE":0,"TOWNNAME":"歸仁區","LI":"新厝里","LIN":"26鄰","STREET":"中正南路","SECT":"一段","MAREA":" ","LANE":"１８３巷","ALLEY":" ","HOUSE_NO":"１９９號","E_COORD97":177361.94636999999,"N_COORD97":2539942.6385900001,"ADDRESS":"中正南路一段１８３巷１９９號","OBJECTID":259789},"geometry":{"x":177361.94637000002,"y":2539942.6385879982}},{"attributes":{"ID":259794,"DIS_CODE":0,"TOWNNAME":"安南區","LI":"州北里","LIN":"24鄰","STREET":"長和路","SECT":"二段","MAREA":" ","LANE":"１４０巷","ALLEY":" ","HOUSE_NO":"２１５號","E_COORD97":170345.79000000001,"N_COORD97":2551987.2799999998,"ADDRESS":"長和路二段１４０巷２１５號","OBJECTID":259790},"geometry":{"x":170345.79000000097,"y":2551987.2800000012}},{"attributes":{"ID":259795,"DIS_CODE":0,"TOWNNAME":"安南區","LI":"州北里","LIN":"24鄰","STREET":"長和路","SECT":"二段","MAREA":" ","LANE":"１４０巷","ALLEY":" ","HOUSE_NO":"２０９號","E_COORD97":170334.06,"N_COORD97":2551968.8900000001,"ADDRESS":"長和路二段１４０巷２０９號","OBJECTID":259791},"geometry":{"x":170334.05999999959,"y":2551968.8900000006}},{"attributes":{"ID":259796,"DIS_CODE":0,"TOWNNAME":"安南區","LI":"州北里","LIN":"24鄰","STREET":"長和路","SECT":"二段","MAREA":" ","LANE":"１４０巷","ALLEY":" ","HOUSE_NO":"２０７號","E_COORD97":170331.73999999999,"N_COORD97":2551964.4100000001,"ADDRESS":"長和路二段１４０巷２０７號","OBJECTID":259792},"geometry":{"x":170331.74000000115,"y":2551964.4100000001}},{"attributes":{"ID":259797,"DIS_CODE":0,"TOWNNAME":"安南區","LI":"州北里","LIN":"24鄰","STREET":"長和路","SECT":"二段","MAREA":" ","LANE":"１４０巷","ALLEY":" ","HOUSE_NO":"２０５號","E_COORD97":170329.85999999999,"N_COORD97":2551960.6499999999,"ADDRESS":"長和路二段１４０巷２０５號","OBJECTID":259793},"geometry":{"x":170329.86000000034,"y":2551960.6500000041}},{"attributes":{"ID":259798,"DIS_CODE":0,"TOWNNAME":"安南區","LI":"州北里","LIN":"24鄰","STREET":"長和路","SECT":"二段","MAREA":" ","LANE":"１４０巷","ALLEY":" ","HOUSE_NO":"２０３號","E_COORD97":170328.41,"N_COORD97":2551957.1800000002,"ADDRESS":"長和路二段１４０巷２０３號","OBJECTID":259794},"geometry":{"x":170328.41000000108,"y":2551957.1800000016}},{"attributes":{"ID":259799,"DIS_CODE":0,"TOWNNAME":"安南區","LI":"州北里","LIN":"24鄰","STREET":"長和路","SECT":"二段","MAREA":" ","LANE":"１４０巷","ALLEY":" ","HOUSE_NO":"２０１號","E_COORD97":170325.87,"N_COORD97":2551952.7400000002,"ADDRESS":"長和路二段１４０巷２０１號","OBJECTID":259795},"geometry":{"x":170325.87000000011,"y":2551952.7399999984}},{"attributes":{"ID":259800,"DIS_CODE":0,"TOWNNAME":"歸仁區","LI":"新厝里","LIN":"29鄰","STREET":"中正南路","SECT":"一段","MAREA":" ","LANE":"４５３巷","ALLEY":" ","HOUSE_NO":"２號","E_COORD97":176924.61499500001,"N_COORD97":2540010.9378300002,"ADDRESS":"中正南路一段４５３巷２號","OBJECTID":259796},"geometry":{"x":176924.61499500088,"y":2540010.9378309995}},{"attributes":{"ID":259801,"DIS_CODE":0,"TOWNNAME":"新市區","LI":"永就里","LIN":"5鄰","STREET":"中華路","SECT":" ","MAREA":" ","LANE":"１１３巷","ALLEY":" ","HOUSE_NO":"８號","E_COORD97":177932.71544500001,"N_COORD97":2551237.1643599998,"ADDRESS":"中華路１１３巷８號","OBJECTID":259797},"geometry":{"x":177932.71544499975,"y":2551237.1643620003}},{"attributes":{"ID":259802,"DIS_CODE":0,"TOWNNAME":"新市區","LI":"永就里","LIN":"5鄰","STREET":"中華路","SECT":" ","MAREA":" ","LANE":"１１３巷","ALLEY":" ","HOUSE_NO":"１０號","E_COORD97":177935.46973700001,"N_COORD97":2551238.0110300002,"ADDRESS":"中華路１１３巷１０號","OBJECTID":259798},"geometry":{"x":177935.46973699983,"y":2551238.0110290013}},{"attributes":{"ID":259803,"DIS_CODE":0,"TOWNNAME":"中西區","LI":"民權里","LIN":"16鄰","STREET":"海安路","SECT":"二段","MAREA":" ","LANE":"２５９巷","ALLEY":" ","HOUSE_NO":"１０號","E_COORD97":167717.60984700001,"N_COORD97":2544285.46783,"ADDRESS":"海安路二段２５９巷１０號","OBJECTID":259799},"geometry":{"x":167717.6098470008,"y":2544285.4678260032}},{"attributes":{"ID":259804,"DIS_CODE":0,"TOWNNAME":"中西區","LI":"進學里","LIN":"9鄰","STREET":"忠義路","SECT":"一段","MAREA":" ","LANE":"８５巷","ALLEY":" ","HOUSE_NO":"１１號４樓之５","E_COORD97":168120.73203399999,"N_COORD97":2543054.0806999998,"ADDRESS":"忠義路一段８５巷１１號４樓之５","OBJECTID":259800},"geometry":{"x":168120.7320340015,"y":2543054.0806949995}}]}