{"displayFieldName":"TOWNNAME","fieldAliases":{"ID":"ID","DIS_CODE":"DIS_CODE","TOWNNAME":"TOWNNAME","LI":"LI","LIN":"LIN","STREET":"STREET","SECT":"SECT","MAREA":"MAREA","LANE":"LANE","ALLEY":"ALLEY","HOUSE_NO":"HOUSE_NO","E_COORD97":"E_COORD97","N_COORD97":"N_COORD97","ADDRESS":"ADDRESS","OBJECTID":"OBJECTID"},"geometryType":"esriGeometryPoint","spatialReference":{"wkid":102443,"latestWkid":3826},"fields":[{"name":"ID","type":"esriFieldTypeDouble","alias":"ID"},{"name":"DIS_CODE","type":"esriFieldTypeInteger","alias":"DIS_CODE"},{"name":"TOWNNAME","type":"esriFieldTypeString","alias":"TOWNNAME","length":8},{"name":"LI","type":"esriFieldTypeString","alias":"LI","length":8},{"name":"LIN","type":"esriFieldTypeString","alias":"LIN","length":12},{"name":"STREET","type":"esriFieldTypeString","alias":"STREET","length":20},{"name":"SECT","type":"esriFieldTypeString","alias":"SECT","length":8},{"name":"MAREA","type":"esriFieldTypeString","alias":"MAREA","length":12},{"name":"LANE","type":"esriFieldTypeString","alias":"LANE","length":10},{"name":"ALLEY","type":"esriFieldTypeString","alias":"ALLEY","length":10},{"name":"HOUSE_NO","type":"esriFieldTypeString","alias":"HOUSE_NO","length":20},{"name":"E_COORD97","type":"esriFieldTypeDouble","alias":"E_COORD97"},{"name":"N_COORD97","type":"esriFieldTypeDouble","alias":"N_COORD97"},{"name":"ADDRESS","type":"esriFieldTypeString","alias":"ADDRESS","length":50},{"name":"OBJECTID","type":"esriFieldTypeOID","alias":"OBJECTID"}],"features":[{"attributes":{"ID":333810,"DIS_CODE":0,"TOWNNAME":"東區","LI":"新東里","LIN":"15鄰","STREET":"裕豐街","SECT":" ","MAREA":" ","LANE":"１３３巷","ALLEY":" ","HOUSE_NO":"４６號","E_COORD97":170646.14000000001,"N_COORD97":2543057.1899999999,"ADDRESS":"裕豐街１３３巷４６號","OBJECTID":333801},"geometry":{"x":170646.13999999966,"y":2543057.1900000013}},{"attributes":{"ID":333811,"DIS_CODE":0,"TOWNNAME":"東區","LI":"莊敬里","LIN":"15鄰","STREET":"東光路","SECT":"二段","MAREA":" ","LANE":"２５巷","ALLEY":" ","HOUSE_NO":"１２號","E_COORD97":171179.73000000001,"N_COORD97":2544073.2799999998,"ADDRESS":"東光路二段２５巷１２號","OBJECTID":333802},"geometry":{"x":171179.73000000045,"y":2544073.2800000012}},{"attributes":{"ID":333812,"DIS_CODE":0,"TOWNNAME":"東區","LI":"莊敬里","LIN":"15鄰","STREET":"東光路","SECT":"二段","MAREA":" ","LANE":"２５巷","ALLEY":" ","HOUSE_NO":"１３號","E_COORD97":171145.82999999999,"N_COORD97":2544049.1099999999,"ADDRESS":"東光路二段２５巷１３號","OBJECTID":333803},"geometry":{"x":171145.83000000101,"y":2544049.1099999994}},{"attributes":{"ID":333813,"DIS_CODE":0,"TOWNNAME":"東區","LI":"莊敬里","LIN":"15鄰","STREET":"東光路","SECT":"二段","MAREA":" ","LANE":"２５巷","ALLEY":" ","HOUSE_NO":"１４號","E_COORD97":171180.76000000001,"N_COORD97":2544079.6099999999,"ADDRESS":"東光路二段２５巷１４號","OBJECTID":333804},"geometry":{"x":171180.75999999978,"y":2544079.6099999994}},{"attributes":{"ID":333814,"DIS_CODE":0,"TOWNNAME":"東區","LI":"莊敬里","LIN":"15鄰","STREET":"東光路","SECT":"二段","MAREA":" ","LANE":"２５巷","ALLEY":" ","HOUSE_NO":"１５號","E_COORD97":171151.13,"N_COORD97":2544050.1400000001,"ADDRESS":"東光路二段２５巷１５號","OBJECTID":333805},"geometry":{"x":171151.12999999989,"y":2544050.1400000006}},{"attributes":{"ID":333815,"DIS_CODE":0,"TOWNNAME":"永康區","LI":"五王里","LIN":"41鄰","STREET":"中華路","SECT":" ","MAREA":" ","LANE":"５７８巷","ALLEY":" ","HOUSE_NO":"４４號","E_COORD97":171457.80091799999,"N_COORD97":2546029.5459400001,"ADDRESS":"中華路５７８巷４４號","OBJECTID":333806},"geometry":{"x":171457.80091800075,"y":2546029.5459439997}},{"attributes":{"ID":333816,"DIS_CODE":0,"TOWNNAME":"麻豆區","LI":"南勢里","LIN":"25鄰","STREET":" ","SECT":" ","MAREA":"南勢","LANE":" ","ALLEY":" ","HOUSE_NO":"８５號之１８","E_COORD97":174748.34528800001,"N_COORD97":2565437.77177,"ADDRESS":"南勢８５號之１８","OBJECTID":333807},"geometry":{"x":174748.345288001,"y":2565437.7717690021}},{"attributes":{"ID":333817,"DIS_CODE":0,"TOWNNAME":"下營區","LI":"大屯里","LIN":"11鄰","STREET":" ","SECT":" ","MAREA":"大屯寮","LANE":" ","ALLEY":" ","HOUSE_NO":"８９號之８５","E_COORD97":172985.58250399999,"N_COORD97":2571670.8511299998,"ADDRESS":"大屯寮８９號之８５","OBJECTID":333808},"geometry":{"x":172985.58250399958,"y":2571670.851133002}},{"attributes":{"ID":333818,"DIS_CODE":0,"TOWNNAME":"白河區","LI":"大竹里","LIN":"8鄰","STREET":" ","SECT":" ","MAREA":"大排竹","LANE":" ","ALLEY":" ","HOUSE_NO":"１２０之９號","E_COORD97":189932.33213600001,"N_COORD97":2584827.9798699999,"ADDRESS":"大排竹１２０之９號","OBJECTID":333809},"geometry":{"x":189932.33213600051,"y":2584827.9798660036}},{"attributes":{"ID":333819,"DIS_CODE":0,"TOWNNAME":"東區","LI":"莊敬里","LIN":"15鄰","STREET":"東光路","SECT":"二段","MAREA":" ","LANE":"２５巷","ALLEY":" ","HOUSE_NO":"１７號","E_COORD97":171154.51999999999,"N_COORD97":2544047.9399999999,"ADDRESS":"東光路二段２５巷１７號","OBJECTID":333810},"geometry":{"x":171154.52000000048,"y":2544047.9400000032}},{"attributes":{"ID":333820,"DIS_CODE":0,"TOWNNAME":"東區","LI":"莊敬里","LIN":"15鄰","STREET":"東光路","SECT":"二段","MAREA":" ","LANE":"２５巷","ALLEY":" ","HOUSE_NO":"２４號","E_COORD97":171152.75,"N_COORD97":2544084.7799999998,"ADDRESS":"東光路二段２５巷２４號","OBJECTID":333811},"geometry":{"x":171152.75000000186,"y":2544084.7799999993}},{"attributes":{"ID":333821,"DIS_CODE":0,"TOWNNAME":"東區","LI":"莊敬里","LIN":"15鄰","STREET":"東光路","SECT":"二段","MAREA":" ","LANE":"２５巷","ALLEY":" ","HOUSE_NO":"２５號","E_COORD97":171157.25,"N_COORD97":2544069.6000000001,"ADDRESS":"東光路二段２５巷２５號","OBJECTID":333812},"geometry":{"x":171157.25,"y":2544069.5999999996}},{"attributes":{"ID":333822,"DIS_CODE":0,"TOWNNAME":"東區","LI":"莊敬里","LIN":"15鄰","STREET":"東光路","SECT":"二段","MAREA":" ","LANE":"２５巷","ALLEY":" ","HOUSE_NO":"２６號","E_COORD97":171148.78,"N_COORD97":2544086.4700000002,"ADDRESS":"東光路二段２５巷２６號","OBJECTID":333813},"geometry":{"x":171148.78000000026,"y":2544086.4700000025}},{"attributes":{"ID":333823,"DIS_CODE":0,"TOWNNAME":"東區","LI":"莊敬里","LIN":"15鄰","STREET":"東光路","SECT":"二段","MAREA":" ","LANE":"２５巷","ALLEY":" ","HOUSE_NO":"２７號","E_COORD97":171152.10000000001,"N_COORD97":2544070.5499999998,"ADDRESS":"東光路二段２５巷２７號","OBJECTID":333814},"geometry":{"x":171152.10000000056,"y":2544070.5500000007}},{"attributes":{"ID":333824,"DIS_CODE":0,"TOWNNAME":"東區","LI":"莊敬里","LIN":"15鄰","STREET":"東光路","SECT":"二段","MAREA":" ","LANE":"２５巷","ALLEY":" ","HOUSE_NO":"２８號","E_COORD97":171144.79999999999,"N_COORD97":2544085.7400000002,"ADDRESS":"東光路二段２５巷２８號","OBJECTID":333815},"geometry":{"x":171144.79999999981,"y":2544085.7400000002}},{"attributes":{"ID":333825,"DIS_CODE":0,"TOWNNAME":"東區","LI":"莊敬里","LIN":"15鄰","STREET":"東光路","SECT":"二段","MAREA":" ","LANE":"２５巷","ALLEY":" ","HOUSE_NO":"２９號","E_COORD97":171147.07999999999,"N_COORD97":2544070.71,"ADDRESS":"東光路二段２５巷２９號","OBJECTID":333816},"geometry":{"x":171147.07999999914,"y":2544070.7100000009}},{"attributes":{"ID":333826,"DIS_CODE":0,"TOWNNAME":"東區","LI":"莊敬里","LIN":"15鄰","STREET":"東光路","SECT":"二段","MAREA":" ","LANE":"２５巷","ALLEY":" ","HOUSE_NO":"２號","E_COORD97":171175.53,"N_COORD97":2544042.71,"ADDRESS":"東光路二段２５巷２號","OBJECTID":333817},"geometry":{"x":171175.53000000119,"y":2544042.7100000009}},{"attributes":{"ID":333827,"DIS_CODE":0,"TOWNNAME":"東區","LI":"莊敬里","LIN":"15鄰","STREET":"東光路","SECT":"二段","MAREA":" ","LANE":"２５巷","ALLEY":" ","HOUSE_NO":"３０號","E_COORD97":171140.53,"N_COORD97":2544086.3300000001,"ADDRESS":"東光路二段２５巷３０號","OBJECTID":333818},"geometry":{"x":171140.53000000026,"y":2544086.3299999982}},{"attributes":{"ID":333828,"DIS_CODE":0,"TOWNNAME":"東區","LI":"莊敬里","LIN":"15鄰","STREET":"東光路","SECT":"二段","MAREA":" ","LANE":"２５巷","ALLEY":" ","HOUSE_NO":"３１號","E_COORD97":171139.56,"N_COORD97":2544071.6699999999,"ADDRESS":"東光路二段２５巷３１號","OBJECTID":333819},"geometry":{"x":171139.55999999959,"y":2544071.6700000018}},{"attributes":{"ID":333829,"DIS_CODE":0,"TOWNNAME":"東區","LI":"莊敬里","LIN":"15鄰","STREET":"東光路","SECT":"二段","MAREA":" ","LANE":"２５巷","ALLEY":" ","HOUSE_NO":"３２號","E_COORD97":171134.79000000001,"N_COORD97":2544087.1400000001,"ADDRESS":"東光路二段２５巷３２號","OBJECTID":333820},"geometry":{"x":171134.79000000004,"y":2544087.1400000006}},{"attributes":{"ID":333830,"DIS_CODE":0,"TOWNNAME":"東區","LI":"莊敬里","LIN":"15鄰","STREET":"東光路","SECT":"二段","MAREA":" ","LANE":"２５巷","ALLEY":" ","HOUSE_NO":"４號","E_COORD97":171176.48999999999,"N_COORD97":2544049.8399999999,"ADDRESS":"東光路二段２５巷４號","OBJECTID":333821},"geometry":{"x":171176.49000000022,"y":2544049.8400000017}},{"attributes":{"ID":333831,"DIS_CODE":0,"TOWNNAME":"東區","LI":"莊敬里","LIN":"15鄰","STREET":"東光路","SECT":"二段","MAREA":" ","LANE":"２５巷","ALLEY":" ","HOUSE_NO":"６號","E_COORD97":171177.59,"N_COORD97":2544055.29,"ADDRESS":"東光路二段２５巷６號","OBJECTID":333822},"geometry":{"x":171177.59000000078,"y":2544055.2900000028}},{"attributes":{"ID":333832,"DIS_CODE":0,"TOWNNAME":"東區","LI":"莊敬里","LIN":"15鄰","STREET":"東光路","SECT":"二段","MAREA":" ","LANE":"２５巷","ALLEY":" ","HOUSE_NO":"８號","E_COORD97":171178.70000000001,"N_COORD97":2544061.1899999999,"ADDRESS":"東光路二段２５巷８號","OBJECTID":333823},"geometry":{"x":171178.70000000205,"y":2544061.1900000013}},{"attributes":{"ID":333833,"DIS_CODE":0,"TOWNNAME":"安南區","LI":"海南里","LIN":"15鄰","STREET":"府安路","SECT":"七段","MAREA":" ","LANE":"７５巷","ALLEY":" ","HOUSE_NO":"１８號","E_COORD97":165857.5,"N_COORD97":2545937.29,"ADDRESS":"府安路七段７５巷１８號","OBJECTID":333824},"geometry":{"x":165857.50000000093,"y":2545937.290000001}},{"attributes":{"ID":333834,"DIS_CODE":0,"TOWNNAME":"白河區","LI":"永安里","LIN":"15鄰","STREET":"三民路","SECT":" ","MAREA":" ","LANE":"４５２巷","ALLEY":" ","HOUSE_NO":"６號","E_COORD97":189879.89999999999,"N_COORD97":2583585.9399999999,"ADDRESS":"三民路４５２巷６號","OBJECTID":333825},"geometry":{"x":189879.90000000037,"y":2583585.9399999995}},{"attributes":{"ID":333835,"DIS_CODE":0,"TOWNNAME":"新營區","LI":"南紙里","LIN":"15鄰","STREET":"南紙街","SECT":" ","MAREA":" ","LANE":"１４３巷","ALLEY":" ","HOUSE_NO":"１８號","E_COORD97":177799.91,"N_COORD97":2577361.75,"ADDRESS":"南紙街１４３巷１８號","OBJECTID":333826},"geometry":{"x":177799.91000000015,"y":2577361.7500000019}},{"attributes":{"ID":333836,"DIS_CODE":0,"TOWNNAME":"白河區","LI":"永安里","LIN":"15鄰","STREET":"三民路","SECT":" ","MAREA":" ","LANE":"４９７巷","ALLEY":" ","HOUSE_NO":"１號","E_COORD97":189796,"N_COORD97":2583458.6400000001,"ADDRESS":"三民路４９７巷１號","OBJECTID":333827},"geometry":{"x":189796,"y":2583458.6400000025}},{"attributes":{"ID":333837,"DIS_CODE":0,"TOWNNAME":"白河區","LI":"永安里","LIN":"15鄰","STREET":"三民路","SECT":" ","MAREA":" ","LANE":"４９７巷","ALLEY":" ","HOUSE_NO":"２之１號","E_COORD97":189774.48999999999,"N_COORD97":2583460.3199999998,"ADDRESS":"三民路４９７巷２之１號","OBJECTID":333828},"geometry":{"x":189774.49000000022,"y":2583460.3200000022}},{"attributes":{"ID":333838,"DIS_CODE":0,"TOWNNAME":"白河區","LI":"永安里","LIN":"15鄰","STREET":"三民路","SECT":" ","MAREA":" ","LANE":"４９７巷","ALLEY":" ","HOUSE_NO":"２號","E_COORD97":189780.39000000001,"N_COORD97":2583464.4900000002,"ADDRESS":"三民路４９７巷２號","OBJECTID":333829},"geometry":{"x":189780.3900000006,"y":2583464.4900000002}},{"attributes":{"ID":333839,"DIS_CODE":0,"TOWNNAME":"東區","LI":"泉南里","LIN":"17鄰","STREET":"府連路","SECT":" ","MAREA":" ","LANE":" ","ALLEY":" ","HOUSE_NO":"４２２號","E_COORD97":169720.64999999999,"N_COORD97":2542871.5800000001,"ADDRESS":"府連路４２２號","OBJECTID":333830},"geometry":{"x":169720.65000000037,"y":2542871.5800000019}},{"attributes":{"ID":333840,"DIS_CODE":0,"TOWNNAME":"仁德區","LI":"大甲里","LIN":"3鄰","STREET":"行大街","SECT":" ","MAREA":" ","LANE":"２７１巷","ALLEY":" ","HOUSE_NO":"１９號","E_COORD97":169774.64392,"N_COORD97":2535083.48288,"ADDRESS":"行大街２７１巷１９號","OBJECTID":333831},"geometry":{"x":169774.64391999971,"y":2535083.4828850012}},{"attributes":{"ID":333841,"DIS_CODE":0,"TOWNNAME":"仁德區","LI":"大甲里","LIN":"4鄰","STREET":"行大街","SECT":" ","MAREA":" ","LANE":" ","ALLEY":" ","HOUSE_NO":"２７３號","E_COORD97":169779.62492999999,"N_COORD97":2535120.5245300001,"ADDRESS":"行大街２７３號","OBJECTID":333832},"geometry":{"x":169779.62492999993,"y":2535120.5245300028}},{"attributes":{"ID":333842,"DIS_CODE":0,"TOWNNAME":"關廟區","LI":"布袋里","LIN":"2鄰","STREET":"長裕街","SECT":" ","MAREA":" ","LANE":" ","ALLEY":" ","HOUSE_NO":"２號","E_COORD97":182818.837241,"N_COORD97":2536122.5794600002,"ADDRESS":"長裕街２號","OBJECTID":333833},"geometry":{"x":182818.83724099956,"y":2536122.5794619992}},{"attributes":{"ID":333843,"DIS_CODE":0,"TOWNNAME":"白河區","LI":"永安里","LIN":"15鄰","STREET":"三民路","SECT":" ","MAREA":" ","LANE":"４９７巷","ALLEY":" ","HOUSE_NO":"３號","E_COORD97":189792.66,"N_COORD97":2583453.23,"ADDRESS":"三民路４９７巷３號","OBJECTID":333834},"geometry":{"x":189792.66000000108,"y":2583453.2300000042}},{"attributes":{"ID":333844,"DIS_CODE":0,"TOWNNAME":"白河區","LI":"永安里","LIN":"15鄰","STREET":"三民路","SECT":" ","MAREA":" ","LANE":"４９７巷","ALLEY":" ","HOUSE_NO":"５號","E_COORD97":189787.63,"N_COORD97":2583449.21,"ADDRESS":"三民路４９７巷５號","OBJECTID":333835},"geometry":{"x":189787.63000000082,"y":2583449.2100000009}},{"attributes":{"ID":333845,"DIS_CODE":0,"TOWNNAME":"白河區","LI":"永安里","LIN":"15鄰","STREET":"三民路","SECT":" ","MAREA":" ","LANE":"４９７巷","ALLEY":" ","HOUSE_NO":"６號","E_COORD97":189769.81,"N_COORD97":2583455.9300000002,"ADDRESS":"三民路４９７巷６號","OBJECTID":333836},"geometry":{"x":189769.80999999959,"y":2583455.9300000016}},{"attributes":{"ID":333846,"DIS_CODE":0,"TOWNNAME":"白河區","LI":"永安里","LIN":"15鄰","STREET":"三民路","SECT":" ","MAREA":" ","LANE":"４９７巷","ALLEY":" ","HOUSE_NO":"８號","E_COORD97":189763.47,"N_COORD97":2583451.96,"ADDRESS":"三民路４９７巷８號","OBJECTID":333837},"geometry":{"x":189763.46999999974,"y":2583451.959999999}},{"attributes":{"ID":333847,"DIS_CODE":0,"TOWNNAME":"新市區","LI":"大營里","LIN":"1鄰","STREET":" ","SECT":" ","MAREA":"大營","LANE":" ","ALLEY":" ","HOUSE_NO":"１７之３號","E_COORD97":179706.38657199999,"N_COORD97":2555603.99615,"ADDRESS":"大營１７之３號","OBJECTID":333838},"geometry":{"x":179706.38657200057,"y":2555603.9961450025}},{"attributes":{"ID":333848,"DIS_CODE":0,"TOWNNAME":"左鎮區","LI":"睦光里","LIN":"3鄰","STREET":" ","SECT":" ","MAREA":"睦光","LANE":" ","ALLEY":" ","HOUSE_NO":"３１號之６","E_COORD97":190182.21509799999,"N_COORD97":2550266.5302599999,"ADDRESS":"睦光３１號之６","OBJECTID":333839},"geometry":{"x":190182.21509800199,"y":2550266.5302600041}},{"attributes":{"ID":333849,"DIS_CODE":0,"TOWNNAME":"左鎮區","LI":"睦光里","LIN":"3鄰","STREET":" ","SECT":" ","MAREA":"睦光","LANE":" ","ALLEY":" ","HOUSE_NO":"２６號之１","E_COORD97":190174.69203000001,"N_COORD97":2550254.9898000001,"ADDRESS":"睦光２６號之１","OBJECTID":333840},"geometry":{"x":190174.6920300005,"y":2550254.9897990003}},{"attributes":{"ID":333850,"DIS_CODE":0,"TOWNNAME":"新市區","LI":"大營里","LIN":"1鄰","STREET":" ","SECT":" ","MAREA":"大營","LANE":" ","ALLEY":" ","HOUSE_NO":"１之１１號","E_COORD97":180189.65615600001,"N_COORD97":2556352.76657,"ADDRESS":"大營１之１１號","OBJECTID":333841},"geometry":{"x":180189.65615600161,"y":2556352.7665740009}},{"attributes":{"ID":333851,"DIS_CODE":0,"TOWNNAME":"左鎮區","LI":"睦光里","LIN":"3鄰","STREET":" ","SECT":" ","MAREA":"睦光","LANE":" ","ALLEY":" ","HOUSE_NO":"２６號之２","E_COORD97":190166.22055699999,"N_COORD97":2550260.2814600002,"ADDRESS":"睦光２６號之２","OBJECTID":333842},"geometry":{"x":190166.22055700142,"y":2550260.2814630009}},{"attributes":{"ID":333852,"DIS_CODE":0,"TOWNNAME":"左鎮區","LI":"睦光里","LIN":"3鄰","STREET":" ","SECT":" ","MAREA":"睦光","LANE":" ","ALLEY":" ","HOUSE_NO":"２６號","E_COORD97":190156.266577,"N_COORD97":2550266.8431299999,"ADDRESS":"睦光２６號","OBJECTID":333843},"geometry":{"x":190156.26657700073,"y":2550266.8431260027}},{"attributes":{"ID":333853,"DIS_CODE":0,"TOWNNAME":"安南區","LI":"頂安里","LIN":"17鄰","STREET":"北安路","SECT":"二段","MAREA":" ","LANE":" ","ALLEY":" ","HOUSE_NO":"４３２號","E_COORD97":168430.5,"N_COORD97":2548338.02,"ADDRESS":"北安路二段４３２號","OBJECTID":333844},"geometry":{"x":168430.50000000093,"y":2548338.0199999996}},{"attributes":{"ID":333854,"DIS_CODE":0,"TOWNNAME":"安南區","LI":"頂安里","LIN":"17鄰","STREET":"北安路","SECT":"二段","MAREA":" ","LANE":" ","ALLEY":" ","HOUSE_NO":"４３６號","E_COORD97":168427.88,"N_COORD97":2548341.8399999999,"ADDRESS":"北安路二段４３６號","OBJECTID":333845},"geometry":{"x":168427.88000000082,"y":2548341.8400000017}},{"attributes":{"ID":333855,"DIS_CODE":0,"TOWNNAME":"安南區","LI":"頂安里","LIN":"17鄰","STREET":"北安路","SECT":"二段","MAREA":" ","LANE":" ","ALLEY":" ","HOUSE_NO":"４３８號","E_COORD97":168424.56,"N_COORD97":2548346.0099999998,"ADDRESS":"北安路二段４３８號","OBJECTID":333846},"geometry":{"x":168424.56000000052,"y":2548346.0099999998}},{"attributes":{"ID":333856,"DIS_CODE":0,"TOWNNAME":"新市區","LI":"大營里","LIN":"10鄰","STREET":" ","SECT":" ","MAREA":"大營","LANE":" ","ALLEY":" ","HOUSE_NO":"２１４之１號","E_COORD97":179420.15368799999,"N_COORD97":2555686.5460999999,"ADDRESS":"大營２１４之１號","OBJECTID":333847},"geometry":{"x":179420.15368799958,"y":2555686.546101002}},{"attributes":{"ID":333857,"DIS_CODE":0,"TOWNNAME":"新市區","LI":"大營里","LIN":"13鄰","STREET":" ","SECT":" ","MAREA":"大營","LANE":" ","ALLEY":" ","HOUSE_NO":"２５５號","E_COORD97":179088.369309,"N_COORD97":2555568.96533,"ADDRESS":"大營２５５號","OBJECTID":333848},"geometry":{"x":179088.3693090016,"y":2555568.9653309993}},{"attributes":{"ID":333858,"DIS_CODE":0,"TOWNNAME":"新市區","LI":"大營里","LIN":"15鄰","STREET":" ","SECT":" ","MAREA":"大營","LANE":" ","ALLEY":" ","HOUSE_NO":"２７５號","E_COORD97":179099.38641499999,"N_COORD97":2555545.3645100002,"ADDRESS":"大營２７５號","OBJECTID":333849},"geometry":{"x":179099.38641500007,"y":2555545.3645100016}},{"attributes":{"ID":333859,"DIS_CODE":0,"TOWNNAME":"新營區","LI":"角帶里","LIN":"7鄰","STREET":" ","SECT":" ","MAREA":"角帶圍","LANE":" ","ALLEY":" ","HOUSE_NO":"８８之６８號","E_COORD97":174622.40248300001,"N_COORD97":2574874.73202,"ADDRESS":"角帶圍８８之６８號","OBJECTID":333850},"geometry":{"x":174622.40248299949,"y":2574874.7320220005}},{"attributes":{"ID":333860,"DIS_CODE":0,"TOWNNAME":"新市區","LI":"大營里","LIN":"1鄰","STREET":" ","SECT":" ","MAREA":"大營","LANE":" ","ALLEY":" ","HOUSE_NO":"２之５０號","E_COORD97":180059.19871699999,"N_COORD97":2555569.0714699998,"ADDRESS":"大營２之５０號","OBJECTID":333851},"geometry":{"x":180059.19871700089,"y":2555569.0714660008}},{"attributes":{"ID":333861,"DIS_CODE":0,"TOWNNAME":"仁德區","LI":"中生里","LIN":"1鄰","STREET":" ","SECT":" ","MAREA":"中洲","LANE":" ","ALLEY":" ","HOUSE_NO":"７６號之３３","E_COORD97":173084.122543,"N_COORD97":2534450.8290800001,"ADDRESS":"中洲７６號之３３","OBJECTID":333852},"geometry":{"x":173084.12254299875,"y":2534450.8290830012}},{"attributes":{"ID":333862,"DIS_CODE":0,"TOWNNAME":"仁德區","LI":"中生里","LIN":"1鄰","STREET":" ","SECT":" ","MAREA":"中洲","LANE":" ","ALLEY":" ","HOUSE_NO":"７６號之３６","E_COORD97":173032.21590000001,"N_COORD97":2534571.69068,"ADDRESS":"中洲７６號之３６","OBJECTID":333853},"geometry":{"x":173032.21590000112,"y":2534571.690685004}},{"attributes":{"ID":333863,"DIS_CODE":0,"TOWNNAME":"安南區","LI":"海西里","LIN":"5鄰","STREET":"海中街","SECT":" ","MAREA":" ","LANE":"１２１巷","ALLEY":" ","HOUSE_NO":"１１７號","E_COORD97":166126.253604,"N_COORD97":2548949.2654400002,"ADDRESS":"海中街１２１巷１１７號","OBJECTID":333854},"geometry":{"x":166126.25360400043,"y":2548949.2654370032}},{"attributes":{"ID":333864,"DIS_CODE":0,"TOWNNAME":"安南區","LI":"海西里","LIN":"7鄰","STREET":"海中街","SECT":" ","MAREA":" ","LANE":"１０１巷","ALLEY":" ","HOUSE_NO":"２０號","E_COORD97":166341.162644,"N_COORD97":2548979.9570900002,"ADDRESS":"海中街１０１巷２０號","OBJECTID":333855},"geometry":{"x":166341.16264399979,"y":2548979.957086999}},{"attributes":{"ID":333865,"DIS_CODE":0,"TOWNNAME":"仁德區","LI":"仁義里","LIN":"16鄰","STREET":"義林路","SECT":" ","MAREA":" ","LANE":"２３３巷","ALLEY":" ","HOUSE_NO":"６號","E_COORD97":174512.59987599999,"N_COORD97":2541255.43707,"ADDRESS":"義林路２３３巷６號","OBJECTID":333856},"geometry":{"x":174512.59987600055,"y":2541255.4370660018}},{"attributes":{"ID":333866,"DIS_CODE":0,"TOWNNAME":"關廟區","LI":"布袋里","LIN":"2鄰","STREET":"長裕街","SECT":" ","MAREA":" ","LANE":"１７５巷","ALLEY":" ","HOUSE_NO":"３５號","E_COORD97":182354.368923,"N_COORD97":2535579.2843399998,"ADDRESS":"長裕街１７５巷３５號","OBJECTID":333857},"geometry":{"x":182354.36892299913,"y":2535579.2843390014}},{"attributes":{"ID":333867,"DIS_CODE":0,"TOWNNAME":"關廟區","LI":"布袋里","LIN":"2鄰","STREET":"長裕街","SECT":" ","MAREA":" ","LANE":" ","ALLEY":" ","HOUSE_NO":"１１８號","E_COORD97":182401.41978600001,"N_COORD97":2535912.7649900001,"ADDRESS":"長裕街１１８號","OBJECTID":333858},"geometry":{"x":182401.41978599969,"y":2535912.7649920024}},{"attributes":{"ID":333868,"DIS_CODE":0,"TOWNNAME":"佳里區","LI":"六安里","LIN":"3鄰","STREET":"信義二街","SECT":" ","MAREA":" ","LANE":" ","ALLEY":" ","HOUSE_NO":"８０號","E_COORD97":166159.36480700001,"N_COORD97":2562753.14408,"ADDRESS":"信義二街８０號","OBJECTID":333859},"geometry":{"x":166159.36480700038,"y":2562753.1440790016}},{"attributes":{"ID":333869,"DIS_CODE":0,"TOWNNAME":"關廟區","LI":"布袋里","LIN":"2鄰","STREET":"長裕街","SECT":" ","MAREA":" ","LANE":" ","ALLEY":" ","HOUSE_NO":"１３８號","E_COORD97":182294.813551,"N_COORD97":2535832.5433700001,"ADDRESS":"長裕街１３８號","OBJECTID":333860},"geometry":{"x":182294.81355100032,"y":2535832.5433690026}},{"attributes":{"ID":333870,"DIS_CODE":0,"TOWNNAME":"仁德區","LI":"仁愛里","LIN":"25鄰","STREET":"大同路","SECT":"三段","MAREA":" ","LANE":" ","ALLEY":" ","HOUSE_NO":"７號","E_COORD97":169731.20938499999,"N_COORD97":2540095.1798700001,"ADDRESS":"大同路三段７號","OBJECTID":333861},"geometry":{"x":169731.2093850011,"y":2540095.1798680034}},{"attributes":{"ID":333871,"DIS_CODE":0,"TOWNNAME":"仁德區","LI":"仁愛里","LIN":"25鄰","STREET":"大同路","SECT":"三段","MAREA":" ","LANE":" ","ALLEY":" ","HOUSE_NO":"１號","E_COORD97":169731.63324699999,"N_COORD97":2540108.7265300001,"ADDRESS":"大同路三段１號","OBJECTID":333862},"geometry":{"x":169731.6332470011,"y":2540108.7265270017}},{"attributes":{"ID":333872,"DIS_CODE":0,"TOWNNAME":"北區","LI":"成德里","LIN":"20鄰","STREET":"文成一路","SECT":" ","MAREA":" ","LANE":"１５８巷","ALLEY":" ","HOUSE_NO":"５號","E_COORD97":168397.63,"N_COORD97":2546084.4199999999,"ADDRESS":"文成一路１５８巷５號","OBJECTID":333863},"geometry":{"x":168397.63000000082,"y":2546084.4199999999}},{"attributes":{"ID":333873,"DIS_CODE":0,"TOWNNAME":"北區","LI":"成功里","LIN":"20鄰","STREET":"中華北路","SECT":"二段","MAREA":" ","LANE":"２６８巷","ALLEY":" ","HOUSE_NO":"１１號","E_COORD97":168823.48000000001,"N_COORD97":2546903,"ADDRESS":"中華北路二段２６８巷１１號","OBJECTID":333864},"geometry":{"x":168823.48000000045,"y":2546903.0000000019}},{"attributes":{"ID":333874,"DIS_CODE":0,"TOWNNAME":"北區","LI":"成功里","LIN":"20鄰","STREET":"中華北路","SECT":"二段","MAREA":" ","LANE":"２６８巷","ALLEY":" ","HOUSE_NO":"１３號","E_COORD97":168825,"N_COORD97":2546899.7000000002,"ADDRESS":"中華北路二段２６８巷１３號","OBJECTID":333865},"geometry":{"x":168825,"y":2546899.6999999993}},{"attributes":{"ID":333875,"DIS_CODE":0,"TOWNNAME":"北區","LI":"成功里","LIN":"20鄰","STREET":"中華北路","SECT":"二段","MAREA":" ","LANE":"２６８巷","ALLEY":" ","HOUSE_NO":"１號","E_COORD97":168821.70000000001,"N_COORD97":2546925.5499999998,"ADDRESS":"中華北路二段２６８巷１號","OBJECTID":333866},"geometry":{"x":168821.70000000019,"y":2546925.5500000007}},{"attributes":{"ID":333876,"DIS_CODE":0,"TOWNNAME":"白河區","LI":"永安里","LIN":"15鄰","STREET":"三民路","SECT":" ","MAREA":" ","LANE":"４９７巷","ALLEY":" ","HOUSE_NO":"９號","E_COORD97":189776.89000000001,"N_COORD97":2583441.54,"ADDRESS":"三民路４９７巷９號","OBJECTID":333867},"geometry":{"x":189776.8900000006,"y":2583441.5399999991}},{"attributes":{"ID":333877,"DIS_CODE":0,"TOWNNAME":"白河區","LI":"永安里","LIN":"15鄰","STREET":"三民路","SECT":" ","MAREA":" ","LANE":"５０７巷","ALLEY":" ","HOUSE_NO":"１２號","E_COORD97":189731.14000000001,"N_COORD97":2583468.71,"ADDRESS":"三民路５０７巷１２號","OBJECTID":333868},"geometry":{"x":189731.1400000006,"y":2583468.7100000028}},{"attributes":{"ID":333878,"DIS_CODE":0,"TOWNNAME":"白河區","LI":"永安里","LIN":"15鄰","STREET":"三民路","SECT":" ","MAREA":" ","LANE":"５０７巷","ALLEY":" ","HOUSE_NO":"１號","E_COORD97":189723.82999999999,"N_COORD97":2583451.6800000002,"ADDRESS":"三民路５０７巷１號","OBJECTID":333869},"geometry":{"x":189723.83000000101,"y":2583451.6799999997}},{"attributes":{"ID":333879,"DIS_CODE":0,"TOWNNAME":"白河區","LI":"永安里","LIN":"15鄰","STREET":"三民路","SECT":" ","MAREA":" ","LANE":"５０７巷","ALLEY":" ","HOUSE_NO":"２號","E_COORD97":189766.17000000001,"N_COORD97":2583476.7999999998,"ADDRESS":"三民路５０７巷２號","OBJECTID":333870},"geometry":{"x":189766.16999999993,"y":2583476.8000000045}},{"attributes":{"ID":333880,"DIS_CODE":0,"TOWNNAME":"白河區","LI":"永安里","LIN":"15鄰","STREET":"三民路","SECT":" ","MAREA":" ","LANE":"５０７巷","ALLEY":" ","HOUSE_NO":"３號","E_COORD97":189729.67999999999,"N_COORD97":2583449.6400000001,"ADDRESS":"三民路５０７巷３號","OBJECTID":333871},"geometry":{"x":189729.6799999997,"y":2583449.6400000006}},{"attributes":{"ID":333881,"DIS_CODE":0,"TOWNNAME":"安南區","LI":"頂安里","LIN":"17鄰","STREET":"北安路","SECT":"二段","MAREA":" ","LANE":" ","ALLEY":" ","HOUSE_NO":"４３０號","E_COORD97":168431.34,"N_COORD97":2548333.5899999999,"ADDRESS":"北安路二段４３０號","OBJECTID":333872},"geometry":{"x":168431.34000000171,"y":2548333.5900000017}},{"attributes":{"ID":333882,"DIS_CODE":0,"TOWNNAME":"安南區","LI":"州南里","LIN":"17鄰","STREET":"安和路","SECT":"四段","MAREA":" ","LANE":" ","ALLEY":" ","HOUSE_NO":"２４７號","E_COORD97":169903.70000000001,"N_COORD97":2550668.1200000001,"ADDRESS":"安和路四段２４７號","OBJECTID":333873},"geometry":{"x":169903.70000000019,"y":2550668.120000001}},{"attributes":{"ID":333883,"DIS_CODE":0,"TOWNNAME":"安南區","LI":"州南里","LIN":"17鄰","STREET":"安和路","SECT":"四段","MAREA":" ","LANE":" ","ALLEY":" ","HOUSE_NO":"２４９號","E_COORD97":169904.04000000001,"N_COORD97":2550674.7799999998,"ADDRESS":"安和路四段２４９號","OBJECTID":333874},"geometry":{"x":169904.04000000004,"y":2550674.7800000012}},{"attributes":{"ID":333884,"DIS_CODE":0,"TOWNNAME":"安南區","LI":"州南里","LIN":"17鄰","STREET":"安和路","SECT":"四段","MAREA":" ","LANE":" ","ALLEY":" ","HOUSE_NO":"２５３號","E_COORD97":169899.22,"N_COORD97":2550684.1400000001,"ADDRESS":"安和路四段２５３號","OBJECTID":333875},"geometry":{"x":169899.21999999974,"y":2550684.1400000025}},{"attributes":{"ID":333885,"DIS_CODE":0,"TOWNNAME":"安南區","LI":"州南里","LIN":"17鄰","STREET":"安和路","SECT":"四段","MAREA":" ","LANE":" ","ALLEY":" ","HOUSE_NO":"２５５號","E_COORD97":169904.69,"N_COORD97":2550687.3599999999,"ADDRESS":"安和路四段２５５號","OBJECTID":333876},"geometry":{"x":169904.69000000134,"y":2550687.3600000013}},{"attributes":{"ID":333886,"DIS_CODE":0,"TOWNNAME":"安南區","LI":"州南里","LIN":"17鄰","STREET":"安和路","SECT":"四段","MAREA":" ","LANE":" ","ALLEY":" ","HOUSE_NO":"２５７號","E_COORD97":169904.89999999999,"N_COORD97":2550692.4500000002,"ADDRESS":"安和路四段２５７號","OBJECTID":333877},"geometry":{"x":169904.9000000013,"y":2550692.4499999974}},{"attributes":{"ID":333887,"DIS_CODE":0,"TOWNNAME":"安南區","LI":"溪心里","LIN":"17鄰","STREET":"功安三街","SECT":" ","MAREA":" ","LANE":" ","ALLEY":" ","HOUSE_NO":"６６之１號","E_COORD97":166168.28,"N_COORD97":2550126.04,"ADDRESS":"功安三街６６之１號","OBJECTID":333878},"geometry":{"x":166168.28000000026,"y":2550126.040000001}},{"attributes":{"ID":333888,"DIS_CODE":0,"TOWNNAME":"安南區","LI":"溪心里","LIN":"17鄰","STREET":"功安三街","SECT":" ","MAREA":" ","LANE":" ","ALLEY":" ","HOUSE_NO":"６６之２號","E_COORD97":166164.47,"N_COORD97":2550128.7400000002,"ADDRESS":"功安三街６６之２號","OBJECTID":333879},"geometry":{"x":166164.47000000067,"y":2550128.7399999984}},{"attributes":{"ID":333889,"DIS_CODE":0,"TOWNNAME":"安南區","LI":"溪心里","LIN":"17鄰","STREET":"功安三街","SECT":" ","MAREA":" ","LANE":" ","ALLEY":" ","HOUSE_NO":"６６之３號","E_COORD97":166161.70999999999,"N_COORD97":2550131.6299999999,"ADDRESS":"功安三街６６之３號","OBJECTID":333880},"geometry":{"x":166161.70999999996,"y":2550131.6300000027}},{"attributes":{"ID":333890,"DIS_CODE":0,"TOWNNAME":"仁德區","LI":"仁愛里","LIN":"25鄰","STREET":"保仁路","SECT":" ","MAREA":" ","LANE":"２９５巷","ALLEY":" ","HOUSE_NO":"３１號","E_COORD97":169783.39748099999,"N_COORD97":2540026.52061,"ADDRESS":"保仁路２９５巷３１號","OBJECTID":333881},"geometry":{"x":169783.39748100098,"y":2540026.5206050035}},{"attributes":{"ID":333891,"DIS_CODE":0,"TOWNNAME":"仁德區","LI":"仁愛里","LIN":"25鄰","STREET":"大同路","SECT":"三段","MAREA":" ","LANE":"１２１巷","ALLEY":" ","HOUSE_NO":"１５號","E_COORD97":169777.88727400001,"N_COORD97":2539889.9956800002,"ADDRESS":"大同路三段１２１巷１５號","OBJECTID":333882},"geometry":{"x":169777.88727399986,"y":2539889.9956790041}},{"attributes":{"ID":333892,"DIS_CODE":0,"TOWNNAME":"仁德區","LI":"仁愛里","LIN":"25鄰","STREET":"大同路","SECT":"三段","MAREA":" ","LANE":"１２１巷","ALLEY":" ","HOUSE_NO":"３５號","E_COORD97":169800.35196500001,"N_COORD97":2539924.0739899999,"ADDRESS":"大同路三段１２１巷３５號","OBJECTID":333883},"geometry":{"x":169800.35196500178,"y":2539924.0739940014}},{"attributes":{"ID":333893,"DIS_CODE":0,"TOWNNAME":"仁德區","LI":"仁愛里","LIN":"25鄰","STREET":"大同路","SECT":"三段","MAREA":" ","LANE":" ","ALLEY":" ","HOUSE_NO":"１１５號","E_COORD97":169751.39589300001,"N_COORD97":2539899.30901,"ADDRESS":"大同路三段１１５號","OBJECTID":333884},"geometry":{"x":169751.39589300007,"y":2539899.3090070002}},{"attributes":{"ID":333894,"DIS_CODE":0,"TOWNNAME":"中西區","LI":"安海里","LIN":"6鄰","STREET":"康樂街","SECT":" ","MAREA":" ","LANE":" ","ALLEY":" ","HOUSE_NO":"１８３號","E_COORD97":167441.813574,"N_COORD97":2543881.4430800001,"ADDRESS":"康樂街１８３號","OBJECTID":333885},"geometry":{"x":167441.81357400119,"y":2543881.4430800024}},{"attributes":{"ID":333895,"DIS_CODE":0,"TOWNNAME":"白河區","LI":"永安里","LIN":"15鄰","STREET":"三民路","SECT":" ","MAREA":" ","LANE":"５０７巷","ALLEY":" ","HOUSE_NO":"４號","E_COORD97":189755.57000000001,"N_COORD97":2583470.9100000001,"ADDRESS":"三民路５０７巷４號","OBJECTID":333886},"geometry":{"x":189755.57000000216,"y":2583470.9100000001}},{"attributes":{"ID":333896,"DIS_CODE":0,"TOWNNAME":"白河區","LI":"永安里","LIN":"15鄰","STREET":"三民路","SECT":" ","MAREA":" ","LANE":"５０７巷","ALLEY":" ","HOUSE_NO":"６號","E_COORD97":189747.92999999999,"N_COORD97":2583467.0299999998,"ADDRESS":"三民路５０７巷６號","OBJECTID":333887},"geometry":{"x":189747.93000000063,"y":2583467.0300000031}},{"attributes":{"ID":333897,"DIS_CODE":0,"TOWNNAME":"白河區","LI":"永安里","LIN":"15鄰","STREET":"三民路","SECT":" ","MAREA":" ","LANE":"５０７巷","ALLEY":" ","HOUSE_NO":"８號","E_COORD97":189741.79000000001,"N_COORD97":2583465.2799999998,"ADDRESS":"三民路５０７巷８號","OBJECTID":333888},"geometry":{"x":189741.79000000004,"y":2583465.2800000031}},{"attributes":{"ID":333898,"DIS_CODE":0,"TOWNNAME":"新營區","LI":"南興里","LIN":"21鄰","STREET":"延平路","SECT":" ","MAREA":" ","LANE":"１４０巷","ALLEY":" ","HOUSE_NO":"２４號","E_COORD97":179645.92999999999,"N_COORD97":2577481.3399999999,"ADDRESS":"延平路１４０巷２４號","OBJECTID":333889},"geometry":{"x":179645.93000000156,"y":2577481.3400000036}},{"attributes":{"ID":333899,"DIS_CODE":0,"TOWNNAME":"仁德區","LI":"中生里","LIN":"1鄰","STREET":" ","SECT":" ","MAREA":"中洲","LANE":" ","ALLEY":" ","HOUSE_NO":"７６號之５６","E_COORD97":173093.02082500001,"N_COORD97":2534465.0107399998,"ADDRESS":"中洲７６號之５６","OBJECTID":333890},"geometry":{"x":173093.02082500141,"y":2534465.0107419994}},{"attributes":{"ID":333900,"DIS_CODE":0,"TOWNNAME":"仁德區","LI":"中生里","LIN":"6鄰","STREET":" ","SECT":" ","MAREA":"二橋","LANE":" ","ALLEY":" ","HOUSE_NO":"２號","E_COORD97":172187.302864,"N_COORD97":2534405.1091100001,"ADDRESS":"二橋２號","OBJECTID":333891},"geometry":{"x":172187.3028640002,"y":2534405.1091080029}},{"attributes":{"ID":333901,"DIS_CODE":0,"TOWNNAME":"仁德區","LI":"中生里","LIN":"1鄰","STREET":" ","SECT":" ","MAREA":"中洲","LANE":" ","ALLEY":" ","HOUSE_NO":"７６號之６０","E_COORD97":173068.65648199999,"N_COORD97":2534449.1357499999,"ADDRESS":"中洲７６號之６０","OBJECTID":333892},"geometry":{"x":173068.6564819999,"y":2534449.1357510015}},{"attributes":{"ID":333902,"DIS_CODE":0,"TOWNNAME":"仁德區","LI":"中生里","LIN":"6鄰","STREET":" ","SECT":" ","MAREA":"二橋","LANE":" ","ALLEY":" ","HOUSE_NO":"３號","E_COORD97":172197.68419299999,"N_COORD97":2534405.9557699999,"ADDRESS":"二橋３號","OBJECTID":333893},"geometry":{"x":172197.68419300113,"y":2534405.9557739999}},{"attributes":{"ID":333903,"DIS_CODE":0,"TOWNNAME":"仁德區","LI":"中生里","LIN":"3鄰","STREET":" ","SECT":" ","MAREA":"中洲","LANE":" ","ALLEY":" ","HOUSE_NO":"９５號之３","E_COORD97":172910.81791400001,"N_COORD97":2534502.0523899999,"ADDRESS":"中洲９５號之３","OBJECTID":333894},"geometry":{"x":172910.81791400071,"y":2534502.0523889996}},{"attributes":{"ID":333904,"DIS_CODE":0,"TOWNNAME":"仁德區","LI":"中生里","LIN":"6鄰","STREET":" ","SECT":" ","MAREA":"二橋","LANE":" ","ALLEY":" ","HOUSE_NO":"５號","E_COORD97":172204.04010799999,"N_COORD97":2534405.1091100001,"ADDRESS":"二橋５號","OBJECTID":333895},"geometry":{"x":172204.04010799993,"y":2534405.1091080029}},{"attributes":{"ID":333905,"DIS_CODE":0,"TOWNNAME":"仁德區","LI":"中生里","LIN":"5鄰","STREET":" ","SECT":" ","MAREA":"中洲","LANE":" ","ALLEY":" ","HOUSE_NO":"１３２號之２","E_COORD97":172739.84378600001,"N_COORD97":2534193.6542199999,"ADDRESS":"中洲１３２號之２","OBJECTID":333896},"geometry":{"x":172739.84378600121,"y":2534193.6542219985}},{"attributes":{"ID":333906,"DIS_CODE":0,"TOWNNAME":"安南區","LI":"頂安里","LIN":"17鄰","STREET":"北安路","SECT":"二段","MAREA":" ","LANE":" ","ALLEY":" ","HOUSE_NO":"６５６號","E_COORD97":168285.84,"N_COORD97":2548767.02,"ADDRESS":"北安路二段６５６號","OBJECTID":333897},"geometry":{"x":168285.84000000078,"y":2548767.0200000033}},{"attributes":{"ID":333907,"DIS_CODE":0,"TOWNNAME":"安南區","LI":"頂安里","LIN":"17鄰","STREET":"北安路","SECT":"二段","MAREA":" ","LANE":" ","ALLEY":" ","HOUSE_NO":"５５０號","E_COORD97":168341.85999999999,"N_COORD97":2548600.7200000002,"ADDRESS":"北安路二段５５０號","OBJECTID":333898},"geometry":{"x":168341.8600000022,"y":2548600.7200000044}},{"attributes":{"ID":333908,"DIS_CODE":0,"TOWNNAME":"安南區","LI":"頂安里","LIN":"17鄰","STREET":"北安路","SECT":"二段","MAREA":" ","LANE":" ","ALLEY":" ","HOUSE_NO":"５１６號","E_COORD97":168380.45000000001,"N_COORD97":2548522.4500000002,"ADDRESS":"北安路二段５１６號","OBJECTID":333899},"geometry":{"x":168380.45000000112,"y":2548522.4499999993}},{"attributes":{"ID":333909,"DIS_CODE":0,"TOWNNAME":"安南區","LI":"頂安里","LIN":"17鄰","STREET":"北安路","SECT":"二段","MAREA":" ","LANE":" ","ALLEY":" ","HOUSE_NO":"５１２號","E_COORD97":168380.45000000001,"N_COORD97":2548522.4500000002,"ADDRESS":"北安路二段５１２號","OBJECTID":333900},"geometry":{"x":168380.45000000112,"y":2548522.4499999993}},{"attributes":{"ID":333910,"DIS_CODE":0,"TOWNNAME":"仁德區","LI":"中生里","LIN":"13鄰","STREET":" ","SECT":" ","MAREA":"中洲","LANE":" ","ALLEY":" ","HOUSE_NO":"２１８號之４","E_COORD97":173052.76669300001,"N_COORD97":2534063.6909599998,"ADDRESS":"中洲２１８號之４","OBJECTID":333901},"geometry":{"x":173052.76669299975,"y":2534063.690959001}},{"attributes":{"ID":333911,"DIS_CODE":0,"TOWNNAME":"新市區","LI":"大營里","LIN":"17鄰","STREET":" ","SECT":" ","MAREA":"大營","LANE":" ","ALLEY":" ","HOUSE_NO":"３１３之２號","E_COORD97":179495.253887,"N_COORD97":2555325.3909,"ADDRESS":"大營３１３之２號","OBJECTID":333902},"geometry":{"x":179495.25388699956,"y":2555325.3908980023}},{"attributes":{"ID":333912,"DIS_CODE":0,"TOWNNAME":"左鎮區","LI":"睦光里","LIN":"5鄰","STREET":" ","SECT":" ","MAREA":"睦光","LANE":" ","ALLEY":" ","HOUSE_NO":"４６號之１２","E_COORD97":190556.17571700001,"N_COORD97":2550048.3661699998,"ADDRESS":"睦光４６號之１２","OBJECTID":333903},"geometry":{"x":190556.17571699992,"y":2550048.3661729991}},{"attributes":{"ID":333913,"DIS_CODE":0,"TOWNNAME":"仁德區","LI":"仁愛里","LIN":"26鄰","STREET":"大同路","SECT":"三段","MAREA":" ","LANE":" ","ALLEY":" ","HOUSE_NO":"１８號","E_COORD97":169693.73906200001,"N_COORD97":2540081.7920300001,"ADDRESS":"大同路三段１８號","OBJECTID":333904},"geometry":{"x":169693.73906200007,"y":2540081.7920340039}},{"attributes":{"ID":333914,"DIS_CODE":0,"TOWNNAME":"新營區","LI":"王公里","LIN":"33鄰","STREET":"長榮路","SECT":"一段","MAREA":" ","LANE":" ","ALLEY":" ","HOUSE_NO":"４６７號","E_COORD97":180486.35328800001,"N_COORD97":2579842.4377899999,"ADDRESS":"長榮路一段４６７號","OBJECTID":333905},"geometry":{"x":180486.35328800045,"y":2579842.437787002}},{"attributes":{"ID":333915,"DIS_CODE":0,"TOWNNAME":"新營區","LI":"王公里","LIN":"33鄰","STREET":"長榮路","SECT":"一段","MAREA":" ","LANE":" ","ALLEY":" ","HOUSE_NO":"４６５號","E_COORD97":180492.074108,"N_COORD97":2579842.6494499999,"ADDRESS":"長榮路一段４６５號","OBJECTID":333906},"geometry":{"x":180492.07410800084,"y":2579842.6494529992}},{"attributes":{"ID":333916,"DIS_CODE":0,"TOWNNAME":"安南區","LI":"州北里","LIN":"17鄰","STREET":"安和路","SECT":"六段","MAREA":" ","LANE":" ","ALLEY":" ","HOUSE_NO":"７號之５","E_COORD97":169635.70999599999,"N_COORD97":2552329.8178900001,"ADDRESS":"安和路六段７號之５","OBJECTID":333907},"geometry":{"x":169635.70999599993,"y":2552329.8178920038}},{"attributes":{"ID":333917,"DIS_CODE":0,"TOWNNAME":"新營區","LI":"王公里","LIN":"33鄰","STREET":"長榮路","SECT":"一段","MAREA":" ","LANE":" ","ALLEY":" ","HOUSE_NO":"４５９號","E_COORD97":180527.246556,"N_COORD97":2579842.6494499999,"ADDRESS":"長榮路一段４５９號","OBJECTID":333908},"geometry":{"x":180527.24655599985,"y":2579842.6494529992}},{"attributes":{"ID":333918,"DIS_CODE":0,"TOWNNAME":"仁德區","LI":"仁愛里","LIN":"26鄰","STREET":"大同路","SECT":"三段","MAREA":" ","LANE":" ","ALLEY":" ","HOUSE_NO":"７２號","E_COORD97":169705.70957100001,"N_COORD97":2539979.4777099998,"ADDRESS":"大同路三段７２號","OBJECTID":333909},"geometry":{"x":169705.70957100112,"y":2539979.4777139984}},{"attributes":{"ID":333919,"DIS_CODE":0,"TOWNNAME":"新營區","LI":"王公里","LIN":"33鄰","STREET":"長榮路","SECT":"一段","MAREA":" ","LANE":" ","ALLEY":" ","HOUSE_NO":"４７５號","E_COORD97":180464.317537,"N_COORD97":2579841.8027900001,"ADDRESS":"長榮路一段４７５號","OBJECTID":333910},"geometry":{"x":180464.31753700133,"y":2579841.8027870022}},{"attributes":{"ID":333920,"DIS_CODE":0,"TOWNNAME":"新營區","LI":"王公里","LIN":"33鄰","STREET":"長榮路","SECT":"一段","MAREA":" ","LANE":" ","ALLEY":" ","HOUSE_NO":"４７３號","E_COORD97":180470.03835700001,"N_COORD97":2579842.2261199998,"ADDRESS":"長榮路一段４７３號","OBJECTID":333911},"geometry":{"x":180470.0383570008,"y":2579842.2261200007}},{"attributes":{"ID":333921,"DIS_CODE":0,"TOWNNAME":"仁德區","LI":"仁愛里","LIN":"26鄰","STREET":"大同路","SECT":"三段","MAREA":" ","LANE":" ","ALLEY":" ","HOUSE_NO":"２０號","E_COORD97":169693.73906200001,"N_COORD97":2540076.0770399999,"ADDRESS":"大同路三段２０號","OBJECTID":333912},"geometry":{"x":169693.73906200007,"y":2540076.0770369992}},{"attributes":{"ID":333922,"DIS_CODE":0,"TOWNNAME":"仁德區","LI":"仁愛里","LIN":"26鄰","STREET":"大同路","SECT":"三段","MAREA":" ","LANE":" ","ALLEY":" ","HOUSE_NO":"３２號","E_COORD97":169695.85773600001,"N_COORD97":2540050.6770500001,"ADDRESS":"大同路三段３２號","OBJECTID":333913},"geometry":{"x":169695.85773599986,"y":2540050.6770510003}},{"attributes":{"ID":333923,"DIS_CODE":0,"TOWNNAME":"仁德區","LI":"仁愛里","LIN":"26鄰","STREET":"大同路","SECT":"三段","MAREA":" ","LANE":" ","ALLEY":" ","HOUSE_NO":"３６號","E_COORD97":169695.986,"N_COORD97":2540045.9199999999,"ADDRESS":"大同路三段３６號","OBJECTID":333914},"geometry":{"x":169695.9860000005,"y":2540045.9200000018}},{"attributes":{"ID":333924,"DIS_CODE":0,"TOWNNAME":"仁德區","LI":"仁愛里","LIN":"26鄰","STREET":"大同路","SECT":"三段","MAREA":" ","LANE":" ","ALLEY":" ","HOUSE_NO":"３８號","E_COORD97":169696.19,"N_COORD97":2540041.77,"ADDRESS":"大同路三段３８號","OBJECTID":333915},"geometry":{"x":169696.19000000134,"y":2540041.7700000033}},{"attributes":{"ID":333925,"DIS_CODE":0,"TOWNNAME":"仁德區","LI":"仁愛里","LIN":"26鄰","STREET":"大同路","SECT":"三段","MAREA":" ","LANE":" ","ALLEY":" ","HOUSE_NO":"４８號","E_COORD97":169699.25948000001,"N_COORD97":2540023.3512300001,"ADDRESS":"大同路三段４８號","OBJECTID":333916},"geometry":{"x":169699.25948000047,"y":2540023.3512299992}},{"attributes":{"ID":333926,"DIS_CODE":0,"TOWNNAME":"仁德區","LI":"仁愛里","LIN":"26鄰","STREET":"大同路","SECT":"三段","MAREA":" ","LANE":" ","ALLEY":" ","HOUSE_NO":"５０號","E_COORD97":169699.67134,"N_COORD97":2540020.0062299999,"ADDRESS":"大同路三段５０號","OBJECTID":333917},"geometry":{"x":169699.67134000082,"y":2540020.0062300041}},{"attributes":{"ID":333927,"DIS_CODE":0,"TOWNNAME":"仁德區","LI":"仁愛里","LIN":"26鄰","STREET":"大同路","SECT":"三段","MAREA":" ","LANE":" ","ALLEY":" ","HOUSE_NO":"９０號","E_COORD97":169708.781648,"N_COORD97":2539949.87078,"ADDRESS":"大同路三段９０號","OBJECTID":333918},"geometry":{"x":169708.78164799977,"y":2539949.8707800005}},{"attributes":{"ID":333928,"DIS_CODE":0,"TOWNNAME":"仁德區","LI":"仁愛里","LIN":"26鄰","STREET":"大同路","SECT":"三段","MAREA":" ","LANE":" ","ALLEY":" ","HOUSE_NO":"１１０號","E_COORD97":169712.38339500001,"N_COORD97":2539909.1249699998,"ADDRESS":"大同路三段１１０號","OBJECTID":333919},"geometry":{"x":169712.38339500222,"y":2539909.1249680035}},{"attributes":{"ID":333929,"DIS_CODE":0,"TOWNNAME":"新營區","LI":"王公里","LIN":"33鄰","STREET":"長榮路","SECT":"一段","MAREA":" ","LANE":" ","ALLEY":" ","HOUSE_NO":"４７１號","E_COORD97":180475.54729399999,"N_COORD97":2579842.2261199998,"ADDRESS":"長榮路一段４７１號","OBJECTID":333920},"geometry":{"x":180475.54729400203,"y":2579842.2261200007}},{"attributes":{"ID":333930,"DIS_CODE":0,"TOWNNAME":"左鎮區","LI":"睦光里","LIN":"5鄰","STREET":" ","SECT":" ","MAREA":"睦光","LANE":" ","ALLEY":" ","HOUSE_NO":"４６號之１１","E_COORD97":190558.29358500001,"N_COORD97":2550044.5561799998,"ADDRESS":"睦光４６號之１１","OBJECTID":333921},"geometry":{"x":190558.29358500056,"y":2550044.5561750047}},{"attributes":{"ID":333931,"DIS_CODE":0,"TOWNNAME":"左鎮區","LI":"睦光里","LIN":"5鄰","STREET":" ","SECT":" ","MAREA":"睦光","LANE":" ","ALLEY":" ","HOUSE_NO":"４６號之９","E_COORD97":190562.31753,"N_COORD97":2550041.3811699999,"ADDRESS":"睦４６號之９","OBJECTID":333922},"geometry":{"x":190562.31752999965,"y":2550041.3811700009}},{"attributes":{"ID":333932,"DIS_CODE":0,"TOWNNAME":"新營區","LI":"忠政里","LIN":"9鄰","STREET":"中正路","SECT":" ","MAREA":" ","LANE":"３９巷","ALLEY":" ","HOUSE_NO":"４７號","E_COORD97":179931.5,"N_COORD97":2579244.1600000001,"ADDRESS":"中正路３９巷４７號","OBJECTID":333923},"geometry":{"x":179931.5,"y":2579244.160000002}},{"attributes":{"ID":333933,"DIS_CODE":0,"TOWNNAME":"永康區","LI":"六合里","LIN":"15鄰","STREET":"六合路","SECT":" ","MAREA":" ","LANE":"４４巷","ALLEY":" ","HOUSE_NO":"１５號","E_COORD97":171217.31,"N_COORD97":2545566.4900000002,"ADDRESS":"六合路４４巷１５號","OBJECTID":333924},"geometry":{"x":171217.30999999959,"y":2545566.4900000002}},{"attributes":{"ID":333934,"DIS_CODE":0,"TOWNNAME":"永康區","LI":"\u25A0洲里","LIN":"15鄰","STREET":"\u25A0洲一街","SECT":" ","MAREA":" ","LANE":"５巷","ALLEY":" ","HOUSE_NO":"３２號","E_COORD97":171502.73999999999,"N_COORD97":2549060.4900000002,"ADDRESS":"\u25A0洲一街５巷３２號","OBJECTID":333925},"geometry":{"x":171502.74000000115,"y":2549060.4900000021}},{"attributes":{"ID":333935,"DIS_CODE":0,"TOWNNAME":"永康區","LI":"六合里","LIN":"15鄰","STREET":"六合路","SECT":" ","MAREA":" ","LANE":"４４巷","ALLEY":" ","HOUSE_NO":"３１號","E_COORD97":171247.60000000001,"N_COORD97":2545559.7400000002,"ADDRESS":"六合路４４巷３１號","OBJECTID":333926},"geometry":{"x":171247.59999999963,"y":2545559.7400000021}},{"attributes":{"ID":333936,"DIS_CODE":0,"TOWNNAME":"安南區","LI":"安西里","LIN":"15鄰","STREET":"安和路","SECT":"一段","MAREA":" ","LANE":"４５９巷","ALLEY":" ","HOUSE_NO":"１２號","E_COORD97":169323.39999999999,"N_COORD97":2548497.2400000002,"ADDRESS":"安和路一段４５９巷１２號","OBJECTID":333927},"geometry":{"x":169323.4000000013,"y":2548497.2400000002}},{"attributes":{"ID":333937,"DIS_CODE":0,"TOWNNAME":"安南區","LI":"安和里","LIN":"15鄰","STREET":"安和路","SECT":"一段","MAREA":" ","LANE":"９６巷","ALLEY":" ","HOUSE_NO":"５９號","E_COORD97":169613.48999999999,"N_COORD97":2547744.3300000001,"ADDRESS":"安和路一段９６巷５９號","OBJECTID":333928},"geometry":{"x":169613.49000000022,"y":2547744.3300000001}},{"attributes":{"ID":333938,"DIS_CODE":0,"TOWNNAME":"安南區","LI":"安和里","LIN":"15鄰","STREET":"安和路","SECT":"一段","MAREA":" ","LANE":"９６巷","ALLEY":" ","HOUSE_NO":"６９號","E_COORD97":169635.76999999999,"N_COORD97":2547753.6099999999,"ADDRESS":"安和路一段９６巷６９號","OBJECTID":333929},"geometry":{"x":169635.77000000048,"y":2547753.6100000013}},{"attributes":{"ID":333939,"DIS_CODE":0,"TOWNNAME":"安南區","LI":"安和里","LIN":"15鄰","STREET":"安和路","SECT":"一段","MAREA":" ","LANE":"９６巷","ALLEY":" ","HOUSE_NO":"９５號","E_COORD97":169691.88,"N_COORD97":2547779.3300000001,"ADDRESS":"安和路一段９６巷９５號","OBJECTID":333930},"geometry":{"x":169691.87999999989,"y":2547779.3300000019}},{"attributes":{"ID":333940,"DIS_CODE":0,"TOWNNAME":"安南區","LI":"安和里","LIN":"15鄰","STREET":"安和路","SECT":"一段","MAREA":" ","LANE":"９６巷","ALLEY":" ","HOUSE_NO":"６４號","E_COORD97":169631.82000000001,"N_COORD97":2547729.9199999999,"ADDRESS":"安和路一段９６巷６４號","OBJECTID":333931},"geometry":{"x":169631.8200000003,"y":2547729.9199999999}},{"attributes":{"ID":333941,"DIS_CODE":0,"TOWNNAME":"安南區","LI":"安富里","LIN":"15鄰","STREET":"海佃路","SECT":"一段","MAREA":" ","LANE":"１５８巷","ALLEY":" ","HOUSE_NO":"１３３號","E_COORD97":167522.03,"N_COORD97":2547268.4100000001,"ADDRESS":"海佃路一段１５８巷１３３號","OBJECTID":333932},"geometry":{"x":167522.03000000119,"y":2547268.4100000001}},{"attributes":{"ID":333942,"DIS_CODE":0,"TOWNNAME":"安南區","LI":"安富里","LIN":"15鄰","STREET":"海佃路","SECT":"一段","MAREA":" ","LANE":"１５８巷","ALLEY":" ","HOUSE_NO":"１０７號","E_COORD97":167462.48000000001,"N_COORD97":2547259.1000000001,"ADDRESS":"海佃路一段１５８巷１０７號","OBJECTID":333933},"geometry":{"x":167462.48000000045,"y":2547259.1000000015}},{"attributes":{"ID":333943,"DIS_CODE":0,"TOWNNAME":"安南區","LI":"安富里","LIN":"15鄰","STREET":"海佃路","SECT":"一段","MAREA":" ","LANE":"１５８巷","ALLEY":" ","HOUSE_NO":"６７號","E_COORD97":167362.87,"N_COORD97":2547244.73,"ADDRESS":"海佃路一段１５８巷６７號","OBJECTID":333934},"geometry":{"x":167362.87000000011,"y":2547244.7300000023}},{"attributes":{"ID":333944,"DIS_CODE":0,"TOWNNAME":"善化區","LI":"光文里","LIN":"15鄰","STREET":"樹人路","SECT":" ","MAREA":" ","LANE":"７巷","ALLEY":" ","HOUSE_NO":"２３號","E_COORD97":178308.57000000001,"N_COORD97":2558892,"ADDRESS":"樹人路７巷２３號","OBJECTID":333935},"geometry":{"x":178308.57000000123,"y":2558892.0000000019}},{"attributes":{"ID":333945,"DIS_CODE":0,"TOWNNAME":"左鎮區","LI":"睦光里","LIN":"5鄰","STREET":" ","SECT":" ","MAREA":"睦光","LANE":" ","ALLEY":" ","HOUSE_NO":"４６號之６","E_COORD97":190565.49432999999,"N_COORD97":2550038.4178399998,"ADDRESS":"睦４６號之６","OBJECTID":333936},"geometry":{"x":190565.49433000013,"y":2550038.4178400002}},{"attributes":{"ID":333946,"DIS_CODE":0,"TOWNNAME":"新營區","LI":"王公里","LIN":"33鄰","STREET":"民族路","SECT":" ","MAREA":" ","LANE":"３３０巷","ALLEY":" ","HOUSE_NO":"３號","E_COORD97":180413.04203899999,"N_COORD97":2579816.6144699999,"ADDRESS":"民族路３３０巷３號","OBJECTID":333937},"geometry":{"x":180413.0420389995,"y":2579816.6144670043}},{"attributes":{"ID":333947,"DIS_CODE":0,"TOWNNAME":"新營區","LI":"王公里","LIN":"33鄰","STREET":"民族路","SECT":" ","MAREA":" ","LANE":"３３０巷","ALLEY":" ","HOUSE_NO":"５號","E_COORD97":180420.03415200001,"N_COORD97":2579817.2494700002,"ADDRESS":"民族路３３０巷５號","OBJECTID":333938},"geometry":{"x":180420.03415200021,"y":2579817.2494670022}},{"attributes":{"ID":333948,"DIS_CODE":0,"TOWNNAME":"新營區","LI":"王公里","LIN":"33鄰","STREET":"長榮路","SECT":"一段","MAREA":" ","LANE":" ","ALLEY":" ","HOUSE_NO":"４６９號","E_COORD97":180480.84435,"N_COORD97":2579842.0144500001,"ADDRESS":"長榮路一段４６９號","OBJECTID":333939},"geometry":{"x":180480.84434999991,"y":2579842.0144539978}},{"attributes":{"ID":333949,"DIS_CODE":0,"TOWNNAME":"新營區","LI":"王公里","LIN":"33鄰","STREET":"長榮路","SECT":"一段","MAREA":" ","LANE":" ","ALLEY":" ","HOUSE_NO":"４８７號","E_COORD97":180421.94109199999,"N_COORD97":2579839.8977899998,"ADDRESS":"長榮路一段４８７號","OBJECTID":333940},"geometry":{"x":180421.94109200127,"y":2579839.8977880031}},{"attributes":{"ID":333950,"DIS_CODE":0,"TOWNNAME":"新營區","LI":"王公里","LIN":"33鄰","STREET":"長榮路","SECT":"一段","MAREA":" ","LANE":" ","ALLEY":" ","HOUSE_NO":"４８５號","E_COORD97":180428.72132300001,"N_COORD97":2579839.8977899998,"ADDRESS":"長榮路一段４８５號","OBJECTID":333941},"geometry":{"x":180428.72132300027,"y":2579839.8977880031}},{"attributes":{"ID":333951,"DIS_CODE":0,"TOWNNAME":"仁德區","LI":"仁愛里","LIN":"26鄰","STREET":"大同路","SECT":"三段","MAREA":" ","LANE":" ","ALLEY":" ","HOUSE_NO":"１１８號","E_COORD97":169714.558471,"N_COORD97":2539893.87463,"ADDRESS":"大同路三段１１８號","OBJECTID":333942},"geometry":{"x":169714.55847099982,"y":2539893.8746350016}},{"attributes":{"ID":333952,"DIS_CODE":0,"TOWNNAME":"仁德區","LI":"仁愛里","LIN":"27鄰","STREET":"大同路","SECT":"三段","MAREA":" ","LANE":" ","ALLEY":" ","HOUSE_NO":"１９１號","E_COORD97":169773.82494600001,"N_COORD97":2539708.8882599999,"ADDRESS":"大同路三段１９１號","OBJECTID":333943},"geometry":{"x":169773.8249460021,"y":2539708.8882590011}},{"attributes":{"ID":333953,"DIS_CODE":0,"TOWNNAME":"仁德區","LI":"仁愛里","LIN":"26鄰","STREET":"大同路","SECT":"三段","MAREA":" ","LANE":" ","ALLEY":" ","HOUSE_NO":"２２８號","E_COORD97":169722.341163,"N_COORD97":2539704.3374299998,"ADDRESS":"大同路三段２２８號","OBJECTID":333944},"geometry":{"x":169722.34116300009,"y":2539704.3374280017}},{"attributes":{"ID":333954,"DIS_CODE":0,"TOWNNAME":"左鎮區","LI":"睦光里","LIN":"5鄰","STREET":" ","SECT":" ","MAREA":"睦光","LANE":" ","ALLEY":" ","HOUSE_NO":"４６號","E_COORD97":190570.73606,"N_COORD97":2550104.1932299999,"ADDRESS":"睦光４６號","OBJECTID":333945},"geometry":{"x":190570.73606000096,"y":2550104.1932260003}},{"attributes":{"ID":333955,"DIS_CODE":0,"TOWNNAME":"安南區","LI":"新順里","LIN":"25鄰","STREET":"興安路","SECT":" ","MAREA":" ","LANE":" ","ALLEY":" ","HOUSE_NO":"９３號","E_COORD97":169386.28,"N_COORD97":2549094.04,"ADDRESS":"興安路９３號","OBJECTID":333946},"geometry":{"x":169386.28000000026,"y":2549094.0399999991}},{"attributes":{"ID":333956,"DIS_CODE":0,"TOWNNAME":"安南區","LI":"安順里","LIN":"13鄰","STREET":"育安街","SECT":" ","MAREA":" ","LANE":" ","ALLEY":" ","HOUSE_NO":"２６０號","E_COORD97":169608.98000000001,"N_COORD97":2550105.27,"ADDRESS":"育安街２６０號","OBJECTID":333947},"geometry":{"x":169608.97999999952,"y":2550105.2700000014}},{"attributes":{"ID":333957,"DIS_CODE":0,"TOWNNAME":"關廟區","LI":"山西里","LIN":"20鄰","STREET":"崇平路","SECT":" ","MAREA":" ","LANE":"１０７巷","ALLEY":" ","HOUSE_NO":"５６號","E_COORD97":180718.01999999999,"N_COORD97":2540300.46,"ADDRESS":"崇平路１０７巷５６號","OBJECTID":333948},"geometry":{"x":180718.01999999862,"y":2540300.4600000028}},{"attributes":{"ID":333958,"DIS_CODE":0,"TOWNNAME":"關廟區","LI":"山西里","LIN":"20鄰","STREET":"崇平路","SECT":" ","MAREA":" ","LANE":"１０７巷","ALLEY":" ","HOUSE_NO":"１９號","E_COORD97":180733.42000000001,"N_COORD97":2540312.46,"ADDRESS":"崇平路１０７巷１９號","OBJECTID":333949},"geometry":{"x":180733.42000000086,"y":2540312.4600000009}},{"attributes":{"ID":333959,"DIS_CODE":0,"TOWNNAME":"白河區","LI":"永安里","LIN":"17鄰","STREET":"七賢街","SECT":" ","MAREA":" ","LANE":" ","ALLEY":" ","HOUSE_NO":"２７號","E_COORD97":189955.66,"N_COORD97":2582828.4300000002,"ADDRESS":"七賢街２７號","OBJECTID":333950},"geometry":{"x":189955.66000000108,"y":2582828.4300000016}},{"attributes":{"ID":333960,"DIS_CODE":0,"TOWNNAME":"關廟區","LI":"山西里","LIN":"20鄰","STREET":"崇平路","SECT":" ","MAREA":" ","LANE":"１０７巷","ALLEY":" ","HOUSE_NO":"４８號","E_COORD97":180704.22,"N_COORD97":2540301.46,"ADDRESS":"崇平路１０７巷４８號","OBJECTID":333951},"geometry":{"x":180704.22000000067,"y":2540301.4600000009}},{"attributes":{"ID":333961,"DIS_CODE":0,"TOWNNAME":"白河區","LI":"永安里","LIN":"17鄰","STREET":"七賢街","SECT":" ","MAREA":" ","LANE":" ","ALLEY":" ","HOUSE_NO":"２９號","E_COORD97":189959.07000000001,"N_COORD97":2582833.5,"ADDRESS":"七賢街２９號","OBJECTID":333952},"geometry":{"x":189959.07000000216,"y":2582833.5}},{"attributes":{"ID":333962,"DIS_CODE":0,"TOWNNAME":"關廟區","LI":"北花里","LIN":"20鄰","STREET":"中正路","SECT":" ","MAREA":" ","LANE":"４０巷","ALLEY":" ","HOUSE_NO":"６號","E_COORD97":183667.70999999999,"N_COORD97":2540977.25,"ADDRESS":"中正路４０巷６號","OBJECTID":333953},"geometry":{"x":183667.71000000089,"y":2540977.25}},{"attributes":{"ID":333963,"DIS_CODE":0,"TOWNNAME":"白河區","LI":"永安里","LIN":"17鄰","STREET":"十全街","SECT":" ","MAREA":" ","LANE":" ","ALLEY":" ","HOUSE_NO":"１７８號","E_COORD97":189950.23000000001,"N_COORD97":2582820.6000000001,"ADDRESS":"十全街１７８號","OBJECTID":333954},"geometry":{"x":189950.23000000138,"y":2582820.6000000015}},{"attributes":{"ID":333964,"DIS_CODE":0,"TOWNNAME":"白河區","LI":"永安里","LIN":"1鄰","STREET":"九龍街","SECT":" ","MAREA":" ","LANE":" ","ALLEY":" ","HOUSE_NO":"４５號","E_COORD97":190088.14999999999,"N_COORD97":2582947.8300000001,"ADDRESS":"九龍街４５號","OBJECTID":333955},"geometry":{"x":190088.1500000013,"y":2582947.8300000019}},{"attributes":{"ID":333965,"DIS_CODE":0,"TOWNNAME":"白河區","LI":"永安里","LIN":"1鄰","STREET":"九龍街","SECT":" ","MAREA":" ","LANE":" ","ALLEY":" ","HOUSE_NO":"４６號","E_COORD97":190095.28,"N_COORD97":2582960.02,"ADDRESS":"九龍街４６號","OBJECTID":333956},"geometry":{"x":190095.28000000119,"y":2582960.0200000014}},{"attributes":{"ID":333966,"DIS_CODE":0,"TOWNNAME":"白河區","LI":"永安里","LIN":"1鄰","STREET":"九龍街","SECT":" ","MAREA":" ","LANE":" ","ALLEY":" ","HOUSE_NO":"４７號","E_COORD97":190084.79000000001,"N_COORD97":2582950.2799999998,"ADDRESS":"九龍街４７號","OBJECTID":333957},"geometry":{"x":190084.79000000097,"y":2582950.2800000012}},{"attributes":{"ID":333967,"DIS_CODE":0,"TOWNNAME":"白河區","LI":"永安里","LIN":"1鄰","STREET":"九龍街","SECT":" ","MAREA":" ","LANE":" ","ALLEY":" ","HOUSE_NO":"４８號","E_COORD97":190091.70999999999,"N_COORD97":2582962.7400000002,"ADDRESS":"九龍街４８號","OBJECTID":333958},"geometry":{"x":190091.71000000183,"y":2582962.7400000021}},{"attributes":{"ID":333968,"DIS_CODE":0,"TOWNNAME":"白河區","LI":"永安里","LIN":"1鄰","STREET":"九龍街","SECT":" ","MAREA":" ","LANE":" ","ALLEY":" ","HOUSE_NO":"４９號","E_COORD97":190081.04999999999,"N_COORD97":2582953.0499999998,"ADDRESS":"九龍街４９號","OBJECTID":333959},"geometry":{"x":190081.05000000075,"y":2582953.0500000045}},{"attributes":{"ID":333969,"DIS_CODE":0,"TOWNNAME":"白河區","LI":"永安里","LIN":"1鄰","STREET":"九龍街","SECT":" ","MAREA":" ","LANE":" ","ALLEY":" ","HOUSE_NO":"５０號","E_COORD97":190087.85000000001,"N_COORD97":2582964.96,"ADDRESS":"九龍街５０號","OBJECTID":333960},"geometry":{"x":190087.84999999963,"y":2582964.9600000028}},{"attributes":{"ID":333970,"DIS_CODE":0,"TOWNNAME":"白河區","LI":"永安里","LIN":"7鄰","STREET":"十全街","SECT":" ","MAREA":" ","LANE":" ","ALLEY":" ","HOUSE_NO":"３１０號","E_COORD97":189712.48999999999,"N_COORD97":2583132.1899999999,"ADDRESS":"十全街３１０號","OBJECTID":333961},"geometry":{"x":189712.49000000115,"y":2583132.1899999995}},{"attributes":{"ID":333971,"DIS_CODE":0,"TOWNNAME":"白河區","LI":"永安里","LIN":"7鄰","STREET":"十全街","SECT":" ","MAREA":" ","LANE":" ","ALLEY":" ","HOUSE_NO":"３１２號","E_COORD97":189711.82999999999,"N_COORD97":2583137.2400000002,"ADDRESS":"十全街３１２號","OBJECTID":333962},"geometry":{"x":189711.83000000101,"y":2583137.2400000002}},{"attributes":{"ID":333972,"DIS_CODE":0,"TOWNNAME":"白河區","LI":"永安里","LIN":"7鄰","STREET":"十全街","SECT":" ","MAREA":" ","LANE":" ","ALLEY":" ","HOUSE_NO":"３１６號","E_COORD97":189711.17999999999,"N_COORD97":2583142.2799999998,"ADDRESS":"十全街３１６號","OBJECTID":333963},"geometry":{"x":189711.1799999997,"y":2583142.2799999993}},{"attributes":{"ID":333973,"DIS_CODE":0,"TOWNNAME":"關廟區","LI":"布袋里","LIN":"11鄰","STREET":"南雄南路","SECT":" ","MAREA":" ","LANE":"８５２巷","ALLEY":" ","HOUSE_NO":"５５號","E_COORD97":182506.237097,"N_COORD97":2533425.4873000002,"ADDRESS":"南雄南路８５２巷５５號","OBJECTID":333964},"geometry":{"x":182506.23709699977,"y":2533425.4873019997}},{"attributes":{"ID":333974,"DIS_CODE":0,"TOWNNAME":"安南區","LI":"州北里","LIN":"25鄰","STREET":"安和路","SECT":"五段","MAREA":" ","LANE":"１７１巷","ALLEY":" ","HOUSE_NO":"４０號","E_COORD97":169755.71095899999,"N_COORD97":2551827.5331600001,"ADDRESS":"安和路五段１７１巷４０號","OBJECTID":333965},"geometry":{"x":169755.71095900051,"y":2551827.533162998}},{"attributes":{"ID":333975,"DIS_CODE":0,"TOWNNAME":"仁德區","LI":"仁愛里","LIN":"26鄰","STREET":"大同路","SECT":"三段","MAREA":" ","LANE":" ","ALLEY":" ","HOUSE_NO":"７２號","E_COORD97":169705.70957100001,"N_COORD97":2539979.4777099998,"ADDRESS":"大同路三段７２號","OBJECTID":333966},"geometry":{"x":169705.70957100112,"y":2539979.4777139984}},{"attributes":{"ID":333976,"DIS_CODE":0,"TOWNNAME":"仁德區","LI":"仁愛里","LIN":"26鄰","STREET":"大同路","SECT":"三段","MAREA":" ","LANE":" ","ALLEY":" ","HOUSE_NO":"１２６號","E_COORD97":169714.98220599999,"N_COORD97":2539877.78798,"ADDRESS":"大同路三段１２６號","OBJECTID":333967},"geometry":{"x":169714.98220600095,"y":2539877.7879770026}},{"attributes":{"ID":333977,"DIS_CODE":0,"TOWNNAME":"新營區","LI":"民榮里","LIN":"14鄰","STREET":"復興路","SECT":" ","MAREA":" ","LANE":" ","ALLEY":" ","HOUSE_NO":"１７７號","E_COORD97":178981.95867200001,"N_COORD97":2577992.4560699998,"ADDRESS":"復興路１７７號","OBJECTID":333968},"geometry":{"x":178981.95867200103,"y":2577992.4560690019}},{"attributes":{"ID":333978,"DIS_CODE":0,"TOWNNAME":"新營區","LI":"民榮里","LIN":"14鄰","STREET":"復興路","SECT":" ","MAREA":" ","LANE":" ","ALLEY":" ","HOUSE_NO":"１７７之１號","E_COORD97":178977.72132300001,"N_COORD97":2577989.9160699998,"ADDRESS":"復興路１７７之１號","OBJECTID":333969},"geometry":{"x":178977.72132299934,"y":2577989.9160710014}},{"attributes":{"ID":333979,"DIS_CODE":0,"TOWNNAME":"新營區","LI":"民榮里","LIN":"14鄰","STREET":"復興路","SECT":" ","MAREA":" ","LANE":" ","ALLEY":" ","HOUSE_NO":"１７７之２號","E_COORD97":178973.48397500001,"N_COORD97":2577986.52941,"ADDRESS":"復興路１７７之２號","OBJECTID":333970},"geometry":{"x":178973.48397499975,"y":2577986.5294060018}},{"attributes":{"ID":333980,"DIS_CODE":0,"TOWNNAME":"新營區","LI":"民榮里","LIN":"14鄰","STREET":"復興路","SECT":" ","MAREA":" ","LANE":" ","ALLEY":" ","HOUSE_NO":"１７７之３號","E_COORD97":178969.24662600001,"N_COORD97":2577983.7777399998,"ADDRESS":"復興路１７７之３號","OBJECTID":333971},"geometry":{"x":178969.24662599992,"y":2577983.7777410001}},{"attributes":{"ID":333981,"DIS_CODE":0,"TOWNNAME":"新營區","LI":"民榮里","LIN":"14鄰","STREET":"復興路","SECT":" ","MAREA":" ","LANE":" ","ALLEY":" ","HOUSE_NO":"１７７之５號","E_COORD97":178964.58554299999,"N_COORD97":2577981.0260700001,"ADDRESS":"復興路１７７之５號","OBJECTID":333972},"geometry":{"x":178964.58554300107,"y":2577981.0260749999}},{"attributes":{"ID":333982,"DIS_CODE":0,"TOWNNAME":"新營區","LI":"民榮里","LIN":"14鄰","STREET":"復興路","SECT":" ","MAREA":" ","LANE":" ","ALLEY":" ","HOUSE_NO":"１７７之６號","E_COORD97":178960.13632699999,"N_COORD97":2577978.06274,"ADDRESS":"復興路１７７之６號","OBJECTID":333973},"geometry":{"x":178960.13632700127,"y":2577978.0627440009}},{"attributes":{"ID":333983,"DIS_CODE":0,"TOWNNAME":"新營區","LI":"民榮里","LIN":"14鄰","STREET":"復興路","SECT":" ","MAREA":" ","LANE":" ","ALLEY":" ","HOUSE_NO":"１７９之８號","E_COORD97":178944.670006,"N_COORD97":2577968.32608,"ADDRESS":"復興路１７９之８號","OBJECTID":333974},"geometry":{"x":178944.67000600137,"y":2577968.3260820024}},{"attributes":{"ID":333984,"DIS_CODE":0,"TOWNNAME":"新營區","LI":"民榮里","LIN":"14鄰","STREET":"復興路","SECT":" ","MAREA":" ","LANE":" ","ALLEY":" ","HOUSE_NO":"１７９之７號","E_COORD97":178947.000547,"N_COORD97":2577962.8227499998,"ADDRESS":"復興路１７９之７號","OBJECTID":333975},"geometry":{"x":178947.00054700021,"y":2577962.8227519989}},{"attributes":{"ID":333985,"DIS_CODE":0,"TOWNNAME":"新營區","LI":"民榮里","LIN":"14鄰","STREET":"復興路","SECT":" ","MAREA":" ","LANE":" ","ALLEY":" ","HOUSE_NO":"１７９之６號","E_COORD97":178949.11922200001,"N_COORD97":2577958.37775,"ADDRESS":"復興路１７９之６號","OBJECTID":333976},"geometry":{"x":178949.1192220021,"y":2577958.3777540009}},{"attributes":{"ID":333986,"DIS_CODE":0,"TOWNNAME":"新營區","LI":"民榮里","LIN":"14鄰","STREET":"復興路","SECT":" ","MAREA":" ","LANE":" ","ALLEY":" ","HOUSE_NO":"１７９之５號","E_COORD97":178951.661631,"N_COORD97":2577953.0860899999,"ADDRESS":"復興路１７９之５號","OBJECTID":333977},"geometry":{"x":178951.66163100116,"y":2577953.0860900003}},{"attributes":{"ID":333987,"DIS_CODE":0,"TOWNNAME":"新營區","LI":"民榮里","LIN":"14鄰","STREET":"復興路","SECT":" ","MAREA":" ","LANE":" ","ALLEY":" ","HOUSE_NO":"１７９之１號","E_COORD97":178957.38205099999,"N_COORD97":2577967.05608,"ADDRESS":"復興路１７９之１號","OBJECTID":333978},"geometry":{"x":178957.3820510013,"y":2577967.0560830012}},{"attributes":{"ID":333988,"DIS_CODE":0,"TOWNNAME":"新營區","LI":"民榮里","LIN":"14鄰","STREET":"復興路","SECT":" ","MAREA":" ","LANE":" ","ALLEY":" ","HOUSE_NO":"１７９之２號","E_COORD97":178960.348195,"N_COORD97":2577962.5052499999,"ADDRESS":"復興路１７９之２號","OBJECTID":333979},"geometry":{"x":178960.34819500148,"y":2577962.5052520018}},{"attributes":{"ID":333989,"DIS_CODE":0,"TOWNNAME":"新營區","LI":"民榮里","LIN":"14鄰","STREET":"復興路","SECT":" ","MAREA":" ","LANE":" ","ALLEY":" ","HOUSE_NO":"１７９之３號","E_COORD97":178963.52620600001,"N_COORD97":2577957.7427599998,"ADDRESS":"復興路１７９之３號","OBJECTID":333980},"geometry":{"x":178963.52620599978,"y":2577957.7427549995}},{"attributes":{"ID":333990,"DIS_CODE":0,"TOWNNAME":"新營區","LI":"民榮里","LIN":"14鄰","STREET":"復興路","SECT":" ","MAREA":" ","LANE":" ","ALLEY":" ","HOUSE_NO":"１７９號","E_COORD97":178953.78030499999,"N_COORD97":2577972.98275,"ADDRESS":"復興路１７９號","OBJECTID":333981},"geometry":{"x":178953.78030500095,"y":2577972.9827460032}},{"attributes":{"ID":333991,"DIS_CODE":0,"TOWNNAME":"仁德區","LI":"仁愛里","LIN":"26鄰","STREET":"大同路","SECT":"三段","MAREA":" ","LANE":" ","ALLEY":" ","HOUSE_NO":"２１２號","E_COORD97":169730.603993,"N_COORD97":2539730.1607499998,"ADDRESS":"大同路三段２１２號","OBJECTID":333982},"geometry":{"x":169730.60399300046,"y":2539730.1607479993}},{"attributes":{"ID":333992,"DIS_CODE":0,"TOWNNAME":"仁德區","LI":"仁愛里","LIN":"26鄰","STREET":"大同路","SECT":"三段","MAREA":" ","LANE":" ","ALLEY":" ","HOUSE_NO":"２２０號","E_COORD97":169731.66333000001,"N_COORD97":2539718.7307500001,"ADDRESS":"大同路三段２２０號","OBJECTID":333983},"geometry":{"x":169731.66332999989,"y":2539718.7307540011}},{"attributes":{"ID":333993,"DIS_CODE":0,"TOWNNAME":"善化區","LI":"光文里","LIN":"15鄰","STREET":"樹人路","SECT":" ","MAREA":" ","LANE":"７巷","ALLEY":" ","HOUSE_NO":"１０號","E_COORD97":178348.56,"N_COORD97":2558913.5,"ADDRESS":"樹人路７巷１０號","OBJECTID":333984},"geometry":{"x":178348.56000000052,"y":2558913.5}},{"attributes":{"ID":333994,"DIS_CODE":0,"TOWNNAME":"善化區","LI":"光文里","LIN":"15鄰","STREET":"樹人路","SECT":" ","MAREA":" ","LANE":"７巷","ALLEY":" ","HOUSE_NO":"１１號","E_COORD97":178341,"N_COORD97":2558896.5,"ADDRESS":"樹人路７巷１１號","OBJECTID":333985},"geometry":{"x":178341.00000000093,"y":2558896.5}},{"attributes":{"ID":333995,"DIS_CODE":0,"TOWNNAME":"善化區","LI":"光文里","LIN":"15鄰","STREET":"樹人路","SECT":" ","MAREA":" ","LANE":"７巷","ALLEY":" ","HOUSE_NO":"１２號","E_COORD97":178343.39000000001,"N_COORD97":2558912.75,"ADDRESS":"樹人路７巷１２號","OBJECTID":333986},"geometry":{"x":178343.38999999966,"y":2558912.75}},{"attributes":{"ID":333996,"DIS_CODE":0,"TOWNNAME":"善化區","LI":"東關里","LIN":"15鄰","STREET":"自由路","SECT":" ","MAREA":" ","LANE":"２４巷","ALLEY":" ","HOUSE_NO":"２號","E_COORD97":177384.42999999999,"N_COORD97":2558986.25,"ADDRESS":"自由路２４巷２號","OBJECTID":333987},"geometry":{"x":177384.43000000156,"y":2558986.25}},{"attributes":{"ID":333997,"DIS_CODE":0,"TOWNNAME":"善化區","LI":"東關里","LIN":"15鄰","STREET":"自由路","SECT":" ","MAREA":" ","LANE":"２４巷","ALLEY":" ","HOUSE_NO":"１０號","E_COORD97":177370.94,"N_COORD97":2559001.75,"ADDRESS":"自由路２４巷１０號","OBJECTID":333988},"geometry":{"x":177370.94000000041,"y":2559001.7500000019}},{"attributes":{"ID":333998,"DIS_CODE":0,"TOWNNAME":"善化區","LI":"光文里","LIN":"15鄰","STREET":"樹人路","SECT":" ","MAREA":" ","LANE":"３７巷","ALLEY":" ","HOUSE_NO":"１７號","E_COORD97":178312.98000000001,"N_COORD97":2558982.5,"ADDRESS":"樹人路３７巷１７號","OBJECTID":333989},"geometry":{"x":178312.98000000138,"y":2558982.5000000037}},{"attributes":{"ID":333999,"DIS_CODE":0,"TOWNNAME":"關廟區","LI":"香洋里","LIN":"20鄰","STREET":"中山路","SECT":"一段","MAREA":" ","LANE":" ","ALLEY":" ","HOUSE_NO":"３７６號","E_COORD97":181569.94167900001,"N_COORD97":2539926.5824899999,"ADDRESS":"中山路一段３７６號","OBJECTID":333990},"geometry":{"x":181569.94167899992,"y":2539926.5824920014}},{"attributes":{"ID":334000,"DIS_CODE":0,"TOWNNAME":"新營區","LI":"忠政里","LIN":"28鄰","STREET":"中正路","SECT":" ","MAREA":" ","LANE":"３９巷","ALLEY":" ","HOUSE_NO":"７４之１２號","E_COORD97":179850.73000000001,"N_COORD97":2579333.2000000002,"ADDRESS":"中正路３９巷７４之１２號","OBJECTID":333991},"geometry":{"x":179850.73000000045,"y":2579333.2000000011}},{"attributes":{"ID":334001,"DIS_CODE":0,"TOWNNAME":"新營區","LI":"忠政里","LIN":"23鄰","STREET":"府西路","SECT":" ","MAREA":" ","LANE":"１８１巷","ALLEY":" ","HOUSE_NO":"１３號","E_COORD97":179743.06,"N_COORD97":2579426.6699999999,"ADDRESS":"府西路１８１巷１３號","OBJECTID":333992},"geometry":{"x":179743.05999999866,"y":2579426.6700000018}},{"attributes":{"ID":334002,"DIS_CODE":0,"TOWNNAME":"新營區","LI":"新南里","LIN":"26鄰","STREET":"復興路","SECT":" ","MAREA":" ","LANE":"６２０巷","ALLEY":" ","HOUSE_NO":"５３號","E_COORD97":178041.78,"N_COORD97":2578505.6800000002,"ADDRESS":"復興路６２０巷５３號","OBJECTID":333993},"geometry":{"x":178041.78000000026,"y":2578505.6799999997}},{"attributes":{"ID":334003,"DIS_CODE":0,"TOWNNAME":"善化區","LI":"光文里","LIN":"15鄰","STREET":"樹人路","SECT":" ","MAREA":" ","LANE":"３７巷","ALLEY":" ","HOUSE_NO":"１號","E_COORD97":178343.75,"N_COORD97":2558987,"ADDRESS":"樹人路３７巷１號","OBJECTID":333994},"geometry":{"x":178343.75000000186,"y":2558987.0000000019}},{"attributes":{"ID":334004,"DIS_CODE":0,"TOWNNAME":"善化區","LI":"光文里","LIN":"15鄰","STREET":"樹人路","SECT":" ","MAREA":" ","LANE":"７巷","ALLEY":" ","HOUSE_NO":"１９號","E_COORD97":178319.29999999999,"N_COORD97":2558893.5,"ADDRESS":"樹人路７巷１９號","OBJECTID":333995},"geometry":{"x":178319.29999999981,"y":2558893.5}},{"attributes":{"ID":334005,"DIS_CODE":0,"TOWNNAME":"善化區","LI":"光文里","LIN":"15鄰","STREET":"樹人路","SECT":" ","MAREA":" ","LANE":"３７巷","ALLEY":" ","HOUSE_NO":"４號","E_COORD97":178345.54000000001,"N_COORD97":2558977.75,"ADDRESS":"樹人路３７巷４號","OBJECTID":333996},"geometry":{"x":178345.54000000097,"y":2558977.7500000037}},{"attributes":{"ID":334006,"DIS_CODE":0,"TOWNNAME":"新營區","LI":"大宏里","LIN":" ","STREET":"三民路","SECT":" ","MAREA":" ","LANE":"８巷","ALLEY":" ","HOUSE_NO":"２６之１號","E_COORD97":180610.51000000001,"N_COORD97":2578685.0800000001,"ADDRESS":"三民路８巷２６之１號","OBJECTID":333997},"geometry":{"x":180610.51000000071,"y":2578685.0800000019}},{"attributes":{"ID":334007,"DIS_CODE":0,"TOWNNAME":"新營區","LI":"新南里","LIN":"23鄰","STREET":"復興路","SECT":" ","MAREA":" ","LANE":"６８２巷","ALLEY":" ","HOUSE_NO":"２０號","E_COORD97":177881.95999999999,"N_COORD97":2578443.3399999999,"ADDRESS":"復興路６８２巷２０號","OBJECTID":333998},"geometry":{"x":177881.96000000089,"y":2578443.3399999999}},{"attributes":{"ID":334008,"DIS_CODE":0,"TOWNNAME":"新營區","LI":"大宏里","LIN":"16鄰","STREET":"民治東路","SECT":" ","MAREA":" ","LANE":"１７巷","ALLEY":" ","HOUSE_NO":"２號","E_COORD97":180748.76000000001,"N_COORD97":2578867.0899999999,"ADDRESS":"民治東路１７巷２號","OBJECTID":333999},"geometry":{"x":180748.75999999978,"y":2578867.0900000017}},{"attributes":{"ID":334009,"DIS_CODE":0,"TOWNNAME":"安南區","LI":"州北里","LIN":"17鄰","STREET":"安和路","SECT":"六段","MAREA":" ","LANE":"１巷","ALLEY":" ","HOUSE_NO":"２１號","E_COORD97":169521.746151,"N_COORD97":2552408.3461799999,"ADDRESS":"安和路六段１巷２１號","OBJECTID":334000},"geometry":{"x":169521.74615100119,"y":2552408.346183002}}]}