{"displayFieldName":"TOWNNAME","fieldAliases":{"ID":"ID","DIS_CODE":"DIS_CODE","TOWNNAME":"TOWNNAME","LI":"LI","LIN":"LIN","STREET":"STREET","SECT":"SECT","MAREA":"MAREA","LANE":"LANE","ALLEY":"ALLEY","HOUSE_NO":"HOUSE_NO","E_COORD97":"E_COORD97","N_COORD97":"N_COORD97","ADDRESS":"ADDRESS","OBJECTID":"OBJECTID"},"geometryType":"esriGeometryPoint","spatialReference":{"wkid":102443,"latestWkid":3826},"fields":[{"name":"ID","type":"esriFieldTypeDouble","alias":"ID"},{"name":"DIS_CODE","type":"esriFieldTypeInteger","alias":"DIS_CODE"},{"name":"TOWNNAME","type":"esriFieldTypeString","alias":"TOWNNAME","length":8},{"name":"LI","type":"esriFieldTypeString","alias":"LI","length":8},{"name":"LIN","type":"esriFieldTypeString","alias":"LIN","length":12},{"name":"STREET","type":"esriFieldTypeString","alias":"STREET","length":20},{"name":"SECT","type":"esriFieldTypeString","alias":"SECT","length":8},{"name":"MAREA","type":"esriFieldTypeString","alias":"MAREA","length":12},{"name":"LANE","type":"esriFieldTypeString","alias":"LANE","length":10},{"name":"ALLEY","type":"esriFieldTypeString","alias":"ALLEY","length":10},{"name":"HOUSE_NO","type":"esriFieldTypeString","alias":"HOUSE_NO","length":20},{"name":"E_COORD97","type":"esriFieldTypeDouble","alias":"E_COORD97"},{"name":"N_COORD97","type":"esriFieldTypeDouble","alias":"N_COORD97"},{"name":"ADDRESS","type":"esriFieldTypeString","alias":"ADDRESS","length":50},{"name":"OBJECTID","type":"esriFieldTypeOID","alias":"OBJECTID"}],"features":[{"attributes":{"ID":247205,"DIS_CODE":0,"TOWNNAME":"仁德區","LI":"一甲里","LIN":"11鄰","STREET":"忠義二街","SECT":" ","MAREA":" ","LANE":"２５巷","ALLEY":" ","HOUSE_NO":"６號","E_COORD97":173932.95000000001,"N_COORD97":2542084.52,"ADDRESS":"忠義二街２５巷６號","OBJECTID":247201},"geometry":{"x":173932.95000000019,"y":2542084.5200000033}},{"attributes":{"ID":247206,"DIS_CODE":0,"TOWNNAME":"仁德區","LI":"一甲里","LIN":"11鄰","STREET":"忠義二街","SECT":" ","MAREA":" ","LANE":"３６巷","ALLEY":" ","HOUSE_NO":"８號","E_COORD97":173835.67000000001,"N_COORD97":2542087.77,"ADDRESS":"忠義二街３６巷８號","OBJECTID":247202},"geometry":{"x":173835.67000000086,"y":2542087.7699999996}},{"attributes":{"ID":247207,"DIS_CODE":0,"TOWNNAME":"仁德區","LI":"土庫里","LIN":"11鄰","STREET":"土庫路","SECT":" ","MAREA":" ","LANE":"１１１巷","ALLEY":" ","HOUSE_NO":"１號","E_COORD97":174319.48000000001,"N_COORD97":2543173.2400000002,"ADDRESS":"土庫路１１１巷１號","OBJECTID":247203},"geometry":{"x":174319.48000000045,"y":2543173.2400000021}},{"attributes":{"ID":247208,"DIS_CODE":0,"TOWNNAME":"仁德區","LI":"一甲里","LIN":"11鄰","STREET":"忠義二街","SECT":" ","MAREA":" ","LANE":"２５巷","ALLEY":" ","HOUSE_NO":"１號","E_COORD97":173924.06,"N_COORD97":2542098.02,"ADDRESS":"忠義二街２５巷１號","OBJECTID":247204},"geometry":{"x":173924.06000000052,"y":2542098.0200000033}},{"attributes":{"ID":247209,"DIS_CODE":0,"TOWNNAME":"東區","LI":"東光里","LIN":"34鄰","STREET":"莊敬路","SECT":" ","MAREA":" ","LANE":"２１巷","ALLEY":" ","HOUSE_NO":"８號八樓之２","E_COORD97":171293.92000000001,"N_COORD97":2543775.6600000001,"ADDRESS":"莊敬路２１巷８號八樓之２","OBJECTID":247205},"geometry":{"x":171293.92000000179,"y":2543775.6599999983}},{"attributes":{"ID":247210,"DIS_CODE":0,"TOWNNAME":"東區","LI":"東光里","LIN":"34鄰","STREET":"莊敬路","SECT":" ","MAREA":" ","LANE":"２１巷","ALLEY":" ","HOUSE_NO":"８號八樓之３","E_COORD97":171293.92000000001,"N_COORD97":2543775.6600000001,"ADDRESS":"莊敬路２１巷８號八樓之３","OBJECTID":247206},"geometry":{"x":171293.92000000179,"y":2543775.6599999983}},{"attributes":{"ID":247211,"DIS_CODE":0,"TOWNNAME":"東區","LI":"東光里","LIN":"34鄰","STREET":"莊敬路","SECT":" ","MAREA":" ","LANE":"２１巷","ALLEY":" ","HOUSE_NO":"８號八樓之５","E_COORD97":171293.92000000001,"N_COORD97":2543775.6600000001,"ADDRESS":"莊敬路２１巷８號八樓之５","OBJECTID":247207},"geometry":{"x":171293.92000000179,"y":2543775.6599999983}},{"attributes":{"ID":247212,"DIS_CODE":0,"TOWNNAME":"南區","LI":"新生里","LIN":"14鄰","STREET":"大同路","SECT":"二段","MAREA":" ","LANE":" ","ALLEY":" ","HOUSE_NO":"１１４號六樓之２","E_COORD97":169259.38,"N_COORD97":2542259.7400000002,"ADDRESS":"大同路二段１１４號六樓之２","OBJECTID":247208},"geometry":{"x":169259.37999999989,"y":2542259.7400000039}},{"attributes":{"ID":247213,"DIS_CODE":0,"TOWNNAME":"南區","LI":"新生里","LIN":"14鄰","STREET":"大同路","SECT":"二段","MAREA":" ","LANE":" ","ALLEY":" ","HOUSE_NO":"１１４號六樓之３","E_COORD97":169259.38,"N_COORD97":2542259.7400000002,"ADDRESS":"大同路二段１１４號六樓之３","OBJECTID":247209},"geometry":{"x":169259.37999999989,"y":2542259.7400000039}},{"attributes":{"ID":247214,"DIS_CODE":0,"TOWNNAME":"南區","LI":"新生里","LIN":"14鄰","STREET":"大同路","SECT":"二段","MAREA":" ","LANE":" ","ALLEY":" ","HOUSE_NO":"１１４號六樓之５","E_COORD97":169259.38,"N_COORD97":2542259.7400000002,"ADDRESS":"大同路二段１１４號六樓之５","OBJECTID":247210},"geometry":{"x":169259.37999999989,"y":2542259.7400000039}},{"attributes":{"ID":247215,"DIS_CODE":0,"TOWNNAME":"南區","LI":"新生里","LIN":"14鄰","STREET":"大同路","SECT":"二段","MAREA":" ","LANE":" ","ALLEY":" ","HOUSE_NO":"１１４號七樓之１","E_COORD97":169259.38,"N_COORD97":2542259.7400000002,"ADDRESS":"大同路二段１１４號七樓之１","OBJECTID":247211},"geometry":{"x":169259.37999999989,"y":2542259.7400000039}},{"attributes":{"ID":247216,"DIS_CODE":0,"TOWNNAME":"南區","LI":"新生里","LIN":"14鄰","STREET":"大同路","SECT":"二段","MAREA":" ","LANE":" ","ALLEY":" ","HOUSE_NO":"１１４號七樓之２","E_COORD97":169259.38,"N_COORD97":2542259.7400000002,"ADDRESS":"大同路二段１１４號七樓之２","OBJECTID":247212},"geometry":{"x":169259.37999999989,"y":2542259.7400000039}},{"attributes":{"ID":247217,"DIS_CODE":0,"TOWNNAME":"北區","LI":"成德里","LIN":"34鄰","STREET":"育德一街","SECT":" ","MAREA":" ","LANE":"９２巷","ALLEY":" ","HOUSE_NO":"７號","E_COORD97":168569.92000000001,"N_COORD97":2546014.3100000001,"ADDRESS":"育德一街９２巷７號","OBJECTID":247213},"geometry":{"x":168569.92000000086,"y":2546014.3100000024}},{"attributes":{"ID":247218,"DIS_CODE":0,"TOWNNAME":"南區","LI":"新生里","LIN":"14鄰","STREET":"大同路","SECT":"二段","MAREA":" ","LANE":" ","ALLEY":" ","HOUSE_NO":"１１４號七樓之３","E_COORD97":169259.38,"N_COORD97":2542259.7400000002,"ADDRESS":"大同路二段１１４號七樓之３","OBJECTID":247214},"geometry":{"x":169259.37999999989,"y":2542259.7400000039}},{"attributes":{"ID":247219,"DIS_CODE":0,"TOWNNAME":"新營區","LI":"興安里","LIN":"14鄰","STREET":"廠前街","SECT":" ","MAREA":" ","LANE":" ","ALLEY":" ","HOUSE_NO":"８６號","E_COORD97":179849.35000000001,"N_COORD97":2577667.5299999998,"ADDRESS":"廠前街８６號","OBJECTID":247215},"geometry":{"x":179849.34999999963,"y":2577667.5300000012}},{"attributes":{"ID":247220,"DIS_CODE":0,"TOWNNAME":"東區","LI":"關聖里","LIN":"2鄰","STREET":"裕農路","SECT":" ","MAREA":" ","LANE":"６６８巷","ALLEY":" ","HOUSE_NO":"３４號","E_COORD97":171735.69,"N_COORD97":2543035.6299999999,"ADDRESS":"裕農路６６８巷３４號","OBJECTID":247216},"geometry":{"x":171735.69000000134,"y":2543035.6300000027}},{"attributes":{"ID":247221,"DIS_CODE":0,"TOWNNAME":"東區","LI":"關聖里","LIN":"2鄰","STREET":"裕農路","SECT":" ","MAREA":" ","LANE":"６６８巷","ALLEY":" ","HOUSE_NO":"４０號之７","E_COORD97":171728.57000000001,"N_COORD97":2543010.54,"ADDRESS":"裕農路６６８巷４０號之７","OBJECTID":247217},"geometry":{"x":171728.5700000003,"y":2543010.540000001}},{"attributes":{"ID":247222,"DIS_CODE":0,"TOWNNAME":"東區","LI":"關聖里","LIN":"2鄰","STREET":"裕農路","SECT":" ","MAREA":" ","LANE":"６６８巷","ALLEY":" ","HOUSE_NO":"４２號","E_COORD97":171738.06,"N_COORD97":2542999.6499999999,"ADDRESS":"裕農路６６８巷４２號","OBJECTID":247218},"geometry":{"x":171738.05999999959,"y":2542999.6500000041}},{"attributes":{"ID":247223,"DIS_CODE":0,"TOWNNAME":"東區","LI":"關聖里","LIN":"2鄰","STREET":"裕農路","SECT":" ","MAREA":" ","LANE":"６６８巷","ALLEY":" ","HOUSE_NO":"４２號之１","E_COORD97":171732.17000000001,"N_COORD97":2542998.3599999999,"ADDRESS":"裕農路６６８巷４２號之１","OBJECTID":247219},"geometry":{"x":171732.16999999993,"y":2542998.3600000013}},{"attributes":{"ID":247224,"DIS_CODE":0,"TOWNNAME":"東區","LI":"關聖里","LIN":"2鄰","STREET":"裕農路","SECT":" ","MAREA":" ","LANE":"６６８巷","ALLEY":" ","HOUSE_NO":"４２號之２","E_COORD97":171722.29999999999,"N_COORD97":2542998.7400000002,"ADDRESS":"裕農路６６８巷４２號之２","OBJECTID":247220},"geometry":{"x":171722.30000000075,"y":2542998.7399999984}},{"attributes":{"ID":247225,"DIS_CODE":0,"TOWNNAME":"東區","LI":"關聖里","LIN":"2鄰","STREET":"裕農路","SECT":" ","MAREA":" ","LANE":"６６８巷","ALLEY":" ","HOUSE_NO":"４６號","E_COORD97":171742.91,"N_COORD97":2542984.9500000002,"ADDRESS":"裕農路６６８巷４６號","OBJECTID":247221},"geometry":{"x":171742.91000000015,"y":2542984.9499999993}},{"attributes":{"ID":247226,"DIS_CODE":0,"TOWNNAME":"東區","LI":"關聖里","LIN":"2鄰","STREET":"裕農路","SECT":" ","MAREA":" ","LANE":"６６８巷","ALLEY":" ","HOUSE_NO":"４６號之３","E_COORD97":171730.25,"N_COORD97":2542987.29,"ADDRESS":"裕農路６６８巷４６號之３","OBJECTID":247222},"geometry":{"x":171730.25,"y":2542987.2900000028}},{"attributes":{"ID":247227,"DIS_CODE":0,"TOWNNAME":"東區","LI":"東光里","LIN":"34鄰","STREET":"莊敬路","SECT":" ","MAREA":" ","LANE":"２１巷","ALLEY":" ","HOUSE_NO":"８號三樓","E_COORD97":171293.92000000001,"N_COORD97":2543775.6600000001,"ADDRESS":"莊敬路２１巷８號三樓","OBJECTID":247223},"geometry":{"x":171293.92000000179,"y":2543775.6599999983}},{"attributes":{"ID":247228,"DIS_CODE":0,"TOWNNAME":"東區","LI":"東光里","LIN":"34鄰","STREET":"莊敬路","SECT":" ","MAREA":" ","LANE":"２１巷","ALLEY":" ","HOUSE_NO":"８號三樓之１","E_COORD97":171293.92000000001,"N_COORD97":2543775.6600000001,"ADDRESS":"莊敬路２１巷８號三樓之１","OBJECTID":247224},"geometry":{"x":171293.92000000179,"y":2543775.6599999983}},{"attributes":{"ID":247229,"DIS_CODE":0,"TOWNNAME":"南區","LI":"新生里","LIN":"14鄰","STREET":"大同路","SECT":"二段","MAREA":" ","LANE":" ","ALLEY":" ","HOUSE_NO":"１１４號七樓之５","E_COORD97":169259.38,"N_COORD97":2542259.7400000002,"ADDRESS":"大同路二段１１４號七樓之５","OBJECTID":247225},"geometry":{"x":169259.37999999989,"y":2542259.7400000039}},{"attributes":{"ID":247230,"DIS_CODE":0,"TOWNNAME":"南區","LI":"新生里","LIN":"14鄰","STREET":"大同路","SECT":"二段","MAREA":" ","LANE":" ","ALLEY":" ","HOUSE_NO":"１１４號八樓之１","E_COORD97":169259.38,"N_COORD97":2542259.7400000002,"ADDRESS":"大同路二段１１４號八樓之１","OBJECTID":247226},"geometry":{"x":169259.37999999989,"y":2542259.7400000039}},{"attributes":{"ID":247231,"DIS_CODE":0,"TOWNNAME":"仁德區","LI":"中洲里","LIN":"11鄰","STREET":" ","SECT":" ","MAREA":"中洲","LANE":" ","ALLEY":" ","HOUSE_NO":"３３６之６號","E_COORD97":173250.29000000001,"N_COORD97":2534242.04,"ADDRESS":"中洲３３６之６號","OBJECTID":247227},"geometry":{"x":173250.29000000097,"y":2534242.0400000028}},{"attributes":{"ID":247232,"DIS_CODE":0,"TOWNNAME":"南區","LI":"新生里","LIN":"14鄰","STREET":"大同路","SECT":"二段","MAREA":" ","LANE":" ","ALLEY":" ","HOUSE_NO":"１１４號八樓之２","E_COORD97":169259.38,"N_COORD97":2542259.7400000002,"ADDRESS":"大同路二段１１４號八樓之２","OBJECTID":247228},"geometry":{"x":169259.37999999989,"y":2542259.7400000039}},{"attributes":{"ID":247233,"DIS_CODE":0,"TOWNNAME":"仁德區","LI":"中洲里","LIN":"11鄰","STREET":" ","SECT":" ","MAREA":"中洲","LANE":" ","ALLEY":" ","HOUSE_NO":"３２３號之２","E_COORD97":173322.89999999999,"N_COORD97":2534114.5499999998,"ADDRESS":"中洲３２３號之２","OBJECTID":247229},"geometry":{"x":173322.90000000037,"y":2534114.5500000045}},{"attributes":{"ID":247234,"DIS_CODE":0,"TOWNNAME":"南區","LI":"新生里","LIN":"14鄰","STREET":"大同路","SECT":"二段","MAREA":" ","LANE":" ","ALLEY":" ","HOUSE_NO":"１１４號八樓之３","E_COORD97":169259.38,"N_COORD97":2542259.7400000002,"ADDRESS":"大同路二段１１４號八樓之３","OBJECTID":247230},"geometry":{"x":169259.37999999989,"y":2542259.7400000039}},{"attributes":{"ID":247235,"DIS_CODE":0,"TOWNNAME":"仁德區","LI":"中洲里","LIN":"11鄰","STREET":" ","SECT":" ","MAREA":"中洲","LANE":" ","ALLEY":" ","HOUSE_NO":"３３４號之３","E_COORD97":173275.25,"N_COORD97":2534190.04,"ADDRESS":"中洲３３４號之３","OBJECTID":247231},"geometry":{"x":173275.25000000186,"y":2534190.0399999991}},{"attributes":{"ID":247236,"DIS_CODE":0,"TOWNNAME":"仁德區","LI":"中洲里","LIN":"11鄰","STREET":" ","SECT":" ","MAREA":"中洲","LANE":" ","ALLEY":" ","HOUSE_NO":"３３６號之５","E_COORD97":173251.39000000001,"N_COORD97":2534238.04,"ADDRESS":"中洲３３６號之５","OBJECTID":247232},"geometry":{"x":173251.38999999966,"y":2534238.0399999991}},{"attributes":{"ID":247237,"DIS_CODE":0,"TOWNNAME":"仁德區","LI":"中洲里","LIN":"11鄰","STREET":" ","SECT":" ","MAREA":"中洲","LANE":" ","ALLEY":" ","HOUSE_NO":"３３６號","E_COORD97":173280.19,"N_COORD97":2534226.25,"ADDRESS":"中洲３３６號","OBJECTID":247233},"geometry":{"x":173280.19000000134,"y":2534226.25}},{"attributes":{"ID":247238,"DIS_CODE":0,"TOWNNAME":"仁德區","LI":"中洲里","LIN":"11鄰","STREET":" ","SECT":" ","MAREA":"中洲","LANE":" ","ALLEY":" ","HOUSE_NO":"３３４號之６","E_COORD97":173260.26000000001,"N_COORD97":2534199.5499999998,"ADDRESS":"中洲３３４號之６","OBJECTID":247234},"geometry":{"x":173260.26000000071,"y":2534199.5500000045}},{"attributes":{"ID":247239,"DIS_CODE":0,"TOWNNAME":"南區","LI":"新生里","LIN":"14鄰","STREET":"大同路","SECT":"二段","MAREA":" ","LANE":" ","ALLEY":" ","HOUSE_NO":"１１４號八樓之５","E_COORD97":169259.38,"N_COORD97":2542259.7400000002,"ADDRESS":"大同路二段１１４號八樓之５","OBJECTID":247235},"geometry":{"x":169259.37999999989,"y":2542259.7400000039}},{"attributes":{"ID":247240,"DIS_CODE":0,"TOWNNAME":"南區","LI":"新生里","LIN":"14鄰","STREET":"大同路","SECT":"二段","MAREA":" ","LANE":" ","ALLEY":" ","HOUSE_NO":"１１４號九樓之１","E_COORD97":169259.38,"N_COORD97":2542259.7400000002,"ADDRESS":"大同路二段１１４號九樓之１","OBJECTID":247236},"geometry":{"x":169259.37999999989,"y":2542259.7400000039}},{"attributes":{"ID":247241,"DIS_CODE":0,"TOWNNAME":"南區","LI":"新生里","LIN":"14鄰","STREET":"大同路","SECT":"二段","MAREA":" ","LANE":" ","ALLEY":" ","HOUSE_NO":"１１４號九樓之２","E_COORD97":169259.38,"N_COORD97":2542259.7400000002,"ADDRESS":"大同路二段１１４號九樓之２","OBJECTID":247237},"geometry":{"x":169259.37999999989,"y":2542259.7400000039}},{"attributes":{"ID":247242,"DIS_CODE":0,"TOWNNAME":"南區","LI":"新生里","LIN":"14鄰","STREET":"大同路","SECT":"二段","MAREA":" ","LANE":" ","ALLEY":" ","HOUSE_NO":"１１４號九樓之３","E_COORD97":169259.38,"N_COORD97":2542259.7400000002,"ADDRESS":"大同路二段１１４號九樓之３","OBJECTID":247238},"geometry":{"x":169259.37999999989,"y":2542259.7400000039}},{"attributes":{"ID":247243,"DIS_CODE":0,"TOWNNAME":"東區","LI":"中西里","LIN":"11鄰","STREET":"勝利路","SECT":" ","MAREA":" ","LANE":"５２巷","ALLEY":" ","HOUSE_NO":"１１號","E_COORD97":169898.25,"N_COORD97":2543609.0299999998,"ADDRESS":"勝利路５２巷１１號","OBJECTID":247239},"geometry":{"x":169898.24999999907,"y":2543609.0299999993}},{"attributes":{"ID":247244,"DIS_CODE":0,"TOWNNAME":"麻豆區","LI":"巷口里","LIN":"11鄰","STREET":" ","SECT":" ","MAREA":"柯厝","LANE":" ","ALLEY":" ","HOUSE_NO":"３２號","E_COORD97":173313.64999999999,"N_COORD97":2564007.3599999999,"ADDRESS":"柯厝３２號","OBJECTID":247240},"geometry":{"x":173313.6500000013,"y":2564007.3600000031}},{"attributes":{"ID":247245,"DIS_CODE":0,"TOWNNAME":"東區","LI":"東光里","LIN":"34鄰","STREET":"莊敬路","SECT":" ","MAREA":" ","LANE":"２１巷","ALLEY":" ","HOUSE_NO":"８號三樓之１０","E_COORD97":171293.92000000001,"N_COORD97":2543775.6600000001,"ADDRESS":"莊敬路２１巷８號三樓之１０","OBJECTID":247241},"geometry":{"x":171293.92000000179,"y":2543775.6599999983}},{"attributes":{"ID":247246,"DIS_CODE":0,"TOWNNAME":"東區","LI":"東光里","LIN":"34鄰","STREET":"莊敬路","SECT":" ","MAREA":" ","LANE":"２１巷","ALLEY":" ","HOUSE_NO":"８號三樓之１１","E_COORD97":171293.92000000001,"N_COORD97":2543775.6600000001,"ADDRESS":"莊敬路２１巷８號三樓之１１","OBJECTID":247242},"geometry":{"x":171293.92000000179,"y":2543775.6599999983}},{"attributes":{"ID":247247,"DIS_CODE":0,"TOWNNAME":"東區","LI":"東光里","LIN":"34鄰","STREET":"莊敬路","SECT":" ","MAREA":" ","LANE":"２１巷","ALLEY":" ","HOUSE_NO":"８號三樓之１２","E_COORD97":171293.92000000001,"N_COORD97":2543775.6600000001,"ADDRESS":"莊敬路２１巷８號三樓之１２","OBJECTID":247243},"geometry":{"x":171293.92000000179,"y":2543775.6599999983}},{"attributes":{"ID":247248,"DIS_CODE":0,"TOWNNAME":"東區","LI":"東光里","LIN":"34鄰","STREET":"莊敬路","SECT":" ","MAREA":" ","LANE":"２１巷","ALLEY":" ","HOUSE_NO":"８號三樓之２","E_COORD97":171293.92000000001,"N_COORD97":2543775.6600000001,"ADDRESS":"莊敬路２１巷８號三樓之２","OBJECTID":247244},"geometry":{"x":171293.92000000179,"y":2543775.6599999983}},{"attributes":{"ID":247249,"DIS_CODE":0,"TOWNNAME":"東區","LI":"東光里","LIN":"34鄰","STREET":"莊敬路","SECT":" ","MAREA":" ","LANE":"２１巷","ALLEY":" ","HOUSE_NO":"８號三樓之３","E_COORD97":171293.92000000001,"N_COORD97":2543775.6600000001,"ADDRESS":"莊敬路２１巷８號三樓之３","OBJECTID":247245},"geometry":{"x":171293.92000000179,"y":2543775.6599999983}},{"attributes":{"ID":247250,"DIS_CODE":0,"TOWNNAME":"東區","LI":"東光里","LIN":"34鄰","STREET":"莊敬路","SECT":" ","MAREA":" ","LANE":"２１巷","ALLEY":" ","HOUSE_NO":"８號三樓之５","E_COORD97":171293.92000000001,"N_COORD97":2543775.6600000001,"ADDRESS":"莊敬路２１巷８號三樓之５","OBJECTID":247246},"geometry":{"x":171293.92000000179,"y":2543775.6599999983}},{"attributes":{"ID":247251,"DIS_CODE":0,"TOWNNAME":"東區","LI":"東光里","LIN":"34鄰","STREET":"莊敬路","SECT":" ","MAREA":" ","LANE":"２１巷","ALLEY":" ","HOUSE_NO":"８號三樓之６","E_COORD97":171293.92000000001,"N_COORD97":2543775.6600000001,"ADDRESS":"莊敬路２１巷８號三樓之６","OBJECTID":247247},"geometry":{"x":171293.92000000179,"y":2543775.6599999983}},{"attributes":{"ID":247252,"DIS_CODE":0,"TOWNNAME":"東區","LI":"東光里","LIN":"34鄰","STREET":"莊敬路","SECT":" ","MAREA":" ","LANE":"２１巷","ALLEY":" ","HOUSE_NO":"８號三樓之７","E_COORD97":171293.92000000001,"N_COORD97":2543775.6600000001,"ADDRESS":"莊敬路２１巷８號三樓之７","OBJECTID":247248},"geometry":{"x":171293.92000000179,"y":2543775.6599999983}},{"attributes":{"ID":247253,"DIS_CODE":0,"TOWNNAME":"東區","LI":"東光里","LIN":"34鄰","STREET":"莊敬路","SECT":" ","MAREA":" ","LANE":"２１巷","ALLEY":" ","HOUSE_NO":"８號三樓之８","E_COORD97":171293.92000000001,"N_COORD97":2543775.6600000001,"ADDRESS":"莊敬路２１巷８號三樓之８","OBJECTID":247249},"geometry":{"x":171293.92000000179,"y":2543775.6599999983}},{"attributes":{"ID":247254,"DIS_CODE":0,"TOWNNAME":"東區","LI":"東光里","LIN":"34鄰","STREET":"莊敬路","SECT":" ","MAREA":" ","LANE":"２１巷","ALLEY":" ","HOUSE_NO":"８號三樓之９","E_COORD97":171293.92000000001,"N_COORD97":2543775.6600000001,"ADDRESS":"莊敬路２１巷８號三樓之９","OBJECTID":247250},"geometry":{"x":171293.92000000179,"y":2543775.6599999983}},{"attributes":{"ID":247255,"DIS_CODE":0,"TOWNNAME":"東區","LI":"東光里","LIN":"34鄰","STREET":"莊敬路","SECT":" ","MAREA":" ","LANE":"２１巷","ALLEY":" ","HOUSE_NO":"８號五樓","E_COORD97":171293.92000000001,"N_COORD97":2543775.6600000001,"ADDRESS":"莊敬路２１巷８號五樓","OBJECTID":247251},"geometry":{"x":171293.92000000179,"y":2543775.6599999983}},{"attributes":{"ID":247256,"DIS_CODE":0,"TOWNNAME":"東區","LI":"東光里","LIN":"34鄰","STREET":"莊敬路","SECT":" ","MAREA":" ","LANE":"２１巷","ALLEY":" ","HOUSE_NO":"８號五樓之１","E_COORD97":171293.92000000001,"N_COORD97":2543775.6600000001,"ADDRESS":"莊敬路２１巷８號五樓之１","OBJECTID":247252},"geometry":{"x":171293.92000000179,"y":2543775.6599999983}},{"attributes":{"ID":247257,"DIS_CODE":0,"TOWNNAME":"東區","LI":"東光里","LIN":"34鄰","STREET":"莊敬路","SECT":" ","MAREA":" ","LANE":"２１巷","ALLEY":" ","HOUSE_NO":"８號五樓之１０","E_COORD97":171293.92000000001,"N_COORD97":2543775.6600000001,"ADDRESS":"莊敬路２１巷８號五樓之１０","OBJECTID":247253},"geometry":{"x":171293.92000000179,"y":2543775.6599999983}},{"attributes":{"ID":247258,"DIS_CODE":0,"TOWNNAME":"東區","LI":"東光里","LIN":"34鄰","STREET":"莊敬路","SECT":" ","MAREA":" ","LANE":"２１巷","ALLEY":" ","HOUSE_NO":"８號五樓之１１","E_COORD97":171293.92000000001,"N_COORD97":2543775.6600000001,"ADDRESS":"莊敬路２１巷８號五樓之１１","OBJECTID":247254},"geometry":{"x":171293.92000000179,"y":2543775.6599999983}},{"attributes":{"ID":247259,"DIS_CODE":0,"TOWNNAME":"東區","LI":"東光里","LIN":"34鄰","STREET":"莊敬路","SECT":" ","MAREA":" ","LANE":"２１巷","ALLEY":" ","HOUSE_NO":"８號五樓之１２","E_COORD97":171293.92000000001,"N_COORD97":2543775.6600000001,"ADDRESS":"莊敬路２１巷８號五樓之１２","OBJECTID":247255},"geometry":{"x":171293.92000000179,"y":2543775.6599999983}},{"attributes":{"ID":247260,"DIS_CODE":0,"TOWNNAME":"東區","LI":"東光里","LIN":"34鄰","STREET":"莊敬路","SECT":" ","MAREA":" ","LANE":"２１巷","ALLEY":" ","HOUSE_NO":"８號五樓之２","E_COORD97":171293.92000000001,"N_COORD97":2543775.6600000001,"ADDRESS":"莊敬路２１巷８號五樓之２","OBJECTID":247256},"geometry":{"x":171293.92000000179,"y":2543775.6599999983}},{"attributes":{"ID":247261,"DIS_CODE":0,"TOWNNAME":"東區","LI":"東光里","LIN":"34鄰","STREET":"莊敬路","SECT":" ","MAREA":" ","LANE":"２１巷","ALLEY":" ","HOUSE_NO":"８號五樓之３","E_COORD97":171293.92000000001,"N_COORD97":2543775.6600000001,"ADDRESS":"莊敬路２１巷８號五樓之３","OBJECTID":247257},"geometry":{"x":171293.92000000179,"y":2543775.6599999983}},{"attributes":{"ID":247262,"DIS_CODE":0,"TOWNNAME":"東區","LI":"東光里","LIN":"34鄰","STREET":"莊敬路","SECT":" ","MAREA":" ","LANE":"２１巷","ALLEY":" ","HOUSE_NO":"８號五樓之５","E_COORD97":171293.92000000001,"N_COORD97":2543775.6600000001,"ADDRESS":"莊敬路２１巷８號五樓之５","OBJECTID":247258},"geometry":{"x":171293.92000000179,"y":2543775.6599999983}},{"attributes":{"ID":247263,"DIS_CODE":0,"TOWNNAME":"東區","LI":"東光里","LIN":"34鄰","STREET":"莊敬路","SECT":" ","MAREA":" ","LANE":"２１巷","ALLEY":" ","HOUSE_NO":"８號五樓之６","E_COORD97":171293.92000000001,"N_COORD97":2543775.6600000001,"ADDRESS":"莊敬路２１巷８號五樓之６","OBJECTID":247259},"geometry":{"x":171293.92000000179,"y":2543775.6599999983}},{"attributes":{"ID":247264,"DIS_CODE":0,"TOWNNAME":"東區","LI":"東光里","LIN":"34鄰","STREET":"莊敬路","SECT":" ","MAREA":" ","LANE":"２１巷","ALLEY":" ","HOUSE_NO":"８號五樓之７","E_COORD97":171293.92000000001,"N_COORD97":2543775.6600000001,"ADDRESS":"莊敬路２１巷８號五樓之７","OBJECTID":247260},"geometry":{"x":171293.92000000179,"y":2543775.6599999983}},{"attributes":{"ID":247265,"DIS_CODE":0,"TOWNNAME":"東區","LI":"東光里","LIN":"34鄰","STREET":"莊敬路","SECT":" ","MAREA":" ","LANE":"２１巷","ALLEY":" ","HOUSE_NO":"８號五樓之８","E_COORD97":171293.92000000001,"N_COORD97":2543775.6600000001,"ADDRESS":"莊敬路２１巷８號五樓之８","OBJECTID":247261},"geometry":{"x":171293.92000000179,"y":2543775.6599999983}},{"attributes":{"ID":247266,"DIS_CODE":0,"TOWNNAME":"東區","LI":"東光里","LIN":"34鄰","STREET":"莊敬路","SECT":" ","MAREA":" ","LANE":"２１巷","ALLEY":" ","HOUSE_NO":"８號五樓之９","E_COORD97":171293.92000000001,"N_COORD97":2543775.6600000001,"ADDRESS":"莊敬路２１巷８號五樓之９","OBJECTID":247262},"geometry":{"x":171293.92000000179,"y":2543775.6599999983}},{"attributes":{"ID":247267,"DIS_CODE":0,"TOWNNAME":"東區","LI":"東光里","LIN":"34鄰","STREET":"莊敬路","SECT":" ","MAREA":" ","LANE":"２１巷","ALLEY":" ","HOUSE_NO":"８號六樓","E_COORD97":171293.92000000001,"N_COORD97":2543775.6600000001,"ADDRESS":"莊敬路２１巷８號六樓","OBJECTID":247263},"geometry":{"x":171293.92000000179,"y":2543775.6599999983}},{"attributes":{"ID":247268,"DIS_CODE":0,"TOWNNAME":"東區","LI":"東光里","LIN":"34鄰","STREET":"莊敬路","SECT":" ","MAREA":" ","LANE":"２１巷","ALLEY":" ","HOUSE_NO":"８號六樓之１","E_COORD97":171293.92000000001,"N_COORD97":2543775.6600000001,"ADDRESS":"莊敬路２１巷８號六樓之１","OBJECTID":247264},"geometry":{"x":171293.92000000179,"y":2543775.6599999983}},{"attributes":{"ID":247269,"DIS_CODE":0,"TOWNNAME":"新營區","LI":"嘉芳里","LIN":"14鄰","STREET":"五福路","SECT":" ","MAREA":" ","LANE":" ","ALLEY":" ","HOUSE_NO":"１０８號","E_COORD97":176613.13,"N_COORD97":2578315.5800000001,"ADDRESS":"五福路１０８號","OBJECTID":247265},"geometry":{"x":176613.12999999989,"y":2578315.5800000019}},{"attributes":{"ID":247270,"DIS_CODE":0,"TOWNNAME":"麻豆區","LI":"巷口里","LIN":"11鄰","STREET":" ","SECT":" ","MAREA":"柯厝","LANE":" ","ALLEY":" ","HOUSE_NO":"１７號","E_COORD97":173347.54999999999,"N_COORD97":2564037.3799999999,"ADDRESS":"柯厝１７號","OBJECTID":247266},"geometry":{"x":173347.55000000168,"y":2564037.3800000027}},{"attributes":{"ID":247271,"DIS_CODE":0,"TOWNNAME":"麻豆區","LI":"巷口里","LIN":"11鄰","STREET":" ","SECT":" ","MAREA":"柯厝","LANE":" ","ALLEY":" ","HOUSE_NO":"１８號","E_COORD97":173371.56,"N_COORD97":2564020.8799999999,"ADDRESS":"柯厝１８號","OBJECTID":247267},"geometry":{"x":173371.56000000052,"y":2564020.8800000008}},{"attributes":{"ID":247272,"DIS_CODE":0,"TOWNNAME":"麻豆區","LI":"巷口里","LIN":"11鄰","STREET":" ","SECT":" ","MAREA":"柯厝","LANE":" ","ALLEY":" ","HOUSE_NO":"１５號之５","E_COORD97":173304.79000000001,"N_COORD97":2564032.4500000002,"ADDRESS":"柯厝１５號之５","OBJECTID":247268},"geometry":{"x":173304.79000000004,"y":2564032.4499999993}},{"attributes":{"ID":247273,"DIS_CODE":0,"TOWNNAME":"東區","LI":"大智里","LIN":"11鄰","STREET":"長東街","SECT":" ","MAREA":" ","LANE":"１３１巷","ALLEY":" ","HOUSE_NO":"８號","E_COORD97":171044.54000000001,"N_COORD97":2540196.2200000002,"ADDRESS":"長東街１３１巷８號","OBJECTID":247269},"geometry":{"x":171044.54000000097,"y":2540196.2200000025}},{"attributes":{"ID":247274,"DIS_CODE":0,"TOWNNAME":"東區","LI":"泉南里","LIN":"11鄰","STREET":"府連路","SECT":" ","MAREA":" ","LANE":"３３７巷","ALLEY":" ","HOUSE_NO":"１１號","E_COORD97":169613.20000000001,"N_COORD97":2542885.1299999999,"ADDRESS":"府連路３３７巷１１號","OBJECTID":247270},"geometry":{"x":169613.20000000112,"y":2542885.129999999}},{"attributes":{"ID":247275,"DIS_CODE":0,"TOWNNAME":"東區","LI":"泉南里","LIN":"11鄰","STREET":"府連路","SECT":" ","MAREA":" ","LANE":"３３７巷","ALLEY":" ","HOUSE_NO":"１３號","E_COORD97":169608.78,"N_COORD97":2542895.0600000001,"ADDRESS":"府連路３３７巷１３號","OBJECTID":247271},"geometry":{"x":169608.78000000119,"y":2542895.0600000005}},{"attributes":{"ID":247276,"DIS_CODE":0,"TOWNNAME":"東區","LI":"東光里","LIN":"34鄰","STREET":"莊敬路","SECT":" ","MAREA":" ","LANE":"２１巷","ALLEY":" ","HOUSE_NO":"８號六樓之１０","E_COORD97":171293.92000000001,"N_COORD97":2543775.6600000001,"ADDRESS":"莊敬路２１巷８號六樓之１０","OBJECTID":247272},"geometry":{"x":171293.92000000179,"y":2543775.6599999983}},{"attributes":{"ID":247277,"DIS_CODE":0,"TOWNNAME":"東區","LI":"東光里","LIN":"34鄰","STREET":"莊敬路","SECT":" ","MAREA":" ","LANE":"２１巷","ALLEY":" ","HOUSE_NO":"８號六樓之１１","E_COORD97":171293.92000000001,"N_COORD97":2543775.6600000001,"ADDRESS":"莊敬路２１巷８號六樓之１１","OBJECTID":247273},"geometry":{"x":171293.92000000179,"y":2543775.6599999983}},{"attributes":{"ID":247278,"DIS_CODE":0,"TOWNNAME":"東區","LI":"東光里","LIN":"34鄰","STREET":"莊敬路","SECT":" ","MAREA":" ","LANE":"２１巷","ALLEY":" ","HOUSE_NO":"８號六樓之１２","E_COORD97":171293.92000000001,"N_COORD97":2543775.6600000001,"ADDRESS":"莊敬路２１巷８號六樓之１２","OBJECTID":247274},"geometry":{"x":171293.92000000179,"y":2543775.6599999983}},{"attributes":{"ID":247279,"DIS_CODE":0,"TOWNNAME":"東區","LI":"東光里","LIN":"34鄰","STREET":"莊敬路","SECT":" ","MAREA":" ","LANE":"２１巷","ALLEY":" ","HOUSE_NO":"８號六樓之２","E_COORD97":171293.92000000001,"N_COORD97":2543775.6600000001,"ADDRESS":"莊敬路２１巷８號六樓之２","OBJECTID":247275},"geometry":{"x":171293.92000000179,"y":2543775.6599999983}},{"attributes":{"ID":247280,"DIS_CODE":0,"TOWNNAME":"東區","LI":"東光里","LIN":"34鄰","STREET":"莊敬路","SECT":" ","MAREA":" ","LANE":"２１巷","ALLEY":" ","HOUSE_NO":"８號六樓之３","E_COORD97":171293.92000000001,"N_COORD97":2543775.6600000001,"ADDRESS":"莊敬路２１巷８號六樓之３","OBJECTID":247276},"geometry":{"x":171293.92000000179,"y":2543775.6599999983}},{"attributes":{"ID":247281,"DIS_CODE":0,"TOWNNAME":"東區","LI":"東光里","LIN":"34鄰","STREET":"莊敬路","SECT":" ","MAREA":" ","LANE":"２１巷","ALLEY":" ","HOUSE_NO":"８號六樓之５","E_COORD97":171293.92000000001,"N_COORD97":2543775.6600000001,"ADDRESS":"莊敬路２１巷８號六樓之５","OBJECTID":247277},"geometry":{"x":171293.92000000179,"y":2543775.6599999983}},{"attributes":{"ID":247282,"DIS_CODE":0,"TOWNNAME":"東區","LI":"東光里","LIN":"34鄰","STREET":"莊敬路","SECT":" ","MAREA":" ","LANE":"２１巷","ALLEY":" ","HOUSE_NO":"８號六樓之６","E_COORD97":171293.92000000001,"N_COORD97":2543775.6600000001,"ADDRESS":"莊敬路２１巷８號六樓之６","OBJECTID":247278},"geometry":{"x":171293.92000000179,"y":2543775.6599999983}},{"attributes":{"ID":247283,"DIS_CODE":0,"TOWNNAME":"麻豆區","LI":"巷口里","LIN":"11鄰","STREET":" ","SECT":" ","MAREA":"柯厝","LANE":" ","ALLEY":" ","HOUSE_NO":"１５號之６","E_COORD97":173309.16,"N_COORD97":2564031.54,"ADDRESS":"柯厝１５號之６","OBJECTID":247279},"geometry":{"x":173309.16000000015,"y":2564031.5399999991}},{"attributes":{"ID":247284,"DIS_CODE":0,"TOWNNAME":"東區","LI":"東光里","LIN":"34鄰","STREET":"莊敬路","SECT":" ","MAREA":" ","LANE":"２１巷","ALLEY":" ","HOUSE_NO":"８號六樓之７","E_COORD97":171293.92000000001,"N_COORD97":2543775.6600000001,"ADDRESS":"莊敬路２１巷８號六樓之７","OBJECTID":247280},"geometry":{"x":171293.92000000179,"y":2543775.6599999983}},{"attributes":{"ID":247285,"DIS_CODE":0,"TOWNNAME":"東區","LI":"東光里","LIN":"34鄰","STREET":"莊敬路","SECT":" ","MAREA":" ","LANE":"２１巷","ALLEY":" ","HOUSE_NO":"８號六樓之８","E_COORD97":171293.92000000001,"N_COORD97":2543775.6600000001,"ADDRESS":"莊敬路２１巷８號六樓之８","OBJECTID":247281},"geometry":{"x":171293.92000000179,"y":2543775.6599999983}},{"attributes":{"ID":247286,"DIS_CODE":0,"TOWNNAME":"東區","LI":"東光里","LIN":"34鄰","STREET":"莊敬路","SECT":" ","MAREA":" ","LANE":"２１巷","ALLEY":" ","HOUSE_NO":"８號六樓之９","E_COORD97":171293.92000000001,"N_COORD97":2543775.6600000001,"ADDRESS":"莊敬路２１巷８號六樓之９","OBJECTID":247282},"geometry":{"x":171293.92000000179,"y":2543775.6599999983}},{"attributes":{"ID":247287,"DIS_CODE":0,"TOWNNAME":"南區","LI":"新生里","LIN":"14鄰","STREET":"大同路","SECT":"二段","MAREA":" ","LANE":" ","ALLEY":" ","HOUSE_NO":"１１４號九樓之５","E_COORD97":169259.38,"N_COORD97":2542259.7400000002,"ADDRESS":"大同路二段１１４號九樓之５","OBJECTID":247283},"geometry":{"x":169259.37999999989,"y":2542259.7400000039}},{"attributes":{"ID":247288,"DIS_CODE":0,"TOWNNAME":"南區","LI":"新生里","LIN":"14鄰","STREET":"大同路","SECT":"二段","MAREA":" ","LANE":" ","ALLEY":" ","HOUSE_NO":"１１４號十樓之１","E_COORD97":169259.38,"N_COORD97":2542259.7400000002,"ADDRESS":"大同路二段１１４號十樓之１","OBJECTID":247284},"geometry":{"x":169259.37999999989,"y":2542259.7400000039}},{"attributes":{"ID":247289,"DIS_CODE":0,"TOWNNAME":"東區","LI":"南聖里","LIN":"11鄰","STREET":"裕忠路","SECT":" ","MAREA":" ","LANE":" ","ALLEY":" ","HOUSE_NO":"１號","E_COORD97":172239.48000000001,"N_COORD97":2543280.46,"ADDRESS":"裕忠路１號","OBJECTID":247285},"geometry":{"x":172239.48000000045,"y":2543280.4600000028}},{"attributes":{"ID":247290,"DIS_CODE":0,"TOWNNAME":"南區","LI":"新生里","LIN":"14鄰","STREET":"大同路","SECT":"二段","MAREA":" ","LANE":" ","ALLEY":" ","HOUSE_NO":"１１４號十樓之２","E_COORD97":169259.38,"N_COORD97":2542259.7400000002,"ADDRESS":"大同路二段１１４號十樓之２","OBJECTID":247286},"geometry":{"x":169259.37999999989,"y":2542259.7400000039}},{"attributes":{"ID":247291,"DIS_CODE":0,"TOWNNAME":"麻豆區","LI":"巷口里","LIN":"11鄰","STREET":" ","SECT":" ","MAREA":"柯厝","LANE":" ","ALLEY":" ","HOUSE_NO":"２１號","E_COORD97":173403.70999999999,"N_COORD97":2564040.0600000001,"ADDRESS":"柯厝２１號","OBJECTID":247287},"geometry":{"x":173403.70999999996,"y":2564040.0600000005}},{"attributes":{"ID":247292,"DIS_CODE":0,"TOWNNAME":"麻豆區","LI":"巷口里","LIN":"11鄰","STREET":" ","SECT":" ","MAREA":"柯厝","LANE":" ","ALLEY":" ","HOUSE_NO":"２２號","E_COORD97":173404.89999999999,"N_COORD97":2564007.2000000002,"ADDRESS":"柯厝２２號","OBJECTID":247288},"geometry":{"x":173404.90000000037,"y":2564007.1999999993}},{"attributes":{"ID":247293,"DIS_CODE":0,"TOWNNAME":"麻豆區","LI":"巷口里","LIN":"11鄰","STREET":" ","SECT":" ","MAREA":"柯厝","LANE":" ","ALLEY":" ","HOUSE_NO":"２３號之１","E_COORD97":173382.95000000001,"N_COORD97":2564001.6699999999,"ADDRESS":"柯厝２３號之１","OBJECTID":247289},"geometry":{"x":173382.95000000112,"y":2564001.6699999999}},{"attributes":{"ID":247294,"DIS_CODE":0,"TOWNNAME":"麻豆區","LI":"巷口里","LIN":"11鄰","STREET":" ","SECT":" ","MAREA":"柯厝","LANE":" ","ALLEY":" ","HOUSE_NO":"２３號之２","E_COORD97":173383.85999999999,"N_COORD97":2563994.0600000001,"ADDRESS":"柯厝２３號之２","OBJECTID":247290},"geometry":{"x":173383.86000000127,"y":2563994.0600000024}},{"attributes":{"ID":247295,"DIS_CODE":0,"TOWNNAME":"麻豆區","LI":"巷口里","LIN":"11鄰","STREET":" ","SECT":" ","MAREA":"柯厝","LANE":" ","ALLEY":" ","HOUSE_NO":"２３號之３","E_COORD97":173384.31,"N_COORD97":2563991.1400000001,"ADDRESS":"柯厝２３號之３","OBJECTID":247291},"geometry":{"x":173384.30999999959,"y":2563991.1400000025}},{"attributes":{"ID":247296,"DIS_CODE":0,"TOWNNAME":"麻豆區","LI":"巷口里","LIN":"11鄰","STREET":" ","SECT":" ","MAREA":"柯厝","LANE":" ","ALLEY":" ","HOUSE_NO":"２３號之５","E_COORD97":173364.13,"N_COORD97":2564005.1600000001,"ADDRESS":"柯厝２３號之５","OBJECTID":247292},"geometry":{"x":173364.13000000082,"y":2564005.1600000001}},{"attributes":{"ID":247297,"DIS_CODE":0,"TOWNNAME":"麻豆區","LI":"巷口里","LIN":"11鄰","STREET":" ","SECT":" ","MAREA":"柯厝","LANE":" ","ALLEY":" ","HOUSE_NO":"２３號之６","E_COORD97":173363.92000000001,"N_COORD97":2564000.2000000002,"ADDRESS":"柯厝２３號之６","OBJECTID":247293},"geometry":{"x":173363.92000000086,"y":2564000.1999999993}},{"attributes":{"ID":247298,"DIS_CODE":0,"TOWNNAME":"麻豆區","LI":"巷口里","LIN":"11鄰","STREET":" ","SECT":" ","MAREA":"柯厝","LANE":" ","ALLEY":" ","HOUSE_NO":"２３號之７","E_COORD97":173362.87,"N_COORD97":2563994.4100000001,"ADDRESS":"柯厝２３號之７","OBJECTID":247294},"geometry":{"x":173362.87000000104,"y":2563994.4100000039}},{"attributes":{"ID":247299,"DIS_CODE":0,"TOWNNAME":"麻豆區","LI":"巷口里","LIN":"11鄰","STREET":" ","SECT":" ","MAREA":"柯厝","LANE":" ","ALLEY":" ","HOUSE_NO":"２３號之８","E_COORD97":173364.07000000001,"N_COORD97":2563987.6899999999,"ADDRESS":"柯厝２３號之８","OBJECTID":247295},"geometry":{"x":173364.0700000003,"y":2563987.6899999995}},{"attributes":{"ID":247300,"DIS_CODE":0,"TOWNNAME":"麻豆區","LI":"巷口里","LIN":"11鄰","STREET":" ","SECT":" ","MAREA":"柯厝","LANE":" ","ALLEY":" ","HOUSE_NO":"２３號","E_COORD97":173383.59,"N_COORD97":2564004.8900000001,"ADDRESS":"柯厝２３號","OBJECTID":247296},"geometry":{"x":173383.59000000078,"y":2564004.8899999987}},{"attributes":{"ID":247301,"DIS_CODE":0,"TOWNNAME":"麻豆區","LI":"巷口里","LIN":"11鄰","STREET":" ","SECT":" ","MAREA":"柯厝","LANE":" ","ALLEY":" ","HOUSE_NO":"２４號","E_COORD97":173354.29000000001,"N_COORD97":2564004.4300000002,"ADDRESS":"柯厝２４號","OBJECTID":247297},"geometry":{"x":173354.29000000004,"y":2564004.4300000016}},{"attributes":{"ID":247302,"DIS_CODE":0,"TOWNNAME":"麻豆區","LI":"巷口里","LIN":"11鄰","STREET":" ","SECT":" ","MAREA":"柯厝","LANE":" ","ALLEY":" ","HOUSE_NO":"２５號","E_COORD97":173342.64999999999,"N_COORD97":2564002.7799999998,"ADDRESS":"柯厝２５號","OBJECTID":247298},"geometry":{"x":173342.6500000013,"y":2564002.7800000012}},{"attributes":{"ID":247303,"DIS_CODE":0,"TOWNNAME":"麻豆區","LI":"海埔里","LIN":"11鄰","STREET":" ","SECT":" ","MAREA":"海埔","LANE":" ","ALLEY":" ","HOUSE_NO":"５６號","E_COORD97":169491.16,"N_COORD97":2567077.1800000002,"ADDRESS":"海埔５６號","OBJECTID":247299},"geometry":{"x":169491.16000000108,"y":2567077.1800000034}},{"attributes":{"ID":247304,"DIS_CODE":0,"TOWNNAME":"麻豆區","LI":"海埔里","LIN":"11鄰","STREET":" ","SECT":" ","MAREA":"海埔","LANE":" ","ALLEY":" ","HOUSE_NO":"５７號","E_COORD97":169498.59,"N_COORD97":2567094.4900000002,"ADDRESS":"海埔５７號","OBJECTID":247300},"geometry":{"x":169498.58999999985,"y":2567094.4900000002}},{"attributes":{"ID":247305,"DIS_CODE":0,"TOWNNAME":"麻豆區","LI":"海埔里","LIN":"11鄰","STREET":" ","SECT":" ","MAREA":"海埔","LANE":" ","ALLEY":" ","HOUSE_NO":"５９號","E_COORD97":169570.51999999999,"N_COORD97":2567080.8500000001,"ADDRESS":"海埔５９號","OBJECTID":247301},"geometry":{"x":169570.52000000142,"y":2567080.8500000015}},{"attributes":{"ID":247306,"DIS_CODE":0,"TOWNNAME":"麻豆區","LI":"海埔里","LIN":"11鄰","STREET":" ","SECT":" ","MAREA":"海埔","LANE":" ","ALLEY":" ","HOUSE_NO":"６０號","E_COORD97":169525.47,"N_COORD97":2567140.96,"ADDRESS":"海埔６０號","OBJECTID":247302},"geometry":{"x":169525.47000000067,"y":2567140.9600000046}},{"attributes":{"ID":247307,"DIS_CODE":0,"TOWNNAME":"麻豆區","LI":"海埔里","LIN":"11鄰","STREET":" ","SECT":" ","MAREA":"海埔","LANE":" ","ALLEY":" ","HOUSE_NO":"６１號","E_COORD97":169513.03,"N_COORD97":2567129.0299999998,"ADDRESS":"海埔６１號","OBJECTID":247303},"geometry":{"x":169513.03000000026,"y":2567129.0300000031}},{"attributes":{"ID":247308,"DIS_CODE":0,"TOWNNAME":"麻豆區","LI":"海埔里","LIN":"11鄰","STREET":" ","SECT":" ","MAREA":"海埔","LANE":" ","ALLEY":" ","HOUSE_NO":"６３號","E_COORD97":169457.98999999999,"N_COORD97":2567033.7200000002,"ADDRESS":"海埔６３號","OBJECTID":247304},"geometry":{"x":169457.99000000209,"y":2567033.7199999988}},{"attributes":{"ID":247309,"DIS_CODE":0,"TOWNNAME":"麻豆區","LI":"海埔里","LIN":"11鄰","STREET":" ","SECT":" ","MAREA":"海埔","LANE":" ","ALLEY":" ","HOUSE_NO":"６４號之１","E_COORD97":169460.81,"N_COORD97":2567105.6000000001,"ADDRESS":"海埔６４號之１","OBJECTID":247305},"geometry":{"x":169460.81000000052,"y":2567105.6000000015}},{"attributes":{"ID":247310,"DIS_CODE":0,"TOWNNAME":"麻豆區","LI":"海埔里","LIN":"11鄰","STREET":" ","SECT":" ","MAREA":"海埔","LANE":" ","ALLEY":" ","HOUSE_NO":"６４號","E_COORD97":169471.70000000001,"N_COORD97":2567087.5099999998,"ADDRESS":"海埔６４號","OBJECTID":247306},"geometry":{"x":169471.70000000205,"y":2567087.5099999998}},{"attributes":{"ID":247311,"DIS_CODE":0,"TOWNNAME":"麻豆區","LI":"海埔里","LIN":"11鄰","STREET":" ","SECT":" ","MAREA":"海埔","LANE":" ","ALLEY":" ","HOUSE_NO":"６５號之１","E_COORD97":169481.64000000001,"N_COORD97":2567044.6299999999,"ADDRESS":"海埔６５號之１","OBJECTID":247307},"geometry":{"x":169481.64000000153,"y":2567044.629999999}},{"attributes":{"ID":247312,"DIS_CODE":0,"TOWNNAME":"麻豆區","LI":"海埔里","LIN":"11鄰","STREET":" ","SECT":" ","MAREA":"海埔","LANE":" ","ALLEY":" ","HOUSE_NO":"６５號","E_COORD97":169471.25,"N_COORD97":2567064.2599999998,"ADDRESS":"海埔６５號","OBJECTID":247308},"geometry":{"x":169471.25000000186,"y":2567064.2600000016}},{"attributes":{"ID":247313,"DIS_CODE":0,"TOWNNAME":"麻豆區","LI":"海埔里","LIN":"11鄰","STREET":" ","SECT":" ","MAREA":"海埔","LANE":" ","ALLEY":" ","HOUSE_NO":"６６號之２","E_COORD97":169443.59,"N_COORD97":2567072.9900000002,"ADDRESS":"海埔６６號之２","OBJECTID":247309},"geometry":{"x":169443.59000000078,"y":2567072.9900000021}},{"attributes":{"ID":247314,"DIS_CODE":0,"TOWNNAME":"麻豆區","LI":"海埔里","LIN":"11鄰","STREET":" ","SECT":" ","MAREA":"海埔","LANE":" ","ALLEY":" ","HOUSE_NO":"６７號","E_COORD97":169479.92999999999,"N_COORD97":2567131.5600000001,"ADDRESS":"海埔６７號","OBJECTID":247310},"geometry":{"x":169479.93000000063,"y":2567131.5600000005}},{"attributes":{"ID":247315,"DIS_CODE":0,"TOWNNAME":"永康區","LI":"勝利里","LIN":"11鄰","STREET":"勝利街","SECT":" ","MAREA":" ","LANE":"２２巷","ALLEY":" ","HOUSE_NO":"４９號","E_COORD97":171271.62,"N_COORD97":2544715.75,"ADDRESS":"勝利街２２巷４９號","OBJECTID":247311},"geometry":{"x":171271.62000000011,"y":2544715.7500000019}},{"attributes":{"ID":247316,"DIS_CODE":0,"TOWNNAME":"永康區","LI":"\u25A0洲里","LIN":"11鄰","STREET":"\u25A0行路","SECT":" ","MAREA":" ","LANE":"１４６巷","ALLEY":" ","HOUSE_NO":"１號","E_COORD97":171415.22,"N_COORD97":2549247.8900000001,"ADDRESS":"\u25A0行路１４６巷１號","OBJECTID":247312},"geometry":{"x":171415.21999999974,"y":2549247.8900000025}},{"attributes":{"ID":247317,"DIS_CODE":0,"TOWNNAME":"永康區","LI":"\u25A0洲里","LIN":"11鄰","STREET":"\u25A0行路","SECT":" ","MAREA":" ","LANE":"１２１巷","ALLEY":" ","HOUSE_NO":"１號","E_COORD97":171435.48999999999,"N_COORD97":2549172.4900000002,"ADDRESS":"\u25A0行路１２１巷１號","OBJECTID":247313},"geometry":{"x":171435.49000000022,"y":2549172.4900000021}},{"attributes":{"ID":247318,"DIS_CODE":0,"TOWNNAME":"永康區","LI":"\u25A0洲里","LIN":"11鄰","STREET":"\u25A0行路","SECT":" ","MAREA":" ","LANE":"１４６巷","ALLEY":" ","HOUSE_NO":"２３號","E_COORD97":171358.32000000001,"N_COORD97":2549323.8100000001,"ADDRESS":"\u25A0行路１４６巷２３號","OBJECTID":247314},"geometry":{"x":171358.32000000123,"y":2549323.8100000005}},{"attributes":{"ID":247319,"DIS_CODE":0,"TOWNNAME":"永康區","LI":"\u25A0洲里","LIN":"11鄰","STREET":"\u25A0行路","SECT":" ","MAREA":" ","LANE":"１４６巷","ALLEY":" ","HOUSE_NO":"１１號","E_COORD97":171400.81,"N_COORD97":2549264.3799999999,"ADDRESS":"\u25A0行路１４６巷１１號","OBJECTID":247315},"geometry":{"x":171400.80999999959,"y":2549264.379999999}},{"attributes":{"ID":247320,"DIS_CODE":0,"TOWNNAME":"東區","LI":"崇善里","LIN":"8鄰","STREET":"崇善七街","SECT":" ","MAREA":" ","LANE":"３０巷","ALLEY":" ","HOUSE_NO":"１３號","E_COORD97":171138.64999999999,"N_COORD97":2541428.1099999999,"ADDRESS":"崇善七街３０巷１３號","OBJECTID":247316},"geometry":{"x":171138.65000000224,"y":2541428.1099999994}},{"attributes":{"ID":247321,"DIS_CODE":0,"TOWNNAME":"東區","LI":"崇善里","LIN":"8鄰","STREET":"崇善七街","SECT":" ","MAREA":" ","LANE":"３０巷","ALLEY":" ","HOUSE_NO":"１５號","E_COORD97":171140.48000000001,"N_COORD97":2541425.0600000001,"ADDRESS":"崇善七街３０巷１５號","OBJECTID":247317},"geometry":{"x":171140.48000000138,"y":2541425.0600000024}},{"attributes":{"ID":247322,"DIS_CODE":0,"TOWNNAME":"東區","LI":"崇善里","LIN":"8鄰","STREET":"崇善七街","SECT":" ","MAREA":" ","LANE":"３０巷","ALLEY":" ","HOUSE_NO":"１６號","E_COORD97":171112.76000000001,"N_COORD97":2541425.6699999999,"ADDRESS":"崇善七街３０巷１６號","OBJECTID":247318},"geometry":{"x":171112.75999999978,"y":2541425.6699999999}},{"attributes":{"ID":247323,"DIS_CODE":0,"TOWNNAME":"東區","LI":"崇善里","LIN":"8鄰","STREET":"崇善七街","SECT":" ","MAREA":" ","LANE":"３０巷","ALLEY":" ","HOUSE_NO":"２０號","E_COORD97":171117.03,"N_COORD97":2541418.0699999998,"ADDRESS":"崇善七街３０巷２０號","OBJECTID":247319},"geometry":{"x":171117.03000000026,"y":2541418.0700000022}},{"attributes":{"ID":247324,"DIS_CODE":0,"TOWNNAME":"東區","LI":"東光里","LIN":"34鄰","STREET":"莊敬路","SECT":" ","MAREA":" ","LANE":"２１巷","ALLEY":" ","HOUSE_NO":"８號四樓","E_COORD97":171293.92000000001,"N_COORD97":2543775.6600000001,"ADDRESS":"莊敬路２１巷８號四樓","OBJECTID":247320},"geometry":{"x":171293.92000000179,"y":2543775.6599999983}},{"attributes":{"ID":247325,"DIS_CODE":0,"TOWNNAME":"東區","LI":"東光里","LIN":"34鄰","STREET":"莊敬路","SECT":" ","MAREA":" ","LANE":"２１巷","ALLEY":" ","HOUSE_NO":"８號四樓之１","E_COORD97":171293.92000000001,"N_COORD97":2543775.6600000001,"ADDRESS":"莊敬路２１巷８號四樓之１","OBJECTID":247321},"geometry":{"x":171293.92000000179,"y":2543775.6599999983}},{"attributes":{"ID":247326,"DIS_CODE":0,"TOWNNAME":"東區","LI":"東光里","LIN":"34鄰","STREET":"莊敬路","SECT":" ","MAREA":" ","LANE":"２１巷","ALLEY":" ","HOUSE_NO":"８號四樓之１０","E_COORD97":171293.92000000001,"N_COORD97":2543775.6600000001,"ADDRESS":"莊敬路２１巷８號四樓之１０","OBJECTID":247322},"geometry":{"x":171293.92000000179,"y":2543775.6599999983}},{"attributes":{"ID":247327,"DIS_CODE":0,"TOWNNAME":"東區","LI":"東光里","LIN":"34鄰","STREET":"莊敬路","SECT":" ","MAREA":" ","LANE":"２１巷","ALLEY":" ","HOUSE_NO":"８號四樓之１１","E_COORD97":171293.92000000001,"N_COORD97":2543775.6600000001,"ADDRESS":"莊敬路２１巷８號四樓之１１","OBJECTID":247323},"geometry":{"x":171293.92000000179,"y":2543775.6599999983}},{"attributes":{"ID":247328,"DIS_CODE":0,"TOWNNAME":"東區","LI":"東光里","LIN":"34鄰","STREET":"莊敬路","SECT":" ","MAREA":" ","LANE":"２１巷","ALLEY":" ","HOUSE_NO":"８號四樓之１２","E_COORD97":171293.92000000001,"N_COORD97":2543775.6600000001,"ADDRESS":"莊敬路２１巷８號四樓之１２","OBJECTID":247324},"geometry":{"x":171293.92000000179,"y":2543775.6599999983}},{"attributes":{"ID":247329,"DIS_CODE":0,"TOWNNAME":"南區","LI":"新生里","LIN":"14鄰","STREET":"大同路","SECT":"二段","MAREA":" ","LANE":" ","ALLEY":" ","HOUSE_NO":"１１４號十樓之３","E_COORD97":169259.38,"N_COORD97":2542259.7400000002,"ADDRESS":"大同路二段１１４號十樓之３","OBJECTID":247325},"geometry":{"x":169259.37999999989,"y":2542259.7400000039}},{"attributes":{"ID":247330,"DIS_CODE":0,"TOWNNAME":"南區","LI":"新生里","LIN":"14鄰","STREET":"大同路","SECT":"二段","MAREA":" ","LANE":" ","ALLEY":" ","HOUSE_NO":"１１４號十樓之５","E_COORD97":169259.38,"N_COORD97":2542259.7400000002,"ADDRESS":"大同路二段１１４號十樓之５","OBJECTID":247326},"geometry":{"x":169259.37999999989,"y":2542259.7400000039}},{"attributes":{"ID":247331,"DIS_CODE":0,"TOWNNAME":"南區","LI":"新生里","LIN":"14鄰","STREET":"大同路","SECT":"二段","MAREA":" ","LANE":" ","ALLEY":" ","HOUSE_NO":"１１４號十一樓之１","E_COORD97":169259.38,"N_COORD97":2542259.7400000002,"ADDRESS":"大同路二段１１４號十一樓之１","OBJECTID":247327},"geometry":{"x":169259.37999999989,"y":2542259.7400000039}},{"attributes":{"ID":247332,"DIS_CODE":0,"TOWNNAME":"南區","LI":"新生里","LIN":"14鄰","STREET":"大同路","SECT":"二段","MAREA":" ","LANE":" ","ALLEY":" ","HOUSE_NO":"１１４號十一樓之２","E_COORD97":169259.38,"N_COORD97":2542259.7400000002,"ADDRESS":"大同路二段１１４號十一樓之２","OBJECTID":247328},"geometry":{"x":169259.37999999989,"y":2542259.7400000039}},{"attributes":{"ID":247333,"DIS_CODE":0,"TOWNNAME":"南區","LI":"新生里","LIN":"14鄰","STREET":"大同路","SECT":"二段","MAREA":" ","LANE":" ","ALLEY":" ","HOUSE_NO":"１１４號十一樓之３","E_COORD97":169259.38,"N_COORD97":2542259.7400000002,"ADDRESS":"大同路二段１１４號十一樓之３","OBJECTID":247329},"geometry":{"x":169259.37999999989,"y":2542259.7400000039}},{"attributes":{"ID":247334,"DIS_CODE":0,"TOWNNAME":"南區","LI":"新生里","LIN":"14鄰","STREET":"大同路","SECT":"二段","MAREA":" ","LANE":" ","ALLEY":" ","HOUSE_NO":"１１４號十一樓之５","E_COORD97":169259.38,"N_COORD97":2542259.7400000002,"ADDRESS":"大同路二段１１４號十一樓之５","OBJECTID":247330},"geometry":{"x":169259.37999999989,"y":2542259.7400000039}},{"attributes":{"ID":247335,"DIS_CODE":0,"TOWNNAME":"南區","LI":"新生里","LIN":"14鄰","STREET":"大同路","SECT":"二段","MAREA":" ","LANE":" ","ALLEY":" ","HOUSE_NO":"１２２號二樓之１","E_COORD97":169276.57000000001,"N_COORD97":2542231.2000000002,"ADDRESS":"大同路二段１２２號二樓之１","OBJECTID":247331},"geometry":{"x":169276.57000000123,"y":2542231.1999999993}},{"attributes":{"ID":247336,"DIS_CODE":0,"TOWNNAME":"東區","LI":"崇善里","LIN":"8鄰","STREET":"崇善七街","SECT":" ","MAREA":" ","LANE":"４６巷","ALLEY":" ","HOUSE_NO":"１２號","E_COORD97":171137.42999999999,"N_COORD97":2541466.1400000001,"ADDRESS":"崇善七街４６巷１２號","OBJECTID":247332},"geometry":{"x":171137.4299999997,"y":2541466.1400000006}},{"attributes":{"ID":247337,"DIS_CODE":0,"TOWNNAME":"東區","LI":"東光里","LIN":"34鄰","STREET":"莊敬路","SECT":" ","MAREA":" ","LANE":"２１巷","ALLEY":" ","HOUSE_NO":"８號四樓之２","E_COORD97":171293.92000000001,"N_COORD97":2543775.6600000001,"ADDRESS":"莊敬路２１巷８號四樓之２","OBJECTID":247333},"geometry":{"x":171293.92000000179,"y":2543775.6599999983}},{"attributes":{"ID":247338,"DIS_CODE":0,"TOWNNAME":"東區","LI":"東光里","LIN":"34鄰","STREET":"莊敬路","SECT":" ","MAREA":" ","LANE":"２１巷","ALLEY":" ","HOUSE_NO":"８號四樓之３","E_COORD97":171293.92000000001,"N_COORD97":2543775.6600000001,"ADDRESS":"莊敬路２１巷８號四樓之３","OBJECTID":247334},"geometry":{"x":171293.92000000179,"y":2543775.6599999983}},{"attributes":{"ID":247339,"DIS_CODE":0,"TOWNNAME":"東區","LI":"東光里","LIN":"34鄰","STREET":"莊敬路","SECT":" ","MAREA":" ","LANE":"２１巷","ALLEY":" ","HOUSE_NO":"８號四樓之５","E_COORD97":171293.92000000001,"N_COORD97":2543775.6600000001,"ADDRESS":"莊敬路２１巷８號四樓之５","OBJECTID":247335},"geometry":{"x":171293.92000000179,"y":2543775.6599999983}},{"attributes":{"ID":247340,"DIS_CODE":0,"TOWNNAME":"東區","LI":"東光里","LIN":"34鄰","STREET":"莊敬路","SECT":" ","MAREA":" ","LANE":"２１巷","ALLEY":" ","HOUSE_NO":"８號四樓之６","E_COORD97":171293.92000000001,"N_COORD97":2543775.6600000001,"ADDRESS":"莊敬路２１巷８號四樓之６","OBJECTID":247336},"geometry":{"x":171293.92000000179,"y":2543775.6599999983}},{"attributes":{"ID":247341,"DIS_CODE":0,"TOWNNAME":"東區","LI":"東光里","LIN":"34鄰","STREET":"莊敬路","SECT":" ","MAREA":" ","LANE":"２１巷","ALLEY":" ","HOUSE_NO":"８號四樓之７","E_COORD97":171293.92000000001,"N_COORD97":2543775.6600000001,"ADDRESS":"莊敬路２１巷８號四樓之７","OBJECTID":247337},"geometry":{"x":171293.92000000179,"y":2543775.6599999983}},{"attributes":{"ID":247342,"DIS_CODE":0,"TOWNNAME":"東區","LI":"東光里","LIN":"34鄰","STREET":"莊敬路","SECT":" ","MAREA":" ","LANE":"２１巷","ALLEY":" ","HOUSE_NO":"８號四樓之８","E_COORD97":171293.92000000001,"N_COORD97":2543775.6600000001,"ADDRESS":"莊敬路２１巷８號四樓之８","OBJECTID":247338},"geometry":{"x":171293.92000000179,"y":2543775.6599999983}},{"attributes":{"ID":247343,"DIS_CODE":0,"TOWNNAME":"東區","LI":"東光里","LIN":"34鄰","STREET":"莊敬路","SECT":" ","MAREA":" ","LANE":"２１巷","ALLEY":" ","HOUSE_NO":"８號四樓之９","E_COORD97":171293.92000000001,"N_COORD97":2543775.6600000001,"ADDRESS":"莊敬路２１巷８號四樓之９","OBJECTID":247339},"geometry":{"x":171293.92000000179,"y":2543775.6599999983}},{"attributes":{"ID":247344,"DIS_CODE":0,"TOWNNAME":"永康區","LI":"龍潭里","LIN":"34鄰","STREET":"龍埔街","SECT":" ","MAREA":" ","LANE":"１３９巷","ALLEY":" ","HOUSE_NO":"８號七樓之１","E_COORD97":174534.04999999999,"N_COORD97":2548201.3199999998,"ADDRESS":"龍埔街１３９巷８號七樓之１","OBJECTID":247340},"geometry":{"x":174534.04999999888,"y":2548201.3200000003}},{"attributes":{"ID":247345,"DIS_CODE":0,"TOWNNAME":"永康區","LI":"勝利里","LIN":"34鄰","STREET":"勝利街","SECT":" ","MAREA":" ","LANE":"１巷","ALLEY":" ","HOUSE_NO":"４６號六樓之３","E_COORD97":170989.37,"N_COORD97":2544676.5499999998,"ADDRESS":"勝利街１巷４６號六樓之３","OBJECTID":247341},"geometry":{"x":170989.37000000197,"y":2544676.5500000026}},{"attributes":{"ID":247346,"DIS_CODE":0,"TOWNNAME":"永康區","LI":"勝利里","LIN":"34鄰","STREET":"勝利街","SECT":" ","MAREA":" ","LANE":"１巷","ALLEY":" ","HOUSE_NO":"４５號八樓之２","E_COORD97":170974.39000000001,"N_COORD97":2544680.54,"ADDRESS":"勝利街１巷４５號八樓之２","OBJECTID":247342},"geometry":{"x":170974.38999999966,"y":2544680.5399999972}},{"attributes":{"ID":247347,"DIS_CODE":0,"TOWNNAME":"永康區","LI":"勝利里","LIN":"34鄰","STREET":"勝利街","SECT":" ","MAREA":" ","LANE":"１巷","ALLEY":" ","HOUSE_NO":"４６號十一樓之２","E_COORD97":170990.66,"N_COORD97":2544676.5499999998,"ADDRESS":"勝利街１巷４６號十一樓之２","OBJECTID":247343},"geometry":{"x":170990.65999999922,"y":2544676.5500000026}},{"attributes":{"ID":247348,"DIS_CODE":0,"TOWNNAME":"永康區","LI":"勝利里","LIN":"34鄰","STREET":"勝利街","SECT":" ","MAREA":" ","LANE":"１巷","ALLEY":" ","HOUSE_NO":"４６號十樓之２","E_COORD97":170989.41,"N_COORD97":2544676.5499999998,"ADDRESS":"勝利街１巷４６號十樓之２","OBJECTID":247344},"geometry":{"x":170989.41000000108,"y":2544676.5500000026}},{"attributes":{"ID":247349,"DIS_CODE":0,"TOWNNAME":"永康區","LI":"勝利里","LIN":"34鄰","STREET":"勝利街","SECT":" ","MAREA":" ","LANE":"１巷","ALLEY":" ","HOUSE_NO":"４６號六樓之２","E_COORD97":170989.41,"N_COORD97":2544676.5499999998,"ADDRESS":"勝利街１巷４６號六樓之２","OBJECTID":247345},"geometry":{"x":170989.41000000108,"y":2544676.5500000026}},{"attributes":{"ID":247350,"DIS_CODE":0,"TOWNNAME":"永康區","LI":"勝利里","LIN":"34鄰","STREET":"勝利街","SECT":" ","MAREA":" ","LANE":"１巷","ALLEY":" ","HOUSE_NO":"４４號十樓之３","E_COORD97":170974.35000000001,"N_COORD97":2544680.54,"ADDRESS":"勝利街１巷４４號十樓之３","OBJECTID":247346},"geometry":{"x":170974.35000000056,"y":2544680.5399999972}},{"attributes":{"ID":247351,"DIS_CODE":0,"TOWNNAME":"永康區","LI":"勝利里","LIN":"34鄰","STREET":"勝利街","SECT":" ","MAREA":" ","LANE":"１巷","ALLEY":" ","HOUSE_NO":"４６號八樓之２","E_COORD97":170989.41,"N_COORD97":2544676.5499999998,"ADDRESS":"勝利街１巷４６號八樓之２","OBJECTID":247347},"geometry":{"x":170989.41000000108,"y":2544676.5500000026}},{"attributes":{"ID":247352,"DIS_CODE":0,"TOWNNAME":"永康區","LI":"勝利里","LIN":"34鄰","STREET":"勝利街","SECT":" ","MAREA":" ","LANE":"１巷","ALLEY":" ","HOUSE_NO":"４５號六樓之１","E_COORD97":170974.25,"N_COORD97":2544680.54,"ADDRESS":"勝利街１巷４５號六樓之１","OBJECTID":247348},"geometry":{"x":170974.25,"y":2544680.5399999972}},{"attributes":{"ID":247353,"DIS_CODE":0,"TOWNNAME":"永康區","LI":"勝利里","LIN":"34鄰","STREET":"勝利街","SECT":" ","MAREA":" ","LANE":"１巷","ALLEY":" ","HOUSE_NO":"４６號五樓之１","E_COORD97":170989.26999999999,"N_COORD97":2544676.5499999998,"ADDRESS":"勝利街１巷４６號五樓之１","OBJECTID":247349},"geometry":{"x":170989.26999999955,"y":2544676.5500000026}},{"attributes":{"ID":247354,"DIS_CODE":0,"TOWNNAME":"永康區","LI":"勝利里","LIN":"34鄰","STREET":"勝利街","SECT":" ","MAREA":" ","LANE":"１巷","ALLEY":" ","HOUSE_NO":"４５號十樓之２","E_COORD97":170974.39000000001,"N_COORD97":2544680.54,"ADDRESS":"勝利街１巷４５號十樓之２","OBJECTID":247350},"geometry":{"x":170974.38999999966,"y":2544680.5399999972}},{"attributes":{"ID":247355,"DIS_CODE":0,"TOWNNAME":"永康區","LI":"龍潭里","LIN":"34鄰","STREET":"龍埔街","SECT":" ","MAREA":" ","LANE":"１３９巷","ALLEY":" ","HOUSE_NO":"８號四樓之２","E_COORD97":174534.19,"N_COORD97":2548201.3199999998,"ADDRESS":"龍埔街１３９巷８號四樓之２","OBJECTID":247351},"geometry":{"x":174534.19000000134,"y":2548201.3200000003}},{"attributes":{"ID":247356,"DIS_CODE":0,"TOWNNAME":"南區","LI":"新生里","LIN":"14鄰","STREET":"大同路","SECT":"二段","MAREA":" ","LANE":" ","ALLEY":" ","HOUSE_NO":"１２２號六樓之２","E_COORD97":169276.57000000001,"N_COORD97":2542231.2000000002,"ADDRESS":"大同路二段１２２號六樓之２","OBJECTID":247352},"geometry":{"x":169276.57000000123,"y":2542231.1999999993}},{"attributes":{"ID":247357,"DIS_CODE":0,"TOWNNAME":"善化區","LI":"嘉北里","LIN":"11鄰","STREET":" ","SECT":" ","MAREA":"茄拔","LANE":" ","ALLEY":" ","HOUSE_NO":"２０５號之１","E_COORD97":180866.94,"N_COORD97":2560046.27,"ADDRESS":"茄拔２０５號之１","OBJECTID":247353},"geometry":{"x":180866.93999999948,"y":2560046.2700000014}},{"attributes":{"ID":247358,"DIS_CODE":0,"TOWNNAME":"安南區","LI":"溪心里","LIN":"11鄰","STREET":"安吉路","SECT":"一段","MAREA":" ","LANE":"６０１巷","ALLEY":" ","HOUSE_NO":"６號","E_COORD97":166907.63,"N_COORD97":2550166.02,"ADDRESS":"安吉路一段６０１巷６號","OBJECTID":247354},"geometry":{"x":166907.63000000082,"y":2550166.0199999996}},{"attributes":{"ID":247359,"DIS_CODE":0,"TOWNNAME":"永康區","LI":"勝利里","LIN":"34鄰","STREET":"勝利街","SECT":" ","MAREA":" ","LANE":"１巷","ALLEY":" ","HOUSE_NO":"４４號十四樓之３","E_COORD97":170975.60000000001,"N_COORD97":2544680.54,"ADDRESS":"勝利街１巷４４號十四樓之３","OBJECTID":247355},"geometry":{"x":170975.60000000056,"y":2544680.5399999972}},{"attributes":{"ID":247360,"DIS_CODE":0,"TOWNNAME":"永康區","LI":"龍潭里","LIN":"34鄰","STREET":"龍埔街","SECT":" ","MAREA":" ","LANE":"１３９巷","ALLEY":" ","HOUSE_NO":"６號五樓之２","E_COORD97":174536.98999999999,"N_COORD97":2548220.8100000001,"ADDRESS":"龍埔街１３９巷６號五樓之２","OBJECTID":247356},"geometry":{"x":174536.99000000115,"y":2548220.8100000024}},{"attributes":{"ID":247361,"DIS_CODE":0,"TOWNNAME":"永康區","LI":"勝利里","LIN":"34鄰","STREET":"勝利街","SECT":" ","MAREA":" ","LANE":"１巷","ALLEY":" ","HOUSE_NO":"４３號九樓之２","E_COORD97":170974.39000000001,"N_COORD97":2544680.54,"ADDRESS":"勝利街１巷４３號九樓之２","OBJECTID":247357},"geometry":{"x":170974.38999999966,"y":2544680.5399999972}},{"attributes":{"ID":247362,"DIS_CODE":0,"TOWNNAME":"善化區","LI":"嘉北里","LIN":"11鄰","STREET":" ","SECT":" ","MAREA":"茄拔","LANE":" ","ALLEY":" ","HOUSE_NO":"２０８號","E_COORD97":180903.45000000001,"N_COORD97":2559989.2599999998,"ADDRESS":"茄拔２０８號","OBJECTID":247358},"geometry":{"x":180903.45000000019,"y":2559989.2599999998}},{"attributes":{"ID":247363,"DIS_CODE":0,"TOWNNAME":"善化區","LI":"東昌里","LIN":"11鄰","STREET":" ","SECT":" ","MAREA":"東勢寮","LANE":" ","ALLEY":" ","HOUSE_NO":"１０４號","E_COORD97":180159.39999999999,"N_COORD97":2561831.7599999998,"ADDRESS":"東勢寮１０４號","OBJECTID":247359},"geometry":{"x":180159.4000000013,"y":2561831.7599999979}},{"attributes":{"ID":247364,"DIS_CODE":0,"TOWNNAME":"永康區","LI":"勝利里","LIN":"34鄰","STREET":"勝利街","SECT":" ","MAREA":" ","LANE":"１巷","ALLEY":" ","HOUSE_NO":"４４號十二樓之１","E_COORD97":170975.5,"N_COORD97":2544680.54,"ADDRESS":"勝利街１巷４４號十二樓之１","OBJECTID":247360},"geometry":{"x":170975.50000000093,"y":2544680.5399999972}},{"attributes":{"ID":247365,"DIS_CODE":0,"TOWNNAME":"永康區","LI":"勝利里","LIN":"34鄰","STREET":"勝利街","SECT":" ","MAREA":" ","LANE":"１巷","ALLEY":" ","HOUSE_NO":"４４號十四樓之２","E_COORD97":170975.64000000001,"N_COORD97":2544680.54,"ADDRESS":"勝利街１巷４４號十四樓之２","OBJECTID":247361},"geometry":{"x":170975.6400000006,"y":2544680.5399999972}},{"attributes":{"ID":247366,"DIS_CODE":0,"TOWNNAME":"善化區","LI":"嘉北里","LIN":"11鄰","STREET":" ","SECT":" ","MAREA":"茄拔","LANE":" ","ALLEY":" ","HOUSE_NO":"２０４號","E_COORD97":180843.95999999999,"N_COORD97":2560055.2599999998,"ADDRESS":"茄拔２０４號","OBJECTID":247362},"geometry":{"x":180843.95999999996,"y":2560055.2600000035}},{"attributes":{"ID":247367,"DIS_CODE":0,"TOWNNAME":"善化區","LI":"嘉北里","LIN":"11鄰","STREET":" ","SECT":" ","MAREA":"茄拔","LANE":" ","ALLEY":" ","HOUSE_NO":"２２０號之２","E_COORD97":180872.44,"N_COORD97":2559963.77,"ADDRESS":"茄拔２２０號之２","OBJECTID":247363},"geometry":{"x":180872.44000000134,"y":2559963.7700000033}},{"attributes":{"ID":247368,"DIS_CODE":0,"TOWNNAME":"善化區","LI":"嘉北里","LIN":"11鄰","STREET":" ","SECT":" ","MAREA":"茄拔","LANE":" ","ALLEY":" ","HOUSE_NO":"２０９之１號","E_COORD97":180862.84,"N_COORD97":2560005.27,"ADDRESS":"茄拔２０９之１號","OBJECTID":247364},"geometry":{"x":180862.84000000078,"y":2560005.2700000014}},{"attributes":{"ID":247369,"DIS_CODE":0,"TOWNNAME":"善化區","LI":"牛庄里","LIN":"11鄰","STREET":" ","SECT":" ","MAREA":"牛庄","LANE":" ","ALLEY":" ","HOUSE_NO":"１３１號","E_COORD97":179943.51999999999,"N_COORD97":2560077.5,"ADDRESS":"牛庄１３１號","OBJECTID":247365},"geometry":{"x":179943.52000000142,"y":2560077.4999999981}},{"attributes":{"ID":247370,"DIS_CODE":0,"TOWNNAME":"永康區","LI":"勝利里","LIN":"34鄰","STREET":"勝利街","SECT":" ","MAREA":" ","LANE":"１巷","ALLEY":" ","HOUSE_NO":"４４號十樓之１","E_COORD97":170974.25,"N_COORD97":2544680.54,"ADDRESS":"勝利街１巷４４號十樓之１","OBJECTID":247366},"geometry":{"x":170974.25,"y":2544680.5399999972}},{"attributes":{"ID":247371,"DIS_CODE":0,"TOWNNAME":"永康區","LI":"勝利里","LIN":"34鄰","STREET":"勝利街","SECT":" ","MAREA":" ","LANE":"１巷","ALLEY":" ","HOUSE_NO":"４６號八樓之１","E_COORD97":170989.26999999999,"N_COORD97":2544676.5499999998,"ADDRESS":"勝利街１巷４６號八樓之１","OBJECTID":247367},"geometry":{"x":170989.26999999955,"y":2544676.5500000026}},{"attributes":{"ID":247372,"DIS_CODE":0,"TOWNNAME":"永康區","LI":"勝利里","LIN":"34鄰","STREET":"勝利街","SECT":" ","MAREA":" ","LANE":"１巷","ALLEY":" ","HOUSE_NO":"４４號十三樓之３","E_COORD97":170975.60000000001,"N_COORD97":2544680.54,"ADDRESS":"勝利街１巷４４號十三樓之３","OBJECTID":247368},"geometry":{"x":170975.60000000056,"y":2544680.5399999972}},{"attributes":{"ID":247373,"DIS_CODE":0,"TOWNNAME":"永康區","LI":"勝利里","LIN":"34鄰","STREET":"勝利街","SECT":" ","MAREA":" ","LANE":"１巷","ALLEY":" ","HOUSE_NO":"４３號七樓之３","E_COORD97":170974.35000000001,"N_COORD97":2544680.54,"ADDRESS":"勝利街１巷４３號七樓之３","OBJECTID":247369},"geometry":{"x":170974.35000000056,"y":2544680.5399999972}},{"attributes":{"ID":247374,"DIS_CODE":0,"TOWNNAME":"永康區","LI":"勝利里","LIN":"34鄰","STREET":"勝利街","SECT":" ","MAREA":" ","LANE":"１巷","ALLEY":" ","HOUSE_NO":"４４號四樓之１","E_COORD97":170974.25,"N_COORD97":2544680.54,"ADDRESS":"勝利街１巷４４號四樓之１","OBJECTID":247370},"geometry":{"x":170974.25,"y":2544680.5399999972}},{"attributes":{"ID":247375,"DIS_CODE":0,"TOWNNAME":"永康區","LI":"龍潭里","LIN":"34鄰","STREET":"龍埔街","SECT":" ","MAREA":" ","LANE":"１３９巷","ALLEY":" ","HOUSE_NO":"８號八樓之１","E_COORD97":174534.04999999999,"N_COORD97":2548201.3199999998,"ADDRESS":"龍埔街１３９巷８號八樓之１","OBJECTID":247371},"geometry":{"x":174534.04999999888,"y":2548201.3200000003}},{"attributes":{"ID":247376,"DIS_CODE":0,"TOWNNAME":"永康區","LI":"勝利里","LIN":"34鄰","STREET":"勝利街","SECT":" ","MAREA":" ","LANE":"１巷","ALLEY":" ","HOUSE_NO":"４３號五樓之１","E_COORD97":170974.25,"N_COORD97":2544680.54,"ADDRESS":"勝利街１巷４３號五樓之１","OBJECTID":247372},"geometry":{"x":170974.25,"y":2544680.5399999972}},{"attributes":{"ID":247377,"DIS_CODE":0,"TOWNNAME":"永康區","LI":"勝利里","LIN":"34鄰","STREET":"勝利街","SECT":" ","MAREA":" ","LANE":"１巷","ALLEY":" ","HOUSE_NO":"４４號十一樓之３","E_COORD97":170975.60000000001,"N_COORD97":2544680.54,"ADDRESS":"勝利街１巷４４號十一樓之３","OBJECTID":247373},"geometry":{"x":170975.60000000056,"y":2544680.5399999972}},{"attributes":{"ID":247378,"DIS_CODE":0,"TOWNNAME":"南區","LI":"新生里","LIN":"14鄰","STREET":"大同路","SECT":"二段","MAREA":" ","LANE":" ","ALLEY":" ","HOUSE_NO":"１２２號七樓之１","E_COORD97":169276.57000000001,"N_COORD97":2542231.2000000002,"ADDRESS":"大同路二段１２２號七樓之１","OBJECTID":247374},"geometry":{"x":169276.57000000123,"y":2542231.1999999993}},{"attributes":{"ID":247379,"DIS_CODE":0,"TOWNNAME":"善化區","LI":"東昌里","LIN":"11鄰","STREET":" ","SECT":" ","MAREA":"東勢寮","LANE":" ","ALLEY":" ","HOUSE_NO":"１０３號之４","E_COORD97":180145.10000000001,"N_COORD97":2561826.77,"ADDRESS":"東勢寮１０３號之４","OBJECTID":247375},"geometry":{"x":180145.10000000056,"y":2561826.7699999996}},{"attributes":{"ID":247380,"DIS_CODE":0,"TOWNNAME":"北區","LI":"成德里","LIN":"34鄰","STREET":"育德一街","SECT":" ","MAREA":" ","LANE":"９２巷","ALLEY":" ","HOUSE_NO":"９號","E_COORD97":168576.73999999999,"N_COORD97":2546013.8300000001,"ADDRESS":"育德一街９２巷９號","OBJECTID":247376},"geometry":{"x":168576.74000000115,"y":2546013.8300000019}},{"attributes":{"ID":247381,"DIS_CODE":0,"TOWNNAME":"永康區","LI":"勝利里","LIN":"34鄰","STREET":"勝利街","SECT":" ","MAREA":" ","LANE":"１巷","ALLEY":" ","HOUSE_NO":"４７號十樓之１","E_COORD97":170989.26999999999,"N_COORD97":2544676.5499999998,"ADDRESS":"勝利街１巷４７號十樓之１","OBJECTID":247377},"geometry":{"x":170989.26999999955,"y":2544676.5500000026}},{"attributes":{"ID":247382,"DIS_CODE":0,"TOWNNAME":"善化區","LI":"牛庄里","LIN":"11鄰","STREET":" ","SECT":" ","MAREA":"牛庄","LANE":" ","ALLEY":" ","HOUSE_NO":"１３２號","E_COORD97":179931.76999999999,"N_COORD97":2560082.5,"ADDRESS":"牛庄１３２號","OBJECTID":247378},"geometry":{"x":179931.77000000048,"y":2560082.5000000019}},{"attributes":{"ID":247383,"DIS_CODE":0,"TOWNNAME":"永康區","LI":"勝利里","LIN":"34鄰","STREET":"勝利街","SECT":" ","MAREA":" ","LANE":"１巷","ALLEY":" ","HOUSE_NO":"４４號九樓之２","E_COORD97":170974.39000000001,"N_COORD97":2544680.54,"ADDRESS":"勝利街１巷４４號九樓之２","OBJECTID":247379},"geometry":{"x":170974.38999999966,"y":2544680.5399999972}},{"attributes":{"ID":247384,"DIS_CODE":0,"TOWNNAME":"善化區","LI":"東昌里","LIN":"11鄰","STREET":" ","SECT":" ","MAREA":"東勢寮","LANE":" ","ALLEY":" ","HOUSE_NO":"１０２號之１１","E_COORD97":180088.94,"N_COORD97":2561821.27,"ADDRESS":"東勢寮１０２號之１１","OBJECTID":247380},"geometry":{"x":180088.94000000227,"y":2561821.2699999977}},{"attributes":{"ID":247385,"DIS_CODE":0,"TOWNNAME":"善化區","LI":"溪美里","LIN":"11鄰","STREET":" ","SECT":" ","MAREA":"溪尾","LANE":" ","ALLEY":" ","HOUSE_NO":"１０２之５號","E_COORD97":176679.26999999999,"N_COORD97":2561478.27,"ADDRESS":"溪尾１０２之５號","OBJECTID":247381},"geometry":{"x":176679.27000000048,"y":2561478.2699999996}},{"attributes":{"ID":247386,"DIS_CODE":0,"TOWNNAME":"善化區","LI":"溪美里","LIN":"11鄰","STREET":" ","SECT":" ","MAREA":"溪尾","LANE":" ","ALLEY":" ","HOUSE_NO":"１０２號之４","E_COORD97":176721.54000000001,"N_COORD97":2561472.27,"ADDRESS":"溪尾１０２號之４","OBJECTID":247382},"geometry":{"x":176721.54000000097,"y":2561472.2700000033}},{"attributes":{"ID":247387,"DIS_CODE":0,"TOWNNAME":"善化區","LI":"嘉北里","LIN":"11鄰","STREET":" ","SECT":" ","MAREA":"茄拔","LANE":" ","ALLEY":" ","HOUSE_NO":"２１１號之２","E_COORD97":180845.48000000001,"N_COORD97":2560031.02,"ADDRESS":"茄拔２１１號之２","OBJECTID":247383},"geometry":{"x":180845.48000000138,"y":2560031.0200000014}},{"attributes":{"ID":247388,"DIS_CODE":0,"TOWNNAME":"善化區","LI":"嘉北里","LIN":"11鄰","STREET":" ","SECT":" ","MAREA":"茄拔","LANE":" ","ALLEY":" ","HOUSE_NO":"２１１號","E_COORD97":180833.89999999999,"N_COORD97":2560022.2599999998,"ADDRESS":"茄拔２１１號","OBJECTID":247384},"geometry":{"x":180833.9000000013,"y":2560022.2600000016}},{"attributes":{"ID":247389,"DIS_CODE":0,"TOWNNAME":"善化區","LI":"東昌里","LIN":"11鄰","STREET":" ","SECT":" ","MAREA":"東勢寮","LANE":" ","ALLEY":" ","HOUSE_NO":"１０７之２號","E_COORD97":180197.54999999999,"N_COORD97":2561828.02,"ADDRESS":"東勢寮１０７之２號","OBJECTID":247385},"geometry":{"x":180197.54999999981,"y":2561828.0200000014}},{"attributes":{"ID":247390,"DIS_CODE":0,"TOWNNAME":"善化區","LI":"溪美里","LIN":"11鄰","STREET":" ","SECT":" ","MAREA":"溪尾","LANE":" ","ALLEY":" ","HOUSE_NO":"１０２之１０號","E_COORD97":176691.76000000001,"N_COORD97":2561447.27,"ADDRESS":"溪尾１０２之１０號","OBJECTID":247386},"geometry":{"x":176691.75999999978,"y":2561447.2699999996}},{"attributes":{"ID":247391,"DIS_CODE":0,"TOWNNAME":"善化區","LI":"溪美里","LIN":"11鄰","STREET":" ","SECT":" ","MAREA":"溪尾","LANE":" ","ALLEY":" ","HOUSE_NO":"１０２號之３","E_COORD97":176726.23999999999,"N_COORD97":2561473.77,"ADDRESS":"溪尾１０２號之３","OBJECTID":247387},"geometry":{"x":176726.24000000022,"y":2561473.7700000014}},{"attributes":{"ID":247392,"DIS_CODE":0,"TOWNNAME":"善化區","LI":"東昌里","LIN":"11鄰","STREET":" ","SECT":" ","MAREA":"東勢寮","LANE":" ","ALLEY":" ","HOUSE_NO":"１０３號之１","E_COORD97":180140.51999999999,"N_COORD97":2561850.02,"ADDRESS":"東勢寮１０３號之１","OBJECTID":247388},"geometry":{"x":180140.52000000048,"y":2561850.0199999977}},{"attributes":{"ID":247393,"DIS_CODE":0,"TOWNNAME":"善化區","LI":"東昌里","LIN":"11鄰","STREET":" ","SECT":" ","MAREA":"東勢寮","LANE":" ","ALLEY":" ","HOUSE_NO":"１０２號之９","E_COORD97":180083.53,"N_COORD97":2561836.27,"ADDRESS":"東勢寮１０２號之９","OBJECTID":247389},"geometry":{"x":180083.53000000119,"y":2561836.2700000014}},{"attributes":{"ID":247394,"DIS_CODE":0,"TOWNNAME":"善化區","LI":"胡厝里","LIN":"11鄰","STREET":" ","SECT":" ","MAREA":"百二甲","LANE":" ","ALLEY":" ","HOUSE_NO":"２０號","E_COORD97":175227.67000000001,"N_COORD97":2559829.25,"ADDRESS":"百二甲２０號","OBJECTID":247390},"geometry":{"x":175227.66999999993,"y":2559829.2500000019}},{"attributes":{"ID":247395,"DIS_CODE":0,"TOWNNAME":"永康區","LI":"龍潭里","LIN":"34鄰","STREET":"龍埔街","SECT":" ","MAREA":" ","LANE":"１３９巷","ALLEY":" ","HOUSE_NO":"６號四樓之３","E_COORD97":174536.95000000001,"N_COORD97":2548220.8100000001,"ADDRESS":"龍埔街１３９巷６號四樓之３","OBJECTID":247391},"geometry":{"x":174536.95000000205,"y":2548220.8100000024}},{"attributes":{"ID":247396,"DIS_CODE":0,"TOWNNAME":"善化區","LI":"溪美里","LIN":"11鄰","STREET":" ","SECT":" ","MAREA":"溪尾","LANE":" ","ALLEY":" ","HOUSE_NO":"１０４之１號","E_COORD97":176752.5,"N_COORD97":2561446.77,"ADDRESS":"溪尾１０４之１號","OBJECTID":247392},"geometry":{"x":176752.50000000093,"y":2561446.7700000014}},{"attributes":{"ID":247397,"DIS_CODE":0,"TOWNNAME":"善化區","LI":"溪美里","LIN":"11鄰","STREET":" ","SECT":" ","MAREA":"溪尾","LANE":" ","ALLEY":" ","HOUSE_NO":"１０３號","E_COORD97":176710.89999999999,"N_COORD97":2561426.02,"ADDRESS":"溪尾１０３號","OBJECTID":247393},"geometry":{"x":176710.9000000013,"y":2561426.0199999996}},{"attributes":{"ID":247398,"DIS_CODE":0,"TOWNNAME":"善化區","LI":"溪美里","LIN":"11鄰","STREET":" ","SECT":" ","MAREA":"溪尾","LANE":" ","ALLEY":" ","HOUSE_NO":"１０２之８號","E_COORD97":176686.32000000001,"N_COORD97":2561459.52,"ADDRESS":"溪尾１０２之８號","OBJECTID":247394},"geometry":{"x":176686.32000000123,"y":2561459.5199999996}},{"attributes":{"ID":247399,"DIS_CODE":0,"TOWNNAME":"善化區","LI":"胡厝里","LIN":"11鄰","STREET":" ","SECT":" ","MAREA":"百二甲","LANE":" ","ALLEY":" ","HOUSE_NO":"１０之１號","E_COORD97":175350.64000000001,"N_COORD97":2559903.52,"ADDRESS":"百二甲１０之１號","OBJECTID":247395},"geometry":{"x":175350.6400000006,"y":2559903.5199999996}},{"attributes":{"ID":247400,"DIS_CODE":0,"TOWNNAME":"善化區","LI":"田寮里","LIN":"11鄰","STREET":" ","SECT":" ","MAREA":"六分寮","LANE":" ","ALLEY":" ","HOUSE_NO":"１１４號之６","E_COORD97":178676.32000000001,"N_COORD97":2561398.27,"ADDRESS":"六分寮１１４號之６","OBJECTID":247396},"geometry":{"x":178676.32000000123,"y":2561398.2700000014}},{"attributes":{"ID":247401,"DIS_CODE":0,"TOWNNAME":"善化區","LI":"田寮里","LIN":"11鄰","STREET":" ","SECT":" ","MAREA":"六分寮","LANE":" ","ALLEY":" ","HOUSE_NO":"１１４號之５","E_COORD97":178680.13,"N_COORD97":2561399.52,"ADDRESS":"六分寮１１４號之５","OBJECTID":247397},"geometry":{"x":178680.13000000175,"y":2561399.5200000033}},{"attributes":{"ID":247402,"DIS_CODE":0,"TOWNNAME":"永康區","LI":"勝利里","LIN":"34鄰","STREET":"勝利街","SECT":" ","MAREA":" ","LANE":"１巷","ALLEY":" ","HOUSE_NO":"４５號十二樓之１","E_COORD97":170975.5,"N_COORD97":2544680.54,"ADDRESS":"勝利街１巷４５號十二樓之１","OBJECTID":247398},"geometry":{"x":170975.50000000093,"y":2544680.5399999972}},{"attributes":{"ID":247403,"DIS_CODE":0,"TOWNNAME":"永康區","LI":"勝利里","LIN":"34鄰","STREET":"勝利街","SECT":" ","MAREA":" ","LANE":"１巷","ALLEY":" ","HOUSE_NO":"４４號十一樓之２","E_COORD97":170975.64000000001,"N_COORD97":2544680.54,"ADDRESS":"勝利街１巷４４號十一樓之２","OBJECTID":247399},"geometry":{"x":170975.6400000006,"y":2544680.5399999972}},{"attributes":{"ID":247404,"DIS_CODE":0,"TOWNNAME":"永康區","LI":"勝利里","LIN":"34鄰","STREET":"勝利街","SECT":" ","MAREA":" ","LANE":"１巷","ALLEY":" ","HOUSE_NO":"４４號九樓之３","E_COORD97":170974.35000000001,"N_COORD97":2544680.54,"ADDRESS":"勝利街１巷４４號九樓之３","OBJECTID":247400},"geometry":{"x":170974.35000000056,"y":2544680.5399999972}}]}