{"displayFieldName":"TOWNNAME","fieldAliases":{"ID":"ID","DIS_CODE":"DIS_CODE","TOWNNAME":"TOWNNAME","LI":"LI","LIN":"LIN","STREET":"STREET","SECT":"SECT","MAREA":"MAREA","LANE":"LANE","ALLEY":"ALLEY","HOUSE_NO":"HOUSE_NO","E_COORD97":"E_COORD97","N_COORD97":"N_COORD97","ADDRESS":"ADDRESS","OBJECTID":"OBJECTID"},"geometryType":"esriGeometryPoint","spatialReference":{"wkid":102443,"latestWkid":3826},"fields":[{"name":"ID","type":"esriFieldTypeDouble","alias":"ID"},{"name":"DIS_CODE","type":"esriFieldTypeInteger","alias":"DIS_CODE"},{"name":"TOWNNAME","type":"esriFieldTypeString","alias":"TOWNNAME","length":8},{"name":"LI","type":"esriFieldTypeString","alias":"LI","length":8},{"name":"LIN","type":"esriFieldTypeString","alias":"LIN","length":12},{"name":"STREET","type":"esriFieldTypeString","alias":"STREET","length":20},{"name":"SECT","type":"esriFieldTypeString","alias":"SECT","length":8},{"name":"MAREA","type":"esriFieldTypeString","alias":"MAREA","length":12},{"name":"LANE","type":"esriFieldTypeString","alias":"LANE","length":10},{"name":"ALLEY","type":"esriFieldTypeString","alias":"ALLEY","length":10},{"name":"HOUSE_NO","type":"esriFieldTypeString","alias":"HOUSE_NO","length":20},{"name":"E_COORD97","type":"esriFieldTypeDouble","alias":"E_COORD97"},{"name":"N_COORD97","type":"esriFieldTypeDouble","alias":"N_COORD97"},{"name":"ADDRESS","type":"esriFieldTypeString","alias":"ADDRESS","length":50},{"name":"OBJECTID","type":"esriFieldTypeOID","alias":"OBJECTID"}],"features":[{"attributes":{"ID":137401,"DIS_CODE":0,"TOWNNAME":"安定區","LI":"保西里","LIN":"6鄰","STREET":" ","SECT":" ","MAREA":"安定","LANE":" ","ALLEY":" ","HOUSE_NO":"３８６之４號","E_COORD97":171588.22,"N_COORD97":2557732.3199999998,"ADDRESS":"安定３８６之４號","OBJECTID":137401},"geometry":{"x":171588.21999999881,"y":2557732.3200000003}},{"attributes":{"ID":137402,"DIS_CODE":0,"TOWNNAME":"安定區","LI":"保西里","LIN":"6鄰","STREET":" ","SECT":" ","MAREA":"安定","LANE":" ","ALLEY":" ","HOUSE_NO":"３８８號","E_COORD97":171612.01999999999,"N_COORD97":2557713.3199999998,"ADDRESS":"安定３８８號","OBJECTID":137402},"geometry":{"x":171612.02000000048,"y":2557713.3200000022}},{"attributes":{"ID":137403,"DIS_CODE":0,"TOWNNAME":"永康區","LI":"北灣里","LIN":"27鄰","STREET":"文賢街","SECT":" ","MAREA":" ","LANE":"１０８巷","ALLEY":"５弄","HOUSE_NO":"８號","E_COORD97":175408.23999999999,"N_COORD97":2545489.3300000001,"ADDRESS":"文賢街１０８巷５弄８號","OBJECTID":137403},"geometry":{"x":175408.24000000115,"y":2545489.3300000001}},{"attributes":{"ID":137404,"DIS_CODE":0,"TOWNNAME":"永康區","LI":"北灣里","LIN":"27鄰","STREET":"文賢街","SECT":" ","MAREA":" ","LANE":"１０８巷","ALLEY":"８弄","HOUSE_NO":"２號","E_COORD97":175397.64999999999,"N_COORD97":2545437.8199999998,"ADDRESS":"文賢街１０８巷８弄２號","OBJECTID":137404},"geometry":{"x":175397.6500000013,"y":2545437.8200000022}},{"attributes":{"ID":137405,"DIS_CODE":0,"TOWNNAME":"鹽水區","LI":"橋南里","LIN":"15鄰","STREET":"南門路","SECT":" ","MAREA":" ","LANE":" ","ALLEY":" ","HOUSE_NO":"２號","E_COORD97":175021.79000000001,"N_COORD97":2579472.21,"ADDRESS":"南門路２號","OBJECTID":137405},"geometry":{"x":175021.79000000097,"y":2579472.2100000009}},{"attributes":{"ID":137406,"DIS_CODE":0,"TOWNNAME":"新化區","LI":"北勢里","LIN":"6鄰","STREET":" ","SECT":" ","MAREA":"北勢","LANE":" ","ALLEY":" ","HOUSE_NO":"１３３號之２０","E_COORD97":177363.47,"N_COORD97":2550139.2599999998,"ADDRESS":"北勢１３３號之２０","OBJECTID":137406},"geometry":{"x":177363.46999999974,"y":2550139.2600000016}},{"attributes":{"ID":137407,"DIS_CODE":0,"TOWNNAME":"安南區","LI":"新順里","LIN":"6鄰","STREET":"安生街","SECT":" ","MAREA":" ","LANE":" ","ALLEY":" ","HOUSE_NO":"１６８號","E_COORD97":169334.45999999999,"N_COORD97":2549556.4300000002,"ADDRESS":"安生街１６８號","OBJECTID":137407},"geometry":{"x":169334.46000000089,"y":2549556.4299999997}},{"attributes":{"ID":137408,"DIS_CODE":0,"TOWNNAME":"安南區","LI":"新順里","LIN":"6鄰","STREET":"安生街","SECT":" ","MAREA":" ","LANE":" ","ALLEY":" ","HOUSE_NO":"１７０號","E_COORD97":169329.89000000001,"N_COORD97":2549558.1400000001,"ADDRESS":"安生街１７０號","OBJECTID":137408},"geometry":{"x":169329.8900000006,"y":2549558.1400000025}},{"attributes":{"ID":137409,"DIS_CODE":0,"TOWNNAME":"安南區","LI":"淵東里","LIN":"6鄰","STREET":"本原街","SECT":"三段","MAREA":" ","LANE":" ","ALLEY":" ","HOUSE_NO":"１９２號","E_COORD97":165469.44,"N_COORD97":2550352.25,"ADDRESS":"本原街三段１９２號","OBJECTID":137409},"geometry":{"x":165469.44000000041,"y":2550352.2499999981}},{"attributes":{"ID":137410,"DIS_CODE":0,"TOWNNAME":"安南區","LI":"頂安里","LIN":"17鄰","STREET":"北安路","SECT":"二段","MAREA":" ","LANE":" ","ALLEY":" ","HOUSE_NO":"５２０號","E_COORD97":168348.73999999999,"N_COORD97":2548530.6699999999,"ADDRESS":"北安路二段５２０號","OBJECTID":137410},"geometry":{"x":168348.74000000022,"y":2548530.6699999999}},{"attributes":{"ID":137411,"DIS_CODE":0,"TOWNNAME":"永康區","LI":"正強里","LIN":"27鄰","STREET":"中正路","SECT":" ","MAREA":" ","LANE":"１５５巷","ALLEY":"６弄","HOUSE_NO":"２６號","E_COORD97":173157.23000000001,"N_COORD97":2547827.4900000002,"ADDRESS":"中正路１５５巷６弄２６號","OBJECTID":137411},"geometry":{"x":173157.23000000138,"y":2547827.4900000002}},{"attributes":{"ID":137412,"DIS_CODE":0,"TOWNNAME":"永康區","LI":"正強里","LIN":"27鄰","STREET":"中正路","SECT":" ","MAREA":" ","LANE":"１５５巷","ALLEY":"６弄","HOUSE_NO":"３２號","E_COORD97":173141.22,"N_COORD97":2547825.9900000002,"ADDRESS":"中正路１５５巷６弄３２號","OBJECTID":137412},"geometry":{"x":173141.2200000016,"y":2547825.9900000021}},{"attributes":{"ID":137413,"DIS_CODE":0,"TOWNNAME":"永康區","LI":"正強里","LIN":"27鄰","STREET":"中正路","SECT":" ","MAREA":" ","LANE":"１５５巷","ALLEY":"４弄","HOUSE_NO":"５號","E_COORD97":173207.64999999999,"N_COORD97":2547861.5,"ADDRESS":"中正路１５５巷４弄５號","OBJECTID":137413},"geometry":{"x":173207.65000000037,"y":2547861.5}},{"attributes":{"ID":137414,"DIS_CODE":0,"TOWNNAME":"永康區","LI":"正強里","LIN":"27鄰","STREET":"中正路","SECT":" ","MAREA":" ","LANE":"１５５巷","ALLEY":"４弄","HOUSE_NO":"１１號","E_COORD97":173193.39999999999,"N_COORD97":2547859.75,"ADDRESS":"中正路１５５巷４弄１１號","OBJECTID":137414},"geometry":{"x":173193.4000000013,"y":2547859.75}},{"attributes":{"ID":137415,"DIS_CODE":0,"TOWNNAME":"永康區","LI":"正強里","LIN":"27鄰","STREET":"中正路","SECT":" ","MAREA":" ","LANE":"１５５巷","ALLEY":"６弄","HOUSE_NO":"２８號","E_COORD97":173151.67999999999,"N_COORD97":2547826.9900000002,"ADDRESS":"中正路１５５巷６弄２８號","OBJECTID":137415},"geometry":{"x":173151.68000000156,"y":2547826.9900000002}},{"attributes":{"ID":137416,"DIS_CODE":0,"TOWNNAME":"永康區","LI":"正強里","LIN":"27鄰","STREET":"中正路","SECT":" ","MAREA":" ","LANE":"１５５巷","ALLEY":"４弄","HOUSE_NO":"７號","E_COORD97":173202.39999999999,"N_COORD97":2547861,"ADDRESS":"中正路１５５巷４弄７號","OBJECTID":137416},"geometry":{"x":173202.4000000013,"y":2547861}},{"attributes":{"ID":137417,"DIS_CODE":0,"TOWNNAME":"永康區","LI":"北灣里","LIN":"27鄰","STREET":"文賢街","SECT":" ","MAREA":" ","LANE":"１０８巷","ALLEY":"５弄","HOUSE_NO":"１０號","E_COORD97":175409.07000000001,"N_COORD97":2545496.8300000001,"ADDRESS":"文賢街１０８巷５弄１０號","OBJECTID":137417},"geometry":{"x":175409.0700000003,"y":2545496.8300000038}},{"attributes":{"ID":137418,"DIS_CODE":0,"TOWNNAME":"新市區","LI":"新和里","LIN":"27鄰","STREET":"永福街","SECT":" ","MAREA":" ","LANE":"１６巷","ALLEY":"１弄","HOUSE_NO":"３號","E_COORD97":177772.51000000001,"N_COORD97":2552715.25,"ADDRESS":"永福街１６巷１弄３號","OBJECTID":137418},"geometry":{"x":177772.51000000071,"y":2552715.2499999981}},{"attributes":{"ID":137419,"DIS_CODE":0,"TOWNNAME":"新市區","LI":"新市里","LIN":"27鄰","STREET":"復興路","SECT":" ","MAREA":" ","LANE":"６巷","ALLEY":"１９弄","HOUSE_NO":"３３號","E_COORD97":177878.04000000001,"N_COORD97":2553434.7799999998,"ADDRESS":"復興路６巷１９弄３３號","OBJECTID":137419},"geometry":{"x":177878.04000000097,"y":2553434.7800000012}},{"attributes":{"ID":137420,"DIS_CODE":0,"TOWNNAME":"新市區","LI":"新和里","LIN":"27鄰","STREET":"忠孝街","SECT":" ","MAREA":" ","LANE":"１７９巷","ALLEY":"１弄","HOUSE_NO":"１８號","E_COORD97":177676.45999999999,"N_COORD97":2552749,"ADDRESS":"忠孝街１７９巷１弄１８號","OBJECTID":137420},"geometry":{"x":177676.46000000089,"y":2552749.0000000019}},{"attributes":{"ID":137421,"DIS_CODE":0,"TOWNNAME":"新市區","LI":"新和里","LIN":"27鄰","STREET":"忠孝街","SECT":" ","MAREA":" ","LANE":"１７９巷","ALLEY":"１弄","HOUSE_NO":"１７號","E_COORD97":177687.42000000001,"N_COORD97":2552736.5,"ADDRESS":"忠孝街１７９巷１弄１７號","OBJECTID":137421},"geometry":{"x":177687.41999999993,"y":2552736.5}},{"attributes":{"ID":137422,"DIS_CODE":0,"TOWNNAME":"新市區","LI":"新市里","LIN":"27鄰","STREET":"復興路","SECT":" ","MAREA":" ","LANE":"６巷","ALLEY":"１９弄","HOUSE_NO":"４３號","E_COORD97":177875.48000000001,"N_COORD97":2553457.5299999998,"ADDRESS":"復興路６巷１９弄４３號","OBJECTID":137422},"geometry":{"x":177875.48000000138,"y":2553457.5299999993}},{"attributes":{"ID":137423,"DIS_CODE":0,"TOWNNAME":"新市區","LI":"新和里","LIN":"27鄰","STREET":"忠孝街","SECT":" ","MAREA":" ","LANE":"１７９巷","ALLEY":"１弄","HOUSE_NO":"１２號","E_COORD97":177678.62,"N_COORD97":2552758.5,"ADDRESS":"忠孝街１７９巷１弄１２號","OBJECTID":137423},"geometry":{"x":177678.62000000197,"y":2552758.5000000019}},{"attributes":{"ID":137424,"DIS_CODE":0,"TOWNNAME":"新市區","LI":"新和里","LIN":"27鄰","STREET":"忠孝街","SECT":" ","MAREA":" ","LANE":"１７９巷","ALLEY":"１弄","HOUSE_NO":"１０號","E_COORD97":177679.45999999999,"N_COORD97":2552763.5,"ADDRESS":"忠孝街１７９巷１弄１０號","OBJECTID":137424},"geometry":{"x":177679.46000000183,"y":2552763.5}},{"attributes":{"ID":137425,"DIS_CODE":0,"TOWNNAME":"新市區","LI":"新和里","LIN":"27鄰","STREET":"永福街","SECT":" ","MAREA":" ","LANE":"１６巷","ALLEY":"１弄","HOUSE_NO":"５號","E_COORD97":177761.64999999999,"N_COORD97":2552717.5,"ADDRESS":"永福街１６巷１弄５號","OBJECTID":137425},"geometry":{"x":177761.65000000224,"y":2552717.5000000019}},{"attributes":{"ID":137426,"DIS_CODE":0,"TOWNNAME":"新市區","LI":"新和里","LIN":"27鄰","STREET":"忠孝街","SECT":" ","MAREA":" ","LANE":"１７９巷","ALLEY":"１弄","HOUSE_NO":"２６號","E_COORD97":177673.37,"N_COORD97":2552734,"ADDRESS":"忠孝街１７９巷１弄２６號","OBJECTID":137426},"geometry":{"x":177673.36999999918,"y":2552734.0000000037}},{"attributes":{"ID":137427,"DIS_CODE":0,"TOWNNAME":"新市區","LI":"新和里","LIN":"27鄰","STREET":"忠孝街","SECT":" ","MAREA":" ","LANE":"１７９巷","ALLEY":"１弄","HOUSE_NO":"１９號","E_COORD97":177686.32000000001,"N_COORD97":2552731.25,"ADDRESS":"忠孝街１７９巷１弄１９號","OBJECTID":137427},"geometry":{"x":177686.32000000123,"y":2552731.25}},{"attributes":{"ID":137428,"DIS_CODE":0,"TOWNNAME":"新市區","LI":"新和里","LIN":"27鄰","STREET":"永福街","SECT":" ","MAREA":" ","LANE":"１６巷","ALLEY":"５１弄","HOUSE_NO":"３號","E_COORD97":177773.26000000001,"N_COORD97":2552809.25,"ADDRESS":"永福街１６巷５１弄３號","OBJECTID":137428},"geometry":{"x":177773.25999999978,"y":2552809.25}},{"attributes":{"ID":137429,"DIS_CODE":0,"TOWNNAME":"新市區","LI":"新和里","LIN":"27鄰","STREET":"永福街","SECT":" ","MAREA":" ","LANE":"１６巷","ALLEY":"５１弄","HOUSE_NO":"７號","E_COORD97":177764.76000000001,"N_COORD97":2552808.5,"ADDRESS":"永福街１６巷５１弄７號","OBJECTID":137429},"geometry":{"x":177764.75999999978,"y":2552808.4999999981}},{"attributes":{"ID":137430,"DIS_CODE":0,"TOWNNAME":"新市區","LI":"新和里","LIN":"27鄰","STREET":"忠孝街","SECT":" ","MAREA":" ","LANE":"１７９巷","ALLEY":"１弄","HOUSE_NO":"３號","E_COORD97":177693.07000000001,"N_COORD97":2552770.5,"ADDRESS":"忠孝街１７９巷１弄３號","OBJECTID":137430},"geometry":{"x":177693.07000000123,"y":2552770.5}},{"attributes":{"ID":137431,"DIS_CODE":0,"TOWNNAME":"新市區","LI":"新和里","LIN":"27鄰","STREET":"永福街","SECT":" ","MAREA":" ","LANE":"１６巷","ALLEY":"５１弄","HOUSE_NO":"１號","E_COORD97":177777.20000000001,"N_COORD97":2552809.75,"ADDRESS":"永福街１６巷５１弄１號","OBJECTID":137431},"geometry":{"x":177777.20000000112,"y":2552809.75}},{"attributes":{"ID":137432,"DIS_CODE":0,"TOWNNAME":"永康區","LI":"西灣里","LIN":"27鄰","STREET":"國光八街","SECT":" ","MAREA":" ","LANE":"１２巷","ALLEY":"３弄","HOUSE_NO":"１６號","E_COORD97":174385.78,"N_COORD97":2545824.4199999999,"ADDRESS":"國光八街１２巷３弄１６號","OBJECTID":137432},"geometry":{"x":174385.78000000119,"y":2545824.4199999999}},{"attributes":{"ID":137433,"DIS_CODE":0,"TOWNNAME":"永康區","LI":"西灣里","LIN":"27鄰","STREET":"國光八街","SECT":" ","MAREA":" ","LANE":"１２巷","ALLEY":"３弄","HOUSE_NO":"１８號","E_COORD97":174380.54000000001,"N_COORD97":2545821.02,"ADDRESS":"國光八街１２巷３弄１８號","OBJECTID":137433},"geometry":{"x":174380.54000000097,"y":2545821.0200000014}},{"attributes":{"ID":137434,"DIS_CODE":0,"TOWNNAME":"新化區","LI":"北勢里","LIN":"6鄰","STREET":" ","SECT":" ","MAREA":"北勢","LANE":" ","ALLEY":" ","HOUSE_NO":"１１４號之５","E_COORD97":176986.14000000001,"N_COORD97":2549741.2599999998,"ADDRESS":"北勢１１４號之５","OBJECTID":137434},"geometry":{"x":176986.13999999966,"y":2549741.2599999998}},{"attributes":{"ID":137435,"DIS_CODE":0,"TOWNNAME":"新化區","LI":"北勢里","LIN":"6鄰","STREET":" ","SECT":" ","MAREA":"北勢","LANE":" ","ALLEY":" ","HOUSE_NO":"９４號","E_COORD97":177223.63,"N_COORD97":2549645.2599999998,"ADDRESS":"北勢９４號","OBJECTID":137435},"geometry":{"x":177223.62999999989,"y":2549645.2599999998}},{"attributes":{"ID":137436,"DIS_CODE":0,"TOWNNAME":"新化區","LI":"北勢里","LIN":"6鄰","STREET":" ","SECT":" ","MAREA":"北勢","LANE":" ","ALLEY":" ","HOUSE_NO":"９３號之３","E_COORD97":177200.78,"N_COORD97":2549636.2599999998,"ADDRESS":"北勢９３號之３","OBJECTID":137436},"geometry":{"x":177200.78000000026,"y":2549636.2599999998}},{"attributes":{"ID":137437,"DIS_CODE":0,"TOWNNAME":"安南區","LI":"淵東里","LIN":"6鄰","STREET":"本原街","SECT":"三段","MAREA":" ","LANE":" ","ALLEY":" ","HOUSE_NO":"１８０號","E_COORD97":165482.59,"N_COORD97":2550355.6899999999,"ADDRESS":"本原街三段１８０號","OBJECTID":137437},"geometry":{"x":165482.58999999985,"y":2550355.6900000032}},{"attributes":{"ID":137438,"DIS_CODE":0,"TOWNNAME":"安南區","LI":"公親里","LIN":"6鄰","STREET":"公學路","SECT":"一段","MAREA":" ","LANE":" ","ALLEY":" ","HOUSE_NO":"１１３號之１０","E_COORD97":168315.07999999999,"N_COORD97":2552999.1000000001,"ADDRESS":"公學路一段１１３號之１０","OBJECTID":137438},"geometry":{"x":168315.08000000101,"y":2552999.1000000015}},{"attributes":{"ID":137439,"DIS_CODE":0,"TOWNNAME":"安南區","LI":"安慶里","LIN":"6鄰","STREET":"怡安路","SECT":"一段","MAREA":" ","LANE":" ","ALLEY":" ","HOUSE_NO":"３００號","E_COORD97":168930.07999999999,"N_COORD97":2549125.6899999999,"ADDRESS":"怡安路一段３００號","OBJECTID":137439},"geometry":{"x":168930.08000000101,"y":2549125.6900000013}},{"attributes":{"ID":137440,"DIS_CODE":0,"TOWNNAME":"安南區","LI":"安慶里","LIN":"6鄰","STREET":"怡安路","SECT":"一段","MAREA":" ","LANE":" ","ALLEY":" ","HOUSE_NO":"３０４號","E_COORD97":168915.87,"N_COORD97":2549127.2599999998,"ADDRESS":"怡安路一段３０４號","OBJECTID":137440},"geometry":{"x":168915.87000000011,"y":2549127.2599999998}},{"attributes":{"ID":137441,"DIS_CODE":0,"TOWNNAME":"安南區","LI":"安慶里","LIN":"6鄰","STREET":"怡安路","SECT":"一段","MAREA":" ","LANE":" ","ALLEY":" ","HOUSE_NO":"３０６號","E_COORD97":168909.35000000001,"N_COORD97":2549128.73,"ADDRESS":"怡安路一段３０６號","OBJECTID":137441},"geometry":{"x":168909.35000000056,"y":2549128.7300000004}},{"attributes":{"ID":137442,"DIS_CODE":0,"TOWNNAME":"安南區","LI":"海東里","LIN":"20鄰","STREET":"海東八街","SECT":" ","MAREA":" ","LANE":" ","ALLEY":" ","HOUSE_NO":"１０號","E_COORD97":166842.20999999999,"N_COORD97":2548279.77,"ADDRESS":"海東八街１０號","OBJECTID":137442},"geometry":{"x":166842.21000000183,"y":2548279.7699999996}},{"attributes":{"ID":137443,"DIS_CODE":0,"TOWNNAME":"安南區","LI":"海東里","LIN":"20鄰","STREET":"海東八街","SECT":" ","MAREA":" ","LANE":" ","ALLEY":" ","HOUSE_NO":"８號","E_COORD97":166846.97,"N_COORD97":2548282.4700000002,"ADDRESS":"海東八街８號","OBJECTID":137443},"geometry":{"x":166846.9700000016,"y":2548282.4700000007}},{"attributes":{"ID":137444,"DIS_CODE":0,"TOWNNAME":"安南區","LI":"州北里","LIN":"14鄰","STREET":"安和路","SECT":"五段","MAREA":" ","LANE":" ","ALLEY":" ","HOUSE_NO":"１４９之２號","E_COORD97":169864.48999999999,"N_COORD97":2551795.4300000002,"ADDRESS":"安和路五段１４９之２號","OBJECTID":137444},"geometry":{"x":169864.49000000022,"y":2551795.4300000016}},{"attributes":{"ID":137445,"DIS_CODE":0,"TOWNNAME":"安南區","LI":"東和里","LIN":"7鄰","STREET":"長和路","SECT":"一段","MAREA":" ","LANE":" ","ALLEY":" ","HOUSE_NO":"１６６號","E_COORD97":171786.59,"N_COORD97":2550520.8700000001,"ADDRESS":"長和路一段１６６號","OBJECTID":137445},"geometry":{"x":171786.59000000078,"y":2550520.870000001}},{"attributes":{"ID":137446,"DIS_CODE":0,"TOWNNAME":"安南區","LI":"溪心里","LIN":"4鄰","STREET":"安吉路","SECT":"二段","MAREA":" ","LANE":" ","ALLEY":" ","HOUSE_NO":"７１號","E_COORD97":167041.66,"N_COORD97":2550785.8500000001,"ADDRESS":"安吉路二段７１號","OBJECTID":137446},"geometry":{"x":167041.66000000108,"y":2550785.8500000015}},{"attributes":{"ID":137447,"DIS_CODE":0,"TOWNNAME":"安南區","LI":"溪心里","LIN":"4鄰","STREET":"安吉路","SECT":"二段","MAREA":" ","LANE":" ","ALLEY":" ","HOUSE_NO":"７３號","E_COORD97":167044.62,"N_COORD97":2550791.5899999999,"ADDRESS":"安吉路二段７３號","OBJECTID":137447},"geometry":{"x":167044.62000000197,"y":2550791.5900000017}},{"attributes":{"ID":137448,"DIS_CODE":0,"TOWNNAME":"永康區","LI":"西灣里","LIN":"27鄰","STREET":"國光八街","SECT":" ","MAREA":" ","LANE":"１２巷","ALLEY":"３弄","HOUSE_NO":"２０號","E_COORD97":174376.51000000001,"N_COORD97":2545823.9900000002,"ADDRESS":"國光八街１２巷３弄２０號","OBJECTID":137448},"geometry":{"x":174376.50999999978,"y":2545823.9900000002}},{"attributes":{"ID":137449,"DIS_CODE":0,"TOWNNAME":"永康區","LI":"北灣里","LIN":"27鄰","STREET":"文賢街","SECT":" ","MAREA":" ","LANE":"１０８巷","ALLEY":"５弄","HOUSE_NO":"７號","E_COORD97":175398.95000000001,"N_COORD97":2545497.0800000001,"ADDRESS":"文賢街１０８巷５弄７號","OBJECTID":137449},"geometry":{"x":175398.95000000019,"y":2545497.0800000001}},{"attributes":{"ID":137450,"DIS_CODE":0,"TOWNNAME":"永康區","LI":"尚頂里","LIN":"27鄰","STREET":"南台街","SECT":" ","MAREA":" ","LANE":"５４巷","ALLEY":"３９弄","HOUSE_NO":"１５號","E_COORD97":170310.41,"N_COORD97":2547030.5,"ADDRESS":"南台街５４巷３９弄１５號","OBJECTID":137450},"geometry":{"x":170310.41000000015,"y":2547030.5}},{"attributes":{"ID":137451,"DIS_CODE":0,"TOWNNAME":"永康區","LI":"正強里","LIN":"27鄰","STREET":"中正路","SECT":" ","MAREA":" ","LANE":"２０９巷","ALLEY":"３弄","HOUSE_NO":"１６號","E_COORD97":173177.47,"N_COORD97":2547893.25,"ADDRESS":"中正路２０９巷３弄１６號","OBJECTID":137451},"geometry":{"x":173177.47000000067,"y":2547893.25}},{"attributes":{"ID":137452,"DIS_CODE":0,"TOWNNAME":"安南區","LI":"溪心里","LIN":"4鄰","STREET":"安吉路","SECT":"二段","MAREA":" ","LANE":" ","ALLEY":" ","HOUSE_NO":"７７號","E_COORD97":167044.42999999999,"N_COORD97":2550801.0299999998,"ADDRESS":"安吉路二段７７號","OBJECTID":137452},"geometry":{"x":167044.43000000063,"y":2550801.0300000012}},{"attributes":{"ID":137453,"DIS_CODE":0,"TOWNNAME":"永康區","LI":"北灣里","LIN":"27鄰","STREET":"文賢街","SECT":" ","MAREA":" ","LANE":"１０８巷","ALLEY":"５弄","HOUSE_NO":"１號","E_COORD97":175398.29000000001,"N_COORD97":2545477.5800000001,"ADDRESS":"文賢街１０８巷５弄１號","OBJECTID":137453},"geometry":{"x":175398.29000000004,"y":2545477.5800000001}},{"attributes":{"ID":137454,"DIS_CODE":0,"TOWNNAME":"永康區","LI":"東橋里","LIN":"27鄰","STREET":"中正路","SECT":" ","MAREA":" ","LANE":"２７９巷","ALLEY":"２１弄","HOUSE_NO":"５７號","E_COORD97":172684.14999999999,"N_COORD97":2547837.7400000002,"ADDRESS":"中正路２７９巷２１弄５７號","OBJECTID":137454},"geometry":{"x":172684.15000000037,"y":2547837.7400000021}},{"attributes":{"ID":137455,"DIS_CODE":0,"TOWNNAME":"永康區","LI":"西勢里","LIN":"27鄰","STREET":"廣興街","SECT":" ","MAREA":" ","LANE":"３８巷","ALLEY":"３４弄","HOUSE_NO":"８號","E_COORD97":176039.73000000001,"N_COORD97":2546416.3100000001,"ADDRESS":"廣興街３８巷３４弄８號","OBJECTID":137455},"geometry":{"x":176039.73000000138,"y":2546416.3100000042}},{"attributes":{"ID":137456,"DIS_CODE":0,"TOWNNAME":"永康區","LI":"西勢里","LIN":"27鄰","STREET":"廣興街","SECT":" ","MAREA":" ","LANE":"３８巷","ALLEY":"２６弄","HOUSE_NO":"１７號","E_COORD97":175993.10000000001,"N_COORD97":2546427.2999999998,"ADDRESS":"廣興街３８巷２６弄１７號","OBJECTID":137456},"geometry":{"x":175993.10000000149,"y":2546427.3000000026}},{"attributes":{"ID":137457,"DIS_CODE":0,"TOWNNAME":"後壁區","LI":"墨林里","LIN":" ","STREET":" ","SECT":" ","MAREA":"菁寮","LANE":" ","ALLEY":" ","HOUSE_NO":"３４３號","E_COORD97":182118.14000000001,"N_COORD97":2586337.71,"ADDRESS":"菁寮３４３號","OBJECTID":137457},"geometry":{"x":182118.1400000006,"y":2586337.7100000009}},{"attributes":{"ID":137458,"DIS_CODE":0,"TOWNNAME":"安南區","LI":"溪心里","LIN":"4鄰","STREET":"安吉路","SECT":"二段","MAREA":" ","LANE":" ","ALLEY":" ","HOUSE_NO":"６９號","E_COORD97":167035.594354,"N_COORD97":2550763.58568,"ADDRESS":"安吉路二段６９號","OBJECTID":137458},"geometry":{"x":167035.59435400087,"y":2550763.5856820047}},{"attributes":{"ID":137459,"DIS_CODE":0,"TOWNNAME":"東區","LI":"仁和里","LIN":"27鄰","STREET":"仁和路","SECT":" ","MAREA":" ","LANE":"１３９巷","ALLEY":"５１弄","HOUSE_NO":"１９號之１０","E_COORD97":171717.57999999999,"N_COORD97":2541161,"ADDRESS":"仁和路１３９巷５１弄１９號之１０","OBJECTID":137459},"geometry":{"x":171717.58000000101,"y":2541161.0000000019}},{"attributes":{"ID":137460,"DIS_CODE":0,"TOWNNAME":"東區","LI":"仁和里","LIN":"27鄰","STREET":"仁和路","SECT":" ","MAREA":" ","LANE":"１３９巷","ALLEY":"５１弄","HOUSE_NO":"１９號之１１","E_COORD97":171717.57999999999,"N_COORD97":2541165.1699999999,"ADDRESS":"仁和路１３９巷５１弄１９號之１１","OBJECTID":137460},"geometry":{"x":171717.58000000101,"y":2541165.1700000037}},{"attributes":{"ID":137461,"DIS_CODE":0,"TOWNNAME":"東區","LI":"仁和里","LIN":"27鄰","STREET":"仁和路","SECT":" ","MAREA":" ","LANE":"１３９巷","ALLEY":"５１弄","HOUSE_NO":"１９號之１２","E_COORD97":171716.76000000001,"N_COORD97":2541169.7999999998,"ADDRESS":"仁和路１３９巷５１弄１９號之１２","OBJECTID":137461},"geometry":{"x":171716.75999999978,"y":2541169.8000000026}},{"attributes":{"ID":137462,"DIS_CODE":0,"TOWNNAME":"東區","LI":"仁和里","LIN":"27鄰","STREET":"仁和路","SECT":" ","MAREA":" ","LANE":"１３９巷","ALLEY":"５１弄","HOUSE_NO":"１９號之１３","E_COORD97":171716.76000000001,"N_COORD97":2541172.6800000002,"ADDRESS":"仁和路１３９巷５１弄１９號之１３","OBJECTID":137462},"geometry":{"x":171716.75999999978,"y":2541172.6800000016}},{"attributes":{"ID":137463,"DIS_CODE":0,"TOWNNAME":"安南區","LI":"溪心里","LIN":"4鄰","STREET":"安吉路","SECT":"二段","MAREA":" ","LANE":" ","ALLEY":" ","HOUSE_NO":"７５號","E_COORD97":167044.42999999999,"N_COORD97":2550795.8500000001,"ADDRESS":"安吉路二段７５號","OBJECTID":137463},"geometry":{"x":167044.43000000063,"y":2550795.8500000015}},{"attributes":{"ID":137464,"DIS_CODE":0,"TOWNNAME":"後壁區","LI":"墨林里","LIN":" ","STREET":" ","SECT":" ","MAREA":"菁寮","LANE":" ","ALLEY":" ","HOUSE_NO":"２５９號","E_COORD97":182228.44,"N_COORD97":2586433.5,"ADDRESS":"菁寮２５９號","OBJECTID":137464},"geometry":{"x":182228.44000000134,"y":2586433.5}},{"attributes":{"ID":137465,"DIS_CODE":0,"TOWNNAME":"後壁區","LI":"墨林里","LIN":" ","STREET":" ","SECT":" ","MAREA":"菁寮","LANE":" ","ALLEY":" ","HOUSE_NO":"２６２之１３號","E_COORD97":182277.57000000001,"N_COORD97":2586379.8300000001,"ADDRESS":"菁寮２６２之１３號","OBJECTID":137465},"geometry":{"x":182277.5700000003,"y":2586379.8300000001}},{"attributes":{"ID":137466,"DIS_CODE":0,"TOWNNAME":"後壁區","LI":"墨林里","LIN":" ","STREET":" ","SECT":" ","MAREA":"菁寮","LANE":" ","ALLEY":" ","HOUSE_NO":"２６２之１號","E_COORD97":182224.75,"N_COORD97":2586383.8900000001,"ADDRESS":"菁寮２６２之１號","OBJECTID":137466},"geometry":{"x":182224.75000000093,"y":2586383.8900000006}},{"attributes":{"ID":137467,"DIS_CODE":0,"TOWNNAME":"後壁區","LI":"墨林里","LIN":" ","STREET":" ","SECT":" ","MAREA":"菁寮","LANE":" ","ALLEY":" ","HOUSE_NO":"２６７之１號","E_COORD97":182270.82000000001,"N_COORD97":2586397.8399999999,"ADDRESS":"菁寮２６７之１號","OBJECTID":137467},"geometry":{"x":182270.8200000003,"y":2586397.8399999999}},{"attributes":{"ID":137468,"DIS_CODE":0,"TOWNNAME":"後壁區","LI":"墨林里","LIN":" ","STREET":" ","SECT":" ","MAREA":"菁寮","LANE":" ","ALLEY":" ","HOUSE_NO":"２６７之３號","E_COORD97":182278.92999999999,"N_COORD97":2586397.3900000001,"ADDRESS":"菁寮２６７之３號","OBJECTID":137468},"geometry":{"x":182278.93000000063,"y":2586397.3900000006}},{"attributes":{"ID":137469,"DIS_CODE":0,"TOWNNAME":"東區","LI":"仁和里","LIN":"27鄰","STREET":"仁和路","SECT":" ","MAREA":" ","LANE":"１３９巷","ALLEY":"５１弄","HOUSE_NO":"１９號之４","E_COORD97":171718.76999999999,"N_COORD97":2541125.52,"ADDRESS":"仁和路１３９巷５１弄１９號之４","OBJECTID":137469},"geometry":{"x":171718.77000000048,"y":2541125.5200000014}},{"attributes":{"ID":137470,"DIS_CODE":0,"TOWNNAME":"東區","LI":"仁和里","LIN":"27鄰","STREET":"仁和路","SECT":" ","MAREA":" ","LANE":"１３９巷","ALLEY":"５１弄","HOUSE_NO":"１９號之５","E_COORD97":171718.76999999999,"N_COORD97":2541129.1899999999,"ADDRESS":"仁和路１３９巷５１弄１９號之５","OBJECTID":137470},"geometry":{"x":171718.77000000048,"y":2541129.1899999995}},{"attributes":{"ID":137471,"DIS_CODE":0,"TOWNNAME":"東區","LI":"仁和里","LIN":"27鄰","STREET":"仁和路","SECT":" ","MAREA":" ","LANE":"１３９巷","ALLEY":"５１弄","HOUSE_NO":"１９號之６","E_COORD97":171718.57999999999,"N_COORD97":2541139.1400000001,"ADDRESS":"仁和路１３９巷５１弄１９號之６","OBJECTID":137471},"geometry":{"x":171718.58000000194,"y":2541139.1400000025}},{"attributes":{"ID":137472,"DIS_CODE":0,"TOWNNAME":"安南區","LI":"溪東里","LIN":"19鄰","STREET":"府安路","SECT":"五段","MAREA":" ","LANE":"１１巷","ALLEY":"９３弄","HOUSE_NO":"４７號","E_COORD97":168269.56,"N_COORD97":2547600.5699999998,"ADDRESS":"府安路五段１１巷９３弄４７號","OBJECTID":137472},"geometry":{"x":168269.55999999959,"y":2547600.5700000003}},{"attributes":{"ID":137473,"DIS_CODE":0,"TOWNNAME":"安南區","LI":"溪東里","LIN":"19鄰","STREET":"府安路","SECT":"五段","MAREA":" ","LANE":"１１巷","ALLEY":"９３弄","HOUSE_NO":"４８號","E_COORD97":168256.38,"N_COORD97":2547617.96,"ADDRESS":"府安路五段１１巷９３弄４８號","OBJECTID":137473},"geometry":{"x":168256.38000000175,"y":2547617.9600000009}},{"attributes":{"ID":137474,"DIS_CODE":0,"TOWNNAME":"安南區","LI":"溪東里","LIN":"19鄰","STREET":"府安路","SECT":"五段","MAREA":" ","LANE":"１１巷","ALLEY":"９３弄","HOUSE_NO":"４９號","E_COORD97":168263.37,"N_COORD97":2547600.6899999999,"ADDRESS":"府安路五段１１巷９３弄４９號","OBJECTID":137474},"geometry":{"x":168263.36999999918,"y":2547600.6900000013}},{"attributes":{"ID":137475,"DIS_CODE":0,"TOWNNAME":"安南區","LI":"溪東里","LIN":"19鄰","STREET":"府安路","SECT":"五段","MAREA":" ","LANE":"１１巷","ALLEY":"９３弄","HOUSE_NO":"２之１號","E_COORD97":168407.85000000001,"N_COORD97":2547635.1299999999,"ADDRESS":"府安路五段１１巷９３弄２之１號","OBJECTID":137475},"geometry":{"x":168407.85000000056,"y":2547635.129999999}},{"attributes":{"ID":137476,"DIS_CODE":0,"TOWNNAME":"東區","LI":"仁和里","LIN":"27鄰","STREET":"仁和路","SECT":" ","MAREA":" ","LANE":"１３９巷","ALLEY":"５１弄","HOUSE_NO":"１９號之７","E_COORD97":171717.51999999999,"N_COORD97":2541146.4199999999,"ADDRESS":"仁和路１３９巷５１弄１９號之７","OBJECTID":137476},"geometry":{"x":171717.51999999955,"y":2541146.4200000037}},{"attributes":{"ID":137477,"DIS_CODE":0,"TOWNNAME":"新化區","LI":"協興里","LIN":"6鄰","STREET":"忠孝路","SECT":" ","MAREA":" ","LANE":" ","ALLEY":" ","HOUSE_NO":"１９８號之１","E_COORD97":178360.25,"N_COORD97":2548558.2599999998,"ADDRESS":"忠孝路１９８號之１","OBJECTID":137477},"geometry":{"x":178360.25,"y":2548558.2599999998}},{"attributes":{"ID":137478,"DIS_CODE":0,"TOWNNAME":"新化區","LI":"協興里","LIN":"6鄰","STREET":"忠孝路","SECT":" ","MAREA":" ","LANE":" ","ALLEY":" ","HOUSE_NO":"１９８號之６","E_COORD97":178339.57000000001,"N_COORD97":2548548.2599999998,"ADDRESS":"忠孝路１９８號之６","OBJECTID":137478},"geometry":{"x":178339.5700000003,"y":2548548.2599999979}},{"attributes":{"ID":137479,"DIS_CODE":0,"TOWNNAME":"東區","LI":"仁和里","LIN":"27鄰","STREET":"仁和路","SECT":" ","MAREA":" ","LANE":"１３９巷","ALLEY":"５１弄","HOUSE_NO":"１９號之８","E_COORD97":171718.28,"N_COORD97":2541153.71,"ADDRESS":"仁和路１３９巷５１弄１９號之８","OBJECTID":137479},"geometry":{"x":171718.28000000026,"y":2541153.7100000028}},{"attributes":{"ID":137480,"DIS_CODE":0,"TOWNNAME":"東區","LI":"仁和里","LIN":"27鄰","STREET":"仁和路","SECT":" ","MAREA":" ","LANE":"１３９巷","ALLEY":"５１弄","HOUSE_NO":"１９號之９","E_COORD97":171717.85000000001,"N_COORD97":2541156.29,"ADDRESS":"仁和路１３９巷５１弄１９號之９","OBJECTID":137480},"geometry":{"x":171717.85000000149,"y":2541156.2899999972}},{"attributes":{"ID":137481,"DIS_CODE":0,"TOWNNAME":"新化區","LI":"協興里","LIN":"6鄰","STREET":"忠孝路","SECT":" ","MAREA":" ","LANE":" ","ALLEY":" ","HOUSE_NO":"１９８號之３","E_COORD97":178351.47,"N_COORD97":2548554.2599999998,"ADDRESS":"忠孝路１９８號之３","OBJECTID":137481},"geometry":{"x":178351.46999999974,"y":2548554.2599999998}},{"attributes":{"ID":137482,"DIS_CODE":0,"TOWNNAME":"新化區","LI":"協興里","LIN":"6鄰","STREET":"忠孝路","SECT":" ","MAREA":" ","LANE":" ","ALLEY":" ","HOUSE_NO":"１９８號之４","E_COORD97":178347.66,"N_COORD97":2548552.2599999998,"ADDRESS":"忠孝路１９８號之４","OBJECTID":137482},"geometry":{"x":178347.66000000015,"y":2548552.2600000016}},{"attributes":{"ID":137483,"DIS_CODE":0,"TOWNNAME":"新化區","LI":"太平里","LIN":"6鄰","STREET":"民生路","SECT":" ","MAREA":" ","LANE":" ","ALLEY":" ","HOUSE_NO":"２７０號","E_COORD97":178976.60999999999,"N_COORD97":2549136.25,"ADDRESS":"民生路２７０號","OBJECTID":137483},"geometry":{"x":178976.61000000034,"y":2549136.2500000019}},{"attributes":{"ID":137484,"DIS_CODE":0,"TOWNNAME":"安南區","LI":"溪心里","LIN":"4鄰","STREET":"安吉路","SECT":"二段","MAREA":" ","LANE":" ","ALLEY":" ","HOUSE_NO":"７９號","E_COORD97":167044.42999999999,"N_COORD97":2550805.6600000001,"ADDRESS":"安吉路二段７９號","OBJECTID":137484},"geometry":{"x":167044.43000000063,"y":2550805.660000002}},{"attributes":{"ID":137485,"DIS_CODE":0,"TOWNNAME":"永康區","LI":"正強里","LIN":"27鄰","STREET":"中正路","SECT":" ","MAREA":" ","LANE":"１５５巷","ALLEY":"６弄","HOUSE_NO":"２０號","E_COORD97":173173.17999999999,"N_COORD97":2547828.9900000002,"ADDRESS":"中正路１５５巷６弄２０號","OBJECTID":137485},"geometry":{"x":173173.1799999997,"y":2547828.9900000021}},{"attributes":{"ID":137486,"DIS_CODE":0,"TOWNNAME":"永康區","LI":"崑山里","LIN":"27鄰","STREET":"大灣路","SECT":" ","MAREA":" ","LANE":"９４２巷","ALLEY":"７１弄","HOUSE_NO":"２７８號","E_COORD97":173525.95000000001,"N_COORD97":2544716.5299999998,"ADDRESS":"大灣路９４２巷７１弄２７８號","OBJECTID":137486},"geometry":{"x":173525.95000000019,"y":2544716.5300000012}},{"attributes":{"ID":137487,"DIS_CODE":0,"TOWNNAME":"安南區","LI":"溪心里","LIN":"4鄰","STREET":"安吉路","SECT":"二段","MAREA":" ","LANE":" ","ALLEY":" ","HOUSE_NO":"８１號","E_COORD97":167040.040748,"N_COORD97":2550810.36399,"ADDRESS":"安吉路二段８１號","OBJECTID":137487},"geometry":{"x":167040.04074800108,"y":2550810.3639899995}},{"attributes":{"ID":137488,"DIS_CODE":0,"TOWNNAME":"永康區","LI":"東橋里","LIN":"27鄰","STREET":"中正路","SECT":" ","MAREA":" ","LANE":"２７９巷","ALLEY":"２１弄","HOUSE_NO":"１７號","E_COORD97":172576.26000000001,"N_COORD97":2547840.4900000002,"ADDRESS":"中正路２７９巷２１弄１７號","OBJECTID":137488},"geometry":{"x":172576.25999999978,"y":2547840.4900000002}},{"attributes":{"ID":137489,"DIS_CODE":0,"TOWNNAME":"永康區","LI":"尚頂里","LIN":"27鄰","STREET":"南台街","SECT":" ","MAREA":" ","LANE":"５４巷","ALLEY":"３９弄","HOUSE_NO":"２０號","E_COORD97":170293.57000000001,"N_COORD97":2547050,"ADDRESS":"南台街５４巷３９弄２０號","OBJECTID":137489},"geometry":{"x":170293.57000000123,"y":2547050.0000000019}},{"attributes":{"ID":137490,"DIS_CODE":0,"TOWNNAME":"安南區","LI":"城北里","LIN":"7鄰","STREET":"安中路","SECT":"六段","MAREA":" ","LANE":" ","ALLEY":" ","HOUSE_NO":"４８６之５號","E_COORD97":161018.67000000001,"N_COORD97":2551331.1800000002,"ADDRESS":"安中路六段４８６之５號","OBJECTID":137490},"geometry":{"x":161018.66999999993,"y":2551331.1799999997}},{"attributes":{"ID":137491,"DIS_CODE":0,"TOWNNAME":"新化區","LI":"全興里","LIN":"6鄰","STREET":" ","SECT":" ","MAREA":"竹子\u25A0","LANE":" ","ALLEY":" ","HOUSE_NO":"８１號之２","E_COORD97":177596.23999999999,"N_COORD97":2547787.2599999998,"ADDRESS":"竹子\u25A0８１號之２","OBJECTID":137491},"geometry":{"x":177596.24000000022,"y":2547787.2600000016}},{"attributes":{"ID":137492,"DIS_CODE":0,"TOWNNAME":"新化區","LI":"北勢里","LIN":"6鄰","STREET":" ","SECT":" ","MAREA":"北勢","LANE":" ","ALLEY":" ","HOUSE_NO":"１１２號","E_COORD97":177151.98000000001,"N_COORD97":2549735.2599999998,"ADDRESS":"北勢１１２號","OBJECTID":137492},"geometry":{"x":177151.98000000045,"y":2549735.2600000035}},{"attributes":{"ID":137493,"DIS_CODE":0,"TOWNNAME":"新化區","LI":"北勢里","LIN":"6鄰","STREET":" ","SECT":" ","MAREA":"北勢","LANE":" ","ALLEY":" ","HOUSE_NO":"１０４號","E_COORD97":177170.38,"N_COORD97":2549651.2599999998,"ADDRESS":"北勢１０４號","OBJECTID":137493},"geometry":{"x":177170.38000000082,"y":2549651.2600000016}},{"attributes":{"ID":137494,"DIS_CODE":0,"TOWNNAME":"新化區","LI":"北勢里","LIN":"6鄰","STREET":" ","SECT":" ","MAREA":"北勢","LANE":" ","ALLEY":" ","HOUSE_NO":"１１２號之１","E_COORD97":177158.51000000001,"N_COORD97":2549737.2599999998,"ADDRESS":"北勢１１２號之１","OBJECTID":137494},"geometry":{"x":177158.51000000164,"y":2549737.2599999998}},{"attributes":{"ID":137495,"DIS_CODE":0,"TOWNNAME":"後壁區","LI":"墨林里","LIN":" ","STREET":" ","SECT":" ","MAREA":"菁寮","LANE":" ","ALLEY":" ","HOUSE_NO":"２６７之４號","E_COORD97":182282.67999999999,"N_COORD97":2586397.3599999999,"ADDRESS":"菁寮２６７之４號","OBJECTID":137495},"geometry":{"x":182282.68000000063,"y":2586397.3599999975}},{"attributes":{"ID":137496,"DIS_CODE":0,"TOWNNAME":"永康區","LI":"正強里","LIN":"27鄰","STREET":"中正路","SECT":" ","MAREA":" ","LANE":"１５５巷","ALLEY":"４弄","HOUSE_NO":"９號","E_COORD97":173197.14999999999,"N_COORD97":2547860.5,"ADDRESS":"中正路１５５巷４弄９號","OBJECTID":137496},"geometry":{"x":173197.1500000013,"y":2547860.5}},{"attributes":{"ID":137497,"DIS_CODE":0,"TOWNNAME":"永康區","LI":"正強里","LIN":"27鄰","STREET":"中正路","SECT":" ","MAREA":" ","LANE":"１５５巷","ALLEY":"４弄","HOUSE_NO":"４號","E_COORD97":173212.07000000001,"N_COORD97":2547874.5499999998,"ADDRESS":"中正路１５５巷４弄４號","OBJECTID":137497},"geometry":{"x":173212.0700000003,"y":2547874.5500000007}},{"attributes":{"ID":137498,"DIS_CODE":0,"TOWNNAME":"中西區","LI":"西賢里","LIN":"10鄰","STREET":"西賢一街","SECT":" ","MAREA":" ","LANE":"１４８巷","ALLEY":"３弄","HOUSE_NO":"６號","E_COORD97":165762.87,"N_COORD97":2544763.9300000002,"ADDRESS":"西賢一街１４８巷３弄６號","OBJECTID":137498},"geometry":{"x":165762.87000000011,"y":2544763.9300000016}},{"attributes":{"ID":137499,"DIS_CODE":0,"TOWNNAME":"中西區","LI":"西賢里","LIN":"10鄰","STREET":"西賢一街","SECT":" ","MAREA":" ","LANE":"１４８巷","ALLEY":"３弄","HOUSE_NO":"７號","E_COORD97":165747.70999999999,"N_COORD97":2544776.9500000002,"ADDRESS":"西賢一街１４８巷３弄７號","OBJECTID":137499},"geometry":{"x":165747.71000000089,"y":2544776.9500000011}},{"attributes":{"ID":137500,"DIS_CODE":0,"TOWNNAME":"新化區","LI":"北勢里","LIN":"6鄰","STREET":" ","SECT":" ","MAREA":"北勢","LANE":" ","ALLEY":" ","HOUSE_NO":"１１６號之１","E_COORD97":177169.41,"N_COORD97":2549632.2599999998,"ADDRESS":"北勢１１６號之１","OBJECTID":137500},"geometry":{"x":177169.41000000015,"y":2549632.2599999998}},{"attributes":{"ID":137501,"DIS_CODE":0,"TOWNNAME":"中西區","LI":"西賢里","LIN":"10鄰","STREET":"西賢一街","SECT":" ","MAREA":" ","LANE":"１４８巷","ALLEY":"３弄","HOUSE_NO":"８號","E_COORD97":165762.57000000001,"N_COORD97":2544771.2000000002,"ADDRESS":"西賢一街１４８巷３弄８號","OBJECTID":137501},"geometry":{"x":165762.57000000123,"y":2544771.1999999974}},{"attributes":{"ID":137502,"DIS_CODE":0,"TOWNNAME":"新化區","LI":"全興里","LIN":"6鄰","STREET":" ","SECT":" ","MAREA":"竹子\u25A0","LANE":" ","ALLEY":" ","HOUSE_NO":"１２０號","E_COORD97":177541.63,"N_COORD97":2547706.25,"ADDRESS":"竹子\u25A0１２０號","OBJECTID":137502},"geometry":{"x":177541.63000000082,"y":2547706.25}},{"attributes":{"ID":137503,"DIS_CODE":0,"TOWNNAME":"中西區","LI":"西賢里","LIN":"10鄰","STREET":"西賢一街","SECT":" ","MAREA":" ","LANE":"１４８巷","ALLEY":"３弄","HOUSE_NO":"９號","E_COORD97":165747.25,"N_COORD97":2544784.6800000002,"ADDRESS":"西賢一街１４８巷３弄９號","OBJECTID":137503},"geometry":{"x":165747.25000000093,"y":2544784.6799999997}},{"attributes":{"ID":137504,"DIS_CODE":0,"TOWNNAME":"永康區","LI":"東橋里","LIN":"27鄰","STREET":"中正路","SECT":" ","MAREA":" ","LANE":"２７９巷","ALLEY":"２弄","HOUSE_NO":"５３號","E_COORD97":172591.57000000001,"N_COORD97":2547913.2400000002,"ADDRESS":"中正路２７９巷２弄５３號","OBJECTID":137504},"geometry":{"x":172591.5700000003,"y":2547913.2400000021}},{"attributes":{"ID":137505,"DIS_CODE":0,"TOWNNAME":"新市區","LI":"新市里","LIN":"27鄰","STREET":"復興路","SECT":" ","MAREA":" ","LANE":"６巷","ALLEY":"１９弄","HOUSE_NO":"１７號","E_COORD97":177878.64000000001,"N_COORD97":2553401.5299999998,"ADDRESS":"復興路６巷１９弄１７號","OBJECTID":137505},"geometry":{"x":177878.6400000006,"y":2553401.5300000012}},{"attributes":{"ID":137506,"DIS_CODE":0,"TOWNNAME":"新市區","LI":"新和里","LIN":"27鄰","STREET":"忠孝街","SECT":" ","MAREA":" ","LANE":"１７９巷","ALLEY":"１弄","HOUSE_NO":"５號","E_COORD97":177691.95999999999,"N_COORD97":2552765.5,"ADDRESS":"忠孝街１７９巷１弄５號","OBJECTID":137506},"geometry":{"x":177691.96000000089,"y":2552765.5000000019}},{"attributes":{"ID":137507,"DIS_CODE":0,"TOWNNAME":"新市區","LI":"新市里","LIN":"27鄰","STREET":"復興路","SECT":" ","MAREA":" ","LANE":"６巷","ALLEY":"１９弄","HOUSE_NO":"２９號","E_COORD97":177858.45999999999,"N_COORD97":2553421.5299999998,"ADDRESS":"復興路６巷１９弄２９號","OBJECTID":137507},"geometry":{"x":177858.45999999996,"y":2553421.5300000031}},{"attributes":{"ID":137508,"DIS_CODE":0,"TOWNNAME":"新化區","LI":"北勢里","LIN":"6鄰","STREET":" ","SECT":" ","MAREA":"北勢","LANE":" ","ALLEY":" ","HOUSE_NO":"９５號","E_COORD97":177234.63,"N_COORD97":2549664.2599999998,"ADDRESS":"北勢９５號","OBJECTID":137508},"geometry":{"x":177234.63000000082,"y":2549664.2600000016}},{"attributes":{"ID":137509,"DIS_CODE":0,"TOWNNAME":"新市區","LI":"新和里","LIN":"27鄰","STREET":"永福街","SECT":" ","MAREA":" ","LANE":"１６巷","ALLEY":"１弄","HOUSE_NO":"１號","E_COORD97":177776.60999999999,"N_COORD97":2552714.5,"ADDRESS":"永福街１６巷１弄１號","OBJECTID":137509},"geometry":{"x":177776.61000000034,"y":2552714.5000000019}},{"attributes":{"ID":137510,"DIS_CODE":0,"TOWNNAME":"新化區","LI":"北勢里","LIN":"6鄰","STREET":" ","SECT":" ","MAREA":"北勢","LANE":" ","ALLEY":" ","HOUSE_NO":"９３號之２","E_COORD97":177194.48999999999,"N_COORD97":2549643.2599999998,"ADDRESS":"北勢９３號之２","OBJECTID":137510},"geometry":{"x":177194.49000000022,"y":2549643.2599999979}},{"attributes":{"ID":137511,"DIS_CODE":0,"TOWNNAME":"新市區","LI":"新和里","LIN":"27鄰","STREET":"忠孝街","SECT":" ","MAREA":" ","LANE":"１７９巷","ALLEY":"１弄","HOUSE_NO":"９號","E_COORD97":177689.57000000001,"N_COORD97":2552756,"ADDRESS":"忠孝街１７９巷１弄９號","OBJECTID":137511},"geometry":{"x":177689.57000000123,"y":2552756.0000000019}},{"attributes":{"ID":137512,"DIS_CODE":0,"TOWNNAME":"新化區","LI":"全興里","LIN":"6鄰","STREET":" ","SECT":" ","MAREA":"竹子\u25A0","LANE":" ","ALLEY":" ","HOUSE_NO":"７７號","E_COORD97":177546.28,"N_COORD97":2547742.25,"ADDRESS":"竹子\u25A0７７號","OBJECTID":137512},"geometry":{"x":177546.28000000026,"y":2547742.2500000019}},{"attributes":{"ID":137513,"DIS_CODE":0,"TOWNNAME":"新化區","LI":"全興里","LIN":"6鄰","STREET":" ","SECT":" ","MAREA":"竹子\u25A0","LANE":" ","ALLEY":" ","HOUSE_NO":"８３號","E_COORD97":177532.88,"N_COORD97":2547746.25,"ADDRESS":"竹子\u25A0８３號","OBJECTID":137513},"geometry":{"x":177532.88000000082,"y":2547746.2500000019}},{"attributes":{"ID":137514,"DIS_CODE":0,"TOWNNAME":"新化區","LI":"唪口里","LIN":"6鄰","STREET":" ","SECT":" ","MAREA":"唪口","LANE":" ","ALLEY":" ","HOUSE_NO":"７０號","E_COORD97":178058,"N_COORD97":2548993.25,"ADDRESS":"唪口７０號","OBJECTID":137514},"geometry":{"x":178058.00000000093,"y":2548993.2500000019}},{"attributes":{"ID":137515,"DIS_CODE":0,"TOWNNAME":"新化區","LI":"唪口里","LIN":"6鄰","STREET":" ","SECT":" ","MAREA":"唪口","LANE":" ","ALLEY":" ","HOUSE_NO":"７０號之１","E_COORD97":178047.13,"N_COORD97":2548985.2599999998,"ADDRESS":"唪口７０號之１","OBJECTID":137515},"geometry":{"x":178047.12999999989,"y":2548985.2599999998}},{"attributes":{"ID":137516,"DIS_CODE":0,"TOWNNAME":"新化區","LI":"崙頂里","LIN":"6鄰","STREET":" ","SECT":" ","MAREA":"崙子頂","LANE":" ","ALLEY":" ","HOUSE_NO":"２６８號之１","E_COORD97":176787.35999999999,"N_COORD97":2547034.2599999998,"ADDRESS":"崙子頂２６８號之１","OBJECTID":137516},"geometry":{"x":176787.36000000127,"y":2547034.2600000016}},{"attributes":{"ID":137517,"DIS_CODE":0,"TOWNNAME":"安南區","LI":"安慶里","LIN":"27鄰","STREET":"安和路","SECT":"一段","MAREA":" ","LANE":"４５９巷","ALLEY":"３６弄","HOUSE_NO":"２３之１號","E_COORD97":169223.72,"N_COORD97":2548601.5,"ADDRESS":"安和路一段４５９巷３６弄２３之１號","OBJECTID":137517},"geometry":{"x":169223.72000000067,"y":2548601.5000000037}},{"attributes":{"ID":137518,"DIS_CODE":0,"TOWNNAME":"新化區","LI":"唪口里","LIN":"6鄰","STREET":" ","SECT":" ","MAREA":"唪口","LANE":" ","ALLEY":" ","HOUSE_NO":"６８號之３","E_COORD97":178094.44,"N_COORD97":2548973.2599999998,"ADDRESS":"唪口６８號之３","OBJECTID":137518},"geometry":{"x":178094.44000000134,"y":2548973.2600000016}},{"attributes":{"ID":137519,"DIS_CODE":0,"TOWNNAME":"新化區","LI":"豐榮里","LIN":"6鄰","STREET":" ","SECT":" ","MAREA":"洋子","LANE":" ","ALLEY":" ","HOUSE_NO":"１５１號之６","E_COORD97":177750.63,"N_COORD97":2548128.2599999998,"ADDRESS":"洋子１５１號之６","OBJECTID":137519},"geometry":{"x":177750.62999999989,"y":2548128.2600000035}},{"attributes":{"ID":137520,"DIS_CODE":0,"TOWNNAME":"新化區","LI":"唪口里","LIN":"6鄰","STREET":" ","SECT":" ","MAREA":"唪口","LANE":" ","ALLEY":" ","HOUSE_NO":"８５號之７","E_COORD97":177993.73999999999,"N_COORD97":2549101.2599999998,"ADDRESS":"唪口８５號之７","OBJECTID":137520},"geometry":{"x":177993.74000000115,"y":2549101.2600000035}},{"attributes":{"ID":137521,"DIS_CODE":0,"TOWNNAME":"鹽水區","LI":"田寮里","LIN":"5鄰","STREET":" ","SECT":" ","MAREA":"田寮","LANE":" ","ALLEY":" ","HOUSE_NO":"５９號","E_COORD97":171104.28,"N_COORD97":2575254.3500000001,"ADDRESS":"田寮５９號","OBJECTID":137521},"geometry":{"x":171104.28000000119,"y":2575254.3500000015}},{"attributes":{"ID":137522,"DIS_CODE":0,"TOWNNAME":"後壁區","LI":"墨林里","LIN":" ","STREET":" ","SECT":" ","MAREA":"菁寮","LANE":" ","ALLEY":" ","HOUSE_NO":"２６７之５號","E_COORD97":182286.51000000001,"N_COORD97":2586397.2599999998,"ADDRESS":"菁寮２６７之５號","OBJECTID":137522},"geometry":{"x":182286.51000000164,"y":2586397.2599999998}},{"attributes":{"ID":137523,"DIS_CODE":0,"TOWNNAME":"後壁區","LI":"墨林里","LIN":" ","STREET":" ","SECT":" ","MAREA":"菁寮","LANE":" ","ALLEY":" ","HOUSE_NO":"２７２號","E_COORD97":182337.48999999999,"N_COORD97":2586421.5299999998,"ADDRESS":"菁寮２７２號","OBJECTID":137523},"geometry":{"x":182337.49000000022,"y":2586421.5300000012}},{"attributes":{"ID":137524,"DIS_CODE":0,"TOWNNAME":"後壁區","LI":"墨林里","LIN":" ","STREET":" ","SECT":" ","MAREA":"菁寮","LANE":" ","ALLEY":" ","HOUSE_NO":"２８２號","E_COORD97":182428.73000000001,"N_COORD97":2586408.2999999998,"ADDRESS":"菁寮２８２號","OBJECTID":137524},"geometry":{"x":182428.73000000138,"y":2586408.3000000007}},{"attributes":{"ID":137525,"DIS_CODE":0,"TOWNNAME":"後壁區","LI":"墨林里","LIN":" ","STREET":" ","SECT":" ","MAREA":"菁寮","LANE":" ","ALLEY":" ","HOUSE_NO":"２９２號","E_COORD97":182554.20000000001,"N_COORD97":2586369.02,"ADDRESS":"菁寮２９２號","OBJECTID":137525},"geometry":{"x":182554.20000000112,"y":2586369.0199999996}},{"attributes":{"ID":137526,"DIS_CODE":0,"TOWNNAME":"後壁區","LI":"墨林里","LIN":" ","STREET":" ","SECT":" ","MAREA":"菁寮","LANE":" ","ALLEY":" ","HOUSE_NO":"２９４之１號","E_COORD97":182508.94,"N_COORD97":2586333.3399999999,"ADDRESS":"菁寮２９４之１號","OBJECTID":137526},"geometry":{"x":182508.94000000041,"y":2586333.3399999999}},{"attributes":{"ID":137527,"DIS_CODE":0,"TOWNNAME":"後壁區","LI":"墨林里","LIN":" ","STREET":" ","SECT":" ","MAREA":"菁寮","LANE":" ","ALLEY":" ","HOUSE_NO":"２９５之２號","E_COORD97":182473.22,"N_COORD97":2586350.2400000002,"ADDRESS":"菁寮２９５之２號","OBJECTID":137527},"geometry":{"x":182473.2200000016,"y":2586350.2400000002}},{"attributes":{"ID":137528,"DIS_CODE":0,"TOWNNAME":"後壁區","LI":"墨林里","LIN":" ","STREET":" ","SECT":" ","MAREA":"菁寮","LANE":" ","ALLEY":" ","HOUSE_NO":"２９５之３號","E_COORD97":182480.5,"N_COORD97":2586350.2000000002,"ADDRESS":"菁寮２９５之３號","OBJECTID":137528},"geometry":{"x":182480.50000000093,"y":2586350.1999999993}},{"attributes":{"ID":137529,"DIS_CODE":0,"TOWNNAME":"後壁區","LI":"墨林里","LIN":" ","STREET":" ","SECT":" ","MAREA":"菁寮","LANE":" ","ALLEY":" ","HOUSE_NO":"２９８之１號","E_COORD97":182389.26999999999,"N_COORD97":2586267.7400000002,"ADDRESS":"菁寮２９８之１號","OBJECTID":137529},"geometry":{"x":182389.26999999955,"y":2586267.7400000021}},{"attributes":{"ID":137530,"DIS_CODE":0,"TOWNNAME":"後壁區","LI":"墨林里","LIN":" ","STREET":" ","SECT":" ","MAREA":"菁寮","LANE":" ","ALLEY":" ","HOUSE_NO":"２９８之２號","E_COORD97":182369.07999999999,"N_COORD97":2586265.3199999998,"ADDRESS":"菁寮２９８之２號","OBJECTID":137530},"geometry":{"x":182369.08000000007,"y":2586265.3200000003}},{"attributes":{"ID":137531,"DIS_CODE":0,"TOWNNAME":"安南區","LI":"安慶里","LIN":"27鄰","STREET":"安和路","SECT":"一段","MAREA":" ","LANE":"４５９巷","ALLEY":"３６弄","HOUSE_NO":"２３之２號","E_COORD97":169219.57000000001,"N_COORD97":2548601.73,"ADDRESS":"安和路一段４５９巷３６弄２３之２號","OBJECTID":137531},"geometry":{"x":169219.5700000003,"y":2548601.7300000023}},{"attributes":{"ID":137532,"DIS_CODE":0,"TOWNNAME":"安南區","LI":"安慶里","LIN":"27鄰","STREET":"安和路","SECT":"一段","MAREA":" ","LANE":"４５９巷","ALLEY":"３６弄","HOUSE_NO":"２３之３號","E_COORD97":169214.88,"N_COORD97":2548602.3399999999,"ADDRESS":"安和路一段４５９巷３６弄２３之３號","OBJECTID":137532},"geometry":{"x":169214.88000000082,"y":2548602.3400000036}},{"attributes":{"ID":137533,"DIS_CODE":0,"TOWNNAME":"安南區","LI":"安慶里","LIN":"27鄰","STREET":"安和路","SECT":"一段","MAREA":" ","LANE":"４５９巷","ALLEY":"３６弄","HOUSE_NO":"２３之５號","E_COORD97":169209.5,"N_COORD97":2548602.6499999999,"ADDRESS":"安和路一段４５９巷３６弄２３之５號","OBJECTID":137533},"geometry":{"x":169209.5,"y":2548602.6500000004}},{"attributes":{"ID":137534,"DIS_CODE":0,"TOWNNAME":"後壁區","LI":"菁寮里","LIN":" ","STREET":" ","SECT":" ","MAREA":"菁寮","LANE":" ","ALLEY":" ","HOUSE_NO":"２之５號","E_COORD97":182074.70000000001,"N_COORD97":2586223.4500000002,"ADDRESS":"菁寮２之５號","OBJECTID":137534},"geometry":{"x":182074.70000000019,"y":2586223.4499999993}},{"attributes":{"ID":137535,"DIS_CODE":0,"TOWNNAME":"安南區","LI":"海佃里","LIN":"27鄰","STREET":"國安街","SECT":" ","MAREA":" ","LANE":"５６巷","ALLEY":"３１弄","HOUSE_NO":"３２號","E_COORD97":166871.28,"N_COORD97":2547115.6600000001,"ADDRESS":"國安街５６巷３１弄３２號","OBJECTID":137535},"geometry":{"x":166871.28000000119,"y":2547115.660000002}},{"attributes":{"ID":137536,"DIS_CODE":0,"TOWNNAME":"後壁區","LI":"墨林里","LIN":" ","STREET":" ","SECT":" ","MAREA":"菁寮","LANE":" ","ALLEY":" ","HOUSE_NO":"３０１之１號","E_COORD97":182390.75,"N_COORD97":2586338.52,"ADDRESS":"菁寮３０１之１號","OBJECTID":137536},"geometry":{"x":182390.75000000093,"y":2586338.5199999996}},{"attributes":{"ID":137537,"DIS_CODE":0,"TOWNNAME":"後壁區","LI":"墨林里","LIN":" ","STREET":" ","SECT":" ","MAREA":"菁寮","LANE":" ","ALLEY":" ","HOUSE_NO":"３０６之１號","E_COORD97":182270.73999999999,"N_COORD97":2586349.6499999999,"ADDRESS":"菁寮３０６之１號","OBJECTID":137537},"geometry":{"x":182270.74000000115,"y":2586349.6500000022}},{"attributes":{"ID":137538,"DIS_CODE":0,"TOWNNAME":"後壁區","LI":"墨林里","LIN":" ","STREET":" ","SECT":" ","MAREA":"菁寮","LANE":" ","ALLEY":" ","HOUSE_NO":"３０９之１號","E_COORD97":182363.98999999999,"N_COORD97":2586365.04,"ADDRESS":"菁寮３０９之１號","OBJECTID":137538},"geometry":{"x":182363.99000000115,"y":2586365.0399999991}},{"attributes":{"ID":137539,"DIS_CODE":0,"TOWNNAME":"安南區","LI":"海佃里","LIN":"27鄰","STREET":"國安街","SECT":" ","MAREA":" ","LANE":"５６巷","ALLEY":"３１弄","HOUSE_NO":"３４號","E_COORD97":166866.62,"N_COORD97":2547115,"ADDRESS":"國安街５６巷３１弄３４號","OBJECTID":137539},"geometry":{"x":166866.62000000197,"y":2547115}},{"attributes":{"ID":137540,"DIS_CODE":0,"TOWNNAME":"安南區","LI":"海佃里","LIN":"27鄰","STREET":"國安街","SECT":" ","MAREA":" ","LANE":"５６巷","ALLEY":"３１弄","HOUSE_NO":"３６號","E_COORD97":166861.29999999999,"N_COORD97":2547115,"ADDRESS":"國安街５６巷３１弄３６號","OBJECTID":137540},"geometry":{"x":166861.29999999981,"y":2547115}},{"attributes":{"ID":137541,"DIS_CODE":0,"TOWNNAME":"安南區","LI":"海佃里","LIN":"27鄰","STREET":"國安街","SECT":" ","MAREA":" ","LANE":"５６巷","ALLEY":"３１弄","HOUSE_NO":"３８號","E_COORD97":166854.64999999999,"N_COORD97":2547113.0099999998,"ADDRESS":"國安街５６巷３１弄３８號","OBJECTID":137541},"geometry":{"x":166854.65000000037,"y":2547113.0100000016}},{"attributes":{"ID":137542,"DIS_CODE":0,"TOWNNAME":"新化區","LI":"東榮里","LIN":"6鄰","STREET":"信義路","SECT":" ","MAREA":" ","LANE":"１１７巷","ALLEY":" ","HOUSE_NO":"４１號","E_COORD97":179709.38,"N_COORD97":2548356.25,"ADDRESS":"信義路１１７巷４１號","OBJECTID":137542},"geometry":{"x":179709.38000000082,"y":2548356.2500000019}},{"attributes":{"ID":137543,"DIS_CODE":0,"TOWNNAME":"東區","LI":"崇成里","LIN":"24鄰","STREET":"崇明二十三街","SECT":" ","MAREA":" ","LANE":" ","ALLEY":" ","HOUSE_NO":"５號三樓","E_COORD97":170648.47,"N_COORD97":2540883.9100000001,"ADDRESS":"崇明二十三街５號三樓","OBJECTID":137543},"geometry":{"x":170648.46999999974,"y":2540883.9100000001}},{"attributes":{"ID":137544,"DIS_CODE":0,"TOWNNAME":"東區","LI":"崇成里","LIN":"24鄰","STREET":"崇明二十三街","SECT":" ","MAREA":" ","LANE":" ","ALLEY":" ","HOUSE_NO":"５號五樓","E_COORD97":170648.47,"N_COORD97":2540883.9100000001,"ADDRESS":"崇明二十三街５號五樓","OBJECTID":137544},"geometry":{"x":170648.46999999974,"y":2540883.9100000001}},{"attributes":{"ID":137545,"DIS_CODE":0,"TOWNNAME":"東區","LI":"崇成里","LIN":"24鄰","STREET":"崇明二十三街","SECT":" ","MAREA":" ","LANE":" ","ALLEY":" ","HOUSE_NO":"５號六樓","E_COORD97":170648.47,"N_COORD97":2540883.9100000001,"ADDRESS":"崇明二十三街５號六樓","OBJECTID":137545},"geometry":{"x":170648.46999999974,"y":2540883.9100000001}},{"attributes":{"ID":137546,"DIS_CODE":0,"TOWNNAME":"東區","LI":"崇成里","LIN":"24鄰","STREET":"崇明二十三街","SECT":" ","MAREA":" ","LANE":" ","ALLEY":" ","HOUSE_NO":"５號四樓","E_COORD97":170648.47,"N_COORD97":2540883.9100000001,"ADDRESS":"崇明二十三街５號四樓","OBJECTID":137546},"geometry":{"x":170648.46999999974,"y":2540883.9100000001}},{"attributes":{"ID":137547,"DIS_CODE":0,"TOWNNAME":"東區","LI":"崇成里","LIN":"24鄰","STREET":"崇明二十三街","SECT":" ","MAREA":" ","LANE":" ","ALLEY":" ","HOUSE_NO":"７號二樓","E_COORD97":170655,"N_COORD97":2540884,"ADDRESS":"崇明二十三街７號二樓","OBJECTID":137547},"geometry":{"x":170655.00000000093,"y":2540884}},{"attributes":{"ID":137548,"DIS_CODE":0,"TOWNNAME":"東區","LI":"崇成里","LIN":"24鄰","STREET":"崇明二十三街","SECT":" ","MAREA":" ","LANE":" ","ALLEY":" ","HOUSE_NO":"７號三樓","E_COORD97":170655,"N_COORD97":2540884,"ADDRESS":"崇明二十三街７號三樓","OBJECTID":137548},"geometry":{"x":170655.00000000093,"y":2540884}},{"attributes":{"ID":137549,"DIS_CODE":0,"TOWNNAME":"安南區","LI":"海佃里","LIN":"27鄰","STREET":"國安街","SECT":" ","MAREA":" ","LANE":"５６巷","ALLEY":"３１弄","HOUSE_NO":"４０號","E_COORD97":166850,"N_COORD97":2547111.6800000002,"ADDRESS":"國安街５６巷３１弄４０號","OBJECTID":137549},"geometry":{"x":166850,"y":2547111.6800000016}},{"attributes":{"ID":137550,"DIS_CODE":0,"TOWNNAME":"安南區","LI":"海佃里","LIN":"27鄰","STREET":"國安街","SECT":" ","MAREA":" ","LANE":"５６巷","ALLEY":"３１弄","HOUSE_NO":"４２號","E_COORD97":166844.67999999999,"N_COORD97":2547111.6800000002,"ADDRESS":"國安街５６巷３１弄４２號","OBJECTID":137550},"geometry":{"x":166844.6799999997,"y":2547111.6800000016}},{"attributes":{"ID":137551,"DIS_CODE":0,"TOWNNAME":"安南區","LI":"海佃里","LIN":"27鄰","STREET":"國安街","SECT":" ","MAREA":" ","LANE":"５６巷","ALLEY":"３１弄","HOUSE_NO":"４４號","E_COORD97":166839.35000000001,"N_COORD97":2547110.3500000001,"ADDRESS":"國安街５６巷３１弄４４號","OBJECTID":137551},"geometry":{"x":166839.35000000056,"y":2547110.3500000034}},{"attributes":{"ID":137552,"DIS_CODE":0,"TOWNNAME":"安南區","LI":"海佃里","LIN":"27鄰","STREET":"國安街","SECT":" ","MAREA":" ","LANE":"５６巷","ALLEY":"３１弄","HOUSE_NO":"４６號","E_COORD97":166834.03,"N_COORD97":2547110.3500000001,"ADDRESS":"國安街５６巷３１弄４６號","OBJECTID":137552},"geometry":{"x":166834.03000000119,"y":2547110.3500000034}},{"attributes":{"ID":137553,"DIS_CODE":0,"TOWNNAME":"安南區","LI":"海佃里","LIN":"27鄰","STREET":"國安街","SECT":" ","MAREA":" ","LANE":"５６巷","ALLEY":"３１弄","HOUSE_NO":"４８號","E_COORD97":166828.04999999999,"N_COORD97":2547107.6899999999,"ADDRESS":"國安街５６巷３１弄４８號","OBJECTID":137553},"geometry":{"x":166828.05000000075,"y":2547107.6900000032}},{"attributes":{"ID":137554,"DIS_CODE":0,"TOWNNAME":"安南區","LI":"海佃里","LIN":"27鄰","STREET":"國安街","SECT":" ","MAREA":" ","LANE":"５６巷","ALLEY":"３１弄","HOUSE_NO":"４號","E_COORD97":166947.09,"N_COORD97":2547128.9500000002,"ADDRESS":"國安街５６巷３１弄４號","OBJECTID":137554},"geometry":{"x":166947.08999999985,"y":2547128.9499999993}},{"attributes":{"ID":137555,"DIS_CODE":0,"TOWNNAME":"南區","LI":"再興里","LIN":"6鄰","STREET":"三官路","SECT":" ","MAREA":" ","LANE":" ","ALLEY":" ","HOUSE_NO":"１２號","E_COORD97":167326.92000000001,"N_COORD97":2542392.8599999999,"ADDRESS":"三官路１２號","OBJECTID":137555},"geometry":{"x":167326.91999999993,"y":2542392.8599999994}},{"attributes":{"ID":137556,"DIS_CODE":0,"TOWNNAME":"南區","LI":"再興里","LIN":"6鄰","STREET":"三官路","SECT":" ","MAREA":" ","LANE":" ","ALLEY":" ","HOUSE_NO":"１８號","E_COORD97":167328.82999999999,"N_COORD97":2542383.25,"ADDRESS":"三官路１８號","OBJECTID":137556},"geometry":{"x":167328.83000000007,"y":2542383.2500000019}},{"attributes":{"ID":137557,"DIS_CODE":0,"TOWNNAME":"南區","LI":"再興里","LIN":"6鄰","STREET":"三官路","SECT":" ","MAREA":" ","LANE":" ","ALLEY":" ","HOUSE_NO":"３４號","E_COORD97":167328.73000000001,"N_COORD97":2542341.3100000001,"ADDRESS":"三官路３４號","OBJECTID":137557},"geometry":{"x":167328.73000000045,"y":2542341.3100000042}},{"attributes":{"ID":137558,"DIS_CODE":0,"TOWNNAME":"南區","LI":"再興里","LIN":"6鄰","STREET":"三官路","SECT":" ","MAREA":" ","LANE":" ","ALLEY":" ","HOUSE_NO":"３６號","E_COORD97":167326.07999999999,"N_COORD97":2542322.7999999998,"ADDRESS":"三官路３６號","OBJECTID":137558},"geometry":{"x":167326.08000000007,"y":2542322.8000000007}},{"attributes":{"ID":137559,"DIS_CODE":0,"TOWNNAME":"南區","LI":"再興里","LIN":"6鄰","STREET":"三官路","SECT":" ","MAREA":" ","LANE":" ","ALLEY":" ","HOUSE_NO":"３８號","E_COORD97":167326.39999999999,"N_COORD97":2542318.3599999999,"ADDRESS":"三官路３８號","OBJECTID":137559},"geometry":{"x":167326.4000000013,"y":2542318.3599999994}},{"attributes":{"ID":137560,"DIS_CODE":0,"TOWNNAME":"安南區","LI":"海佃里","LIN":"27鄰","STREET":"國安街","SECT":" ","MAREA":" ","LANE":"５６巷","ALLEY":"３１弄","HOUSE_NO":"５０號","E_COORD97":166822.06,"N_COORD97":2547108.3599999999,"ADDRESS":"國安街５６巷３１弄５０號","OBJECTID":137560},"geometry":{"x":166822.05999999959,"y":2547108.3599999994}},{"attributes":{"ID":137561,"DIS_CODE":0,"TOWNNAME":"安南區","LI":"海佃里","LIN":"27鄰","STREET":"國安街","SECT":" ","MAREA":" ","LANE":"５６巷","ALLEY":"３１弄","HOUSE_NO":"６號","E_COORD97":166941.76999999999,"N_COORD97":2547129.6099999999,"ADDRESS":"國安街５６巷３１弄６號","OBJECTID":137561},"geometry":{"x":166941.77000000048,"y":2547129.6100000013}},{"attributes":{"ID":137562,"DIS_CODE":0,"TOWNNAME":"後壁區","LI":"墨林里","LIN":" ","STREET":" ","SECT":" ","MAREA":"菁寮","LANE":" ","ALLEY":" ","HOUSE_NO":"３１１號","E_COORD97":182346.95000000001,"N_COORD97":2586295.5099999998,"ADDRESS":"菁寮３１１號","OBJECTID":137562},"geometry":{"x":182346.95000000112,"y":2586295.5100000016}},{"attributes":{"ID":137563,"DIS_CODE":0,"TOWNNAME":"後壁區","LI":"墨林里","LIN":" ","STREET":" ","SECT":" ","MAREA":"菁寮","LANE":" ","ALLEY":" ","HOUSE_NO":"３２０之１７號","E_COORD97":182216.60000000001,"N_COORD97":2586384.8700000001,"ADDRESS":"菁寮３２０之１７號","OBJECTID":137563},"geometry":{"x":182216.60000000056,"y":2586384.870000001}},{"attributes":{"ID":137564,"DIS_CODE":0,"TOWNNAME":"後壁區","LI":"墨林里","LIN":" ","STREET":" ","SECT":" ","MAREA":"菁寮","LANE":" ","ALLEY":" ","HOUSE_NO":"３２０之４號","E_COORD97":182205.56,"N_COORD97":2586331.7000000002,"ADDRESS":"菁寮３２０之４號","OBJECTID":137564},"geometry":{"x":182205.55999999959,"y":2586331.7000000011}},{"attributes":{"ID":137565,"DIS_CODE":0,"TOWNNAME":"後壁區","LI":"墨林里","LIN":" ","STREET":" ","SECT":" ","MAREA":"菁寮","LANE":" ","ALLEY":" ","HOUSE_NO":"３２０之８號","E_COORD97":182206.07999999999,"N_COORD97":2586346.21,"ADDRESS":"菁寮３２０之８號","OBJECTID":137565},"geometry":{"x":182206.08000000007,"y":2586346.2100000028}},{"attributes":{"ID":137566,"DIS_CODE":0,"TOWNNAME":"後壁區","LI":"墨林里","LIN":" ","STREET":" ","SECT":" ","MAREA":"菁寮","LANE":" ","ALLEY":" ","HOUSE_NO":"３２１之３號","E_COORD97":182188.67999999999,"N_COORD97":2586296.9100000001,"ADDRESS":"菁寮３２１之３號","OBJECTID":137566},"geometry":{"x":182188.68000000156,"y":2586296.910000002}},{"attributes":{"ID":137567,"DIS_CODE":0,"TOWNNAME":"後壁區","LI":"墨林里","LIN":" ","STREET":" ","SECT":" ","MAREA":"菁寮","LANE":" ","ALLEY":" ","HOUSE_NO":"３２１號","E_COORD97":182163.41,"N_COORD97":2586346.21,"ADDRESS":"菁寮３２１號","OBJECTID":137567},"geometry":{"x":182163.41000000015,"y":2586346.2100000028}},{"attributes":{"ID":137568,"DIS_CODE":0,"TOWNNAME":"南區","LI":"再興里","LIN":"6鄰","STREET":"三官路","SECT":" ","MAREA":" ","LANE":" ","ALLEY":" ","HOUSE_NO":"４０號","E_COORD97":167327.56,"N_COORD97":2542313.5,"ADDRESS":"三官路４０號","OBJECTID":137568},"geometry":{"x":167327.56000000145,"y":2542313.5000000019}},{"attributes":{"ID":137569,"DIS_CODE":0,"TOWNNAME":"南區","LI":"再興里","LIN":"6鄰","STREET":"三官路","SECT":" ","MAREA":" ","LANE":" ","ALLEY":" ","HOUSE_NO":"４２號","E_COORD97":167328.20000000001,"N_COORD97":2542309.6899999999,"ADDRESS":"三官路４２號","OBJECTID":137569},"geometry":{"x":167328.20000000019,"y":2542309.6899999995}},{"attributes":{"ID":137570,"DIS_CODE":0,"TOWNNAME":"安南區","LI":"海佃里","LIN":"27鄰","STREET":"國安街","SECT":" ","MAREA":" ","LANE":"５６巷","ALLEY":"３１弄","HOUSE_NO":"８號","E_COORD97":166936.45000000001,"N_COORD97":2547127.6200000001,"ADDRESS":"國安街５６巷３１弄８號","OBJECTID":137570},"geometry":{"x":166936.45000000112,"y":2547127.6200000029}},{"attributes":{"ID":137571,"DIS_CODE":0,"TOWNNAME":"永康區","LI":"北灣里","LIN":"27鄰","STREET":"文賢街","SECT":" ","MAREA":" ","LANE":"１０８巷","ALLEY":"８弄","HOUSE_NO":"３號","E_COORD97":175407.23999999999,"N_COORD97":2545430.0699999998,"ADDRESS":"文賢街１０８巷８弄３號","OBJECTID":137571},"geometry":{"x":175407.24000000022,"y":2545430.0700000003}},{"attributes":{"ID":137572,"DIS_CODE":0,"TOWNNAME":"永康區","LI":"龍潭里","LIN":"27鄰","STREET":"中山北路","SECT":" ","MAREA":" ","LANE":"４６１巷","ALLEY":"２９弄","HOUSE_NO":"２２號","E_COORD97":175065.81,"N_COORD97":2547871.7200000002,"ADDRESS":"中山北路４６１巷２９弄２２號","OBJECTID":137572},"geometry":{"x":175065.80999999959,"y":2547871.7200000044}},{"attributes":{"ID":137573,"DIS_CODE":0,"TOWNNAME":"永康區","LI":"西勢里","LIN":"27鄰","STREET":"廣興街","SECT":" ","MAREA":" ","LANE":"３８巷","ALLEY":"３４弄","HOUSE_NO":"１６號","E_COORD97":176033.32999999999,"N_COORD97":2546401.5499999998,"ADDRESS":"廣興街３８巷３４弄１６號","OBJECTID":137573},"geometry":{"x":176033.33000000101,"y":2546401.5500000045}},{"attributes":{"ID":137574,"DIS_CODE":0,"TOWNNAME":"永康區","LI":"西灣里","LIN":"27鄰","STREET":"公園路","SECT":" ","MAREA":" ","LANE":"７巷","ALLEY":"４４弄","HOUSE_NO":"３號","E_COORD97":174436.51000000001,"N_COORD97":2545857.9900000002,"ADDRESS":"公園路７巷４４弄３號","OBJECTID":137574},"geometry":{"x":174436.51000000071,"y":2545857.9900000002}},{"attributes":{"ID":137575,"DIS_CODE":0,"TOWNNAME":"永康區","LI":"尚頂里","LIN":"27鄰","STREET":"南台街","SECT":" ","MAREA":" ","LANE":"５４巷","ALLEY":"３９弄","HOUSE_NO":"２４號","E_COORD97":170285.04999999999,"N_COORD97":2547050.5,"ADDRESS":"南台街５４巷３９弄２４號","OBJECTID":137575},"geometry":{"x":170285.05000000075,"y":2547050.5}},{"attributes":{"ID":137576,"DIS_CODE":0,"TOWNNAME":"南區","LI":"再興里","LIN":"6鄰","STREET":"三官路","SECT":" ","MAREA":" ","LANE":" ","ALLEY":" ","HOUSE_NO":"４４號","E_COORD97":167328.94,"N_COORD97":2542304.0899999999,"ADDRESS":"三官路４４號","OBJECTID":137576},"geometry":{"x":167328.94000000041,"y":2542304.0899999999}},{"attributes":{"ID":137577,"DIS_CODE":0,"TOWNNAME":"後壁區","LI":"墨林里","LIN":" ","STREET":" ","SECT":" ","MAREA":"菁寮","LANE":" ","ALLEY":" ","HOUSE_NO":"３２２號","E_COORD97":182172.70000000001,"N_COORD97":2586356.2000000002,"ADDRESS":"菁寮３２２號","OBJECTID":137577},"geometry":{"x":182172.70000000112,"y":2586356.1999999993}},{"attributes":{"ID":137578,"DIS_CODE":0,"TOWNNAME":"後壁區","LI":"墨林里","LIN":" ","STREET":" ","SECT":" ","MAREA":"菁寮","LANE":" ","ALLEY":" ","HOUSE_NO":"３２３之１號","E_COORD97":182194.78,"N_COORD97":2586382.5299999998,"ADDRESS":"菁寮３２３之１號","OBJECTID":137578},"geometry":{"x":182194.78000000026,"y":2586382.5299999975}},{"attributes":{"ID":137579,"DIS_CODE":0,"TOWNNAME":"後壁區","LI":"墨林里","LIN":" ","STREET":" ","SECT":" ","MAREA":"菁寮","LANE":" ","ALLEY":" ","HOUSE_NO":"３２６號","E_COORD97":182173.09,"N_COORD97":2586379.1899999999,"ADDRESS":"菁寮３２６號","OBJECTID":137579},"geometry":{"x":182173.09000000078,"y":2586379.1900000013}},{"attributes":{"ID":137580,"DIS_CODE":0,"TOWNNAME":"後壁區","LI":"墨林里","LIN":" ","STREET":" ","SECT":" ","MAREA":"菁寮","LANE":" ","ALLEY":" ","HOUSE_NO":"３２８之１號","E_COORD97":182159.44,"N_COORD97":2586375.3300000001,"ADDRESS":"菁寮３２８之１號","OBJECTID":137580},"geometry":{"x":182159.44000000134,"y":2586375.3300000019}},{"attributes":{"ID":137581,"DIS_CODE":0,"TOWNNAME":"後壁區","LI":"墨林里","LIN":" ","STREET":" ","SECT":" ","MAREA":"菁寮","LANE":" ","ALLEY":" ","HOUSE_NO":"３２８號","E_COORD97":182162.42000000001,"N_COORD97":2586376.3399999999,"ADDRESS":"菁寮３２８號","OBJECTID":137581},"geometry":{"x":182162.42000000086,"y":2586376.3399999999}},{"attributes":{"ID":137582,"DIS_CODE":0,"TOWNNAME":"後壁區","LI":"墨林里","LIN":" ","STREET":" ","SECT":" ","MAREA":"菁寮","LANE":" ","ALLEY":" ","HOUSE_NO":"３３０號","E_COORD97":182151.22,"N_COORD97":2586371.3999999999,"ADDRESS":"菁寮３３０號","OBJECTID":137582},"geometry":{"x":182151.22000000067,"y":2586371.4000000041}},{"attributes":{"ID":137583,"DIS_CODE":0,"TOWNNAME":"永康區","LI":"尚頂里","LIN":"27鄰","STREET":"南台街","SECT":" ","MAREA":" ","LANE":"５４巷","ALLEY":"３９弄","HOUSE_NO":"２３號","E_COORD97":170293.14999999999,"N_COORD97":2547032.75,"ADDRESS":"南台街５４巷３９弄２３號","OBJECTID":137583},"geometry":{"x":170293.1500000013,"y":2547032.75}},{"attributes":{"ID":137584,"DIS_CODE":0,"TOWNNAME":"永康區","LI":"東橋里","LIN":"27鄰","STREET":"中正路","SECT":" ","MAREA":" ","LANE":"２７９巷","ALLEY":"２弄","HOUSE_NO":"４５號","E_COORD97":172622.81,"N_COORD97":2547924.9900000002,"ADDRESS":"中正路２７９巷２弄４５號","OBJECTID":137584},"geometry":{"x":172622.80999999959,"y":2547924.9900000021}},{"attributes":{"ID":137585,"DIS_CODE":0,"TOWNNAME":"永康區","LI":"尚頂里","LIN":"27鄰","STREET":"南台街","SECT":" ","MAREA":" ","LANE":"５４巷","ALLEY":"３９弄","HOUSE_NO":"１０號","E_COORD97":170315.10000000001,"N_COORD97":2547049.5,"ADDRESS":"南台街５４巷３９弄１０號","OBJECTID":137585},"geometry":{"x":170315.10000000056,"y":2547049.5000000019}},{"attributes":{"ID":137586,"DIS_CODE":0,"TOWNNAME":"永康區","LI":"尚頂里","LIN":"27鄰","STREET":"南台街","SECT":" ","MAREA":" ","LANE":"５４巷","ALLEY":"３９弄","HOUSE_NO":"２７號","E_COORD97":170284.56,"N_COORD97":2547031.75,"ADDRESS":"南台街５４巷３９弄２７號","OBJECTID":137586},"geometry":{"x":170284.56000000052,"y":2547031.75}},{"attributes":{"ID":137587,"DIS_CODE":0,"TOWNNAME":"後壁區","LI":"墨林里","LIN":" ","STREET":" ","SECT":" ","MAREA":"菁寮","LANE":" ","ALLEY":" ","HOUSE_NO":"３４２號","E_COORD97":182118.06,"N_COORD97":2586341.3900000001,"ADDRESS":"菁寮３４２號","OBJECTID":137587},"geometry":{"x":182118.06000000145,"y":2586341.3900000025}},{"attributes":{"ID":137588,"DIS_CODE":0,"TOWNNAME":"後壁區","LI":"墨林里","LIN":" ","STREET":" ","SECT":" ","MAREA":"菁寮","LANE":" ","ALLEY":" ","HOUSE_NO":"３４４之１號","E_COORD97":182118.54999999999,"N_COORD97":2586333.4700000002,"ADDRESS":"菁寮３４４之１號","OBJECTID":137588},"geometry":{"x":182118.55000000075,"y":2586333.4699999988}},{"attributes":{"ID":137589,"DIS_CODE":0,"TOWNNAME":"後壁區","LI":"墨林里","LIN":" ","STREET":" ","SECT":" ","MAREA":"菁寮","LANE":" ","ALLEY":" ","HOUSE_NO":"３４６之１０附１號","E_COORD97":182089.72,"N_COORD97":2586188.6299999999,"ADDRESS":"菁寮３４６之１０附１號","OBJECTID":137589},"geometry":{"x":182089.71999999974,"y":2586188.6300000027}},{"attributes":{"ID":137590,"DIS_CODE":0,"TOWNNAME":"後壁區","LI":"墨林里","LIN":" ","STREET":" ","SECT":" ","MAREA":"菁寮","LANE":" ","ALLEY":" ","HOUSE_NO":"３４６之８號","E_COORD97":182108.79000000001,"N_COORD97":2586235.21,"ADDRESS":"菁寮３４６之８號","OBJECTID":137590},"geometry":{"x":182108.79000000097,"y":2586235.2100000028}},{"attributes":{"ID":137591,"DIS_CODE":0,"TOWNNAME":"後壁區","LI":"墨林里","LIN":" ","STREET":" ","SECT":" ","MAREA":"菁寮","LANE":" ","ALLEY":" ","HOUSE_NO":"３４６號","E_COORD97":182127.94,"N_COORD97":2586310.8300000001,"ADDRESS":"菁寮３４６號","OBJECTID":137591},"geometry":{"x":182127.94000000041,"y":2586310.8300000019}},{"attributes":{"ID":137592,"DIS_CODE":0,"TOWNNAME":"後壁區","LI":"菁寮里","LIN":" ","STREET":" ","SECT":" ","MAREA":"菁寮","LANE":" ","ALLEY":" ","HOUSE_NO":"４１之１號","E_COORD97":182105.45999999999,"N_COORD97":2586296.5899999999,"ADDRESS":"菁寮４１之１號","OBJECTID":137592},"geometry":{"x":182105.45999999996,"y":2586296.5899999999}},{"attributes":{"ID":137593,"DIS_CODE":0,"TOWNNAME":"後壁區","LI":"菁寮里","LIN":" ","STREET":" ","SECT":" ","MAREA":"菁寮","LANE":" ","ALLEY":" ","HOUSE_NO":"４１之６號","E_COORD97":182099.32000000001,"N_COORD97":2586331.8399999999,"ADDRESS":"菁寮４１之６號","OBJECTID":137593},"geometry":{"x":182099.3200000003,"y":2586331.8400000017}},{"attributes":{"ID":137594,"DIS_CODE":0,"TOWNNAME":"永康區","LI":"尚頂里","LIN":"27鄰","STREET":"南台街","SECT":" ","MAREA":" ","LANE":"５４巷","ALLEY":"３９弄","HOUSE_NO":"２號之１","E_COORD97":170338.13,"N_COORD97":2547049.0499999998,"ADDRESS":"南台街５４巷３９弄２號之１","OBJECTID":137594},"geometry":{"x":170338.13000000175,"y":2547049.0500000045}},{"attributes":{"ID":137595,"DIS_CODE":0,"TOWNNAME":"永康區","LI":"尚頂里","LIN":"27鄰","STREET":"南台街","SECT":" ","MAREA":" ","LANE":"５４巷","ALLEY":"３９弄","HOUSE_NO":"１號","E_COORD97":170339.20000000001,"N_COORD97":2547029.5,"ADDRESS":"南台街５４巷３９弄１號","OBJECTID":137595},"geometry":{"x":170339.20000000019,"y":2547029.5000000019}},{"attributes":{"ID":137596,"DIS_CODE":0,"TOWNNAME":"永康區","LI":"尚頂里","LIN":"27鄰","STREET":"南台街","SECT":" ","MAREA":" ","LANE":"５４巷","ALLEY":"３９弄","HOUSE_NO":"２８號","E_COORD97":170276.20999999999,"N_COORD97":2547050.75,"ADDRESS":"南台街５４巷３９弄２８號","OBJECTID":137596},"geometry":{"x":170276.20999999996,"y":2547050.7500000019}},{"attributes":{"ID":137597,"DIS_CODE":0,"TOWNNAME":"永康區","LI":"東橋里","LIN":"27鄰","STREET":"中正路","SECT":" ","MAREA":" ","LANE":"２７９巷","ALLEY":"２弄","HOUSE_NO":"５７號","E_COORD97":172576.45999999999,"N_COORD97":2547904,"ADDRESS":"中正路２７９巷２弄５７號","OBJECTID":137597},"geometry":{"x":172576.45999999996,"y":2547904.0000000019}},{"attributes":{"ID":137598,"DIS_CODE":0,"TOWNNAME":"永康區","LI":"東橋里","LIN":"27鄰","STREET":"中正路","SECT":" ","MAREA":" ","LANE":"２７９巷","ALLEY":"２弄","HOUSE_NO":"４７號","E_COORD97":172615.42000000001,"N_COORD97":2547925.2400000002,"ADDRESS":"中正路２７９巷２弄４７號","OBJECTID":137598},"geometry":{"x":172615.41999999993,"y":2547925.2400000039}},{"attributes":{"ID":137599,"DIS_CODE":0,"TOWNNAME":"永康區","LI":"東橋里","LIN":"27鄰","STREET":"中正路","SECT":" ","MAREA":" ","LANE":"２７９巷","ALLEY":"２１弄","HOUSE_NO":"６７號","E_COORD97":172724.12,"N_COORD97":2547838.7400000002,"ADDRESS":"中正路２７９巷２１弄６７號","OBJECTID":137599},"geometry":{"x":172724.12000000104,"y":2547838.7400000002}},{"attributes":{"ID":137600,"DIS_CODE":0,"TOWNNAME":"永康區","LI":"東橋里","LIN":"27鄰","STREET":"中正路","SECT":" ","MAREA":" ","LANE":"２７９巷","ALLEY":"２弄","HOUSE_NO":"３３號","E_COORD97":172688.20999999999,"N_COORD97":2547926.9900000002,"ADDRESS":"中正路２７９巷２弄３３號","OBJECTID":137600},"geometry":{"x":172688.20999999996,"y":2547926.9900000039}}]}