{"displayFieldName":"TOWNNAME","fieldAliases":{"ID":"ID","DIS_CODE":"DIS_CODE","TOWNNAME":"TOWNNAME","LI":"LI","LIN":"LIN","STREET":"STREET","SECT":"SECT","MAREA":"MAREA","LANE":"LANE","ALLEY":"ALLEY","HOUSE_NO":"HOUSE_NO","E_COORD97":"E_COORD97","N_COORD97":"N_COORD97","ADDRESS":"ADDRESS","OBJECTID":"OBJECTID"},"geometryType":"esriGeometryPoint","spatialReference":{"wkid":102443,"latestWkid":3826},"fields":[{"name":"ID","type":"esriFieldTypeDouble","alias":"ID"},{"name":"DIS_CODE","type":"esriFieldTypeInteger","alias":"DIS_CODE"},{"name":"TOWNNAME","type":"esriFieldTypeString","alias":"TOWNNAME","length":8},{"name":"LI","type":"esriFieldTypeString","alias":"LI","length":8},{"name":"LIN","type":"esriFieldTypeString","alias":"LIN","length":12},{"name":"STREET","type":"esriFieldTypeString","alias":"STREET","length":20},{"name":"SECT","type":"esriFieldTypeString","alias":"SECT","length":8},{"name":"MAREA","type":"esriFieldTypeString","alias":"MAREA","length":12},{"name":"LANE","type":"esriFieldTypeString","alias":"LANE","length":10},{"name":"ALLEY","type":"esriFieldTypeString","alias":"ALLEY","length":10},{"name":"HOUSE_NO","type":"esriFieldTypeString","alias":"HOUSE_NO","length":20},{"name":"E_COORD97","type":"esriFieldTypeDouble","alias":"E_COORD97"},{"name":"N_COORD97","type":"esriFieldTypeDouble","alias":"N_COORD97"},{"name":"ADDRESS","type":"esriFieldTypeString","alias":"ADDRESS","length":50},{"name":"OBJECTID","type":"esriFieldTypeOID","alias":"OBJECTID"}],"features":[{"attributes":{"ID":300609,"DIS_CODE":0,"TOWNNAME":"東區","LI":"崇德里","LIN":"8鄰","STREET":"崇德七街","SECT":" ","MAREA":" ","LANE":"２０巷","ALLEY":" ","HOUSE_NO":"２８號二樓","E_COORD97":170866.51999999999,"N_COORD97":2541705.4700000002,"ADDRESS":"崇德七街２０巷２８號二樓","OBJECTID":300601},"geometry":{"x":170866.51999999955,"y":2541705.4700000007}},{"attributes":{"ID":300610,"DIS_CODE":0,"TOWNNAME":"東區","LI":"崇德里","LIN":"8鄰","STREET":"崇德七街","SECT":" ","MAREA":" ","LANE":"２０巷","ALLEY":" ","HOUSE_NO":"２８號三樓","E_COORD97":170866.51999999999,"N_COORD97":2541705.4700000002,"ADDRESS":"崇德七街２０巷２８號三樓","OBJECTID":300602},"geometry":{"x":170866.51999999955,"y":2541705.4700000007}},{"attributes":{"ID":300611,"DIS_CODE":0,"TOWNNAME":"東區","LI":"崇德里","LIN":"8鄰","STREET":"崇德七街","SECT":" ","MAREA":" ","LANE":"２０巷","ALLEY":" ","HOUSE_NO":"２８號五樓","E_COORD97":170866.51999999999,"N_COORD97":2541705.4700000002,"ADDRESS":"崇德七街２０巷２８號五樓","OBJECTID":300603},"geometry":{"x":170866.51999999955,"y":2541705.4700000007}},{"attributes":{"ID":300612,"DIS_CODE":0,"TOWNNAME":"東區","LI":"崇德里","LIN":"8鄰","STREET":"崇德七街","SECT":" ","MAREA":" ","LANE":"２０巷","ALLEY":" ","HOUSE_NO":"２８號六樓","E_COORD97":170866.51999999999,"N_COORD97":2541705.4700000002,"ADDRESS":"崇德七街２０巷２８號六樓","OBJECTID":300604},"geometry":{"x":170866.51999999955,"y":2541705.4700000007}},{"attributes":{"ID":300613,"DIS_CODE":0,"TOWNNAME":"東區","LI":"崇德里","LIN":"8鄰","STREET":"崇德七街","SECT":" ","MAREA":" ","LANE":"２０巷","ALLEY":" ","HOUSE_NO":"２８號四樓","E_COORD97":170866.51999999999,"N_COORD97":2541705.4700000002,"ADDRESS":"崇德七街２０巷２８號四樓","OBJECTID":300605},"geometry":{"x":170866.51999999955,"y":2541705.4700000007}},{"attributes":{"ID":300614,"DIS_CODE":0,"TOWNNAME":"東區","LI":"崇德里","LIN":"8鄰","STREET":"崇德七街","SECT":" ","MAREA":" ","LANE":"２０巷","ALLEY":" ","HOUSE_NO":"３０號七樓","E_COORD97":170872.42999999999,"N_COORD97":2541683.27,"ADDRESS":"崇德七街２０巷３０號七樓","OBJECTID":300606},"geometry":{"x":170872.4299999997,"y":2541683.2700000014}},{"attributes":{"ID":300615,"DIS_CODE":0,"TOWNNAME":"東區","LI":"崇德里","LIN":"8鄰","STREET":"崇德七街","SECT":" ","MAREA":" ","LANE":"２０巷","ALLEY":" ","HOUSE_NO":"３０號七樓之１","E_COORD97":170872.42999999999,"N_COORD97":2541683.27,"ADDRESS":"崇德七街２０巷３０號七樓之１","OBJECTID":300607},"geometry":{"x":170872.4299999997,"y":2541683.2700000014}},{"attributes":{"ID":300616,"DIS_CODE":0,"TOWNNAME":"東區","LI":"崇德里","LIN":"8鄰","STREET":"崇德七街","SECT":" ","MAREA":" ","LANE":"２０巷","ALLEY":" ","HOUSE_NO":"３０號二樓","E_COORD97":170872.42999999999,"N_COORD97":2541683.27,"ADDRESS":"崇德七街２０巷３０號二樓","OBJECTID":300608},"geometry":{"x":170872.4299999997,"y":2541683.2700000014}},{"attributes":{"ID":300617,"DIS_CODE":0,"TOWNNAME":"東區","LI":"崇德里","LIN":"8鄰","STREET":"崇德七街","SECT":" ","MAREA":" ","LANE":"２０巷","ALLEY":" ","HOUSE_NO":"３０號二樓之１","E_COORD97":170872.42999999999,"N_COORD97":2541683.27,"ADDRESS":"崇德七街２０巷３０號二樓之１","OBJECTID":300609},"geometry":{"x":170872.4299999997,"y":2541683.2700000014}},{"attributes":{"ID":300618,"DIS_CODE":0,"TOWNNAME":"東區","LI":"崇德里","LIN":"8鄰","STREET":"崇德七街","SECT":" ","MAREA":" ","LANE":"２０巷","ALLEY":" ","HOUSE_NO":"３０號三樓","E_COORD97":170872.42999999999,"N_COORD97":2541683.27,"ADDRESS":"崇德七街２０巷３０號三樓","OBJECTID":300610},"geometry":{"x":170872.4299999997,"y":2541683.2700000014}},{"attributes":{"ID":300619,"DIS_CODE":0,"TOWNNAME":"官田區","LI":"隆田里","LIN":"14鄰","STREET":"文化街","SECT":" ","MAREA":" ","LANE":" ","ALLEY":" ","HOUSE_NO":"１０８號","E_COORD97":180197.04000000001,"N_COORD97":2566088.6499999999,"ADDRESS":"文化街１０８號","OBJECTID":300611},"geometry":{"x":180197.04000000097,"y":2566088.6500000022}},{"attributes":{"ID":300620,"DIS_CODE":0,"TOWNNAME":"官田區","LI":"隆田里","LIN":"14鄰","STREET":"文化街","SECT":" ","MAREA":" ","LANE":" ","ALLEY":" ","HOUSE_NO":"１１２號","E_COORD97":180198.47,"N_COORD97":2566100.1099999999,"ADDRESS":"文化街１１２號","OBJECTID":300612},"geometry":{"x":180198.47000000067,"y":2566100.1099999994}},{"attributes":{"ID":300621,"DIS_CODE":0,"TOWNNAME":"官田區","LI":"隆田里","LIN":"14鄰","STREET":"文化街","SECT":" ","MAREA":" ","LANE":" ","ALLEY":" ","HOUSE_NO":"１１８號","E_COORD97":180198.70000000001,"N_COORD97":2566112.3599999999,"ADDRESS":"文化街１１８號","OBJECTID":300613},"geometry":{"x":180198.69999999925,"y":2566112.3599999994}},{"attributes":{"ID":300622,"DIS_CODE":0,"TOWNNAME":"官田區","LI":"隆田里","LIN":"14鄰","STREET":"文化街","SECT":" ","MAREA":" ","LANE":" ","ALLEY":" ","HOUSE_NO":"１２０號","E_COORD97":180198.57999999999,"N_COORD97":2566116.5099999998,"ADDRESS":"文化街１２０號","OBJECTID":300614},"geometry":{"x":180198.58000000101,"y":2566116.5100000016}},{"attributes":{"ID":300623,"DIS_CODE":0,"TOWNNAME":"官田區","LI":"隆田里","LIN":"14鄰","STREET":"文化街","SECT":" ","MAREA":" ","LANE":" ","ALLEY":" ","HOUSE_NO":"１２２號","E_COORD97":180199.17999999999,"N_COORD97":2566122.02,"ADDRESS":"文化街１２２號","OBJECTID":300615},"geometry":{"x":180199.18000000063,"y":2566122.0200000033}},{"attributes":{"ID":300624,"DIS_CODE":0,"TOWNNAME":"東區","LI":"大智里","LIN":"4鄰","STREET":"生產路","SECT":" ","MAREA":" ","LANE":"５３４巷","ALLEY":" ","HOUSE_NO":"３號","E_COORD97":171091.84,"N_COORD97":2540637.6200000001,"ADDRESS":"生產路５３４巷３號","OBJECTID":300616},"geometry":{"x":171091.83999999985,"y":2540637.6200000048}},{"attributes":{"ID":300625,"DIS_CODE":0,"TOWNNAME":"東區","LI":"大智里","LIN":"4鄰","STREET":"生產路","SECT":" ","MAREA":" ","LANE":"５３４巷","ALLEY":" ","HOUSE_NO":"５號","E_COORD97":171091.45999999999,"N_COORD97":2540634.02,"ADDRESS":"生產路５３４巷５號","OBJECTID":300617},"geometry":{"x":171091.45999999996,"y":2540634.0200000014}},{"attributes":{"ID":300626,"DIS_CODE":0,"TOWNNAME":"東區","LI":"大智里","LIN":"4鄰","STREET":"生產路","SECT":" ","MAREA":" ","LANE":"５３４巷","ALLEY":" ","HOUSE_NO":"７號","E_COORD97":171092.41,"N_COORD97":2540629.8399999999,"ADDRESS":"生產路５３４巷７號","OBJECTID":300618},"geometry":{"x":171092.40999999922,"y":2540629.8399999999}},{"attributes":{"ID":300627,"DIS_CODE":0,"TOWNNAME":"東區","LI":"大智里","LIN":"4鄰","STREET":"生產路","SECT":" ","MAREA":" ","LANE":"５３４巷","ALLEY":" ","HOUSE_NO":"９號","E_COORD97":171092.79000000001,"N_COORD97":2540626.04,"ADDRESS":"生產路５３４巷９號","OBJECTID":300619},"geometry":{"x":171092.79000000004,"y":2540626.0400000028}},{"attributes":{"ID":300628,"DIS_CODE":0,"TOWNNAME":"東區","LI":"裕農里","LIN":"4鄰","STREET":"裕農路","SECT":" ","MAREA":" ","LANE":"２９１巷","ALLEY":" ","HOUSE_NO":"６４號","E_COORD97":170883.19,"N_COORD97":2543102.8300000001,"ADDRESS":"裕農路２９１巷６４號","OBJECTID":300620},"geometry":{"x":170883.19000000134,"y":2543102.8300000001}},{"attributes":{"ID":300629,"DIS_CODE":0,"TOWNNAME":"東區","LI":"裕農里","LIN":"4鄰","STREET":"裕農路","SECT":" ","MAREA":" ","LANE":"２９１巷","ALLEY":" ","HOUSE_NO":"５７號","E_COORD97":170889.51000000001,"N_COORD97":2543063.8799999999,"ADDRESS":"裕農路２９１巷５７號","OBJECTID":300621},"geometry":{"x":170889.50999999978,"y":2543063.879999999}},{"attributes":{"ID":300630,"DIS_CODE":0,"TOWNNAME":"東區","LI":"崇德里","LIN":"8鄰","STREET":"崇德七街","SECT":" ","MAREA":" ","LANE":"２０巷","ALLEY":" ","HOUSE_NO":"３０號三樓之１","E_COORD97":170872.42999999999,"N_COORD97":2541683.27,"ADDRESS":"崇德七街２０巷３０號三樓之１","OBJECTID":300622},"geometry":{"x":170872.4299999997,"y":2541683.2700000014}},{"attributes":{"ID":300631,"DIS_CODE":0,"TOWNNAME":"東區","LI":"崇德里","LIN":"8鄰","STREET":"崇德七街","SECT":" ","MAREA":" ","LANE":"２０巷","ALLEY":" ","HOUSE_NO":"３０號五樓之１","E_COORD97":170872.42999999999,"N_COORD97":2541683.27,"ADDRESS":"崇德七街２０巷３０號五樓之１","OBJECTID":300623},"geometry":{"x":170872.4299999997,"y":2541683.2700000014}},{"attributes":{"ID":300632,"DIS_CODE":0,"TOWNNAME":"東區","LI":"崇德里","LIN":"8鄰","STREET":"崇德七街","SECT":" ","MAREA":" ","LANE":"２０巷","ALLEY":" ","HOUSE_NO":"３０號六樓","E_COORD97":170872.42999999999,"N_COORD97":2541683.27,"ADDRESS":"崇德七街２０巷３０號六樓","OBJECTID":300624},"geometry":{"x":170872.4299999997,"y":2541683.2700000014}},{"attributes":{"ID":300633,"DIS_CODE":0,"TOWNNAME":"東區","LI":"崇德里","LIN":"8鄰","STREET":"崇德七街","SECT":" ","MAREA":" ","LANE":"２０巷","ALLEY":" ","HOUSE_NO":"３０號四樓","E_COORD97":170872.42999999999,"N_COORD97":2541683.27,"ADDRESS":"崇德七街２０巷３０號四樓","OBJECTID":300625},"geometry":{"x":170872.4299999997,"y":2541683.2700000014}},{"attributes":{"ID":300634,"DIS_CODE":0,"TOWNNAME":"東區","LI":"崇德里","LIN":"8鄰","STREET":"崇德七街","SECT":" ","MAREA":" ","LANE":"２０巷","ALLEY":" ","HOUSE_NO":"３２號七樓","E_COORD97":170881.39999999999,"N_COORD97":2541706.0699999998,"ADDRESS":"崇德七街２０巷３２號七樓","OBJECTID":300626},"geometry":{"x":170881.4000000013,"y":2541706.0700000022}},{"attributes":{"ID":300635,"DIS_CODE":0,"TOWNNAME":"東區","LI":"崇德里","LIN":"8鄰","STREET":"崇德七街","SECT":" ","MAREA":" ","LANE":"２０巷","ALLEY":" ","HOUSE_NO":"３２號三樓","E_COORD97":170881.39999999999,"N_COORD97":2541706.0699999998,"ADDRESS":"崇德七街２０巷３２號三樓","OBJECTID":300627},"geometry":{"x":170881.4000000013,"y":2541706.0700000022}},{"attributes":{"ID":300636,"DIS_CODE":0,"TOWNNAME":"善化區","LI":"文昌里","LIN":"17鄰","STREET":" ","SECT":" ","MAREA":"益民寮","LANE":" ","ALLEY":" ","HOUSE_NO":"１８號之１","E_COORD97":177692.31,"N_COORD97":2557154.2200000002,"ADDRESS":"益民寮１８號之１","OBJECTID":300628},"geometry":{"x":177692.31000000052,"y":2557154.2199999988}},{"attributes":{"ID":300637,"DIS_CODE":0,"TOWNNAME":"東區","LI":"崇德里","LIN":"8鄰","STREET":"崇德七街","SECT":" ","MAREA":" ","LANE":"２０巷","ALLEY":" ","HOUSE_NO":"３２號五樓","E_COORD97":170881.39999999999,"N_COORD97":2541706.0699999998,"ADDRESS":"崇德七街２０巷３２號五樓","OBJECTID":300629},"geometry":{"x":170881.4000000013,"y":2541706.0700000022}},{"attributes":{"ID":300638,"DIS_CODE":0,"TOWNNAME":"東區","LI":"崇德里","LIN":"8鄰","STREET":"崇德七街","SECT":" ","MAREA":" ","LANE":"２０巷","ALLEY":" ","HOUSE_NO":"３２號六樓","E_COORD97":170881.39999999999,"N_COORD97":2541706.0699999998,"ADDRESS":"崇德七街２０巷３２號六樓","OBJECTID":300630},"geometry":{"x":170881.4000000013,"y":2541706.0700000022}},{"attributes":{"ID":300639,"DIS_CODE":0,"TOWNNAME":"東區","LI":"崇德里","LIN":"8鄰","STREET":"崇德七街","SECT":" ","MAREA":" ","LANE":"２０巷","ALLEY":" ","HOUSE_NO":"３２號四樓","E_COORD97":170881.39999999999,"N_COORD97":2541706.0699999998,"ADDRESS":"崇德七街２０巷３２號四樓","OBJECTID":300631},"geometry":{"x":170881.4000000013,"y":2541706.0700000022}},{"attributes":{"ID":300640,"DIS_CODE":0,"TOWNNAME":"東區","LI":"崇德里","LIN":"8鄰","STREET":"崇德七街","SECT":" ","MAREA":" ","LANE":"２０巷","ALLEY":" ","HOUSE_NO":"３４號七樓","E_COORD97":170888,"N_COORD97":2541684.7000000002,"ADDRESS":"崇德七街２０巷３４號七樓","OBJECTID":300632},"geometry":{"x":170888,"y":2541684.6999999993}},{"attributes":{"ID":300641,"DIS_CODE":0,"TOWNNAME":"東區","LI":"崇德里","LIN":"8鄰","STREET":"崇德七街","SECT":" ","MAREA":" ","LANE":"２０巷","ALLEY":" ","HOUSE_NO":"３４號二樓","E_COORD97":170888,"N_COORD97":2541684.7000000002,"ADDRESS":"崇德七街２０巷３４號二樓","OBJECTID":300633},"geometry":{"x":170888,"y":2541684.6999999993}},{"attributes":{"ID":300642,"DIS_CODE":0,"TOWNNAME":"東區","LI":"崇德里","LIN":"8鄰","STREET":"崇德七街","SECT":" ","MAREA":" ","LANE":"２０巷","ALLEY":" ","HOUSE_NO":"３４號三樓","E_COORD97":170888,"N_COORD97":2541684.7000000002,"ADDRESS":"崇德七街２０巷３４號三樓","OBJECTID":300634},"geometry":{"x":170888,"y":2541684.6999999993}},{"attributes":{"ID":300643,"DIS_CODE":0,"TOWNNAME":"東區","LI":"崇德里","LIN":"8鄰","STREET":"崇德七街","SECT":" ","MAREA":" ","LANE":"２０巷","ALLEY":" ","HOUSE_NO":"３４號五樓","E_COORD97":170888,"N_COORD97":2541684.7000000002,"ADDRESS":"崇德七街２０巷３４號五樓","OBJECTID":300635},"geometry":{"x":170888,"y":2541684.6999999993}},{"attributes":{"ID":300644,"DIS_CODE":0,"TOWNNAME":"東區","LI":"崇德里","LIN":"8鄰","STREET":"崇德七街","SECT":" ","MAREA":" ","LANE":"２０巷","ALLEY":" ","HOUSE_NO":"３４號六樓","E_COORD97":170888,"N_COORD97":2541684.7000000002,"ADDRESS":"崇德七街２０巷３４號六樓","OBJECTID":300636},"geometry":{"x":170888,"y":2541684.6999999993}},{"attributes":{"ID":300645,"DIS_CODE":0,"TOWNNAME":"東區","LI":"崇德里","LIN":"8鄰","STREET":"崇德七街","SECT":" ","MAREA":" ","LANE":"２０巷","ALLEY":" ","HOUSE_NO":"３４號四樓","E_COORD97":170888,"N_COORD97":2541684.7000000002,"ADDRESS":"崇德七街２０巷３４號四樓","OBJECTID":300637},"geometry":{"x":170888,"y":2541684.6999999993}},{"attributes":{"ID":300646,"DIS_CODE":0,"TOWNNAME":"北區","LI":"長榮里","LIN":"23鄰","STREET":"開元路","SECT":" ","MAREA":" ","LANE":"３３３巷","ALLEY":" ","HOUSE_NO":"１號","E_COORD97":170211.48999999999,"N_COORD97":2545431.4300000002,"ADDRESS":"開元路３３３巷１號","OBJECTID":300638},"geometry":{"x":170211.49000000022,"y":2545431.4300000034}},{"attributes":{"ID":300647,"DIS_CODE":0,"TOWNNAME":"官田區","LI":"隆田里","LIN":"14鄰","STREET":"文化街","SECT":" ","MAREA":" ","LANE":" ","ALLEY":" ","HOUSE_NO":"１２４號","E_COORD97":180199.72,"N_COORD97":2566127.4100000001,"ADDRESS":"文化街１２４號","OBJECTID":300639},"geometry":{"x":180199.71999999974,"y":2566127.410000002}},{"attributes":{"ID":300648,"DIS_CODE":0,"TOWNNAME":"官田區","LI":"隆田里","LIN":"14鄰","STREET":"文化街","SECT":" ","MAREA":" ","LANE":" ","ALLEY":" ","HOUSE_NO":"１２６號","E_COORD97":180199.54999999999,"N_COORD97":2566131.7799999998,"ADDRESS":"文化街１２６號","OBJECTID":300640},"geometry":{"x":180199.55000000168,"y":2566131.7800000012}},{"attributes":{"ID":300649,"DIS_CODE":0,"TOWNNAME":"官田區","LI":"隆田里","LIN":"14鄰","STREET":"文化街","SECT":" ","MAREA":" ","LANE":" ","ALLEY":" ","HOUSE_NO":"１３０號","E_COORD97":180199.34,"N_COORD97":2566141.4399999999,"ADDRESS":"文化街１３０號","OBJECTID":300641},"geometry":{"x":180199.34000000171,"y":2566141.4399999995}},{"attributes":{"ID":300650,"DIS_CODE":0,"TOWNNAME":"官田區","LI":"隆田里","LIN":"14鄰","STREET":"文化街","SECT":" ","MAREA":" ","LANE":" ","ALLEY":" ","HOUSE_NO":"９０號","E_COORD97":180184.20999999999,"N_COORD97":2566039.3999999999,"ADDRESS":"文化街９０號","OBJECTID":300642},"geometry":{"x":180184.20999999996,"y":2566039.4000000022}},{"attributes":{"ID":300651,"DIS_CODE":0,"TOWNNAME":"官田區","LI":"隆田里","LIN":"14鄰","STREET":"文化街","SECT":" ","MAREA":" ","LANE":" ","ALLEY":" ","HOUSE_NO":"９２號","E_COORD97":180200.51999999999,"N_COORD97":2566048.6000000001,"ADDRESS":"文化街９２號","OBJECTID":300643},"geometry":{"x":180200.51999999955,"y":2566048.6000000015}},{"attributes":{"ID":300652,"DIS_CODE":0,"TOWNNAME":"官田區","LI":"隆田里","LIN":"14鄰","STREET":"文化街","SECT":" ","MAREA":" ","LANE":" ","ALLEY":" ","HOUSE_NO":"９４號","E_COORD97":180200.91,"N_COORD97":2566052.5800000001,"ADDRESS":"文化街９４號","OBJECTID":300644},"geometry":{"x":180200.91000000108,"y":2566052.5800000019}},{"attributes":{"ID":300653,"DIS_CODE":0,"TOWNNAME":"安南區","LI":"城南里","LIN":"4鄰","STREET":"城西街","SECT":"一段","MAREA":" ","LANE":"６１巷","ALLEY":" ","HOUSE_NO":"１２４號","E_COORD97":160649.60999999999,"N_COORD97":2551202.8500000001,"ADDRESS":"城西街一段６１巷１２４號","OBJECTID":300645},"geometry":{"x":160649.61000000127,"y":2551202.8500000015}},{"attributes":{"ID":300654,"DIS_CODE":0,"TOWNNAME":"安南區","LI":"城南里","LIN":"4鄰","STREET":"城西街","SECT":"一段","MAREA":" ","LANE":"６１巷","ALLEY":" ","HOUSE_NO":"１２９號","E_COORD97":160644.89000000001,"N_COORD97":2551180.9900000002,"ADDRESS":"城西街一段６１巷１２９號","OBJECTID":300646},"geometry":{"x":160644.8900000006,"y":2551180.9900000002}},{"attributes":{"ID":300655,"DIS_CODE":0,"TOWNNAME":"東區","LI":"崇德里","LIN":"8鄰","STREET":"崇德七街","SECT":" ","MAREA":" ","LANE":"２０巷","ALLEY":" ","HOUSE_NO":"３０號五樓","E_COORD97":170872.42999999999,"N_COORD97":2541683.27,"ADDRESS":"崇德七街２０巷３０號五樓","OBJECTID":300647},"geometry":{"x":170872.4299999997,"y":2541683.2700000014}},{"attributes":{"ID":300656,"DIS_CODE":0,"TOWNNAME":"東區","LI":"崇德里","LIN":"8鄰","STREET":"崇德七街","SECT":" ","MAREA":" ","LANE":"２０巷","ALLEY":" ","HOUSE_NO":"３０號六樓之１","E_COORD97":170872.42999999999,"N_COORD97":2541683.27,"ADDRESS":"崇德七街２０巷３０號六樓之１","OBJECTID":300648},"geometry":{"x":170872.4299999997,"y":2541683.2700000014}},{"attributes":{"ID":300657,"DIS_CODE":0,"TOWNNAME":"白河區","LI":"昇安里","LIN":"4鄰","STREET":" ","SECT":" ","MAREA":"三間厝","LANE":" ","ALLEY":" ","HOUSE_NO":"４６號","E_COORD97":191756.25,"N_COORD97":2584756.2400000002,"ADDRESS":"三間厝４６號","OBJECTID":300649},"geometry":{"x":191756.25000000093,"y":2584756.2400000021}},{"attributes":{"ID":300658,"DIS_CODE":0,"TOWNNAME":"善化區","LI":"南關里","LIN":"8鄰","STREET":"光復路","SECT":" ","MAREA":" ","LANE":"４３８巷","ALLEY":" ","HOUSE_NO":"１號四樓之３","E_COORD97":176866.95999999999,"N_COORD97":2558798.25,"ADDRESS":"光復路４３８巷１號四樓之３","OBJECTID":300650},"geometry":{"x":176866.95999999996,"y":2558798.2500000019}},{"attributes":{"ID":300659,"DIS_CODE":0,"TOWNNAME":"官田區","LI":"拔林里","LIN":"4鄰","STREET":" ","SECT":" ","MAREA":"拔子林","LANE":" ","ALLEY":" ","HOUSE_NO":"３１號","E_COORD97":180588.32999999999,"N_COORD97":2563688.5299999998,"ADDRESS":"拔子林３１號","OBJECTID":300651},"geometry":{"x":180588.33000000101,"y":2563688.5300000012}},{"attributes":{"ID":300660,"DIS_CODE":0,"TOWNNAME":"官田區","LI":"拔林里","LIN":"4鄰","STREET":" ","SECT":" ","MAREA":"拔子林","LANE":" ","ALLEY":" ","HOUSE_NO":"３２號","E_COORD97":180608.23999999999,"N_COORD97":2563665.1899999999,"ADDRESS":"拔子林３２號","OBJECTID":300652},"geometry":{"x":180608.24000000022,"y":2563665.1899999995}},{"attributes":{"ID":300661,"DIS_CODE":0,"TOWNNAME":"官田區","LI":"拔林里","LIN":"4鄰","STREET":" ","SECT":" ","MAREA":"拔子林","LANE":" ","ALLEY":" ","HOUSE_NO":"３３號之１","E_COORD97":180585.53,"N_COORD97":2563707.5,"ADDRESS":"拔子林３３號之１","OBJECTID":300653},"geometry":{"x":180585.53000000119,"y":2563707.5}},{"attributes":{"ID":300662,"DIS_CODE":0,"TOWNNAME":"官田區","LI":"拔林里","LIN":"4鄰","STREET":" ","SECT":" ","MAREA":"拔子林","LANE":" ","ALLEY":" ","HOUSE_NO":"３３號","E_COORD97":180601.07999999999,"N_COORD97":2563694.8799999999,"ADDRESS":"拔子林３３號","OBJECTID":300654},"geometry":{"x":180601.08000000007,"y":2563694.8800000027}},{"attributes":{"ID":300663,"DIS_CODE":0,"TOWNNAME":"善化區","LI":"南關里","LIN":"8鄰","STREET":"光復路","SECT":" ","MAREA":" ","LANE":"４３８巷","ALLEY":" ","HOUSE_NO":"１號四樓之５","E_COORD97":176866.95999999999,"N_COORD97":2558798.25,"ADDRESS":"光復路４３８巷１號四樓之５","OBJECTID":300655},"geometry":{"x":176866.95999999996,"y":2558798.2500000019}},{"attributes":{"ID":300664,"DIS_CODE":0,"TOWNNAME":"善化區","LI":"南關里","LIN":"8鄰","STREET":"光復路","SECT":" ","MAREA":" ","LANE":"４３８巷","ALLEY":" ","HOUSE_NO":"１號四樓之６","E_COORD97":176866.95999999999,"N_COORD97":2558798.25,"ADDRESS":"光復路４３８巷１號四樓之６","OBJECTID":300656},"geometry":{"x":176866.95999999996,"y":2558798.2500000019}},{"attributes":{"ID":300665,"DIS_CODE":0,"TOWNNAME":"善化區","LI":"南關里","LIN":"8鄰","STREET":"光復路","SECT":" ","MAREA":" ","LANE":"４３８巷","ALLEY":" ","HOUSE_NO":"１號四樓之７","E_COORD97":176866.95999999999,"N_COORD97":2558798.25,"ADDRESS":"光復路４３８巷１號四樓之７","OBJECTID":300657},"geometry":{"x":176866.95999999996,"y":2558798.2500000019}},{"attributes":{"ID":300666,"DIS_CODE":0,"TOWNNAME":"善化區","LI":"南關里","LIN":"8鄰","STREET":"光復路","SECT":" ","MAREA":" ","LANE":"４３８巷","ALLEY":" ","HOUSE_NO":"１號四樓之８","E_COORD97":176866.95999999999,"N_COORD97":2558798.25,"ADDRESS":"光復路４３８巷１號四樓之８","OBJECTID":300658},"geometry":{"x":176866.95999999996,"y":2558798.2500000019}},{"attributes":{"ID":300667,"DIS_CODE":0,"TOWNNAME":"善化區","LI":"南關里","LIN":"8鄰","STREET":"光復路","SECT":" ","MAREA":" ","LANE":"４３８巷","ALLEY":" ","HOUSE_NO":"１號四樓之９","E_COORD97":176866.95999999999,"N_COORD97":2558798.25,"ADDRESS":"光復路４３８巷１號四樓之９","OBJECTID":300659},"geometry":{"x":176866.95999999996,"y":2558798.2500000019}},{"attributes":{"ID":300668,"DIS_CODE":0,"TOWNNAME":"善化區","LI":"南關里","LIN":"8鄰","STREET":"光復路","SECT":" ","MAREA":" ","LANE":"４３８巷","ALLEY":" ","HOUSE_NO":"１號四樓之１０","E_COORD97":176866.95999999999,"N_COORD97":2558798.25,"ADDRESS":"光復路４３８巷１號四樓之１０","OBJECTID":300660},"geometry":{"x":176866.95999999996,"y":2558798.2500000019}},{"attributes":{"ID":300669,"DIS_CODE":0,"TOWNNAME":"善化區","LI":"南關里","LIN":"8鄰","STREET":"光復路","SECT":" ","MAREA":" ","LANE":"４３８巷","ALLEY":" ","HOUSE_NO":"１號四樓之１１","E_COORD97":176866.95999999999,"N_COORD97":2558798.25,"ADDRESS":"光復路４３８巷１號四樓之１１","OBJECTID":300661},"geometry":{"x":176866.95999999996,"y":2558798.2500000019}},{"attributes":{"ID":300670,"DIS_CODE":0,"TOWNNAME":"善化區","LI":"南關里","LIN":"8鄰","STREET":"光復路","SECT":" ","MAREA":" ","LANE":"４３８巷","ALLEY":" ","HOUSE_NO":"１號四樓之１２","E_COORD97":176866.95999999999,"N_COORD97":2558798.25,"ADDRESS":"光復路４３８巷１號四樓之１２","OBJECTID":300662},"geometry":{"x":176866.95999999996,"y":2558798.2500000019}},{"attributes":{"ID":300671,"DIS_CODE":0,"TOWNNAME":"善化區","LI":"南關里","LIN":"8鄰","STREET":"光復路","SECT":" ","MAREA":" ","LANE":"４３８巷","ALLEY":" ","HOUSE_NO":"１號四樓之１３","E_COORD97":176866.95999999999,"N_COORD97":2558798.25,"ADDRESS":"光復路４３８巷１號四樓之１３","OBJECTID":300663},"geometry":{"x":176866.95999999996,"y":2558798.2500000019}},{"attributes":{"ID":300672,"DIS_CODE":0,"TOWNNAME":"善化區","LI":"南關里","LIN":"8鄰","STREET":"光復路","SECT":" ","MAREA":" ","LANE":"４３８巷","ALLEY":" ","HOUSE_NO":"１號四樓之１５","E_COORD97":176866.95999999999,"N_COORD97":2558798.25,"ADDRESS":"光復路４３８巷１號四樓之１５","OBJECTID":300664},"geometry":{"x":176866.95999999996,"y":2558798.2500000019}},{"attributes":{"ID":300673,"DIS_CODE":0,"TOWNNAME":"善化區","LI":"南關里","LIN":"8鄰","STREET":"光復路","SECT":" ","MAREA":" ","LANE":"４３８巷","ALLEY":" ","HOUSE_NO":"１號四樓之１６","E_COORD97":176866.95999999999,"N_COORD97":2558798.25,"ADDRESS":"光復路４３８巷１號四樓之１６","OBJECTID":300665},"geometry":{"x":176866.95999999996,"y":2558798.2500000019}},{"attributes":{"ID":300674,"DIS_CODE":0,"TOWNNAME":"南區","LI":"建南里","LIN":"8鄰","STREET":"德興路","SECT":" ","MAREA":" ","LANE":"２３２巷","ALLEY":" ","HOUSE_NO":"６號","E_COORD97":167180.31,"N_COORD97":2540124.3399999999,"ADDRESS":"德興路２３２巷６號","OBJECTID":300666},"geometry":{"x":167180.31000000052,"y":2540124.3400000017}},{"attributes":{"ID":300675,"DIS_CODE":0,"TOWNNAME":"官田區","LI":"隆田里","LIN":"14鄰","STREET":"文化街","SECT":" ","MAREA":" ","LANE":" ","ALLEY":" ","HOUSE_NO":"９６號","E_COORD97":180201.04999999999,"N_COORD97":2566056.4100000001,"ADDRESS":"文化街９６號","OBJECTID":300667},"geometry":{"x":180201.04999999888,"y":2566056.410000002}},{"attributes":{"ID":300676,"DIS_CODE":0,"TOWNNAME":"官田區","LI":"隆田里","LIN":"14鄰","STREET":"文化街","SECT":" ","MAREA":" ","LANE":" ","ALLEY":" ","HOUSE_NO":"９８號","E_COORD97":180200.35999999999,"N_COORD97":2566061.21,"ADDRESS":"文化街９８號","OBJECTID":300668},"geometry":{"x":180200.36000000127,"y":2566061.2100000046}},{"attributes":{"ID":300677,"DIS_CODE":0,"TOWNNAME":"仁德區","LI":"土庫里","LIN":"14鄰","STREET":"土庫路","SECT":" ","MAREA":" ","LANE":" ","ALLEY":" ","HOUSE_NO":"１６１號","E_COORD97":174365.07000000001,"N_COORD97":2543031.75,"ADDRESS":"土庫路１６１號","OBJECTID":300669},"geometry":{"x":174365.07000000216,"y":2543031.75}},{"attributes":{"ID":300678,"DIS_CODE":0,"TOWNNAME":"東區","LI":"新東里","LIN":"4鄰","STREET":"衛國街","SECT":" ","MAREA":" ","LANE":"１０６巷","ALLEY":" ","HOUSE_NO":"３６號","E_COORD97":170385.5,"N_COORD97":2542943.96,"ADDRESS":"衛國街１０６巷３６號","OBJECTID":300670},"geometry":{"x":170385.50000000093,"y":2542943.9600000046}},{"attributes":{"ID":300679,"DIS_CODE":0,"TOWNNAME":"東區","LI":"新東里","LIN":"4鄰","STREET":"衛國街","SECT":" ","MAREA":" ","LANE":"１０６巷","ALLEY":" ","HOUSE_NO":"３７號","E_COORD97":170407.25,"N_COORD97":2542963.9199999999,"ADDRESS":"衛國街１０６巷３７號","OBJECTID":300671},"geometry":{"x":170407.25000000093,"y":2542963.9200000018}},{"attributes":{"ID":300680,"DIS_CODE":0,"TOWNNAME":"東區","LI":"新東里","LIN":"4鄰","STREET":"衛國街","SECT":" ","MAREA":" ","LANE":"１０６巷","ALLEY":" ","HOUSE_NO":"３８號","E_COORD97":170386.10000000001,"N_COORD97":2542938.0099999998,"ADDRESS":"衛國街１０６巷３８號","OBJECTID":300672},"geometry":{"x":170386.10000000056,"y":2542938.0099999998}},{"attributes":{"ID":300681,"DIS_CODE":0,"TOWNNAME":"東區","LI":"新東里","LIN":"4鄰","STREET":"衛國街","SECT":" ","MAREA":" ","LANE":"１０６巷","ALLEY":" ","HOUSE_NO":"３９號","E_COORD97":170407.60000000001,"N_COORD97":2542959.4399999999,"ADDRESS":"衛國街１０６巷３９號","OBJECTID":300673},"geometry":{"x":170407.60000000149,"y":2542959.4400000032}},{"attributes":{"ID":300682,"DIS_CODE":0,"TOWNNAME":"東區","LI":"新東里","LIN":"4鄰","STREET":"衛國街","SECT":" ","MAREA":" ","LANE":"１０６巷","ALLEY":" ","HOUSE_NO":"４０號","E_COORD97":170387.04999999999,"N_COORD97":2542931.5,"ADDRESS":"衛國街１０６巷４０號","OBJECTID":300674},"geometry":{"x":170387.04999999981,"y":2542931.5}},{"attributes":{"ID":300683,"DIS_CODE":0,"TOWNNAME":"東區","LI":"新東里","LIN":"4鄰","STREET":"衛國街","SECT":" ","MAREA":" ","LANE":"１０６巷","ALLEY":" ","HOUSE_NO":"４１號","E_COORD97":170408.07000000001,"N_COORD97":2542954.73,"ADDRESS":"衛國街１０６巷４１號","OBJECTID":300675},"geometry":{"x":170408.0700000003,"y":2542954.7300000004}},{"attributes":{"ID":300684,"DIS_CODE":0,"TOWNNAME":"東區","LI":"新東里","LIN":"4鄰","STREET":"衛國街","SECT":" ","MAREA":" ","LANE":"１０６巷","ALLEY":" ","HOUSE_NO":"４２號","E_COORD97":170387.64999999999,"N_COORD97":2542927.3100000001,"ADDRESS":"衛國街１０６巷４２號","OBJECTID":300676},"geometry":{"x":170387.65000000224,"y":2542927.3100000005}},{"attributes":{"ID":300685,"DIS_CODE":0,"TOWNNAME":"東區","LI":"新東里","LIN":"4鄰","STREET":"衛國街","SECT":" ","MAREA":" ","LANE":"１０６巷","ALLEY":" ","HOUSE_NO":"４３號","E_COORD97":170409.13,"N_COORD97":2542950.7200000002,"ADDRESS":"衛國街１０６巷４３號","OBJECTID":300677},"geometry":{"x":170409.12999999989,"y":2542950.7200000007}},{"attributes":{"ID":300686,"DIS_CODE":0,"TOWNNAME":"東區","LI":"新東里","LIN":"4鄰","STREET":"衛國街","SECT":" ","MAREA":" ","LANE":"１０６巷","ALLEY":" ","HOUSE_NO":"４號","E_COORD97":170379.32999999999,"N_COORD97":2543042.8599999999,"ADDRESS":"衛國街１０６巷４號","OBJECTID":300678},"geometry":{"x":170379.33000000194,"y":2543042.8600000013}},{"attributes":{"ID":300687,"DIS_CODE":0,"TOWNNAME":"東區","LI":"新東里","LIN":"4鄰","STREET":"衛國街","SECT":" ","MAREA":" ","LANE":"１０６巷","ALLEY":" ","HOUSE_NO":"６號","E_COORD97":170379.92999999999,"N_COORD97":2543033.27,"ADDRESS":"衛國街１０６巷６號","OBJECTID":300679},"geometry":{"x":170379.93000000156,"y":2543033.2700000014}},{"attributes":{"ID":300688,"DIS_CODE":0,"TOWNNAME":"東區","LI":"新東里","LIN":"4鄰","STREET":"衛國街","SECT":" ","MAREA":" ","LANE":"１０６巷","ALLEY":" ","HOUSE_NO":"７號","E_COORD97":170401.69,"N_COORD97":2543042.3799999999,"ADDRESS":"衛國街１０６巷７號","OBJECTID":300680},"geometry":{"x":170401.69000000134,"y":2543042.3800000008}},{"attributes":{"ID":300689,"DIS_CODE":0,"TOWNNAME":"東區","LI":"新東里","LIN":"4鄰","STREET":"衛國街","SECT":" ","MAREA":" ","LANE":"１０６巷","ALLEY":" ","HOUSE_NO":"９號","E_COORD97":170401.57999999999,"N_COORD97":2543037.2000000002,"ADDRESS":"衛國街１０６巷９號","OBJECTID":300681},"geometry":{"x":170401.58000000101,"y":2543037.1999999993}},{"attributes":{"ID":300690,"DIS_CODE":0,"TOWNNAME":"安南區","LI":"溪頂里","LIN":"4鄰","STREET":"府安路","SECT":"四段","MAREA":" ","LANE":"１２１巷","ALLEY":" ","HOUSE_NO":"１３號","E_COORD97":168960.45999999999,"N_COORD97":2547314.2999999998,"ADDRESS":"府安路四段１２１巷１３號","OBJECTID":300682},"geometry":{"x":168960.45999999996,"y":2547314.3000000007}},{"attributes":{"ID":300691,"DIS_CODE":0,"TOWNNAME":"安南區","LI":"溪頂里","LIN":"4鄰","STREET":"府安路","SECT":"四段","MAREA":" ","LANE":"１２１巷","ALLEY":" ","HOUSE_NO":"１４號","E_COORD97":168985.81,"N_COORD97":2547315,"ADDRESS":"府安路四段１２１巷１４號","OBJECTID":300683},"geometry":{"x":168985.81000000052,"y":2547315}},{"attributes":{"ID":300692,"DIS_CODE":0,"TOWNNAME":"善化區","LI":"南關里","LIN":"8鄰","STREET":"光復路","SECT":" ","MAREA":" ","LANE":"４３８巷","ALLEY":" ","HOUSE_NO":"１號四樓之１７","E_COORD97":176866.95999999999,"N_COORD97":2558798.25,"ADDRESS":"光復路４３８巷１號四樓之１７","OBJECTID":300684},"geometry":{"x":176866.95999999996,"y":2558798.2500000019}},{"attributes":{"ID":300693,"DIS_CODE":0,"TOWNNAME":"善化區","LI":"南關里","LIN":"8鄰","STREET":"光復路","SECT":" ","MAREA":" ","LANE":"４３８巷","ALLEY":" ","HOUSE_NO":"１號四樓之１８","E_COORD97":176866.95999999999,"N_COORD97":2558798.25,"ADDRESS":"光復路４３８巷１號四樓之１８","OBJECTID":300685},"geometry":{"x":176866.95999999996,"y":2558798.2500000019}},{"attributes":{"ID":300694,"DIS_CODE":0,"TOWNNAME":"善化區","LI":"南關里","LIN":"8鄰","STREET":"光復路","SECT":" ","MAREA":" ","LANE":"４３８巷","ALLEY":" ","HOUSE_NO":"１號四樓之２０","E_COORD97":176866.95999999999,"N_COORD97":2558798.25,"ADDRESS":"光復路４３８巷１號四樓之２０","OBJECTID":300686},"geometry":{"x":176866.95999999996,"y":2558798.2500000019}},{"attributes":{"ID":300695,"DIS_CODE":0,"TOWNNAME":"仁德區","LI":"土庫里","LIN":"14鄰","STREET":"土庫路","SECT":" ","MAREA":" ","LANE":" ","ALLEY":" ","HOUSE_NO":"１７５號","E_COORD97":174366.42999999999,"N_COORD97":2542988,"ADDRESS":"土庫路１７５號","OBJECTID":300687},"geometry":{"x":174366.4299999997,"y":2542988.0000000019}},{"attributes":{"ID":300696,"DIS_CODE":0,"TOWNNAME":"六甲區","LI":"六甲里","LIN":"13鄰","STREET":"建國街","SECT":" ","MAREA":" ","LANE":" ","ALLEY":" ","HOUSE_NO":"８號","E_COORD97":183761,"N_COORD97":2569875.0600000001,"ADDRESS":"建國街８號","OBJECTID":300688},"geometry":{"x":183761,"y":2569875.0600000005}},{"attributes":{"ID":300697,"DIS_CODE":0,"TOWNNAME":"中西區","LI":"三民里","LIN":"14鄰","STREET":"公園路","SECT":" ","MAREA":" ","LANE":" ","ALLEY":" ","HOUSE_NO":"３６號","E_COORD97":168562.94,"N_COORD97":2543902.3900000001,"ADDRESS":"公園路３６號","OBJECTID":300689},"geometry":{"x":168562.94000000041,"y":2543902.3900000006}},{"attributes":{"ID":300698,"DIS_CODE":0,"TOWNNAME":"中西區","LI":"三民里","LIN":"14鄰","STREET":"公園路","SECT":" ","MAREA":" ","LANE":" ","ALLEY":" ","HOUSE_NO":"４０號","E_COORD97":168564.78,"N_COORD97":2543914.4100000001,"ADDRESS":"公園路４０號","OBJECTID":300690},"geometry":{"x":168564.78000000119,"y":2543914.410000002}},{"attributes":{"ID":300699,"DIS_CODE":0,"TOWNNAME":"中西區","LI":"三民里","LIN":"14鄰","STREET":"公園路","SECT":" ","MAREA":" ","LANE":" ","ALLEY":" ","HOUSE_NO":"４６號","E_COORD97":168569.26000000001,"N_COORD97":2543924.3900000001,"ADDRESS":"公園路４６號","OBJECTID":300691},"geometry":{"x":168569.26000000071,"y":2543924.3900000025}},{"attributes":{"ID":300700,"DIS_CODE":0,"TOWNNAME":"中西區","LI":"三民里","LIN":"14鄰","STREET":"公園路","SECT":" ","MAREA":" ","LANE":" ","ALLEY":" ","HOUSE_NO":"４８號","E_COORD97":168568.23999999999,"N_COORD97":2543933.48,"ADDRESS":"公園路４８號","OBJECTID":300692},"geometry":{"x":168568.24000000115,"y":2543933.4800000042}},{"attributes":{"ID":300701,"DIS_CODE":0,"TOWNNAME":"中西區","LI":"三民里","LIN":"14鄰","STREET":"公園路","SECT":" ","MAREA":" ","LANE":" ","ALLEY":" ","HOUSE_NO":"５０號","E_COORD97":168566.82000000001,"N_COORD97":2543938.77,"ADDRESS":"公園路５０號","OBJECTID":300693},"geometry":{"x":168566.8200000003,"y":2543938.7700000014}},{"attributes":{"ID":300702,"DIS_CODE":0,"TOWNNAME":"中西區","LI":"三民里","LIN":"14鄰","STREET":"公園路","SECT":" ","MAREA":" ","LANE":" ","ALLEY":" ","HOUSE_NO":"５２號","E_COORD97":168568.64999999999,"N_COORD97":2543945.8999999999,"ADDRESS":"公園路５２號","OBJECTID":300694},"geometry":{"x":168568.65000000224,"y":2543945.9000000004}},{"attributes":{"ID":300703,"DIS_CODE":0,"TOWNNAME":"中西區","LI":"三民里","LIN":"14鄰","STREET":"公園路","SECT":" ","MAREA":" ","LANE":" ","ALLEY":" ","HOUSE_NO":"５２號地下一層","E_COORD97":168568.64999999999,"N_COORD97":2543945.8999999999,"ADDRESS":"公園路５２號地下一層","OBJECTID":300695},"geometry":{"x":168568.65000000224,"y":2543945.9000000004}},{"attributes":{"ID":300704,"DIS_CODE":0,"TOWNNAME":"中西區","LI":"三民里","LIN":"14鄰","STREET":"民族路","SECT":"二段","MAREA":" ","LANE":" ","ALLEY":" ","HOUSE_NO":"１８３號","E_COORD97":168655.14000000001,"N_COORD97":2543981.4900000002,"ADDRESS":"民族路二段１８３號","OBJECTID":300696},"geometry":{"x":168655.1400000006,"y":2543981.4900000021}},{"attributes":{"ID":300705,"DIS_CODE":0,"TOWNNAME":"中西區","LI":"三民里","LIN":"14鄰","STREET":"民族路","SECT":"二段","MAREA":" ","LANE":" ","ALLEY":" ","HOUSE_NO":"１８５號","E_COORD97":168651.67999999999,"N_COORD97":2543983.1200000001,"ADDRESS":"民族路二段１８５號","OBJECTID":300697},"geometry":{"x":168651.6799999997,"y":2543983.120000001}},{"attributes":{"ID":300706,"DIS_CODE":0,"TOWNNAME":"中西區","LI":"三民里","LIN":"14鄰","STREET":"民族路","SECT":"二段","MAREA":" ","LANE":" ","ALLEY":" ","HOUSE_NO":"１８９號","E_COORD97":168645.14999999999,"N_COORD97":2543986.7799999998,"ADDRESS":"民族路二段１８９號","OBJECTID":300698},"geometry":{"x":168645.1500000013,"y":2543986.7799999993}},{"attributes":{"ID":300707,"DIS_CODE":0,"TOWNNAME":"中西區","LI":"三民里","LIN":"14鄰","STREET":"民族路","SECT":"二段","MAREA":" ","LANE":" ","ALLEY":" ","HOUSE_NO":"１９１號","E_COORD97":168640.26000000001,"N_COORD97":2543989.4300000002,"ADDRESS":"民族路二段１９１號","OBJECTID":300699},"geometry":{"x":168640.26000000164,"y":2543989.4299999997}},{"attributes":{"ID":300708,"DIS_CODE":0,"TOWNNAME":"東區","LI":"裕聖里","LIN":"14鄰","STREET":"裕文路","SECT":" ","MAREA":" ","LANE":" ","ALLEY":" ","HOUSE_NO":"２８６號","E_COORD97":172736.81,"N_COORD97":2542453.5800000001,"ADDRESS":"裕文路２８６號","OBJECTID":300700},"geometry":{"x":172736.80999999866,"y":2542453.5800000001}},{"attributes":{"ID":300709,"DIS_CODE":0,"TOWNNAME":"東區","LI":"仁和里","LIN":"14鄰","STREET":"自由路","SECT":"一段","MAREA":" ","LANE":" ","ALLEY":" ","HOUSE_NO":"２０１號","E_COORD97":171818.51000000001,"N_COORD97":2541087.1899999999,"ADDRESS":"自由路一段２０１號","OBJECTID":300701},"geometry":{"x":171818.50999999978,"y":2541087.1900000013}},{"attributes":{"ID":300710,"DIS_CODE":0,"TOWNNAME":"善化區","LI":"南關里","LIN":"8鄰","STREET":"光復路","SECT":" ","MAREA":" ","LANE":"４３８巷","ALLEY":" ","HOUSE_NO":"１號五樓之１","E_COORD97":176866.95999999999,"N_COORD97":2558798.25,"ADDRESS":"光復路４３８巷１號五樓之１","OBJECTID":300702},"geometry":{"x":176866.95999999996,"y":2558798.2500000019}},{"attributes":{"ID":300711,"DIS_CODE":0,"TOWNNAME":"善化區","LI":"南關里","LIN":"8鄰","STREET":"光復路","SECT":" ","MAREA":" ","LANE":"４３８巷","ALLEY":" ","HOUSE_NO":"１號五樓之２","E_COORD97":176866.95999999999,"N_COORD97":2558798.25,"ADDRESS":"光復路４３８巷１號五樓之２","OBJECTID":300703},"geometry":{"x":176866.95999999996,"y":2558798.2500000019}},{"attributes":{"ID":300712,"DIS_CODE":0,"TOWNNAME":"善化區","LI":"南關里","LIN":"8鄰","STREET":"光復路","SECT":" ","MAREA":" ","LANE":"４３８巷","ALLEY":" ","HOUSE_NO":"１號五樓之３","E_COORD97":176866.95999999999,"N_COORD97":2558798.25,"ADDRESS":"光復路４３８巷１號五樓之３","OBJECTID":300704},"geometry":{"x":176866.95999999996,"y":2558798.2500000019}},{"attributes":{"ID":300713,"DIS_CODE":0,"TOWNNAME":"善化區","LI":"南關里","LIN":"8鄰","STREET":"光復路","SECT":" ","MAREA":" ","LANE":"４３８巷","ALLEY":" ","HOUSE_NO":"１號五樓之５","E_COORD97":176866.95999999999,"N_COORD97":2558798.25,"ADDRESS":"光復路４３８巷１號五樓之５","OBJECTID":300705},"geometry":{"x":176866.95999999996,"y":2558798.2500000019}},{"attributes":{"ID":300714,"DIS_CODE":0,"TOWNNAME":"善化區","LI":"南關里","LIN":"8鄰","STREET":"光復路","SECT":" ","MAREA":" ","LANE":"４３８巷","ALLEY":" ","HOUSE_NO":"１號五樓之６","E_COORD97":176866.95999999999,"N_COORD97":2558798.25,"ADDRESS":"光復路４３８巷１號五樓之６","OBJECTID":300706},"geometry":{"x":176866.95999999996,"y":2558798.2500000019}},{"attributes":{"ID":300715,"DIS_CODE":0,"TOWNNAME":"善化區","LI":"南關里","LIN":"8鄰","STREET":"光復路","SECT":" ","MAREA":" ","LANE":"４３８巷","ALLEY":" ","HOUSE_NO":"１號五樓之７","E_COORD97":176866.95999999999,"N_COORD97":2558798.25,"ADDRESS":"光復路４３８巷１號五樓之７","OBJECTID":300707},"geometry":{"x":176866.95999999996,"y":2558798.2500000019}},{"attributes":{"ID":300716,"DIS_CODE":0,"TOWNNAME":"善化區","LI":"南關里","LIN":"8鄰","STREET":"光復路","SECT":" ","MAREA":" ","LANE":"４３８巷","ALLEY":" ","HOUSE_NO":"１號二樓之１","E_COORD97":176866.95999999999,"N_COORD97":2558798.25,"ADDRESS":"光復路４３８巷１號二樓之１","OBJECTID":300708},"geometry":{"x":176866.95999999996,"y":2558798.2500000019}},{"attributes":{"ID":300717,"DIS_CODE":0,"TOWNNAME":"善化區","LI":"南關里","LIN":"8鄰","STREET":"光復路","SECT":" ","MAREA":" ","LANE":"４３８巷","ALLEY":" ","HOUSE_NO":"１號二樓之２","E_COORD97":176866.95999999999,"N_COORD97":2558798.25,"ADDRESS":"光復路４３８巷１號二樓之２","OBJECTID":300709},"geometry":{"x":176866.95999999996,"y":2558798.2500000019}},{"attributes":{"ID":300718,"DIS_CODE":0,"TOWNNAME":"善化區","LI":"南關里","LIN":"8鄰","STREET":"光復路","SECT":" ","MAREA":" ","LANE":"４３８巷","ALLEY":" ","HOUSE_NO":"１號二樓之３","E_COORD97":176866.95999999999,"N_COORD97":2558798.25,"ADDRESS":"光復路４３８巷１號二樓之３","OBJECTID":300710},"geometry":{"x":176866.95999999996,"y":2558798.2500000019}},{"attributes":{"ID":300719,"DIS_CODE":0,"TOWNNAME":"白河區","LI":"昇安里","LIN":"4鄰","STREET":" ","SECT":" ","MAREA":"三間厝","LANE":" ","ALLEY":" ","HOUSE_NO":"４３之１３號","E_COORD97":191749.66,"N_COORD97":2584863.71,"ADDRESS":"三間厝４３之１３號","OBJECTID":300711},"geometry":{"x":191749.66000000015,"y":2584863.7100000009}},{"attributes":{"ID":300720,"DIS_CODE":0,"TOWNNAME":"白河區","LI":"昇安里","LIN":"4鄰","STREET":" ","SECT":" ","MAREA":"三間厝","LANE":" ","ALLEY":" ","HOUSE_NO":"４３之１４號","E_COORD97":191753.85000000001,"N_COORD97":2584864.3999999999,"ADDRESS":"三間厝４３之１４號","OBJECTID":300712},"geometry":{"x":191753.85000000056,"y":2584864.4000000004}},{"attributes":{"ID":300721,"DIS_CODE":0,"TOWNNAME":"白河區","LI":"昇安里","LIN":"4鄰","STREET":" ","SECT":" ","MAREA":"三間厝","LANE":" ","ALLEY":" ","HOUSE_NO":"４３之１５號","E_COORD97":191758.04999999999,"N_COORD97":2584865.1000000001,"ADDRESS":"三間厝４３之１５號","OBJECTID":300713},"geometry":{"x":191758.05000000075,"y":2584865.1000000015}},{"attributes":{"ID":300722,"DIS_CODE":0,"TOWNNAME":"白河區","LI":"昇安里","LIN":"4鄰","STREET":" ","SECT":" ","MAREA":"三間厝","LANE":" ","ALLEY":" ","HOUSE_NO":"４３之１６號","E_COORD97":191762.23999999999,"N_COORD97":2584865.79,"ADDRESS":"三間厝４３之１６號","OBJECTID":300714},"geometry":{"x":191762.24000000115,"y":2584865.790000001}},{"attributes":{"ID":300723,"DIS_CODE":0,"TOWNNAME":"白河區","LI":"昇安里","LIN":"4鄰","STREET":" ","SECT":" ","MAREA":"三間厝","LANE":" ","ALLEY":" ","HOUSE_NO":"４３之６號","E_COORD97":191741.29999999999,"N_COORD97":2584875.4100000001,"ADDRESS":"三間厝４３之６號","OBJECTID":300715},"geometry":{"x":191741.29999999981,"y":2584875.4100000001}},{"attributes":{"ID":300724,"DIS_CODE":0,"TOWNNAME":"白河區","LI":"昇安里","LIN":"4鄰","STREET":" ","SECT":" ","MAREA":"三間厝","LANE":" ","ALLEY":" ","HOUSE_NO":"４７號","E_COORD97":191759.84,"N_COORD97":2584741.1499999999,"ADDRESS":"三間厝４７號","OBJECTID":300716},"geometry":{"x":191759.83999999985,"y":2584741.1500000004}},{"attributes":{"ID":300725,"DIS_CODE":0,"TOWNNAME":"白河區","LI":"昇安里","LIN":"4鄰","STREET":" ","SECT":" ","MAREA":"三間厝","LANE":" ","ALLEY":" ","HOUSE_NO":"４８號","E_COORD97":191768.79999999999,"N_COORD97":2584761.7400000002,"ADDRESS":"三間厝４８號","OBJECTID":300717},"geometry":{"x":191768.79999999981,"y":2584761.7400000039}},{"attributes":{"ID":300726,"DIS_CODE":0,"TOWNNAME":"白河區","LI":"昇安里","LIN":"4鄰","STREET":" ","SECT":" ","MAREA":"三間厝","LANE":" ","ALLEY":" ","HOUSE_NO":"５１之１號","E_COORD97":191818.14000000001,"N_COORD97":2584690.1600000001,"ADDRESS":"三間厝５１之１號","OBJECTID":300718},"geometry":{"x":191818.1400000006,"y":2584690.1600000001}},{"attributes":{"ID":300727,"DIS_CODE":0,"TOWNNAME":"白河區","LI":"昇安里","LIN":"4鄰","STREET":" ","SECT":" ","MAREA":"三間厝","LANE":" ","ALLEY":" ","HOUSE_NO":"５１之２號","E_COORD97":191768.84,"N_COORD97":2584713.9300000002,"ADDRESS":"三間厝５１之２號","OBJECTID":300719},"geometry":{"x":191768.84000000171,"y":2584713.9300000016}},{"attributes":{"ID":300728,"DIS_CODE":0,"TOWNNAME":"白河區","LI":"昇安里","LIN":"4鄰","STREET":" ","SECT":" ","MAREA":"三間厝","LANE":" ","ALLEY":" ","HOUSE_NO":"５２之６號","E_COORD97":191748.39999999999,"N_COORD97":2584512.9900000002,"ADDRESS":"三間厝５２之６號","OBJECTID":300720},"geometry":{"x":191748.40000000037,"y":2584512.9900000021}},{"attributes":{"ID":300729,"DIS_CODE":0,"TOWNNAME":"白河區","LI":"昇安里","LIN":"4鄰","STREET":" ","SECT":" ","MAREA":"三間厝","LANE":" ","ALLEY":" ","HOUSE_NO":"５２之７號","E_COORD97":191649.42000000001,"N_COORD97":2584501.9900000002,"ADDRESS":"三間厝５２之７號","OBJECTID":300721},"geometry":{"x":191649.41999999993,"y":2584501.9900000002}},{"attributes":{"ID":300730,"DIS_CODE":0,"TOWNNAME":"善化區","LI":"南關里","LIN":"8鄰","STREET":"光復路","SECT":" ","MAREA":" ","LANE":"４３８巷","ALLEY":" ","HOUSE_NO":"１號二樓之５","E_COORD97":176866.95999999999,"N_COORD97":2558798.25,"ADDRESS":"光復路４３８巷１號二樓之５","OBJECTID":300722},"geometry":{"x":176866.95999999996,"y":2558798.2500000019}},{"attributes":{"ID":300731,"DIS_CODE":0,"TOWNNAME":"善化區","LI":"南關里","LIN":"8鄰","STREET":"光復路","SECT":" ","MAREA":" ","LANE":"４３８巷","ALLEY":" ","HOUSE_NO":"１號二樓之６","E_COORD97":176866.95999999999,"N_COORD97":2558798.25,"ADDRESS":"光復路４３８巷１號二樓之６","OBJECTID":300723},"geometry":{"x":176866.95999999996,"y":2558798.2500000019}},{"attributes":{"ID":300732,"DIS_CODE":0,"TOWNNAME":"善化區","LI":"南關里","LIN":"8鄰","STREET":"光復路","SECT":" ","MAREA":" ","LANE":"４３８巷","ALLEY":" ","HOUSE_NO":"１號二樓之７","E_COORD97":176866.95999999999,"N_COORD97":2558798.25,"ADDRESS":"光復路４３８巷１號二樓之７","OBJECTID":300724},"geometry":{"x":176866.95999999996,"y":2558798.2500000019}},{"attributes":{"ID":300733,"DIS_CODE":0,"TOWNNAME":"善化區","LI":"南關里","LIN":"8鄰","STREET":"光復路","SECT":" ","MAREA":" ","LANE":"４３８巷","ALLEY":" ","HOUSE_NO":"１號二樓之８","E_COORD97":176866.95999999999,"N_COORD97":2558798.25,"ADDRESS":"光復路４３８巷１號二樓之８","OBJECTID":300725},"geometry":{"x":176866.95999999996,"y":2558798.2500000019}},{"attributes":{"ID":300734,"DIS_CODE":0,"TOWNNAME":"善化區","LI":"南關里","LIN":"8鄰","STREET":"光復路","SECT":" ","MAREA":" ","LANE":"４３８巷","ALLEY":" ","HOUSE_NO":"１號二樓之９","E_COORD97":176866.95999999999,"N_COORD97":2558798.25,"ADDRESS":"光復路４３８巷１號二樓之９","OBJECTID":300726},"geometry":{"x":176866.95999999996,"y":2558798.2500000019}},{"attributes":{"ID":300735,"DIS_CODE":0,"TOWNNAME":"善化區","LI":"南關里","LIN":"8鄰","STREET":"光復路","SECT":" ","MAREA":" ","LANE":"４３８巷","ALLEY":" ","HOUSE_NO":"１號二樓之１０","E_COORD97":176866.95999999999,"N_COORD97":2558798.25,"ADDRESS":"光復路４３８巷１號二樓之１０","OBJECTID":300727},"geometry":{"x":176866.95999999996,"y":2558798.2500000019}},{"attributes":{"ID":300736,"DIS_CODE":0,"TOWNNAME":"白河區","LI":"昇安里","LIN":"4鄰","STREET":" ","SECT":" ","MAREA":"三間厝","LANE":" ","ALLEY":" ","HOUSE_NO":"５２號","E_COORD97":191703.20999999999,"N_COORD97":2584483.7599999998,"ADDRESS":"三間厝５２號","OBJECTID":300728},"geometry":{"x":191703.20999999996,"y":2584483.7600000016}},{"attributes":{"ID":300737,"DIS_CODE":0,"TOWNNAME":"善化區","LI":"南關里","LIN":"8鄰","STREET":"光復路","SECT":" ","MAREA":" ","LANE":"４３８巷","ALLEY":" ","HOUSE_NO":"１號二樓之１１","E_COORD97":176866.95999999999,"N_COORD97":2558798.25,"ADDRESS":"光復路４３８巷１號二樓之１１","OBJECTID":300729},"geometry":{"x":176866.95999999996,"y":2558798.2500000019}},{"attributes":{"ID":300738,"DIS_CODE":0,"TOWNNAME":"善化區","LI":"南關里","LIN":"8鄰","STREET":"光復路","SECT":" ","MAREA":" ","LANE":"４３８巷","ALLEY":" ","HOUSE_NO":"１號二樓之１２","E_COORD97":176866.95999999999,"N_COORD97":2558798.25,"ADDRESS":"光復路４３８巷１號二樓之１２","OBJECTID":300730},"geometry":{"x":176866.95999999996,"y":2558798.2500000019}},{"attributes":{"ID":300739,"DIS_CODE":0,"TOWNNAME":"善化區","LI":"南關里","LIN":"8鄰","STREET":"光復路","SECT":" ","MAREA":" ","LANE":"４３８巷","ALLEY":" ","HOUSE_NO":"１號二樓之１３","E_COORD97":176866.95999999999,"N_COORD97":2558798.25,"ADDRESS":"光復路４３８巷１號二樓之１３","OBJECTID":300731},"geometry":{"x":176866.95999999996,"y":2558798.2500000019}},{"attributes":{"ID":300740,"DIS_CODE":0,"TOWNNAME":"善化區","LI":"南關里","LIN":"8鄰","STREET":"光復路","SECT":" ","MAREA":" ","LANE":"４３８巷","ALLEY":" ","HOUSE_NO":"１號二樓之１５","E_COORD97":176866.95999999999,"N_COORD97":2558798.25,"ADDRESS":"光復路４３８巷１號二樓之１５","OBJECTID":300732},"geometry":{"x":176866.95999999996,"y":2558798.2500000019}},{"attributes":{"ID":300741,"DIS_CODE":0,"TOWNNAME":"善化區","LI":"南關里","LIN":"8鄰","STREET":"光復路","SECT":" ","MAREA":" ","LANE":"４３８巷","ALLEY":" ","HOUSE_NO":"１號二樓之１６","E_COORD97":176866.95999999999,"N_COORD97":2558798.25,"ADDRESS":"光復路４３８巷１號二樓之１６","OBJECTID":300733},"geometry":{"x":176866.95999999996,"y":2558798.2500000019}},{"attributes":{"ID":300742,"DIS_CODE":0,"TOWNNAME":"善化區","LI":"南關里","LIN":"8鄰","STREET":"光復路","SECT":" ","MAREA":" ","LANE":"４３８巷","ALLEY":" ","HOUSE_NO":"１號二樓之１７","E_COORD97":176866.95999999999,"N_COORD97":2558798.25,"ADDRESS":"光復路４３８巷１號二樓之１７","OBJECTID":300734},"geometry":{"x":176866.95999999996,"y":2558798.2500000019}},{"attributes":{"ID":300743,"DIS_CODE":0,"TOWNNAME":"善化區","LI":"南關里","LIN":"8鄰","STREET":"光復路","SECT":" ","MAREA":" ","LANE":"４３８巷","ALLEY":" ","HOUSE_NO":"１號二樓之１８","E_COORD97":176866.95999999999,"N_COORD97":2558798.25,"ADDRESS":"光復路４３８巷１號二樓之１８","OBJECTID":300735},"geometry":{"x":176866.95999999996,"y":2558798.2500000019}},{"attributes":{"ID":300744,"DIS_CODE":0,"TOWNNAME":"善化區","LI":"南關里","LIN":"8鄰","STREET":"光復路","SECT":" ","MAREA":" ","LANE":"４３８巷","ALLEY":" ","HOUSE_NO":"１號二樓之２０","E_COORD97":176866.95999999999,"N_COORD97":2558798.25,"ADDRESS":"光復路４３８巷１號二樓之２０","OBJECTID":300736},"geometry":{"x":176866.95999999996,"y":2558798.2500000019}},{"attributes":{"ID":300745,"DIS_CODE":0,"TOWNNAME":"善化區","LI":"南關里","LIN":"8鄰","STREET":"光復路","SECT":" ","MAREA":" ","LANE":"４３８巷","ALLEY":" ","HOUSE_NO":"１號三樓之１","E_COORD97":176866.95999999999,"N_COORD97":2558798.25,"ADDRESS":"光復路４３８巷１號三樓之１","OBJECTID":300737},"geometry":{"x":176866.95999999996,"y":2558798.2500000019}},{"attributes":{"ID":300746,"DIS_CODE":0,"TOWNNAME":"善化區","LI":"南關里","LIN":"8鄰","STREET":"光復路","SECT":" ","MAREA":" ","LANE":"４３８巷","ALLEY":" ","HOUSE_NO":"１號三樓之２","E_COORD97":176866.95999999999,"N_COORD97":2558798.25,"ADDRESS":"光復路４３８巷１號三樓之２","OBJECTID":300738},"geometry":{"x":176866.95999999996,"y":2558798.2500000019}},{"attributes":{"ID":300747,"DIS_CODE":0,"TOWNNAME":"善化區","LI":"南關里","LIN":"8鄰","STREET":"光復路","SECT":" ","MAREA":" ","LANE":"４３８巷","ALLEY":" ","HOUSE_NO":"１號三樓之３","E_COORD97":176866.95999999999,"N_COORD97":2558798.25,"ADDRESS":"光復路４３８巷１號三樓之３","OBJECTID":300739},"geometry":{"x":176866.95999999996,"y":2558798.2500000019}},{"attributes":{"ID":300748,"DIS_CODE":0,"TOWNNAME":"善化區","LI":"南關里","LIN":"8鄰","STREET":"光復路","SECT":" ","MAREA":" ","LANE":"４３８巷","ALLEY":" ","HOUSE_NO":"１號三樓之５","E_COORD97":176866.95999999999,"N_COORD97":2558798.25,"ADDRESS":"光復路４３８巷１號三樓之５","OBJECTID":300740},"geometry":{"x":176866.95999999996,"y":2558798.2500000019}},{"attributes":{"ID":300749,"DIS_CODE":0,"TOWNNAME":"善化區","LI":"南關里","LIN":"8鄰","STREET":"光復路","SECT":" ","MAREA":" ","LANE":"４３８巷","ALLEY":" ","HOUSE_NO":"１號三樓之６","E_COORD97":176866.95999999999,"N_COORD97":2558798.25,"ADDRESS":"光復路４３８巷１號三樓之６","OBJECTID":300741},"geometry":{"x":176866.95999999996,"y":2558798.2500000019}},{"attributes":{"ID":300750,"DIS_CODE":0,"TOWNNAME":"善化區","LI":"南關里","LIN":"8鄰","STREET":"光復路","SECT":" ","MAREA":" ","LANE":"４３８巷","ALLEY":" ","HOUSE_NO":"１號三樓之７","E_COORD97":176866.95999999999,"N_COORD97":2558798.25,"ADDRESS":"光復路４３８巷１號三樓之７","OBJECTID":300742},"geometry":{"x":176866.95999999996,"y":2558798.2500000019}},{"attributes":{"ID":300751,"DIS_CODE":0,"TOWNNAME":"善化區","LI":"南關里","LIN":"8鄰","STREET":"光復路","SECT":" ","MAREA":" ","LANE":"４３８巷","ALLEY":" ","HOUSE_NO":"１號三樓之８","E_COORD97":176866.95999999999,"N_COORD97":2558798.25,"ADDRESS":"光復路４３８巷１號三樓之８","OBJECTID":300743},"geometry":{"x":176866.95999999996,"y":2558798.2500000019}},{"attributes":{"ID":300752,"DIS_CODE":0,"TOWNNAME":"善化區","LI":"南關里","LIN":"8鄰","STREET":"光復路","SECT":" ","MAREA":" ","LANE":"４３８巷","ALLEY":" ","HOUSE_NO":"１號三樓之９","E_COORD97":176866.95999999999,"N_COORD97":2558798.25,"ADDRESS":"光復路４３８巷１號三樓之９","OBJECTID":300744},"geometry":{"x":176866.95999999996,"y":2558798.2500000019}},{"attributes":{"ID":300753,"DIS_CODE":0,"TOWNNAME":"善化區","LI":"南關里","LIN":"8鄰","STREET":"光復路","SECT":" ","MAREA":" ","LANE":"４３８巷","ALLEY":" ","HOUSE_NO":"１號三樓之１０","E_COORD97":176866.95999999999,"N_COORD97":2558798.25,"ADDRESS":"光復路４３８巷１號三樓之１０","OBJECTID":300745},"geometry":{"x":176866.95999999996,"y":2558798.2500000019}},{"attributes":{"ID":300754,"DIS_CODE":0,"TOWNNAME":"東區","LI":"大德里","LIN":"14鄰","STREET":"立德十路","SECT":" ","MAREA":" ","LANE":" ","ALLEY":" ","HOUSE_NO":"４９號","E_COORD97":169527.98000000001,"N_COORD97":2542065.6600000001,"ADDRESS":"立德十路４９號","OBJECTID":300746},"geometry":{"x":169527.98000000138,"y":2542065.6600000001}},{"attributes":{"ID":300755,"DIS_CODE":0,"TOWNNAME":"善化區","LI":"南關里","LIN":"8鄰","STREET":"光復路","SECT":" ","MAREA":" ","LANE":"４３８巷","ALLEY":" ","HOUSE_NO":"１號三樓之１１","E_COORD97":176866.95999999999,"N_COORD97":2558798.25,"ADDRESS":"光復路４３８巷１號三樓之１１","OBJECTID":300747},"geometry":{"x":176866.95999999996,"y":2558798.2500000019}},{"attributes":{"ID":300756,"DIS_CODE":0,"TOWNNAME":"善化區","LI":"南關里","LIN":"8鄰","STREET":"光復路","SECT":" ","MAREA":" ","LANE":"４３８巷","ALLEY":" ","HOUSE_NO":"１號三樓之１２","E_COORD97":176866.95999999999,"N_COORD97":2558798.25,"ADDRESS":"光復路４３８巷１號三樓之１２","OBJECTID":300748},"geometry":{"x":176866.95999999996,"y":2558798.2500000019}},{"attributes":{"ID":300757,"DIS_CODE":0,"TOWNNAME":"善化區","LI":"南關里","LIN":"8鄰","STREET":"光復路","SECT":" ","MAREA":" ","LANE":"４３８巷","ALLEY":" ","HOUSE_NO":"１號三樓之１３","E_COORD97":176866.95999999999,"N_COORD97":2558798.25,"ADDRESS":"光復路４３８巷１號三樓之１３","OBJECTID":300749},"geometry":{"x":176866.95999999996,"y":2558798.2500000019}},{"attributes":{"ID":300758,"DIS_CODE":0,"TOWNNAME":"善化區","LI":"南關里","LIN":"8鄰","STREET":"光復路","SECT":" ","MAREA":" ","LANE":"４３８巷","ALLEY":" ","HOUSE_NO":"１號三樓之１５","E_COORD97":176866.95999999999,"N_COORD97":2558798.25,"ADDRESS":"光復路４３８巷１號三樓之１５","OBJECTID":300750},"geometry":{"x":176866.95999999996,"y":2558798.2500000019}},{"attributes":{"ID":300759,"DIS_CODE":0,"TOWNNAME":"善化區","LI":"南關里","LIN":"8鄰","STREET":"光復路","SECT":" ","MAREA":" ","LANE":"４３８巷","ALLEY":" ","HOUSE_NO":"１號三樓之１６","E_COORD97":176866.95999999999,"N_COORD97":2558798.25,"ADDRESS":"光復路４３８巷１號三樓之１６","OBJECTID":300751},"geometry":{"x":176866.95999999996,"y":2558798.2500000019}},{"attributes":{"ID":300760,"DIS_CODE":0,"TOWNNAME":"善化區","LI":"南關里","LIN":"8鄰","STREET":"光復路","SECT":" ","MAREA":" ","LANE":"４３８巷","ALLEY":" ","HOUSE_NO":"１號三樓之１７","E_COORD97":176866.95999999999,"N_COORD97":2558798.25,"ADDRESS":"光復路４３８巷１號三樓之１７","OBJECTID":300752},"geometry":{"x":176866.95999999996,"y":2558798.2500000019}},{"attributes":{"ID":300761,"DIS_CODE":0,"TOWNNAME":"善化區","LI":"南關里","LIN":"8鄰","STREET":"光復路","SECT":" ","MAREA":" ","LANE":"４３８巷","ALLEY":" ","HOUSE_NO":"１號三樓之１８","E_COORD97":176866.95999999999,"N_COORD97":2558798.25,"ADDRESS":"光復路４３８巷１號三樓之１８","OBJECTID":300753},"geometry":{"x":176866.95999999996,"y":2558798.2500000019}},{"attributes":{"ID":300762,"DIS_CODE":0,"TOWNNAME":"善化區","LI":"南關里","LIN":"8鄰","STREET":"光復路","SECT":" ","MAREA":" ","LANE":"４３８巷","ALLEY":" ","HOUSE_NO":"１號三樓之２０","E_COORD97":176866.95999999999,"N_COORD97":2558798.25,"ADDRESS":"光復路４３８巷１號三樓之２０","OBJECTID":300754},"geometry":{"x":176866.95999999996,"y":2558798.2500000019}},{"attributes":{"ID":300763,"DIS_CODE":0,"TOWNNAME":"東區","LI":"南聖里","LIN":"14鄰","STREET":"裕誠街","SECT":" ","MAREA":" ","LANE":" ","ALLEY":" ","HOUSE_NO":"２８３號","E_COORD97":172711.988839,"N_COORD97":2543357.8026299998,"ADDRESS":"裕誠街２８３號","OBJECTID":300755},"geometry":{"x":172711.98883900139,"y":2543357.802627001}},{"attributes":{"ID":300764,"DIS_CODE":0,"TOWNNAME":"善化區","LI":"南關里","LIN":"8鄰","STREET":"光復路","SECT":" ","MAREA":" ","LANE":"４３８巷","ALLEY":" ","HOUSE_NO":"１號四樓之１","E_COORD97":176866.95999999999,"N_COORD97":2558798.25,"ADDRESS":"光復路４３８巷１號四樓之１","OBJECTID":300756},"geometry":{"x":176866.95999999996,"y":2558798.2500000019}},{"attributes":{"ID":300765,"DIS_CODE":0,"TOWNNAME":"善化區","LI":"南關里","LIN":"8鄰","STREET":"光復路","SECT":" ","MAREA":" ","LANE":"４３８巷","ALLEY":" ","HOUSE_NO":"１號五樓之８","E_COORD97":176866.95999999999,"N_COORD97":2558798.25,"ADDRESS":"光復路４３８巷１號五樓之８","OBJECTID":300757},"geometry":{"x":176866.95999999996,"y":2558798.2500000019}},{"attributes":{"ID":300766,"DIS_CODE":0,"TOWNNAME":"善化區","LI":"南關里","LIN":"8鄰","STREET":"光復路","SECT":" ","MAREA":" ","LANE":"４３８巷","ALLEY":" ","HOUSE_NO":"１號五樓之９","E_COORD97":176866.95999999999,"N_COORD97":2558798.25,"ADDRESS":"光復路４３８巷１號五樓之９","OBJECTID":300758},"geometry":{"x":176866.95999999996,"y":2558798.2500000019}},{"attributes":{"ID":300767,"DIS_CODE":0,"TOWNNAME":"善化區","LI":"南關里","LIN":"8鄰","STREET":"光復路","SECT":" ","MAREA":" ","LANE":"４３８巷","ALLEY":" ","HOUSE_NO":"１號五樓之１０","E_COORD97":176866.95999999999,"N_COORD97":2558798.25,"ADDRESS":"光復路４３８巷１號五樓之１０","OBJECTID":300759},"geometry":{"x":176866.95999999996,"y":2558798.2500000019}},{"attributes":{"ID":300768,"DIS_CODE":0,"TOWNNAME":"善化區","LI":"南關里","LIN":"8鄰","STREET":"光復路","SECT":" ","MAREA":" ","LANE":"４３８巷","ALLEY":" ","HOUSE_NO":"１號五樓之１１","E_COORD97":176866.95999999999,"N_COORD97":2558798.25,"ADDRESS":"光復路４３８巷１號五樓之１１","OBJECTID":300760},"geometry":{"x":176866.95999999996,"y":2558798.2500000019}},{"attributes":{"ID":300769,"DIS_CODE":0,"TOWNNAME":"善化區","LI":"南關里","LIN":"8鄰","STREET":"光復路","SECT":" ","MAREA":" ","LANE":"４３８巷","ALLEY":" ","HOUSE_NO":"１號五樓之１２","E_COORD97":176866.95999999999,"N_COORD97":2558798.25,"ADDRESS":"光復路４３８巷１號五樓之１２","OBJECTID":300761},"geometry":{"x":176866.95999999996,"y":2558798.2500000019}},{"attributes":{"ID":300770,"DIS_CODE":0,"TOWNNAME":"南區","LI":"大成里","LIN":"4鄰","STREET":"西門路","SECT":"一段","MAREA":" ","LANE":"３８０巷","ALLEY":" ","HOUSE_NO":"３１號","E_COORD97":167854.41,"N_COORD97":2542401.3599999999,"ADDRESS":"西門路一段３８０巷３１號","OBJECTID":300762},"geometry":{"x":167854.41000000015,"y":2542401.3600000013}},{"attributes":{"ID":300771,"DIS_CODE":0,"TOWNNAME":"南區","LI":"大成里","LIN":"4鄰","STREET":"西門路","SECT":"一段","MAREA":" ","LANE":"３８０巷","ALLEY":" ","HOUSE_NO":"３３號","E_COORD97":167859.17000000001,"N_COORD97":2542401.3599999999,"ADDRESS":"西門路一段３８０巷３３號","OBJECTID":300763},"geometry":{"x":167859.16999999993,"y":2542401.3600000013}},{"attributes":{"ID":300772,"DIS_CODE":0,"TOWNNAME":"南區","LI":"大成里","LIN":"4鄰","STREET":"西門路","SECT":"一段","MAREA":" ","LANE":"３８０巷","ALLEY":" ","HOUSE_NO":"３５號","E_COORD97":167863.57999999999,"N_COORD97":2542401.3599999999,"ADDRESS":"西門路一段３８０巷３５號","OBJECTID":300764},"geometry":{"x":167863.58000000194,"y":2542401.3600000013}},{"attributes":{"ID":300773,"DIS_CODE":0,"TOWNNAME":"南區","LI":"大成里","LIN":"4鄰","STREET":"西門路","SECT":"一段","MAREA":" ","LANE":"３８０巷","ALLEY":" ","HOUSE_NO":"３７號","E_COORD97":167867.81,"N_COORD97":2542401.3599999999,"ADDRESS":"西門路一段３８０巷３７號","OBJECTID":300765},"geometry":{"x":167867.80999999959,"y":2542401.3600000013}},{"attributes":{"ID":300774,"DIS_CODE":0,"TOWNNAME":"學甲區","LI":"新榮里","LIN":"4鄰","STREET":" ","SECT":" ","MAREA":"東寮","LANE":" ","ALLEY":" ","HOUSE_NO":"３８號","E_COORD97":166749.59,"N_COORD97":2569319.5,"ADDRESS":"東寮３８號","OBJECTID":300766},"geometry":{"x":166749.59000000171,"y":2569319.5}},{"attributes":{"ID":300775,"DIS_CODE":0,"TOWNNAME":"南區","LI":"大成里","LIN":"4鄰","STREET":"西門路","SECT":"一段","MAREA":" ","LANE":"３８０巷","ALLEY":" ","HOUSE_NO":"３號","E_COORD97":167792.16,"N_COORD97":2542401.1800000002,"ADDRESS":"西門路一段３８０巷３號","OBJECTID":300767},"geometry":{"x":167792.16000000108,"y":2542401.1799999997}},{"attributes":{"ID":300776,"DIS_CODE":0,"TOWNNAME":"南區","LI":"大成里","LIN":"4鄰","STREET":"西門路","SECT":"一段","MAREA":" ","LANE":"３８０巷","ALLEY":" ","HOUSE_NO":"４１號","E_COORD97":167885.13,"N_COORD97":2542400.8599999999,"ADDRESS":"西門路一段３８０巷４１號","OBJECTID":300768},"geometry":{"x":167885.13000000175,"y":2542400.8600000013}},{"attributes":{"ID":300777,"DIS_CODE":0,"TOWNNAME":"南區","LI":"大成里","LIN":"4鄰","STREET":"西門路","SECT":"一段","MAREA":" ","LANE":"３８０巷","ALLEY":" ","HOUSE_NO":"４號","E_COORD97":167790.04000000001,"N_COORD97":2542381.4900000002,"ADDRESS":"西門路一段３８０巷４號","OBJECTID":300769},"geometry":{"x":167790.04000000097,"y":2542381.4900000021}},{"attributes":{"ID":300778,"DIS_CODE":0,"TOWNNAME":"南區","LI":"明興里","LIN":"4鄰","STREET":"德興路","SECT":" ","MAREA":" ","LANE":"２０巷","ALLEY":" ","HOUSE_NO":"６號","E_COORD97":167135.59,"N_COORD97":2540833.0299999998,"ADDRESS":"德興路２０巷６號","OBJECTID":300770},"geometry":{"x":167135.58999999985,"y":2540833.0300000031}},{"attributes":{"ID":300779,"DIS_CODE":0,"TOWNNAME":"南區","LI":"明興里","LIN":"4鄰","STREET":"德興路","SECT":" ","MAREA":" ","LANE":"２０巷","ALLEY":" ","HOUSE_NO":"７號","E_COORD97":167130.87,"N_COORD97":2540819.6000000001,"ADDRESS":"德興路２０巷７號","OBJECTID":300771},"geometry":{"x":167130.87000000011,"y":2540819.6000000015}},{"attributes":{"ID":300780,"DIS_CODE":0,"TOWNNAME":"南區","LI":"明興里","LIN":"4鄰","STREET":"德興路","SECT":" ","MAREA":" ","LANE":"２０巷","ALLEY":" ","HOUSE_NO":"９號","E_COORD97":167126.45000000001,"N_COORD97":2540819.6800000002,"ADDRESS":"德興路２０巷９號","OBJECTID":300772},"geometry":{"x":167126.45000000019,"y":2540819.6800000016}},{"attributes":{"ID":300781,"DIS_CODE":0,"TOWNNAME":"善化區","LI":"南關里","LIN":"8鄰","STREET":"光復路","SECT":" ","MAREA":" ","LANE":"４３８巷","ALLEY":" ","HOUSE_NO":"１號五樓之１３","E_COORD97":176866.95999999999,"N_COORD97":2558798.25,"ADDRESS":"光復路４３８巷１號五樓之１３","OBJECTID":300773},"geometry":{"x":176866.95999999996,"y":2558798.2500000019}},{"attributes":{"ID":300782,"DIS_CODE":0,"TOWNNAME":"學甲區","LI":"新榮里","LIN":"4鄰","STREET":" ","SECT":" ","MAREA":"東寮","LANE":" ","ALLEY":" ","HOUSE_NO":"３９號","E_COORD97":166714.38,"N_COORD97":2569359.25,"ADDRESS":"東寮３９號","OBJECTID":300774},"geometry":{"x":166714.38000000082,"y":2569359.2500000019}},{"attributes":{"ID":300783,"DIS_CODE":0,"TOWNNAME":"東區","LI":"南聖里","LIN":"14鄰","STREET":"裕誠街","SECT":" ","MAREA":" ","LANE":" ","ALLEY":" ","HOUSE_NO":"２８５號","E_COORD97":172715.69662900001,"N_COORD97":2543358.4376300001,"ADDRESS":"裕誠街２８５號","OBJECTID":300775},"geometry":{"x":172715.69662900083,"y":2543358.4376260024}},{"attributes":{"ID":300784,"DIS_CODE":0,"TOWNNAME":"東區","LI":"南聖里","LIN":"14鄰","STREET":"裕誠街","SECT":" ","MAREA":" ","LANE":" ","ALLEY":" ","HOUSE_NO":"２８７號","E_COORD97":172719.51035500001,"N_COORD97":2543359.2842899999,"ADDRESS":"裕誠街２８７號","OBJECTID":300776},"geometry":{"x":172719.51035500038,"y":2543359.2842919994}},{"attributes":{"ID":300785,"DIS_CODE":0,"TOWNNAME":"東區","LI":"南聖里","LIN":"14鄰","STREET":"裕誠街","SECT":" ","MAREA":" ","LANE":" ","ALLEY":" ","HOUSE_NO":"２８９號","E_COORD97":172723.53595600001,"N_COORD97":2543359.8134599999,"ADDRESS":"裕誠街２８９號","OBJECTID":300777},"geometry":{"x":172723.53595600091,"y":2543359.8134590015}},{"attributes":{"ID":300786,"DIS_CODE":0,"TOWNNAME":"東區","LI":"大德里","LIN":"14鄰","STREET":"立德十路","SECT":" ","MAREA":" ","LANE":" ","ALLEY":" ","HOUSE_NO":"５９號","E_COORD97":169548.22,"N_COORD97":2542068.4900000002,"ADDRESS":"立德十路５９號","OBJECTID":300778},"geometry":{"x":169548.21999999974,"y":2542068.4900000039}},{"attributes":{"ID":300787,"DIS_CODE":0,"TOWNNAME":"東區","LI":"大德里","LIN":"14鄰","STREET":"立德十路","SECT":" ","MAREA":" ","LANE":" ","ALLEY":" ","HOUSE_NO":"５５號","E_COORD97":169540.41,"N_COORD97":2542068.8500000001,"ADDRESS":"立德十路５５號","OBJECTID":300779},"geometry":{"x":169540.41000000108,"y":2542068.8500000034}},{"attributes":{"ID":300788,"DIS_CODE":0,"TOWNNAME":"東區","LI":"東光里","LIN":"14鄰","STREET":"莊敬路","SECT":" ","MAREA":" ","LANE":" ","ALLEY":" ","HOUSE_NO":"８３號","E_COORD97":171332.81,"N_COORD97":2543882.3300000001,"ADDRESS":"莊敬路８３號","OBJECTID":300780},"geometry":{"x":171332.80999999959,"y":2543882.3300000001}},{"attributes":{"ID":300789,"DIS_CODE":0,"TOWNNAME":"東區","LI":"東光里","LIN":"14鄰","STREET":"莊敬路","SECT":" ","MAREA":" ","LANE":" ","ALLEY":" ","HOUSE_NO":"８５號","E_COORD97":171334.45000000001,"N_COORD97":2543885.6099999999,"ADDRESS":"莊敬路８５號","OBJECTID":300781},"geometry":{"x":171334.45000000019,"y":2543885.6099999994}},{"attributes":{"ID":300790,"DIS_CODE":0,"TOWNNAME":"東區","LI":"東光里","LIN":"14鄰","STREET":"莊敬路","SECT":" ","MAREA":" ","LANE":" ","ALLEY":" ","HOUSE_NO":"８７號","E_COORD97":171334.85999999999,"N_COORD97":2543889.71,"ADDRESS":"莊敬路８７號","OBJECTID":300782},"geometry":{"x":171334.86000000034,"y":2543889.7100000028}},{"attributes":{"ID":300791,"DIS_CODE":0,"TOWNNAME":"東區","LI":"東光里","LIN":"14鄰","STREET":"莊敬路","SECT":" ","MAREA":" ","LANE":" ","ALLEY":" ","HOUSE_NO":"８９號","E_COORD97":171336.09,"N_COORD97":2543893.8100000001,"ADDRESS":"莊敬路８９號","OBJECTID":300783},"geometry":{"x":171336.08999999985,"y":2543893.8100000042}},{"attributes":{"ID":300792,"DIS_CODE":0,"TOWNNAME":"東區","LI":"東光里","LIN":"14鄰","STREET":"莊敬路","SECT":" ","MAREA":" ","LANE":" ","ALLEY":" ","HOUSE_NO":"９１號","E_COORD97":171336.5,"N_COORD97":2543898.3100000001,"ADDRESS":"莊敬路９１號","OBJECTID":300784},"geometry":{"x":171336.50000000093,"y":2543898.3100000024}},{"attributes":{"ID":300793,"DIS_CODE":0,"TOWNNAME":"東區","LI":"東光里","LIN":"14鄰","STREET":"莊敬路","SECT":" ","MAREA":" ","LANE":" ","ALLEY":" ","HOUSE_NO":"９３號","E_COORD97":171337.29000000001,"N_COORD97":2543901.8100000001,"ADDRESS":"莊敬路９３號","OBJECTID":300785},"geometry":{"x":171337.2900000019,"y":2543901.8100000024}},{"attributes":{"ID":300794,"DIS_CODE":0,"TOWNNAME":"安平區","LI":"國平里","LIN":"4鄰","STREET":"建平五街","SECT":" ","MAREA":" ","LANE":"１８４巷","ALLEY":" ","HOUSE_NO":"２號","E_COORD97":165589.72,"N_COORD97":2543198.0699999998,"ADDRESS":"建平五街１８４巷２號","OBJECTID":300786},"geometry":{"x":165589.72000000067,"y":2543198.0700000022}},{"attributes":{"ID":300795,"DIS_CODE":0,"TOWNNAME":"安平區","LI":"國平里","LIN":"4鄰","STREET":"建平五街","SECT":" ","MAREA":" ","LANE":"１８４巷","ALLEY":" ","HOUSE_NO":"３２號","E_COORD97":165599.42000000001,"N_COORD97":2543274.5499999998,"ADDRESS":"建平五街１８４巷３２號","OBJECTID":300787},"geometry":{"x":165599.41999999993,"y":2543274.5500000007}},{"attributes":{"ID":300796,"DIS_CODE":0,"TOWNNAME":"安平區","LI":"國平里","LIN":"4鄰","STREET":"建平五街","SECT":" ","MAREA":" ","LANE":"１８４巷","ALLEY":" ","HOUSE_NO":"３８號","E_COORD97":165601.39000000001,"N_COORD97":2543293.4100000001,"ADDRESS":"建平五街１８４巷３８號","OBJECTID":300788},"geometry":{"x":165601.39000000153,"y":2543293.410000002}},{"attributes":{"ID":300797,"DIS_CODE":0,"TOWNNAME":"安平區","LI":"國平里","LIN":"4鄰","STREET":"建平五街","SECT":" ","MAREA":" ","LANE":"１８４巷","ALLEY":" ","HOUSE_NO":"６號","E_COORD97":165591.69,"N_COORD97":2543210.3700000001,"ADDRESS":"建平五街１８４巷６號","OBJECTID":300789},"geometry":{"x":165591.69000000227,"y":2543210.3700000029}},{"attributes":{"ID":300798,"DIS_CODE":0,"TOWNNAME":"安平區","LI":"國平里","LIN":"4鄰","STREET":"建平五街","SECT":" ","MAREA":" ","LANE":"１８４巷","ALLEY":" ","HOUSE_NO":"８號","E_COORD97":165592.51000000001,"N_COORD97":2543215.7200000002,"ADDRESS":"建平五街１８４巷８號","OBJECTID":300790},"geometry":{"x":165592.51000000071,"y":2543215.7200000007}},{"attributes":{"ID":300799,"DIS_CODE":0,"TOWNNAME":"善化區","LI":"南關里","LIN":"8鄰","STREET":"光復路","SECT":" ","MAREA":" ","LANE":"４３８巷","ALLEY":" ","HOUSE_NO":"１號五樓之１５","E_COORD97":176866.95999999999,"N_COORD97":2558798.25,"ADDRESS":"光復路４３８巷１號五樓之１５","OBJECTID":300791},"geometry":{"x":176866.95999999996,"y":2558798.2500000019}},{"attributes":{"ID":300800,"DIS_CODE":0,"TOWNNAME":"善化區","LI":"南關里","LIN":"8鄰","STREET":"光復路","SECT":" ","MAREA":" ","LANE":"４３８巷","ALLEY":" ","HOUSE_NO":"１號五樓之１６","E_COORD97":176866.95999999999,"N_COORD97":2558798.25,"ADDRESS":"光復路４３８巷１號五樓之１６","OBJECTID":300792},"geometry":{"x":176866.95999999996,"y":2558798.2500000019}},{"attributes":{"ID":300801,"DIS_CODE":0,"TOWNNAME":"善化區","LI":"南關里","LIN":"8鄰","STREET":"光復路","SECT":" ","MAREA":" ","LANE":"４３８巷","ALLEY":" ","HOUSE_NO":"１號五樓之１７","E_COORD97":176866.95999999999,"N_COORD97":2558798.25,"ADDRESS":"光復路４３８巷１號五樓之１７","OBJECTID":300793},"geometry":{"x":176866.95999999996,"y":2558798.2500000019}},{"attributes":{"ID":300802,"DIS_CODE":0,"TOWNNAME":"善化區","LI":"南關里","LIN":"8鄰","STREET":"光復路","SECT":" ","MAREA":" ","LANE":"４３８巷","ALLEY":" ","HOUSE_NO":"１號五樓之１８","E_COORD97":176866.95999999999,"N_COORD97":2558798.25,"ADDRESS":"光復路４３８巷１號五樓之１８","OBJECTID":300794},"geometry":{"x":176866.95999999996,"y":2558798.2500000019}},{"attributes":{"ID":300803,"DIS_CODE":0,"TOWNNAME":"善化區","LI":"南關里","LIN":"8鄰","STREET":"光復路","SECT":" ","MAREA":" ","LANE":"４３８巷","ALLEY":" ","HOUSE_NO":"１號五樓之２０","E_COORD97":176866.95999999999,"N_COORD97":2558798.25,"ADDRESS":"光復路４３８巷１號五樓之２０","OBJECTID":300795},"geometry":{"x":176866.95999999996,"y":2558798.2500000019}},{"attributes":{"ID":300804,"DIS_CODE":0,"TOWNNAME":"善化區","LI":"南關里","LIN":"8鄰","STREET":"光復路","SECT":" ","MAREA":" ","LANE":"４３８巷","ALLEY":" ","HOUSE_NO":"１號六樓之１","E_COORD97":176866.95999999999,"N_COORD97":2558798.25,"ADDRESS":"光復路４３８巷１號六樓之１","OBJECTID":300796},"geometry":{"x":176866.95999999996,"y":2558798.2500000019}},{"attributes":{"ID":300805,"DIS_CODE":0,"TOWNNAME":"善化區","LI":"南關里","LIN":"8鄰","STREET":"光復路","SECT":" ","MAREA":" ","LANE":"４３８巷","ALLEY":" ","HOUSE_NO":"１號六樓之２","E_COORD97":176866.95999999999,"N_COORD97":2558798.25,"ADDRESS":"光復路４３８巷１號六樓之２","OBJECTID":300797},"geometry":{"x":176866.95999999996,"y":2558798.2500000019}},{"attributes":{"ID":300806,"DIS_CODE":0,"TOWNNAME":"善化區","LI":"南關里","LIN":"8鄰","STREET":"光復路","SECT":" ","MAREA":" ","LANE":"４３８巷","ALLEY":" ","HOUSE_NO":"１號六樓之３","E_COORD97":176866.95999999999,"N_COORD97":2558798.25,"ADDRESS":"光復路４３８巷１號六樓之３","OBJECTID":300798},"geometry":{"x":176866.95999999996,"y":2558798.2500000019}},{"attributes":{"ID":300807,"DIS_CODE":0,"TOWNNAME":"善化區","LI":"南關里","LIN":"8鄰","STREET":"光復路","SECT":" ","MAREA":" ","LANE":"４３８巷","ALLEY":" ","HOUSE_NO":"１號六樓之５","E_COORD97":176866.95999999999,"N_COORD97":2558798.25,"ADDRESS":"光復路４３８巷１號六樓之５","OBJECTID":300799},"geometry":{"x":176866.95999999996,"y":2558798.2500000019}},{"attributes":{"ID":300808,"DIS_CODE":0,"TOWNNAME":"善化區","LI":"南關里","LIN":"8鄰","STREET":"光復路","SECT":" ","MAREA":" ","LANE":"４３８巷","ALLEY":" ","HOUSE_NO":"１號六樓之６","E_COORD97":176866.95999999999,"N_COORD97":2558798.25,"ADDRESS":"光復路４３８巷１號六樓之６","OBJECTID":300800},"geometry":{"x":176866.95999999996,"y":2558798.2500000019}}]}