{"displayFieldName":"TOWNNAME","fieldAliases":{"ID":"ID","DIS_CODE":"DIS_CODE","TOWNNAME":"TOWNNAME","LI":"LI","LIN":"LIN","STREET":"STREET","SECT":"SECT","MAREA":"MAREA","LANE":"LANE","ALLEY":"ALLEY","HOUSE_NO":"HOUSE_NO","E_COORD97":"E_COORD97","N_COORD97":"N_COORD97","ADDRESS":"ADDRESS","OBJECTID":"OBJECTID"},"geometryType":"esriGeometryPoint","spatialReference":{"wkid":102443,"latestWkid":3826},"fields":[{"name":"ID","type":"esriFieldTypeDouble","alias":"ID"},{"name":"DIS_CODE","type":"esriFieldTypeInteger","alias":"DIS_CODE"},{"name":"TOWNNAME","type":"esriFieldTypeString","alias":"TOWNNAME","length":8},{"name":"LI","type":"esriFieldTypeString","alias":"LI","length":8},{"name":"LIN","type":"esriFieldTypeString","alias":"LIN","length":12},{"name":"STREET","type":"esriFieldTypeString","alias":"STREET","length":20},{"name":"SECT","type":"esriFieldTypeString","alias":"SECT","length":8},{"name":"MAREA","type":"esriFieldTypeString","alias":"MAREA","length":12},{"name":"LANE","type":"esriFieldTypeString","alias":"LANE","length":10},{"name":"ALLEY","type":"esriFieldTypeString","alias":"ALLEY","length":10},{"name":"HOUSE_NO","type":"esriFieldTypeString","alias":"HOUSE_NO","length":20},{"name":"E_COORD97","type":"esriFieldTypeDouble","alias":"E_COORD97"},{"name":"N_COORD97","type":"esriFieldTypeDouble","alias":"N_COORD97"},{"name":"ADDRESS","type":"esriFieldTypeString","alias":"ADDRESS","length":50},{"name":"OBJECTID","type":"esriFieldTypeOID","alias":"OBJECTID"}],"features":[{"attributes":{"ID":644228,"DIS_CODE":0,"TOWNNAME":"關廟區","LI":"北勢里","LIN":"24鄰","STREET":"北仁街","SECT":" ","MAREA":" ","LANE":" ","ALLEY":" ","HOUSE_NO":"８０號","E_COORD97":181473.23999999999,"N_COORD97":2540328.25,"ADDRESS":"北仁街８０號","OBJECTID":644201},"geometry":{"x":181473.24000000022,"y":2540328.2500000019}},{"attributes":{"ID":644229,"DIS_CODE":0,"TOWNNAME":"關廟區","LI":"北勢里","LIN":"24鄰","STREET":"北仁街","SECT":" ","MAREA":" ","LANE":" ","ALLEY":" ","HOUSE_NO":"９８號","E_COORD97":181434.04000000001,"N_COORD97":2540336.25,"ADDRESS":"北仁街９８號","OBJECTID":644202},"geometry":{"x":181434.04000000097,"y":2540336.25}},{"attributes":{"ID":644230,"DIS_CODE":0,"TOWNNAME":"關廟區","LI":"香洋里","LIN":"24鄰","STREET":"民族街","SECT":" ","MAREA":" ","LANE":" ","ALLEY":" ","HOUSE_NO":"２８６號","E_COORD97":181113.09,"N_COORD97":2539928.29,"ADDRESS":"民族街２８６號","OBJECTID":644203},"geometry":{"x":181113.09000000078,"y":2539928.2899999991}},{"attributes":{"ID":644231,"DIS_CODE":0,"TOWNNAME":"關廟區","LI":"香洋里","LIN":"4鄰","STREET":"南雄路","SECT":"二段","MAREA":" ","LANE":" ","ALLEY":" ","HOUSE_NO":"１６６號","E_COORD97":181185.48999999999,"N_COORD97":2540420.2799999998,"ADDRESS":"南雄路二段１６６號","OBJECTID":644204},"geometry":{"x":181185.49000000115,"y":2540420.2799999993}},{"attributes":{"ID":644232,"DIS_CODE":0,"TOWNNAME":"關廟區","LI":"香洋里","LIN":"4鄰","STREET":"南雄路","SECT":"二段","MAREA":" ","LANE":" ","ALLEY":" ","HOUSE_NO":"１９２號","E_COORD97":181187.39000000001,"N_COORD97":2540481.2799999998,"ADDRESS":"南雄路二段１９２號","OBJECTID":644205},"geometry":{"x":181187.3900000006,"y":2540481.2799999993}},{"attributes":{"ID":644233,"DIS_CODE":0,"TOWNNAME":"關廟區","LI":"關廟里","LIN":"4鄰","STREET":"正義街","SECT":" ","MAREA":" ","LANE":" ","ALLEY":" ","HOUSE_NO":"３號","E_COORD97":180811.20999999999,"N_COORD97":2540109.27,"ADDRESS":"正義街３號","OBJECTID":644206},"geometry":{"x":180811.21000000089,"y":2540109.2699999977}},{"attributes":{"ID":644234,"DIS_CODE":0,"TOWNNAME":"關廟區","LI":"香洋里","LIN":"4鄰","STREET":"南雄路","SECT":"二段","MAREA":" ","LANE":" ","ALLEY":" ","HOUSE_NO":"１７６號","E_COORD97":181188.59,"N_COORD97":2540439.2799999998,"ADDRESS":"南雄路二段１７６號","OBJECTID":644207},"geometry":{"x":181188.58999999985,"y":2540439.2800000012}},{"attributes":{"ID":644235,"DIS_CODE":0,"TOWNNAME":"關廟區","LI":"香洋里","LIN":"18鄰","STREET":"中央路","SECT":" ","MAREA":" ","LANE":" ","ALLEY":" ","HOUSE_NO":"２號","E_COORD97":181645.35999999999,"N_COORD97":2539992.3199999998,"ADDRESS":"中央路２號","OBJECTID":644208},"geometry":{"x":181645.36000000034,"y":2539992.3200000022}},{"attributes":{"ID":644236,"DIS_CODE":0,"TOWNNAME":"關廟區","LI":"南花里","LIN":"4鄰","STREET":"園東街","SECT":" ","MAREA":" ","LANE":" ","ALLEY":" ","HOUSE_NO":"５９號","E_COORD97":182027.76000000001,"N_COORD97":2540066.25,"ADDRESS":"園東街５９號","OBJECTID":644209},"geometry":{"x":182027.76000000071,"y":2540066.2500000037}},{"attributes":{"ID":644237,"DIS_CODE":0,"TOWNNAME":"關廟區","LI":"北勢里","LIN":"20鄰","STREET":"北新街","SECT":" ","MAREA":" ","LANE":" ","ALLEY":" ","HOUSE_NO":"８０號","E_COORD97":181317.73999999999,"N_COORD97":2540413.25,"ADDRESS":"北新街８０號","OBJECTID":644210},"geometry":{"x":181317.74000000115,"y":2540413.2500000019}},{"attributes":{"ID":644238,"DIS_CODE":0,"TOWNNAME":"關廟區","LI":"香洋里","LIN":"26鄰","STREET":"南雄路","SECT":"一段","MAREA":" ","LANE":" ","ALLEY":" ","HOUSE_NO":"１１１０號","E_COORD97":181091.14000000001,"N_COORD97":2539791.2799999998,"ADDRESS":"南雄路一段１１１０號","OBJECTID":644211},"geometry":{"x":181091.1400000006,"y":2539791.2800000012}},{"attributes":{"ID":644239,"DIS_CODE":0,"TOWNNAME":"關廟區","LI":"關廟里","LIN":"13鄰","STREET":"大富街","SECT":" ","MAREA":" ","LANE":" ","ALLEY":" ","HOUSE_NO":"１８１號","E_COORD97":181053.67000000001,"N_COORD97":2539360.25,"ADDRESS":"大富街１８１號","OBJECTID":644212},"geometry":{"x":181053.67000000086,"y":2539360.25}},{"attributes":{"ID":644240,"DIS_CODE":0,"TOWNNAME":"關廟區","LI":"香洋里","LIN":"24鄰","STREET":"民族街","SECT":" ","MAREA":" ","LANE":" ","ALLEY":" ","HOUSE_NO":"２６２號","E_COORD97":181150.79000000001,"N_COORD97":2539916.29,"ADDRESS":"民族街２６２號","OBJECTID":644213},"geometry":{"x":181150.7900000019,"y":2539916.290000001}},{"attributes":{"ID":644241,"DIS_CODE":0,"TOWNNAME":"關廟區","LI":"東勢里","LIN":"24鄰","STREET":"東安街","SECT":" ","MAREA":" ","LANE":" ","ALLEY":" ","HOUSE_NO":"２４６號","E_COORD97":181601.07000000001,"N_COORD97":2539353.3199999998,"ADDRESS":"東安街２４６號","OBJECTID":644214},"geometry":{"x":181601.0700000003,"y":2539353.3200000003}},{"attributes":{"ID":644242,"DIS_CODE":0,"TOWNNAME":"關廟區","LI":"關廟里","LIN":"4鄰","STREET":"正義街","SECT":" ","MAREA":" ","LANE":" ","ALLEY":" ","HOUSE_NO":"１５號","E_COORD97":180815.95999999999,"N_COORD97":2540134.27,"ADDRESS":"正義街１５號","OBJECTID":644215},"geometry":{"x":180815.96000000089,"y":2540134.2700000014}},{"attributes":{"ID":644243,"DIS_CODE":0,"TOWNNAME":"關廟區","LI":"香洋里","LIN":"26鄰","STREET":"南雄路","SECT":"一段","MAREA":" ","LANE":" ","ALLEY":" ","HOUSE_NO":"１１２６號","E_COORD97":181077.34,"N_COORD97":2539830.2799999998,"ADDRESS":"南雄路一段１１２６號","OBJECTID":644216},"geometry":{"x":181077.34000000171,"y":2539830.2799999993}},{"attributes":{"ID":644244,"DIS_CODE":0,"TOWNNAME":"關廟區","LI":"南花里","LIN":"13鄰","STREET":"和平路","SECT":" ","MAREA":" ","LANE":" ","ALLEY":" ","HOUSE_NO":"３８０號","E_COORD97":181607.54000000001,"N_COORD97":2540239.25,"ADDRESS":"和平路３８０號","OBJECTID":644217},"geometry":{"x":181607.54000000097,"y":2540239.2500000019}},{"attributes":{"ID":644245,"DIS_CODE":0,"TOWNNAME":"關廟區","LI":"香洋里","LIN":"24鄰","STREET":"民族街","SECT":" ","MAREA":" ","LANE":" ","ALLEY":" ","HOUSE_NO":"１７３號","E_COORD97":181197.98999999999,"N_COORD97":2539890.29,"ADDRESS":"民族街１７３號","OBJECTID":644218},"geometry":{"x":181197.99000000022,"y":2539890.2899999991}},{"attributes":{"ID":644246,"DIS_CODE":0,"TOWNNAME":"關廟區","LI":"松腳里","LIN":"14鄰","STREET":"四維街","SECT":" ","MAREA":" ","LANE":" ","ALLEY":" ","HOUSE_NO":"９６號","E_COORD97":181896.81,"N_COORD97":2539635.25,"ADDRESS":"四維街９６號","OBJECTID":644219},"geometry":{"x":181896.81000000052,"y":2539635.2499999981}},{"attributes":{"ID":644247,"DIS_CODE":0,"TOWNNAME":"關廟區","LI":"關廟里","LIN":"4鄰","STREET":"正義街","SECT":" ","MAREA":" ","LANE":" ","ALLEY":" ","HOUSE_NO":"２２號","E_COORD97":180834.35999999999,"N_COORD97":2540161.27,"ADDRESS":"正義街２２號","OBJECTID":644220},"geometry":{"x":180834.36000000127,"y":2540161.2700000014}},{"attributes":{"ID":644248,"DIS_CODE":0,"TOWNNAME":"關廟區","LI":"香洋里","LIN":"5鄰","STREET":"南雄路","SECT":"二段","MAREA":" ","LANE":" ","ALLEY":" ","HOUSE_NO":"８１號","E_COORD97":181117.84,"N_COORD97":2540223.2799999998,"ADDRESS":"南雄路二段８１號","OBJECTID":644221},"geometry":{"x":181117.83999999985,"y":2540223.2799999993}},{"attributes":{"ID":644249,"DIS_CODE":0,"TOWNNAME":"關廟區","LI":"香洋里","LIN":"25鄰","STREET":"中山路","SECT":"二段","MAREA":" ","LANE":" ","ALLEY":" ","HOUSE_NO":"１２９號","E_COORD97":180923.66,"N_COORD97":2540016.2799999998,"ADDRESS":"中山路二段１２９號","OBJECTID":644222},"geometry":{"x":180923.66000000108,"y":2540016.2799999993}},{"attributes":{"ID":644250,"DIS_CODE":0,"TOWNNAME":"關廟區","LI":"北花里","LIN":"20鄰","STREET":"中正路","SECT":" ","MAREA":" ","LANE":" ","ALLEY":" ","HOUSE_NO":"１２１號","E_COORD97":183570.85999999999,"N_COORD97":2540915.25,"ADDRESS":"中正路１２１號","OBJECTID":644223},"geometry":{"x":183570.86000000034,"y":2540915.2500000019}},{"attributes":{"ID":644251,"DIS_CODE":0,"TOWNNAME":"關廟區","LI":"布袋里","LIN":"4鄰","STREET":"長文街","SECT":" ","MAREA":" ","LANE":" ","ALLEY":" ","HOUSE_NO":"２１６號","E_COORD97":182607.54000000001,"N_COORD97":2535279.2999999998,"ADDRESS":"長文街２１６號","OBJECTID":644224},"geometry":{"x":182607.54000000097,"y":2535279.3000000045}},{"attributes":{"ID":644252,"DIS_CODE":0,"TOWNNAME":"關廟區","LI":"東勢里","LIN":"20鄰","STREET":"東昌街","SECT":" ","MAREA":" ","LANE":" ","ALLEY":" ","HOUSE_NO":"１８號","E_COORD97":181977.12,"N_COORD97":2539286.25,"ADDRESS":"東昌街１８號","OBJECTID":644225},"geometry":{"x":181977.12000000011,"y":2539286.2500000037}},{"attributes":{"ID":644253,"DIS_CODE":0,"TOWNNAME":"關廟區","LI":"香洋里","LIN":"26鄰","STREET":"南雄路","SECT":"一段","MAREA":" ","LANE":" ","ALLEY":" ","HOUSE_NO":"１１０６號","E_COORD97":181095.34,"N_COORD97":2539781.2799999998,"ADDRESS":"南雄路一段１１０６號","OBJECTID":644226},"geometry":{"x":181095.33999999985,"y":2539781.2800000012}},{"attributes":{"ID":644254,"DIS_CODE":0,"TOWNNAME":"關廟區","LI":"關廟里","LIN":"13鄰","STREET":"大仁街","SECT":" ","MAREA":" ","LANE":" ","ALLEY":" ","HOUSE_NO":"１１１號","E_COORD97":181042.57000000001,"N_COORD97":2539391.25,"ADDRESS":"大仁街１１１號","OBJECTID":644227},"geometry":{"x":181042.57000000123,"y":2539391.2500000037}},{"attributes":{"ID":644255,"DIS_CODE":0,"TOWNNAME":"關廟區","LI":"南花里","LIN":"13鄰","STREET":"園中街","SECT":" ","MAREA":" ","LANE":" ","ALLEY":" ","HOUSE_NO":"３號","E_COORD97":181737.10999999999,"N_COORD97":2540207.25,"ADDRESS":"園中街３號","OBJECTID":644228},"geometry":{"x":181737.1100000022,"y":2540207.25}},{"attributes":{"ID":644256,"DIS_CODE":0,"TOWNNAME":"關廟區","LI":"香洋里","LIN":"24鄰","STREET":"民族街","SECT":" ","MAREA":" ","LANE":" ","ALLEY":" ","HOUSE_NO":"１４９號","E_COORD97":181252.48999999999,"N_COORD97":2539878.29,"ADDRESS":"民族街１４９號","OBJECTID":644229},"geometry":{"x":181252.49000000022,"y":2539878.2900000028}},{"attributes":{"ID":644257,"DIS_CODE":0,"TOWNNAME":"關廟區","LI":"松腳里","LIN":"14鄰","STREET":"四維街","SECT":" ","MAREA":" ","LANE":" ","ALLEY":" ","HOUSE_NO":"６７號","E_COORD97":181887.20999999999,"N_COORD97":2539615.25,"ADDRESS":"四維街６７號","OBJECTID":644230},"geometry":{"x":181887.21000000089,"y":2539615.2500000037}},{"attributes":{"ID":644258,"DIS_CODE":0,"TOWNNAME":"關廟區","LI":"布袋里","LIN":"4鄰","STREET":"長文街","SECT":" ","MAREA":" ","LANE":" ","ALLEY":" ","HOUSE_NO":"２２７號","E_COORD97":182589.84,"N_COORD97":2535242.2999999998,"ADDRESS":"長文街２２７號","OBJECTID":644231},"geometry":{"x":182589.84000000078,"y":2535242.3000000026}},{"attributes":{"ID":644259,"DIS_CODE":0,"TOWNNAME":"關廟區","LI":"北勢里","LIN":"4鄰","STREET":"北仁街","SECT":" ","MAREA":" ","LANE":" ","ALLEY":" ","HOUSE_NO":"６２號","E_COORD97":181510.44,"N_COORD97":2540331.25,"ADDRESS":"北仁街６２號","OBJECTID":644232},"geometry":{"x":181510.44000000041,"y":2540331.2500000019}},{"attributes":{"ID":644260,"DIS_CODE":0,"TOWNNAME":"關廟區","LI":"東勢里","LIN":"20鄰","STREET":"東昌街","SECT":" ","MAREA":" ","LANE":" ","ALLEY":" ","HOUSE_NO":"２９號","E_COORD97":182010.51999999999,"N_COORD97":2539281.25,"ADDRESS":"東昌街２９號","OBJECTID":644233},"geometry":{"x":182010.52000000048,"y":2539281.25}},{"attributes":{"ID":644261,"DIS_CODE":0,"TOWNNAME":"關廟區","LI":"香洋里","LIN":"25鄰","STREET":"南雄路","SECT":"一段","MAREA":" ","LANE":" ","ALLEY":" ","HOUSE_NO":"１１４６號","E_COORD97":181070.84,"N_COORD97":2539882.2799999998,"ADDRESS":"南雄路一段１１４６號","OBJECTID":644234},"geometry":{"x":181070.84000000078,"y":2539882.2800000012}},{"attributes":{"ID":644262,"DIS_CODE":0,"TOWNNAME":"關廟區","LI":"北花里","LIN":"13鄰","STREET":"中正路","SECT":" ","MAREA":" ","LANE":" ","ALLEY":" ","HOUSE_NO":"２３９號","E_COORD97":183313.66,"N_COORD97":2540875.25,"ADDRESS":"中正路２３９號","OBJECTID":644235},"geometry":{"x":183313.66000000108,"y":2540875.25}},{"attributes":{"ID":644263,"DIS_CODE":0,"TOWNNAME":"關廟區","LI":"松腳里","LIN":"14鄰","STREET":"四維街","SECT":" ","MAREA":" ","LANE":" ","ALLEY":" ","HOUSE_NO":"１０２號","E_COORD97":181894.95999999999,"N_COORD97":2539649.25,"ADDRESS":"四維街１０２號","OBJECTID":644236},"geometry":{"x":181894.95999999996,"y":2539649.2500000019}},{"attributes":{"ID":644264,"DIS_CODE":0,"TOWNNAME":"關廟區","LI":"深坑里","LIN":"4鄰","STREET":"深坑一街","SECT":" ","MAREA":" ","LANE":" ","ALLEY":" ","HOUSE_NO":"２１號","E_COORD97":181896.87,"N_COORD97":2537590.2799999998,"ADDRESS":"深坑一街２１號","OBJECTID":644237},"geometry":{"x":181896.87000000104,"y":2537590.2800000031}},{"attributes":{"ID":644265,"DIS_CODE":0,"TOWNNAME":"關廟區","LI":"東勢里","LIN":"20鄰","STREET":"東昌街","SECT":" ","MAREA":" ","LANE":" ","ALLEY":" ","HOUSE_NO":"２０號","E_COORD97":181981.01999999999,"N_COORD97":2539284.25,"ADDRESS":"東昌街２０號","OBJECTID":644238},"geometry":{"x":181981.02000000142,"y":2539284.2500000019}},{"attributes":{"ID":644266,"DIS_CODE":0,"TOWNNAME":"關廟區","LI":"北花里","LIN":"13鄰","STREET":"中正路","SECT":" ","MAREA":" ","LANE":" ","ALLEY":" ","HOUSE_NO":"２５９號","E_COORD97":183263.06,"N_COORD97":2540868.25,"ADDRESS":"中正路２５９號","OBJECTID":644239},"geometry":{"x":183263.06000000052,"y":2540868.25}},{"attributes":{"ID":644267,"DIS_CODE":0,"TOWNNAME":"關廟區","LI":"北花里","LIN":"13鄰","STREET":"中正路","SECT":" ","MAREA":" ","LANE":" ","ALLEY":" ","HOUSE_NO":"２５７號","E_COORD97":183266.45999999999,"N_COORD97":2540871.25,"ADDRESS":"中正路２５７號","OBJECTID":644240},"geometry":{"x":183266.45999999996,"y":2540871.25}},{"attributes":{"ID":644268,"DIS_CODE":0,"TOWNNAME":"關廟區","LI":"北花里","LIN":"13鄰","STREET":"中正路","SECT":" ","MAREA":" ","LANE":" ","ALLEY":" ","HOUSE_NO":"２３５號","E_COORD97":183324.06,"N_COORD97":2540875.25,"ADDRESS":"中正路２３５號","OBJECTID":644241},"geometry":{"x":183324.06000000052,"y":2540875.25}},{"attributes":{"ID":644269,"DIS_CODE":0,"TOWNNAME":"關廟區","LI":"香洋里","LIN":"4鄰","STREET":"南雄路","SECT":"二段","MAREA":" ","LANE":" ","ALLEY":" ","HOUSE_NO":"１９８號","E_COORD97":181187.39000000001,"N_COORD97":2540491.2799999998,"ADDRESS":"南雄路二段１９８號","OBJECTID":644242},"geometry":{"x":181187.3900000006,"y":2540491.2799999993}},{"attributes":{"ID":644270,"DIS_CODE":0,"TOWNNAME":"關廟區","LI":"關廟里","LIN":"4鄰","STREET":"正義街","SECT":" ","MAREA":" ","LANE":" ","ALLEY":" ","HOUSE_NO":"１１號","E_COORD97":180814.45999999999,"N_COORD97":2540125.27,"ADDRESS":"正義街１１號","OBJECTID":644243},"geometry":{"x":180814.46000000089,"y":2540125.2699999996}},{"attributes":{"ID":644271,"DIS_CODE":0,"TOWNNAME":"關廟區","LI":"香洋里","LIN":"18鄰","STREET":"和平路","SECT":" ","MAREA":" ","LANE":" ","ALLEY":" ","HOUSE_NO":"２４９號","E_COORD97":181644.44,"N_COORD97":2540018.25,"ADDRESS":"和平路２４９號","OBJECTID":644244},"geometry":{"x":181644.44000000041,"y":2540018.2499999981}},{"attributes":{"ID":644272,"DIS_CODE":0,"TOWNNAME":"關廟區","LI":"東勢里","LIN":"24鄰","STREET":"東安街","SECT":" ","MAREA":" ","LANE":" ","ALLEY":" ","HOUSE_NO":"２３０號","E_COORD97":181575.76999999999,"N_COORD97":2539362.3199999998,"ADDRESS":"東安街２３０號","OBJECTID":644245},"geometry":{"x":181575.76999999862,"y":2539362.3200000003}},{"attributes":{"ID":644273,"DIS_CODE":0,"TOWNNAME":"關廟區","LI":"關廟里","LIN":"14鄰","STREET":"大仁街","SECT":" ","MAREA":" ","LANE":" ","ALLEY":" ","HOUSE_NO":"３４３號","E_COORD97":180829.17000000001,"N_COORD97":2539715.25,"ADDRESS":"大仁街３４３號","OBJECTID":644246},"geometry":{"x":180829.16999999993,"y":2539715.25}},{"attributes":{"ID":644274,"DIS_CODE":0,"TOWNNAME":"關廟區","LI":"關廟里","LIN":"8鄰","STREET":"大仁街","SECT":" ","MAREA":" ","LANE":" ","ALLEY":" ","HOUSE_NO":"３６２號","E_COORD97":180894.76999999999,"N_COORD97":2539739.25,"ADDRESS":"大仁街３６２號","OBJECTID":644247},"geometry":{"x":180894.77000000048,"y":2539739.25}},{"attributes":{"ID":644275,"DIS_CODE":0,"TOWNNAME":"關廟區","LI":"關廟里","LIN":"4鄰","STREET":"文衡路","SECT":" ","MAREA":" ","LANE":" ","ALLEY":" ","HOUSE_NO":"２９號","E_COORD97":180881.29000000001,"N_COORD97":2540139.3300000001,"ADDRESS":"文衡路２９號","OBJECTID":644248},"geometry":{"x":180881.2900000019,"y":2540139.3300000001}},{"attributes":{"ID":644276,"DIS_CODE":0,"TOWNNAME":"關廟區","LI":"關廟里","LIN":"4鄰","STREET":"文衡路","SECT":" ","MAREA":" ","LANE":" ","ALLEY":" ","HOUSE_NO":"３９號","E_COORD97":180883.89000000001,"N_COORD97":2540163.3300000001,"ADDRESS":"文衡路３９號","OBJECTID":644249},"geometry":{"x":180883.8900000006,"y":2540163.3300000001}},{"attributes":{"ID":644277,"DIS_CODE":0,"TOWNNAME":"關廟區","LI":"關廟里","LIN":"4鄰","STREET":"文衡路","SECT":" ","MAREA":" ","LANE":" ","ALLEY":" ","HOUSE_NO":"１號","E_COORD97":180873.44,"N_COORD97":2540056.3300000001,"ADDRESS":"文衡路１號","OBJECTID":644250},"geometry":{"x":180873.44000000041,"y":2540056.3300000019}},{"attributes":{"ID":644278,"DIS_CODE":0,"TOWNNAME":"關廟區","LI":"關廟里","LIN":"5鄰","STREET":"文化街","SECT":" ","MAREA":" ","LANE":" ","ALLEY":" ","HOUSE_NO":"７５號","E_COORD97":180693.59,"N_COORD97":2539923.3300000001,"ADDRESS":"文化街７５號","OBJECTID":644251},"geometry":{"x":180693.58999999985,"y":2539923.3300000038}},{"attributes":{"ID":644279,"DIS_CODE":0,"TOWNNAME":"關廟區","LI":"香洋里","LIN":"14鄰","STREET":"仁愛路","SECT":" ","MAREA":" ","LANE":" ","ALLEY":" ","HOUSE_NO":"３８號","E_COORD97":181301.23999999999,"N_COORD97":2540141.2799999998,"ADDRESS":"仁愛路３８號","OBJECTID":644252},"geometry":{"x":181301.24000000115,"y":2540141.2800000012}},{"attributes":{"ID":644280,"DIS_CODE":0,"TOWNNAME":"關廟區","LI":"香洋里","LIN":"14鄰","STREET":"仁愛路","SECT":" ","MAREA":" ","LANE":" ","ALLEY":" ","HOUSE_NO":"１２號","E_COORD97":181282.04000000001,"N_COORD97":2540086.2799999998,"ADDRESS":"仁愛路１２號","OBJECTID":644253},"geometry":{"x":181282.04000000097,"y":2540086.2800000012}},{"attributes":{"ID":644281,"DIS_CODE":0,"TOWNNAME":"關廟區","LI":"新光里","LIN":"14鄰","STREET":"南寮街","SECT":" ","MAREA":" ","LANE":" ","ALLEY":" ","HOUSE_NO":"１７號","E_COORD97":184275.22,"N_COORD97":2541601.25,"ADDRESS":"南寮街１７號","OBJECTID":644254},"geometry":{"x":184275.2200000016,"y":2541601.25}},{"attributes":{"ID":644282,"DIS_CODE":0,"TOWNNAME":"關廟區","LI":"香洋里","LIN":"14鄰","STREET":"仁愛路","SECT":" ","MAREA":" ","LANE":" ","ALLEY":" ","HOUSE_NO":"１０號","E_COORD97":181280.54000000001,"N_COORD97":2540082.2799999998,"ADDRESS":"仁愛路１０號","OBJECTID":644255},"geometry":{"x":181280.54000000004,"y":2540082.2800000031}},{"attributes":{"ID":644283,"DIS_CODE":0,"TOWNNAME":"關廟區","LI":"關廟里","LIN":"4鄰","STREET":"文衡路","SECT":" ","MAREA":" ","LANE":" ","ALLEY":" ","HOUSE_NO":"１９號","E_COORD97":180875.09,"N_COORD97":2540111.3300000001,"ADDRESS":"文衡路１９號","OBJECTID":644256},"geometry":{"x":180875.08999999985,"y":2540111.3300000001}},{"attributes":{"ID":644284,"DIS_CODE":0,"TOWNNAME":"關廟區","LI":"關廟里","LIN":"4鄰","STREET":"文衡路","SECT":" ","MAREA":" ","LANE":" ","ALLEY":" ","HOUSE_NO":"３號","E_COORD97":180873.84,"N_COORD97":2540062.3300000001,"ADDRESS":"文衡路３號","OBJECTID":644257},"geometry":{"x":180873.84000000171,"y":2540062.3300000038}},{"attributes":{"ID":644285,"DIS_CODE":0,"TOWNNAME":"關廟區","LI":"關廟里","LIN":"4鄰","STREET":"文衡路","SECT":" ","MAREA":" ","LANE":" ","ALLEY":" ","HOUSE_NO":"５號","E_COORD97":180874.23999999999,"N_COORD97":2540066.3300000001,"ADDRESS":"文衡路５號","OBJECTID":644258},"geometry":{"x":180874.24000000022,"y":2540066.3300000019}},{"attributes":{"ID":644286,"DIS_CODE":0,"TOWNNAME":"關廟區","LI":"埤頭里","LIN":"5鄰","STREET":"關新路","SECT":"一段","MAREA":" ","LANE":" ","ALLEY":" ","HOUSE_NO":"８１２號","E_COORD97":179109.97,"N_COORD97":2543959.2999999998,"ADDRESS":"關新路一段８１２號","OBJECTID":644259},"geometry":{"x":179109.9700000016,"y":2543959.3000000026}},{"attributes":{"ID":644287,"DIS_CODE":0,"TOWNNAME":"關廟區","LI":"香洋里","LIN":"5鄰","STREET":"中正路","SECT":" ","MAREA":" ","LANE":" ","ALLEY":" ","HOUSE_NO":"９６９號","E_COORD97":181125.76000000001,"N_COORD97":2540281.25,"ADDRESS":"中正路９６９號","OBJECTID":644260},"geometry":{"x":181125.76000000071,"y":2540281.2500000019}},{"attributes":{"ID":644288,"DIS_CODE":0,"TOWNNAME":"關廟區","LI":"香洋里","LIN":"14鄰","STREET":"仁愛路","SECT":" ","MAREA":" ","LANE":" ","ALLEY":" ","HOUSE_NO":"５６號","E_COORD97":181310.84,"N_COORD97":2540171.2799999998,"ADDRESS":"仁愛路５６號","OBJECTID":644261},"geometry":{"x":181310.83999999985,"y":2540171.2800000012}},{"attributes":{"ID":644289,"DIS_CODE":0,"TOWNNAME":"關廟區","LI":"香洋里","LIN":"14鄰","STREET":"仁愛路","SECT":" ","MAREA":" ","LANE":" ","ALLEY":" ","HOUSE_NO":"７６號","E_COORD97":181320.84,"N_COORD97":2540203.2799999998,"ADDRESS":"仁愛路７６號","OBJECTID":644262},"geometry":{"x":181320.83999999985,"y":2540203.2799999993}},{"attributes":{"ID":644290,"DIS_CODE":0,"TOWNNAME":"關廟區","LI":"埤頭里","LIN":"8鄰","STREET":"保東路","SECT":" ","MAREA":" ","LANE":" ","ALLEY":" ","HOUSE_NO":"８２號","E_COORD97":178890.76999999999,"N_COORD97":2544032.2999999998,"ADDRESS":"保東路８２號","OBJECTID":644263},"geometry":{"x":178890.77000000142,"y":2544032.3000000007}},{"attributes":{"ID":644291,"DIS_CODE":0,"TOWNNAME":"關廟區","LI":"關廟里","LIN":"4鄰","STREET":"文衡路","SECT":" ","MAREA":" ","LANE":" ","ALLEY":" ","HOUSE_NO":"１７號","E_COORD97":180880.89000000001,"N_COORD97":2540099.3300000001,"ADDRESS":"文衡路１７號","OBJECTID":644264},"geometry":{"x":180880.8900000006,"y":2540099.3300000038}},{"attributes":{"ID":644292,"DIS_CODE":0,"TOWNNAME":"關廟區","LI":"關廟里","LIN":"5鄰","STREET":"文化街","SECT":" ","MAREA":" ","LANE":" ","ALLEY":" ","HOUSE_NO":"３３號","E_COORD97":180708.09,"N_COORD97":2539959.3300000001,"ADDRESS":"文化街３３號","OBJECTID":644265},"geometry":{"x":180708.09000000078,"y":2539959.3300000001}},{"attributes":{"ID":644293,"DIS_CODE":0,"TOWNNAME":"關廟區","LI":"新光里","LIN":"14鄰","STREET":"新光街","SECT":" ","MAREA":" ","LANE":" ","ALLEY":" ","HOUSE_NO":"１３９號","E_COORD97":184027.17000000001,"N_COORD97":2541525.25,"ADDRESS":"新光街１３９號","OBJECTID":644266},"geometry":{"x":184027.17000000086,"y":2541525.2500000019}},{"attributes":{"ID":644294,"DIS_CODE":0,"TOWNNAME":"關廟區","LI":"新埔里","LIN":"8鄰","STREET":"北新街","SECT":" ","MAREA":" ","LANE":" ","ALLEY":" ","HOUSE_NO":"３５８號","E_COORD97":181255.98999999999,"N_COORD97":2541108.25,"ADDRESS":"北新街３５８號","OBJECTID":644267},"geometry":{"x":181255.99000000022,"y":2541108.2500000019}},{"attributes":{"ID":644295,"DIS_CODE":0,"TOWNNAME":"關廟區","LI":"南花里","LIN":"15鄰","STREET":"中正路","SECT":" ","MAREA":" ","LANE":" ","ALLEY":" ","HOUSE_NO":"８５５號","E_COORD97":181531.85999999999,"N_COORD97":2540241.2400000002,"ADDRESS":"中正路８５５號","OBJECTID":644268},"geometry":{"x":181531.86000000034,"y":2540241.2400000002}},{"attributes":{"ID":644296,"DIS_CODE":0,"TOWNNAME":"關廟區","LI":"新埔里","LIN":"1鄰","STREET":"新埔一街","SECT":" ","MAREA":" ","LANE":" ","ALLEY":" ","HOUSE_NO":"３８號","E_COORD97":181265.97,"N_COORD97":2540815.25,"ADDRESS":"新埔一街３８號","OBJECTID":644269},"geometry":{"x":181265.96999999974,"y":2540815.2500000037}},{"attributes":{"ID":644297,"DIS_CODE":0,"TOWNNAME":"關廟區","LI":"關廟里","LIN":"4鄰","STREET":"文衡路","SECT":" ","MAREA":" ","LANE":" ","ALLEY":" ","HOUSE_NO":"３５號","E_COORD97":180883.19,"N_COORD97":2540155.3300000001,"ADDRESS":"文衡路３５號","OBJECTID":644270},"geometry":{"x":180883.19000000041,"y":2540155.3300000019}},{"attributes":{"ID":644298,"DIS_CODE":0,"TOWNNAME":"關廟區","LI":"關廟里","LIN":"5鄰","STREET":"文化街","SECT":" ","MAREA":" ","LANE":" ","ALLEY":" ","HOUSE_NO":"４３號","E_COORD97":180686.98999999999,"N_COORD97":2539959.3300000001,"ADDRESS":"文化街４３號","OBJECTID":644271},"geometry":{"x":180686.99000000115,"y":2539959.3300000001}},{"attributes":{"ID":644299,"DIS_CODE":0,"TOWNNAME":"關廟區","LI":"五甲里","LIN":"8鄰","STREET":"大富街","SECT":" ","MAREA":" ","LANE":" ","ALLEY":" ","HOUSE_NO":"１１７號","E_COORD97":181067.98999999999,"N_COORD97":2539233.27,"ADDRESS":"大富街１１７號","OBJECTID":644272},"geometry":{"x":181067.99000000022,"y":2539233.2699999996}},{"attributes":{"ID":644300,"DIS_CODE":0,"TOWNNAME":"關廟區","LI":"下湖里","LIN":"1鄰","STREET":"關新路","SECT":"一段","MAREA":" ","LANE":" ","ALLEY":" ","HOUSE_NO":"２１號","E_COORD97":180010.32999999999,"N_COORD97":2541758.9100000001,"ADDRESS":"關新路一段２１號","OBJECTID":644273},"geometry":{"x":180010.33000000101,"y":2541758.9100000001}},{"attributes":{"ID":644301,"DIS_CODE":0,"TOWNNAME":"關廟區","LI":"南花里","LIN":"1鄰","STREET":"中山路","SECT":"一段","MAREA":" ","LANE":" ","ALLEY":" ","HOUSE_NO":"２３０號","E_COORD97":181874.38,"N_COORD97":2539961.8999999999,"ADDRESS":"中山路一段２３０號","OBJECTID":644274},"geometry":{"x":181874.38000000082,"y":2539961.9000000022}},{"attributes":{"ID":644302,"DIS_CODE":0,"TOWNNAME":"關廟區","LI":"深坑里","LIN":"12鄰","STREET":"南雄路","SECT":"一段","MAREA":" ","LANE":" ","ALLEY":" ","HOUSE_NO":"３６５號","E_COORD97":181806.87,"N_COORD97":2537487.29,"ADDRESS":"南雄路一段３６５號","OBJECTID":644275},"geometry":{"x":181806.87000000104,"y":2537487.2899999991}},{"attributes":{"ID":644303,"DIS_CODE":0,"TOWNNAME":"關廟區","LI":"香洋里","LIN":"12鄰","STREET":"中山路","SECT":"一段","MAREA":" ","LANE":" ","ALLEY":" ","HOUSE_NO":"５４６號","E_COORD97":181282.04000000001,"N_COORD97":2539946.1499999999,"ADDRESS":"中山路一段５４６號","OBJECTID":644276},"geometry":{"x":181282.04000000097,"y":2539946.1500000022}},{"attributes":{"ID":644304,"DIS_CODE":0,"TOWNNAME":"關廟區","LI":"香洋里","LIN":"12鄰","STREET":"中山路","SECT":"一段","MAREA":" ","LANE":" ","ALLEY":" ","HOUSE_NO":"５５８號","E_COORD97":181267.14000000001,"N_COORD97":2539950.1299999999,"ADDRESS":"中山路一段５５８號","OBJECTID":644277},"geometry":{"x":181267.1400000006,"y":2539950.129999999}},{"attributes":{"ID":644305,"DIS_CODE":0,"TOWNNAME":"關廟區","LI":"香洋里","LIN":"12鄰","STREET":"中山路","SECT":"一段","MAREA":" ","LANE":" ","ALLEY":" ","HOUSE_NO":"５６０號","E_COORD97":181262.10999999999,"N_COORD97":2539951.7999999998,"ADDRESS":"中山路一段５６０號","OBJECTID":644278},"geometry":{"x":181262.11000000034,"y":2539951.8000000026}},{"attributes":{"ID":644306,"DIS_CODE":0,"TOWNNAME":"關廟區","LI":"香洋里","LIN":"12鄰","STREET":"中山路","SECT":"一段","MAREA":" ","LANE":" ","ALLEY":" ","HOUSE_NO":"５６８號","E_COORD97":181239.48999999999,"N_COORD97":2539959.8799999999,"ADDRESS":"中山路一段５６８號","OBJECTID":644279},"geometry":{"x":181239.49000000209,"y":2539959.8800000008}},{"attributes":{"ID":644307,"DIS_CODE":0,"TOWNNAME":"關廟區","LI":"香洋里","LIN":"12鄰","STREET":"中山路","SECT":"一段","MAREA":" ","LANE":" ","ALLEY":" ","HOUSE_NO":"５７０號","E_COORD97":181235.09,"N_COORD97":2539960.9199999999,"ADDRESS":"中山路一段５７０號","OBJECTID":644280},"geometry":{"x":181235.09000000171,"y":2539960.9200000018}},{"attributes":{"ID":644308,"DIS_CODE":0,"TOWNNAME":"關廟區","LI":"香洋里","LIN":"12鄰","STREET":"中山路","SECT":"一段","MAREA":" ","LANE":" ","ALLEY":" ","HOUSE_NO":"５７２之１號","E_COORD97":181230.45000000001,"N_COORD97":2539963.3599999999,"ADDRESS":"中山路一段５７２之１號","OBJECTID":644281},"geometry":{"x":181230.45000000019,"y":2539963.3600000013}},{"attributes":{"ID":644309,"DIS_CODE":0,"TOWNNAME":"關廟區","LI":"香洋里","LIN":"12鄰","STREET":"中山路","SECT":"一段","MAREA":" ","LANE":" ","ALLEY":" ","HOUSE_NO":"５７２號","E_COORD97":181231.26000000001,"N_COORD97":2539962.54,"ADDRESS":"中山路一段５７２號","OBJECTID":644282},"geometry":{"x":181231.25999999978,"y":2539962.540000001}},{"attributes":{"ID":644310,"DIS_CODE":0,"TOWNNAME":"關廟區","LI":"香洋里","LIN":"12鄰","STREET":"中山路","SECT":"一段","MAREA":" ","LANE":" ","ALLEY":" ","HOUSE_NO":"５７６號","E_COORD97":181224.13,"N_COORD97":2539964.9500000002,"ADDRESS":"中山路一段５７６號","OBJECTID":644283},"geometry":{"x":181224.12999999989,"y":2539964.9499999993}},{"attributes":{"ID":644311,"DIS_CODE":0,"TOWNNAME":"關廟區","LI":"田中里","LIN":"4鄰","STREET":"中大街","SECT":" ","MAREA":" ","LANE":" ","ALLEY":" ","HOUSE_NO":"７７號","E_COORD97":184173.64999999999,"N_COORD97":2533751.8100000001,"ADDRESS":"中大街７７號","OBJECTID":644284},"geometry":{"x":184173.6500000013,"y":2533751.8100000005}},{"attributes":{"ID":644312,"DIS_CODE":0,"TOWNNAME":"關廟區","LI":"山西里","LIN":"18鄰","STREET":"文衡路","SECT":" ","MAREA":" ","LANE":" ","ALLEY":" ","HOUSE_NO":"３６８號","E_COORD97":180925.39999999999,"N_COORD97":2540861.71,"ADDRESS":"文衡路３６８號","OBJECTID":644285},"geometry":{"x":180925.4000000013,"y":2540861.7100000028}},{"attributes":{"ID":644313,"DIS_CODE":0,"TOWNNAME":"關廟區","LI":"關廟里","LIN":"5鄰","STREET":"中山路","SECT":"二段","MAREA":" ","LANE":" ","ALLEY":" ","HOUSE_NO":"１３７之８號","E_COORD97":180870.54000000001,"N_COORD97":2540025.6899999999,"ADDRESS":"中山路二段１３７之８號","OBJECTID":644286},"geometry":{"x":180870.54000000004,"y":2540025.6900000013}},{"attributes":{"ID":644314,"DIS_CODE":0,"TOWNNAME":"關廟區","LI":"山西里","LIN":"18鄰","STREET":"文衡路","SECT":" ","MAREA":" ","LANE":" ","ALLEY":" ","HOUSE_NO":"３７０號","E_COORD97":180922.13,"N_COORD97":2540865.6499999999,"ADDRESS":"文衡路３７０號","OBJECTID":644287},"geometry":{"x":180922.12999999989,"y":2540865.6500000004}},{"attributes":{"ID":644315,"DIS_CODE":0,"TOWNNAME":"關廟區","LI":"山西里","LIN":"18鄰","STREET":"文衡路","SECT":" ","MAREA":" ","LANE":" ","ALLEY":" ","HOUSE_NO":"３７２號","E_COORD97":180918.94,"N_COORD97":2540869.4900000002,"ADDRESS":"文衡路３７２號","OBJECTID":644288},"geometry":{"x":180918.94000000041,"y":2540869.4900000021}},{"attributes":{"ID":644316,"DIS_CODE":0,"TOWNNAME":"關廟區","LI":"山西里","LIN":"18鄰","STREET":"文衡路","SECT":" ","MAREA":" ","LANE":" ","ALLEY":" ","HOUSE_NO":"３７６之１號","E_COORD97":180914.95999999999,"N_COORD97":2540876.79,"ADDRESS":"文衡路３７６之１號","OBJECTID":644289},"geometry":{"x":180914.95999999996,"y":2540876.7899999991}},{"attributes":{"ID":644317,"DIS_CODE":0,"TOWNNAME":"關廟區","LI":"山西里","LIN":"18鄰","STREET":"文衡路","SECT":" ","MAREA":" ","LANE":" ","ALLEY":" ","HOUSE_NO":"３７６之２號","E_COORD97":180912.12,"N_COORD97":2540880.3500000001,"ADDRESS":"文衡路３７６之２號","OBJECTID":644290},"geometry":{"x":180912.12000000011,"y":2540880.3499999996}},{"attributes":{"ID":644318,"DIS_CODE":0,"TOWNNAME":"關廟區","LI":"山西里","LIN":"18鄰","STREET":"文衡路","SECT":" ","MAREA":" ","LANE":" ","ALLEY":" ","HOUSE_NO":"３７６號","E_COORD97":180915.70999999999,"N_COORD97":2540872.8500000001,"ADDRESS":"文衡路３７６號","OBJECTID":644291},"geometry":{"x":180915.71000000183,"y":2540872.8500000015}},{"attributes":{"ID":644319,"DIS_CODE":0,"TOWNNAME":"關廟區","LI":"北勢里","LIN":"13鄰","STREET":"仁愛路","SECT":" ","MAREA":" ","LANE":" ","ALLEY":" ","HOUSE_NO":"５８３號","E_COORD97":181888.57999999999,"N_COORD97":2540793.8900000001,"ADDRESS":"仁愛路５８３號","OBJECTID":644292},"geometry":{"x":181888.58000000101,"y":2540793.8900000006}},{"attributes":{"ID":644320,"DIS_CODE":0,"TOWNNAME":"關廟區","LI":"北勢里","LIN":"8鄰","STREET":"北安一街","SECT":" ","MAREA":" ","LANE":" ","ALLEY":" ","HOUSE_NO":"１７９號","E_COORD97":181646.97,"N_COORD97":2540467.52,"ADDRESS":"北安一街１７９號","OBJECTID":644293},"geometry":{"x":181646.96999999974,"y":2540467.5200000014}},{"attributes":{"ID":644321,"DIS_CODE":0,"TOWNNAME":"關廟區","LI":"北勢里","LIN":"8鄰","STREET":"成功路","SECT":" ","MAREA":" ","LANE":" ","ALLEY":" ","HOUSE_NO":"１０２之１號","E_COORD97":181680.06,"N_COORD97":2540436.7400000002,"ADDRESS":"成功路１０２之１號","OBJECTID":644294},"geometry":{"x":181680.05999999959,"y":2540436.7400000021}},{"attributes":{"ID":644322,"DIS_CODE":0,"TOWNNAME":"關廟區","LI":"香洋里","LIN":"8鄰","STREET":"忠孝街","SECT":" ","MAREA":" ","LANE":" ","ALLEY":" ","HOUSE_NO":"４０之１號","E_COORD97":180971.10999999999,"N_COORD97":2540107.1899999999,"ADDRESS":"忠孝街４０之１號","OBJECTID":644295},"geometry":{"x":180971.11000000127,"y":2540107.1900000013}},{"attributes":{"ID":644323,"DIS_CODE":0,"TOWNNAME":"關廟區","LI":"北勢里","LIN":"15鄰","STREET":"北新街","SECT":" ","MAREA":" ","LANE":" ","ALLEY":" ","HOUSE_NO":"１２８號","E_COORD97":181352.23999999999,"N_COORD97":2540558.4900000002,"ADDRESS":"北新街１２８號","OBJECTID":644296},"geometry":{"x":181352.24000000022,"y":2540558.4900000002}},{"attributes":{"ID":644324,"DIS_CODE":0,"TOWNNAME":"關廟區","LI":"田中里","LIN":"1鄰","STREET":"南雄南路","SECT":" ","MAREA":" ","LANE":" ","ALLEY":" ","HOUSE_NO":"５４８號","E_COORD97":183746.19,"N_COORD97":2533877.0699999998,"ADDRESS":"南雄南路５４８號","OBJECTID":644297},"geometry":{"x":183746.19000000134,"y":2533877.0700000022}},{"attributes":{"ID":644325,"DIS_CODE":0,"TOWNNAME":"關廟區","LI":"香洋里","LIN":"4鄰","STREET":"南雄路","SECT":"二段","MAREA":" ","LANE":" ","ALLEY":" ","HOUSE_NO":"１６２號","E_COORD97":181183.51999999999,"N_COORD97":2540414.9100000001,"ADDRESS":"南雄路二段１６２號","OBJECTID":644298},"geometry":{"x":181183.51999999955,"y":2540414.910000002}},{"attributes":{"ID":644326,"DIS_CODE":0,"TOWNNAME":"關廟區","LI":"新埔里","LIN":"4鄰","STREET":"南雄路","SECT":"二段","MAREA":" ","LANE":" ","ALLEY":" ","HOUSE_NO":"４８８號","E_COORD97":181073.26999999999,"N_COORD97":2540787.3500000001,"ADDRESS":"南雄路二段４８８號","OBJECTID":644299},"geometry":{"x":181073.26999999955,"y":2540787.3500000015}},{"attributes":{"ID":644327,"DIS_CODE":0,"TOWNNAME":"關廟區","LI":"深坑里","LIN":"4鄰","STREET":"深坑一街","SECT":" ","MAREA":" ","LANE":" ","ALLEY":" ","HOUSE_NO":"５５號","E_COORD97":182093.35000000001,"N_COORD97":2537601.6699999999,"ADDRESS":"深坑一街５５號","OBJECTID":644300},"geometry":{"x":182093.34999999963,"y":2537601.6700000037}},{"attributes":{"ID":644328,"DIS_CODE":0,"TOWNNAME":"關廟區","LI":"龜洞里","LIN":"4鄰","STREET":"南雄南路","SECT":" ","MAREA":" ","LANE":" ","ALLEY":" ","HOUSE_NO":"８１０號","E_COORD97":183051.95999999999,"N_COORD97":2533311.2799999998,"ADDRESS":"南雄南路８１０號","OBJECTID":644301},"geometry":{"x":183051.96000000089,"y":2533311.2799999975}},{"attributes":{"ID":644329,"DIS_CODE":0,"TOWNNAME":"關廟區","LI":"北花里","LIN":"17鄰","STREET":"中正路","SECT":" ","MAREA":" ","LANE":" ","ALLEY":" ","HOUSE_NO":"５２９號","E_COORD97":182369.01999999999,"N_COORD97":2540483.1200000001,"ADDRESS":"中正路５２９號","OBJECTID":644302},"geometry":{"x":182369.01999999955,"y":2540483.1200000029}},{"attributes":{"ID":644330,"DIS_CODE":0,"TOWNNAME":"關廟區","LI":"龜洞里","LIN":"8鄰","STREET":"官崙街","SECT":" ","MAREA":" ","LANE":" ","ALLEY":" ","HOUSE_NO":"１０２號","E_COORD97":183567.23000000001,"N_COORD97":2533081.9900000002,"ADDRESS":"官崙街１０２號","OBJECTID":644303},"geometry":{"x":183567.23000000231,"y":2533081.9900000021}},{"attributes":{"ID":644331,"DIS_CODE":0,"TOWNNAME":"關廟區","LI":"北勢里","LIN":"8鄰","STREET":"北安一街","SECT":" ","MAREA":" ","LANE":" ","ALLEY":" ","HOUSE_NO":"１７１號","E_COORD97":181690.04999999999,"N_COORD97":2540494.6299999999,"ADDRESS":"北安一街１７１號","OBJECTID":644304},"geometry":{"x":181690.05000000075,"y":2540494.629999999}},{"attributes":{"ID":644332,"DIS_CODE":0,"TOWNNAME":"北區","LI":"公園里","LIN":"21鄰","STREET":"公園路","SECT":" ","MAREA":" ","LANE":" ","ALLEY":" ","HOUSE_NO":"１４２號","E_COORD97":168820.62,"N_COORD97":2544407.5499999998,"ADDRESS":"公園路１４２號","OBJECTID":644305},"geometry":{"x":168820.62000000011,"y":2544407.5499999989}},{"attributes":{"ID":644333,"DIS_CODE":0,"TOWNNAME":"北區","LI":"成德里","LIN":"11鄰","STREET":"和緯路","SECT":"二段","MAREA":" ","LANE":" ","ALLEY":" ","HOUSE_NO":"１５９號","E_COORD97":168705.53,"N_COORD97":2545807.6600000001,"ADDRESS":"和緯路二段１５９號","OBJECTID":644306},"geometry":{"x":168705.53000000119,"y":2545807.660000002}},{"attributes":{"ID":644334,"DIS_CODE":0,"TOWNNAME":"北區","LI":"成德里","LIN":"11鄰","STREET":"和緯路","SECT":"二段","MAREA":" ","LANE":" ","ALLEY":" ","HOUSE_NO":"１６１號","E_COORD97":168701.32000000001,"N_COORD97":2545808.21,"ADDRESS":"和緯路二段１６１號","OBJECTID":644307},"geometry":{"x":168701.32000000216,"y":2545808.2100000028}},{"attributes":{"ID":644335,"DIS_CODE":0,"TOWNNAME":"北區","LI":"成德里","LIN":"11鄰","STREET":"和緯路","SECT":"二段","MAREA":" ","LANE":" ","ALLEY":" ","HOUSE_NO":"１６３號","E_COORD97":168696.92000000001,"N_COORD97":2545808.9399999999,"ADDRESS":"和緯路二段１６３號","OBJECTID":644308},"geometry":{"x":168696.92000000179,"y":2545808.9400000013}},{"attributes":{"ID":644336,"DIS_CODE":0,"TOWNNAME":"北區","LI":"成德里","LIN":"11鄰","STREET":"和緯路","SECT":"二段","MAREA":" ","LANE":" ","ALLEY":" ","HOUSE_NO":"１６５號","E_COORD97":168692.53,"N_COORD97":2545809.8500000001,"ADDRESS":"和緯路二段１６５號","OBJECTID":644309},"geometry":{"x":168692.53000000026,"y":2545809.8500000015}},{"attributes":{"ID":644337,"DIS_CODE":0,"TOWNNAME":"北區","LI":"成德里","LIN":"11鄰","STREET":"和緯路","SECT":"二段","MAREA":" ","LANE":" ","ALLEY":" ","HOUSE_NO":"１６７號","E_COORD97":168688.85999999999,"N_COORD97":2545811.5,"ADDRESS":"和緯路二段１６７號","OBJECTID":644310},"geometry":{"x":168688.86000000034,"y":2545811.5000000019}},{"attributes":{"ID":644338,"DIS_CODE":0,"TOWNNAME":"北區","LI":"成德里","LIN":"11鄰","STREET":"和緯路","SECT":"二段","MAREA":" ","LANE":" ","ALLEY":" ","HOUSE_NO":"１６９號","E_COORD97":168684.47,"N_COORD97":2545812.96,"ADDRESS":"和緯路二段１６９號","OBJECTID":644311},"geometry":{"x":168684.4700000016,"y":2545812.9600000028}},{"attributes":{"ID":644339,"DIS_CODE":0,"TOWNNAME":"北區","LI":"成德里","LIN":"11鄰","STREET":"和緯路","SECT":"二段","MAREA":" ","LANE":" ","ALLEY":" ","HOUSE_NO":"１７１號","E_COORD97":168680.44,"N_COORD97":2545814.0600000001,"ADDRESS":"和緯路二段１７１號","OBJECTID":644312},"geometry":{"x":168680.44000000227,"y":2545814.0600000005}},{"attributes":{"ID":644340,"DIS_CODE":0,"TOWNNAME":"北區","LI":"成德里","LIN":"11鄰","STREET":"和緯路","SECT":"二段","MAREA":" ","LANE":" ","ALLEY":" ","HOUSE_NO":"１７５號","E_COORD97":168671.10000000001,"N_COORD97":2545816.0699999998,"ADDRESS":"和緯路二段１７５號","OBJECTID":644313},"geometry":{"x":168671.09999999963,"y":2545816.0700000003}},{"attributes":{"ID":644341,"DIS_CODE":0,"TOWNNAME":"北區","LI":"公園里","LIN":"17鄰","STREET":"成功路","SECT":" ","MAREA":" ","LANE":" ","ALLEY":" ","HOUSE_NO":"３４號","E_COORD97":168829.82000000001,"N_COORD97":2544279.1000000001,"ADDRESS":"成功路３４號","OBJECTID":644314},"geometry":{"x":168829.8200000003,"y":2544279.1000000015}},{"attributes":{"ID":644342,"DIS_CODE":0,"TOWNNAME":"北區","LI":"公園里","LIN":"17鄰","STREET":"成功路","SECT":" ","MAREA":" ","LANE":" ","ALLEY":" ","HOUSE_NO":"３６號","E_COORD97":168821.07999999999,"N_COORD97":2544280.3300000001,"ADDRESS":"成功路３６號","OBJECTID":644315},"geometry":{"x":168821.08000000007,"y":2544280.3300000019}},{"attributes":{"ID":644343,"DIS_CODE":0,"TOWNNAME":"北區","LI":"公園里","LIN":"14鄰","STREET":"公園南路","SECT":" ","MAREA":" ","LANE":" ","ALLEY":" ","HOUSE_NO":"７７號","E_COORD97":169096.13,"N_COORD97":2544544.9100000001,"ADDRESS":"公園南路７７號","OBJECTID":644316},"geometry":{"x":169096.13000000082,"y":2544544.910000002}},{"attributes":{"ID":644344,"DIS_CODE":0,"TOWNNAME":"北區","LI":"公園里","LIN":"14鄰","STREET":"公園南路","SECT":" ","MAREA":" ","LANE":" ","ALLEY":" ","HOUSE_NO":"７９號","E_COORD97":169091.54999999999,"N_COORD97":2544547.9300000002,"ADDRESS":"公園南路７９號","OBJECTID":644317},"geometry":{"x":169091.55000000075,"y":2544547.9300000016}},{"attributes":{"ID":644345,"DIS_CODE":0,"TOWNNAME":"北區","LI":"公園里","LIN":"14鄰","STREET":"公園南路","SECT":" ","MAREA":" ","LANE":" ","ALLEY":" ","HOUSE_NO":"８１號","E_COORD97":169086.73999999999,"N_COORD97":2544549.4900000002,"ADDRESS":"公園南路８１號","OBJECTID":644318},"geometry":{"x":169086.74000000209,"y":2544549.4900000002}},{"attributes":{"ID":644346,"DIS_CODE":0,"TOWNNAME":"新營區","LI":"民權里","LIN":" ","STREET":"中華路","SECT":" ","MAREA":" ","LANE":" ","ALLEY":" ","HOUSE_NO":"３１號","E_COORD97":179746.57999999999,"N_COORD97":2578208.46,"ADDRESS":"中華路３１號","OBJECTID":644319},"geometry":{"x":179746.58000000007,"y":2578208.4600000028}},{"attributes":{"ID":644347,"DIS_CODE":0,"TOWNNAME":"新營區","LI":"新北里","LIN":"18鄰","STREET":"民生路","SECT":" ","MAREA":" ","LANE":" ","ALLEY":" ","HOUSE_NO":"８０號","E_COORD97":179214.17000000001,"N_COORD97":2578748.1099999999,"ADDRESS":"民生路８０號","OBJECTID":644320},"geometry":{"x":179214.17000000086,"y":2578748.1100000013}},{"attributes":{"ID":644348,"DIS_CODE":0,"TOWNNAME":"新營區","LI":"大宏里","LIN":"26鄰","STREET":"民族路","SECT":" ","MAREA":" ","LANE":" ","ALLEY":" ","HOUSE_NO":"７號","E_COORD97":180291.04999999999,"N_COORD97":2578333.2400000002,"ADDRESS":"民族路７號","OBJECTID":644321},"geometry":{"x":180291.05000000168,"y":2578333.2399999984}},{"attributes":{"ID":644349,"DIS_CODE":0,"TOWNNAME":"新營區","LI":"大宏里","LIN":"25鄰","STREET":"綠川北街","SECT":" ","MAREA":" ","LANE":" ","ALLEY":" ","HOUSE_NO":"７５號","E_COORD97":180477.16,"N_COORD97":2578708.8999999999,"ADDRESS":"綠川北街７５號","OBJECTID":644322},"geometry":{"x":180477.16000000201,"y":2578708.9000000041}},{"attributes":{"ID":644350,"DIS_CODE":0,"TOWNNAME":"新營區","LI":"忠政里","LIN":"24鄰","STREET":"健康路","SECT":" ","MAREA":" ","LANE":" ","ALLEY":" ","HOUSE_NO":"２６６號","E_COORD97":179671.32000000001,"N_COORD97":2579548.8300000001,"ADDRESS":"健康路２６６號","OBJECTID":644323},"geometry":{"x":179671.32000000123,"y":2579548.8300000001}},{"attributes":{"ID":644351,"DIS_CODE":0,"TOWNNAME":"新營區","LI":"忠政里","LIN":"24鄰","STREET":"健康路","SECT":" ","MAREA":" ","LANE":" ","ALLEY":" ","HOUSE_NO":"２０號","E_COORD97":179688.62,"N_COORD97":2578930.7999999998,"ADDRESS":"健康路２０號","OBJECTID":644324},"geometry":{"x":179688.62000000011,"y":2578930.8000000026}},{"attributes":{"ID":644352,"DIS_CODE":0,"TOWNNAME":"新營區","LI":"民權里","LIN":"4鄰","STREET":"中正路","SECT":" ","MAREA":" ","LANE":" ","ALLEY":" ","HOUSE_NO":"７之５號","E_COORD97":180040.20999999999,"N_COORD97":2578402.0299999998,"ADDRESS":"中正路７之５號","OBJECTID":644325},"geometry":{"x":180040.20999999996,"y":2578402.0300000031}},{"attributes":{"ID":644353,"DIS_CODE":0,"TOWNNAME":"新營區","LI":"大宏里","LIN":" ","STREET":"同濟街","SECT":" ","MAREA":" ","LANE":" ","ALLEY":" ","HOUSE_NO":"１３９號","E_COORD97":180439.87,"N_COORD97":2578786.6000000001,"ADDRESS":"同濟街１３９號","OBJECTID":644326},"geometry":{"x":180439.87000000011,"y":2578786.5999999996}},{"attributes":{"ID":644354,"DIS_CODE":0,"TOWNNAME":"新營區","LI":"大宏里","LIN":"25鄰","STREET":"綠川北街","SECT":" ","MAREA":" ","LANE":" ","ALLEY":" ","HOUSE_NO":"７７號","E_COORD97":180468.97,"N_COORD97":2578707.8300000001,"ADDRESS":"綠川北街７７號","OBJECTID":644327},"geometry":{"x":180468.96999999974,"y":2578707.8300000001}},{"attributes":{"ID":644355,"DIS_CODE":0,"TOWNNAME":"新營區","LI":"王公里","LIN":"32鄰","STREET":"大德街","SECT":" ","MAREA":" ","LANE":" ","ALLEY":" ","HOUSE_NO":"３６號","E_COORD97":180269.29000000001,"N_COORD97":2579517.21,"ADDRESS":"大德街３６號","OBJECTID":644328},"geometry":{"x":180269.2900000019,"y":2579517.2100000009}},{"attributes":{"ID":644356,"DIS_CODE":0,"TOWNNAME":"新營區","LI":"大宏里","LIN":"26鄰","STREET":"民族路","SECT":" ","MAREA":" ","LANE":" ","ALLEY":" ","HOUSE_NO":"７號之４","E_COORD97":180291.23000000001,"N_COORD97":2578348.79,"ADDRESS":"民族路７號之４","OBJECTID":644329},"geometry":{"x":180291.23000000138,"y":2578348.7900000028}},{"attributes":{"ID":644357,"DIS_CODE":0,"TOWNNAME":"新營區","LI":"忠政里","LIN":"5鄰","STREET":"安和街","SECT":" ","MAREA":" ","LANE":" ","ALLEY":" ","HOUSE_NO":"４３號","E_COORD97":179946.92000000001,"N_COORD97":2579261.7999999998,"ADDRESS":"安和街４３號","OBJECTID":644330},"geometry":{"x":179946.92000000086,"y":2579261.8000000007}},{"attributes":{"ID":644358,"DIS_CODE":0,"TOWNNAME":"新營區","LI":"民權里","LIN":"18鄰","STREET":"民權路","SECT":" ","MAREA":" ","LANE":" ","ALLEY":" ","HOUSE_NO":"４６號","E_COORD97":179734.14000000001,"N_COORD97":2578175.29,"ADDRESS":"民權路４６號","OBJECTID":644331},"geometry":{"x":179734.14000000153,"y":2578175.2899999991}},{"attributes":{"ID":644359,"DIS_CODE":0,"TOWNNAME":"新營區","LI":"三仙里","LIN":"26鄰","STREET":"育德街","SECT":" ","MAREA":" ","LANE":" ","ALLEY":" ","HOUSE_NO":"４３號","E_COORD97":179594.98000000001,"N_COORD97":2579026.4700000002,"ADDRESS":"育德街４３號","OBJECTID":644332},"geometry":{"x":179594.98000000045,"y":2579026.4700000007}},{"attributes":{"ID":644360,"DIS_CODE":0,"TOWNNAME":"新營區","LI":"大宏里","LIN":"26鄰","STREET":"民族路","SECT":" ","MAREA":" ","LANE":" ","ALLEY":" ","HOUSE_NO":"７號之１９","E_COORD97":180290.87,"N_COORD97":2578427.4399999999,"ADDRESS":"民族路７號之１９","OBJECTID":644333},"geometry":{"x":180290.87000000197,"y":2578427.4400000013}},{"attributes":{"ID":644361,"DIS_CODE":0,"TOWNNAME":"新營區","LI":"王公里","LIN":"32鄰","STREET":"大德街","SECT":" ","MAREA":" ","LANE":" ","ALLEY":" ","HOUSE_NO":"４０號","E_COORD97":180278.48999999999,"N_COORD97":2579517.1600000001,"ADDRESS":"大德街４０號","OBJECTID":644334},"geometry":{"x":180278.49000000115,"y":2579517.1600000039}},{"attributes":{"ID":644362,"DIS_CODE":0,"TOWNNAME":"新營區","LI":"忠政里","LIN":"32鄰","STREET":"府西路","SECT":" ","MAREA":" ","LANE":" ","ALLEY":" ","HOUSE_NO":"２１號","E_COORD97":179813.48000000001,"N_COORD97":2578946.8100000001,"ADDRESS":"府西路２１號","OBJECTID":644335},"geometry":{"x":179813.48000000045,"y":2578946.8099999987}},{"attributes":{"ID":644363,"DIS_CODE":0,"TOWNNAME":"新營區","LI":"延平里","LIN":" ","STREET":"復興路","SECT":" ","MAREA":" ","LANE":" ","ALLEY":" ","HOUSE_NO":"１之１２８號","E_COORD97":179715.17999999999,"N_COORD97":2577935.1299999999,"ADDRESS":"復興路１之１２８號","OBJECTID":644336},"geometry":{"x":179715.1799999997,"y":2577935.129999999}},{"attributes":{"ID":644364,"DIS_CODE":0,"TOWNNAME":"新營區","LI":"新北里","LIN":"5鄰","STREET":"三興街","SECT":" ","MAREA":" ","LANE":" ","ALLEY":" ","HOUSE_NO":"１０９號","E_COORD97":179424.29000000001,"N_COORD97":2579236.6000000001,"ADDRESS":"三興街１０９號","OBJECTID":644337},"geometry":{"x":179424.29000000004,"y":2579236.6000000015}},{"attributes":{"ID":644365,"DIS_CODE":0,"TOWNNAME":"新營區","LI":"忠政里","LIN":"18鄰","STREET":"中正路","SECT":" ","MAREA":" ","LANE":" ","ALLEY":" ","HOUSE_NO":"２２３號之２","E_COORD97":180040.98000000001,"N_COORD97":2579809.6099999999,"ADDRESS":"中正路２２３號之２","OBJECTID":644338},"geometry":{"x":180040.98000000045,"y":2579809.6100000013}},{"attributes":{"ID":644366,"DIS_CODE":0,"TOWNNAME":"新營區","LI":"忠政里","LIN":"25鄰","STREET":"府西路","SECT":" ","MAREA":" ","LANE":" ","ALLEY":" ","HOUSE_NO":"１５５號","E_COORD97":179798.31,"N_COORD97":2579382.1200000001,"ADDRESS":"府西路１５５號","OBJECTID":644339},"geometry":{"x":179798.30999999959,"y":2579382.120000001}},{"attributes":{"ID":644367,"DIS_CODE":0,"TOWNNAME":"新營區","LI":"三仙里","LIN":"25鄰","STREET":"育德一街","SECT":" ","MAREA":" ","LANE":" ","ALLEY":" ","HOUSE_NO":"３２號","E_COORD97":179533.17000000001,"N_COORD97":2578932.6400000001,"ADDRESS":"育德一街３２號","OBJECTID":644340},"geometry":{"x":179533.17000000086,"y":2578932.6400000025}},{"attributes":{"ID":644368,"DIS_CODE":0,"TOWNNAME":"新營區","LI":"忠政里","LIN":" ","STREET":"府西路","SECT":" ","MAREA":" ","LANE":" ","ALLEY":" ","HOUSE_NO":"３１號","E_COORD97":179812.56,"N_COORD97":2578964.54,"ADDRESS":"府西路３１號","OBJECTID":644341},"geometry":{"x":179812.55999999866,"y":2578964.5400000028}},{"attributes":{"ID":644369,"DIS_CODE":0,"TOWNNAME":"新營區","LI":"忠政里","LIN":"32鄰","STREET":"府西路","SECT":" ","MAREA":" ","LANE":" ","ALLEY":" ","HOUSE_NO":"１９之１號","E_COORD97":179816.85000000001,"N_COORD97":2578930.25,"ADDRESS":"府西路１９之１號","OBJECTID":644342},"geometry":{"x":179816.84999999963,"y":2578930.2500000019}},{"attributes":{"ID":644370,"DIS_CODE":0,"TOWNNAME":"新營區","LI":"埤寮里","LIN":" ","STREET":"中正路","SECT":" ","MAREA":" ","LANE":" ","ALLEY":" ","HOUSE_NO":"２８６號","E_COORD97":180086.59,"N_COORD97":2579986.5299999998,"ADDRESS":"中正路２８６號","OBJECTID":644343},"geometry":{"x":180086.58999999985,"y":2579986.5300000012}},{"attributes":{"ID":644371,"DIS_CODE":0,"TOWNNAME":"新營區","LI":"忠政里","LIN":"18鄰","STREET":"中正路","SECT":" ","MAREA":" ","LANE":" ","ALLEY":" ","HOUSE_NO":"２１３號之５","E_COORD97":180012.12,"N_COORD97":2579756.5899999999,"ADDRESS":"中正路２１３號之５","OBJECTID":644344},"geometry":{"x":180012.12000000011,"y":2579756.5899999999}},{"attributes":{"ID":644372,"DIS_CODE":0,"TOWNNAME":"新營區","LI":"忠政里","LIN":"25鄰","STREET":"府西路","SECT":" ","MAREA":" ","LANE":" ","ALLEY":" ","HOUSE_NO":"１５７號","E_COORD97":179797.31,"N_COORD97":2579387.6600000001,"ADDRESS":"府西路１５７號","OBJECTID":644345},"geometry":{"x":179797.30999999866,"y":2579387.6600000001}},{"attributes":{"ID":644373,"DIS_CODE":0,"TOWNNAME":"新營區","LI":"忠政里","LIN":"25鄰","STREET":"府西路","SECT":" ","MAREA":" ","LANE":" ","ALLEY":" ","HOUSE_NO":"１８９之１號","E_COORD97":179800.25,"N_COORD97":2579479.6299999999,"ADDRESS":"府西路１８９之１號","OBJECTID":644346},"geometry":{"x":179800.25000000093,"y":2579479.6300000008}},{"attributes":{"ID":644374,"DIS_CODE":0,"TOWNNAME":"新營區","LI":"三仙里","LIN":"4鄰","STREET":"正義街","SECT":" ","MAREA":" ","LANE":" ","ALLEY":" ","HOUSE_NO":"１３號","E_COORD97":179657.84,"N_COORD97":2578063.7999999998,"ADDRESS":"正義街１３號","OBJECTID":644347},"geometry":{"x":179657.83999999985,"y":2578063.8000000026}},{"attributes":{"ID":644375,"DIS_CODE":0,"TOWNNAME":"新營區","LI":"民權里","LIN":" ","STREET":"民權路","SECT":" ","MAREA":" ","LANE":" ","ALLEY":" ","HOUSE_NO":"５２之２號","E_COORD97":179726.62,"N_COORD97":2578231.8700000001,"ADDRESS":"民權路５２之２號","OBJECTID":644348},"geometry":{"x":179726.62000000104,"y":2578231.8700000048}},{"attributes":{"ID":644376,"DIS_CODE":0,"TOWNNAME":"新營區","LI":"新南里","LIN":" ","STREET":"復興路","SECT":" ","MAREA":" ","LANE":" ","ALLEY":" ","HOUSE_NO":"６７４號","E_COORD97":177886.95000000001,"N_COORD97":2578382.4100000001,"ADDRESS":"復興路６７４號","OBJECTID":644349},"geometry":{"x":177886.95000000112,"y":2578382.4100000001}},{"attributes":{"ID":644377,"DIS_CODE":0,"TOWNNAME":"新營區","LI":"王公里","LIN":"32鄰","STREET":"大德街","SECT":" ","MAREA":" ","LANE":" ","ALLEY":" ","HOUSE_NO":"５８號","E_COORD97":180338.76000000001,"N_COORD97":2579513.5600000001,"ADDRESS":"大德街５８號","OBJECTID":644350},"geometry":{"x":180338.76000000164,"y":2579513.5600000005}},{"attributes":{"ID":644378,"DIS_CODE":0,"TOWNNAME":"新營區","LI":"三仙里","LIN":"13鄰","STREET":"武昌街","SECT":" ","MAREA":" ","LANE":" ","ALLEY":" ","HOUSE_NO":"６５之１號","E_COORD97":179590.89000000001,"N_COORD97":2578300.0600000001,"ADDRESS":"武昌街６５之１號","OBJECTID":644351},"geometry":{"x":179590.8900000006,"y":2578300.0600000005}},{"attributes":{"ID":644379,"DIS_CODE":0,"TOWNNAME":"新營區","LI":"民生里","LIN":" ","STREET":"復興路","SECT":" ","MAREA":" ","LANE":" ","ALLEY":" ","HOUSE_NO":"１１８之１號","E_COORD97":179467.22,"N_COORD97":2578059.2400000002,"ADDRESS":"復興路１１８之１號","OBJECTID":644352},"geometry":{"x":179467.21999999974,"y":2578059.2400000021}},{"attributes":{"ID":644380,"DIS_CODE":0,"TOWNNAME":"新營區","LI":"忠政里","LIN":"25鄰","STREET":"府西路","SECT":" ","MAREA":" ","LANE":" ","ALLEY":" ","HOUSE_NO":"１１３之２號","E_COORD97":179799.26999999999,"N_COORD97":2579272.54,"ADDRESS":"府西路１１３之２號","OBJECTID":644353},"geometry":{"x":179799.27000000142,"y":2579272.5399999972}},{"attributes":{"ID":644381,"DIS_CODE":0,"TOWNNAME":"新營區","LI":"忠政里","LIN":"18鄰","STREET":"中正路","SECT":" ","MAREA":" ","LANE":" ","ALLEY":" ","HOUSE_NO":"２１５號之１","E_COORD97":180068.23999999999,"N_COORD97":2579765.1899999999,"ADDRESS":"中正路２１５號之１","OBJECTID":644354},"geometry":{"x":180068.24000000115,"y":2579765.1900000013}},{"attributes":{"ID":644382,"DIS_CODE":0,"TOWNNAME":"新營區","LI":"王公里","LIN":"26鄰","STREET":"大公街","SECT":" ","MAREA":" ","LANE":" ","ALLEY":" ","HOUSE_NO":"３６號","E_COORD97":180205.5,"N_COORD97":2579652.6099999999,"ADDRESS":"大公街３６號","OBJECTID":644355},"geometry":{"x":180205.50000000093,"y":2579652.6100000031}},{"attributes":{"ID":644383,"DIS_CODE":0,"TOWNNAME":"新營區","LI":"忠政里","LIN":"25鄰","STREET":"府西路","SECT":" ","MAREA":" ","LANE":" ","ALLEY":" ","HOUSE_NO":"１９７號","E_COORD97":179796.92000000001,"N_COORD97":2579520.5499999998,"ADDRESS":"府西路１９７號","OBJECTID":644356},"geometry":{"x":179796.91999999899,"y":2579520.5500000007}},{"attributes":{"ID":644384,"DIS_CODE":0,"TOWNNAME":"新營區","LI":"嘉芳里","LIN":"14鄰","STREET":"新工路","SECT":" ","MAREA":" ","LANE":" ","ALLEY":" ","HOUSE_NO":"２號","E_COORD97":176502.29000000001,"N_COORD97":2578732.52,"ADDRESS":"新工路２號","OBJECTID":644357},"geometry":{"x":176502.29000000004,"y":2578732.5200000014}},{"attributes":{"ID":644385,"DIS_CODE":0,"TOWNNAME":"新營區","LI":"忠政里","LIN":"25鄰","STREET":"府西路","SECT":" ","MAREA":" ","LANE":" ","ALLEY":" ","HOUSE_NO":"１４５號","E_COORD97":179798.17000000001,"N_COORD97":2579353.3300000001,"ADDRESS":"府西路１４５號","OBJECTID":644358},"geometry":{"x":179798.16999999993,"y":2579353.3300000038}},{"attributes":{"ID":644386,"DIS_CODE":0,"TOWNNAME":"新營區","LI":"忠政里","LIN":"25鄰","STREET":"府西路","SECT":" ","MAREA":" ","LANE":" ","ALLEY":" ","HOUSE_NO":"１９２號","E_COORD97":179812.20999999999,"N_COORD97":2579509.4100000001,"ADDRESS":"府西路１９２號","OBJECTID":644359},"geometry":{"x":179812.21000000089,"y":2579509.410000002}},{"attributes":{"ID":644387,"DIS_CODE":0,"TOWNNAME":"新營區","LI":"民權里","LIN":"18鄰","STREET":"民權路","SECT":" ","MAREA":" ","LANE":" ","ALLEY":" ","HOUSE_NO":"５０之１號","E_COORD97":179732.60000000001,"N_COORD97":2578198.6099999999,"ADDRESS":"民權路５０之１號","OBJECTID":644360},"geometry":{"x":179732.59999999963,"y":2578198.6100000013}},{"attributes":{"ID":644388,"DIS_CODE":0,"TOWNNAME":"新營區","LI":"忠政里","LIN":"25鄰","STREET":"府西路","SECT":" ","MAREA":" ","LANE":" ","ALLEY":" ","HOUSE_NO":"１１３之１號","E_COORD97":179799.26999999999,"N_COORD97":2579272.54,"ADDRESS":"府西路１１３之１號","OBJECTID":644361},"geometry":{"x":179799.27000000142,"y":2579272.5399999972}},{"attributes":{"ID":644389,"DIS_CODE":0,"TOWNNAME":"新營區","LI":"三仙里","LIN":"25鄰","STREET":"育德一街","SECT":" ","MAREA":" ","LANE":" ","ALLEY":" ","HOUSE_NO":"３６號","E_COORD97":179514.78,"N_COORD97":2578936.0499999998,"ADDRESS":"育德一街３６號","OBJECTID":644362},"geometry":{"x":179514.78000000026,"y":2578936.0500000026}},{"attributes":{"ID":644390,"DIS_CODE":0,"TOWNNAME":"新營區","LI":"忠政里","LIN":"18鄰","STREET":"中正路","SECT":" ","MAREA":" ","LANE":" ","ALLEY":" ","HOUSE_NO":"２１３號之６","E_COORD97":180000.82000000001,"N_COORD97":2579756.6400000001,"ADDRESS":"中正路２１３號之６","OBJECTID":644363},"geometry":{"x":180000.8200000003,"y":2579756.6400000025}},{"attributes":{"ID":644391,"DIS_CODE":0,"TOWNNAME":"新營區","LI":"民權里","LIN":"20鄰","STREET":"武昌街","SECT":" ","MAREA":" ","LANE":" ","ALLEY":" ","HOUSE_NO":"３３號","E_COORD97":179761.45000000001,"N_COORD97":2578324.6699999999,"ADDRESS":"武昌街３３號","OBJECTID":644364},"geometry":{"x":179761.45000000205,"y":2578324.6700000018}},{"attributes":{"ID":644392,"DIS_CODE":0,"TOWNNAME":"新營區","LI":"王公里","LIN":"32鄰","STREET":"大德街","SECT":" ","MAREA":" ","LANE":" ","ALLEY":" ","HOUSE_NO":"５９號","E_COORD97":180350.06,"N_COORD97":2579523.4700000002,"ADDRESS":"大德街５９號","OBJECTID":644365},"geometry":{"x":180350.06000000145,"y":2579523.4700000025}},{"attributes":{"ID":644393,"DIS_CODE":0,"TOWNNAME":"新營區","LI":"新北里","LIN":"24鄰","STREET":"民生路","SECT":" ","MAREA":" ","LANE":" ","ALLEY":" ","HOUSE_NO":"５９８號","E_COORD97":178728.70000000001,"N_COORD97":2579427.0899999999,"ADDRESS":"民生路５９８號","OBJECTID":644366},"geometry":{"x":178728.70000000019,"y":2579427.0900000017}},{"attributes":{"ID":644394,"DIS_CODE":0,"TOWNNAME":"新營區","LI":"民權里","LIN":" ","STREET":"中華路","SECT":" ","MAREA":" ","LANE":" ","ALLEY":" ","HOUSE_NO":"２５之１號","E_COORD97":179838.10000000001,"N_COORD97":2578219.1600000001,"ADDRESS":"中華路２５之１號","OBJECTID":644367},"geometry":{"x":179838.10000000056,"y":2578219.160000002}},{"attributes":{"ID":644395,"DIS_CODE":0,"TOWNNAME":"新營區","LI":"永生里","LIN":" ","STREET":"康樂街","SECT":" ","MAREA":" ","LANE":" ","ALLEY":" ","HOUSE_NO":"２之５號","E_COORD97":180089.20999999999,"N_COORD97":2577940,"ADDRESS":"康樂街２之５號","OBJECTID":644368},"geometry":{"x":180089.20999999996,"y":2577940}},{"attributes":{"ID":644396,"DIS_CODE":0,"TOWNNAME":"新營區","LI":"大宏里","LIN":" ","STREET":"大同路","SECT":" ","MAREA":" ","LANE":" ","ALLEY":" ","HOUSE_NO":"２７之１２號","E_COORD97":180666.95999999999,"N_COORD97":2578678.1800000002,"ADDRESS":"大同路２７之１２號","OBJECTID":644369},"geometry":{"x":180666.96000000089,"y":2578678.1799999997}},{"attributes":{"ID":644397,"DIS_CODE":0,"TOWNNAME":"新營區","LI":"中營里","LIN":" ","STREET":"工業街","SECT":" ","MAREA":" ","LANE":" ","ALLEY":" ","HOUSE_NO":"５８號","E_COORD97":180657.19,"N_COORD97":2578057.98,"ADDRESS":"工業街５８號","OBJECTID":644370},"geometry":{"x":180657.19000000134,"y":2578057.9800000023}},{"attributes":{"ID":644398,"DIS_CODE":0,"TOWNNAME":"新營區","LI":"民權里","LIN":"20鄰","STREET":"民權路","SECT":" ","MAREA":" ","LANE":" ","ALLEY":" ","HOUSE_NO":"６２號之２","E_COORD97":179715.39999999999,"N_COORD97":2578290.6099999999,"ADDRESS":"民權路６２號之２","OBJECTID":644371},"geometry":{"x":179715.40000000037,"y":2578290.6100000013}},{"attributes":{"ID":644399,"DIS_CODE":0,"TOWNNAME":"新營區","LI":"三仙里","LIN":"25鄰","STREET":"育德一街","SECT":" ","MAREA":" ","LANE":" ","ALLEY":" ","HOUSE_NO":"１８號","E_COORD97":179560.73000000001,"N_COORD97":2578939.1499999999,"ADDRESS":"育德一街１８號","OBJECTID":644372},"geometry":{"x":179560.73000000045,"y":2578939.1500000022}},{"attributes":{"ID":644400,"DIS_CODE":0,"TOWNNAME":"新營區","LI":"民權里","LIN":" ","STREET":"民權路","SECT":" ","MAREA":" ","LANE":" ","ALLEY":" ","HOUSE_NO":"７８之１號","E_COORD97":179700.69,"N_COORD97":2578371.5299999998,"ADDRESS":"民權路７８之１號","OBJECTID":644373},"geometry":{"x":179700.69000000227,"y":2578371.5300000031}},{"attributes":{"ID":644401,"DIS_CODE":0,"TOWNNAME":"新營區","LI":"延平里","LIN":" ","STREET":"復興路","SECT":" ","MAREA":" ","LANE":" ","ALLEY":" ","HOUSE_NO":"１之１４３號","E_COORD97":179715.17999999999,"N_COORD97":2577935.1299999999,"ADDRESS":"復興路１之１４３號","OBJECTID":644374},"geometry":{"x":179715.1799999997,"y":2577935.129999999}},{"attributes":{"ID":644402,"DIS_CODE":0,"TOWNNAME":"新營區","LI":"大宏里","LIN":"18鄰","STREET":"民族路","SECT":" ","MAREA":" ","LANE":" ","ALLEY":" ","HOUSE_NO":"１８號","E_COORD97":180323,"N_COORD97":2578559.0099999998,"ADDRESS":"民族路１８號","OBJECTID":644375},"geometry":{"x":180323,"y":2578559.0100000016}},{"attributes":{"ID":644403,"DIS_CODE":0,"TOWNNAME":"新營區","LI":"民權里","LIN":"20鄰","STREET":"仁愛街","SECT":" ","MAREA":" ","LANE":" ","ALLEY":" ","HOUSE_NO":"３５之１號","E_COORD97":179778,"N_COORD97":2578268.1699999999,"ADDRESS":"仁愛街３５之１號","OBJECTID":644376},"geometry":{"x":179778.00000000186,"y":2578268.1699999999}},{"attributes":{"ID":644404,"DIS_CODE":0,"TOWNNAME":"新營區","LI":"民權里","LIN":"20鄰","STREET":"民權路","SECT":" ","MAREA":" ","LANE":" ","ALLEY":" ","HOUSE_NO":"５４之２號","E_COORD97":179723.62,"N_COORD97":2578247.3900000001,"ADDRESS":"民權路５４之２號","OBJECTID":644377},"geometry":{"x":179723.62000000104,"y":2578247.3900000006}},{"attributes":{"ID":644405,"DIS_CODE":0,"TOWNNAME":"新營區","LI":"民權里","LIN":"13鄰","STREET":"武昌街","SECT":" ","MAREA":" ","LANE":" ","ALLEY":" ","HOUSE_NO":"２２之７號","E_COORD97":179921.64999999999,"N_COORD97":2578366.0499999998,"ADDRESS":"武昌街２２之７號","OBJECTID":644378},"geometry":{"x":179921.6500000013,"y":2578366.0500000045}},{"attributes":{"ID":644406,"DIS_CODE":0,"TOWNNAME":"新營區","LI":"嘉芳里","LIN":"14鄰","STREET":"新工路","SECT":" ","MAREA":" ","LANE":" ","ALLEY":" ","HOUSE_NO":"１０號","E_COORD97":176539.62,"N_COORD97":2578595.0099999998,"ADDRESS":"新工路１０號","OBJECTID":644379},"geometry":{"x":176539.62000000104,"y":2578595.0099999998}},{"attributes":{"ID":644407,"DIS_CODE":0,"TOWNNAME":"新營區","LI":"新北里","LIN":"4鄰","STREET":"三興街","SECT":" ","MAREA":" ","LANE":" ","ALLEY":" ","HOUSE_NO":"８９號之１３","E_COORD97":179380.94,"N_COORD97":2579099.5499999998,"ADDRESS":"三興街８９號之１３","OBJECTID":644380},"geometry":{"x":179380.94000000134,"y":2579099.5500000026}},{"attributes":{"ID":644408,"DIS_CODE":0,"TOWNNAME":"新營區","LI":"民權里","LIN":"4鄰","STREET":"信義街","SECT":" ","MAREA":" ","LANE":" ","ALLEY":" ","HOUSE_NO":"２８號","E_COORD97":179946.42000000001,"N_COORD97":2578292.7799999998,"ADDRESS":"信義街２８號","OBJECTID":644381},"geometry":{"x":179946.42000000086,"y":2578292.7800000012}},{"attributes":{"ID":644409,"DIS_CODE":0,"TOWNNAME":"新營區","LI":"民權里","LIN":"4鄰","STREET":"信義街","SECT":" ","MAREA":" ","LANE":" ","ALLEY":" ","HOUSE_NO":"５２之１號","E_COORD97":179929,"N_COORD97":2578419.1800000002,"ADDRESS":"信義街５２之１號","OBJECTID":644382},"geometry":{"x":179929.00000000093,"y":2578419.1800000016}},{"attributes":{"ID":644410,"DIS_CODE":0,"TOWNNAME":"新營區","LI":"三仙里","LIN":" ","STREET":"民權路","SECT":" ","MAREA":" ","LANE":" ","ALLEY":" ","HOUSE_NO":"７３之５號","E_COORD97":179636.64999999999,"N_COORD97":2578453.79,"ADDRESS":"民權路７３之５號","OBJECTID":644383},"geometry":{"x":179636.65000000224,"y":2578453.7899999972}},{"attributes":{"ID":644411,"DIS_CODE":0,"TOWNNAME":"新營區","LI":"中營里","LIN":" ","STREET":"工業街","SECT":" ","MAREA":" ","LANE":" ","ALLEY":" ","HOUSE_NO":"５８之１號","E_COORD97":180607.10000000001,"N_COORD97":2577968.5699999998,"ADDRESS":"工業街５８之１號","OBJECTID":644384},"geometry":{"x":180607.09999999963,"y":2577968.570000004}},{"attributes":{"ID":644412,"DIS_CODE":0,"TOWNNAME":"新營區","LI":"永生里","LIN":"20鄰","STREET":"康樂街","SECT":" ","MAREA":" ","LANE":" ","ALLEY":" ","HOUSE_NO":"４６號","E_COORD97":179862.54000000001,"N_COORD97":2577859.0600000001,"ADDRESS":"康樂街４６號","OBJECTID":644385},"geometry":{"x":179862.5400000019,"y":2577859.0600000005}},{"attributes":{"ID":644413,"DIS_CODE":0,"TOWNNAME":"新營區","LI":"三仙里","LIN":"25鄰","STREET":"育德一街","SECT":" ","MAREA":" ","LANE":" ","ALLEY":" ","HOUSE_NO":"２４號","E_COORD97":179548.51999999999,"N_COORD97":2578937,"ADDRESS":"育德一街２４號","OBJECTID":644386},"geometry":{"x":179548.52000000142,"y":2578937}},{"attributes":{"ID":644414,"DIS_CODE":0,"TOWNNAME":"新營區","LI":"新北里","LIN":"4鄰","STREET":"三興街","SECT":" ","MAREA":" ","LANE":" ","ALLEY":" ","HOUSE_NO":"８９號之１２","E_COORD97":179385.07999999999,"N_COORD97":2579100.6299999999,"ADDRESS":"三興街８９號之１２","OBJECTID":644387},"geometry":{"x":179385.08000000007,"y":2579100.6300000008}},{"attributes":{"ID":644415,"DIS_CODE":0,"TOWNNAME":"新營區","LI":"永生里","LIN":"20鄰","STREET":"康樂街","SECT":" ","MAREA":" ","LANE":" ","ALLEY":" ","HOUSE_NO":"４８號","E_COORD97":179859.45999999999,"N_COORD97":2577855.75,"ADDRESS":"康樂街４８號","OBJECTID":644388},"geometry":{"x":179859.46000000183,"y":2577855.7500000019}},{"attributes":{"ID":644416,"DIS_CODE":0,"TOWNNAME":"新營區","LI":"新北里","LIN":"4鄰","STREET":"三興街","SECT":" ","MAREA":" ","LANE":" ","ALLEY":" ","HOUSE_NO":"８９號之４","E_COORD97":179416.42000000001,"N_COORD97":2579096.0499999998,"ADDRESS":"三興街８９號之４","OBJECTID":644389},"geometry":{"x":179416.42000000086,"y":2579096.0500000026}},{"attributes":{"ID":644417,"DIS_CODE":0,"TOWNNAME":"新營區","LI":"南興里","LIN":"12鄰","STREET":"建業路","SECT":" ","MAREA":" ","LANE":" ","ALLEY":" ","HOUSE_NO":"９４號之１","E_COORD97":179299.59,"N_COORD97":2577497.4500000002,"ADDRESS":"建業路９４之１號","OBJECTID":644390},"geometry":{"x":179299.59000000078,"y":2577497.4500000011}},{"attributes":{"ID":644418,"DIS_CODE":0,"TOWNNAME":"新營區","LI":"永生里","LIN":"20鄰","STREET":"康樂街","SECT":" ","MAREA":" ","LANE":" ","ALLEY":" ","HOUSE_NO":"４８之１號","E_COORD97":179857.85999999999,"N_COORD97":2577853.6099999999,"ADDRESS":"康樂街４８之１號","OBJECTID":644391},"geometry":{"x":179857.86000000127,"y":2577853.6100000013}},{"attributes":{"ID":644419,"DIS_CODE":0,"TOWNNAME":"新營區","LI":"王公里","LIN":"25鄰","STREET":"中正路","SECT":" ","MAREA":" ","LANE":" ","ALLEY":" ","HOUSE_NO":"１３２之１號","E_COORD97":180099.32999999999,"N_COORD97":2579571.2400000002,"ADDRESS":"中正路１３２之１號","OBJECTID":644392},"geometry":{"x":180099.33000000007,"y":2579571.2400000039}},{"attributes":{"ID":644420,"DIS_CODE":0,"TOWNNAME":"新營區","LI":"王公里","LIN":"25鄰","STREET":"中正路","SECT":" ","MAREA":" ","LANE":" ","ALLEY":" ","HOUSE_NO":"１３０之５號","E_COORD97":180101.23000000001,"N_COORD97":2579539.1099999999,"ADDRESS":"中正路１３０之５號","OBJECTID":644393},"geometry":{"x":180101.23000000138,"y":2579539.1099999994}},{"attributes":{"ID":644421,"DIS_CODE":0,"TOWNNAME":"新營區","LI":"南興里","LIN":"12鄰","STREET":"建業路","SECT":" ","MAREA":" ","LANE":" ","ALLEY":" ","HOUSE_NO":"９４號之３","E_COORD97":179299.59,"N_COORD97":2577497.4500000002,"ADDRESS":"建業路９４之３號","OBJECTID":644394},"geometry":{"x":179299.59000000078,"y":2577497.4500000011}},{"attributes":{"ID":644422,"DIS_CODE":0,"TOWNNAME":"新營區","LI":"南興里","LIN":"32鄰","STREET":"延平路","SECT":" ","MAREA":" ","LANE":" ","ALLEY":" ","HOUSE_NO":"１５８號","E_COORD97":179722.20000000001,"N_COORD97":2577352.5099999998,"ADDRESS":"延平路１５８號","OBJECTID":644395},"geometry":{"x":179722.20000000019,"y":2577352.5100000016}},{"attributes":{"ID":644423,"DIS_CODE":0,"TOWNNAME":"新營區","LI":"新北里","LIN":"4鄰","STREET":"三興街","SECT":" ","MAREA":" ","LANE":" ","ALLEY":" ","HOUSE_NO":"８９號之１８","E_COORD97":179357.45999999999,"N_COORD97":2579099.6600000001,"ADDRESS":"三興街８９號之１８","OBJECTID":644396},"geometry":{"x":179357.45999999996,"y":2579099.6600000001}},{"attributes":{"ID":644424,"DIS_CODE":0,"TOWNNAME":"新營區","LI":"新北里","LIN":"4鄰","STREET":"三興街","SECT":" ","MAREA":" ","LANE":" ","ALLEY":" ","HOUSE_NO":"８９號之１６","E_COORD97":179367.64999999999,"N_COORD97":2579099.6099999999,"ADDRESS":"三興街８９號之１６","OBJECTID":644397},"geometry":{"x":179367.6500000013,"y":2579099.6100000031}},{"attributes":{"ID":644425,"DIS_CODE":0,"TOWNNAME":"新營區","LI":"大宏里","LIN":" ","STREET":"大同路","SECT":" ","MAREA":" ","LANE":" ","ALLEY":" ","HOUSE_NO":"２９之２號","E_COORD97":180703.56,"N_COORD97":2578678,"ADDRESS":"大同路２９之２號","OBJECTID":644398},"geometry":{"x":180703.55999999959,"y":2578678.0000000019}},{"attributes":{"ID":644426,"DIS_CODE":0,"TOWNNAME":"新營區","LI":"永生里","LIN":"20鄰","STREET":"康樂街","SECT":" ","MAREA":" ","LANE":" ","ALLEY":" ","HOUSE_NO":"５２號","E_COORD97":179848.12,"N_COORD97":2577850.27,"ADDRESS":"康樂街５２號","OBJECTID":644399},"geometry":{"x":179848.12000000011,"y":2577850.2699999996}},{"attributes":{"ID":644427,"DIS_CODE":0,"TOWNNAME":"新營區","LI":"南興里","LIN":"12鄰","STREET":"建業路","SECT":" ","MAREA":" ","LANE":" ","ALLEY":" ","HOUSE_NO":"９６號之２","E_COORD97":179284.23000000001,"N_COORD97":2577495.3100000001,"ADDRESS":"建業路９６之２號","OBJECTID":644400},"geometry":{"x":179284.23000000138,"y":2577495.3100000005}}]}