{"displayFieldName":"TOWNNAME","fieldAliases":{"ID":"ID","DIS_CODE":"DIS_CODE","TOWNNAME":"TOWNNAME","LI":"LI","LIN":"LIN","STREET":"STREET","SECT":"SECT","MAREA":"MAREA","LANE":"LANE","ALLEY":"ALLEY","HOUSE_NO":"HOUSE_NO","E_COORD97":"E_COORD97","N_COORD97":"N_COORD97","ADDRESS":"ADDRESS","OBJECTID":"OBJECTID"},"geometryType":"esriGeometryPoint","spatialReference":{"wkid":102443,"latestWkid":3826},"fields":[{"name":"ID","type":"esriFieldTypeDouble","alias":"ID"},{"name":"DIS_CODE","type":"esriFieldTypeInteger","alias":"DIS_CODE"},{"name":"TOWNNAME","type":"esriFieldTypeString","alias":"TOWNNAME","length":8},{"name":"LI","type":"esriFieldTypeString","alias":"LI","length":8},{"name":"LIN","type":"esriFieldTypeString","alias":"LIN","length":12},{"name":"STREET","type":"esriFieldTypeString","alias":"STREET","length":20},{"name":"SECT","type":"esriFieldTypeString","alias":"SECT","length":8},{"name":"MAREA","type":"esriFieldTypeString","alias":"MAREA","length":12},{"name":"LANE","type":"esriFieldTypeString","alias":"LANE","length":10},{"name":"ALLEY","type":"esriFieldTypeString","alias":"ALLEY","length":10},{"name":"HOUSE_NO","type":"esriFieldTypeString","alias":"HOUSE_NO","length":20},{"name":"E_COORD97","type":"esriFieldTypeDouble","alias":"E_COORD97"},{"name":"N_COORD97","type":"esriFieldTypeDouble","alias":"N_COORD97"},{"name":"ADDRESS","type":"esriFieldTypeString","alias":"ADDRESS","length":50},{"name":"OBJECTID","type":"esriFieldTypeOID","alias":"OBJECTID"}],"features":[{"attributes":{"ID":642628,"DIS_CODE":0,"TOWNNAME":"北區","LI":"大仁里","LIN":"4鄰","STREET":"精忠街","SECT":" ","MAREA":" ","LANE":" ","ALLEY":" ","HOUSE_NO":"２６號之２","E_COORD97":169526.10999999999,"N_COORD97":2545479.8399999999,"ADDRESS":"精忠街２６號之２","OBJECTID":642601},"geometry":{"x":169526.11000000034,"y":2545479.8400000036}},{"attributes":{"ID":642629,"DIS_CODE":0,"TOWNNAME":"安平區","LI":"石門里","LIN":"12鄰","STREET":"中興街","SECT":" ","MAREA":" ","LANE":" ","ALLEY":" ","HOUSE_NO":"９號","E_COORD97":164289.54000000001,"N_COORD97":2544666.7999999998,"ADDRESS":"中興街９號","OBJECTID":642602},"geometry":{"x":164289.54000000097,"y":2544666.8000000007}},{"attributes":{"ID":642630,"DIS_CODE":0,"TOWNNAME":"北區","LI":"玉皇里","LIN":"14鄰","STREET":"佑民街","SECT":" ","MAREA":" ","LANE":" ","ALLEY":" ","HOUSE_NO":"３１號","E_COORD97":168578.89000000001,"N_COORD97":2544383.3100000001,"ADDRESS":"佑民街３１號","OBJECTID":642603},"geometry":{"x":168578.8900000006,"y":2544383.3100000024}},{"attributes":{"ID":642631,"DIS_CODE":0,"TOWNNAME":"北區","LI":"玉皇里","LIN":"10鄰","STREET":"崇安街","SECT":" ","MAREA":" ","LANE":" ","ALLEY":" ","HOUSE_NO":"１６號","E_COORD97":168605.78,"N_COORD97":2544504.7799999998,"ADDRESS":"崇安街１６號","OBJECTID":642604},"geometry":{"x":168605.78000000119,"y":2544504.7799999993}},{"attributes":{"ID":642632,"DIS_CODE":0,"TOWNNAME":"北區","LI":"玉皇里","LIN":"10鄰","STREET":"崇安街","SECT":" ","MAREA":" ","LANE":" ","ALLEY":" ","HOUSE_NO":"２２號","E_COORD97":168616.04000000001,"N_COORD97":2544512.8799999999,"ADDRESS":"崇安街２２號","OBJECTID":642605},"geometry":{"x":168616.04000000004,"y":2544512.8800000008}},{"attributes":{"ID":642633,"DIS_CODE":0,"TOWNNAME":"北區","LI":"玉皇里","LIN":"10鄰","STREET":"崇安街","SECT":" ","MAREA":" ","LANE":" ","ALLEY":" ","HOUSE_NO":"２４號","E_COORD97":168619.75,"N_COORD97":2544514.6600000001,"ADDRESS":"崇安街２４號","OBJECTID":642606},"geometry":{"x":168619.75,"y":2544514.6599999983}},{"attributes":{"ID":642634,"DIS_CODE":0,"TOWNNAME":"安平區","LI":"海頭里","LIN":"10鄰","STREET":"中興街","SECT":" ","MAREA":" ","LANE":" ","ALLEY":" ","HOUSE_NO":"５１號","E_COORD97":164073.17000000001,"N_COORD97":2544752.75,"ADDRESS":"中興街５１號","OBJECTID":642607},"geometry":{"x":164073.17000000086,"y":2544752.7500000019}},{"attributes":{"ID":642635,"DIS_CODE":0,"TOWNNAME":"安平區","LI":"海頭里","LIN":"10鄰","STREET":"中興街","SECT":" ","MAREA":" ","LANE":" ","ALLEY":" ","HOUSE_NO":"５３號","E_COORD97":164068.69,"N_COORD97":2544753.5899999999,"ADDRESS":"中興街５３號","OBJECTID":642608},"geometry":{"x":164068.69000000041,"y":2544753.5900000017}},{"attributes":{"ID":642636,"DIS_CODE":0,"TOWNNAME":"安平區","LI":"海頭里","LIN":"11鄰","STREET":"中興街","SECT":" ","MAREA":" ","LANE":" ","ALLEY":" ","HOUSE_NO":"６１號","E_COORD97":164051.32999999999,"N_COORD97":2544764.4300000002,"ADDRESS":"中興街６１號","OBJECTID":642609},"geometry":{"x":164051.33000000101,"y":2544764.4300000016}},{"attributes":{"ID":642637,"DIS_CODE":0,"TOWNNAME":"安平區","LI":"海頭里","LIN":"11鄰","STREET":"中興街","SECT":" ","MAREA":" ","LANE":" ","ALLEY":" ","HOUSE_NO":"６３號","E_COORD97":164046.57000000001,"N_COORD97":2544767.7200000002,"ADDRESS":"中興街６３號","OBJECTID":642610},"geometry":{"x":164046.57000000123,"y":2544767.7200000007}},{"attributes":{"ID":642638,"DIS_CODE":0,"TOWNNAME":"安平區","LI":"海頭里","LIN":"11鄰","STREET":"古堡街","SECT":" ","MAREA":" ","LANE":" ","ALLEY":" ","HOUSE_NO":"４８號","E_COORD97":164043.76999999999,"N_COORD97":2544727.9900000002,"ADDRESS":"古堡街４８號","OBJECTID":642611},"geometry":{"x":164043.76999999955,"y":2544727.9900000021}},{"attributes":{"ID":642639,"DIS_CODE":0,"TOWNNAME":"安平區","LI":"海頭里","LIN":"11鄰","STREET":"古堡街","SECT":" ","MAREA":" ","LANE":" ","ALLEY":" ","HOUSE_NO":"５０號","E_COORD97":164041.85999999999,"N_COORD97":2544733.9300000002,"ADDRESS":"古堡街５０號","OBJECTID":642612},"geometry":{"x":164041.86000000127,"y":2544733.9300000016}},{"attributes":{"ID":642640,"DIS_CODE":0,"TOWNNAME":"安平區","LI":"海頭里","LIN":"11鄰","STREET":"古堡街","SECT":" ","MAREA":" ","LANE":" ","ALLEY":" ","HOUSE_NO":"５４號","E_COORD97":164038.70912799999,"N_COORD97":2544744.2098900001,"ADDRESS":"古堡街５４號","OBJECTID":642613},"geometry":{"x":164038.70912799984,"y":2544744.2098900024}},{"attributes":{"ID":642641,"DIS_CODE":0,"TOWNNAME":"安平區","LI":"海頭里","LIN":"11鄰","STREET":"古堡街","SECT":" ","MAREA":" ","LANE":" ","ALLEY":" ","HOUSE_NO":"５６號","E_COORD97":164038.87,"N_COORD97":2544748.5499999998,"ADDRESS":"古堡街５６號","OBJECTID":642614},"geometry":{"x":164038.87000000011,"y":2544748.5500000007}},{"attributes":{"ID":642642,"DIS_CODE":0,"TOWNNAME":"安平區","LI":"海頭里","LIN":"11鄰","STREET":"古堡街","SECT":" ","MAREA":" ","LANE":" ","ALLEY":" ","HOUSE_NO":"５８號","E_COORD97":164028.38,"N_COORD97":2544771.7000000002,"ADDRESS":"古堡街５８號","OBJECTID":642615},"geometry":{"x":164028.37999999989,"y":2544771.7000000011}},{"attributes":{"ID":642643,"DIS_CODE":0,"TOWNNAME":"安平區","LI":"海頭里","LIN":"11鄰","STREET":"古堡街","SECT":" ","MAREA":" ","LANE":" ","ALLEY":" ","HOUSE_NO":"６０號","E_COORD97":164032.84,"N_COORD97":2544776.04,"ADDRESS":"古堡街６０號","OBJECTID":642616},"geometry":{"x":164032.84000000078,"y":2544776.040000001}},{"attributes":{"ID":642644,"DIS_CODE":0,"TOWNNAME":"安平區","LI":"平安里","LIN":"8鄰","STREET":"安平路","SECT":" ","MAREA":" ","LANE":" ","ALLEY":" ","HOUSE_NO":"４２８號","E_COORD97":165312.51999999999,"N_COORD97":2544327.4700000002,"ADDRESS":"安平路４２８號","OBJECTID":642617},"geometry":{"x":165312.52000000048,"y":2544327.4700000025}},{"attributes":{"ID":642645,"DIS_CODE":0,"TOWNNAME":"安平區","LI":"石門里","LIN":"8鄰","STREET":"安北路","SECT":" ","MAREA":" ","LANE":" ","ALLEY":" ","HOUSE_NO":"９２號","E_COORD97":164467.92000000001,"N_COORD97":2544712.1899999999,"ADDRESS":"安北路９２號","OBJECTID":642618},"geometry":{"x":164467.92000000086,"y":2544712.1900000013}},{"attributes":{"ID":642646,"DIS_CODE":0,"TOWNNAME":"安平區","LI":"海頭里","LIN":"1鄰","STREET":"延平街","SECT":" ","MAREA":" ","LANE":" ","ALLEY":" ","HOUSE_NO":"８６號","E_COORD97":164188.39999999999,"N_COORD97":2544606.3399999999,"ADDRESS":"延平街８６號","OBJECTID":642619},"geometry":{"x":164188.40000000224,"y":2544606.3400000017}},{"attributes":{"ID":642647,"DIS_CODE":0,"TOWNNAME":"安平區","LI":"平安里","LIN":"17鄰","STREET":"安平路","SECT":" ","MAREA":" ","LANE":" ","ALLEY":" ","HOUSE_NO":"５５２號","E_COORD97":164985.92999999999,"N_COORD97":2544368.7200000002,"ADDRESS":"安平路５５２號","OBJECTID":642620},"geometry":{"x":164985.93000000156,"y":2544368.7200000007}},{"attributes":{"ID":642648,"DIS_CODE":0,"TOWNNAME":"安平區","LI":"平安里","LIN":"17鄰","STREET":"安平路","SECT":" ","MAREA":" ","LANE":" ","ALLEY":" ","HOUSE_NO":"５７０號","E_COORD97":164940.39999999999,"N_COORD97":2544376.8700000001,"ADDRESS":"安平路５７０號","OBJECTID":642621},"geometry":{"x":164940.40000000037,"y":2544376.8700000029}},{"attributes":{"ID":642649,"DIS_CODE":0,"TOWNNAME":"安平區","LI":"平安里","LIN":"17鄰","STREET":"安平路","SECT":" ","MAREA":" ","LANE":" ","ALLEY":" ","HOUSE_NO":"５７２號","E_COORD97":164930.59,"N_COORD97":2544378.6000000001,"ADDRESS":"安平路５７２號","OBJECTID":642622},"geometry":{"x":164930.59000000171,"y":2544378.5999999996}},{"attributes":{"ID":642650,"DIS_CODE":0,"TOWNNAME":"安平區","LI":"平安里","LIN":"17鄰","STREET":"安平路","SECT":" ","MAREA":" ","LANE":" ","ALLEY":" ","HOUSE_NO":"５７４號","E_COORD97":164921.82999999999,"N_COORD97":2544381.3599999999,"ADDRESS":"安平路５７４號","OBJECTID":642623},"geometry":{"x":164921.83000000007,"y":2544381.3600000013}},{"attributes":{"ID":642651,"DIS_CODE":0,"TOWNNAME":"安平區","LI":"平安里","LIN":"17鄰","STREET":"安平路","SECT":" ","MAREA":" ","LANE":" ","ALLEY":" ","HOUSE_NO":"５７６號","E_COORD97":164916.51000000001,"N_COORD97":2544381.2200000002,"ADDRESS":"安平路５７６號","OBJECTID":642624},"geometry":{"x":164916.51000000071,"y":2544381.2200000007}},{"attributes":{"ID":642652,"DIS_CODE":0,"TOWNNAME":"安平區","LI":"平安里","LIN":"17鄰","STREET":"安平路","SECT":" ","MAREA":" ","LANE":" ","ALLEY":" ","HOUSE_NO":"５７６號之１","E_COORD97":164926.88,"N_COORD97":2544410.21,"ADDRESS":"安平路５７６號之１","OBJECTID":642625},"geometry":{"x":164926.87999999989,"y":2544410.2100000046}},{"attributes":{"ID":642653,"DIS_CODE":0,"TOWNNAME":"安平區","LI":"育平里","LIN":"28鄰","STREET":"健康三街","SECT":" ","MAREA":" ","LANE":" ","ALLEY":" ","HOUSE_NO":"１９１號","E_COORD97":164749.29000000001,"N_COORD97":2543281.9900000002,"ADDRESS":"健康三街１９１號","OBJECTID":642626},"geometry":{"x":164749.29000000004,"y":2543281.9900000039}},{"attributes":{"ID":642654,"DIS_CODE":0,"TOWNNAME":"安平區","LI":"育平里","LIN":"28鄰","STREET":"健康三街","SECT":" ","MAREA":" ","LANE":" ","ALLEY":" ","HOUSE_NO":"１９３號","E_COORD97":164750.20000000001,"N_COORD97":2543291.77,"ADDRESS":"健康三街１９３號","OBJECTID":642627},"geometry":{"x":164750.20000000019,"y":2543291.7699999996}},{"attributes":{"ID":642655,"DIS_CODE":0,"TOWNNAME":"安平區","LI":"育平里","LIN":"32鄰","STREET":"府平路","SECT":" ","MAREA":" ","LANE":" ","ALLEY":" ","HOUSE_NO":"３６４號","E_COORD97":164676.70000000001,"N_COORD97":2543104.6600000001,"ADDRESS":"府平路３６４號","OBJECTID":642628},"geometry":{"x":164676.70000000112,"y":2543104.6600000039}},{"attributes":{"ID":642656,"DIS_CODE":0,"TOWNNAME":"安平區","LI":"石門里","LIN":"8鄰","STREET":"安北路","SECT":" ","MAREA":" ","LANE":" ","ALLEY":" ","HOUSE_NO":"７２號","E_COORD97":164545.62,"N_COORD97":2544640.5800000001,"ADDRESS":"安北路７２號","OBJECTID":642629},"geometry":{"x":164545.62000000011,"y":2544640.5799999982}},{"attributes":{"ID":642657,"DIS_CODE":0,"TOWNNAME":"安平區","LI":"石門里","LIN":"13鄰","STREET":"\u25A0忠街","SECT":" ","MAREA":" ","LANE":" ","ALLEY":" ","HOUSE_NO":"３０號","E_COORD97":164313.67000000001,"N_COORD97":2544630.6600000001,"ADDRESS":"\u25A0忠街３０號","OBJECTID":642630},"geometry":{"x":164313.67000000086,"y":2544630.660000002}},{"attributes":{"ID":642658,"DIS_CODE":0,"TOWNNAME":"安平區","LI":"石門里","LIN":"12鄰","STREET":"中興街","SECT":" ","MAREA":" ","LANE":" ","ALLEY":" ","HOUSE_NO":"１１號","E_COORD97":164281.72,"N_COORD97":2544667.4500000002,"ADDRESS":"中興街１１號","OBJECTID":642631},"geometry":{"x":164281.71999999974,"y":2544667.4499999993}},{"attributes":{"ID":642659,"DIS_CODE":0,"TOWNNAME":"安平區","LI":"石門里","LIN":"12鄰","STREET":"中興街","SECT":" ","MAREA":" ","LANE":" ","ALLEY":" ","HOUSE_NO":"１３號","E_COORD97":164271.29000000001,"N_COORD97":2544671.04,"ADDRESS":"中興街１３號","OBJECTID":642632},"geometry":{"x":164271.29000000004,"y":2544671.040000001}},{"attributes":{"ID":642660,"DIS_CODE":0,"TOWNNAME":"安平區","LI":"石門里","LIN":"12鄰","STREET":"中興街","SECT":" ","MAREA":" ","LANE":" ","ALLEY":" ","HOUSE_NO":"１５號","E_COORD97":164265.09,"N_COORD97":2544673.6400000001,"ADDRESS":"中興街１５號","OBJECTID":642633},"geometry":{"x":164265.09000000078,"y":2544673.6400000006}},{"attributes":{"ID":642661,"DIS_CODE":0,"TOWNNAME":"安平區","LI":"石門里","LIN":"12鄰","STREET":"中興街","SECT":" ","MAREA":" ","LANE":" ","ALLEY":" ","HOUSE_NO":"１９號","E_COORD97":164254.98000000001,"N_COORD97":2544678.8500000001,"ADDRESS":"中興街１９號","OBJECTID":642634},"geometry":{"x":164254.98000000045,"y":2544678.8499999996}},{"attributes":{"ID":642662,"DIS_CODE":0,"TOWNNAME":"安平區","LI":"石門里","LIN":"12鄰","STREET":"平生路","SECT":" ","MAREA":" ","LANE":" ","ALLEY":" ","HOUSE_NO":"５９號","E_COORD97":164320.51999999999,"N_COORD97":2544628.0600000001,"ADDRESS":"平生路５９號","OBJECTID":642635},"geometry":{"x":164320.52000000142,"y":2544628.0600000042}},{"attributes":{"ID":642663,"DIS_CODE":0,"TOWNNAME":"安平區","LI":"石門里","LIN":"12鄰","STREET":"平生路","SECT":" ","MAREA":" ","LANE":" ","ALLEY":" ","HOUSE_NO":"６１號","E_COORD97":164321.82000000001,"N_COORD97":2544632.9399999999,"ADDRESS":"平生路６１號","OBJECTID":642636},"geometry":{"x":164321.82000000123,"y":2544632.9399999995}},{"attributes":{"ID":642664,"DIS_CODE":0,"TOWNNAME":"安平區","LI":"石門里","LIN":"12鄰","STREET":"平生路","SECT":" ","MAREA":" ","LANE":" ","ALLEY":" ","HOUSE_NO":"６３號","E_COORD97":164323.45000000001,"N_COORD97":2544638.1499999999,"ADDRESS":"平生路６３號","OBJECTID":642637},"geometry":{"x":164323.45000000205,"y":2544638.1500000022}},{"attributes":{"ID":642665,"DIS_CODE":0,"TOWNNAME":"安平區","LI":"石門里","LIN":"12鄰","STREET":"平生路","SECT":" ","MAREA":" ","LANE":" ","ALLEY":" ","HOUSE_NO":"６５號","E_COORD97":164326.39000000001,"N_COORD97":2544642.71,"ADDRESS":"平生路６５號","OBJECTID":642638},"geometry":{"x":164326.38999999966,"y":2544642.7100000009}},{"attributes":{"ID":642666,"DIS_CODE":0,"TOWNNAME":"安平區","LI":"石門里","LIN":"12鄰","STREET":"平生路","SECT":" ","MAREA":" ","LANE":" ","ALLEY":" ","HOUSE_NO":"６７號","E_COORD97":164329.97,"N_COORD97":2544650.52,"ADDRESS":"平生路６７號","OBJECTID":642639},"geometry":{"x":164329.97000000067,"y":2544650.5199999996}},{"attributes":{"ID":642667,"DIS_CODE":0,"TOWNNAME":"安平區","LI":"平安里","LIN":"21鄰","STREET":"民權路","SECT":"四段","MAREA":" ","LANE":" ","ALLEY":" ","HOUSE_NO":"１７１號","E_COORD97":166099.38,"N_COORD97":2544406.3399999999,"ADDRESS":"民權路四段１７１號","OBJECTID":642640},"geometry":{"x":166099.37999999989,"y":2544406.3400000017}},{"attributes":{"ID":642668,"DIS_CODE":0,"TOWNNAME":"安平區","LI":"石門里","LIN":"15鄰","STREET":"民權路","SECT":"四段","MAREA":" ","LANE":" ","ALLEY":" ","HOUSE_NO":"８２７號","E_COORD97":164550.59,"N_COORD97":2544749.6800000002,"ADDRESS":"民權路四段８２７號","OBJECTID":642641},"geometry":{"x":164550.58999999985,"y":2544749.6800000016}},{"attributes":{"ID":642669,"DIS_CODE":0,"TOWNNAME":"安平區","LI":"石門里","LIN":"15鄰","STREET":"民權路","SECT":"四段","MAREA":" ","LANE":" ","ALLEY":" ","HOUSE_NO":"８２９號","E_COORD97":164546.62,"N_COORD97":2544751,"ADDRESS":"民權路四段８２９號","OBJECTID":642642},"geometry":{"x":164546.62000000104,"y":2544751.0000000019}},{"attributes":{"ID":642670,"DIS_CODE":0,"TOWNNAME":"安平區","LI":"石門里","LIN":"15鄰","STREET":"民權路","SECT":"四段","MAREA":" ","LANE":" ","ALLEY":" ","HOUSE_NO":"８３１號","E_COORD97":164540.88,"N_COORD97":2544753.21,"ADDRESS":"民權路四段８３１號","OBJECTID":642643},"geometry":{"x":164540.88000000082,"y":2544753.2100000028}},{"attributes":{"ID":642671,"DIS_CODE":0,"TOWNNAME":"安平區","LI":"石門里","LIN":"15鄰","STREET":"民權路","SECT":"四段","MAREA":" ","LANE":" ","ALLEY":" ","HOUSE_NO":"８３３號","E_COORD97":164536.03,"N_COORD97":2544754.9700000002,"ADDRESS":"民權路四段８３３號","OBJECTID":642644},"geometry":{"x":164536.03000000026,"y":2544754.9700000025}},{"attributes":{"ID":642672,"DIS_CODE":0,"TOWNNAME":"安平區","LI":"石門里","LIN":"15鄰","STREET":"民權路","SECT":"四段","MAREA":" ","LANE":" ","ALLEY":" ","HOUSE_NO":"８３５號","E_COORD97":164531.17999999999,"N_COORD97":2544757.1699999999,"ADDRESS":"民權路四段８３５號","OBJECTID":642645},"geometry":{"x":164531.1799999997,"y":2544757.1699999999}},{"attributes":{"ID":642673,"DIS_CODE":0,"TOWNNAME":"安平區","LI":"石門里","LIN":"15鄰","STREET":"民權路","SECT":"四段","MAREA":" ","LANE":" ","ALLEY":" ","HOUSE_NO":"８３７號","E_COORD97":164527.20999999999,"N_COORD97":2544759.3799999999,"ADDRESS":"民權路四段８３７號","OBJECTID":642646},"geometry":{"x":164527.21000000089,"y":2544759.379999999}},{"attributes":{"ID":642674,"DIS_CODE":0,"TOWNNAME":"安平區","LI":"石門里","LIN":"17鄰","STREET":"\u25A0忠街","SECT":" ","MAREA":" ","LANE":" ","ALLEY":" ","HOUSE_NO":"１２號之７","E_COORD97":164404.01999999999,"N_COORD97":2544628.2599999998,"ADDRESS":"\u25A0忠街１２號之７","OBJECTID":642647},"geometry":{"x":164404.02000000048,"y":2544628.2599999998}},{"attributes":{"ID":642675,"DIS_CODE":0,"TOWNNAME":"安平區","LI":"海頭里","LIN":"1鄰","STREET":"延平街","SECT":" ","MAREA":" ","LANE":" ","ALLEY":" ","HOUSE_NO":"７２號","E_COORD97":164217.91,"N_COORD97":2544596.3999999999,"ADDRESS":"延平街７２號","OBJECTID":642648},"geometry":{"x":164217.91000000015,"y":2544596.4000000022}},{"attributes":{"ID":642676,"DIS_CODE":0,"TOWNNAME":"安平區","LI":"海頭里","LIN":"1鄰","STREET":"延平街","SECT":" ","MAREA":" ","LANE":" ","ALLEY":" ","HOUSE_NO":"７４號","E_COORD97":164213.89999999999,"N_COORD97":2544595.71,"ADDRESS":"延平街７４號","OBJECTID":642649},"geometry":{"x":164213.9000000013,"y":2544595.7100000009}},{"attributes":{"ID":642677,"DIS_CODE":0,"TOWNNAME":"安平區","LI":"海頭里","LIN":"1鄰","STREET":"延平街","SECT":" ","MAREA":" ","LANE":" ","ALLEY":" ","HOUSE_NO":"７６號","E_COORD97":164209.48000000001,"N_COORD97":2544597.2999999998,"ADDRESS":"延平街７６號","OBJECTID":642650},"geometry":{"x":164209.48000000045,"y":2544597.3000000026}},{"attributes":{"ID":642678,"DIS_CODE":0,"TOWNNAME":"安平區","LI":"海頭里","LIN":"1鄰","STREET":"延平街","SECT":" ","MAREA":" ","LANE":" ","ALLEY":" ","HOUSE_NO":"７８號","E_COORD97":164205.32999999999,"N_COORD97":2544598.9500000002,"ADDRESS":"延平街７８號","OBJECTID":642651},"geometry":{"x":164205.32999999914,"y":2544598.9499999993}},{"attributes":{"ID":642679,"DIS_CODE":0,"TOWNNAME":"安平區","LI":"海頭里","LIN":"1鄰","STREET":"延平街","SECT":" ","MAREA":" ","LANE":" ","ALLEY":" ","HOUSE_NO":"７８號之１","E_COORD97":164202.70999999999,"N_COORD97":2544600.1899999999,"ADDRESS":"延平街７８號之１","OBJECTID":642652},"geometry":{"x":164202.71000000183,"y":2544600.1900000013}},{"attributes":{"ID":642680,"DIS_CODE":0,"TOWNNAME":"安平區","LI":"海頭里","LIN":"1鄰","STREET":"延平街","SECT":" ","MAREA":" ","LANE":" ","ALLEY":" ","HOUSE_NO":"１００號","E_COORD97":164160.29000000001,"N_COORD97":2544611.5800000001,"ADDRESS":"延平街１００號","OBJECTID":642653},"geometry":{"x":164160.29000000097,"y":2544611.5800000019}},{"attributes":{"ID":642681,"DIS_CODE":0,"TOWNNAME":"安平區","LI":"海頭里","LIN":"1鄰","STREET":"延平街","SECT":" ","MAREA":" ","LANE":" ","ALLEY":" ","HOUSE_NO":"９２號","E_COORD97":164178.10999999999,"N_COORD97":2544607.5800000001,"ADDRESS":"延平街９２號","OBJECTID":642654},"geometry":{"x":164178.11000000034,"y":2544607.5800000019}},{"attributes":{"ID":642682,"DIS_CODE":0,"TOWNNAME":"安平區","LI":"海頭里","LIN":"4鄰","STREET":"安北路","SECT":" ","MAREA":" ","LANE":" ","ALLEY":" ","HOUSE_NO":"１０５號","E_COORD97":164348.54000000001,"N_COORD97":2544760.3500000001,"ADDRESS":"安北路１０５號","OBJECTID":642655},"geometry":{"x":164348.54000000097,"y":2544760.3499999978}},{"attributes":{"ID":642683,"DIS_CODE":0,"TOWNNAME":"安平區","LI":"海頭里","LIN":"4鄰","STREET":"安北路","SECT":" ","MAREA":" ","LANE":" ","ALLEY":" ","HOUSE_NO":"１０５號之２","E_COORD97":164338.88,"N_COORD97":2544767.8300000001,"ADDRESS":"安北路１０５號之２","OBJECTID":642656},"geometry":{"x":164338.88000000175,"y":2544767.8299999982}},{"attributes":{"ID":642684,"DIS_CODE":0,"TOWNNAME":"安平區","LI":"海頭里","LIN":"4鄰","STREET":"安北路","SECT":" ","MAREA":" ","LANE":" ","ALLEY":" ","HOUSE_NO":"１０５號之３","E_COORD97":164331.39000000001,"N_COORD97":2544768.46,"ADDRESS":"安北路１０５號之３","OBJECTID":642657},"geometry":{"x":164331.38999999966,"y":2544768.4600000028}},{"attributes":{"ID":642685,"DIS_CODE":0,"TOWNNAME":"安平區","LI":"海頭里","LIN":"4鄰","STREET":"安北路","SECT":" ","MAREA":" ","LANE":" ","ALLEY":" ","HOUSE_NO":"１０７號","E_COORD97":164320.60999999999,"N_COORD97":2544771.8199999998,"ADDRESS":"安北路１０７號","OBJECTID":642658},"geometry":{"x":164320.61000000034,"y":2544771.820000004}},{"attributes":{"ID":642686,"DIS_CODE":0,"TOWNNAME":"安平區","LI":"海頭里","LIN":"4鄰","STREET":"安北路","SECT":" ","MAREA":" ","LANE":" ","ALLEY":" ","HOUSE_NO":"１０７號之１","E_COORD97":164318.35999999999,"N_COORD97":2544773.6400000001,"ADDRESS":"安北路１０７號之１","OBJECTID":642659},"geometry":{"x":164318.36000000034,"y":2544773.6400000025}},{"attributes":{"ID":642687,"DIS_CODE":0,"TOWNNAME":"安平區","LI":"海頭里","LIN":"4鄰","STREET":"安北路","SECT":" ","MAREA":" ","LANE":" ","ALLEY":" ","HOUSE_NO":"１０９號","E_COORD97":164309.39999999999,"N_COORD97":2544773.5699999998,"ADDRESS":"安北路１０９號","OBJECTID":642660},"geometry":{"x":164309.4000000013,"y":2544773.570000004}},{"attributes":{"ID":642688,"DIS_CODE":0,"TOWNNAME":"安平區","LI":"海頭里","LIN":"4鄰","STREET":"安北路","SECT":" ","MAREA":" ","LANE":" ","ALLEY":" ","HOUSE_NO":"１１１號","E_COORD97":164296.79999999999,"N_COORD97":2544775.25,"ADDRESS":"安北路１１１號","OBJECTID":642661},"geometry":{"x":164296.79999999888,"y":2544775.2500000037}},{"attributes":{"ID":642689,"DIS_CODE":0,"TOWNNAME":"安平區","LI":"海頭里","LIN":"4鄰","STREET":"安北路","SECT":" ","MAREA":" ","LANE":" ","ALLEY":" ","HOUSE_NO":"１１３號","E_COORD97":164289.45000000001,"N_COORD97":2544777,"ADDRESS":"安北路１１３號","OBJECTID":642662},"geometry":{"x":164289.45000000205,"y":2544777.0000000037}},{"attributes":{"ID":642690,"DIS_CODE":0,"TOWNNAME":"安平區","LI":"海頭里","LIN":"2鄰","STREET":"\u25A0忠街","SECT":" ","MAREA":" ","LANE":" ","ALLEY":" ","HOUSE_NO":"３３號","E_COORD97":164209.93040700001,"N_COORD97":2544645.9054899998,"ADDRESS":"\u25A0忠街３３號","OBJECTID":642663},"geometry":{"x":164209.93040699977,"y":2544645.9054850023}},{"attributes":{"ID":642691,"DIS_CODE":0,"TOWNNAME":"安平區","LI":"海頭里","LIN":"2鄰","STREET":"\u25A0忠街","SECT":" ","MAREA":" ","LANE":" ","ALLEY":" ","HOUSE_NO":"４６號","E_COORD97":164226.48000000001,"N_COORD97":2544663.98,"ADDRESS":"\u25A0忠街４６號","OBJECTID":642664},"geometry":{"x":164226.48000000045,"y":2544663.9800000004}},{"attributes":{"ID":642692,"DIS_CODE":0,"TOWNNAME":"安平區","LI":"海頭里","LIN":"4鄰","STREET":"安北路","SECT":" ","MAREA":" ","LANE":" ","ALLEY":" ","HOUSE_NO":"１１５號","E_COORD97":164275.17000000001,"N_COORD97":2544789.1000000001,"ADDRESS":"安北路１１５號","OBJECTID":642665},"geometry":{"x":164275.16999999993,"y":2544789.0999999996}},{"attributes":{"ID":642693,"DIS_CODE":0,"TOWNNAME":"安平區","LI":"海頭里","LIN":"4鄰","STREET":"安北路","SECT":" ","MAREA":" ","LANE":" ","ALLEY":" ","HOUSE_NO":"１１５號之１","E_COORD97":164255.35000000001,"N_COORD97":2544791.1899999999,"ADDRESS":"安北路１１５號之１","OBJECTID":642666},"geometry":{"x":164255.34999999963,"y":2544791.1899999995}},{"attributes":{"ID":642694,"DIS_CODE":0,"TOWNNAME":"安平區","LI":"海頭里","LIN":"4鄰","STREET":"安北路","SECT":" ","MAREA":" ","LANE":" ","ALLEY":" ","HOUSE_NO":"１１７號","E_COORD97":164248.89999999999,"N_COORD97":2544795.6899999999,"ADDRESS":"安北路１１７號","OBJECTID":642667},"geometry":{"x":164248.90000000037,"y":2544795.6900000013}},{"attributes":{"ID":642695,"DIS_CODE":0,"TOWNNAME":"安平區","LI":"海頭里","LIN":"4鄰","STREET":"安北路","SECT":" ","MAREA":" ","LANE":" ","ALLEY":" ","HOUSE_NO":"１１９號","E_COORD97":164240.35999999999,"N_COORD97":2544801.2200000002,"ADDRESS":"安北路１１９號","OBJECTID":642668},"geometry":{"x":164240.36000000034,"y":2544801.2200000025}},{"attributes":{"ID":642696,"DIS_CODE":0,"TOWNNAME":"安平區","LI":"海頭里","LIN":"4鄰","STREET":"安北路","SECT":" ","MAREA":" ","LANE":" ","ALLEY":" ","HOUSE_NO":"１１９號之１","E_COORD97":164227.54999999999,"N_COORD97":2544811.3599999999,"ADDRESS":"安北路１１９號之１","OBJECTID":642669},"geometry":{"x":164227.55000000075,"y":2544811.3600000031}},{"attributes":{"ID":642697,"DIS_CODE":0,"TOWNNAME":"安平區","LI":"海頭里","LIN":"6鄰","STREET":"平生路","SECT":" ","MAREA":" ","LANE":" ","ALLEY":" ","HOUSE_NO":"６９號","E_COORD97":164331.98000000001,"N_COORD97":2544665.5,"ADDRESS":"平生路６９號","OBJECTID":642670},"geometry":{"x":164331.98000000231,"y":2544665.5000000019}},{"attributes":{"ID":642698,"DIS_CODE":0,"TOWNNAME":"麻豆區","LI":"大埕里","LIN":"4鄰","STREET":"博愛路","SECT":" ","MAREA":" ","LANE":" ","ALLEY":" ","HOUSE_NO":"３號之１","E_COORD97":173290.26999999999,"N_COORD97":2564923.3799999999,"ADDRESS":"博愛路３號之１","OBJECTID":642671},"geometry":{"x":173290.27000000048,"y":2564923.3800000008}},{"attributes":{"ID":642699,"DIS_CODE":0,"TOWNNAME":"麻豆區","LI":"大埕里","LIN":"4鄰","STREET":"博愛路","SECT":" ","MAREA":" ","LANE":" ","ALLEY":" ","HOUSE_NO":"３號之７","E_COORD97":173291.01999999999,"N_COORD97":2564906.1600000001,"ADDRESS":"博愛路３號之７","OBJECTID":642672},"geometry":{"x":173291.01999999955,"y":2564906.160000002}},{"attributes":{"ID":642700,"DIS_CODE":0,"TOWNNAME":"麻豆區","LI":"大埕里","LIN":"4鄰","STREET":"博愛路","SECT":" ","MAREA":" ","LANE":" ","ALLEY":" ","HOUSE_NO":"３號之８","E_COORD97":173291.32999999999,"N_COORD97":2564901.8500000001,"ADDRESS":"博愛路３號之８","OBJECTID":642673},"geometry":{"x":173291.33000000007,"y":2564901.8499999996}},{"attributes":{"ID":642701,"DIS_CODE":0,"TOWNNAME":"麻豆區","LI":"大埕里","LIN":"4鄰","STREET":"博愛路","SECT":" ","MAREA":" ","LANE":" ","ALLEY":" ","HOUSE_NO":"３號之９","E_COORD97":173291.28,"N_COORD97":2564897.6499999999,"ADDRESS":"博愛路３號之９","OBJECTID":642674},"geometry":{"x":173291.28000000119,"y":2564897.6500000004}},{"attributes":{"ID":642702,"DIS_CODE":0,"TOWNNAME":"麻豆區","LI":"大埕里","LIN":"4鄰","STREET":"博愛路","SECT":" ","MAREA":" ","LANE":" ","ALLEY":" ","HOUSE_NO":"３號","E_COORD97":173293.25,"N_COORD97":2564937.23,"ADDRESS":"博愛路３號","OBJECTID":642675},"geometry":{"x":173293.25,"y":2564937.2300000004}},{"attributes":{"ID":642703,"DIS_CODE":0,"TOWNNAME":"麻豆區","LI":"大埕里","LIN":"4鄰","STREET":"博愛路","SECT":" ","MAREA":" ","LANE":" ","ALLEY":" ","HOUSE_NO":"５號之１","E_COORD97":173286.22,"N_COORD97":2564949.3799999999,"ADDRESS":"博愛路５號之１","OBJECTID":642676},"geometry":{"x":173286.21999999974,"y":2564949.3800000027}},{"attributes":{"ID":642704,"DIS_CODE":0,"TOWNNAME":"麻豆區","LI":"大埕里","LIN":"4鄰","STREET":"博愛路","SECT":" ","MAREA":" ","LANE":" ","ALLEY":" ","HOUSE_NO":"５號","E_COORD97":173286.16,"N_COORD97":2564943.48,"ADDRESS":"博愛路５號","OBJECTID":642677},"geometry":{"x":173286.16000000201,"y":2564943.4800000042}},{"attributes":{"ID":642705,"DIS_CODE":0,"TOWNNAME":"麻豆區","LI":"大埕里","LIN":"4鄰","STREET":"博愛路","SECT":" ","MAREA":" ","LANE":" ","ALLEY":" ","HOUSE_NO":"７號","E_COORD97":173296.84,"N_COORD97":2564966.4500000002,"ADDRESS":"博愛路７號","OBJECTID":642678},"geometry":{"x":173296.84000000078,"y":2564966.4500000011}},{"attributes":{"ID":642706,"DIS_CODE":0,"TOWNNAME":"麻豆區","LI":"大埕里","LIN":"4鄰","STREET":"復興街","SECT":" ","MAREA":" ","LANE":" ","ALLEY":" ","HOUSE_NO":"１０號","E_COORD97":173261.48000000001,"N_COORD97":2564900.1200000001,"ADDRESS":"復興街１０號","OBJECTID":642679},"geometry":{"x":173261.48000000045,"y":2564900.1200000029}},{"attributes":{"ID":642707,"DIS_CODE":0,"TOWNNAME":"麻豆區","LI":"保安里","LIN":"7鄰","STREET":"博愛路","SECT":" ","MAREA":" ","LANE":" ","ALLEY":" ","HOUSE_NO":"１８號","E_COORD97":173314.38,"N_COORD97":2564873.6000000001,"ADDRESS":"博愛路１８號","OBJECTID":642680},"geometry":{"x":173314.37999999989,"y":2564873.5999999996}},{"attributes":{"ID":642708,"DIS_CODE":0,"TOWNNAME":"麻豆區","LI":"保安里","LIN":"6鄰","STREET":"博愛路","SECT":" ","MAREA":" ","LANE":" ","ALLEY":" ","HOUSE_NO":"１號之２","E_COORD97":173292.39000000001,"N_COORD97":2564875.2200000002,"ADDRESS":"博愛路１號之２","OBJECTID":642681},"geometry":{"x":173292.38999999873,"y":2564875.2200000025}},{"attributes":{"ID":642709,"DIS_CODE":0,"TOWNNAME":"麻豆區","LI":"大埕里","LIN":"4鄰","STREET":"復興街","SECT":" ","MAREA":" ","LANE":" ","ALLEY":" ","HOUSE_NO":"１４號","E_COORD97":173252.92999999999,"N_COORD97":2564884.2799999998,"ADDRESS":"復興街１４號","OBJECTID":642682},"geometry":{"x":173252.9299999997,"y":2564884.2800000012}},{"attributes":{"ID":642710,"DIS_CODE":0,"TOWNNAME":"麻豆區","LI":"大埕里","LIN":"4鄰","STREET":"復興街","SECT":" ","MAREA":" ","LANE":" ","ALLEY":" ","HOUSE_NO":"１６號之１","E_COORD97":173236.84,"N_COORD97":2564914.5499999998,"ADDRESS":"復興街１６號之１","OBJECTID":642683},"geometry":{"x":173236.83999999985,"y":2564914.5500000007}},{"attributes":{"ID":642711,"DIS_CODE":0,"TOWNNAME":"麻豆區","LI":"大埕里","LIN":"4鄰","STREET":"復興街","SECT":" ","MAREA":" ","LANE":" ","ALLEY":" ","HOUSE_NO":"１６號","E_COORD97":173242.10000000001,"N_COORD97":2564925.3599999999,"ADDRESS":"復興街１６號","OBJECTID":642684},"geometry":{"x":173242.10000000056,"y":2564925.3599999994}},{"attributes":{"ID":642712,"DIS_CODE":0,"TOWNNAME":"麻豆區","LI":"大埕里","LIN":"4鄰","STREET":"復興街","SECT":" ","MAREA":" ","LANE":" ","ALLEY":" ","HOUSE_NO":"１８號之１","E_COORD97":173223.64000000001,"N_COORD97":2564904.8500000001,"ADDRESS":"復興街１８號之１","OBJECTID":642685},"geometry":{"x":173223.6400000006,"y":2564904.8499999996}},{"attributes":{"ID":642713,"DIS_CODE":0,"TOWNNAME":"麻豆區","LI":"大埕里","LIN":"4鄰","STREET":"復興街","SECT":" ","MAREA":" ","LANE":" ","ALLEY":" ","HOUSE_NO":"１８號之２","E_COORD97":173223.17999999999,"N_COORD97":2564909.6299999999,"ADDRESS":"復興街１８號之２","OBJECTID":642686},"geometry":{"x":173223.18000000063,"y":2564909.629999999}},{"attributes":{"ID":642714,"DIS_CODE":0,"TOWNNAME":"麻豆區","LI":"大埕里","LIN":"4鄰","STREET":"復興街","SECT":" ","MAREA":" ","LANE":" ","ALLEY":" ","HOUSE_NO":"１８號","E_COORD97":173225.91,"N_COORD97":2564900.8399999999,"ADDRESS":"復興街１８號","OBJECTID":642687},"geometry":{"x":173225.91000000015,"y":2564900.8400000017}},{"attributes":{"ID":642715,"DIS_CODE":0,"TOWNNAME":"麻豆區","LI":"大埕里","LIN":"4鄰","STREET":"復興街","SECT":" ","MAREA":" ","LANE":" ","ALLEY":" ","HOUSE_NO":"２２號之１","E_COORD97":173224.76000000001,"N_COORD97":2564889.2999999998,"ADDRESS":"復興街２２號之１","OBJECTID":642688},"geometry":{"x":173224.76000000071,"y":2564889.3000000007}},{"attributes":{"ID":642716,"DIS_CODE":0,"TOWNNAME":"麻豆區","LI":"大埕里","LIN":"4鄰","STREET":"復興街","SECT":" ","MAREA":" ","LANE":" ","ALLEY":" ","HOUSE_NO":"２２號之２","E_COORD97":173220.60000000001,"N_COORD97":2564889,"ADDRESS":"復興街２２號之２","OBJECTID":642689},"geometry":{"x":173220.60000000056,"y":2564889.0000000019}},{"attributes":{"ID":642717,"DIS_CODE":0,"TOWNNAME":"麻豆區","LI":"大埕里","LIN":"4鄰","STREET":"復興街","SECT":" ","MAREA":" ","LANE":" ","ALLEY":" ","HOUSE_NO":"２２號","E_COORD97":173228.64000000001,"N_COORD97":2564889.6200000001,"ADDRESS":"復興街２２號","OBJECTID":642690},"geometry":{"x":173228.6400000006,"y":2564889.6200000029}},{"attributes":{"ID":642718,"DIS_CODE":0,"TOWNNAME":"麻豆區","LI":"保安里","LIN":"4鄰","STREET":"復興街","SECT":" ","MAREA":" ","LANE":" ","ALLEY":" ","HOUSE_NO":"２７號","E_COORD97":173152.62,"N_COORD97":2564866.27,"ADDRESS":"復興街２７號","OBJECTID":642691},"geometry":{"x":173152.62000000104,"y":2564866.2700000014}},{"attributes":{"ID":642719,"DIS_CODE":0,"TOWNNAME":"麻豆區","LI":"保安里","LIN":"8鄰","STREET":"復興街","SECT":" ","MAREA":" ","LANE":" ","ALLEY":" ","HOUSE_NO":"１３號","E_COORD97":173233.26999999999,"N_COORD97":2564870.7400000002,"ADDRESS":"復興街１３號","OBJECTID":642692},"geometry":{"x":173233.26999999955,"y":2564870.7400000021}},{"attributes":{"ID":642720,"DIS_CODE":0,"TOWNNAME":"麻豆區","LI":"保安里","LIN":"6鄰","STREET":"復興街","SECT":" ","MAREA":" ","LANE":" ","ALLEY":" ","HOUSE_NO":"１１號之６","E_COORD97":173260.32999999999,"N_COORD97":2564871.8599999999,"ADDRESS":"復興街１１號之６","OBJECTID":642693},"geometry":{"x":173260.33000000007,"y":2564871.8599999975}},{"attributes":{"ID":642721,"DIS_CODE":0,"TOWNNAME":"麻豆區","LI":"保安里","LIN":"6鄰","STREET":"復興街","SECT":" ","MAREA":" ","LANE":" ","ALLEY":" ","HOUSE_NO":"１１號","E_COORD97":173253.60000000001,"N_COORD97":2564871.6099999999,"ADDRESS":"復興街１１號","OBJECTID":642694},"geometry":{"x":173253.5999999987,"y":2564871.6100000013}},{"attributes":{"ID":642722,"DIS_CODE":0,"TOWNNAME":"麻豆區","LI":"大埕里","LIN":"3鄰","STREET":"復興街","SECT":" ","MAREA":" ","LANE":" ","ALLEY":" ","HOUSE_NO":"２４號之１０","E_COORD97":173143.48000000001,"N_COORD97":2564907.1800000002,"ADDRESS":"復興街２４號之１０","OBJECTID":642695},"geometry":{"x":173143.48000000231,"y":2564907.1799999978}},{"attributes":{"ID":642723,"DIS_CODE":0,"TOWNNAME":"麻豆區","LI":"大埕里","LIN":"3鄰","STREET":"復興街","SECT":" ","MAREA":" ","LANE":" ","ALLEY":" ","HOUSE_NO":"２４號之５","E_COORD97":173163.79999999999,"N_COORD97":2564907.21,"ADDRESS":"復興街２４號之５","OBJECTID":642696},"geometry":{"x":173163.79999999981,"y":2564907.2100000009}},{"attributes":{"ID":642724,"DIS_CODE":0,"TOWNNAME":"麻豆區","LI":"大埕里","LIN":"3鄰","STREET":"復興街","SECT":" ","MAREA":" ","LANE":" ","ALLEY":" ","HOUSE_NO":"２４號之６","E_COORD97":173159.57999999999,"N_COORD97":2564907.1800000002,"ADDRESS":"復興街２４號之６","OBJECTID":642697},"geometry":{"x":173159.58000000101,"y":2564907.1799999978}},{"attributes":{"ID":642725,"DIS_CODE":0,"TOWNNAME":"麻豆區","LI":"大埕里","LIN":"3鄰","STREET":"復興街","SECT":" ","MAREA":" ","LANE":" ","ALLEY":" ","HOUSE_NO":"２４號之７","E_COORD97":173155.35000000001,"N_COORD97":2564907.1400000001,"ADDRESS":"復興街２４號之７","OBJECTID":642698},"geometry":{"x":173155.35000000149,"y":2564907.1400000006}},{"attributes":{"ID":642726,"DIS_CODE":0,"TOWNNAME":"麻豆區","LI":"大埕里","LIN":"3鄰","STREET":"復興街","SECT":" ","MAREA":" ","LANE":" ","ALLEY":" ","HOUSE_NO":"２４號之８","E_COORD97":173151.13,"N_COORD97":2564907.1000000001,"ADDRESS":"復興街２４號之８","OBJECTID":642699},"geometry":{"x":173151.13000000082,"y":2564907.0999999996}},{"attributes":{"ID":642727,"DIS_CODE":0,"TOWNNAME":"麻豆區","LI":"大埕里","LIN":"3鄰","STREET":"復興街","SECT":" ","MAREA":" ","LANE":" ","ALLEY":" ","HOUSE_NO":"２４號之９","E_COORD97":173146.89999999999,"N_COORD97":2564907.0699999998,"ADDRESS":"復興街２４號之９","OBJECTID":642700},"geometry":{"x":173146.90000000037,"y":2564907.0700000022}},{"attributes":{"ID":642728,"DIS_CODE":0,"TOWNNAME":"麻豆區","LI":"大埕里","LIN":"3鄰","STREET":"復興街","SECT":" ","MAREA":" ","LANE":" ","ALLEY":" ","HOUSE_NO":"２４號","E_COORD97":173173.84,"N_COORD97":2564904.71,"ADDRESS":"復興街２４號","OBJECTID":642701},"geometry":{"x":173173.83999999985,"y":2564904.7100000009}},{"attributes":{"ID":642729,"DIS_CODE":0,"TOWNNAME":"麻豆區","LI":"大埕里","LIN":"3鄰","STREET":"復興街","SECT":" ","MAREA":" ","LANE":" ","ALLEY":" ","HOUSE_NO":"２６號","E_COORD97":173166.10999999999,"N_COORD97":2564878.25,"ADDRESS":"復興街２６號","OBJECTID":642702},"geometry":{"x":173166.11000000034,"y":2564878.2500000019}},{"attributes":{"ID":642730,"DIS_CODE":0,"TOWNNAME":"麻豆區","LI":"大埕里","LIN":"3鄰","STREET":"復興街","SECT":" ","MAREA":" ","LANE":" ","ALLEY":" ","HOUSE_NO":"２８號","E_COORD97":173152.92000000001,"N_COORD97":2564879.46,"ADDRESS":"復興街２８號","OBJECTID":642703},"geometry":{"x":173152.91999999993,"y":2564879.459999999}},{"attributes":{"ID":642731,"DIS_CODE":0,"TOWNNAME":"麻豆區","LI":"保安里","LIN":"3鄰","STREET":"復興街","SECT":" ","MAREA":" ","LANE":" ","ALLEY":" ","HOUSE_NO":"２９號之１","E_COORD97":173143.5,"N_COORD97":2564869.2400000002,"ADDRESS":"復興街２９號之１","OBJECTID":642704},"geometry":{"x":173143.50000000093,"y":2564869.2400000002}},{"attributes":{"ID":642732,"DIS_CODE":0,"TOWNNAME":"麻豆區","LI":"保安里","LIN":"3鄰","STREET":"復興街","SECT":" ","MAREA":" ","LANE":" ","ALLEY":" ","HOUSE_NO":"２９號","E_COORD97":173148.66,"N_COORD97":2564867.8100000001,"ADDRESS":"復興街２９號","OBJECTID":642705},"geometry":{"x":173148.65999999922,"y":2564867.8100000024}},{"attributes":{"ID":642733,"DIS_CODE":0,"TOWNNAME":"麻豆區","LI":"大埕里","LIN":"4鄰","STREET":"復興街","SECT":" ","MAREA":" ","LANE":" ","ALLEY":" ","HOUSE_NO":"４號之１","E_COORD97":173274.17999999999,"N_COORD97":2564889.2799999998,"ADDRESS":"復興街４號之１","OBJECTID":642706},"geometry":{"x":173274.18000000063,"y":2564889.2799999975}},{"attributes":{"ID":642734,"DIS_CODE":0,"TOWNNAME":"麻豆區","LI":"保安里","LIN":"8鄰","STREET":"復興街","SECT":" ","MAREA":" ","LANE":" ","ALLEY":" ","HOUSE_NO":"３號之１","E_COORD97":173407.10000000001,"N_COORD97":2564921.2999999998,"ADDRESS":"復興街３號之１","OBJECTID":642707},"geometry":{"x":173407.10000000056,"y":2564921.3000000045}},{"attributes":{"ID":642735,"DIS_CODE":0,"TOWNNAME":"麻豆區","LI":"保安里","LIN":"8鄰","STREET":"復興街","SECT":" ","MAREA":" ","LANE":" ","ALLEY":" ","HOUSE_NO":"３號之２","E_COORD97":173404.07000000001,"N_COORD97":2564918.6800000002,"ADDRESS":"復興街３號之２","OBJECTID":642708},"geometry":{"x":173404.07000000123,"y":2564918.6800000016}},{"attributes":{"ID":642736,"DIS_CODE":0,"TOWNNAME":"麻豆區","LI":"保安里","LIN":"8鄰","STREET":"復興街","SECT":" ","MAREA":" ","LANE":" ","ALLEY":" ","HOUSE_NO":"３號之３","E_COORD97":173401.04000000001,"N_COORD97":2564916.0600000001,"ADDRESS":"復興街３號之３","OBJECTID":642709},"geometry":{"x":173401.04000000097,"y":2564916.0600000042}},{"attributes":{"ID":642737,"DIS_CODE":0,"TOWNNAME":"麻豆區","LI":"保安里","LIN":"8鄰","STREET":"復興街","SECT":" ","MAREA":" ","LANE":" ","ALLEY":" ","HOUSE_NO":"３號之４","E_COORD97":173398.01000000001,"N_COORD97":2564913.4500000002,"ADDRESS":"復興街３號之４","OBJECTID":642710},"geometry":{"x":173398.00999999978,"y":2564913.4500000011}},{"attributes":{"ID":642738,"DIS_CODE":0,"TOWNNAME":"麻豆區","LI":"保安里","LIN":"8鄰","STREET":"復興街","SECT":" ","MAREA":" ","LANE":" ","ALLEY":" ","HOUSE_NO":"３號之５","E_COORD97":173394.98999999999,"N_COORD97":2564910.8300000001,"ADDRESS":"復興街３號之５","OBJECTID":642711},"geometry":{"x":173394.99000000022,"y":2564910.8300000019}},{"attributes":{"ID":642739,"DIS_CODE":0,"TOWNNAME":"麻豆區","LI":"保安里","LIN":"8鄰","STREET":"復興街","SECT":" ","MAREA":" ","LANE":" ","ALLEY":" ","HOUSE_NO":"３號之６","E_COORD97":173391.95999999999,"N_COORD97":2564908.21,"ADDRESS":"復興街３號之６","OBJECTID":642712},"geometry":{"x":173391.95999999996,"y":2564908.2100000009}},{"attributes":{"ID":642740,"DIS_CODE":0,"TOWNNAME":"麻豆區","LI":"保安里","LIN":"8鄰","STREET":"復興街","SECT":" ","MAREA":" ","LANE":" ","ALLEY":" ","HOUSE_NO":"７號之１","E_COORD97":173356.94,"N_COORD97":2564901.0099999998,"ADDRESS":"復興街７號之１","OBJECTID":642713},"geometry":{"x":173356.94000000041,"y":2564901.0099999998}},{"attributes":{"ID":642741,"DIS_CODE":0,"TOWNNAME":"麻豆區","LI":"油車里","LIN":"19鄰","STREET":"新生北路","SECT":" ","MAREA":" ","LANE":" ","ALLEY":" ","HOUSE_NO":"１００號","E_COORD97":172322.01000000001,"N_COORD97":2565198.3500000001,"ADDRESS":"新生北路１００號","OBJECTID":642714},"geometry":{"x":172322.00999999885,"y":2565198.3500000015}},{"attributes":{"ID":642742,"DIS_CODE":0,"TOWNNAME":"麻豆區","LI":"油車里","LIN":"19鄰","STREET":"新生北路","SECT":" ","MAREA":" ","LANE":" ","ALLEY":" ","HOUSE_NO":"１０８號","E_COORD97":172325.12,"N_COORD97":2565218.79,"ADDRESS":"新生北路１０８號","OBJECTID":642715},"geometry":{"x":172325.12000000197,"y":2565218.790000001}},{"attributes":{"ID":642743,"DIS_CODE":0,"TOWNNAME":"麻豆區","LI":"油車里","LIN":"19鄰","STREET":"新生北路","SECT":" ","MAREA":" ","LANE":" ","ALLEY":" ","HOUSE_NO":"１２６號","E_COORD97":172314.45000000001,"N_COORD97":2565263.8599999999,"ADDRESS":"新生北路１２６號","OBJECTID":642716},"geometry":{"x":172314.45000000205,"y":2565263.8599999994}},{"attributes":{"ID":642744,"DIS_CODE":0,"TOWNNAME":"麻豆區","LI":"油車里","LIN":"19鄰","STREET":"新生北路","SECT":" ","MAREA":" ","LANE":" ","ALLEY":" ","HOUSE_NO":"１３２號","E_COORD97":172317.39999999999,"N_COORD97":2565280.7400000002,"ADDRESS":"新生北路１３２號","OBJECTID":642717},"geometry":{"x":172317.4000000013,"y":2565280.7400000039}},{"attributes":{"ID":642745,"DIS_CODE":0,"TOWNNAME":"麻豆區","LI":"油車里","LIN":"17鄰","STREET":"新生北路","SECT":" ","MAREA":" ","LANE":" ","ALLEY":" ","HOUSE_NO":"１６４號","E_COORD97":172327.04999999999,"N_COORD97":2565354.8100000001,"ADDRESS":"新生北路１６４號","OBJECTID":642718},"geometry":{"x":172327.05000000168,"y":2565354.8099999987}},{"attributes":{"ID":642746,"DIS_CODE":0,"TOWNNAME":"麻豆區","LI":"油車里","LIN":"17鄰","STREET":"新生北路","SECT":" ","MAREA":" ","LANE":" ","ALLEY":" ","HOUSE_NO":"１６６號","E_COORD97":172309.64999999999,"N_COORD97":2565365.6499999999,"ADDRESS":"新生北路１６６號","OBJECTID":642719},"geometry":{"x":172309.65000000037,"y":2565365.6500000004}},{"attributes":{"ID":642747,"DIS_CODE":0,"TOWNNAME":"麻豆區","LI":"油車里","LIN":"17鄰","STREET":"新生北路","SECT":" ","MAREA":" ","LANE":" ","ALLEY":" ","HOUSE_NO":"１６８號","E_COORD97":172309.23000000001,"N_COORD97":2565369.7400000002,"ADDRESS":"新生北路１６８號","OBJECTID":642720},"geometry":{"x":172309.23000000045,"y":2565369.7400000021}},{"attributes":{"ID":642748,"DIS_CODE":0,"TOWNNAME":"麻豆區","LI":"油車里","LIN":"17鄰","STREET":"新生北路","SECT":" ","MAREA":" ","LANE":" ","ALLEY":" ","HOUSE_NO":"１７０號","E_COORD97":172308.88,"N_COORD97":2565373.48,"ADDRESS":"新生北路１７０號","OBJECTID":642721},"geometry":{"x":172308.87999999989,"y":2565373.4800000004}},{"attributes":{"ID":642749,"DIS_CODE":0,"TOWNNAME":"麻豆區","LI":"新建里","LIN":"7鄰","STREET":"新生南路","SECT":" ","MAREA":" ","LANE":" ","ALLEY":" ","HOUSE_NO":"１７號","E_COORD97":172332.85999999999,"N_COORD97":2564875.3399999999,"ADDRESS":"新生南路１７號","OBJECTID":642722},"geometry":{"x":172332.86000000127,"y":2564875.3399999999}},{"attributes":{"ID":642750,"DIS_CODE":0,"TOWNNAME":"麻豆區","LI":"新建里","LIN":"7鄰","STREET":"新生南路","SECT":" ","MAREA":" ","LANE":" ","ALLEY":" ","HOUSE_NO":"１９號","E_COORD97":172333.60000000001,"N_COORD97":2564870.8199999998,"ADDRESS":"新生南路１９號","OBJECTID":642723},"geometry":{"x":172333.60000000056,"y":2564870.8200000022}},{"attributes":{"ID":642751,"DIS_CODE":0,"TOWNNAME":"麻豆區","LI":"新建里","LIN":"7鄰","STREET":"新生南路","SECT":" ","MAREA":" ","LANE":" ","ALLEY":" ","HOUSE_NO":"１號","E_COORD97":172336.10999999999,"N_COORD97":2564922.5299999998,"ADDRESS":"新生南路１號","OBJECTID":642724},"geometry":{"x":172336.11000000127,"y":2564922.5300000012}},{"attributes":{"ID":642752,"DIS_CODE":0,"TOWNNAME":"麻豆區","LI":"新建里","LIN":"7鄰","STREET":"新生南路","SECT":" ","MAREA":" ","LANE":" ","ALLEY":" ","HOUSE_NO":"２１號","E_COORD97":172334.76000000001,"N_COORD97":2564864.1099999999,"ADDRESS":"新生南路２１號","OBJECTID":642725},"geometry":{"x":172334.76000000071,"y":2564864.1100000013}},{"attributes":{"ID":642753,"DIS_CODE":0,"TOWNNAME":"麻豆區","LI":"興農里","LIN":"7鄰","STREET":"新生南路","SECT":" ","MAREA":" ","LANE":" ","ALLEY":" ","HOUSE_NO":"２２２號之１","E_COORD97":172315.22,"N_COORD97":2564407.52,"ADDRESS":"新生南路２２２號之１","OBJECTID":642726},"geometry":{"x":172315.21999999974,"y":2564407.5200000014}},{"attributes":{"ID":642754,"DIS_CODE":0,"TOWNNAME":"麻豆區","LI":"興農里","LIN":"4鄰","STREET":"新生南路","SECT":" ","MAREA":" ","LANE":" ","ALLEY":" ","HOUSE_NO":"３６１號","E_COORD97":172444.66,"N_COORD97":2564047.3500000001,"ADDRESS":"新生南路３６１號","OBJECTID":642727},"geometry":{"x":172444.66000000015,"y":2564047.3499999996}},{"attributes":{"ID":642755,"DIS_CODE":0,"TOWNNAME":"麻豆區","LI":"興農里","LIN":"4鄰","STREET":"新生南路","SECT":" ","MAREA":" ","LANE":" ","ALLEY":" ","HOUSE_NO":"３６３號","E_COORD97":172449.70000000001,"N_COORD97":2564047.77,"ADDRESS":"新生南路３６３號","OBJECTID":642728},"geometry":{"x":172449.70000000019,"y":2564047.7699999996}},{"attributes":{"ID":642756,"DIS_CODE":0,"TOWNNAME":"麻豆區","LI":"興農里","LIN":"4鄰","STREET":"新生南路","SECT":" ","MAREA":" ","LANE":" ","ALLEY":" ","HOUSE_NO":"３６５號","E_COORD97":172454.51000000001,"N_COORD97":2564047.6899999999,"ADDRESS":"新生南路３６５號","OBJECTID":642729},"geometry":{"x":172454.51000000071,"y":2564047.6899999995}},{"attributes":{"ID":642757,"DIS_CODE":0,"TOWNNAME":"麻豆區","LI":"興農里","LIN":"4鄰","STREET":"新生南路","SECT":" ","MAREA":" ","LANE":" ","ALLEY":" ","HOUSE_NO":"３６７號","E_COORD97":172459.23999999999,"N_COORD97":2564047.5800000001,"ADDRESS":"新生南路３６７號","OBJECTID":642730},"geometry":{"x":172459.24000000022,"y":2564047.5800000038}},{"attributes":{"ID":642758,"DIS_CODE":0,"TOWNNAME":"麻豆區","LI":"興農里","LIN":"7鄰","STREET":"新生南路","SECT":" ","MAREA":" ","LANE":" ","ALLEY":" ","HOUSE_NO":"２９６號","E_COORD97":172326.29000000001,"N_COORD97":2564265.9199999999,"ADDRESS":"新生南路２９６號","OBJECTID":642731},"geometry":{"x":172326.29000000097,"y":2564265.9200000018}},{"attributes":{"ID":642759,"DIS_CODE":0,"TOWNNAME":"麻豆區","LI":"新建里","LIN":"7鄰","STREET":"新生南路","SECT":" ","MAREA":" ","LANE":" ","ALLEY":" ","HOUSE_NO":"２９號","E_COORD97":172328.67000000001,"N_COORD97":2564851.7000000002,"ADDRESS":"新生南路２９號","OBJECTID":642732},"geometry":{"x":172328.67000000086,"y":2564851.6999999993}},{"attributes":{"ID":642760,"DIS_CODE":0,"TOWNNAME":"麻豆區","LI":"興農里","LIN":"4鄰","STREET":"新生南路","SECT":" ","MAREA":" ","LANE":" ","ALLEY":" ","HOUSE_NO":"３６９號","E_COORD97":172463.82999999999,"N_COORD97":2564048.04,"ADDRESS":"新生南路３６９號","OBJECTID":642733},"geometry":{"x":172463.83000000007,"y":2564048.040000001}},{"attributes":{"ID":642761,"DIS_CODE":0,"TOWNNAME":"麻豆區","LI":"興農里","LIN":"4鄰","STREET":"新生南路","SECT":" ","MAREA":" ","LANE":" ","ALLEY":" ","HOUSE_NO":"３７１號","E_COORD97":172467.67000000001,"N_COORD97":2564048.0699999998,"ADDRESS":"新生南路３７１號","OBJECTID":642734},"geometry":{"x":172467.67000000086,"y":2564048.0700000022}},{"attributes":{"ID":642762,"DIS_CODE":0,"TOWNNAME":"麻豆區","LI":"興農里","LIN":"4鄰","STREET":"新生南路","SECT":" ","MAREA":" ","LANE":" ","ALLEY":" ","HOUSE_NO":"３９８號","E_COORD97":172398.72,"N_COORD97":2563992.1600000001,"ADDRESS":"新生南路３９８號","OBJECTID":642735},"geometry":{"x":172398.7200000016,"y":2563992.1600000001}},{"attributes":{"ID":642763,"DIS_CODE":0,"TOWNNAME":"麻豆區","LI":"興農里","LIN":"4鄰","STREET":"新生南路","SECT":" ","MAREA":" ","LANE":" ","ALLEY":" ","HOUSE_NO":"４３２號之２","E_COORD97":172467.92000000001,"N_COORD97":2564000.21,"ADDRESS":"新生南路４３２號之２","OBJECTID":642736},"geometry":{"x":172467.91999999993,"y":2564000.2100000028}},{"attributes":{"ID":642764,"DIS_CODE":0,"TOWNNAME":"麻豆區","LI":"興農里","LIN":"4鄰","STREET":"新生南路","SECT":" ","MAREA":" ","LANE":" ","ALLEY":" ","HOUSE_NO":"４３２號","E_COORD97":172416.17999999999,"N_COORD97":2563956.9900000002,"ADDRESS":"新生南路４３２號","OBJECTID":642737},"geometry":{"x":172416.18000000063,"y":2563956.9900000021}},{"attributes":{"ID":642765,"DIS_CODE":0,"TOWNNAME":"麻豆區","LI":"興農里","LIN":"4鄰","STREET":"新生南路","SECT":" ","MAREA":" ","LANE":" ","ALLEY":" ","HOUSE_NO":"５３２號","E_COORD97":172603.44,"N_COORD97":2564004.7000000002,"ADDRESS":"新生南路５３２號","OBJECTID":642738},"geometry":{"x":172603.44000000134,"y":2564004.6999999993}},{"attributes":{"ID":642766,"DIS_CODE":0,"TOWNNAME":"歸仁區","LI":"南保里","LIN":"50鄰","STREET":"民生南街","SECT":"一段","MAREA":" ","LANE":" ","ALLEY":" ","HOUSE_NO":"９１號","E_COORD97":176295.98999999999,"N_COORD97":2540595.29,"ADDRESS":"民生南街一段９１號","OBJECTID":642739},"geometry":{"x":176295.99000000022,"y":2540595.290000001}},{"attributes":{"ID":642767,"DIS_CODE":0,"TOWNNAME":"歸仁區","LI":"後市里","LIN":"20鄰","STREET":"民族北街","SECT":" ","MAREA":" ","LANE":" ","ALLEY":" ","HOUSE_NO":"２０號","E_COORD97":177442.98000000001,"N_COORD97":2540893.25,"ADDRESS":"民族北街２０號","OBJECTID":642740},"geometry":{"x":177442.98000000138,"y":2540893.2500000037}},{"attributes":{"ID":642768,"DIS_CODE":0,"TOWNNAME":"麻豆區","LI":"油車里","LIN":"4鄰","STREET":"新興街","SECT":" ","MAREA":" ","LANE":" ","ALLEY":" ","HOUSE_NO":"１０號之１","E_COORD97":172658.23000000001,"N_COORD97":2565283.7200000002,"ADDRESS":"新興街１０號之１","OBJECTID":642741},"geometry":{"x":172658.23000000045,"y":2565283.7200000007}},{"attributes":{"ID":642769,"DIS_CODE":0,"TOWNNAME":"麻豆區","LI":"油車里","LIN":"4鄰","STREET":"新興街","SECT":" ","MAREA":" ","LANE":" ","ALLEY":" ","HOUSE_NO":"１０號","E_COORD97":172671.25,"N_COORD97":2565282.7400000002,"ADDRESS":"新興街１０號","OBJECTID":642742},"geometry":{"x":172671.25,"y":2565282.7400000002}},{"attributes":{"ID":642770,"DIS_CODE":0,"TOWNNAME":"麻豆區","LI":"油車里","LIN":"4鄰","STREET":"新興街","SECT":" ","MAREA":" ","LANE":" ","ALLEY":" ","HOUSE_NO":"１１號之１１","E_COORD97":172640.13,"N_COORD97":2565276.6499999999,"ADDRESS":"新興街１１號之１１","OBJECTID":642743},"geometry":{"x":172640.13000000175,"y":2565276.6500000004}},{"attributes":{"ID":642771,"DIS_CODE":0,"TOWNNAME":"麻豆區","LI":"油車里","LIN":"4鄰","STREET":"新興街","SECT":" ","MAREA":" ","LANE":" ","ALLEY":" ","HOUSE_NO":"１１號之１２","E_COORD97":172641.51999999999,"N_COORD97":2565269.8500000001,"ADDRESS":"新興街１１號之１２","OBJECTID":642744},"geometry":{"x":172641.51999999955,"y":2565269.8500000015}},{"attributes":{"ID":642772,"DIS_CODE":0,"TOWNNAME":"麻豆區","LI":"油車里","LIN":"4鄰","STREET":"新興街","SECT":" ","MAREA":" ","LANE":" ","ALLEY":" ","HOUSE_NO":"１１號之１","E_COORD97":172637.19,"N_COORD97":2565288.29,"ADDRESS":"新興街１１號之１","OBJECTID":642745},"geometry":{"x":172637.19000000134,"y":2565288.2899999991}},{"attributes":{"ID":642773,"DIS_CODE":0,"TOWNNAME":"麻豆區","LI":"油車里","LIN":"4鄰","STREET":"新興街","SECT":" ","MAREA":" ","LANE":" ","ALLEY":" ","HOUSE_NO":"１１號之２","E_COORD97":172642.23999999999,"N_COORD97":2565263.8900000001,"ADDRESS":"新興街１１號之２","OBJECTID":642746},"geometry":{"x":172642.24000000115,"y":2565263.8900000025}},{"attributes":{"ID":642774,"DIS_CODE":0,"TOWNNAME":"麻豆區","LI":"油車里","LIN":"4鄰","STREET":"新興街","SECT":" ","MAREA":" ","LANE":" ","ALLEY":" ","HOUSE_NO":"１１號之３","E_COORD97":172642.70999999999,"N_COORD97":2565257.4900000002,"ADDRESS":"新興街１１號之３","OBJECTID":642747},"geometry":{"x":172642.70999999996,"y":2565257.4900000002}},{"attributes":{"ID":642775,"DIS_CODE":0,"TOWNNAME":"麻豆區","LI":"油車里","LIN":"4鄰","STREET":"新興街","SECT":" ","MAREA":" ","LANE":" ","ALLEY":" ","HOUSE_NO":"１１號之４","E_COORD97":172644.16,"N_COORD97":2565251.71,"ADDRESS":"新興街１１號之４","OBJECTID":642748},"geometry":{"x":172644.16000000108,"y":2565251.7100000028}},{"attributes":{"ID":642776,"DIS_CODE":0,"TOWNNAME":"麻豆區","LI":"油車里","LIN":"4鄰","STREET":"新興街","SECT":" ","MAREA":" ","LANE":" ","ALLEY":" ","HOUSE_NO":"１１號之５","E_COORD97":172644.72,"N_COORD97":2565246.48,"ADDRESS":"新興街１１號之５","OBJECTID":642749},"geometry":{"x":172644.72000000067,"y":2565246.4800000023}},{"attributes":{"ID":642777,"DIS_CODE":0,"TOWNNAME":"麻豆區","LI":"油車里","LIN":"4鄰","STREET":"新興街","SECT":" ","MAREA":" ","LANE":" ","ALLEY":" ","HOUSE_NO":"１１號之６","E_COORD97":172645.28,"N_COORD97":2565241.25,"ADDRESS":"新興街１１號之６","OBJECTID":642750},"geometry":{"x":172645.28000000119,"y":2565241.25}},{"attributes":{"ID":642778,"DIS_CODE":0,"TOWNNAME":"麻豆區","LI":"油車里","LIN":"4鄰","STREET":"新興街","SECT":" ","MAREA":" ","LANE":" ","ALLEY":" ","HOUSE_NO":"１１號之７","E_COORD97":172645.84,"N_COORD97":2565236.02,"ADDRESS":"新興街１１號之７","OBJECTID":642751},"geometry":{"x":172645.84000000078,"y":2565236.0199999996}},{"attributes":{"ID":642779,"DIS_CODE":0,"TOWNNAME":"麻豆區","LI":"油車里","LIN":"4鄰","STREET":"新興街","SECT":" ","MAREA":" ","LANE":" ","ALLEY":" ","HOUSE_NO":"１１號之８","E_COORD97":172646.39999999999,"N_COORD97":2565230.7799999998,"ADDRESS":"新興街１１號之８","OBJECTID":642752},"geometry":{"x":172646.4000000013,"y":2565230.7799999993}},{"attributes":{"ID":642780,"DIS_CODE":0,"TOWNNAME":"麻豆區","LI":"油車里","LIN":"4鄰","STREET":"新興街","SECT":" ","MAREA":" ","LANE":" ","ALLEY":" ","HOUSE_NO":"１１號之９","E_COORD97":172646.95999999999,"N_COORD97":2565225.5499999998,"ADDRESS":"新興街１１號之９","OBJECTID":642753},"geometry":{"x":172646.96000000089,"y":2565225.5500000026}},{"attributes":{"ID":642781,"DIS_CODE":0,"TOWNNAME":"麻豆區","LI":"油車里","LIN":"4鄰","STREET":"新興街","SECT":" ","MAREA":" ","LANE":" ","ALLEY":" ","HOUSE_NO":"１１號","E_COORD97":172653.22,"N_COORD97":2565264.3700000001,"ADDRESS":"新興街１１號","OBJECTID":642754},"geometry":{"x":172653.22000000067,"y":2565264.3700000029}},{"attributes":{"ID":642782,"DIS_CODE":0,"TOWNNAME":"麻豆區","LI":"大埕里","LIN":"14鄰","STREET":"新興街","SECT":" ","MAREA":" ","LANE":" ","ALLEY":" ","HOUSE_NO":"２號之１","E_COORD97":172944.64000000001,"N_COORD97":2565199.7000000002,"ADDRESS":"新興街２號之１","OBJECTID":642755},"geometry":{"x":172944.63999999966,"y":2565199.7000000011}},{"attributes":{"ID":642783,"DIS_CODE":0,"TOWNNAME":"麻豆區","LI":"大埕里","LIN":"14鄰","STREET":"新興街","SECT":" ","MAREA":" ","LANE":" ","ALLEY":" ","HOUSE_NO":"２號之５","E_COORD97":172957.98999999999,"N_COORD97":2565182.3100000001,"ADDRESS":"新興街２號之５","OBJECTID":642756},"geometry":{"x":172957.99000000022,"y":2565182.3100000042}},{"attributes":{"ID":642784,"DIS_CODE":0,"TOWNNAME":"麻豆區","LI":"大埕里","LIN":"14鄰","STREET":"新興街","SECT":" ","MAREA":" ","LANE":" ","ALLEY":" ","HOUSE_NO":"２號之６","E_COORD97":172966.01000000001,"N_COORD97":2565188.2000000002,"ADDRESS":"新興街２號之６","OBJECTID":642757},"geometry":{"x":172966.00999999978,"y":2565188.200000003}},{"attributes":{"ID":642785,"DIS_CODE":0,"TOWNNAME":"麻豆區","LI":"油車里","LIN":"4鄰","STREET":"新興街","SECT":" ","MAREA":" ","LANE":" ","ALLEY":" ","HOUSE_NO":"６號之１６","E_COORD97":172694.31,"N_COORD97":2565273.46,"ADDRESS":"新興街６號之１６","OBJECTID":642758},"geometry":{"x":172694.30999999959,"y":2565273.4600000028}},{"attributes":{"ID":642786,"DIS_CODE":0,"TOWNNAME":"麻豆區","LI":"油車里","LIN":"4鄰","STREET":"新興街","SECT":" ","MAREA":" ","LANE":" ","ALLEY":" ","HOUSE_NO":"６號之６","E_COORD97":172800.94,"N_COORD97":2565250.9100000001,"ADDRESS":"新興街６號之６","OBJECTID":642759},"geometry":{"x":172800.94000000041,"y":2565250.9100000001}},{"attributes":{"ID":642787,"DIS_CODE":0,"TOWNNAME":"麻豆區","LI":"油車里","LIN":"4鄰","STREET":"新興街","SECT":" ","MAREA":" ","LANE":" ","ALLEY":" ","HOUSE_NO":"６號之７","E_COORD97":172769.22,"N_COORD97":2565261.6499999999,"ADDRESS":"新興街６號之７","OBJECTID":642760},"geometry":{"x":172769.21999999974,"y":2565261.6500000022}},{"attributes":{"ID":642788,"DIS_CODE":0,"TOWNNAME":"麻豆區","LI":"油車里","LIN":"4鄰","STREET":"新興街","SECT":" ","MAREA":" ","LANE":" ","ALLEY":" ","HOUSE_NO":"６號之８","E_COORD97":172753.87,"N_COORD97":2565268.04,"ADDRESS":"新興街６號之８","OBJECTID":642761},"geometry":{"x":172753.87000000011,"y":2565268.040000001}},{"attributes":{"ID":642789,"DIS_CODE":0,"TOWNNAME":"麻豆區","LI":"油車里","LIN":"4鄰","STREET":"新興街","SECT":" ","MAREA":" ","LANE":" ","ALLEY":" ","HOUSE_NO":"６號","E_COORD97":172821.51999999999,"N_COORD97":2565244.5699999998,"ADDRESS":"新興街６號","OBJECTID":642762},"geometry":{"x":172821.51999999955,"y":2565244.570000004}},{"attributes":{"ID":642790,"DIS_CODE":0,"TOWNNAME":"麻豆區","LI":"油車里","LIN":"4鄰","STREET":"新興街","SECT":" ","MAREA":" ","LANE":" ","ALLEY":" ","HOUSE_NO":"７號之１","E_COORD97":172702.09,"N_COORD97":2565241.7000000002,"ADDRESS":"新興街７號之１","OBJECTID":642763},"geometry":{"x":172702.09000000078,"y":2565241.6999999993}},{"attributes":{"ID":642791,"DIS_CODE":0,"TOWNNAME":"麻豆區","LI":"油車里","LIN":"4鄰","STREET":"新興街","SECT":" ","MAREA":" ","LANE":" ","ALLEY":" ","HOUSE_NO":"７號","E_COORD97":172700.62,"N_COORD97":2565252.71,"ADDRESS":"新興街７號","OBJECTID":642764},"geometry":{"x":172700.62000000104,"y":2565252.7100000009}},{"attributes":{"ID":642792,"DIS_CODE":0,"TOWNNAME":"麻豆區","LI":"油車里","LIN":"4鄰","STREET":"新興街","SECT":" ","MAREA":" ","LANE":" ","ALLEY":" ","HOUSE_NO":"８號之１","E_COORD97":172665.07999999999,"N_COORD97":2565251.3700000001,"ADDRESS":"新興街８號之１","OBJECTID":642765},"geometry":{"x":172665.08000000101,"y":2565251.3700000029}},{"attributes":{"ID":642793,"DIS_CODE":0,"TOWNNAME":"歸仁區","LI":"南興里","LIN":"35鄰","STREET":"民生一街","SECT":" ","MAREA":" ","LANE":" ","ALLEY":" ","HOUSE_NO":"６０號","E_COORD97":176418.59,"N_COORD97":2541019.29,"ADDRESS":"民生一街６０號","OBJECTID":642766},"geometry":{"x":176418.58999999985,"y":2541019.2899999991}},{"attributes":{"ID":642794,"DIS_CODE":0,"TOWNNAME":"歸仁區","LI":"南興里","LIN":"38鄰","STREET":"中山路","SECT":"三段","MAREA":" ","LANE":" ","ALLEY":" ","HOUSE_NO":"５４０號","E_COORD97":175729.95999999999,"N_COORD97":2541036.2799999998,"ADDRESS":"中山路三段５４０號","OBJECTID":642767},"geometry":{"x":175729.96000000183,"y":2541036.2800000012}},{"attributes":{"ID":642795,"DIS_CODE":0,"TOWNNAME":"歸仁區","LI":"南興里","LIN":"20鄰","STREET":"文化街","SECT":"三段","MAREA":" ","LANE":" ","ALLEY":" ","HOUSE_NO":"５７２號","E_COORD97":175710.44,"N_COORD97":2541204.3300000001,"ADDRESS":"文化街三段５７２號","OBJECTID":642768},"geometry":{"x":175710.44000000134,"y":2541204.3300000001}},{"attributes":{"ID":642796,"DIS_CODE":0,"TOWNNAME":"歸仁區","LI":"後市里","LIN":"39鄰","STREET":"民權三街","SECT":" ","MAREA":" ","LANE":" ","ALLEY":" ","HOUSE_NO":"６５號","E_COORD97":177319.03,"N_COORD97":2541072.75,"ADDRESS":"民權三街６５號","OBJECTID":642769},"geometry":{"x":177319.03000000119,"y":2541072.7499999981}},{"attributes":{"ID":642797,"DIS_CODE":0,"TOWNNAME":"歸仁區","LI":"南興里","LIN":"39鄰","STREET":"中山十街","SECT":" ","MAREA":" ","LANE":" ","ALLEY":" ","HOUSE_NO":"３３號","E_COORD97":175682.76000000001,"N_COORD97":2541119.25,"ADDRESS":"中山十街３３號","OBJECTID":642770},"geometry":{"x":175682.76000000071,"y":2541119.25}},{"attributes":{"ID":642798,"DIS_CODE":0,"TOWNNAME":"歸仁區","LI":"南興里","LIN":"41鄰","STREET":"中山十一街","SECT":" ","MAREA":" ","LANE":" ","ALLEY":" ","HOUSE_NO":"２號","E_COORD97":175801.06,"N_COORD97":2540979.25,"ADDRESS":"中山十一街２號","OBJECTID":642771},"geometry":{"x":175801.05999999959,"y":2540979.2500000019}},{"attributes":{"ID":642799,"DIS_CODE":0,"TOWNNAME":"歸仁區","LI":"南保里","LIN":"41鄰","STREET":"保興二街","SECT":" ","MAREA":" ","LANE":" ","ALLEY":" ","HOUSE_NO":"１號","E_COORD97":176529.12,"N_COORD97":2541005.25,"ADDRESS":"保興二街１號","OBJECTID":642772},"geometry":{"x":176529.11999999918,"y":2541005.2500000037}},{"attributes":{"ID":642800,"DIS_CODE":0,"TOWNNAME":"歸仁區","LI":"後市里","LIN":"36鄰","STREET":"民族一街","SECT":" ","MAREA":" ","LANE":" ","ALLEY":" ","HOUSE_NO":"２３號","E_COORD97":177299.23000000001,"N_COORD97":2541005.75,"ADDRESS":"民族一街２３號","OBJECTID":642773},"geometry":{"x":177299.23000000138,"y":2541005.7500000019}},{"attributes":{"ID":642801,"DIS_CODE":0,"TOWNNAME":"歸仁區","LI":"南保里","LIN":"5鄰","STREET":"文化街","SECT":"三段","MAREA":" ","LANE":" ","ALLEY":" ","HOUSE_NO":"３４號","E_COORD97":176918.39000000001,"N_COORD97":2541251.3300000001,"ADDRESS":"文化街三段３４號","OBJECTID":642774},"geometry":{"x":176918.38999999873,"y":2541251.3300000001}},{"attributes":{"ID":642802,"DIS_CODE":0,"TOWNNAME":"歸仁區","LI":"南興里","LIN":"18鄰","STREET":"南興一街","SECT":" ","MAREA":" ","LANE":" ","ALLEY":" ","HOUSE_NO":"１５號","E_COORD97":175680.89000000001,"N_COORD97":2541344.25,"ADDRESS":"南興一街１５號","OBJECTID":642775},"geometry":{"x":175680.88999999873,"y":2541344.2500000037}},{"attributes":{"ID":642803,"DIS_CODE":0,"TOWNNAME":"歸仁區","LI":"南保里","LIN":"26鄰","STREET":"民權六街","SECT":" ","MAREA":" ","LANE":" ","ALLEY":" ","HOUSE_NO":"１７７號","E_COORD97":176625.34,"N_COORD97":2541106.29,"ADDRESS":"民權六街１７７號","OBJECTID":642776},"geometry":{"x":176625.33999999985,"y":2541106.290000001}},{"attributes":{"ID":642804,"DIS_CODE":0,"TOWNNAME":"歸仁區","LI":"後市里","LIN":"39鄰","STREET":"文化街","SECT":"二段","MAREA":" ","LANE":" ","ALLEY":" ","HOUSE_NO":"６５號","E_COORD97":177313.48999999999,"N_COORD97":2541139.7599999998,"ADDRESS":"文化街二段６５號","OBJECTID":642777},"geometry":{"x":177313.49000000209,"y":2541139.7599999998}},{"attributes":{"ID":642805,"DIS_CODE":0,"TOWNNAME":"歸仁區","LI":"南保里","LIN":"42鄰","STREET":"保興街","SECT":" ","MAREA":" ","LANE":" ","ALLEY":" ","HOUSE_NO":"６號","E_COORD97":176504.59,"N_COORD97":2540975.8900000001,"ADDRESS":"保興街６號","OBJECTID":642778},"geometry":{"x":176504.58999999985,"y":2540975.8900000025}},{"attributes":{"ID":642806,"DIS_CODE":0,"TOWNNAME":"歸仁區","LI":"南興里","LIN":"18鄰","STREET":"南興一街","SECT":" ","MAREA":" ","LANE":" ","ALLEY":" ","HOUSE_NO":"３號","E_COORD97":175657.04000000001,"N_COORD97":2541343.25,"ADDRESS":"南興一街３號","OBJECTID":642779},"geometry":{"x":175657.04000000097,"y":2541343.25}},{"attributes":{"ID":642807,"DIS_CODE":0,"TOWNNAME":"歸仁區","LI":"後市里","LIN":"26鄰","STREET":"中山路","SECT":"二段","MAREA":" ","LANE":" ","ALLEY":" ","HOUSE_NO":"１４６號","E_COORD97":177232.23000000001,"N_COORD97":2540841.7400000002,"ADDRESS":"中山路二段１４６號","OBJECTID":642780},"geometry":{"x":177232.22999999952,"y":2540841.7400000002}},{"attributes":{"ID":642808,"DIS_CODE":0,"TOWNNAME":"歸仁區","LI":"後市里","LIN":"39鄰","STREET":"民權三街","SECT":" ","MAREA":" ","LANE":" ","ALLEY":" ","HOUSE_NO":"５３號","E_COORD97":177289.32999999999,"N_COORD97":2541076.75,"ADDRESS":"民權三街５３號","OBJECTID":642781},"geometry":{"x":177289.33000000101,"y":2541076.7500000019}},{"attributes":{"ID":642809,"DIS_CODE":0,"TOWNNAME":"歸仁區","LI":"南興里","LIN":"38鄰","STREET":"中山路","SECT":"三段","MAREA":" ","LANE":" ","ALLEY":" ","HOUSE_NO":"５１０號","E_COORD97":175816.06,"N_COORD97":2541022.2799999998,"ADDRESS":"中山路三段５１０號","OBJECTID":642782},"geometry":{"x":175816.06000000052,"y":2541022.2800000012}},{"attributes":{"ID":642810,"DIS_CODE":0,"TOWNNAME":"歸仁區","LI":"南興里","LIN":"26鄰","STREET":"文化二十街","SECT":" ","MAREA":" ","LANE":" ","ALLEY":" ","HOUSE_NO":"９１號","E_COORD97":175453.48999999999,"N_COORD97":2541354.3300000001,"ADDRESS":"文化二十街９１號","OBJECTID":642783},"geometry":{"x":175453.49000000022,"y":2541354.3300000019}},{"attributes":{"ID":642811,"DIS_CODE":0,"TOWNNAME":"歸仁區","LI":"南興里","LIN":"39鄰","STREET":"中山十街","SECT":" ","MAREA":" ","LANE":" ","ALLEY":" ","HOUSE_NO":"１７號","E_COORD97":175678.56,"N_COORD97":2541094.25,"ADDRESS":"中山十街１７號","OBJECTID":642784},"geometry":{"x":175678.56000000052,"y":2541094.2500000019}},{"attributes":{"ID":642812,"DIS_CODE":0,"TOWNNAME":"歸仁區","LI":"後市里","LIN":"4鄰","STREET":"大吉街","SECT":" ","MAREA":" ","LANE":" ","ALLEY":" ","HOUSE_NO":"１９號","E_COORD97":177222.66,"N_COORD97":2540751.25,"ADDRESS":"大吉街１９號","OBJECTID":642785},"geometry":{"x":177222.66000000108,"y":2540751.2500000019}},{"attributes":{"ID":642813,"DIS_CODE":0,"TOWNNAME":"歸仁區","LI":"南興里","LIN":"4鄰","STREET":"文化十二街","SECT":" ","MAREA":" ","LANE":" ","ALLEY":" ","HOUSE_NO":"３１號","E_COORD97":176416.98999999999,"N_COORD97":2541274.3300000001,"ADDRESS":"文化十二街３１號","OBJECTID":642786},"geometry":{"x":176416.99000000115,"y":2541274.3300000001}},{"attributes":{"ID":642814,"DIS_CODE":0,"TOWNNAME":"歸仁區","LI":"南興里","LIN":"4鄰","STREET":"文化十二街","SECT":" ","MAREA":" ","LANE":" ","ALLEY":" ","HOUSE_NO":"４１號","E_COORD97":176438.59,"N_COORD97":2541274.3300000001,"ADDRESS":"文化十二街４１號","OBJECTID":642787},"geometry":{"x":176438.58999999985,"y":2541274.3300000001}},{"attributes":{"ID":642815,"DIS_CODE":0,"TOWNNAME":"歸仁區","LI":"南保里","LIN":"20鄰","STREET":"文化街","SECT":"三段","MAREA":" ","LANE":" ","ALLEY":" ","HOUSE_NO":"７３號","E_COORD97":176867.98999999999,"N_COORD97":2541226.3300000001,"ADDRESS":"文化街三段７３號","OBJECTID":642788},"geometry":{"x":176867.99000000115,"y":2541226.3300000019}},{"attributes":{"ID":642816,"DIS_CODE":0,"TOWNNAME":"歸仁區","LI":"南保里","LIN":"25鄰","STREET":"文化街","SECT":"三段","MAREA":" ","LANE":" ","ALLEY":" ","HOUSE_NO":"１９１號","E_COORD97":176556.23999999999,"N_COORD97":2541178.3300000001,"ADDRESS":"文化街三段１９１號","OBJECTID":642789},"geometry":{"x":176556.24000000115,"y":2541178.3300000019}},{"attributes":{"ID":642817,"DIS_CODE":0,"TOWNNAME":"歸仁區","LI":"南興里","LIN":"32鄰","STREET":"保興一街","SECT":" ","MAREA":" ","LANE":" ","ALLEY":" ","HOUSE_NO":"２２號","E_COORD97":176430.37,"N_COORD97":2541113.25,"ADDRESS":"保興一街２２號","OBJECTID":642790},"geometry":{"x":176430.37000000011,"y":2541113.25}},{"attributes":{"ID":642818,"DIS_CODE":0,"TOWNNAME":"歸仁區","LI":"後市里","LIN":"4鄰","STREET":"大吉街","SECT":" ","MAREA":" ","LANE":" ","ALLEY":" ","HOUSE_NO":"１７號","E_COORD97":177222.66,"N_COORD97":2540754.25,"ADDRESS":"大吉街１７號","OBJECTID":642791},"geometry":{"x":177222.66000000108,"y":2540754.2500000037}},{"attributes":{"ID":642819,"DIS_CODE":0,"TOWNNAME":"歸仁區","LI":"南興里","LIN":"4鄰","STREET":"文化十二街","SECT":" ","MAREA":" ","LANE":" ","ALLEY":" ","HOUSE_NO":"３９號","E_COORD97":176435.48999999999,"N_COORD97":2541274.3300000001,"ADDRESS":"文化十二街３９號","OBJECTID":642792},"geometry":{"x":176435.49000000115,"y":2541274.3300000001}},{"attributes":{"ID":642820,"DIS_CODE":0,"TOWNNAME":"歸仁區","LI":"後市里","LIN":"38鄰","STREET":"民權三街","SECT":" ","MAREA":" ","LANE":" ","ALLEY":" ","HOUSE_NO":"１００號","E_COORD97":177232.07999999999,"N_COORD97":2541065.75,"ADDRESS":"民權三街１００號","OBJECTID":642793},"geometry":{"x":177232.08000000101,"y":2541065.75}},{"attributes":{"ID":642821,"DIS_CODE":0,"TOWNNAME":"歸仁區","LI":"後市里","LIN":"38鄰","STREET":"民權三街","SECT":" ","MAREA":" ","LANE":" ","ALLEY":" ","HOUSE_NO":"１０２號","E_COORD97":177236.17999999999,"N_COORD97":2541065.75,"ADDRESS":"民權三街１０２號","OBJECTID":642794},"geometry":{"x":177236.1799999997,"y":2541065.75}},{"attributes":{"ID":642822,"DIS_CODE":0,"TOWNNAME":"歸仁區","LI":"南興里","LIN":"20鄰","STREET":"文化街","SECT":"三段","MAREA":" ","LANE":" ","ALLEY":" ","HOUSE_NO":"５７４號","E_COORD97":175705.23999999999,"N_COORD97":2541204.3300000001,"ADDRESS":"文化街三段５７４號","OBJECTID":642795},"geometry":{"x":175705.24000000115,"y":2541204.3300000001}},{"attributes":{"ID":642823,"DIS_CODE":0,"TOWNNAME":"歸仁區","LI":"南興里","LIN":"26鄰","STREET":"文化二十街","SECT":" ","MAREA":" ","LANE":" ","ALLEY":" ","HOUSE_NO":"８５號","E_COORD97":175437.09,"N_COORD97":2541354.3300000001,"ADDRESS":"文化二十街８５號","OBJECTID":642796},"geometry":{"x":175437.08999999985,"y":2541354.3300000019}},{"attributes":{"ID":642824,"DIS_CODE":0,"TOWNNAME":"歸仁區","LI":"南保里","LIN":"43鄰","STREET":"民權南路","SECT":" ","MAREA":" ","LANE":" ","ALLEY":" ","HOUSE_NO":"５４號","E_COORD97":176963.59,"N_COORD97":2540707.29,"ADDRESS":"民權南路５４號","OBJECTID":642797},"geometry":{"x":176963.59000000078,"y":2540707.2899999991}},{"attributes":{"ID":642825,"DIS_CODE":0,"TOWNNAME":"歸仁區","LI":"南興里","LIN":"5鄰","STREET":"民生北街","SECT":" ","MAREA":" ","LANE":" ","ALLEY":" ","HOUSE_NO":"１０５號","E_COORD97":176211.73999999999,"N_COORD97":2541243.29,"ADDRESS":"民生北街１０５號","OBJECTID":642798},"geometry":{"x":176211.74000000115,"y":2541243.2899999991}},{"attributes":{"ID":642826,"DIS_CODE":0,"TOWNNAME":"歸仁區","LI":"南保里","LIN":"26鄰","STREET":"民權六街","SECT":" ","MAREA":" ","LANE":" ","ALLEY":" ","HOUSE_NO":"１８９號","E_COORD97":176598.64000000001,"N_COORD97":2541105.29,"ADDRESS":"民權六街１８９號","OBJECTID":642799},"geometry":{"x":176598.6400000006,"y":2541105.2899999991}},{"attributes":{"ID":642827,"DIS_CODE":0,"TOWNNAME":"歸仁區","LI":"南興里","LIN":"41鄰","STREET":"中山路","SECT":"三段","MAREA":" ","LANE":" ","ALLEY":" ","HOUSE_NO":"３６５號","E_COORD97":175990.95999999999,"N_COORD97":2540931.2799999998,"ADDRESS":"中山路三段３６５號","OBJECTID":642800},"geometry":{"x":175990.95999999903,"y":2540931.2800000012}}]}