{"displayFieldName":"TOWNNAME","fieldAliases":{"ID":"ID","DIS_CODE":"DIS_CODE","TOWNNAME":"TOWNNAME","LI":"LI","LIN":"LIN","STREET":"STREET","SECT":"SECT","MAREA":"MAREA","LANE":"LANE","ALLEY":"ALLEY","HOUSE_NO":"HOUSE_NO","E_COORD97":"E_COORD97","N_COORD97":"N_COORD97","ADDRESS":"ADDRESS","OBJECTID":"OBJECTID"},"geometryType":"esriGeometryPoint","spatialReference":{"wkid":102443,"latestWkid":3826},"fields":[{"name":"ID","type":"esriFieldTypeDouble","alias":"ID"},{"name":"DIS_CODE","type":"esriFieldTypeInteger","alias":"DIS_CODE"},{"name":"TOWNNAME","type":"esriFieldTypeString","alias":"TOWNNAME","length":8},{"name":"LI","type":"esriFieldTypeString","alias":"LI","length":8},{"name":"LIN","type":"esriFieldTypeString","alias":"LIN","length":12},{"name":"STREET","type":"esriFieldTypeString","alias":"STREET","length":20},{"name":"SECT","type":"esriFieldTypeString","alias":"SECT","length":8},{"name":"MAREA","type":"esriFieldTypeString","alias":"MAREA","length":12},{"name":"LANE","type":"esriFieldTypeString","alias":"LANE","length":10},{"name":"ALLEY","type":"esriFieldTypeString","alias":"ALLEY","length":10},{"name":"HOUSE_NO","type":"esriFieldTypeString","alias":"HOUSE_NO","length":20},{"name":"E_COORD97","type":"esriFieldTypeDouble","alias":"E_COORD97"},{"name":"N_COORD97","type":"esriFieldTypeDouble","alias":"N_COORD97"},{"name":"ADDRESS","type":"esriFieldTypeString","alias":"ADDRESS","length":50},{"name":"OBJECTID","type":"esriFieldTypeOID","alias":"OBJECTID"}],"features":[{"attributes":{"ID":507428,"DIS_CODE":0,"TOWNNAME":"白河區","LI":"永安里","LIN":"15鄰","STREET":"富民路","SECT":" ","MAREA":" ","LANE":" ","ALLEY":" ","HOUSE_NO":"６１６號","E_COORD97":189710.28,"N_COORD97":2583457.96,"ADDRESS":"富民路６１６號","OBJECTID":507401},"geometry":{"x":189710.28000000119,"y":2583457.9600000009}},{"attributes":{"ID":507429,"DIS_CODE":0,"TOWNNAME":"白河區","LI":"永安里","LIN":"15鄰","STREET":"富民路","SECT":" ","MAREA":" ","LANE":" ","ALLEY":" ","HOUSE_NO":"６１８號","E_COORD97":189712.60999999999,"N_COORD97":2583463.0800000001,"ADDRESS":"富民路６１８號","OBJECTID":507402},"geometry":{"x":189712.61000000034,"y":2583463.0800000001}},{"attributes":{"ID":507430,"DIS_CODE":0,"TOWNNAME":"安南區","LI":"州北里","LIN":"15鄰","STREET":"安和路","SECT":"五段","MAREA":" ","LANE":" ","ALLEY":" ","HOUSE_NO":"１７３號","E_COORD97":169832.98999999999,"N_COORD97":2551849.6899999999,"ADDRESS":"安和路五段１７３號","OBJECTID":507403},"geometry":{"x":169832.99000000115,"y":2551849.6899999995}},{"attributes":{"ID":507431,"DIS_CODE":0,"TOWNNAME":"安南區","LI":"州北里","LIN":"15鄰","STREET":"安和路","SECT":"五段","MAREA":" ","LANE":" ","ALLEY":" ","HOUSE_NO":"１７５號","E_COORD97":169831.42999999999,"N_COORD97":2551852.79,"ADDRESS":"安和路五段１７５號","OBJECTID":507404},"geometry":{"x":169831.43000000063,"y":2551852.7899999991}},{"attributes":{"ID":507432,"DIS_CODE":0,"TOWNNAME":"安南區","LI":"州北里","LIN":"15鄰","STREET":"安和路","SECT":"五段","MAREA":" ","LANE":" ","ALLEY":" ","HOUSE_NO":"１８１號","E_COORD97":169824.84,"N_COORD97":2551861.5499999998,"ADDRESS":"安和路五段１８１號","OBJECTID":507405},"geometry":{"x":169824.84000000078,"y":2551861.5500000026}},{"attributes":{"ID":507433,"DIS_CODE":0,"TOWNNAME":"安南區","LI":"州北里","LIN":"15鄰","STREET":"安和路","SECT":"五段","MAREA":" ","LANE":" ","ALLEY":" ","HOUSE_NO":"１８５號","E_COORD97":169820.53,"N_COORD97":2551867.6400000001,"ADDRESS":"安和路五段１８５號","OBJECTID":507406},"geometry":{"x":169820.53000000212,"y":2551867.6400000006}},{"attributes":{"ID":507434,"DIS_CODE":0,"TOWNNAME":"安南區","LI":"州北里","LIN":"15鄰","STREET":"安和路","SECT":"五段","MAREA":" ","LANE":" ","ALLEY":" ","HOUSE_NO":"１８７號","E_COORD97":169816.60999999999,"N_COORD97":2551870.21,"ADDRESS":"安和路五段１８７號","OBJECTID":507407},"geometry":{"x":169816.6100000022,"y":2551870.2100000028}},{"attributes":{"ID":507435,"DIS_CODE":0,"TOWNNAME":"安南區","LI":"州北里","LIN":"15鄰","STREET":"安和路","SECT":"五段","MAREA":" ","LANE":" ","ALLEY":" ","HOUSE_NO":"１９１號","E_COORD97":169811.54999999999,"N_COORD97":2551878.27,"ADDRESS":"安和路五段１９１號","OBJECTID":507408},"geometry":{"x":169811.55000000075,"y":2551878.2700000014}},{"attributes":{"ID":507436,"DIS_CODE":0,"TOWNNAME":"安南區","LI":"州北里","LIN":"15鄰","STREET":"安和路","SECT":"五段","MAREA":" ","LANE":" ","ALLEY":" ","HOUSE_NO":"１９９號","E_COORD97":169797.85999999999,"N_COORD97":2551888.4900000002,"ADDRESS":"安和路五段１９９號","OBJECTID":507409},"geometry":{"x":169797.8600000022,"y":2551888.4900000021}},{"attributes":{"ID":507437,"DIS_CODE":0,"TOWNNAME":"安南區","LI":"州北里","LIN":"15鄰","STREET":"安和路","SECT":"五段","MAREA":" ","LANE":" ","ALLEY":" ","HOUSE_NO":"２０１號","E_COORD97":169795.54999999999,"N_COORD97":2551891.52,"ADDRESS":"安和路五段２０１號","OBJECTID":507410},"geometry":{"x":169795.54999999981,"y":2551891.5199999996}},{"attributes":{"ID":507438,"DIS_CODE":0,"TOWNNAME":"安南區","LI":"州北里","LIN":"15鄰","STREET":"安和路","SECT":"五段","MAREA":" ","LANE":" ","ALLEY":" ","HOUSE_NO":"２０５號","E_COORD97":169791.70000000001,"N_COORD97":2551898.3599999999,"ADDRESS":"安和路五段２０５號","OBJECTID":507411},"geometry":{"x":169791.70000000019,"y":2551898.3600000013}},{"attributes":{"ID":507439,"DIS_CODE":0,"TOWNNAME":"安南區","LI":"州北里","LIN":"15鄰","STREET":"安和路","SECT":"五段","MAREA":" ","LANE":" ","ALLEY":" ","HOUSE_NO":"２０７號","E_COORD97":169789.48999999999,"N_COORD97":2551902.0299999998,"ADDRESS":"安和路五段２０７號","OBJECTID":507412},"geometry":{"x":169789.49000000022,"y":2551902.0299999993}},{"attributes":{"ID":507440,"DIS_CODE":0,"TOWNNAME":"安南區","LI":"州北里","LIN":"15鄰","STREET":"安和路","SECT":"五段","MAREA":" ","LANE":" ","ALLEY":" ","HOUSE_NO":"２０９號","E_COORD97":169788.01999999999,"N_COORD97":2551907.4700000002,"ADDRESS":"安和路五段２０９號","OBJECTID":507413},"geometry":{"x":169788.02000000048,"y":2551907.4700000007}},{"attributes":{"ID":507441,"DIS_CODE":0,"TOWNNAME":"安南區","LI":"州北里","LIN":"15鄰","STREET":"安和路","SECT":"五段","MAREA":" ","LANE":" ","ALLEY":" ","HOUSE_NO":"２１３號","E_COORD97":169783.60000000001,"N_COORD97":2551912.9100000001,"ADDRESS":"安和路五段２１３號","OBJECTID":507414},"geometry":{"x":169783.5999999987,"y":2551912.9100000001}},{"attributes":{"ID":507442,"DIS_CODE":0,"TOWNNAME":"安南區","LI":"州北里","LIN":"15鄰","STREET":"安和路","SECT":"五段","MAREA":" ","LANE":" ","ALLEY":" ","HOUSE_NO":"２１５號","E_COORD97":169779.48000000001,"N_COORD97":2551915.4100000001,"ADDRESS":"安和路五段２１５號","OBJECTID":507415},"geometry":{"x":169779.48000000045,"y":2551915.410000002}},{"attributes":{"ID":507443,"DIS_CODE":0,"TOWNNAME":"安南區","LI":"州北里","LIN":"15鄰","STREET":"安和路","SECT":"五段","MAREA":" ","LANE":" ","ALLEY":" ","HOUSE_NO":"２２５號","E_COORD97":169767.79000000001,"N_COORD97":2551931.6699999999,"ADDRESS":"安和路五段２２５號","OBJECTID":507416},"geometry":{"x":169767.79000000097,"y":2551931.6699999999}},{"attributes":{"ID":507444,"DIS_CODE":0,"TOWNNAME":"安南區","LI":"州北里","LIN":"15鄰","STREET":"安和路","SECT":"五段","MAREA":" ","LANE":" ","ALLEY":" ","HOUSE_NO":"２２７號","E_COORD97":169766.17000000001,"N_COORD97":2551935.3500000001,"ADDRESS":"安和路五段２２７號","OBJECTID":507417},"geometry":{"x":169766.16999999993,"y":2551935.3500000015}},{"attributes":{"ID":507445,"DIS_CODE":0,"TOWNNAME":"安南區","LI":"州北里","LIN":"15鄰","STREET":"安和路","SECT":"五段","MAREA":" ","LANE":" ","ALLEY":" ","HOUSE_NO":"２２９號","E_COORD97":169764.26000000001,"N_COORD97":2551939.02,"ADDRESS":"安和路五段２２９號","OBJECTID":507418},"geometry":{"x":169764.26000000071,"y":2551939.0199999996}},{"attributes":{"ID":507446,"DIS_CODE":0,"TOWNNAME":"新營區","LI":"新東里","LIN":"15鄰","STREET":"東泰三街","SECT":" ","MAREA":" ","LANE":" ","ALLEY":" ","HOUSE_NO":"３３號","E_COORD97":181021.29000000001,"N_COORD97":2579592.6499999999,"ADDRESS":"東泰三街３３號","OBJECTID":507419},"geometry":{"x":181021.29000000004,"y":2579592.6500000022}},{"attributes":{"ID":507447,"DIS_CODE":0,"TOWNNAME":"安南區","LI":"安東里","LIN":"15鄰","STREET":"安和路","SECT":"一段","MAREA":" ","LANE":" ","ALLEY":" ","HOUSE_NO":"１６８號","E_COORD97":169407.85000000001,"N_COORD97":2547815.1899999999,"ADDRESS":"安和路一段１６８號","OBJECTID":507420},"geometry":{"x":169407.85000000056,"y":2547815.1899999995}},{"attributes":{"ID":507448,"DIS_CODE":0,"TOWNNAME":"安南區","LI":"安東里","LIN":"15鄰","STREET":"安和路","SECT":"一段","MAREA":" ","LANE":" ","ALLEY":" ","HOUSE_NO":"１７０號","E_COORD97":169407.42999999999,"N_COORD97":2547818.54,"ADDRESS":"安和路一段１７０號","OBJECTID":507421},"geometry":{"x":169407.43000000063,"y":2547818.540000001}},{"attributes":{"ID":507449,"DIS_CODE":0,"TOWNNAME":"安南區","LI":"安東里","LIN":"15鄰","STREET":"安和路","SECT":"一段","MAREA":" ","LANE":" ","ALLEY":" ","HOUSE_NO":"１７２號","E_COORD97":169405.95999999999,"N_COORD97":2547821.8900000001,"ADDRESS":"安和路一段１７２號","OBJECTID":507422},"geometry":{"x":169405.96000000089,"y":2547821.8900000006}},{"attributes":{"ID":507450,"DIS_CODE":0,"TOWNNAME":"安南區","LI":"安東里","LIN":"15鄰","STREET":"安和路","SECT":"一段","MAREA":" ","LANE":" ","ALLEY":" ","HOUSE_NO":"１７４號","E_COORD97":169403.23999999999,"N_COORD97":2547825.8700000001,"ADDRESS":"安和路一段１７４號","OBJECTID":507423},"geometry":{"x":169403.24000000022,"y":2547825.870000001}},{"attributes":{"ID":507451,"DIS_CODE":0,"TOWNNAME":"安南區","LI":"安東里","LIN":"15鄰","STREET":"安和路","SECT":"一段","MAREA":" ","LANE":" ","ALLEY":" ","HOUSE_NO":"１７６號","E_COORD97":169401.98000000001,"N_COORD97":2547829.2200000002,"ADDRESS":"安和路一段１７６號","OBJECTID":507424},"geometry":{"x":169401.98000000045,"y":2547829.2200000007}},{"attributes":{"ID":507452,"DIS_CODE":0,"TOWNNAME":"安南區","LI":"安東里","LIN":"15鄰","STREET":"安和路","SECT":"一段","MAREA":" ","LANE":" ","ALLEY":" ","HOUSE_NO":"１７８號","E_COORD97":169400.09,"N_COORD97":2547831.5299999998,"ADDRESS":"安和路一段１７８號","OBJECTID":507425},"geometry":{"x":169400.08999999985,"y":2547831.5300000012}},{"attributes":{"ID":507453,"DIS_CODE":0,"TOWNNAME":"安南區","LI":"安東里","LIN":"15鄰","STREET":"安和路","SECT":"一段","MAREA":" ","LANE":" ","ALLEY":" ","HOUSE_NO":"１８４號","E_COORD97":169396.73999999999,"N_COORD97":2547843.2599999998,"ADDRESS":"安和路一段１８４號","OBJECTID":507426},"geometry":{"x":169396.73999999929,"y":2547843.2600000035}},{"attributes":{"ID":507454,"DIS_CODE":0,"TOWNNAME":"北區","LI":"大港里","LIN":"20鄰","STREET":"中華北路","SECT":"一段","MAREA":" ","LANE":" ","ALLEY":" ","HOUSE_NO":"４０６號","E_COORD97":166725.98999999999,"N_COORD97":2546120.9100000001,"ADDRESS":"中華北路一段４０６號","OBJECTID":507427},"geometry":{"x":166725.99000000115,"y":2546120.910000002}},{"attributes":{"ID":507455,"DIS_CODE":0,"TOWNNAME":"北區","LI":"大港里","LIN":"20鄰","STREET":"中華北路","SECT":"一段","MAREA":" ","LANE":" ","ALLEY":" ","HOUSE_NO":"４０８號","E_COORD97":166729.5,"N_COORD97":2546123.25,"ADDRESS":"中華北路一段４０８號","OBJECTID":507428},"geometry":{"x":166729.5,"y":2546123.25}},{"attributes":{"ID":507456,"DIS_CODE":0,"TOWNNAME":"北區","LI":"大港里","LIN":"20鄰","STREET":"中華北路","SECT":"一段","MAREA":" ","LANE":" ","ALLEY":" ","HOUSE_NO":"４１０號","E_COORD97":166732.67000000001,"N_COORD97":2546126.25,"ADDRESS":"中華北路一段４１０號","OBJECTID":507429},"geometry":{"x":166732.67000000086,"y":2546126.2500000019}},{"attributes":{"ID":507457,"DIS_CODE":0,"TOWNNAME":"北區","LI":"大港里","LIN":"20鄰","STREET":"中華北路","SECT":"一段","MAREA":" ","LANE":" ","ALLEY":" ","HOUSE_NO":"４１２號","E_COORD97":166736.51999999999,"N_COORD97":2546128.5899999999,"ADDRESS":"中華北路一段４１２號","OBJECTID":507430},"geometry":{"x":166736.52000000048,"y":2546128.5899999999}},{"attributes":{"ID":507458,"DIS_CODE":0,"TOWNNAME":"安南區","LI":"安東里","LIN":"15鄰","STREET":"安和路","SECT":"一段","MAREA":" ","LANE":" ","ALLEY":" ","HOUSE_NO":"１９０號","E_COORD97":169384.57999999999,"N_COORD97":2547852.8999999999,"ADDRESS":"安和路一段１９０號","OBJECTID":507431},"geometry":{"x":169384.58000000101,"y":2547852.8999999985}},{"attributes":{"ID":507459,"DIS_CODE":0,"TOWNNAME":"安南區","LI":"安東里","LIN":"15鄰","STREET":"安和路","SECT":"一段","MAREA":" ","LANE":" ","ALLEY":" ","HOUSE_NO":"１９２號","E_COORD97":169383.53,"N_COORD97":2547856.6699999999,"ADDRESS":"安和路一段１９２號","OBJECTID":507432},"geometry":{"x":169383.53000000119,"y":2547856.6699999999}},{"attributes":{"ID":507460,"DIS_CODE":0,"TOWNNAME":"安南區","LI":"安東里","LIN":"15鄰","STREET":"安和路","SECT":"一段","MAREA":" ","LANE":" ","ALLEY":" ","HOUSE_NO":"１９４號","E_COORD97":169382.48000000001,"N_COORD97":2547861.0699999998,"ADDRESS":"安和路一段１９４號","OBJECTID":507433},"geometry":{"x":169382.48000000138,"y":2547861.0700000003}},{"attributes":{"ID":507461,"DIS_CODE":0,"TOWNNAME":"安南區","LI":"安東里","LIN":"15鄰","STREET":"安和路","SECT":"一段","MAREA":" ","LANE":" ","ALLEY":" ","HOUSE_NO":"２１２號","E_COORD97":169360.89000000001,"N_COORD97":2547898.0499999998,"ADDRESS":"安和路一段２１２號","OBJECTID":507434},"geometry":{"x":169360.88999999966,"y":2547898.0500000026}},{"attributes":{"ID":507462,"DIS_CODE":0,"TOWNNAME":"安南區","LI":"安東里","LIN":"15鄰","STREET":"安和路","SECT":"一段","MAREA":" ","LANE":" ","ALLEY":" ","HOUSE_NO":"２１４號","E_COORD97":169359.42000000001,"N_COORD97":2547901.6099999999,"ADDRESS":"安和路一段２１４號","OBJECTID":507435},"geometry":{"x":169359.41999999993,"y":2547901.6100000031}},{"attributes":{"ID":507463,"DIS_CODE":0,"TOWNNAME":"安南區","LI":"安東里","LIN":"15鄰","STREET":"安和路","SECT":"一段","MAREA":" ","LANE":" ","ALLEY":" ","HOUSE_NO":"２１６號","E_COORD97":169356.26999999999,"N_COORD97":2547905.1699999999,"ADDRESS":"安和路一段２１６號","OBJECTID":507436},"geometry":{"x":169356.26999999955,"y":2547905.1700000037}},{"attributes":{"ID":507464,"DIS_CODE":0,"TOWNNAME":"安南區","LI":"安東里","LIN":"15鄰","STREET":"安和路","SECT":"一段","MAREA":" ","LANE":" ","ALLEY":" ","HOUSE_NO":"２１８號","E_COORD97":169356.26999999999,"N_COORD97":2547908.9399999999,"ADDRESS":"安和路一段２１８號","OBJECTID":507437},"geometry":{"x":169356.26999999955,"y":2547908.9399999995}},{"attributes":{"ID":507465,"DIS_CODE":0,"TOWNNAME":"安南區","LI":"安東里","LIN":"15鄰","STREET":"安和路","SECT":"一段","MAREA":" ","LANE":" ","ALLEY":" ","HOUSE_NO":"１８０號","E_COORD97":169398.20000000001,"N_COORD97":2547835.7200000002,"ADDRESS":"安和路一段１８０號","OBJECTID":507438},"geometry":{"x":169398.20000000019,"y":2547835.7200000025}},{"attributes":{"ID":507466,"DIS_CODE":0,"TOWNNAME":"安南區","LI":"州北里","LIN":"15鄰","STREET":"安和路","SECT":"五段","MAREA":" ","LANE":" ","ALLEY":" ","HOUSE_NO":"１７９號","E_COORD97":169827.45999999999,"N_COORD97":2551858.6099999999,"ADDRESS":"安和路五段１７９號","OBJECTID":507439},"geometry":{"x":169827.46000000183,"y":2551858.6100000013}},{"attributes":{"ID":507467,"DIS_CODE":0,"TOWNNAME":"安南區","LI":"安東里","LIN":"15鄰","STREET":"安和路","SECT":"一段","MAREA":" ","LANE":" ","ALLEY":" ","HOUSE_NO":"１８２號","E_COORD97":169397.16,"N_COORD97":2547840.1200000001,"ADDRESS":"安和路一段１８２號","OBJECTID":507440},"geometry":{"x":169397.16000000015,"y":2547840.1200000029}},{"attributes":{"ID":507468,"DIS_CODE":0,"TOWNNAME":"安南區","LI":"安慶里","LIN":"15鄰","STREET":"安中路","SECT":"一段","MAREA":" ","LANE":" ","ALLEY":" ","HOUSE_NO":"１８２號","E_COORD97":168803.39999999999,"N_COORD97":2548498.25,"ADDRESS":"安中路一段１８２號","OBJECTID":507441},"geometry":{"x":168803.4000000013,"y":2548498.2500000019}},{"attributes":{"ID":507469,"DIS_CODE":0,"TOWNNAME":"安南區","LI":"安慶里","LIN":"15鄰","STREET":"安中路","SECT":"一段","MAREA":" ","LANE":" ","ALLEY":" ","HOUSE_NO":"１５２號","E_COORD97":168873.23000000001,"N_COORD97":2548461.5099999998,"ADDRESS":"安中路一段１５２號","OBJECTID":507442},"geometry":{"x":168873.22999999952,"y":2548461.5099999998}},{"attributes":{"ID":507470,"DIS_CODE":0,"TOWNNAME":"安南區","LI":"安慶里","LIN":"15鄰","STREET":"安中路","SECT":"一段","MAREA":" ","LANE":" ","ALLEY":" ","HOUSE_NO":"１６６號","E_COORD97":168834.51999999999,"N_COORD97":2548482.52,"ADDRESS":"安中路一段１６６號","OBJECTID":507443},"geometry":{"x":168834.51999999955,"y":2548482.5200000014}},{"attributes":{"ID":507471,"DIS_CODE":0,"TOWNNAME":"安南區","LI":"安慶里","LIN":"15鄰","STREET":"安中路","SECT":"一段","MAREA":" ","LANE":" ","ALLEY":" ","HOUSE_NO":"１８３號","E_COORD97":168787.51000000001,"N_COORD97":2548460.0299999998,"ADDRESS":"安中路一段１８３號","OBJECTID":507444},"geometry":{"x":168787.50999999978,"y":2548460.0299999993}},{"attributes":{"ID":507472,"DIS_CODE":0,"TOWNNAME":"安南區","LI":"安慶里","LIN":"15鄰","STREET":"安中路","SECT":"一段","MAREA":" ","LANE":" ","ALLEY":" ","HOUSE_NO":"１８７號","E_COORD97":168778.16,"N_COORD97":2548461.6499999999,"ADDRESS":"安中路一段１８７號","OBJECTID":507445},"geometry":{"x":168778.16000000015,"y":2548461.6500000041}},{"attributes":{"ID":507473,"DIS_CODE":0,"TOWNNAME":"下營區","LI":"營前里","LIN":"15鄰","STREET":"復興街","SECT":" ","MAREA":" ","LANE":" ","ALLEY":" ","HOUSE_NO":"１０號","E_COORD97":174737.06,"N_COORD97":2570446.29,"ADDRESS":"復興街１０號","OBJECTID":507446},"geometry":{"x":174737.05999999959,"y":2570446.290000001}},{"attributes":{"ID":507474,"DIS_CODE":0,"TOWNNAME":"下營區","LI":"營前里","LIN":"15鄰","STREET":"復興街","SECT":" ","MAREA":" ","LANE":" ","ALLEY":" ","HOUSE_NO":"１２號","E_COORD97":174728.67999999999,"N_COORD97":2570454.0499999998,"ADDRESS":"復興街１２號","OBJECTID":507447},"geometry":{"x":174728.68000000063,"y":2570454.0500000026}},{"attributes":{"ID":507475,"DIS_CODE":0,"TOWNNAME":"下營區","LI":"新興里","LIN":"15鄰","STREET":"慈惠街","SECT":" ","MAREA":" ","LANE":" ","ALLEY":" ","HOUSE_NO":"２號","E_COORD97":175277.28,"N_COORD97":2570561.6800000002,"ADDRESS":"慈惠街２號","OBJECTID":507448},"geometry":{"x":175277.28000000212,"y":2570561.6799999997}},{"attributes":{"ID":507476,"DIS_CODE":0,"TOWNNAME":"北區","LI":"振興里","LIN":"15鄰","STREET":"長榮路","SECT":"四段","MAREA":" ","LANE":" ","ALLEY":" ","HOUSE_NO":"１００號","E_COORD97":170304.91,"N_COORD97":2545089.23,"ADDRESS":"長榮路四段１００號","OBJECTID":507449},"geometry":{"x":170304.91000000108,"y":2545089.2300000023}},{"attributes":{"ID":507477,"DIS_CODE":0,"TOWNNAME":"新營區","LI":"新東里","LIN":"15鄰","STREET":"東泰七街","SECT":" ","MAREA":" ","LANE":" ","ALLEY":" ","HOUSE_NO":"６３號","E_COORD97":180964.76000000001,"N_COORD97":2579746.5099999998,"ADDRESS":"東泰七街６３號","OBJECTID":507450},"geometry":{"x":180964.76000000071,"y":2579746.5100000016}},{"attributes":{"ID":507478,"DIS_CODE":0,"TOWNNAME":"新營區","LI":"新東里","LIN":"15鄰","STREET":"東安街","SECT":" ","MAREA":" ","LANE":" ","ALLEY":" ","HOUSE_NO":"１２號","E_COORD97":180951.04000000001,"N_COORD97":2579570.8300000001,"ADDRESS":"東安街１２號","OBJECTID":507451},"geometry":{"x":180951.04000000097,"y":2579570.8300000019}},{"attributes":{"ID":507479,"DIS_CODE":0,"TOWNNAME":"新營區","LI":"民榮里","LIN":"15鄰","STREET":"復興路","SECT":" ","MAREA":" ","LANE":" ","ALLEY":" ","HOUSE_NO":"２４１號","E_COORD97":178831.69,"N_COORD97":2578076.6099999999,"ADDRESS":"復興路２４１號","OBJECTID":507452},"geometry":{"x":178831.69000000134,"y":2578076.6100000013}},{"attributes":{"ID":507480,"DIS_CODE":0,"TOWNNAME":"新營區","LI":"民榮里","LIN":"15鄰","STREET":"復興路","SECT":" ","MAREA":" ","LANE":" ","ALLEY":" ","HOUSE_NO":"２７１號","E_COORD97":178746.92000000001,"N_COORD97":2578102.5,"ADDRESS":"復興路２７１號","OBJECTID":507453},"geometry":{"x":178746.91999999993,"y":2578102.5000000019}},{"attributes":{"ID":507481,"DIS_CODE":0,"TOWNNAME":"新營區","LI":"王公里","LIN":"15鄰","STREET":"大勇街","SECT":" ","MAREA":" ","LANE":" ","ALLEY":" ","HOUSE_NO":"８號","E_COORD97":180209.29000000001,"N_COORD97":2579425.5600000001,"ADDRESS":"大勇街８號","OBJECTID":507454},"geometry":{"x":180209.29000000004,"y":2579425.5600000005}},{"attributes":{"ID":507482,"DIS_CODE":0,"TOWNNAME":"新營區","LI":"新東里","LIN":"15鄰","STREET":"東智街","SECT":" ","MAREA":" ","LANE":" ","ALLEY":" ","HOUSE_NO":"３１號","E_COORD97":180983.64999999999,"N_COORD97":2579613.5299999998,"ADDRESS":"東智街３１號","OBJECTID":507455},"geometry":{"x":180983.65000000037,"y":2579613.5300000012}},{"attributes":{"ID":507483,"DIS_CODE":0,"TOWNNAME":"新營區","LI":"埤寮里","LIN":"15鄰","STREET":"長榮路","SECT":"一段","MAREA":" ","LANE":" ","ALLEY":" ","HOUSE_NO":"３４０號","E_COORD97":181119.32000000001,"N_COORD97":2579926.3100000001,"ADDRESS":"長榮路一段３４０號","OBJECTID":507456},"geometry":{"x":181119.32000000123,"y":2579926.3100000005}},{"attributes":{"ID":507484,"DIS_CODE":0,"TOWNNAME":"新營區","LI":"延平里","LIN":"15鄰","STREET":"復興路","SECT":" ","MAREA":" ","LANE":" ","ALLEY":" ","HOUSE_NO":"８５號","E_COORD97":179557.51000000001,"N_COORD97":2578032.1600000001,"ADDRESS":"復興路８５號","OBJECTID":507457},"geometry":{"x":179557.51000000071,"y":2578032.1600000039}},{"attributes":{"ID":507485,"DIS_CODE":0,"TOWNNAME":"新營區","LI":"中營里","LIN":"15鄰","STREET":"開元路","SECT":" ","MAREA":" ","LANE":" ","ALLEY":" ","HOUSE_NO":"８４之８號","E_COORD97":181401.26999999999,"N_COORD97":2579148.7400000002,"ADDRESS":"開元路８４之８號","OBJECTID":507458},"geometry":{"x":181401.27000000142,"y":2579148.7400000021}},{"attributes":{"ID":507486,"DIS_CODE":0,"TOWNNAME":"新營區","LI":"大宏里","LIN":"15鄰","STREET":"綠川北街","SECT":" ","MAREA":" ","LANE":" ","ALLEY":" ","HOUSE_NO":"３５號","E_COORD97":180658.47,"N_COORD97":2578754.5600000001,"ADDRESS":"綠川北街３５號","OBJECTID":507459},"geometry":{"x":180658.46999999974,"y":2578754.5600000005}},{"attributes":{"ID":507487,"DIS_CODE":0,"TOWNNAME":"新營區","LI":"新北里","LIN":"15鄰","STREET":"南新街","SECT":" ","MAREA":" ","LANE":" ","ALLEY":" ","HOUSE_NO":"３號","E_COORD97":179353.32000000001,"N_COORD97":2578800.5899999999,"ADDRESS":"南新街３號","OBJECTID":507460},"geometry":{"x":179353.3200000003,"y":2578800.5899999999}},{"attributes":{"ID":507488,"DIS_CODE":0,"TOWNNAME":"新營區","LI":"中營里","LIN":"15鄰","STREET":"開元路","SECT":" ","MAREA":" ","LANE":" ","ALLEY":" ","HOUSE_NO":"１１０號","E_COORD97":181669.31,"N_COORD97":2579447.5600000001,"ADDRESS":"開元路１１０號","OBJECTID":507461},"geometry":{"x":181669.31000000052,"y":2579447.5600000024}},{"attributes":{"ID":507489,"DIS_CODE":0,"TOWNNAME":"安平區","LI":"文平里","LIN":"15鄰","STREET":"建平五街","SECT":" ","MAREA":" ","LANE":" ","ALLEY":" ","HOUSE_NO":"２７號","E_COORD97":166066.13,"N_COORD97":2543108.4300000002,"ADDRESS":"建平五街２７號","OBJECTID":507462},"geometry":{"x":166066.13000000175,"y":2543108.4299999997}},{"attributes":{"ID":507490,"DIS_CODE":0,"TOWNNAME":"安平區","LI":"文平里","LIN":"15鄰","STREET":"建平五街","SECT":" ","MAREA":" ","LANE":" ","ALLEY":" ","HOUSE_NO":"２８號","E_COORD97":166069.25,"N_COORD97":2543135.2200000002,"ADDRESS":"建平五街２８號","OBJECTID":507463},"geometry":{"x":166069.25000000093,"y":2543135.2200000044}},{"attributes":{"ID":507491,"DIS_CODE":0,"TOWNNAME":"安平區","LI":"文平里","LIN":"15鄰","STREET":"建平五街","SECT":" ","MAREA":" ","LANE":" ","ALLEY":" ","HOUSE_NO":"２９號","E_COORD97":166061.72,"N_COORD97":2543108.8199999998,"ADDRESS":"建平五街２９號","OBJECTID":507464},"geometry":{"x":166061.71999999974,"y":2543108.8200000003}},{"attributes":{"ID":507492,"DIS_CODE":0,"TOWNNAME":"安平區","LI":"文平里","LIN":"15鄰","STREET":"建平五街","SECT":" ","MAREA":" ","LANE":" ","ALLEY":" ","HOUSE_NO":"３０號","E_COORD97":166064.38,"N_COORD97":2543136.2999999998,"ADDRESS":"建平五街３０號","OBJECTID":507465},"geometry":{"x":166064.37999999896,"y":2543136.3000000026}},{"attributes":{"ID":507493,"DIS_CODE":0,"TOWNNAME":"安平區","LI":"文平里","LIN":"15鄰","STREET":"建平五街","SECT":" ","MAREA":" ","LANE":" ","ALLEY":" ","HOUSE_NO":"３１號","E_COORD97":166057.25,"N_COORD97":2543108.8199999998,"ADDRESS":"建平五街３１號","OBJECTID":507466},"geometry":{"x":166057.25000000093,"y":2543108.8200000003}},{"attributes":{"ID":507494,"DIS_CODE":0,"TOWNNAME":"安平區","LI":"文平里","LIN":"15鄰","STREET":"建平五街","SECT":" ","MAREA":" ","LANE":" ","ALLEY":" ","HOUSE_NO":"３２號","E_COORD97":166058.42999999999,"N_COORD97":2543137.3799999999,"ADDRESS":"建平五街３２號","OBJECTID":507467},"geometry":{"x":166058.4299999997,"y":2543137.379999999}},{"attributes":{"ID":507495,"DIS_CODE":0,"TOWNNAME":"安平區","LI":"文平里","LIN":"15鄰","STREET":"建平五街","SECT":" ","MAREA":" ","LANE":" ","ALLEY":" ","HOUSE_NO":"３５號","E_COORD97":166048.23000000001,"N_COORD97":2543110.0600000001,"ADDRESS":"建平五街３５號","OBJECTID":507468},"geometry":{"x":166048.23000000138,"y":2543110.0600000024}},{"attributes":{"ID":507496,"DIS_CODE":0,"TOWNNAME":"安平區","LI":"文平里","LIN":"15鄰","STREET":"建平五街","SECT":" ","MAREA":" ","LANE":" ","ALLEY":" ","HOUSE_NO":"３７號","E_COORD97":166043.92000000001,"N_COORD97":2543110.6400000001,"ADDRESS":"建平五街３７號","OBJECTID":507469},"geometry":{"x":166043.92000000179,"y":2543110.6400000006}},{"attributes":{"ID":507497,"DIS_CODE":0,"TOWNNAME":"安平區","LI":"文平里","LIN":"15鄰","STREET":"建平五街","SECT":" ","MAREA":" ","LANE":" ","ALLEY":" ","HOUSE_NO":"３９號","E_COORD97":166039.31,"N_COORD97":2543111.3999999999,"ADDRESS":"建平五街３９號","OBJECTID":507470},"geometry":{"x":166039.31000000145,"y":2543111.4000000022}},{"attributes":{"ID":507498,"DIS_CODE":0,"TOWNNAME":"安平區","LI":"文平里","LIN":"15鄰","STREET":"建平五街","SECT":" ","MAREA":" ","LANE":" ","ALLEY":" ","HOUSE_NO":"４１號","E_COORD97":166034.89999999999,"N_COORD97":2543111.6000000001,"ADDRESS":"建平五街４１號","OBJECTID":507471},"geometry":{"x":166034.9000000013,"y":2543111.6000000015}},{"attributes":{"ID":507499,"DIS_CODE":0,"TOWNNAME":"新營區","LI":"埤寮里","LIN":"15鄰","STREET":"長榮路","SECT":"一段","MAREA":" ","LANE":" ","ALLEY":" ","HOUSE_NO":"５１２號","E_COORD97":180284.51000000001,"N_COORD97":2579891.46,"ADDRESS":"長榮路一段５１２號","OBJECTID":507472},"geometry":{"x":180284.51000000164,"y":2579891.4600000009}},{"attributes":{"ID":507500,"DIS_CODE":0,"TOWNNAME":"新營區","LI":"埤寮里","LIN":"15鄰","STREET":"長榮路","SECT":"一段","MAREA":" ","LANE":" ","ALLEY":" ","HOUSE_NO":"５１６號","E_COORD97":180262.06,"N_COORD97":2579902.6400000001,"ADDRESS":"長榮路一段５１６號","OBJECTID":507473},"geometry":{"x":180262.06000000052,"y":2579902.6400000006}},{"attributes":{"ID":507501,"DIS_CODE":0,"TOWNNAME":"新營區","LI":"民權里","LIN":"15鄰","STREET":"仁愛街","SECT":" ","MAREA":" ","LANE":" ","ALLEY":" ","HOUSE_NO":"５６號（房屋拆除）","E_COORD97":179758.31,"N_COORD97":2578539.5299999998,"ADDRESS":"仁愛街５６號（房屋拆除）","OBJECTID":507474},"geometry":{"x":179758.30999999866,"y":2578539.5299999993}},{"attributes":{"ID":507502,"DIS_CODE":0,"TOWNNAME":"新營區","LI":"新東里","LIN":"15鄰","STREET":"東智街","SECT":" ","MAREA":" ","LANE":" ","ALLEY":" ","HOUSE_NO":"４３之２號","E_COORD97":180970.94,"N_COORD97":2579644.6600000001,"ADDRESS":"東智街４３之２號","OBJECTID":507475},"geometry":{"x":180970.94000000134,"y":2579644.6600000001}},{"attributes":{"ID":507503,"DIS_CODE":0,"TOWNNAME":"新營區","LI":"新東里","LIN":"15鄰","STREET":"東智街","SECT":" ","MAREA":" ","LANE":" ","ALLEY":" ","HOUSE_NO":"４３號","E_COORD97":180982.76999999999,"N_COORD97":2579645.6499999999,"ADDRESS":"東智街４３號","OBJECTID":507476},"geometry":{"x":180982.77000000048,"y":2579645.6500000004}},{"attributes":{"ID":507504,"DIS_CODE":0,"TOWNNAME":"新營區","LI":"新東里","LIN":"15鄰","STREET":"東智街","SECT":" ","MAREA":" ","LANE":" ","ALLEY":" ","HOUSE_NO":"４３之８號","E_COORD97":180984.29999999999,"N_COORD97":2579656.79,"ADDRESS":"東智街４３之８號","OBJECTID":507477},"geometry":{"x":180984.30000000168,"y":2579656.7899999991}},{"attributes":{"ID":507505,"DIS_CODE":0,"TOWNNAME":"新營區","LI":"民權里","LIN":"15鄰","STREET":"仁愛街","SECT":" ","MAREA":" ","LANE":" ","ALLEY":" ","HOUSE_NO":"５８號","E_COORD97":179759.28,"N_COORD97":2578529.5600000001,"ADDRESS":"仁愛街５８號","OBJECTID":507478},"geometry":{"x":179759.28000000212,"y":2578529.5600000024}},{"attributes":{"ID":507506,"DIS_CODE":0,"TOWNNAME":"新營區","LI":"王公里","LIN":"15鄰","STREET":"大勇街","SECT":" ","MAREA":" ","LANE":" ","ALLEY":" ","HOUSE_NO":"１６號","E_COORD97":180225.82000000001,"N_COORD97":2579425.4900000002,"ADDRESS":"大勇街１６號","OBJECTID":507479},"geometry":{"x":180225.82000000123,"y":2579425.4900000002}},{"attributes":{"ID":507507,"DIS_CODE":0,"TOWNNAME":"柳營區","LI":"東昇里","LIN":"15鄰","STREET":"中山西路","SECT":"一段","MAREA":" ","LANE":" ","ALLEY":" ","HOUSE_NO":"１７９號","E_COORD97":180471.45999999999,"N_COORD97":2575332.2999999998,"ADDRESS":"中山西路一段１７９號","OBJECTID":507480},"geometry":{"x":180471.46000000183,"y":2575332.3000000007}},{"attributes":{"ID":507508,"DIS_CODE":0,"TOWNNAME":"柳營區","LI":"東昇里","LIN":"15鄰","STREET":"中山西路","SECT":"一段","MAREA":" ","LANE":" ","ALLEY":" ","HOUSE_NO":"１８１號","E_COORD97":180466.88,"N_COORD97":2575332.3199999998,"ADDRESS":"中山西路一段１８１號","OBJECTID":507481},"geometry":{"x":180466.88000000175,"y":2575332.3199999984}},{"attributes":{"ID":507509,"DIS_CODE":0,"TOWNNAME":"柳營區","LI":"東昇里","LIN":"15鄰","STREET":"中山西路","SECT":"一段","MAREA":" ","LANE":" ","ALLEY":" ","HOUSE_NO":"１８３號","E_COORD97":180462.16,"N_COORD97":2575332.25,"ADDRESS":"中山西路一段１８３號","OBJECTID":507482},"geometry":{"x":180462.16000000108,"y":2575332.25}},{"attributes":{"ID":507510,"DIS_CODE":0,"TOWNNAME":"柳營區","LI":"東昇里","LIN":"15鄰","STREET":"中山西路","SECT":"一段","MAREA":" ","LANE":" ","ALLEY":" ","HOUSE_NO":"１８５號","E_COORD97":180452.14000000001,"N_COORD97":2575332.96,"ADDRESS":"中山西路一段１８５號","OBJECTID":507483},"geometry":{"x":180452.13999999966,"y":2575332.9600000028}},{"attributes":{"ID":507511,"DIS_CODE":0,"TOWNNAME":"柳營區","LI":"東昇里","LIN":"15鄰","STREET":"中山西路","SECT":"一段","MAREA":" ","LANE":" ","ALLEY":" ","HOUSE_NO":"１９３號","E_COORD97":180436.41,"N_COORD97":2575332.1899999999,"ADDRESS":"中山西路一段１９３號","OBJECTID":507484},"geometry":{"x":180436.41000000201,"y":2575332.1899999995}},{"attributes":{"ID":507512,"DIS_CODE":0,"TOWNNAME":"柳營區","LI":"東昇里","LIN":"15鄰","STREET":"中山西路","SECT":"一段","MAREA":" ","LANE":" ","ALLEY":" ","HOUSE_NO":"１９７號","E_COORD97":180427.19,"N_COORD97":2575331.8199999998,"ADDRESS":"中山西路一段１９７號","OBJECTID":507485},"geometry":{"x":180427.19000000041,"y":2575331.8200000003}},{"attributes":{"ID":507513,"DIS_CODE":0,"TOWNNAME":"柳營區","LI":"東昇里","LIN":"15鄰","STREET":"中山西路","SECT":"一段","MAREA":" ","LANE":" ","ALLEY":" ","HOUSE_NO":"１９９號","E_COORD97":180419.35999999999,"N_COORD97":2575331.6000000001,"ADDRESS":"中山西路一段１９９號","OBJECTID":507486},"geometry":{"x":180419.36000000034,"y":2575331.6000000015}},{"attributes":{"ID":507514,"DIS_CODE":0,"TOWNNAME":"柳營區","LI":"東昇里","LIN":"15鄰","STREET":"中山西路","SECT":"一段","MAREA":" ","LANE":" ","ALLEY":" ","HOUSE_NO":"２０７號","E_COORD97":180407.12,"N_COORD97":2575331.5299999998,"ADDRESS":"中山西路一段２０７號","OBJECTID":507487},"geometry":{"x":180407.12000000011,"y":2575331.5300000012}},{"attributes":{"ID":507515,"DIS_CODE":0,"TOWNNAME":"柳營區","LI":"東昇里","LIN":"15鄰","STREET":"中山西路","SECT":"一段","MAREA":" ","LANE":" ","ALLEY":" ","HOUSE_NO":"２０９號","E_COORD97":180401.89000000001,"N_COORD97":2575331.7799999998,"ADDRESS":"中山西路一段２０９號","OBJECTID":507488},"geometry":{"x":180401.88999999966,"y":2575331.7800000031}},{"attributes":{"ID":507516,"DIS_CODE":0,"TOWNNAME":"柳營區","LI":"東昇里","LIN":"15鄰","STREET":"中山西路","SECT":"一段","MAREA":" ","LANE":" ","ALLEY":" ","HOUSE_NO":"２１１號","E_COORD97":180397.48000000001,"N_COORD97":2575331.5600000001,"ADDRESS":"中山西路一段２１１號","OBJECTID":507489},"geometry":{"x":180397.48000000138,"y":2575331.5600000024}},{"attributes":{"ID":507517,"DIS_CODE":0,"TOWNNAME":"柳營區","LI":"東昇里","LIN":"15鄰","STREET":"中山西路","SECT":"一段","MAREA":" ","LANE":" ","ALLEY":" ","HOUSE_NO":"２１５號","E_COORD97":180386.10999999999,"N_COORD97":2575332.5099999998,"ADDRESS":"中山西路一段２１５號","OBJECTID":507490},"geometry":{"x":180386.1100000022,"y":2575332.5099999998}},{"attributes":{"ID":507518,"DIS_CODE":0,"TOWNNAME":"柳營區","LI":"東昇里","LIN":"15鄰","STREET":"中山西路","SECT":"一段","MAREA":" ","LANE":" ","ALLEY":" ","HOUSE_NO":"２１９號","E_COORD97":180378.06,"N_COORD97":2575332.7599999998,"ADDRESS":"中山西路一段２１９號","OBJECTID":507491},"geometry":{"x":180378.05999999959,"y":2575332.7600000016}},{"attributes":{"ID":507519,"DIS_CODE":0,"TOWNNAME":"柳營區","LI":"東昇里","LIN":"15鄰","STREET":"中山西路","SECT":"一段","MAREA":" ","LANE":" ","ALLEY":" ","HOUSE_NO":"２２３號","E_COORD97":180367.70000000001,"N_COORD97":2575332.1499999999,"ADDRESS":"中山西路一段２２３號","OBJECTID":507492},"geometry":{"x":180367.70000000019,"y":2575332.1500000004}},{"attributes":{"ID":507520,"DIS_CODE":0,"TOWNNAME":"柳營區","LI":"東昇里","LIN":"15鄰","STREET":"中山西路","SECT":"一段","MAREA":" ","LANE":" ","ALLEY":" ","HOUSE_NO":"２３３號","E_COORD97":180372.31,"N_COORD97":2575332.4199999999,"ADDRESS":"中山西路一段２３３號","OBJECTID":507493},"geometry":{"x":180372.31000000052,"y":2575332.4200000018}},{"attributes":{"ID":507521,"DIS_CODE":0,"TOWNNAME":"柳營區","LI":"東昇里","LIN":"15鄰","STREET":"中山西路","SECT":"一段","MAREA":" ","LANE":" ","ALLEY":" ","HOUSE_NO":"２３５號","E_COORD97":180345.25,"N_COORD97":2575331.3700000001,"ADDRESS":"中山西路一段２３５號","OBJECTID":507494},"geometry":{"x":180345.25,"y":2575331.370000001}},{"attributes":{"ID":507522,"DIS_CODE":0,"TOWNNAME":"柳營區","LI":"東昇里","LIN":"15鄰","STREET":"中山西路","SECT":"一段","MAREA":" ","LANE":" ","ALLEY":" ","HOUSE_NO":"２３７號","E_COORD97":180335.91,"N_COORD97":2575331.2000000002,"ADDRESS":"中山西路一段２３７號","OBJECTID":507495},"geometry":{"x":180335.91000000015,"y":2575331.1999999993}},{"attributes":{"ID":507523,"DIS_CODE":0,"TOWNNAME":"柳營區","LI":"光福里","LIN":"15鄰","STREET":"成功街","SECT":" ","MAREA":" ","LANE":" ","ALLEY":" ","HOUSE_NO":"１８２號","E_COORD97":179801.42000000001,"N_COORD97":2575316.6299999999,"ADDRESS":"成功街１８２號","OBJECTID":507496},"geometry":{"x":179801.41999999993,"y":2575316.6300000008}},{"attributes":{"ID":507524,"DIS_CODE":0,"TOWNNAME":"柳營區","LI":"光福里","LIN":"15鄰","STREET":"成功街","SECT":" ","MAREA":" ","LANE":" ","ALLEY":" ","HOUSE_NO":"１８６號","E_COORD97":179796.20999999999,"N_COORD97":2575315.96,"ADDRESS":"成功街１８６號","OBJECTID":507497},"geometry":{"x":179796.20999999996,"y":2575315.9600000028}},{"attributes":{"ID":507525,"DIS_CODE":0,"TOWNNAME":"柳營區","LI":"光福里","LIN":"15鄰","STREET":"成功街","SECT":" ","MAREA":" ","LANE":" ","ALLEY":" ","HOUSE_NO":"１８８號","E_COORD97":179792.19,"N_COORD97":2575315.2599999998,"ADDRESS":"成功街１８８號","OBJECTID":507498},"geometry":{"x":179792.18999999948,"y":2575315.2599999979}},{"attributes":{"ID":507526,"DIS_CODE":0,"TOWNNAME":"柳營區","LI":"光福里","LIN":"15鄰","STREET":"成功街","SECT":" ","MAREA":" ","LANE":" ","ALLEY":" ","HOUSE_NO":"１９０號","E_COORD97":179788.17000000001,"N_COORD97":2575314.5600000001,"ADDRESS":"成功街１９０號","OBJECTID":507499},"geometry":{"x":179788.16999999993,"y":2575314.5600000024}},{"attributes":{"ID":507527,"DIS_CODE":0,"TOWNNAME":"柳營區","LI":"光福里","LIN":"15鄰","STREET":"成功街","SECT":" ","MAREA":" ","LANE":" ","ALLEY":" ","HOUSE_NO":"１９６號","E_COORD97":179780.64999999999,"N_COORD97":2575309.4100000001,"ADDRESS":"成功街１９６號","OBJECTID":507500},"geometry":{"x":179780.65000000224,"y":2575309.410000002}},{"attributes":{"ID":507528,"DIS_CODE":0,"TOWNNAME":"柳營區","LI":"光福里","LIN":"15鄰","STREET":"成功街","SECT":" ","MAREA":" ","LANE":" ","ALLEY":" ","HOUSE_NO":"１９８號","E_COORD97":179776.79000000001,"N_COORD97":2575307.7799999998,"ADDRESS":"成功街１９８號","OBJECTID":507501},"geometry":{"x":179776.79000000097,"y":2575307.7799999993}},{"attributes":{"ID":507529,"DIS_CODE":0,"TOWNNAME":"柳營區","LI":"東昇里","LIN":"15鄰","STREET":"東南七街","SECT":" ","MAREA":" ","LANE":" ","ALLEY":" ","HOUSE_NO":"１０號","E_COORD97":180340.95000000001,"N_COORD97":2575300.1200000001,"ADDRESS":"東南七街１０號","OBJECTID":507502},"geometry":{"x":180340.95000000019,"y":2575300.120000001}},{"attributes":{"ID":507530,"DIS_CODE":0,"TOWNNAME":"柳營區","LI":"東昇里","LIN":"15鄰","STREET":"東南七街","SECT":" ","MAREA":" ","LANE":" ","ALLEY":" ","HOUSE_NO":"１２號","E_COORD97":180341.10999999999,"N_COORD97":2575304.3399999999,"ADDRESS":"東南七街１２號","OBJECTID":507503},"geometry":{"x":180341.11000000127,"y":2575304.3399999999}},{"attributes":{"ID":507531,"DIS_CODE":0,"TOWNNAME":"柳營區","LI":"東昇里","LIN":"15鄰","STREET":"東南七街","SECT":" ","MAREA":" ","LANE":" ","ALLEY":" ","HOUSE_NO":"６號","E_COORD97":180338.37,"N_COORD97":2575289.7599999998,"ADDRESS":"東南七街６號","OBJECTID":507504},"geometry":{"x":180338.37000000197,"y":2575289.7600000016}},{"attributes":{"ID":507532,"DIS_CODE":0,"TOWNNAME":"柳營區","LI":"東昇里","LIN":"15鄰","STREET":"東南五街","SECT":" ","MAREA":" ","LANE":" ","ALLEY":" ","HOUSE_NO":"１０號","E_COORD97":180393.16,"N_COORD97":2575169.3700000001,"ADDRESS":"東南五街１０號","OBJECTID":507505},"geometry":{"x":180393.16000000015,"y":2575169.370000001}},{"attributes":{"ID":507533,"DIS_CODE":0,"TOWNNAME":"南區","LI":"同安里","LIN":"15鄰","STREET":"明興路","SECT":" ","MAREA":" ","LANE":" ","ALLEY":" ","HOUSE_NO":"１４１９號","E_COORD97":166365.85999999999,"N_COORD97":2535782.6499999999,"ADDRESS":"明興路１４１９號","OBJECTID":507506},"geometry":{"x":166365.86000000127,"y":2535782.6500000022}},{"attributes":{"ID":507534,"DIS_CODE":0,"TOWNNAME":"南區","LI":"同安里","LIN":"15鄰","STREET":"明興路","SECT":" ","MAREA":" ","LANE":" ","ALLEY":" ","HOUSE_NO":"１４２１號","E_COORD97":166365.78,"N_COORD97":2535778.9300000002,"ADDRESS":"明興路１４２１號","OBJECTID":507507},"geometry":{"x":166365.78000000119,"y":2535778.9300000034}},{"attributes":{"ID":507535,"DIS_CODE":0,"TOWNNAME":"歸仁區","LI":"看西里","LIN":"15鄰","STREET":"成功六街","SECT":" ","MAREA":" ","LANE":" ","ALLEY":" ","HOUSE_NO":"５號","E_COORD97":178397.16,"N_COORD97":2540116.1099999999,"ADDRESS":"成功六街５號","OBJECTID":507508},"geometry":{"x":178397.16000000201,"y":2540116.1099999994}},{"attributes":{"ID":507536,"DIS_CODE":0,"TOWNNAME":"歸仁區","LI":"崙頂里","LIN":"15鄰","STREET":"崙頂三街","SECT":" ","MAREA":" ","LANE":" ","ALLEY":" ","HOUSE_NO":"１１號","E_COORD97":177889.70999999999,"N_COORD97":2539882.1099999999,"ADDRESS":"崙頂三街１１號","OBJECTID":507509},"geometry":{"x":177889.71000000183,"y":2539882.1099999994}},{"attributes":{"ID":507537,"DIS_CODE":0,"TOWNNAME":"歸仁區","LI":"許厝里","LIN":"15鄰","STREET":"仁愛六街","SECT":" ","MAREA":" ","LANE":" ","ALLEY":" ","HOUSE_NO":"３５號","E_COORD97":178239.34,"N_COORD97":2540773.5600000001,"ADDRESS":"仁愛六街３５號","OBJECTID":507510},"geometry":{"x":178239.33999999985,"y":2540773.5600000024}},{"attributes":{"ID":507538,"DIS_CODE":0,"TOWNNAME":"歸仁區","LI":"崙頂里","LIN":"15鄰","STREET":"崙頂三街","SECT":" ","MAREA":" ","LANE":" ","ALLEY":" ","HOUSE_NO":"３３號","E_COORD97":177902.10999999999,"N_COORD97":2539909.1099999999,"ADDRESS":"崙頂三街３３號","OBJECTID":507511},"geometry":{"x":177902.11000000034,"y":2539909.1099999994}},{"attributes":{"ID":507539,"DIS_CODE":0,"TOWNNAME":"歸仁區","LI":"許厝里","LIN":"15鄰","STREET":"仁愛六街","SECT":" ","MAREA":" ","LANE":" ","ALLEY":" ","HOUSE_NO":"４９號","E_COORD97":178199.34,"N_COORD97":2540779.5600000001,"ADDRESS":"仁愛六街４９號","OBJECTID":507512},"geometry":{"x":178199.34000000078,"y":2540779.5599999987}},{"attributes":{"ID":507540,"DIS_CODE":0,"TOWNNAME":"歸仁區","LI":"許厝里","LIN":"15鄰","STREET":"仁愛六街","SECT":" ","MAREA":" ","LANE":" ","ALLEY":" ","HOUSE_NO":"４３號","E_COORD97":178212.73999999999,"N_COORD97":2540776.5600000001,"ADDRESS":"仁愛六街４３號","OBJECTID":507513},"geometry":{"x":178212.74000000022,"y":2540776.5600000042}},{"attributes":{"ID":507541,"DIS_CODE":0,"TOWNNAME":"歸仁區","LI":"辜厝里","LIN":"15鄰","STREET":"中正南路","SECT":"一段","MAREA":" ","LANE":" ","ALLEY":" ","HOUSE_NO":"１１４號","E_COORD97":177504.45000000001,"N_COORD97":2540492.6899999999,"ADDRESS":"中正南路一段１１４號","OBJECTID":507514},"geometry":{"x":177504.45000000019,"y":2540492.6899999995}},{"attributes":{"ID":507542,"DIS_CODE":0,"TOWNNAME":"歸仁區","LI":"南興里","LIN":"15鄰","STREET":"文化街","SECT":"三段","MAREA":" ","LANE":" ","ALLEY":" ","HOUSE_NO":"５４０號","E_COORD97":175755.82000000001,"N_COORD97":2541211.2599999998,"ADDRESS":"文化街三段５４０號","OBJECTID":507515},"geometry":{"x":175755.82000000123,"y":2541211.2599999998}},{"attributes":{"ID":507543,"DIS_CODE":0,"TOWNNAME":"歸仁區","LI":"新厝里","LIN":"15鄰","STREET":"大成路","SECT":" ","MAREA":" ","LANE":" ","ALLEY":" ","HOUSE_NO":"１６號","E_COORD97":177556.57000000001,"N_COORD97":2540456.5899999999,"ADDRESS":"大成路１６號","OBJECTID":507516},"geometry":{"x":177556.5700000003,"y":2540456.589999998}},{"attributes":{"ID":507544,"DIS_CODE":0,"TOWNNAME":"歸仁區","LI":"南興里","LIN":"15鄰","STREET":"文化街","SECT":"三段","MAREA":" ","LANE":" ","ALLEY":" ","HOUSE_NO":"５４６號","E_COORD97":175751.72,"N_COORD97":2541210.2599999998,"ADDRESS":"文化街三段５４６號","OBJECTID":507517},"geometry":{"x":175751.7200000016,"y":2541210.2599999998}},{"attributes":{"ID":507545,"DIS_CODE":0,"TOWNNAME":"歸仁區","LI":"六甲里","LIN":"15鄰","STREET":"六甲一街","SECT":" ","MAREA":" ","LANE":" ","ALLEY":" ","HOUSE_NO":"６號","E_COORD97":175839.32000000001,"N_COORD97":2539188.25,"ADDRESS":"六甲一街６號","OBJECTID":507518},"geometry":{"x":175839.3200000003,"y":2539188.2500000019}},{"attributes":{"ID":507546,"DIS_CODE":0,"TOWNNAME":"歸仁區","LI":"六甲里","LIN":"15鄰","STREET":"六甲一街","SECT":" ","MAREA":" ","LANE":" ","ALLEY":" ","HOUSE_NO":"１０號","E_COORD97":175840.47,"N_COORD97":2539179.25,"ADDRESS":"六甲一街１０號","OBJECTID":507519},"geometry":{"x":175840.47000000067,"y":2539179.2500000019}},{"attributes":{"ID":507547,"DIS_CODE":0,"TOWNNAME":"歸仁區","LI":"看東里","LIN":"15鄰","STREET":"中山一街","SECT":" ","MAREA":" ","LANE":" ","ALLEY":" ","HOUSE_NO":"３７號","E_COORD97":178647.04000000001,"N_COORD97":2540523.48,"ADDRESS":"中山一街３７號","OBJECTID":507520},"geometry":{"x":178647.0400000019,"y":2540523.4800000023}},{"attributes":{"ID":507548,"DIS_CODE":0,"TOWNNAME":"歸仁區","LI":"看東里","LIN":"15鄰","STREET":"中山路","SECT":"一段","MAREA":" ","LANE":" ","ALLEY":" ","HOUSE_NO":"１７５號","E_COORD97":178877.91,"N_COORD97":2540484.25,"ADDRESS":"中山路一段１７５號","OBJECTID":507521},"geometry":{"x":178877.91000000015,"y":2540484.2500000019}},{"attributes":{"ID":507549,"DIS_CODE":0,"TOWNNAME":"歸仁區","LI":"西埔里","LIN":"15鄰","STREET":"西埔一街","SECT":" ","MAREA":" ","LANE":" ","ALLEY":" ","HOUSE_NO":"２４１號","E_COORD97":177061.98999999999,"N_COORD97":2544837.9500000002,"ADDRESS":"西埔一街２４１號","OBJECTID":507522},"geometry":{"x":177061.99000000022,"y":2544837.9500000011}},{"attributes":{"ID":507550,"DIS_CODE":0,"TOWNNAME":"歸仁區","LI":"六甲里","LIN":"15鄰","STREET":"六甲一街","SECT":" ","MAREA":" ","LANE":" ","ALLEY":" ","HOUSE_NO":"２４號","E_COORD97":175841.37,"N_COORD97":2539152.25,"ADDRESS":"六甲一街２４號","OBJECTID":507523},"geometry":{"x":175841.37000000104,"y":2539152.2500000019}},{"attributes":{"ID":507551,"DIS_CODE":0,"TOWNNAME":"歸仁區","LI":"看東里","LIN":"15鄰","STREET":"中山一街","SECT":" ","MAREA":" ","LANE":" ","ALLEY":" ","HOUSE_NO":"９９號","E_COORD97":178785.81,"N_COORD97":2540421.25,"ADDRESS":"中山一街９９號","OBJECTID":507524},"geometry":{"x":178785.81000000052,"y":2540421.25}},{"attributes":{"ID":507552,"DIS_CODE":0,"TOWNNAME":"歸仁區","LI":"六甲里","LIN":"15鄰","STREET":"六甲一街","SECT":" ","MAREA":" ","LANE":" ","ALLEY":" ","HOUSE_NO":"１２號","E_COORD97":175840.47,"N_COORD97":2539175.25,"ADDRESS":"六甲一街１２號","OBJECTID":507525},"geometry":{"x":175840.47000000067,"y":2539175.2500000019}},{"attributes":{"ID":507553,"DIS_CODE":0,"TOWNNAME":"歸仁區","LI":"西埔里","LIN":"15鄰","STREET":"西埔二街","SECT":" ","MAREA":" ","LANE":" ","ALLEY":" ","HOUSE_NO":"７２號","E_COORD97":176857.44,"N_COORD97":2544786.25,"ADDRESS":"西埔二街７２號","OBJECTID":507526},"geometry":{"x":176857.44000000041,"y":2544786.2500000019}},{"attributes":{"ID":507554,"DIS_CODE":0,"TOWNNAME":"歸仁區","LI":"看東里","LIN":"15鄰","STREET":"中山一街","SECT":" ","MAREA":" ","LANE":" ","ALLEY":" ","HOUSE_NO":"１３１號","E_COORD97":178680.70999999999,"N_COORD97":2540281.6800000002,"ADDRESS":"中山一街１３１號","OBJECTID":507527},"geometry":{"x":178680.70999999996,"y":2540281.6799999997}},{"attributes":{"ID":507555,"DIS_CODE":0,"TOWNNAME":"歸仁區","LI":"六甲里","LIN":"15鄰","STREET":"六甲一街","SECT":" ","MAREA":" ","LANE":" ","ALLEY":" ","HOUSE_NO":"８號","E_COORD97":175839.22,"N_COORD97":2539184.25,"ADDRESS":"六甲一街８號","OBJECTID":507528},"geometry":{"x":175839.21999999974,"y":2539184.2499999981}},{"attributes":{"ID":507556,"DIS_CODE":0,"TOWNNAME":"歸仁區","LI":"六甲里","LIN":"15鄰","STREET":"六甲一街","SECT":" ","MAREA":" ","LANE":" ","ALLEY":" ","HOUSE_NO":"３４號","E_COORD97":175840.26999999999,"N_COORD97":2539133.25,"ADDRESS":"六甲一街３４號","OBJECTID":507529},"geometry":{"x":175840.26999999955,"y":2539133.25}},{"attributes":{"ID":507557,"DIS_CODE":0,"TOWNNAME":"歸仁區","LI":"西埔里","LIN":"15鄰","STREET":"西埔二街","SECT":" ","MAREA":" ","LANE":" ","ALLEY":" ","HOUSE_NO":"９０號","E_COORD97":176833.94,"N_COORD97":2544816.25,"ADDRESS":"西埔二街９０號","OBJECTID":507530},"geometry":{"x":176833.94000000041,"y":2544816.2500000019}},{"attributes":{"ID":507558,"DIS_CODE":0,"TOWNNAME":"歸仁區","LI":"六甲里","LIN":"15鄰","STREET":"六甲一街","SECT":" ","MAREA":" ","LANE":" ","ALLEY":" ","HOUSE_NO":"１４號","E_COORD97":175840.47,"N_COORD97":2539172.25,"ADDRESS":"六甲一街１４號","OBJECTID":507531},"geometry":{"x":175840.47000000067,"y":2539172.2500000019}},{"attributes":{"ID":507559,"DIS_CODE":0,"TOWNNAME":"歸仁區","LI":"六甲里","LIN":"15鄰","STREET":"六甲一街","SECT":" ","MAREA":" ","LANE":" ","ALLEY":" ","HOUSE_NO":"４６號","E_COORD97":175839.17000000001,"N_COORD97":2539112.25,"ADDRESS":"六甲一街４６號","OBJECTID":507532},"geometry":{"x":175839.17000000086,"y":2539112.25}},{"attributes":{"ID":507560,"DIS_CODE":0,"TOWNNAME":"歸仁區","LI":"六甲里","LIN":"15鄰","STREET":"六甲一街","SECT":" ","MAREA":" ","LANE":" ","ALLEY":" ","HOUSE_NO":"２０號","E_COORD97":175841.47,"N_COORD97":2539159.25,"ADDRESS":"六甲一街２０號","OBJECTID":507533},"geometry":{"x":175841.46999999881,"y":2539159.25}},{"attributes":{"ID":507561,"DIS_CODE":0,"TOWNNAME":"歸仁區","LI":"六甲里","LIN":"15鄰","STREET":"六甲一街","SECT":" ","MAREA":" ","LANE":" ","ALLEY":" ","HOUSE_NO":"３２號","E_COORD97":175840.26999999999,"N_COORD97":2539136.25,"ADDRESS":"六甲一街３２號","OBJECTID":507534},"geometry":{"x":175840.26999999955,"y":2539136.25}},{"attributes":{"ID":507562,"DIS_CODE":0,"TOWNNAME":"歸仁區","LI":"六甲里","LIN":"15鄰","STREET":"六甲一街","SECT":" ","MAREA":" ","LANE":" ","ALLEY":" ","HOUSE_NO":"２號","E_COORD97":175838.32000000001,"N_COORD97":2539193.25,"ADDRESS":"六甲一街２號","OBJECTID":507535},"geometry":{"x":175838.32000000123,"y":2539193.25}},{"attributes":{"ID":507563,"DIS_CODE":0,"TOWNNAME":"歸仁區","LI":"六甲里","LIN":"15鄰","STREET":"六甲一街","SECT":" ","MAREA":" ","LANE":" ","ALLEY":" ","HOUSE_NO":"４８號","E_COORD97":175839.07000000001,"N_COORD97":2539107.25,"ADDRESS":"六甲一街４８號","OBJECTID":507536},"geometry":{"x":175839.0700000003,"y":2539107.2500000019}},{"attributes":{"ID":507564,"DIS_CODE":0,"TOWNNAME":"歸仁區","LI":"西埔里","LIN":"15鄰","STREET":"西埔一街","SECT":" ","MAREA":" ","LANE":" ","ALLEY":" ","HOUSE_NO":"２３１號","E_COORD97":177028.98999999999,"N_COORD97":2544784.9500000002,"ADDRESS":"西埔一街２３１號","OBJECTID":507537},"geometry":{"x":177028.99000000115,"y":2544784.9499999993}},{"attributes":{"ID":507565,"DIS_CODE":0,"TOWNNAME":"歸仁區","LI":"西埔里","LIN":"15鄰","STREET":"西埔二街","SECT":" ","MAREA":" ","LANE":" ","ALLEY":" ","HOUSE_NO":"７６號","E_COORD97":176852.34,"N_COORD97":2544797.25,"ADDRESS":"西埔二街７６號","OBJECTID":507538},"geometry":{"x":176852.33999999985,"y":2544797.2500000019}},{"attributes":{"ID":507566,"DIS_CODE":0,"TOWNNAME":"歸仁區","LI":"武東里","LIN":"15鄰","STREET":"高鐵六路","SECT":" ","MAREA":" ","LANE":" ","ALLEY":" ","HOUSE_NO":"６１號","E_COORD97":176055.23999999999,"N_COORD97":2536134.25,"ADDRESS":"高鐵六路６１號","OBJECTID":507539},"geometry":{"x":176055.24000000022,"y":2536134.2500000019}},{"attributes":{"ID":507567,"DIS_CODE":0,"TOWNNAME":"歸仁區","LI":"西埔里","LIN":"15鄰","STREET":"西埔二街","SECT":" ","MAREA":" ","LANE":" ","ALLEY":" ","HOUSE_NO":"８６號","E_COORD97":176855.54000000001,"N_COORD97":2544821.25,"ADDRESS":"西埔二街８６號","OBJECTID":507540},"geometry":{"x":176855.54000000097,"y":2544821.25}},{"attributes":{"ID":507568,"DIS_CODE":0,"TOWNNAME":"歸仁區","LI":"武東里","LIN":"15鄰","STREET":"高鐵十二路","SECT":" ","MAREA":" ","LANE":" ","ALLEY":" ","HOUSE_NO":"７３號","E_COORD97":175878.45999999999,"N_COORD97":2536260.21,"ADDRESS":"高鐵十二路７３號","OBJECTID":507541},"geometry":{"x":175878.45999999996,"y":2536260.2100000028}},{"attributes":{"ID":507569,"DIS_CODE":0,"TOWNNAME":"歸仁區","LI":"武東里","LIN":"15鄰","STREET":"高鐵十二路","SECT":" ","MAREA":" ","LANE":" ","ALLEY":" ","HOUSE_NO":"８３號","E_COORD97":175886.76000000001,"N_COORD97":2536279.21,"ADDRESS":"高鐵十二路８３號","OBJECTID":507542},"geometry":{"x":175886.75999999978,"y":2536279.2100000009}},{"attributes":{"ID":507570,"DIS_CODE":0,"TOWNNAME":"歸仁區","LI":"南興里","LIN":"15鄰","STREET":"文化街","SECT":"三段","MAREA":" ","LANE":" ","ALLEY":" ","HOUSE_NO":"５３２號","E_COORD97":175783.23999999999,"N_COORD97":2541214.3300000001,"ADDRESS":"文化街三段５３２號","OBJECTID":507543},"geometry":{"x":175783.24000000115,"y":2541214.3300000001}},{"attributes":{"ID":507571,"DIS_CODE":0,"TOWNNAME":"玉井區","LI":"玉井里","LIN":"15鄰","STREET":"中正路","SECT":" ","MAREA":" ","LANE":" ","ALLEY":" ","HOUSE_NO":"１１８號","E_COORD97":194856.95999999999,"N_COORD97":2558164.2400000002,"ADDRESS":"中正路１１８號","OBJECTID":507544},"geometry":{"x":194856.96000000183,"y":2558164.2400000039}},{"attributes":{"ID":507572,"DIS_CODE":0,"TOWNNAME":"玉井區","LI":"玉井里","LIN":"15鄰","STREET":"中正路","SECT":" ","MAREA":" ","LANE":" ","ALLEY":" ","HOUSE_NO":"１１０號","E_COORD97":194851.45999999999,"N_COORD97":2558153.25,"ADDRESS":"中正路１１０號","OBJECTID":507545},"geometry":{"x":194851.45999999996,"y":2558153.25}},{"attributes":{"ID":507573,"DIS_CODE":0,"TOWNNAME":"玉井區","LI":"玉井里","LIN":"15鄰","STREET":"中華路","SECT":" ","MAREA":" ","LANE":" ","ALLEY":" ","HOUSE_NO":"２０號","E_COORD97":194918.60000000001,"N_COORD97":2558142.25,"ADDRESS":"中華路２０號","OBJECTID":507546},"geometry":{"x":194918.60000000056,"y":2558142.25}},{"attributes":{"ID":507574,"DIS_CODE":0,"TOWNNAME":"玉井區","LI":"玉井里","LIN":"15鄰","STREET":"中正路","SECT":" ","MAREA":" ","LANE":" ","ALLEY":" ","HOUSE_NO":"１１６號","E_COORD97":194855.76000000001,"N_COORD97":2558161.2400000002,"ADDRESS":"中正路１１６號","OBJECTID":507547},"geometry":{"x":194855.75999999978,"y":2558161.2400000021}},{"attributes":{"ID":507575,"DIS_CODE":0,"TOWNNAME":"玉井區","LI":"玉井里","LIN":"15鄰","STREET":"中正路","SECT":" ","MAREA":" ","LANE":" ","ALLEY":" ","HOUSE_NO":"１０８號","E_COORD97":194848.85000000001,"N_COORD97":2558149.25,"ADDRESS":"中正路１０８號","OBJECTID":507548},"geometry":{"x":194848.85000000149,"y":2558149.25}},{"attributes":{"ID":507576,"DIS_CODE":0,"TOWNNAME":"玉井區","LI":"玉井里","LIN":"15鄰","STREET":"中正路","SECT":" ","MAREA":" ","LANE":" ","ALLEY":" ","HOUSE_NO":"１２０號","E_COORD97":194859.95999999999,"N_COORD97":2558168.2400000002,"ADDRESS":"中正路１２０號","OBJECTID":507549},"geometry":{"x":194859.95999999996,"y":2558168.2400000021}},{"attributes":{"ID":507577,"DIS_CODE":0,"TOWNNAME":"玉井區","LI":"玉井里","LIN":"15鄰","STREET":"中華路","SECT":" ","MAREA":" ","LANE":" ","ALLEY":" ","HOUSE_NO":"１２號","E_COORD97":194919.81,"N_COORD97":2558160.2400000002,"ADDRESS":"中華路１２號","OBJECTID":507550},"geometry":{"x":194919.80999999959,"y":2558160.2400000002}},{"attributes":{"ID":507578,"DIS_CODE":0,"TOWNNAME":"玉井區","LI":"玉井里","LIN":"15鄰","STREET":"中正路","SECT":" ","MAREA":" ","LANE":" ","ALLEY":" ","HOUSE_NO":"１２４號","E_COORD97":194865.45999999999,"N_COORD97":2558174.2400000002,"ADDRESS":"中正路１２４號","OBJECTID":507551},"geometry":{"x":194865.46000000089,"y":2558174.2400000039}},{"attributes":{"ID":507579,"DIS_CODE":0,"TOWNNAME":"玉井區","LI":"玉井里","LIN":"15鄰","STREET":"中華路","SECT":" ","MAREA":" ","LANE":" ","ALLEY":" ","HOUSE_NO":"１４號","E_COORD97":194919.60000000001,"N_COORD97":2558154.25,"ADDRESS":"中華路１４號","OBJECTID":507552},"geometry":{"x":194919.59999999963,"y":2558154.2500000019}},{"attributes":{"ID":507580,"DIS_CODE":0,"TOWNNAME":"玉井區","LI":"玉井里","LIN":"15鄰","STREET":"中華路","SECT":" ","MAREA":" ","LANE":" ","ALLEY":" ","HOUSE_NO":"２６號","E_COORD97":194918.31,"N_COORD97":2558136.25,"ADDRESS":"中華路２６號","OBJECTID":507553},"geometry":{"x":194918.30999999959,"y":2558136.25}},{"attributes":{"ID":507581,"DIS_CODE":0,"TOWNNAME":"玉井區","LI":"玉井里","LIN":"15鄰","STREET":"中正路","SECT":" ","MAREA":" ","LANE":" ","ALLEY":" ","HOUSE_NO":"１１４號","E_COORD97":194854.45999999999,"N_COORD97":2558159.25,"ADDRESS":"中正路１１４號","OBJECTID":507554},"geometry":{"x":194854.45999999996,"y":2558159.25}},{"attributes":{"ID":507582,"DIS_CODE":0,"TOWNNAME":"玉井區","LI":"玉井里","LIN":"15鄰","STREET":"中華路","SECT":" ","MAREA":" ","LANE":" ","ALLEY":" ","HOUSE_NO":"２８號","E_COORD97":194917.89999999999,"N_COORD97":2558133.25,"ADDRESS":"中華路２８號","OBJECTID":507555},"geometry":{"x":194917.90000000037,"y":2558133.2500000037}},{"attributes":{"ID":507583,"DIS_CODE":0,"TOWNNAME":"玉井區","LI":"玉井里","LIN":"15鄰","STREET":"中正路","SECT":" ","MAREA":" ","LANE":" ","ALLEY":" ","HOUSE_NO":"１２６號","E_COORD97":194868.95999999999,"N_COORD97":2558180.2400000002,"ADDRESS":"中正路１２６號","OBJECTID":507556},"geometry":{"x":194868.96000000089,"y":2558180.2400000002}},{"attributes":{"ID":507584,"DIS_CODE":0,"TOWNNAME":"玉井區","LI":"玉田里","LIN":"15鄰","STREET":"中正路","SECT":" ","MAREA":" ","LANE":" ","ALLEY":" ","HOUSE_NO":"３號","E_COORD97":194611.04999999999,"N_COORD97":2557909.25,"ADDRESS":"中正路３號","OBJECTID":507557},"geometry":{"x":194611.05000000075,"y":2557909.25}},{"attributes":{"ID":507585,"DIS_CODE":0,"TOWNNAME":"玉井區","LI":"玉井里","LIN":"15鄰","STREET":"中華路","SECT":" ","MAREA":" ","LANE":" ","ALLEY":" ","HOUSE_NO":"１６號","E_COORD97":194919.51000000001,"N_COORD97":2558149.25,"ADDRESS":"中華路１６號","OBJECTID":507558},"geometry":{"x":194919.51000000071,"y":2558149.25}},{"attributes":{"ID":507586,"DIS_CODE":0,"TOWNNAME":"玉井區","LI":"玉田里","LIN":"15鄰","STREET":"中正路","SECT":" ","MAREA":" ","LANE":" ","ALLEY":" ","HOUSE_NO":"２６號","E_COORD97":194644.81,"N_COORD97":2557909.25,"ADDRESS":"中正路２６號","OBJECTID":507559},"geometry":{"x":194644.80999999959,"y":2557909.25}},{"attributes":{"ID":507587,"DIS_CODE":0,"TOWNNAME":"玉井區","LI":"玉井里","LIN":"15鄰","STREET":"中華路","SECT":" ","MAREA":" ","LANE":" ","ALLEY":" ","HOUSE_NO":"６號","E_COORD97":194911.14999999999,"N_COORD97":2558174.2400000002,"ADDRESS":"中華路６號","OBJECTID":507560},"geometry":{"x":194911.15000000037,"y":2558174.2400000039}},{"attributes":{"ID":507588,"DIS_CODE":0,"TOWNNAME":"玉井區","LI":"玉井里","LIN":"15鄰","STREET":"中正路","SECT":" ","MAREA":" ","LANE":" ","ALLEY":" ","HOUSE_NO":"１２２號","E_COORD97":194862.25,"N_COORD97":2558171.2400000002,"ADDRESS":"中正路１２２號","OBJECTID":507561},"geometry":{"x":194862.25000000093,"y":2558171.2400000021}},{"attributes":{"ID":507589,"DIS_CODE":0,"TOWNNAME":"歸仁區","LI":"六甲里","LIN":"15鄰","STREET":"六甲一街","SECT":" ","MAREA":" ","LANE":" ","ALLEY":" ","HOUSE_NO":"２６號","E_COORD97":175834.42999999999,"N_COORD97":2539147.25,"ADDRESS":"六甲一街２６號","OBJECTID":507562},"geometry":{"x":175834.4299999997,"y":2539147.2500000037}},{"attributes":{"ID":507590,"DIS_CODE":0,"TOWNNAME":"玉井區","LI":"玉田里","LIN":"15鄰","STREET":"中正路","SECT":" ","MAREA":" ","LANE":" ","ALLEY":" ","HOUSE_NO":"２４號","E_COORD97":194642.70999999999,"N_COORD97":2557903.25,"ADDRESS":"中正路２４號","OBJECTID":507563},"geometry":{"x":194642.70999999996,"y":2557903.2500000019}},{"attributes":{"ID":507591,"DIS_CODE":0,"TOWNNAME":"玉井區","LI":"竹圍里","LIN":"15鄰","STREET":"仁愛街","SECT":" ","MAREA":" ","LANE":" ","ALLEY":" ","HOUSE_NO":"２５３號","E_COORD97":195366.62,"N_COORD97":2558343.96,"ADDRESS":"仁愛街２５３號","OBJECTID":507564},"geometry":{"x":195366.62000000104,"y":2558343.9600000028}},{"attributes":{"ID":507592,"DIS_CODE":0,"TOWNNAME":"歸仁區","LI":"新厝里","LIN":"15鄰","STREET":"大成路","SECT":" ","MAREA":" ","LANE":" ","ALLEY":" ","HOUSE_NO":"２號","E_COORD97":177540.01999999999,"N_COORD97":2540474.5899999999,"ADDRESS":"大成路２號","OBJECTID":507565},"geometry":{"x":177540.02000000048,"y":2540474.5900000017}},{"attributes":{"ID":507593,"DIS_CODE":0,"TOWNNAME":"歸仁區","LI":"新厝里","LIN":"15鄰","STREET":"大成路","SECT":" ","MAREA":" ","LANE":" ","ALLEY":" ","HOUSE_NO":"１４號","E_COORD97":177553.47,"N_COORD97":2540458.5899999999,"ADDRESS":"大成路１４號","OBJECTID":507566},"geometry":{"x":177553.46999999974,"y":2540458.5899999999}},{"attributes":{"ID":507594,"DIS_CODE":0,"TOWNNAME":"歸仁區","LI":"新厝里","LIN":"15鄰","STREET":"大成路","SECT":" ","MAREA":" ","LANE":" ","ALLEY":" ","HOUSE_NO":"１２號","E_COORD97":177550.47,"N_COORD97":2540461.5899999999,"ADDRESS":"大成路１２號","OBJECTID":507567},"geometry":{"x":177550.4700000016,"y":2540461.5900000017}},{"attributes":{"ID":507595,"DIS_CODE":0,"TOWNNAME":"歸仁區","LI":"歸仁里","LIN":"15鄰","STREET":"信義北路","SECT":" ","MAREA":" ","LANE":" ","ALLEY":" ","HOUSE_NO":"９０號","E_COORD97":177999.37,"N_COORD97":2541034.1099999999,"ADDRESS":"信義北路９０號","OBJECTID":507568},"geometry":{"x":177999.37000000104,"y":2541034.1100000013}},{"attributes":{"ID":507596,"DIS_CODE":0,"TOWNNAME":"歸仁區","LI":"歸南里","LIN":"15鄰","STREET":"民生南街","SECT":"二段","MAREA":" ","LANE":" ","ALLEY":" ","HOUSE_NO":"３７５號","E_COORD97":176134.66,"N_COORD97":2539788.25,"ADDRESS":"民生南街二段３７５號","OBJECTID":507569},"geometry":{"x":176134.66000000108,"y":2539788.2500000019}},{"attributes":{"ID":507597,"DIS_CODE":0,"TOWNNAME":"麻豆區","LI":"東角里","LIN":"15鄰","STREET":"民生路","SECT":" ","MAREA":" ","LANE":" ","ALLEY":" ","HOUSE_NO":"３５號之３","E_COORD97":173692.70999999999,"N_COORD97":2564577.77,"ADDRESS":"民生路３５號之３","OBJECTID":507570},"geometry":{"x":173692.71000000089,"y":2564577.7700000033}},{"attributes":{"ID":507598,"DIS_CODE":0,"TOWNNAME":"麻豆區","LI":"東角里","LIN":"15鄰","STREET":"民生路","SECT":" ","MAREA":" ","LANE":" ","ALLEY":" ","HOUSE_NO":"３５號之４","E_COORD97":173704.41,"N_COORD97":2564592.27,"ADDRESS":"民生路３５號之４","OBJECTID":507571},"geometry":{"x":173704.41000000015,"y":2564592.2700000014}},{"attributes":{"ID":507599,"DIS_CODE":0,"TOWNNAME":"麻豆區","LI":"東角里","LIN":"15鄰","STREET":"民生路","SECT":" ","MAREA":" ","LANE":" ","ALLEY":" ","HOUSE_NO":"３５號之５","E_COORD97":173709.75,"N_COORD97":2564594.5699999998,"ADDRESS":"民生路３５號之５","OBJECTID":507572},"geometry":{"x":173709.75000000093,"y":2564594.5700000022}},{"attributes":{"ID":507600,"DIS_CODE":0,"TOWNNAME":"麻豆區","LI":"東角里","LIN":"15鄰","STREET":"民生路","SECT":" ","MAREA":" ","LANE":" ","ALLEY":" ","HOUSE_NO":"３５號之６","E_COORD97":173715.13,"N_COORD97":2564597.3599999999,"ADDRESS":"民生路３５號之６","OBJECTID":507573},"geometry":{"x":173715.13000000082,"y":2564597.3600000031}},{"attributes":{"ID":507601,"DIS_CODE":0,"TOWNNAME":"麻豆區","LI":"東角里","LIN":"15鄰","STREET":"民生路","SECT":" ","MAREA":" ","LANE":" ","ALLEY":" ","HOUSE_NO":"３５號之７","E_COORD97":173719.70999999999,"N_COORD97":2564599.8599999999,"ADDRESS":"民生路３５號之７","OBJECTID":507574},"geometry":{"x":173719.71000000089,"y":2564599.8599999994}},{"attributes":{"ID":507602,"DIS_CODE":0,"TOWNNAME":"麻豆區","LI":"東角里","LIN":"15鄰","STREET":"民生路","SECT":" ","MAREA":" ","LANE":" ","ALLEY":" ","HOUSE_NO":"３５號之８","E_COORD97":173725.14000000001,"N_COORD97":2564602.5899999999,"ADDRESS":"民生路３５號之８","OBJECTID":507575},"geometry":{"x":173725.1400000006,"y":2564602.5899999999}},{"attributes":{"ID":507603,"DIS_CODE":0,"TOWNNAME":"麻豆區","LI":"東角里","LIN":"15鄰","STREET":"民生路","SECT":" ","MAREA":" ","LANE":" ","ALLEY":" ","HOUSE_NO":"３５號之９","E_COORD97":173730.79000000001,"N_COORD97":2564605.9900000002,"ADDRESS":"民生路３５號之９","OBJECTID":507576},"geometry":{"x":173730.78999999911,"y":2564605.9900000002}},{"attributes":{"ID":507604,"DIS_CODE":0,"TOWNNAME":"麻豆區","LI":"東角里","LIN":"15鄰","STREET":"民生路","SECT":" ","MAREA":" ","LANE":" ","ALLEY":" ","HOUSE_NO":"３５號","E_COORD97":173684.10000000001,"N_COORD97":2564589.3500000001,"ADDRESS":"民生路３５號","OBJECTID":507577},"geometry":{"x":173684.09999999963,"y":2564589.3499999996}},{"attributes":{"ID":507605,"DIS_CODE":0,"TOWNNAME":"麻豆區","LI":"東角里","LIN":"15鄰","STREET":"民生路","SECT":" ","MAREA":" ","LANE":" ","ALLEY":" ","HOUSE_NO":"３５號之１０","E_COORD97":173737.67000000001,"N_COORD97":2564609.6600000001,"ADDRESS":"民生路３５號之１０","OBJECTID":507578},"geometry":{"x":173737.66999999993,"y":2564609.6600000039}},{"attributes":{"ID":507606,"DIS_CODE":0,"TOWNNAME":"麻豆區","LI":"東角里","LIN":"15鄰","STREET":"民生路","SECT":" ","MAREA":" ","LANE":" ","ALLEY":" ","HOUSE_NO":"３５號之１５","E_COORD97":173762.10999999999,"N_COORD97":2564618.6499999999,"ADDRESS":"民生路３５號之１５","OBJECTID":507579},"geometry":{"x":173762.11000000127,"y":2564618.6500000004}},{"attributes":{"ID":507607,"DIS_CODE":0,"TOWNNAME":"麻豆區","LI":"東角里","LIN":"15鄰","STREET":"民生路","SECT":" ","MAREA":" ","LANE":" ","ALLEY":" ","HOUSE_NO":"３７號之１０","E_COORD97":173755.42999999999,"N_COORD97":2564590.4300000002,"ADDRESS":"民生路３７號之１０","OBJECTID":507580},"geometry":{"x":173755.43000000063,"y":2564590.4300000034}},{"attributes":{"ID":507608,"DIS_CODE":0,"TOWNNAME":"麻豆區","LI":"東角里","LIN":"15鄰","STREET":"民生路","SECT":" ","MAREA":" ","LANE":" ","ALLEY":" ","HOUSE_NO":"３７號之１１","E_COORD97":173761.48000000001,"N_COORD97":2564593.3599999999,"ADDRESS":"民生路３７號之１１","OBJECTID":507581},"geometry":{"x":173761.48000000045,"y":2564593.3599999994}},{"attributes":{"ID":507609,"DIS_CODE":0,"TOWNNAME":"麻豆區","LI":"東角里","LIN":"15鄰","STREET":"民生路","SECT":" ","MAREA":" ","LANE":" ","ALLEY":" ","HOUSE_NO":"３７號之１","E_COORD97":173707.06,"N_COORD97":2564567.54,"ADDRESS":"民生路３７號之１","OBJECTID":507582},"geometry":{"x":173707.06000000052,"y":2564567.5399999991}},{"attributes":{"ID":507610,"DIS_CODE":0,"TOWNNAME":"麻豆區","LI":"東角里","LIN":"15鄰","STREET":"民生路","SECT":" ","MAREA":" ","LANE":" ","ALLEY":" ","HOUSE_NO":"３７號之２","E_COORD97":173711.09,"N_COORD97":2564564.25,"ADDRESS":"民生路３７號之２","OBJECTID":507583},"geometry":{"x":173711.08999999985,"y":2564564.25}},{"attributes":{"ID":507611,"DIS_CODE":0,"TOWNNAME":"麻豆區","LI":"東角里","LIN":"15鄰","STREET":"民生路","SECT":" ","MAREA":" ","LANE":" ","ALLEY":" ","HOUSE_NO":"３７號之３","E_COORD97":173714.34,"N_COORD97":2564560.6499999999,"ADDRESS":"民生路３７號之３","OBJECTID":507584},"geometry":{"x":173714.33999999985,"y":2564560.6500000022}},{"attributes":{"ID":507612,"DIS_CODE":0,"TOWNNAME":"麻豆區","LI":"東角里","LIN":"15鄰","STREET":"民生路","SECT":" ","MAREA":" ","LANE":" ","ALLEY":" ","HOUSE_NO":"３７號之４","E_COORD97":173725.64000000001,"N_COORD97":2564574.6099999999,"ADDRESS":"民生路３７號之４","OBJECTID":507585},"geometry":{"x":173725.63999999966,"y":2564574.6099999994}},{"attributes":{"ID":507613,"DIS_CODE":0,"TOWNNAME":"麻豆區","LI":"東角里","LIN":"15鄰","STREET":"民生路","SECT":" ","MAREA":" ","LANE":" ","ALLEY":" ","HOUSE_NO":"３７號之５","E_COORD97":173730.64000000001,"N_COORD97":2564577.2599999998,"ADDRESS":"民生路３７號之５","OBJECTID":507586},"geometry":{"x":173730.6400000006,"y":2564577.2599999998}},{"attributes":{"ID":507614,"DIS_CODE":0,"TOWNNAME":"麻豆區","LI":"東角里","LIN":"15鄰","STREET":"民生路","SECT":" ","MAREA":" ","LANE":" ","ALLEY":" ","HOUSE_NO":"３７號之６","E_COORD97":173735.64000000001,"N_COORD97":2564579.9100000001,"ADDRESS":"民生路３７號之６","OBJECTID":507587},"geometry":{"x":173735.6400000006,"y":2564579.9100000001}},{"attributes":{"ID":507615,"DIS_CODE":0,"TOWNNAME":"麻豆區","LI":"東角里","LIN":"15鄰","STREET":"民生路","SECT":" ","MAREA":" ","LANE":" ","ALLEY":" ","HOUSE_NO":"３７號之７","E_COORD97":173740.63,"N_COORD97":2564582.5600000001,"ADDRESS":"民生路３７號之７","OBJECTID":507588},"geometry":{"x":173740.63000000082,"y":2564582.5600000005}},{"attributes":{"ID":507616,"DIS_CODE":0,"TOWNNAME":"麻豆區","LI":"東角里","LIN":"15鄰","STREET":"民生路","SECT":" ","MAREA":" ","LANE":" ","ALLEY":" ","HOUSE_NO":"３７號之８","E_COORD97":173745.63,"N_COORD97":2564585.2000000002,"ADDRESS":"民生路３７號之８","OBJECTID":507589},"geometry":{"x":173745.63000000082,"y":2564585.2000000011}},{"attributes":{"ID":507617,"DIS_CODE":0,"TOWNNAME":"麻豆區","LI":"東角里","LIN":"15鄰","STREET":"民生路","SECT":" ","MAREA":" ","LANE":" ","ALLEY":" ","HOUSE_NO":"３７號之９","E_COORD97":173750.63,"N_COORD97":2564587.8500000001,"ADDRESS":"民生路３７號之９","OBJECTID":507590},"geometry":{"x":173750.63000000082,"y":2564587.8500000015}},{"attributes":{"ID":507618,"DIS_CODE":0,"TOWNNAME":"麻豆區","LI":"東角里","LIN":"15鄰","STREET":"民生路","SECT":" ","MAREA":" ","LANE":" ","ALLEY":" ","HOUSE_NO":"３７號","E_COORD97":173705.13,"N_COORD97":2564571.6499999999,"ADDRESS":"民生路３７號","OBJECTID":507591},"geometry":{"x":173705.13000000082,"y":2564571.6500000004}},{"attributes":{"ID":507619,"DIS_CODE":0,"TOWNNAME":"麻豆區","LI":"東角里","LIN":"15鄰","STREET":"民生路","SECT":" ","MAREA":" ","LANE":" ","ALLEY":" ","HOUSE_NO":"３９號之１","E_COORD97":173728.32999999999,"N_COORD97":2564545.1499999999,"ADDRESS":"民生路３９號之１","OBJECTID":507592},"geometry":{"x":173728.33000000007,"y":2564545.1500000004}},{"attributes":{"ID":507620,"DIS_CODE":0,"TOWNNAME":"麻豆區","LI":"東角里","LIN":"15鄰","STREET":"民生路","SECT":" ","MAREA":" ","LANE":" ","ALLEY":" ","HOUSE_NO":"４１號之１","E_COORD97":173735.60000000001,"N_COORD97":2564537.5099999998,"ADDRESS":"民生路４１號之１","OBJECTID":507593},"geometry":{"x":173735.60000000056,"y":2564537.5099999998}},{"attributes":{"ID":507621,"DIS_CODE":0,"TOWNNAME":"麻豆區","LI":"東角里","LIN":"15鄰","STREET":"民生路","SECT":" ","MAREA":" ","LANE":" ","ALLEY":" ","HOUSE_NO":"４１號之２","E_COORD97":173737.70000000001,"N_COORD97":2564533.04,"ADDRESS":"民生路４１號之２","OBJECTID":507594},"geometry":{"x":173737.70000000019,"y":2564533.040000001}},{"attributes":{"ID":507622,"DIS_CODE":0,"TOWNNAME":"麻豆區","LI":"東角里","LIN":"15鄰","STREET":"民生路","SECT":" ","MAREA":" ","LANE":" ","ALLEY":" ","HOUSE_NO":"４１號之５","E_COORD97":173746.97,"N_COORD97":2564527.3700000001,"ADDRESS":"民生路４１號之５","OBJECTID":507595},"geometry":{"x":173746.97000000067,"y":2564527.370000001}},{"attributes":{"ID":507623,"DIS_CODE":0,"TOWNNAME":"麻豆區","LI":"東角里","LIN":"15鄰","STREET":"民生路","SECT":" ","MAREA":" ","LANE":" ","ALLEY":" ","HOUSE_NO":"４３號","E_COORD97":173768.95000000001,"N_COORD97":2564520.8399999999,"ADDRESS":"民生路４３號","OBJECTID":507596},"geometry":{"x":173768.95000000205,"y":2564520.8400000017}},{"attributes":{"ID":507624,"DIS_CODE":0,"TOWNNAME":"麻豆區","LI":"東角里","LIN":"15鄰","STREET":"民生路","SECT":" ","MAREA":" ","LANE":" ","ALLEY":" ","HOUSE_NO":"４５號","E_COORD97":173764.48000000001,"N_COORD97":2564506.2799999998,"ADDRESS":"民生路４５號","OBJECTID":507597},"geometry":{"x":173764.48000000138,"y":2564506.2800000031}},{"attributes":{"ID":507625,"DIS_CODE":0,"TOWNNAME":"麻豆區","LI":"東角里","LIN":"15鄰","STREET":"民生路","SECT":" ","MAREA":" ","LANE":" ","ALLEY":" ","HOUSE_NO":"４７號","E_COORD97":173766.34,"N_COORD97":2564502.2400000002,"ADDRESS":"民生路４７號","OBJECTID":507598},"geometry":{"x":173766.34000000078,"y":2564502.2400000021}},{"attributes":{"ID":507626,"DIS_CODE":0,"TOWNNAME":"麻豆區","LI":"東角里","LIN":"15鄰","STREET":"民生路","SECT":" ","MAREA":" ","LANE":" ","ALLEY":" ","HOUSE_NO":"４９號","E_COORD97":173768.34,"N_COORD97":2564497.73,"ADDRESS":"民生路４９號","OBJECTID":507599},"geometry":{"x":173768.34000000078,"y":2564497.7300000042}},{"attributes":{"ID":507627,"DIS_CODE":0,"TOWNNAME":"麻豆區","LI":"東角里","LIN":"15鄰","STREET":"民生路","SECT":" ","MAREA":" ","LANE":" ","ALLEY":" ","HOUSE_NO":"５１號","E_COORD97":173769.67999999999,"N_COORD97":2564493.6400000001,"ADDRESS":"民生路５１號","OBJECTID":507600},"geometry":{"x":173769.6799999997,"y":2564493.6400000006}}]}