{"displayFieldName":"TOWNNAME","fieldAliases":{"ID":"ID","DIS_CODE":"DIS_CODE","TOWNNAME":"TOWNNAME","LI":"LI","LIN":"LIN","STREET":"STREET","SECT":"SECT","MAREA":"MAREA","LANE":"LANE","ALLEY":"ALLEY","HOUSE_NO":"HOUSE_NO","E_COORD97":"E_COORD97","N_COORD97":"N_COORD97","ADDRESS":"ADDRESS","OBJECTID":"OBJECTID"},"geometryType":"esriGeometryPoint","spatialReference":{"wkid":102443,"latestWkid":3826},"fields":[{"name":"ID","type":"esriFieldTypeDouble","alias":"ID"},{"name":"DIS_CODE","type":"esriFieldTypeInteger","alias":"DIS_CODE"},{"name":"TOWNNAME","type":"esriFieldTypeString","alias":"TOWNNAME","length":8},{"name":"LI","type":"esriFieldTypeString","alias":"LI","length":8},{"name":"LIN","type":"esriFieldTypeString","alias":"LIN","length":12},{"name":"STREET","type":"esriFieldTypeString","alias":"STREET","length":20},{"name":"SECT","type":"esriFieldTypeString","alias":"SECT","length":8},{"name":"MAREA","type":"esriFieldTypeString","alias":"MAREA","length":12},{"name":"LANE","type":"esriFieldTypeString","alias":"LANE","length":10},{"name":"ALLEY","type":"esriFieldTypeString","alias":"ALLEY","length":10},{"name":"HOUSE_NO","type":"esriFieldTypeString","alias":"HOUSE_NO","length":20},{"name":"E_COORD97","type":"esriFieldTypeDouble","alias":"E_COORD97"},{"name":"N_COORD97","type":"esriFieldTypeDouble","alias":"N_COORD97"},{"name":"ADDRESS","type":"esriFieldTypeString","alias":"ADDRESS","length":50},{"name":"OBJECTID","type":"esriFieldTypeOID","alias":"OBJECTID"}],"features":[{"attributes":{"ID":517828,"DIS_CODE":0,"TOWNNAME":"新化區","LI":"唪口里","LIN":"1鄰","STREET":"大德路","SECT":" ","MAREA":" ","LANE":" ","ALLEY":" ","HOUSE_NO":"４２號之２","E_COORD97":178520.13,"N_COORD97":2549421.2599999998,"ADDRESS":"大德路４２號之２","OBJECTID":517801},"geometry":{"x":178520.12999999989,"y":2549421.2600000016}},{"attributes":{"ID":517829,"DIS_CODE":0,"TOWNNAME":"新化區","LI":"豐榮里","LIN":"1鄰","STREET":"大智路","SECT":" ","MAREA":" ","LANE":" ","ALLEY":" ","HOUSE_NO":"１０號","E_COORD97":178338.98000000001,"N_COORD97":2548412.25,"ADDRESS":"大智路１０號","OBJECTID":517802},"geometry":{"x":178338.98000000045,"y":2548412.25}},{"attributes":{"ID":517830,"DIS_CODE":0,"TOWNNAME":"新化區","LI":"豐榮里","LIN":"1鄰","STREET":"中山路","SECT":" ","MAREA":" ","LANE":" ","ALLEY":" ","HOUSE_NO":"６３５號","E_COORD97":178191.70999999999,"N_COORD97":2548497.25,"ADDRESS":"中山路６３５號","OBJECTID":517803},"geometry":{"x":178191.71000000089,"y":2548497.25}},{"attributes":{"ID":517831,"DIS_CODE":0,"TOWNNAME":"新化區","LI":"協興里","LIN":"1鄰","STREET":"忠孝路","SECT":" ","MAREA":" ","LANE":" ","ALLEY":" ","HOUSE_NO":"１５０號之２","E_COORD97":178594.67999999999,"N_COORD97":2548635.2599999998,"ADDRESS":"忠孝路１５０號之２","OBJECTID":517804},"geometry":{"x":178594.67999999877,"y":2548635.2599999998}},{"attributes":{"ID":517832,"DIS_CODE":0,"TOWNNAME":"新化區","LI":"太平里","LIN":"1鄰","STREET":"中正路","SECT":" ","MAREA":" ","LANE":" ","ALLEY":" ","HOUSE_NO":"４８０號","E_COORD97":179031.31,"N_COORD97":2548604.25,"ADDRESS":"中正路４８０號","OBJECTID":517805},"geometry":{"x":179031.31000000052,"y":2548604.2500000019}},{"attributes":{"ID":517833,"DIS_CODE":0,"TOWNNAME":"新化區","LI":"太平里","LIN":"1鄰","STREET":"中正路","SECT":" ","MAREA":" ","LANE":" ","ALLEY":" ","HOUSE_NO":"４７８號","E_COORD97":179034.51000000001,"N_COORD97":2548595.25,"ADDRESS":"中正路４７８號","OBJECTID":517806},"geometry":{"x":179034.50999999978,"y":2548595.25}},{"attributes":{"ID":517834,"DIS_CODE":0,"TOWNNAME":"新化區","LI":"唪口里","LIN":"1鄰","STREET":"大德路","SECT":" ","MAREA":" ","LANE":" ","ALLEY":" ","HOUSE_NO":"３６號","E_COORD97":178542.07999999999,"N_COORD97":2549403.25,"ADDRESS":"大德路３６號","OBJECTID":517807},"geometry":{"x":178542.08000000101,"y":2549403.2500000037}},{"attributes":{"ID":517835,"DIS_CODE":0,"TOWNNAME":"新化區","LI":"豐榮里","LIN":"1鄰","STREET":"中山路","SECT":" ","MAREA":" ","LANE":" ","ALLEY":" ","HOUSE_NO":"６３１號","E_COORD97":178198.94927899999,"N_COORD97":2548497.2353400001,"ADDRESS":"中山路６３１號","OBJECTID":517808},"geometry":{"x":178198.94927900098,"y":2548497.2353429999}},{"attributes":{"ID":517836,"DIS_CODE":0,"TOWNNAME":"新化區","LI":"協興里","LIN":"1鄰","STREET":"正新路","SECT":" ","MAREA":" ","LANE":" ","ALLEY":" ","HOUSE_NO":"２３８號之１","E_COORD97":178567.14999999999,"N_COORD97":2548487.2599999998,"ADDRESS":"正新路２３８號之１","OBJECTID":517809},"geometry":{"x":178567.1500000013,"y":2548487.2600000035}},{"attributes":{"ID":517837,"DIS_CODE":0,"TOWNNAME":"新化區","LI":"唪口里","LIN":"1鄰","STREET":"中正路","SECT":" ","MAREA":" ","LANE":" ","ALLEY":" ","HOUSE_NO":"１００１號","E_COORD97":178297.06,"N_COORD97":2550166.25,"ADDRESS":"中正路１００１號","OBJECTID":517810},"geometry":{"x":178297.05999999866,"y":2550166.2500000019}},{"attributes":{"ID":517838,"DIS_CODE":0,"TOWNNAME":"新化區","LI":"豐榮里","LIN":"1鄰","STREET":"中山路","SECT":" ","MAREA":" ","LANE":" ","ALLEY":" ","HOUSE_NO":"５９７號","E_COORD97":178292.81,"N_COORD97":2548465.25,"ADDRESS":"中山路５９７號","OBJECTID":517811},"geometry":{"x":178292.81000000052,"y":2548465.2500000019}},{"attributes":{"ID":517839,"DIS_CODE":0,"TOWNNAME":"新化區","LI":"唪口里","LIN":"1鄰","STREET":"大德路","SECT":" ","MAREA":" ","LANE":" ","ALLEY":" ","HOUSE_NO":"３８號之４","E_COORD97":178539.91,"N_COORD97":2549431.2599999998,"ADDRESS":"大德路３８號之４","OBJECTID":517812},"geometry":{"x":178539.91000000108,"y":2549431.2600000016}},{"attributes":{"ID":517840,"DIS_CODE":0,"TOWNNAME":"新化區","LI":"清水里","LIN":"1鄰","STREET":"中山路","SECT":" ","MAREA":" ","LANE":" ","ALLEY":" ","HOUSE_NO":"３５９號","E_COORD97":178839.01000000001,"N_COORD97":2548394.25,"ADDRESS":"中山路３５９號","OBJECTID":517813},"geometry":{"x":178839.01000000071,"y":2548394.2500000019}},{"attributes":{"ID":517841,"DIS_CODE":0,"TOWNNAME":"新化區","LI":"太平里","LIN":"1鄰","STREET":"忠孝路","SECT":" ","MAREA":" ","LANE":" ","ALLEY":" ","HOUSE_NO":"２５號","E_COORD97":179119.57000000001,"N_COORD97":2548714.25,"ADDRESS":"忠孝路２５號","OBJECTID":517814},"geometry":{"x":179119.5700000003,"y":2548714.25}},{"attributes":{"ID":517842,"DIS_CODE":0,"TOWNNAME":"新化區","LI":"護國里","LIN":"1鄰","STREET":"中正路","SECT":" ","MAREA":" ","LANE":" ","ALLEY":" ","HOUSE_NO":"４２８號","E_COORD97":179067.60999999999,"N_COORD97":2548497.25,"ADDRESS":"中正路４２８號","OBJECTID":517815},"geometry":{"x":179067.61000000127,"y":2548497.25}},{"attributes":{"ID":517843,"DIS_CODE":0,"TOWNNAME":"新化區","LI":"武安里","LIN":"1鄰","STREET":"中正路","SECT":" ","MAREA":" ","LANE":" ","ALLEY":" ","HOUSE_NO":"２４３號","E_COORD97":179089.51000000001,"N_COORD97":2547748.25,"ADDRESS":"中正路２４３號","OBJECTID":517816},"geometry":{"x":179089.51000000071,"y":2547748.25}},{"attributes":{"ID":517844,"DIS_CODE":0,"TOWNNAME":"新化區","LI":"唪口里","LIN":"1鄰","STREET":"大德路","SECT":" ","MAREA":" ","LANE":" ","ALLEY":" ","HOUSE_NO":"５０號","E_COORD97":178483.67999999999,"N_COORD97":2549401.25,"ADDRESS":"大德路５０號","OBJECTID":517817},"geometry":{"x":178483.68000000063,"y":2549401.2500000019}},{"attributes":{"ID":517845,"DIS_CODE":0,"TOWNNAME":"新化區","LI":"唪口里","LIN":"1鄰","STREET":"大德路","SECT":" ","MAREA":" ","LANE":" ","ALLEY":" ","HOUSE_NO":"１４６號","E_COORD97":178094.23000000001,"N_COORD97":2549354.25,"ADDRESS":"大德路１４６號","OBJECTID":517818},"geometry":{"x":178094.23000000138,"y":2549354.25}},{"attributes":{"ID":517846,"DIS_CODE":0,"TOWNNAME":"新化區","LI":"唪口里","LIN":"1鄰","STREET":"大德路","SECT":" ","MAREA":" ","LANE":" ","ALLEY":" ","HOUSE_NO":"４２號","E_COORD97":178521.88,"N_COORD97":2549400.25,"ADDRESS":"大德路４２號","OBJECTID":517819},"geometry":{"x":178521.87999999989,"y":2549400.2500000019}},{"attributes":{"ID":517847,"DIS_CODE":0,"TOWNNAME":"新化區","LI":"唪口里","LIN":"1鄰","STREET":"大德路","SECT":" ","MAREA":" ","LANE":" ","ALLEY":" ","HOUSE_NO":"１８０號","E_COORD97":177843.03,"N_COORD97":2549368.25,"ADDRESS":"大德路１８０號","OBJECTID":517820},"geometry":{"x":177843.03000000026,"y":2549368.25}},{"attributes":{"ID":517848,"DIS_CODE":0,"TOWNNAME":"新化區","LI":"唪口里","LIN":"1鄰","STREET":"大德路","SECT":" ","MAREA":" ","LANE":" ","ALLEY":" ","HOUSE_NO":"３８號之３","E_COORD97":178540.23000000001,"N_COORD97":2549427.2599999998,"ADDRESS":"大德路３８號之３","OBJECTID":517821},"geometry":{"x":178540.23000000045,"y":2549427.2600000016}},{"attributes":{"ID":517849,"DIS_CODE":0,"TOWNNAME":"新化區","LI":"清水里","LIN":"1鄰","STREET":"中山路","SECT":" ","MAREA":" ","LANE":" ","ALLEY":" ","HOUSE_NO":"３４９號","E_COORD97":178878.20999999999,"N_COORD97":2548404.25,"ADDRESS":"中山路３４９號","OBJECTID":517822},"geometry":{"x":178878.21000000089,"y":2548404.2500000019}},{"attributes":{"ID":517850,"DIS_CODE":0,"TOWNNAME":"新化區","LI":"唪口里","LIN":"1鄰","STREET":"大德路","SECT":" ","MAREA":" ","LANE":" ","ALLEY":" ","HOUSE_NO":"１３８號","E_COORD97":178139.32999999999,"N_COORD97":2549389.25,"ADDRESS":"大德路１３８號","OBJECTID":517823},"geometry":{"x":178139.33000000007,"y":2549389.2499999981}},{"attributes":{"ID":517851,"DIS_CODE":0,"TOWNNAME":"新化區","LI":"豐榮里","LIN":"1鄰","STREET":"中山路","SECT":" ","MAREA":" ","LANE":" ","ALLEY":" ","HOUSE_NO":"５９９號","E_COORD97":178289.10999999999,"N_COORD97":2548464.25,"ADDRESS":"中山路５９９號","OBJECTID":517824},"geometry":{"x":178289.1100000022,"y":2548464.2500000019}},{"attributes":{"ID":517852,"DIS_CODE":0,"TOWNNAME":"新化區","LI":"太平里","LIN":"1鄰","STREET":"仁愛街","SECT":" ","MAREA":" ","LANE":" ","ALLEY":" ","HOUSE_NO":"４０號","E_COORD97":179056.38,"N_COORD97":2548599.25,"ADDRESS":"仁愛街４０號","OBJECTID":517825},"geometry":{"x":179056.38000000175,"y":2548599.25}},{"attributes":{"ID":517853,"DIS_CODE":0,"TOWNNAME":"新化區","LI":"豐榮里","LIN":"1鄰","STREET":"中山路","SECT":" ","MAREA":" ","LANE":" ","ALLEY":" ","HOUSE_NO":"５９３號","E_COORD97":178309.60999999999,"N_COORD97":2548469.25,"ADDRESS":"中山路５９３號","OBJECTID":517826},"geometry":{"x":178309.61000000127,"y":2548469.25}},{"attributes":{"ID":517854,"DIS_CODE":0,"TOWNNAME":"新化區","LI":"豐榮里","LIN":"1鄰","STREET":"中山路","SECT":" ","MAREA":" ","LANE":" ","ALLEY":" ","HOUSE_NO":"６１９號","E_COORD97":178231.70999999999,"N_COORD97":2548491.25,"ADDRESS":"中山路６１９號","OBJECTID":517827},"geometry":{"x":178231.70999999996,"y":2548491.2500000037}},{"attributes":{"ID":517855,"DIS_CODE":0,"TOWNNAME":"新化區","LI":"唪口里","LIN":"1鄰","STREET":"大德路","SECT":" ","MAREA":" ","LANE":" ","ALLEY":" ","HOUSE_NO":"４４號之２","E_COORD97":178511.32999999999,"N_COORD97":2549420.2599999998,"ADDRESS":"大德路４４號之２","OBJECTID":517828},"geometry":{"x":178511.33000000101,"y":2549420.2600000016}},{"attributes":{"ID":517856,"DIS_CODE":0,"TOWNNAME":"新化區","LI":"護國里","LIN":"1鄰","STREET":"中正路","SECT":" ","MAREA":" ","LANE":" ","ALLEY":" ","HOUSE_NO":"４２４號","E_COORD97":179071.01000000001,"N_COORD97":2548488.25,"ADDRESS":"中正路４２４號","OBJECTID":517829},"geometry":{"x":179071.01000000071,"y":2548488.2500000019}},{"attributes":{"ID":517857,"DIS_CODE":0,"TOWNNAME":"東區","LI":"中西里","LIN":"1鄰","STREET":"東門路","SECT":"一段","MAREA":" ","LANE":" ","ALLEY":" ","HOUSE_NO":"２８３號","E_COORD97":169861.67999999999,"N_COORD97":2543045.4100000001,"ADDRESS":"東門路一段２８３號","OBJECTID":517830},"geometry":{"x":169861.68000000063,"y":2543045.4100000039}},{"attributes":{"ID":517858,"DIS_CODE":0,"TOWNNAME":"東區","LI":"東光里","LIN":"1鄰","STREET":"東寧路","SECT":" ","MAREA":" ","LANE":" ","ALLEY":" ","HOUSE_NO":"３７５號","E_COORD97":170930.98999999999,"N_COORD97":2543379.3599999999,"ADDRESS":"東寧路３７５號","OBJECTID":517831},"geometry":{"x":170930.99000000209,"y":2543379.3599999994}},{"attributes":{"ID":517859,"DIS_CODE":0,"TOWNNAME":"東區","LI":"東光里","LIN":"1鄰","STREET":"東寧路","SECT":" ","MAREA":" ","LANE":" ","ALLEY":" ","HOUSE_NO":"３８３號","E_COORD97":170948.88,"N_COORD97":2543372.2400000002,"ADDRESS":"東寧路３８３號","OBJECTID":517832},"geometry":{"x":170948.88000000082,"y":2543372.2400000021}},{"attributes":{"ID":517860,"DIS_CODE":0,"TOWNNAME":"東區","LI":"東光里","LIN":"1鄰","STREET":"東寧路","SECT":" ","MAREA":" ","LANE":" ","ALLEY":" ","HOUSE_NO":"３８５號","E_COORD97":170952.67999999999,"N_COORD97":2543369.0699999998,"ADDRESS":"東寧路３８５號","OBJECTID":517833},"geometry":{"x":170952.6799999997,"y":2543369.0700000003}},{"attributes":{"ID":517861,"DIS_CODE":0,"TOWNNAME":"東區","LI":"東光里","LIN":"1鄰","STREET":"東寧路","SECT":" ","MAREA":" ","LANE":" ","ALLEY":" ","HOUSE_NO":"３８７號","E_COORD97":170958.23000000001,"N_COORD97":2543371.4500000002,"ADDRESS":"東寧路３８７號","OBJECTID":517834},"geometry":{"x":170958.23000000045,"y":2543371.4499999993}},{"attributes":{"ID":517862,"DIS_CODE":0,"TOWNNAME":"東區","LI":"東光里","LIN":"1鄰","STREET":"東寧路","SECT":" ","MAREA":" ","LANE":" ","ALLEY":" ","HOUSE_NO":"４６１號","E_COORD97":171113.54000000001,"N_COORD97":2543316.3300000001,"ADDRESS":"東寧路４６１號","OBJECTID":517835},"geometry":{"x":171113.5400000019,"y":2543316.3300000001}},{"attributes":{"ID":517863,"DIS_CODE":0,"TOWNNAME":"東區","LI":"東光里","LIN":"1鄰","STREET":"東寧路","SECT":" ","MAREA":" ","LANE":" ","ALLEY":" ","HOUSE_NO":"４６３號","E_COORD97":171120.32000000001,"N_COORD97":2543312.9399999999,"ADDRESS":"東寧路４６３號","OBJECTID":517836},"geometry":{"x":171120.31999999937,"y":2543312.9400000013}},{"attributes":{"ID":517864,"DIS_CODE":0,"TOWNNAME":"東區","LI":"東光里","LIN":"1鄰","STREET":"東寧路","SECT":" ","MAREA":" ","LANE":" ","ALLEY":" ","HOUSE_NO":"４６５號","E_COORD97":171124.53,"N_COORD97":2543311.3900000001,"ADDRESS":"東寧路４６５號","OBJECTID":517837},"geometry":{"x":171124.53000000119,"y":2543311.3900000025}},{"attributes":{"ID":517865,"DIS_CODE":0,"TOWNNAME":"東區","LI":"東光里","LIN":"1鄰","STREET":"東寧路","SECT":" ","MAREA":" ","LANE":" ","ALLEY":" ","HOUSE_NO":"４９５號","E_COORD97":171169.41,"N_COORD97":2543301.2000000002,"ADDRESS":"東寧路４９５號","OBJECTID":517838},"geometry":{"x":171169.41000000108,"y":2543301.2000000011}},{"attributes":{"ID":517866,"DIS_CODE":0,"TOWNNAME":"東區","LI":"東安里","LIN":"1鄰","STREET":"東門路","SECT":"二段","MAREA":" ","LANE":" ","ALLEY":" ","HOUSE_NO":"１０５號","E_COORD97":170190.69,"N_COORD97":2542934.6600000001,"ADDRESS":"東門路二段１０５號","OBJECTID":517839},"geometry":{"x":170190.69000000227,"y":2542934.6600000001}},{"attributes":{"ID":517867,"DIS_CODE":0,"TOWNNAME":"東區","LI":"東明里","LIN":"1鄰","STREET":"東寧路","SECT":" ","MAREA":" ","LANE":" ","ALLEY":" ","HOUSE_NO":"３２７號","E_COORD97":170830.76000000001,"N_COORD97":2543412.3799999999,"ADDRESS":"東寧路３２７號","OBJECTID":517840},"geometry":{"x":170830.76000000071,"y":2543412.379999999}},{"attributes":{"ID":517868,"DIS_CODE":0,"TOWNNAME":"東區","LI":"東聖里","LIN":"1鄰","STREET":"中華東路","SECT":"二段","MAREA":" ","LANE":" ","ALLEY":" ","HOUSE_NO":"１號","E_COORD97":171480.04999999999,"N_COORD97":2543202.2400000002,"ADDRESS":"中華東路二段１號","OBJECTID":517841},"geometry":{"x":171480.05000000075,"y":2543202.2399999984}},{"attributes":{"ID":517869,"DIS_CODE":0,"TOWNNAME":"東區","LI":"東聖里","LIN":"1鄰","STREET":"中華東路","SECT":"二段","MAREA":" ","LANE":" ","ALLEY":" ","HOUSE_NO":"５１號","E_COORD97":171430.98999999999,"N_COORD97":2543074.5,"ADDRESS":"中華東路二段５１號","OBJECTID":517842},"geometry":{"x":171430.98999999929,"y":2543074.5}},{"attributes":{"ID":517870,"DIS_CODE":0,"TOWNNAME":"東區","LI":"東聖里","LIN":"1鄰","STREET":"中華東路","SECT":"二段","MAREA":" ","LANE":" ","ALLEY":" ","HOUSE_NO":"５５號","E_COORD97":171431.51999999999,"N_COORD97":2543067,"ADDRESS":"中華東路二段５５號","OBJECTID":517843},"geometry":{"x":171431.51999999955,"y":2543067}},{"attributes":{"ID":517871,"DIS_CODE":0,"TOWNNAME":"東區","LI":"東聖里","LIN":"1鄰","STREET":"中華東路","SECT":"二段","MAREA":" ","LANE":" ","ALLEY":" ","HOUSE_NO":"５７號","E_COORD97":171431.41,"N_COORD97":2543062.77,"ADDRESS":"中華東路二段５７號","OBJECTID":517844},"geometry":{"x":171431.40999999922,"y":2543062.7700000014}},{"attributes":{"ID":517872,"DIS_CODE":0,"TOWNNAME":"東區","LI":"崇成里","LIN":"1鄰","STREET":"崇道路","SECT":" ","MAREA":" ","LANE":" ","ALLEY":" ","HOUSE_NO":"７６號","E_COORD97":170835.23999999999,"N_COORD97":2541385.73,"ADDRESS":"崇道路７６號","OBJECTID":517845},"geometry":{"x":170835.24000000022,"y":2541385.7300000023}},{"attributes":{"ID":517873,"DIS_CODE":0,"TOWNNAME":"東區","LI":"崇善里","LIN":"1鄰","STREET":"中華東路","SECT":"三段","MAREA":" ","LANE":" ","ALLEY":" ","HOUSE_NO":"３號","E_COORD97":170993.45000000001,"N_COORD97":2542368.6000000001,"ADDRESS":"中華東路三段３號","OBJECTID":517846},"geometry":{"x":170993.45000000019,"y":2542368.6000000034}},{"attributes":{"ID":517874,"DIS_CODE":0,"TOWNNAME":"東區","LI":"崇善里","LIN":"1鄰","STREET":"中華東路","SECT":"三段","MAREA":" ","LANE":" ","ALLEY":" ","HOUSE_NO":"５號","E_COORD97":170992.39999999999,"N_COORD97":2542364.6699999999,"ADDRESS":"中華東路三段５號","OBJECTID":517847},"geometry":{"x":170992.40000000037,"y":2542364.6699999999}},{"attributes":{"ID":517875,"DIS_CODE":0,"TOWNNAME":"東區","LI":"崇善里","LIN":"1鄰","STREET":"中華東路","SECT":"三段","MAREA":" ","LANE":" ","ALLEY":" ","HOUSE_NO":"１１號","E_COORD97":170973.26000000001,"N_COORD97":2542342.1499999999,"ADDRESS":"中華東路三段１１號","OBJECTID":517848},"geometry":{"x":170973.26000000071,"y":2542342.1500000041}},{"attributes":{"ID":517876,"DIS_CODE":0,"TOWNNAME":"東區","LI":"崇德里","LIN":"1鄰","STREET":"崇善路","SECT":" ","MAREA":" ","LANE":" ","ALLEY":" ","HOUSE_NO":"２３４號","E_COORD97":170760.98000000001,"N_COORD97":2541978.9300000002,"ADDRESS":"崇善路２３４號","OBJECTID":517849},"geometry":{"x":170760.98000000045,"y":2541978.9299999997}},{"attributes":{"ID":517877,"DIS_CODE":0,"TOWNNAME":"東區","LI":"崇德里","LIN":"1鄰","STREET":"崇善路","SECT":" ","MAREA":" ","LANE":" ","ALLEY":" ","HOUSE_NO":"２４０號","E_COORD97":170791.05751700001,"N_COORD97":2541971.4306600001,"ADDRESS":"崇善路２４０號","OBJECTID":517850},"geometry":{"x":170791.05751700047,"y":2541971.4306600038}},{"attributes":{"ID":517878,"DIS_CODE":0,"TOWNNAME":"東區","LI":"富強里","LIN":"1鄰","STREET":"裕農路","SECT":" ","MAREA":" ","LANE":" ","ALLEY":" ","HOUSE_NO":"２９６號","E_COORD97":170825.31,"N_COORD97":2542951.6000000001,"ADDRESS":"裕農路２９６號","OBJECTID":517851},"geometry":{"x":170825.31000000052,"y":2542951.5999999978}},{"attributes":{"ID":517879,"DIS_CODE":0,"TOWNNAME":"東區","LI":"南聖里","LIN":"1鄰","STREET":"裕農路","SECT":" ","MAREA":" ","LANE":" ","ALLEY":" ","HOUSE_NO":"６７２號","E_COORD97":171745.14000000001,"N_COORD97":2543213.4300000002,"ADDRESS":"裕農路６７２號","OBJECTID":517852},"geometry":{"x":171745.1400000006,"y":2543213.4299999997}},{"attributes":{"ID":517880,"DIS_CODE":0,"TOWNNAME":"東區","LI":"南聖里","LIN":"1鄰","STREET":"裕農路","SECT":" ","MAREA":" ","LANE":" ","ALLEY":" ","HOUSE_NO":"６７４號","E_COORD97":171748.41,"N_COORD97":2543217.1299999999,"ADDRESS":"裕農路６７４號","OBJECTID":517853},"geometry":{"x":171748.40999999922,"y":2543217.129999999}},{"attributes":{"ID":517881,"DIS_CODE":0,"TOWNNAME":"東區","LI":"南聖里","LIN":"1鄰","STREET":"裕農路","SECT":" ","MAREA":" ","LANE":" ","ALLEY":" ","HOUSE_NO":"６７６號","E_COORD97":171752.45999999999,"N_COORD97":2543220.5699999998,"ADDRESS":"裕農路６７６號","OBJECTID":517854},"geometry":{"x":171752.45999999996,"y":2543220.570000004}},{"attributes":{"ID":517882,"DIS_CODE":0,"TOWNNAME":"東區","LI":"南聖里","LIN":"1鄰","STREET":"裕農路","SECT":" ","MAREA":" ","LANE":" ","ALLEY":" ","HOUSE_NO":"６７８號","E_COORD97":171755.89999999999,"N_COORD97":2543218.8500000001,"ADDRESS":"裕農路６７８號","OBJECTID":517855},"geometry":{"x":171755.9000000013,"y":2543218.8500000015}},{"attributes":{"ID":517883,"DIS_CODE":0,"TOWNNAME":"東區","LI":"南聖里","LIN":"1鄰","STREET":"裕農路","SECT":" ","MAREA":" ","LANE":" ","ALLEY":" ","HOUSE_NO":"６８４號","E_COORD97":171768.54999999999,"N_COORD97":2543222.5499999998,"ADDRESS":"裕農路６８４號","OBJECTID":517856},"geometry":{"x":171768.54999999981,"y":2543222.5500000026}},{"attributes":{"ID":517884,"DIS_CODE":0,"TOWNNAME":"東區","LI":"南聖里","LIN":"1鄰","STREET":"裕農路","SECT":" ","MAREA":" ","LANE":" ","ALLEY":" ","HOUSE_NO":"６８６號","E_COORD97":171773.54999999999,"N_COORD97":2543221.1800000002,"ADDRESS":"裕農路６８６號","OBJECTID":517857},"geometry":{"x":171773.54999999981,"y":2543221.1799999997}},{"attributes":{"ID":517885,"DIS_CODE":0,"TOWNNAME":"東區","LI":"南聖里","LIN":"1鄰","STREET":"裕農路","SECT":" ","MAREA":" ","LANE":" ","ALLEY":" ","HOUSE_NO":"６８８號","E_COORD97":171778.70999999999,"N_COORD97":2543222.7200000002,"ADDRESS":"裕農路６８８號","OBJECTID":517858},"geometry":{"x":171778.71000000089,"y":2543222.7200000007}},{"attributes":{"ID":517886,"DIS_CODE":0,"TOWNNAME":"東區","LI":"南聖里","LIN":"1鄰","STREET":"裕農路","SECT":" ","MAREA":" ","LANE":" ","ALLEY":" ","HOUSE_NO":"６９０號","E_COORD97":171783.45000000001,"N_COORD97":2543224.8300000001,"ADDRESS":"裕農路６９０號","OBJECTID":517859},"geometry":{"x":171783.45000000019,"y":2543224.8300000001}},{"attributes":{"ID":517887,"DIS_CODE":0,"TOWNNAME":"東區","LI":"南聖里","LIN":"1鄰","STREET":"裕農路","SECT":" ","MAREA":" ","LANE":" ","ALLEY":" ","HOUSE_NO":"６９２號","E_COORD97":171787.14999999999,"N_COORD97":2543222.9399999999,"ADDRESS":"裕農路６９２號","OBJECTID":517860},"geometry":{"x":171787.15000000037,"y":2543222.9399999995}},{"attributes":{"ID":517888,"DIS_CODE":0,"TOWNNAME":"東區","LI":"南聖里","LIN":"1鄰","STREET":"裕農路","SECT":" ","MAREA":" ","LANE":" ","ALLEY":" ","HOUSE_NO":"６９４號","E_COORD97":171790.76999999999,"N_COORD97":2543226.3799999999,"ADDRESS":"裕農路６９４號","OBJECTID":517861},"geometry":{"x":171790.76999999955,"y":2543226.379999999}},{"attributes":{"ID":517889,"DIS_CODE":0,"TOWNNAME":"東區","LI":"南聖里","LIN":"1鄰","STREET":"裕農路","SECT":" ","MAREA":" ","LANE":" ","ALLEY":" ","HOUSE_NO":"６９６號","E_COORD97":171795.23999999999,"N_COORD97":2543225.3500000001,"ADDRESS":"裕農路６９６號","OBJECTID":517862},"geometry":{"x":171795.24000000022,"y":2543225.3500000015}},{"attributes":{"ID":517890,"DIS_CODE":0,"TOWNNAME":"東區","LI":"南聖里","LIN":"1鄰","STREET":"裕農路","SECT":" ","MAREA":" ","LANE":" ","ALLEY":" ","HOUSE_NO":"６９８號","E_COORD97":171799.79999999999,"N_COORD97":2543227.8399999999,"ADDRESS":"裕農路６９８號","OBJECTID":517863},"geometry":{"x":171799.80000000168,"y":2543227.8399999999}},{"attributes":{"ID":517891,"DIS_CODE":0,"TOWNNAME":"東區","LI":"南聖里","LIN":"1鄰","STREET":"裕農路","SECT":" ","MAREA":" ","LANE":" ","ALLEY":" ","HOUSE_NO":"７００號","E_COORD97":171803.67999999999,"N_COORD97":2543225.9500000002,"ADDRESS":"裕農路７００號","OBJECTID":517864},"geometry":{"x":171803.6799999997,"y":2543225.9499999993}},{"attributes":{"ID":517892,"DIS_CODE":0,"TOWNNAME":"東區","LI":"南聖里","LIN":"1鄰","STREET":"裕農路","SECT":" ","MAREA":" ","LANE":" ","ALLEY":" ","HOUSE_NO":"７０２號","E_COORD97":171807.98000000001,"N_COORD97":2543229.1299999999,"ADDRESS":"裕農路７０２號","OBJECTID":517865},"geometry":{"x":171807.98000000138,"y":2543229.1300000027}},{"attributes":{"ID":517893,"DIS_CODE":0,"TOWNNAME":"東區","LI":"南聖里","LIN":"1鄰","STREET":"裕農路","SECT":" ","MAREA":" ","LANE":" ","ALLEY":" ","HOUSE_NO":"７１０號","E_COORD97":171820.89999999999,"N_COORD97":2543227.0699999998,"ADDRESS":"裕農路７１０號","OBJECTID":517866},"geometry":{"x":171820.90000000037,"y":2543227.0700000003}},{"attributes":{"ID":517894,"DIS_CODE":0,"TOWNNAME":"東區","LI":"南聖里","LIN":"1鄰","STREET":"裕農路","SECT":" ","MAREA":" ","LANE":" ","ALLEY":" ","HOUSE_NO":"７１２號","E_COORD97":171824.60000000001,"N_COORD97":2543231.1099999999,"ADDRESS":"裕農路７１２號","OBJECTID":517867},"geometry":{"x":171824.5999999987,"y":2543231.1100000013}},{"attributes":{"ID":517895,"DIS_CODE":0,"TOWNNAME":"東區","LI":"南聖里","LIN":"1鄰","STREET":"裕農路","SECT":" ","MAREA":" ","LANE":" ","ALLEY":" ","HOUSE_NO":"７２４號","E_COORD97":171840.01000000001,"N_COORD97":2543232.5699999998,"ADDRESS":"裕農路７２４號","OBJECTID":517868},"geometry":{"x":171840.00999999978,"y":2543232.5700000003}},{"attributes":{"ID":517896,"DIS_CODE":0,"TOWNNAME":"東區","LI":"南聖里","LIN":"1鄰","STREET":"裕農路","SECT":" ","MAREA":" ","LANE":" ","ALLEY":" ","HOUSE_NO":"６７８號之１","E_COORD97":171760.23000000001,"N_COORD97":2543204.23,"ADDRESS":"裕農路６７８號之１","OBJECTID":517869},"geometry":{"x":171760.23000000231,"y":2543204.2300000023}},{"attributes":{"ID":517897,"DIS_CODE":0,"TOWNNAME":"東區","LI":"南聖里","LIN":"1鄰","STREET":"裕農路","SECT":" ","MAREA":" ","LANE":" ","ALLEY":" ","HOUSE_NO":"６７８號之４","E_COORD97":171760.23000000001,"N_COORD97":2543194.9100000001,"ADDRESS":"裕農路６７８號之４","OBJECTID":517870},"geometry":{"x":171760.23000000231,"y":2543194.910000002}},{"attributes":{"ID":517898,"DIS_CODE":0,"TOWNNAME":"東區","LI":"裕農里","LIN":"1鄰","STREET":"裕農路","SECT":" ","MAREA":" ","LANE":" ","ALLEY":" ","HOUSE_NO":"９１號","E_COORD97":170766.79000000001,"N_COORD97":2542951.4399999999,"ADDRESS":"裕農路９１號","OBJECTID":517871},"geometry":{"x":170766.79000000097,"y":2542951.4399999995}},{"attributes":{"ID":517899,"DIS_CODE":0,"TOWNNAME":"東區","LI":"南聖里","LIN":"1鄰","STREET":"裕農路","SECT":" ","MAREA":" ","LANE":" ","ALLEY":" ","HOUSE_NO":"６７８號之５","E_COORD97":171760.42000000001,"N_COORD97":2543191.7999999998,"ADDRESS":"裕農路６７８號之５","OBJECTID":517872},"geometry":{"x":171760.42000000086,"y":2543191.8000000007}},{"attributes":{"ID":517900,"DIS_CODE":0,"TOWNNAME":"東區","LI":"南聖里","LIN":"1鄰","STREET":"裕農路","SECT":" ","MAREA":" ","LANE":" ","ALLEY":" ","HOUSE_NO":"６７８號之６","E_COORD97":171759.94,"N_COORD97":2543188.7799999998,"ADDRESS":"裕農路６７８號之６","OBJECTID":517873},"geometry":{"x":171759.94000000041,"y":2543188.7800000012}},{"attributes":{"ID":517901,"DIS_CODE":0,"TOWNNAME":"東區","LI":"南聖里","LIN":"1鄰","STREET":"裕農路","SECT":" ","MAREA":" ","LANE":" ","ALLEY":" ","HOUSE_NO":"６７８號之７","E_COORD97":171759.76000000001,"N_COORD97":2543185.4900000002,"ADDRESS":"裕農路６７８號之７","OBJECTID":517874},"geometry":{"x":171759.76000000071,"y":2543185.4900000002}},{"attributes":{"ID":517902,"DIS_CODE":0,"TOWNNAME":"東區","LI":"南聖里","LIN":"1鄰","STREET":"裕農路","SECT":" ","MAREA":" ","LANE":" ","ALLEY":" ","HOUSE_NO":"６８８號之６","E_COORD97":171767.76999999999,"N_COORD97":2543201.5,"ADDRESS":"裕農路６８８號之６","OBJECTID":517875},"geometry":{"x":171767.77000000048,"y":2543201.5000000019}},{"attributes":{"ID":517903,"DIS_CODE":0,"TOWNNAME":"東區","LI":"南聖里","LIN":"1鄰","STREET":"裕農路","SECT":" ","MAREA":" ","LANE":" ","ALLEY":" ","HOUSE_NO":"６８８號之７","E_COORD97":171775.5,"N_COORD97":2543196.79,"ADDRESS":"裕農路６８８號之７","OBJECTID":517876},"geometry":{"x":171775.50000000093,"y":2543196.7899999991}},{"attributes":{"ID":517904,"DIS_CODE":0,"TOWNNAME":"東區","LI":"南聖里","LIN":"1鄰","STREET":"裕農路","SECT":" ","MAREA":" ","LANE":" ","ALLEY":" ","HOUSE_NO":"６８８號之１０","E_COORD97":171767.29999999999,"N_COORD97":2543189.9199999999,"ADDRESS":"裕農路６８８號之１０","OBJECTID":517877},"geometry":{"x":171767.29999999981,"y":2543189.9199999999}},{"attributes":{"ID":517905,"DIS_CODE":0,"TOWNNAME":"新市區","LI":"港墘里","LIN":"1鄰","STREET":"民族路","SECT":" ","MAREA":" ","LANE":" ","ALLEY":" ","HOUSE_NO":"１號","E_COORD97":178689.98999999999,"N_COORD97":2553959.29,"ADDRESS":"民族路１號","OBJECTID":517878},"geometry":{"x":178689.99000000209,"y":2553959.290000001}},{"attributes":{"ID":517906,"DIS_CODE":0,"TOWNNAME":"新市區","LI":"港墘里","LIN":"1鄰","STREET":"民族路","SECT":" ","MAREA":" ","LANE":" ","ALLEY":" ","HOUSE_NO":"１２號","E_COORD97":178623.94,"N_COORD97":2553927.54,"ADDRESS":"民族路１２號","OBJECTID":517879},"geometry":{"x":178623.94000000041,"y":2553927.540000001}},{"attributes":{"ID":517907,"DIS_CODE":0,"TOWNNAME":"新市區","LI":"港墘里","LIN":"1鄰","STREET":"中山路","SECT":" ","MAREA":" ","LANE":" ","ALLEY":" ","HOUSE_NO":"１０號","E_COORD97":178761.57000000001,"N_COORD97":2553853.25,"ADDRESS":"中山路１０號","OBJECTID":517880},"geometry":{"x":178761.5700000003,"y":2553853.25}},{"attributes":{"ID":517908,"DIS_CODE":0,"TOWNNAME":"新市區","LI":"港墘里","LIN":"1鄰","STREET":"中山路","SECT":" ","MAREA":" ","LANE":" ","ALLEY":" ","HOUSE_NO":"１號","E_COORD97":178877.73999999999,"N_COORD97":2554048,"ADDRESS":"中山路１號","OBJECTID":517881},"geometry":{"x":178877.74000000022,"y":2554048}},{"attributes":{"ID":517909,"DIS_CODE":0,"TOWNNAME":"新市區","LI":"港墘里","LIN":"1鄰","STREET":"民族路","SECT":" ","MAREA":" ","LANE":" ","ALLEY":" ","HOUSE_NO":"３號","E_COORD97":178656.38,"N_COORD97":2553933.54,"ADDRESS":"民族路３號","OBJECTID":517882},"geometry":{"x":178656.38000000175,"y":2553933.540000001}},{"attributes":{"ID":517910,"DIS_CODE":0,"TOWNNAME":"新市區","LI":"港墘里","LIN":"1鄰","STREET":"民族路","SECT":" ","MAREA":" ","LANE":" ","ALLEY":" ","HOUSE_NO":"４９號","E_COORD97":178559.54000000001,"N_COORD97":2553820.54,"ADDRESS":"民族路４９號","OBJECTID":517883},"geometry":{"x":178559.54000000097,"y":2553820.5399999991}},{"attributes":{"ID":517911,"DIS_CODE":0,"TOWNNAME":"新市區","LI":"港墘里","LIN":"1鄰","STREET":"民族路","SECT":" ","MAREA":" ","LANE":" ","ALLEY":" ","HOUSE_NO":"１０號","E_COORD97":178629.95999999999,"N_COORD97":2553929.04,"ADDRESS":"民族路１０號","OBJECTID":517884},"geometry":{"x":178629.95999999996,"y":2553929.0399999991}},{"attributes":{"ID":517912,"DIS_CODE":0,"TOWNNAME":"新市區","LI":"港墘里","LIN":"1鄰","STREET":"大同街","SECT":" ","MAREA":" ","LANE":" ","ALLEY":" ","HOUSE_NO":"３７號","E_COORD97":178462.32000000001,"N_COORD97":2553621,"ADDRESS":"大同街３７號","OBJECTID":517885},"geometry":{"x":178462.32000000216,"y":2553621}},{"attributes":{"ID":517913,"DIS_CODE":0,"TOWNNAME":"新市區","LI":"港墘里","LIN":"1鄰","STREET":"大同街","SECT":" ","MAREA":" ","LANE":" ","ALLEY":" ","HOUSE_NO":"２７之１號","E_COORD97":178488.04000000001,"N_COORD97":2553591.0499999998,"ADDRESS":"大同街２７之１號","OBJECTID":517886},"geometry":{"x":178488.04000000097,"y":2553591.0500000007}},{"attributes":{"ID":517914,"DIS_CODE":0,"TOWNNAME":"新市區","LI":"新市里","LIN":"1鄰","STREET":"中興街","SECT":" ","MAREA":" ","LANE":" ","ALLEY":" ","HOUSE_NO":"２５號","E_COORD97":177736.16,"N_COORD97":2553147,"ADDRESS":"中興街２５號","OBJECTID":517887},"geometry":{"x":177736.16000000108,"y":2553147}},{"attributes":{"ID":517915,"DIS_CODE":0,"TOWNNAME":"新市區","LI":"港墘里","LIN":"1鄰","STREET":"大同街","SECT":" ","MAREA":" ","LANE":" ","ALLEY":" ","HOUSE_NO":"４１號","E_COORD97":178457.26999999999,"N_COORD97":2553627.75,"ADDRESS":"大同街４１號","OBJECTID":517888},"geometry":{"x":178457.27000000048,"y":2553627.7500000037}},{"attributes":{"ID":517916,"DIS_CODE":0,"TOWNNAME":"新市區","LI":"港墘里","LIN":"1鄰","STREET":"大同街","SECT":" ","MAREA":" ","LANE":" ","ALLEY":" ","HOUSE_NO":"２７號","E_COORD97":178488.34,"N_COORD97":2553587,"ADDRESS":"大同街２７號","OBJECTID":517889},"geometry":{"x":178488.33999999985,"y":2553587}},{"attributes":{"ID":517917,"DIS_CODE":0,"TOWNNAME":"新市區","LI":"新市里","LIN":"1鄰","STREET":"中興街","SECT":" ","MAREA":" ","LANE":" ","ALLEY":" ","HOUSE_NO":"３７號","E_COORD97":177712.12,"N_COORD97":2553132.75,"ADDRESS":"中興街３７號","OBJECTID":517890},"geometry":{"x":177712.12000000011,"y":2553132.7500000037}},{"attributes":{"ID":517918,"DIS_CODE":0,"TOWNNAME":"新市區","LI":"新市里","LIN":"1鄰","STREET":"中興街","SECT":" ","MAREA":" ","LANE":" ","ALLEY":" ","HOUSE_NO":"１號","E_COORD97":177838.73999999999,"N_COORD97":2553201.25,"ADDRESS":"中興街１號","OBJECTID":517891},"geometry":{"x":177838.74000000022,"y":2553201.2500000019}},{"attributes":{"ID":517919,"DIS_CODE":0,"TOWNNAME":"新市區","LI":"新市里","LIN":"1鄰","STREET":"中興街","SECT":" ","MAREA":" ","LANE":" ","ALLEY":" ","HOUSE_NO":"１１號","E_COORD97":177759.73000000001,"N_COORD97":2553161.5,"ADDRESS":"中興街１１號","OBJECTID":517892},"geometry":{"x":177759.73000000138,"y":2553161.5000000037}},{"attributes":{"ID":517920,"DIS_CODE":0,"TOWNNAME":"新市區","LI":"新市里","LIN":"1鄰","STREET":"中興街","SECT":" ","MAREA":" ","LANE":" ","ALLEY":" ","HOUSE_NO":"２３號","E_COORD97":177740.32000000001,"N_COORD97":2553149.5,"ADDRESS":"中興街２３號","OBJECTID":517893},"geometry":{"x":177740.32000000123,"y":2553149.5}},{"attributes":{"ID":517921,"DIS_CODE":0,"TOWNNAME":"新市區","LI":"港墘里","LIN":"1鄰","STREET":"大同街","SECT":" ","MAREA":" ","LANE":" ","ALLEY":" ","HOUSE_NO":"２７之２號","E_COORD97":178485.23000000001,"N_COORD97":2553594.7999999998,"ADDRESS":"大同街２７之２號","OBJECTID":517894},"geometry":{"x":178485.23000000138,"y":2553594.8000000026}},{"attributes":{"ID":517922,"DIS_CODE":0,"TOWNNAME":"新市區","LI":"新市里","LIN":"1鄰","STREET":"中興街","SECT":" ","MAREA":" ","LANE":" ","ALLEY":" ","HOUSE_NO":"２１號","E_COORD97":177744.57000000001,"N_COORD97":2553152,"ADDRESS":"中興街２１號","OBJECTID":517895},"geometry":{"x":177744.5700000003,"y":2553152.0000000019}},{"attributes":{"ID":517923,"DIS_CODE":0,"TOWNNAME":"新市區","LI":"新市里","LIN":"1鄰","STREET":"中興街","SECT":" ","MAREA":" ","LANE":" ","ALLEY":" ","HOUSE_NO":"５號","E_COORD97":177769.37,"N_COORD97":2553168.5,"ADDRESS":"中興街５號","OBJECTID":517896},"geometry":{"x":177769.37000000011,"y":2553168.5000000019}},{"attributes":{"ID":517924,"DIS_CODE":0,"TOWNNAME":"新市區","LI":"新市里","LIN":"1鄰","STREET":"中興街","SECT":" ","MAREA":" ","LANE":" ","ALLEY":" ","HOUSE_NO":"１３號","E_COORD97":177756.48000000001,"N_COORD97":2553159.25,"ADDRESS":"中興街１３號","OBJECTID":517897},"geometry":{"x":177756.48000000138,"y":2553159.25}},{"attributes":{"ID":517925,"DIS_CODE":0,"TOWNNAME":"新市區","LI":"新和里","LIN":"1鄰","STREET":"中華路","SECT":" ","MAREA":" ","LANE":" ","ALLEY":" ","HOUSE_NO":"１６號","E_COORD97":177290.34,"N_COORD97":2551954.5,"ADDRESS":"中華路１６號","OBJECTID":517898},"geometry":{"x":177290.34000000171,"y":2551954.5000000037}},{"attributes":{"ID":517926,"DIS_CODE":0,"TOWNNAME":"中西區","LI":"法華里","LIN":"1鄰","STREET":"法華街","SECT":" ","MAREA":" ","LANE":" ","ALLEY":" ","HOUSE_NO":"３號","E_COORD97":169083.28,"N_COORD97":2542781.9500000002,"ADDRESS":"法華街３號","OBJECTID":517899},"geometry":{"x":169083.28000000119,"y":2542781.9499999993}},{"attributes":{"ID":517927,"DIS_CODE":0,"TOWNNAME":"安南區","LI":"海東里","LIN":"1鄰","STREET":"海環街","SECT":" ","MAREA":" ","LANE":" ","ALLEY":" ","HOUSE_NO":"６６４號","E_COORD97":166593.76000000001,"N_COORD97":2549306.9100000001,"ADDRESS":"海環街６６４號","OBJECTID":517900},"geometry":{"x":166593.75999999978,"y":2549306.9100000001}},{"attributes":{"ID":517928,"DIS_CODE":0,"TOWNNAME":"中西區","LI":"法華里","LIN":"1鄰","STREET":"法華街","SECT":" ","MAREA":" ","LANE":" ","ALLEY":" ","HOUSE_NO":"１７號","E_COORD97":169052.10999999999,"N_COORD97":2542761.6699999999,"ADDRESS":"法華街１７號","OBJECTID":517901},"geometry":{"x":169052.1100000022,"y":2542761.6700000037}},{"attributes":{"ID":517929,"DIS_CODE":0,"TOWNNAME":"安南區","LI":"溪心里","LIN":"1鄰","STREET":"海佃路","SECT":"二段","MAREA":" ","LANE":" ","ALLEY":" ","HOUSE_NO":"７３９號","E_COORD97":166358.14999999999,"N_COORD97":2549724.5699999998,"ADDRESS":"海佃路二段７３９號","OBJECTID":517902},"geometry":{"x":166358.15000000224,"y":2549724.5700000022}},{"attributes":{"ID":517930,"DIS_CODE":0,"TOWNNAME":"安南區","LI":"原佃里","LIN":"1鄰","STREET":"怡安路","SECT":"二段","MAREA":" ","LANE":" ","ALLEY":" ","HOUSE_NO":"４６８號","E_COORD97":167711.29000000001,"N_COORD97":2549442.96,"ADDRESS":"怡安路二段４６８號","OBJECTID":517903},"geometry":{"x":167711.2900000019,"y":2549442.9600000009}},{"attributes":{"ID":517931,"DIS_CODE":0,"TOWNNAME":"安南區","LI":"海東里","LIN":"1鄰","STREET":"海佃路","SECT":"二段","MAREA":" ","LANE":" ","ALLEY":" ","HOUSE_NO":"５５３號","E_COORD97":166621.38,"N_COORD97":2549328.6000000001,"ADDRESS":"海佃路二段５５３號","OBJECTID":517904},"geometry":{"x":166621.37999999989,"y":2549328.5999999996}},{"attributes":{"ID":517932,"DIS_CODE":0,"TOWNNAME":"安南區","LI":"海東里","LIN":"1鄰","STREET":"海佃路","SECT":"二段","MAREA":" ","LANE":" ","ALLEY":" ","HOUSE_NO":"５５７號","E_COORD97":166619.04000000001,"N_COORD97":2549332.9199999999,"ADDRESS":"海佃路二段５５７號","OBJECTID":517905},"geometry":{"x":166619.04000000004,"y":2549332.9199999999}},{"attributes":{"ID":517933,"DIS_CODE":0,"TOWNNAME":"安南區","LI":"海東里","LIN":"1鄰","STREET":"海環街","SECT":" ","MAREA":" ","LANE":" ","ALLEY":" ","HOUSE_NO":"６６６號","E_COORD97":166598.42999999999,"N_COORD97":2549308.6200000001,"ADDRESS":"海環街６６６號","OBJECTID":517906},"geometry":{"x":166598.43000000063,"y":2549308.620000001}},{"attributes":{"ID":517934,"DIS_CODE":0,"TOWNNAME":"安南區","LI":"海東里","LIN":"1鄰","STREET":"海環街","SECT":" ","MAREA":" ","LANE":" ","ALLEY":" ","HOUSE_NO":"６６８號","E_COORD97":166602.17000000001,"N_COORD97":2549310.0099999998,"ADDRESS":"海環街６６８號","OBJECTID":517907},"geometry":{"x":166602.17000000086,"y":2549310.0100000016}},{"attributes":{"ID":517935,"DIS_CODE":0,"TOWNNAME":"安南區","LI":"海東里","LIN":"1鄰","STREET":"海環街","SECT":" ","MAREA":" ","LANE":" ","ALLEY":" ","HOUSE_NO":"６７０號","E_COORD97":166607.07000000001,"N_COORD97":2549311.5099999998,"ADDRESS":"海環街６７０號","OBJECTID":517908},"geometry":{"x":166607.0700000003,"y":2549311.5099999998}},{"attributes":{"ID":517936,"DIS_CODE":0,"TOWNNAME":"安南區","LI":"海東里","LIN":"1鄰","STREET":"海環街","SECT":" ","MAREA":" ","LANE":" ","ALLEY":" ","HOUSE_NO":"６７２號","E_COORD97":166611.42000000001,"N_COORD97":2549313.5699999998,"ADDRESS":"海環街６７２號","OBJECTID":517909},"geometry":{"x":166611.41999999993,"y":2549313.5700000022}},{"attributes":{"ID":517937,"DIS_CODE":0,"TOWNNAME":"安南區","LI":"海東里","LIN":"1鄰","STREET":"海環街","SECT":" ","MAREA":" ","LANE":" ","ALLEY":" ","HOUSE_NO":"６７４號","E_COORD97":166616.01999999999,"N_COORD97":2549320.9700000002,"ADDRESS":"海環街６７４號","OBJECTID":517910},"geometry":{"x":166616.02000000048,"y":2549320.9700000044}},{"attributes":{"ID":517938,"DIS_CODE":0,"TOWNNAME":"中西區","LI":"法華里","LIN":"1鄰","STREET":"法華街","SECT":" ","MAREA":" ","LANE":" ","ALLEY":" ","HOUSE_NO":"１號","E_COORD97":169086.79000000001,"N_COORD97":2542784.1000000001,"ADDRESS":"法華街１號","OBJECTID":517911},"geometry":{"x":169086.79000000097,"y":2542784.0999999996}},{"attributes":{"ID":517939,"DIS_CODE":0,"TOWNNAME":"中西區","LI":"公正里","LIN":"1鄰","STREET":"中山路","SECT":" ","MAREA":" ","LANE":" ","ALLEY":" ","HOUSE_NO":"１７０號","E_COORD97":169087.13,"N_COORD97":2544045.9300000002,"ADDRESS":"中山路１７０號","OBJECTID":517912},"geometry":{"x":169087.13000000175,"y":2544045.9300000016}},{"attributes":{"ID":517940,"DIS_CODE":0,"TOWNNAME":"中西區","LI":"公正里","LIN":"1鄰","STREET":"中山路","SECT":" ","MAREA":" ","LANE":" ","ALLEY":" ","HOUSE_NO":"１７２號","E_COORD97":169118.01999999999,"N_COORD97":2544076.1099999999,"ADDRESS":"中山路１７２號","OBJECTID":517913},"geometry":{"x":169118.02000000142,"y":2544076.1099999994}},{"attributes":{"ID":517941,"DIS_CODE":0,"TOWNNAME":"中西區","LI":"公正里","LIN":"1鄰","STREET":"中山路","SECT":" ","MAREA":" ","LANE":" ","ALLEY":" ","HOUSE_NO":"１７４號","E_COORD97":169122.17000000001,"N_COORD97":2544076.8799999999,"ADDRESS":"中山路１７４號","OBJECTID":517914},"geometry":{"x":169122.16999999993,"y":2544076.879999999}},{"attributes":{"ID":517942,"DIS_CODE":0,"TOWNNAME":"中西區","LI":"公正里","LIN":"1鄰","STREET":"中山路","SECT":" ","MAREA":" ","LANE":" ","ALLEY":" ","HOUSE_NO":"１８０號","E_COORD97":169143.98999999999,"N_COORD97":2544089.1000000001,"ADDRESS":"中山路１８０號","OBJECTID":517915},"geometry":{"x":169143.99000000022,"y":2544089.1000000015}},{"attributes":{"ID":517943,"DIS_CODE":0,"TOWNNAME":"中西區","LI":"公正里","LIN":"1鄰","STREET":"中山路","SECT":" ","MAREA":" ","LANE":" ","ALLEY":" ","HOUSE_NO":"１８２號","E_COORD97":169149.29000000001,"N_COORD97":2544099.3700000001,"ADDRESS":"中山路１８２號","OBJECTID":517916},"geometry":{"x":169149.29000000097,"y":2544099.370000001}},{"attributes":{"ID":517944,"DIS_CODE":0,"TOWNNAME":"中西區","LI":"公正里","LIN":"1鄰","STREET":"中山路","SECT":" ","MAREA":" ","LANE":" ","ALLEY":" ","HOUSE_NO":"１８８號","E_COORD97":169162.45000000001,"N_COORD97":2544111.2999999998,"ADDRESS":"中山路１８８號","OBJECTID":517917},"geometry":{"x":169162.45000000019,"y":2544111.3000000045}},{"attributes":{"ID":517945,"DIS_CODE":0,"TOWNNAME":"中西區","LI":"開山里","LIN":"1鄰","STREET":"開山路","SECT":" ","MAREA":" ","LANE":" ","ALLEY":" ","HOUSE_NO":"１９５號","E_COORD97":168924.81,"N_COORD97":2543103.52,"ADDRESS":"開山路１９５號","OBJECTID":517918},"geometry":{"x":168924.81000000052,"y":2543103.5199999996}},{"attributes":{"ID":517946,"DIS_CODE":0,"TOWNNAME":"中西區","LI":"法華里","LIN":"1鄰","STREET":"法華街","SECT":" ","MAREA":" ","LANE":" ","ALLEY":" ","HOUSE_NO":"１５號","E_COORD97":169052.95000000001,"N_COORD97":2542765.5899999999,"ADDRESS":"法華街１５號","OBJECTID":517919},"geometry":{"x":169052.95000000205,"y":2542765.5900000036}},{"attributes":{"ID":517947,"DIS_CODE":0,"TOWNNAME":"中西區","LI":"法華里","LIN":"1鄰","STREET":"法華街","SECT":" ","MAREA":" ","LANE":" ","ALLEY":" ","HOUSE_NO":"５號","E_COORD97":169078.70000000001,"N_COORD97":2542783.29,"ADDRESS":"法華街５號","OBJECTID":517920},"geometry":{"x":169078.70000000112,"y":2542783.2899999991}},{"attributes":{"ID":517948,"DIS_CODE":0,"TOWNNAME":"中西區","LI":"法華里","LIN":"1鄰","STREET":"法華街","SECT":" ","MAREA":" ","LANE":" ","ALLEY":" ","HOUSE_NO":"７號","E_COORD97":169076.54000000001,"N_COORD97":2542779.79,"ADDRESS":"法華街７號","OBJECTID":517921},"geometry":{"x":169076.54000000097,"y":2542779.7899999991}},{"attributes":{"ID":517949,"DIS_CODE":0,"TOWNNAME":"中西區","LI":"法華里","LIN":"1鄰","STREET":"法華街","SECT":" ","MAREA":" ","LANE":" ","ALLEY":" ","HOUSE_NO":"９號","E_COORD97":169070.12,"N_COORD97":2542779.8900000001,"ADDRESS":"法華街９號","OBJECTID":517922},"geometry":{"x":169070.12000000011,"y":2542779.8900000006}},{"attributes":{"ID":517950,"DIS_CODE":0,"TOWNNAME":"中西區","LI":"開山里","LIN":"1鄰","STREET":"開山路","SECT":" ","MAREA":" ","LANE":" ","ALLEY":" ","HOUSE_NO":"１５３號","E_COORD97":168860.64999999999,"N_COORD97":2543186.4100000001,"ADDRESS":"開山路１５３號","OBJECTID":517923},"geometry":{"x":168860.6500000013,"y":2543186.4100000001}},{"attributes":{"ID":517951,"DIS_CODE":0,"TOWNNAME":"中西區","LI":"開山里","LIN":"1鄰","STREET":"開山路","SECT":" ","MAREA":" ","LANE":" ","ALLEY":" ","HOUSE_NO":"１５５號","E_COORD97":168859.06,"N_COORD97":2543180.2599999998,"ADDRESS":"開山路１５５號","OBJECTID":517924},"geometry":{"x":168859.06000000052,"y":2543180.2599999998}},{"attributes":{"ID":517952,"DIS_CODE":0,"TOWNNAME":"中西區","LI":"開山里","LIN":"1鄰","STREET":"開山路","SECT":" ","MAREA":" ","LANE":" ","ALLEY":" ","HOUSE_NO":"１５７號","E_COORD97":168863.84,"N_COORD97":2543176.3900000001,"ADDRESS":"開山路１５７號","OBJECTID":517925},"geometry":{"x":168863.84000000078,"y":2543176.3900000006}},{"attributes":{"ID":517953,"DIS_CODE":0,"TOWNNAME":"中西區","LI":"開山里","LIN":"1鄰","STREET":"開山路","SECT":" ","MAREA":" ","LANE":" ","ALLEY":" ","HOUSE_NO":"１５９號","E_COORD97":168865.26000000001,"N_COORD97":2543172.46,"ADDRESS":"開山路１５９號","OBJECTID":517926},"geometry":{"x":168865.25999999978,"y":2543172.4600000028}},{"attributes":{"ID":517954,"DIS_CODE":0,"TOWNNAME":"中西區","LI":"開山里","LIN":"1鄰","STREET":"開山路","SECT":" ","MAREA":" ","LANE":" ","ALLEY":" ","HOUSE_NO":"１６１號","E_COORD97":168868.04000000001,"N_COORD97":2543168.9500000002,"ADDRESS":"開山路１６１號","OBJECTID":517927},"geometry":{"x":168868.04000000097,"y":2543168.9499999993}},{"attributes":{"ID":517955,"DIS_CODE":0,"TOWNNAME":"中西區","LI":"開山里","LIN":"1鄰","STREET":"開山路","SECT":" ","MAREA":" ","LANE":" ","ALLEY":" ","HOUSE_NO":"１６３號","E_COORD97":168870.39000000001,"N_COORD97":2543164.9900000002,"ADDRESS":"開山路１６３號","OBJECTID":517928},"geometry":{"x":168870.3900000006,"y":2543164.9900000021}},{"attributes":{"ID":517956,"DIS_CODE":0,"TOWNNAME":"中西區","LI":"開山里","LIN":"1鄰","STREET":"開山路","SECT":" ","MAREA":" ","LANE":" ","ALLEY":" ","HOUSE_NO":"１６５號","E_COORD97":168877.70999999999,"N_COORD97":2543174.3599999999,"ADDRESS":"開山路１６５號","OBJECTID":517929},"geometry":{"x":168877.70999999996,"y":2543174.3600000013}},{"attributes":{"ID":517957,"DIS_CODE":0,"TOWNNAME":"中西區","LI":"開山里","LIN":"1鄰","STREET":"開山路","SECT":" ","MAREA":" ","LANE":" ","ALLEY":" ","HOUSE_NO":"１６７號","E_COORD97":168876.82999999999,"N_COORD97":2543165.29,"ADDRESS":"開山路１６７號","OBJECTID":517930},"geometry":{"x":168876.83000000007,"y":2543165.2899999991}},{"attributes":{"ID":517958,"DIS_CODE":0,"TOWNNAME":"中西區","LI":"開山里","LIN":"1鄰","STREET":"開山路","SECT":" ","MAREA":" ","LANE":" ","ALLEY":" ","HOUSE_NO":"１６９號","E_COORD97":168876.82999999999,"N_COORD97":2543160.46,"ADDRESS":"開山路１６９號","OBJECTID":517931},"geometry":{"x":168876.83000000007,"y":2543160.4600000009}},{"attributes":{"ID":517959,"DIS_CODE":0,"TOWNNAME":"中西區","LI":"開山里","LIN":"1鄰","STREET":"開山路","SECT":" ","MAREA":" ","LANE":" ","ALLEY":" ","HOUSE_NO":"１７１號","E_COORD97":168879.67999999999,"N_COORD97":2543157.46,"ADDRESS":"開山路１７１號","OBJECTID":517932},"geometry":{"x":168879.68000000156,"y":2543157.4600000046}},{"attributes":{"ID":517960,"DIS_CODE":0,"TOWNNAME":"中西區","LI":"開山里","LIN":"1鄰","STREET":"開山路","SECT":" ","MAREA":" ","LANE":" ","ALLEY":" ","HOUSE_NO":"１７３號","E_COORD97":168881.88,"N_COORD97":2543154.21,"ADDRESS":"開山路１７３號","OBJECTID":517933},"geometry":{"x":168881.88000000175,"y":2543154.2100000009}},{"attributes":{"ID":517961,"DIS_CODE":0,"TOWNNAME":"中西區","LI":"開山里","LIN":"1鄰","STREET":"開山路","SECT":" ","MAREA":" ","LANE":" ","ALLEY":" ","HOUSE_NO":"１７５號","E_COORD97":168883.41,"N_COORD97":2543149.6200000001,"ADDRESS":"開山路１７５號","OBJECTID":517934},"geometry":{"x":168883.41000000015,"y":2543149.6199999992}},{"attributes":{"ID":517962,"DIS_CODE":0,"TOWNNAME":"中西區","LI":"開山里","LIN":"1鄰","STREET":"開山路","SECT":" ","MAREA":" ","LANE":" ","ALLEY":" ","HOUSE_NO":"１７７號","E_COORD97":168886.47,"N_COORD97":2543146.27,"ADDRESS":"開山路１７７號","OBJECTID":517935},"geometry":{"x":168886.47000000067,"y":2543146.2699999996}},{"attributes":{"ID":517963,"DIS_CODE":0,"TOWNNAME":"中西區","LI":"開山里","LIN":"1鄰","STREET":"開山路","SECT":" ","MAREA":" ","LANE":" ","ALLEY":" ","HOUSE_NO":"１７９號","E_COORD97":168889.54000000001,"N_COORD97":2543142.9500000002,"ADDRESS":"開山路１７９號","OBJECTID":517936},"geometry":{"x":168889.5400000019,"y":2543142.9500000011}},{"attributes":{"ID":517964,"DIS_CODE":0,"TOWNNAME":"中西區","LI":"開山里","LIN":"1鄰","STREET":"開山路","SECT":" ","MAREA":" ","LANE":" ","ALLEY":" ","HOUSE_NO":"１８１號","E_COORD97":168893.98000000001,"N_COORD97":2543136.7400000002,"ADDRESS":"開山路１８１號","OBJECTID":517937},"geometry":{"x":168893.98000000138,"y":2543136.7400000002}},{"attributes":{"ID":517965,"DIS_CODE":0,"TOWNNAME":"中西區","LI":"開山里","LIN":"1鄰","STREET":"開山路","SECT":" ","MAREA":" ","LANE":" ","ALLEY":" ","HOUSE_NO":"１８５號","E_COORD97":168898.79999999999,"N_COORD97":2543130.7599999998,"ADDRESS":"開山路１８５號","OBJECTID":517938},"geometry":{"x":168898.79999999981,"y":2543130.7600000035}},{"attributes":{"ID":517966,"DIS_CODE":0,"TOWNNAME":"中西區","LI":"開山里","LIN":"1鄰","STREET":"開山路","SECT":" ","MAREA":" ","LANE":" ","ALLEY":" ","HOUSE_NO":"１８７號","E_COORD97":168899.95000000001,"N_COORD97":2543126.46,"ADDRESS":"開山路１８７號","OBJECTID":517939},"geometry":{"x":168899.95000000019,"y":2543126.4600000009}},{"attributes":{"ID":517967,"DIS_CODE":0,"TOWNNAME":"中西區","LI":"開山里","LIN":"1鄰","STREET":"開山路","SECT":" ","MAREA":" ","LANE":" ","ALLEY":" ","HOUSE_NO":"１８９號","E_COORD97":168899.82000000001,"N_COORD97":2543121.77,"ADDRESS":"開山路１８９號","OBJECTID":517940},"geometry":{"x":168899.82000000216,"y":2543121.7700000014}},{"attributes":{"ID":517968,"DIS_CODE":0,"TOWNNAME":"中西區","LI":"開山里","LIN":"1鄰","STREET":"開山路","SECT":" ","MAREA":" ","LANE":" ","ALLEY":" ","HOUSE_NO":"１９１號","E_COORD97":168903.62,"N_COORD97":2543118.8500000001,"ADDRESS":"開山路１９１號","OBJECTID":517941},"geometry":{"x":168903.62000000011,"y":2543118.8499999996}},{"attributes":{"ID":517969,"DIS_CODE":0,"TOWNNAME":"中西區","LI":"公正里","LIN":"1鄰","STREET":"中山路","SECT":" ","MAREA":" ","LANE":" ","ALLEY":" ","HOUSE_NO":"１６６號之６","E_COORD97":169047.5,"N_COORD97":2544027.98,"ADDRESS":"中山路１６６號之６","OBJECTID":517942},"geometry":{"x":169047.50000000093,"y":2544027.9799999986}},{"attributes":{"ID":517970,"DIS_CODE":0,"TOWNNAME":"中西區","LI":"五妃里","LIN":"1鄰","STREET":"南門路","SECT":" ","MAREA":" ","LANE":" ","ALLEY":" ","HOUSE_NO":"２５３號","E_COORD97":168374.13,"N_COORD97":2542500.8100000001,"ADDRESS":"南門路２５３號","OBJECTID":517943},"geometry":{"x":168374.13000000082,"y":2542500.8100000024}},{"attributes":{"ID":517971,"DIS_CODE":0,"TOWNNAME":"中西區","LI":"五妃里","LIN":"1鄰","STREET":"南門路","SECT":" ","MAREA":" ","LANE":" ","ALLEY":" ","HOUSE_NO":"２５７號","E_COORD97":168373.64999999999,"N_COORD97":2542495.8399999999,"ADDRESS":"南門路２５７號","OBJECTID":517944},"geometry":{"x":168373.64999999944,"y":2542495.8399999999}},{"attributes":{"ID":517972,"DIS_CODE":0,"TOWNNAME":"中西區","LI":"法華里","LIN":"1鄰","STREET":"府連路","SECT":" ","MAREA":" ","LANE":" ","ALLEY":" ","HOUSE_NO":"１４１號","E_COORD97":169080.85000000001,"N_COORD97":2542769.5600000001,"ADDRESS":"府連路１４１號","OBJECTID":517945},"geometry":{"x":169080.85000000056,"y":2542769.5600000005}},{"attributes":{"ID":517973,"DIS_CODE":0,"TOWNNAME":"中西區","LI":"法華里","LIN":"1鄰","STREET":"府連路","SECT":" ","MAREA":" ","LANE":" ","ALLEY":" ","HOUSE_NO":"１４７號","E_COORD97":169093.03,"N_COORD97":2542787.2799999998,"ADDRESS":"府連路１４７號","OBJECTID":517946},"geometry":{"x":169093.03000000026,"y":2542787.2799999975}},{"attributes":{"ID":517974,"DIS_CODE":0,"TOWNNAME":"中西區","LI":"仙草里","LIN":"1鄰","STREET":"西門路","SECT":"一段","MAREA":" ","LANE":" ","ALLEY":" ","HOUSE_NO":"４４８號","E_COORD97":167748.41,"N_COORD97":2542597.8799999999,"ADDRESS":"西門路一段４４８號","OBJECTID":517947},"geometry":{"x":167748.41000000108,"y":2542597.8800000008}},{"attributes":{"ID":517975,"DIS_CODE":0,"TOWNNAME":"中西區","LI":"仙草里","LIN":"1鄰","STREET":"西門路","SECT":"一段","MAREA":" ","LANE":" ","ALLEY":" ","HOUSE_NO":"４５０號","E_COORD97":167748.20999999999,"N_COORD97":2542602.4300000002,"ADDRESS":"西門路一段４５０號","OBJECTID":517948},"geometry":{"x":167748.20999999996,"y":2542602.4299999997}},{"attributes":{"ID":517976,"DIS_CODE":0,"TOWNNAME":"中西區","LI":"仙草里","LIN":"1鄰","STREET":"西門路","SECT":"一段","MAREA":" ","LANE":" ","ALLEY":" ","HOUSE_NO":"４５２號","E_COORD97":167750.79000000001,"N_COORD97":2542606.1899999999,"ADDRESS":"西門路一段４５２號","OBJECTID":517949},"geometry":{"x":167750.79000000097,"y":2542606.1900000013}},{"attributes":{"ID":517977,"DIS_CODE":0,"TOWNNAME":"中西區","LI":"仙草里","LIN":"1鄰","STREET":"西門路","SECT":"一段","MAREA":" ","LANE":" ","ALLEY":" ","HOUSE_NO":"４５４號","E_COORD97":167749.79999999999,"N_COORD97":2542611.1400000001,"ADDRESS":"西門路一段４５４號","OBJECTID":517950},"geometry":{"x":167749.79999999981,"y":2542611.1400000025}},{"attributes":{"ID":517978,"DIS_CODE":0,"TOWNNAME":"中西區","LI":"仙草里","LIN":"1鄰","STREET":"西門路","SECT":"一段","MAREA":" ","LANE":" ","ALLEY":" ","HOUSE_NO":"４５６號","E_COORD97":167748.41,"N_COORD97":2542614.5099999998,"ADDRESS":"西門路一段４５６號","OBJECTID":517951},"geometry":{"x":167748.41000000108,"y":2542614.5100000016}},{"attributes":{"ID":517979,"DIS_CODE":0,"TOWNNAME":"中西區","LI":"仙草里","LIN":"1鄰","STREET":"西門路","SECT":"一段","MAREA":" ","LANE":" ","ALLEY":" ","HOUSE_NO":"４５８號","E_COORD97":167748.60999999999,"N_COORD97":2542622.4300000002,"ADDRESS":"西門路一段４５８號","OBJECTID":517952},"geometry":{"x":167748.61000000127,"y":2542622.4300000016}},{"attributes":{"ID":517980,"DIS_CODE":0,"TOWNNAME":"中西區","LI":"仙草里","LIN":"1鄰","STREET":"西門路","SECT":"一段","MAREA":" ","LANE":" ","ALLEY":" ","HOUSE_NO":"４６０號","E_COORD97":167750.79000000001,"N_COORD97":2542630.1499999999,"ADDRESS":"西門路一段４６０號","OBJECTID":517953},"geometry":{"x":167750.79000000097,"y":2542630.1500000041}},{"attributes":{"ID":517981,"DIS_CODE":0,"TOWNNAME":"中西區","LI":"仙草里","LIN":"1鄰","STREET":"西門路","SECT":"一段","MAREA":" ","LANE":" ","ALLEY":" ","HOUSE_NO":"４６２號","E_COORD97":167751.17999999999,"N_COORD97":2542635.6899999999,"ADDRESS":"西門路一段４６２號","OBJECTID":517954},"geometry":{"x":167751.18000000063,"y":2542635.6900000032}},{"attributes":{"ID":517982,"DIS_CODE":0,"TOWNNAME":"中西區","LI":"仙草里","LIN":"1鄰","STREET":"西門路","SECT":"一段","MAREA":" ","LANE":" ","ALLEY":" ","HOUSE_NO":"４６４號","E_COORD97":167751.38,"N_COORD97":2542638.5699999998,"ADDRESS":"西門路一段４６４號","OBJECTID":517955},"geometry":{"x":167751.38000000082,"y":2542638.5700000022}},{"attributes":{"ID":517983,"DIS_CODE":0,"TOWNNAME":"東山區","LI":"東中里","LIN":"23鄰","STREET":"福安街","SECT":" ","MAREA":" ","LANE":" ","ALLEY":" ","HOUSE_NO":"２號","E_COORD97":188635.98000000001,"N_COORD97":2579723.6600000001,"ADDRESS":"福安街２號","OBJECTID":517956},"geometry":{"x":188635.98000000231,"y":2579723.6600000001}},{"attributes":{"ID":517984,"DIS_CODE":0,"TOWNNAME":"中西區","LI":"仙草里","LIN":"1鄰","STREET":"西門路","SECT":"一段","MAREA":" ","LANE":" ","ALLEY":" ","HOUSE_NO":"４８０號","E_COORD97":167749.60000000001,"N_COORD97":2542680.3199999998,"ADDRESS":"西門路一段４８０號","OBJECTID":517957},"geometry":{"x":167749.60000000056,"y":2542680.3200000022}},{"attributes":{"ID":517985,"DIS_CODE":0,"TOWNNAME":"中西區","LI":"郡王里","LIN":"1鄰","STREET":"樹林街","SECT":"二段","MAREA":" ","LANE":" ","ALLEY":" ","HOUSE_NO":"３３號","E_COORD97":168800.16,"N_COORD97":2542850.2799999998,"ADDRESS":"樹林街二段３３號","OBJECTID":517958},"geometry":{"x":168800.16000000015,"y":2542850.2799999993}},{"attributes":{"ID":517986,"DIS_CODE":0,"TOWNNAME":"中西區","LI":"公正里","LIN":"1鄰","STREET":"中山路","SECT":" ","MAREA":" ","LANE":" ","ALLEY":" ","HOUSE_NO":"１７６號","E_COORD97":169127.10999999999,"N_COORD97":2544080.6699999999,"ADDRESS":"中山路１７６號","OBJECTID":517959},"geometry":{"x":169127.11000000127,"y":2544080.6700000037}},{"attributes":{"ID":517987,"DIS_CODE":0,"TOWNNAME":"中西區","LI":"五妃里","LIN":"1鄰","STREET":"健康路","SECT":"一段","MAREA":" ","LANE":" ","ALLEY":" ","HOUSE_NO":"２７２號","E_COORD97":168417.89000000001,"N_COORD97":2542452.2200000002,"ADDRESS":"健康路一段２７２號","OBJECTID":517960},"geometry":{"x":168417.8900000006,"y":2542452.2200000007}},{"attributes":{"ID":517988,"DIS_CODE":0,"TOWNNAME":"中西區","LI":"五妃里","LIN":"1鄰","STREET":"健康路","SECT":"一段","MAREA":" ","LANE":" ","ALLEY":" ","HOUSE_NO":"２７６號","E_COORD97":168406.42000000001,"N_COORD97":2542451.8500000001,"ADDRESS":"健康路一段２７６號","OBJECTID":517961},"geometry":{"x":168406.41999999993,"y":2542451.8500000034}},{"attributes":{"ID":517989,"DIS_CODE":0,"TOWNNAME":"中西區","LI":"五妃里","LIN":"1鄰","STREET":"健康路","SECT":"一段","MAREA":" ","LANE":" ","ALLEY":" ","HOUSE_NO":"２７８號","E_COORD97":168402.89999999999,"N_COORD97":2542451,"ADDRESS":"健康路一段２７８號","OBJECTID":517962},"geometry":{"x":168402.9000000013,"y":2542451.0000000037}},{"attributes":{"ID":517990,"DIS_CODE":0,"TOWNNAME":"中西區","LI":"五妃里","LIN":"1鄰","STREET":"健康路","SECT":"一段","MAREA":" ","LANE":" ","ALLEY":" ","HOUSE_NO":"２８０號","E_COORD97":168399.5,"N_COORD97":2542451.6000000001,"ADDRESS":"健康路一段２８０號","OBJECTID":517963},"geometry":{"x":168399.5,"y":2542451.6000000015}},{"attributes":{"ID":517991,"DIS_CODE":0,"TOWNNAME":"中西區","LI":"五妃里","LIN":"1鄰","STREET":"健康路","SECT":"一段","MAREA":" ","LANE":" ","ALLEY":" ","HOUSE_NO":"２８２號","E_COORD97":168391.60999999999,"N_COORD97":2542461.9100000001,"ADDRESS":"健康路一段２８２號","OBJECTID":517964},"geometry":{"x":168391.61000000127,"y":2542461.9099999983}},{"attributes":{"ID":517992,"DIS_CODE":0,"TOWNNAME":"中西區","LI":"大南里","LIN":"1鄰","STREET":"健康路","SECT":"一段","MAREA":" ","LANE":" ","ALLEY":" ","HOUSE_NO":"２８８號","E_COORD97":168330.17000000001,"N_COORD97":2542459.5099999998,"ADDRESS":"健康路一段２８８號","OBJECTID":517965},"geometry":{"x":168330.16999999993,"y":2542459.5099999998}},{"attributes":{"ID":517993,"DIS_CODE":0,"TOWNNAME":"中西區","LI":"大南里","LIN":"1鄰","STREET":"健康路","SECT":"一段","MAREA":" ","LANE":" ","ALLEY":" ","HOUSE_NO":"２９０號","E_COORD97":168325.23999999999,"N_COORD97":2542459.5099999998,"ADDRESS":"健康路一段２９０號","OBJECTID":517966},"geometry":{"x":168325.24000000022,"y":2542459.5099999998}},{"attributes":{"ID":517994,"DIS_CODE":0,"TOWNNAME":"中西區","LI":"大南里","LIN":"1鄰","STREET":"健康路","SECT":"一段","MAREA":" ","LANE":" ","ALLEY":" ","HOUSE_NO":"２９２號","E_COORD97":168320.31,"N_COORD97":2542459.8599999999,"ADDRESS":"健康路一段２９２號","OBJECTID":517967},"geometry":{"x":168320.30999999959,"y":2542459.8600000013}},{"attributes":{"ID":517995,"DIS_CODE":0,"TOWNNAME":"中西區","LI":"大南里","LIN":"1鄰","STREET":"健康路","SECT":"一段","MAREA":" ","LANE":" ","ALLEY":" ","HOUSE_NO":"２９４號","E_COORD97":168315.73000000001,"N_COORD97":2542460.21,"ADDRESS":"健康路一段２９４號","OBJECTID":517968},"geometry":{"x":168315.73000000231,"y":2542460.2100000009}},{"attributes":{"ID":517996,"DIS_CODE":0,"TOWNNAME":"中西區","LI":"大南里","LIN":"1鄰","STREET":"健康路","SECT":"一段","MAREA":" ","LANE":" ","ALLEY":" ","HOUSE_NO":"３２２號","E_COORD97":168231.17999999999,"N_COORD97":2542464.75,"ADDRESS":"健康路一段３２２號","OBJECTID":517969},"geometry":{"x":168231.18000000063,"y":2542464.75}},{"attributes":{"ID":517997,"DIS_CODE":0,"TOWNNAME":"中西區","LI":"大南里","LIN":"1鄰","STREET":"健康路","SECT":"一段","MAREA":" ","LANE":" ","ALLEY":" ","HOUSE_NO":"３２６號","E_COORD97":168220.26000000001,"N_COORD97":2542464.8799999999,"ADDRESS":"健康路一段３２６號","OBJECTID":517970},"geometry":{"x":168220.26000000071,"y":2542464.8800000008}},{"attributes":{"ID":517998,"DIS_CODE":0,"TOWNNAME":"安南區","LI":"溪心里","LIN":"1鄰","STREET":"安中路","SECT":"三段","MAREA":" ","LANE":" ","ALLEY":" ","HOUSE_NO":"２３號","E_COORD97":166310.75,"N_COORD97":2549730.75,"ADDRESS":"安中路三段２３號","OBJECTID":517971},"geometry":{"x":166310.75,"y":2549730.75}},{"attributes":{"ID":517999,"DIS_CODE":0,"TOWNNAME":"安南區","LI":"溪心里","LIN":"1鄰","STREET":"安中路","SECT":"三段","MAREA":" ","LANE":" ","ALLEY":" ","HOUSE_NO":"２７號","E_COORD97":166302.56,"N_COORD97":2549736.5600000001,"ADDRESS":"安中路三段２７號","OBJECTID":517972},"geometry":{"x":166302.56000000052,"y":2549736.5600000005}},{"attributes":{"ID":518000,"DIS_CODE":0,"TOWNNAME":"安南區","LI":"溪心里","LIN":"1鄰","STREET":"安中路","SECT":"三段","MAREA":" ","LANE":" ","ALLEY":" ","HOUSE_NO":"７號","E_COORD97":166337.01999999999,"N_COORD97":2549725.4700000002,"ADDRESS":"安中路三段７號","OBJECTID":517973},"geometry":{"x":166337.01999999955,"y":2549725.4700000025}},{"attributes":{"ID":518001,"DIS_CODE":0,"TOWNNAME":"安南區","LI":"溪心里","LIN":"1鄰","STREET":"海佃路","SECT":"二段","MAREA":" ","LANE":" ","ALLEY":" ","HOUSE_NO":"７２３號","E_COORD97":166372.48999999999,"N_COORD97":2549696.21,"ADDRESS":"海佃路二段７２３號","OBJECTID":517974},"geometry":{"x":166372.49000000022,"y":2549696.2100000028}},{"attributes":{"ID":518002,"DIS_CODE":0,"TOWNNAME":"安南區","LI":"溪心里","LIN":"1鄰","STREET":"海佃路","SECT":"二段","MAREA":" ","LANE":" ","ALLEY":" ","HOUSE_NO":"７３７號","E_COORD97":166359.81,"N_COORD97":2549721.3999999999,"ADDRESS":"海佃路二段７３７號","OBJECTID":517975},"geometry":{"x":166359.81000000052,"y":2549721.4000000041}},{"attributes":{"ID":518003,"DIS_CODE":0,"TOWNNAME":"安南區","LI":"\u25A0南里","LIN":"1鄰","STREET":"環福街","SECT":" ","MAREA":" ","LANE":" ","ALLEY":" ","HOUSE_NO":"４０號","E_COORD97":170216.57000000001,"N_COORD97":2552444.0600000001,"ADDRESS":"環福街４０號","OBJECTID":517976},"geometry":{"x":170216.5700000003,"y":2552444.0600000024}},{"attributes":{"ID":518004,"DIS_CODE":0,"TOWNNAME":"安南區","LI":"\u25A0南里","LIN":"1鄰","STREET":"環福街","SECT":" ","MAREA":" ","LANE":" ","ALLEY":" ","HOUSE_NO":"４２號","E_COORD97":170220.23999999999,"N_COORD97":2552443.5699999998,"ADDRESS":"環福街４２號","OBJECTID":517977},"geometry":{"x":170220.24000000022,"y":2552443.5700000022}},{"attributes":{"ID":518005,"DIS_CODE":0,"TOWNNAME":"安南區","LI":"\u25A0南里","LIN":"1鄰","STREET":"環福街","SECT":" ","MAREA":" ","LANE":" ","ALLEY":" ","HOUSE_NO":"６０號","E_COORD97":170272.04000000001,"N_COORD97":2552439.5600000001,"ADDRESS":"環福街６０號","OBJECTID":517978},"geometry":{"x":170272.04000000004,"y":2552439.5600000042}},{"attributes":{"ID":518006,"DIS_CODE":0,"TOWNNAME":"南區","LI":"國宅里","LIN":"1鄰","STREET":"新興路","SECT":" ","MAREA":" ","LANE":" ","ALLEY":" ","HOUSE_NO":"３４０號","E_COORD97":167032.48999999999,"N_COORD97":2541794.3799999999,"ADDRESS":"新興路３４０號","OBJECTID":517979},"geometry":{"x":167032.49000000115,"y":2541794.3800000008}},{"attributes":{"ID":518007,"DIS_CODE":0,"TOWNNAME":"南區","LI":"國宅里","LIN":"1鄰","STREET":"新興路","SECT":" ","MAREA":" ","LANE":" ","ALLEY":" ","HOUSE_NO":"３４２號","E_COORD97":167021.23999999999,"N_COORD97":2541792.7200000002,"ADDRESS":"新興路３４２號","OBJECTID":517980},"geometry":{"x":167021.24000000022,"y":2541792.7200000044}},{"attributes":{"ID":518008,"DIS_CODE":0,"TOWNNAME":"南區","LI":"國宅里","LIN":"1鄰","STREET":"新興路","SECT":" ","MAREA":" ","LANE":" ","ALLEY":" ","HOUSE_NO":"３４４號","E_COORD97":167008.53,"N_COORD97":2541790.6299999999,"ADDRESS":"新興路３４４號","OBJECTID":517981},"geometry":{"x":167008.53000000119,"y":2541790.629999999}},{"attributes":{"ID":518009,"DIS_CODE":0,"TOWNNAME":"南區","LI":"國宅里","LIN":"1鄰","STREET":"新興路","SECT":" ","MAREA":" ","LANE":" ","ALLEY":" ","HOUSE_NO":"３４６號","E_COORD97":166997.28,"N_COORD97":2541789.3900000001,"ADDRESS":"新興路３４６號","OBJECTID":517982},"geometry":{"x":166997.28000000026,"y":2541789.3900000025}},{"attributes":{"ID":518010,"DIS_CODE":0,"TOWNNAME":"南區","LI":"國宅里","LIN":"1鄰","STREET":"新興路","SECT":" ","MAREA":" ","LANE":" ","ALLEY":" ","HOUSE_NO":"３４８號","E_COORD97":166976.85999999999,"N_COORD97":2541786.4700000002,"ADDRESS":"新興路３４８號","OBJECTID":517983},"geometry":{"x":166976.86000000034,"y":2541786.4700000007}},{"attributes":{"ID":518011,"DIS_CODE":0,"TOWNNAME":"南區","LI":"國宅里","LIN":"1鄰","STREET":"新興路","SECT":" ","MAREA":" ","LANE":" ","ALLEY":" ","HOUSE_NO":"３５０號","E_COORD97":166964.98000000001,"N_COORD97":2541784.8100000001,"ADDRESS":"新興路３５０號","OBJECTID":517984},"geometry":{"x":166964.98000000138,"y":2541784.8099999987}},{"attributes":{"ID":518012,"DIS_CODE":0,"TOWNNAME":"南區","LI":"國宅里","LIN":"1鄰","STREET":"新興路","SECT":" ","MAREA":" ","LANE":" ","ALLEY":" ","HOUSE_NO":"３５２號","E_COORD97":166953.92999999999,"N_COORD97":2541783.5600000001,"ADDRESS":"新興路３５２號","OBJECTID":517985},"geometry":{"x":166953.93000000156,"y":2541783.5600000042}},{"attributes":{"ID":518013,"DIS_CODE":0,"TOWNNAME":"南區","LI":"國宅里","LIN":"1鄰","STREET":"新興路","SECT":" ","MAREA":" ","LANE":" ","ALLEY":" ","HOUSE_NO":"３５４號","E_COORD97":166941.64000000001,"N_COORD97":2541782.73,"ADDRESS":"新興路３５４號","OBJECTID":517986},"geometry":{"x":166941.63999999966,"y":2541782.7300000023}},{"attributes":{"ID":518014,"DIS_CODE":0,"TOWNNAME":"安南區","LI":"城北里","LIN":"1鄰","STREET":"城北路","SECT":" ","MAREA":" ","LANE":" ","ALLEY":" ","HOUSE_NO":"１０號","E_COORD97":160867.10000000001,"N_COORD97":2551481.8199999998,"ADDRESS":"城北路１０號","OBJECTID":517987},"geometry":{"x":160867.10000000149,"y":2551481.8200000022}},{"attributes":{"ID":518015,"DIS_CODE":0,"TOWNNAME":"安南區","LI":"城北里","LIN":"1鄰","STREET":"城北路","SECT":" ","MAREA":" ","LANE":" ","ALLEY":" ","HOUSE_NO":"２２號","E_COORD97":160887.07999999999,"N_COORD97":2551491.3300000001,"ADDRESS":"城北路２２號","OBJECTID":517988},"geometry":{"x":160887.08000000007,"y":2551491.3300000038}},{"attributes":{"ID":518016,"DIS_CODE":0,"TOWNNAME":"南區","LI":"喜東里","LIN":"1鄰","STREET":"明興路","SECT":" ","MAREA":" ","LANE":" ","ALLEY":" ","HOUSE_NO":"３２３號","E_COORD97":166387.82999999999,"N_COORD97":2539028.7799999998,"ADDRESS":"明興路３２３號","OBJECTID":517989},"geometry":{"x":166387.83000000101,"y":2539028.7800000012}},{"attributes":{"ID":518017,"DIS_CODE":0,"TOWNNAME":"南區","LI":"喜東里","LIN":"1鄰","STREET":"明興路","SECT":" ","MAREA":" ","LANE":" ","ALLEY":" ","HOUSE_NO":"３２５號","E_COORD97":166387.95000000001,"N_COORD97":2539024.3399999999,"ADDRESS":"明興路３２５號","OBJECTID":517990},"geometry":{"x":166387.95000000019,"y":2539024.3400000036}},{"attributes":{"ID":518018,"DIS_CODE":0,"TOWNNAME":"南區","LI":"喜東里","LIN":"1鄰","STREET":"明興路","SECT":" ","MAREA":" ","LANE":" ","ALLEY":" ","HOUSE_NO":"３２７號","E_COORD97":166386.51000000001,"N_COORD97":2539020.1400000001,"ADDRESS":"明興路３２７號","OBJECTID":517991},"geometry":{"x":166386.50999999978,"y":2539020.1400000025}},{"attributes":{"ID":518019,"DIS_CODE":0,"TOWNNAME":"南區","LI":"喜南里","LIN":"1鄰","STREET":"喜樹路","SECT":" ","MAREA":" ","LANE":" ","ALLEY":" ","HOUSE_NO":"３１８號","E_COORD97":165725.76999999999,"N_COORD97":2537772.3799999999,"ADDRESS":"喜樹路３１８號","OBJECTID":517992},"geometry":{"x":165725.76999999862,"y":2537772.3800000008}},{"attributes":{"ID":518020,"DIS_CODE":0,"TOWNNAME":"南區","LI":"喜南里","LIN":"1鄰","STREET":"喜樹路","SECT":" ","MAREA":" ","LANE":" ","ALLEY":" ","HOUSE_NO":"３２０號","E_COORD97":165729.67000000001,"N_COORD97":2537761.46,"ADDRESS":"喜樹路３２０號","OBJECTID":517993},"geometry":{"x":165729.66999999993,"y":2537761.4600000028}},{"attributes":{"ID":518021,"DIS_CODE":0,"TOWNNAME":"南區","LI":"喜南里","LIN":"1鄰","STREET":"喜樹路","SECT":" ","MAREA":" ","LANE":" ","ALLEY":" ","HOUSE_NO":"３２２號","E_COORD97":165717.23000000001,"N_COORD97":2537754.8399999999,"ADDRESS":"喜樹路３２２號","OBJECTID":517994},"geometry":{"x":165717.23000000138,"y":2537754.8399999999}},{"attributes":{"ID":518022,"DIS_CODE":0,"TOWNNAME":"南區","LI":"喜南里","LIN":"1鄰","STREET":"喜樹路","SECT":" ","MAREA":" ","LANE":" ","ALLEY":" ","HOUSE_NO":"３２４號","E_COORD97":165716.82999999999,"N_COORD97":2537751.2400000002,"ADDRESS":"喜樹路３２４號","OBJECTID":517995},"geometry":{"x":165716.83000000007,"y":2537751.2400000021}},{"attributes":{"ID":518023,"DIS_CODE":0,"TOWNNAME":"安南區","LI":"城北里","LIN":"1鄰","STREET":"城北路","SECT":" ","MAREA":" ","LANE":" ","ALLEY":" ","HOUSE_NO":"３０號","E_COORD97":160900.26999999999,"N_COORD97":2551497.9700000002,"ADDRESS":"城北路３０號","OBJECTID":517996},"geometry":{"x":160900.27000000048,"y":2551497.9700000025}},{"attributes":{"ID":518024,"DIS_CODE":0,"TOWNNAME":"安南區","LI":"城北里","LIN":"1鄰","STREET":"城北路","SECT":" ","MAREA":" ","LANE":" ","ALLEY":" ","HOUSE_NO":"３４號","E_COORD97":160908.48000000001,"N_COORD97":2551501.4500000002,"ADDRESS":"城北路３４號","OBJECTID":517997},"geometry":{"x":160908.48000000138,"y":2551501.4499999993}},{"attributes":{"ID":518025,"DIS_CODE":0,"TOWNNAME":"安南區","LI":"城北里","LIN":"1鄰","STREET":"城北路","SECT":" ","MAREA":" ","LANE":" ","ALLEY":" ","HOUSE_NO":"３６號","E_COORD97":160913.32000000001,"N_COORD97":2551503.98,"ADDRESS":"城北路３６號","OBJECTID":517998},"geometry":{"x":160913.3200000003,"y":2551503.9800000042}},{"attributes":{"ID":518026,"DIS_CODE":0,"TOWNNAME":"永康區","LI":"埔園里","LIN":"1鄰","STREET":"中山路","SECT":" ","MAREA":" ","LANE":" ","ALLEY":" ","HOUSE_NO":"８２號","E_COORD97":173818.73000000001,"N_COORD97":2547620.2400000002,"ADDRESS":"中山路８２號","OBJECTID":517999},"geometry":{"x":173818.73000000138,"y":2547620.2400000039}},{"attributes":{"ID":518027,"DIS_CODE":0,"TOWNNAME":"永康區","LI":"埔園里","LIN":"1鄰","STREET":"中山路","SECT":" ","MAREA":" ","LANE":" ","ALLEY":" ","HOUSE_NO":"９２號","E_COORD97":173813.75,"N_COORD97":2547639.7400000002,"ADDRESS":"中山路９２號","OBJECTID":518000},"geometry":{"x":173813.75,"y":2547639.7400000002}}]}