{"displayFieldName":"TOWNNAME","fieldAliases":{"ID":"ID","DIS_CODE":"DIS_CODE","TOWNNAME":"TOWNNAME","LI":"LI","LIN":"LIN","STREET":"STREET","SECT":"SECT","MAREA":"MAREA","LANE":"LANE","ALLEY":"ALLEY","HOUSE_NO":"HOUSE_NO","E_COORD97":"E_COORD97","N_COORD97":"N_COORD97","ADDRESS":"ADDRESS","OBJECTID":"OBJECTID"},"geometryType":"esriGeometryPoint","spatialReference":{"wkid":102443,"latestWkid":3826},"fields":[{"name":"ID","type":"esriFieldTypeDouble","alias":"ID"},{"name":"DIS_CODE","type":"esriFieldTypeInteger","alias":"DIS_CODE"},{"name":"TOWNNAME","type":"esriFieldTypeString","alias":"TOWNNAME","length":8},{"name":"LI","type":"esriFieldTypeString","alias":"LI","length":8},{"name":"LIN","type":"esriFieldTypeString","alias":"LIN","length":12},{"name":"STREET","type":"esriFieldTypeString","alias":"STREET","length":20},{"name":"SECT","type":"esriFieldTypeString","alias":"SECT","length":8},{"name":"MAREA","type":"esriFieldTypeString","alias":"MAREA","length":12},{"name":"LANE","type":"esriFieldTypeString","alias":"LANE","length":10},{"name":"ALLEY","type":"esriFieldTypeString","alias":"ALLEY","length":10},{"name":"HOUSE_NO","type":"esriFieldTypeString","alias":"HOUSE_NO","length":20},{"name":"E_COORD97","type":"esriFieldTypeDouble","alias":"E_COORD97"},{"name":"N_COORD97","type":"esriFieldTypeDouble","alias":"N_COORD97"},{"name":"ADDRESS","type":"esriFieldTypeString","alias":"ADDRESS","length":50},{"name":"OBJECTID","type":"esriFieldTypeOID","alias":"OBJECTID"}],"features":[{"attributes":{"ID":232205,"DIS_CODE":0,"TOWNNAME":"永康區","LI":"勝利里","LIN":"23鄰","STREET":"中華一路","SECT":" ","MAREA":" ","LANE":"２２３巷","ALLEY":" ","HOUSE_NO":"１號","E_COORD97":171406.13,"N_COORD97":2544955.75,"ADDRESS":"中華一路２２３巷１號","OBJECTID":232201},"geometry":{"x":171406.13000000175,"y":2544955.7500000019}},{"attributes":{"ID":232206,"DIS_CODE":0,"TOWNNAME":"永康區","LI":"勝利里","LIN":"23鄰","STREET":"中華一路","SECT":" ","MAREA":" ","LANE":"２２３巷","ALLEY":" ","HOUSE_NO":"３號","E_COORD97":171407.89999999999,"N_COORD97":2544950.7400000002,"ADDRESS":"中華一路２２３巷３號","OBJECTID":232202},"geometry":{"x":171407.90000000037,"y":2544950.7400000002}},{"attributes":{"ID":232207,"DIS_CODE":0,"TOWNNAME":"永康區","LI":"勝利里","LIN":"23鄰","STREET":"中華一路","SECT":" ","MAREA":" ","LANE":"２２３巷","ALLEY":" ","HOUSE_NO":"５號","E_COORD97":171408.42999999999,"N_COORD97":2544945.2400000002,"ADDRESS":"中華一路２２３巷５號","OBJECTID":232203},"geometry":{"x":171408.4299999997,"y":2544945.2400000039}},{"attributes":{"ID":232208,"DIS_CODE":0,"TOWNNAME":"永康區","LI":"二王里","LIN":"33鄰","STREET":"中山南路","SECT":" ","MAREA":" ","LANE":"４３６巷","ALLEY":" ","HOUSE_NO":"９號","E_COORD97":172035.51999999999,"N_COORD97":2546384.5899999999,"ADDRESS":"中山南路４３６巷９號","OBJECTID":232204},"geometry":{"x":172035.52000000048,"y":2546384.5900000017}},{"attributes":{"ID":232209,"DIS_CODE":0,"TOWNNAME":"永康區","LI":"二王里","LIN":"9鄰","STREET":"中山南路","SECT":" ","MAREA":" ","LANE":"７６２巷","ALLEY":" ","HOUSE_NO":"５號","E_COORD97":172724.14999999999,"N_COORD97":2546718.8799999999,"ADDRESS":"中山南路７６２巷５號","OBJECTID":232205},"geometry":{"x":172724.1500000013,"y":2546718.879999999}},{"attributes":{"ID":232210,"DIS_CODE":0,"TOWNNAME":"永康區","LI":"勝利里","LIN":"23鄰","STREET":"中華一路","SECT":" ","MAREA":" ","LANE":"２２３巷","ALLEY":" ","HOUSE_NO":"１３號","E_COORD97":171411.23999999999,"N_COORD97":2544914.2400000002,"ADDRESS":"中華一路２２３巷１３號","OBJECTID":232206},"geometry":{"x":171411.24000000115,"y":2544914.2400000002}},{"attributes":{"ID":232211,"DIS_CODE":0,"TOWNNAME":"仁德區","LI":"成功里","LIN":"23鄰","STREET":"成功一街","SECT":" ","MAREA":" ","LANE":"１３１巷","ALLEY":" ","HOUSE_NO":"４２號","E_COORD97":170660.63,"N_COORD97":2539866.9100000001,"ADDRESS":"成功一街１３１巷４２號","OBJECTID":232207},"geometry":{"x":170660.63000000082,"y":2539866.9100000001}},{"attributes":{"ID":232212,"DIS_CODE":0,"TOWNNAME":"仁德區","LI":"成功里","LIN":"23鄰","STREET":"成功一街","SECT":" ","MAREA":" ","LANE":"１３１巷","ALLEY":" ","HOUSE_NO":"５０號","E_COORD97":170651.04000000001,"N_COORD97":2539856.6600000001,"ADDRESS":"成功一街１３１巷５０號","OBJECTID":232208},"geometry":{"x":170651.04000000097,"y":2539856.6600000039}},{"attributes":{"ID":232213,"DIS_CODE":0,"TOWNNAME":"新市區","LI":"新和里","LIN":"14鄰","STREET":"忠孝街","SECT":" ","MAREA":" ","LANE":" ","ALLEY":" ","HOUSE_NO":"９６之１號","E_COORD97":177695.84,"N_COORD97":2552581.2999999998,"ADDRESS":"忠孝街９６之１號","OBJECTID":232209},"geometry":{"x":177695.84000000078,"y":2552581.3000000026}},{"attributes":{"ID":232214,"DIS_CODE":0,"TOWNNAME":"新市區","LI":"新和里","LIN":"14鄰","STREET":"忠孝街","SECT":" ","MAREA":" ","LANE":" ","ALLEY":" ","HOUSE_NO":"１００號","E_COORD97":177695.26000000001,"N_COORD97":2552585.5,"ADDRESS":"忠孝街１００號","OBJECTID":232210},"geometry":{"x":177695.25999999978,"y":2552585.5000000019}},{"attributes":{"ID":232215,"DIS_CODE":0,"TOWNNAME":"新市區","LI":"新和里","LIN":"14鄰","STREET":"忠孝街","SECT":" ","MAREA":" ","LANE":" ","ALLEY":" ","HOUSE_NO":"８６號","E_COORD97":177686.37,"N_COORD97":2552547,"ADDRESS":"忠孝街８６號","OBJECTID":232211},"geometry":{"x":177686.37000000011,"y":2552547}},{"attributes":{"ID":232216,"DIS_CODE":0,"TOWNNAME":"新市區","LI":"新和里","LIN":"14鄰","STREET":"忠孝街","SECT":" ","MAREA":" ","LANE":" ","ALLEY":" ","HOUSE_NO":"８２號","E_COORD97":177684.92000000001,"N_COORD97":2552539,"ADDRESS":"忠孝街８２號","OBJECTID":232212},"geometry":{"x":177684.92000000179,"y":2552539.0000000019}},{"attributes":{"ID":232217,"DIS_CODE":0,"TOWNNAME":"新市區","LI":"新和里","LIN":"14鄰","STREET":"忠孝街","SECT":" ","MAREA":" ","LANE":" ","ALLEY":" ","HOUSE_NO":"１１６號","E_COORD97":177703.98999999999,"N_COORD97":2552621,"ADDRESS":"忠孝街１１６號","OBJECTID":232213},"geometry":{"x":177703.99000000115,"y":2552621}},{"attributes":{"ID":232218,"DIS_CODE":0,"TOWNNAME":"新市區","LI":"新和里","LIN":"14鄰","STREET":"忠孝街","SECT":" ","MAREA":" ","LANE":" ","ALLEY":" ","HOUSE_NO":"９４號","E_COORD97":177691.45999999999,"N_COORD97":2552573.5,"ADDRESS":"忠孝街９４號","OBJECTID":232214},"geometry":{"x":177691.46000000183,"y":2552573.5}},{"attributes":{"ID":232219,"DIS_CODE":0,"TOWNNAME":"新市區","LI":"新和里","LIN":"14鄰","STREET":"忠孝街","SECT":" ","MAREA":" ","LANE":" ","ALLEY":" ","HOUSE_NO":"１２６號","E_COORD97":177709.32000000001,"N_COORD97":2552643.25,"ADDRESS":"忠孝街１２６號","OBJECTID":232215},"geometry":{"x":177709.3200000003,"y":2552643.25}},{"attributes":{"ID":232220,"DIS_CODE":0,"TOWNNAME":"永康區","LI":"王行里","LIN":"14鄰","STREET":"經華路","SECT":" ","MAREA":" ","LANE":" ","ALLEY":" ","HOUSE_NO":"１８號之１","E_COORD97":175340.20000000001,"N_COORD97":2549571.3900000001,"ADDRESS":"經華路１８號之１","OBJECTID":232216},"geometry":{"x":175340.20000000019,"y":2549571.3900000006}},{"attributes":{"ID":232221,"DIS_CODE":0,"TOWNNAME":"永康區","LI":"正強里","LIN":"14鄰","STREET":"正強街","SECT":" ","MAREA":" ","LANE":" ","ALLEY":" ","HOUSE_NO":"９７號","E_COORD97":173329.70000000001,"N_COORD97":2547379.25,"ADDRESS":"正強街９７號","OBJECTID":232217},"geometry":{"x":173329.70000000019,"y":2547379.2500000037}},{"attributes":{"ID":232222,"DIS_CODE":0,"TOWNNAME":"永康區","LI":"王行里","LIN":"14鄰","STREET":"環工路","SECT":" ","MAREA":" ","LANE":" ","ALLEY":" ","HOUSE_NO":"８９號","E_COORD97":174849.39999999999,"N_COORD97":2549769.5,"ADDRESS":"環工路８９號","OBJECTID":232218},"geometry":{"x":174849.40000000224,"y":2549769.5}},{"attributes":{"ID":232223,"DIS_CODE":0,"TOWNNAME":"仁德區","LI":"成功里","LIN":"23鄰","STREET":"成功一街","SECT":" ","MAREA":" ","LANE":"１３１巷","ALLEY":" ","HOUSE_NO":"４６號","E_COORD97":170659.01000000001,"N_COORD97":2539855.1600000001,"ADDRESS":"成功一街１３１巷４６號","OBJECTID":232219},"geometry":{"x":170659.00999999978,"y":2539855.1600000001}},{"attributes":{"ID":232224,"DIS_CODE":0,"TOWNNAME":"永康區","LI":"六合里","LIN":"23鄰","STREET":"中華二路","SECT":" ","MAREA":" ","LANE":"３４０巷","ALLEY":" ","HOUSE_NO":"１號","E_COORD97":171180.29000000001,"N_COORD97":2545450.4900000002,"ADDRESS":"中華二路３４０巷１號","OBJECTID":232220},"geometry":{"x":171180.29000000097,"y":2545450.4900000002}},{"attributes":{"ID":232225,"DIS_CODE":0,"TOWNNAME":"仁德區","LI":"仁和里","LIN":"23鄰","STREET":" ","SECT":" ","MAREA":"仁和","LANE":" ","ALLEY":" ","HOUSE_NO":"４６９號","E_COORD97":170461.23001699999,"N_COORD97":2539808.5499999998,"ADDRESS":"仁和４６９號","OBJECTID":232221},"geometry":{"x":170461.23001699988,"y":2539808.5500000026}},{"attributes":{"ID":232226,"DIS_CODE":0,"TOWNNAME":"永康區","LI":"六合里","LIN":"23鄰","STREET":"中華二路","SECT":" ","MAREA":" ","LANE":"３４０巷","ALLEY":" ","HOUSE_NO":"３號","E_COORD97":171178.73999999999,"N_COORD97":2545459.7400000002,"ADDRESS":"中華二路３４０巷３號","OBJECTID":232222},"geometry":{"x":171178.74000000115,"y":2545459.7400000002}},{"attributes":{"ID":232227,"DIS_CODE":0,"TOWNNAME":"永康區","LI":"三合里","LIN":"6鄰","STREET":"南工街","SECT":" ","MAREA":" ","LANE":"１４６巷","ALLEY":" ","HOUSE_NO":"２號","E_COORD97":172117.66,"N_COORD97":2545821.75,"ADDRESS":"南工街１４６巷２號","OBJECTID":232223},"geometry":{"x":172117.66000000015,"y":2545821.75}},{"attributes":{"ID":232228,"DIS_CODE":0,"TOWNNAME":"永康區","LI":"六合里","LIN":"23鄰","STREET":"中華二路","SECT":" ","MAREA":" ","LANE":"３４０巷","ALLEY":" ","HOUSE_NO":"５號","E_COORD97":171175.62,"N_COORD97":2545469.3700000001,"ADDRESS":"中華二路３４０巷５號","OBJECTID":232224},"geometry":{"x":171175.62000000011,"y":2545469.370000001}},{"attributes":{"ID":232229,"DIS_CODE":0,"TOWNNAME":"永康區","LI":"六合里","LIN":"23鄰","STREET":"中華二路","SECT":" ","MAREA":" ","LANE":"３４０巷","ALLEY":" ","HOUSE_NO":"７號","E_COORD97":171174.42999999999,"N_COORD97":2545479,"ADDRESS":"中華二路３４０巷７號","OBJECTID":232225},"geometry":{"x":171174.4299999997,"y":2545479.0000000019}},{"attributes":{"ID":232230,"DIS_CODE":0,"TOWNNAME":"下營區","LI":"營前里","LIN":"23鄰","STREET":"新進東街","SECT":" ","MAREA":" ","LANE":"２９巷","ALLEY":" ","HOUSE_NO":"２號","E_COORD97":174767.07000000001,"N_COORD97":2569799.0499999998,"ADDRESS":"新進東街２９巷２號","OBJECTID":232226},"geometry":{"x":174767.07000000123,"y":2569799.0500000026}},{"attributes":{"ID":232231,"DIS_CODE":0,"TOWNNAME":"下營區","LI":"營前里","LIN":"23鄰","STREET":"新進東街","SECT":" ","MAREA":" ","LANE":"８６巷","ALLEY":" ","HOUSE_NO":"１８號","E_COORD97":174831.98999999999,"N_COORD97":2569853.6200000001,"ADDRESS":"新進東街８６巷１８號","OBJECTID":232227},"geometry":{"x":174831.99000000115,"y":2569853.6200000029}},{"attributes":{"ID":232232,"DIS_CODE":0,"TOWNNAME":"安平區","LI":"億載里","LIN":"2鄰","STREET":"永華十一街","SECT":" ","MAREA":" ","LANE":"１５９巷","ALLEY":" ","HOUSE_NO":"１０號","E_COORD97":164035.32999999999,"N_COORD97":2543853.02,"ADDRESS":"永華十一街１５９巷１０號","OBJECTID":232228},"geometry":{"x":164035.33000000007,"y":2543853.0199999996}},{"attributes":{"ID":232233,"DIS_CODE":0,"TOWNNAME":"安平區","LI":"億載里","LIN":"2鄰","STREET":"永華十一街","SECT":" ","MAREA":" ","LANE":"１５９巷","ALLEY":" ","HOUSE_NO":"２０號","E_COORD97":164007.59,"N_COORD97":2543843.9500000002,"ADDRESS":"永華十一街１５９巷２０號","OBJECTID":232229},"geometry":{"x":164007.59000000078,"y":2543843.9499999974}},{"attributes":{"ID":232234,"DIS_CODE":0,"TOWNNAME":"安平區","LI":"億載里","LIN":"2鄰","STREET":"永華十一街","SECT":" ","MAREA":" ","LANE":"１５９巷","ALLEY":" ","HOUSE_NO":"２６號","E_COORD97":163994.35999999999,"N_COORD97":2543840.6600000001,"ADDRESS":"永華十一街１５９巷２６號","OBJECTID":232230},"geometry":{"x":163994.36000000127,"y":2543840.660000002}},{"attributes":{"ID":232235,"DIS_CODE":0,"TOWNNAME":"安平區","LI":"億載里","LIN":"2鄰","STREET":"永華十一街","SECT":" ","MAREA":" ","LANE":"１５９巷","ALLEY":" ","HOUSE_NO":"２８號","E_COORD97":163989.62,"N_COORD97":2543839.4399999999,"ADDRESS":"永華十一街１５９巷２８號","OBJECTID":232231},"geometry":{"x":163989.62000000011,"y":2543839.4399999995}},{"attributes":{"ID":232236,"DIS_CODE":0,"TOWNNAME":"安平區","LI":"億載里","LIN":"2鄰","STREET":"永華十一街","SECT":" ","MAREA":" ","LANE":"１５９巷","ALLEY":" ","HOUSE_NO":"３９號","E_COORD97":163961.34,"N_COORD97":2543819.8300000001,"ADDRESS":"永華十一街１５９巷３９號","OBJECTID":232232},"geometry":{"x":163961.34000000078,"y":2543819.8300000019}},{"attributes":{"ID":232237,"DIS_CODE":0,"TOWNNAME":"安平區","LI":"億載里","LIN":"2鄰","STREET":"永華十一街","SECT":" ","MAREA":" ","LANE":"１５９巷","ALLEY":" ","HOUSE_NO":"４１號","E_COORD97":163956.98000000001,"N_COORD97":2543818.5299999998,"ADDRESS":"永華十一街１５９巷４１號","OBJECTID":232233},"geometry":{"x":163956.98000000045,"y":2543818.5299999993}},{"attributes":{"ID":232238,"DIS_CODE":0,"TOWNNAME":"安平區","LI":"億載里","LIN":"2鄰","STREET":"永華十一街","SECT":" ","MAREA":" ","LANE":"１５９巷","ALLEY":" ","HOUSE_NO":"５７號","E_COORD97":163921.38,"N_COORD97":2543810.3399999999,"ADDRESS":"永華十一街１５９巷５７號","OBJECTID":232234},"geometry":{"x":163921.37999999989,"y":2543810.3399999999}},{"attributes":{"ID":232239,"DIS_CODE":0,"TOWNNAME":"安平區","LI":"億載里","LIN":"2鄰","STREET":"永華十一街","SECT":" ","MAREA":" ","LANE":"１５９巷","ALLEY":" ","HOUSE_NO":"５９號","E_COORD97":163916.72,"N_COORD97":2543809.04,"ADDRESS":"永華十一街１５９巷５９號","OBJECTID":232235},"geometry":{"x":163916.72000000067,"y":2543809.0399999991}},{"attributes":{"ID":232240,"DIS_CODE":0,"TOWNNAME":"南區","LI":"新生里","LIN":"2鄰","STREET":"大同路","SECT":"二段","MAREA":" ","LANE":"１８６巷","ALLEY":" ","HOUSE_NO":"１號","E_COORD97":169346.41,"N_COORD97":2541935.3900000001,"ADDRESS":"大同路二段１８６巷１號","OBJECTID":232236},"geometry":{"x":169346.41000000201,"y":2541935.3900000025}},{"attributes":{"ID":232241,"DIS_CODE":0,"TOWNNAME":"永康區","LI":"王行里","LIN":"14鄰","STREET":"環工路","SECT":" ","MAREA":" ","LANE":" ","ALLEY":" ","HOUSE_NO":"９號","E_COORD97":175696.45999999999,"N_COORD97":2549924.77,"ADDRESS":"環工路９號","OBJECTID":232237},"geometry":{"x":175696.46000000089,"y":2549924.7700000033}},{"attributes":{"ID":232242,"DIS_CODE":0,"TOWNNAME":"永康區","LI":"北灣里","LIN":"14鄰","STREET":"大灣七街","SECT":" ","MAREA":" ","LANE":" ","ALLEY":" ","HOUSE_NO":"８７號","E_COORD97":175059.17000000001,"N_COORD97":2545795.7599999998,"ADDRESS":"大灣七街８７號","OBJECTID":232238},"geometry":{"x":175059.17000000086,"y":2545795.7600000016}},{"attributes":{"ID":232243,"DIS_CODE":0,"TOWNNAME":"永康區","LI":"王行里","LIN":"14鄰","STREET":"環工路","SECT":" ","MAREA":" ","LANE":" ","ALLEY":" ","HOUSE_NO":"２５號之１","E_COORD97":175604.82000000001,"N_COORD97":2549659.2599999998,"ADDRESS":"環工路２５號之１","OBJECTID":232239},"geometry":{"x":175604.82000000123,"y":2549659.2599999998}},{"attributes":{"ID":232244,"DIS_CODE":0,"TOWNNAME":"永康區","LI":"王行里","LIN":"14鄰","STREET":"環工路","SECT":" ","MAREA":" ","LANE":" ","ALLEY":" ","HOUSE_NO":"３２號","E_COORD97":175250.59,"N_COORD97":2549335,"ADDRESS":"環工路３２號","OBJECTID":232240},"geometry":{"x":175250.58999999985,"y":2549335.0000000019}},{"attributes":{"ID":232245,"DIS_CODE":0,"TOWNNAME":"永康區","LI":"北灣里","LIN":"14鄰","STREET":"大灣七街","SECT":" ","MAREA":" ","LANE":" ","ALLEY":" ","HOUSE_NO":"８５號","E_COORD97":175059.47,"N_COORD97":2545785.4300000002,"ADDRESS":"大灣七街８５號","OBJECTID":232241},"geometry":{"x":175059.46999999974,"y":2545785.4300000016}},{"attributes":{"ID":232246,"DIS_CODE":0,"TOWNNAME":"永康區","LI":"王行里","LIN":"14鄰","STREET":"環工路","SECT":" ","MAREA":" ","LANE":" ","ALLEY":" ","HOUSE_NO":"１號","E_COORD97":175744.26000000001,"N_COORD97":2550116.1200000001,"ADDRESS":"環工路１號","OBJECTID":232242},"geometry":{"x":175744.25999999978,"y":2550116.120000001}},{"attributes":{"ID":232247,"DIS_CODE":0,"TOWNNAME":"永康區","LI":"北灣里","LIN":"14鄰","STREET":"文賢街","SECT":" ","MAREA":" ","LANE":" ","ALLEY":" ","HOUSE_NO":"２９６號","E_COORD97":175053.45999999999,"N_COORD97":2545839.3700000001,"ADDRESS":"文賢街２９６號","OBJECTID":232243},"geometry":{"x":175053.45999999996,"y":2545839.370000001}},{"attributes":{"ID":232248,"DIS_CODE":0,"TOWNNAME":"永康區","LI":"王行里","LIN":"14鄰","STREET":"環工路","SECT":" ","MAREA":" ","LANE":" ","ALLEY":" ","HOUSE_NO":"１０７號","E_COORD97":175203.67999999999,"N_COORD97":2550070.2799999998,"ADDRESS":"環工路１０７號","OBJECTID":232244},"geometry":{"x":175203.6799999997,"y":2550070.2800000031}},{"attributes":{"ID":232249,"DIS_CODE":0,"TOWNNAME":"永康區","LI":"北灣里","LIN":"14鄰","STREET":"大灣七街","SECT":" ","MAREA":" ","LANE":" ","ALLEY":" ","HOUSE_NO":"１０９號","E_COORD97":175034.29999999999,"N_COORD97":2545897.2599999998,"ADDRESS":"大灣七街１０９號","OBJECTID":232245},"geometry":{"x":175034.30000000168,"y":2545897.2600000035}},{"attributes":{"ID":232250,"DIS_CODE":0,"TOWNNAME":"中西區","LI":"大涼里","LIN":"23鄰","STREET":"永華一街","SECT":" ","MAREA":" ","LANE":"１２２巷","ALLEY":" ","HOUSE_NO":"３９號","E_COORD97":166996.76999999999,"N_COORD97":2543517.4300000002,"ADDRESS":"永華一街１２２巷３９號","OBJECTID":232246},"geometry":{"x":166996.76999999955,"y":2543517.4300000016}},{"attributes":{"ID":232251,"DIS_CODE":0,"TOWNNAME":"中西區","LI":"大涼里","LIN":"23鄰","STREET":"永華一街","SECT":" ","MAREA":" ","LANE":"１２２巷","ALLEY":" ","HOUSE_NO":"３號","E_COORD97":166932.70999999999,"N_COORD97":2543530.5699999998,"ADDRESS":"永華一街１２２巷３號","OBJECTID":232247},"geometry":{"x":166932.71000000089,"y":2543530.5700000022}},{"attributes":{"ID":232252,"DIS_CODE":0,"TOWNNAME":"中西區","LI":"大涼里","LIN":"23鄰","STREET":"永華一街","SECT":" ","MAREA":" ","LANE":"１２２巷","ALLEY":" ","HOUSE_NO":"４１號","E_COORD97":167002.06,"N_COORD97":2543516.1899999999,"ADDRESS":"永華一街１２２巷４１號","OBJECTID":232248},"geometry":{"x":167002.06000000145,"y":2543516.1899999995}},{"attributes":{"ID":232253,"DIS_CODE":0,"TOWNNAME":"中西區","LI":"大涼里","LIN":"23鄰","STREET":"永華一街","SECT":" ","MAREA":" ","LANE":"１２２巷","ALLEY":" ","HOUSE_NO":"９號","E_COORD97":166945.78,"N_COORD97":2543528.7799999998,"ADDRESS":"永華一街１２２巷９號","OBJECTID":232249},"geometry":{"x":166945.78000000119,"y":2543528.7799999993}},{"attributes":{"ID":232254,"DIS_CODE":0,"TOWNNAME":"南區","LI":"新生里","LIN":"2鄰","STREET":"大同路","SECT":"二段","MAREA":" ","LANE":"１８６巷","ALLEY":" ","HOUSE_NO":"３號","E_COORD97":169335.57999999999,"N_COORD97":2541933.2599999998,"ADDRESS":"大同路二段１８６巷３號","OBJECTID":232250},"geometry":{"x":169335.58000000101,"y":2541933.2599999998}},{"attributes":{"ID":232255,"DIS_CODE":0,"TOWNNAME":"北區","LI":"大道里","LIN":"2鄰","STREET":"北門路","SECT":"二段","MAREA":" ","LANE":"５７６巷","ALLEY":" ","HOUSE_NO":"１１號","E_COORD97":169738.39999999999,"N_COORD97":2545771.8599999999,"ADDRESS":"北門路二段５７６巷１１號","OBJECTID":232251},"geometry":{"x":169738.40000000224,"y":2545771.8600000013}},{"attributes":{"ID":232256,"DIS_CODE":0,"TOWNNAME":"永康區","LI":"正強里","LIN":"14鄰","STREET":"正強街","SECT":" ","MAREA":" ","LANE":" ","ALLEY":" ","HOUSE_NO":"１０５號","E_COORD97":173328.73000000001,"N_COORD97":2547395.9900000002,"ADDRESS":"正強街１０５號","OBJECTID":232252},"geometry":{"x":173328.73000000138,"y":2547395.9900000021}},{"attributes":{"ID":232257,"DIS_CODE":0,"TOWNNAME":"北區","LI":"振興里","LIN":"2鄰","STREET":"勝利路","SECT":" ","MAREA":" ","LANE":"２６２巷","ALLEY":" ","HOUSE_NO":"１１號","E_COORD97":169983.39999999999,"N_COORD97":2545132.8599999999,"ADDRESS":"勝利路２６２巷１１號","OBJECTID":232253},"geometry":{"x":169983.40000000037,"y":2545132.8599999994}},{"attributes":{"ID":232258,"DIS_CODE":0,"TOWNNAME":"北區","LI":"振興里","LIN":"2鄰","STREET":"勝利路","SECT":" ","MAREA":" ","LANE":"２６２巷","ALLEY":" ","HOUSE_NO":"１５號","E_COORD97":169992.48999999999,"N_COORD97":2545134.1600000001,"ADDRESS":"勝利路２６２巷１５號","OBJECTID":232254},"geometry":{"x":169992.49000000115,"y":2545134.1600000001}},{"attributes":{"ID":232259,"DIS_CODE":0,"TOWNNAME":"北區","LI":"振興里","LIN":"2鄰","STREET":"勝利路","SECT":" ","MAREA":" ","LANE":"２６２巷","ALLEY":" ","HOUSE_NO":"１號","E_COORD97":169956.22,"N_COORD97":2545128.1000000001,"ADDRESS":"勝利路２６２巷１號","OBJECTID":232255},"geometry":{"x":169956.22000000067,"y":2545128.0999999996}},{"attributes":{"ID":232260,"DIS_CODE":0,"TOWNNAME":"北區","LI":"振興里","LIN":"2鄰","STREET":"勝利路","SECT":" ","MAREA":" ","LANE":"２６２巷","ALLEY":" ","HOUSE_NO":"２號之１","E_COORD97":169947.34,"N_COORD97":2545105.1099999999,"ADDRESS":"勝利路２６２巷２號之１","OBJECTID":232256},"geometry":{"x":169947.34000000078,"y":2545105.1100000013}},{"attributes":{"ID":232261,"DIS_CODE":0,"TOWNNAME":"北區","LI":"國姓里","LIN":"2鄰","STREET":"公園路","SECT":" ","MAREA":" ","LANE":"４３３巷","ALLEY":" ","HOUSE_NO":"２２號","E_COORD97":168933.73000000001,"N_COORD97":2545384.4399999999,"ADDRESS":"公園路４３３巷２２號","OBJECTID":232257},"geometry":{"x":168933.73000000045,"y":2545384.4400000013}},{"attributes":{"ID":232262,"DIS_CODE":0,"TOWNNAME":"北區","LI":"國姓里","LIN":"2鄰","STREET":"公園路","SECT":" ","MAREA":" ","LANE":"４３３巷","ALLEY":" ","HOUSE_NO":"２３號","E_COORD97":168894.19,"N_COORD97":2545366.2799999998,"ADDRESS":"公園路４３３巷２３號","OBJECTID":232258},"geometry":{"x":168894.19000000134,"y":2545366.2799999993}},{"attributes":{"ID":232263,"DIS_CODE":0,"TOWNNAME":"北區","LI":"國姓里","LIN":"2鄰","STREET":"公園路","SECT":" ","MAREA":" ","LANE":"４３３巷","ALLEY":" ","HOUSE_NO":"２４號","E_COORD97":168929.01000000001,"N_COORD97":2545384.9900000002,"ADDRESS":"公園路４３３巷２４號","OBJECTID":232259},"geometry":{"x":168929.01000000071,"y":2545384.9900000021}},{"attributes":{"ID":232264,"DIS_CODE":0,"TOWNNAME":"新營區","LI":"新東里","LIN":"2鄰","STREET":"開元路","SECT":" ","MAREA":" ","LANE":"１０３巷","ALLEY":" ","HOUSE_NO":"１４號","E_COORD97":180967.26000000001,"N_COORD97":2578969.0699999998,"ADDRESS":"開元路１０３巷１４號","OBJECTID":232260},"geometry":{"x":180967.25999999978,"y":2578969.0700000022}},{"attributes":{"ID":232265,"DIS_CODE":0,"TOWNNAME":"永康區","LI":"北灣里","LIN":"14鄰","STREET":"大灣七街","SECT":" ","MAREA":" ","LANE":" ","ALLEY":" ","HOUSE_NO":"９１號","E_COORD97":175055.60999999999,"N_COORD97":2545810.4199999999,"ADDRESS":"大灣七街９１號","OBJECTID":232261},"geometry":{"x":175055.61000000034,"y":2545810.4199999999}},{"attributes":{"ID":232266,"DIS_CODE":0,"TOWNNAME":"永康區","LI":"北灣里","LIN":"14鄰","STREET":"文賢街","SECT":" ","MAREA":" ","LANE":" ","ALLEY":" ","HOUSE_NO":"２９８號","E_COORD97":175048.57000000001,"N_COORD97":2545838.3700000001,"ADDRESS":"文賢街２９８號","OBJECTID":232262},"geometry":{"x":175048.57000000123,"y":2545838.3700000029}},{"attributes":{"ID":232267,"DIS_CODE":0,"TOWNNAME":"永康區","LI":"王行里","LIN":"14鄰","STREET":"王行路","SECT":" ","MAREA":" ","LANE":" ","ALLEY":" ","HOUSE_NO":"７３９號","E_COORD97":175507.98999999999,"N_COORD97":2550260.6400000001,"ADDRESS":"王行路７３９號","OBJECTID":232263},"geometry":{"x":175507.99000000209,"y":2550260.6400000006}},{"attributes":{"ID":232268,"DIS_CODE":0,"TOWNNAME":"永康區","LI":"王行里","LIN":"14鄰","STREET":"環工路","SECT":" ","MAREA":" ","LANE":" ","ALLEY":" ","HOUSE_NO":"７９號","E_COORD97":174911.28,"N_COORD97":2549576.1099999999,"ADDRESS":"環工路７９號","OBJECTID":232264},"geometry":{"x":174911.28000000119,"y":2549576.1099999975}},{"attributes":{"ID":232269,"DIS_CODE":0,"TOWNNAME":"永康區","LI":"王行里","LIN":"14鄰","STREET":"經建路","SECT":" ","MAREA":" ","LANE":" ","ALLEY":" ","HOUSE_NO":"１７號","E_COORD97":175384.29000000001,"N_COORD97":2549699.5699999998,"ADDRESS":"經建路１７號","OBJECTID":232265},"geometry":{"x":175384.29000000097,"y":2549699.570000004}},{"attributes":{"ID":232270,"DIS_CODE":0,"TOWNNAME":"永康區","LI":"三民里","LIN":"6鄰","STREET":"三民街","SECT":" ","MAREA":" ","LANE":"１８巷","ALLEY":" ","HOUSE_NO":"３０號","E_COORD97":173374.67999999999,"N_COORD97":2550176.04,"ADDRESS":"三民街１８巷３０號","OBJECTID":232266},"geometry":{"x":173374.6799999997,"y":2550176.0399999991}},{"attributes":{"ID":232271,"DIS_CODE":0,"TOWNNAME":"永康區","LI":"三合里","LIN":"6鄰","STREET":"南工街","SECT":" ","MAREA":" ","LANE":"１１４巷","ALLEY":" ","HOUSE_NO":"９號","E_COORD97":172135.89000000001,"N_COORD97":2545761.8199999998,"ADDRESS":"南工街１１４巷９號","OBJECTID":232267},"geometry":{"x":172135.88999999966,"y":2545761.820000004}},{"attributes":{"ID":232272,"DIS_CODE":0,"TOWNNAME":"安平區","LI":"國平里","LIN":"2鄰","STREET":"建平七街","SECT":" ","MAREA":" ","LANE":"４５３巷","ALLEY":" ","HOUSE_NO":"６號","E_COORD97":165451.56,"N_COORD97":2543321.7999999998,"ADDRESS":"建平七街４５３巷６號","OBJECTID":232268},"geometry":{"x":165451.56000000052,"y":2543321.8000000026}},{"attributes":{"ID":232273,"DIS_CODE":0,"TOWNNAME":"新營區","LI":"南紙里","LIN":"2鄰","STREET":"太子路","SECT":" ","MAREA":" ","LANE":"１３９巷","ALLEY":" ","HOUSE_NO":"２號","E_COORD97":177952.57000000001,"N_COORD97":2577864.8900000001,"ADDRESS":"太子路１３９巷２號","OBJECTID":232269},"geometry":{"x":177952.57000000123,"y":2577864.8900000043}},{"attributes":{"ID":232274,"DIS_CODE":0,"TOWNNAME":"新營區","LI":"興安里","LIN":"2鄰","STREET":"中興路","SECT":" ","MAREA":" ","LANE":"６６巷","ALLEY":" ","HOUSE_NO":"５號","E_COORD97":180016.79000000001,"N_COORD97":2577441.9199999999,"ADDRESS":"中興路６６巷５號","OBJECTID":232270},"geometry":{"x":180016.7900000019,"y":2577441.9200000018}},{"attributes":{"ID":232275,"DIS_CODE":0,"TOWNNAME":"北區","LI":"興南里","LIN":"2鄰","STREET":"公園路","SECT":" ","MAREA":" ","LANE":"２９５巷","ALLEY":" ","HOUSE_NO":"５號","E_COORD97":168934.04999999999,"N_COORD97":2544821.0899999999,"ADDRESS":"公園路２９５巷５號","OBJECTID":232271},"geometry":{"x":168934.05000000075,"y":2544821.0900000017}},{"attributes":{"ID":232276,"DIS_CODE":0,"TOWNNAME":"北區","LI":"興南里","LIN":"2鄰","STREET":"公園路","SECT":" ","MAREA":" ","LANE":"２９５巷","ALLEY":" ","HOUSE_NO":"９號","E_COORD97":168929.10999999999,"N_COORD97":2544844.1200000001,"ADDRESS":"公園路２９５巷９號","OBJECTID":232272},"geometry":{"x":168929.11000000127,"y":2544844.120000001}},{"attributes":{"ID":232277,"DIS_CODE":0,"TOWNNAME":"永康區","LI":"正強里","LIN":"14鄰","STREET":"正強街","SECT":" ","MAREA":" ","LANE":" ","ALLEY":" ","HOUSE_NO":"９５號","E_COORD97":173329.92000000001,"N_COORD97":2547374.75,"ADDRESS":"正強街９５號","OBJECTID":232273},"geometry":{"x":173329.92000000179,"y":2547374.75}},{"attributes":{"ID":232278,"DIS_CODE":0,"TOWNNAME":"永康區","LI":"正強里","LIN":"14鄰","STREET":"正強街","SECT":" ","MAREA":" ","LANE":" ","ALLEY":" ","HOUSE_NO":"９９號","E_COORD97":173329.38,"N_COORD97":2547382.75,"ADDRESS":"正強街９９號","OBJECTID":232274},"geometry":{"x":173329.37999999989,"y":2547382.7500000019}},{"attributes":{"ID":232279,"DIS_CODE":0,"TOWNNAME":"佳里區","LI":"建南里","LIN":"23鄰","STREET":"祥和三街","SECT":" ","MAREA":" ","LANE":"２３１巷","ALLEY":" ","HOUSE_NO":"１０號","E_COORD97":165436.82000000001,"N_COORD97":2561217.71,"ADDRESS":"祥和三街２３１巷１０號","OBJECTID":232275},"geometry":{"x":165436.82000000123,"y":2561217.7100000028}},{"attributes":{"ID":232280,"DIS_CODE":0,"TOWNNAME":"歸仁區","LI":"大廟里","LIN":"2鄰","STREET":"大廟二街","SECT":" ","MAREA":" ","LANE":"９３巷","ALLEY":" ","HOUSE_NO":"１５號","E_COORD97":176107.20000000001,"N_COORD97":2543952.1699999999,"ADDRESS":"大廟二街９３巷１５號","OBJECTID":232276},"geometry":{"x":176107.20000000112,"y":2543952.1700000018}},{"attributes":{"ID":232281,"DIS_CODE":0,"TOWNNAME":"歸仁區","LI":"武東里","LIN":"2鄰","STREET":"武東二街","SECT":" ","MAREA":" ","LANE":"２０巷","ALLEY":" ","HOUSE_NO":"１８號","E_COORD97":175446.59,"N_COORD97":2535290.25,"ADDRESS":"武東二街２０巷１８號","OBJECTID":232277},"geometry":{"x":175446.59000000078,"y":2535290.2500000019}},{"attributes":{"ID":232282,"DIS_CODE":0,"TOWNNAME":"北區","LI":"勝安里","LIN":"2鄰","STREET":"開元路","SECT":" ","MAREA":" ","LANE":"７１巷","ALLEY":" ","HOUSE_NO":"７號之２","E_COORD97":169707.26000000001,"N_COORD97":2545238.8700000001,"ADDRESS":"開元路７１巷７號之２","OBJECTID":232278},"geometry":{"x":169707.26000000071,"y":2545238.870000001}},{"attributes":{"ID":232283,"DIS_CODE":0,"TOWNNAME":"北區","LI":"勝安里","LIN":"2鄰","STREET":"開元路","SECT":" ","MAREA":" ","LANE":"７１巷","ALLEY":" ","HOUSE_NO":"７號之３","E_COORD97":169702.04999999999,"N_COORD97":2545237.29,"ADDRESS":"開元路７１巷７號之３","OBJECTID":232279},"geometry":{"x":169702.04999999981,"y":2545237.2899999991}},{"attributes":{"ID":232284,"DIS_CODE":0,"TOWNNAME":"北區","LI":"勝安里","LIN":"2鄰","STREET":"開元路","SECT":" ","MAREA":" ","LANE":"７１巷","ALLEY":" ","HOUSE_NO":"７號之４","E_COORD97":169698.10999999999,"N_COORD97":2545236.3500000001,"ADDRESS":"開元路７１巷７號之４","OBJECTID":232280},"geometry":{"x":169698.11000000127,"y":2545236.3500000015}},{"attributes":{"ID":232285,"DIS_CODE":0,"TOWNNAME":"北區","LI":"勝安里","LIN":"2鄰","STREET":"開元路","SECT":" ","MAREA":" ","LANE":"７１巷","ALLEY":" ","HOUSE_NO":"８號","E_COORD97":169744.48999999999,"N_COORD97":2545245.3300000001,"ADDRESS":"開元路７１巷８號","OBJECTID":232281},"geometry":{"x":169744.49000000209,"y":2545245.3300000001}},{"attributes":{"ID":232286,"DIS_CODE":0,"TOWNNAME":"北區","LI":"長榮里","LIN":"2鄰","STREET":"長榮路","SECT":"五段","MAREA":" ","LANE":"４１巷","ALLEY":" ","HOUSE_NO":"４０號","E_COORD97":169892.04999999999,"N_COORD97":2545649.98,"ADDRESS":"長榮路五段４１巷４０號","OBJECTID":232282},"geometry":{"x":169892.04999999981,"y":2545649.9800000023}},{"attributes":{"ID":232287,"DIS_CODE":0,"TOWNNAME":"新營區","LI":"忠政里","LIN":"2鄰","STREET":"中正路","SECT":" ","MAREA":" ","LANE":"３５巷","ALLEY":" ","HOUSE_NO":"１６號","E_COORD97":180052.37,"N_COORD97":2579083,"ADDRESS":"中正路３５巷１６號","OBJECTID":232283},"geometry":{"x":180052.37000000104,"y":2579083}},{"attributes":{"ID":232288,"DIS_CODE":0,"TOWNNAME":"新營區","LI":"忠政里","LIN":"2鄰","STREET":"中正路","SECT":" ","MAREA":" ","LANE":"３１巷","ALLEY":" ","HOUSE_NO":"７號","E_COORD97":180049.82999999999,"N_COORD97":2579019.8799999999,"ADDRESS":"中正路３１巷７號","OBJECTID":232284},"geometry":{"x":180049.83000000007,"y":2579019.8800000008}},{"attributes":{"ID":232289,"DIS_CODE":0,"TOWNNAME":"新營區","LI":"新北里","LIN":"2鄰","STREET":"周武街","SECT":" ","MAREA":" ","LANE":"５２巷","ALLEY":" ","HOUSE_NO":"１號","E_COORD97":179386.73999999999,"N_COORD97":2578964.3399999999,"ADDRESS":"周武街５２巷１號","OBJECTID":232285},"geometry":{"x":179386.74000000115,"y":2578964.3400000017}},{"attributes":{"ID":232290,"DIS_CODE":0,"TOWNNAME":"北區","LI":"大和里","LIN":"2鄰","STREET":"大興街","SECT":" ","MAREA":" ","LANE":"４０巷","ALLEY":" ","HOUSE_NO":"３７號","E_COORD97":167238.60000000001,"N_COORD97":2545941.71,"ADDRESS":"大興街４０巷３７號","OBJECTID":232286},"geometry":{"x":167238.59999999963,"y":2545941.7100000009}},{"attributes":{"ID":232291,"DIS_CODE":0,"TOWNNAME":"北區","LI":"振興里","LIN":"2鄰","STREET":"勝利路","SECT":" ","MAREA":" ","LANE":"２６２巷","ALLEY":" ","HOUSE_NO":"１３號","E_COORD97":169987.84,"N_COORD97":2545134.21,"ADDRESS":"勝利路２６２巷１３號","OBJECTID":232287},"geometry":{"x":169987.84000000078,"y":2545134.2100000009}},{"attributes":{"ID":232292,"DIS_CODE":0,"TOWNNAME":"北區","LI":"振興里","LIN":"2鄰","STREET":"勝利路","SECT":" ","MAREA":" ","LANE":"２７６巷","ALLEY":" ","HOUSE_NO":"８號之１","E_COORD97":169977.35000000001,"N_COORD97":2545148.98,"ADDRESS":"勝利路２７６巷８之１號","OBJECTID":232288},"geometry":{"x":169977.35000000056,"y":2545148.9800000004}},{"attributes":{"ID":232293,"DIS_CODE":0,"TOWNNAME":"北區","LI":"賢北里","LIN":"2鄰","STREET":"中華北路","SECT":"一段","MAREA":" ","LANE":"１０５巷","ALLEY":" ","HOUSE_NO":"６３號","E_COORD97":166333.59,"N_COORD97":2545411.3599999999,"ADDRESS":"中華北路一段１０５巷６３號","OBJECTID":232289},"geometry":{"x":166333.58999999985,"y":2545411.3600000031}},{"attributes":{"ID":232294,"DIS_CODE":0,"TOWNNAME":"永康區","LI":"網寮里","LIN":"2鄰","STREET":"永和街","SECT":" ","MAREA":" ","LANE":"１００巷","ALLEY":" ","HOUSE_NO":"５號","E_COORD97":173644.60999999999,"N_COORD97":2546506.0800000001,"ADDRESS":"永和街１００巷５號","OBJECTID":232290},"geometry":{"x":173644.61000000127,"y":2546506.0800000019}},{"attributes":{"ID":232295,"DIS_CODE":0,"TOWNNAME":"永康區","LI":"永康里","LIN":"30鄰","STREET":"永大路","SECT":"二段","MAREA":" ","LANE":"９０９巷","ALLEY":" ","HOUSE_NO":"１０號","E_COORD97":174214.31,"N_COORD97":2547065.3199999998,"ADDRESS":"永大路二段９０９巷１０號","OBJECTID":232291},"geometry":{"x":174214.30999999959,"y":2547065.3200000003}},{"attributes":{"ID":232296,"DIS_CODE":0,"TOWNNAME":"中西區","LI":"元安里","LIN":"2鄰","STREET":"西門路","SECT":"一段","MAREA":" ","LANE":"７０３巷","ALLEY":" ","HOUSE_NO":"１９號","E_COORD97":167590.70000000001,"N_COORD97":2543241.9500000002,"ADDRESS":"西門路一段７０３巷１９號","OBJECTID":232292},"geometry":{"x":167590.70000000112,"y":2543241.9500000011}},{"attributes":{"ID":232297,"DIS_CODE":0,"TOWNNAME":"中西區","LI":"元安里","LIN":"2鄰","STREET":"西門路","SECT":"一段","MAREA":" ","LANE":"７０３巷","ALLEY":" ","HOUSE_NO":"２１號","E_COORD97":167586.39999999999,"N_COORD97":2543242.0699999998,"ADDRESS":"西門路一段７０３巷２１號","OBJECTID":232293},"geometry":{"x":167586.40000000037,"y":2543242.0700000022}},{"attributes":{"ID":232298,"DIS_CODE":0,"TOWNNAME":"永康區","LI":"王行里","LIN":"14鄰","STREET":"經中路","SECT":" ","MAREA":" ","LANE":" ","ALLEY":" ","HOUSE_NO":"１２號","E_COORD97":175222.06,"N_COORD97":2549669.6000000001,"ADDRESS":"經中路１２號","OBJECTID":232294},"geometry":{"x":175222.06000000145,"y":2549669.6000000015}},{"attributes":{"ID":232299,"DIS_CODE":0,"TOWNNAME":"永康區","LI":"三合里","LIN":"15鄰","STREET":"南工街","SECT":" ","MAREA":" ","LANE":"２４７巷","ALLEY":" ","HOUSE_NO":"１１號","E_COORD97":171981.60000000001,"N_COORD97":2545909.75,"ADDRESS":"南工街２４７巷１１號","OBJECTID":232295},"geometry":{"x":171981.59999999963,"y":2545909.75}},{"attributes":{"ID":232300,"DIS_CODE":0,"TOWNNAME":"學甲區","LI":"秀昌里","LIN":"23鄰","STREET":"中正路","SECT":" ","MAREA":" ","LANE":"４７１巷","ALLEY":" ","HOUSE_NO":"１１號","E_COORD97":166394.13,"N_COORD97":2570896.7000000002,"ADDRESS":"中正路４７１巷１１號","OBJECTID":232296},"geometry":{"x":166394.13000000082,"y":2570896.6999999993}},{"attributes":{"ID":232301,"DIS_CODE":0,"TOWNNAME":"學甲區","LI":"秀昌里","LIN":"23鄰","STREET":"中正路","SECT":" ","MAREA":" ","LANE":"４７１巷","ALLEY":" ","HOUSE_NO":"１３號","E_COORD97":166380.04000000001,"N_COORD97":2570910.0899999999,"ADDRESS":"中正路４７１巷１３號","OBJECTID":232297},"geometry":{"x":166380.04000000004,"y":2570910.0900000017}},{"attributes":{"ID":232302,"DIS_CODE":0,"TOWNNAME":"學甲區","LI":"秀昌里","LIN":"23鄰","STREET":"中正路","SECT":" ","MAREA":" ","LANE":"４７１巷","ALLEY":" ","HOUSE_NO":"１５號","E_COORD97":166377.06,"N_COORD97":2570905.7000000002,"ADDRESS":"中正路４７１巷１５號","OBJECTID":232298},"geometry":{"x":166377.06000000052,"y":2570905.7000000011}},{"attributes":{"ID":232303,"DIS_CODE":0,"TOWNNAME":"學甲區","LI":"秀昌里","LIN":"23鄰","STREET":"中正路","SECT":" ","MAREA":" ","LANE":"４７１巷","ALLEY":" ","HOUSE_NO":"１７號","E_COORD97":166383.04999999999,"N_COORD97":2570914.46,"ADDRESS":"中正路４７１巷１７號","OBJECTID":232299},"geometry":{"x":166383.04999999981,"y":2570914.4600000046}},{"attributes":{"ID":232304,"DIS_CODE":0,"TOWNNAME":"學甲區","LI":"秀昌里","LIN":"23鄰","STREET":"中正路","SECT":" ","MAREA":" ","LANE":"４７１巷","ALLEY":" ","HOUSE_NO":"１９號","E_COORD97":166396.67000000001,"N_COORD97":2570921.6299999999,"ADDRESS":"中正路４７１巷１９號","OBJECTID":232300},"geometry":{"x":166396.67000000086,"y":2570921.6300000027}},{"attributes":{"ID":232305,"DIS_CODE":0,"TOWNNAME":"學甲區","LI":"秀昌里","LIN":"23鄰","STREET":"中正路","SECT":" ","MAREA":" ","LANE":"４７１巷","ALLEY":" ","HOUSE_NO":"１號","E_COORD97":166412.45999999999,"N_COORD97":2570909.54,"ADDRESS":"中正路４７１巷１號","OBJECTID":232301},"geometry":{"x":166412.45999999996,"y":2570909.540000001}},{"attributes":{"ID":232306,"DIS_CODE":0,"TOWNNAME":"學甲區","LI":"秀昌里","LIN":"23鄰","STREET":"中正路","SECT":" ","MAREA":" ","LANE":"４７１巷","ALLEY":" ","HOUSE_NO":"２１號","E_COORD97":166392.70999999999,"N_COORD97":2570924.8500000001,"ADDRESS":"中正路４７１巷２１號","OBJECTID":232302},"geometry":{"x":166392.70999999996,"y":2570924.8500000015}},{"attributes":{"ID":232307,"DIS_CODE":0,"TOWNNAME":"學甲區","LI":"秀昌里","LIN":"23鄰","STREET":"中正路","SECT":" ","MAREA":" ","LANE":"４７１巷","ALLEY":" ","HOUSE_NO":"２３號","E_COORD97":166388.04000000001,"N_COORD97":2570927.4199999999,"ADDRESS":"中正路４７１巷２３號","OBJECTID":232303},"geometry":{"x":166388.04000000097,"y":2570927.4200000037}},{"attributes":{"ID":232308,"DIS_CODE":0,"TOWNNAME":"中西區","LI":"元安里","LIN":"2鄰","STREET":"西門路","SECT":"一段","MAREA":" ","LANE":"７０３巷","ALLEY":" ","HOUSE_NO":"２５號","E_COORD97":167578.31,"N_COORD97":2543242.2599999998,"ADDRESS":"西門路一段７０３巷２５號","OBJECTID":232304},"geometry":{"x":167578.30999999959,"y":2543242.2599999979}},{"attributes":{"ID":232309,"DIS_CODE":0,"TOWNNAME":"中西區","LI":"大涼里","LIN":"2鄰","STREET":"尊王路","SECT":" ","MAREA":" ","LANE":"１７６巷","ALLEY":" ","HOUSE_NO":"１０號","E_COORD97":167221.57999999999,"N_COORD97":2543710.5800000001,"ADDRESS":"尊王路１７６巷１０號","OBJECTID":232305},"geometry":{"x":167221.58000000101,"y":2543710.5800000001}},{"attributes":{"ID":232310,"DIS_CODE":0,"TOWNNAME":"中西區","LI":"大涼里","LIN":"2鄰","STREET":"尊王路","SECT":" ","MAREA":" ","LANE":"１７６巷","ALLEY":" ","HOUSE_NO":"１１號","E_COORD97":167212.26999999999,"N_COORD97":2543723.1000000001,"ADDRESS":"尊王路１７６巷１１號","OBJECTID":232306},"geometry":{"x":167212.26999999955,"y":2543723.1000000015}},{"attributes":{"ID":232311,"DIS_CODE":0,"TOWNNAME":"南區","LI":"竹溪里","LIN":"2鄰","STREET":"健康路","SECT":"一段","MAREA":" ","LANE":"１３３巷","ALLEY":" ","HOUSE_NO":"３５號","E_COORD97":168897.14999999999,"N_COORD97":2542312.6699999999,"ADDRESS":"健康路一段１３３巷３５號","OBJECTID":232307},"geometry":{"x":168897.15000000037,"y":2542312.6699999999}},{"attributes":{"ID":232312,"DIS_CODE":0,"TOWNNAME":"永康區","LI":"西灣里","LIN":"28鄰","STREET":"公園路","SECT":" ","MAREA":" ","LANE":"７巷","ALLEY":" ","HOUSE_NO":"４１號","E_COORD97":174476.73999999999,"N_COORD97":2545927.9100000001,"ADDRESS":"公園路７巷４１號","OBJECTID":232308},"geometry":{"x":174476.74000000022,"y":2545927.910000002}},{"attributes":{"ID":232313,"DIS_CODE":0,"TOWNNAME":"永康區","LI":"南灣里","LIN":"2鄰","STREET":"大灣一街","SECT":" ","MAREA":" ","LANE":"１４７巷","ALLEY":" ","HOUSE_NO":"６號","E_COORD97":174690.63,"N_COORD97":2544654.71,"ADDRESS":"大灣一街１４７巷６號","OBJECTID":232309},"geometry":{"x":174690.62999999989,"y":2544654.7100000028}},{"attributes":{"ID":232314,"DIS_CODE":0,"TOWNNAME":"永康區","LI":"神洲里","LIN":"2鄰","STREET":"忠孝路","SECT":" ","MAREA":" ","LANE":"３２巷","ALLEY":" ","HOUSE_NO":"６號","E_COORD97":172111.31,"N_COORD97":2544635.9900000002,"ADDRESS":"忠孝路３２巷６號","OBJECTID":232310},"geometry":{"x":172111.30999999866,"y":2544635.9900000021}},{"attributes":{"ID":232315,"DIS_CODE":0,"TOWNNAME":"東區","LI":"關聖里","LIN":"2鄰","STREET":"裕農路","SECT":" ","MAREA":" ","LANE":"６６８巷","ALLEY":" ","HOUSE_NO":"７０號","E_COORD97":171741.79999999999,"N_COORD97":2542902.6099999999,"ADDRESS":"裕農路６６８巷７０號","OBJECTID":232311},"geometry":{"x":171741.79999999981,"y":2542902.6099999994}},{"attributes":{"ID":232316,"DIS_CODE":0,"TOWNNAME":"中西區","LI":"仙草里","LIN":"2鄰","STREET":"五妃街","SECT":" ","MAREA":" ","LANE":"３２２巷","ALLEY":" ","HOUSE_NO":"１３號","E_COORD97":167814.98000000001,"N_COORD97":2542640.6699999999,"ADDRESS":"五妃街３２２巷１３號","OBJECTID":232312},"geometry":{"x":167814.98000000045,"y":2542640.6700000018}},{"attributes":{"ID":232317,"DIS_CODE":0,"TOWNNAME":"永康區","LI":"王行里","LIN":"14鄰","STREET":"環工路","SECT":" ","MAREA":" ","LANE":" ","ALLEY":" ","HOUSE_NO":"５６號之１","E_COORD97":174919.29999999999,"N_COORD97":2549780.8700000001,"ADDRESS":"環工路５６號之１","OBJECTID":232313},"geometry":{"x":174919.30000000075,"y":2549780.8700000029}},{"attributes":{"ID":232318,"DIS_CODE":0,"TOWNNAME":"永康區","LI":"王行里","LIN":"14鄰","STREET":"環工路","SECT":" ","MAREA":" ","LANE":" ","ALLEY":" ","HOUSE_NO":"６６號","E_COORD97":175053.62,"N_COORD97":2549894.27,"ADDRESS":"環工路６６號","OBJECTID":232314},"geometry":{"x":175053.62000000011,"y":2549894.2700000033}},{"attributes":{"ID":232319,"DIS_CODE":0,"TOWNNAME":"永康區","LI":"王行里","LIN":"14鄰","STREET":"經華路","SECT":" ","MAREA":" ","LANE":" ","ALLEY":" ","HOUSE_NO":"１３號","E_COORD97":175213.70000000001,"N_COORD97":2549508.4900000002,"ADDRESS":"經華路１３號","OBJECTID":232315},"geometry":{"x":175213.70000000112,"y":2549508.4900000002}},{"attributes":{"ID":232320,"DIS_CODE":0,"TOWNNAME":"永康區","LI":"王行里","LIN":"14鄰","STREET":"環工路","SECT":" ","MAREA":" ","LANE":" ","ALLEY":" ","HOUSE_NO":"４９號","E_COORD97":175204.64999999999,"N_COORD97":2549236.5,"ADDRESS":"環工路４９號","OBJECTID":232316},"geometry":{"x":175204.65000000037,"y":2549236.5000000019}},{"attributes":{"ID":232321,"DIS_CODE":0,"TOWNNAME":"永康區","LI":"王行里","LIN":"14鄰","STREET":"經建路","SECT":" ","MAREA":" ","LANE":" ","ALLEY":" ","HOUSE_NO":"５號","E_COORD97":175492.01000000001,"N_COORD97":2549806.8199999998,"ADDRESS":"經建路５號","OBJECTID":232317},"geometry":{"x":175492.00999999885,"y":2549806.8200000022}},{"attributes":{"ID":232322,"DIS_CODE":0,"TOWNNAME":"北區","LI":"國姓里","LIN":"13鄰","STREET":"小北路","SECT":" ","MAREA":" ","LANE":" ","ALLEY":" ","HOUSE_NO":"１７號","E_COORD97":168701.67999999999,"N_COORD97":2545230.2400000002,"ADDRESS":"小北路１７號","OBJECTID":232318},"geometry":{"x":168701.68000000156,"y":2545230.2400000021}},{"attributes":{"ID":232323,"DIS_CODE":0,"TOWNNAME":"永康區","LI":"王行里","LIN":"14鄰","STREET":"經建路","SECT":" ","MAREA":" ","LANE":" ","ALLEY":" ","HOUSE_NO":"１１號","E_COORD97":175412.39999999999,"N_COORD97":2549722.0800000001,"ADDRESS":"經建路１１號","OBJECTID":232319},"geometry":{"x":175412.4000000013,"y":2549722.0800000001}},{"attributes":{"ID":232324,"DIS_CODE":0,"TOWNNAME":"永康區","LI":"王行里","LIN":"14鄰","STREET":"環工路","SECT":" ","MAREA":" ","LANE":" ","ALLEY":" ","HOUSE_NO":"５０號之１","E_COORD97":174952.12,"N_COORD97":2549632.0499999998,"ADDRESS":"環工路５０號之１","OBJECTID":232320},"geometry":{"x":174952.12000000011,"y":2549632.0500000007}},{"attributes":{"ID":232325,"DIS_CODE":0,"TOWNNAME":"永康區","LI":"王行里","LIN":"14鄰","STREET":"環工路","SECT":" ","MAREA":" ","LANE":" ","ALLEY":" ","HOUSE_NO":"４７號","E_COORD97":175234.16,"N_COORD97":2549260.73,"ADDRESS":"環工路４７號","OBJECTID":232321},"geometry":{"x":175234.16000000108,"y":2549260.7300000004}},{"attributes":{"ID":232326,"DIS_CODE":0,"TOWNNAME":"學甲區","LI":"秀昌里","LIN":"23鄰","STREET":"中正路","SECT":" ","MAREA":" ","LANE":"４７１巷","ALLEY":" ","HOUSE_NO":"９號","E_COORD97":166396.82000000001,"N_COORD97":2570900.21,"ADDRESS":"中正路４７１巷９號","OBJECTID":232322},"geometry":{"x":166396.8200000003,"y":2570900.2100000028}},{"attributes":{"ID":232327,"DIS_CODE":0,"TOWNNAME":"學甲區","LI":"中洲里","LIN":"23鄰","STREET":" ","SECT":" ","MAREA":"中洲","LANE":" ","ALLEY":" ","HOUSE_NO":"２９４號","E_COORD97":163707.92000000001,"N_COORD97":2571625.5,"ADDRESS":"中洲２９４號","OBJECTID":232323},"geometry":{"x":163707.92000000179,"y":2571625.5000000037}},{"attributes":{"ID":232328,"DIS_CODE":0,"TOWNNAME":"學甲區","LI":"中洲里","LIN":"23鄰","STREET":" ","SECT":" ","MAREA":"中洲","LANE":" ","ALLEY":" ","HOUSE_NO":"２８０號","E_COORD97":163639.54999999999,"N_COORD97":2571724.8100000001,"ADDRESS":"中洲２８０號","OBJECTID":232324},"geometry":{"x":163639.55000000075,"y":2571724.8100000005}},{"attributes":{"ID":232329,"DIS_CODE":0,"TOWNNAME":"學甲區","LI":"中洲里","LIN":"23鄰","STREET":" ","SECT":" ","MAREA":"中洲","LANE":" ","ALLEY":" ","HOUSE_NO":"２８４號之１","E_COORD97":163656.70000000001,"N_COORD97":2571645.6699999999,"ADDRESS":"中洲２８４號之１","OBJECTID":232325},"geometry":{"x":163656.70000000019,"y":2571645.6700000018}},{"attributes":{"ID":232330,"DIS_CODE":0,"TOWNNAME":"學甲區","LI":"中洲里","LIN":"23鄰","STREET":" ","SECT":" ","MAREA":"中洲","LANE":" ","ALLEY":" ","HOUSE_NO":"２８４號","E_COORD97":163647.67000000001,"N_COORD97":2571657.2000000002,"ADDRESS":"中洲２８４號","OBJECTID":232326},"geometry":{"x":163647.67000000086,"y":2571657.200000003}},{"attributes":{"ID":232331,"DIS_CODE":0,"TOWNNAME":"學甲區","LI":"中洲里","LIN":"23鄰","STREET":" ","SECT":" ","MAREA":"中洲","LANE":" ","ALLEY":" ","HOUSE_NO":"２８６號","E_COORD97":163677.98999999999,"N_COORD97":2571652.6099999999,"ADDRESS":"中洲２８６號","OBJECTID":232327},"geometry":{"x":163677.99000000115,"y":2571652.6100000013}},{"attributes":{"ID":232332,"DIS_CODE":0,"TOWNNAME":"永康區","LI":"三民里","LIN":"11鄰","STREET":"和平路","SECT":" ","MAREA":" ","LANE":"２１２巷","ALLEY":" ","HOUSE_NO":"２５號","E_COORD97":174907.85999999999,"N_COORD97":2550728.23,"ADDRESS":"和平路２１２巷２５號","OBJECTID":232328},"geometry":{"x":174907.86000000127,"y":2550728.2300000004}},{"attributes":{"ID":232333,"DIS_CODE":0,"TOWNNAME":"歸仁區","LI":"南興里","LIN":"23鄰","STREET":"文化二十街","SECT":" ","MAREA":" ","LANE":"１２巷","ALLEY":" ","HOUSE_NO":"２號","E_COORD97":175488.57000000001,"N_COORD97":2541231.2599999998,"ADDRESS":"文化二十街１２巷２號","OBJECTID":232329},"geometry":{"x":175488.5700000003,"y":2541231.2599999998}},{"attributes":{"ID":232334,"DIS_CODE":0,"TOWNNAME":"學甲區","LI":"中洲里","LIN":"23鄰","STREET":" ","SECT":" ","MAREA":"中洲","LANE":" ","ALLEY":" ","HOUSE_NO":"２８７號","E_COORD97":163675.03,"N_COORD97":2571633.8700000001,"ADDRESS":"中洲２８７號","OBJECTID":232330},"geometry":{"x":163675.03000000026,"y":2571633.8699999992}},{"attributes":{"ID":232335,"DIS_CODE":0,"TOWNNAME":"學甲區","LI":"中洲里","LIN":"23鄰","STREET":" ","SECT":" ","MAREA":"中洲","LANE":" ","ALLEY":" ","HOUSE_NO":"２９０號","E_COORD97":163693.57000000001,"N_COORD97":2571624.6699999999,"ADDRESS":"中洲２９０號","OBJECTID":232331},"geometry":{"x":163693.5700000003,"y":2571624.6700000018}},{"attributes":{"ID":232336,"DIS_CODE":0,"TOWNNAME":"歸仁區","LI":"看西里","LIN":"23鄰","STREET":"成功五街","SECT":" ","MAREA":" ","LANE":"８８巷","ALLEY":" ","HOUSE_NO":"１號","E_COORD97":178418.66,"N_COORD97":2539869.3599999999,"ADDRESS":"成功五街８８巷１號","OBJECTID":232332},"geometry":{"x":178418.66000000015,"y":2539869.3600000013}},{"attributes":{"ID":232337,"DIS_CODE":0,"TOWNNAME":"中西區","LI":"仙草里","LIN":"2鄰","STREET":"五妃街","SECT":" ","MAREA":" ","LANE":"３２２巷","ALLEY":" ","HOUSE_NO":"３號","E_COORD97":167801.10999999999,"N_COORD97":2542608.1299999999,"ADDRESS":"五妃街３２２巷３號","OBJECTID":232333},"geometry":{"x":167801.1100000022,"y":2542608.129999999}},{"attributes":{"ID":232338,"DIS_CODE":0,"TOWNNAME":"學甲區","LI":"中洲里","LIN":"23鄰","STREET":" ","SECT":" ","MAREA":"中洲","LANE":" ","ALLEY":" ","HOUSE_NO":"２９３號","E_COORD97":163704.79000000001,"N_COORD97":2571625.02,"ADDRESS":"中洲２９３號","OBJECTID":232334},"geometry":{"x":163704.79000000004,"y":2571625.0200000014}},{"attributes":{"ID":232339,"DIS_CODE":0,"TOWNNAME":"學甲區","LI":"中洲里","LIN":"23鄰","STREET":" ","SECT":" ","MAREA":"中洲","LANE":" ","ALLEY":" ","HOUSE_NO":"２９６號","E_COORD97":163695.53,"N_COORD97":2571662.23,"ADDRESS":"中洲２９６號","OBJECTID":232335},"geometry":{"x":163695.53000000026,"y":2571662.2300000023}},{"attributes":{"ID":232340,"DIS_CODE":0,"TOWNNAME":"仁德區","LI":"仁德里","LIN":"2鄰","STREET":"仁德五街","SECT":" ","MAREA":" ","LANE":"１７巷","ALLEY":" ","HOUSE_NO":"２７號","E_COORD97":173361.92000000001,"N_COORD97":2540125.77,"ADDRESS":"仁德五街１７巷２７號","OBJECTID":232336},"geometry":{"x":173361.91999999993,"y":2540125.7699999996}},{"attributes":{"ID":232341,"DIS_CODE":0,"TOWNNAME":"永康區","LI":"正強里","LIN":"9鄰","STREET":"自強路","SECT":" ","MAREA":" ","LANE":"３３０巷","ALLEY":" ","HOUSE_NO":"４號","E_COORD97":173416.03,"N_COORD97":2547658.5600000001,"ADDRESS":"自強路３３０巷４號","OBJECTID":232337},"geometry":{"x":173416.03000000212,"y":2547658.5600000005}},{"attributes":{"ID":232342,"DIS_CODE":0,"TOWNNAME":"永康區","LI":"西勢里","LIN":"17鄰","STREET":"富強路","SECT":"一段","MAREA":" ","LANE":"２５４巷","ALLEY":" ","HOUSE_NO":"１１號","E_COORD97":175715.69,"N_COORD97":2546466.8399999999,"ADDRESS":"富強路一段２５４巷１１號","OBJECTID":232338},"geometry":{"x":175715.69000000134,"y":2546466.8400000017}},{"attributes":{"ID":232343,"DIS_CODE":0,"TOWNNAME":"永康區","LI":"西灣里","LIN":"19鄰","STREET":"大安街","SECT":" ","MAREA":" ","LANE":"３３３巷","ALLEY":" ","HOUSE_NO":"１９號","E_COORD97":174554.23000000001,"N_COORD97":2545738.6099999999,"ADDRESS":"大安街３３３巷１９號","OBJECTID":232339},"geometry":{"x":174554.23000000138,"y":2545738.6100000031}},{"attributes":{"ID":232344,"DIS_CODE":0,"TOWNNAME":"永康區","LI":"北灣里","LIN":"21鄰","STREET":"大同街","SECT":" ","MAREA":" ","LANE":"３８０巷","ALLEY":" ","HOUSE_NO":"６５號","E_COORD97":174893.84,"N_COORD97":2545999.25,"ADDRESS":"大同街３８０巷６５號","OBJECTID":232340},"geometry":{"x":174893.84000000078,"y":2545999.2500000037}},{"attributes":{"ID":232345,"DIS_CODE":0,"TOWNNAME":"南區","LI":"明德里","LIN":"2鄰","STREET":"大成路","SECT":"一段","MAREA":" ","LANE":"１９３巷","ALLEY":" ","HOUSE_NO":"６５號","E_COORD97":168021.5,"N_COORD97":2541668.6899999999,"ADDRESS":"大成路一段１９３巷６５號","OBJECTID":232341},"geometry":{"x":168021.5,"y":2541668.6899999995}},{"attributes":{"ID":232346,"DIS_CODE":0,"TOWNNAME":"永康區","LI":"王行里","LIN":"14鄰","STREET":"環工路","SECT":" ","MAREA":" ","LANE":" ","ALLEY":" ","HOUSE_NO":"６１號","E_COORD97":175007.56,"N_COORD97":2549154.1400000001,"ADDRESS":"環工路６１號","OBJECTID":232342},"geometry":{"x":175007.56000000052,"y":2549154.1400000025}},{"attributes":{"ID":232347,"DIS_CODE":0,"TOWNNAME":"永康區","LI":"王行里","LIN":"14鄰","STREET":"興工路","SECT":" ","MAREA":" ","LANE":" ","ALLEY":" ","HOUSE_NO":"２２號","E_COORD97":175251.09,"N_COORD97":2549839.23,"ADDRESS":"興工路２２號","OBJECTID":232343},"geometry":{"x":175251.09000000171,"y":2549839.2300000023}},{"attributes":{"ID":232348,"DIS_CODE":0,"TOWNNAME":"永康區","LI":"王行里","LIN":"14鄰","STREET":"經中路","SECT":" ","MAREA":" ","LANE":" ","ALLEY":" ","HOUSE_NO":"１６號","E_COORD97":175242.45000000001,"N_COORD97":2549690.5899999999,"ADDRESS":"經中路１６號","OBJECTID":232344},"geometry":{"x":175242.45000000112,"y":2549690.5899999999}},{"attributes":{"ID":232349,"DIS_CODE":0,"TOWNNAME":"永康區","LI":"王行里","LIN":"14鄰","STREET":"經中路","SECT":" ","MAREA":" ","LANE":" ","ALLEY":" ","HOUSE_NO":"８號之１","E_COORD97":175114.70999999999,"N_COORD97":2549593.5699999998,"ADDRESS":"經中路８號之１","OBJECTID":232345},"geometry":{"x":175114.71000000183,"y":2549593.5700000003}},{"attributes":{"ID":232350,"DIS_CODE":0,"TOWNNAME":"歸仁區","LI":"歸仁里","LIN":"23鄰","STREET":"文化二街","SECT":" ","MAREA":" ","LANE":"２６巷","ALLEY":" ","HOUSE_NO":"５號","E_COORD97":178027.25,"N_COORD97":2541220.2599999998,"ADDRESS":"文化二街２６巷５號","OBJECTID":232346},"geometry":{"x":178027.25000000093,"y":2541220.2599999998}},{"attributes":{"ID":232351,"DIS_CODE":0,"TOWNNAME":"歸仁區","LI":"看西里","LIN":"23鄰","STREET":"成功五街","SECT":" ","MAREA":" ","LANE":"８８巷","ALLEY":" ","HOUSE_NO":"４５號","E_COORD97":178404.31,"N_COORD97":2539820.3599999999,"ADDRESS":"成功五街８８巷４５號","OBJECTID":232347},"geometry":{"x":178404.31000000052,"y":2539820.3599999975}},{"attributes":{"ID":232352,"DIS_CODE":0,"TOWNNAME":"歸仁區","LI":"看西里","LIN":"23鄰","STREET":"成功五街","SECT":" ","MAREA":" ","LANE":"８８巷","ALLEY":" ","HOUSE_NO":"４７號","E_COORD97":178404.31,"N_COORD97":2539825.3599999999,"ADDRESS":"成功五街８８巷４７號","OBJECTID":232348},"geometry":{"x":178404.31000000052,"y":2539825.3600000013}},{"attributes":{"ID":232353,"DIS_CODE":0,"TOWNNAME":"歸仁區","LI":"歸仁里","LIN":"23鄰","STREET":"文化二街","SECT":" ","MAREA":" ","LANE":"２６巷","ALLEY":" ","HOUSE_NO":"７號","E_COORD97":178032.45000000001,"N_COORD97":2541220.2599999998,"ADDRESS":"文化二街２６巷７號","OBJECTID":232349},"geometry":{"x":178032.45000000205,"y":2541220.2599999998}},{"attributes":{"ID":232354,"DIS_CODE":0,"TOWNNAME":"永康區","LI":"西灣里","LIN":"2鄰","STREET":"大灣五街","SECT":" ","MAREA":" ","LANE":"６９巷","ALLEY":" ","HOUSE_NO":"３３號","E_COORD97":174666.67999999999,"N_COORD97":2545168.8900000001,"ADDRESS":"大灣五街６９巷３３號","OBJECTID":232350},"geometry":{"x":174666.6799999997,"y":2545168.8900000025}},{"attributes":{"ID":232355,"DIS_CODE":0,"TOWNNAME":"永康區","LI":"南灣里","LIN":"10鄰","STREET":"大灣東路","SECT":" ","MAREA":" ","LANE":"２２巷","ALLEY":" ","HOUSE_NO":"１３６號","E_COORD97":173936.23000000001,"N_COORD97":2543835.8700000001,"ADDRESS":"大灣東路２２巷１３６號","OBJECTID":232351},"geometry":{"x":173936.23000000045,"y":2543835.870000001}},{"attributes":{"ID":232356,"DIS_CODE":0,"TOWNNAME":"永康區","LI":"正強里","LIN":"3鄰","STREET":"中正路","SECT":" ","MAREA":" ","LANE":"１巷","ALLEY":" ","HOUSE_NO":"７４號","E_COORD97":173539.12,"N_COORD97":2547580.25,"ADDRESS":"中正路１巷７４號","OBJECTID":232352},"geometry":{"x":173539.12000000104,"y":2547580.2500000019}},{"attributes":{"ID":232357,"DIS_CODE":0,"TOWNNAME":"永康區","LI":"東橋里","LIN":"2鄰","STREET":"大橋一街","SECT":" ","MAREA":" ","LANE":"３２４巷","ALLEY":" ","HOUSE_NO":"３０號","E_COORD97":171373.17000000001,"N_COORD97":2546570.2799999998,"ADDRESS":"大橋一街３２４巷３０號","OBJECTID":232353},"geometry":{"x":171373.16999999993,"y":2546570.2799999993}},{"attributes":{"ID":232358,"DIS_CODE":0,"TOWNNAME":"永康區","LI":"西灣里","LIN":"2鄰","STREET":"大灣五街","SECT":" ","MAREA":" ","LANE":"６９巷","ALLEY":" ","HOUSE_NO":"５１號","E_COORD97":174642.19,"N_COORD97":2545136.2400000002,"ADDRESS":"大灣五街６９巷５１號","OBJECTID":232354},"geometry":{"x":174642.18999999948,"y":2545136.2400000021}},{"attributes":{"ID":232359,"DIS_CODE":0,"TOWNNAME":"永康區","LI":"尚頂里","LIN":"2鄰","STREET":"中正二街","SECT":" ","MAREA":" ","LANE":"１６９巷","ALLEY":" ","HOUSE_NO":"２１號","E_COORD97":171260.32000000001,"N_COORD97":2547777.25,"ADDRESS":"中正二街１６９巷２１號","OBJECTID":232355},"geometry":{"x":171260.3200000003,"y":2547777.2500000019}},{"attributes":{"ID":232360,"DIS_CODE":0,"TOWNNAME":"永康區","LI":"尚頂里","LIN":"2鄰","STREET":"中正二街","SECT":" ","MAREA":" ","LANE":"１６９巷","ALLEY":" ","HOUSE_NO":"３５號","E_COORD97":171195.82000000001,"N_COORD97":2547756.8799999999,"ADDRESS":"中正二街１６９巷３５號","OBJECTID":232356},"geometry":{"x":171195.82000000123,"y":2547756.8800000027}},{"attributes":{"ID":232361,"DIS_CODE":0,"TOWNNAME":"永康區","LI":"西灣里","LIN":"2鄰","STREET":"大灣五街","SECT":" ","MAREA":" ","LANE":"３９巷","ALLEY":" ","HOUSE_NO":"４２號","E_COORD97":174698.44,"N_COORD97":2545140.6600000001,"ADDRESS":"大灣五街３９巷４２號","OBJECTID":232357},"geometry":{"x":174698.44000000134,"y":2545140.6600000001}},{"attributes":{"ID":232362,"DIS_CODE":0,"TOWNNAME":"永康區","LI":"西灣里","LIN":"2鄰","STREET":"大灣五街","SECT":" ","MAREA":" ","LANE":"３９巷","ALLEY":" ","HOUSE_NO":"５２號","E_COORD97":174680.66,"N_COORD97":2545121.9100000001,"ADDRESS":"大灣五街３９巷５２號","OBJECTID":232358},"geometry":{"x":174680.66000000015,"y":2545121.9100000001}},{"attributes":{"ID":232363,"DIS_CODE":0,"TOWNNAME":"永康區","LI":"六合里","LIN":"2鄰","STREET":"中山南路","SECT":" ","MAREA":" ","LANE":"３８巷","ALLEY":" ","HOUSE_NO":"７號","E_COORD97":170881.88,"N_COORD97":2545814.75,"ADDRESS":"中山南路３８巷７號","OBJECTID":232359},"geometry":{"x":170881.87999999989,"y":2545814.75}},{"attributes":{"ID":232364,"DIS_CODE":0,"TOWNNAME":"永康區","LI":"\u25A0洲里","LIN":"37鄰","STREET":"\u25A0洲二街","SECT":" ","MAREA":" ","LANE":"１９７巷","ALLEY":" ","HOUSE_NO":"８號","E_COORD97":171746.29999999999,"N_COORD97":2549468.4900000002,"ADDRESS":"\u25A0洲二街１９７巷８號","OBJECTID":232360},"geometry":{"x":171746.30000000075,"y":2549468.4900000002}},{"attributes":{"ID":232365,"DIS_CODE":0,"TOWNNAME":"永康區","LI":"\u25A0洲里","LIN":"2鄰","STREET":"\u25A0行路","SECT":" ","MAREA":" ","LANE":"２２巷","ALLEY":" ","HOUSE_NO":"７號","E_COORD97":171697.20000000001,"N_COORD97":2549224.75,"ADDRESS":"\u25A0行路２２巷７號","OBJECTID":232361},"geometry":{"x":171697.20000000019,"y":2549224.7500000019}},{"attributes":{"ID":232366,"DIS_CODE":0,"TOWNNAME":"永康區","LI":"王行里","LIN":"14鄰","STREET":"經建路","SECT":" ","MAREA":" ","LANE":" ","ALLEY":" ","HOUSE_NO":"１號","E_COORD97":175571.45000000001,"N_COORD97":2549870.4700000002,"ADDRESS":"經建路１號","OBJECTID":232362},"geometry":{"x":175571.45000000112,"y":2549870.4700000025}},{"attributes":{"ID":232367,"DIS_CODE":0,"TOWNNAME":"永康區","LI":"王行里","LIN":"14鄰","STREET":"興工路","SECT":" ","MAREA":" ","LANE":" ","ALLEY":" ","HOUSE_NO":"３０號","E_COORD97":175159.22,"N_COORD97":2549954.25,"ADDRESS":"興工路３０號","OBJECTID":232363},"geometry":{"x":175159.22000000067,"y":2549954.25}},{"attributes":{"ID":232368,"DIS_CODE":0,"TOWNNAME":"永康區","LI":"王行里","LIN":"14鄰","STREET":"經中路","SECT":" ","MAREA":" ","LANE":" ","ALLEY":" ","HOUSE_NO":"１０號","E_COORD97":175172,"N_COORD97":2549608.7400000002,"ADDRESS":"經中路１０號","OBJECTID":232364},"geometry":{"x":175172.00000000186,"y":2549608.7400000002}},{"attributes":{"ID":232369,"DIS_CODE":0,"TOWNNAME":"永康區","LI":"王行里","LIN":"14鄰","STREET":"經建路","SECT":" ","MAREA":" ","LANE":" ","ALLEY":" ","HOUSE_NO":"３號","E_COORD97":175533.04000000001,"N_COORD97":2549836.54,"ADDRESS":"經建路３號","OBJECTID":232365},"geometry":{"x":175533.04000000097,"y":2549836.5399999991}},{"attributes":{"ID":232370,"DIS_CODE":0,"TOWNNAME":"永康區","LI":"王行里","LIN":"14鄰","STREET":"環工路","SECT":" ","MAREA":" ","LANE":" ","ALLEY":" ","HOUSE_NO":"６５號","E_COORD97":175030.63,"N_COORD97":2549255.4300000002,"ADDRESS":"環工路６５號","OBJECTID":232366},"geometry":{"x":175030.63000000082,"y":2549255.4299999997}},{"attributes":{"ID":232371,"DIS_CODE":0,"TOWNNAME":"新營區","LI":"忠政里","LIN":"23鄰","STREET":"府西路","SECT":" ","MAREA":" ","LANE":"２０１巷","ALLEY":" ","HOUSE_NO":"１號","E_COORD97":179775.04000000001,"N_COORD97":2579531.7200000002,"ADDRESS":"府西路２０１巷１號","OBJECTID":232367},"geometry":{"x":179775.04000000097,"y":2579531.7200000025}},{"attributes":{"ID":232372,"DIS_CODE":0,"TOWNNAME":"新營區","LI":"忠政里","LIN":"23鄰","STREET":"府西路","SECT":" ","MAREA":" ","LANE":"２０１巷","ALLEY":" ","HOUSE_NO":"２５之２號","E_COORD97":179720.48999999999,"N_COORD97":2579516.54,"ADDRESS":"府西路２０１巷２５之２號","OBJECTID":232368},"geometry":{"x":179720.49000000209,"y":2579516.5399999991}},{"attributes":{"ID":232373,"DIS_CODE":0,"TOWNNAME":"北區","LI":"永祥里","LIN":"23鄰","STREET":"大武街","SECT":" ","MAREA":" ","LANE":"５９７巷","ALLEY":" ","HOUSE_NO":"１１號","E_COORD97":170211.47,"N_COORD97":2546469.8799999999,"ADDRESS":"大武街５９７巷１１號","OBJECTID":232369},"geometry":{"x":170211.46999999974,"y":2546469.8800000008}},{"attributes":{"ID":232374,"DIS_CODE":0,"TOWNNAME":"北區","LI":"永祥里","LIN":"23鄰","STREET":"大武街","SECT":" ","MAREA":" ","LANE":"５９７巷","ALLEY":" ","HOUSE_NO":"１３號","E_COORD97":170212.10999999999,"N_COORD97":2546474.29,"ADDRESS":"大武街５９７巷１３號","OBJECTID":232370},"geometry":{"x":170212.11000000127,"y":2546474.2899999991}},{"attributes":{"ID":232375,"DIS_CODE":0,"TOWNNAME":"北區","LI":"永祥里","LIN":"23鄰","STREET":"大武街","SECT":" ","MAREA":" ","LANE":"５９７巷","ALLEY":" ","HOUSE_NO":"１５號","E_COORD97":170212.10999999999,"N_COORD97":2546479.6600000001,"ADDRESS":"大武街５９７巷１５號","OBJECTID":232371},"geometry":{"x":170212.11000000127,"y":2546479.6600000001}},{"attributes":{"ID":232376,"DIS_CODE":0,"TOWNNAME":"北區","LI":"永祥里","LIN":"23鄰","STREET":"大武街","SECT":" ","MAREA":" ","LANE":"５９７巷","ALLEY":" ","HOUSE_NO":"１７號","E_COORD97":170212.5,"N_COORD97":2546482.8599999999,"ADDRESS":"大武街５９７巷１７號","OBJECTID":232372},"geometry":{"x":170212.50000000093,"y":2546482.8600000031}},{"attributes":{"ID":232377,"DIS_CODE":0,"TOWNNAME":"北區","LI":"永祥里","LIN":"23鄰","STREET":"大武街","SECT":" ","MAREA":" ","LANE":"５９７巷","ALLEY":" ","HOUSE_NO":"１９號","E_COORD97":170213.14000000001,"N_COORD97":2546486.9700000002,"ADDRESS":"大武街５９７巷１９號","OBJECTID":232373},"geometry":{"x":170213.1400000006,"y":2546486.9700000025}},{"attributes":{"ID":232378,"DIS_CODE":0,"TOWNNAME":"北區","LI":"永祥里","LIN":"23鄰","STREET":"大武街","SECT":" ","MAREA":" ","LANE":"５９７巷","ALLEY":" ","HOUSE_NO":"１號","E_COORD97":170210.95999999999,"N_COORD97":2546449.1899999999,"ADDRESS":"大武街５９７巷１號","OBJECTID":232374},"geometry":{"x":170210.96000000089,"y":2546449.1899999995}},{"attributes":{"ID":232379,"DIS_CODE":0,"TOWNNAME":"北區","LI":"永祥里","LIN":"23鄰","STREET":"大武街","SECT":" ","MAREA":" ","LANE":"５９７巷","ALLEY":" ","HOUSE_NO":"２１號","E_COORD97":170213.07999999999,"N_COORD97":2546490.9399999999,"ADDRESS":"大武街５９７巷２１號","OBJECTID":232375},"geometry":{"x":170213.07999999914,"y":2546490.9399999995}},{"attributes":{"ID":232380,"DIS_CODE":0,"TOWNNAME":"北區","LI":"永祥里","LIN":"23鄰","STREET":"大武街","SECT":" ","MAREA":" ","LANE":"５９７巷","ALLEY":" ","HOUSE_NO":"２３號","E_COORD97":170213.64999999999,"N_COORD97":2546494.52,"ADDRESS":"大武街５９７巷２３號","OBJECTID":232376},"geometry":{"x":170213.6500000013,"y":2546494.5199999996}},{"attributes":{"ID":232381,"DIS_CODE":0,"TOWNNAME":"北區","LI":"永祥里","LIN":"23鄰","STREET":"大武街","SECT":" ","MAREA":" ","LANE":"５９７巷","ALLEY":" ","HOUSE_NO":"２５號","E_COORD97":170213.64999999999,"N_COORD97":2546498.3100000001,"ADDRESS":"大武街５９７巷２５號","OBJECTID":232377},"geometry":{"x":170213.6500000013,"y":2546498.3100000024}},{"attributes":{"ID":232382,"DIS_CODE":0,"TOWNNAME":"北區","LI":"永祥里","LIN":"23鄰","STREET":"大武街","SECT":" ","MAREA":" ","LANE":"５９７巷","ALLEY":" ","HOUSE_NO":"２７號","E_COORD97":170213.78,"N_COORD97":2546502.6000000001,"ADDRESS":"大武街５９７巷２７號","OBJECTID":232378},"geometry":{"x":170213.78000000212,"y":2546502.6000000015}},{"attributes":{"ID":232383,"DIS_CODE":0,"TOWNNAME":"北區","LI":"永祥里","LIN":"23鄰","STREET":"大武街","SECT":" ","MAREA":" ","LANE":"５９７巷","ALLEY":" ","HOUSE_NO":"２９號","E_COORD97":170214.10000000001,"N_COORD97":2546506.5,"ADDRESS":"大武街５９７巷２９號","OBJECTID":232379},"geometry":{"x":170214.09999999963,"y":2546506.5000000019}},{"attributes":{"ID":232384,"DIS_CODE":0,"TOWNNAME":"北區","LI":"永祥里","LIN":"23鄰","STREET":"大武街","SECT":" ","MAREA":" ","LANE":"５９７巷","ALLEY":" ","HOUSE_NO":"３１號","E_COORD97":170213.79000000001,"N_COORD97":2546511.1299999999,"ADDRESS":"大武街５９７巷３１號","OBJECTID":232380},"geometry":{"x":170213.79000000097,"y":2546511.1300000008}},{"attributes":{"ID":232385,"DIS_CODE":0,"TOWNNAME":"永康區","LI":"\u25A0行里","LIN":"2鄰","STREET":"中正路","SECT":" ","MAREA":" ","LANE":"９５６巷","ALLEY":" ","HOUSE_NO":"１６號","E_COORD97":171996.45999999999,"N_COORD97":2548984.2400000002,"ADDRESS":"中正路９５６巷１６號","OBJECTID":232381},"geometry":{"x":171996.45999999996,"y":2548984.2400000021}},{"attributes":{"ID":232386,"DIS_CODE":0,"TOWNNAME":"永康區","LI":"王行里","LIN":"14鄰","STREET":"環工路","SECT":" ","MAREA":" ","LANE":" ","ALLEY":" ","HOUSE_NO":"７０號","E_COORD97":175203.42999999999,"N_COORD97":2550034.2000000002,"ADDRESS":"環工路７０號","OBJECTID":232382},"geometry":{"x":175203.43000000063,"y":2550034.2000000011}},{"attributes":{"ID":232387,"DIS_CODE":0,"TOWNNAME":"永康區","LI":"王行里","LIN":"14鄰","STREET":"環工路","SECT":" ","MAREA":" ","LANE":" ","ALLEY":" ","HOUSE_NO":"６３號","E_COORD97":175034.39999999999,"N_COORD97":2549212.98,"ADDRESS":"環工路６３號","OBJECTID":232383},"geometry":{"x":175034.4000000013,"y":2549212.9800000023}},{"attributes":{"ID":232388,"DIS_CODE":0,"TOWNNAME":"永康區","LI":"王行里","LIN":"14鄰","STREET":"環工路","SECT":" ","MAREA":" ","LANE":" ","ALLEY":" ","HOUSE_NO":"５２號","E_COORD97":174913.42999999999,"N_COORD97":2549691.3199999998,"ADDRESS":"環工路５２號","OBJECTID":232384},"geometry":{"x":174913.43000000063,"y":2549691.320000004}},{"attributes":{"ID":232389,"DIS_CODE":0,"TOWNNAME":"永康區","LI":"正強里","LIN":"14鄰","STREET":"正強街","SECT":" ","MAREA":" ","LANE":" ","ALLEY":" ","HOUSE_NO":"１０３號","E_COORD97":173329.20000000001,"N_COORD97":2547391.2400000002,"ADDRESS":"正強街１０３號","OBJECTID":232385},"geometry":{"x":173329.20000000019,"y":2547391.2400000002}},{"attributes":{"ID":232390,"DIS_CODE":0,"TOWNNAME":"永康區","LI":"王行里","LIN":"14鄰","STREET":"經中路","SECT":" ","MAREA":" ","LANE":" ","ALLEY":" ","HOUSE_NO":"３號","E_COORD97":175030.32999999999,"N_COORD97":2549582.4900000002,"ADDRESS":"經中路３號","OBJECTID":232386},"geometry":{"x":175030.33000000007,"y":2549582.4900000021}},{"attributes":{"ID":232391,"DIS_CODE":0,"TOWNNAME":"永康區","LI":"王行里","LIN":"14鄰","STREET":"環工路","SECT":" ","MAREA":" ","LANE":" ","ALLEY":" ","HOUSE_NO":"６２號","E_COORD97":174995.63,"N_COORD97":2549803.1499999999,"ADDRESS":"環工路６２號","OBJECTID":232387},"geometry":{"x":174995.62999999989,"y":2549803.1500000004}},{"attributes":{"ID":232392,"DIS_CODE":0,"TOWNNAME":"新市區","LI":"新和里","LIN":"14鄰","STREET":"忠孝街","SECT":" ","MAREA":" ","LANE":" ","ALLEY":" ","HOUSE_NO":"１２０號","E_COORD97":177706.59,"N_COORD97":2552632,"ADDRESS":"忠孝街１２０號","OBJECTID":232388},"geometry":{"x":177706.58999999985,"y":2552632}},{"attributes":{"ID":232393,"DIS_CODE":0,"TOWNNAME":"新市區","LI":"新和里","LIN":"14鄰","STREET":"忠孝街","SECT":" ","MAREA":" ","LANE":" ","ALLEY":" ","HOUSE_NO":"１３０號","E_COORD97":177711.56,"N_COORD97":2552654.75,"ADDRESS":"忠孝街１３０號","OBJECTID":232389},"geometry":{"x":177711.55999999959,"y":2552654.7500000019}},{"attributes":{"ID":232394,"DIS_CODE":0,"TOWNNAME":"新市區","LI":"新和里","LIN":"14鄰","STREET":"忠孝街","SECT":" ","MAREA":" ","LANE":" ","ALLEY":" ","HOUSE_NO":"７６號","E_COORD97":177682.17999999999,"N_COORD97":2552527,"ADDRESS":"忠孝街７６號","OBJECTID":232390},"geometry":{"x":177682.1799999997,"y":2552527}},{"attributes":{"ID":232395,"DIS_CODE":0,"TOWNNAME":"學甲區","LI":"三慶里","LIN":"23鄰","STREET":" ","SECT":" ","MAREA":"紅茄","LANE":" ","ALLEY":" ","HOUSE_NO":"９７號","E_COORD97":167421.29999999999,"N_COORD97":2575659.8700000001,"ADDRESS":"紅茄９７號","OBJECTID":232391},"geometry":{"x":167421.30000000075,"y":2575659.8700000029}},{"attributes":{"ID":232396,"DIS_CODE":0,"TOWNNAME":"新市區","LI":"新和里","LIN":"14鄰","STREET":"忠孝街","SECT":" ","MAREA":" ","LANE":" ","ALLEY":" ","HOUSE_NO":"８８號","E_COORD97":177687.37,"N_COORD97":2552551.75,"ADDRESS":"忠孝街８８號","OBJECTID":232392},"geometry":{"x":177687.37000000104,"y":2552551.75}},{"attributes":{"ID":232397,"DIS_CODE":0,"TOWNNAME":"新市區","LI":"新和里","LIN":"14鄰","STREET":"忠孝街","SECT":" ","MAREA":" ","LANE":" ","ALLEY":" ","HOUSE_NO":"１３２號","E_COORD97":177713.14000000001,"N_COORD97":2552660.5,"ADDRESS":"忠孝街１３２號","OBJECTID":232393},"geometry":{"x":177713.13999999966,"y":2552660.5000000019}},{"attributes":{"ID":232398,"DIS_CODE":0,"TOWNNAME":"新市區","LI":"新和里","LIN":"14鄰","STREET":"忠孝街","SECT":" ","MAREA":" ","LANE":" ","ALLEY":" ","HOUSE_NO":"７８號","E_COORD97":177683.03,"N_COORD97":2552531,"ADDRESS":"忠孝街７８號","OBJECTID":232394},"geometry":{"x":177683.03000000119,"y":2552531.0000000019}},{"attributes":{"ID":232399,"DIS_CODE":0,"TOWNNAME":"新市區","LI":"新和里","LIN":"14鄰","STREET":"忠孝街","SECT":" ","MAREA":" ","LANE":" ","ALLEY":" ","HOUSE_NO":"１１８號","E_COORD97":177705.23999999999,"N_COORD97":2552626.25,"ADDRESS":"忠孝街１１８號","OBJECTID":232395},"geometry":{"x":177705.24000000115,"y":2552626.25}},{"attributes":{"ID":232400,"DIS_CODE":0,"TOWNNAME":"新市區","LI":"新和里","LIN":"14鄰","STREET":"忠孝街","SECT":" ","MAREA":" ","LANE":" ","ALLEY":" ","HOUSE_NO":"９６號","E_COORD97":177692.45999999999,"N_COORD97":2552577.5,"ADDRESS":"忠孝街９６號","OBJECTID":232396},"geometry":{"x":177692.45999999996,"y":2552577.5}},{"attributes":{"ID":232401,"DIS_CODE":0,"TOWNNAME":"北區","LI":"永祥里","LIN":"23鄰","STREET":"大武街","SECT":" ","MAREA":" ","LANE":"５９７巷","ALLEY":" ","HOUSE_NO":"３號","E_COORD97":170211.28,"N_COORD97":2546452.96,"ADDRESS":"大武街５９７巷３號","OBJECTID":232397},"geometry":{"x":170211.28000000026,"y":2546452.9600000046}},{"attributes":{"ID":232402,"DIS_CODE":0,"TOWNNAME":"北區","LI":"永祥里","LIN":"23鄰","STREET":"大武街","SECT":" ","MAREA":" ","LANE":"５９７巷","ALLEY":" ","HOUSE_NO":"５號","E_COORD97":170211.28,"N_COORD97":2546457.1200000001,"ADDRESS":"大武街５９７巷５號","OBJECTID":232398},"geometry":{"x":170211.28000000026,"y":2546457.1200000029}},{"attributes":{"ID":232403,"DIS_CODE":0,"TOWNNAME":"北區","LI":"永祥里","LIN":"23鄰","STREET":"大武街","SECT":" ","MAREA":" ","LANE":"５９７巷","ALLEY":" ","HOUSE_NO":"７號","E_COORD97":170210.95999999999,"N_COORD97":2546462.0099999998,"ADDRESS":"大武街５９７巷７號","OBJECTID":232399},"geometry":{"x":170210.96000000089,"y":2546462.0100000016}},{"attributes":{"ID":232404,"DIS_CODE":0,"TOWNNAME":"北區","LI":"永祥里","LIN":"23鄰","STREET":"大武街","SECT":" ","MAREA":" ","LANE":"５９７巷","ALLEY":" ","HOUSE_NO":"９號","E_COORD97":170211.60000000001,"N_COORD97":2546465.6600000001,"ADDRESS":"大武街５９７巷９號","OBJECTID":232400},"geometry":{"x":170211.60000000056,"y":2546465.660000002}}]}