{"displayFieldName":"TOWNNAME","fieldAliases":{"ID":"ID","DIS_CODE":"DIS_CODE","TOWNNAME":"TOWNNAME","LI":"LI","LIN":"LIN","STREET":"STREET","SECT":"SECT","MAREA":"MAREA","LANE":"LANE","ALLEY":"ALLEY","HOUSE_NO":"HOUSE_NO","E_COORD97":"E_COORD97","N_COORD97":"N_COORD97","ADDRESS":"ADDRESS","OBJECTID":"OBJECTID"},"geometryType":"esriGeometryPoint","spatialReference":{"wkid":102443,"latestWkid":3826},"fields":[{"name":"ID","type":"esriFieldTypeDouble","alias":"ID"},{"name":"DIS_CODE","type":"esriFieldTypeInteger","alias":"DIS_CODE"},{"name":"TOWNNAME","type":"esriFieldTypeString","alias":"TOWNNAME","length":8},{"name":"LI","type":"esriFieldTypeString","alias":"LI","length":8},{"name":"LIN","type":"esriFieldTypeString","alias":"LIN","length":12},{"name":"STREET","type":"esriFieldTypeString","alias":"STREET","length":20},{"name":"SECT","type":"esriFieldTypeString","alias":"SECT","length":8},{"name":"MAREA","type":"esriFieldTypeString","alias":"MAREA","length":12},{"name":"LANE","type":"esriFieldTypeString","alias":"LANE","length":10},{"name":"ALLEY","type":"esriFieldTypeString","alias":"ALLEY","length":10},{"name":"HOUSE_NO","type":"esriFieldTypeString","alias":"HOUSE_NO","length":20},{"name":"E_COORD97","type":"esriFieldTypeDouble","alias":"E_COORD97"},{"name":"N_COORD97","type":"esriFieldTypeDouble","alias":"N_COORD97"},{"name":"ADDRESS","type":"esriFieldTypeString","alias":"ADDRESS","length":50},{"name":"OBJECTID","type":"esriFieldTypeOID","alias":"OBJECTID"}],"features":[{"attributes":{"ID":249605,"DIS_CODE":0,"TOWNNAME":"東區","LI":"大同里","LIN":"14鄰","STREET":"府連路","SECT":" ","MAREA":" ","LANE":"１６５巷","ALLEY":" ","HOUSE_NO":"１２號","E_COORD97":169192.76999999999,"N_COORD97":2542873.3900000001,"ADDRESS":"府連路１６５巷１２號","OBJECTID":249601},"geometry":{"x":169192.77000000048,"y":2542873.3900000025}},{"attributes":{"ID":249606,"DIS_CODE":0,"TOWNNAME":"東區","LI":"大同里","LIN":"14鄰","STREET":"府連路","SECT":" ","MAREA":" ","LANE":"１６５巷","ALLEY":" ","HOUSE_NO":"２號","E_COORD97":169210.62,"N_COORD97":2542854.7000000002,"ADDRESS":"府連路１６５巷２號","OBJECTID":249602},"geometry":{"x":169210.62000000011,"y":2542854.6999999993}},{"attributes":{"ID":249607,"DIS_CODE":0,"TOWNNAME":"東區","LI":"崇明里","LIN":"14鄰","STREET":"大同路","SECT":"二段","MAREA":" ","LANE":" ","ALLEY":" ","HOUSE_NO":"８５９號","E_COORD97":169693.53,"N_COORD97":2540612.6800000002,"ADDRESS":"大同路二段８５９號","OBJECTID":249603},"geometry":{"x":169693.53000000119,"y":2540612.6800000016}},{"attributes":{"ID":249608,"DIS_CODE":0,"TOWNNAME":"東區","LI":"崇明里","LIN":"14鄰","STREET":"大同路","SECT":"二段","MAREA":" ","LANE":" ","ALLEY":" ","HOUSE_NO":"８６１號","E_COORD97":169683.88,"N_COORD97":2540610.8799999999,"ADDRESS":"大同路二段８６１號","OBJECTID":249604},"geometry":{"x":169683.88000000082,"y":2540610.8800000008}},{"attributes":{"ID":249609,"DIS_CODE":0,"TOWNNAME":"東區","LI":"崇明里","LIN":"14鄰","STREET":"大同路","SECT":"二段","MAREA":" ","LANE":" ","ALLEY":" ","HOUSE_NO":"８６３號","E_COORD97":169667.14000000001,"N_COORD97":2540608.8199999998,"ADDRESS":"大同路二段８６３號","OBJECTID":249605},"geometry":{"x":169667.1400000006,"y":2540608.8200000022}},{"attributes":{"ID":249610,"DIS_CODE":0,"TOWNNAME":"東區","LI":"崇明里","LIN":"14鄰","STREET":"大同路","SECT":"二段","MAREA":" ","LANE":" ","ALLEY":" ","HOUSE_NO":"８６５號","E_COORD97":169668.04999999999,"N_COORD97":2540604.3199999998,"ADDRESS":"大同路二段８６５號","OBJECTID":249606},"geometry":{"x":169668.05000000075,"y":2540604.3200000003}},{"attributes":{"ID":249611,"DIS_CODE":0,"TOWNNAME":"東區","LI":"崇明里","LIN":"14鄰","STREET":"大同路","SECT":"二段","MAREA":" ","LANE":" ","ALLEY":" ","HOUSE_NO":"８６７號","E_COORD97":169669.59,"N_COORD97":2540598.9199999999,"ADDRESS":"大同路二段８６７號","OBJECTID":249607},"geometry":{"x":169669.58999999985,"y":2540598.9199999999}},{"attributes":{"ID":249612,"DIS_CODE":0,"TOWNNAME":"東區","LI":"崇學里","LIN":"14鄰","STREET":"崇德路","SECT":" ","MAREA":" ","LANE":" ","ALLEY":" ","HOUSE_NO":"２６０號","E_COORD97":170226.48999999999,"N_COORD97":2542024.9399999999,"ADDRESS":"崇德路２６０號","OBJECTID":249608},"geometry":{"x":170226.49000000115,"y":2542024.9400000013}},{"attributes":{"ID":249613,"DIS_CODE":0,"TOWNNAME":"東區","LI":"崇學里","LIN":"14鄰","STREET":"榮譽街","SECT":" ","MAREA":" ","LANE":" ","ALLEY":" ","HOUSE_NO":"２９２號","E_COORD97":170210.67000000001,"N_COORD97":2542009.3100000001,"ADDRESS":"榮譽街２９２號","OBJECTID":249609},"geometry":{"x":170210.67000000179,"y":2542009.3100000024}},{"attributes":{"ID":249614,"DIS_CODE":0,"TOWNNAME":"東區","LI":"崇學里","LIN":"14鄰","STREET":"榮譽街","SECT":" ","MAREA":" ","LANE":" ","ALLEY":" ","HOUSE_NO":"２９２號地下層","E_COORD97":170210.67000000001,"N_COORD97":2542009.3100000001,"ADDRESS":"榮譽街２９２號地下層","OBJECTID":249610},"geometry":{"x":170210.67000000179,"y":2542009.3100000024}},{"attributes":{"ID":249615,"DIS_CODE":0,"TOWNNAME":"白河區","LI":"永安里","LIN":"14鄰","STREET":"國光路","SECT":" ","MAREA":" ","LANE":" ","ALLEY":" ","HOUSE_NO":"４６號","E_COORD97":190318.23000000001,"N_COORD97":2583432.3199999998,"ADDRESS":"國光路４６號","OBJECTID":249611},"geometry":{"x":190318.23000000138,"y":2583432.320000004}},{"attributes":{"ID":249616,"DIS_CODE":0,"TOWNNAME":"白河區","LI":"永安里","LIN":"14鄰","STREET":"國光路","SECT":" ","MAREA":" ","LANE":" ","ALLEY":" ","HOUSE_NO":"４８號","E_COORD97":190318.82999999999,"N_COORD97":2583437.8999999999,"ADDRESS":"國光路４８號","OBJECTID":249612},"geometry":{"x":190318.83000000101,"y":2583437.9000000004}},{"attributes":{"ID":249617,"DIS_CODE":0,"TOWNNAME":"白河區","LI":"永安里","LIN":"14鄰","STREET":"國光路","SECT":" ","MAREA":" ","LANE":" ","ALLEY":" ","HOUSE_NO":"５０號","E_COORD97":190319.32000000001,"N_COORD97":2583442.3199999998,"ADDRESS":"國光路５０號","OBJECTID":249613},"geometry":{"x":190319.3200000003,"y":2583442.320000004}},{"attributes":{"ID":249618,"DIS_CODE":0,"TOWNNAME":"白河區","LI":"永安里","LIN":"14鄰","STREET":"國光路","SECT":" ","MAREA":" ","LANE":" ","ALLEY":" ","HOUSE_NO":"５２號","E_COORD97":190319.54000000001,"N_COORD97":2583446.3300000001,"ADDRESS":"國光路５２號","OBJECTID":249614},"geometry":{"x":190319.54000000004,"y":2583446.3300000019}},{"attributes":{"ID":249619,"DIS_CODE":0,"TOWNNAME":"永康區","LI":"復國里","LIN":"36鄰","STREET":"復國一路","SECT":" ","MAREA":" ","LANE":"２１巷","ALLEY":" ","HOUSE_NO":"８號","E_COORD97":172665.89999999999,"N_COORD97":2544817.52,"ADDRESS":"復國一路２１巷８號","OBJECTID":249615},"geometry":{"x":172665.90000000224,"y":2544817.5200000014}},{"attributes":{"ID":249620,"DIS_CODE":0,"TOWNNAME":"永康區","LI":"復國里","LIN":"18鄰","STREET":"復國一路","SECT":" ","MAREA":" ","LANE":"３３４巷","ALLEY":" ","HOUSE_NO":"６號","E_COORD97":172796.70000000001,"N_COORD97":2545653.27,"ADDRESS":"復國一路３３４巷６號","OBJECTID":249616},"geometry":{"x":172796.70000000112,"y":2545653.2700000014}},{"attributes":{"ID":249621,"DIS_CODE":0,"TOWNNAME":"永康區","LI":"勝利里","LIN":"20鄰","STREET":"勝學路","SECT":" ","MAREA":" ","LANE":"２６９巷","ALLEY":" ","HOUSE_NO":"２１號","E_COORD97":171148.70999999999,"N_COORD97":2545257.5,"ADDRESS":"勝學路２６９巷２１號","OBJECTID":249617},"geometry":{"x":171148.71000000089,"y":2545257.5}},{"attributes":{"ID":249622,"DIS_CODE":0,"TOWNNAME":"永康區","LI":"復國里","LIN":"32鄰","STREET":"復華一街","SECT":" ","MAREA":" ","LANE":"２８巷","ALLEY":" ","HOUSE_NO":"１１號","E_COORD97":172617.04000000001,"N_COORD97":2545113.02,"ADDRESS":"復華一街２８巷１１號","OBJECTID":249618},"geometry":{"x":172617.03999999911,"y":2545113.0200000014}},{"attributes":{"ID":249623,"DIS_CODE":0,"TOWNNAME":"永康區","LI":"復國里","LIN":"32鄰","STREET":"復華一街","SECT":" ","MAREA":" ","LANE":"２８巷","ALLEY":" ","HOUSE_NO":"３１號","E_COORD97":172644.48000000001,"N_COORD97":2545175.2799999998,"ADDRESS":"復華一街２８巷３１號","OBJECTID":249619},"geometry":{"x":172644.48000000045,"y":2545175.2800000012}},{"attributes":{"ID":249624,"DIS_CODE":0,"TOWNNAME":"永康區","LI":"勝利里","LIN":"14鄰","STREET":"勝利街","SECT":" ","MAREA":" ","LANE":"７７巷","ALLEY":" ","HOUSE_NO":"１８號","E_COORD97":171259.26000000001,"N_COORD97":2544789.0099999998,"ADDRESS":"勝利街７７巷１８號","OBJECTID":249620},"geometry":{"x":171259.26000000164,"y":2544789.0099999998}},{"attributes":{"ID":249625,"DIS_CODE":0,"TOWNNAME":"永康區","LI":"勝利里","LIN":"14鄰","STREET":"勝利街","SECT":" ","MAREA":" ","LANE":"７７巷","ALLEY":" ","HOUSE_NO":"１號","E_COORD97":171341.37,"N_COORD97":2544753.5099999998,"ADDRESS":"勝利街７７巷１號","OBJECTID":249621},"geometry":{"x":171341.37000000011,"y":2544753.5100000016}},{"attributes":{"ID":249626,"DIS_CODE":0,"TOWNNAME":"永康區","LI":"崑山里","LIN":"8鄰","STREET":"大灣路","SECT":" ","MAREA":" ","LANE":"９５９巷","ALLEY":" ","HOUSE_NO":"４號","E_COORD97":173384.34,"N_COORD97":2544321.8799999999,"ADDRESS":"大灣路９５９巷４號","OBJECTID":249622},"geometry":{"x":173384.33999999985,"y":2544321.879999999}},{"attributes":{"ID":249627,"DIS_CODE":0,"TOWNNAME":"永康區","LI":"復華里","LIN":"1鄰","STREET":"復國二路","SECT":" ","MAREA":" ","LANE":"２７４巷","ALLEY":" ","HOUSE_NO":"１２號","E_COORD97":173053.69,"N_COORD97":2546054.52,"ADDRESS":"復國二路２７４巷１２號","OBJECTID":249623},"geometry":{"x":173053.69000000041,"y":2546054.5200000033}},{"attributes":{"ID":249628,"DIS_CODE":0,"TOWNNAME":"永康區","LI":"復華里","LIN":"33鄰","STREET":"復華十街","SECT":" ","MAREA":" ","LANE":"１１巷","ALLEY":" ","HOUSE_NO":"６號","E_COORD97":172516.85000000001,"N_COORD97":2546204.3599999999,"ADDRESS":"復華十街１１巷６號","OBJECTID":249624},"geometry":{"x":172516.85000000056,"y":2546204.3599999975}},{"attributes":{"ID":249629,"DIS_CODE":0,"TOWNNAME":"東區","LI":"大同里","LIN":"14鄰","STREET":"府連路","SECT":" ","MAREA":" ","LANE":"１６５巷","ALLEY":" ","HOUSE_NO":"４號","E_COORD97":169206.23000000001,"N_COORD97":2542858.9199999999,"ADDRESS":"府連路１６５巷４號","OBJECTID":249625},"geometry":{"x":169206.23000000138,"y":2542858.9200000018}},{"attributes":{"ID":249630,"DIS_CODE":0,"TOWNNAME":"下營區","LI":"新興里","LIN":"14鄰","STREET":"中山路","SECT":"一段","MAREA":" ","LANE":"１８８巷","ALLEY":" ","HOUSE_NO":"１號","E_COORD97":174794.19,"N_COORD97":2570566.79,"ADDRESS":"中山路一段１８８巷１號","OBJECTID":249626},"geometry":{"x":174794.19000000041,"y":2570566.7899999991}},{"attributes":{"ID":249631,"DIS_CODE":0,"TOWNNAME":"下營區","LI":"新興里","LIN":"14鄰","STREET":"中山路","SECT":"一段","MAREA":" ","LANE":"１８８巷","ALLEY":" ","HOUSE_NO":"２號","E_COORD97":174814.04999999999,"N_COORD97":2570570,"ADDRESS":"中山路一段１８８巷２號","OBJECTID":249627},"geometry":{"x":174814.05000000075,"y":2570570}},{"attributes":{"ID":249632,"DIS_CODE":0,"TOWNNAME":"下營區","LI":"後街里","LIN":"14鄰","STREET":"中正北路","SECT":" ","MAREA":" ","LANE":"１０６巷","ALLEY":" ","HOUSE_NO":"１５號","E_COORD97":174525.47,"N_COORD97":2570734.02,"ADDRESS":"中正北路１０６巷１５號","OBJECTID":249628},"geometry":{"x":174525.46999999974,"y":2570734.0200000014}},{"attributes":{"ID":249633,"DIS_CODE":0,"TOWNNAME":"下營區","LI":"後街里","LIN":"14鄰","STREET":"中正北路","SECT":" ","MAREA":" ","LANE":"１０６巷","ALLEY":" ","HOUSE_NO":"１８號","E_COORD97":174541.69,"N_COORD97":2570723.5800000001,"ADDRESS":"中正北路１０６巷１８號","OBJECTID":249629},"geometry":{"x":174541.69000000041,"y":2570723.5800000019}},{"attributes":{"ID":249634,"DIS_CODE":0,"TOWNNAME":"下營區","LI":"後街里","LIN":"14鄰","STREET":"中正北路","SECT":" ","MAREA":" ","LANE":"１０６巷","ALLEY":" ","HOUSE_NO":"１號","E_COORD97":174507.32000000001,"N_COORD97":2570723.27,"ADDRESS":"中正北路１０６巷１號","OBJECTID":249630},"geometry":{"x":174507.32000000216,"y":2570723.2699999996}},{"attributes":{"ID":249635,"DIS_CODE":0,"TOWNNAME":"下營區","LI":"後街里","LIN":"14鄰","STREET":"中正北路","SECT":" ","MAREA":" ","LANE":"１０６巷","ALLEY":" ","HOUSE_NO":"２號","E_COORD97":174496.22,"N_COORD97":2570705.1200000001,"ADDRESS":"中正北路１０６巷２號","OBJECTID":249631},"geometry":{"x":174496.22000000067,"y":2570705.1200000029}},{"attributes":{"ID":249636,"DIS_CODE":0,"TOWNNAME":"白河區","LI":"永安里","LIN":"14鄰","STREET":"國光路","SECT":" ","MAREA":" ","LANE":" ","ALLEY":" ","HOUSE_NO":"５４號","E_COORD97":190319.95000000001,"N_COORD97":2583449.8999999999,"ADDRESS":"國光路５４號","OBJECTID":249632},"geometry":{"x":190319.95000000112,"y":2583449.9000000022}},{"attributes":{"ID":249637,"DIS_CODE":0,"TOWNNAME":"白河區","LI":"永安里","LIN":"14鄰","STREET":"國光路","SECT":" ","MAREA":" ","LANE":" ","ALLEY":" ","HOUSE_NO":"５６號","E_COORD97":190320.92000000001,"N_COORD97":2583453.9700000002,"ADDRESS":"國光路５６號","OBJECTID":249633},"geometry":{"x":190320.92000000086,"y":2583453.9700000007}},{"attributes":{"ID":249638,"DIS_CODE":0,"TOWNNAME":"白河區","LI":"永安里","LIN":"14鄰","STREET":"國光路","SECT":" ","MAREA":" ","LANE":" ","ALLEY":" ","HOUSE_NO":"５８號","E_COORD97":190321.32999999999,"N_COORD97":2583457.8300000001,"ADDRESS":"國光路５８號","OBJECTID":249634},"geometry":{"x":190321.33000000007,"y":2583457.8300000001}},{"attributes":{"ID":249639,"DIS_CODE":0,"TOWNNAME":"白河區","LI":"永安里","LIN":"14鄰","STREET":"國光路","SECT":" ","MAREA":" ","LANE":" ","ALLEY":" ","HOUSE_NO":"６０號","E_COORD97":190321.37,"N_COORD97":2583461.71,"ADDRESS":"國光路６０號","OBJECTID":249635},"geometry":{"x":190321.37000000197,"y":2583461.7100000028}},{"attributes":{"ID":249640,"DIS_CODE":0,"TOWNNAME":"白河區","LI":"永安里","LIN":"14鄰","STREET":"復興街","SECT":" ","MAREA":" ","LANE":" ","ALLEY":" ","HOUSE_NO":"４６號","E_COORD97":190376.13,"N_COORD97":2583411.4100000001,"ADDRESS":"復興街４６號","OBJECTID":249636},"geometry":{"x":190376.12999999989,"y":2583411.410000002}},{"attributes":{"ID":249641,"DIS_CODE":0,"TOWNNAME":"白河區","LI":"永安里","LIN":"14鄰","STREET":"復興街","SECT":" ","MAREA":" ","LANE":" ","ALLEY":" ","HOUSE_NO":"６０號","E_COORD97":190340.59,"N_COORD97":2583425.8900000001,"ADDRESS":"復興街６０號","OBJECTID":249637},"geometry":{"x":190340.59000000078,"y":2583425.8900000025}},{"attributes":{"ID":249642,"DIS_CODE":0,"TOWNNAME":"白河區","LI":"永安里","LIN":"14鄰","STREET":"復興街","SECT":" ","MAREA":" ","LANE":" ","ALLEY":" ","HOUSE_NO":"６２號","E_COORD97":190336.53,"N_COORD97":2583426.2999999998,"ADDRESS":"復興街６２號","OBJECTID":249638},"geometry":{"x":190336.53000000026,"y":2583426.3000000026}},{"attributes":{"ID":249643,"DIS_CODE":0,"TOWNNAME":"白河區","LI":"永安里","LIN":"14鄰","STREET":"復興街","SECT":" ","MAREA":" ","LANE":" ","ALLEY":" ","HOUSE_NO":"６４號","E_COORD97":190332.67000000001,"N_COORD97":2583426.9399999999,"ADDRESS":"復興街６４號","OBJECTID":249639},"geometry":{"x":190332.67000000179,"y":2583426.9399999976}},{"attributes":{"ID":249644,"DIS_CODE":0,"TOWNNAME":"麻豆區","LI":"保安里","LIN":"14鄰","STREET":"興南路","SECT":" ","MAREA":" ","LANE":" ","ALLEY":" ","HOUSE_NO":"８３號","E_COORD97":173266.25,"N_COORD97":2564763.21,"ADDRESS":"興南路８３號","OBJECTID":249640},"geometry":{"x":173266.25,"y":2564763.2100000028}},{"attributes":{"ID":249645,"DIS_CODE":0,"TOWNNAME":"麻豆區","LI":"保安里","LIN":"14鄰","STREET":"興南路","SECT":" ","MAREA":" ","LANE":" ","ALLEY":" ","HOUSE_NO":"８５號","E_COORD97":173271.10999999999,"N_COORD97":2564763.4399999999,"ADDRESS":"興南路８５號","OBJECTID":249641},"geometry":{"x":173271.11000000034,"y":2564763.4400000013}},{"attributes":{"ID":249646,"DIS_CODE":0,"TOWNNAME":"麻豆區","LI":"保安里","LIN":"14鄰","STREET":"興南路","SECT":" ","MAREA":" ","LANE":" ","ALLEY":" ","HOUSE_NO":"９５號","E_COORD97":173276.73000000001,"N_COORD97":2564763.4199999999,"ADDRESS":"興南路９５號","OBJECTID":249642},"geometry":{"x":173276.73000000045,"y":2564763.4199999981}},{"attributes":{"ID":249647,"DIS_CODE":0,"TOWNNAME":"永康區","LI":"復國里","LIN":"23鄰","STREET":"復國一路","SECT":" ","MAREA":" ","LANE":"３２９巷","ALLEY":" ","HOUSE_NO":"４號","E_COORD97":172727.67000000001,"N_COORD97":2545676.52,"ADDRESS":"復國一路３２９巷４號","OBJECTID":249643},"geometry":{"x":172727.66999999993,"y":2545676.5199999996}},{"attributes":{"ID":249648,"DIS_CODE":0,"TOWNNAME":"永康區","LI":"復國里","LIN":"23鄰","STREET":"復華三街","SECT":" ","MAREA":" ","LANE":"９０巷","ALLEY":" ","HOUSE_NO":"１５號","E_COORD97":172588.91,"N_COORD97":2545613.5899999999,"ADDRESS":"復華三街９０巷１５號","OBJECTID":249644},"geometry":{"x":172588.91000000015,"y":2545613.5900000036}},{"attributes":{"ID":249649,"DIS_CODE":0,"TOWNNAME":"永康區","LI":"復國里","LIN":"11鄰","STREET":"復國一路","SECT":" ","MAREA":" ","LANE":"２７６巷","ALLEY":" ","HOUSE_NO":"５５號","E_COORD97":172833.48000000001,"N_COORD97":2545458.77,"ADDRESS":"復國一路２７６巷５５號","OBJECTID":249645},"geometry":{"x":172833.48000000138,"y":2545458.7699999996}},{"attributes":{"ID":249650,"DIS_CODE":0,"TOWNNAME":"永康區","LI":"復華里","LIN":"3鄰","STREET":"復國二路","SECT":" ","MAREA":" ","LANE":"３３８巷","ALLEY":" ","HOUSE_NO":"１號","E_COORD97":173037.70999999999,"N_COORD97":2546131.1499999999,"ADDRESS":"復國二路３３８巷１號","OBJECTID":249646},"geometry":{"x":173037.70999999996,"y":2546131.1500000004}},{"attributes":{"ID":249651,"DIS_CODE":0,"TOWNNAME":"永康區","LI":"復國里","LIN":"2鄰","STREET":"復國一路","SECT":" ","MAREA":" ","LANE":"２８巷","ALLEY":" ","HOUSE_NO":"３６號","E_COORD97":172810.34,"N_COORD97":2544761.6200000001,"ADDRESS":"復國一路２８巷３６號","OBJECTID":249647},"geometry":{"x":172810.34000000078,"y":2544761.6200000029}},{"attributes":{"ID":249652,"DIS_CODE":0,"TOWNNAME":"永康區","LI":"復華里","LIN":"13鄰","STREET":"國華街","SECT":" ","MAREA":" ","LANE":"９６巷","ALLEY":" ","HOUSE_NO":"１７號","E_COORD97":172917.17999999999,"N_COORD97":2545932.0099999998,"ADDRESS":"國華街９６巷１７號","OBJECTID":249648},"geometry":{"x":172917.1799999997,"y":2545932.0099999998}},{"attributes":{"ID":249653,"DIS_CODE":0,"TOWNNAME":"永康區","LI":"復華里","LIN":"24鄰","STREET":"復華八街","SECT":" ","MAREA":" ","LANE":"５８巷","ALLEY":" ","HOUSE_NO":"１１號","E_COORD97":172795.17000000001,"N_COORD97":2546311.1000000001,"ADDRESS":"復華八街５８巷１１號","OBJECTID":249649},"geometry":{"x":172795.16999999993,"y":2546311.0999999996}},{"attributes":{"ID":249654,"DIS_CODE":0,"TOWNNAME":"永康區","LI":"復國里","LIN":"33鄰","STREET":"復華一街","SECT":" ","MAREA":" ","LANE":"６６巷","ALLEY":" ","HOUSE_NO":"２４號","E_COORD97":172548.73999999999,"N_COORD97":2545178.2799999998,"ADDRESS":"復華一街６６巷２４號","OBJECTID":249650},"geometry":{"x":172548.74000000115,"y":2545178.2800000012}},{"attributes":{"ID":249655,"DIS_CODE":0,"TOWNNAME":"永康區","LI":"勝利里","LIN":"28鄰","STREET":"勝利街","SECT":" ","MAREA":" ","LANE":"３２巷","ALLEY":" ","HOUSE_NO":"２７號","E_COORD97":171413.35000000001,"N_COORD97":2544597,"ADDRESS":"勝利街３２巷２７號","OBJECTID":249651},"geometry":{"x":171413.35000000056,"y":2544596.9999999981}},{"attributes":{"ID":249656,"DIS_CODE":0,"TOWNNAME":"永康區","LI":"勝利里","LIN":"29鄰","STREET":"勝利街","SECT":" ","MAREA":" ","LANE":"３２巷","ALLEY":" ","HOUSE_NO":"５號","E_COORD97":171357.17999999999,"N_COORD97":2544604.4900000002,"ADDRESS":"勝利街３２巷５號","OBJECTID":249652},"geometry":{"x":171357.18000000063,"y":2544604.4900000039}},{"attributes":{"ID":249657,"DIS_CODE":0,"TOWNNAME":"永康區","LI":"復國里","LIN":"29鄰","STREET":"復華二街","SECT":" ","MAREA":" ","LANE":"３巷","ALLEY":" ","HOUSE_NO":"６號","E_COORD97":172652.07000000001,"N_COORD97":2545322.27,"ADDRESS":"復華二街３巷６號","OBJECTID":249653},"geometry":{"x":172652.0700000003,"y":2545322.2699999996}},{"attributes":{"ID":249658,"DIS_CODE":0,"TOWNNAME":"永康區","LI":"復國里","LIN":"29鄰","STREET":"復華二街","SECT":" ","MAREA":" ","LANE":"１３巷","ALLEY":" ","HOUSE_NO":"９號","E_COORD97":172628.76000000001,"N_COORD97":2545312.2799999998,"ADDRESS":"復華二街１３巷９號","OBJECTID":249654},"geometry":{"x":172628.75999999978,"y":2545312.2799999993}},{"attributes":{"ID":249659,"DIS_CODE":0,"TOWNNAME":"下營區","LI":"後街里","LIN":"14鄰","STREET":"中正北路","SECT":" ","MAREA":" ","LANE":"１０６巷","ALLEY":" ","HOUSE_NO":"６號","E_COORD97":174501.29999999999,"N_COORD97":2570706.9300000002,"ADDRESS":"中正北路１０６巷６號","OBJECTID":249655},"geometry":{"x":174501.29999999981,"y":2570706.9300000034}},{"attributes":{"ID":249660,"DIS_CODE":0,"TOWNNAME":"下營區","LI":"後街里","LIN":"14鄰","STREET":"中正北路","SECT":" ","MAREA":" ","LANE":"１０６巷","ALLEY":" ","HOUSE_NO":"７號","E_COORD97":174519.35999999999,"N_COORD97":2570730.1499999999,"ADDRESS":"中正北路１０６巷７號","OBJECTID":249656},"geometry":{"x":174519.36000000127,"y":2570730.1500000022}},{"attributes":{"ID":249661,"DIS_CODE":0,"TOWNNAME":"麻豆區","LI":"保安里","LIN":"14鄰","STREET":"興南路","SECT":" ","MAREA":" ","LANE":" ","ALLEY":" ","HOUSE_NO":"９７號","E_COORD97":173280.57999999999,"N_COORD97":2564763.0899999999,"ADDRESS":"興南路９７號","OBJECTID":249657},"geometry":{"x":173280.58000000101,"y":2564763.0900000017}},{"attributes":{"ID":249662,"DIS_CODE":0,"TOWNNAME":"麻豆區","LI":"保安里","LIN":"14鄰","STREET":"興南路","SECT":" ","MAREA":" ","LANE":" ","ALLEY":" ","HOUSE_NO":"９９號","E_COORD97":173284.81,"N_COORD97":2564763.3100000001,"ADDRESS":"興南路９９號","OBJECTID":249658},"geometry":{"x":173284.81000000052,"y":2564763.3100000024}},{"attributes":{"ID":249663,"DIS_CODE":0,"TOWNNAME":"安南區","LI":"淵東里","LIN":"14鄰","STREET":"智安二街","SECT":" ","MAREA":" ","LANE":" ","ALLEY":" ","HOUSE_NO":"６９號","E_COORD97":165682.91,"N_COORD97":2550287.0600000001,"ADDRESS":"智安二街６９號","OBJECTID":249659},"geometry":{"x":165682.91000000015,"y":2550287.0600000024}},{"attributes":{"ID":249664,"DIS_CODE":0,"TOWNNAME":"安南區","LI":"佃東里","LIN":"14鄰","STREET":"公學路","SECT":"二段","MAREA":" ","LANE":" ","ALLEY":" ","HOUSE_NO":"２６６之５０號","E_COORD97":167072.31,"N_COORD97":2552087.6600000001,"ADDRESS":"公學路二段２６６之５０號","OBJECTID":249660},"geometry":{"x":167072.31000000052,"y":2552087.6600000001}},{"attributes":{"ID":249665,"DIS_CODE":0,"TOWNNAME":"安南區","LI":"新順里","LIN":"14鄰","STREET":"永安路","SECT":" ","MAREA":" ","LANE":" ","ALLEY":" ","HOUSE_NO":"８６號","E_COORD97":170263.56,"N_COORD97":2549398.1699999999,"ADDRESS":"永安路８６號","OBJECTID":249661},"geometry":{"x":170263.55999999866,"y":2549398.1700000018}},{"attributes":{"ID":249666,"DIS_CODE":0,"TOWNNAME":"佳里區","LI":"東寧里","LIN":"14鄰","STREET":"延平路","SECT":" ","MAREA":" ","LANE":" ","ALLEY":" ","HOUSE_NO":"３５４號","E_COORD97":165876.39000000001,"N_COORD97":2562480.5600000001,"ADDRESS":"延平路３５４號","OBJECTID":249662},"geometry":{"x":165876.3900000006,"y":2562480.5600000005}},{"attributes":{"ID":249667,"DIS_CODE":0,"TOWNNAME":"佳里區","LI":"東寧里","LIN":"14鄰","STREET":"延平路","SECT":" ","MAREA":" ","LANE":" ","ALLEY":" ","HOUSE_NO":"３５６號","E_COORD97":165876.39999999999,"N_COORD97":2562485.1200000001,"ADDRESS":"延平路３５６號","OBJECTID":249663},"geometry":{"x":165876.40000000037,"y":2562485.1200000048}},{"attributes":{"ID":249668,"DIS_CODE":0,"TOWNNAME":"佳里區","LI":"東寧里","LIN":"14鄰","STREET":"延平路","SECT":" ","MAREA":" ","LANE":" ","ALLEY":" ","HOUSE_NO":"３５８號","E_COORD97":165875.75,"N_COORD97":2562489.79,"ADDRESS":"延平路３５８號","OBJECTID":249664},"geometry":{"x":165875.75000000186,"y":2562489.790000001}},{"attributes":{"ID":249669,"DIS_CODE":0,"TOWNNAME":"佳里區","LI":"東寧里","LIN":"14鄰","STREET":"延平路","SECT":" ","MAREA":" ","LANE":" ","ALLEY":" ","HOUSE_NO":"３６０號","E_COORD97":165877.54000000001,"N_COORD97":2562495.2200000002,"ADDRESS":"延平路３６０號","OBJECTID":249665},"geometry":{"x":165877.54000000097,"y":2562495.2200000025}},{"attributes":{"ID":249670,"DIS_CODE":0,"TOWNNAME":"佳里區","LI":"東寧里","LIN":"14鄰","STREET":"延平路","SECT":" ","MAREA":" ","LANE":" ","ALLEY":" ","HOUSE_NO":"３６２號","E_COORD97":165877.14999999999,"N_COORD97":2562500.1200000001,"ADDRESS":"延平路３６２號","OBJECTID":249666},"geometry":{"x":165877.1500000013,"y":2562500.1200000029}},{"attributes":{"ID":249671,"DIS_CODE":0,"TOWNNAME":"佳里區","LI":"東寧里","LIN":"14鄰","STREET":"延平路","SECT":" ","MAREA":" ","LANE":" ","ALLEY":" ","HOUSE_NO":"３６４號","E_COORD97":165877.20000000001,"N_COORD97":2562506.1299999999,"ADDRESS":"延平路３６４號","OBJECTID":249667},"geometry":{"x":165877.20000000019,"y":2562506.129999999}},{"attributes":{"ID":249672,"DIS_CODE":0,"TOWNNAME":"佳里區","LI":"東寧里","LIN":"14鄰","STREET":"延平路","SECT":" ","MAREA":" ","LANE":" ","ALLEY":" ","HOUSE_NO":"３３４號","E_COORD97":165878.37,"N_COORD97":2562429.04,"ADDRESS":"延平路３３４號","OBJECTID":249668},"geometry":{"x":165878.37000000197,"y":2562429.0399999991}},{"attributes":{"ID":249673,"DIS_CODE":0,"TOWNNAME":"佳里區","LI":"東寧里","LIN":"14鄰","STREET":"延平路","SECT":" ","MAREA":" ","LANE":" ","ALLEY":" ","HOUSE_NO":"３３６號","E_COORD97":165876.73999999999,"N_COORD97":2562434.7599999998,"ADDRESS":"延平路３３６號","OBJECTID":249669},"geometry":{"x":165876.74000000115,"y":2562434.7599999998}},{"attributes":{"ID":249674,"DIS_CODE":0,"TOWNNAME":"永康區","LI":"復國里","LIN":"30鄰","STREET":"復國一路","SECT":" ","MAREA":" ","LANE":"１７３巷","ALLEY":" ","HOUSE_NO":"２８號","E_COORD97":172677.13,"N_COORD97":2545221.27,"ADDRESS":"復國一路１７３巷２８號","OBJECTID":249670},"geometry":{"x":172677.12999999989,"y":2545221.2699999996}},{"attributes":{"ID":249675,"DIS_CODE":0,"TOWNNAME":"永康區","LI":"復國里","LIN":"28鄰","STREET":"復華二街","SECT":" ","MAREA":" ","LANE":"１２巷","ALLEY":" ","HOUSE_NO":"３號","E_COORD97":172668.07999999999,"N_COORD97":2545382.5299999998,"ADDRESS":"復華二街１２巷３號","OBJECTID":249671},"geometry":{"x":172668.08000000101,"y":2545382.5299999993}},{"attributes":{"ID":249676,"DIS_CODE":0,"TOWNNAME":"永康區","LI":"勝利里","LIN":"28鄰","STREET":"勝利街","SECT":" ","MAREA":" ","LANE":"３２巷","ALLEY":" ","HOUSE_NO":"２５號","E_COORD97":171405.32000000001,"N_COORD97":2544598.25,"ADDRESS":"勝利街３２巷２５號","OBJECTID":249672},"geometry":{"x":171405.32000000216,"y":2544598.25}},{"attributes":{"ID":249677,"DIS_CODE":0,"TOWNNAME":"永康區","LI":"復興里","LIN":"29鄰","STREET":"忠孝路","SECT":" ","MAREA":" ","LANE":"７６巷","ALLEY":" ","HOUSE_NO":"８號","E_COORD97":172279.28,"N_COORD97":2544913.2400000002,"ADDRESS":"忠孝路７６巷８號","OBJECTID":249673},"geometry":{"x":172279.28000000119,"y":2544913.2400000002}},{"attributes":{"ID":249678,"DIS_CODE":0,"TOWNNAME":"永康區","LI":"復興里","LIN":"29鄰","STREET":"忠孝路","SECT":" ","MAREA":" ","LANE":"７６巷","ALLEY":" ","HOUSE_NO":"２０號","E_COORD97":172284.42999999999,"N_COORD97":2544952.7400000002,"ADDRESS":"忠孝路７６巷２０號","OBJECTID":249674},"geometry":{"x":172284.43000000063,"y":2544952.7400000021}},{"attributes":{"ID":249679,"DIS_CODE":0,"TOWNNAME":"安南區","LI":"安西里","LIN":"11鄰","STREET":"安和路","SECT":"一段","MAREA":" ","LANE":"３２１巷","ALLEY":" ","HOUSE_NO":"１０號","E_COORD97":169213.73000000001,"N_COORD97":2548156.4300000002,"ADDRESS":"安和路一段３２１巷１０號","OBJECTID":249675},"geometry":{"x":169213.73000000045,"y":2548156.4299999997}},{"attributes":{"ID":249680,"DIS_CODE":0,"TOWNNAME":"安南區","LI":"海東里","LIN":"11鄰","STREET":"海中街","SECT":" ","MAREA":" ","LANE":"５４巷","ALLEY":" ","HOUSE_NO":"１７號","E_COORD97":166520.23999999999,"N_COORD97":2548952.8300000001,"ADDRESS":"海中街５４巷１７號","OBJECTID":249676},"geometry":{"x":166520.24000000209,"y":2548952.8300000019}},{"attributes":{"ID":249681,"DIS_CODE":0,"TOWNNAME":"安南區","LI":"海東里","LIN":"11鄰","STREET":"海中街","SECT":" ","MAREA":" ","LANE":"５４巷","ALLEY":" ","HOUSE_NO":"２５號","E_COORD97":166536.79000000001,"N_COORD97":2548962.4100000001,"ADDRESS":"海中街５４巷２５號","OBJECTID":249677},"geometry":{"x":166536.79000000097,"y":2548962.410000002}},{"attributes":{"ID":249682,"DIS_CODE":0,"TOWNNAME":"安南區","LI":"城南里","LIN":"11鄰","STREET":"城西街","SECT":"二段","MAREA":" ","LANE":"１７２巷","ALLEY":" ","HOUSE_NO":"３４號","E_COORD97":159862.5,"N_COORD97":2551114.5800000001,"ADDRESS":"城西街二段１７２巷３４號","OBJECTID":249678},"geometry":{"x":159862.5,"y":2551114.5800000019}},{"attributes":{"ID":249683,"DIS_CODE":0,"TOWNNAME":"永康區","LI":"勝利里","LIN":"36鄰","STREET":"勝學路","SECT":" ","MAREA":" ","LANE":"５８巷","ALLEY":" ","HOUSE_NO":"７號","E_COORD97":171175.23000000001,"N_COORD97":2544704.5,"ADDRESS":"勝學路５８巷７號","OBJECTID":249679},"geometry":{"x":171175.23000000045,"y":2544704.5}},{"attributes":{"ID":249684,"DIS_CODE":0,"TOWNNAME":"永康區","LI":"復華里","LIN":"14鄰","STREET":"國華街","SECT":" ","MAREA":" ","LANE":"９６巷","ALLEY":" ","HOUSE_NO":"２２號","E_COORD97":172908.87,"N_COORD97":2545917.75,"ADDRESS":"國華街９６巷２２號","OBJECTID":249680},"geometry":{"x":172908.87000000104,"y":2545917.7500000037}},{"attributes":{"ID":249685,"DIS_CODE":0,"TOWNNAME":"永康區","LI":"復國里","LIN":"35鄰","STREET":"復國一路","SECT":" ","MAREA":" ","LANE":"１０３巷","ALLEY":" ","HOUSE_NO":"５號","E_COORD97":172675.31,"N_COORD97":2544999.7799999998,"ADDRESS":"復國一路１０３巷５號","OBJECTID":249681},"geometry":{"x":172675.30999999959,"y":2544999.7799999993}},{"attributes":{"ID":249686,"DIS_CODE":0,"TOWNNAME":"永康區","LI":"復國里","LIN":"33鄰","STREET":"復華一街","SECT":" ","MAREA":" ","LANE":"６６巷","ALLEY":" ","HOUSE_NO":"２９號","E_COORD97":172508.32999999999,"N_COORD97":2545145.77,"ADDRESS":"復華一街６６巷２９號","OBJECTID":249682},"geometry":{"x":172508.32999999914,"y":2545145.7700000014}},{"attributes":{"ID":249687,"DIS_CODE":0,"TOWNNAME":"佳里區","LI":"東寧里","LIN":"14鄰","STREET":"延平路","SECT":" ","MAREA":" ","LANE":" ","ALLEY":" ","HOUSE_NO":"３３８號","E_COORD97":165876.78,"N_COORD97":2562439.5600000001,"ADDRESS":"延平路３３８號","OBJECTID":249683},"geometry":{"x":165876.78000000026,"y":2562439.5600000005}},{"attributes":{"ID":249688,"DIS_CODE":0,"TOWNNAME":"佳里區","LI":"東寧里","LIN":"14鄰","STREET":"延平路","SECT":" ","MAREA":" ","LANE":" ","ALLEY":" ","HOUSE_NO":"３４０號","E_COORD97":165877.57000000001,"N_COORD97":2562446.8300000001,"ADDRESS":"延平路３４０號","OBJECTID":249684},"geometry":{"x":165877.57000000123,"y":2562446.8300000019}},{"attributes":{"ID":249689,"DIS_CODE":0,"TOWNNAME":"佳里區","LI":"東寧里","LIN":"14鄰","STREET":"延平路","SECT":" ","MAREA":" ","LANE":" ","ALLEY":" ","HOUSE_NO":"３４２號","E_COORD97":165877.47,"N_COORD97":2562451.8900000001,"ADDRESS":"延平路３４２號","OBJECTID":249685},"geometry":{"x":165877.47000000067,"y":2562451.8900000006}},{"attributes":{"ID":249690,"DIS_CODE":0,"TOWNNAME":"佳里區","LI":"東寧里","LIN":"14鄰","STREET":"延平路","SECT":" ","MAREA":" ","LANE":" ","ALLEY":" ","HOUSE_NO":"３４４號","E_COORD97":165877.32999999999,"N_COORD97":2562457.7799999998,"ADDRESS":"延平路３４４號","OBJECTID":249686},"geometry":{"x":165877.33000000101,"y":2562457.7799999993}},{"attributes":{"ID":249691,"DIS_CODE":0,"TOWNNAME":"佳里區","LI":"東寧里","LIN":"14鄰","STREET":"延平路","SECT":" ","MAREA":" ","LANE":" ","ALLEY":" ","HOUSE_NO":"３４６號","E_COORD97":165877.23000000001,"N_COORD97":2562462.96,"ADDRESS":"延平路３４６號","OBJECTID":249687},"geometry":{"x":165877.23000000045,"y":2562462.9600000028}},{"attributes":{"ID":249692,"DIS_CODE":0,"TOWNNAME":"佳里區","LI":"東寧里","LIN":"14鄰","STREET":"延平路","SECT":" ","MAREA":" ","LANE":" ","ALLEY":" ","HOUSE_NO":"３４８號","E_COORD97":165877.17000000001,"N_COORD97":2562467.4700000002,"ADDRESS":"延平路３４８號","OBJECTID":249688},"geometry":{"x":165877.16999999993,"y":2562467.4700000007}},{"attributes":{"ID":249693,"DIS_CODE":0,"TOWNNAME":"新營區","LI":"嘉芳里","LIN":"14鄰","STREET":"新工路","SECT":" ","MAREA":" ","LANE":" ","ALLEY":" ","HOUSE_NO":"２０號","E_COORD97":176511.85999999999,"N_COORD97":2578314.9700000002,"ADDRESS":"新工路２０號","OBJECTID":249689},"geometry":{"x":176511.86000000034,"y":2578314.9700000007}},{"attributes":{"ID":249694,"DIS_CODE":0,"TOWNNAME":"佳里區","LI":"忠仁里","LIN":"14鄰","STREET":"忠仁街","SECT":" ","MAREA":" ","LANE":" ","ALLEY":" ","HOUSE_NO":"１１６號","E_COORD97":166042.73999999999,"N_COORD97":2562169.5099999998,"ADDRESS":"忠仁街１１６號","OBJECTID":249690},"geometry":{"x":166042.74000000115,"y":2562169.5100000035}},{"attributes":{"ID":249695,"DIS_CODE":0,"TOWNNAME":"佳里區","LI":"忠仁里","LIN":"14鄰","STREET":"忠仁街","SECT":" ","MAREA":" ","LANE":" ","ALLEY":" ","HOUSE_NO":"１１８號","E_COORD97":166041.76999999999,"N_COORD97":2562177.0299999998,"ADDRESS":"忠仁街１１８號","OBJECTID":249691},"geometry":{"x":166041.77000000048,"y":2562177.0300000012}},{"attributes":{"ID":249696,"DIS_CODE":0,"TOWNNAME":"佳里區","LI":"安西里","LIN":"14鄰","STREET":"長安街","SECT":" ","MAREA":" ","LANE":" ","ALLEY":" ","HOUSE_NO":"８４號","E_COORD97":165429.85000000001,"N_COORD97":2562501.8399999999,"ADDRESS":"長安街８４號","OBJECTID":249692},"geometry":{"x":165429.84999999963,"y":2562501.8399999999}},{"attributes":{"ID":249697,"DIS_CODE":0,"TOWNNAME":"佳里區","LI":"安西里","LIN":"14鄰","STREET":"長安街","SECT":" ","MAREA":" ","LANE":" ","ALLEY":" ","HOUSE_NO":"９６號","E_COORD97":165433.07999999999,"N_COORD97":2562534.8500000001,"ADDRESS":"長安街９６號","OBJECTID":249693},"geometry":{"x":165433.08000000101,"y":2562534.8499999996}},{"attributes":{"ID":249698,"DIS_CODE":0,"TOWNNAME":"佳里區","LI":"安西里","LIN":"14鄰","STREET":"長安街","SECT":" ","MAREA":" ","LANE":" ","ALLEY":" ","HOUSE_NO":"９８號","E_COORD97":165433.22,"N_COORD97":2562539.5699999998,"ADDRESS":"長安街９８號","OBJECTID":249694},"geometry":{"x":165433.2200000016,"y":2562539.5700000022}},{"attributes":{"ID":249699,"DIS_CODE":0,"TOWNNAME":"佳里區","LI":"忠仁里","LIN":"14鄰","STREET":"信義一街","SECT":" ","MAREA":" ","LANE":" ","ALLEY":" ","HOUSE_NO":"２３５號","E_COORD97":166158.31,"N_COORD97":2562134.0699999998,"ADDRESS":"信義一街２３５號","OBJECTID":249695},"geometry":{"x":166158.31000000052,"y":2562134.0700000003}},{"attributes":{"ID":249700,"DIS_CODE":0,"TOWNNAME":"佳里區","LI":"忠仁里","LIN":"14鄰","STREET":"信義一街","SECT":" ","MAREA":" ","LANE":" ","ALLEY":" ","HOUSE_NO":"２５１號","E_COORD97":166165.73000000001,"N_COORD97":2562171.2999999998,"ADDRESS":"信義一街２５１號","OBJECTID":249696},"geometry":{"x":166165.73000000045,"y":2562171.3000000007}},{"attributes":{"ID":249701,"DIS_CODE":0,"TOWNNAME":"永康區","LI":"復國里","LIN":"2鄰","STREET":"復國一路","SECT":" ","MAREA":" ","LANE":"２８巷","ALLEY":" ","HOUSE_NO":"６號","E_COORD97":172749.01999999999,"N_COORD97":2544751.5899999999,"ADDRESS":"復國一路２８巷６號","OBJECTID":249697},"geometry":{"x":172749.02000000142,"y":2544751.5899999999}},{"attributes":{"ID":249702,"DIS_CODE":0,"TOWNNAME":"永康區","LI":"復國里","LIN":"36鄰","STREET":"復國一路","SECT":" ","MAREA":" ","LANE":"２１巷","ALLEY":" ","HOUSE_NO":"１１號","E_COORD97":172662.92000000001,"N_COORD97":2544801.27,"ADDRESS":"復國一路２１巷１１號","OBJECTID":249698},"geometry":{"x":172662.91999999993,"y":2544801.2699999996}},{"attributes":{"ID":249703,"DIS_CODE":0,"TOWNNAME":"永康區","LI":"復華里","LIN":"33鄰","STREET":"復華十街","SECT":" ","MAREA":" ","LANE":"１１巷","ALLEY":" ","HOUSE_NO":"１０號","E_COORD97":172523.70999999999,"N_COORD97":2546212.6099999999,"ADDRESS":"復華十街１１巷１０號","OBJECTID":249699},"geometry":{"x":172523.70999999996,"y":2546212.6099999994}},{"attributes":{"ID":249704,"DIS_CODE":0,"TOWNNAME":"永康區","LI":"復國里","LIN":"11鄰","STREET":"復國一路","SECT":" ","MAREA":" ","LANE":"２７６巷","ALLEY":" ","HOUSE_NO":"１９號","E_COORD97":172795.97,"N_COORD97":2545465.02,"ADDRESS":"復國一路２７６巷１９號","OBJECTID":249700},"geometry":{"x":172795.97000000067,"y":2545465.0200000014}},{"attributes":{"ID":249705,"DIS_CODE":0,"TOWNNAME":"安南區","LI":"安慶里","LIN":"11鄰","STREET":"長溪路","SECT":"一段","MAREA":" ","LANE":"１６８巷","ALLEY":" ","HOUSE_NO":"３９號","E_COORD97":169042.73000000001,"N_COORD97":2548658.7000000002,"ADDRESS":"長溪路一段１６８巷３９號","OBJECTID":249701},"geometry":{"x":169042.72999999952,"y":2548658.6999999993}},{"attributes":{"ID":249706,"DIS_CODE":0,"TOWNNAME":"安南區","LI":"溪心里","LIN":"11鄰","STREET":"海佃路","SECT":"三段","MAREA":" ","LANE":"４８巷","ALLEY":" ","HOUSE_NO":"５３號","E_COORD97":166382.94,"N_COORD97":2549973.29,"ADDRESS":"海佃路三段４８巷５３號","OBJECTID":249702},"geometry":{"x":166382.94000000041,"y":2549973.2899999991}},{"attributes":{"ID":249707,"DIS_CODE":0,"TOWNNAME":"下營區","LI":"後街里","LIN":"14鄰","STREET":"中正北路","SECT":" ","MAREA":" ","LANE":"１０６巷","ALLEY":" ","HOUSE_NO":"８號","E_COORD97":174506.01999999999,"N_COORD97":2570708.7000000002,"ADDRESS":"中正北路１０６巷８號","OBJECTID":249703},"geometry":{"x":174506.02000000048,"y":2570708.7000000011}},{"attributes":{"ID":249708,"DIS_CODE":0,"TOWNNAME":"下營區","LI":"下營里","LIN":"14鄰","STREET":"中正北路","SECT":" ","MAREA":" ","LANE":"４７巷","ALLEY":" ","HOUSE_NO":"１號","E_COORD97":174477.64999999999,"N_COORD97":2570620.8399999999,"ADDRESS":"中正北路４７巷１號","OBJECTID":249704},"geometry":{"x":174477.65000000037,"y":2570620.8400000017}},{"attributes":{"ID":249709,"DIS_CODE":0,"TOWNNAME":"下營區","LI":"下營里","LIN":"14鄰","STREET":"中正北路","SECT":" ","MAREA":" ","LANE":"４７巷","ALLEY":" ","HOUSE_NO":"３號","E_COORD97":174471.17999999999,"N_COORD97":2570618.1800000002,"ADDRESS":"中正北路４７巷３號","OBJECTID":249705},"geometry":{"x":174471.18000000063,"y":2570618.1800000016}},{"attributes":{"ID":249710,"DIS_CODE":0,"TOWNNAME":"永康區","LI":"尚頂里","LIN":"14鄰","STREET":"正南一街","SECT":" ","MAREA":" ","LANE":"１８１巷","ALLEY":" ","HOUSE_NO":"１５號","E_COORD97":170609.51000000001,"N_COORD97":2547359.3599999999,"ADDRESS":"正南一街１８１巷１５號","OBJECTID":249706},"geometry":{"x":170609.50999999978,"y":2547359.3599999994}},{"attributes":{"ID":249711,"DIS_CODE":0,"TOWNNAME":"永康區","LI":"尚頂里","LIN":"14鄰","STREET":"正南一街","SECT":" ","MAREA":" ","LANE":"１８１巷","ALLEY":" ","HOUSE_NO":"９號","E_COORD97":170639.29000000001,"N_COORD97":2547357.3599999999,"ADDRESS":"正南一街１８１巷９號","OBJECTID":249707},"geometry":{"x":170639.29000000097,"y":2547357.3600000031}},{"attributes":{"ID":249712,"DIS_CODE":0,"TOWNNAME":"永康區","LI":"尚頂里","LIN":"14鄰","STREET":"正南一街","SECT":" ","MAREA":" ","LANE":"１８１巷","ALLEY":" ","HOUSE_NO":"１３號","E_COORD97":170622.03,"N_COORD97":2547358.8599999999,"ADDRESS":"正南一街１８１巷１３號","OBJECTID":249708},"geometry":{"x":170622.03000000026,"y":2547358.8600000013}},{"attributes":{"ID":249713,"DIS_CODE":0,"TOWNNAME":"永康區","LI":"西灣里","LIN":"14鄰","STREET":"民族路","SECT":" ","MAREA":" ","LANE":"４１５巷","ALLEY":" ","HOUSE_NO":"４０號","E_COORD97":174753.45999999999,"N_COORD97":2545274.9500000002,"ADDRESS":"民族路４１５巷４０號","OBJECTID":249709},"geometry":{"x":174753.45999999903,"y":2545274.950000003}},{"attributes":{"ID":249714,"DIS_CODE":0,"TOWNNAME":"永康區","LI":"尚頂里","LIN":"14鄰","STREET":"正南一街","SECT":" ","MAREA":" ","LANE":"１８１巷","ALLEY":" ","HOUSE_NO":"３０號","E_COORD97":170610.76999999999,"N_COORD97":2547372.0899999999,"ADDRESS":"正南一街１８１巷３０號","OBJECTID":249710},"geometry":{"x":170610.76999999955,"y":2547372.0899999999}},{"attributes":{"ID":249715,"DIS_CODE":0,"TOWNNAME":"永康區","LI":"尚頂里","LIN":"14鄰","STREET":"正南一街","SECT":" ","MAREA":" ","LANE":"１８１巷","ALLEY":" ","HOUSE_NO":"１１號","E_COORD97":170633.47,"N_COORD97":2547357.8599999999,"ADDRESS":"正南一街１８１巷１１號","OBJECTID":249711},"geometry":{"x":170633.46999999974,"y":2547357.8600000013}},{"attributes":{"ID":249716,"DIS_CODE":0,"TOWNNAME":"佳里區","LI":"鎮山里","LIN":"14鄰","STREET":"安南路","SECT":" ","MAREA":" ","LANE":"２８巷","ALLEY":" ","HOUSE_NO":"１號","E_COORD97":165981.10000000001,"N_COORD97":2561369.4500000002,"ADDRESS":"安南路２８巷１號","OBJECTID":249712},"geometry":{"x":165981.09999999963,"y":2561369.4500000011}},{"attributes":{"ID":249717,"DIS_CODE":0,"TOWNNAME":"佳里區","LI":"鎮山里","LIN":"14鄰","STREET":"安南路","SECT":" ","MAREA":" ","LANE":"２８巷","ALLEY":" ","HOUSE_NO":"２０號","E_COORD97":165969.72,"N_COORD97":2561386.2799999998,"ADDRESS":"安南路２８巷２０號","OBJECTID":249713},"geometry":{"x":165969.71999999974,"y":2561386.2799999993}},{"attributes":{"ID":249718,"DIS_CODE":0,"TOWNNAME":"佳里區","LI":"鎮山里","LIN":"14鄰","STREET":"安南路","SECT":" ","MAREA":" ","LANE":"２８巷","ALLEY":" ","HOUSE_NO":"２２號","E_COORD97":165965.98999999999,"N_COORD97":2561386.2799999998,"ADDRESS":"安南路２８巷２２號","OBJECTID":249714},"geometry":{"x":165965.99000000115,"y":2561386.2799999993}},{"attributes":{"ID":249719,"DIS_CODE":0,"TOWNNAME":"佳里區","LI":"鎮山里","LIN":"14鄰","STREET":"安南路","SECT":" ","MAREA":" ","LANE":"２８巷","ALLEY":" ","HOUSE_NO":"２４號","E_COORD97":165962.26000000001,"N_COORD97":2561386.2799999998,"ADDRESS":"安南路２８巷２４號","OBJECTID":249715},"geometry":{"x":165962.26000000071,"y":2561386.2799999993}},{"attributes":{"ID":249720,"DIS_CODE":0,"TOWNNAME":"佳里區","LI":"忠仁里","LIN":"14鄰","STREET":"信義一街","SECT":" ","MAREA":" ","LANE":" ","ALLEY":" ","HOUSE_NO":"２５３號","E_COORD97":166166.76000000001,"N_COORD97":2562176.0899999999,"ADDRESS":"信義一街２５３號","OBJECTID":249716},"geometry":{"x":166166.75999999978,"y":2562176.0900000017}},{"attributes":{"ID":249721,"DIS_CODE":0,"TOWNNAME":"佳里區","LI":"忠仁里","LIN":"14鄰","STREET":"信義一街","SECT":" ","MAREA":" ","LANE":" ","ALLEY":" ","HOUSE_NO":"２５５號","E_COORD97":166167.57999999999,"N_COORD97":2562180.8399999999,"ADDRESS":"信義一街２５５號","OBJECTID":249717},"geometry":{"x":166167.58000000101,"y":2562180.8400000036}},{"attributes":{"ID":249722,"DIS_CODE":0,"TOWNNAME":"佳里區","LI":"忠仁里","LIN":"14鄰","STREET":"信義一街","SECT":" ","MAREA":" ","LANE":" ","ALLEY":" ","HOUSE_NO":"２５７號","E_COORD97":166168.34,"N_COORD97":2562185.5600000001,"ADDRESS":"信義一街２５７號","OBJECTID":249718},"geometry":{"x":166168.34000000078,"y":2562185.5600000005}},{"attributes":{"ID":249723,"DIS_CODE":0,"TOWNNAME":"佳里區","LI":"忠仁里","LIN":"14鄰","STREET":"信義一街","SECT":" ","MAREA":" ","LANE":" ","ALLEY":" ","HOUSE_NO":"２５８號","E_COORD97":166187.94,"N_COORD97":2561986.5600000001,"ADDRESS":"信義一街２５８號","OBJECTID":249719},"geometry":{"x":166187.94000000041,"y":2561986.5600000042}},{"attributes":{"ID":249724,"DIS_CODE":0,"TOWNNAME":"佳里區","LI":"忠仁里","LIN":"14鄰","STREET":"信義一街","SECT":" ","MAREA":" ","LANE":" ","ALLEY":" ","HOUSE_NO":"２５９號","E_COORD97":166169.25,"N_COORD97":2562190.1099999999,"ADDRESS":"信義一街２５９號","OBJECTID":249720},"geometry":{"x":166169.25000000093,"y":2562190.1100000013}},{"attributes":{"ID":249725,"DIS_CODE":0,"TOWNNAME":"佳里區","LI":"忠仁里","LIN":"14鄰","STREET":"信義一街","SECT":" ","MAREA":" ","LANE":" ","ALLEY":" ","HOUSE_NO":"２６０號","E_COORD97":166187.62,"N_COORD97":2561990.7200000002,"ADDRESS":"信義一街２６０號","OBJECTID":249721},"geometry":{"x":166187.62000000104,"y":2561990.7200000025}},{"attributes":{"ID":249726,"DIS_CODE":0,"TOWNNAME":"佳里區","LI":"忠仁里","LIN":"14鄰","STREET":"信義一街","SECT":" ","MAREA":" ","LANE":" ","ALLEY":" ","HOUSE_NO":"２６１號","E_COORD97":166170.26000000001,"N_COORD97":2562194.75,"ADDRESS":"信義一街２６１號","OBJECTID":249722},"geometry":{"x":166170.26000000164,"y":2562194.7499999981}},{"attributes":{"ID":249727,"DIS_CODE":0,"TOWNNAME":"官田區","LI":"湖山里","LIN":"9鄰","STREET":" ","SECT":" ","MAREA":"烏山頭","LANE":" ","ALLEY":" ","HOUSE_NO":"４５號","E_COORD97":183392.79000000001,"N_COORD97":2567641.2000000002,"ADDRESS":"烏山頭４５號","OBJECTID":249723},"geometry":{"x":183392.79000000004,"y":2567641.1999999993}},{"attributes":{"ID":249728,"DIS_CODE":0,"TOWNNAME":"安南區","LI":"安慶里","LIN":"11鄰","STREET":"長溪路","SECT":"一段","MAREA":" ","LANE":"１６８巷","ALLEY":" ","HOUSE_NO":"１３號","E_COORD97":169030.66,"N_COORD97":2548596.9100000001,"ADDRESS":"長溪路一段１６８巷１３號","OBJECTID":249724},"geometry":{"x":169030.66000000015,"y":2548596.910000002}},{"attributes":{"ID":249729,"DIS_CODE":0,"TOWNNAME":"永康區","LI":"復華里","LIN":"3鄰","STREET":"復國二路","SECT":" ","MAREA":" ","LANE":"３４０巷","ALLEY":" ","HOUSE_NO":"１０號","E_COORD97":173057,"N_COORD97":2546151.0600000001,"ADDRESS":"復國二路３４０巷１０號","OBJECTID":249725},"geometry":{"x":173057.00000000093,"y":2546151.0600000024}},{"attributes":{"ID":249730,"DIS_CODE":0,"TOWNNAME":"永康區","LI":"復華里","LIN":"32鄰","STREET":"國華街","SECT":" ","MAREA":" ","LANE":"１２５巷","ALLEY":" ","HOUSE_NO":"２號","E_COORD97":172572.51000000001,"N_COORD97":2546296.4900000002,"ADDRESS":"國華街１２５巷２號","OBJECTID":249726},"geometry":{"x":172572.50999999978,"y":2546296.4900000021}},{"attributes":{"ID":249731,"DIS_CODE":0,"TOWNNAME":"永康區","LI":"復國里","LIN":"32鄰","STREET":"復華一街","SECT":" ","MAREA":" ","LANE":"１９巷","ALLEY":" ","HOUSE_NO":"５號","E_COORD97":172649.56,"N_COORD97":2545045.77,"ADDRESS":"復華一街１９巷５號","OBJECTID":249727},"geometry":{"x":172649.56000000052,"y":2545045.7700000033}},{"attributes":{"ID":249732,"DIS_CODE":0,"TOWNNAME":"永康區","LI":"復國里","LIN":"32鄰","STREET":"復華一街","SECT":" ","MAREA":" ","LANE":"１９巷","ALLEY":" ","HOUSE_NO":"２５號","E_COORD97":172652.14999999999,"N_COORD97":2544979.5299999998,"ADDRESS":"復華一街１９巷２５號","OBJECTID":249728},"geometry":{"x":172652.15000000037,"y":2544979.5300000031}},{"attributes":{"ID":249733,"DIS_CODE":0,"TOWNNAME":"永康區","LI":"復國里","LIN":"13鄰","STREET":"復華三街","SECT":" ","MAREA":" ","LANE":"１３巷","ALLEY":" ","HOUSE_NO":"９號","E_COORD97":172908.12,"N_COORD97":2545492.2799999998,"ADDRESS":"復華三街１３巷９號","OBJECTID":249729},"geometry":{"x":172908.12000000011,"y":2545492.2799999993}},{"attributes":{"ID":249734,"DIS_CODE":0,"TOWNNAME":"佳里區","LI":"鎮山里","LIN":"14鄰","STREET":"安南路","SECT":" ","MAREA":" ","LANE":"２８巷","ALLEY":" ","HOUSE_NO":"２６號","E_COORD97":165957.94,"N_COORD97":2561386.3599999999,"ADDRESS":"安南路２８巷２６號","OBJECTID":249730},"geometry":{"x":165957.94000000227,"y":2561386.3599999994}},{"attributes":{"ID":249735,"DIS_CODE":0,"TOWNNAME":"佳里區","LI":"鎮山里","LIN":"14鄰","STREET":"安南路","SECT":" ","MAREA":" ","LANE":"２８巷","ALLEY":" ","HOUSE_NO":"２號","E_COORD97":165999.42999999999,"N_COORD97":2561371.02,"ADDRESS":"安南路２８巷２號","OBJECTID":249731},"geometry":{"x":165999.42999999877,"y":2561371.0199999996}},{"attributes":{"ID":249736,"DIS_CODE":0,"TOWNNAME":"佳里區","LI":"鎮山里","LIN":"14鄰","STREET":"安南路","SECT":" ","MAREA":" ","LANE":"２８巷","ALLEY":" ","HOUSE_NO":"３號","E_COORD97":165977.07999999999,"N_COORD97":2561369.4500000002,"ADDRESS":"安南路２８巷３號","OBJECTID":249732},"geometry":{"x":165977.08000000101,"y":2561369.4500000011}},{"attributes":{"ID":249737,"DIS_CODE":0,"TOWNNAME":"佳里區","LI":"鎮山里","LIN":"14鄰","STREET":"安南路","SECT":" ","MAREA":" ","LANE":"２８巷","ALLEY":" ","HOUSE_NO":"５號","E_COORD97":165973.06,"N_COORD97":2561369.4500000002,"ADDRESS":"安南路２８巷５號","OBJECTID":249733},"geometry":{"x":165973.06000000145,"y":2561369.4500000011}},{"attributes":{"ID":249738,"DIS_CODE":0,"TOWNNAME":"佳里區","LI":"鎮山里","LIN":"14鄰","STREET":"安南路","SECT":" ","MAREA":" ","LANE":"２８巷","ALLEY":" ","HOUSE_NO":"６號","E_COORD97":165996.59,"N_COORD97":2561373.5099999998,"ADDRESS":"安南路２８巷６號","OBJECTID":249734},"geometry":{"x":165996.58999999985,"y":2561373.5100000016}},{"attributes":{"ID":249739,"DIS_CODE":0,"TOWNNAME":"佳里區","LI":"鎮山里","LIN":"14鄰","STREET":"安南路","SECT":" ","MAREA":" ","LANE":"２８巷","ALLEY":" ","HOUSE_NO":"７號","E_COORD97":165969.03,"N_COORD97":2561369.4500000002,"ADDRESS":"安南路２８巷７號","OBJECTID":249735},"geometry":{"x":165969.03000000212,"y":2561369.4500000011}},{"attributes":{"ID":249740,"DIS_CODE":0,"TOWNNAME":"佳里區","LI":"鎮山里","LIN":"14鄰","STREET":"安南路","SECT":" ","MAREA":" ","LANE":"２８巷","ALLEY":" ","HOUSE_NO":"８號","E_COORD97":165993.28,"N_COORD97":2561375.8700000001,"ADDRESS":"安南路２８巷８號","OBJECTID":249736},"geometry":{"x":165993.28000000119,"y":2561375.8700000029}},{"attributes":{"ID":249741,"DIS_CODE":0,"TOWNNAME":"佳里區","LI":"鎮山里","LIN":"14鄰","STREET":"安南路","SECT":" ","MAREA":" ","LANE":"２８巷","ALLEY":" ","HOUSE_NO":"９號","E_COORD97":165965.01000000001,"N_COORD97":2561369.4500000002,"ADDRESS":"安南路２８巷９號","OBJECTID":249737},"geometry":{"x":165965.00999999978,"y":2561369.4500000011}},{"attributes":{"ID":249742,"DIS_CODE":0,"TOWNNAME":"佳里區","LI":"鎮山里","LIN":"14鄰","STREET":"安南路","SECT":" ","MAREA":" ","LANE":"２巷","ALLEY":" ","HOUSE_NO":"１０號","E_COORD97":165986.32999999999,"N_COORD97":2561410.79,"ADDRESS":"安南路２巷１０號","OBJECTID":249738},"geometry":{"x":165986.33000000007,"y":2561410.7900000028}},{"attributes":{"ID":249743,"DIS_CODE":0,"TOWNNAME":"佳里區","LI":"鎮山里","LIN":"14鄰","STREET":"安南路","SECT":" ","MAREA":" ","LANE":"２巷","ALLEY":" ","HOUSE_NO":"１１號","E_COORD97":165982.57999999999,"N_COORD97":2561411.8799999999,"ADDRESS":"安南路２巷１１號","OBJECTID":249739},"geometry":{"x":165982.58000000101,"y":2561411.879999999}},{"attributes":{"ID":249744,"DIS_CODE":0,"TOWNNAME":"佳里區","LI":"鎮山里","LIN":"14鄰","STREET":"安南路","SECT":" ","MAREA":" ","LANE":"２巷","ALLEY":" ","HOUSE_NO":"１２號","E_COORD97":165979.07999999999,"N_COORD97":2561413.5299999998,"ADDRESS":"安南路２巷１２號","OBJECTID":249740},"geometry":{"x":165979.08000000101,"y":2561413.5300000012}},{"attributes":{"ID":249745,"DIS_CODE":0,"TOWNNAME":"佳里區","LI":"鎮山里","LIN":"14鄰","STREET":"安南路","SECT":" ","MAREA":" ","LANE":"２巷","ALLEY":" ","HOUSE_NO":"１３號","E_COORD97":165975.45999999999,"N_COORD97":2561414.8999999999,"ADDRESS":"安南路２巷１３號","OBJECTID":249741},"geometry":{"x":165975.45999999996,"y":2561414.9000000022}},{"attributes":{"ID":249746,"DIS_CODE":0,"TOWNNAME":"佳里區","LI":"鎮山里","LIN":"14鄰","STREET":"安南路","SECT":" ","MAREA":" ","LANE":"２巷","ALLEY":" ","HOUSE_NO":"１４號","E_COORD97":165971.82999999999,"N_COORD97":2561416.27,"ADDRESS":"安南路２巷１４號","OBJECTID":249742},"geometry":{"x":165971.83000000194,"y":2561416.2700000014}},{"attributes":{"ID":249747,"DIS_CODE":0,"TOWNNAME":"佳里區","LI":"鎮山里","LIN":"14鄰","STREET":"安南路","SECT":" ","MAREA":" ","LANE":"２巷","ALLEY":" ","HOUSE_NO":"１５號","E_COORD97":165968.20999999999,"N_COORD97":2561417.6499999999,"ADDRESS":"安南路２巷１５號","OBJECTID":249743},"geometry":{"x":165968.21000000089,"y":2561417.6500000022}},{"attributes":{"ID":249748,"DIS_CODE":0,"TOWNNAME":"佳里區","LI":"鎮山里","LIN":"14鄰","STREET":"安南路","SECT":" ","MAREA":" ","LANE":"５２巷","ALLEY":" ","HOUSE_NO":"１１號","E_COORD97":165944.39999999999,"N_COORD97":2561389.6499999999,"ADDRESS":"安南路５２巷１１號","OBJECTID":249744},"geometry":{"x":165944.39999999944,"y":2561389.6500000022}},{"attributes":{"ID":249749,"DIS_CODE":0,"TOWNNAME":"佳里區","LI":"鎮山里","LIN":"14鄰","STREET":"安南路","SECT":" ","MAREA":" ","LANE":"５２巷","ALLEY":" ","HOUSE_NO":"１３號","E_COORD97":165944.17000000001,"N_COORD97":2561393.9700000002,"ADDRESS":"安南路５２巷１３號","OBJECTID":249745},"geometry":{"x":165944.17000000086,"y":2561393.9700000044}},{"attributes":{"ID":249750,"DIS_CODE":0,"TOWNNAME":"佳里區","LI":"鎮山里","LIN":"14鄰","STREET":"安南路","SECT":" ","MAREA":" ","LANE":"５２巷","ALLEY":" ","HOUSE_NO":"１５號","E_COORD97":165943.95000000001,"N_COORD97":2561397.6800000002,"ADDRESS":"安南路５２巷１５號","OBJECTID":249746},"geometry":{"x":165943.95000000205,"y":2561397.6799999997}},{"attributes":{"ID":249751,"DIS_CODE":0,"TOWNNAME":"佳里區","LI":"鎮山里","LIN":"14鄰","STREET":"安南路","SECT":" ","MAREA":" ","LANE":"５２巷","ALLEY":" ","HOUSE_NO":"１７號","E_COORD97":165943.70000000001,"N_COORD97":2561401.96,"ADDRESS":"安南路５２巷１７號","OBJECTID":249747},"geometry":{"x":165943.70000000019,"y":2561401.9600000028}},{"attributes":{"ID":249752,"DIS_CODE":0,"TOWNNAME":"佳里區","LI":"忠仁里","LIN":"14鄰","STREET":"信義一街","SECT":" ","MAREA":" ","LANE":" ","ALLEY":" ","HOUSE_NO":"２６２號","E_COORD97":166187.39999999999,"N_COORD97":2561994.9500000002,"ADDRESS":"信義一街２６２號","OBJECTID":249748},"geometry":{"x":166187.4000000013,"y":2561994.9499999993}},{"attributes":{"ID":249753,"DIS_CODE":0,"TOWNNAME":"佳里區","LI":"忠仁里","LIN":"14鄰","STREET":"信義一街","SECT":" ","MAREA":" ","LANE":" ","ALLEY":" ","HOUSE_NO":"２６３號","E_COORD97":166171.01999999999,"N_COORD97":2562199.1499999999,"ADDRESS":"信義一街２６３號","OBJECTID":249749},"geometry":{"x":166171.01999999955,"y":2562199.1500000004}},{"attributes":{"ID":249754,"DIS_CODE":0,"TOWNNAME":"佳里區","LI":"忠仁里","LIN":"14鄰","STREET":"信義一街","SECT":" ","MAREA":" ","LANE":" ","ALLEY":" ","HOUSE_NO":"２６５號","E_COORD97":166172.01000000001,"N_COORD97":2562203.0800000001,"ADDRESS":"信義一街２６５號","OBJECTID":249750},"geometry":{"x":166172.01000000164,"y":2562203.0800000038}},{"attributes":{"ID":249755,"DIS_CODE":0,"TOWNNAME":"佳里區","LI":"忠仁里","LIN":"14鄰","STREET":"信義一街","SECT":" ","MAREA":" ","LANE":" ","ALLEY":" ","HOUSE_NO":"２６６號","E_COORD97":166187.16,"N_COORD97":2561999.1000000001,"ADDRESS":"信義一街２６６號","OBJECTID":249751},"geometry":{"x":166187.16000000108,"y":2561999.1000000034}},{"attributes":{"ID":249756,"DIS_CODE":0,"TOWNNAME":"佳里區","LI":"忠仁里","LIN":"14鄰","STREET":"信義一街","SECT":" ","MAREA":" ","LANE":" ","ALLEY":" ","HOUSE_NO":"２６７號","E_COORD97":166172.67999999999,"N_COORD97":2562208.1899999999,"ADDRESS":"信義一街２６７號","OBJECTID":249752},"geometry":{"x":166172.68000000063,"y":2562208.1899999976}},{"attributes":{"ID":249757,"DIS_CODE":0,"TOWNNAME":"佳里區","LI":"忠仁里","LIN":"14鄰","STREET":"信義一街","SECT":" ","MAREA":" ","LANE":" ","ALLEY":" ","HOUSE_NO":"２６８號","E_COORD97":166187.01000000001,"N_COORD97":2562003.1099999999,"ADDRESS":"信義一街２６８號","OBJECTID":249753},"geometry":{"x":166187.00999999978,"y":2562003.1100000013}},{"attributes":{"ID":249758,"DIS_CODE":0,"TOWNNAME":"新市區","LI":"港墘里","LIN":"11鄰","STREET":" ","SECT":" ","MAREA":"崙頂","LANE":" ","ALLEY":" ","HOUSE_NO":"２９號之１","E_COORD97":178857.98000000001,"N_COORD97":2552555.7999999998,"ADDRESS":"崙頂２９號之１","OBJECTID":249754},"geometry":{"x":178857.98000000231,"y":2552555.8000000007}},{"attributes":{"ID":249759,"DIS_CODE":0,"TOWNNAME":"新市區","LI":"港墘里","LIN":"11鄰","STREET":" ","SECT":" ","MAREA":"崙頂","LANE":" ","ALLEY":" ","HOUSE_NO":"２９之９號","E_COORD97":178838.84,"N_COORD97":2552566.2999999998,"ADDRESS":"崙頂２９之９號","OBJECTID":249755},"geometry":{"x":178838.83999999985,"y":2552566.3000000007}},{"attributes":{"ID":249760,"DIS_CODE":0,"TOWNNAME":"新市區","LI":"豐華里","LIN":"11鄰","STREET":" ","SECT":" ","MAREA":"豐華","LANE":" ","ALLEY":" ","HOUSE_NO":"４７之９９號","E_COORD97":174226.45999999999,"N_COORD97":2554513.0499999998,"ADDRESS":"豐華４７之９９號","OBJECTID":249756},"geometry":{"x":174226.46000000183,"y":2554513.0500000007}},{"attributes":{"ID":249761,"DIS_CODE":0,"TOWNNAME":"新市區","LI":"港墘里","LIN":"11鄰","STREET":" ","SECT":" ","MAREA":"崙頂","LANE":" ","ALLEY":" ","HOUSE_NO":"３６之１號","E_COORD97":178781.34,"N_COORD97":2552596.2999999998,"ADDRESS":"崙頂３６之１號","OBJECTID":249757},"geometry":{"x":178781.33999999985,"y":2552596.3000000007}},{"attributes":{"ID":249762,"DIS_CODE":0,"TOWNNAME":"新市區","LI":"社內里","LIN":"11鄰","STREET":" ","SECT":" ","MAREA":"社內","LANE":" ","ALLEY":" ","HOUSE_NO":"１１５號","E_COORD97":176482.48000000001,"N_COORD97":2552792.25,"ADDRESS":"社內１１５號","OBJECTID":249758},"geometry":{"x":176482.48000000045,"y":2552792.25}},{"attributes":{"ID":249763,"DIS_CODE":0,"TOWNNAME":"新市區","LI":"港墘里","LIN":"11鄰","STREET":" ","SECT":" ","MAREA":"崙頂","LANE":" ","ALLEY":" ","HOUSE_NO":"４３號","E_COORD97":178748.62,"N_COORD97":2552601.25,"ADDRESS":"崙頂４３號","OBJECTID":249759},"geometry":{"x":178748.62000000104,"y":2552601.2500000019}},{"attributes":{"ID":249764,"DIS_CODE":0,"TOWNNAME":"新市區","LI":"社內里","LIN":"11鄰","STREET":" ","SECT":" ","MAREA":"社內","LANE":" ","ALLEY":" ","HOUSE_NO":"１１１號","E_COORD97":176445.75,"N_COORD97":2552762.25,"ADDRESS":"社內１１１號","OBJECTID":249760},"geometry":{"x":176445.75000000093,"y":2552762.25}},{"attributes":{"ID":249765,"DIS_CODE":0,"TOWNNAME":"新市區","LI":"社內里","LIN":"11鄰","STREET":" ","SECT":" ","MAREA":"社內","LANE":" ","ALLEY":" ","HOUSE_NO":"１１８號","E_COORD97":176512.09,"N_COORD97":2552725.25,"ADDRESS":"社內１１８號","OBJECTID":249761},"geometry":{"x":176512.08999999892,"y":2552725.25}},{"attributes":{"ID":249766,"DIS_CODE":0,"TOWNNAME":"新市區","LI":"港墘里","LIN":"11鄰","STREET":" ","SECT":" ","MAREA":"崙頂","LANE":" ","ALLEY":" ","HOUSE_NO":"２９之１５號","E_COORD97":178823.98000000001,"N_COORD97":2552567.2999999998,"ADDRESS":"崙頂２９之１５號","OBJECTID":249762},"geometry":{"x":178823.97999999952,"y":2552567.3000000026}},{"attributes":{"ID":249767,"DIS_CODE":0,"TOWNNAME":"新市區","LI":"港墘里","LIN":"11鄰","STREET":" ","SECT":" ","MAREA":"崙頂","LANE":" ","ALLEY":" ","HOUSE_NO":"３２之１號","E_COORD97":178852.54000000001,"N_COORD97":2552616.5499999998,"ADDRESS":"崙頂３２之１號","OBJECTID":249763},"geometry":{"x":178852.54000000097,"y":2552616.5500000026}},{"attributes":{"ID":249768,"DIS_CODE":0,"TOWNNAME":"新市區","LI":"港墘里","LIN":"11鄰","STREET":" ","SECT":" ","MAREA":"崙頂","LANE":" ","ALLEY":" ","HOUSE_NO":"４６之１號","E_COORD97":178742.26000000001,"N_COORD97":2552646.2999999998,"ADDRESS":"崙頂４６之１號","OBJECTID":249764},"geometry":{"x":178742.26000000071,"y":2552646.3000000026}},{"attributes":{"ID":249769,"DIS_CODE":0,"TOWNNAME":"安南區","LI":"安慶里","LIN":"11鄰","STREET":"長溪路","SECT":"一段","MAREA":" ","LANE":"１６８巷","ALLEY":" ","HOUSE_NO":"６３號","E_COORD97":169049.75,"N_COORD97":2548708.1899999999,"ADDRESS":"長溪路一段１６８巷６３號","OBJECTID":249765},"geometry":{"x":169049.75000000093,"y":2548708.1900000013}},{"attributes":{"ID":249770,"DIS_CODE":0,"TOWNNAME":"永康區","LI":"復華里","LIN":"4鄰","STREET":"復國二路","SECT":" ","MAREA":" ","LANE":"２４３巷","ALLEY":" ","HOUSE_NO":"２４號","E_COORD97":172952.07999999999,"N_COORD97":2546138.8199999998,"ADDRESS":"復國二路２４３巷２４號","OBJECTID":249766},"geometry":{"x":172952.08000000007,"y":2546138.8200000022}},{"attributes":{"ID":249771,"DIS_CODE":0,"TOWNNAME":"永康區","LI":"復國里","LIN":"2鄰","STREET":"復國一路","SECT":" ","MAREA":" ","LANE":"２８巷","ALLEY":" ","HOUSE_NO":"５號","E_COORD97":172750.06,"N_COORD97":2544768.8700000001,"ADDRESS":"復國一路２８巷５號","OBJECTID":249767},"geometry":{"x":172750.05999999959,"y":2544768.8700000048}},{"attributes":{"ID":249772,"DIS_CODE":0,"TOWNNAME":"佳里區","LI":"鎮山里","LIN":"14鄰","STREET":"安南路","SECT":" ","MAREA":" ","LANE":"５２巷","ALLEY":" ","HOUSE_NO":"１９號","E_COORD97":165943.51999999999,"N_COORD97":2561406.0699999998,"ADDRESS":"安南路５２巷１９號","OBJECTID":249768},"geometry":{"x":165943.52000000048,"y":2561406.0700000003}},{"attributes":{"ID":249773,"DIS_CODE":0,"TOWNNAME":"佳里區","LI":"鎮山里","LIN":"14鄰","STREET":"安南路","SECT":" ","MAREA":" ","LANE":"５２巷","ALLEY":" ","HOUSE_NO":"１號","E_COORD97":165944.29000000001,"N_COORD97":2561364.1299999999,"ADDRESS":"安南路５２巷１號","OBJECTID":249769},"geometry":{"x":165944.29000000004,"y":2561364.1300000027}},{"attributes":{"ID":249774,"DIS_CODE":0,"TOWNNAME":"佳里區","LI":"鎮山里","LIN":"14鄰","STREET":"安南路","SECT":" ","MAREA":" ","LANE":"５２巷","ALLEY":" ","HOUSE_NO":"２１號","E_COORD97":165943.41,"N_COORD97":2561409.9399999999,"ADDRESS":"安南路５２巷２１號","OBJECTID":249770},"geometry":{"x":165943.41000000015,"y":2561409.9400000032}},{"attributes":{"ID":249775,"DIS_CODE":0,"TOWNNAME":"佳里區","LI":"鎮山里","LIN":"14鄰","STREET":"安南路","SECT":" ","MAREA":" ","LANE":"５２巷","ALLEY":" ","HOUSE_NO":"２號","E_COORD97":165958.92999999999,"N_COORD97":2561401.3599999999,"ADDRESS":"安南路５２巷２號","OBJECTID":249771},"geometry":{"x":165958.93000000156,"y":2561401.3600000013}},{"attributes":{"ID":249776,"DIS_CODE":0,"TOWNNAME":"佳里區","LI":"忠仁里","LIN":"14鄰","STREET":"信義一街","SECT":" ","MAREA":" ","LANE":" ","ALLEY":" ","HOUSE_NO":"２６９號","E_COORD97":166173.70999999999,"N_COORD97":2562212.7799999998,"ADDRESS":"信義一街２６９號","OBJECTID":249772},"geometry":{"x":166173.70999999996,"y":2562212.7799999993}},{"attributes":{"ID":249777,"DIS_CODE":0,"TOWNNAME":"佳里區","LI":"忠仁里","LIN":"14鄰","STREET":"信義一街","SECT":" ","MAREA":" ","LANE":" ","ALLEY":" ","HOUSE_NO":"２７０號","E_COORD97":166186.51999999999,"N_COORD97":2562007.2000000002,"ADDRESS":"信義一街２７０號","OBJECTID":249773},"geometry":{"x":166186.51999999955,"y":2562007.1999999993}},{"attributes":{"ID":249778,"DIS_CODE":0,"TOWNNAME":"佳里區","LI":"忠仁里","LIN":"14鄰","STREET":"信義一街","SECT":" ","MAREA":" ","LANE":" ","ALLEY":" ","HOUSE_NO":"２７８號","E_COORD97":166185.26000000001,"N_COORD97":2562019.9100000001,"ADDRESS":"信義一街２７８號","OBJECTID":249774},"geometry":{"x":166185.25999999978,"y":2562019.9100000001}},{"attributes":{"ID":249779,"DIS_CODE":0,"TOWNNAME":"佳里區","LI":"忠仁里","LIN":"14鄰","STREET":"信義一街","SECT":" ","MAREA":" ","LANE":" ","ALLEY":" ","HOUSE_NO":"２８０號","E_COORD97":166185.06,"N_COORD97":2562025.2599999998,"ADDRESS":"信義一街２８０號","OBJECTID":249775},"geometry":{"x":166185.06000000145,"y":2562025.2600000035}},{"attributes":{"ID":249780,"DIS_CODE":0,"TOWNNAME":"新市區","LI":"港墘里","LIN":"11鄰","STREET":" ","SECT":" ","MAREA":"崙頂","LANE":" ","ALLEY":" ","HOUSE_NO":"４７號","E_COORD97":178779.92999999999,"N_COORD97":2552626.5,"ADDRESS":"崙頂４７號","OBJECTID":249776},"geometry":{"x":178779.93000000063,"y":2552626.5000000019}},{"attributes":{"ID":249781,"DIS_CODE":0,"TOWNNAME":"永康區","LI":"復華里","LIN":"32鄰","STREET":"國華街","SECT":" ","MAREA":" ","LANE":"１２５巷","ALLEY":" ","HOUSE_NO":"６號","E_COORD97":172569.64999999999,"N_COORD97":2546291.9900000002,"ADDRESS":"國華街１２５巷６號","OBJECTID":249777},"geometry":{"x":172569.6500000013,"y":2546291.9900000002}},{"attributes":{"ID":249782,"DIS_CODE":0,"TOWNNAME":"新市區","LI":"社內里","LIN":"11鄰","STREET":" ","SECT":" ","MAREA":"社內","LANE":" ","ALLEY":" ","HOUSE_NO":"１１６號","E_COORD97":176472.09,"N_COORD97":2552750,"ADDRESS":"社內１１６號","OBJECTID":249778},"geometry":{"x":176472.09000000078,"y":2552750}},{"attributes":{"ID":249783,"DIS_CODE":0,"TOWNNAME":"永康區","LI":"復華里","LIN":"13鄰","STREET":"國華街","SECT":" ","MAREA":" ","LANE":"９６巷","ALLEY":" ","HOUSE_NO":"８號","E_COORD97":172868.39999999999,"N_COORD97":2545919.75,"ADDRESS":"國華街９６巷８號","OBJECTID":249779},"geometry":{"x":172868.4000000013,"y":2545919.75}},{"attributes":{"ID":249784,"DIS_CODE":0,"TOWNNAME":"永康區","LI":"復華里","LIN":"1鄰","STREET":"復國二路","SECT":" ","MAREA":" ","LANE":"２４４巷","ALLEY":" ","HOUSE_NO":"２號","E_COORD97":173009.56,"N_COORD97":2545916.5299999998,"ADDRESS":"復國二路２４４巷２號","OBJECTID":249780},"geometry":{"x":173009.55999999959,"y":2545916.5300000012}},{"attributes":{"ID":249785,"DIS_CODE":0,"TOWNNAME":"新市區","LI":"港墘里","LIN":"11鄰","STREET":" ","SECT":" ","MAREA":"崙頂","LANE":" ","ALLEY":" ","HOUSE_NO":"３１號","E_COORD97":178871.37,"N_COORD97":2552611.25,"ADDRESS":"崙頂３１號","OBJECTID":249781},"geometry":{"x":178871.37000000011,"y":2552611.2500000019}},{"attributes":{"ID":249786,"DIS_CODE":0,"TOWNNAME":"新市區","LI":"港墘里","LIN":"11鄰","STREET":" ","SECT":" ","MAREA":"崙頂","LANE":" ","ALLEY":" ","HOUSE_NO":"２９之１２號","E_COORD97":178826.64999999999,"N_COORD97":2552580.2999999998,"ADDRESS":"崙頂２９之１２號","OBJECTID":249782},"geometry":{"x":178826.6500000013,"y":2552580.3000000045}},{"attributes":{"ID":249787,"DIS_CODE":0,"TOWNNAME":"新市區","LI":"社內里","LIN":"11鄰","STREET":" ","SECT":" ","MAREA":"社內","LANE":" ","ALLEY":" ","HOUSE_NO":"１２２號","E_COORD97":176533.47,"N_COORD97":2552822.5,"ADDRESS":"社內１２２號","OBJECTID":249783},"geometry":{"x":176533.47000000067,"y":2552822.5000000037}},{"attributes":{"ID":249788,"DIS_CODE":0,"TOWNNAME":"安南區","LI":"長安里","LIN":"14鄰","STREET":"長溪路","SECT":"三段","MAREA":" ","LANE":"３８０巷","ALLEY":" ","HOUSE_NO":"１０６號","E_COORD97":167984.47,"N_COORD97":2552163.5699999998,"ADDRESS":"長溪路三段３８０巷１０６號","OBJECTID":249784},"geometry":{"x":167984.4700000016,"y":2552163.5700000003}},{"attributes":{"ID":249789,"DIS_CODE":0,"TOWNNAME":"新市區","LI":"港墘里","LIN":"11鄰","STREET":" ","SECT":" ","MAREA":"崙頂","LANE":" ","ALLEY":" ","HOUSE_NO":"４２號","E_COORD97":178738.67999999999,"N_COORD97":2552572.25,"ADDRESS":"崙頂４２號","OBJECTID":249785},"geometry":{"x":178738.6799999997,"y":2552572.25}},{"attributes":{"ID":249790,"DIS_CODE":0,"TOWNNAME":"安南區","LI":"海西里","LIN":"14鄰","STREET":"海環街","SECT":" ","MAREA":" ","LANE":"４３７巷","ALLEY":" ","HOUSE_NO":"２６５號","E_COORD97":165333.20999999999,"N_COORD97":2548894.48,"ADDRESS":"海環街４３７巷２６５號","OBJECTID":249786},"geometry":{"x":165333.20999999996,"y":2548894.4800000023}},{"attributes":{"ID":249791,"DIS_CODE":0,"TOWNNAME":"新市區","LI":"社內里","LIN":"11鄰","STREET":" ","SECT":" ","MAREA":"社內","LANE":" ","ALLEY":" ","HOUSE_NO":"１１８之２號","E_COORD97":176550.87,"N_COORD97":2552732.7999999998,"ADDRESS":"社內１１８之２號","OBJECTID":249787},"geometry":{"x":176550.87000000011,"y":2552732.8000000045}},{"attributes":{"ID":249792,"DIS_CODE":0,"TOWNNAME":"新市區","LI":"社內里","LIN":"11鄰","STREET":" ","SECT":" ","MAREA":"社內","LANE":" ","ALLEY":" ","HOUSE_NO":"１１８之７號","E_COORD97":176521.20000000001,"N_COORD97":2552716.7999999998,"ADDRESS":"社內１１８之７號","OBJECTID":249788},"geometry":{"x":176521.20000000019,"y":2552716.8000000026}},{"attributes":{"ID":249793,"DIS_CODE":0,"TOWNNAME":"北區","LI":"元寶里","LIN":"14鄰","STREET":"開元路","SECT":" ","MAREA":" ","LANE":"４８５巷","ALLEY":" ","HOUSE_NO":"２９號七樓之１０","E_COORD97":170480.92000000001,"N_COORD97":2545714.0699999998,"ADDRESS":"開元路４８５巷２９號七樓之１０","OBJECTID":249789},"geometry":{"x":170480.92000000086,"y":2545714.0700000022}},{"attributes":{"ID":249794,"DIS_CODE":0,"TOWNNAME":"北區","LI":"元寶里","LIN":"14鄰","STREET":"開元路","SECT":" ","MAREA":" ","LANE":"４８５巷","ALLEY":" ","HOUSE_NO":"２９號七樓之１２","E_COORD97":170480.92000000001,"N_COORD97":2545714.0699999998,"ADDRESS":"開元路４８５巷２９號七樓之１２","OBJECTID":249790},"geometry":{"x":170480.92000000086,"y":2545714.0700000022}},{"attributes":{"ID":249795,"DIS_CODE":0,"TOWNNAME":"新市區","LI":"港墘里","LIN":"11鄰","STREET":" ","SECT":" ","MAREA":"崙頂","LANE":" ","ALLEY":" ","HOUSE_NO":"３８號","E_COORD97":178775.88,"N_COORD97":2552566.9900000002,"ADDRESS":"崙頂３８號","OBJECTID":249791},"geometry":{"x":178775.87999999989,"y":2552566.9900000002}},{"attributes":{"ID":249796,"DIS_CODE":0,"TOWNNAME":"北區","LI":"元寶里","LIN":"14鄰","STREET":"開元路","SECT":" ","MAREA":" ","LANE":"４８５巷","ALLEY":" ","HOUSE_NO":"２９號七樓之２","E_COORD97":170480.92000000001,"N_COORD97":2545714.0699999998,"ADDRESS":"開元路４８５巷２９號七樓之２","OBJECTID":249792},"geometry":{"x":170480.92000000086,"y":2545714.0700000022}},{"attributes":{"ID":249797,"DIS_CODE":0,"TOWNNAME":"佳里區","LI":"忠仁里","LIN":"14鄰","STREET":"信義一街","SECT":" ","MAREA":" ","LANE":" ","ALLEY":" ","HOUSE_NO":"２８２號","E_COORD97":166183.01000000001,"N_COORD97":2562044.7799999998,"ADDRESS":"信義一街２８２號","OBJECTID":249793},"geometry":{"x":166183.00999999978,"y":2562044.7800000031}},{"attributes":{"ID":249798,"DIS_CODE":0,"TOWNNAME":"佳里區","LI":"忠仁里","LIN":"14鄰","STREET":"信義一街","SECT":" ","MAREA":" ","LANE":" ","ALLEY":" ","HOUSE_NO":"２８６號","E_COORD97":166183.04999999999,"N_COORD97":2562051,"ADDRESS":"信義一街２８６號","OBJECTID":249794},"geometry":{"x":166183.04999999981,"y":2562051.0000000037}},{"attributes":{"ID":249799,"DIS_CODE":0,"TOWNNAME":"佳里區","LI":"忠仁里","LIN":"14鄰","STREET":"信義一街","SECT":" ","MAREA":" ","LANE":" ","ALLEY":" ","HOUSE_NO":"２８８號","E_COORD97":166183.14999999999,"N_COORD97":2562055.3399999999,"ADDRESS":"信義一街２８８號","OBJECTID":249795},"geometry":{"x":166183.15000000037,"y":2562055.3400000036}},{"attributes":{"ID":249800,"DIS_CODE":0,"TOWNNAME":"永康區","LI":"復國里","LIN":"15鄰","STREET":"復華五街","SECT":" ","MAREA":" ","LANE":" ","ALLEY":" ","HOUSE_NO":"２號","E_COORD97":172903.35000000001,"N_COORD97":2545713.5299999998,"ADDRESS":"復華五街２號","OBJECTID":249796},"geometry":{"x":172903.35000000056,"y":2545713.5299999993}},{"attributes":{"ID":249801,"DIS_CODE":0,"TOWNNAME":"七股區","LI":"七股里","LIN":"11鄰","STREET":" ","SECT":" ","MAREA":"七股","LANE":" ","ALLEY":" ","HOUSE_NO":"９６號","E_COORD97":160617.89999999999,"N_COORD97":2559450.79,"ADDRESS":"七股９６號","OBJECTID":249797},"geometry":{"x":160617.90000000037,"y":2559450.7899999972}},{"attributes":{"ID":249802,"DIS_CODE":0,"TOWNNAME":"七股區","LI":"七股里","LIN":"11鄰","STREET":" ","SECT":" ","MAREA":"七股","LANE":" ","ALLEY":" ","HOUSE_NO":"９７號","E_COORD97":160594.35000000001,"N_COORD97":2559426.0800000001,"ADDRESS":"七股９７號","OBJECTID":249798},"geometry":{"x":160594.35000000056,"y":2559426.0799999982}},{"attributes":{"ID":249803,"DIS_CODE":0,"TOWNNAME":"永康區","LI":"勝利里","LIN":"36鄰","STREET":"勝學路","SECT":" ","MAREA":" ","LANE":"６０巷","ALLEY":" ","HOUSE_NO":"８號","E_COORD97":171172.17999999999,"N_COORD97":2544727.75,"ADDRESS":"勝學路６０巷８號","OBJECTID":249799},"geometry":{"x":171172.18000000063,"y":2544727.7500000037}},{"attributes":{"ID":249804,"DIS_CODE":0,"TOWNNAME":"永康區","LI":"勝利里","LIN":"36鄰","STREET":"勝學路","SECT":" ","MAREA":" ","LANE":"５８巷","ALLEY":" ","HOUSE_NO":"９號","E_COORD97":171180.28,"N_COORD97":2544704.5,"ADDRESS":"勝學路５８巷９號","OBJECTID":249800},"geometry":{"x":171180.28000000119,"y":2544704.5}}]}