{"displayFieldName":"TOWNNAME","fieldAliases":{"ID":"ID","DIS_CODE":"DIS_CODE","TOWNNAME":"TOWNNAME","LI":"LI","LIN":"LIN","STREET":"STREET","SECT":"SECT","MAREA":"MAREA","LANE":"LANE","ALLEY":"ALLEY","HOUSE_NO":"HOUSE_NO","E_COORD97":"E_COORD97","N_COORD97":"N_COORD97","ADDRESS":"ADDRESS","OBJECTID":"OBJECTID"},"geometryType":"esriGeometryPoint","spatialReference":{"wkid":102443,"latestWkid":3826},"fields":[{"name":"ID","type":"esriFieldTypeDouble","alias":"ID"},{"name":"DIS_CODE","type":"esriFieldTypeInteger","alias":"DIS_CODE"},{"name":"TOWNNAME","type":"esriFieldTypeString","alias":"TOWNNAME","length":8},{"name":"LI","type":"esriFieldTypeString","alias":"LI","length":8},{"name":"LIN","type":"esriFieldTypeString","alias":"LIN","length":12},{"name":"STREET","type":"esriFieldTypeString","alias":"STREET","length":20},{"name":"SECT","type":"esriFieldTypeString","alias":"SECT","length":8},{"name":"MAREA","type":"esriFieldTypeString","alias":"MAREA","length":12},{"name":"LANE","type":"esriFieldTypeString","alias":"LANE","length":10},{"name":"ALLEY","type":"esriFieldTypeString","alias":"ALLEY","length":10},{"name":"HOUSE_NO","type":"esriFieldTypeString","alias":"HOUSE_NO","length":20},{"name":"E_COORD97","type":"esriFieldTypeDouble","alias":"E_COORD97"},{"name":"N_COORD97","type":"esriFieldTypeDouble","alias":"N_COORD97"},{"name":"ADDRESS","type":"esriFieldTypeString","alias":"ADDRESS","length":50},{"name":"OBJECTID","type":"esriFieldTypeOID","alias":"OBJECTID"}],"features":[{"attributes":{"ID":400025,"DIS_CODE":0,"TOWNNAME":"安南區","LI":"海西里","LIN":"11鄰","STREET":"海中街","SECT":" ","MAREA":" ","LANE":"５１巷","ALLEY":" ","HOUSE_NO":"１３號","E_COORD97":166448.22,"N_COORD97":2548860.1499999999,"ADDRESS":"海中街５１巷１３號","OBJECTID":400001},"geometry":{"x":166448.21999999974,"y":2548860.1500000004}},{"attributes":{"ID":400026,"DIS_CODE":0,"TOWNNAME":"安南區","LI":"海西里","LIN":"11鄰","STREET":"海中街","SECT":" ","MAREA":" ","LANE":"５１巷","ALLEY":" ","HOUSE_NO":"１５號","E_COORD97":166443.42000000001,"N_COORD97":2548857.5600000001,"ADDRESS":"海中街５１巷１５號","OBJECTID":400002},"geometry":{"x":166443.41999999993,"y":2548857.5600000005}},{"attributes":{"ID":400027,"DIS_CODE":0,"TOWNNAME":"安南區","LI":"海西里","LIN":"11鄰","STREET":"海中街","SECT":" ","MAREA":" ","LANE":"５１巷","ALLEY":" ","HOUSE_NO":"１６號","E_COORD97":166414.04999999999,"N_COORD97":2548869.5099999998,"ADDRESS":"海中街５１巷１６號","OBJECTID":400003},"geometry":{"x":166414.04999999888,"y":2548869.5100000016}},{"attributes":{"ID":400028,"DIS_CODE":0,"TOWNNAME":"安南區","LI":"海西里","LIN":"11鄰","STREET":"海中街","SECT":" ","MAREA":" ","LANE":"５１巷","ALLEY":" ","HOUSE_NO":"２２號","E_COORD97":166397.70999999999,"N_COORD97":2548871.7599999998,"ADDRESS":"海中街５１巷２２號","OBJECTID":400004},"geometry":{"x":166397.70999999996,"y":2548871.7600000016}},{"attributes":{"ID":400029,"DIS_CODE":0,"TOWNNAME":"安南區","LI":"海西里","LIN":"11鄰","STREET":"海中街","SECT":" ","MAREA":" ","LANE":"５１巷","ALLEY":" ","HOUSE_NO":"２６號","E_COORD97":166383.62,"N_COORD97":2548869.5099999998,"ADDRESS":"海中街５１巷２６號","OBJECTID":400005},"geometry":{"x":166383.62000000197,"y":2548869.5100000016}},{"attributes":{"ID":400030,"DIS_CODE":0,"TOWNNAME":"安南區","LI":"海西里","LIN":"11鄰","STREET":"海中街","SECT":" ","MAREA":" ","LANE":"７１巷","ALLEY":" ","HOUSE_NO":"１０號","E_COORD97":166402.20999999999,"N_COORD97":2548908.3799999999,"ADDRESS":"海中街７１巷１０號","OBJECTID":400006},"geometry":{"x":166402.21000000089,"y":2548908.379999999}},{"attributes":{"ID":400031,"DIS_CODE":0,"TOWNNAME":"安南區","LI":"海西里","LIN":"11鄰","STREET":"海中街","SECT":" ","MAREA":" ","LANE":"７１巷","ALLEY":" ","HOUSE_NO":"１２號","E_COORD97":166403.89000000001,"N_COORD97":2548905.04,"ADDRESS":"海中街７１巷１２號","OBJECTID":400007},"geometry":{"x":166403.8900000006,"y":2548905.0400000028}},{"attributes":{"ID":400032,"DIS_CODE":0,"TOWNNAME":"安南區","LI":"海西里","LIN":"11鄰","STREET":"海中街","SECT":" ","MAREA":" ","LANE":"７１巷","ALLEY":" ","HOUSE_NO":"１３號","E_COORD97":166433.44,"N_COORD97":2548884.0899999999,"ADDRESS":"海中街７１巷１３號","OBJECTID":400008},"geometry":{"x":166433.44000000041,"y":2548884.0899999999}},{"attributes":{"ID":400033,"DIS_CODE":0,"TOWNNAME":"安南區","LI":"海西里","LIN":"11鄰","STREET":"海中街","SECT":" ","MAREA":" ","LANE":"７１巷","ALLEY":" ","HOUSE_NO":"１４號","E_COORD97":166405.56,"N_COORD97":2548900.8599999999,"ADDRESS":"海中街７１巷１４號","OBJECTID":400009},"geometry":{"x":166405.56000000052,"y":2548900.8600000013}},{"attributes":{"ID":400034,"DIS_CODE":0,"TOWNNAME":"安南區","LI":"海西里","LIN":"11鄰","STREET":"海中街","SECT":" ","MAREA":" ","LANE":"７１巷","ALLEY":" ","HOUSE_NO":"１５號","E_COORD97":166435.63,"N_COORD97":2548879.8999999999,"ADDRESS":"海中街７１巷１５號","OBJECTID":400010},"geometry":{"x":166435.62999999896,"y":2548879.9000000004}},{"attributes":{"ID":400035,"DIS_CODE":0,"TOWNNAME":"安南區","LI":"海西里","LIN":"11鄰","STREET":"海中街","SECT":" ","MAREA":" ","LANE":"７１巷","ALLEY":" ","HOUSE_NO":"１６號","E_COORD97":166408.48999999999,"N_COORD97":2548897.9300000002,"ADDRESS":"海中街７１巷１６號","OBJECTID":400011},"geometry":{"x":166408.49000000115,"y":2548897.9300000016}},{"attributes":{"ID":400036,"DIS_CODE":0,"TOWNNAME":"安南區","LI":"海西里","LIN":"11鄰","STREET":"海中街","SECT":" ","MAREA":" ","LANE":"７１巷","ALLEY":" ","HOUSE_NO":"１７號","E_COORD97":166439.42999999999,"N_COORD97":2548876.9100000001,"ADDRESS":"海中街７１巷１７號","OBJECTID":400012},"geometry":{"x":166439.43000000063,"y":2548876.9100000039}},{"attributes":{"ID":400037,"DIS_CODE":0,"TOWNNAME":"安南區","LI":"海西里","LIN":"11鄰","STREET":"海中街","SECT":" ","MAREA":" ","LANE":"７１巷","ALLEY":" ","HOUSE_NO":"１８號","E_COORD97":166410.59,"N_COORD97":2548894.1600000001,"ADDRESS":"海中街７１巷１８號","OBJECTID":400013},"geometry":{"x":166410.59000000171,"y":2548894.1600000001}},{"attributes":{"ID":400038,"DIS_CODE":0,"TOWNNAME":"安南區","LI":"海西里","LIN":"11鄰","STREET":"海中街","SECT":" ","MAREA":" ","LANE":"７１巷","ALLEY":" ","HOUSE_NO":"２２號","E_COORD97":166414.04999999999,"N_COORD97":2548885.27,"ADDRESS":"海中街７１巷２２號","OBJECTID":400014},"geometry":{"x":166414.04999999888,"y":2548885.2700000014}},{"attributes":{"ID":400039,"DIS_CODE":0,"TOWNNAME":"安南區","LI":"海西里","LIN":"11鄰","STREET":"海中街","SECT":" ","MAREA":" ","LANE":"７１巷","ALLEY":" ","HOUSE_NO":"２４號","E_COORD97":166415.73999999999,"N_COORD97":2548880.48,"ADDRESS":"海中街７１巷２４號","OBJECTID":400015},"geometry":{"x":166415.74000000115,"y":2548880.4800000023}},{"attributes":{"ID":400040,"DIS_CODE":0,"TOWNNAME":"安南區","LI":"海西里","LIN":"11鄰","STREET":"海中街","SECT":" ","MAREA":" ","LANE":"７１巷","ALLEY":" ","HOUSE_NO":"２號","E_COORD97":166391.73999999999,"N_COORD97":2548925.1200000001,"ADDRESS":"海中街７１巷２號","OBJECTID":400016},"geometry":{"x":166391.74000000115,"y":2548925.1200000029}},{"attributes":{"ID":400041,"DIS_CODE":0,"TOWNNAME":"安南區","LI":"海西里","LIN":"11鄰","STREET":"海中街","SECT":" ","MAREA":" ","LANE":"７１巷","ALLEY":" ","HOUSE_NO":"６號","E_COORD97":166398.01999999999,"N_COORD97":2548917.1699999999,"ADDRESS":"海中街７１巷６號","OBJECTID":400017},"geometry":{"x":166398.01999999955,"y":2548917.1699999999}},{"attributes":{"ID":400042,"DIS_CODE":0,"TOWNNAME":"安南區","LI":"海西里","LIN":"11鄰","STREET":"海中街","SECT":" ","MAREA":" ","LANE":"７１巷","ALLEY":" ","HOUSE_NO":"８號","E_COORD97":166401.79000000001,"N_COORD97":2548913.3999999999,"ADDRESS":"海中街７１巷８號","OBJECTID":400018},"geometry":{"x":166401.79000000004,"y":2548913.4000000004}},{"attributes":{"ID":400043,"DIS_CODE":0,"TOWNNAME":"安南區","LI":"海西里","LIN":"11鄰","STREET":"海中街","SECT":" ","MAREA":" ","LANE":"７７巷","ALLEY":" ","HOUSE_NO":"１１號","E_COORD97":166378.32999999999,"N_COORD97":2548912.1499999999,"ADDRESS":"海中街７７巷１１號","OBJECTID":400019},"geometry":{"x":166378.33000000007,"y":2548912.1500000004}},{"attributes":{"ID":400044,"DIS_CODE":0,"TOWNNAME":"安南區","LI":"海西里","LIN":"11鄰","STREET":"海中街","SECT":" ","MAREA":" ","LANE":"７７巷","ALLEY":" ","HOUSE_NO":"１３號","E_COORD97":166374.14999999999,"N_COORD97":2548908.3799999999,"ADDRESS":"海中街７７巷１３號","OBJECTID":400020},"geometry":{"x":166374.1500000013,"y":2548908.379999999}},{"attributes":{"ID":400045,"DIS_CODE":0,"TOWNNAME":"安南區","LI":"海西里","LIN":"11鄰","STREET":"海中街","SECT":" ","MAREA":" ","LANE":"７７巷","ALLEY":" ","HOUSE_NO":"１５號","E_COORD97":166369.54000000001,"N_COORD97":2548905.8799999999,"ADDRESS":"海中街７７巷１５號","OBJECTID":400021},"geometry":{"x":166369.54000000097,"y":2548905.8799999971}},{"attributes":{"ID":400046,"DIS_CODE":0,"TOWNNAME":"安南區","LI":"海西里","LIN":"11鄰","STREET":"海中街","SECT":" ","MAREA":" ","LANE":"７７巷","ALLEY":" ","HOUSE_NO":"１７號","E_COORD97":166366.19,"N_COORD97":2548902.9500000002,"ADDRESS":"海中街７７巷１７號","OBJECTID":400022},"geometry":{"x":166366.19000000041,"y":2548902.9500000011}},{"attributes":{"ID":400047,"DIS_CODE":0,"TOWNNAME":"安南區","LI":"海西里","LIN":"11鄰","STREET":"海中街","SECT":" ","MAREA":" ","LANE":"７７巷","ALLEY":" ","HOUSE_NO":"９號","E_COORD97":166381.69,"N_COORD97":2548916.75,"ADDRESS":"海中街７７巷９號","OBJECTID":400023},"geometry":{"x":166381.69000000227,"y":2548916.75}},{"attributes":{"ID":400048,"DIS_CODE":0,"TOWNNAME":"安南區","LI":"溪心里","LIN":"11鄰","STREET":"海佃路","SECT":"三段","MAREA":" ","LANE":"４８巷","ALLEY":" ","HOUSE_NO":"２７號","E_COORD97":166325.14999999999,"N_COORD97":2549895.9700000002,"ADDRESS":"海佃路三段４８巷２７號","OBJECTID":400024},"geometry":{"x":166325.15000000037,"y":2549895.9700000007}},{"attributes":{"ID":400049,"DIS_CODE":0,"TOWNNAME":"安南區","LI":"溪心里","LIN":"11鄰","STREET":"海佃路","SECT":"三段","MAREA":" ","LANE":"４８巷","ALLEY":" ","HOUSE_NO":"２９號","E_COORD97":166320.79000000001,"N_COORD97":2549895.8199999998,"ADDRESS":"海佃路三段４８巷２９號","OBJECTID":400025},"geometry":{"x":166320.79000000004,"y":2549895.8200000022}},{"attributes":{"ID":400050,"DIS_CODE":0,"TOWNNAME":"安南區","LI":"溪心里","LIN":"11鄰","STREET":"海佃路","SECT":"三段","MAREA":" ","LANE":"４８巷","ALLEY":" ","HOUSE_NO":"３１號","E_COORD97":166316.57999999999,"N_COORD97":2549898.3799999999,"ADDRESS":"海佃路三段４８巷３１號","OBJECTID":400026},"geometry":{"x":166316.58000000101,"y":2549898.379999999}},{"attributes":{"ID":400051,"DIS_CODE":0,"TOWNNAME":"安南區","LI":"佃西里","LIN":"11鄰","STREET":"公學路","SECT":"五段","MAREA":" ","LANE":"１７６巷","ALLEY":" ","HOUSE_NO":"１９號","E_COORD97":164837.92999999999,"N_COORD97":2552091.4399999999,"ADDRESS":"公學路五段１７６巷１９號","OBJECTID":400027},"geometry":{"x":164837.9299999997,"y":2552091.4400000013}},{"attributes":{"ID":400052,"DIS_CODE":0,"TOWNNAME":"安南區","LI":"佃西里","LIN":"11鄰","STREET":"公學路","SECT":"五段","MAREA":" ","LANE":"１７６巷","ALLEY":" ","HOUSE_NO":"２７號","E_COORD97":164859.76999999999,"N_COORD97":2552096.8599999999,"ADDRESS":"公學路五段１７６巷２７號","OBJECTID":400028},"geometry":{"x":164859.77000000048,"y":2552096.8599999975}},{"attributes":{"ID":400053,"DIS_CODE":0,"TOWNNAME":"安南區","LI":"佃西里","LIN":"11鄰","STREET":"公學路","SECT":"五段","MAREA":" ","LANE":"１７６巷","ALLEY":" ","HOUSE_NO":"３１號","E_COORD97":164888.89999999999,"N_COORD97":2552106.6800000002,"ADDRESS":"公學路五段１７６巷３１號","OBJECTID":400029},"geometry":{"x":164888.9000000013,"y":2552106.6800000016}},{"attributes":{"ID":400054,"DIS_CODE":0,"TOWNNAME":"安南區","LI":"佃西里","LIN":"11鄰","STREET":"公學路","SECT":"五段","MAREA":" ","LANE":"１７６巷","ALLEY":" ","HOUSE_NO":"３３號","E_COORD97":164907.85999999999,"N_COORD97":2552111.0899999999,"ADDRESS":"公學路五段１７６巷３３號","OBJECTID":400030},"geometry":{"x":164907.86000000127,"y":2552111.0900000017}},{"attributes":{"ID":400055,"DIS_CODE":0,"TOWNNAME":"安南區","LI":"佃西里","LIN":"11鄰","STREET":"公學路","SECT":"五段","MAREA":" ","LANE":"１７６巷","ALLEY":" ","HOUSE_NO":"３８號","E_COORD97":164927.72,"N_COORD97":2552145.9199999999,"ADDRESS":"公學路五段１７６巷３８號","OBJECTID":400031},"geometry":{"x":164927.71999999974,"y":2552145.9200000018}},{"attributes":{"ID":400056,"DIS_CODE":0,"TOWNNAME":"安南區","LI":"佃西里","LIN":"11鄰","STREET":"公學路","SECT":"五段","MAREA":" ","LANE":"１７６巷","ALLEY":" ","HOUSE_NO":"４６號","E_COORD97":164909.01000000001,"N_COORD97":2552137.3999999999,"ADDRESS":"公學路五段１７６巷４６號","OBJECTID":400032},"geometry":{"x":164909.01000000164,"y":2552137.4000000004}},{"attributes":{"ID":400057,"DIS_CODE":0,"TOWNNAME":"安南區","LI":"海西里","LIN":"11鄰","STREET":"海中街","SECT":" ","MAREA":" ","LANE":"７１巷","ALLEY":" ","HOUSE_NO":"２０號","E_COORD97":166410.95000000001,"N_COORD97":2548889.21,"ADDRESS":"海中街７１巷２０號","OBJECTID":400033},"geometry":{"x":166410.95000000112,"y":2548889.2100000046}},{"attributes":{"ID":400058,"DIS_CODE":0,"TOWNNAME":"安南區","LI":"海西里","LIN":"11鄰","STREET":"海中街","SECT":" ","MAREA":" ","LANE":"７７巷","ALLEY":" ","HOUSE_NO":"２１號","E_COORD97":166362.76999999999,"N_COORD97":2548892.8700000001,"ADDRESS":"海中街７７巷２１號","OBJECTID":400034},"geometry":{"x":166362.76999999955,"y":2548892.8700000029}},{"attributes":{"ID":400059,"DIS_CODE":0,"TOWNNAME":"安南區","LI":"\u25A0南里","LIN":"11鄰","STREET":"安昌街","SECT":" ","MAREA":" ","LANE":"２２２巷","ALLEY":" ","HOUSE_NO":"７８號","E_COORD97":170248.01999999999,"N_COORD97":2552627.04,"ADDRESS":"安昌街２２２巷７８號","OBJECTID":400035},"geometry":{"x":170248.01999999955,"y":2552627.0399999991}},{"attributes":{"ID":400060,"DIS_CODE":0,"TOWNNAME":"安南區","LI":"\u25A0南里","LIN":"11鄰","STREET":"安昌街","SECT":" ","MAREA":" ","LANE":"２２２巷","ALLEY":" ","HOUSE_NO":"８０號","E_COORD97":170251.81,"N_COORD97":2552633.1000000001,"ADDRESS":"安昌街２２２巷８０號","OBJECTID":400036},"geometry":{"x":170251.81000000145,"y":2552633.0999999996}},{"attributes":{"ID":400061,"DIS_CODE":0,"TOWNNAME":"安南區","LI":"\u25A0南里","LIN":"11鄰","STREET":"安昌街","SECT":" ","MAREA":" ","LANE":"２２２巷","ALLEY":" ","HOUSE_NO":"８７號","E_COORD97":170233.45000000001,"N_COORD97":2552660.8999999999,"ADDRESS":"安昌街２２２巷８７號","OBJECTID":400037},"geometry":{"x":170233.45000000112,"y":2552660.9000000022}},{"attributes":{"ID":400062,"DIS_CODE":0,"TOWNNAME":"安南區","LI":"\u25A0南里","LIN":"11鄰","STREET":"安昌街","SECT":" ","MAREA":" ","LANE":"２２２巷","ALLEY":" ","HOUSE_NO":"９０號","E_COORD97":170247.01000000001,"N_COORD97":2552643.2000000002,"ADDRESS":"安昌街２２２巷９０號","OBJECTID":400038},"geometry":{"x":170247.00999999978,"y":2552643.1999999993}},{"attributes":{"ID":400063,"DIS_CODE":0,"TOWNNAME":"安南區","LI":"\u25A0南里","LIN":"11鄰","STREET":"環福街","SECT":" ","MAREA":" ","LANE":"１６１巷","ALLEY":" ","HOUSE_NO":"４２號","E_COORD97":170288.39000000001,"N_COORD97":2552609.3300000001,"ADDRESS":"環福街１６１巷４２號","OBJECTID":400039},"geometry":{"x":170288.38999999966,"y":2552609.3300000001}},{"attributes":{"ID":400064,"DIS_CODE":0,"TOWNNAME":"南區","LI":"郡南里","LIN":"11鄰","STREET":"永成路","SECT":"三段","MAREA":" ","LANE":"１０３巷","ALLEY":" ","HOUSE_NO":"１１號","E_COORD97":167444.13,"N_COORD97":2540638.52,"ADDRESS":"永成路三段１０３巷１１號","OBJECTID":400040},"geometry":{"x":167444.12999999989,"y":2540638.5199999996}},{"attributes":{"ID":400065,"DIS_CODE":0,"TOWNNAME":"南區","LI":"郡南里","LIN":"11鄰","STREET":"永成路","SECT":"三段","MAREA":" ","LANE":"１０３巷","ALLEY":" ","HOUSE_NO":"１２號","E_COORD97":167446.06,"N_COORD97":2540663.4100000001,"ADDRESS":"永成路三段１０３巷１２號","OBJECTID":400041},"geometry":{"x":167446.05999999959,"y":2540663.410000002}},{"attributes":{"ID":400066,"DIS_CODE":0,"TOWNNAME":"南區","LI":"郡南里","LIN":"11鄰","STREET":"永成路","SECT":"三段","MAREA":" ","LANE":"１０３巷","ALLEY":" ","HOUSE_NO":"１３號","E_COORD97":167440.45999999999,"N_COORD97":2540637.6699999999,"ADDRESS":"永成路三段１０３巷１３號","OBJECTID":400042},"geometry":{"x":167440.45999999903,"y":2540637.6700000018}},{"attributes":{"ID":400067,"DIS_CODE":0,"TOWNNAME":"南區","LI":"郡南里","LIN":"11鄰","STREET":"永成路","SECT":"三段","MAREA":" ","LANE":"１０３巷","ALLEY":" ","HOUSE_NO":"１５號","E_COORD97":167435.10999999999,"N_COORD97":2540637.3900000001,"ADDRESS":"永成路三段１０３巷１５號","OBJECTID":400043},"geometry":{"x":167435.11000000127,"y":2540637.3900000006}},{"attributes":{"ID":400068,"DIS_CODE":0,"TOWNNAME":"南區","LI":"郡南里","LIN":"11鄰","STREET":"永成路","SECT":"三段","MAREA":" ","LANE":"１０３巷","ALLEY":" ","HOUSE_NO":"１７號","E_COORD97":167431.72,"N_COORD97":2540639.9199999999,"ADDRESS":"永成路三段１０３巷１７號","OBJECTID":400044},"geometry":{"x":167431.7200000016,"y":2540639.9199999999}},{"attributes":{"ID":400069,"DIS_CODE":0,"TOWNNAME":"南區","LI":"郡南里","LIN":"11鄰","STREET":"永成路","SECT":"三段","MAREA":" ","LANE":"１０３巷","ALLEY":" ","HOUSE_NO":"１９號","E_COORD97":167427.78,"N_COORD97":2540637.3900000001,"ADDRESS":"永成路三段１０３巷１９號","OBJECTID":400045},"geometry":{"x":167427.78000000026,"y":2540637.3900000006}},{"attributes":{"ID":400070,"DIS_CODE":0,"TOWNNAME":"南區","LI":"郡南里","LIN":"11鄰","STREET":"永成路","SECT":"三段","MAREA":" ","LANE":"１０３巷","ALLEY":" ","HOUSE_NO":"２１號","E_COORD97":167424.10999999999,"N_COORD97":2540638.7999999998,"ADDRESS":"永成路三段１０３巷２１號","OBJECTID":400046},"geometry":{"x":167424.11000000034,"y":2540638.8000000007}},{"attributes":{"ID":400071,"DIS_CODE":0,"TOWNNAME":"南區","LI":"郡南里","LIN":"11鄰","STREET":"永成路","SECT":"三段","MAREA":" ","LANE":"１０３巷","ALLEY":" ","HOUSE_NO":"２３號","E_COORD97":167419.88,"N_COORD97":2540636.5499999998,"ADDRESS":"永成路三段１０３巷２３號","OBJECTID":400047},"geometry":{"x":167419.87999999989,"y":2540636.5500000007}},{"attributes":{"ID":400072,"DIS_CODE":0,"TOWNNAME":"南區","LI":"郡南里","LIN":"11鄰","STREET":"永成路","SECT":"三段","MAREA":" ","LANE":"１０３巷","ALLEY":" ","HOUSE_NO":"２５號","E_COORD97":167415.92999999999,"N_COORD97":2540636.4300000002,"ADDRESS":"永成路三段１０３巷２５號","OBJECTID":400048},"geometry":{"x":167415.9299999997,"y":2540636.4299999997}},{"attributes":{"ID":400073,"DIS_CODE":0,"TOWNNAME":"南區","LI":"郡南里","LIN":"11鄰","STREET":"永成路","SECT":"三段","MAREA":" ","LANE":"１０３巷","ALLEY":" ","HOUSE_NO":"２７號","E_COORD97":167411.59,"N_COORD97":2540636.79,"ADDRESS":"永成路三段１０３巷２７號","OBJECTID":400049},"geometry":{"x":167411.58999999985,"y":2540636.7899999991}},{"attributes":{"ID":400074,"DIS_CODE":0,"TOWNNAME":"南區","LI":"郡南里","LIN":"11鄰","STREET":"永成路","SECT":"三段","MAREA":" ","LANE":"１０３巷","ALLEY":" ","HOUSE_NO":"２９號","E_COORD97":167408.20000000001,"N_COORD97":2540637.0699999998,"ADDRESS":"永成路三段１０３巷２９號","OBJECTID":400050},"geometry":{"x":167408.20000000019,"y":2540637.070000004}},{"attributes":{"ID":400075,"DIS_CODE":0,"TOWNNAME":"南區","LI":"郡南里","LIN":"11鄰","STREET":"永成路","SECT":"三段","MAREA":" ","LANE":"１０３巷","ALLEY":" ","HOUSE_NO":"３１號","E_COORD97":167403.98000000001,"N_COORD97":2540638.48,"ADDRESS":"永成路三段１０３巷３１號","OBJECTID":400051},"geometry":{"x":167403.98000000138,"y":2540638.4800000023}},{"attributes":{"ID":400076,"DIS_CODE":0,"TOWNNAME":"白河區","LI":"庄內里","LIN":"11鄰","STREET":"新興路","SECT":" ","MAREA":" ","LANE":"４４８巷","ALLEY":" ","HOUSE_NO":"６號","E_COORD97":190632.72,"N_COORD97":2583476.9399999999,"ADDRESS":"新興路４４８巷６號","OBJECTID":400052},"geometry":{"x":190632.72000000067,"y":2583476.9399999995}},{"attributes":{"ID":400077,"DIS_CODE":0,"TOWNNAME":"南區","LI":"郡南里","LIN":"11鄰","STREET":"永成路","SECT":"三段","MAREA":" ","LANE":"１０３巷","ALLEY":" ","HOUSE_NO":"３３號","E_COORD97":167400.59,"N_COORD97":2540638.7599999998,"ADDRESS":"永成路三段１０３巷３３號","OBJECTID":400053},"geometry":{"x":167400.59000000171,"y":2540638.7600000035}},{"attributes":{"ID":400078,"DIS_CODE":0,"TOWNNAME":"南區","LI":"郡南里","LIN":"11鄰","STREET":"永成路","SECT":"三段","MAREA":" ","LANE":"１０３巷","ALLEY":" ","HOUSE_NO":"３５號","E_COORD97":167396.07999999999,"N_COORD97":2540638.7599999998,"ADDRESS":"永成路三段１０３巷３５號","OBJECTID":400054},"geometry":{"x":167396.08000000101,"y":2540638.7600000035}},{"attributes":{"ID":400079,"DIS_CODE":0,"TOWNNAME":"南區","LI":"郡南里","LIN":"11鄰","STREET":"永成路","SECT":"三段","MAREA":" ","LANE":"１０３巷","ALLEY":" ","HOUSE_NO":"３７號","E_COORD97":167391.54000000001,"N_COORD97":2540636.5699999998,"ADDRESS":"永成路三段１０３巷３７號","OBJECTID":400055},"geometry":{"x":167391.54000000097,"y":2540636.5700000003}},{"attributes":{"ID":400080,"DIS_CODE":0,"TOWNNAME":"南區","LI":"郡南里","LIN":"11鄰","STREET":"永成路","SECT":"三段","MAREA":" ","LANE":"１０３巷","ALLEY":" ","HOUSE_NO":"３９號","E_COORD97":167387.91,"N_COORD97":2540637.0699999998,"ADDRESS":"永成路三段１０３巷３９號","OBJECTID":400056},"geometry":{"x":167387.91000000015,"y":2540637.070000004}},{"attributes":{"ID":400081,"DIS_CODE":0,"TOWNNAME":"南區","LI":"郡南里","LIN":"11鄰","STREET":"永成路","SECT":"三段","MAREA":" ","LANE":"１０３巷","ALLEY":" ","HOUSE_NO":"４１號","E_COORD97":167382.82999999999,"N_COORD97":2540635.9500000002,"ADDRESS":"永成路三段１０３巷４１號","OBJECTID":400057},"geometry":{"x":167382.83000000101,"y":2540635.9499999993}},{"attributes":{"ID":400082,"DIS_CODE":0,"TOWNNAME":"南區","LI":"郡南里","LIN":"11鄰","STREET":"永成路","SECT":"三段","MAREA":" ","LANE":"１０３巷","ALLEY":" ","HOUSE_NO":"４３號","E_COORD97":167379.45000000001,"N_COORD97":2540639.6099999999,"ADDRESS":"永成路三段１０３巷４３號","OBJECTID":400058},"geometry":{"x":167379.45000000019,"y":2540639.6100000013}},{"attributes":{"ID":400083,"DIS_CODE":0,"TOWNNAME":"南區","LI":"郡南里","LIN":"11鄰","STREET":"永成路","SECT":"三段","MAREA":" ","LANE":"１０３巷","ALLEY":" ","HOUSE_NO":"４５號","E_COORD97":167374.94,"N_COORD97":2540640.1699999999,"ADDRESS":"永成路三段１０３巷４５號","OBJECTID":400059},"geometry":{"x":167374.93999999948,"y":2540640.1700000018}},{"attributes":{"ID":400084,"DIS_CODE":0,"TOWNNAME":"南區","LI":"郡南里","LIN":"11鄰","STREET":"永成路","SECT":"三段","MAREA":" ","LANE":"１０３巷","ALLEY":" ","HOUSE_NO":"４７號","E_COORD97":167372.85000000001,"N_COORD97":2540638.48,"ADDRESS":"永成路三段１０３巷４７號","OBJECTID":400060},"geometry":{"x":167372.84999999963,"y":2540638.4800000023}},{"attributes":{"ID":400085,"DIS_CODE":0,"TOWNNAME":"南區","LI":"郡南里","LIN":"11鄰","STREET":"永成路","SECT":"三段","MAREA":" ","LANE":"１０３巷","ALLEY":" ","HOUSE_NO":"４９號","E_COORD97":167370.17999999999,"N_COORD97":2540638.6499999999,"ADDRESS":"永成路三段１０３巷４９號","OBJECTID":400061},"geometry":{"x":167370.1799999997,"y":2540638.6500000004}},{"attributes":{"ID":400086,"DIS_CODE":0,"TOWNNAME":"南區","LI":"郡南里","LIN":"11鄰","STREET":"永成路","SECT":"三段","MAREA":" ","LANE":"１０３巷","ALLEY":" ","HOUSE_NO":"５１號","E_COORD97":167367.04000000001,"N_COORD97":2540638.2000000002,"ADDRESS":"永成路三段１０３巷５１號","OBJECTID":400062},"geometry":{"x":167367.03999999911,"y":2540638.1999999993}},{"attributes":{"ID":400087,"DIS_CODE":0,"TOWNNAME":"南區","LI":"郡南里","LIN":"11鄰","STREET":"永成路","SECT":"三段","MAREA":" ","LANE":"１０３巷","ALLEY":" ","HOUSE_NO":"５３號","E_COORD97":167363.66,"N_COORD97":2540639.6099999999,"ADDRESS":"永成路三段１０３巷５３號","OBJECTID":400063},"geometry":{"x":167363.66000000108,"y":2540639.6100000013}},{"attributes":{"ID":400088,"DIS_CODE":0,"TOWNNAME":"南區","LI":"郡南里","LIN":"11鄰","STREET":"永成路","SECT":"三段","MAREA":" ","LANE":"１０３巷","ALLEY":" ","HOUSE_NO":"５５號","E_COORD97":167359.53,"N_COORD97":2540645.8700000001,"ADDRESS":"永成路三段１０３巷５５號","OBJECTID":400064},"geometry":{"x":167359.53000000119,"y":2540645.8699999992}},{"attributes":{"ID":400089,"DIS_CODE":0,"TOWNNAME":"南區","LI":"郡南里","LIN":"11鄰","STREET":"永成路","SECT":"三段","MAREA":" ","LANE":"１０３巷","ALLEY":" ","HOUSE_NO":"５７號","E_COORD97":167357.32000000001,"N_COORD97":2540646.6099999999,"ADDRESS":"永成路三段１０３巷５７號","OBJECTID":400065},"geometry":{"x":167357.32000000123,"y":2540646.6100000013}},{"attributes":{"ID":400090,"DIS_CODE":0,"TOWNNAME":"南區","LI":"國宅里","LIN":"11鄰","STREET":"金華路","SECT":"二段","MAREA":" ","LANE":"３巷","ALLEY":" ","HOUSE_NO":"２９號","E_COORD97":166861.92999999999,"N_COORD97":2541810.4300000002,"ADDRESS":"金華路二段３巷２９號","OBJECTID":400066},"geometry":{"x":166861.9299999997,"y":2541810.4300000034}},{"attributes":{"ID":400091,"DIS_CODE":0,"TOWNNAME":"南區","LI":"國宅里","LIN":"11鄰","STREET":"金華路","SECT":"二段","MAREA":" ","LANE":"３巷","ALLEY":" ","HOUSE_NO":"３１號","E_COORD97":166850.16,"N_COORD97":2541811.4700000002,"ADDRESS":"金華路二段３巷３１號","OBJECTID":400067},"geometry":{"x":166850.16000000108,"y":2541811.4700000044}},{"attributes":{"ID":400092,"DIS_CODE":0,"TOWNNAME":"南區","LI":"國宅里","LIN":"11鄰","STREET":"金華路","SECT":"二段","MAREA":" ","LANE":"３巷","ALLEY":" ","HOUSE_NO":"３８號","E_COORD97":166861.69,"N_COORD97":2541828.23,"ADDRESS":"金華路二段３巷３８號","OBJECTID":400068},"geometry":{"x":166861.69000000134,"y":2541828.2300000004}},{"attributes":{"ID":400093,"DIS_CODE":0,"TOWNNAME":"南區","LI":"國宅里","LIN":"11鄰","STREET":"金華路","SECT":"二段","MAREA":" ","LANE":"３巷","ALLEY":" ","HOUSE_NO":"４０號","E_COORD97":166848.85000000001,"N_COORD97":2541829.2999999998,"ADDRESS":"金華路二段３巷４０號","OBJECTID":400069},"geometry":{"x":166848.84999999963,"y":2541829.3000000045}},{"attributes":{"ID":400094,"DIS_CODE":0,"TOWNNAME":"南區","LI":"國宅里","LIN":"11鄰","STREET":"金華路","SECT":"二段","MAREA":" ","LANE":"９巷","ALLEY":" ","HOUSE_NO":"４７號","E_COORD97":166866.41,"N_COORD97":2541844.27,"ADDRESS":"金華路二段９巷４７號","OBJECTID":400070},"geometry":{"x":166866.41000000201,"y":2541844.2699999996}},{"attributes":{"ID":400095,"DIS_CODE":0,"TOWNNAME":"南區","LI":"國宅里","LIN":"11鄰","STREET":"金華路","SECT":"二段","MAREA":" ","LANE":"９巷","ALLEY":" ","HOUSE_NO":"４８號","E_COORD97":166867.39999999999,"N_COORD97":2541858.1200000001,"ADDRESS":"金華路二段９巷４８號","OBJECTID":400071},"geometry":{"x":166867.4000000013,"y":2541858.1200000048}},{"attributes":{"ID":400096,"DIS_CODE":0,"TOWNNAME":"南區","LI":"國宅里","LIN":"11鄰","STREET":"金華路","SECT":"二段","MAREA":" ","LANE":"９巷","ALLEY":" ","HOUSE_NO":"４９號","E_COORD97":166861.04999999999,"N_COORD97":2541844.6899999999,"ADDRESS":"金華路二段９巷４９號","OBJECTID":400072},"geometry":{"x":166861.04999999981,"y":2541844.6899999995}},{"attributes":{"ID":400097,"DIS_CODE":0,"TOWNNAME":"南區","LI":"國宅里","LIN":"11鄰","STREET":"金華路","SECT":"二段","MAREA":" ","LANE":"９巷","ALLEY":" ","HOUSE_NO":"５０號","E_COORD97":166863.16,"N_COORD97":2541858.1200000001,"ADDRESS":"金華路二段９巷５０號","OBJECTID":400073},"geometry":{"x":166863.16000000108,"y":2541858.1200000048}},{"attributes":{"ID":400098,"DIS_CODE":0,"TOWNNAME":"南區","LI":"國宅里","LIN":"11鄰","STREET":"金華路","SECT":"二段","MAREA":" ","LANE":"９巷","ALLEY":" ","HOUSE_NO":"５１號","E_COORD97":166855.26999999999,"N_COORD97":2541845.1200000001,"ADDRESS":"金華路二段９巷５１號","OBJECTID":400074},"geometry":{"x":166855.27000000048,"y":2541845.1200000029}},{"attributes":{"ID":400099,"DIS_CODE":0,"TOWNNAME":"南區","LI":"國宅里","LIN":"11鄰","STREET":"金華路","SECT":"二段","MAREA":" ","LANE":"９巷","ALLEY":" ","HOUSE_NO":"５３號","E_COORD97":166851.20000000001,"N_COORD97":2541845.5499999998,"ADDRESS":"金華路二段９巷５３號","OBJECTID":400075},"geometry":{"x":166851.20000000112,"y":2541845.5500000026}},{"attributes":{"ID":400100,"DIS_CODE":0,"TOWNNAME":"南區","LI":"國宅里","LIN":"11鄰","STREET":"金華路","SECT":"二段","MAREA":" ","LANE":"９巷","ALLEY":" ","HOUSE_NO":"５４號","E_COORD97":166853.87,"N_COORD97":2541858.9300000002,"ADDRESS":"金華路二段９巷５４號","OBJECTID":400076},"geometry":{"x":166853.87000000104,"y":2541858.9300000016}},{"attributes":{"ID":400101,"DIS_CODE":0,"TOWNNAME":"南區","LI":"國宅里","LIN":"11鄰","STREET":"金華路","SECT":"二段","MAREA":" ","LANE":"９巷","ALLEY":" ","HOUSE_NO":"５５號","E_COORD97":166845.42000000001,"N_COORD97":2541845.5499999998,"ADDRESS":"金華路二段９巷５５號","OBJECTID":400077},"geometry":{"x":166845.41999999993,"y":2541845.5500000026}},{"attributes":{"ID":400102,"DIS_CODE":0,"TOWNNAME":"南區","LI":"國宅里","LIN":"11鄰","STREET":"金華路","SECT":"二段","MAREA":" ","LANE":"９巷","ALLEY":" ","HOUSE_NO":"５６號","E_COORD97":166849.01999999999,"N_COORD97":2541859.7400000002,"ADDRESS":"金華路二段９巷５６號","OBJECTID":400078},"geometry":{"x":166849.01999999955,"y":2541859.7400000039}},{"attributes":{"ID":400103,"DIS_CODE":0,"TOWNNAME":"南區","LI":"國宅里","LIN":"11鄰","STREET":"金華路","SECT":"二段","MAREA":" ","LANE":"９巷","ALLEY":" ","HOUSE_NO":"５７號","E_COORD97":166840.48999999999,"N_COORD97":2541846.1899999999,"ADDRESS":"金華路二段９巷５７號","OBJECTID":400079},"geometry":{"x":166840.49000000209,"y":2541846.1900000013}},{"attributes":{"ID":400104,"DIS_CODE":0,"TOWNNAME":"南區","LI":"國宅里","LIN":"11鄰","STREET":"金華路","SECT":"二段","MAREA":" ","LANE":"９巷","ALLEY":" ","HOUSE_NO":"５８號","E_COORD97":166844.17999999999,"N_COORD97":2541860.3399999999,"ADDRESS":"金華路二段９巷５８號","OBJECTID":400080},"geometry":{"x":166844.18000000063,"y":2541860.3400000017}},{"attributes":{"ID":400105,"DIS_CODE":0,"TOWNNAME":"南區","LI":"國宅里","LIN":"11鄰","STREET":"金華路","SECT":"二段","MAREA":" ","LANE":"９巷","ALLEY":" ","HOUSE_NO":"５９號","E_COORD97":166834.5,"N_COORD97":2541846.1899999999,"ADDRESS":"金華路二段９巷５９號","OBJECTID":400081},"geometry":{"x":166834.5,"y":2541846.1900000013}},{"attributes":{"ID":400106,"DIS_CODE":0,"TOWNNAME":"南區","LI":"國宅里","LIN":"11鄰","STREET":"金華路","SECT":"二段","MAREA":" ","LANE":"９巷","ALLEY":" ","HOUSE_NO":"６０號","E_COORD97":166839.54000000001,"N_COORD97":2541860.9500000002,"ADDRESS":"金華路二段９巷６０號","OBJECTID":400082},"geometry":{"x":166839.54000000004,"y":2541860.950000003}},{"attributes":{"ID":400107,"DIS_CODE":0,"TOWNNAME":"南區","LI":"國宅里","LIN":"11鄰","STREET":"金華路","SECT":"二段","MAREA":" ","LANE":"９巷","ALLEY":" ","HOUSE_NO":"６１號","E_COORD97":166830.22,"N_COORD97":2541846.6200000001,"ADDRESS":"金華路二段９巷６１號","OBJECTID":400083},"geometry":{"x":166830.22000000067,"y":2541846.620000001}},{"attributes":{"ID":400108,"DIS_CODE":0,"TOWNNAME":"南區","LI":"國宅里","LIN":"11鄰","STREET":"金華路","SECT":"二段","MAREA":" ","LANE":"９巷","ALLEY":" ","HOUSE_NO":"６２號","E_COORD97":166833.88,"N_COORD97":2541861.5499999998,"ADDRESS":"金華路二段９巷６２號","OBJECTID":400084},"geometry":{"x":166833.87999999989,"y":2541861.5500000045}},{"attributes":{"ID":400109,"DIS_CODE":0,"TOWNNAME":"南區","LI":"國宅里","LIN":"11鄰","STREET":"金華路","SECT":"二段","MAREA":" ","LANE":"９巷","ALLEY":" ","HOUSE_NO":"６４號","E_COORD97":166829.23999999999,"N_COORD97":2541861.96,"ADDRESS":"金華路二段９巷６４號","OBJECTID":400085},"geometry":{"x":166829.24000000115,"y":2541861.9600000009}},{"attributes":{"ID":400110,"DIS_CODE":0,"TOWNNAME":"南區","LI":"國宅里","LIN":"11鄰","STREET":"金華路","SECT":"二段","MAREA":" ","LANE":"９巷","ALLEY":" ","HOUSE_NO":"６６號","E_COORD97":166824.39000000001,"N_COORD97":2541862.1600000001,"ADDRESS":"金華路二段９巷６６號","OBJECTID":400086},"geometry":{"x":166824.3900000006,"y":2541862.1600000001}},{"attributes":{"ID":400111,"DIS_CODE":0,"TOWNNAME":"南區","LI":"國宅里","LIN":"11鄰","STREET":"金華路","SECT":"二段","MAREA":" ","LANE":"１５巷","ALLEY":" ","HOUSE_NO":"４７號","E_COORD97":166869.20999999999,"N_COORD97":2541875.46,"ADDRESS":"金華路二段１５巷４７號","OBJECTID":400087},"geometry":{"x":166869.21000000183,"y":2541875.4600000009}},{"attributes":{"ID":400112,"DIS_CODE":0,"TOWNNAME":"南區","LI":"國宅里","LIN":"11鄰","STREET":"金華路","SECT":"二段","MAREA":" ","LANE":"１５巷","ALLEY":" ","HOUSE_NO":"４８號","E_COORD97":166870.35999999999,"N_COORD97":2541891.75,"ADDRESS":"金華路二段１５巷４８號","OBJECTID":400088},"geometry":{"x":166870.3600000022,"y":2541891.75}},{"attributes":{"ID":400113,"DIS_CODE":0,"TOWNNAME":"南區","LI":"國宅里","LIN":"11鄰","STREET":"金華路","SECT":"二段","MAREA":" ","LANE":"１５巷","ALLEY":" ","HOUSE_NO":"５０號","E_COORD97":166866.04000000001,"N_COORD97":2541891.75,"ADDRESS":"金華路二段１５巷５０號","OBJECTID":400089},"geometry":{"x":166866.04000000097,"y":2541891.75}},{"attributes":{"ID":400114,"DIS_CODE":0,"TOWNNAME":"南區","LI":"國宅里","LIN":"11鄰","STREET":"金華路","SECT":"二段","MAREA":" ","LANE":"１５巷","ALLEY":" ","HOUSE_NO":"５１號","E_COORD97":166859.12,"N_COORD97":2541876.6699999999,"ADDRESS":"金華路二段１５巷５１號","OBJECTID":400090},"geometry":{"x":166859.12000000011,"y":2541876.6699999981}},{"attributes":{"ID":400115,"DIS_CODE":0,"TOWNNAME":"南區","LI":"國宅里","LIN":"11鄰","STREET":"金華路","SECT":"二段","MAREA":" ","LANE":"１５巷","ALLEY":" ","HOUSE_NO":"５２號","E_COORD97":166861.06,"N_COORD97":2541892.6099999999,"ADDRESS":"金華路二段１５巷５２號","OBJECTID":400091},"geometry":{"x":166861.05999999959,"y":2541892.6099999994}},{"attributes":{"ID":400116,"DIS_CODE":0,"TOWNNAME":"南區","LI":"國宅里","LIN":"11鄰","STREET":"金華路","SECT":"二段","MAREA":" ","LANE":"１５巷","ALLEY":" ","HOUSE_NO":"５３號","E_COORD97":166854.48000000001,"N_COORD97":2541876.6699999999,"ADDRESS":"金華路二段１５巷５３號","OBJECTID":400092},"geometry":{"x":166854.48000000231,"y":2541876.6699999981}},{"attributes":{"ID":400117,"DIS_CODE":0,"TOWNNAME":"南區","LI":"國宅里","LIN":"11鄰","STREET":"金華路","SECT":"二段","MAREA":" ","LANE":"１５巷","ALLEY":" ","HOUSE_NO":"５４號","E_COORD97":166855.87,"N_COORD97":2541893.2599999998,"ADDRESS":"金華路二段１５巷５４號","OBJECTID":400093},"geometry":{"x":166855.87000000011,"y":2541893.2600000035}},{"attributes":{"ID":400118,"DIS_CODE":0,"TOWNNAME":"東區","LI":"崇成里","LIN":"13鄰","STREET":"崇德路","SECT":" ","MAREA":" ","LANE":" ","ALLEY":" ","HOUSE_NO":"５８６號","E_COORD97":170773.75,"N_COORD97":2541333.52,"ADDRESS":"崇德路５８６號","OBJECTID":400094},"geometry":{"x":170773.75000000093,"y":2541333.5199999996}},{"attributes":{"ID":400119,"DIS_CODE":0,"TOWNNAME":"南區","LI":"國宅里","LIN":"11鄰","STREET":"金華路","SECT":"二段","MAREA":" ","LANE":"１５巷","ALLEY":" ","HOUSE_NO":"５５號","E_COORD97":166849.23000000001,"N_COORD97":2541877.0800000001,"ADDRESS":"金華路二段１５巷５５號","OBJECTID":400095},"geometry":{"x":166849.23000000231,"y":2541877.0800000001}},{"attributes":{"ID":400120,"DIS_CODE":0,"TOWNNAME":"南區","LI":"國宅里","LIN":"11鄰","STREET":"金華路","SECT":"二段","MAREA":" ","LANE":"１５巷","ALLEY":" ","HOUSE_NO":"５６號","E_COORD97":166850.67000000001,"N_COORD97":2541894.1299999999,"ADDRESS":"金華路二段１５巷５６號","OBJECTID":400096},"geometry":{"x":166850.66999999993,"y":2541894.1300000008}},{"attributes":{"ID":400121,"DIS_CODE":0,"TOWNNAME":"南區","LI":"國宅里","LIN":"11鄰","STREET":"金華路","SECT":"二段","MAREA":" ","LANE":"１５巷","ALLEY":" ","HOUSE_NO":"５７號","E_COORD97":166845.39000000001,"N_COORD97":2541877.48,"ADDRESS":"金華路二段１５巷５７號","OBJECTID":400097},"geometry":{"x":166845.38999999966,"y":2541877.4800000004}},{"attributes":{"ID":400122,"DIS_CODE":0,"TOWNNAME":"南區","LI":"國宅里","LIN":"11鄰","STREET":"金華路","SECT":"二段","MAREA":" ","LANE":"１５巷","ALLEY":" ","HOUSE_NO":"５８號","E_COORD97":166846.35000000001,"N_COORD97":2541894.77,"ADDRESS":"金華路二段１５巷５８號","OBJECTID":400098},"geometry":{"x":166846.35000000056,"y":2541894.7699999996}},{"attributes":{"ID":400123,"DIS_CODE":0,"TOWNNAME":"南區","LI":"國宅里","LIN":"11鄰","STREET":"金華路","SECT":"二段","MAREA":" ","LANE":"１５巷","ALLEY":" ","HOUSE_NO":"５９號","E_COORD97":166840.54999999999,"N_COORD97":2541878.0800000001,"ADDRESS":"金華路二段１５巷５９號","OBJECTID":400099},"geometry":{"x":166840.54999999981,"y":2541878.0800000019}},{"attributes":{"ID":400124,"DIS_CODE":0,"TOWNNAME":"南區","LI":"國宅里","LIN":"11鄰","STREET":"金華路","SECT":"二段","MAREA":" ","LANE":"１５巷","ALLEY":" ","HOUSE_NO":"６０號","E_COORD97":166841.79999999999,"N_COORD97":2541894.77,"ADDRESS":"金華路二段１５巷６０號","OBJECTID":400100},"geometry":{"x":166841.80000000075,"y":2541894.7699999996}},{"attributes":{"ID":400125,"DIS_CODE":0,"TOWNNAME":"南區","LI":"國宅里","LIN":"11鄰","STREET":"金華路","SECT":"二段","MAREA":" ","LANE":"１５巷","ALLEY":" ","HOUSE_NO":"６１號","E_COORD97":166834.89000000001,"N_COORD97":2541878.6899999999,"ADDRESS":"金華路二段１５巷６１號","OBJECTID":400101},"geometry":{"x":166834.88999999966,"y":2541878.6899999995}},{"attributes":{"ID":400126,"DIS_CODE":0,"TOWNNAME":"南區","LI":"國宅里","LIN":"11鄰","STREET":"金華路","SECT":"二段","MAREA":" ","LANE":"１５巷","ALLEY":" ","HOUSE_NO":"６２號","E_COORD97":166837.26000000001,"N_COORD97":2541896.29,"ADDRESS":"金華路二段１５巷６２號","OBJECTID":400102},"geometry":{"x":166837.26000000071,"y":2541896.290000001}},{"attributes":{"ID":400127,"DIS_CODE":0,"TOWNNAME":"南區","LI":"國宅里","LIN":"11鄰","STREET":"金華路","SECT":"二段","MAREA":" ","LANE":"１５巷","ALLEY":" ","HOUSE_NO":"６３號","E_COORD97":166830.45000000001,"N_COORD97":2541878.6899999999,"ADDRESS":"金華路二段１５巷６３號","OBJECTID":400103},"geometry":{"x":166830.44999999925,"y":2541878.6899999995}},{"attributes":{"ID":400128,"DIS_CODE":0,"TOWNNAME":"南區","LI":"國宅里","LIN":"11鄰","STREET":"金華路","SECT":"二段","MAREA":" ","LANE":"１５巷","ALLEY":" ","HOUSE_NO":"６４號","E_COORD97":166831.42000000001,"N_COORD97":2541896.29,"ADDRESS":"金華路二段１５巷６４號","OBJECTID":400104},"geometry":{"x":166831.41999999993,"y":2541896.290000001}},{"attributes":{"ID":400129,"DIS_CODE":0,"TOWNNAME":"南區","LI":"國宅里","LIN":"11鄰","STREET":"金華路","SECT":"二段","MAREA":" ","LANE":"１５巷","ALLEY":" ","HOUSE_NO":"６５號","E_COORD97":166825.39999999999,"N_COORD97":2541878.6899999999,"ADDRESS":"金華路二段１５巷６５號","OBJECTID":400105},"geometry":{"x":166825.40000000037,"y":2541878.6899999995}},{"attributes":{"ID":400130,"DIS_CODE":0,"TOWNNAME":"南區","LI":"國宅里","LIN":"11鄰","STREET":"金華路","SECT":"二段","MAREA":" ","LANE":"１５巷","ALLEY":" ","HOUSE_NO":"６６號","E_COORD97":166826.44,"N_COORD97":2541896.9300000002,"ADDRESS":"金華路二段１５巷６６號","OBJECTID":400106},"geometry":{"x":166826.44000000134,"y":2541896.9300000016}},{"attributes":{"ID":400131,"DIS_CODE":0,"TOWNNAME":"永康區","LI":"埔園里","LIN":"11鄰","STREET":"中山路","SECT":" ","MAREA":" ","LANE":"１７１巷","ALLEY":" ","HOUSE_NO":"１３號","E_COORD97":173663.29000000001,"N_COORD97":2547963.25,"ADDRESS":"中山路１７１巷１３號","OBJECTID":400107},"geometry":{"x":173663.29000000097,"y":2547963.2500000019}},{"attributes":{"ID":400132,"DIS_CODE":0,"TOWNNAME":"永康區","LI":"埔園里","LIN":"11鄰","STREET":"中山路","SECT":" ","MAREA":" ","LANE":"１５５巷","ALLEY":" ","HOUSE_NO":"１０號","E_COORD97":173664.5,"N_COORD97":2547935.4900000002,"ADDRESS":"中山路１５５巷１０號","OBJECTID":400108},"geometry":{"x":173664.5,"y":2547935.4900000002}},{"attributes":{"ID":400133,"DIS_CODE":0,"TOWNNAME":"永康區","LI":"崑山里","LIN":"11鄰","STREET":"大灣路","SECT":" ","MAREA":" ","LANE":"１０９０巷","ALLEY":" ","HOUSE_NO":"１９號","E_COORD97":173297.59,"N_COORD97":2544484.5,"ADDRESS":"大灣路１０９０巷１９號","OBJECTID":400109},"geometry":{"x":173297.58999999985,"y":2544484.5}},{"attributes":{"ID":400134,"DIS_CODE":0,"TOWNNAME":"永康區","LI":"神洲里","LIN":"11鄰","STREET":"忠孝路","SECT":" ","MAREA":" ","LANE":"１５２巷","ALLEY":" ","HOUSE_NO":"４０號","E_COORD97":172260.51999999999,"N_COORD97":2545070.8999999999,"ADDRESS":"忠孝路１５２巷４０號","OBJECTID":400110},"geometry":{"x":172260.51999999955,"y":2545070.9000000022}},{"attributes":{"ID":400135,"DIS_CODE":0,"TOWNNAME":"永康區","LI":"神洲里","LIN":"11鄰","STREET":"忠孝路","SECT":" ","MAREA":" ","LANE":"１５２巷","ALLEY":" ","HOUSE_NO":"３８號","E_COORD97":172253.22,"N_COORD97":2545070.8999999999,"ADDRESS":"忠孝路１５２巷３８號","OBJECTID":400111},"geometry":{"x":172253.22000000067,"y":2545070.9000000022}},{"attributes":{"ID":400136,"DIS_CODE":0,"TOWNNAME":"永康區","LI":"東灣里","LIN":"11鄰","STREET":"立興街","SECT":" ","MAREA":" ","LANE":"２８巷","ALLEY":" ","HOUSE_NO":"５號","E_COORD97":174653.92000000001,"N_COORD97":2544901.9900000002,"ADDRESS":"立興街２８巷５號","OBJECTID":400112},"geometry":{"x":174653.92000000179,"y":2544901.9900000002}},{"attributes":{"ID":400137,"DIS_CODE":0,"TOWNNAME":"永康區","LI":"東橋里","LIN":"11鄰","STREET":"中山南路","SECT":" ","MAREA":" ","LANE":"１９５巷","ALLEY":" ","HOUSE_NO":"６號","E_COORD97":171569.41,"N_COORD97":2546204.1000000001,"ADDRESS":"中山南路１９５巷６號","OBJECTID":400113},"geometry":{"x":171569.41000000108,"y":2546204.1000000015}},{"attributes":{"ID":400138,"DIS_CODE":0,"TOWNNAME":"永康區","LI":"南灣里","LIN":"11鄰","STREET":"大灣路","SECT":" ","MAREA":" ","LANE":"５２８巷","ALLEY":" ","HOUSE_NO":"１４號","E_COORD97":174642.82000000001,"N_COORD97":2544803.9900000002,"ADDRESS":"大灣路５２８巷１４號","OBJECTID":400114},"geometry":{"x":174642.8200000003,"y":2544803.9900000002}},{"attributes":{"ID":400139,"DIS_CODE":0,"TOWNNAME":"永康區","LI":"埔園里","LIN":"11鄰","STREET":"中山路","SECT":" ","MAREA":" ","LANE":"１５５巷","ALLEY":" ","HOUSE_NO":"１１號","E_COORD97":173655.88,"N_COORD97":2547921.9399999999,"ADDRESS":"中山路１５５巷１１號","OBJECTID":400115},"geometry":{"x":173655.88000000082,"y":2547921.9399999995}},{"attributes":{"ID":400140,"DIS_CODE":0,"TOWNNAME":"永康區","LI":"埔園里","LIN":"11鄰","STREET":"中山路","SECT":" ","MAREA":" ","LANE":"１５５巷","ALLEY":" ","HOUSE_NO":"１８號","E_COORD97":173642.51000000001,"N_COORD97":2547927.7400000002,"ADDRESS":"中山路１５５巷１８號","OBJECTID":400116},"geometry":{"x":173642.50999999978,"y":2547927.7400000002}},{"attributes":{"ID":400141,"DIS_CODE":0,"TOWNNAME":"永康區","LI":"埔園里","LIN":"11鄰","STREET":"中山路","SECT":" ","MAREA":" ","LANE":"１７１巷","ALLEY":" ","HOUSE_NO":"２１號","E_COORD97":173647.51999999999,"N_COORD97":2547957.2400000002,"ADDRESS":"中山路１７１巷２１號","OBJECTID":400117},"geometry":{"x":173647.52000000142,"y":2547957.2400000021}},{"attributes":{"ID":400142,"DIS_CODE":0,"TOWNNAME":"永康區","LI":"南灣里","LIN":"11鄰","STREET":"大灣路","SECT":" ","MAREA":" ","LANE":"５２８巷","ALLEY":" ","HOUSE_NO":"６號","E_COORD97":174646.09,"N_COORD97":2544840.4900000002,"ADDRESS":"大灣路５２８巷６號","OBJECTID":400118},"geometry":{"x":174646.09000000078,"y":2544840.4900000002}},{"attributes":{"ID":400143,"DIS_CODE":0,"TOWNNAME":"永康區","LI":"埔園里","LIN":"11鄰","STREET":"中山路","SECT":" ","MAREA":" ","LANE":"１５５巷","ALLEY":" ","HOUSE_NO":"４號","E_COORD97":173679.69,"N_COORD97":2547941.9900000002,"ADDRESS":"中山路１５５巷４號","OBJECTID":400119},"geometry":{"x":173679.69000000134,"y":2547941.9900000021}},{"attributes":{"ID":400144,"DIS_CODE":0,"TOWNNAME":"永康區","LI":"東灣里","LIN":"11鄰","STREET":"立興街","SECT":" ","MAREA":" ","LANE":"２８巷","ALLEY":" ","HOUSE_NO":"９號","E_COORD97":174660.01000000001,"N_COORD97":2544906.4900000002,"ADDRESS":"立興街２８巷９號","OBJECTID":400120},"geometry":{"x":174660.01000000071,"y":2544906.4900000021}},{"attributes":{"ID":400145,"DIS_CODE":0,"TOWNNAME":"永康區","LI":"埔園里","LIN":"11鄰","STREET":"中山路","SECT":" ","MAREA":" ","LANE":"１５５巷","ALLEY":" ","HOUSE_NO":"５號","E_COORD97":173673.04999999999,"N_COORD97":2547928.2400000002,"ADDRESS":"中山路１５５巷５號","OBJECTID":400121},"geometry":{"x":173673.05000000168,"y":2547928.2400000002}},{"attributes":{"ID":400146,"DIS_CODE":0,"TOWNNAME":"永康區","LI":"埔園里","LIN":"11鄰","STREET":"中山路","SECT":" ","MAREA":" ","LANE":"１７１巷","ALLEY":" ","HOUSE_NO":"１１號","E_COORD97":173667.04000000001,"N_COORD97":2547964.5,"ADDRESS":"中山路１７１巷１１號","OBJECTID":400122},"geometry":{"x":173667.04000000097,"y":2547964.5000000019}},{"attributes":{"ID":400147,"DIS_CODE":0,"TOWNNAME":"永康區","LI":"埔園里","LIN":"11鄰","STREET":"自強路","SECT":" ","MAREA":" ","LANE":"３７９巷","ALLEY":" ","HOUSE_NO":"６號","E_COORD97":173616.78,"N_COORD97":2547937.9900000002,"ADDRESS":"自強路３７９巷６號","OBJECTID":400123},"geometry":{"x":173616.78000000119,"y":2547937.9900000021}},{"attributes":{"ID":400148,"DIS_CODE":0,"TOWNNAME":"永康區","LI":"埔園里","LIN":"11鄰","STREET":"中山路","SECT":" ","MAREA":" ","LANE":"１５５巷","ALLEY":" ","HOUSE_NO":"３號","E_COORD97":173678.63,"N_COORD97":2547931.9399999999,"ADDRESS":"中山路１５５巷３號","OBJECTID":400124},"geometry":{"x":173678.62999999989,"y":2547931.9399999995}},{"attributes":{"ID":400149,"DIS_CODE":0,"TOWNNAME":"永康區","LI":"埔園里","LIN":"11鄰","STREET":"中山路","SECT":" ","MAREA":" ","LANE":"１５５巷","ALLEY":" ","HOUSE_NO":"２０號","E_COORD97":173639.14000000001,"N_COORD97":2547922.4300000002,"ADDRESS":"中山路１５５巷２０號","OBJECTID":400125},"geometry":{"x":173639.1400000006,"y":2547922.4299999997}},{"attributes":{"ID":400150,"DIS_CODE":0,"TOWNNAME":"永康區","LI":"埔園里","LIN":"11鄰","STREET":"中山路","SECT":" ","MAREA":" ","LANE":"１７１巷","ALLEY":" ","HOUSE_NO":"７號","E_COORD97":173673.75,"N_COORD97":2547967.75,"ADDRESS":"中山路１７１巷７號","OBJECTID":400126},"geometry":{"x":173673.75000000093,"y":2547967.75}},{"attributes":{"ID":400151,"DIS_CODE":0,"TOWNNAME":"永康區","LI":"東橋里","LIN":"11鄰","STREET":"中山南路","SECT":" ","MAREA":" ","LANE":"２３１巷","ALLEY":" ","HOUSE_NO":"１９號之１","E_COORD97":171614.23999999999,"N_COORD97":2546259.7000000002,"ADDRESS":"中山南路２３１巷１９號之１","OBJECTID":400127},"geometry":{"x":171614.24000000209,"y":2546259.700000003}},{"attributes":{"ID":400152,"DIS_CODE":0,"TOWNNAME":"永康區","LI":"埔園里","LIN":"11鄰","STREET":"中山路","SECT":" ","MAREA":" ","LANE":"１５５巷","ALLEY":" ","HOUSE_NO":"１號","E_COORD97":173683.39999999999,"N_COORD97":2547933.9900000002,"ADDRESS":"中山路１５５巷１號","OBJECTID":400128},"geometry":{"x":173683.4000000013,"y":2547933.9900000021}},{"attributes":{"ID":400153,"DIS_CODE":0,"TOWNNAME":"永康區","LI":"埔園里","LIN":"11鄰","STREET":"自強路","SECT":" ","MAREA":" ","LANE":"３７９巷","ALLEY":" ","HOUSE_NO":"１０號","E_COORD97":173615.48000000001,"N_COORD97":2547946.4900000002,"ADDRESS":"自強路３７９巷１０號","OBJECTID":400129},"geometry":{"x":173615.48000000138,"y":2547946.4900000002}},{"attributes":{"ID":400154,"DIS_CODE":0,"TOWNNAME":"安南區","LI":"學東里","LIN":"11鄰","STREET":"公學路","SECT":"六段","MAREA":" ","LANE":"６６０巷","ALLEY":" ","HOUSE_NO":"９號","E_COORD97":162228.79000000001,"N_COORD97":2553311.9100000001,"ADDRESS":"公學路六段６６０巷９號","OBJECTID":400130},"geometry":{"x":162228.79000000004,"y":2553311.910000002}},{"attributes":{"ID":400155,"DIS_CODE":0,"TOWNNAME":"安南區","LI":"南興里","LIN":"11鄰","STREET":"公學路","SECT":"五段","MAREA":" ","LANE":"６９７巷","ALLEY":" ","HOUSE_NO":"５１號","E_COORD97":163895.67000000001,"N_COORD97":2552727.8900000001,"ADDRESS":"公學路五段６９７巷５１號","OBJECTID":400131},"geometry":{"x":163895.66999999993,"y":2552727.8900000006}},{"attributes":{"ID":400156,"DIS_CODE":0,"TOWNNAME":"安南區","LI":"南興里","LIN":"11鄰","STREET":"公學路","SECT":"五段","MAREA":" ","LANE":"６９７巷","ALLEY":" ","HOUSE_NO":"５５號","E_COORD97":163901.39999999999,"N_COORD97":2552703.8500000001,"ADDRESS":"公學路五段６９７巷５５號","OBJECTID":400132},"geometry":{"x":163901.40000000037,"y":2552703.8499999996}},{"attributes":{"ID":400157,"DIS_CODE":0,"TOWNNAME":"安南區","LI":"南興里","LIN":"11鄰","STREET":"公學路","SECT":"五段","MAREA":" ","LANE":"６９７巷","ALLEY":" ","HOUSE_NO":"５７號","E_COORD97":163873.31,"N_COORD97":2552702.7000000002,"ADDRESS":"公學路五段６９７巷５７號","OBJECTID":400133},"geometry":{"x":163873.31000000052,"y":2552702.7000000011}},{"attributes":{"ID":400158,"DIS_CODE":0,"TOWNNAME":"安南區","LI":"南興里","LIN":"11鄰","STREET":"公學路","SECT":"五段","MAREA":" ","LANE":"６９７巷","ALLEY":" ","HOUSE_NO":"６８號","E_COORD97":163826.29999999999,"N_COORD97":2552647.1600000001,"ADDRESS":"公學路五段６９７巷６８號","OBJECTID":400134},"geometry":{"x":163826.30000000075,"y":2552647.1600000001}},{"attributes":{"ID":400159,"DIS_CODE":0,"TOWNNAME":"安南區","LI":"南興里","LIN":"11鄰","STREET":"公學路","SECT":"五段","MAREA":" ","LANE":"６９７巷","ALLEY":" ","HOUSE_NO":"８８號","E_COORD97":163810.25,"N_COORD97":2552605.3599999999,"ADDRESS":"公學路五段６９７巷８８號","OBJECTID":400135},"geometry":{"x":163810.25,"y":2552605.3599999975}},{"attributes":{"ID":400160,"DIS_CODE":0,"TOWNNAME":"安南區","LI":"學東里","LIN":"11鄰","STREET":"公學路","SECT":"六段","MAREA":" ","LANE":"６６０巷","ALLEY":" ","HOUSE_NO":"１２號","E_COORD97":162253.10000000001,"N_COORD97":2553316.75,"ADDRESS":"公學路六段６６０巷１２號","OBJECTID":400136},"geometry":{"x":162253.09999999963,"y":2553316.7500000019}},{"attributes":{"ID":400161,"DIS_CODE":0,"TOWNNAME":"安南區","LI":"學東里","LIN":"11鄰","STREET":"公學路","SECT":"六段","MAREA":" ","LANE":"６６０巷","ALLEY":" ","HOUSE_NO":"３號","E_COORD97":162227.31,"N_COORD97":2553287.4700000002,"ADDRESS":"公學路六段６６０巷３號","OBJECTID":400137},"geometry":{"x":162227.31000000052,"y":2553287.4699999988}},{"attributes":{"ID":400162,"DIS_CODE":0,"TOWNNAME":"安南區","LI":"學東里","LIN":"11鄰","STREET":"公學路","SECT":"六段","MAREA":" ","LANE":"６６０巷","ALLEY":" ","HOUSE_NO":"５號","E_COORD97":162228.79000000001,"N_COORD97":2553292.1800000002,"ADDRESS":"公學路六段６６０巷５號","OBJECTID":400138},"geometry":{"x":162228.79000000004,"y":2553292.1800000034}},{"attributes":{"ID":400163,"DIS_CODE":0,"TOWNNAME":"安南區","LI":"學東里","LIN":"11鄰","STREET":"公學路","SECT":"六段","MAREA":" ","LANE":"６６０巷","ALLEY":" ","HOUSE_NO":"６號","E_COORD97":162245.01000000001,"N_COORD97":2553293.7999999998,"ADDRESS":"公學路六段６６０巷６號","OBJECTID":400139},"geometry":{"x":162245.01000000071,"y":2553293.8000000026}},{"attributes":{"ID":400164,"DIS_CODE":0,"TOWNNAME":"安南區","LI":"學東里","LIN":"11鄰","STREET":"公學路","SECT":"六段","MAREA":" ","LANE":"６７２巷","ALLEY":" ","HOUSE_NO":"１６號","E_COORD97":162212.38,"N_COORD97":2553337.79,"ADDRESS":"公學路六段６７２巷１６號","OBJECTID":400140},"geometry":{"x":162212.37999999989,"y":2553337.7899999991}},{"attributes":{"ID":400165,"DIS_CODE":0,"TOWNNAME":"安南區","LI":"學東里","LIN":"11鄰","STREET":"公學路","SECT":"六段","MAREA":" ","LANE":"６７２巷","ALLEY":" ","HOUSE_NO":"５號","E_COORD97":162184.03,"N_COORD97":2553316.29,"ADDRESS":"公學路六段６７２巷５號","OBJECTID":400141},"geometry":{"x":162184.03000000119,"y":2553316.2899999991}},{"attributes":{"ID":400166,"DIS_CODE":0,"TOWNNAME":"安南區","LI":"城東里","LIN":"11鄰","STREET":"城北路","SECT":" ","MAREA":" ","LANE":"２６８巷","ALLEY":" ","HOUSE_NO":"４５號","E_COORD97":161053.70000000001,"N_COORD97":2551956.9300000002,"ADDRESS":"城北路２６８巷４５號","OBJECTID":400142},"geometry":{"x":161053.70000000112,"y":2551956.9299999997}},{"attributes":{"ID":400167,"DIS_CODE":0,"TOWNNAME":"安南區","LI":"城東里","LIN":"11鄰","STREET":"城北路","SECT":" ","MAREA":" ","LANE":"２６８巷","ALLEY":" ","HOUSE_NO":"４７號","E_COORD97":161057.42999999999,"N_COORD97":2551957.23,"ADDRESS":"城北路２６８巷４７號","OBJECTID":400143},"geometry":{"x":161057.4299999997,"y":2551957.2300000023}},{"attributes":{"ID":400168,"DIS_CODE":0,"TOWNNAME":"安南區","LI":"城東里","LIN":"11鄰","STREET":"城北路","SECT":" ","MAREA":" ","LANE":"２６８巷","ALLEY":" ","HOUSE_NO":"４９號","E_COORD97":161061.92000000001,"N_COORD97":2551957.23,"ADDRESS":"城北路２６８巷４９號","OBJECTID":400144},"geometry":{"x":161061.92000000086,"y":2551957.2300000023}},{"attributes":{"ID":400169,"DIS_CODE":0,"TOWNNAME":"安南區","LI":"城東里","LIN":"11鄰","STREET":"城北路","SECT":" ","MAREA":" ","LANE":"２６８巷","ALLEY":" ","HOUSE_NO":"５１號","E_COORD97":161065.64999999999,"N_COORD97":2551957.0800000001,"ADDRESS":"城北路２６８巷５１號","OBJECTID":400145},"geometry":{"x":161065.64999999944,"y":2551957.0799999982}},{"attributes":{"ID":400170,"DIS_CODE":0,"TOWNNAME":"新市區","LI":"新市里","LIN":"11鄰","STREET":"中正路","SECT":" ","MAREA":" ","LANE":"３５６巷","ALLEY":" ","HOUSE_NO":"２號","E_COORD97":177602.23999999999,"N_COORD97":2553203.25,"ADDRESS":"中正路３５６巷２號","OBJECTID":400146},"geometry":{"x":177602.24000000115,"y":2553203.25}},{"attributes":{"ID":400171,"DIS_CODE":0,"TOWNNAME":"東區","LI":"虎尾里","LIN":"11鄰","STREET":"東成街","SECT":" ","MAREA":" ","LANE":"１４２巷","ALLEY":" ","HOUSE_NO":"１００號","E_COORD97":171644.42000000001,"N_COORD97":2542096.3100000001,"ADDRESS":"東成街１４２巷１００號","OBJECTID":400147},"geometry":{"x":171644.41999999993,"y":2542096.3100000005}},{"attributes":{"ID":400172,"DIS_CODE":0,"TOWNNAME":"東區","LI":"虎尾里","LIN":"11鄰","STREET":"東成街","SECT":" ","MAREA":" ","LANE":"１４２巷","ALLEY":" ","HOUSE_NO":"１０２號","E_COORD97":171649.42999999999,"N_COORD97":2542094.4300000002,"ADDRESS":"東成街１４２巷１０２號","OBJECTID":400148},"geometry":{"x":171649.4299999997,"y":2542094.4299999997}},{"attributes":{"ID":400173,"DIS_CODE":0,"TOWNNAME":"白河區","LI":"庄內里","LIN":"11鄰","STREET":"新興路","SECT":" ","MAREA":" ","LANE":"４４８巷","ALLEY":" ","HOUSE_NO":"８號","E_COORD97":190633.23000000001,"N_COORD97":2583482,"ADDRESS":"新興路４４８巷８號","OBJECTID":400149},"geometry":{"x":190633.23000000138,"y":2583482.0000000019}},{"attributes":{"ID":400174,"DIS_CODE":0,"TOWNNAME":"東區","LI":"虎尾里","LIN":"11鄰","STREET":"東成街","SECT":" ","MAREA":" ","LANE":"１４２巷","ALLEY":" ","HOUSE_NO":"１０６號","E_COORD97":171653.60999999999,"N_COORD97":2542097.77,"ADDRESS":"東成街１４２巷１０６號","OBJECTID":400150},"geometry":{"x":171653.61000000034,"y":2542097.7700000014}},{"attributes":{"ID":400175,"DIS_CODE":0,"TOWNNAME":"東區","LI":"虎尾里","LIN":"11鄰","STREET":"東成街","SECT":" ","MAREA":" ","LANE":"１４２巷","ALLEY":" ","HOUSE_NO":"１０８號","E_COORD97":171656.95000000001,"N_COORD97":2542095.0600000001,"ADDRESS":"東成街１４２巷１０８號","OBJECTID":400151},"geometry":{"x":171656.95000000112,"y":2542095.0599999987}},{"attributes":{"ID":400176,"DIS_CODE":0,"TOWNNAME":"東區","LI":"小東里","LIN":"11鄰","STREET":"東和路","SECT":" ","MAREA":" ","LANE":"１５９巷","ALLEY":" ","HOUSE_NO":"５１號","E_COORD97":170718.95000000001,"N_COORD97":2544245.1299999999,"ADDRESS":"東和路１５９巷５１號","OBJECTID":400152},"geometry":{"x":170718.95000000019,"y":2544245.129999999}},{"attributes":{"ID":400177,"DIS_CODE":0,"TOWNNAME":"東區","LI":"小東里","LIN":"11鄰","STREET":"東和路","SECT":" ","MAREA":" ","LANE":"１５９巷","ALLEY":" ","HOUSE_NO":"５３號","E_COORD97":170711.75,"N_COORD97":2544243.98,"ADDRESS":"東和路１５９巷５３號","OBJECTID":400153},"geometry":{"x":170711.75,"y":2544243.9800000004}},{"attributes":{"ID":400178,"DIS_CODE":0,"TOWNNAME":"東區","LI":"小東里","LIN":"11鄰","STREET":"東安路","SECT":" ","MAREA":" ","LANE":"２６９巷","ALLEY":" ","HOUSE_NO":"１３號","E_COORD97":170739.42000000001,"N_COORD97":2544193.96,"ADDRESS":"東安路２６９巷１３號","OBJECTID":400154},"geometry":{"x":170739.41999999993,"y":2544193.9600000009}},{"attributes":{"ID":400179,"DIS_CODE":0,"TOWNNAME":"東區","LI":"小東里","LIN":"11鄰","STREET":"東安路","SECT":" ","MAREA":" ","LANE":"２６９巷","ALLEY":" ","HOUSE_NO":"１５號","E_COORD97":170733.39000000001,"N_COORD97":2544193.4300000002,"ADDRESS":"東安路２６９巷１５號","OBJECTID":400155},"geometry":{"x":170733.3900000006,"y":2544193.4299999997}},{"attributes":{"ID":400180,"DIS_CODE":0,"TOWNNAME":"東區","LI":"小東里","LIN":"11鄰","STREET":"東安路","SECT":" ","MAREA":" ","LANE":"２５１巷","ALLEY":" ","HOUSE_NO":"１２２號","E_COORD97":170693.82999999999,"N_COORD97":2544210.98,"ADDRESS":"東安路２５１巷１２２號","OBJECTID":400156},"geometry":{"x":170693.83000000007,"y":2544210.9800000004}},{"attributes":{"ID":400181,"DIS_CODE":0,"TOWNNAME":"東區","LI":"小東里","LIN":"11鄰","STREET":"東安路","SECT":" ","MAREA":" ","LANE":"２５１巷","ALLEY":" ","HOUSE_NO":"２０號","E_COORD97":170710.85999999999,"N_COORD97":2544142.8700000001,"ADDRESS":"東安路２５１巷２０號","OBJECTID":400157},"geometry":{"x":170710.86000000034,"y":2544142.8700000029}},{"attributes":{"ID":400182,"DIS_CODE":0,"TOWNNAME":"東區","LI":"小東里","LIN":"11鄰","STREET":"東安路","SECT":" ","MAREA":" ","LANE":"２５１巷","ALLEY":" ","HOUSE_NO":"２０之１號","E_COORD97":170734.95999999999,"N_COORD97":2544155.4500000002,"ADDRESS":"東安路２５１巷２０之１號","OBJECTID":400158},"geometry":{"x":170734.96000000089,"y":2544155.4499999993}},{"attributes":{"ID":400183,"DIS_CODE":0,"TOWNNAME":"東區","LI":"小東里","LIN":"11鄰","STREET":"東安路","SECT":" ","MAREA":" ","LANE":"２５１巷","ALLEY":" ","HOUSE_NO":"２２之１號","E_COORD97":170711.12,"N_COORD97":2544164.6200000001,"ADDRESS":"東安路２５１巷２２之１號","OBJECTID":400159},"geometry":{"x":170711.12000000011,"y":2544164.6200000029}},{"attributes":{"ID":400184,"DIS_CODE":0,"TOWNNAME":"東區","LI":"小東里","LIN":"11鄰","STREET":"東安路","SECT":" ","MAREA":" ","LANE":"２５１巷","ALLEY":" ","HOUSE_NO":"２２之２號","E_COORD97":170711.12,"N_COORD97":2544170.8999999999,"ADDRESS":"東安路２５１巷２２之２號","OBJECTID":400160},"geometry":{"x":170711.12000000011,"y":2544170.8999999985}},{"attributes":{"ID":400185,"DIS_CODE":0,"TOWNNAME":"東區","LI":"小東里","LIN":"11鄰","STREET":"東安路","SECT":" ","MAREA":" ","LANE":"２５１巷","ALLEY":" ","HOUSE_NO":"２２之３號","E_COORD97":170711.39000000001,"N_COORD97":2544176.3999999999,"ADDRESS":"東安路２５１巷２２之３號","OBJECTID":400161},"geometry":{"x":170711.3900000006,"y":2544176.4000000004}},{"attributes":{"ID":400186,"DIS_CODE":0,"TOWNNAME":"東區","LI":"小東里","LIN":"11鄰","STREET":"東安路","SECT":" ","MAREA":" ","LANE":"２５１巷","ALLEY":" ","HOUSE_NO":"２２號","E_COORD97":170710.34,"N_COORD97":2544157.8100000001,"ADDRESS":"東安路２５１巷２２號","OBJECTID":400162},"geometry":{"x":170710.34000000078,"y":2544157.8100000005}},{"attributes":{"ID":400187,"DIS_CODE":0,"TOWNNAME":"東區","LI":"小東里","LIN":"11鄰","STREET":"東安路","SECT":" ","MAREA":" ","LANE":"２５１巷","ALLEY":" ","HOUSE_NO":"２號","E_COORD97":170756.17999999999,"N_COORD97":2544121.6499999999,"ADDRESS":"東安路２５１巷２號","OBJECTID":400163},"geometry":{"x":170756.18000000156,"y":2544121.6500000004}},{"attributes":{"ID":400188,"DIS_CODE":0,"TOWNNAME":"東區","LI":"大智里","LIN":"11鄰","STREET":"長東街","SECT":" ","MAREA":" ","LANE":"１３１巷","ALLEY":" ","HOUSE_NO":"５３號","E_COORD97":171154.62,"N_COORD97":2540223.3799999999,"ADDRESS":"長東街１３１巷５３號","OBJECTID":400164},"geometry":{"x":171154.62000000011,"y":2540223.3800000027}},{"attributes":{"ID":400189,"DIS_CODE":0,"TOWNNAME":"東區","LI":"崇信里","LIN":"11鄰","STREET":"崇善一街","SECT":" ","MAREA":" ","LANE":"４３巷","ALLEY":" ","HOUSE_NO":"２９號","E_COORD97":170706.01000000001,"N_COORD97":2542279.1099999999,"ADDRESS":"崇善一街４３巷２９號","OBJECTID":400165},"geometry":{"x":170706.00999999978,"y":2542279.1099999994}},{"attributes":{"ID":400190,"DIS_CODE":0,"TOWNNAME":"善化區","LI":"西關里","LIN":"11鄰","STREET":"復興街","SECT":" ","MAREA":" ","LANE":"４８巷","ALLEY":" ","HOUSE_NO":"３號之２","E_COORD97":176925.89999999999,"N_COORD97":2559108.77,"ADDRESS":"復興街４８巷３號之２","OBJECTID":400166},"geometry":{"x":176925.90000000224,"y":2559108.7699999996}},{"attributes":{"ID":400191,"DIS_CODE":0,"TOWNNAME":"善化區","LI":"文正里","LIN":"11鄰","STREET":"文正路","SECT":" ","MAREA":" ","LANE":"２５巷","ALLEY":" ","HOUSE_NO":"１號","E_COORD97":176937.62,"N_COORD97":2559278.7799999998,"ADDRESS":"文正路２５巷１號","OBJECTID":400167},"geometry":{"x":176937.61999999918,"y":2559278.7800000012}},{"attributes":{"ID":400192,"DIS_CODE":0,"TOWNNAME":"善化區","LI":"文正里","LIN":"11鄰","STREET":"文正路","SECT":" ","MAREA":" ","LANE":"２５巷","ALLEY":" ","HOUSE_NO":"５號","E_COORD97":176864.42000000001,"N_COORD97":2559348.0299999998,"ADDRESS":"文正路２５巷５號","OBJECTID":400168},"geometry":{"x":176864.42000000179,"y":2559348.0300000031}},{"attributes":{"ID":400193,"DIS_CODE":0,"TOWNNAME":"善化區","LI":"文正里","LIN":"11鄰","STREET":"文正路","SECT":" ","MAREA":" ","LANE":"２５巷","ALLEY":" ","HOUSE_NO":"３之３號","E_COORD97":176934.28,"N_COORD97":2559315.2799999998,"ADDRESS":"文正路２５巷３之３號","OBJECTID":400169},"geometry":{"x":176934.28000000026,"y":2559315.2799999993}},{"attributes":{"ID":400194,"DIS_CODE":0,"TOWNNAME":"仁德區","LI":"田厝里","LIN":"11鄰","STREET":"田厝二街","SECT":" ","MAREA":" ","LANE":"７１巷","ALLEY":" ","HOUSE_NO":"１２號","E_COORD97":172298.26999999999,"N_COORD97":2537680.4900000002,"ADDRESS":"田厝二街７１巷１２號","OBJECTID":400170},"geometry":{"x":172298.27000000048,"y":2537680.4900000002}},{"attributes":{"ID":400195,"DIS_CODE":0,"TOWNNAME":"仁德區","LI":"田厝里","LIN":"11鄰","STREET":"田厝二街","SECT":" ","MAREA":" ","LANE":"７１巷","ALLEY":" ","HOUSE_NO":"６號","E_COORD97":172313.01999999999,"N_COORD97":2537672.4900000002,"ADDRESS":"田厝二街７１巷６號","OBJECTID":400171},"geometry":{"x":172313.01999999955,"y":2537672.4900000021}},{"attributes":{"ID":400196,"DIS_CODE":0,"TOWNNAME":"仁德區","LI":"一甲里","LIN":"11鄰","STREET":"義林路","SECT":" ","MAREA":" ","LANE":"２５６巷","ALLEY":" ","HOUSE_NO":"１５３號","E_COORD97":175150.95000000001,"N_COORD97":2541520.5099999998,"ADDRESS":"義林路２５６巷１５３號","OBJECTID":400172},"geometry":{"x":175150.95000000112,"y":2541520.5099999998}},{"attributes":{"ID":400197,"DIS_CODE":0,"TOWNNAME":"仁德區","LI":"一甲里","LIN":"11鄰","STREET":"忠義一街","SECT":" ","MAREA":" ","LANE":"３８巷","ALLEY":" ","HOUSE_NO":"１３號","E_COORD97":174062.81,"N_COORD97":2542207.52,"ADDRESS":"忠義一街３８巷１３號","OBJECTID":400173},"geometry":{"x":174062.81000000052,"y":2542207.5200000014}},{"attributes":{"ID":400198,"DIS_CODE":0,"TOWNNAME":"仁德區","LI":"一甲里","LIN":"11鄰","STREET":"忠義一街","SECT":" ","MAREA":" ","LANE":"３８巷","ALLEY":" ","HOUSE_NO":"２號","E_COORD97":174060.26000000001,"N_COORD97":2542096.52,"ADDRESS":"忠義一街３８巷２號","OBJECTID":400174},"geometry":{"x":174060.26000000071,"y":2542096.5199999996}},{"attributes":{"ID":400199,"DIS_CODE":0,"TOWNNAME":"仁德區","LI":"一甲里","LIN":"11鄰","STREET":"忠義一街","SECT":" ","MAREA":" ","LANE":"３８巷","ALLEY":" ","HOUSE_NO":"５號","E_COORD97":174056.42000000001,"N_COORD97":2542130.5099999998,"ADDRESS":"忠義一街３８巷５號","OBJECTID":400175},"geometry":{"x":174056.41999999993,"y":2542130.5099999998}},{"attributes":{"ID":400200,"DIS_CODE":0,"TOWNNAME":"仁德區","LI":"一甲里","LIN":"11鄰","STREET":"忠義一街","SECT":" ","MAREA":" ","LANE":"３８巷","ALLEY":" ","HOUSE_NO":"３號","E_COORD97":174044.95000000001,"N_COORD97":2542098.77,"ADDRESS":"忠義一街３８巷３號","OBJECTID":400176},"geometry":{"x":174044.95000000019,"y":2542098.7699999996}},{"attributes":{"ID":400201,"DIS_CODE":0,"TOWNNAME":"新化區","LI":"護國里","LIN":"11鄰","STREET":"中山路","SECT":" ","MAREA":" ","LANE":"３巷","ALLEY":" ","HOUSE_NO":"９１號","E_COORD97":181067.56,"N_COORD97":2549212.25,"ADDRESS":"中山路３巷９１號","OBJECTID":400177},"geometry":{"x":181067.56000000052,"y":2549212.25}},{"attributes":{"ID":400202,"DIS_CODE":0,"TOWNNAME":"新化區","LI":"護國里","LIN":"11鄰","STREET":"中山路","SECT":" ","MAREA":" ","LANE":"１９巷","ALLEY":" ","HOUSE_NO":"４３號","E_COORD97":180501.70999999999,"N_COORD97":2549504.25,"ADDRESS":"中山路１９巷４３號","OBJECTID":400178},"geometry":{"x":180501.70999999996,"y":2549504.25}},{"attributes":{"ID":400203,"DIS_CODE":0,"TOWNNAME":"新化區","LI":"護國里","LIN":"11鄰","STREET":"中山路","SECT":" ","MAREA":" ","LANE":"１１１巷","ALLEY":" ","HOUSE_NO":"５５號","E_COORD97":180210.56,"N_COORD97":2549177.25,"ADDRESS":"中山路１１１巷５５號","OBJECTID":400179},"geometry":{"x":180210.55999999959,"y":2549177.2500000019}},{"attributes":{"ID":400204,"DIS_CODE":0,"TOWNNAME":"新化區","LI":"護國里","LIN":"11鄰","STREET":"中山路","SECT":" ","MAREA":" ","LANE":"３９巷","ALLEY":" ","HOUSE_NO":"２號","E_COORD97":180138.06,"N_COORD97":2549594.25,"ADDRESS":"中山路３９巷２號","OBJECTID":400180},"geometry":{"x":180138.06000000145,"y":2549594.2500000019}},{"attributes":{"ID":400205,"DIS_CODE":0,"TOWNNAME":"新化區","LI":"護國里","LIN":"11鄰","STREET":"中山路","SECT":" ","MAREA":" ","LANE":"１７巷","ALLEY":" ","HOUSE_NO":"２０號","E_COORD97":180596.10999999999,"N_COORD97":2549954.25,"ADDRESS":"中山路１７巷２０號","OBJECTID":400181},"geometry":{"x":180596.11000000034,"y":2549954.25}},{"attributes":{"ID":400206,"DIS_CODE":0,"TOWNNAME":"新化區","LI":"太平里","LIN":"11鄰","STREET":"中正路","SECT":" ","MAREA":" ","LANE":"６９１巷","ALLEY":" ","HOUSE_NO":"６號之３","E_COORD97":178779.35999999999,"N_COORD97":2549060.2599999998,"ADDRESS":"中正路６９１巷６號之３","OBJECTID":400182},"geometry":{"x":178779.36000000127,"y":2549060.2600000035}},{"attributes":{"ID":400207,"DIS_CODE":0,"TOWNNAME":"新化區","LI":"太平里","LIN":"11鄰","STREET":"中正路","SECT":" ","MAREA":" ","LANE":"６９１巷","ALLEY":" ","HOUSE_NO":"２２號","E_COORD97":178766.64848199999,"N_COORD97":2549037.6730399998,"ADDRESS":"中正路６９１巷２２號","OBJECTID":400183},"geometry":{"x":178766.64848200046,"y":2549037.6730430014}},{"attributes":{"ID":400208,"DIS_CODE":0,"TOWNNAME":"新化區","LI":"太平里","LIN":"11鄰","STREET":"中正路","SECT":" ","MAREA":" ","LANE":"７０７巷","ALLEY":" ","HOUSE_NO":"２１號","E_COORD97":178702.76000000001,"N_COORD97":2549146.25,"ADDRESS":"中正路７０７巷２１號","OBJECTID":400184},"geometry":{"x":178702.75999999885,"y":2549146.2500000019}},{"attributes":{"ID":400209,"DIS_CODE":0,"TOWNNAME":"新化區","LI":"太平里","LIN":"11鄰","STREET":"中正路","SECT":" ","MAREA":" ","LANE":"６９１巷","ALLEY":" ","HOUSE_NO":"３６號之２","E_COORD97":178723.91,"N_COORD97":2548954.2599999998,"ADDRESS":"中正路６９１巷３６號之２","OBJECTID":400185},"geometry":{"x":178723.91000000015,"y":2548954.2599999998}},{"attributes":{"ID":400210,"DIS_CODE":0,"TOWNNAME":"安南區","LI":"淵西里","LIN":"11鄰","STREET":"安中路","SECT":"四段","MAREA":" ","LANE":"２９０巷","ALLEY":" ","HOUSE_NO":"１５２號","E_COORD97":164876,"N_COORD97":2550244.8199999998,"ADDRESS":"安中路四段２９０巷１５２號","OBJECTID":400186},"geometry":{"x":164876.00000000093,"y":2550244.8200000022}},{"attributes":{"ID":400211,"DIS_CODE":0,"TOWNNAME":"安南區","LI":"淵西里","LIN":"11鄰","STREET":"安中路","SECT":"四段","MAREA":" ","LANE":"２９０巷","ALLEY":" ","HOUSE_NO":"１６２號","E_COORD97":164902.26999999999,"N_COORD97":2550241.0800000001,"ADDRESS":"安中路四段２９０巷１６２號","OBJECTID":400187},"geometry":{"x":164902.27000000048,"y":2550241.0800000001}},{"attributes":{"ID":400212,"DIS_CODE":0,"TOWNNAME":"安南區","LI":"淵西里","LIN":"11鄰","STREET":"安中路","SECT":"四段","MAREA":" ","LANE":"２９０巷","ALLEY":" ","HOUSE_NO":"１６８號","E_COORD97":164906.78,"N_COORD97":2550241.8199999998,"ADDRESS":"安中路四段２９０巷１６８號","OBJECTID":400188},"geometry":{"x":164906.78000000119,"y":2550241.8200000022}},{"attributes":{"ID":400213,"DIS_CODE":0,"TOWNNAME":"安南區","LI":"淵東里","LIN":"11鄰","STREET":"仁安路","SECT":" ","MAREA":" ","LANE":"８３巷","ALLEY":" ","HOUSE_NO":"２９號","E_COORD97":165604.57999999999,"N_COORD97":2550191.7799999998,"ADDRESS":"仁安路８３巷２９號","OBJECTID":400189},"geometry":{"x":165604.58000000101,"y":2550191.7799999993}},{"attributes":{"ID":400214,"DIS_CODE":0,"TOWNNAME":"安南區","LI":"淵東里","LIN":"11鄰","STREET":"仁安路","SECT":" ","MAREA":" ","LANE":"８３巷","ALLEY":" ","HOUSE_NO":"３１號","E_COORD97":165602.73999999999,"N_COORD97":2550195.7200000002,"ADDRESS":"仁安路８３巷３１號","OBJECTID":400190},"geometry":{"x":165602.74000000022,"y":2550195.7200000007}},{"attributes":{"ID":400215,"DIS_CODE":0,"TOWNNAME":"安南區","LI":"淵東里","LIN":"11鄰","STREET":"仁安路","SECT":" ","MAREA":" ","LANE":"８３巷","ALLEY":" ","HOUSE_NO":"３３號","E_COORD97":165601.42000000001,"N_COORD97":2550199.1400000001,"ADDRESS":"仁安路８３巷３３號","OBJECTID":400191},"geometry":{"x":165601.42000000179,"y":2550199.1400000025}},{"attributes":{"ID":400216,"DIS_CODE":0,"TOWNNAME":"安南區","LI":"淵東里","LIN":"11鄰","STREET":"仁安路","SECT":" ","MAREA":" ","LANE":"８３巷","ALLEY":" ","HOUSE_NO":"３５號","E_COORD97":165599.32000000001,"N_COORD97":2550202.8100000001,"ADDRESS":"仁安路８３巷３５號","OBJECTID":400192},"geometry":{"x":165599.32000000123,"y":2550202.8100000005}},{"attributes":{"ID":400217,"DIS_CODE":0,"TOWNNAME":"安南區","LI":"淵東里","LIN":"11鄰","STREET":"仁安路","SECT":" ","MAREA":" ","LANE":"８３巷","ALLEY":" ","HOUSE_NO":"３７號","E_COORD97":165597.73999999999,"N_COORD97":2550206.4900000002,"ADDRESS":"仁安路８３巷３７號","OBJECTID":400193},"geometry":{"x":165597.74000000022,"y":2550206.4900000021}},{"attributes":{"ID":400218,"DIS_CODE":0,"TOWNNAME":"安南區","LI":"淵東里","LIN":"11鄰","STREET":"仁安路","SECT":" ","MAREA":" ","LANE":"８３巷","ALLEY":" ","HOUSE_NO":"３９號","E_COORD97":165595.63,"N_COORD97":2550210.4300000002,"ADDRESS":"仁安路８３巷３９號","OBJECTID":400194},"geometry":{"x":165595.63000000082,"y":2550210.4299999997}},{"attributes":{"ID":400219,"DIS_CODE":0,"TOWNNAME":"安南區","LI":"淵東里","LIN":"11鄰","STREET":"仁安路","SECT":" ","MAREA":" ","LANE":"８３巷","ALLEY":" ","HOUSE_NO":"４１號","E_COORD97":165594.04999999999,"N_COORD97":2550214.1099999999,"ADDRESS":"仁安路８３巷４１號","OBJECTID":400195},"geometry":{"x":165594.05000000075,"y":2550214.1100000013}},{"attributes":{"ID":400220,"DIS_CODE":0,"TOWNNAME":"安南區","LI":"淵東里","LIN":"11鄰","STREET":"仁安路","SECT":" ","MAREA":" ","LANE":"８３巷","ALLEY":" ","HOUSE_NO":"４３號","E_COORD97":165591.69,"N_COORD97":2550218.3100000001,"ADDRESS":"仁安路８３巷４３號","OBJECTID":400196},"geometry":{"x":165591.69000000227,"y":2550218.3100000024}},{"attributes":{"ID":400221,"DIS_CODE":0,"TOWNNAME":"安南區","LI":"淵東里","LIN":"11鄰","STREET":"仁安路","SECT":" ","MAREA":" ","LANE":"８３巷","ALLEY":" ","HOUSE_NO":"４５號","E_COORD97":165589.85000000001,"N_COORD97":2550221.7200000002,"ADDRESS":"仁安路８３巷４５號","OBJECTID":400197},"geometry":{"x":165589.85000000149,"y":2550221.7200000025}},{"attributes":{"ID":400222,"DIS_CODE":0,"TOWNNAME":"安南區","LI":"淵東里","LIN":"11鄰","STREET":"仁安路","SECT":" ","MAREA":" ","LANE":"８３巷","ALLEY":" ","HOUSE_NO":"４７號","E_COORD97":165587.48000000001,"N_COORD97":2550225.9199999999,"ADDRESS":"仁安路８３巷４７號","OBJECTID":400198},"geometry":{"x":165587.48000000045,"y":2550225.9200000037}},{"attributes":{"ID":400223,"DIS_CODE":0,"TOWNNAME":"安南區","LI":"大安里","LIN":"11鄰","STREET":"大安街","SECT":" ","MAREA":" ","LANE":"２７８巷","ALLEY":" ","HOUSE_NO":"１０號","E_COORD97":167533.73000000001,"N_COORD97":2548434.8700000001,"ADDRESS":"大安街２７８巷１０號","OBJECTID":400199},"geometry":{"x":167533.73000000045,"y":2548434.8700000029}},{"attributes":{"ID":400224,"DIS_CODE":0,"TOWNNAME":"安南區","LI":"大安里","LIN":"11鄰","STREET":"大安街","SECT":" ","MAREA":" ","LANE":"２７８巷","ALLEY":" ","HOUSE_NO":"１１號","E_COORD97":167551.32000000001,"N_COORD97":2548450.6200000001,"ADDRESS":"大安街２７８巷１１號","OBJECTID":400200},"geometry":{"x":167551.3200000003,"y":2548450.6200000029}}]}