{"displayFieldName":"TOWNNAME","fieldAliases":{"ID":"ID","DIS_CODE":"DIS_CODE","TOWNNAME":"TOWNNAME","LI":"LI","LIN":"LIN","STREET":"STREET","SECT":"SECT","MAREA":"MAREA","LANE":"LANE","ALLEY":"ALLEY","HOUSE_NO":"HOUSE_NO","E_COORD97":"E_COORD97","N_COORD97":"N_COORD97","ADDRESS":"ADDRESS","OBJECTID":"OBJECTID"},"geometryType":"esriGeometryPoint","spatialReference":{"wkid":102443,"latestWkid":3826},"fields":[{"name":"ID","type":"esriFieldTypeDouble","alias":"ID"},{"name":"DIS_CODE","type":"esriFieldTypeInteger","alias":"DIS_CODE"},{"name":"TOWNNAME","type":"esriFieldTypeString","alias":"TOWNNAME","length":8},{"name":"LI","type":"esriFieldTypeString","alias":"LI","length":8},{"name":"LIN","type":"esriFieldTypeString","alias":"LIN","length":12},{"name":"STREET","type":"esriFieldTypeString","alias":"STREET","length":20},{"name":"SECT","type":"esriFieldTypeString","alias":"SECT","length":8},{"name":"MAREA","type":"esriFieldTypeString","alias":"MAREA","length":12},{"name":"LANE","type":"esriFieldTypeString","alias":"LANE","length":10},{"name":"ALLEY","type":"esriFieldTypeString","alias":"ALLEY","length":10},{"name":"HOUSE_NO","type":"esriFieldTypeString","alias":"HOUSE_NO","length":20},{"name":"E_COORD97","type":"esriFieldTypeDouble","alias":"E_COORD97"},{"name":"N_COORD97","type":"esriFieldTypeDouble","alias":"N_COORD97"},{"name":"ADDRESS","type":"esriFieldTypeString","alias":"ADDRESS","length":50},{"name":"OBJECTID","type":"esriFieldTypeOID","alias":"OBJECTID"}],"features":[{"attributes":{"ID":659028,"DIS_CODE":0,"TOWNNAME":"中西區","LI":"水仙里","LIN":"15鄰","STREET":"國華街","SECT":"三段","MAREA":" ","LANE":" ","ALLEY":" ","HOUSE_NO":"１２３之１５３號","E_COORD97":167824.461648,"N_COORD97":2544176.9177799998,"ADDRESS":"國華街三段１２３之１５３號","OBJECTID":659001},"geometry":{"x":167824.46164800134,"y":2544176.9177829996}},{"attributes":{"ID":659029,"DIS_CODE":0,"TOWNNAME":"北區","LI":"成德里","LIN":"12鄰","STREET":"育德二路","SECT":" ","MAREA":" ","LANE":"５５巷","ALLEY":"１７弄","HOUSE_NO":"５６號","E_COORD97":168111.51661699999,"N_COORD97":2545442.5772600002,"ADDRESS":"育德二路５５巷１７弄５６號","OBJECTID":659002},"geometry":{"x":168111.51661700103,"y":2545442.5772629995}},{"attributes":{"ID":659030,"DIS_CODE":0,"TOWNNAME":"中西區","LI":"水仙里","LIN":"15鄰","STREET":"國華街","SECT":"三段","MAREA":" ","LANE":" ","ALLEY":" ","HOUSE_NO":"１２３之１５４號","E_COORD97":167825.944754,"N_COORD97":2544180.0398599999,"ADDRESS":"國華街三段１２３之１５４號","OBJECTID":659003},"geometry":{"x":167825.94475399982,"y":2544180.0398640018}},{"attributes":{"ID":659031,"DIS_CODE":0,"TOWNNAME":"中西區","LI":"水仙里","LIN":"15鄰","STREET":"國華街","SECT":"三段","MAREA":" ","LANE":" ","ALLEY":" ","HOUSE_NO":"１２３之１５５號","E_COORD97":167826.89817900001,"N_COORD97":2544184.1673599998,"ADDRESS":"國華街三段１２３之１５５號","OBJECTID":659004},"geometry":{"x":167826.89817900211,"y":2544184.1673620027}},{"attributes":{"ID":659032,"DIS_CODE":0,"TOWNNAME":"新營區","LI":"三仙里","LIN":"17鄰","STREET":"三民路","SECT":" ","MAREA":" ","LANE":" ","ALLEY":" ","HOUSE_NO":"１１９之１號","E_COORD97":179459.23730000001,"N_COORD97":2578356.6013000002,"ADDRESS":"三民路１１９之１號","OBJECTID":659005},"geometry":{"x":179459.23730000015,"y":2578356.6013000011}},{"attributes":{"ID":659033,"DIS_CODE":0,"TOWNNAME":"中西區","LI":"水仙里","LIN":"15鄰","STREET":"國華街","SECT":"三段","MAREA":" ","LANE":" ","ALLEY":" ","HOUSE_NO":"１２３之１５５號","E_COORD97":167830.182199,"N_COORD97":2544186.8661099998,"ADDRESS":"國華街三段１２３之１５５號","OBJECTID":659006},"geometry":{"x":167830.18219900038,"y":2544186.866111001}},{"attributes":{"ID":659034,"DIS_CODE":0,"TOWNNAME":"善化區","LI":"六德里","LIN":"16鄰","STREET":" ","SECT":" ","MAREA":"六分寮","LANE":" ","ALLEY":" ","HOUSE_NO":"３３６號","E_COORD97":178227.88555499999,"N_COORD97":2561339.5085700001,"ADDRESS":"六分寮３３６號","OBJECTID":659007},"geometry":{"x":178227.88555500004,"y":2561339.5085729994}},{"attributes":{"ID":659035,"DIS_CODE":0,"TOWNNAME":"中西區","LI":"水仙里","LIN":"15鄰","STREET":"國華街","SECT":"三段","MAREA":" ","LANE":" ","ALLEY":" ","HOUSE_NO":"１２３之１５６號","E_COORD97":167830.39407099999,"N_COORD97":2544188.7711100001,"ADDRESS":"國華街三段１２３之１５６號","OBJECTID":659008},"geometry":{"x":167830.3940709997,"y":2544188.7711090017}},{"attributes":{"ID":659036,"DIS_CODE":0,"TOWNNAME":"中西區","LI":"水仙里","LIN":"15鄰","STREET":"國華街","SECT":"三段","MAREA":" ","LANE":" ","ALLEY":" ","HOUSE_NO":"１２３之１５７號","E_COORD97":167830.923752,"N_COORD97":2544190.6761099999,"ADDRESS":"國華街三段１２３之１５７號","OBJECTID":659009},"geometry":{"x":167830.92375199962,"y":2544190.6761080008}},{"attributes":{"ID":659037,"DIS_CODE":0,"TOWNNAME":"中西區","LI":"水仙里","LIN":"15鄰","STREET":"國華街","SECT":"三段","MAREA":" ","LANE":" ","ALLEY":" ","HOUSE_NO":"１２３之１５８號","E_COORD97":167831.665305,"N_COORD97":2544192.5811100001,"ADDRESS":"國華街三段１２３之１５８號","OBJECTID":659010},"geometry":{"x":167831.66530500166,"y":2544192.5811069999}},{"attributes":{"ID":659038,"DIS_CODE":0,"TOWNNAME":"新化區","LI":"豐榮里","LIN":"1鄰","STREET":"中山路","SECT":" ","MAREA":" ","LANE":" ","ALLEY":" ","HOUSE_NO":"６３５號之１","E_COORD97":178188.87194400001,"N_COORD97":2548501.6814600001,"ADDRESS":"中山路６３５號之１","OBJECTID":659011},"geometry":{"x":178188.87194400094,"y":2548501.6814570017}},{"attributes":{"ID":659039,"DIS_CODE":0,"TOWNNAME":"中西區","LI":"水仙里","LIN":"15鄰","STREET":"國華街","SECT":"三段","MAREA":" ","LANE":" ","ALLEY":" ","HOUSE_NO":"１２３之１５９號","E_COORD97":167832.30092199999,"N_COORD97":2544193.6394400001,"ADDRESS":"國華街三段１２３之１５９號","OBJECTID":659012},"geometry":{"x":167832.30092199985,"y":2544193.6394400038}},{"attributes":{"ID":659040,"DIS_CODE":0,"TOWNNAME":"善化區","LI":"六德里","LIN":"6鄰","STREET":" ","SECT":" ","MAREA":"六分寮","LANE":" ","ALLEY":" ","HOUSE_NO":"２４９號","E_COORD97":178830.99043500001,"N_COORD97":2561633.5134100001,"ADDRESS":"六分寮２４９號","OBJECTID":659013},"geometry":{"x":178830.99043500144,"y":2561633.5134139992}},{"attributes":{"ID":659041,"DIS_CODE":0,"TOWNNAME":"中西區","LI":"水仙里","LIN":"15鄰","STREET":"國華街","SECT":"三段","MAREA":" ","LANE":" ","ALLEY":" ","HOUSE_NO":"１２３之１６０號","E_COORD97":167833.148411,"N_COORD97":2544195.3327700002,"ADDRESS":"國華街三段１２３之１６０號","OBJECTID":659014},"geometry":{"x":167833.14841100015,"y":2544195.3327730019}},{"attributes":{"ID":659042,"DIS_CODE":0,"TOWNNAME":"北區","LI":"文元里","LIN":"23鄰","STREET":"文賢三街","SECT":" ","MAREA":" ","LANE":"３２０巷","ALLEY":"２３弄","HOUSE_NO":"１號","E_COORD97":167847.76328399999,"N_COORD97":2546355.70677,"ADDRESS":"文賢三街３２０巷２３弄１號","OBJECTID":659015},"geometry":{"x":167847.76328399871,"y":2546355.7067700028}},{"attributes":{"ID":659043,"DIS_CODE":0,"TOWNNAME":"北區","LI":"文元里","LIN":"23鄰","STREET":"文賢三街","SECT":" ","MAREA":" ","LANE":"３２０巷","ALLEY":"２３弄","HOUSE_NO":"３號","E_COORD97":167847.55143399999,"N_COORD97":2546360.36344,"ADDRESS":"文賢三街３２０巷２３弄３號","OBJECTID":659016},"geometry":{"x":167847.55143400002,"y":2546360.363435002}},{"attributes":{"ID":659044,"DIS_CODE":0,"TOWNNAME":"中西區","LI":"水仙里","LIN":"15鄰","STREET":"國華街","SECT":"三段","MAREA":" ","LANE":" ","ALLEY":" ","HOUSE_NO":"１２３之１６１號","E_COORD97":167843.95389599999,"N_COORD97":2544220.8385899998,"ADDRESS":"國華街三段１２３之１６１號","OBJECTID":659017},"geometry":{"x":167843.95389600098,"y":2544220.8385920022}},{"attributes":{"ID":659045,"DIS_CODE":0,"TOWNNAME":"北區","LI":"文元里","LIN":"23鄰","STREET":"文賢三街","SECT":" ","MAREA":" ","LANE":"３２０巷","ALLEY":"２３弄","HOUSE_NO":"５號","E_COORD97":167847.339584,"N_COORD97":2546364.5967700002,"ADDRESS":"文賢三街３２０巷２３弄５號","OBJECTID":659018},"geometry":{"x":167847.33958400041,"y":2546364.5967660006}},{"attributes":{"ID":659046,"DIS_CODE":0,"TOWNNAME":"新化區","LI":"豐榮里","LIN":"5鄰","STREET":" ","SECT":" ","MAREA":"洋子","LANE":" ","ALLEY":" ","HOUSE_NO":"８８號之２","E_COORD97":177834.80677600001,"N_COORD97":2548327.0565499999,"ADDRESS":"洋子８８號之２","OBJECTID":659019},"geometry":{"x":177834.80677600019,"y":2548327.0565510001}},{"attributes":{"ID":659047,"DIS_CODE":0,"TOWNNAME":"中西區","LI":"水仙里","LIN":"15鄰","STREET":"國華街","SECT":"三段","MAREA":" ","LANE":" ","ALLEY":" ","HOUSE_NO":"１２３之１６２號","E_COORD97":167843.742023,"N_COORD97":2544223.6960900002,"ADDRESS":"國華街三段１２３之１６２號","OBJECTID":659020},"geometry":{"x":167843.74202299956,"y":2544223.696091}},{"attributes":{"ID":659048,"DIS_CODE":0,"TOWNNAME":"北區","LI":"文元里","LIN":"23鄰","STREET":"文賢三街","SECT":" ","MAREA":" ","LANE":"３２０巷","ALLEY":"２３弄","HOUSE_NO":"７號","E_COORD97":167847.12773400001,"N_COORD97":2546368.8300999999,"ADDRESS":"文賢三街３２０巷２３弄７號","OBJECTID":659021},"geometry":{"x":167847.12773400079,"y":2546368.8300970029}},{"attributes":{"ID":659049,"DIS_CODE":0,"TOWNNAME":"新營區","LI":"三仙里","LIN":"17鄰","STREET":"三民路","SECT":" ","MAREA":" ","LANE":" ","ALLEY":" ","HOUSE_NO":"１１９之２號","E_COORD97":179455.00237,"N_COORD97":2578354.0613099998,"ADDRESS":"三民路１１９之２號","OBJECTID":659022},"geometry":{"x":179455.00237000082,"y":2578354.0613070019}},{"attributes":{"ID":659050,"DIS_CODE":0,"TOWNNAME":"中西區","LI":"水仙里","LIN":"15鄰","STREET":"國華街","SECT":"三段","MAREA":" ","LANE":" ","ALLEY":" ","HOUSE_NO":"１２３之１６３號","E_COORD97":167844.90732100001,"N_COORD97":2544227.1885899999,"ADDRESS":"國華街三段１２３之１６３號","OBJECTID":659023},"geometry":{"x":167844.90732100047,"y":2544227.1885890011}},{"attributes":{"ID":659051,"DIS_CODE":0,"TOWNNAME":"北區","LI":"文元里","LIN":"23鄰","STREET":"文賢三街","SECT":" ","MAREA":" ","LANE":"３２０巷","ALLEY":"２３弄","HOUSE_NO":"２號","E_COORD97":167864.92314,"N_COORD97":2546355.4950999999,"ADDRESS":"文賢三街３２０巷２３弄２號","OBJECTID":659024},"geometry":{"x":167864.92313999962,"y":2546355.495104}},{"attributes":{"ID":659052,"DIS_CODE":0,"TOWNNAME":"北區","LI":"文元里","LIN":"23鄰","STREET":"文賢三街","SECT":" ","MAREA":" ","LANE":"３２０巷","ALLEY":"２３弄","HOUSE_NO":"６號","E_COORD97":167864.711289,"N_COORD97":2546360.1517699999,"ADDRESS":"文賢三街３２０巷２３弄６號","OBJECTID":659025},"geometry":{"x":167864.7112890007,"y":2546360.1517680008}},{"attributes":{"ID":659053,"DIS_CODE":0,"TOWNNAME":"善化區","LI":"六德里","LIN":"8鄰","STREET":" ","SECT":" ","MAREA":"六分寮","LANE":" ","ALLEY":" ","HOUSE_NO":"２６４號","E_COORD97":178676.50573500001,"N_COORD97":2561545.8834600002,"ADDRESS":"六分寮２６４號","OBJECTID":659026},"geometry":{"x":178676.5057350006,"y":2561545.8834610004}},{"attributes":{"ID":659054,"DIS_CODE":0,"TOWNNAME":"中西區","LI":"水仙里","LIN":"15鄰","STREET":"國華街","SECT":"三段","MAREA":" ","LANE":" ","ALLEY":" ","HOUSE_NO":"１２３之１６４號","E_COORD97":167846.17855400001,"N_COORD97":2544230.0460899998,"ADDRESS":"國華街三段１２３之１６４號","OBJECTID":659027},"geometry":{"x":167846.17855400033,"y":2544230.0460870024}},{"attributes":{"ID":659055,"DIS_CODE":0,"TOWNNAME":"北區","LI":"文元里","LIN":"23鄰","STREET":"文賢三街","SECT":" ","MAREA":" ","LANE":"３２０巷","ALLEY":"２３弄","HOUSE_NO":"８號","E_COORD97":167864.07573899999,"N_COORD97":2546364.3851000001,"ADDRESS":"文賢三街３２０巷２３弄８號","OBJECTID":659028},"geometry":{"x":167864.07573900092,"y":2546364.3850989994}},{"attributes":{"ID":659056,"DIS_CODE":0,"TOWNNAME":"中西區","LI":"水仙里","LIN":"15鄰","STREET":"國華街","SECT":"三段","MAREA":" ","LANE":" ","ALLEY":" ","HOUSE_NO":"１２３之１６５號","E_COORD97":167846.708235,"N_COORD97":2544231.6335900002,"ADDRESS":"國華街三段１２３之１６５號","OBJECTID":659029},"geometry":{"x":167846.70823500026,"y":2544231.6335860007}},{"attributes":{"ID":659057,"DIS_CODE":0,"TOWNNAME":"北區","LI":"文元里","LIN":"23鄰","STREET":"文賢三街","SECT":" ","MAREA":" ","LANE":"３２０巷","ALLEY":"２３弄","HOUSE_NO":"１０號","E_COORD97":167862.80463900001,"N_COORD97":2546368.8300999999,"ADDRESS":"文賢三街３２０巷２３弄１０號","OBJECTID":659030},"geometry":{"x":167862.80463900045,"y":2546368.8300970029}},{"attributes":{"ID":659058,"DIS_CODE":0,"TOWNNAME":"中西區","LI":"水仙里","LIN":"15鄰","STREET":"國華街","SECT":"三段","MAREA":" ","LANE":" ","ALLEY":" ","HOUSE_NO":"１２３之１６６號","E_COORD97":167847.87353300001,"N_COORD97":2544234.3852499998,"ADDRESS":"國華街三段１２３之１６６號","OBJECTID":659031},"geometry":{"x":167847.87353300024,"y":2544234.3852520008}},{"attributes":{"ID":659059,"DIS_CODE":0,"TOWNNAME":"善化區","LI":"六德里","LIN":"12鄰","STREET":" ","SECT":" ","MAREA":"六分寮","LANE":" ","ALLEY":" ","HOUSE_NO":"３０２號之１","E_COORD97":178532.19286000001,"N_COORD97":2561614.67509,"ADDRESS":"六分寮３０２號之１","OBJECTID":659032},"geometry":{"x":178532.19286000077,"y":2561614.67509}},{"attributes":{"ID":659060,"DIS_CODE":0,"TOWNNAME":"新化區","LI":"豐榮里","LIN":"7鄰","STREET":" ","SECT":" ","MAREA":"洋子","LANE":" ","ALLEY":" ","HOUSE_NO":"１６０號之３","E_COORD97":177950.92150500001,"N_COORD97":2548065.8600300001,"ADDRESS":"洋子１６０號之３","OBJECTID":659033},"geometry":{"x":177950.92150500137,"y":2548065.8600260019}},{"attributes":{"ID":659061,"DIS_CODE":0,"TOWNNAME":"中西區","LI":"水仙里","LIN":"15鄰","STREET":"國華街","SECT":"三段","MAREA":" ","LANE":" ","ALLEY":" ","HOUSE_NO":"１２３之１６７號","E_COORD97":167849.88631900001,"N_COORD97":2544237.6660799999,"ADDRESS":"國華街三段１２３之１６７號","OBJECTID":659034},"geometry":{"x":167849.88631900214,"y":2544237.6660830025}},{"attributes":{"ID":659062,"DIS_CODE":0,"TOWNNAME":"中西區","LI":"水仙里","LIN":"15鄰","STREET":"國華街","SECT":"三段","MAREA":" ","LANE":" ","ALLEY":" ","HOUSE_NO":"１２３之１６８號","E_COORD97":167849.462574,"N_COORD97":2544239.88858,"ADDRESS":"國華街三段１２３之１６８號","OBJECTID":659035},"geometry":{"x":167849.46257400047,"y":2544239.8885820024}},{"attributes":{"ID":659063,"DIS_CODE":0,"TOWNNAME":"中西區","LI":"水仙里","LIN":"15鄰","STREET":"國華街","SECT":"三段","MAREA":" ","LANE":" ","ALLEY":" ","HOUSE_NO":"１２３之１６９號","E_COORD97":167850.73380799999,"N_COORD97":2544243.5927499998,"ADDRESS":"國華街三段１２３之１６９號","OBJECTID":659036},"geometry":{"x":167850.73380799964,"y":2544243.592747001}},{"attributes":{"ID":659064,"DIS_CODE":0,"TOWNNAME":"中西區","LI":"水仙里","LIN":"15鄰","STREET":"國華街","SECT":"三段","MAREA":" ","LANE":" ","ALLEY":" ","HOUSE_NO":"１２３之１７０號","E_COORD97":167853.064403,"N_COORD97":2544246.8735799999,"ADDRESS":"國華街三段１２３之１７０號","OBJECTID":659037},"geometry":{"x":167853.06440300122,"y":2544246.8735780027}},{"attributes":{"ID":659065,"DIS_CODE":0,"TOWNNAME":"中西區","LI":"水仙里","LIN":"15鄰","STREET":"國華街","SECT":"三段","MAREA":" ","LANE":" ","ALLEY":" ","HOUSE_NO":"１２３之１７１號","E_COORD97":167854.86531699999,"N_COORD97":2544250.5777400001,"ADDRESS":"國華街三段１２３之１７１號","OBJECTID":659038},"geometry":{"x":167854.86531700101,"y":2544250.5777430013}},{"attributes":{"ID":659066,"DIS_CODE":0,"TOWNNAME":"善化區","LI":"六德里","LIN":"12鄰","STREET":" ","SECT":" ","MAREA":"六分寮","LANE":" ","ALLEY":" ","HOUSE_NO":"２９７號之１０","E_COORD97":178405.46879000001,"N_COORD97":2561508.63014,"ADDRESS":"六分寮２９７號之１０","OBJECTID":659039},"geometry":{"x":178405.46879000124,"y":2561508.630140001}},{"attributes":{"ID":659067,"DIS_CODE":0,"TOWNNAME":"中西區","LI":"水仙里","LIN":"15鄰","STREET":"國華街","SECT":"三段","MAREA":" ","LANE":" ","ALLEY":" ","HOUSE_NO":"１２３之１７２號","E_COORD97":167855.289062,"N_COORD97":2544253.7527399999,"ADDRESS":"國華街三段１２３之１７２號","OBJECTID":659040},"geometry":{"x":167855.28906199988,"y":2544253.7527409997}},{"attributes":{"ID":659068,"DIS_CODE":0,"TOWNNAME":"新營區","LI":"三仙里","LIN":"14鄰","STREET":"中華路","SECT":" ","MAREA":" ","LANE":" ","ALLEY":" ","HOUSE_NO":"６２之７號","E_COORD97":179553.51745099999,"N_COORD97":2578222.2988800001,"ADDRESS":"中華路６２之７號","OBJECTID":659041},"geometry":{"x":179553.51745100133,"y":2578222.2988779992}},{"attributes":{"ID":659069,"DIS_CODE":0,"TOWNNAME":"中西區","LI":"水仙里","LIN":"15鄰","STREET":"國華街","SECT":"三段","MAREA":" ","LANE":" ","ALLEY":" ","HOUSE_NO":"１２３之１７３號","E_COORD97":167856.560295,"N_COORD97":2544257.03357,"ADDRESS":"國華街三段１２３之１７３號","OBJECTID":659042},"geometry":{"x":167856.56029499974,"y":2544257.0335729998}},{"attributes":{"ID":659070,"DIS_CODE":0,"TOWNNAME":"北區","LI":"成德里","LIN":"13鄰","STREET":"立賢路","SECT":"一段","MAREA":" ","LANE":"６５０巷","ALLEY":" ","HOUSE_NO":"６０號","E_COORD97":168297.09727,"N_COORD97":2545671.6004699999,"ADDRESS":"立賢路一段６５０巷６０號","OBJECTID":659043},"geometry":{"x":168297.09726999979,"y":2545671.6004700027}},{"attributes":{"ID":659071,"DIS_CODE":0,"TOWNNAME":"北區","LI":"成德里","LIN":"13鄰","STREET":"立賢路","SECT":"一段","MAREA":" ","LANE":"６５０巷","ALLEY":" ","HOUSE_NO":"６２號","E_COORD97":168297.30911999999,"N_COORD97":2545677.95047,"ADDRESS":"立賢路一段６５０巷６２號","OBJECTID":659044},"geometry":{"x":168297.30912000127,"y":2545677.9504700024}},{"attributes":{"ID":659072,"DIS_CODE":0,"TOWNNAME":"北區","LI":"成德里","LIN":"13鄰","STREET":"立賢路","SECT":"一段","MAREA":" ","LANE":"６５０巷","ALLEY":" ","HOUSE_NO":"６６號","E_COORD97":168297.52097000001,"N_COORD97":2545683.2421300001,"ADDRESS":"立賢路一段６５０巷６６號","OBJECTID":659045},"geometry":{"x":168297.52097000089,"y":2545683.242130002}},{"attributes":{"ID":659073,"DIS_CODE":0,"TOWNNAME":"善化區","LI":"六德里","LIN":"15鄰","STREET":" ","SECT":" ","MAREA":"六分寮","LANE":" ","ALLEY":" ","HOUSE_NO":"３２１號之１１","E_COORD97":178526.47120999999,"N_COORD97":2561500.3751500002,"ADDRESS":"六分寮３２１號之１１","OBJECTID":659046},"geometry":{"x":178526.47121000011,"y":2561500.3751500025}},{"attributes":{"ID":659074,"DIS_CODE":0,"TOWNNAME":"歸仁區","LI":"歸仁里","LIN":"16鄰","STREET":"信義北路","SECT":" ","MAREA":" ","LANE":" ","ALLEY":" ","HOUSE_NO":"７６之１號","E_COORD97":178018.78487100001,"N_COORD97":2540946.4371199999,"ADDRESS":"信義北路７６之１號","OBJECTID":659047},"geometry":{"x":178018.7848710008,"y":2540946.4371210001}},{"attributes":{"ID":659075,"DIS_CODE":0,"TOWNNAME":"新化區","LI":"豐榮里","LIN":"5鄰","STREET":" ","SECT":" ","MAREA":"洋子","LANE":" ","ALLEY":" ","HOUSE_NO":"１２１號之１","E_COORD97":177856.20748300001,"N_COORD97":2548224.3982699998,"ADDRESS":"洋子１２１號之１","OBJECTID":659048},"geometry":{"x":177856.20748300198,"y":2548224.3982740007}},{"attributes":{"ID":659076,"DIS_CODE":0,"TOWNNAME":"新化區","LI":"豐榮里","LIN":"6鄰","STREET":" ","SECT":" ","MAREA":"洋子","LANE":" ","ALLEY":" ","HOUSE_NO":"１５１號之９","E_COORD97":177779.927734,"N_COORD97":2548153.9133100002,"ADDRESS":"洋子１５１號之９","OBJECTID":659049},"geometry":{"x":177779.92773399968,"y":2548153.9133119993}},{"attributes":{"ID":659077,"DIS_CODE":0,"TOWNNAME":"新化區","LI":"東榮里","LIN":"30鄰","STREET":"護安街","SECT":" ","MAREA":" ","LANE":" ","ALLEY":" ","HOUSE_NO":"１４號","E_COORD97":179250.02270500001,"N_COORD97":2548277.6811700002,"ADDRESS":"護安街１４號","OBJECTID":659050},"geometry":{"x":179250.02270499989,"y":2548277.6811730023}},{"attributes":{"ID":659078,"DIS_CODE":0,"TOWNNAME":"新化區","LI":"豐榮里","LIN":"6鄰","STREET":" ","SECT":" ","MAREA":"洋子","LANE":" ","ALLEY":" ","HOUSE_NO":"１５１號之１２","E_COORD97":177639.657752,"N_COORD97":2548267.7899199999,"ADDRESS":"洋子１５１號之１２","OBJECTID":659051},"geometry":{"x":177639.65775200073,"y":2548267.7899169996}},{"attributes":{"ID":659079,"DIS_CODE":0,"TOWNNAME":"新化區","LI":"豐榮里","LIN":"6鄰","STREET":" ","SECT":" ","MAREA":"洋子","LANE":" ","ALLEY":" ","HOUSE_NO":"１５１號之１０","E_COORD97":177763.400455,"N_COORD97":2547985.0033999998,"ADDRESS":"洋子１５１號之１０","OBJECTID":659052},"geometry":{"x":177763.40045500174,"y":2547985.0034030005}},{"attributes":{"ID":659080,"DIS_CODE":0,"TOWNNAME":"新化區","LI":"豐榮里","LIN":"4鄰","STREET":"中山路","SECT":" ","MAREA":" ","LANE":" ","ALLEY":" ","HOUSE_NO":"６９３號之９","E_COORD97":177976.70035500001,"N_COORD97":2548456.4895299999,"ADDRESS":"中山路６９３號之９","OBJECTID":659053},"geometry":{"x":177976.70035500079,"y":2548456.4895320013}},{"attributes":{"ID":659081,"DIS_CODE":0,"TOWNNAME":"新化區","LI":"豐榮里","LIN":"6鄰","STREET":" ","SECT":" ","MAREA":"洋子","LANE":" ","ALLEY":" ","HOUSE_NO":"１４１號之１","E_COORD97":177849.85083800001,"N_COORD97":2548133.8049900001,"ADDRESS":"洋子１４１號之１","OBJECTID":659054},"geometry":{"x":177849.85083799995,"y":2548133.8049890008}},{"attributes":{"ID":659082,"DIS_CODE":0,"TOWNNAME":"新化區","LI":"豐榮里","LIN":"4鄰","STREET":" ","SECT":" ","MAREA":"洋子","LANE":" ","ALLEY":" ","HOUSE_NO":"７６號之２","E_COORD97":178007.28376399999,"N_COORD97":2548251.91493,"ADDRESS":"洋子７６號之２","OBJECTID":659055},"geometry":{"x":178007.28376400005,"y":2548251.9149250034}},{"attributes":{"ID":659083,"DIS_CODE":0,"TOWNNAME":"新化區","LI":"豐榮里","LIN":"3鄰","STREET":" ","SECT":" ","MAREA":"洋子","LANE":" ","ALLEY":" ","HOUSE_NO":"４７號之１","E_COORD97":178058.05744500001,"N_COORD97":2548201.5371699999,"ADDRESS":"洋子４７號之１","OBJECTID":659056},"geometry":{"x":178058.05744500179,"y":2548201.537169002}},{"attributes":{"ID":659084,"DIS_CODE":0,"TOWNNAME":"新化區","LI":"豐榮里","LIN":"5鄰","STREET":" ","SECT":" ","MAREA":"洋子","LANE":" ","ALLEY":" ","HOUSE_NO":"８８號之６","E_COORD97":177827.81446600001,"N_COORD97":2548390.9798499998,"ADDRESS":"洋子８８號之６","OBJECTID":659057},"geometry":{"x":177827.8144659996,"y":2548390.9798500016}},{"attributes":{"ID":659085,"DIS_CODE":0,"TOWNNAME":"新化區","LI":"東榮里","LIN":"3鄰","STREET":"中興路","SECT":" ","MAREA":" ","LANE":"４２巷","ALLEY":" ","HOUSE_NO":"３６號","E_COORD97":181953.61092000001,"N_COORD97":2547429.9566299999,"ADDRESS":"中興路４２巷３６號","OBJECTID":659058},"geometry":{"x":181953.61092000082,"y":2547429.9566310029}},{"attributes":{"ID":659086,"DIS_CODE":0,"TOWNNAME":"新化區","LI":"東榮里","LIN":"11鄰","STREET":"中興路","SECT":" ","MAREA":" ","LANE":" ","ALLEY":" ","HOUSE_NO":"５１７號之１","E_COORD97":180074.15302100001,"N_COORD97":2547812.6497599999,"ADDRESS":"中興路５１７號之１","OBJECTID":659059},"geometry":{"x":180074.15302099939,"y":2547812.6497579981}},{"attributes":{"ID":659087,"DIS_CODE":0,"TOWNNAME":"新化區","LI":"豐榮里","LIN":"12鄰","STREET":"正新路","SECT":" ","MAREA":" ","LANE":"９５巷","ALLEY":" ","HOUSE_NO":"２５號之２","E_COORD97":178554.59096,"N_COORD97":2548000.5608899998,"ADDRESS":"民治路９５巷２５號之２","OBJECTID":659060},"geometry":{"x":178554.59095999971,"y":2548000.5608900003}},{"attributes":{"ID":659088,"DIS_CODE":0,"TOWNNAME":"新化區","LI":"豐榮里","LIN":"7鄰","STREET":" ","SECT":" ","MAREA":"洋子","LANE":" ","ALLEY":" ","HOUSE_NO":"１６０號之１６","E_COORD97":177974.22920599999,"N_COORD97":2548111.0508300001,"ADDRESS":"洋子１６０號之１６","OBJECTID":659061},"geometry":{"x":177974.22920599952,"y":2548111.0508350004}},{"attributes":{"ID":659089,"DIS_CODE":0,"TOWNNAME":"善化區","LI":"光文里","LIN":"27鄰","STREET":"中山路","SECT":" ","MAREA":" ","LANE":" ","ALLEY":" ","HOUSE_NO":"２８６號","E_COORD97":177864.72910299999,"N_COORD97":2559089.91181,"ADDRESS":"中山路２８６號","OBJECTID":659062},"geometry":{"x":177864.72910300083,"y":2559089.911812}},{"attributes":{"ID":659090,"DIS_CODE":0,"TOWNNAME":"善化區","LI":"光文里","LIN":"5鄰","STREET":" ","SECT":" ","MAREA":"北子店","LANE":" ","ALLEY":" ","HOUSE_NO":"２６７號","E_COORD97":179099.11118099999,"N_COORD97":2559608.9182000002,"ADDRESS":"北子店２６７號","OBJECTID":659063},"geometry":{"x":179099.11118100118,"y":2559608.9181980044}},{"attributes":{"ID":659091,"DIS_CODE":0,"TOWNNAME":"善化區","LI":"光文里","LIN":"29鄰","STREET":"中正路","SECT":" ","MAREA":" ","LANE":" ","ALLEY":" ","HOUSE_NO":"５６０號","E_COORD97":177670.91670900001,"N_COORD97":2559313.4581499998,"ADDRESS":"中正路５６０號","OBJECTID":659064},"geometry":{"x":177670.91670900118,"y":2559313.4581499994}},{"attributes":{"ID":659092,"DIS_CODE":0,"TOWNNAME":"善化區","LI":"光文里","LIN":"7鄰","STREET":"建業路","SECT":" ","MAREA":" ","LANE":" ","ALLEY":" ","HOUSE_NO":"５０號","E_COORD97":178928.39313099999,"N_COORD97":2559622.5971499998,"ADDRESS":"建業路５０號","OBJECTID":659065},"geometry":{"x":178928.39313099999,"y":2559622.5971489996}},{"attributes":{"ID":659093,"DIS_CODE":0,"TOWNNAME":"善化區","LI":"光文里","LIN":"4鄰","STREET":" ","SECT":" ","MAREA":"北子店","LANE":" ","ALLEY":" ","HOUSE_NO":"１６４號","E_COORD97":179408.377194,"N_COORD97":2559637.38735,"ADDRESS":"北子店１６４號","OBJECTID":659066},"geometry":{"x":179408.37719400041,"y":2559637.3873500023}},{"attributes":{"ID":659094,"DIS_CODE":0,"TOWNNAME":"善化區","LI":"嘉南里","LIN":"1鄰","STREET":" ","SECT":" ","MAREA":"茄拔","LANE":" ","ALLEY":" ","HOUSE_NO":"５４號","E_COORD97":181087.76159800001,"N_COORD97":2559585.85629,"ADDRESS":"茄拔５４號","OBJECTID":659067},"geometry":{"x":181087.76159800123,"y":2559585.8562870007}},{"attributes":{"ID":659095,"DIS_CODE":0,"TOWNNAME":"善化區","LI":"嘉南里","LIN":"1鄰","STREET":" ","SECT":" ","MAREA":"茄拔","LANE":" ","ALLEY":" ","HOUSE_NO":"５７號","E_COORD97":181083.09950800001,"N_COORD97":2559517.2763200002,"ADDRESS":"茄拔５７號","OBJECTID":659068},"geometry":{"x":181083.09950799961,"y":2559517.2763240021}},{"attributes":{"ID":659096,"DIS_CODE":0,"TOWNNAME":"新化區","LI":"豐榮里","LIN":"2鄰","STREET":"大智路","SECT":" ","MAREA":" ","LANE":" ","ALLEY":" ","HOUSE_NO":"１０１號之１","E_COORD97":178181.23166300001,"N_COORD97":2548210.1924999999,"ADDRESS":"大智路１０１號之１","OBJECTID":659069},"geometry":{"x":178181.23166299984,"y":2548210.1924990024}},{"attributes":{"ID":659097,"DIS_CODE":0,"TOWNNAME":"新化區","LI":"豐榮里","LIN":"13鄰","STREET":"民治路","SECT":" ","MAREA":" ","LANE":" ","ALLEY":" ","HOUSE_NO":"２５號之１","E_COORD97":178721.822158,"N_COORD97":2548034.0859300001,"ADDRESS":"民治路２５號之１","OBJECTID":659070},"geometry":{"x":178721.82215800136,"y":2548034.0859280042}},{"attributes":{"ID":659098,"DIS_CODE":0,"TOWNNAME":"新化區","LI":"清水里","LIN":"8鄰","STREET":"民權街","SECT":" ","MAREA":" ","LANE":" ","ALLEY":" ","HOUSE_NO":"８１號之１","E_COORD97":178740.258604,"N_COORD97":2548626.9639400002,"ADDRESS":"民權街８１號之１","OBJECTID":659071},"geometry":{"x":178740.25860400219,"y":2548626.9639410004}},{"attributes":{"ID":659099,"DIS_CODE":0,"TOWNNAME":"北區","LI":"力行里","LIN":"14鄰","STREET":"力行三街","SECT":" ","MAREA":" ","LANE":"６巷","ALLEY":" ","HOUSE_NO":"１３號","E_COORD97":171034.07909099999,"N_COORD97":2545357.4873100002,"ADDRESS":"力行三街６巷１３號","OBJECTID":659072},"geometry":{"x":171034.0790910013,"y":2545357.4873090014}},{"attributes":{"ID":659100,"DIS_CODE":0,"TOWNNAME":"善化區","LI":"嘉南里","LIN":"3鄰","STREET":" ","SECT":" ","MAREA":"茄拔","LANE":" ","ALLEY":" ","HOUSE_NO":"７１號","E_COORD97":180925.43611000001,"N_COORD97":2559373.1313999998,"ADDRESS":"茄拔７１號","OBJECTID":659073},"geometry":{"x":180925.43611000013,"y":2559373.1314020008}},{"attributes":{"ID":659101,"DIS_CODE":0,"TOWNNAME":"善化區","LI":"嘉南里","LIN":"4鄰","STREET":" ","SECT":" ","MAREA":"茄拔","LANE":" ","ALLEY":" ","HOUSE_NO":"８６號","E_COORD97":180991.55301900001,"N_COORD97":2559449.7546899999,"ADDRESS":"茄拔８６號","OBJECTID":659074},"geometry":{"x":180991.55301900022,"y":2559449.7546939999}},{"attributes":{"ID":659102,"DIS_CODE":0,"TOWNNAME":"善化區","LI":"嘉南里","LIN":"7鄰","STREET":" ","SECT":" ","MAREA":"茄拔","LANE":" ","ALLEY":" ","HOUSE_NO":"１０５號","E_COORD97":181063.391584,"N_COORD97":2559538.6546499999,"ADDRESS":"茄拔１０５號","OBJECTID":659075},"geometry":{"x":181063.39158399962,"y":2559538.6546460018}},{"attributes":{"ID":659103,"DIS_CODE":0,"TOWNNAME":"善化區","LI":"嘉南里","LIN":"8鄰","STREET":" ","SECT":" ","MAREA":"茄拔","LANE":" ","ALLEY":" ","HOUSE_NO":"１２２號","E_COORD97":180953.938432,"N_COORD97":2559565.4833800001,"ADDRESS":"茄拔１２２號","OBJECTID":659076},"geometry":{"x":180953.93843200058,"y":2559565.4833820015}},{"attributes":{"ID":659104,"DIS_CODE":0,"TOWNNAME":"善化區","LI":"嘉南里","LIN":"10鄰","STREET":" ","SECT":" ","MAREA":"茄拔","LANE":" ","ALLEY":" ","HOUSE_NO":"１３７號","E_COORD97":181027.04847499999,"N_COORD97":2559623.4800200001,"ADDRESS":"茄拔１３７號","OBJECTID":659077},"geometry":{"x":181027.04847500008,"y":2559623.4800170008}},{"attributes":{"ID":659105,"DIS_CODE":0,"TOWNNAME":"善化區","LI":"嘉南里","LIN":"10鄰","STREET":" ","SECT":" ","MAREA":"茄拔","LANE":" ","ALLEY":" ","HOUSE_NO":"１３９號","E_COORD97":181023.65786400001,"N_COORD97":2559643.8000099999,"ADDRESS":"茄拔１３９號","OBJECTID":659078},"geometry":{"x":181023.65786400065,"y":2559643.8000060022}},{"attributes":{"ID":659106,"DIS_CODE":0,"TOWNNAME":"善化區","LI":"東昌里","LIN":"2鄰","STREET":" ","SECT":" ","MAREA":"東勢寮","LANE":" ","ALLEY":" ","HOUSE_NO":"２０之６號","E_COORD97":180851.69054000001,"N_COORD97":2561911.66542,"ADDRESS":"東勢寮２０之６號","OBJECTID":659079},"geometry":{"x":180851.6905400008,"y":2561911.6654200014}},{"attributes":{"ID":659107,"DIS_CODE":0,"TOWNNAME":"歸仁區","LI":"西埔里","LIN":"2鄰","STREET":"西埔三街","SECT":" ","MAREA":" ","LANE":" ","ALLEY":" ","HOUSE_NO":"５７號","E_COORD97":176794.877943,"N_COORD97":2543983.3536499999,"ADDRESS":"西埔三街５７號","OBJECTID":659080},"geometry":{"x":176794.87794300076,"y":2543983.3536479976}},{"attributes":{"ID":659108,"DIS_CODE":0,"TOWNNAME":"新化區","LI":"豐榮里","LIN":"13鄰","STREET":"民治路","SECT":" ","MAREA":" ","LANE":" ","ALLEY":" ","HOUSE_NO":"８５號","E_COORD97":178685.618001,"N_COORD97":2548202.5724999998,"ADDRESS":"民治路８５號","OBJECTID":659081},"geometry":{"x":178685.61800100096,"y":2548202.5725039989}},{"attributes":{"ID":659109,"DIS_CODE":0,"TOWNNAME":"歸仁區","LI":"大潭里","LIN":"9鄰","STREET":"長榮路","SECT":"一段","MAREA":" ","LANE":"４３１巷","ALLEY":" ","HOUSE_NO":"２０號","E_COORD97":175580.87128399999,"N_COORD97":2534527.1441899999,"ADDRESS":"長榮路一段４３１巷２０號","OBJECTID":659082},"geometry":{"x":175580.87128399871,"y":2534527.1441890039}},{"attributes":{"ID":659110,"DIS_CODE":0,"TOWNNAME":"善化區","LI":"嘉南里","LIN":"12鄰","STREET":" ","SECT":" ","MAREA":"茄拔","LANE":" ","ALLEY":" ","HOUSE_NO":"３１３號","E_COORD97":180907.03266,"N_COORD97":2559597.07461,"ADDRESS":"茄拔３１３號","OBJECTID":659083},"geometry":{"x":180907.03266000003,"y":2559597.0746150017}},{"attributes":{"ID":659111,"DIS_CODE":0,"TOWNNAME":"善化區","LI":"嘉南里","LIN":"13鄰","STREET":" ","SECT":" ","MAREA":"茄拔","LANE":" ","ALLEY":" ","HOUSE_NO":"３１９號","E_COORD97":180802.983293,"N_COORD97":2559570.4046299998,"ADDRESS":"茄拔３１９號","OBJECTID":659084},"geometry":{"x":180802.98329300061,"y":2559570.4046290014}},{"attributes":{"ID":659112,"DIS_CODE":0,"TOWNNAME":"歸仁區","LI":"大潭里","LIN":"20鄰","STREET":"長榮路","SECT":"二段","MAREA":" ","LANE":" ","ALLEY":" ","HOUSE_NO":"２７５號","E_COORD97":177850.583006,"N_COORD97":2534451.3675600002,"ADDRESS":"長榮路二段２７５號","OBJECTID":659085},"geometry":{"x":177850.58300600015,"y":2534451.3675640002}},{"attributes":{"ID":659113,"DIS_CODE":0,"TOWNNAME":"歸仁區","LI":"大潭里","LIN":"5鄰","STREET":"長榮路","SECT":"一段","MAREA":" ","LANE":" ","ALLEY":" ","HOUSE_NO":"２４７號","E_COORD97":175162.995127,"N_COORD97":2534546.8291799999,"ADDRESS":"長榮路一段２４７號","OBJECTID":659086},"geometry":{"x":175162.99512699991,"y":2534546.8291790001}},{"attributes":{"ID":659114,"DIS_CODE":0,"TOWNNAME":"善化區","LI":"嘉南里","LIN":"1鄰","STREET":" ","SECT":" ","MAREA":"茄拔","LANE":" ","ALLEY":" ","HOUSE_NO":"５５號之２","E_COORD97":181098.39025,"N_COORD97":2559542.2529699998,"ADDRESS":"茄拔５５號之２","OBJECTID":659087},"geometry":{"x":181098.39025000017,"y":2559542.2529700007}},{"attributes":{"ID":659115,"DIS_CODE":0,"TOWNNAME":"歸仁區","LI":"西埔里","LIN":"1鄰","STREET":"西埔三街","SECT":" ","MAREA":" ","LANE":"５１巷","ALLEY":" ","HOUSE_NO":"６號","E_COORD97":176815.72741799999,"N_COORD97":2544004.13106,"ADDRESS":"西埔三街５１巷６號","OBJECTID":659088},"geometry":{"x":176815.72741800081,"y":2544004.1310600005}},{"attributes":{"ID":659116,"DIS_CODE":0,"TOWNNAME":"歸仁區","LI":"西埔里","LIN":"1鄰","STREET":"西埔三街","SECT":" ","MAREA":" ","LANE":"５１巷","ALLEY":" ","HOUSE_NO":"６之１號","E_COORD97":176815.091889,"N_COORD97":2544000.32106,"ADDRESS":"西埔三街５１巷６之１號","OBJECTID":659089},"geometry":{"x":176815.09188899864,"y":2544000.3210620023}},{"attributes":{"ID":659117,"DIS_CODE":0,"TOWNNAME":"歸仁區","LI":"西埔里","LIN":"1鄰","STREET":"西埔三街","SECT":" ","MAREA":" ","LANE":"５１巷","ALLEY":" ","HOUSE_NO":"６之２號","E_COORD97":176815.30373000001,"N_COORD97":2543995.8760600002,"ADDRESS":"西埔三街５１巷６之２號","OBJECTID":659090},"geometry":{"x":176815.30372999981,"y":2543995.8760600016}},{"attributes":{"ID":659118,"DIS_CODE":0,"TOWNNAME":"歸仁區","LI":"西埔里","LIN":"1鄰","STREET":"西埔三街","SECT":" ","MAREA":" ","LANE":"５１巷","ALLEY":" ","HOUSE_NO":"６之３號","E_COORD97":176815.93926099999,"N_COORD97":2543991.0077300002,"ADDRESS":"西埔三街５１巷６之３號","OBJECTID":659091},"geometry":{"x":176815.93926099967,"y":2543991.0077340007}},{"attributes":{"ID":659119,"DIS_CODE":0,"TOWNNAME":"歸仁區","LI":"西埔里","LIN":"1鄰","STREET":"西埔三街","SECT":" ","MAREA":" ","LANE":"５１巷","ALLEY":" ","HOUSE_NO":"６之５號","E_COORD97":176816.99847600001,"N_COORD97":2543986.56274,"ADDRESS":"西埔三街５１巷６之５號","OBJECTID":659092},"geometry":{"x":176816.99847600143,"y":2543986.5627360009}},{"attributes":{"ID":659120,"DIS_CODE":0,"TOWNNAME":"歸仁區","LI":"西埔里","LIN":"1鄰","STREET":"西埔三街","SECT":" ","MAREA":" ","LANE":"５１巷","ALLEY":" ","HOUSE_NO":"６之６號","E_COORD97":176818.05769099999,"N_COORD97":2543981.2710699998,"ADDRESS":"西埔三街５１巷６之６號","OBJECTID":659093},"geometry":{"x":176818.05769100226,"y":2543981.2710720003}},{"attributes":{"ID":659121,"DIS_CODE":0,"TOWNNAME":"歸仁區","LI":"西埔里","LIN":"1鄰","STREET":"西埔三街","SECT":" ","MAREA":" ","LANE":"５１巷","ALLEY":" ","HOUSE_NO":"６之７號","E_COORD97":176819.32874900001,"N_COORD97":2543977.6727399998,"ADDRESS":"西埔三街５１巷６之７號","OBJECTID":659094},"geometry":{"x":176819.32874900009,"y":2543977.6727410033}},{"attributes":{"ID":659122,"DIS_CODE":0,"TOWNNAME":"歸仁區","LI":"西埔里","LIN":"1鄰","STREET":"西埔三街","SECT":" ","MAREA":" ","LANE":"５１巷","ALLEY":" ","HOUSE_NO":"６之８號","E_COORD97":176823.565608,"N_COORD97":2543972.8044099999,"ADDRESS":"西埔三街５１巷６之８號","OBJECTID":659095},"geometry":{"x":176823.56560800225,"y":2543972.8044100013}},{"attributes":{"ID":659123,"DIS_CODE":0,"TOWNNAME":"歸仁區","LI":"西埔里","LIN":"1鄰","STREET":"西埔三街","SECT":" ","MAREA":" ","LANE":"５１巷","ALLEY":" ","HOUSE_NO":"６之９號","E_COORD97":176826.107724,"N_COORD97":2543964.1260799998,"ADDRESS":"西埔三街５１巷６之９號","OBJECTID":659096},"geometry":{"x":176826.1077240007,"y":2543964.1260819994}},{"attributes":{"ID":659124,"DIS_CODE":0,"TOWNNAME":"歸仁區","LI":"西埔里","LIN":"1鄰","STREET":"西埔三街","SECT":" ","MAREA":" ","LANE":"５１巷","ALLEY":" ","HOUSE_NO":"６之１０號","E_COORD97":176829.28536899999,"N_COORD97":2543953.7544200001,"ADDRESS":"西埔三街５１巷６之１０號","OBJECTID":659097},"geometry":{"x":176829.28536900133,"y":2543953.7544209994}},{"attributes":{"ID":659125,"DIS_CODE":0,"TOWNNAME":"新化區","LI":"東榮里","LIN":"1鄰","STREET":"中興路","SECT":" ","MAREA":" ","LANE":"１０４巷","ALLEY":" ","HOUSE_NO":"２３號","E_COORD97":181852.35825700001,"N_COORD97":2547399.2181000002,"ADDRESS":"中興路１０４巷２３號","OBJECTID":659098},"geometry":{"x":181852.35825700033,"y":2547399.2180970032}},{"attributes":{"ID":659126,"DIS_CODE":0,"TOWNNAME":"新營區","LI":"民生里","LIN":"7鄰","STREET":"民生路","SECT":" ","MAREA":" ","LANE":" ","ALLEY":" ","HOUSE_NO":"１５號","E_COORD97":179366.754319,"N_COORD97":2578173.4270700002,"ADDRESS":"民生路１５號","OBJECTID":659099},"geometry":{"x":179366.75431900099,"y":2578173.4270719998}},{"attributes":{"ID":659127,"DIS_CODE":0,"TOWNNAME":"新化區","LI":"東榮里","LIN":"34鄰","STREET":"護安街","SECT":" ","MAREA":" ","LANE":" ","ALLEY":" ","HOUSE_NO":"９３號之２","E_COORD97":179180.133191,"N_COORD97":2548421.7792099998,"ADDRESS":"護安街９３號之２","OBJECTID":659100},"geometry":{"x":179180.13319100067,"y":2548421.7792110015}},{"attributes":{"ID":659128,"DIS_CODE":0,"TOWNNAME":"新營區","LI":"民生里","LIN":"7鄰","STREET":"民生路","SECT":" ","MAREA":" ","LANE":" ","ALLEY":" ","HOUSE_NO":"２１號之１","E_COORD97":179343.44727400001,"N_COORD97":2578253.75453,"ADDRESS":"民生路２１號之１","OBJECTID":659101},"geometry":{"x":179343.44727400132,"y":2578253.7545290012}},{"attributes":{"ID":659129,"DIS_CODE":0,"TOWNNAME":"新營區","LI":"民生里","LIN":"7鄰","STREET":"民生路","SECT":" ","MAREA":" ","LANE":" ","ALLEY":" ","HOUSE_NO":"２３號","E_COORD97":179326.496697,"N_COORD97":2578243.3828699999,"ADDRESS":"民生路２３號","OBJECTID":659102},"geometry":{"x":179326.49669700116,"y":2578243.382867001}},{"attributes":{"ID":659130,"DIS_CODE":0,"TOWNNAME":"新化區","LI":"東榮里","LIN":"1鄰","STREET":"中興路","SECT":" ","MAREA":" ","LANE":"１０４巷","ALLEY":" ","HOUSE_NO":"１７號","E_COORD97":181856.80843400001,"N_COORD97":2547369.5847800002,"ADDRESS":"中興路１０４巷１７號","OBJECTID":659103},"geometry":{"x":181856.8084340021,"y":2547369.5847789999}},{"attributes":{"ID":659131,"DIS_CODE":0,"TOWNNAME":"歸仁區","LI":"西埔里","LIN":"1鄰","STREET":"西埔三街","SECT":" ","MAREA":" ","LANE":"５１巷","ALLEY":" ","HOUSE_NO":"８號","E_COORD97":176836.69987300001,"N_COORD97":2544001.8027300001,"ADDRESS":"西埔三街５１巷８號","OBJECTID":659104},"geometry":{"x":176836.69987300131,"y":2544001.8027280029}},{"attributes":{"ID":659132,"DIS_CODE":0,"TOWNNAME":"新營區","LI":"民生里","LIN":"7鄰","STREET":"民生路","SECT":" ","MAREA":" ","LANE":" ","ALLEY":" ","HOUSE_NO":"２３號之３","E_COORD97":179326.28481400001,"N_COORD97":2578258.3053600001,"ADDRESS":"民生路２３號之３","OBJECTID":659105},"geometry":{"x":179326.28481400013,"y":2578258.3053590022}},{"attributes":{"ID":659133,"DIS_CODE":0,"TOWNNAME":"歸仁區","LI":"西埔里","LIN":"1鄰","STREET":"西埔三街","SECT":" ","MAREA":" ","LANE":"５１巷","ALLEY":" ","HOUSE_NO":"８之１號","E_COORD97":176837.123559,"N_COORD97":2543997.1460600002,"ADDRESS":"西埔三街５１巷８之１號","OBJECTID":659106},"geometry":{"x":176837.1235590009,"y":2543997.1460640021}},{"attributes":{"ID":659134,"DIS_CODE":0,"TOWNNAME":"歸仁區","LI":"西埔里","LIN":"1鄰","STREET":"西埔三街","SECT":" ","MAREA":" ","LANE":"５１巷","ALLEY":" ","HOUSE_NO":"８之２號","E_COORD97":176837.97093099999,"N_COORD97":2543993.1244000001,"ADDRESS":"西埔三街５１巷８之２號","OBJECTID":659107},"geometry":{"x":176837.97093099914,"y":2543993.1243990026}},{"attributes":{"ID":659135,"DIS_CODE":0,"TOWNNAME":"歸仁區","LI":"西埔里","LIN":"1鄰","STREET":"西埔三街","SECT":" ","MAREA":" ","LANE":"５１巷","ALLEY":" ","HOUSE_NO":"８之３號","E_COORD97":176839.453832,"N_COORD97":2543988.0444,"ADDRESS":"西埔三街５１巷８之３號","OBJECTID":659108},"geometry":{"x":176839.45383199956,"y":2543988.0444020033}},{"attributes":{"ID":659136,"DIS_CODE":0,"TOWNNAME":"歸仁區","LI":"西埔里","LIN":"1鄰","STREET":"西埔三街","SECT":" ","MAREA":" ","LANE":"５１巷","ALLEY":" ","HOUSE_NO":"８之５號","E_COORD97":176840.30120399999,"N_COORD97":2543983.3877400002,"ADDRESS":"西埔三街５１巷８之５號","OBJECTID":659109},"geometry":{"x":176840.3012040006,"y":2543983.3877380025}},{"attributes":{"ID":659137,"DIS_CODE":0,"TOWNNAME":"歸仁區","LI":"西埔里","LIN":"1鄰","STREET":"西埔三街","SECT":" ","MAREA":" ","LANE":"５１巷","ALLEY":" ","HOUSE_NO":"８之６號","E_COORD97":176841.995948,"N_COORD97":2543979.15441,"ADDRESS":"西埔三街５１巷８之６號","OBJECTID":659110},"geometry":{"x":176841.99594800081,"y":2543979.1544070002}},{"attributes":{"ID":659138,"DIS_CODE":0,"TOWNNAME":"新營區","LI":"民生里","LIN":"7鄰","STREET":"民生路","SECT":" ","MAREA":" ","LANE":" ","ALLEY":" ","HOUSE_NO":"３７號","E_COORD97":179323.106581,"N_COORD97":2578311.1690799999,"ADDRESS":"民生路３７號","OBJECTID":659111},"geometry":{"x":179323.10658100061,"y":2578311.1690810006}},{"attributes":{"ID":659139,"DIS_CODE":0,"TOWNNAME":"歸仁區","LI":"西埔里","LIN":"1鄰","STREET":"西埔三街","SECT":" ","MAREA":" ","LANE":"５１巷","ALLEY":" ","HOUSE_NO":"８之７號","E_COORD97":176842.41963399999,"N_COORD97":2543975.3444099999,"ADDRESS":"西埔三街５１巷８之７號","OBJECTID":659112},"geometry":{"x":176842.4196340004,"y":2543975.3444090001}},{"attributes":{"ID":659140,"DIS_CODE":0,"TOWNNAME":"歸仁區","LI":"西埔里","LIN":"1鄰","STREET":"西埔三街","SECT":" ","MAREA":" ","LANE":"５１巷","ALLEY":" ","HOUSE_NO":"８之８號","E_COORD97":176843.478848,"N_COORD97":2543970.68774,"ADDRESS":"西埔三街５１巷８之８號","OBJECTID":659113},"geometry":{"x":176843.47884800006,"y":2543970.6877449993}},{"attributes":{"ID":659141,"DIS_CODE":0,"TOWNNAME":"歸仁區","LI":"西埔里","LIN":"1鄰","STREET":"西埔三街","SECT":" ","MAREA":" ","LANE":"５１巷","ALLEY":" ","HOUSE_NO":"８之９號","E_COORD97":176844.53806300001,"N_COORD97":2543966.6660799999,"ADDRESS":"西埔三街５１巷８之９號","OBJECTID":659114},"geometry":{"x":176844.53806300089,"y":2543966.666079998}},{"attributes":{"ID":659142,"DIS_CODE":0,"TOWNNAME":"歸仁區","LI":"西埔里","LIN":"1鄰","STREET":"西埔三街","SECT":" ","MAREA":" ","LANE":"５１巷","ALLEY":" ","HOUSE_NO":"８之１０號","E_COORD97":176845.809121,"N_COORD97":2543962.22108,"ADDRESS":"西埔三街５１巷８之１０號","OBJECTID":659115},"geometry":{"x":176845.80912100151,"y":2543962.2210829984}},{"attributes":{"ID":659143,"DIS_CODE":0,"TOWNNAME":"歸仁區","LI":"西埔里","LIN":"1鄰","STREET":"西埔三街","SECT":" ","MAREA":" ","LANE":"５１巷","ALLEY":" ","HOUSE_NO":"８之１１號","E_COORD97":176846.44464999999,"N_COORD97":2543957.9877499999,"ADDRESS":"西埔三街５１巷８之１１號","OBJECTID":659116},"geometry":{"x":176846.44464999996,"y":2543957.9877520017}},{"attributes":{"ID":659144,"DIS_CODE":0,"TOWNNAME":"歸仁區","LI":"西埔里","LIN":"1鄰","STREET":"西埔三街","SECT":" ","MAREA":" ","LANE":"５１巷","ALLEY":" ","HOUSE_NO":"８之１２號","E_COORD97":176846.020964,"N_COORD97":2543952.9077499998,"ADDRESS":"西埔三街５１巷８之１２號","OBJECTID":659117},"geometry":{"x":176846.02096400131,"y":2543952.9077540021}},{"attributes":{"ID":659145,"DIS_CODE":0,"TOWNNAME":"歸仁區","LI":"西埔里","LIN":"1鄰","STREET":"西埔三街","SECT":" ","MAREA":" ","LANE":"７３巷","ALLEY":" ","HOUSE_NO":"５號","E_COORD97":176832.25117,"N_COORD97":2543933.6461,"ADDRESS":"西埔三街７３巷５號","OBJECTID":659118},"geometry":{"x":176832.25117000006,"y":2543933.6460979991}},{"attributes":{"ID":659146,"DIS_CODE":0,"TOWNNAME":"新化區","LI":"東榮里","LIN":"1鄰","STREET":"中興路","SECT":" ","MAREA":" ","LANE":"１０４巷","ALLEY":" ","HOUSE_NO":"４號","E_COORD97":181873.337661,"N_COORD97":2547331.2731300001,"ADDRESS":"中興路１０４巷４號","OBJECTID":659119},"geometry":{"x":181873.33766099997,"y":2547331.2731330004}},{"attributes":{"ID":659147,"DIS_CODE":0,"TOWNNAME":"新營區","LI":"民生里","LIN":"8鄰","STREET":"民生路","SECT":" ","MAREA":" ","LANE":" ","ALLEY":" ","HOUSE_NO":"３之１號","E_COORD97":179382.22172100001,"N_COORD97":2578092.27941,"ADDRESS":"民生路３之１號","OBJECTID":659120},"geometry":{"x":179382.2217210019,"y":2578092.279407002}},{"attributes":{"ID":659148,"DIS_CODE":0,"TOWNNAME":"新化區","LI":"東榮里","LIN":"1鄰","STREET":"中興路","SECT":" ","MAREA":" ","LANE":" ","ALLEY":" ","HOUSE_NO":"１９號","E_COORD97":181948.990663,"N_COORD97":2547306.7198100002,"ADDRESS":"中興路１９號","OBJECTID":659121},"geometry":{"x":181948.99066300131,"y":2547306.7198130023}},{"attributes":{"ID":659149,"DIS_CODE":0,"TOWNNAME":"新化區","LI":"東榮里","LIN":"1鄰","STREET":"中興路","SECT":" ","MAREA":" ","LANE":" ","ALLEY":" ","HOUSE_NO":"２０號","E_COORD97":181970.60580600001,"N_COORD97":2547322.38314,"ADDRESS":"中興路２０號","OBJECTID":659122},"geometry":{"x":181970.60580600053,"y":2547322.3831380028}},{"attributes":{"ID":659150,"DIS_CODE":0,"TOWNNAME":"新化區","LI":"東榮里","LIN":"1鄰","STREET":"中興路","SECT":" ","MAREA":" ","LANE":" ","ALLEY":" ","HOUSE_NO":"２４號","E_COORD97":181956.83145,"N_COORD97":2547317.9381400002,"ADDRESS":"中興路２４號","OBJECTID":659123},"geometry":{"x":181956.83145000041,"y":2547317.938140003}},{"attributes":{"ID":659151,"DIS_CODE":0,"TOWNNAME":"新化區","LI":"東榮里","LIN":"1鄰","STREET":"中興路","SECT":" ","MAREA":" ","LANE":" ","ALLEY":" ","HOUSE_NO":"２５號","E_COORD97":181939.45457,"N_COORD97":2547306.9314799998,"ADDRESS":"中興路２５號","OBJECTID":659124},"geometry":{"x":181939.45457000099,"y":2547306.9314799979}},{"attributes":{"ID":659152,"DIS_CODE":0,"TOWNNAME":"新營區","LI":"民生里","LIN":"8鄰","STREET":"民生路","SECT":" ","MAREA":" ","LANE":" ","ALLEY":" ","HOUSE_NO":"９號之３","E_COORD97":179357.749324,"N_COORD97":2578106.9902300001,"ADDRESS":"民生路９號之３","OBJECTID":659125},"geometry":{"x":179357.74932400044,"y":2578106.9902330004}},{"attributes":{"ID":659153,"DIS_CODE":0,"TOWNNAME":"新化區","LI":"東榮里","LIN":"1鄰","STREET":"中興路","SECT":" ","MAREA":" ","LANE":" ","ALLEY":" ","HOUSE_NO":"１４號","E_COORD97":181549.95816499999,"N_COORD97":2547332.1198,"ADDRESS":"中興路１４號","OBJECTID":659126},"geometry":{"x":181549.95816500019,"y":2547332.119799003}},{"attributes":{"ID":659154,"DIS_CODE":0,"TOWNNAME":"新化區","LI":"東榮里","LIN":"2鄰","STREET":"中興路","SECT":" ","MAREA":" ","LANE":"６０巷","ALLEY":" ","HOUSE_NO":"１８號","E_COORD97":181917.41560000001,"N_COORD97":2547369.5847800002,"ADDRESS":"中興路６０巷１８號","OBJECTID":659127},"geometry":{"x":181917.41560000181,"y":2547369.5847789999}},{"attributes":{"ID":659155,"DIS_CODE":0,"TOWNNAME":"新化區","LI":"豐榮里","LIN":"13鄰","STREET":"民治路","SECT":" ","MAREA":" ","LANE":"３３巷","ALLEY":" ","HOUSE_NO":"２６號之１","E_COORD97":178656.58589700001,"N_COORD97":2548064.77758,"ADDRESS":"民治路３３巷２６號之１","OBJECTID":659128},"geometry":{"x":178656.58589700051,"y":2548064.777578}},{"attributes":{"ID":659156,"DIS_CODE":0,"TOWNNAME":"善化區","LI":"東昌里","LIN":"5鄰","STREET":" ","SECT":" ","MAREA":"東勢寮","LANE":" ","ALLEY":" ","HOUSE_NO":"６０號","E_COORD97":180569.84290700001,"N_COORD97":2561885.7352900002,"ADDRESS":"東勢寮６０號","OBJECTID":659129},"geometry":{"x":180569.84290700126,"y":2561885.735294003}},{"attributes":{"ID":659157,"DIS_CODE":0,"TOWNNAME":"善化區","LI":"東昌里","LIN":"5鄰","STREET":" ","SECT":" ","MAREA":"東勢寮","LANE":" ","ALLEY":" ","HOUSE_NO":"４９號","E_COORD97":180595.67569500001,"N_COORD97":2561822.4469900001,"ADDRESS":"東勢寮４９號","OBJECTID":659130},"geometry":{"x":180595.67569500115,"y":2561822.4469950013}},{"attributes":{"ID":659158,"DIS_CODE":0,"TOWNNAME":"善化區","LI":"嘉南里","LIN":"1鄰","STREET":" ","SECT":" ","MAREA":"茄拔","LANE":" ","ALLEY":" ","HOUSE_NO":"５９號之６","E_COORD97":181142.85902,"N_COORD97":2559508.5979900002,"ADDRESS":"茄拔５９號之６","OBJECTID":659131},"geometry":{"x":181142.85902000125,"y":2559508.5979900006}},{"attributes":{"ID":659159,"DIS_CODE":0,"TOWNNAME":"善化區","LI":"嘉南里","LIN":"1鄰","STREET":" ","SECT":" ","MAREA":"茄拔","LANE":" ","ALLEY":" ","HOUSE_NO":"６０號之１","E_COORD97":181242.88203000001,"N_COORD97":2559485.1030000001,"ADDRESS":"茄拔６０號之１","OBJECTID":659132},"geometry":{"x":181242.88203000184,"y":2559485.103000002}},{"attributes":{"ID":659160,"DIS_CODE":0,"TOWNNAME":"善化區","LI":"嘉南里","LIN":"1鄰","STREET":" ","SECT":" ","MAREA":"茄拔","LANE":" ","ALLEY":" ","HOUSE_NO":"６０號之１６","E_COORD97":181318.53503999999,"N_COORD97":2559464.3596800002,"ADDRESS":"茄拔６０號之１６","OBJECTID":659133},"geometry":{"x":181318.53504000138,"y":2559464.3596800007}},{"attributes":{"ID":659161,"DIS_CODE":0,"TOWNNAME":"善化區","LI":"嘉南里","LIN":"1鄰","STREET":" ","SECT":" ","MAREA":"茄拔","LANE":" ","ALLEY":" ","HOUSE_NO":"６０號之７","E_COORD97":181314.93251000001,"N_COORD97":2559461.8196800002,"ADDRESS":"茄拔６０號之７","OBJECTID":659134},"geometry":{"x":181314.93250999972,"y":2559461.8196800016}},{"attributes":{"ID":659162,"DIS_CODE":0,"TOWNNAME":"善化區","LI":"嘉南里","LIN":"1鄰","STREET":" ","SECT":" ","MAREA":"茄拔","LANE":" ","ALLEY":" ","HOUSE_NO":"６０號之４","E_COORD97":181311.11807,"N_COORD97":2559465.6296799998,"ADDRESS":"茄拔６０號之４","OBJECTID":659135},"geometry":{"x":181311.11806999985,"y":2559465.6296800002}},{"attributes":{"ID":659163,"DIS_CODE":0,"TOWNNAME":"官田區","LI":"東庄里","LIN":"1鄰","STREET":" ","SECT":" ","MAREA":"西庄","LANE":" ","ALLEY":" ","HOUSE_NO":"１０２號","E_COORD97":177906.254288,"N_COORD97":2565243.71985,"ADDRESS":"西庄１０２號","OBJECTID":659136},"geometry":{"x":177906.25428800192,"y":2565243.7198480014}},{"attributes":{"ID":659164,"DIS_CODE":0,"TOWNNAME":"官田區","LI":"東庄里","LIN":"4鄰","STREET":" ","SECT":" ","MAREA":"西庄","LANE":" ","ALLEY":" ","HOUSE_NO":"１３１號","E_COORD97":177961.76355199999,"N_COORD97":2565209.4298700001,"ADDRESS":"西庄１３１號","OBJECTID":659137},"geometry":{"x":177961.76355200075,"y":2565209.4298669994}},{"attributes":{"ID":659165,"DIS_CODE":0,"TOWNNAME":"官田區","LI":"東庄里","LIN":"4鄰","STREET":" ","SECT":" ","MAREA":"西庄","LANE":" ","ALLEY":" ","HOUSE_NO":"１３２號之２","E_COORD97":177989.306316,"N_COORD97":2565216.4148599999,"ADDRESS":"西庄１３２號之２","OBJECTID":659138},"geometry":{"x":177989.30631600134,"y":2565216.4148630016}},{"attributes":{"ID":659166,"DIS_CODE":0,"TOWNNAME":"官田區","LI":"東庄里","LIN":"7鄰","STREET":" ","SECT":" ","MAREA":"西庄","LANE":" ","ALLEY":" ","HOUSE_NO":"１４０號之１","E_COORD97":178135.494836,"N_COORD97":2565210.4882,"ADDRESS":"西庄１４０號之１","OBJECTID":659139},"geometry":{"x":178135.49483600166,"y":2565210.4881990012}},{"attributes":{"ID":659167,"DIS_CODE":0,"TOWNNAME":"官田區","LI":"東庄里","LIN":"8鄰","STREET":" ","SECT":" ","MAREA":"西庄","LANE":" ","ALLEY":" ","HOUSE_NO":"１４６號之４","E_COORD97":178078.5025,"N_COORD97":2565190.80321,"ADDRESS":"西庄１４６號之４","OBJECTID":659140},"geometry":{"x":178078.50250000041,"y":2565190.8032100014}},{"attributes":{"ID":659168,"DIS_CODE":0,"TOWNNAME":"安南區","LI":"頂安里","LIN":"12鄰","STREET":"怡安路","SECT":"二段","MAREA":" ","LANE":"２６巷","ALLEY":" ","HOUSE_NO":"１之２號","E_COORD97":168297.024665,"N_COORD97":2549353.49229,"ADDRESS":"怡安路二段２６巷１之２號","OBJECTID":659141},"geometry":{"x":168297.02466500178,"y":2549353.4922930002}},{"attributes":{"ID":659169,"DIS_CODE":0,"TOWNNAME":"西港區","LI":"慶安里","LIN":"35鄰","STREET":"中山路","SECT":" ","MAREA":" ","LANE":" ","ALLEY":" ","HOUSE_NO":"５９號","E_COORD97":168480.64291,"N_COORD97":2557190.06384,"ADDRESS":"中山路５９號","OBJECTID":659142},"geometry":{"x":168480.64290999901,"y":2557190.0638400018}},{"attributes":{"ID":659170,"DIS_CODE":0,"TOWNNAME":"安南區","LI":"頂安里","LIN":"12鄰","STREET":"怡安路","SECT":"二段","MAREA":" ","LANE":"２６巷","ALLEY":" ","HOUSE_NO":"２６號","E_COORD97":168317.785218,"N_COORD97":2549340.0699300002,"ADDRESS":"怡安路二段２６巷２６號","OBJECTID":659143},"geometry":{"x":168317.78521800134,"y":2549340.0699340012}},{"attributes":{"ID":659171,"DIS_CODE":0,"TOWNNAME":"安南區","LI":"頂安里","LIN":"12鄰","STREET":"怡安路","SECT":"二段","MAREA":" ","LANE":"２６巷","ALLEY":" ","HOUSE_NO":"２６之１號","E_COORD97":168319.12522799999,"N_COORD97":2549344.7610499999,"ADDRESS":"怡安路二段２６巷２６之１號","OBJECTID":659144},"geometry":{"x":168319.12522799987,"y":2549344.7610480003}},{"attributes":{"ID":659172,"DIS_CODE":0,"TOWNNAME":"西港區","LI":"劉厝里","LIN":"12鄰","STREET":" ","SECT":" ","MAREA":"劉厝","LANE":" ","ALLEY":" ","HOUSE_NO":"９９號","E_COORD97":165708.679948,"N_COORD97":2558845.0723700002,"ADDRESS":"劉厝９９號","OBJECTID":659145},"geometry":{"x":165708.67994800024,"y":2558845.072370002}},{"attributes":{"ID":659173,"DIS_CODE":0,"TOWNNAME":"官田區","LI":"東庄里","LIN":"10鄰","STREET":" ","SECT":" ","MAREA":"西庄","LANE":" ","ALLEY":" ","HOUSE_NO":"１５８號之８","E_COORD97":178239.098,"N_COORD97":2564959.0283300001,"ADDRESS":"西庄１５８號之８","OBJECTID":659146},"geometry":{"x":178239.09800000116,"y":2564959.0283300038}},{"attributes":{"ID":659174,"DIS_CODE":0,"TOWNNAME":"官田區","LI":"東庄里","LIN":"10鄰","STREET":" ","SECT":" ","MAREA":"西庄","LANE":" ","ALLEY":" ","HOUSE_NO":"１５８號之９","E_COORD97":178226.59782600001,"N_COORD97":2564960.40417,"ADDRESS":"西庄１５８號之９","OBJECTID":659147},"geometry":{"x":178226.59782599937,"y":2564960.4041680004}},{"attributes":{"ID":659175,"DIS_CODE":0,"TOWNNAME":"官田區","LI":"東庄里","LIN":"11鄰","STREET":" ","SECT":" ","MAREA":"西庄","LANE":" ","ALLEY":" ","HOUSE_NO":"１６９號","E_COORD97":178081.68051100001,"N_COORD97":2565048.3516199999,"ADDRESS":"西庄１６９號","OBJECTID":659148},"geometry":{"x":178081.68051099963,"y":2565048.3516200017}},{"attributes":{"ID":659176,"DIS_CODE":0,"TOWNNAME":"中西區","LI":"水仙里","LIN":"15鄰","STREET":"國華街","SECT":"三段","MAREA":" ","LANE":" ","ALLEY":" ","HOUSE_NO":"１２３之１７５號","E_COORD97":167817.89360800001,"N_COORD97":2544151.5935,"ADDRESS":"國華街三段１２３之１７５號","OBJECTID":659149},"geometry":{"x":167817.89360800013,"y":2544151.5935040005}},{"attributes":{"ID":659177,"DIS_CODE":0,"TOWNNAME":"中西區","LI":"水仙里","LIN":"15鄰","STREET":"國華街","SECT":"三段","MAREA":" ","LANE":" ","ALLEY":" ","HOUSE_NO":"１２３之１７６號","E_COORD97":167818.52922500001,"N_COORD97":2544154.5568400002,"ADDRESS":"國華街三段１２３之１７６號","OBJECTID":659150},"geometry":{"x":167818.52922500111,"y":2544154.5568360016}},{"attributes":{"ID":659178,"DIS_CODE":0,"TOWNNAME":"中西區","LI":"水仙里","LIN":"15鄰","STREET":"國華街","SECT":"三段","MAREA":" ","LANE":" ","ALLEY":" ","HOUSE_NO":"１２３之１７７號","E_COORD97":167819.37671400001,"N_COORD97":2544157.0968300002,"ADDRESS":"國華街三段１２３之１７７號","OBJECTID":659151},"geometry":{"x":167819.37671400141,"y":2544157.0968340021}},{"attributes":{"ID":659179,"DIS_CODE":0,"TOWNNAME":"官田區","LI":"東庄里","LIN":"16鄰","STREET":" ","SECT":" ","MAREA":"東庄","LANE":" ","ALLEY":" ","HOUSE_NO":"４號","E_COORD97":178484.65234299999,"N_COORD97":2565273.6706699999,"ADDRESS":"東庄４號","OBJECTID":659152},"geometry":{"x":178484.65234300029,"y":2565273.6706650015}},{"attributes":{"ID":659180,"DIS_CODE":0,"TOWNNAME":"中西區","LI":"水仙里","LIN":"15鄰","STREET":"國華街","SECT":"三段","MAREA":" ","LANE":" ","ALLEY":" ","HOUSE_NO":"１２３之１７８號","E_COORD97":167819.69452200001,"N_COORD97":2544159.00183,"ADDRESS":"國華街三段１２３之１７８號","OBJECTID":659153},"geometry":{"x":167819.69452199992,"y":2544159.0018330012}},{"attributes":{"ID":659181,"DIS_CODE":0,"TOWNNAME":"西港區","LI":"劉厝里","LIN":"10鄰","STREET":" ","SECT":" ","MAREA":"劉厝","LANE":" ","ALLEY":" ","HOUSE_NO":"７９號","E_COORD97":165920.307256,"N_COORD97":2558831.1023800001,"ADDRESS":"劉厝７９號","OBJECTID":659154},"geometry":{"x":165920.30725600105,"y":2558831.1023779996}},{"attributes":{"ID":659182,"DIS_CODE":0,"TOWNNAME":"官田區","LI":"東庄里","LIN":"17鄰","STREET":" ","SECT":" ","MAREA":"東庄","LANE":" ","ALLEY":" ","HOUSE_NO":"１０號之２","E_COORD97":178464.101203,"N_COORD97":2565284.2539900001,"ADDRESS":"東庄１０號之２","OBJECTID":659155},"geometry":{"x":178464.1012030011,"y":2565284.2539930027}},{"attributes":{"ID":659183,"DIS_CODE":0,"TOWNNAME":"西港區","LI":"劉厝里","LIN":"10鄰","STREET":" ","SECT":" ","MAREA":"劉厝","LANE":" ","ALLEY":" ","HOUSE_NO":"８０號","E_COORD97":165905.90219399999,"N_COORD97":2558831.1023800001,"ADDRESS":"劉厝８０號","OBJECTID":659156},"geometry":{"x":165905.90219400171,"y":2558831.1023779996}},{"attributes":{"ID":659184,"DIS_CODE":0,"TOWNNAME":"官田區","LI":"東庄里","LIN":"17鄰","STREET":" ","SECT":" ","MAREA":"東庄","LANE":" ","ALLEY":" ","HOUSE_NO":"１６號之２","E_COORD97":178338.88755799999,"N_COORD97":2565287.2173299999,"ADDRESS":"東庄１６號之２","OBJECTID":659157},"geometry":{"x":178338.88755800202,"y":2565287.217325002}},{"attributes":{"ID":659185,"DIS_CODE":0,"TOWNNAME":"官田區","LI":"東庄里","LIN":"15鄰","STREET":" ","SECT":" ","MAREA":"西庄","LANE":" ","ALLEY":" ","HOUSE_NO":"１９４號之２","E_COORD97":177901.16946999999,"N_COORD97":2565046.8699500002,"ADDRESS":"西庄１９４號之２","OBJECTID":659158},"geometry":{"x":177901.16947000101,"y":2565046.8699500021}},{"attributes":{"ID":659186,"DIS_CODE":0,"TOWNNAME":"官田區","LI":"東庄里","LIN":"15鄰","STREET":" ","SECT":" ","MAREA":"西庄","LANE":" ","ALLEY":" ","HOUSE_NO":"１９４號之４","E_COORD97":177914.72898399999,"N_COORD97":2565054.91328,"ADDRESS":"西庄１９４號之４","OBJECTID":659159},"geometry":{"x":177914.72898400202,"y":2565054.9132830016}},{"attributes":{"ID":659187,"DIS_CODE":0,"TOWNNAME":"中西區","LI":"水仙里","LIN":"15鄰","STREET":"國華街","SECT":"三段","MAREA":" ","LANE":" ","ALLEY":" ","HOUSE_NO":"１２３之１７９號","E_COORD97":167821.601372,"N_COORD97":2544163.6584999999,"ADDRESS":"國華街三段１２３之１７９號","OBJECTID":659160},"geometry":{"x":167821.60137199983,"y":2544163.658497002}},{"attributes":{"ID":659188,"DIS_CODE":0,"TOWNNAME":"中西區","LI":"水仙里","LIN":"15鄰","STREET":"國華街","SECT":"三段","MAREA":" ","LANE":" ","ALLEY":" ","HOUSE_NO":"１２３之１８０號","E_COORD97":167822.02511700001,"N_COORD97":2544167.15099,"ADDRESS":"國華街三段１２３之１８０號","OBJECTID":659161},"geometry":{"x":167822.0251170015,"y":2544167.1509949993}},{"attributes":{"ID":659189,"DIS_CODE":0,"TOWNNAME":"中西區","LI":"水仙里","LIN":"15鄰","STREET":"國華街","SECT":"三段","MAREA":" ","LANE":" ","ALLEY":" ","HOUSE_NO":"１２３之１８１號","E_COORD97":167823.50822300001,"N_COORD97":2544170.6434900002,"ADDRESS":"國華街三段１２３之１８１號","OBJECTID":659162},"geometry":{"x":167823.50822299998,"y":2544170.6434930023}},{"attributes":{"ID":659190,"DIS_CODE":0,"TOWNNAME":"中西區","LI":"水仙里","LIN":"15鄰","STREET":"國華街","SECT":"三段","MAREA":" ","LANE":" ","ALLEY":" ","HOUSE_NO":"１２３之１８２號","E_COORD97":167825.41507300001,"N_COORD97":2544173.81849,"ADDRESS":"國華街三段１２３之１８２號","OBJECTID":659163},"geometry":{"x":167825.41507300083,"y":2544173.8184920009}},{"attributes":{"ID":659191,"DIS_CODE":0,"TOWNNAME":"西港區","LI":"慶安里","LIN":"36鄰","STREET":"中山路","SECT":" ","MAREA":" ","LANE":" ","ALLEY":" ","HOUSE_NO":"５號","E_COORD97":168209.49421999999,"N_COORD97":2556690.5307800001,"ADDRESS":"中山路５號","OBJECTID":659164},"geometry":{"x":168209.49422000069,"y":2556690.5307800006}},{"attributes":{"ID":659192,"DIS_CODE":0,"TOWNNAME":"中西區","LI":"水仙里","LIN":"15鄰","STREET":"國華街","SECT":"三段","MAREA":" ","LANE":" ","ALLEY":" ","HOUSE_NO":"１２３之１８３號","E_COORD97":167825.52100899999,"N_COORD97":2544176.6759899999,"ADDRESS":"國華街三段１２３之１８３號","OBJECTID":659165},"geometry":{"x":167825.52100900188,"y":2544176.6759900022}},{"attributes":{"ID":659193,"DIS_CODE":0,"TOWNNAME":"中西區","LI":"水仙里","LIN":"15鄰","STREET":"國華街","SECT":"三段","MAREA":" ","LANE":" ","ALLEY":" ","HOUSE_NO":"１２３之１８４號","E_COORD97":167827.63973200001,"N_COORD97":2544179.3218200002,"ADDRESS":"國華街三段１２３之１８４號","OBJECTID":659166},"geometry":{"x":167827.63973200135,"y":2544179.3218220025}},{"attributes":{"ID":659194,"DIS_CODE":0,"TOWNNAME":"中西區","LI":"水仙里","LIN":"15鄰","STREET":"國華街","SECT":"三段","MAREA":" ","LANE":" ","ALLEY":" ","HOUSE_NO":"１２３之１８５號","E_COORD97":167831.45343200001,"N_COORD97":2544186.7301500002,"ADDRESS":"國華街三段１２３之１８５號","OBJECTID":659167},"geometry":{"x":167831.45343200024,"y":2544186.7301510014}},{"attributes":{"ID":659195,"DIS_CODE":0,"TOWNNAME":"中西區","LI":"水仙里","LIN":"15鄰","STREET":"國華街","SECT":"三段","MAREA":" ","LANE":" ","ALLEY":" ","HOUSE_NO":"１２３之１８６號","E_COORD97":167831.98311299999,"N_COORD97":2544189.6934799999,"ADDRESS":"國華街三段１２３之１８６號","OBJECTID":659168},"geometry":{"x":167831.98311299924,"y":2544189.6934830025}},{"attributes":{"ID":659196,"DIS_CODE":0,"TOWNNAME":"中西區","LI":"水仙里","LIN":"15鄰","STREET":"國華街","SECT":"三段","MAREA":" ","LANE":" ","ALLEY":" ","HOUSE_NO":"１２３之１８７號","E_COORD97":167832.830602,"N_COORD97":2544192.1276500002,"ADDRESS":"國華街三段１２３之１８７號","OBJECTID":659169},"geometry":{"x":167832.83060200047,"y":2544192.1276490018}},{"attributes":{"ID":659197,"DIS_CODE":0,"TOWNNAME":"中西區","LI":"水仙里","LIN":"15鄰","STREET":"國華街","SECT":"三段","MAREA":" ","LANE":" ","ALLEY":" ","HOUSE_NO":"１２３之１８８號","E_COORD97":167833.99590000001,"N_COORD97":2544193.50348,"ADDRESS":"國華街三段１２３之１８８號","OBJECTID":659170},"geometry":{"x":167833.99590000045,"y":2544193.5034810025}},{"attributes":{"ID":659198,"DIS_CODE":0,"TOWNNAME":"中西區","LI":"水仙里","LIN":"15鄰","STREET":"國華街","SECT":"三段","MAREA":" ","LANE":" ","ALLEY":" ","HOUSE_NO":"１２３之１８９號","E_COORD97":167834.63151599999,"N_COORD97":2544195.4084800002,"ADDRESS":"國華街三段１２３之１８９號","OBJECTID":659171},"geometry":{"x":167834.63151600212,"y":2544195.4084800016}},{"attributes":{"ID":659199,"DIS_CODE":0,"TOWNNAME":"中西區","LI":"水仙里","LIN":"15鄰","STREET":"國華街","SECT":"三段","MAREA":" ","LANE":" ","ALLEY":" ","HOUSE_NO":"１２３之１９０號","E_COORD97":167845.43700199999,"N_COORD97":2544220.9142999998,"ADDRESS":"國華街三段１２３之１９０號","OBJECTID":659172},"geometry":{"x":167845.4370020004,"y":2544220.9143000022}},{"attributes":{"ID":659200,"DIS_CODE":0,"TOWNNAME":"中西區","LI":"水仙里","LIN":"15鄰","STREET":"國華街","SECT":"三段","MAREA":" ","LANE":" ","ALLEY":" ","HOUSE_NO":"１２３之１９１號","E_COORD97":167845.86074599999,"N_COORD97":2544223.9834699999,"ADDRESS":"國華街三段１２３之１９１號","OBJECTID":659173},"geometry":{"x":167845.86074599996,"y":2544223.983465001}},{"attributes":{"ID":659201,"DIS_CODE":0,"TOWNNAME":"中西區","LI":"水仙里","LIN":"15鄰","STREET":"國華街","SECT":"三段","MAREA":" ","LANE":" ","ALLEY":" ","HOUSE_NO":"１２３之１９２號","E_COORD97":167846.284491,"N_COORD97":2544226.6293000001,"ADDRESS":"國華街三段１２３之１９２號","OBJECTID":659174},"geometry":{"x":167846.2844910007,"y":2544226.6292970013}},{"attributes":{"ID":659202,"DIS_CODE":0,"TOWNNAME":"中西區","LI":"水仙里","LIN":"15鄰","STREET":"國華街","SECT":"三段","MAREA":" ","LANE":" ","ALLEY":" ","HOUSE_NO":"１２３之１９３號","E_COORD97":167847.449788,"N_COORD97":2544229.8043,"ADDRESS":"國華街三段１２３之１９３號","OBJECTID":659175},"geometry":{"x":167847.44978800137,"y":2544229.8042950016}},{"attributes":{"ID":659203,"DIS_CODE":0,"TOWNNAME":"中西區","LI":"水仙里","LIN":"15鄰","STREET":"國華街","SECT":"三段","MAREA":" ","LANE":" ","ALLEY":" ","HOUSE_NO":"１２３之１９４號","E_COORD97":167848.82695799999,"N_COORD97":2544231.4976300001,"ADDRESS":"國華街三段１２３之１９４號","OBJECTID":659176},"geometry":{"x":167848.82695799973,"y":2544231.4976269994}},{"attributes":{"ID":659204,"DIS_CODE":0,"TOWNNAME":"中西區","LI":"水仙里","LIN":"15鄰","STREET":"國華街","SECT":"三段","MAREA":" ","LANE":" ","ALLEY":" ","HOUSE_NO":"１２３之１９５號","E_COORD97":167849.674447,"N_COORD97":2544233.7201299998,"ADDRESS":"國華街三段１２３之１９５號","OBJECTID":659177},"geometry":{"x":167849.67444700003,"y":2544233.7201260012}},{"attributes":{"ID":659205,"DIS_CODE":0,"TOWNNAME":"龍崎區","LI":"崎頂里","LIN":"1鄰","STREET":" ","SECT":" ","MAREA":"新市子","LANE":" ","ALLEY":" ","HOUSE_NO":"２９號","E_COORD97":184333.91211500001,"N_COORD97":2540658.58868,"ADDRESS":"新市子２９號","OBJECTID":659178},"geometry":{"x":184333.91211500019,"y":2540658.5886780024}},{"attributes":{"ID":659206,"DIS_CODE":0,"TOWNNAME":"中西區","LI":"水仙里","LIN":"15鄰","STREET":"國華街","SECT":"三段","MAREA":" ","LANE":" ","ALLEY":" ","HOUSE_NO":"１２３之１９６號","E_COORD97":167851.36942500001,"N_COORD97":2544237.42429,"ADDRESS":"國華街三段１２３之１９６號","OBJECTID":659179},"geometry":{"x":167851.36942500062,"y":2544237.4242909998}},{"attributes":{"ID":659207,"DIS_CODE":0,"TOWNNAME":"龍崎區","LI":"崎頂里","LIN":"1鄰","STREET":" ","SECT":" ","MAREA":"新市子","LANE":" ","ALLEY":" ","HOUSE_NO":"２５號","E_COORD97":184330.10089900001,"N_COORD97":2540687.5869999998,"ADDRESS":"新市子２５號","OBJECTID":659180},"geometry":{"x":184330.10089900065,"y":2540687.5869960003}},{"attributes":{"ID":659208,"DIS_CODE":0,"TOWNNAME":"中西區","LI":"水仙里","LIN":"15鄰","STREET":"國華街","SECT":"三段","MAREA":" ","LANE":" ","ALLEY":" ","HOUSE_NO":"１２３之１９７號","E_COORD97":167851.36942500001,"N_COORD97":2544240.0701199998,"ADDRESS":"國華街三段１２３之１９７號","OBJECTID":659181},"geometry":{"x":167851.36942500062,"y":2544240.0701230001}},{"attributes":{"ID":659209,"DIS_CODE":0,"TOWNNAME":"龍崎區","LI":"崎頂里","LIN":"1鄰","STREET":" ","SECT":" ","MAREA":"新市子","LANE":" ","ALLEY":" ","HOUSE_NO":"２０號","E_COORD97":184320.57285999999,"N_COORD97":2540707.2719899998,"ADDRESS":"新市子２０號","OBJECTID":659182},"geometry":{"x":184320.57286000066,"y":2540707.271985}},{"attributes":{"ID":659210,"DIS_CODE":0,"TOWNNAME":"中西區","LI":"水仙里","LIN":"15鄰","STREET":"國華街","SECT":"三段","MAREA":" ","LANE":" ","ALLEY":" ","HOUSE_NO":"１２３之１９８號","E_COORD97":167852.005042,"N_COORD97":2544243.3509499999,"ADDRESS":"國華街三段１２３之１９８號","OBJECTID":659183},"geometry":{"x":167852.00504199881,"y":2544243.3509539999}},{"attributes":{"ID":659211,"DIS_CODE":0,"TOWNNAME":"中西區","LI":"水仙里","LIN":"15鄰","STREET":"國華街","SECT":"三段","MAREA":" ","LANE":" ","ALLEY":" ","HOUSE_NO":"１２３之１９９號","E_COORD97":167854.2297,"N_COORD97":2544246.4201199999,"ADDRESS":"國華街三段１２３之１９９號","OBJECTID":659184},"geometry":{"x":167854.22970000003,"y":2544246.4201190043}},{"attributes":{"ID":659212,"DIS_CODE":0,"TOWNNAME":"龍崎區","LI":"崎頂里","LIN":"1鄰","STREET":" ","SECT":" ","MAREA":"新市子","LANE":" ","ALLEY":" ","HOUSE_NO":"８號","E_COORD97":184210.89454400001,"N_COORD97":2540761.4586200002,"ADDRESS":"新市子８號","OBJECTID":659185},"geometry":{"x":184210.89454400074,"y":2540761.458622003}},{"attributes":{"ID":659213,"DIS_CODE":0,"TOWNNAME":"中西區","LI":"水仙里","LIN":"15鄰","STREET":"國華街","SECT":"三段","MAREA":" ","LANE":" ","ALLEY":" ","HOUSE_NO":"１２３之２００號","E_COORD97":167856.03061399999,"N_COORD97":2544250.3359500002,"ADDRESS":"國華街三段１２３之２００號","OBJECTID":659186},"geometry":{"x":167856.03061399981,"y":2544250.3359500002}},{"attributes":{"ID":659214,"DIS_CODE":0,"TOWNNAME":"中西區","LI":"水仙里","LIN":"15鄰","STREET":"國華街","SECT":"三段","MAREA":" ","LANE":" ","ALLEY":" ","HOUSE_NO":"１２３之２０１號","E_COORD97":167857.08997599999,"N_COORD97":2544252.6642800001,"ADDRESS":"國華街三段１２３之２０１號","OBJECTID":659187},"geometry":{"x":167857.08997599967,"y":2544252.6642830018}},{"attributes":{"ID":659215,"DIS_CODE":0,"TOWNNAME":"中西區","LI":"水仙里","LIN":"15鄰","STREET":"國華街","SECT":"三段","MAREA":" ","LANE":" ","ALLEY":" ","HOUSE_NO":"１２３之２０２號","E_COORD97":167858.043401,"N_COORD97":2544254.4634500002,"ADDRESS":"國華街三段１２３之２０２號","OBJECTID":659188},"geometry":{"x":167858.04340100102,"y":2544254.4634480011}},{"attributes":{"ID":659216,"DIS_CODE":0,"TOWNNAME":"西港區","LI":"竹林里","LIN":"13鄰","STREET":" ","SECT":" ","MAREA":"大竹林","LANE":" ","ALLEY":" ","HOUSE_NO":"１１１號","E_COORD97":166768.057004,"N_COORD97":2557806.66836,"ADDRESS":"大竹林１１１號","OBJECTID":659189},"geometry":{"x":166768.05700400099,"y":2557806.6683590002}},{"attributes":{"ID":659217,"DIS_CODE":0,"TOWNNAME":"龍崎區","LI":"崎頂里","LIN":"2鄰","STREET":" ","SECT":" ","MAREA":"新市子","LANE":" ","ALLEY":" ","HOUSE_NO":"３５號","E_COORD97":184307.23360499999,"N_COORD97":2540608.2120400001,"ADDRESS":"新市子３５號","OBJECTID":659190},"geometry":{"x":184307.23360500019,"y":2540608.2120379992}},{"attributes":{"ID":659218,"DIS_CODE":0,"TOWNNAME":"龍崎區","LI":"崎頂里","LIN":"2鄰","STREET":" ","SECT":" ","MAREA":"新市子","LANE":" ","ALLEY":" ","HOUSE_NO":"３６號","E_COORD97":184305.64559900001,"N_COORD97":2540601.2270399998,"ADDRESS":"新市子３６號","OBJECTID":659191},"geometry":{"x":184305.64559900202,"y":2540601.2270420007}},{"attributes":{"ID":659219,"DIS_CODE":0,"TOWNNAME":"西港區","LI":"竹林里","LIN":"1鄰","STREET":" ","SECT":" ","MAREA":"大竹林","LANE":" ","ALLEY":" ","HOUSE_NO":"１號之６","E_COORD97":166790.92517,"N_COORD97":2557801.1650200002,"ADDRESS":"大竹林１號之６","OBJECTID":659192},"geometry":{"x":166790.92517000064,"y":2557801.1650200039}},{"attributes":{"ID":659220,"DIS_CODE":0,"TOWNNAME":"中西區","LI":"水仙里","LIN":"15鄰","STREET":"國華街","SECT":"三段","MAREA":" ","LANE":" ","ALLEY":" ","HOUSE_NO":"１２３之２０３號","E_COORD97":167819.05890500001,"N_COORD97":2544148.9476700001,"ADDRESS":"國華街三段１２３之２０３號","OBJECTID":659193},"geometry":{"x":167819.0589050008,"y":2544148.9476720002}},{"attributes":{"ID":659221,"DIS_CODE":0,"TOWNNAME":"中西區","LI":"水仙里","LIN":"15鄰","STREET":"國華街","SECT":"三段","MAREA":" ","LANE":" ","ALLEY":" ","HOUSE_NO":"１２３之２０４號","E_COORD97":167819.48264999999,"N_COORD97":2544151.2760000001,"ADDRESS":"國華街三段１２３之２０４號","OBJECTID":659194},"geometry":{"x":167819.48264999967,"y":2544151.2760040034}},{"attributes":{"ID":659222,"DIS_CODE":0,"TOWNNAME":"中西區","LI":"水仙里","LIN":"15鄰","STREET":"國華街","SECT":"三段","MAREA":" ","LANE":" ","ALLEY":" ","HOUSE_NO":"１２３之２０５號","E_COORD97":167819.90639399999,"N_COORD97":2544154.0276700002,"ADDRESS":"國華街三段１２３之２０５號","OBJECTID":659195},"geometry":{"x":167819.9063940011,"y":2544154.0276689995}},{"attributes":{"ID":659223,"DIS_CODE":0,"TOWNNAME":"中西區","LI":"水仙里","LIN":"15鄰","STREET":"國華街","SECT":"三段","MAREA":" ","LANE":" ","ALLEY":" ","HOUSE_NO":"１２３之２０６號","E_COORD97":167820.64794699999,"N_COORD97":2544156.6735,"ADDRESS":"國華街三段１２３之２０６號","OBJECTID":659196},"geometry":{"x":167820.64794700127,"y":2544156.6735009998}},{"attributes":{"ID":659224,"DIS_CODE":0,"TOWNNAME":"新市區","LI":"三舍里","LIN":"3鄰","STREET":" ","SECT":" ","MAREA":"三舍","LANE":" ","ALLEY":" ","HOUSE_NO":"５６之１號","E_COORD97":177857.266393,"N_COORD97":2554394.6101299999,"ADDRESS":"三舍５６之１號","OBJECTID":659197},"geometry":{"x":177857.26639300212,"y":2554394.6101290025}},{"attributes":{"ID":659225,"DIS_CODE":0,"TOWNNAME":"龍崎區","LI":"崎頂里","LIN":"2鄰","STREET":" ","SECT":" ","MAREA":"新市子","LANE":" ","ALLEY":" ","HOUSE_NO":"３９號","E_COORD97":184272.08572800001,"N_COORD97":2540491.5837699999,"ADDRESS":"新市子３９號","OBJECTID":659198},"geometry":{"x":184272.08572800085,"y":2540491.583767999}},{"attributes":{"ID":659226,"DIS_CODE":0,"TOWNNAME":"新化區","LI":"東榮里","LIN":"2鄰","STREET":"中興路","SECT":" ","MAREA":" ","LANE":" ","ALLEY":" ","HOUSE_NO":"６６號","E_COORD97":181939.242657,"N_COORD97":2547339.9844200001,"ADDRESS":"中興路６６號","OBJECTID":659199},"geometry":{"x":181939.2426570002,"y":2547339.984418001}},{"attributes":{"ID":659227,"DIS_CODE":0,"TOWNNAME":"西港區","LI":"劉厝里","LIN":"13鄰","STREET":" ","SECT":" ","MAREA":"劉厝","LANE":" ","ALLEY":" ","HOUSE_NO":"１０７之５號","E_COORD97":165691.732816,"N_COORD97":2558683.1474600001,"ADDRESS":"劉厝１０７之５號","OBJECTID":659200},"geometry":{"x":165691.73281599954,"y":2558683.147458002}}]}