{"displayFieldName":"TOWNNAME","fieldAliases":{"ID":"ID","DIS_CODE":"DIS_CODE","TOWNNAME":"TOWNNAME","LI":"LI","LIN":"LIN","STREET":"STREET","SECT":"SECT","MAREA":"MAREA","LANE":"LANE","ALLEY":"ALLEY","HOUSE_NO":"HOUSE_NO","E_COORD97":"E_COORD97","N_COORD97":"N_COORD97","ADDRESS":"ADDRESS","OBJECTID":"OBJECTID"},"geometryType":"esriGeometryPoint","spatialReference":{"wkid":102443,"latestWkid":3826},"fields":[{"name":"ID","type":"esriFieldTypeDouble","alias":"ID"},{"name":"DIS_CODE","type":"esriFieldTypeInteger","alias":"DIS_CODE"},{"name":"TOWNNAME","type":"esriFieldTypeString","alias":"TOWNNAME","length":8},{"name":"LI","type":"esriFieldTypeString","alias":"LI","length":8},{"name":"LIN","type":"esriFieldTypeString","alias":"LIN","length":12},{"name":"STREET","type":"esriFieldTypeString","alias":"STREET","length":20},{"name":"SECT","type":"esriFieldTypeString","alias":"SECT","length":8},{"name":"MAREA","type":"esriFieldTypeString","alias":"MAREA","length":12},{"name":"LANE","type":"esriFieldTypeString","alias":"LANE","length":10},{"name":"ALLEY","type":"esriFieldTypeString","alias":"ALLEY","length":10},{"name":"HOUSE_NO","type":"esriFieldTypeString","alias":"HOUSE_NO","length":20},{"name":"E_COORD97","type":"esriFieldTypeDouble","alias":"E_COORD97"},{"name":"N_COORD97","type":"esriFieldTypeDouble","alias":"N_COORD97"},{"name":"ADDRESS","type":"esriFieldTypeString","alias":"ADDRESS","length":50},{"name":"OBJECTID","type":"esriFieldTypeOID","alias":"OBJECTID"}],"features":[{"attributes":{"ID":664228,"DIS_CODE":0,"TOWNNAME":"北區","LI":"仁愛里","LIN":"10鄰","STREET":"東豐路","SECT":" ","MAREA":" ","LANE":"２２７巷","ALLEY":"２４弄","HOUSE_NO":"２５號之３","E_COORD97":170271.155746,"N_COORD97":2544971.90448,"ADDRESS":"東豐路２２７巷２４弄２５號之３","OBJECTID":664201},"geometry":{"x":170271.15574599989,"y":2544971.9044810012}},{"attributes":{"ID":664229,"DIS_CODE":0,"TOWNNAME":"南區","LI":"大成里","LIN":"8鄰","STREET":"新興東路","SECT":" ","MAREA":" ","LANE":" ","ALLEY":" ","HOUSE_NO":"１９８號","E_COORD97":167937.61023300001,"N_COORD97":2542310.59234,"ADDRESS":"新興東路１９８號","OBJECTID":664202},"geometry":{"x":167937.61023299955,"y":2542310.5923370011}},{"attributes":{"ID":664230,"DIS_CODE":0,"TOWNNAME":"南區","LI":"大成里","LIN":"8鄰","STREET":"新興東路","SECT":" ","MAREA":" ","LANE":" ","ALLEY":" ","HOUSE_NO":"２５６號","E_COORD97":167911.334386,"N_COORD97":2542314.1906699999,"ADDRESS":"新興東路２５６號","OBJECTID":664203},"geometry":{"x":167911.33438600041,"y":2542314.190669002}},{"attributes":{"ID":664231,"DIS_CODE":0,"TOWNNAME":"北區","LI":"仁愛里","LIN":"10鄰","STREET":"東豐路","SECT":" ","MAREA":" ","LANE":"２２７巷","ALLEY":"２４弄","HOUSE_NO":"２５號之４","E_COORD97":170272.63829999999,"N_COORD97":2544970.42282,"ADDRESS":"東豐路２２７巷２４弄２５號之４","OBJECTID":664204},"geometry":{"x":170272.63829999976,"y":2544970.4228150044}},{"attributes":{"ID":664232,"DIS_CODE":0,"TOWNNAME":"中西區","LI":"藥王里","LIN":"9鄰","STREET":"民權路","SECT":"三段","MAREA":" ","LANE":" ","ALLEY":" ","HOUSE_NO":"３２６號","E_COORD97":167033.643706,"N_COORD97":2544325.6948199999,"ADDRESS":"民權路三段３２６號","OBJECTID":664205},"geometry":{"x":167033.64370600041,"y":2544325.6948220022}},{"attributes":{"ID":664233,"DIS_CODE":0,"TOWNNAME":"北區","LI":"仁愛里","LIN":"10鄰","STREET":"東豐路","SECT":" ","MAREA":" ","LANE":"２２７巷","ALLEY":"２４弄","HOUSE_NO":"２５號之５","E_COORD97":170274.332647,"N_COORD97":2544968.7294800002,"ADDRESS":"東豐路２２７巷２４弄２５號之５","OBJECTID":664206},"geometry":{"x":170274.33264699951,"y":2544968.7294830009}},{"attributes":{"ID":664234,"DIS_CODE":0,"TOWNNAME":"北區","LI":"仁愛里","LIN":"10鄰","STREET":"東豐路","SECT":" ","MAREA":" ","LANE":"２２７巷","ALLEY":"２４弄","HOUSE_NO":"２５號之６","E_COORD97":170276.45058,"N_COORD97":2544967.6711499998,"ADDRESS":"東豐路２２７巷２４弄２５號之６","OBJECTID":664207},"geometry":{"x":170276.45057999995,"y":2544967.6711499989}},{"attributes":{"ID":664235,"DIS_CODE":0,"TOWNNAME":"北區","LI":"仁愛里","LIN":"10鄰","STREET":"東豐路","SECT":" ","MAREA":" ","LANE":"２２７巷","ALLEY":"２４弄","HOUSE_NO":"２５號之７","E_COORD97":170278.14492699999,"N_COORD97":2544966.6128199999,"ADDRESS":"東豐路２２７巷２４弄２５號之７","OBJECTID":664208},"geometry":{"x":170278.14492700063,"y":2544966.6128170006}},{"attributes":{"ID":664236,"DIS_CODE":0,"TOWNNAME":"北區","LI":"仁愛里","LIN":"10鄰","STREET":"東豐路","SECT":" ","MAREA":" ","LANE":"２２７巷","ALLEY":"２４弄","HOUSE_NO":"２５號之８","E_COORD97":170279.627481,"N_COORD97":2544965.9778200001,"ADDRESS":"東豐路２２７巷２４弄２５號之８","OBJECTID":664209},"geometry":{"x":170279.6274810005,"y":2544965.9778170008}},{"attributes":{"ID":664237,"DIS_CODE":0,"TOWNNAME":"北區","LI":"仁愛里","LIN":"10鄰","STREET":"東豐路","SECT":" ","MAREA":" ","LANE":"２２７巷","ALLEY":"２４弄","HOUSE_NO":"２５號之９","E_COORD97":170281.53362100001,"N_COORD97":2544965.1311499998,"ADDRESS":"東豐路２２７巷２４弄２５號之９","OBJECTID":664210},"geometry":{"x":170281.53362100199,"y":2544965.1311510038}},{"attributes":{"ID":664238,"DIS_CODE":0,"TOWNNAME":"北區","LI":"仁愛里","LIN":"10鄰","STREET":"東豐路","SECT":" ","MAREA":" ","LANE":"２２７巷","ALLEY":"２４弄","HOUSE_NO":"２５號之１０","E_COORD97":170283.22796799999,"N_COORD97":2544964.9194899998,"ADDRESS":"東豐路２２７巷２４弄２５號之１０","OBJECTID":664211},"geometry":{"x":170283.22796799988,"y":2544964.9194850009}},{"attributes":{"ID":664239,"DIS_CODE":0,"TOWNNAME":"南區","LI":"大成里","LIN":"9鄰","STREET":"新興東路","SECT":" ","MAREA":" ","LANE":" ","ALLEY":" ","HOUSE_NO":"２６８號","E_COORD97":167816.61419399999,"N_COORD97":2542297.8923399998,"ADDRESS":"新興東路２６８號","OBJECTID":664212},"geometry":{"x":167816.614194002,"y":2542297.8923440035}},{"attributes":{"ID":664240,"DIS_CODE":0,"TOWNNAME":"南區","LI":"大成里","LIN":"9鄰","STREET":"新興東路","SECT":" ","MAREA":" ","LANE":" ","ALLEY":" ","HOUSE_NO":"２６８號二樓","E_COORD97":167816.61419399999,"N_COORD97":2542297.8923399998,"ADDRESS":"新興東路２６８號二樓","OBJECTID":664213},"geometry":{"x":167816.614194002,"y":2542297.8923440035}},{"attributes":{"ID":664241,"DIS_CODE":0,"TOWNNAME":"南區","LI":"大成里","LIN":"9鄰","STREET":"新興東路","SECT":" ","MAREA":" ","LANE":" ","ALLEY":" ","HOUSE_NO":"２６８號三樓","E_COORD97":167816.61419399999,"N_COORD97":2542297.8923399998,"ADDRESS":"新興東路２６８號三樓","OBJECTID":664214},"geometry":{"x":167816.614194002,"y":2542297.8923440035}},{"attributes":{"ID":664242,"DIS_CODE":0,"TOWNNAME":"南區","LI":"大成里","LIN":"9鄰","STREET":"新興東路","SECT":" ","MAREA":" ","LANE":" ","ALLEY":" ","HOUSE_NO":"２６８號五樓","E_COORD97":167816.61419399999,"N_COORD97":2542297.8923399998,"ADDRESS":"新興東路２６８號五樓","OBJECTID":664215},"geometry":{"x":167816.614194002,"y":2542297.8923440035}},{"attributes":{"ID":664243,"DIS_CODE":0,"TOWNNAME":"南區","LI":"大成里","LIN":"9鄰","STREET":"新興東路","SECT":" ","MAREA":" ","LANE":" ","ALLEY":" ","HOUSE_NO":"２６８號四樓","E_COORD97":167816.61419399999,"N_COORD97":2542297.8923399998,"ADDRESS":"新興東路２６８號四樓","OBJECTID":664216},"geometry":{"x":167816.614194002,"y":2542297.8923440035}},{"attributes":{"ID":664244,"DIS_CODE":0,"TOWNNAME":"北區","LI":"仁愛里","LIN":"10鄰","STREET":"東豐路","SECT":" ","MAREA":" ","LANE":"２２７巷","ALLEY":"２４弄","HOUSE_NO":"２５號之１１","E_COORD97":170285.557695,"N_COORD97":2544964.9194899998,"ADDRESS":"東豐路２２７巷２４弄２５號之１１","OBJECTID":664217},"geometry":{"x":170285.55769500043,"y":2544964.9194850009}},{"attributes":{"ID":664245,"DIS_CODE":0,"TOWNNAME":"北區","LI":"仁愛里","LIN":"10鄰","STREET":"東豐路","SECT":" ","MAREA":" ","LANE":"２２７巷","ALLEY":"２４弄","HOUSE_NO":"２５號之１２","E_COORD97":170287.46383600001,"N_COORD97":2544964.9194899998,"ADDRESS":"東豐路２２７巷２４弄２５號之１２","OBJECTID":664218},"geometry":{"x":170287.46383600123,"y":2544964.9194850009}},{"attributes":{"ID":664246,"DIS_CODE":0,"TOWNNAME":"北區","LI":"仁愛里","LIN":"10鄰","STREET":"東豐路","SECT":" ","MAREA":" ","LANE":"２２７巷","ALLEY":"２４弄","HOUSE_NO":"２５號之１３","E_COORD97":170289.15818299999,"N_COORD97":2544964.28449,"ADDRESS":"東豐路２２７巷２４弄２５號之１３","OBJECTID":664219},"geometry":{"x":170289.15818300191,"y":2544964.2844850011}},{"attributes":{"ID":664247,"DIS_CODE":0,"TOWNNAME":"南區","LI":"大成里","LIN":"9鄰","STREET":"新興東路","SECT":" ","MAREA":" ","LANE":" ","ALLEY":" ","HOUSE_NO":"２７０號","E_COORD97":167805.59529100001,"N_COORD97":2542294.5056799999,"ADDRESS":"新興東路２７０號","OBJECTID":664220},"geometry":{"x":167805.59529100079,"y":2542294.505679002}},{"attributes":{"ID":664248,"DIS_CODE":0,"TOWNNAME":"南區","LI":"大成里","LIN":"9鄰","STREET":"新興東路","SECT":" ","MAREA":" ","LANE":" ","ALLEY":" ","HOUSE_NO":"２７０號二樓","E_COORD97":167805.59529100001,"N_COORD97":2542294.5056799999,"ADDRESS":"新興東路２７０號二樓","OBJECTID":664221},"geometry":{"x":167805.59529100079,"y":2542294.505679002}},{"attributes":{"ID":664249,"DIS_CODE":0,"TOWNNAME":"南區","LI":"大成里","LIN":"9鄰","STREET":"新興東路","SECT":" ","MAREA":" ","LANE":" ","ALLEY":" ","HOUSE_NO":"２７０號三樓","E_COORD97":167805.59529100001,"N_COORD97":2542294.5056799999,"ADDRESS":"新興東路２７０號三樓","OBJECTID":664222},"geometry":{"x":167805.59529100079,"y":2542294.505679002}},{"attributes":{"ID":664250,"DIS_CODE":0,"TOWNNAME":"南區","LI":"大成里","LIN":"9鄰","STREET":"新興東路","SECT":" ","MAREA":" ","LANE":" ","ALLEY":" ","HOUSE_NO":"２７０號五樓","E_COORD97":167805.59529100001,"N_COORD97":2542294.5056799999,"ADDRESS":"新興東路２７０號五樓","OBJECTID":664223},"geometry":{"x":167805.59529100079,"y":2542294.505679002}},{"attributes":{"ID":664251,"DIS_CODE":0,"TOWNNAME":"南區","LI":"大成里","LIN":"9鄰","STREET":"新興東路","SECT":" ","MAREA":" ","LANE":" ","ALLEY":" ","HOUSE_NO":"２７０號四樓","E_COORD97":167805.59529100001,"N_COORD97":2542294.5056799999,"ADDRESS":"新興東路２７０號四樓","OBJECTID":664224},"geometry":{"x":167805.59529100079,"y":2542294.505679002}},{"attributes":{"ID":664252,"DIS_CODE":0,"TOWNNAME":"南區","LI":"大成里","LIN":"9鄰","STREET":"新興東路","SECT":" ","MAREA":" ","LANE":" ","ALLEY":" ","HOUSE_NO":"２７２號","E_COORD97":167796.907309,"N_COORD97":2542291.9656799999,"ADDRESS":"新興東路２７２號","OBJECTID":664225},"geometry":{"x":167796.90730900038,"y":2542291.9656810015}},{"attributes":{"ID":664253,"DIS_CODE":0,"TOWNNAME":"南區","LI":"大成里","LIN":"9鄰","STREET":"新興東路","SECT":" ","MAREA":" ","LANE":" ","ALLEY":" ","HOUSE_NO":"２７２號二樓","E_COORD97":167796.907309,"N_COORD97":2542291.9656799999,"ADDRESS":"新興東路２７２號二樓","OBJECTID":664226},"geometry":{"x":167796.90730900038,"y":2542291.9656810015}},{"attributes":{"ID":664254,"DIS_CODE":0,"TOWNNAME":"南區","LI":"大成里","LIN":"9鄰","STREET":"新興東路","SECT":" ","MAREA":" ","LANE":" ","ALLEY":" ","HOUSE_NO":"２７２號三樓","E_COORD97":167796.907309,"N_COORD97":2542291.9656799999,"ADDRESS":"新興東路２７２號三樓","OBJECTID":664227},"geometry":{"x":167796.90730900038,"y":2542291.9656810015}},{"attributes":{"ID":664255,"DIS_CODE":0,"TOWNNAME":"南區","LI":"大成里","LIN":"9鄰","STREET":"新興東路","SECT":" ","MAREA":" ","LANE":" ","ALLEY":" ","HOUSE_NO":"２７２號五樓","E_COORD97":167796.907309,"N_COORD97":2542291.9656799999,"ADDRESS":"新興東路２７２號五樓","OBJECTID":664228},"geometry":{"x":167796.90730900038,"y":2542291.9656810015}},{"attributes":{"ID":664256,"DIS_CODE":0,"TOWNNAME":"南區","LI":"大成里","LIN":"9鄰","STREET":"新興東路","SECT":" ","MAREA":" ","LANE":" ","ALLEY":" ","HOUSE_NO":"２７２號四樓","E_COORD97":167796.907309,"N_COORD97":2542291.9656799999,"ADDRESS":"新興東路２７２號四樓","OBJECTID":664229},"geometry":{"x":167796.90730900038,"y":2542291.9656810015}},{"attributes":{"ID":664257,"DIS_CODE":0,"TOWNNAME":"南區","LI":"大成里","LIN":"9鄰","STREET":"新興東路","SECT":" ","MAREA":" ","LANE":" ","ALLEY":" ","HOUSE_NO":"２７６號","E_COORD97":167791.18595499999,"N_COORD97":2542291.7540099998,"ADDRESS":"新興東路２７６號","OBJECTID":664230},"geometry":{"x":167791.18595500011,"y":2542291.7540140003}},{"attributes":{"ID":664258,"DIS_CODE":0,"TOWNNAME":"南區","LI":"大成里","LIN":"9鄰","STREET":"新興東路","SECT":" ","MAREA":" ","LANE":" ","ALLEY":" ","HOUSE_NO":"２７６號二樓","E_COORD97":167791.18595499999,"N_COORD97":2542291.7540099998,"ADDRESS":"新興東路２７６號二樓","OBJECTID":664231},"geometry":{"x":167791.18595500011,"y":2542291.7540140003}},{"attributes":{"ID":664259,"DIS_CODE":0,"TOWNNAME":"南區","LI":"大成里","LIN":"9鄰","STREET":"新興東路","SECT":" ","MAREA":" ","LANE":" ","ALLEY":" ","HOUSE_NO":"２７６號三樓","E_COORD97":167791.18595499999,"N_COORD97":2542291.7540099998,"ADDRESS":"新興東路２７６號三樓","OBJECTID":664232},"geometry":{"x":167791.18595500011,"y":2542291.7540140003}},{"attributes":{"ID":664260,"DIS_CODE":0,"TOWNNAME":"南區","LI":"大成里","LIN":"9鄰","STREET":"新興東路","SECT":" ","MAREA":" ","LANE":" ","ALLEY":" ","HOUSE_NO":"２７６號五樓","E_COORD97":167791.18595499999,"N_COORD97":2542291.7540099998,"ADDRESS":"新興東路２７６號五樓","OBJECTID":664233},"geometry":{"x":167791.18595500011,"y":2542291.7540140003}},{"attributes":{"ID":664261,"DIS_CODE":0,"TOWNNAME":"南區","LI":"大成里","LIN":"9鄰","STREET":"新興東路","SECT":" ","MAREA":" ","LANE":" ","ALLEY":" ","HOUSE_NO":"２７６號四樓","E_COORD97":167791.18595499999,"N_COORD97":2542291.7540099998,"ADDRESS":"新興東路２７６號四樓","OBJECTID":664234},"geometry":{"x":167791.18595500011,"y":2542291.7540140003}},{"attributes":{"ID":664262,"DIS_CODE":0,"TOWNNAME":"南區","LI":"大成里","LIN":"9鄰","STREET":"新興東路","SECT":" ","MAREA":" ","LANE":" ","ALLEY":" ","HOUSE_NO":"２７６號地下室","E_COORD97":167791.18595499999,"N_COORD97":2542291.7540099998,"ADDRESS":"新興東路２７６號地下室","OBJECTID":664235},"geometry":{"x":167791.18595500011,"y":2542291.7540140003}},{"attributes":{"ID":664263,"DIS_CODE":0,"TOWNNAME":"南區","LI":"大成里","LIN":"9鄰","STREET":"新興東路","SECT":" ","MAREA":" ","LANE":" ","ALLEY":" ","HOUSE_NO":"２７８號","E_COORD97":167779.531346,"N_COORD97":2542290.6956799999,"ADDRESS":"新興東路２７８號","OBJECTID":664236},"geometry":{"x":167779.5313459998,"y":2542290.695681002}},{"attributes":{"ID":664264,"DIS_CODE":0,"TOWNNAME":"中西區","LI":"天后里","LIN":"16鄰","STREET":"新美街","SECT":" ","MAREA":" ","LANE":" ","ALLEY":" ","HOUSE_NO":"１６１號","E_COORD97":168117.248238,"N_COORD97":2544283.5731799998,"ADDRESS":"新美街１６１號","OBJECTID":664237},"geometry":{"x":168117.24823800102,"y":2544283.5731780007}},{"attributes":{"ID":664265,"DIS_CODE":0,"TOWNNAME":"北區","LI":"仁愛里","LIN":"10鄰","STREET":"東豐路","SECT":" ","MAREA":" ","LANE":"２２７巷","ALLEY":" ","HOUSE_NO":"２６號之１","E_COORD97":170104.68615600001,"N_COORD97":2544981.2178099998,"ADDRESS":"東豐路２２７巷２６號之１","OBJECTID":664238},"geometry":{"x":170104.68615600001,"y":2544981.2178090028}},{"attributes":{"ID":664266,"DIS_CODE":0,"TOWNNAME":"南區","LI":"大成里","LIN":"9鄰","STREET":"新興東路","SECT":" ","MAREA":" ","LANE":" ","ALLEY":" ","HOUSE_NO":"２８０號","E_COORD97":167776.14091399999,"N_COORD97":2542290.2723500002,"ADDRESS":"新興東路２８０號","OBJECTID":664239},"geometry":{"x":167776.14091399964,"y":2542290.2723479997}},{"attributes":{"ID":664267,"DIS_CODE":0,"TOWNNAME":"南區","LI":"大成里","LIN":"9鄰","STREET":"新興東路","SECT":" ","MAREA":" ","LANE":" ","ALLEY":" ","HOUSE_NO":"２８２號","E_COORD97":167772.114776,"N_COORD97":2542290.4840199999,"ADDRESS":"新興東路２８２號","OBJECTID":664240},"geometry":{"x":167772.11477600038,"y":2542290.484015001}},{"attributes":{"ID":664268,"DIS_CODE":0,"TOWNNAME":"南區","LI":"大成里","LIN":"9鄰","STREET":"西門路","SECT":"一段","MAREA":" ","LANE":" ","ALLEY":" ","HOUSE_NO":"３４０號","E_COORD97":167766.81722600001,"N_COORD97":2542290.4840199999,"ADDRESS":"西門路一段３４０號","OBJECTID":664241},"geometry":{"x":167766.81722600013,"y":2542290.484015001}},{"attributes":{"ID":664269,"DIS_CODE":0,"TOWNNAME":"南區","LI":"大成里","LIN":"9鄰","STREET":"西門路","SECT":"一段","MAREA":" ","LANE":" ","ALLEY":" ","HOUSE_NO":"３４２號","E_COORD97":167759.82446,"N_COORD97":2542298.1040099999,"ADDRESS":"西門路一段３４２號","OBJECTID":664242},"geometry":{"x":167759.8244599998,"y":2542298.1040109992}},{"attributes":{"ID":664270,"DIS_CODE":0,"TOWNNAME":"北區","LI":"仁愛里","LIN":"10鄰","STREET":"長榮路","SECT":"四段","MAREA":" ","LANE":" ","ALLEY":" ","HOUSE_NO":"６７號","E_COORD97":170292.33508300001,"N_COORD97":2544978.4661400001,"ADDRESS":"長榮路四段６７號","OBJECTID":664243},"geometry":{"x":170292.33508300036,"y":2544978.4661440011}},{"attributes":{"ID":664271,"DIS_CODE":0,"TOWNNAME":"新化區","LI":"羊林里","LIN":"4鄰","STREET":" ","SECT":" ","MAREA":"\u25A0拔林","LANE":" ","ALLEY":" ","HOUSE_NO":"５１７號之１","E_COORD97":183686.159487,"N_COORD97":2551645.9225599999,"ADDRESS":"\u25A0拔林５１７號之１","OBJECTID":664244},"geometry":{"x":183686.15948699974,"y":2551645.9225629997}},{"attributes":{"ID":664272,"DIS_CODE":0,"TOWNNAME":"新化區","LI":"羊林里","LIN":"5鄰","STREET":" ","SECT":" ","MAREA":"\u25A0拔林","LANE":" ","ALLEY":" ","HOUSE_NO":"５０４號之３","E_COORD97":183571.327345,"N_COORD97":2551602.95425,"ADDRESS":"\u25A0拔林５０４號之３","OBJECTID":664245},"geometry":{"x":183571.32734499965,"y":2551602.9542529993}},{"attributes":{"ID":664273,"DIS_CODE":0,"TOWNNAME":"新化區","LI":"羊林里","LIN":"5鄰","STREET":" ","SECT":" ","MAREA":"\u25A0拔林","LANE":" ","ALLEY":" ","HOUSE_NO":"４６４號","E_COORD97":183610.31095000001,"N_COORD97":2551716.40753,"ADDRESS":"\u25A0拔林４６４號","OBJECTID":664246},"geometry":{"x":183610.31095000077,"y":2551716.4075250011}},{"attributes":{"ID":664274,"DIS_CODE":0,"TOWNNAME":"北區","LI":"仁愛里","LIN":"10鄰","STREET":"開元路","SECT":" ","MAREA":" ","LANE":"１４８巷","ALLEY":"１０１弄","HOUSE_NO":"２號之１","E_COORD97":170113.793271,"N_COORD97":2545000.0561299999,"ADDRESS":"開元路１４８巷１０１弄２號之１","OBJECTID":664247},"geometry":{"x":170113.7932710005,"y":2545000.0561320018}},{"attributes":{"ID":664275,"DIS_CODE":0,"TOWNNAME":"北區","LI":"仁愛里","LIN":"10鄰","STREET":"開元路","SECT":" ","MAREA":" ","LANE":"１４８巷","ALLEY":"１０１弄","HOUSE_NO":"２號之２","E_COORD97":170117.81734000001,"N_COORD97":2545001.1144599998,"ADDRESS":"開元路１４８巷１０１弄２號之２","OBJECTID":664248},"geometry":{"x":170117.8173399996,"y":2545001.1144599989}},{"attributes":{"ID":664276,"DIS_CODE":0,"TOWNNAME":"北區","LI":"仁愛里","LIN":"10鄰","STREET":"開元路","SECT":" ","MAREA":" ","LANE":"１４８巷","ALLEY":"１０１弄","HOUSE_NO":"２號之３","E_COORD97":170119.72348499999,"N_COORD97":2545001.7494600001,"ADDRESS":"開元路１４８巷１０１弄２號之３","OBJECTID":664249},"geometry":{"x":170119.72348500043,"y":2545001.7494649999}},{"attributes":{"ID":664277,"DIS_CODE":0,"TOWNNAME":"北區","LI":"仁愛里","LIN":"10鄰","STREET":"開元路","SECT":" ","MAREA":" ","LANE":"１４８巷","ALLEY":"１０１弄","HOUSE_NO":"２號之４","E_COORD97":170122.265006,"N_COORD97":2545002.59613,"ADDRESS":"開元路１４８巷１０１弄２號之４","OBJECTID":664250},"geometry":{"x":170122.26500600111,"y":2545002.5961310007}},{"attributes":{"ID":664278,"DIS_CODE":0,"TOWNNAME":"北區","LI":"仁愛里","LIN":"10鄰","STREET":"開元路","SECT":" ","MAREA":" ","LANE":"１４８巷","ALLEY":"１０１弄","HOUSE_NO":"４號之１","E_COORD97":170126.71266600001,"N_COORD97":2545004.9244599999,"ADDRESS":"開元路１４８巷１０１弄４號之１","OBJECTID":664251},"geometry":{"x":170126.71266600117,"y":2545004.9244630001}},{"attributes":{"ID":664279,"DIS_CODE":0,"TOWNNAME":"北區","LI":"仁愛里","LIN":"10鄰","STREET":"開元路","SECT":" ","MAREA":" ","LANE":"１４８巷","ALLEY":"１０１弄","HOUSE_NO":"４號之２","E_COORD97":170128.19521999999,"N_COORD97":2545005.9827999999,"ADDRESS":"開元路１４８巷１０１弄４號之２","OBJECTID":664252},"geometry":{"x":170128.19522000104,"y":2545005.9827960022}},{"attributes":{"ID":664280,"DIS_CODE":0,"TOWNNAME":"新化區","LI":"羊林里","LIN":"6鄰","STREET":" ","SECT":" ","MAREA":"\u25A0拔林","LANE":" ","ALLEY":" ","HOUSE_NO":"４９４號","E_COORD97":183432.55418499999,"N_COORD97":2551607.29342,"ADDRESS":"\u25A0拔林４９４號","OBJECTID":664253},"geometry":{"x":183432.55418500025,"y":2551607.2934169993}},{"attributes":{"ID":664281,"DIS_CODE":0,"TOWNNAME":"北區","LI":"仁愛里","LIN":"10鄰","STREET":"開元路","SECT":" ","MAREA":" ","LANE":"１４８巷","ALLEY":"１０１弄","HOUSE_NO":"４號之３","E_COORD97":170128.40701299999,"N_COORD97":2545008.7344599999,"ADDRESS":"開元路１４８巷１０１弄４號之３","OBJECTID":664254},"geometry":{"x":170128.40701299906,"y":2545008.7344610039}},{"attributes":{"ID":664282,"DIS_CODE":0,"TOWNNAME":"新化區","LI":"羊林里","LIN":"6鄰","STREET":" ","SECT":" ","MAREA":"\u25A0拔林","LANE":" ","ALLEY":" ","HOUSE_NO":"４９５號","E_COORD97":183346.324146,"N_COORD97":2551633.0109000001,"ADDRESS":"\u25A0拔林４９５號","OBJECTID":664255},"geometry":{"x":183346.32414599974,"y":2551633.0109030008}},{"attributes":{"ID":664283,"DIS_CODE":0,"TOWNNAME":"北區","LI":"仁愛里","LIN":"10鄰","STREET":"開元路","SECT":" ","MAREA":" ","LANE":"１４８巷","ALLEY":"１０１弄","HOUSE_NO":"４號之４","E_COORD97":170130.73673999999,"N_COORD97":2545008.9461300001,"ADDRESS":"開元路１４８巷１０１弄４號之４","OBJECTID":664256},"geometry":{"x":170130.73673999961,"y":2545008.9461279996}},{"attributes":{"ID":664284,"DIS_CODE":0,"TOWNNAME":"新化區","LI":"羊林里","LIN":"6鄰","STREET":" ","SECT":" ","MAREA":"\u25A0拔林","LANE":" ","ALLEY":" ","HOUSE_NO":"４９８號","E_COORD97":183449.71544599999,"N_COORD97":2551565.91261,"ADDRESS":"\u25A0拔林４９８號","OBJECTID":664257},"geometry":{"x":183449.71544600092,"y":2551565.9126060009}},{"attributes":{"ID":664285,"DIS_CODE":0,"TOWNNAME":"新化區","LI":"羊林里","LIN":"6鄰","STREET":" ","SECT":" ","MAREA":"\u25A0拔林","LANE":" ","ALLEY":" ","HOUSE_NO":"４９９號","E_COORD97":183299.289578,"N_COORD97":2551529.9292899999,"ADDRESS":"\u25A0拔林４９９號","OBJECTID":664258},"geometry":{"x":183299.28957800101,"y":2551529.9292920027}},{"attributes":{"ID":664286,"DIS_CODE":0,"TOWNNAME":"北區","LI":"仁愛里","LIN":"10鄰","STREET":"開元路","SECT":" ","MAREA":" ","LANE":"１４８巷","ALLEY":"１０１弄","HOUSE_NO":"１８號","E_COORD97":170160.17601900001,"N_COORD97":2545013.1794599998,"ADDRESS":"開元路１４８巷１０１弄１８號","OBJECTID":664259},"geometry":{"x":170160.17601899989,"y":2545013.1794590019}},{"attributes":{"ID":664287,"DIS_CODE":0,"TOWNNAME":"北區","LI":"仁愛里","LIN":"10鄰","STREET":"開元路","SECT":" ","MAREA":" ","LANE":"１４８巷","ALLEY":"１０１弄","HOUSE_NO":"２０號","E_COORD97":170162.92933300001,"N_COORD97":2545013.6027899999,"ADDRESS":"開元路１４８巷１０１弄２０號","OBJECTID":664260},"geometry":{"x":170162.92933300138,"y":2545013.6027920004}},{"attributes":{"ID":664288,"DIS_CODE":0,"TOWNNAME":"北區","LI":"仁愛里","LIN":"10鄰","STREET":"開元路","SECT":" ","MAREA":" ","LANE":"１４８巷","ALLEY":"１０１弄","HOUSE_NO":"２２號","E_COORD97":170165.25906000001,"N_COORD97":2545015.08446,"ADDRESS":"開元路１４８巷１０１弄２２號","OBJECTID":664261},"geometry":{"x":170165.25906000193,"y":2545015.084458001}},{"attributes":{"ID":664289,"DIS_CODE":0,"TOWNNAME":"北區","LI":"仁愛里","LIN":"10鄰","STREET":"開元路","SECT":" ","MAREA":" ","LANE":"１４８巷","ALLEY":"１０１弄","HOUSE_NO":"２４號","E_COORD97":170167.80058099999,"N_COORD97":2545016.5661200001,"ADDRESS":"開元路１４８巷１０１弄２４號","OBJECTID":664262},"geometry":{"x":170167.80058099981,"y":2545016.5661229994}},{"attributes":{"ID":664290,"DIS_CODE":0,"TOWNNAME":"北區","LI":"仁愛里","LIN":"10鄰","STREET":"開元路","SECT":" ","MAREA":" ","LANE":"１４８巷","ALLEY":"１０１弄","HOUSE_NO":"２６號","E_COORD97":170170.34210099999,"N_COORD97":2545017.8361200001,"ADDRESS":"開元路１４８巷１０１弄２６號","OBJECTID":664263},"geometry":{"x":170170.34210100118,"y":2545017.8361230027}},{"attributes":{"ID":664291,"DIS_CODE":0,"TOWNNAME":"北區","LI":"仁愛里","LIN":"15鄰","STREET":"長榮路","SECT":"四段","MAREA":" ","LANE":" ","ALLEY":" ","HOUSE_NO":"３１號","E_COORD97":170281.53362100001,"N_COORD97":2544888.9311899999,"ADDRESS":"長榮路四段３１號","OBJECTID":664264},"geometry":{"x":170281.53362100199,"y":2544888.9311919976}},{"attributes":{"ID":664292,"DIS_CODE":0,"TOWNNAME":"新化區","LI":"羊林里","LIN":"6鄰","STREET":" ","SECT":" ","MAREA":"\u25A0拔林","LANE":" ","ALLEY":" ","HOUSE_NO":"５０１號之５","E_COORD97":183529.37759600001,"N_COORD97":2551649.41506,"ADDRESS":"\u25A0拔林５０１號之５","OBJECTID":664265},"geometry":{"x":183529.37759600114,"y":2551649.4150610007}},{"attributes":{"ID":664293,"DIS_CODE":0,"TOWNNAME":"北區","LI":"仁愛里","LIN":"15鄰","STREET":"長榮路","SECT":"四段","MAREA":" ","LANE":" ","ALLEY":" ","HOUSE_NO":"９號","E_COORD97":170278.99210100001,"N_COORD97":2544838.34289,"ADDRESS":"長榮路四段９號","OBJECTID":664266},"geometry":{"x":170278.99210100062,"y":2544838.3428860046}},{"attributes":{"ID":664294,"DIS_CODE":0,"TOWNNAME":"新化區","LI":"羊林里","LIN":"6鄰","STREET":" ","SECT":" ","MAREA":"\u25A0拔林","LANE":" ","ALLEY":" ","HOUSE_NO":"５０３號之２","E_COORD97":183555.22542100001,"N_COORD97":2551596.1809200002,"ADDRESS":"\u25A0拔林５０３號之２","OBJECTID":664267},"geometry":{"x":183555.2254210012,"y":2551596.1809230018}},{"attributes":{"ID":664295,"DIS_CODE":0,"TOWNNAME":"新化區","LI":"羊林里","LIN":"6鄰","STREET":" ","SECT":" ","MAREA":"\u25A0拔林","LANE":" ","ALLEY":" ","HOUSE_NO":"５０３號之１","E_COORD97":183556.07289099999,"N_COORD97":2551585.3859299999,"ADDRESS":"\u25A0拔林５０３號之１","OBJECTID":664268},"geometry":{"x":183556.07289100159,"y":2551585.3859289996}},{"attributes":{"ID":664296,"DIS_CODE":0,"TOWNNAME":"北區","LI":"仁愛里","LIN":"15鄰","STREET":"長榮路","SECT":"四段","MAREA":" ","LANE":" ","ALLEY":" ","HOUSE_NO":"７號","E_COORD97":170278.14492699999,"N_COORD97":2544835.3795599998,"ADDRESS":"長榮路四段７號","OBJECTID":664269},"geometry":{"x":170278.14492700063,"y":2544835.3795550019}},{"attributes":{"ID":664297,"DIS_CODE":0,"TOWNNAME":"北區","LI":"仁愛里","LIN":"15鄰","STREET":"長榮路","SECT":"四段","MAREA":" ","LANE":" ","ALLEY":" ","HOUSE_NO":"５號","E_COORD97":170277.50954699999,"N_COORD97":2544832.41622,"ADDRESS":"長榮路四段５號","OBJECTID":664270},"geometry":{"x":170277.50954700075,"y":2544832.4162230026}},{"attributes":{"ID":664298,"DIS_CODE":0,"TOWNNAME":"北區","LI":"仁愛里","LIN":"12鄰","STREET":"長榮路","SECT":"四段","MAREA":" ","LANE":"３１巷","ALLEY":" ","HOUSE_NO":"１號之１","E_COORD97":170267.13167199999,"N_COORD97":2544873.9028699999,"ADDRESS":"長榮路四段３１巷１號之１","OBJECTID":664271},"geometry":{"x":170267.13167200144,"y":2544873.9028670024}},{"attributes":{"ID":664299,"DIS_CODE":0,"TOWNNAME":"北區","LI":"仁愛里","LIN":"12鄰","STREET":"長榮路","SECT":"四段","MAREA":" ","LANE":"３１巷","ALLEY":" ","HOUSE_NO":"１號之２","E_COORD97":170263.531185,"N_COORD97":2544874.3262,"ADDRESS":"長榮路四段３１巷１號之２","OBJECTID":664272},"geometry":{"x":170263.53118500113,"y":2544874.3262000009}},{"attributes":{"ID":664300,"DIS_CODE":0,"TOWNNAME":"後壁區","LI":"福安里","LIN":"15鄰","STREET":" ","SECT":" ","MAREA":"下寮","LANE":" ","ALLEY":" ","HOUSE_NO":"１６９號之７","E_COORD97":183839.33146799999,"N_COORD97":2581014.7108999998,"ADDRESS":"下寮１６９號之７","OBJECTID":664273},"geometry":{"x":183839.33146800008,"y":2581014.7108970005}},{"attributes":{"ID":664301,"DIS_CODE":0,"TOWNNAME":"北區","LI":"仁愛里","LIN":"12鄰","STREET":"長榮路","SECT":"四段","MAREA":" ","LANE":"３１巷","ALLEY":" ","HOUSE_NO":"１號之３","E_COORD97":170260.354284,"N_COORD97":2544875.3845299999,"ADDRESS":"長榮路四段３１巷１號之３","OBJECTID":664274},"geometry":{"x":170260.35428400058,"y":2544875.3845329992}},{"attributes":{"ID":664302,"DIS_CODE":0,"TOWNNAME":"北區","LI":"仁愛里","LIN":"12鄰","STREET":"長榮路","SECT":"四段","MAREA":" ","LANE":"３１巷","ALLEY":" ","HOUSE_NO":"１號之４","E_COORD97":170256.54200300001,"N_COORD97":2544876.4428699999,"ADDRESS":"長榮路四段３１巷１號之４","OBJECTID":664275},"geometry":{"x":170256.54200300109,"y":2544876.4428660013}},{"attributes":{"ID":664303,"DIS_CODE":0,"TOWNNAME":"新化區","LI":"羊林里","LIN":"7鄰","STREET":" ","SECT":" ","MAREA":"洋子寮","LANE":" ","ALLEY":" ","HOUSE_NO":"１８號之９","E_COORD97":183947.81575000001,"N_COORD97":2550122.0292199999,"ADDRESS":"洋子寮１８號之９","OBJECTID":664276},"geometry":{"x":183947.81575000007,"y":2550122.0292189997}},{"attributes":{"ID":664304,"DIS_CODE":0,"TOWNNAME":"新化區","LI":"羊林里","LIN":"7鄰","STREET":" ","SECT":" ","MAREA":"洋子寮","LANE":" ","ALLEY":" ","HOUSE_NO":"１８號之８","E_COORD97":183947.603882,"N_COORD97":2550073.9809099999,"ADDRESS":"洋子寮１８號之８","OBJECTID":664277},"geometry":{"x":183947.60388199985,"y":2550073.9809119999}},{"attributes":{"ID":664305,"DIS_CODE":0,"TOWNNAME":"新化區","LI":"羊林里","LIN":"7鄰","STREET":" ","SECT":" ","MAREA":"洋子寮","LANE":" ","ALLEY":" ","HOUSE_NO":"１８號之７","E_COORD97":183709.888638,"N_COORD97":2549737.6427600002,"ADDRESS":"洋子寮１８號之７","OBJECTID":664278},"geometry":{"x":183709.888638,"y":2549737.6427600011}},{"attributes":{"ID":664306,"DIS_CODE":0,"TOWNNAME":"後壁區","LI":"福安里","LIN":"15鄰","STREET":" ","SECT":" ","MAREA":"下寮","LANE":" ","ALLEY":" ","HOUSE_NO":"１７１號","E_COORD97":183962.53653099999,"N_COORD97":2580869.8251399999,"ADDRESS":"下寮１７１號","OBJECTID":664279},"geometry":{"x":183962.53653100226,"y":2580869.8251410034}},{"attributes":{"ID":664307,"DIS_CODE":0,"TOWNNAME":"新化區","LI":"羊林里","LIN":"7鄰","STREET":" ","SECT":" ","MAREA":"洋子寮","LANE":" ","ALLEY":" ","HOUSE_NO":"１８號之３","E_COORD97":183791.881329,"N_COORD97":2549894.8051700001,"ADDRESS":"洋子寮１８號之３","OBJECTID":664280},"geometry":{"x":183791.88132900186,"y":2549894.8051749989}},{"attributes":{"ID":664308,"DIS_CODE":0,"TOWNNAME":"後壁區","LI":"福安里","LIN":"15鄰","STREET":" ","SECT":" ","MAREA":"下寮","LANE":" ","ALLEY":" ","HOUSE_NO":"１７７號之１","E_COORD97":183861.47236099999,"N_COORD97":2580771.4531100001,"ADDRESS":"下寮１７７號之１","OBJECTID":664281},"geometry":{"x":183861.47236100119,"y":2580771.4531109985}},{"attributes":{"ID":664309,"DIS_CODE":0,"TOWNNAME":"新化區","LI":"羊林里","LIN":"7鄰","STREET":" ","SECT":" ","MAREA":"洋子寮","LANE":" ","ALLEY":" ","HOUSE_NO":"４５號","E_COORD97":184919.65160400001,"N_COORD97":2550748.0330500002,"ADDRESS":"洋子寮４５號","OBJECTID":664282},"geometry":{"x":184919.65160400141,"y":2550748.0330480002}},{"attributes":{"ID":664310,"DIS_CODE":0,"TOWNNAME":"北區","LI":"仁愛里","LIN":"12鄰","STREET":"長榮路","SECT":"四段","MAREA":" ","LANE":"３１巷","ALLEY":" ","HOUSE_NO":"１１號之１","E_COORD97":170236.63342599999,"N_COORD97":2544881.0995299998,"ADDRESS":"長榮路四段３１巷１１號之１","OBJECTID":664283},"geometry":{"x":170236.63342600036,"y":2544881.0995300021}},{"attributes":{"ID":664311,"DIS_CODE":0,"TOWNNAME":"北區","LI":"仁愛里","LIN":"12鄰","STREET":"長榮路","SECT":"四段","MAREA":" ","LANE":"３１巷","ALLEY":" ","HOUSE_NO":"１１號之２","E_COORD97":170233.24473199999,"N_COORD97":2544881.9462000001,"ADDRESS":"長榮路四段３１巷１１號之２","OBJECTID":664284},"geometry":{"x":170233.24473200087,"y":2544881.9461960047}},{"attributes":{"ID":664312,"DIS_CODE":0,"TOWNNAME":"北區","LI":"仁愛里","LIN":"12鄰","STREET":"長榮路","SECT":"四段","MAREA":" ","LANE":"３１巷","ALLEY":" ","HOUSE_NO":"１１號之３","E_COORD97":170230.067832,"N_COORD97":2544881.73453,"ADDRESS":"長榮路四段３１巷１１號之３","OBJECTID":664285},"geometry":{"x":170230.06783200055,"y":2544881.7345300019}},{"attributes":{"ID":664313,"DIS_CODE":0,"TOWNNAME":"北區","LI":"仁愛里","LIN":"12鄰","STREET":"長榮路","SECT":"四段","MAREA":" ","LANE":"３１巷","ALLEY":" ","HOUSE_NO":"１１號之４","E_COORD97":170227.52630999999,"N_COORD97":2544883.00452,"ADDRESS":"長榮路四段３１巷１１號之４","OBJECTID":664286},"geometry":{"x":170227.52631000057,"y":2544883.004519999}},{"attributes":{"ID":664314,"DIS_CODE":0,"TOWNNAME":"南區","LI":"省躬里","LIN":"14鄰","STREET":"萬年路","SECT":" ","MAREA":" ","LANE":"１２６巷","ALLEY":" ","HOUSE_NO":"５號","E_COORD97":166426.89496500001,"N_COORD97":2537234.0998499999,"ADDRESS":"萬年路１２６巷５號","OBJECTID":664287},"geometry":{"x":166426.89496500045,"y":2537234.0998480022}},{"attributes":{"ID":664315,"DIS_CODE":0,"TOWNNAME":"南區","LI":"省躬里","LIN":"14鄰","STREET":"萬年路","SECT":" ","MAREA":" ","LANE":"１２６巷","ALLEY":" ","HOUSE_NO":"７號","E_COORD97":166427.742062,"N_COORD97":2537227.11485,"ADDRESS":"萬年路１２６巷７號","OBJECTID":664288},"geometry":{"x":166427.74206200056,"y":2537227.1148509998}},{"attributes":{"ID":664316,"DIS_CODE":0,"TOWNNAME":"北區","LI":"仁愛里","LIN":"12鄰","STREET":"長榮路","SECT":"四段","MAREA":" ","LANE":"３１巷","ALLEY":" ","HOUSE_NO":"１３號之１","E_COORD97":170220.53713000001,"N_COORD97":2544885.1211899999,"ADDRESS":"長榮路四段３１巷１３號之１","OBJECTID":664289},"geometry":{"x":170220.537130001,"y":2544885.1211900022}},{"attributes":{"ID":664317,"DIS_CODE":0,"TOWNNAME":"南區","LI":"省躬里","LIN":"14鄰","STREET":"萬年路","SECT":" ","MAREA":" ","LANE":"１２６巷","ALLEY":"９弄","HOUSE_NO":"１號","E_COORD97":166431.76576899999,"N_COORD97":2537232.9356800001,"ADDRESS":"萬年路１２６巷９弄１號","OBJECTID":664290},"geometry":{"x":166431.7657690011,"y":2537232.9356820043}},{"attributes":{"ID":664318,"DIS_CODE":0,"TOWNNAME":"南區","LI":"省躬里","LIN":"14鄰","STREET":"萬年路","SECT":" ","MAREA":" ","LANE":"１２６巷","ALLEY":"９弄","HOUSE_NO":"３號","E_COORD97":166438.75431300001,"N_COORD97":2537233.04152,"ADDRESS":"萬年路１２６巷９弄３號","OBJECTID":664291},"geometry":{"x":166438.75431299955,"y":2537233.0415150002}},{"attributes":{"ID":664319,"DIS_CODE":0,"TOWNNAME":"南區","LI":"省躬里","LIN":"14鄰","STREET":"萬年路","SECT":" ","MAREA":" ","LANE":"１２６巷","ALLEY":"９弄","HOUSE_NO":"５號","E_COORD97":166445.10753400001,"N_COORD97":2537234.0998499999,"ADDRESS":"萬年路１２６巷９弄５號","OBJECTID":664292},"geometry":{"x":166445.10753400065,"y":2537234.0998480022}},{"attributes":{"ID":664320,"DIS_CODE":0,"TOWNNAME":"北區","LI":"仁愛里","LIN":"12鄰","STREET":"長榮路","SECT":"四段","MAREA":" ","LANE":"３１巷","ALLEY":" ","HOUSE_NO":"１３號之２","E_COORD97":170217.57201999999,"N_COORD97":2544885.7561900001,"ADDRESS":"長榮路四段３１巷１３號之２","OBJECTID":664293},"geometry":{"x":170217.57202000078,"y":2544885.756190002}},{"attributes":{"ID":664321,"DIS_CODE":0,"TOWNNAME":"南區","LI":"省躬里","LIN":"14鄰","STREET":"萬年路","SECT":" ","MAREA":" ","LANE":"１２６巷","ALLEY":"９弄","HOUSE_NO":"７號","E_COORD97":166450.40188600001,"N_COORD97":2537234.6290099998,"ADDRESS":"萬年路１２６巷９弄７號","OBJECTID":664294},"geometry":{"x":166450.4018860003,"y":2537234.6290140022}},{"attributes":{"ID":664322,"DIS_CODE":0,"TOWNNAME":"南區","LI":"省躬里","LIN":"14鄰","STREET":"萬年路","SECT":" ","MAREA":" ","LANE":"１２６巷","ALLEY":"９弄","HOUSE_NO":"９號","E_COORD97":166455.90801099999,"N_COORD97":2537234.9465100002,"ADDRESS":"萬年路１２６巷９弄９號","OBJECTID":664295},"geometry":{"x":166455.9080110006,"y":2537234.9465139993}},{"attributes":{"ID":664323,"DIS_CODE":0,"TOWNNAME":"北區","LI":"仁愛里","LIN":"12鄰","STREET":"長榮路","SECT":"四段","MAREA":" ","LANE":"３１巷","ALLEY":" ","HOUSE_NO":"１３號之３","E_COORD97":170217.57201999999,"N_COORD97":2544885.7561900001,"ADDRESS":"長榮路四段３１巷１３號之３","OBJECTID":664296},"geometry":{"x":170217.57202000078,"y":2544885.756190002}},{"attributes":{"ID":664324,"DIS_CODE":0,"TOWNNAME":"南區","LI":"省躬里","LIN":"14鄰","STREET":"萬年路","SECT":" ","MAREA":" ","LANE":"１２６巷","ALLEY":"９弄","HOUSE_NO":"１１號","E_COORD97":166462.47300699999,"N_COORD97":2537235.4756800001,"ADDRESS":"萬年路１２６巷９弄１１號","OBJECTID":664297},"geometry":{"x":166462.47300700005,"y":2537235.4756800048}},{"attributes":{"ID":664325,"DIS_CODE":0,"TOWNNAME":"北區","LI":"仁愛里","LIN":"12鄰","STREET":"長榮路","SECT":"四段","MAREA":" ","LANE":"３１巷","ALLEY":" ","HOUSE_NO":"１３號之４","E_COORD97":170217.57201999999,"N_COORD97":2544885.7561900001,"ADDRESS":"長榮路四段３１巷１３號之４","OBJECTID":664298},"geometry":{"x":170217.57202000078,"y":2544885.756190002}},{"attributes":{"ID":664326,"DIS_CODE":0,"TOWNNAME":"南區","LI":"省躬里","LIN":"14鄰","STREET":"萬年路","SECT":" ","MAREA":" ","LANE":"１２６巷","ALLEY":"９弄","HOUSE_NO":"１３號","E_COORD97":166468.614455,"N_COORD97":2537236.4281799998,"ADDRESS":"萬年路１２６巷９弄１３號","OBJECTID":664299},"geometry":{"x":166468.61445499957,"y":2537236.4281800017}},{"attributes":{"ID":664327,"DIS_CODE":0,"TOWNNAME":"南區","LI":"省躬里","LIN":"14鄰","STREET":"萬年路","SECT":" ","MAREA":" ","LANE":"１２６巷","ALLEY":"９弄","HOUSE_NO":"１５號","E_COORD97":166474.33235499999,"N_COORD97":2537236.32235,"ADDRESS":"萬年路１２６巷９弄１５號","OBJECTID":664300},"geometry":{"x":166474.33235500008,"y":2537236.3223470002}},{"attributes":{"ID":664328,"DIS_CODE":0,"TOWNNAME":"南區","LI":"省躬里","LIN":"14鄰","STREET":"萬年路","SECT":" ","MAREA":" ","LANE":"１２６巷","ALLEY":"９弄","HOUSE_NO":"１７號","E_COORD97":166480.262028,"N_COORD97":2537236.2165100002,"ADDRESS":"萬年路１２６巷９弄１７號","OBJECTID":664301},"geometry":{"x":166480.26202800032,"y":2537236.2165130004}},{"attributes":{"ID":664329,"DIS_CODE":0,"TOWNNAME":"南區","LI":"省躬里","LIN":"14鄰","STREET":"萬年路","SECT":" ","MAREA":" ","LANE":"１２６巷","ALLEY":"９弄","HOUSE_NO":"１９號","E_COORD97":166485.55637999999,"N_COORD97":2537236.1106799999,"ADDRESS":"萬年路１２６巷９弄１９號","OBJECTID":664302},"geometry":{"x":166485.55637999997,"y":2537236.110679999}},{"attributes":{"ID":664330,"DIS_CODE":0,"TOWNNAME":"南區","LI":"省躬里","LIN":"14鄰","STREET":"萬年路","SECT":" ","MAREA":" ","LANE":"１２６巷","ALLEY":"９弄","HOUSE_NO":"２１號","E_COORD97":166492.54492399999,"N_COORD97":2537236.8515099999,"ADDRESS":"萬年路１２６巷９弄２１號","OBJECTID":664303},"geometry":{"x":166492.54492400028,"y":2537236.8515130002}},{"attributes":{"ID":664331,"DIS_CODE":0,"TOWNNAME":"南區","LI":"省躬里","LIN":"14鄰","STREET":"萬年路","SECT":" ","MAREA":" ","LANE":"１２６巷","ALLEY":"９弄","HOUSE_NO":"２３號","E_COORD97":166501.01588600001,"N_COORD97":2537237.59235,"ADDRESS":"萬年路１２６巷９弄２３號","OBJECTID":664304},"geometry":{"x":166501.01588600036,"y":2537237.5923459996}},{"attributes":{"ID":664332,"DIS_CODE":0,"TOWNNAME":"後壁區","LI":"福安里","LIN":"15鄰","STREET":" ","SECT":" ","MAREA":"下寮","LANE":" ","ALLEY":" ","HOUSE_NO":"１８２號之１","E_COORD97":183654.25903099999,"N_COORD97":2580853.9501499999,"ADDRESS":"下寮１８２號之１","OBJECTID":664305},"geometry":{"x":183654.25903100148,"y":2580853.9501499999}},{"attributes":{"ID":664333,"DIS_CODE":0,"TOWNNAME":"北區","LI":"仁愛里","LIN":"12鄰","STREET":"長榮路","SECT":"四段","MAREA":" ","LANE":"３１巷","ALLEY":" ","HOUSE_NO":"１５號之１","E_COORD97":170210.15925,"N_COORD97":2544887.6611899999,"ADDRESS":"長榮路四段３１巷１５號之１","OBJECTID":664306},"geometry":{"x":170210.15925000049,"y":2544887.6611900013}},{"attributes":{"ID":664334,"DIS_CODE":0,"TOWNNAME":"北區","LI":"仁愛里","LIN":"12鄰","STREET":"長榮路","SECT":"四段","MAREA":" ","LANE":"３１巷","ALLEY":" ","HOUSE_NO":"１５號之２","E_COORD97":170206.77056,"N_COORD97":2544887.6611899999,"ADDRESS":"長榮路四段３１巷１５號之２","OBJECTID":664307},"geometry":{"x":170206.77056000102,"y":2544887.6611900013}},{"attributes":{"ID":664335,"DIS_CODE":0,"TOWNNAME":"北區","LI":"仁愛里","LIN":"12鄰","STREET":"長榮路","SECT":"四段","MAREA":" ","LANE":"３１巷","ALLEY":" ","HOUSE_NO":"１５號之３","E_COORD97":170204.01723999999,"N_COORD97":2544888.5078500002,"ADDRESS":"長榮路四段３１巷１５號之３","OBJECTID":664308},"geometry":{"x":170204.01724000089,"y":2544888.5078500025}},{"attributes":{"ID":664336,"DIS_CODE":0,"TOWNNAME":"北區","LI":"仁愛里","LIN":"12鄰","STREET":"長榮路","SECT":"四段","MAREA":" ","LANE":"３１巷","ALLEY":" ","HOUSE_NO":"１５號之４","E_COORD97":170200.84034,"N_COORD97":2544889.3545200001,"ADDRESS":"長榮路四段３１巷１５號之４","OBJECTID":664309},"geometry":{"x":170200.84034000058,"y":2544889.3545200005}},{"attributes":{"ID":664337,"DIS_CODE":0,"TOWNNAME":"新化區","LI":"中央里","LIN":"1鄰","STREET":"中正路","SECT":" ","MAREA":" ","LANE":"４２７巷","ALLEY":" ","HOUSE_NO":"３號","E_COORD97":179055.58515999999,"N_COORD97":2548332.6001800001,"ADDRESS":"中正路４２７巷３號","OBJECTID":664310},"geometry":{"x":179055.58516000211,"y":2548332.6001800019}},{"attributes":{"ID":664338,"DIS_CODE":0,"TOWNNAME":"新化區","LI":"中央里","LIN":"1鄰","STREET":"中正路","SECT":" ","MAREA":" ","LANE":"４２７巷","ALLEY":" ","HOUSE_NO":"５號","E_COORD97":179058.33944000001,"N_COORD97":2548333.0235100002,"ADDRESS":"中正路４２７巷５號","OBJECTID":664311},"geometry":{"x":179058.33944000117,"y":2548333.0235099997}},{"attributes":{"ID":664339,"DIS_CODE":0,"TOWNNAME":"新化區","LI":"中央里","LIN":"1鄰","STREET":"中正路","SECT":" ","MAREA":" ","LANE":"４２７巷","ALLEY":" ","HOUSE_NO":"７號","E_COORD97":179060.88183999999,"N_COORD97":2548333.65851,"ADDRESS":"中正路４２７巷７號","OBJECTID":664312},"geometry":{"x":179060.88183999993,"y":2548333.6585099977}},{"attributes":{"ID":664340,"DIS_CODE":0,"TOWNNAME":"新化區","LI":"中央里","LIN":"1鄰","STREET":"中正路","SECT":" ","MAREA":" ","LANE":"４２７巷","ALLEY":" ","HOUSE_NO":"９號","E_COORD97":179063.63612000001,"N_COORD97":2548334.5051799999,"ADDRESS":"中正路４２７巷９號","OBJECTID":664313},"geometry":{"x":179063.63612000085,"y":2548334.5051800013}},{"attributes":{"ID":664341,"DIS_CODE":0,"TOWNNAME":"新化區","LI":"中央里","LIN":"1鄰","STREET":"中正路","SECT":" ","MAREA":" ","LANE":"４２７巷","ALLEY":" ","HOUSE_NO":"１１號","E_COORD97":179058.33944000001,"N_COORD97":2548325.2976899999,"ADDRESS":"中正路４２７巷１１號","OBJECTID":664314},"geometry":{"x":179058.33944000117,"y":2548325.297689002}},{"attributes":{"ID":664342,"DIS_CODE":0,"TOWNNAME":"北區","LI":"仁愛里","LIN":"12鄰","STREET":"長榮路","SECT":"四段","MAREA":" ","LANE":"３１巷","ALLEY":" ","HOUSE_NO":"１７號之１","E_COORD97":170195.54551,"N_COORD97":2544891.0478500002,"ADDRESS":"長榮路四段３１巷１７號之１","OBJECTID":664315},"geometry":{"x":170195.54550999962,"y":2544891.0478499997}},{"attributes":{"ID":664343,"DIS_CODE":0,"TOWNNAME":"北區","LI":"仁愛里","LIN":"12鄰","STREET":"長榮路","SECT":"四段","MAREA":" ","LANE":"３１巷","ALLEY":" ","HOUSE_NO":"１７號之２","E_COORD97":170192.36861,"N_COORD97":2544891.2595199998,"ADDRESS":"長榮路四段３１巷１７號之２","OBJECTID":664316},"geometry":{"x":170192.36861000117,"y":2544891.2595199998}},{"attributes":{"ID":664344,"DIS_CODE":0,"TOWNNAME":"北區","LI":"仁愛里","LIN":"12鄰","STREET":"長榮路","SECT":"四段","MAREA":" ","LANE":"３１巷","ALLEY":" ","HOUSE_NO":"１７號之３","E_COORD97":170189.19171000001,"N_COORD97":2544891.68285,"ADDRESS":"長榮路四段３１巷１７號之３","OBJECTID":664317},"geometry":{"x":170189.19170999993,"y":2544891.6828499995}},{"attributes":{"ID":664345,"DIS_CODE":0,"TOWNNAME":"北區","LI":"仁愛里","LIN":"12鄰","STREET":"長榮路","SECT":"四段","MAREA":" ","LANE":"３１巷","ALLEY":" ","HOUSE_NO":"１７號之４","E_COORD97":170186.86197999999,"N_COORD97":2544891.8945200001,"ADDRESS":"長榮路四段３１巷１７號之４","OBJECTID":664318},"geometry":{"x":170186.86197999958,"y":2544891.8945199996}},{"attributes":{"ID":664346,"DIS_CODE":0,"TOWNNAME":"新化區","LI":"中央里","LIN":"2鄰","STREET":"中正路","SECT":" ","MAREA":" ","LANE":"４２７巷","ALLEY":" ","HOUSE_NO":"２５號","E_COORD97":179029.525471,"N_COORD97":2548337.3626799998,"ADDRESS":"中正路４２７巷２５號","OBJECTID":664319},"geometry":{"x":179029.52547100093,"y":2548337.362683}},{"attributes":{"ID":664347,"DIS_CODE":0,"TOWNNAME":"南區","LI":"省躬里","LIN":"14鄰","STREET":"萬年路","SECT":" ","MAREA":" ","LANE":"１６０巷","ALLEY":" ","HOUSE_NO":"８號","E_COORD97":166509.275074,"N_COORD97":2537242.3548400002,"ADDRESS":"萬年路１６０巷８號","OBJECTID":664320},"geometry":{"x":166509.27507400047,"y":2537242.3548430018}},{"attributes":{"ID":664348,"DIS_CODE":0,"TOWNNAME":"南區","LI":"省躬里","LIN":"14鄰","STREET":"萬年路","SECT":" ","MAREA":" ","LANE":"１６０巷","ALLEY":" ","HOUSE_NO":"１０號","E_COORD97":166508.42797799999,"N_COORD97":2537235.79318,"ADDRESS":"萬年路１６０巷１０號","OBJECTID":664321},"geometry":{"x":166508.4279780006,"y":2537235.7931800019}},{"attributes":{"ID":664349,"DIS_CODE":0,"TOWNNAME":"新化區","LI":"中央里","LIN":"3鄰","STREET":"中正路","SECT":" ","MAREA":" ","LANE":"４２７巷","ALLEY":" ","HOUSE_NO":"４號","E_COORD97":179038.000168,"N_COORD97":2548405.8368099998,"ADDRESS":"中正路４２７巷４號","OBJECTID":664322},"geometry":{"x":179038.00016800035,"y":2548405.8368120026}},{"attributes":{"ID":664350,"DIS_CODE":0,"TOWNNAME":"後壁區","LI":"福安里","LIN":"15鄰","STREET":" ","SECT":" ","MAREA":"下寮","LANE":" ","ALLEY":" ","HOUSE_NO":"２００號之１０","E_COORD97":183654.25903099999,"N_COORD97":2580853.9501499999,"ADDRESS":"下寮２００號之１０","OBJECTID":664323},"geometry":{"x":183654.25903100148,"y":2580853.9501499999}},{"attributes":{"ID":664351,"DIS_CODE":0,"TOWNNAME":"後壁區","LI":"福安里","LIN":"15鄰","STREET":" ","SECT":" ","MAREA":"下寮","LANE":" ","ALLEY":" ","HOUSE_NO":"２００號之１０","E_COORD97":183285.59727699999,"N_COORD97":2580752.5751,"ADDRESS":"下寮２００號之１０","OBJECTID":664324},"geometry":{"x":183285.59727699962,"y":2580752.5751009993}},{"attributes":{"ID":664352,"DIS_CODE":0,"TOWNNAME":"後壁區","LI":"福安里","LIN":"15鄰","STREET":" ","SECT":" ","MAREA":"下寮","LANE":" ","ALLEY":" ","HOUSE_NO":"２００號之４０","E_COORD97":182956.55606900001,"N_COORD97":2580725.7463699998,"ADDRESS":"下寮２００號之４０","OBJECTID":664325},"geometry":{"x":182956.55606900062,"y":2580725.7463650014}},{"attributes":{"ID":664353,"DIS_CODE":0,"TOWNNAME":"新化區","LI":"中央里","LIN":"4鄰","STREET":"中正路","SECT":" ","MAREA":" ","LANE":" ","ALLEY":" ","HOUSE_NO":"２７３號","E_COORD97":179010.45740300001,"N_COORD97":2548414.8326400002,"ADDRESS":"中正路２７３號","OBJECTID":664326},"geometry":{"x":179010.45740300138,"y":2548414.8326409999}},{"attributes":{"ID":664354,"DIS_CODE":0,"TOWNNAME":"南區","LI":"省躬里","LIN":"14鄰","STREET":"萬年路","SECT":" ","MAREA":" ","LANE":"１２６巷","ALLEY":" ","HOUSE_NO":"１１號","E_COORD97":166431.342221,"N_COORD97":2537204.2548600002,"ADDRESS":"萬年路１２６巷１１號","OBJECTID":664327},"geometry":{"x":166431.34222100023,"y":2537204.2548639998}},{"attributes":{"ID":664355,"DIS_CODE":0,"TOWNNAME":"新化區","LI":"中央里","LIN":"4鄰","STREET":"中正路","SECT":" ","MAREA":" ","LANE":"４２７巷","ALLEY":" ","HOUSE_NO":"１０號","E_COORD97":179015.965956,"N_COORD97":2548380.3309900002,"ADDRESS":"中正路４２７巷１０號","OBJECTID":664328},"geometry":{"x":179015.96595600061,"y":2548380.3309930004}},{"attributes":{"ID":664356,"DIS_CODE":0,"TOWNNAME":"後壁區","LI":"福安里","LIN":"15鄰","STREET":" ","SECT":" ","MAREA":"下寮","LANE":" ","ALLEY":" ","HOUSE_NO":"２０７號之１","E_COORD97":182642.66389200001,"N_COORD97":2580708.1780400001,"ADDRESS":"下寮２０７號之１","OBJECTID":664329},"geometry":{"x":182642.66389199998,"y":2580708.1780410018}},{"attributes":{"ID":664357,"DIS_CODE":0,"TOWNNAME":"南區","LI":"省躬里","LIN":"14鄰","STREET":"萬年路","SECT":" ","MAREA":" ","LANE":"１２６巷","ALLEY":" ","HOUSE_NO":"１３號","E_COORD97":166433.03641299999,"N_COORD97":2537194.7298699999,"ADDRESS":"萬年路１２６巷１３號","OBJECTID":664330},"geometry":{"x":166433.0364130009,"y":2537194.7298690006}},{"attributes":{"ID":664358,"DIS_CODE":0,"TOWNNAME":"南區","LI":"省躬里","LIN":"14鄰","STREET":"萬年路","SECT":" ","MAREA":" ","LANE":"１２６巷","ALLEY":" ","HOUSE_NO":"１５號","E_COORD97":166434.730606,"N_COORD97":2537185.4165400001,"ADDRESS":"萬年路１２６巷１５號","OBJECTID":664331},"geometry":{"x":166434.73060600087,"y":2537185.416540999}},{"attributes":{"ID":664359,"DIS_CODE":0,"TOWNNAME":"南區","LI":"省躬里","LIN":"14鄰","STREET":"萬年路","SECT":" ","MAREA":" ","LANE":"１２６巷","ALLEY":" ","HOUSE_NO":"１７號","E_COORD97":166436.42479799999,"N_COORD97":2537176.9498800002,"ADDRESS":"萬年路１２６巷１７號","OBJECTID":664332},"geometry":{"x":166436.42479799967,"y":2537176.949879}},{"attributes":{"ID":664360,"DIS_CODE":0,"TOWNNAME":"南區","LI":"省躬里","LIN":"14鄰","STREET":"萬年路","SECT":" ","MAREA":" ","LANE":"１２６巷","ALLEY":"９弄","HOUSE_NO":"２號","E_COORD97":166436.00125,"N_COORD97":2537201.5032000002,"ADDRESS":"萬年路１２６巷９弄２號","OBJECTID":664333},"geometry":{"x":166436.00125000067,"y":2537201.5031990018}},{"attributes":{"ID":664361,"DIS_CODE":0,"TOWNNAME":"北區","LI":"仁愛里","LIN":"12鄰","STREET":"長榮路","SECT":"四段","MAREA":" ","LANE":"３１巷","ALLEY":" ","HOUSE_NO":"１９之１號","E_COORD97":170180.93177,"N_COORD97":2544892.5295199999,"ADDRESS":"長榮路四段３１巷１９之１號","OBJECTID":664334},"geometry":{"x":170180.93177000154,"y":2544892.5295240004}},{"attributes":{"ID":664362,"DIS_CODE":0,"TOWNNAME":"南區","LI":"省躬里","LIN":"14鄰","STREET":"萬年路","SECT":" ","MAREA":" ","LANE":"１２６巷","ALLEY":"９弄","HOUSE_NO":"６號","E_COORD97":166441.08382699999,"N_COORD97":2537201.7148699998,"ADDRESS":"萬年路１２６巷９弄６號","OBJECTID":664335},"geometry":{"x":166441.08382700011,"y":2537201.7148649991}},{"attributes":{"ID":664363,"DIS_CODE":0,"TOWNNAME":"南區","LI":"省躬里","LIN":"14鄰","STREET":"萬年路","SECT":" ","MAREA":" ","LANE":"１２６巷","ALLEY":"９弄","HOUSE_NO":"８號","E_COORD97":166446.58995299999,"N_COORD97":2537202.34987,"ADDRESS":"萬年路１２６巷９弄８號","OBJECTID":664336},"geometry":{"x":166446.58995299973,"y":2537202.3498650044}},{"attributes":{"ID":664364,"DIS_CODE":0,"TOWNNAME":"北區","LI":"仁愛里","LIN":"12鄰","STREET":"長榮路","SECT":"四段","MAREA":" ","LANE":"３１巷","ALLEY":" ","HOUSE_NO":"１９之２號","E_COORD97":170178.39024899999,"N_COORD97":2544892.9528600001,"ADDRESS":"長榮路四段３１巷１９之２號","OBJECTID":664337},"geometry":{"x":170178.39024900086,"y":2544892.9528569989}},{"attributes":{"ID":664365,"DIS_CODE":0,"TOWNNAME":"南區","LI":"省躬里","LIN":"14鄰","STREET":"萬年路","SECT":" ","MAREA":" ","LANE":"１２６巷","ALLEY":"９弄","HOUSE_NO":"１０號","E_COORD97":166451.88430400001,"N_COORD97":2537202.7732000002,"ADDRESS":"萬年路１２６巷９弄１０號","OBJECTID":664338},"geometry":{"x":166451.88430400006,"y":2537202.7731980029}},{"attributes":{"ID":664366,"DIS_CODE":0,"TOWNNAME":"南區","LI":"省躬里","LIN":"14鄰","STREET":"萬年路","SECT":" ","MAREA":" ","LANE":"１２６巷","ALLEY":"９弄","HOUSE_NO":"１２號","E_COORD97":166456.96688200001,"N_COORD97":2537202.7732000002,"ADDRESS":"萬年路１２６巷９弄１２號","OBJECTID":664339},"geometry":{"x":166456.96688200161,"y":2537202.7731980029}},{"attributes":{"ID":664367,"DIS_CODE":0,"TOWNNAME":"南區","LI":"省躬里","LIN":"14鄰","STREET":"萬年路","SECT":" ","MAREA":" ","LANE":"１２６巷","ALLEY":"９弄","HOUSE_NO":"１６號","E_COORD97":166462.47300699999,"N_COORD97":2537202.9848699998,"ADDRESS":"萬年路１２６巷９弄１６號","OBJECTID":664340},"geometry":{"x":166462.47300700005,"y":2537202.9848650042}},{"attributes":{"ID":664368,"DIS_CODE":0,"TOWNNAME":"南區","LI":"省躬里","LIN":"14鄰","STREET":"萬年路","SECT":" ","MAREA":" ","LANE":"１２６巷","ALLEY":"９弄","HOUSE_NO":"１８號","E_COORD97":166470.94396999999,"N_COORD97":2537204.88986,"ADDRESS":"萬年路１２６巷９弄１８號","OBJECTID":664341},"geometry":{"x":166470.94397000223,"y":2537204.8898629993}},{"attributes":{"ID":664369,"DIS_CODE":0,"TOWNNAME":"南區","LI":"省躬里","LIN":"14鄰","STREET":"萬年路","SECT":" ","MAREA":" ","LANE":"１２６巷","ALLEY":"９弄","HOUSE_NO":"２０號","E_COORD97":166481.10912499999,"N_COORD97":2537205.6307000001,"ADDRESS":"萬年路１２６巷９弄２０號","OBJECTID":664342},"geometry":{"x":166481.10912500042,"y":2537205.6306960005}},{"attributes":{"ID":664370,"DIS_CODE":0,"TOWNNAME":"南區","LI":"省躬里","LIN":"14鄰","STREET":"萬年路","SECT":" ","MAREA":" ","LANE":"１２６巷","ALLEY":"９弄","HOUSE_NO":"２２號","E_COORD97":166491.486053,"N_COORD97":2537205.5248599998,"ADDRESS":"萬年路１２６巷９弄２２號","OBJECTID":664343},"geometry":{"x":166491.4860530002,"y":2537205.5248630028}},{"attributes":{"ID":664371,"DIS_CODE":0,"TOWNNAME":"南區","LI":"省躬里","LIN":"14鄰","STREET":"萬年路","SECT":" ","MAREA":" ","LANE":"１２６巷","ALLEY":"９弄","HOUSE_NO":"２６號","E_COORD97":166499.53346800001,"N_COORD97":2537205.2073599999,"ADDRESS":"萬年路１２６巷９弄２６號","OBJECTID":664344},"geometry":{"x":166499.53346800059,"y":2537205.207363002}},{"attributes":{"ID":664372,"DIS_CODE":0,"TOWNNAME":"新化區","LI":"中央里","LIN":"5鄰","STREET":"大同街","SECT":" ","MAREA":" ","LANE":"１２９巷","ALLEY":" ","HOUSE_NO":"２４號","E_COORD97":178899.01514,"N_COORD97":2548382.5534899998,"ADDRESS":"大同街１２９巷２４號","OBJECTID":664345},"geometry":{"x":178899.01514000073,"y":2548382.5534899998}},{"attributes":{"ID":664373,"DIS_CODE":0,"TOWNNAME":"南區","LI":"光明里","LIN":"3鄰","STREET":"\u25A0埕路","SECT":" ","MAREA":" ","LANE":"２９１巷","ALLEY":"１４弄","HOUSE_NO":"７５號","E_COORD97":166734.57097599999,"N_COORD97":2541440.3949899999,"ADDRESS":"\u25A0埕路２９１巷１４弄７５號","OBJECTID":664346},"geometry":{"x":166734.57097600028,"y":2541440.3949860018}},{"attributes":{"ID":664374,"DIS_CODE":0,"TOWNNAME":"新化區","LI":"中央里","LIN":"5鄰","STREET":"大同街","SECT":" ","MAREA":" ","LANE":"１２９巷","ALLEY":" ","HOUSE_NO":"３６號","E_COORD97":178925.922303,"N_COORD97":2548364.0326700001,"ADDRESS":"大同街１２９巷３６號","OBJECTID":664347},"geometry":{"x":178925.9223030014,"y":2548364.0326680001}},{"attributes":{"ID":664375,"DIS_CODE":0,"TOWNNAME":"南區","LI":"同安里","LIN":"6鄰","STREET":"明興路","SECT":" ","MAREA":" ","LANE":"１１８１巷","ALLEY":" ","HOUSE_NO":"１６２之１號","E_COORD97":166867.43352699999,"N_COORD97":2536284.19777,"ADDRESS":"明興路１１８１巷１６２之１號","OBJECTID":664348},"geometry":{"x":166867.43352700118,"y":2536284.1977699995}},{"attributes":{"ID":664376,"DIS_CODE":0,"TOWNNAME":"南區","LI":"省躬里","LIN":"14鄰","STREET":"萬年路","SECT":" ","MAREA":" ","LANE":"１６０巷","ALLEY":" ","HOUSE_NO":"１６號","E_COORD97":166508.216204,"N_COORD97":2537209.5465299999,"ADDRESS":"萬年路１６０巷１６號","OBJECTID":664349},"geometry":{"x":166508.21620399971,"y":2537209.5465280004}},{"attributes":{"ID":664377,"DIS_CODE":0,"TOWNNAME":"南區","LI":"省躬里","LIN":"14鄰","STREET":"萬年路","SECT":" ","MAREA":" ","LANE":"１６０巷","ALLEY":" ","HOUSE_NO":"１８號","E_COORD97":166507.58088200001,"N_COORD97":2537201.29153,"ADDRESS":"萬年路１６０巷１８號","OBJECTID":664350},"geometry":{"x":166507.58088199981,"y":2537201.2915320005}},{"attributes":{"ID":664378,"DIS_CODE":0,"TOWNNAME":"南區","LI":"省躬里","LIN":"14鄰","STREET":"萬年路","SECT":" ","MAREA":" ","LANE":"１６０巷","ALLEY":" ","HOUSE_NO":"２０號","E_COORD97":166507.36910800001,"N_COORD97":2537193.0365399998,"ADDRESS":"萬年路１６０巷２０號","OBJECTID":664351},"geometry":{"x":166507.3691080017,"y":2537193.0365369972}},{"attributes":{"ID":664379,"DIS_CODE":0,"TOWNNAME":"南區","LI":"省躬里","LIN":"14鄰","STREET":"萬年路","SECT":" ","MAREA":" ","LANE":"１６０巷","ALLEY":" ","HOUSE_NO":"２２號","E_COORD97":166507.36910800001,"N_COORD97":2537182.9823799999,"ADDRESS":"萬年路１６０巷２２號","OBJECTID":664352},"geometry":{"x":166507.3691080017,"y":2537182.9823750015}},{"attributes":{"ID":664380,"DIS_CODE":0,"TOWNNAME":"南區","LI":"同安里","LIN":"7鄰","STREET":"灣裡路","SECT":" ","MAREA":" ","LANE":"２６３巷","ALLEY":"５２弄","HOUSE_NO":"１９之４號","E_COORD97":166292.967221,"N_COORD97":2536278.9061099999,"ADDRESS":"灣裡路２６３巷５２弄１９之４號","OBJECTID":664353},"geometry":{"x":166292.96722100023,"y":2536278.9061070029}},{"attributes":{"ID":664381,"DIS_CODE":0,"TOWNNAME":"南區","LI":"明興里","LIN":"22鄰","STREET":"永興一街","SECT":" ","MAREA":" ","LANE":" ","ALLEY":" ","HOUSE_NO":"６２號","E_COORD97":167096.92338600001,"N_COORD97":2540740.2020299998,"ADDRESS":"永興一街６２號","OBJECTID":664354},"geometry":{"x":167096.92338600103,"y":2540740.2020310014}},{"attributes":{"ID":664382,"DIS_CODE":0,"TOWNNAME":"南區","LI":"建南里","LIN":"16鄰","STREET":"中華南路","SECT":"二段","MAREA":" ","LANE":"２３３巷","ALLEY":" ","HOUSE_NO":"３８２號","E_COORD97":167111.12082000001,"N_COORD97":2539031.8412899999,"ADDRESS":"中華南路二段２３３巷３８２號","OBJECTID":664355},"geometry":{"x":167111.12081999984,"y":2539031.8412870038}},{"attributes":{"ID":664383,"DIS_CODE":0,"TOWNNAME":"南區","LI":"省躬里","LIN":"14鄰","STREET":"萬年路","SECT":" ","MAREA":" ","LANE":"１２６巷","ALLEY":"１９弄","HOUSE_NO":"１號","E_COORD97":166438.93034699999,"N_COORD97":2537182.9122600001,"ADDRESS":"萬年路１２６巷１９弄１號","OBJECTID":664356},"geometry":{"x":166438.93034700118,"y":2537182.9122630022}},{"attributes":{"ID":664384,"DIS_CODE":0,"TOWNNAME":"南區","LI":"省躬里","LIN":"14鄰","STREET":"萬年路","SECT":" ","MAREA":" ","LANE":"１２６巷","ALLEY":"１９弄","HOUSE_NO":"３號","E_COORD97":166443.80115099999,"N_COORD97":2537183.3355999999,"ADDRESS":"萬年路１２６巷１９弄３號","OBJECTID":664357},"geometry":{"x":166443.80115099996,"y":2537183.3355960008}},{"attributes":{"ID":664385,"DIS_CODE":0,"TOWNNAME":"南區","LI":"省躬里","LIN":"14鄰","STREET":"萬年路","SECT":" ","MAREA":" ","LANE":"１２６巷","ALLEY":"１９弄","HOUSE_NO":"５號","E_COORD97":166450.57792099999,"N_COORD97":2537184.6055999999,"ADDRESS":"萬年路１２６巷１９弄５號","OBJECTID":664358},"geometry":{"x":166450.57792100124,"y":2537184.6055960003}},{"attributes":{"ID":664386,"DIS_CODE":0,"TOWNNAME":"南區","LI":"省躬里","LIN":"14鄰","STREET":"萬年路","SECT":" ","MAREA":" ","LANE":"１２６巷","ALLEY":"１９弄","HOUSE_NO":"７號","E_COORD97":166457.56646500001,"N_COORD97":2537185.2405900001,"ADDRESS":"萬年路１２６巷１９弄７號","OBJECTID":664359},"geometry":{"x":166457.56646499969,"y":2537185.2405949999}},{"attributes":{"ID":664387,"DIS_CODE":0,"TOWNNAME":"南區","LI":"興農里","LIN":"3鄰","STREET":"灣裡路","SECT":" ","MAREA":" ","LANE":"２６３巷","ALLEY":"６１弄","HOUSE_NO":"２之２號","E_COORD97":166297.205261,"N_COORD97":2536452.26101,"ADDRESS":"灣裡路２６３巷６１弄２之２號","OBJECTID":664360},"geometry":{"x":166297.20526100043,"y":2536452.2610130012}},{"attributes":{"ID":664388,"DIS_CODE":0,"TOWNNAME":"南區","LI":"省躬里","LIN":"14鄰","STREET":"萬年路","SECT":" ","MAREA":" ","LANE":"１２６巷","ALLEY":"１９弄","HOUSE_NO":"９號","E_COORD97":166465.82565300001,"N_COORD97":2537186.0872599999,"ADDRESS":"萬年路１２６巷１９弄９號","OBJECTID":664361},"geometry":{"x":166465.8256529998,"y":2537186.0872620009}},{"attributes":{"ID":664389,"DIS_CODE":0,"TOWNNAME":"南區","LI":"省躬里","LIN":"14鄰","STREET":"萬年路","SECT":" ","MAREA":" ","LANE":"１２６巷","ALLEY":"１９弄","HOUSE_NO":"１１號","E_COORD97":166473.87306700001,"N_COORD97":2537187.35726,"ADDRESS":"萬年路１２６巷１９弄１１號","OBJECTID":664362},"geometry":{"x":166473.87306700088,"y":2537187.3572610021}},{"attributes":{"ID":664390,"DIS_CODE":0,"TOWNNAME":"南區","LI":"省躬里","LIN":"14鄰","STREET":"萬年路","SECT":" ","MAREA":" ","LANE":"１２６巷","ALLEY":"１９弄","HOUSE_NO":"１３號","E_COORD97":166480.861611,"N_COORD97":2537187.35726,"ADDRESS":"萬年路１２６巷１９弄１３號","OBJECTID":664363},"geometry":{"x":166480.86161100119,"y":2537187.3572610021}},{"attributes":{"ID":664391,"DIS_CODE":0,"TOWNNAME":"南區","LI":"省躬里","LIN":"14鄰","STREET":"萬年路","SECT":" ","MAREA":" ","LANE":"１２６巷","ALLEY":"１９弄","HOUSE_NO":"１５號","E_COORD97":166486.79128500001,"N_COORD97":2537187.7805900001,"ADDRESS":"萬年路１２６巷１９弄１５號","OBJECTID":664364},"geometry":{"x":166486.79128500074,"y":2537187.7805940006}},{"attributes":{"ID":664392,"DIS_CODE":0,"TOWNNAME":"南區","LI":"省躬里","LIN":"14鄰","STREET":"萬年路","SECT":" ","MAREA":" ","LANE":"１２６巷","ALLEY":"１９弄","HOUSE_NO":"１７號","E_COORD97":166494.41515099999,"N_COORD97":2537188.2039299998,"ADDRESS":"萬年路１２６巷１９弄１７號","OBJECTID":664365},"geometry":{"x":166494.41515100002,"y":2537188.2039269991}},{"attributes":{"ID":664393,"DIS_CODE":0,"TOWNNAME":"南區","LI":"省躬里","LIN":"14鄰","STREET":"萬年路","SECT":" ","MAREA":" ","LANE":"１２６巷","ALLEY":"１９弄","HOUSE_NO":"１９號","E_COORD97":166501.61546900001,"N_COORD97":2537188.4155899999,"ADDRESS":"萬年路１２６巷１９弄１９號","OBJECTID":664366},"geometry":{"x":166501.61546900123,"y":2537188.4155940004}},{"attributes":{"ID":664394,"DIS_CODE":0,"TOWNNAME":"南區","LI":"省躬里","LIN":"14鄰","STREET":"萬年路","SECT":" ","MAREA":" ","LANE":"１２６巷","ALLEY":" ","HOUSE_NO":"２１號","E_COORD97":166439.14212100001,"N_COORD97":2537159.2056100001,"ADDRESS":"萬年路１２６巷２１號","OBJECTID":664367},"geometry":{"x":166439.14212100022,"y":2537159.2056090012}},{"attributes":{"ID":664395,"DIS_CODE":0,"TOWNNAME":"南區","LI":"省躬里","LIN":"14鄰","STREET":"萬年路","SECT":" ","MAREA":" ","LANE":"１２６巷","ALLEY":" ","HOUSE_NO":"２３號","E_COORD97":166440.41276599999,"N_COORD97":2537150.1039499999,"ADDRESS":"萬年路１２６巷２３號","OBJECTID":664368},"geometry":{"x":166440.41276600119,"y":2537150.1039480008}},{"attributes":{"ID":664396,"DIS_CODE":0,"TOWNNAME":"南區","LI":"省躬里","LIN":"14鄰","STREET":"萬年路","SECT":" ","MAREA":" ","LANE":"１２６巷","ALLEY":"１９弄","HOUSE_NO":"２號","E_COORD97":166443.377603,"N_COORD97":2537156.0306099998,"ADDRESS":"萬年路１２６巷１９弄２號","OBJECTID":664369},"geometry":{"x":166443.37760300096,"y":2537156.030611001}},{"attributes":{"ID":664397,"DIS_CODE":0,"TOWNNAME":"南區","LI":"省躬里","LIN":"14鄰","STREET":"萬年路","SECT":" ","MAREA":" ","LANE":"１２６巷","ALLEY":"１９弄","HOUSE_NO":"６號","E_COORD97":166448.036632,"N_COORD97":2537156.0306099998,"ADDRESS":"萬年路１２６巷１９弄６號","OBJECTID":664370},"geometry":{"x":166448.0366320014,"y":2537156.030611001}},{"attributes":{"ID":664398,"DIS_CODE":0,"TOWNNAME":"南區","LI":"省躬里","LIN":"14鄰","STREET":"萬年路","SECT":" ","MAREA":" ","LANE":"１２６巷","ALLEY":"１９弄","HOUSE_NO":"８號","E_COORD97":166453.96630599999,"N_COORD97":2537156.2422799999,"ADDRESS":"萬年路１２６巷１９弄８號","OBJECTID":664371},"geometry":{"x":166453.96630600002,"y":2537156.2422780022}},{"attributes":{"ID":664399,"DIS_CODE":0,"TOWNNAME":"南區","LI":"省躬里","LIN":"14鄰","STREET":"萬年路","SECT":" ","MAREA":" ","LANE":"１２６巷","ALLEY":"１９弄","HOUSE_NO":"１０號","E_COORD97":166459.472431,"N_COORD97":2537156.0306099998,"ADDRESS":"萬年路１２６巷１９弄１０號","OBJECTID":664372},"geometry":{"x":166459.47243100125,"y":2537156.030611001}},{"attributes":{"ID":664400,"DIS_CODE":0,"TOWNNAME":"南區","LI":"省躬里","LIN":"14鄰","STREET":"萬年路","SECT":" ","MAREA":" ","LANE":"１２６巷","ALLEY":"１９弄","HOUSE_NO":"１２號","E_COORD97":166465.61387900001,"N_COORD97":2537156.2422799999,"ADDRESS":"萬年路１２６巷１９弄１２號","OBJECTID":664373},"geometry":{"x":166465.61387900077,"y":2537156.2422780022}},{"attributes":{"ID":664401,"DIS_CODE":0,"TOWNNAME":"南區","LI":"省躬里","LIN":"14鄰","STREET":"萬年路","SECT":" ","MAREA":" ","LANE":"１２６巷","ALLEY":"１９弄","HOUSE_NO":"１６號","E_COORD97":166472.17887500001,"N_COORD97":2537156.8772800001,"ADDRESS":"萬年路１２６巷１９弄１６號","OBJECTID":664374},"geometry":{"x":166472.17887500022,"y":2537156.8772770017}},{"attributes":{"ID":664402,"DIS_CODE":0,"TOWNNAME":"南區","LI":"省躬里","LIN":"14鄰","STREET":"萬年路","SECT":" ","MAREA":" ","LANE":"１２６巷","ALLEY":"１９弄","HOUSE_NO":"１８號","E_COORD97":166479.590967,"N_COORD97":2537156.66561,"ADDRESS":"萬年路１２６巷１９弄１８號","OBJECTID":664375},"geometry":{"x":166479.59096699953,"y":2537156.6656110007}},{"attributes":{"ID":664403,"DIS_CODE":0,"TOWNNAME":"南區","LI":"省躬里","LIN":"14鄰","STREET":"萬年路","SECT":" ","MAREA":" ","LANE":"１２６巷","ALLEY":"１９弄","HOUSE_NO":"２０號","E_COORD97":166486.79128500001,"N_COORD97":2537157.0889400002,"ADDRESS":"萬年路１２６巷１９弄２０號","OBJECTID":664376},"geometry":{"x":166486.79128500074,"y":2537157.0889439993}},{"attributes":{"ID":664404,"DIS_CODE":0,"TOWNNAME":"南區","LI":"省躬里","LIN":"14鄰","STREET":"萬年路","SECT":" ","MAREA":" ","LANE":"１２６巷","ALLEY":"１９弄","HOUSE_NO":"２２號","E_COORD97":166494.62692499999,"N_COORD97":2537156.66561,"ADDRESS":"萬年路１２６巷１９弄２２號","OBJECTID":664377},"geometry":{"x":166494.62692500092,"y":2537156.6656110007}},{"attributes":{"ID":664405,"DIS_CODE":0,"TOWNNAME":"南區","LI":"省躬里","LIN":"14鄰","STREET":"萬年路","SECT":" ","MAREA":" ","LANE":"１２６巷","ALLEY":"１９弄","HOUSE_NO":"２６號","E_COORD97":166502.88611299999,"N_COORD97":2537156.66561,"ADDRESS":"萬年路１２６巷１９弄２６號","OBJECTID":664378},"geometry":{"x":166502.88611300103,"y":2537156.6656110007}},{"attributes":{"ID":664406,"DIS_CODE":0,"TOWNNAME":"南區","LI":"省躬里","LIN":"14鄰","STREET":"萬年路","SECT":" ","MAREA":" ","LANE":"１６０巷","ALLEY":" ","HOUSE_NO":"２８號","E_COORD97":166510.298205,"N_COORD97":2537163.0156100001,"ADDRESS":"萬年路１６０巷２８號","OBJECTID":664379},"geometry":{"x":166510.29820500035,"y":2537163.0156069994}},{"attributes":{"ID":664407,"DIS_CODE":0,"TOWNNAME":"南區","LI":"省躬里","LIN":"14鄰","STREET":"萬年路","SECT":" ","MAREA":" ","LANE":"１６０巷","ALLEY":" ","HOUSE_NO":"３０號","E_COORD97":166509.45110899999,"N_COORD97":2537154.5489400001,"ADDRESS":"萬年路１６０巷３０號","OBJECTID":664380},"geometry":{"x":166509.45110899955,"y":2537154.5489450004}},{"attributes":{"ID":664408,"DIS_CODE":0,"TOWNNAME":"後壁區","LI":"福安里","LIN":"15鄰","STREET":" ","SECT":" ","MAREA":"下寮","LANE":" ","ALLEY":" ","HOUSE_NO":"３６５號之１","E_COORD97":182433.33181599999,"N_COORD97":2580289.3957699998,"ADDRESS":"下寮３６５號之１","OBJECTID":664381},"geometry":{"x":182433.33181600086,"y":2580289.3957670033}},{"attributes":{"ID":664409,"DIS_CODE":0,"TOWNNAME":"後壁區","LI":"福安里","LIN":"5鄰","STREET":" ","SECT":" ","MAREA":"下寮","LANE":" ","ALLEY":" ","HOUSE_NO":"５２號之５","E_COORD97":184381.21935699999,"N_COORD97":2580804.2241199999,"ADDRESS":"下寮５２號之５","OBJECTID":664382},"geometry":{"x":184381.2193570016,"y":2580804.2241160013}},{"attributes":{"ID":664410,"DIS_CODE":0,"TOWNNAME":"南區","LI":"建南里","LIN":"9鄰","STREET":"明興路","SECT":" ","MAREA":" ","LANE":" ","ALLEY":" ","HOUSE_NO":"２１５號","E_COORD97":166606.655402,"N_COORD97":2539798.2112699999,"ADDRESS":"明興路２１５號","OBJECTID":664383},"geometry":{"x":166606.65540200099,"y":2539798.2112680022}},{"attributes":{"ID":664411,"DIS_CODE":0,"TOWNNAME":"南區","LI":"建南里","LIN":"9鄰","STREET":"明興路","SECT":" ","MAREA":" ","LANE":" ","ALLEY":" ","HOUSE_NO":"２１５之１０號","E_COORD97":166588.654607,"N_COORD97":2539740.2146299998,"ADDRESS":"明興路２１５之１０號","OBJECTID":664384},"geometry":{"x":166588.65460699983,"y":2539740.2146320026}},{"attributes":{"ID":664412,"DIS_CODE":0,"TOWNNAME":"後壁區","LI":"福安里","LIN":"7鄰","STREET":" ","SECT":" ","MAREA":"下寮","LANE":" ","ALLEY":" ","HOUSE_NO":"６８號","E_COORD97":184281.63830799999,"N_COORD97":2580892.80657,"ADDRESS":"下寮６８號","OBJECTID":664385},"geometry":{"x":184281.63830800075,"y":2580892.8065680023}},{"attributes":{"ID":664413,"DIS_CODE":0,"TOWNNAME":"後壁區","LI":"福安里","LIN":"8鄰","STREET":" ","SECT":" ","MAREA":"下寮","LANE":" ","ALLEY":" ","HOUSE_NO":"８１號之１","E_COORD97":184305.792009,"N_COORD97":2581020.2298300001,"ADDRESS":"下寮８１號之１","OBJECTID":664386},"geometry":{"x":184305.79200899974,"y":2581020.2298330013}},{"attributes":{"ID":664414,"DIS_CODE":0,"TOWNNAME":"南區","LI":"建南里","LIN":"23鄰","STREET":"永成路","SECT":"二段","MAREA":" ","LANE":" ","ALLEY":" ","HOUSE_NO":"６５２之１號","E_COORD97":167519.401599,"N_COORD97":2539176.2291000001,"ADDRESS":"永成路二段６５２之１號","OBJECTID":664387},"geometry":{"x":167519.40159900114,"y":2539176.2291040029}},{"attributes":{"ID":664415,"DIS_CODE":0,"TOWNNAME":"後壁區","LI":"福安里","LIN":"8鄰","STREET":" ","SECT":" ","MAREA":"下寮","LANE":" ","ALLEY":" ","HOUSE_NO":"８５號","E_COORD97":184245.83150599999,"N_COORD97":2581022.4523299998,"ADDRESS":"下寮８５號","OBJECTID":664388},"geometry":{"x":184245.83150600083,"y":2581022.4523319993}},{"attributes":{"ID":664416,"DIS_CODE":0,"TOWNNAME":"新化區","LI":"中央里","LIN":"5鄰","STREET":"中山路","SECT":" ","MAREA":" ","LANE":" ","ALLEY":" ","HOUSE_NO":"３１９號","E_COORD97":178929.627419,"N_COORD97":2548409.76407,"ADDRESS":"中山路３１９號","OBJECTID":664389},"geometry":{"x":178929.62741899956,"y":2548409.764065003}},{"attributes":{"ID":664417,"DIS_CODE":0,"TOWNNAME":"新化區","LI":"中央里","LIN":"5鄰","STREET":"中山路","SECT":" ","MAREA":" ","LANE":" ","ALLEY":" ","HOUSE_NO":"３４１號","E_COORD97":178893.39809,"N_COORD97":2548407.5415699999,"ADDRESS":"中山路３４１號","OBJECTID":664390},"geometry":{"x":178893.39809000026,"y":2548407.5415660013}},{"attributes":{"ID":664418,"DIS_CODE":0,"TOWNNAME":"新化區","LI":"中央里","LIN":"5鄰","STREET":"和平街","SECT":" ","MAREA":" ","LANE":" ","ALLEY":" ","HOUSE_NO":"２０８號","E_COORD97":178898.271041,"N_COORD97":2548398.1224000002,"ADDRESS":"和平街２０８號","OBJECTID":664391},"geometry":{"x":178898.27104099933,"y":2548398.1224039998}},{"attributes":{"ID":664419,"DIS_CODE":0,"TOWNNAME":"南區","LI":"荔宅里","LIN":"2鄰","STREET":"西門路","SECT":"一段","MAREA":" ","LANE":"３００巷","ALLEY":" ","HOUSE_NO":"７０號","E_COORD97":167872.944682,"N_COORD97":2542040.8583399998,"ADDRESS":"西門路一段３００巷７０號","OBJECTID":664392},"geometry":{"x":167872.94468200207,"y":2542040.8583440036}},{"attributes":{"ID":664420,"DIS_CODE":0,"TOWNNAME":"新化區","LI":"中央里","LIN":"6鄰","STREET":"大同街","SECT":" ","MAREA":" ","LANE":"１２９巷","ALLEY":" ","HOUSE_NO":"２９號","E_COORD97":178843.82111399999,"N_COORD97":2548355.6832599998,"ADDRESS":"大同街１２９巷２９號","OBJECTID":664393},"geometry":{"x":178843.82111399993,"y":2548355.6832610015}},{"attributes":{"ID":664421,"DIS_CODE":0,"TOWNNAME":"南區","LI":"荔宅里","LIN":"2鄰","STREET":"西門路","SECT":"一段","MAREA":" ","LANE":"３００巷","ALLEY":" ","HOUSE_NO":"６８號","E_COORD97":167868.91854499999,"N_COORD97":2542040.8583399998,"ADDRESS":"西門路一段３００巷６８號","OBJECTID":664394},"geometry":{"x":167868.91854500212,"y":2542040.8583440036}},{"attributes":{"ID":664422,"DIS_CODE":0,"TOWNNAME":"新化區","LI":"中央里","LIN":"6鄰","STREET":"大同街","SECT":" ","MAREA":" ","LANE":"１２９巷","ALLEY":" ","HOUSE_NO":"３７號","E_COORD97":178816.70208399999,"N_COORD97":2548336.8449400002,"ADDRESS":"大同街１２９巷３７號","OBJECTID":664395},"geometry":{"x":178816.70208400022,"y":2548336.8449380025}},{"attributes":{"ID":664423,"DIS_CODE":0,"TOWNNAME":"新化區","LI":"中央里","LIN":"6鄰","STREET":"大同街","SECT":" ","MAREA":" ","LANE":"１２９巷","ALLEY":" ","HOUSE_NO":"４３號","E_COORD97":178808.65112200001,"N_COORD97":2548346.36993,"ADDRESS":"大同街１２９巷４３號","OBJECTID":664396},"geometry":{"x":178808.65112200007,"y":2548346.3699320015}},{"attributes":{"ID":664424,"DIS_CODE":0,"TOWNNAME":"新化區","LI":"中央里","LIN":"6鄰","STREET":"大同街","SECT":" ","MAREA":" ","LANE":"１２９巷","ALLEY":" ","HOUSE_NO":"４１號","E_COORD97":178800.17642599999,"N_COORD97":2548347.6399300001,"ADDRESS":"大同街１２９巷４１號","OBJECTID":664397},"geometry":{"x":178800.17642599996,"y":2548347.639932001}},{"attributes":{"ID":664425,"DIS_CODE":0,"TOWNNAME":"新化區","LI":"中央里","LIN":"6鄰","STREET":"大同街","SECT":" ","MAREA":" ","LANE":"１２９巷","ALLEY":" ","HOUSE_NO":"３９號之２","E_COORD97":178833.227743,"N_COORD97":2548362.4565900001,"ADDRESS":"大同街１２９巷３９號之２","OBJECTID":664398},"geometry":{"x":178833.22774300072,"y":2548362.4565900005}},{"attributes":{"ID":664426,"DIS_CODE":0,"TOWNNAME":"新化區","LI":"中央里","LIN":"6鄰","STREET":"大同街","SECT":" ","MAREA":" ","LANE":"１２９巷","ALLEY":" ","HOUSE_NO":"３９號","E_COORD97":178837.04135700001,"N_COORD97":2548352.7199300001,"ADDRESS":"大同街１２９巷３９號","OBJECTID":664399},"geometry":{"x":178837.04135700036,"y":2548352.7199290004}},{"attributes":{"ID":664427,"DIS_CODE":0,"TOWNNAME":"南區","LI":"荔宅里","LIN":"2鄰","STREET":"西門路","SECT":"一段","MAREA":" ","LANE":"３００巷","ALLEY":" ","HOUSE_NO":"７２號","E_COORD97":167875.69940799999,"N_COORD97":2542041.28168,"ADDRESS":"西門路一段３００巷７２號","OBJECTID":664400},"geometry":{"x":167875.69940800034,"y":2542041.2816770021}}]}