{"displayFieldName":"TOWNNAME","fieldAliases":{"ID":"ID","DIS_CODE":"DIS_CODE","TOWNNAME":"TOWNNAME","LI":"LI","LIN":"LIN","STREET":"STREET","SECT":"SECT","MAREA":"MAREA","LANE":"LANE","ALLEY":"ALLEY","HOUSE_NO":"HOUSE_NO","E_COORD97":"E_COORD97","N_COORD97":"N_COORD97","ADDRESS":"ADDRESS","OBJECTID":"OBJECTID"},"geometryType":"esriGeometryPoint","spatialReference":{"wkid":102443,"latestWkid":3826},"fields":[{"name":"ID","type":"esriFieldTypeDouble","alias":"ID"},{"name":"DIS_CODE","type":"esriFieldTypeInteger","alias":"DIS_CODE"},{"name":"TOWNNAME","type":"esriFieldTypeString","alias":"TOWNNAME","length":8},{"name":"LI","type":"esriFieldTypeString","alias":"LI","length":8},{"name":"LIN","type":"esriFieldTypeString","alias":"LIN","length":12},{"name":"STREET","type":"esriFieldTypeString","alias":"STREET","length":20},{"name":"SECT","type":"esriFieldTypeString","alias":"SECT","length":8},{"name":"MAREA","type":"esriFieldTypeString","alias":"MAREA","length":12},{"name":"LANE","type":"esriFieldTypeString","alias":"LANE","length":10},{"name":"ALLEY","type":"esriFieldTypeString","alias":"ALLEY","length":10},{"name":"HOUSE_NO","type":"esriFieldTypeString","alias":"HOUSE_NO","length":20},{"name":"E_COORD97","type":"esriFieldTypeDouble","alias":"E_COORD97"},{"name":"N_COORD97","type":"esriFieldTypeDouble","alias":"N_COORD97"},{"name":"ADDRESS","type":"esriFieldTypeString","alias":"ADDRESS","length":50},{"name":"OBJECTID","type":"esriFieldTypeOID","alias":"OBJECTID"}],"features":[{"attributes":{"ID":10601,"DIS_CODE":0,"TOWNNAME":"安南區","LI":"長安里","LIN":"13鄰","STREET":"公學路","SECT":"二段","MAREA":" ","LANE":"１２５巷","ALLEY":"４１弄","HOUSE_NO":"２７號","E_COORD97":167807.48000000001,"N_COORD97":2552257.71,"ADDRESS":"公學路二段１２５巷４１弄２７號","OBJECTID":10601},"geometry":{"x":167807.48000000138,"y":2552257.7100000009}},{"attributes":{"ID":10602,"DIS_CODE":0,"TOWNNAME":"安南區","LI":"長安里","LIN":"13鄰","STREET":"公學路","SECT":"二段","MAREA":" ","LANE":"１２３巷","ALLEY":"４６弄","HOUSE_NO":"５１號之２","E_COORD97":167844.06,"N_COORD97":2552213.48,"ADDRESS":"公學路二段１２３巷４６弄５１號之２","OBJECTID":10602},"geometry":{"x":167844.05999999959,"y":2552213.4800000023}},{"attributes":{"ID":10603,"DIS_CODE":0,"TOWNNAME":"安南區","LI":"安慶里","LIN":"13鄰","STREET":"安和路","SECT":"二段","MAREA":" ","LANE":" ","ALLEY":" ","HOUSE_NO":"１１７號","E_COORD97":169494.57999999999,"N_COORD97":2548774.1400000001,"ADDRESS":"安和路二段１１７號","OBJECTID":10603},"geometry":{"x":169494.58000000101,"y":2548774.1400000025}},{"attributes":{"ID":10604,"DIS_CODE":0,"TOWNNAME":"安南區","LI":"安慶里","LIN":"13鄰","STREET":"安和路","SECT":"二段","MAREA":" ","LANE":" ","ALLEY":" ","HOUSE_NO":"１２５號","E_COORD97":169502.23999999999,"N_COORD97":2548795.5699999998,"ADDRESS":"安和路二段１２５號","OBJECTID":10604},"geometry":{"x":169502.24000000115,"y":2548795.5700000022}},{"attributes":{"ID":10605,"DIS_CODE":0,"TOWNNAME":"安南區","LI":"安慶里","LIN":"13鄰","STREET":"安和路","SECT":"二段","MAREA":" ","LANE":" ","ALLEY":" ","HOUSE_NO":"１２７號","E_COORD97":169501.42000000001,"N_COORD97":2548800.1200000001,"ADDRESS":"安和路二段１２７號","OBJECTID":10605},"geometry":{"x":169501.41999999993,"y":2548800.120000001}},{"attributes":{"ID":10606,"DIS_CODE":0,"TOWNNAME":"安南區","LI":"安慶里","LIN":"13鄰","STREET":"安和路","SECT":"二段","MAREA":" ","LANE":" ","ALLEY":" ","HOUSE_NO":"１３３號","E_COORD97":169496.66,"N_COORD97":2548812.7799999998,"ADDRESS":"安和路二段１３３號","OBJECTID":10606},"geometry":{"x":169496.66000000015,"y":2548812.7800000012}},{"attributes":{"ID":10607,"DIS_CODE":0,"TOWNNAME":"安南區","LI":"安慶里","LIN":"13鄰","STREET":"安和路","SECT":"二段","MAREA":" ","LANE":" ","ALLEY":" ","HOUSE_NO":"１３７號","E_COORD97":169508.89999999999,"N_COORD97":2548823.1600000001,"ADDRESS":"安和路二段１３７號","OBJECTID":10607},"geometry":{"x":169508.90000000037,"y":2548823.1600000001}},{"attributes":{"ID":10608,"DIS_CODE":0,"TOWNNAME":"安南區","LI":"安慶里","LIN":"13鄰","STREET":"安和路","SECT":"二段","MAREA":" ","LANE":" ","ALLEY":" ","HOUSE_NO":"１３９號","E_COORD97":169510.92000000001,"N_COORD97":2548830.1800000002,"ADDRESS":"安和路二段１３９號","OBJECTID":10608},"geometry":{"x":169510.92000000086,"y":2548830.1800000034}},{"attributes":{"ID":10609,"DIS_CODE":0,"TOWNNAME":"安南區","LI":"安慶里","LIN":"13鄰","STREET":"安和路","SECT":"二段","MAREA":" ","LANE":" ","ALLEY":" ","HOUSE_NO":"１７１號","E_COORD97":169532.39000000001,"N_COORD97":2548893.8999999999,"ADDRESS":"安和路二段１７１號","OBJECTID":10609},"geometry":{"x":169532.38999999966,"y":2548893.9000000041}},{"attributes":{"ID":10610,"DIS_CODE":0,"TOWNNAME":"安南區","LI":"安慶里","LIN":"13鄰","STREET":"安和路","SECT":"二段","MAREA":" ","LANE":" ","ALLEY":" ","HOUSE_NO":"６１號","E_COORD97":169446.92000000001,"N_COORD97":2548661.6299999999,"ADDRESS":"安和路二段６１號","OBJECTID":10610},"geometry":{"x":169446.92000000086,"y":2548661.6300000008}},{"attributes":{"ID":10611,"DIS_CODE":0,"TOWNNAME":"安南區","LI":"安西里","LIN":"13鄰","STREET":"安和路","SECT":"一段","MAREA":" ","LANE":" ","ALLEY":" ","HOUSE_NO":"１５３號","E_COORD97":169370.09,"N_COORD97":2547805.6299999999,"ADDRESS":"安和路一段１５３號","OBJECTID":10611},"geometry":{"x":169370.08999999985,"y":2547805.629999999}},{"attributes":{"ID":10612,"DIS_CODE":0,"TOWNNAME":"鹽水區","LI":"南港里","LIN":"7鄰","STREET":" ","SECT":" ","MAREA":"?頭港","LANE":" ","ALLEY":" ","HOUSE_NO":"１６５號之２","E_COORD97":173097.62,"N_COORD97":2572635.1299999999,"ADDRESS":"?頭港１６５號之２","OBJECTID":10612},"geometry":{"x":173097.62000000011,"y":2572635.1300000008}},{"attributes":{"ID":10613,"DIS_CODE":0,"TOWNNAME":"仁德區","LI":"二行里","LIN":"20鄰","STREET":"行大街","SECT":" ","MAREA":" ","LANE":" ","ALLEY":" ","HOUSE_NO":"２４２號","E_COORD97":169816.32000000001,"N_COORD97":2535148.75,"ADDRESS":"行大街２４２號","OBJECTID":10613},"geometry":{"x":169816.3200000003,"y":2535148.75}},{"attributes":{"ID":10614,"DIS_CODE":0,"TOWNNAME":"仁德區","LI":"上崙里","LIN":"20鄰","STREET":"上崙街","SECT":" ","MAREA":" ","LANE":" ","ALLEY":" ","HOUSE_NO":"３３號","E_COORD97":173737.17999999999,"N_COORD97":2538104.9900000002,"ADDRESS":"上崙街３３號","OBJECTID":10614},"geometry":{"x":173737.18000000063,"y":2538104.9900000039}},{"attributes":{"ID":10615,"DIS_CODE":0,"TOWNNAME":"仁德區","LI":"上崙里","LIN":"20鄰","STREET":"上崙街","SECT":" ","MAREA":" ","LANE":" ","ALLEY":" ","HOUSE_NO":"２５號","E_COORD97":173782.41,"N_COORD97":2538100.7400000002,"ADDRESS":"上崙街２５號","OBJECTID":10615},"geometry":{"x":173782.41000000015,"y":2538100.7400000021}},{"attributes":{"ID":10616,"DIS_CODE":0,"TOWNNAME":"仁德區","LI":"一甲里","LIN":"20鄰","STREET":"太乙五街","SECT":" ","MAREA":" ","LANE":" ","ALLEY":" ","HOUSE_NO":"４０號","E_COORD97":173213.98000000001,"N_COORD97":2542112.25,"ADDRESS":"太乙五街４０號","OBJECTID":10616},"geometry":{"x":173213.98000000045,"y":2542112.25}},{"attributes":{"ID":10617,"DIS_CODE":0,"TOWNNAME":"仁德區","LI":"一甲里","LIN":"20鄰","STREET":"太乙五街","SECT":" ","MAREA":" ","LANE":" ","ALLEY":" ","HOUSE_NO":"３２號","E_COORD97":173220.29999999999,"N_COORD97":2542152.5,"ADDRESS":"太乙五街３２號","OBJECTID":10617},"geometry":{"x":173220.30000000168,"y":2542152.4999999981}},{"attributes":{"ID":10618,"DIS_CODE":0,"TOWNNAME":"仁德區","LI":"上崙里","LIN":"20鄰","STREET":"上崙一街","SECT":" ","MAREA":" ","LANE":" ","ALLEY":" ","HOUSE_NO":"２４號","E_COORD97":173789.81,"N_COORD97":2538057.25,"ADDRESS":"上崙一街２４號","OBJECTID":10618},"geometry":{"x":173789.81000000052,"y":2538057.25}},{"attributes":{"ID":10619,"DIS_CODE":0,"TOWNNAME":"仁德區","LI":"上崙里","LIN":"20鄰","STREET":"上崙街","SECT":" ","MAREA":" ","LANE":" ","ALLEY":" ","HOUSE_NO":"２３號","E_COORD97":173781.53,"N_COORD97":2538105.2400000002,"ADDRESS":"上崙街２３號","OBJECTID":10619},"geometry":{"x":173781.53000000026,"y":2538105.2400000002}},{"attributes":{"ID":10620,"DIS_CODE":0,"TOWNNAME":"仁德區","LI":"一甲里","LIN":"20鄰","STREET":"太乙六街","SECT":" ","MAREA":" ","LANE":" ","ALLEY":" ","HOUSE_NO":"４１號","E_COORD97":173218.98999999999,"N_COORD97":2542424.75,"ADDRESS":"太乙六街４１號","OBJECTID":10620},"geometry":{"x":173218.99000000022,"y":2542424.75}},{"attributes":{"ID":10621,"DIS_CODE":0,"TOWNNAME":"仁德區","LI":"上崙里","LIN":"20鄰","STREET":"上崙街","SECT":" ","MAREA":" ","LANE":" ","ALLEY":" ","HOUSE_NO":"２９號","E_COORD97":173762.42000000001,"N_COORD97":2538112.9900000002,"ADDRESS":"上崙街２９號","OBJECTID":10621},"geometry":{"x":173762.42000000086,"y":2538112.9900000021}},{"attributes":{"ID":10622,"DIS_CODE":0,"TOWNNAME":"仁德區","LI":"一甲里","LIN":"20鄰","STREET":"太乙五街","SECT":" ","MAREA":" ","LANE":" ","ALLEY":" ","HOUSE_NO":"３號","E_COORD97":173254.45999999999,"N_COORD97":2542266.0099999998,"ADDRESS":"太乙五街３號","OBJECTID":10622},"geometry":{"x":173254.45999999996,"y":2542266.0100000016}},{"attributes":{"ID":10623,"DIS_CODE":0,"TOWNNAME":"安南區","LI":"長安里","LIN":"13鄰","STREET":"公學路","SECT":"二段","MAREA":" ","LANE":"１２３巷","ALLEY":"４６弄","HOUSE_NO":"５１號之３","E_COORD97":167847.54999999999,"N_COORD97":2552216.2200000002,"ADDRESS":"公學路二段１２３巷４６弄５１號之３","OBJECTID":10623},"geometry":{"x":167847.54999999981,"y":2552216.2200000025}},{"attributes":{"ID":10624,"DIS_CODE":0,"TOWNNAME":"安南區","LI":"長安里","LIN":"13鄰","STREET":"公學路","SECT":"二段","MAREA":" ","LANE":"１２３巷","ALLEY":"４６弄","HOUSE_NO":"５１號","E_COORD97":167836.88,"N_COORD97":2552207.3599999999,"ADDRESS":"公學路二段１２３巷４６弄５１號","OBJECTID":10624},"geometry":{"x":167836.87999999989,"y":2552207.3599999994}},{"attributes":{"ID":10625,"DIS_CODE":0,"TOWNNAME":"安南區","LI":"長安里","LIN":"13鄰","STREET":"公學路","SECT":"二段","MAREA":" ","LANE":"１２３巷","ALLEY":"４６弄","HOUSE_NO":"５１號之１","E_COORD97":167840.75,"N_COORD97":2552210.0899999999,"ADDRESS":"公學路二段１２３巷４６弄５１號之１","OBJECTID":10625},"geometry":{"x":167840.75000000093,"y":2552210.0899999999}},{"attributes":{"ID":10626,"DIS_CODE":0,"TOWNNAME":"安南區","LI":"長安里","LIN":"13鄰","STREET":"公學路","SECT":"二段","MAREA":" ","LANE":"１２５巷","ALLEY":"４１弄","HOUSE_NO":"２６號","E_COORD97":167823.76000000001,"N_COORD97":2552227.6600000001,"ADDRESS":"公學路二段１２５巷４１弄２６號","OBJECTID":10626},"geometry":{"x":167823.76000000071,"y":2552227.6600000001}},{"attributes":{"ID":10627,"DIS_CODE":0,"TOWNNAME":"安南區","LI":"長安里","LIN":"13鄰","STREET":"公學路","SECT":"二段","MAREA":" ","LANE":"１２５巷","ALLEY":"４１弄","HOUSE_NO":"２８號","E_COORD97":167827.72,"N_COORD97":2552230.02,"ADDRESS":"公學路二段１２５巷４１弄２８號","OBJECTID":10627},"geometry":{"x":167827.71999999974,"y":2552230.0200000014}},{"attributes":{"ID":10628,"DIS_CODE":0,"TOWNNAME":"安南區","LI":"長安里","LIN":"13鄰","STREET":"公學路","SECT":"二段","MAREA":" ","LANE":"１２５巷","ALLEY":"４１弄","HOUSE_NO":"３０號","E_COORD97":167831.67999999999,"N_COORD97":2552232.2799999998,"ADDRESS":"公學路二段１２５巷４１弄３０號","OBJECTID":10628},"geometry":{"x":167831.6799999997,"y":2552232.2799999993}},{"attributes":{"ID":10629,"DIS_CODE":0,"TOWNNAME":"安南區","LI":"長安里","LIN":"13鄰","STREET":"公學路","SECT":"二段","MAREA":" ","LANE":"１２５巷","ALLEY":"４１弄","HOUSE_NO":"３２號","E_COORD97":167834.32999999999,"N_COORD97":2552235.8599999999,"ADDRESS":"公學路二段１２５巷４１弄３２號","OBJECTID":10629},"geometry":{"x":167834.33000000007,"y":2552235.8599999975}},{"attributes":{"ID":10630,"DIS_CODE":0,"TOWNNAME":"安南區","LI":"長安里","LIN":"13鄰","STREET":"公學路","SECT":"二段","MAREA":" ","LANE":"１２５巷","ALLEY":"４１弄","HOUSE_NO":"３４號","E_COORD97":167837.07000000001,"N_COORD97":2552239.4500000002,"ADDRESS":"公學路二段１２５巷４１弄３４號","OBJECTID":10630},"geometry":{"x":167837.07000000123,"y":2552239.4500000011}},{"attributes":{"ID":10631,"DIS_CODE":0,"TOWNNAME":"安南區","LI":"新順里","LIN":"13鄰","STREET":"開安一街","SECT":" ","MAREA":" ","LANE":"８巷","ALLEY":"１５弄","HOUSE_NO":"１９號","E_COORD97":170553.76999999999,"N_COORD97":2549581.1000000001,"ADDRESS":"開安一街８巷１５弄１９號","OBJECTID":10631},"geometry":{"x":170553.77000000142,"y":2549581.1000000015}},{"attributes":{"ID":10632,"DIS_CODE":0,"TOWNNAME":"安南區","LI":"安順里","LIN":"13鄰","STREET":"育安二街","SECT":" ","MAREA":" ","LANE":"１３５巷","ALLEY":"１２弄","HOUSE_NO":"５號","E_COORD97":169622.45999999999,"N_COORD97":2550048.73,"ADDRESS":"育安二街１３５巷１２弄５號","OBJECTID":10632},"geometry":{"x":169622.46000000089,"y":2550048.7300000023}},{"attributes":{"ID":10633,"DIS_CODE":0,"TOWNNAME":"安南區","LI":"安順里","LIN":"13鄰","STREET":"育安二街","SECT":" ","MAREA":" ","LANE":"１３５巷","ALLEY":"１２弄","HOUSE_NO":"６號","E_COORD97":169637.29999999999,"N_COORD97":2550047.8599999999,"ADDRESS":"育安二街１３５巷１２弄６號","OBJECTID":10633},"geometry":{"x":169637.30000000075,"y":2550047.8599999994}},{"attributes":{"ID":10634,"DIS_CODE":0,"TOWNNAME":"安南區","LI":"安順里","LIN":"13鄰","STREET":"育安二街","SECT":" ","MAREA":" ","LANE":"１３５巷","ALLEY":"１２弄","HOUSE_NO":"７號","E_COORD97":169623.16,"N_COORD97":2550052.9100000001,"ADDRESS":"育安二街１３５巷１２弄７號","OBJECTID":10634},"geometry":{"x":169623.16000000108,"y":2550052.9099999983}},{"attributes":{"ID":10635,"DIS_CODE":0,"TOWNNAME":"安南區","LI":"安順里","LIN":"13鄰","STREET":"育安二街","SECT":" ","MAREA":" ","LANE":"１３５巷","ALLEY":"１２弄","HOUSE_NO":"８號","E_COORD97":169637.10999999999,"N_COORD97":2550052.4399999999,"ADDRESS":"育安二街１３５巷１２弄８號","OBJECTID":10635},"geometry":{"x":169637.11000000127,"y":2550052.4400000032}},{"attributes":{"ID":10636,"DIS_CODE":0,"TOWNNAME":"安南區","LI":"安順里","LIN":"13鄰","STREET":"育安二街","SECT":" ","MAREA":" ","LANE":"１３５巷","ALLEY":"１２弄","HOUSE_NO":"９號","E_COORD97":169622.69,"N_COORD97":2550058.0099999998,"ADDRESS":"育安二街１３５巷１２弄９號","OBJECTID":10636},"geometry":{"x":169622.69000000041,"y":2550058.0099999998}},{"attributes":{"ID":10637,"DIS_CODE":0,"TOWNNAME":"安南區","LI":"安順里","LIN":"13鄰","STREET":"總安街","SECT":"一段","MAREA":" ","LANE":"１１７巷","ALLEY":"１０弄","HOUSE_NO":"４號","E_COORD97":169654.64999999999,"N_COORD97":2550123.9199999999,"ADDRESS":"總安街一段１１７巷１０弄４號","OBJECTID":10637},"geometry":{"x":169654.65000000037,"y":2550123.9200000037}},{"attributes":{"ID":10638,"DIS_CODE":0,"TOWNNAME":"安南區","LI":"安順里","LIN":"13鄰","STREET":"總安街","SECT":"一段","MAREA":" ","LANE":"１１７巷","ALLEY":"１０弄","HOUSE_NO":"６號","E_COORD97":169650.54000000001,"N_COORD97":2550124.6800000002,"ADDRESS":"總安街一段１１７巷１０弄６號","OBJECTID":10638},"geometry":{"x":169650.5400000019,"y":2550124.6799999997}},{"attributes":{"ID":10639,"DIS_CODE":0,"TOWNNAME":"安南區","LI":"安順里","LIN":"13鄰","STREET":"總安街","SECT":"一段","MAREA":" ","LANE":"１１７巷","ALLEY":"１０弄","HOUSE_NO":"８號","E_COORD97":169645.53,"N_COORD97":2550124.8300000001,"ADDRESS":"總安街一段１１７巷１０弄８號","OBJECTID":10639},"geometry":{"x":169645.53000000026,"y":2550124.8300000038}},{"attributes":{"ID":10640,"DIS_CODE":0,"TOWNNAME":"安南區","LI":"安順里","LIN":"13鄰","STREET":"總安街","SECT":"一段","MAREA":" ","LANE":"１１７巷","ALLEY":"１６弄","HOUSE_NO":"１０號","E_COORD97":169651.29999999999,"N_COORD97":2550098.4399999999,"ADDRESS":"總安街一段１１７巷１６弄１０號","OBJECTID":10640},"geometry":{"x":169651.29999999981,"y":2550098.4399999995}},{"attributes":{"ID":10641,"DIS_CODE":0,"TOWNNAME":"仁德區","LI":"二行里","LIN":"20鄰","STREET":"行大街","SECT":" ","MAREA":" ","LANE":" ","ALLEY":" ","HOUSE_NO":"２０６號","E_COORD97":169879.48000000001,"N_COORD97":2535104.9900000002,"ADDRESS":"行大街２０６號","OBJECTID":10641},"geometry":{"x":169879.48000000045,"y":2535104.9900000021}},{"attributes":{"ID":10642,"DIS_CODE":0,"TOWNNAME":"仁德區","LI":"一甲里","LIN":"20鄰","STREET":"太乙三街","SECT":" ","MAREA":" ","LANE":" ","ALLEY":" ","HOUSE_NO":"６０號","E_COORD97":173313.84,"N_COORD97":2542252,"ADDRESS":"太乙三街６０號","OBJECTID":10642},"geometry":{"x":173313.84000000078,"y":2542252.0000000019}},{"attributes":{"ID":10643,"DIS_CODE":0,"TOWNNAME":"仁德區","LI":"二行里","LIN":"20鄰","STREET":"行大街","SECT":" ","MAREA":" ","LANE":" ","ALLEY":" ","HOUSE_NO":"１９８號","E_COORD97":169900.95999999999,"N_COORD97":2535104.4900000002,"ADDRESS":"行大街１９８號","OBJECTID":10643},"geometry":{"x":169900.96000000089,"y":2535104.4900000039}},{"attributes":{"ID":10644,"DIS_CODE":0,"TOWNNAME":"安南區","LI":"安順里","LIN":"13鄰","STREET":"總安街","SECT":"一段","MAREA":" ","LANE":"１１７巷","ALLEY":"１６弄","HOUSE_NO":"１１號","E_COORD97":169641.89000000001,"N_COORD97":2550068.6600000001,"ADDRESS":"總安街一段１１７巷１６弄１１號","OBJECTID":10644},"geometry":{"x":169641.8900000006,"y":2550068.660000002}},{"attributes":{"ID":10645,"DIS_CODE":0,"TOWNNAME":"北區","LI":"國姓里","LIN":"13鄰","STREET":"西門路","SECT":"四段","MAREA":" ","LANE":" ","ALLEY":" ","HOUSE_NO":"７８號","E_COORD97":168713.14000000001,"N_COORD97":2545348.6099999999,"ADDRESS":"西門路四段７８號","OBJECTID":10645},"geometry":{"x":168713.13999999966,"y":2545348.6100000031}},{"attributes":{"ID":10646,"DIS_CODE":0,"TOWNNAME":"安南區","LI":"安順里","LIN":"13鄰","STREET":"總安街","SECT":"一段","MAREA":" ","LANE":"１１７巷","ALLEY":"１６弄","HOUSE_NO":"１２號","E_COORD97":169647.04999999999,"N_COORD97":2550098.5899999999,"ADDRESS":"總安街一段１１７巷１６弄１２號","OBJECTID":10646},"geometry":{"x":169647.05000000075,"y":2550098.5899999999}},{"attributes":{"ID":10647,"DIS_CODE":0,"TOWNNAME":"安南區","LI":"安順里","LIN":"13鄰","STREET":"總安街","SECT":"一段","MAREA":" ","LANE":"１１７巷","ALLEY":"１６弄","HOUSE_NO":"１３號","E_COORD97":169638.64000000001,"N_COORD97":2550069.6099999999,"ADDRESS":"總安街一段１１７巷１６弄１３號","OBJECTID":10647},"geometry":{"x":169638.63999999966,"y":2550069.6100000013}},{"attributes":{"ID":10648,"DIS_CODE":0,"TOWNNAME":"安南區","LI":"安順里","LIN":"13鄰","STREET":"總安街","SECT":"一段","MAREA":" ","LANE":"１１７巷","ALLEY":"１６弄","HOUSE_NO":"１４號","E_COORD97":169642.64999999999,"N_COORD97":2550098.5899999999,"ADDRESS":"總安街一段１１７巷１６弄１４號","OBJECTID":10648},"geometry":{"x":169642.65000000037,"y":2550098.5899999999}},{"attributes":{"ID":10649,"DIS_CODE":0,"TOWNNAME":"安南區","LI":"安順里","LIN":"13鄰","STREET":"總安街","SECT":"一段","MAREA":" ","LANE":"１１７巷","ALLEY":"１６弄","HOUSE_NO":"２號","E_COORD97":169668.92000000001,"N_COORD97":2550098.29,"ADDRESS":"總安街一段１１７巷１６弄２號","OBJECTID":10649},"geometry":{"x":169668.92000000086,"y":2550098.290000001}},{"attributes":{"ID":10650,"DIS_CODE":0,"TOWNNAME":"安南區","LI":"安順里","LIN":"13鄰","STREET":"總安街","SECT":"一段","MAREA":" ","LANE":"１１７巷","ALLEY":"１６弄","HOUSE_NO":"３號","E_COORD97":169659.85999999999,"N_COORD97":2550067.8900000001,"ADDRESS":"總安街一段１１７巷１６弄３號","OBJECTID":10650},"geometry":{"x":169659.86000000034,"y":2550067.8900000025}},{"attributes":{"ID":10651,"DIS_CODE":0,"TOWNNAME":"安南區","LI":"安順里","LIN":"13鄰","STREET":"總安街","SECT":"一段","MAREA":" ","LANE":"１１７巷","ALLEY":"１６弄","HOUSE_NO":"４號","E_COORD97":169664.67000000001,"N_COORD97":2550097.98,"ADDRESS":"總安街一段１１７巷１６弄４號","OBJECTID":10651},"geometry":{"x":169664.66999999993,"y":2550097.9800000023}},{"attributes":{"ID":10652,"DIS_CODE":0,"TOWNNAME":"安南區","LI":"安順里","LIN":"13鄰","STREET":"總安街","SECT":"一段","MAREA":" ","LANE":"１１７巷","ALLEY":"１６弄","HOUSE_NO":"５號","E_COORD97":169655.45999999999,"N_COORD97":2550067.8900000001,"ADDRESS":"總安街一段１１７巷１６弄５號","OBJECTID":10652},"geometry":{"x":169655.45999999996,"y":2550067.8900000025}},{"attributes":{"ID":10653,"DIS_CODE":0,"TOWNNAME":"安南區","LI":"安順里","LIN":"13鄰","STREET":"總安街","SECT":"一段","MAREA":" ","LANE":"１１７巷","ALLEY":"１６弄","HOUSE_NO":"６號","E_COORD97":169660.26999999999,"N_COORD97":2550097.98,"ADDRESS":"總安街一段１１７巷１６弄６號","OBJECTID":10653},"geometry":{"x":169660.26999999862,"y":2550097.9800000023}},{"attributes":{"ID":10654,"DIS_CODE":0,"TOWNNAME":"安南區","LI":"安順里","LIN":"13鄰","STREET":"總安街","SECT":"一段","MAREA":" ","LANE":"１１７巷","ALLEY":"１６弄","HOUSE_NO":"８號","E_COORD97":169656.32000000001,"N_COORD97":2550098.7400000002,"ADDRESS":"總安街一段１１７巷１６弄８號","OBJECTID":10654},"geometry":{"x":169656.32000000123,"y":2550098.7400000021}},{"attributes":{"ID":10655,"DIS_CODE":0,"TOWNNAME":"安南區","LI":"安順里","LIN":"13鄰","STREET":"總安街","SECT":"一段","MAREA":" ","LANE":"１１７巷","ALLEY":"１６弄","HOUSE_NO":"９號","E_COORD97":169647.04999999999,"N_COORD97":2550067.8900000001,"ADDRESS":"總安街一段１１７巷１６弄９號","OBJECTID":10655},"geometry":{"x":169647.05000000075,"y":2550067.8900000025}},{"attributes":{"ID":10656,"DIS_CODE":0,"TOWNNAME":"安南區","LI":"新順里","LIN":"13鄰","STREET":"永安路","SECT":" ","MAREA":" ","LANE":"７１巷","ALLEY":"８弄","HOUSE_NO":"１６號","E_COORD97":170435.41,"N_COORD97":2549393.4399999999,"ADDRESS":"永安路７１巷８弄１６號","OBJECTID":10656},"geometry":{"x":170435.41000000108,"y":2549393.4399999995}},{"attributes":{"ID":10657,"DIS_CODE":0,"TOWNNAME":"安南區","LI":"新順里","LIN":"13鄰","STREET":"永安路","SECT":" ","MAREA":" ","LANE":"７１巷","ALLEY":"８弄","HOUSE_NO":"１８號","E_COORD97":170444.12,"N_COORD97":2549388.1699999999,"ADDRESS":"永安路７１巷８弄１８號","OBJECTID":10657},"geometry":{"x":170444.12000000104,"y":2549388.1700000018}},{"attributes":{"ID":10658,"DIS_CODE":0,"TOWNNAME":"安南區","LI":"新順里","LIN":"13鄰","STREET":"永安路","SECT":" ","MAREA":" ","LANE":"７１巷","ALLEY":"８弄","HOUSE_NO":"２０號","E_COORD97":170454.39999999999,"N_COORD97":2549383.4300000002,"ADDRESS":"永安路７１巷８弄２０號","OBJECTID":10658},"geometry":{"x":170454.4000000013,"y":2549383.4299999997}},{"attributes":{"ID":10659,"DIS_CODE":0,"TOWNNAME":"安南區","LI":"溪墘里","LIN":"13鄰","STREET":"海佃路","SECT":"一段","MAREA":" ","LANE":" ","ALLEY":" ","HOUSE_NO":"３１８號","E_COORD97":167111.06,"N_COORD97":2547466.6099999999,"ADDRESS":"海佃路一段３１８號","OBJECTID":10659},"geometry":{"x":167111.06000000052,"y":2547466.6099999994}},{"attributes":{"ID":10660,"DIS_CODE":0,"TOWNNAME":"仁德區","LI":"一甲里","LIN":"20鄰","STREET":"太乙六街","SECT":" ","MAREA":" ","LANE":" ","ALLEY":" ","HOUSE_NO":"６號","E_COORD97":173200.39000000001,"N_COORD97":2542504.0099999998,"ADDRESS":"太乙六街６號","OBJECTID":10660},"geometry":{"x":173200.38999999966,"y":2542504.0099999998}},{"attributes":{"ID":10661,"DIS_CODE":0,"TOWNNAME":"仁德區","LI":"上崙里","LIN":"20鄰","STREET":"上崙一街","SECT":" ","MAREA":" ","LANE":" ","ALLEY":" ","HOUSE_NO":"１６８號","E_COORD97":173850.37,"N_COORD97":2537670.2400000002,"ADDRESS":"上崙一街１６８號","OBJECTID":10661},"geometry":{"x":173850.37000000011,"y":2537670.2400000021}},{"attributes":{"ID":10662,"DIS_CODE":0,"TOWNNAME":"仁德區","LI":"上崙里","LIN":"20鄰","STREET":"上崙街","SECT":" ","MAREA":" ","LANE":" ","ALLEY":" ","HOUSE_NO":"５號","E_COORD97":173790.28,"N_COORD97":2538123,"ADDRESS":"上崙街５號","OBJECTID":10662},"geometry":{"x":173790.28000000026,"y":2538123.0000000019}},{"attributes":{"ID":10663,"DIS_CODE":0,"TOWNNAME":"仁德區","LI":"一甲里","LIN":"20鄰","STREET":"太乙五街","SECT":" ","MAREA":" ","LANE":" ","ALLEY":" ","HOUSE_NO":"５０號","E_COORD97":173207.62,"N_COORD97":2542071.0099999998,"ADDRESS":"太乙五街５０號","OBJECTID":10663},"geometry":{"x":173207.62000000011,"y":2542071.0100000035}},{"attributes":{"ID":10664,"DIS_CODE":0,"TOWNNAME":"仁德區","LI":"上崙里","LIN":"20鄰","STREET":"上崙一街","SECT":" ","MAREA":" ","LANE":" ","ALLEY":" ","HOUSE_NO":"３８號","E_COORD97":173777.91,"N_COORD97":2538027.25,"ADDRESS":"上崙一街３８號","OBJECTID":10664},"geometry":{"x":173777.91000000108,"y":2538027.25}},{"attributes":{"ID":10665,"DIS_CODE":0,"TOWNNAME":"仁德區","LI":"一甲里","LIN":"20鄰","STREET":"太乙七街","SECT":" ","MAREA":" ","LANE":" ","ALLEY":" ","HOUSE_NO":"７８號","E_COORD97":173050.13,"N_COORD97":2541980.2599999998,"ADDRESS":"太乙七街７８號","OBJECTID":10665},"geometry":{"x":173050.12999999989,"y":2541980.2599999998}},{"attributes":{"ID":10666,"DIS_CODE":0,"TOWNNAME":"仁德區","LI":"一甲里","LIN":"20鄰","STREET":"太乙五街","SECT":" ","MAREA":" ","LANE":" ","ALLEY":" ","HOUSE_NO":"１９號","E_COORD97":173253.5,"N_COORD97":2542197.7599999998,"ADDRESS":"太乙五街１９號","OBJECTID":10666},"geometry":{"x":173253.50000000093,"y":2542197.7599999998}},{"attributes":{"ID":10667,"DIS_CODE":0,"TOWNNAME":"仁德區","LI":"一甲里","LIN":"20鄰","STREET":"太乙六街","SECT":" ","MAREA":" ","LANE":" ","ALLEY":" ","HOUSE_NO":"４７號","E_COORD97":173215.97,"N_COORD97":2542378.7599999998,"ADDRESS":"太乙六街４７號","OBJECTID":10667},"geometry":{"x":173215.97000000067,"y":2542378.7600000016}},{"attributes":{"ID":10668,"DIS_CODE":0,"TOWNNAME":"仁德區","LI":"一甲里","LIN":"20鄰","STREET":"太乙七街","SECT":" ","MAREA":" ","LANE":" ","ALLEY":" ","HOUSE_NO":"６８號","E_COORD97":173054.45000000001,"N_COORD97":2542024,"ADDRESS":"太乙七街６８號","OBJECTID":10668},"geometry":{"x":173054.45000000112,"y":2542024.0000000037}},{"attributes":{"ID":10669,"DIS_CODE":0,"TOWNNAME":"仁德區","LI":"一甲里","LIN":"20鄰","STREET":"太乙七街","SECT":" ","MAREA":" ","LANE":" ","ALLEY":" ","HOUSE_NO":"８９號","E_COORD97":173069.62,"N_COORD97":2541986.7599999998,"ADDRESS":"太乙七街８９號","OBJECTID":10669},"geometry":{"x":173069.62000000104,"y":2541986.7599999998}},{"attributes":{"ID":10670,"DIS_CODE":0,"TOWNNAME":"仁德區","LI":"一甲里","LIN":"20鄰","STREET":"太新路","SECT":" ","MAREA":" ","LANE":" ","ALLEY":" ","HOUSE_NO":"１號","E_COORD97":173132.79000000001,"N_COORD97":2542309.7599999998,"ADDRESS":"太新路１號","OBJECTID":10670},"geometry":{"x":173132.79000000097,"y":2542309.7599999998}},{"attributes":{"ID":10671,"DIS_CODE":0,"TOWNNAME":"仁德區","LI":"一甲里","LIN":"20鄰","STREET":"太乙五街","SECT":" ","MAREA":" ","LANE":" ","ALLEY":" ","HOUSE_NO":"１號","E_COORD97":173255.64999999999,"N_COORD97":2542273.0099999998,"ADDRESS":"太乙五街１號","OBJECTID":10671},"geometry":{"x":173255.65000000037,"y":2542273.0099999998}},{"attributes":{"ID":10672,"DIS_CODE":0,"TOWNNAME":"仁德區","LI":"一甲里","LIN":"20鄰","STREET":"太乙七街","SECT":" ","MAREA":" ","LANE":" ","ALLEY":" ","HOUSE_NO":"５６號","E_COORD97":173062.45999999999,"N_COORD97":2542078.7599999998,"ADDRESS":"太乙七街５６號","OBJECTID":10672},"geometry":{"x":173062.46000000089,"y":2542078.7599999998}},{"attributes":{"ID":10673,"DIS_CODE":0,"TOWNNAME":"仁德區","LI":"一甲里","LIN":"20鄰","STREET":"太乙七街","SECT":" ","MAREA":" ","LANE":" ","ALLEY":" ","HOUSE_NO":"６４號","E_COORD97":173058.22,"N_COORD97":2542036.75,"ADDRESS":"太乙七街６４號","OBJECTID":10673},"geometry":{"x":173058.22000000067,"y":2542036.7500000019}},{"attributes":{"ID":10674,"DIS_CODE":0,"TOWNNAME":"仁德區","LI":"一甲里","LIN":"20鄰","STREET":"太乙七街","SECT":" ","MAREA":" ","LANE":" ","ALLEY":" ","HOUSE_NO":"５２號","E_COORD97":173066.03,"N_COORD97":2542099.7599999998,"ADDRESS":"太乙七街５２號","OBJECTID":10674},"geometry":{"x":173066.03000000026,"y":2542099.7599999979}},{"attributes":{"ID":10675,"DIS_CODE":0,"TOWNNAME":"仁德區","LI":"一甲里","LIN":"20鄰","STREET":"太乙六街","SECT":" ","MAREA":" ","LANE":" ","ALLEY":" ","HOUSE_NO":"６７號","E_COORD97":173200.82000000001,"N_COORD97":2542221,"ADDRESS":"太乙六街６７號","OBJECTID":10675},"geometry":{"x":173200.82000000123,"y":2542221.0000000019}},{"attributes":{"ID":10676,"DIS_CODE":0,"TOWNNAME":"仁德區","LI":"一甲里","LIN":"20鄰","STREET":"太乙七街","SECT":" ","MAREA":" ","LANE":" ","ALLEY":" ","HOUSE_NO":"１３號","E_COORD97":173142.5,"N_COORD97":2542435.75,"ADDRESS":"太乙七街１３號","OBJECTID":10676},"geometry":{"x":173142.5,"y":2542435.7500000037}},{"attributes":{"ID":10677,"DIS_CODE":0,"TOWNNAME":"仁德區","LI":"一甲里","LIN":"20鄰","STREET":"太乙七街","SECT":" ","MAREA":" ","LANE":" ","ALLEY":" ","HOUSE_NO":"３７號","E_COORD97":173118.07000000001,"N_COORD97":2542243,"ADDRESS":"太乙七街３７號","OBJECTID":10677},"geometry":{"x":173118.07000000123,"y":2542243}},{"attributes":{"ID":10678,"DIS_CODE":0,"TOWNNAME":"鹽水區","LI":"南港里","LIN":"7鄰","STREET":" ","SECT":" ","MAREA":"?頭港","LANE":" ","ALLEY":" ","HOUSE_NO":"１６６之１號","E_COORD97":173060.94,"N_COORD97":2572593.8599999999,"ADDRESS":"?頭港１６６之１號","OBJECTID":10678},"geometry":{"x":173060.94000000134,"y":2572593.8599999994}},{"attributes":{"ID":10679,"DIS_CODE":0,"TOWNNAME":"安南區","LI":"新順里","LIN":"13鄰","STREET":"永安路","SECT":" ","MAREA":" ","LANE":"７１巷","ALLEY":"８弄","HOUSE_NO":"２２號","E_COORD97":170464.42000000001,"N_COORD97":2549379.7400000002,"ADDRESS":"永安路７１巷８弄２２號","OBJECTID":10679},"geometry":{"x":170464.41999999993,"y":2549379.7400000039}},{"attributes":{"ID":10680,"DIS_CODE":0,"TOWNNAME":"安南區","LI":"新順里","LIN":"13鄰","STREET":"永安路","SECT":" ","MAREA":" ","LANE":"７１巷","ALLEY":"８弄","HOUSE_NO":"３號","E_COORD97":170382.79999999999,"N_COORD97":2549446.1000000001,"ADDRESS":"永安路７１巷８弄３號","OBJECTID":10680},"geometry":{"x":170382.80000000075,"y":2549446.0999999996}},{"attributes":{"ID":10681,"DIS_CODE":0,"TOWNNAME":"安南區","LI":"新順里","LIN":"13鄰","STREET":"永安路","SECT":" ","MAREA":" ","LANE":"７１巷","ALLEY":"８弄","HOUSE_NO":"６號","E_COORD97":170374.66,"N_COORD97":2549429.2999999998,"ADDRESS":"永安路７１巷８弄６號","OBJECTID":10681},"geometry":{"x":170374.66000000015,"y":2549429.3000000007}},{"attributes":{"ID":10682,"DIS_CODE":0,"TOWNNAME":"安南區","LI":"新順里","LIN":"13鄰","STREET":"永安路","SECT":" ","MAREA":" ","LANE":"７１巷","ALLEY":"８弄","HOUSE_NO":"９號","E_COORD97":170416.92999999999,"N_COORD97":2549430.5600000001,"ADDRESS":"永安路７１巷８弄９號","OBJECTID":10682},"geometry":{"x":170416.9299999997,"y":2549430.5600000005}},{"attributes":{"ID":10683,"DIS_CODE":0,"TOWNNAME":"安南區","LI":"新順里","LIN":"13鄰","STREET":"開安一街","SECT":" ","MAREA":" ","LANE":"８巷","ALLEY":"１５弄","HOUSE_NO":"２２號","E_COORD97":170541.14000000001,"N_COORD97":2549567,"ADDRESS":"開安一街８巷１５弄２２號","OBJECTID":10683},"geometry":{"x":170541.14000000153,"y":2549567}},{"attributes":{"ID":10684,"DIS_CODE":0,"TOWNNAME":"安南區","LI":"新順里","LIN":"13鄰","STREET":"開安一街","SECT":" ","MAREA":" ","LANE":"８巷","ALLEY":"１５弄","HOUSE_NO":"２３號","E_COORD97":170564.59,"N_COORD97":2549577.79,"ADDRESS":"開安一街８巷１５弄２３號","OBJECTID":10684},"geometry":{"x":170564.59000000078,"y":2549577.7899999991}},{"attributes":{"ID":10685,"DIS_CODE":0,"TOWNNAME":"仁德區","LI":"一甲里","LIN":"20鄰","STREET":"太乙六街","SECT":" ","MAREA":" ","LANE":" ","ALLEY":" ","HOUSE_NO":"２號","E_COORD97":173204.97,"N_COORD97":2542521.5,"ADDRESS":"太乙六街２號","OBJECTID":10685},"geometry":{"x":173204.96999999974,"y":2542521.5}},{"attributes":{"ID":10686,"DIS_CODE":0,"TOWNNAME":"將軍區","LI":"長榮里","LIN":"13鄰","STREET":" ","SECT":" ","MAREA":"長榮","LANE":" ","ALLEY":" ","HOUSE_NO":"２１０之１號","E_COORD97":163809.97,"N_COORD97":2566054.2599999998,"ADDRESS":"長榮２１０之１號","OBJECTID":10686},"geometry":{"x":163809.97000000067,"y":2566054.2600000016}},{"attributes":{"ID":10687,"DIS_CODE":0,"TOWNNAME":"將軍區","LI":"長榮里","LIN":"13鄰","STREET":" ","SECT":" ","MAREA":"長榮","LANE":" ","ALLEY":" ","HOUSE_NO":"２１０號","E_COORD97":163810.14000000001,"N_COORD97":2566049.25,"ADDRESS":"長榮２１０號","OBJECTID":10687},"geometry":{"x":163810.1400000006,"y":2566049.25}},{"attributes":{"ID":10688,"DIS_CODE":0,"TOWNNAME":"將軍區","LI":"長榮里","LIN":"13鄰","STREET":" ","SECT":" ","MAREA":"長榮","LANE":" ","ALLEY":" ","HOUSE_NO":"２１２之１號","E_COORD97":163810.20000000001,"N_COORD97":2566062.98,"ADDRESS":"長榮２１２之１號","OBJECTID":10688},"geometry":{"x":163810.20000000112,"y":2566062.9800000023}},{"attributes":{"ID":10689,"DIS_CODE":0,"TOWNNAME":"南區","LI":"再興里","LIN":"13鄰","STREET":"三官路","SECT":" ","MAREA":" ","LANE":"１７６巷","ALLEY":"５弄","HOUSE_NO":"８號","E_COORD97":167195.01000000001,"N_COORD97":2542050.8399999999,"ADDRESS":"三官路１７６巷５弄８號","OBJECTID":10689},"geometry":{"x":167195.01000000071,"y":2542050.8399999999}},{"attributes":{"ID":10690,"DIS_CODE":0,"TOWNNAME":"將軍區","LI":"長榮里","LIN":"13鄰","STREET":" ","SECT":" ","MAREA":"長榮","LANE":" ","ALLEY":" ","HOUSE_NO":"２１２之２號","E_COORD97":163810.14999999999,"N_COORD97":2566067.4700000002,"ADDRESS":"長榮２１２之２號","OBJECTID":10690},"geometry":{"x":163810.14999999944,"y":2566067.4700000025}},{"attributes":{"ID":10691,"DIS_CODE":0,"TOWNNAME":"南區","LI":"再興里","LIN":"13鄰","STREET":"三官路","SECT":" ","MAREA":" ","LANE":"１７６巷","ALLEY":"５弄","HOUSE_NO":"１０號","E_COORD97":167185.26000000001,"N_COORD97":2542051.0499999998,"ADDRESS":"三官路１７６巷５弄１０號","OBJECTID":10691},"geometry":{"x":167185.25999999978,"y":2542051.0500000007}},{"attributes":{"ID":10692,"DIS_CODE":0,"TOWNNAME":"將軍區","LI":"長榮里","LIN":"13鄰","STREET":" ","SECT":" ","MAREA":"長榮","LANE":" ","ALLEY":" ","HOUSE_NO":"２１２號","E_COORD97":163810.20000000001,"N_COORD97":2566059.1699999999,"ADDRESS":"長榮２１２號","OBJECTID":10692},"geometry":{"x":163810.20000000112,"y":2566059.1699999999}},{"attributes":{"ID":10693,"DIS_CODE":0,"TOWNNAME":"將軍區","LI":"長榮里","LIN":"13鄰","STREET":" ","SECT":" ","MAREA":"長榮","LANE":" ","ALLEY":" ","HOUSE_NO":"２１３之１號","E_COORD97":163781.51999999999,"N_COORD97":2566068.1600000001,"ADDRESS":"長榮２１３之１號","OBJECTID":10693},"geometry":{"x":163781.52000000142,"y":2566068.160000002}},{"attributes":{"ID":10694,"DIS_CODE":0,"TOWNNAME":"南區","LI":"再興里","LIN":"13鄰","STREET":"三官路","SECT":" ","MAREA":" ","LANE":"１７６巷","ALLEY":"５弄","HOUSE_NO":"１１號","E_COORD97":167191.13,"N_COORD97":2542034.2599999998,"ADDRESS":"三官路１７６巷５弄１１號","OBJECTID":10694},"geometry":{"x":167191.12999999989,"y":2542034.2599999998}},{"attributes":{"ID":10695,"DIS_CODE":0,"TOWNNAME":"南區","LI":"再興里","LIN":"13鄰","STREET":"三官路","SECT":" ","MAREA":" ","LANE":"１７６巷","ALLEY":"５弄","HOUSE_NO":"１２號之３","E_COORD97":167177.19,"N_COORD97":2542051.5699999998,"ADDRESS":"三官路１７６巷５弄１２號之３","OBJECTID":10695},"geometry":{"x":167177.19000000134,"y":2542051.5700000022}},{"attributes":{"ID":10696,"DIS_CODE":0,"TOWNNAME":"南區","LI":"再興里","LIN":"13鄰","STREET":"三官路","SECT":" ","MAREA":" ","LANE":"１７６巷","ALLEY":"５弄","HOUSE_NO":"１３號","E_COORD97":167187.25,"N_COORD97":2542034.4700000002,"ADDRESS":"三官路１７６巷５弄１３號","OBJECTID":10696},"geometry":{"x":167187.25,"y":2542034.4700000007}},{"attributes":{"ID":10697,"DIS_CODE":0,"TOWNNAME":"南區","LI":"再興里","LIN":"13鄰","STREET":"三官路","SECT":" ","MAREA":" ","LANE":"１７６巷","ALLEY":"５弄","HOUSE_NO":"１４號","E_COORD97":167168.81,"N_COORD97":2542051.8900000001,"ADDRESS":"三官路１７６巷５弄１４號","OBJECTID":10697},"geometry":{"x":167168.81000000052,"y":2542051.8900000006}},{"attributes":{"ID":10698,"DIS_CODE":0,"TOWNNAME":"南區","LI":"再興里","LIN":"13鄰","STREET":"三官路","SECT":" ","MAREA":" ","LANE":"１７６巷","ALLEY":"５弄","HOUSE_NO":"１５號","E_COORD97":167182.85000000001,"N_COORD97":2542034.8900000001,"ADDRESS":"三官路１７６巷５弄１５號","OBJECTID":10698},"geometry":{"x":167182.84999999963,"y":2542034.8900000006}},{"attributes":{"ID":10699,"DIS_CODE":0,"TOWNNAME":"南區","LI":"再興里","LIN":"13鄰","STREET":"三官路","SECT":" ","MAREA":" ","LANE":"１７６巷","ALLEY":"５弄","HOUSE_NO":"１６號","E_COORD97":167160.22,"N_COORD97":2542052.2999999998,"ADDRESS":"三官路１７６巷５弄１６號","OBJECTID":10699},"geometry":{"x":167160.21999999974,"y":2542052.3000000007}},{"attributes":{"ID":10700,"DIS_CODE":0,"TOWNNAME":"南區","LI":"再興里","LIN":"13鄰","STREET":"三官路","SECT":" ","MAREA":" ","LANE":"１７６巷","ALLEY":"５弄","HOUSE_NO":"１７號","E_COORD97":167178.76999999999,"N_COORD97":2542035.2000000002,"ADDRESS":"三官路１７６巷５弄１７號","OBJECTID":10700},"geometry":{"x":167178.77000000048,"y":2542035.1999999974}},{"attributes":{"ID":10701,"DIS_CODE":0,"TOWNNAME":"北區","LI":"振興里","LIN":"13鄰","STREET":"長榮路","SECT":"四段","MAREA":" ","LANE":" ","ALLEY":" ","HOUSE_NO":"１３２號","E_COORD97":170261.04000000001,"N_COORD97":2545170.0299999998,"ADDRESS":"長榮路四段１３２號","OBJECTID":10701},"geometry":{"x":170261.04000000097,"y":2545170.0300000012}},{"attributes":{"ID":10702,"DIS_CODE":0,"TOWNNAME":"南區","LI":"再興里","LIN":"13鄰","STREET":"三官路","SECT":" ","MAREA":" ","LANE":"１７６巷","ALLEY":"５弄","HOUSE_NO":"１９號","E_COORD97":167163.29999999999,"N_COORD97":2542034.79,"ADDRESS":"三官路１７６巷５弄１９號","OBJECTID":10702},"geometry":{"x":167163.29999999981,"y":2542034.7900000028}},{"attributes":{"ID":10703,"DIS_CODE":0,"TOWNNAME":"南區","LI":"府南里","LIN":"13鄰","STREET":"永成路","SECT":"三段","MAREA":" ","LANE":"３７２巷","ALLEY":"５１弄","HOUSE_NO":"１０號","E_COORD97":167642.17999999999,"N_COORD97":2541029.04,"ADDRESS":"永成路三段３７２巷５１弄１０號","OBJECTID":10703},"geometry":{"x":167642.18000000156,"y":2541029.0399999991}},{"attributes":{"ID":10704,"DIS_CODE":0,"TOWNNAME":"南區","LI":"府南里","LIN":"13鄰","STREET":"永成路","SECT":"三段","MAREA":" ","LANE":"３７２巷","ALLEY":"５１弄","HOUSE_NO":"１２號","E_COORD97":167642.28,"N_COORD97":2541033.6499999999,"ADDRESS":"永成路三段３７２巷５１弄１２號","OBJECTID":10704},"geometry":{"x":167642.28000000119,"y":2541033.6500000022}},{"attributes":{"ID":10705,"DIS_CODE":0,"TOWNNAME":"南區","LI":"府南里","LIN":"13鄰","STREET":"永成路","SECT":"三段","MAREA":" ","LANE":"３７２巷","ALLEY":"５１弄","HOUSE_NO":"３１號","E_COORD97":167596.42999999999,"N_COORD97":2541084.9199999999,"ADDRESS":"永成路三段３７２巷５１弄３１號","OBJECTID":10705},"geometry":{"x":167596.43000000156,"y":2541084.9199999999}},{"attributes":{"ID":10706,"DIS_CODE":0,"TOWNNAME":"南區","LI":"府南里","LIN":"13鄰","STREET":"永成路","SECT":"三段","MAREA":" ","LANE":"３７２巷","ALLEY":"５１弄","HOUSE_NO":"３９號","E_COORD97":167615.20000000001,"N_COORD97":2541087.8799999999,"ADDRESS":"永成路三段３７２巷５１弄３９號","OBJECTID":10706},"geometry":{"x":167615.20000000019,"y":2541087.8800000027}},{"attributes":{"ID":10707,"DIS_CODE":0,"TOWNNAME":"南區","LI":"府南里","LIN":"13鄰","STREET":"永成路","SECT":"三段","MAREA":" ","LANE":"３７２巷","ALLEY":"５１弄","HOUSE_NO":"６號","E_COORD97":167643.92999999999,"N_COORD97":2541020.6000000001,"ADDRESS":"永成路三段３７２巷５１弄６號","OBJECTID":10707},"geometry":{"x":167643.93000000156,"y":2541020.6000000015}},{"attributes":{"ID":10708,"DIS_CODE":0,"TOWNNAME":"南區","LI":"府南里","LIN":"13鄰","STREET":"永成路","SECT":"三段","MAREA":" ","LANE":"３７２巷","ALLEY":"５１弄","HOUSE_NO":"８號","E_COORD97":167643.16,"N_COORD97":2541025.1000000001,"ADDRESS":"永成路三段３７２巷５１弄８號","OBJECTID":10708},"geometry":{"x":167643.16000000108,"y":2541025.0999999996}},{"attributes":{"ID":10709,"DIS_CODE":0,"TOWNNAME":"安南區","LI":"城南里","LIN":"13鄰","STREET":"城西街","SECT":"二段","MAREA":" ","LANE":"２９１巷","ALLEY":"１３弄","HOUSE_NO":"１６號","E_COORD97":159645.06,"N_COORD97":2550913.1600000001,"ADDRESS":"城西街二段２９１巷１３弄１６號","OBJECTID":10709},"geometry":{"x":159645.06000000145,"y":2550913.160000002}},{"attributes":{"ID":10710,"DIS_CODE":0,"TOWNNAME":"安南區","LI":"城南里","LIN":"13鄰","STREET":"城西街","SECT":"二段","MAREA":" ","LANE":"２９１巷","ALLEY":"１３弄","HOUSE_NO":"８號","E_COORD97":159631.89000000001,"N_COORD97":2550913.3100000001,"ADDRESS":"城西街二段２９１巷１３弄８號","OBJECTID":10710},"geometry":{"x":159631.88999999966,"y":2550913.3100000024}},{"attributes":{"ID":10711,"DIS_CODE":0,"TOWNNAME":"安南區","LI":"城南里","LIN":"13鄰","STREET":"城西街","SECT":"二段","MAREA":" ","LANE":"２９１巷","ALLEY":"１３弄","HOUSE_NO":"１２號","E_COORD97":159639.82000000001,"N_COORD97":2550914.0299999998,"ADDRESS":"城西街二段２９１巷１３弄１２號","OBJECTID":10711},"geometry":{"x":159639.8200000003,"y":2550914.0300000012}},{"attributes":{"ID":10712,"DIS_CODE":0,"TOWNNAME":"安南區","LI":"城南里","LIN":"13鄰","STREET":"城西街","SECT":"二段","MAREA":" ","LANE":"２９１巷","ALLEY":"１３弄","HOUSE_NO":"１０號","E_COORD97":159636.48999999999,"N_COORD97":2550913.5499999998,"ADDRESS":"城西街二段２９１巷１３弄１０號","OBJECTID":10712},"geometry":{"x":159636.49000000115,"y":2550913.5500000007}},{"attributes":{"ID":10713,"DIS_CODE":0,"TOWNNAME":"仁德區","LI":"成功里","LIN":"13鄰","STREET":"全福路","SECT":" ","MAREA":" ","LANE":"３巷","ALLEY":"９弄","HOUSE_NO":"５號","E_COORD97":170791.5,"N_COORD97":2539372.5,"ADDRESS":"全福路３巷９弄５號","OBJECTID":10713},"geometry":{"x":170791.5,"y":2539372.4999999981}},{"attributes":{"ID":10714,"DIS_CODE":0,"TOWNNAME":"仁德區","LI":"上崙里","LIN":"13鄰","STREET":"德崙路","SECT":" ","MAREA":" ","LANE":"４５０巷","ALLEY":"３０弄","HOUSE_NO":"１號","E_COORD97":174185.48999999999,"N_COORD97":2537942.52,"ADDRESS":"德崙路４５０巷３０弄１號","OBJECTID":10714},"geometry":{"x":174185.49000000022,"y":2537942.5200000014}},{"attributes":{"ID":10715,"DIS_CODE":0,"TOWNNAME":"佳里區","LI":"建南里","LIN":"13鄰","STREET":"新生路","SECT":" ","MAREA":" ","LANE":"４４１巷","ALLEY":"１４３弄","HOUSE_NO":"１０號","E_COORD97":165257.34,"N_COORD97":2561828.0299999998,"ADDRESS":"新生路４４１巷１４３弄１０號","OBJECTID":10715},"geometry":{"x":165257.33999999985,"y":2561828.0299999993}},{"attributes":{"ID":10716,"DIS_CODE":0,"TOWNNAME":"佳里區","LI":"建南里","LIN":"13鄰","STREET":"新生路","SECT":" ","MAREA":" ","LANE":"４４１巷","ALLEY":"１４３弄","HOUSE_NO":"１２號","E_COORD97":165257.54000000001,"N_COORD97":2561832.4500000002,"ADDRESS":"新生路４４１巷１４３弄１２號","OBJECTID":10716},"geometry":{"x":165257.54000000004,"y":2561832.4499999993}},{"attributes":{"ID":10717,"DIS_CODE":0,"TOWNNAME":"佳里區","LI":"建南里","LIN":"13鄰","STREET":"新生路","SECT":" ","MAREA":" ","LANE":"４４１巷","ALLEY":"１４３弄","HOUSE_NO":"１４號","E_COORD97":165257.82999999999,"N_COORD97":2561836.7599999998,"ADDRESS":"新生路４４１巷１４３弄１４號","OBJECTID":10717},"geometry":{"x":165257.83000000007,"y":2561836.7600000016}},{"attributes":{"ID":10718,"DIS_CODE":0,"TOWNNAME":"佳里區","LI":"建南里","LIN":"13鄰","STREET":"新生路","SECT":" ","MAREA":" ","LANE":"４４１巷","ALLEY":"１４３弄","HOUSE_NO":"１號","E_COORD97":165243.91,"N_COORD97":2561815.5299999998,"ADDRESS":"新生路４４１巷１４３弄１號","OBJECTID":10718},"geometry":{"x":165243.91000000015,"y":2561815.5299999993}},{"attributes":{"ID":10719,"DIS_CODE":0,"TOWNNAME":"佳里區","LI":"建南里","LIN":"13鄰","STREET":"新生路","SECT":" ","MAREA":" ","LANE":"４４１巷","ALLEY":"１４３弄","HOUSE_NO":"２號","E_COORD97":165256.82000000001,"N_COORD97":2561810.5600000001,"ADDRESS":"新生路４４１巷１４３弄２號","OBJECTID":10719},"geometry":{"x":165256.82000000216,"y":2561810.5600000042}},{"attributes":{"ID":10720,"DIS_CODE":0,"TOWNNAME":"鹽水區","LI":"南港里","LIN":"7鄰","STREET":" ","SECT":" ","MAREA":"?頭港","LANE":" ","ALLEY":" ","HOUSE_NO":"１６６之２號","E_COORD97":173055.95999999999,"N_COORD97":2572593.98,"ADDRESS":"?頭港１６６之２號","OBJECTID":10720},"geometry":{"x":173055.95999999996,"y":2572593.9800000004}},{"attributes":{"ID":10721,"DIS_CODE":0,"TOWNNAME":"鹽水區","LI":"南港里","LIN":"7鄰","STREET":" ","SECT":" ","MAREA":"?頭港","LANE":" ","ALLEY":" ","HOUSE_NO":"１６６之３號","E_COORD97":173071.91,"N_COORD97":2572627.6600000001,"ADDRESS":"?頭港１６６之３號","OBJECTID":10721},"geometry":{"x":173071.91000000015,"y":2572627.6600000001}},{"attributes":{"ID":10722,"DIS_CODE":0,"TOWNNAME":"鹽水區","LI":"南港里","LIN":"7鄰","STREET":" ","SECT":" ","MAREA":"?頭港","LANE":" ","ALLEY":" ","HOUSE_NO":"１６６號之３","E_COORD97":173071.91,"N_COORD97":2572627.6600000001,"ADDRESS":"?頭港１６６號之３","OBJECTID":10722},"geometry":{"x":173071.91000000015,"y":2572627.6600000001}},{"attributes":{"ID":10723,"DIS_CODE":0,"TOWNNAME":"鹽水區","LI":"南港里","LIN":"7鄰","STREET":" ","SECT":" ","MAREA":"?頭港","LANE":" ","ALLEY":" ","HOUSE_NO":"１６６號之４","E_COORD97":173076.62,"N_COORD97":2572628.6200000001,"ADDRESS":"?頭港１６６號之４","OBJECTID":10723},"geometry":{"x":173076.62000000104,"y":2572628.620000001}},{"attributes":{"ID":10724,"DIS_CODE":0,"TOWNNAME":"鹽水區","LI":"南港里","LIN":"7鄰","STREET":" ","SECT":" ","MAREA":"?頭港","LANE":" ","ALLEY":" ","HOUSE_NO":"１６６號之５","E_COORD97":173077.09,"N_COORD97":2572608.2999999998,"ADDRESS":"?頭港１６６號之５","OBJECTID":10724},"geometry":{"x":173077.08999999985,"y":2572608.3000000026}},{"attributes":{"ID":10725,"DIS_CODE":0,"TOWNNAME":"鹽水區","LI":"南港里","LIN":"7鄰","STREET":" ","SECT":" ","MAREA":"?頭港","LANE":" ","ALLEY":" ","HOUSE_NO":"１６６號","E_COORD97":173045.39999999999,"N_COORD97":2572609.8900000001,"ADDRESS":"?頭港１６６號","OBJECTID":10725},"geometry":{"x":173045.40000000037,"y":2572609.8900000043}},{"attributes":{"ID":10726,"DIS_CODE":0,"TOWNNAME":"鹽水區","LI":"南港里","LIN":"7鄰","STREET":" ","SECT":" ","MAREA":"?頭港","LANE":" ","ALLEY":" ","HOUSE_NO":"１８７之１號","E_COORD97":173044.89000000001,"N_COORD97":2572693.21,"ADDRESS":"?頭港１８７之１號","OBJECTID":10726},"geometry":{"x":173044.88999999873,"y":2572693.2100000028}},{"attributes":{"ID":10727,"DIS_CODE":0,"TOWNNAME":"鹽水區","LI":"南港里","LIN":"7鄰","STREET":" ","SECT":" ","MAREA":"?頭港","LANE":" ","ALLEY":" ","HOUSE_NO":"１８７號","E_COORD97":173035.10000000001,"N_COORD97":2572687.02,"ADDRESS":"?頭港１８７號","OBJECTID":10727},"geometry":{"x":173035.10000000149,"y":2572687.0200000014}},{"attributes":{"ID":10728,"DIS_CODE":0,"TOWNNAME":"鹽水區","LI":"南港里","LIN":"7鄰","STREET":" ","SECT":" ","MAREA":"?頭港","LANE":" ","ALLEY":" ","HOUSE_NO":"１８８號","E_COORD97":173054.48000000001,"N_COORD97":2572688.1899999999,"ADDRESS":"?頭港１８８號","OBJECTID":10728},"geometry":{"x":173054.48000000138,"y":2572688.1900000032}},{"attributes":{"ID":10729,"DIS_CODE":0,"TOWNNAME":"鹽水區","LI":"南港里","LIN":"7鄰","STREET":" ","SECT":" ","MAREA":"?頭港","LANE":" ","ALLEY":" ","HOUSE_NO":"１８９之１０號","E_COORD97":173123.06,"N_COORD97":2572706.4900000002,"ADDRESS":"?頭港１８９之１０號","OBJECTID":10729},"geometry":{"x":173123.05999999959,"y":2572706.4900000002}},{"attributes":{"ID":10730,"DIS_CODE":0,"TOWNNAME":"鹽水區","LI":"南港里","LIN":"7鄰","STREET":" ","SECT":" ","MAREA":"?頭港","LANE":" ","ALLEY":" ","HOUSE_NO":"１８９號之１","E_COORD97":173079.57999999999,"N_COORD97":2572700.0899999999,"ADDRESS":"?頭港１８９號之１","OBJECTID":10730},"geometry":{"x":173079.58000000007,"y":2572700.0900000017}},{"attributes":{"ID":10731,"DIS_CODE":0,"TOWNNAME":"鹽水區","LI":"南港里","LIN":"7鄰","STREET":" ","SECT":" ","MAREA":"?頭港","LANE":" ","ALLEY":" ","HOUSE_NO":"１８９號之２","E_COORD97":173088.10999999999,"N_COORD97":2572697.8399999999,"ADDRESS":"?頭港１８９號之２","OBJECTID":10731},"geometry":{"x":173088.11000000034,"y":2572697.8400000036}},{"attributes":{"ID":10732,"DIS_CODE":0,"TOWNNAME":"鹽水區","LI":"南港里","LIN":"7鄰","STREET":" ","SECT":" ","MAREA":"?頭港","LANE":" ","ALLEY":" ","HOUSE_NO":"１８９之３號","E_COORD97":173092.63,"N_COORD97":2572699.0899999999,"ADDRESS":"?頭港１８９之３號","OBJECTID":10732},"geometry":{"x":173092.62999999896,"y":2572699.089999998}},{"attributes":{"ID":10733,"DIS_CODE":0,"TOWNNAME":"鹽水區","LI":"南港里","LIN":"7鄰","STREET":" ","SECT":" ","MAREA":"?頭港","LANE":" ","ALLEY":" ","HOUSE_NO":"１８９之４號","E_COORD97":173096.79999999999,"N_COORD97":2572700.3100000001,"ADDRESS":"?頭港１８９之４號","OBJECTID":10733},"geometry":{"x":173096.80000000075,"y":2572700.3100000005}},{"attributes":{"ID":10734,"DIS_CODE":0,"TOWNNAME":"鹽水區","LI":"南港里","LIN":"7鄰","STREET":" ","SECT":" ","MAREA":"?頭港","LANE":" ","ALLEY":" ","HOUSE_NO":"１８９之５號","E_COORD97":173100.98999999999,"N_COORD97":2572700.9199999999,"ADDRESS":"?頭港１８９之５號","OBJECTID":10734},"geometry":{"x":173100.99000000115,"y":2572700.9200000018}},{"attributes":{"ID":10735,"DIS_CODE":0,"TOWNNAME":"佳里區","LI":"建南里","LIN":"13鄰","STREET":"新生路","SECT":" ","MAREA":" ","LANE":"４４１巷","ALLEY":"１４３弄","HOUSE_NO":"３號","E_COORD97":165244,"N_COORD97":2561819.9700000002,"ADDRESS":"新生路４４１巷１４３弄３號","OBJECTID":10735},"geometry":{"x":165244.00000000093,"y":2561819.9700000007}},{"attributes":{"ID":10736,"DIS_CODE":0,"TOWNNAME":"佳里區","LI":"建南里","LIN":"13鄰","STREET":"新生路","SECT":" ","MAREA":" ","LANE":"４４１巷","ALLEY":"１４３弄","HOUSE_NO":"４號","E_COORD97":165257.16,"N_COORD97":2561815.0600000001,"ADDRESS":"新生路４４１巷１４３弄４號","OBJECTID":10736},"geometry":{"x":165257.16000000015,"y":2561815.0600000024}},{"attributes":{"ID":10737,"DIS_CODE":0,"TOWNNAME":"佳里區","LI":"建南里","LIN":"13鄰","STREET":"新生路","SECT":" ","MAREA":" ","LANE":"４４１巷","ALLEY":"１４３弄","HOUSE_NO":"５號","E_COORD97":165244.20000000001,"N_COORD97":2561824.5299999998,"ADDRESS":"新生路４４１巷１４３弄５號","OBJECTID":10737},"geometry":{"x":165244.20000000112,"y":2561824.5299999993}},{"attributes":{"ID":10738,"DIS_CODE":0,"TOWNNAME":"佳里區","LI":"建南里","LIN":"13鄰","STREET":"新生路","SECT":" ","MAREA":" ","LANE":"４４１巷","ALLEY":"１４３弄","HOUSE_NO":"６號","E_COORD97":165257.19,"N_COORD97":2561819.4700000002,"ADDRESS":"新生路４４１巷１４３弄６號","OBJECTID":10738},"geometry":{"x":165257.19000000041,"y":2561819.4700000025}},{"attributes":{"ID":10739,"DIS_CODE":0,"TOWNNAME":"佳里區","LI":"建南里","LIN":"13鄰","STREET":"新生路","SECT":" ","MAREA":" ","LANE":"４４１巷","ALLEY":"１４３弄","HOUSE_NO":"７號","E_COORD97":165244.23000000001,"N_COORD97":2561828.71,"ADDRESS":"新生路４４１巷１４３弄７號","OBJECTID":10739},"geometry":{"x":165244.23000000138,"y":2561828.7100000009}},{"attributes":{"ID":10740,"DIS_CODE":0,"TOWNNAME":"佳里區","LI":"建南里","LIN":"13鄰","STREET":"新生路","SECT":" ","MAREA":" ","LANE":"４４１巷","ALLEY":"１４３弄","HOUSE_NO":"８號","E_COORD97":165257.22,"N_COORD97":2561823.8999999999,"ADDRESS":"新生路４４１巷１４３弄８號","OBJECTID":10740},"geometry":{"x":165257.22000000067,"y":2561823.9000000004}},{"attributes":{"ID":10741,"DIS_CODE":0,"TOWNNAME":"佳里區","LI":"建南里","LIN":"13鄰","STREET":"新生路","SECT":" ","MAREA":" ","LANE":"４４１巷","ALLEY":"１４３弄","HOUSE_NO":"９號","E_COORD97":165244.60000000001,"N_COORD97":2561833.1299999999,"ADDRESS":"新生路４４１巷１４３弄９號","OBJECTID":10741},"geometry":{"x":165244.60000000056,"y":2561833.1300000008}},{"attributes":{"ID":10742,"DIS_CODE":0,"TOWNNAME":"佳里區","LI":"建南里","LIN":"13鄰","STREET":"新生路","SECT":" ","MAREA":" ","LANE":"４４１巷","ALLEY":"５８弄","HOUSE_NO":"１０號","E_COORD97":165186.69,"N_COORD97":2562021.8900000001,"ADDRESS":"新生路４４１巷５８弄１０號","OBJECTID":10742},"geometry":{"x":165186.69000000134,"y":2562021.8900000043}},{"attributes":{"ID":10743,"DIS_CODE":0,"TOWNNAME":"佳里區","LI":"建南里","LIN":"13鄰","STREET":"新生路","SECT":" ","MAREA":" ","LANE":"４４１巷","ALLEY":"５８弄","HOUSE_NO":"１１號","E_COORD97":165192.04000000001,"N_COORD97":2562002.8199999998,"ADDRESS":"新生路４４１巷５８弄１１號","OBJECTID":10743},"geometry":{"x":165192.04000000004,"y":2562002.8200000022}},{"attributes":{"ID":10744,"DIS_CODE":0,"TOWNNAME":"佳里區","LI":"建南里","LIN":"13鄰","STREET":"新生路","SECT":" ","MAREA":" ","LANE":"４４１巷","ALLEY":"５８弄","HOUSE_NO":"１２號","E_COORD97":165182.76999999999,"N_COORD97":2562021.71,"ADDRESS":"新生路４４１巷５８弄１２號","OBJECTID":10744},"geometry":{"x":165182.76999999955,"y":2562021.7100000009}},{"attributes":{"ID":10745,"DIS_CODE":0,"TOWNNAME":"佳里區","LI":"建南里","LIN":"13鄰","STREET":"新生路","SECT":" ","MAREA":" ","LANE":"４４１巷","ALLEY":"５８弄","HOUSE_NO":"１３號","E_COORD97":165187.81,"N_COORD97":2562002.2999999998,"ADDRESS":"新生路４４１巷５８弄１３號","OBJECTID":10745},"geometry":{"x":165187.80999999959,"y":2562002.3000000045}},{"attributes":{"ID":10746,"DIS_CODE":0,"TOWNNAME":"佳里區","LI":"建南里","LIN":"13鄰","STREET":"新生路","SECT":" ","MAREA":" ","LANE":"４４１巷","ALLEY":"５８弄","HOUSE_NO":"１５號","E_COORD97":165183.92999999999,"N_COORD97":2562002.02,"ADDRESS":"新生路４４１巷５８弄１５號","OBJECTID":10746},"geometry":{"x":165183.9299999997,"y":2562002.0199999996}},{"attributes":{"ID":10747,"DIS_CODE":0,"TOWNNAME":"佳里區","LI":"建南里","LIN":"13鄰","STREET":"新生路","SECT":" ","MAREA":" ","LANE":"４４１巷","ALLEY":"５８弄","HOUSE_NO":"１６號","E_COORD97":165167.47,"N_COORD97":2562049.5299999998,"ADDRESS":"新生路４４１巷５８弄１６號","OBJECTID":10747},"geometry":{"x":165167.47000000067,"y":2562049.5299999993}},{"attributes":{"ID":10748,"DIS_CODE":0,"TOWNNAME":"佳里區","LI":"建南里","LIN":"13鄰","STREET":"新生路","SECT":" ","MAREA":" ","LANE":"４４１巷","ALLEY":"５８弄","HOUSE_NO":"１７號","E_COORD97":165179.37,"N_COORD97":2562001.1400000001,"ADDRESS":"新生路４４１巷５８弄１７號","OBJECTID":10748},"geometry":{"x":165179.37000000011,"y":2562001.1400000025}},{"attributes":{"ID":10749,"DIS_CODE":0,"TOWNNAME":"佳里區","LI":"建南里","LIN":"13鄰","STREET":"新生路","SECT":" ","MAREA":" ","LANE":"４４１巷","ALLEY":"５８弄","HOUSE_NO":"１９號","E_COORD97":165175.48000000001,"N_COORD97":2562000.73,"ADDRESS":"新生路４４１巷５８弄１９號","OBJECTID":10749},"geometry":{"x":165175.48000000045,"y":2562000.7300000004}},{"attributes":{"ID":10750,"DIS_CODE":0,"TOWNNAME":"佳里區","LI":"建南里","LIN":"13鄰","STREET":"新生路","SECT":" ","MAREA":" ","LANE":"４４１巷","ALLEY":"５８弄","HOUSE_NO":"１號","E_COORD97":165213.79000000001,"N_COORD97":2562004.9500000002,"ADDRESS":"新生路４４１巷５８弄１號","OBJECTID":10750},"geometry":{"x":165213.79000000004,"y":2562004.9499999993}},{"attributes":{"ID":10751,"DIS_CODE":0,"TOWNNAME":"佳里區","LI":"建南里","LIN":"13鄰","STREET":"新生路","SECT":" ","MAREA":" ","LANE":"４４１巷","ALLEY":"５８弄","HOUSE_NO":"２１號","E_COORD97":165170.69,"N_COORD97":2562000.1099999999,"ADDRESS":"新生路４４１巷５８弄２１號","OBJECTID":10751},"geometry":{"x":165170.69000000041,"y":2562000.1100000013}},{"attributes":{"ID":10752,"DIS_CODE":0,"TOWNNAME":"佳里區","LI":"建南里","LIN":"13鄰","STREET":"新生路","SECT":" ","MAREA":" ","LANE":"４４１巷","ALLEY":"５８弄","HOUSE_NO":"２３號","E_COORD97":165166.39000000001,"N_COORD97":2562000.3199999998,"ADDRESS":"新生路４４１巷５８弄２３號","OBJECTID":10752},"geometry":{"x":165166.3900000006,"y":2562000.3200000003}},{"attributes":{"ID":10753,"DIS_CODE":0,"TOWNNAME":"佳里區","LI":"建南里","LIN":"13鄰","STREET":"新生路","SECT":" ","MAREA":" ","LANE":"４４１巷","ALLEY":"５８弄","HOUSE_NO":"２５號","E_COORD97":165162.14999999999,"N_COORD97":2561999.6800000002,"ADDRESS":"新生路４４１巷５８弄２５號","OBJECTID":10753},"geometry":{"x":165162.1500000013,"y":2561999.6800000016}},{"attributes":{"ID":10754,"DIS_CODE":0,"TOWNNAME":"鹽水區","LI":"南港里","LIN":"7鄰","STREET":" ","SECT":" ","MAREA":"?頭港","LANE":" ","ALLEY":" ","HOUSE_NO":"１８９號之６","E_COORD97":173105.62,"N_COORD97":2572702.2599999998,"ADDRESS":"?頭港１８９號之６","OBJECTID":10754},"geometry":{"x":173105.62000000104,"y":2572702.2600000016}},{"attributes":{"ID":10755,"DIS_CODE":0,"TOWNNAME":"佳里區","LI":"建南里","LIN":"13鄰","STREET":"新生路","SECT":" ","MAREA":" ","LANE":"４４１巷","ALLEY":"５８弄","HOUSE_NO":"２號之１","E_COORD97":165210.20000000001,"N_COORD97":2562024.9500000002,"ADDRESS":"新生路４４１巷５８弄２號之１","OBJECTID":10755},"geometry":{"x":165210.20000000112,"y":2562024.9500000011}},{"attributes":{"ID":10756,"DIS_CODE":0,"TOWNNAME":"佳里區","LI":"建南里","LIN":"13鄰","STREET":"新生路","SECT":" ","MAREA":" ","LANE":"４４１巷","ALLEY":"５８弄","HOUSE_NO":"２號","E_COORD97":165203.04000000001,"N_COORD97":2562024.1600000001,"ADDRESS":"新生路４４１巷５８弄２號","OBJECTID":10756},"geometry":{"x":165203.04000000097,"y":2562024.160000002}},{"attributes":{"ID":10757,"DIS_CODE":0,"TOWNNAME":"佳里區","LI":"建南里","LIN":"13鄰","STREET":"新生路","SECT":" ","MAREA":" ","LANE":"４４１巷","ALLEY":"５８弄","HOUSE_NO":"３號","E_COORD97":165209.39999999999,"N_COORD97":2562004.9900000002,"ADDRESS":"新生路４４１巷５８弄３號","OBJECTID":10757},"geometry":{"x":165209.4000000013,"y":2562004.9900000021}},{"attributes":{"ID":10758,"DIS_CODE":0,"TOWNNAME":"佳里區","LI":"建南里","LIN":"13鄰","STREET":"新生路","SECT":" ","MAREA":" ","LANE":"４４１巷","ALLEY":"５８弄","HOUSE_NO":"４號","E_COORD97":165198.64000000001,"N_COORD97":2562023.5099999998,"ADDRESS":"新生路４４１巷５８弄４號","OBJECTID":10758},"geometry":{"x":165198.6400000006,"y":2562023.5100000035}},{"attributes":{"ID":10759,"DIS_CODE":0,"TOWNNAME":"佳里區","LI":"建南里","LIN":"13鄰","STREET":"新生路","SECT":" ","MAREA":" ","LANE":"４４１巷","ALLEY":"５８弄","HOUSE_NO":"５號","E_COORD97":165204.60000000001,"N_COORD97":2562004.23,"ADDRESS":"新生路４４１巷５８弄５號","OBJECTID":10759},"geometry":{"x":165204.59999999963,"y":2562004.2300000004}},{"attributes":{"ID":10760,"DIS_CODE":0,"TOWNNAME":"佳里區","LI":"建南里","LIN":"13鄰","STREET":"新生路","SECT":" ","MAREA":" ","LANE":"４４１巷","ALLEY":"５８弄","HOUSE_NO":"６號","E_COORD97":165194.84,"N_COORD97":2562022.7599999998,"ADDRESS":"新生路４４１巷５８弄６號","OBJECTID":10760},"geometry":{"x":165194.83999999985,"y":2562022.7600000016}},{"attributes":{"ID":10761,"DIS_CODE":0,"TOWNNAME":"佳里區","LI":"建南里","LIN":"13鄰","STREET":"新生路","SECT":" ","MAREA":" ","LANE":"４４１巷","ALLEY":"５８弄","HOUSE_NO":"７號","E_COORD97":165200.67000000001,"N_COORD97":2562003.7400000002,"ADDRESS":"新生路４４１巷５８弄７號","OBJECTID":10761},"geometry":{"x":165200.66999999993,"y":2562003.7400000002}},{"attributes":{"ID":10762,"DIS_CODE":0,"TOWNNAME":"鹽水區","LI":"南港里","LIN":"7鄰","STREET":" ","SECT":" ","MAREA":"?頭港","LANE":" ","ALLEY":" ","HOUSE_NO":"１８９之７號","E_COORD97":173110.23999999999,"N_COORD97":2572703.4399999999,"ADDRESS":"?頭港１８９之７號","OBJECTID":10762},"geometry":{"x":173110.24000000022,"y":2572703.4400000032}},{"attributes":{"ID":10763,"DIS_CODE":0,"TOWNNAME":"鹽水區","LI":"南港里","LIN":"7鄰","STREET":" ","SECT":" ","MAREA":"?頭港","LANE":" ","ALLEY":" ","HOUSE_NO":"１８９之８號","E_COORD97":173113.59,"N_COORD97":2572704.0499999998,"ADDRESS":"?頭港１８９之８號","OBJECTID":10763},"geometry":{"x":173113.59000000078,"y":2572704.0500000045}},{"attributes":{"ID":10764,"DIS_CODE":0,"TOWNNAME":"新營區","LI":"太南里","LIN":"13鄰","STREET":" ","SECT":" ","MAREA":"太子宮","LANE":" ","ALLEY":" ","HOUSE_NO":"２８２號","E_COORD97":176152.79000000001,"N_COORD97":2576651.1400000001,"ADDRESS":"太子宮２８２號","OBJECTID":10764},"geometry":{"x":176152.79000000004,"y":2576651.1400000025}},{"attributes":{"ID":10765,"DIS_CODE":0,"TOWNNAME":"柳營區","LI":"太康里","LIN":"13鄰","STREET":" ","SECT":" ","MAREA":"太康","LANE":" ","ALLEY":" ","HOUSE_NO":"１２６號","E_COORD97":181759.85000000001,"N_COORD97":2576487.3399999999,"ADDRESS":"太康１２６號","OBJECTID":10765},"geometry":{"x":181759.84999999963,"y":2576487.3399999999}},{"attributes":{"ID":10766,"DIS_CODE":0,"TOWNNAME":"鹽水區","LI":"南港里","LIN":"7鄰","STREET":" ","SECT":" ","MAREA":"?頭港","LANE":" ","ALLEY":" ","HOUSE_NO":"１８９之９號","E_COORD97":173117.92000000001,"N_COORD97":2572705.1600000001,"ADDRESS":"?頭港１８９之９號","OBJECTID":10766},"geometry":{"x":173117.92000000179,"y":2572705.1600000001}},{"attributes":{"ID":10767,"DIS_CODE":0,"TOWNNAME":"鹽水區","LI":"南港里","LIN":"7鄰","STREET":" ","SECT":" ","MAREA":"?頭港","LANE":" ","ALLEY":" ","HOUSE_NO":"１８９號","E_COORD97":173075.54000000001,"N_COORD97":2572698.4100000001,"ADDRESS":"?頭港１８９號","OBJECTID":10767},"geometry":{"x":173075.54000000097,"y":2572698.410000002}},{"attributes":{"ID":10768,"DIS_CODE":0,"TOWNNAME":"鹽水區","LI":"南港里","LIN":"7鄰","STREET":" ","SECT":" ","MAREA":"?頭港","LANE":" ","ALLEY":" ","HOUSE_NO":"１９２號","E_COORD97":173043.07000000001,"N_COORD97":2572658.23,"ADDRESS":"?頭港１９２號","OBJECTID":10768},"geometry":{"x":173043.07000000123,"y":2572658.2300000042}},{"attributes":{"ID":10769,"DIS_CODE":0,"TOWNNAME":"鹽水區","LI":"南港里","LIN":"7鄰","STREET":" ","SECT":" ","MAREA":"?頭港","LANE":" ","ALLEY":" ","HOUSE_NO":"１９３號","E_COORD97":173113.70000000001,"N_COORD97":2572638.2400000002,"ADDRESS":"?頭港１９３號","OBJECTID":10769},"geometry":{"x":173113.70000000112,"y":2572638.2400000021}},{"attributes":{"ID":10770,"DIS_CODE":0,"TOWNNAME":"鹽水區","LI":"河南里","LIN":"7鄰","STREET":" ","SECT":" ","MAREA":"?頭港","LANE":" ","ALLEY":" ","HOUSE_NO":"５９號","E_COORD97":172884.23000000001,"N_COORD97":2572685.6600000001,"ADDRESS":"?頭港５９號","OBJECTID":10770},"geometry":{"x":172884.23000000231,"y":2572685.6600000039}},{"attributes":{"ID":10771,"DIS_CODE":0,"TOWNNAME":"鹽水區","LI":"河南里","LIN":"7鄰","STREET":" ","SECT":" ","MAREA":"?頭港","LANE":" ","ALLEY":" ","HOUSE_NO":"６０號","E_COORD97":172862.03,"N_COORD97":2572685.0800000001,"ADDRESS":"?頭港６０號","OBJECTID":10771},"geometry":{"x":172862.03000000119,"y":2572685.0800000001}},{"attributes":{"ID":10772,"DIS_CODE":0,"TOWNNAME":"鹽水區","LI":"河南里","LIN":"7鄰","STREET":" ","SECT":" ","MAREA":"?頭港","LANE":" ","ALLEY":" ","HOUSE_NO":"６１號","E_COORD97":172859.70999999999,"N_COORD97":2572665.8100000001,"ADDRESS":"?頭港６１號","OBJECTID":10772},"geometry":{"x":172859.70999999996,"y":2572665.8100000024}},{"attributes":{"ID":10773,"DIS_CODE":0,"TOWNNAME":"佳里區","LI":"建南里","LIN":"13鄰","STREET":"新生路","SECT":" ","MAREA":" ","LANE":"４４１巷","ALLEY":"５８弄","HOUSE_NO":"８號","E_COORD97":165190.64000000001,"N_COORD97":2562022.6099999999,"ADDRESS":"新生路４４１巷５８弄８號","OBJECTID":10773},"geometry":{"x":165190.63999999966,"y":2562022.6100000031}},{"attributes":{"ID":10774,"DIS_CODE":0,"TOWNNAME":"佳里區","LI":"建南里","LIN":"13鄰","STREET":"新生路","SECT":" ","MAREA":" ","LANE":"４４１巷","ALLEY":"５８弄","HOUSE_NO":"９號","E_COORD97":165196.51000000001,"N_COORD97":2562003.3900000001,"ADDRESS":"新生路４４１巷５８弄９號","OBJECTID":10774},"geometry":{"x":165196.50999999978,"y":2562003.3900000006}},{"attributes":{"ID":10775,"DIS_CODE":0,"TOWNNAME":"永康區","LI":"安康里","LIN":"13鄰","STREET":"中華路","SECT":" ","MAREA":" ","LANE":"６１９巷","ALLEY":"８８弄","HOUSE_NO":"５號","E_COORD97":170848.01000000001,"N_COORD97":2546027.25,"ADDRESS":"中華路６１９巷８８弄５號","OBJECTID":10775},"geometry":{"x":170848.01000000071,"y":2546027.2500000019}},{"attributes":{"ID":10776,"DIS_CODE":0,"TOWNNAME":"永康區","LI":"永康里","LIN":"13鄰","STREET":"永康街","SECT":" ","MAREA":" ","LANE":"１３６巷","ALLEY":"１３弄","HOUSE_NO":"３３號","E_COORD97":173986.98999999999,"N_COORD97":2547005.1299999999,"ADDRESS":"永康街１３６巷１３弄３３號","OBJECTID":10776},"geometry":{"x":173986.99000000022,"y":2547005.129999999}},{"attributes":{"ID":10777,"DIS_CODE":0,"TOWNNAME":"永康區","LI":"正強里","LIN":"13鄰","STREET":"正強街","SECT":" ","MAREA":" ","LANE":"１１１巷","ALLEY":"１６弄","HOUSE_NO":"１９號","E_COORD97":173259.14999999999,"N_COORD97":2547450.3799999999,"ADDRESS":"正強街１１１巷１６弄１９號","OBJECTID":10777},"geometry":{"x":173259.14999999944,"y":2547450.379999999}},{"attributes":{"ID":10778,"DIS_CODE":0,"TOWNNAME":"永康區","LI":"永康里","LIN":"13鄰","STREET":"永康街","SECT":" ","MAREA":" ","LANE":"１３６巷","ALLEY":"１３弄","HOUSE_NO":"２５號","E_COORD97":173972.23000000001,"N_COORD97":2547013.23,"ADDRESS":"永康街１３６巷１３弄２５號","OBJECTID":10778},"geometry":{"x":173972.23000000045,"y":2547013.2299999986}},{"attributes":{"ID":10779,"DIS_CODE":0,"TOWNNAME":"永康區","LI":"大橋里","LIN":"13鄰","STREET":"大橋二街","SECT":" ","MAREA":" ","LANE":"２３９巷","ALLEY":"２２弄","HOUSE_NO":"７號","E_COORD97":171097.81,"N_COORD97":2546868.9399999999,"ADDRESS":"大橋二街２３９巷２２弄７號","OBJECTID":10779},"geometry":{"x":171097.81000000145,"y":2546868.9400000013}},{"attributes":{"ID":10780,"DIS_CODE":0,"TOWNNAME":"永康區","LI":"尚頂里","LIN":"13鄰","STREET":"正南一街","SECT":" ","MAREA":" ","LANE":"１０７巷","ALLEY":"１３弄","HOUSE_NO":"１７號","E_COORD97":170983.73000000001,"N_COORD97":2547116.7400000002,"ADDRESS":"正南一街１０７巷１３弄１７號","OBJECTID":10780},"geometry":{"x":170983.72999999952,"y":2547116.7400000002}},{"attributes":{"ID":10781,"DIS_CODE":0,"TOWNNAME":"永康區","LI":"五王里","LIN":"13鄰","STREET":"中華二路","SECT":" ","MAREA":" ","LANE":"２０６巷","ALLEY":"６８弄","HOUSE_NO":"１３１號","E_COORD97":171676.72,"N_COORD97":2545700.25,"ADDRESS":"中華二路２０６巷６８弄１３１號","OBJECTID":10781},"geometry":{"x":171676.72000000067,"y":2545700.25}},{"attributes":{"ID":10782,"DIS_CODE":0,"TOWNNAME":"鹽水區","LI":"河南里","LIN":"7鄰","STREET":" ","SECT":" ","MAREA":"?頭港","LANE":" ","ALLEY":" ","HOUSE_NO":"６２號","E_COORD97":172842.97,"N_COORD97":2572688.3599999999,"ADDRESS":"?頭港６２號","OBJECTID":10782},"geometry":{"x":172842.97000000067,"y":2572688.3600000013}},{"attributes":{"ID":10783,"DIS_CODE":0,"TOWNNAME":"永康區","LI":"西橋里","LIN":"13鄰","STREET":"大橋三街","SECT":" ","MAREA":" ","LANE":"１０巷","ALLEY":"６弄","HOUSE_NO":"５號","E_COORD97":170509.14999999999,"N_COORD97":2546323,"ADDRESS":"大橋三街１０巷６弄５號","OBJECTID":10783},"geometry":{"x":170509.15000000037,"y":2546323.0000000037}},{"attributes":{"ID":10784,"DIS_CODE":0,"TOWNNAME":"鹽水區","LI":"河南里","LIN":"7鄰","STREET":" ","SECT":" ","MAREA":"?頭港","LANE":" ","ALLEY":" ","HOUSE_NO":"６４號之１","E_COORD97":172811.98000000001,"N_COORD97":2572667.8599999999,"ADDRESS":"?頭港６４號之１","OBJECTID":10784},"geometry":{"x":172811.98000000138,"y":2572667.8600000013}},{"attributes":{"ID":10785,"DIS_CODE":0,"TOWNNAME":"永康區","LI":"東橋里","LIN":"13鄰","STREET":"中山南路","SECT":" ","MAREA":" ","LANE":"２３１巷","ALLEY":"２０弄","HOUSE_NO":"１號","E_COORD97":171624.64999999999,"N_COORD97":2546304.8399999999,"ADDRESS":"中山南路２３１巷２０弄１號","OBJECTID":10785},"geometry":{"x":171624.65000000037,"y":2546304.8400000017}},{"attributes":{"ID":10786,"DIS_CODE":0,"TOWNNAME":"鹽水區","LI":"河南里","LIN":"7鄰","STREET":" ","SECT":" ","MAREA":"?頭港","LANE":" ","ALLEY":" ","HOUSE_NO":"６４號","E_COORD97":172813.45999999999,"N_COORD97":2572657.5099999998,"ADDRESS":"?頭港６４號","OBJECTID":10786},"geometry":{"x":172813.45999999996,"y":2572657.5099999998}},{"attributes":{"ID":10787,"DIS_CODE":0,"TOWNNAME":"南區","LI":"明亮里","LIN":"13鄰","STREET":"金華路","SECT":"一段","MAREA":" ","LANE":"３５２巷","ALLEY":"１９３弄","HOUSE_NO":"１號","E_COORD97":167432.14000000001,"N_COORD97":2540904.5,"ADDRESS":"金華路一段３５２巷１９３弄１號","OBJECTID":10787},"geometry":{"x":167432.13999999873,"y":2540904.5}},{"attributes":{"ID":10788,"DIS_CODE":0,"TOWNNAME":"安平區","LI":"國平里","LIN":"13鄰","STREET":"文平路","SECT":" ","MAREA":" ","LANE":" ","ALLEY":" ","HOUSE_NO":"２９號","E_COORD97":165661.84,"N_COORD97":2542746.7599999998,"ADDRESS":"文平路２９號","OBJECTID":10788},"geometry":{"x":165661.84000000078,"y":2542746.7599999998}},{"attributes":{"ID":10789,"DIS_CODE":0,"TOWNNAME":"鹽水區","LI":"竹埔里","LIN":"7鄰","STREET":" ","SECT":" ","MAREA":"竹子腳","LANE":" ","ALLEY":" ","HOUSE_NO":"１１１號","E_COORD97":172882.23000000001,"N_COORD97":2574350.5499999998,"ADDRESS":"竹子腳１１１號","OBJECTID":10789},"geometry":{"x":172882.23000000045,"y":2574350.5500000007}},{"attributes":{"ID":10790,"DIS_CODE":0,"TOWNNAME":"鹽水區","LI":"竹埔里","LIN":"7鄰","STREET":" ","SECT":" ","MAREA":"竹子腳","LANE":" ","ALLEY":" ","HOUSE_NO":"１１２號","E_COORD97":172851.98000000001,"N_COORD97":2574363.77,"ADDRESS":"竹子腳１１２號","OBJECTID":10790},"geometry":{"x":172851.98000000231,"y":2574363.7700000014}},{"attributes":{"ID":10791,"DIS_CODE":0,"TOWNNAME":"鹽水區","LI":"竹埔里","LIN":"7鄰","STREET":" ","SECT":" ","MAREA":"竹子腳","LANE":" ","ALLEY":" ","HOUSE_NO":"１１３號","E_COORD97":172819.88,"N_COORD97":2574377.7999999998,"ADDRESS":"竹子腳１１３號","OBJECTID":10791},"geometry":{"x":172819.88000000175,"y":2574377.8000000026}},{"attributes":{"ID":10792,"DIS_CODE":0,"TOWNNAME":"鹽水區","LI":"竹埔里","LIN":"7鄰","STREET":" ","SECT":" ","MAREA":"竹子腳","LANE":" ","ALLEY":" ","HOUSE_NO":"１１４號","E_COORD97":172855.41,"N_COORD97":2574386.4100000001,"ADDRESS":"竹子腳１１４號","OBJECTID":10792},"geometry":{"x":172855.40999999922,"y":2574386.410000002}},{"attributes":{"ID":10793,"DIS_CODE":0,"TOWNNAME":"鹽水區","LI":"竹埔里","LIN":"7鄰","STREET":" ","SECT":" ","MAREA":"竹子腳","LANE":" ","ALLEY":" ","HOUSE_NO":"１１５號","E_COORD97":172874.45999999999,"N_COORD97":2574386.29,"ADDRESS":"竹子腳１１５號","OBJECTID":10793},"geometry":{"x":172874.45999999996,"y":2574386.290000001}},{"attributes":{"ID":10794,"DIS_CODE":0,"TOWNNAME":"鹽水區","LI":"竹埔里","LIN":"7鄰","STREET":" ","SECT":" ","MAREA":"竹子腳","LANE":" ","ALLEY":" ","HOUSE_NO":"１１６號","E_COORD97":172872.38,"N_COORD97":2574401.1899999999,"ADDRESS":"竹子腳１１６號","OBJECTID":10794},"geometry":{"x":172872.38000000175,"y":2574401.1900000013}},{"attributes":{"ID":10795,"DIS_CODE":0,"TOWNNAME":"鹽水區","LI":"竹埔里","LIN":"7鄰","STREET":" ","SECT":" ","MAREA":"竹子腳","LANE":" ","ALLEY":" ","HOUSE_NO":"１１８之１號","E_COORD97":172839.70000000001,"N_COORD97":2574407.54,"ADDRESS":"竹子腳１１８之１號","OBJECTID":10795},"geometry":{"x":172839.70000000019,"y":2574407.5400000028}},{"attributes":{"ID":10796,"DIS_CODE":0,"TOWNNAME":"南區","LI":"明亮里","LIN":"13鄰","STREET":"金華路","SECT":"一段","MAREA":" ","LANE":"３５２巷","ALLEY":"１９３弄","HOUSE_NO":"３號","E_COORD97":167435.70000000001,"N_COORD97":2540907.1600000001,"ADDRESS":"金華路一段３５２巷１９３弄３號","OBJECTID":10796},"geometry":{"x":167435.70000000205,"y":2540907.1600000001}},{"attributes":{"ID":10797,"DIS_CODE":0,"TOWNNAME":"鹽水區","LI":"竹埔里","LIN":"7鄰","STREET":" ","SECT":" ","MAREA":"竹子腳","LANE":" ","ALLEY":" ","HOUSE_NO":"１１８之２號","E_COORD97":172825.01000000001,"N_COORD97":2574416.3399999999,"ADDRESS":"竹子腳１１８之２號","OBJECTID":10797},"geometry":{"x":172825.00999999978,"y":2574416.339999998}},{"attributes":{"ID":10798,"DIS_CODE":0,"TOWNNAME":"南區","LI":"明亮里","LIN":"13鄰","STREET":"金華路","SECT":"一段","MAREA":" ","LANE":"３５２巷","ALLEY":"１９３弄","HOUSE_NO":"６號","E_COORD97":167452.57000000001,"N_COORD97":2540909.8199999998,"ADDRESS":"金華路一段３５２巷１９３弄６號","OBJECTID":10798},"geometry":{"x":167452.57000000123,"y":2540909.8199999984}},{"attributes":{"ID":10799,"DIS_CODE":0,"TOWNNAME":"鹽水區","LI":"竹埔里","LIN":"7鄰","STREET":" ","SECT":" ","MAREA":"竹子腳","LANE":" ","ALLEY":" ","HOUSE_NO":"１１８之３號","E_COORD97":172794.26000000001,"N_COORD97":2574405.4300000002,"ADDRESS":"竹子腳１１８之３號","OBJECTID":10799},"geometry":{"x":172794.25999999978,"y":2574405.4299999978}},{"attributes":{"ID":10800,"DIS_CODE":0,"TOWNNAME":"南區","LI":"明亮里","LIN":"13鄰","STREET":"金華路","SECT":"一段","MAREA":" ","LANE":"３５２巷","ALLEY":"１９３弄","HOUSE_NO":"８號","E_COORD97":167446.79999999999,"N_COORD97":2540913.8100000001,"ADDRESS":"金華路一段３５２巷１９３弄８號","OBJECTID":10800},"geometry":{"x":167446.80000000075,"y":2540913.8100000042}}]}