{"displayFieldName":"TOWNNAME","fieldAliases":{"ID":"ID","DIS_CODE":"DIS_CODE","TOWNNAME":"TOWNNAME","LI":"LI","LIN":"LIN","STREET":"STREET","SECT":"SECT","MAREA":"MAREA","LANE":"LANE","ALLEY":"ALLEY","HOUSE_NO":"HOUSE_NO","E_COORD97":"E_COORD97","N_COORD97":"N_COORD97","ADDRESS":"ADDRESS","OBJECTID":"OBJECTID"},"geometryType":"esriGeometryPoint","spatialReference":{"wkid":102443,"latestWkid":3826},"fields":[{"name":"ID","type":"esriFieldTypeDouble","alias":"ID"},{"name":"DIS_CODE","type":"esriFieldTypeInteger","alias":"DIS_CODE"},{"name":"TOWNNAME","type":"esriFieldTypeString","alias":"TOWNNAME","length":8},{"name":"LI","type":"esriFieldTypeString","alias":"LI","length":8},{"name":"LIN","type":"esriFieldTypeString","alias":"LIN","length":12},{"name":"STREET","type":"esriFieldTypeString","alias":"STREET","length":20},{"name":"SECT","type":"esriFieldTypeString","alias":"SECT","length":8},{"name":"MAREA","type":"esriFieldTypeString","alias":"MAREA","length":12},{"name":"LANE","type":"esriFieldTypeString","alias":"LANE","length":10},{"name":"ALLEY","type":"esriFieldTypeString","alias":"ALLEY","length":10},{"name":"HOUSE_NO","type":"esriFieldTypeString","alias":"HOUSE_NO","length":20},{"name":"E_COORD97","type":"esriFieldTypeDouble","alias":"E_COORD97"},{"name":"N_COORD97","type":"esriFieldTypeDouble","alias":"N_COORD97"},{"name":"ADDRESS","type":"esriFieldTypeString","alias":"ADDRESS","length":50},{"name":"OBJECTID","type":"esriFieldTypeOID","alias":"OBJECTID"}],"features":[{"attributes":{"ID":317609,"DIS_CODE":0,"TOWNNAME":"新化區","LI":"\u25A0拔里","LIN":"4鄰","STREET":" ","SECT":" ","MAREA":"\u25A0拔林","LANE":" ","ALLEY":" ","HOUSE_NO":"２１０號","E_COORD97":183803.42000000001,"N_COORD97":2551992.25,"ADDRESS":"\u25A0拔林２１０號","OBJECTID":317601},"geometry":{"x":183803.42000000086,"y":2551992.25}},{"attributes":{"ID":317610,"DIS_CODE":0,"TOWNNAME":"歸仁區","LI":"歸仁里","LIN":"22鄰","STREET":"文化二街","SECT":" ","MAREA":" ","LANE":" ","ALLEY":" ","HOUSE_NO":"２８號","E_COORD97":178063.69867799999,"N_COORD97":2541211.54232,"ADDRESS":"文化二街２８號","OBJECTID":317602},"geometry":{"x":178063.69867800176,"y":2541211.5423220024}},{"attributes":{"ID":317611,"DIS_CODE":0,"TOWNNAME":"新化區","LI":"\u25A0拔里","LIN":"4鄰","STREET":" ","SECT":" ","MAREA":"\u25A0拔林","LANE":" ","ALLEY":" ","HOUSE_NO":"２１８號之１５","E_COORD97":183770.73000000001,"N_COORD97":2552066.2599999998,"ADDRESS":"\u25A0拔林２１８號之１５","OBJECTID":317603},"geometry":{"x":183770.73000000231,"y":2552066.2599999998}},{"attributes":{"ID":317612,"DIS_CODE":0,"TOWNNAME":"新化區","LI":"知義里","LIN":" ","STREET":" ","SECT":" ","MAREA":"新和庄","LANE":" ","ALLEY":" ","HOUSE_NO":"１８５號之２","E_COORD97":181661.73999999999,"N_COORD97":2547128.2599999998,"ADDRESS":"新和庄１８５號之２","OBJECTID":317604},"geometry":{"x":181661.74000000115,"y":2547128.2600000016}},{"attributes":{"ID":317613,"DIS_CODE":0,"TOWNNAME":"新化區","LI":"全興里","LIN":"13鄰","STREET":" ","SECT":" ","MAREA":"竹子\u25A0","LANE":" ","ALLEY":" ","HOUSE_NO":"２４７號之２６５","E_COORD97":178159.19,"N_COORD97":2546749.2599999998,"ADDRESS":"竹子\u25A0２４７號之２６５","OBJECTID":317605},"geometry":{"x":178159.19000000041,"y":2546749.2600000016}},{"attributes":{"ID":317614,"DIS_CODE":0,"TOWNNAME":"新化區","LI":"全興里","LIN":"20鄰","STREET":" ","SECT":" ","MAREA":"竹子\u25A0","LANE":" ","ALLEY":" ","HOUSE_NO":"２４７號之４５５","E_COORD97":178406.48999999999,"N_COORD97":2546660.2599999998,"ADDRESS":"竹子\u25A0２４７號之４５５","OBJECTID":317606},"geometry":{"x":178406.49000000022,"y":2546660.2600000016}},{"attributes":{"ID":317615,"DIS_CODE":0,"TOWNNAME":"北區","LI":"元寶里","LIN":"7鄰","STREET":"北園街","SECT":" ","MAREA":" ","LANE":"８巷","ALLEY":" ","HOUSE_NO":"３號","E_COORD97":170393.72,"N_COORD97":2545667.7999999998,"ADDRESS":"北園街８巷３號","OBJECTID":317607},"geometry":{"x":170393.72000000067,"y":2545667.8000000026}},{"attributes":{"ID":317616,"DIS_CODE":0,"TOWNNAME":"北區","LI":"元寶里","LIN":"7鄰","STREET":"北園街","SECT":" ","MAREA":" ","LANE":"８巷","ALLEY":" ","HOUSE_NO":"１號","E_COORD97":170386.73999999999,"N_COORD97":2545668.0299999998,"ADDRESS":"北園街８巷１號","OBJECTID":317608},"geometry":{"x":170386.73999999929,"y":2545668.0300000012}},{"attributes":{"ID":317617,"DIS_CODE":0,"TOWNNAME":"鹽水區","LI":"橋南里","LIN":"7鄰","STREET":"南門路","SECT":" ","MAREA":" ","LANE":"２０１巷","ALLEY":" ","HOUSE_NO":"６３號","E_COORD97":175566.79999999999,"N_COORD97":2578954.4900000002,"ADDRESS":"南門路２０１巷６３號","OBJECTID":317609},"geometry":{"x":175566.80000000075,"y":2578954.4900000002}},{"attributes":{"ID":317618,"DIS_CODE":0,"TOWNNAME":"鹽水區","LI":"橋南里","LIN":"7鄰","STREET":"南門路","SECT":" ","MAREA":" ","LANE":"２０１巷","ALLEY":" ","HOUSE_NO":"６９號","E_COORD97":175586.45000000001,"N_COORD97":2578966.0899999999,"ADDRESS":"南門路２０１巷６９號","OBJECTID":317610},"geometry":{"x":175586.45000000112,"y":2578966.0900000017}},{"attributes":{"ID":317619,"DIS_CODE":0,"TOWNNAME":"鹽水區","LI":"橋南里","LIN":"7鄰","STREET":"南門路","SECT":" ","MAREA":" ","LANE":"２０１巷","ALLEY":" ","HOUSE_NO":"７號","E_COORD97":175432.19,"N_COORD97":2579000.9300000002,"ADDRESS":"南門路２０１巷７號","OBJECTID":317611},"geometry":{"x":175432.18999999948,"y":2579000.9300000016}},{"attributes":{"ID":317620,"DIS_CODE":0,"TOWNNAME":"歸仁區","LI":"南保里","LIN":"64鄰","STREET":"中山九街","SECT":" ","MAREA":" ","LANE":"７巷","ALLEY":" ","HOUSE_NO":"３１號","E_COORD97":176563.42965899999,"N_COORD97":2540849.8150300002,"ADDRESS":"中山九街７巷３１號","OBJECTID":317612},"geometry":{"x":176563.42965899967,"y":2540849.8150340021}},{"attributes":{"ID":317621,"DIS_CODE":0,"TOWNNAME":"歸仁區","LI":"南保里","LIN":"64鄰","STREET":"中山九街","SECT":" ","MAREA":" ","LANE":"７巷","ALLEY":" ","HOUSE_NO":"１３號","E_COORD97":176503.35999999999,"N_COORD97":2540857.25,"ADDRESS":"中山九街７巷１３號","OBJECTID":317613},"geometry":{"x":176503.36000000034,"y":2540857.2500000019}},{"attributes":{"ID":317622,"DIS_CODE":0,"TOWNNAME":"歸仁區","LI":"南保里","LIN":"64鄰","STREET":"中山九街","SECT":" ","MAREA":" ","LANE":"７巷","ALLEY":" ","HOUSE_NO":"１２號","E_COORD97":176494.20999999999,"N_COORD97":2540803.25,"ADDRESS":"中山九街７巷１２號","OBJECTID":317614},"geometry":{"x":176494.20999999996,"y":2540803.2500000019}},{"attributes":{"ID":317623,"DIS_CODE":0,"TOWNNAME":"歸仁區","LI":"南保里","LIN":"64鄰","STREET":"中山九街","SECT":" ","MAREA":" ","LANE":"７巷","ALLEY":" ","HOUSE_NO":"１９號","E_COORD97":176526.55195600001,"N_COORD97":2540850.9791999999,"ADDRESS":"中山九街７巷１９號","OBJECTID":317615},"geometry":{"x":176526.55195599981,"y":2540850.9791999999}},{"attributes":{"ID":317624,"DIS_CODE":0,"TOWNNAME":"歸仁區","LI":"南保里","LIN":"64鄰","STREET":"中山九街","SECT":" ","MAREA":" ","LANE":"７巷","ALLEY":" ","HOUSE_NO":"２７號","E_COORD97":176552.91676600001,"N_COORD97":2540852.1853900002,"ADDRESS":"中山九街７巷２７號","OBJECTID":317616},"geometry":{"x":176552.91676600091,"y":2540852.185385}},{"attributes":{"ID":317625,"DIS_CODE":0,"TOWNNAME":"歸仁區","LI":"南保里","LIN":"64鄰","STREET":"中山九街","SECT":" ","MAREA":" ","LANE":"７巷","ALLEY":" ","HOUSE_NO":"２１號","E_COORD97":176533.12212099999,"N_COORD97":2540849.8150300002,"ADDRESS":"中山九街７巷２１號","OBJECTID":317617},"geometry":{"x":176533.12212099973,"y":2540849.8150340021}},{"attributes":{"ID":317626,"DIS_CODE":0,"TOWNNAME":"永康區","LI":"烏竹里","LIN":"17鄰","STREET":"竹園一街","SECT":" ","MAREA":" ","LANE":" ","ALLEY":" ","HOUSE_NO":"５９號二樓之１","E_COORD97":174399.67000000001,"N_COORD97":2548923.0800000001,"ADDRESS":"竹園一街５９號二樓之１","OBJECTID":317618},"geometry":{"x":174399.67000000086,"y":2548923.0800000038}},{"attributes":{"ID":317627,"DIS_CODE":0,"TOWNNAME":"佳里區","LI":"營頂里","LIN":"6鄰","STREET":" ","SECT":" ","MAREA":"營頂","LANE":" ","ALLEY":" ","HOUSE_NO":"６０號","E_COORD97":167040.89285,"N_COORD97":2566639.0906400001,"ADDRESS":"營頂６０號","OBJECTID":317619},"geometry":{"x":167040.89285000134,"y":2566639.0906409994}},{"attributes":{"ID":317628,"DIS_CODE":0,"TOWNNAME":"將軍區","LI":"玉山里","LIN":"2鄰","STREET":"三吉","SECT":" ","MAREA":" ","LANE":" ","ALLEY":" ","HOUSE_NO":"８４之１號","E_COORD97":160770.09848099999,"N_COORD97":2564782.7598799998,"ADDRESS":"三吉８４之１號","OBJECTID":317620},"geometry":{"x":160770.0984810004,"y":2564782.7598830014}},{"attributes":{"ID":317629,"DIS_CODE":0,"TOWNNAME":"歸仁區","LI":"歸仁里","LIN":"22鄰","STREET":"文化二街","SECT":" ","MAREA":" ","LANE":" ","ALLEY":" ","HOUSE_NO":"８號","E_COORD97":178017.71174699999,"N_COORD97":2541210.0887799999,"ADDRESS":"文化二街８號","OBJECTID":317621},"geometry":{"x":178017.71174699999,"y":2541210.0887800045}},{"attributes":{"ID":317630,"DIS_CODE":0,"TOWNNAME":"北區","LI":"成德里","LIN":"17鄰","STREET":"西門路","SECT":"四段","MAREA":" ","LANE":"３４１巷","ALLEY":" ","HOUSE_NO":"４０號","E_COORD97":168920.72,"N_COORD97":2546242.1099999999,"ADDRESS":"西門路四段３４１巷４０號","OBJECTID":317622},"geometry":{"x":168920.72000000067,"y":2546242.1099999994}},{"attributes":{"ID":317631,"DIS_CODE":0,"TOWNNAME":"北區","LI":"成德里","LIN":"17鄰","STREET":"西門路","SECT":"四段","MAREA":" ","LANE":"３４１巷","ALLEY":" ","HOUSE_NO":"４２號","E_COORD97":168917.04000000001,"N_COORD97":2546244.2200000002,"ADDRESS":"西門路四段３４１巷４２號","OBJECTID":317623},"geometry":{"x":168917.04000000097,"y":2546244.2200000044}},{"attributes":{"ID":317632,"DIS_CODE":0,"TOWNNAME":"北區","LI":"成德里","LIN":"17鄰","STREET":"西門路","SECT":"四段","MAREA":" ","LANE":"３４１巷","ALLEY":" ","HOUSE_NO":"４６號","E_COORD97":168909.26999999999,"N_COORD97":2546248.6800000002,"ADDRESS":"西門路四段３４１巷４６號","OBJECTID":317624},"geometry":{"x":168909.26999999955,"y":2546248.6799999997}},{"attributes":{"ID":317633,"DIS_CODE":0,"TOWNNAME":"北區","LI":"成德里","LIN":"17鄰","STREET":"西門路","SECT":"四段","MAREA":" ","LANE":"３４１巷","ALLEY":" ","HOUSE_NO":"４８號","E_COORD97":168905.32000000001,"N_COORD97":2546250.5299999998,"ADDRESS":"西門路四段３４１巷４８號","OBJECTID":317625},"geometry":{"x":168905.32000000123,"y":2546250.5299999993}},{"attributes":{"ID":317634,"DIS_CODE":0,"TOWNNAME":"北區","LI":"成德里","LIN":"17鄰","STREET":"西門路","SECT":"四段","MAREA":" ","LANE":"３４１巷","ALLEY":" ","HOUSE_NO":"４號","E_COORD97":168990.51999999999,"N_COORD97":2546200.8599999999,"ADDRESS":"西門路四段３４１巷４號","OBJECTID":317626},"geometry":{"x":168990.51999999955,"y":2546200.8599999994}},{"attributes":{"ID":317635,"DIS_CODE":0,"TOWNNAME":"北區","LI":"成德里","LIN":"17鄰","STREET":"西門路","SECT":"四段","MAREA":" ","LANE":"３４１巷","ALLEY":" ","HOUSE_NO":"５０號","E_COORD97":168901.5,"N_COORD97":2546252.77,"ADDRESS":"西門路四段３４１巷５０號","OBJECTID":317627},"geometry":{"x":168901.50000000186,"y":2546252.7700000033}},{"attributes":{"ID":317636,"DIS_CODE":0,"TOWNNAME":"北區","LI":"成德里","LIN":"17鄰","STREET":"西門路","SECT":"四段","MAREA":" ","LANE":"３４１巷","ALLEY":" ","HOUSE_NO":"５２號","E_COORD97":168895.57000000001,"N_COORD97":2546256.3199999998,"ADDRESS":"西門路四段３４１巷５２號","OBJECTID":317628},"geometry":{"x":168895.5700000003,"y":2546256.3200000003}},{"attributes":{"ID":317637,"DIS_CODE":0,"TOWNNAME":"北區","LI":"成德里","LIN":"17鄰","STREET":"西門路","SECT":"四段","MAREA":" ","LANE":"３４１巷","ALLEY":" ","HOUSE_NO":"６號","E_COORD97":168986.57000000001,"N_COORD97":2546203.3599999999,"ADDRESS":"西門路四段３４１巷６號","OBJECTID":317629},"geometry":{"x":168986.57000000123,"y":2546203.3599999994}},{"attributes":{"ID":317638,"DIS_CODE":0,"TOWNNAME":"北區","LI":"成德里","LIN":"17鄰","STREET":"西門路","SECT":"四段","MAREA":" ","LANE":"３４１巷","ALLEY":" ","HOUSE_NO":"８號","E_COORD97":168982.60999999999,"N_COORD97":2546205.3399999999,"ADDRESS":"西門路四段３４１巷８號","OBJECTID":317630},"geometry":{"x":168982.6100000022,"y":2546205.3400000036}},{"attributes":{"ID":317639,"DIS_CODE":0,"TOWNNAME":"歸仁區","LI":"南保里","LIN":"64鄰","STREET":"中山九街","SECT":" ","MAREA":" ","LANE":"７巷","ALLEY":" ","HOUSE_NO":"２９號","E_COORD97":176559.06305,"N_COORD97":2540850.3862200002,"ADDRESS":"中山九街７巷２９號","OBJECTID":317631},"geometry":{"x":176559.06305,"y":2540850.3862200007}},{"attributes":{"ID":317640,"DIS_CODE":0,"TOWNNAME":"北區","LI":"元寶里","LIN":"12鄰","STREET":"北園街","SECT":" ","MAREA":" ","LANE":"８巷","ALLEY":" ","HOUSE_NO":"７３號","E_COORD97":170415.64000000001,"N_COORD97":2545740.0299999998,"ADDRESS":"北園街８巷７３號","OBJECTID":317632},"geometry":{"x":170415.63999999873,"y":2545740.0300000012}},{"attributes":{"ID":317641,"DIS_CODE":0,"TOWNNAME":"北區","LI":"元寶里","LIN":"13鄰","STREET":"開元路","SECT":" ","MAREA":" ","LANE":"４８５巷","ALLEY":" ","HOUSE_NO":"３５號","E_COORD97":170477.07000000001,"N_COORD97":2545729.4399999999,"ADDRESS":"開元路４８５巷３５號","OBJECTID":317633},"geometry":{"x":170477.0700000003,"y":2545729.4400000032}},{"attributes":{"ID":317642,"DIS_CODE":0,"TOWNNAME":"東區","LI":"成大里","LIN":"26鄰","STREET":"育樂街","SECT":" ","MAREA":" ","LANE":"６６巷","ALLEY":" ","HOUSE_NO":"１５之１號","E_COORD97":169563.529129,"N_COORD97":2544069.8384699998,"ADDRESS":"育樂街６６巷１５之１號","OBJECTID":317634},"geometry":{"x":169563.52912900131,"y":2544069.8384700008}},{"attributes":{"ID":317643,"DIS_CODE":0,"TOWNNAME":"仁德區","LI":"仁義里","LIN":"54鄰","STREET":"仁義一街","SECT":" ","MAREA":" ","LANE":"３１巷","ALLEY":" ","HOUSE_NO":"２號","E_COORD97":173354.42000000001,"N_COORD97":2541222.0099999998,"ADDRESS":"仁義一街３１巷２號","OBJECTID":317635},"geometry":{"x":173354.42000000086,"y":2541222.0099999998}},{"attributes":{"ID":317644,"DIS_CODE":0,"TOWNNAME":"永康區","LI":"烏竹里","LIN":"17鄰","STREET":"竹園一街","SECT":" ","MAREA":" ","LANE":" ","ALLEY":" ","HOUSE_NO":"５９號四樓之２","E_COORD97":174399.79999999999,"N_COORD97":2548923.0800000001,"ADDRESS":"竹園一街５９號四樓之２","OBJECTID":317636},"geometry":{"x":174399.79999999981,"y":2548923.0800000038}},{"attributes":{"ID":317645,"DIS_CODE":0,"TOWNNAME":"永康區","LI":"烏竹里","LIN":"17鄰","STREET":"竹園一街","SECT":" ","MAREA":" ","LANE":" ","ALLEY":" ","HOUSE_NO":"６１號六樓之２","E_COORD97":174414.39000000001,"N_COORD97":2548929.3300000001,"ADDRESS":"竹園一街６１號六樓之２","OBJECTID":317637},"geometry":{"x":174414.38999999966,"y":2548929.3300000019}},{"attributes":{"ID":317646,"DIS_CODE":0,"TOWNNAME":"永康區","LI":"烏竹里","LIN":"17鄰","STREET":"竹園一街","SECT":" ","MAREA":" ","LANE":" ","ALLEY":" ","HOUSE_NO":"５５號五樓之２","E_COORD97":174377.39000000001,"N_COORD97":2548932.8300000001,"ADDRESS":"竹園一街５５號五樓之２","OBJECTID":317638},"geometry":{"x":174377.39000000153,"y":2548932.8300000019}},{"attributes":{"ID":317647,"DIS_CODE":0,"TOWNNAME":"永康區","LI":"烏竹里","LIN":"17鄰","STREET":"竹園一街","SECT":" ","MAREA":" ","LANE":" ","ALLEY":" ","HOUSE_NO":"５７號三樓之２","E_COORD97":174385.92999999999,"N_COORD97":2548919.0800000001,"ADDRESS":"竹園一街５７號三樓之２","OBJECTID":317639},"geometry":{"x":174385.93000000063,"y":2548919.0800000001}},{"attributes":{"ID":317648,"DIS_CODE":0,"TOWNNAME":"永康區","LI":"烏竹里","LIN":"17鄰","STREET":"竹園一街","SECT":" ","MAREA":" ","LANE":" ","ALLEY":" ","HOUSE_NO":"５７號八樓之２","E_COORD97":174385.92999999999,"N_COORD97":2548919.0800000001,"ADDRESS":"竹園一街５７號八樓之２","OBJECTID":317640},"geometry":{"x":174385.93000000063,"y":2548919.0800000001}},{"attributes":{"ID":317649,"DIS_CODE":0,"TOWNNAME":"永康區","LI":"烏竹里","LIN":"17鄰","STREET":"竹園一街","SECT":" ","MAREA":" ","LANE":" ","ALLEY":" ","HOUSE_NO":"５５號三樓之２","E_COORD97":174377.39000000001,"N_COORD97":2548932.8300000001,"ADDRESS":"竹園一街５５號三樓之２","OBJECTID":317641},"geometry":{"x":174377.39000000153,"y":2548932.8300000019}},{"attributes":{"ID":317650,"DIS_CODE":0,"TOWNNAME":"永康區","LI":"烏竹里","LIN":"17鄰","STREET":"竹園一街","SECT":" ","MAREA":" ","LANE":" ","ALLEY":" ","HOUSE_NO":"６１號四樓之２","E_COORD97":174414.39000000001,"N_COORD97":2548929.3300000001,"ADDRESS":"竹園一街６１號四樓之２","OBJECTID":317642},"geometry":{"x":174414.38999999966,"y":2548929.3300000019}},{"attributes":{"ID":317651,"DIS_CODE":0,"TOWNNAME":"永康區","LI":"烏竹里","LIN":"17鄰","STREET":"竹園一街","SECT":" ","MAREA":" ","LANE":" ","ALLEY":" ","HOUSE_NO":"５７號七樓之２","E_COORD97":174385.92999999999,"N_COORD97":2548919.0800000001,"ADDRESS":"竹園一街５７號七樓之２","OBJECTID":317643},"geometry":{"x":174385.93000000063,"y":2548919.0800000001}},{"attributes":{"ID":317652,"DIS_CODE":0,"TOWNNAME":"永康區","LI":"烏竹里","LIN":"17鄰","STREET":"竹園一街","SECT":" ","MAREA":" ","LANE":" ","ALLEY":" ","HOUSE_NO":"５９號七樓之２","E_COORD97":174399.79999999999,"N_COORD97":2548923.0800000001,"ADDRESS":"竹園一街５９號七樓之２","OBJECTID":317644},"geometry":{"x":174399.79999999981,"y":2548923.0800000038}},{"attributes":{"ID":317653,"DIS_CODE":0,"TOWNNAME":"佳里區","LI":"東寧里","LIN":"17鄰","STREET":"和平街","SECT":" ","MAREA":" ","LANE":" ","ALLEY":" ","HOUSE_NO":"２５號","E_COORD97":166026.41,"N_COORD97":2562506.5600000001,"ADDRESS":"和平街２５號","OBJECTID":317645},"geometry":{"x":166026.41000000108,"y":2562506.5600000024}},{"attributes":{"ID":317654,"DIS_CODE":0,"TOWNNAME":"北區","LI":"大港里","LIN":"4鄰","STREET":"大興街","SECT":" ","MAREA":" ","LANE":"１７４巷","ALLEY":" ","HOUSE_NO":"６２號","E_COORD97":166868.45000000001,"N_COORD97":2545882.29,"ADDRESS":"大興街１７４巷６２號","OBJECTID":317646},"geometry":{"x":166868.45000000112,"y":2545882.2899999991}},{"attributes":{"ID":317655,"DIS_CODE":0,"TOWNNAME":"北區","LI":"大港里","LIN":"4鄰","STREET":"大興街","SECT":" ","MAREA":" ","LANE":"１７４巷","ALLEY":" ","HOUSE_NO":"６４號","E_COORD97":166868.70000000001,"N_COORD97":2545886.29,"ADDRESS":"大興街１７４巷６４號","OBJECTID":317647},"geometry":{"x":166868.70000000112,"y":2545886.2900000028}},{"attributes":{"ID":317656,"DIS_CODE":0,"TOWNNAME":"北區","LI":"大港里","LIN":"4鄰","STREET":"大興街","SECT":" ","MAREA":" ","LANE":"１７４巷","ALLEY":" ","HOUSE_NO":"６６號","E_COORD97":166868.45000000001,"N_COORD97":2545889.7999999998,"ADDRESS":"大興街１７４巷６６號","OBJECTID":317648},"geometry":{"x":166868.45000000112,"y":2545889.8000000007}},{"attributes":{"ID":317657,"DIS_CODE":0,"TOWNNAME":"北區","LI":"大港里","LIN":"4鄰","STREET":"大興街","SECT":" ","MAREA":" ","LANE":"１７４巷","ALLEY":" ","HOUSE_NO":"６８號","E_COORD97":166868.06,"N_COORD97":2545894.0800000001,"ADDRESS":"大興街１７４巷６８號","OBJECTID":317649},"geometry":{"x":166868.05999999866,"y":2545894.0800000001}},{"attributes":{"ID":317658,"DIS_CODE":0,"TOWNNAME":"仁德區","LI":"仁義里","LIN":"54鄰","STREET":"中正路","SECT":"二段","MAREA":" ","LANE":"１１６０巷","ALLEY":" ","HOUSE_NO":"２號","E_COORD97":173300.23999999999,"N_COORD97":2541240.5299999998,"ADDRESS":"中正路二段１１６０巷２號","OBJECTID":317650},"geometry":{"x":173300.24000000022,"y":2541240.5300000012}},{"attributes":{"ID":317659,"DIS_CODE":0,"TOWNNAME":"仁德區","LI":"仁義里","LIN":"54鄰","STREET":"仁義一街","SECT":" ","MAREA":" ","LANE":"３１巷","ALLEY":" ","HOUSE_NO":"５號","E_COORD97":173340.39999999999,"N_COORD97":2541231.52,"ADDRESS":"仁義一街３１巷５號","OBJECTID":317651},"geometry":{"x":173340.40000000037,"y":2541231.5200000014}},{"attributes":{"ID":317660,"DIS_CODE":0,"TOWNNAME":"佳里區","LI":"安西里","LIN":"54鄰","STREET":"佳安西路","SECT":" ","MAREA":" ","LANE":"１巷","ALLEY":" ","HOUSE_NO":"１０號","E_COORD97":163682.29000000001,"N_COORD97":2562340.98,"ADDRESS":"佳安西路１巷１０號","OBJECTID":317652},"geometry":{"x":163682.29000000097,"y":2562340.9800000023}},{"attributes":{"ID":317661,"DIS_CODE":0,"TOWNNAME":"佳里區","LI":"安西里","LIN":"54鄰","STREET":"佳安西路","SECT":" ","MAREA":" ","LANE":"１巷","ALLEY":" ","HOUSE_NO":"１１號","E_COORD97":163691.54000000001,"N_COORD97":2562357.3799999999,"ADDRESS":"佳安西路１巷１１號","OBJECTID":317653},"geometry":{"x":163691.54000000004,"y":2562357.3800000008}},{"attributes":{"ID":317662,"DIS_CODE":0,"TOWNNAME":"佳里區","LI":"安西里","LIN":"54鄰","STREET":"佳安西路","SECT":" ","MAREA":" ","LANE":"１巷","ALLEY":" ","HOUSE_NO":"１２號","E_COORD97":163687.14999999999,"N_COORD97":2562340.9900000002,"ADDRESS":"佳安西路１巷１２號","OBJECTID":317654},"geometry":{"x":163687.1500000013,"y":2562340.9900000021}},{"attributes":{"ID":317663,"DIS_CODE":0,"TOWNNAME":"佳里區","LI":"安西里","LIN":"54鄰","STREET":"佳安西路","SECT":" ","MAREA":" ","LANE":"１巷","ALLEY":" ","HOUSE_NO":"１３號","E_COORD97":163696.35999999999,"N_COORD97":2562357.4900000002,"ADDRESS":"佳安西路１巷１３號","OBJECTID":317655},"geometry":{"x":163696.36000000034,"y":2562357.4900000021}},{"attributes":{"ID":317664,"DIS_CODE":0,"TOWNNAME":"佳里區","LI":"安西里","LIN":"54鄰","STREET":"佳安西路","SECT":" ","MAREA":" ","LANE":"１巷","ALLEY":" ","HOUSE_NO":"１５號","E_COORD97":163700.72,"N_COORD97":2562357.1899999999,"ADDRESS":"佳安西路１巷１５號","OBJECTID":317656},"geometry":{"x":163700.7200000016,"y":2562357.1899999995}},{"attributes":{"ID":317665,"DIS_CODE":0,"TOWNNAME":"佳里區","LI":"安西里","LIN":"54鄰","STREET":"佳安西路","SECT":" ","MAREA":" ","LANE":"１巷","ALLEY":" ","HOUSE_NO":"１６號","E_COORD97":163691.37,"N_COORD97":2562340.48,"ADDRESS":"佳安西路１巷１６號","OBJECTID":317657},"geometry":{"x":163691.37000000011,"y":2562340.4800000023}},{"attributes":{"ID":317666,"DIS_CODE":0,"TOWNNAME":"佳里區","LI":"安西里","LIN":"54鄰","STREET":"佳安西路","SECT":" ","MAREA":" ","LANE":"１巷","ALLEY":" ","HOUSE_NO":"１７號","E_COORD97":163704.63,"N_COORD97":2562357.0099999998,"ADDRESS":"佳安西路１巷１７號","OBJECTID":317658},"geometry":{"x":163704.62999999989,"y":2562357.0100000016}},{"attributes":{"ID":317667,"DIS_CODE":0,"TOWNNAME":"佳里區","LI":"安西里","LIN":"54鄰","STREET":"佳安西路","SECT":" ","MAREA":" ","LANE":"１巷","ALLEY":" ","HOUSE_NO":"１８號","E_COORD97":163695.57000000001,"N_COORD97":2562340.9199999999,"ADDRESS":"佳安西路１巷１８號","OBJECTID":317659},"geometry":{"x":163695.57000000216,"y":2562340.9200000018}},{"attributes":{"ID":317668,"DIS_CODE":0,"TOWNNAME":"佳里區","LI":"安西里","LIN":"54鄰","STREET":"佳安西路","SECT":" ","MAREA":" ","LANE":"１巷","ALLEY":" ","HOUSE_NO":"１９號","E_COORD97":163709.26999999999,"N_COORD97":2562357.4300000002,"ADDRESS":"佳安西路１巷１９號","OBJECTID":317660},"geometry":{"x":163709.27000000048,"y":2562357.4300000016}},{"attributes":{"ID":317669,"DIS_CODE":0,"TOWNNAME":"佳里區","LI":"安西里","LIN":"54鄰","STREET":"佳安西路","SECT":" ","MAREA":" ","LANE":"１巷","ALLEY":" ","HOUSE_NO":"２０號","E_COORD97":163700.01999999999,"N_COORD97":2562340.7000000002,"ADDRESS":"佳安西路１巷２０號","OBJECTID":317661},"geometry":{"x":163700.01999999862,"y":2562340.7000000011}},{"attributes":{"ID":317670,"DIS_CODE":0,"TOWNNAME":"佳里區","LI":"安西里","LIN":"54鄰","STREET":"佳安西路","SECT":" ","MAREA":" ","LANE":"１巷","ALLEY":" ","HOUSE_NO":"２１號","E_COORD97":163714.07999999999,"N_COORD97":2562356.79,"ADDRESS":"佳安西路１巷２１號","OBJECTID":317662},"geometry":{"x":163714.08000000101,"y":2562356.790000001}},{"attributes":{"ID":317671,"DIS_CODE":0,"TOWNNAME":"佳里區","LI":"安西里","LIN":"54鄰","STREET":"佳安西路","SECT":" ","MAREA":" ","LANE":"１巷","ALLEY":" ","HOUSE_NO":"２２號","E_COORD97":163704.62,"N_COORD97":2562340.5,"ADDRESS":"佳安西路１巷２２號","OBJECTID":317663},"geometry":{"x":163704.62000000011,"y":2562340.5000000019}},{"attributes":{"ID":317672,"DIS_CODE":0,"TOWNNAME":"佳里區","LI":"安西里","LIN":"54鄰","STREET":"佳安西路","SECT":" ","MAREA":" ","LANE":"１巷","ALLEY":" ","HOUSE_NO":"２３號","E_COORD97":163718.39000000001,"N_COORD97":2562357.1400000001,"ADDRESS":"佳安西路１巷２３號","OBJECTID":317664},"geometry":{"x":163718.3900000006,"y":2562357.1400000025}},{"attributes":{"ID":317673,"DIS_CODE":0,"TOWNNAME":"佳里區","LI":"安西里","LIN":"54鄰","STREET":"佳安西路","SECT":" ","MAREA":" ","LANE":"１巷","ALLEY":" ","HOUSE_NO":"２５號","E_COORD97":163722.69,"N_COORD97":2562356.98,"ADDRESS":"佳安西路１巷２５號","OBJECTID":317665},"geometry":{"x":163722.69000000134,"y":2562356.9800000023}},{"attributes":{"ID":317674,"DIS_CODE":0,"TOWNNAME":"佳里區","LI":"安西里","LIN":"54鄰","STREET":"佳安西路","SECT":" ","MAREA":" ","LANE":"１巷","ALLEY":" ","HOUSE_NO":"２６號","E_COORD97":163708.51999999999,"N_COORD97":2562340.6800000002,"ADDRESS":"佳安西路１巷２６號","OBJECTID":317666},"geometry":{"x":163708.52000000142,"y":2562340.6799999978}},{"attributes":{"ID":317675,"DIS_CODE":0,"TOWNNAME":"佳里區","LI":"安西里","LIN":"54鄰","STREET":"佳安西路","SECT":" ","MAREA":" ","LANE":"１巷","ALLEY":" ","HOUSE_NO":"２７號","E_COORD97":163727,"N_COORD97":2562356.98,"ADDRESS":"佳安西路１巷２７號","OBJECTID":317667},"geometry":{"x":163727,"y":2562356.9800000023}},{"attributes":{"ID":317676,"DIS_CODE":0,"TOWNNAME":"佳里區","LI":"安西里","LIN":"54鄰","STREET":"佳安西路","SECT":" ","MAREA":" ","LANE":"１巷","ALLEY":" ","HOUSE_NO":"２８號","E_COORD97":163713.39000000001,"N_COORD97":2562340.5,"ADDRESS":"佳安西路１巷２８號","OBJECTID":317668},"geometry":{"x":163713.3900000006,"y":2562340.5000000019}},{"attributes":{"ID":317677,"DIS_CODE":0,"TOWNNAME":"佳里區","LI":"安西里","LIN":"54鄰","STREET":"佳安西路","SECT":" ","MAREA":" ","LANE":"１巷","ALLEY":" ","HOUSE_NO":"２９號","E_COORD97":163731.88,"N_COORD97":2562356.9399999999,"ADDRESS":"佳安西路１巷２９號","OBJECTID":317669},"geometry":{"x":163731.88000000175,"y":2562356.9400000013}},{"attributes":{"ID":317678,"DIS_CODE":0,"TOWNNAME":"仁德區","LI":"新田里","LIN":"17鄰","STREET":"民安路","SECT":"二段","MAREA":" ","LANE":" ","ALLEY":" ","HOUSE_NO":"７７號之１五樓之３","E_COORD97":173513.48999999999,"N_COORD97":2539241.3100000001,"ADDRESS":"民安路二段７７號之１五樓之３","OBJECTID":317670},"geometry":{"x":173513.49000000115,"y":2539241.3100000005}},{"attributes":{"ID":317679,"DIS_CODE":0,"TOWNNAME":"仁德區","LI":"新田里","LIN":"17鄰","STREET":"民安路","SECT":"二段","MAREA":" ","LANE":" ","ALLEY":" ","HOUSE_NO":"７７號之１六樓之２","E_COORD97":173513.53,"N_COORD97":2539241.3100000001,"ADDRESS":"民安路二段７７號之１六樓之２","OBJECTID":317671},"geometry":{"x":173513.53000000026,"y":2539241.3100000005}},{"attributes":{"ID":317680,"DIS_CODE":0,"TOWNNAME":"仁德區","LI":"新田里","LIN":"17鄰","STREET":"民安路","SECT":"二段","MAREA":" ","LANE":" ","ALLEY":" ","HOUSE_NO":"７７號之１四樓之３","E_COORD97":173513.48999999999,"N_COORD97":2539241.3100000001,"ADDRESS":"民安路二段７７號之１四樓之３","OBJECTID":317672},"geometry":{"x":173513.49000000115,"y":2539241.3100000005}},{"attributes":{"ID":317681,"DIS_CODE":0,"TOWNNAME":"北區","LI":"大港里","LIN":"4鄰","STREET":"大港街","SECT":" ","MAREA":" ","LANE":" ","ALLEY":" ","HOUSE_NO":"１０１號","E_COORD97":166835.87,"N_COORD97":2545939.5800000001,"ADDRESS":"大港街１０１號","OBJECTID":317673},"geometry":{"x":166835.87000000011,"y":2545939.5800000038}},{"attributes":{"ID":317682,"DIS_CODE":0,"TOWNNAME":"將軍區","LI":"三吉里","LIN":"9鄰","STREET":"三吉","SECT":" ","MAREA":" ","LANE":" ","ALLEY":" ","HOUSE_NO":"８４號","E_COORD97":160670.59594900001,"N_COORD97":2564792.99975,"ADDRESS":"三吉８４號","OBJECTID":317674},"geometry":{"x":160670.59594899975,"y":2564792.9997540005}},{"attributes":{"ID":317683,"DIS_CODE":0,"TOWNNAME":"佳里區","LI":"安西里","LIN":"54鄰","STREET":"佳安西路","SECT":" ","MAREA":" ","LANE":"１巷","ALLEY":" ","HOUSE_NO":"２號","E_COORD97":163669.01999999999,"N_COORD97":2562341.4100000001,"ADDRESS":"佳安西路１巷２號","OBJECTID":317675},"geometry":{"x":163669.01999999955,"y":2562341.410000002}},{"attributes":{"ID":317684,"DIS_CODE":0,"TOWNNAME":"佳里區","LI":"安西里","LIN":"54鄰","STREET":"佳安西路","SECT":" ","MAREA":" ","LANE":"１巷","ALLEY":" ","HOUSE_NO":"３０號","E_COORD97":163717.89999999999,"N_COORD97":2562340.2400000002,"ADDRESS":"佳安西路１巷３０號","OBJECTID":317676},"geometry":{"x":163717.90000000037,"y":2562340.2400000002}},{"attributes":{"ID":317685,"DIS_CODE":0,"TOWNNAME":"佳里區","LI":"安西里","LIN":"54鄰","STREET":"佳安西路","SECT":" ","MAREA":" ","LANE":"１巷","ALLEY":" ","HOUSE_NO":"３１號","E_COORD97":163735.85000000001,"N_COORD97":2562357.2200000002,"ADDRESS":"佳安西路１巷３１號","OBJECTID":317677},"geometry":{"x":163735.85000000056,"y":2562357.2200000007}},{"attributes":{"ID":317686,"DIS_CODE":0,"TOWNNAME":"佳里區","LI":"安西里","LIN":"54鄰","STREET":"佳安西路","SECT":" ","MAREA":" ","LANE":"１巷","ALLEY":" ","HOUSE_NO":"３２號","E_COORD97":163722.03,"N_COORD97":2562340.6600000001,"ADDRESS":"佳安西路１巷３２號","OBJECTID":317678},"geometry":{"x":163722.03000000026,"y":2562340.6600000001}},{"attributes":{"ID":317687,"DIS_CODE":0,"TOWNNAME":"佳里區","LI":"安西里","LIN":"54鄰","STREET":"佳安西路","SECT":" ","MAREA":" ","LANE":"１巷","ALLEY":" ","HOUSE_NO":"３６號","E_COORD97":163726.45999999999,"N_COORD97":2562340.4199999999,"ADDRESS":"佳安西路１巷３６號","OBJECTID":317679},"geometry":{"x":163726.46000000183,"y":2562340.4200000018}},{"attributes":{"ID":317688,"DIS_CODE":0,"TOWNNAME":"佳里區","LI":"安西里","LIN":"54鄰","STREET":"佳安西路","SECT":" ","MAREA":" ","LANE":"１巷","ALLEY":" ","HOUSE_NO":"３８號","E_COORD97":163730.98999999999,"N_COORD97":2562340.3700000001,"ADDRESS":"佳安西路１巷３８號","OBJECTID":317680},"geometry":{"x":163730.99000000022,"y":2562340.370000001}},{"attributes":{"ID":317689,"DIS_CODE":0,"TOWNNAME":"佳里區","LI":"安西里","LIN":"54鄰","STREET":"佳安西路","SECT":" ","MAREA":" ","LANE":"１巷","ALLEY":" ","HOUSE_NO":"３號","E_COORD97":163672.98999999999,"N_COORD97":2562357.4399999999,"ADDRESS":"佳安西路１巷３號","OBJECTID":317681},"geometry":{"x":163672.99000000115,"y":2562357.4400000013}},{"attributes":{"ID":317690,"DIS_CODE":0,"TOWNNAME":"佳里區","LI":"安西里","LIN":"54鄰","STREET":"佳安西路","SECT":" ","MAREA":" ","LANE":"１巷","ALLEY":" ","HOUSE_NO":"４０號","E_COORD97":163735.04999999999,"N_COORD97":2562340.2999999998,"ADDRESS":"佳安西路１巷４０號","OBJECTID":317682},"geometry":{"x":163735.04999999981,"y":2562340.3000000007}},{"attributes":{"ID":317691,"DIS_CODE":0,"TOWNNAME":"白河區","LI":"永安里","LIN":"21鄰","STREET":"中山路","SECT":" ","MAREA":" ","LANE":" ","ALLEY":" ","HOUSE_NO":"１之７０號","E_COORD97":189848.11483599999,"N_COORD97":2582630.0197999999,"ADDRESS":"中山路１之７０號","OBJECTID":317683},"geometry":{"x":189848.11483599991,"y":2582630.019801002}},{"attributes":{"ID":317692,"DIS_CODE":0,"TOWNNAME":"佳里區","LI":"安西里","LIN":"54鄰","STREET":"佳安西路","SECT":" ","MAREA":" ","LANE":"１巷","ALLEY":" ","HOUSE_NO":"５號","E_COORD97":163678.38,"N_COORD97":2562357.7400000002,"ADDRESS":"佳安西路１巷５號","OBJECTID":317684},"geometry":{"x":163678.38000000082,"y":2562357.7400000002}},{"attributes":{"ID":317693,"DIS_CODE":0,"TOWNNAME":"佳里區","LI":"安西里","LIN":"54鄰","STREET":"佳安西路","SECT":" ","MAREA":" ","LANE":"１巷","ALLEY":" ","HOUSE_NO":"６號","E_COORD97":163673.54999999999,"N_COORD97":2562340.71,"ADDRESS":"佳安西路１巷６號","OBJECTID":317685},"geometry":{"x":163673.55000000075,"y":2562340.7100000009}},{"attributes":{"ID":317694,"DIS_CODE":0,"TOWNNAME":"佳里區","LI":"安西里","LIN":"54鄰","STREET":"佳安西路","SECT":" ","MAREA":" ","LANE":"１巷","ALLEY":" ","HOUSE_NO":"７號","E_COORD97":163683.01999999999,"N_COORD97":2562357.2799999998,"ADDRESS":"佳安西路１巷７號","OBJECTID":317686},"geometry":{"x":163683.01999999862,"y":2562357.2800000012}},{"attributes":{"ID":317695,"DIS_CODE":0,"TOWNNAME":"佳里區","LI":"安西里","LIN":"54鄰","STREET":"佳安西路","SECT":" ","MAREA":" ","LANE":"１巷","ALLEY":" ","HOUSE_NO":"８號","E_COORD97":163678.10999999999,"N_COORD97":2562341.1899999999,"ADDRESS":"佳安西路１巷８號","OBJECTID":317687},"geometry":{"x":163678.11000000034,"y":2562341.1900000013}},{"attributes":{"ID":317696,"DIS_CODE":0,"TOWNNAME":"佳里區","LI":"安西里","LIN":"54鄰","STREET":"佳安西路","SECT":" ","MAREA":" ","LANE":"１巷","ALLEY":" ","HOUSE_NO":"９號","E_COORD97":163687.32000000001,"N_COORD97":2562357.1400000001,"ADDRESS":"佳安西路１巷９號","OBJECTID":317688},"geometry":{"x":163687.32000000123,"y":2562357.1400000025}},{"attributes":{"ID":317697,"DIS_CODE":0,"TOWNNAME":"佳里區","LI":"安西里","LIN":"54鄰","STREET":"佳安西路","SECT":" ","MAREA":" ","LANE":"３巷","ALLEY":" ","HOUSE_NO":"１０號","E_COORD97":163681.48000000001,"N_COORD97":2562311.3399999999,"ADDRESS":"佳安西路３巷１０號","OBJECTID":317689},"geometry":{"x":163681.48000000138,"y":2562311.3399999999}},{"attributes":{"ID":317698,"DIS_CODE":0,"TOWNNAME":"佳里區","LI":"安西里","LIN":"54鄰","STREET":"佳安西路","SECT":" ","MAREA":" ","LANE":"３巷","ALLEY":" ","HOUSE_NO":"１１號","E_COORD97":163690.79999999999,"N_COORD97":2562325.9700000002,"ADDRESS":"佳安西路３巷１１號","OBJECTID":317690},"geometry":{"x":163690.80000000075,"y":2562325.9700000007}},{"attributes":{"ID":317699,"DIS_CODE":0,"TOWNNAME":"佳里區","LI":"安西里","LIN":"54鄰","STREET":"佳安西路","SECT":" ","MAREA":" ","LANE":"３巷","ALLEY":" ","HOUSE_NO":"１２號","E_COORD97":163686.34,"N_COORD97":2562311.3900000001,"ADDRESS":"佳安西路３巷１２號","OBJECTID":317691},"geometry":{"x":163686.34000000171,"y":2562311.3900000025}},{"attributes":{"ID":317700,"DIS_CODE":0,"TOWNNAME":"佳里區","LI":"安西里","LIN":"54鄰","STREET":"佳安西路","SECT":" ","MAREA":" ","LANE":"３巷","ALLEY":" ","HOUSE_NO":"１３號","E_COORD97":163695.26000000001,"N_COORD97":2562325.4399999999,"ADDRESS":"佳安西路３巷１３號","OBJECTID":317692},"geometry":{"x":163695.26000000164,"y":2562325.4400000032}},{"attributes":{"ID":317701,"DIS_CODE":0,"TOWNNAME":"佳里區","LI":"安西里","LIN":"54鄰","STREET":"佳安西路","SECT":" ","MAREA":" ","LANE":"３巷","ALLEY":" ","HOUSE_NO":"１５號","E_COORD97":163699.95999999999,"N_COORD97":2562325.46,"ADDRESS":"佳安西路３巷１５號","OBJECTID":317693},"geometry":{"x":163699.96000000089,"y":2562325.4600000009}},{"attributes":{"ID":317702,"DIS_CODE":0,"TOWNNAME":"佳里區","LI":"安西里","LIN":"54鄰","STREET":"佳安西路","SECT":" ","MAREA":" ","LANE":"３巷","ALLEY":" ","HOUSE_NO":"１６號","E_COORD97":163690.35000000001,"N_COORD97":2562311.79,"ADDRESS":"佳安西路３巷１６號","OBJECTID":317694},"geometry":{"x":163690.34999999963,"y":2562311.7899999991}},{"attributes":{"ID":317703,"DIS_CODE":0,"TOWNNAME":"佳里區","LI":"安西里","LIN":"54鄰","STREET":"佳安西路","SECT":" ","MAREA":" ","LANE":"３巷","ALLEY":" ","HOUSE_NO":"１７號","E_COORD97":163704.89999999999,"N_COORD97":2562325.2799999998,"ADDRESS":"佳安西路３巷１７號","OBJECTID":317695},"geometry":{"x":163704.90000000037,"y":2562325.2799999993}},{"attributes":{"ID":317704,"DIS_CODE":0,"TOWNNAME":"佳里區","LI":"安西里","LIN":"54鄰","STREET":"佳安西路","SECT":" ","MAREA":" ","LANE":"３巷","ALLEY":" ","HOUSE_NO":"１８號","E_COORD97":163695.09,"N_COORD97":2562311.7799999998,"ADDRESS":"佳安西路３巷１８號","OBJECTID":317696},"geometry":{"x":163695.09000000078,"y":2562311.7799999993}},{"attributes":{"ID":317705,"DIS_CODE":0,"TOWNNAME":"佳里區","LI":"安西里","LIN":"54鄰","STREET":"佳安西路","SECT":" ","MAREA":" ","LANE":"３巷","ALLEY":" ","HOUSE_NO":"１９號","E_COORD97":163709.31,"N_COORD97":2562325.5299999998,"ADDRESS":"佳安西路３巷１９號","OBJECTID":317697},"geometry":{"x":163709.30999999959,"y":2562325.5300000012}},{"attributes":{"ID":317706,"DIS_CODE":0,"TOWNNAME":"佳里區","LI":"安西里","LIN":"54鄰","STREET":"佳安西路","SECT":" ","MAREA":" ","LANE":"３巷","ALLEY":" ","HOUSE_NO":"１號","E_COORD97":163669.13,"N_COORD97":2562326.04,"ADDRESS":"佳安西路３巷１號","OBJECTID":317698},"geometry":{"x":163669.13000000175,"y":2562326.0399999991}},{"attributes":{"ID":317707,"DIS_CODE":0,"TOWNNAME":"佳里區","LI":"安西里","LIN":"54鄰","STREET":"佳安西路","SECT":" ","MAREA":" ","LANE":"３巷","ALLEY":" ","HOUSE_NO":"２０號","E_COORD97":163699.56,"N_COORD97":2562311.3399999999,"ADDRESS":"佳安西路３巷２０號","OBJECTID":317699},"geometry":{"x":163699.55999999959,"y":2562311.3399999999}},{"attributes":{"ID":317708,"DIS_CODE":0,"TOWNNAME":"佳里區","LI":"安西里","LIN":"54鄰","STREET":"佳安西路","SECT":" ","MAREA":" ","LANE":"３巷","ALLEY":" ","HOUSE_NO":"２１號","E_COORD97":163713.48000000001,"N_COORD97":2562325.1600000001,"ADDRESS":"佳安西路３巷２１號","OBJECTID":317700},"geometry":{"x":163713.48000000138,"y":2562325.160000002}},{"attributes":{"ID":317709,"DIS_CODE":0,"TOWNNAME":"佳里區","LI":"安西里","LIN":"54鄰","STREET":"佳安西路","SECT":" ","MAREA":" ","LANE":"３巷","ALLEY":" ","HOUSE_NO":"２２號","E_COORD97":163704.48999999999,"N_COORD97":2562311.79,"ADDRESS":"佳安西路３巷２２號","OBJECTID":317701},"geometry":{"x":163704.49000000209,"y":2562311.7899999991}},{"attributes":{"ID":317710,"DIS_CODE":0,"TOWNNAME":"佳里區","LI":"安西里","LIN":"54鄰","STREET":"佳安西路","SECT":" ","MAREA":" ","LANE":"３巷","ALLEY":" ","HOUSE_NO":"２３號","E_COORD97":163717.69,"N_COORD97":2562325.27,"ADDRESS":"佳安西路３巷２３號","OBJECTID":317702},"geometry":{"x":163717.69000000041,"y":2562325.2699999996}},{"attributes":{"ID":317711,"DIS_CODE":0,"TOWNNAME":"佳里區","LI":"安西里","LIN":"54鄰","STREET":"佳安西路","SECT":" ","MAREA":" ","LANE":"３巷","ALLEY":" ","HOUSE_NO":"２５號","E_COORD97":163722.64000000001,"N_COORD97":2562325.5099999998,"ADDRESS":"佳安西路３巷２５號","OBJECTID":317703},"geometry":{"x":163722.63999999966,"y":2562325.5100000016}},{"attributes":{"ID":317712,"DIS_CODE":0,"TOWNNAME":"佳里區","LI":"安西里","LIN":"54鄰","STREET":"佳安西路","SECT":" ","MAREA":" ","LANE":"３巷","ALLEY":" ","HOUSE_NO":"２６號","E_COORD97":163708.32999999999,"N_COORD97":2562311.4700000002,"ADDRESS":"佳安西路３巷２６號","OBJECTID":317704},"geometry":{"x":163708.33000000007,"y":2562311.4700000007}},{"attributes":{"ID":317713,"DIS_CODE":0,"TOWNNAME":"佳里區","LI":"安西里","LIN":"54鄰","STREET":"佳安西路","SECT":" ","MAREA":" ","LANE":"３巷","ALLEY":" ","HOUSE_NO":"２７號","E_COORD97":163727.01999999999,"N_COORD97":2562325.2000000002,"ADDRESS":"佳安西路３巷２７號","OBJECTID":317705},"geometry":{"x":163727.01999999955,"y":2562325.1999999993}},{"attributes":{"ID":317714,"DIS_CODE":0,"TOWNNAME":"仁德區","LI":"新田里","LIN":"17鄰","STREET":"民安路","SECT":"二段","MAREA":" ","LANE":" ","ALLEY":" ","HOUSE_NO":"７７號二樓之１","E_COORD97":173501.17999999999,"N_COORD97":2539215.3100000001,"ADDRESS":"民安路二段７７號二樓之１","OBJECTID":317706},"geometry":{"x":173501.18000000063,"y":2539215.3100000042}},{"attributes":{"ID":317715,"DIS_CODE":0,"TOWNNAME":"歸仁區","LI":"看東里","LIN":"3鄰","STREET":"成功六街","SECT":" ","MAREA":" ","LANE":"３８巷","ALLEY":" ","HOUSE_NO":"７０號","E_COORD97":178473.35071299999,"N_COORD97":2540273.71294,"ADDRESS":"成功六街３８巷７０號","OBJECTID":317707},"geometry":{"x":178473.35071300063,"y":2540273.712944001}},{"attributes":{"ID":317716,"DIS_CODE":0,"TOWNNAME":"南化區","LI":"北寮里","LIN":"7鄰","STREET":" ","SECT":" ","MAREA":"北寮","LANE":" ","ALLEY":" ","HOUSE_NO":"９２號","E_COORD97":197812.29000000001,"N_COORD97":2553084.7400000002,"ADDRESS":"北寮９２號","OBJECTID":317708},"geometry":{"x":197812.29000000004,"y":2553084.7400000002}},{"attributes":{"ID":317717,"DIS_CODE":0,"TOWNNAME":"麻豆區","LI":"大埕里","LIN":"9鄰","STREET":" ","SECT":" ","MAREA":"大埕","LANE":" ","ALLEY":" ","HOUSE_NO":"２２號之１４","E_COORD97":173106.64000000001,"N_COORD97":2565149.6400000001,"ADDRESS":"大埕２２號之１４","OBJECTID":317709},"geometry":{"x":173106.6400000006,"y":2565149.6400000043}},{"attributes":{"ID":317718,"DIS_CODE":0,"TOWNNAME":"歸仁區","LI":"南保里","LIN":"54鄰","STREET":"大順五街","SECT":" ","MAREA":" ","LANE":"８３巷","ALLEY":" ","HOUSE_NO":"７號","E_COORD97":176754.07000000001,"N_COORD97":2540514.25,"ADDRESS":"大順五街８３巷７號","OBJECTID":317710},"geometry":{"x":176754.07000000123,"y":2540514.2500000019}},{"attributes":{"ID":317719,"DIS_CODE":0,"TOWNNAME":"北區","LI":"大港里","LIN":"17鄰","STREET":"大興街","SECT":" ","MAREA":" ","LANE":"２４６巷","ALLEY":" ","HOUSE_NO":"１００號","E_COORD97":166602.79999999999,"N_COORD97":2545902.5600000001,"ADDRESS":"大興街２４６巷１００號","OBJECTID":317711},"geometry":{"x":166602.80000000075,"y":2545902.5600000042}},{"attributes":{"ID":317720,"DIS_CODE":0,"TOWNNAME":"北區","LI":"大港里","LIN":"17鄰","STREET":"大興街","SECT":" ","MAREA":" ","LANE":"２４６巷","ALLEY":" ","HOUSE_NO":"１０２號","E_COORD97":166598.62,"N_COORD97":2545901.2200000002,"ADDRESS":"大興街２４６巷１０２號","OBJECTID":317712},"geometry":{"x":166598.62000000011,"y":2545901.2200000007}},{"attributes":{"ID":317721,"DIS_CODE":0,"TOWNNAME":"北區","LI":"大港里","LIN":"17鄰","STREET":"大興街","SECT":" ","MAREA":" ","LANE":"２４６巷","ALLEY":" ","HOUSE_NO":"１０４號","E_COORD97":166594.78,"N_COORD97":2545900.2200000002,"ADDRESS":"大興街２４６巷１０４號","OBJECTID":317713},"geometry":{"x":166594.78000000119,"y":2545900.2200000007}},{"attributes":{"ID":317722,"DIS_CODE":0,"TOWNNAME":"北區","LI":"大港里","LIN":"17鄰","STREET":"大興街","SECT":" ","MAREA":" ","LANE":"２４６巷","ALLEY":" ","HOUSE_NO":"１０６號","E_COORD97":166591.44,"N_COORD97":2545898.8900000001,"ADDRESS":"大興街２４６巷１０６號","OBJECTID":317714},"geometry":{"x":166591.44000000041,"y":2545898.8900000006}},{"attributes":{"ID":317723,"DIS_CODE":0,"TOWNNAME":"北區","LI":"大港里","LIN":"17鄰","STREET":"大興街","SECT":" ","MAREA":" ","LANE":"２４６巷","ALLEY":" ","HOUSE_NO":"１０８號","E_COORD97":166587.26000000001,"N_COORD97":2545898.2200000002,"ADDRESS":"大興街２４６巷１０８號","OBJECTID":317715},"geometry":{"x":166587.26000000164,"y":2545898.2200000044}},{"attributes":{"ID":317724,"DIS_CODE":0,"TOWNNAME":"北區","LI":"大港里","LIN":"17鄰","STREET":"大興街","SECT":" ","MAREA":" ","LANE":"２４６巷","ALLEY":" ","HOUSE_NO":"１１０號","E_COORD97":166583.92000000001,"N_COORD97":2545897.0499999998,"ADDRESS":"大興街２４６巷１１０號","OBJECTID":317716},"geometry":{"x":166583.91999999993,"y":2545897.0500000026}},{"attributes":{"ID":317725,"DIS_CODE":0,"TOWNNAME":"北區","LI":"大港里","LIN":"17鄰","STREET":"大興街","SECT":" ","MAREA":" ","LANE":"２４６巷","ALLEY":" ","HOUSE_NO":"１１２號","E_COORD97":166579.57999999999,"N_COORD97":2545895.2200000002,"ADDRESS":"大興街２４６巷１１２號","OBJECTID":317717},"geometry":{"x":166579.58000000007,"y":2545895.2200000044}},{"attributes":{"ID":317726,"DIS_CODE":0,"TOWNNAME":"北區","LI":"大港里","LIN":"17鄰","STREET":"大興街","SECT":" ","MAREA":" ","LANE":"２４６巷","ALLEY":" ","HOUSE_NO":"１１４號","E_COORD97":166574.89999999999,"N_COORD97":2545911.2400000002,"ADDRESS":"大興街２４６巷１１４號","OBJECTID":317718},"geometry":{"x":166574.90000000037,"y":2545911.2400000039}},{"attributes":{"ID":317727,"DIS_CODE":0,"TOWNNAME":"北區","LI":"大港里","LIN":"17鄰","STREET":"大興街","SECT":" ","MAREA":" ","LANE":"２４６巷","ALLEY":" ","HOUSE_NO":"１１６號","E_COORD97":166573.56,"N_COORD97":2545915.4100000001,"ADDRESS":"大興街２４６巷１１６號","OBJECTID":317719},"geometry":{"x":166573.56000000052,"y":2545915.4100000001}},{"attributes":{"ID":317728,"DIS_CODE":0,"TOWNNAME":"北區","LI":"大港里","LIN":"17鄰","STREET":"大興街","SECT":" ","MAREA":" ","LANE":"２４６巷","ALLEY":" ","HOUSE_NO":"１１８號","E_COORD97":166572.73000000001,"N_COORD97":2545918.7400000002,"ADDRESS":"大興街２４６巷１１８號","OBJECTID":317720},"geometry":{"x":166572.73000000045,"y":2545918.7400000021}},{"attributes":{"ID":317729,"DIS_CODE":0,"TOWNNAME":"佳里區","LI":"建南里","LIN":"1鄰","STREET":"中和街","SECT":" ","MAREA":" ","LANE":" ","ALLEY":" ","HOUSE_NO":"９２號","E_COORD97":165607.95999999999,"N_COORD97":2562362.6600000001,"ADDRESS":"中和街９２號","OBJECTID":317721},"geometry":{"x":165607.95999999903,"y":2562362.660000002}},{"attributes":{"ID":317730,"DIS_CODE":0,"TOWNNAME":"新化區","LI":"豐榮里","LIN":"1鄰","STREET":"中山路","SECT":" ","MAREA":" ","LANE":" ","ALLEY":" ","HOUSE_NO":"５８７號","E_COORD97":178317.31,"N_COORD97":2548467.25,"ADDRESS":"中山路５８７號","OBJECTID":317722},"geometry":{"x":178317.30999999959,"y":2548467.2500000037}},{"attributes":{"ID":317731,"DIS_CODE":0,"TOWNNAME":"新化區","LI":"東榮里","LIN":"1鄰","STREET":"中興路","SECT":" ","MAREA":" ","LANE":" ","ALLEY":" ","HOUSE_NO":"４１２號","E_COORD97":180593.41,"N_COORD97":2547537.25,"ADDRESS":"中興路４１２號","OBJECTID":317723},"geometry":{"x":180593.41000000015,"y":2547537.25}},{"attributes":{"ID":317732,"DIS_CODE":0,"TOWNNAME":"新化區","LI":"太平里","LIN":"1鄰","STREET":"中正路","SECT":" ","MAREA":" ","LANE":" ","ALLEY":" ","HOUSE_NO":"５０６號之５","E_COORD97":179007.57000000001,"N_COORD97":2548743.2599999998,"ADDRESS":"中正路５０６號之５","OBJECTID":317724},"geometry":{"x":179007.5700000003,"y":2548743.2600000016}},{"attributes":{"ID":317733,"DIS_CODE":0,"TOWNNAME":"新化區","LI":"東榮里","LIN":"1鄰","STREET":"中興路","SECT":" ","MAREA":" ","LANE":" ","ALLEY":" ","HOUSE_NO":"４０８號","E_COORD97":180603.10999999999,"N_COORD97":2547531.25,"ADDRESS":"中興路４０８號","OBJECTID":317725},"geometry":{"x":180603.1100000022,"y":2547531.25}},{"attributes":{"ID":317734,"DIS_CODE":0,"TOWNNAME":"新化區","LI":"竹林里","LIN":"1鄰","STREET":"竹林路","SECT":" ","MAREA":" ","LANE":" ","ALLEY":" ","HOUSE_NO":"８３號","E_COORD97":178817.28,"N_COORD97":2548622.25,"ADDRESS":"竹林路８３號","OBJECTID":317726},"geometry":{"x":178817.28000000119,"y":2548622.25}},{"attributes":{"ID":317735,"DIS_CODE":0,"TOWNNAME":"新化區","LI":"太平里","LIN":"1鄰","STREET":"建國街","SECT":" ","MAREA":" ","LANE":" ","ALLEY":" ","HOUSE_NO":"４１號","E_COORD97":179178.253987,"N_COORD97":2548671.8074099999,"ADDRESS":"建國街４１號","OBJECTID":317727},"geometry":{"x":179178.25398700126,"y":2548671.807407001}},{"attributes":{"ID":317736,"DIS_CODE":0,"TOWNNAME":"新化區","LI":"竹林里","LIN":"1鄰","STREET":"竹林路","SECT":" ","MAREA":" ","LANE":" ","ALLEY":" ","HOUSE_NO":"８７號","E_COORD97":178815.98000000001,"N_COORD97":2548631.2400000002,"ADDRESS":"竹林路８７號","OBJECTID":317728},"geometry":{"x":178815.98000000138,"y":2548631.2400000021}},{"attributes":{"ID":317737,"DIS_CODE":0,"TOWNNAME":"新化區","LI":"唪口里","LIN":"1鄰","STREET":"大德路","SECT":" ","MAREA":" ","LANE":" ","ALLEY":" ","HOUSE_NO":"１８２號之１","E_COORD97":177710.76000000001,"N_COORD97":2549417.2599999998,"ADDRESS":"大德路１８２號之１","OBJECTID":317729},"geometry":{"x":177710.75999999978,"y":2549417.2600000016}},{"attributes":{"ID":317738,"DIS_CODE":0,"TOWNNAME":"新化區","LI":"清水里","LIN":"1鄰","STREET":"中山路","SECT":" ","MAREA":" ","LANE":" ","ALLEY":" ","HOUSE_NO":"３９９號","E_COORD97":178775.10999999999,"N_COORD97":2548378.25,"ADDRESS":"中山路３９９號","OBJECTID":317730},"geometry":{"x":178775.11000000034,"y":2548378.25}},{"attributes":{"ID":317739,"DIS_CODE":0,"TOWNNAME":"新化區","LI":"東榮里","LIN":"1鄰","STREET":"中興路","SECT":" ","MAREA":" ","LANE":" ","ALLEY":" ","HOUSE_NO":"４１０號","E_COORD97":180598.41,"N_COORD97":2547534.25,"ADDRESS":"中興路４１０號","OBJECTID":317731},"geometry":{"x":180598.41000000015,"y":2547534.25}},{"attributes":{"ID":317740,"DIS_CODE":0,"TOWNNAME":"新化區","LI":"東榮里","LIN":"1鄰","STREET":"中興路","SECT":" ","MAREA":" ","LANE":" ","ALLEY":" ","HOUSE_NO":"１０６號","E_COORD97":181856.31,"N_COORD97":2547325.25,"ADDRESS":"中興路１０６號","OBJECTID":317732},"geometry":{"x":181856.30999999959,"y":2547325.2500000019}},{"attributes":{"ID":317741,"DIS_CODE":0,"TOWNNAME":"新化區","LI":"太平里","LIN":"1鄰","STREET":"建國街","SECT":" ","MAREA":" ","LANE":" ","ALLEY":" ","HOUSE_NO":"３１號之３","E_COORD97":179180.92999999999,"N_COORD97":2548647.2599999998,"ADDRESS":"建國街３１號之３","OBJECTID":317733},"geometry":{"x":179180.9299999997,"y":2548647.2600000016}},{"attributes":{"ID":317742,"DIS_CODE":0,"TOWNNAME":"新化區","LI":"清水里","LIN":"1鄰","STREET":"和平街","SECT":" ","MAREA":" ","LANE":" ","ALLEY":" ","HOUSE_NO":"２０１號","E_COORD97":178882.62,"N_COORD97":2548376.25,"ADDRESS":"和平街２０１號","OBJECTID":317734},"geometry":{"x":178882.62000000104,"y":2548376.2500000019}},{"attributes":{"ID":317743,"DIS_CODE":0,"TOWNNAME":"新化區","LI":"唪口里","LIN":"1鄰","STREET":"大德路","SECT":" ","MAREA":" ","LANE":" ","ALLEY":" ","HOUSE_NO":"３９號","E_COORD97":178389.38,"N_COORD97":2549366.25,"ADDRESS":"大德路３９號","OBJECTID":317735},"geometry":{"x":178389.37999999989,"y":2549366.2500000019}},{"attributes":{"ID":317744,"DIS_CODE":0,"TOWNNAME":"永康區","LI":"二王里","LIN":"4鄰","STREET":"二王路","SECT":" ","MAREA":" ","LANE":" ","ALLEY":" ","HOUSE_NO":"３６號","E_COORD97":173006.644554,"N_COORD97":2546794.1382200001,"ADDRESS":"二王路３６號","OBJECTID":317736},"geometry":{"x":173006.64455400128,"y":2546794.1382160038}},{"attributes":{"ID":317745,"DIS_CODE":0,"TOWNNAME":"佳里區","LI":"建南里","LIN":"5鄰","STREET":"光復路","SECT":" ","MAREA":" ","LANE":" ","ALLEY":" ","HOUSE_NO":"２１０號","E_COORD97":165516.533574,"N_COORD97":2562360.22291,"ADDRESS":"光復路２１０號","OBJECTID":317737},"geometry":{"x":165516.53357400093,"y":2562360.2229050025}},{"attributes":{"ID":317746,"DIS_CODE":0,"TOWNNAME":"北區","LI":"大港里","LIN":"24鄰","STREET":"中華北路","SECT":"一段","MAREA":" ","LANE":"２０３巷","ALLEY":" ","HOUSE_NO":"６６號","E_COORD97":166279.26999999999,"N_COORD97":2545684.6499999999,"ADDRESS":"中華北路一段２０３巷６６號","OBJECTID":317738},"geometry":{"x":166279.27000000048,"y":2545684.6499999985}},{"attributes":{"ID":317747,"DIS_CODE":0,"TOWNNAME":"北區","LI":"大港里","LIN":"31鄰","STREET":"賢北街","SECT":" ","MAREA":" ","LANE":"２２５巷","ALLEY":" ","HOUSE_NO":"１００號","E_COORD97":166045.85999999999,"N_COORD97":2545635.73,"ADDRESS":"賢北街２２５巷１００號","OBJECTID":317739},"geometry":{"x":166045.86000000034,"y":2545635.7300000004}},{"attributes":{"ID":317748,"DIS_CODE":0,"TOWNNAME":"將軍區","LI":"長沙里","LIN":"9鄰","STREET":" ","SECT":" ","MAREA":"長沙","LANE":" ","ALLEY":" ","HOUSE_NO":"７５號","E_COORD97":157261.54051300001,"N_COORD97":2568698.2212700001,"ADDRESS":"長沙７５號","OBJECTID":317740},"geometry":{"x":157261.54051300231,"y":2568698.2212680001}},{"attributes":{"ID":317749,"DIS_CODE":0,"TOWNNAME":"北區","LI":"大港里","LIN":"31鄰","STREET":"賢北街","SECT":" ","MAREA":" ","LANE":"２２５巷","ALLEY":" ","HOUSE_NO":"１０２號","E_COORD97":166049.73000000001,"N_COORD97":2545630.1000000001,"ADDRESS":"賢北街２２５巷１０２號","OBJECTID":317741},"geometry":{"x":166049.73000000138,"y":2545630.1000000034}},{"attributes":{"ID":317750,"DIS_CODE":0,"TOWNNAME":"北區","LI":"大港里","LIN":"31鄰","STREET":"賢北街","SECT":" ","MAREA":" ","LANE":"２２５巷","ALLEY":" ","HOUSE_NO":"１０４號","E_COORD97":166052.73000000001,"N_COORD97":2545625.6899999999,"ADDRESS":"賢北街２２５巷１０４號","OBJECTID":317742},"geometry":{"x":166052.73000000138,"y":2545625.6899999995}},{"attributes":{"ID":317751,"DIS_CODE":0,"TOWNNAME":"北區","LI":"大港里","LIN":"31鄰","STREET":"賢北街","SECT":" ","MAREA":" ","LANE":"２２５巷","ALLEY":" ","HOUSE_NO":"１０６號","E_COORD97":166057.48000000001,"N_COORD97":2545619.1800000002,"ADDRESS":"賢北街２２５巷１０６號","OBJECTID":317743},"geometry":{"x":166057.48000000045,"y":2545619.1799999997}},{"attributes":{"ID":317752,"DIS_CODE":0,"TOWNNAME":"下營區","LI":"西連里","LIN":" ","STREET":" ","SECT":" ","MAREA":"西寮","LANE":" ","ALLEY":" ","HOUSE_NO":"２３號","E_COORD97":174609.01000000001,"N_COORD97":2567462.4700000002,"ADDRESS":"西寮２３號","OBJECTID":317744},"geometry":{"x":174609.01000000164,"y":2567462.4700000007}},{"attributes":{"ID":317753,"DIS_CODE":0,"TOWNNAME":"北區","LI":"大港里","LIN":"31鄰","STREET":"賢北街","SECT":" ","MAREA":" ","LANE":"２２５巷","ALLEY":" ","HOUSE_NO":"１０８號","E_COORD97":166060.64999999999,"N_COORD97":2545614.77,"ADDRESS":"賢北街２２５巷１０８號","OBJECTID":317745},"geometry":{"x":166060.65000000037,"y":2545614.7699999996}},{"attributes":{"ID":317754,"DIS_CODE":0,"TOWNNAME":"北區","LI":"大港里","LIN":"31鄰","STREET":"賢北街","SECT":" ","MAREA":" ","LANE":"２２５巷","ALLEY":" ","HOUSE_NO":"１０號","E_COORD97":166153.88,"N_COORD97":2545656.5899999999,"ADDRESS":"賢北街２２５巷１０號","OBJECTID":317746},"geometry":{"x":166153.87999999989,"y":2545656.5899999999}},{"attributes":{"ID":317755,"DIS_CODE":0,"TOWNNAME":"北區","LI":"大港里","LIN":"30鄰","STREET":"賢北街","SECT":" ","MAREA":" ","LANE":"１９５巷","ALLEY":" ","HOUSE_NO":"２號","E_COORD97":166192.91,"N_COORD97":2545595.7000000002,"ADDRESS":"賢北街１９５巷２號","OBJECTID":317747},"geometry":{"x":166192.91000000015,"y":2545595.7000000011}},{"attributes":{"ID":317756,"DIS_CODE":0,"TOWNNAME":"北區","LI":"大港里","LIN":"34鄰","STREET":"大興街","SECT":" ","MAREA":" ","LANE":"６０２巷","ALLEY":" ","HOUSE_NO":"１０號","E_COORD97":165833.62,"N_COORD97":2545447.98,"ADDRESS":"大興街６０２巷１０號","OBJECTID":317748},"geometry":{"x":165833.62000000011,"y":2545447.9800000004}},{"attributes":{"ID":317757,"DIS_CODE":0,"TOWNNAME":"北區","LI":"大港里","LIN":"34鄰","STREET":"大興街","SECT":" ","MAREA":" ","LANE":"６０２巷","ALLEY":" ","HOUSE_NO":"１２號","E_COORD97":165831.64999999999,"N_COORD97":2545452.3900000001,"ADDRESS":"大興街６０２巷１２號","OBJECTID":317749},"geometry":{"x":165831.6500000013,"y":2545452.3900000006}},{"attributes":{"ID":317758,"DIS_CODE":0,"TOWNNAME":"佳里區","LI":"安西里","LIN":"54鄰","STREET":"佳安西路","SECT":" ","MAREA":" ","LANE":"３巷","ALLEY":" ","HOUSE_NO":"２８號","E_COORD97":163713.48000000001,"N_COORD97":2562311.77,"ADDRESS":"佳安西路３巷２８號","OBJECTID":317750},"geometry":{"x":163713.48000000138,"y":2562311.7699999996}},{"attributes":{"ID":317759,"DIS_CODE":0,"TOWNNAME":"佳里區","LI":"安西里","LIN":"54鄰","STREET":"佳安西路","SECT":" ","MAREA":" ","LANE":"３巷","ALLEY":" ","HOUSE_NO":"２９號","E_COORD97":163731.39999999999,"N_COORD97":2562325.1699999999,"ADDRESS":"佳安西路３巷２９號","OBJECTID":317751},"geometry":{"x":163731.4000000013,"y":2562325.1700000018}},{"attributes":{"ID":317760,"DIS_CODE":0,"TOWNNAME":"佳里區","LI":"安西里","LIN":"54鄰","STREET":"佳安西路","SECT":" ","MAREA":" ","LANE":"３巷","ALLEY":" ","HOUSE_NO":"２號","E_COORD97":163668.41,"N_COORD97":2562311.96,"ADDRESS":"佳安西路３巷２號","OBJECTID":317752},"geometry":{"x":163668.41000000108,"y":2562311.9600000009}},{"attributes":{"ID":317761,"DIS_CODE":0,"TOWNNAME":"佳里區","LI":"安西里","LIN":"54鄰","STREET":"佳安西路","SECT":" ","MAREA":" ","LANE":"３巷","ALLEY":" ","HOUSE_NO":"３０號","E_COORD97":163717.53,"N_COORD97":2562311.1499999999,"ADDRESS":"佳安西路３巷３０號","OBJECTID":317753},"geometry":{"x":163717.53000000026,"y":2562311.1499999985}},{"attributes":{"ID":317762,"DIS_CODE":0,"TOWNNAME":"新營區","LI":"太北里","LIN":" ","STREET":" ","SECT":" ","MAREA":"太子宮","LANE":" ","ALLEY":" ","HOUSE_NO":"１３之３號","E_COORD97":176187.98000000001,"N_COORD97":2577112.8300000001,"ADDRESS":"太子宮１３之３號","OBJECTID":317754},"geometry":{"x":176187.97999999952,"y":2577112.8300000019}},{"attributes":{"ID":317763,"DIS_CODE":0,"TOWNNAME":"仁德區","LI":"新田里","LIN":"17鄰","STREET":"民安路","SECT":"二段","MAREA":" ","LANE":" ","ALLEY":" ","HOUSE_NO":"７７號之１四樓之１","E_COORD97":173513.39000000001,"N_COORD97":2539241.3100000001,"ADDRESS":"民安路二段７７號之１四樓之１","OBJECTID":317755},"geometry":{"x":173513.3900000006,"y":2539241.3100000005}},{"attributes":{"ID":317764,"DIS_CODE":0,"TOWNNAME":"仁德區","LI":"新田里","LIN":"17鄰","STREET":"民安路","SECT":"二段","MAREA":" ","LANE":" ","ALLEY":" ","HOUSE_NO":"７７號八樓之１","E_COORD97":173501.17999999999,"N_COORD97":2539215.3100000001,"ADDRESS":"民安路二段７７號八樓之１","OBJECTID":317756},"geometry":{"x":173501.18000000063,"y":2539215.3100000042}},{"attributes":{"ID":317765,"DIS_CODE":0,"TOWNNAME":"仁德區","LI":"新田里","LIN":"17鄰","STREET":"民安路","SECT":"二段","MAREA":" ","LANE":" ","ALLEY":" ","HOUSE_NO":"７７號之１七樓之１","E_COORD97":173513.39000000001,"N_COORD97":2539241.3100000001,"ADDRESS":"民安路二段７７號之１七樓之１","OBJECTID":317757},"geometry":{"x":173513.3900000006,"y":2539241.3100000005}},{"attributes":{"ID":317766,"DIS_CODE":0,"TOWNNAME":"仁德區","LI":"新田里","LIN":"17鄰","STREET":"民安路","SECT":"二段","MAREA":" ","LANE":" ","ALLEY":" ","HOUSE_NO":"７７號之１四樓之２","E_COORD97":173513.53,"N_COORD97":2539241.3100000001,"ADDRESS":"民安路二段７７號之１四樓之２","OBJECTID":317758},"geometry":{"x":173513.53000000026,"y":2539241.3100000005}},{"attributes":{"ID":317767,"DIS_CODE":0,"TOWNNAME":"仁德區","LI":"新田里","LIN":"17鄰","STREET":"民安路","SECT":"二段","MAREA":" ","LANE":" ","ALLEY":" ","HOUSE_NO":"７７號之１七樓之２","E_COORD97":173513.53,"N_COORD97":2539241.3100000001,"ADDRESS":"民安路二段７７號之１七樓之２","OBJECTID":317759},"geometry":{"x":173513.53000000026,"y":2539241.3100000005}},{"attributes":{"ID":317768,"DIS_CODE":0,"TOWNNAME":"仁德區","LI":"新田里","LIN":"17鄰","STREET":"民安路","SECT":"二段","MAREA":" ","LANE":" ","ALLEY":" ","HOUSE_NO":"７７號三樓之３","E_COORD97":173501.28,"N_COORD97":2539215.3100000001,"ADDRESS":"民安路二段７７號三樓之３","OBJECTID":317760},"geometry":{"x":173501.28000000119,"y":2539215.3100000042}},{"attributes":{"ID":317769,"DIS_CODE":0,"TOWNNAME":"仁德區","LI":"新田里","LIN":"17鄰","STREET":"民安路","SECT":"二段","MAREA":" ","LANE":" ","ALLEY":" ","HOUSE_NO":"７７號六樓之３","E_COORD97":173501.28,"N_COORD97":2539215.3100000001,"ADDRESS":"民安路二段７７號六樓之３","OBJECTID":317761},"geometry":{"x":173501.28000000119,"y":2539215.3100000042}},{"attributes":{"ID":317770,"DIS_CODE":0,"TOWNNAME":"仁德區","LI":"新田里","LIN":"17鄰","STREET":"民安路","SECT":"二段","MAREA":" ","LANE":" ","ALLEY":" ","HOUSE_NO":"７７號之１二樓之１","E_COORD97":173513.39000000001,"N_COORD97":2539241.3100000001,"ADDRESS":"民安路二段７７號之１二樓之１","OBJECTID":317762},"geometry":{"x":173513.3900000006,"y":2539241.3100000005}},{"attributes":{"ID":317771,"DIS_CODE":0,"TOWNNAME":"仁德區","LI":"新田里","LIN":"17鄰","STREET":"民安路","SECT":"二段","MAREA":" ","LANE":" ","ALLEY":" ","HOUSE_NO":"７７號三樓之１","E_COORD97":173501.17999999999,"N_COORD97":2539215.3100000001,"ADDRESS":"民安路二段７７號三樓之１","OBJECTID":317763},"geometry":{"x":173501.18000000063,"y":2539215.3100000042}},{"attributes":{"ID":317772,"DIS_CODE":0,"TOWNNAME":"仁德區","LI":"新田里","LIN":"17鄰","STREET":"民安路","SECT":"二段","MAREA":" ","LANE":" ","ALLEY":" ","HOUSE_NO":"７７號之１一樓之１","E_COORD97":173513.39000000001,"N_COORD97":2539241.3100000001,"ADDRESS":"民安路二段７７號之１一樓之１","OBJECTID":317764},"geometry":{"x":173513.3900000006,"y":2539241.3100000005}},{"attributes":{"ID":317773,"DIS_CODE":0,"TOWNNAME":"仁德區","LI":"新田里","LIN":"17鄰","STREET":"民安路","SECT":"二段","MAREA":" ","LANE":" ","ALLEY":" ","HOUSE_NO":"７７號八樓之２","E_COORD97":173501.32000000001,"N_COORD97":2539215.3100000001,"ADDRESS":"民安路二段７７號八樓之２","OBJECTID":317765},"geometry":{"x":173501.3200000003,"y":2539215.3100000042}},{"attributes":{"ID":317774,"DIS_CODE":0,"TOWNNAME":"永康區","LI":"復華里","LIN":"21鄰","STREET":"復華七街","SECT":" ","MAREA":" ","LANE":"２２５巷","ALLEY":" ","HOUSE_NO":"３號","E_COORD97":172928.14720800001,"N_COORD97":2546426.3108100002,"ADDRESS":"復華七街２２５巷３號","OBJECTID":317766},"geometry":{"x":172928.1472079996,"y":2546426.3108100016}},{"attributes":{"ID":317775,"DIS_CODE":0,"TOWNNAME":"北區","LI":"大港里","LIN":"34鄰","STREET":"大興街","SECT":" ","MAREA":" ","LANE":"６０２巷","ALLEY":" ","HOUSE_NO":"６號","E_COORD97":165838.89000000001,"N_COORD97":2545441.4399999999,"ADDRESS":"大興街６０２巷６號","OBJECTID":317767},"geometry":{"x":165838.8900000006,"y":2545441.4400000032}},{"attributes":{"ID":317776,"DIS_CODE":0,"TOWNNAME":"北區","LI":"大港里","LIN":"34鄰","STREET":"大興街","SECT":" ","MAREA":" ","LANE":"６０２巷","ALLEY":" ","HOUSE_NO":"８號","E_COORD97":165836.17999999999,"N_COORD97":2545444.1400000001,"ADDRESS":"大興街６０２巷８號","OBJECTID":317768},"geometry":{"x":165836.1799999997,"y":2545444.1400000006}},{"attributes":{"ID":317777,"DIS_CODE":0,"TOWNNAME":"北區","LI":"大港里","LIN":"33鄰","STREET":"大興街","SECT":" ","MAREA":" ","LANE":"６０２巷","ALLEY":" ","HOUSE_NO":"２號","E_COORD97":165857.07000000001,"N_COORD97":2545409.6600000001,"ADDRESS":"大興街６０２巷２號","OBJECTID":317769},"geometry":{"x":165857.07000000123,"y":2545409.6600000001}},{"attributes":{"ID":317778,"DIS_CODE":0,"TOWNNAME":"北區","LI":"大和里","LIN":"13鄰","STREET":"文賢路","SECT":" ","MAREA":" ","LANE":"７９９巷","ALLEY":" ","HOUSE_NO":"１１號","E_COORD97":167291.45999999999,"N_COORD97":2546268.25,"ADDRESS":"文賢路７９９巷１１號","OBJECTID":317770},"geometry":{"x":167291.46000000183,"y":2546268.2500000019}},{"attributes":{"ID":317779,"DIS_CODE":0,"TOWNNAME":"北區","LI":"大和里","LIN":"8鄰","STREET":"文賢路","SECT":" ","MAREA":" ","LANE":"７５９巷","ALLEY":" ","HOUSE_NO":"１０號","E_COORD97":167288.73999999999,"N_COORD97":2546240.6400000001,"ADDRESS":"文賢路７５９巷１０號","OBJECTID":317771},"geometry":{"x":167288.74000000115,"y":2546240.6400000006}},{"attributes":{"ID":317780,"DIS_CODE":0,"TOWNNAME":"佳里區","LI":"安西里","LIN":"54鄰","STREET":"佳安西路","SECT":" ","MAREA":" ","LANE":"３巷","ALLEY":" ","HOUSE_NO":"３１號","E_COORD97":163735.23000000001,"N_COORD97":2562325.6400000001,"ADDRESS":"佳安西路３巷３１號","OBJECTID":317772},"geometry":{"x":163735.23000000231,"y":2562325.6400000025}},{"attributes":{"ID":317781,"DIS_CODE":0,"TOWNNAME":"將軍區","LI":"長沙里","LIN":"9鄰","STREET":" ","SECT":" ","MAREA":"長沙","LANE":" ","ALLEY":" ","HOUSE_NO":"７５之１號","E_COORD97":157262.17620099999,"N_COORD97":2568689.1196099999,"ADDRESS":"長沙７５之１號","OBJECTID":317773},"geometry":{"x":157262.17620099988,"y":2568689.1196069997}},{"attributes":{"ID":317782,"DIS_CODE":0,"TOWNNAME":"佳里區","LI":"安西里","LIN":"54鄰","STREET":"佳安西路","SECT":" ","MAREA":" ","LANE":"３巷","ALLEY":" ","HOUSE_NO":"３２號","E_COORD97":163722.32999999999,"N_COORD97":2562311.3300000001,"ADDRESS":"佳安西路３巷３２號","OBJECTID":317774},"geometry":{"x":163722.33000000194,"y":2562311.3300000019}},{"attributes":{"ID":317783,"DIS_CODE":0,"TOWNNAME":"佳里區","LI":"安西里","LIN":"54鄰","STREET":"佳安西路","SECT":" ","MAREA":" ","LANE":"３巷","ALLEY":" ","HOUSE_NO":"３６號","E_COORD97":163726.51999999999,"N_COORD97":2562310.98,"ADDRESS":"佳安西路３巷３６號","OBJECTID":317775},"geometry":{"x":163726.51999999955,"y":2562310.9800000004}},{"attributes":{"ID":317784,"DIS_CODE":0,"TOWNNAME":"佳里區","LI":"安西里","LIN":"54鄰","STREET":"佳安西路","SECT":" ","MAREA":" ","LANE":"３巷","ALLEY":" ","HOUSE_NO":"３８號","E_COORD97":163731.51000000001,"N_COORD97":2562311.3799999999,"ADDRESS":"佳安西路３巷３８號","OBJECTID":317776},"geometry":{"x":163731.51000000071,"y":2562311.379999999}},{"attributes":{"ID":317785,"DIS_CODE":0,"TOWNNAME":"佳里區","LI":"安西里","LIN":"54鄰","STREET":"佳安西路","SECT":" ","MAREA":" ","LANE":"３巷","ALLEY":" ","HOUSE_NO":"３號","E_COORD97":163673.48000000001,"N_COORD97":2562325.8300000001,"ADDRESS":"佳安西路３巷３號","OBJECTID":317777},"geometry":{"x":163673.48000000045,"y":2562325.8300000001}},{"attributes":{"ID":317786,"DIS_CODE":0,"TOWNNAME":"佳里區","LI":"安西里","LIN":"54鄰","STREET":"佳安西路","SECT":" ","MAREA":" ","LANE":"３巷","ALLEY":" ","HOUSE_NO":"４０號","E_COORD97":163735.63,"N_COORD97":2562310.8599999999,"ADDRESS":"佳安西路３巷４０號","OBJECTID":317778},"geometry":{"x":163735.63000000082,"y":2562310.8599999994}},{"attributes":{"ID":317787,"DIS_CODE":0,"TOWNNAME":"佳里區","LI":"安西里","LIN":"54鄰","STREET":"佳安西路","SECT":" ","MAREA":" ","LANE":"３巷","ALLEY":" ","HOUSE_NO":"５號","E_COORD97":163678.13,"N_COORD97":2562325.8599999999,"ADDRESS":"佳安西路３巷５號","OBJECTID":317779},"geometry":{"x":163678.13000000082,"y":2562325.8600000031}},{"attributes":{"ID":317788,"DIS_CODE":0,"TOWNNAME":"佳里區","LI":"安西里","LIN":"54鄰","STREET":"佳安西路","SECT":" ","MAREA":" ","LANE":"３巷","ALLEY":" ","HOUSE_NO":"６號","E_COORD97":163673.23000000001,"N_COORD97":2562311.9199999999,"ADDRESS":"佳安西路３巷６號","OBJECTID":317780},"geometry":{"x":163673.23000000138,"y":2562311.9199999999}},{"attributes":{"ID":317789,"DIS_CODE":0,"TOWNNAME":"佳里區","LI":"安西里","LIN":"54鄰","STREET":"佳安西路","SECT":" ","MAREA":" ","LANE":"３巷","ALLEY":" ","HOUSE_NO":"７號","E_COORD97":163682.70999999999,"N_COORD97":2562325.6400000001,"ADDRESS":"佳安西路３巷７號","OBJECTID":317781},"geometry":{"x":163682.71000000089,"y":2562325.6400000025}},{"attributes":{"ID":317790,"DIS_CODE":0,"TOWNNAME":"佳里區","LI":"安西里","LIN":"54鄰","STREET":"佳安西路","SECT":" ","MAREA":" ","LANE":"３巷","ALLEY":" ","HOUSE_NO":"８號","E_COORD97":163677.73999999999,"N_COORD97":2562311.8599999999,"ADDRESS":"佳安西路３巷８號","OBJECTID":317782},"geometry":{"x":163677.74000000115,"y":2562311.8599999994}},{"attributes":{"ID":317791,"DIS_CODE":0,"TOWNNAME":"仁德區","LI":"新田里","LIN":"17鄰","STREET":"民安路","SECT":"二段","MAREA":" ","LANE":" ","ALLEY":" ","HOUSE_NO":"７７號五樓之１","E_COORD97":173501.17999999999,"N_COORD97":2539215.3100000001,"ADDRESS":"民安路二段７７號五樓之１","OBJECTID":317783},"geometry":{"x":173501.18000000063,"y":2539215.3100000042}},{"attributes":{"ID":317792,"DIS_CODE":0,"TOWNNAME":"仁德區","LI":"新田里","LIN":"17鄰","STREET":"民安路","SECT":"二段","MAREA":" ","LANE":" ","ALLEY":" ","HOUSE_NO":"７７號六樓之１","E_COORD97":173501.17999999999,"N_COORD97":2539215.3100000001,"ADDRESS":"民安路二段７７號六樓之１","OBJECTID":317784},"geometry":{"x":173501.18000000063,"y":2539215.3100000042}},{"attributes":{"ID":317793,"DIS_CODE":0,"TOWNNAME":"仁德區","LI":"新田里","LIN":"17鄰","STREET":"民安路","SECT":"二段","MAREA":" ","LANE":" ","ALLEY":" ","HOUSE_NO":"７７號七樓之１","E_COORD97":173501.17999999999,"N_COORD97":2539215.3100000001,"ADDRESS":"民安路二段７７號七樓之１","OBJECTID":317785},"geometry":{"x":173501.18000000063,"y":2539215.3100000042}},{"attributes":{"ID":317794,"DIS_CODE":0,"TOWNNAME":"仁德區","LI":"新田里","LIN":"17鄰","STREET":"民安路","SECT":"二段","MAREA":" ","LANE":" ","ALLEY":" ","HOUSE_NO":"７７號之１十一樓之１","E_COORD97":173514.64000000001,"N_COORD97":2539241.3100000001,"ADDRESS":"民安路二段７７號之１十一樓之１","OBJECTID":317786},"geometry":{"x":173514.64000000153,"y":2539241.3100000005}},{"attributes":{"ID":317795,"DIS_CODE":0,"TOWNNAME":"仁德區","LI":"新田里","LIN":"17鄰","STREET":"民安路","SECT":"二段","MAREA":" ","LANE":" ","ALLEY":" ","HOUSE_NO":"７７號之１九樓之１","E_COORD97":173513.39000000001,"N_COORD97":2539241.3100000001,"ADDRESS":"民安路二段７７號之１九樓之１","OBJECTID":317787},"geometry":{"x":173513.3900000006,"y":2539241.3100000005}},{"attributes":{"ID":317796,"DIS_CODE":0,"TOWNNAME":"北區","LI":"大和里","LIN":"24鄰","STREET":"大和路","SECT":" ","MAREA":" ","LANE":"３３０巷","ALLEY":" ","HOUSE_NO":"５９號","E_COORD97":167038.60000000001,"N_COORD97":2546179,"ADDRESS":"大和路３３０巷５９號","OBJECTID":317788},"geometry":{"x":167038.59999999963,"y":2546179}},{"attributes":{"ID":317797,"DIS_CODE":0,"TOWNNAME":"北區","LI":"大和里","LIN":"24鄰","STREET":"大和路","SECT":" ","MAREA":" ","LANE":"３３０巷","ALLEY":" ","HOUSE_NO":"６０號","E_COORD97":167042.76000000001,"N_COORD97":2546154.54,"ADDRESS":"大和路３３０巷６０號","OBJECTID":317789},"geometry":{"x":167042.75999999978,"y":2546154.5399999991}},{"attributes":{"ID":317798,"DIS_CODE":0,"TOWNNAME":"北區","LI":"大和里","LIN":"24鄰","STREET":"大和路","SECT":" ","MAREA":" ","LANE":"３３０巷","ALLEY":" ","HOUSE_NO":"６１號","E_COORD97":167037.29000000001,"N_COORD97":2546183.29,"ADDRESS":"大和路３３０巷６１號","OBJECTID":317790},"geometry":{"x":167037.29000000097,"y":2546183.2899999991}},{"attributes":{"ID":317799,"DIS_CODE":0,"TOWNNAME":"北區","LI":"大和里","LIN":"10鄰","STREET":"大港街","SECT":" ","MAREA":" ","LANE":"３８巷","ALLEY":" ","HOUSE_NO":"１１號","E_COORD97":167146.45999999999,"N_COORD97":2546122.5699999998,"ADDRESS":"大港街３８巷１１號","OBJECTID":317791},"geometry":{"x":167146.45999999996,"y":2546122.5699999984}},{"attributes":{"ID":317800,"DIS_CODE":0,"TOWNNAME":"北區","LI":"大和里","LIN":"10鄰","STREET":"大港街","SECT":" ","MAREA":" ","LANE":"３８巷","ALLEY":" ","HOUSE_NO":"１３號","E_COORD97":167145.48000000001,"N_COORD97":2546126.5299999998,"ADDRESS":"大港街３８巷１３號","OBJECTID":317792},"geometry":{"x":167145.48000000045,"y":2546126.5300000012}},{"attributes":{"ID":317801,"DIS_CODE":0,"TOWNNAME":"北區","LI":"大和里","LIN":"21鄰","STREET":"大港街","SECT":" ","MAREA":" ","LANE":"１１０巷","ALLEY":" ","HOUSE_NO":"１２號","E_COORD97":167068.73999999999,"N_COORD97":2546136.25,"ADDRESS":"大港街１１０巷１２號","OBJECTID":317793},"geometry":{"x":167068.74000000022,"y":2546136.2500000019}},{"attributes":{"ID":317802,"DIS_CODE":0,"TOWNNAME":"佳里區","LI":"安西里","LIN":"54鄰","STREET":"佳安西路","SECT":" ","MAREA":" ","LANE":"３巷","ALLEY":" ","HOUSE_NO":"９號","E_COORD97":163686.79999999999,"N_COORD97":2562325.8799999999,"ADDRESS":"佳安西路３巷９號","OBJECTID":317794},"geometry":{"x":163686.80000000075,"y":2562325.8800000008}},{"attributes":{"ID":317803,"DIS_CODE":0,"TOWNNAME":"佳里區","LI":"安西里","LIN":"54鄰","STREET":"佳安西路","SECT":" ","MAREA":" ","LANE":"５巷","ALLEY":" ","HOUSE_NO":"１０號","E_COORD97":163682.95999999999,"N_COORD97":2562251.2000000002,"ADDRESS":"佳安西路５巷１０號","OBJECTID":317795},"geometry":{"x":163682.96000000089,"y":2562251.1999999993}},{"attributes":{"ID":317804,"DIS_CODE":0,"TOWNNAME":"佳里區","LI":"安西里","LIN":"54鄰","STREET":"佳安西路","SECT":" ","MAREA":" ","LANE":"５巷","ALLEY":" ","HOUSE_NO":"１１號","E_COORD97":163692.01999999999,"N_COORD97":2562267.5299999998,"ADDRESS":"佳安西路５巷１１號","OBJECTID":317796},"geometry":{"x":163692.02000000048,"y":2562267.5300000012}},{"attributes":{"ID":317805,"DIS_CODE":0,"TOWNNAME":"佳里區","LI":"安西里","LIN":"54鄰","STREET":"佳安西路","SECT":" ","MAREA":" ","LANE":"５巷","ALLEY":" ","HOUSE_NO":"１２號","E_COORD97":163686.84,"N_COORD97":2562251.1400000001,"ADDRESS":"佳安西路５巷１２號","OBJECTID":317797},"geometry":{"x":163686.84000000078,"y":2562251.1400000025}},{"attributes":{"ID":317806,"DIS_CODE":0,"TOWNNAME":"佳里區","LI":"安西里","LIN":"54鄰","STREET":"佳安西路","SECT":" ","MAREA":" ","LANE":"５巷","ALLEY":" ","HOUSE_NO":"１３號","E_COORD97":163696.10999999999,"N_COORD97":2562267.75,"ADDRESS":"佳安西路５巷１３號","OBJECTID":317798},"geometry":{"x":163696.11000000034,"y":2562267.7500000019}},{"attributes":{"ID":317807,"DIS_CODE":0,"TOWNNAME":"佳里區","LI":"安西里","LIN":"54鄰","STREET":"佳安西路","SECT":" ","MAREA":" ","LANE":"５巷","ALLEY":" ","HOUSE_NO":"１５號","E_COORD97":163700.92999999999,"N_COORD97":2562267.6400000001,"ADDRESS":"佳安西路５巷１５號","OBJECTID":317799},"geometry":{"x":163700.93000000156,"y":2562267.6400000043}},{"attributes":{"ID":317808,"DIS_CODE":0,"TOWNNAME":"佳里區","LI":"營頂里","LIN":"7鄰","STREET":" ","SECT":" ","MAREA":"營頂","LANE":" ","ALLEY":" ","HOUSE_NO":"７３號","E_COORD97":166964.620115,"N_COORD97":2566551.03736,"ADDRESS":"營頂７３號","OBJECTID":317800},"geometry":{"x":166964.62011500075,"y":2566551.0373560004}}]}