{"displayFieldName":"TOWNNAME","fieldAliases":{"ID":"ID","DIS_CODE":"DIS_CODE","TOWNNAME":"TOWNNAME","LI":"LI","LIN":"LIN","STREET":"STREET","SECT":"SECT","MAREA":"MAREA","LANE":"LANE","ALLEY":"ALLEY","HOUSE_NO":"HOUSE_NO","E_COORD97":"E_COORD97","N_COORD97":"N_COORD97","ADDRESS":"ADDRESS","OBJECTID":"OBJECTID"},"geometryType":"esriGeometryPoint","spatialReference":{"wkid":102443,"latestWkid":3826},"fields":[{"name":"ID","type":"esriFieldTypeDouble","alias":"ID"},{"name":"DIS_CODE","type":"esriFieldTypeInteger","alias":"DIS_CODE"},{"name":"TOWNNAME","type":"esriFieldTypeString","alias":"TOWNNAME","length":8},{"name":"LI","type":"esriFieldTypeString","alias":"LI","length":8},{"name":"LIN","type":"esriFieldTypeString","alias":"LIN","length":12},{"name":"STREET","type":"esriFieldTypeString","alias":"STREET","length":20},{"name":"SECT","type":"esriFieldTypeString","alias":"SECT","length":8},{"name":"MAREA","type":"esriFieldTypeString","alias":"MAREA","length":12},{"name":"LANE","type":"esriFieldTypeString","alias":"LANE","length":10},{"name":"ALLEY","type":"esriFieldTypeString","alias":"ALLEY","length":10},{"name":"HOUSE_NO","type":"esriFieldTypeString","alias":"HOUSE_NO","length":20},{"name":"E_COORD97","type":"esriFieldTypeDouble","alias":"E_COORD97"},{"name":"N_COORD97","type":"esriFieldTypeDouble","alias":"N_COORD97"},{"name":"ADDRESS","type":"esriFieldTypeString","alias":"ADDRESS","length":50},{"name":"OBJECTID","type":"esriFieldTypeOID","alias":"OBJECTID"}],"features":[{"attributes":{"ID":244205,"DIS_CODE":0,"TOWNNAME":"永康區","LI":"安康里","LIN":"24鄰","STREET":"中華路","SECT":" ","MAREA":" ","LANE":"７０３巷","ALLEY":" ","HOUSE_NO":"７８號","E_COORD97":170721.48000000001,"N_COORD97":2546279.9900000002,"ADDRESS":"中華路７０３巷７８號","OBJECTID":244201},"geometry":{"x":170721.48000000138,"y":2546279.9900000021}},{"attributes":{"ID":244206,"DIS_CODE":0,"TOWNNAME":"永康區","LI":"安康里","LIN":"24鄰","STREET":"中華路","SECT":" ","MAREA":" ","LANE":"７０３巷","ALLEY":" ","HOUSE_NO":"７０號","E_COORD97":170727.76999999999,"N_COORD97":2546256.9900000002,"ADDRESS":"中華路７０３巷７０號","OBJECTID":244202},"geometry":{"x":170727.76999999955,"y":2546256.9900000021}},{"attributes":{"ID":244207,"DIS_CODE":0,"TOWNNAME":"永康區","LI":"西橋里","LIN":"24鄰","STREET":"大橋三街","SECT":" ","MAREA":" ","LANE":"５７巷","ALLEY":" ","HOUSE_NO":"６２號","E_COORD97":170496.48000000001,"N_COORD97":2546603.2400000002,"ADDRESS":"大橋三街５７巷６２號","OBJECTID":244203},"geometry":{"x":170496.48000000138,"y":2546603.2400000021}},{"attributes":{"ID":244208,"DIS_CODE":0,"TOWNNAME":"永康區","LI":"西橋里","LIN":"24鄰","STREET":"大橋三街","SECT":" ","MAREA":" ","LANE":"５７巷","ALLEY":" ","HOUSE_NO":"５６號","E_COORD97":170508.04999999999,"N_COORD97":2546595.7400000002,"ADDRESS":"大橋三街５７巷５６號","OBJECTID":244204},"geometry":{"x":170508.05000000168,"y":2546595.7400000002}},{"attributes":{"ID":244209,"DIS_CODE":0,"TOWNNAME":"永康區","LI":"永康里","LIN":"24鄰","STREET":"中山南路","SECT":" ","MAREA":" ","LANE":"６２１巷","ALLEY":" ","HOUSE_NO":"３２號","E_COORD97":173549.10999999999,"N_COORD97":2547334.9900000002,"ADDRESS":"中山南路６２１巷３２號","OBJECTID":244205},"geometry":{"x":173549.11000000034,"y":2547334.9900000021}},{"attributes":{"ID":244210,"DIS_CODE":0,"TOWNNAME":"永康區","LI":"西橋里","LIN":"24鄰","STREET":"大橋三街","SECT":" ","MAREA":" ","LANE":"５７巷","ALLEY":" ","HOUSE_NO":"４２號","E_COORD97":170522.97,"N_COORD97":2546585.7400000002,"ADDRESS":"大橋三街５７巷４２號","OBJECTID":244206},"geometry":{"x":170522.96999999974,"y":2546585.7399999984}},{"attributes":{"ID":244211,"DIS_CODE":0,"TOWNNAME":"永康區","LI":"永康里","LIN":"24鄰","STREET":"中山南路","SECT":" ","MAREA":" ","LANE":"６２１巷","ALLEY":" ","HOUSE_NO":"４３號","E_COORD97":173534.98000000001,"N_COORD97":2547354.5,"ADDRESS":"中山南路６２１巷４３號","OBJECTID":244207},"geometry":{"x":173534.97999999952,"y":2547354.5000000019}},{"attributes":{"ID":244212,"DIS_CODE":0,"TOWNNAME":"中西區","LI":"安海里","LIN":"14鄰","STREET":"河中街","SECT":" ","MAREA":" ","LANE":" ","ALLEY":" ","HOUSE_NO":"４５號","E_COORD97":167293.04999999999,"N_COORD97":2544062.9199999999,"ADDRESS":"河中街４５號","OBJECTID":244208},"geometry":{"x":167293.05000000075,"y":2544062.9200000018}},{"attributes":{"ID":244213,"DIS_CODE":0,"TOWNNAME":"永康區","LI":"\u25A0行里","LIN":"14鄰","STREET":"中正六街","SECT":" ","MAREA":" ","LANE":" ","ALLEY":" ","HOUSE_NO":"１７７號八樓之２","E_COORD97":171861.98000000001,"N_COORD97":2548865.5600000001,"ADDRESS":"中正六街１７７號八樓之２","OBJECTID":244209},"geometry":{"x":171861.98000000231,"y":2548865.5600000005}},{"attributes":{"ID":244214,"DIS_CODE":0,"TOWNNAME":"永康區","LI":"\u25A0行里","LIN":"14鄰","STREET":"中正六街","SECT":" ","MAREA":" ","LANE":" ","ALLEY":" ","HOUSE_NO":"１７７號六樓之３","E_COORD97":171861.95000000001,"N_COORD97":2548865.5600000001,"ADDRESS":"中正六街１７７號六樓之３","OBJECTID":244210},"geometry":{"x":171861.95000000205,"y":2548865.5600000005}},{"attributes":{"ID":244215,"DIS_CODE":0,"TOWNNAME":"永康區","LI":"\u25A0行里","LIN":"14鄰","STREET":"中正六街","SECT":" ","MAREA":" ","LANE":" ","ALLEY":" ","HOUSE_NO":"１７５號五樓之６","E_COORD97":171858.29000000001,"N_COORD97":2548861.5600000001,"ADDRESS":"中正六街１７５號五樓之６","OBJECTID":244211},"geometry":{"x":171858.29000000097,"y":2548861.5600000005}},{"attributes":{"ID":244216,"DIS_CODE":0,"TOWNNAME":"永康區","LI":"\u25A0行里","LIN":"14鄰","STREET":"中正六街","SECT":" ","MAREA":" ","LANE":" ","ALLEY":" ","HOUSE_NO":"１７７號四樓之３","E_COORD97":171861.95000000001,"N_COORD97":2548865.5600000001,"ADDRESS":"中正六街１７７號四樓之３","OBJECTID":244212},"geometry":{"x":171861.95000000205,"y":2548865.5600000005}},{"attributes":{"ID":244217,"DIS_CODE":0,"TOWNNAME":"永康區","LI":"大橋里","LIN":"14鄰","STREET":"大橋二街","SECT":" ","MAREA":" ","LANE":" ","ALLEY":" ","HOUSE_NO":"２４號八樓之４","E_COORD97":170777.51000000001,"N_COORD97":2546536,"ADDRESS":"大橋二街２４號八樓之４","OBJECTID":244213},"geometry":{"x":170777.50999999978,"y":2546536}},{"attributes":{"ID":244218,"DIS_CODE":0,"TOWNNAME":"關廟區","LI":"布袋里","LIN":"11鄰","STREET":"南雄南路","SECT":" ","MAREA":" ","LANE":"８５２巷","ALLEY":" ","HOUSE_NO":"２７０號","E_COORD97":181983.98999999999,"N_COORD97":2533700.25,"ADDRESS":"南雄南路８５２巷２７０號","OBJECTID":244214},"geometry":{"x":181983.99000000115,"y":2533700.2500000019}},{"attributes":{"ID":244219,"DIS_CODE":0,"TOWNNAME":"永康區","LI":"永康里","LIN":"24鄰","STREET":"中山南路","SECT":" ","MAREA":" ","LANE":"６２１巷","ALLEY":" ","HOUSE_NO":"７號","E_COORD97":173557.45000000001,"N_COORD97":2547260.75,"ADDRESS":"中山南路６２１巷７號","OBJECTID":244215},"geometry":{"x":173557.45000000112,"y":2547260.7500000019}},{"attributes":{"ID":244220,"DIS_CODE":0,"TOWNNAME":"永康區","LI":"永康里","LIN":"24鄰","STREET":"中山南路","SECT":" ","MAREA":" ","LANE":"６２１巷","ALLEY":" ","HOUSE_NO":"２９號","E_COORD97":173545.44,"N_COORD97":2547314.7400000002,"ADDRESS":"中山南路６２１巷２９號","OBJECTID":244216},"geometry":{"x":173545.43999999948,"y":2547314.7399999984}},{"attributes":{"ID":244221,"DIS_CODE":0,"TOWNNAME":"永康區","LI":"永康里","LIN":"24鄰","STREET":"中山南路","SECT":" ","MAREA":" ","LANE":"５９７巷","ALLEY":" ","HOUSE_NO":"１８號之３","E_COORD97":173539.5,"N_COORD97":2547256.7999999998,"ADDRESS":"中山南路５９７巷１８號之３","OBJECTID":244217},"geometry":{"x":173539.49999999907,"y":2547256.8000000007}},{"attributes":{"ID":244222,"DIS_CODE":0,"TOWNNAME":"永康區","LI":"西橋里","LIN":"24鄰","STREET":"中華西街","SECT":" ","MAREA":" ","LANE":"２６９巷","ALLEY":" ","HOUSE_NO":"１８號","E_COORD97":170648.70000000001,"N_COORD97":2546502.4900000002,"ADDRESS":"中華西街２６９巷１８號","OBJECTID":244218},"geometry":{"x":170648.70000000112,"y":2546502.4900000002}},{"attributes":{"ID":244223,"DIS_CODE":0,"TOWNNAME":"安南區","LI":"海東里","LIN":"24鄰","STREET":"同安路","SECT":" ","MAREA":" ","LANE":"１９５巷","ALLEY":" ","HOUSE_NO":"１０９號","E_COORD97":166900.20999999999,"N_COORD97":2549312.8900000001,"ADDRESS":"同安路１９５巷１０９號","OBJECTID":244219},"geometry":{"x":166900.21000000089,"y":2549312.8900000025}},{"attributes":{"ID":244224,"DIS_CODE":0,"TOWNNAME":"安南區","LI":"海東里","LIN":"24鄰","STREET":"同安路","SECT":" ","MAREA":" ","LANE":"１９５巷","ALLEY":" ","HOUSE_NO":"１１０號","E_COORD97":166955.35999999999,"N_COORD97":2549287.7200000002,"ADDRESS":"同安路１９５巷１１０號","OBJECTID":244220},"geometry":{"x":166955.36000000127,"y":2549287.7200000007}},{"attributes":{"ID":244225,"DIS_CODE":0,"TOWNNAME":"安南區","LI":"海東里","LIN":"24鄰","STREET":"同安路","SECT":" ","MAREA":" ","LANE":"１９５巷","ALLEY":" ","HOUSE_NO":"１１１號","E_COORD97":166896.39999999999,"N_COORD97":2549315.9100000001,"ADDRESS":"同安路１９５巷１１１號","OBJECTID":244221},"geometry":{"x":166896.40000000037,"y":2549315.9100000001}},{"attributes":{"ID":244226,"DIS_CODE":0,"TOWNNAME":"安南區","LI":"海東里","LIN":"24鄰","STREET":"同安路","SECT":" ","MAREA":" ","LANE":"１９５巷","ALLEY":" ","HOUSE_NO":"１１２號","E_COORD97":166951.70999999999,"N_COORD97":2549290.4199999999,"ADDRESS":"同安路１９５巷１１２號","OBJECTID":244222},"geometry":{"x":166951.70999999996,"y":2549290.4200000018}},{"attributes":{"ID":244227,"DIS_CODE":0,"TOWNNAME":"安南區","LI":"海東里","LIN":"24鄰","STREET":"同安路","SECT":" ","MAREA":" ","LANE":"１９５巷","ALLEY":" ","HOUSE_NO":"１１３號","E_COORD97":166891.95999999999,"N_COORD97":2549318.6099999999,"ADDRESS":"同安路１９５巷１１３號","OBJECTID":244223},"geometry":{"x":166891.96000000089,"y":2549318.6100000031}},{"attributes":{"ID":244228,"DIS_CODE":0,"TOWNNAME":"安南區","LI":"海東里","LIN":"24鄰","STREET":"同安路","SECT":" ","MAREA":" ","LANE":"１９５巷","ALLEY":" ","HOUSE_NO":"１１５號","E_COORD97":166888.31,"N_COORD97":2549321.3100000001,"ADDRESS":"同安路１９５巷１１５號","OBJECTID":244224},"geometry":{"x":166888.30999999959,"y":2549321.3100000005}},{"attributes":{"ID":244229,"DIS_CODE":0,"TOWNNAME":"安南區","LI":"海東里","LIN":"24鄰","STREET":"同安路","SECT":" ","MAREA":" ","LANE":"１９５巷","ALLEY":" ","HOUSE_NO":"１１６號","E_COORD97":166948.54000000001,"N_COORD97":2549292.4900000002,"ADDRESS":"同安路１９５巷１１６號","OBJECTID":244225},"geometry":{"x":166948.5400000019,"y":2549292.4900000002}},{"attributes":{"ID":244230,"DIS_CODE":0,"TOWNNAME":"安南區","LI":"海東里","LIN":"24鄰","STREET":"同安路","SECT":" ","MAREA":" ","LANE":"１９５巷","ALLEY":" ","HOUSE_NO":"１１７號","E_COORD97":166885.29000000001,"N_COORD97":2549324.48,"ADDRESS":"同安路１９５巷１１７號","OBJECTID":244226},"geometry":{"x":166885.29000000004,"y":2549324.4800000023}},{"attributes":{"ID":244231,"DIS_CODE":0,"TOWNNAME":"安南區","LI":"海東里","LIN":"24鄰","STREET":"同安路","SECT":" ","MAREA":" ","LANE":"１９５巷","ALLEY":" ","HOUSE_NO":"１１８號","E_COORD97":166945.04999999999,"N_COORD97":2549295.0299999998,"ADDRESS":"同安路１９５巷１１８號","OBJECTID":244227},"geometry":{"x":166945.05000000075,"y":2549295.0299999993}},{"attributes":{"ID":244232,"DIS_CODE":0,"TOWNNAME":"安南區","LI":"海東里","LIN":"24鄰","STREET":"同安路","SECT":" ","MAREA":" ","LANE":"１９５巷","ALLEY":" ","HOUSE_NO":"１１９號","E_COORD97":166881.32000000001,"N_COORD97":2549326.54,"ADDRESS":"同安路１９５巷１１９號","OBJECTID":244228},"geometry":{"x":166881.32000000123,"y":2549326.540000001}},{"attributes":{"ID":244233,"DIS_CODE":0,"TOWNNAME":"安南區","LI":"海東里","LIN":"24鄰","STREET":"同安路","SECT":" ","MAREA":" ","LANE":"１９５巷","ALLEY":" ","HOUSE_NO":"１２０號","E_COORD97":166941.54999999999,"N_COORD97":2549297.5699999998,"ADDRESS":"同安路１９５巷１２０號","OBJECTID":244229},"geometry":{"x":166941.55000000075,"y":2549297.5700000022}},{"attributes":{"ID":244234,"DIS_CODE":0,"TOWNNAME":"安南區","LI":"海東里","LIN":"24鄰","STREET":"同安路","SECT":" ","MAREA":" ","LANE":"１９５巷","ALLEY":" ","HOUSE_NO":"１２１號","E_COORD97":166877.82999999999,"N_COORD97":2549330.2000000002,"ADDRESS":"同安路１９５巷１２１號","OBJECTID":244230},"geometry":{"x":166877.83000000101,"y":2549330.1999999993}},{"attributes":{"ID":244235,"DIS_CODE":0,"TOWNNAME":"安南區","LI":"海東里","LIN":"24鄰","STREET":"同安路","SECT":" ","MAREA":" ","LANE":"１９５巷","ALLEY":" ","HOUSE_NO":"１２２號","E_COORD97":166938.22,"N_COORD97":2549300.5800000001,"ADDRESS":"同安路１９５巷１２２號","OBJECTID":244231},"geometry":{"x":166938.21999999974,"y":2549300.5800000019}},{"attributes":{"ID":244236,"DIS_CODE":0,"TOWNNAME":"安南區","LI":"海東里","LIN":"24鄰","STREET":"同安路","SECT":" ","MAREA":" ","LANE":"１９５巷","ALLEY":" ","HOUSE_NO":"１２６號","E_COORD97":166935.04000000001,"N_COORD97":2549302.8100000001,"ADDRESS":"同安路１９５巷１２６號","OBJECTID":244232},"geometry":{"x":166935.04000000097,"y":2549302.8100000024}},{"attributes":{"ID":244237,"DIS_CODE":0,"TOWNNAME":"安南區","LI":"海東里","LIN":"24鄰","STREET":"同安路","SECT":" ","MAREA":" ","LANE":"１９５巷","ALLEY":" ","HOUSE_NO":"１２８號","E_COORD97":166931.70999999999,"N_COORD97":2549305.6600000001,"ADDRESS":"同安路１９５巷１２８號","OBJECTID":244233},"geometry":{"x":166931.70999999996,"y":2549305.6600000039}},{"attributes":{"ID":244238,"DIS_CODE":0,"TOWNNAME":"安南區","LI":"海東里","LIN":"24鄰","STREET":"同安路","SECT":" ","MAREA":" ","LANE":"１９５巷","ALLEY":" ","HOUSE_NO":"１３０號","E_COORD97":166928.06,"N_COORD97":2549308.3599999999,"ADDRESS":"同安路１９５巷１３０號","OBJECTID":244234},"geometry":{"x":166928.06000000052,"y":2549308.3600000013}},{"attributes":{"ID":244239,"DIS_CODE":0,"TOWNNAME":"安南區","LI":"海東里","LIN":"24鄰","STREET":"同安路","SECT":" ","MAREA":" ","LANE":"１９５巷","ALLEY":" ","HOUSE_NO":"１３６號","E_COORD97":166921.70999999999,"N_COORD97":2549313.1200000001,"ADDRESS":"同安路１９５巷１３６號","OBJECTID":244235},"geometry":{"x":166921.70999999903,"y":2549313.120000001}},{"attributes":{"ID":244240,"DIS_CODE":0,"TOWNNAME":"安南區","LI":"海東里","LIN":"24鄰","STREET":"同安路","SECT":" ","MAREA":" ","LANE":"１９５巷","ALLEY":" ","HOUSE_NO":"１４０號","E_COORD97":166914.88,"N_COORD97":2549318.0499999998,"ADDRESS":"同安路１９５巷１４０號","OBJECTID":244236},"geometry":{"x":166914.87999999989,"y":2549318.0500000026}},{"attributes":{"ID":244241,"DIS_CODE":0,"TOWNNAME":"安南區","LI":"海東里","LIN":"24鄰","STREET":"同安路","SECT":" ","MAREA":" ","LANE":"１９５巷","ALLEY":" ","HOUSE_NO":"１４２號","E_COORD97":166911.87,"N_COORD97":2549321.2200000002,"ADDRESS":"同安路１９５巷１４２號","OBJECTID":244237},"geometry":{"x":166911.87000000011,"y":2549321.2200000007}},{"attributes":{"ID":244242,"DIS_CODE":0,"TOWNNAME":"安南區","LI":"海東里","LIN":"24鄰","STREET":"同安路","SECT":" ","MAREA":" ","LANE":"１９５巷","ALLEY":" ","HOUSE_NO":"１４６號","E_COORD97":166907.10000000001,"N_COORD97":2549323.9199999999,"ADDRESS":"同安路１９５巷１４６號","OBJECTID":244238},"geometry":{"x":166907.10000000056,"y":2549323.9200000037}},{"attributes":{"ID":244243,"DIS_CODE":0,"TOWNNAME":"永康區","LI":"大橋里","LIN":"14鄰","STREET":"大橋一街","SECT":" ","MAREA":" ","LANE":" ","ALLEY":" ","HOUSE_NO":"６３號六樓之２","E_COORD97":170898.92000000001,"N_COORD97":2546429.5499999998,"ADDRESS":"大橋一街６３號六樓之２","OBJECTID":244239},"geometry":{"x":170898.92000000179,"y":2546429.5500000026}},{"attributes":{"ID":244244,"DIS_CODE":0,"TOWNNAME":"北區","LI":"力行里","LIN":"11鄰","STREET":"開南街","SECT":" ","MAREA":" ","LANE":"２７５巷","ALLEY":" ","HOUSE_NO":"２６號","E_COORD97":171003.31,"N_COORD97":2545281.46,"ADDRESS":"開南街２７５巷２６號","OBJECTID":244240},"geometry":{"x":171003.31000000052,"y":2545281.4600000028}},{"attributes":{"ID":244245,"DIS_CODE":0,"TOWNNAME":"北區","LI":"力行里","LIN":"11鄰","STREET":"開南街","SECT":" ","MAREA":" ","LANE":"２７５巷","ALLEY":" ","HOUSE_NO":"２８號","E_COORD97":171003.60999999999,"N_COORD97":2545286.9500000002,"ADDRESS":"開南街２７５巷２８號","OBJECTID":244241},"geometry":{"x":171003.61000000127,"y":2545286.9499999993}},{"attributes":{"ID":244246,"DIS_CODE":0,"TOWNNAME":"北區","LI":"力行里","LIN":"11鄰","STREET":"開南街","SECT":" ","MAREA":" ","LANE":"２７５巷","ALLEY":" ","HOUSE_NO":"３０號","E_COORD97":171004.5,"N_COORD97":2545291.25,"ADDRESS":"開南街２７５巷３０號","OBJECTID":244242},"geometry":{"x":171004.5,"y":2545291.2500000019}},{"attributes":{"ID":244247,"DIS_CODE":0,"TOWNNAME":"北區","LI":"力行里","LIN":"11鄰","STREET":"開南街","SECT":" ","MAREA":" ","LANE":"２７５巷","ALLEY":" ","HOUSE_NO":"３２號","E_COORD97":171003.95999999999,"N_COORD97":2545297.5699999998,"ADDRESS":"開南街２７５巷３２號","OBJECTID":244243},"geometry":{"x":171003.96000000089,"y":2545297.5700000003}},{"attributes":{"ID":244248,"DIS_CODE":0,"TOWNNAME":"北區","LI":"力行里","LIN":"11鄰","STREET":"開南街","SECT":" ","MAREA":" ","LANE":"２７５巷","ALLEY":" ","HOUSE_NO":"３４號","E_COORD97":171003.82999999999,"N_COORD97":2545301.4300000002,"ADDRESS":"開南街２７５巷３４號","OBJECTID":244244},"geometry":{"x":171003.83000000101,"y":2545301.4299999997}},{"attributes":{"ID":244249,"DIS_CODE":0,"TOWNNAME":"北區","LI":"力行里","LIN":"11鄰","STREET":"開南街","SECT":" ","MAREA":" ","LANE":"２７５巷","ALLEY":" ","HOUSE_NO":"３６號","E_COORD97":171003.70000000001,"N_COORD97":2545306.3199999998,"ADDRESS":"開南街２７５巷３６號","OBJECTID":244245},"geometry":{"x":171003.70000000019,"y":2545306.3200000003}},{"attributes":{"ID":244250,"DIS_CODE":0,"TOWNNAME":"北區","LI":"大山里","LIN":"11鄰","STREET":"精忠街","SECT":" ","MAREA":" ","LANE":"１１８巷","ALLEY":" ","HOUSE_NO":"１１號","E_COORD97":169275.60000000001,"N_COORD97":2545580.5800000001,"ADDRESS":"精忠街１１８巷１１號","OBJECTID":244246},"geometry":{"x":169275.60000000056,"y":2545580.5800000019}},{"attributes":{"ID":244251,"DIS_CODE":0,"TOWNNAME":"北區","LI":"大山里","LIN":"11鄰","STREET":"精忠街","SECT":" ","MAREA":" ","LANE":"１１８巷","ALLEY":" ","HOUSE_NO":"１５號","E_COORD97":169294.07000000001,"N_COORD97":2545577.4900000002,"ADDRESS":"精忠街１１８巷１５號","OBJECTID":244247},"geometry":{"x":169294.0700000003,"y":2545577.4900000039}},{"attributes":{"ID":244252,"DIS_CODE":0,"TOWNNAME":"北區","LI":"大山里","LIN":"11鄰","STREET":"精忠街","SECT":" ","MAREA":" ","LANE":"１１８巷","ALLEY":" ","HOUSE_NO":"１７號","E_COORD97":169289.48000000001,"N_COORD97":2545578.0099999998,"ADDRESS":"精忠街１１８巷１７號","OBJECTID":244248},"geometry":{"x":169289.48000000138,"y":2545578.0100000016}},{"attributes":{"ID":244253,"DIS_CODE":0,"TOWNNAME":"北區","LI":"大山里","LIN":"11鄰","STREET":"精忠街","SECT":" ","MAREA":" ","LANE":"１１８巷","ALLEY":" ","HOUSE_NO":"１９號","E_COORD97":169286.84,"N_COORD97":2545579.0499999998,"ADDRESS":"精忠街１１８巷１９號","OBJECTID":244249},"geometry":{"x":169286.83999999985,"y":2545579.0500000026}},{"attributes":{"ID":244254,"DIS_CODE":0,"TOWNNAME":"北區","LI":"大山里","LIN":"11鄰","STREET":"精忠街","SECT":" ","MAREA":" ","LANE":"１１８巷","ALLEY":" ","HOUSE_NO":"１號","E_COORD97":169293.34,"N_COORD97":2545561.29,"ADDRESS":"精忠街１１８巷１號","OBJECTID":244250},"geometry":{"x":169293.33999999985,"y":2545561.290000001}},{"attributes":{"ID":244255,"DIS_CODE":0,"TOWNNAME":"北區","LI":"大山里","LIN":"11鄰","STREET":"精忠街","SECT":" ","MAREA":" ","LANE":"１１８巷","ALLEY":" ","HOUSE_NO":"１號之１","E_COORD97":169296.09,"N_COORD97":2545570.6499999999,"ADDRESS":"精忠街１１８巷１號之１","OBJECTID":244251},"geometry":{"x":169296.09000000078,"y":2545570.6500000022}},{"attributes":{"ID":244256,"DIS_CODE":0,"TOWNNAME":"北區","LI":"大山里","LIN":"11鄰","STREET":"精忠街","SECT":" ","MAREA":" ","LANE":"１１８巷","ALLEY":" ","HOUSE_NO":"２１號","E_COORD97":169283.78,"N_COORD97":2545583.5600000001,"ADDRESS":"精忠街１１８巷２１號","OBJECTID":244252},"geometry":{"x":169283.78000000119,"y":2545583.5600000005}},{"attributes":{"ID":244257,"DIS_CODE":0,"TOWNNAME":"安南區","LI":"海東里","LIN":"24鄰","STREET":"同安路","SECT":" ","MAREA":" ","LANE":"１９５巷","ALLEY":" ","HOUSE_NO":"１４８號","E_COORD97":166904.41,"N_COORD97":2549325.98,"ADDRESS":"同安路１９５巷１４８號","OBJECTID":244253},"geometry":{"x":166904.41000000108,"y":2549325.9800000004}},{"attributes":{"ID":244258,"DIS_CODE":0,"TOWNNAME":"安南區","LI":"海東里","LIN":"24鄰","STREET":"同安路","SECT":" ","MAREA":" ","LANE":"１９５巷","ALLEY":" ","HOUSE_NO":"１５０號","E_COORD97":166900.75,"N_COORD97":2549329.48,"ADDRESS":"同安路１９５巷１５０號","OBJECTID":244254},"geometry":{"x":166900.75,"y":2549329.4800000004}},{"attributes":{"ID":244259,"DIS_CODE":0,"TOWNNAME":"安南區","LI":"海東里","LIN":"24鄰","STREET":"同安路","SECT":" ","MAREA":" ","LANE":"１９５巷","ALLEY":" ","HOUSE_NO":"９５號","E_COORD97":166924.09,"N_COORD97":2549295.8199999998,"ADDRESS":"同安路１９５巷９５號","OBJECTID":244255},"geometry":{"x":166924.08999999892,"y":2549295.8200000022}},{"attributes":{"ID":244260,"DIS_CODE":0,"TOWNNAME":"安南區","LI":"海東里","LIN":"24鄰","STREET":"同安路","SECT":" ","MAREA":" ","LANE":"１９５巷","ALLEY":" ","HOUSE_NO":"９７號","E_COORD97":166920.60000000001,"N_COORD97":2549298.2000000002,"ADDRESS":"同安路１９５巷９７號","OBJECTID":244256},"geometry":{"x":166920.60000000149,"y":2549298.2000000011}},{"attributes":{"ID":244261,"DIS_CODE":0,"TOWNNAME":"安南區","LI":"海東里","LIN":"24鄰","STREET":"同安路","SECT":" ","MAREA":" ","LANE":"１９５巷","ALLEY":" ","HOUSE_NO":"９９號","E_COORD97":166916.79000000001,"N_COORD97":2549301.2200000002,"ADDRESS":"同安路１９５巷９９號","OBJECTID":244257},"geometry":{"x":166916.79000000097,"y":2549301.2200000007}},{"attributes":{"ID":244262,"DIS_CODE":0,"TOWNNAME":"永康區","LI":"大橋里","LIN":"14鄰","STREET":"大橋一街","SECT":" ","MAREA":" ","LANE":" ","ALLEY":" ","HOUSE_NO":"６１號七樓之２","E_COORD97":170895.84,"N_COORD97":2546426.5499999998,"ADDRESS":"大橋一街６１號七樓之２","OBJECTID":244258},"geometry":{"x":170895.83999999985,"y":2546426.5500000026}},{"attributes":{"ID":244263,"DIS_CODE":0,"TOWNNAME":"東區","LI":"崇學里","LIN":"14鄰","STREET":"崇德路","SECT":" ","MAREA":" ","LANE":" ","ALLEY":" ","HOUSE_NO":"２６０號七樓","E_COORD97":170226.48999999999,"N_COORD97":2542024.9399999999,"ADDRESS":"崇德路２６０號七樓","OBJECTID":244259},"geometry":{"x":170226.49000000115,"y":2542024.9400000013}},{"attributes":{"ID":244264,"DIS_CODE":0,"TOWNNAME":"東區","LI":"崇學里","LIN":"14鄰","STREET":"崇德路","SECT":" ","MAREA":" ","LANE":" ","ALLEY":" ","HOUSE_NO":"２６０號七樓之１","E_COORD97":170226.48999999999,"N_COORD97":2542024.9399999999,"ADDRESS":"崇德路２６０號七樓之１","OBJECTID":244260},"geometry":{"x":170226.49000000115,"y":2542024.9400000013}},{"attributes":{"ID":244265,"DIS_CODE":0,"TOWNNAME":"東區","LI":"崇學里","LIN":"14鄰","STREET":"崇德路","SECT":" ","MAREA":" ","LANE":" ","ALLEY":" ","HOUSE_NO":"２６０號七樓之１０","E_COORD97":170226.48999999999,"N_COORD97":2542024.9399999999,"ADDRESS":"崇德路２６０號七樓之１０","OBJECTID":244261},"geometry":{"x":170226.49000000115,"y":2542024.9400000013}},{"attributes":{"ID":244266,"DIS_CODE":0,"TOWNNAME":"東區","LI":"崇學里","LIN":"14鄰","STREET":"崇德路","SECT":" ","MAREA":" ","LANE":" ","ALLEY":" ","HOUSE_NO":"２６０號七樓之２","E_COORD97":170226.48999999999,"N_COORD97":2542024.9399999999,"ADDRESS":"崇德路２６０號七樓之２","OBJECTID":244262},"geometry":{"x":170226.49000000115,"y":2542024.9400000013}},{"attributes":{"ID":244267,"DIS_CODE":0,"TOWNNAME":"東區","LI":"崇學里","LIN":"14鄰","STREET":"崇德路","SECT":" ","MAREA":" ","LANE":" ","ALLEY":" ","HOUSE_NO":"２６０號七樓之３","E_COORD97":170226.48999999999,"N_COORD97":2542024.9399999999,"ADDRESS":"崇德路２６０號七樓之３","OBJECTID":244263},"geometry":{"x":170226.49000000115,"y":2542024.9400000013}},{"attributes":{"ID":244268,"DIS_CODE":0,"TOWNNAME":"東區","LI":"崇學里","LIN":"14鄰","STREET":"崇德路","SECT":" ","MAREA":" ","LANE":" ","ALLEY":" ","HOUSE_NO":"２６０號七樓之４","E_COORD97":170226.48999999999,"N_COORD97":2542024.9399999999,"ADDRESS":"崇德路２６０號七樓之４","OBJECTID":244264},"geometry":{"x":170226.49000000115,"y":2542024.9400000013}},{"attributes":{"ID":244269,"DIS_CODE":0,"TOWNNAME":"東區","LI":"崇學里","LIN":"14鄰","STREET":"崇德路","SECT":" ","MAREA":" ","LANE":" ","ALLEY":" ","HOUSE_NO":"２６０號七樓之５","E_COORD97":170226.48999999999,"N_COORD97":2542024.9399999999,"ADDRESS":"崇德路２６０號七樓之５","OBJECTID":244265},"geometry":{"x":170226.49000000115,"y":2542024.9400000013}},{"attributes":{"ID":244270,"DIS_CODE":0,"TOWNNAME":"東區","LI":"崇成里","LIN":"14鄰","STREET":"崇明十六街","SECT":" ","MAREA":" ","LANE":" ","ALLEY":" ","HOUSE_NO":"６號","E_COORD97":170646.29000000001,"N_COORD97":2541282.1600000001,"ADDRESS":"崇明十六街６號","OBJECTID":244266},"geometry":{"x":170646.29000000097,"y":2541282.160000002}},{"attributes":{"ID":244271,"DIS_CODE":0,"TOWNNAME":"東區","LI":"崇學里","LIN":"14鄰","STREET":"崇德路","SECT":" ","MAREA":" ","LANE":" ","ALLEY":" ","HOUSE_NO":"２６０號七樓之６","E_COORD97":170226.48999999999,"N_COORD97":2542024.9399999999,"ADDRESS":"崇德路２６０號七樓之６","OBJECTID":244267},"geometry":{"x":170226.49000000115,"y":2542024.9400000013}},{"attributes":{"ID":244272,"DIS_CODE":0,"TOWNNAME":"東區","LI":"崇學里","LIN":"14鄰","STREET":"崇德路","SECT":" ","MAREA":" ","LANE":" ","ALLEY":" ","HOUSE_NO":"２６０號七樓之７","E_COORD97":170226.48999999999,"N_COORD97":2542024.9399999999,"ADDRESS":"崇德路２６０號七樓之７","OBJECTID":244268},"geometry":{"x":170226.49000000115,"y":2542024.9400000013}},{"attributes":{"ID":244273,"DIS_CODE":0,"TOWNNAME":"佳里區","LI":"忠仁里","LIN":"14鄰","STREET":"佳東路","SECT":" ","MAREA":" ","LANE":" ","ALLEY":" ","HOUSE_NO":"２６１號","E_COORD97":166369.28,"N_COORD97":2562046.4300000002,"ADDRESS":"佳東路２６１號","OBJECTID":244269},"geometry":{"x":166369.28000000119,"y":2562046.4299999997}},{"attributes":{"ID":244274,"DIS_CODE":0,"TOWNNAME":"東區","LI":"崇學里","LIN":"14鄰","STREET":"崇德路","SECT":" ","MAREA":" ","LANE":" ","ALLEY":" ","HOUSE_NO":"２６０號七樓之８","E_COORD97":170226.48999999999,"N_COORD97":2542024.9399999999,"ADDRESS":"崇德路２６０號七樓之８","OBJECTID":244270},"geometry":{"x":170226.49000000115,"y":2542024.9400000013}},{"attributes":{"ID":244275,"DIS_CODE":0,"TOWNNAME":"安南區","LI":"海東里","LIN":"24鄰","STREET":"同安路","SECT":" ","MAREA":" ","LANE":"１９５巷","ALLEY":" ","HOUSE_NO":"１６０號","E_COORD97":166885.45000000001,"N_COORD97":2549340.3599999999,"ADDRESS":"同安路１９５巷１６０號","OBJECTID":244271},"geometry":{"x":166885.45000000112,"y":2549340.3599999994}},{"attributes":{"ID":244276,"DIS_CODE":0,"TOWNNAME":"安南區","LI":"海東里","LIN":"24鄰","STREET":"同安路","SECT":" ","MAREA":" ","LANE":"１９５巷","ALLEY":" ","HOUSE_NO":"１５８號","E_COORD97":166890.53,"N_COORD97":2549337.3399999999,"ADDRESS":"同安路１９５巷１５８號","OBJECTID":244272},"geometry":{"x":166890.53000000026,"y":2549337.3399999999}},{"attributes":{"ID":244277,"DIS_CODE":0,"TOWNNAME":"安南區","LI":"海東里","LIN":"24鄰","STREET":"同安路","SECT":" ","MAREA":" ","LANE":"２２５巷","ALLEY":" ","HOUSE_NO":"２００號","E_COORD97":166959.97,"N_COORD97":2549356.1400000001,"ADDRESS":"同安路２２５巷２００號","OBJECTID":244273},"geometry":{"x":166959.96999999974,"y":2549356.1400000006}},{"attributes":{"ID":244278,"DIS_CODE":0,"TOWNNAME":"安南區","LI":"海東里","LIN":"24鄰","STREET":"同安路","SECT":" ","MAREA":" ","LANE":"２２５巷","ALLEY":" ","HOUSE_NO":"２０２號","E_COORD97":166956.79000000001,"N_COORD97":2549358.6899999999,"ADDRESS":"同安路２２５巷２０２號","OBJECTID":244274},"geometry":{"x":166956.79000000004,"y":2549358.6899999976}},{"attributes":{"ID":244279,"DIS_CODE":0,"TOWNNAME":"安南區","LI":"海東里","LIN":"24鄰","STREET":"同安路","SECT":" ","MAREA":" ","LANE":"２２５巷","ALLEY":" ","HOUSE_NO":"２０６號","E_COORD97":166953.29999999999,"N_COORD97":2549361.54,"ADDRESS":"同安路２２５巷２０６號","OBJECTID":244275},"geometry":{"x":166953.30000000168,"y":2549361.5399999991}},{"attributes":{"ID":244280,"DIS_CODE":0,"TOWNNAME":"安南區","LI":"海東里","LIN":"24鄰","STREET":"同安路","SECT":" ","MAREA":" ","LANE":"２２５巷","ALLEY":" ","HOUSE_NO":"２０８號","E_COORD97":166949.97,"N_COORD97":2549363.77,"ADDRESS":"同安路２２５巷２０８號","OBJECTID":244276},"geometry":{"x":166949.96999999974,"y":2549363.7699999996}},{"attributes":{"ID":244281,"DIS_CODE":0,"TOWNNAME":"安南區","LI":"海東里","LIN":"24鄰","STREET":"同安路","SECT":" ","MAREA":" ","LANE":"２２５巷","ALLEY":" ","HOUSE_NO":"２１０號","E_COORD97":166947.26999999999,"N_COORD97":2549365.8300000001,"ADDRESS":"同安路２２５巷２１０號","OBJECTID":244277},"geometry":{"x":166947.26999999955,"y":2549365.8300000019}},{"attributes":{"ID":244282,"DIS_CODE":0,"TOWNNAME":"安南區","LI":"海東里","LIN":"24鄰","STREET":"同安路","SECT":" ","MAREA":" ","LANE":"２２５巷","ALLEY":" ","HOUSE_NO":"２１２號","E_COORD97":166943.92999999999,"N_COORD97":2549369.1600000001,"ADDRESS":"同安路２２５巷２１２號","OBJECTID":244278},"geometry":{"x":166943.93000000063,"y":2549369.1600000001}},{"attributes":{"ID":244283,"DIS_CODE":0,"TOWNNAME":"安南區","LI":"海東里","LIN":"24鄰","STREET":"同安路","SECT":" ","MAREA":" ","LANE":"２２５巷","ALLEY":" ","HOUSE_NO":"２１６號","E_COORD97":166940.60000000001,"N_COORD97":2549371.54,"ADDRESS":"同安路２２５巷２１６號","OBJECTID":244279},"geometry":{"x":166940.59999999963,"y":2549371.5399999991}},{"attributes":{"ID":244284,"DIS_CODE":0,"TOWNNAME":"安南區","LI":"海東里","LIN":"24鄰","STREET":"同安路","SECT":" ","MAREA":" ","LANE":"２２５巷","ALLEY":" ","HOUSE_NO":"２１８號","E_COORD97":166937.42999999999,"N_COORD97":2549374.3999999999,"ADDRESS":"同安路２２５巷２１８號","OBJECTID":244280},"geometry":{"x":166937.43000000063,"y":2549374.4000000004}},{"attributes":{"ID":244285,"DIS_CODE":0,"TOWNNAME":"安南區","LI":"海東里","LIN":"24鄰","STREET":"同安路","SECT":" ","MAREA":" ","LANE":"２２５巷","ALLEY":" ","HOUSE_NO":"２２０號","E_COORD97":166933.92999999999,"N_COORD97":2549376.9399999999,"ADDRESS":"同安路２２５巷２２０號","OBJECTID":244281},"geometry":{"x":166933.93000000063,"y":2549376.9399999995}},{"attributes":{"ID":244286,"DIS_CODE":0,"TOWNNAME":"安南區","LI":"海東里","LIN":"24鄰","STREET":"同安路","SECT":" ","MAREA":" ","LANE":"２２５巷","ALLEY":" ","HOUSE_NO":"２２２號","E_COORD97":166930.53,"N_COORD97":2549377.98,"ADDRESS":"同安路２２５巷２２２號","OBJECTID":244282},"geometry":{"x":166930.53000000119,"y":2549377.9800000004}},{"attributes":{"ID":244287,"DIS_CODE":0,"TOWNNAME":"安南區","LI":"海東里","LIN":"24鄰","STREET":"同安路","SECT":" ","MAREA":" ","LANE":"２２５巷","ALLEY":" ","HOUSE_NO":"２２６號","E_COORD97":166927.73999999999,"N_COORD97":2549381.7000000002,"ADDRESS":"同安路２２５巷２２６號","OBJECTID":244283},"geometry":{"x":166927.74000000115,"y":2549381.6999999993}},{"attributes":{"ID":244288,"DIS_CODE":0,"TOWNNAME":"安南區","LI":"海東里","LIN":"24鄰","STREET":"同安路","SECT":" ","MAREA":" ","LANE":"２２５巷","ALLEY":" ","HOUSE_NO":"２２８號","E_COORD97":166924.57000000001,"N_COORD97":2549384.2400000002,"ADDRESS":"同安路２２５巷２２８號","OBJECTID":244284},"geometry":{"x":166924.5700000003,"y":2549384.2400000021}},{"attributes":{"ID":244289,"DIS_CODE":0,"TOWNNAME":"安南區","LI":"海東里","LIN":"24鄰","STREET":"同安路","SECT":" ","MAREA":" ","LANE":"２２５巷","ALLEY":" ","HOUSE_NO":"２３０號","E_COORD97":166920.53,"N_COORD97":2549386.23,"ADDRESS":"同安路２２５巷２３０號","OBJECTID":244285},"geometry":{"x":166920.53000000119,"y":2549386.2300000004}},{"attributes":{"ID":244290,"DIS_CODE":0,"TOWNNAME":"安南區","LI":"海東里","LIN":"24鄰","STREET":"同安路","SECT":" ","MAREA":" ","LANE":"２２５巷","ALLEY":" ","HOUSE_NO":"１１９號","E_COORD97":166992.51000000001,"N_COORD97":2549315.0299999998,"ADDRESS":"同安路２２５巷１１９號","OBJECTID":244286},"geometry":{"x":166992.51000000164,"y":2549315.0299999993}},{"attributes":{"ID":244291,"DIS_CODE":0,"TOWNNAME":"安南區","LI":"海東里","LIN":"24鄰","STREET":"同安路","SECT":" ","MAREA":" ","LANE":"２２５巷","ALLEY":" ","HOUSE_NO":"１２１號","E_COORD97":166989.64999999999,"N_COORD97":2549319.4700000002,"ADDRESS":"同安路２２５巷１２１號","OBJECTID":244287},"geometry":{"x":166989.65000000037,"y":2549319.4700000007}},{"attributes":{"ID":244292,"DIS_CODE":0,"TOWNNAME":"安南區","LI":"海東里","LIN":"24鄰","STREET":"同安路","SECT":" ","MAREA":" ","LANE":"２２５巷","ALLEY":" ","HOUSE_NO":"１２３號","E_COORD97":166986.32000000001,"N_COORD97":2549321.3799999999,"ADDRESS":"同安路２２５巷１２３號","OBJECTID":244288},"geometry":{"x":166986.32000000123,"y":2549321.3800000008}},{"attributes":{"ID":244293,"DIS_CODE":0,"TOWNNAME":"安南區","LI":"海東里","LIN":"24鄰","STREET":"同安路","SECT":" ","MAREA":" ","LANE":"２２５巷","ALLEY":" ","HOUSE_NO":"１２５號","E_COORD97":166983.45999999999,"N_COORD97":2549323.9199999999,"ADDRESS":"同安路２２５巷１２５號","OBJECTID":244289},"geometry":{"x":166983.46000000089,"y":2549323.9200000037}},{"attributes":{"ID":244294,"DIS_CODE":0,"TOWNNAME":"麻豆區","LI":"興農里","LIN":"1鄰","STREET":"仁愛路","SECT":" ","MAREA":" ","LANE":" ","ALLEY":" ","HOUSE_NO":"４５號","E_COORD97":172512.54000000001,"N_COORD97":2564726.6899999999,"ADDRESS":"仁愛路４５號","OBJECTID":244290},"geometry":{"x":172512.54000000097,"y":2564726.6899999995}},{"attributes":{"ID":244295,"DIS_CODE":0,"TOWNNAME":"安南區","LI":"海東里","LIN":"24鄰","STREET":"同安路","SECT":" ","MAREA":" ","LANE":"２２５巷","ALLEY":" ","HOUSE_NO":"１２７號","E_COORD97":166980.45000000001,"N_COORD97":2549327.25,"ADDRESS":"同安路２２５巷１２７號","OBJECTID":244291},"geometry":{"x":166980.45000000112,"y":2549327.25}},{"attributes":{"ID":244296,"DIS_CODE":0,"TOWNNAME":"安南區","LI":"海東里","LIN":"24鄰","STREET":"同安路","SECT":" ","MAREA":" ","LANE":"２２５巷","ALLEY":" ","HOUSE_NO":"１２９號","E_COORD97":166976.79999999999,"N_COORD97":2549329.6299999999,"ADDRESS":"同安路２２５巷１２９號","OBJECTID":244292},"geometry":{"x":166976.79999999981,"y":2549329.6300000008}},{"attributes":{"ID":244297,"DIS_CODE":0,"TOWNNAME":"安南區","LI":"海東里","LIN":"24鄰","STREET":"同安路","SECT":" ","MAREA":" ","LANE":"２２５巷","ALLEY":" ","HOUSE_NO":"１３１號","E_COORD97":166973.45999999999,"N_COORD97":2549331.54,"ADDRESS":"同安路２２５巷１３１號","OBJECTID":244293},"geometry":{"x":166973.46000000089,"y":2549331.5399999991}},{"attributes":{"ID":244298,"DIS_CODE":0,"TOWNNAME":"安南區","LI":"海東里","LIN":"24鄰","STREET":"同安路","SECT":" ","MAREA":" ","LANE":"２２５巷","ALLEY":" ","HOUSE_NO":"１３３號","E_COORD97":166970.13,"N_COORD97":2549334.3999999999,"ADDRESS":"同安路２２５巷１３３號","OBJECTID":244294},"geometry":{"x":166970.13000000082,"y":2549334.3999999985}},{"attributes":{"ID":244299,"DIS_CODE":0,"TOWNNAME":"安南區","LI":"海東里","LIN":"24鄰","STREET":"同安路","SECT":" ","MAREA":" ","LANE":"２２５巷","ALLEY":" ","HOUSE_NO":"１３５號","E_COORD97":166967.26999999999,"N_COORD97":2549336.7799999998,"ADDRESS":"同安路２２５巷１３５號","OBJECTID":244295},"geometry":{"x":166967.27000000048,"y":2549336.7799999993}},{"attributes":{"ID":244300,"DIS_CODE":0,"TOWNNAME":"安南區","LI":"海東里","LIN":"24鄰","STREET":"同安路","SECT":" ","MAREA":" ","LANE":"２２５巷","ALLEY":" ","HOUSE_NO":"１３７號","E_COORD97":166963.62,"N_COORD97":2549339.3199999998,"ADDRESS":"同安路２２５巷１３７號","OBJECTID":244296},"geometry":{"x":166963.62000000104,"y":2549339.3200000022}},{"attributes":{"ID":244301,"DIS_CODE":0,"TOWNNAME":"北區","LI":"大仁里","LIN":"11鄰","STREET":"北門路","SECT":"二段","MAREA":" ","LANE":"１４１巷","ALLEY":" ","HOUSE_NO":"４４號","E_COORD97":169345.07999999999,"N_COORD97":2545257.9300000002,"ADDRESS":"北門路二段１４１巷４４號","OBJECTID":244297},"geometry":{"x":169345.08000000007,"y":2545257.9299999997}},{"attributes":{"ID":244302,"DIS_CODE":0,"TOWNNAME":"北區","LI":"玉皇里","LIN":"11鄰","STREET":"佑民街","SECT":" ","MAREA":" ","LANE":"４２巷","ALLEY":" ","HOUSE_NO":"３號","E_COORD97":168640.45000000001,"N_COORD97":2544429.9199999999,"ADDRESS":"佑民街４２巷３號","OBJECTID":244298},"geometry":{"x":168640.45000000019,"y":2544429.9199999999}},{"attributes":{"ID":244303,"DIS_CODE":0,"TOWNNAME":"仁德區","LI":"仁義里","LIN":"24鄰","STREET":"正義路","SECT":" ","MAREA":" ","LANE":"１２７巷","ALLEY":" ","HOUSE_NO":"２號","E_COORD97":173689.34,"N_COORD97":2541470.52,"ADDRESS":"正義路１２７巷２號","OBJECTID":244299},"geometry":{"x":173689.33999999985,"y":2541470.5199999977}},{"attributes":{"ID":244304,"DIS_CODE":0,"TOWNNAME":"北區","LI":"東興里","LIN":"11鄰","STREET":"小東路","SECT":" ","MAREA":" ","LANE":"４０１巷","ALLEY":" ","HOUSE_NO":"５１號","E_COORD97":171294.04000000001,"N_COORD97":2544471.52,"ADDRESS":"小東路４０１巷５１號","OBJECTID":244300},"geometry":{"x":171294.04000000097,"y":2544471.5200000014}},{"attributes":{"ID":244305,"DIS_CODE":0,"TOWNNAME":"北區","LI":"東興里","LIN":"11鄰","STREET":"小東路","SECT":" ","MAREA":" ","LANE":"４０１巷","ALLEY":" ","HOUSE_NO":"５１號之１","E_COORD97":171292.97,"N_COORD97":2544488.8500000001,"ADDRESS":"小東路４０１巷５１號之１","OBJECTID":244301},"geometry":{"x":171292.96999999974,"y":2544488.8499999996}},{"attributes":{"ID":244306,"DIS_CODE":0,"TOWNNAME":"北區","LI":"東興里","LIN":"11鄰","STREET":"小東路","SECT":" ","MAREA":" ","LANE":"４０１巷","ALLEY":" ","HOUSE_NO":"６２號","E_COORD97":171356.28,"N_COORD97":2544510.04,"ADDRESS":"小東路４０１巷６２號","OBJECTID":244302},"geometry":{"x":171356.28000000212,"y":2544510.0399999991}},{"attributes":{"ID":244307,"DIS_CODE":0,"TOWNNAME":"北區","LI":"玉皇里","LIN":"11鄰","STREET":"佑民街","SECT":" ","MAREA":" ","LANE":"７８巷","ALLEY":" ","HOUSE_NO":"１３號","E_COORD97":168719.79000000001,"N_COORD97":2544476.2799999998,"ADDRESS":"佑民街７８巷１３號","OBJECTID":244303},"geometry":{"x":168719.79000000004,"y":2544476.2800000012}},{"attributes":{"ID":244308,"DIS_CODE":0,"TOWNNAME":"北區","LI":"玉皇里","LIN":"11鄰","STREET":"佑民街","SECT":" ","MAREA":" ","LANE":"７８巷","ALLEY":" ","HOUSE_NO":"１５號","E_COORD97":168715.85999999999,"N_COORD97":2544471.7400000002,"ADDRESS":"佑民街７８巷１５號","OBJECTID":244304},"geometry":{"x":168715.86000000034,"y":2544471.7400000021}},{"attributes":{"ID":244309,"DIS_CODE":0,"TOWNNAME":"北區","LI":"玉皇里","LIN":"11鄰","STREET":"佑民街","SECT":" ","MAREA":" ","LANE":"７８巷","ALLEY":" ","HOUSE_NO":"１７號","E_COORD97":168712.45000000001,"N_COORD97":2544467.3799999999,"ADDRESS":"佑民街７８巷１７號","OBJECTID":244305},"geometry":{"x":168712.45000000112,"y":2544467.379999999}},{"attributes":{"ID":244310,"DIS_CODE":0,"TOWNNAME":"北區","LI":"玉皇里","LIN":"11鄰","STREET":"佑民街","SECT":" ","MAREA":" ","LANE":"７８巷","ALLEY":" ","HOUSE_NO":"１９號","E_COORD97":168709.48000000001,"N_COORD97":2544463.1000000001,"ADDRESS":"佑民街７８巷１９號","OBJECTID":244306},"geometry":{"x":168709.48000000138,"y":2544463.0999999996}},{"attributes":{"ID":244311,"DIS_CODE":0,"TOWNNAME":"北區","LI":"玉皇里","LIN":"11鄰","STREET":"佑民街","SECT":" ","MAREA":" ","LANE":"７８巷","ALLEY":" ","HOUSE_NO":"５號","E_COORD97":168711.31,"N_COORD97":2544473.9199999999,"ADDRESS":"佑民街７８巷５號","OBJECTID":244307},"geometry":{"x":168711.31000000052,"y":2544473.9200000018}},{"attributes":{"ID":244312,"DIS_CODE":0,"TOWNNAME":"北區","LI":"玉皇里","LIN":"11鄰","STREET":"佑民街","SECT":" ","MAREA":" ","LANE":"７８巷","ALLEY":" ","HOUSE_NO":"７號","E_COORD97":168714.89000000001,"N_COORD97":2544479.0699999998,"ADDRESS":"佑民街７８巷７號","OBJECTID":244308},"geometry":{"x":168714.88999999966,"y":2544479.0700000022}},{"attributes":{"ID":244313,"DIS_CODE":0,"TOWNNAME":"北區","LI":"玉皇里","LIN":"11鄰","STREET":"佑民街","SECT":" ","MAREA":" ","LANE":"７８巷","ALLEY":" ","HOUSE_NO":"９號","E_COORD97":168720.04999999999,"N_COORD97":2544484.3999999999,"ADDRESS":"佑民街７８巷９號","OBJECTID":244309},"geometry":{"x":168720.05000000075,"y":2544484.4000000022}},{"attributes":{"ID":244314,"DIS_CODE":0,"TOWNNAME":"安平區","LI":"平安里","LIN":"11鄰","STREET":"安平路","SECT":" ","MAREA":" ","LANE":"５００巷","ALLEY":" ","HOUSE_NO":"２３號","E_COORD97":165150.28,"N_COORD97":2544437.8500000001,"ADDRESS":"安平路５００巷２３號","OBJECTID":244310},"geometry":{"x":165150.28000000212,"y":2544437.8499999996}},{"attributes":{"ID":244315,"DIS_CODE":0,"TOWNNAME":"安平區","LI":"平安里","LIN":"11鄰","STREET":"安平路","SECT":" ","MAREA":" ","LANE":"５００巷","ALLEY":" ","HOUSE_NO":"１１號","E_COORD97":165133.76000000001,"N_COORD97":2544374.9500000002,"ADDRESS":"安平路５００巷１１號","OBJECTID":244311},"geometry":{"x":165133.75999999978,"y":2544374.9499999993}},{"attributes":{"ID":244316,"DIS_CODE":0,"TOWNNAME":"東山區","LI":"東正里","LIN":"22鄰","STREET":" ","SECT":" ","MAREA":"東勢","LANE":" ","ALLEY":" ","HOUSE_NO":"１５５號","E_COORD97":189402.95999999999,"N_COORD97":2580400.48,"ADDRESS":"東勢１５５號","OBJECTID":244312},"geometry":{"x":189402.95999999996,"y":2580400.4800000042}},{"attributes":{"ID":244317,"DIS_CODE":0,"TOWNNAME":"安南區","LI":"海東里","LIN":"24鄰","STREET":"同安路","SECT":" ","MAREA":" ","LANE":"２２５巷","ALLEY":" ","HOUSE_NO":"１３９號","E_COORD97":166949.64999999999,"N_COORD97":2549321.8599999999,"ADDRESS":"同安路２２５巷１３９號","OBJECTID":244313},"geometry":{"x":166949.64999999944,"y":2549321.8600000013}},{"attributes":{"ID":244318,"DIS_CODE":0,"TOWNNAME":"東區","LI":"崇學里","LIN":"14鄰","STREET":"崇德路","SECT":" ","MAREA":" ","LANE":" ","ALLEY":" ","HOUSE_NO":"２６０號七樓之９","E_COORD97":170226.48999999999,"N_COORD97":2542024.9399999999,"ADDRESS":"崇德路２６０號七樓之９","OBJECTID":244314},"geometry":{"x":170226.49000000115,"y":2542024.9400000013}},{"attributes":{"ID":244319,"DIS_CODE":0,"TOWNNAME":"東區","LI":"崇學里","LIN":"14鄰","STREET":"崇德路","SECT":" ","MAREA":" ","LANE":" ","ALLEY":" ","HOUSE_NO":"２６０號九樓","E_COORD97":170226.48999999999,"N_COORD97":2542024.9399999999,"ADDRESS":"崇德路２６０號九樓","OBJECTID":244315},"geometry":{"x":170226.49000000115,"y":2542024.9400000013}},{"attributes":{"ID":244320,"DIS_CODE":0,"TOWNNAME":"東區","LI":"崇學里","LIN":"14鄰","STREET":"崇德路","SECT":" ","MAREA":" ","LANE":" ","ALLEY":" ","HOUSE_NO":"２６０號九樓之１","E_COORD97":170226.48999999999,"N_COORD97":2542024.9399999999,"ADDRESS":"崇德路２６０號九樓之１","OBJECTID":244316},"geometry":{"x":170226.49000000115,"y":2542024.9400000013}},{"attributes":{"ID":244321,"DIS_CODE":0,"TOWNNAME":"東區","LI":"崇學里","LIN":"14鄰","STREET":"崇德路","SECT":" ","MAREA":" ","LANE":" ","ALLEY":" ","HOUSE_NO":"２６０號九樓之２","E_COORD97":170226.48999999999,"N_COORD97":2542024.9399999999,"ADDRESS":"崇德路２６０號九樓之２","OBJECTID":244317},"geometry":{"x":170226.49000000115,"y":2542024.9400000013}},{"attributes":{"ID":244322,"DIS_CODE":0,"TOWNNAME":"東區","LI":"崇學里","LIN":"14鄰","STREET":"崇德路","SECT":" ","MAREA":" ","LANE":" ","ALLEY":" ","HOUSE_NO":"２６０號九樓之３","E_COORD97":170226.48999999999,"N_COORD97":2542024.9399999999,"ADDRESS":"崇德路２６０號九樓之３","OBJECTID":244318},"geometry":{"x":170226.49000000115,"y":2542024.9400000013}},{"attributes":{"ID":244323,"DIS_CODE":0,"TOWNNAME":"東區","LI":"崇學里","LIN":"14鄰","STREET":"崇德路","SECT":" ","MAREA":" ","LANE":" ","ALLEY":" ","HOUSE_NO":"２６０號九樓之４","E_COORD97":170226.48999999999,"N_COORD97":2542024.9399999999,"ADDRESS":"崇德路２６０號九樓之４","OBJECTID":244319},"geometry":{"x":170226.49000000115,"y":2542024.9400000013}},{"attributes":{"ID":244324,"DIS_CODE":0,"TOWNNAME":"東區","LI":"崇學里","LIN":"14鄰","STREET":"崇德路","SECT":" ","MAREA":" ","LANE":" ","ALLEY":" ","HOUSE_NO":"２６０號九樓之５","E_COORD97":170226.48999999999,"N_COORD97":2542024.9399999999,"ADDRESS":"崇德路２６０號九樓之５","OBJECTID":244320},"geometry":{"x":170226.49000000115,"y":2542024.9400000013}},{"attributes":{"ID":244325,"DIS_CODE":0,"TOWNNAME":"東區","LI":"崇學里","LIN":"14鄰","STREET":"崇德路","SECT":" ","MAREA":" ","LANE":" ","ALLEY":" ","HOUSE_NO":"２６０號九樓之６","E_COORD97":170226.48999999999,"N_COORD97":2542024.9399999999,"ADDRESS":"崇德路２６０號九樓之６","OBJECTID":244321},"geometry":{"x":170226.49000000115,"y":2542024.9400000013}},{"attributes":{"ID":244326,"DIS_CODE":0,"TOWNNAME":"東區","LI":"崇學里","LIN":"14鄰","STREET":"崇德路","SECT":" ","MAREA":" ","LANE":" ","ALLEY":" ","HOUSE_NO":"２６０號九樓之７","E_COORD97":170226.48999999999,"N_COORD97":2542024.9399999999,"ADDRESS":"崇德路２６０號九樓之７","OBJECTID":244322},"geometry":{"x":170226.49000000115,"y":2542024.9400000013}},{"attributes":{"ID":244327,"DIS_CODE":0,"TOWNNAME":"東區","LI":"崇學里","LIN":"14鄰","STREET":"崇德路","SECT":" ","MAREA":" ","LANE":" ","ALLEY":" ","HOUSE_NO":"２６０號九樓之８","E_COORD97":170226.48999999999,"N_COORD97":2542024.9399999999,"ADDRESS":"崇德路２６０號九樓之８","OBJECTID":244323},"geometry":{"x":170226.49000000115,"y":2542024.9400000013}},{"attributes":{"ID":244328,"DIS_CODE":0,"TOWNNAME":"東區","LI":"崇學里","LIN":"14鄰","STREET":"崇德路","SECT":" ","MAREA":" ","LANE":" ","ALLEY":" ","HOUSE_NO":"２６０號九樓之９","E_COORD97":170226.48999999999,"N_COORD97":2542024.9399999999,"ADDRESS":"崇德路２６０號九樓之９","OBJECTID":244324},"geometry":{"x":170226.49000000115,"y":2542024.9400000013}},{"attributes":{"ID":244329,"DIS_CODE":0,"TOWNNAME":"東區","LI":"崇學里","LIN":"14鄰","STREET":"崇德路","SECT":" ","MAREA":" ","LANE":" ","ALLEY":" ","HOUSE_NO":"２６０號二樓","E_COORD97":170226.48999999999,"N_COORD97":2542024.9399999999,"ADDRESS":"崇德路２６０號二樓","OBJECTID":244325},"geometry":{"x":170226.49000000115,"y":2542024.9400000013}},{"attributes":{"ID":244330,"DIS_CODE":0,"TOWNNAME":"麻豆區","LI":"興農里","LIN":"1鄰","STREET":"仁愛路","SECT":" ","MAREA":" ","LANE":" ","ALLEY":" ","HOUSE_NO":"４３號","E_COORD97":172523.26999999999,"N_COORD97":2564680.8799999999,"ADDRESS":"仁愛路４３號","OBJECTID":244326},"geometry":{"x":172523.26999999955,"y":2564680.879999999}},{"attributes":{"ID":244331,"DIS_CODE":0,"TOWNNAME":"安平區","LI":"平安里","LIN":"11鄰","STREET":"安平路","SECT":" ","MAREA":" ","LANE":"５００巷","ALLEY":" ","HOUSE_NO":"１５號之２","E_COORD97":165136.51000000001,"N_COORD97":2544386.73,"ADDRESS":"安平路５００巷１５號之２","OBJECTID":244327},"geometry":{"x":165136.51000000071,"y":2544386.7300000023}},{"attributes":{"ID":244332,"DIS_CODE":0,"TOWNNAME":"安南區","LI":"海東里","LIN":"24鄰","STREET":"同安路","SECT":" ","MAREA":" ","LANE":"２２５巷","ALLEY":" ","HOUSE_NO":"１４１號","E_COORD97":166947.73999999999,"N_COORD97":2549319,"ADDRESS":"同安路２２５巷１４１號","OBJECTID":244328},"geometry":{"x":166947.74000000115,"y":2549319}},{"attributes":{"ID":244333,"DIS_CODE":0,"TOWNNAME":"安南區","LI":"海東里","LIN":"24鄰","STREET":"同安路","SECT":" ","MAREA":" ","LANE":"２２５巷","ALLEY":" ","HOUSE_NO":"１４３號","E_COORD97":166941.23999999999,"N_COORD97":2549323.9199999999,"ADDRESS":"同安路２２５巷１４３號","OBJECTID":244329},"geometry":{"x":166941.24000000115,"y":2549323.9200000037}},{"attributes":{"ID":244334,"DIS_CODE":0,"TOWNNAME":"安南區","LI":"海東里","LIN":"24鄰","STREET":"同安路","SECT":" ","MAREA":" ","LANE":"２２５巷","ALLEY":" ","HOUSE_NO":"１４５號","E_COORD97":166944.25,"N_COORD97":2549326.7799999998,"ADDRESS":"同安路２２５巷１４５號","OBJECTID":244330},"geometry":{"x":166944.25000000093,"y":2549326.7799999993}},{"attributes":{"ID":244335,"DIS_CODE":0,"TOWNNAME":"安南區","LI":"海東里","LIN":"24鄰","STREET":"同安路","SECT":" ","MAREA":" ","LANE":"２２５巷","ALLEY":" ","HOUSE_NO":"１４７號","E_COORD97":166956.32000000001,"N_COORD97":2549344.5600000001,"ADDRESS":"同安路２２５巷１４７號","OBJECTID":244331},"geometry":{"x":166956.3200000003,"y":2549344.5600000024}},{"attributes":{"ID":244336,"DIS_CODE":0,"TOWNNAME":"安南區","LI":"海東里","LIN":"24鄰","STREET":"同安路","SECT":" ","MAREA":" ","LANE":"２２５巷","ALLEY":" ","HOUSE_NO":"１４９號","E_COORD97":166953.14000000001,"N_COORD97":2549346.7799999998,"ADDRESS":"同安路２２５巷１４９號","OBJECTID":244332},"geometry":{"x":166953.1400000006,"y":2549346.7799999993}},{"attributes":{"ID":244337,"DIS_CODE":0,"TOWNNAME":"安南區","LI":"海東里","LIN":"24鄰","STREET":"同安路","SECT":" ","MAREA":" ","LANE":"２２５巷","ALLEY":" ","HOUSE_NO":"１５１號","E_COORD97":166949.81,"N_COORD97":2549349.7999999998,"ADDRESS":"同安路２２５巷１５１號","OBJECTID":244333},"geometry":{"x":166949.81000000052,"y":2549349.8000000026}},{"attributes":{"ID":244338,"DIS_CODE":0,"TOWNNAME":"安南區","LI":"海東里","LIN":"24鄰","STREET":"同安路","SECT":" ","MAREA":" ","LANE":"２２５巷","ALLEY":" ","HOUSE_NO":"１５３號","E_COORD97":166946.47,"N_COORD97":2549352.1800000002,"ADDRESS":"同安路２２５巷１５３號","OBJECTID":244334},"geometry":{"x":166946.46999999974,"y":2549352.1799999978}},{"attributes":{"ID":244339,"DIS_CODE":0,"TOWNNAME":"安南區","LI":"海東里","LIN":"24鄰","STREET":"同安路","SECT":" ","MAREA":" ","LANE":"２２５巷","ALLEY":" ","HOUSE_NO":"１５５號","E_COORD97":166943.14000000001,"N_COORD97":2549355.1899999999,"ADDRESS":"同安路２２５巷１５５號","OBJECTID":244335},"geometry":{"x":166943.1400000006,"y":2549355.1899999995}},{"attributes":{"ID":244340,"DIS_CODE":0,"TOWNNAME":"安南區","LI":"海東里","LIN":"24鄰","STREET":"同安路","SECT":" ","MAREA":" ","LANE":"２２５巷","ALLEY":" ","HOUSE_NO":"１５７號","E_COORD97":166941.01000000001,"N_COORD97":2549357.02,"ADDRESS":"同安路２２５巷１５７號","OBJECTID":244336},"geometry":{"x":166941.00999999978,"y":2549357.0200000014}},{"attributes":{"ID":244341,"DIS_CODE":0,"TOWNNAME":"安南區","LI":"海東里","LIN":"24鄰","STREET":"同安路","SECT":" ","MAREA":" ","LANE":"２２５巷","ALLEY":" ","HOUSE_NO":"１５９號","E_COORD97":166937.51999999999,"N_COORD97":2549359.8799999999,"ADDRESS":"同安路２２５巷１５９號","OBJECTID":244337},"geometry":{"x":166937.51999999955,"y":2549359.879999999}},{"attributes":{"ID":244342,"DIS_CODE":0,"TOWNNAME":"安南區","LI":"海東里","LIN":"24鄰","STREET":"同安路","SECT":" ","MAREA":" ","LANE":"２２５巷","ALLEY":" ","HOUSE_NO":"１６１號","E_COORD97":166933.87,"N_COORD97":2549362.5800000001,"ADDRESS":"同安路２２５巷１６１號","OBJECTID":244338},"geometry":{"x":166933.87000000011,"y":2549362.5800000001}},{"attributes":{"ID":244343,"DIS_CODE":0,"TOWNNAME":"安南區","LI":"海東里","LIN":"24鄰","STREET":"同安路","SECT":" ","MAREA":" ","LANE":"２２５巷","ALLEY":" ","HOUSE_NO":"１６３號","E_COORD97":166930.38,"N_COORD97":2549365.1200000001,"ADDRESS":"同安路２２５巷１６３號","OBJECTID":244339},"geometry":{"x":166930.37999999989,"y":2549365.1200000029}},{"attributes":{"ID":244344,"DIS_CODE":0,"TOWNNAME":"安南區","LI":"海東里","LIN":"24鄰","STREET":"同安路","SECT":" ","MAREA":" ","LANE":"２２５巷","ALLEY":" ","HOUSE_NO":"１６５號","E_COORD97":166927.26999999999,"N_COORD97":2549366.7799999998,"ADDRESS":"同安路２２５巷１６５號","OBJECTID":244340},"geometry":{"x":166927.26999999955,"y":2549366.7799999993}},{"attributes":{"ID":244345,"DIS_CODE":0,"TOWNNAME":"安南區","LI":"海東里","LIN":"24鄰","STREET":"同安路","SECT":" ","MAREA":" ","LANE":"２２５巷","ALLEY":" ","HOUSE_NO":"１６７號","E_COORD97":166923.70999999999,"N_COORD97":2549370.04,"ADDRESS":"同安路２２５巷１６７號","OBJECTID":244341},"geometry":{"x":166923.71000000089,"y":2549370.040000001}},{"attributes":{"ID":244346,"DIS_CODE":0,"TOWNNAME":"安南區","LI":"海東里","LIN":"24鄰","STREET":"同安路","SECT":" ","MAREA":" ","LANE":"２２５巷","ALLEY":" ","HOUSE_NO":"１６９號","E_COORD97":166920.60000000001,"N_COORD97":2549371.8599999999,"ADDRESS":"同安路２２５巷１６９號","OBJECTID":244342},"geometry":{"x":166920.60000000149,"y":2549371.8600000013}},{"attributes":{"ID":244347,"DIS_CODE":0,"TOWNNAME":"新營區","LI":"南興里","LIN":"18鄰","STREET":"建業路","SECT":" ","MAREA":" ","LANE":"１５７巷","ALLEY":" ","HOUSE_NO":"３２號","E_COORD97":178379.20000000001,"N_COORD97":2577405.46,"ADDRESS":"建業路１５７巷３２號","OBJECTID":244343},"geometry":{"x":178379.20000000019,"y":2577405.4600000009}},{"attributes":{"ID":244348,"DIS_CODE":0,"TOWNNAME":"安南區","LI":"海東里","LIN":"24鄰","STREET":"同安路","SECT":" ","MAREA":" ","LANE":"２２５巷","ALLEY":" ","HOUSE_NO":"１７１號","E_COORD97":166917.98999999999,"N_COORD97":2549374.96,"ADDRESS":"同安路２２５巷１７１號","OBJECTID":244344},"geometry":{"x":166917.99000000022,"y":2549374.9600000009}},{"attributes":{"ID":244349,"DIS_CODE":0,"TOWNNAME":"安南區","LI":"海東里","LIN":"24鄰","STREET":"同安路","SECT":" ","MAREA":" ","LANE":"２２５巷","ALLEY":" ","HOUSE_NO":"１７３號","E_COORD97":166914.01999999999,"N_COORD97":2549377.5,"ADDRESS":"同安路２２５巷１７３號","OBJECTID":244345},"geometry":{"x":166914.01999999955,"y":2549377.4999999981}},{"attributes":{"ID":244350,"DIS_CODE":0,"TOWNNAME":"南區","LI":"光明里","LIN":"24鄰","STREET":"新建路","SECT":" ","MAREA":" ","LANE":"２５巷","ALLEY":" ","HOUSE_NO":"８號","E_COORD97":166499.70999999999,"N_COORD97":2541314.6200000001,"ADDRESS":"新建路２５巷８號","OBJECTID":244346},"geometry":{"x":166499.71000000183,"y":2541314.620000001}},{"attributes":{"ID":244351,"DIS_CODE":0,"TOWNNAME":"南區","LI":"光明里","LIN":"24鄰","STREET":"新建路","SECT":" ","MAREA":" ","LANE":"２５巷","ALLEY":" ","HOUSE_NO":"１０號","E_COORD97":166508.13,"N_COORD97":2541314.7599999998,"ADDRESS":"新建路２５巷１０號","OBJECTID":244347},"geometry":{"x":166508.12999999989,"y":2541314.7600000016}},{"attributes":{"ID":244352,"DIS_CODE":0,"TOWNNAME":"南區","LI":"光明里","LIN":"24鄰","STREET":"新建路","SECT":" ","MAREA":" ","LANE":"２５巷","ALLEY":" ","HOUSE_NO":"１２號","E_COORD97":166515.41,"N_COORD97":2541315.3300000001,"ADDRESS":"新建路２５巷１２號","OBJECTID":244348},"geometry":{"x":166515.40999999922,"y":2541315.3300000001}},{"attributes":{"ID":244353,"DIS_CODE":0,"TOWNNAME":"東區","LI":"德光里","LIN":"24鄰","STREET":"崇德二街","SECT":" ","MAREA":" ","LANE":"６巷","ALLEY":" ","HOUSE_NO":"７５號","E_COORD97":170154.38,"N_COORD97":2542362.5800000001,"ADDRESS":"崇德二街６巷７５號","OBJECTID":244349},"geometry":{"x":170154.37999999989,"y":2542362.5800000038}},{"attributes":{"ID":244354,"DIS_CODE":0,"TOWNNAME":"東區","LI":"德光里","LIN":"24鄰","STREET":"崇德二街","SECT":" ","MAREA":" ","LANE":"６巷","ALLEY":" ","HOUSE_NO":"７７號","E_COORD97":170160.87,"N_COORD97":2542357.77,"ADDRESS":"崇德二街６巷７７號","OBJECTID":244350},"geometry":{"x":170160.87000000104,"y":2542357.7700000014}},{"attributes":{"ID":244355,"DIS_CODE":0,"TOWNNAME":"東區","LI":"崇學里","LIN":"14鄰","STREET":"崇德路","SECT":" ","MAREA":" ","LANE":" ","ALLEY":" ","HOUSE_NO":"２６０號八樓","E_COORD97":170226.48999999999,"N_COORD97":2542024.9399999999,"ADDRESS":"崇德路２６０號八樓","OBJECTID":244351},"geometry":{"x":170226.49000000115,"y":2542024.9400000013}},{"attributes":{"ID":244356,"DIS_CODE":0,"TOWNNAME":"東區","LI":"德光里","LIN":"24鄰","STREET":"崇德二街","SECT":" ","MAREA":" ","LANE":"６巷","ALLEY":" ","HOUSE_NO":"７９號","E_COORD97":170165.87,"N_COORD97":2542352.3999999999,"ADDRESS":"崇德二街６巷７９號","OBJECTID":244352},"geometry":{"x":170165.87000000104,"y":2542352.4000000004}},{"attributes":{"ID":244357,"DIS_CODE":0,"TOWNNAME":"東區","LI":"德光里","LIN":"24鄰","STREET":"崇德二街","SECT":" ","MAREA":" ","LANE":"６巷","ALLEY":" ","HOUSE_NO":"８１號","E_COORD97":170171.79999999999,"N_COORD97":2542348.7000000002,"ADDRESS":"崇德二街６巷８１號","OBJECTID":244353},"geometry":{"x":170171.79999999981,"y":2542348.7000000011}},{"attributes":{"ID":244358,"DIS_CODE":0,"TOWNNAME":"麻豆區","LI":"麻口里","LIN":"11鄰","STREET":" ","SECT":" ","MAREA":"番子寮","LANE":" ","ALLEY":" ","HOUSE_NO":"１３號","E_COORD97":170276.54000000001,"N_COORD97":2563156.5899999999,"ADDRESS":"番子寮１３號","OBJECTID":244354},"geometry":{"x":170276.54000000097,"y":2563156.5900000017}},{"attributes":{"ID":244359,"DIS_CODE":0,"TOWNNAME":"東區","LI":"德光里","LIN":"24鄰","STREET":"崇德二街","SECT":" ","MAREA":" ","LANE":"７６巷","ALLEY":" ","HOUSE_NO":"１６號","E_COORD97":170167.17999999999,"N_COORD97":2542371.9100000001,"ADDRESS":"崇德二街７６巷１６號","OBJECTID":244355},"geometry":{"x":170167.1799999997,"y":2542371.910000002}},{"attributes":{"ID":244360,"DIS_CODE":0,"TOWNNAME":"東區","LI":"德光里","LIN":"24鄰","STREET":"崇德二街","SECT":" ","MAREA":" ","LANE":"７６巷","ALLEY":" ","HOUSE_NO":"１８號","E_COORD97":170177.37,"N_COORD97":2542365.0600000001,"ADDRESS":"崇德二街７６巷１８號","OBJECTID":244356},"geometry":{"x":170177.37000000197,"y":2542365.0600000005}},{"attributes":{"ID":244361,"DIS_CODE":0,"TOWNNAME":"中西區","LI":"普濟里","LIN":"10鄰","STREET":"慈聖街","SECT":" ","MAREA":" ","LANE":" ","ALLEY":" ","HOUSE_NO":"８５號","E_COORD97":168047.06,"N_COORD97":2544420.3799999999,"ADDRESS":"慈聖街８５號","OBJECTID":244357},"geometry":{"x":168047.06000000052,"y":2544420.3799999971}},{"attributes":{"ID":244362,"DIS_CODE":0,"TOWNNAME":"中西區","LI":"普濟里","LIN":"1鄰","STREET":"西門路","SECT":"二段","MAREA":" ","LANE":"３６５巷","ALLEY":" ","HOUSE_NO":"４號","E_COORD97":167987.38,"N_COORD97":2544314.6200000001,"ADDRESS":"西門路二段３６５巷４號","OBJECTID":244358},"geometry":{"x":167987.38000000082,"y":2544314.620000001}},{"attributes":{"ID":244363,"DIS_CODE":0,"TOWNNAME":"中西區","LI":"普濟里","LIN":"1鄰","STREET":"西門路","SECT":"二段","MAREA":" ","LANE":"３６５巷","ALLEY":" ","HOUSE_NO":"５號","E_COORD97":167979.42999999999,"N_COORD97":2544311.9700000002,"ADDRESS":"西門路二段３６５巷５號","OBJECTID":244359},"geometry":{"x":167979.42999999877,"y":2544311.9700000007}},{"attributes":{"ID":244364,"DIS_CODE":0,"TOWNNAME":"中西區","LI":"普濟里","LIN":"1鄰","STREET":"西門路","SECT":"二段","MAREA":" ","LANE":"３６５巷","ALLEY":" ","HOUSE_NO":"６號","E_COORD97":167983.89999999999,"N_COORD97":2544316.6099999999,"ADDRESS":"西門路二段３６５巷６號","OBJECTID":244360},"geometry":{"x":167983.90000000224,"y":2544316.6099999994}},{"attributes":{"ID":244365,"DIS_CODE":0,"TOWNNAME":"中西區","LI":"普濟里","LIN":"1鄰","STREET":"西門路","SECT":"二段","MAREA":" ","LANE":"３６５巷","ALLEY":" ","HOUSE_NO":"７號","E_COORD97":167976.10999999999,"N_COORD97":2544313.79,"ADDRESS":"西門路二段３６５巷７號","OBJECTID":244361},"geometry":{"x":167976.11000000127,"y":2544313.790000001}},{"attributes":{"ID":244366,"DIS_CODE":0,"TOWNNAME":"中西區","LI":"普濟里","LIN":"1鄰","STREET":"西門路","SECT":"二段","MAREA":" ","LANE":"３６５巷","ALLEY":" ","HOUSE_NO":"８號","E_COORD97":167978.92999999999,"N_COORD97":2544321.5699999998,"ADDRESS":"西門路二段３６５巷８號","OBJECTID":244362},"geometry":{"x":167978.9299999997,"y":2544321.5700000003}},{"attributes":{"ID":244367,"DIS_CODE":0,"TOWNNAME":"中西區","LI":"普濟里","LIN":"1鄰","STREET":"西門路","SECT":"二段","MAREA":" ","LANE":"３６５巷","ALLEY":" ","HOUSE_NO":"９號","E_COORD97":167973.29999999999,"N_COORD97":2544316.1099999999,"ADDRESS":"西門路二段３６５巷９號","OBJECTID":244363},"geometry":{"x":167973.29999999981,"y":2544316.1100000013}},{"attributes":{"ID":244368,"DIS_CODE":0,"TOWNNAME":"東區","LI":"德光里","LIN":"24鄰","STREET":"崇德二街","SECT":" ","MAREA":" ","LANE":"７６巷","ALLEY":" ","HOUSE_NO":"２號","E_COORD97":170139.92999999999,"N_COORD97":2542390.6099999999,"ADDRESS":"崇德二街７６巷２號","OBJECTID":244364},"geometry":{"x":170139.93000000063,"y":2542390.6099999994}},{"attributes":{"ID":244369,"DIS_CODE":0,"TOWNNAME":"新營區","LI":"民榮里","LIN":" ","STREET":"復興路","SECT":" ","MAREA":" ","LANE":"５１１巷","ALLEY":" ","HOUSE_NO":"１８號","E_COORD97":178120.31,"N_COORD97":2578250.5899999999,"ADDRESS":"復興路５１１巷１８號","OBJECTID":244365},"geometry":{"x":178120.30999999959,"y":2578250.5900000017}},{"attributes":{"ID":244370,"DIS_CODE":0,"TOWNNAME":"新營區","LI":"民榮里","LIN":"34鄰","STREET":"復興路","SECT":" ","MAREA":" ","LANE":"３０５巷","ALLEY":" ","HOUSE_NO":"２１號","E_COORD97":178587.04000000001,"N_COORD97":2578084.4300000002,"ADDRESS":"復興路３０５巷２１號","OBJECTID":244366},"geometry":{"x":178587.04000000004,"y":2578084.4300000016}},{"attributes":{"ID":244371,"DIS_CODE":0,"TOWNNAME":"仁德區","LI":"仁德里","LIN":"24鄰","STREET":"文心路","SECT":" ","MAREA":" ","LANE":"１１巷","ALLEY":" ","HOUSE_NO":"１８號","E_COORD97":172107.19,"N_COORD97":2541360.8300000001,"ADDRESS":"文心路１１巷１８號","OBJECTID":244367},"geometry":{"x":172107.19000000041,"y":2541360.8300000038}},{"attributes":{"ID":244372,"DIS_CODE":0,"TOWNNAME":"仁德區","LI":"仁德里","LIN":"24鄰","STREET":"文心路","SECT":" ","MAREA":" ","LANE":"１１巷","ALLEY":" ","HOUSE_NO":"１５號","E_COORD97":172099.70999999999,"N_COORD97":2541346.0800000001,"ADDRESS":"文心路１１巷１５號","OBJECTID":244368},"geometry":{"x":172099.71000000089,"y":2541346.0800000019}},{"attributes":{"ID":244373,"DIS_CODE":0,"TOWNNAME":"仁德區","LI":"成功里","LIN":"24鄰","STREET":"保華路","SECT":" ","MAREA":" ","LANE":"２７９巷","ALLEY":" ","HOUSE_NO":"１３號","E_COORD97":170601.42999999999,"N_COORD97":2539939.9900000002,"ADDRESS":"保華路２７９巷１３號","OBJECTID":244369},"geometry":{"x":170601.4299999997,"y":2539939.9900000021}},{"attributes":{"ID":244374,"DIS_CODE":0,"TOWNNAME":"仁德區","LI":"成功里","LIN":"24鄰","STREET":"保華路","SECT":" ","MAREA":" ","LANE":"２７９巷","ALLEY":" ","HOUSE_NO":"８號","E_COORD97":170579.81,"N_COORD97":2539941.9900000002,"ADDRESS":"保華路２７９巷８號","OBJECTID":244370},"geometry":{"x":170579.80999999959,"y":2539941.9900000002}},{"attributes":{"ID":244375,"DIS_CODE":0,"TOWNNAME":"仁德區","LI":"成功里","LIN":"24鄰","STREET":"保華路","SECT":" ","MAREA":" ","LANE":"２６５巷","ALLEY":" ","HOUSE_NO":"１６號","E_COORD97":170631.42999999999,"N_COORD97":2539925.75,"ADDRESS":"保華路２６５巷１６號","OBJECTID":244371},"geometry":{"x":170631.43000000063,"y":2539925.75}},{"attributes":{"ID":244376,"DIS_CODE":0,"TOWNNAME":"仁德區","LI":"太子里","LIN":"24鄰","STREET":"長興五街","SECT":" ","MAREA":" ","LANE":"３６巷","ALLEY":" ","HOUSE_NO":"２５號","E_COORD97":173656.79000000001,"N_COORD97":2543685,"ADDRESS":"長興五街３６巷２５號","OBJECTID":244372},"geometry":{"x":173656.79000000097,"y":2543684.9999999981}},{"attributes":{"ID":244377,"DIS_CODE":0,"TOWNNAME":"仁德區","LI":"成功里","LIN":"24鄰","STREET":"保華路","SECT":" ","MAREA":" ","LANE":"２６５巷","ALLEY":" ","HOUSE_NO":"２號","E_COORD97":170640.87,"N_COORD97":2539964.7400000002,"ADDRESS":"保華路２６５巷２號","OBJECTID":244373},"geometry":{"x":170640.87000000104,"y":2539964.7400000039}},{"attributes":{"ID":244378,"DIS_CODE":0,"TOWNNAME":"仁德區","LI":"大甲里","LIN":"24鄰","STREET":"行大二街","SECT":" ","MAREA":" ","LANE":"１６巷","ALLEY":" ","HOUSE_NO":"６號","E_COORD97":169703.29000000001,"N_COORD97":2535364.75,"ADDRESS":"行大二街１６巷６號","OBJECTID":244374},"geometry":{"x":169703.29000000097,"y":2535364.7500000019}},{"attributes":{"ID":244379,"DIS_CODE":0,"TOWNNAME":"新營區","LI":"民權里","LIN":"5鄰","STREET":"信義街","SECT":" ","MAREA":" ","LANE":"７２巷","ALLEY":" ","HOUSE_NO":"４號","E_COORD97":179944.29999999999,"N_COORD97":2578540.8599999999,"ADDRESS":"信義街７２巷４號","OBJECTID":244375},"geometry":{"x":179944.30000000075,"y":2578540.8599999994}},{"attributes":{"ID":244380,"DIS_CODE":0,"TOWNNAME":"仁德區","LI":"太子里","LIN":"24鄰","STREET":"長興五街","SECT":" ","MAREA":" ","LANE":"３６巷","ALLEY":" ","HOUSE_NO":"１９號","E_COORD97":173643.95999999999,"N_COORD97":2543681,"ADDRESS":"長興五街３６巷１９號","OBJECTID":244376},"geometry":{"x":173643.96000000089,"y":2543681}},{"attributes":{"ID":244381,"DIS_CODE":0,"TOWNNAME":"仁德區","LI":"大甲里","LIN":"24鄰","STREET":"行大二街","SECT":" ","MAREA":" ","LANE":"２６巷","ALLEY":" ","HOUSE_NO":"１３號","E_COORD97":169663.59,"N_COORD97":2535327,"ADDRESS":"行大二街２６巷１３號","OBJECTID":244377},"geometry":{"x":169663.59000000171,"y":2535327}},{"attributes":{"ID":244382,"DIS_CODE":0,"TOWNNAME":"仁德區","LI":"大甲里","LIN":"24鄰","STREET":"行大二街","SECT":" ","MAREA":" ","LANE":"４６巷","ALLEY":" ","HOUSE_NO":"３１號","E_COORD97":169606.42999999999,"N_COORD97":2535293.9900000002,"ADDRESS":"行大二街４６巷３１號","OBJECTID":244378},"geometry":{"x":169606.4299999997,"y":2535293.9900000002}},{"attributes":{"ID":244383,"DIS_CODE":0,"TOWNNAME":"仁德區","LI":"大甲里","LIN":"24鄰","STREET":"行大二街","SECT":" ","MAREA":" ","LANE":"４６巷","ALLEY":" ","HOUSE_NO":"３６號","E_COORD97":169600.57000000001,"N_COORD97":2535316.7400000002,"ADDRESS":"行大二街４６巷３６號","OBJECTID":244379},"geometry":{"x":169600.57000000123,"y":2535316.7400000021}},{"attributes":{"ID":244384,"DIS_CODE":0,"TOWNNAME":"仁德區","LI":"大甲里","LIN":"24鄰","STREET":"行大二街","SECT":" ","MAREA":" ","LANE":"４６巷","ALLEY":" ","HOUSE_NO":"４１號","E_COORD97":169585.25,"N_COORD97":2535301.9900000002,"ADDRESS":"行大二街４６巷４１號","OBJECTID":244380},"geometry":{"x":169585.25000000093,"y":2535301.9900000021}},{"attributes":{"ID":244385,"DIS_CODE":0,"TOWNNAME":"永康區","LI":"永康里","LIN":"24鄰","STREET":"中山南路","SECT":" ","MAREA":" ","LANE":"５９７巷","ALLEY":" ","HOUSE_NO":"３０號之４","E_COORD97":173515.12,"N_COORD97":2547297.29,"ADDRESS":"中山南路５９７巷３０號之４","OBJECTID":244381},"geometry":{"x":173515.12000000197,"y":2547297.290000001}},{"attributes":{"ID":244386,"DIS_CODE":0,"TOWNNAME":"東區","LI":"崇學里","LIN":"14鄰","STREET":"崇德路","SECT":" ","MAREA":" ","LANE":" ","ALLEY":" ","HOUSE_NO":"２６０號八樓之１","E_COORD97":170226.48999999999,"N_COORD97":2542024.9399999999,"ADDRESS":"崇德路２６０號八樓之１","OBJECTID":244382},"geometry":{"x":170226.49000000115,"y":2542024.9400000013}},{"attributes":{"ID":244387,"DIS_CODE":0,"TOWNNAME":"東區","LI":"崇學里","LIN":"14鄰","STREET":"崇德路","SECT":" ","MAREA":" ","LANE":" ","ALLEY":" ","HOUSE_NO":"２６０號八樓之２","E_COORD97":170226.48999999999,"N_COORD97":2542024.9399999999,"ADDRESS":"崇德路２６０號八樓之２","OBJECTID":244383},"geometry":{"x":170226.49000000115,"y":2542024.9400000013}},{"attributes":{"ID":244388,"DIS_CODE":0,"TOWNNAME":"東區","LI":"崇學里","LIN":"14鄰","STREET":"崇德路","SECT":" ","MAREA":" ","LANE":" ","ALLEY":" ","HOUSE_NO":"２６０號八樓之３","E_COORD97":170226.48999999999,"N_COORD97":2542024.9399999999,"ADDRESS":"崇德路２６０號八樓之３","OBJECTID":244384},"geometry":{"x":170226.49000000115,"y":2542024.9400000013}},{"attributes":{"ID":244389,"DIS_CODE":0,"TOWNNAME":"東區","LI":"崇學里","LIN":"14鄰","STREET":"崇德路","SECT":" ","MAREA":" ","LANE":" ","ALLEY":" ","HOUSE_NO":"２６０號八樓之４","E_COORD97":170226.48999999999,"N_COORD97":2542024.9399999999,"ADDRESS":"崇德路２６０號八樓之４","OBJECTID":244385},"geometry":{"x":170226.49000000115,"y":2542024.9400000013}},{"attributes":{"ID":244390,"DIS_CODE":0,"TOWNNAME":"東區","LI":"崇學里","LIN":"14鄰","STREET":"崇德路","SECT":" ","MAREA":" ","LANE":" ","ALLEY":" ","HOUSE_NO":"２６０號八樓之５","E_COORD97":170226.48999999999,"N_COORD97":2542024.9399999999,"ADDRESS":"崇德路２６０號八樓之５","OBJECTID":244386},"geometry":{"x":170226.49000000115,"y":2542024.9400000013}},{"attributes":{"ID":244391,"DIS_CODE":0,"TOWNNAME":"麻豆區","LI":"麻口里","LIN":"11鄰","STREET":" ","SECT":" ","MAREA":"番子寮","LANE":" ","ALLEY":" ","HOUSE_NO":"１４號","E_COORD97":170272.51000000001,"N_COORD97":2563167.8199999998,"ADDRESS":"番子寮１４號","OBJECTID":244387},"geometry":{"x":170272.50999999978,"y":2563167.820000004}},{"attributes":{"ID":244392,"DIS_CODE":0,"TOWNNAME":"麻豆區","LI":"麻口里","LIN":"11鄰","STREET":" ","SECT":" ","MAREA":"番子寮","LANE":" ","ALLEY":" ","HOUSE_NO":"１５號","E_COORD97":170273.56,"N_COORD97":2563190.0899999999,"ADDRESS":"番子寮１５號","OBJECTID":244388},"geometry":{"x":170273.55999999959,"y":2563190.0900000017}},{"attributes":{"ID":244393,"DIS_CODE":0,"TOWNNAME":"麻豆區","LI":"麻口里","LIN":"11鄰","STREET":" ","SECT":" ","MAREA":"番子寮","LANE":" ","ALLEY":" ","HOUSE_NO":"１７號之１","E_COORD97":170287.14000000001,"N_COORD97":2563197.0899999999,"ADDRESS":"番子寮１７號之１","OBJECTID":244389},"geometry":{"x":170287.1400000006,"y":2563197.0900000017}},{"attributes":{"ID":244394,"DIS_CODE":0,"TOWNNAME":"麻豆區","LI":"麻口里","LIN":"11鄰","STREET":" ","SECT":" ","MAREA":"番子寮","LANE":" ","ALLEY":" ","HOUSE_NO":"１７號","E_COORD97":170294.38,"N_COORD97":2563182.25,"ADDRESS":"番子寮１７號","OBJECTID":244390},"geometry":{"x":170294.38000000082,"y":2563182.2500000019}},{"attributes":{"ID":244395,"DIS_CODE":0,"TOWNNAME":"麻豆區","LI":"麻口里","LIN":"11鄰","STREET":" ","SECT":" ","MAREA":"番子寮","LANE":" ","ALLEY":" ","HOUSE_NO":"１８號之１","E_COORD97":170299.32000000001,"N_COORD97":2563160.3500000001,"ADDRESS":"番子寮１８號之１","OBJECTID":244391},"geometry":{"x":170299.3200000003,"y":2563160.3500000034}},{"attributes":{"ID":244396,"DIS_CODE":0,"TOWNNAME":"麻豆區","LI":"麻口里","LIN":"11鄰","STREET":" ","SECT":" ","MAREA":"番子寮","LANE":" ","ALLEY":" ","HOUSE_NO":"１８號","E_COORD97":170298.41,"N_COORD97":2563154.23,"ADDRESS":"番子寮１８號","OBJECTID":244392},"geometry":{"x":170298.41000000015,"y":2563154.2300000004}},{"attributes":{"ID":244397,"DIS_CODE":0,"TOWNNAME":"麻豆區","LI":"麻口里","LIN":"11鄰","STREET":" ","SECT":" ","MAREA":"番子寮","LANE":" ","ALLEY":" ","HOUSE_NO":"２０號之１","E_COORD97":170292.20000000001,"N_COORD97":2563097.7599999998,"ADDRESS":"番子寮２０號之１","OBJECTID":244393},"geometry":{"x":170292.20000000205,"y":2563097.7600000016}},{"attributes":{"ID":244398,"DIS_CODE":0,"TOWNNAME":"麻豆區","LI":"麻口里","LIN":"11鄰","STREET":" ","SECT":" ","MAREA":"番子寮","LANE":" ","ALLEY":" ","HOUSE_NO":"２０號之２","E_COORD97":170286.10000000001,"N_COORD97":2563097.6200000001,"ADDRESS":"番子寮２０號之２","OBJECTID":244394},"geometry":{"x":170286.10000000056,"y":2563097.620000001}},{"attributes":{"ID":244399,"DIS_CODE":0,"TOWNNAME":"麻豆區","LI":"麻口里","LIN":"11鄰","STREET":" ","SECT":" ","MAREA":"番子寮","LANE":" ","ALLEY":" ","HOUSE_NO":"２０號之３","E_COORD97":170281.01999999999,"N_COORD97":2563097.4700000002,"ADDRESS":"番子寮２０號之３","OBJECTID":244395},"geometry":{"x":170281.02000000048,"y":2563097.4700000025}},{"attributes":{"ID":244400,"DIS_CODE":0,"TOWNNAME":"永康區","LI":"永康里","LIN":"24鄰","STREET":"中山南路","SECT":" ","MAREA":" ","LANE":"５９７巷","ALLEY":" ","HOUSE_NO":"１４號之４","E_COORD97":173522.69,"N_COORD97":2547252.7999999998,"ADDRESS":"中山南路５９７巷１４號之４","OBJECTID":244396},"geometry":{"x":173522.69000000041,"y":2547252.8000000007}},{"attributes":{"ID":244401,"DIS_CODE":0,"TOWNNAME":"永康區","LI":"勝利里","LIN":"24鄰","STREET":"勝利街","SECT":" ","MAREA":" ","LANE":"１１６巷","ALLEY":" ","HOUSE_NO":"５號","E_COORD97":171370.88,"N_COORD97":2544874.2599999998,"ADDRESS":"勝利街１１６巷５號","OBJECTID":244397},"geometry":{"x":171370.88000000082,"y":2544874.2600000016}},{"attributes":{"ID":244402,"DIS_CODE":0,"TOWNNAME":"永康區","LI":"崑山里","LIN":"24鄰","STREET":"國光一街","SECT":" ","MAREA":" ","LANE":"７０巷","ALLEY":" ","HOUSE_NO":"３號","E_COORD97":173838.98999999999,"N_COORD97":2544651.2799999998,"ADDRESS":"國光一街７０巷３號","OBJECTID":244398},"geometry":{"x":173838.99000000115,"y":2544651.2799999993}},{"attributes":{"ID":244403,"DIS_CODE":0,"TOWNNAME":"永康區","LI":"西勢里","LIN":"24鄰","STREET":"廣興街","SECT":" ","MAREA":" ","LANE":"３８巷","ALLEY":" ","HOUSE_NO":"６號之１","E_COORD97":175927.35999999999,"N_COORD97":2546540.3999999999,"ADDRESS":"廣興街３８巷６號之１","OBJECTID":244399},"geometry":{"x":175927.36000000034,"y":2546540.4000000004}},{"attributes":{"ID":244404,"DIS_CODE":0,"TOWNNAME":"永康區","LI":"永康里","LIN":"24鄰","STREET":"中山南路","SECT":" ","MAREA":" ","LANE":"６２１巷","ALLEY":" ","HOUSE_NO":"３９號","E_COORD97":173536.42999999999,"N_COORD97":2547340.25,"ADDRESS":"中山南路６２１巷３９號","OBJECTID":244400},"geometry":{"x":173536.43000000156,"y":2547340.25}}]}