{"displayFieldName":"TOWNNAME","fieldAliases":{"ID":"ID","DIS_CODE":"DIS_CODE","TOWNNAME":"TOWNNAME","LI":"LI","LIN":"LIN","STREET":"STREET","SECT":"SECT","MAREA":"MAREA","LANE":"LANE","ALLEY":"ALLEY","HOUSE_NO":"HOUSE_NO","E_COORD97":"E_COORD97","N_COORD97":"N_COORD97","ADDRESS":"ADDRESS","OBJECTID":"OBJECTID"},"geometryType":"esriGeometryPoint","spatialReference":{"wkid":102443,"latestWkid":3826},"fields":[{"name":"ID","type":"esriFieldTypeDouble","alias":"ID"},{"name":"DIS_CODE","type":"esriFieldTypeInteger","alias":"DIS_CODE"},{"name":"TOWNNAME","type":"esriFieldTypeString","alias":"TOWNNAME","length":8},{"name":"LI","type":"esriFieldTypeString","alias":"LI","length":8},{"name":"LIN","type":"esriFieldTypeString","alias":"LIN","length":12},{"name":"STREET","type":"esriFieldTypeString","alias":"STREET","length":20},{"name":"SECT","type":"esriFieldTypeString","alias":"SECT","length":8},{"name":"MAREA","type":"esriFieldTypeString","alias":"MAREA","length":12},{"name":"LANE","type":"esriFieldTypeString","alias":"LANE","length":10},{"name":"ALLEY","type":"esriFieldTypeString","alias":"ALLEY","length":10},{"name":"HOUSE_NO","type":"esriFieldTypeString","alias":"HOUSE_NO","length":20},{"name":"E_COORD97","type":"esriFieldTypeDouble","alias":"E_COORD97"},{"name":"N_COORD97","type":"esriFieldTypeDouble","alias":"N_COORD97"},{"name":"ADDRESS","type":"esriFieldTypeString","alias":"ADDRESS","length":50},{"name":"OBJECTID","type":"esriFieldTypeOID","alias":"OBJECTID"}],"features":[{"attributes":{"ID":456626,"DIS_CODE":0,"TOWNNAME":"永康區","LI":"崑山里","LIN":"46鄰","STREET":"崑山街","SECT":" ","MAREA":" ","LANE":"２５８巷","ALLEY":" ","HOUSE_NO":"３號","E_COORD97":174151.82000000001,"N_COORD97":2545147.8300000001,"ADDRESS":"崑山街２５８巷３號","OBJECTID":456601},"geometry":{"x":174151.82000000123,"y":2545147.8300000038}},{"attributes":{"ID":456627,"DIS_CODE":0,"TOWNNAME":"永康區","LI":"崑山里","LIN":"46鄰","STREET":"崑山街","SECT":" ","MAREA":" ","LANE":"２５８巷","ALLEY":" ","HOUSE_NO":"２０號","E_COORD97":174181.54000000001,"N_COORD97":2545122,"ADDRESS":"崑山街２５８巷２０號","OBJECTID":456602},"geometry":{"x":174181.54000000004,"y":2545122}},{"attributes":{"ID":456628,"DIS_CODE":0,"TOWNNAME":"永康區","LI":"崑山里","LIN":"46鄰","STREET":"崑山街","SECT":" ","MAREA":" ","LANE":"２５８巷","ALLEY":" ","HOUSE_NO":"１０號","E_COORD97":174159.35999999999,"N_COORD97":2545126.3900000001,"ADDRESS":"崑山街２５８巷１０號","OBJECTID":456603},"geometry":{"x":174159.36000000034,"y":2545126.3900000006}},{"attributes":{"ID":456629,"DIS_CODE":0,"TOWNNAME":"永康區","LI":"崑山里","LIN":"46鄰","STREET":"崑山街","SECT":" ","MAREA":" ","LANE":"２５８巷","ALLEY":" ","HOUSE_NO":"２號","E_COORD97":174141.64999999999,"N_COORD97":2545132.6400000001,"ADDRESS":"崑山街２５８巷２號","OBJECTID":456604},"geometry":{"x":174141.65000000037,"y":2545132.6400000043}},{"attributes":{"ID":456630,"DIS_CODE":0,"TOWNNAME":"永康區","LI":"崑山里","LIN":"46鄰","STREET":"國光五街","SECT":" ","MAREA":" ","LANE":"２２巷","ALLEY":" ","HOUSE_NO":"５１號","E_COORD97":174245.01000000001,"N_COORD97":2545214.6400000001,"ADDRESS":"國光五街２２巷５１號","OBJECTID":456605},"geometry":{"x":174245.01000000071,"y":2545214.6400000025}},{"attributes":{"ID":456631,"DIS_CODE":0,"TOWNNAME":"永康區","LI":"崑山里","LIN":"46鄰","STREET":"崑山街","SECT":" ","MAREA":" ","LANE":"２５８巷","ALLEY":" ","HOUSE_NO":"３２號","E_COORD97":174203.25,"N_COORD97":2545110.0299999998,"ADDRESS":"崑山街２５８巷３２號","OBJECTID":456606},"geometry":{"x":174203.25000000093,"y":2545110.0299999993}},{"attributes":{"ID":456632,"DIS_CODE":0,"TOWNNAME":"永康區","LI":"崑山里","LIN":"46鄰","STREET":"崑山街","SECT":" ","MAREA":" ","LANE":"２５８巷","ALLEY":" ","HOUSE_NO":"１４號","E_COORD97":174168.13,"N_COORD97":2545124.6400000001,"ADDRESS":"崑山街２５８巷１４號","OBJECTID":456607},"geometry":{"x":174168.13000000082,"y":2545124.6400000006}},{"attributes":{"ID":456633,"DIS_CODE":0,"TOWNNAME":"永康區","LI":"崑山里","LIN":"46鄰","STREET":"崑山街","SECT":" ","MAREA":" ","LANE":"２５８巷","ALLEY":" ","HOUSE_NO":"１２號","E_COORD97":174163.57000000001,"N_COORD97":2545125.1400000001,"ADDRESS":"崑山街２５８巷１２號","OBJECTID":456608},"geometry":{"x":174163.57000000123,"y":2545125.1400000006}},{"attributes":{"ID":456634,"DIS_CODE":0,"TOWNNAME":"永康區","LI":"崑山里","LIN":"46鄰","STREET":"崑山街","SECT":" ","MAREA":" ","LANE":"２５８巷","ALLEY":" ","HOUSE_NO":"７號","E_COORD97":174159.82000000001,"N_COORD97":2545145.0800000001,"ADDRESS":"崑山街２５８巷７號","OBJECTID":456609},"geometry":{"x":174159.82000000216,"y":2545145.0800000001}},{"attributes":{"ID":456635,"DIS_CODE":0,"TOWNNAME":"仁德區","LI":"成功里","LIN":"46鄰","STREET":"文賢路","SECT":"一段","MAREA":" ","LANE":"８１巷","ALLEY":" ","HOUSE_NO":"６３號","E_COORD97":170270.95999999999,"N_COORD97":2538320.5699999998,"ADDRESS":"文賢路一段８１巷６３號","OBJECTID":456610},"geometry":{"x":170270.95999999996,"y":2538320.5700000003}},{"attributes":{"ID":456636,"DIS_CODE":0,"TOWNNAME":"永康區","LI":"崑山里","LIN":"46鄰","STREET":"國光五街","SECT":" ","MAREA":" ","LANE":"２２巷","ALLEY":" ","HOUSE_NO":"３３號","E_COORD97":174232.67000000001,"N_COORD97":2545174.6099999999,"ADDRESS":"國光五街２２巷３３號","OBJECTID":456611},"geometry":{"x":174232.66999999993,"y":2545174.6099999994}},{"attributes":{"ID":456637,"DIS_CODE":0,"TOWNNAME":"永康區","LI":"崑山里","LIN":"46鄰","STREET":"國光五街","SECT":" ","MAREA":" ","LANE":"２２巷","ALLEY":" ","HOUSE_NO":"３５號","E_COORD97":174233.73999999999,"N_COORD97":2545178.8300000001,"ADDRESS":"國光五街２２巷３５號","OBJECTID":456612},"geometry":{"x":174233.74000000115,"y":2545178.8300000019}},{"attributes":{"ID":456638,"DIS_CODE":0,"TOWNNAME":"永康區","LI":"崑山里","LIN":"46鄰","STREET":"國光五街","SECT":" ","MAREA":" ","LANE":"２２巷","ALLEY":" ","HOUSE_NO":"３７號","E_COORD97":174235.32000000001,"N_COORD97":2545183.71,"ADDRESS":"國光五街２２巷３７號","OBJECTID":456613},"geometry":{"x":174235.3200000003,"y":2545183.7100000028}},{"attributes":{"ID":456639,"DIS_CODE":0,"TOWNNAME":"永康區","LI":"崑山里","LIN":"46鄰","STREET":"國光五街","SECT":" ","MAREA":" ","LANE":"２２巷","ALLEY":" ","HOUSE_NO":"３９號","E_COORD97":174236.39000000001,"N_COORD97":2545188.5099999998,"ADDRESS":"國光五街２２巷３９號","OBJECTID":456614},"geometry":{"x":174236.38999999966,"y":2545188.5100000016}},{"attributes":{"ID":456640,"DIS_CODE":0,"TOWNNAME":"永康區","LI":"正強里","LIN":"46鄰","STREET":"中正路","SECT":" ","MAREA":" ","LANE":"２５６巷","ALLEY":" ","HOUSE_NO":"９號之２７","E_COORD97":173207.14000000001,"N_COORD97":2547991.8799999999,"ADDRESS":"中正路２５６巷９號之２７","OBJECTID":456615},"geometry":{"x":173207.13999999966,"y":2547991.8800000008}},{"attributes":{"ID":456641,"DIS_CODE":0,"TOWNNAME":"永康區","LI":"正強里","LIN":"46鄰","STREET":"中正路","SECT":" ","MAREA":" ","LANE":"２５６巷","ALLEY":" ","HOUSE_NO":"９號之５５","E_COORD97":173207.20999999999,"N_COORD97":2547991.8799999999,"ADDRESS":"中正路２５６巷９號之５５","OBJECTID":456616},"geometry":{"x":173207.20999999996,"y":2547991.8800000008}},{"attributes":{"ID":456642,"DIS_CODE":0,"TOWNNAME":"永康區","LI":"崑山里","LIN":"46鄰","STREET":"崑山街","SECT":" ","MAREA":" ","LANE":"２５８巷","ALLEY":" ","HOUSE_NO":"６號","E_COORD97":174150.26999999999,"N_COORD97":2545129.6400000001,"ADDRESS":"崑山街２５８巷６號","OBJECTID":456617},"geometry":{"x":174150.26999999955,"y":2545129.6400000025}},{"attributes":{"ID":456643,"DIS_CODE":0,"TOWNNAME":"永康區","LI":"崑山里","LIN":"46鄰","STREET":"崑山街","SECT":" ","MAREA":" ","LANE":"２５８巷","ALLEY":" ","HOUSE_NO":"１號","E_COORD97":174147.91,"N_COORD97":2545149.5800000001,"ADDRESS":"崑山街２５８巷１號","OBJECTID":456618},"geometry":{"x":174147.91000000108,"y":2545149.5800000038}},{"attributes":{"ID":456644,"DIS_CODE":0,"TOWNNAME":"永康區","LI":"崑山里","LIN":"46鄰","STREET":"國光五街","SECT":" ","MAREA":" ","LANE":"２２巷","ALLEY":" ","HOUSE_NO":"６１號","E_COORD97":174252.66,"N_COORD97":2545235.4100000001,"ADDRESS":"國光五街２２巷６１號","OBJECTID":456619},"geometry":{"x":174252.66000000108,"y":2545235.4100000039}},{"attributes":{"ID":456645,"DIS_CODE":0,"TOWNNAME":"永康區","LI":"崑山里","LIN":"46鄰","STREET":"崑山街","SECT":" ","MAREA":" ","LANE":"２５８巷","ALLEY":" ","HOUSE_NO":"８號","E_COORD97":174154.20000000001,"N_COORD97":2545128.1400000001,"ADDRESS":"崑山街２５８巷８號","OBJECTID":456620},"geometry":{"x":174154.20000000112,"y":2545128.1400000006}},{"attributes":{"ID":456646,"DIS_CODE":0,"TOWNNAME":"北區","LI":"成德里","LIN":"19鄰","STREET":"育成路","SECT":" ","MAREA":" ","LANE":" ","ALLEY":" ","HOUSE_NO":"８號","E_COORD97":169013.32000000001,"N_COORD97":2546312.2000000002,"ADDRESS":"育成路８號","OBJECTID":456621},"geometry":{"x":169013.32000000216,"y":2546312.2000000011}},{"attributes":{"ID":456647,"DIS_CODE":0,"TOWNNAME":"南區","LI":"大成里","LIN":" ","STREET":"西門路","SECT":"一段","MAREA":" ","LANE":"３５２巷","ALLEY":" ","HOUSE_NO":"１號","E_COORD97":167790.38,"N_COORD97":2542331.77,"ADDRESS":"西門路一段３５２巷１號","OBJECTID":456622},"geometry":{"x":167790.38000000082,"y":2542331.7700000014}},{"attributes":{"ID":456648,"DIS_CODE":0,"TOWNNAME":"安南區","LI":"鳳凰里","LIN":"20鄰","STREET":"怡安路","SECT":"二段","MAREA":" ","LANE":"４９５巷","ALLEY":" ","HOUSE_NO":"１２號","E_COORD97":167624.543244,"N_COORD97":2549377.9895899999,"ADDRESS":"怡安路二段４９５巷１２號","OBJECTID":456623},"geometry":{"x":167624.54324399959,"y":2549377.989585001}},{"attributes":{"ID":456649,"DIS_CODE":0,"TOWNNAME":"歸仁區","LI":"六甲里","LIN":"43鄰","STREET":"民生十二街","SECT":" ","MAREA":" ","LANE":"７１巷","ALLEY":" ","HOUSE_NO":"２０號","E_COORD97":175829.10000000001,"N_COORD97":2539424.7999999998,"ADDRESS":"民生十二街７１巷２０號","OBJECTID":456624},"geometry":{"x":175829.10000000056,"y":2539424.8000000007}},{"attributes":{"ID":456650,"DIS_CODE":0,"TOWNNAME":"歸仁區","LI":"六甲里","LIN":"43鄰","STREET":"民生十二街","SECT":" ","MAREA":" ","LANE":"７１巷","ALLEY":" ","HOUSE_NO":"３８號","E_COORD97":175864.70000000001,"N_COORD97":2539363.7999999998,"ADDRESS":"民生十二街７１巷３８號","OBJECTID":456625},"geometry":{"x":175864.70000000112,"y":2539363.8000000007}},{"attributes":{"ID":456651,"DIS_CODE":0,"TOWNNAME":"歸仁區","LI":"六甲里","LIN":"43鄰","STREET":"民生十二街","SECT":" ","MAREA":" ","LANE":"７１巷","ALLEY":" ","HOUSE_NO":"２８號","E_COORD97":175863.89999999999,"N_COORD97":2539407.7999999998,"ADDRESS":"民生十二街７１巷２８號","OBJECTID":456626},"geometry":{"x":175863.9000000013,"y":2539407.8000000007}},{"attributes":{"ID":456652,"DIS_CODE":0,"TOWNNAME":"歸仁區","LI":"六甲里","LIN":"43鄰","STREET":"民生十二街","SECT":" ","MAREA":" ","LANE":"７１巷","ALLEY":" ","HOUSE_NO":"２６號","E_COORD97":175852.70000000001,"N_COORD97":2539415.7999999998,"ADDRESS":"民生十二街７１巷２６號","OBJECTID":456627},"geometry":{"x":175852.70000000112,"y":2539415.8000000026}},{"attributes":{"ID":456653,"DIS_CODE":0,"TOWNNAME":"歸仁區","LI":"後市里","LIN":"43鄰","STREET":"中山八街","SECT":" ","MAREA":" ","LANE":"１５巷","ALLEY":" ","HOUSE_NO":"２６號","E_COORD97":177171.67999999999,"N_COORD97":2540981.7400000002,"ADDRESS":"中山八街１５巷２６號","OBJECTID":456628},"geometry":{"x":177171.68000000063,"y":2540981.7400000039}},{"attributes":{"ID":456654,"DIS_CODE":0,"TOWNNAME":"歸仁區","LI":"六甲里","LIN":"43鄰","STREET":"民生十二街","SECT":" ","MAREA":" ","LANE":"７１巷","ALLEY":" ","HOUSE_NO":"４６號","E_COORD97":175858.39999999999,"N_COORD97":2539335.7999999998,"ADDRESS":"民生十二街７１巷４６號","OBJECTID":456629},"geometry":{"x":175858.4000000013,"y":2539335.8000000026}},{"attributes":{"ID":456655,"DIS_CODE":0,"TOWNNAME":"歸仁區","LI":"六甲里","LIN":"43鄰","STREET":"民生十二街","SECT":" ","MAREA":" ","LANE":"７１巷","ALLEY":" ","HOUSE_NO":"５４號","E_COORD97":175844,"N_COORD97":2539329.7999999998,"ADDRESS":"民生十二街７１巷５４號","OBJECTID":456630},"geometry":{"x":175844.00000000093,"y":2539329.8000000007}},{"attributes":{"ID":456656,"DIS_CODE":0,"TOWNNAME":"歸仁區","LI":"六甲里","LIN":"43鄰","STREET":"民生十二街","SECT":" ","MAREA":" ","LANE":"７１巷","ALLEY":" ","HOUSE_NO":"１６號","E_COORD97":175834.29999999999,"N_COORD97":2539436.7999999998,"ADDRESS":"民生十二街７１巷１６號","OBJECTID":456631},"geometry":{"x":175834.30000000168,"y":2539436.8000000026}},{"attributes":{"ID":456657,"DIS_CODE":0,"TOWNNAME":"仁德區","LI":"仁德里","LIN":"43鄰","STREET":"中山路","SECT":" ","MAREA":" ","LANE":"９１０巷","ALLEY":" ","HOUSE_NO":"３１號","E_COORD97":172003.95000000001,"N_COORD97":2541815.7400000002,"ADDRESS":"中山路９１０巷３１號","OBJECTID":456632},"geometry":{"x":172003.95000000019,"y":2541815.7400000039}},{"attributes":{"ID":456658,"DIS_CODE":0,"TOWNNAME":"永康區","LI":"正強里","LIN":"43鄰","STREET":"中正路","SECT":" ","MAREA":" ","LANE":"２５６巷","ALLEY":" ","HOUSE_NO":"３號之４５","E_COORD97":173149.29000000001,"N_COORD97":2547954.29,"ADDRESS":"中正路２５６巷３號之４５","OBJECTID":456633},"geometry":{"x":173149.29000000004,"y":2547954.2900000028}},{"attributes":{"ID":456659,"DIS_CODE":0,"TOWNNAME":"永康區","LI":"二王里","LIN":"43鄰","STREET":"中山南路","SECT":" ","MAREA":" ","LANE":"３１６巷","ALLEY":" ","HOUSE_NO":"６０號","E_COORD97":172121.26999999999,"N_COORD97":2546127.5699999998,"ADDRESS":"中山南路３１６巷６０號","OBJECTID":456634},"geometry":{"x":172121.26999999955,"y":2546127.5700000022}},{"attributes":{"ID":456660,"DIS_CODE":0,"TOWNNAME":"永康區","LI":"西灣里","LIN":"43鄰","STREET":"大灣路","SECT":" ","MAREA":" ","LANE":"９４２巷","ALLEY":" ","HOUSE_NO":"３８０號","E_COORD97":173964.26000000001,"N_COORD97":2545455.2400000002,"ADDRESS":"大灣路９４２巷３８０號","OBJECTID":456635},"geometry":{"x":173964.25999999978,"y":2545455.2400000021}},{"attributes":{"ID":456661,"DIS_CODE":0,"TOWNNAME":"永康區","LI":"\u25A0行里","LIN":"43鄰","STREET":"\u25A0和街","SECT":" ","MAREA":" ","LANE":"２６３巷","ALLEY":" ","HOUSE_NO":"２３號","E_COORD97":171405.01000000001,"N_COORD97":2548358.0800000001,"ADDRESS":"\u25A0和街２６３巷２３號","OBJECTID":456636},"geometry":{"x":171405.01000000164,"y":2548358.0800000019}},{"attributes":{"ID":456662,"DIS_CODE":0,"TOWNNAME":"永康區","LI":"\u25A0行里","LIN":"43鄰","STREET":"\u25A0和街","SECT":" ","MAREA":" ","LANE":"２６３巷","ALLEY":" ","HOUSE_NO":"２號","E_COORD97":171460.42000000001,"N_COORD97":2548449.2400000002,"ADDRESS":"\u25A0和街２６３巷２號","OBJECTID":456637},"geometry":{"x":171460.42000000086,"y":2548449.2400000002}},{"attributes":{"ID":456663,"DIS_CODE":0,"TOWNNAME":"永康區","LI":"\u25A0行里","LIN":"43鄰","STREET":"\u25A0和街","SECT":" ","MAREA":" ","LANE":"２６３巷","ALLEY":" ","HOUSE_NO":"１５號","E_COORD97":171438.60000000001,"N_COORD97":2548386.25,"ADDRESS":"\u25A0和街２６３巷１５號","OBJECTID":456638},"geometry":{"x":171438.60000000056,"y":2548386.2500000019}},{"attributes":{"ID":456664,"DIS_CODE":0,"TOWNNAME":"永康區","LI":"\u25A0行里","LIN":"43鄰","STREET":"中正二街","SECT":" ","MAREA":" ","LANE":"３３６巷","ALLEY":" ","HOUSE_NO":"１６號","E_COORD97":171733.54999999999,"N_COORD97":2547879.25,"ADDRESS":"中正二街３３６巷１６號","OBJECTID":456639},"geometry":{"x":171733.54999999888,"y":2547879.25}},{"attributes":{"ID":456665,"DIS_CODE":0,"TOWNNAME":"永康區","LI":"\u25A0行里","LIN":"43鄰","STREET":"\u25A0和街","SECT":" ","MAREA":" ","LANE":"２６３巷","ALLEY":" ","HOUSE_NO":"８號","E_COORD97":171442.07999999999,"N_COORD97":2548432.7400000002,"ADDRESS":"\u25A0和街２６３巷８號","OBJECTID":456640},"geometry":{"x":171442.07999999914,"y":2548432.7400000002}},{"attributes":{"ID":456666,"DIS_CODE":0,"TOWNNAME":"永康區","LI":"\u25A0行里","LIN":"43鄰","STREET":"\u25A0和街","SECT":" ","MAREA":" ","LANE":"２６３巷","ALLEY":" ","HOUSE_NO":"２０號","E_COORD97":171386.45999999999,"N_COORD97":2548378,"ADDRESS":"\u25A0和街２６３巷２０號","OBJECTID":456641},"geometry":{"x":171386.45999999996,"y":2548378.0000000019}},{"attributes":{"ID":456667,"DIS_CODE":0,"TOWNNAME":"永康區","LI":"\u25A0行里","LIN":"43鄰","STREET":"\u25A0和街","SECT":" ","MAREA":" ","LANE":"２６３巷","ALLEY":" ","HOUSE_NO":"１８號","E_COORD97":171396.95999999999,"N_COORD97":2548387.75,"ADDRESS":"\u25A0和街２６３巷１８號","OBJECTID":456642},"geometry":{"x":171396.95999999996,"y":2548387.75}},{"attributes":{"ID":456668,"DIS_CODE":0,"TOWNNAME":"永康區","LI":"\u25A0行里","LIN":"43鄰","STREET":"\u25A0和街","SECT":" ","MAREA":" ","LANE":"２６３巷","ALLEY":" ","HOUSE_NO":"１０號","E_COORD97":171420.14000000001,"N_COORD97":2548412.5800000001,"ADDRESS":"\u25A0和街２６３巷１０號","OBJECTID":456643},"geometry":{"x":171420.1400000006,"y":2548412.5800000019}},{"attributes":{"ID":456669,"DIS_CODE":0,"TOWNNAME":"永康區","LI":"\u25A0行里","LIN":"43鄰","STREET":"中正南路","SECT":" ","MAREA":" ","LANE":"４９０巷","ALLEY":" ","HOUSE_NO":"６０號","E_COORD97":171618.19,"N_COORD97":2548128.3399999999,"ADDRESS":"中正南路４９０巷６０號","OBJECTID":456644},"geometry":{"x":171618.19000000227,"y":2548128.3400000017}},{"attributes":{"ID":456670,"DIS_CODE":0,"TOWNNAME":"永康區","LI":"\u25A0行里","LIN":"43鄰","STREET":"中正南路","SECT":" ","MAREA":" ","LANE":"４９０巷","ALLEY":" ","HOUSE_NO":"１０號之１","E_COORD97":171362.84,"N_COORD97":2548319.4900000002,"ADDRESS":"中正南路４９０巷１０號之１","OBJECTID":456645},"geometry":{"x":171362.84000000078,"y":2548319.4900000002}},{"attributes":{"ID":456671,"DIS_CODE":0,"TOWNNAME":"永康區","LI":"\u25A0行里","LIN":"43鄰","STREET":"中正二街","SECT":" ","MAREA":" ","LANE":"３３６巷","ALLEY":" ","HOUSE_NO":"１２號","E_COORD97":171728.20000000001,"N_COORD97":2547885,"ADDRESS":"中正二街３３６巷１２號","OBJECTID":456646},"geometry":{"x":171728.20000000112,"y":2547885}},{"attributes":{"ID":456672,"DIS_CODE":0,"TOWNNAME":"歸仁區","LI":"辜厝里","LIN":"41鄰","STREET":"大吉街","SECT":" ","MAREA":" ","LANE":"１３０巷","ALLEY":" ","HOUSE_NO":"６號","E_COORD97":177176.54000000001,"N_COORD97":2540506.6800000002,"ADDRESS":"大吉街１３０巷６號","OBJECTID":456647},"geometry":{"x":177176.54000000004,"y":2540506.6799999978}},{"attributes":{"ID":456673,"DIS_CODE":0,"TOWNNAME":"永康區","LI":"\u25A0行里","LIN":"43鄰","STREET":"中正南路","SECT":" ","MAREA":" ","LANE":"４９０巷","ALLEY":" ","HOUSE_NO":"６３號之３","E_COORD97":171676.22,"N_COORD97":2548150.04,"ADDRESS":"中正南路４９０巷６３號之３","OBJECTID":456648},"geometry":{"x":171676.21999999974,"y":2548150.040000001}},{"attributes":{"ID":456674,"DIS_CODE":0,"TOWNNAME":"永康區","LI":"\u25A0行里","LIN":"43鄰","STREET":"中正南路","SECT":" ","MAREA":" ","LANE":"４９０巷","ALLEY":" ","HOUSE_NO":"６３號","E_COORD97":171653.13,"N_COORD97":2548149.4900000002,"ADDRESS":"中正南路４９０巷６３號","OBJECTID":456649},"geometry":{"x":171653.12999999989,"y":2548149.4900000002}},{"attributes":{"ID":456675,"DIS_CODE":0,"TOWNNAME":"永康區","LI":"\u25A0行里","LIN":"43鄰","STREET":"中正南路","SECT":" ","MAREA":" ","LANE":"４９０巷","ALLEY":" ","HOUSE_NO":"１０號","E_COORD97":171337.62,"N_COORD97":2548346.8500000001,"ADDRESS":"中正南路４９０巷１０號","OBJECTID":456650},"geometry":{"x":171337.62000000104,"y":2548346.8499999996}},{"attributes":{"ID":456676,"DIS_CODE":0,"TOWNNAME":"永康區","LI":"正強里","LIN":"43鄰","STREET":"中正路","SECT":" ","MAREA":" ","LANE":"２５６巷","ALLEY":" ","HOUSE_NO":"３號之１６","E_COORD97":173149.23999999999,"N_COORD97":2547954.29,"ADDRESS":"中正路２５６巷３號之１６","OBJECTID":456651},"geometry":{"x":173149.24000000022,"y":2547954.2900000028}},{"attributes":{"ID":456677,"DIS_CODE":0,"TOWNNAME":"永康區","LI":"正強里","LIN":"43鄰","STREET":"中正路","SECT":" ","MAREA":" ","LANE":"２５６巷","ALLEY":" ","HOUSE_NO":"３號之４０","E_COORD97":173149.19,"N_COORD97":2547954.29,"ADDRESS":"中正路２５６巷３號之４０","OBJECTID":456652},"geometry":{"x":173149.19000000134,"y":2547954.2900000028}},{"attributes":{"ID":456678,"DIS_CODE":0,"TOWNNAME":"永康區","LI":"\u25A0行里","LIN":"43鄰","STREET":"中正南路","SECT":" ","MAREA":" ","LANE":"４９０巷","ALLEY":" ","HOUSE_NO":"４９號","E_COORD97":171479.92999999999,"N_COORD97":2548273.75,"ADDRESS":"中正南路４９０巷４９號","OBJECTID":456653},"geometry":{"x":171479.9299999997,"y":2548273.75}},{"attributes":{"ID":456679,"DIS_CODE":0,"TOWNNAME":"永康區","LI":"崑山里","LIN":"43鄰","STREET":"大灣路","SECT":" ","MAREA":" ","LANE":"９４２巷","ALLEY":" ","HOUSE_NO":"３５７號","E_COORD97":173848.09,"N_COORD97":2545153.7400000002,"ADDRESS":"大灣路９４２巷３５７號","OBJECTID":456654},"geometry":{"x":173848.09000000078,"y":2545153.7400000002}},{"attributes":{"ID":456680,"DIS_CODE":0,"TOWNNAME":"永康區","LI":"崑山里","LIN":"43鄰","STREET":"大灣路","SECT":" ","MAREA":" ","LANE":"９４２巷","ALLEY":" ","HOUSE_NO":"３４７號","E_COORD97":173839.84,"N_COORD97":2545134.7400000002,"ADDRESS":"大灣路９４２巷３４７號","OBJECTID":456655},"geometry":{"x":173839.83999999985,"y":2545134.7399999984}},{"attributes":{"ID":456681,"DIS_CODE":0,"TOWNNAME":"永康區","LI":"\u25A0行里","LIN":"43鄰","STREET":"\u25A0和街","SECT":" ","MAREA":" ","LANE":"２６３巷","ALLEY":" ","HOUSE_NO":"１６號","E_COORD97":171400.45999999999,"N_COORD97":2548399.75,"ADDRESS":"\u25A0和街２６３巷１６號","OBJECTID":456656},"geometry":{"x":171400.46000000183,"y":2548399.7500000037}},{"attributes":{"ID":456682,"DIS_CODE":0,"TOWNNAME":"永康區","LI":"\u25A0行里","LIN":"43鄰","STREET":"\u25A0和街","SECT":" ","MAREA":" ","LANE":"２６３巷","ALLEY":" ","HOUSE_NO":"２１號","E_COORD97":171415.01000000001,"N_COORD97":2548369.3300000001,"ADDRESS":"\u25A0和街２６３巷２１號","OBJECTID":456657},"geometry":{"x":171415.00999999978,"y":2548369.3300000019}},{"attributes":{"ID":456683,"DIS_CODE":0,"TOWNNAME":"永康區","LI":"\u25A0行里","LIN":"43鄰","STREET":"中正二街","SECT":" ","MAREA":" ","LANE":"２８５巷","ALLEY":" ","HOUSE_NO":"２５號","E_COORD97":171655.95999999999,"N_COORD97":2547974,"ADDRESS":"中正二街２８５巷２５號","OBJECTID":456658},"geometry":{"x":171655.95999999996,"y":2547974.0000000037}},{"attributes":{"ID":456684,"DIS_CODE":0,"TOWNNAME":"永康區","LI":"\u25A0行里","LIN":"43鄰","STREET":"中正南路","SECT":" ","MAREA":" ","LANE":"４９０巷","ALLEY":" ","HOUSE_NO":"５１號","E_COORD97":171508.28,"N_COORD97":2548181.6499999999,"ADDRESS":"中正南路４９０巷５１號","OBJECTID":456659},"geometry":{"x":171508.28000000026,"y":2548181.6500000022}},{"attributes":{"ID":456685,"DIS_CODE":0,"TOWNNAME":"仁德區","LI":"太子里","LIN":"43鄰","STREET":"太子路","SECT":" ","MAREA":" ","LANE":"３１巷","ALLEY":" ","HOUSE_NO":"５５號","E_COORD97":175266.32000000001,"N_COORD97":2543143.5,"ADDRESS":"太子路３１巷５５號","OBJECTID":456660},"geometry":{"x":175266.3200000003,"y":2543143.5000000019}},{"attributes":{"ID":456686,"DIS_CODE":0,"TOWNNAME":"仁德區","LI":"太子里","LIN":"43鄰","STREET":"太子路","SECT":" ","MAREA":" ","LANE":"３１巷","ALLEY":" ","HOUSE_NO":"７１號","E_COORD97":175248.34,"N_COORD97":2543086.5,"ADDRESS":"太子路３１巷７１號","OBJECTID":456661},"geometry":{"x":175248.34000000078,"y":2543086.5000000019}},{"attributes":{"ID":456687,"DIS_CODE":0,"TOWNNAME":"仁德區","LI":"太子里","LIN":"43鄰","STREET":"太子路","SECT":" ","MAREA":" ","LANE":"１０１巷","ALLEY":" ","HOUSE_NO":"３號","E_COORD97":174935.20000000001,"N_COORD97":2543507.7599999998,"ADDRESS":"太子路１０１巷３號","OBJECTID":456662},"geometry":{"x":174935.20000000205,"y":2543507.7600000016}},{"attributes":{"ID":456688,"DIS_CODE":0,"TOWNNAME":"仁德區","LI":"仁德里","LIN":"43鄰","STREET":"中山路","SECT":" ","MAREA":" ","LANE":"９１０巷","ALLEY":" ","HOUSE_NO":"３８號","E_COORD97":172046.60000000001,"N_COORD97":2541813.9900000002,"ADDRESS":"中山路９１０巷３８號","OBJECTID":456663},"geometry":{"x":172046.59999999963,"y":2541813.9900000039}},{"attributes":{"ID":456689,"DIS_CODE":0,"TOWNNAME":"仁德區","LI":"仁義里","LIN":"43鄰","STREET":"中正路","SECT":"二段","MAREA":" ","LANE":"１０３４巷","ALLEY":" ","HOUSE_NO":"１８號","E_COORD97":173458.47,"N_COORD97":2540881.1000000001,"ADDRESS":"中正路二段１０３４巷１８號","OBJECTID":456664},"geometry":{"x":173458.47000000067,"y":2540881.1000000015}},{"attributes":{"ID":456690,"DIS_CODE":0,"TOWNNAME":"仁德區","LI":"仁義里","LIN":"43鄰","STREET":"中正路","SECT":"二段","MAREA":" ","LANE":"９９４巷","ALLEY":" ","HOUSE_NO":"４３號","E_COORD97":173538.73999999999,"N_COORD97":2540830.5299999998,"ADDRESS":"中正路二段９９４巷４３號","OBJECTID":456665},"geometry":{"x":173538.74000000115,"y":2540830.5300000012}},{"attributes":{"ID":456691,"DIS_CODE":0,"TOWNNAME":"仁德區","LI":"仁義里","LIN":"43鄰","STREET":"中正路","SECT":"二段","MAREA":" ","LANE":"１０３４巷","ALLEY":" ","HOUSE_NO":"２號","E_COORD97":173420.5,"N_COORD97":2540869.1000000001,"ADDRESS":"中正路二段１０３４巷２號","OBJECTID":456666},"geometry":{"x":173420.5,"y":2540869.0999999996}},{"attributes":{"ID":456692,"DIS_CODE":0,"TOWNNAME":"仁德區","LI":"仁義里","LIN":"43鄰","STREET":"仁義路","SECT":" ","MAREA":" ","LANE":"７０巷","ALLEY":" ","HOUSE_NO":"１８號","E_COORD97":173544.5,"N_COORD97":2540876.5099999998,"ADDRESS":"仁義路７０巷１８號","OBJECTID":456667},"geometry":{"x":173544.5,"y":2540876.5099999998}},{"attributes":{"ID":456693,"DIS_CODE":0,"TOWNNAME":"仁德區","LI":"仁義里","LIN":"43鄰","STREET":"仁義路","SECT":" ","MAREA":" ","LANE":"７０巷","ALLEY":" ","HOUSE_NO":"２０號","E_COORD97":173544.73000000001,"N_COORD97":2540872.2599999998,"ADDRESS":"仁義路７０巷２０號","OBJECTID":456668},"geometry":{"x":173544.73000000045,"y":2540872.2599999998}},{"attributes":{"ID":456694,"DIS_CODE":0,"TOWNNAME":"仁德區","LI":"仁義里","LIN":"43鄰","STREET":"中正路","SECT":"二段","MAREA":" ","LANE":"９９４巷","ALLEY":" ","HOUSE_NO":"３號","E_COORD97":173444.29000000001,"N_COORD97":2540813.0299999998,"ADDRESS":"中正路二段９９４巷３號","OBJECTID":456669},"geometry":{"x":173444.28999999911,"y":2540813.0300000012}},{"attributes":{"ID":456695,"DIS_CODE":0,"TOWNNAME":"仁德區","LI":"太子里","LIN":"43鄰","STREET":"太子路","SECT":" ","MAREA":" ","LANE":"３１巷","ALLEY":" ","HOUSE_NO":"５７號","E_COORD97":175260.35000000001,"N_COORD97":2543136.5099999998,"ADDRESS":"太子路３１巷５７號","OBJECTID":456670},"geometry":{"x":175260.34999999963,"y":2543136.5100000016}},{"attributes":{"ID":456696,"DIS_CODE":0,"TOWNNAME":"仁德區","LI":"仁德里","LIN":"43鄰","STREET":"中山路","SECT":" ","MAREA":" ","LANE":"９１０巷","ALLEY":" ","HOUSE_NO":"４５號","E_COORD97":172039.56,"N_COORD97":2541821.9900000002,"ADDRESS":"中山路９１０巷４５號","OBJECTID":456671},"geometry":{"x":172039.55999999959,"y":2541821.9900000021}},{"attributes":{"ID":456697,"DIS_CODE":0,"TOWNNAME":"仁德區","LI":"仁德里","LIN":"43鄰","STREET":"中山路","SECT":" ","MAREA":" ","LANE":"９１０巷","ALLEY":" ","HOUSE_NO":"５號","E_COORD97":171995.76999999999,"N_COORD97":2541743.25,"ADDRESS":"中山路９１０巷５號","OBJECTID":456672},"geometry":{"x":171995.76999999955,"y":2541743.25}},{"attributes":{"ID":456698,"DIS_CODE":0,"TOWNNAME":"仁德區","LI":"仁德里","LIN":"43鄰","STREET":"中山路","SECT":" ","MAREA":" ","LANE":"９１０巷","ALLEY":" ","HOUSE_NO":"８號","E_COORD97":172007.70999999999,"N_COORD97":2541735.9900000002,"ADDRESS":"中山路９１０巷８號","OBJECTID":456673},"geometry":{"x":172007.71000000089,"y":2541735.9900000039}},{"attributes":{"ID":456699,"DIS_CODE":0,"TOWNNAME":"仁德區","LI":"仁德里","LIN":"43鄰","STREET":"中山路","SECT":" ","MAREA":" ","LANE":"９１０巷","ALLEY":" ","HOUSE_NO":"６號","E_COORD97":172003.04000000001,"N_COORD97":2541735.2400000002,"ADDRESS":"中山路９１０巷６號","OBJECTID":456674},"geometry":{"x":172003.04000000004,"y":2541735.2400000021}},{"attributes":{"ID":456700,"DIS_CODE":0,"TOWNNAME":"仁德區","LI":"仁德里","LIN":"43鄰","STREET":"中山路","SECT":" ","MAREA":" ","LANE":"９１０巷","ALLEY":" ","HOUSE_NO":"７號","E_COORD97":172000.48000000001,"N_COORD97":2541744,"ADDRESS":"中山路９１０巷７號","OBJECTID":456675},"geometry":{"x":172000.48000000045,"y":2541744.0000000019}},{"attributes":{"ID":456701,"DIS_CODE":0,"TOWNNAME":"仁德區","LI":"太子里","LIN":"43鄰","STREET":"太子路","SECT":" ","MAREA":" ","LANE":"１０１巷","ALLEY":" ","HOUSE_NO":"５３之３號","E_COORD97":174942.23999999999,"N_COORD97":2543439.3399999999,"ADDRESS":"太子路１０１巷５３之３號","OBJECTID":456676},"geometry":{"x":174942.24000000115,"y":2543439.3400000017}},{"attributes":{"ID":456702,"DIS_CODE":0,"TOWNNAME":"仁德區","LI":"成功里","LIN":"43鄰","STREET":"文華路","SECT":"二段","MAREA":" ","LANE":"３１６巷","ALLEY":" ","HOUSE_NO":"３號","E_COORD97":170978.07000000001,"N_COORD97":2537764.2599999998,"ADDRESS":"文華路二段３１６巷３號","OBJECTID":456677},"geometry":{"x":170978.07000000216,"y":2537764.2600000016}},{"attributes":{"ID":456703,"DIS_CODE":0,"TOWNNAME":"仁德區","LI":"成功里","LIN":"43鄰","STREET":"文華路","SECT":"二段","MAREA":" ","LANE":"３１６巷","ALLEY":" ","HOUSE_NO":"７號","E_COORD97":170977.23000000001,"N_COORD97":2537756.7599999998,"ADDRESS":"文華路二段３１６巷７號","OBJECTID":456678},"geometry":{"x":170977.23000000138,"y":2537756.7600000035}},{"attributes":{"ID":456704,"DIS_CODE":0,"TOWNNAME":"仁德區","LI":"太子里","LIN":"43鄰","STREET":"太子路","SECT":" ","MAREA":" ","LANE":"１０１巷","ALLEY":" ","HOUSE_NO":"４３號","E_COORD97":174945.67000000001,"N_COORD97":2543454.25,"ADDRESS":"太子路１０１巷４３號","OBJECTID":456679},"geometry":{"x":174945.67000000086,"y":2543454.2500000019}},{"attributes":{"ID":456705,"DIS_CODE":0,"TOWNNAME":"仁德區","LI":"太子里","LIN":"43鄰","STREET":"太子路","SECT":" ","MAREA":" ","LANE":"１０１巷","ALLEY":" ","HOUSE_NO":"５１號","E_COORD97":174930.79999999999,"N_COORD97":2543459.25,"ADDRESS":"太子路１０１巷５１號","OBJECTID":456680},"geometry":{"x":174930.80000000168,"y":2543459.25}},{"attributes":{"ID":456706,"DIS_CODE":0,"TOWNNAME":"仁德區","LI":"成功里","LIN":"43鄰","STREET":"文華路","SECT":"二段","MAREA":" ","LANE":"３１６巷","ALLEY":" ","HOUSE_NO":"５號","E_COORD97":170977.89999999999,"N_COORD97":2537760.2599999998,"ADDRESS":"文華路二段３１６巷５號","OBJECTID":456681},"geometry":{"x":170977.9000000013,"y":2537760.2600000035}},{"attributes":{"ID":456707,"DIS_CODE":0,"TOWNNAME":"仁德區","LI":"太子里","LIN":"43鄰","STREET":"太子路","SECT":" ","MAREA":" ","LANE":"１０１巷","ALLEY":" ","HOUSE_NO":"５３之５號","E_COORD97":174946.45000000001,"N_COORD97":2543438.5899999999,"ADDRESS":"太子路１０１巷５３之５號","OBJECTID":456682},"geometry":{"x":174946.45000000019,"y":2543438.5900000017}},{"attributes":{"ID":456708,"DIS_CODE":0,"TOWNNAME":"仁德區","LI":"太子里","LIN":"43鄰","STREET":"太子路","SECT":" ","MAREA":" ","LANE":"１０１巷","ALLEY":" ","HOUSE_NO":"５５之２號","E_COORD97":174935.64999999999,"N_COORD97":2543424.8399999999,"ADDRESS":"太子路１０１巷５５之２號","OBJECTID":456683},"geometry":{"x":174935.65000000037,"y":2543424.839999998}},{"attributes":{"ID":456709,"DIS_CODE":0,"TOWNNAME":"仁德區","LI":"太子里","LIN":"43鄰","STREET":"太子路","SECT":" ","MAREA":" ","LANE":"１０１巷","ALLEY":" ","HOUSE_NO":"５３號","E_COORD97":174926.04000000001,"N_COORD97":2543441.0499999998,"ADDRESS":"太子路１０１巷５３號","OBJECTID":456684},"geometry":{"x":174926.0400000019,"y":2543441.0500000007}},{"attributes":{"ID":456710,"DIS_CODE":0,"TOWNNAME":"麻豆區","LI":"保安里","LIN":"10鄰","STREET":"興國路","SECT":" ","MAREA":" ","LANE":" ","ALLEY":" ","HOUSE_NO":"３號","E_COORD97":173070.39999999999,"N_COORD97":2564800.23,"ADDRESS":"興國路３號","OBJECTID":456685},"geometry":{"x":173070.40000000037,"y":2564800.2300000023}},{"attributes":{"ID":456711,"DIS_CODE":0,"TOWNNAME":"仁德區","LI":"太子里","LIN":"43鄰","STREET":"太子路","SECT":" ","MAREA":" ","LANE":"１０１巷","ALLEY":" ","HOUSE_NO":"６３號","E_COORD97":174927.45999999999,"N_COORD97":2543399.5,"ADDRESS":"太子路１０１巷６３號","OBJECTID":456686},"geometry":{"x":174927.45999999996,"y":2543399.5}},{"attributes":{"ID":456712,"DIS_CODE":0,"TOWNNAME":"永康區","LI":"正強里","LIN":"43鄰","STREET":"中正路","SECT":" ","MAREA":" ","LANE":"２５６巷","ALLEY":" ","HOUSE_NO":"３號之７","E_COORD97":173147.97,"N_COORD97":2547954.29,"ADDRESS":"中正路２５６巷３號之７","OBJECTID":456687},"geometry":{"x":173147.9700000016,"y":2547954.2900000028}},{"attributes":{"ID":456713,"DIS_CODE":0,"TOWNNAME":"永康區","LI":"正強里","LIN":"43鄰","STREET":"中正路","SECT":" ","MAREA":" ","LANE":"２５６巷","ALLEY":" ","HOUSE_NO":"３號之３","E_COORD97":173147.98999999999,"N_COORD97":2547954.29,"ADDRESS":"中正路２５６巷３號之３","OBJECTID":456688},"geometry":{"x":173147.99000000022,"y":2547954.2900000028}},{"attributes":{"ID":456714,"DIS_CODE":0,"TOWNNAME":"永康區","LI":"正強里","LIN":"43鄰","STREET":"中正路","SECT":" ","MAREA":" ","LANE":"２５６巷","ALLEY":" ","HOUSE_NO":"３號之３６","E_COORD97":173149.23999999999,"N_COORD97":2547954.29,"ADDRESS":"中正路２５６巷３號之３６","OBJECTID":456689},"geometry":{"x":173149.24000000022,"y":2547954.2900000028}},{"attributes":{"ID":456715,"DIS_CODE":0,"TOWNNAME":"永康區","LI":"正強里","LIN":"43鄰","STREET":"中正路","SECT":" ","MAREA":" ","LANE":"２５６巷","ALLEY":" ","HOUSE_NO":"３號之１７","E_COORD97":173149.22,"N_COORD97":2547954.29,"ADDRESS":"中正路２５６巷３號之１７","OBJECTID":456690},"geometry":{"x":173149.21999999974,"y":2547954.2900000028}},{"attributes":{"ID":456716,"DIS_CODE":0,"TOWNNAME":"永康區","LI":"正強里","LIN":"43鄰","STREET":"中正路","SECT":" ","MAREA":" ","LANE":"２５６巷","ALLEY":" ","HOUSE_NO":"３號之６","E_COORD97":173147.98999999999,"N_COORD97":2547954.29,"ADDRESS":"中正路２５６巷３號之６","OBJECTID":456691},"geometry":{"x":173147.99000000022,"y":2547954.2900000028}},{"attributes":{"ID":456717,"DIS_CODE":0,"TOWNNAME":"永康區","LI":"正強里","LIN":"43鄰","STREET":"中正路","SECT":" ","MAREA":" ","LANE":"２５６巷","ALLEY":" ","HOUSE_NO":"３號之４７","E_COORD97":173149.22,"N_COORD97":2547954.29,"ADDRESS":"中正路２５６巷３號之４７","OBJECTID":456692},"geometry":{"x":173149.21999999974,"y":2547954.2900000028}},{"attributes":{"ID":456718,"DIS_CODE":0,"TOWNNAME":"永康區","LI":"正強里","LIN":"43鄰","STREET":"中正路","SECT":" ","MAREA":" ","LANE":"２５６巷","ALLEY":" ","HOUSE_NO":"３號之４１","E_COORD97":173149.14000000001,"N_COORD97":2547954.29,"ADDRESS":"中正路２５６巷３號之４１","OBJECTID":456693},"geometry":{"x":173149.1400000006,"y":2547954.2900000028}},{"attributes":{"ID":456719,"DIS_CODE":0,"TOWNNAME":"佳里區","LI":"安西里","LIN":"43鄰","STREET":"安西路","SECT":" ","MAREA":" ","LANE":"１４９巷","ALLEY":" ","HOUSE_NO":"３０號","E_COORD97":165051.67999999999,"N_COORD97":2562529.04,"ADDRESS":"安西路１４９巷３０號","OBJECTID":456694},"geometry":{"x":165051.6799999997,"y":2562529.040000001}},{"attributes":{"ID":456720,"DIS_CODE":0,"TOWNNAME":"佳里區","LI":"安西里","LIN":"43鄰","STREET":"安西路","SECT":" ","MAREA":" ","LANE":"１４９巷","ALLEY":" ","HOUSE_NO":"３２號","E_COORD97":165047.63,"N_COORD97":2562528.96,"ADDRESS":"安西路１４９巷３２號","OBJECTID":456695},"geometry":{"x":165047.63000000082,"y":2562528.9600000009}},{"attributes":{"ID":456721,"DIS_CODE":0,"TOWNNAME":"佳里區","LI":"安西里","LIN":"43鄰","STREET":"安西路","SECT":" ","MAREA":" ","LANE":"１４９巷","ALLEY":" ","HOUSE_NO":"６號","E_COORD97":165093.10000000001,"N_COORD97":2562528.6099999999,"ADDRESS":"安西路１４９巷６號","OBJECTID":456696},"geometry":{"x":165093.10000000149,"y":2562528.6100000013}},{"attributes":{"ID":456722,"DIS_CODE":0,"TOWNNAME":"佳里區","LI":"安西里","LIN":"43鄰","STREET":"安西路","SECT":" ","MAREA":" ","LANE":"１４９巷","ALLEY":" ","HOUSE_NO":"８號","E_COORD97":165089.12,"N_COORD97":2562528.7200000002,"ADDRESS":"安西路１４９巷８號","OBJECTID":456697},"geometry":{"x":165089.12000000104,"y":2562528.7200000025}},{"attributes":{"ID":456723,"DIS_CODE":0,"TOWNNAME":"永康區","LI":"正強里","LIN":"43鄰","STREET":"中正路","SECT":" ","MAREA":" ","LANE":"２５６巷","ALLEY":" ","HOUSE_NO":"３號之２４","E_COORD97":173149.16,"N_COORD97":2547954.29,"ADDRESS":"中正路２５６巷３號之２４","OBJECTID":456698},"geometry":{"x":173149.16000000108,"y":2547954.2900000028}},{"attributes":{"ID":456724,"DIS_CODE":0,"TOWNNAME":"永康區","LI":"正強里","LIN":"43鄰","STREET":"中正路","SECT":" ","MAREA":" ","LANE":"２５６巷","ALLEY":" ","HOUSE_NO":"３號之３８","E_COORD97":173149.29000000001,"N_COORD97":2547954.29,"ADDRESS":"中正路２５６巷３號之３８","OBJECTID":456699},"geometry":{"x":173149.29000000004,"y":2547954.2900000028}},{"attributes":{"ID":456725,"DIS_CODE":0,"TOWNNAME":"永康區","LI":"正強里","LIN":"43鄰","STREET":"中正路","SECT":" ","MAREA":" ","LANE":"２５６巷","ALLEY":" ","HOUSE_NO":"３號之３０","E_COORD97":173149.19,"N_COORD97":2547954.29,"ADDRESS":"中正路２５６巷３號之３０","OBJECTID":456700},"geometry":{"x":173149.19000000134,"y":2547954.2900000028}},{"attributes":{"ID":456726,"DIS_CODE":0,"TOWNNAME":"永康區","LI":"正強里","LIN":"43鄰","STREET":"中正路","SECT":" ","MAREA":" ","LANE":"２５６巷","ALLEY":" ","HOUSE_NO":"３號之２","E_COORD97":173148.01999999999,"N_COORD97":2547954.29,"ADDRESS":"中正路２５６巷３號之２","OBJECTID":456701},"geometry":{"x":173148.02000000048,"y":2547954.2900000028}},{"attributes":{"ID":456727,"DIS_CODE":0,"TOWNNAME":"永康區","LI":"正強里","LIN":"43鄰","STREET":"中正路","SECT":" ","MAREA":" ","LANE":"２５６巷","ALLEY":" ","HOUSE_NO":"３號之８","E_COORD97":173148.04000000001,"N_COORD97":2547954.29,"ADDRESS":"中正路２５６巷３號之８","OBJECTID":456702},"geometry":{"x":173148.04000000097,"y":2547954.2900000028}},{"attributes":{"ID":456728,"DIS_CODE":0,"TOWNNAME":"永康區","LI":"正強里","LIN":"43鄰","STREET":"中正路","SECT":" ","MAREA":" ","LANE":"２５６巷","ALLEY":" ","HOUSE_NO":"３號之４４","E_COORD97":173149.16,"N_COORD97":2547954.29,"ADDRESS":"中正路２５６巷３號之４４","OBJECTID":456703},"geometry":{"x":173149.16000000108,"y":2547954.2900000028}},{"attributes":{"ID":456729,"DIS_CODE":0,"TOWNNAME":"永康區","LI":"\u25A0行里","LIN":"43鄰","STREET":"正南三路","SECT":" ","MAREA":" ","LANE":"１２６巷","ALLEY":" ","HOUSE_NO":"１５號二樓","E_COORD97":171797.37,"N_COORD97":2547636.4500000002,"ADDRESS":"正南三路１２６巷１５號二樓","OBJECTID":456704},"geometry":{"x":171797.37000000011,"y":2547636.4499999993}},{"attributes":{"ID":456730,"DIS_CODE":0,"TOWNNAME":"永康區","LI":"\u25A0行里","LIN":"43鄰","STREET":"正南三路","SECT":" ","MAREA":" ","LANE":"１２６巷","ALLEY":" ","HOUSE_NO":"１５號三樓","E_COORD97":171781.57000000001,"N_COORD97":2547658.6299999999,"ADDRESS":"正南三路１２６巷１５號三樓","OBJECTID":456705},"geometry":{"x":171781.57000000216,"y":2547658.629999999}},{"attributes":{"ID":456731,"DIS_CODE":0,"TOWNNAME":"永康區","LI":"\u25A0行里","LIN":"43鄰","STREET":"正南三路","SECT":" ","MAREA":" ","LANE":"１２６巷","ALLEY":" ","HOUSE_NO":"１５號四樓","E_COORD97":171781.57000000001,"N_COORD97":2547658.6299999999,"ADDRESS":"正南三路１２６巷１５號四樓","OBJECTID":456706},"geometry":{"x":171781.57000000216,"y":2547658.629999999}},{"attributes":{"ID":456732,"DIS_CODE":0,"TOWNNAME":"仁德區","LI":"後壁里","LIN":"43鄰","STREET":"德崙路","SECT":" ","MAREA":" ","LANE":"２１巷","ALLEY":" ","HOUSE_NO":"８號九樓之１","E_COORD97":173297.32000000001,"N_COORD97":2538622.29,"ADDRESS":"德崙路２１巷８號九樓之１","OBJECTID":456707},"geometry":{"x":173297.32000000123,"y":2538622.2899999991}},{"attributes":{"ID":456733,"DIS_CODE":0,"TOWNNAME":"仁德區","LI":"後壁里","LIN":"43鄰","STREET":"德崙路","SECT":" ","MAREA":" ","LANE":"２１巷","ALLEY":" ","HOUSE_NO":"８號八樓之４","E_COORD97":173297.35000000001,"N_COORD97":2538622.29,"ADDRESS":"德崙路２１巷８號八樓之４","OBJECTID":456708},"geometry":{"x":173297.34999999963,"y":2538622.2899999991}},{"attributes":{"ID":456734,"DIS_CODE":0,"TOWNNAME":"仁德區","LI":"後壁里","LIN":"43鄰","STREET":"德崙路","SECT":" ","MAREA":" ","LANE":"２１巷","ALLEY":" ","HOUSE_NO":"８號十樓之２","E_COORD97":173297.45999999999,"N_COORD97":2538622.29,"ADDRESS":"德崙路２１巷８號十樓之２","OBJECTID":456709},"geometry":{"x":173297.46000000183,"y":2538622.2899999991}},{"attributes":{"ID":456735,"DIS_CODE":0,"TOWNNAME":"仁德區","LI":"後壁里","LIN":"43鄰","STREET":"德崙路","SECT":" ","MAREA":" ","LANE":"２１巷","ALLEY":" ","HOUSE_NO":"６號五樓之１","E_COORD97":173293.97,"N_COORD97":2538633.29,"ADDRESS":"德崙路２１巷６號五樓之１","OBJECTID":456710},"geometry":{"x":173293.97000000067,"y":2538633.2899999991}},{"attributes":{"ID":456736,"DIS_CODE":0,"TOWNNAME":"仁德區","LI":"後壁里","LIN":"43鄰","STREET":"德崙路","SECT":" ","MAREA":" ","LANE":"２１巷","ALLEY":" ","HOUSE_NO":"２號八樓之３","E_COORD97":173309.64999999999,"N_COORD97":2538624.79,"ADDRESS":"德崙路２１巷２號八樓之３","OBJECTID":456711},"geometry":{"x":173309.65000000037,"y":2538624.790000001}},{"attributes":{"ID":456737,"DIS_CODE":0,"TOWNNAME":"永康區","LI":"龍潭里","LIN":"43鄰","STREET":"國民路","SECT":" ","MAREA":" ","LANE":"２３１巷","ALLEY":" ","HOUSE_NO":"３９號五樓","E_COORD97":174609.20000000001,"N_COORD97":2547032.6299999999,"ADDRESS":"國民路２３１巷３９號五樓","OBJECTID":456712},"geometry":{"x":174609.20000000019,"y":2547032.629999999}},{"attributes":{"ID":456738,"DIS_CODE":0,"TOWNNAME":"永康區","LI":"龍潭里","LIN":"43鄰","STREET":"國民路","SECT":" ","MAREA":" ","LANE":"２３１巷","ALLEY":" ","HOUSE_NO":"２５號四樓","E_COORD97":174597.48000000001,"N_COORD97":2547010.3700000001,"ADDRESS":"國民路２３１巷２５號四樓","OBJECTID":456713},"geometry":{"x":174597.48000000045,"y":2547010.3700000029}},{"attributes":{"ID":456739,"DIS_CODE":0,"TOWNNAME":"永康區","LI":"龍潭里","LIN":"43鄰","STREET":"國民路","SECT":" ","MAREA":" ","LANE":"２３１巷","ALLEY":" ","HOUSE_NO":"３３號五樓","E_COORD97":174588.13,"N_COORD97":2547030.3799999999,"ADDRESS":"國民路２３１巷３３號五樓","OBJECTID":456714},"geometry":{"x":174588.13000000082,"y":2547030.379999999}},{"attributes":{"ID":456740,"DIS_CODE":0,"TOWNNAME":"永康區","LI":"龍潭里","LIN":"43鄰","STREET":"國民路","SECT":" ","MAREA":" ","LANE":"２３１巷","ALLEY":" ","HOUSE_NO":"４７號四樓","E_COORD97":174612.01999999999,"N_COORD97":2547023.3199999998,"ADDRESS":"國民路２３１巷４７號四樓","OBJECTID":456715},"geometry":{"x":174612.02000000142,"y":2547023.3200000022}},{"attributes":{"ID":456741,"DIS_CODE":0,"TOWNNAME":"永康區","LI":"龍潭里","LIN":"43鄰","STREET":"國民路","SECT":" ","MAREA":" ","LANE":"２３１巷","ALLEY":" ","HOUSE_NO":"２３號四樓","E_COORD97":174597.22,"N_COORD97":2547006.1200000001,"ADDRESS":"國民路２３１巷２３號四樓","OBJECTID":456716},"geometry":{"x":174597.21999999881,"y":2547006.1200000029}},{"attributes":{"ID":456742,"DIS_CODE":0,"TOWNNAME":"永康區","LI":"龍潭里","LIN":"43鄰","STREET":"國民路","SECT":" ","MAREA":" ","LANE":"２３１巷","ALLEY":" ","HOUSE_NO":"４１號五樓","E_COORD97":174609.20000000001,"N_COORD97":2547032.6299999999,"ADDRESS":"國民路２３１巷４１號五樓","OBJECTID":456717},"geometry":{"x":174609.20000000019,"y":2547032.629999999}},{"attributes":{"ID":456743,"DIS_CODE":0,"TOWNNAME":"永康區","LI":"龍潭里","LIN":"43鄰","STREET":"國民路","SECT":" ","MAREA":" ","LANE":"２３１巷","ALLEY":" ","HOUSE_NO":"３５號四樓","E_COORD97":174598.42999999999,"N_COORD97":2547031.6299999999,"ADDRESS":"國民路２３１巷３５號四樓","OBJECTID":456718},"geometry":{"x":174598.4299999997,"y":2547031.629999999}},{"attributes":{"ID":456744,"DIS_CODE":0,"TOWNNAME":"永康區","LI":"龍潭里","LIN":"43鄰","STREET":"國民路","SECT":" ","MAREA":" ","LANE":"２３１巷","ALLEY":" ","HOUSE_NO":"４５號三樓","E_COORD97":174615.57999999999,"N_COORD97":2547034.7599999998,"ADDRESS":"國民路２３１巷４５號三樓","OBJECTID":456719},"geometry":{"x":174615.58000000194,"y":2547034.7599999998}},{"attributes":{"ID":456745,"DIS_CODE":0,"TOWNNAME":"永康區","LI":"龍潭里","LIN":"43鄰","STREET":"國民路","SECT":" ","MAREA":" ","LANE":"２３１巷","ALLEY":" ","HOUSE_NO":"５１號五樓","E_COORD97":174613.20999999999,"N_COORD97":2547011.0699999998,"ADDRESS":"國民路２３１巷５１號五樓","OBJECTID":456720},"geometry":{"x":174613.21000000089,"y":2547011.070000004}},{"attributes":{"ID":456746,"DIS_CODE":0,"TOWNNAME":"永康區","LI":"龍潭里","LIN":"43鄰","STREET":"國民路","SECT":" ","MAREA":" ","LANE":"２３１巷","ALLEY":" ","HOUSE_NO":"４３號五樓","E_COORD97":174615.57999999999,"N_COORD97":2547034.7599999998,"ADDRESS":"國民路２３１巷４３號五樓","OBJECTID":456721},"geometry":{"x":174615.58000000194,"y":2547034.7599999998}},{"attributes":{"ID":456747,"DIS_CODE":0,"TOWNNAME":"永康區","LI":"龍潭里","LIN":"43鄰","STREET":"國民路","SECT":" ","MAREA":" ","LANE":"２３１巷","ALLEY":" ","HOUSE_NO":"３９號二樓","E_COORD97":174609.20000000001,"N_COORD97":2547032.6299999999,"ADDRESS":"國民路２３１巷３９號二樓","OBJECTID":456722},"geometry":{"x":174609.20000000019,"y":2547032.629999999}},{"attributes":{"ID":456748,"DIS_CODE":0,"TOWNNAME":"永康區","LI":"龍潭里","LIN":"43鄰","STREET":"國民路","SECT":" ","MAREA":" ","LANE":"２３１巷","ALLEY":" ","HOUSE_NO":"２７號四樓","E_COORD97":174596.57000000001,"N_COORD97":2547019.6200000001,"ADDRESS":"國民路２３１巷２７號四樓","OBJECTID":456723},"geometry":{"x":174596.5700000003,"y":2547019.6200000029}},{"attributes":{"ID":456749,"DIS_CODE":0,"TOWNNAME":"永康區","LI":"龍潭里","LIN":"43鄰","STREET":"國民路","SECT":" ","MAREA":" ","LANE":"２３１巷","ALLEY":" ","HOUSE_NO":"４３號三樓","E_COORD97":174615.57999999999,"N_COORD97":2547034.7599999998,"ADDRESS":"國民路２３１巷４３號三樓","OBJECTID":456724},"geometry":{"x":174615.58000000194,"y":2547034.7599999998}},{"attributes":{"ID":456750,"DIS_CODE":0,"TOWNNAME":"永康區","LI":"龍潭里","LIN":"43鄰","STREET":"國民路","SECT":" ","MAREA":" ","LANE":"２３１巷","ALLEY":" ","HOUSE_NO":"４９號三樓","E_COORD97":174612.10000000001,"N_COORD97":2547019.8199999998,"ADDRESS":"國民路２３１巷４９號三樓","OBJECTID":456725},"geometry":{"x":174612.10000000056,"y":2547019.8200000022}},{"attributes":{"ID":456751,"DIS_CODE":0,"TOWNNAME":"永康區","LI":"龍潭里","LIN":"43鄰","STREET":"國民路","SECT":" ","MAREA":" ","LANE":"２３１巷","ALLEY":" ","HOUSE_NO":"２５號三樓","E_COORD97":174597.48000000001,"N_COORD97":2547010.3700000001,"ADDRESS":"國民路２３１巷２５號三樓","OBJECTID":456726},"geometry":{"x":174597.48000000045,"y":2547010.3700000029}},{"attributes":{"ID":456752,"DIS_CODE":0,"TOWNNAME":"永康區","LI":"龍潭里","LIN":"43鄰","STREET":"國民路","SECT":" ","MAREA":" ","LANE":"２３１巷","ALLEY":" ","HOUSE_NO":"４１號四樓","E_COORD97":174609.20000000001,"N_COORD97":2547032.6299999999,"ADDRESS":"國民路２３１巷４１號四樓","OBJECTID":456727},"geometry":{"x":174609.20000000019,"y":2547032.629999999}},{"attributes":{"ID":456753,"DIS_CODE":0,"TOWNNAME":"永康區","LI":"龍潭里","LIN":"43鄰","STREET":"國民路","SECT":" ","MAREA":" ","LANE":"２３１巷","ALLEY":" ","HOUSE_NO":"３５號二樓","E_COORD97":174598.42999999999,"N_COORD97":2547031.6299999999,"ADDRESS":"國民路２３１巷３５號二樓","OBJECTID":456728},"geometry":{"x":174598.4299999997,"y":2547031.629999999}},{"attributes":{"ID":456754,"DIS_CODE":0,"TOWNNAME":"永康區","LI":"龍潭里","LIN":"43鄰","STREET":"國民路","SECT":" ","MAREA":" ","LANE":"２３１巷","ALLEY":" ","HOUSE_NO":"４９號五樓","E_COORD97":174612.10000000001,"N_COORD97":2547019.8199999998,"ADDRESS":"國民路２３１巷４９號五樓","OBJECTID":456729},"geometry":{"x":174612.10000000056,"y":2547019.8200000022}},{"attributes":{"ID":456755,"DIS_CODE":0,"TOWNNAME":"仁德區","LI":"太子里","LIN":"43鄰","STREET":"太子路","SECT":" ","MAREA":" ","LANE":"１０１巷","ALLEY":" ","HOUSE_NO":"５５號","E_COORD97":174923.89999999999,"N_COORD97":2543426.2999999998,"ADDRESS":"太子路１０１巷５５號","OBJECTID":456730},"geometry":{"x":174923.90000000224,"y":2543426.3000000045}},{"attributes":{"ID":456756,"DIS_CODE":0,"TOWNNAME":"仁德區","LI":"太子里","LIN":"43鄰","STREET":"太子路","SECT":" ","MAREA":" ","LANE":"１０１巷","ALLEY":" ","HOUSE_NO":"６１號","E_COORD97":174928.20000000001,"N_COORD97":2543403.7599999998,"ADDRESS":"太子路１０１巷６１號","OBJECTID":456731},"geometry":{"x":174928.20000000019,"y":2543403.7599999998}},{"attributes":{"ID":456757,"DIS_CODE":0,"TOWNNAME":"仁德區","LI":"太子里","LIN":"43鄰","STREET":"太子路","SECT":" ","MAREA":" ","LANE":"１０１巷","ALLEY":" ","HOUSE_NO":"４５號","E_COORD97":174933.54000000001,"N_COORD97":2543472,"ADDRESS":"太子路１０１巷４５號","OBJECTID":456732},"geometry":{"x":174933.54000000097,"y":2543472.0000000019}},{"attributes":{"ID":456758,"DIS_CODE":0,"TOWNNAME":"仁德區","LI":"太子里","LIN":"43鄰","STREET":"太子路","SECT":" ","MAREA":" ","LANE":"３１巷","ALLEY":" ","HOUSE_NO":"３９號","E_COORD97":175324.42999999999,"N_COORD97":2543210.5099999998,"ADDRESS":"太子路３１巷３９號","OBJECTID":456733},"geometry":{"x":175324.4299999997,"y":2543210.5100000035}},{"attributes":{"ID":456759,"DIS_CODE":0,"TOWNNAME":"仁德區","LI":"太子里","LIN":"43鄰","STREET":"太子路","SECT":" ","MAREA":" ","LANE":"３１巷","ALLEY":" ","HOUSE_NO":"５０號","E_COORD97":175238.450025,"N_COORD97":2543195.4061500002,"ADDRESS":"太子路３１巷５０號","OBJECTID":456734},"geometry":{"x":175238.45002500061,"y":2543195.4061509985}},{"attributes":{"ID":456760,"DIS_CODE":0,"TOWNNAME":"仁德區","LI":"太子里","LIN":"43鄰","STREET":"太子路","SECT":" ","MAREA":" ","LANE":"３１巷","ALLEY":" ","HOUSE_NO":"６５號","E_COORD97":175228.47,"N_COORD97":2543103.2599999998,"ADDRESS":"太子路３１巷６５號","OBJECTID":456735},"geometry":{"x":175228.47000000067,"y":2543103.2599999979}},{"attributes":{"ID":456761,"DIS_CODE":0,"TOWNNAME":"佳里區","LI":"安西里","LIN":"41鄰","STREET":"同心街","SECT":" ","MAREA":" ","LANE":"９９巷","ALLEY":" ","HOUSE_NO":"６號","E_COORD97":164819.06,"N_COORD97":2562301.5800000001,"ADDRESS":"同心街９９巷６號","OBJECTID":456736},"geometry":{"x":164819.06000000052,"y":2562301.5800000038}},{"attributes":{"ID":456762,"DIS_CODE":0,"TOWNNAME":"仁德區","LI":"仁德里","LIN":"43鄰","STREET":"中山路","SECT":" ","MAREA":" ","LANE":"９１０巷","ALLEY":" ","HOUSE_NO":"２之１號","E_COORD97":172000.39999999999,"N_COORD97":2541734.79,"ADDRESS":"中山路９１０巷２之１號","OBJECTID":456737},"geometry":{"x":172000.4000000013,"y":2541734.7899999991}},{"attributes":{"ID":456763,"DIS_CODE":0,"TOWNNAME":"仁德區","LI":"太子里","LIN":"43鄰","STREET":"太子路","SECT":" ","MAREA":" ","LANE":"３１巷","ALLEY":" ","HOUSE_NO":"６７號","E_COORD97":175235.07000000001,"N_COORD97":2543097.7599999998,"ADDRESS":"太子路３１巷６７號","OBJECTID":456738},"geometry":{"x":175235.07000000123,"y":2543097.7600000016}},{"attributes":{"ID":456764,"DIS_CODE":0,"TOWNNAME":"新市區","LI":"新和里","LIN":"43鄰","STREET":"民權路","SECT":" ","MAREA":" ","LANE":"３１巷","ALLEY":" ","HOUSE_NO":"７號","E_COORD97":177386.34,"N_COORD97":2553027.04,"ADDRESS":"民權路３１巷７號","OBJECTID":456739},"geometry":{"x":177386.33999999985,"y":2553027.0399999991}},{"attributes":{"ID":456765,"DIS_CODE":0,"TOWNNAME":"永康區","LI":"二王里","LIN":"43鄰","STREET":"中山南路","SECT":" ","MAREA":" ","LANE":"３１６巷","ALLEY":" ","HOUSE_NO":"４４號","E_COORD97":172079.20000000001,"N_COORD97":2546124.54,"ADDRESS":"中山南路３１６巷４４號","OBJECTID":456740},"geometry":{"x":172079.20000000112,"y":2546124.5399999991}},{"attributes":{"ID":456766,"DIS_CODE":0,"TOWNNAME":"永康區","LI":"二王里","LIN":"43鄰","STREET":"中山南路","SECT":" ","MAREA":" ","LANE":"３１６巷","ALLEY":" ","HOUSE_NO":"３６號","E_COORD97":172062.41,"N_COORD97":2546127.79,"ADDRESS":"中山南路３１６巷３６號","OBJECTID":456741},"geometry":{"x":172062.41000000108,"y":2546127.790000001}},{"attributes":{"ID":456767,"DIS_CODE":0,"TOWNNAME":"永康區","LI":"二王里","LIN":"43鄰","STREET":"中山南路","SECT":" ","MAREA":" ","LANE":"３１６巷","ALLEY":" ","HOUSE_NO":"６８號","E_COORD97":172137.87,"N_COORD97":2546128.5699999998,"ADDRESS":"中山南路３１６巷６８號","OBJECTID":456742},"geometry":{"x":172137.87000000011,"y":2546128.5700000003}},{"attributes":{"ID":456768,"DIS_CODE":0,"TOWNNAME":"永康區","LI":"二王里","LIN":"43鄰","STREET":"中山南路","SECT":" ","MAREA":" ","LANE":"３１６巷","ALLEY":" ","HOUSE_NO":"７２號","E_COORD97":172145.98000000001,"N_COORD97":2546129.0699999998,"ADDRESS":"中山南路３１６巷７２號","OBJECTID":456743},"geometry":{"x":172145.98000000045,"y":2546129.0700000003}},{"attributes":{"ID":456769,"DIS_CODE":0,"TOWNNAME":"永康區","LI":"二王里","LIN":"43鄰","STREET":"中山南路","SECT":" ","MAREA":" ","LANE":"３１６巷","ALLEY":" ","HOUSE_NO":"４２號","E_COORD97":172075.10999999999,"N_COORD97":2546124.79,"ADDRESS":"中山南路３１６巷４２號","OBJECTID":456744},"geometry":{"x":172075.11000000127,"y":2546124.790000001}},{"attributes":{"ID":456770,"DIS_CODE":0,"TOWNNAME":"永康區","LI":"\u25A0行里","LIN":"43鄰","STREET":"\u25A0和街","SECT":" ","MAREA":" ","LANE":"２６３巷","ALLEY":" ","HOUSE_NO":"１９號","E_COORD97":171421.26999999999,"N_COORD97":2548373.5899999999,"ADDRESS":"\u25A0和街２６３巷１９號","OBJECTID":456745},"geometry":{"x":171421.26999999955,"y":2548373.5900000036}},{"attributes":{"ID":456771,"DIS_CODE":0,"TOWNNAME":"仁德區","LI":"仁德里","LIN":"43鄰","STREET":"中山路","SECT":" ","MAREA":" ","LANE":"９１０巷","ALLEY":" ","HOUSE_NO":"１５號","E_COORD97":171996.23000000001,"N_COORD97":2541805.2400000002,"ADDRESS":"中山路９１０巷１５號","OBJECTID":456746},"geometry":{"x":171996.23000000138,"y":2541805.2400000002}},{"attributes":{"ID":456772,"DIS_CODE":0,"TOWNNAME":"中西區","LI":"藥王里","LIN":"8鄰","STREET":"大新街","SECT":" ","MAREA":" ","LANE":"７巷","ALLEY":" ","HOUSE_NO":"２２號","E_COORD97":167063.70000000001,"N_COORD97":2544359.3300000001,"ADDRESS":"大新街７巷２２號","OBJECTID":456747},"geometry":{"x":167063.70000000019,"y":2544359.3300000019}},{"attributes":{"ID":456773,"DIS_CODE":0,"TOWNNAME":"仁德區","LI":"仁德里","LIN":"43鄰","STREET":"中山路","SECT":" ","MAREA":" ","LANE":"９１０巷","ALLEY":" ","HOUSE_NO":"２４號","E_COORD97":172011.22,"N_COORD97":2541807.4900000002,"ADDRESS":"中山路９１０巷２４號","OBJECTID":456748},"geometry":{"x":172011.22000000067,"y":2541807.4900000039}},{"attributes":{"ID":456774,"DIS_CODE":0,"TOWNNAME":"仁德區","LI":"太子里","LIN":"43鄰","STREET":"太子路","SECT":" ","MAREA":" ","LANE":"３１巷","ALLEY":" ","HOUSE_NO":"４６號","E_COORD97":175259.26999999999,"N_COORD97":2543181.7400000002,"ADDRESS":"太子路３１巷４６號","OBJECTID":456749},"geometry":{"x":175259.26999999955,"y":2543181.7400000002}},{"attributes":{"ID":456775,"DIS_CODE":0,"TOWNNAME":"仁德區","LI":"太子里","LIN":"43鄰","STREET":"太子路","SECT":" ","MAREA":" ","LANE":"３１巷","ALLEY":" ","HOUSE_NO":"１２號","E_COORD97":175278.98999999999,"N_COORD97":2543376.75,"ADDRESS":"太子路３１巷１２號","OBJECTID":456750},"geometry":{"x":175278.99000000022,"y":2543376.75}},{"attributes":{"ID":456776,"DIS_CODE":0,"TOWNNAME":"仁德區","LI":"仁德里","LIN":"43鄰","STREET":"中山路","SECT":" ","MAREA":" ","LANE":"９１０巷","ALLEY":" ","HOUSE_NO":"３５號","E_COORD97":172013.85000000001,"N_COORD97":2541817.4900000002,"ADDRESS":"中山路９１０巷３５號","OBJECTID":456751},"geometry":{"x":172013.84999999963,"y":2541817.4900000039}},{"attributes":{"ID":456777,"DIS_CODE":0,"TOWNNAME":"仁德區","LI":"仁德里","LIN":"43鄰","STREET":"中山路","SECT":" ","MAREA":" ","LANE":"９１０巷","ALLEY":" ","HOUSE_NO":"３７號","E_COORD97":172018.94,"N_COORD97":2541818.2400000002,"ADDRESS":"中山路９１０巷３７號","OBJECTID":456752},"geometry":{"x":172018.94000000134,"y":2541818.2400000002}},{"attributes":{"ID":456778,"DIS_CODE":0,"TOWNNAME":"仁德區","LI":"太子里","LIN":"43鄰","STREET":"太子路","SECT":" ","MAREA":" ","LANE":"３１巷","ALLEY":" ","HOUSE_NO":"６３號","E_COORD97":175244.07000000001,"N_COORD97":2543114.7599999998,"ADDRESS":"太子路３１巷６３號","OBJECTID":456753},"geometry":{"x":175244.0700000003,"y":2543114.7600000016}},{"attributes":{"ID":456779,"DIS_CODE":0,"TOWNNAME":"永康區","LI":"崑山里","LIN":"43鄰","STREET":"大灣路","SECT":" ","MAREA":" ","LANE":"９４２巷","ALLEY":" ","HOUSE_NO":"３５１號","E_COORD97":173843.39999999999,"N_COORD97":2545142.4900000002,"ADDRESS":"大灣路９４２巷３５１號","OBJECTID":456754},"geometry":{"x":173843.40000000037,"y":2545142.4900000002}},{"attributes":{"ID":456780,"DIS_CODE":0,"TOWNNAME":"永康區","LI":"龍潭里","LIN":"43鄰","STREET":"永平街","SECT":" ","MAREA":" ","LANE":"６８９巷","ALLEY":" ","HOUSE_NO":"１號","E_COORD97":174612.48000000001,"N_COORD97":2546952.2799999998,"ADDRESS":"永平街６８９巷１號","OBJECTID":456755},"geometry":{"x":174612.48000000045,"y":2546952.2800000012}},{"attributes":{"ID":456781,"DIS_CODE":0,"TOWNNAME":"永康區","LI":"龍潭里","LIN":"43鄰","STREET":"永平街","SECT":" ","MAREA":" ","LANE":"６８９巷","ALLEY":" ","HOUSE_NO":"３號","E_COORD97":174611.07000000001,"N_COORD97":2546958.2599999998,"ADDRESS":"永平街６８９巷３號","OBJECTID":456756},"geometry":{"x":174611.07000000123,"y":2546958.2600000035}},{"attributes":{"ID":456782,"DIS_CODE":0,"TOWNNAME":"永康區","LI":"崑山里","LIN":"43鄰","STREET":"大灣路","SECT":" ","MAREA":" ","LANE":"９４２巷","ALLEY":" ","HOUSE_NO":"３５３號","E_COORD97":173845.29000000001,"N_COORD97":2545146.2400000002,"ADDRESS":"大灣路９４２巷３５３號","OBJECTID":456757},"geometry":{"x":173845.29000000097,"y":2545146.2400000021}},{"attributes":{"ID":456783,"DIS_CODE":0,"TOWNNAME":"永康區","LI":"崑山里","LIN":"43鄰","STREET":"大灣路","SECT":" ","MAREA":" ","LANE":"９４２巷","ALLEY":" ","HOUSE_NO":"３６１號","E_COORD97":173850.79000000001,"N_COORD97":2545161.5,"ADDRESS":"大灣路９４２巷３６１號","OBJECTID":456758},"geometry":{"x":173850.79000000004,"y":2545161.5000000019}},{"attributes":{"ID":456784,"DIS_CODE":0,"TOWNNAME":"永康區","LI":"崑山里","LIN":"43鄰","STREET":"大灣路","SECT":" ","MAREA":" ","LANE":"９４２巷","ALLEY":" ","HOUSE_NO":"３４１號","E_COORD97":173835.56,"N_COORD97":2545123.4900000002,"ADDRESS":"大灣路９４２巷３４１號","OBJECTID":456759},"geometry":{"x":173835.56000000052,"y":2545123.4900000021}},{"attributes":{"ID":456785,"DIS_CODE":0,"TOWNNAME":"永康區","LI":"崑山里","LIN":"43鄰","STREET":"大灣路","SECT":" ","MAREA":" ","LANE":"９４２巷","ALLEY":" ","HOUSE_NO":"３６３號","E_COORD97":173852.23000000001,"N_COORD97":2545165.75,"ADDRESS":"大灣路９４２巷３６３號","OBJECTID":456760},"geometry":{"x":173852.23000000231,"y":2545165.7500000019}},{"attributes":{"ID":456786,"DIS_CODE":0,"TOWNNAME":"永康區","LI":"崑山里","LIN":"43鄰","STREET":"大灣路","SECT":" ","MAREA":" ","LANE":"９４２巷","ALLEY":" ","HOUSE_NO":"３６５號","E_COORD97":173853.29000000001,"N_COORD97":2545169.75,"ADDRESS":"大灣路９４２巷３６５號","OBJECTID":456761},"geometry":{"x":173853.29000000097,"y":2545169.7500000019}},{"attributes":{"ID":456787,"DIS_CODE":0,"TOWNNAME":"永康區","LI":"崑山里","LIN":"43鄰","STREET":"大灣路","SECT":" ","MAREA":" ","LANE":"９４２巷","ALLEY":" ","HOUSE_NO":"４４５之１號","E_COORD97":173921.76000000001,"N_COORD97":2545372.0899999999,"ADDRESS":"大灣路９４２巷４４５之１號","OBJECTID":456762},"geometry":{"x":173921.75999999978,"y":2545372.0899999999}},{"attributes":{"ID":456788,"DIS_CODE":0,"TOWNNAME":"仁德區","LI":"成功里","LIN":"43鄰","STREET":"文華路","SECT":"二段","MAREA":" ","LANE":"３１６巷","ALLEY":" ","HOUSE_NO":"１１號","E_COORD97":170977.45000000001,"N_COORD97":2537746.52,"ADDRESS":"文華路二段３１６巷１１號","OBJECTID":456763},"geometry":{"x":170977.45000000112,"y":2537746.5199999996}},{"attributes":{"ID":456789,"DIS_CODE":0,"TOWNNAME":"永康區","LI":"龍潭里","LIN":"43鄰","STREET":"國民路","SECT":" ","MAREA":" ","LANE":"２３１巷","ALLEY":" ","HOUSE_NO":"１０號","E_COORD97":174570.31,"N_COORD97":2546984.2799999998,"ADDRESS":"國民路２３１巷１０號","OBJECTID":456764},"geometry":{"x":174570.30999999959,"y":2546984.2799999993}},{"attributes":{"ID":456790,"DIS_CODE":0,"TOWNNAME":"永康區","LI":"龍潭里","LIN":"43鄰","STREET":"國民路","SECT":" ","MAREA":" ","LANE":"２３１巷","ALLEY":" ","HOUSE_NO":"１２號","E_COORD97":174576.64000000001,"N_COORD97":2546984.5800000001,"ADDRESS":"國民路２３１巷１２號","OBJECTID":456765},"geometry":{"x":174576.63999999966,"y":2546984.5800000019}},{"attributes":{"ID":456791,"DIS_CODE":0,"TOWNNAME":"永康區","LI":"龍潭里","LIN":"43鄰","STREET":"國民路","SECT":" ","MAREA":" ","LANE":"２３１巷","ALLEY":" ","HOUSE_NO":"１６號","E_COORD97":174582.97,"N_COORD97":2546984.5800000001,"ADDRESS":"國民路２３１巷１６號","OBJECTID":456766},"geometry":{"x":174582.96999999974,"y":2546984.5800000019}},{"attributes":{"ID":456792,"DIS_CODE":0,"TOWNNAME":"永康區","LI":"龍潭里","LIN":"43鄰","STREET":"國民路","SECT":" ","MAREA":" ","LANE":"２３１巷","ALLEY":" ","HOUSE_NO":"１８號","E_COORD97":174589.89999999999,"N_COORD97":2546984.4300000002,"ADDRESS":"國民路２３１巷１８號","OBJECTID":456767},"geometry":{"x":174589.89999999944,"y":2546984.4300000034}},{"attributes":{"ID":456793,"DIS_CODE":0,"TOWNNAME":"永康區","LI":"龍潭里","LIN":"43鄰","STREET":"國民路","SECT":" ","MAREA":" ","LANE":"２３１巷","ALLEY":" ","HOUSE_NO":"２０號","E_COORD97":174596.98999999999,"N_COORD97":2546984.4300000002,"ADDRESS":"國民路２３１巷２０號","OBJECTID":456768},"geometry":{"x":174596.99000000022,"y":2546984.4300000034}},{"attributes":{"ID":456794,"DIS_CODE":0,"TOWNNAME":"永康區","LI":"龍潭里","LIN":"43鄰","STREET":"國民路","SECT":" ","MAREA":" ","LANE":"２３１巷","ALLEY":" ","HOUSE_NO":"２２號","E_COORD97":174603.31,"N_COORD97":2546984.4300000002,"ADDRESS":"國民路２３１巷２２號","OBJECTID":456769},"geometry":{"x":174603.31000000145,"y":2546984.4300000034}},{"attributes":{"ID":456795,"DIS_CODE":0,"TOWNNAME":"永康區","LI":"龍潭里","LIN":"43鄰","STREET":"國民路","SECT":" ","MAREA":" ","LANE":"２３１巷","ALLEY":" ","HOUSE_NO":"２６號","E_COORD97":174609.94,"N_COORD97":2546984.73,"ADDRESS":"國民路２３１巷２６號","OBJECTID":456770},"geometry":{"x":174609.94000000041,"y":2546984.7300000004}},{"attributes":{"ID":456796,"DIS_CODE":0,"TOWNNAME":"永康區","LI":"龍潭里","LIN":"43鄰","STREET":"國民路","SECT":" ","MAREA":" ","LANE":"２３１巷","ALLEY":" ","HOUSE_NO":"２８號","E_COORD97":174616.57000000001,"N_COORD97":2546984.73,"ADDRESS":"國民路２３１巷２８號","OBJECTID":456771},"geometry":{"x":174616.57000000123,"y":2546984.7300000004}},{"attributes":{"ID":456797,"DIS_CODE":0,"TOWNNAME":"永康區","LI":"龍潭里","LIN":"43鄰","STREET":"國民路","SECT":" ","MAREA":" ","LANE":"２３１巷","ALLEY":" ","HOUSE_NO":"３０號","E_COORD97":174623.35999999999,"N_COORD97":2546984.73,"ADDRESS":"國民路２３１巷３０號","OBJECTID":456772},"geometry":{"x":174623.36000000034,"y":2546984.7300000004}},{"attributes":{"ID":456798,"DIS_CODE":0,"TOWNNAME":"永康區","LI":"龍潭里","LIN":"43鄰","STREET":"國民路","SECT":" ","MAREA":" ","LANE":"２３１巷","ALLEY":" ","HOUSE_NO":"３２號","E_COORD97":174629.98999999999,"N_COORD97":2546984.73,"ADDRESS":"國民路２３１巷３２號","OBJECTID":456773},"geometry":{"x":174629.99000000209,"y":2546984.7300000004}},{"attributes":{"ID":456799,"DIS_CODE":0,"TOWNNAME":"永康區","LI":"龍潭里","LIN":"43鄰","STREET":"國民路","SECT":" ","MAREA":" ","LANE":"２３１巷","ALLEY":" ","HOUSE_NO":"３６號","E_COORD97":174637.51999999999,"N_COORD97":2546984.5800000001,"ADDRESS":"國民路２３１巷３６號","OBJECTID":456774},"geometry":{"x":174637.52000000142,"y":2546984.5800000019}},{"attributes":{"ID":456800,"DIS_CODE":0,"TOWNNAME":"永康區","LI":"龍潭里","LIN":"43鄰","STREET":"國民路","SECT":" ","MAREA":" ","LANE":"２３１巷","ALLEY":" ","HOUSE_NO":"６號","E_COORD97":174555.64000000001,"N_COORD97":2546984.2200000002,"ADDRESS":"國民路２３１巷６號","OBJECTID":456775},"geometry":{"x":174555.6400000006,"y":2546984.2200000025}},{"attributes":{"ID":456801,"DIS_CODE":0,"TOWNNAME":"永康區","LI":"龍潭里","LIN":"43鄰","STREET":"國民路","SECT":" ","MAREA":" ","LANE":"２３１巷","ALLEY":" ","HOUSE_NO":"８號","E_COORD97":174562.28,"N_COORD97":2546984.4300000002,"ADDRESS":"國民路２３１巷８號","OBJECTID":456776},"geometry":{"x":174562.28000000119,"y":2546984.4300000034}},{"attributes":{"ID":456802,"DIS_CODE":0,"TOWNNAME":"玉井區","LI":"玉田里","LIN":"43鄰","STREET":"大成路","SECT":" ","MAREA":" ","LANE":"１６１巷","ALLEY":" ","HOUSE_NO":"１０號","E_COORD97":195631.42000000001,"N_COORD97":2557901.2599999998,"ADDRESS":"大成路１６１巷１０號","OBJECTID":456777},"geometry":{"x":195631.41999999993,"y":2557901.2599999998}},{"attributes":{"ID":456803,"DIS_CODE":0,"TOWNNAME":"玉井區","LI":"玉田里","LIN":"43鄰","STREET":"忠孝街","SECT":" ","MAREA":" ","LANE":"９巷","ALLEY":" ","HOUSE_NO":"２號","E_COORD97":195554.84,"N_COORD97":2557736.25,"ADDRESS":"忠孝街９巷２號","OBJECTID":456778},"geometry":{"x":195554.84000000078,"y":2557736.25}},{"attributes":{"ID":456804,"DIS_CODE":0,"TOWNNAME":"東區","LI":"崇文里","LIN":"40鄰","STREET":"生產路","SECT":" ","MAREA":" ","LANE":" ","ALLEY":" ","HOUSE_NO":"２７７號十一樓","E_COORD97":170920.14000000001,"N_COORD97":2540618.3100000001,"ADDRESS":"生產路２７７號十一樓","OBJECTID":456779},"geometry":{"x":170920.13999999966,"y":2540618.3100000005}},{"attributes":{"ID":456805,"DIS_CODE":0,"TOWNNAME":"永康區","LI":"正強里","LIN":"43鄰","STREET":"中正路","SECT":" ","MAREA":" ","LANE":"２５６巷","ALLEY":" ","HOUSE_NO":"３號之４６","E_COORD97":173149.23999999999,"N_COORD97":2547954.29,"ADDRESS":"中正路２５６巷３號之４６","OBJECTID":456780},"geometry":{"x":173149.24000000022,"y":2547954.2900000028}},{"attributes":{"ID":456806,"DIS_CODE":0,"TOWNNAME":"永康區","LI":"正強里","LIN":"43鄰","STREET":"中正路","SECT":" ","MAREA":" ","LANE":"２５６巷","ALLEY":" ","HOUSE_NO":"３號之３４","E_COORD97":173149.16,"N_COORD97":2547954.29,"ADDRESS":"中正路２５６巷３號之３４","OBJECTID":456781},"geometry":{"x":173149.16000000108,"y":2547954.2900000028}},{"attributes":{"ID":456807,"DIS_CODE":0,"TOWNNAME":"善化區","LI":"光文里","LIN":"9鄰","STREET":"民權路","SECT":" ","MAREA":" ","LANE":" ","ALLEY":" ","HOUSE_NO":"５號","E_COORD97":178869.64999999999,"N_COORD97":2559084.6400000001,"ADDRESS":"民權路５號","OBJECTID":456782},"geometry":{"x":178869.65000000037,"y":2559084.6400000025}},{"attributes":{"ID":456808,"DIS_CODE":0,"TOWNNAME":"永康區","LI":"\u25A0行里","LIN":"43鄰","STREET":"中正南路","SECT":" ","MAREA":" ","LANE":"４９０巷","ALLEY":" ","HOUSE_NO":"５３號","E_COORD97":171561.25,"N_COORD97":2548159.4900000002,"ADDRESS":"中正南路４９０巷５３號","OBJECTID":456783},"geometry":{"x":171561.25000000186,"y":2548159.4900000002}},{"attributes":{"ID":456809,"DIS_CODE":0,"TOWNNAME":"永康區","LI":"\u25A0行里","LIN":"43鄰","STREET":"中正二街","SECT":" ","MAREA":" ","LANE":"３３６巷","ALLEY":" ","HOUSE_NO":"１０號","E_COORD97":171723.19,"N_COORD97":2547889.75,"ADDRESS":"中正二街３３６巷１０號","OBJECTID":456784},"geometry":{"x":171723.19000000227,"y":2547889.75}},{"attributes":{"ID":456810,"DIS_CODE":0,"TOWNNAME":"永康區","LI":"\u25A0行里","LIN":"43鄰","STREET":"中正南路","SECT":" ","MAREA":" ","LANE":"４９０巷","ALLEY":" ","HOUSE_NO":"６３號之１","E_COORD97":171655.26999999999,"N_COORD97":2548149.54,"ADDRESS":"中正南路４９０巷６３號之１","OBJECTID":456785},"geometry":{"x":171655.26999999955,"y":2548149.540000001}},{"attributes":{"ID":456811,"DIS_CODE":0,"TOWNNAME":"永康區","LI":"崑山里","LIN":"43鄰","STREET":"大灣路","SECT":" ","MAREA":" ","LANE":"９４２巷","ALLEY":" ","HOUSE_NO":"４４５號","E_COORD97":173917.73999999999,"N_COORD97":2545367.29,"ADDRESS":"大灣路９４２巷４４５號","OBJECTID":456786},"geometry":{"x":173917.74000000022,"y":2545367.2900000028}},{"attributes":{"ID":456812,"DIS_CODE":0,"TOWNNAME":"玉井區","LI":"玉田里","LIN":"43鄰","STREET":"忠孝街","SECT":" ","MAREA":" ","LANE":"９巷","ALLEY":" ","HOUSE_NO":"４１號","E_COORD97":195522.17999999999,"N_COORD97":2557683.2400000002,"ADDRESS":"忠孝街９巷４１號","OBJECTID":456787},"geometry":{"x":195522.1799999997,"y":2557683.2400000021}},{"attributes":{"ID":456813,"DIS_CODE":0,"TOWNNAME":"玉井區","LI":"玉田里","LIN":"43鄰","STREET":"忠孝街","SECT":" ","MAREA":" ","LANE":"９巷","ALLEY":" ","HOUSE_NO":"３３號","E_COORD97":195540.38,"N_COORD97":2557678.2400000002,"ADDRESS":"忠孝街９巷３３號","OBJECTID":456788},"geometry":{"x":195540.37999999896,"y":2557678.2400000002}},{"attributes":{"ID":456814,"DIS_CODE":0,"TOWNNAME":"玉井區","LI":"玉田里","LIN":"43鄰","STREET":"忠孝街","SECT":" ","MAREA":" ","LANE":"９巷","ALLEY":" ","HOUSE_NO":"４號","E_COORD97":195552.92999999999,"N_COORD97":2557729.25,"ADDRESS":"忠孝街９巷４號","OBJECTID":456789},"geometry":{"x":195552.9299999997,"y":2557729.25}},{"attributes":{"ID":456815,"DIS_CODE":0,"TOWNNAME":"玉井區","LI":"玉田里","LIN":"43鄰","STREET":"忠孝街","SECT":" ","MAREA":" ","LANE":"９巷","ALLEY":" ","HOUSE_NO":"１２號","E_COORD97":195538.48000000001,"N_COORD97":2557703.25,"ADDRESS":"忠孝街９巷１２號","OBJECTID":456790},"geometry":{"x":195538.48000000045,"y":2557703.2500000019}},{"attributes":{"ID":456816,"DIS_CODE":0,"TOWNNAME":"玉井區","LI":"玉田里","LIN":"43鄰","STREET":"忠孝街","SECT":" ","MAREA":" ","LANE":"９巷","ALLEY":" ","HOUSE_NO":"９號","E_COORD97":195566.04000000001,"N_COORD97":2557719.25,"ADDRESS":"忠孝街９巷９號","OBJECTID":456791},"geometry":{"x":195566.04000000004,"y":2557719.25}},{"attributes":{"ID":456817,"DIS_CODE":0,"TOWNNAME":"玉井區","LI":"玉田里","LIN":"43鄰","STREET":"忠孝街","SECT":" ","MAREA":" ","LANE":"９巷","ALLEY":" ","HOUSE_NO":"７號","E_COORD97":195567.04000000001,"N_COORD97":2557724.25,"ADDRESS":"忠孝街９巷７號","OBJECTID":456792},"geometry":{"x":195567.04000000097,"y":2557724.2500000019}},{"attributes":{"ID":456818,"DIS_CODE":0,"TOWNNAME":"玉井區","LI":"玉田里","LIN":"43鄰","STREET":"忠孝街","SECT":" ","MAREA":" ","LANE":"９巷","ALLEY":" ","HOUSE_NO":"５號","E_COORD97":195567.92999999999,"N_COORD97":2557727.25,"ADDRESS":"忠孝街９巷５號","OBJECTID":456793},"geometry":{"x":195567.9299999997,"y":2557727.2500000019}},{"attributes":{"ID":456819,"DIS_CODE":0,"TOWNNAME":"玉井區","LI":"玉田里","LIN":"43鄰","STREET":"忠孝街","SECT":" ","MAREA":" ","LANE":"９巷","ALLEY":" ","HOUSE_NO":"１號","E_COORD97":195571.14000000001,"N_COORD97":2557739.25,"ADDRESS":"忠孝街９巷１號","OBJECTID":456794},"geometry":{"x":195571.1400000006,"y":2557739.25}},{"attributes":{"ID":456820,"DIS_CODE":0,"TOWNNAME":"玉井區","LI":"玉田里","LIN":"43鄰","STREET":"忠孝街","SECT":" ","MAREA":" ","LANE":"９巷","ALLEY":" ","HOUSE_NO":"２１號","E_COORD97":195559.48000000001,"N_COORD97":2557689.2400000002,"ADDRESS":"忠孝街９巷２１號","OBJECTID":456795},"geometry":{"x":195559.48000000138,"y":2557689.2399999984}},{"attributes":{"ID":456821,"DIS_CODE":0,"TOWNNAME":"玉井區","LI":"玉田里","LIN":"43鄰","STREET":"忠孝街","SECT":" ","MAREA":" ","LANE":"９巷","ALLEY":" ","HOUSE_NO":"１１號","E_COORD97":195564.48000000001,"N_COORD97":2557711.25,"ADDRESS":"忠孝街９巷１１號","OBJECTID":456796},"geometry":{"x":195564.48000000138,"y":2557711.25}},{"attributes":{"ID":456822,"DIS_CODE":0,"TOWNNAME":"玉井區","LI":"玉田里","LIN":"43鄰","STREET":"忠孝街","SECT":" ","MAREA":" ","LANE":"９巷","ALLEY":" ","HOUSE_NO":"１３號","E_COORD97":195563.88,"N_COORD97":2557706.25,"ADDRESS":"忠孝街９巷１３號","OBJECTID":456797},"geometry":{"x":195563.87999999989,"y":2557706.2500000037}},{"attributes":{"ID":456823,"DIS_CODE":0,"TOWNNAME":"永康區","LI":"\u25A0行里","LIN":"41鄰","STREET":"永安二街","SECT":" ","MAREA":" ","LANE":"２５巷","ALLEY":" ","HOUSE_NO":"４１號","E_COORD97":172457.42999999999,"N_COORD97":2549551.5699999998,"ADDRESS":"永安二街２５巷４１號","OBJECTID":456798},"geometry":{"x":172457.4299999997,"y":2549551.5700000022}},{"attributes":{"ID":456824,"DIS_CODE":0,"TOWNNAME":"永康區","LI":"\u25A0行里","LIN":"41鄰","STREET":"永安二街","SECT":" ","MAREA":" ","LANE":"２５巷","ALLEY":" ","HOUSE_NO":"６３號","E_COORD97":172478.04000000001,"N_COORD97":2549534.8199999998,"ADDRESS":"永安二街２５巷６３號","OBJECTID":456799},"geometry":{"x":172478.03999999911,"y":2549534.8200000003}},{"attributes":{"ID":456825,"DIS_CODE":0,"TOWNNAME":"永康區","LI":"\u25A0行里","LIN":"41鄰","STREET":"永安二街","SECT":" ","MAREA":" ","LANE":"２５巷","ALLEY":" ","HOUSE_NO":"７３號","E_COORD97":172458.95000000001,"N_COORD97":2549523.5699999998,"ADDRESS":"永安二街２５巷７３號","OBJECTID":456800},"geometry":{"x":172458.95000000112,"y":2549523.5700000022}}]}