{"displayFieldName":"TOWNNAME","fieldAliases":{"ID":"ID","DIS_CODE":"DIS_CODE","TOWNNAME":"TOWNNAME","LI":"LI","LIN":"LIN","STREET":"STREET","SECT":"SECT","MAREA":"MAREA","LANE":"LANE","ALLEY":"ALLEY","HOUSE_NO":"HOUSE_NO","E_COORD97":"E_COORD97","N_COORD97":"N_COORD97","ADDRESS":"ADDRESS","OBJECTID":"OBJECTID"},"geometryType":"esriGeometryPoint","spatialReference":{"wkid":102443,"latestWkid":3826},"fields":[{"name":"ID","type":"esriFieldTypeDouble","alias":"ID"},{"name":"DIS_CODE","type":"esriFieldTypeInteger","alias":"DIS_CODE"},{"name":"TOWNNAME","type":"esriFieldTypeString","alias":"TOWNNAME","length":8},{"name":"LI","type":"esriFieldTypeString","alias":"LI","length":8},{"name":"LIN","type":"esriFieldTypeString","alias":"LIN","length":12},{"name":"STREET","type":"esriFieldTypeString","alias":"STREET","length":20},{"name":"SECT","type":"esriFieldTypeString","alias":"SECT","length":8},{"name":"MAREA","type":"esriFieldTypeString","alias":"MAREA","length":12},{"name":"LANE","type":"esriFieldTypeString","alias":"LANE","length":10},{"name":"ALLEY","type":"esriFieldTypeString","alias":"ALLEY","length":10},{"name":"HOUSE_NO","type":"esriFieldTypeString","alias":"HOUSE_NO","length":20},{"name":"E_COORD97","type":"esriFieldTypeDouble","alias":"E_COORD97"},{"name":"N_COORD97","type":"esriFieldTypeDouble","alias":"N_COORD97"},{"name":"ADDRESS","type":"esriFieldTypeString","alias":"ADDRESS","length":50},{"name":"OBJECTID","type":"esriFieldTypeOID","alias":"OBJECTID"}],"features":[{"attributes":{"ID":250405,"DIS_CODE":0,"TOWNNAME":"將軍區","LI":"仁和里","LIN":"11鄰","STREET":" ","SECT":" ","MAREA":"仁巷","LANE":" ","ALLEY":" ","HOUSE_NO":"１０８號","E_COORD97":163909.70999999999,"N_COORD97":2569065.75,"ADDRESS":"仁巷１０８號","OBJECTID":250401},"geometry":{"x":163909.71000000089,"y":2569065.75}},{"attributes":{"ID":250406,"DIS_CODE":0,"TOWNNAME":"將軍區","LI":"仁和里","LIN":"11鄰","STREET":" ","SECT":" ","MAREA":"仁巷","LANE":" ","ALLEY":" ","HOUSE_NO":"１０９號","E_COORD97":163927.64000000001,"N_COORD97":2569038.5800000001,"ADDRESS":"仁巷１０９號","OBJECTID":250402},"geometry":{"x":163927.63999999966,"y":2569038.5800000019}},{"attributes":{"ID":250407,"DIS_CODE":0,"TOWNNAME":"將軍區","LI":"仁和里","LIN":"11鄰","STREET":" ","SECT":" ","MAREA":"仁巷","LANE":" ","ALLEY":" ","HOUSE_NO":"１１０之１６號","E_COORD97":163888.76000000001,"N_COORD97":2568821.1099999999,"ADDRESS":"仁巷１１０之１６號","OBJECTID":250403},"geometry":{"x":163888.76000000071,"y":2568821.1100000013}},{"attributes":{"ID":250408,"DIS_CODE":0,"TOWNNAME":"將軍區","LI":"仁和里","LIN":"11鄰","STREET":" ","SECT":" ","MAREA":"仁巷","LANE":" ","ALLEY":" ","HOUSE_NO":"１１０之１號","E_COORD97":163895.5,"N_COORD97":2568971.0499999998,"ADDRESS":"仁巷１１０之１號","OBJECTID":250404},"geometry":{"x":163895.5,"y":2568971.0500000045}},{"attributes":{"ID":250409,"DIS_CODE":0,"TOWNNAME":"將軍區","LI":"仁和里","LIN":"11鄰","STREET":" ","SECT":" ","MAREA":"仁巷","LANE":" ","ALLEY":" ","HOUSE_NO":"１１０之２號","E_COORD97":163916.29000000001,"N_COORD97":2568960.02,"ADDRESS":"仁巷１１０之２號","OBJECTID":250405},"geometry":{"x":163916.29000000097,"y":2568960.0200000033}},{"attributes":{"ID":250410,"DIS_CODE":0,"TOWNNAME":"將軍區","LI":"仁和里","LIN":"11鄰","STREET":" ","SECT":" ","MAREA":"仁巷","LANE":" ","ALLEY":" ","HOUSE_NO":"１１０之６號","E_COORD97":163894.85000000001,"N_COORD97":2568932.5299999998,"ADDRESS":"仁巷１１０之６號","OBJECTID":250406},"geometry":{"x":163894.85000000056,"y":2568932.5300000031}},{"attributes":{"ID":250411,"DIS_CODE":0,"TOWNNAME":"將軍區","LI":"仁和里","LIN":"11鄰","STREET":" ","SECT":" ","MAREA":"仁巷","LANE":" ","ALLEY":" ","HOUSE_NO":"１１０號","E_COORD97":163894.17000000001,"N_COORD97":2568989.21,"ADDRESS":"仁巷１１０號","OBJECTID":250407},"geometry":{"x":163894.16999999993,"y":2568989.2100000009}},{"attributes":{"ID":250412,"DIS_CODE":0,"TOWNNAME":"將軍區","LI":"仁和里","LIN":"11鄰","STREET":" ","SECT":" ","MAREA":"仁巷","LANE":" ","ALLEY":" ","HOUSE_NO":"１１１之１０號","E_COORD97":163988.85000000001,"N_COORD97":2568721.1200000001,"ADDRESS":"仁巷１１１之１０號","OBJECTID":250408},"geometry":{"x":163988.84999999963,"y":2568721.1200000029}},{"attributes":{"ID":250413,"DIS_CODE":0,"TOWNNAME":"將軍區","LI":"仁和里","LIN":"11鄰","STREET":" ","SECT":" ","MAREA":"仁巷","LANE":" ","ALLEY":" ","HOUSE_NO":"１１１之１號","E_COORD97":163828.57999999999,"N_COORD97":2568729.9500000002,"ADDRESS":"仁巷１１１之１號","OBJECTID":250409},"geometry":{"x":163828.58000000007,"y":2568729.9500000011}},{"attributes":{"ID":250414,"DIS_CODE":0,"TOWNNAME":"將軍區","LI":"仁和里","LIN":"11鄰","STREET":" ","SECT":" ","MAREA":"仁巷","LANE":" ","ALLEY":" ","HOUSE_NO":"１１１之２號","E_COORD97":163901.48999999999,"N_COORD97":2568720.6000000001,"ADDRESS":"仁巷１１１之２號","OBJECTID":250410},"geometry":{"x":163901.49000000115,"y":2568720.5999999996}},{"attributes":{"ID":250415,"DIS_CODE":0,"TOWNNAME":"將軍區","LI":"仁和里","LIN":"11鄰","STREET":" ","SECT":" ","MAREA":"仁巷","LANE":" ","ALLEY":" ","HOUSE_NO":"１１１號","E_COORD97":163867.48000000001,"N_COORD97":2568767.54,"ADDRESS":"仁巷１１１號","OBJECTID":250411},"geometry":{"x":163867.48000000231,"y":2568767.540000001}},{"attributes":{"ID":250416,"DIS_CODE":0,"TOWNNAME":"將軍區","LI":"仁和里","LIN":"11鄰","STREET":" ","SECT":" ","MAREA":"仁巷","LANE":" ","ALLEY":" ","HOUSE_NO":"１１２之１號","E_COORD97":163997.38,"N_COORD97":2568694.1400000001,"ADDRESS":"仁巷１１２之１號","OBJECTID":250412},"geometry":{"x":163997.37999999989,"y":2568694.1400000006}},{"attributes":{"ID":250417,"DIS_CODE":0,"TOWNNAME":"將軍區","LI":"仁和里","LIN":"11鄰","STREET":" ","SECT":" ","MAREA":"仁巷","LANE":" ","ALLEY":" ","HOUSE_NO":"１１２號","E_COORD97":163964.81,"N_COORD97":2568578.6400000001,"ADDRESS":"仁巷１１２號","OBJECTID":250413},"geometry":{"x":163964.81000000052,"y":2568578.6400000025}},{"attributes":{"ID":250418,"DIS_CODE":0,"TOWNNAME":"中西區","LI":"光賢里","LIN":"11鄰","STREET":"中華西路","SECT":"二段","MAREA":" ","LANE":"５８０巷","ALLEY":" ","HOUSE_NO":"３９號","E_COORD97":166782.06,"N_COORD97":2544833.1299999999,"ADDRESS":"中華西路二段５８０巷３９號","OBJECTID":250414},"geometry":{"x":166782.06000000052,"y":2544833.1300000008}},{"attributes":{"ID":250419,"DIS_CODE":0,"TOWNNAME":"將軍區","LI":"仁和里","LIN":"11鄰","STREET":" ","SECT":" ","MAREA":"仁巷","LANE":" ","ALLEY":" ","HOUSE_NO":"１１３之３號","E_COORD97":163851.45000000001,"N_COORD97":2568720.9900000002,"ADDRESS":"仁巷１１３之３號","OBJECTID":250415},"geometry":{"x":163851.45000000019,"y":2568720.9900000021}},{"attributes":{"ID":250420,"DIS_CODE":0,"TOWNNAME":"東區","LI":"崇善里","LIN":"14鄰","STREET":"崇善十街","SECT":" ","MAREA":" ","LANE":"２８巷","ALLEY":" ","HOUSE_NO":"２號","E_COORD97":171169.14000000001,"N_COORD97":2541277.52,"ADDRESS":"崇善十街２８巷２號","OBJECTID":250416},"geometry":{"x":171169.1400000006,"y":2541277.5200000033}},{"attributes":{"ID":250421,"DIS_CODE":0,"TOWNNAME":"東區","LI":"崇善里","LIN":"14鄰","STREET":"崇善十街","SECT":" ","MAREA":" ","LANE":"２８巷","ALLEY":" ","HOUSE_NO":"３號","E_COORD97":171189.60999999999,"N_COORD97":2541298.9199999999,"ADDRESS":"崇善十街２８巷３號","OBJECTID":250417},"geometry":{"x":171189.6100000022,"y":2541298.9200000037}},{"attributes":{"ID":250422,"DIS_CODE":0,"TOWNNAME":"東區","LI":"崇善里","LIN":"14鄰","STREET":"崇善十街","SECT":" ","MAREA":" ","LANE":"２８巷","ALLEY":" ","HOUSE_NO":"４號","E_COORD97":171171.98999999999,"N_COORD97":2541271.3399999999,"ADDRESS":"崇善十街２８巷４號","OBJECTID":250418},"geometry":{"x":171171.99000000115,"y":2541271.3399999999}},{"attributes":{"ID":250423,"DIS_CODE":0,"TOWNNAME":"東區","LI":"崇善里","LIN":"14鄰","STREET":"崇善十街","SECT":" ","MAREA":" ","LANE":"２８巷","ALLEY":" ","HOUSE_NO":"５號","E_COORD97":171191.51000000001,"N_COORD97":2541293.9300000002,"ADDRESS":"崇善十街２８巷５號","OBJECTID":250419},"geometry":{"x":171191.51000000164,"y":2541293.9299999997}},{"attributes":{"ID":250424,"DIS_CODE":0,"TOWNNAME":"東區","LI":"崇善里","LIN":"14鄰","STREET":"崇善十街","SECT":" ","MAREA":" ","LANE":"２８巷","ALLEY":" ","HOUSE_NO":"６號","E_COORD97":171175.32999999999,"N_COORD97":2541264.9199999999,"ADDRESS":"崇善十街２８巷６號","OBJECTID":250420},"geometry":{"x":171175.33000000007,"y":2541264.9200000037}},{"attributes":{"ID":250425,"DIS_CODE":0,"TOWNNAME":"東區","LI":"崇善里","LIN":"14鄰","STREET":"崇善十街","SECT":" ","MAREA":" ","LANE":"２８巷","ALLEY":" ","HOUSE_NO":"７號","E_COORD97":171193.42000000001,"N_COORD97":2541288.2200000002,"ADDRESS":"崇善十街２８巷７號","OBJECTID":250421},"geometry":{"x":171193.41999999993,"y":2541288.2200000025}},{"attributes":{"ID":250426,"DIS_CODE":0,"TOWNNAME":"東區","LI":"崇善里","LIN":"14鄰","STREET":"崇善十街","SECT":" ","MAREA":" ","LANE":"２８巷","ALLEY":" ","HOUSE_NO":"９號","E_COORD97":171195.32000000001,"N_COORD97":2541284.6499999999,"ADDRESS":"崇善十街２８巷９號","OBJECTID":250422},"geometry":{"x":171195.32000000123,"y":2541284.6500000022}},{"attributes":{"ID":250427,"DIS_CODE":0,"TOWNNAME":"東區","LI":"崇善里","LIN":"14鄰","STREET":"崇善十街","SECT":" ","MAREA":" ","LANE":"２８巷","ALLEY":" ","HOUSE_NO":"９號之１","E_COORD97":171196.26999999999,"N_COORD97":2541278.9500000002,"ADDRESS":"崇善十街２８巷９號之１","OBJECTID":250423},"geometry":{"x":171196.27000000142,"y":2541278.9500000011}},{"attributes":{"ID":250428,"DIS_CODE":0,"TOWNNAME":"歸仁區","LI":"看西里","LIN":"18鄰","STREET":"成功五街","SECT":" ","MAREA":" ","LANE":"８８巷","ALLEY":" ","HOUSE_NO":"２０號","E_COORD97":178400.41,"N_COORD97":2539868.3599999999,"ADDRESS":"成功五街８８巷２０號","OBJECTID":250424},"geometry":{"x":178400.41000000201,"y":2539868.3600000013}},{"attributes":{"ID":250429,"DIS_CODE":0,"TOWNNAME":"安南區","LI":"理想里","LIN":"14鄰","STREET":"大安街","SECT":" ","MAREA":" ","LANE":"８９巷","ALLEY":" ","HOUSE_NO":"９號","E_COORD97":167191.60999999999,"N_COORD97":2548083.3300000001,"ADDRESS":"大安街８９巷９號","OBJECTID":250425},"geometry":{"x":167191.61000000034,"y":2548083.3300000001}},{"attributes":{"ID":250430,"DIS_CODE":0,"TOWNNAME":"東區","LI":"崇善里","LIN":"14鄰","STREET":"崇善十街","SECT":" ","MAREA":" ","LANE":"２８巷","ALLEY":" ","HOUSE_NO":"９號之２","E_COORD97":171198.64999999999,"N_COORD97":2541275.1400000001,"ADDRESS":"崇善十街２８巷９號之２","OBJECTID":250426},"geometry":{"x":171198.6500000013,"y":2541275.1400000025}},{"attributes":{"ID":250431,"DIS_CODE":0,"TOWNNAME":"東區","LI":"崇善里","LIN":"14鄰","STREET":"崇善十街","SECT":" ","MAREA":" ","LANE":"２８巷","ALLEY":" ","HOUSE_NO":"９號之３","E_COORD97":171199.84,"N_COORD97":2541270.8599999999,"ADDRESS":"崇善十街２８巷９號之３","OBJECTID":250427},"geometry":{"x":171199.84000000078,"y":2541270.8599999994}},{"attributes":{"ID":250432,"DIS_CODE":0,"TOWNNAME":"東區","LI":"崇善里","LIN":"14鄰","STREET":"崇善十街","SECT":" ","MAREA":" ","LANE":"３６巷","ALLEY":" ","HOUSE_NO":"１號","E_COORD97":171220.92000000001,"N_COORD97":2541311.02,"ADDRESS":"崇善十街３６巷１號","OBJECTID":250428},"geometry":{"x":171220.91999999899,"y":2541311.0199999996}},{"attributes":{"ID":250433,"DIS_CODE":0,"TOWNNAME":"東區","LI":"崇善里","LIN":"14鄰","STREET":"崇善十街","SECT":" ","MAREA":" ","LANE":"３６巷","ALLEY":" ","HOUSE_NO":"２０號","E_COORD97":171231.32999999999,"N_COORD97":2541246.3599999999,"ADDRESS":"崇善十街３６巷２０號","OBJECTID":250429},"geometry":{"x":171231.33000000007,"y":2541246.3599999994}},{"attributes":{"ID":250434,"DIS_CODE":0,"TOWNNAME":"東區","LI":"崇善里","LIN":"14鄰","STREET":"崇善十街","SECT":" ","MAREA":" ","LANE":"３６巷","ALLEY":" ","HOUSE_NO":"２號","E_COORD97":171207.73000000001,"N_COORD97":2541305.7599999998,"ADDRESS":"崇善十街３６巷２號","OBJECTID":250430},"geometry":{"x":171207.73000000231,"y":2541305.7599999998}},{"attributes":{"ID":250435,"DIS_CODE":0,"TOWNNAME":"東區","LI":"崇善里","LIN":"14鄰","STREET":"崇善十街","SECT":" ","MAREA":" ","LANE":"３６巷","ALLEY":" ","HOUSE_NO":"３號","E_COORD97":171222.45000000001,"N_COORD97":2541307.7400000002,"ADDRESS":"崇善十街３６巷３號","OBJECTID":250431},"geometry":{"x":171222.45000000019,"y":2541307.7400000021}},{"attributes":{"ID":250436,"DIS_CODE":0,"TOWNNAME":"東區","LI":"崇善里","LIN":"14鄰","STREET":"崇善十街","SECT":" ","MAREA":" ","LANE":"３６巷","ALLEY":" ","HOUSE_NO":"４號","E_COORD97":171209.03,"N_COORD97":2541302.4100000001,"ADDRESS":"崇善十街３６巷４號","OBJECTID":250432},"geometry":{"x":171209.03000000119,"y":2541302.4100000039}},{"attributes":{"ID":250437,"DIS_CODE":0,"TOWNNAME":"東區","LI":"崇善里","LIN":"14鄰","STREET":"崇善十街","SECT":" ","MAREA":" ","LANE":"３６巷","ALLEY":" ","HOUSE_NO":"５號","E_COORD97":171224.20000000001,"N_COORD97":2541303.6299999999,"ADDRESS":"崇善十街３６巷５號","OBJECTID":250433},"geometry":{"x":171224.20000000019,"y":2541303.6300000008}},{"attributes":{"ID":250438,"DIS_CODE":0,"TOWNNAME":"東區","LI":"崇善里","LIN":"14鄰","STREET":"崇善十街","SECT":" ","MAREA":" ","LANE":"３６巷","ALLEY":" ","HOUSE_NO":"６號","E_COORD97":171210.70000000001,"N_COORD97":2541298.75,"ADDRESS":"崇善十街３６巷６號","OBJECTID":250434},"geometry":{"x":171210.70000000019,"y":2541298.75}},{"attributes":{"ID":250439,"DIS_CODE":0,"TOWNNAME":"東區","LI":"崇善里","LIN":"14鄰","STREET":"崇善路","SECT":" ","MAREA":" ","LANE":"６６７巷","ALLEY":" ","HOUSE_NO":"１３號","E_COORD97":171142.70999999999,"N_COORD97":2541243.27,"ADDRESS":"崇善路６６７巷１３號","OBJECTID":250435},"geometry":{"x":171142.70999999903,"y":2541243.2700000014}},{"attributes":{"ID":250440,"DIS_CODE":0,"TOWNNAME":"東區","LI":"崇善里","LIN":"14鄰","STREET":"崇善路","SECT":" ","MAREA":" ","LANE":"６６７巷","ALLEY":" ","HOUSE_NO":"１５號","E_COORD97":171148.66,"N_COORD97":2541245.4100000001,"ADDRESS":"崇善路６６７巷１５號","OBJECTID":250436},"geometry":{"x":171148.66000000108,"y":2541245.410000002}},{"attributes":{"ID":250441,"DIS_CODE":0,"TOWNNAME":"東區","LI":"崇善里","LIN":"14鄰","STREET":"崇善路","SECT":" ","MAREA":" ","LANE":"６６７巷","ALLEY":" ","HOUSE_NO":"１７號","E_COORD97":171154.85000000001,"N_COORD97":2541247.5499999998,"ADDRESS":"崇善路６６７巷１７號","OBJECTID":250437},"geometry":{"x":171154.84999999963,"y":2541247.5500000007}},{"attributes":{"ID":250442,"DIS_CODE":0,"TOWNNAME":"東區","LI":"崇善里","LIN":"14鄰","STREET":"崇善路","SECT":" ","MAREA":" ","LANE":"６６７巷","ALLEY":" ","HOUSE_NO":"１８號","E_COORD97":171149.45999999999,"N_COORD97":2541223.5299999998,"ADDRESS":"崇善路６６７巷１８號","OBJECTID":250438},"geometry":{"x":171149.45999999996,"y":2541223.5300000012}},{"attributes":{"ID":250443,"DIS_CODE":0,"TOWNNAME":"東區","LI":"崇善里","LIN":"14鄰","STREET":"崇善路","SECT":" ","MAREA":" ","LANE":"６６７巷","ALLEY":" ","HOUSE_NO":"２０號","E_COORD97":171152.79999999999,"N_COORD97":2541225.75,"ADDRESS":"崇善路６６７巷２０號","OBJECTID":250439},"geometry":{"x":171152.80000000075,"y":2541225.7500000037}},{"attributes":{"ID":250444,"DIS_CODE":0,"TOWNNAME":"東區","LI":"崇善里","LIN":"14鄰","STREET":"崇善路","SECT":" ","MAREA":" ","LANE":"６６７巷","ALLEY":" ","HOUSE_NO":"２１號","E_COORD97":171166.04000000001,"N_COORD97":2541251.8399999999,"ADDRESS":"崇善路６６７巷２１號","OBJECTID":250440},"geometry":{"x":171166.0400000019,"y":2541251.8400000036}},{"attributes":{"ID":250445,"DIS_CODE":0,"TOWNNAME":"東區","LI":"崇善里","LIN":"14鄰","STREET":"崇善路","SECT":" ","MAREA":" ","LANE":"６６７巷","ALLEY":" ","HOUSE_NO":"２２號","E_COORD97":171157.67999999999,"N_COORD97":2541223.98,"ADDRESS":"崇善路６６７巷２２號","OBJECTID":250441},"geometry":{"x":171157.6799999997,"y":2541223.9800000004}},{"attributes":{"ID":250446,"DIS_CODE":0,"TOWNNAME":"東區","LI":"崇善里","LIN":"14鄰","STREET":"崇善路","SECT":" ","MAREA":" ","LANE":"６６７巷","ALLEY":" ","HOUSE_NO":"２３號","E_COORD97":171172.47,"N_COORD97":2541253.02,"ADDRESS":"崇善路６６７巷２３號","OBJECTID":250442},"geometry":{"x":171172.46999999974,"y":2541253.0199999996}},{"attributes":{"ID":250447,"DIS_CODE":0,"TOWNNAME":"北區","LI":"正覺里","LIN":"14鄰","STREET":"西門路","SECT":"四段","MAREA":" ","LANE":" ","ALLEY":" ","HOUSE_NO":"４８６號","E_COORD97":169141.62,"N_COORD97":2546335.98,"ADDRESS":"西門路四段４８６號","OBJECTID":250443},"geometry":{"x":169141.62000000197,"y":2546335.9800000004}},{"attributes":{"ID":250448,"DIS_CODE":0,"TOWNNAME":"中西區","LI":"光賢里","LIN":"11鄰","STREET":"中華西路","SECT":"二段","MAREA":" ","LANE":"５８０巷","ALLEY":" ","HOUSE_NO":"５８號","E_COORD97":166710.41,"N_COORD97":2544776.2999999998,"ADDRESS":"中華西路二段５８０巷５８號","OBJECTID":250444},"geometry":{"x":166710.41000000201,"y":2544776.3000000026}},{"attributes":{"ID":250449,"DIS_CODE":0,"TOWNNAME":"東區","LI":"崇善里","LIN":"14鄰","STREET":"崇善路","SECT":" ","MAREA":" ","LANE":"６６７巷","ALLEY":" ","HOUSE_NO":"２５號","E_COORD97":171177.47,"N_COORD97":2541255.8799999999,"ADDRESS":"崇善路６６７巷２５號","OBJECTID":250445},"geometry":{"x":171177.46999999974,"y":2541255.879999999}},{"attributes":{"ID":250450,"DIS_CODE":0,"TOWNNAME":"東區","LI":"崇善里","LIN":"14鄰","STREET":"崇善路","SECT":" ","MAREA":" ","LANE":"６６７巷","ALLEY":" ","HOUSE_NO":"２６號","E_COORD97":171165.45999999999,"N_COORD97":2541225.9700000002,"ADDRESS":"崇善路６６７巷２６號","OBJECTID":250446},"geometry":{"x":171165.46000000089,"y":2541225.9700000025}},{"attributes":{"ID":250451,"DIS_CODE":0,"TOWNNAME":"東區","LI":"崇善里","LIN":"14鄰","STREET":"崇善路","SECT":" ","MAREA":" ","LANE":"６６７巷","ALLEY":" ","HOUSE_NO":"２７號","E_COORD97":171183.89999999999,"N_COORD97":2541257.54,"ADDRESS":"崇善路６６７巷２７號","OBJECTID":250447},"geometry":{"x":171183.90000000037,"y":2541257.540000001}},{"attributes":{"ID":250452,"DIS_CODE":0,"TOWNNAME":"東區","LI":"崇善里","LIN":"14鄰","STREET":"崇善路","SECT":" ","MAREA":" ","LANE":"６６７巷","ALLEY":" ","HOUSE_NO":"２８號","E_COORD97":171169.01000000001,"N_COORD97":2541230.4100000001,"ADDRESS":"崇善路６６７巷２８號","OBJECTID":250448},"geometry":{"x":171169.00999999978,"y":2541230.4100000001}},{"attributes":{"ID":250453,"DIS_CODE":0,"TOWNNAME":"東區","LI":"崇善里","LIN":"14鄰","STREET":"崇善路","SECT":" ","MAREA":" ","LANE":"６６７巷","ALLEY":" ","HOUSE_NO":"３０號","E_COORD97":171173.89999999999,"N_COORD97":2541229.9700000002,"ADDRESS":"崇善路６６７巷３０號","OBJECTID":250449},"geometry":{"x":171173.90000000037,"y":2541229.9700000007}},{"attributes":{"ID":250454,"DIS_CODE":0,"TOWNNAME":"東區","LI":"崇善里","LIN":"14鄰","STREET":"崇善路","SECT":" ","MAREA":" ","LANE":"６６７巷","ALLEY":" ","HOUSE_NO":"３２號","E_COORD97":171176.56,"N_COORD97":2541232.8500000001,"ADDRESS":"崇善路６６７巷３２號","OBJECTID":250450},"geometry":{"x":171176.55999999959,"y":2541232.8500000015}},{"attributes":{"ID":250455,"DIS_CODE":0,"TOWNNAME":"東區","LI":"崇善里","LIN":"14鄰","STREET":"崇善路","SECT":" ","MAREA":" ","LANE":"６６７巷","ALLEY":" ","HOUSE_NO":"３４號","E_COORD97":171181.23000000001,"N_COORD97":2541231.96,"ADDRESS":"崇善路６６７巷３４號","OBJECTID":250451},"geometry":{"x":171181.23000000138,"y":2541231.9600000046}},{"attributes":{"ID":250456,"DIS_CODE":0,"TOWNNAME":"東區","LI":"崇善里","LIN":"14鄰","STREET":"崇善路","SECT":" ","MAREA":" ","LANE":"６６７巷","ALLEY":" ","HOUSE_NO":"３８號","E_COORD97":171189.22,"N_COORD97":2541237.73,"ADDRESS":"崇善路６６７巷３８號","OBJECTID":250452},"geometry":{"x":171189.21999999974,"y":2541237.7300000023}},{"attributes":{"ID":250457,"DIS_CODE":0,"TOWNNAME":"東區","LI":"崇善里","LIN":"14鄰","STREET":"崇善路","SECT":" ","MAREA":" ","LANE":"６６７巷","ALLEY":" ","HOUSE_NO":"４０號","E_COORD97":171194.92999999999,"N_COORD97":2541235.7799999998,"ADDRESS":"崇善路６６７巷４０號","OBJECTID":250453},"geometry":{"x":171194.9299999997,"y":2541235.7800000012}},{"attributes":{"ID":250458,"DIS_CODE":0,"TOWNNAME":"東區","LI":"東聖里","LIN":"14鄰","STREET":"中華東路","SECT":"二段","MAREA":" ","LANE":"４１巷","ALLEY":" ","HOUSE_NO":"２８號","E_COORD97":171497.01000000001,"N_COORD97":2543082.8399999999,"ADDRESS":"中華東路二段４１巷２８號","OBJECTID":250454},"geometry":{"x":171497.01000000071,"y":2543082.8400000036}},{"attributes":{"ID":250459,"DIS_CODE":0,"TOWNNAME":"東區","LI":"東聖里","LIN":"14鄰","STREET":"中華東路","SECT":"二段","MAREA":" ","LANE":"４１巷","ALLEY":" ","HOUSE_NO":"３０號","E_COORD97":171502.42999999999,"N_COORD97":2543084.8500000001,"ADDRESS":"中華東路二段４１巷３０號","OBJECTID":250455},"geometry":{"x":171502.43000000063,"y":2543084.8499999996}},{"attributes":{"ID":250460,"DIS_CODE":0,"TOWNNAME":"東區","LI":"東聖里","LIN":"14鄰","STREET":"中華東路","SECT":"二段","MAREA":" ","LANE":"４１巷","ALLEY":" ","HOUSE_NO":"４６號","E_COORD97":171533.51999999999,"N_COORD97":2543084.3799999999,"ADDRESS":"中華東路二段４１巷４６號","OBJECTID":250456},"geometry":{"x":171533.52000000142,"y":2543084.379999999}},{"attributes":{"ID":250461,"DIS_CODE":0,"TOWNNAME":"東區","LI":"東聖里","LIN":"14鄰","STREET":"中華東路","SECT":"二段","MAREA":" ","LANE":"４１巷","ALLEY":" ","HOUSE_NO":"４８號","E_COORD97":171538.92999999999,"N_COORD97":2543082.9900000002,"ADDRESS":"中華東路二段４１巷４８號","OBJECTID":250457},"geometry":{"x":171538.9299999997,"y":2543082.9900000021}},{"attributes":{"ID":250462,"DIS_CODE":0,"TOWNNAME":"歸仁區","LI":"崙頂里","LIN":"2鄰","STREET":"成功路","SECT":"一段","MAREA":" ","LANE":"３３９巷","ALLEY":" ","HOUSE_NO":"２１號","E_COORD97":178256.14000000001,"N_COORD97":2539881.6699999999,"ADDRESS":"成功路一段３３９巷２１號","OBJECTID":250458},"geometry":{"x":178256.1400000006,"y":2539881.6699999999}},{"attributes":{"ID":250463,"DIS_CODE":0,"TOWNNAME":"歸仁區","LI":"許厝里","LIN":"4鄰","STREET":"仁愛一街","SECT":" ","MAREA":" ","LANE":"１２巷","ALLEY":" ","HOUSE_NO":"１７號","E_COORD97":178343.64000000001,"N_COORD97":2540576.73,"ADDRESS":"仁愛一街１２巷１７號","OBJECTID":250459},"geometry":{"x":178343.63999999966,"y":2540576.7300000023}},{"attributes":{"ID":250464,"DIS_CODE":0,"TOWNNAME":"東區","LI":"東聖里","LIN":"14鄰","STREET":"中華東路","SECT":"二段","MAREA":" ","LANE":"４１巷","ALLEY":" ","HOUSE_NO":"５０號","E_COORD97":171546.97,"N_COORD97":2543083.7599999998,"ADDRESS":"中華東路二段４１巷５０號","OBJECTID":250460},"geometry":{"x":171546.96999999974,"y":2543083.7600000016}},{"attributes":{"ID":250465,"DIS_CODE":0,"TOWNNAME":"東區","LI":"東聖里","LIN":"14鄰","STREET":"中華東路","SECT":"二段","MAREA":" ","LANE":"４１巷","ALLEY":" ","HOUSE_NO":"５２號","E_COORD97":171557.79999999999,"N_COORD97":2543082.3700000001,"ADDRESS":"中華東路二段４１巷５２號","OBJECTID":250461},"geometry":{"x":171557.80000000075,"y":2543082.370000001}},{"attributes":{"ID":250466,"DIS_CODE":0,"TOWNNAME":"新市區","LI":"新和里","LIN":"14鄰","STREET":"忠孝街","SECT":" ","MAREA":" ","LANE":"９０巷","ALLEY":" ","HOUSE_NO":"３號","E_COORD97":177712.67000000001,"N_COORD97":2552561.25,"ADDRESS":"忠孝街９０巷３號","OBJECTID":250462},"geometry":{"x":177712.67000000086,"y":2552561.25}},{"attributes":{"ID":250467,"DIS_CODE":0,"TOWNNAME":"新市區","LI":"新和里","LIN":"14鄰","STREET":"忠孝街","SECT":" ","MAREA":" ","LANE":"９０巷","ALLEY":" ","HOUSE_NO":"８號","E_COORD97":177722.17000000001,"N_COORD97":2552548.25,"ADDRESS":"忠孝街９０巷８號","OBJECTID":250463},"geometry":{"x":177722.17000000179,"y":2552548.25}},{"attributes":{"ID":250468,"DIS_CODE":0,"TOWNNAME":"永康區","LI":"大橋里","LIN":"14鄰","STREET":"大橋一街","SECT":" ","MAREA":" ","LANE":"７３巷","ALLEY":" ","HOUSE_NO":"５９號","E_COORD97":170816.84,"N_COORD97":2546530.75,"ADDRESS":"大橋一街７３巷５９號","OBJECTID":250464},"geometry":{"x":170816.84000000078,"y":2546530.75}},{"attributes":{"ID":250469,"DIS_CODE":0,"TOWNNAME":"永康區","LI":"中興里","LIN":"14鄰","STREET":"中興街","SECT":" ","MAREA":" ","LANE":"６９巷","ALLEY":" ","HOUSE_NO":"３５號","E_COORD97":171957.14999999999,"N_COORD97":2545287.0299999998,"ADDRESS":"中興街６９巷３５號","OBJECTID":250465},"geometry":{"x":171957.15000000037,"y":2545287.0299999993}},{"attributes":{"ID":250470,"DIS_CODE":0,"TOWNNAME":"永康區","LI":"大橋里","LIN":"14鄰","STREET":"大橋一街","SECT":" ","MAREA":" ","LANE":"７３巷","ALLEY":" ","HOUSE_NO":"１１號","E_COORD97":170893.57999999999,"N_COORD97":2546465.4900000002,"ADDRESS":"大橋一街７３巷１１號","OBJECTID":250466},"geometry":{"x":170893.58000000101,"y":2546465.4900000039}},{"attributes":{"ID":250471,"DIS_CODE":0,"TOWNNAME":"永康區","LI":"中興里","LIN":"14鄰","STREET":"中興街","SECT":" ","MAREA":" ","LANE":"６９巷","ALLEY":" ","HOUSE_NO":"４１號","E_COORD97":171945.41,"N_COORD97":2545286.7799999998,"ADDRESS":"中興街６９巷４１號","OBJECTID":250467},"geometry":{"x":171945.41000000108,"y":2545286.7800000012}},{"attributes":{"ID":250472,"DIS_CODE":0,"TOWNNAME":"永康區","LI":"大灣里","LIN":"14鄰","STREET":"大灣路","SECT":" ","MAREA":" ","LANE":"２８８巷","ALLEY":" ","HOUSE_NO":"２５號","E_COORD97":174845.54000000001,"N_COORD97":2545276.7999999998,"ADDRESS":"大灣路２８８巷２５號","OBJECTID":250468},"geometry":{"x":174845.54000000004,"y":2545276.8000000007}},{"attributes":{"ID":250473,"DIS_CODE":0,"TOWNNAME":"永康區","LI":"復華里","LIN":"14鄰","STREET":"國華街","SECT":" ","MAREA":" ","LANE":"９６巷","ALLEY":" ","HOUSE_NO":"２號","E_COORD97":172856.62,"N_COORD97":2545918.75,"ADDRESS":"國華街９６巷２號","OBJECTID":250469},"geometry":{"x":172856.62000000011,"y":2545918.7500000019}},{"attributes":{"ID":250474,"DIS_CODE":0,"TOWNNAME":"永康區","LI":"復華里","LIN":"14鄰","STREET":"國華街","SECT":" ","MAREA":" ","LANE":"９４巷","ALLEY":" ","HOUSE_NO":"１８號","E_COORD97":172906.84,"N_COORD97":2545889.5,"ADDRESS":"國華街９４巷１８號","OBJECTID":250470},"geometry":{"x":172906.84000000078,"y":2545889.5000000019}},{"attributes":{"ID":250475,"DIS_CODE":0,"TOWNNAME":"安平區","LI":"國平里","LIN":"14鄰","STREET":"健康路","SECT":"三段","MAREA":" ","LANE":" ","ALLEY":" ","HOUSE_NO":"１８０號之４６","E_COORD97":165468.07999999999,"N_COORD97":2542729.98,"ADDRESS":"健康路三段１８０號之４６","OBJECTID":250471},"geometry":{"x":165468.08000000007,"y":2542729.9800000042}},{"attributes":{"ID":250476,"DIS_CODE":0,"TOWNNAME":"白河區","LI":"竹門里","LIN":"11鄰","STREET":" ","SECT":" ","MAREA":"竹子門","LANE":" ","ALLEY":" ","HOUSE_NO":"１２５之１號","E_COORD97":193248.60000000001,"N_COORD97":2586006.7400000002,"ADDRESS":"竹子門１２５之１號","OBJECTID":250472},"geometry":{"x":193248.60000000149,"y":2586006.7400000021}},{"attributes":{"ID":250477,"DIS_CODE":0,"TOWNNAME":"白河區","LI":"竹門里","LIN":"11鄰","STREET":" ","SECT":" ","MAREA":"竹子門","LANE":" ","ALLEY":" ","HOUSE_NO":"１２５之２號","E_COORD97":193211.82000000001,"N_COORD97":2586015.2799999998,"ADDRESS":"竹子門１２５之２號","OBJECTID":250473},"geometry":{"x":193211.8200000003,"y":2586015.2800000012}},{"attributes":{"ID":250478,"DIS_CODE":0,"TOWNNAME":"白河區","LI":"竹門里","LIN":"11鄰","STREET":" ","SECT":" ","MAREA":"竹子門","LANE":" ","ALLEY":" ","HOUSE_NO":"１２５號","E_COORD97":193251.60000000001,"N_COORD97":2586055.0299999998,"ADDRESS":"竹子門１２５號","OBJECTID":250474},"geometry":{"x":193251.59999999963,"y":2586055.0300000012}},{"attributes":{"ID":250479,"DIS_CODE":0,"TOWNNAME":"白河區","LI":"竹門里","LIN":"11鄰","STREET":" ","SECT":" ","MAREA":"竹子門","LANE":" ","ALLEY":" ","HOUSE_NO":"１２６號","E_COORD97":193274.79999999999,"N_COORD97":2586014.6400000001,"ADDRESS":"竹子門１２６號","OBJECTID":250475},"geometry":{"x":193274.80000000075,"y":2586014.6400000025}},{"attributes":{"ID":250480,"DIS_CODE":0,"TOWNNAME":"白河區","LI":"竹門里","LIN":"11鄰","STREET":" ","SECT":" ","MAREA":"竹子門","LANE":" ","ALLEY":" ","HOUSE_NO":"１２７號","E_COORD97":193232.04000000001,"N_COORD97":2585981.5800000001,"ADDRESS":"竹子門１２７號","OBJECTID":250476},"geometry":{"x":193232.04000000004,"y":2585981.5800000001}},{"attributes":{"ID":250481,"DIS_CODE":0,"TOWNNAME":"永康區","LI":"復華里","LIN":"14鄰","STREET":"國華街","SECT":" ","MAREA":" ","LANE":"９６巷","ALLEY":" ","HOUSE_NO":"２６號","E_COORD97":172918.59,"N_COORD97":2545918.25,"ADDRESS":"國華街９６巷２６號","OBJECTID":250477},"geometry":{"x":172918.59000000078,"y":2545918.2500000019}},{"attributes":{"ID":250482,"DIS_CODE":0,"TOWNNAME":"永康區","LI":"復華里","LIN":"14鄰","STREET":"國華街","SECT":" ","MAREA":" ","LANE":"９４巷","ALLEY":" ","HOUSE_NO":"１９號","E_COORD97":172911.48999999999,"N_COORD97":2545900.5,"ADDRESS":"國華街９４巷１９號","OBJECTID":250478},"geometry":{"x":172911.49000000115,"y":2545900.5000000019}},{"attributes":{"ID":250483,"DIS_CODE":0,"TOWNNAME":"永康區","LI":"復華里","LIN":"14鄰","STREET":"國華街","SECT":" ","MAREA":" ","LANE":"９４巷","ALLEY":" ","HOUSE_NO":"１３號","E_COORD97":172893.84,"N_COORD97":2545900.25,"ADDRESS":"國華街９４巷１３號","OBJECTID":250479},"geometry":{"x":172893.83999999985,"y":2545900.25}},{"attributes":{"ID":250484,"DIS_CODE":0,"TOWNNAME":"永康區","LI":"復華里","LIN":"14鄰","STREET":"國華街","SECT":" ","MAREA":" ","LANE":"９４巷","ALLEY":" ","HOUSE_NO":"２９號","E_COORD97":172939.62,"N_COORD97":2545900.5,"ADDRESS":"國華街９４巷２９號","OBJECTID":250480},"geometry":{"x":172939.62000000104,"y":2545900.5000000019}},{"attributes":{"ID":250485,"DIS_CODE":0,"TOWNNAME":"永康區","LI":"復華里","LIN":"14鄰","STREET":"國華街","SECT":" ","MAREA":" ","LANE":"９２巷","ALLEY":" ","HOUSE_NO":"１７號","E_COORD97":172912.34,"N_COORD97":2545871.9900000002,"ADDRESS":"國華街９２巷１７號","OBJECTID":250481},"geometry":{"x":172912.34000000078,"y":2545871.9900000002}},{"attributes":{"ID":250486,"DIS_CODE":0,"TOWNNAME":"永康區","LI":"復華里","LIN":"14鄰","STREET":"國華街","SECT":" ","MAREA":" ","LANE":"９２巷","ALLEY":" ","HOUSE_NO":"１３號","E_COORD97":172900.23000000001,"N_COORD97":2545871.7400000002,"ADDRESS":"國華街９２巷１３號","OBJECTID":250482},"geometry":{"x":172900.23000000138,"y":2545871.7400000021}},{"attributes":{"ID":250487,"DIS_CODE":0,"TOWNNAME":"永康區","LI":"勝利里","LIN":"14鄰","STREET":"勝利街","SECT":" ","MAREA":" ","LANE":"７７巷","ALLEY":" ","HOUSE_NO":"３號","E_COORD97":171334.5,"N_COORD97":2544755.5099999998,"ADDRESS":"勝利街７７巷３號","OBJECTID":250483},"geometry":{"x":171334.50000000093,"y":2544755.5099999998}},{"attributes":{"ID":250488,"DIS_CODE":0,"TOWNNAME":"永康區","LI":"正強里","LIN":"11鄰","STREET":"正義街","SECT":" ","MAREA":" ","LANE":"１１５巷","ALLEY":" ","HOUSE_NO":"８號","E_COORD97":173378.64000000001,"N_COORD97":2547499.8100000001,"ADDRESS":"正義街１１５巷８號","OBJECTID":250484},"geometry":{"x":173378.63999999966,"y":2547499.8100000005}},{"attributes":{"ID":250489,"DIS_CODE":0,"TOWNNAME":"永康區","LI":"永康里","LIN":"11鄰","STREET":"永平街","SECT":" ","MAREA":" ","LANE":"４５巷","ALLEY":" ","HOUSE_NO":"６號","E_COORD97":173662.45000000001,"N_COORD97":2547131.75,"ADDRESS":"永平街４５巷６號","OBJECTID":250485},"geometry":{"x":173662.45000000112,"y":2547131.7500000037}},{"attributes":{"ID":250490,"DIS_CODE":0,"TOWNNAME":"永康區","LI":"永康里","LIN":"11鄰","STREET":"永平街","SECT":" ","MAREA":" ","LANE":"４５巷","ALLEY":" ","HOUSE_NO":"１２號","E_COORD97":173691.42999999999,"N_COORD97":2547143.96,"ADDRESS":"永平街４５巷１２號","OBJECTID":250486},"geometry":{"x":173691.43000000063,"y":2547143.9600000009}},{"attributes":{"ID":250491,"DIS_CODE":0,"TOWNNAME":"永康區","LI":"正強里","LIN":"11鄰","STREET":"正義街","SECT":" ","MAREA":" ","LANE":"１１５巷","ALLEY":" ","HOUSE_NO":"１０號","E_COORD97":173380.39000000001,"N_COORD97":2547495.5600000001,"ADDRESS":"正義街１１５巷１０號","OBJECTID":250487},"geometry":{"x":173380.38999999966,"y":2547495.5600000005}},{"attributes":{"ID":250492,"DIS_CODE":0,"TOWNNAME":"永康區","LI":"永康里","LIN":"11鄰","STREET":"中山南路","SECT":" ","MAREA":" ","LANE":"１０５４巷","ALLEY":" ","HOUSE_NO":"３１號","E_COORD97":173746.95000000001,"N_COORD97":2547186.2400000002,"ADDRESS":"中山南路１０５４巷３１號","OBJECTID":250488},"geometry":{"x":173746.95000000205,"y":2547186.2400000039}},{"attributes":{"ID":250493,"DIS_CODE":0,"TOWNNAME":"永康區","LI":"正強里","LIN":"11鄰","STREET":"正義街","SECT":" ","MAREA":" ","LANE":"１１５巷","ALLEY":" ","HOUSE_NO":"１６號","E_COORD97":173382.19,"N_COORD97":2547487.3199999998,"ADDRESS":"正義街１１５巷１６號","OBJECTID":250489},"geometry":{"x":173382.19000000041,"y":2547487.320000004}},{"attributes":{"ID":250494,"DIS_CODE":0,"TOWNNAME":"永康區","LI":"復國里","LIN":"14鄰","STREET":"復國二路","SECT":" ","MAREA":" ","LANE":"１８４巷","ALLEY":" ","HOUSE_NO":"１６號","E_COORD97":172977.51000000001,"N_COORD97":2545714.54,"ADDRESS":"復國二路１８４巷１６號","OBJECTID":250490},"geometry":{"x":172977.50999999978,"y":2545714.5399999991}},{"attributes":{"ID":250495,"DIS_CODE":0,"TOWNNAME":"永康區","LI":"復華里","LIN":"14鄰","STREET":"國華街","SECT":" ","MAREA":" ","LANE":"９４巷","ALLEY":" ","HOUSE_NO":"２４號","E_COORD97":172923.45999999999,"N_COORD97":2545889.5,"ADDRESS":"國華街９４巷２４號","OBJECTID":250491},"geometry":{"x":172923.46000000089,"y":2545889.5000000019}},{"attributes":{"ID":250496,"DIS_CODE":0,"TOWNNAME":"永康區","LI":"復華里","LIN":"14鄰","STREET":"國華街","SECT":" ","MAREA":" ","LANE":"９４巷","ALLEY":" ","HOUSE_NO":"８號","E_COORD97":172877.19,"N_COORD97":2545889.5,"ADDRESS":"國華街９４巷８號","OBJECTID":250492},"geometry":{"x":172877.19000000041,"y":2545889.5000000019}},{"attributes":{"ID":250497,"DIS_CODE":0,"TOWNNAME":"永康區","LI":"復華里","LIN":"14鄰","STREET":"國華街","SECT":" ","MAREA":" ","LANE":"９６巷","ALLEY":" ","HOUSE_NO":"３４號","E_COORD97":172944.76000000001,"N_COORD97":2545916.75,"ADDRESS":"國華街９６巷３４號","OBJECTID":250493},"geometry":{"x":172944.76000000071,"y":2545916.75}},{"attributes":{"ID":250498,"DIS_CODE":0,"TOWNNAME":"永康區","LI":"復華里","LIN":"14鄰","STREET":"國華街","SECT":" ","MAREA":" ","LANE":"９２巷","ALLEY":" ","HOUSE_NO":"１９號","E_COORD97":172918.67999999999,"N_COORD97":2545872.2400000002,"ADDRESS":"國華街９２巷１９號","OBJECTID":250494},"geometry":{"x":172918.6799999997,"y":2545872.2400000021}},{"attributes":{"ID":250499,"DIS_CODE":0,"TOWNNAME":"永康區","LI":"復華里","LIN":"14鄰","STREET":"國華街","SECT":" ","MAREA":" ","LANE":"９４巷","ALLEY":" ","HOUSE_NO":"５號","E_COORD97":172871.06,"N_COORD97":2545900,"ADDRESS":"國華街９４巷５號","OBJECTID":250495},"geometry":{"x":172871.06000000052,"y":2545900.0000000019}},{"attributes":{"ID":250500,"DIS_CODE":0,"TOWNNAME":"永康區","LI":"復華里","LIN":"14鄰","STREET":"國華街","SECT":" ","MAREA":" ","LANE":"９６巷","ALLEY":" ","HOUSE_NO":"１４號","E_COORD97":172886.16,"N_COORD97":2545917.5,"ADDRESS":"國華街９６巷１４號","OBJECTID":250496},"geometry":{"x":172886.16000000108,"y":2545917.5000000019}},{"attributes":{"ID":250501,"DIS_CODE":0,"TOWNNAME":"永康區","LI":"復華里","LIN":"14鄰","STREET":"國華街","SECT":" ","MAREA":" ","LANE":"９４巷","ALLEY":" ","HOUSE_NO":"１２號","E_COORD97":172889.42999999999,"N_COORD97":2545889.5,"ADDRESS":"國華街９４巷１２號","OBJECTID":250497},"geometry":{"x":172889.43000000063,"y":2545889.5000000019}},{"attributes":{"ID":250502,"DIS_CODE":0,"TOWNNAME":"安平區","LI":"國平里","LIN":"14鄰","STREET":"健康路","SECT":"三段","MAREA":" ","LANE":" ","ALLEY":" ","HOUSE_NO":"１８０號之４７","E_COORD97":165471.98000000001,"N_COORD97":2542728.5299999998,"ADDRESS":"健康路三段１８０號之４７","OBJECTID":250498},"geometry":{"x":165471.98000000045,"y":2542728.5300000012}},{"attributes":{"ID":250503,"DIS_CODE":0,"TOWNNAME":"安平區","LI":"建平里","LIN":"14鄰","STREET":"建平十三街","SECT":" ","MAREA":" ","LANE":" ","ALLEY":" ","HOUSE_NO":"８號","E_COORD97":166278.29000000001,"N_COORD97":2544011.8999999999,"ADDRESS":"建平十三街８號","OBJECTID":250499},"geometry":{"x":166278.29000000004,"y":2544011.9000000041}},{"attributes":{"ID":250504,"DIS_CODE":0,"TOWNNAME":"安平區","LI":"國平里","LIN":"14鄰","STREET":"健康路","SECT":"三段","MAREA":" ","LANE":" ","ALLEY":" ","HOUSE_NO":"１８０號之４８","E_COORD97":165478.92999999999,"N_COORD97":2542728.73,"ADDRESS":"健康路三段１８０號之４８","OBJECTID":250500},"geometry":{"x":165478.9299999997,"y":2542728.7300000023}},{"attributes":{"ID":250505,"DIS_CODE":0,"TOWNNAME":"白河區","LI":"竹門里","LIN":"11鄰","STREET":" ","SECT":" ","MAREA":"竹子門","LANE":" ","ALLEY":" ","HOUSE_NO":"１２８之１號","E_COORD97":193188.64999999999,"N_COORD97":2586037.96,"ADDRESS":"竹子門１２８之１號","OBJECTID":250501},"geometry":{"x":193188.6500000013,"y":2586037.9600000009}},{"attributes":{"ID":250506,"DIS_CODE":0,"TOWNNAME":"白河區","LI":"竹門里","LIN":"11鄰","STREET":" ","SECT":" ","MAREA":"竹子門","LANE":" ","ALLEY":" ","HOUSE_NO":"１２８之２１號","E_COORD97":193086.04000000001,"N_COORD97":2585903.98,"ADDRESS":"竹子門１２８之２１號","OBJECTID":250502},"geometry":{"x":193086.04000000004,"y":2585903.9800000023}},{"attributes":{"ID":250507,"DIS_CODE":0,"TOWNNAME":"白河區","LI":"竹門里","LIN":"11鄰","STREET":" ","SECT":" ","MAREA":"竹子門","LANE":" ","ALLEY":" ","HOUSE_NO":"１２８之２號","E_COORD97":193191.54999999999,"N_COORD97":2586074.3900000001,"ADDRESS":"竹子門１２８之２號","OBJECTID":250503},"geometry":{"x":193191.55000000075,"y":2586074.3900000025}},{"attributes":{"ID":250508,"DIS_CODE":0,"TOWNNAME":"安平區","LI":"國平里","LIN":"14鄰","STREET":"健康路","SECT":"三段","MAREA":" ","LANE":" ","ALLEY":" ","HOUSE_NO":"１８０號之４９","E_COORD97":165484.69,"N_COORD97":2542727.3399999999,"ADDRESS":"健康路三段１８０號之４９","OBJECTID":250504},"geometry":{"x":165484.69000000041,"y":2542727.3400000017}},{"attributes":{"ID":250509,"DIS_CODE":0,"TOWNNAME":"安平區","LI":"國平里","LIN":"14鄰","STREET":"健康路","SECT":"三段","MAREA":" ","LANE":" ","ALLEY":" ","HOUSE_NO":"１８０號之５","E_COORD97":165531.76999999999,"N_COORD97":2542718.8100000001,"ADDRESS":"健康路三段１８０號之５","OBJECTID":250505},"geometry":{"x":165531.76999999955,"y":2542718.8100000024}},{"attributes":{"ID":250510,"DIS_CODE":0,"TOWNNAME":"北區","LI":"正覺里","LIN":"14鄰","STREET":"西門路","SECT":"四段","MAREA":" ","LANE":" ","ALLEY":" ","HOUSE_NO":"４９０號","E_COORD97":169149.26000000001,"N_COORD97":2546341.6200000001,"ADDRESS":"西門路四段４９０號","OBJECTID":250506},"geometry":{"x":169149.26000000071,"y":2546341.6200000029}},{"attributes":{"ID":250511,"DIS_CODE":0,"TOWNNAME":"永康區","LI":"復華里","LIN":"14鄰","STREET":"國華街","SECT":" ","MAREA":" ","LANE":"９４巷","ALLEY":" ","HOUSE_NO":"２１號","E_COORD97":172916.23000000001,"N_COORD97":2545900.25,"ADDRESS":"國華街９４巷２１號","OBJECTID":250507},"geometry":{"x":172916.22999999952,"y":2545900.25}},{"attributes":{"ID":250512,"DIS_CODE":0,"TOWNNAME":"永康區","LI":"復華里","LIN":"14鄰","STREET":"國華街","SECT":" ","MAREA":" ","LANE":"９４巷","ALLEY":" ","HOUSE_NO":"２３號","E_COORD97":172922.97,"N_COORD97":2545900,"ADDRESS":"國華街９４巷２３號","OBJECTID":250508},"geometry":{"x":172922.97000000067,"y":2545900.0000000019}},{"attributes":{"ID":250513,"DIS_CODE":0,"TOWNNAME":"永康區","LI":"復華里","LIN":"14鄰","STREET":"國華街","SECT":" ","MAREA":" ","LANE":"９４巷","ALLEY":" ","HOUSE_NO":"７號","E_COORD97":172877.01000000001,"N_COORD97":2545900.25,"ADDRESS":"國華街９４巷７號","OBJECTID":250509},"geometry":{"x":172877.01000000071,"y":2545900.25}},{"attributes":{"ID":250514,"DIS_CODE":0,"TOWNNAME":"永康區","LI":"復華里","LIN":"14鄰","STREET":"國華街","SECT":" ","MAREA":" ","LANE":"９４巷","ALLEY":" ","HOUSE_NO":"２８號","E_COORD97":172934.12,"N_COORD97":2545889.5,"ADDRESS":"國華街９４巷２８號","OBJECTID":250510},"geometry":{"x":172934.12000000104,"y":2545889.5000000019}},{"attributes":{"ID":250515,"DIS_CODE":0,"TOWNNAME":"永康區","LI":"勝利里","LIN":"14鄰","STREET":"勝利街","SECT":" ","MAREA":" ","LANE":"７７巷","ALLEY":" ","HOUSE_NO":"２２號","E_COORD97":171251.73000000001,"N_COORD97":2544789.5099999998,"ADDRESS":"勝利街７７巷２２號","OBJECTID":250511},"geometry":{"x":171251.73000000231,"y":2544789.5099999998}},{"attributes":{"ID":250516,"DIS_CODE":0,"TOWNNAME":"永康區","LI":"復華里","LIN":"14鄰","STREET":"國華街","SECT":" ","MAREA":" ","LANE":"９２巷","ALLEY":" ","HOUSE_NO":"２３號","E_COORD97":172929.63,"N_COORD97":2545872.2400000002,"ADDRESS":"國華街９２巷２３號","OBJECTID":250512},"geometry":{"x":172929.62999999989,"y":2545872.2400000021}},{"attributes":{"ID":250517,"DIS_CODE":0,"TOWNNAME":"永康區","LI":"復國里","LIN":"14鄰","STREET":"復國二路","SECT":" ","MAREA":" ","LANE":"１３４巷","ALLEY":" ","HOUSE_NO":"７號","E_COORD97":172925.72,"N_COORD97":2545577.0299999998,"ADDRESS":"復國二路１３４巷７號","OBJECTID":250513},"geometry":{"x":172925.71999999974,"y":2545577.0300000012}},{"attributes":{"ID":250518,"DIS_CODE":0,"TOWNNAME":"永康區","LI":"復華里","LIN":"14鄰","STREET":"國華街","SECT":" ","MAREA":" ","LANE":"９２巷","ALLEY":" ","HOUSE_NO":"２７號","E_COORD97":172940.73000000001,"N_COORD97":2545872.2400000002,"ADDRESS":"國華街９２巷２７號","OBJECTID":250514},"geometry":{"x":172940.73000000138,"y":2545872.2400000021}},{"attributes":{"ID":250519,"DIS_CODE":0,"TOWNNAME":"永康區","LI":"勝利里","LIN":"14鄰","STREET":"勝利街","SECT":" ","MAREA":" ","LANE":"７７巷","ALLEY":" ","HOUSE_NO":"１７號","E_COORD97":171288.62,"N_COORD97":2544767.0099999998,"ADDRESS":"勝利街７７巷１７號","OBJECTID":250515},"geometry":{"x":171288.62000000011,"y":2544767.0100000016}},{"attributes":{"ID":250520,"DIS_CODE":0,"TOWNNAME":"永康區","LI":"復華里","LIN":"14鄰","STREET":"國華街","SECT":" ","MAREA":" ","LANE":"９４巷","ALLEY":" ","HOUSE_NO":"２號","E_COORD97":172865.42000000001,"N_COORD97":2545889.25,"ADDRESS":"國華街９４巷２號","OBJECTID":250516},"geometry":{"x":172865.42000000179,"y":2545889.25}},{"attributes":{"ID":250521,"DIS_CODE":0,"TOWNNAME":"永康區","LI":"復華里","LIN":"14鄰","STREET":"國華街","SECT":" ","MAREA":" ","LANE":"９６巷","ALLEY":" ","HOUSE_NO":"３６號","E_COORD97":172950.34,"N_COORD97":2545916.75,"ADDRESS":"國華街９６巷３６號","OBJECTID":250517},"geometry":{"x":172950.33999999985,"y":2545916.75}},{"attributes":{"ID":250522,"DIS_CODE":0,"TOWNNAME":"歸仁區","LI":"辜厝里","LIN":"41鄰","STREET":"大吉街","SECT":" ","MAREA":" ","LANE":"１３０巷","ALLEY":" ","HOUSE_NO":"２號","E_COORD97":177180.64000000001,"N_COORD97":2540506.6800000002,"ADDRESS":"大吉街１３０巷２號","OBJECTID":250518},"geometry":{"x":177180.63999999966,"y":2540506.6799999978}},{"attributes":{"ID":250523,"DIS_CODE":0,"TOWNNAME":"安南區","LI":"梅花里","LIN":"14鄰","STREET":"安中路","SECT":"一段","MAREA":" ","LANE":"７０３巷","ALLEY":" ","HOUSE_NO":"３１號之３","E_COORD97":167453.39999999999,"N_COORD97":2549195.3300000001,"ADDRESS":"安中路一段７０３巷３１號之３","OBJECTID":250519},"geometry":{"x":167453.4000000013,"y":2549195.3300000001}},{"attributes":{"ID":250524,"DIS_CODE":0,"TOWNNAME":"歸仁區","LI":"許厝里","LIN":"25鄰","STREET":"中山路","SECT":"一段","MAREA":" ","LANE":"４３４巷","ALLEY":" ","HOUSE_NO":"１７號","E_COORD97":178076.5,"N_COORD97":2540791.9300000002,"ADDRESS":"中山路一段４３４巷１７號","OBJECTID":250520},"geometry":{"x":178076.50000000093,"y":2540791.9299999997}},{"attributes":{"ID":250525,"DIS_CODE":0,"TOWNNAME":"安南區","LI":"鳳凰里","LIN":"14鄰","STREET":"安中路","SECT":"一段","MAREA":" ","LANE":"７０２巷","ALLEY":" ","HOUSE_NO":"２７號之２","E_COORD97":167725.23000000001,"N_COORD97":2549371.75,"ADDRESS":"安中路一段７０２巷２７號之２","OBJECTID":250521},"geometry":{"x":167725.23000000045,"y":2549371.75}},{"attributes":{"ID":250526,"DIS_CODE":0,"TOWNNAME":"安南區","LI":"海東里","LIN":"14鄰","STREET":"海環街","SECT":" ","MAREA":" ","LANE":"６巷","ALLEY":" ","HOUSE_NO":"１號","E_COORD97":166698.92999999999,"N_COORD97":2548907.2000000002,"ADDRESS":"海環街６巷１號","OBJECTID":250522},"geometry":{"x":166698.9299999997,"y":2548907.1999999993}},{"attributes":{"ID":250527,"DIS_CODE":0,"TOWNNAME":"安南區","LI":"海東里","LIN":"14鄰","STREET":"海佃路","SECT":"二段","MAREA":" ","LANE":"４１７巷","ALLEY":" ","HOUSE_NO":"１９號","E_COORD97":166667.38,"N_COORD97":2548948.3300000001,"ADDRESS":"海佃路二段４１７巷１９號","OBJECTID":250523},"geometry":{"x":166667.37999999989,"y":2548948.3300000038}},{"attributes":{"ID":250528,"DIS_CODE":0,"TOWNNAME":"安南區","LI":"海東里","LIN":"14鄰","STREET":"海佃路","SECT":"二段","MAREA":" ","LANE":"４１７巷","ALLEY":" ","HOUSE_NO":"２１號","E_COORD97":166663.53,"N_COORD97":2548945.8599999999,"ADDRESS":"海佃路二段４１７巷２１號","OBJECTID":250524},"geometry":{"x":166663.53000000026,"y":2548945.8599999994}},{"attributes":{"ID":250529,"DIS_CODE":0,"TOWNNAME":"安南區","LI":"海東里","LIN":"14鄰","STREET":"海環街","SECT":" ","MAREA":" ","LANE":"３２巷","ALLEY":" ","HOUSE_NO":"１０號","E_COORD97":166661.54999999999,"N_COORD97":2548895.6099999999,"ADDRESS":"海環街３２巷１０號","OBJECTID":250525},"geometry":{"x":166661.54999999888,"y":2548895.6100000013}},{"attributes":{"ID":250530,"DIS_CODE":0,"TOWNNAME":"安南區","LI":"海東里","LIN":"14鄰","STREET":"海環街","SECT":" ","MAREA":" ","LANE":"３２巷","ALLEY":" ","HOUSE_NO":"１２號","E_COORD97":166659.64999999999,"N_COORD97":2548899.73,"ADDRESS":"海環街３２巷１２號","OBJECTID":250526},"geometry":{"x":166659.65000000037,"y":2548899.7300000023}},{"attributes":{"ID":250531,"DIS_CODE":0,"TOWNNAME":"安南區","LI":"海東里","LIN":"14鄰","STREET":"海環街","SECT":" ","MAREA":" ","LANE":"３２巷","ALLEY":" ","HOUSE_NO":"１４號","E_COORD97":166657.20999999999,"N_COORD97":2548902.5,"ADDRESS":"海環街３２巷１４號","OBJECTID":250527},"geometry":{"x":166657.20999999996,"y":2548902.5}},{"attributes":{"ID":250532,"DIS_CODE":0,"TOWNNAME":"安南區","LI":"海東里","LIN":"14鄰","STREET":"海環街","SECT":" ","MAREA":" ","LANE":"３２巷","ALLEY":" ","HOUSE_NO":"１６號","E_COORD97":166654.82999999999,"N_COORD97":2548905.8500000001,"ADDRESS":"海環街３２巷１６號","OBJECTID":250528},"geometry":{"x":166654.82999999914,"y":2548905.8499999996}},{"attributes":{"ID":250533,"DIS_CODE":0,"TOWNNAME":"安南區","LI":"海東里","LIN":"14鄰","STREET":"海環街","SECT":" ","MAREA":" ","LANE":"３２巷","ALLEY":" ","HOUSE_NO":"１８號","E_COORD97":166653.26000000001,"N_COORD97":2548909.5499999998,"ADDRESS":"海環街３２巷１８號","OBJECTID":250529},"geometry":{"x":166653.25999999978,"y":2548909.5500000007}},{"attributes":{"ID":250534,"DIS_CODE":0,"TOWNNAME":"安南區","LI":"海東里","LIN":"14鄰","STREET":"海環街","SECT":" ","MAREA":" ","LANE":"３２巷","ALLEY":" ","HOUSE_NO":"２２號","E_COORD97":166647.35000000001,"N_COORD97":2548915.0299999998,"ADDRESS":"海環街３２巷２２號","OBJECTID":250530},"geometry":{"x":166647.34999999963,"y":2548915.0299999993}},{"attributes":{"ID":250535,"DIS_CODE":0,"TOWNNAME":"安南區","LI":"海東里","LIN":"14鄰","STREET":"海環街","SECT":" ","MAREA":" ","LANE":"３２巷","ALLEY":" ","HOUSE_NO":"２４號","E_COORD97":166644.92000000001,"N_COORD97":2548918.1200000001,"ADDRESS":"海環街３２巷２４號","OBJECTID":250531},"geometry":{"x":166644.91999999993,"y":2548918.1200000029}},{"attributes":{"ID":250536,"DIS_CODE":0,"TOWNNAME":"安南區","LI":"海東里","LIN":"14鄰","STREET":"海環街","SECT":" ","MAREA":" ","LANE":"３２巷","ALLEY":" ","HOUSE_NO":"２６號","E_COORD97":166642.48000000001,"N_COORD97":2548921.25,"ADDRESS":"海環街３２巷２６號","OBJECTID":250532},"geometry":{"x":166642.48000000231,"y":2548921.25}},{"attributes":{"ID":250537,"DIS_CODE":0,"TOWNNAME":"安南區","LI":"海東里","LIN":"14鄰","STREET":"海環街","SECT":" ","MAREA":" ","LANE":"３２巷","ALLEY":" ","HOUSE_NO":"２８號","E_COORD97":166640.28,"N_COORD97":2548924.9199999999,"ADDRESS":"海環街３２巷２８號","OBJECTID":250533},"geometry":{"x":166640.28000000212,"y":2548924.9200000018}},{"attributes":{"ID":250538,"DIS_CODE":0,"TOWNNAME":"安南區","LI":"海東里","LIN":"14鄰","STREET":"海環街","SECT":" ","MAREA":" ","LANE":"３２巷","ALLEY":" ","HOUSE_NO":"２號","E_COORD97":166672.87,"N_COORD97":2548884.0600000001,"ADDRESS":"海環街３２巷２號","OBJECTID":250534},"geometry":{"x":166672.87000000011,"y":2548884.0600000024}},{"attributes":{"ID":250539,"DIS_CODE":0,"TOWNNAME":"安南區","LI":"海東里","LIN":"14鄰","STREET":"海環街","SECT":" ","MAREA":" ","LANE":"３２巷","ALLEY":" ","HOUSE_NO":"３０號","E_COORD97":166637.04999999999,"N_COORD97":2548927.0800000001,"ADDRESS":"海環街３２巷３０號","OBJECTID":250535},"geometry":{"x":166637.05000000075,"y":2548927.0800000019}},{"attributes":{"ID":250540,"DIS_CODE":0,"TOWNNAME":"安南區","LI":"海東里","LIN":"14鄰","STREET":"海環街","SECT":" ","MAREA":" ","LANE":"３２巷","ALLEY":" ","HOUSE_NO":"３２號","E_COORD97":166634.89000000001,"N_COORD97":2548930.79,"ADDRESS":"海環街３２巷３２號","OBJECTID":250536},"geometry":{"x":166634.88999999966,"y":2548930.7900000028}},{"attributes":{"ID":250541,"DIS_CODE":0,"TOWNNAME":"安南區","LI":"海東里","LIN":"14鄰","STREET":"海環街","SECT":" ","MAREA":" ","LANE":"３２巷","ALLEY":" ","HOUSE_NO":"４號","E_COORD97":166670.82000000001,"N_COORD97":2548887.7400000002,"ADDRESS":"海環街３２巷４號","OBJECTID":250537},"geometry":{"x":166670.82000000123,"y":2548887.7400000002}},{"attributes":{"ID":250542,"DIS_CODE":0,"TOWNNAME":"安南區","LI":"海東里","LIN":"14鄰","STREET":"海環街","SECT":" ","MAREA":" ","LANE":"３２巷","ALLEY":" ","HOUSE_NO":"８號","E_COORD97":166664.85000000001,"N_COORD97":2548893.3300000001,"ADDRESS":"海環街３２巷８號","OBJECTID":250538},"geometry":{"x":166664.85000000056,"y":2548893.3300000001}},{"attributes":{"ID":250543,"DIS_CODE":0,"TOWNNAME":"安南區","LI":"海東里","LIN":"14鄰","STREET":"海環街","SECT":" ","MAREA":" ","LANE":"６巷","ALLEY":" ","HOUSE_NO":"１１號","E_COORD97":166685.42000000001,"N_COORD97":2548928.6400000001,"ADDRESS":"海環街６巷１１號","OBJECTID":250539},"geometry":{"x":166685.42000000086,"y":2548928.6400000006}},{"attributes":{"ID":250544,"DIS_CODE":0,"TOWNNAME":"仁德區","LI":"後壁里","LIN":"12鄰","STREET":"德南路","SECT":" ","MAREA":" ","LANE":" ","ALLEY":" ","HOUSE_NO":"２５３號","E_COORD97":173820.50903700001,"N_COORD97":2538411.8061000002,"ADDRESS":"德南路２５３號","OBJECTID":250540},"geometry":{"x":173820.50903700106,"y":2538411.8060960025}},{"attributes":{"ID":250545,"DIS_CODE":0,"TOWNNAME":"安南區","LI":"海東里","LIN":"14鄰","STREET":"海環街","SECT":" ","MAREA":" ","LANE":"６巷","ALLEY":" ","HOUSE_NO":"１３號","E_COORD97":166681.32000000001,"N_COORD97":2548931.5299999998,"ADDRESS":"海環街６巷１３號","OBJECTID":250541},"geometry":{"x":166681.32000000123,"y":2548931.5299999993}},{"attributes":{"ID":250546,"DIS_CODE":0,"TOWNNAME":"安南區","LI":"海東里","LIN":"14鄰","STREET":"海環街","SECT":" ","MAREA":" ","LANE":"６巷","ALLEY":" ","HOUSE_NO":"１５號","E_COORD97":166679.42000000001,"N_COORD97":2548936.3599999999,"ADDRESS":"海環街６巷１５號","OBJECTID":250542},"geometry":{"x":166679.41999999993,"y":2548936.3599999994}},{"attributes":{"ID":250547,"DIS_CODE":0,"TOWNNAME":"安南區","LI":"海東里","LIN":"14鄰","STREET":"海環街","SECT":" ","MAREA":" ","LANE":"６巷","ALLEY":" ","HOUSE_NO":"３號","E_COORD97":166696.35000000001,"N_COORD97":2548911.54,"ADDRESS":"海環街６巷３號","OBJECTID":250543},"geometry":{"x":166696.34999999963,"y":2548911.5399999991}},{"attributes":{"ID":250548,"DIS_CODE":0,"TOWNNAME":"安南區","LI":"海東里","LIN":"14鄰","STREET":"海環街","SECT":" ","MAREA":" ","LANE":"６巷","ALLEY":" ","HOUSE_NO":"５號","E_COORD97":166693.76999999999,"N_COORD97":2548915.9300000002,"ADDRESS":"海環街６巷５號","OBJECTID":250544},"geometry":{"x":166693.77000000142,"y":2548915.9299999997}},{"attributes":{"ID":250549,"DIS_CODE":0,"TOWNNAME":"安南區","LI":"海東里","LIN":"14鄰","STREET":"海環街","SECT":" ","MAREA":" ","LANE":"６巷","ALLEY":" ","HOUSE_NO":"７號","E_COORD97":166690.64000000001,"N_COORD97":2548919.5699999998,"ADDRESS":"海環街６巷７號","OBJECTID":250545},"geometry":{"x":166690.63999999966,"y":2548919.5699999984}},{"attributes":{"ID":250550,"DIS_CODE":0,"TOWNNAME":"安南區","LI":"海東里","LIN":"14鄰","STREET":"海環街","SECT":" ","MAREA":" ","LANE":"６巷","ALLEY":" ","HOUSE_NO":"９號","E_COORD97":166687.73000000001,"N_COORD97":2548923.6899999999,"ADDRESS":"海環街６巷９號","OBJECTID":250546},"geometry":{"x":166687.73000000045,"y":2548923.6899999995}},{"attributes":{"ID":250551,"DIS_CODE":0,"TOWNNAME":"安南區","LI":"鳳凰里","LIN":"14鄰","STREET":"安中路","SECT":"一段","MAREA":" ","LANE":"７０２巷","ALLEY":" ","HOUSE_NO":"２５號","E_COORD97":167723.70000000001,"N_COORD97":2549357.3999999999,"ADDRESS":"安中路一段７０２巷２５號","OBJECTID":250547},"geometry":{"x":167723.70000000019,"y":2549357.4000000004}},{"attributes":{"ID":250552,"DIS_CODE":0,"TOWNNAME":"安南區","LI":"鳳凰里","LIN":"14鄰","STREET":"安中路","SECT":"一段","MAREA":" ","LANE":"７０２巷","ALLEY":" ","HOUSE_NO":"２６號","E_COORD97":167723.45999999999,"N_COORD97":2549363.75,"ADDRESS":"安中路一段７０２巷２６號","OBJECTID":250548},"geometry":{"x":167723.45999999996,"y":2549363.7500000019}},{"attributes":{"ID":250553,"DIS_CODE":0,"TOWNNAME":"安南區","LI":"鳳凰里","LIN":"14鄰","STREET":"安中路","SECT":"一段","MAREA":" ","LANE":"７０２巷","ALLEY":" ","HOUSE_NO":"２８號","E_COORD97":167733.23999999999,"N_COORD97":2549376.3399999999,"ADDRESS":"安中路一段７０２巷２８號","OBJECTID":250549},"geometry":{"x":167733.24000000022,"y":2549376.3400000017}},{"attributes":{"ID":250554,"DIS_CODE":0,"TOWNNAME":"安南區","LI":"鳳凰里","LIN":"14鄰","STREET":"安中路","SECT":"一段","MAREA":" ","LANE":"７０２巷","ALLEY":" ","HOUSE_NO":"２９號","E_COORD97":167739.23999999999,"N_COORD97":2549376.1000000001,"ADDRESS":"安中路一段７０２巷２９號","OBJECTID":250550},"geometry":{"x":167739.24000000115,"y":2549376.0999999996}},{"attributes":{"ID":250555,"DIS_CODE":0,"TOWNNAME":"安南區","LI":"鳳凰里","LIN":"14鄰","STREET":"安中路","SECT":"一段","MAREA":" ","LANE":"７０２巷","ALLEY":" ","HOUSE_NO":"３０號","E_COORD97":167748.67000000001,"N_COORD97":2549375.0499999998,"ADDRESS":"安中路一段７０２巷３０號","OBJECTID":250551},"geometry":{"x":167748.66999999993,"y":2549375.0500000026}},{"attributes":{"ID":250556,"DIS_CODE":0,"TOWNNAME":"安南區","LI":"鳳凰里","LIN":"14鄰","STREET":"安中路","SECT":"一段","MAREA":" ","LANE":"７０２巷","ALLEY":" ","HOUSE_NO":"３６號","E_COORD97":167780.76999999999,"N_COORD97":2549350.2200000002,"ADDRESS":"安中路一段７０２巷３６號","OBJECTID":250552},"geometry":{"x":167780.77000000048,"y":2549350.2200000025}},{"attributes":{"ID":250557,"DIS_CODE":0,"TOWNNAME":"安南區","LI":"鳳凰里","LIN":"14鄰","STREET":"安中路","SECT":"一段","MAREA":" ","LANE":"７０２巷","ALLEY":" ","HOUSE_NO":"３８號","E_COORD97":167790.31,"N_COORD97":2549362.5699999998,"ADDRESS":"安中路一段７０２巷３８號","OBJECTID":250553},"geometry":{"x":167790.31000000145,"y":2549362.5700000003}},{"attributes":{"ID":250558,"DIS_CODE":0,"TOWNNAME":"安南區","LI":"鳳凰里","LIN":"14鄰","STREET":"安中路","SECT":"一段","MAREA":" ","LANE":"７０２巷","ALLEY":" ","HOUSE_NO":"４０號","E_COORD97":167803.5,"N_COORD97":2549361.6299999999,"ADDRESS":"安中路一段７０２巷４０號","OBJECTID":250554},"geometry":{"x":167803.50000000093,"y":2549361.629999999}},{"attributes":{"ID":250559,"DIS_CODE":0,"TOWNNAME":"安南區","LI":"鳳凰里","LIN":"14鄰","STREET":"安中路","SECT":"一段","MAREA":" ","LANE":"７０２巷","ALLEY":" ","HOUSE_NO":"４１號","E_COORD97":167809.85999999999,"N_COORD97":2549361.3999999999,"ADDRESS":"安中路一段７０２巷４１號","OBJECTID":250555},"geometry":{"x":167809.86000000127,"y":2549361.4000000004}},{"attributes":{"ID":250560,"DIS_CODE":0,"TOWNNAME":"安南區","LI":"鳳凰里","LIN":"14鄰","STREET":"安中路","SECT":"一段","MAREA":" ","LANE":"７０２巷","ALLEY":" ","HOUSE_NO":"４２號","E_COORD97":167812.22,"N_COORD97":2549356.9300000002,"ADDRESS":"安中路一段７０２巷４２號","OBJECTID":250556},"geometry":{"x":167812.22000000067,"y":2549356.9299999997}},{"attributes":{"ID":250561,"DIS_CODE":0,"TOWNNAME":"安南區","LI":"鳳凰里","LIN":"14鄰","STREET":"安中路","SECT":"一段","MAREA":" ","LANE":"７０２巷","ALLEY":" ","HOUSE_NO":"４３號","E_COORD97":167811.98000000001,"N_COORD97":2549346.5800000001,"ADDRESS":"安中路一段７０２巷４３號","OBJECTID":250557},"geometry":{"x":167811.98000000045,"y":2549346.5800000038}},{"attributes":{"ID":250562,"DIS_CODE":0,"TOWNNAME":"歸仁區","LI":"許厝里","LIN":"15鄰","STREET":"中山路","SECT":"一段","MAREA":" ","LANE":"３８２巷","ALLEY":" ","HOUSE_NO":"１３號","E_COORD97":178164.39999999999,"N_COORD97":2540749.27,"ADDRESS":"中山路一段３８２巷１３號","OBJECTID":250558},"geometry":{"x":178164.40000000037,"y":2540749.2699999996}},{"attributes":{"ID":250563,"DIS_CODE":0,"TOWNNAME":"歸仁區","LI":"看東里","LIN":"5鄰","STREET":"成功五街","SECT":" ","MAREA":" ","LANE":"９５巷","ALLEY":" ","HOUSE_NO":"２８號","E_COORD97":178414.31,"N_COORD97":2539974.3599999999,"ADDRESS":"成功五街９５巷２８號","OBJECTID":250559},"geometry":{"x":178414.31000000052,"y":2539974.3600000013}},{"attributes":{"ID":250564,"DIS_CODE":0,"TOWNNAME":"歸仁區","LI":"許厝里","LIN":"5鄰","STREET":"中山路","SECT":"一段","MAREA":" ","LANE":"３１９巷","ALLEY":" ","HOUSE_NO":"２４號","E_COORD97":178429.95999999999,"N_COORD97":2540579.25,"ADDRESS":"中山路一段３１９巷２４號","OBJECTID":250560},"geometry":{"x":178429.95999999996,"y":2540579.2500000019}},{"attributes":{"ID":250565,"DIS_CODE":0,"TOWNNAME":"東區","LI":"大智里","LIN":"14鄰","STREET":"長東街","SECT":" ","MAREA":" ","LANE":"１４３巷","ALLEY":" ","HOUSE_NO":"４３號","E_COORD97":171142.69,"N_COORD97":2540115.0499999998,"ADDRESS":"長東街１４３巷４３號","OBJECTID":250561},"geometry":{"x":171142.69000000041,"y":2540115.0500000007}},{"attributes":{"ID":250566,"DIS_CODE":0,"TOWNNAME":"東區","LI":"東聖里","LIN":"14鄰","STREET":"中華東路","SECT":"二段","MAREA":" ","LANE":"４１巷","ALLEY":" ","HOUSE_NO":"５８號","E_COORD97":171588.26999999999,"N_COORD97":2543080.6699999999,"ADDRESS":"中華東路二段４１巷５８號","OBJECTID":250562},"geometry":{"x":171588.27000000048,"y":2543080.6700000037}},{"attributes":{"ID":250567,"DIS_CODE":0,"TOWNNAME":"東區","LI":"東聖里","LIN":"14鄰","STREET":"中華東路","SECT":"二段","MAREA":" ","LANE":"４１巷","ALLEY":" ","HOUSE_NO":"５４號","E_COORD97":171567.23999999999,"N_COORD97":2543082.0699999998,"ADDRESS":"中華東路二段４１巷５４號","OBJECTID":250563},"geometry":{"x":171567.24000000115,"y":2543082.0700000022}},{"attributes":{"ID":250568,"DIS_CODE":0,"TOWNNAME":"東區","LI":"大智里","LIN":"14鄰","STREET":"長東街","SECT":" ","MAREA":" ","LANE":"１４３巷","ALLEY":" ","HOUSE_NO":"４７號","E_COORD97":171150.97,"N_COORD97":2540114.9500000002,"ADDRESS":"長東街１４３巷４７號","OBJECTID":250564},"geometry":{"x":171150.9700000016,"y":2540114.950000003}},{"attributes":{"ID":250569,"DIS_CODE":0,"TOWNNAME":"東區","LI":"大智里","LIN":"14鄰","STREET":"長東街","SECT":" ","MAREA":" ","LANE":"１４３巷","ALLEY":" ","HOUSE_NO":"５０號","E_COORD97":171150.17000000001,"N_COORD97":2540090.6699999999,"ADDRESS":"長東街１４３巷５０號","OBJECTID":250565},"geometry":{"x":171150.17000000086,"y":2540090.6700000018}},{"attributes":{"ID":250570,"DIS_CODE":0,"TOWNNAME":"東區","LI":"崇善里","LIN":"14鄰","STREET":"崇善十街","SECT":" ","MAREA":" ","LANE":"２８巷","ALLEY":" ","HOUSE_NO":"２５號","E_COORD97":171218.89000000001,"N_COORD97":2541236.6099999999,"ADDRESS":"崇善十街２８巷２５號","OBJECTID":250566},"geometry":{"x":171218.88999999966,"y":2541236.6100000013}},{"attributes":{"ID":250571,"DIS_CODE":0,"TOWNNAME":"東區","LI":"崇善里","LIN":"14鄰","STREET":"崇善十街","SECT":" ","MAREA":" ","LANE":"３６巷","ALLEY":" ","HOUSE_NO":"７號","E_COORD97":171225.88,"N_COORD97":2541298.98,"ADDRESS":"崇善十街３６巷７號","OBJECTID":250567},"geometry":{"x":171225.87999999989,"y":2541298.9800000042}},{"attributes":{"ID":250572,"DIS_CODE":0,"TOWNNAME":"東區","LI":"崇善里","LIN":"14鄰","STREET":"崇善十街","SECT":" ","MAREA":" ","LANE":"３６巷","ALLEY":" ","HOUSE_NO":"８號","E_COORD97":171213.14000000001,"N_COORD97":2541292.27,"ADDRESS":"崇善十街３６巷８號","OBJECTID":250568},"geometry":{"x":171213.1400000006,"y":2541292.2699999996}},{"attributes":{"ID":250573,"DIS_CODE":0,"TOWNNAME":"東區","LI":"崇善里","LIN":"14鄰","STREET":"崇善十街","SECT":" ","MAREA":" ","LANE":"３６巷","ALLEY":" ","HOUSE_NO":"９號","E_COORD97":171230.66,"N_COORD97":2541289.8100000001,"ADDRESS":"崇善十街３６巷９號","OBJECTID":250569},"geometry":{"x":171230.66000000108,"y":2541289.8099999987}},{"attributes":{"ID":250574,"DIS_CODE":0,"TOWNNAME":"東區","LI":"崇善里","LIN":"14鄰","STREET":"崇善十街","SECT":" ","MAREA":" ","LANE":"３６巷","ALLEY":" ","HOUSE_NO":"１３號","E_COORD97":171236.64000000001,"N_COORD97":2541275.8799999999,"ADDRESS":"崇善十街３６巷１３號","OBJECTID":250570},"geometry":{"x":171236.6400000006,"y":2541275.8800000008}},{"attributes":{"ID":250575,"DIS_CODE":0,"TOWNNAME":"東區","LI":"崇善里","LIN":"14鄰","STREET":"崇善十街","SECT":" ","MAREA":" ","LANE":"３６巷","ALLEY":" ","HOUSE_NO":"１４號","E_COORD97":171221.95999999999,"N_COORD97":2541267.5,"ADDRESS":"崇善十街３６巷１４號","OBJECTID":250571},"geometry":{"x":171221.95999999996,"y":2541267.5}},{"attributes":{"ID":250576,"DIS_CODE":0,"TOWNNAME":"安平區","LI":"國平里","LIN":"14鄰","STREET":"健康路","SECT":"三段","MAREA":" ","LANE":" ","ALLEY":" ","HOUSE_NO":"１８０號之５０","E_COORD97":165490.04999999999,"N_COORD97":2542727.1400000001,"ADDRESS":"健康路三段１８０號之５０","OBJECTID":250572},"geometry":{"x":165490.04999999981,"y":2542727.1400000006}},{"attributes":{"ID":250577,"DIS_CODE":0,"TOWNNAME":"東區","LI":"崇善里","LIN":"14鄰","STREET":"崇善十街","SECT":" ","MAREA":" ","LANE":"３６巷","ALLEY":" ","HOUSE_NO":"１５號","E_COORD97":171241.29000000001,"N_COORD97":2541268.5800000001,"ADDRESS":"崇善十街３６巷１５號","OBJECTID":250573},"geometry":{"x":171241.29000000097,"y":2541268.5800000019}},{"attributes":{"ID":250578,"DIS_CODE":0,"TOWNNAME":"東區","LI":"崇善里","LIN":"14鄰","STREET":"崇善十街","SECT":" ","MAREA":" ","LANE":"３６巷","ALLEY":" ","HOUSE_NO":"１６號","E_COORD97":171223.64999999999,"N_COORD97":2541261.8199999998,"ADDRESS":"崇善十街３６巷１６號","OBJECTID":250574},"geometry":{"x":171223.6500000013,"y":2541261.8200000003}},{"attributes":{"ID":250579,"DIS_CODE":0,"TOWNNAME":"東區","LI":"崇善里","LIN":"14鄰","STREET":"崇善十街","SECT":" ","MAREA":" ","LANE":"３６巷","ALLEY":" ","HOUSE_NO":"１７號","E_COORD97":171244.28,"N_COORD97":2541259.6200000001,"ADDRESS":"崇善十街３６巷１７號","OBJECTID":250575},"geometry":{"x":171244.27999999933,"y":2541259.6200000029}},{"attributes":{"ID":250580,"DIS_CODE":0,"TOWNNAME":"東區","LI":"崇善里","LIN":"14鄰","STREET":"崇善十街","SECT":" ","MAREA":" ","LANE":"３６巷","ALLEY":" ","HOUSE_NO":"１９號","E_COORD97":171246.60000000001,"N_COORD97":2541252.3300000001,"ADDRESS":"崇善十街３６巷１９號","OBJECTID":250576},"geometry":{"x":171246.60000000149,"y":2541252.3300000038}},{"attributes":{"ID":250581,"DIS_CODE":0,"TOWNNAME":"東區","LI":"崇善里","LIN":"14鄰","STREET":"崇善路","SECT":" ","MAREA":" ","LANE":"６６７巷","ALLEY":" ","HOUSE_NO":"１９號","E_COORD97":171160.32999999999,"N_COORD97":2541249.2200000002,"ADDRESS":"崇善路６６７巷１９號","OBJECTID":250577},"geometry":{"x":171160.33000000007,"y":2541249.2200000007}},{"attributes":{"ID":250582,"DIS_CODE":0,"TOWNNAME":"東區","LI":"崇善里","LIN":"14鄰","STREET":"崇善路","SECT":" ","MAREA":" ","LANE":"６６７巷","ALLEY":" ","HOUSE_NO":"２４號","E_COORD97":171161.23999999999,"N_COORD97":2541228.1899999999,"ADDRESS":"崇善路６６７巷２４號","OBJECTID":250578},"geometry":{"x":171161.24000000022,"y":2541228.1899999995}},{"attributes":{"ID":250583,"DIS_CODE":0,"TOWNNAME":"東區","LI":"崇善里","LIN":"14鄰","STREET":"崇善路","SECT":" ","MAREA":" ","LANE":"６６７巷","ALLEY":" ","HOUSE_NO":"３６號","E_COORD97":171185.45000000001,"N_COORD97":2541234.4100000001,"ADDRESS":"崇善路６６７巷３６號","OBJECTID":250579},"geometry":{"x":171185.45000000205,"y":2541234.4100000001}},{"attributes":{"ID":250584,"DIS_CODE":0,"TOWNNAME":"東區","LI":"崇善里","LIN":"14鄰","STREET":"崇善十街","SECT":" ","MAREA":" ","LANE":"２８巷","ALLEY":" ","HOUSE_NO":"１７號","E_COORD97":171206.51000000001,"N_COORD97":2541254.6899999999,"ADDRESS":"崇善十街２８巷１７號","OBJECTID":250580},"geometry":{"x":171206.50999999978,"y":2541254.6899999995}},{"attributes":{"ID":250585,"DIS_CODE":0,"TOWNNAME":"仁德區","LI":"後壁里","LIN":"14鄰","STREET":"德善路","SECT":" ","MAREA":" ","LANE":"１９８巷","ALLEY":" ","HOUSE_NO":"１２之１３號","E_COORD97":173679.19,"N_COORD97":2538664.9399999999,"ADDRESS":"德善路１９８巷１２之１３號","OBJECTID":250581},"geometry":{"x":173679.19000000041,"y":2538664.9400000013}},{"attributes":{"ID":250586,"DIS_CODE":0,"TOWNNAME":"仁德區","LI":"成功里","LIN":"14鄰","STREET":"全福路","SECT":" ","MAREA":" ","LANE":"８０巷","ALLEY":" ","HOUSE_NO":"６號","E_COORD97":171015.38,"N_COORD97":2539287,"ADDRESS":"全福路８０巷６號","OBJECTID":250582},"geometry":{"x":171015.37999999989,"y":2539287}},{"attributes":{"ID":250587,"DIS_CODE":0,"TOWNNAME":"歸仁區","LI":"崙頂里","LIN":"7鄰","STREET":"崙頂一街","SECT":" ","MAREA":" ","LANE":"３２巷","ALLEY":" ","HOUSE_NO":"９號","E_COORD97":177952.01000000001,"N_COORD97":2539952.1099999999,"ADDRESS":"崙頂一街３２巷９號","OBJECTID":250583},"geometry":{"x":177952.01000000071,"y":2539952.1100000013}},{"attributes":{"ID":250588,"DIS_CODE":0,"TOWNNAME":"仁德區","LI":"太子里","LIN":"14鄰","STREET":"長興路","SECT":" ","MAREA":" ","LANE":"８７巷","ALLEY":" ","HOUSE_NO":"２６號","E_COORD97":174037.85000000001,"N_COORD97":2543808.75,"ADDRESS":"長興路８７巷２６號","OBJECTID":250584},"geometry":{"x":174037.84999999963,"y":2543808.7499999981}},{"attributes":{"ID":250589,"DIS_CODE":0,"TOWNNAME":"仁德區","LI":"太子里","LIN":"14鄰","STREET":"長興路","SECT":" ","MAREA":" ","LANE":"８７巷","ALLEY":" ","HOUSE_NO":"２５之２號","E_COORD97":174004.64999999999,"N_COORD97":2543740.7999999998,"ADDRESS":"長興路８７巷２５之２號","OBJECTID":250585},"geometry":{"x":174004.65000000037,"y":2543740.8000000007}},{"attributes":{"ID":250590,"DIS_CODE":0,"TOWNNAME":"仁德區","LI":"太子里","LIN":"14鄰","STREET":"長興路","SECT":" ","MAREA":" ","LANE":"８７巷","ALLEY":" ","HOUSE_NO":"２８號","E_COORD97":174034.04000000001,"N_COORD97":2543807.75,"ADDRESS":"長興路８７巷２８號","OBJECTID":250586},"geometry":{"x":174034.04000000004,"y":2543807.75}},{"attributes":{"ID":250591,"DIS_CODE":0,"TOWNNAME":"仁德區","LI":"後壁里","LIN":"14鄰","STREET":"德善路","SECT":" ","MAREA":" ","LANE":"１９８巷","ALLEY":" ","HOUSE_NO":"２之９號","E_COORD97":173677.35000000001,"N_COORD97":2538725.25,"ADDRESS":"德善路１９８巷２之９號","OBJECTID":250587},"geometry":{"x":173677.34999999963,"y":2538725.25}},{"attributes":{"ID":250592,"DIS_CODE":0,"TOWNNAME":"仁德區","LI":"太子里","LIN":"14鄰","STREET":"長興路","SECT":" ","MAREA":" ","LANE":"８７巷","ALLEY":" ","HOUSE_NO":"２５號","E_COORD97":174007.45999999999,"N_COORD97":2543757.2599999998,"ADDRESS":"長興路８７巷２５號","OBJECTID":250588},"geometry":{"x":174007.45999999996,"y":2543757.2599999998}},{"attributes":{"ID":250593,"DIS_CODE":0,"TOWNNAME":"仁德區","LI":"後壁里","LIN":"14鄰","STREET":"德善路","SECT":" ","MAREA":" ","LANE":"１９８巷","ALLEY":" ","HOUSE_NO":"２之５號","E_COORD97":173702.51999999999,"N_COORD97":2538731.29,"ADDRESS":"德善路１９８巷２之５號","OBJECTID":250589},"geometry":{"x":173702.52000000048,"y":2538731.2899999991}},{"attributes":{"ID":250594,"DIS_CODE":0,"TOWNNAME":"仁德區","LI":"太子里","LIN":"14鄰","STREET":"長興路","SECT":" ","MAREA":" ","LANE":"８７巷","ALLEY":" ","HOUSE_NO":"２７之１號","E_COORD97":173998.47,"N_COORD97":2543769.04,"ADDRESS":"長興路８７巷２７之１號","OBJECTID":250590},"geometry":{"x":173998.46999999974,"y":2543769.040000001}},{"attributes":{"ID":250595,"DIS_CODE":0,"TOWNNAME":"仁德區","LI":"後壁里","LIN":"14鄰","STREET":"德善路","SECT":" ","MAREA":" ","LANE":"１９８巷","ALLEY":" ","HOUSE_NO":"２之１６號","E_COORD97":173704.48999999999,"N_COORD97":2538711,"ADDRESS":"德善路１９８巷２之１６號","OBJECTID":250591},"geometry":{"x":173704.49000000115,"y":2538711}},{"attributes":{"ID":250596,"DIS_CODE":0,"TOWNNAME":"仁德區","LI":"後壁里","LIN":"14鄰","STREET":"德善路","SECT":" ","MAREA":" ","LANE":"１９８巷","ALLEY":" ","HOUSE_NO":"２之１３號","E_COORD97":173696.17999999999,"N_COORD97":2538715.75,"ADDRESS":"德善路１９８巷２之１３號","OBJECTID":250592},"geometry":{"x":173696.18000000063,"y":2538715.75}},{"attributes":{"ID":250597,"DIS_CODE":0,"TOWNNAME":"仁德區","LI":"後壁里","LIN":"14鄰","STREET":"德善路","SECT":" ","MAREA":" ","LANE":"１９８巷","ALLEY":" ","HOUSE_NO":"２之６號","E_COORD97":173698.03,"N_COORD97":2538733.79,"ADDRESS":"德善路１９８巷２之６號","OBJECTID":250593},"geometry":{"x":173698.03000000119,"y":2538733.790000001}},{"attributes":{"ID":250598,"DIS_CODE":0,"TOWNNAME":"仁德區","LI":"後壁里","LIN":"14鄰","STREET":"德善路","SECT":" ","MAREA":" ","LANE":"１６０巷","ALLEY":" ","HOUSE_NO":"１號","E_COORD97":173596.92999999999,"N_COORD97":2538776.77,"ADDRESS":"德善路１６０巷１號","OBJECTID":250594},"geometry":{"x":173596.9299999997,"y":2538776.7699999977}},{"attributes":{"ID":250599,"DIS_CODE":0,"TOWNNAME":"仁德區","LI":"太子里","LIN":"14鄰","STREET":"長興路","SECT":" ","MAREA":" ","LANE":"８７巷","ALLEY":" ","HOUSE_NO":"２５之１號","E_COORD97":174006.17999999999,"N_COORD97":2543747.5499999998,"ADDRESS":"長興路８７巷２５之１號","OBJECTID":250595},"geometry":{"x":174006.18000000063,"y":2543747.5500000026}},{"attributes":{"ID":250600,"DIS_CODE":0,"TOWNNAME":"歸仁區","LI":"後市里","LIN":"3鄰","STREET":"民族南街","SECT":" ","MAREA":" ","LANE":"１８巷","ALLEY":" ","HOUSE_NO":"６７號","E_COORD97":177262.64000000001,"N_COORD97":2540749.5499999998,"ADDRESS":"民族南街１８巷６７號","OBJECTID":250596},"geometry":{"x":177262.64000000153,"y":2540749.5500000045}},{"attributes":{"ID":250601,"DIS_CODE":0,"TOWNNAME":"東區","LI":"德高里","LIN":"14鄰","STREET":"仁和路","SECT":" ","MAREA":" ","LANE":"１９９巷","ALLEY":" ","HOUSE_NO":"６號","E_COORD97":171685.92000000001,"N_COORD97":2540844.6499999999,"ADDRESS":"仁和路１９９巷６號","OBJECTID":250597},"geometry":{"x":171685.92000000086,"y":2540844.6500000022}},{"attributes":{"ID":250602,"DIS_CODE":0,"TOWNNAME":"歸仁區","LI":"南保里","LIN":"26鄰","STREET":"民權六街","SECT":" ","MAREA":" ","LANE":"１８１巷","ALLEY":" ","HOUSE_NO":"５號","E_COORD97":176622.95999999999,"N_COORD97":2541083.25,"ADDRESS":"民權六街１８１巷５號","OBJECTID":250598},"geometry":{"x":176622.95999999996,"y":2541083.2500000037}},{"attributes":{"ID":250603,"DIS_CODE":0,"TOWNNAME":"仁德區","LI":"後壁里","LIN":"14鄰","STREET":"德善路","SECT":" ","MAREA":" ","LANE":"１０８巷","ALLEY":" ","HOUSE_NO":"４５號","E_COORD97":173575.67999999999,"N_COORD97":2538708.5099999998,"ADDRESS":"德善路１０８巷４５號","OBJECTID":250599},"geometry":{"x":173575.68000000063,"y":2538708.5100000016}},{"attributes":{"ID":250604,"DIS_CODE":0,"TOWNNAME":"仁德區","LI":"後壁里","LIN":"14鄰","STREET":"德善路","SECT":" ","MAREA":" ","LANE":"１９８巷","ALLEY":" ","HOUSE_NO":"１２之２號","E_COORD97":173675.76999999999,"N_COORD97":2538678.4399999999,"ADDRESS":"德善路１９８巷１２之２號","OBJECTID":250600},"geometry":{"x":173675.76999999955,"y":2538678.4400000013}}]}