{"displayFieldName":"TOWNNAME","fieldAliases":{"ID":"ID","DIS_CODE":"DIS_CODE","TOWNNAME":"TOWNNAME","LI":"LI","LIN":"LIN","STREET":"STREET","SECT":"SECT","MAREA":"MAREA","LANE":"LANE","ALLEY":"ALLEY","HOUSE_NO":"HOUSE_NO","E_COORD97":"E_COORD97","N_COORD97":"N_COORD97","ADDRESS":"ADDRESS","OBJECTID":"OBJECTID"},"geometryType":"esriGeometryPoint","spatialReference":{"wkid":102443,"latestWkid":3826},"fields":[{"name":"ID","type":"esriFieldTypeDouble","alias":"ID"},{"name":"DIS_CODE","type":"esriFieldTypeInteger","alias":"DIS_CODE"},{"name":"TOWNNAME","type":"esriFieldTypeString","alias":"TOWNNAME","length":8},{"name":"LI","type":"esriFieldTypeString","alias":"LI","length":8},{"name":"LIN","type":"esriFieldTypeString","alias":"LIN","length":12},{"name":"STREET","type":"esriFieldTypeString","alias":"STREET","length":20},{"name":"SECT","type":"esriFieldTypeString","alias":"SECT","length":8},{"name":"MAREA","type":"esriFieldTypeString","alias":"MAREA","length":12},{"name":"LANE","type":"esriFieldTypeString","alias":"LANE","length":10},{"name":"ALLEY","type":"esriFieldTypeString","alias":"ALLEY","length":10},{"name":"HOUSE_NO","type":"esriFieldTypeString","alias":"HOUSE_NO","length":20},{"name":"E_COORD97","type":"esriFieldTypeDouble","alias":"E_COORD97"},{"name":"N_COORD97","type":"esriFieldTypeDouble","alias":"N_COORD97"},{"name":"ADDRESS","type":"esriFieldTypeString","alias":"ADDRESS","length":50},{"name":"OBJECTID","type":"esriFieldTypeOID","alias":"OBJECTID"}],"features":[{"attributes":{"ID":134801,"DIS_CODE":0,"TOWNNAME":"新化區","LI":"\u25A0拔里","LIN":"4鄰","STREET":" ","SECT":" ","MAREA":"\u25A0拔林","LANE":" ","ALLEY":" ","HOUSE_NO":"２２６號","E_COORD97":183728.32000000001,"N_COORD97":2551936.25,"ADDRESS":"\u25A0拔林２２６號","OBJECTID":134801},"geometry":{"x":183728.32000000123,"y":2551936.2500000019}},{"attributes":{"ID":134802,"DIS_CODE":0,"TOWNNAME":"新化區","LI":"知義里","LIN":"4鄰","STREET":" ","SECT":" ","MAREA":"知母義","LANE":" ","ALLEY":" ","HOUSE_NO":"１０２號之８","E_COORD97":179745.38,"N_COORD97":2547329.2599999998,"ADDRESS":"知母義１０２號之８","OBJECTID":134802},"geometry":{"x":179745.38000000082,"y":2547329.2600000016}},{"attributes":{"ID":134803,"DIS_CODE":0,"TOWNNAME":"新化區","LI":"知義里","LIN":" ","STREET":" ","SECT":" ","MAREA":"新和庄","LANE":" ","ALLEY":" ","HOUSE_NO":"１７４號","E_COORD97":182009.69,"N_COORD97":2546759.25,"ADDRESS":"新和庄１７４號","OBJECTID":134803},"geometry":{"x":182009.69000000227,"y":2546759.2500000019}},{"attributes":{"ID":134804,"DIS_CODE":0,"TOWNNAME":"新化區","LI":"知義里","LIN":" ","STREET":" ","SECT":" ","MAREA":"新和庄","LANE":" ","ALLEY":" ","HOUSE_NO":"２２３號","E_COORD97":181483.29000000001,"N_COORD97":2546940.25,"ADDRESS":"新和庄２２３號","OBJECTID":134804},"geometry":{"x":181483.29000000097,"y":2546940.25}},{"attributes":{"ID":134805,"DIS_CODE":0,"TOWNNAME":"新化區","LI":"羊林里","LIN":"4鄰","STREET":" ","SECT":" ","MAREA":"\u25A0拔林","LANE":" ","ALLEY":" ","HOUSE_NO":"５０９號","E_COORD97":183645.22,"N_COORD97":2551598.25,"ADDRESS":"\u25A0拔林５０９號","OBJECTID":134805},"geometry":{"x":183645.22000000067,"y":2551598.2500000019}},{"attributes":{"ID":134806,"DIS_CODE":0,"TOWNNAME":"新化區","LI":"\u25A0拔里","LIN":"4鄰","STREET":" ","SECT":" ","MAREA":"\u25A0拔林","LANE":" ","ALLEY":" ","HOUSE_NO":"２２１號之７","E_COORD97":183688.76999999999,"N_COORD97":2551998.2599999998,"ADDRESS":"\u25A0拔林２２１號之７","OBJECTID":134806},"geometry":{"x":183688.77000000048,"y":2551998.2599999998}},{"attributes":{"ID":134807,"DIS_CODE":0,"TOWNNAME":"新營區","LI":"土庫里","LIN":"6鄰","STREET":" ","SECT":" ","MAREA":"土庫","LANE":" ","ALLEY":" ","HOUSE_NO":"５８號","E_COORD97":183271.35999999999,"N_COORD97":2579801.2799999998,"ADDRESS":"土庫５８號","OBJECTID":134807},"geometry":{"x":183271.3600000022,"y":2579801.2800000012}},{"attributes":{"ID":134808,"DIS_CODE":0,"TOWNNAME":"東區","LI":"崇信里","LIN":"27鄰","STREET":"崇學路","SECT":" ","MAREA":" ","LANE":"１４２巷","ALLEY":"１０弄","HOUSE_NO":"２８號二樓","E_COORD97":170476.26999999999,"N_COORD97":2542296.6200000001,"ADDRESS":"崇學路１４２巷１０弄２８號二樓","OBJECTID":134808},"geometry":{"x":170476.27000000048,"y":2542296.6200000029}},{"attributes":{"ID":134809,"DIS_CODE":0,"TOWNNAME":"柳營區","LI":"太康里","LIN":"6鄰","STREET":" ","SECT":" ","MAREA":"太康","LANE":" ","ALLEY":" ","HOUSE_NO":"４７號","E_COORD97":181432.82000000001,"N_COORD97":2576320.5600000001,"ADDRESS":"太康４７號","OBJECTID":134809},"geometry":{"x":181432.82000000123,"y":2576320.5600000005}},{"attributes":{"ID":134810,"DIS_CODE":0,"TOWNNAME":"柳營區","LI":"太康里","LIN":"6鄰","STREET":" ","SECT":" ","MAREA":"太康","LANE":" ","ALLEY":" ","HOUSE_NO":"４８號","E_COORD97":181447.87,"N_COORD97":2576295.4900000002,"ADDRESS":"太康４８號","OBJECTID":134810},"geometry":{"x":181447.87000000011,"y":2576295.4900000021}},{"attributes":{"ID":134811,"DIS_CODE":0,"TOWNNAME":"東區","LI":"崇信里","LIN":"27鄰","STREET":"崇學路","SECT":" ","MAREA":" ","LANE":"１４２巷","ALLEY":"１０弄","HOUSE_NO":"２８號三樓","E_COORD97":170476.26999999999,"N_COORD97":2542296.6200000001,"ADDRESS":"崇學路１４２巷１０弄２８號三樓","OBJECTID":134811},"geometry":{"x":170476.27000000048,"y":2542296.6200000029}},{"attributes":{"ID":134812,"DIS_CODE":0,"TOWNNAME":"東區","LI":"崇信里","LIN":"27鄰","STREET":"崇學路","SECT":" ","MAREA":" ","LANE":"１４２巷","ALLEY":"１０弄","HOUSE_NO":"２８號五樓","E_COORD97":170476.26999999999,"N_COORD97":2542296.6200000001,"ADDRESS":"崇學路１４２巷１０弄２８號五樓","OBJECTID":134812},"geometry":{"x":170476.27000000048,"y":2542296.6200000029}},{"attributes":{"ID":134813,"DIS_CODE":0,"TOWNNAME":"柳營區","LI":"太康里","LIN":"6鄰","STREET":" ","SECT":" ","MAREA":"太康","LANE":" ","ALLEY":" ","HOUSE_NO":"５０號","E_COORD97":181451.59,"N_COORD97":2576308,"ADDRESS":"太康５０號","OBJECTID":134813},"geometry":{"x":181451.58999999985,"y":2576308.0000000019}},{"attributes":{"ID":134814,"DIS_CODE":0,"TOWNNAME":"柳營區","LI":"太康里","LIN":"6鄰","STREET":" ","SECT":" ","MAREA":"太康","LANE":" ","ALLEY":" ","HOUSE_NO":"５１號之１","E_COORD97":181460.64000000001,"N_COORD97":2576271.8100000001,"ADDRESS":"太康５１號之１","OBJECTID":134814},"geometry":{"x":181460.6400000006,"y":2576271.8099999987}},{"attributes":{"ID":134815,"DIS_CODE":0,"TOWNNAME":"柳營區","LI":"太康里","LIN":"6鄰","STREET":" ","SECT":" ","MAREA":"太康","LANE":" ","ALLEY":" ","HOUSE_NO":"５１號之２","E_COORD97":181440.94,"N_COORD97":2576322.6600000001,"ADDRESS":"太康５１號之２","OBJECTID":134815},"geometry":{"x":181440.94000000041,"y":2576322.6600000001}},{"attributes":{"ID":134816,"DIS_CODE":0,"TOWNNAME":"柳營區","LI":"太康里","LIN":"6鄰","STREET":" ","SECT":" ","MAREA":"太康","LANE":" ","ALLEY":" ","HOUSE_NO":"５１號之３","E_COORD97":181460.76000000001,"N_COORD97":2576256.9900000002,"ADDRESS":"太康５１號之３","OBJECTID":134816},"geometry":{"x":181460.75999999978,"y":2576256.9900000039}},{"attributes":{"ID":134817,"DIS_CODE":0,"TOWNNAME":"東區","LI":"崇信里","LIN":"27鄰","STREET":"崇學路","SECT":" ","MAREA":" ","LANE":"１４２巷","ALLEY":"１０弄","HOUSE_NO":"２８號六樓","E_COORD97":170476.26999999999,"N_COORD97":2542296.6200000001,"ADDRESS":"崇學路１４２巷１０弄２８號六樓","OBJECTID":134817},"geometry":{"x":170476.27000000048,"y":2542296.6200000029}},{"attributes":{"ID":134818,"DIS_CODE":0,"TOWNNAME":"柳營區","LI":"太康里","LIN":"6鄰","STREET":" ","SECT":" ","MAREA":"太康","LANE":" ","ALLEY":" ","HOUSE_NO":"５１號","E_COORD97":181448.39999999999,"N_COORD97":2576341.1400000001,"ADDRESS":"太康５１號","OBJECTID":134818},"geometry":{"x":181448.40000000037,"y":2576341.1400000043}},{"attributes":{"ID":134819,"DIS_CODE":0,"TOWNNAME":"柳營區","LI":"太康里","LIN":"6鄰","STREET":" ","SECT":" ","MAREA":"太康","LANE":" ","ALLEY":" ","HOUSE_NO":"５２號之１","E_COORD97":181471.45999999999,"N_COORD97":2576300.29,"ADDRESS":"太康５２號之１","OBJECTID":134819},"geometry":{"x":181471.45999999996,"y":2576300.2899999991}},{"attributes":{"ID":134820,"DIS_CODE":0,"TOWNNAME":"柳營區","LI":"太康里","LIN":"6鄰","STREET":" ","SECT":" ","MAREA":"太康","LANE":" ","ALLEY":" ","HOUSE_NO":"５２號之２","E_COORD97":181477.41,"N_COORD97":2576304.1400000001,"ADDRESS":"太康５２號之２","OBJECTID":134820},"geometry":{"x":181477.41000000108,"y":2576304.1400000025}},{"attributes":{"ID":134821,"DIS_CODE":0,"TOWNNAME":"新化區","LI":"知義里","LIN":" ","STREET":" ","SECT":" ","MAREA":"新和庄","LANE":" ","ALLEY":" ","HOUSE_NO":"２４９號","E_COORD97":181237.29000000001,"N_COORD97":2547035.25,"ADDRESS":"新和庄２４９號","OBJECTID":134821},"geometry":{"x":181237.2900000019,"y":2547035.25}},{"attributes":{"ID":134822,"DIS_CODE":0,"TOWNNAME":"新化區","LI":"知義里","LIN":" ","STREET":" ","SECT":" ","MAREA":"新和庄","LANE":" ","ALLEY":" ","HOUSE_NO":"８號之７","E_COORD97":181206.03,"N_COORD97":2547045.2599999998,"ADDRESS":"新和庄８號之７","OBJECTID":134822},"geometry":{"x":181206.03000000119,"y":2547045.2599999998}},{"attributes":{"ID":134823,"DIS_CODE":0,"TOWNNAME":"新化區","LI":"知義里","LIN":"13鄰","STREET":" ","SECT":" ","MAREA":"口埤","LANE":" ","ALLEY":" ","HOUSE_NO":"４７號","E_COORD97":183494.79999999999,"N_COORD97":2547080.25,"ADDRESS":"口埤４７號","OBJECTID":134823},"geometry":{"x":183494.79999999888,"y":2547080.25}},{"attributes":{"ID":134824,"DIS_CODE":0,"TOWNNAME":"新化區","LI":"知義里","LIN":"13鄰","STREET":" ","SECT":" ","MAREA":"口埤","LANE":" ","ALLEY":" ","HOUSE_NO":"７８號","E_COORD97":183608.29999999999,"N_COORD97":2547113.25,"ADDRESS":"口埤７８號","OBJECTID":134824},"geometry":{"x":183608.29999999981,"y":2547113.25}},{"attributes":{"ID":134825,"DIS_CODE":0,"TOWNNAME":"新化區","LI":"\u25A0拔里","LIN":"4鄰","STREET":" ","SECT":" ","MAREA":"\u25A0拔林","LANE":" ","ALLEY":" ","HOUSE_NO":"２２４號之１０","E_COORD97":183648.81,"N_COORD97":2551938.2599999998,"ADDRESS":"\u25A0拔林２２４號之１０","OBJECTID":134825},"geometry":{"x":183648.81000000145,"y":2551938.2599999998}},{"attributes":{"ID":134826,"DIS_CODE":0,"TOWNNAME":"新化區","LI":"礁坑里","LIN":" ","STREET":" ","SECT":" ","MAREA":"三十六崙","LANE":" ","ALLEY":" ","HOUSE_NO":"５２之１號","E_COORD97":185211.92000000001,"N_COORD97":2549275.25,"ADDRESS":"三十六崙５２之１號","OBJECTID":134826},"geometry":{"x":185211.92000000086,"y":2549275.2500000019}},{"attributes":{"ID":134827,"DIS_CODE":0,"TOWNNAME":"新化區","LI":"知義里","LIN":"4鄰","STREET":" ","SECT":" ","MAREA":"知母義","LANE":" ","ALLEY":" ","HOUSE_NO":"１０５號之３","E_COORD97":179912.87,"N_COORD97":2547372.2599999998,"ADDRESS":"知母義１０５號之３","OBJECTID":134827},"geometry":{"x":179912.87000000197,"y":2547372.2600000016}},{"attributes":{"ID":134828,"DIS_CODE":0,"TOWNNAME":"新化區","LI":"知義里","LIN":"9鄰","STREET":" ","SECT":" ","MAREA":"新和庄","LANE":" ","ALLEY":" ","HOUSE_NO":"９８號","E_COORD97":182251.18017199999,"N_COORD97":2546315.2631700002,"ADDRESS":"新和庄９８號","OBJECTID":134828},"geometry":{"x":182251.18017200101,"y":2546315.2631690018}},{"attributes":{"ID":134829,"DIS_CODE":0,"TOWNNAME":"新化區","LI":"知義里","LIN":" ","STREET":" ","SECT":" ","MAREA":"新和庄","LANE":" ","ALLEY":" ","HOUSE_NO":"１０４號","E_COORD97":182401.89000000001,"N_COORD97":2546105.25,"ADDRESS":"新和庄１０４號","OBJECTID":134829},"geometry":{"x":182401.88999999966,"y":2546105.2500000019}},{"attributes":{"ID":134830,"DIS_CODE":0,"TOWNNAME":"東區","LI":"崇信里","LIN":"27鄰","STREET":"崇學路","SECT":" ","MAREA":" ","LANE":"１４２巷","ALLEY":"１０弄","HOUSE_NO":"２８號四樓","E_COORD97":170476.26999999999,"N_COORD97":2542296.6200000001,"ADDRESS":"崇學路１４２巷１０弄２８號四樓","OBJECTID":134830},"geometry":{"x":170476.27000000048,"y":2542296.6200000029}},{"attributes":{"ID":134831,"DIS_CODE":0,"TOWNNAME":"東區","LI":"崇信里","LIN":"27鄰","STREET":"崇學路","SECT":" ","MAREA":" ","LANE":"１４２巷","ALLEY":"１０弄","HOUSE_NO":"３０號二樓","E_COORD97":170481.67999999999,"N_COORD97":2542302.1899999999,"ADDRESS":"崇學路１４２巷１０弄３０號二樓","OBJECTID":134831},"geometry":{"x":170481.68000000156,"y":2542302.1899999995}},{"attributes":{"ID":134832,"DIS_CODE":0,"TOWNNAME":"永康區","LI":"三合里","LIN":"19鄰","STREET":"南工街","SECT":" ","MAREA":" ","LANE":"２６７巷","ALLEY":"３７弄","HOUSE_NO":"３號","E_COORD97":171903.42000000001,"N_COORD97":2545846.5,"ADDRESS":"南工街２６７巷３７弄３號","OBJECTID":134832},"geometry":{"x":171903.41999999993,"y":2545846.5000000019}},{"attributes":{"ID":134833,"DIS_CODE":0,"TOWNNAME":"柳營區","LI":"太康里","LIN":"6鄰","STREET":" ","SECT":" ","MAREA":"太康","LANE":" ","ALLEY":" ","HOUSE_NO":"５３號","E_COORD97":181473.39000000001,"N_COORD97":2576329.6899999999,"ADDRESS":"太康５３號","OBJECTID":134833},"geometry":{"x":181473.38999999873,"y":2576329.6900000013}},{"attributes":{"ID":134834,"DIS_CODE":0,"TOWNNAME":"柳營區","LI":"太康里","LIN":"6鄰","STREET":" ","SECT":" ","MAREA":"太康","LANE":" ","ALLEY":" ","HOUSE_NO":"５４號之１","E_COORD97":181484.35999999999,"N_COORD97":2576345.46,"ADDRESS":"太康５４號之１","OBJECTID":134834},"geometry":{"x":181484.36000000034,"y":2576345.4600000009}},{"attributes":{"ID":134835,"DIS_CODE":0,"TOWNNAME":"柳營區","LI":"太康里","LIN":"6鄰","STREET":" ","SECT":" ","MAREA":"太康","LANE":" ","ALLEY":" ","HOUSE_NO":"５４號之２","E_COORD97":181471.42000000001,"N_COORD97":2576346.1000000001,"ADDRESS":"太康５４號之２","OBJECTID":134835},"geometry":{"x":181471.41999999993,"y":2576346.0999999996}},{"attributes":{"ID":134836,"DIS_CODE":0,"TOWNNAME":"柳營區","LI":"太康里","LIN":"6鄰","STREET":" ","SECT":" ","MAREA":"太康","LANE":" ","ALLEY":" ","HOUSE_NO":"５５號之１１","E_COORD97":181504.13,"N_COORD97":2576121.3799999999,"ADDRESS":"太康５５號之１１","OBJECTID":134836},"geometry":{"x":181504.12999999989,"y":2576121.3800000008}},{"attributes":{"ID":134837,"DIS_CODE":0,"TOWNNAME":"東區","LI":"崇信里","LIN":"27鄰","STREET":"崇學路","SECT":" ","MAREA":" ","LANE":"１４２巷","ALLEY":"１０弄","HOUSE_NO":"３０號三樓","E_COORD97":170481.67999999999,"N_COORD97":2542302.1899999999,"ADDRESS":"崇學路１４２巷１０弄３０號三樓","OBJECTID":134837},"geometry":{"x":170481.68000000156,"y":2542302.1899999995}},{"attributes":{"ID":134838,"DIS_CODE":0,"TOWNNAME":"北區","LI":"國姓里","LIN":"6鄰","STREET":"西門路","SECT":"四段","MAREA":" ","LANE":" ","ALLEY":" ","HOUSE_NO":"１２０之１號","E_COORD97":168756.42999999999,"N_COORD97":2545443.23,"ADDRESS":"西門路四段１２０之１號","OBJECTID":134838},"geometry":{"x":168756.43000000063,"y":2545443.2300000004}},{"attributes":{"ID":134839,"DIS_CODE":0,"TOWNNAME":"北區","LI":"國姓里","LIN":"6鄰","STREET":"西門路","SECT":"四段","MAREA":" ","LANE":" ","ALLEY":" ","HOUSE_NO":"１２８號","E_COORD97":168769.70000000001,"N_COORD97":2545470.0800000001,"ADDRESS":"西門路四段１２８號","OBJECTID":134839},"geometry":{"x":168769.70000000019,"y":2545470.0800000001}},{"attributes":{"ID":134840,"DIS_CODE":0,"TOWNNAME":"北區","LI":"國姓里","LIN":"6鄰","STREET":"西門路","SECT":"四段","MAREA":" ","LANE":" ","ALLEY":" ","HOUSE_NO":"１３２號","E_COORD97":168775.29000000001,"N_COORD97":2545478.79,"ADDRESS":"西門路四段１３２號","OBJECTID":134840},"geometry":{"x":168775.29000000004,"y":2545478.7899999991}},{"attributes":{"ID":134841,"DIS_CODE":0,"TOWNNAME":"南區","LI":"文南里","LIN":"6鄰","STREET":"健康路","SECT":"二段","MAREA":" ","LANE":" ","ALLEY":" ","HOUSE_NO":"２３２號","E_COORD97":167061.85000000001,"N_COORD97":2542489.3399999999,"ADDRESS":"健康路二段２３２號","OBJECTID":134841},"geometry":{"x":167061.85000000056,"y":2542489.3400000036}},{"attributes":{"ID":134842,"DIS_CODE":0,"TOWNNAME":"東區","LI":"崇信里","LIN":"27鄰","STREET":"崇學路","SECT":" ","MAREA":" ","LANE":"１４２巷","ALLEY":"１０弄","HOUSE_NO":"３０號五樓","E_COORD97":170481.67999999999,"N_COORD97":2542302.1899999999,"ADDRESS":"崇學路１４２巷１０弄３０號五樓","OBJECTID":134842},"geometry":{"x":170481.68000000156,"y":2542302.1899999995}},{"attributes":{"ID":134843,"DIS_CODE":0,"TOWNNAME":"東區","LI":"崇信里","LIN":"27鄰","STREET":"崇學路","SECT":" ","MAREA":" ","LANE":"１４２巷","ALLEY":"１０弄","HOUSE_NO":"３０號六樓","E_COORD97":170481.67999999999,"N_COORD97":2542302.1899999999,"ADDRESS":"崇學路１４２巷１０弄３０號六樓","OBJECTID":134843},"geometry":{"x":170481.68000000156,"y":2542302.1899999995}},{"attributes":{"ID":134844,"DIS_CODE":0,"TOWNNAME":"東區","LI":"崇信里","LIN":"27鄰","STREET":"崇學路","SECT":" ","MAREA":" ","LANE":"１４２巷","ALLEY":"１０弄","HOUSE_NO":"３０號四樓","E_COORD97":170481.67999999999,"N_COORD97":2542302.1899999999,"ADDRESS":"崇學路１４２巷１０弄３０號四樓","OBJECTID":134844},"geometry":{"x":170481.68000000156,"y":2542302.1899999995}},{"attributes":{"ID":134845,"DIS_CODE":0,"TOWNNAME":"安平區","LI":"平通里","LIN":"27鄰","STREET":"育平九街","SECT":" ","MAREA":" ","LANE":"３７２巷","ALLEY":"８９弄","HOUSE_NO":"７１號二樓","E_COORD97":164427.45000000001,"N_COORD97":2543953.1400000001,"ADDRESS":"育平九街３７２巷８９弄７１號二樓","OBJECTID":134845},"geometry":{"x":164427.45000000112,"y":2543953.1400000025}},{"attributes":{"ID":134846,"DIS_CODE":0,"TOWNNAME":"安平區","LI":"平通里","LIN":"27鄰","STREET":"育平九街","SECT":" ","MAREA":" ","LANE":"３７２巷","ALLEY":"８９弄","HOUSE_NO":"７１號三樓","E_COORD97":164427.45000000001,"N_COORD97":2543953.1400000001,"ADDRESS":"育平九街３７２巷８９弄７１號三樓","OBJECTID":134846},"geometry":{"x":164427.45000000112,"y":2543953.1400000025}},{"attributes":{"ID":134847,"DIS_CODE":0,"TOWNNAME":"安平區","LI":"平通里","LIN":"27鄰","STREET":"育平九街","SECT":" ","MAREA":" ","LANE":"３７２巷","ALLEY":"８９弄","HOUSE_NO":"７１號四樓","E_COORD97":164427.45000000001,"N_COORD97":2543953.1400000001,"ADDRESS":"育平九街３７２巷８９弄７１號四樓","OBJECTID":134847},"geometry":{"x":164427.45000000112,"y":2543953.1400000025}},{"attributes":{"ID":134848,"DIS_CODE":0,"TOWNNAME":"永康區","LI":"正強里","LIN":"27鄰","STREET":"中正路","SECT":" ","MAREA":" ","LANE":"２０９巷","ALLEY":"３弄","HOUSE_NO":"１２號","E_COORD97":173171.12,"N_COORD97":2547895.25,"ADDRESS":"中正路２０９巷３弄１２號","OBJECTID":134848},"geometry":{"x":173171.12000000197,"y":2547895.2500000019}},{"attributes":{"ID":134849,"DIS_CODE":0,"TOWNNAME":"永康區","LI":"正強里","LIN":"27鄰","STREET":"中正路","SECT":" ","MAREA":" ","LANE":"１５５巷","ALLEY":"４弄","HOUSE_NO":"１５號","E_COORD97":173182.79000000001,"N_COORD97":2547858.75,"ADDRESS":"中正路１５５巷４弄１５號","OBJECTID":134849},"geometry":{"x":173182.79000000004,"y":2547858.7500000019}},{"attributes":{"ID":134850,"DIS_CODE":0,"TOWNNAME":"安南區","LI":"安慶里","LIN":"27鄰","STREET":"安和路","SECT":"一段","MAREA":" ","LANE":"４５９巷","ALLEY":"３６弄","HOUSE_NO":"２３號之１１","E_COORD97":169194.17999999999,"N_COORD97":2548593.8199999998,"ADDRESS":"安和路一段４５９巷３６弄２３號之１１","OBJECTID":134850},"geometry":{"x":169194.1799999997,"y":2548593.8200000022}},{"attributes":{"ID":134851,"DIS_CODE":0,"TOWNNAME":"柳營區","LI":"神農里","LIN":"6鄰","STREET":" ","SECT":" ","MAREA":"果毅後","LANE":" ","ALLEY":" ","HOUSE_NO":"２８５號","E_COORD97":185271.95000000001,"N_COORD97":2572975.6600000001,"ADDRESS":"果毅後２８５號","OBJECTID":134851},"geometry":{"x":185271.95000000019,"y":2572975.6600000001}},{"attributes":{"ID":134852,"DIS_CODE":0,"TOWNNAME":"柳營區","LI":"神農里","LIN":"6鄰","STREET":" ","SECT":" ","MAREA":"果毅後","LANE":" ","ALLEY":" ","HOUSE_NO":"３６８號之１","E_COORD97":185307.82999999999,"N_COORD97":2573002.6899999999,"ADDRESS":"果毅後３６８號之１","OBJECTID":134852},"geometry":{"x":185307.83000000101,"y":2573002.6899999995}},{"attributes":{"ID":134853,"DIS_CODE":0,"TOWNNAME":"柳營區","LI":"神農里","LIN":"6鄰","STREET":" ","SECT":" ","MAREA":"果毅後","LANE":" ","ALLEY":" ","HOUSE_NO":"３６８號之２","E_COORD97":185337.5,"N_COORD97":2573022.9100000001,"ADDRESS":"果毅後３６８號之２","OBJECTID":134853},"geometry":{"x":185337.5,"y":2573022.9100000039}},{"attributes":{"ID":134854,"DIS_CODE":0,"TOWNNAME":"柳營區","LI":"神農里","LIN":"6鄰","STREET":" ","SECT":" ","MAREA":"果毅後","LANE":" ","ALLEY":" ","HOUSE_NO":"３６８之３號","E_COORD97":185295.64999999999,"N_COORD97":2572995.27,"ADDRESS":"果毅後３６８之３號","OBJECTID":134854},"geometry":{"x":185295.6500000013,"y":2572995.2699999996}},{"attributes":{"ID":134855,"DIS_CODE":0,"TOWNNAME":"柳營區","LI":"神農里","LIN":"6鄰","STREET":" ","SECT":" ","MAREA":"果毅後","LANE":" ","ALLEY":" ","HOUSE_NO":"３６８號","E_COORD97":185334.66,"N_COORD97":2572993.8399999999,"ADDRESS":"果毅後３６８號","OBJECTID":134855},"geometry":{"x":185334.66000000015,"y":2572993.8400000017}},{"attributes":{"ID":134856,"DIS_CODE":0,"TOWNNAME":"南區","LI":"文南里","LIN":"6鄰","STREET":"金華路","SECT":"二段","MAREA":" ","LANE":" ","ALLEY":" ","HOUSE_NO":"２２３號","E_COORD97":167098.01999999999,"N_COORD97":2542600.1400000001,"ADDRESS":"金華路二段２２３號","OBJECTID":134856},"geometry":{"x":167098.02000000048,"y":2542600.1400000043}},{"attributes":{"ID":134857,"DIS_CODE":0,"TOWNNAME":"安南區","LI":"安慶里","LIN":"27鄰","STREET":"安和路","SECT":"一段","MAREA":" ","LANE":"４５９巷","ALLEY":"３６弄","HOUSE_NO":"２３號之１２","E_COORD97":169195.17999999999,"N_COORD97":2548599.8799999999,"ADDRESS":"安和路一段４５９巷３６弄２３號之１２","OBJECTID":134857},"geometry":{"x":169195.18000000063,"y":2548599.879999999}},{"attributes":{"ID":134858,"DIS_CODE":0,"TOWNNAME":"安南區","LI":"安慶里","LIN":"27鄰","STREET":"安和路","SECT":"一段","MAREA":" ","LANE":"４５９巷","ALLEY":"３６弄","HOUSE_NO":"２３號之１３","E_COORD97":169195.48999999999,"N_COORD97":2548604.7200000002,"ADDRESS":"安和路一段４５９巷３６弄２３號之１３","OBJECTID":134858},"geometry":{"x":169195.49000000115,"y":2548604.7200000025}},{"attributes":{"ID":134859,"DIS_CODE":0,"TOWNNAME":"安南區","LI":"安慶里","LIN":"27鄰","STREET":"安和路","SECT":"一段","MAREA":" ","LANE":"４５９巷","ALLEY":"３６弄","HOUSE_NO":"２３號之１４","E_COORD97":169195.87,"N_COORD97":2548610.8599999999,"ADDRESS":"安和路一段４５９巷３６弄２３號之１４","OBJECTID":134859},"geometry":{"x":169195.87000000197,"y":2548610.8599999994}},{"attributes":{"ID":134860,"DIS_CODE":0,"TOWNNAME":"安南區","LI":"安慶里","LIN":"27鄰","STREET":"安和路","SECT":"一段","MAREA":" ","LANE":"４５９巷","ALLEY":"３６弄","HOUSE_NO":"２３號之１５","E_COORD97":169178.73999999999,"N_COORD97":2548609.8599999999,"ADDRESS":"安和路一段４５９巷３６弄２３號之１５","OBJECTID":134860},"geometry":{"x":169178.74000000115,"y":2548609.8600000013}},{"attributes":{"ID":134861,"DIS_CODE":0,"TOWNNAME":"安南區","LI":"安慶里","LIN":"27鄰","STREET":"安和路","SECT":"一段","MAREA":" ","LANE":"４５９巷","ALLEY":"３６弄","HOUSE_NO":"２３號之１６","E_COORD97":169178.89000000001,"N_COORD97":2548604.7200000002,"ADDRESS":"安和路一段４５９巷３６弄２３號之１６","OBJECTID":134861},"geometry":{"x":169178.8900000006,"y":2548604.7200000025}},{"attributes":{"ID":134862,"DIS_CODE":0,"TOWNNAME":"安南區","LI":"安慶里","LIN":"27鄰","STREET":"安和路","SECT":"一段","MAREA":" ","LANE":"４５９巷","ALLEY":"３６弄","HOUSE_NO":"２３號之１７","E_COORD97":169178.28,"N_COORD97":2548599.96,"ADDRESS":"安和路一段４５９巷３６弄２３號之１７","OBJECTID":134862},"geometry":{"x":169178.28000000119,"y":2548599.9600000028}},{"attributes":{"ID":134863,"DIS_CODE":0,"TOWNNAME":"安南區","LI":"安慶里","LIN":"27鄰","STREET":"安和路","SECT":"一段","MAREA":" ","LANE":"４５９巷","ALLEY":"３６弄","HOUSE_NO":"２３號之１８","E_COORD97":169177.97,"N_COORD97":2548595.3500000001,"ADDRESS":"安和路一段４５９巷３６弄２３號之１８","OBJECTID":134863},"geometry":{"x":169177.97000000067,"y":2548595.3500000034}},{"attributes":{"ID":134864,"DIS_CODE":0,"TOWNNAME":"安南區","LI":"安慶里","LIN":"27鄰","STREET":"安和路","SECT":"一段","MAREA":" ","LANE":"４５９巷","ALLEY":"３６弄","HOUSE_NO":"２３號之１９","E_COORD97":169164.10999999999,"N_COORD97":2548595.3599999999,"ADDRESS":"安和路一段４５９巷３６弄２３號之１９","OBJECTID":134864},"geometry":{"x":169164.11000000127,"y":2548595.3600000013}},{"attributes":{"ID":134865,"DIS_CODE":0,"TOWNNAME":"安南區","LI":"安慶里","LIN":"27鄰","STREET":"安和路","SECT":"一段","MAREA":" ","LANE":"４５９巷","ALLEY":"３６弄","HOUSE_NO":"２３號之２０","E_COORD97":169164.95999999999,"N_COORD97":2548600.5800000001,"ADDRESS":"安和路一段４５９巷３６弄２３號之２０","OBJECTID":134865},"geometry":{"x":169164.96000000089,"y":2548600.5799999982}},{"attributes":{"ID":134866,"DIS_CODE":0,"TOWNNAME":"安南區","LI":"安慶里","LIN":"27鄰","STREET":"安和路","SECT":"一段","MAREA":" ","LANE":"４５９巷","ALLEY":"３６弄","HOUSE_NO":"２３號之２１","E_COORD97":169165.42000000001,"N_COORD97":2548605.5699999998,"ADDRESS":"安和路一段４５９巷３６弄２３號之２１","OBJECTID":134866},"geometry":{"x":169165.42000000086,"y":2548605.5700000022}},{"attributes":{"ID":134867,"DIS_CODE":0,"TOWNNAME":"安南區","LI":"安慶里","LIN":"27鄰","STREET":"安和路","SECT":"一段","MAREA":" ","LANE":"４５９巷","ALLEY":"３６弄","HOUSE_NO":"２３號之２２","E_COORD97":169165.48999999999,"N_COORD97":2548610.6299999999,"ADDRESS":"安和路一段４５９巷３６弄２３號之２２","OBJECTID":134867},"geometry":{"x":169165.49000000022,"y":2548610.6300000008}},{"attributes":{"ID":134868,"DIS_CODE":0,"TOWNNAME":"安南區","LI":"安慶里","LIN":"27鄰","STREET":"安和路","SECT":"一段","MAREA":" ","LANE":"４５９巷","ALLEY":"３６弄","HOUSE_NO":"２３號之２３","E_COORD97":169148.73000000001,"N_COORD97":2548611.1000000001,"ADDRESS":"安和路一段４５９巷３６弄２３號之２３","OBJECTID":134868},"geometry":{"x":169148.73000000138,"y":2548611.1000000015}},{"attributes":{"ID":134869,"DIS_CODE":0,"TOWNNAME":"安南區","LI":"安慶里","LIN":"27鄰","STREET":"安和路","SECT":"一段","MAREA":" ","LANE":"４５９巷","ALLEY":"３６弄","HOUSE_NO":"２３號之２４","E_COORD97":169148.42000000001,"N_COORD97":2548605.9500000002,"ADDRESS":"安和路一段４５９巷３６弄２３號之２４","OBJECTID":134869},"geometry":{"x":169148.42000000086,"y":2548605.9499999993}},{"attributes":{"ID":134870,"DIS_CODE":0,"TOWNNAME":"安南區","LI":"安慶里","LIN":"27鄰","STREET":"安和路","SECT":"一段","MAREA":" ","LANE":"４５９巷","ALLEY":"３６弄","HOUSE_NO":"２３號之２５","E_COORD97":169147.88,"N_COORD97":2548601.8799999999,"ADDRESS":"安和路一段４５９巷３６弄２３號之２５","OBJECTID":134870},"geometry":{"x":169147.87999999989,"y":2548601.8800000008}},{"attributes":{"ID":134871,"DIS_CODE":0,"TOWNNAME":"安南區","LI":"安慶里","LIN":"27鄰","STREET":"安和路","SECT":"一段","MAREA":" ","LANE":"４５９巷","ALLEY":"３６弄","HOUSE_NO":"２３號之２６","E_COORD97":169147.81,"N_COORD97":2548596.7400000002,"ADDRESS":"安和路一段４５９巷３６弄２３號之２６","OBJECTID":134871},"geometry":{"x":169147.80999999959,"y":2548596.7400000039}},{"attributes":{"ID":134872,"DIS_CODE":0,"TOWNNAME":"永康區","LI":"正強里","LIN":"27鄰","STREET":"中正路","SECT":" ","MAREA":" ","LANE":"１５５巷","ALLEY":"４弄","HOUSE_NO":"１號","E_COORD97":173218.45000000001,"N_COORD97":2547862.5,"ADDRESS":"中正路１５５巷４弄１號","OBJECTID":134872},"geometry":{"x":173218.45000000112,"y":2547862.5000000019}},{"attributes":{"ID":134873,"DIS_CODE":0,"TOWNNAME":"永康區","LI":"正強里","LIN":"27鄰","STREET":"中正路","SECT":" ","MAREA":" ","LANE":"１５５巷","ALLEY":"４弄","HOUSE_NO":"２號","E_COORD97":173217.37,"N_COORD97":2547875.2999999998,"ADDRESS":"中正路１５５巷４弄２號","OBJECTID":134873},"geometry":{"x":173217.37000000104,"y":2547875.3000000026}},{"attributes":{"ID":134874,"DIS_CODE":0,"TOWNNAME":"永康區","LI":"東橋里","LIN":"27鄰","STREET":"中正路","SECT":" ","MAREA":" ","LANE":"２７９巷","ALLEY":"２１弄","HOUSE_NO":"３５號","E_COORD97":172594.41,"N_COORD97":2547771.25,"ADDRESS":"中正路２７９巷２１弄３５號","OBJECTID":134874},"geometry":{"x":172594.41000000201,"y":2547771.25}},{"attributes":{"ID":134875,"DIS_CODE":0,"TOWNNAME":"永康區","LI":"復興里","LIN":"27鄰","STREET":"復興路","SECT":" ","MAREA":" ","LANE":"２７７巷","ALLEY":"２２弄","HOUSE_NO":"２號之１","E_COORD97":172335.25,"N_COORD97":2544213.0099999998,"ADDRESS":"復興路２７７巷２２弄２號之１","OBJECTID":134875},"geometry":{"x":172335.25,"y":2544213.0099999998}},{"attributes":{"ID":134876,"DIS_CODE":0,"TOWNNAME":"永康區","LI":"東橋里","LIN":"27鄰","STREET":"中正路","SECT":" ","MAREA":" ","LANE":"２７９巷","ALLEY":"２１弄","HOUSE_NO":"４５號","E_COORD97":172638.20999999999,"N_COORD97":2547835.2400000002,"ADDRESS":"中正路２７９巷２１弄４５號","OBJECTID":134876},"geometry":{"x":172638.21000000089,"y":2547835.2400000021}},{"attributes":{"ID":134877,"DIS_CODE":0,"TOWNNAME":"永康區","LI":"龍潭里","LIN":"27鄰","STREET":"中山北路","SECT":" ","MAREA":" ","LANE":"４６１巷","ALLEY":"２９弄","HOUSE_NO":"４號","E_COORD97":175102.54000000001,"N_COORD97":2547871.5299999998,"ADDRESS":"中山北路４６１巷２９弄４號","OBJECTID":134877},"geometry":{"x":175102.54000000097,"y":2547871.5300000031}},{"attributes":{"ID":134878,"DIS_CODE":0,"TOWNNAME":"永康區","LI":"東橋里","LIN":"27鄰","STREET":"中正路","SECT":" ","MAREA":" ","LANE":"２７９巷","ALLEY":"２１弄","HOUSE_NO":"３０號","E_COORD97":172507.98000000001,"N_COORD97":2547764.5,"ADDRESS":"中正路２７９巷２１弄３０號","OBJECTID":134878},"geometry":{"x":172507.98000000138,"y":2547764.5000000019}},{"attributes":{"ID":134879,"DIS_CODE":0,"TOWNNAME":"永康區","LI":"大橋里","LIN":"20鄰","STREET":"大橋一街","SECT":" ","MAREA":" ","LANE":"１３９巷","ALLEY":"２２弄","HOUSE_NO":"７９號之４","E_COORD97":171099.31,"N_COORD97":2546624.5899999999,"ADDRESS":"大橋一街１３９巷２２弄７９號之４","OBJECTID":134879},"geometry":{"x":171099.31000000145,"y":2546624.5900000017}},{"attributes":{"ID":134880,"DIS_CODE":0,"TOWNNAME":"永康區","LI":"五王里","LIN":"14鄰","STREET":"中華二路","SECT":" ","MAREA":" ","LANE":"２０６巷","ALLEY":"６８弄","HOUSE_NO":"５９號","E_COORD97":171637.79000000001,"N_COORD97":2545698.04,"ADDRESS":"中華二路２０６巷６８弄５９號","OBJECTID":134880},"geometry":{"x":171637.79000000097,"y":2545698.0400000028}},{"attributes":{"ID":134881,"DIS_CODE":0,"TOWNNAME":"永康區","LI":"中興里","LIN":"6鄰","STREET":"中華一路","SECT":" ","MAREA":" ","LANE":"５８巷","ALLEY":"６弄","HOUSE_NO":"１６號","E_COORD97":171899.5,"N_COORD97":2545023.4900000002,"ADDRESS":"中華一路５８巷６弄１６號","OBJECTID":134881},"geometry":{"x":171899.5,"y":2545023.4900000002}},{"attributes":{"ID":134882,"DIS_CODE":0,"TOWNNAME":"歸仁區","LI":"沙崙里","LIN":"6鄰","STREET":" ","SECT":" ","MAREA":"沙崙","LANE":" ","ALLEY":" ","HOUSE_NO":"２７５號","E_COORD97":179595.57999999999,"N_COORD97":2537978.25,"ADDRESS":"沙崙２７５號","OBJECTID":134882},"geometry":{"x":179595.58000000007,"y":2537978.2500000019}},{"attributes":{"ID":134883,"DIS_CODE":0,"TOWNNAME":"永康區","LI":"中興里","LIN":"21鄰","STREET":"中華路","SECT":" ","MAREA":" ","LANE":"２１６巷","ALLEY":"５８弄","HOUSE_NO":"１號","E_COORD97":171898.70999999999,"N_COORD97":2545132.9900000002,"ADDRESS":"中華路２１６巷５８弄１號","OBJECTID":134883},"geometry":{"x":171898.70999999996,"y":2545132.9899999984}},{"attributes":{"ID":134884,"DIS_CODE":0,"TOWNNAME":"永康區","LI":"崑山里","LIN":"27鄰","STREET":"大灣路","SECT":" ","MAREA":" ","LANE":"９４２巷","ALLEY":"７１弄","HOUSE_NO":"２９８號","E_COORD97":173508.04999999999,"N_COORD97":2544654.6000000001,"ADDRESS":"大灣路９４２巷７１弄２９８號","OBJECTID":134884},"geometry":{"x":173508.04999999981,"y":2544654.6000000015}},{"attributes":{"ID":134885,"DIS_CODE":0,"TOWNNAME":"東區","LI":"崇信里","LIN":"27鄰","STREET":"崇學路","SECT":" ","MAREA":" ","LANE":"１４２巷","ALLEY":"１０弄","HOUSE_NO":"４號","E_COORD97":170509.45999999999,"N_COORD97":2542351.54,"ADDRESS":"崇學路１４２巷１０弄４號","OBJECTID":134885},"geometry":{"x":170509.46000000089,"y":2542351.5400000028}},{"attributes":{"ID":134886,"DIS_CODE":0,"TOWNNAME":"東區","LI":"崇信里","LIN":"27鄰","STREET":"崇學路","SECT":" ","MAREA":" ","LANE":"１４２巷","ALLEY":"１０弄","HOUSE_NO":"５０號","E_COORD97":170515.98000000001,"N_COORD97":2542275.25,"ADDRESS":"崇學路１４２巷１０弄５０號","OBJECTID":134886},"geometry":{"x":170515.98000000231,"y":2542275.25}},{"attributes":{"ID":134887,"DIS_CODE":0,"TOWNNAME":"東區","LI":"崇信里","LIN":"27鄰","STREET":"崇學路","SECT":" ","MAREA":" ","LANE":"１４２巷","ALLEY":"１０弄","HOUSE_NO":"６號","E_COORD97":170507.16,"N_COORD97":2542348.6200000001,"ADDRESS":"崇學路１４２巷１０弄６號","OBJECTID":134887},"geometry":{"x":170507.16000000015,"y":2542348.620000001}},{"attributes":{"ID":134888,"DIS_CODE":0,"TOWNNAME":"東區","LI":"崇信里","LIN":"27鄰","STREET":"崇學路","SECT":" ","MAREA":" ","LANE":"１４２巷","ALLEY":"１０弄","HOUSE_NO":"８號","E_COORD97":170504.44,"N_COORD97":2542344.6499999999,"ADDRESS":"崇學路１４２巷１０弄８號","OBJECTID":134888},"geometry":{"x":170504.44000000227,"y":2542344.6500000004}},{"attributes":{"ID":134889,"DIS_CODE":0,"TOWNNAME":"永康區","LI":"五王里","LIN":"3鄰","STREET":"中華二路","SECT":" ","MAREA":" ","LANE":"２０６巷","ALLEY":"６９弄","HOUSE_NO":"１５號","E_COORD97":171539.39999999999,"N_COORD97":2545627.4199999999,"ADDRESS":"中華二路２０６巷６９弄１５號","OBJECTID":134889},"geometry":{"x":171539.4000000013,"y":2545627.4199999999}},{"attributes":{"ID":134890,"DIS_CODE":0,"TOWNNAME":"將軍區","LI":"廣山里","LIN":"5鄰","STREET":" ","SECT":" ","MAREA":"廣山","LANE":" ","ALLEY":" ","HOUSE_NO":"４２號","E_COORD97":159763.17999999999,"N_COORD97":2568864.8999999999,"ADDRESS":"廣山４２號","OBJECTID":134890},"geometry":{"x":159763.18000000063,"y":2568864.9000000022}},{"attributes":{"ID":134891,"DIS_CODE":0,"TOWNNAME":"永康區","LI":"大橋里","LIN":"21鄰","STREET":"大橋一街","SECT":" ","MAREA":" ","LANE":"２２３巷","ALLEY":"３弄","HOUSE_NO":"１４號","E_COORD97":171162.37,"N_COORD97":2546694.0499999998,"ADDRESS":"大橋一街２２３巷３弄１４號","OBJECTID":134891},"geometry":{"x":171162.37000000197,"y":2546694.0500000026}},{"attributes":{"ID":134892,"DIS_CODE":0,"TOWNNAME":"永康區","LI":"大橋里","LIN":"19鄰","STREET":"大橋一街","SECT":" ","MAREA":" ","LANE":"１３９巷","ALLEY":"４４弄","HOUSE_NO":"３０號","E_COORD97":171007.63,"N_COORD97":2546631.7999999998,"ADDRESS":"大橋一街１３９巷４４弄３０號","OBJECTID":134892},"geometry":{"x":171007.63000000175,"y":2546631.8000000026}},{"attributes":{"ID":134893,"DIS_CODE":0,"TOWNNAME":"新市區","LI":"新和里","LIN":"27鄰","STREET":"忠孝街","SECT":" ","MAREA":" ","LANE":"１７９巷","ALLEY":"１弄","HOUSE_NO":"１３號","E_COORD97":177689.32000000001,"N_COORD97":2552746.25,"ADDRESS":"忠孝街１７９巷１弄１３號","OBJECTID":134893},"geometry":{"x":177689.32000000216,"y":2552746.2500000037}},{"attributes":{"ID":134894,"DIS_CODE":0,"TOWNNAME":"南區","LI":"郡南里","LIN":"6鄰","STREET":"永興四街","SECT":" ","MAREA":" ","LANE":" ","ALLEY":" ","HOUSE_NO":"１３號","E_COORD97":167274.10000000001,"N_COORD97":2540548.0800000001,"ADDRESS":"永興四街１３號","OBJECTID":134894},"geometry":{"x":167274.09999999963,"y":2540548.0800000001}},{"attributes":{"ID":134895,"DIS_CODE":0,"TOWNNAME":"南區","LI":"佛壇里","LIN":"6鄰","STREET":"興南街","SECT":" ","MAREA":" ","LANE":" ","ALLEY":" ","HOUSE_NO":"９６之１號","E_COORD97":166194.85999999999,"N_COORD97":2536005.2000000002,"ADDRESS":"興南街９６之１號","OBJECTID":134895},"geometry":{"x":166194.86000000034,"y":2536005.2000000011}},{"attributes":{"ID":134896,"DIS_CODE":0,"TOWNNAME":"歸仁區","LI":"看西里","LIN":"6鄰","STREET":"信義南路","SECT":" ","MAREA":" ","LANE":" ","ALLEY":" ","HOUSE_NO":"１４３號","E_COORD97":178140.70000000001,"N_COORD97":2540343.4900000002,"ADDRESS":"信義南路１４３號","OBJECTID":134896},"geometry":{"x":178140.70000000019,"y":2540343.4900000021}},{"attributes":{"ID":134897,"DIS_CODE":0,"TOWNNAME":"歸仁區","LI":"歸仁里","LIN":"6鄰","STREET":"和平北街","SECT":" ","MAREA":" ","LANE":" ","ALLEY":" ","HOUSE_NO":"１１號","E_COORD97":177830.09,"N_COORD97":2540845.1699999999,"ADDRESS":"和平北街１１號","OBJECTID":134897},"geometry":{"x":177830.09000000078,"y":2540845.1699999999}},{"attributes":{"ID":134898,"DIS_CODE":0,"TOWNNAME":"歸仁區","LI":"看東里","LIN":"6鄰","STREET":"成功路","SECT":"一段","MAREA":" ","LANE":" ","ALLEY":" ","HOUSE_NO":"２０３號","E_COORD97":178440.54999999999,"N_COORD97":2540095.4500000002,"ADDRESS":"成功路一段２０３號","OBJECTID":134898},"geometry":{"x":178440.55000000075,"y":2540095.4500000011}},{"attributes":{"ID":134899,"DIS_CODE":0,"TOWNNAME":"歸仁區","LI":"看東里","LIN":"6鄰","STREET":"成功路","SECT":"一段","MAREA":" ","LANE":" ","ALLEY":" ","HOUSE_NO":"１９３號","E_COORD97":178452.95000000001,"N_COORD97":2540112.4500000002,"ADDRESS":"成功路一段１９３號","OBJECTID":134899},"geometry":{"x":178452.95000000112,"y":2540112.4500000011}},{"attributes":{"ID":134900,"DIS_CODE":0,"TOWNNAME":"歸仁區","LI":"看東里","LIN":"6鄰","STREET":"成功路","SECT":"一段","MAREA":" ","LANE":" ","ALLEY":" ","HOUSE_NO":"１６５號","E_COORD97":178515.64999999999,"N_COORD97":2540160.4500000002,"ADDRESS":"成功路一段１６５號","OBJECTID":134900},"geometry":{"x":178515.65000000037,"y":2540160.4500000011}},{"attributes":{"ID":134901,"DIS_CODE":0,"TOWNNAME":"歸仁區","LI":"看東里","LIN":"6鄰","STREET":"成功三街","SECT":" ","MAREA":" ","LANE":" ","ALLEY":" ","HOUSE_NO":"１７號","E_COORD97":178452.14999999999,"N_COORD97":2540055.4500000002,"ADDRESS":"成功三街１７號","OBJECTID":134901},"geometry":{"x":178452.1500000013,"y":2540055.4499999993}},{"attributes":{"ID":134902,"DIS_CODE":0,"TOWNNAME":"歸仁區","LI":"看東里","LIN":"6鄰","STREET":"成功路","SECT":"一段","MAREA":" ","LANE":" ","ALLEY":" ","HOUSE_NO":"１７１號","E_COORD97":178503.35000000001,"N_COORD97":2540152.4500000002,"ADDRESS":"成功路一段１７１號","OBJECTID":134902},"geometry":{"x":178503.34999999963,"y":2540152.4500000011}},{"attributes":{"ID":134903,"DIS_CODE":0,"TOWNNAME":"歸仁區","LI":"看東里","LIN":"6鄰","STREET":"成功路","SECT":"一段","MAREA":" ","LANE":" ","ALLEY":" ","HOUSE_NO":"１７９號","E_COORD97":178495.04999999999,"N_COORD97":2540136.4500000002,"ADDRESS":"成功路一段１７９號","OBJECTID":134903},"geometry":{"x":178495.04999999981,"y":2540136.4500000011}},{"attributes":{"ID":134904,"DIS_CODE":0,"TOWNNAME":"佳里區","LI":"忠仁里","LIN":" ","STREET":"博愛街","SECT":" ","MAREA":" ","LANE":" ","ALLEY":" ","HOUSE_NO":"１２２號","E_COORD97":165828.62,"N_COORD97":2562003.2599999998,"ADDRESS":"博愛街１２２號","OBJECTID":134904},"geometry":{"x":165828.62000000011,"y":2562003.2599999998}},{"attributes":{"ID":134905,"DIS_CODE":0,"TOWNNAME":"佳里區","LI":"建南里","LIN":" ","STREET":"復興路","SECT":" ","MAREA":" ","LANE":" ","ALLEY":" ","HOUSE_NO":"６３號","E_COORD97":165375.64000000001,"N_COORD97":2561683.7599999998,"ADDRESS":"復興路６３號","OBJECTID":134905},"geometry":{"x":165375.63999999966,"y":2561683.7600000016}},{"attributes":{"ID":134906,"DIS_CODE":0,"TOWNNAME":"佳里區","LI":"東寧里","LIN":" ","STREET":"進學路","SECT":" ","MAREA":" ","LANE":" ","ALLEY":" ","HOUSE_NO":"１３３號","E_COORD97":165970.85000000001,"N_COORD97":2562650.96,"ADDRESS":"進學路１３３號","OBJECTID":134906},"geometry":{"x":165970.84999999963,"y":2562650.9600000009}},{"attributes":{"ID":134907,"DIS_CODE":0,"TOWNNAME":"佳里區","LI":"東寧里","LIN":" ","STREET":"進學路","SECT":" ","MAREA":" ","LANE":" ","ALLEY":" ","HOUSE_NO":"１３５號","E_COORD97":165966.35999999999,"N_COORD97":2562650.9199999999,"ADDRESS":"進學路１３５號","OBJECTID":134907},"geometry":{"x":165966.36000000034,"y":2562650.9199999999}},{"attributes":{"ID":134908,"DIS_CODE":0,"TOWNNAME":"新化區","LI":"\u25A0拔里","LIN":"1鄰","STREET":" ","SECT":" ","MAREA":"\u25A0拔林","LANE":" ","ALLEY":" ","HOUSE_NO":"３８號之７","E_COORD97":182463.76999999999,"N_COORD97":2552222.2599999998,"ADDRESS":"\u25A0拔林３８號之７","OBJECTID":134908},"geometry":{"x":182463.76999999955,"y":2552222.2599999998}},{"attributes":{"ID":134909,"DIS_CODE":0,"TOWNNAME":"新化區","LI":"山\u25A0里","LIN":"8鄰","STREET":" ","SECT":" ","MAREA":"頂山\u25A0","LANE":" ","ALLEY":" ","HOUSE_NO":"１８７號之１","E_COORD97":179703.10999999999,"N_COORD97":2546912.2599999998,"ADDRESS":"頂山\u25A0１８７號之１","OBJECTID":134909},"geometry":{"x":179703.11000000127,"y":2546912.2600000016}},{"attributes":{"ID":134910,"DIS_CODE":0,"TOWNNAME":"新化區","LI":"豐榮里","LIN":"4鄰","STREET":" ","SECT":" ","MAREA":"洋子","LANE":" ","ALLEY":" ","HOUSE_NO":"７０號之２","E_COORD97":178043.38,"N_COORD97":2548363.2599999998,"ADDRESS":"洋子７０號之２","OBJECTID":134910},"geometry":{"x":178043.38000000082,"y":2548363.2600000016}},{"attributes":{"ID":134911,"DIS_CODE":0,"TOWNNAME":"新化區","LI":"知義里","LIN":"6鄰","STREET":" ","SECT":" ","MAREA":"新和庄","LANE":" ","ALLEY":" ","HOUSE_NO":"３２號","E_COORD97":181264.460632,"N_COORD97":2546633.45738,"ADDRESS":"新和庄３２號","OBJECTID":134911},"geometry":{"x":181264.46063200198,"y":2546633.4573780037}},{"attributes":{"ID":134912,"DIS_CODE":0,"TOWNNAME":"新化區","LI":"知義里","LIN":"6鄰","STREET":" ","SECT":" ","MAREA":"新和庄","LANE":" ","ALLEY":" ","HOUSE_NO":"９號之１５","E_COORD97":181310.26000000001,"N_COORD97":2546932.2599999998,"ADDRESS":"新和庄９號之１５","OBJECTID":134912},"geometry":{"x":181310.26000000071,"y":2546932.2600000016}},{"attributes":{"ID":134913,"DIS_CODE":0,"TOWNNAME":"新化區","LI":"知義里","LIN":" ","STREET":" ","SECT":" ","MAREA":"新和庄","LANE":" ","ALLEY":" ","HOUSE_NO":"１０５號","E_COORD97":182414.98999999999,"N_COORD97":2546103.25,"ADDRESS":"新和庄１０５號","OBJECTID":134913},"geometry":{"x":182414.99000000115,"y":2546103.25}},{"attributes":{"ID":134914,"DIS_CODE":0,"TOWNNAME":"新化區","LI":"知義里","LIN":" ","STREET":" ","SECT":" ","MAREA":"新和庄","LANE":" ","ALLEY":" ","HOUSE_NO":"１１０號","E_COORD97":182404.48999999999,"N_COORD97":2546032.25,"ADDRESS":"新和庄１１０號","OBJECTID":134914},"geometry":{"x":182404.49000000115,"y":2546032.25}},{"attributes":{"ID":134915,"DIS_CODE":0,"TOWNNAME":"新化區","LI":"山\u25A0里","LIN":"4鄰","STREET":" ","SECT":" ","MAREA":"頂山\u25A0","LANE":" ","ALLEY":" ","HOUSE_NO":"１０８號","E_COORD97":179573.73000000001,"N_COORD97":2546708.25,"ADDRESS":"頂山\u25A0１０８號","OBJECTID":134915},"geometry":{"x":179573.73000000138,"y":2546708.2500000019}},{"attributes":{"ID":134916,"DIS_CODE":0,"TOWNNAME":"新化區","LI":"知義里","LIN":" ","STREET":" ","SECT":" ","MAREA":"新和庄","LANE":" ","ALLEY":" ","HOUSE_NO":"７８號","E_COORD97":181973.34,"N_COORD97":2546530.25,"ADDRESS":"新和庄７８號","OBJECTID":134916},"geometry":{"x":181973.33999999985,"y":2546530.25}},{"attributes":{"ID":134917,"DIS_CODE":0,"TOWNNAME":"新化區","LI":"知義里","LIN":"6鄰","STREET":" ","SECT":" ","MAREA":"新和庄","LANE":" ","ALLEY":" ","HOUSE_NO":"３２號之１","E_COORD97":181245.39256400001,"N_COORD97":2546670.28736,"ADDRESS":"新和庄３２號之１","OBJECTID":134917},"geometry":{"x":181245.39256400056,"y":2546670.2873580009}},{"attributes":{"ID":134918,"DIS_CODE":0,"TOWNNAME":"新市區","LI":"新和里","LIN":"27鄰","STREET":"永福街","SECT":" ","MAREA":" ","LANE":"１６巷","ALLEY":"１弄","HOUSE_NO":"２號","E_COORD97":177779.92000000001,"N_COORD97":2552726.5,"ADDRESS":"永福街１６巷１弄２號","OBJECTID":134918},"geometry":{"x":177779.92000000086,"y":2552726.5}},{"attributes":{"ID":134919,"DIS_CODE":0,"TOWNNAME":"歸仁區","LI":"沙崙里","LIN":"6鄰","STREET":" ","SECT":" ","MAREA":"沙崙","LANE":" ","ALLEY":" ","HOUSE_NO":"２８８號","E_COORD97":179657.78,"N_COORD97":2538110.25,"ADDRESS":"沙崙２８８號","OBJECTID":134919},"geometry":{"x":179657.78000000119,"y":2538110.2500000019}},{"attributes":{"ID":134920,"DIS_CODE":0,"TOWNNAME":"歸仁區","LI":"沙崙里","LIN":"6鄰","STREET":" ","SECT":" ","MAREA":"沙崙","LANE":" ","ALLEY":" ","HOUSE_NO":"３０６號","E_COORD97":179558.63707200001,"N_COORD97":2538002.61827,"ADDRESS":"沙崙３０６號","OBJECTID":134920},"geometry":{"x":179558.63707199972,"y":2538002.6182669997}},{"attributes":{"ID":134921,"DIS_CODE":0,"TOWNNAME":"歸仁區","LI":"沙崙里","LIN":"6鄰","STREET":" ","SECT":" ","MAREA":"沙崙","LANE":" ","ALLEY":" ","HOUSE_NO":"２７４號","E_COORD97":179591.48000000001,"N_COORD97":2537975.25,"ADDRESS":"沙崙２７４號","OBJECTID":134921},"geometry":{"x":179591.48000000045,"y":2537975.2500000019}},{"attributes":{"ID":134922,"DIS_CODE":0,"TOWNNAME":"歸仁區","LI":"沙崙里","LIN":"6鄰","STREET":" ","SECT":" ","MAREA":"沙崙","LANE":" ","ALLEY":" ","HOUSE_NO":"２９２號","E_COORD97":179630.98000000001,"N_COORD97":2538092.25,"ADDRESS":"沙崙２９２號","OBJECTID":134922},"geometry":{"x":179630.98000000231,"y":2538092.25}},{"attributes":{"ID":134923,"DIS_CODE":0,"TOWNNAME":"歸仁區","LI":"沙崙里","LIN":"6鄰","STREET":" ","SECT":" ","MAREA":"沙崙","LANE":" ","ALLEY":" ","HOUSE_NO":"２９８號","E_COORD97":179622.78,"N_COORD97":2538084.25,"ADDRESS":"沙崙２９８號","OBJECTID":134923},"geometry":{"x":179622.78000000119,"y":2538084.2500000019}},{"attributes":{"ID":134924,"DIS_CODE":0,"TOWNNAME":"歸仁區","LI":"沙崙里","LIN":"6鄰","STREET":" ","SECT":" ","MAREA":"沙崙","LANE":" ","ALLEY":" ","HOUSE_NO":"２７８號","E_COORD97":179584.38,"N_COORD97":2537992.25,"ADDRESS":"沙崙２７８號","OBJECTID":134924},"geometry":{"x":179584.38000000082,"y":2537992.2500000019}},{"attributes":{"ID":134925,"DIS_CODE":0,"TOWNNAME":"新化區","LI":"礁坑里","LIN":"13鄰","STREET":" ","SECT":" ","MAREA":"礁坑子","LANE":" ","ALLEY":" ","HOUSE_NO":"４號","E_COORD97":184226.03,"N_COORD97":2547683.25,"ADDRESS":"礁坑子４號","OBJECTID":134925},"geometry":{"x":184226.02999999933,"y":2547683.25}},{"attributes":{"ID":134926,"DIS_CODE":0,"TOWNNAME":"新化區","LI":"羊林里","LIN":"4鄰","STREET":" ","SECT":" ","MAREA":"\u25A0拔林","LANE":" ","ALLEY":" ","HOUSE_NO":"５２３號","E_COORD97":183708.92000000001,"N_COORD97":2551638.25,"ADDRESS":"\u25A0拔林５２３號","OBJECTID":134926},"geometry":{"x":183708.91999999993,"y":2551638.2500000019}},{"attributes":{"ID":134927,"DIS_CODE":0,"TOWNNAME":"新化區","LI":"山\u25A0里","LIN":"4鄰","STREET":" ","SECT":" ","MAREA":"頂山\u25A0","LANE":" ","ALLEY":" ","HOUSE_NO":"１０６號之５","E_COORD97":179585.69,"N_COORD97":2546676.2599999998,"ADDRESS":"頂山\u25A0１０６號之５","OBJECTID":134927},"geometry":{"x":179585.69000000134,"y":2546676.2599999998}},{"attributes":{"ID":134928,"DIS_CODE":0,"TOWNNAME":"新化區","LI":"豐榮里","LIN":"4鄰","STREET":" ","SECT":" ","MAREA":"洋子","LANE":" ","ALLEY":" ","HOUSE_NO":"７１號之３","E_COORD97":177961.48000000001,"N_COORD97":2548352.2599999998,"ADDRESS":"洋子７１號之３","OBJECTID":134928},"geometry":{"x":177961.48000000138,"y":2548352.2600000016}},{"attributes":{"ID":134929,"DIS_CODE":0,"TOWNNAME":"新化區","LI":"知義里","LIN":"6鄰","STREET":" ","SECT":" ","MAREA":"新和庄","LANE":" ","ALLEY":" ","HOUSE_NO":"４２號","E_COORD97":181330.139532,"N_COORD97":2546538.7365999999,"ADDRESS":"新和庄４２號","OBJECTID":134929},"geometry":{"x":181330.13953200076,"y":2546538.7365959994}},{"attributes":{"ID":134930,"DIS_CODE":0,"TOWNNAME":"新化區","LI":"礁坑里","LIN":"13鄰","STREET":" ","SECT":" ","MAREA":"礁坑子","LANE":" ","ALLEY":" ","HOUSE_NO":"５號","E_COORD97":184259.53,"N_COORD97":2547683.25,"ADDRESS":"礁坑子５號","OBJECTID":134930},"geometry":{"x":184259.53000000026,"y":2547683.25}},{"attributes":{"ID":134931,"DIS_CODE":0,"TOWNNAME":"新化區","LI":"礁坑里","LIN":"13鄰","STREET":" ","SECT":" ","MAREA":"礁坑子","LANE":" ","ALLEY":" ","HOUSE_NO":"１４號","E_COORD97":184255.57999999999,"N_COORD97":2547777.25,"ADDRESS":"礁坑子１４號","OBJECTID":134931},"geometry":{"x":184255.58000000007,"y":2547777.2500000019}},{"attributes":{"ID":134932,"DIS_CODE":0,"TOWNNAME":"新化區","LI":"礁坑里","LIN":" ","STREET":" ","SECT":" ","MAREA":"茄冬坑","LANE":" ","ALLEY":" ","HOUSE_NO":"１３號之１","E_COORD97":183905.79999999999,"N_COORD97":2548462.2599999998,"ADDRESS":"茄冬坑１３號之１","OBJECTID":134932},"geometry":{"x":183905.80000000075,"y":2548462.2599999998}},{"attributes":{"ID":134933,"DIS_CODE":0,"TOWNNAME":"新化區","LI":"知義里","LIN":" ","STREET":" ","SECT":" ","MAREA":"新和庄","LANE":" ","ALLEY":" ","HOUSE_NO":"１４０號","E_COORD97":182040.19,"N_COORD97":2546508.25,"ADDRESS":"新和庄１４０號","OBJECTID":134933},"geometry":{"x":182040.19000000227,"y":2546508.2500000019}},{"attributes":{"ID":134934,"DIS_CODE":0,"TOWNNAME":"永康區","LI":"中興里","LIN":"25鄰","STREET":"中華路","SECT":" ","MAREA":" ","LANE":"２１６巷","ALLEY":"１弄","HOUSE_NO":"１號之８","E_COORD97":171749.57000000001,"N_COORD97":2545185.3700000001,"ADDRESS":"中華路２１６巷１弄１號之８","OBJECTID":134934},"geometry":{"x":171749.57000000123,"y":2545185.370000001}},{"attributes":{"ID":134935,"DIS_CODE":0,"TOWNNAME":"新化區","LI":"知義里","LIN":" ","STREET":" ","SECT":" ","MAREA":"新和庄","LANE":" ","ALLEY":" ","HOUSE_NO":"９６號","E_COORD97":182228.73999999999,"N_COORD97":2546328.25,"ADDRESS":"新和庄９６號","OBJECTID":134935},"geometry":{"x":182228.74000000022,"y":2546328.2500000037}},{"attributes":{"ID":134936,"DIS_CODE":0,"TOWNNAME":"新化區","LI":"礁坑里","LIN":"13鄰","STREET":" ","SECT":" ","MAREA":"礁坑子","LANE":" ","ALLEY":" ","HOUSE_NO":"３１號","E_COORD97":184063.17999999999,"N_COORD97":2547687.25,"ADDRESS":"礁坑子３１號","OBJECTID":134936},"geometry":{"x":184063.1799999997,"y":2547687.25}},{"attributes":{"ID":134937,"DIS_CODE":0,"TOWNNAME":"新化區","LI":"礁坑里","LIN":"13鄰","STREET":" ","SECT":" ","MAREA":"礁坑子","LANE":" ","ALLEY":" ","HOUSE_NO":"２１號","E_COORD97":184292.57999999999,"N_COORD97":2547784.25,"ADDRESS":"礁坑子２１號","OBJECTID":134937},"geometry":{"x":184292.58000000007,"y":2547784.25}},{"attributes":{"ID":134938,"DIS_CODE":0,"TOWNNAME":"新化區","LI":"知義里","LIN":" ","STREET":" ","SECT":" ","MAREA":"新和庄","LANE":" ","ALLEY":" ","HOUSE_NO":"１７８號","E_COORD97":181675.39000000001,"N_COORD97":2547172.25,"ADDRESS":"新和庄１７８號","OBJECTID":134938},"geometry":{"x":181675.3900000006,"y":2547172.2500000037}},{"attributes":{"ID":134939,"DIS_CODE":0,"TOWNNAME":"新化區","LI":"豐榮里","LIN":"4鄰","STREET":" ","SECT":" ","MAREA":"洋子","LANE":" ","ALLEY":" ","HOUSE_NO":"７６號之４","E_COORD97":178012.85999999999,"N_COORD97":2548243.2599999998,"ADDRESS":"洋子７６號之４","OBJECTID":134939},"geometry":{"x":178012.8600000022,"y":2548243.2600000035}},{"attributes":{"ID":134940,"DIS_CODE":0,"TOWNNAME":"新化區","LI":"知義里","LIN":" ","STREET":" ","SECT":" ","MAREA":"新和庄","LANE":" ","ALLEY":" ","HOUSE_NO":"７６號之１","E_COORD97":181945.85999999999,"N_COORD97":2546513.2599999998,"ADDRESS":"新和庄７６號之１","OBJECTID":134940},"geometry":{"x":181945.86000000127,"y":2546513.2599999998}},{"attributes":{"ID":134941,"DIS_CODE":0,"TOWNNAME":"新化區","LI":"全興里","LIN":"11鄰","STREET":" ","SECT":" ","MAREA":"竹子\u25A0","LANE":" ","ALLEY":" ","HOUSE_NO":"２４３號之３","E_COORD97":178049.03,"N_COORD97":2546930.2599999998,"ADDRESS":"竹子\u25A0２４３之３號","OBJECTID":134941},"geometry":{"x":178049.03000000119,"y":2546930.2599999998}},{"attributes":{"ID":134942,"DIS_CODE":0,"TOWNNAME":"新化區","LI":"知義里","LIN":" ","STREET":" ","SECT":" ","MAREA":"新和庄","LANE":" ","ALLEY":" ","HOUSE_NO":"５３號之２","E_COORD97":181838.98999999999,"N_COORD97":2546545.2599999998,"ADDRESS":"新和庄５３號之２","OBJECTID":134942},"geometry":{"x":181838.99000000022,"y":2546545.2600000016}},{"attributes":{"ID":134943,"DIS_CODE":0,"TOWNNAME":"新化區","LI":"全興里","LIN":"20鄰","STREET":" ","SECT":" ","MAREA":"竹子\u25A0","LANE":" ","ALLEY":" ","HOUSE_NO":"２４７號之３２２","E_COORD97":178501.98999999999,"N_COORD97":2546671.2599999998,"ADDRESS":"竹子\u25A0２４７號之３２２","OBJECTID":134943},"geometry":{"x":178501.99000000115,"y":2546671.2600000016}},{"attributes":{"ID":134944,"DIS_CODE":0,"TOWNNAME":"新化區","LI":"知義里","LIN":"6鄰","STREET":" ","SECT":" ","MAREA":"新和庄","LANE":" ","ALLEY":" ","HOUSE_NO":"９號之１３","E_COORD97":181307.41516800001,"N_COORD97":2546936.6183000002,"ADDRESS":"新和庄９號之１３","OBJECTID":134944},"geometry":{"x":181307.41516800132,"y":2546936.6183040012}},{"attributes":{"ID":134945,"DIS_CODE":0,"TOWNNAME":"新化區","LI":"礁坑里","LIN":"13鄰","STREET":" ","SECT":" ","MAREA":"礁坑子","LANE":" ","ALLEY":" ","HOUSE_NO":"１９號","E_COORD97":184286.67999999999,"N_COORD97":2547756.25,"ADDRESS":"礁坑子１９號","OBJECTID":134945},"geometry":{"x":184286.6799999997,"y":2547756.2500000019}},{"attributes":{"ID":134946,"DIS_CODE":0,"TOWNNAME":"新化區","LI":"羊林里","LIN":"4鄰","STREET":" ","SECT":" ","MAREA":"\u25A0拔林","LANE":" ","ALLEY":" ","HOUSE_NO":"４５１號","E_COORD97":183644.51999999999,"N_COORD97":2551700.25,"ADDRESS":"\u25A0拔林４５１號","OBJECTID":134946},"geometry":{"x":183644.52000000048,"y":2551700.25}},{"attributes":{"ID":134947,"DIS_CODE":0,"TOWNNAME":"新化區","LI":"知義里","LIN":" ","STREET":" ","SECT":" ","MAREA":"新和庄","LANE":" ","ALLEY":" ","HOUSE_NO":"７６號","E_COORD97":181952.73999999999,"N_COORD97":2546522.25,"ADDRESS":"新和庄７６號","OBJECTID":134947},"geometry":{"x":181952.74000000022,"y":2546522.2500000019}},{"attributes":{"ID":134948,"DIS_CODE":0,"TOWNNAME":"新化區","LI":"山\u25A0里","LIN":"4鄰","STREET":" ","SECT":" ","MAREA":"頂山\u25A0","LANE":" ","ALLEY":" ","HOUSE_NO":"１０９號","E_COORD97":179594.13,"N_COORD97":2546711.25,"ADDRESS":"頂山\u25A0１０９號","OBJECTID":134948},"geometry":{"x":179594.13000000082,"y":2546711.2500000037}},{"attributes":{"ID":134949,"DIS_CODE":0,"TOWNNAME":"歸仁區","LI":"沙崙里","LIN":"6鄰","STREET":" ","SECT":" ","MAREA":"沙崙","LANE":" ","ALLEY":" ","HOUSE_NO":"２７６號","E_COORD97":179600.78,"N_COORD97":2537980.25,"ADDRESS":"沙崙２７６號","OBJECTID":134949},"geometry":{"x":179600.78000000119,"y":2537980.25}},{"attributes":{"ID":134950,"DIS_CODE":0,"TOWNNAME":"歸仁區","LI":"沙崙里","LIN":"6鄰","STREET":" ","SECT":" ","MAREA":"沙崙","LANE":" ","ALLEY":" ","HOUSE_NO":"２８２號","E_COORD97":179564.88,"N_COORD97":2537983.25,"ADDRESS":"沙崙２８２號","OBJECTID":134950},"geometry":{"x":179564.87999999896,"y":2537983.25}},{"attributes":{"ID":134951,"DIS_CODE":0,"TOWNNAME":"歸仁區","LI":"沙崙里","LIN":"6鄰","STREET":" ","SECT":" ","MAREA":"沙崙","LANE":" ","ALLEY":" ","HOUSE_NO":"３０１號","E_COORD97":179555.88,"N_COORD97":2538040.25,"ADDRESS":"沙崙３０１號","OBJECTID":134951},"geometry":{"x":179555.87999999989,"y":2538040.25}},{"attributes":{"ID":134952,"DIS_CODE":0,"TOWNNAME":"歸仁區","LI":"沙崙里","LIN":"6鄰","STREET":" ","SECT":" ","MAREA":"沙崙","LANE":" ","ALLEY":" ","HOUSE_NO":"２８９號","E_COORD97":179637.28,"N_COORD97":2538119.25,"ADDRESS":"沙崙２８９號","OBJECTID":134952},"geometry":{"x":179637.28000000212,"y":2538119.25}},{"attributes":{"ID":134953,"DIS_CODE":0,"TOWNNAME":"歸仁區","LI":"沙崙里","LIN":"6鄰","STREET":" ","SECT":" ","MAREA":"沙崙","LANE":" ","ALLEY":" ","HOUSE_NO":"２９５之１號","E_COORD97":179617.98000000001,"N_COORD97":2538051.2599999998,"ADDRESS":"沙崙２９５之１號","OBJECTID":134953},"geometry":{"x":179617.98000000138,"y":2538051.2599999998}},{"attributes":{"ID":134954,"DIS_CODE":0,"TOWNNAME":"歸仁區","LI":"沙崙里","LIN":"6鄰","STREET":" ","SECT":" ","MAREA":"沙崙","LANE":" ","ALLEY":" ","HOUSE_NO":"２６９號","E_COORD97":179605.78,"N_COORD97":2537960.25,"ADDRESS":"沙崙２６９號","OBJECTID":134954},"geometry":{"x":179605.78000000119,"y":2537960.25}},{"attributes":{"ID":134955,"DIS_CODE":0,"TOWNNAME":"歸仁區","LI":"沙崙里","LIN":"6鄰","STREET":" ","SECT":" ","MAREA":"沙崙","LANE":" ","ALLEY":" ","HOUSE_NO":"２７２號","E_COORD97":179583.28,"N_COORD97":2537971.25,"ADDRESS":"沙崙２７２號","OBJECTID":134955},"geometry":{"x":179583.28000000119,"y":2537971.2500000019}},{"attributes":{"ID":134956,"DIS_CODE":0,"TOWNNAME":"歸仁區","LI":"沙崙里","LIN":"6鄰","STREET":" ","SECT":" ","MAREA":"沙崙","LANE":" ","ALLEY":" ","HOUSE_NO":"２８６號","E_COORD97":179659.57999999999,"N_COORD97":2538069.25,"ADDRESS":"沙崙２８６號","OBJECTID":134956},"geometry":{"x":179659.58000000101,"y":2538069.2500000037}},{"attributes":{"ID":134957,"DIS_CODE":0,"TOWNNAME":"玉井區","LI":"豐里里","LIN":"6鄰","STREET":" ","SECT":" ","MAREA":"豐里","LANE":" ","ALLEY":" ","HOUSE_NO":"５９之８號","E_COORD97":193083.26000000001,"N_COORD97":2558118.2999999998,"ADDRESS":"豐里５９之８號","OBJECTID":134957},"geometry":{"x":193083.26000000071,"y":2558118.3000000026}},{"attributes":{"ID":134958,"DIS_CODE":0,"TOWNNAME":"新營區","LI":"南紙里","LIN":"27鄰","STREET":"太子路","SECT":" ","MAREA":" ","LANE":"２００巷","ALLEY":"１０１弄","HOUSE_NO":"１１號","E_COORD97":177801.23000000001,"N_COORD97":2578052.7999999998,"ADDRESS":"太子路２００巷１０１弄１１號","OBJECTID":134958},"geometry":{"x":177801.23000000045,"y":2578052.8000000026}},{"attributes":{"ID":134959,"DIS_CODE":0,"TOWNNAME":"玉井區","LI":"豐里里","LIN":"6鄰","STREET":" ","SECT":" ","MAREA":"豐里","LANE":" ","ALLEY":" ","HOUSE_NO":"６０之２０號","E_COORD97":192749.70999999999,"N_COORD97":2559060.2999999998,"ADDRESS":"豐里６０之２０號","OBJECTID":134959},"geometry":{"x":192749.71000000183,"y":2559060.3000000026}},{"attributes":{"ID":134960,"DIS_CODE":0,"TOWNNAME":"玉井區","LI":"豐里里","LIN":"6鄰","STREET":" ","SECT":" ","MAREA":"豐里","LANE":" ","ALLEY":" ","HOUSE_NO":"６０號之２","E_COORD97":193039.44,"N_COORD97":2558310.29,"ADDRESS":"豐里６０號之２","OBJECTID":134960},"geometry":{"x":193039.44000000041,"y":2558310.2899999991}},{"attributes":{"ID":134961,"DIS_CODE":0,"TOWNNAME":"玉井區","LI":"豐里里","LIN":"6鄰","STREET":" ","SECT":" ","MAREA":"豐里","LANE":" ","ALLEY":" ","HOUSE_NO":"６０號之６","E_COORD97":193035.5,"N_COORD97":2558285.29,"ADDRESS":"豐里６０號之６","OBJECTID":134961},"geometry":{"x":193035.5,"y":2558285.290000001}},{"attributes":{"ID":134962,"DIS_CODE":0,"TOWNNAME":"玉井區","LI":"豐里里","LIN":"6鄰","STREET":" ","SECT":" ","MAREA":"豐里","LANE":" ","ALLEY":" ","HOUSE_NO":"６０之１９號","E_COORD97":192721.91,"N_COORD97":2559085.2999999998,"ADDRESS":"豐里６０之１９號","OBJECTID":134962},"geometry":{"x":192721.91000000108,"y":2559085.3000000007}},{"attributes":{"ID":134963,"DIS_CODE":0,"TOWNNAME":"歸仁區","LI":"西埔里","LIN":"6鄰","STREET":"西埔一街","SECT":" ","MAREA":" ","LANE":" ","ALLEY":" ","HOUSE_NO":"４５號","E_COORD97":177135.01999999999,"N_COORD97":2544268.25,"ADDRESS":"西埔一街４５號","OBJECTID":134963},"geometry":{"x":177135.02000000048,"y":2544268.2500000019}},{"attributes":{"ID":134964,"DIS_CODE":0,"TOWNNAME":"玉井區","LI":"豐里里","LIN":"6鄰","STREET":" ","SECT":" ","MAREA":"豐里","LANE":" ","ALLEY":" ","HOUSE_NO":"６４號","E_COORD97":193055.17000000001,"N_COORD97":2558037.25,"ADDRESS":"豐里６４號","OBJECTID":134964},"geometry":{"x":193055.17000000179,"y":2558037.25}},{"attributes":{"ID":134965,"DIS_CODE":0,"TOWNNAME":"新營區","LI":"南興里","LIN":"27鄰","STREET":"建業路","SECT":" ","MAREA":" ","LANE":"８１巷","ALLEY":"２弄","HOUSE_NO":"１３號","E_COORD97":178523.47,"N_COORD97":2577432.4399999999,"ADDRESS":"建業路８１巷２弄１３號","OBJECTID":134965},"geometry":{"x":178523.4700000016,"y":2577432.4399999995}},{"attributes":{"ID":134966,"DIS_CODE":0,"TOWNNAME":"玉井區","LI":"豐里里","LIN":"6鄰","STREET":" ","SECT":" ","MAREA":"豐里","LANE":" ","ALLEY":" ","HOUSE_NO":"６０號之１","E_COORD97":193082.29999999999,"N_COORD97":2558127.2999999998,"ADDRESS":"豐里６０號之１","OBJECTID":134966},"geometry":{"x":193082.29999999981,"y":2558127.3000000026}},{"attributes":{"ID":134967,"DIS_CODE":0,"TOWNNAME":"玉井區","LI":"望明里","LIN":"6鄰","STREET":" ","SECT":" ","MAREA":"望明","LANE":" ","ALLEY":" ","HOUSE_NO":"６７號","E_COORD97":194246.54000000001,"N_COORD97":2556098.2400000002,"ADDRESS":"望明６７號","OBJECTID":134967},"geometry":{"x":194246.54000000097,"y":2556098.2400000002}},{"attributes":{"ID":134968,"DIS_CODE":0,"TOWNNAME":"玉井區","LI":"望明里","LIN":"6鄰","STREET":" ","SECT":" ","MAREA":"望明","LANE":" ","ALLEY":" ","HOUSE_NO":"６３之２號","E_COORD97":194274.14000000001,"N_COORD97":2556080.2999999998,"ADDRESS":"望明６３之２號","OBJECTID":134968},"geometry":{"x":194274.1400000006,"y":2556080.3000000026}},{"attributes":{"ID":134969,"DIS_CODE":0,"TOWNNAME":"玉井區","LI":"層林里","LIN":"6鄰","STREET":" ","SECT":" ","MAREA":"層林","LANE":" ","ALLEY":" ","HOUSE_NO":"６７號之２","E_COORD97":190350.03,"N_COORD97":2553178.2999999998,"ADDRESS":"層林６７號之２","OBJECTID":134969},"geometry":{"x":190350.03000000026,"y":2553178.3000000026}},{"attributes":{"ID":134970,"DIS_CODE":0,"TOWNNAME":"玉井區","LI":"望明里","LIN":"6鄰","STREET":" ","SECT":" ","MAREA":"望明","LANE":" ","ALLEY":" ","HOUSE_NO":"５６之１號","E_COORD97":194217.54000000001,"N_COORD97":2556127.29,"ADDRESS":"望明５６之１號","OBJECTID":134970},"geometry":{"x":194217.54000000097,"y":2556127.2899999991}},{"attributes":{"ID":134971,"DIS_CODE":0,"TOWNNAME":"玉井區","LI":"望明里","LIN":"6鄰","STREET":" ","SECT":" ","MAREA":"望明","LANE":" ","ALLEY":" ","HOUSE_NO":"６１號","E_COORD97":194224.32999999999,"N_COORD97":2556059.25,"ADDRESS":"望明６１號","OBJECTID":134971},"geometry":{"x":194224.33000000101,"y":2556059.2500000019}},{"attributes":{"ID":134972,"DIS_CODE":0,"TOWNNAME":"永康區","LI":"中興里","LIN":"24鄰","STREET":"中華路","SECT":" ","MAREA":" ","LANE":"２１６巷","ALLEY":"１２弄","HOUSE_NO":"１號之１１","E_COORD97":171782.92999999999,"N_COORD97":2545110.29,"ADDRESS":"中華路２１６巷１２弄１號之１１","OBJECTID":134972},"geometry":{"x":171782.9299999997,"y":2545110.290000001}},{"attributes":{"ID":134973,"DIS_CODE":0,"TOWNNAME":"玉井區","LI":"望明里","LIN":"6鄰","STREET":" ","SECT":" ","MAREA":"望明","LANE":" ","ALLEY":" ","HOUSE_NO":"６３號","E_COORD97":194255.92999999999,"N_COORD97":2556067.25,"ADDRESS":"望明６３號","OBJECTID":134973},"geometry":{"x":194255.9299999997,"y":2556067.25}},{"attributes":{"ID":134974,"DIS_CODE":0,"TOWNNAME":"玉井區","LI":"層林里","LIN":"6鄰","STREET":" ","SECT":" ","MAREA":"層林","LANE":" ","ALLEY":" ","HOUSE_NO":"６７號之３","E_COORD97":190391.39999999999,"N_COORD97":2553095.29,"ADDRESS":"層林６７號之３","OBJECTID":134974},"geometry":{"x":190391.4000000013,"y":2553095.290000001}},{"attributes":{"ID":134975,"DIS_CODE":0,"TOWNNAME":"永康區","LI":"中興里","LIN":"6鄰","STREET":"中華一路","SECT":" ","MAREA":" ","LANE":"５８巷","ALLEY":"６弄","HOUSE_NO":"１號","E_COORD97":171866.03,"N_COORD97":2545033.4900000002,"ADDRESS":"中華一路５８巷６弄１號","OBJECTID":134975},"geometry":{"x":171866.03000000026,"y":2545033.4900000002}},{"attributes":{"ID":134976,"DIS_CODE":0,"TOWNNAME":"玉井區","LI":"望明里","LIN":"6鄰","STREET":" ","SECT":" ","MAREA":"望明","LANE":" ","ALLEY":" ","HOUSE_NO":"５８號","E_COORD97":194285.34,"N_COORD97":2556092.2400000002,"ADDRESS":"望明５８號","OBJECTID":134976},"geometry":{"x":194285.34000000078,"y":2556092.2400000002}},{"attributes":{"ID":134977,"DIS_CODE":0,"TOWNNAME":"玉井區","LI":"望明里","LIN":"6鄰","STREET":" ","SECT":" ","MAREA":"望明","LANE":" ","ALLEY":" ","HOUSE_NO":"６８號","E_COORD97":194241.73000000001,"N_COORD97":2556138.2400000002,"ADDRESS":"望明６８號","OBJECTID":134977},"geometry":{"x":194241.72999999952,"y":2556138.2400000021}},{"attributes":{"ID":134978,"DIS_CODE":0,"TOWNNAME":"玉井區","LI":"三和里","LIN":"6鄰","STREET":" ","SECT":" ","MAREA":"三和","LANE":" ","ALLEY":" ","HOUSE_NO":"６６之６號","E_COORD97":194901.73000000001,"N_COORD97":2555659.2999999998,"ADDRESS":"三和６６之６號","OBJECTID":134978},"geometry":{"x":194901.73000000138,"y":2555659.3000000026}},{"attributes":{"ID":134979,"DIS_CODE":0,"TOWNNAME":"玉井區","LI":"三和里","LIN":"6鄰","STREET":" ","SECT":" ","MAREA":"三和","LANE":" ","ALLEY":" ","HOUSE_NO":"６６號之１８","E_COORD97":194922.87,"N_COORD97":2555691.29,"ADDRESS":"三和６６號之１８","OBJECTID":134979},"geometry":{"x":194922.87000000011,"y":2555691.2900000028}},{"attributes":{"ID":134980,"DIS_CODE":0,"TOWNNAME":"玉井區","LI":"三和里","LIN":"6鄰","STREET":" ","SECT":" ","MAREA":"三和","LANE":" ","ALLEY":" ","HOUSE_NO":"６５之３號","E_COORD97":194891.04000000001,"N_COORD97":2555616.29,"ADDRESS":"三和６５之３號","OBJECTID":134980},"geometry":{"x":194891.04000000097,"y":2555616.2899999972}},{"attributes":{"ID":134981,"DIS_CODE":0,"TOWNNAME":"玉井區","LI":"中正里","LIN":"6鄰","STREET":"大埕街","SECT":" ","MAREA":" ","LANE":" ","ALLEY":" ","HOUSE_NO":"８９號","E_COORD97":195412.60999999999,"N_COORD97":2558806.2400000002,"ADDRESS":"大埕街８９號","OBJECTID":134981},"geometry":{"x":195412.61000000127,"y":2558806.2400000021}},{"attributes":{"ID":134982,"DIS_CODE":0,"TOWNNAME":"永康區","LI":"大橋里","LIN":"20鄰","STREET":"大橋一街","SECT":" ","MAREA":" ","LANE":"１３９巷","ALLEY":"４４弄","HOUSE_NO":"５０號","E_COORD97":171060.20000000001,"N_COORD97":2546666.29,"ADDRESS":"大橋一街１３９巷４４弄５０號","OBJECTID":134982},"geometry":{"x":171060.20000000112,"y":2546666.290000001}},{"attributes":{"ID":134983,"DIS_CODE":0,"TOWNNAME":"永康區","LI":"五王里","LIN":"13鄰","STREET":"中華二路","SECT":" ","MAREA":" ","LANE":"２０６巷","ALLEY":"６８弄","HOUSE_NO":"１１９號","E_COORD97":171670.88,"N_COORD97":2545723.25,"ADDRESS":"中華二路２０６巷６８弄１１９號","OBJECTID":134983},"geometry":{"x":171670.88000000082,"y":2545723.25}},{"attributes":{"ID":134984,"DIS_CODE":0,"TOWNNAME":"玉井區","LI":"玉井里","LIN":"6鄰","STREET":"樹糖街","SECT":" ","MAREA":" ","LANE":" ","ALLEY":" ","HOUSE_NO":"１１號","E_COORD97":194680.73999999999,"N_COORD97":2558277.2400000002,"ADDRESS":"樹糖街１１號","OBJECTID":134984},"geometry":{"x":194680.74000000115,"y":2558277.2400000021}},{"attributes":{"ID":134985,"DIS_CODE":0,"TOWNNAME":"玉井區","LI":"三和里","LIN":"6鄰","STREET":" ","SECT":" ","MAREA":"三和","LANE":" ","ALLEY":" ","HOUSE_NO":"６５之１號","E_COORD97":194899.84,"N_COORD97":2555629.2999999998,"ADDRESS":"三和６５之１號","OBJECTID":134985},"geometry":{"x":194899.84000000171,"y":2555629.3000000026}},{"attributes":{"ID":134986,"DIS_CODE":0,"TOWNNAME":"玉井區","LI":"三和里","LIN":"6鄰","STREET":" ","SECT":" ","MAREA":"三和","LANE":" ","ALLEY":" ","HOUSE_NO":"６６之２０號","E_COORD97":194925.17999999999,"N_COORD97":2555709.29,"ADDRESS":"三和６６之２０號","OBJECTID":134986},"geometry":{"x":194925.18000000063,"y":2555709.290000001}},{"attributes":{"ID":134987,"DIS_CODE":0,"TOWNNAME":"玉井區","LI":"三和里","LIN":"6鄰","STREET":" ","SECT":" ","MAREA":"三和","LANE":" ","ALLEY":" ","HOUSE_NO":"６６之２２號","E_COORD97":194924.59,"N_COORD97":2555720.29,"ADDRESS":"三和６６之２２號","OBJECTID":134987},"geometry":{"x":194924.58999999985,"y":2555720.2899999991}},{"attributes":{"ID":134988,"DIS_CODE":0,"TOWNNAME":"玉井區","LI":"三和里","LIN":"6鄰","STREET":" ","SECT":" ","MAREA":"三和","LANE":" ","ALLEY":" ","HOUSE_NO":"６４號","E_COORD97":194907.04000000001,"N_COORD97":2555597.2400000002,"ADDRESS":"三和６４號","OBJECTID":134988},"geometry":{"x":194907.04000000004,"y":2555597.2400000002}},{"attributes":{"ID":134989,"DIS_CODE":0,"TOWNNAME":"玉井區","LI":"三和里","LIN":"6鄰","STREET":" ","SECT":" ","MAREA":"三和","LANE":" ","ALLEY":" ","HOUSE_NO":"６４之１號","E_COORD97":194890.42999999999,"N_COORD97":2555594.29,"ADDRESS":"三和６４之１號","OBJECTID":134989},"geometry":{"x":194890.4299999997,"y":2555594.290000001}},{"attributes":{"ID":134990,"DIS_CODE":0,"TOWNNAME":"玉井區","LI":"三和里","LIN":"6鄰","STREET":" ","SECT":" ","MAREA":"三和","LANE":" ","ALLEY":" ","HOUSE_NO":"６６之４號","E_COORD97":194858.14000000001,"N_COORD97":2555731.2999999998,"ADDRESS":"三和６６之４號","OBJECTID":134990},"geometry":{"x":194858.13999999966,"y":2555731.3000000026}},{"attributes":{"ID":134991,"DIS_CODE":0,"TOWNNAME":"玉井區","LI":"三和里","LIN":"6鄰","STREET":" ","SECT":" ","MAREA":"三和","LANE":" ","ALLEY":" ","HOUSE_NO":"７４號","E_COORD97":194930.23000000001,"N_COORD97":2555570.2400000002,"ADDRESS":"三和７４號","OBJECTID":134991},"geometry":{"x":194930.23000000231,"y":2555570.2399999984}},{"attributes":{"ID":134992,"DIS_CODE":0,"TOWNNAME":"玉井區","LI":"三和里","LIN":"6鄰","STREET":" ","SECT":" ","MAREA":"三和","LANE":" ","ALLEY":" ","HOUSE_NO":"６３號之２","E_COORD97":194907.39999999999,"N_COORD97":2555567.2999999998,"ADDRESS":"三和６３號之２","OBJECTID":134992},"geometry":{"x":194907.4000000013,"y":2555567.3000000045}},{"attributes":{"ID":134993,"DIS_CODE":0,"TOWNNAME":"玉井區","LI":"三和里","LIN":"6鄰","STREET":" ","SECT":" ","MAREA":"三和","LANE":" ","ALLEY":" ","HOUSE_NO":"６６之２號","E_COORD97":194872.54000000001,"N_COORD97":2555697.29,"ADDRESS":"三和６６之２號","OBJECTID":134993},"geometry":{"x":194872.54000000004,"y":2555697.2899999991}},{"attributes":{"ID":134994,"DIS_CODE":0,"TOWNNAME":"玉井區","LI":"三和里","LIN":"6鄰","STREET":" ","SECT":" ","MAREA":"三和","LANE":" ","ALLEY":" ","HOUSE_NO":"６６之２３號","E_COORD97":194929.88,"N_COORD97":2555735.2999999998,"ADDRESS":"三和６６之２３號","OBJECTID":134994},"geometry":{"x":194929.87999999989,"y":2555735.3000000007}},{"attributes":{"ID":134995,"DIS_CODE":0,"TOWNNAME":"玉井區","LI":"三和里","LIN":"6鄰","STREET":" ","SECT":" ","MAREA":"三和","LANE":" ","ALLEY":" ","HOUSE_NO":"６６之２１號","E_COORD97":194924.59,"N_COORD97":2555715.29,"ADDRESS":"三和６６之２１號","OBJECTID":134995},"geometry":{"x":194924.58999999985,"y":2555715.290000001}},{"attributes":{"ID":134996,"DIS_CODE":0,"TOWNNAME":"玉井區","LI":"三和里","LIN":"6鄰","STREET":" ","SECT":" ","MAREA":"三和","LANE":" ","ALLEY":" ","HOUSE_NO":"６６號之１９","E_COORD97":194924.60999999999,"N_COORD97":2555704.29,"ADDRESS":"三和６６號之１９","OBJECTID":134996},"geometry":{"x":194924.61000000127,"y":2555704.2899999991}},{"attributes":{"ID":134997,"DIS_CODE":0,"TOWNNAME":"東山區","LI":"南溪里","LIN":"6鄰","STREET":" ","SECT":" ","MAREA":"二重溪","LANE":" ","ALLEY":" ","HOUSE_NO":"６６號","E_COORD97":188407.94,"N_COORD97":2574850.5600000001,"ADDRESS":"二重溪６６號","OBJECTID":134997},"geometry":{"x":188407.94000000134,"y":2574850.5600000024}},{"attributes":{"ID":134998,"DIS_CODE":0,"TOWNNAME":"東山區","LI":"南溪里","LIN":"6鄰","STREET":" ","SECT":" ","MAREA":"二重溪","LANE":" ","ALLEY":" ","HOUSE_NO":"６７號之１","E_COORD97":188391.19,"N_COORD97":2574870.23,"ADDRESS":"二重溪６７號之１","OBJECTID":134998},"geometry":{"x":188391.19000000041,"y":2574870.2300000023}},{"attributes":{"ID":134999,"DIS_CODE":0,"TOWNNAME":"東山區","LI":"南溪里","LIN":"6鄰","STREET":" ","SECT":" ","MAREA":"二重溪","LANE":" ","ALLEY":" ","HOUSE_NO":"６７號","E_COORD97":188424.32000000001,"N_COORD97":2574863.54,"ADDRESS":"二重溪６７號","OBJECTID":134999},"geometry":{"x":188424.3200000003,"y":2574863.540000001}},{"attributes":{"ID":135000,"DIS_CODE":0,"TOWNNAME":"東山區","LI":"南溪里","LIN":"6鄰","STREET":" ","SECT":" ","MAREA":"二重溪","LANE":" ","ALLEY":" ","HOUSE_NO":"７７號","E_COORD97":188454.04999999999,"N_COORD97":2574811.3599999999,"ADDRESS":"二重溪７７號","OBJECTID":135000},"geometry":{"x":188454.05000000075,"y":2574811.3599999994}}]}