{"displayFieldName":"TOWNNAME","fieldAliases":{"ID":"ID","DIS_CODE":"DIS_CODE","TOWNNAME":"TOWNNAME","LI":"LI","LIN":"LIN","STREET":"STREET","SECT":"SECT","MAREA":"MAREA","LANE":"LANE","ALLEY":"ALLEY","HOUSE_NO":"HOUSE_NO","E_COORD97":"E_COORD97","N_COORD97":"N_COORD97","ADDRESS":"ADDRESS","OBJECTID":"OBJECTID"},"geometryType":"esriGeometryPoint","spatialReference":{"wkid":102443,"latestWkid":3826},"fields":[{"name":"ID","type":"esriFieldTypeDouble","alias":"ID"},{"name":"DIS_CODE","type":"esriFieldTypeInteger","alias":"DIS_CODE"},{"name":"TOWNNAME","type":"esriFieldTypeString","alias":"TOWNNAME","length":8},{"name":"LI","type":"esriFieldTypeString","alias":"LI","length":8},{"name":"LIN","type":"esriFieldTypeString","alias":"LIN","length":12},{"name":"STREET","type":"esriFieldTypeString","alias":"STREET","length":20},{"name":"SECT","type":"esriFieldTypeString","alias":"SECT","length":8},{"name":"MAREA","type":"esriFieldTypeString","alias":"MAREA","length":12},{"name":"LANE","type":"esriFieldTypeString","alias":"LANE","length":10},{"name":"ALLEY","type":"esriFieldTypeString","alias":"ALLEY","length":10},{"name":"HOUSE_NO","type":"esriFieldTypeString","alias":"HOUSE_NO","length":20},{"name":"E_COORD97","type":"esriFieldTypeDouble","alias":"E_COORD97"},{"name":"N_COORD97","type":"esriFieldTypeDouble","alias":"N_COORD97"},{"name":"ADDRESS","type":"esriFieldTypeString","alias":"ADDRESS","length":50},{"name":"OBJECTID","type":"esriFieldTypeOID","alias":"OBJECTID"}],"features":[{"attributes":{"ID":233205,"DIS_CODE":0,"TOWNNAME":"中西區","LI":"中正里","LIN":"10鄰","STREET":"正德街","SECT":" ","MAREA":" ","LANE":"４０巷","ALLEY":" ","HOUSE_NO":"６號","E_COORD97":167543.63,"N_COORD97":2543864.0899999999,"ADDRESS":"正德街４０巷６號","OBJECTID":233201},"geometry":{"x":167543.62999999989,"y":2543864.0900000036}},{"attributes":{"ID":233206,"DIS_CODE":0,"TOWNNAME":"中西區","LI":"中正里","LIN":"10鄰","STREET":"正德街","SECT":" ","MAREA":" ","LANE":"４０巷","ALLEY":" ","HOUSE_NO":"８號","E_COORD97":167547.92000000001,"N_COORD97":2543863.6600000001,"ADDRESS":"正德街４０巷８號","OBJECTID":233202},"geometry":{"x":167547.92000000086,"y":2543863.6600000001}},{"attributes":{"ID":233207,"DIS_CODE":0,"TOWNNAME":"中西區","LI":"中正里","LIN":"10鄰","STREET":"正德街","SECT":" ","MAREA":" ","LANE":"４０巷","ALLEY":" ","HOUSE_NO":"１１號","E_COORD97":167554.47,"N_COORD97":2543870.4900000002,"ADDRESS":"正德街４０巷１１號","OBJECTID":233203},"geometry":{"x":167554.47000000067,"y":2543870.4900000002}},{"attributes":{"ID":233208,"DIS_CODE":0,"TOWNNAME":"中西區","LI":"中正里","LIN":"10鄰","STREET":"正德街","SECT":" ","MAREA":" ","LANE":"４０巷","ALLEY":" ","HOUSE_NO":"１號","E_COORD97":167536.64999999999,"N_COORD97":2543874.5699999998,"ADDRESS":"正德街４０巷１號","OBJECTID":233204},"geometry":{"x":167536.6500000013,"y":2543874.5700000003}},{"attributes":{"ID":233209,"DIS_CODE":0,"TOWNNAME":"中西區","LI":"中正里","LIN":"10鄰","STREET":"正德街","SECT":" ","MAREA":" ","LANE":"４０巷","ALLEY":" ","HOUSE_NO":"３號","E_COORD97":167540.20000000001,"N_COORD97":2543873.6000000001,"ADDRESS":"正德街４０巷３號","OBJECTID":233205},"geometry":{"x":167540.20000000019,"y":2543873.5999999996}},{"attributes":{"ID":233210,"DIS_CODE":0,"TOWNNAME":"中西區","LI":"中正里","LIN":"11鄰","STREET":"海安路","SECT":" ","MAREA":" ","LANE":"２２５巷","ALLEY":" ","HOUSE_NO":"１３號","E_COORD97":167564.38,"N_COORD97":2543932.02,"ADDRESS":"海安路２２５巷１３號","OBJECTID":233206},"geometry":{"x":167564.37999999989,"y":2543932.0200000033}},{"attributes":{"ID":233211,"DIS_CODE":0,"TOWNNAME":"中西區","LI":"中正里","LIN":"11鄰","STREET":"海安路","SECT":" ","MAREA":" ","LANE":"２２５巷","ALLEY":" ","HOUSE_NO":"１５號","E_COORD97":167561.31,"N_COORD97":2543931.7799999998,"ADDRESS":"海安路２２５巷１５號","OBJECTID":233207},"geometry":{"x":167561.30999999959,"y":2543931.7800000012}},{"attributes":{"ID":233212,"DIS_CODE":0,"TOWNNAME":"中西區","LI":"中正里","LIN":"11鄰","STREET":"海安路","SECT":" ","MAREA":" ","LANE":"２２５巷","ALLEY":" ","HOUSE_NO":"９號","E_COORD97":167572.07000000001,"N_COORD97":2543931.3100000001,"ADDRESS":"海安路２２５巷９號","OBJECTID":233208},"geometry":{"x":167572.0700000003,"y":2543931.3100000042}},{"attributes":{"ID":233213,"DIS_CODE":0,"TOWNNAME":"中西區","LI":"中正里","LIN":"10鄰","STREET":"海安路","SECT":" ","MAREA":" ","LANE":"１９７巷","ALLEY":" ","HOUSE_NO":"１０號","E_COORD97":167564.12,"N_COORD97":2543900.5600000001,"ADDRESS":"海安路１９７巷１０號","OBJECTID":233209},"geometry":{"x":167564.12000000104,"y":2543900.5600000024}},{"attributes":{"ID":233214,"DIS_CODE":0,"TOWNNAME":"中西區","LI":"中正里","LIN":"10鄰","STREET":"海安路","SECT":" ","MAREA":" ","LANE":"１９７巷","ALLEY":" ","HOUSE_NO":"１２號","E_COORD97":167558.20000000001,"N_COORD97":2543891.1099999999,"ADDRESS":"海安路１９７巷１２號","OBJECTID":233210},"geometry":{"x":167558.20000000112,"y":2543891.1100000013}},{"attributes":{"ID":233215,"DIS_CODE":0,"TOWNNAME":"中西區","LI":"中正里","LIN":"11鄰","STREET":"海安路","SECT":" ","MAREA":" ","LANE":"２３９巷","ALLEY":" ","HOUSE_NO":"２１號","E_COORD97":167586.01000000001,"N_COORD97":2543962.21,"ADDRESS":"海安路２３９巷２１號","OBJECTID":233211},"geometry":{"x":167586.01000000071,"y":2543962.2100000009}},{"attributes":{"ID":233216,"DIS_CODE":0,"TOWNNAME":"中西區","LI":"中正里","LIN":"11鄰","STREET":"海安路","SECT":" ","MAREA":" ","LANE":"２３９巷","ALLEY":" ","HOUSE_NO":"２７號","E_COORD97":167571.48000000001,"N_COORD97":2543952.5600000001,"ADDRESS":"海安路２３９巷２７號","OBJECTID":233212},"geometry":{"x":167571.48000000231,"y":2543952.5600000005}},{"attributes":{"ID":233217,"DIS_CODE":0,"TOWNNAME":"安南區","LI":"安富里","LIN":"2鄰","STREET":"郡安路","SECT":"五段","MAREA":" ","LANE":"１８４巷","ALLEY":" ","HOUSE_NO":"１６號","E_COORD97":167465.47,"N_COORD97":2547703.25,"ADDRESS":"郡安路五段１８４巷１６號","OBJECTID":233213},"geometry":{"x":167465.46999999974,"y":2547703.25}},{"attributes":{"ID":233218,"DIS_CODE":0,"TOWNNAME":"安南區","LI":"安富里","LIN":"2鄰","STREET":"郡安路","SECT":"五段","MAREA":" ","LANE":"１８４巷","ALLEY":" ","HOUSE_NO":"２號","E_COORD97":167460.19,"N_COORD97":2547736.3300000001,"ADDRESS":"郡安路五段１８４巷２號","OBJECTID":233214},"geometry":{"x":167460.19000000134,"y":2547736.3300000001}},{"attributes":{"ID":233219,"DIS_CODE":0,"TOWNNAME":"安南區","LI":"安富里","LIN":"2鄰","STREET":"郡安路","SECT":"五段","MAREA":" ","LANE":"１８４巷","ALLEY":" ","HOUSE_NO":"４號","E_COORD97":167460.88,"N_COORD97":2547731.98,"ADDRESS":"郡安路五段１８４巷４號","OBJECTID":233215},"geometry":{"x":167460.87999999989,"y":2547731.9800000023}},{"attributes":{"ID":233220,"DIS_CODE":0,"TOWNNAME":"安南區","LI":"安富里","LIN":"2鄰","STREET":"郡安路","SECT":"五段","MAREA":" ","LANE":"１８４巷","ALLEY":" ","HOUSE_NO":"８號","E_COORD97":167463.63,"N_COORD97":2547722.3599999999,"ADDRESS":"郡安路五段１８４巷８號","OBJECTID":233216},"geometry":{"x":167463.63000000082,"y":2547722.3599999994}},{"attributes":{"ID":233221,"DIS_CODE":0,"TOWNNAME":"安南區","LI":"公\u25A0里","LIN":"2鄰","STREET":"安興街","SECT":" ","MAREA":" ","LANE":"４３巷","ALLEY":" ","HOUSE_NO":"１１號","E_COORD97":164352.01999999999,"N_COORD97":2552212.5299999998,"ADDRESS":"安興街４３巷１１號","OBJECTID":233217},"geometry":{"x":164352.01999999955,"y":2552212.5300000012}},{"attributes":{"ID":233222,"DIS_CODE":0,"TOWNNAME":"安南區","LI":"理想里","LIN":"2鄰","STREET":"同安路","SECT":" ","MAREA":" ","LANE":"５２巷","ALLEY":" ","HOUSE_NO":"３６號","E_COORD97":166936.87,"N_COORD97":2548744.4300000002,"ADDRESS":"同安路５２巷３６號","OBJECTID":233218},"geometry":{"x":166936.87000000104,"y":2548744.4300000016}},{"attributes":{"ID":233223,"DIS_CODE":0,"TOWNNAME":"安南區","LI":"理想里","LIN":"2鄰","STREET":"同安路","SECT":" ","MAREA":" ","LANE":"５２巷","ALLEY":" ","HOUSE_NO":"５６號","E_COORD97":166960.89999999999,"N_COORD97":2548706.2200000002,"ADDRESS":"同安路５２巷５６號","OBJECTID":233219},"geometry":{"x":166960.90000000037,"y":2548706.2200000025}},{"attributes":{"ID":233224,"DIS_CODE":0,"TOWNNAME":"安南區","LI":"淵東里","LIN":"2鄰","STREET":"海佃路","SECT":"四段","MAREA":" ","LANE":"５５巷","ALLEY":" ","HOUSE_NO":"５６號","E_COORD97":165532.26999999999,"N_COORD97":2550557.21,"ADDRESS":"海佃路四段５５巷５６號","OBJECTID":233220},"geometry":{"x":165532.26999999955,"y":2550557.2100000046}},{"attributes":{"ID":233225,"DIS_CODE":0,"TOWNNAME":"安南區","LI":"淵東里","LIN":"2鄰","STREET":"海佃路","SECT":"四段","MAREA":" ","LANE":"５５巷","ALLEY":" ","HOUSE_NO":"５８號","E_COORD97":165528.26999999999,"N_COORD97":2550556.21,"ADDRESS":"海佃路四段５５巷５８號","OBJECTID":233221},"geometry":{"x":165528.27000000048,"y":2550556.2100000009}},{"attributes":{"ID":233226,"DIS_CODE":0,"TOWNNAME":"仁德區","LI":"太子里","LIN":"2鄰","STREET":"太子路","SECT":" ","MAREA":" ","LANE":"１９０巷","ALLEY":" ","HOUSE_NO":"１號","E_COORD97":174317.07999999999,"N_COORD97":2543535.0099999998,"ADDRESS":"太子路１９０巷１號","OBJECTID":233222},"geometry":{"x":174317.07999999914,"y":2543535.0099999998}},{"attributes":{"ID":233227,"DIS_CODE":0,"TOWNNAME":"安南區","LI":"鳳凰里","LIN":"2鄰","STREET":"怡安路","SECT":"二段","MAREA":" ","LANE":"５９巷","ALLEY":" ","HOUSE_NO":"１５號","E_COORD97":168282.10000000001,"N_COORD97":2549199.27,"ADDRESS":"怡安路二段５９巷１５號","OBJECTID":233223},"geometry":{"x":168282.10000000056,"y":2549199.2700000033}},{"attributes":{"ID":233228,"DIS_CODE":0,"TOWNNAME":"歸仁區","LI":"辜厝里","LIN":"48鄰","STREET":"中正十街","SECT":" ","MAREA":" ","LANE":"３６巷","ALLEY":" ","HOUSE_NO":"３號","E_COORD97":177024.67000000001,"N_COORD97":2540258.8599999999,"ADDRESS":"中正十街３６巷３號","OBJECTID":233224},"geometry":{"x":177024.66999999993,"y":2540258.8600000013}},{"attributes":{"ID":233229,"DIS_CODE":0,"TOWNNAME":"仁德區","LI":"太子里","LIN":"2鄰","STREET":"太子路","SECT":" ","MAREA":" ","LANE":"１９０巷","ALLEY":" ","HOUSE_NO":"１之１號","E_COORD97":174319.20999999999,"N_COORD97":2543528.7999999998,"ADDRESS":"太子路１９０巷１之１號","OBJECTID":233225},"geometry":{"x":174319.20999999996,"y":2543528.8000000026}},{"attributes":{"ID":233230,"DIS_CODE":0,"TOWNNAME":"東區","LI":"崇善里","LIN":"23鄰","STREET":"崇善十二街","SECT":" ","MAREA":" ","LANE":"９９巷","ALLEY":" ","HOUSE_NO":"１０號","E_COORD97":171386.66,"N_COORD97":2541198.6000000001,"ADDRESS":"崇善十二街９９巷１０號","OBJECTID":233226},"geometry":{"x":171386.66000000015,"y":2541198.5999999996}},{"attributes":{"ID":233231,"DIS_CODE":0,"TOWNNAME":"東區","LI":"崇善里","LIN":"23鄰","STREET":"崇善十二街","SECT":" ","MAREA":" ","LANE":"９９巷","ALLEY":" ","HOUSE_NO":"１２號","E_COORD97":171383.48000000001,"N_COORD97":2541200.98,"ADDRESS":"崇善十二街９９巷１２號","OBJECTID":233227},"geometry":{"x":171383.48000000045,"y":2541200.9800000023}},{"attributes":{"ID":233232,"DIS_CODE":0,"TOWNNAME":"歸仁區","LI":"新厝里","LIN":"2鄰","STREET":"中正一街","SECT":" ","MAREA":" ","LANE":"１６巷","ALLEY":" ","HOUSE_NO":"１號","E_COORD97":177678.25,"N_COORD97":2540683.2400000002,"ADDRESS":"中正一街１６巷１號","OBJECTID":233228},"geometry":{"x":177678.25000000093,"y":2540683.2400000039}},{"attributes":{"ID":233233,"DIS_CODE":0,"TOWNNAME":"東區","LI":"崇善里","LIN":"23鄰","STREET":"崇善十二街","SECT":" ","MAREA":" ","LANE":"９９巷","ALLEY":" ","HOUSE_NO":"１４號","E_COORD97":171381.09,"N_COORD97":2541204.1600000001,"ADDRESS":"崇善十二街９９巷１４號","OBJECTID":233229},"geometry":{"x":171381.09000000078,"y":2541204.160000002}},{"attributes":{"ID":233234,"DIS_CODE":0,"TOWNNAME":"東區","LI":"崇善里","LIN":"23鄰","STREET":"崇善十二街","SECT":" ","MAREA":" ","LANE":"９９巷","ALLEY":" ","HOUSE_NO":"１６號","E_COORD97":171378.45000000001,"N_COORD97":2541208.1299999999,"ADDRESS":"崇善十二街９９巷１６號","OBJECTID":233230},"geometry":{"x":171378.45000000019,"y":2541208.1300000027}},{"attributes":{"ID":233235,"DIS_CODE":0,"TOWNNAME":"東區","LI":"崇善里","LIN":"23鄰","STREET":"崇善十二街","SECT":" ","MAREA":" ","LANE":"９９巷","ALLEY":" ","HOUSE_NO":"１８號","E_COORD97":171376.32999999999,"N_COORD97":2541211.04,"ADDRESS":"崇善十二街９９巷１８號","OBJECTID":233231},"geometry":{"x":171376.33000000101,"y":2541211.0399999991}},{"attributes":{"ID":233236,"DIS_CODE":0,"TOWNNAME":"東區","LI":"崇善里","LIN":"23鄰","STREET":"崇善十二街","SECT":" ","MAREA":" ","LANE":"９９巷","ALLEY":" ","HOUSE_NO":"８號","E_COORD97":171388.25,"N_COORD97":2541195.4300000002,"ADDRESS":"崇善十二街９９巷８號","OBJECTID":233232},"geometry":{"x":171388.25,"y":2541195.4299999997}},{"attributes":{"ID":233237,"DIS_CODE":0,"TOWNNAME":"仁德區","LI":"太子里","LIN":"2鄰","STREET":"太子路","SECT":" ","MAREA":" ","LANE":"１９０巷","ALLEY":" ","HOUSE_NO":"１３號","E_COORD97":174316.82000000001,"N_COORD97":2543564.75,"ADDRESS":"太子路１９０巷１３號","OBJECTID":233233},"geometry":{"x":174316.8200000003,"y":2543564.7500000037}},{"attributes":{"ID":233238,"DIS_CODE":0,"TOWNNAME":"仁德區","LI":"仁德里","LIN":"2鄰","STREET":"仁德五街","SECT":" ","MAREA":" ","LANE":"１１巷","ALLEY":" ","HOUSE_NO":"２４號","E_COORD97":173381.28,"N_COORD97":2540115.27,"ADDRESS":"仁德五街１１巷２４號","OBJECTID":233234},"geometry":{"x":173381.28000000026,"y":2540115.2699999996}},{"attributes":{"ID":233239,"DIS_CODE":0,"TOWNNAME":"仁德區","LI":"仁德里","LIN":"2鄰","STREET":"仁德五街","SECT":" ","MAREA":" ","LANE":"１１巷","ALLEY":" ","HOUSE_NO":"５號","E_COORD97":173409.35999999999,"N_COORD97":2540189.77,"ADDRESS":"仁德五街１１巷５號","OBJECTID":233235},"geometry":{"x":173409.36000000127,"y":2540189.7699999996}},{"attributes":{"ID":233240,"DIS_CODE":0,"TOWNNAME":"中西區","LI":"民主里","LIN":"5鄰","STREET":"友愛街","SECT":" ","MAREA":" ","LANE":"３３１巷","ALLEY":" ","HOUSE_NO":"４號","E_COORD97":167459.06,"N_COORD97":2543634.6299999999,"ADDRESS":"友愛街３３１巷４號","OBJECTID":233236},"geometry":{"x":167459.05999999959,"y":2543634.629999999}},{"attributes":{"ID":233241,"DIS_CODE":0,"TOWNNAME":"中西區","LI":"民主里","LIN":"5鄰","STREET":"友愛街","SECT":" ","MAREA":" ","LANE":"３３１巷","ALLEY":" ","HOUSE_NO":"６號","E_COORD97":167457.66,"N_COORD97":2543630.4500000002,"ADDRESS":"友愛街３３１巷６號","OBJECTID":233237},"geometry":{"x":167457.66000000015,"y":2543630.450000003}},{"attributes":{"ID":233242,"DIS_CODE":0,"TOWNNAME":"安南區","LI":"理想里","LIN":"2鄰","STREET":"同安路","SECT":" ","MAREA":" ","LANE":"５２巷","ALLEY":" ","HOUSE_NO":"５２號","E_COORD97":166955.88,"N_COORD97":2548713.3199999998,"ADDRESS":"同安路５２巷５２號","OBJECTID":233238},"geometry":{"x":166955.87999999989,"y":2548713.3200000003}},{"attributes":{"ID":233243,"DIS_CODE":0,"TOWNNAME":"安南區","LI":"理想里","LIN":"2鄰","STREET":"同安路","SECT":" ","MAREA":" ","LANE":"５２巷","ALLEY":" ","HOUSE_NO":"５３號","E_COORD97":166981.92000000001,"N_COORD97":2548724.0299999998,"ADDRESS":"同安路５２巷５３號","OBJECTID":233239},"geometry":{"x":166981.92000000086,"y":2548724.0300000012}},{"attributes":{"ID":233244,"DIS_CODE":0,"TOWNNAME":"安定區","LI":"蘇林里","LIN":"23鄰","STREET":" ","SECT":" ","MAREA":"蘇厝","LANE":" ","ALLEY":" ","HOUSE_NO":"２６０號","E_COORD97":173357.22,"N_COORD97":2558693.25,"ADDRESS":"蘇厝２６０號","OBJECTID":233240},"geometry":{"x":173357.22000000067,"y":2558693.2500000019}},{"attributes":{"ID":233245,"DIS_CODE":0,"TOWNNAME":"中西區","LI":"協和里","LIN":"14鄰","STREET":"中和街","SECT":" ","MAREA":" ","LANE":" ","ALLEY":" ","HOUSE_NO":"１３３號","E_COORD97":167162.92999999999,"N_COORD97":2544688.5600000001,"ADDRESS":"中和街１３３號","OBJECTID":233241},"geometry":{"x":167162.93000000063,"y":2544688.5600000005}},{"attributes":{"ID":233246,"DIS_CODE":0,"TOWNNAME":"中西區","LI":"協和里","LIN":"14鄰","STREET":"中和街","SECT":" ","MAREA":" ","LANE":" ","ALLEY":" ","HOUSE_NO":"１３７號","E_COORD97":167171.79000000001,"N_COORD97":2544699.2200000002,"ADDRESS":"中和街１３７號","OBJECTID":233242},"geometry":{"x":167171.79000000004,"y":2544699.2200000025}},{"attributes":{"ID":233247,"DIS_CODE":0,"TOWNNAME":"中西區","LI":"協和里","LIN":"14鄰","STREET":"中和街","SECT":" ","MAREA":" ","LANE":" ","ALLEY":" ","HOUSE_NO":"１４１號","E_COORD97":167180.62,"N_COORD97":2544701.7999999998,"ADDRESS":"中和街１４１號","OBJECTID":233243},"geometry":{"x":167180.62000000104,"y":2544701.8000000026}},{"attributes":{"ID":233248,"DIS_CODE":0,"TOWNNAME":"中西區","LI":"協和里","LIN":"14鄰","STREET":"中和街","SECT":" ","MAREA":" ","LANE":" ","ALLEY":" ","HOUSE_NO":"１４３號","E_COORD97":167183.29999999999,"N_COORD97":2544704.1800000002,"ADDRESS":"中和街１４３號","OBJECTID":233244},"geometry":{"x":167183.29999999981,"y":2544704.1800000034}},{"attributes":{"ID":233249,"DIS_CODE":0,"TOWNNAME":"中西區","LI":"協和里","LIN":"14鄰","STREET":"中和街","SECT":" ","MAREA":" ","LANE":" ","ALLEY":" ","HOUSE_NO":"１４５號","E_COORD97":167185.78,"N_COORD97":2544707.25,"ADDRESS":"中和街１４５號","OBJECTID":233245},"geometry":{"x":167185.78000000026,"y":2544707.2499999981}},{"attributes":{"ID":233250,"DIS_CODE":0,"TOWNNAME":"中西區","LI":"協和里","LIN":"14鄰","STREET":"永和街","SECT":" ","MAREA":" ","LANE":" ","ALLEY":" ","HOUSE_NO":"１１６號","E_COORD97":167121.60999999999,"N_COORD97":2544680.7400000002,"ADDRESS":"永和街１１６號","OBJECTID":233246},"geometry":{"x":167121.61000000127,"y":2544680.7400000039}},{"attributes":{"ID":233251,"DIS_CODE":0,"TOWNNAME":"中西區","LI":"協和里","LIN":"14鄰","STREET":"永和街","SECT":" ","MAREA":" ","LANE":" ","ALLEY":" ","HOUSE_NO":"１１６號之１","E_COORD97":167125.01000000001,"N_COORD97":2544683.4399999999,"ADDRESS":"永和街１１６號之１","OBJECTID":233247},"geometry":{"x":167125.01000000071,"y":2544683.4400000013}},{"attributes":{"ID":233252,"DIS_CODE":0,"TOWNNAME":"安南區","LI":"理想里","LIN":"2鄰","STREET":"同安路","SECT":" ","MAREA":" ","LANE":"５２巷","ALLEY":" ","HOUSE_NO":"５４號","E_COORD97":166958.39000000001,"N_COORD97":2548710.6099999999,"ADDRESS":"同安路５２巷５４號","OBJECTID":233248},"geometry":{"x":166958.3900000006,"y":2548710.6099999994}},{"attributes":{"ID":233253,"DIS_CODE":0,"TOWNNAME":"安南區","LI":"理想里","LIN":"2鄰","STREET":"同安路","SECT":" ","MAREA":" ","LANE":"５２巷","ALLEY":" ","HOUSE_NO":"５５號","E_COORD97":166983.32000000001,"N_COORD97":2548719.6800000002,"ADDRESS":"同安路５２巷５５號","OBJECTID":233249},"geometry":{"x":166983.3200000003,"y":2548719.6800000016}},{"attributes":{"ID":233254,"DIS_CODE":0,"TOWNNAME":"安南區","LI":"理想里","LIN":"2鄰","STREET":"同安路","SECT":" ","MAREA":" ","LANE":"５２巷","ALLEY":" ","HOUSE_NO":"５７號","E_COORD97":166985.48999999999,"N_COORD97":2548716.8799999999,"ADDRESS":"同安路５２巷５７號","OBJECTID":233250},"geometry":{"x":166985.49000000022,"y":2548716.8800000008}},{"attributes":{"ID":233255,"DIS_CODE":0,"TOWNNAME":"安南區","LI":"理想里","LIN":"2鄰","STREET":"同安路","SECT":" ","MAREA":" ","LANE":"５２巷","ALLEY":" ","HOUSE_NO":"５８號","E_COORD97":166962.78,"N_COORD97":2548701.8399999999,"ADDRESS":"同安路５２巷５８號","OBJECTID":233251},"geometry":{"x":166962.78000000119,"y":2548701.8400000017}},{"attributes":{"ID":233256,"DIS_CODE":0,"TOWNNAME":"安南區","LI":"理想里","LIN":"2鄰","STREET":"同安路","SECT":" ","MAREA":" ","LANE":"５２巷","ALLEY":" ","HOUSE_NO":"５９號","E_COORD97":166987.04999999999,"N_COORD97":2548712.8399999999,"ADDRESS":"同安路５２巷５９號","OBJECTID":233252},"geometry":{"x":166987.04999999888,"y":2548712.8399999999}},{"attributes":{"ID":233257,"DIS_CODE":0,"TOWNNAME":"安南區","LI":"理想里","LIN":"2鄰","STREET":"同安路","SECT":" ","MAREA":" ","LANE":"５２巷","ALLEY":" ","HOUSE_NO":"６０號","E_COORD97":166964.66,"N_COORD97":2548698.71,"ADDRESS":"同安路５２巷６０號","OBJECTID":233253},"geometry":{"x":166964.66000000201,"y":2548698.7100000009}},{"attributes":{"ID":233258,"DIS_CODE":0,"TOWNNAME":"安南區","LI":"理想里","LIN":"2鄰","STREET":"同安路","SECT":" ","MAREA":" ","LANE":"５２巷","ALLEY":" ","HOUSE_NO":"６１號","E_COORD97":166989.69,"N_COORD97":2548709.8900000001,"ADDRESS":"同安路５２巷６１號","OBJECTID":233254},"geometry":{"x":166989.69000000041,"y":2548709.8900000006}},{"attributes":{"ID":233259,"DIS_CODE":0,"TOWNNAME":"安南區","LI":"理想里","LIN":"2鄰","STREET":"同安路","SECT":" ","MAREA":" ","LANE":"５２巷","ALLEY":" ","HOUSE_NO":"６３號","E_COORD97":166991.56,"N_COORD97":2548705.6899999999,"ADDRESS":"同安路５２巷６３號","OBJECTID":233255},"geometry":{"x":166991.55999999959,"y":2548705.6900000013}},{"attributes":{"ID":233260,"DIS_CODE":0,"TOWNNAME":"安南區","LI":"理想里","LIN":"2鄰","STREET":"同安路","SECT":" ","MAREA":" ","LANE":"５２巷","ALLEY":" ","HOUSE_NO":"６５號","E_COORD97":166995.29000000001,"N_COORD97":2548702.5800000001,"ADDRESS":"同安路５２巷６５號","OBJECTID":233256},"geometry":{"x":166995.29000000004,"y":2548702.5800000038}},{"attributes":{"ID":233261,"DIS_CODE":0,"TOWNNAME":"安南區","LI":"理想里","LIN":"2鄰","STREET":"同安路","SECT":" ","MAREA":" ","LANE":"５２巷","ALLEY":" ","HOUSE_NO":"６６號","E_COORD97":166970.92999999999,"N_COORD97":2548688.27,"ADDRESS":"同安路５２巷６６號","OBJECTID":233257},"geometry":{"x":166970.93000000156,"y":2548688.2700000014}},{"attributes":{"ID":233262,"DIS_CODE":0,"TOWNNAME":"安南區","LI":"理想里","LIN":"2鄰","STREET":"同安路","SECT":" ","MAREA":" ","LANE":"５２巷","ALLEY":" ","HOUSE_NO":"４６號","E_COORD97":166949.20000000001,"N_COORD97":2548724.5899999999,"ADDRESS":"同安路５２巷４６號","OBJECTID":233258},"geometry":{"x":166949.20000000205,"y":2548724.5899999999}},{"attributes":{"ID":233263,"DIS_CODE":0,"TOWNNAME":"中西區","LI":"民主里","LIN":"7鄰","STREET":"府前路","SECT":"二段","MAREA":" ","LANE":"２３５巷","ALLEY":" ","HOUSE_NO":"９號","E_COORD97":167094.54000000001,"N_COORD97":2543562.27,"ADDRESS":"府前路二段２３５巷９號","OBJECTID":233259},"geometry":{"x":167094.54000000097,"y":2543562.2700000014}},{"attributes":{"ID":233264,"DIS_CODE":0,"TOWNNAME":"中西區","LI":"民主里","LIN":"8鄰","STREET":"大智街","SECT":" ","MAREA":" ","LANE":"２９巷","ALLEY":" ","HOUSE_NO":"１５號","E_COORD97":167371.91,"N_COORD97":2543594.1800000002,"ADDRESS":"大智街２９巷１５號","OBJECTID":233260},"geometry":{"x":167371.91000000108,"y":2543594.1799999997}},{"attributes":{"ID":233265,"DIS_CODE":0,"TOWNNAME":"中西區","LI":"民主里","LIN":"8鄰","STREET":"大智街","SECT":" ","MAREA":" ","LANE":"２９巷","ALLEY":" ","HOUSE_NO":"１７號","E_COORD97":167376.16,"N_COORD97":2543591.9199999999,"ADDRESS":"大智街２９巷１７號","OBJECTID":233261},"geometry":{"x":167376.16000000015,"y":2543591.9200000018}},{"attributes":{"ID":233266,"DIS_CODE":0,"TOWNNAME":"中西區","LI":"民主里","LIN":"8鄰","STREET":"大智街","SECT":" ","MAREA":" ","LANE":"２９巷","ALLEY":" ","HOUSE_NO":"８號之１","E_COORD97":167359.67999999999,"N_COORD97":2543581.54,"ADDRESS":"大智街２９巷８號之１","OBJECTID":233262},"geometry":{"x":167359.68000000063,"y":2543581.5399999991}},{"attributes":{"ID":233267,"DIS_CODE":0,"TOWNNAME":"永康區","LI":"大灣里","LIN":"2鄰","STREET":"大同街","SECT":" ","MAREA":" ","LANE":"１５３巷","ALLEY":" ","HOUSE_NO":"３６號","E_COORD97":174779.20000000001,"N_COORD97":2545569.2200000002,"ADDRESS":"大同街１５３巷３６號","OBJECTID":233263},"geometry":{"x":174779.19999999925,"y":2545569.2199999988}},{"attributes":{"ID":233268,"DIS_CODE":0,"TOWNNAME":"永康區","LI":"大灣里","LIN":"2鄰","STREET":"大同街","SECT":" ","MAREA":" ","LANE":"１５３巷","ALLEY":" ","HOUSE_NO":"３６之１號","E_COORD97":174771.79999999999,"N_COORD97":2545569.04,"ADDRESS":"大同街１５３巷３６之１號","OBJECTID":233264},"geometry":{"x":174771.80000000075,"y":2545569.0400000028}},{"attributes":{"ID":233269,"DIS_CODE":0,"TOWNNAME":"永康區","LI":"大灣里","LIN":"2鄰","STREET":"大同街","SECT":" ","MAREA":" ","LANE":"１５３巷","ALLEY":" ","HOUSE_NO":"３０號","E_COORD97":174791.79000000001,"N_COORD97":2545565.48,"ADDRESS":"大同街１５３巷３０號","OBJECTID":233265},"geometry":{"x":174791.79000000004,"y":2545565.4800000023}},{"attributes":{"ID":233270,"DIS_CODE":0,"TOWNNAME":"永康區","LI":"三民里","LIN":"2鄰","STREET":"三民街","SECT":" ","MAREA":" ","LANE":"７９巷","ALLEY":" ","HOUSE_NO":"６號","E_COORD97":172842.82000000001,"N_COORD97":2550277.29,"ADDRESS":"三民街７９巷６號","OBJECTID":233266},"geometry":{"x":172842.82000000216,"y":2550277.290000001}},{"attributes":{"ID":233271,"DIS_CODE":0,"TOWNNAME":"永康區","LI":"五王里","LIN":"2鄰","STREET":"成功路","SECT":" ","MAREA":" ","LANE":"１３０巷","ALLEY":" ","HOUSE_NO":"１８號","E_COORD97":171512.54000000001,"N_COORD97":2545550.9300000002,"ADDRESS":"成功路１３０巷１８號","OBJECTID":233267},"geometry":{"x":171512.54000000097,"y":2545550.9300000016}},{"attributes":{"ID":233272,"DIS_CODE":0,"TOWNNAME":"永康區","LI":"大灣里","LIN":"2鄰","STREET":"大安街","SECT":" ","MAREA":" ","LANE":"３５６巷","ALLEY":" ","HOUSE_NO":"８號","E_COORD97":174686.88,"N_COORD97":2545645.3100000001,"ADDRESS":"大安街３５６巷８號","OBJECTID":233268},"geometry":{"x":174686.88000000082,"y":2545645.3100000005}},{"attributes":{"ID":233273,"DIS_CODE":0,"TOWNNAME":"永康區","LI":"三民里","LIN":"2鄰","STREET":"三民街","SECT":" ","MAREA":" ","LANE":"７９巷","ALLEY":" ","HOUSE_NO":"１０號","E_COORD97":172830.19,"N_COORD97":2550273.7799999998,"ADDRESS":"三民街７９巷１０號","OBJECTID":233269},"geometry":{"x":172830.19000000227,"y":2550273.7800000012}},{"attributes":{"ID":233274,"DIS_CODE":0,"TOWNNAME":"安南區","LI":"梅花里","LIN":"2鄰","STREET":"安中路","SECT":"一段","MAREA":" ","LANE":"６１９巷","ALLEY":" ","HOUSE_NO":"９０號之１","E_COORD97":167811.54000000001,"N_COORD97":2548894.9100000001,"ADDRESS":"安中路一段６１９巷９０號之１","OBJECTID":233270},"geometry":{"x":167811.54000000097,"y":2548894.910000002}},{"attributes":{"ID":233275,"DIS_CODE":0,"TOWNNAME":"安南區","LI":"淵東里","LIN":"2鄰","STREET":"海佃路","SECT":"四段","MAREA":" ","LANE":"５５巷","ALLEY":" ","HOUSE_NO":"１５８號","E_COORD97":165382.79999999999,"N_COORD97":2550502.9199999999,"ADDRESS":"海佃路四段５５巷１５８號","OBJECTID":233271},"geometry":{"x":165382.79999999981,"y":2550502.9199999999}},{"attributes":{"ID":233276,"DIS_CODE":0,"TOWNNAME":"安南區","LI":"淵東里","LIN":"2鄰","STREET":"海佃路","SECT":"四段","MAREA":" ","LANE":"５５巷","ALLEY":" ","HOUSE_NO":"１６０號","E_COORD97":165392.56,"N_COORD97":2550480.2200000002,"ADDRESS":"海佃路四段５５巷１６０號","OBJECTID":233272},"geometry":{"x":165392.55999999959,"y":2550480.2200000025}},{"attributes":{"ID":233277,"DIS_CODE":0,"TOWNNAME":"安南區","LI":"淵東里","LIN":"2鄰","STREET":"海佃路","SECT":"四段","MAREA":" ","LANE":"５５巷","ALLEY":" ","HOUSE_NO":"１６０號之１","E_COORD97":165388.32000000001,"N_COORD97":2550479.6099999999,"ADDRESS":"海佃路四段５５巷１６０號之１","OBJECTID":233273},"geometry":{"x":165388.3200000003,"y":2550479.6100000013}},{"attributes":{"ID":233278,"DIS_CODE":0,"TOWNNAME":"中西區","LI":"藥王里","LIN":"2鄰","STREET":"大福街","SECT":" ","MAREA":" ","LANE":"３９巷","ALLEY":" ","HOUSE_NO":"１０號","E_COORD97":167295.97,"N_COORD97":2544438.6600000001,"ADDRESS":"大福街３９巷１０號","OBJECTID":233274},"geometry":{"x":167295.96999999974,"y":2544438.6600000001}},{"attributes":{"ID":233279,"DIS_CODE":0,"TOWNNAME":"中西區","LI":"藥王里","LIN":"2鄰","STREET":"大福街","SECT":" ","MAREA":" ","LANE":"３９巷","ALLEY":" ","HOUSE_NO":"１２號","E_COORD97":167290.41,"N_COORD97":2544439.8700000001,"ADDRESS":"大福街３９巷１２號","OBJECTID":233275},"geometry":{"x":167290.41000000108,"y":2544439.8700000048}},{"attributes":{"ID":233280,"DIS_CODE":0,"TOWNNAME":"中西區","LI":"藥王里","LIN":"2鄰","STREET":"大福街","SECT":" ","MAREA":" ","LANE":"３９巷","ALLEY":" ","HOUSE_NO":"２號","E_COORD97":167312.42999999999,"N_COORD97":2544430.4399999999,"ADDRESS":"大福街３９巷２號","OBJECTID":233276},"geometry":{"x":167312.43000000063,"y":2544430.4399999995}},{"attributes":{"ID":233281,"DIS_CODE":0,"TOWNNAME":"中西區","LI":"藥王里","LIN":"2鄰","STREET":"大福街","SECT":" ","MAREA":" ","LANE":"３９巷","ALLEY":" ","HOUSE_NO":"４號","E_COORD97":167308.56,"N_COORD97":2544432.1299999999,"ADDRESS":"大福街３９巷４號","OBJECTID":233277},"geometry":{"x":167308.55999999959,"y":2544432.129999999}},{"attributes":{"ID":233282,"DIS_CODE":0,"TOWNNAME":"永康區","LI":"網寮里","LIN":"2鄰","STREET":"永二街","SECT":" ","MAREA":" ","LANE":"１２３巷","ALLEY":" ","HOUSE_NO":"２０號","E_COORD97":173611.66,"N_COORD97":2546447.73,"ADDRESS":"永二街１２３巷２０號","OBJECTID":233278},"geometry":{"x":173611.66000000201,"y":2546447.7300000023}},{"attributes":{"ID":233283,"DIS_CODE":0,"TOWNNAME":"安南區","LI":"\u25A0南里","LIN":"23鄰","STREET":"環福街","SECT":" ","MAREA":" ","LANE":"２１６巷","ALLEY":" ","HOUSE_NO":"２３號","E_COORD97":170326.04000000001,"N_COORD97":2552692.3900000001,"ADDRESS":"環福街２１６巷２３號","OBJECTID":233279},"geometry":{"x":170326.04000000097,"y":2552692.3900000025}},{"attributes":{"ID":233284,"DIS_CODE":0,"TOWNNAME":"東區","LI":"德高里","LIN":"2鄰","STREET":"仁和路","SECT":" ","MAREA":" ","LANE":"１６５巷","ALLEY":" ","HOUSE_NO":"１１號","E_COORD97":171636.72,"N_COORD97":2540928.8700000001,"ADDRESS":"仁和路１６５巷１１號","OBJECTID":233280},"geometry":{"x":171636.71999999974,"y":2540928.8700000029}},{"attributes":{"ID":233285,"DIS_CODE":0,"TOWNNAME":"安南區","LI":"海西里","LIN":"2鄰","STREET":"海中街","SECT":" ","MAREA":" ","LANE":"１６９巷","ALLEY":" ","HOUSE_NO":"５４號","E_COORD97":166264.60999999999,"N_COORD97":2549102.8799999999,"ADDRESS":"海中街１６９巷５４號","OBJECTID":233281},"geometry":{"x":166264.61000000034,"y":2549102.8800000027}},{"attributes":{"ID":233286,"DIS_CODE":0,"TOWNNAME":"安南區","LI":"海西里","LIN":"2鄰","STREET":"海中街","SECT":" ","MAREA":" ","LANE":"１６９巷","ALLEY":" ","HOUSE_NO":"５６號","E_COORD97":166259.57999999999,"N_COORD97":2549098.7000000002,"ADDRESS":"海中街１６９巷５６號","OBJECTID":233282},"geometry":{"x":166259.58000000007,"y":2549098.7000000011}},{"attributes":{"ID":233287,"DIS_CODE":0,"TOWNNAME":"安南區","LI":"海西里","LIN":"2鄰","STREET":"海環街","SECT":" ","MAREA":" ","LANE":"４３７巷","ALLEY":" ","HOUSE_NO":"１３號","E_COORD97":166106.81,"N_COORD97":2549048.7200000002,"ADDRESS":"海環街４３７巷１３號","OBJECTID":233283},"geometry":{"x":166106.80999999959,"y":2549048.7200000025}},{"attributes":{"ID":233288,"DIS_CODE":0,"TOWNNAME":"安南區","LI":"海西里","LIN":"2鄰","STREET":"海環街","SECT":" ","MAREA":" ","LANE":"４３７巷","ALLEY":" ","HOUSE_NO":"３號","E_COORD97":166116.45000000001,"N_COORD97":2549029.48,"ADDRESS":"海環街４３７巷３號","OBJECTID":233284},"geometry":{"x":166116.45000000019,"y":2549029.4800000023}},{"attributes":{"ID":233289,"DIS_CODE":0,"TOWNNAME":"安南區","LI":"海東里","LIN":"2鄰","STREET":"海中街","SECT":" ","MAREA":" ","LANE":"１３８巷","ALLEY":" ","HOUSE_NO":"５３號","E_COORD97":166485.41,"N_COORD97":2549224.7999999998,"ADDRESS":"海中街１３８巷５３號","OBJECTID":233285},"geometry":{"x":166485.41000000108,"y":2549224.8000000026}},{"attributes":{"ID":233290,"DIS_CODE":0,"TOWNNAME":"安南區","LI":"國安里","LIN":"2鄰","STREET":"國安街","SECT":" ","MAREA":" ","LANE":"１５６巷","ALLEY":" ","HOUSE_NO":"４３號","E_COORD97":166705.70000000001,"N_COORD97":2547093.3799999999,"ADDRESS":"國安街１５６巷４３號","OBJECTID":233286},"geometry":{"x":166705.70000000112,"y":2547093.3800000008}},{"attributes":{"ID":233291,"DIS_CODE":0,"TOWNNAME":"安南區","LI":"國安里","LIN":"2鄰","STREET":"國安街","SECT":" ","MAREA":" ","LANE":"１５６巷","ALLEY":" ","HOUSE_NO":"４７號","E_COORD97":166704,"N_COORD97":2547101.98,"ADDRESS":"國安街１５６巷４７號","OBJECTID":233287},"geometry":{"x":166704,"y":2547101.9800000004}},{"attributes":{"ID":233292,"DIS_CODE":0,"TOWNNAME":"安南區","LI":"國安里","LIN":"2鄰","STREET":"國安街","SECT":" ","MAREA":" ","LANE":"１５６巷","ALLEY":" ","HOUSE_NO":"５９號","E_COORD97":166692.54000000001,"N_COORD97":2547136.8900000001,"ADDRESS":"國安街１５６巷５９號","OBJECTID":233288},"geometry":{"x":166692.5400000019,"y":2547136.8900000006}},{"attributes":{"ID":233293,"DIS_CODE":0,"TOWNNAME":"安南區","LI":"國安里","LIN":"2鄰","STREET":"國安街","SECT":" ","MAREA":" ","LANE":"１５６巷","ALLEY":" ","HOUSE_NO":"７９號","E_COORD97":166678.01000000001,"N_COORD97":2547196.4399999999,"ADDRESS":"國安街１５６巷７９號","OBJECTID":233289},"geometry":{"x":166678.00999999978,"y":2547196.4399999995}},{"attributes":{"ID":233294,"DIS_CODE":0,"TOWNNAME":"安南區","LI":"國安里","LIN":"2鄰","STREET":"國安街","SECT":" ","MAREA":" ","LANE":"１５６巷","ALLEY":" ","HOUSE_NO":"８１號","E_COORD97":166677.39999999999,"N_COORD97":2547201.0299999998,"ADDRESS":"國安街１５６巷８１號","OBJECTID":233290},"geometry":{"x":166677.4000000013,"y":2547201.0300000012}},{"attributes":{"ID":233295,"DIS_CODE":0,"TOWNNAME":"安南區","LI":"梅花里","LIN":"2鄰","STREET":"安中路","SECT":"一段","MAREA":" ","LANE":"６１９巷","ALLEY":" ","HOUSE_NO":"７９號","E_COORD97":167816.63,"N_COORD97":2548924.2200000002,"ADDRESS":"安中路一段６１９巷７９號","OBJECTID":233291},"geometry":{"x":167816.62999999989,"y":2548924.2200000025}},{"attributes":{"ID":233296,"DIS_CODE":0,"TOWNNAME":"安南區","LI":"梅花里","LIN":"2鄰","STREET":"安中路","SECT":"一段","MAREA":" ","LANE":"６１９巷","ALLEY":" ","HOUSE_NO":"７７號之１","E_COORD97":167797.63,"N_COORD97":2548934.2400000002,"ADDRESS":"安中路一段６１９巷７７號之１","OBJECTID":233292},"geometry":{"x":167797.63000000082,"y":2548934.2400000002}},{"attributes":{"ID":233297,"DIS_CODE":0,"TOWNNAME":"歸仁區","LI":"看東里","LIN":"2鄰","STREET":"成功六街","SECT":" ","MAREA":" ","LANE":"１１６巷","ALLEY":" ","HOUSE_NO":"４３號","E_COORD97":178451.81,"N_COORD97":2540331.2000000002,"ADDRESS":"成功六街１１６巷４３號","OBJECTID":233293},"geometry":{"x":178451.81000000052,"y":2540331.2000000011}},{"attributes":{"ID":233298,"DIS_CODE":0,"TOWNNAME":"安南區","LI":"梅花里","LIN":"2鄰","STREET":"安中路","SECT":"一段","MAREA":" ","LANE":"６３９巷","ALLEY":" ","HOUSE_NO":"８３號","E_COORD97":167733,"N_COORD97":2548886.4199999999,"ADDRESS":"安中路一段６３９巷８３號","OBJECTID":233294},"geometry":{"x":167733,"y":2548886.4200000037}},{"attributes":{"ID":233299,"DIS_CODE":0,"TOWNNAME":"安南區","LI":"淵西里","LIN":"2鄰","STREET":"安中路","SECT":"四段","MAREA":" ","LANE":"２９０巷","ALLEY":" ","HOUSE_NO":"２７７號","E_COORD97":165088.92999999999,"N_COORD97":2550292.4100000001,"ADDRESS":"安中路四段２９０巷２７７號","OBJECTID":233295},"geometry":{"x":165088.9299999997,"y":2550292.4100000001}},{"attributes":{"ID":233300,"DIS_CODE":0,"TOWNNAME":"安南區","LI":"溪頂里","LIN":"2鄰","STREET":"府安路","SECT":"四段","MAREA":" ","LANE":"９７巷","ALLEY":" ","HOUSE_NO":"１５號","E_COORD97":169063.56,"N_COORD97":2547321.5,"ADDRESS":"府安路四段９７巷１５號","OBJECTID":233296},"geometry":{"x":169063.56000000145,"y":2547321.5}},{"attributes":{"ID":233301,"DIS_CODE":0,"TOWNNAME":"安南區","LI":"溪頂里","LIN":"2鄰","STREET":"府安路","SECT":"四段","MAREA":" ","LANE":"９７巷","ALLEY":" ","HOUSE_NO":"１９號","E_COORD97":169062.63,"N_COORD97":2547331.4900000002,"ADDRESS":"府安路四段９７巷１９號","OBJECTID":233297},"geometry":{"x":169062.62999999989,"y":2547331.4900000021}},{"attributes":{"ID":233302,"DIS_CODE":0,"TOWNNAME":"安南區","LI":"總頭里","LIN":"2鄰","STREET":"長溪路","SECT":"二段","MAREA":" ","LANE":"４８６巷","ALLEY":" ","HOUSE_NO":"３７號","E_COORD97":168380.07000000001,"N_COORD97":2550416.77,"ADDRESS":"長溪路二段４８６巷３７號","OBJECTID":233298},"geometry":{"x":168380.07000000123,"y":2550416.7700000014}},{"attributes":{"ID":233303,"DIS_CODE":0,"TOWNNAME":"安南區","LI":"總頭里","LIN":"2鄰","STREET":"長溪路","SECT":"二段","MAREA":" ","LANE":"４８６巷","ALLEY":" ","HOUSE_NO":"３５號","E_COORD97":168369.22,"N_COORD97":2550417.6800000002,"ADDRESS":"長溪路二段４８６巷３５號","OBJECTID":233299},"geometry":{"x":168369.2200000016,"y":2550417.6800000016}},{"attributes":{"ID":233304,"DIS_CODE":0,"TOWNNAME":"永康區","LI":"\u25A0行里","LIN":"2鄰","STREET":"中正路","SECT":" ","MAREA":" ","LANE":"９５６巷","ALLEY":" ","HOUSE_NO":"３號","E_COORD97":171972.57000000001,"N_COORD97":2548969.9900000002,"ADDRESS":"中正路９５６巷３號","OBJECTID":233300},"geometry":{"x":171972.5700000003,"y":2548969.9900000002}},{"attributes":{"ID":233305,"DIS_CODE":0,"TOWNNAME":"永康區","LI":"中華里","LIN":"2鄰","STREET":"小東路","SECT":" ","MAREA":" ","LANE":"６８５巷","ALLEY":" ","HOUSE_NO":"３６號","E_COORD97":172040.64000000001,"N_COORD97":2544455.79,"ADDRESS":"小東路６８５巷３６號","OBJECTID":233301},"geometry":{"x":172040.63999999966,"y":2544455.790000001}},{"attributes":{"ID":233306,"DIS_CODE":0,"TOWNNAME":"永康區","LI":"神洲里","LIN":"2鄰","STREET":"忠孝路","SECT":" ","MAREA":" ","LANE":"３２巷","ALLEY":" ","HOUSE_NO":"１４號","E_COORD97":172146.79999999999,"N_COORD97":2544635.3300000001,"ADDRESS":"忠孝路３２巷１４號","OBJECTID":233302},"geometry":{"x":172146.79999999981,"y":2544635.3300000001}},{"attributes":{"ID":233307,"DIS_CODE":0,"TOWNNAME":"永康區","LI":"烏竹里","LIN":"2鄰","STREET":"烏竹北街","SECT":" ","MAREA":" ","LANE":"１８巷","ALLEY":" ","HOUSE_NO":"１６號","E_COORD97":174659.28,"N_COORD97":2549408,"ADDRESS":"烏竹北街１８巷１６號","OBJECTID":233303},"geometry":{"x":174659.28000000119,"y":2549407.9999999981}},{"attributes":{"ID":233308,"DIS_CODE":0,"TOWNNAME":"中西區","LI":"民生里","LIN":"6鄰","STREET":"永華路","SECT":"一段","MAREA":" ","LANE":"２５０巷","ALLEY":" ","HOUSE_NO":"９號","E_COORD97":166992.20000000001,"N_COORD97":2543292.1800000002,"ADDRESS":"永華路一段２５０巷９號","OBJECTID":233304},"geometry":{"x":166992.20000000112,"y":2543292.1799999997}},{"attributes":{"ID":233309,"DIS_CODE":0,"TOWNNAME":"仁德區","LI":"後壁里","LIN":"2鄰","STREET":"德安路","SECT":" ","MAREA":" ","LANE":"３２巷","ALLEY":" ","HOUSE_NO":"１號","E_COORD97":173368.01000000001,"N_COORD97":2539201.0699999998,"ADDRESS":"德安路３２巷１號","OBJECTID":233305},"geometry":{"x":173368.01000000164,"y":2539201.0700000022}},{"attributes":{"ID":233310,"DIS_CODE":0,"TOWNNAME":"仁德區","LI":"成功里","LIN":"2鄰","STREET":"保生東路","SECT":" ","MAREA":" ","LANE":"２１８巷","ALLEY":" ","HOUSE_NO":"７３號","E_COORD97":171279.26999999999,"N_COORD97":2539660.2599999998,"ADDRESS":"保生東路２１８巷７３號","OBJECTID":233306},"geometry":{"x":171279.27000000142,"y":2539660.2600000016}},{"attributes":{"ID":233311,"DIS_CODE":0,"TOWNNAME":"仁德區","LI":"成功里","LIN":"2鄰","STREET":"保生東路","SECT":" ","MAREA":" ","LANE":"１３８巷","ALLEY":" ","HOUSE_NO":"２５號","E_COORD97":171269.17000000001,"N_COORD97":2539583.1899999999,"ADDRESS":"保生東路１３８巷２５號","OBJECTID":233307},"geometry":{"x":171269.17000000086,"y":2539583.1899999995}},{"attributes":{"ID":233312,"DIS_CODE":0,"TOWNNAME":"中西區","LI":"協和里","LIN":"14鄰","STREET":"永和街","SECT":" ","MAREA":" ","LANE":" ","ALLEY":" ","HOUSE_NO":"１１８號","E_COORD97":167128.31,"N_COORD97":2544686.6299999999,"ADDRESS":"永和街１１８號","OBJECTID":233308},"geometry":{"x":167128.31000000052,"y":2544686.6299999971}},{"attributes":{"ID":233313,"DIS_CODE":0,"TOWNNAME":"佳里區","LI":"安西里","LIN":"23鄰","STREET":"忠孝路","SECT":" ","MAREA":" ","LANE":"１１０巷","ALLEY":" ","HOUSE_NO":"１０號","E_COORD97":165295.70000000001,"N_COORD97":2563191.7799999998,"ADDRESS":"忠孝路１１０巷１０號","OBJECTID":233309},"geometry":{"x":165295.70000000019,"y":2563191.7800000012}},{"attributes":{"ID":233314,"DIS_CODE":0,"TOWNNAME":"佳里區","LI":"安西里","LIN":"23鄰","STREET":"忠孝路","SECT":" ","MAREA":" ","LANE":"１１０巷","ALLEY":" ","HOUSE_NO":"１２號","E_COORD97":165300.39999999999,"N_COORD97":2563193.3300000001,"ADDRESS":"忠孝路１１０巷１２號","OBJECTID":233310},"geometry":{"x":165300.40000000224,"y":2563193.3300000001}},{"attributes":{"ID":233315,"DIS_CODE":0,"TOWNNAME":"佳里區","LI":"安西里","LIN":"23鄰","STREET":"忠孝路","SECT":" ","MAREA":" ","LANE":"１１０巷","ALLEY":" ","HOUSE_NO":"１３號","E_COORD97":165289.89999999999,"N_COORD97":2563214.8799999999,"ADDRESS":"忠孝路１１０巷１３號","OBJECTID":233311},"geometry":{"x":165289.90000000037,"y":2563214.8800000008}},{"attributes":{"ID":233316,"DIS_CODE":0,"TOWNNAME":"佳里區","LI":"安西里","LIN":"23鄰","STREET":"忠孝路","SECT":" ","MAREA":" ","LANE":"１１０巷","ALLEY":" ","HOUSE_NO":"１４號","E_COORD97":165303.29999999999,"N_COORD97":2563196.0699999998,"ADDRESS":"忠孝路１１０巷１４號","OBJECTID":233312},"geometry":{"x":165303.29999999981,"y":2563196.0700000003}},{"attributes":{"ID":233317,"DIS_CODE":0,"TOWNNAME":"佳里區","LI":"安西里","LIN":"23鄰","STREET":"忠孝路","SECT":" ","MAREA":" ","LANE":"１１０巷","ALLEY":" ","HOUSE_NO":"１５號","E_COORD97":165294.67999999999,"N_COORD97":2563217.5,"ADDRESS":"忠孝路１１０巷１５號","OBJECTID":233313},"geometry":{"x":165294.68000000063,"y":2563217.5000000019}},{"attributes":{"ID":233318,"DIS_CODE":0,"TOWNNAME":"佳里區","LI":"安西里","LIN":"23鄰","STREET":"忠孝路","SECT":" ","MAREA":" ","LANE":"１１０巷","ALLEY":" ","HOUSE_NO":"１６號","E_COORD97":165305.85000000001,"N_COORD97":2563198.6699999999,"ADDRESS":"忠孝路１１０巷１６號","OBJECTID":233314},"geometry":{"x":165305.84999999963,"y":2563198.6699999999}},{"attributes":{"ID":233319,"DIS_CODE":0,"TOWNNAME":"佳里區","LI":"安西里","LIN":"23鄰","STREET":"忠孝路","SECT":" ","MAREA":" ","LANE":"１１０巷","ALLEY":" ","HOUSE_NO":"１７號","E_COORD97":165300.06,"N_COORD97":2563220.8300000001,"ADDRESS":"忠孝路１１０巷１７號","OBJECTID":233315},"geometry":{"x":165300.06000000145,"y":2563220.8300000001}},{"attributes":{"ID":233320,"DIS_CODE":0,"TOWNNAME":"佳里區","LI":"安西里","LIN":"23鄰","STREET":"忠孝路","SECT":" ","MAREA":" ","LANE":"１１０巷","ALLEY":" ","HOUSE_NO":"１８號","E_COORD97":165308.72,"N_COORD97":2563201.9199999999,"ADDRESS":"忠孝路１１０巷１８號","OBJECTID":233316},"geometry":{"x":165308.71999999974,"y":2563201.9200000018}},{"attributes":{"ID":233321,"DIS_CODE":0,"TOWNNAME":"佳里區","LI":"安西里","LIN":"23鄰","STREET":"忠孝路","SECT":" ","MAREA":" ","LANE":"１１０巷","ALLEY":" ","HOUSE_NO":"１９號","E_COORD97":165305.76999999999,"N_COORD97":2563223.96,"ADDRESS":"忠孝路１１０巷１９號","OBJECTID":233317},"geometry":{"x":165305.77000000048,"y":2563223.9600000009}},{"attributes":{"ID":233322,"DIS_CODE":0,"TOWNNAME":"佳里區","LI":"安西里","LIN":"23鄰","STREET":"忠孝路","SECT":" ","MAREA":" ","LANE":"１１０巷","ALLEY":" ","HOUSE_NO":"１號","E_COORD97":165260.73000000001,"N_COORD97":2563186.5600000001,"ADDRESS":"忠孝路１１０巷１號","OBJECTID":233318},"geometry":{"x":165260.73000000045,"y":2563186.5599999987}},{"attributes":{"ID":233323,"DIS_CODE":0,"TOWNNAME":"佳里區","LI":"安西里","LIN":"23鄰","STREET":"忠孝路","SECT":" ","MAREA":" ","LANE":"１１０巷","ALLEY":" ","HOUSE_NO":"２０號","E_COORD97":165313.76000000001,"N_COORD97":2563206.2400000002,"ADDRESS":"忠孝路１１０巷２０號","OBJECTID":233319},"geometry":{"x":165313.75999999978,"y":2563206.2400000021}},{"attributes":{"ID":233324,"DIS_CODE":0,"TOWNNAME":"仁德區","LI":"後壁里","LIN":"2鄰","STREET":"德安路","SECT":" ","MAREA":" ","LANE":"３２巷","ALLEY":" ","HOUSE_NO":"１４號","E_COORD97":173330.95999999999,"N_COORD97":2539193.3199999998,"ADDRESS":"德安路３２巷１４號","OBJECTID":233320},"geometry":{"x":173330.95999999996,"y":2539193.3200000003}},{"attributes":{"ID":233325,"DIS_CODE":0,"TOWNNAME":"仁德區","LI":"成功里","LIN":"2鄰","STREET":"保生東路","SECT":" ","MAREA":" ","LANE":"１３８巷","ALLEY":" ","HOUSE_NO":"２７號","E_COORD97":171273.19,"N_COORD97":2539582.6899999999,"ADDRESS":"保生東路１３８巷２７號","OBJECTID":233321},"geometry":{"x":171273.19000000041,"y":2539582.6900000013}},{"attributes":{"ID":233326,"DIS_CODE":0,"TOWNNAME":"中西區","LI":"民生里","LIN":"4鄰","STREET":"永華路","SECT":"一段","MAREA":" ","LANE":"２１２巷","ALLEY":" ","HOUSE_NO":"４號","E_COORD97":167096.14000000001,"N_COORD97":2543249.0800000001,"ADDRESS":"永華路一段２１２巷４號","OBJECTID":233322},"geometry":{"x":167096.13999999966,"y":2543249.0800000019}},{"attributes":{"ID":233327,"DIS_CODE":0,"TOWNNAME":"仁德區","LI":"仁德里","LIN":"2鄰","STREET":"仁德五街","SECT":" ","MAREA":" ","LANE":"１１巷","ALLEY":" ","HOUSE_NO":"３１號","E_COORD97":173393,"N_COORD97":2540122.77,"ADDRESS":"仁德五街１１巷３１號","OBJECTID":233323},"geometry":{"x":173393,"y":2540122.7699999977}},{"attributes":{"ID":233328,"DIS_CODE":0,"TOWNNAME":"仁德區","LI":"新田里","LIN":"2鄰","STREET":"新田二街","SECT":" ","MAREA":" ","LANE":"１３８巷","ALLEY":" ","HOUSE_NO":"８號","E_COORD97":174883.29000000001,"N_COORD97":2539979.8999999999,"ADDRESS":"新田二街１３８巷８號","OBJECTID":233324},"geometry":{"x":174883.29000000004,"y":2539979.9000000004}},{"attributes":{"ID":233329,"DIS_CODE":0,"TOWNNAME":"歸仁區","LI":"媽廟里","LIN":"2鄰","STREET":"媽廟一街","SECT":" ","MAREA":" ","LANE":"３８巷","ALLEY":" ","HOUSE_NO":"１６號","E_COORD97":177430.38,"N_COORD97":2543586.7200000002,"ADDRESS":"媽廟一街３８巷１６號","OBJECTID":233325},"geometry":{"x":177430.37999999989,"y":2543586.7200000025}},{"attributes":{"ID":233330,"DIS_CODE":0,"TOWNNAME":"歸仁區","LI":"看東里","LIN":"2鄰","STREET":"成功六街","SECT":" ","MAREA":" ","LANE":"１１６巷","ALLEY":" ","HOUSE_NO":"２３號","E_COORD97":178485.81,"N_COORD97":2540359.2000000002,"ADDRESS":"成功六街１１６巷２３號","OBJECTID":233326},"geometry":{"x":178485.81000000052,"y":2540359.1999999993}},{"attributes":{"ID":233331,"DIS_CODE":0,"TOWNNAME":"中西區","LI":"協和里","LIN":"14鄰","STREET":"永和街","SECT":" ","MAREA":" ","LANE":" ","ALLEY":" ","HOUSE_NO":"１２０號","E_COORD97":167131.60999999999,"N_COORD97":2544690.0299999998,"ADDRESS":"永和街１２０號","OBJECTID":233327},"geometry":{"x":167131.61000000127,"y":2544690.0299999993}},{"attributes":{"ID":233332,"DIS_CODE":0,"TOWNNAME":"中西區","LI":"協和里","LIN":"14鄰","STREET":"永和街","SECT":" ","MAREA":" ","LANE":" ","ALLEY":" ","HOUSE_NO":"１２４號","E_COORD97":167138.94,"N_COORD97":2544695.3300000001,"ADDRESS":"永和街１２４號","OBJECTID":233328},"geometry":{"x":167138.94000000041,"y":2544695.3300000001}},{"attributes":{"ID":233333,"DIS_CODE":0,"TOWNNAME":"中西區","LI":"協和里","LIN":"14鄰","STREET":"永和街","SECT":" ","MAREA":" ","LANE":" ","ALLEY":" ","HOUSE_NO":"１２６號","E_COORD97":167142.60999999999,"N_COORD97":2544697.9100000001,"ADDRESS":"永和街１２６號","OBJECTID":233329},"geometry":{"x":167142.61000000034,"y":2544697.910000002}},{"attributes":{"ID":233334,"DIS_CODE":0,"TOWNNAME":"中西區","LI":"協和里","LIN":"14鄰","STREET":"永和街","SECT":" ","MAREA":" ","LANE":" ","ALLEY":" ","HOUSE_NO":"１２８號","E_COORD97":167145.98000000001,"N_COORD97":2544700.98,"ADDRESS":"永和街１２８號","OBJECTID":233330},"geometry":{"x":167145.98000000231,"y":2544700.9800000023}},{"attributes":{"ID":233335,"DIS_CODE":0,"TOWNNAME":"中西區","LI":"協和里","LIN":"14鄰","STREET":"永和街","SECT":" ","MAREA":" ","LANE":" ","ALLEY":" ","HOUSE_NO":"１３０號","E_COORD97":167149.35000000001,"N_COORD97":2544704.8399999999,"ADDRESS":"永和街１３０號","OBJECTID":233331},"geometry":{"x":167149.35000000149,"y":2544704.8400000017}},{"attributes":{"ID":233336,"DIS_CODE":0,"TOWNNAME":"中西區","LI":"協和里","LIN":"14鄰","STREET":"永和街","SECT":" ","MAREA":" ","LANE":" ","ALLEY":" ","HOUSE_NO":"１３６號","E_COORD97":167159.79999999999,"N_COORD97":2544713.8799999999,"ADDRESS":"永和街１３６號","OBJECTID":233332},"geometry":{"x":167159.79999999981,"y":2544713.8800000008}},{"attributes":{"ID":233337,"DIS_CODE":0,"TOWNNAME":"中西區","LI":"協和里","LIN":"14鄰","STREET":"永和街","SECT":" ","MAREA":" ","LANE":" ","ALLEY":" ","HOUSE_NO":"１３８號","E_COORD97":167163.17000000001,"N_COORD97":2544716.0600000001,"ADDRESS":"永和街１３８號","OBJECTID":233333},"geometry":{"x":167163.17000000086,"y":2544716.0600000042}},{"attributes":{"ID":233338,"DIS_CODE":0,"TOWNNAME":"中西區","LI":"協和里","LIN":"14鄰","STREET":"和美街","SECT":" ","MAREA":" ","LANE":" ","ALLEY":" ","HOUSE_NO":"１９號","E_COORD97":167178.23999999999,"N_COORD97":2544706.8700000001,"ADDRESS":"和美街１９號","OBJECTID":233334},"geometry":{"x":167178.24000000115,"y":2544706.870000001}},{"attributes":{"ID":233339,"DIS_CODE":0,"TOWNNAME":"中西區","LI":"協和里","LIN":"14鄰","STREET":"和美街","SECT":" ","MAREA":" ","LANE":" ","ALLEY":" ","HOUSE_NO":"２１號","E_COORD97":167175.95999999999,"N_COORD97":2544709.7400000002,"ADDRESS":"和美街２１號","OBJECTID":233335},"geometry":{"x":167175.95999999903,"y":2544709.7400000002}},{"attributes":{"ID":233340,"DIS_CODE":0,"TOWNNAME":"中西區","LI":"協和里","LIN":"14鄰","STREET":"和美街","SECT":" ","MAREA":" ","LANE":" ","ALLEY":" ","HOUSE_NO":"２３號","E_COORD97":167173.28,"N_COORD97":2544712.5099999998,"ADDRESS":"和美街２３號","OBJECTID":233336},"geometry":{"x":167173.28000000119,"y":2544712.5100000016}},{"attributes":{"ID":233341,"DIS_CODE":0,"TOWNNAME":"中西區","LI":"協和里","LIN":"14鄰","STREET":"和美街","SECT":" ","MAREA":" ","LANE":" ","ALLEY":" ","HOUSE_NO":"２５號","E_COORD97":167171.20000000001,"N_COORD97":2544714.8900000001,"ADDRESS":"和美街２５號","OBJECTID":233337},"geometry":{"x":167171.19999999925,"y":2544714.8900000025}},{"attributes":{"ID":233342,"DIS_CODE":0,"TOWNNAME":"中西區","LI":"協和里","LIN":"14鄰","STREET":"和美街","SECT":" ","MAREA":" ","LANE":" ","ALLEY":" ","HOUSE_NO":"２７號","E_COORD97":167168.82000000001,"N_COORD97":2544717.96,"ADDRESS":"和美街２７號","OBJECTID":233338},"geometry":{"x":167168.81999999937,"y":2544717.9600000028}},{"attributes":{"ID":233343,"DIS_CODE":0,"TOWNNAME":"歸仁區","LI":"新厝里","LIN":"2鄰","STREET":"中正一街","SECT":" ","MAREA":" ","LANE":"１６巷","ALLEY":" ","HOUSE_NO":"６號","E_COORD97":177667.95000000001,"N_COORD97":2540679.25,"ADDRESS":"中正一街１６巷６號","OBJECTID":233339},"geometry":{"x":177667.95000000205,"y":2540679.25}},{"attributes":{"ID":233344,"DIS_CODE":0,"TOWNNAME":"歸仁區","LI":"看東里","LIN":"2鄰","STREET":"成功六街","SECT":" ","MAREA":" ","LANE":"１１６巷","ALLEY":" ","HOUSE_NO":"３９號","E_COORD97":178458.10999999999,"N_COORD97":2540353.2000000002,"ADDRESS":"成功六街１１６巷３９號","OBJECTID":233340},"geometry":{"x":178458.11000000034,"y":2540353.1999999993}},{"attributes":{"ID":233345,"DIS_CODE":0,"TOWNNAME":"歸仁區","LI":"看東里","LIN":"2鄰","STREET":"成功六街","SECT":" ","MAREA":" ","LANE":"１１６巷","ALLEY":" ","HOUSE_NO":"５１號","E_COORD97":178471.31,"N_COORD97":2540329.2000000002,"ADDRESS":"成功六街１１６巷５１號","OBJECTID":233341},"geometry":{"x":178471.30999999959,"y":2540329.1999999993}},{"attributes":{"ID":233346,"DIS_CODE":0,"TOWNNAME":"歸仁區","LI":"看東里","LIN":"2鄰","STREET":"成功六街","SECT":" ","MAREA":" ","LANE":"３８巷","ALLEY":" ","HOUSE_NO":"７６號","E_COORD97":178471.48000000001,"N_COORD97":2540291.8300000001,"ADDRESS":"成功六街３８巷７６號","OBJECTID":233342},"geometry":{"x":178471.48000000231,"y":2540291.8300000001}},{"attributes":{"ID":233347,"DIS_CODE":0,"TOWNNAME":"中西區","LI":"安海里","LIN":"1鄰","STREET":"正興街","SECT":" ","MAREA":" ","LANE":" ","ALLEY":" ","HOUSE_NO":"１９６號","E_COORD97":167425.57999999999,"N_COORD97":2543961.5699999998,"ADDRESS":"正興街１９６號","OBJECTID":233343},"geometry":{"x":167425.58000000007,"y":2543961.5700000003}},{"attributes":{"ID":233348,"DIS_CODE":0,"TOWNNAME":"中西區","LI":"安海里","LIN":"1鄰","STREET":"正興街","SECT":" ","MAREA":" ","LANE":" ","ALLEY":" ","HOUSE_NO":"１９８號","E_COORD97":167421.26000000001,"N_COORD97":2543962.6899999999,"ADDRESS":"正興街１９８號","OBJECTID":233344},"geometry":{"x":167421.25999999885,"y":2543962.6900000013}},{"attributes":{"ID":233349,"DIS_CODE":0,"TOWNNAME":"中西區","LI":"安海里","LIN":"2鄰","STREET":"正興街","SECT":" ","MAREA":" ","LANE":" ","ALLEY":" ","HOUSE_NO":"２４０號","E_COORD97":167395.57000000001,"N_COORD97":2543999.0499999998,"ADDRESS":"正興街２４０號","OBJECTID":233345},"geometry":{"x":167395.5700000003,"y":2543999.0500000026}},{"attributes":{"ID":233350,"DIS_CODE":0,"TOWNNAME":"中西區","LI":"安海里","LIN":"2鄰","STREET":"正興街","SECT":" ","MAREA":" ","LANE":" ","ALLEY":" ","HOUSE_NO":"２４２號","E_COORD97":167397.35999999999,"N_COORD97":2544003.1499999999,"ADDRESS":"正興街２４２號","OBJECTID":233346},"geometry":{"x":167397.36000000034,"y":2544003.1500000041}},{"attributes":{"ID":233351,"DIS_CODE":0,"TOWNNAME":"中西區","LI":"安海里","LIN":"2鄰","STREET":"正興街","SECT":" ","MAREA":" ","LANE":" ","ALLEY":" ","HOUSE_NO":"２４６號","E_COORD97":167397.89000000001,"N_COORD97":2544006.7200000002,"ADDRESS":"正興街２４６號","OBJECTID":233347},"geometry":{"x":167397.88999999966,"y":2544006.7200000044}},{"attributes":{"ID":233352,"DIS_CODE":0,"TOWNNAME":"安定區","LI":"蘇林里","LIN":"23鄰","STREET":" ","SECT":" ","MAREA":"蘇厝","LANE":" ","ALLEY":" ","HOUSE_NO":"２５８之１號","E_COORD97":173362.22,"N_COORD97":2558664.2999999998,"ADDRESS":"蘇厝２５８之１號","OBJECTID":233348},"geometry":{"x":173362.22000000067,"y":2558664.3000000026}},{"attributes":{"ID":233353,"DIS_CODE":0,"TOWNNAME":"安定區","LI":"蘇林里","LIN":"23鄰","STREET":" ","SECT":" ","MAREA":"蘇厝","LANE":" ","ALLEY":" ","HOUSE_NO":"２６７之５號","E_COORD97":173377.31,"N_COORD97":2558683.6800000002,"ADDRESS":"蘇厝２６７之５號","OBJECTID":233349},"geometry":{"x":173377.30999999959,"y":2558683.6800000016}},{"attributes":{"ID":233354,"DIS_CODE":0,"TOWNNAME":"新市區","LI":"大營里","LIN":"23鄰","STREET":" ","SECT":" ","MAREA":"大營","LANE":" ","ALLEY":" ","HOUSE_NO":"１３０之８號","E_COORD97":179222.35000000001,"N_COORD97":2554622.5499999998,"ADDRESS":"大營１３０之８號","OBJECTID":233350},"geometry":{"x":179222.3499999987,"y":2554622.5500000007}},{"attributes":{"ID":233355,"DIS_CODE":0,"TOWNNAME":"新市區","LI":"大營里","LIN":"23鄰","STREET":" ","SECT":" ","MAREA":"大營","LANE":" ","ALLEY":" ","HOUSE_NO":"１３０之３９號","E_COORD97":179299.89999999999,"N_COORD97":2554634.0499999998,"ADDRESS":"大營１３０之３９號","OBJECTID":233351},"geometry":{"x":179299.9000000013,"y":2554634.0500000026}},{"attributes":{"ID":233356,"DIS_CODE":0,"TOWNNAME":"東區","LI":"圍下里","LIN":"23鄰","STREET":"前鋒路","SECT":" ","MAREA":" ","LANE":"１３７巷","ALLEY":" ","HOUSE_NO":"３號","E_COORD97":169289.45999999999,"N_COORD97":2543839.0899999999,"ADDRESS":"前鋒路１３７巷３號","OBJECTID":233352},"geometry":{"x":169289.45999999996,"y":2543839.0899999999}},{"attributes":{"ID":233357,"DIS_CODE":0,"TOWNNAME":"安南區","LI":"州北里","LIN":"23鄰","STREET":"安和路","SECT":"五段","MAREA":" ","LANE":"３２５巷","ALLEY":" ","HOUSE_NO":"４號","E_COORD97":169645.82000000001,"N_COORD97":2552150.29,"ADDRESS":"安和路五段３２５巷４號","OBJECTID":233353},"geometry":{"x":169645.82000000123,"y":2552150.2899999991}},{"attributes":{"ID":233358,"DIS_CODE":0,"TOWNNAME":"安南區","LI":"州北里","LIN":"23鄰","STREET":"安和路","SECT":"五段","MAREA":" ","LANE":"３２５巷","ALLEY":" ","HOUSE_NO":"６號","E_COORD97":169639.35000000001,"N_COORD97":2552147.3799999999,"ADDRESS":"安和路五段３２５巷６號","OBJECTID":233354},"geometry":{"x":169639.34999999963,"y":2552147.3800000027}},{"attributes":{"ID":233359,"DIS_CODE":0,"TOWNNAME":"安南區","LI":"州北里","LIN":"23鄰","STREET":"安和路","SECT":"五段","MAREA":" ","LANE":"３２５巷","ALLEY":" ","HOUSE_NO":"８號","E_COORD97":169632.45000000001,"N_COORD97":2552146.6299999999,"ADDRESS":"安和路五段３２５巷８號","OBJECTID":233355},"geometry":{"x":169632.45000000019,"y":2552146.6300000008}},{"attributes":{"ID":233360,"DIS_CODE":0,"TOWNNAME":"中西區","LI":"安海里","LIN":"10鄰","STREET":"河中街","SECT":" ","MAREA":" ","LANE":"８巷","ALLEY":" ","HOUSE_NO":"２號","E_COORD97":167288.67999999999,"N_COORD97":2543902.21,"ADDRESS":"河中街８巷２號","OBJECTID":233356},"geometry":{"x":167288.68000000063,"y":2543902.2100000028}},{"attributes":{"ID":233361,"DIS_CODE":0,"TOWNNAME":"北區","LI":"小康里","LIN":"2鄰","STREET":"實踐街","SECT":" ","MAREA":" ","LANE":"３９巷","ALLEY":" ","HOUSE_NO":"１０５號","E_COORD97":169910.67000000001,"N_COORD97":2546411.0800000001,"ADDRESS":"實踐街３９巷１０５號","OBJECTID":233357},"geometry":{"x":169910.67000000179,"y":2546411.0800000019}},{"attributes":{"ID":233362,"DIS_CODE":0,"TOWNNAME":"安平區","LI":"國平里","LIN":"2鄰","STREET":"建平七街","SECT":" ","MAREA":" ","LANE":"４５３巷","ALLEY":" ","HOUSE_NO":"３０之１號","E_COORD97":165442.87,"N_COORD97":2543264.5499999998,"ADDRESS":"建平七街４５３巷３０之１號","OBJECTID":233358},"geometry":{"x":165442.87000000104,"y":2543264.5500000007}},{"attributes":{"ID":233363,"DIS_CODE":0,"TOWNNAME":"安平區","LI":"金城里","LIN":"2鄰","STREET":"國勝路","SECT":" ","MAREA":" ","LANE":"７巷","ALLEY":" ","HOUSE_NO":"４號","E_COORD97":163973.92999999999,"N_COORD97":2544450.1499999999,"ADDRESS":"國勝路７巷４號","OBJECTID":233359},"geometry":{"x":163973.93000000156,"y":2544450.1500000004}},{"attributes":{"ID":233364,"DIS_CODE":0,"TOWNNAME":"安平區","LI":"金城里","LIN":"2鄰","STREET":"國勝路","SECT":" ","MAREA":" ","LANE":"７巷","ALLEY":" ","HOUSE_NO":"１２號","E_COORD97":163971.12,"N_COORD97":2544415.2799999998,"ADDRESS":"國勝路７巷１２號","OBJECTID":233360},"geometry":{"x":163971.11999999918,"y":2544415.2800000012}},{"attributes":{"ID":233365,"DIS_CODE":0,"TOWNNAME":"安平區","LI":"金城里","LIN":"2鄰","STREET":"國勝路","SECT":" ","MAREA":" ","LANE":"７巷","ALLEY":" ","HOUSE_NO":"１４號","E_COORD97":163969.20000000001,"N_COORD97":2544407.9700000002,"ADDRESS":"國勝路７巷１４號","OBJECTID":233361},"geometry":{"x":163969.20000000205,"y":2544407.9700000007}},{"attributes":{"ID":233366,"DIS_CODE":0,"TOWNNAME":"安平區","LI":"金城里","LIN":"2鄰","STREET":"運河路","SECT":" ","MAREA":" ","LANE":"４０巷","ALLEY":" ","HOUSE_NO":"１０號","E_COORD97":163936.73000000001,"N_COORD97":2544400.0899999999,"ADDRESS":"運河路４０巷１０號","OBJECTID":233362},"geometry":{"x":163936.73000000045,"y":2544400.0900000017}},{"attributes":{"ID":233367,"DIS_CODE":0,"TOWNNAME":"安平區","LI":"金城里","LIN":"2鄰","STREET":"運河路","SECT":" ","MAREA":" ","LANE":"４０巷","ALLEY":" ","HOUSE_NO":"８號","E_COORD97":163946.34,"N_COORD97":2544391.27,"ADDRESS":"運河路４０巷８號","OBJECTID":233363},"geometry":{"x":163946.34000000078,"y":2544391.2699999977}},{"attributes":{"ID":233368,"DIS_CODE":0,"TOWNNAME":"安平區","LI":"華平里","LIN":"2鄰","STREET":"國平路","SECT":" ","MAREA":" ","LANE":"５５２巷","ALLEY":" ","HOUSE_NO":"１１１號","E_COORD97":165339.78,"N_COORD97":2544131.5499999998,"ADDRESS":"國平路５５２巷１１１號","OBJECTID":233364},"geometry":{"x":165339.78000000026,"y":2544131.5500000007}},{"attributes":{"ID":233369,"DIS_CODE":0,"TOWNNAME":"安平區","LI":"華平里","LIN":"2鄰","STREET":"國平路","SECT":" ","MAREA":" ","LANE":"５５２巷","ALLEY":" ","HOUSE_NO":"１１３號","E_COORD97":165344.69,"N_COORD97":2544131.4199999999,"ADDRESS":"國平路５５２巷１１３號","OBJECTID":233365},"geometry":{"x":165344.69000000134,"y":2544131.4200000018}},{"attributes":{"ID":233370,"DIS_CODE":0,"TOWNNAME":"安平區","LI":"華平里","LIN":"2鄰","STREET":"國平路","SECT":" ","MAREA":" ","LANE":"５５２巷","ALLEY":" ","HOUSE_NO":"６５號","E_COORD97":165238.73999999999,"N_COORD97":2544142.9700000002,"ADDRESS":"國平路５５２巷６５號","OBJECTID":233366},"geometry":{"x":165238.74000000115,"y":2544142.9700000007}},{"attributes":{"ID":233371,"DIS_CODE":0,"TOWNNAME":"安平區","LI":"華平里","LIN":"2鄰","STREET":"國平路","SECT":" ","MAREA":" ","LANE":"５５２巷","ALLEY":" ","HOUSE_NO":"６７號","E_COORD97":165242.76000000001,"N_COORD97":2544142.2200000002,"ADDRESS":"國平路５５２巷６７號","OBJECTID":233367},"geometry":{"x":165242.75999999978,"y":2544142.2200000044}},{"attributes":{"ID":233372,"DIS_CODE":0,"TOWNNAME":"北區","LI":"中樓里","LIN":"2鄰","STREET":"前鋒路","SECT":" ","MAREA":" ","LANE":"１８５巷","ALLEY":" ","HOUSE_NO":"３號","E_COORD97":169461.54999999999,"N_COORD97":2544772.6600000001,"ADDRESS":"前鋒路１８５巷３號","OBJECTID":233368},"geometry":{"x":169461.54999999981,"y":2544772.6600000039}},{"attributes":{"ID":233373,"DIS_CODE":0,"TOWNNAME":"歸仁區","LI":"後市里","LIN":"48鄰","STREET":"文化街","SECT":"二段","MAREA":" ","LANE":"１３９巷","ALLEY":" ","HOUSE_NO":"８號","E_COORD97":177135.73999999999,"N_COORD97":2541132.7599999998,"ADDRESS":"文化街二段１３９巷８號","OBJECTID":233369},"geometry":{"x":177135.74000000115,"y":2541132.7599999998}},{"attributes":{"ID":233374,"DIS_CODE":0,"TOWNNAME":"歸仁區","LI":"南保里","LIN":"48鄰","STREET":"大順街","SECT":" ","MAREA":" ","LANE":"１８１巷","ALLEY":" ","HOUSE_NO":"８號","E_COORD97":176917.37,"N_COORD97":2540581.25,"ADDRESS":"大順街１８１巷８號","OBJECTID":233370},"geometry":{"x":176917.37000000197,"y":2540581.2500000037}},{"attributes":{"ID":233375,"DIS_CODE":0,"TOWNNAME":"歸仁區","LI":"辜厝里","LIN":"48鄰","STREET":"民權九街","SECT":" ","MAREA":" ","LANE":"５６巷","ALLEY":" ","HOUSE_NO":"１２號","E_COORD97":177071.67000000001,"N_COORD97":2540305.0299999998,"ADDRESS":"民權九街５６巷１２號","OBJECTID":233371},"geometry":{"x":177071.67000000086,"y":2540305.0300000012}},{"attributes":{"ID":233376,"DIS_CODE":0,"TOWNNAME":"歸仁區","LI":"辜厝里","LIN":"48鄰","STREET":"中正十街","SECT":" ","MAREA":" ","LANE":"３６巷","ALLEY":" ","HOUSE_NO":"１３號","E_COORD97":177045.42000000001,"N_COORD97":2540257.8599999999,"ADDRESS":"中正十街３６巷１３號","OBJECTID":233372},"geometry":{"x":177045.41999999993,"y":2540257.8600000031}},{"attributes":{"ID":233377,"DIS_CODE":0,"TOWNNAME":"中西區","LI":"協和里","LIN":"14鄰","STREET":"和美街","SECT":" ","MAREA":" ","LANE":" ","ALLEY":" ","HOUSE_NO":"２９號","E_COORD97":167166.54000000001,"N_COORD97":2544720.6299999999,"ADDRESS":"和美街２９號","OBJECTID":233373},"geometry":{"x":167166.54000000004,"y":2544720.6300000027}},{"attributes":{"ID":233378,"DIS_CODE":0,"TOWNNAME":"中西區","LI":"協和里","LIN":"14鄰","STREET":"和美街","SECT":" ","MAREA":" ","LANE":" ","ALLEY":" ","HOUSE_NO":"３１號","E_COORD97":167164.26000000001,"N_COORD97":2544723.21,"ADDRESS":"和美街３１號","OBJECTID":233374},"geometry":{"x":167164.26000000071,"y":2544723.2100000028}},{"attributes":{"ID":233379,"DIS_CODE":0,"TOWNNAME":"中西區","LI":"協和里","LIN":"14鄰","STREET":"永和街","SECT":" ","MAREA":" ","LANE":" ","ALLEY":" ","HOUSE_NO":"１１３號","E_COORD97":167105.56,"N_COORD97":2544698.8199999998,"ADDRESS":"永和街１１３號","OBJECTID":233375},"geometry":{"x":167105.56000000145,"y":2544698.8200000003}},{"attributes":{"ID":233380,"DIS_CODE":0,"TOWNNAME":"中西區","LI":"協和里","LIN":"14鄰","STREET":"永和街","SECT":" ","MAREA":" ","LANE":" ","ALLEY":" ","HOUSE_NO":"１１５號","E_COORD97":167108.73000000001,"N_COORD97":2544701.79,"ADDRESS":"永和街１１５號","OBJECTID":233376},"geometry":{"x":167108.73000000231,"y":2544701.7899999991}},{"attributes":{"ID":233381,"DIS_CODE":0,"TOWNNAME":"新市區","LI":"大營里","LIN":"23鄰","STREET":" ","SECT":" ","MAREA":"大營","LANE":" ","ALLEY":" ","HOUSE_NO":"１３０之２３號","E_COORD97":179253.48000000001,"N_COORD97":2554613.2999999998,"ADDRESS":"大營１３０之２３號","OBJECTID":233377},"geometry":{"x":179253.48000000138,"y":2554613.3000000007}},{"attributes":{"ID":233382,"DIS_CODE":0,"TOWNNAME":"新市區","LI":"大營里","LIN":"23鄰","STREET":" ","SECT":" ","MAREA":"大營","LANE":" ","ALLEY":" ","HOUSE_NO":"１３０之１３號","E_COORD97":179240.67000000001,"N_COORD97":2554629.2999999998,"ADDRESS":"大營１３０之１３號","OBJECTID":233378},"geometry":{"x":179240.66999999993,"y":2554629.3000000026}},{"attributes":{"ID":233383,"DIS_CODE":0,"TOWNNAME":"新市區","LI":"大社里","LIN":"23鄰","STREET":" ","SECT":" ","MAREA":"大社","LANE":" ","ALLEY":" ","HOUSE_NO":"８６０號","E_COORD97":179637.35000000001,"N_COORD97":2554113,"ADDRESS":"大社８６０號","OBJECTID":233379},"geometry":{"x":179637.34999999963,"y":2554113}},{"attributes":{"ID":233384,"DIS_CODE":0,"TOWNNAME":"歸仁區","LI":"辜厝里","LIN":"48鄰","STREET":"中正十街","SECT":" ","MAREA":" ","LANE":"３６巷","ALLEY":" ","HOUSE_NO":"９號","E_COORD97":177038.07000000001,"N_COORD97":2540257.8599999999,"ADDRESS":"中正十街３６巷９號","OBJECTID":233380},"geometry":{"x":177038.0700000003,"y":2540257.8600000031}},{"attributes":{"ID":233385,"DIS_CODE":0,"TOWNNAME":"新市區","LI":"大營里","LIN":"23鄰","STREET":" ","SECT":" ","MAREA":"大營","LANE":" ","ALLEY":" ","HOUSE_NO":"１３０之３４號","E_COORD97":179286.60000000001,"N_COORD97":2554618.0499999998,"ADDRESS":"大營１３０之３４號","OBJECTID":233381},"geometry":{"x":179286.59999999963,"y":2554618.0500000007}},{"attributes":{"ID":233386,"DIS_CODE":0,"TOWNNAME":"新市區","LI":"大營里","LIN":"23鄰","STREET":" ","SECT":" ","MAREA":"大營","LANE":" ","ALLEY":" ","HOUSE_NO":"１３０之１８號","E_COORD97":179236.07000000001,"N_COORD97":2554607.0499999998,"ADDRESS":"大營１３０之１８號","OBJECTID":233382},"geometry":{"x":179236.07000000123,"y":2554607.0500000026}},{"attributes":{"ID":233387,"DIS_CODE":0,"TOWNNAME":"新市區","LI":"大社里","LIN":"23鄰","STREET":" ","SECT":" ","MAREA":"大社","LANE":" ","ALLEY":" ","HOUSE_NO":"８５１號之１２","E_COORD97":179661,"N_COORD97":2554152.2999999998,"ADDRESS":"大社８５１號之１２","OBJECTID":233383},"geometry":{"x":179661.00000000186,"y":2554152.3000000007}},{"attributes":{"ID":233388,"DIS_CODE":0,"TOWNNAME":"歸仁區","LI":"辜厝里","LIN":"48鄰","STREET":"中正十街","SECT":" ","MAREA":" ","LANE":"３６巷","ALLEY":" ","HOUSE_NO":"１５號","E_COORD97":177049.51999999999,"N_COORD97":2540257.8599999999,"ADDRESS":"中正十街３６巷１５號","OBJECTID":233384},"geometry":{"x":177049.51999999955,"y":2540257.8600000031}},{"attributes":{"ID":233389,"DIS_CODE":0,"TOWNNAME":"歸仁區","LI":"辜厝里","LIN":"48鄰","STREET":"中正十街","SECT":" ","MAREA":" ","LANE":"３６巷","ALLEY":" ","HOUSE_NO":"５號","E_COORD97":177028.76999999999,"N_COORD97":2540258.8599999999,"ADDRESS":"中正十街３６巷５號","OBJECTID":233385},"geometry":{"x":177028.76999999955,"y":2540258.8600000013}},{"attributes":{"ID":233390,"DIS_CODE":0,"TOWNNAME":"歸仁區","LI":"辜厝里","LIN":"48鄰","STREET":"中正十街","SECT":" ","MAREA":" ","LANE":"３６巷","ALLEY":" ","HOUSE_NO":"２３號","E_COORD97":177065.92000000001,"N_COORD97":2540255.8599999999,"ADDRESS":"中正十街３６巷２３號","OBJECTID":233386},"geometry":{"x":177065.91999999899,"y":2540255.8600000013}},{"attributes":{"ID":233391,"DIS_CODE":0,"TOWNNAME":"關廟區","LI":"田中里","LIN":"4鄰","STREET":"田大路","SECT":" ","MAREA":" ","LANE":"８０巷","ALLEY":" ","HOUSE_NO":"７號","E_COORD97":184234.50333800001,"N_COORD97":2533745.5051799999,"ADDRESS":"田大路８０巷７號","OBJECTID":233387},"geometry":{"x":184234.50333800074,"y":2533745.5051800013}},{"attributes":{"ID":233392,"DIS_CODE":0,"TOWNNAME":"歸仁區","LI":"辜厝里","LIN":"48鄰","STREET":"中正十街","SECT":" ","MAREA":" ","LANE":"３６巷","ALLEY":" ","HOUSE_NO":"１７號","E_COORD97":177054.72,"N_COORD97":2540257.8599999999,"ADDRESS":"中正十街３６巷１７號","OBJECTID":233388},"geometry":{"x":177054.71999999974,"y":2540257.8600000031}},{"attributes":{"ID":233393,"DIS_CODE":0,"TOWNNAME":"永康區","LI":"\u25A0行里","LIN":"48鄰","STREET":"新民街","SECT":" ","MAREA":" ","LANE":"１６巷","ALLEY":" ","HOUSE_NO":"５號","E_COORD97":172469.73000000001,"N_COORD97":2549017.1800000002,"ADDRESS":"新民街１６巷５號","OBJECTID":233389},"geometry":{"x":172469.73000000045,"y":2549017.1800000016}},{"attributes":{"ID":233394,"DIS_CODE":0,"TOWNNAME":"仁德區","LI":"仁義里","LIN":"48鄰","STREET":"仁義路","SECT":" ","MAREA":" ","LANE":"９５巷","ALLEY":" ","HOUSE_NO":"３１號","E_COORD97":173622.5,"N_COORD97":2541057.77,"ADDRESS":"仁義路９５巷３１號","OBJECTID":233390},"geometry":{"x":173622.5,"y":2541057.7699999996}},{"attributes":{"ID":233395,"DIS_CODE":0,"TOWNNAME":"仁德區","LI":"仁義里","LIN":"48鄰","STREET":"仁義路","SECT":" ","MAREA":" ","LANE":"９５巷","ALLEY":" ","HOUSE_NO":"２９號","E_COORD97":173621.91,"N_COORD97":2541053.77,"ADDRESS":"仁義路９５巷２９號","OBJECTID":233391},"geometry":{"x":173621.91000000108,"y":2541053.7699999996}},{"attributes":{"ID":233396,"DIS_CODE":0,"TOWNNAME":"仁德區","LI":"仁義里","LIN":"48鄰","STREET":"仁義路","SECT":" ","MAREA":" ","LANE":"９５巷","ALLEY":" ","HOUSE_NO":"３３號","E_COORD97":173622.81,"N_COORD97":2541061.77,"ADDRESS":"仁義路９５巷３３號","OBJECTID":233392},"geometry":{"x":173622.80999999959,"y":2541061.7699999996}},{"attributes":{"ID":233397,"DIS_CODE":0,"TOWNNAME":"中西區","LI":"三合里","LIN":"9鄰","STREET":"民族路","SECT":"三段","MAREA":" ","LANE":"１７６巷","ALLEY":" ","HOUSE_NO":"３３號","E_COORD97":167539.69,"N_COORD97":2544495.52,"ADDRESS":"民族路三段１７６巷３３號","OBJECTID":233393},"geometry":{"x":167539.69000000134,"y":2544495.5200000014}},{"attributes":{"ID":233398,"DIS_CODE":0,"TOWNNAME":"中西區","LI":"三合里","LIN":"9鄰","STREET":"民族路","SECT":"三段","MAREA":" ","LANE":"１７６巷","ALLEY":" ","HOUSE_NO":"３５號","E_COORD97":167550.17000000001,"N_COORD97":2544496.48,"ADDRESS":"民族路三段１７６巷３５號","OBJECTID":233394},"geometry":{"x":167550.16999999993,"y":2544496.4800000023}},{"attributes":{"ID":233399,"DIS_CODE":0,"TOWNNAME":"仁德區","LI":"仁義里","LIN":"48鄰","STREET":"仁義路","SECT":" ","MAREA":" ","LANE":"９５巷","ALLEY":" ","HOUSE_NO":"３５號","E_COORD97":173622.91,"N_COORD97":2541066.02,"ADDRESS":"仁義路９５巷３５號","OBJECTID":233395},"geometry":{"x":173622.91000000015,"y":2541066.0199999996}},{"attributes":{"ID":233400,"DIS_CODE":0,"TOWNNAME":"仁德區","LI":"仁義里","LIN":"48鄰","STREET":"仁義路","SECT":" ","MAREA":" ","LANE":"９５巷","ALLEY":" ","HOUSE_NO":"２５號","E_COORD97":173621.35000000001,"N_COORD97":2541045.27,"ADDRESS":"仁義路９５巷２５號","OBJECTID":233396},"geometry":{"x":173621.34999999963,"y":2541045.2700000033}},{"attributes":{"ID":233401,"DIS_CODE":0,"TOWNNAME":"永康區","LI":"崑山里","LIN":"48鄰","STREET":"永華路","SECT":" ","MAREA":" ","LANE":"３２巷","ALLEY":" ","HOUSE_NO":"２１號","E_COORD97":174138.62,"N_COORD97":2545206.8599999999,"ADDRESS":"永華路３２巷２１號","OBJECTID":233397},"geometry":{"x":174138.62000000011,"y":2545206.8599999994}},{"attributes":{"ID":233402,"DIS_CODE":0,"TOWNNAME":"永康區","LI":"崑山里","LIN":"48鄰","STREET":"國光六街","SECT":" ","MAREA":" ","LANE":"３７巷","ALLEY":" ","HOUSE_NO":"８號","E_COORD97":174212.34,"N_COORD97":2545253.4900000002,"ADDRESS":"國光六街３７巷８號","OBJECTID":233398},"geometry":{"x":174212.34000000078,"y":2545253.4900000021}},{"attributes":{"ID":233403,"DIS_CODE":0,"TOWNNAME":"中西區","LI":"協和里","LIN":"14鄰","STREET":"永和街","SECT":" ","MAREA":" ","LANE":" ","ALLEY":" ","HOUSE_NO":"１１７號","E_COORD97":167112.10000000001,"N_COORD97":2544705.2599999998,"ADDRESS":"永和街１１７號","OBJECTID":233399},"geometry":{"x":167112.10000000149,"y":2544705.2600000016}},{"attributes":{"ID":233404,"DIS_CODE":0,"TOWNNAME":"新市區","LI":"大社里","LIN":"23鄰","STREET":" ","SECT":" ","MAREA":"大社","LANE":" ","ALLEY":" ","HOUSE_NO":"８６１號","E_COORD97":179710.89999999999,"N_COORD97":2554069.5,"ADDRESS":"大社８６１號","OBJECTID":233400},"geometry":{"x":179710.90000000037,"y":2554069.5}}]}