{"displayFieldName":"TOWNNAME","fieldAliases":{"ID":"ID","DIS_CODE":"DIS_CODE","TOWNNAME":"TOWNNAME","LI":"LI","LIN":"LIN","STREET":"STREET","SECT":"SECT","MAREA":"MAREA","LANE":"LANE","ALLEY":"ALLEY","HOUSE_NO":"HOUSE_NO","E_COORD97":"E_COORD97","N_COORD97":"N_COORD97","ADDRESS":"ADDRESS","OBJECTID":"OBJECTID"},"geometryType":"esriGeometryPoint","spatialReference":{"wkid":102443,"latestWkid":3826},"fields":[{"name":"ID","type":"esriFieldTypeDouble","alias":"ID"},{"name":"DIS_CODE","type":"esriFieldTypeInteger","alias":"DIS_CODE"},{"name":"TOWNNAME","type":"esriFieldTypeString","alias":"TOWNNAME","length":8},{"name":"LI","type":"esriFieldTypeString","alias":"LI","length":8},{"name":"LIN","type":"esriFieldTypeString","alias":"LIN","length":12},{"name":"STREET","type":"esriFieldTypeString","alias":"STREET","length":20},{"name":"SECT","type":"esriFieldTypeString","alias":"SECT","length":8},{"name":"MAREA","type":"esriFieldTypeString","alias":"MAREA","length":12},{"name":"LANE","type":"esriFieldTypeString","alias":"LANE","length":10},{"name":"ALLEY","type":"esriFieldTypeString","alias":"ALLEY","length":10},{"name":"HOUSE_NO","type":"esriFieldTypeString","alias":"HOUSE_NO","length":20},{"name":"E_COORD97","type":"esriFieldTypeDouble","alias":"E_COORD97"},{"name":"N_COORD97","type":"esriFieldTypeDouble","alias":"N_COORD97"},{"name":"ADDRESS","type":"esriFieldTypeString","alias":"ADDRESS","length":50},{"name":"OBJECTID","type":"esriFieldTypeOID","alias":"OBJECTID"}],"features":[{"attributes":{"ID":471226,"DIS_CODE":0,"TOWNNAME":"永康區","LI":"建國里","LIN":" ","STREET":"興國街","SECT":" ","MAREA":" ","LANE":" ","ALLEY":" ","HOUSE_NO":"２５號","E_COORD97":172627.37,"N_COORD97":2544712.9900000002,"ADDRESS":"興國街２５號","OBJECTID":471201},"geometry":{"x":172627.37000000104,"y":2544712.9900000039}},{"attributes":{"ID":471227,"DIS_CODE":0,"TOWNNAME":"永康區","LI":"龍潭里","LIN":" ","STREET":"龍潭街","SECT":" ","MAREA":" ","LANE":" ","ALLEY":" ","HOUSE_NO":"２５２號","E_COORD97":174938.98999999999,"N_COORD97":2548340.25,"ADDRESS":"龍潭街２５２號","OBJECTID":471202},"geometry":{"x":174938.99000000115,"y":2548340.25}},{"attributes":{"ID":471228,"DIS_CODE":0,"TOWNNAME":"歸仁區","LI":"南興里","LIN":"38鄰","STREET":"中山路","SECT":"三段","MAREA":" ","LANE":" ","ALLEY":" ","HOUSE_NO":"５３２號","E_COORD97":175764.45999999999,"N_COORD97":2541032.3799999999,"ADDRESS":"中山路三段５３２號","OBJECTID":471203},"geometry":{"x":175764.46000000089,"y":2541032.379999999}},{"attributes":{"ID":471229,"DIS_CODE":0,"TOWNNAME":"永康區","LI":"\u25A0洲里","LIN":"4鄰","STREET":"\u25A0洲二街","SECT":" ","MAREA":" ","LANE":" ","ALLEY":" ","HOUSE_NO":"９９號","E_COORD97":171590.45999999999,"N_COORD97":2549283.7400000002,"ADDRESS":"\u25A0洲二街９９號","OBJECTID":471204},"geometry":{"x":171590.46000000183,"y":2549283.7400000002}},{"attributes":{"ID":471230,"DIS_CODE":0,"TOWNNAME":"永康區","LI":"\u25A0洲里","LIN":"4鄰","STREET":"\u25A0洲二街","SECT":" ","MAREA":" ","LANE":" ","ALLEY":" ","HOUSE_NO":"１１３號","E_COORD97":171649.06,"N_COORD97":2549528.4300000002,"ADDRESS":"\u25A0洲二街１１３號","OBJECTID":471205},"geometry":{"x":171649.06000000052,"y":2549528.4300000016}},{"attributes":{"ID":471231,"DIS_CODE":0,"TOWNNAME":"永康區","LI":"崑山里","LIN":" ","STREET":"崑山街","SECT":" ","MAREA":" ","LANE":" ","ALLEY":" ","HOUSE_NO":"１３之２號","E_COORD97":173912.78,"N_COORD97":2544544.1299999999,"ADDRESS":"崑山街１３之２號","OBJECTID":471206},"geometry":{"x":173912.78000000119,"y":2544544.1299999971}},{"attributes":{"ID":471232,"DIS_CODE":0,"TOWNNAME":"永康區","LI":"蔦松里","LIN":" ","STREET":"中正北路","SECT":" ","MAREA":" ","LANE":" ","ALLEY":" ","HOUSE_NO":"４７５號","E_COORD97":173741.91,"N_COORD97":2549158.9900000002,"ADDRESS":"中正北路４７５號","OBJECTID":471207},"geometry":{"x":173741.91000000015,"y":2549158.9900000021}},{"attributes":{"ID":471233,"DIS_CODE":0,"TOWNNAME":"永康區","LI":"\u25A0洲里","LIN":" ","STREET":"鹽行路","SECT":" ","MAREA":" ","LANE":" ","ALLEY":" ","HOUSE_NO":"１號","E_COORD97":171204.32000000001,"N_COORD97":2548939.25,"ADDRESS":"鹽行路１號","OBJECTID":471208},"geometry":{"x":171204.3200000003,"y":2548939.2500000019}},{"attributes":{"ID":471234,"DIS_CODE":0,"TOWNNAME":"永康區","LI":"勝利里","LIN":"20鄰","STREET":"勝學路","SECT":" ","MAREA":" ","LANE":" ","ALLEY":" ","HOUSE_NO":"２２７號","E_COORD97":171180.34,"N_COORD97":2545242,"ADDRESS":"勝學路２２７號","OBJECTID":471209},"geometry":{"x":171180.33999999985,"y":2545242.0000000019}},{"attributes":{"ID":471235,"DIS_CODE":0,"TOWNNAME":"下營區","LI":"營前里","LIN":"13鄰","STREET":"復興街","SECT":" ","MAREA":" ","LANE":" ","ALLEY":" ","HOUSE_NO":"５１號","E_COORD97":174630.82000000001,"N_COORD97":2570406.3999999999,"ADDRESS":"復興街５１號","OBJECTID":471210},"geometry":{"x":174630.8200000003,"y":2570406.4000000022}},{"attributes":{"ID":471236,"DIS_CODE":0,"TOWNNAME":"永康區","LI":"崑山里","LIN":"15鄰","STREET":"大灣路","SECT":" ","MAREA":" ","LANE":" ","ALLEY":" ","HOUSE_NO":"９５６號","E_COORD97":173590.01000000001,"N_COORD97":2544420.2400000002,"ADDRESS":"大灣路９５６號","OBJECTID":471211},"geometry":{"x":173590.00999999885,"y":2544420.2400000021}},{"attributes":{"ID":471237,"DIS_CODE":0,"TOWNNAME":"安平區","LI":"育平里","LIN":"38鄰","STREET":"育平路","SECT":" ","MAREA":" ","LANE":" ","ALLEY":" ","HOUSE_NO":"３９號","E_COORD97":164511.10999999999,"N_COORD97":2543013.6400000001,"ADDRESS":"育平路３９號","OBJECTID":471212},"geometry":{"x":164511.11000000127,"y":2543013.6400000043}},{"attributes":{"ID":471238,"DIS_CODE":0,"TOWNNAME":"安平區","LI":"育平里","LIN":"38鄰","STREET":"育平路","SECT":" ","MAREA":" ","LANE":" ","ALLEY":" ","HOUSE_NO":"４１號","E_COORD97":164511.82000000001,"N_COORD97":2543018.27,"ADDRESS":"育平路４１號","OBJECTID":471213},"geometry":{"x":164511.8200000003,"y":2543018.2700000033}},{"attributes":{"ID":471239,"DIS_CODE":0,"TOWNNAME":"安平區","LI":"育平里","LIN":"38鄰","STREET":"府平路","SECT":" ","MAREA":" ","LANE":" ","ALLEY":" ","HOUSE_NO":"４３５號","E_COORD97":164469,"N_COORD97":2543103.5699999998,"ADDRESS":"府平路４３５號","OBJECTID":471214},"geometry":{"x":164469.00000000093,"y":2543103.5700000022}},{"attributes":{"ID":471240,"DIS_CODE":0,"TOWNNAME":"安平區","LI":"育平里","LIN":"38鄰","STREET":"府平路","SECT":" ","MAREA":" ","LANE":" ","ALLEY":" ","HOUSE_NO":"４３７號","E_COORD97":164464.64999999999,"N_COORD97":2543105.54,"ADDRESS":"府平路４３７號","OBJECTID":471215},"geometry":{"x":164464.65000000224,"y":2543105.540000001}},{"attributes":{"ID":471241,"DIS_CODE":0,"TOWNNAME":"安平區","LI":"育平里","LIN":"38鄰","STREET":"府平路","SECT":" ","MAREA":" ","LANE":" ","ALLEY":" ","HOUSE_NO":"４３９號","E_COORD97":164459.51000000001,"N_COORD97":2543105.1499999999,"ADDRESS":"府平路４３９號","OBJECTID":471216},"geometry":{"x":164459.50999999978,"y":2543105.1500000022}},{"attributes":{"ID":471242,"DIS_CODE":0,"TOWNNAME":"南區","LI":"開南里","LIN":"14鄰","STREET":"新建路","SECT":" ","MAREA":" ","LANE":"３２巷","ALLEY":" ","HOUSE_NO":"２號","E_COORD97":166440.63,"N_COORD97":2540961.8799999999,"ADDRESS":"新建路３２巷２號","OBJECTID":471217},"geometry":{"x":166440.62999999989,"y":2540961.879999999}},{"attributes":{"ID":471243,"DIS_CODE":0,"TOWNNAME":"安平區","LI":"育平里","LIN":"38鄰","STREET":"府平路","SECT":" ","MAREA":" ","LANE":" ","ALLEY":" ","HOUSE_NO":"４４１號","E_COORD97":164454.37,"N_COORD97":2543107.52,"ADDRESS":"府平路４４１號","OBJECTID":471218},"geometry":{"x":164454.37000000197,"y":2543107.5199999996}},{"attributes":{"ID":471244,"DIS_CODE":0,"TOWNNAME":"安平區","LI":"育平里","LIN":"38鄰","STREET":"光州二街","SECT":" ","MAREA":" ","LANE":" ","ALLEY":" ","HOUSE_NO":"１３９號","E_COORD97":164410.67000000001,"N_COORD97":2543069.9199999999,"ADDRESS":"光州二街１３９號","OBJECTID":471219},"geometry":{"x":164410.66999999993,"y":2543069.9200000018}},{"attributes":{"ID":471245,"DIS_CODE":0,"TOWNNAME":"歸仁區","LI":"六甲里","LIN":"38鄰","STREET":"六甲八街","SECT":" ","MAREA":" ","LANE":" ","ALLEY":" ","HOUSE_NO":"９１號","E_COORD97":175341.67000000001,"N_COORD97":2539513.25,"ADDRESS":"六甲八街９１號","OBJECTID":471220},"geometry":{"x":175341.66999999993,"y":2539513.2500000037}},{"attributes":{"ID":471246,"DIS_CODE":0,"TOWNNAME":"歸仁區","LI":"後市里","LIN":"38鄰","STREET":"中山八街","SECT":" ","MAREA":" ","LANE":" ","ALLEY":" ","HOUSE_NO":"７２號","E_COORD97":177191.42000000001,"N_COORD97":2541023.4300000002,"ADDRESS":"中山八街７２號","OBJECTID":471221},"geometry":{"x":177191.41999999899,"y":2541023.4299999997}},{"attributes":{"ID":471247,"DIS_CODE":0,"TOWNNAME":"歸仁區","LI":"後市里","LIN":"38鄰","STREET":"中山八街","SECT":" ","MAREA":" ","LANE":" ","ALLEY":" ","HOUSE_NO":"７６號","E_COORD97":177188.32000000001,"N_COORD97":2541024.0600000001,"ADDRESS":"中山八街７６號","OBJECTID":471222},"geometry":{"x":177188.32000000123,"y":2541024.0600000042}},{"attributes":{"ID":471248,"DIS_CODE":0,"TOWNNAME":"歸仁區","LI":"後市里","LIN":"38鄰","STREET":"中山八街","SECT":" ","MAREA":" ","LANE":" ","ALLEY":" ","HOUSE_NO":"８２號","E_COORD97":177176.04999999999,"N_COORD97":2541025.75,"ADDRESS":"中山八街８２號","OBJECTID":471223},"geometry":{"x":177176.05000000075,"y":2541025.7500000019}},{"attributes":{"ID":471249,"DIS_CODE":0,"TOWNNAME":"歸仁區","LI":"後市里","LIN":"38鄰","STREET":"中山八街","SECT":" ","MAREA":" ","LANE":" ","ALLEY":" ","HOUSE_NO":"８６號","E_COORD97":177172.10000000001,"N_COORD97":2541026,"ADDRESS":"中山八街８６號","OBJECTID":471224},"geometry":{"x":177172.10000000056,"y":2541026}},{"attributes":{"ID":471250,"DIS_CODE":0,"TOWNNAME":"歸仁區","LI":"後市里","LIN":"38鄰","STREET":"中山八街","SECT":" ","MAREA":" ","LANE":" ","ALLEY":" ","HOUSE_NO":"８８號","E_COORD97":177167.75,"N_COORD97":2541026.48,"ADDRESS":"中山八街８８號","OBJECTID":471225},"geometry":{"x":177167.75000000093,"y":2541026.4800000004}},{"attributes":{"ID":471251,"DIS_CODE":0,"TOWNNAME":"永康區","LI":"埔園里","LIN":"38鄰","STREET":"龍國街","SECT":" ","MAREA":" ","LANE":" ","ALLEY":" ","HOUSE_NO":"１６０號","E_COORD97":174279.63,"N_COORD97":2548051.7000000002,"ADDRESS":"龍國街１６０號","OBJECTID":471226},"geometry":{"x":174279.63000000082,"y":2548051.6999999993}},{"attributes":{"ID":471252,"DIS_CODE":0,"TOWNNAME":"安平區","LI":"育平里","LIN":"38鄰","STREET":"光州二街","SECT":" ","MAREA":" ","LANE":" ","ALLEY":" ","HOUSE_NO":"１４９號","E_COORD97":164439.54000000001,"N_COORD97":2543065,"ADDRESS":"光州二街１４９號","OBJECTID":471227},"geometry":{"x":164439.5400000019,"y":2543065.0000000037}},{"attributes":{"ID":471253,"DIS_CODE":0,"TOWNNAME":"安平區","LI":"育平里","LIN":"38鄰","STREET":"光州二街","SECT":" ","MAREA":" ","LANE":" ","ALLEY":" ","HOUSE_NO":"１５１號","E_COORD97":164440.97,"N_COORD97":2543069.6000000001,"ADDRESS":"光州二街１５１號","OBJECTID":471228},"geometry":{"x":164440.96999999974,"y":2543069.5999999996}},{"attributes":{"ID":471254,"DIS_CODE":0,"TOWNNAME":"安平區","LI":"育平里","LIN":"38鄰","STREET":"光州二街","SECT":" ","MAREA":" ","LANE":" ","ALLEY":" ","HOUSE_NO":"１５３號","E_COORD97":164441.14999999999,"N_COORD97":2543072.8100000001,"ADDRESS":"光州二街１５３號","OBJECTID":471229},"geometry":{"x":164441.1500000013,"y":2543072.8100000005}},{"attributes":{"ID":471255,"DIS_CODE":0,"TOWNNAME":"安平區","LI":"育平里","LIN":"38鄰","STREET":"光州二街","SECT":" ","MAREA":" ","LANE":" ","ALLEY":" ","HOUSE_NO":"１５５號","E_COORD97":164442.29000000001,"N_COORD97":2543078.5800000001,"ADDRESS":"光州二街１５５號","OBJECTID":471230},"geometry":{"x":164442.29000000004,"y":2543078.5800000019}},{"attributes":{"ID":471256,"DIS_CODE":0,"TOWNNAME":"安平區","LI":"育平里","LIN":"38鄰","STREET":"光州二街","SECT":" ","MAREA":" ","LANE":" ","ALLEY":" ","HOUSE_NO":"１５７號","E_COORD97":164452.70000000001,"N_COORD97":2543078.3900000001,"ADDRESS":"光州二街１５７號","OBJECTID":471231},"geometry":{"x":164452.70000000112,"y":2543078.3900000006}},{"attributes":{"ID":471257,"DIS_CODE":0,"TOWNNAME":"安平區","LI":"育平里","LIN":"38鄰","STREET":"光州二街","SECT":" ","MAREA":" ","LANE":" ","ALLEY":" ","HOUSE_NO":"１５９號","E_COORD97":164452.32000000001,"N_COORD97":2543073,"ADDRESS":"光州二街１５９號","OBJECTID":471232},"geometry":{"x":164452.32000000123,"y":2543073.0000000019}},{"attributes":{"ID":471258,"DIS_CODE":0,"TOWNNAME":"安平區","LI":"育平里","LIN":"38鄰","STREET":"光州二街","SECT":" ","MAREA":" ","LANE":" ","ALLEY":" ","HOUSE_NO":"１６１號","E_COORD97":164452.07999999999,"N_COORD97":2543067.8599999999,"ADDRESS":"光州二街１６１號","OBJECTID":471233},"geometry":{"x":164452.08000000007,"y":2543067.8599999994}},{"attributes":{"ID":471259,"DIS_CODE":0,"TOWNNAME":"安平區","LI":"育平里","LIN":"38鄰","STREET":"光州二街","SECT":" ","MAREA":" ","LANE":" ","ALLEY":" ","HOUSE_NO":"１６３號","E_COORD97":164452.32000000001,"N_COORD97":2543060.6000000001,"ADDRESS":"光州二街１６３號","OBJECTID":471234},"geometry":{"x":164452.32000000123,"y":2543060.6000000015}},{"attributes":{"ID":471260,"DIS_CODE":0,"TOWNNAME":"永康區","LI":"永康里","LIN":"39鄰","STREET":"文化路","SECT":" ","MAREA":" ","LANE":" ","ALLEY":" ","HOUSE_NO":"３８號底一層之２","E_COORD97":174303.64000000001,"N_COORD97":2546360.0699999998,"ADDRESS":"文化路３８號底一層之２","OBJECTID":471235},"geometry":{"x":174303.6400000006,"y":2546360.070000004}},{"attributes":{"ID":471261,"DIS_CODE":0,"TOWNNAME":"安平區","LI":"育平里","LIN":"38鄰","STREET":"光州二街","SECT":" ","MAREA":" ","LANE":" ","ALLEY":" ","HOUSE_NO":"１６５號","E_COORD97":164461.45000000001,"N_COORD97":2543063.25,"ADDRESS":"光州二街１６５號","OBJECTID":471236},"geometry":{"x":164461.45000000112,"y":2543063.2500000037}},{"attributes":{"ID":471262,"DIS_CODE":0,"TOWNNAME":"歸仁區","LI":"後市里","LIN":"38鄰","STREET":"中山八街","SECT":" ","MAREA":" ","LANE":" ","ALLEY":" ","HOUSE_NO":"３７號","E_COORD97":177186.23000000001,"N_COORD97":2541015.0699999998,"ADDRESS":"中山八街３７號","OBJECTID":471237},"geometry":{"x":177186.23000000045,"y":2541015.0700000022}},{"attributes":{"ID":471263,"DIS_CODE":0,"TOWNNAME":"歸仁區","LI":"南興里","LIN":"38鄰","STREET":"中山路","SECT":"三段","MAREA":" ","LANE":" ","ALLEY":" ","HOUSE_NO":"５４８號","E_COORD97":175710.51000000001,"N_COORD97":2541038.6499999999,"ADDRESS":"中山路三段５４８號","OBJECTID":471238},"geometry":{"x":175710.50999999978,"y":2541038.6500000004}},{"attributes":{"ID":471264,"DIS_CODE":0,"TOWNNAME":"歸仁區","LI":"後市里","LIN":"38鄰","STREET":"中山八街","SECT":" ","MAREA":" ","LANE":" ","ALLEY":" ","HOUSE_NO":"２７號","E_COORD97":177206.79999999999,"N_COORD97":2541012.8900000001,"ADDRESS":"中山八街２７號","OBJECTID":471239},"geometry":{"x":177206.79999999981,"y":2541012.8900000025}},{"attributes":{"ID":471265,"DIS_CODE":0,"TOWNNAME":"歸仁區","LI":"後市里","LIN":"38鄰","STREET":"中山八街","SECT":" ","MAREA":" ","LANE":" ","ALLEY":" ","HOUSE_NO":"４３號","E_COORD97":177173.64000000001,"N_COORD97":2541016.0600000001,"ADDRESS":"中山八街４３號","OBJECTID":471240},"geometry":{"x":177173.63999999966,"y":2541016.0600000005}},{"attributes":{"ID":471266,"DIS_CODE":0,"TOWNNAME":"歸仁區","LI":"南興里","LIN":"38鄰","STREET":"中山路","SECT":"三段","MAREA":" ","LANE":" ","ALLEY":" ","HOUSE_NO":"４５２之１號","E_COORD97":175879.70999999999,"N_COORD97":2541074.2599999998,"ADDRESS":"中山路三段４５２之１號","OBJECTID":471241},"geometry":{"x":175879.71000000089,"y":2541074.2600000016}},{"attributes":{"ID":471267,"DIS_CODE":0,"TOWNNAME":"歸仁區","LI":"南興里","LIN":"38鄰","STREET":"中山路","SECT":"三段","MAREA":" ","LANE":" ","ALLEY":" ","HOUSE_NO":"４８０號","E_COORD97":175849.20999999999,"N_COORD97":2541017.25,"ADDRESS":"中山路三段４８０號","OBJECTID":471242},"geometry":{"x":175849.21000000089,"y":2541017.25}},{"attributes":{"ID":471268,"DIS_CODE":0,"TOWNNAME":"歸仁區","LI":"後市里","LIN":"38鄰","STREET":"中山八街","SECT":" ","MAREA":" ","LANE":" ","ALLEY":" ","HOUSE_NO":"４８號","E_COORD97":177235.73000000001,"N_COORD97":2541034.7400000002,"ADDRESS":"中山八街４８號","OBJECTID":471243},"geometry":{"x":177235.73000000231,"y":2541034.7400000002}},{"attributes":{"ID":471269,"DIS_CODE":0,"TOWNNAME":"歸仁區","LI":"後市里","LIN":"38鄰","STREET":"中山八街","SECT":" ","MAREA":" ","LANE":" ","ALLEY":" ","HOUSE_NO":"３５號","E_COORD97":177190.14999999999,"N_COORD97":2541014.6600000001,"ADDRESS":"中山八街３５號","OBJECTID":471244},"geometry":{"x":177190.15000000037,"y":2541014.6600000001}},{"attributes":{"ID":471270,"DIS_CODE":0,"TOWNNAME":"歸仁區","LI":"後市里","LIN":"38鄰","STREET":"中山八街","SECT":" ","MAREA":" ","LANE":" ","ALLEY":" ","HOUSE_NO":"４１號","E_COORD97":177174.95000000001,"N_COORD97":2541016.0800000001,"ADDRESS":"中山八街４１號","OBJECTID":471245},"geometry":{"x":177174.95000000112,"y":2541016.0800000001}},{"attributes":{"ID":471271,"DIS_CODE":0,"TOWNNAME":"北區","LI":"成德里","LIN":"38鄰","STREET":"中華北路","SECT":"二段","MAREA":" ","LANE":" ","ALLEY":" ","HOUSE_NO":"１３３號","E_COORD97":167986.89999999999,"N_COORD97":2546757.8300000001,"ADDRESS":"中華北路二段１３３號","OBJECTID":471246},"geometry":{"x":167986.90000000037,"y":2546757.8300000001}},{"attributes":{"ID":471272,"DIS_CODE":0,"TOWNNAME":"北區","LI":"成德里","LIN":"38鄰","STREET":"中華北路","SECT":"二段","MAREA":" ","LANE":" ","ALLEY":" ","HOUSE_NO":"１３５號","E_COORD97":167991.47,"N_COORD97":2546759.6000000001,"ADDRESS":"中華北路二段１３５號","OBJECTID":471247},"geometry":{"x":167991.47000000067,"y":2546759.6000000015}},{"attributes":{"ID":471273,"DIS_CODE":0,"TOWNNAME":"北區","LI":"成德里","LIN":"38鄰","STREET":"中華北路","SECT":"二段","MAREA":" ","LANE":" ","ALLEY":" ","HOUSE_NO":"１３６號","E_COORD97":167996.17000000001,"N_COORD97":2546761,"ADDRESS":"中華北路二段１３６號","OBJECTID":471248},"geometry":{"x":167996.16999999993,"y":2546761.0000000019}},{"attributes":{"ID":471274,"DIS_CODE":0,"TOWNNAME":"北區","LI":"成德里","LIN":"38鄰","STREET":"中華北路","SECT":"二段","MAREA":" ","LANE":" ","ALLEY":" ","HOUSE_NO":"１３７號","E_COORD97":168000.48999999999,"N_COORD97":2546762.6499999999,"ADDRESS":"中華北路二段１３７號","OBJECTID":471249},"geometry":{"x":168000.49000000115,"y":2546762.6500000004}},{"attributes":{"ID":471275,"DIS_CODE":0,"TOWNNAME":"北區","LI":"成德里","LIN":"38鄰","STREET":"中華北路","SECT":"二段","MAREA":" ","LANE":" ","ALLEY":" ","HOUSE_NO":"１３８號","E_COORD97":168004.92999999999,"N_COORD97":2546764.4300000002,"ADDRESS":"中華北路二段１３８號","OBJECTID":471250},"geometry":{"x":168004.93000000156,"y":2546764.4300000016}},{"attributes":{"ID":471276,"DIS_CODE":0,"TOWNNAME":"北區","LI":"成德里","LIN":"38鄰","STREET":"中華北路","SECT":"二段","MAREA":" ","LANE":" ","ALLEY":" ","HOUSE_NO":"１３９號","E_COORD97":168009.63,"N_COORD97":2546766.3300000001,"ADDRESS":"中華北路二段１３９號","OBJECTID":471251},"geometry":{"x":168009.63000000082,"y":2546766.3300000019}},{"attributes":{"ID":471277,"DIS_CODE":0,"TOWNNAME":"永康區","LI":"埔園里","LIN":"38鄰","STREET":"龍國街","SECT":" ","MAREA":" ","LANE":" ","ALLEY":" ","HOUSE_NO":"１６２號","E_COORD97":174286.79999999999,"N_COORD97":2548050.8399999999,"ADDRESS":"龍國街１６２號","OBJECTID":471252},"geometry":{"x":174286.80000000075,"y":2548050.8400000017}},{"attributes":{"ID":471278,"DIS_CODE":0,"TOWNNAME":"永康區","LI":"埔園里","LIN":"38鄰","STREET":"龍國街","SECT":" ","MAREA":" ","LANE":" ","ALLEY":" ","HOUSE_NO":"１２２號","E_COORD97":174206.69,"N_COORD97":2548056.3199999998,"ADDRESS":"龍國街１２２號","OBJECTID":471253},"geometry":{"x":174206.69000000227,"y":2548056.3200000003}},{"attributes":{"ID":471279,"DIS_CODE":0,"TOWNNAME":"永康區","LI":"埔園里","LIN":"38鄰","STREET":"龍國街","SECT":" ","MAREA":" ","LANE":" ","ALLEY":" ","HOUSE_NO":"１２６號","E_COORD97":174211.29000000001,"N_COORD97":2548063.8900000001,"ADDRESS":"龍國街１２６號","OBJECTID":471254},"geometry":{"x":174211.29000000097,"y":2548063.8900000025}},{"attributes":{"ID":471280,"DIS_CODE":0,"TOWNNAME":"永康區","LI":"永康里","LIN":"38鄰","STREET":"永大路","SECT":"二段","MAREA":" ","LANE":" ","ALLEY":" ","HOUSE_NO":"１１５０號","E_COORD97":174389.89999999999,"N_COORD97":2546637.3900000001,"ADDRESS":"永大路二段１１５０號","OBJECTID":471255},"geometry":{"x":174389.90000000224,"y":2546637.3900000025}},{"attributes":{"ID":471281,"DIS_CODE":0,"TOWNNAME":"永康區","LI":"永康里","LIN":"38鄰","STREET":"永大路","SECT":"二段","MAREA":" ","LANE":" ","ALLEY":" ","HOUSE_NO":"１１７２號","E_COORD97":174379.85000000001,"N_COORD97":2546674.3100000001,"ADDRESS":"永大路二段１１７２號","OBJECTID":471256},"geometry":{"x":174379.85000000056,"y":2546674.3100000024}},{"attributes":{"ID":471282,"DIS_CODE":0,"TOWNNAME":"永康區","LI":"永康里","LIN":"38鄰","STREET":"永大路","SECT":"二段","MAREA":" ","LANE":" ","ALLEY":" ","HOUSE_NO":"１１３２號","E_COORD97":174415.88,"N_COORD97":2546619.1000000001,"ADDRESS":"永大路二段１１３２號","OBJECTID":471257},"geometry":{"x":174415.87999999989,"y":2546619.0999999996}},{"attributes":{"ID":471283,"DIS_CODE":0,"TOWNNAME":"仁德區","LI":"仁德里","LIN":"38鄰","STREET":"中山路","SECT":" ","MAREA":" ","LANE":" ","ALLEY":" ","HOUSE_NO":"８３６號","E_COORD97":172396.13,"N_COORD97":2541629.9900000002,"ADDRESS":"中山路８３６號","OBJECTID":471258},"geometry":{"x":172396.13000000175,"y":2541629.9900000002}},{"attributes":{"ID":471284,"DIS_CODE":0,"TOWNNAME":"永康區","LI":"永康里","LIN":"38鄰","STREET":"永大路","SECT":"二段","MAREA":" ","LANE":" ","ALLEY":" ","HOUSE_NO":"１１６２號","E_COORD97":174384.54999999999,"N_COORD97":2546658.0699999998,"ADDRESS":"永大路二段１１６２號","OBJECTID":471259},"geometry":{"x":174384.54999999981,"y":2546658.0700000003}},{"attributes":{"ID":471285,"DIS_CODE":0,"TOWNNAME":"永康區","LI":"永康里","LIN":"38鄰","STREET":"西勢路","SECT":" ","MAREA":" ","LANE":" ","ALLEY":" ","HOUSE_NO":"７１７號","E_COORD97":174436.07999999999,"N_COORD97":2546706.5299999998,"ADDRESS":"西勢路７１７號","OBJECTID":471260},"geometry":{"x":174436.08000000101,"y":2546706.5300000012}},{"attributes":{"ID":471286,"DIS_CODE":0,"TOWNNAME":"永康區","LI":"崑山里","LIN":" ","STREET":"大仁街","SECT":" ","MAREA":" ","LANE":" ","ALLEY":" ","HOUSE_NO":"３２之１號","E_COORD97":173809.25,"N_COORD97":2544605.4100000001,"ADDRESS":"大仁街３２之１號","OBJECTID":471261},"geometry":{"x":173809.25000000186,"y":2544605.410000002}},{"attributes":{"ID":471287,"DIS_CODE":0,"TOWNNAME":"永康區","LI":"永康里","LIN":"38鄰","STREET":"西勢路","SECT":" ","MAREA":" ","LANE":" ","ALLEY":" ","HOUSE_NO":"６７７號","E_COORD97":174535.63,"N_COORD97":2546735.3500000001,"ADDRESS":"西勢路６７７號","OBJECTID":471262},"geometry":{"x":174535.63000000082,"y":2546735.3500000015}},{"attributes":{"ID":471288,"DIS_CODE":0,"TOWNNAME":"永康區","LI":"埔園里","LIN":"38鄰","STREET":"龍中街","SECT":" ","MAREA":" ","LANE":" ","ALLEY":" ","HOUSE_NO":"３５７號","E_COORD97":174414.91,"N_COORD97":2547932.9399999999,"ADDRESS":"龍中街３５７號","OBJECTID":471263},"geometry":{"x":174414.91000000015,"y":2547932.9399999976}},{"attributes":{"ID":471289,"DIS_CODE":0,"TOWNNAME":"佳里區","LI":"建南里","LIN":"38鄰","STREET":"四維一街","SECT":" ","MAREA":" ","LANE":" ","ALLEY":" ","HOUSE_NO":"１０８號","E_COORD97":165785.82999999999,"N_COORD97":2561189.6899999999,"ADDRESS":"四維一街１０８號","OBJECTID":471264},"geometry":{"x":165785.83000000101,"y":2561189.6899999995}},{"attributes":{"ID":471290,"DIS_CODE":0,"TOWNNAME":"佳里區","LI":"建南里","LIN":"38鄰","STREET":"四維二街","SECT":" ","MAREA":" ","LANE":" ","ALLEY":" ","HOUSE_NO":"１７３號","E_COORD97":165679.94,"N_COORD97":2561223.6299999999,"ADDRESS":"四維二街１７３號","OBJECTID":471265},"geometry":{"x":165679.94000000227,"y":2561223.629999999}},{"attributes":{"ID":471291,"DIS_CODE":0,"TOWNNAME":"佳里區","LI":"建南里","LIN":"38鄰","STREET":"四維二街","SECT":" ","MAREA":" ","LANE":" ","ALLEY":" ","HOUSE_NO":"１７５號","E_COORD97":165679.91,"N_COORD97":2561219.3900000001,"ADDRESS":"四維二街１７５號","OBJECTID":471266},"geometry":{"x":165679.91000000108,"y":2561219.3900000025}},{"attributes":{"ID":471292,"DIS_CODE":0,"TOWNNAME":"佳里區","LI":"建南里","LIN":"38鄰","STREET":"四維二街","SECT":" ","MAREA":" ","LANE":" ","ALLEY":" ","HOUSE_NO":"１７７號","E_COORD97":165680.26999999999,"N_COORD97":2561215.71,"ADDRESS":"四維二街１７７號","OBJECTID":471267},"geometry":{"x":165680.27000000048,"y":2561215.7100000009}},{"attributes":{"ID":471293,"DIS_CODE":0,"TOWNNAME":"佳里區","LI":"建南里","LIN":"38鄰","STREET":"四維二街","SECT":" ","MAREA":" ","LANE":" ","ALLEY":" ","HOUSE_NO":"１７９號","E_COORD97":165679.57000000001,"N_COORD97":2561212.25,"ADDRESS":"四維二街１７９號","OBJECTID":471268},"geometry":{"x":165679.57000000123,"y":2561212.2500000019}},{"attributes":{"ID":471294,"DIS_CODE":0,"TOWNNAME":"佳里區","LI":"建南里","LIN":"38鄰","STREET":"四維二街","SECT":" ","MAREA":" ","LANE":" ","ALLEY":" ","HOUSE_NO":"１８１號","E_COORD97":165679.37,"N_COORD97":2561207.7999999998,"ADDRESS":"四維二街１８１號","OBJECTID":471269},"geometry":{"x":165679.37000000011,"y":2561207.8000000007}},{"attributes":{"ID":471295,"DIS_CODE":0,"TOWNNAME":"佳里區","LI":"建南里","LIN":"38鄰","STREET":"四維二街","SECT":" ","MAREA":" ","LANE":" ","ALLEY":" ","HOUSE_NO":"１８３號","E_COORD97":165679.54000000001,"N_COORD97":2561203.4500000002,"ADDRESS":"四維二街１８３號","OBJECTID":471270},"geometry":{"x":165679.54000000097,"y":2561203.4500000011}},{"attributes":{"ID":471296,"DIS_CODE":0,"TOWNNAME":"佳里區","LI":"建南里","LIN":"38鄰","STREET":"四維二街","SECT":" ","MAREA":" ","LANE":" ","ALLEY":" ","HOUSE_NO":"１８５號","E_COORD97":165679.51000000001,"N_COORD97":2561198.4500000002,"ADDRESS":"四維二街１８５號","OBJECTID":471271},"geometry":{"x":165679.51000000071,"y":2561198.4499999993}},{"attributes":{"ID":471297,"DIS_CODE":0,"TOWNNAME":"佳里區","LI":"建南里","LIN":"38鄰","STREET":"四維二街","SECT":" ","MAREA":" ","LANE":" ","ALLEY":" ","HOUSE_NO":"１８７號","E_COORD97":165680.09,"N_COORD97":2561194.77,"ADDRESS":"四維二街１８７號","OBJECTID":471272},"geometry":{"x":165680.09000000078,"y":2561194.7700000014}},{"attributes":{"ID":471298,"DIS_CODE":0,"TOWNNAME":"佳里區","LI":"建南里","LIN":"38鄰","STREET":"四維二街","SECT":" ","MAREA":" ","LANE":" ","ALLEY":" ","HOUSE_NO":"１８９號","E_COORD97":165679.39999999999,"N_COORD97":2561190.6400000001,"ADDRESS":"四維二街１８９號","OBJECTID":471273},"geometry":{"x":165679.40000000037,"y":2561190.6400000025}},{"attributes":{"ID":471299,"DIS_CODE":0,"TOWNNAME":"佳里區","LI":"建南里","LIN":"38鄰","STREET":"四維二街","SECT":" ","MAREA":" ","LANE":" ","ALLEY":" ","HOUSE_NO":"１９１號","E_COORD97":165679.85000000001,"N_COORD97":2561187.1099999999,"ADDRESS":"四維二街１９１號","OBJECTID":471274},"geometry":{"x":165679.85000000056,"y":2561187.1099999994}},{"attributes":{"ID":471300,"DIS_CODE":0,"TOWNNAME":"佳里區","LI":"建南里","LIN":"38鄰","STREET":"四維二街","SECT":" ","MAREA":" ","LANE":" ","ALLEY":" ","HOUSE_NO":"１９３號","E_COORD97":165696.32999999999,"N_COORD97":2561172.4500000002,"ADDRESS":"四維二街１９３號","OBJECTID":471275},"geometry":{"x":165696.33000000101,"y":2561172.450000003}},{"attributes":{"ID":471301,"DIS_CODE":0,"TOWNNAME":"佳里區","LI":"建南里","LIN":"38鄰","STREET":"四維二街","SECT":" ","MAREA":" ","LANE":" ","ALLEY":" ","HOUSE_NO":"１９５號","E_COORD97":165696.14999999999,"N_COORD97":2561165.52,"ADDRESS":"四維二街１９５號","OBJECTID":471276},"geometry":{"x":165696.1500000013,"y":2561165.5200000033}},{"attributes":{"ID":471302,"DIS_CODE":0,"TOWNNAME":"佳里區","LI":"建南里","LIN":"38鄰","STREET":"四維二街","SECT":" ","MAREA":" ","LANE":" ","ALLEY":" ","HOUSE_NO":"１９７號","E_COORD97":165695.32999999999,"N_COORD97":2561158.1699999999,"ADDRESS":"四維二街１９７號","OBJECTID":471277},"geometry":{"x":165695.33000000007,"y":2561158.1700000037}},{"attributes":{"ID":471303,"DIS_CODE":0,"TOWNNAME":"佳里區","LI":"建南里","LIN":"38鄰","STREET":"四維二街","SECT":" ","MAREA":" ","LANE":" ","ALLEY":" ","HOUSE_NO":"１９９號","E_COORD97":165694.75,"N_COORD97":2561150.3300000001,"ADDRESS":"四維二街１９９號","OBJECTID":471278},"geometry":{"x":165694.75000000093,"y":2561150.3300000038}},{"attributes":{"ID":471304,"DIS_CODE":0,"TOWNNAME":"永康區","LI":"龍潭里","LIN":" ","STREET":"中山北路","SECT":" ","MAREA":" ","LANE":" ","ALLEY":" ","HOUSE_NO":"２１１號","E_COORD97":174342.57999999999,"N_COORD97":2547564.1899999999,"ADDRESS":"中山北路２１１號","OBJECTID":471279},"geometry":{"x":174342.58000000194,"y":2547564.1899999995}},{"attributes":{"ID":471305,"DIS_CODE":0,"TOWNNAME":"佳里區","LI":"建南里","LIN":"38鄰","STREET":"四維二街","SECT":" ","MAREA":" ","LANE":" ","ALLEY":" ","HOUSE_NO":"２０１號","E_COORD97":165694.37,"N_COORD97":2561143.3900000001,"ADDRESS":"四維二街２０１號","OBJECTID":471280},"geometry":{"x":165694.37000000104,"y":2561143.3899999987}},{"attributes":{"ID":471306,"DIS_CODE":0,"TOWNNAME":"佳里區","LI":"建南里","LIN":"38鄰","STREET":"四維二街","SECT":" ","MAREA":" ","LANE":" ","ALLEY":" ","HOUSE_NO":"２０３號","E_COORD97":165692.92999999999,"N_COORD97":2561124.6699999999,"ADDRESS":"四維二街２０３號","OBJECTID":471281},"geometry":{"x":165692.93000000063,"y":2561124.6700000018}},{"attributes":{"ID":471307,"DIS_CODE":0,"TOWNNAME":"佳里區","LI":"建南里","LIN":"38鄰","STREET":"四維二街","SECT":" ","MAREA":" ","LANE":" ","ALLEY":" ","HOUSE_NO":"２０５號","E_COORD97":165693.26999999999,"N_COORD97":2561118.3700000001,"ADDRESS":"四維二街２０５號","OBJECTID":471282},"geometry":{"x":165693.26999999955,"y":2561118.3700000029}},{"attributes":{"ID":471308,"DIS_CODE":0,"TOWNNAME":"佳里區","LI":"建南里","LIN":"38鄰","STREET":"四維二街","SECT":" ","MAREA":" ","LANE":" ","ALLEY":" ","HOUSE_NO":"２０７號","E_COORD97":165692.44,"N_COORD97":2561111.7400000002,"ADDRESS":"四維二街２０７號","OBJECTID":471283},"geometry":{"x":165692.44000000134,"y":2561111.7400000021}},{"attributes":{"ID":471309,"DIS_CODE":0,"TOWNNAME":"佳里區","LI":"建南里","LIN":"38鄰","STREET":"四維二街","SECT":" ","MAREA":" ","LANE":" ","ALLEY":" ","HOUSE_NO":"２０９號","E_COORD97":165692.04999999999,"N_COORD97":2561104.5800000001,"ADDRESS":"四維二街２０９號","OBJECTID":471284},"geometry":{"x":165692.05000000168,"y":2561104.5800000038}},{"attributes":{"ID":471310,"DIS_CODE":0,"TOWNNAME":"佳里區","LI":"建南里","LIN":"38鄰","STREET":"四維二街","SECT":" ","MAREA":" ","LANE":" ","ALLEY":" ","HOUSE_NO":"２１１號","E_COORD97":165691.04000000001,"N_COORD97":2561096.5899999999,"ADDRESS":"四維二街２１１號","OBJECTID":471285},"geometry":{"x":165691.04000000097,"y":2561096.5899999999}},{"attributes":{"ID":471311,"DIS_CODE":0,"TOWNNAME":"佳里區","LI":"建南里","LIN":"38鄰","STREET":"四維二街","SECT":" ","MAREA":" ","LANE":" ","ALLEY":" ","HOUSE_NO":"２２１號","E_COORD97":165680.70000000001,"N_COORD97":2561085.3300000001,"ADDRESS":"四維二街２２１號","OBJECTID":471286},"geometry":{"x":165680.70000000019,"y":2561085.3300000001}},{"attributes":{"ID":471312,"DIS_CODE":0,"TOWNNAME":"佳里區","LI":"建南里","LIN":"38鄰","STREET":"四維二街","SECT":" ","MAREA":" ","LANE":" ","ALLEY":" ","HOUSE_NO":"２２３號","E_COORD97":165689.78,"N_COORD97":2561060.9700000002,"ADDRESS":"四維二街２２３號","OBJECTID":471287},"geometry":{"x":165689.78000000119,"y":2561060.9700000007}},{"attributes":{"ID":471313,"DIS_CODE":0,"TOWNNAME":"佳里區","LI":"建南里","LIN":"38鄰","STREET":"四維二街","SECT":" ","MAREA":" ","LANE":" ","ALLEY":" ","HOUSE_NO":"２２５號","E_COORD97":165680.17000000001,"N_COORD97":2561032.4300000002,"ADDRESS":"四維二街２２５號","OBJECTID":471288},"geometry":{"x":165680.17000000086,"y":2561032.4299999997}},{"attributes":{"ID":471314,"DIS_CODE":0,"TOWNNAME":"佳里區","LI":"建南里","LIN":"38鄰","STREET":"四維二街","SECT":" ","MAREA":" ","LANE":" ","ALLEY":" ","HOUSE_NO":"２２７號","E_COORD97":165680.26999999999,"N_COORD97":2561028.04,"ADDRESS":"四維二街２２７號","OBJECTID":471289},"geometry":{"x":165680.27000000048,"y":2561028.0399999991}},{"attributes":{"ID":471315,"DIS_CODE":0,"TOWNNAME":"佳里區","LI":"建南里","LIN":"38鄰","STREET":"四維二街","SECT":" ","MAREA":" ","LANE":" ","ALLEY":" ","HOUSE_NO":"２２９號","E_COORD97":165680.23999999999,"N_COORD97":2561023.3900000001,"ADDRESS":"四維二街２２９號","OBJECTID":471290},"geometry":{"x":165680.24000000022,"y":2561023.3900000006}},{"attributes":{"ID":471316,"DIS_CODE":0,"TOWNNAME":"佳里區","LI":"建南里","LIN":"38鄰","STREET":"四維二街","SECT":" ","MAREA":" ","LANE":" ","ALLEY":" ","HOUSE_NO":"２３１號","E_COORD97":165680.26000000001,"N_COORD97":2561019.1400000001,"ADDRESS":"四維二街２３１號","OBJECTID":471291},"geometry":{"x":165680.25999999885,"y":2561019.1400000006}},{"attributes":{"ID":471317,"DIS_CODE":0,"TOWNNAME":"佳里區","LI":"建南里","LIN":"38鄰","STREET":"四維二街","SECT":" ","MAREA":" ","LANE":" ","ALLEY":" ","HOUSE_NO":"２３３號","E_COORD97":165701.48999999999,"N_COORD97":2560999.5699999998,"ADDRESS":"四維二街２３３號","OBJECTID":471292},"geometry":{"x":165701.49000000115,"y":2560999.5699999984}},{"attributes":{"ID":471318,"DIS_CODE":0,"TOWNNAME":"佳里區","LI":"建南里","LIN":"38鄰","STREET":"四維二街","SECT":" ","MAREA":" ","LANE":" ","ALLEY":" ","HOUSE_NO":"２３７號","E_COORD97":165679.17000000001,"N_COORD97":2560979.0099999998,"ADDRESS":"四維二街２３７號","OBJECTID":471293},"geometry":{"x":165679.16999999993,"y":2560979.0099999979}},{"attributes":{"ID":471319,"DIS_CODE":0,"TOWNNAME":"佳里區","LI":"建南里","LIN":"38鄰","STREET":"四維二街","SECT":" ","MAREA":" ","LANE":" ","ALLEY":" ","HOUSE_NO":"２３９號","E_COORD97":165678.64999999999,"N_COORD97":2560974.25,"ADDRESS":"四維二街２３９號","OBJECTID":471294},"geometry":{"x":165678.6500000013,"y":2560974.2499999981}},{"attributes":{"ID":471320,"DIS_CODE":0,"TOWNNAME":"佳里區","LI":"建南里","LIN":"38鄰","STREET":"四維二街","SECT":" ","MAREA":" ","LANE":" ","ALLEY":" ","HOUSE_NO":"２４１號","E_COORD97":165678.35999999999,"N_COORD97":2560969.4100000001,"ADDRESS":"四維二街２４１號","OBJECTID":471295},"geometry":{"x":165678.36000000034,"y":2560969.4100000001}},{"attributes":{"ID":471321,"DIS_CODE":0,"TOWNNAME":"佳里區","LI":"建南里","LIN":"38鄰","STREET":"四維二街","SECT":" ","MAREA":" ","LANE":" ","ALLEY":" ","HOUSE_NO":"２４３號","E_COORD97":165678.17999999999,"N_COORD97":2560965.3100000001,"ADDRESS":"四維二街２４３號","OBJECTID":471296},"geometry":{"x":165678.18000000063,"y":2560965.3100000024}},{"attributes":{"ID":471322,"DIS_CODE":0,"TOWNNAME":"佳里區","LI":"建南里","LIN":"38鄰","STREET":"佳南路","SECT":" ","MAREA":" ","LANE":" ","ALLEY":" ","HOUSE_NO":"３７６號","E_COORD97":165764.54999999999,"N_COORD97":2560952.1299999999,"ADDRESS":"佳南路３７６號","OBJECTID":471297},"geometry":{"x":165764.54999999981,"y":2560952.129999999}},{"attributes":{"ID":471323,"DIS_CODE":0,"TOWNNAME":"佳里區","LI":"建南里","LIN":"38鄰","STREET":"佳南路","SECT":" ","MAREA":" ","LANE":" ","ALLEY":" ","HOUSE_NO":"３８６號","E_COORD97":165723.98000000001,"N_COORD97":2560955.5699999998,"ADDRESS":"佳南路３８６號","OBJECTID":471298},"geometry":{"x":165723.98000000138,"y":2560955.570000004}},{"attributes":{"ID":471324,"DIS_CODE":0,"TOWNNAME":"佳里區","LI":"建南里","LIN":"38鄰","STREET":"佳南路","SECT":" ","MAREA":" ","LANE":" ","ALLEY":" ","HOUSE_NO":"４０２號","E_COORD97":165710.12,"N_COORD97":2560947.8199999998,"ADDRESS":"佳南路４０２號","OBJECTID":471299},"geometry":{"x":165710.12000000011,"y":2560947.8200000022}},{"attributes":{"ID":471325,"DIS_CODE":0,"TOWNNAME":"佳里區","LI":"建南里","LIN":"38鄰","STREET":"佳南路","SECT":" ","MAREA":" ","LANE":" ","ALLEY":" ","HOUSE_NO":"４０６號","E_COORD97":165705.76999999999,"N_COORD97":2560947.8100000001,"ADDRESS":"佳南路４０６號","OBJECTID":471300},"geometry":{"x":165705.77000000048,"y":2560947.8100000024}},{"attributes":{"ID":471326,"DIS_CODE":0,"TOWNNAME":"佳里區","LI":"建南里","LIN":"38鄰","STREET":"佳南路","SECT":" ","MAREA":" ","LANE":" ","ALLEY":" ","HOUSE_NO":"４０８號","E_COORD97":165701.42000000001,"N_COORD97":2560947.7999999998,"ADDRESS":"佳南路４０８號","OBJECTID":471301},"geometry":{"x":165701.41999999899,"y":2560947.8000000045}},{"attributes":{"ID":471327,"DIS_CODE":0,"TOWNNAME":"佳里區","LI":"建南里","LIN":"38鄰","STREET":"佳南路","SECT":" ","MAREA":" ","LANE":" ","ALLEY":" ","HOUSE_NO":"４１０號","E_COORD97":165697.07000000001,"N_COORD97":2560947.79,"ADDRESS":"佳南路４１０號","OBJECTID":471302},"geometry":{"x":165697.0700000003,"y":2560947.790000001}},{"attributes":{"ID":471328,"DIS_CODE":0,"TOWNNAME":"佳里區","LI":"建南里","LIN":"38鄰","STREET":"佳南路","SECT":" ","MAREA":" ","LANE":" ","ALLEY":" ","HOUSE_NO":"４１２號","E_COORD97":165692.72,"N_COORD97":2560947.7799999998,"ADDRESS":"佳南路４１２號","OBJECTID":471303},"geometry":{"x":165692.72000000067,"y":2560947.7800000012}},{"attributes":{"ID":471329,"DIS_CODE":0,"TOWNNAME":"佳里區","LI":"建南里","LIN":"38鄰","STREET":"佳南路","SECT":" ","MAREA":" ","LANE":" ","ALLEY":" ","HOUSE_NO":"４１６號","E_COORD97":165688.37,"N_COORD97":2560947.77,"ADDRESS":"佳南路４１６號","OBJECTID":471304},"geometry":{"x":165688.36999999918,"y":2560947.7700000014}},{"attributes":{"ID":471330,"DIS_CODE":0,"TOWNNAME":"佳里區","LI":"建南里","LIN":"38鄰","STREET":"佳南路","SECT":" ","MAREA":" ","LANE":" ","ALLEY":" ","HOUSE_NO":"４１８號","E_COORD97":165684.01999999999,"N_COORD97":2560947.75,"ADDRESS":"佳南路４１８號","OBJECTID":471305},"geometry":{"x":165684.02000000048,"y":2560947.7500000019}},{"attributes":{"ID":471331,"DIS_CODE":0,"TOWNNAME":"佳里區","LI":"建南里","LIN":"38鄰","STREET":"佳南路","SECT":" ","MAREA":" ","LANE":" ","ALLEY":" ","HOUSE_NO":"４２０號","E_COORD97":165679.45000000001,"N_COORD97":2560947.6699999999,"ADDRESS":"佳南路４２０號","OBJECTID":471306},"geometry":{"x":165679.44999999925,"y":2560947.6700000037}},{"attributes":{"ID":471332,"DIS_CODE":0,"TOWNNAME":"佳里區","LI":"建南里","LIN":"38鄰","STREET":"祥和一街","SECT":" ","MAREA":" ","LANE":" ","ALLEY":" ","HOUSE_NO":"２６７號","E_COORD97":165772.69,"N_COORD97":2561034.71,"ADDRESS":"祥和一街２６７號","OBJECTID":471307},"geometry":{"x":165772.69000000041,"y":2561034.7100000028}},{"attributes":{"ID":471333,"DIS_CODE":0,"TOWNNAME":"佳里區","LI":"建南里","LIN":"38鄰","STREET":"祥和一街","SECT":" ","MAREA":" ","LANE":" ","ALLEY":" ","HOUSE_NO":"２６８號","E_COORD97":165781.04999999999,"N_COORD97":2561051.7000000002,"ADDRESS":"祥和一街２６８號","OBJECTID":471308},"geometry":{"x":165781.04999999981,"y":2561051.6999999993}},{"attributes":{"ID":471334,"DIS_CODE":0,"TOWNNAME":"佳里區","LI":"建南里","LIN":"38鄰","STREET":"祥和一街","SECT":" ","MAREA":" ","LANE":" ","ALLEY":" ","HOUSE_NO":"２７０號","E_COORD97":165775.60999999999,"N_COORD97":2561051.73,"ADDRESS":"祥和一街２７０號","OBJECTID":471309},"geometry":{"x":165775.61000000127,"y":2561051.7300000004}},{"attributes":{"ID":471335,"DIS_CODE":0,"TOWNNAME":"佳里區","LI":"建南里","LIN":"38鄰","STREET":"祥和一街","SECT":" ","MAREA":" ","LANE":" ","ALLEY":" ","HOUSE_NO":"２７２號","E_COORD97":165771.14999999999,"N_COORD97":2561052.1600000001,"ADDRESS":"祥和一街２７２號","OBJECTID":471310},"geometry":{"x":165771.15000000037,"y":2561052.1600000001}},{"attributes":{"ID":471336,"DIS_CODE":0,"TOWNNAME":"佳里區","LI":"建南里","LIN":"38鄰","STREET":"祥和一街","SECT":" ","MAREA":" ","LANE":" ","ALLEY":" ","HOUSE_NO":"２７４號","E_COORD97":165766.94,"N_COORD97":2561052.3599999999,"ADDRESS":"祥和一街２７４號","OBJECTID":471311},"geometry":{"x":165766.94000000134,"y":2561052.3600000013}},{"attributes":{"ID":471337,"DIS_CODE":0,"TOWNNAME":"佳里區","LI":"建南里","LIN":"38鄰","STREET":"祥和一街","SECT":" ","MAREA":" ","LANE":" ","ALLEY":" ","HOUSE_NO":"２９０號","E_COORD97":165734.09,"N_COORD97":2561049.4900000002,"ADDRESS":"祥和一街２９０號","OBJECTID":471312},"geometry":{"x":165734.08999999892,"y":2561049.4900000002}},{"attributes":{"ID":471338,"DIS_CODE":0,"TOWNNAME":"佳里區","LI":"建南里","LIN":"38鄰","STREET":"祥和一街","SECT":" ","MAREA":" ","LANE":" ","ALLEY":" ","HOUSE_NO":"２９２號","E_COORD97":165729.45999999999,"N_COORD97":2561049.52,"ADDRESS":"祥和一街２９２號","OBJECTID":471313},"geometry":{"x":165729.45999999996,"y":2561049.5199999996}},{"attributes":{"ID":471339,"DIS_CODE":0,"TOWNNAME":"佳里區","LI":"建南里","LIN":"38鄰","STREET":"祥和一街","SECT":" ","MAREA":" ","LANE":" ","ALLEY":" ","HOUSE_NO":"２９４號","E_COORD97":165725.04999999999,"N_COORD97":2561049.6800000002,"ADDRESS":"祥和一街２９４號","OBJECTID":471314},"geometry":{"x":165725.05000000075,"y":2561049.6800000016}},{"attributes":{"ID":471340,"DIS_CODE":0,"TOWNNAME":"佳里區","LI":"建南里","LIN":"38鄰","STREET":"祥和一街","SECT":" ","MAREA":" ","LANE":" ","ALLEY":" ","HOUSE_NO":"２９６號","E_COORD97":165720.92000000001,"N_COORD97":2561049.3500000001,"ADDRESS":"祥和一街２９６號","OBJECTID":471315},"geometry":{"x":165720.92000000086,"y":2561049.3500000015}},{"attributes":{"ID":471341,"DIS_CODE":0,"TOWNNAME":"佳里區","LI":"建南里","LIN":"38鄰","STREET":"祥和一街","SECT":" ","MAREA":" ","LANE":" ","ALLEY":" ","HOUSE_NO":"２９８號","E_COORD97":165715.92999999999,"N_COORD97":2561049.6800000002,"ADDRESS":"祥和一街２９８號","OBJECTID":471316},"geometry":{"x":165715.9299999997,"y":2561049.6800000016}},{"attributes":{"ID":471342,"DIS_CODE":0,"TOWNNAME":"佳里區","LI":"建南里","LIN":"38鄰","STREET":"祥和一街","SECT":" ","MAREA":" ","LANE":" ","ALLEY":" ","HOUSE_NO":"２９９號","E_COORD97":165705.41,"N_COORD97":2561031.9700000002,"ADDRESS":"祥和一街２９９號","OBJECTID":471317},"geometry":{"x":165705.41000000108,"y":2561031.9700000025}},{"attributes":{"ID":471343,"DIS_CODE":0,"TOWNNAME":"佳里區","LI":"建南里","LIN":"38鄰","STREET":"祥和一街","SECT":" ","MAREA":" ","LANE":" ","ALLEY":" ","HOUSE_NO":"３００號","E_COORD97":165711.70000000001,"N_COORD97":2561049.6400000001,"ADDRESS":"祥和一街３００號","OBJECTID":471318},"geometry":{"x":165711.70000000205,"y":2561049.6400000006}},{"attributes":{"ID":471344,"DIS_CODE":0,"TOWNNAME":"佳里區","LI":"建南里","LIN":"38鄰","STREET":"祥和一街","SECT":" ","MAREA":" ","LANE":" ","ALLEY":" ","HOUSE_NO":"３０１號","E_COORD97":165699.64999999999,"N_COORD97":2561031.9399999999,"ADDRESS":"祥和一街３０１號","OBJECTID":471319},"geometry":{"x":165699.65000000037,"y":2561031.9399999995}},{"attributes":{"ID":471345,"DIS_CODE":0,"TOWNNAME":"佳里區","LI":"建南里","LIN":"38鄰","STREET":"祥和三街","SECT":" ","MAREA":" ","LANE":" ","ALLEY":" ","HOUSE_NO":"１５５號","E_COORD97":165736.48999999999,"N_COORD97":2561226.0899999999,"ADDRESS":"祥和三街１５５號","OBJECTID":471320},"geometry":{"x":165736.49000000022,"y":2561226.089999998}},{"attributes":{"ID":471346,"DIS_CODE":0,"TOWNNAME":"佳里區","LI":"建南里","LIN":"38鄰","STREET":"祥和三街","SECT":" ","MAREA":" ","LANE":" ","ALLEY":" ","HOUSE_NO":"１５７號","E_COORD97":165727.62,"N_COORD97":2561220.4399999999,"ADDRESS":"祥和三街１５７號","OBJECTID":471321},"geometry":{"x":165727.62000000104,"y":2561220.4400000013}},{"attributes":{"ID":471347,"DIS_CODE":0,"TOWNNAME":"佳里區","LI":"建南里","LIN":"38鄰","STREET":"祥和三街","SECT":" ","MAREA":" ","LANE":" ","ALLEY":" ","HOUSE_NO":"１５９號","E_COORD97":165719.70999999999,"N_COORD97":2561221.7400000002,"ADDRESS":"祥和三街１５９號","OBJECTID":471322},"geometry":{"x":165719.70999999996,"y":2561221.7400000002}},{"attributes":{"ID":471348,"DIS_CODE":0,"TOWNNAME":"佳里區","LI":"建南里","LIN":"38鄰","STREET":"祥和三街","SECT":" ","MAREA":" ","LANE":" ","ALLEY":" ","HOUSE_NO":"１６１號","E_COORD97":165714.39999999999,"N_COORD97":2561221.1299999999,"ADDRESS":"祥和三街１６１號","OBJECTID":471323},"geometry":{"x":165714.4000000013,"y":2561221.129999999}},{"attributes":{"ID":471349,"DIS_CODE":0,"TOWNNAME":"佳里區","LI":"建南里","LIN":"38鄰","STREET":"祥和三街","SECT":" ","MAREA":" ","LANE":" ","ALLEY":" ","HOUSE_NO":"１６３號","E_COORD97":165707.79000000001,"N_COORD97":2561221.6600000001,"ADDRESS":"祥和三街１６３號","OBJECTID":471324},"geometry":{"x":165707.79000000097,"y":2561221.6600000001}},{"attributes":{"ID":471350,"DIS_CODE":0,"TOWNNAME":"佳里區","LI":"建南里","LIN":"38鄰","STREET":"祥和三街","SECT":" ","MAREA":" ","LANE":" ","ALLEY":" ","HOUSE_NO":"１６５號","E_COORD97":165697.5,"N_COORD97":2561225.1099999999,"ADDRESS":"祥和三街１６５號","OBJECTID":471325},"geometry":{"x":165697.5,"y":2561225.1099999994}},{"attributes":{"ID":471351,"DIS_CODE":0,"TOWNNAME":"佳里區","LI":"建南里","LIN":"38鄰","STREET":"祥和三街","SECT":" ","MAREA":" ","LANE":" ","ALLEY":" ","HOUSE_NO":"１６７號","E_COORD97":165693.34,"N_COORD97":2561226.6200000001,"ADDRESS":"祥和三街１６７號","OBJECTID":471326},"geometry":{"x":165693.33999999985,"y":2561226.620000001}},{"attributes":{"ID":471352,"DIS_CODE":0,"TOWNNAME":"佳里區","LI":"建南里","LIN":"38鄰","STREET":"祥和三街","SECT":" ","MAREA":" ","LANE":" ","ALLEY":" ","HOUSE_NO":"１６９號","E_COORD97":165725.48000000001,"N_COORD97":2561205.54,"ADDRESS":"祥和三街１６９號","OBJECTID":471327},"geometry":{"x":165725.48000000231,"y":2561205.5400000028}},{"attributes":{"ID":471353,"DIS_CODE":0,"TOWNNAME":"佳里區","LI":"建南里","LIN":"38鄰","STREET":"祥和三街","SECT":" ","MAREA":" ","LANE":" ","ALLEY":" ","HOUSE_NO":"１７１號","E_COORD97":165719.5,"N_COORD97":2561196.3300000001,"ADDRESS":"祥和三街１７１號","OBJECTID":471328},"geometry":{"x":165719.5,"y":2561196.3300000001}},{"attributes":{"ID":471354,"DIS_CODE":0,"TOWNNAME":"佳里區","LI":"建南里","LIN":"38鄰","STREET":"祥和三街","SECT":" ","MAREA":" ","LANE":" ","ALLEY":" ","HOUSE_NO":"１７３號","E_COORD97":165710.07999999999,"N_COORD97":2561195.8300000001,"ADDRESS":"祥和三街１７３號","OBJECTID":471329},"geometry":{"x":165710.08000000007,"y":2561195.8300000019}},{"attributes":{"ID":471355,"DIS_CODE":0,"TOWNNAME":"佳里區","LI":"建南里","LIN":"38鄰","STREET":"祥和三街","SECT":" ","MAREA":" ","LANE":" ","ALLEY":" ","HOUSE_NO":"１７５號","E_COORD97":165694.19,"N_COORD97":2561191.4199999999,"ADDRESS":"祥和三街１７５號","OBJECTID":471330},"geometry":{"x":165694.19000000134,"y":2561191.4200000018}},{"attributes":{"ID":471356,"DIS_CODE":0,"TOWNNAME":"永康區","LI":"埔園里","LIN":"38鄰","STREET":"龍國街","SECT":" ","MAREA":" ","LANE":" ","ALLEY":" ","HOUSE_NO":"２１０號","E_COORD97":174357.53,"N_COORD97":2548036.5499999998,"ADDRESS":"龍國街２１０號","OBJECTID":471331},"geometry":{"x":174357.53000000119,"y":2548036.5500000026}},{"attributes":{"ID":471357,"DIS_CODE":0,"TOWNNAME":"永康區","LI":"埔園里","LIN":"38鄰","STREET":"龍中街","SECT":" ","MAREA":" ","LANE":" ","ALLEY":" ","HOUSE_NO":"３５９號","E_COORD97":174398.07000000001,"N_COORD97":2547932.0299999998,"ADDRESS":"龍中街３５９號","OBJECTID":471332},"geometry":{"x":174398.0700000003,"y":2547932.0299999993}},{"attributes":{"ID":471358,"DIS_CODE":0,"TOWNNAME":"永康區","LI":"埔園里","LIN":"38鄰","STREET":"龍中街","SECT":" ","MAREA":" ","LANE":" ","ALLEY":" ","HOUSE_NO":"３９７號","E_COORD97":174407.45999999999,"N_COORD97":2548033.4100000001,"ADDRESS":"龍中街３９７號","OBJECTID":471333},"geometry":{"x":174407.45999999996,"y":2548033.410000002}},{"attributes":{"ID":471359,"DIS_CODE":0,"TOWNNAME":"永康區","LI":"埔園里","LIN":"38鄰","STREET":"永大路","SECT":"三段","MAREA":" ","LANE":" ","ALLEY":" ","HOUSE_NO":"３０６號","E_COORD97":174169.20999999999,"N_COORD97":2548035.9300000002,"ADDRESS":"永大路三段３０６號","OBJECTID":471334},"geometry":{"x":174169.21000000089,"y":2548035.9300000016}},{"attributes":{"ID":471360,"DIS_CODE":0,"TOWNNAME":"永康區","LI":"埔園里","LIN":"38鄰","STREET":"龍中街","SECT":" ","MAREA":" ","LANE":" ","ALLEY":" ","HOUSE_NO":"３９９號","E_COORD97":174407.64999999999,"N_COORD97":2548038.1600000001,"ADDRESS":"龍中街３９９號","OBJECTID":471335},"geometry":{"x":174407.6500000013,"y":2548038.160000002}},{"attributes":{"ID":471361,"DIS_CODE":0,"TOWNNAME":"東區","LI":"大智里","LIN":"38鄰","STREET":"崇善路","SECT":" ","MAREA":" ","LANE":" ","ALLEY":" ","HOUSE_NO":"８５６號","E_COORD97":171467.85999999999,"N_COORD97":2540570.7400000002,"ADDRESS":"崇善路８５６號","OBJECTID":471336},"geometry":{"x":171467.86000000127,"y":2540570.7400000002}},{"attributes":{"ID":471362,"DIS_CODE":0,"TOWNNAME":"永康區","LI":"\u25A0行里","LIN":"42鄰","STREET":"永安路","SECT":" ","MAREA":" ","LANE":" ","ALLEY":" ","HOUSE_NO":"２２１號","E_COORD97":172460.23999999999,"N_COORD97":2549633.9100000001,"ADDRESS":"永安路２２１號","OBJECTID":471337},"geometry":{"x":172460.24000000115,"y":2549633.910000002}},{"attributes":{"ID":471363,"DIS_CODE":0,"TOWNNAME":"東區","LI":"大智里","LIN":"38鄰","STREET":"崇善路","SECT":" ","MAREA":" ","LANE":" ","ALLEY":" ","HOUSE_NO":"８５８號","E_COORD97":171469.70999999999,"N_COORD97":2540568.6200000001,"ADDRESS":"崇善路８５８號","OBJECTID":471338},"geometry":{"x":171469.70999999996,"y":2540568.620000001}},{"attributes":{"ID":471364,"DIS_CODE":0,"TOWNNAME":"東區","LI":"大智里","LIN":"38鄰","STREET":"崇善路","SECT":" ","MAREA":" ","LANE":" ","ALLEY":" ","HOUSE_NO":"８６０號","E_COORD97":171471.82999999999,"N_COORD97":2540565.1800000002,"ADDRESS":"崇善路８６０號","OBJECTID":471339},"geometry":{"x":171471.83000000101,"y":2540565.1800000016}},{"attributes":{"ID":471365,"DIS_CODE":0,"TOWNNAME":"東區","LI":"大智里","LIN":"38鄰","STREET":"崇善路","SECT":" ","MAREA":" ","LANE":" ","ALLEY":" ","HOUSE_NO":"８６２號","E_COORD97":171473.67999999999,"N_COORD97":2540562.7999999998,"ADDRESS":"崇善路８６２號","OBJECTID":471340},"geometry":{"x":171473.68000000063,"y":2540562.8000000026}},{"attributes":{"ID":471366,"DIS_CODE":0,"TOWNNAME":"東區","LI":"大智里","LIN":"38鄰","STREET":"崇善路","SECT":" ","MAREA":" ","LANE":" ","ALLEY":" ","HOUSE_NO":"８６６號","E_COORD97":171475.26999999999,"N_COORD97":2540560.4199999999,"ADDRESS":"崇善路８６６號","OBJECTID":471341},"geometry":{"x":171475.26999999955,"y":2540560.4200000018}},{"attributes":{"ID":471367,"DIS_CODE":0,"TOWNNAME":"東區","LI":"大智里","LIN":"38鄰","STREET":"崇善路","SECT":" ","MAREA":" ","LANE":" ","ALLEY":" ","HOUSE_NO":"８６８號","E_COORD97":171477.39000000001,"N_COORD97":2540556.71,"ADDRESS":"崇善路８６８號","OBJECTID":471342},"geometry":{"x":171477.3900000006,"y":2540556.7100000028}},{"attributes":{"ID":471368,"DIS_CODE":0,"TOWNNAME":"東區","LI":"大智里","LIN":"38鄰","STREET":"崇善路","SECT":" ","MAREA":" ","LANE":" ","ALLEY":" ","HOUSE_NO":"８７０號","E_COORD97":171480.56,"N_COORD97":2540554.0699999998,"ADDRESS":"崇善路８７０號","OBJECTID":471343},"geometry":{"x":171480.55999999959,"y":2540554.0700000003}},{"attributes":{"ID":471369,"DIS_CODE":0,"TOWNNAME":"東區","LI":"大智里","LIN":"38鄰","STREET":"崇善路","SECT":" ","MAREA":" ","LANE":" ","ALLEY":" ","HOUSE_NO":"８７２號","E_COORD97":171482.67999999999,"N_COORD97":2540550.6299999999,"ADDRESS":"崇善路８７２號","OBJECTID":471344},"geometry":{"x":171482.6799999997,"y":2540550.6300000027}},{"attributes":{"ID":471370,"DIS_CODE":0,"TOWNNAME":"東區","LI":"大智里","LIN":"38鄰","STREET":"崇善路","SECT":" ","MAREA":" ","LANE":" ","ALLEY":" ","HOUSE_NO":"８７６號","E_COORD97":171484.26999999999,"N_COORD97":2540547.1899999999,"ADDRESS":"崇善路８７６號","OBJECTID":471345},"geometry":{"x":171484.26999999955,"y":2540547.1900000032}},{"attributes":{"ID":471371,"DIS_CODE":0,"TOWNNAME":"東區","LI":"大智里","LIN":"38鄰","STREET":"崇善路","SECT":" ","MAREA":" ","LANE":" ","ALLEY":" ","HOUSE_NO":"８７８號","E_COORD97":171487.17999999999,"N_COORD97":2540543.48,"ADDRESS":"崇善路８７８號","OBJECTID":471346},"geometry":{"x":171487.18000000063,"y":2540543.4800000023}},{"attributes":{"ID":471372,"DIS_CODE":0,"TOWNNAME":"東區","LI":"大智里","LIN":"38鄰","STREET":"崇善路","SECT":" ","MAREA":" ","LANE":" ","ALLEY":" ","HOUSE_NO":"８８０號","E_COORD97":171490.88,"N_COORD97":2540539.5099999998,"ADDRESS":"崇善路８８０號","OBJECTID":471347},"geometry":{"x":171490.88000000175,"y":2540539.5100000016}},{"attributes":{"ID":471373,"DIS_CODE":0,"TOWNNAME":"東區","LI":"大智里","LIN":"38鄰","STREET":"崇善路","SECT":" ","MAREA":" ","LANE":" ","ALLEY":" ","HOUSE_NO":"８８２號","E_COORD97":171492.47,"N_COORD97":2540536.6000000001,"ADDRESS":"崇善路８８２號","OBJECTID":471348},"geometry":{"x":171492.47000000067,"y":2540536.5999999996}},{"attributes":{"ID":471374,"DIS_CODE":0,"TOWNNAME":"東區","LI":"大智里","LIN":"38鄰","STREET":"崇善路","SECT":" ","MAREA":" ","LANE":" ","ALLEY":" ","HOUSE_NO":"８８６號","E_COORD97":171495.64000000001,"N_COORD97":2540534.2200000002,"ADDRESS":"崇善路８８６號","OBJECTID":471349},"geometry":{"x":171495.64000000153,"y":2540534.2200000007}},{"attributes":{"ID":471375,"DIS_CODE":0,"TOWNNAME":"東區","LI":"大智里","LIN":"38鄰","STREET":"崇善路","SECT":" ","MAREA":" ","LANE":" ","ALLEY":" ","HOUSE_NO":"８８８號","E_COORD97":171496.70000000001,"N_COORD97":2540530.7799999998,"ADDRESS":"崇善路８８８號","OBJECTID":471350},"geometry":{"x":171496.70000000019,"y":2540530.7800000012}},{"attributes":{"ID":471376,"DIS_CODE":0,"TOWNNAME":"東區","LI":"大智里","LIN":"38鄰","STREET":"崇善路","SECT":" ","MAREA":" ","LANE":" ","ALLEY":" ","HOUSE_NO":"８９０號","E_COORD97":171499.35000000001,"N_COORD97":2540528.1400000001,"ADDRESS":"崇善路８９０號","OBJECTID":471351},"geometry":{"x":171499.35000000056,"y":2540528.1400000006}},{"attributes":{"ID":471377,"DIS_CODE":0,"TOWNNAME":"東區","LI":"大智里","LIN":"38鄰","STREET":"崇善路","SECT":" ","MAREA":" ","LANE":" ","ALLEY":" ","HOUSE_NO":"８９２號","E_COORD97":171501.73000000001,"N_COORD97":2540524.96,"ADDRESS":"崇善路８９２號","OBJECTID":471352},"geometry":{"x":171501.73000000138,"y":2540524.9600000009}},{"attributes":{"ID":471378,"DIS_CODE":0,"TOWNNAME":"東區","LI":"大智里","LIN":"38鄰","STREET":"崇善路","SECT":" ","MAREA":" ","LANE":" ","ALLEY":" ","HOUSE_NO":"８９６號","E_COORD97":171503.57999999999,"N_COORD97":2540521.2599999998,"ADDRESS":"崇善路８９６號","OBJECTID":471353},"geometry":{"x":171503.58000000101,"y":2540521.2600000016}},{"attributes":{"ID":471379,"DIS_CODE":0,"TOWNNAME":"東區","LI":"大智里","LIN":"38鄰","STREET":"崇善路","SECT":" ","MAREA":" ","LANE":" ","ALLEY":" ","HOUSE_NO":"８９８號","E_COORD97":171505.95999999999,"N_COORD97":2540518.0800000001,"ADDRESS":"崇善路８９８號","OBJECTID":471354},"geometry":{"x":171505.96000000089,"y":2540518.0800000038}},{"attributes":{"ID":471380,"DIS_CODE":0,"TOWNNAME":"東區","LI":"大智里","LIN":"38鄰","STREET":"崇善路","SECT":" ","MAREA":" ","LANE":" ","ALLEY":" ","HOUSE_NO":"９００號","E_COORD97":171508.34,"N_COORD97":2540514.1099999999,"ADDRESS":"崇善路９００號","OBJECTID":471355},"geometry":{"x":171508.34000000078,"y":2540514.1100000013}},{"attributes":{"ID":471381,"DIS_CODE":0,"TOWNNAME":"東區","LI":"大智里","LIN":"38鄰","STREET":"崇善路","SECT":" ","MAREA":" ","LANE":" ","ALLEY":" ","HOUSE_NO":"９０２號","E_COORD97":171511.51999999999,"N_COORD97":2540510.9399999999,"ADDRESS":"崇善路９０２號","OBJECTID":471356},"geometry":{"x":171511.52000000142,"y":2540510.9399999995}},{"attributes":{"ID":471382,"DIS_CODE":0,"TOWNNAME":"東區","LI":"大智里","LIN":"38鄰","STREET":"崇善路","SECT":" ","MAREA":" ","LANE":" ","ALLEY":" ","HOUSE_NO":"９０６號","E_COORD97":171513.64000000001,"N_COORD97":2540507.7599999998,"ADDRESS":"崇善路９０６號","OBJECTID":471357},"geometry":{"x":171513.63999999966,"y":2540507.7600000016}},{"attributes":{"ID":471383,"DIS_CODE":0,"TOWNNAME":"東區","LI":"大智里","LIN":"38鄰","STREET":"崇善路","SECT":" ","MAREA":" ","LANE":" ","ALLEY":" ","HOUSE_NO":"９０８號","E_COORD97":171516.81,"N_COORD97":2540503.27,"ADDRESS":"崇善路９０８號","OBJECTID":471358},"geometry":{"x":171516.81000000052,"y":2540503.2700000014}},{"attributes":{"ID":471384,"DIS_CODE":0,"TOWNNAME":"東區","LI":"大智里","LIN":"38鄰","STREET":"崇善路","SECT":" ","MAREA":" ","LANE":" ","ALLEY":" ","HOUSE_NO":"９１０號","E_COORD97":171519.45999999999,"N_COORD97":2540499.0299999998,"ADDRESS":"崇善路９１０號","OBJECTID":471359},"geometry":{"x":171519.46000000089,"y":2540499.0300000012}},{"attributes":{"ID":471385,"DIS_CODE":0,"TOWNNAME":"東區","LI":"大智里","LIN":"38鄰","STREET":"崇善路","SECT":" ","MAREA":" ","LANE":" ","ALLEY":" ","HOUSE_NO":"９１２號","E_COORD97":171522.89999999999,"N_COORD97":2540494.5299999998,"ADDRESS":"崇善路９１２號","OBJECTID":471360},"geometry":{"x":171522.90000000037,"y":2540494.5300000012}},{"attributes":{"ID":471386,"DIS_CODE":0,"TOWNNAME":"東區","LI":"大智里","LIN":"38鄰","STREET":"崇善路","SECT":" ","MAREA":" ","LANE":" ","ALLEY":" ","HOUSE_NO":"９２０號","E_COORD97":171532.16,"N_COORD97":2540482.54,"ADDRESS":"崇善路９２０號","OBJECTID":471361},"geometry":{"x":171532.16000000108,"y":2540482.5399999991}},{"attributes":{"ID":471387,"DIS_CODE":0,"TOWNNAME":"東區","LI":"大智里","LIN":"38鄰","STREET":"崇善路","SECT":" ","MAREA":" ","LANE":" ","ALLEY":" ","HOUSE_NO":"９２２號","E_COORD97":171535.42999999999,"N_COORD97":2540478.29,"ADDRESS":"崇善路９２２號","OBJECTID":471362},"geometry":{"x":171535.4299999997,"y":2540478.2900000028}},{"attributes":{"ID":471388,"DIS_CODE":0,"TOWNNAME":"東區","LI":"大智里","LIN":"38鄰","STREET":"崇善路","SECT":" ","MAREA":" ","LANE":" ","ALLEY":" ","HOUSE_NO":"９２６號","E_COORD97":171538.04999999999,"N_COORD97":2540474.1899999999,"ADDRESS":"崇善路９２６號","OBJECTID":471363},"geometry":{"x":171538.04999999981,"y":2540474.1900000013}},{"attributes":{"ID":471389,"DIS_CODE":0,"TOWNNAME":"東區","LI":"大智里","LIN":"38鄰","STREET":"崇善路","SECT":" ","MAREA":" ","LANE":" ","ALLEY":" ","HOUSE_NO":"９３２號","E_COORD97":171552.45999999999,"N_COORD97":2540453.2400000002,"ADDRESS":"崇善路９３２號","OBJECTID":471364},"geometry":{"x":171552.45999999996,"y":2540453.2400000021}},{"attributes":{"ID":471390,"DIS_CODE":0,"TOWNNAME":"東區","LI":"大智里","LIN":"38鄰","STREET":"崇善路","SECT":" ","MAREA":" ","LANE":" ","ALLEY":" ","HOUSE_NO":"９２８號","E_COORD97":171541.48999999999,"N_COORD97":2540468.96,"ADDRESS":"崇善路９２８號","OBJECTID":471365},"geometry":{"x":171541.49000000115,"y":2540468.9600000046}},{"attributes":{"ID":471391,"DIS_CODE":0,"TOWNNAME":"永康區","LI":"崑山里","LIN":" ","STREET":"大灣路","SECT":" ","MAREA":" ","LANE":" ","ALLEY":" ","HOUSE_NO":"９８３號","E_COORD97":173308.22,"N_COORD97":2544337.5,"ADDRESS":"大灣路９８３號","OBJECTID":471366},"geometry":{"x":173308.21999999974,"y":2544337.5000000019}},{"attributes":{"ID":471392,"DIS_CODE":0,"TOWNNAME":"東區","LI":"大智里","LIN":"38鄰","STREET":"崇善路","SECT":" ","MAREA":" ","LANE":" ","ALLEY":" ","HOUSE_NO":"９３０號","E_COORD97":171549.84,"N_COORD97":2540457.6600000001,"ADDRESS":"崇善路９３０號","OBJECTID":471367},"geometry":{"x":171549.83999999985,"y":2540457.660000002}},{"attributes":{"ID":471393,"DIS_CODE":0,"TOWNNAME":"仁德區","LI":"仁義里","LIN":"38鄰","STREET":"仁義五街","SECT":" ","MAREA":" ","LANE":" ","ALLEY":" ","HOUSE_NO":"１０號","E_COORD97":173506.60000000001,"N_COORD97":2540426.27,"ADDRESS":"仁義五街１０號","OBJECTID":471368},"geometry":{"x":173506.60000000056,"y":2540426.2700000014}},{"attributes":{"ID":471394,"DIS_CODE":0,"TOWNNAME":"仁德區","LI":"仁義里","LIN":"38鄰","STREET":"仁義五街","SECT":" ","MAREA":" ","LANE":" ","ALLEY":" ","HOUSE_NO":"１２號","E_COORD97":173511.75,"N_COORD97":2540426.52,"ADDRESS":"仁義五街１２號","OBJECTID":471369},"geometry":{"x":173511.75,"y":2540426.5200000033}},{"attributes":{"ID":471395,"DIS_CODE":0,"TOWNNAME":"東區","LI":"中西里","LIN":"38鄰","STREET":"長榮路","SECT":"二段","MAREA":" ","LANE":" ","ALLEY":" ","HOUSE_NO":"８７之１號","E_COORD97":170089.92999999999,"N_COORD97":2543437.5099999998,"ADDRESS":"長榮路二段８７之１號","OBJECTID":471370},"geometry":{"x":170089.92999999877,"y":2543437.5100000035}},{"attributes":{"ID":471396,"DIS_CODE":0,"TOWNNAME":"永康區","LI":"甲頂里","LIN":" ","STREET":"中正南路","SECT":" ","MAREA":" ","LANE":" ","ALLEY":" ","HOUSE_NO":"１１６號","E_COORD97":169678.39999999999,"N_COORD97":2546903.7400000002,"ADDRESS":"中正南路１１６號","OBJECTID":471371},"geometry":{"x":169678.40000000037,"y":2546903.7400000002}},{"attributes":{"ID":471397,"DIS_CODE":0,"TOWNNAME":"永康區","LI":"復華里","LIN":" ","STREET":"復華一街","SECT":" ","MAREA":" ","LANE":" ","ALLEY":" ","HOUSE_NO":"６５之１號","E_COORD97":172540.66,"N_COORD97":2545057.7999999998,"ADDRESS":"復華一街６５之１號","OBJECTID":471372},"geometry":{"x":172540.66000000108,"y":2545057.8000000026}},{"attributes":{"ID":471398,"DIS_CODE":0,"TOWNNAME":"仁德區","LI":"仁義里","LIN":"38鄰","STREET":"中正路","SECT":"二段","MAREA":" ","LANE":" ","ALLEY":" ","HOUSE_NO":"８１４號","E_COORD97":173471.64999999999,"N_COORD97":2540380.02,"ADDRESS":"中正路二段８１４號","OBJECTID":471373},"geometry":{"x":173471.6500000013,"y":2540380.0200000014}},{"attributes":{"ID":471399,"DIS_CODE":0,"TOWNNAME":"仁德區","LI":"仁德里","LIN":"38鄰","STREET":"中山路","SECT":" ","MAREA":" ","LANE":" ","ALLEY":" ","HOUSE_NO":"８３８號","E_COORD97":172391.79000000001,"N_COORD97":2541631.2400000002,"ADDRESS":"中山路８３８號","OBJECTID":471374},"geometry":{"x":172391.7900000019,"y":2541631.2400000002}},{"attributes":{"ID":471400,"DIS_CODE":0,"TOWNNAME":"仁德區","LI":"仁義里","LIN":"38鄰","STREET":"中正路","SECT":"二段","MAREA":" ","LANE":" ","ALLEY":" ","HOUSE_NO":"８１８號","E_COORD97":173470.79000000001,"N_COORD97":2540388.27,"ADDRESS":"中正路二段８１８號","OBJECTID":471375},"geometry":{"x":173470.79000000004,"y":2540388.2700000014}},{"attributes":{"ID":471401,"DIS_CODE":0,"TOWNNAME":"永康區","LI":"\u25A0洲里","LIN":"38鄰","STREET":"\u25A0行路","SECT":" ","MAREA":" ","LANE":" ","ALLEY":" ","HOUSE_NO":"１８０號","E_COORD97":171345.98999999999,"N_COORD97":2549235.6600000001,"ADDRESS":"\u25A0行路１８０號","OBJECTID":471376},"geometry":{"x":171345.99000000022,"y":2549235.660000002}},{"attributes":{"ID":471402,"DIS_CODE":0,"TOWNNAME":"永康區","LI":"\u25A0洲里","LIN":"38鄰","STREET":"\u25A0行路","SECT":" ","MAREA":" ","LANE":" ","ALLEY":" ","HOUSE_NO":"１７８號","E_COORD97":171344.54999999999,"N_COORD97":2549238.75,"ADDRESS":"\u25A0行路１７８號","OBJECTID":471377},"geometry":{"x":171344.55000000075,"y":2549238.75}},{"attributes":{"ID":471403,"DIS_CODE":0,"TOWNNAME":"永康區","LI":"\u25A0洲里","LIN":"38鄰","STREET":"\u25A0行路","SECT":" ","MAREA":" ","LANE":" ","ALLEY":" ","HOUSE_NO":"２１４號","E_COORD97":171275.89000000001,"N_COORD97":2549164.3399999999,"ADDRESS":"\u25A0行路２１４號","OBJECTID":471378},"geometry":{"x":171275.8900000006,"y":2549164.3399999999}},{"attributes":{"ID":471404,"DIS_CODE":0,"TOWNNAME":"永康區","LI":"\u25A0洲里","LIN":"38鄰","STREET":"\u25A0行路","SECT":" ","MAREA":" ","LANE":" ","ALLEY":" ","HOUSE_NO":"１８４號","E_COORD97":171339.47,"N_COORD97":2549226.9100000001,"ADDRESS":"\u25A0行路１８４號","OBJECTID":471379},"geometry":{"x":171339.47000000067,"y":2549226.910000002}},{"attributes":{"ID":471405,"DIS_CODE":0,"TOWNNAME":"永康區","LI":"\u25A0洲里","LIN":"38鄰","STREET":"\u25A0行路","SECT":" ","MAREA":" ","LANE":" ","ALLEY":" ","HOUSE_NO":"１７６號","E_COORD97":171354.47,"N_COORD97":2549243.6600000001,"ADDRESS":"\u25A0行路１７６號","OBJECTID":471380},"geometry":{"x":171354.4700000016,"y":2549243.6600000001}},{"attributes":{"ID":471406,"DIS_CODE":0,"TOWNNAME":"永康區","LI":"\u25A0洲里","LIN":"38鄰","STREET":"\u25A0行路","SECT":" ","MAREA":" ","LANE":" ","ALLEY":" ","HOUSE_NO":"１９２號之１","E_COORD97":171319.73999999999,"N_COORD97":2549208.2799999998,"ADDRESS":"\u25A0行路１９２號之１","OBJECTID":471381},"geometry":{"x":171319.74000000115,"y":2549208.2799999993}},{"attributes":{"ID":471407,"DIS_CODE":0,"TOWNNAME":"永康區","LI":"\u25A0洲里","LIN":"38鄰","STREET":"\u25A0行路","SECT":" ","MAREA":" ","LANE":" ","ALLEY":" ","HOUSE_NO":"２０２號","E_COORD97":171295.78,"N_COORD97":2549187.5499999998,"ADDRESS":"\u25A0行路２０２號","OBJECTID":471382},"geometry":{"x":171295.78000000119,"y":2549187.5500000007}},{"attributes":{"ID":471408,"DIS_CODE":0,"TOWNNAME":"永康區","LI":"崑山里","LIN":" ","STREET":"大仁街","SECT":" ","MAREA":" ","LANE":" ","ALLEY":" ","HOUSE_NO":"２２１之４號","E_COORD97":173943.54000000001,"N_COORD97":2545118.3500000001,"ADDRESS":"大仁街２２１之４號","OBJECTID":471383},"geometry":{"x":173943.54000000097,"y":2545118.3499999996}},{"attributes":{"ID":471409,"DIS_CODE":0,"TOWNNAME":"永康區","LI":"甲頂里","LIN":"25鄰","STREET":"中正南路","SECT":" ","MAREA":" ","LANE":" ","ALLEY":" ","HOUSE_NO":"５３號","E_COORD97":169642.87,"N_COORD97":2546801.7400000002,"ADDRESS":"中正南路５３號","OBJECTID":471384},"geometry":{"x":169642.87000000011,"y":2546801.7400000002}},{"attributes":{"ID":471410,"DIS_CODE":0,"TOWNNAME":"永康區","LI":"永康里","LIN":"38鄰","STREET":"大同街","SECT":" ","MAREA":" ","LANE":" ","ALLEY":" ","HOUSE_NO":"７１９號","E_COORD97":174509.20999999999,"N_COORD97":2546699.25,"ADDRESS":"大同街７１９號","OBJECTID":471385},"geometry":{"x":174509.20999999996,"y":2546699.2500000019}},{"attributes":{"ID":471411,"DIS_CODE":0,"TOWNNAME":"永康區","LI":"崑山里","LIN":"38鄰","STREET":"崑山街","SECT":" ","MAREA":" ","LANE":" ","ALLEY":" ","HOUSE_NO":"１８７號","E_COORD97":174049.04999999999,"N_COORD97":2544960.1000000001,"ADDRESS":"崑山街１８７號","OBJECTID":471386},"geometry":{"x":174049.04999999981,"y":2544960.1000000015}},{"attributes":{"ID":471412,"DIS_CODE":0,"TOWNNAME":"安平區","LI":"華平里","LIN":"4鄰","STREET":"怡平路","SECT":" ","MAREA":" ","LANE":" ","ALLEY":" ","HOUSE_NO":"１６號","E_COORD97":165242.41,"N_COORD97":2543879.7000000002,"ADDRESS":"怡平路１６號","OBJECTID":471387},"geometry":{"x":165242.41000000201,"y":2543879.700000003}},{"attributes":{"ID":471413,"DIS_CODE":0,"TOWNNAME":"安平區","LI":"國平里","LIN":"4鄰","STREET":"文平路","SECT":" ","MAREA":" ","LANE":" ","ALLEY":" ","HOUSE_NO":"２４７號","E_COORD97":165724.37,"N_COORD97":2543222.9300000002,"ADDRESS":"文平路２４７號","OBJECTID":471388},"geometry":{"x":165724.37000000104,"y":2543222.9299999997}},{"attributes":{"ID":471414,"DIS_CODE":0,"TOWNNAME":"東區","LI":"莊敬里","LIN":"18鄰","STREET":"小東路","SECT":" ","MAREA":" ","LANE":" ","ALLEY":" ","HOUSE_NO":"３３８號","E_COORD97":171323.37,"N_COORD97":2544305.23,"ADDRESS":"小東路３３８號","OBJECTID":471389},"geometry":{"x":171323.37000000197,"y":2544305.2300000023}},{"attributes":{"ID":471415,"DIS_CODE":0,"TOWNNAME":"東區","LI":"龍山里","LIN":"18鄰","STREET":"東門路","SECT":"一段","MAREA":" ","LANE":" ","ALLEY":" ","HOUSE_NO":"３２０號","E_COORD97":169717.89999999999,"N_COORD97":2543034.8300000001,"ADDRESS":"東門路一段３２０號","OBJECTID":471390},"geometry":{"x":169717.89999999944,"y":2543034.8300000001}},{"attributes":{"ID":471416,"DIS_CODE":0,"TOWNNAME":"永康區","LI":"\u25A0行里","LIN":"13鄰","STREET":"中正南路","SECT":" ","MAREA":" ","LANE":" ","ALLEY":" ","HOUSE_NO":"７９６號","E_COORD97":171827.62,"N_COORD97":2549026.25,"ADDRESS":"中正南路７９６號","OBJECTID":471391},"geometry":{"x":171827.62000000011,"y":2549026.25}},{"attributes":{"ID":471417,"DIS_CODE":0,"TOWNNAME":"中西區","LI":"法華里","LIN":"18鄰","STREET":"健康路","SECT":"一段","MAREA":" ","LANE":" ","ALLEY":" ","HOUSE_NO":"１２４號","E_COORD97":168851.48999999999,"N_COORD97":2542445.48,"ADDRESS":"健康路一段１２４號","OBJECTID":471392},"geometry":{"x":168851.49000000115,"y":2542445.4800000023}},{"attributes":{"ID":471418,"DIS_CODE":0,"TOWNNAME":"中西區","LI":"法華里","LIN":"18鄰","STREET":"健康路","SECT":"一段","MAREA":" ","LANE":" ","ALLEY":" ","HOUSE_NO":"１２６號","E_COORD97":168847.56,"N_COORD97":2542450.2000000002,"ADDRESS":"健康路一段１２６號","OBJECTID":471393},"geometry":{"x":168847.55999999959,"y":2542450.2000000011}},{"attributes":{"ID":471419,"DIS_CODE":0,"TOWNNAME":"中西區","LI":"法華里","LIN":"18鄰","STREET":"健康路","SECT":"一段","MAREA":" ","LANE":" ","ALLEY":" ","HOUSE_NO":"１２８號","E_COORD97":168843.62,"N_COORD97":2542452.9500000002,"ADDRESS":"健康路一段１２８號","OBJECTID":471394},"geometry":{"x":168843.62000000104,"y":2542452.9499999993}},{"attributes":{"ID":471420,"DIS_CODE":0,"TOWNNAME":"中西區","LI":"法華里","LIN":"18鄰","STREET":"健康路","SECT":"一段","MAREA":" ","LANE":" ","ALLEY":" ","HOUSE_NO":"１３０號","E_COORD97":168839.29000000001,"N_COORD97":2542450.5899999999,"ADDRESS":"健康路一段１３０號","OBJECTID":471395},"geometry":{"x":168839.29000000097,"y":2542450.5900000036}},{"attributes":{"ID":471421,"DIS_CODE":0,"TOWNNAME":"中西區","LI":"法華里","LIN":"18鄰","STREET":"健康路","SECT":"一段","MAREA":" ","LANE":" ","ALLEY":" ","HOUSE_NO":"１３２號","E_COORD97":168835.35000000001,"N_COORD97":2542453.3399999999,"ADDRESS":"健康路一段１３２號","OBJECTID":471396},"geometry":{"x":168835.34999999963,"y":2542453.3400000017}},{"attributes":{"ID":471422,"DIS_CODE":0,"TOWNNAME":"中西區","LI":"法華里","LIN":"18鄰","STREET":"健康路","SECT":"一段","MAREA":" ","LANE":" ","ALLEY":" ","HOUSE_NO":"１３４號","E_COORD97":168828.26999999999,"N_COORD97":2542456.8799999999,"ADDRESS":"健康路一段１３４號","OBJECTID":471397},"geometry":{"x":168828.27000000048,"y":2542456.879999999}},{"attributes":{"ID":471423,"DIS_CODE":0,"TOWNNAME":"中西區","LI":"法華里","LIN":"18鄰","STREET":"健康路","SECT":"一段","MAREA":" ","LANE":" ","ALLEY":" ","HOUSE_NO":"１３８號","E_COORD97":168817.07999999999,"N_COORD97":2542449.1699999999,"ADDRESS":"健康路一段１３８號","OBJECTID":471398},"geometry":{"x":168817.08000000101,"y":2542449.1699999999}},{"attributes":{"ID":471424,"DIS_CODE":0,"TOWNNAME":"永康區","LI":"崑山里","LIN":" ","STREET":"大仁街","SECT":" ","MAREA":" ","LANE":" ","ALLEY":" ","HOUSE_NO":"２０７之２號","E_COORD97":173931.57000000001,"N_COORD97":2545082.96,"ADDRESS":"大仁街２０７之２號","OBJECTID":471399},"geometry":{"x":173931.57000000123,"y":2545082.9600000009}},{"attributes":{"ID":471425,"DIS_CODE":0,"TOWNNAME":"永康區","LI":"三合里","LIN":" ","STREET":"中華二路","SECT":" ","MAREA":" ","LANE":" ","ALLEY":" ","HOUSE_NO":"６２號","E_COORD97":172128.70000000001,"N_COORD97":2545570.9900000002,"ADDRESS":"中華二路６２號","OBJECTID":471400},"geometry":{"x":172128.70000000112,"y":2545570.9900000021}}]}