{"displayFieldName":"TOWNNAME","fieldAliases":{"ID":"ID","DIS_CODE":"DIS_CODE","TOWNNAME":"TOWNNAME","LI":"LI","LIN":"LIN","STREET":"STREET","SECT":"SECT","MAREA":"MAREA","LANE":"LANE","ALLEY":"ALLEY","HOUSE_NO":"HOUSE_NO","E_COORD97":"E_COORD97","N_COORD97":"N_COORD97","ADDRESS":"ADDRESS","OBJECTID":"OBJECTID"},"geometryType":"esriGeometryPoint","spatialReference":{"wkid":102443,"latestWkid":3826},"fields":[{"name":"ID","type":"esriFieldTypeDouble","alias":"ID"},{"name":"DIS_CODE","type":"esriFieldTypeInteger","alias":"DIS_CODE"},{"name":"TOWNNAME","type":"esriFieldTypeString","alias":"TOWNNAME","length":8},{"name":"LI","type":"esriFieldTypeString","alias":"LI","length":8},{"name":"LIN","type":"esriFieldTypeString","alias":"LIN","length":12},{"name":"STREET","type":"esriFieldTypeString","alias":"STREET","length":20},{"name":"SECT","type":"esriFieldTypeString","alias":"SECT","length":8},{"name":"MAREA","type":"esriFieldTypeString","alias":"MAREA","length":12},{"name":"LANE","type":"esriFieldTypeString","alias":"LANE","length":10},{"name":"ALLEY","type":"esriFieldTypeString","alias":"ALLEY","length":10},{"name":"HOUSE_NO","type":"esriFieldTypeString","alias":"HOUSE_NO","length":20},{"name":"E_COORD97","type":"esriFieldTypeDouble","alias":"E_COORD97"},{"name":"N_COORD97","type":"esriFieldTypeDouble","alias":"N_COORD97"},{"name":"ADDRESS","type":"esriFieldTypeString","alias":"ADDRESS","length":50},{"name":"OBJECTID","type":"esriFieldTypeOID","alias":"OBJECTID"}],"features":[{"attributes":{"ID":81801,"DIS_CODE":0,"TOWNNAME":"北門區","LI":"玉港里","LIN":"1鄰","STREET":" ","SECT":" ","MAREA":"灰\u25A0港","LANE":" ","ALLEY":" ","HOUSE_NO":"２號","E_COORD97":161905.51000000001,"N_COORD97":2573795.75,"ADDRESS":"灰\u25A0港２號","OBJECTID":81801},"geometry":{"x":161905.51000000071,"y":2573795.75}},{"attributes":{"ID":81802,"DIS_CODE":0,"TOWNNAME":"北門區","LI":"玉港里","LIN":"1鄰","STREET":" ","SECT":" ","MAREA":"灰\u25A0港","LANE":" ","ALLEY":" ","HOUSE_NO":"４號","E_COORD97":161919.97,"N_COORD97":2573762.9900000002,"ADDRESS":"灰\u25A0港４號","OBJECTID":81802},"geometry":{"x":161919.96999999974,"y":2573762.9900000021}},{"attributes":{"ID":81803,"DIS_CODE":0,"TOWNNAME":"鹽水區","LI":"孫厝里","LIN":"17鄰","STREET":" ","SECT":" ","MAREA":"羊稠厝","LANE":" ","ALLEY":" ","HOUSE_NO":"４８號","E_COORD97":169465.17999999999,"N_COORD97":2575829.9300000002,"ADDRESS":"羊稠厝４８號","OBJECTID":81803},"geometry":{"x":169465.18000000063,"y":2575829.9300000016}},{"attributes":{"ID":81804,"DIS_CODE":0,"TOWNNAME":"北門區","LI":"玉港里","LIN":"1鄰","STREET":" ","SECT":" ","MAREA":"灰\u25A0港","LANE":" ","ALLEY":" ","HOUSE_NO":"５號之１","E_COORD97":161942.47,"N_COORD97":2573726.1499999999,"ADDRESS":"灰\u25A0港５號之１","OBJECTID":81804},"geometry":{"x":161942.46999999974,"y":2573726.1500000004}},{"attributes":{"ID":81805,"DIS_CODE":0,"TOWNNAME":"北門區","LI":"玉港里","LIN":"1鄰","STREET":" ","SECT":" ","MAREA":"灰\u25A0港","LANE":" ","ALLEY":" ","HOUSE_NO":"５號","E_COORD97":161918.48999999999,"N_COORD97":2573728.6400000001,"ADDRESS":"灰\u25A0港５號","OBJECTID":81805},"geometry":{"x":161918.49000000115,"y":2573728.6400000025}},{"attributes":{"ID":81806,"DIS_CODE":0,"TOWNNAME":"北門區","LI":"玉港里","LIN":"1鄰","STREET":" ","SECT":" ","MAREA":"灰\u25A0港","LANE":" ","ALLEY":" ","HOUSE_NO":"６號","E_COORD97":161900.57999999999,"N_COORD97":2573724.3999999999,"ADDRESS":"灰\u25A0港６號","OBJECTID":81806},"geometry":{"x":161900.58000000101,"y":2573724.4000000004}},{"attributes":{"ID":81807,"DIS_CODE":0,"TOWNNAME":"北門區","LI":"玉港里","LIN":"1鄰","STREET":" ","SECT":" ","MAREA":"灰\u25A0港","LANE":" ","ALLEY":" ","HOUSE_NO":"７號","E_COORD97":161901.57999999999,"N_COORD97":2573762.4700000002,"ADDRESS":"灰\u25A0港７號","OBJECTID":81807},"geometry":{"x":161901.57999999914,"y":2573762.4700000025}},{"attributes":{"ID":81808,"DIS_CODE":0,"TOWNNAME":"北門區","LI":"玉港里","LIN":"1鄰","STREET":" ","SECT":" ","MAREA":"灰\u25A0港","LANE":" ","ALLEY":" ","HOUSE_NO":"８號之１","E_COORD97":161874.32999999999,"N_COORD97":2573791.1299999999,"ADDRESS":"灰\u25A0港８號之１","OBJECTID":81808},"geometry":{"x":161874.33000000007,"y":2573791.1300000008}},{"attributes":{"ID":81809,"DIS_CODE":0,"TOWNNAME":"北門區","LI":"玉港里","LIN":"1鄰","STREET":" ","SECT":" ","MAREA":"灰\u25A0港","LANE":" ","ALLEY":" ","HOUSE_NO":"８之２號","E_COORD97":161902,"N_COORD97":2573810.6499999999,"ADDRESS":"灰\u25A0港８之２號","OBJECTID":81809},"geometry":{"x":161901.99999999907,"y":2573810.6500000004}},{"attributes":{"ID":81810,"DIS_CODE":0,"TOWNNAME":"北門區","LI":"玉港里","LIN":"1鄰","STREET":" ","SECT":" ","MAREA":"灰\u25A0港","LANE":" ","ALLEY":" ","HOUSE_NO":"８號之２","E_COORD97":161902,"N_COORD97":2573810.6499999999,"ADDRESS":"灰\u25A0港８號之２","OBJECTID":81810},"geometry":{"x":161901.99999999907,"y":2573810.6500000004}},{"attributes":{"ID":81811,"DIS_CODE":0,"TOWNNAME":"北門區","LI":"玉港里","LIN":"1鄰","STREET":" ","SECT":" ","MAREA":"灰\u25A0港","LANE":" ","ALLEY":" ","HOUSE_NO":"８之３號","E_COORD97":161872.17000000001,"N_COORD97":2573831.6899999999,"ADDRESS":"灰\u25A0港８之３號","OBJECTID":81811},"geometry":{"x":161872.17000000179,"y":2573831.6900000013}},{"attributes":{"ID":81812,"DIS_CODE":0,"TOWNNAME":"北門區","LI":"玉港里","LIN":"1鄰","STREET":" ","SECT":" ","MAREA":"灰\u25A0港","LANE":" ","ALLEY":" ","HOUSE_NO":"８號之４","E_COORD97":161877.76000000001,"N_COORD97":2573806.1099999999,"ADDRESS":"灰\u25A0港８號之４","OBJECTID":81812},"geometry":{"x":161877.75999999978,"y":2573806.1099999994}},{"attributes":{"ID":81813,"DIS_CODE":0,"TOWNNAME":"北門區","LI":"玉港里","LIN":"1鄰","STREET":" ","SECT":" ","MAREA":"灰\u25A0港","LANE":" ","ALLEY":" ","HOUSE_NO":"８號","E_COORD97":161870.07999999999,"N_COORD97":2573800.3999999999,"ADDRESS":"灰\u25A0港８號","OBJECTID":81813},"geometry":{"x":161870.08000000101,"y":2573800.4000000022}},{"attributes":{"ID":81814,"DIS_CODE":0,"TOWNNAME":"北門區","LI":"玉港里","LIN":"1鄰","STREET":" ","SECT":" ","MAREA":"灰\u25A0港","LANE":" ","ALLEY":" ","HOUSE_NO":"９號","E_COORD97":161882.20999999999,"N_COORD97":2573761.2000000002,"ADDRESS":"灰\u25A0港９號","OBJECTID":81814},"geometry":{"x":161882.21000000089,"y":2573761.1999999993}},{"attributes":{"ID":81815,"DIS_CODE":0,"TOWNNAME":"後壁區","LI":"後部里","LIN":"1鄰","STREET":" ","SECT":" ","MAREA":"後部","LANE":" ","ALLEY":" ","HOUSE_NO":"１號之１","E_COORD97":182203.60999999999,"N_COORD97":2586739.1499999999,"ADDRESS":"後部１號之１","OBJECTID":81815},"geometry":{"x":182203.61000000127,"y":2586739.1500000041}},{"attributes":{"ID":81816,"DIS_CODE":0,"TOWNNAME":"後壁區","LI":"後部里","LIN":"1鄰","STREET":" ","SECT":" ","MAREA":"後部","LANE":" ","ALLEY":" ","HOUSE_NO":"２號之１","E_COORD97":182200.89999999999,"N_COORD97":2586734.4100000001,"ADDRESS":"後部２號之１","OBJECTID":81816},"geometry":{"x":182200.90000000037,"y":2586734.410000002}},{"attributes":{"ID":81817,"DIS_CODE":0,"TOWNNAME":"東區","LI":"仁和里","LIN":"12鄰","STREET":"仁和路","SECT":" ","MAREA":" ","LANE":"１３９巷","ALLEY":"５１弄","HOUSE_NO":"２０號之２","E_COORD97":171765.79999999999,"N_COORD97":2541215.0899999999,"ADDRESS":"仁和路１３９巷５１弄２０號之２","OBJECTID":81817},"geometry":{"x":171765.79999999888,"y":2541215.0899999999}},{"attributes":{"ID":81818,"DIS_CODE":0,"TOWNNAME":"東區","LI":"仁和里","LIN":"12鄰","STREET":"仁和路","SECT":" ","MAREA":" ","LANE":"１３９巷","ALLEY":"５１弄","HOUSE_NO":"２０號之３","E_COORD97":171770.42000000001,"N_COORD97":2541214.2400000002,"ADDRESS":"仁和路１３９巷５１弄２０號之３","OBJECTID":81818},"geometry":{"x":171770.42000000086,"y":2541214.2400000002}},{"attributes":{"ID":81819,"DIS_CODE":0,"TOWNNAME":"東區","LI":"仁和里","LIN":"12鄰","STREET":"仁和路","SECT":" ","MAREA":" ","LANE":"１３９巷","ALLEY":"５１弄","HOUSE_NO":"２０號之５","E_COORD97":171774.79999999999,"N_COORD97":2541213.6299999999,"ADDRESS":"仁和路１３９巷５１弄２０號之５","OBJECTID":81819},"geometry":{"x":171774.80000000075,"y":2541213.629999999}},{"attributes":{"ID":81820,"DIS_CODE":0,"TOWNNAME":"東區","LI":"仁和里","LIN":"12鄰","STREET":"仁和路","SECT":" ","MAREA":" ","LANE":"１３９巷","ALLEY":"５１弄","HOUSE_NO":"２０號之６","E_COORD97":171779.42000000001,"N_COORD97":2541215.0899999999,"ADDRESS":"仁和路１３９巷５１弄２０號之６","OBJECTID":81820},"geometry":{"x":171779.42000000086,"y":2541215.0899999999}},{"attributes":{"ID":81821,"DIS_CODE":0,"TOWNNAME":"永康區","LI":"三合里","LIN":"12鄰","STREET":"南工街","SECT":" ","MAREA":" ","LANE":"２４７巷","ALLEY":"３３弄","HOUSE_NO":"２０號","E_COORD97":172004.76000000001,"N_COORD97":2545799.3399999999,"ADDRESS":"南工街２４７巷３３弄２０號","OBJECTID":81821},"geometry":{"x":172004.75999999978,"y":2545799.3400000017}},{"attributes":{"ID":81822,"DIS_CODE":0,"TOWNNAME":"永康區","LI":"光復里","LIN":"12鄰","STREET":"復興路","SECT":" ","MAREA":" ","LANE":"２４６巷","ALLEY":"１０弄","HOUSE_NO":"１３號","E_COORD97":172429.45000000001,"N_COORD97":2544509.27,"ADDRESS":"復興路２４６巷１０弄１３號","OBJECTID":81822},"geometry":{"x":172429.45000000019,"y":2544509.2699999996}},{"attributes":{"ID":81823,"DIS_CODE":0,"TOWNNAME":"永康區","LI":"王行里","LIN":"12鄰","STREET":"王行路","SECT":" ","MAREA":" ","LANE":"８６６巷","ALLEY":"７弄","HOUSE_NO":"５號","E_COORD97":175885.95000000001,"N_COORD97":2549990.98,"ADDRESS":"王行路８６６巷７弄５號","OBJECTID":81823},"geometry":{"x":175885.95000000019,"y":2549990.9800000004}},{"attributes":{"ID":81824,"DIS_CODE":0,"TOWNNAME":"永康區","LI":"王行里","LIN":"12鄰","STREET":"王行路","SECT":" ","MAREA":" ","LANE":"８６６巷","ALLEY":"７弄","HOUSE_NO":"１１號","E_COORD97":175887.97,"N_COORD97":2550003.98,"ADDRESS":"王行路８６６巷７弄１１號","OBJECTID":81824},"geometry":{"x":175887.97000000067,"y":2550003.9800000004}},{"attributes":{"ID":81825,"DIS_CODE":0,"TOWNNAME":"永康區","LI":"崑山里","LIN":"12鄰","STREET":"大灣路","SECT":" ","MAREA":" ","LANE":"１１０２巷","ALLEY":"１７弄","HOUSE_NO":"１２４號","E_COORD97":173369.44,"N_COORD97":2544591.7799999998,"ADDRESS":"大灣路１１０２巷１７弄１２４號","OBJECTID":81825},"geometry":{"x":173369.44000000134,"y":2544591.7800000012}},{"attributes":{"ID":81826,"DIS_CODE":0,"TOWNNAME":"永康區","LI":"東橋里","LIN":"12鄰","STREET":"中山南路","SECT":" ","MAREA":" ","LANE":"２３１巷","ALLEY":"９弄","HOUSE_NO":"３號","E_COORD97":171614.26999999999,"N_COORD97":2546222.4300000002,"ADDRESS":"中山南路２３１巷９弄３號","OBJECTID":81826},"geometry":{"x":171614.26999999955,"y":2546222.4300000016}},{"attributes":{"ID":81827,"DIS_CODE":0,"TOWNNAME":"北區","LI":"光武里","LIN":"7鄰","STREET":"北門路","SECT":"二段","MAREA":" ","LANE":" ","ALLEY":" ","HOUSE_NO":"５４９號","E_COORD97":169651.73000000001,"N_COORD97":2545694.23,"ADDRESS":"北門路二段５４９號","OBJECTID":81827},"geometry":{"x":169651.73000000138,"y":2545694.2300000004}},{"attributes":{"ID":81828,"DIS_CODE":0,"TOWNNAME":"北區","LI":"光武里","LIN":"7鄰","STREET":"北門路","SECT":"二段","MAREA":" ","LANE":" ","ALLEY":" ","HOUSE_NO":"５７５號","E_COORD97":169672.37,"N_COORD97":2545763.6800000002,"ADDRESS":"北門路二段５７５號","OBJECTID":81828},"geometry":{"x":169672.37000000104,"y":2545763.6799999997}},{"attributes":{"ID":81829,"DIS_CODE":0,"TOWNNAME":"北區","LI":"光武里","LIN":"7鄰","STREET":"北門路","SECT":"二段","MAREA":" ","LANE":" ","ALLEY":" ","HOUSE_NO":"５６１號","E_COORD97":169661.41,"N_COORD97":2545726.3799999999,"ADDRESS":"北門路二段５６１號","OBJECTID":81829},"geometry":{"x":169661.41000000015,"y":2545726.3800000008}},{"attributes":{"ID":81830,"DIS_CODE":0,"TOWNNAME":"北區","LI":"光武里","LIN":"7鄰","STREET":"北門路","SECT":"二段","MAREA":" ","LANE":" ","ALLEY":" ","HOUSE_NO":"５６３號","E_COORD97":169663.32000000001,"N_COORD97":2545732.25,"ADDRESS":"北門路二段５６３號","OBJECTID":81830},"geometry":{"x":169663.32000000123,"y":2545732.2500000019}},{"attributes":{"ID":81831,"DIS_CODE":0,"TOWNNAME":"北區","LI":"光武里","LIN":"7鄰","STREET":"北門路","SECT":"二段","MAREA":" ","LANE":" ","ALLEY":" ","HOUSE_NO":"５５１號","E_COORD97":169652.84,"N_COORD97":2545699.3900000001,"ADDRESS":"北門路二段５５１號","OBJECTID":81831},"geometry":{"x":169652.83999999985,"y":2545699.3900000006}},{"attributes":{"ID":81832,"DIS_CODE":0,"TOWNNAME":"北區","LI":"光武里","LIN":"7鄰","STREET":"北門路","SECT":"二段","MAREA":" ","LANE":" ","ALLEY":" ","HOUSE_NO":"５５５號","E_COORD97":169656.01000000001,"N_COORD97":2545709.5499999998,"ADDRESS":"北門路二段５５５號","OBJECTID":81832},"geometry":{"x":169656.01000000071,"y":2545709.5499999989}},{"attributes":{"ID":81833,"DIS_CODE":0,"TOWNNAME":"北區","LI":"光武里","LIN":"7鄰","STREET":"北門路","SECT":"二段","MAREA":" ","LANE":" ","ALLEY":" ","HOUSE_NO":"５５３號","E_COORD97":169654.57999999999,"N_COORD97":2545704.1499999999,"ADDRESS":"北門路二段５５３號","OBJECTID":81833},"geometry":{"x":169654.58000000101,"y":2545704.1500000004}},{"attributes":{"ID":81834,"DIS_CODE":0,"TOWNNAME":"北區","LI":"光武里","LIN":"7鄰","STREET":"北門路","SECT":"二段","MAREA":" ","LANE":" ","ALLEY":" ","HOUSE_NO":"５５９號","E_COORD97":169659.51000000001,"N_COORD97":2545720.6600000001,"ADDRESS":"北門路二段５５９號","OBJECTID":81834},"geometry":{"x":169659.51000000071,"y":2545720.6600000001}},{"attributes":{"ID":81835,"DIS_CODE":0,"TOWNNAME":"後壁區","LI":"後部里","LIN":"1鄰","STREET":" ","SECT":" ","MAREA":"後部","LANE":" ","ALLEY":" ","HOUSE_NO":"４號之１","E_COORD97":182202.44,"N_COORD97":2586786.1400000001,"ADDRESS":"後部４號之１","OBJECTID":81835},"geometry":{"x":182202.44000000041,"y":2586786.1400000006}},{"attributes":{"ID":81836,"DIS_CODE":0,"TOWNNAME":"中西區","LI":"銀同里","LIN":"12鄰","STREET":"開山路","SECT":" ","MAREA":" ","LANE":"３５巷","ALLEY":"１弄","HOUSE_NO":"４９號","E_COORD97":168689.35000000001,"N_COORD97":2543554.6699999999,"ADDRESS":"開山路３５巷１弄４９號","OBJECTID":81836},"geometry":{"x":168689.35000000056,"y":2543554.6699999999}},{"attributes":{"ID":81837,"DIS_CODE":0,"TOWNNAME":"安南區","LI":"佃東里","LIN":"12鄰","STREET":"海佃路","SECT":"四段","MAREA":" ","LANE":"３８８巷","ALLEY":"６２弄","HOUSE_NO":"７０號","E_COORD97":165722.20000000001,"N_COORD97":2551642.29,"ADDRESS":"海佃路四段３８８巷６２弄７０號","OBJECTID":81837},"geometry":{"x":165722.20000000112,"y":2551642.2899999991}},{"attributes":{"ID":81838,"DIS_CODE":0,"TOWNNAME":"新市區","LI":"新市里","LIN":"12鄰","STREET":"中正路","SECT":" ","MAREA":" ","LANE":"３０１巷","ALLEY":"１５弄","HOUSE_NO":"５５號","E_COORD97":177477.48999999999,"N_COORD97":2553235.25,"ADDRESS":"中正路３０１巷１５弄５５號","OBJECTID":81838},"geometry":{"x":177477.49000000022,"y":2553235.2500000019}},{"attributes":{"ID":81839,"DIS_CODE":0,"TOWNNAME":"新市區","LI":"新市里","LIN":"12鄰","STREET":"中正路","SECT":" ","MAREA":" ","LANE":"３０１巷","ALLEY":"１５弄","HOUSE_NO":"４３號","E_COORD97":177500.98999999999,"N_COORD97":2553247.25,"ADDRESS":"中正路３０１巷１５弄４３號","OBJECTID":81839},"geometry":{"x":177500.99000000022,"y":2553247.25}},{"attributes":{"ID":81840,"DIS_CODE":0,"TOWNNAME":"新市區","LI":"港墘里","LIN":"12鄰","STREET":"中山路","SECT":" ","MAREA":" ","LANE":"１０６巷","ALLEY":"５弄","HOUSE_NO":"２號","E_COORD97":178349.64999999999,"N_COORD97":2552741.5,"ADDRESS":"中山路１０６巷５弄２號","OBJECTID":81840},"geometry":{"x":178349.65000000037,"y":2552741.5000000019}},{"attributes":{"ID":81841,"DIS_CODE":0,"TOWNNAME":"新市區","LI":"新市里","LIN":"12鄰","STREET":"中正路","SECT":" ","MAREA":" ","LANE":"３０１巷","ALLEY":"１５弄","HOUSE_NO":"３７號","E_COORD97":177511.88,"N_COORD97":2553253.25,"ADDRESS":"中正路３０１巷１５弄３７號","OBJECTID":81841},"geometry":{"x":177511.87999999989,"y":2553253.25}},{"attributes":{"ID":81842,"DIS_CODE":0,"TOWNNAME":"新市區","LI":"新市里","LIN":"12鄰","STREET":"中正路","SECT":" ","MAREA":" ","LANE":"３０１巷","ALLEY":"１５弄","HOUSE_NO":"４７號","E_COORD97":177493.56,"N_COORD97":2553242.75,"ADDRESS":"中正路３０１巷１５弄４７號","OBJECTID":81842},"geometry":{"x":177493.56000000145,"y":2553242.75}},{"attributes":{"ID":81843,"DIS_CODE":0,"TOWNNAME":"新市區","LI":"新市里","LIN":"12鄰","STREET":"中正路","SECT":" ","MAREA":" ","LANE":"３０１巷","ALLEY":"１５弄","HOUSE_NO":"５１號","E_COORD97":177485.09,"N_COORD97":2553239.25,"ADDRESS":"中正路３０１巷１５弄５１號","OBJECTID":81843},"geometry":{"x":177485.08999999892,"y":2553239.2500000019}},{"attributes":{"ID":81844,"DIS_CODE":0,"TOWNNAME":"安南區","LI":"南興里","LIN":"12鄰","STREET":"公學路","SECT":"五段","MAREA":" ","LANE":"５２７巷","ALLEY":"２弄","HOUSE_NO":"３號","E_COORD97":164018.53,"N_COORD97":2552588.6600000001,"ADDRESS":"公學路五段５２７巷２弄３號","OBJECTID":81844},"geometry":{"x":164018.53000000119,"y":2552588.660000002}},{"attributes":{"ID":81845,"DIS_CODE":0,"TOWNNAME":"南區","LI":"日新里","LIN":" ","STREET":"鹽埕路","SECT":" ","MAREA":" ","LANE":" ","ALLEY":" ","HOUSE_NO":"２２９號","E_COORD97":166898.53,"N_COORD97":2541189.5499999998,"ADDRESS":"鹽埕路２２９號","OBJECTID":81845},"geometry":{"x":166898.53000000119,"y":2541189.5500000007}},{"attributes":{"ID":81846,"DIS_CODE":0,"TOWNNAME":"後壁區","LI":"土溝里","LIN":"10鄰","STREET":" ","SECT":" ","MAREA":"土溝","LANE":" ","ALLEY":" ","HOUSE_NO":"９０號","E_COORD97":187624.76000000001,"N_COORD97":2585964.0299999998,"ADDRESS":"土溝９０號","OBJECTID":81846},"geometry":{"x":187624.76000000071,"y":2585964.0299999993}},{"attributes":{"ID":81847,"DIS_CODE":0,"TOWNNAME":"南區","LI":"日新里","LIN":" ","STREET":"鹽埕路","SECT":" ","MAREA":" ","LANE":" ","ALLEY":" ","HOUSE_NO":"２３０號","E_COORD97":166916.56,"N_COORD97":2541148.3500000001,"ADDRESS":"鹽埕路２３０號","OBJECTID":81847},"geometry":{"x":166916.55999999959,"y":2541148.3499999996}},{"attributes":{"ID":81848,"DIS_CODE":0,"TOWNNAME":"南區","LI":"日新里","LIN":" ","STREET":"鹽埕路","SECT":" ","MAREA":" ","LANE":" ","ALLEY":" ","HOUSE_NO":"２３１號","E_COORD97":166901.87,"N_COORD97":2541193.3999999999,"ADDRESS":"鹽埕路２３１號","OBJECTID":81848},"geometry":{"x":166901.87000000011,"y":2541193.4000000004}},{"attributes":{"ID":81849,"DIS_CODE":0,"TOWNNAME":"佳里區","LI":"嘉福里","LIN":"1鄰","STREET":" ","SECT":" ","MAREA":"下營","LANE":" ","ALLEY":" ","HOUSE_NO":"８號之１","E_COORD97":163033.20999999999,"N_COORD97":2563654.0299999998,"ADDRESS":"下營８號之１","OBJECTID":81849},"geometry":{"x":163033.21000000089,"y":2563654.0300000012}},{"attributes":{"ID":81850,"DIS_CODE":0,"TOWNNAME":"南區","LI":"日新里","LIN":" ","STREET":"鹽埕路","SECT":" ","MAREA":" ","LANE":" ","ALLEY":" ","HOUSE_NO":"２３２號","E_COORD97":166898.72,"N_COORD97":2541153.5099999998,"ADDRESS":"鹽埕路２３２號","OBJECTID":81850},"geometry":{"x":166898.71999999974,"y":2541153.5100000016}},{"attributes":{"ID":81851,"DIS_CODE":0,"TOWNNAME":"南區","LI":"日新里","LIN":" ","STREET":"鹽埕路","SECT":" ","MAREA":" ","LANE":" ","ALLEY":" ","HOUSE_NO":"２３３號","E_COORD97":166903.32999999999,"N_COORD97":2541196.8300000001,"ADDRESS":"鹽埕路２３３號","OBJECTID":81851},"geometry":{"x":166903.33000000007,"y":2541196.8300000001}},{"attributes":{"ID":81852,"DIS_CODE":0,"TOWNNAME":"新營區","LI":"五興里","LIN":"7鄰","STREET":" ","SECT":" ","MAREA":"五間厝","LANE":" ","ALLEY":" ","HOUSE_NO":"７６號","E_COORD97":175765.10999999999,"N_COORD97":2574668.5,"ADDRESS":"五間厝７６號","OBJECTID":81852},"geometry":{"x":175765.1100000022,"y":2574668.5}},{"attributes":{"ID":81853,"DIS_CODE":0,"TOWNNAME":"安南區","LI":"安東里","LIN":"12鄰","STREET":"安和路","SECT":"一段","MAREA":" ","LANE":"２８８巷","ALLEY":"１５０弄","HOUSE_NO":"３號","E_COORD97":169723.37,"N_COORD97":2548163.3100000001,"ADDRESS":"安和路一段２８８巷１５０弄３號","OBJECTID":81853},"geometry":{"x":169723.37000000104,"y":2548163.3100000024}},{"attributes":{"ID":81854,"DIS_CODE":0,"TOWNNAME":"安南區","LI":"安東里","LIN":"12鄰","STREET":"安和路","SECT":"一段","MAREA":" ","LANE":"２８８巷","ALLEY":"１５０弄","HOUSE_NO":"１號","E_COORD97":169719.35000000001,"N_COORD97":2548175.6099999999,"ADDRESS":"安和路一段２８８巷１５０弄１號","OBJECTID":81854},"geometry":{"x":169719.35000000149,"y":2548175.6099999994}},{"attributes":{"ID":81855,"DIS_CODE":0,"TOWNNAME":"佳里區","LI":"鎮山里","LIN":"12鄰","STREET":"仁愛路","SECT":" ","MAREA":" ","LANE":"２７２巷","ALLEY":"１４弄","HOUSE_NO":"１號","E_COORD97":166064.29999999999,"N_COORD97":2561540.2200000002,"ADDRESS":"仁愛路２７２巷１４弄１號","OBJECTID":81855},"geometry":{"x":166064.29999999981,"y":2561540.2200000007}},{"attributes":{"ID":81856,"DIS_CODE":0,"TOWNNAME":"佳里區","LI":"鎮山里","LIN":"12鄰","STREET":"仁愛路","SECT":" ","MAREA":" ","LANE":"２７２巷","ALLEY":"１４弄","HOUSE_NO":"３號","E_COORD97":166060.16,"N_COORD97":2561540.0299999998,"ADDRESS":"仁愛路２７２巷１４弄３號","OBJECTID":81856},"geometry":{"x":166060.16000000108,"y":2561540.0299999993}},{"attributes":{"ID":81857,"DIS_CODE":0,"TOWNNAME":"佳里區","LI":"鎮山里","LIN":"12鄰","STREET":"仁愛路","SECT":" ","MAREA":" ","LANE":"２７２巷","ALLEY":"１４弄","HOUSE_NO":"５號","E_COORD97":166055.79999999999,"N_COORD97":2561540.0299999998,"ADDRESS":"仁愛路２７２巷１４弄５號","OBJECTID":81857},"geometry":{"x":166055.79999999981,"y":2561540.0299999993}},{"attributes":{"ID":81858,"DIS_CODE":0,"TOWNNAME":"永康區","LI":"安康里","LIN":"12鄰","STREET":"中華路","SECT":" ","MAREA":" ","LANE":"６１９巷","ALLEY":"１１弄","HOUSE_NO":"４號","E_COORD97":171021.35999999999,"N_COORD97":2546049.9900000002,"ADDRESS":"中華路６１９巷１１弄４號","OBJECTID":81858},"geometry":{"x":171021.36000000034,"y":2546049.9900000021}},{"attributes":{"ID":81859,"DIS_CODE":0,"TOWNNAME":"永康區","LI":"尚頂里","LIN":"12鄰","STREET":"正南一街","SECT":" ","MAREA":" ","LANE":"９２巷","ALLEY":"３７弄","HOUSE_NO":"１１號","E_COORD97":171066.42000000001,"N_COORD97":2547435.46,"ADDRESS":"正南一街９２巷３７弄１１號","OBJECTID":81859},"geometry":{"x":171066.41999999993,"y":2547435.4600000009}},{"attributes":{"ID":81860,"DIS_CODE":0,"TOWNNAME":"永康區","LI":"東橋里","LIN":"12鄰","STREET":"中山南路","SECT":" ","MAREA":" ","LANE":"２３１巷","ALLEY":"９弄","HOUSE_NO":"１３號","E_COORD97":171597.73999999999,"N_COORD97":2546209.6800000002,"ADDRESS":"中山南路２３１巷９弄１３號","OBJECTID":81860},"geometry":{"x":171597.74000000115,"y":2546209.6800000034}},{"attributes":{"ID":81861,"DIS_CODE":0,"TOWNNAME":"永康區","LI":"東橋里","LIN":"12鄰","STREET":"中山南路","SECT":" ","MAREA":" ","LANE":"２３１巷","ALLEY":"９弄","HOUSE_NO":"９號","E_COORD97":171603.57999999999,"N_COORD97":2546214.1800000002,"ADDRESS":"中山南路２３１巷９弄９號","OBJECTID":81861},"geometry":{"x":171603.58000000101,"y":2546214.1800000016}},{"attributes":{"ID":81862,"DIS_CODE":0,"TOWNNAME":"永康區","LI":"東橋里","LIN":"12鄰","STREET":"中山南路","SECT":" ","MAREA":" ","LANE":"２３１巷","ALLEY":"９弄","HOUSE_NO":"７號","E_COORD97":171607.35000000001,"N_COORD97":2546217.1800000002,"ADDRESS":"中山南路２３１巷９弄７號","OBJECTID":81862},"geometry":{"x":171607.34999999963,"y":2546217.1800000016}},{"attributes":{"ID":81863,"DIS_CODE":0,"TOWNNAME":"鹽水區","LI":"孫厝里","LIN":"17鄰","STREET":" ","SECT":" ","MAREA":"羊稠厝","LANE":" ","ALLEY":" ","HOUSE_NO":"４９號","E_COORD97":169460.23999999999,"N_COORD97":2575850.1299999999,"ADDRESS":"羊稠厝４９號","OBJECTID":81863},"geometry":{"x":169460.24000000115,"y":2575850.129999999}},{"attributes":{"ID":81864,"DIS_CODE":0,"TOWNNAME":"新營區","LI":"興安里","LIN":"7鄰","STREET":"廠前街","SECT":" ","MAREA":" ","LANE":" ","ALLEY":" ","HOUSE_NO":"２號","E_COORD97":180106.59,"N_COORD97":2577816.9300000002,"ADDRESS":"廠前街２號","OBJECTID":81864},"geometry":{"x":180106.59000000078,"y":2577816.9300000016}},{"attributes":{"ID":81865,"DIS_CODE":0,"TOWNNAME":"新營區","LI":"護鎮里","LIN":"7鄰","STREET":"建國路","SECT":" ","MAREA":" ","LANE":" ","ALLEY":" ","HOUSE_NO":"３０８號","E_COORD97":179169.10000000001,"N_COORD97":2581031.8999999999,"ADDRESS":"建國路３０８號","OBJECTID":81865},"geometry":{"x":179169.09999999963,"y":2581031.9000000022}},{"attributes":{"ID":81866,"DIS_CODE":0,"TOWNNAME":"新營區","LI":"民權里","LIN":"7鄰","STREET":"文化街","SECT":" ","MAREA":" ","LANE":" ","ALLEY":" ","HOUSE_NO":"１２號","E_COORD97":179826.60000000001,"N_COORD97":2578061.8900000001,"ADDRESS":"文化街１２號","OBJECTID":81866},"geometry":{"x":179826.60000000056,"y":2578061.8900000043}},{"attributes":{"ID":81867,"DIS_CODE":0,"TOWNNAME":"北區","LI":"元寶里","LIN":"10鄰","STREET":"北園街","SECT":" ","MAREA":" ","LANE":" ","ALLEY":" ","HOUSE_NO":"６之５號","E_COORD97":170387.19,"N_COORD97":2545631.5899999999,"ADDRESS":"北園街６之５號","OBJECTID":81867},"geometry":{"x":170387.19000000041,"y":2545631.5900000017}},{"attributes":{"ID":81868,"DIS_CODE":0,"TOWNNAME":"後壁區","LI":"後部里","LIN":"1鄰","STREET":" ","SECT":" ","MAREA":"後部","LANE":" ","ALLEY":" ","HOUSE_NO":"４號之６","E_COORD97":182195.39000000001,"N_COORD97":2586802.21,"ADDRESS":"後部４號之６","OBJECTID":81868},"geometry":{"x":182195.38999999966,"y":2586802.2100000009}},{"attributes":{"ID":81869,"DIS_CODE":0,"TOWNNAME":"永康區","LI":"東橋里","LIN":"12鄰","STREET":"中山南路","SECT":" ","MAREA":" ","LANE":"２３１巷","ALLEY":"９弄","HOUSE_NO":"５號","E_COORD97":171611.17999999999,"N_COORD97":2546220.1800000002,"ADDRESS":"中山南路２３１巷９弄５號","OBJECTID":81869},"geometry":{"x":171611.18000000063,"y":2546220.1800000016}},{"attributes":{"ID":81870,"DIS_CODE":0,"TOWNNAME":"永康區","LI":"東橋里","LIN":"12鄰","STREET":"中山南路","SECT":" ","MAREA":" ","LANE":"２３１巷","ALLEY":"９弄","HOUSE_NO":"１號","E_COORD97":171618.62,"N_COORD97":2546223.6800000002,"ADDRESS":"中山南路２３１巷９弄１號","OBJECTID":81870},"geometry":{"x":171618.62000000104,"y":2546223.6800000016}},{"attributes":{"ID":81871,"DIS_CODE":0,"TOWNNAME":"安南區","LI":"國安里","LIN":"12鄰","STREET":"郡安路","SECT":"六段","MAREA":" ","LANE":"１２０巷","ALLEY":"２弄","HOUSE_NO":"１號","E_COORD97":166434.10999999999,"N_COORD97":2547468.6000000001,"ADDRESS":"郡安路六段１２０巷２弄１號","OBJECTID":81871},"geometry":{"x":166434.11000000034,"y":2547468.6000000015}},{"attributes":{"ID":81872,"DIS_CODE":0,"TOWNNAME":"安南區","LI":"國安里","LIN":"12鄰","STREET":"郡安路","SECT":"六段","MAREA":" ","LANE":"１２０巷","ALLEY":"２弄","HOUSE_NO":"３號","E_COORD97":166423.60000000001,"N_COORD97":2547466.6400000001,"ADDRESS":"郡安路六段１２０巷２弄３號","OBJECTID":81872},"geometry":{"x":166423.59999999963,"y":2547466.6400000025}},{"attributes":{"ID":81873,"DIS_CODE":0,"TOWNNAME":"安南區","LI":"國安里","LIN":"12鄰","STREET":"郡安路","SECT":"六段","MAREA":" ","LANE":"１２０巷","ALLEY":"２弄","HOUSE_NO":"５號","E_COORD97":166415.44,"N_COORD97":2547464.3599999999,"ADDRESS":"郡安路六段１２０巷２弄５號","OBJECTID":81873},"geometry":{"x":166415.43999999948,"y":2547464.3599999994}},{"attributes":{"ID":81874,"DIS_CODE":0,"TOWNNAME":"安南區","LI":"國安里","LIN":"12鄰","STREET":"郡安路","SECT":"六段","MAREA":" ","LANE":"１２０巷","ALLEY":"２弄","HOUSE_NO":"７號","E_COORD97":166404.67999999999,"N_COORD97":2547463.73,"ADDRESS":"郡安路六段１２０巷２弄７號","OBJECTID":81874},"geometry":{"x":166404.68000000156,"y":2547463.7300000004}},{"attributes":{"ID":81875,"DIS_CODE":0,"TOWNNAME":"安南區","LI":"國安里","LIN":"12鄰","STREET":"郡安路","SECT":"六段","MAREA":" ","LANE":"１２０巷","ALLEY":"８弄","HOUSE_NO":"２號","E_COORD97":166438.14000000001,"N_COORD97":2547451.6600000001,"ADDRESS":"郡安路六段１２０巷８弄２號","OBJECTID":81875},"geometry":{"x":166438.13999999966,"y":2547451.660000002}},{"attributes":{"ID":81876,"DIS_CODE":0,"TOWNNAME":"安南區","LI":"國安里","LIN":"12鄰","STREET":"郡安路","SECT":"六段","MAREA":" ","LANE":"１２０巷","ALLEY":"８弄","HOUSE_NO":"６號","E_COORD97":166427.92000000001,"N_COORD97":2547450.48,"ADDRESS":"郡安路六段１２０巷８弄６號","OBJECTID":81876},"geometry":{"x":166427.91999999993,"y":2547450.4800000023}},{"attributes":{"ID":81877,"DIS_CODE":0,"TOWNNAME":"安南區","LI":"國安里","LIN":"12鄰","STREET":"郡安路","SECT":"六段","MAREA":" ","LANE":"１２０巷","ALLEY":"８弄","HOUSE_NO":"８號","E_COORD97":166417.72,"N_COORD97":2547453.5800000001,"ADDRESS":"郡安路六段１２０巷８弄８號","OBJECTID":81877},"geometry":{"x":166417.71999999974,"y":2547453.5800000001}},{"attributes":{"ID":81878,"DIS_CODE":0,"TOWNNAME":"安南區","LI":"國安里","LIN":"12鄰","STREET":"郡安路","SECT":"六段","MAREA":" ","LANE":"１２０巷","ALLEY":"８弄","HOUSE_NO":"１０號","E_COORD97":166407.75,"N_COORD97":2547450.6000000001,"ADDRESS":"郡安路六段１２０巷８弄１０號","OBJECTID":81878},"geometry":{"x":166407.75,"y":2547450.5999999978}},{"attributes":{"ID":81879,"DIS_CODE":0,"TOWNNAME":"安平區","LI":"國平里","LIN":"7鄰","STREET":"華平路","SECT":" ","MAREA":" ","LANE":" ","ALLEY":" ","HOUSE_NO":"１１６號","E_COORD97":165363.39000000001,"N_COORD97":2542998.02,"ADDRESS":"華平路１１６號","OBJECTID":81879},"geometry":{"x":165363.38999999966,"y":2542998.0200000014}},{"attributes":{"ID":81880,"DIS_CODE":0,"TOWNNAME":"後壁區","LI":"後部里","LIN":"1鄰","STREET":" ","SECT":" ","MAREA":"後部","LANE":" ","ALLEY":" ","HOUSE_NO":"６號之１","E_COORD97":182131.89000000001,"N_COORD97":2586768.9900000002,"ADDRESS":"後部６號之１","OBJECTID":81880},"geometry":{"x":182131.8900000006,"y":2586768.9900000002}},{"attributes":{"ID":81881,"DIS_CODE":0,"TOWNNAME":"後壁區","LI":"後部里","LIN":"1鄰","STREET":" ","SECT":" ","MAREA":"後部","LANE":" ","ALLEY":" ","HOUSE_NO":"９號","E_COORD97":182167.88,"N_COORD97":2586798.29,"ADDRESS":"後部９號","OBJECTID":81881},"geometry":{"x":182167.88000000082,"y":2586798.290000001}},{"attributes":{"ID":81882,"DIS_CODE":0,"TOWNNAME":"安平區","LI":"建平里","LIN":"7鄰","STREET":"建平十街","SECT":" ","MAREA":" ","LANE":" ","ALLEY":" ","HOUSE_NO":"４１號","E_COORD97":166354.66,"N_COORD97":2543824.3799999999,"ADDRESS":"建平十街４１號","OBJECTID":81882},"geometry":{"x":166354.66000000108,"y":2543824.3800000008}},{"attributes":{"ID":81883,"DIS_CODE":0,"TOWNNAME":"後壁區","LI":"頂安里","LIN":"1鄰","STREET":" ","SECT":" ","MAREA":"頂寮","LANE":" ","ALLEY":" ","HOUSE_NO":"１３之１７號","E_COORD97":184002.87,"N_COORD97":2581887.1400000001,"ADDRESS":"頂寮１３之１７號","OBJECTID":81883},"geometry":{"x":184002.87000000011,"y":2581887.1400000006}},{"attributes":{"ID":81884,"DIS_CODE":0,"TOWNNAME":"後壁區","LI":"頂安里","LIN":"1鄰","STREET":" ","SECT":" ","MAREA":"頂寮","LANE":" ","ALLEY":" ","HOUSE_NO":"１３之１８號","E_COORD97":183980.39999999999,"N_COORD97":2581891.5699999998,"ADDRESS":"頂寮１３之１８號","OBJECTID":81884},"geometry":{"x":183980.4000000013,"y":2581891.5700000022}},{"attributes":{"ID":81885,"DIS_CODE":0,"TOWNNAME":"佳里區","LI":"海澄里","LIN":"1鄰","STREET":" ","SECT":" ","MAREA":"萊竿寮","LANE":" ","ALLEY":" ","HOUSE_NO":"１號之１００","E_COORD97":165673.14000000001,"N_COORD97":2564417.1400000001,"ADDRESS":"萊竿寮１號之１００","OBJECTID":81885},"geometry":{"x":165673.1400000006,"y":2564417.1400000043}},{"attributes":{"ID":81886,"DIS_CODE":0,"TOWNNAME":"佳里區","LI":"海澄里","LIN":"1鄰","STREET":" ","SECT":" ","MAREA":"萊竿寮","LANE":" ","ALLEY":" ","HOUSE_NO":"１號之１０１","E_COORD97":165680.47,"N_COORD97":2564416.3999999999,"ADDRESS":"萊竿寮１號之１０１","OBJECTID":81886},"geometry":{"x":165680.46999999974,"y":2564416.4000000022}},{"attributes":{"ID":81887,"DIS_CODE":0,"TOWNNAME":"佳里區","LI":"海澄里","LIN":"1鄰","STREET":" ","SECT":" ","MAREA":"萊竿寮","LANE":" ","ALLEY":" ","HOUSE_NO":"１號之１０２","E_COORD97":165687.57999999999,"N_COORD97":2564415.75,"ADDRESS":"萊竿寮１號之１０２","OBJECTID":81887},"geometry":{"x":165687.58000000101,"y":2564415.7500000037}},{"attributes":{"ID":81888,"DIS_CODE":0,"TOWNNAME":"佳里區","LI":"海澄里","LIN":"1鄰","STREET":" ","SECT":" ","MAREA":"萊竿寮","LANE":" ","ALLEY":" ","HOUSE_NO":"１號之１０３","E_COORD97":165694.45000000001,"N_COORD97":2564414.9199999999,"ADDRESS":"萊竿寮１號之１０３","OBJECTID":81888},"geometry":{"x":165694.45000000019,"y":2564414.9200000018}},{"attributes":{"ID":81889,"DIS_CODE":0,"TOWNNAME":"佳里區","LI":"海澄里","LIN":"1鄰","STREET":" ","SECT":" ","MAREA":"萊竿寮","LANE":" ","ALLEY":" ","HOUSE_NO":"１號之１０４","E_COORD97":165701.41,"N_COORD97":2564414.1000000001,"ADDRESS":"萊竿寮１號之１０４","OBJECTID":81889},"geometry":{"x":165701.41000000015,"y":2564414.1000000015}},{"attributes":{"ID":81890,"DIS_CODE":0,"TOWNNAME":"佳里區","LI":"海澄里","LIN":"1鄰","STREET":" ","SECT":" ","MAREA":"萊竿寮","LANE":" ","ALLEY":" ","HOUSE_NO":"１號之１０５","E_COORD97":165708.29000000001,"N_COORD97":2564413.1000000001,"ADDRESS":"萊竿寮１號之１０５","OBJECTID":81890},"geometry":{"x":165708.29000000097,"y":2564413.1000000034}},{"attributes":{"ID":81891,"DIS_CODE":0,"TOWNNAME":"佳里區","LI":"海澄里","LIN":"1鄰","STREET":" ","SECT":" ","MAREA":"萊竿寮","LANE":" ","ALLEY":" ","HOUSE_NO":"１號之１０６","E_COORD97":165715.56,"N_COORD97":2564412.6699999999,"ADDRESS":"萊竿寮１號之１０６","OBJECTID":81891},"geometry":{"x":165715.56000000145,"y":2564412.6700000037}},{"attributes":{"ID":81892,"DIS_CODE":0,"TOWNNAME":"佳里區","LI":"海澄里","LIN":"1鄰","STREET":" ","SECT":" ","MAREA":"萊竿寮","LANE":" ","ALLEY":" ","HOUSE_NO":"１號之１０７","E_COORD97":165722.35999999999,"N_COORD97":2564411.9700000002,"ADDRESS":"萊竿寮１號之１０７","OBJECTID":81892},"geometry":{"x":165722.36000000034,"y":2564411.9700000025}},{"attributes":{"ID":81893,"DIS_CODE":0,"TOWNNAME":"安平區","LI":"建平里","LIN":"7鄰","STREET":"建平十街","SECT":" ","MAREA":" ","LANE":" ","ALLEY":" ","HOUSE_NO":"３９號","E_COORD97":166362.95999999999,"N_COORD97":2543824.1400000001,"ADDRESS":"建平十街３９號","OBJECTID":81893},"geometry":{"x":166362.96000000089,"y":2543824.1400000043}},{"attributes":{"ID":81894,"DIS_CODE":0,"TOWNNAME":"安平區","LI":"建平里","LIN":"7鄰","STREET":"建平十街","SECT":" ","MAREA":" ","LANE":" ","ALLEY":" ","HOUSE_NO":"３５號","E_COORD97":166371.03,"N_COORD97":2543823.98,"ADDRESS":"建平十街３５號","OBJECTID":81894},"geometry":{"x":166371.03000000119,"y":2543823.9800000004}},{"attributes":{"ID":81895,"DIS_CODE":0,"TOWNNAME":"安平區","LI":"建平里","LIN":"7鄰","STREET":"建平十街","SECT":" ","MAREA":" ","LANE":" ","ALLEY":" ","HOUSE_NO":"３３號","E_COORD97":166378.92999999999,"N_COORD97":2543823.27,"ADDRESS":"建平十街３３號","OBJECTID":81895},"geometry":{"x":166378.9299999997,"y":2543823.2700000014}},{"attributes":{"ID":81896,"DIS_CODE":0,"TOWNNAME":"安平區","LI":"建平里","LIN":"7鄰","STREET":"建平十街","SECT":" ","MAREA":" ","LANE":" ","ALLEY":" ","HOUSE_NO":"３１號","E_COORD97":166386.26999999999,"N_COORD97":2543822.6299999999,"ADDRESS":"建平十街３１號","OBJECTID":81896},"geometry":{"x":166386.26999999955,"y":2543822.6300000008}},{"attributes":{"ID":81897,"DIS_CODE":0,"TOWNNAME":"安平區","LI":"建平里","LIN":"7鄰","STREET":"府前路","SECT":"二段","MAREA":" ","LANE":" ","ALLEY":" ","HOUSE_NO":"６１６號","E_COORD97":166371.06,"N_COORD97":2543779.52,"ADDRESS":"府前路二段６１６號","OBJECTID":81897},"geometry":{"x":166371.05999999959,"y":2543779.5200000033}},{"attributes":{"ID":81898,"DIS_CODE":0,"TOWNNAME":"安南區","LI":"國安里","LIN":"12鄰","STREET":"郡安路","SECT":"六段","MAREA":" ","LANE":"１２０巷","ALLEY":"８弄","HOUSE_NO":"１２號","E_COORD97":166400.45000000001,"N_COORD97":2547449.8900000001,"ADDRESS":"郡安路六段１２０巷８弄１２號","OBJECTID":81898},"geometry":{"x":166400.45000000112,"y":2547449.8900000043}},{"attributes":{"ID":81899,"DIS_CODE":0,"TOWNNAME":"玉井區","LI":"豐里里","LIN":"7鄰","STREET":" ","SECT":" ","MAREA":"豐里","LANE":" ","ALLEY":" ","HOUSE_NO":"７１號之２","E_COORD97":192903.84,"N_COORD97":2557999.29,"ADDRESS":"豐里７１號之２","OBJECTID":81899},"geometry":{"x":192903.83999999985,"y":2557999.2899999991}},{"attributes":{"ID":81900,"DIS_CODE":0,"TOWNNAME":"佳里區","LI":"海澄里","LIN":"1鄰","STREET":" ","SECT":" ","MAREA":"萊竿寮","LANE":" ","ALLEY":" ","HOUSE_NO":"１號之１０８","E_COORD97":165729.19,"N_COORD97":2564411.6299999999,"ADDRESS":"萊竿寮１號之１０８","OBJECTID":81900},"geometry":{"x":165729.19000000134,"y":2564411.629999999}},{"attributes":{"ID":81901,"DIS_CODE":0,"TOWNNAME":"佳里區","LI":"海澄里","LIN":"1鄰","STREET":" ","SECT":" ","MAREA":"萊竿寮","LANE":" ","ALLEY":" ","HOUSE_NO":"１號之１０９","E_COORD97":165736.29000000001,"N_COORD97":2564410.5800000001,"ADDRESS":"萊竿寮１號之１０９","OBJECTID":81901},"geometry":{"x":165736.28999999911,"y":2564410.5800000019}},{"attributes":{"ID":81902,"DIS_CODE":0,"TOWNNAME":"佳里區","LI":"海澄里","LIN":"1鄰","STREET":" ","SECT":" ","MAREA":"萊竿寮","LANE":" ","ALLEY":" ","HOUSE_NO":"１號之１１０","E_COORD97":165743.54999999999,"N_COORD97":2564409.9199999999,"ADDRESS":"萊竿寮１號之１１０","OBJECTID":81902},"geometry":{"x":165743.55000000075,"y":2564409.9199999999}},{"attributes":{"ID":81903,"DIS_CODE":0,"TOWNNAME":"佳里區","LI":"海澄里","LIN":"1鄰","STREET":" ","SECT":" ","MAREA":"萊竿寮","LANE":" ","ALLEY":" ","HOUSE_NO":"１號之１１１","E_COORD97":165750.42000000001,"N_COORD97":2564409.6299999999,"ADDRESS":"萊竿寮１號之１１１","OBJECTID":81903},"geometry":{"x":165750.41999999993,"y":2564409.6300000008}},{"attributes":{"ID":81904,"DIS_CODE":0,"TOWNNAME":"佳里區","LI":"海澄里","LIN":"1鄰","STREET":" ","SECT":" ","MAREA":"萊竿寮","LANE":" ","ALLEY":" ","HOUSE_NO":"１號之１１２","E_COORD97":165757.41,"N_COORD97":2564408.5600000001,"ADDRESS":"萊竿寮１號之１１２","OBJECTID":81904},"geometry":{"x":165757.41000000015,"y":2564408.5600000024}},{"attributes":{"ID":81905,"DIS_CODE":0,"TOWNNAME":"佳里區","LI":"海澄里","LIN":"1鄰","STREET":" ","SECT":" ","MAREA":"萊竿寮","LANE":" ","ALLEY":" ","HOUSE_NO":"１號之１１３","E_COORD97":165764.42000000001,"N_COORD97":2564408.04,"ADDRESS":"萊竿寮１號之１１３","OBJECTID":81905},"geometry":{"x":165764.42000000086,"y":2564408.0399999991}},{"attributes":{"ID":81906,"DIS_CODE":0,"TOWNNAME":"佳里區","LI":"海澄里","LIN":"1鄰","STREET":" ","SECT":" ","MAREA":"萊竿寮","LANE":" ","ALLEY":" ","HOUSE_NO":"１號之１１４","E_COORD97":165771.17999999999,"N_COORD97":2564407.0899999999,"ADDRESS":"萊竿寮１號之１１４","OBJECTID":81906},"geometry":{"x":165771.18000000063,"y":2564407.0900000017}},{"attributes":{"ID":81907,"DIS_CODE":0,"TOWNNAME":"安南區","LI":"國安里","LIN":"12鄰","STREET":"郡安路","SECT":"六段","MAREA":" ","LANE":"１２０巷","ALLEY":"８弄","HOUSE_NO":"１號","E_COORD97":166438.89000000001,"N_COORD97":2547431.2799999998,"ADDRESS":"郡安路六段１２０巷８弄１號","OBJECTID":81907},"geometry":{"x":166438.89000000153,"y":2547431.2799999993}},{"attributes":{"ID":81908,"DIS_CODE":0,"TOWNNAME":"安南區","LI":"國安里","LIN":"12鄰","STREET":"郡安路","SECT":"六段","MAREA":" ","LANE":"１２０巷","ALLEY":"８弄","HOUSE_NO":"３號","E_COORD97":166430.35000000001,"N_COORD97":2547428.73,"ADDRESS":"郡安路六段１２０巷８弄３號","OBJECTID":81908},"geometry":{"x":166430.34999999963,"y":2547428.7300000023}},{"attributes":{"ID":81909,"DIS_CODE":0,"TOWNNAME":"安南區","LI":"國安里","LIN":"12鄰","STREET":"郡安路","SECT":"六段","MAREA":" ","LANE":"１２０巷","ALLEY":"８弄","HOUSE_NO":"５號","E_COORD97":166421.19,"N_COORD97":2547431.98,"ADDRESS":"郡安路六段１２０巷８弄５號","OBJECTID":81909},"geometry":{"x":166421.19000000134,"y":2547431.9799999986}},{"attributes":{"ID":81910,"DIS_CODE":0,"TOWNNAME":"安南區","LI":"國安里","LIN":"12鄰","STREET":"郡安路","SECT":"六段","MAREA":" ","LANE":"１２０巷","ALLEY":"８弄","HOUSE_NO":"７號","E_COORD97":166411.88,"N_COORD97":2547429.1400000001,"ADDRESS":"郡安路六段１２０巷８弄７號","OBJECTID":81910},"geometry":{"x":166411.87999999896,"y":2547429.1400000025}},{"attributes":{"ID":81911,"DIS_CODE":0,"TOWNNAME":"佳里區","LI":"海澄里","LIN":"1鄰","STREET":" ","SECT":" ","MAREA":"萊竿寮","LANE":" ","ALLEY":" ","HOUSE_NO":"１號之１１５","E_COORD97":165778.29999999999,"N_COORD97":2564406.2799999998,"ADDRESS":"萊竿寮１號之１１５","OBJECTID":81911},"geometry":{"x":165778.29999999981,"y":2564406.2800000012}},{"attributes":{"ID":81912,"DIS_CODE":0,"TOWNNAME":"安南區","LI":"安順里","LIN":"12鄰","STREET":"安和路","SECT":"四段","MAREA":" ","LANE":"３６巷","ALLEY":"２００弄","HOUSE_NO":"５６號","E_COORD97":170339.82999999999,"N_COORD97":2549989.1899999999,"ADDRESS":"安和路四段３６巷２００弄５６號","OBJECTID":81912},"geometry":{"x":170339.83000000007,"y":2549989.1899999995}},{"attributes":{"ID":81913,"DIS_CODE":0,"TOWNNAME":"佳里區","LI":"海澄里","LIN":"1鄰","STREET":" ","SECT":" ","MAREA":"萊竿寮","LANE":" ","ALLEY":" ","HOUSE_NO":"１號之１１６","E_COORD97":165784.73000000001,"N_COORD97":2564405.5499999998,"ADDRESS":"萊竿寮１號之１１６","OBJECTID":81913},"geometry":{"x":165784.73000000231,"y":2564405.5500000026}},{"attributes":{"ID":81914,"DIS_CODE":0,"TOWNNAME":"佳里區","LI":"海澄里","LIN":"1鄰","STREET":" ","SECT":" ","MAREA":"萊竿寮","LANE":" ","ALLEY":" ","HOUSE_NO":"１號之１１７","E_COORD97":165601.95999999999,"N_COORD97":2564375.4500000002,"ADDRESS":"萊竿寮１號之１１７","OBJECTID":81914},"geometry":{"x":165601.96000000089,"y":2564375.4499999993}},{"attributes":{"ID":81915,"DIS_CODE":0,"TOWNNAME":"佳里區","LI":"海澄里","LIN":"1鄰","STREET":" ","SECT":" ","MAREA":"萊竿寮","LANE":" ","ALLEY":" ","HOUSE_NO":"１號之１１８","E_COORD97":165602.66,"N_COORD97":2564386.71,"ADDRESS":"萊竿寮１號之１１８","OBJECTID":81915},"geometry":{"x":165602.66000000015,"y":2564386.7100000028}},{"attributes":{"ID":81916,"DIS_CODE":0,"TOWNNAME":"佳里區","LI":"海澄里","LIN":"1鄰","STREET":" ","SECT":" ","MAREA":"萊竿寮","LANE":" ","ALLEY":" ","HOUSE_NO":"１號之１１９","E_COORD97":165603.29000000001,"N_COORD97":2564396.98,"ADDRESS":"萊竿寮１號之１１９","OBJECTID":81916},"geometry":{"x":165603.29000000097,"y":2564396.9800000004}},{"attributes":{"ID":81917,"DIS_CODE":0,"TOWNNAME":"佳里區","LI":"海澄里","LIN":"1鄰","STREET":" ","SECT":" ","MAREA":"萊竿寮","LANE":" ","ALLEY":" ","HOUSE_NO":"１號之１１","E_COORD97":165539.48000000001,"N_COORD97":2564270.0499999998,"ADDRESS":"萊竿寮１號之１１","OBJECTID":81917},"geometry":{"x":165539.48000000138,"y":2564270.0500000026}},{"attributes":{"ID":81918,"DIS_CODE":0,"TOWNNAME":"安南區","LI":"安順里","LIN":"12鄰","STREET":"安和路","SECT":"四段","MAREA":" ","LANE":"３６巷","ALLEY":"２００弄","HOUSE_NO":"５８號","E_COORD97":170362.13,"N_COORD97":2549978.29,"ADDRESS":"安和路四段３６巷２００弄５８號","OBJECTID":81918},"geometry":{"x":170362.13000000082,"y":2549978.2900000028}},{"attributes":{"ID":81919,"DIS_CODE":0,"TOWNNAME":"安南區","LI":"\u25A0南里","LIN":"12鄰","STREET":"安昌街","SECT":" ","MAREA":" ","LANE":"２７５巷","ALLEY":"３７弄","HOUSE_NO":"１１號","E_COORD97":170050.62,"N_COORD97":2552640.3300000001,"ADDRESS":"安昌街２７５巷３７弄１１號","OBJECTID":81919},"geometry":{"x":170050.62000000104,"y":2552640.3300000038}},{"attributes":{"ID":81920,"DIS_CODE":0,"TOWNNAME":"安南區","LI":"\u25A0南里","LIN":"12鄰","STREET":"安昌街","SECT":" ","MAREA":" ","LANE":"２７５巷","ALLEY":"３７弄","HOUSE_NO":"９號","E_COORD97":170052.60999999999,"N_COORD97":2552645.3700000001,"ADDRESS":"安昌街２７５巷３７弄９號","OBJECTID":81920},"geometry":{"x":170052.61000000127,"y":2552645.3700000029}},{"attributes":{"ID":81921,"DIS_CODE":0,"TOWNNAME":"歸仁區","LI":"六甲里","LIN":"7鄰","STREET":"中正十五街","SECT":" ","MAREA":" ","LANE":" ","ALLEY":" ","HOUSE_NO":"１４９號","E_COORD97":176478.35999999999,"N_COORD97":2539526.25,"ADDRESS":"中正十五街１４９號","OBJECTID":81921},"geometry":{"x":176478.36000000034,"y":2539526.25}},{"attributes":{"ID":81922,"DIS_CODE":0,"TOWNNAME":"佳里區","LI":"海澄里","LIN":"1鄰","STREET":" ","SECT":" ","MAREA":"萊竿寮","LANE":" ","ALLEY":" ","HOUSE_NO":"１號之１２０","E_COORD97":165603.81,"N_COORD97":2564406.6400000001,"ADDRESS":"萊竿寮１號之１２０","OBJECTID":81922},"geometry":{"x":165603.81000000052,"y":2564406.6399999987}},{"attributes":{"ID":81923,"DIS_CODE":0,"TOWNNAME":"佳里區","LI":"海澄里","LIN":"1鄰","STREET":" ","SECT":" ","MAREA":"萊竿寮","LANE":" ","ALLEY":" ","HOUSE_NO":"１號之１２１","E_COORD97":165605.89000000001,"N_COORD97":2564424.2200000002,"ADDRESS":"萊竿寮１號之１２１","OBJECTID":81923},"geometry":{"x":165605.88999999966,"y":2564424.2200000025}},{"attributes":{"ID":81924,"DIS_CODE":0,"TOWNNAME":"佳里區","LI":"海澄里","LIN":"1鄰","STREET":" ","SECT":" ","MAREA":"萊竿寮","LANE":" ","ALLEY":" ","HOUSE_NO":"１號之１２２","E_COORD97":165606.34,"N_COORD97":2564434.7599999998,"ADDRESS":"萊竿寮１號之１２２","OBJECTID":81924},"geometry":{"x":165606.33999999985,"y":2564434.7599999998}},{"attributes":{"ID":81925,"DIS_CODE":0,"TOWNNAME":"佳里區","LI":"海澄里","LIN":"1鄰","STREET":" ","SECT":" ","MAREA":"萊竿寮","LANE":" ","ALLEY":" ","HOUSE_NO":"１號之１２","E_COORD97":165949.59,"N_COORD97":2564200.4900000002,"ADDRESS":"萊竿寮１號之１２","OBJECTID":81925},"geometry":{"x":165949.59000000171,"y":2564200.4899999984}},{"attributes":{"ID":81926,"DIS_CODE":0,"TOWNNAME":"佳里區","LI":"海澄里","LIN":"1鄰","STREET":" ","SECT":" ","MAREA":"萊竿寮","LANE":" ","ALLEY":" ","HOUSE_NO":"１號之１４","E_COORD97":165558.73999999999,"N_COORD97":2564210.0800000001,"ADDRESS":"萊竿寮１號之１４","OBJECTID":81926},"geometry":{"x":165558.74000000022,"y":2564210.0800000038}},{"attributes":{"ID":81927,"DIS_CODE":0,"TOWNNAME":"佳里區","LI":"海澄里","LIN":"1鄰","STREET":" ","SECT":" ","MAREA":"萊竿寮","LANE":" ","ALLEY":" ","HOUSE_NO":"１號之１５","E_COORD97":165587.76000000001,"N_COORD97":2564141.3399999999,"ADDRESS":"萊竿寮１號之１５","OBJECTID":81927},"geometry":{"x":165587.76000000071,"y":2564141.3400000017}},{"attributes":{"ID":81928,"DIS_CODE":0,"TOWNNAME":"佳里區","LI":"海澄里","LIN":"1鄰","STREET":" ","SECT":" ","MAREA":"萊竿寮","LANE":" ","ALLEY":" ","HOUSE_NO":"１號之１６","E_COORD97":165615,"N_COORD97":2564265.46,"ADDRESS":"萊竿寮１號之１６","OBJECTID":81928},"geometry":{"x":165615.00000000093,"y":2564265.4600000009}},{"attributes":{"ID":81929,"DIS_CODE":0,"TOWNNAME":"佳里區","LI":"海澄里","LIN":"1鄰","STREET":" ","SECT":" ","MAREA":"萊竿寮","LANE":" ","ALLEY":" ","HOUSE_NO":"１號之１７","E_COORD97":165977.64000000001,"N_COORD97":2564177.7799999998,"ADDRESS":"萊竿寮１號之１７","OBJECTID":81929},"geometry":{"x":165977.63999999873,"y":2564177.7800000012}},{"attributes":{"ID":81930,"DIS_CODE":0,"TOWNNAME":"佳里區","LI":"海澄里","LIN":"1鄰","STREET":" ","SECT":" ","MAREA":"萊竿寮","LANE":" ","ALLEY":" ","HOUSE_NO":"１號之１９","E_COORD97":165882.84,"N_COORD97":2564292.1800000002,"ADDRESS":"萊竿寮１號之１９","OBJECTID":81930},"geometry":{"x":165882.83999999985,"y":2564292.1799999997}},{"attributes":{"ID":81931,"DIS_CODE":0,"TOWNNAME":"安南區","LI":"安順里","LIN":"12鄰","STREET":"安和路","SECT":"三段","MAREA":" ","LANE":"１９０巷","ALLEY":"７１弄","HOUSE_NO":"３號","E_COORD97":170062.56,"N_COORD97":2549852.4399999999,"ADDRESS":"安和路三段１９０巷７１弄３號","OBJECTID":81931},"geometry":{"x":170062.56000000052,"y":2549852.4400000013}},{"attributes":{"ID":81932,"DIS_CODE":0,"TOWNNAME":"安南區","LI":"安順里","LIN":"12鄰","STREET":"安和路","SECT":"四段","MAREA":" ","LANE":"３６巷","ALLEY":"２００弄","HOUSE_NO":"５２號","E_COORD97":170377.28,"N_COORD97":2550021.3300000001,"ADDRESS":"安和路四段３６巷２００弄５２號","OBJECTID":81932},"geometry":{"x":170377.28000000119,"y":2550021.3300000019}},{"attributes":{"ID":81933,"DIS_CODE":0,"TOWNNAME":"麻豆區","LI":"安業里","LIN":"7鄰","STREET":" ","SECT":" ","MAREA":"安業","LANE":" ","ALLEY":" ","HOUSE_NO":"１４７號","E_COORD97":172553.75,"N_COORD97":2562249.4399999999,"ADDRESS":"安業１４７號","OBJECTID":81933},"geometry":{"x":172553.75000000093,"y":2562249.4399999995}},{"attributes":{"ID":81934,"DIS_CODE":0,"TOWNNAME":"佳里區","LI":"海澄里","LIN":"1鄰","STREET":" ","SECT":" ","MAREA":"萊竿寮","LANE":" ","ALLEY":" ","HOUSE_NO":"１號之２０","E_COORD97":165558.19,"N_COORD97":2564203.0699999998,"ADDRESS":"萊竿寮１號之２０","OBJECTID":81934},"geometry":{"x":165558.19000000134,"y":2564203.0700000003}},{"attributes":{"ID":81935,"DIS_CODE":0,"TOWNNAME":"佳里區","LI":"海澄里","LIN":"1鄰","STREET":" ","SECT":" ","MAREA":"萊竿寮","LANE":" ","ALLEY":" ","HOUSE_NO":"１號之２３","E_COORD97":165579.72,"N_COORD97":2564229.9399999999,"ADDRESS":"萊竿寮１號之２３","OBJECTID":81935},"geometry":{"x":165579.72000000067,"y":2564229.9399999995}},{"attributes":{"ID":81936,"DIS_CODE":0,"TOWNNAME":"佳里區","LI":"海澄里","LIN":"1鄰","STREET":" ","SECT":" ","MAREA":"萊竿寮","LANE":" ","ALLEY":" ","HOUSE_NO":"１號之２４","E_COORD97":165820.29000000001,"N_COORD97":2564139.3700000001,"ADDRESS":"萊竿寮１號之２４","OBJECTID":81936},"geometry":{"x":165820.29000000097,"y":2564139.3700000029}},{"attributes":{"ID":81937,"DIS_CODE":0,"TOWNNAME":"佳里區","LI":"海澄里","LIN":"1鄰","STREET":" ","SECT":" ","MAREA":"萊竿寮","LANE":" ","ALLEY":" ","HOUSE_NO":"１號之２５","E_COORD97":165728.87,"N_COORD97":2564114.1400000001,"ADDRESS":"萊竿寮１號之２５","OBJECTID":81937},"geometry":{"x":165728.87000000011,"y":2564114.1400000006}},{"attributes":{"ID":81938,"DIS_CODE":0,"TOWNNAME":"佳里區","LI":"海澄里","LIN":"1鄰","STREET":" ","SECT":" ","MAREA":"萊竿寮","LANE":" ","ALLEY":" ","HOUSE_NO":"１號之２６","E_COORD97":165926.73000000001,"N_COORD97":2564445.0600000001,"ADDRESS":"萊竿寮１號之２６","OBJECTID":81938},"geometry":{"x":165926.73000000045,"y":2564445.0600000024}},{"attributes":{"ID":81939,"DIS_CODE":0,"TOWNNAME":"佳里區","LI":"海澄里","LIN":"1鄰","STREET":" ","SECT":" ","MAREA":"萊竿寮","LANE":" ","ALLEY":" ","HOUSE_NO":"１號之２７","E_COORD97":165905.73000000001,"N_COORD97":2564476.0499999998,"ADDRESS":"萊竿寮１號之２７","OBJECTID":81939},"geometry":{"x":165905.73000000138,"y":2564476.0500000026}},{"attributes":{"ID":81940,"DIS_CODE":0,"TOWNNAME":"佳里區","LI":"海澄里","LIN":"1鄰","STREET":" ","SECT":" ","MAREA":"萊竿寮","LANE":" ","ALLEY":" ","HOUSE_NO":"１號之２８","E_COORD97":165796.39000000001,"N_COORD97":2563998.8500000001,"ADDRESS":"萊竿寮１號之２８","OBJECTID":81940},"geometry":{"x":165796.39000000153,"y":2563998.8500000015}},{"attributes":{"ID":81941,"DIS_CODE":0,"TOWNNAME":"佳里區","LI":"海澄里","LIN":"1鄰","STREET":" ","SECT":" ","MAREA":"萊竿寮","LANE":" ","ALLEY":" ","HOUSE_NO":"１號之２９","E_COORD97":165486.51000000001,"N_COORD97":2564180.3300000001,"ADDRESS":"萊竿寮１號之２９","OBJECTID":81941},"geometry":{"x":165486.50999999978,"y":2564180.3300000001}},{"attributes":{"ID":81942,"DIS_CODE":0,"TOWNNAME":"佳里區","LI":"海澄里","LIN":"1鄰","STREET":" ","SECT":" ","MAREA":"萊竿寮","LANE":" ","ALLEY":" ","HOUSE_NO":"１號之３０","E_COORD97":165942.78,"N_COORD97":2564514.3500000001,"ADDRESS":"萊竿寮１號之３０","OBJECTID":81942},"geometry":{"x":165942.78000000026,"y":2564514.3500000015}},{"attributes":{"ID":81943,"DIS_CODE":0,"TOWNNAME":"佳里區","LI":"海澄里","LIN":"1鄰","STREET":" ","SECT":" ","MAREA":"萊竿寮","LANE":" ","ALLEY":" ","HOUSE_NO":"１號之３１","E_COORD97":165655.89000000001,"N_COORD97":2564180.8399999999,"ADDRESS":"萊竿寮１號之３１","OBJECTID":81943},"geometry":{"x":165655.8900000006,"y":2564180.8400000036}},{"attributes":{"ID":81944,"DIS_CODE":0,"TOWNNAME":"佳里區","LI":"海澄里","LIN":"1鄰","STREET":" ","SECT":" ","MAREA":"萊竿寮","LANE":" ","ALLEY":" ","HOUSE_NO":"１號之３２","E_COORD97":165803.26000000001,"N_COORD97":2564033.8199999998,"ADDRESS":"萊竿寮１號之３２","OBJECTID":81944},"geometry":{"x":165803.26000000071,"y":2564033.8200000022}},{"attributes":{"ID":81945,"DIS_CODE":0,"TOWNNAME":"佳里區","LI":"海澄里","LIN":"1鄰","STREET":" ","SECT":" ","MAREA":"萊竿寮","LANE":" ","ALLEY":" ","HOUSE_NO":"１號之４５","E_COORD97":165619.70000000001,"N_COORD97":2564373.3199999998,"ADDRESS":"萊竿寮１號之４５","OBJECTID":81945},"geometry":{"x":165619.70000000019,"y":2564373.3200000003}},{"attributes":{"ID":81946,"DIS_CODE":0,"TOWNNAME":"佳里區","LI":"海澄里","LIN":"1鄰","STREET":" ","SECT":" ","MAREA":"萊竿寮","LANE":" ","ALLEY":" ","HOUSE_NO":"１號之４６","E_COORD97":165625.76999999999,"N_COORD97":2564372.8300000001,"ADDRESS":"萊竿寮１號之４６","OBJECTID":81946},"geometry":{"x":165625.77000000142,"y":2564372.8300000019}},{"attributes":{"ID":81947,"DIS_CODE":0,"TOWNNAME":"佳里區","LI":"海澄里","LIN":"1鄰","STREET":" ","SECT":" ","MAREA":"萊竿寮","LANE":" ","ALLEY":" ","HOUSE_NO":"１號之４７","E_COORD97":165633.26000000001,"N_COORD97":2564372.8100000001,"ADDRESS":"萊竿寮１號之４７","OBJECTID":81947},"geometry":{"x":165633.26000000071,"y":2564372.8100000024}},{"attributes":{"ID":81948,"DIS_CODE":0,"TOWNNAME":"佳里區","LI":"海澄里","LIN":"1鄰","STREET":" ","SECT":" ","MAREA":"萊竿寮","LANE":" ","ALLEY":" ","HOUSE_NO":"１號之４８","E_COORD97":165640.56,"N_COORD97":2564371.7200000002,"ADDRESS":"萊竿寮１號之４８","OBJECTID":81948},"geometry":{"x":165640.55999999959,"y":2564371.7200000007}},{"attributes":{"ID":81949,"DIS_CODE":0,"TOWNNAME":"佳里區","LI":"海澄里","LIN":"1鄰","STREET":" ","SECT":" ","MAREA":"萊竿寮","LANE":" ","ALLEY":" ","HOUSE_NO":"１號之４９","E_COORD97":165647.12,"N_COORD97":2564370.5800000001,"ADDRESS":"萊竿寮１號之４９","OBJECTID":81949},"geometry":{"x":165647.12000000011,"y":2564370.5800000019}},{"attributes":{"ID":81950,"DIS_CODE":0,"TOWNNAME":"佳里區","LI":"海澄里","LIN":"1鄰","STREET":" ","SECT":" ","MAREA":"萊竿寮","LANE":" ","ALLEY":" ","HOUSE_NO":"１號之４","E_COORD97":165531.01000000001,"N_COORD97":2564381.8199999998,"ADDRESS":"萊竿寮１號之４","OBJECTID":81950},"geometry":{"x":165531.00999999978,"y":2564381.820000004}},{"attributes":{"ID":81951,"DIS_CODE":0,"TOWNNAME":"佳里區","LI":"海澄里","LIN":"1鄰","STREET":" ","SECT":" ","MAREA":"萊竿寮","LANE":" ","ALLEY":" ","HOUSE_NO":"１號之５０","E_COORD97":165653.76000000001,"N_COORD97":2564370.46,"ADDRESS":"萊竿寮１號之５０","OBJECTID":81951},"geometry":{"x":165653.76000000071,"y":2564370.4600000009}},{"attributes":{"ID":81952,"DIS_CODE":0,"TOWNNAME":"佳里區","LI":"海澄里","LIN":"1鄰","STREET":" ","SECT":" ","MAREA":"萊竿寮","LANE":" ","ALLEY":" ","HOUSE_NO":"１號之５１","E_COORD97":165661.54000000001,"N_COORD97":2564369.54,"ADDRESS":"萊竿寮１號之５１","OBJECTID":81952},"geometry":{"x":165661.54000000004,"y":2564369.540000001}},{"attributes":{"ID":81953,"DIS_CODE":0,"TOWNNAME":"新市區","LI":"新市里","LIN":"12鄰","STREET":"中正路","SECT":" ","MAREA":" ","LANE":"３０１巷","ALLEY":"１５弄","HOUSE_NO":"４５號","E_COORD97":177497.35000000001,"N_COORD97":2553245,"ADDRESS":"中正路３０１巷１５弄４５號","OBJECTID":81953},"geometry":{"x":177497.35000000056,"y":2553245}},{"attributes":{"ID":81954,"DIS_CODE":0,"TOWNNAME":"新市區","LI":"新市里","LIN":"12鄰","STREET":"中正路","SECT":" ","MAREA":" ","LANE":"３０１巷","ALLEY":"１５弄","HOUSE_NO":"４１號","E_COORD97":177504.20000000001,"N_COORD97":2553249,"ADDRESS":"中正路３０１巷１５弄４１號","OBJECTID":81954},"geometry":{"x":177504.20000000112,"y":2553249}},{"attributes":{"ID":81955,"DIS_CODE":0,"TOWNNAME":"南區","LI":"喜南里","LIN":"12鄰","STREET":"喜樹路","SECT":" ","MAREA":" ","LANE":"２５２巷","ALLEY":"２７弄","HOUSE_NO":"１１號","E_COORD97":165583.29000000001,"N_COORD97":2537943.4199999999,"ADDRESS":"喜樹路２５２巷２７弄１１號","OBJECTID":81955},"geometry":{"x":165583.29000000004,"y":2537943.4200000018}},{"attributes":{"ID":81956,"DIS_CODE":0,"TOWNNAME":"南區","LI":"喜南里","LIN":" ","STREET":"喜樹路","SECT":" ","MAREA":" ","LANE":"２５４巷","ALLEY":"１７弄","HOUSE_NO":"１３號","E_COORD97":165609.16,"N_COORD97":2537848.0600000001,"ADDRESS":"喜樹路２５４巷１７弄１３號","OBJECTID":81956},"geometry":{"x":165609.16000000108,"y":2537848.0600000024}},{"attributes":{"ID":81957,"DIS_CODE":0,"TOWNNAME":"安平區","LI":"海頭里","LIN":"7鄰","STREET":"延平街","SECT":" ","MAREA":" ","LANE":"１０４巷","ALLEY":" ","HOUSE_NO":"１３號","E_COORD97":164150.35999999999,"N_COORD97":2544646.2400000002,"ADDRESS":"延平街１０４巷１３號","OBJECTID":81957},"geometry":{"x":164150.36000000127,"y":2544646.2400000002}},{"attributes":{"ID":81958,"DIS_CODE":0,"TOWNNAME":"安平區","LI":"育平里","LIN":"7鄰","STREET":"育平路","SECT":" ","MAREA":" ","LANE":" ","ALLEY":" ","HOUSE_NO":"２５８號","E_COORD97":164639.64000000001,"N_COORD97":2543564.77,"ADDRESS":"育平路２５８號","OBJECTID":81958},"geometry":{"x":164639.63999999966,"y":2543564.7700000014}},{"attributes":{"ID":81959,"DIS_CODE":0,"TOWNNAME":"新營區","LI":"新南里","LIN":"7鄰","STREET":"新北五街","SECT":" ","MAREA":" ","LANE":" ","ALLEY":" ","HOUSE_NO":"６６號","E_COORD97":178642.44,"N_COORD97":2578980.0800000001,"ADDRESS":"新北五街６６號","OBJECTID":81959},"geometry":{"x":178642.44000000041,"y":2578980.0800000019}},{"attributes":{"ID":81960,"DIS_CODE":0,"TOWNNAME":"歸仁區","LI":"大潭里","LIN":"7鄰","STREET":"長榮路","SECT":"一段","MAREA":" ","LANE":" ","ALLEY":" ","HOUSE_NO":"２２７號","E_COORD97":175133.97,"N_COORD97":2534563.2799999998,"ADDRESS":"長榮路一段２２７號","OBJECTID":81960},"geometry":{"x":175133.96999999974,"y":2534563.2800000012}},{"attributes":{"ID":81961,"DIS_CODE":0,"TOWNNAME":"歸仁區","LI":"文化里","LIN":"7鄰","STREET":"文化三街","SECT":" ","MAREA":" ","LANE":" ","ALLEY":" ","HOUSE_NO":"２６號","E_COORD97":177222.66,"N_COORD97":2541268.3399999999,"ADDRESS":"文化三街２６號","OBJECTID":81961},"geometry":{"x":177222.66000000108,"y":2541268.3399999999}},{"attributes":{"ID":81962,"DIS_CODE":0,"TOWNNAME":"歸仁區","LI":"武東里","LIN":"7鄰","STREET":"武東二街","SECT":" ","MAREA":" ","LANE":" ","ALLEY":" ","HOUSE_NO":"８６號","E_COORD97":175651.34,"N_COORD97":2535349.25,"ADDRESS":"武東二街８６號","OBJECTID":81962},"geometry":{"x":175651.34000000078,"y":2535349.25}},{"attributes":{"ID":81963,"DIS_CODE":0,"TOWNNAME":"歸仁區","LI":"武東里","LIN":"7鄰","STREET":"武東二街","SECT":" ","MAREA":" ","LANE":" ","ALLEY":" ","HOUSE_NO":"５９號","E_COORD97":175563.04000000001,"N_COORD97":2535338.25,"ADDRESS":"武東二街５９號","OBJECTID":81963},"geometry":{"x":175563.04000000004,"y":2535338.25}},{"attributes":{"ID":81964,"DIS_CODE":0,"TOWNNAME":"北區","LI":"興南里","LIN":"7鄰","STREET":"公園路","SECT":" ","MAREA":" ","LANE":" ","ALLEY":" ","HOUSE_NO":"３５５號","E_COORD97":169061.17000000001,"N_COORD97":2545086.54,"ADDRESS":"公園路３５５號","OBJECTID":81964},"geometry":{"x":169061.16999999993,"y":2545086.5399999991}},{"attributes":{"ID":81965,"DIS_CODE":0,"TOWNNAME":"北區","LI":"興南里","LIN":"7鄰","STREET":"公園路","SECT":" ","MAREA":" ","LANE":" ","ALLEY":" ","HOUSE_NO":"３５７號","E_COORD97":169058.45999999999,"N_COORD97":2545094.04,"ADDRESS":"公園路３５７號","OBJECTID":81965},"geometry":{"x":169058.46000000089,"y":2545094.0399999991}},{"attributes":{"ID":81966,"DIS_CODE":0,"TOWNNAME":"南區","LI":"喜南里","LIN":" ","STREET":"喜樹路","SECT":" ","MAREA":" ","LANE":"２５４巷","ALLEY":"１７弄","HOUSE_NO":"１５號","E_COORD97":165610.62,"N_COORD97":2537842.6600000001,"ADDRESS":"喜樹路２５４巷１７弄１５號","OBJECTID":81966},"geometry":{"x":165610.62000000197,"y":2537842.6600000039}},{"attributes":{"ID":81967,"DIS_CODE":0,"TOWNNAME":"新營區","LI":"嘉芳里","LIN":"7鄰","STREET":" ","SECT":" ","MAREA":"茄苳腳","LANE":" ","ALLEY":" ","HOUSE_NO":"７２之２０號","E_COORD97":176871.20000000001,"N_COORD97":2578487.1200000001,"ADDRESS":"茄苳腳７２之２０號","OBJECTID":81967},"geometry":{"x":176871.20000000205,"y":2578487.120000001}},{"attributes":{"ID":81968,"DIS_CODE":0,"TOWNNAME":"新營區","LI":"嘉芳里","LIN":"7鄰","STREET":" ","SECT":" ","MAREA":"茄苳腳","LANE":" ","ALLEY":" ","HOUSE_NO":"７２號","E_COORD97":176815.32000000001,"N_COORD97":2578493.9700000002,"ADDRESS":"茄苳腳７２號","OBJECTID":81968},"geometry":{"x":176815.32000000123,"y":2578493.9700000007}},{"attributes":{"ID":81969,"DIS_CODE":0,"TOWNNAME":"新營區","LI":"嘉芳里","LIN":"7鄰","STREET":" ","SECT":" ","MAREA":"茄苳腳","LANE":" ","ALLEY":" ","HOUSE_NO":"７０號","E_COORD97":176782.54000000001,"N_COORD97":2578484.1699999999,"ADDRESS":"茄苳腳７０號","OBJECTID":81969},"geometry":{"x":176782.54000000097,"y":2578484.1700000018}},{"attributes":{"ID":81970,"DIS_CODE":0,"TOWNNAME":"佳里區","LI":"海澄里","LIN":"1鄰","STREET":" ","SECT":" ","MAREA":"萊竿寮","LANE":" ","ALLEY":" ","HOUSE_NO":"１號之５２","E_COORD97":165668.17000000001,"N_COORD97":2564369.1600000001,"ADDRESS":"萊竿寮１號之５２","OBJECTID":81970},"geometry":{"x":165668.17000000086,"y":2564369.1600000039}},{"attributes":{"ID":81971,"DIS_CODE":0,"TOWNNAME":"南區","LI":"喜南里","LIN":" ","STREET":"喜樹路","SECT":" ","MAREA":" ","LANE":"２５２巷","ALLEY":"７弄","HOUSE_NO":"３８號","E_COORD97":165539.72,"N_COORD97":2537925.5099999998,"ADDRESS":"喜樹路２５２巷７弄３８號","OBJECTID":81971},"geometry":{"x":165539.71999999974,"y":2537925.5100000016}},{"attributes":{"ID":81972,"DIS_CODE":0,"TOWNNAME":"佳里區","LI":"海澄里","LIN":"1鄰","STREET":" ","SECT":" ","MAREA":"萊竿寮","LANE":" ","ALLEY":" ","HOUSE_NO":"１號之５３","E_COORD97":165675.12,"N_COORD97":2564368.3199999998,"ADDRESS":"萊竿寮１號之５３","OBJECTID":81972},"geometry":{"x":165675.12000000104,"y":2564368.320000004}},{"attributes":{"ID":81973,"DIS_CODE":0,"TOWNNAME":"佳里區","LI":"海澄里","LIN":"1鄰","STREET":" ","SECT":" ","MAREA":"萊竿寮","LANE":" ","ALLEY":" ","HOUSE_NO":"１號之５４","E_COORD97":165682.63,"N_COORD97":2564367.25,"ADDRESS":"萊竿寮１號之５４","OBJECTID":81973},"geometry":{"x":165682.62999999989,"y":2564367.25}},{"attributes":{"ID":81974,"DIS_CODE":0,"TOWNNAME":"佳里區","LI":"海澄里","LIN":"1鄰","STREET":" ","SECT":" ","MAREA":"萊竿寮","LANE":" ","ALLEY":" ","HOUSE_NO":"１號之５５","E_COORD97":165689.53,"N_COORD97":2564366.5899999999,"ADDRESS":"萊竿寮１號之５５","OBJECTID":81974},"geometry":{"x":165689.53000000119,"y":2564366.5900000017}},{"attributes":{"ID":81975,"DIS_CODE":0,"TOWNNAME":"佳里區","LI":"海澄里","LIN":"1鄰","STREET":" ","SECT":" ","MAREA":"萊竿寮","LANE":" ","ALLEY":" ","HOUSE_NO":"１號之５６","E_COORD97":165696.59,"N_COORD97":2564366.3599999999,"ADDRESS":"萊竿寮１號之５６","OBJECTID":81975},"geometry":{"x":165696.58999999985,"y":2564366.3599999994}},{"attributes":{"ID":81976,"DIS_CODE":0,"TOWNNAME":"佳里區","LI":"海澄里","LIN":"1鄰","STREET":" ","SECT":" ","MAREA":"萊竿寮","LANE":" ","ALLEY":" ","HOUSE_NO":"１號之５７","E_COORD97":165703.35999999999,"N_COORD97":2564365.4500000002,"ADDRESS":"萊竿寮１號之５７","OBJECTID":81976},"geometry":{"x":165703.36000000034,"y":2564365.4499999993}},{"attributes":{"ID":81977,"DIS_CODE":0,"TOWNNAME":"佳里區","LI":"海澄里","LIN":"1鄰","STREET":" ","SECT":" ","MAREA":"萊竿寮","LANE":" ","ALLEY":" ","HOUSE_NO":"１號之５８","E_COORD97":165710.42000000001,"N_COORD97":2564364.3100000001,"ADDRESS":"萊竿寮１號之５８","OBJECTID":81977},"geometry":{"x":165710.42000000086,"y":2564364.3100000005}},{"attributes":{"ID":81978,"DIS_CODE":0,"TOWNNAME":"南區","LI":"喜南里","LIN":" ","STREET":"喜樹路","SECT":" ","MAREA":" ","LANE":"２２２巷","ALLEY":"３７弄","HOUSE_NO":"１８號","E_COORD97":165557.78,"N_COORD97":2537969.6899999999,"ADDRESS":"喜樹路２２２巷３７弄１８號","OBJECTID":81978},"geometry":{"x":165557.78000000119,"y":2537969.6899999995}},{"attributes":{"ID":81979,"DIS_CODE":0,"TOWNNAME":"永康區","LI":"尚頂里","LIN":"12鄰","STREET":"正南一街","SECT":" ","MAREA":" ","LANE":"９２巷","ALLEY":"３７弄","HOUSE_NO":"１２號","E_COORD97":171086.85999999999,"N_COORD97":2547434.8199999998,"ADDRESS":"正南一街９２巷３７弄１２號","OBJECTID":81979},"geometry":{"x":171086.86000000127,"y":2547434.8200000003}},{"attributes":{"ID":81980,"DIS_CODE":0,"TOWNNAME":"永康區","LI":"尚頂里","LIN":"12鄰","STREET":"正南一街","SECT":" ","MAREA":" ","LANE":"９２巷","ALLEY":"３７弄","HOUSE_NO":"１６號","E_COORD97":171082.51999999999,"N_COORD97":2547443.0800000001,"ADDRESS":"正南一街９２巷３７弄１６號","OBJECTID":81980},"geometry":{"x":171082.51999999862,"y":2547443.0800000001}},{"attributes":{"ID":81981,"DIS_CODE":0,"TOWNNAME":"永康區","LI":"甲頂里","LIN":"12鄰","STREET":"中正南路","SECT":" ","MAREA":" ","LANE":"５２巷","ALLEY":"７２弄","HOUSE_NO":"４號","E_COORD97":170069.92999999999,"N_COORD97":2546751.4700000002,"ADDRESS":"中正南路５２巷７２弄４號","OBJECTID":81981},"geometry":{"x":170069.93000000063,"y":2546751.4700000025}},{"attributes":{"ID":81982,"DIS_CODE":0,"TOWNNAME":"永康區","LI":"正強里","LIN":"12鄰","STREET":"正強街","SECT":" ","MAREA":" ","LANE":"１２２巷","ALLEY":"１８弄","HOUSE_NO":"８號","E_COORD97":173377.26000000001,"N_COORD97":2547384.75,"ADDRESS":"正強街１２２巷１８弄８號","OBJECTID":81982},"geometry":{"x":173377.26000000071,"y":2547384.75}},{"attributes":{"ID":81983,"DIS_CODE":0,"TOWNNAME":"佳里區","LI":"海澄里","LIN":"1鄰","STREET":" ","SECT":" ","MAREA":"萊竿寮","LANE":" ","ALLEY":" ","HOUSE_NO":"１號之８８","E_COORD97":165753.95000000001,"N_COORD97":2564382.02,"ADDRESS":"萊竿寮１號之８８","OBJECTID":81983},"geometry":{"x":165753.95000000019,"y":2564382.0199999996}},{"attributes":{"ID":81984,"DIS_CODE":0,"TOWNNAME":"永康區","LI":"甲頂里","LIN":"12鄰","STREET":"中正南路","SECT":" ","MAREA":" ","LANE":"５２巷","ALLEY":"７２弄","HOUSE_NO":"１４號","E_COORD97":170098.89000000001,"N_COORD97":2546753.2200000002,"ADDRESS":"中正南路５２巷７２弄１４號","OBJECTID":81984},"geometry":{"x":170098.8900000006,"y":2546753.2200000025}},{"attributes":{"ID":81985,"DIS_CODE":0,"TOWNNAME":"永康區","LI":"甲頂里","LIN":"12鄰","STREET":"中正南路","SECT":" ","MAREA":" ","LANE":"５２巷","ALLEY":"７２弄","HOUSE_NO":"３號","E_COORD97":170066.09,"N_COORD97":2546770.21,"ADDRESS":"中正南路５２巷７２弄３號","OBJECTID":81985},"geometry":{"x":170066.09000000078,"y":2546770.2100000046}},{"attributes":{"ID":81986,"DIS_CODE":0,"TOWNNAME":"永康區","LI":"埔園里","LIN":"20鄰","STREET":"四維街","SECT":" ","MAREA":" ","LANE":"１０２巷","ALLEY":"２３弄","HOUSE_NO":"１１號","E_COORD97":173427.81,"N_COORD97":2548271.75,"ADDRESS":"四維街１０２巷２３弄１１號","OBJECTID":81986},"geometry":{"x":173427.80999999959,"y":2548271.7500000019}},{"attributes":{"ID":81987,"DIS_CODE":0,"TOWNNAME":"新營區","LI":"興安里","LIN":"7鄰","STREET":"廠前街","SECT":" ","MAREA":" ","LANE":" ","ALLEY":" ","HOUSE_NO":"２之１號","E_COORD97":180100.88,"N_COORD97":2577812.5899999999,"ADDRESS":"廠前街２之１號","OBJECTID":81987},"geometry":{"x":180100.88000000082,"y":2577812.5900000017}},{"attributes":{"ID":81988,"DIS_CODE":0,"TOWNNAME":"新營區","LI":"延平里","LIN":"7鄰","STREET":"復興路","SECT":" ","MAREA":" ","LANE":" ","ALLEY":" ","HOUSE_NO":"１之１５號","E_COORD97":179701.75,"N_COORD97":2577955.1200000001,"ADDRESS":"復興路１之１５號","OBJECTID":81988},"geometry":{"x":179701.75000000093,"y":2577955.120000001}},{"attributes":{"ID":81989,"DIS_CODE":0,"TOWNNAME":"北區","LI":"安民里","LIN":"7鄰","STREET":"海成街","SECT":" ","MAREA":" ","LANE":" ","ALLEY":" ","HOUSE_NO":"７４號","E_COORD97":167816.92999999999,"N_COORD97":2544701.6899999999,"ADDRESS":"海成街７４號","OBJECTID":81989},"geometry":{"x":167816.93000000063,"y":2544701.6900000013}},{"attributes":{"ID":81990,"DIS_CODE":0,"TOWNNAME":"北區","LI":"安民里","LIN":"7鄰","STREET":"海成街","SECT":" ","MAREA":" ","LANE":" ","ALLEY":" ","HOUSE_NO":"７６號","E_COORD97":167814.42999999999,"N_COORD97":2544703.77,"ADDRESS":"海成街７６號","OBJECTID":81990},"geometry":{"x":167814.4299999997,"y":2544703.7700000014}},{"attributes":{"ID":81991,"DIS_CODE":0,"TOWNNAME":"北區","LI":"安民里","LIN":"7鄰","STREET":"海成街","SECT":" ","MAREA":" ","LANE":" ","ALLEY":" ","HOUSE_NO":"７０號","E_COORD97":167825.26999999999,"N_COORD97":2544699.8199999998,"ADDRESS":"海成街７０號","OBJECTID":81991},"geometry":{"x":167825.27000000048,"y":2544699.8200000003}},{"attributes":{"ID":81992,"DIS_CODE":0,"TOWNNAME":"北區","LI":"安民里","LIN":"7鄰","STREET":"海成街","SECT":" ","MAREA":" ","LANE":" ","ALLEY":" ","HOUSE_NO":"７６號之１","E_COORD97":167790.12,"N_COORD97":2544711.2599999998,"ADDRESS":"海成街７６號之１","OBJECTID":81992},"geometry":{"x":167790.12000000011,"y":2544711.2600000016}},{"attributes":{"ID":81993,"DIS_CODE":0,"TOWNNAME":"北區","LI":"安民里","LIN":"7鄰","STREET":"海成街","SECT":" ","MAREA":" ","LANE":" ","ALLEY":" ","HOUSE_NO":"７６號之２","E_COORD97":167785.73999999999,"N_COORD97":2544714.5899999999,"ADDRESS":"海成街７６號之２","OBJECTID":81993},"geometry":{"x":167785.74000000022,"y":2544714.5899999999}},{"attributes":{"ID":81994,"DIS_CODE":0,"TOWNNAME":"北區","LI":"大仁里","LIN":"7鄰","STREET":"北門路","SECT":"二段","MAREA":" ","LANE":" ","ALLEY":" ","HOUSE_NO":"２３９號","E_COORD97":169522.42000000001,"N_COORD97":2545314.9300000002,"ADDRESS":"北門路二段２３９號","OBJECTID":81994},"geometry":{"x":169522.42000000179,"y":2545314.9299999997}},{"attributes":{"ID":81995,"DIS_CODE":0,"TOWNNAME":"北區","LI":"大仁里","LIN":"7鄰","STREET":"北門路","SECT":"二段","MAREA":" ","LANE":" ","ALLEY":" ","HOUSE_NO":"２４１號","E_COORD97":169523.26999999999,"N_COORD97":2545318.71,"ADDRESS":"北門路二段２４１號","OBJECTID":81995},"geometry":{"x":169523.27000000048,"y":2545318.709999999}},{"attributes":{"ID":81996,"DIS_CODE":0,"TOWNNAME":"北區","LI":"大仁里","LIN":"7鄰","STREET":"北門路","SECT":"二段","MAREA":" ","LANE":" ","ALLEY":" ","HOUSE_NO":"２４３號","E_COORD97":169524.17000000001,"N_COORD97":2545322.4300000002,"ADDRESS":"北門路二段２４３號","OBJECTID":81996},"geometry":{"x":169524.17000000179,"y":2545322.4299999997}},{"attributes":{"ID":81997,"DIS_CODE":0,"TOWNNAME":"北區","LI":"大仁里","LIN":"7鄰","STREET":"北門路","SECT":"二段","MAREA":" ","LANE":" ","ALLEY":" ","HOUSE_NO":"２４５號","E_COORD97":169525.67000000001,"N_COORD97":2545326.27,"ADDRESS":"北門路二段２４５號","OBJECTID":81997},"geometry":{"x":169525.66999999993,"y":2545326.2699999996}},{"attributes":{"ID":81998,"DIS_CODE":0,"TOWNNAME":"永康區","LI":"烏竹里","LIN":"13鄰","STREET":"竹園二街","SECT":" ","MAREA":" ","LANE":"１６０巷","ALLEY":"２２弄","HOUSE_NO":"４３號","E_COORD97":174563.64999999999,"N_COORD97":2549167.6600000001,"ADDRESS":"竹園二街１６０巷２２弄４３號","OBJECTID":81998},"geometry":{"x":174563.6500000013,"y":2549167.660000002}},{"attributes":{"ID":81999,"DIS_CODE":0,"TOWNNAME":"永康區","LI":"東橋里","LIN":"7鄰","STREET":"大橋一街","SECT":" ","MAREA":" ","LANE":"３２４巷","ALLEY":"８３弄","HOUSE_NO":"８號","E_COORD97":171491.51999999999,"N_COORD97":2546470.23,"ADDRESS":"大橋一街３２４巷８３弄８號","OBJECTID":81999},"geometry":{"x":171491.52000000048,"y":2546470.2300000004}},{"attributes":{"ID":82000,"DIS_CODE":0,"TOWNNAME":"永康區","LI":"建國里","LIN":"31鄰","STREET":"復興路","SECT":" ","MAREA":" ","LANE":"７１巷","ALLEY":"１１２弄","HOUSE_NO":"４３號","E_COORD97":172727.09,"N_COORD97":2543655.79,"ADDRESS":"復興路７１巷１１２弄４３號","OBJECTID":82000},"geometry":{"x":172727.09000000078,"y":2543655.790000001}}]}