{"displayFieldName":"TOWNNAME","fieldAliases":{"ID":"ID","DIS_CODE":"DIS_CODE","TOWNNAME":"TOWNNAME","LI":"LI","LIN":"LIN","STREET":"STREET","SECT":"SECT","MAREA":"MAREA","LANE":"LANE","ALLEY":"ALLEY","HOUSE_NO":"HOUSE_NO","E_COORD97":"E_COORD97","N_COORD97":"N_COORD97","ADDRESS":"ADDRESS","OBJECTID":"OBJECTID"},"geometryType":"esriGeometryPoint","spatialReference":{"wkid":102443,"latestWkid":3826},"fields":[{"name":"ID","type":"esriFieldTypeDouble","alias":"ID"},{"name":"DIS_CODE","type":"esriFieldTypeInteger","alias":"DIS_CODE"},{"name":"TOWNNAME","type":"esriFieldTypeString","alias":"TOWNNAME","length":8},{"name":"LI","type":"esriFieldTypeString","alias":"LI","length":8},{"name":"LIN","type":"esriFieldTypeString","alias":"LIN","length":12},{"name":"STREET","type":"esriFieldTypeString","alias":"STREET","length":20},{"name":"SECT","type":"esriFieldTypeString","alias":"SECT","length":8},{"name":"MAREA","type":"esriFieldTypeString","alias":"MAREA","length":12},{"name":"LANE","type":"esriFieldTypeString","alias":"LANE","length":10},{"name":"ALLEY","type":"esriFieldTypeString","alias":"ALLEY","length":10},{"name":"HOUSE_NO","type":"esriFieldTypeString","alias":"HOUSE_NO","length":20},{"name":"E_COORD97","type":"esriFieldTypeDouble","alias":"E_COORD97"},{"name":"N_COORD97","type":"esriFieldTypeDouble","alias":"N_COORD97"},{"name":"ADDRESS","type":"esriFieldTypeString","alias":"ADDRESS","length":50},{"name":"OBJECTID","type":"esriFieldTypeOID","alias":"OBJECTID"}],"features":[{"attributes":{"ID":635028,"DIS_CODE":0,"TOWNNAME":"東區","LI":"大福里","LIN":"24鄰","STREET":"中華東路","SECT":"三段","MAREA":" ","LANE":" ","ALLEY":" ","HOUSE_NO":"５３０號七樓","E_COORD97":169692.76999999999,"N_COORD97":2541514.5499999998,"ADDRESS":"中華東路三段５３０號七樓","OBJECTID":635001},"geometry":{"x":169692.77000000048,"y":2541514.5500000007}},{"attributes":{"ID":635029,"DIS_CODE":0,"TOWNNAME":"東區","LI":"大福里","LIN":"24鄰","STREET":"中華東路","SECT":"三段","MAREA":" ","LANE":" ","ALLEY":" ","HOUSE_NO":"５３０號二樓","E_COORD97":169692.76999999999,"N_COORD97":2541514.5499999998,"ADDRESS":"中華東路三段５３０號二樓","OBJECTID":635002},"geometry":{"x":169692.77000000048,"y":2541514.5500000007}},{"attributes":{"ID":635030,"DIS_CODE":0,"TOWNNAME":"東區","LI":"大福里","LIN":"24鄰","STREET":"中華東路","SECT":"三段","MAREA":" ","LANE":" ","ALLEY":" ","HOUSE_NO":"５３０號三樓","E_COORD97":169692.76999999999,"N_COORD97":2541514.5499999998,"ADDRESS":"中華東路三段５３０號三樓","OBJECTID":635003},"geometry":{"x":169692.77000000048,"y":2541514.5500000007}},{"attributes":{"ID":635031,"DIS_CODE":0,"TOWNNAME":"東區","LI":"大福里","LIN":"24鄰","STREET":"中華東路","SECT":"三段","MAREA":" ","LANE":" ","ALLEY":" ","HOUSE_NO":"５３０號五樓","E_COORD97":169692.76999999999,"N_COORD97":2541514.5499999998,"ADDRESS":"中華東路三段５３０號五樓","OBJECTID":635004},"geometry":{"x":169692.77000000048,"y":2541514.5500000007}},{"attributes":{"ID":635032,"DIS_CODE":0,"TOWNNAME":"東區","LI":"大福里","LIN":"24鄰","STREET":"中華東路","SECT":"三段","MAREA":" ","LANE":" ","ALLEY":" ","HOUSE_NO":"５３０號六樓","E_COORD97":169692.76999999999,"N_COORD97":2541514.5499999998,"ADDRESS":"中華東路三段５３０號六樓","OBJECTID":635005},"geometry":{"x":169692.77000000048,"y":2541514.5500000007}},{"attributes":{"ID":635033,"DIS_CODE":0,"TOWNNAME":"東區","LI":"大福里","LIN":"24鄰","STREET":"中華東路","SECT":"三段","MAREA":" ","LANE":" ","ALLEY":" ","HOUSE_NO":"５３０號四樓","E_COORD97":169692.76999999999,"N_COORD97":2541514.5499999998,"ADDRESS":"中華東路三段５３０號四樓","OBJECTID":635006},"geometry":{"x":169692.77000000048,"y":2541514.5500000007}},{"attributes":{"ID":635034,"DIS_CODE":0,"TOWNNAME":"南區","LI":"新生里","LIN":"1鄰","STREET":"大林路","SECT":" ","MAREA":" ","LANE":" ","ALLEY":" ","HOUSE_NO":"２號七樓之２","E_COORD97":169367.64999999999,"N_COORD97":2541886.5499999998,"ADDRESS":"大林路２號七樓之２","OBJECTID":635007},"geometry":{"x":169367.6500000013,"y":2541886.5500000026}},{"attributes":{"ID":635035,"DIS_CODE":0,"TOWNNAME":"東區","LI":"東聖里","LIN":"22鄰","STREET":"富農街","SECT":"二段","MAREA":" ","LANE":" ","ALLEY":" ","HOUSE_NO":"１３號三樓","E_COORD97":171635.41,"N_COORD97":2542864.5800000001,"ADDRESS":"富農街二段１３號三樓","OBJECTID":635008},"geometry":{"x":171635.41000000108,"y":2542864.5800000019}},{"attributes":{"ID":635036,"DIS_CODE":0,"TOWNNAME":"麻豆區","LI":"東角里","LIN":"8鄰","STREET":"興中路","SECT":" ","MAREA":" ","LANE":" ","ALLEY":" ","HOUSE_NO":"１８２號四樓","E_COORD97":173633.29000000001,"N_COORD97":2564804.3500000001,"ADDRESS":"興中路１８２號四樓","OBJECTID":635009},"geometry":{"x":173633.29000000097,"y":2564804.3499999978}},{"attributes":{"ID":635037,"DIS_CODE":0,"TOWNNAME":"下營區","LI":"下營里","LIN":"20鄰","STREET":"中山路","SECT":"二段","MAREA":" ","LANE":" ","ALLEY":" ","HOUSE_NO":"２７號三樓","E_COORD97":174403.70000000001,"N_COORD97":2570397.2000000002,"ADDRESS":"中山路二段２７號三樓","OBJECTID":635010},"geometry":{"x":174403.70000000112,"y":2570397.2000000011}},{"attributes":{"ID":635038,"DIS_CODE":0,"TOWNNAME":"下營區","LI":"下營里","LIN":"20鄰","STREET":"中山路","SECT":"二段","MAREA":" ","LANE":" ","ALLEY":" ","HOUSE_NO":"２７號五樓","E_COORD97":174403.70000000001,"N_COORD97":2570397.2000000002,"ADDRESS":"中山路二段２７號五樓","OBJECTID":635011},"geometry":{"x":174403.70000000112,"y":2570397.2000000011}},{"attributes":{"ID":635039,"DIS_CODE":0,"TOWNNAME":"下營區","LI":"下營里","LIN":"20鄰","STREET":"中山路","SECT":"二段","MAREA":" ","LANE":" ","ALLEY":" ","HOUSE_NO":"２７號四樓","E_COORD97":174403.70000000001,"N_COORD97":2570397.2000000002,"ADDRESS":"中山路二段２７號四樓","OBJECTID":635012},"geometry":{"x":174403.70000000112,"y":2570397.2000000011}},{"attributes":{"ID":635040,"DIS_CODE":0,"TOWNNAME":"佳里區","LI":"安西里","LIN":"54鄰","STREET":"佳安中街","SECT":" ","MAREA":" ","LANE":" ","ALLEY":" ","HOUSE_NO":"９９號","E_COORD97":163719.35999999999,"N_COORD97":2562280.8100000001,"ADDRESS":"佳安中街９９號","OBJECTID":635013},"geometry":{"x":163719.36000000127,"y":2562280.8100000024}},{"attributes":{"ID":635041,"DIS_CODE":0,"TOWNNAME":"永康區","LI":"東灣里","LIN":"17鄰","STREET":"大灣三街","SECT":" ","MAREA":" ","LANE":" ","ALLEY":" ","HOUSE_NO":"４３號四樓之７","E_COORD97":174978.89999999999,"N_COORD97":2544922.3799999999,"ADDRESS":"大灣三街４３號四樓之７","OBJECTID":635014},"geometry":{"x":174978.9000000013,"y":2544922.3800000027}},{"attributes":{"ID":635042,"DIS_CODE":0,"TOWNNAME":"永康區","LI":"西灣里","LIN":"25鄰","STREET":"國光七街","SECT":" ","MAREA":" ","LANE":" ","ALLEY":" ","HOUSE_NO":"２６號七樓","E_COORD97":174292.94,"N_COORD97":2545540.1400000001,"ADDRESS":"國光七街２６號七樓","OBJECTID":635015},"geometry":{"x":174292.94000000041,"y":2545540.1400000025}},{"attributes":{"ID":635043,"DIS_CODE":0,"TOWNNAME":"永康區","LI":"西灣里","LIN":"37鄰","STREET":"國光七街","SECT":" ","MAREA":" ","LANE":" ","ALLEY":" ","HOUSE_NO":"４２號三樓","E_COORD97":174194.45000000001,"N_COORD97":2545538.25,"ADDRESS":"國光七街４２號三樓","OBJECTID":635016},"geometry":{"x":174194.45000000205,"y":2545538.2500000037}},{"attributes":{"ID":635044,"DIS_CODE":0,"TOWNNAME":"永康區","LI":"西灣里","LIN":"25鄰","STREET":"國光七街","SECT":" ","MAREA":" ","LANE":" ","ALLEY":" ","HOUSE_NO":"２６號六樓","E_COORD97":174292.94,"N_COORD97":2545540.1400000001,"ADDRESS":"國光七街２６號六樓","OBJECTID":635017},"geometry":{"x":174292.94000000041,"y":2545540.1400000025}},{"attributes":{"ID":635045,"DIS_CODE":0,"TOWNNAME":"永康區","LI":"西灣里","LIN":"25鄰","STREET":"國光七街","SECT":" ","MAREA":" ","LANE":" ","ALLEY":" ","HOUSE_NO":"２６號四樓","E_COORD97":174292.94,"N_COORD97":2545540.1400000001,"ADDRESS":"國光七街２６號四樓","OBJECTID":635018},"geometry":{"x":174292.94000000041,"y":2545540.1400000025}},{"attributes":{"ID":635046,"DIS_CODE":0,"TOWNNAME":"佳里區","LI":"安西里","LIN":"56鄰","STREET":"佳安北街","SECT":" ","MAREA":" ","LANE":" ","ALLEY":" ","HOUSE_NO":"１９號","E_COORD97":164001.5,"N_COORD97":2562421.5499999998,"ADDRESS":"佳安北街１９號","OBJECTID":635019},"geometry":{"x":164001.50000000093,"y":2562421.5500000026}},{"attributes":{"ID":635047,"DIS_CODE":0,"TOWNNAME":"永康區","LI":"西灣里","LIN":"25鄰","STREET":"國光七街","SECT":" ","MAREA":" ","LANE":" ","ALLEY":" ","HOUSE_NO":"２４號四樓","E_COORD97":174297.73999999999,"N_COORD97":2545539.8900000001,"ADDRESS":"國光七街２４號四樓","OBJECTID":635020},"geometry":{"x":174297.74000000209,"y":2545539.8900000006}},{"attributes":{"ID":635048,"DIS_CODE":0,"TOWNNAME":"永康區","LI":"西灣里","LIN":"25鄰","STREET":"國光七街","SECT":" ","MAREA":" ","LANE":" ","ALLEY":" ","HOUSE_NO":"２８號四樓","E_COORD97":174286.88,"N_COORD97":2545541.3900000001,"ADDRESS":"國光七街２８號四樓","OBJECTID":635021},"geometry":{"x":174286.88000000082,"y":2545541.3900000043}},{"attributes":{"ID":635049,"DIS_CODE":0,"TOWNNAME":"永康區","LI":"西灣里","LIN":"25鄰","STREET":"國光七街","SECT":" ","MAREA":" ","LANE":" ","ALLEY":" ","HOUSE_NO":"２４號七樓","E_COORD97":174297.73999999999,"N_COORD97":2545539.8900000001,"ADDRESS":"國光七街２４號七樓","OBJECTID":635022},"geometry":{"x":174297.74000000209,"y":2545539.8900000006}},{"attributes":{"ID":635050,"DIS_CODE":0,"TOWNNAME":"永康區","LI":"西灣里","LIN":"25鄰","STREET":"國光七街","SECT":" ","MAREA":" ","LANE":" ","ALLEY":" ","HOUSE_NO":"２６號五樓","E_COORD97":174292.94,"N_COORD97":2545540.1400000001,"ADDRESS":"國光七街２６號五樓","OBJECTID":635023},"geometry":{"x":174292.94000000041,"y":2545540.1400000025}},{"attributes":{"ID":635051,"DIS_CODE":0,"TOWNNAME":"永康區","LI":"永康里","LIN":"26鄰","STREET":"中山北路","SECT":" ","MAREA":" ","LANE":" ","ALLEY":" ","HOUSE_NO":"７０號八樓之２","E_COORD97":174075.48000000001,"N_COORD97":2547398.25,"ADDRESS":"中山北路７０號八樓之２","OBJECTID":635024},"geometry":{"x":174075.48000000045,"y":2547398.25}},{"attributes":{"ID":635052,"DIS_CODE":0,"TOWNNAME":"永康區","LI":"永康里","LIN":"26鄰","STREET":"永大路","SECT":"二段","MAREA":" ","LANE":" ","ALLEY":" ","HOUSE_NO":"１１２９號八樓之１","E_COORD97":174198.44,"N_COORD97":2547482.3599999999,"ADDRESS":"永大路二段１１２９號八樓之１","OBJECTID":635025},"geometry":{"x":174198.44000000134,"y":2547482.3599999994}},{"attributes":{"ID":635053,"DIS_CODE":0,"TOWNNAME":"永康區","LI":"永康里","LIN":"26鄰","STREET":"永大路","SECT":"二段","MAREA":" ","LANE":" ","ALLEY":" ","HOUSE_NO":"１１２９號十五樓之６","E_COORD97":174199.79000000001,"N_COORD97":2547482.3599999999,"ADDRESS":"永大路二段１１２９號十五樓之６","OBJECTID":635026},"geometry":{"x":174199.79000000004,"y":2547482.3599999994}},{"attributes":{"ID":635054,"DIS_CODE":0,"TOWNNAME":"永康區","LI":"永康里","LIN":"26鄰","STREET":"永大路","SECT":"二段","MAREA":" ","LANE":" ","ALLEY":" ","HOUSE_NO":"１１２９號八樓之３","E_COORD97":174198.54000000001,"N_COORD97":2547482.3599999999,"ADDRESS":"永大路二段１１２９號八樓之３","OBJECTID":635027},"geometry":{"x":174198.54000000004,"y":2547482.3599999994}},{"attributes":{"ID":635055,"DIS_CODE":0,"TOWNNAME":"佳里區","LI":"安西里","LIN":"56鄰","STREET":"佳安中街","SECT":" ","MAREA":" ","LANE":" ","ALLEY":" ","HOUSE_NO":"８號","E_COORD97":163951.64000000001,"N_COORD97":2562295,"ADDRESS":"佳安中街８號","OBJECTID":635028},"geometry":{"x":163951.63999999966,"y":2562295.0000000037}},{"attributes":{"ID":635056,"DIS_CODE":0,"TOWNNAME":"永康區","LI":"正強里","LIN":"41鄰","STREET":"正強街","SECT":" ","MAREA":" ","LANE":" ","ALLEY":" ","HOUSE_NO":"２９２號七樓之２","E_COORD97":173303.10999999999,"N_COORD97":2547942.04,"ADDRESS":"正強街２９２號七樓之２","OBJECTID":635029},"geometry":{"x":173303.11000000034,"y":2547942.0399999972}},{"attributes":{"ID":635057,"DIS_CODE":0,"TOWNNAME":"永康區","LI":"正強里","LIN":"41鄰","STREET":"正強街","SECT":" ","MAREA":" ","LANE":" ","ALLEY":" ","HOUSE_NO":"２９６號五樓之１","E_COORD97":173302.76000000001,"N_COORD97":2547949.29,"ADDRESS":"正強街２９６號五樓之１","OBJECTID":635030},"geometry":{"x":173302.76000000071,"y":2547949.2899999991}},{"attributes":{"ID":635058,"DIS_CODE":0,"TOWNNAME":"永康區","LI":"永康里","LIN":"26鄰","STREET":"中山北路","SECT":" ","MAREA":" ","LANE":" ","ALLEY":" ","HOUSE_NO":"７２號二樓","E_COORD97":174074.85000000001,"N_COORD97":2547388.7200000002,"ADDRESS":"中山北路７２號二樓","OBJECTID":635031},"geometry":{"x":174074.85000000056,"y":2547388.7200000007}},{"attributes":{"ID":635059,"DIS_CODE":0,"TOWNNAME":"永康區","LI":"永康里","LIN":"26鄰","STREET":"中山北路","SECT":" ","MAREA":" ","LANE":" ","ALLEY":" ","HOUSE_NO":"１１４號四樓之１","E_COORD97":174163.73999999999,"N_COORD97":2547447.25,"ADDRESS":"中山北路１１４號四樓之１","OBJECTID":635032},"geometry":{"x":174163.74000000209,"y":2547447.2500000019}},{"attributes":{"ID":635060,"DIS_CODE":0,"TOWNNAME":"永康區","LI":"永康里","LIN":"26鄰","STREET":"永大路","SECT":"二段","MAREA":" ","LANE":" ","ALLEY":" ","HOUSE_NO":"１１２９號五樓之２","E_COORD97":174198.57000000001,"N_COORD97":2547482.3599999999,"ADDRESS":"永大路二段１１２９號五樓之２","OBJECTID":635033},"geometry":{"x":174198.5700000003,"y":2547482.3599999994}},{"attributes":{"ID":635061,"DIS_CODE":0,"TOWNNAME":"永康區","LI":"正強里","LIN":"41鄰","STREET":"正強街","SECT":" ","MAREA":" ","LANE":" ","ALLEY":" ","HOUSE_NO":"２９０號十一樓之２","E_COORD97":173304.29000000001,"N_COORD97":2547926.29,"ADDRESS":"正強街２９０號十一樓之２","OBJECTID":635034},"geometry":{"x":173304.29000000097,"y":2547926.2899999991}},{"attributes":{"ID":635062,"DIS_CODE":0,"TOWNNAME":"永康區","LI":"正強里","LIN":"41鄰","STREET":"正強街","SECT":" ","MAREA":" ","LANE":" ","ALLEY":" ","HOUSE_NO":"２９０號八樓之２","E_COORD97":173303.04000000001,"N_COORD97":2547926.29,"ADDRESS":"正強街２９０號八樓之２","OBJECTID":635035},"geometry":{"x":173303.04000000004,"y":2547926.2899999991}},{"attributes":{"ID":635063,"DIS_CODE":0,"TOWNNAME":"永康區","LI":"正強里","LIN":"41鄰","STREET":"正強街","SECT":" ","MAREA":" ","LANE":" ","ALLEY":" ","HOUSE_NO":"２９０號三樓之２","E_COORD97":173303.04000000001,"N_COORD97":2547926.29,"ADDRESS":"正強街２９０號三樓之２","OBJECTID":635036},"geometry":{"x":173303.04000000004,"y":2547926.2899999991}},{"attributes":{"ID":635064,"DIS_CODE":0,"TOWNNAME":"永康區","LI":"正強里","LIN":"41鄰","STREET":"正強街","SECT":" ","MAREA":" ","LANE":" ","ALLEY":" ","HOUSE_NO":"２９０號二樓之２","E_COORD97":173303.04000000001,"N_COORD97":2547926.29,"ADDRESS":"正強街２９０號二樓之２","OBJECTID":635037},"geometry":{"x":173303.04000000004,"y":2547926.2899999991}},{"attributes":{"ID":635065,"DIS_CODE":0,"TOWNNAME":"永康區","LI":"正強里","LIN":"41鄰","STREET":"正強街","SECT":" ","MAREA":" ","LANE":" ","ALLEY":" ","HOUSE_NO":"２９８號二樓之１","E_COORD97":173292.17000000001,"N_COORD97":2547971.0499999998,"ADDRESS":"正強街２９８號二樓之１","OBJECTID":635038},"geometry":{"x":173292.16999999993,"y":2547971.0500000045}},{"attributes":{"ID":635066,"DIS_CODE":0,"TOWNNAME":"永康區","LI":"永康里","LIN":"26鄰","STREET":"中山北路","SECT":" ","MAREA":" ","LANE":" ","ALLEY":" ","HOUSE_NO":"７０號七樓之１","E_COORD97":174075.35000000001,"N_COORD97":2547398.25,"ADDRESS":"中山北路７０號七樓之１","OBJECTID":635039},"geometry":{"x":174075.34999999963,"y":2547398.25}},{"attributes":{"ID":635067,"DIS_CODE":0,"TOWNNAME":"永康區","LI":"正強里","LIN":"41鄰","STREET":"正強街","SECT":" ","MAREA":" ","LANE":" ","ALLEY":" ","HOUSE_NO":"２９０號十樓之２","E_COORD97":173303.04000000001,"N_COORD97":2547926.29,"ADDRESS":"正強街２９０號十樓之２","OBJECTID":635040},"geometry":{"x":173303.04000000004,"y":2547926.2899999991}},{"attributes":{"ID":635068,"DIS_CODE":0,"TOWNNAME":"永康區","LI":"正強里","LIN":"41鄰","STREET":"正強街","SECT":" ","MAREA":" ","LANE":" ","ALLEY":" ","HOUSE_NO":"２９０號四樓之２","E_COORD97":173303.04000000001,"N_COORD97":2547926.29,"ADDRESS":"正強街２９０號四樓之２","OBJECTID":635041},"geometry":{"x":173303.04000000004,"y":2547926.2899999991}},{"attributes":{"ID":635069,"DIS_CODE":0,"TOWNNAME":"永康區","LI":"正強里","LIN":"41鄰","STREET":"正強街","SECT":" ","MAREA":" ","LANE":" ","ALLEY":" ","HOUSE_NO":"２９８號九樓之２","E_COORD97":173292.29999999999,"N_COORD97":2547971.0499999998,"ADDRESS":"正強街２９８號九樓之２","OBJECTID":635042},"geometry":{"x":173292.30000000075,"y":2547971.0500000045}},{"attributes":{"ID":635070,"DIS_CODE":0,"TOWNNAME":"永康區","LI":"正強里","LIN":"41鄰","STREET":"正強街","SECT":" ","MAREA":" ","LANE":" ","ALLEY":" ","HOUSE_NO":"２９２號二樓之２","E_COORD97":173303.10999999999,"N_COORD97":2547942.04,"ADDRESS":"正強街２９２號二樓之２","OBJECTID":635043},"geometry":{"x":173303.11000000034,"y":2547942.0399999972}},{"attributes":{"ID":635071,"DIS_CODE":0,"TOWNNAME":"永康區","LI":"永康里","LIN":"40鄰","STREET":"永大二路","SECT":" ","MAREA":" ","LANE":" ","ALLEY":" ","HOUSE_NO":"５２號四樓之１","E_COORD97":174255.85000000001,"N_COORD97":2546565.0899999999,"ADDRESS":"永大二路５２號四樓之１","OBJECTID":635044},"geometry":{"x":174255.85000000056,"y":2546565.0899999999}},{"attributes":{"ID":635072,"DIS_CODE":0,"TOWNNAME":"永康區","LI":"永康里","LIN":"40鄰","STREET":"永大二路","SECT":" ","MAREA":" ","LANE":" ","ALLEY":" ","HOUSE_NO":"５２號四樓之２","E_COORD97":174255.98000000001,"N_COORD97":2546565.0899999999,"ADDRESS":"永大二路５２號四樓之２","OBJECTID":635045},"geometry":{"x":174255.98000000138,"y":2546565.0899999999}},{"attributes":{"ID":635073,"DIS_CODE":0,"TOWNNAME":"永康區","LI":"永康里","LIN":"40鄰","STREET":"永大二路","SECT":" ","MAREA":" ","LANE":" ","ALLEY":" ","HOUSE_NO":"５２號五樓之１","E_COORD97":174255.85000000001,"N_COORD97":2546565.0899999999,"ADDRESS":"永大二路５２號五樓之１","OBJECTID":635046},"geometry":{"x":174255.85000000056,"y":2546565.0899999999}},{"attributes":{"ID":635074,"DIS_CODE":0,"TOWNNAME":"永康區","LI":"永康里","LIN":"40鄰","STREET":"永大二路","SECT":" ","MAREA":" ","LANE":" ","ALLEY":" ","HOUSE_NO":"５２號九樓之１","E_COORD97":174255.85000000001,"N_COORD97":2546565.0899999999,"ADDRESS":"永大二路５２號九樓之１","OBJECTID":635047},"geometry":{"x":174255.85000000056,"y":2546565.0899999999}},{"attributes":{"ID":635075,"DIS_CODE":0,"TOWNNAME":"永康區","LI":"永康里","LIN":"26鄰","STREET":"永大路","SECT":"二段","MAREA":" ","LANE":" ","ALLEY":" ","HOUSE_NO":"１１２９號十七樓之５","E_COORD97":174199.84,"N_COORD97":2547482.3599999999,"ADDRESS":"永大路二段１１２９號十七樓之５","OBJECTID":635048},"geometry":{"x":174199.83999999892,"y":2547482.3599999994}},{"attributes":{"ID":635076,"DIS_CODE":0,"TOWNNAME":"永康區","LI":"永康里","LIN":"26鄰","STREET":"永大路","SECT":"二段","MAREA":" ","LANE":" ","ALLEY":" ","HOUSE_NO":"１１２９號七樓之６","E_COORD97":174198.54000000001,"N_COORD97":2547482.3599999999,"ADDRESS":"永大路二段１１２９號七樓之６","OBJECTID":635049},"geometry":{"x":174198.54000000004,"y":2547482.3599999994}},{"attributes":{"ID":635077,"DIS_CODE":0,"TOWNNAME":"永康區","LI":"永康里","LIN":"26鄰","STREET":"中山北路","SECT":" ","MAREA":" ","LANE":" ","ALLEY":" ","HOUSE_NO":"１１４號十九樓之４","E_COORD97":174165.01000000001,"N_COORD97":2547447.25,"ADDRESS":"中山北路１１４號十九樓之４","OBJECTID":635050},"geometry":{"x":174165.01000000071,"y":2547447.2500000019}},{"attributes":{"ID":635078,"DIS_CODE":0,"TOWNNAME":"永康區","LI":"永康里","LIN":"26鄰","STREET":"中山北路","SECT":" ","MAREA":" ","LANE":" ","ALLEY":" ","HOUSE_NO":"７２號七樓之１","E_COORD97":174076.98999999999,"N_COORD97":2547388.7599999998,"ADDRESS":"中山北路７２號七樓之１","OBJECTID":635051},"geometry":{"x":174076.99000000022,"y":2547388.7600000035}},{"attributes":{"ID":635079,"DIS_CODE":0,"TOWNNAME":"中西區","LI":"公正里","LIN":"14鄰","STREET":"西華南街","SECT":" ","MAREA":" ","LANE":" ","ALLEY":" ","HOUSE_NO":"３５號一樓之１","E_COORD97":168935.84,"N_COORD97":2543824.9199999999,"ADDRESS":"西華南街３５號一樓之１","OBJECTID":635052},"geometry":{"x":168935.83999999985,"y":2543824.9200000037}},{"attributes":{"ID":635080,"DIS_CODE":0,"TOWNNAME":"永康區","LI":"永康里","LIN":"26鄰","STREET":"中山北路","SECT":" ","MAREA":" ","LANE":" ","ALLEY":" ","HOUSE_NO":"１１４號十五樓之２","E_COORD97":174165.12,"N_COORD97":2547447.25,"ADDRESS":"中山北路１１４號十五樓之２","OBJECTID":635053},"geometry":{"x":174165.12000000104,"y":2547447.2500000019}},{"attributes":{"ID":635081,"DIS_CODE":0,"TOWNNAME":"永康區","LI":"正強里","LIN":"41鄰","STREET":"正強街","SECT":" ","MAREA":" ","LANE":" ","ALLEY":" ","HOUSE_NO":"２９０號十四樓之２","E_COORD97":173304.29000000001,"N_COORD97":2547926.29,"ADDRESS":"正強街２９０號十四樓之２","OBJECTID":635054},"geometry":{"x":173304.29000000097,"y":2547926.2899999991}},{"attributes":{"ID":635082,"DIS_CODE":0,"TOWNNAME":"永康區","LI":"正強里","LIN":"41鄰","STREET":"正強街","SECT":" ","MAREA":" ","LANE":" ","ALLEY":" ","HOUSE_NO":"２９２號十二樓之１","E_COORD97":173304.23000000001,"N_COORD97":2547942.04,"ADDRESS":"正強街２９２號十二樓之１","OBJECTID":635055},"geometry":{"x":173304.23000000045,"y":2547942.0399999972}},{"attributes":{"ID":635083,"DIS_CODE":0,"TOWNNAME":"永康區","LI":"正強里","LIN":"41鄰","STREET":"正強街","SECT":" ","MAREA":" ","LANE":" ","ALLEY":" ","HOUSE_NO":"２９６號八樓之１","E_COORD97":173302.76000000001,"N_COORD97":2547949.29,"ADDRESS":"正強街２９６號八樓之１","OBJECTID":635056},"geometry":{"x":173302.76000000071,"y":2547949.2899999991}},{"attributes":{"ID":635084,"DIS_CODE":0,"TOWNNAME":"永康區","LI":"永康里","LIN":"26鄰","STREET":"中山北路","SECT":" ","MAREA":" ","LANE":" ","ALLEY":" ","HOUSE_NO":"１１４號十七樓之１","E_COORD97":174164.98999999999,"N_COORD97":2547447.25,"ADDRESS":"中山北路１１４號十七樓之１","OBJECTID":635057},"geometry":{"x":174164.99000000022,"y":2547447.2500000019}},{"attributes":{"ID":635085,"DIS_CODE":0,"TOWNNAME":"永康區","LI":"正強里","LIN":"41鄰","STREET":"正強街","SECT":" ","MAREA":" ","LANE":" ","ALLEY":" ","HOUSE_NO":"２９６號十四樓之１","E_COORD97":173304.01000000001,"N_COORD97":2547949.29,"ADDRESS":"正強街２９６號十四樓之１","OBJECTID":635058},"geometry":{"x":173304.01000000071,"y":2547949.2899999991}},{"attributes":{"ID":635086,"DIS_CODE":0,"TOWNNAME":"安南區","LI":"安慶里","LIN":"13鄰","STREET":"培安路","SECT":" ","MAREA":" ","LANE":" ","ALLEY":" ","HOUSE_NO":"２８１號二樓","E_COORD97":169328.88,"N_COORD97":2548874.6600000001,"ADDRESS":"培安路２８１號二樓","OBJECTID":635059},"geometry":{"x":169328.87999999989,"y":2548874.6600000001}},{"attributes":{"ID":635087,"DIS_CODE":0,"TOWNNAME":"東區","LI":"裕聖里","LIN":"9鄰","STREET":"裕信路","SECT":" ","MAREA":" ","LANE":" ","ALLEY":" ","HOUSE_NO":"４０７號七樓","E_COORD97":172597.14999999999,"N_COORD97":2541990.9399999999,"ADDRESS":"裕信路４０７號七樓","OBJECTID":635060},"geometry":{"x":172597.1500000013,"y":2541990.9400000013}},{"attributes":{"ID":635088,"DIS_CODE":0,"TOWNNAME":"東區","LI":"裕聖里","LIN":"9鄰","STREET":"裕信路","SECT":" ","MAREA":" ","LANE":" ","ALLEY":" ","HOUSE_NO":"４０７號七樓之１","E_COORD97":172597.14999999999,"N_COORD97":2541990.9399999999,"ADDRESS":"裕信路４０７號七樓之１","OBJECTID":635061},"geometry":{"x":172597.1500000013,"y":2541990.9400000013}},{"attributes":{"ID":635089,"DIS_CODE":0,"TOWNNAME":"東區","LI":"裕聖里","LIN":"9鄰","STREET":"裕信路","SECT":" ","MAREA":" ","LANE":" ","ALLEY":" ","HOUSE_NO":"４０７號二樓","E_COORD97":172597.14999999999,"N_COORD97":2541990.9399999999,"ADDRESS":"裕信路４０７號二樓","OBJECTID":635062},"geometry":{"x":172597.1500000013,"y":2541990.9400000013}},{"attributes":{"ID":635090,"DIS_CODE":0,"TOWNNAME":"東區","LI":"裕聖里","LIN":"9鄰","STREET":"裕信路","SECT":" ","MAREA":" ","LANE":" ","ALLEY":" ","HOUSE_NO":"４０７號二樓之１","E_COORD97":172597.14999999999,"N_COORD97":2541990.9399999999,"ADDRESS":"裕信路４０７號二樓之１","OBJECTID":635063},"geometry":{"x":172597.1500000013,"y":2541990.9400000013}},{"attributes":{"ID":635091,"DIS_CODE":0,"TOWNNAME":"東區","LI":"裕聖里","LIN":"9鄰","STREET":"裕信路","SECT":" ","MAREA":" ","LANE":" ","ALLEY":" ","HOUSE_NO":"４０７號二樓之２","E_COORD97":172597.14999999999,"N_COORD97":2541990.9399999999,"ADDRESS":"裕信路４０７號二樓之２","OBJECTID":635064},"geometry":{"x":172597.1500000013,"y":2541990.9400000013}},{"attributes":{"ID":635092,"DIS_CODE":0,"TOWNNAME":"東區","LI":"裕聖里","LIN":"9鄰","STREET":"裕信路","SECT":" ","MAREA":" ","LANE":" ","ALLEY":" ","HOUSE_NO":"４０７號三樓","E_COORD97":172597.14999999999,"N_COORD97":2541990.9399999999,"ADDRESS":"裕信路４０７號三樓","OBJECTID":635065},"geometry":{"x":172597.1500000013,"y":2541990.9400000013}},{"attributes":{"ID":635093,"DIS_CODE":0,"TOWNNAME":"東區","LI":"裕聖里","LIN":"9鄰","STREET":"裕信路","SECT":" ","MAREA":" ","LANE":" ","ALLEY":" ","HOUSE_NO":"４０７號三樓之１","E_COORD97":172597.14999999999,"N_COORD97":2541990.9399999999,"ADDRESS":"裕信路４０７號三樓之１","OBJECTID":635066},"geometry":{"x":172597.1500000013,"y":2541990.9400000013}},{"attributes":{"ID":635094,"DIS_CODE":0,"TOWNNAME":"東區","LI":"裕聖里","LIN":"9鄰","STREET":"裕信路","SECT":" ","MAREA":" ","LANE":" ","ALLEY":" ","HOUSE_NO":"４０７號三樓之２","E_COORD97":172597.14999999999,"N_COORD97":2541990.9399999999,"ADDRESS":"裕信路４０７號三樓之２","OBJECTID":635067},"geometry":{"x":172597.1500000013,"y":2541990.9400000013}},{"attributes":{"ID":635095,"DIS_CODE":0,"TOWNNAME":"東區","LI":"裕聖里","LIN":"9鄰","STREET":"裕信路","SECT":" ","MAREA":" ","LANE":" ","ALLEY":" ","HOUSE_NO":"４０７號五樓","E_COORD97":172597.14999999999,"N_COORD97":2541990.9399999999,"ADDRESS":"裕信路４０７號五樓","OBJECTID":635068},"geometry":{"x":172597.1500000013,"y":2541990.9400000013}},{"attributes":{"ID":635096,"DIS_CODE":0,"TOWNNAME":"東區","LI":"裕聖里","LIN":"9鄰","STREET":"裕信路","SECT":" ","MAREA":" ","LANE":" ","ALLEY":" ","HOUSE_NO":"４０７號五樓之１","E_COORD97":172597.14999999999,"N_COORD97":2541990.9399999999,"ADDRESS":"裕信路４０７號五樓之１","OBJECTID":635069},"geometry":{"x":172597.1500000013,"y":2541990.9400000013}},{"attributes":{"ID":635097,"DIS_CODE":0,"TOWNNAME":"東區","LI":"裕聖里","LIN":"9鄰","STREET":"裕信路","SECT":" ","MAREA":" ","LANE":" ","ALLEY":" ","HOUSE_NO":"４０７號四樓","E_COORD97":172597.14999999999,"N_COORD97":2541990.9399999999,"ADDRESS":"裕信路４０７號四樓","OBJECTID":635070},"geometry":{"x":172597.1500000013,"y":2541990.9400000013}},{"attributes":{"ID":635098,"DIS_CODE":0,"TOWNNAME":"東區","LI":"裕聖里","LIN":"9鄰","STREET":"裕信路","SECT":" ","MAREA":" ","LANE":" ","ALLEY":" ","HOUSE_NO":"４１７號五樓之１","E_COORD97":172591.28,"N_COORD97":2541967.8599999999,"ADDRESS":"裕信路４１７號五樓之１","OBJECTID":635071},"geometry":{"x":172591.28000000026,"y":2541967.8600000013}},{"attributes":{"ID":635099,"DIS_CODE":0,"TOWNNAME":"南區","LI":"新生里","LIN":"1鄰","STREET":"大林路","SECT":" ","MAREA":" ","LANE":" ","ALLEY":" ","HOUSE_NO":"２號七樓之５","E_COORD97":169367.64999999999,"N_COORD97":2541886.5499999998,"ADDRESS":"大林路２號七樓之５","OBJECTID":635072},"geometry":{"x":169367.6500000013,"y":2541886.5500000026}},{"attributes":{"ID":635100,"DIS_CODE":0,"TOWNNAME":"東區","LI":"虎尾里","LIN":"26鄰","STREET":"東門路","SECT":"三段","MAREA":" ","LANE":" ","ALLEY":" ","HOUSE_NO":"２９７號七樓","E_COORD97":171836.25,"N_COORD97":2541828.2999999998,"ADDRESS":"東門路三段２９７號七樓","OBJECTID":635073},"geometry":{"x":171836.25000000093,"y":2541828.3000000007}},{"attributes":{"ID":635101,"DIS_CODE":0,"TOWNNAME":"東區","LI":"虎尾里","LIN":"26鄰","STREET":"東門路","SECT":"三段","MAREA":" ","LANE":" ","ALLEY":" ","HOUSE_NO":"２９７號七樓之１","E_COORD97":171836.25,"N_COORD97":2541828.2999999998,"ADDRESS":"東門路三段２９７號七樓之１","OBJECTID":635074},"geometry":{"x":171836.25000000093,"y":2541828.3000000007}},{"attributes":{"ID":635102,"DIS_CODE":0,"TOWNNAME":"東區","LI":"虎尾里","LIN":"26鄰","STREET":"東門路","SECT":"三段","MAREA":" ","LANE":" ","ALLEY":" ","HOUSE_NO":"２９７號五樓","E_COORD97":171836.25,"N_COORD97":2541828.2999999998,"ADDRESS":"東門路三段２９７號五樓","OBJECTID":635075},"geometry":{"x":171836.25000000093,"y":2541828.3000000007}},{"attributes":{"ID":635103,"DIS_CODE":0,"TOWNNAME":"東區","LI":"虎尾里","LIN":"26鄰","STREET":"東門路","SECT":"三段","MAREA":" ","LANE":" ","ALLEY":" ","HOUSE_NO":"２９７號五樓之１","E_COORD97":171836.25,"N_COORD97":2541828.2999999998,"ADDRESS":"東門路三段２９７號五樓之１","OBJECTID":635076},"geometry":{"x":171836.25000000093,"y":2541828.3000000007}},{"attributes":{"ID":635104,"DIS_CODE":0,"TOWNNAME":"東區","LI":"虎尾里","LIN":"26鄰","STREET":"東門路","SECT":"三段","MAREA":" ","LANE":" ","ALLEY":" ","HOUSE_NO":"２９７號五樓之２","E_COORD97":171836.25,"N_COORD97":2541828.2999999998,"ADDRESS":"東門路三段２９７號五樓之２","OBJECTID":635077},"geometry":{"x":171836.25000000093,"y":2541828.3000000007}},{"attributes":{"ID":635105,"DIS_CODE":0,"TOWNNAME":"東區","LI":"虎尾里","LIN":"26鄰","STREET":"東門路","SECT":"三段","MAREA":" ","LANE":" ","ALLEY":" ","HOUSE_NO":"２９７號六樓","E_COORD97":171836.25,"N_COORD97":2541828.2999999998,"ADDRESS":"東門路三段２９７號六樓","OBJECTID":635078},"geometry":{"x":171836.25000000093,"y":2541828.3000000007}},{"attributes":{"ID":635106,"DIS_CODE":0,"TOWNNAME":"佳里區","LI":"安西里","LIN":"56鄰","STREET":"佳安中街","SECT":" ","MAREA":" ","LANE":" ","ALLEY":" ","HOUSE_NO":"９號","E_COORD97":163941.67999999999,"N_COORD97":2562279.9399999999,"ADDRESS":"佳安中街９號","OBJECTID":635079},"geometry":{"x":163941.68000000156,"y":2562279.9399999995}},{"attributes":{"ID":635107,"DIS_CODE":0,"TOWNNAME":"東區","LI":"虎尾里","LIN":"26鄰","STREET":"東門路","SECT":"三段","MAREA":" ","LANE":" ","ALLEY":" ","HOUSE_NO":"２９７號六樓之１","E_COORD97":171836.25,"N_COORD97":2541828.2999999998,"ADDRESS":"東門路三段２９７號六樓之１","OBJECTID":635080},"geometry":{"x":171836.25000000093,"y":2541828.3000000007}},{"attributes":{"ID":635108,"DIS_CODE":0,"TOWNNAME":"東區","LI":"虎尾里","LIN":"26鄰","STREET":"東門路","SECT":"三段","MAREA":" ","LANE":" ","ALLEY":" ","HOUSE_NO":"２９７號六樓之２","E_COORD97":171836.25,"N_COORD97":2541828.2999999998,"ADDRESS":"東門路三段２９７號六樓之２","OBJECTID":635081},"geometry":{"x":171836.25000000093,"y":2541828.3000000007}},{"attributes":{"ID":635109,"DIS_CODE":0,"TOWNNAME":"東區","LI":"虎尾里","LIN":"26鄰","STREET":"東門路","SECT":"三段","MAREA":" ","LANE":" ","ALLEY":" ","HOUSE_NO":"２９７號四樓","E_COORD97":171836.25,"N_COORD97":2541828.2999999998,"ADDRESS":"東門路三段２９７號四樓","OBJECTID":635082},"geometry":{"x":171836.25000000093,"y":2541828.3000000007}},{"attributes":{"ID":635110,"DIS_CODE":0,"TOWNNAME":"東區","LI":"虎尾里","LIN":"26鄰","STREET":"東門路","SECT":"三段","MAREA":" ","LANE":" ","ALLEY":" ","HOUSE_NO":"２９７號四樓之１","E_COORD97":171836.25,"N_COORD97":2541828.2999999998,"ADDRESS":"東門路三段２９７號四樓之１","OBJECTID":635083},"geometry":{"x":171836.25000000093,"y":2541828.3000000007}},{"attributes":{"ID":635111,"DIS_CODE":0,"TOWNNAME":"東區","LI":"虎尾里","LIN":"26鄰","STREET":"東門路","SECT":"三段","MAREA":" ","LANE":" ","ALLEY":" ","HOUSE_NO":"２９７號四樓之２","E_COORD97":171836.25,"N_COORD97":2541828.2999999998,"ADDRESS":"東門路三段２９７號四樓之２","OBJECTID":635084},"geometry":{"x":171836.25000000093,"y":2541828.3000000007}},{"attributes":{"ID":635112,"DIS_CODE":0,"TOWNNAME":"東區","LI":"成大里","LIN":"10鄰","STREET":"民族路","SECT":"一段","MAREA":" ","LANE":" ","ALLEY":" ","HOUSE_NO":"７０號二樓","E_COORD97":169434.42000000001,"N_COORD97":2543881.5899999999,"ADDRESS":"民族路一段７０號二樓","OBJECTID":635085},"geometry":{"x":169434.42000000179,"y":2543881.5900000017}},{"attributes":{"ID":635113,"DIS_CODE":0,"TOWNNAME":"東區","LI":"成大里","LIN":"10鄰","STREET":"民族路","SECT":"一段","MAREA":" ","LANE":" ","ALLEY":" ","HOUSE_NO":"７０號四樓","E_COORD97":169434.42000000001,"N_COORD97":2543881.5899999999,"ADDRESS":"民族路一段７０號四樓","OBJECTID":635086},"geometry":{"x":169434.42000000179,"y":2543881.5900000017}},{"attributes":{"ID":635114,"DIS_CODE":0,"TOWNNAME":"東區","LI":"成大里","LIN":"10鄰","STREET":"民族路","SECT":"一段","MAREA":" ","LANE":" ","ALLEY":" ","HOUSE_NO":"７２號二樓","E_COORD97":169426.64000000001,"N_COORD97":2543881.8999999999,"ADDRESS":"民族路一段７２號二樓","OBJECTID":635087},"geometry":{"x":169426.63999999966,"y":2543881.9000000004}},{"attributes":{"ID":635115,"DIS_CODE":0,"TOWNNAME":"東區","LI":"成大里","LIN":"10鄰","STREET":"民族路","SECT":"一段","MAREA":" ","LANE":" ","ALLEY":" ","HOUSE_NO":"７２號五樓","E_COORD97":169426.64000000001,"N_COORD97":2543881.8999999999,"ADDRESS":"民族路一段７２號五樓","OBJECTID":635088},"geometry":{"x":169426.63999999966,"y":2543881.9000000004}},{"attributes":{"ID":635116,"DIS_CODE":0,"TOWNNAME":"東區","LI":"成大里","LIN":"10鄰","STREET":"民族路","SECT":"一段","MAREA":" ","LANE":" ","ALLEY":" ","HOUSE_NO":"７０號三樓","E_COORD97":169434.42000000001,"N_COORD97":2543881.5899999999,"ADDRESS":"民族路一段７０號三樓","OBJECTID":635089},"geometry":{"x":169434.42000000179,"y":2543881.5900000017}},{"attributes":{"ID":635117,"DIS_CODE":0,"TOWNNAME":"東區","LI":"成大里","LIN":"10鄰","STREET":"民族路","SECT":"一段","MAREA":" ","LANE":" ","ALLEY":" ","HOUSE_NO":"７０號五樓","E_COORD97":169434.42000000001,"N_COORD97":2543881.5899999999,"ADDRESS":"民族路一段７０號五樓","OBJECTID":635090},"geometry":{"x":169434.42000000179,"y":2543881.5900000017}},{"attributes":{"ID":635118,"DIS_CODE":0,"TOWNNAME":"東區","LI":"成大里","LIN":"10鄰","STREET":"民族路","SECT":"一段","MAREA":" ","LANE":" ","ALLEY":" ","HOUSE_NO":"７２號三樓","E_COORD97":169426.64000000001,"N_COORD97":2543881.8999999999,"ADDRESS":"民族路一段７２號三樓","OBJECTID":635091},"geometry":{"x":169426.63999999966,"y":2543881.9000000004}},{"attributes":{"ID":635119,"DIS_CODE":0,"TOWNNAME":"東區","LI":"成大里","LIN":"10鄰","STREET":"民族路","SECT":"一段","MAREA":" ","LANE":" ","ALLEY":" ","HOUSE_NO":"７２號四樓","E_COORD97":169426.64000000001,"N_COORD97":2543881.8999999999,"ADDRESS":"民族路一段７２號四樓","OBJECTID":635092},"geometry":{"x":169426.63999999966,"y":2543881.9000000004}},{"attributes":{"ID":635120,"DIS_CODE":0,"TOWNNAME":"南區","LI":"新生里","LIN":"1鄰","STREET":"大林路","SECT":" ","MAREA":" ","LANE":" ","ALLEY":" ","HOUSE_NO":"２號八樓之１","E_COORD97":169367.64999999999,"N_COORD97":2541886.5499999998,"ADDRESS":"大林路２號八樓之１","OBJECTID":635093},"geometry":{"x":169367.6500000013,"y":2541886.5500000026}},{"attributes":{"ID":635121,"DIS_CODE":0,"TOWNNAME":"南區","LI":"新生里","LIN":"1鄰","STREET":"大林路","SECT":" ","MAREA":" ","LANE":" ","ALLEY":" ","HOUSE_NO":"２號八樓之２","E_COORD97":169367.64999999999,"N_COORD97":2541886.5499999998,"ADDRESS":"大林路２號八樓之２","OBJECTID":635094},"geometry":{"x":169367.6500000013,"y":2541886.5500000026}},{"attributes":{"ID":635122,"DIS_CODE":0,"TOWNNAME":"東區","LI":"成大里","LIN":"14鄰","STREET":"育樂街","SECT":" ","MAREA":" ","LANE":" ","ALLEY":" ","HOUSE_NO":"１５６號四樓","E_COORD97":169495.79000000001,"N_COORD97":2544007.6200000001,"ADDRESS":"育樂街１５６號四樓","OBJECTID":635095},"geometry":{"x":169495.79000000004,"y":2544007.6200000048}},{"attributes":{"ID":635123,"DIS_CODE":0,"TOWNNAME":"東區","LI":"成大里","LIN":"10鄰","STREET":"民族路","SECT":"一段","MAREA":" ","LANE":" ","ALLEY":" ","HOUSE_NO":"９０號七樓之１","E_COORD97":169391.75,"N_COORD97":2543909.7400000002,"ADDRESS":"民族路一段９０號七樓之１","OBJECTID":635096},"geometry":{"x":169391.75000000093,"y":2543909.7400000002}},{"attributes":{"ID":635124,"DIS_CODE":0,"TOWNNAME":"東區","LI":"成大里","LIN":"10鄰","STREET":"民族路","SECT":"一段","MAREA":" ","LANE":" ","ALLEY":" ","HOUSE_NO":"９０號七樓之２","E_COORD97":169391.75,"N_COORD97":2543909.7400000002,"ADDRESS":"民族路一段９０號七樓之２","OBJECTID":635097},"geometry":{"x":169391.75000000093,"y":2543909.7400000002}},{"attributes":{"ID":635125,"DIS_CODE":0,"TOWNNAME":"東區","LI":"成大里","LIN":"10鄰","STREET":"民族路","SECT":"一段","MAREA":" ","LANE":" ","ALLEY":" ","HOUSE_NO":"９０號七樓之３","E_COORD97":169391.75,"N_COORD97":2543909.7400000002,"ADDRESS":"民族路一段９０號七樓之３","OBJECTID":635098},"geometry":{"x":169391.75000000093,"y":2543909.7400000002}},{"attributes":{"ID":635126,"DIS_CODE":0,"TOWNNAME":"東區","LI":"成大里","LIN":"10鄰","STREET":"民族路","SECT":"一段","MAREA":" ","LANE":" ","ALLEY":" ","HOUSE_NO":"９０號二樓","E_COORD97":169391.75,"N_COORD97":2543909.7400000002,"ADDRESS":"民族路一段９０號二樓","OBJECTID":635099},"geometry":{"x":169391.75000000093,"y":2543909.7400000002}},{"attributes":{"ID":635127,"DIS_CODE":0,"TOWNNAME":"東區","LI":"成大里","LIN":"10鄰","STREET":"民族路","SECT":"一段","MAREA":" ","LANE":" ","ALLEY":" ","HOUSE_NO":"９０號八樓之１","E_COORD97":169391.75,"N_COORD97":2543909.7400000002,"ADDRESS":"民族路一段９０號八樓之１","OBJECTID":635100},"geometry":{"x":169391.75000000093,"y":2543909.7400000002}},{"attributes":{"ID":635128,"DIS_CODE":0,"TOWNNAME":"東區","LI":"成大里","LIN":"10鄰","STREET":"民族路","SECT":"一段","MAREA":" ","LANE":" ","ALLEY":" ","HOUSE_NO":"９０號八樓之２","E_COORD97":169391.75,"N_COORD97":2543909.7400000002,"ADDRESS":"民族路一段９０號八樓之２","OBJECTID":635101},"geometry":{"x":169391.75000000093,"y":2543909.7400000002}},{"attributes":{"ID":635129,"DIS_CODE":0,"TOWNNAME":"東區","LI":"成大里","LIN":"10鄰","STREET":"民族路","SECT":"一段","MAREA":" ","LANE":" ","ALLEY":" ","HOUSE_NO":"９０號八樓之３","E_COORD97":169391.75,"N_COORD97":2543909.7400000002,"ADDRESS":"民族路一段９０號八樓之３","OBJECTID":635102},"geometry":{"x":169391.75000000093,"y":2543909.7400000002}},{"attributes":{"ID":635130,"DIS_CODE":0,"TOWNNAME":"東區","LI":"成大里","LIN":"10鄰","STREET":"民族路","SECT":"一段","MAREA":" ","LANE":" ","ALLEY":" ","HOUSE_NO":"９０號三樓","E_COORD97":169391.75,"N_COORD97":2543909.7400000002,"ADDRESS":"民族路一段９０號三樓","OBJECTID":635103},"geometry":{"x":169391.75000000093,"y":2543909.7400000002}},{"attributes":{"ID":635131,"DIS_CODE":0,"TOWNNAME":"東區","LI":"東門里","LIN":"14鄰","STREET":"慶東街","SECT":" ","MAREA":" ","LANE":" ","ALLEY":" ","HOUSE_NO":"８９號七樓","E_COORD97":169630.42999999999,"N_COORD97":2543203.4399999999,"ADDRESS":"慶東街８９號七樓","OBJECTID":635104},"geometry":{"x":169630.4299999997,"y":2543203.4399999976}},{"attributes":{"ID":635132,"DIS_CODE":0,"TOWNNAME":"東區","LI":"泉南里","LIN":"7鄰","STREET":"光華街","SECT":" ","MAREA":" ","LANE":" ","ALLEY":" ","HOUSE_NO":"１９７號三樓","E_COORD97":169650.48000000001,"N_COORD97":2542997.9100000001,"ADDRESS":"光華街１９７號三樓","OBJECTID":635105},"geometry":{"x":169650.48000000138,"y":2542997.9100000039}},{"attributes":{"ID":635133,"DIS_CODE":0,"TOWNNAME":"東區","LI":"泉南里","LIN":"7鄰","STREET":"光華街","SECT":" ","MAREA":" ","LANE":" ","ALLEY":" ","HOUSE_NO":"１９９號三樓","E_COORD97":169639.29000000001,"N_COORD97":2542998.6299999999,"ADDRESS":"光華街１９９號三樓","OBJECTID":635106},"geometry":{"x":169639.29000000097,"y":2542998.6300000027}},{"attributes":{"ID":635134,"DIS_CODE":0,"TOWNNAME":"東區","LI":"泉南里","LIN":"7鄰","STREET":"慶東街","SECT":" ","MAREA":" ","LANE":" ","ALLEY":" ","HOUSE_NO":"３８號二樓","E_COORD97":169592.62,"N_COORD97":2542958.3300000001,"ADDRESS":"慶東街３８號二樓","OBJECTID":635107},"geometry":{"x":169592.62000000197,"y":2542958.3300000019}},{"attributes":{"ID":635135,"DIS_CODE":0,"TOWNNAME":"東區","LI":"泉南里","LIN":"7鄰","STREET":"慶東街","SECT":" ","MAREA":" ","LANE":" ","ALLEY":" ","HOUSE_NO":"３８號三樓","E_COORD97":169592.62,"N_COORD97":2542958.3300000001,"ADDRESS":"慶東街３８號三樓","OBJECTID":635108},"geometry":{"x":169592.62000000197,"y":2542958.3300000019}},{"attributes":{"ID":635136,"DIS_CODE":0,"TOWNNAME":"東區","LI":"泉南里","LIN":"7鄰","STREET":"慶東街","SECT":" ","MAREA":" ","LANE":" ","ALLEY":" ","HOUSE_NO":"３８號五樓","E_COORD97":169592.62,"N_COORD97":2542958.3300000001,"ADDRESS":"慶東街３８號五樓","OBJECTID":635109},"geometry":{"x":169592.62000000197,"y":2542958.3300000019}},{"attributes":{"ID":635137,"DIS_CODE":0,"TOWNNAME":"東區","LI":"泉南里","LIN":"7鄰","STREET":"慶東街","SECT":" ","MAREA":" ","LANE":" ","ALLEY":" ","HOUSE_NO":"３８號四樓","E_COORD97":169592.62,"N_COORD97":2542958.3300000001,"ADDRESS":"慶東街３８號四樓","OBJECTID":635110},"geometry":{"x":169592.62000000197,"y":2542958.3300000019}},{"attributes":{"ID":635138,"DIS_CODE":0,"TOWNNAME":"東區","LI":"泉南里","LIN":"6鄰","STREET":"東門路","SECT":"一段","MAREA":" ","LANE":" ","ALLEY":" ","HOUSE_NO":"８４號四樓之１","E_COORD97":169376.76999999999,"N_COORD97":2543185.3799999999,"ADDRESS":"東門路一段８４號四樓之１","OBJECTID":635111},"geometry":{"x":169376.76999999955,"y":2543185.379999999}},{"attributes":{"ID":635139,"DIS_CODE":0,"TOWNNAME":"東區","LI":"泉南里","LIN":"6鄰","STREET":"東門路","SECT":"一段","MAREA":" ","LANE":" ","ALLEY":" ","HOUSE_NO":"８４號四樓之２","E_COORD97":169376.76999999999,"N_COORD97":2543185.3799999999,"ADDRESS":"東門路一段８４號四樓之２","OBJECTID":635112},"geometry":{"x":169376.76999999955,"y":2543185.379999999}},{"attributes":{"ID":635140,"DIS_CODE":0,"TOWNNAME":"東區","LI":"泉南里","LIN":"6鄰","STREET":"東門路","SECT":"一段","MAREA":" ","LANE":" ","ALLEY":" ","HOUSE_NO":"８４號四樓之３","E_COORD97":169376.76999999999,"N_COORD97":2543185.3799999999,"ADDRESS":"東門路一段８４號四樓之３","OBJECTID":635113},"geometry":{"x":169376.76999999955,"y":2543185.379999999}},{"attributes":{"ID":635141,"DIS_CODE":0,"TOWNNAME":"東區","LI":"泉南里","LIN":"6鄰","STREET":"東門路","SECT":"一段","MAREA":" ","LANE":" ","ALLEY":" ","HOUSE_NO":"８４號四樓之４","E_COORD97":169376.76999999999,"N_COORD97":2543185.3799999999,"ADDRESS":"東門路一段８４號四樓之４","OBJECTID":635114},"geometry":{"x":169376.76999999955,"y":2543185.379999999}},{"attributes":{"ID":635142,"DIS_CODE":0,"TOWNNAME":"北區","LI":"安民里","LIN":"12鄰","STREET":"海安路","SECT":"三段","MAREA":" ","LANE":" ","ALLEY":" ","HOUSE_NO":"５５號","E_COORD97":167902.92000000001,"N_COORD97":2544743.4300000002,"ADDRESS":"海安路三段５５號","OBJECTID":635115},"geometry":{"x":167902.91999999993,"y":2544743.4300000034}},{"attributes":{"ID":635143,"DIS_CODE":0,"TOWNNAME":"東區","LI":"泉南里","LIN":"13鄰","STREET":"光華街","SECT":" ","MAREA":" ","LANE":" ","ALLEY":" ","HOUSE_NO":"２６３號二樓","E_COORD97":169430.04000000001,"N_COORD97":2543047.27,"ADDRESS":"光華街２６３號二樓","OBJECTID":635116},"geometry":{"x":169430.04000000004,"y":2543047.2699999996}},{"attributes":{"ID":635144,"DIS_CODE":0,"TOWNNAME":"東區","LI":"泉南里","LIN":"13鄰","STREET":"光華街","SECT":" ","MAREA":" ","LANE":" ","ALLEY":" ","HOUSE_NO":"２６３號二樓之１","E_COORD97":169430.04000000001,"N_COORD97":2543047.27,"ADDRESS":"光華街２６３號二樓之１","OBJECTID":635117},"geometry":{"x":169430.04000000004,"y":2543047.2699999996}},{"attributes":{"ID":635145,"DIS_CODE":0,"TOWNNAME":"東區","LI":"泉南里","LIN":"13鄰","STREET":"光華街","SECT":" ","MAREA":" ","LANE":" ","ALLEY":" ","HOUSE_NO":"２６３號二樓之２","E_COORD97":169430.04000000001,"N_COORD97":2543047.27,"ADDRESS":"光華街２６３號二樓之２","OBJECTID":635118},"geometry":{"x":169430.04000000004,"y":2543047.2699999996}},{"attributes":{"ID":635146,"DIS_CODE":0,"TOWNNAME":"東區","LI":"泉南里","LIN":"13鄰","STREET":"光華街","SECT":" ","MAREA":" ","LANE":" ","ALLEY":" ","HOUSE_NO":"２６３號二樓之３","E_COORD97":169430.04000000001,"N_COORD97":2543047.27,"ADDRESS":"光華街２６３號二樓之３","OBJECTID":635119},"geometry":{"x":169430.04000000004,"y":2543047.2699999996}},{"attributes":{"ID":635147,"DIS_CODE":0,"TOWNNAME":"南區","LI":"新生里","LIN":"1鄰","STREET":"大林路","SECT":" ","MAREA":" ","LANE":" ","ALLEY":" ","HOUSE_NO":"２號八樓之５","E_COORD97":169367.64999999999,"N_COORD97":2541886.5499999998,"ADDRESS":"大林路２號八樓之５","OBJECTID":635120},"geometry":{"x":169367.6500000013,"y":2541886.5500000026}},{"attributes":{"ID":635148,"DIS_CODE":0,"TOWNNAME":"東區","LI":"崇成里","LIN":"3鄰","STREET":"崇德十二街","SECT":" ","MAREA":" ","LANE":" ","ALLEY":" ","HOUSE_NO":"１６號五樓之４","E_COORD97":170847.48000000001,"N_COORD97":2541333.1400000001,"ADDRESS":"崇德十二街１６號五樓之４","OBJECTID":635121},"geometry":{"x":170847.48000000045,"y":2541333.1400000025}},{"attributes":{"ID":635149,"DIS_CODE":0,"TOWNNAME":"北區","LI":"安民里","LIN":"12鄰","STREET":"海安路","SECT":"三段","MAREA":" ","LANE":" ","ALLEY":" ","HOUSE_NO":"６３號","E_COORD97":167918,"N_COORD97":2544762.8700000001,"ADDRESS":"海安路三段６３號","OBJECTID":635122},"geometry":{"x":167918,"y":2544762.8700000029}},{"attributes":{"ID":635150,"DIS_CODE":0,"TOWNNAME":"東區","LI":"崇成里","LIN":"2鄰","STREET":"崇道路","SECT":" ","MAREA":" ","LANE":" ","ALLEY":" ","HOUSE_NO":"１３６號三樓","E_COORD97":170979.22,"N_COORD97":2541393.7599999998,"ADDRESS":"崇道路１３６號三樓","OBJECTID":635123},"geometry":{"x":170979.21999999974,"y":2541393.7599999998}},{"attributes":{"ID":635151,"DIS_CODE":0,"TOWNNAME":"東區","LI":"崇成里","LIN":"2鄰","STREET":"崇道路","SECT":" ","MAREA":" ","LANE":" ","ALLEY":" ","HOUSE_NO":"１３６號五樓","E_COORD97":170979.22,"N_COORD97":2541393.7599999998,"ADDRESS":"崇道路１３６號五樓","OBJECTID":635124},"geometry":{"x":170979.21999999974,"y":2541393.7599999998}},{"attributes":{"ID":635152,"DIS_CODE":0,"TOWNNAME":"東區","LI":"崇成里","LIN":"2鄰","STREET":"崇道路","SECT":" ","MAREA":" ","LANE":" ","ALLEY":" ","HOUSE_NO":"１３８號三樓","E_COORD97":170980.82999999999,"N_COORD97":2541385.7799999998,"ADDRESS":"崇道路１３８號三樓","OBJECTID":635125},"geometry":{"x":170980.83000000007,"y":2541385.7799999993}},{"attributes":{"ID":635153,"DIS_CODE":0,"TOWNNAME":"東區","LI":"崇成里","LIN":"2鄰","STREET":"崇道路","SECT":" ","MAREA":" ","LANE":" ","ALLEY":" ","HOUSE_NO":"１３８號五樓","E_COORD97":170980.82999999999,"N_COORD97":2541385.7799999998,"ADDRESS":"崇道路１３８號五樓","OBJECTID":635126},"geometry":{"x":170980.83000000007,"y":2541385.7799999993}},{"attributes":{"ID":635154,"DIS_CODE":0,"TOWNNAME":"東區","LI":"崇成里","LIN":"2鄰","STREET":"崇道路","SECT":" ","MAREA":" ","LANE":" ","ALLEY":" ","HOUSE_NO":"１４０號二樓","E_COORD97":170994.70999999999,"N_COORD97":2541397.7400000002,"ADDRESS":"崇道路１４０號二樓","OBJECTID":635127},"geometry":{"x":170994.70999999996,"y":2541397.7400000002}},{"attributes":{"ID":635155,"DIS_CODE":0,"TOWNNAME":"東區","LI":"崇成里","LIN":"2鄰","STREET":"崇道路","SECT":" ","MAREA":" ","LANE":" ","ALLEY":" ","HOUSE_NO":"１４０號三樓","E_COORD97":170994.70999999999,"N_COORD97":2541397.7400000002,"ADDRESS":"崇道路１４０號三樓","OBJECTID":635128},"geometry":{"x":170994.70999999996,"y":2541397.7400000002}},{"attributes":{"ID":635156,"DIS_CODE":0,"TOWNNAME":"東區","LI":"崇成里","LIN":"2鄰","STREET":"崇道路","SECT":" ","MAREA":" ","LANE":" ","ALLEY":" ","HOUSE_NO":"１４０號五樓","E_COORD97":170994.70999999999,"N_COORD97":2541397.7400000002,"ADDRESS":"崇道路１４０號五樓","OBJECTID":635129},"geometry":{"x":170994.70999999996,"y":2541397.7400000002}},{"attributes":{"ID":635157,"DIS_CODE":0,"TOWNNAME":"東區","LI":"崇成里","LIN":"2鄰","STREET":"崇道路","SECT":" ","MAREA":" ","LANE":" ","ALLEY":" ","HOUSE_NO":"１４０號六樓","E_COORD97":170994.70999999999,"N_COORD97":2541397.7400000002,"ADDRESS":"崇道路１４０號六樓","OBJECTID":635130},"geometry":{"x":170994.70999999996,"y":2541397.7400000002}},{"attributes":{"ID":635158,"DIS_CODE":0,"TOWNNAME":"東區","LI":"崇成里","LIN":"2鄰","STREET":"崇道路","SECT":" ","MAREA":" ","LANE":" ","ALLEY":" ","HOUSE_NO":"１４０號四樓","E_COORD97":170994.70999999999,"N_COORD97":2541397.7400000002,"ADDRESS":"崇道路１４０號四樓","OBJECTID":635131},"geometry":{"x":170994.70999999996,"y":2541397.7400000002}},{"attributes":{"ID":635159,"DIS_CODE":0,"TOWNNAME":"東區","LI":"崇成里","LIN":"2鄰","STREET":"崇道路","SECT":" ","MAREA":" ","LANE":" ","ALLEY":" ","HOUSE_NO":"１４２號二樓","E_COORD97":170994.79999999999,"N_COORD97":2541393.2799999998,"ADDRESS":"崇道路１４２號二樓","OBJECTID":635132},"geometry":{"x":170994.80000000075,"y":2541393.2799999993}},{"attributes":{"ID":635160,"DIS_CODE":0,"TOWNNAME":"東區","LI":"崇成里","LIN":"2鄰","STREET":"崇道路","SECT":" ","MAREA":" ","LANE":" ","ALLEY":" ","HOUSE_NO":"１４２號三樓","E_COORD97":170994.79999999999,"N_COORD97":2541393.2799999998,"ADDRESS":"崇道路１４２號三樓","OBJECTID":635133},"geometry":{"x":170994.80000000075,"y":2541393.2799999993}},{"attributes":{"ID":635161,"DIS_CODE":0,"TOWNNAME":"東區","LI":"崇成里","LIN":"4鄰","STREET":"崇德十二街","SECT":" ","MAREA":" ","LANE":" ","ALLEY":" ","HOUSE_NO":"６６號七樓","E_COORD97":170938.57999999999,"N_COORD97":2541334.1099999999,"ADDRESS":"崇德十二街６６號七樓","OBJECTID":635134},"geometry":{"x":170938.57999999914,"y":2541334.1099999975}},{"attributes":{"ID":635162,"DIS_CODE":0,"TOWNNAME":"東區","LI":"崇成里","LIN":"4鄰","STREET":"崇德十二街","SECT":" ","MAREA":" ","LANE":" ","ALLEY":" ","HOUSE_NO":"６６號七樓之１","E_COORD97":170938.57999999999,"N_COORD97":2541334.1099999999,"ADDRESS":"崇德十二街６６號七樓之１","OBJECTID":635135},"geometry":{"x":170938.57999999914,"y":2541334.1099999975}},{"attributes":{"ID":635163,"DIS_CODE":0,"TOWNNAME":"東區","LI":"崇成里","LIN":"4鄰","STREET":"崇德十二街","SECT":" ","MAREA":" ","LANE":" ","ALLEY":" ","HOUSE_NO":"６６號七樓之２","E_COORD97":170938.57999999999,"N_COORD97":2541334.1099999999,"ADDRESS":"崇德十二街６６號七樓之２","OBJECTID":635136},"geometry":{"x":170938.57999999914,"y":2541334.1099999975}},{"attributes":{"ID":635164,"DIS_CODE":0,"TOWNNAME":"東區","LI":"崇成里","LIN":"4鄰","STREET":"崇德十二街","SECT":" ","MAREA":" ","LANE":" ","ALLEY":" ","HOUSE_NO":"６６號七樓之３","E_COORD97":170938.57999999999,"N_COORD97":2541334.1099999999,"ADDRESS":"崇德十二街６６號七樓之３","OBJECTID":635137},"geometry":{"x":170938.57999999914,"y":2541334.1099999975}},{"attributes":{"ID":635165,"DIS_CODE":0,"TOWNNAME":"東區","LI":"崇成里","LIN":"4鄰","STREET":"崇德十二街","SECT":" ","MAREA":" ","LANE":" ","ALLEY":" ","HOUSE_NO":"６６號七樓之４","E_COORD97":170938.57999999999,"N_COORD97":2541334.1099999999,"ADDRESS":"崇德十二街６６號七樓之４","OBJECTID":635138},"geometry":{"x":170938.57999999914,"y":2541334.1099999975}},{"attributes":{"ID":635166,"DIS_CODE":0,"TOWNNAME":"東區","LI":"崇成里","LIN":"4鄰","STREET":"崇德十二街","SECT":" ","MAREA":" ","LANE":" ","ALLEY":" ","HOUSE_NO":"６６號七樓之５","E_COORD97":170938.57999999999,"N_COORD97":2541334.1099999999,"ADDRESS":"崇德十二街６６號七樓之５","OBJECTID":635139},"geometry":{"x":170938.57999999914,"y":2541334.1099999975}},{"attributes":{"ID":635167,"DIS_CODE":0,"TOWNNAME":"東區","LI":"崇成里","LIN":"3鄰","STREET":"崇德十二街","SECT":" ","MAREA":" ","LANE":" ","ALLEY":" ","HOUSE_NO":"４８號六樓之３","E_COORD97":170919.42000000001,"N_COORD97":2541334.2200000002,"ADDRESS":"崇德十二街４８號六樓之３","OBJECTID":635140},"geometry":{"x":170919.42000000179,"y":2541334.2200000007}},{"attributes":{"ID":635168,"DIS_CODE":0,"TOWNNAME":"東區","LI":"崇成里","LIN":"3鄰","STREET":"崇德十二街","SECT":" ","MAREA":" ","LANE":" ","ALLEY":" ","HOUSE_NO":"４８號四樓","E_COORD97":170919.42000000001,"N_COORD97":2541334.2200000002,"ADDRESS":"崇德十二街４８號四樓","OBJECTID":635141},"geometry":{"x":170919.42000000179,"y":2541334.2200000007}},{"attributes":{"ID":635169,"DIS_CODE":0,"TOWNNAME":"東區","LI":"崇成里","LIN":"3鄰","STREET":"崇德十二街","SECT":" ","MAREA":" ","LANE":" ","ALLEY":" ","HOUSE_NO":"４８號四樓之１","E_COORD97":170919.42000000001,"N_COORD97":2541334.2200000002,"ADDRESS":"崇德十二街４８號四樓之１","OBJECTID":635142},"geometry":{"x":170919.42000000179,"y":2541334.2200000007}},{"attributes":{"ID":635170,"DIS_CODE":0,"TOWNNAME":"東區","LI":"崇成里","LIN":"3鄰","STREET":"崇德十二街","SECT":" ","MAREA":" ","LANE":" ","ALLEY":" ","HOUSE_NO":"４８號四樓之２","E_COORD97":170919.42000000001,"N_COORD97":2541334.2200000002,"ADDRESS":"崇德十二街４８號四樓之２","OBJECTID":635143},"geometry":{"x":170919.42000000179,"y":2541334.2200000007}},{"attributes":{"ID":635171,"DIS_CODE":0,"TOWNNAME":"東區","LI":"崇成里","LIN":"3鄰","STREET":"崇德十二街","SECT":" ","MAREA":" ","LANE":" ","ALLEY":" ","HOUSE_NO":"４８號四樓之３","E_COORD97":170919.42000000001,"N_COORD97":2541334.2200000002,"ADDRESS":"崇德十二街４８號四樓之３","OBJECTID":635144},"geometry":{"x":170919.42000000179,"y":2541334.2200000007}},{"attributes":{"ID":635172,"DIS_CODE":0,"TOWNNAME":"中西區","LI":"公正里","LIN":"11鄰","STREET":"衛民街","SECT":" ","MAREA":" ","LANE":" ","ALLEY":" ","HOUSE_NO":"６２號三樓之８","E_COORD97":169040.54000000001,"N_COORD97":2543742.2000000002,"ADDRESS":"衛民街６２號三樓之８","OBJECTID":635145},"geometry":{"x":169040.54000000097,"y":2543742.2000000011}},{"attributes":{"ID":635173,"DIS_CODE":0,"TOWNNAME":"中西區","LI":"小西里","LIN":"4鄰","STREET":"西門路","SECT":"一段","MAREA":" ","LANE":" ","ALLEY":" ","HOUSE_NO":"６６２號三樓","E_COORD97":167749.19,"N_COORD97":2543246.3900000001,"ADDRESS":"西門路一段６６２號三樓","OBJECTID":635146},"geometry":{"x":167749.19000000041,"y":2543246.3900000025}},{"attributes":{"ID":635174,"DIS_CODE":0,"TOWNNAME":"中西區","LI":"郡王里","LIN":"18鄰","STREET":"府前路","SECT":"一段","MAREA":" ","LANE":" ","ALLEY":" ","HOUSE_NO":"１８１號三樓之１","E_COORD97":168511.07999999999,"N_COORD97":2543262.9700000002,"ADDRESS":"府前路一段１８１號三樓之１","OBJECTID":635147},"geometry":{"x":168511.07999999914,"y":2543262.9700000025}},{"attributes":{"ID":635175,"DIS_CODE":0,"TOWNNAME":"中西區","LI":"公正里","LIN":"14鄰","STREET":"西華南街","SECT":" ","MAREA":" ","LANE":" ","ALLEY":" ","HOUSE_NO":"３５號一樓之２","E_COORD97":168935.84,"N_COORD97":2543824.9199999999,"ADDRESS":"西華南街３５號一樓之２","OBJECTID":635148},"geometry":{"x":168935.83999999985,"y":2543824.9200000037}},{"attributes":{"ID":635176,"DIS_CODE":0,"TOWNNAME":"中西區","LI":"公正里","LIN":"14鄰","STREET":"西華南街","SECT":" ","MAREA":" ","LANE":" ","ALLEY":" ","HOUSE_NO":"３５號一樓之３","E_COORD97":168935.84,"N_COORD97":2543824.9199999999,"ADDRESS":"西華南街３５號一樓之３","OBJECTID":635149},"geometry":{"x":168935.83999999985,"y":2543824.9200000037}},{"attributes":{"ID":635177,"DIS_CODE":0,"TOWNNAME":"中西區","LI":"公正里","LIN":"14鄰","STREET":"西華南街","SECT":" ","MAREA":" ","LANE":" ","ALLEY":" ","HOUSE_NO":"３５號二樓之１","E_COORD97":168935.84,"N_COORD97":2543824.9199999999,"ADDRESS":"西華南街３５號二樓之１","OBJECTID":635150},"geometry":{"x":168935.83999999985,"y":2543824.9200000037}},{"attributes":{"ID":635178,"DIS_CODE":0,"TOWNNAME":"中西區","LI":"公正里","LIN":"14鄰","STREET":"西華南街","SECT":" ","MAREA":" ","LANE":" ","ALLEY":" ","HOUSE_NO":"３５號二樓之２","E_COORD97":168935.84,"N_COORD97":2543824.9199999999,"ADDRESS":"西華南街３５號二樓之２","OBJECTID":635151},"geometry":{"x":168935.83999999985,"y":2543824.9200000037}},{"attributes":{"ID":635179,"DIS_CODE":0,"TOWNNAME":"中西區","LI":"公正里","LIN":"14鄰","STREET":"西華南街","SECT":" ","MAREA":" ","LANE":" ","ALLEY":" ","HOUSE_NO":"３５號二樓之３","E_COORD97":168935.84,"N_COORD97":2543824.9199999999,"ADDRESS":"西華南街３５號二樓之３","OBJECTID":635152},"geometry":{"x":168935.83999999985,"y":2543824.9200000037}},{"attributes":{"ID":635180,"DIS_CODE":0,"TOWNNAME":"中西區","LI":"公正里","LIN":"14鄰","STREET":"西華南街","SECT":" ","MAREA":" ","LANE":" ","ALLEY":" ","HOUSE_NO":"３５號二樓之５","E_COORD97":168935.84,"N_COORD97":2543824.9199999999,"ADDRESS":"西華南街３５號二樓之５","OBJECTID":635153},"geometry":{"x":168935.83999999985,"y":2543824.9200000037}},{"attributes":{"ID":635181,"DIS_CODE":0,"TOWNNAME":"中西區","LI":"公正里","LIN":"14鄰","STREET":"西華南街","SECT":" ","MAREA":" ","LANE":" ","ALLEY":" ","HOUSE_NO":"３５號三樓之１","E_COORD97":168935.84,"N_COORD97":2543824.9199999999,"ADDRESS":"西華南街３５號三樓之１","OBJECTID":635154},"geometry":{"x":168935.83999999985,"y":2543824.9200000037}},{"attributes":{"ID":635182,"DIS_CODE":0,"TOWNNAME":"中西區","LI":"公正里","LIN":"14鄰","STREET":"西華南街","SECT":" ","MAREA":" ","LANE":" ","ALLEY":" ","HOUSE_NO":"３５號三樓之２","E_COORD97":168935.84,"N_COORD97":2543824.9199999999,"ADDRESS":"西華南街３５號三樓之２","OBJECTID":635155},"geometry":{"x":168935.83999999985,"y":2543824.9200000037}},{"attributes":{"ID":635183,"DIS_CODE":0,"TOWNNAME":"中西區","LI":"公正里","LIN":"14鄰","STREET":"西華南街","SECT":" ","MAREA":" ","LANE":" ","ALLEY":" ","HOUSE_NO":"３５號三樓之３","E_COORD97":168935.84,"N_COORD97":2543824.9199999999,"ADDRESS":"西華南街３５號三樓之３","OBJECTID":635156},"geometry":{"x":168935.83999999985,"y":2543824.9200000037}},{"attributes":{"ID":635184,"DIS_CODE":0,"TOWNNAME":"中西區","LI":"公正里","LIN":"14鄰","STREET":"西華南街","SECT":" ","MAREA":" ","LANE":" ","ALLEY":" ","HOUSE_NO":"３５號三樓之５","E_COORD97":168935.84,"N_COORD97":2543824.9199999999,"ADDRESS":"西華南街３５號三樓之５","OBJECTID":635157},"geometry":{"x":168935.83999999985,"y":2543824.9200000037}},{"attributes":{"ID":635185,"DIS_CODE":0,"TOWNNAME":"中西區","LI":"公正里","LIN":"14鄰","STREET":"西華南街","SECT":" ","MAREA":" ","LANE":" ","ALLEY":" ","HOUSE_NO":"３５號四樓之１","E_COORD97":168935.84,"N_COORD97":2543824.9199999999,"ADDRESS":"西華南街３５號四樓之１","OBJECTID":635158},"geometry":{"x":168935.83999999985,"y":2543824.9200000037}},{"attributes":{"ID":635186,"DIS_CODE":0,"TOWNNAME":"中西區","LI":"三合里","LIN":"8鄰","STREET":"成功路","SECT":" ","MAREA":" ","LANE":" ","ALLEY":" ","HOUSE_NO":"４５３號二樓之１","E_COORD97":167642.97,"N_COORD97":2544635.1600000001,"ADDRESS":"成功路４５３號二樓之１","OBJECTID":635159},"geometry":{"x":167642.96999999974,"y":2544635.160000002}},{"attributes":{"ID":635187,"DIS_CODE":0,"TOWNNAME":"中西區","LI":"西湖里","LIN":"32鄰","STREET":"和緯路","SECT":"五段","MAREA":" ","LANE":" ","ALLEY":" ","HOUSE_NO":"１９３號二樓","E_COORD97":166242.42999999999,"N_COORD97":2545083.6600000001,"ADDRESS":"和緯路五段１９３號二樓","OBJECTID":635160},"geometry":{"x":166242.43000000063,"y":2545083.6600000001}},{"attributes":{"ID":635188,"DIS_CODE":0,"TOWNNAME":"中西區","LI":"西湖里","LIN":"32鄰","STREET":"和緯路","SECT":"五段","MAREA":" ","LANE":" ","ALLEY":" ","HOUSE_NO":"１９３號三樓","E_COORD97":166242.42999999999,"N_COORD97":2545083.6600000001,"ADDRESS":"和緯路五段１９３號三樓","OBJECTID":635161},"geometry":{"x":166242.43000000063,"y":2545083.6600000001}},{"attributes":{"ID":635189,"DIS_CODE":0,"TOWNNAME":"中西區","LI":"西湖里","LIN":"32鄰","STREET":"和緯路","SECT":"五段","MAREA":" ","LANE":" ","ALLEY":" ","HOUSE_NO":"１９３號四樓","E_COORD97":166242.42999999999,"N_COORD97":2545083.6600000001,"ADDRESS":"和緯路五段１９３號四樓","OBJECTID":635162},"geometry":{"x":166242.43000000063,"y":2545083.6600000001}},{"attributes":{"ID":635190,"DIS_CODE":0,"TOWNNAME":"中西區","LI":"公正里","LIN":"14鄰","STREET":"西華南街","SECT":" ","MAREA":" ","LANE":" ","ALLEY":" ","HOUSE_NO":"３５號十樓之２","E_COORD97":168891.39999999999,"N_COORD97":2543835.0800000001,"ADDRESS":"西華南街３５號十樓之２","OBJECTID":635163},"geometry":{"x":168891.4000000013,"y":2543835.0800000019}},{"attributes":{"ID":635191,"DIS_CODE":0,"TOWNNAME":"中西區","LI":"公正里","LIN":"14鄰","STREET":"西華南街","SECT":" ","MAREA":" ","LANE":" ","ALLEY":" ","HOUSE_NO":"３５號十一樓之２","E_COORD97":168891.39999999999,"N_COORD97":2543835.0800000001,"ADDRESS":"西華南街３５號十一樓之２","OBJECTID":635164},"geometry":{"x":168891.4000000013,"y":2543835.0800000019}},{"attributes":{"ID":635192,"DIS_CODE":0,"TOWNNAME":"中西區","LI":"公正里","LIN":"14鄰","STREET":"西華南街","SECT":" ","MAREA":" ","LANE":" ","ALLEY":" ","HOUSE_NO":"３５號十四樓之２","E_COORD97":168891.39999999999,"N_COORD97":2543835.0800000001,"ADDRESS":"西華南街３５號十四樓之２","OBJECTID":635165},"geometry":{"x":168891.4000000013,"y":2543835.0800000019}},{"attributes":{"ID":635193,"DIS_CODE":0,"TOWNNAME":"中西區","LI":"公正里","LIN":"14鄰","STREET":"西華南街","SECT":" ","MAREA":" ","LANE":" ","ALLEY":" ","HOUSE_NO":"３５號十五樓之２","E_COORD97":168891.39999999999,"N_COORD97":2543835.0800000001,"ADDRESS":"西華南街３５號十五樓之２","OBJECTID":635166},"geometry":{"x":168891.4000000013,"y":2543835.0800000019}},{"attributes":{"ID":635194,"DIS_CODE":0,"TOWNNAME":"中西區","LI":"安海里","LIN":"7鄰","STREET":"中正路","SECT":" ","MAREA":" ","LANE":" ","ALLEY":" ","HOUSE_NO":"３５６號十二樓之６","E_COORD97":167399.48999999999,"N_COORD97":2543870.4900000002,"ADDRESS":"中正路３５６號十二樓之６","OBJECTID":635167},"geometry":{"x":167399.49000000022,"y":2543870.4900000002}},{"attributes":{"ID":635195,"DIS_CODE":0,"TOWNNAME":"中西區","LI":"安海里","LIN":"7鄰","STREET":"中正路","SECT":" ","MAREA":" ","LANE":" ","ALLEY":" ","HOUSE_NO":"３５６號十二樓之７","E_COORD97":167399.48999999999,"N_COORD97":2543870.4900000002,"ADDRESS":"中正路３５６號十二樓之７","OBJECTID":635168},"geometry":{"x":167399.49000000022,"y":2543870.4900000002}},{"attributes":{"ID":635196,"DIS_CODE":0,"TOWNNAME":"中西區","LI":"安海里","LIN":"7鄰","STREET":"中正路","SECT":" ","MAREA":" ","LANE":" ","ALLEY":" ","HOUSE_NO":"３５６號十三樓之１","E_COORD97":167399.48999999999,"N_COORD97":2543870.4900000002,"ADDRESS":"中正路３５６號十三樓之１","OBJECTID":635169},"geometry":{"x":167399.49000000022,"y":2543870.4900000002}},{"attributes":{"ID":635197,"DIS_CODE":0,"TOWNNAME":"麻豆區","LI":"\u25A0江里","LIN":"18鄰","STREET":"興南路","SECT":" ","MAREA":" ","LANE":" ","ALLEY":" ","HOUSE_NO":"１２９號四樓","E_COORD97":173407.22,"N_COORD97":2564763.1200000001,"ADDRESS":"興南路１２９號四樓","OBJECTID":635170},"geometry":{"x":173407.21999999881,"y":2564763.120000001}},{"attributes":{"ID":635198,"DIS_CODE":0,"TOWNNAME":"麻豆區","LI":"\u25A0江里","LIN":"18鄰","STREET":"興南路","SECT":" ","MAREA":" ","LANE":" ","ALLEY":" ","HOUSE_NO":"１３１號二樓","E_COORD97":173412.42000000001,"N_COORD97":2564762.8700000001,"ADDRESS":"興南路１３１號二樓","OBJECTID":635171},"geometry":{"x":173412.41999999993,"y":2564762.8700000029}},{"attributes":{"ID":635199,"DIS_CODE":0,"TOWNNAME":"麻豆區","LI":"\u25A0江里","LIN":"18鄰","STREET":"興南路","SECT":" ","MAREA":" ","LANE":" ","ALLEY":" ","HOUSE_NO":"１３１號三樓","E_COORD97":173412.42000000001,"N_COORD97":2564762.8700000001,"ADDRESS":"興南路１３１號三樓","OBJECTID":635172},"geometry":{"x":173412.41999999993,"y":2564762.8700000029}},{"attributes":{"ID":635200,"DIS_CODE":0,"TOWNNAME":"麻豆區","LI":"\u25A0江里","LIN":"18鄰","STREET":"興南路","SECT":" ","MAREA":" ","LANE":" ","ALLEY":" ","HOUSE_NO":"１３１號五樓","E_COORD97":173412.42000000001,"N_COORD97":2564762.8700000001,"ADDRESS":"興南路１３１號五樓","OBJECTID":635173},"geometry":{"x":173412.41999999993,"y":2564762.8700000029}},{"attributes":{"ID":635201,"DIS_CODE":0,"TOWNNAME":"麻豆區","LI":"\u25A0江里","LIN":"18鄰","STREET":"興南路","SECT":" ","MAREA":" ","LANE":" ","ALLEY":" ","HOUSE_NO":"１３１號四樓","E_COORD97":173412.42000000001,"N_COORD97":2564762.8700000001,"ADDRESS":"興南路１３１號四樓","OBJECTID":635174},"geometry":{"x":173412.41999999993,"y":2564762.8700000029}},{"attributes":{"ID":635202,"DIS_CODE":0,"TOWNNAME":"永康區","LI":"永康里","LIN":"26鄰","STREET":"中山北路","SECT":" ","MAREA":" ","LANE":" ","ALLEY":" ","HOUSE_NO":"７２號六樓之１","E_COORD97":174076.98999999999,"N_COORD97":2547388.7599999998,"ADDRESS":"中山北路７２號六樓之１","OBJECTID":635175},"geometry":{"x":174076.99000000022,"y":2547388.7600000035}},{"attributes":{"ID":635203,"DIS_CODE":0,"TOWNNAME":"永康區","LI":"安康里","LIN":"26鄰","STREET":"大橋一街","SECT":" ","MAREA":" ","LANE":" ","ALLEY":" ","HOUSE_NO":"５３號十樓之２","E_COORD97":170778.87,"N_COORD97":2546346.7999999998,"ADDRESS":"大橋一街５３號十樓之２","OBJECTID":635176},"geometry":{"x":170778.87000000011,"y":2546346.8000000026}},{"attributes":{"ID":635204,"DIS_CODE":0,"TOWNNAME":"永康區","LI":"永康里","LIN":"26鄰","STREET":"中山北路","SECT":" ","MAREA":" ","LANE":" ","ALLEY":" ","HOUSE_NO":"１１４號十六樓之３","E_COORD97":174165.09,"N_COORD97":2547447.25,"ADDRESS":"中山北路１１４號十六樓之３","OBJECTID":635177},"geometry":{"x":174165.09000000078,"y":2547447.2500000019}},{"attributes":{"ID":635205,"DIS_CODE":0,"TOWNNAME":"永康區","LI":"永康里","LIN":"26鄰","STREET":"中山北路","SECT":" ","MAREA":" ","LANE":" ","ALLEY":" ","HOUSE_NO":"７２號三樓之２","E_COORD97":174077.12,"N_COORD97":2547388.7599999998,"ADDRESS":"中山北路７２號三樓之２","OBJECTID":635178},"geometry":{"x":174077.12000000011,"y":2547388.7600000035}},{"attributes":{"ID":635206,"DIS_CODE":0,"TOWNNAME":"永康區","LI":"永康里","LIN":"26鄰","STREET":"中山北路","SECT":" ","MAREA":" ","LANE":" ","ALLEY":" ","HOUSE_NO":"１１４號十樓之４","E_COORD97":174163.76000000001,"N_COORD97":2547447.25,"ADDRESS":"中山北路１１４號十樓之４","OBJECTID":635179},"geometry":{"x":174163.76000000071,"y":2547447.2500000019}},{"attributes":{"ID":635207,"DIS_CODE":0,"TOWNNAME":"永康區","LI":"正強里","LIN":"41鄰","STREET":"正強街","SECT":" ","MAREA":" ","LANE":" ","ALLEY":" ","HOUSE_NO":"２９０號八樓之１","E_COORD97":173302.91,"N_COORD97":2547926.29,"ADDRESS":"正強街２９０號八樓之１","OBJECTID":635180},"geometry":{"x":173302.90999999922,"y":2547926.2899999991}},{"attributes":{"ID":635208,"DIS_CODE":0,"TOWNNAME":"永康區","LI":"永康里","LIN":"40鄰","STREET":"永大二路","SECT":" ","MAREA":" ","LANE":" ","ALLEY":" ","HOUSE_NO":"５０號五樓之１","E_COORD97":174243.35999999999,"N_COORD97":2546574.3399999999,"ADDRESS":"永大二路５０號五樓之１","OBJECTID":635181},"geometry":{"x":174243.36000000127,"y":2546574.3399999999}},{"attributes":{"ID":635209,"DIS_CODE":0,"TOWNNAME":"永康區","LI":"永康里","LIN":"40鄰","STREET":"永大二路","SECT":" ","MAREA":" ","LANE":" ","ALLEY":" ","HOUSE_NO":"５２號六樓之２","E_COORD97":174255.98000000001,"N_COORD97":2546565.0899999999,"ADDRESS":"永大二路５２號六樓之２","OBJECTID":635182},"geometry":{"x":174255.98000000138,"y":2546565.0899999999}},{"attributes":{"ID":635210,"DIS_CODE":0,"TOWNNAME":"永康區","LI":"永康里","LIN":"26鄰","STREET":"中山北路","SECT":" ","MAREA":" ","LANE":" ","ALLEY":" ","HOUSE_NO":"１１４號十七樓之４","E_COORD97":174165.01000000001,"N_COORD97":2547447.25,"ADDRESS":"中山北路１１４號十七樓之４","OBJECTID":635183},"geometry":{"x":174165.01000000071,"y":2547447.2500000019}},{"attributes":{"ID":635211,"DIS_CODE":0,"TOWNNAME":"永康區","LI":"永康里","LIN":"26鄰","STREET":"永大路","SECT":"二段","MAREA":" ","LANE":" ","ALLEY":" ","HOUSE_NO":"１１２９號十七樓之３","E_COORD97":174199.79000000001,"N_COORD97":2547482.3599999999,"ADDRESS":"永大路二段１１２９號十七樓之３","OBJECTID":635184},"geometry":{"x":174199.79000000004,"y":2547482.3599999994}},{"attributes":{"ID":635212,"DIS_CODE":0,"TOWNNAME":"永康區","LI":"永康里","LIN":"26鄰","STREET":"中山北路","SECT":" ","MAREA":" ","LANE":" ","ALLEY":" ","HOUSE_NO":"１１４號十七樓之３","E_COORD97":174165.09,"N_COORD97":2547447.25,"ADDRESS":"中山北路１１４號十七樓之３","OBJECTID":635185},"geometry":{"x":174165.09000000078,"y":2547447.2500000019}},{"attributes":{"ID":635213,"DIS_CODE":0,"TOWNNAME":"永康區","LI":"永康里","LIN":"26鄰","STREET":"永大路","SECT":"二段","MAREA":" ","LANE":" ","ALLEY":" ","HOUSE_NO":"１１２９號十三樓之６","E_COORD97":174199.79000000001,"N_COORD97":2547482.3599999999,"ADDRESS":"永大路二段１１２９號十三樓之６","OBJECTID":635186},"geometry":{"x":174199.79000000004,"y":2547482.3599999994}},{"attributes":{"ID":635214,"DIS_CODE":0,"TOWNNAME":"永康區","LI":"永康里","LIN":"26鄰","STREET":"中山北路","SECT":" ","MAREA":" ","LANE":" ","ALLEY":" ","HOUSE_NO":"１１４號二樓之１","E_COORD97":174163.73999999999,"N_COORD97":2547447.25,"ADDRESS":"中山北路１１４號二樓之１","OBJECTID":635187},"geometry":{"x":174163.74000000209,"y":2547447.2500000019}},{"attributes":{"ID":635215,"DIS_CODE":0,"TOWNNAME":"永康區","LI":"永康里","LIN":"26鄰","STREET":"永大路","SECT":"二段","MAREA":" ","LANE":" ","ALLEY":" ","HOUSE_NO":"１１２９號十一樓之７","E_COORD97":174199.76999999999,"N_COORD97":2547482.3599999999,"ADDRESS":"永大路二段１１２９號十一樓之７","OBJECTID":635188},"geometry":{"x":174199.76999999955,"y":2547482.3599999994}},{"attributes":{"ID":635216,"DIS_CODE":0,"TOWNNAME":"永康區","LI":"安康里","LIN":"26鄰","STREET":"大橋一街","SECT":" ","MAREA":" ","LANE":" ","ALLEY":" ","HOUSE_NO":"５３號三樓之１","E_COORD97":170778.73000000001,"N_COORD97":2546346.7999999998,"ADDRESS":"大橋一街５３號三樓之１","OBJECTID":635189},"geometry":{"x":170778.73000000231,"y":2546346.8000000026}},{"attributes":{"ID":635217,"DIS_CODE":0,"TOWNNAME":"永康區","LI":"安康里","LIN":"25鄰","STREET":"大橋一街","SECT":" ","MAREA":" ","LANE":" ","ALLEY":" ","HOUSE_NO":"１４４號五樓","E_COORD97":170862.06,"N_COORD97":2546356.5,"ADDRESS":"大橋一街１４４號五樓","OBJECTID":635190},"geometry":{"x":170862.06000000145,"y":2546356.5}},{"attributes":{"ID":635218,"DIS_CODE":0,"TOWNNAME":"永康區","LI":"永康里","LIN":"42鄰","STREET":"永大二路","SECT":" ","MAREA":" ","LANE":" ","ALLEY":" ","HOUSE_NO":"８７號五樓","E_COORD97":174151.56,"N_COORD97":2546513.7599999998,"ADDRESS":"永大二路８７號五樓","OBJECTID":635191},"geometry":{"x":174151.55999999959,"y":2546513.7599999998}},{"attributes":{"ID":635219,"DIS_CODE":0,"TOWNNAME":"永康區","LI":"永康里","LIN":"26鄰","STREET":"中山北路","SECT":" ","MAREA":" ","LANE":" ","ALLEY":" ","HOUSE_NO":"１１４號六樓之１","E_COORD97":174163.73999999999,"N_COORD97":2547447.25,"ADDRESS":"中山北路１１４號六樓之１","OBJECTID":635192},"geometry":{"x":174163.74000000209,"y":2547447.2500000019}},{"attributes":{"ID":635220,"DIS_CODE":0,"TOWNNAME":"永康區","LI":"永康里","LIN":"26鄰","STREET":"中山北路","SECT":" ","MAREA":" ","LANE":" ","ALLEY":" ","HOUSE_NO":"１１４號十一樓之５","E_COORD97":174165.14000000001,"N_COORD97":2547447.25,"ADDRESS":"中山北路１１４號十一樓之５","OBJECTID":635193},"geometry":{"x":174165.13999999966,"y":2547447.2500000019}},{"attributes":{"ID":635221,"DIS_CODE":0,"TOWNNAME":"永康區","LI":"安康里","LIN":"26鄰","STREET":"大橋一街","SECT":" ","MAREA":" ","LANE":" ","ALLEY":" ","HOUSE_NO":"５３號十樓之１","E_COORD97":170778.73000000001,"N_COORD97":2546346.7999999998,"ADDRESS":"大橋一街５３號十樓之１","OBJECTID":635194},"geometry":{"x":170778.73000000231,"y":2546346.8000000026}},{"attributes":{"ID":635222,"DIS_CODE":0,"TOWNNAME":"永康區","LI":"永康里","LIN":"26鄰","STREET":"中山北路","SECT":" ","MAREA":" ","LANE":" ","ALLEY":" ","HOUSE_NO":"１１４號十四樓之３","E_COORD97":174165.09,"N_COORD97":2547447.25,"ADDRESS":"中山北路１１４號十四樓之３","OBJECTID":635195},"geometry":{"x":174165.09000000078,"y":2547447.2500000019}},{"attributes":{"ID":635223,"DIS_CODE":0,"TOWNNAME":"永康區","LI":"安康里","LIN":"26鄰","STREET":"大橋一街","SECT":" ","MAREA":" ","LANE":" ","ALLEY":" ","HOUSE_NO":"５３號六樓之１","E_COORD97":170778.73000000001,"N_COORD97":2546346.7999999998,"ADDRESS":"大橋一街５３號六樓之１","OBJECTID":635196},"geometry":{"x":170778.73000000231,"y":2546346.8000000026}},{"attributes":{"ID":635224,"DIS_CODE":0,"TOWNNAME":"永康區","LI":"安康里","LIN":"25鄰","STREET":"大橋一街","SECT":" ","MAREA":" ","LANE":" ","ALLEY":" ","HOUSE_NO":"１４４號二樓","E_COORD97":170862.06,"N_COORD97":2546356.5,"ADDRESS":"大橋一街１４４號二樓","OBJECTID":635197},"geometry":{"x":170862.06000000145,"y":2546356.5}},{"attributes":{"ID":635225,"DIS_CODE":0,"TOWNNAME":"永康區","LI":"永康里","LIN":"40鄰","STREET":"永大二路","SECT":" ","MAREA":" ","LANE":" ","ALLEY":" ","HOUSE_NO":"５２號九樓之２","E_COORD97":174255.98000000001,"N_COORD97":2546565.0899999999,"ADDRESS":"永大二路５２號九樓之２","OBJECTID":635198},"geometry":{"x":174255.98000000138,"y":2546565.0899999999}},{"attributes":{"ID":635226,"DIS_CODE":0,"TOWNNAME":"永康區","LI":"永康里","LIN":"26鄰","STREET":"中山北路","SECT":" ","MAREA":" ","LANE":" ","ALLEY":" ","HOUSE_NO":"１１４號四樓之２","E_COORD97":174163.87,"N_COORD97":2547447.25,"ADDRESS":"中山北路１１４號四樓之２","OBJECTID":635199},"geometry":{"x":174163.87000000011,"y":2547447.2500000019}},{"attributes":{"ID":635227,"DIS_CODE":0,"TOWNNAME":"玉井區","LI":"玉井里","LIN":"10鄰","STREET":"民生路","SECT":" ","MAREA":" ","LANE":" ","ALLEY":" ","HOUSE_NO":"１號一樓之３","E_COORD97":194738.72,"N_COORD97":2558189.29,"ADDRESS":"民生路１號一樓之３","OBJECTID":635200},"geometry":{"x":194738.71999999974,"y":2558189.2899999991}}]}