{"displayFieldName":"TOWNNAME","fieldAliases":{"ID":"ID","DIS_CODE":"DIS_CODE","TOWNNAME":"TOWNNAME","LI":"LI","LIN":"LIN","STREET":"STREET","SECT":"SECT","MAREA":"MAREA","LANE":"LANE","ALLEY":"ALLEY","HOUSE_NO":"HOUSE_NO","E_COORD97":"E_COORD97","N_COORD97":"N_COORD97","ADDRESS":"ADDRESS","OBJECTID":"OBJECTID"},"geometryType":"esriGeometryPoint","spatialReference":{"wkid":102443,"latestWkid":3826},"fields":[{"name":"ID","type":"esriFieldTypeDouble","alias":"ID"},{"name":"DIS_CODE","type":"esriFieldTypeInteger","alias":"DIS_CODE"},{"name":"TOWNNAME","type":"esriFieldTypeString","alias":"TOWNNAME","length":8},{"name":"LI","type":"esriFieldTypeString","alias":"LI","length":8},{"name":"LIN","type":"esriFieldTypeString","alias":"LIN","length":12},{"name":"STREET","type":"esriFieldTypeString","alias":"STREET","length":20},{"name":"SECT","type":"esriFieldTypeString","alias":"SECT","length":8},{"name":"MAREA","type":"esriFieldTypeString","alias":"MAREA","length":12},{"name":"LANE","type":"esriFieldTypeString","alias":"LANE","length":10},{"name":"ALLEY","type":"esriFieldTypeString","alias":"ALLEY","length":10},{"name":"HOUSE_NO","type":"esriFieldTypeString","alias":"HOUSE_NO","length":20},{"name":"E_COORD97","type":"esriFieldTypeDouble","alias":"E_COORD97"},{"name":"N_COORD97","type":"esriFieldTypeDouble","alias":"N_COORD97"},{"name":"ADDRESS","type":"esriFieldTypeString","alias":"ADDRESS","length":50},{"name":"OBJECTID","type":"esriFieldTypeOID","alias":"OBJECTID"}],"features":[{"attributes":{"ID":7001,"DIS_CODE":0,"TOWNNAME":"仁德區","LI":"太子里","LIN":"42鄰","STREET":"太子路","SECT":" ","MAREA":" ","LANE":" ","ALLEY":" ","HOUSE_NO":"３２號","E_COORD97":175309.04757699999,"N_COORD97":2543572.85427,"ADDRESS":"太子路３２號","OBJECTID":7001},"geometry":{"x":175309.04757700115,"y":2543572.854267003}},{"attributes":{"ID":7002,"DIS_CODE":0,"TOWNNAME":"仁德區","LI":"太子里","LIN":"42鄰","STREET":"太子路","SECT":" ","MAREA":" ","LANE":" ","ALLEY":" ","HOUSE_NO":"３４號","E_COORD97":175305.02390900001,"N_COORD97":2543593.3859199998,"ADDRESS":"太子路３４號","OBJECTID":7002},"geometry":{"x":175305.02390900068,"y":2543593.3859220017}},{"attributes":{"ID":7003,"DIS_CODE":0,"TOWNNAME":"安南區","LI":"佃西里","LIN":"2鄰","STREET":"十二佃路","SECT":" ","MAREA":" ","LANE":"２１３巷","ALLEY":" ","HOUSE_NO":"１１號","E_COORD97":165296.64022199999,"N_COORD97":2552072.0737000001,"ADDRESS":"十二佃路２１３巷１１號","OBJECTID":7003},"geometry":{"x":165296.64022200089,"y":2552072.0737049989}},{"attributes":{"ID":7004,"DIS_CODE":0,"TOWNNAME":"歸仁區","LI":"南保里","LIN":"43鄰","STREET":"民權十街","SECT":" ","MAREA":" ","LANE":" ","ALLEY":" ","HOUSE_NO":"１１號","E_COORD97":176925.75671700001,"N_COORD97":2540724.0028599999,"ADDRESS":"民權十街１１號","OBJECTID":7004},"geometry":{"x":176925.75671700016,"y":2540724.0028569978}},{"attributes":{"ID":7005,"DIS_CODE":0,"TOWNNAME":"安南區","LI":"佃西里","LIN":"2鄰","STREET":"十二佃路","SECT":" ","MAREA":" ","LANE":"２１３巷","ALLEY":" ","HOUSE_NO":"１３號","E_COORD97":165292.82660900001,"N_COORD97":2552073.2378699998,"ADDRESS":"十二佃路２１３巷１３號","OBJECTID":7005},"geometry":{"x":165292.82660899963,"y":2552073.2378710024}},{"attributes":{"ID":7006,"DIS_CODE":0,"TOWNNAME":"官田區","LI":"隆田里","LIN":"22鄰","STREET":"信義街","SECT":"一段","MAREA":" ","LANE":" ","ALLEY":" ","HOUSE_NO":"１２２號","E_COORD97":179720.848405,"N_COORD97":2565686.72267,"ADDRESS":"信義街一段１２２號","OBJECTID":7006},"geometry":{"x":179720.84840499889,"y":2565686.7226660028}},{"attributes":{"ID":7007,"DIS_CODE":0,"TOWNNAME":"玉井區","LI":"竹圍里","LIN":"16鄰","STREET":"忠孝街","SECT":" ","MAREA":" ","LANE":" ","ALLEY":" ","HOUSE_NO":"２５９號","E_COORD97":195507.21033199999,"N_COORD97":2558283.3616999998,"ADDRESS":"忠孝街２５９號","OBJECTID":7007},"geometry":{"x":195507.2103319997,"y":2558283.3617009986}},{"attributes":{"ID":7008,"DIS_CODE":0,"TOWNNAME":"官田區","LI":"隆田里","LIN":"22鄰","STREET":"信義街","SECT":"一段","MAREA":" ","LANE":" ","ALLEY":" ","HOUSE_NO":"１２０號","E_COORD97":179718.41193,"N_COORD97":2565686.8284999998,"ADDRESS":"信義街一段１２０號","OBJECTID":7008},"geometry":{"x":179718.41193000041,"y":2565686.8284990024}},{"attributes":{"ID":7009,"DIS_CODE":0,"TOWNNAME":"東山區","LI":"科里里","LIN":"24鄰","STREET":" ","SECT":" ","MAREA":"科里","LANE":" ","ALLEY":" ","HOUSE_NO":"４０號之４","E_COORD97":189802.66277,"N_COORD97":2578200.5979900002,"ADDRESS":"科里４０號之４","OBJECTID":7009},"geometry":{"x":189802.66277000122,"y":2578200.5979899988}},{"attributes":{"ID":7010,"DIS_CODE":0,"TOWNNAME":"官田區","LI":"隆田里","LIN":"22鄰","STREET":"信義街","SECT":"一段","MAREA":" ","LANE":" ","ALLEY":" ","HOUSE_NO":"１１８號","E_COORD97":179716.293256,"N_COORD97":2565687.3576699998,"ADDRESS":"信義街一段１１８號","OBJECTID":7010},"geometry":{"x":179716.29325600062,"y":2565687.3576650023}},{"attributes":{"ID":7011,"DIS_CODE":0,"TOWNNAME":"安南區","LI":"海東里","LIN":"23鄰","STREET":"同安路","SECT":" ","MAREA":" ","LANE":"１４５巷","ALLEY":"１０弄","HOUSE_NO":"３號","E_COORD97":167034.54961099999,"N_COORD97":2549115.8744399999,"ADDRESS":"同安路１４５巷１０弄３號","OBJECTID":7011},"geometry":{"x":167034.54961100128,"y":2549115.8744420018}},{"attributes":{"ID":7012,"DIS_CODE":0,"TOWNNAME":"玉井區","LI":"竹圍里","LIN":"16鄰","STREET":"忠孝街","SECT":" ","MAREA":" ","LANE":" ","ALLEY":" ","HOUSE_NO":"３５０號","E_COORD97":195523.521782,"N_COORD97":2558263.4650500002,"ADDRESS":"忠孝街３５０號","OBJECTID":7012},"geometry":{"x":195523.52178200148,"y":2558263.4650450014}},{"attributes":{"ID":7013,"DIS_CODE":0,"TOWNNAME":"官田區","LI":"隆田里","LIN":"22鄰","STREET":"信義街","SECT":"一段","MAREA":" ","LANE":" ","ALLEY":" ","HOUSE_NO":"１１６號","E_COORD97":179714.06864799999,"N_COORD97":2565687.4635000001,"ADDRESS":"信義街一段１１６號","OBJECTID":7013},"geometry":{"x":179714.06864800025,"y":2565687.4634990022}},{"attributes":{"ID":7014,"DIS_CODE":0,"TOWNNAME":"官田區","LI":"隆田里","LIN":"22鄰","STREET":"信義街","SECT":"一段","MAREA":" ","LANE":" ","ALLEY":" ","HOUSE_NO":"１１２號","E_COORD97":179711.94997399999,"N_COORD97":2565687.6751600001,"ADDRESS":"信義街一段１１２號","OBJECTID":7014},"geometry":{"x":179711.94997400045,"y":2565687.6751649994}},{"attributes":{"ID":7015,"DIS_CODE":0,"TOWNNAME":"仁德區","LI":"太子里","LIN":"42鄰","STREET":"太子路","SECT":" ","MAREA":" ","LANE":" ","ALLEY":" ","HOUSE_NO":"６號","E_COORD97":175399.474219,"N_COORD97":2543579.4159300001,"ADDRESS":"太子路６號","OBJECTID":7015},"geometry":{"x":175399.47421900183,"y":2543579.4159299992}},{"attributes":{"ID":7016,"DIS_CODE":0,"TOWNNAME":"歸仁區","LI":"南保里","LIN":"43鄰","STREET":"民權十街","SECT":" ","MAREA":" ","LANE":" ","ALLEY":" ","HOUSE_NO":"１３號","E_COORD97":176921.73060499999,"N_COORD97":2540724.95536,"ADDRESS":"民權十街１３號","OBJECTID":7016},"geometry":{"x":176921.73060500063,"y":2540724.9553560019}},{"attributes":{"ID":7017,"DIS_CODE":0,"TOWNNAME":"官田區","LI":"隆田里","LIN":"22鄰","STREET":"信義街","SECT":"一段","MAREA":" ","LANE":" ","ALLEY":" ","HOUSE_NO":"１１０號","E_COORD97":179709.51349799999,"N_COORD97":2565687.8868300002,"ADDRESS":"信義街一段１１０號","OBJECTID":7017},"geometry":{"x":179709.51349799987,"y":2565687.8868320007}},{"attributes":{"ID":7018,"DIS_CODE":0,"TOWNNAME":"官田區","LI":"隆田里","LIN":"22鄰","STREET":"信義街","SECT":"一段","MAREA":" ","LANE":" ","ALLEY":" ","HOUSE_NO":"１０８號","E_COORD97":179707.18295700001,"N_COORD97":2565687.99266,"ADDRESS":"信義街一段１０８號","OBJECTID":7018},"geometry":{"x":179707.18295700103,"y":2565687.9926650021}},{"attributes":{"ID":7019,"DIS_CODE":0,"TOWNNAME":"玉井區","LI":"竹圍里","LIN":"9鄰","STREET":"\u25A0吧哖東路","SECT":" ","MAREA":" ","LANE":"２０７巷","ALLEY":" ","HOUSE_NO":"２１號","E_COORD97":196067.09557999999,"N_COORD97":2558984.6129800002,"ADDRESS":"\u25A0吧哖東路２０７巷２１號","OBJECTID":7019},"geometry":{"x":196067.09558000229,"y":2558984.6129800007}},{"attributes":{"ID":7020,"DIS_CODE":0,"TOWNNAME":"官田區","LI":"隆田里","LIN":"22鄰","STREET":"信義街","SECT":"一段","MAREA":" ","LANE":" ","ALLEY":" ","HOUSE_NO":"１０６號","E_COORD97":179704.95834899999,"N_COORD97":2565687.99266,"ADDRESS":"信義街一段１０６號","OBJECTID":7020},"geometry":{"x":179704.95834900066,"y":2565687.9926650021}},{"attributes":{"ID":7021,"DIS_CODE":0,"TOWNNAME":"東山區","LI":"科里里","LIN":"9鄰","STREET":" ","SECT":" ","MAREA":"科里","LANE":" ","ALLEY":" ","HOUSE_NO":"４８號之３","E_COORD97":190016.46913000001,"N_COORD97":2578137.09803,"ADDRESS":"科里４８號之３","OBJECTID":7021},"geometry":{"x":190016.46912999917,"y":2578137.0980300009}},{"attributes":{"ID":7022,"DIS_CODE":0,"TOWNNAME":"官田區","LI":"隆田里","LIN":"22鄰","STREET":"信義街","SECT":"一段","MAREA":" ","LANE":" ","ALLEY":" ","HOUSE_NO":"１０２號","E_COORD97":179702.62780700001,"N_COORD97":2565688.31017,"ADDRESS":"信義街一段１０２號","OBJECTID":7022},"geometry":{"x":179702.62780700065,"y":2565688.3101649992}},{"attributes":{"ID":7023,"DIS_CODE":0,"TOWNNAME":"安南區","LI":"原佃里","LIN":"7鄰","STREET":"安中路","SECT":"二段","MAREA":" ","LANE":" ","ALLEY":" ","HOUSE_NO":"３０號","E_COORD97":166980.848883,"N_COORD97":2549608.6159600001,"ADDRESS":"安中路二段３０號","OBJECTID":7023},"geometry":{"x":166980.84888300113,"y":2549608.6159589998}},{"attributes":{"ID":7024,"DIS_CODE":0,"TOWNNAME":"官田區","LI":"隆田里","LIN":"22鄰","STREET":"信義街","SECT":"一段","MAREA":" ","LANE":" ","ALLEY":" ","HOUSE_NO":"１００號","E_COORD97":179700.40319899999,"N_COORD97":2565688.52183,"ADDRESS":"信義街一段１００號","OBJECTID":7024},"geometry":{"x":179700.40319900028,"y":2565688.5218310021}},{"attributes":{"ID":7025,"DIS_CODE":0,"TOWNNAME":"官田區","LI":"隆田里","LIN":"22鄰","STREET":"信義街","SECT":"一段","MAREA":" ","LANE":" ","ALLEY":" ","HOUSE_NO":"９８號","E_COORD97":179698.60232599999,"N_COORD97":2565688.6276699998,"ADDRESS":"信義街一段９８號","OBJECTID":7025},"geometry":{"x":179698.60232600104,"y":2565688.6276650019}},{"attributes":{"ID":7026,"DIS_CODE":0,"TOWNNAME":"安南區","LI":"原佃里","LIN":"7鄰","STREET":"安中路","SECT":"二段","MAREA":" ","LANE":" ","ALLEY":" ","HOUSE_NO":"３６號","E_COORD97":166971.47838099999,"N_COORD97":2549610.3506900002,"ADDRESS":"安中路二段３６號","OBJECTID":7026},"geometry":{"x":166971.47838100046,"y":2549610.3506930023}},{"attributes":{"ID":7027,"DIS_CODE":0,"TOWNNAME":"官田區","LI":"隆田里","LIN":"22鄰","STREET":"信義街","SECT":"一段","MAREA":" ","LANE":" ","ALLEY":" ","HOUSE_NO":"９６號","E_COORD97":179696.58958599999,"N_COORD97":2565688.7335000001,"ADDRESS":"信義街一段９６號","OBJECTID":7027},"geometry":{"x":179696.58958600182,"y":2565688.7334980033}},{"attributes":{"ID":7028,"DIS_CODE":0,"TOWNNAME":"官田區","LI":"隆田里","LIN":"22鄰","STREET":"信義街","SECT":"一段","MAREA":" ","LANE":" ","ALLEY":" ","HOUSE_NO":"９２號","E_COORD97":179694.47091100001,"N_COORD97":2565688.7335000001,"ADDRESS":"信義街一段９２號","OBJECTID":7028},"geometry":{"x":179694.47091099992,"y":2565688.7334980033}},{"attributes":{"ID":7029,"DIS_CODE":0,"TOWNNAME":"安南區","LI":"海東里","LIN":"9鄰","STREET":"海佃路","SECT":"二段","MAREA":" ","LANE":"４６１巷","ALLEY":" ","HOUSE_NO":"４２號之１","E_COORD97":166591.819525,"N_COORD97":2549054.4911400001,"ADDRESS":"海佃路二段４６１巷４２號之１","OBJECTID":7029},"geometry":{"x":166591.81952499971,"y":2549054.4911420047}},{"attributes":{"ID":7030,"DIS_CODE":0,"TOWNNAME":"仁德區","LI":"中洲里","LIN":"7鄰","STREET":" ","SECT":" ","MAREA":"中洲","LANE":" ","ALLEY":" ","HOUSE_NO":"２７５號之１１","E_COORD97":173139.008222,"N_COORD97":2534195.3216900001,"ADDRESS":"中洲２７５號之１１","OBJECTID":7030},"geometry":{"x":173139.00822199974,"y":2534195.3216950018}},{"attributes":{"ID":7031,"DIS_CODE":0,"TOWNNAME":"官田區","LI":"隆田里","LIN":"22鄰","STREET":"信義街","SECT":"一段","MAREA":" ","LANE":" ","ALLEY":" ","HOUSE_NO":"９０號","E_COORD97":179692.775972,"N_COORD97":2565688.9451600001,"ADDRESS":"信義街一段９０號","OBJECTID":7031},"geometry":{"x":179692.77597200125,"y":2565688.9451640006}},{"attributes":{"ID":7032,"DIS_CODE":0,"TOWNNAME":"東山區","LI":"科里里","LIN":"9鄰","STREET":" ","SECT":" ","MAREA":"科里","LANE":" ","ALLEY":" ","HOUSE_NO":"４９號之１","E_COORD97":190037.65906000001,"N_COORD97":2578170.1180099999,"ADDRESS":"科里４９號之１","OBJECTID":7032},"geometry":{"x":190037.65906000137,"y":2578170.1180100031}},{"attributes":{"ID":7033,"DIS_CODE":0,"TOWNNAME":"玉井區","LI":"中正里","LIN":"11鄰","STREET":" ","SECT":" ","MAREA":"中正","LANE":" ","ALLEY":" ","HOUSE_NO":"１２５之２號","E_COORD97":194781.03302,"N_COORD97":2562195.80626,"ADDRESS":"中正１２５之２號","OBJECTID":7033},"geometry":{"x":194781.03301999997,"y":2562195.8062549997}},{"attributes":{"ID":7034,"DIS_CODE":0,"TOWNNAME":"官田區","LI":"隆田里","LIN":"22鄰","STREET":"信義街","SECT":"一段","MAREA":" ","LANE":"１２８巷","ALLEY":" ","HOUSE_NO":"８號","E_COORD97":179724.97982000001,"N_COORD97":2565677.9385000002,"ADDRESS":"信義街一段１２８巷８號","OBJECTID":7034},"geometry":{"x":179724.97982000094,"y":2565677.9385039993}},{"attributes":{"ID":7035,"DIS_CODE":0,"TOWNNAME":"東山區","LI":"科里里","LIN":"9鄰","STREET":" ","SECT":" ","MAREA":"科里","LANE":" ","ALLEY":" ","HOUSE_NO":"５０號之２","E_COORD97":189996.55059999999,"N_COORD97":2578143.23636,"ADDRESS":"科里５０號之２","OBJECTID":7035},"geometry":{"x":189996.55059999973,"y":2578143.2363599986}},{"attributes":{"ID":7036,"DIS_CODE":0,"TOWNNAME":"官田區","LI":"隆田里","LIN":"22鄰","STREET":"信義街","SECT":"一段","MAREA":" ","LANE":"１２８巷","ALLEY":" ","HOUSE_NO":"１０號","E_COORD97":179724.76795199999,"N_COORD97":2565674.76351,"ADDRESS":"信義街一段１２８巷１０號","OBJECTID":7036},"geometry":{"x":179724.76795200072,"y":2565674.7635050006}},{"attributes":{"ID":7037,"DIS_CODE":0,"TOWNNAME":"官田區","LI":"隆田里","LIN":"22鄰","STREET":"信義街","SECT":"一段","MAREA":" ","LANE":"１２８巷","ALLEY":" ","HOUSE_NO":"１２號","E_COORD97":179724.34421800001,"N_COORD97":2565671.4826699998,"ADDRESS":"信義街一段１２８巷１２號","OBJECTID":7037},"geometry":{"x":179724.34421800077,"y":2565671.4826740008}},{"attributes":{"ID":7038,"DIS_CODE":0,"TOWNNAME":"安南區","LI":"原佃里","LIN":"7鄰","STREET":"安中路","SECT":"二段","MAREA":" ","LANE":" ","ALLEY":" ","HOUSE_NO":"３２號","E_COORD97":166974.94893700001,"N_COORD97":2549608.9629099998,"ADDRESS":"安中路二段３２號","OBJECTID":7038},"geometry":{"x":166974.94893700164,"y":2549608.9629059993}},{"attributes":{"ID":7039,"DIS_CODE":0,"TOWNNAME":"仁德區","LI":"中洲里","LIN":"7鄰","STREET":" ","SECT":" ","MAREA":"中洲","LANE":" ","ALLEY":" ","HOUSE_NO":"２８９號之１","E_COORD97":173296.63492700001,"N_COORD97":2534045.0384399998,"ADDRESS":"中洲２８９號之１","OBJECTID":7039},"geometry":{"x":173296.63492699992,"y":2534045.038443001}},{"attributes":{"ID":7040,"DIS_CODE":0,"TOWNNAME":"官田區","LI":"隆田里","LIN":"22鄰","STREET":"信義街","SECT":"一段","MAREA":" ","LANE":"１２８巷","ALLEY":" ","HOUSE_NO":"１６號","E_COORD97":179724.23828399999,"N_COORD97":2565667.7785100001,"ADDRESS":"信義街一段１２８巷１６號","OBJECTID":7040},"geometry":{"x":179724.23828400113,"y":2565667.7785090022}},{"attributes":{"ID":7041,"DIS_CODE":0,"TOWNNAME":"東山區","LI":"科里里","LIN":"11鄰","STREET":" ","SECT":" ","MAREA":"科里","LANE":" ","ALLEY":" ","HOUSE_NO":"５７號之１０","E_COORD97":190855.16644,"N_COORD97":2577381.2367699998,"ADDRESS":"科里５７號之１０","OBJECTID":7041},"geometry":{"x":190855.16644000076,"y":2577381.2367700003}},{"attributes":{"ID":7042,"DIS_CODE":0,"TOWNNAME":"安南區","LI":"原佃里","LIN":"7鄰","STREET":"安吉路","SECT":"一段","MAREA":" ","LANE":"２９０巷","ALLEY":"３２弄","HOUSE_NO":"１３６號","E_COORD97":166994.03699699999,"N_COORD97":2549643.6575699998,"ADDRESS":"安吉路一段２９０巷３２弄１３６號","OBJECTID":7042},"geometry":{"x":166994.03699699976,"y":2549643.6575700007}},{"attributes":{"ID":7043,"DIS_CODE":0,"TOWNNAME":"仁德區","LI":"太子里","LIN":"42鄰","STREET":"太子路","SECT":" ","MAREA":" ","LANE":"２８巷","ALLEY":" ","HOUSE_NO":"１７號","E_COORD97":175305.32490000001,"N_COORD97":2543648.0807099999,"ADDRESS":"太子路２８巷１７號","OBJECTID":7043},"geometry":{"x":175305.32490000036,"y":2543648.0807119999}},{"attributes":{"ID":7044,"DIS_CODE":0,"TOWNNAME":"安南區","LI":"佃西里","LIN":"2鄰","STREET":"十二佃路","SECT":" ","MAREA":" ","LANE":"２１３巷","ALLEY":" ","HOUSE_NO":"１９號","E_COORD97":165278.419624,"N_COORD97":2552073.9786999999,"ADDRESS":"十二佃路２１３巷１９號","OBJECTID":7044},"geometry":{"x":165278.41962399986,"y":2552073.9787039999}},{"attributes":{"ID":7045,"DIS_CODE":0,"TOWNNAME":"安南區","LI":"佃西里","LIN":"2鄰","STREET":"十二佃路","SECT":" ","MAREA":" ","LANE":"２１３巷","ALLEY":" ","HOUSE_NO":"２１號","E_COORD97":165273.97040799999,"N_COORD97":2552074.71954,"ADDRESS":"十二佃路２１３巷２１號","OBJECTID":7045},"geometry":{"x":165273.97040800005,"y":2552074.7195360009}},{"attributes":{"ID":7046,"DIS_CODE":0,"TOWNNAME":"安南區","LI":"佃西里","LIN":"2鄰","STREET":"十二佃路","SECT":" ","MAREA":" ","LANE":"２１３巷","ALLEY":" ","HOUSE_NO":"２３號","E_COORD97":165268.88558999999,"N_COORD97":2552073.9786999999,"ADDRESS":"十二佃路２１３巷２３號","OBJECTID":7046},"geometry":{"x":165268.88559000194,"y":2552073.9787039999}},{"attributes":{"ID":7047,"DIS_CODE":0,"TOWNNAME":"安南區","LI":"佃西里","LIN":"2鄰","STREET":"十二佃路","SECT":" ","MAREA":" ","LANE":"２１３巷","ALLEY":" ","HOUSE_NO":"２５號","E_COORD97":165264.43637400001,"N_COORD97":2552074.9312,"ADDRESS":"十二佃路２１３巷２５號","OBJECTID":7047},"geometry":{"x":165264.4363740012,"y":2552074.9312030021}},{"attributes":{"ID":7048,"DIS_CODE":0,"TOWNNAME":"安南區","LI":"佃西里","LIN":"2鄰","STREET":"十二佃路","SECT":" ","MAREA":" ","LANE":"２１３巷","ALLEY":" ","HOUSE_NO":"２７號","E_COORD97":165258.71595400001,"N_COORD97":2552075.6720400001,"ADDRESS":"十二佃路２１３巷２７號","OBJECTID":7048},"geometry":{"x":165258.71595400106,"y":2552075.6720360015}},{"attributes":{"ID":7049,"DIS_CODE":0,"TOWNNAME":"安南區","LI":"佃西里","LIN":"2鄰","STREET":"十二佃路","SECT":" ","MAREA":" ","LANE":"２１３巷","ALLEY":" ","HOUSE_NO":"２９號","E_COORD97":165252.783666,"N_COORD97":2552075.98954,"ADDRESS":"十二佃路２１３巷２９號","OBJECTID":7049},"geometry":{"x":165252.7836660007,"y":2552075.9895360004}},{"attributes":{"ID":7050,"DIS_CODE":0,"TOWNNAME":"安南區","LI":"佃西里","LIN":"2鄰","STREET":"十二佃路","SECT":" ","MAREA":" ","LANE":"２１３巷","ALLEY":" ","HOUSE_NO":"３１號","E_COORD97":165247.698848,"N_COORD97":2552076.73037,"ADDRESS":"十二佃路２１３巷３１號","OBJECTID":7050},"geometry":{"x":165247.69884800073,"y":2552076.7303689998}},{"attributes":{"ID":7051,"DIS_CODE":0,"TOWNNAME":"安南區","LI":"佃西里","LIN":"2鄰","STREET":"十二佃路","SECT":" ","MAREA":" ","LANE":"２１３巷","ALLEY":" ","HOUSE_NO":"３３號","E_COORD97":165241.978428,"N_COORD97":2552077.3653699998,"ADDRESS":"十二佃路２１３巷３３號","OBJECTID":7051},"geometry":{"x":165241.97842800058,"y":2552077.3653680012}},{"attributes":{"ID":7052,"DIS_CODE":0,"TOWNNAME":"安南區","LI":"佃西里","LIN":"2鄰","STREET":"十二佃路","SECT":" ","MAREA":" ","LANE":"２１３巷","ALLEY":" ","HOUSE_NO":"３５號","E_COORD97":165237.95294700001,"N_COORD97":2552078.2120300001,"ADDRESS":"十二佃路２１３巷３５號","OBJECTID":7052},"geometry":{"x":165237.95294700097,"y":2552078.2120350022}},{"attributes":{"ID":7053,"DIS_CODE":0,"TOWNNAME":"安南區","LI":"佃西里","LIN":"2鄰","STREET":"十二佃路","SECT":" ","MAREA":" ","LANE":"２１３巷","ALLEY":" ","HOUSE_NO":"３７號","E_COORD97":165233.71559800001,"N_COORD97":2552078.8470299998,"ADDRESS":"十二佃路２１３巷３７號","OBJECTID":7053},"geometry":{"x":165233.71559800208,"y":2552078.8470340017}},{"attributes":{"ID":7054,"DIS_CODE":0,"TOWNNAME":"安南區","LI":"佃西里","LIN":"2鄰","STREET":"十二佃路","SECT":" ","MAREA":" ","LANE":"２１３巷","ALLEY":" ","HOUSE_NO":"３９號","E_COORD97":165229.690118,"N_COORD97":2552079.6937000002,"ADDRESS":"十二佃路２１３巷３９號","OBJECTID":7054},"geometry":{"x":165229.69011799991,"y":2552079.6937000044}},{"attributes":{"ID":7055,"DIS_CODE":0,"TOWNNAME":"仁德區","LI":"太子里","LIN":"42鄰","STREET":"太子路","SECT":" ","MAREA":" ","LANE":"２８巷","ALLEY":" ","HOUSE_NO":"１９號","E_COORD97":175333.70234799999,"N_COORD97":2543657.1823700001,"ADDRESS":"太子路２８巷１９號","OBJECTID":7055},"geometry":{"x":175333.70234800223,"y":2543657.1823740005}},{"attributes":{"ID":7056,"DIS_CODE":0,"TOWNNAME":"安南區","LI":"佃西里","LIN":"2鄰","STREET":"十二佃路","SECT":" ","MAREA":" ","LANE":"２１３巷","ALLEY":" ","HOUSE_NO":"４１號","E_COORD97":165226.08837099999,"N_COORD97":2552080.3287,"ADDRESS":"十二佃路２１３巷４１號","OBJECTID":7056},"geometry":{"x":165226.08837100025,"y":2552080.3287000023}},{"attributes":{"ID":7057,"DIS_CODE":0,"TOWNNAME":"新營區","LI":"忠政里","LIN":"31鄰","STREET":"府西路","SECT":" ","MAREA":" ","LANE":"４７巷","ALLEY":" ","HOUSE_NO":"１號","E_COORD97":179807.92291600001,"N_COORD97":2579025.0458999998,"ADDRESS":"府西路４７巷１號","OBJECTID":7057},"geometry":{"x":179807.92291599978,"y":2579025.0459040012}},{"attributes":{"ID":7058,"DIS_CODE":0,"TOWNNAME":"官田區","LI":"隆田里","LIN":"22鄰","STREET":"信義街","SECT":"一段","MAREA":" ","LANE":"１２８巷","ALLEY":" ","HOUSE_NO":"１８號","E_COORD97":179724.13235,"N_COORD97":2565664.9210100002,"ADDRESS":"信義街一段１２８巷１８號","OBJECTID":7058},"geometry":{"x":179724.13235000055,"y":2565664.9210110046}},{"attributes":{"ID":7059,"DIS_CODE":0,"TOWNNAME":"東山區","LI":"科里里","LIN":"11鄰","STREET":" ","SECT":" ","MAREA":"科里","LANE":" ","ALLEY":" ","HOUSE_NO":"５８號","E_COORD97":191057.74215000001,"N_COORD97":2577371.71178,"ADDRESS":"科里５８號","OBJECTID":7059},"geometry":{"x":191057.74215000123,"y":2577371.711779004}},{"attributes":{"ID":7060,"DIS_CODE":0,"TOWNNAME":"安南區","LI":"海東里","LIN":"20鄰","STREET":"海佃路","SECT":"二段","MAREA":" ","LANE":" ","ALLEY":" ","HOUSE_NO":"２４１號之６","E_COORD97":166830.815412,"N_COORD97":2548566.59974,"ADDRESS":"海佃路二段２４１號之６","OBJECTID":7060},"geometry":{"x":166830.81541200075,"y":2548566.5997390002}},{"attributes":{"ID":7061,"DIS_CODE":0,"TOWNNAME":"新營區","LI":"忠政里","LIN":"31鄰","STREET":"府西路","SECT":" ","MAREA":" ","LANE":"４７巷","ALLEY":" ","HOUSE_NO":"３號","E_COORD97":179803.685272,"N_COORD97":2579024.6225700001,"ADDRESS":"府西路４７巷３號","OBJECTID":7061},"geometry":{"x":179803.6852719998,"y":2579024.6225709971}},{"attributes":{"ID":7062,"DIS_CODE":0,"TOWNNAME":"官田區","LI":"隆田里","LIN":"22鄰","STREET":"信義街","SECT":"一段","MAREA":" ","LANE":"１２８巷","ALLEY":" ","HOUSE_NO":"２０號","E_COORD97":179720.530604,"N_COORD97":2565665.3443399998,"ADDRESS":"信義街一段１２８巷２０號","OBJECTID":7062},"geometry":{"x":179720.5306040002,"y":2565665.3443440031}},{"attributes":{"ID":7063,"DIS_CODE":0,"TOWNNAME":"官田區","LI":"隆田里","LIN":"22鄰","STREET":"信義街","SECT":"一段","MAREA":" ","LANE":"１２８巷","ALLEY":" ","HOUSE_NO":"２２號","E_COORD97":179717.03479199999,"N_COORD97":2565665.4501800002,"ADDRESS":"信義街一段１２８巷２２號","OBJECTID":7063},"geometry":{"x":179717.03479200043,"y":2565665.450176999}},{"attributes":{"ID":7064,"DIS_CODE":0,"TOWNNAME":"官田區","LI":"隆田里","LIN":"22鄰","STREET":"信義街","SECT":"一段","MAREA":" ","LANE":"１２８巷","ALLEY":" ","HOUSE_NO":"２６號","E_COORD97":179713.75084699999,"N_COORD97":2565665.9793400001,"ADDRESS":"信義街一段１２８巷２６號","OBJECTID":7064},"geometry":{"x":179713.75084700156,"y":2565665.9793430027}},{"attributes":{"ID":7065,"DIS_CODE":0,"TOWNNAME":"玉井區","LI":"竹圍里","LIN":"15鄰","STREET":"仁愛街","SECT":" ","MAREA":" ","LANE":" ","ALLEY":" ","HOUSE_NO":"２１３號","E_COORD97":195367.18606000001,"N_COORD97":2558216.6867399998,"ADDRESS":"仁愛街２１３號","OBJECTID":7065},"geometry":{"x":195367.18606000021,"y":2558216.6867370009}},{"attributes":{"ID":7066,"DIS_CODE":0,"TOWNNAME":"官田區","LI":"隆田里","LIN":"22鄰","STREET":"信義街","SECT":"一段","MAREA":" ","LANE":"１２８巷","ALLEY":" ","HOUSE_NO":"２８號","E_COORD97":179709.937233,"N_COORD97":2565666.4026799998,"ADDRESS":"信義街一段１２８巷２８號","OBJECTID":7066},"geometry":{"x":179709.93723300099,"y":2565666.4026770014}},{"attributes":{"ID":7067,"DIS_CODE":0,"TOWNNAME":"安南區","LI":"佃西里","LIN":"2鄰","STREET":"十二佃路","SECT":" ","MAREA":" ","LANE":"２１３巷","ALLEY":" ","HOUSE_NO":"１５號","E_COORD97":165288.377393,"N_COORD97":2552073.3437000001,"ADDRESS":"十二佃路２１３巷１５號","OBJECTID":7067},"geometry":{"x":165288.37739299983,"y":2552073.3437040001}},{"attributes":{"ID":7068,"DIS_CODE":0,"TOWNNAME":"官田區","LI":"隆田里","LIN":"22鄰","STREET":"信義街","SECT":"一段","MAREA":" ","LANE":"１２８巷","ALLEY":" ","HOUSE_NO":"３０號","E_COORD97":179706.22955300001,"N_COORD97":2565666.9318400002,"ADDRESS":"信義街一段１２８巷３０號","OBJECTID":7068},"geometry":{"x":179706.229553001,"y":2565666.9318429995}},{"attributes":{"ID":7069,"DIS_CODE":0,"TOWNNAME":"善化區","LI":"小新里","LIN":"20鄰","STREET":" ","SECT":" ","MAREA":"小新營","LANE":" ","ALLEY":" ","HOUSE_NO":"４０７之２號","E_COORD97":179825.30554500001,"N_COORD97":2557735.5880700001,"ADDRESS":"小新營４０７之２號","OBJECTID":7069},"geometry":{"x":179825.30554500036,"y":2557735.5880689994}},{"attributes":{"ID":7070,"DIS_CODE":0,"TOWNNAME":"官田區","LI":"隆田里","LIN":"22鄰","STREET":"信義街","SECT":"一段","MAREA":" ","LANE":"１２８巷","ALLEY":" ","HOUSE_NO":"３２號","E_COORD97":179702.94560800001,"N_COORD97":2565667.2493400001,"ADDRESS":"信義街一段１２８巷３２號","OBJECTID":7070},"geometry":{"x":179702.9456080012,"y":2565667.2493430022}},{"attributes":{"ID":7071,"DIS_CODE":0,"TOWNNAME":"仁德區","LI":"中洲里","LIN":"9鄰","STREET":" ","SECT":" ","MAREA":"中洲","LANE":" ","ALLEY":" ","HOUSE_NO":"３０１號","E_COORD97":173337.31278599999,"N_COORD97":2533919.52018,"ADDRESS":"中洲３０１號","OBJECTID":7071},"geometry":{"x":173337.31278600078,"y":2533919.5201780014}},{"attributes":{"ID":7072,"DIS_CODE":0,"TOWNNAME":"安南區","LI":"佃西里","LIN":"2鄰","STREET":"十二佃路","SECT":" ","MAREA":" ","LANE":"２１３巷","ALLEY":" ","HOUSE_NO":"１７號","E_COORD97":165283.504442,"N_COORD97":2552074.5078699999,"ADDRESS":"十二佃路２１３巷１７號","OBJECTID":7072},"geometry":{"x":165283.50444199983,"y":2552074.507869998}},{"attributes":{"ID":7073,"DIS_CODE":0,"TOWNNAME":"官田區","LI":"隆田里","LIN":"22鄰","STREET":"信義街","SECT":"一段","MAREA":" ","LANE":"１２８巷","ALLEY":" ","HOUSE_NO":"３６號","E_COORD97":179699.66166300001,"N_COORD97":2565667.8843399999,"ADDRESS":"信義街一段１２８巷３６號","OBJECTID":7073},"geometry":{"x":179699.66166300047,"y":2565667.8843420036}},{"attributes":{"ID":7074,"DIS_CODE":0,"TOWNNAME":"官田區","LI":"隆田里","LIN":"22鄰","STREET":"信義街","SECT":"一段","MAREA":" ","LANE":"１２８巷","ALLEY":" ","HOUSE_NO":"３８號","E_COORD97":179696.05991700001,"N_COORD97":2565668.5193400001,"ADDRESS":"信義街一段１２８巷３８號","OBJECTID":7074},"geometry":{"x":179696.05991700012,"y":2565668.5193420015}},{"attributes":{"ID":7075,"DIS_CODE":0,"TOWNNAME":"官田區","LI":"隆田里","LIN":"22鄰","STREET":"信義街","SECT":"一段","MAREA":" ","LANE":"１２８巷","ALLEY":" ","HOUSE_NO":"４０號","E_COORD97":179692.35223700001,"N_COORD97":2565669.4718399998,"ADDRESS":"信義街一段１２８巷４０號","OBJECTID":7075},"geometry":{"x":179692.35223700013,"y":2565669.4718420003}},{"attributes":{"ID":7076,"DIS_CODE":0,"TOWNNAME":"東山區","LI":"科里里","LIN":"11鄰","STREET":" ","SECT":" ","MAREA":"科里","LANE":" ","ALLEY":" ","HOUSE_NO":"６７號","E_COORD97":191098.85060899999,"N_COORD97":2577413.4100899999,"ADDRESS":"科里６７號","OBJECTID":7076},"geometry":{"x":191098.8506090017,"y":2577413.4100899994}},{"attributes":{"ID":7077,"DIS_CODE":0,"TOWNNAME":"仁德區","LI":"太子里","LIN":"42鄰","STREET":"太子路","SECT":" ","MAREA":" ","LANE":"２８巷","ALLEY":" ","HOUSE_NO":"２１號","E_COORD97":175311.04274400001,"N_COORD97":2543660.9923700001,"ADDRESS":"太子路２８巷２１號","OBJECTID":7077},"geometry":{"x":175311.04274400137,"y":2543660.9923720043}},{"attributes":{"ID":7078,"DIS_CODE":0,"TOWNNAME":"安南區","LI":"城西里","LIN":"6鄰","STREET":"城西街","SECT":"三段","MAREA":" ","LANE":"５０１巷","ALLEY":"１３６弄","HOUSE_NO":"２７號之８５","E_COORD97":157175.72587600001,"N_COORD97":2550515.88692,"ADDRESS":"城西街三段５０１巷１３６弄２７號之８５","OBJECTID":7078},"geometry":{"x":157175.72587600164,"y":2550515.8869180046}},{"attributes":{"ID":7079,"DIS_CODE":0,"TOWNNAME":"安南區","LI":"布袋里","LIN":"5鄰","STREET":"長和路","SECT":"四段","MAREA":" ","LANE":"２５３巷","ALLEY":" ","HOUSE_NO":"１０７號（農業資材室","E_COORD97":168477.47873800001,"N_COORD97":2551449.2967400001,"ADDRESS":"長和路四段２５３巷１０７號（農業資材室）","OBJECTID":7079},"geometry":{"x":168477.47873800062,"y":2551449.2967380043}},{"attributes":{"ID":7080,"DIS_CODE":0,"TOWNNAME":"善化區","LI":"小新里","LIN":"20鄰","STREET":" ","SECT":" ","MAREA":"小新營","LANE":" ","ALLEY":" ","HOUSE_NO":"３９９之１號","E_COORD97":180180.19796300001,"N_COORD97":2557943.7621200001,"ADDRESS":"小新營３９９之１號","OBJECTID":7080},"geometry":{"x":180180.19796300028,"y":2557943.7621229999}},{"attributes":{"ID":7081,"DIS_CODE":0,"TOWNNAME":"善化區","LI":"小新里","LIN":"20鄰","STREET":" ","SECT":" ","MAREA":"小新營","LANE":" ","ALLEY":" ","HOUSE_NO":"３９９號","E_COORD97":180180.40977599999,"N_COORD97":2557949.15962,"ADDRESS":"小新營３９９號","OBJECTID":7081},"geometry":{"x":180180.40977600031,"y":2557949.1596200019}},{"attributes":{"ID":7082,"DIS_CODE":0,"TOWNNAME":"仁德區","LI":"中洲里","LIN":"9鄰","STREET":" ","SECT":" ","MAREA":"中洲","LANE":" ","ALLEY":" ","HOUSE_NO":"３１２號之１","E_COORD97":173376.08387100001,"N_COORD97":2534096.05008,"ADDRESS":"中洲３１２號之１","OBJECTID":7082},"geometry":{"x":173376.08387100045,"y":2534096.0500820037}},{"attributes":{"ID":7083,"DIS_CODE":0,"TOWNNAME":"善化區","LI":"小新里","LIN":"20鄰","STREET":" ","SECT":" ","MAREA":"小新營","LANE":" ","ALLEY":" ","HOUSE_NO":"３９９之３號","E_COORD97":180179.98615000001,"N_COORD97":2557933.7079599998,"ADDRESS":"小新營３９９之３號","OBJECTID":7083},"geometry":{"x":180179.98615000024,"y":2557933.7079620026}},{"attributes":{"ID":7084,"DIS_CODE":0,"TOWNNAME":"仁德區","LI":"中洲里","LIN":"9鄰","STREET":" ","SECT":" ","MAREA":"中洲","LANE":" ","ALLEY":" ","HOUSE_NO":"３１２號之２","E_COORD97":173379.89741999999,"N_COORD97":2534097.1084199999,"ADDRESS":"中洲３１２號之２","OBJECTID":7084},"geometry":{"x":173379.89742000122,"y":2534097.1084150001}},{"attributes":{"ID":7085,"DIS_CODE":0,"TOWNNAME":"善化區","LI":"小新里","LIN":"20鄰","STREET":" ","SECT":" ","MAREA":"小新營","LANE":" ","ALLEY":" ","HOUSE_NO":"３９９之５號","E_COORD97":180179.668431,"N_COORD97":2557928.0987999998,"ADDRESS":"小新營３９９之５號","OBJECTID":7085},"geometry":{"x":180179.66843099985,"y":2557928.0987979993}},{"attributes":{"ID":7086,"DIS_CODE":0,"TOWNNAME":"善化區","LI":"小新里","LIN":"20鄰","STREET":" ","SECT":" ","MAREA":"小新營","LANE":" ","ALLEY":" ","HOUSE_NO":"３９９之６號","E_COORD97":180178.92708600001,"N_COORD97":2557922.2779700002,"ADDRESS":"小新營３９９之６號","OBJECTID":7086},"geometry":{"x":180178.92708600126,"y":2557922.2779679988}},{"attributes":{"ID":7087,"DIS_CODE":0,"TOWNNAME":"善化區","LI":"小新里","LIN":"20鄰","STREET":" ","SECT":" ","MAREA":"小新營","LANE":" ","ALLEY":" ","HOUSE_NO":"３９９之７號","E_COORD97":180164.735625,"N_COORD97":2557920.2671400001,"ADDRESS":"小新營３９９之７號","OBJECTID":7087},"geometry":{"x":180164.73562499974,"y":2557920.2671359982}},{"attributes":{"ID":7088,"DIS_CODE":0,"TOWNNAME":"善化區","LI":"小新里","LIN":"20鄰","STREET":" ","SECT":" ","MAREA":"小新營","LANE":" ","ALLEY":" ","HOUSE_NO":"３９９之８號","E_COORD97":180160.39346200001,"N_COORD97":2557920.6904699998,"ADDRESS":"小新營３９９之８號","OBJECTID":7088},"geometry":{"x":180160.39346200135,"y":2557920.6904690024}},{"attributes":{"ID":7089,"DIS_CODE":0,"TOWNNAME":"善化區","LI":"小新里","LIN":"20鄰","STREET":" ","SECT":" ","MAREA":"小新營","LANE":" ","ALLEY":" ","HOUSE_NO":"３９９之９號","E_COORD97":180156.05129900001,"N_COORD97":2557920.6904699998,"ADDRESS":"小新營３９９之９號","OBJECTID":7089},"geometry":{"x":180156.05129900016,"y":2557920.6904690024}},{"attributes":{"ID":7090,"DIS_CODE":0,"TOWNNAME":"安南區","LI":"海東里","LIN":"18鄰","STREET":"海佃路","SECT":"二段","MAREA":" ","LANE":"３０７巷","ALLEY":" ","HOUSE_NO":"１５號","E_COORD97":166756.903525,"N_COORD97":2548661.63802,"ADDRESS":"海佃路二段３０７巷１５號","OBJECTID":7090},"geometry":{"x":166756.90352500044,"y":2548661.6380209997}},{"attributes":{"ID":7091,"DIS_CODE":0,"TOWNNAME":"仁德區","LI":"中洲里","LIN":"9鄰","STREET":" ","SECT":" ","MAREA":"中洲","LANE":" ","ALLEY":" ","HOUSE_NO":"３１３號之２","E_COORD97":173373.11777700001,"N_COORD97":2534084.4084200002,"ADDRESS":"中洲３１３號之２","OBJECTID":7091},"geometry":{"x":173373.11777700111,"y":2534084.4084220026}},{"attributes":{"ID":7092,"DIS_CODE":0,"TOWNNAME":"善化區","LI":"小新里","LIN":"20鄰","STREET":" ","SECT":" ","MAREA":"小新營","LANE":" ","ALLEY":" ","HOUSE_NO":"３９９之１０號","E_COORD97":180150.22644500001,"N_COORD97":2557920.7963,"ADDRESS":"小新營３９９之１０號","OBJECTID":7092},"geometry":{"x":180150.22644500062,"y":2557920.7963020038}},{"attributes":{"ID":7093,"DIS_CODE":0,"TOWNNAME":"善化區","LI":"小新里","LIN":"20鄰","STREET":" ","SECT":" ","MAREA":"小新營","LANE":" ","ALLEY":" ","HOUSE_NO":"３９９之１１號","E_COORD97":180150.43825800001,"N_COORD97":2557913.0704700002,"ADDRESS":"小新營３９９之１１號","OBJECTID":7093},"geometry":{"x":180150.43825800065,"y":2557913.0704730041}},{"attributes":{"ID":7094,"DIS_CODE":0,"TOWNNAME":"善化區","LI":"小新里","LIN":"20鄰","STREET":" ","SECT":" ","MAREA":"小新營","LANE":" ","ALLEY":" ","HOUSE_NO":"３９９之１２號","E_COORD97":180155.94539199999,"N_COORD97":2557913.17631,"ADDRESS":"小新營３９９之１２號","OBJECTID":7094},"geometry":{"x":180155.94539200142,"y":2557913.176306}},{"attributes":{"ID":7095,"DIS_CODE":0,"TOWNNAME":"善化區","LI":"小新里","LIN":"20鄰","STREET":" ","SECT":" ","MAREA":"小新營","LANE":" ","ALLEY":" ","HOUSE_NO":"３９９之１３號","E_COORD97":180160.49936799999,"N_COORD97":2557913.0704700002,"ADDRESS":"小新營３９９之１３號","OBJECTID":7095},"geometry":{"x":180160.49936800078,"y":2557913.0704730041}},{"attributes":{"ID":7096,"DIS_CODE":0,"TOWNNAME":"安南區","LI":"海東里","LIN":"18鄰","STREET":"海佃路","SECT":"二段","MAREA":" ","LANE":"３０７巷","ALLEY":" ","HOUSE_NO":"９號","E_COORD97":166768.339748,"N_COORD97":2548669.04635,"ADDRESS":"海佃路二段３０７巷９號","OBJECTID":7096},"geometry":{"x":166768.33974799979,"y":2548669.0463500023}},{"attributes":{"ID":7097,"DIS_CODE":0,"TOWNNAME":"善化區","LI":"小新里","LIN":"20鄰","STREET":" ","SECT":" ","MAREA":"小新營","LANE":" ","ALLEY":" ","HOUSE_NO":"３９９之１５號","E_COORD97":180164.62971899999,"N_COORD97":2557913.0704700002,"ADDRESS":"小新營３９９之１５號","OBJECTID":7097},"geometry":{"x":180164.62971900031,"y":2557913.0704730041}},{"attributes":{"ID":7098,"DIS_CODE":0,"TOWNNAME":"安南區","LI":"海東里","LIN":" ","STREET":"海佃路","SECT":"二段","MAREA":" ","LANE":"３０７巷","ALLEY":" ","HOUSE_NO":"７號","E_COORD97":166772.36360400001,"N_COORD97":2548671.1630199999,"ADDRESS":"海佃路二段３０７巷７號","OBJECTID":7098},"geometry":{"x":166772.36360399984,"y":2548671.1630159989}},{"attributes":{"ID":7099,"DIS_CODE":0,"TOWNNAME":"安南區","LI":"布袋里","LIN":"4鄰","STREET":"長和路","SECT":"四段","MAREA":" ","LANE":"１１１巷","ALLEY":"３３弄","HOUSE_NO":"３２號","E_COORD97":168956.630618,"N_COORD97":2551525.70836,"ADDRESS":"長和路四段１１１巷３３弄３２號","OBJECTID":7099},"geometry":{"x":168956.63061800133,"y":2551525.7083640005}},{"attributes":{"ID":7100,"DIS_CODE":0,"TOWNNAME":"善化區","LI":"小新里","LIN":"20鄰","STREET":" ","SECT":" ","MAREA":"小新營","LANE":" ","ALLEY":" ","HOUSE_NO":"３９９之１６號","E_COORD97":180178.92708600001,"N_COORD97":2557910.3188100001,"ADDRESS":"小新營３９９之１６號","OBJECTID":7100},"geometry":{"x":180178.92708600126,"y":2557910.3188080024}},{"attributes":{"ID":7101,"DIS_CODE":0,"TOWNNAME":"安南區","LI":"海東里","LIN":"18鄰","STREET":"海佃路","SECT":"二段","MAREA":" ","LANE":"３０７巷","ALLEY":" ","HOUSE_NO":"５號","E_COORD97":166776.17567900001,"N_COORD97":2548674.12635,"ADDRESS":"海佃路二段３０７巷５號","OBJECTID":7101},"geometry":{"x":166776.17567899916,"y":2548674.1263470016}},{"attributes":{"ID":7102,"DIS_CODE":0,"TOWNNAME":"仁德區","LI":"中洲里","LIN":"9鄰","STREET":" ","SECT":" ","MAREA":"中洲","LANE":" ","ALLEY":" ","HOUSE_NO":"３０３號","E_COORD97":173342.609382,"N_COORD97":2533902.5868500001,"ADDRESS":"中洲３０３號","OBJECTID":7102},"geometry":{"x":173342.60938199889,"y":2533902.5868530013}},{"attributes":{"ID":7103,"DIS_CODE":0,"TOWNNAME":"新營區","LI":"忠政里","LIN":"31鄰","STREET":"府西路","SECT":" ","MAREA":" ","LANE":"４７巷","ALLEY":" ","HOUSE_NO":"５號","E_COORD97":179796.69315899999,"N_COORD97":2579024.3050699998,"ADDRESS":"府西路４７巷５號","OBJECTID":7103},"geometry":{"x":179796.69315900188,"y":2579024.305071}},{"attributes":{"ID":7104,"DIS_CODE":0,"TOWNNAME":"新營區","LI":"忠政里","LIN":"31鄰","STREET":"府西路","SECT":" ","MAREA":" ","LANE":"４７巷","ALLEY":" ","HOUSE_NO":"７號","E_COORD97":179792.87927899999,"N_COORD97":2579024.5167399999,"ADDRESS":"府西路４７巷７號","OBJECTID":7104},"geometry":{"x":179792.87927899975,"y":2579024.5167380013}},{"attributes":{"ID":7105,"DIS_CODE":0,"TOWNNAME":"善化區","LI":"小新里","LIN":"20鄰","STREET":" ","SECT":" ","MAREA":"小新營","LANE":" ","ALLEY":" ","HOUSE_NO":"３９９之１７號","E_COORD97":180178.82117899999,"N_COORD97":2557904.3921400001,"ADDRESS":"小新營３９９之１７號","OBJECTID":7105},"geometry":{"x":180178.82117900066,"y":2557904.3921450023}},{"attributes":{"ID":7106,"DIS_CODE":0,"TOWNNAME":"新營區","LI":"忠政里","LIN":"31鄰","STREET":"府西路","SECT":" ","MAREA":" ","LANE":"４７巷","ALLEY":" ","HOUSE_NO":"３之１號","E_COORD97":179803.26150699999,"N_COORD97":2579022.7175699999,"ADDRESS":"府西路４７巷３之１號","OBJECTID":7106},"geometry":{"x":179803.26150700171,"y":2579022.7175720036}},{"attributes":{"ID":7107,"DIS_CODE":0,"TOWNNAME":"善化區","LI":"小新里","LIN":"20鄰","STREET":" ","SECT":" ","MAREA":"小新營","LANE":" ","ALLEY":" ","HOUSE_NO":"３９９之１８號","E_COORD97":180177.868021,"N_COORD97":2557898.8888099999,"ADDRESS":"小新營３９９之１８號","OBJECTID":7107},"geometry":{"x":180177.86802100204,"y":2557898.8888140004}},{"attributes":{"ID":7108,"DIS_CODE":0,"TOWNNAME":"安南區","LI":"布袋里","LIN":"4鄰","STREET":"長和路","SECT":"四段","MAREA":" ","LANE":"１１１巷","ALLEY":"３３弄","HOUSE_NO":"３０號","E_COORD97":168960.65354599999,"N_COORD97":2551533.5400299998,"ADDRESS":"長和路四段１１１巷３３弄３０號","OBJECTID":7108},"geometry":{"x":168960.6535459999,"y":2551533.5400260016}},{"attributes":{"ID":7109,"DIS_CODE":0,"TOWNNAME":"新營區","LI":"忠政里","LIN":"31鄰","STREET":"府西路","SECT":" ","MAREA":" ","LANE":"４７巷","ALLEY":" ","HOUSE_NO":"３之２號","E_COORD97":179802.83774300001,"N_COORD97":2579020.60091,"ADDRESS":"府西路４７巷３之２號","OBJECTID":7109},"geometry":{"x":179802.83774300013,"y":2579020.6009060014}},{"attributes":{"ID":7110,"DIS_CODE":0,"TOWNNAME":"安南區","LI":"海東里","LIN":"20鄰","STREET":"海東六街","SECT":" ","MAREA":" ","LANE":" ","ALLEY":" ","HOUSE_NO":"２２號","E_COORD97":166845.957819,"N_COORD97":2548173.1116200001,"ADDRESS":"海東六街２２號","OBJECTID":7110},"geometry":{"x":166845.95781900082,"y":2548173.111618001}},{"attributes":{"ID":7111,"DIS_CODE":0,"TOWNNAME":"新營區","LI":"忠政里","LIN":"31鄰","STREET":"府西路","SECT":" ","MAREA":" ","LANE":"４７巷","ALLEY":" ","HOUSE_NO":"３之３號","E_COORD97":179802.83774300001,"N_COORD97":2579019.1192399999,"ADDRESS":"府西路４７巷３之３號","OBJECTID":7111},"geometry":{"x":179802.83774300013,"y":2579019.1192400008}},{"attributes":{"ID":7112,"DIS_CODE":0,"TOWNNAME":"安南區","LI":"海東里","LIN":"20鄰","STREET":"海東六街","SECT":" ","MAREA":" ","LANE":" ","ALLEY":" ","HOUSE_NO":"２６號","E_COORD97":166841.51039800001,"N_COORD97":2548172.2649500002,"ADDRESS":"海東六街２６號","OBJECTID":7112},"geometry":{"x":166841.51039800048,"y":2548172.2649520002}},{"attributes":{"ID":7113,"DIS_CODE":0,"TOWNNAME":"新營區","LI":"忠政里","LIN":"31鄰","STREET":"府西路","SECT":" ","MAREA":" ","LANE":"４７巷","ALLEY":" ","HOUSE_NO":"３之５號","E_COORD97":179802.62586100001,"N_COORD97":2579017.2142400001,"ADDRESS":"府西路４７巷３之５號","OBJECTID":7113},"geometry":{"x":179802.6258610012,"y":2579017.2142410018}},{"attributes":{"ID":7114,"DIS_CODE":0,"TOWNNAME":"善化區","LI":"小新里","LIN":"20鄰","STREET":" ","SECT":" ","MAREA":"小新營","LANE":" ","ALLEY":" ","HOUSE_NO":"３９９之２２號","E_COORD97":180164.100187,"N_COORD97":2557881.0029899999,"ADDRESS":"小新營３９９之２２號","OBJECTID":7114},"geometry":{"x":180164.10018699989,"y":2557881.0029910021}},{"attributes":{"ID":7115,"DIS_CODE":0,"TOWNNAME":"新營區","LI":"忠政里","LIN":"31鄰","STREET":"府西路","SECT":" ","MAREA":" ","LANE":"４７巷","ALLEY":" ","HOUSE_NO":"５之１號","E_COORD97":179794.786219,"N_COORD97":2579022.5059099998,"ADDRESS":"府西路４７巷５之１號","OBJECTID":7115},"geometry":{"x":179794.78621900082,"y":2579022.5059050024}},{"attributes":{"ID":7116,"DIS_CODE":0,"TOWNNAME":"新營區","LI":"忠政里","LIN":"31鄰","STREET":"府西路","SECT":" ","MAREA":" ","LANE":"４７巷","ALLEY":" ","HOUSE_NO":"５之２號","E_COORD97":179794.57433599999,"N_COORD97":2579020.8125700001,"ADDRESS":"府西路４７巷５之２號","OBJECTID":7116},"geometry":{"x":179794.57433599979,"y":2579020.8125730027}},{"attributes":{"ID":7117,"DIS_CODE":0,"TOWNNAME":"新營區","LI":"忠政里","LIN":"31鄰","STREET":"府西路","SECT":" ","MAREA":" ","LANE":"４７巷","ALLEY":" ","HOUSE_NO":"５之３號","E_COORD97":179794.786219,"N_COORD97":2579019.1192399999,"ADDRESS":"府西路４７巷５之３號","OBJECTID":7117},"geometry":{"x":179794.78621900082,"y":2579019.1192400008}},{"attributes":{"ID":7118,"DIS_CODE":0,"TOWNNAME":"安南區","LI":"海東里","LIN":"20鄰","STREET":"海東六街","SECT":" ","MAREA":" ","LANE":" ","ALLEY":" ","HOUSE_NO":"４０號","E_COORD97":166816.30835100001,"N_COORD97":2548167.1849500001,"ADDRESS":"海東六街４０號","OBJECTID":7118},"geometry":{"x":166816.30835099984,"y":2548167.1849540006}},{"attributes":{"ID":7119,"DIS_CODE":0,"TOWNNAME":"仁德區","LI":"太子里","LIN":"43鄰","STREET":"太子路","SECT":" ","MAREA":" ","LANE":"３１巷","ALLEY":" ","HOUSE_NO":"１０號","E_COORD97":175296.218704,"N_COORD97":2543445.8333200002,"ADDRESS":"太子路３１巷１０號","OBJECTID":7119},"geometry":{"x":175296.21870400105,"y":2543445.8333210014}},{"attributes":{"ID":7120,"DIS_CODE":0,"TOWNNAME":"新營區","LI":"忠政里","LIN":"31鄰","STREET":"府西路","SECT":" ","MAREA":" ","LANE":"４７巷","ALLEY":" ","HOUSE_NO":"５之５號","E_COORD97":179794.36245399999,"N_COORD97":2579017.4259100002,"ADDRESS":"府西路４７巷５之５號","OBJECTID":7120},"geometry":{"x":179794.36245399993,"y":2579017.425908003}},{"attributes":{"ID":7121,"DIS_CODE":0,"TOWNNAME":"東山區","LI":"科里里","LIN":"5鄰","STREET":" ","SECT":" ","MAREA":"科里","LANE":" ","ALLEY":" ","HOUSE_NO":"６號","E_COORD97":189834.23576099999,"N_COORD97":2578400.6228900002,"ADDRESS":"科里６號","OBJECTID":7121},"geometry":{"x":189834.23576100171,"y":2578400.6228900012}},{"attributes":{"ID":7122,"DIS_CODE":0,"TOWNNAME":"仁德區","LI":"太子里","LIN":"43鄰","STREET":"太子路","SECT":" ","MAREA":" ","LANE":"３１巷","ALLEY":" ","HOUSE_NO":"１７號","E_COORD97":175396.175086,"N_COORD97":2543454.0883200001,"ADDRESS":"太子路３１巷１７號","OBJECTID":7122},"geometry":{"x":175396.175086,"y":2543454.0883169994}},{"attributes":{"ID":7123,"DIS_CODE":0,"TOWNNAME":"安南區","LI":"海東里","LIN":"20鄰","STREET":"海東七街","SECT":" ","MAREA":" ","LANE":" ","ALLEY":" ","HOUSE_NO":"５７號","E_COORD97":166806.98994699999,"N_COORD97":2548189.8332799999,"ADDRESS":"海東七街５７號","OBJECTID":7123},"geometry":{"x":166806.98994700052,"y":2548189.8332759999}},{"attributes":{"ID":7124,"DIS_CODE":0,"TOWNNAME":"安南區","LI":"佃西里","LIN":"2鄰","STREET":"十二佃路","SECT":" ","MAREA":" ","LANE":"２１３巷","ALLEY":" ","HOUSE_NO":"４３號","E_COORD97":165223.545962,"N_COORD97":2552079.27037,"ADDRESS":"十二佃路２１３巷４３號","OBJECTID":7124},"geometry":{"x":165223.5459620012,"y":2552079.2703670003}},{"attributes":{"ID":7125,"DIS_CODE":0,"TOWNNAME":"善化區","LI":"小新里","LIN":"20鄰","STREET":" ","SECT":" ","MAREA":"小新營","LANE":" ","ALLEY":" ","HOUSE_NO":"３９９之２號","E_COORD97":180180.11293,"N_COORD97":2557938.7029800001,"ADDRESS":"小新營３９９之２號","OBJECTID":7125},"geometry":{"x":180180.11292999983,"y":2557938.7029850017}},{"attributes":{"ID":7126,"DIS_CODE":0,"TOWNNAME":"仁德區","LI":"太子里","LIN":"43鄰","STREET":"太子路","SECT":" ","MAREA":" ","LANE":"３１巷","ALLEY":" ","HOUSE_NO":"１９號","E_COORD97":175366.527007,"N_COORD97":2543444.4574899999,"ADDRESS":"太子路３１巷１９號","OBJECTID":7126},"geometry":{"x":175366.52700700052,"y":2543444.4574890006}},{"attributes":{"ID":7127,"DIS_CODE":0,"TOWNNAME":"善化區","LI":"小新里","LIN":"20鄰","STREET":" ","SECT":" ","MAREA":"小新營","LANE":" ","ALLEY":" ","HOUSE_NO":"３９９之１９號","E_COORD97":180178.18574099999,"N_COORD97":2557893.8088199999,"ADDRESS":"小新營３９９之１９號","OBJECTID":7127},"geometry":{"x":180178.18574100081,"y":2557893.8088170011}},{"attributes":{"ID":7128,"DIS_CODE":0,"TOWNNAME":"仁德區","LI":"太子里","LIN":"43鄰","STREET":"太子路","SECT":" ","MAREA":" ","LANE":"３１巷","ALLEY":" ","HOUSE_NO":"８號","E_COORD97":175330.31399600001,"N_COORD97":2543457.8983100001,"ADDRESS":"太子路３１巷８號","OBJECTID":7128},"geometry":{"x":175330.31399600022,"y":2543457.8983149994}},{"attributes":{"ID":7129,"DIS_CODE":0,"TOWNNAME":"善化區","LI":"小新里","LIN":"20鄰","STREET":" ","SECT":" ","MAREA":"小新營","LANE":" ","ALLEY":" ","HOUSE_NO":"３９９之２０號","E_COORD97":180178.29164700001,"N_COORD97":2557888.6229900001,"ADDRESS":"小新營３９９之２０號","OBJECTID":7129},"geometry":{"x":180178.29164700024,"y":2557888.6229860019}},{"attributes":{"ID":7130,"DIS_CODE":0,"TOWNNAME":"善化區","LI":"小新里","LIN":"20鄰","STREET":" ","SECT":" ","MAREA":"小新營","LANE":" ","ALLEY":" ","HOUSE_NO":"３９９之２１號","E_COORD97":180177.868021,"N_COORD97":2557882.6963200001,"ADDRESS":"小新營３９９之２１號","OBJECTID":7130},"geometry":{"x":180177.86802100204,"y":2557882.6963229999}},{"attributes":{"ID":7131,"DIS_CODE":0,"TOWNNAME":"安南區","LI":"布袋里","LIN":"4鄰","STREET":"長和路","SECT":"四段","MAREA":" ","LANE":"１１１巷","ALLEY":"３３弄","HOUSE_NO":"２２號","E_COORD97":168946.467432,"N_COORD97":2551547.5100199999,"ADDRESS":"長和路四段１１１巷３３弄２２號","OBJECTID":7131},"geometry":{"x":168946.46743200067,"y":2551547.5100190025}},{"attributes":{"ID":7132,"DIS_CODE":0,"TOWNNAME":"新營區","LI":"王公里","LIN":"28鄰","STREET":"大公街","SECT":" ","MAREA":" ","LANE":"４６巷","ALLEY":"１弄","HOUSE_NO":"３號","E_COORD97":180256.52492500001,"N_COORD97":2579623.8376600002,"ADDRESS":"大公街４６巷１弄３號","OBJECTID":7132},"geometry":{"x":180256.52492500003,"y":2579623.8376630023}},{"attributes":{"ID":7133,"DIS_CODE":0,"TOWNNAME":"東區","LI":"和平里","LIN":"20鄰","STREET":"文化路","SECT":" ","MAREA":" ","LANE":" ","ALLEY":" ","HOUSE_NO":"５號","E_COORD97":171118.92000000001,"N_COORD97":2541932.46,"ADDRESS":"文化路５號","OBJECTID":7133},"geometry":{"x":171118.91999999993,"y":2541932.4600000009}},{"attributes":{"ID":7134,"DIS_CODE":0,"TOWNNAME":"北區","LI":"和順里","LIN":" ","STREET":"育德路","SECT":" ","MAREA":" ","LANE":" ","ALLEY":" ","HOUSE_NO":"１號","E_COORD97":168265.14000000001,"N_COORD97":2545140.02,"ADDRESS":"育德路１號","OBJECTID":7134},"geometry":{"x":168265.1400000006,"y":2545140.0200000014}},{"attributes":{"ID":7135,"DIS_CODE":0,"TOWNNAME":"永康區","LI":"復華里","LIN":"22鄰","STREET":"國華街","SECT":" ","MAREA":" ","LANE":"１３２巷","ALLEY":"６弄","HOUSE_NO":"１０號","E_COORD97":172863.174634,"N_COORD97":2546318.7156699998,"ADDRESS":"國華街１３２巷６弄１０號","OBJECTID":7135},"geometry":{"x":172863.17463400122,"y":2546318.7156670019}},{"attributes":{"ID":7136,"DIS_CODE":0,"TOWNNAME":"新市區","LI":"港墘里","LIN":"8鄰","STREET":" ","SECT":" ","MAREA":"崙頂","LANE":" ","ALLEY":" ","HOUSE_NO":"８號","E_COORD97":178989.62,"N_COORD97":2552735.25,"ADDRESS":"崙頂８號","OBJECTID":7136},"geometry":{"x":178989.62000000104,"y":2552735.25}},{"attributes":{"ID":7137,"DIS_CODE":0,"TOWNNAME":"佳里區","LI":"鎮山里","LIN":"14鄰","STREET":"安南路","SECT":" ","MAREA":" ","LANE":" ","ALLEY":" ","HOUSE_NO":"６號","E_COORD97":166029.66,"N_COORD97":2561392.8500000001,"ADDRESS":"安南路６號","OBJECTID":7137},"geometry":{"x":166029.66000000108,"y":2561392.8499999996}},{"attributes":{"ID":7138,"DIS_CODE":0,"TOWNNAME":"永康區","LI":"復華里","LIN":"21鄰","STREET":"國華街","SECT":" ","MAREA":" ","LANE":"１３２巷","ALLEY":"８弄","HOUSE_NO":"１３號","E_COORD97":172888.758527,"N_COORD97":2546341.10519,"ADDRESS":"國華街１３２巷８弄１３號","OBJECTID":7138},"geometry":{"x":172888.75852700137,"y":2546341.1051950026}},{"attributes":{"ID":7139,"DIS_CODE":0,"TOWNNAME":"六甲區","LI":"中社里","LIN":"14鄰","STREET":" ","SECT":" ","MAREA":"農場","LANE":" ","ALLEY":" ","HOUSE_NO":"５號","E_COORD97":181183.79000000001,"N_COORD97":2572149.0299999998,"ADDRESS":"農場５號","OBJECTID":7139},"geometry":{"x":181183.79000000097,"y":2572149.0299999993}},{"attributes":{"ID":7140,"DIS_CODE":0,"TOWNNAME":"新營區","LI":"新南里","LIN":"28鄰","STREET":"秦漢街","SECT":" ","MAREA":" ","LANE":" ","ALLEY":" ","HOUSE_NO":"５９之５號","E_COORD97":178453.233966,"N_COORD97":2578722.30822,"ADDRESS":"秦漢街５９之５號","OBJECTID":7140},"geometry":{"x":178453.23396600131,"y":2578722.3082250021}},{"attributes":{"ID":7141,"DIS_CODE":0,"TOWNNAME":"新化區","LI":"東榮里","LIN":" ","STREET":"中興路","SECT":" ","MAREA":" ","LANE":" ","ALLEY":" ","HOUSE_NO":"９號","E_COORD97":181969.70999999999,"N_COORD97":2547311.25,"ADDRESS":"中興路９號","OBJECTID":7141},"geometry":{"x":181969.70999999996,"y":2547311.2500000037}},{"attributes":{"ID":7142,"DIS_CODE":0,"TOWNNAME":"大內區","LI":"內郭里","LIN":"7鄰","STREET":" ","SECT":" ","MAREA":"後堀","LANE":" ","ALLEY":" ","HOUSE_NO":"２號","E_COORD97":185546.91,"N_COORD97":2557399.3199999998,"ADDRESS":"後堀２號","OBJECTID":7142},"geometry":{"x":185546.91000000015,"y":2557399.3200000003}},{"attributes":{"ID":7143,"DIS_CODE":0,"TOWNNAME":"麻豆區","LI":"安正里","LIN":"7鄰","STREET":" ","SECT":" ","MAREA":"社子","LANE":" ","ALLEY":" ","HOUSE_NO":"３號","E_COORD97":172052.70000000001,"N_COORD97":2562285.8300000001,"ADDRESS":"社子３號","OBJECTID":7143},"geometry":{"x":172052.70000000019,"y":2562285.8299999982}},{"attributes":{"ID":7144,"DIS_CODE":0,"TOWNNAME":"左鎮區","LI":"二寮里","LIN":"1鄰","STREET":" ","SECT":" ","MAREA":"二寮","LANE":" ","ALLEY":" ","HOUSE_NO":"４號","E_COORD97":189761.98999999999,"N_COORD97":2541199.25,"ADDRESS":"二寮４號","OBJECTID":7144},"geometry":{"x":189761.99000000115,"y":2541199.2500000019}},{"attributes":{"ID":7145,"DIS_CODE":0,"TOWNNAME":"將軍區","LI":"西和里","LIN":"15鄰","STREET":" ","SECT":" ","MAREA":"西湖","LANE":" ","ALLEY":" ","HOUSE_NO":"８號","E_COORD97":163150.97,"N_COORD97":2566276.96,"ADDRESS":"西湖８號","OBJECTID":7145},"geometry":{"x":163150.96999999974,"y":2566276.9600000028}},{"attributes":{"ID":7146,"DIS_CODE":0,"TOWNNAME":"南化區","LI":"小崙里","LIN":"1鄰","STREET":" ","SECT":" ","MAREA":"小崙","LANE":" ","ALLEY":" ","HOUSE_NO":"７號","E_COORD97":196490.01999999999,"N_COORD97":2549928.75,"ADDRESS":"小崙７號","OBJECTID":7146},"geometry":{"x":196490.01999999862,"y":2549928.7500000037}},{"attributes":{"ID":7147,"DIS_CODE":0,"TOWNNAME":"新營區","LI":"民榮里","LIN":"31鄰","STREET":"太子路","SECT":" ","MAREA":" ","LANE":"５３巷","ALLEY":"１３弄","HOUSE_NO":"７號","E_COORD97":178376.65315200001,"N_COORD97":2578014.7868900001,"ADDRESS":"太子路５３巷１３弄７號","OBJECTID":7147},"geometry":{"x":178376.65315200109,"y":2578014.7868899982}},{"attributes":{"ID":7148,"DIS_CODE":0,"TOWNNAME":"安定區","LI":"大同里","LIN":"1鄰","STREET":" ","SECT":" ","MAREA":"大同","LANE":" ","ALLEY":" ","HOUSE_NO":"９號","E_COORD97":170527.51999999999,"N_COORD97":2553856.25,"ADDRESS":"大同９號","OBJECTID":7148},"geometry":{"x":170527.51999999955,"y":2553856.2500000019}},{"attributes":{"ID":7149,"DIS_CODE":0,"TOWNNAME":"下營區","LI":"大屯里","LIN":"1鄰","STREET":" ","SECT":" ","MAREA":"大屯寮","LANE":" ","ALLEY":" ","HOUSE_NO":"５號","E_COORD97":172187.44,"N_COORD97":2570490.2000000002,"ADDRESS":"大屯寮５號","OBJECTID":7149},"geometry":{"x":172187.44000000041,"y":2570490.1999999993}},{"attributes":{"ID":7150,"DIS_CODE":0,"TOWNNAME":"麻豆區","LI":"寮\u25A0里","LIN":"1鄰","STREET":" ","SECT":" ","MAREA":"寮子\u25A0","LANE":" ","ALLEY":" ","HOUSE_NO":"５號","E_COORD97":176484.39999999999,"N_COORD97":2565585.04,"ADDRESS":"寮子\u25A0５號","OBJECTID":7150},"geometry":{"x":176484.40000000037,"y":2565585.0399999991}},{"attributes":{"ID":7151,"DIS_CODE":0,"TOWNNAME":"麻豆區","LI":"磚井里","LIN":"1鄰","STREET":" ","SECT":" ","MAREA":"磚子井","LANE":" ","ALLEY":" ","HOUSE_NO":"２號","E_COORD97":173091.81,"N_COORD97":2563427.21,"ADDRESS":"磚子井２號","OBJECTID":7151},"geometry":{"x":173091.81000000052,"y":2563427.2100000028}},{"attributes":{"ID":7152,"DIS_CODE":0,"TOWNNAME":"佳里區","LI":"民安里","LIN":"1鄰","STREET":" ","SECT":" ","MAREA":"同安寮","LANE":" ","ALLEY":" ","HOUSE_NO":"１號","E_COORD97":166954.44,"N_COORD97":2562405.5899999999,"ADDRESS":"同安寮１號","OBJECTID":7152},"geometry":{"x":166954.44000000041,"y":2562405.5899999999}},{"attributes":{"ID":7153,"DIS_CODE":0,"TOWNNAME":"七股區","LI":"後港里","LIN":"1鄰","STREET":" ","SECT":" ","MAREA":"港東","LANE":" ","ALLEY":" ","HOUSE_NO":"７號","E_COORD97":163239.57000000001,"N_COORD97":2564483.75,"ADDRESS":"港東７號","OBJECTID":7153},"geometry":{"x":163239.57000000216,"y":2564483.7500000037}},{"attributes":{"ID":7154,"DIS_CODE":0,"TOWNNAME":"玉井區","LI":"玉田里","LIN":" ","STREET":"民族路","SECT":" ","MAREA":" ","LANE":" ","ALLEY":" ","HOUSE_NO":"８號","E_COORD97":194959.57999999999,"N_COORD97":2558100.2799999998,"ADDRESS":"民族路８號","OBJECTID":7154},"geometry":{"x":194959.58000000194,"y":2558100.2799999993}},{"attributes":{"ID":7155,"DIS_CODE":0,"TOWNNAME":"白河區","LI":"崁頭里","LIN":"1鄰","STREET":" ","SECT":" ","MAREA":"崁子頭","LANE":" ","ALLEY":" ","HOUSE_NO":"１號","E_COORD97":190345.10999999999,"N_COORD97":2580814.5899999999,"ADDRESS":"崁子頭１號","OBJECTID":7155},"geometry":{"x":190345.11000000034,"y":2580814.5899999999}},{"attributes":{"ID":7156,"DIS_CODE":0,"TOWNNAME":"白河區","LI":"草店里","LIN":"1鄰","STREET":" ","SECT":" ","MAREA":"草店","LANE":" ","ALLEY":" ","HOUSE_NO":"９號","E_COORD97":192644.88,"N_COORD97":2587960,"ADDRESS":"草店９號","OBJECTID":7156},"geometry":{"x":192644.87999999989,"y":2587959.9999999981}},{"attributes":{"ID":7157,"DIS_CODE":0,"TOWNNAME":"安定區","LI":"港南里","LIN":"1鄰","STREET":" ","SECT":" ","MAREA":"港口","LANE":" ","ALLEY":" ","HOUSE_NO":"８號","E_COORD97":171183.98999999999,"N_COORD97":2554329.25,"ADDRESS":"港口８號","OBJECTID":7157},"geometry":{"x":171183.99000000115,"y":2554329.2500000037}},{"attributes":{"ID":7158,"DIS_CODE":0,"TOWNNAME":"東山區","LI":"高原里","LIN":"1鄰","STREET":" ","SECT":" ","MAREA":"高原","LANE":" ","ALLEY":" ","HOUSE_NO":"３號","E_COORD97":195804.97,"N_COORD97":2575600.23,"ADDRESS":"高原３號","OBJECTID":7158},"geometry":{"x":195804.97000000067,"y":2575600.2300000004}},{"attributes":{"ID":7159,"DIS_CODE":0,"TOWNNAME":"東山區","LI":"林安里","LIN":"1鄰","STREET":" ","SECT":" ","MAREA":"林安","LANE":" ","ALLEY":" ","HOUSE_NO":"１號","E_COORD97":192460.57999999999,"N_COORD97":2575394.8599999999,"ADDRESS":"林安１號","OBJECTID":7159},"geometry":{"x":192460.58000000007,"y":2575394.8599999994}},{"attributes":{"ID":7160,"DIS_CODE":0,"TOWNNAME":"新化區","LI":"崙頂里","LIN":"1鄰","STREET":" ","SECT":" ","MAREA":"崙子頂","LANE":" ","ALLEY":" ","HOUSE_NO":"１４號","E_COORD97":176990.98000000001,"N_COORD97":2546788.25,"ADDRESS":"崙子頂１４號","OBJECTID":7160},"geometry":{"x":176990.98000000045,"y":2546788.25}},{"attributes":{"ID":7161,"DIS_CODE":0,"TOWNNAME":"白河區","LI":"草店里","LIN":"8鄰","STREET":" ","SECT":" ","MAREA":"草店","LANE":" ","ALLEY":" ","HOUSE_NO":"９４號","E_COORD97":191608.14000000001,"N_COORD97":2587144.23,"ADDRESS":"草店９４號","OBJECTID":7161},"geometry":{"x":191608.1400000006,"y":2587144.2300000004}},{"attributes":{"ID":7162,"DIS_CODE":0,"TOWNNAME":"六甲區","LI":"大丘里","LIN":"8鄰","STREET":" ","SECT":" ","MAREA":"北勢坑","LANE":" ","ALLEY":" ","HOUSE_NO":"４號","E_COORD97":191304.07000000001,"N_COORD97":2569698.6800000002,"ADDRESS":"北勢坑４號","OBJECTID":7162},"geometry":{"x":191304.07000000123,"y":2569698.6800000016}},{"attributes":{"ID":7163,"DIS_CODE":0,"TOWNNAME":"新營區","LI":"嘉芳里","LIN":" ","STREET":" ","SECT":" ","MAREA":"茄苳腳","LANE":" ","ALLEY":" ","HOUSE_NO":"９號","E_COORD97":177163.70000000001,"N_COORD97":2578258.5800000001,"ADDRESS":"茄苳腳９號","OBJECTID":7163},"geometry":{"x":177163.70000000019,"y":2578258.5800000001}},{"attributes":{"ID":7164,"DIS_CODE":0,"TOWNNAME":"佳里區","LI":"溪州里","LIN":"1鄰","STREET":" ","SECT":" ","MAREA":"溪州","LANE":" ","ALLEY":" ","HOUSE_NO":"８號","E_COORD97":166294.95000000001,"N_COORD97":2567275.2400000002,"ADDRESS":"溪州８號","OBJECTID":7164},"geometry":{"x":166294.95000000205,"y":2567275.2400000021}},{"attributes":{"ID":7165,"DIS_CODE":0,"TOWNNAME":"新市區","LI":"社內里","LIN":"8鄰","STREET":" ","SECT":" ","MAREA":"社內","LANE":" ","ALLEY":" ","HOUSE_NO":"８２號","E_COORD97":176497.00637399999,"N_COORD97":2553008.9720100001,"ADDRESS":"社內８２號","OBJECTID":7165},"geometry":{"x":176497.00637400057,"y":2553008.9720130023}},{"attributes":{"ID":7166,"DIS_CODE":0,"TOWNNAME":"麻豆區","LI":"大埕里","LIN":"7鄰","STREET":" ","SECT":" ","MAREA":"大埕","LANE":" ","ALLEY":" ","HOUSE_NO":"８號","E_COORD97":173272.5,"N_COORD97":2565114.6299999999,"ADDRESS":"大埕８號","OBJECTID":7166},"geometry":{"x":173272.50000000093,"y":2565114.6300000008}},{"attributes":{"ID":7167,"DIS_CODE":0,"TOWNNAME":"仁德區","LI":"仁義里","LIN":" ","STREET":"仁義路","SECT":" ","MAREA":" ","LANE":" ","ALLEY":" ","HOUSE_NO":"３號","E_COORD97":173390.67000000001,"N_COORD97":2540953.52,"ADDRESS":"仁義路３號","OBJECTID":7167},"geometry":{"x":173390.66999999993,"y":2540953.5200000014}},{"attributes":{"ID":7168,"DIS_CODE":0,"TOWNNAME":"白河區","LI":"永安里","LIN":"7鄰","STREET":" ","SECT":" ","MAREA":"新厝子","LANE":" ","ALLEY":" ","HOUSE_NO":"３號","E_COORD97":189784.72,"N_COORD97":2583049.75,"ADDRESS":"新厝子３號","OBJECTID":7168},"geometry":{"x":189784.72000000067,"y":2583049.7500000019}},{"attributes":{"ID":7169,"DIS_CODE":0,"TOWNNAME":"安平區","LI":"文平里","LIN":"7鄰","STREET":"建平六街","SECT":" ","MAREA":" ","LANE":"１１０巷","ALLEY":" ","HOUSE_NO":"２１號","E_COORD97":166204.38033399999,"N_COORD97":2543179.40032,"ADDRESS":"建平六街１１０巷２１號","OBJECTID":7169},"geometry":{"x":166204.38033400103,"y":2543179.4003170002}},{"attributes":{"ID":7170,"DIS_CODE":0,"TOWNNAME":"善化區","LI":"胡厝里","LIN":"10鄰","STREET":" ","SECT":" ","MAREA":"百二甲","LANE":" ","ALLEY":" ","HOUSE_NO":"３號","E_COORD97":175310.20000000001,"N_COORD97":2559951.25,"ADDRESS":"百二甲３號","OBJECTID":7170},"geometry":{"x":175310.20000000112,"y":2559951.2500000019}},{"attributes":{"ID":7171,"DIS_CODE":0,"TOWNNAME":"中西區","LI":"光賢里","LIN":" ","STREET":"西和路","SECT":" ","MAREA":" ","LANE":" ","ALLEY":" ","HOUSE_NO":"１號","E_COORD97":166646.32000000001,"N_COORD97":2544414.77,"ADDRESS":"西和路１號","OBJECTID":7171},"geometry":{"x":166646.3200000003,"y":2544414.7699999996}},{"attributes":{"ID":7172,"DIS_CODE":0,"TOWNNAME":"北區","LI":"長榮里","LIN":"8鄰","STREET":"長勝路","SECT":" ","MAREA":" ","LANE":" ","ALLEY":" ","HOUSE_NO":"９號","E_COORD97":170053.82000000001,"N_COORD97":2545535.75,"ADDRESS":"長勝路９號","OBJECTID":7172},"geometry":{"x":170053.8200000003,"y":2545535.7500000019}},{"attributes":{"ID":7173,"DIS_CODE":0,"TOWNNAME":"白河區","LI":"仙草里","LIN":"15鄰","STREET":" ","SECT":" ","MAREA":"白水溪","LANE":" ","ALLEY":" ","HOUSE_NO":"５７號","E_COORD97":198554.12582099999,"N_COORD97":2585258.1543899998,"ADDRESS":"白水溪５７號","OBJECTID":7173},"geometry":{"x":198554.12582099997,"y":2585258.1543890014}},{"attributes":{"ID":7174,"DIS_CODE":0,"TOWNNAME":"麻豆區","LI":"北勢里","LIN":"1鄰","STREET":" ","SECT":" ","MAREA":"加輦邦","LANE":" ","ALLEY":" ","HOUSE_NO":"５號","E_COORD97":173521.82000000001,"N_COORD97":2566139.9399999999,"ADDRESS":"加輦邦５號","OBJECTID":7174},"geometry":{"x":173521.8200000003,"y":2566139.9400000013}},{"attributes":{"ID":7175,"DIS_CODE":0,"TOWNNAME":"楠西區","LI":"密枝里","LIN":"1鄰","STREET":" ","SECT":" ","MAREA":"密枝","LANE":" ","ALLEY":" ","HOUSE_NO":"５號","E_COORD97":200152.42000000001,"N_COORD97":2566346.2799999998,"ADDRESS":"密枝５號","OBJECTID":7175},"geometry":{"x":200152.41999999993,"y":2566346.2799999993}},{"attributes":{"ID":7176,"DIS_CODE":0,"TOWNNAME":"六甲區","LI":"大丘里","LIN":"1鄰","STREET":" ","SECT":" ","MAREA":"中坑","LANE":" ","ALLEY":" ","HOUSE_NO":"２號","E_COORD97":194321.91,"N_COORD97":2569353.9399999999,"ADDRESS":"中坑２號","OBJECTID":7176},"geometry":{"x":194321.91000000108,"y":2569353.9400000013}},{"attributes":{"ID":7177,"DIS_CODE":0,"TOWNNAME":"玉井區","LI":"沙田里","LIN":"1鄰","STREET":" ","SECT":" ","MAREA":"沙田","LANE":" ","ALLEY":" ","HOUSE_NO":"３號","E_COORD97":195453.62,"N_COORD97":2557197.29,"ADDRESS":"沙田３號","OBJECTID":7177},"geometry":{"x":195453.62000000011,"y":2557197.290000001}},{"attributes":{"ID":7178,"DIS_CODE":0,"TOWNNAME":"善化區","LI":"胡厝里","LIN":"23鄰","STREET":" ","SECT":" ","MAREA":"烏橋","LANE":" ","ALLEY":" ","HOUSE_NO":"６號","E_COORD97":175420.47,"N_COORD97":2558882.75,"ADDRESS":"烏橋６號","OBJECTID":7178},"geometry":{"x":175420.46999999974,"y":2558882.7500000037}},{"attributes":{"ID":7179,"DIS_CODE":0,"TOWNNAME":"白河區","LI":"河東里","LIN":"1鄰","STREET":" ","SECT":" ","MAREA":"糞箕湖","LANE":" ","ALLEY":" ","HOUSE_NO":"８號","E_COORD97":192253.85000000001,"N_COORD97":2582308.8199999998,"ADDRESS":"糞箕湖８號","OBJECTID":7179},"geometry":{"x":192253.85000000056,"y":2582308.8200000003}},{"attributes":{"ID":7180,"DIS_CODE":0,"TOWNNAME":"七股區","LI":"龍山里","LIN":"1鄰","STREET":" ","SECT":" ","MAREA":"龍山","LANE":" ","ALLEY":" ","HOUSE_NO":"３號","E_COORD97":159808.59,"N_COORD97":2559696.0600000001,"ADDRESS":"龍山３號","OBJECTID":7180},"geometry":{"x":159808.59000000078,"y":2559696.0600000024}},{"attributes":{"ID":7181,"DIS_CODE":0,"TOWNNAME":"永康區","LI":"南灣里","LIN":"31鄰","STREET":"大安街","SECT":" ","MAREA":" ","LANE":" ","ALLEY":" ","HOUSE_NO":"５號","E_COORD97":174398.06,"N_COORD97":2544770.5699999998,"ADDRESS":"大安街５號","OBJECTID":7181},"geometry":{"x":174398.05999999959,"y":2544770.5700000022}},{"attributes":{"ID":7182,"DIS_CODE":0,"TOWNNAME":"龍崎區","LI":"土崎里","LIN":"14鄰","STREET":" ","SECT":" ","MAREA":"觀音山","LANE":" ","ALLEY":" ","HOUSE_NO":"９號","E_COORD97":186752.79000000001,"N_COORD97":2544233.25,"ADDRESS":"觀音山９號","OBJECTID":7182},"geometry":{"x":186752.79000000004,"y":2544233.2500000019}},{"attributes":{"ID":7183,"DIS_CODE":0,"TOWNNAME":"將軍區","LI":"嘉昌里","LIN":"1鄰","STREET":" ","SECT":" ","MAREA":"北嘉","LANE":" ","ALLEY":" ","HOUSE_NO":"２號","E_COORD97":163766.48000000001,"N_COORD97":2567488.1099999999,"ADDRESS":"北嘉２號","OBJECTID":7183},"geometry":{"x":163766.48000000138,"y":2567488.1100000013}},{"attributes":{"ID":7184,"DIS_CODE":0,"TOWNNAME":"六甲區","LI":"大丘里","LIN":"12鄰","STREET":" ","SECT":" ","MAREA":"南勢坑","LANE":" ","ALLEY":" ","HOUSE_NO":"２號","E_COORD97":191602.91,"N_COORD97":2568175.6899999999,"ADDRESS":"南勢坑２號","OBJECTID":7184},"geometry":{"x":191602.91000000108,"y":2568175.6900000032}},{"attributes":{"ID":7185,"DIS_CODE":0,"TOWNNAME":"鹽水區","LI":"歡雅里","LIN":"1鄰","STREET":" ","SECT":" ","MAREA":"歡雅","LANE":" ","ALLEY":" ","HOUSE_NO":"８號","E_COORD97":172530.82000000001,"N_COORD97":2576926.3300000001,"ADDRESS":"歡雅８號","OBJECTID":7185},"geometry":{"x":172530.82000000216,"y":2576926.3300000019}},{"attributes":{"ID":7186,"DIS_CODE":0,"TOWNNAME":"安定區","LI":"港尾里","LIN":"5鄰","STREET":" ","SECT":" ","MAREA":"港子尾","LANE":" ","ALLEY":" ","HOUSE_NO":"８號","E_COORD97":171511.44,"N_COORD97":2556141.2599999998,"ADDRESS":"港子尾８號","OBJECTID":7186},"geometry":{"x":171511.44000000134,"y":2556141.2599999998}},{"attributes":{"ID":7187,"DIS_CODE":0,"TOWNNAME":"東山區","LI":"聖賢里","LIN":"15鄰","STREET":" ","SECT":" ","MAREA":"頂窩","LANE":" ","ALLEY":" ","HOUSE_NO":"３號","E_COORD97":183398.73000000001,"N_COORD97":2578507.9500000002,"ADDRESS":"頂窩３號","OBJECTID":7187},"geometry":{"x":183398.73000000045,"y":2578507.9500000011}},{"attributes":{"ID":7188,"DIS_CODE":0,"TOWNNAME":"六甲區","LI":"甲東里","LIN":"6鄰","STREET":"四維街","SECT":" ","MAREA":" ","LANE":" ","ALLEY":" ","HOUSE_NO":"８號","E_COORD97":183947.31,"N_COORD97":2570175.9300000002,"ADDRESS":"四維街８號","OBJECTID":7188},"geometry":{"x":183947.31000000145,"y":2570175.9300000016}},{"attributes":{"ID":7189,"DIS_CODE":0,"TOWNNAME":"後壁區","LI":"土溝里","LIN":" ","STREET":" ","SECT":" ","MAREA":"土溝","LANE":" ","ALLEY":" ","HOUSE_NO":"６號","E_COORD97":186726.48999999999,"N_COORD97":2585845.8399999999,"ADDRESS":"土溝６號","OBJECTID":7189},"geometry":{"x":186726.49000000022,"y":2585845.8400000017}},{"attributes":{"ID":7190,"DIS_CODE":0,"TOWNNAME":"後壁區","LI":"長安里","LIN":" ","STREET":" ","SECT":" ","MAREA":"中寮","LANE":" ","ALLEY":" ","HOUSE_NO":"５號","E_COORD97":184636.20000000001,"N_COORD97":2581349.1600000001,"ADDRESS":"中寮５號","OBJECTID":7190},"geometry":{"x":184636.20000000019,"y":2581349.160000002}},{"attributes":{"ID":7191,"DIS_CODE":0,"TOWNNAME":"佳里區","LI":"海澄里","LIN":"6鄰","STREET":" ","SECT":" ","MAREA":"番子寮","LANE":" ","ALLEY":" ","HOUSE_NO":"３０號","E_COORD97":164161.95000000001,"N_COORD97":2564606.21,"ADDRESS":"番子寮３０號","OBJECTID":7191},"geometry":{"x":164161.95000000019,"y":2564606.2100000009}},{"attributes":{"ID":7192,"DIS_CODE":0,"TOWNNAME":"後壁區","LI":"菁寮里","LIN":" ","STREET":" ","SECT":" ","MAREA":"菁寮","LANE":" ","ALLEY":" ","HOUSE_NO":"２１號","E_COORD97":181974.82000000001,"N_COORD97":2586368.2000000002,"ADDRESS":"菁寮２１號","OBJECTID":7192},"geometry":{"x":181974.82000000216,"y":2586368.200000003}},{"attributes":{"ID":7193,"DIS_CODE":0,"TOWNNAME":"新化區","LI":"唪口里","LIN":"6鄰","STREET":" ","SECT":" ","MAREA":"唪口","LANE":" ","ALLEY":" ","HOUSE_NO":"６８號之９","E_COORD97":178101.04000000001,"N_COORD97":2548980.2599999998,"ADDRESS":"唪口６８號之９","OBJECTID":7193},"geometry":{"x":178101.03999999911,"y":2548980.2600000016}},{"attributes":{"ID":7194,"DIS_CODE":0,"TOWNNAME":"北門區","LI":"鯤江里","LIN":" ","STREET":" ","SECT":" ","MAREA":"蚵寮","LANE":" ","ALLEY":" ","HOUSE_NO":"７７８號","E_COORD97":161668.81,"N_COORD97":2576259.6600000001,"ADDRESS":"蚵寮７７８號","OBJECTID":7194},"geometry":{"x":161668.80999999959,"y":2576259.660000002}},{"attributes":{"ID":7195,"DIS_CODE":0,"TOWNNAME":"新市區","LI":"大營里","LIN":"6鄰","STREET":" ","SECT":" ","MAREA":"大營","LANE":" ","ALLEY":" ","HOUSE_NO":"１２８號","E_COORD97":179309.26000000001,"N_COORD97":2554705.5,"ADDRESS":"大營１２８號","OBJECTID":7195},"geometry":{"x":179309.25999999978,"y":2554705.5000000019}},{"attributes":{"ID":7196,"DIS_CODE":0,"TOWNNAME":"七股區","LI":"大埕里","LIN":" ","STREET":" ","SECT":" ","MAREA":"大埕","LANE":" ","ALLEY":" ","HOUSE_NO":"４４４號","E_COORD97":162101.67000000001,"N_COORD97":2559733.7000000002,"ADDRESS":"大埕４４４號","OBJECTID":7196},"geometry":{"x":162101.67000000086,"y":2559733.7000000011}},{"attributes":{"ID":7197,"DIS_CODE":0,"TOWNNAME":"七股區","LI":"後港里","LIN":" ","STREET":" ","SECT":" ","MAREA":"港西","LANE":" ","ALLEY":" ","HOUSE_NO":"７３號","E_COORD97":162081.95999999999,"N_COORD97":2564824.1299999999,"ADDRESS":"港西７３號","OBJECTID":7197},"geometry":{"x":162081.95999999903,"y":2564824.129999999}},{"attributes":{"ID":7198,"DIS_CODE":0,"TOWNNAME":"新市區","LI":"潭頂里","LIN":" ","STREET":" ","SECT":" ","MAREA":"潭頂","LANE":" ","ALLEY":" ","HOUSE_NO":"４０２號","E_COORD97":180506.94,"N_COORD97":2553042.5,"ADDRESS":"潭頂４０２號","OBJECTID":7198},"geometry":{"x":180506.94000000041,"y":2553042.4999999981}},{"attributes":{"ID":7199,"DIS_CODE":0,"TOWNNAME":"將軍區","LI":"平沙里","LIN":"3鄰","STREET":" ","SECT":" ","MAREA":"平沙","LANE":" ","ALLEY":" ","HOUSE_NO":"２４之２３號","E_COORD97":157317.97373600001,"N_COORD97":2568550.5882000001,"ADDRESS":"平沙２４號","OBJECTID":7199},"geometry":{"x":157317.97373600025,"y":2568550.5882040001}},{"attributes":{"ID":7200,"DIS_CODE":0,"TOWNNAME":"將軍區","LI":"長榮里","LIN":" ","STREET":" ","SECT":" ","MAREA":"長榮","LANE":" ","ALLEY":" ","HOUSE_NO":"１０９號","E_COORD97":163837.64000000001,"N_COORD97":2566258.3700000001,"ADDRESS":"長榮１０９號","OBJECTID":7200},"geometry":{"x":163837.63999999966,"y":2566258.3700000029}}]}