{"displayFieldName":"TOWNNAME","fieldAliases":{"ID":"ID","DIS_CODE":"DIS_CODE","TOWNNAME":"TOWNNAME","LI":"LI","LIN":"LIN","STREET":"STREET","SECT":"SECT","MAREA":"MAREA","LANE":"LANE","ALLEY":"ALLEY","HOUSE_NO":"HOUSE_NO","E_COORD97":"E_COORD97","N_COORD97":"N_COORD97","ADDRESS":"ADDRESS","OBJECTID":"OBJECTID"},"geometryType":"esriGeometryPoint","spatialReference":{"wkid":102443,"latestWkid":3826},"fields":[{"name":"ID","type":"esriFieldTypeDouble","alias":"ID"},{"name":"DIS_CODE","type":"esriFieldTypeInteger","alias":"DIS_CODE"},{"name":"TOWNNAME","type":"esriFieldTypeString","alias":"TOWNNAME","length":8},{"name":"LI","type":"esriFieldTypeString","alias":"LI","length":8},{"name":"LIN","type":"esriFieldTypeString","alias":"LIN","length":12},{"name":"STREET","type":"esriFieldTypeString","alias":"STREET","length":20},{"name":"SECT","type":"esriFieldTypeString","alias":"SECT","length":8},{"name":"MAREA","type":"esriFieldTypeString","alias":"MAREA","length":12},{"name":"LANE","type":"esriFieldTypeString","alias":"LANE","length":10},{"name":"ALLEY","type":"esriFieldTypeString","alias":"ALLEY","length":10},{"name":"HOUSE_NO","type":"esriFieldTypeString","alias":"HOUSE_NO","length":20},{"name":"E_COORD97","type":"esriFieldTypeDouble","alias":"E_COORD97"},{"name":"N_COORD97","type":"esriFieldTypeDouble","alias":"N_COORD97"},{"name":"ADDRESS","type":"esriFieldTypeString","alias":"ADDRESS","length":50},{"name":"OBJECTID","type":"esriFieldTypeOID","alias":"OBJECTID"}],"features":[{"attributes":{"ID":356410,"DIS_CODE":0,"TOWNNAME":"南區","LI":"金華里","LIN":"33鄰","STREET":"新孝路","SECT":" ","MAREA":" ","LANE":"１７２巷","ALLEY":" ","HOUSE_NO":"４１號","E_COORD97":166491.29999999999,"N_COORD97":2542223.8799999999,"ADDRESS":"新孝路１７２巷４１號","OBJECTID":356401},"geometry":{"x":166491.30000000075,"y":2542223.8800000027}},{"attributes":{"ID":356411,"DIS_CODE":0,"TOWNNAME":"南區","LI":"金華里","LIN":"33鄰","STREET":"新孝路","SECT":" ","MAREA":" ","LANE":"１７２巷","ALLEY":" ","HOUSE_NO":"４３號","E_COORD97":166492.87,"N_COORD97":2542228.27,"ADDRESS":"新孝路１７２巷４３號","OBJECTID":356402},"geometry":{"x":166492.87000000011,"y":2542228.2699999977}},{"attributes":{"ID":356412,"DIS_CODE":0,"TOWNNAME":"南區","LI":"金華里","LIN":"33鄰","STREET":"新孝路","SECT":" ","MAREA":" ","LANE":"１７２巷","ALLEY":" ","HOUSE_NO":"４５號","E_COORD97":166494.92000000001,"N_COORD97":2542232.79,"ADDRESS":"新孝路１７２巷４５號","OBJECTID":356403},"geometry":{"x":166494.92000000179,"y":2542232.790000001}},{"attributes":{"ID":356413,"DIS_CODE":0,"TOWNNAME":"南區","LI":"金華里","LIN":"33鄰","STREET":"新孝路","SECT":" ","MAREA":" ","LANE":"１７２巷","ALLEY":" ","HOUSE_NO":"４７號","E_COORD97":166496.48999999999,"N_COORD97":2542236.8199999998,"ADDRESS":"新孝路１７２巷４７號","OBJECTID":356404},"geometry":{"x":166496.49000000209,"y":2542236.8200000022}},{"attributes":{"ID":356414,"DIS_CODE":0,"TOWNNAME":"南區","LI":"金華里","LIN":"33鄰","STREET":"新孝路","SECT":" ","MAREA":" ","LANE":"１７２巷","ALLEY":" ","HOUSE_NO":"４９號","E_COORD97":166497.72,"N_COORD97":2542240.8500000001,"ADDRESS":"新孝路１７２巷４９號","OBJECTID":356405},"geometry":{"x":166497.7200000016,"y":2542240.8499999996}},{"attributes":{"ID":356415,"DIS_CODE":0,"TOWNNAME":"南區","LI":"金華里","LIN":"33鄰","STREET":"新孝路","SECT":" ","MAREA":" ","LANE":"１７２巷","ALLEY":" ","HOUSE_NO":"５１號","E_COORD97":166497.23000000001,"N_COORD97":2542246.6800000002,"ADDRESS":"新孝路１７２巷５１號","OBJECTID":356406},"geometry":{"x":166497.23000000138,"y":2542246.6800000016}},{"attributes":{"ID":356416,"DIS_CODE":0,"TOWNNAME":"仁德區","LI":"仁德里","LIN":"18鄰","STREET":"文華路","SECT":"三段","MAREA":" ","LANE":"１８９巷","ALLEY":" ","HOUSE_NO":"６２號","E_COORD97":172115.81,"N_COORD97":2540483.0699999998,"ADDRESS":"文華路三段１８９巷６２號","OBJECTID":356407},"geometry":{"x":172115.80999999959,"y":2540483.0700000003}},{"attributes":{"ID":356417,"DIS_CODE":0,"TOWNNAME":"仁德區","LI":"仁德里","LIN":"6鄰","STREET":"仁德三街","SECT":" ","MAREA":" ","LANE":"３５巷","ALLEY":" ","HOUSE_NO":"１１號","E_COORD97":173256.20999999999,"N_COORD97":2540941.52,"ADDRESS":"仁德三街３５巷１１號","OBJECTID":356408},"geometry":{"x":173256.20999999996,"y":2540941.5199999977}},{"attributes":{"ID":356418,"DIS_CODE":0,"TOWNNAME":"南區","LI":"金華里","LIN":"33鄰","STREET":"新孝路","SECT":" ","MAREA":" ","LANE":"１７２巷","ALLEY":" ","HOUSE_NO":"５號","E_COORD97":166452.47,"N_COORD97":2542102.3799999999,"ADDRESS":"新孝路１７２巷５號","OBJECTID":356409},"geometry":{"x":166452.47000000067,"y":2542102.3800000008}},{"attributes":{"ID":356419,"DIS_CODE":0,"TOWNNAME":"南區","LI":"金華里","LIN":"33鄰","STREET":"新孝路","SECT":" ","MAREA":" ","LANE":"１７２巷","ALLEY":" ","HOUSE_NO":"７號","E_COORD97":166454.28,"N_COORD97":2542107.0600000001,"ADDRESS":"新孝路１７２巷７號","OBJECTID":356410},"geometry":{"x":166454.28000000119,"y":2542107.0600000024}},{"attributes":{"ID":356420,"DIS_CODE":0,"TOWNNAME":"南區","LI":"金華里","LIN":"33鄰","STREET":"新孝路","SECT":" ","MAREA":" ","LANE":"１７２巷","ALLEY":" ","HOUSE_NO":"９號","E_COORD97":166455.42999999999,"N_COORD97":2542110.5099999998,"ADDRESS":"新孝路１７２巷９號","OBJECTID":356411},"geometry":{"x":166455.42999999877,"y":2542110.5099999998}},{"attributes":{"ID":356421,"DIS_CODE":0,"TOWNNAME":"新營區","LI":"王公里","LIN":"33鄰","STREET":"長榮路","SECT":"一段","MAREA":" ","LANE":"５１５巷","ALLEY":" ","HOUSE_NO":"１３號","E_COORD97":180306.29999999999,"N_COORD97":2579792.79,"ADDRESS":"長榮路一段５１５巷１３號","OBJECTID":356412},"geometry":{"x":180306.30000000168,"y":2579792.7899999991}},{"attributes":{"ID":356422,"DIS_CODE":0,"TOWNNAME":"新營區","LI":"忠政里","LIN":"33鄰","STREET":"中正路","SECT":" ","MAREA":" ","LANE":"３７巷","ALLEY":" ","HOUSE_NO":"１８６號","E_COORD97":179876.07000000001,"N_COORD97":2579171.3300000001,"ADDRESS":"中正路３７巷１８６號","OBJECTID":356413},"geometry":{"x":179876.07000000216,"y":2579171.3300000019}},{"attributes":{"ID":356423,"DIS_CODE":0,"TOWNNAME":"北區","LI":"成德里","LIN":"33鄰","STREET":"育成路","SECT":" ","MAREA":" ","LANE":"１９１巷","ALLEY":" ","HOUSE_NO":"３３號","E_COORD97":168594.20999999999,"N_COORD97":2546522.2999999998,"ADDRESS":"育成路１９１巷３３號","OBJECTID":356414},"geometry":{"x":168594.20999999996,"y":2546522.3000000026}},{"attributes":{"ID":356424,"DIS_CODE":0,"TOWNNAME":"北區","LI":"成德里","LIN":"33鄰","STREET":"育成路","SECT":" ","MAREA":" ","LANE":"１９１巷","ALLEY":" ","HOUSE_NO":"３５號","E_COORD97":168589.35999999999,"N_COORD97":2546521.5299999998,"ADDRESS":"育成路１９１巷３５號","OBJECTID":356415},"geometry":{"x":168589.3600000022,"y":2546521.5299999993}},{"attributes":{"ID":356425,"DIS_CODE":0,"TOWNNAME":"北區","LI":"成德里","LIN":"33鄰","STREET":"育成路","SECT":" ","MAREA":" ","LANE":"１９１巷","ALLEY":" ","HOUSE_NO":"３７號","E_COORD97":168584.79000000001,"N_COORD97":2546521,"ADDRESS":"育成路１９１巷３７號","OBJECTID":356416},"geometry":{"x":168584.79000000097,"y":2546521.0000000019}},{"attributes":{"ID":356426,"DIS_CODE":0,"TOWNNAME":"北區","LI":"成德里","LIN":"33鄰","STREET":"育成路","SECT":" ","MAREA":" ","LANE":"１９１巷","ALLEY":" ","HOUSE_NO":"３９號","E_COORD97":168580.10000000001,"N_COORD97":2546520.1899999999,"ADDRESS":"育成路１９１巷３９號","OBJECTID":356417},"geometry":{"x":168580.10000000149,"y":2546520.1899999995}},{"attributes":{"ID":356427,"DIS_CODE":0,"TOWNNAME":"仁德區","LI":"仁義里","LIN":"9鄰","STREET":"仁義三街","SECT":" ","MAREA":" ","LANE":"１０７巷","ALLEY":" ","HOUSE_NO":"４號","E_COORD97":173631.56,"N_COORD97":2541154.02,"ADDRESS":"仁義三街１０７巷４號","OBJECTID":356418},"geometry":{"x":173631.55999999959,"y":2541154.0199999996}},{"attributes":{"ID":356428,"DIS_CODE":0,"TOWNNAME":"安平區","LI":"育平里","LIN":"33鄰","STREET":"建平七街","SECT":" ","MAREA":" ","LANE":"８１８巷","ALLEY":" ","HOUSE_NO":"８號","E_COORD97":164551.66,"N_COORD97":2543496.2999999998,"ADDRESS":"建平七街８１８巷８號","OBJECTID":356419},"geometry":{"x":164551.66000000015,"y":2543496.3000000007}},{"attributes":{"ID":356429,"DIS_CODE":0,"TOWNNAME":"安平區","LI":"育平里","LIN":"33鄰","STREET":"郡平路","SECT":" ","MAREA":" ","LANE":"２７４巷","ALLEY":" ","HOUSE_NO":"３３號","E_COORD97":164421.82000000001,"N_COORD97":2543491.54,"ADDRESS":"郡平路２７４巷３３號","OBJECTID":356420},"geometry":{"x":164421.82000000123,"y":2543491.540000001}},{"attributes":{"ID":356430,"DIS_CODE":0,"TOWNNAME":"安平區","LI":"育平里","LIN":"33鄰","STREET":"郡平路","SECT":" ","MAREA":" ","LANE":"２７４巷","ALLEY":" ","HOUSE_NO":"３５號","E_COORD97":164423.70999999999,"N_COORD97":2543497.1200000001,"ADDRESS":"郡平路２７４巷３５號","OBJECTID":356421},"geometry":{"x":164423.71000000089,"y":2543497.1200000029}},{"attributes":{"ID":356431,"DIS_CODE":0,"TOWNNAME":"安平區","LI":"育平里","LIN":"33鄰","STREET":"郡平路","SECT":" ","MAREA":" ","LANE":"２７４巷","ALLEY":" ","HOUSE_NO":"３７號","E_COORD97":164424.56,"N_COORD97":2543502.2799999998,"ADDRESS":"郡平路２７４巷３７號","OBJECTID":356422},"geometry":{"x":164424.56000000052,"y":2543502.2799999993}},{"attributes":{"ID":356432,"DIS_CODE":0,"TOWNNAME":"北區","LI":"和順里","LIN":"36鄰","STREET":"公園南路","SECT":" ","MAREA":" ","LANE":"３７０巷","ALLEY":" ","HOUSE_NO":"２號","E_COORD97":168198.47,"N_COORD97":2544885.8399999999,"ADDRESS":"公園南路３７０巷２號","OBJECTID":356423},"geometry":{"x":168198.47000000067,"y":2544885.8399999999}},{"attributes":{"ID":356433,"DIS_CODE":0,"TOWNNAME":"安平區","LI":"育平里","LIN":"33鄰","STREET":"郡平路","SECT":" ","MAREA":" ","LANE":"２７４巷","ALLEY":" ","HOUSE_NO":"３９號","E_COORD97":164425.60999999999,"N_COORD97":2543507.75,"ADDRESS":"郡平路２７４巷３９號","OBJECTID":356424},"geometry":{"x":164425.61000000034,"y":2543507.7500000019}},{"attributes":{"ID":356434,"DIS_CODE":0,"TOWNNAME":"安平區","LI":"育平里","LIN":"33鄰","STREET":"郡平路","SECT":" ","MAREA":" ","LANE":"２７４巷","ALLEY":" ","HOUSE_NO":"４１號","E_COORD97":164426.35000000001,"N_COORD97":2543513.5800000001,"ADDRESS":"郡平路２７４巷４１號","OBJECTID":356425},"geometry":{"x":164426.34999999963,"y":2543513.5800000001}},{"attributes":{"ID":356435,"DIS_CODE":0,"TOWNNAME":"安平區","LI":"育平里","LIN":"33鄰","STREET":"郡平路","SECT":" ","MAREA":" ","LANE":"２７４巷","ALLEY":" ","HOUSE_NO":"４３號","E_COORD97":164427.39999999999,"N_COORD97":2543519.1600000001,"ADDRESS":"郡平路２７４巷４３號","OBJECTID":356426},"geometry":{"x":164427.40000000224,"y":2543519.160000002}},{"attributes":{"ID":356436,"DIS_CODE":0,"TOWNNAME":"安平區","LI":"育平里","LIN":"33鄰","STREET":"郡平路","SECT":" ","MAREA":" ","LANE":"２７４巷","ALLEY":" ","HOUSE_NO":"４７號","E_COORD97":164428.14000000001,"N_COORD97":2543530.9500000002,"ADDRESS":"郡平路２７４巷４７號","OBJECTID":356427},"geometry":{"x":164428.13999999966,"y":2543530.9499999993}},{"attributes":{"ID":356437,"DIS_CODE":0,"TOWNNAME":"歸仁區","LI":"南保里","LIN":"33鄰","STREET":"中山路","SECT":"三段","MAREA":" ","LANE":"１００巷","ALLEY":" ","HOUSE_NO":"１８號","E_COORD97":176784.51000000001,"N_COORD97":2540979.2799999998,"ADDRESS":"中山路三段１００巷１８號","OBJECTID":356428},"geometry":{"x":176784.51000000071,"y":2540979.2799999993}},{"attributes":{"ID":356438,"DIS_CODE":0,"TOWNNAME":"歸仁區","LI":"後市里","LIN":"33鄰","STREET":"文化街","SECT":"二段","MAREA":" ","LANE":"５３巷","ALLEY":" ","HOUSE_NO":"１６號","E_COORD97":177393.64000000001,"N_COORD97":2541036.7599999998,"ADDRESS":"文化街二段５３巷１６號","OBJECTID":356429},"geometry":{"x":177393.6400000006,"y":2541036.7600000016}},{"attributes":{"ID":356439,"DIS_CODE":0,"TOWNNAME":"歸仁區","LI":"後市里","LIN":"33鄰","STREET":"文化街","SECT":"二段","MAREA":" ","LANE":"５３巷","ALLEY":" ","HOUSE_NO":"３號","E_COORD97":177407.89000000001,"N_COORD97":2541064.7599999998,"ADDRESS":"文化街二段５３巷３號","OBJECTID":356430},"geometry":{"x":177407.88999999966,"y":2541064.7599999998}},{"attributes":{"ID":356440,"DIS_CODE":0,"TOWNNAME":"歸仁區","LI":"後市里","LIN":"33鄰","STREET":"文化街","SECT":"二段","MAREA":" ","LANE":"５３巷","ALLEY":" ","HOUSE_NO":"１５號","E_COORD97":177406.04000000001,"N_COORD97":2541043.7599999998,"ADDRESS":"文化街二段５３巷１５號","OBJECTID":356431},"geometry":{"x":177406.0400000019,"y":2541043.7600000016}},{"attributes":{"ID":356441,"DIS_CODE":0,"TOWNNAME":"歸仁區","LI":"後市里","LIN":"33鄰","STREET":"文化街","SECT":"二段","MAREA":" ","LANE":"５３巷","ALLEY":" ","HOUSE_NO":"１３號","E_COORD97":177406.04000000001,"N_COORD97":2541048.7599999998,"ADDRESS":"文化街二段５３巷１３號","OBJECTID":356432},"geometry":{"x":177406.0400000019,"y":2541048.7600000035}},{"attributes":{"ID":356442,"DIS_CODE":0,"TOWNNAME":"歸仁區","LI":"辜厝里","LIN":"33鄰","STREET":"中正南路","SECT":"一段","MAREA":" ","LANE":"２１８巷","ALLEY":" ","HOUSE_NO":"２０號","E_COORD97":177289.72,"N_COORD97":2540385.6800000002,"ADDRESS":"中正南路一段２１８巷２０號","OBJECTID":356433},"geometry":{"x":177289.72000000067,"y":2540385.6800000016}},{"attributes":{"ID":356443,"DIS_CODE":0,"TOWNNAME":"歸仁區","LI":"辜厝里","LIN":"33鄰","STREET":"中正南路","SECT":"一段","MAREA":" ","LANE":"２１８巷","ALLEY":" ","HOUSE_NO":"３２號","E_COORD97":177268.12,"N_COORD97":2540366.6800000002,"ADDRESS":"中正南路一段２１８巷３２號","OBJECTID":356434},"geometry":{"x":177268.12000000011,"y":2540366.6799999997}},{"attributes":{"ID":356444,"DIS_CODE":0,"TOWNNAME":"歸仁區","LI":"後市里","LIN":"33鄰","STREET":"文化街","SECT":"二段","MAREA":" ","LANE":"５３巷","ALLEY":" ","HOUSE_NO":"１４號","E_COORD97":177393.73999999999,"N_COORD97":2541040.7599999998,"ADDRESS":"文化街二段５３巷１４號","OBJECTID":356435},"geometry":{"x":177393.74000000115,"y":2541040.7599999998}},{"attributes":{"ID":356445,"DIS_CODE":0,"TOWNNAME":"歸仁區","LI":"後市里","LIN":"33鄰","STREET":"文化街","SECT":"二段","MAREA":" ","LANE":"５３巷","ALLEY":" ","HOUSE_NO":"６號","E_COORD97":177394.59,"N_COORD97":2541058.7599999998,"ADDRESS":"文化街二段５３巷６號","OBJECTID":356436},"geometry":{"x":177394.58999999985,"y":2541058.7599999998}},{"attributes":{"ID":356446,"DIS_CODE":0,"TOWNNAME":"歸仁區","LI":"後市里","LIN":"33鄰","STREET":"文化街","SECT":"二段","MAREA":" ","LANE":"５３巷","ALLEY":" ","HOUSE_NO":"８號","E_COORD97":177394.59,"N_COORD97":2541053.7599999998,"ADDRESS":"文化街二段５３巷８號","OBJECTID":356437},"geometry":{"x":177394.58999999985,"y":2541053.7600000016}},{"attributes":{"ID":356447,"DIS_CODE":0,"TOWNNAME":"歸仁區","LI":"南保里","LIN":"33鄰","STREET":"中山路","SECT":"三段","MAREA":" ","LANE":"１００巷","ALLEY":" ","HOUSE_NO":"２０號","E_COORD97":176784.60999999999,"N_COORD97":2540983.2799999998,"ADDRESS":"中山路三段１００巷２０號","OBJECTID":356438},"geometry":{"x":176784.61000000127,"y":2540983.2799999993}},{"attributes":{"ID":356448,"DIS_CODE":0,"TOWNNAME":"歸仁區","LI":"南保里","LIN":"33鄰","STREET":"中山路","SECT":"三段","MAREA":" ","LANE":"１００巷","ALLEY":" ","HOUSE_NO":"８號","E_COORD97":176781.16,"N_COORD97":2540959.2799999998,"ADDRESS":"中山路三段１００巷８號","OBJECTID":356439},"geometry":{"x":176781.16000000015,"y":2540959.2799999993}},{"attributes":{"ID":356449,"DIS_CODE":0,"TOWNNAME":"中西區","LI":"保安里","LIN":"8鄰","STREET":"國華街","SECT":"二段","MAREA":" ","LANE":" ","ALLEY":" ","HOUSE_NO":"１１３號","E_COORD97":167652.60000000001,"N_COORD97":2543515.3700000001,"ADDRESS":"國華街二段１１３號","OBJECTID":356440},"geometry":{"x":167652.59999999963,"y":2543515.3700000029}},{"attributes":{"ID":356450,"DIS_CODE":0,"TOWNNAME":"中西區","LI":"大涼里","LIN":"26鄰","STREET":"永華一街","SECT":" ","MAREA":" ","LANE":"７０巷","ALLEY":" ","HOUSE_NO":"１０號八樓之４","E_COORD97":166916.89000000001,"N_COORD97":2543394.0600000001,"ADDRESS":"永華一街７０巷１０號八樓之４","OBJECTID":356441},"geometry":{"x":166916.89000000153,"y":2543394.0600000024}},{"attributes":{"ID":356451,"DIS_CODE":0,"TOWNNAME":"中西區","LI":"大涼里","LIN":"26鄰","STREET":"永華一街","SECT":" ","MAREA":" ","LANE":"７０巷","ALLEY":" ","HOUSE_NO":"１０號八樓之５","E_COORD97":166916.89000000001,"N_COORD97":2543394.0600000001,"ADDRESS":"永華一街７０巷１０號八樓之５","OBJECTID":356442},"geometry":{"x":166916.89000000153,"y":2543394.0600000024}},{"attributes":{"ID":356452,"DIS_CODE":0,"TOWNNAME":"歸仁區","LI":"南保里","LIN":"33鄰","STREET":"中山路","SECT":"三段","MAREA":" ","LANE":"１００巷","ALLEY":" ","HOUSE_NO":"１０號","E_COORD97":176782.41,"N_COORD97":2540963.2799999998,"ADDRESS":"中山路三段１００巷１０號","OBJECTID":356443},"geometry":{"x":176782.41000000015,"y":2540963.2799999975}},{"attributes":{"ID":356453,"DIS_CODE":0,"TOWNNAME":"歸仁區","LI":"辜厝里","LIN":"33鄰","STREET":"中正南路","SECT":"一段","MAREA":" ","LANE":"２１８巷","ALLEY":" ","HOUSE_NO":"１８號","E_COORD97":177294.82000000001,"N_COORD97":2540384.6800000002,"ADDRESS":"中正南路一段２１８巷１８號","OBJECTID":356444},"geometry":{"x":177294.82000000123,"y":2540384.6799999978}},{"attributes":{"ID":356454,"DIS_CODE":0,"TOWNNAME":"歸仁區","LI":"南保里","LIN":"33鄰","STREET":"民權八街","SECT":" ","MAREA":" ","LANE":"５３巷","ALLEY":" ","HOUSE_NO":"８號","E_COORD97":176806.39000000001,"N_COORD97":2540972.29,"ADDRESS":"民權八街５３巷８號","OBJECTID":356445},"geometry":{"x":176806.38999999966,"y":2540972.2899999991}},{"attributes":{"ID":356455,"DIS_CODE":0,"TOWNNAME":"新營區","LI":"忠政里","LIN":"33鄰","STREET":"中正路","SECT":" ","MAREA":" ","LANE":"３７巷","ALLEY":" ","HOUSE_NO":"１９４號","E_COORD97":179856.57999999999,"N_COORD97":2579160.3500000001,"ADDRESS":"中正路３７巷１９４號","OBJECTID":356446},"geometry":{"x":179856.58000000007,"y":2579160.3500000015}},{"attributes":{"ID":356456,"DIS_CODE":0,"TOWNNAME":"新營區","LI":"忠政里","LIN":"33鄰","STREET":"中正路","SECT":" ","MAREA":" ","LANE":"３７巷","ALLEY":" ","HOUSE_NO":"１５６號","E_COORD97":179886.07000000001,"N_COORD97":2579124.77,"ADDRESS":"中正路３７巷１５６號","OBJECTID":356447},"geometry":{"x":179886.0700000003,"y":2579124.7699999996}},{"attributes":{"ID":356457,"DIS_CODE":0,"TOWNNAME":"新營區","LI":"忠政里","LIN":"33鄰","STREET":"中正路","SECT":" ","MAREA":" ","LANE":"３７巷","ALLEY":" ","HOUSE_NO":"１８４號","E_COORD97":179888.37,"N_COORD97":2579179.0299999998,"ADDRESS":"中正路３７巷１８４號","OBJECTID":356448},"geometry":{"x":179888.37000000011,"y":2579179.0300000012}},{"attributes":{"ID":356458,"DIS_CODE":0,"TOWNNAME":"新營區","LI":"忠政里","LIN":"33鄰","STREET":"中正路","SECT":" ","MAREA":" ","LANE":"３７巷","ALLEY":" ","HOUSE_NO":"１９０號","E_COORD97":179866.79999999999,"N_COORD97":2579160.2999999998,"ADDRESS":"中正路３７巷１９０號","OBJECTID":356449},"geometry":{"x":179866.79999999981,"y":2579160.3000000007}},{"attributes":{"ID":356459,"DIS_CODE":0,"TOWNNAME":"新營區","LI":"忠政里","LIN":"33鄰","STREET":"中正路","SECT":" ","MAREA":" ","LANE":"３７巷","ALLEY":" ","HOUSE_NO":"１５０號","E_COORD97":179903.53,"N_COORD97":2579137.98,"ADDRESS":"中正路３７巷１５０號","OBJECTID":356450},"geometry":{"x":179903.53000000212,"y":2579137.9800000004}},{"attributes":{"ID":356460,"DIS_CODE":0,"TOWNNAME":"新營區","LI":"忠政里","LIN":"33鄰","STREET":"中正路","SECT":" ","MAREA":" ","LANE":"３７巷","ALLEY":" ","HOUSE_NO":"１８８號","E_COORD97":179870.89999999999,"N_COORD97":2579160.2799999998,"ADDRESS":"中正路３７巷１８８號","OBJECTID":356451},"geometry":{"x":179870.9000000013,"y":2579160.2800000012}},{"attributes":{"ID":356461,"DIS_CODE":0,"TOWNNAME":"新營區","LI":"忠政里","LIN":"33鄰","STREET":"中正路","SECT":" ","MAREA":" ","LANE":"３７巷","ALLEY":" ","HOUSE_NO":"１８２號","E_COORD97":179886.26999999999,"N_COORD97":2579166.8599999999,"ADDRESS":"中正路３７巷１８２號","OBJECTID":356452},"geometry":{"x":179886.27000000048,"y":2579166.8600000013}},{"attributes":{"ID":356462,"DIS_CODE":0,"TOWNNAME":"新營區","LI":"忠政里","LIN":"33鄰","STREET":"中正路","SECT":" ","MAREA":" ","LANE":"３７巷","ALLEY":" ","HOUSE_NO":"１６２號","E_COORD97":179872.73999999999,"N_COORD97":2579115.9700000002,"ADDRESS":"中正路３７巷１６２號","OBJECTID":356453},"geometry":{"x":179872.74000000022,"y":2579115.9700000025}},{"attributes":{"ID":356463,"DIS_CODE":0,"TOWNNAME":"新營區","LI":"忠政里","LIN":"33鄰","STREET":"中正路","SECT":" ","MAREA":" ","LANE":"３７巷","ALLEY":" ","HOUSE_NO":"１６６號","E_COORD97":179871.62,"N_COORD97":2579097.1499999999,"ADDRESS":"中正路３７巷１６６號","OBJECTID":356454},"geometry":{"x":179871.62000000011,"y":2579097.1500000041}},{"attributes":{"ID":356464,"DIS_CODE":0,"TOWNNAME":"新營區","LI":"忠政里","LIN":"33鄰","STREET":"中正路","SECT":" ","MAREA":" ","LANE":"３７巷","ALLEY":" ","HOUSE_NO":"１８０號之１","E_COORD97":179910.98999999999,"N_COORD97":2579181.1899999999,"ADDRESS":"中正路３７巷１８０號之１","OBJECTID":356455},"geometry":{"x":179910.99000000115,"y":2579181.1900000013}},{"attributes":{"ID":356465,"DIS_CODE":0,"TOWNNAME":"仁德區","LI":"田厝里","LIN":"12鄰","STREET":"田厝二街","SECT":" ","MAREA":" ","LANE":"１２５巷","ALLEY":" ","HOUSE_NO":"４號","E_COORD97":172171.85000000001,"N_COORD97":2537682.9900000002,"ADDRESS":"田厝二街１２５巷４號","OBJECTID":356456},"geometry":{"x":172171.84999999963,"y":2537682.9900000002}},{"attributes":{"ID":356466,"DIS_CODE":0,"TOWNNAME":"新營區","LI":"忠政里","LIN":"33鄰","STREET":"中正路","SECT":" ","MAREA":" ","LANE":"３７巷","ALLEY":" ","HOUSE_NO":"１７０號","E_COORD97":179894.26999999999,"N_COORD97":2579128.0499999998,"ADDRESS":"中正路３７巷１７０號","OBJECTID":356457},"geometry":{"x":179894.27000000142,"y":2579128.0500000007}},{"attributes":{"ID":356467,"DIS_CODE":0,"TOWNNAME":"歸仁區","LI":"後市里","LIN":"33鄰","STREET":"文化街","SECT":"二段","MAREA":" ","LANE":"５３巷","ALLEY":" ","HOUSE_NO":"１７號","E_COORD97":177406.04000000001,"N_COORD97":2541039.7599999998,"ADDRESS":"文化街二段５３巷１７號","OBJECTID":356458},"geometry":{"x":177406.0400000019,"y":2541039.7600000016}},{"attributes":{"ID":356468,"DIS_CODE":0,"TOWNNAME":"歸仁區","LI":"六甲里","LIN":"33鄰","STREET":"六甲路","SECT":" ","MAREA":" ","LANE":"３０６巷","ALLEY":" ","HOUSE_NO":"１１號","E_COORD97":175697.694132,"N_COORD97":2539282.6181299998,"ADDRESS":"六甲路３０６巷１１號","OBJECTID":356459},"geometry":{"x":175697.69413200114,"y":2539282.6181299984}},{"attributes":{"ID":356469,"DIS_CODE":0,"TOWNNAME":"仁德區","LI":"後壁里","LIN":"39鄰","STREET":"德糖路","SECT":" ","MAREA":" ","LANE":" ","ALLEY":" ","HOUSE_NO":"３５３號","E_COORD97":173528.26000000001,"N_COORD97":2539140.0600000001,"ADDRESS":"德糖路３５３號","OBJECTID":356460},"geometry":{"x":173528.26000000071,"y":2539140.0600000024}},{"attributes":{"ID":356470,"DIS_CODE":0,"TOWNNAME":"歸仁區","LI":"六甲里","LIN":"33鄰","STREET":"六甲路","SECT":" ","MAREA":" ","LANE":"３０６巷","ALLEY":" ","HOUSE_NO":"１９號","E_COORD97":175695.78732599999,"N_COORD97":2539306.1131199999,"ADDRESS":"六甲路３０６巷１９號","OBJECTID":356461},"geometry":{"x":175695.7873259997,"y":2539306.1131179985}},{"attributes":{"ID":356471,"DIS_CODE":0,"TOWNNAME":"歸仁區","LI":"六甲里","LIN":"33鄰","STREET":"六甲路","SECT":" ","MAREA":" ","LANE":"３０６巷","ALLEY":" ","HOUSE_NO":"２１號","E_COORD97":175694.727988,"N_COORD97":2539312.7806099998,"ADDRESS":"六甲路３０６巷２１號","OBJECTID":356462},"geometry":{"x":175694.72798800096,"y":2539312.7806139998}},{"attributes":{"ID":356472,"DIS_CODE":0,"TOWNNAME":"歸仁區","LI":"六甲里","LIN":"33鄰","STREET":"六甲路","SECT":" ","MAREA":" ","LANE":"３０６巷","ALLEY":" ","HOUSE_NO":"２５號","E_COORD97":175693.03304899999,"N_COORD97":2539324.3164400002,"ADDRESS":"六甲路３０６巷２５號","OBJECTID":356463},"geometry":{"x":175693.03304900043,"y":2539324.3164409995}},{"attributes":{"ID":356473,"DIS_CODE":0,"TOWNNAME":"歸仁區","LI":"六甲里","LIN":"33鄰","STREET":"六甲路","SECT":" ","MAREA":" ","LANE":"３０６巷","ALLEY":" ","HOUSE_NO":"２７號","E_COORD97":175691.761845,"N_COORD97":2539330.7722700001,"ADDRESS":"六甲路３０６巷２７號","OBJECTID":356464},"geometry":{"x":175691.76184500009,"y":2539330.7722709998}},{"attributes":{"ID":356474,"DIS_CODE":0,"TOWNNAME":"安平區","LI":"華平里","LIN":"33鄰","STREET":"國平路","SECT":" ","MAREA":" ","LANE":"５５２巷","ALLEY":" ","HOUSE_NO":"２０號","E_COORD97":165125.17999999999,"N_COORD97":2544139.1099999999,"ADDRESS":"國平路５５２巷２０號","OBJECTID":356465},"geometry":{"x":165125.18000000063,"y":2544139.1100000013}},{"attributes":{"ID":356475,"DIS_CODE":0,"TOWNNAME":"東區","LI":"自強里","LIN":"8鄰","STREET":"東門路","SECT":"三段","MAREA":" ","LANE":" ","ALLEY":" ","HOUSE_NO":"１３號十六樓之３","E_COORD97":171098.26000000001,"N_COORD97":2542396.1299999999,"ADDRESS":"東門路三段１３號十六樓之３","OBJECTID":356466},"geometry":{"x":171098.26000000164,"y":2542396.1300000008}},{"attributes":{"ID":356476,"DIS_CODE":0,"TOWNNAME":"東區","LI":"自強里","LIN":"8鄰","STREET":"東門路","SECT":"三段","MAREA":" ","LANE":" ","ALLEY":" ","HOUSE_NO":"１３號十四樓","E_COORD97":171098.26000000001,"N_COORD97":2542396.1299999999,"ADDRESS":"東門路三段１３號十四樓","OBJECTID":356467},"geometry":{"x":171098.26000000164,"y":2542396.1300000008}},{"attributes":{"ID":356477,"DIS_CODE":0,"TOWNNAME":"新營區","LI":"新東里","LIN":"26鄰","STREET":"東興五街","SECT":" ","MAREA":" ","LANE":"２１巷","ALLEY":" ","HOUSE_NO":"３３號四樓","E_COORD97":180681.64000000001,"N_COORD97":2579453.2799999998,"ADDRESS":"東興五街２１巷３３號四樓","OBJECTID":356468},"geometry":{"x":180681.63999999966,"y":2579453.2799999993}},{"attributes":{"ID":356478,"DIS_CODE":0,"TOWNNAME":"安平區","LI":"華平里","LIN":"33鄰","STREET":"國平路","SECT":" ","MAREA":" ","LANE":"５５２巷","ALLEY":" ","HOUSE_NO":"２２號","E_COORD97":165132.79999999999,"N_COORD97":2544138.1600000001,"ADDRESS":"國平路５５２巷２２號","OBJECTID":356469},"geometry":{"x":165132.80000000075,"y":2544138.1600000001}},{"attributes":{"ID":356479,"DIS_CODE":0,"TOWNNAME":"安平區","LI":"華平里","LIN":"33鄰","STREET":"國平路","SECT":" ","MAREA":" ","LANE":"５５２巷","ALLEY":" ","HOUSE_NO":"２６號","E_COORD97":165139.31,"N_COORD97":2544137.6800000002,"ADDRESS":"國平路５５２巷２６號","OBJECTID":356470},"geometry":{"x":165139.31000000052,"y":2544137.6799999997}},{"attributes":{"ID":356480,"DIS_CODE":0,"TOWNNAME":"安平區","LI":"華平里","LIN":"33鄰","STREET":"國平路","SECT":" ","MAREA":" ","LANE":"５５２巷","ALLEY":" ","HOUSE_NO":"２８號","E_COORD97":165145.01999999999,"N_COORD97":2544137.0499999998,"ADDRESS":"國平路５５２巷２８號","OBJECTID":356471},"geometry":{"x":165145.02000000048,"y":2544137.0500000026}},{"attributes":{"ID":356481,"DIS_CODE":0,"TOWNNAME":"安平區","LI":"華平里","LIN":"33鄰","STREET":"國平路","SECT":" ","MAREA":" ","LANE":"５５２巷","ALLEY":" ","HOUSE_NO":"２７號","E_COORD97":165136.5,"N_COORD97":2544154.9900000002,"ADDRESS":"國平路５５２巷２７號","OBJECTID":356472},"geometry":{"x":165136.50000000186,"y":2544154.9900000021}},{"attributes":{"ID":356482,"DIS_CODE":0,"TOWNNAME":"永康區","LI":"成功里","LIN":"4鄰","STREET":"忠孝路","SECT":" ","MAREA":" ","LANE":"２０３巷","ALLEY":" ","HOUSE_NO":"７號","E_COORD97":172069.31,"N_COORD97":2544887,"ADDRESS":"忠孝路２０３巷７號","OBJECTID":356473},"geometry":{"x":172069.31000000052,"y":2544887.0000000019}},{"attributes":{"ID":356483,"DIS_CODE":0,"TOWNNAME":"安平區","LI":"育平里","LIN":"33鄰","STREET":"建平七街","SECT":" ","MAREA":" ","LANE":"８１８巷","ALLEY":" ","HOUSE_NO":"２號","E_COORD97":164550.59,"N_COORD97":2543480.3300000001,"ADDRESS":"建平七街８１８巷２號","OBJECTID":356474},"geometry":{"x":164550.58999999985,"y":2543480.3300000019}},{"attributes":{"ID":356484,"DIS_CODE":0,"TOWNNAME":"安平區","LI":"文平里","LIN":"21鄰","STREET":"建平一街","SECT":" ","MAREA":" ","LANE":"１６巷","ALLEY":" ","HOUSE_NO":"２２號","E_COORD97":166036.67999999999,"N_COORD97":2542769.71,"ADDRESS":"建平一街１６巷２２號","OBJECTID":356475},"geometry":{"x":166036.6799999997,"y":2542769.7100000028}},{"attributes":{"ID":356485,"DIS_CODE":0,"TOWNNAME":"安平區","LI":"文平里","LIN":"21鄰","STREET":"建平一街","SECT":" ","MAREA":" ","LANE":"１６巷","ALLEY":" ","HOUSE_NO":"２６號","E_COORD97":166037.28,"N_COORD97":2542773.7599999998,"ADDRESS":"建平一街１６巷２６號","OBJECTID":356476},"geometry":{"x":166037.28000000119,"y":2542773.7599999998}},{"attributes":{"ID":356486,"DIS_CODE":0,"TOWNNAME":"安平區","LI":"平通里","LIN":"21鄰","STREET":"育平九街","SECT":" ","MAREA":" ","LANE":"３７２巷","ALLEY":" ","HOUSE_NO":"４８號","E_COORD97":164603.38,"N_COORD97":2543917.6800000002,"ADDRESS":"育平九街３７２巷４８號","OBJECTID":356477},"geometry":{"x":164603.38000000175,"y":2543917.6800000034}},{"attributes":{"ID":356487,"DIS_CODE":0,"TOWNNAME":"鹽水區","LI":"水仙里","LIN":"3鄰","STREET":"中山路","SECT":" ","MAREA":" ","LANE":"３巷","ALLEY":" ","HOUSE_NO":"１２號","E_COORD97":175052.10999999999,"N_COORD97":2579798.4500000002,"ADDRESS":"中山路３巷１２號","OBJECTID":356478},"geometry":{"x":175052.11000000127,"y":2579798.4499999993}},{"attributes":{"ID":356488,"DIS_CODE":0,"TOWNNAME":"鹽水區","LI":"水仙里","LIN":"3鄰","STREET":"中山路","SECT":" ","MAREA":" ","LANE":"３巷","ALLEY":" ","HOUSE_NO":"１４號之２","E_COORD97":175056.97,"N_COORD97":2579775.5499999998,"ADDRESS":"中山路３巷１４號之２","OBJECTID":356479},"geometry":{"x":175056.97000000067,"y":2579775.5500000007}},{"attributes":{"ID":356489,"DIS_CODE":0,"TOWNNAME":"鹽水區","LI":"水仙里","LIN":"3鄰","STREET":"中山路","SECT":" ","MAREA":" ","LANE":"３巷","ALLEY":" ","HOUSE_NO":"３號","E_COORD97":175062.01999999999,"N_COORD97":2579867.46,"ADDRESS":"中山路３巷３號","OBJECTID":356480},"geometry":{"x":175062.02000000048,"y":2579867.4600000009}},{"attributes":{"ID":356490,"DIS_CODE":0,"TOWNNAME":"鹽水區","LI":"水仙里","LIN":"3鄰","STREET":"中山路","SECT":" ","MAREA":" ","LANE":"３巷","ALLEY":" ","HOUSE_NO":"４號","E_COORD97":175060.75,"N_COORD97":2579862.98,"ADDRESS":"中山路３巷４號","OBJECTID":356481},"geometry":{"x":175060.75000000093,"y":2579862.9800000004}},{"attributes":{"ID":356491,"DIS_CODE":0,"TOWNNAME":"六甲區","LI":"六甲里","LIN":"3鄰","STREET":"中正路","SECT":" ","MAREA":" ","LANE":"３７３巷","ALLEY":" ","HOUSE_NO":"１５之２號","E_COORD97":183461.84,"N_COORD97":2569540.5899999999,"ADDRESS":"中正路３７３巷１５之２號","OBJECTID":356482},"geometry":{"x":183461.83999999985,"y":2569540.5900000017}},{"attributes":{"ID":356492,"DIS_CODE":0,"TOWNNAME":"仁德區","LI":"上崙里","LIN":"8鄰","STREET":"德善路","SECT":" ","MAREA":" ","LANE":"２９０巷","ALLEY":" ","HOUSE_NO":"１號","E_COORD97":173964.82000000001,"N_COORD97":2538414.2599999998,"ADDRESS":"德善路２９０巷１號","OBJECTID":356483},"geometry":{"x":173964.81999999937,"y":2538414.2599999998}},{"attributes":{"ID":356493,"DIS_CODE":0,"TOWNNAME":"仁德區","LI":"太子里","LIN":"36鄰","STREET":"長興一街","SECT":" ","MAREA":" ","LANE":"８６巷","ALLEY":" ","HOUSE_NO":"１３號","E_COORD97":174418.03,"N_COORD97":2543930.7599999998,"ADDRESS":"長興一街８６巷１３號","OBJECTID":356484},"geometry":{"x":174418.03000000119,"y":2543930.7600000035}},{"attributes":{"ID":356494,"DIS_CODE":0,"TOWNNAME":"仁德區","LI":"太子里","LIN":"38鄰","STREET":"長興一街","SECT":" ","MAREA":" ","LANE":"９７巷","ALLEY":" ","HOUSE_NO":"３號","E_COORD97":174263.01999999999,"N_COORD97":2543835.0099999998,"ADDRESS":"長興一街９７巷３號","OBJECTID":356485},"geometry":{"x":174263.02000000048,"y":2543835.0100000016}},{"attributes":{"ID":356495,"DIS_CODE":0,"TOWNNAME":"仁德區","LI":"太子里","LIN":"17鄰","STREET":"太興路","SECT":" ","MAREA":" ","LANE":"１２７巷","ALLEY":" ","HOUSE_NO":"９號","E_COORD97":174057.89999999999,"N_COORD97":2543602.25,"ADDRESS":"太興路１２７巷９號","OBJECTID":356486},"geometry":{"x":174057.9000000013,"y":2543602.2500000037}},{"attributes":{"ID":356496,"DIS_CODE":0,"TOWNNAME":"學甲區","LI":"仁得里","LIN":"1鄰","STREET":"公館路","SECT":" ","MAREA":" ","LANE":"１４３巷","ALLEY":" ","HOUSE_NO":"１號","E_COORD97":166146.32000000001,"N_COORD97":2569894.0299999998,"ADDRESS":"公館路１４３巷１號","OBJECTID":356487},"geometry":{"x":166146.3200000003,"y":2569894.0299999993}},{"attributes":{"ID":356497,"DIS_CODE":0,"TOWNNAME":"學甲區","LI":"仁得里","LIN":"1鄰","STREET":"公館路","SECT":" ","MAREA":" ","LANE":"１７９巷","ALLEY":" ","HOUSE_NO":"１０號","E_COORD97":166161.10999999999,"N_COORD97":2570058.1600000001,"ADDRESS":"公館路１７９巷１０號","OBJECTID":356488},"geometry":{"x":166161.11000000034,"y":2570058.1600000039}},{"attributes":{"ID":356498,"DIS_CODE":0,"TOWNNAME":"學甲區","LI":"仁得里","LIN":"1鄰","STREET":"公館路","SECT":" ","MAREA":" ","LANE":"１７９巷","ALLEY":" ","HOUSE_NO":"１１號","E_COORD97":166153.29999999999,"N_COORD97":2570045.5099999998,"ADDRESS":"公館路１７９巷１１號","OBJECTID":356489},"geometry":{"x":166153.30000000075,"y":2570045.5100000016}},{"attributes":{"ID":356499,"DIS_CODE":0,"TOWNNAME":"學甲區","LI":"仁得里","LIN":"1鄰","STREET":"公館路","SECT":" ","MAREA":" ","LANE":"１７９巷","ALLEY":" ","HOUSE_NO":"１２號","E_COORD97":166156.16,"N_COORD97":2570059.1000000001,"ADDRESS":"公館路１７９巷１２號","OBJECTID":356490},"geometry":{"x":166156.16000000201,"y":2570059.1000000015}},{"attributes":{"ID":356500,"DIS_CODE":0,"TOWNNAME":"學甲區","LI":"仁得里","LIN":"1鄰","STREET":"公館路","SECT":" ","MAREA":" ","LANE":"１７９巷","ALLEY":" ","HOUSE_NO":"１３號","E_COORD97":166149.10000000001,"N_COORD97":2570046.1699999999,"ADDRESS":"公館路１７９巷１３號","OBJECTID":356491},"geometry":{"x":166149.0999999987,"y":2570046.1699999999}},{"attributes":{"ID":356501,"DIS_CODE":0,"TOWNNAME":"學甲區","LI":"仁得里","LIN":"1鄰","STREET":"公館路","SECT":" ","MAREA":" ","LANE":"１７９巷","ALLEY":" ","HOUSE_NO":"１４號","E_COORD97":166151.34,"N_COORD97":2570060.0099999998,"ADDRESS":"公館路１７９巷１４號","OBJECTID":356492},"geometry":{"x":166151.34000000078,"y":2570060.0100000016}},{"attributes":{"ID":356502,"DIS_CODE":0,"TOWNNAME":"學甲區","LI":"仁得里","LIN":"1鄰","STREET":"公館路","SECT":" ","MAREA":" ","LANE":"１７９巷","ALLEY":" ","HOUSE_NO":"２號","E_COORD97":166178.70999999999,"N_COORD97":2570058.2599999998,"ADDRESS":"公館路１７９巷２號","OBJECTID":356493},"geometry":{"x":166178.70999999996,"y":2570058.2600000016}},{"attributes":{"ID":356503,"DIS_CODE":0,"TOWNNAME":"學甲區","LI":"仁得里","LIN":"1鄰","STREET":"公館路","SECT":" ","MAREA":" ","LANE":"１７９巷","ALLEY":" ","HOUSE_NO":"３號","E_COORD97":166172.22,"N_COORD97":2570045.73,"ADDRESS":"公館路１７９巷３號","OBJECTID":356494},"geometry":{"x":166172.2200000016,"y":2570045.7300000023}},{"attributes":{"ID":356504,"DIS_CODE":0,"TOWNNAME":"學甲區","LI":"仁得里","LIN":"1鄰","STREET":"公館路","SECT":" ","MAREA":" ","LANE":"１７９巷","ALLEY":" ","HOUSE_NO":"４號","E_COORD97":166174.85999999999,"N_COORD97":2570058.5,"ADDRESS":"公館路１７９巷４號","OBJECTID":356495},"geometry":{"x":166174.86000000034,"y":2570058.5}},{"attributes":{"ID":356505,"DIS_CODE":0,"TOWNNAME":"中西區","LI":"保安里","LIN":"8鄰","STREET":"國華街","SECT":"二段","MAREA":" ","LANE":" ","ALLEY":" ","HOUSE_NO":"１１５號","E_COORD97":167653.81,"N_COORD97":2543519.5,"ADDRESS":"國華街二段１１５號","OBJECTID":356496},"geometry":{"x":167653.81000000052,"y":2543519.5000000019}},{"attributes":{"ID":356506,"DIS_CODE":0,"TOWNNAME":"學甲區","LI":"仁得里","LIN":"1鄰","STREET":"公館路","SECT":" ","MAREA":" ","LANE":"１７９巷","ALLEY":" ","HOUSE_NO":"６號","E_COORD97":166171.14000000001,"N_COORD97":2570058.8300000001,"ADDRESS":"公館路１７９巷６號","OBJECTID":356497},"geometry":{"x":166171.1400000006,"y":2570058.8300000001}},{"attributes":{"ID":356507,"DIS_CODE":0,"TOWNNAME":"學甲區","LI":"仁得里","LIN":"1鄰","STREET":"公館路","SECT":" ","MAREA":" ","LANE":"１７９巷","ALLEY":" ","HOUSE_NO":"７號","E_COORD97":166164.54000000001,"N_COORD97":2570046.0499999998,"ADDRESS":"公館路１７９巷７號","OBJECTID":356498},"geometry":{"x":166164.54000000004,"y":2570046.0500000045}},{"attributes":{"ID":356508,"DIS_CODE":0,"TOWNNAME":"學甲區","LI":"仁得里","LIN":"1鄰","STREET":"公館路","SECT":" ","MAREA":" ","LANE":"１７９巷","ALLEY":" ","HOUSE_NO":"８號","E_COORD97":166166.92999999999,"N_COORD97":2570059.3199999998,"ADDRESS":"公館路１７９巷８號","OBJECTID":356499},"geometry":{"x":166166.9299999997,"y":2570059.3200000003}},{"attributes":{"ID":356509,"DIS_CODE":0,"TOWNNAME":"學甲區","LI":"仁得里","LIN":"1鄰","STREET":"公館路","SECT":" ","MAREA":" ","LANE":"１７９巷","ALLEY":" ","HOUSE_NO":"９號","E_COORD97":166157.76000000001,"N_COORD97":2570044.73,"ADDRESS":"公館路１７９巷９號","OBJECTID":356500},"geometry":{"x":166157.75999999978,"y":2570044.7300000023}},{"attributes":{"ID":356510,"DIS_CODE":0,"TOWNNAME":"學甲區","LI":"仁得里","LIN":"1鄰","STREET":"公館路","SECT":" ","MAREA":" ","LANE":"１４３巷","ALLEY":" ","HOUSE_NO":"１號二樓之１","E_COORD97":166146.32000000001,"N_COORD97":2569894.0299999998,"ADDRESS":"公館路１４３巷１號二樓之１","OBJECTID":356501},"geometry":{"x":166146.3200000003,"y":2569894.0299999993}},{"attributes":{"ID":356511,"DIS_CODE":0,"TOWNNAME":"學甲區","LI":"仁得里","LIN":"1鄰","STREET":"公館路","SECT":" ","MAREA":" ","LANE":"１４３巷","ALLEY":" ","HOUSE_NO":"１號二樓之２","E_COORD97":166146.32000000001,"N_COORD97":2569894.0299999998,"ADDRESS":"公館路１４３巷１號二樓之２","OBJECTID":356502},"geometry":{"x":166146.3200000003,"y":2569894.0299999993}},{"attributes":{"ID":356512,"DIS_CODE":0,"TOWNNAME":"學甲區","LI":"仁得里","LIN":"1鄰","STREET":"公館路","SECT":" ","MAREA":" ","LANE":"１４３巷","ALLEY":" ","HOUSE_NO":"１號三樓之１","E_COORD97":166146.32000000001,"N_COORD97":2569894.0299999998,"ADDRESS":"公館路１４３巷１號三樓之１","OBJECTID":356503},"geometry":{"x":166146.3200000003,"y":2569894.0299999993}},{"attributes":{"ID":356513,"DIS_CODE":0,"TOWNNAME":"學甲區","LI":"仁得里","LIN":"1鄰","STREET":"公館路","SECT":" ","MAREA":" ","LANE":"１４３巷","ALLEY":" ","HOUSE_NO":"１號三樓之２","E_COORD97":166146.32000000001,"N_COORD97":2569894.0299999998,"ADDRESS":"公館路１４３巷１號三樓之２","OBJECTID":356504},"geometry":{"x":166146.3200000003,"y":2569894.0299999993}},{"attributes":{"ID":356514,"DIS_CODE":0,"TOWNNAME":"學甲區","LI":"仁得里","LIN":"1鄰","STREET":"公館路","SECT":" ","MAREA":" ","LANE":"１４３巷","ALLEY":" ","HOUSE_NO":"１號五樓之１","E_COORD97":166146.32000000001,"N_COORD97":2569894.0299999998,"ADDRESS":"公館路１４３巷１號五樓之１","OBJECTID":356505},"geometry":{"x":166146.3200000003,"y":2569894.0299999993}},{"attributes":{"ID":356515,"DIS_CODE":0,"TOWNNAME":"學甲區","LI":"仁得里","LIN":"1鄰","STREET":"公館路","SECT":" ","MAREA":" ","LANE":"１４３巷","ALLEY":" ","HOUSE_NO":"１號五樓之２","E_COORD97":166146.32000000001,"N_COORD97":2569894.0299999998,"ADDRESS":"公館路１４３巷１號五樓之２","OBJECTID":356506},"geometry":{"x":166146.3200000003,"y":2569894.0299999993}},{"attributes":{"ID":356516,"DIS_CODE":0,"TOWNNAME":"學甲區","LI":"仁得里","LIN":"1鄰","STREET":"公館路","SECT":" ","MAREA":" ","LANE":"１４３巷","ALLEY":" ","HOUSE_NO":"１號四樓之１","E_COORD97":166146.32000000001,"N_COORD97":2569894.0299999998,"ADDRESS":"公館路１４３巷１號四樓之１","OBJECTID":356507},"geometry":{"x":166146.3200000003,"y":2569894.0299999993}},{"attributes":{"ID":356517,"DIS_CODE":0,"TOWNNAME":"新營區","LI":"大宏里","LIN":"30鄰","STREET":"開元路","SECT":" ","MAREA":" ","LANE":"３１巷","ALLEY":" ","HOUSE_NO":"３號","E_COORD97":180800.78,"N_COORD97":2578611.0299999998,"ADDRESS":"開元路３１巷３號","OBJECTID":356508},"geometry":{"x":180800.78000000119,"y":2578611.0299999993}},{"attributes":{"ID":356518,"DIS_CODE":0,"TOWNNAME":"永康區","LI":"\u25A0洲里","LIN":"30鄰","STREET":"洲尾街","SECT":" ","MAREA":" ","LANE":"３３５巷","ALLEY":" ","HOUSE_NO":"６０號","E_COORD97":171243.82000000001,"N_COORD97":2549170.48,"ADDRESS":"洲尾街３３５巷６０號","OBJECTID":356509},"geometry":{"x":171243.8200000003,"y":2549170.4800000004}},{"attributes":{"ID":356519,"DIS_CODE":0,"TOWNNAME":"永康區","LI":"\u25A0洲里","LIN":"30鄰","STREET":"洲尾街","SECT":" ","MAREA":" ","LANE":"３３５巷","ALLEY":" ","HOUSE_NO":"８號","E_COORD97":171190.26000000001,"N_COORD97":2549123.2999999998,"ADDRESS":"洲尾街３３５巷８號","OBJECTID":356510},"geometry":{"x":171190.26000000071,"y":2549123.3000000026}},{"attributes":{"ID":356520,"DIS_CODE":0,"TOWNNAME":"永康區","LI":"\u25A0洲里","LIN":"30鄰","STREET":"洲尾街","SECT":" ","MAREA":" ","LANE":"３３５巷","ALLEY":" ","HOUSE_NO":"６２號","E_COORD97":171246.85999999999,"N_COORD97":2549173.3500000001,"ADDRESS":"洲尾街３３５巷６２號","OBJECTID":356511},"geometry":{"x":171246.86000000034,"y":2549173.3499999996}},{"attributes":{"ID":356521,"DIS_CODE":0,"TOWNNAME":"永康區","LI":"\u25A0洲里","LIN":"30鄰","STREET":"洲尾街","SECT":" ","MAREA":" ","LANE":"３３５巷","ALLEY":" ","HOUSE_NO":"３１號","E_COORD97":171208.85999999999,"N_COORD97":2549176.4399999999,"ADDRESS":"洲尾街３３５巷３１號","OBJECTID":356512},"geometry":{"x":171208.86000000127,"y":2549176.4399999995}},{"attributes":{"ID":356522,"DIS_CODE":0,"TOWNNAME":"永康區","LI":"\u25A0洲里","LIN":"30鄰","STREET":"洲尾街","SECT":" ","MAREA":" ","LANE":"３３５巷","ALLEY":" ","HOUSE_NO":"３９號","E_COORD97":171219.44,"N_COORD97":2549190.1699999999,"ADDRESS":"洲尾街３３５巷３９號","OBJECTID":356513},"geometry":{"x":171219.44000000041,"y":2549190.1700000037}},{"attributes":{"ID":356523,"DIS_CODE":0,"TOWNNAME":"永康區","LI":"\u25A0洲里","LIN":"30鄰","STREET":"洲尾街","SECT":" ","MAREA":" ","LANE":"３３５巷","ALLEY":" ","HOUSE_NO":"１９號","E_COORD97":171190.88,"N_COORD97":2549158.8500000001,"ADDRESS":"洲尾街３３５巷１９號","OBJECTID":356514},"geometry":{"x":171190.88000000175,"y":2549158.8500000015}},{"attributes":{"ID":356524,"DIS_CODE":0,"TOWNNAME":"永康區","LI":"\u25A0洲里","LIN":"30鄰","STREET":"洲尾街","SECT":" ","MAREA":" ","LANE":"３２１巷","ALLEY":" ","HOUSE_NO":"３２號","E_COORD97":171196.35000000001,"N_COORD97":2549194.4199999999,"ADDRESS":"洲尾街３２１巷３２號","OBJECTID":356515},"geometry":{"x":171196.35000000056,"y":2549194.4199999999}},{"attributes":{"ID":356525,"DIS_CODE":0,"TOWNNAME":"永康區","LI":"\u25A0洲里","LIN":"30鄰","STREET":"洲尾街","SECT":" ","MAREA":" ","LANE":"３２１巷","ALLEY":" ","HOUSE_NO":"３６號","E_COORD97":171199.51000000001,"N_COORD97":2549197.0600000001,"ADDRESS":"洲尾街３２１巷３６號","OBJECTID":356516},"geometry":{"x":171199.50999999978,"y":2549197.0600000005}},{"attributes":{"ID":356526,"DIS_CODE":0,"TOWNNAME":"仁德區","LI":"太子里","LIN":"30鄰","STREET":"太子路","SECT":" ","MAREA":" ","LANE":"６１３巷","ALLEY":" ","HOUSE_NO":"１號","E_COORD97":173728.95000000001,"N_COORD97":2543497.75,"ADDRESS":"太子路６１３巷１號","OBJECTID":356517},"geometry":{"x":173728.95000000112,"y":2543497.7500000019}},{"attributes":{"ID":356527,"DIS_CODE":0,"TOWNNAME":"仁德區","LI":"太子里","LIN":"30鄰","STREET":"中正路","SECT":"三段","MAREA":" ","LANE":"５６６巷","ALLEY":" ","HOUSE_NO":"９號","E_COORD97":173959.32999999999,"N_COORD97":2543202.0299999998,"ADDRESS":"中正路三段５６６巷９號","OBJECTID":356518},"geometry":{"x":173959.33000000007,"y":2543202.0299999993}},{"attributes":{"ID":356528,"DIS_CODE":0,"TOWNNAME":"仁德區","LI":"太子里","LIN":"30鄰","STREET":"太子路","SECT":" ","MAREA":" ","LANE":"６１３巷","ALLEY":" ","HOUSE_NO":"２３號","E_COORD97":173779.85000000001,"N_COORD97":2543419.2599999998,"ADDRESS":"太子路６１３巷２３號","OBJECTID":356519},"geometry":{"x":173779.85000000056,"y":2543419.2600000016}},{"attributes":{"ID":356529,"DIS_CODE":0,"TOWNNAME":"仁德區","LI":"太子里","LIN":"30鄰","STREET":"太子路","SECT":" ","MAREA":" ","LANE":"６１３巷","ALLEY":" ","HOUSE_NO":"１５號","E_COORD97":173780.14999999999,"N_COORD97":2543472.75,"ADDRESS":"太子路６１３巷１５號","OBJECTID":356520},"geometry":{"x":173780.1500000013,"y":2543472.75}},{"attributes":{"ID":356530,"DIS_CODE":0,"TOWNNAME":"仁德區","LI":"太子里","LIN":"30鄰","STREET":"太子路","SECT":" ","MAREA":" ","LANE":"６１３巷","ALLEY":" ","HOUSE_NO":"１９號","E_COORD97":173792.89999999999,"N_COORD97":2543435.0099999998,"ADDRESS":"太子路６１３巷１９號","OBJECTID":356521},"geometry":{"x":173792.90000000037,"y":2543435.0100000016}},{"attributes":{"ID":356531,"DIS_CODE":0,"TOWNNAME":"仁德區","LI":"仁義里","LIN":"30鄰","STREET":"中清一街","SECT":" ","MAREA":" ","LANE":"８３巷","ALLEY":" ","HOUSE_NO":"１５號","E_COORD97":173610.14999999999,"N_COORD97":2541480.5499999998,"ADDRESS":"中清一街８３巷１５號","OBJECTID":356522},"geometry":{"x":173610.15000000224,"y":2541480.5500000007}},{"attributes":{"ID":356532,"DIS_CODE":0,"TOWNNAME":"仁德區","LI":"仁義里","LIN":"30鄰","STREET":"中清一街","SECT":" ","MAREA":" ","LANE":"８３巷","ALLEY":" ","HOUSE_NO":"１９號","E_COORD97":173607.59,"N_COORD97":2541463.0499999998,"ADDRESS":"中清一街８３巷１９號","OBJECTID":356523},"geometry":{"x":173607.58999999985,"y":2541463.0500000026}},{"attributes":{"ID":356533,"DIS_CODE":0,"TOWNNAME":"仁德區","LI":"仁義里","LIN":"30鄰","STREET":"中清一街","SECT":" ","MAREA":" ","LANE":"８３巷","ALLEY":" ","HOUSE_NO":"６號","E_COORD97":173611.34,"N_COORD97":2541519.54,"ADDRESS":"中清一街８３巷６號","OBJECTID":356524},"geometry":{"x":173611.33999999985,"y":2541519.5399999991}},{"attributes":{"ID":356534,"DIS_CODE":0,"TOWNNAME":"仁德區","LI":"仁義里","LIN":"30鄰","STREET":"中清一街","SECT":" ","MAREA":" ","LANE":"８３巷","ALLEY":" ","HOUSE_NO":"７號","E_COORD97":173611.17999999999,"N_COORD97":2541515.29,"ADDRESS":"中清一街８３巷７號","OBJECTID":356525},"geometry":{"x":173611.18000000063,"y":2541515.2899999991}},{"attributes":{"ID":356535,"DIS_CODE":0,"TOWNNAME":"仁德區","LI":"仁義里","LIN":"30鄰","STREET":"中清一街","SECT":" ","MAREA":" ","LANE":"８３巷","ALLEY":" ","HOUSE_NO":"１３號","E_COORD97":173610.63,"N_COORD97":2541489.04,"ADDRESS":"中清一街８３巷１３號","OBJECTID":356526},"geometry":{"x":173610.63000000082,"y":2541489.0399999991}},{"attributes":{"ID":356536,"DIS_CODE":0,"TOWNNAME":"仁德區","LI":"仁義里","LIN":"30鄰","STREET":"中清一街","SECT":" ","MAREA":" ","LANE":"８３巷","ALLEY":" ","HOUSE_NO":"１４號","E_COORD97":173610.37,"N_COORD97":2541484.54,"ADDRESS":"中清一街８３巷１４號","OBJECTID":356527},"geometry":{"x":173610.37000000104,"y":2541484.540000001}},{"attributes":{"ID":356537,"DIS_CODE":0,"TOWNNAME":"仁德區","LI":"仁義里","LIN":"30鄰","STREET":"中清一街","SECT":" ","MAREA":" ","LANE":"８３巷","ALLEY":" ","HOUSE_NO":"１８號","E_COORD97":173607.95999999999,"N_COORD97":2541467.5499999998,"ADDRESS":"中清一街８３巷１８號","OBJECTID":356528},"geometry":{"x":173607.96000000089,"y":2541467.5500000007}},{"attributes":{"ID":356538,"DIS_CODE":0,"TOWNNAME":"北區","LI":"大豐里","LIN":"26鄰","STREET":"和緯路","SECT":"四段","MAREA":" ","LANE":"９５巷","ALLEY":" ","HOUSE_NO":"２６號二樓","E_COORD97":167099.78,"N_COORD97":2545396.5499999998,"ADDRESS":"和緯路四段９５巷２６號二樓","OBJECTID":356529},"geometry":{"x":167099.78000000119,"y":2545396.5500000007}},{"attributes":{"ID":356539,"DIS_CODE":0,"TOWNNAME":"仁德區","LI":"仁義里","LIN":"30鄰","STREET":"中清一街","SECT":" ","MAREA":" ","LANE":"８３巷","ALLEY":" ","HOUSE_NO":"１７號","E_COORD97":173608.13,"N_COORD97":2541472.2999999998,"ADDRESS":"中清一街８３巷１７號","OBJECTID":356530},"geometry":{"x":173608.13000000175,"y":2541472.3000000007}},{"attributes":{"ID":356540,"DIS_CODE":0,"TOWNNAME":"仁德區","LI":"仁義里","LIN":"30鄰","STREET":"中清一街","SECT":" ","MAREA":" ","LANE":"８３巷","ALLEY":" ","HOUSE_NO":"９號","E_COORD97":173610.41,"N_COORD97":2541506.54,"ADDRESS":"中清一街８３巷９號","OBJECTID":356531},"geometry":{"x":173610.41000000108,"y":2541506.5399999991}},{"attributes":{"ID":356541,"DIS_CODE":0,"TOWNNAME":"仁德區","LI":"仁義里","LIN":"30鄰","STREET":"中清一街","SECT":" ","MAREA":" ","LANE":"８３巷","ALLEY":" ","HOUSE_NO":"４號","E_COORD97":173611.84,"N_COORD97":2541528.04,"ADDRESS":"中清一街８３巷４號","OBJECTID":356532},"geometry":{"x":173611.84000000171,"y":2541528.040000001}},{"attributes":{"ID":356542,"DIS_CODE":0,"TOWNNAME":"永康區","LI":"建國里","LIN":"30鄰","STREET":"復興路","SECT":" ","MAREA":" ","LANE":"７１巷","ALLEY":" ","HOUSE_NO":"９５號","E_COORD97":172814.79000000001,"N_COORD97":2543745.7000000002,"ADDRESS":"復興路７１巷９５號","OBJECTID":356533},"geometry":{"x":172814.79000000004,"y":2543745.7000000011}},{"attributes":{"ID":356543,"DIS_CODE":0,"TOWNNAME":"新市區","LI":"新和里","LIN":"30鄰","STREET":"光華街","SECT":" ","MAREA":" ","LANE":"２１４巷","ALLEY":" ","HOUSE_NO":"２號","E_COORD97":177884.64999999999,"N_COORD97":2553016.25,"ADDRESS":"光華街２１４巷２號","OBJECTID":356534},"geometry":{"x":177884.65000000037,"y":2553016.25}},{"attributes":{"ID":356544,"DIS_CODE":0,"TOWNNAME":"永康區","LI":"永康里","LIN":"30鄰","STREET":"永大路","SECT":"二段","MAREA":" ","LANE":"９０９巷","ALLEY":" ","HOUSE_NO":"３號","E_COORD97":174202.76999999999,"N_COORD97":2547056.4500000002,"ADDRESS":"永大路二段９０９巷３號","OBJECTID":356535},"geometry":{"x":174202.76999999955,"y":2547056.4500000011}},{"attributes":{"ID":356545,"DIS_CODE":0,"TOWNNAME":"永康區","LI":"永康里","LIN":"30鄰","STREET":"永大路","SECT":"二段","MAREA":" ","LANE":"９０９巷","ALLEY":" ","HOUSE_NO":"９號","E_COORD97":174200.85999999999,"N_COORD97":2547068.7000000002,"ADDRESS":"永大路二段９０９巷９號","OBJECTID":356536},"geometry":{"x":174200.86000000127,"y":2547068.6999999993}},{"attributes":{"ID":356546,"DIS_CODE":0,"TOWNNAME":"永康區","LI":"北灣里","LIN":"30鄰","STREET":"大灣六街","SECT":" ","MAREA":" ","LANE":"８０巷","ALLEY":" ","HOUSE_NO":"６５之１號","E_COORD97":175291.01000000001,"N_COORD97":2545323.71,"ADDRESS":"大灣六街８０巷６５之１號","OBJECTID":356537},"geometry":{"x":175291.01000000071,"y":2545323.7100000028}},{"attributes":{"ID":356547,"DIS_CODE":0,"TOWNNAME":"永康區","LI":"北灣里","LIN":"30鄰","STREET":"大灣六街","SECT":" ","MAREA":" ","LANE":"８０巷","ALLEY":" ","HOUSE_NO":"６７號","E_COORD97":175303.20000000001,"N_COORD97":2545319.3199999998,"ADDRESS":"大灣六街８０巷６７號","OBJECTID":356538},"geometry":{"x":175303.20000000205,"y":2545319.3200000003}},{"attributes":{"ID":356548,"DIS_CODE":0,"TOWNNAME":"永康區","LI":"北灣里","LIN":"30鄰","STREET":"大灣六街","SECT":" ","MAREA":" ","LANE":"８０巷","ALLEY":" ","HOUSE_NO":"６９號","E_COORD97":175307.51000000001,"N_COORD97":2545318.8300000001,"ADDRESS":"大灣六街８０巷６９號","OBJECTID":356539},"geometry":{"x":175307.51000000071,"y":2545318.8300000019}},{"attributes":{"ID":356549,"DIS_CODE":0,"TOWNNAME":"永康區","LI":"正強里","LIN":"30鄰","STREET":"中正路","SECT":" ","MAREA":" ","LANE":"２０９巷","ALLEY":" ","HOUSE_NO":"７３號","E_COORD97":173150.64999999999,"N_COORD97":2547727.7400000002,"ADDRESS":"中正路２０９巷７３號","OBJECTID":356540},"geometry":{"x":173150.64999999944,"y":2547727.7400000002}},{"attributes":{"ID":356550,"DIS_CODE":0,"TOWNNAME":"新市區","LI":"新和里","LIN":"30鄰","STREET":"光華街","SECT":" ","MAREA":" ","LANE":"２１４巷","ALLEY":" ","HOUSE_NO":"３號","E_COORD97":177866.51000000001,"N_COORD97":2553024.5,"ADDRESS":"光華街２１４巷３號","OBJECTID":356541},"geometry":{"x":177866.50999999978,"y":2553024.5}},{"attributes":{"ID":356551,"DIS_CODE":0,"TOWNNAME":"新市區","LI":"新和里","LIN":"30鄰","STREET":"光華街","SECT":" ","MAREA":" ","LANE":"２１４巷","ALLEY":" ","HOUSE_NO":"１３號","E_COORD97":177891.26000000001,"N_COORD97":2553027.75,"ADDRESS":"光華街２１４巷１３號","OBJECTID":356542},"geometry":{"x":177891.26000000071,"y":2553027.7500000019}},{"attributes":{"ID":356552,"DIS_CODE":0,"TOWNNAME":"中西區","LI":"西賢里","LIN":"30鄰","STREET":"西賢六街","SECT":" ","MAREA":" ","LANE":"２０巷","ALLEY":" ","HOUSE_NO":"１０號","E_COORD97":165099.97,"N_COORD97":2544624.6499999999,"ADDRESS":"西賢六街２０巷１０號","OBJECTID":356543},"geometry":{"x":165099.97000000067,"y":2544624.6500000022}},{"attributes":{"ID":356553,"DIS_CODE":0,"TOWNNAME":"中西區","LI":"西賢里","LIN":"30鄰","STREET":"西賢六街","SECT":" ","MAREA":" ","LANE":"２０巷","ALLEY":" ","HOUSE_NO":"１２號","E_COORD97":165092.14999999999,"N_COORD97":2544614.5699999998,"ADDRESS":"西賢六街２０巷１２號","OBJECTID":356544},"geometry":{"x":165092.1500000013,"y":2544614.5700000022}},{"attributes":{"ID":356554,"DIS_CODE":0,"TOWNNAME":"中西區","LI":"西賢里","LIN":"30鄰","STREET":"西賢六街","SECT":" ","MAREA":" ","LANE":"２０巷","ALLEY":" ","HOUSE_NO":"１６號","E_COORD97":165089.19,"N_COORD97":2544608.8399999999,"ADDRESS":"西賢六街２０巷１６號","OBJECTID":356545},"geometry":{"x":165089.19000000041,"y":2544608.8400000017}},{"attributes":{"ID":356555,"DIS_CODE":0,"TOWNNAME":"中西區","LI":"西賢里","LIN":"30鄰","STREET":"西賢六街","SECT":" ","MAREA":" ","LANE":"２０巷","ALLEY":" ","HOUSE_NO":"１８號","E_COORD97":165112.5,"N_COORD97":2544622.7400000002,"ADDRESS":"西賢六街２０巷１８號","OBJECTID":356546},"geometry":{"x":165112.5,"y":2544622.7399999984}},{"attributes":{"ID":356556,"DIS_CODE":0,"TOWNNAME":"中西區","LI":"西賢里","LIN":"30鄰","STREET":"西賢六街","SECT":" ","MAREA":" ","LANE":"２０巷","ALLEY":" ","HOUSE_NO":"２０號","E_COORD97":165117.54000000001,"N_COORD97":2544622.2200000002,"ADDRESS":"西賢六街２０巷２０號","OBJECTID":356547},"geometry":{"x":165117.53999999911,"y":2544622.2200000007}},{"attributes":{"ID":356557,"DIS_CODE":0,"TOWNNAME":"中西區","LI":"西賢里","LIN":"30鄰","STREET":"西賢六街","SECT":" ","MAREA":" ","LANE":"２０巷","ALLEY":" ","HOUSE_NO":"２２號","E_COORD97":165121.01999999999,"N_COORD97":2544621.1699999999,"ADDRESS":"西賢六街２０巷２２號","OBJECTID":356548},"geometry":{"x":165121.02000000048,"y":2544621.1700000018}},{"attributes":{"ID":356558,"DIS_CODE":0,"TOWNNAME":"中西區","LI":"西賢里","LIN":"30鄰","STREET":"西賢六街","SECT":" ","MAREA":" ","LANE":"２０巷","ALLEY":" ","HOUSE_NO":"２６號","E_COORD97":165126.41,"N_COORD97":2544619.6099999999,"ADDRESS":"西賢六街２０巷２６號","OBJECTID":356549},"geometry":{"x":165126.41000000015,"y":2544619.6100000031}},{"attributes":{"ID":356559,"DIS_CODE":0,"TOWNNAME":"中西區","LI":"西賢里","LIN":"30鄰","STREET":"西賢六街","SECT":" ","MAREA":" ","LANE":"２０巷","ALLEY":" ","HOUSE_NO":"２８號","E_COORD97":165115.78,"N_COORD97":2544611.0899999999,"ADDRESS":"西賢六街２０巷２８號","OBJECTID":356550},"geometry":{"x":165115.78000000026,"y":2544611.0900000017}},{"attributes":{"ID":356560,"DIS_CODE":0,"TOWNNAME":"中西區","LI":"西賢里","LIN":"30鄰","STREET":"西賢六街","SECT":" ","MAREA":" ","LANE":"２０巷","ALLEY":" ","HOUSE_NO":"２號","E_COORD97":165087.62,"N_COORD97":2544626.73,"ADDRESS":"西賢六街２０巷２號","OBJECTID":356551},"geometry":{"x":165087.62000000011,"y":2544626.7300000042}},{"attributes":{"ID":356561,"DIS_CODE":0,"TOWNNAME":"中西區","LI":"西賢里","LIN":"30鄰","STREET":"西賢六街","SECT":" ","MAREA":" ","LANE":"２０巷","ALLEY":" ","HOUSE_NO":"３０號","E_COORD97":165115.78,"N_COORD97":2544607.0699999998,"ADDRESS":"西賢六街２０巷３０號","OBJECTID":356552},"geometry":{"x":165115.78000000026,"y":2544607.0699999984}},{"attributes":{"ID":356562,"DIS_CODE":0,"TOWNNAME":"中西區","LI":"西賢里","LIN":"30鄰","STREET":"西賢六街","SECT":" ","MAREA":" ","LANE":"２０巷","ALLEY":" ","HOUSE_NO":"３２號","E_COORD97":165114.63,"N_COORD97":2544603.4900000002,"ADDRESS":"西賢六街２０巷３２號","OBJECTID":356553},"geometry":{"x":165114.62999999989,"y":2544603.4900000002}},{"attributes":{"ID":356563,"DIS_CODE":0,"TOWNNAME":"中西區","LI":"西賢里","LIN":"30鄰","STREET":"西賢六街","SECT":" ","MAREA":" ","LANE":"２０巷","ALLEY":" ","HOUSE_NO":"３６號","E_COORD97":165112.76999999999,"N_COORD97":2544598.77,"ADDRESS":"西賢六街２０巷３６號","OBJECTID":356554},"geometry":{"x":165112.77000000048,"y":2544598.7700000014}},{"attributes":{"ID":356564,"DIS_CODE":0,"TOWNNAME":"中西區","LI":"西賢里","LIN":"30鄰","STREET":"西賢六街","SECT":" ","MAREA":" ","LANE":"２０巷","ALLEY":" ","HOUSE_NO":"３８號","E_COORD97":165110.72,"N_COORD97":2544594.5699999998,"ADDRESS":"西賢六街２０巷３８號","OBJECTID":356555},"geometry":{"x":165110.71999999974,"y":2544594.5700000022}},{"attributes":{"ID":356565,"DIS_CODE":0,"TOWNNAME":"中西區","LI":"西賢里","LIN":"30鄰","STREET":"西賢六街","SECT":" ","MAREA":" ","LANE":"２０巷","ALLEY":" ","HOUSE_NO":"４０號","E_COORD97":165110.20000000001,"N_COORD97":2544590.4199999999,"ADDRESS":"西賢六街２０巷４０號","OBJECTID":356556},"geometry":{"x":165110.20000000112,"y":2544590.4199999999}},{"attributes":{"ID":356566,"DIS_CODE":0,"TOWNNAME":"中西區","LI":"西賢里","LIN":"30鄰","STREET":"西賢六街","SECT":" ","MAREA":" ","LANE":"２０巷","ALLEY":" ","HOUSE_NO":"６號","E_COORD97":165091.62,"N_COORD97":2544625.52,"ADDRESS":"西賢六街２０巷６號","OBJECTID":356557},"geometry":{"x":165091.62000000011,"y":2544625.5199999996}},{"attributes":{"ID":356567,"DIS_CODE":0,"TOWNNAME":"中西區","LI":"西賢里","LIN":"30鄰","STREET":"西賢六街","SECT":" ","MAREA":" ","LANE":"２０巷","ALLEY":" ","HOUSE_NO":"８號","E_COORD97":165095.28,"N_COORD97":2544624.8199999998,"ADDRESS":"西賢六街２０巷８號","OBJECTID":356558},"geometry":{"x":165095.28000000026,"y":2544624.8200000003}},{"attributes":{"ID":356568,"DIS_CODE":0,"TOWNNAME":"東區","LI":"自強里","LIN":"8鄰","STREET":"東門路","SECT":"三段","MAREA":" ","LANE":" ","ALLEY":" ","HOUSE_NO":"１３號十四樓之１","E_COORD97":171098.26000000001,"N_COORD97":2542396.1299999999,"ADDRESS":"東門路三段１３號十四樓之１","OBJECTID":356559},"geometry":{"x":171098.26000000164,"y":2542396.1300000008}},{"attributes":{"ID":356569,"DIS_CODE":0,"TOWNNAME":"永康區","LI":"東灣里","LIN":"1鄰","STREET":"立興街","SECT":" ","MAREA":" ","LANE":" ","ALLEY":" ","HOUSE_NO":"３８號","E_COORD97":174625.85000000001,"N_COORD97":2544883.54,"ADDRESS":"立興街３８號","OBJECTID":356560},"geometry":{"x":174625.85000000056,"y":2544883.5399999991}},{"attributes":{"ID":356570,"DIS_CODE":0,"TOWNNAME":"新營區","LI":"新東里","LIN":"26鄰","STREET":"東興三街","SECT":" ","MAREA":" ","LANE":"２２巷","ALLEY":" ","HOUSE_NO":"４２號五樓之５","E_COORD97":180699.09,"N_COORD97":2579418.9100000001,"ADDRESS":"東興三街２２巷４２號五樓之５","OBJECTID":356561},"geometry":{"x":180699.08999999985,"y":2579418.9100000001}},{"attributes":{"ID":356571,"DIS_CODE":0,"TOWNNAME":"新營區","LI":"新東里","LIN":"26鄰","STREET":"東興三街","SECT":" ","MAREA":" ","LANE":"２２巷","ALLEY":" ","HOUSE_NO":"４２號六樓之５","E_COORD97":180699.09,"N_COORD97":2579418.9100000001,"ADDRESS":"東興三街２２巷４２號六樓之５","OBJECTID":356562},"geometry":{"x":180699.08999999985,"y":2579418.9100000001}},{"attributes":{"ID":356572,"DIS_CODE":0,"TOWNNAME":"北區","LI":"延平里","LIN":"7鄰","STREET":"公園路","SECT":" ","MAREA":" ","LANE":"７７２巷","ALLEY":" ","HOUSE_NO":"９號","E_COORD97":169171.89000000001,"N_COORD97":2545728.75,"ADDRESS":"公園路７７２巷９號","OBJECTID":356563},"geometry":{"x":169171.8900000006,"y":2545728.7500000019}},{"attributes":{"ID":356573,"DIS_CODE":0,"TOWNNAME":"永康區","LI":"建國里","LIN":"30鄰","STREET":"復興路","SECT":" ","MAREA":" ","LANE":"７１巷","ALLEY":" ","HOUSE_NO":"９６號","E_COORD97":172814.54999999999,"N_COORD97":2543738.2000000002,"ADDRESS":"復興路７１巷９６號","OBJECTID":356564},"geometry":{"x":172814.54999999981,"y":2543738.2000000011}},{"attributes":{"ID":356574,"DIS_CODE":0,"TOWNNAME":"永康區","LI":"正強里","LIN":"30鄰","STREET":"中正路","SECT":" ","MAREA":" ","LANE":"２０９巷","ALLEY":" ","HOUSE_NO":"９０號","E_COORD97":173128.62,"N_COORD97":2547727.4900000002,"ADDRESS":"中正路２０９巷９０號","OBJECTID":356565},"geometry":{"x":173128.62000000197,"y":2547727.4900000021}},{"attributes":{"ID":356575,"DIS_CODE":0,"TOWNNAME":"永康區","LI":"北灣里","LIN":"30鄰","STREET":"大同街","SECT":" ","MAREA":" ","LANE":"３３巷","ALLEY":" ","HOUSE_NO":"１號","E_COORD97":175263.25,"N_COORD97":2545397.25,"ADDRESS":"大同街３３巷１號","OBJECTID":356566},"geometry":{"x":175263.25,"y":2545397.2500000019}},{"attributes":{"ID":356576,"DIS_CODE":0,"TOWNNAME":"永康區","LI":"西勢里","LIN":"30鄰","STREET":"富強路","SECT":"一段","MAREA":" ","LANE":"２巷","ALLEY":" ","HOUSE_NO":"２０號","E_COORD97":175463.57000000001,"N_COORD97":2545921.7799999998,"ADDRESS":"富強路一段２巷２０號","OBJECTID":356567},"geometry":{"x":175463.57000000216,"y":2545921.7800000012}},{"attributes":{"ID":356577,"DIS_CODE":0,"TOWNNAME":"永康區","LI":"南灣里","LIN":"30鄰","STREET":"南灣街","SECT":" ","MAREA":" ","LANE":"８１巷","ALLEY":" ","HOUSE_NO":"１０號","E_COORD97":174432.60999999999,"N_COORD97":2544883.25,"ADDRESS":"南灣街８１巷１０號","OBJECTID":356568},"geometry":{"x":174432.6100000022,"y":2544883.25}},{"attributes":{"ID":356578,"DIS_CODE":0,"TOWNNAME":"新市區","LI":"新市里","LIN":"30鄰","STREET":"復興路","SECT":" ","MAREA":" ","LANE":"６２巷","ALLEY":" ","HOUSE_NO":"５０號","E_COORD97":177966.98999999999,"N_COORD97":2553478.5299999998,"ADDRESS":"復興路６２巷５０號","OBJECTID":356569},"geometry":{"x":177966.99000000022,"y":2553478.5299999993}},{"attributes":{"ID":356579,"DIS_CODE":0,"TOWNNAME":"新市區","LI":"新市里","LIN":"30鄰","STREET":"復興路","SECT":" ","MAREA":" ","LANE":"６２巷","ALLEY":" ","HOUSE_NO":"４６號","E_COORD97":177957.54000000001,"N_COORD97":2553478.2799999998,"ADDRESS":"復興路６２巷４６號","OBJECTID":356570},"geometry":{"x":177957.54000000097,"y":2553478.2800000012}},{"attributes":{"ID":356580,"DIS_CODE":0,"TOWNNAME":"安南區","LI":"\u25A0南里","LIN":"30鄰","STREET":"安昌街","SECT":" ","MAREA":" ","LANE":"１７４巷","ALLEY":" ","HOUSE_NO":"１５２號","E_COORD97":170095.72,"N_COORD97":2552117.6200000001,"ADDRESS":"安昌街１７４巷１５２號","OBJECTID":356571},"geometry":{"x":170095.72000000067,"y":2552117.6200000048}},{"attributes":{"ID":356581,"DIS_CODE":0,"TOWNNAME":"佳里區","LI":"建南里","LIN":"30鄰","STREET":"四維二街","SECT":" ","MAREA":" ","LANE":"２２０巷","ALLEY":" ","HOUSE_NO":"１０號","E_COORD97":165642.54999999999,"N_COORD97":2561164.7000000002,"ADDRESS":"四維二街２２０巷１０號","OBJECTID":356572},"geometry":{"x":165642.54999999981,"y":2561164.7000000011}},{"attributes":{"ID":356582,"DIS_CODE":0,"TOWNNAME":"佳里區","LI":"建南里","LIN":"30鄰","STREET":"四維二街","SECT":" ","MAREA":" ","LANE":"２２０巷","ALLEY":" ","HOUSE_NO":"５號","E_COORD97":165649.01000000001,"N_COORD97":2561148.48,"ADDRESS":"四維二街２２０巷５號","OBJECTID":356573},"geometry":{"x":165649.01000000071,"y":2561148.4800000004}},{"attributes":{"ID":356583,"DIS_CODE":0,"TOWNNAME":"佳里區","LI":"建南里","LIN":"30鄰","STREET":"四維二街","SECT":" ","MAREA":" ","LANE":"２２０巷","ALLEY":" ","HOUSE_NO":"６號","E_COORD97":165655.64999999999,"N_COORD97":2561164.7200000002,"ADDRESS":"四維二街２２０巷６號","OBJECTID":356574},"geometry":{"x":165655.65000000037,"y":2561164.7200000007}},{"attributes":{"ID":356584,"DIS_CODE":0,"TOWNNAME":"佳里區","LI":"建南里","LIN":"30鄰","STREET":"四維二街","SECT":" ","MAREA":" ","LANE":"２２０巷","ALLEY":" ","HOUSE_NO":"７號","E_COORD97":165641.39000000001,"N_COORD97":2561148.6299999999,"ADDRESS":"四維二街２２０巷７號","OBJECTID":356575},"geometry":{"x":165641.38999999966,"y":2561148.6300000008}},{"attributes":{"ID":356585,"DIS_CODE":0,"TOWNNAME":"佳里區","LI":"建南里","LIN":"30鄰","STREET":"四維二街","SECT":" ","MAREA":" ","LANE":"２２０巷","ALLEY":" ","HOUSE_NO":"８號","E_COORD97":165648.91,"N_COORD97":2561164.96,"ADDRESS":"四維二街２２０巷８號","OBJECTID":356576},"geometry":{"x":165648.91000000015,"y":2561164.9600000028}},{"attributes":{"ID":356586,"DIS_CODE":0,"TOWNNAME":"佳里區","LI":"建南里","LIN":"30鄰","STREET":"四維二街","SECT":" ","MAREA":" ","LANE":"２２２巷","ALLEY":" ","HOUSE_NO":"１１號","E_COORD97":165631.67999999999,"N_COORD97":2561108.0299999998,"ADDRESS":"四維二街２２２巷１１號","OBJECTID":356577},"geometry":{"x":165631.68000000156,"y":2561108.0300000012}},{"attributes":{"ID":356587,"DIS_CODE":0,"TOWNNAME":"佳里區","LI":"建南里","LIN":"30鄰","STREET":"四維二街","SECT":" ","MAREA":" ","LANE":"２２２巷","ALLEY":" ","HOUSE_NO":"１２號","E_COORD97":165638.17999999999,"N_COORD97":2561119.71,"ADDRESS":"四維二街２２２巷１２號","OBJECTID":356578},"geometry":{"x":165638.1799999997,"y":2561119.7100000028}},{"attributes":{"ID":356588,"DIS_CODE":0,"TOWNNAME":"佳里區","LI":"建南里","LIN":"30鄰","STREET":"四維二街","SECT":" ","MAREA":" ","LANE":"２２２巷","ALLEY":" ","HOUSE_NO":"１３號","E_COORD97":165626.45000000001,"N_COORD97":2561107.79,"ADDRESS":"四維二街２２２巷１３號","OBJECTID":356579},"geometry":{"x":165626.45000000019,"y":2561107.7899999991}},{"attributes":{"ID":356589,"DIS_CODE":0,"TOWNNAME":"佳里區","LI":"建南里","LIN":"30鄰","STREET":"四維二街","SECT":" ","MAREA":" ","LANE":"２２２巷","ALLEY":" ","HOUSE_NO":"１５號","E_COORD97":165621.62,"N_COORD97":2561107.5499999998,"ADDRESS":"四維二街２２２巷１５號","OBJECTID":356580},"geometry":{"x":165621.62000000011,"y":2561107.5500000007}},{"attributes":{"ID":356590,"DIS_CODE":0,"TOWNNAME":"佳里區","LI":"建南里","LIN":"30鄰","STREET":"四維二街","SECT":" ","MAREA":" ","LANE":"２２２巷","ALLEY":" ","HOUSE_NO":"１６號","E_COORD97":165632.48999999999,"N_COORD97":2561120.0899999999,"ADDRESS":"四維二街２２２巷１６號","OBJECTID":356581},"geometry":{"x":165632.49000000115,"y":2561120.0899999999}},{"attributes":{"ID":356591,"DIS_CODE":0,"TOWNNAME":"佳里區","LI":"建南里","LIN":"30鄰","STREET":"四維二街","SECT":" ","MAREA":" ","LANE":"２２２巷","ALLEY":" ","HOUSE_NO":"１７號","E_COORD97":165616.76000000001,"N_COORD97":2561107.5,"ADDRESS":"四維二街２２２巷１７號","OBJECTID":356582},"geometry":{"x":165616.76000000071,"y":2561107.5}},{"attributes":{"ID":356592,"DIS_CODE":0,"TOWNNAME":"佳里區","LI":"建南里","LIN":"30鄰","STREET":"四維二街","SECT":" ","MAREA":" ","LANE":"２２２巷","ALLEY":" ","HOUSE_NO":"１８號","E_COORD97":165627.20000000001,"N_COORD97":2561119.9500000002,"ADDRESS":"四維二街２２２巷１８號","OBJECTID":356583},"geometry":{"x":165627.20000000112,"y":2561119.9499999993}},{"attributes":{"ID":356593,"DIS_CODE":0,"TOWNNAME":"佳里區","LI":"建南里","LIN":"30鄰","STREET":"四維二街","SECT":" ","MAREA":" ","LANE":"２２２巷","ALLEY":" ","HOUSE_NO":"１號","E_COORD97":165661.66,"N_COORD97":2561108.1299999999,"ADDRESS":"四維二街２２２巷１號","OBJECTID":356584},"geometry":{"x":165661.66000000108,"y":2561108.129999999}},{"attributes":{"ID":356594,"DIS_CODE":0,"TOWNNAME":"佳里區","LI":"建南里","LIN":"30鄰","STREET":"四維二街","SECT":" ","MAREA":" ","LANE":"２２２巷","ALLEY":" ","HOUSE_NO":"２０號","E_COORD97":165621.78,"N_COORD97":2561120.04,"ADDRESS":"四維二街２２２巷２０號","OBJECTID":356585},"geometry":{"x":165621.78000000119,"y":2561120.0399999991}},{"attributes":{"ID":356595,"DIS_CODE":0,"TOWNNAME":"佳里區","LI":"建南里","LIN":"30鄰","STREET":"四維二街","SECT":" ","MAREA":" ","LANE":"２２２巷","ALLEY":" ","HOUSE_NO":"２２號","E_COORD97":165616.89000000001,"N_COORD97":2561120.2799999998,"ADDRESS":"四維二街２２２巷２２號","OBJECTID":356586},"geometry":{"x":165616.8900000006,"y":2561120.2800000012}},{"attributes":{"ID":356596,"DIS_CODE":0,"TOWNNAME":"佳里區","LI":"建南里","LIN":"30鄰","STREET":"四維二街","SECT":" ","MAREA":" ","LANE":"２２２巷","ALLEY":" ","HOUSE_NO":"２號","E_COORD97":165661.60999999999,"N_COORD97":2561119.8199999998,"ADDRESS":"四維二街２２２巷２號","OBJECTID":356587},"geometry":{"x":165661.6100000022,"y":2561119.8199999984}},{"attributes":{"ID":356597,"DIS_CODE":0,"TOWNNAME":"佳里區","LI":"建南里","LIN":"30鄰","STREET":"四維二街","SECT":" ","MAREA":" ","LANE":"２２２巷","ALLEY":" ","HOUSE_NO":"３號","E_COORD97":165656.25,"N_COORD97":2561108.3700000001,"ADDRESS":"四維二街２２２巷３號","OBJECTID":356588},"geometry":{"x":165656.25,"y":2561108.3700000029}},{"attributes":{"ID":356598,"DIS_CODE":0,"TOWNNAME":"東區","LI":"自強里","LIN":"8鄰","STREET":"東門路","SECT":"三段","MAREA":" ","LANE":" ","ALLEY":" ","HOUSE_NO":"１３號十四樓之２","E_COORD97":171098.26000000001,"N_COORD97":2542396.1299999999,"ADDRESS":"東門路三段１３號十四樓之２","OBJECTID":356589},"geometry":{"x":171098.26000000164,"y":2542396.1300000008}},{"attributes":{"ID":356599,"DIS_CODE":0,"TOWNNAME":"東區","LI":"自強里","LIN":"8鄰","STREET":"東門路","SECT":"三段","MAREA":" ","LANE":" ","ALLEY":" ","HOUSE_NO":"１３號十四樓之３","E_COORD97":171098.26000000001,"N_COORD97":2542396.1299999999,"ADDRESS":"東門路三段１３號十四樓之３","OBJECTID":356590},"geometry":{"x":171098.26000000164,"y":2542396.1300000008}},{"attributes":{"ID":356600,"DIS_CODE":0,"TOWNNAME":"東區","LI":"自強里","LIN":"8鄰","STREET":"東門路","SECT":"三段","MAREA":" ","LANE":" ","ALLEY":" ","HOUSE_NO":"１３號十樓","E_COORD97":171098.26000000001,"N_COORD97":2542396.1299999999,"ADDRESS":"東門路三段１３號十樓","OBJECTID":356591},"geometry":{"x":171098.26000000164,"y":2542396.1300000008}},{"attributes":{"ID":356601,"DIS_CODE":0,"TOWNNAME":"佳里區","LI":"建南里","LIN":"30鄰","STREET":"四維二街","SECT":" ","MAREA":" ","LANE":"２２２巷","ALLEY":" ","HOUSE_NO":"５號","E_COORD97":165650.39999999999,"N_COORD97":2561108.5800000001,"ADDRESS":"四維二街２２２巷５號","OBJECTID":356592},"geometry":{"x":165650.4000000013,"y":2561108.5800000019}},{"attributes":{"ID":356602,"DIS_CODE":0,"TOWNNAME":"佳里區","LI":"建南里","LIN":"30鄰","STREET":"四維二街","SECT":" ","MAREA":" ","LANE":"２２２巷","ALLEY":" ","HOUSE_NO":"６號","E_COORD97":165655.85999999999,"N_COORD97":2561120,"ADDRESS":"四維二街２２２巷６號","OBJECTID":356593},"geometry":{"x":165655.86000000034,"y":2561120.0000000019}},{"attributes":{"ID":356603,"DIS_CODE":0,"TOWNNAME":"佳里區","LI":"建南里","LIN":"30鄰","STREET":"四維二街","SECT":" ","MAREA":" ","LANE":"２２２巷","ALLEY":" ","HOUSE_NO":"７號","E_COORD97":165643.73000000001,"N_COORD97":2561108.5099999998,"ADDRESS":"四維二街２２２巷７號","OBJECTID":356594},"geometry":{"x":165643.73000000045,"y":2561108.5100000016}},{"attributes":{"ID":356604,"DIS_CODE":0,"TOWNNAME":"佳里區","LI":"建南里","LIN":"30鄰","STREET":"四維二街","SECT":" ","MAREA":" ","LANE":"２２２巷","ALLEY":" ","HOUSE_NO":"８號","E_COORD97":165650.01999999999,"N_COORD97":2561119.9700000002,"ADDRESS":"四維二街２２２巷８號","OBJECTID":356595},"geometry":{"x":165650.02000000048,"y":2561119.9700000025}},{"attributes":{"ID":356605,"DIS_CODE":0,"TOWNNAME":"佳里區","LI":"建南里","LIN":"30鄰","STREET":"四維二街","SECT":" ","MAREA":" ","LANE":"２２２巷","ALLEY":" ","HOUSE_NO":"９號","E_COORD97":165637.67999999999,"N_COORD97":2561108.5800000001,"ADDRESS":"四維二街２２２巷９號","OBJECTID":356596},"geometry":{"x":165637.6799999997,"y":2561108.5800000019}},{"attributes":{"ID":356606,"DIS_CODE":0,"TOWNNAME":"永康區","LI":"永康里","LIN":"30鄰","STREET":"永華路","SECT":" ","MAREA":" ","LANE":"７７６巷","ALLEY":" ","HOUSE_NO":"２１號","E_COORD97":174185.66,"N_COORD97":2547167.8900000001,"ADDRESS":"永華路７７６巷２１號","OBJECTID":356597},"geometry":{"x":174185.66000000015,"y":2547167.8900000006}},{"attributes":{"ID":356607,"DIS_CODE":0,"TOWNNAME":"永康區","LI":"崑山里","LIN":"30鄰","STREET":"崑山街","SECT":" ","MAREA":" ","LANE":"１２３巷","ALLEY":" ","HOUSE_NO":"１５號","E_COORD97":173942.67000000001,"N_COORD97":2544808.3599999999,"ADDRESS":"崑山街１２３巷１５號","OBJECTID":356598},"geometry":{"x":173942.66999999993,"y":2544808.3600000013}},{"attributes":{"ID":356608,"DIS_CODE":0,"TOWNNAME":"永康區","LI":"西灣里","LIN":"30鄰","STREET":"國光八街","SECT":" ","MAREA":" ","LANE":"６０巷","ALLEY":" ","HOUSE_NO":"２０號","E_COORD97":174271.16,"N_COORD97":2545822.9100000001,"ADDRESS":"國光八街６０巷２０號","OBJECTID":356599},"geometry":{"x":174271.16000000108,"y":2545822.910000002}},{"attributes":{"ID":356609,"DIS_CODE":0,"TOWNNAME":"永康區","LI":"埔園里","LIN":"30鄰","STREET":"八德街","SECT":" ","MAREA":" ","LANE":"１９９巷","ALLEY":" ","HOUSE_NO":"１８號","E_COORD97":173809.66,"N_COORD97":2548504.27,"ADDRESS":"八德街１９９巷１８號","OBJECTID":356600},"geometry":{"x":173809.66000000015,"y":2548504.2700000033}}]}