{"displayFieldName":"TOWNNAME","fieldAliases":{"ID":"ID","DIS_CODE":"DIS_CODE","TOWNNAME":"TOWNNAME","LI":"LI","LIN":"LIN","STREET":"STREET","SECT":"SECT","MAREA":"MAREA","LANE":"LANE","ALLEY":"ALLEY","HOUSE_NO":"HOUSE_NO","E_COORD97":"E_COORD97","N_COORD97":"N_COORD97","ADDRESS":"ADDRESS","OBJECTID":"OBJECTID"},"geometryType":"esriGeometryPoint","spatialReference":{"wkid":102443,"latestWkid":3826},"fields":[{"name":"ID","type":"esriFieldTypeDouble","alias":"ID"},{"name":"DIS_CODE","type":"esriFieldTypeInteger","alias":"DIS_CODE"},{"name":"TOWNNAME","type":"esriFieldTypeString","alias":"TOWNNAME","length":8},{"name":"LI","type":"esriFieldTypeString","alias":"LI","length":8},{"name":"LIN","type":"esriFieldTypeString","alias":"LIN","length":12},{"name":"STREET","type":"esriFieldTypeString","alias":"STREET","length":20},{"name":"SECT","type":"esriFieldTypeString","alias":"SECT","length":8},{"name":"MAREA","type":"esriFieldTypeString","alias":"MAREA","length":12},{"name":"LANE","type":"esriFieldTypeString","alias":"LANE","length":10},{"name":"ALLEY","type":"esriFieldTypeString","alias":"ALLEY","length":10},{"name":"HOUSE_NO","type":"esriFieldTypeString","alias":"HOUSE_NO","length":20},{"name":"E_COORD97","type":"esriFieldTypeDouble","alias":"E_COORD97"},{"name":"N_COORD97","type":"esriFieldTypeDouble","alias":"N_COORD97"},{"name":"ADDRESS","type":"esriFieldTypeString","alias":"ADDRESS","length":50},{"name":"OBJECTID","type":"esriFieldTypeOID","alias":"OBJECTID"}],"features":[{"attributes":{"ID":108001,"DIS_CODE":0,"TOWNNAME":"東山區","LI":"三榮里","LIN":"9鄰","STREET":" ","SECT":" ","MAREA":"木柵","LANE":" ","ALLEY":" ","HOUSE_NO":"４０號之１","E_COORD97":187452.20000000001,"N_COORD97":2579707.4700000002,"ADDRESS":"木柵４０號之１","OBJECTID":108001},"geometry":{"x":187452.20000000019,"y":2579707.4700000007}},{"attributes":{"ID":108002,"DIS_CODE":0,"TOWNNAME":"北區","LI":"力行里","LIN":"9鄰","STREET":"開南街","SECT":" ","MAREA":" ","LANE":"２７５巷","ALLEY":"１４弄","HOUSE_NO":"３０號","E_COORD97":171054.69,"N_COORD97":2545114.4900000002,"ADDRESS":"開南街２７５巷１４弄３０號","OBJECTID":108002},"geometry":{"x":171054.69000000041,"y":2545114.4900000021}},{"attributes":{"ID":108003,"DIS_CODE":0,"TOWNNAME":"北區","LI":"力行里","LIN":"9鄰","STREET":"開南街","SECT":" ","MAREA":" ","LANE":"２７５巷","ALLEY":"１４弄","HOUSE_NO":"３１號","E_COORD97":171060.57999999999,"N_COORD97":2545155.8700000001,"ADDRESS":"開南街２７５巷１４弄３１號","OBJECTID":108003},"geometry":{"x":171060.58000000007,"y":2545155.8700000029}},{"attributes":{"ID":108004,"DIS_CODE":0,"TOWNNAME":"北區","LI":"力行里","LIN":"9鄰","STREET":"開南街","SECT":" ","MAREA":" ","LANE":"２７５巷","ALLEY":"１４弄","HOUSE_NO":"３２號","E_COORD97":171054.5,"N_COORD97":2545108.6200000001,"ADDRESS":"開南街２７５巷１４弄３２號","OBJECTID":108004},"geometry":{"x":171054.50000000186,"y":2545108.620000001}},{"attributes":{"ID":108005,"DIS_CODE":0,"TOWNNAME":"北區","LI":"力行里","LIN":"9鄰","STREET":"開南街","SECT":" ","MAREA":" ","LANE":"２７５巷","ALLEY":"１４弄","HOUSE_NO":"３３號","E_COORD97":171060.57999999999,"N_COORD97":2545161.3599999999,"ADDRESS":"開南街２７５巷１４弄３３號","OBJECTID":108005},"geometry":{"x":171060.58000000007,"y":2545161.3600000013}},{"attributes":{"ID":108006,"DIS_CODE":0,"TOWNNAME":"北區","LI":"力行里","LIN":"9鄰","STREET":"開南街","SECT":" ","MAREA":" ","LANE":"２７５巷","ALLEY":"１４弄","HOUSE_NO":"３５號","E_COORD97":171061.34,"N_COORD97":2545164.5800000001,"ADDRESS":"開南街２７５巷１４弄３５號","OBJECTID":108006},"geometry":{"x":171061.33999999985,"y":2545164.5800000019}},{"attributes":{"ID":108007,"DIS_CODE":0,"TOWNNAME":"北區","LI":"力行里","LIN":"9鄰","STREET":"開南街","SECT":" ","MAREA":" ","LANE":"２７５巷","ALLEY":"１４弄","HOUSE_NO":"３７號","E_COORD97":171062.10000000001,"N_COORD97":2545169.3100000001,"ADDRESS":"開南街２７５巷１４弄３７號","OBJECTID":108007},"geometry":{"x":171062.10000000056,"y":2545169.3100000024}},{"attributes":{"ID":108008,"DIS_CODE":0,"TOWNNAME":"東山區","LI":"三榮里","LIN":"9鄰","STREET":" ","SECT":" ","MAREA":"木柵","LANE":" ","ALLEY":" ","HOUSE_NO":"４２號之７","E_COORD97":187437.10000000001,"N_COORD97":2579770.6099999999,"ADDRESS":"木柵４２號之７","OBJECTID":108008},"geometry":{"x":187437.09999999963,"y":2579770.6099999994}},{"attributes":{"ID":108009,"DIS_CODE":0,"TOWNNAME":"東山區","LI":"三榮里","LIN":"9鄰","STREET":" ","SECT":" ","MAREA":"木柵","LANE":" ","ALLEY":" ","HOUSE_NO":"４２號","E_COORD97":187427.73000000001,"N_COORD97":2579707.9100000001,"ADDRESS":"木柵４２號","OBJECTID":108009},"geometry":{"x":187427.73000000138,"y":2579707.9100000001}},{"attributes":{"ID":108010,"DIS_CODE":0,"TOWNNAME":"東山區","LI":"三榮里","LIN":"9鄰","STREET":" ","SECT":" ","MAREA":"木柵","LANE":" ","ALLEY":" ","HOUSE_NO":"４４號","E_COORD97":187416.95999999999,"N_COORD97":2579682.8199999998,"ADDRESS":"木柵４４號","OBJECTID":108010},"geometry":{"x":187416.96000000089,"y":2579682.8200000022}},{"attributes":{"ID":108011,"DIS_CODE":0,"TOWNNAME":"東山區","LI":"三榮里","LIN":"9鄰","STREET":" ","SECT":" ","MAREA":"木柵","LANE":" ","ALLEY":" ","HOUSE_NO":"４５號之１","E_COORD97":187396.07000000001,"N_COORD97":2579650.27,"ADDRESS":"木柵４５號之１","OBJECTID":108011},"geometry":{"x":187396.07000000123,"y":2579650.2699999996}},{"attributes":{"ID":108012,"DIS_CODE":0,"TOWNNAME":"東山區","LI":"三榮里","LIN":"9鄰","STREET":" ","SECT":" ","MAREA":"木柵","LANE":" ","ALLEY":" ","HOUSE_NO":"４５號之２","E_COORD97":187378.95000000001,"N_COORD97":2579594.8599999999,"ADDRESS":"木柵４５號之２","OBJECTID":108012},"geometry":{"x":187378.95000000019,"y":2579594.8599999994}},{"attributes":{"ID":108013,"DIS_CODE":0,"TOWNNAME":"東山區","LI":"三榮里","LIN":"9鄰","STREET":" ","SECT":" ","MAREA":"木柵","LANE":" ","ALLEY":" ","HOUSE_NO":"４５號之３","E_COORD97":187413.39000000001,"N_COORD97":2579655.9199999999,"ADDRESS":"木柵４５號之３","OBJECTID":108013},"geometry":{"x":187413.39000000153,"y":2579655.9199999999}},{"attributes":{"ID":108014,"DIS_CODE":0,"TOWNNAME":"東山區","LI":"三榮里","LIN":"9鄰","STREET":" ","SECT":" ","MAREA":"木柵","LANE":" ","ALLEY":" ","HOUSE_NO":"４５號之５","E_COORD97":187397.60000000001,"N_COORD97":2579601.1000000001,"ADDRESS":"木柵４５號之５","OBJECTID":108014},"geometry":{"x":187397.59999999963,"y":2579601.0999999996}},{"attributes":{"ID":108015,"DIS_CODE":0,"TOWNNAME":"北區","LI":"力行里","LIN":"9鄰","STREET":"開南街","SECT":" ","MAREA":" ","LANE":"２７５巷","ALLEY":"１４弄","HOUSE_NO":"３９號","E_COORD97":171063.04999999999,"N_COORD97":2545173.29,"ADDRESS":"開南街２７５巷１４弄３９號","OBJECTID":108015},"geometry":{"x":171063.05000000075,"y":2545173.2899999991}},{"attributes":{"ID":108016,"DIS_CODE":0,"TOWNNAME":"東山區","LI":"三榮里","LIN":"9鄰","STREET":" ","SECT":" ","MAREA":"木柵","LANE":" ","ALLEY":" ","HOUSE_NO":"４５號","E_COORD97":187399.14000000001,"N_COORD97":2579670.1600000001,"ADDRESS":"木柵４５號","OBJECTID":108016},"geometry":{"x":187399.13999999966,"y":2579670.160000002}},{"attributes":{"ID":108017,"DIS_CODE":0,"TOWNNAME":"東山區","LI":"三榮里","LIN":"9鄰","STREET":" ","SECT":" ","MAREA":"木柵","LANE":" ","ALLEY":" ","HOUSE_NO":"４７號","E_COORD97":187366.53,"N_COORD97":2579659.29,"ADDRESS":"木柵４７號","OBJECTID":108017},"geometry":{"x":187366.53000000026,"y":2579659.290000001}},{"attributes":{"ID":108018,"DIS_CODE":0,"TOWNNAME":"東山區","LI":"三榮里","LIN":"9鄰","STREET":" ","SECT":" ","MAREA":"木柵","LANE":" ","ALLEY":" ","HOUSE_NO":"４８號","E_COORD97":187363.70999999999,"N_COORD97":2579643.6200000001,"ADDRESS":"木柵４８號","OBJECTID":108018},"geometry":{"x":187363.70999999996,"y":2579643.6199999992}},{"attributes":{"ID":108019,"DIS_CODE":0,"TOWNNAME":"東山區","LI":"三榮里","LIN":"9鄰","STREET":" ","SECT":" ","MAREA":"木柵","LANE":" ","ALLEY":" ","HOUSE_NO":"４９號之１","E_COORD97":187338.35000000001,"N_COORD97":2579616.7000000002,"ADDRESS":"木柵４９號之１","OBJECTID":108019},"geometry":{"x":187338.34999999963,"y":2579616.6999999993}},{"attributes":{"ID":108020,"DIS_CODE":0,"TOWNNAME":"東山區","LI":"三榮里","LIN":"9鄰","STREET":" ","SECT":" ","MAREA":"木柵","LANE":" ","ALLEY":" ","HOUSE_NO":"４９號之２","E_COORD97":187346.56,"N_COORD97":2579644.0099999998,"ADDRESS":"木柵４９號之２","OBJECTID":108020},"geometry":{"x":187346.56000000052,"y":2579644.0100000016}},{"attributes":{"ID":108021,"DIS_CODE":0,"TOWNNAME":"東山區","LI":"三榮里","LIN":"9鄰","STREET":" ","SECT":" ","MAREA":"木柵","LANE":" ","ALLEY":" ","HOUSE_NO":"４９號","E_COORD97":187354.87,"N_COORD97":2579634.23,"ADDRESS":"木柵４９號","OBJECTID":108021},"geometry":{"x":187354.87000000104,"y":2579634.2300000004}},{"attributes":{"ID":108022,"DIS_CODE":0,"TOWNNAME":"東山區","LI":"三榮里","LIN":"9鄰","STREET":" ","SECT":" ","MAREA":"木柵","LANE":" ","ALLEY":" ","HOUSE_NO":"５６號之１","E_COORD97":187338.69,"N_COORD97":2579550.04,"ADDRESS":"木柵５６號之１","OBJECTID":108022},"geometry":{"x":187338.69000000041,"y":2579550.0399999991}},{"attributes":{"ID":108023,"DIS_CODE":0,"TOWNNAME":"東山區","LI":"三榮里","LIN":"9鄰","STREET":" ","SECT":" ","MAREA":"木柵","LANE":" ","ALLEY":" ","HOUSE_NO":"５６號之２","E_COORD97":187329.25,"N_COORD97":2579463.0699999998,"ADDRESS":"木柵５６號之２","OBJECTID":108023},"geometry":{"x":187329.25,"y":2579463.0700000003}},{"attributes":{"ID":108024,"DIS_CODE":0,"TOWNNAME":"新營區","LI":"嘉芳里","LIN":"9鄰","STREET":" ","SECT":" ","MAREA":"茄苳腳","LANE":" ","ALLEY":" ","HOUSE_NO":"８０號","E_COORD97":176783.01999999999,"N_COORD97":2578572.7599999998,"ADDRESS":"茄苳腳８０號","OBJECTID":108024},"geometry":{"x":176783.01999999955,"y":2578572.7599999998}},{"attributes":{"ID":108025,"DIS_CODE":0,"TOWNNAME":"東山區","LI":"水雲里","LIN":"9鄰","STREET":" ","SECT":" ","MAREA":"牛肉崎","LANE":" ","ALLEY":" ","HOUSE_NO":"６５號之２","E_COORD97":190920.42000000001,"N_COORD97":2573240.7200000002,"ADDRESS":"牛肉崎６５號之２","OBJECTID":108025},"geometry":{"x":190920.41999999993,"y":2573240.7200000007}},{"attributes":{"ID":108026,"DIS_CODE":0,"TOWNNAME":"東山區","LI":"水雲里","LIN":"9鄰","STREET":" ","SECT":" ","MAREA":"牛肉崎","LANE":" ","ALLEY":" ","HOUSE_NO":"６５號","E_COORD97":190633.75,"N_COORD97":2572978.46,"ADDRESS":"牛肉崎６５號","OBJECTID":108026},"geometry":{"x":190633.74999999907,"y":2572978.4600000009}},{"attributes":{"ID":108027,"DIS_CODE":0,"TOWNNAME":"東山區","LI":"聖賢里","LIN":"9鄰","STREET":" ","SECT":" ","MAREA":"北勢寮","LANE":" ","ALLEY":" ","HOUSE_NO":"７４號","E_COORD97":185035.51000000001,"N_COORD97":2579453.3300000001,"ADDRESS":"北勢寮７４號","OBJECTID":108027},"geometry":{"x":185035.50999999978,"y":2579453.3300000001}},{"attributes":{"ID":108028,"DIS_CODE":0,"TOWNNAME":"北區","LI":"力行里","LIN":"9鄰","STREET":"開南街","SECT":" ","MAREA":" ","LANE":"２７５巷","ALLEY":"１４弄","HOUSE_NO":"３號","E_COORD97":170992.51000000001,"N_COORD97":2545147.5299999998,"ADDRESS":"開南街２７５巷１４弄３號","OBJECTID":108028},"geometry":{"x":170992.50999999978,"y":2545147.5299999993}},{"attributes":{"ID":108029,"DIS_CODE":0,"TOWNNAME":"東山區","LI":"聖賢里","LIN":"9鄰","STREET":" ","SECT":" ","MAREA":"北勢寮","LANE":" ","ALLEY":" ","HOUSE_NO":"７５號","E_COORD97":185158.47,"N_COORD97":2579449.7400000002,"ADDRESS":"北勢寮７５號","OBJECTID":108029},"geometry":{"x":185158.4700000016,"y":2579449.7400000021}},{"attributes":{"ID":108030,"DIS_CODE":0,"TOWNNAME":"東山區","LI":"聖賢里","LIN":"9鄰","STREET":" ","SECT":" ","MAREA":"北勢寮","LANE":" ","ALLEY":" ","HOUSE_NO":"７６號之１","E_COORD97":185073.47,"N_COORD97":2579489.02,"ADDRESS":"北勢寮７６號之１","OBJECTID":108030},"geometry":{"x":185073.46999999881,"y":2579489.0199999996}},{"attributes":{"ID":108031,"DIS_CODE":0,"TOWNNAME":"東山區","LI":"聖賢里","LIN":"9鄰","STREET":" ","SECT":" ","MAREA":"北勢寮","LANE":" ","ALLEY":" ","HOUSE_NO":"７６號之４","E_COORD97":185092.10000000001,"N_COORD97":2579488.54,"ADDRESS":"北勢寮７６號之４","OBJECTID":108031},"geometry":{"x":185092.09999999963,"y":2579488.5399999991}},{"attributes":{"ID":108032,"DIS_CODE":0,"TOWNNAME":"東山區","LI":"聖賢里","LIN":"9鄰","STREET":" ","SECT":" ","MAREA":"北勢寮","LANE":" ","ALLEY":" ","HOUSE_NO":"７６號之５","E_COORD97":185070.66,"N_COORD97":2579597.1400000001,"ADDRESS":"北勢寮７６號之５","OBJECTID":108032},"geometry":{"x":185070.66000000015,"y":2579597.1400000025}},{"attributes":{"ID":108033,"DIS_CODE":0,"TOWNNAME":"東山區","LI":"聖賢里","LIN":"9鄰","STREET":" ","SECT":" ","MAREA":"北勢寮","LANE":" ","ALLEY":" ","HOUSE_NO":"７６號之６","E_COORD97":185054.95000000001,"N_COORD97":2579458.5099999998,"ADDRESS":"北勢寮７６號之６","OBJECTID":108033},"geometry":{"x":185054.95000000019,"y":2579458.5099999998}},{"attributes":{"ID":108034,"DIS_CODE":0,"TOWNNAME":"東山區","LI":"聖賢里","LIN":"9鄰","STREET":" ","SECT":" ","MAREA":"北勢寮","LANE":" ","ALLEY":" ","HOUSE_NO":"７６號","E_COORD97":185046.14999999999,"N_COORD97":2579462.5800000001,"ADDRESS":"北勢寮７６號","OBJECTID":108034},"geometry":{"x":185046.1500000013,"y":2579462.5800000001}},{"attributes":{"ID":108035,"DIS_CODE":0,"TOWNNAME":"下營區","LI":"後街里","LIN":"1鄰","STREET":"水池街","SECT":" ","MAREA":" ","LANE":" ","ALLEY":" ","HOUSE_NO":"２１號之１","E_COORD97":174408.47,"N_COORD97":2571240.7400000002,"ADDRESS":"水池街２１號之１","OBJECTID":108035},"geometry":{"x":174408.46999999974,"y":2571240.7400000039}},{"attributes":{"ID":108036,"DIS_CODE":0,"TOWNNAME":"下營區","LI":"後街里","LIN":"1鄰","STREET":"水池街","SECT":" ","MAREA":" ","LANE":" ","ALLEY":" ","HOUSE_NO":"２１號","E_COORD97":174422.14000000001,"N_COORD97":2571253.29,"ADDRESS":"水池街２１號","OBJECTID":108036},"geometry":{"x":174422.1400000006,"y":2571253.290000001}},{"attributes":{"ID":108037,"DIS_CODE":0,"TOWNNAME":"下營區","LI":"營前里","LIN":"1鄰","STREET":"民生街","SECT":" ","MAREA":" ","LANE":" ","ALLEY":" ","HOUSE_NO":"６３號","E_COORD97":174458.64000000001,"N_COORD97":2570331.7799999998,"ADDRESS":"民生街６３號","OBJECTID":108037},"geometry":{"x":174458.63999999873,"y":2570331.7800000012}},{"attributes":{"ID":108038,"DIS_CODE":0,"TOWNNAME":"下營區","LI":"營前里","LIN":"1鄰","STREET":"民生街","SECT":" ","MAREA":" ","LANE":" ","ALLEY":" ","HOUSE_NO":"６７號","E_COORD97":174471.19,"N_COORD97":2570315.6699999999,"ADDRESS":"民生街６７號","OBJECTID":108038},"geometry":{"x":174471.19000000227,"y":2570315.6700000037}},{"attributes":{"ID":108039,"DIS_CODE":0,"TOWNNAME":"下營區","LI":"營前里","LIN":"1鄰","STREET":"民生街","SECT":" ","MAREA":" ","LANE":" ","ALLEY":" ","HOUSE_NO":"６９號","E_COORD97":174459.53,"N_COORD97":2570305.2799999998,"ADDRESS":"民生街６９號","OBJECTID":108039},"geometry":{"x":174459.53000000026,"y":2570305.2800000012}},{"attributes":{"ID":108040,"DIS_CODE":0,"TOWNNAME":"下營區","LI":"新興里","LIN":"1鄰","STREET":"自由街","SECT":" ","MAREA":" ","LANE":" ","ALLEY":" ","HOUSE_NO":"１１０號","E_COORD97":174815.60999999999,"N_COORD97":2570910.9199999999,"ADDRESS":"自由街１１０號","OBJECTID":108040},"geometry":{"x":174815.6100000022,"y":2570910.9200000018}},{"attributes":{"ID":108041,"DIS_CODE":0,"TOWNNAME":"北區","LI":"力行里","LIN":"9鄰","STREET":"開南街","SECT":" ","MAREA":" ","LANE":"２７５巷","ALLEY":"１４弄","HOUSE_NO":"４１號","E_COORD97":171045.41,"N_COORD97":2545177.27,"ADDRESS":"開南街２７５巷１４弄４１號","OBJECTID":108041},"geometry":{"x":171045.41000000108,"y":2545177.2699999996}},{"attributes":{"ID":108042,"DIS_CODE":0,"TOWNNAME":"北區","LI":"力行里","LIN":"9鄰","STREET":"開南街","SECT":" ","MAREA":" ","LANE":"２７５巷","ALLEY":"１４弄","HOUSE_NO":"４３號","E_COORD97":171041.62,"N_COORD97":2545177.27,"ADDRESS":"開南街２７５巷１４弄４３號","OBJECTID":108042},"geometry":{"x":171041.62000000011,"y":2545177.2699999996}},{"attributes":{"ID":108043,"DIS_CODE":0,"TOWNNAME":"北區","LI":"力行里","LIN":"9鄰","STREET":"開南街","SECT":" ","MAREA":" ","LANE":"２７５巷","ALLEY":"１４弄","HOUSE_NO":"４號","E_COORD97":170992.32000000001,"N_COORD97":2545135.04,"ADDRESS":"開南街２７５巷１４弄４號","OBJECTID":108043},"geometry":{"x":170992.32000000123,"y":2545135.0400000028}},{"attributes":{"ID":108044,"DIS_CODE":0,"TOWNNAME":"北區","LI":"力行里","LIN":"9鄰","STREET":"開南街","SECT":" ","MAREA":" ","LANE":"２７５巷","ALLEY":"１４弄","HOUSE_NO":"５號","E_COORD97":170997.44,"N_COORD97":2545146.9700000002,"ADDRESS":"開南街２７５巷１４弄５號","OBJECTID":108044},"geometry":{"x":170997.44000000041,"y":2545146.9700000007}},{"attributes":{"ID":108045,"DIS_CODE":0,"TOWNNAME":"北區","LI":"力行里","LIN":"9鄰","STREET":"開南街","SECT":" ","MAREA":" ","LANE":"２７５巷","ALLEY":"１４弄","HOUSE_NO":"６號","E_COORD97":170998.57000000001,"N_COORD97":2545134.2799999998,"ADDRESS":"開南街２７５巷１４弄６號","OBJECTID":108045},"geometry":{"x":170998.57000000123,"y":2545134.2800000012}},{"attributes":{"ID":108046,"DIS_CODE":0,"TOWNNAME":"北區","LI":"力行里","LIN":"9鄰","STREET":"開南街","SECT":" ","MAREA":" ","LANE":"２７５巷","ALLEY":"１４弄","HOUSE_NO":"７號","E_COORD97":171002.56,"N_COORD97":2545146.3999999999,"ADDRESS":"開南街２７５巷１４弄７號","OBJECTID":108046},"geometry":{"x":171002.55999999959,"y":2545146.4000000004}},{"attributes":{"ID":108047,"DIS_CODE":0,"TOWNNAME":"北區","LI":"力行里","LIN":"9鄰","STREET":"開南街","SECT":" ","MAREA":" ","LANE":"２７５巷","ALLEY":"１４弄","HOUSE_NO":"８號","E_COORD97":171004.45000000001,"N_COORD97":2545134.2799999998,"ADDRESS":"開南街２７５巷１４弄８號","OBJECTID":108047},"geometry":{"x":171004.45000000112,"y":2545134.2800000012}},{"attributes":{"ID":108048,"DIS_CODE":0,"TOWNNAME":"北區","LI":"力行里","LIN":"9鄰","STREET":"開南街","SECT":" ","MAREA":" ","LANE":"２７５巷","ALLEY":"１４弄","HOUSE_NO":"９號","E_COORD97":171006.54000000001,"N_COORD97":2545146.21,"ADDRESS":"開南街２７５巷１４弄９號","OBJECTID":108048},"geometry":{"x":171006.54000000004,"y":2545146.2100000046}},{"attributes":{"ID":108049,"DIS_CODE":0,"TOWNNAME":"北區","LI":"東興里","LIN":"9鄰","STREET":"小東路","SECT":" ","MAREA":" ","LANE":"３０７巷","ALLEY":"５４弄","HOUSE_NO":"１５號","E_COORD97":171251.79999999999,"N_COORD97":2544521.4199999999,"ADDRESS":"小東路３０７巷５４弄１５號","OBJECTID":108049},"geometry":{"x":171251.79999999981,"y":2544521.4199999999}},{"attributes":{"ID":108050,"DIS_CODE":0,"TOWNNAME":"北區","LI":"東興里","LIN":"9鄰","STREET":"小東路","SECT":" ","MAREA":" ","LANE":"３０７巷","ALLEY":"５４弄","HOUSE_NO":"１７號","E_COORD97":171252.39000000001,"N_COORD97":2544517.2400000002,"ADDRESS":"小東路３０７巷５４弄１７號","OBJECTID":108050},"geometry":{"x":171252.38999999966,"y":2544517.2400000002}},{"attributes":{"ID":108051,"DIS_CODE":0,"TOWNNAME":"北區","LI":"東興里","LIN":"9鄰","STREET":"小東路","SECT":" ","MAREA":" ","LANE":"３０７巷","ALLEY":"５４弄","HOUSE_NO":"１９號","E_COORD97":171252.97,"N_COORD97":2544513.0600000001,"ADDRESS":"小東路３０７巷５４弄１９號","OBJECTID":108051},"geometry":{"x":171252.97000000067,"y":2544513.0600000024}},{"attributes":{"ID":108052,"DIS_CODE":0,"TOWNNAME":"北區","LI":"東興里","LIN":"9鄰","STREET":"小東路","SECT":" ","MAREA":" ","LANE":"３０７巷","ALLEY":"５４弄","HOUSE_NO":"２１號","E_COORD97":171253.54999999999,"N_COORD97":2544508.2000000002,"ADDRESS":"小東路３０７巷５４弄２１號","OBJECTID":108052},"geometry":{"x":171253.54999999981,"y":2544508.2000000011}},{"attributes":{"ID":108053,"DIS_CODE":0,"TOWNNAME":"下營區","LI":"新興里","LIN":"1鄰","STREET":"自由街","SECT":" ","MAREA":" ","LANE":" ","ALLEY":" ","HOUSE_NO":"１６０號","E_COORD97":174861.51999999999,"N_COORD97":2571034.8799999999,"ADDRESS":"自由街１６０號","OBJECTID":108053},"geometry":{"x":174861.52000000048,"y":2571034.8799999971}},{"attributes":{"ID":108054,"DIS_CODE":0,"TOWNNAME":"下營區","LI":"新興里","LIN":"1鄰","STREET":"自由街","SECT":" ","MAREA":" ","LANE":" ","ALLEY":" ","HOUSE_NO":"１６２號","E_COORD97":174868.29999999999,"N_COORD97":2571053.0800000001,"ADDRESS":"自由街１６２號","OBJECTID":108054},"geometry":{"x":174868.30000000075,"y":2571053.0800000019}},{"attributes":{"ID":108055,"DIS_CODE":0,"TOWNNAME":"下營區","LI":"新興里","LIN":"1鄰","STREET":"自由街","SECT":" ","MAREA":" ","LANE":" ","ALLEY":" ","HOUSE_NO":"１６６號","E_COORD97":174876.29000000001,"N_COORD97":2571066.2599999998,"ADDRESS":"自由街１６６號","OBJECTID":108055},"geometry":{"x":174876.29000000004,"y":2571066.2599999998}},{"attributes":{"ID":108056,"DIS_CODE":0,"TOWNNAME":"下營區","LI":"新興里","LIN":"1鄰","STREET":"自由街","SECT":" ","MAREA":" ","LANE":" ","ALLEY":" ","HOUSE_NO":"１８６號","E_COORD97":174913.07000000001,"N_COORD97":2571115.1899999999,"ADDRESS":"自由街１８６號","OBJECTID":108056},"geometry":{"x":174913.07000000123,"y":2571115.1900000032}},{"attributes":{"ID":108057,"DIS_CODE":0,"TOWNNAME":"東山區","LI":"聖賢里","LIN":"9鄰","STREET":" ","SECT":" ","MAREA":"北勢寮","LANE":" ","ALLEY":" ","HOUSE_NO":"７９號之１２","E_COORD97":185113.03,"N_COORD97":2579448.8300000001,"ADDRESS":"北勢寮７９號之１２","OBJECTID":108057},"geometry":{"x":185113.03000000119,"y":2579448.8300000019}},{"attributes":{"ID":108058,"DIS_CODE":0,"TOWNNAME":"東山區","LI":"聖賢里","LIN":"9鄰","STREET":" ","SECT":" ","MAREA":"北勢寮","LANE":" ","ALLEY":" ","HOUSE_NO":"７９號之１３","E_COORD97":185100.17000000001,"N_COORD97":2579455.1000000001,"ADDRESS":"北勢寮７９號之１３","OBJECTID":108058},"geometry":{"x":185100.17000000086,"y":2579455.0999999996}},{"attributes":{"ID":108059,"DIS_CODE":0,"TOWNNAME":"東山區","LI":"聖賢里","LIN":"9鄰","STREET":" ","SECT":" ","MAREA":"北勢寮","LANE":" ","ALLEY":" ","HOUSE_NO":"７９號之１４","E_COORD97":185104.64999999999,"N_COORD97":2579452.73,"ADDRESS":"北勢寮７９號之１４","OBJECTID":108059},"geometry":{"x":185104.65000000037,"y":2579452.7300000042}},{"attributes":{"ID":108060,"DIS_CODE":0,"TOWNNAME":"東山區","LI":"聖賢里","LIN":"9鄰","STREET":" ","SECT":" ","MAREA":"北勢寮","LANE":" ","ALLEY":" ","HOUSE_NO":"７９號之２","E_COORD97":185078.42000000001,"N_COORD97":2579446.5899999999,"ADDRESS":"北勢寮７９號之２","OBJECTID":108060},"geometry":{"x":185078.41999999993,"y":2579446.5900000017}},{"attributes":{"ID":108061,"DIS_CODE":0,"TOWNNAME":"東山區","LI":"聖賢里","LIN":"9鄰","STREET":" ","SECT":" ","MAREA":"北勢寮","LANE":" ","ALLEY":" ","HOUSE_NO":"７９號之３","E_COORD97":185084.64000000001,"N_COORD97":2579471.8900000001,"ADDRESS":"北勢寮７９號之３","OBJECTID":108061},"geometry":{"x":185084.6400000006,"y":2579471.8899999987}},{"attributes":{"ID":108062,"DIS_CODE":0,"TOWNNAME":"東山區","LI":"聖賢里","LIN":"9鄰","STREET":" ","SECT":" ","MAREA":"北勢寮","LANE":" ","ALLEY":" ","HOUSE_NO":"７９號之４","E_COORD97":185126.35000000001,"N_COORD97":2579512.2400000002,"ADDRESS":"北勢寮７９號之４","OBJECTID":108062},"geometry":{"x":185126.34999999963,"y":2579512.2400000002}},{"attributes":{"ID":108063,"DIS_CODE":0,"TOWNNAME":"東山區","LI":"聖賢里","LIN":"9鄰","STREET":" ","SECT":" ","MAREA":"北勢寮","LANE":" ","ALLEY":" ","HOUSE_NO":"７９號之５","E_COORD97":185098.41,"N_COORD97":2579508.7999999998,"ADDRESS":"北勢寮７９號之５","OBJECTID":108063},"geometry":{"x":185098.41000000108,"y":2579508.8000000007}},{"attributes":{"ID":108064,"DIS_CODE":0,"TOWNNAME":"東山區","LI":"聖賢里","LIN":"9鄰","STREET":" ","SECT":" ","MAREA":"北勢寮","LANE":" ","ALLEY":" ","HOUSE_NO":"７９號之６","E_COORD97":185148.92000000001,"N_COORD97":2579501.23,"ADDRESS":"北勢寮７９號之６","OBJECTID":108064},"geometry":{"x":185148.92000000086,"y":2579501.2300000023}},{"attributes":{"ID":108065,"DIS_CODE":0,"TOWNNAME":"東山區","LI":"聖賢里","LIN":"9鄰","STREET":" ","SECT":" ","MAREA":"北勢寮","LANE":" ","ALLEY":" ","HOUSE_NO":"７９號之７","E_COORD97":185136.35000000001,"N_COORD97":2579491.6499999999,"ADDRESS":"北勢寮７９號之７","OBJECTID":108065},"geometry":{"x":185136.34999999963,"y":2579491.6500000022}},{"attributes":{"ID":108066,"DIS_CODE":0,"TOWNNAME":"東山區","LI":"聖賢里","LIN":"9鄰","STREET":" ","SECT":" ","MAREA":"北勢寮","LANE":" ","ALLEY":" ","HOUSE_NO":"７９號之９","E_COORD97":185116.31,"N_COORD97":2579472.3399999999,"ADDRESS":"北勢寮７９號之９","OBJECTID":108066},"geometry":{"x":185116.30999999959,"y":2579472.3400000017}},{"attributes":{"ID":108067,"DIS_CODE":0,"TOWNNAME":"東山區","LI":"青山里","LIN":"9鄰","STREET":" ","SECT":" ","MAREA":"青山","LANE":" ","ALLEY":" ","HOUSE_NO":"７９號","E_COORD97":197638.13,"N_COORD97":2574647.23,"ADDRESS":"青山７９號","OBJECTID":108067},"geometry":{"x":197638.13000000082,"y":2574647.2300000004}},{"attributes":{"ID":108068,"DIS_CODE":0,"TOWNNAME":"東山區","LI":"青山里","LIN":"9鄰","STREET":" ","SECT":" ","MAREA":"青山","LANE":" ","ALLEY":" ","HOUSE_NO":"８０號之１","E_COORD97":197149.66,"N_COORD97":2574414.8500000001,"ADDRESS":"青山８０號之１","OBJECTID":108068},"geometry":{"x":197149.66000000108,"y":2574414.8499999996}},{"attributes":{"ID":108069,"DIS_CODE":0,"TOWNNAME":"下營區","LI":"紅厝里","LIN":"1鄰","STREET":" ","SECT":" ","MAREA":"紅毛厝","LANE":" ","ALLEY":" ","HOUSE_NO":"２號之１０","E_COORD97":174897.48999999999,"N_COORD97":2571532.3700000001,"ADDRESS":"紅毛厝２號之１０","OBJECTID":108069},"geometry":{"x":174897.49000000022,"y":2571532.3700000048}},{"attributes":{"ID":108070,"DIS_CODE":0,"TOWNNAME":"下營區","LI":"紅厝里","LIN":"1鄰","STREET":" ","SECT":" ","MAREA":"紅毛厝","LANE":" ","ALLEY":" ","HOUSE_NO":"２號之１","E_COORD97":174873.95000000001,"N_COORD97":2571571.9399999999,"ADDRESS":"紅毛厝２號之１","OBJECTID":108070},"geometry":{"x":174873.95000000019,"y":2571571.9400000013}},{"attributes":{"ID":108071,"DIS_CODE":0,"TOWNNAME":"下營區","LI":"紅厝里","LIN":"1鄰","STREET":" ","SECT":" ","MAREA":"紅毛厝","LANE":" ","ALLEY":" ","HOUSE_NO":"２號之３","E_COORD97":174891.57000000001,"N_COORD97":2571578.1400000001,"ADDRESS":"紅毛厝２號之３","OBJECTID":108071},"geometry":{"x":174891.5700000003,"y":2571578.1400000025}},{"attributes":{"ID":108072,"DIS_CODE":0,"TOWNNAME":"北區","LI":"東興里","LIN":"9鄰","STREET":"小東路","SECT":" ","MAREA":" ","LANE":"３０７巷","ALLEY":"５４弄","HOUSE_NO":"２３號","E_COORD97":171254.32999999999,"N_COORD97":2544504.4100000001,"ADDRESS":"小東路３０７巷５４弄２３號","OBJECTID":108072},"geometry":{"x":171254.33000000101,"y":2544504.410000002}},{"attributes":{"ID":108073,"DIS_CODE":0,"TOWNNAME":"北區","LI":"東興里","LIN":"9鄰","STREET":"小東路","SECT":" ","MAREA":" ","LANE":"３０７巷","ALLEY":"５４弄","HOUSE_NO":"２５號","E_COORD97":171255.01000000001,"N_COORD97":2544499.6400000001,"ADDRESS":"小東路３０７巷５４弄２５號","OBJECTID":108073},"geometry":{"x":171255.01000000071,"y":2544499.6400000025}},{"attributes":{"ID":108074,"DIS_CODE":0,"TOWNNAME":"北區","LI":"東興里","LIN":"9鄰","STREET":"小東路","SECT":" ","MAREA":" ","LANE":"３０７巷","ALLEY":"５４弄","HOUSE_NO":"２７號","E_COORD97":171256.17999999999,"N_COORD97":2544495.8500000001,"ADDRESS":"小東路３０７巷５４弄２７號","OBJECTID":108074},"geometry":{"x":171256.1799999997,"y":2544495.8499999996}},{"attributes":{"ID":108075,"DIS_CODE":0,"TOWNNAME":"安平區","LI":"石門里","LIN":"9鄰","STREET":"安北路","SECT":" ","MAREA":" ","LANE":"１０３巷","ALLEY":"７弄","HOUSE_NO":"１０號","E_COORD97":164468.57999999999,"N_COORD97":2544652.96,"ADDRESS":"安北路１０３巷７弄１０號","OBJECTID":108075},"geometry":{"x":164468.58000000101,"y":2544652.9600000028}},{"attributes":{"ID":108076,"DIS_CODE":0,"TOWNNAME":"下營區","LI":"紅厝里","LIN":"1鄰","STREET":" ","SECT":" ","MAREA":"紅毛厝","LANE":" ","ALLEY":" ","HOUSE_NO":"２號之５","E_COORD97":174941.62,"N_COORD97":2571529.6499999999,"ADDRESS":"紅毛厝２號之５","OBJECTID":108076},"geometry":{"x":174941.62000000104,"y":2571529.6500000041}},{"attributes":{"ID":108077,"DIS_CODE":0,"TOWNNAME":"下營區","LI":"紅厝里","LIN":"1鄰","STREET":" ","SECT":" ","MAREA":"紅毛厝","LANE":" ","ALLEY":" ","HOUSE_NO":"２號之８","E_COORD97":174877.94,"N_COORD97":2571543.6099999999,"ADDRESS":"紅毛厝２號之８","OBJECTID":108077},"geometry":{"x":174877.94000000227,"y":2571543.6100000013}},{"attributes":{"ID":108078,"DIS_CODE":0,"TOWNNAME":"下營區","LI":"紅厝里","LIN":"1鄰","STREET":" ","SECT":" ","MAREA":"紅毛厝","LANE":" ","ALLEY":" ","HOUSE_NO":"３號","E_COORD97":174846.91,"N_COORD97":2571550.75,"ADDRESS":"紅毛厝３號","OBJECTID":108078},"geometry":{"x":174846.91000000015,"y":2571550.75}},{"attributes":{"ID":108079,"DIS_CODE":0,"TOWNNAME":"下營區","LI":"紅厝里","LIN":"1鄰","STREET":" ","SECT":" ","MAREA":"紅毛厝","LANE":" ","ALLEY":" ","HOUSE_NO":"４號之１","E_COORD97":174810.04999999999,"N_COORD97":2571570.8399999999,"ADDRESS":"紅毛厝４號之１","OBJECTID":108079},"geometry":{"x":174810.04999999981,"y":2571570.8399999999}},{"attributes":{"ID":108080,"DIS_CODE":0,"TOWNNAME":"下營區","LI":"紅厝里","LIN":"1鄰","STREET":" ","SECT":" ","MAREA":"紅毛厝","LANE":" ","ALLEY":" ","HOUSE_NO":"４號","E_COORD97":174753.92000000001,"N_COORD97":2571807.73,"ADDRESS":"紅毛厝４號","OBJECTID":108080},"geometry":{"x":174753.92000000179,"y":2571807.7300000023}},{"attributes":{"ID":108081,"DIS_CODE":0,"TOWNNAME":"下營區","LI":"紅厝里","LIN":"1鄰","STREET":" ","SECT":" ","MAREA":"紅毛厝","LANE":" ","ALLEY":" ","HOUSE_NO":"５號","E_COORD97":174868.06,"N_COORD97":2571620.1200000001,"ADDRESS":"紅毛厝５號","OBJECTID":108081},"geometry":{"x":174868.06000000052,"y":2571620.1200000029}},{"attributes":{"ID":108082,"DIS_CODE":0,"TOWNNAME":"下營區","LI":"紅厝里","LIN":"1鄰","STREET":" ","SECT":" ","MAREA":"紅毛厝","LANE":" ","ALLEY":" ","HOUSE_NO":"６號之１","E_COORD97":174801.29000000001,"N_COORD97":2571625.3399999999,"ADDRESS":"紅毛厝６號之１","OBJECTID":108082},"geometry":{"x":174801.29000000097,"y":2571625.3399999999}},{"attributes":{"ID":108083,"DIS_CODE":0,"TOWNNAME":"下營區","LI":"紅厝里","LIN":"1鄰","STREET":" ","SECT":" ","MAREA":"紅毛厝","LANE":" ","ALLEY":" ","HOUSE_NO":"６號之２","E_COORD97":174798.13,"N_COORD97":2571643.5600000001,"ADDRESS":"紅毛厝６號之２","OBJECTID":108083},"geometry":{"x":174798.13000000175,"y":2571643.5600000024}},{"attributes":{"ID":108084,"DIS_CODE":0,"TOWNNAME":"下營區","LI":"紅厝里","LIN":"1鄰","STREET":" ","SECT":" ","MAREA":"紅毛厝","LANE":" ","ALLEY":" ","HOUSE_NO":"６號之６","E_COORD97":174817.54999999999,"N_COORD97":2571595.6000000001,"ADDRESS":"紅毛厝６號之６","OBJECTID":108084},"geometry":{"x":174817.55000000075,"y":2571595.5999999996}},{"attributes":{"ID":108085,"DIS_CODE":0,"TOWNNAME":"下營區","LI":"紅厝里","LIN":"1鄰","STREET":" ","SECT":" ","MAREA":"紅毛厝","LANE":" ","ALLEY":" ","HOUSE_NO":"６號","E_COORD97":174858.79999999999,"N_COORD97":2571641.4700000002,"ADDRESS":"紅毛厝６號","OBJECTID":108085},"geometry":{"x":174858.79999999981,"y":2571641.4700000025}},{"attributes":{"ID":108086,"DIS_CODE":0,"TOWNNAME":"下營區","LI":"茅港里","LIN":"1鄰","STREET":" ","SECT":" ","MAREA":"茅港尾","LANE":" ","ALLEY":" ","HOUSE_NO":"１０號","E_COORD97":176673.38,"N_COORD97":2569365.6699999999,"ADDRESS":"茅港尾１０號","OBJECTID":108086},"geometry":{"x":176673.38000000082,"y":2569365.6699999999}},{"attributes":{"ID":108087,"DIS_CODE":0,"TOWNNAME":"下營區","LI":"茅港里","LIN":"1鄰","STREET":" ","SECT":" ","MAREA":"茅港尾","LANE":" ","ALLEY":" ","HOUSE_NO":"１２號之１","E_COORD97":176685.20000000001,"N_COORD97":2569372.5,"ADDRESS":"茅港尾１２號之１","OBJECTID":108087},"geometry":{"x":176685.20000000112,"y":2569372.5}},{"attributes":{"ID":108088,"DIS_CODE":0,"TOWNNAME":"下營區","LI":"茅港里","LIN":"1鄰","STREET":" ","SECT":" ","MAREA":"茅港尾","LANE":" ","ALLEY":" ","HOUSE_NO":"１２號","E_COORD97":176689.98999999999,"N_COORD97":2569373.79,"ADDRESS":"茅港尾１２號","OBJECTID":108088},"geometry":{"x":176689.99000000115,"y":2569373.7899999991}},{"attributes":{"ID":108089,"DIS_CODE":0,"TOWNNAME":"下營區","LI":"茅港里","LIN":"1鄰","STREET":" ","SECT":" ","MAREA":"茅港尾","LANE":" ","ALLEY":" ","HOUSE_NO":"１３號之１","E_COORD97":176700.53,"N_COORD97":2569382.02,"ADDRESS":"茅港尾１３號之１","OBJECTID":108089},"geometry":{"x":176700.53000000026,"y":2569382.0199999996}},{"attributes":{"ID":108090,"DIS_CODE":0,"TOWNNAME":"東山區","LI":"青山里","LIN":"9鄰","STREET":" ","SECT":" ","MAREA":"青山","LANE":" ","ALLEY":" ","HOUSE_NO":"８１號之１","E_COORD97":197149.04999999999,"N_COORD97":2574409.71,"ADDRESS":"青山８１號之１","OBJECTID":108090},"geometry":{"x":197149.04999999981,"y":2574409.7100000028}},{"attributes":{"ID":108091,"DIS_CODE":0,"TOWNNAME":"東山區","LI":"青山里","LIN":"9鄰","STREET":" ","SECT":" ","MAREA":"青山","LANE":" ","ALLEY":" ","HOUSE_NO":"８２號","E_COORD97":196921.76000000001,"N_COORD97":2574437.6600000001,"ADDRESS":"青山８２號","OBJECTID":108091},"geometry":{"x":196921.76000000071,"y":2574437.6600000001}},{"attributes":{"ID":108092,"DIS_CODE":0,"TOWNNAME":"將軍區","LI":"仁和里","LIN":"1鄰","STREET":" ","SECT":" ","MAREA":"仁巷","LANE":" ","ALLEY":" ","HOUSE_NO":"５號","E_COORD97":164051.60999999999,"N_COORD97":2569398.9199999999,"ADDRESS":"仁巷５號","OBJECTID":108092},"geometry":{"x":164051.61000000127,"y":2569398.9200000018}},{"attributes":{"ID":108093,"DIS_CODE":0,"TOWNNAME":"將軍區","LI":"仁和里","LIN":"1鄰","STREET":" ","SECT":" ","MAREA":"仁巷","LANE":" ","ALLEY":" ","HOUSE_NO":"８號","E_COORD97":164067.69,"N_COORD97":2569427.0499999998,"ADDRESS":"仁巷８號","OBJECTID":108093},"geometry":{"x":164067.69000000227,"y":2569427.0500000026}},{"attributes":{"ID":108094,"DIS_CODE":0,"TOWNNAME":"將軍區","LI":"仁和里","LIN":"1鄰","STREET":" ","SECT":" ","MAREA":"仁巷","LANE":" ","ALLEY":" ","HOUSE_NO":"９之１號","E_COORD97":164070.28,"N_COORD97":2569460.7599999998,"ADDRESS":"仁巷９之１號","OBJECTID":108094},"geometry":{"x":164070.28000000212,"y":2569460.7600000016}},{"attributes":{"ID":108095,"DIS_CODE":0,"TOWNNAME":"安平區","LI":"石門里","LIN":"9鄰","STREET":"安北路","SECT":" ","MAREA":" ","LANE":"１０３巷","ALLEY":"７弄","HOUSE_NO":"１１號","E_COORD97":164475.53,"N_COORD97":2544648.1400000001,"ADDRESS":"安北路１０３巷７弄１１號","OBJECTID":108095},"geometry":{"x":164475.53000000212,"y":2544648.1400000025}},{"attributes":{"ID":108096,"DIS_CODE":0,"TOWNNAME":"安平區","LI":"石門里","LIN":"9鄰","STREET":"安北路","SECT":" ","MAREA":" ","LANE":"１０３巷","ALLEY":"７弄","HOUSE_NO":"１２號","E_COORD97":164481.26999999999,"N_COORD97":2544643,"ADDRESS":"安北路１０３巷７弄１２號","OBJECTID":108096},"geometry":{"x":164481.26999999955,"y":2544643}},{"attributes":{"ID":108097,"DIS_CODE":0,"TOWNNAME":"安平區","LI":"石門里","LIN":"9鄰","STREET":"安北路","SECT":" ","MAREA":" ","LANE":"１０３巷","ALLEY":"７弄","HOUSE_NO":"１３號","E_COORD97":164492.45999999999,"N_COORD97":2544635.1600000001,"ADDRESS":"安北路１０３巷７弄１３號","OBJECTID":108097},"geometry":{"x":164492.45999999903,"y":2544635.160000002}},{"attributes":{"ID":108098,"DIS_CODE":0,"TOWNNAME":"安平區","LI":"石門里","LIN":"9鄰","STREET":"安北路","SECT":" ","MAREA":" ","LANE":"１０３巷","ALLEY":"７弄","HOUSE_NO":"１４號","E_COORD97":164498.5,"N_COORD97":2544628.8199999998,"ADDRESS":"安北路１０３巷７弄１４號","OBJECTID":108098},"geometry":{"x":164498.5,"y":2544628.8200000003}},{"attributes":{"ID":108099,"DIS_CODE":0,"TOWNNAME":"安平區","LI":"石門里","LIN":"9鄰","STREET":"安北路","SECT":" ","MAREA":" ","LANE":"１０３巷","ALLEY":"７弄","HOUSE_NO":"１５號","E_COORD97":164504.23999999999,"N_COORD97":2544625.5,"ADDRESS":"安北路１０３巷７弄１５號","OBJECTID":108099},"geometry":{"x":164504.24000000022,"y":2544625.5000000019}},{"attributes":{"ID":108100,"DIS_CODE":0,"TOWNNAME":"安平區","LI":"石門里","LIN":"9鄰","STREET":"安北路","SECT":" ","MAREA":" ","LANE":"１０３巷","ALLEY":"７弄","HOUSE_NO":"１６號","E_COORD97":164515.94,"N_COORD97":2544613.0800000001,"ADDRESS":"安北路１０３巷７弄１６號","OBJECTID":108100},"geometry":{"x":164515.94000000134,"y":2544613.0800000001}},{"attributes":{"ID":108101,"DIS_CODE":0,"TOWNNAME":"安平區","LI":"石門里","LIN":"9鄰","STREET":"安北路","SECT":" ","MAREA":" ","LANE":"１０３巷","ALLEY":"７弄","HOUSE_NO":"１６號之１","E_COORD97":164527.03,"N_COORD97":2544603.29,"ADDRESS":"安北路１０３巷７弄１６號之１","OBJECTID":108101},"geometry":{"x":164527.03000000119,"y":2544603.2899999991}},{"attributes":{"ID":108102,"DIS_CODE":0,"TOWNNAME":"安平區","LI":"石門里","LIN":"9鄰","STREET":"安北路","SECT":" ","MAREA":" ","LANE":"１０３巷","ALLEY":"７弄","HOUSE_NO":"１８號","E_COORD97":164529.87,"N_COORD97":2544600.2000000002,"ADDRESS":"安北路１０３巷７弄１８號","OBJECTID":108102},"geometry":{"x":164529.87000000011,"y":2544600.1999999993}},{"attributes":{"ID":108103,"DIS_CODE":0,"TOWNNAME":"安平區","LI":"石門里","LIN":"9鄰","STREET":"安北路","SECT":" ","MAREA":" ","LANE":"１０３巷","ALLEY":"７弄","HOUSE_NO":"１８號之１","E_COORD97":164532.95999999999,"N_COORD97":2544596.5899999999,"ADDRESS":"安北路１０３巷７弄１８號之１","OBJECTID":108103},"geometry":{"x":164532.95999999996,"y":2544596.5900000036}},{"attributes":{"ID":108104,"DIS_CODE":0,"TOWNNAME":"永康區","LI":"永康里","LIN":"1鄰","STREET":"永埔街","SECT":" ","MAREA":" ","LANE":" ","ALLEY":" ","HOUSE_NO":"１９號","E_COORD97":173998.5,"N_COORD97":2547522.2999999998,"ADDRESS":"永埔街１９號","OBJECTID":108104},"geometry":{"x":173998.5,"y":2547522.3000000026}},{"attributes":{"ID":108105,"DIS_CODE":0,"TOWNNAME":"安平區","LI":"石門里","LIN":"9鄰","STREET":"安北路","SECT":" ","MAREA":" ","LANE":"１０３巷","ALLEY":"７弄","HOUSE_NO":"１９號","E_COORD97":164529.10000000001,"N_COORD97":2544578.8799999999,"ADDRESS":"安北路１０３巷７弄１９號","OBJECTID":108105},"geometry":{"x":164529.10000000056,"y":2544578.879999999}},{"attributes":{"ID":108106,"DIS_CODE":0,"TOWNNAME":"永康區","LI":"永康里","LIN":"1鄰","STREET":"中山北路","SECT":" ","MAREA":" ","LANE":" ","ALLEY":" ","HOUSE_NO":"９７號","E_COORD97":174062.64999999999,"N_COORD97":2547453.6499999999,"ADDRESS":"中山北路９７號","OBJECTID":108106},"geometry":{"x":174062.64999999944,"y":2547453.6500000004}},{"attributes":{"ID":108107,"DIS_CODE":0,"TOWNNAME":"永康區","LI":"北灣里","LIN":"1鄰","STREET":"文賢街","SECT":" ","MAREA":" ","LANE":" ","ALLEY":" ","HOUSE_NO":"１９１號","E_COORD97":175356.54999999999,"N_COORD97":2545484.5600000001,"ADDRESS":"文賢街１９１號","OBJECTID":108107},"geometry":{"x":175356.55000000075,"y":2545484.5600000005}},{"attributes":{"ID":108108,"DIS_CODE":0,"TOWNNAME":"永康區","LI":"永康里","LIN":"1鄰","STREET":"永埔街","SECT":" ","MAREA":" ","LANE":" ","ALLEY":" ","HOUSE_NO":"１５號","E_COORD97":174014.25,"N_COORD97":2547512.46,"ADDRESS":"永埔街１５號","OBJECTID":108108},"geometry":{"x":174014.25000000186,"y":2547512.4600000028}},{"attributes":{"ID":108109,"DIS_CODE":0,"TOWNNAME":"安平區","LI":"石門里","LIN":"9鄰","STREET":"安北路","SECT":" ","MAREA":" ","LANE":"１０３巷","ALLEY":"７弄","HOUSE_NO":"１號","E_COORD97":164384.60000000001,"N_COORD97":2544706.29,"ADDRESS":"安北路１０３巷７弄１號","OBJECTID":108109},"geometry":{"x":164384.60000000149,"y":2544706.2900000028}},{"attributes":{"ID":108110,"DIS_CODE":0,"TOWNNAME":"永康區","LI":"\u25A0行里","LIN":"1鄰","STREET":"中正北路","SECT":" ","MAREA":" ","LANE":" ","ALLEY":" ","HOUSE_NO":"２號","E_COORD97":171877.26000000001,"N_COORD97":2549041,"ADDRESS":"中正北路２號","OBJECTID":108110},"geometry":{"x":171877.25999999978,"y":2549041}},{"attributes":{"ID":108111,"DIS_CODE":0,"TOWNNAME":"安平區","LI":"石門里","LIN":"9鄰","STREET":"安北路","SECT":" ","MAREA":" ","LANE":"１０３巷","ALLEY":"７弄","HOUSE_NO":"２０號","E_COORD97":164537.60999999999,"N_COORD97":2544591.1699999999,"ADDRESS":"安北路１０３巷７弄２０號","OBJECTID":108111},"geometry":{"x":164537.6099999994,"y":2544591.1699999999}},{"attributes":{"ID":108112,"DIS_CODE":0,"TOWNNAME":"將軍區","LI":"忠興里","LIN":"1鄰","STREET":" ","SECT":" ","MAREA":"忠興","LANE":" ","ALLEY":" ","HOUSE_NO":"１２之８號","E_COORD97":163701.29999999999,"N_COORD97":2566693.3999999999,"ADDRESS":"忠興１２之８號","OBJECTID":108112},"geometry":{"x":163701.29999999981,"y":2566693.4000000041}},{"attributes":{"ID":108113,"DIS_CODE":0,"TOWNNAME":"將軍區","LI":"忠興里","LIN":"1鄰","STREET":" ","SECT":" ","MAREA":"忠興","LANE":" ","ALLEY":" ","HOUSE_NO":"１２之９號","E_COORD97":163705.70000000001,"N_COORD97":2566699.6000000001,"ADDRESS":"忠興１２之９號","OBJECTID":108113},"geometry":{"x":163705.70000000019,"y":2566699.6000000015}},{"attributes":{"ID":108114,"DIS_CODE":0,"TOWNNAME":"將軍區","LI":"忠興里","LIN":"1鄰","STREET":" ","SECT":" ","MAREA":"忠興","LANE":" ","ALLEY":" ","HOUSE_NO":"１２號","E_COORD97":163770.73999999999,"N_COORD97":2566597.8500000001,"ADDRESS":"忠興１２號","OBJECTID":108114},"geometry":{"x":163770.74000000115,"y":2566597.8499999978}},{"attributes":{"ID":108115,"DIS_CODE":0,"TOWNNAME":"安平區","LI":"石門里","LIN":"9鄰","STREET":"安北路","SECT":" ","MAREA":" ","LANE":"１０３巷","ALLEY":"７弄","HOUSE_NO":"２１號","E_COORD97":164534.25,"N_COORD97":2544574.5,"ADDRESS":"安北路１０３巷７弄２１號","OBJECTID":108115},"geometry":{"x":164534.25,"y":2544574.5000000019}},{"attributes":{"ID":108116,"DIS_CODE":0,"TOWNNAME":"東山區","LI":"東河里","LIN":"9鄰","STREET":" ","SECT":" ","MAREA":"吉貝耍","LANE":" ","ALLEY":" ","HOUSE_NO":"７４號","E_COORD97":186910.97,"N_COORD97":2577343.9700000002,"ADDRESS":"吉貝耍７４號","OBJECTID":108116},"geometry":{"x":186910.96999999974,"y":2577343.9700000025}},{"attributes":{"ID":108117,"DIS_CODE":0,"TOWNNAME":"安平區","LI":"石門里","LIN":"9鄰","STREET":"安北路","SECT":" ","MAREA":" ","LANE":"１０３巷","ALLEY":"７弄","HOUSE_NO":"２２號","E_COORD97":164534.51000000001,"N_COORD97":2544570.1200000001,"ADDRESS":"安北路１０３巷７弄２２號","OBJECTID":108117},"geometry":{"x":164534.51000000164,"y":2544570.1199999992}},{"attributes":{"ID":108118,"DIS_CODE":0,"TOWNNAME":"安平區","LI":"石門里","LIN":"9鄰","STREET":"安北路","SECT":" ","MAREA":" ","LANE":"１０３巷","ALLEY":"７弄","HOUSE_NO":"２號","E_COORD97":164389.95000000001,"N_COORD97":2544705.6200000001,"ADDRESS":"安北路１０３巷７弄２號","OBJECTID":108118},"geometry":{"x":164389.95000000112,"y":2544705.620000001}},{"attributes":{"ID":108119,"DIS_CODE":0,"TOWNNAME":"安平區","LI":"石門里","LIN":"9鄰","STREET":"安北路","SECT":" ","MAREA":" ","LANE":"１０３巷","ALLEY":"７弄","HOUSE_NO":"３號","E_COORD97":164392.95999999999,"N_COORD97":2544700.6099999999,"ADDRESS":"安北路１０３巷７弄３號","OBJECTID":108119},"geometry":{"x":164392.96000000089,"y":2544700.6099999994}},{"attributes":{"ID":108120,"DIS_CODE":0,"TOWNNAME":"東山區","LI":"東河里","LIN":"9鄰","STREET":" ","SECT":" ","MAREA":"吉貝耍","LANE":" ","ALLEY":" ","HOUSE_NO":"７５號之２","E_COORD97":186846.60999999999,"N_COORD97":2577420.5,"ADDRESS":"吉貝耍７５號之２","OBJECTID":108120},"geometry":{"x":186846.61000000127,"y":2577420.5000000019}},{"attributes":{"ID":108121,"DIS_CODE":0,"TOWNNAME":"東山區","LI":"東河里","LIN":"9鄰","STREET":" ","SECT":" ","MAREA":"吉貝耍","LANE":" ","ALLEY":" ","HOUSE_NO":"７５號","E_COORD97":186857.42000000001,"N_COORD97":2577337.3799999999,"ADDRESS":"吉貝耍７５號","OBJECTID":108121},"geometry":{"x":186857.42000000179,"y":2577337.379999999}},{"attributes":{"ID":108122,"DIS_CODE":0,"TOWNNAME":"安平區","LI":"石門里","LIN":"9鄰","STREET":"安北路","SECT":" ","MAREA":" ","LANE":"１０３巷","ALLEY":"７弄","HOUSE_NO":"４號","E_COORD97":164402.66,"N_COORD97":2544696.6000000001,"ADDRESS":"安北路１０３巷７弄４號","OBJECTID":108122},"geometry":{"x":164402.66000000015,"y":2544696.5999999996}},{"attributes":{"ID":108123,"DIS_CODE":0,"TOWNNAME":"安平區","LI":"石門里","LIN":"9鄰","STREET":"安北路","SECT":" ","MAREA":" ","LANE":"１０３巷","ALLEY":"７弄","HOUSE_NO":"５號","E_COORD97":164414.70999999999,"N_COORD97":2544693.5899999999,"ADDRESS":"安北路１０３巷７弄５號","OBJECTID":108123},"geometry":{"x":164414.71000000183,"y":2544693.5899999999}},{"attributes":{"ID":108124,"DIS_CODE":0,"TOWNNAME":"東山區","LI":"東河里","LIN":"9鄰","STREET":" ","SECT":" ","MAREA":"吉貝耍","LANE":" ","ALLEY":" ","HOUSE_NO":"７６號","E_COORD97":186845.95999999999,"N_COORD97":2577323.9300000002,"ADDRESS":"吉貝耍７６號","OBJECTID":108124},"geometry":{"x":186845.96000000089,"y":2577323.9299999997}},{"attributes":{"ID":108125,"DIS_CODE":0,"TOWNNAME":"安平區","LI":"石門里","LIN":"9鄰","STREET":"安北路","SECT":" ","MAREA":" ","LANE":"１０３巷","ALLEY":"７弄","HOUSE_NO":"６號","E_COORD97":164425.19,"N_COORD97":2544677.4199999999,"ADDRESS":"安北路１０３巷７弄６號","OBJECTID":108125},"geometry":{"x":164425.19000000041,"y":2544677.4199999999}},{"attributes":{"ID":108126,"DIS_CODE":0,"TOWNNAME":"安平區","LI":"石門里","LIN":"9鄰","STREET":"安北路","SECT":" ","MAREA":" ","LANE":"１０３巷","ALLEY":"７弄","HOUSE_NO":"７號","E_COORD97":164444.70000000001,"N_COORD97":2544668.0600000001,"ADDRESS":"安北路１０３巷７弄７號","OBJECTID":108126},"geometry":{"x":164444.70000000019,"y":2544668.0600000005}},{"attributes":{"ID":108127,"DIS_CODE":0,"TOWNNAME":"永康區","LI":"龍潭里","LIN":"1鄰","STREET":"龍國街","SECT":" ","MAREA":" ","LANE":" ","ALLEY":" ","HOUSE_NO":"３３５號","E_COORD97":174731.5,"N_COORD97":2548026.79,"ADDRESS":"龍國街３３５號","OBJECTID":108127},"geometry":{"x":174731.50000000093,"y":2548026.790000001}},{"attributes":{"ID":108128,"DIS_CODE":0,"TOWNNAME":"東山區","LI":"東河里","LIN":"9鄰","STREET":" ","SECT":" ","MAREA":"吉貝耍","LANE":" ","ALLEY":" ","HOUSE_NO":"７７號","E_COORD97":186866.22,"N_COORD97":2577323.0800000001,"ADDRESS":"吉貝耍７７號","OBJECTID":108128},"geometry":{"x":186866.22000000067,"y":2577323.0800000001}},{"attributes":{"ID":108129,"DIS_CODE":0,"TOWNNAME":"東山區","LI":"東河里","LIN":"9鄰","STREET":" ","SECT":" ","MAREA":"吉貝耍","LANE":" ","ALLEY":" ","HOUSE_NO":"７９之１號","E_COORD97":186841.67000000001,"N_COORD97":2577296.5800000001,"ADDRESS":"吉貝耍７９之１號","OBJECTID":108129},"geometry":{"x":186841.66999999993,"y":2577296.5800000001}},{"attributes":{"ID":108130,"DIS_CODE":0,"TOWNNAME":"東山區","LI":"東河里","LIN":"9鄰","STREET":" ","SECT":" ","MAREA":"吉貝耍","LANE":" ","ALLEY":" ","HOUSE_NO":"８０號","E_COORD97":186866.54999999999,"N_COORD97":2577299,"ADDRESS":"吉貝耍８０號","OBJECTID":108130},"geometry":{"x":186866.54999999888,"y":2577299.0000000019}},{"attributes":{"ID":108131,"DIS_CODE":0,"TOWNNAME":"東山區","LI":"東河里","LIN":"9鄰","STREET":" ","SECT":" ","MAREA":"吉貝耍","LANE":" ","ALLEY":" ","HOUSE_NO":"８１號","E_COORD97":186904.22,"N_COORD97":2577321.2799999998,"ADDRESS":"吉貝耍８１號","OBJECTID":108131},"geometry":{"x":186904.21999999974,"y":2577321.2799999993}},{"attributes":{"ID":108132,"DIS_CODE":0,"TOWNNAME":"東山區","LI":"東河里","LIN":"9鄰","STREET":" ","SECT":" ","MAREA":"吉貝耍","LANE":" ","ALLEY":" ","HOUSE_NO":"８２號之１","E_COORD97":186908.29000000001,"N_COORD97":2577302.77,"ADDRESS":"吉貝耍８２號之１","OBJECTID":108132},"geometry":{"x":186908.29000000097,"y":2577302.7700000014}},{"attributes":{"ID":108133,"DIS_CODE":0,"TOWNNAME":"東山區","LI":"東河里","LIN":"9鄰","STREET":" ","SECT":" ","MAREA":"吉貝耍","LANE":" ","ALLEY":" ","HOUSE_NO":"８２號","E_COORD97":186903.57999999999,"N_COORD97":2577288.1600000001,"ADDRESS":"吉貝耍８２號","OBJECTID":108133},"geometry":{"x":186903.58000000007,"y":2577288.1600000001}},{"attributes":{"ID":108134,"DIS_CODE":0,"TOWNNAME":"東山區","LI":"東河里","LIN":"9鄰","STREET":" ","SECT":" ","MAREA":"吉貝耍","LANE":" ","ALLEY":" ","HOUSE_NO":"８３號","E_COORD97":186923.19,"N_COORD97":2577251.4199999999,"ADDRESS":"吉貝耍８３號","OBJECTID":108134},"geometry":{"x":186923.19000000041,"y":2577251.4200000018}},{"attributes":{"ID":108135,"DIS_CODE":0,"TOWNNAME":"安平區","LI":"石門里","LIN":"9鄰","STREET":"安北路","SECT":" ","MAREA":" ","LANE":"１０３巷","ALLEY":"７弄","HOUSE_NO":"８號","E_COORD97":164450.14000000001,"N_COORD97":2544664.4300000002,"ADDRESS":"安北路１０３巷７弄８號","OBJECTID":108135},"geometry":{"x":164450.13999999966,"y":2544664.4299999997}},{"attributes":{"ID":108136,"DIS_CODE":0,"TOWNNAME":"將軍區","LI":"忠興里","LIN":"1鄰","STREET":" ","SECT":" ","MAREA":"忠興","LANE":" ","ALLEY":" ","HOUSE_NO":"１４之１０號","E_COORD97":163720.85000000001,"N_COORD97":2566652.5800000001,"ADDRESS":"忠興１４之１０號","OBJECTID":108136},"geometry":{"x":163720.84999999963,"y":2566652.5800000019}},{"attributes":{"ID":108137,"DIS_CODE":0,"TOWNNAME":"將軍區","LI":"忠興里","LIN":"1鄰","STREET":" ","SECT":" ","MAREA":"忠興","LANE":" ","ALLEY":" ","HOUSE_NO":"１４之１號","E_COORD97":163727.44,"N_COORD97":2566664.4399999999,"ADDRESS":"忠興１４之１號","OBJECTID":108137},"geometry":{"x":163727.44000000134,"y":2566664.4399999995}},{"attributes":{"ID":108138,"DIS_CODE":0,"TOWNNAME":"安平區","LI":"石門里","LIN":"9鄰","STREET":"安北路","SECT":" ","MAREA":" ","LANE":"１０３巷","ALLEY":"７弄","HOUSE_NO":"９號","E_COORD97":164461.01999999999,"N_COORD97":2544657.79,"ADDRESS":"安北路１０３巷７弄９號","OBJECTID":108138},"geometry":{"x":164461.01999999955,"y":2544657.7899999991}},{"attributes":{"ID":108139,"DIS_CODE":0,"TOWNNAME":"歸仁區","LI":"南保里","LIN":"9鄰","STREET":"文化十街","SECT":" ","MAREA":" ","LANE":"２８巷","ALLEY":"９５弄","HOUSE_NO":"５號","E_COORD97":176786.48999999999,"N_COORD97":2541361.3300000001,"ADDRESS":"文化十街２８巷９５弄５號","OBJECTID":108139},"geometry":{"x":176786.49000000115,"y":2541361.3300000019}},{"attributes":{"ID":108140,"DIS_CODE":0,"TOWNNAME":"歸仁區","LI":"南保里","LIN":"9鄰","STREET":"文化十街","SECT":" ","MAREA":" ","LANE":"２８巷","ALLEY":"９５弄","HOUSE_NO":"１８號","E_COORD97":176790.44,"N_COORD97":2541279.3300000001,"ADDRESS":"文化十街２８巷９５弄１８號","OBJECTID":108140},"geometry":{"x":176790.44000000134,"y":2541279.3300000038}},{"attributes":{"ID":108141,"DIS_CODE":0,"TOWNNAME":"將軍區","LI":"忠興里","LIN":"1鄰","STREET":" ","SECT":" ","MAREA":"忠興","LANE":" ","ALLEY":" ","HOUSE_NO":"１４之７號","E_COORD97":163732.17000000001,"N_COORD97":2566643.0600000001,"ADDRESS":"忠興１４之７號","OBJECTID":108141},"geometry":{"x":163732.17000000086,"y":2566643.0600000024}},{"attributes":{"ID":108142,"DIS_CODE":0,"TOWNNAME":"將軍區","LI":"忠興里","LIN":"1鄰","STREET":" ","SECT":" ","MAREA":"忠興","LANE":" ","ALLEY":" ","HOUSE_NO":"１４之８號","E_COORD97":163728.89000000001,"N_COORD97":2566647.3399999999,"ADDRESS":"忠興１４之８號","OBJECTID":108142},"geometry":{"x":163728.8900000006,"y":2566647.3400000017}},{"attributes":{"ID":108143,"DIS_CODE":0,"TOWNNAME":"將軍區","LI":"忠興里","LIN":"1鄰","STREET":" ","SECT":" ","MAREA":"忠興","LANE":" ","ALLEY":" ","HOUSE_NO":"２７號","E_COORD97":163785.69,"N_COORD97":2566636.2000000002,"ADDRESS":"忠興２７號","OBJECTID":108143},"geometry":{"x":163785.69000000041,"y":2566636.200000003}},{"attributes":{"ID":108144,"DIS_CODE":0,"TOWNNAME":"將軍區","LI":"忠興里","LIN":"1鄰","STREET":" ","SECT":" ","MAREA":"忠興","LANE":" ","ALLEY":" ","HOUSE_NO":"２之２號","E_COORD97":163834.12,"N_COORD97":2566547.2400000002,"ADDRESS":"忠興２之２號","OBJECTID":108144},"geometry":{"x":163834.12000000104,"y":2566547.2400000002}},{"attributes":{"ID":108145,"DIS_CODE":0,"TOWNNAME":"將軍區","LI":"忠興里","LIN":"1鄰","STREET":" ","SECT":" ","MAREA":"忠興","LANE":" ","ALLEY":" ","HOUSE_NO":"２之３號","E_COORD97":163834.20000000001,"N_COORD97":2566550.5499999998,"ADDRESS":"忠興２之３號","OBJECTID":108145},"geometry":{"x":163834.20000000112,"y":2566550.5500000045}},{"attributes":{"ID":108146,"DIS_CODE":0,"TOWNNAME":"將軍區","LI":"忠興里","LIN":"1鄰","STREET":" ","SECT":" ","MAREA":"忠興","LANE":" ","ALLEY":" ","HOUSE_NO":"２號","E_COORD97":163835.04000000001,"N_COORD97":2566554.46,"ADDRESS":"忠興２號","OBJECTID":108146},"geometry":{"x":163835.04000000097,"y":2566554.4600000046}},{"attributes":{"ID":108147,"DIS_CODE":0,"TOWNNAME":"將軍區","LI":"忠興里","LIN":"1鄰","STREET":" ","SECT":" ","MAREA":"忠興","LANE":" ","ALLEY":" ","HOUSE_NO":"３之１號","E_COORD97":163835.20000000001,"N_COORD97":2566562.1600000001,"ADDRESS":"忠興３之１號","OBJECTID":108147},"geometry":{"x":163835.20000000205,"y":2566562.1600000001}},{"attributes":{"ID":108148,"DIS_CODE":0,"TOWNNAME":"將軍區","LI":"忠興里","LIN":"1鄰","STREET":" ","SECT":" ","MAREA":"忠興","LANE":" ","ALLEY":" ","HOUSE_NO":"３號","E_COORD97":163834.97,"N_COORD97":2566558.0299999998,"ADDRESS":"忠興３號","OBJECTID":108148},"geometry":{"x":163834.97000000067,"y":2566558.0299999993}},{"attributes":{"ID":108149,"DIS_CODE":0,"TOWNNAME":"將軍區","LI":"忠興里","LIN":"1鄰","STREET":" ","SECT":" ","MAREA":"忠興","LANE":" ","ALLEY":" ","HOUSE_NO":"５之１５號","E_COORD97":163812.89999999999,"N_COORD97":2566544.4100000001,"ADDRESS":"忠興５之１５號","OBJECTID":108149},"geometry":{"x":163812.90000000037,"y":2566544.410000002}},{"attributes":{"ID":108150,"DIS_CODE":0,"TOWNNAME":"將軍區","LI":"忠興里","LIN":"1鄰","STREET":" ","SECT":" ","MAREA":"忠興","LANE":" ","ALLEY":" ","HOUSE_NO":"５之１號","E_COORD97":163832.98000000001,"N_COORD97":2566581.4700000002,"ADDRESS":"忠興５之１號","OBJECTID":108150},"geometry":{"x":163832.98000000045,"y":2566581.4700000044}},{"attributes":{"ID":108151,"DIS_CODE":0,"TOWNNAME":"將軍區","LI":"長沙里","LIN":"1鄰","STREET":" ","SECT":" ","MAREA":"長沙","LANE":" ","ALLEY":" ","HOUSE_NO":"８號","E_COORD97":157377.26000000001,"N_COORD97":2568658.1699999999,"ADDRESS":"長沙８號","OBJECTID":108151},"geometry":{"x":157377.25999999885,"y":2568658.1700000018}},{"attributes":{"ID":108152,"DIS_CODE":0,"TOWNNAME":"東山區","LI":"東河里","LIN":"9鄰","STREET":" ","SECT":" ","MAREA":"吉貝耍","LANE":" ","ALLEY":" ","HOUSE_NO":"８４號","E_COORD97":186887.70999999999,"N_COORD97":2577275.25,"ADDRESS":"吉貝耍８４號","OBJECTID":108152},"geometry":{"x":186887.71000000183,"y":2577275.2500000037}},{"attributes":{"ID":108153,"DIS_CODE":0,"TOWNNAME":"東山區","LI":"東河里","LIN":"9鄰","STREET":" ","SECT":" ","MAREA":"吉貝耍","LANE":" ","ALLEY":" ","HOUSE_NO":"８５號","E_COORD97":186867.94,"N_COORD97":2577276.2799999998,"ADDRESS":"吉貝耍８５號","OBJECTID":108153},"geometry":{"x":186867.94000000227,"y":2577276.2799999993}},{"attributes":{"ID":108154,"DIS_CODE":0,"TOWNNAME":"東山區","LI":"青山里","LIN":"9鄰","STREET":" ","SECT":" ","MAREA":"青山","LANE":" ","ALLEY":" ","HOUSE_NO":"７５號之２","E_COORD97":198111.14000000001,"N_COORD97":2574847.9399999999,"ADDRESS":"青山７５號之２","OBJECTID":108154},"geometry":{"x":198111.13999999966,"y":2574847.9399999995}},{"attributes":{"ID":108155,"DIS_CODE":0,"TOWNNAME":"東山區","LI":"青山里","LIN":"9鄰","STREET":" ","SECT":" ","MAREA":"青山","LANE":" ","ALLEY":" ","HOUSE_NO":"７５號","E_COORD97":196613.45000000001,"N_COORD97":2574421.0899999999,"ADDRESS":"青山７５號","OBJECTID":108155},"geometry":{"x":196613.45000000205,"y":2574421.0899999999}},{"attributes":{"ID":108156,"DIS_CODE":0,"TOWNNAME":"東山區","LI":"青山里","LIN":"9鄰","STREET":" ","SECT":" ","MAREA":"青山","LANE":" ","ALLEY":" ","HOUSE_NO":"７６號之１","E_COORD97":197922.41,"N_COORD97":2574788.1299999999,"ADDRESS":"青山７６號之１","OBJECTID":108156},"geometry":{"x":197922.41000000108,"y":2574788.1300000008}},{"attributes":{"ID":108157,"DIS_CODE":0,"TOWNNAME":"東山區","LI":"青山里","LIN":"9鄰","STREET":" ","SECT":" ","MAREA":"青山","LANE":" ","ALLEY":" ","HOUSE_NO":"７６號之２","E_COORD97":197934.98000000001,"N_COORD97":2574823.0899999999,"ADDRESS":"青山７６號之２","OBJECTID":108157},"geometry":{"x":197934.98000000045,"y":2574823.0900000017}},{"attributes":{"ID":108158,"DIS_CODE":0,"TOWNNAME":"東山區","LI":"青山里","LIN":"9鄰","STREET":" ","SECT":" ","MAREA":"青山","LANE":" ","ALLEY":" ","HOUSE_NO":"７７號之１","E_COORD97":197890.79999999999,"N_COORD97":2574777.8100000001,"ADDRESS":"青山７７號之１","OBJECTID":108158},"geometry":{"x":197890.80000000075,"y":2574777.8100000024}},{"attributes":{"ID":108159,"DIS_CODE":0,"TOWNNAME":"東山區","LI":"青山里","LIN":"9鄰","STREET":" ","SECT":" ","MAREA":"青山","LANE":" ","ALLEY":" ","HOUSE_NO":"７７號","E_COORD97":197886,"N_COORD97":2574802.1600000001,"ADDRESS":"青山７７號","OBJECTID":108159},"geometry":{"x":197886.00000000186,"y":2574802.160000002}},{"attributes":{"ID":108160,"DIS_CODE":0,"TOWNNAME":"東山區","LI":"青山里","LIN":"9鄰","STREET":" ","SECT":" ","MAREA":"青山","LANE":" ","ALLEY":" ","HOUSE_NO":"７８號之１","E_COORD97":197667.48000000001,"N_COORD97":2574652.4399999999,"ADDRESS":"青山７８號之１","OBJECTID":108160},"geometry":{"x":197667.48000000045,"y":2574652.4399999995}},{"attributes":{"ID":108161,"DIS_CODE":0,"TOWNNAME":"東山區","LI":"青山里","LIN":"9鄰","STREET":" ","SECT":" ","MAREA":"青山","LANE":" ","ALLEY":" ","HOUSE_NO":"７８號","E_COORD97":197734.92000000001,"N_COORD97":2574682.79,"ADDRESS":"青山７８號","OBJECTID":108161},"geometry":{"x":197734.91999999993,"y":2574682.7899999991}},{"attributes":{"ID":108162,"DIS_CODE":0,"TOWNNAME":"東山區","LI":"東原里","LIN":"9鄰","STREET":" ","SECT":" ","MAREA":"前大埔","LANE":" ","ALLEY":" ","HOUSE_NO":"１０６號之１","E_COORD97":193735.32000000001,"N_COORD97":2573808.4700000002,"ADDRESS":"前大埔１０６號之１","OBJECTID":108162},"geometry":{"x":193735.3200000003,"y":2573808.4700000007}},{"attributes":{"ID":108163,"DIS_CODE":0,"TOWNNAME":"東山區","LI":"東原里","LIN":"9鄰","STREET":" ","SECT":" ","MAREA":"前大埔","LANE":" ","ALLEY":" ","HOUSE_NO":"１０６號之２","E_COORD97":193833.73000000001,"N_COORD97":2573887.1699999999,"ADDRESS":"前大埔１０６號之２","OBJECTID":108163},"geometry":{"x":193833.73000000138,"y":2573887.1699999999}},{"attributes":{"ID":108164,"DIS_CODE":0,"TOWNNAME":"東山區","LI":"東原里","LIN":"9鄰","STREET":" ","SECT":" ","MAREA":"前大埔","LANE":" ","ALLEY":" ","HOUSE_NO":"１０６號之３","E_COORD97":193774.12,"N_COORD97":2573882.3599999999,"ADDRESS":"前大埔１０６號之３","OBJECTID":108164},"geometry":{"x":193774.12000000011,"y":2573882.3599999994}},{"attributes":{"ID":108165,"DIS_CODE":0,"TOWNNAME":"東山區","LI":"東原里","LIN":"9鄰","STREET":" ","SECT":" ","MAREA":"前大埔","LANE":" ","ALLEY":" ","HOUSE_NO":"１０９號之１","E_COORD97":193615.38,"N_COORD97":2573926.1299999999,"ADDRESS":"前大埔１０９號之１","OBJECTID":108165},"geometry":{"x":193615.38000000082,"y":2573926.1300000008}},{"attributes":{"ID":108166,"DIS_CODE":0,"TOWNNAME":"東山區","LI":"東原里","LIN":"9鄰","STREET":" ","SECT":" ","MAREA":"前大埔","LANE":" ","ALLEY":" ","HOUSE_NO":"１０９號之２","E_COORD97":193549.31,"N_COORD97":2573932.4399999999,"ADDRESS":"前大埔１０９號之２","OBJECTID":108166},"geometry":{"x":193549.31000000052,"y":2573932.4399999995}},{"attributes":{"ID":108167,"DIS_CODE":0,"TOWNNAME":"東山區","LI":"東原里","LIN":"9鄰","STREET":" ","SECT":" ","MAREA":"前大埔","LANE":" ","ALLEY":" ","HOUSE_NO":"１０９號之３","E_COORD97":193529.79000000001,"N_COORD97":2573847.1499999999,"ADDRESS":"前大埔１０９號之３","OBJECTID":108167},"geometry":{"x":193529.79000000097,"y":2573847.1500000004}},{"attributes":{"ID":108168,"DIS_CODE":0,"TOWNNAME":"歸仁區","LI":"南保里","LIN":"9鄰","STREET":"文化十街","SECT":" ","MAREA":" ","LANE":"２８巷","ALLEY":"９５弄","HOUSE_NO":"６號","E_COORD97":176788.29000000001,"N_COORD97":2541313.3300000001,"ADDRESS":"文化十街２８巷９５弄６號","OBJECTID":108168},"geometry":{"x":176788.29000000004,"y":2541313.3300000038}},{"attributes":{"ID":108169,"DIS_CODE":0,"TOWNNAME":"歸仁區","LI":"南保里","LIN":"9鄰","STREET":"文化十街","SECT":" ","MAREA":" ","LANE":"２８巷","ALLEY":"９５弄","HOUSE_NO":"２號","E_COORD97":176788.29000000001,"N_COORD97":2541319.3300000001,"ADDRESS":"文化十街２８巷９５弄２號","OBJECTID":108169},"geometry":{"x":176788.29000000004,"y":2541319.3300000001}},{"attributes":{"ID":108170,"DIS_CODE":0,"TOWNNAME":"永康區","LI":"\u25A0行里","LIN":"40鄰","STREET":"永安路","SECT":" ","MAREA":" ","LANE":"１０５巷","ALLEY":"４０弄","HOUSE_NO":"３２號","E_COORD97":172696.92999999999,"N_COORD97":2549326.5699999998,"ADDRESS":"永安路１０５巷４０弄３２號","OBJECTID":108170},"geometry":{"x":172696.9299999997,"y":2549326.570000004}},{"attributes":{"ID":108171,"DIS_CODE":0,"TOWNNAME":"永康區","LI":"大橋里","LIN":"12鄰","STREET":"大橋二街","SECT":" ","MAREA":" ","LANE":"２３９巷","ALLEY":"２１弄","HOUSE_NO":"１５號","E_COORD97":171054.29000000001,"N_COORD97":2546816.3799999999,"ADDRESS":"大橋二街２３９巷２１弄１５號","OBJECTID":108171},"geometry":{"x":171054.2900000019,"y":2546816.379999999}},{"attributes":{"ID":108172,"DIS_CODE":0,"TOWNNAME":"歸仁區","LI":"媽廟里","LIN":"9鄰","STREET":"和順路","SECT":"一段","MAREA":" ","LANE":"２８８巷","ALLEY":"３８弄","HOUSE_NO":"３６號","E_COORD97":176888.82000000001,"N_COORD97":2543832.25,"ADDRESS":"和順路一段２８８巷３８弄３６號","OBJECTID":108172},"geometry":{"x":176888.8200000003,"y":2543832.25}},{"attributes":{"ID":108173,"DIS_CODE":0,"TOWNNAME":"永康區","LI":"\u25A0行里","LIN":"40鄰","STREET":"永安路","SECT":" ","MAREA":" ","LANE":"１０５巷","ALLEY":"４０弄","HOUSE_NO":"５６號","E_COORD97":172640.85000000001,"N_COORD97":2549346.5699999998,"ADDRESS":"永安路１０５巷４０弄５６號","OBJECTID":108173},"geometry":{"x":172640.85000000056,"y":2549346.5700000003}},{"attributes":{"ID":108174,"DIS_CODE":0,"TOWNNAME":"永康區","LI":"\u25A0行里","LIN":"23鄰","STREET":"中正南路","SECT":" ","MAREA":" ","LANE":"５９２巷","ALLEY":"３８弄","HOUSE_NO":"１５號","E_COORD97":171634.88,"N_COORD97":2548596.2400000002,"ADDRESS":"中正南路５９２巷３８弄１５號","OBJECTID":108174},"geometry":{"x":171634.88000000175,"y":2548596.2399999984}},{"attributes":{"ID":108175,"DIS_CODE":0,"TOWNNAME":"歸仁區","LI":"媽廟里","LIN":"9鄰","STREET":"和順路","SECT":"一段","MAREA":" ","LANE":"２８８巷","ALLEY":"３９弄","HOUSE_NO":"７號","E_COORD97":176739.87,"N_COORD97":2543816.25,"ADDRESS":"和順路一段２８８巷３９弄７號","OBJECTID":108175},"geometry":{"x":176739.87000000104,"y":2543816.2500000019}},{"attributes":{"ID":108176,"DIS_CODE":0,"TOWNNAME":"歸仁區","LI":"看西里","LIN":"18鄰","STREET":"成功五街","SECT":" ","MAREA":" ","LANE":"８５巷","ALLEY":" ","HOUSE_NO":"６號","E_COORD97":178395.35999999999,"N_COORD97":2539936.3599999999,"ADDRESS":"成功五街８５巷６號","OBJECTID":108176},"geometry":{"x":178395.36000000034,"y":2539936.3600000013}},{"attributes":{"ID":108177,"DIS_CODE":0,"TOWNNAME":"安平區","LI":"石門里","LIN":"8鄰","STREET":"安北路","SECT":" ","MAREA":" ","LANE":" ","ALLEY":" ","HOUSE_NO":"５８號","E_COORD97":164553.35999999999,"N_COORD97":2544631.5699999998,"ADDRESS":"安北路５８號","OBJECTID":108177},"geometry":{"x":164553.36000000127,"y":2544631.5700000022}},{"attributes":{"ID":108178,"DIS_CODE":0,"TOWNNAME":"安平區","LI":"石門里","LIN":"8鄰","STREET":"安北路","SECT":" ","MAREA":" ","LANE":" ","ALLEY":" ","HOUSE_NO":"６４號","E_COORD97":164544.70999999999,"N_COORD97":2544645.2200000002,"ADDRESS":"安北路６４號","OBJECTID":108178},"geometry":{"x":164544.70999999996,"y":2544645.2200000025}},{"attributes":{"ID":108179,"DIS_CODE":0,"TOWNNAME":"安平區","LI":"石門里","LIN":"8鄰","STREET":"安北路","SECT":" ","MAREA":" ","LANE":" ","ALLEY":" ","HOUSE_NO":"６８號","E_COORD97":164538,"N_COORD97":2544651.1499999999,"ADDRESS":"安北路６８號","OBJECTID":108179},"geometry":{"x":164537.99999999907,"y":2544651.1500000022}},{"attributes":{"ID":108180,"DIS_CODE":0,"TOWNNAME":"安平區","LI":"石門里","LIN":"8鄰","STREET":"安北路","SECT":" ","MAREA":" ","LANE":" ","ALLEY":" ","HOUSE_NO":"７０號","E_COORD97":164532.84,"N_COORD97":2544654.75,"ADDRESS":"安北路７０號","OBJECTID":108180},"geometry":{"x":164532.84000000078,"y":2544654.7500000019}},{"attributes":{"ID":108181,"DIS_CODE":0,"TOWNNAME":"安平區","LI":"石門里","LIN":"8鄰","STREET":"安北路","SECT":" ","MAREA":" ","LANE":" ","ALLEY":" ","HOUSE_NO":"７０號之１","E_COORD97":164528.97,"N_COORD97":2544658.3599999999,"ADDRESS":"安北路７０號之１","OBJECTID":108181},"geometry":{"x":164528.96999999974,"y":2544658.3599999975}},{"attributes":{"ID":108182,"DIS_CODE":0,"TOWNNAME":"安平區","LI":"石門里","LIN":"8鄰","STREET":"安北路","SECT":" ","MAREA":" ","LANE":" ","ALLEY":" ","HOUSE_NO":"７２號之１","E_COORD97":164549.48999999999,"N_COORD97":2544635.9500000002,"ADDRESS":"安北路７２號之１","OBJECTID":108182},"geometry":{"x":164549.49000000022,"y":2544635.9499999993}},{"attributes":{"ID":108183,"DIS_CODE":0,"TOWNNAME":"新營區","LI":"新南里","LIN":"8鄰","STREET":"新北五街","SECT":" ","MAREA":" ","LANE":" ","ALLEY":" ","HOUSE_NO":"１２８號","E_COORD97":178594.26999999999,"N_COORD97":2579127.6200000001,"ADDRESS":"新北五街１２８號","OBJECTID":108183},"geometry":{"x":178594.27000000048,"y":2579127.620000001}},{"attributes":{"ID":108184,"DIS_CODE":0,"TOWNNAME":"歸仁區","LI":"許厝里","LIN":"30鄰","STREET":"大智街","SECT":" ","MAREA":" ","LANE":" ","ALLEY":" ","HOUSE_NO":"２２號","E_COORD97":177914.57000000001,"N_COORD97":2540647.5299999998,"ADDRESS":"大智街２２號","OBJECTID":108184},"geometry":{"x":177914.5700000003,"y":2540647.5300000012}},{"attributes":{"ID":108185,"DIS_CODE":0,"TOWNNAME":"歸仁區","LI":"崙頂里","LIN":"20鄰","STREET":"大成一街","SECT":" ","MAREA":" ","LANE":" ","ALLEY":" ","HOUSE_NO":"２號","E_COORD97":177796.89999999999,"N_COORD97":2540183.2999999998,"ADDRESS":"大成一街２號","OBJECTID":108185},"geometry":{"x":177796.90000000037,"y":2540183.3000000026}},{"attributes":{"ID":108186,"DIS_CODE":0,"TOWNNAME":"歸仁區","LI":"許厝里","LIN":"1鄰","STREET":"中山路","SECT":"一段","MAREA":" ","LANE":" ","ALLEY":" ","HOUSE_NO":"３７９號","E_COORD97":178313.73999999999,"N_COORD97":2540675.0099999998,"ADDRESS":"中山路一段３７９號","OBJECTID":108186},"geometry":{"x":178313.74000000115,"y":2540675.0100000016}},{"attributes":{"ID":108187,"DIS_CODE":0,"TOWNNAME":"東區","LI":"崇學里","LIN":"1鄰","STREET":"崇學路","SECT":" ","MAREA":" ","LANE":" ","ALLEY":" ","HOUSE_NO":"９８號","E_COORD97":170370.23000000001,"N_COORD97":2542230.8500000001,"ADDRESS":"崇學路９８號","OBJECTID":108187},"geometry":{"x":170370.23000000231,"y":2542230.8499999996}},{"attributes":{"ID":108188,"DIS_CODE":0,"TOWNNAME":"歸仁區","LI":"辜厝里","LIN":"28鄰","STREET":"大吉二街","SECT":" ","MAREA":" ","LANE":" ","ALLEY":" ","HOUSE_NO":"１３號","E_COORD97":177254.14000000001,"N_COORD97":2540550.6800000002,"ADDRESS":"大吉二街１３號","OBJECTID":108188},"geometry":{"x":177254.14000000153,"y":2540550.6799999997}},{"attributes":{"ID":108189,"DIS_CODE":0,"TOWNNAME":"歸仁區","LI":"崙頂里","LIN":"20鄰","STREET":"大成路","SECT":" ","MAREA":" ","LANE":" ","ALLEY":" ","HOUSE_NO":"１７７號","E_COORD97":177780.75,"N_COORD97":2540173.2999999998,"ADDRESS":"大成路１７７號","OBJECTID":108189},"geometry":{"x":177780.75,"y":2540173.3000000007}},{"attributes":{"ID":108190,"DIS_CODE":0,"TOWNNAME":"南區","LI":"白雪里","LIN":" ","STREET":"鹽埕路","SECT":" ","MAREA":" ","LANE":" ","ALLEY":" ","HOUSE_NO":"９２號","E_COORD97":166799.76999999999,"N_COORD97":2540930.02,"ADDRESS":"鹽埕路９２號","OBJECTID":108190},"geometry":{"x":166799.76999999955,"y":2540930.0199999996}},{"attributes":{"ID":108191,"DIS_CODE":0,"TOWNNAME":"歸仁區","LI":"看東里","LIN":"9鄰","STREET":"成功路","SECT":"一段","MAREA":" ","LANE":"１０１巷","ALLEY":"１８弄","HOUSE_NO":"９號","E_COORD97":178666.34,"N_COORD97":2540202.25,"ADDRESS":"成功路一段１０１巷１８弄９號","OBJECTID":108191},"geometry":{"x":178666.33999999985,"y":2540202.2500000019}},{"attributes":{"ID":108192,"DIS_CODE":0,"TOWNNAME":"歸仁區","LI":"看東里","LIN":"9鄰","STREET":"成功路","SECT":"一段","MAREA":" ","LANE":"１０１巷","ALLEY":"１８弄","HOUSE_NO":"５號","E_COORD97":178673.54000000001,"N_COORD97":2540200.25,"ADDRESS":"成功路一段１０１巷１８弄５號","OBJECTID":108192},"geometry":{"x":178673.54000000004,"y":2540200.25}},{"attributes":{"ID":108193,"DIS_CODE":0,"TOWNNAME":"歸仁區","LI":"南保里","LIN":"9鄰","STREET":"文化十街","SECT":" ","MAREA":" ","LANE":"２８巷","ALLEY":"９５弄","HOUSE_NO":"１號","E_COORD97":176785.39000000001,"N_COORD97":2541352.3300000001,"ADDRESS":"文化十街２８巷９５弄１號","OBJECTID":108193},"geometry":{"x":176785.3900000006,"y":2541352.3300000001}},{"attributes":{"ID":108194,"DIS_CODE":0,"TOWNNAME":"歸仁區","LI":"南保里","LIN":"9鄰","STREET":"文化十街","SECT":" ","MAREA":" ","LANE":"２８巷","ALLEY":"９５弄","HOUSE_NO":"１２號","E_COORD97":176789.44,"N_COORD97":2541295.3300000001,"ADDRESS":"文化十街２８巷９５弄１２號","OBJECTID":108194},"geometry":{"x":176789.44000000041,"y":2541295.3300000001}},{"attributes":{"ID":108195,"DIS_CODE":0,"TOWNNAME":"歸仁區","LI":"南保里","LIN":"9鄰","STREET":"文化十街","SECT":" ","MAREA":" ","LANE":"２８巷","ALLEY":"９５弄","HOUSE_NO":"１０號","E_COORD97":176789.44,"N_COORD97":2541301.3300000001,"ADDRESS":"文化十街２８巷９５弄１０號","OBJECTID":108195},"geometry":{"x":176789.44000000041,"y":2541301.3300000001}},{"attributes":{"ID":108196,"DIS_CODE":0,"TOWNNAME":"歸仁區","LI":"武東里","LIN":"9鄰","STREET":"武東三街","SECT":" ","MAREA":" ","LANE":"５３巷","ALLEY":"５６弄","HOUSE_NO":"８號","E_COORD97":175097.29000000001,"N_COORD97":2535099.25,"ADDRESS":"武東三街５３巷５６弄８號","OBJECTID":108196},"geometry":{"x":175097.2900000019,"y":2535099.2500000037}},{"attributes":{"ID":108197,"DIS_CODE":0,"TOWNNAME":"永康區","LI":"\u25A0行里","LIN":"41鄰","STREET":"永安路","SECT":" ","MAREA":" ","LANE":"１６５巷","ALLEY":"３０弄","HOUSE_NO":"４１號","E_COORD97":172391.35999999999,"N_COORD97":2549457,"ADDRESS":"永安路１６５巷３０弄４１號","OBJECTID":108197},"geometry":{"x":172391.36000000034,"y":2549457.0000000019}},{"attributes":{"ID":108198,"DIS_CODE":0,"TOWNNAME":"歸仁區","LI":"看東里","LIN":"9鄰","STREET":"成功路","SECT":"一段","MAREA":" ","LANE":"１０１巷","ALLEY":"１８弄","HOUSE_NO":"１１號","E_COORD97":178661.48999999999,"N_COORD97":2540201.25,"ADDRESS":"成功路一段１０１巷１８弄１１號","OBJECTID":108198},"geometry":{"x":178661.49000000115,"y":2540201.25}},{"attributes":{"ID":108199,"DIS_CODE":0,"TOWNNAME":"新營區","LI":"南紙里","LIN":"9鄰","STREET":"南紙街","SECT":" ","MAREA":" ","LANE":"８５巷","ALLEY":"１３弄","HOUSE_NO":"３號","E_COORD97":177898.12,"N_COORD97":2577602.7000000002,"ADDRESS":"南紙街８５巷１３弄３號","OBJECTID":108199},"geometry":{"x":177898.12000000011,"y":2577602.6999999993}},{"attributes":{"ID":108200,"DIS_CODE":0,"TOWNNAME":"新營區","LI":"南紙里","LIN":"9鄰","STREET":"南紙街","SECT":" ","MAREA":" ","LANE":"８５巷","ALLEY":"１３弄","HOUSE_NO":"４號","E_COORD97":177915.51000000001,"N_COORD97":2577604.8300000001,"ADDRESS":"南紙街８５巷１３弄４號","OBJECTID":108200},"geometry":{"x":177915.50999999978,"y":2577604.8300000019}}]}