{"displayFieldName":"TOWNNAME","fieldAliases":{"ID":"ID","DIS_CODE":"DIS_CODE","TOWNNAME":"TOWNNAME","LI":"LI","LIN":"LIN","STREET":"STREET","SECT":"SECT","MAREA":"MAREA","LANE":"LANE","ALLEY":"ALLEY","HOUSE_NO":"HOUSE_NO","E_COORD97":"E_COORD97","N_COORD97":"N_COORD97","ADDRESS":"ADDRESS","OBJECTID":"OBJECTID"},"geometryType":"esriGeometryPoint","spatialReference":{"wkid":102443,"latestWkid":3826},"fields":[{"name":"ID","type":"esriFieldTypeDouble","alias":"ID"},{"name":"DIS_CODE","type":"esriFieldTypeInteger","alias":"DIS_CODE"},{"name":"TOWNNAME","type":"esriFieldTypeString","alias":"TOWNNAME","length":8},{"name":"LI","type":"esriFieldTypeString","alias":"LI","length":8},{"name":"LIN","type":"esriFieldTypeString","alias":"LIN","length":12},{"name":"STREET","type":"esriFieldTypeString","alias":"STREET","length":20},{"name":"SECT","type":"esriFieldTypeString","alias":"SECT","length":8},{"name":"MAREA","type":"esriFieldTypeString","alias":"MAREA","length":12},{"name":"LANE","type":"esriFieldTypeString","alias":"LANE","length":10},{"name":"ALLEY","type":"esriFieldTypeString","alias":"ALLEY","length":10},{"name":"HOUSE_NO","type":"esriFieldTypeString","alias":"HOUSE_NO","length":20},{"name":"E_COORD97","type":"esriFieldTypeDouble","alias":"E_COORD97"},{"name":"N_COORD97","type":"esriFieldTypeDouble","alias":"N_COORD97"},{"name":"ADDRESS","type":"esriFieldTypeString","alias":"ADDRESS","length":50},{"name":"OBJECTID","type":"esriFieldTypeOID","alias":"OBJECTID"}],"features":[{"attributes":{"ID":553428,"DIS_CODE":0,"TOWNNAME":"安南區","LI":"梅花里","LIN":"21鄰","STREET":"同安路","SECT":" ","MAREA":" ","LANE":" ","ALLEY":" ","HOUSE_NO":"３０８號","E_COORD97":167239.51000000001,"N_COORD97":2549220.6800000002,"ADDRESS":"同安路３０８號","OBJECTID":553401},"geometry":{"x":167239.50999999978,"y":2549220.6800000016}},{"attributes":{"ID":553429,"DIS_CODE":0,"TOWNNAME":"中西區","LI":"福安里","LIN":"21鄰","STREET":"西門路","SECT":"二段","MAREA":" ","LANE":" ","ALLEY":" ","HOUSE_NO":"７６號","E_COORD97":167834.31,"N_COORD97":2543639.8900000001,"ADDRESS":"西門路二段７６號","OBJECTID":553402},"geometry":{"x":167834.30999999866,"y":2543639.8900000025}},{"attributes":{"ID":553430,"DIS_CODE":0,"TOWNNAME":"中西區","LI":"福安里","LIN":"21鄰","STREET":"友愛街","SECT":" ","MAREA":" ","LANE":" ","ALLEY":" ","HOUSE_NO":"１３０號","E_COORD97":167837.64000000001,"N_COORD97":2543593.6099999999,"ADDRESS":"友愛街１３０號","OBJECTID":553403},"geometry":{"x":167837.6400000006,"y":2543593.6100000013}},{"attributes":{"ID":553431,"DIS_CODE":0,"TOWNNAME":"中西區","LI":"福安里","LIN":"21鄰","STREET":"友愛街","SECT":" ","MAREA":" ","LANE":" ","ALLEY":" ","HOUSE_NO":"１３２號","E_COORD97":167834.06,"N_COORD97":2543594.8100000001,"ADDRESS":"友愛街１３２號","OBJECTID":553404},"geometry":{"x":167834.05999999959,"y":2543594.8100000005}},{"attributes":{"ID":553432,"DIS_CODE":0,"TOWNNAME":"中西區","LI":"福安里","LIN":"21鄰","STREET":"西門路","SECT":"二段","MAREA":" ","LANE":" ","ALLEY":" ","HOUSE_NO":"６０號","E_COORD97":167822.09,"N_COORD97":2543597.9900000002,"ADDRESS":"西門路二段６０號","OBJECTID":553405},"geometry":{"x":167822.08999999985,"y":2543597.9900000021}},{"attributes":{"ID":553433,"DIS_CODE":0,"TOWNNAME":"中西區","LI":"福安里","LIN":"21鄰","STREET":"西門路","SECT":"二段","MAREA":" ","LANE":" ","ALLEY":" ","HOUSE_NO":"６２號","E_COORD97":167821.42999999999,"N_COORD97":2543601.71,"ADDRESS":"西門路二段６２號","OBJECTID":553406},"geometry":{"x":167821.4299999997,"y":2543601.7100000009}},{"attributes":{"ID":553434,"DIS_CODE":0,"TOWNNAME":"中西區","LI":"福安里","LIN":"21鄰","STREET":"西門路","SECT":"二段","MAREA":" ","LANE":" ","ALLEY":" ","HOUSE_NO":"６４號","E_COORD97":167822.62,"N_COORD97":2543606.6299999999,"ADDRESS":"西門路二段６４號","OBJECTID":553407},"geometry":{"x":167822.61999999918,"y":2543606.6300000008}},{"attributes":{"ID":553435,"DIS_CODE":0,"TOWNNAME":"東區","LI":"崇德里","LIN":"21鄰","STREET":"崇德路","SECT":" ","MAREA":" ","LANE":" ","ALLEY":" ","HOUSE_NO":"４５８號","E_COORD97":170696.26000000001,"N_COORD97":2541668.8300000001,"ADDRESS":"崇德路４５８號","OBJECTID":553408},"geometry":{"x":170696.25999999978,"y":2541668.8300000001}},{"attributes":{"ID":553436,"DIS_CODE":0,"TOWNNAME":"東區","LI":"龍山里","LIN":"21鄰","STREET":"東門路","SECT":"二段","MAREA":" ","LANE":" ","ALLEY":" ","HOUSE_NO":"２６０號","E_COORD97":170520.95999999999,"N_COORD97":2542762.6200000001,"ADDRESS":"東門路二段２６０號","OBJECTID":553409},"geometry":{"x":170520.96000000089,"y":2542762.620000001}},{"attributes":{"ID":553437,"DIS_CODE":0,"TOWNNAME":"東區","LI":"龍山里","LIN":"21鄰","STREET":"東門路","SECT":"二段","MAREA":" ","LANE":" ","ALLEY":" ","HOUSE_NO":"２７０號","E_COORD97":170542.01000000001,"N_COORD97":2542745.4300000002,"ADDRESS":"東門路二段２７０號","OBJECTID":553410},"geometry":{"x":170542.00999999978,"y":2542745.4299999997}},{"attributes":{"ID":553438,"DIS_CODE":0,"TOWNNAME":"東區","LI":"龍山里","LIN":"21鄰","STREET":"東門路","SECT":"二段","MAREA":" ","LANE":" ","ALLEY":" ","HOUSE_NO":"２７２號","E_COORD97":170547.51999999999,"N_COORD97":2542740.48,"ADDRESS":"東門路二段２７２號","OBJECTID":553411},"geometry":{"x":170547.52000000048,"y":2542740.4800000023}},{"attributes":{"ID":553439,"DIS_CODE":0,"TOWNNAME":"東區","LI":"龍山里","LIN":"21鄰","STREET":"東門路","SECT":"二段","MAREA":" ","LANE":" ","ALLEY":" ","HOUSE_NO":"２８０號","E_COORD97":170560.60000000001,"N_COORD97":2542732.23,"ADDRESS":"東門路二段２８０號","OBJECTID":553412},"geometry":{"x":170560.60000000056,"y":2542732.2300000023}},{"attributes":{"ID":553440,"DIS_CODE":0,"TOWNNAME":"東區","LI":"東光里","LIN":"21鄰","STREET":"怡東路","SECT":" ","MAREA":" ","LANE":" ","ALLEY":" ","HOUSE_NO":"１３１號","E_COORD97":170865.20000000001,"N_COORD97":2543791.1600000001,"ADDRESS":"怡東路１３１號","OBJECTID":553413},"geometry":{"x":170865.20000000205,"y":2543791.1600000001}},{"attributes":{"ID":553441,"DIS_CODE":0,"TOWNNAME":"東區","LI":"東光里","LIN":"21鄰","STREET":"怡東路","SECT":" ","MAREA":" ","LANE":" ","ALLEY":" ","HOUSE_NO":"１３３號","E_COORD97":170865.94,"N_COORD97":2543794.5600000001,"ADDRESS":"怡東路１３３號","OBJECTID":553414},"geometry":{"x":170865.94000000134,"y":2543794.5600000024}},{"attributes":{"ID":553442,"DIS_CODE":0,"TOWNNAME":"東區","LI":"東光里","LIN":"21鄰","STREET":"怡東路","SECT":" ","MAREA":" ","LANE":" ","ALLEY":" ","HOUSE_NO":"１３５號","E_COORD97":170866.57999999999,"N_COORD97":2543799.3399999999,"ADDRESS":"怡東路１３５號","OBJECTID":553415},"geometry":{"x":170866.58000000101,"y":2543799.3400000017}},{"attributes":{"ID":553443,"DIS_CODE":0,"TOWNNAME":"東區","LI":"東光里","LIN":"21鄰","STREET":"怡東路","SECT":" ","MAREA":" ","LANE":" ","ALLEY":" ","HOUSE_NO":"１３９號","E_COORD97":170866.79000000001,"N_COORD97":2543807.4100000001,"ADDRESS":"怡東路１３９號","OBJECTID":553416},"geometry":{"x":170866.79000000097,"y":2543807.4100000001}},{"attributes":{"ID":553444,"DIS_CODE":0,"TOWNNAME":"東區","LI":"東光里","LIN":"21鄰","STREET":"怡東路","SECT":" ","MAREA":" ","LANE":" ","ALLEY":" ","HOUSE_NO":"１４１號","E_COORD97":170867.54000000001,"N_COORD97":2543812.1899999999,"ADDRESS":"怡東路１４１號","OBJECTID":553417},"geometry":{"x":170867.54000000004,"y":2543812.1900000032}},{"attributes":{"ID":553445,"DIS_CODE":0,"TOWNNAME":"南區","LI":"文華里","LIN":"22鄰","STREET":"德南街","SECT":" ","MAREA":" ","LANE":" ","ALLEY":" ","HOUSE_NO":"９４號","E_COORD97":166690.20999999999,"N_COORD97":2542988.1600000001,"ADDRESS":"德南街９４號","OBJECTID":553418},"geometry":{"x":166690.21000000089,"y":2542988.1600000001}},{"attributes":{"ID":553446,"DIS_CODE":0,"TOWNNAME":"永康區","LI":"\u25A0行里","LIN":"21鄰","STREET":"正南五街","SECT":" ","MAREA":" ","LANE":" ","ALLEY":" ","HOUSE_NO":"３９１號","E_COORD97":171654.07999999999,"N_COORD97":2548686.5800000001,"ADDRESS":"正南五街３９１號","OBJECTID":553419},"geometry":{"x":171654.08000000194,"y":2548686.5800000019}},{"attributes":{"ID":553447,"DIS_CODE":0,"TOWNNAME":"永康區","LI":"復國里","LIN":"21鄰","STREET":"復華六街","SECT":" ","MAREA":" ","LANE":" ","ALLEY":" ","HOUSE_NO":"１１７號","E_COORD97":172560.76999999999,"N_COORD97":2545835.4199999999,"ADDRESS":"復華六街１１７號","OBJECTID":553420},"geometry":{"x":172560.76999999862,"y":2545835.4200000037}},{"attributes":{"ID":553448,"DIS_CODE":0,"TOWNNAME":"永康區","LI":"復國里","LIN":"21鄰","STREET":"復華六街","SECT":" ","MAREA":" ","LANE":" ","ALLEY":" ","HOUSE_NO":"１１１號","E_COORD97":172574.26000000001,"N_COORD97":2545836.1299999999,"ADDRESS":"復華六街１１１號","OBJECTID":553421},"geometry":{"x":172574.25999999978,"y":2545836.1300000027}},{"attributes":{"ID":553449,"DIS_CODE":0,"TOWNNAME":"永康區","LI":"網寮里","LIN":"21鄰","STREET":"永大一路","SECT":" ","MAREA":" ","LANE":" ","ALLEY":" ","HOUSE_NO":"２７３號","E_COORD97":173584.76000000001,"N_COORD97":2546254.8300000001,"ADDRESS":"永大一路２７３號","OBJECTID":553422},"geometry":{"x":173584.75999999978,"y":2546254.8300000001}},{"attributes":{"ID":553450,"DIS_CODE":0,"TOWNNAME":"永康區","LI":"網寮里","LIN":"21鄰","STREET":"永大一路","SECT":" ","MAREA":" ","LANE":" ","ALLEY":" ","HOUSE_NO":"３１３號","E_COORD97":173518.12,"N_COORD97":2546161.7200000002,"ADDRESS":"永大一路３１３號","OBJECTID":553423},"geometry":{"x":173518.12000000011,"y":2546161.7200000007}},{"attributes":{"ID":553451,"DIS_CODE":0,"TOWNNAME":"安南區","LI":"州北里","LIN":"21鄰","STREET":"安和路","SECT":"五段","MAREA":" ","LANE":" ","ALLEY":" ","HOUSE_NO":"３４１號","E_COORD97":169653.17999999999,"N_COORD97":2552189.1600000001,"ADDRESS":"安和路五段３４１號","OBJECTID":553424},"geometry":{"x":169653.18000000063,"y":2552189.1600000001}},{"attributes":{"ID":553452,"DIS_CODE":0,"TOWNNAME":"安南區","LI":"鳳凰里","LIN":"21鄰","STREET":"怡安路","SECT":"二段","MAREA":" ","LANE":" ","ALLEY":" ","HOUSE_NO":"６２３號","E_COORD97":167272.007725,"N_COORD97":2549512.1861800002,"ADDRESS":"怡安路二段６２３號","OBJECTID":553425},"geometry":{"x":167272.00772499945,"y":2549512.1861790027}},{"attributes":{"ID":553453,"DIS_CODE":0,"TOWNNAME":"安南區","LI":"鳳凰里","LIN":"21鄰","STREET":"怡安路","SECT":"二段","MAREA":" ","LANE":" ","ALLEY":" ","HOUSE_NO":"６１９號","E_COORD97":167278.14798400001,"N_COORD97":2549509.6461800002,"ADDRESS":"怡安路二段６１９號","OBJECTID":553426},"geometry":{"x":167278.14798399992,"y":2549509.6461810023}},{"attributes":{"ID":553454,"DIS_CODE":0,"TOWNNAME":"安南區","LI":"鳳凰里","LIN":"21鄰","STREET":"怡安路","SECT":"二段","MAREA":" ","LANE":" ","ALLEY":" ","HOUSE_NO":"６２７號","E_COORD97":167261.20934,"N_COORD97":2549514.09118,"ADDRESS":"怡安路二段６２７號","OBJECTID":553427},"geometry":{"x":167261.20934000053,"y":2549514.0911780018}},{"attributes":{"ID":553455,"DIS_CODE":0,"TOWNNAME":"安南區","LI":"鳳凰里","LIN":"21鄰","STREET":"怡安路","SECT":"二段","MAREA":" ","LANE":" ","ALLEY":" ","HOUSE_NO":"６０９號","E_COORD97":167302.92074999999,"N_COORD97":2549503.7195199998,"ADDRESS":"怡安路二段６０９號","OBJECTID":553428},"geometry":{"x":167302.92075000051,"y":2549503.7195170019}},{"attributes":{"ID":553456,"DIS_CODE":0,"TOWNNAME":"安南區","LI":"鳳凰里","LIN":"21鄰","STREET":"安中路","SECT":"一段","MAREA":" ","LANE":" ","ALLEY":" ","HOUSE_NO":"９６４號","E_COORD97":167226.48512100001,"N_COORD97":2549504.9895199998,"ADDRESS":"安中路一段９６４號","OBJECTID":553429},"geometry":{"x":167226.48512099963,"y":2549504.9895160012}},{"attributes":{"ID":553457,"DIS_CODE":0,"TOWNNAME":"東區","LI":"大德里","LIN":"14鄰","STREET":"立德十路","SECT":" ","MAREA":" ","LANE":" ","ALLEY":" ","HOUSE_NO":"４５號","E_COORD97":169521.14999999999,"N_COORD97":2542065.3999999999,"ADDRESS":"立德十路４５號","OBJECTID":553430},"geometry":{"x":169521.15000000037,"y":2542065.4000000004}},{"attributes":{"ID":553458,"DIS_CODE":0,"TOWNNAME":"安南區","LI":"鳳凰里","LIN":"21鄰","STREET":"安中路","SECT":"一段","MAREA":" ","LANE":" ","ALLEY":" ","HOUSE_NO":"９５６號","E_COORD97":167241.72990000001,"N_COORD97":2549495.4645199999,"ADDRESS":"安中路一段９５６號","OBJECTID":553431},"geometry":{"x":167241.72990000062,"y":2549495.4645220023}},{"attributes":{"ID":553459,"DIS_CODE":0,"TOWNNAME":"安南區","LI":"鳳凰里","LIN":"21鄰","STREET":"安中路","SECT":"一段","MAREA":" ","LANE":" ","ALLEY":" ","HOUSE_NO":"９２６號","E_COORD97":167297.83915700001,"N_COORD97":2549459.90454,"ADDRESS":"安中路一段９２６號","OBJECTID":553432},"geometry":{"x":167297.83915700018,"y":2549459.9045410007}},{"attributes":{"ID":553460,"DIS_CODE":0,"TOWNNAME":"安南區","LI":"鳳凰里","LIN":"21鄰","STREET":"安中路","SECT":"一段","MAREA":" ","LANE":" ","ALLEY":" ","HOUSE_NO":"９２８號","E_COORD97":167293.39276300001,"N_COORD97":2549461.5978700002,"ADDRESS":"安中路一段９２８號","OBJECTID":553433},"geometry":{"x":167293.39276300184,"y":2549461.5978730023}},{"attributes":{"ID":553461,"DIS_CODE":0,"TOWNNAME":"安南區","LI":"鳳凰里","LIN":"21鄰","STREET":"安中路","SECT":"一段","MAREA":" ","LANE":" ","ALLEY":" ","HOUSE_NO":"９３０號","E_COORD97":167290.64023300001,"N_COORD97":2549463.2912099999,"ADDRESS":"安中路一段９３０號","OBJECTID":553434},"geometry":{"x":167290.64023299981,"y":2549463.2912060004}},{"attributes":{"ID":553462,"DIS_CODE":0,"TOWNNAME":"安南區","LI":"鳳凰里","LIN":"21鄰","STREET":"安中路","SECT":"一段","MAREA":" ","LANE":" ","ALLEY":" ","HOUSE_NO":"９３２號","E_COORD97":167286.19383900001,"N_COORD97":2549466.04287,"ADDRESS":"安中路一段９３２號","OBJECTID":553435},"geometry":{"x":167286.19383900147,"y":2549466.0428710021}},{"attributes":{"ID":553463,"DIS_CODE":0,"TOWNNAME":"安南區","LI":"鳳凰里","LIN":"21鄰","STREET":"安中路","SECT":"一段","MAREA":" ","LANE":" ","ALLEY":" ","HOUSE_NO":"９３４號","E_COORD97":167282.80611100001,"N_COORD97":2549468.58287,"ADDRESS":"安中路一段９３４號","OBJECTID":553436},"geometry":{"x":167282.80611100048,"y":2549468.5828690026}},{"attributes":{"ID":553464,"DIS_CODE":0,"TOWNNAME":"安南區","LI":"鳳凰里","LIN":"21鄰","STREET":"安中路","SECT":"一段","MAREA":" ","LANE":" ","ALLEY":" ","HOUSE_NO":"９３６號","E_COORD97":167278.994916,"N_COORD97":2549471.1228700001,"ADDRESS":"安中路一段９３６號","OBJECTID":553437},"geometry":{"x":167278.9949160004,"y":2549471.1228680015}},{"attributes":{"ID":553465,"DIS_CODE":0,"TOWNNAME":"安南區","LI":"鳳凰里","LIN":"21鄰","STREET":"安中路","SECT":"一段","MAREA":" ","LANE":" ","ALLEY":" ","HOUSE_NO":"９３８號","E_COORD97":167274.971988,"N_COORD97":2549473.6628700001,"ADDRESS":"安中路一段９３８號","OBJECTID":553438},"geometry":{"x":167274.97198799998,"y":2549473.6628670003}},{"attributes":{"ID":553466,"DIS_CODE":0,"TOWNNAME":"安南區","LI":"鳳凰里","LIN":"21鄰","STREET":"安中路","SECT":"一段","MAREA":" ","LANE":" ","ALLEY":" ","HOUSE_NO":"９４０號","E_COORD97":167271.37252599999,"N_COORD97":2549475.9912,"ADDRESS":"安中路一段９４０號","OBJECTID":553439},"geometry":{"x":167271.37252600212,"y":2549475.9911989979}},{"attributes":{"ID":553467,"DIS_CODE":0,"TOWNNAME":"安南區","LI":"鳳凰里","LIN":"21鄰","STREET":"安中路","SECT":"一段","MAREA":" ","LANE":" ","ALLEY":" ","HOUSE_NO":"９４６號","E_COORD97":167259.727209,"N_COORD97":2549482.7645299998,"ADDRESS":"安中路一段９４６號","OBJECTID":553440},"geometry":{"x":167259.72720900085,"y":2549482.7645280007}},{"attributes":{"ID":553468,"DIS_CODE":0,"TOWNNAME":"安南區","LI":"鳳凰里","LIN":"21鄰","STREET":"安中路","SECT":"一段","MAREA":" ","LANE":" ","ALLEY":" ","HOUSE_NO":"９４８號","E_COORD97":167256.762946,"N_COORD97":2549485.72786,"ADDRESS":"安中路一段９４８號","OBJECTID":553441},"geometry":{"x":167256.76294600032,"y":2549485.7278599981}},{"attributes":{"ID":553469,"DIS_CODE":0,"TOWNNAME":"安南區","LI":"鳳凰里","LIN":"21鄰","STREET":"安中路","SECT":"一段","MAREA":" ","LANE":" ","ALLEY":" ","HOUSE_NO":"９５０號","E_COORD97":167252.95175099999,"N_COORD97":2549487.8445299999,"ADDRESS":"安中路一段９５０號","OBJECTID":553442},"geometry":{"x":167252.95175100025,"y":2549487.8445260003}},{"attributes":{"ID":553470,"DIS_CODE":0,"TOWNNAME":"安南區","LI":"鳳凰里","LIN":"21鄰","STREET":"安中路","SECT":"一段","MAREA":" ","LANE":" ","ALLEY":" ","HOUSE_NO":"９５２號","E_COORD97":167249.35229000001,"N_COORD97":2549490.1728599998,"ADDRESS":"安中路一段９５２號","OBJECTID":553443},"geometry":{"x":167249.3522900017,"y":2549490.1728580017}},{"attributes":{"ID":553471,"DIS_CODE":0,"TOWNNAME":"安南區","LI":"鳳凰里","LIN":"21鄰","STREET":"安中路","SECT":"一段","MAREA":" ","LANE":" ","ALLEY":" ","HOUSE_NO":"９５４號","E_COORD97":167245.752828,"N_COORD97":2549492.5011900002,"ADDRESS":"安中路一段９５４號","OBJECTID":553444},"geometry":{"x":167245.75282800104,"y":2549492.5011900011}},{"attributes":{"ID":553472,"DIS_CODE":0,"TOWNNAME":"安南區","LI":"鳳凰里","LIN":"21鄰","STREET":"安中路","SECT":"一段","MAREA":" ","LANE":" ","ALLEY":" ","HOUSE_NO":"９５８號","E_COORD97":167236.86004,"N_COORD97":2549498.00452,"ADDRESS":"安中路一段９５８號","OBJECTID":553445},"geometry":{"x":167236.86004000064,"y":2549498.004519999}},{"attributes":{"ID":553473,"DIS_CODE":0,"TOWNNAME":"安南區","LI":"鳳凰里","LIN":"21鄰","STREET":"安中路","SECT":"一段","MAREA":" ","LANE":" ","ALLEY":" ","HOUSE_NO":"９６６號","E_COORD97":167222.46219300001,"N_COORD97":2549506.89451,"ADDRESS":"安中路一段９６６號","OBJECTID":553446},"geometry":{"x":167222.46219300106,"y":2549506.8945150021}},{"attributes":{"ID":553474,"DIS_CODE":0,"TOWNNAME":"安南區","LI":"鳳凰里","LIN":"21鄰","STREET":"安中路","SECT":"一段","MAREA":" ","LANE":" ","ALLEY":" ","HOUSE_NO":"９６８號","E_COORD97":167218.862731,"N_COORD97":2549508.7995099998,"ADDRESS":"安中路一段９６８號","OBJECTID":553447},"geometry":{"x":167218.86273100134,"y":2549508.7995140012}},{"attributes":{"ID":553475,"DIS_CODE":0,"TOWNNAME":"安南區","LI":"鳳凰里","LIN":"21鄰","STREET":"安中路","SECT":"一段","MAREA":" ","LANE":" ","ALLEY":" ","HOUSE_NO":"９７０號","E_COORD97":167214.70000000001,"N_COORD97":2549511.4100000001,"ADDRESS":"安中路一段９７０號","OBJECTID":553448},"geometry":{"x":167214.70000000019,"y":2549511.410000002}},{"attributes":{"ID":553476,"DIS_CODE":0,"TOWNNAME":"安南區","LI":"鳳凰里","LIN":"21鄰","STREET":"怡安路","SECT":"二段","MAREA":" ","LANE":" ","ALLEY":" ","HOUSE_NO":"６１１號","E_COORD97":167298.47435599999,"N_COORD97":2549504.7778500002,"ADDRESS":"怡安路二段６１１號","OBJECTID":553449},"geometry":{"x":167298.47435600031,"y":2549504.7778500002}},{"attributes":{"ID":553477,"DIS_CODE":0,"TOWNNAME":"安南區","LI":"鳳凰里","LIN":"21鄰","STREET":"怡安路","SECT":"二段","MAREA":" ","LANE":" ","ALLEY":" ","HOUSE_NO":"６１３號","E_COORD97":167293.60449600001,"N_COORD97":2549505.6245200001,"ADDRESS":"怡安路二段６１３號","OBJECTID":553450},"geometry":{"x":167293.60449600127,"y":2549505.624516001}},{"attributes":{"ID":553478,"DIS_CODE":0,"TOWNNAME":"安南區","LI":"鳳凰里","LIN":"21鄰","STREET":"怡安路","SECT":"二段","MAREA":" ","LANE":" ","ALLEY":" ","HOUSE_NO":"６１７號","E_COORD97":167283.864776,"N_COORD97":2549509.0111799999,"ADDRESS":"怡安路二段６１７號","OBJECTID":553451},"geometry":{"x":167283.86477600038,"y":2549509.0111810025}},{"attributes":{"ID":553479,"DIS_CODE":0,"TOWNNAME":"安南區","LI":"鳳凰里","LIN":"21鄰","STREET":"怡安路","SECT":"二段","MAREA":" ","LANE":" ","ALLEY":" ","HOUSE_NO":"６２５號","E_COORD97":167266.50266599999,"N_COORD97":2549512.82118,"ADDRESS":"怡安路二段６２５號","OBJECTID":553452},"geometry":{"x":167266.50266600121,"y":2549512.8211790025}},{"attributes":{"ID":553480,"DIS_CODE":0,"TOWNNAME":"安南區","LI":"鳳凰里","LIN":"21鄰","STREET":"怡安路","SECT":"二段","MAREA":" ","LANE":" ","ALLEY":" ","HOUSE_NO":"６３１號","E_COORD97":167249.56402300001,"N_COORD97":2549516.63118,"ADDRESS":"怡安路二段６３１號","OBJECTID":553453},"geometry":{"x":167249.56402300112,"y":2549516.6311770007}},{"attributes":{"ID":553481,"DIS_CODE":0,"TOWNNAME":"永康區","LI":"\u25A0洲里","LIN":"21鄰","STREET":"中正南路","SECT":" ","MAREA":" ","LANE":" ","ALLEY":" ","HOUSE_NO":"７６７號","E_COORD97":171661,"N_COORD97":2548938.25,"ADDRESS":"中正南路７６７號","OBJECTID":553454},"geometry":{"x":171661,"y":2548938.25}},{"attributes":{"ID":553482,"DIS_CODE":0,"TOWNNAME":"永康區","LI":"中華里","LIN":"21鄰","STREET":"中華路","SECT":" ","MAREA":" ","LANE":" ","ALLEY":" ","HOUSE_NO":"１２號","E_COORD97":171582.5,"N_COORD97":2544494.1000000001,"ADDRESS":"中華路１２號","OBJECTID":553455},"geometry":{"x":171582.5,"y":2544494.0999999996}},{"attributes":{"ID":553483,"DIS_CODE":0,"TOWNNAME":"永康區","LI":"\u25A0洲里","LIN":"21鄰","STREET":"中正南路","SECT":" ","MAREA":" ","LANE":" ","ALLEY":" ","HOUSE_NO":"７７１號","E_COORD97":171666.41,"N_COORD97":2548943.1699999999,"ADDRESS":"中正南路７７１號","OBJECTID":553456},"geometry":{"x":171666.41000000015,"y":2548943.1700000018}},{"attributes":{"ID":553484,"DIS_CODE":0,"TOWNNAME":"永康區","LI":"中華里","LIN":"21鄰","STREET":"中華路","SECT":" ","MAREA":" ","LANE":" ","ALLEY":" ","HOUSE_NO":"１６號","E_COORD97":171581.70000000001,"N_COORD97":2544517.3799999999,"ADDRESS":"中華路１６號","OBJECTID":553457},"geometry":{"x":171581.70000000019,"y":2544517.379999999}},{"attributes":{"ID":553485,"DIS_CODE":0,"TOWNNAME":"永康區","LI":"中華里","LIN":"21鄰","STREET":"中華路","SECT":" ","MAREA":" ","LANE":" ","ALLEY":" ","HOUSE_NO":"２２號","E_COORD97":171583.67999999999,"N_COORD97":2544530.77,"ADDRESS":"中華路２２號","OBJECTID":553458},"geometry":{"x":171583.68000000063,"y":2544530.7700000033}},{"attributes":{"ID":553486,"DIS_CODE":0,"TOWNNAME":"永康區","LI":"二王里","LIN":"21鄰","STREET":"忠孝路","SECT":" ","MAREA":" ","LANE":" ","ALLEY":" ","HOUSE_NO":"４３１號","E_COORD97":172454.76999999999,"N_COORD97":2546528.3999999999,"ADDRESS":"忠孝路４３１號","OBJECTID":553459},"geometry":{"x":172454.77000000048,"y":2546528.4000000022}},{"attributes":{"ID":553487,"DIS_CODE":0,"TOWNNAME":"永康區","LI":"二王里","LIN":"21鄰","STREET":"忠孝路","SECT":" ","MAREA":" ","LANE":" ","ALLEY":" ","HOUSE_NO":"４３９號","E_COORD97":172455.60999999999,"N_COORD97":2546560.23,"ADDRESS":"忠孝路４３９號","OBJECTID":553460},"geometry":{"x":172455.61000000034,"y":2546560.2300000023}},{"attributes":{"ID":553488,"DIS_CODE":0,"TOWNNAME":"仁德區","LI":"仁義里","LIN":"21鄰","STREET":"中山路","SECT":" ","MAREA":" ","LANE":" ","ALLEY":" ","HOUSE_NO":"３９４號","E_COORD97":173798.66,"N_COORD97":2541281.7400000002,"ADDRESS":"中山路３９４號","OBJECTID":553461},"geometry":{"x":173798.66000000108,"y":2541281.7400000002}},{"attributes":{"ID":553489,"DIS_CODE":0,"TOWNNAME":"仁德區","LI":"太子里","LIN":"21鄰","STREET":"中正路","SECT":"三段","MAREA":" ","LANE":" ","ALLEY":" ","HOUSE_NO":"７２４之１號","E_COORD97":173792.85000000001,"N_COORD97":2543718.2999999998,"ADDRESS":"中正路三段７２４之１號","OBJECTID":553462},"geometry":{"x":173792.85000000149,"y":2543718.3000000026}},{"attributes":{"ID":553490,"DIS_CODE":0,"TOWNNAME":"仁德區","LI":"仁義里","LIN":"21鄰","STREET":"中山路","SECT":" ","MAREA":" ","LANE":" ","ALLEY":" ","HOUSE_NO":"３８２號","E_COORD97":173821.48000000001,"N_COORD97":2541279.2400000002,"ADDRESS":"中山路３８２號","OBJECTID":553463},"geometry":{"x":173821.47999999952,"y":2541279.2400000002}},{"attributes":{"ID":553491,"DIS_CODE":0,"TOWNNAME":"仁德區","LI":"仁義里","LIN":"21鄰","STREET":"中山路","SECT":" ","MAREA":" ","LANE":" ","ALLEY":" ","HOUSE_NO":"３８８號","E_COORD97":173810,"N_COORD97":2541280.2400000002,"ADDRESS":"中山路３８８號","OBJECTID":553464},"geometry":{"x":173810,"y":2541280.2400000039}},{"attributes":{"ID":553492,"DIS_CODE":0,"TOWNNAME":"東區","LI":"小東里","LIN":"6鄰","STREET":"光明街","SECT":" ","MAREA":" ","LANE":" ","ALLEY":" ","HOUSE_NO":"２９號","E_COORD97":170921.60999999999,"N_COORD97":2544405.54,"ADDRESS":"光明街２９號","OBJECTID":553465},"geometry":{"x":170921.61000000034,"y":2544405.5399999991}},{"attributes":{"ID":553493,"DIS_CODE":0,"TOWNNAME":"仁德區","LI":"仁義里","LIN":"21鄰","STREET":"中山路","SECT":" ","MAREA":" ","LANE":" ","ALLEY":" ","HOUSE_NO":"３４８號","E_COORD97":173899.04999999999,"N_COORD97":2541269.75,"ADDRESS":"中山路３４８號","OBJECTID":553466},"geometry":{"x":173899.05000000075,"y":2541269.7500000037}},{"attributes":{"ID":553494,"DIS_CODE":0,"TOWNNAME":"仁德區","LI":"仁義里","LIN":"21鄰","STREET":"中山路","SECT":" ","MAREA":" ","LANE":" ","ALLEY":" ","HOUSE_NO":"３７４號","E_COORD97":173840.84,"N_COORD97":2541276.9900000002,"ADDRESS":"中山路３７４號","OBJECTID":553467},"geometry":{"x":173840.84000000078,"y":2541276.9900000002}},{"attributes":{"ID":553495,"DIS_CODE":0,"TOWNNAME":"東區","LI":"裕農里","LIN":"21鄰","STREET":"裕豐街","SECT":" ","MAREA":" ","LANE":" ","ALLEY":" ","HOUSE_NO":"１７０號","E_COORD97":170774.91,"N_COORD97":2543075.9500000002,"ADDRESS":"裕豐街１７０號","OBJECTID":553468},"geometry":{"x":170774.91000000015,"y":2543075.9500000011}},{"attributes":{"ID":553496,"DIS_CODE":0,"TOWNNAME":"東區","LI":"裕農里","LIN":"21鄰","STREET":"裕豐街","SECT":" ","MAREA":" ","LANE":" ","ALLEY":" ","HOUSE_NO":"１７０號之１","E_COORD97":170776.29999999999,"N_COORD97":2543082.2000000002,"ADDRESS":"裕豐街１７０號之１","OBJECTID":553469},"geometry":{"x":170776.30000000075,"y":2543082.1999999993}},{"attributes":{"ID":553497,"DIS_CODE":0,"TOWNNAME":"善化區","LI":"光文里","LIN":"21鄰","STREET":"民權路","SECT":" ","MAREA":" ","LANE":" ","ALLEY":" ","HOUSE_NO":"２３８號","E_COORD97":178084.19,"N_COORD97":2558996.7599999998,"ADDRESS":"民權路２３８號","OBJECTID":553470},"geometry":{"x":178084.19000000134,"y":2558996.7599999998}},{"attributes":{"ID":553498,"DIS_CODE":0,"TOWNNAME":"新市區","LI":"港墘里","LIN":"21鄰","STREET":"南昌街","SECT":" ","MAREA":" ","LANE":" ","ALLEY":" ","HOUSE_NO":"７號","E_COORD97":177982.32000000001,"N_COORD97":2552766.6000000001,"ADDRESS":"南昌街７號","OBJECTID":553471},"geometry":{"x":177982.3200000003,"y":2552766.5999999996}},{"attributes":{"ID":553499,"DIS_CODE":0,"TOWNNAME":"善化區","LI":"光文里","LIN":"21鄰","STREET":"中山路","SECT":" ","MAREA":" ","LANE":" ","ALLEY":" ","HOUSE_NO":"２４１號","E_COORD97":178056.60999999999,"N_COORD97":2559089.5,"ADDRESS":"中山路２４１號","OBJECTID":553472},"geometry":{"x":178056.61000000034,"y":2559089.5}},{"attributes":{"ID":553500,"DIS_CODE":0,"TOWNNAME":"善化區","LI":"光文里","LIN":"21鄰","STREET":"民權路","SECT":" ","MAREA":" ","LANE":" ","ALLEY":" ","HOUSE_NO":"２５４號","E_COORD97":178042.42999999999,"N_COORD97":2558990.7599999998,"ADDRESS":"民權路２５４號","OBJECTID":553473},"geometry":{"x":178042.43000000063,"y":2558990.7600000035}},{"attributes":{"ID":553501,"DIS_CODE":0,"TOWNNAME":"善化區","LI":"光文里","LIN":"21鄰","STREET":"民權路","SECT":" ","MAREA":" ","LANE":" ","ALLEY":" ","HOUSE_NO":"２４４號","E_COORD97":178071.51999999999,"N_COORD97":2558994.5099999998,"ADDRESS":"民權路２４４號","OBJECTID":553474},"geometry":{"x":178071.51999999955,"y":2558994.5099999998}},{"attributes":{"ID":553502,"DIS_CODE":0,"TOWNNAME":"善化區","LI":"光文里","LIN":"21鄰","STREET":"民族路","SECT":" ","MAREA":" ","LANE":" ","ALLEY":" ","HOUSE_NO":"１７１號","E_COORD97":178042.60000000001,"N_COORD97":2559055.0099999998,"ADDRESS":"民族路１７１號","OBJECTID":553475},"geometry":{"x":178042.60000000149,"y":2559055.0100000016}},{"attributes":{"ID":553503,"DIS_CODE":0,"TOWNNAME":"善化區","LI":"光文里","LIN":"21鄰","STREET":"民權路","SECT":" ","MAREA":" ","LANE":" ","ALLEY":" ","HOUSE_NO":"２３６號","E_COORD97":178088.35000000001,"N_COORD97":2558997.2599999998,"ADDRESS":"民權路２３６號","OBJECTID":553476},"geometry":{"x":178088.35000000149,"y":2558997.2599999998}},{"attributes":{"ID":553504,"DIS_CODE":0,"TOWNNAME":"善化區","LI":"光文里","LIN":"21鄰","STREET":"中山路","SECT":" ","MAREA":" ","LANE":" ","ALLEY":" ","HOUSE_NO":"２３５號","E_COORD97":178077.32999999999,"N_COORD97":2559093,"ADDRESS":"中山路２３５號","OBJECTID":553477},"geometry":{"x":178077.33000000101,"y":2559093}},{"attributes":{"ID":553505,"DIS_CODE":0,"TOWNNAME":"善化區","LI":"光文里","LIN":"21鄰","STREET":"和平路","SECT":" ","MAREA":" ","LANE":" ","ALLEY":" ","HOUSE_NO":"１６７號","E_COORD97":178098.60999999999,"N_COORD97":2559028.25,"ADDRESS":"和平路１６７號","OBJECTID":553478},"geometry":{"x":178098.61000000034,"y":2559028.2500000037}},{"attributes":{"ID":553506,"DIS_CODE":0,"TOWNNAME":"善化區","LI":"光文里","LIN":"21鄰","STREET":"和平路","SECT":" ","MAREA":" ","LANE":" ","ALLEY":" ","HOUSE_NO":"１７３號","E_COORD97":178096.14000000001,"N_COORD97":2559045.25,"ADDRESS":"和平路１７３號","OBJECTID":553479},"geometry":{"x":178096.13999999966,"y":2559045.2500000037}},{"attributes":{"ID":553507,"DIS_CODE":0,"TOWNNAME":"永康區","LI":"網寮里","LIN":"21鄰","STREET":"永大一路","SECT":" ","MAREA":" ","LANE":" ","ALLEY":" ","HOUSE_NO":"３０５號","E_COORD97":173528.73000000001,"N_COORD97":2546176.7200000002,"ADDRESS":"永大一路３０５號","OBJECTID":553480},"geometry":{"x":173528.73000000138,"y":2546176.7200000025}},{"attributes":{"ID":553508,"DIS_CODE":0,"TOWNNAME":"永康區","LI":"網寮里","LIN":"21鄰","STREET":"永大一路","SECT":" ","MAREA":" ","LANE":" ","ALLEY":" ","HOUSE_NO":"３１７號","E_COORD97":173508.92999999999,"N_COORD97":2546146.7799999998,"ADDRESS":"永大一路３１７號","OBJECTID":553481},"geometry":{"x":173508.9299999997,"y":2546146.7799999993}},{"attributes":{"ID":553509,"DIS_CODE":0,"TOWNNAME":"永康區","LI":"網寮里","LIN":"21鄰","STREET":"永大一路","SECT":" ","MAREA":" ","LANE":" ","ALLEY":" ","HOUSE_NO":"３１５號","E_COORD97":173515.98000000001,"N_COORD97":2546158.2200000002,"ADDRESS":"永大一路３１５號","OBJECTID":553482},"geometry":{"x":173515.98000000045,"y":2546158.2200000007}},{"attributes":{"ID":553510,"DIS_CODE":0,"TOWNNAME":"永康區","LI":"復國里","LIN":"21鄰","STREET":"復國一路","SECT":" ","MAREA":" ","LANE":" ","ALLEY":" ","HOUSE_NO":"３５５號","E_COORD97":172755.78,"N_COORD97":2545819.8199999998,"ADDRESS":"復國一路３５５號","OBJECTID":553483},"geometry":{"x":172755.78000000026,"y":2545819.8200000022}},{"attributes":{"ID":553511,"DIS_CODE":0,"TOWNNAME":"新市區","LI":"新和里","LIN":"21鄰","STREET":"中正路","SECT":" ","MAREA":" ","LANE":" ","ALLEY":" ","HOUSE_NO":"１４４號","E_COORD97":177401.51000000001,"N_COORD97":2552646.75,"ADDRESS":"中正路１４４號","OBJECTID":553484},"geometry":{"x":177401.51000000071,"y":2552646.75}},{"attributes":{"ID":553512,"DIS_CODE":0,"TOWNNAME":"永康區","LI":"復國里","LIN":"21鄰","STREET":"復華六街","SECT":" ","MAREA":" ","LANE":" ","ALLEY":" ","HOUSE_NO":"１０９號","E_COORD97":172578.45999999999,"N_COORD97":2545835.8799999999,"ADDRESS":"復華六街１０９號","OBJECTID":553485},"geometry":{"x":172578.45999999996,"y":2545835.8800000008}},{"attributes":{"ID":553513,"DIS_CODE":0,"TOWNNAME":"永康區","LI":"復國里","LIN":"21鄰","STREET":"復華六街","SECT":" ","MAREA":" ","LANE":" ","ALLEY":" ","HOUSE_NO":"１１３號","E_COORD97":172570.35000000001,"N_COORD97":2545836.1299999999,"ADDRESS":"復華六街１１３號","OBJECTID":553486},"geometry":{"x":172570.34999999963,"y":2545836.1300000027}},{"attributes":{"ID":553514,"DIS_CODE":0,"TOWNNAME":"永康區","LI":"網寮里","LIN":"21鄰","STREET":"文化路","SECT":" ","MAREA":" ","LANE":" ","ALLEY":" ","HOUSE_NO":"２３２號","E_COORD97":173602.47,"N_COORD97":2546144.79,"ADDRESS":"文化路２３２號","OBJECTID":553487},"geometry":{"x":173602.47000000067,"y":2546144.790000001}},{"attributes":{"ID":553515,"DIS_CODE":0,"TOWNNAME":"永康區","LI":"網寮里","LIN":"21鄰","STREET":"文化路","SECT":" ","MAREA":" ","LANE":" ","ALLEY":" ","HOUSE_NO":"２７７號","E_COORD97":173529.17000000001,"N_COORD97":2546109.5299999998,"ADDRESS":"文化路２７７號","OBJECTID":553488},"geometry":{"x":173529.16999999993,"y":2546109.5300000012}},{"attributes":{"ID":553516,"DIS_CODE":0,"TOWNNAME":"永康區","LI":"復國里","LIN":"21鄰","STREET":"復國一路","SECT":" ","MAREA":" ","LANE":" ","ALLEY":" ","HOUSE_NO":"３４９號","E_COORD97":172755.10999999999,"N_COORD97":2545807.3199999998,"ADDRESS":"復國一路３４９號","OBJECTID":553489},"geometry":{"x":172755.11000000127,"y":2545807.3200000022}},{"attributes":{"ID":553517,"DIS_CODE":0,"TOWNNAME":"永康區","LI":"網寮里","LIN":"21鄰","STREET":"文化路","SECT":" ","MAREA":" ","LANE":" ","ALLEY":" ","HOUSE_NO":"２４９號","E_COORD97":173604.70000000001,"N_COORD97":2546126.71,"ADDRESS":"文化路２４９號","OBJECTID":553490},"geometry":{"x":173604.70000000112,"y":2546126.7100000028}},{"attributes":{"ID":553518,"DIS_CODE":0,"TOWNNAME":"永康區","LI":"網寮里","LIN":"21鄰","STREET":"文化路","SECT":" ","MAREA":" ","LANE":" ","ALLEY":" ","HOUSE_NO":"２５１號","E_COORD97":173601.12,"N_COORD97":2546125.21,"ADDRESS":"文化路２５１號","OBJECTID":553491},"geometry":{"x":173601.12000000011,"y":2546125.2100000009}},{"attributes":{"ID":553519,"DIS_CODE":0,"TOWNNAME":"永康區","LI":"網寮里","LIN":"21鄰","STREET":"文化路","SECT":" ","MAREA":" ","LANE":" ","ALLEY":" ","HOUSE_NO":"２５５號","E_COORD97":173593.95999999999,"N_COORD97":2546122.71,"ADDRESS":"文化路２５５號","OBJECTID":553492},"geometry":{"x":173593.95999999903,"y":2546122.7100000028}},{"attributes":{"ID":553520,"DIS_CODE":0,"TOWNNAME":"永康區","LI":"網寮里","LIN":"21鄰","STREET":"永勝街","SECT":" ","MAREA":" ","LANE":" ","ALLEY":" ","HOUSE_NO":"３３號","E_COORD97":173605.04000000001,"N_COORD97":2546256.5299999998,"ADDRESS":"永勝街３３號","OBJECTID":553493},"geometry":{"x":173605.04000000004,"y":2546256.5299999993}},{"attributes":{"ID":553521,"DIS_CODE":0,"TOWNNAME":"永康區","LI":"復國里","LIN":"21鄰","STREET":"復國一路","SECT":" ","MAREA":" ","LANE":" ","ALLEY":" ","HOUSE_NO":"３４３號","E_COORD97":172756.09,"N_COORD97":2545787.6299999999,"ADDRESS":"復國一路３４３號","OBJECTID":553494},"geometry":{"x":172756.09000000078,"y":2545787.629999999}},{"attributes":{"ID":553522,"DIS_CODE":0,"TOWNNAME":"永康區","LI":"復國里","LIN":"21鄰","STREET":"復國一路","SECT":" ","MAREA":" ","LANE":" ","ALLEY":" ","HOUSE_NO":"３５１號","E_COORD97":172755.22,"N_COORD97":2545811.5699999998,"ADDRESS":"復國一路３５１號","OBJECTID":553495},"geometry":{"x":172755.22000000067,"y":2545811.5700000022}},{"attributes":{"ID":553523,"DIS_CODE":0,"TOWNNAME":"善化區","LI":"胡厝里","LIN":"21鄰","STREET":"興農路","SECT":" ","MAREA":" ","LANE":" ","ALLEY":" ","HOUSE_NO":"３６９號","E_COORD97":175439.57000000001,"N_COORD97":2558958.7599999998,"ADDRESS":"興農路３６９號","OBJECTID":553496},"geometry":{"x":175439.5700000003,"y":2558958.7599999998}},{"attributes":{"ID":553524,"DIS_CODE":0,"TOWNNAME":"善化區","LI":"胡厝里","LIN":"21鄰","STREET":"興農路","SECT":" ","MAREA":" ","LANE":" ","ALLEY":" ","HOUSE_NO":"６５２號","E_COORD97":174860.19,"N_COORD97":2558837.0099999998,"ADDRESS":"興農路６５２號","OBJECTID":553497},"geometry":{"x":174860.19000000041,"y":2558837.0100000016}},{"attributes":{"ID":553525,"DIS_CODE":0,"TOWNNAME":"善化區","LI":"胡厝里","LIN":"21鄰","STREET":"興農路","SECT":" ","MAREA":" ","LANE":" ","ALLEY":" ","HOUSE_NO":"４６１號","E_COORD97":175076.07000000001,"N_COORD97":2558844.5099999998,"ADDRESS":"興農路４６１號","OBJECTID":553498},"geometry":{"x":175076.07000000123,"y":2558844.5100000016}},{"attributes":{"ID":553526,"DIS_CODE":0,"TOWNNAME":"善化區","LI":"胡厝里","LIN":"21鄰","STREET":"興農路","SECT":" ","MAREA":" ","LANE":" ","ALLEY":" ","HOUSE_NO":"５６８號之１","E_COORD97":175048.57000000001,"N_COORD97":2558912.52,"ADDRESS":"興農路５６８號之１","OBJECTID":553499},"geometry":{"x":175048.57000000123,"y":2558912.5199999996}},{"attributes":{"ID":553527,"DIS_CODE":0,"TOWNNAME":"永康區","LI":"三合里","LIN":"21鄰","STREET":"南工街","SECT":" ","MAREA":" ","LANE":" ","ALLEY":" ","HOUSE_NO":"２９３號","E_COORD97":171886.35999999999,"N_COORD97":2546039.75,"ADDRESS":"南工街２９３號","OBJECTID":553500},"geometry":{"x":171886.3600000022,"y":2546039.7500000037}},{"attributes":{"ID":553528,"DIS_CODE":0,"TOWNNAME":"永康區","LI":"二王里","LIN":"21鄰","STREET":"忠孝路","SECT":" ","MAREA":" ","LANE":" ","ALLEY":" ","HOUSE_NO":"４３７號","E_COORD97":172456.01000000001,"N_COORD97":2546554.7400000002,"ADDRESS":"忠孝路４３７號","OBJECTID":553501},"geometry":{"x":172456.01000000164,"y":2546554.7400000002}},{"attributes":{"ID":553529,"DIS_CODE":0,"TOWNNAME":"永康區","LI":"三合里","LIN":"21鄰","STREET":"南工街","SECT":" ","MAREA":" ","LANE":" ","ALLEY":" ","HOUSE_NO":"２９９號","E_COORD97":171866.73999999999,"N_COORD97":2546057.4900000002,"ADDRESS":"南工街２９９號","OBJECTID":553502},"geometry":{"x":171866.74000000209,"y":2546057.4900000002}},{"attributes":{"ID":553530,"DIS_CODE":0,"TOWNNAME":"永康區","LI":"三合里","LIN":"21鄰","STREET":"南工街","SECT":" ","MAREA":" ","LANE":" ","ALLEY":" ","HOUSE_NO":"２８３號","E_COORD97":171882.48000000001,"N_COORD97":2546009.75,"ADDRESS":"南工街２８３號","OBJECTID":553503},"geometry":{"x":171882.48000000138,"y":2546009.7500000019}},{"attributes":{"ID":553531,"DIS_CODE":0,"TOWNNAME":"永康區","LI":"三合里","LIN":"21鄰","STREET":"南工街","SECT":" ","MAREA":" ","LANE":" ","ALLEY":" ","HOUSE_NO":"２９５號","E_COORD97":171882.97,"N_COORD97":2546055.7400000002,"ADDRESS":"南工街２９５號","OBJECTID":553504},"geometry":{"x":171882.96999999974,"y":2546055.7400000002}},{"attributes":{"ID":553532,"DIS_CODE":0,"TOWNNAME":"東區","LI":"虎尾里","LIN":"21鄰","STREET":"東門路","SECT":"三段","MAREA":" ","LANE":" ","ALLEY":" ","HOUSE_NO":"２７７號","E_COORD97":171744.67999999999,"N_COORD97":2541855.9500000002,"ADDRESS":"東門路三段２７７號","OBJECTID":553505},"geometry":{"x":171744.68000000063,"y":2541855.9499999993}},{"attributes":{"ID":553533,"DIS_CODE":0,"TOWNNAME":"東區","LI":"虎尾里","LIN":"21鄰","STREET":"東門路","SECT":"三段","MAREA":" ","LANE":" ","ALLEY":" ","HOUSE_NO":"２８１號","E_COORD97":171753.25,"N_COORD97":2541853.2799999998,"ADDRESS":"東門路三段２８１號","OBJECTID":553506},"geometry":{"x":171753.25000000093,"y":2541853.2800000012}},{"attributes":{"ID":553534,"DIS_CODE":0,"TOWNNAME":"東區","LI":"虎尾里","LIN":"21鄰","STREET":"東門路","SECT":"三段","MAREA":" ","LANE":" ","ALLEY":" ","HOUSE_NO":"２８３號","E_COORD97":171757.89000000001,"N_COORD97":2541852.0299999998,"ADDRESS":"東門路三段２８３號","OBJECTID":553507},"geometry":{"x":171757.88999999966,"y":2541852.0299999993}},{"attributes":{"ID":553535,"DIS_CODE":0,"TOWNNAME":"東區","LI":"崇德里","LIN":"21鄰","STREET":"崇德路","SECT":" ","MAREA":" ","LANE":" ","ALLEY":" ","HOUSE_NO":"４７８號","E_COORD97":170753.91,"N_COORD97":2541625.98,"ADDRESS":"崇德路４７８號","OBJECTID":553508},"geometry":{"x":170753.91000000108,"y":2541625.9800000023}},{"attributes":{"ID":553536,"DIS_CODE":0,"TOWNNAME":"東區","LI":"崇德里","LIN":"21鄰","STREET":"崇德路","SECT":" ","MAREA":" ","LANE":" ","ALLEY":" ","HOUSE_NO":"４８０號","E_COORD97":170760.88,"N_COORD97":2541624.1200000001,"ADDRESS":"崇德路４８０號","OBJECTID":553509},"geometry":{"x":170760.88000000082,"y":2541624.1200000048}},{"attributes":{"ID":553537,"DIS_CODE":0,"TOWNNAME":"東區","LI":"崇德里","LIN":"21鄰","STREET":"崇德路","SECT":" ","MAREA":" ","LANE":" ","ALLEY":" ","HOUSE_NO":"５１０號","E_COORD97":170774.29999999999,"N_COORD97":2541556.5299999998,"ADDRESS":"崇德路５１０號","OBJECTID":553510},"geometry":{"x":170774.30000000168,"y":2541556.5300000012}},{"attributes":{"ID":553538,"DIS_CODE":0,"TOWNNAME":"東區","LI":"崇德里","LIN":"21鄰","STREET":"崇德路","SECT":" ","MAREA":" ","LANE":" ","ALLEY":" ","HOUSE_NO":"５１２號","E_COORD97":170774.29999999999,"N_COORD97":2541551.5499999998,"ADDRESS":"崇德路５１２號","OBJECTID":553511},"geometry":{"x":170774.30000000168,"y":2541551.5500000007}},{"attributes":{"ID":553539,"DIS_CODE":0,"TOWNNAME":"東區","LI":"崇德里","LIN":"21鄰","STREET":"崇德路","SECT":" ","MAREA":" ","LANE":" ","ALLEY":" ","HOUSE_NO":"５２０號","E_COORD97":170774.70000000001,"N_COORD97":2541534.5899999999,"ADDRESS":"崇德路５２０號","OBJECTID":553512},"geometry":{"x":170774.70000000019,"y":2541534.5899999999}},{"attributes":{"ID":553540,"DIS_CODE":0,"TOWNNAME":"東區","LI":"崇德里","LIN":"21鄰","STREET":"崇德路","SECT":" ","MAREA":" ","LANE":" ","ALLEY":" ","HOUSE_NO":"５２２號","E_COORD97":170774.89999999999,"N_COORD97":2541530,"ADDRESS":"崇德路５２２號","OBJECTID":553513},"geometry":{"x":170774.9000000013,"y":2541530.0000000019}},{"attributes":{"ID":553541,"DIS_CODE":0,"TOWNNAME":"東區","LI":"崇德里","LIN":"21鄰","STREET":"崇德路","SECT":" ","MAREA":" ","LANE":" ","ALLEY":" ","HOUSE_NO":"５２４號","E_COORD97":170774.89999999999,"N_COORD97":2541526.21,"ADDRESS":"崇德路５２４號","OBJECTID":553514},"geometry":{"x":170774.9000000013,"y":2541526.2100000028}},{"attributes":{"ID":553542,"DIS_CODE":0,"TOWNNAME":"東區","LI":"崇德里","LIN":"21鄰","STREET":"崇德路","SECT":" ","MAREA":" ","LANE":" ","ALLEY":" ","HOUSE_NO":"５２６號","E_COORD97":170774.70000000001,"N_COORD97":2541521.2200000002,"ADDRESS":"崇德路５２６號","OBJECTID":553515},"geometry":{"x":170774.70000000019,"y":2541521.2199999988}},{"attributes":{"ID":553543,"DIS_CODE":0,"TOWNNAME":"東區","LI":"崇德里","LIN":"21鄰","STREET":"崇德路","SECT":" ","MAREA":" ","LANE":" ","ALLEY":" ","HOUSE_NO":"５２８號","E_COORD97":170774.29999999999,"N_COORD97":2541516.6400000001,"ADDRESS":"崇德路５２８號","OBJECTID":553516},"geometry":{"x":170774.30000000168,"y":2541516.6400000025}},{"attributes":{"ID":553544,"DIS_CODE":0,"TOWNNAME":"麻豆區","LI":"油車里","LIN":"21鄰","STREET":"中山路","SECT":" ","MAREA":" ","LANE":" ","ALLEY":" ","HOUSE_NO":"１３６號","E_COORD97":172490.82000000001,"N_COORD97":2564901.8300000001,"ADDRESS":"中山路１３６號","OBJECTID":553517},"geometry":{"x":172490.82000000123,"y":2564901.8300000001}},{"attributes":{"ID":553545,"DIS_CODE":0,"TOWNNAME":"麻豆區","LI":"油車里","LIN":"21鄰","STREET":"中山路","SECT":" ","MAREA":" ","LANE":" ","ALLEY":" ","HOUSE_NO":"１３８號","E_COORD97":172456.73000000001,"N_COORD97":2564918.6600000001,"ADDRESS":"中山路１３８號","OBJECTID":553518},"geometry":{"x":172456.73000000045,"y":2564918.660000002}},{"attributes":{"ID":553546,"DIS_CODE":0,"TOWNNAME":"新市區","LI":"港墘里","LIN":"21鄰","STREET":"南港街","SECT":" ","MAREA":" ","LANE":" ","ALLEY":" ","HOUSE_NO":"１０４號","E_COORD97":178048.20999999999,"N_COORD97":2552751,"ADDRESS":"南港街１０４號","OBJECTID":553519},"geometry":{"x":178048.20999999996,"y":2552751.0000000037}},{"attributes":{"ID":553547,"DIS_CODE":0,"TOWNNAME":"永康區","LI":"甲頂里","LIN":"15鄰","STREET":"正新街","SECT":" ","MAREA":" ","LANE":" ","ALLEY":" ","HOUSE_NO":"６號","E_COORD97":170443.60999999999,"N_COORD97":2546638.3599999999,"ADDRESS":"正新街６號","OBJECTID":553520},"geometry":{"x":170443.61000000034,"y":2546638.3599999975}},{"attributes":{"ID":553548,"DIS_CODE":0,"TOWNNAME":"新市區","LI":"新和里","LIN":"21鄰","STREET":"中正路","SECT":" ","MAREA":" ","LANE":" ","ALLEY":" ","HOUSE_NO":"７９號","E_COORD97":177377.89999999999,"N_COORD97":2552583,"ADDRESS":"中正路７９號","OBJECTID":553521},"geometry":{"x":177377.90000000037,"y":2552583.0000000019}},{"attributes":{"ID":553549,"DIS_CODE":0,"TOWNNAME":"新市區","LI":"新市里","LIN":"21鄰","STREET":"和平街","SECT":" ","MAREA":" ","LANE":" ","ALLEY":" ","HOUSE_NO":"５２號","E_COORD97":177670.29000000001,"N_COORD97":2553449.25,"ADDRESS":"和平街５２號","OBJECTID":553522},"geometry":{"x":177670.29000000004,"y":2553449.2500000019}},{"attributes":{"ID":553550,"DIS_CODE":0,"TOWNNAME":"新市區","LI":"新和里","LIN":"21鄰","STREET":"中正路","SECT":" ","MAREA":" ","LANE":" ","ALLEY":" ","HOUSE_NO":"１２４號","E_COORD97":177407.16,"N_COORD97":2552592.5,"ADDRESS":"中正路１２４號","OBJECTID":553523},"geometry":{"x":177407.16000000201,"y":2552592.5000000019}},{"attributes":{"ID":553551,"DIS_CODE":0,"TOWNNAME":"仁德區","LI":"後壁里","LIN":"21鄰","STREET":"中正路","SECT":"二段","MAREA":" ","LANE":" ","ALLEY":" ","HOUSE_NO":"７９號","E_COORD97":173131.62,"N_COORD97":2538454.7799999998,"ADDRESS":"中正路二段７９號","OBJECTID":553524},"geometry":{"x":173131.62000000011,"y":2538454.7800000031}},{"attributes":{"ID":553552,"DIS_CODE":0,"TOWNNAME":"仁德區","LI":"後壁里","LIN":"21鄰","STREET":"中正路","SECT":"二段","MAREA":" ","LANE":" ","ALLEY":" ","HOUSE_NO":"５７號","E_COORD97":173087.38,"N_COORD97":2538390.52,"ADDRESS":"中正路二段５７號","OBJECTID":553525},"geometry":{"x":173087.37999999989,"y":2538390.5200000014}},{"attributes":{"ID":553553,"DIS_CODE":0,"TOWNNAME":"仁德區","LI":"後壁里","LIN":"21鄰","STREET":"中正路","SECT":"二段","MAREA":" ","LANE":" ","ALLEY":" ","HOUSE_NO":"９３號","E_COORD97":173129.92999999999,"N_COORD97":2538490.27,"ADDRESS":"中正路二段９３號","OBJECTID":553526},"geometry":{"x":173129.93000000063,"y":2538490.2700000014}},{"attributes":{"ID":553554,"DIS_CODE":0,"TOWNNAME":"東區","LI":"裕農里","LIN":"1鄰","STREET":"裕農路","SECT":" ","MAREA":" ","LANE":" ","ALLEY":" ","HOUSE_NO":"３０９號","E_COORD97":170932.63,"N_COORD97":2543030.46,"ADDRESS":"裕農路３０９號","OBJECTID":553527},"geometry":{"x":170932.62999999989,"y":2543030.4600000009}},{"attributes":{"ID":553555,"DIS_CODE":0,"TOWNNAME":"東區","LI":"裕農里","LIN":"1鄰","STREET":"裕農路","SECT":" ","MAREA":" ","LANE":" ","ALLEY":" ","HOUSE_NO":"３１１號","E_COORD97":170937.45999999999,"N_COORD97":2543031.9500000002,"ADDRESS":"裕農路３１１號","OBJECTID":553528},"geometry":{"x":170937.45999999996,"y":2543031.9500000011}},{"attributes":{"ID":553556,"DIS_CODE":0,"TOWNNAME":"永康區","LI":"正強里","LIN":"21鄰","STREET":"中正路","SECT":" ","MAREA":" ","LANE":" ","ALLEY":" ","HOUSE_NO":"８５號","E_COORD97":173508.17000000001,"N_COORD97":2547854.2400000002,"ADDRESS":"中正路８５號","OBJECTID":553529},"geometry":{"x":173508.17000000086,"y":2547854.2400000039}},{"attributes":{"ID":553557,"DIS_CODE":0,"TOWNNAME":"永康區","LI":"正強里","LIN":"21鄰","STREET":"中正路","SECT":" ","MAREA":" ","LANE":" ","ALLEY":" ","HOUSE_NO":"８９號","E_COORD97":173498.29999999999,"N_COORD97":2547855.1099999999,"ADDRESS":"中正路８９號","OBJECTID":553530},"geometry":{"x":173498.30000000168,"y":2547855.1100000013}},{"attributes":{"ID":553558,"DIS_CODE":0,"TOWNNAME":"永康區","LI":"正強里","LIN":"21鄰","STREET":"中正路","SECT":" ","MAREA":" ","LANE":" ","ALLEY":" ","HOUSE_NO":"９１號","E_COORD97":173494.51000000001,"N_COORD97":2547857.7799999998,"ADDRESS":"中正路９１號","OBJECTID":553531},"geometry":{"x":173494.50999999978,"y":2547857.7800000012}},{"attributes":{"ID":553559,"DIS_CODE":0,"TOWNNAME":"永康區","LI":"正強里","LIN":"21鄰","STREET":"中正路","SECT":" ","MAREA":" ","LANE":" ","ALLEY":" ","HOUSE_NO":"９３號","E_COORD97":173491.5,"N_COORD97":2547862.1800000002,"ADDRESS":"中正路９３號","OBJECTID":553532},"geometry":{"x":173491.5,"y":2547862.1800000016}},{"attributes":{"ID":553560,"DIS_CODE":0,"TOWNNAME":"永康區","LI":"正強里","LIN":"21鄰","STREET":"中正路","SECT":" ","MAREA":" ","LANE":" ","ALLEY":" ","HOUSE_NO":"９５號","E_COORD97":173487.38,"N_COORD97":2547863.7799999998,"ADDRESS":"中正路９５號","OBJECTID":553533},"geometry":{"x":173487.37999999989,"y":2547863.7800000012}},{"attributes":{"ID":553561,"DIS_CODE":0,"TOWNNAME":"永康區","LI":"正強里","LIN":"21鄰","STREET":"中正路","SECT":" ","MAREA":" ","LANE":" ","ALLEY":" ","HOUSE_NO":"９７號","E_COORD97":173483.22,"N_COORD97":2547865.23,"ADDRESS":"中正路９７號","OBJECTID":553534},"geometry":{"x":173483.21999999974,"y":2547865.2300000023}},{"attributes":{"ID":553562,"DIS_CODE":0,"TOWNNAME":"永康區","LI":"正強里","LIN":"21鄰","STREET":"中正路","SECT":" ","MAREA":" ","LANE":" ","ALLEY":" ","HOUSE_NO":"９９號","E_COORD97":173479.01999999999,"N_COORD97":2547866.5099999998,"ADDRESS":"中正路９９號","OBJECTID":553535},"geometry":{"x":173479.01999999955,"y":2547866.5100000016}},{"attributes":{"ID":553563,"DIS_CODE":0,"TOWNNAME":"永康區","LI":"正強里","LIN":"21鄰","STREET":"中正路","SECT":" ","MAREA":" ","LANE":" ","ALLEY":" ","HOUSE_NO":"１０１號","E_COORD97":173473.54000000001,"N_COORD97":2547864.6600000001,"ADDRESS":"中正路１０１號","OBJECTID":553536},"geometry":{"x":173473.54000000097,"y":2547864.6600000039}},{"attributes":{"ID":553564,"DIS_CODE":0,"TOWNNAME":"永康區","LI":"正強里","LIN":"21鄰","STREET":"中正路","SECT":" ","MAREA":" ","LANE":" ","ALLEY":" ","HOUSE_NO":"１０３號","E_COORD97":173468.01999999999,"N_COORD97":2547873.1699999999,"ADDRESS":"中正路１０３號","OBJECTID":553537},"geometry":{"x":173468.02000000048,"y":2547873.1699999999}},{"attributes":{"ID":553565,"DIS_CODE":0,"TOWNNAME":"永康區","LI":"正強里","LIN":"21鄰","STREET":"中正路","SECT":" ","MAREA":" ","LANE":" ","ALLEY":" ","HOUSE_NO":"１０７號","E_COORD97":173457.45000000001,"N_COORD97":2547869.29,"ADDRESS":"中正路１０７號","OBJECTID":553538},"geometry":{"x":173457.45000000112,"y":2547869.2900000028}},{"attributes":{"ID":553566,"DIS_CODE":0,"TOWNNAME":"永康區","LI":"正強里","LIN":"21鄰","STREET":"中正路","SECT":" ","MAREA":" ","LANE":" ","ALLEY":" ","HOUSE_NO":"１０９號","E_COORD97":173452.79000000001,"N_COORD97":2547867.2599999998,"ADDRESS":"中正路１０９號","OBJECTID":553539},"geometry":{"x":173452.78999999911,"y":2547867.2600000016}},{"attributes":{"ID":553567,"DIS_CODE":0,"TOWNNAME":"新市區","LI":"新和里","LIN":"21鄰","STREET":"中正路","SECT":" ","MAREA":" ","LANE":" ","ALLEY":" ","HOUSE_NO":"１２２號","E_COORD97":177408.12,"N_COORD97":2552587.75,"ADDRESS":"中正路１２２號","OBJECTID":553540},"geometry":{"x":177408.12000000104,"y":2552587.7500000019}},{"attributes":{"ID":553568,"DIS_CODE":0,"TOWNNAME":"新市區","LI":"新和里","LIN":"21鄰","STREET":"中正路","SECT":" ","MAREA":" ","LANE":" ","ALLEY":" ","HOUSE_NO":"１０２號","E_COORD97":177429.20999999999,"N_COORD97":2552524,"ADDRESS":"中正路１０２號","OBJECTID":553541},"geometry":{"x":177429.21000000089,"y":2552524.0000000037}},{"attributes":{"ID":553569,"DIS_CODE":0,"TOWNNAME":"新市區","LI":"新和里","LIN":"21鄰","STREET":"中正路","SECT":" ","MAREA":" ","LANE":" ","ALLEY":" ","HOUSE_NO":"９７號","E_COORD97":177372.07000000001,"N_COORD97":2552635.75,"ADDRESS":"中正路９７號","OBJECTID":553542},"geometry":{"x":177372.0700000003,"y":2552635.7500000019}},{"attributes":{"ID":553570,"DIS_CODE":0,"TOWNNAME":"新市區","LI":"新和里","LIN":"21鄰","STREET":"中正路","SECT":" ","MAREA":" ","LANE":" ","ALLEY":" ","HOUSE_NO":"１３２號","E_COORD97":177402.95999999999,"N_COORD97":2552616.75,"ADDRESS":"中正路１３２號","OBJECTID":553543},"geometry":{"x":177402.95999999996,"y":2552616.75}},{"attributes":{"ID":553571,"DIS_CODE":0,"TOWNNAME":"新市區","LI":"新和里","LIN":"21鄰","STREET":"中正路","SECT":" ","MAREA":" ","LANE":" ","ALLEY":" ","HOUSE_NO":"８８之３號","E_COORD97":177444.57000000001,"N_COORD97":2552453.0499999998,"ADDRESS":"中正路８８之３號","OBJECTID":553544},"geometry":{"x":177444.5700000003,"y":2552453.0500000045}},{"attributes":{"ID":553572,"DIS_CODE":0,"TOWNNAME":"新市區","LI":"新和里","LIN":"21鄰","STREET":"中正路","SECT":" ","MAREA":" ","LANE":" ","ALLEY":" ","HOUSE_NO":"１２８號","E_COORD97":177417.70999999999,"N_COORD97":2552608.75,"ADDRESS":"中正路１２８號","OBJECTID":553545},"geometry":{"x":177417.70999999996,"y":2552608.75}},{"attributes":{"ID":553573,"DIS_CODE":0,"TOWNNAME":"新市區","LI":"新和里","LIN":"21鄰","STREET":"中正路","SECT":" ","MAREA":" ","LANE":" ","ALLEY":" ","HOUSE_NO":"８２之６號","E_COORD97":177477.51000000001,"N_COORD97":2552447.7999999998,"ADDRESS":"中正路８２之６號","OBJECTID":553546},"geometry":{"x":177477.51000000071,"y":2552447.8000000007}},{"attributes":{"ID":553574,"DIS_CODE":0,"TOWNNAME":"新市區","LI":"新和里","LIN":"21鄰","STREET":"中正路","SECT":" ","MAREA":" ","LANE":" ","ALLEY":" ","HOUSE_NO":"９６號","E_COORD97":177427.82000000001,"N_COORD97":2552510,"ADDRESS":"中正路９６號","OBJECTID":553547},"geometry":{"x":177427.8200000003,"y":2552510}},{"attributes":{"ID":553575,"DIS_CODE":0,"TOWNNAME":"新市區","LI":"新和里","LIN":"21鄰","STREET":"中正路","SECT":" ","MAREA":" ","LANE":" ","ALLEY":" ","HOUSE_NO":"８８之２號","E_COORD97":177445.66,"N_COORD97":2552448.7999999998,"ADDRESS":"中正路８８之２號","OBJECTID":553548},"geometry":{"x":177445.66000000015,"y":2552448.8000000026}},{"attributes":{"ID":553576,"DIS_CODE":0,"TOWNNAME":"新市區","LI":"新和里","LIN":"21鄰","STREET":"中正路","SECT":" ","MAREA":" ","LANE":" ","ALLEY":" ","HOUSE_NO":"１０３號","E_COORD97":177376.82000000001,"N_COORD97":2552649.5,"ADDRESS":"中正路１０３號","OBJECTID":553549},"geometry":{"x":177376.8200000003,"y":2552649.5000000037}},{"attributes":{"ID":553577,"DIS_CODE":0,"TOWNNAME":"新市區","LI":"新和里","LIN":"21鄰","STREET":"中正路","SECT":" ","MAREA":" ","LANE":" ","ALLEY":" ","HOUSE_NO":"８８之１號","E_COORD97":177446.82000000001,"N_COORD97":2552444.7999999998,"ADDRESS":"中正路８８之１號","OBJECTID":553550},"geometry":{"x":177446.82000000216,"y":2552444.8000000045}},{"attributes":{"ID":553578,"DIS_CODE":0,"TOWNNAME":"新市區","LI":"新和里","LIN":"21鄰","STREET":"中正路","SECT":" ","MAREA":" ","LANE":" ","ALLEY":" ","HOUSE_NO":"１３８號","E_COORD97":177401.76000000001,"N_COORD97":2552633.75,"ADDRESS":"中正路１３８號","OBJECTID":553551},"geometry":{"x":177401.76000000071,"y":2552633.75}},{"attributes":{"ID":553579,"DIS_CODE":0,"TOWNNAME":"新市區","LI":"新和里","LIN":"21鄰","STREET":"中正路","SECT":" ","MAREA":" ","LANE":" ","ALLEY":" ","HOUSE_NO":"１７４號","E_COORD97":177410.51000000001,"N_COORD97":2552718.5,"ADDRESS":"中正路１７４號","OBJECTID":553552},"geometry":{"x":177410.50999999978,"y":2552718.5000000019}},{"attributes":{"ID":553580,"DIS_CODE":0,"TOWNNAME":"永康區","LI":"五王里","LIN":"21鄰","STREET":"振興路","SECT":" ","MAREA":" ","LANE":" ","ALLEY":" ","HOUSE_NO":"３４號","E_COORD97":171438.57000000001,"N_COORD97":2545767.27,"ADDRESS":"振興路３４號","OBJECTID":553553},"geometry":{"x":171438.5700000003,"y":2545767.2699999996}},{"attributes":{"ID":553581,"DIS_CODE":0,"TOWNNAME":"永康區","LI":"正強里","LIN":"21鄰","STREET":"中正路","SECT":" ","MAREA":" ","LANE":" ","ALLEY":" ","HOUSE_NO":"１２５號之１","E_COORD97":173410.04000000001,"N_COORD97":2547871.5499999998,"ADDRESS":"中正路１２５號之１","OBJECTID":553554},"geometry":{"x":173410.04000000004,"y":2547871.5500000007}},{"attributes":{"ID":553582,"DIS_CODE":0,"TOWNNAME":"永康區","LI":"正強里","LIN":"21鄰","STREET":"中正路","SECT":" ","MAREA":" ","LANE":" ","ALLEY":" ","HOUSE_NO":"７３號","E_COORD97":173508.39999999999,"N_COORD97":2547840.6699999999,"ADDRESS":"中正路７３號","OBJECTID":553555},"geometry":{"x":173508.40000000224,"y":2547840.6700000037}},{"attributes":{"ID":553583,"DIS_CODE":0,"TOWNNAME":"永康區","LI":"正強里","LIN":"21鄰","STREET":"中正路","SECT":" ","MAREA":" ","LANE":" ","ALLEY":" ","HOUSE_NO":"１２５號之７","E_COORD97":173376.48000000001,"N_COORD97":2547872.7599999998,"ADDRESS":"中正路１２５號之７","OBJECTID":553556},"geometry":{"x":173376.48000000138,"y":2547872.7599999998}},{"attributes":{"ID":553584,"DIS_CODE":0,"TOWNNAME":"永康區","LI":"正強里","LIN":"21鄰","STREET":"中正路","SECT":" ","MAREA":" ","LANE":" ","ALLEY":" ","HOUSE_NO":"１１５號","E_COORD97":173445.39999999999,"N_COORD97":2547875.3900000001,"ADDRESS":"中正路１１５號","OBJECTID":553557},"geometry":{"x":173445.40000000037,"y":2547875.3900000025}},{"attributes":{"ID":553585,"DIS_CODE":0,"TOWNNAME":"永康區","LI":"正強里","LIN":"21鄰","STREET":"中正路","SECT":" ","MAREA":" ","LANE":" ","ALLEY":" ","HOUSE_NO":"５９號","E_COORD97":173556.84,"N_COORD97":2547822.4900000002,"ADDRESS":"中正路５９號","OBJECTID":553558},"geometry":{"x":173556.83999999985,"y":2547822.4900000021}},{"attributes":{"ID":553586,"DIS_CODE":0,"TOWNNAME":"永康區","LI":"五王里","LIN":"21鄰","STREET":"振興路","SECT":" ","MAREA":" ","LANE":" ","ALLEY":" ","HOUSE_NO":"４６號","E_COORD97":171460.04999999999,"N_COORD97":2545780.7799999998,"ADDRESS":"振興路４６號","OBJECTID":553559},"geometry":{"x":171460.04999999981,"y":2545780.7799999993}},{"attributes":{"ID":553587,"DIS_CODE":0,"TOWNNAME":"永康區","LI":"五王里","LIN":"21鄰","STREET":"振興路","SECT":" ","MAREA":" ","LANE":" ","ALLEY":" ","HOUSE_NO":"４２號","E_COORD97":171451.76999999999,"N_COORD97":2545776.0099999998,"ADDRESS":"振興路４２號","OBJECTID":553560},"geometry":{"x":171451.76999999955,"y":2545776.0099999998}},{"attributes":{"ID":553588,"DIS_CODE":0,"TOWNNAME":"永康區","LI":"五王里","LIN":"21鄰","STREET":"振興路","SECT":" ","MAREA":" ","LANE":" ","ALLEY":" ","HOUSE_NO":"５３號","E_COORD97":171467.10000000001,"N_COORD97":2545820.71,"ADDRESS":"振興路５３號","OBJECTID":553561},"geometry":{"x":171467.10000000149,"y":2545820.7100000046}},{"attributes":{"ID":553589,"DIS_CODE":0,"TOWNNAME":"永康區","LI":"五王里","LIN":"21鄰","STREET":"振興路","SECT":" ","MAREA":" ","LANE":" ","ALLEY":" ","HOUSE_NO":"５５號","E_COORD97":171480.12,"N_COORD97":2545824.5,"ADDRESS":"振興路５５號","OBJECTID":553562},"geometry":{"x":171480.12000000011,"y":2545824.5000000037}},{"attributes":{"ID":553590,"DIS_CODE":0,"TOWNNAME":"東區","LI":"中西里","LIN":"13鄰","STREET":"東寧路","SECT":" ","MAREA":" ","LANE":" ","ALLEY":" ","HOUSE_NO":"３８號","E_COORD97":170070.54000000001,"N_COORD97":2543579.2599999998,"ADDRESS":"東寧路３８號","OBJECTID":553563},"geometry":{"x":170070.54000000004,"y":2543579.2600000016}},{"attributes":{"ID":553591,"DIS_CODE":0,"TOWNNAME":"東區","LI":"龍山里","LIN":"1鄰","STREET":"崇學路","SECT":" ","MAREA":" ","LANE":" ","ALLEY":" ","HOUSE_NO":"２８３號","E_COORD97":170631.42000000001,"N_COORD97":2542598.2799999998,"ADDRESS":"崇學路２８３號","OBJECTID":553564},"geometry":{"x":170631.42000000086,"y":2542598.2800000012}},{"attributes":{"ID":553592,"DIS_CODE":0,"TOWNNAME":"東區","LI":"龍山里","LIN":"1鄰","STREET":"崇學路","SECT":" ","MAREA":" ","LANE":" ","ALLEY":" ","HOUSE_NO":"２８５號","E_COORD97":170637.95999999999,"N_COORD97":2542601.7000000002,"ADDRESS":"崇學路２８５號","OBJECTID":553565},"geometry":{"x":170637.96000000089,"y":2542601.700000003}},{"attributes":{"ID":553593,"DIS_CODE":0,"TOWNNAME":"東區","LI":"龍山里","LIN":"1鄰","STREET":"崇學路","SECT":" ","MAREA":" ","LANE":" ","ALLEY":" ","HOUSE_NO":"２８７號","E_COORD97":170641.54999999999,"N_COORD97":2542606.0699999998,"ADDRESS":"崇學路２８７號","OBJECTID":553566},"geometry":{"x":170641.54999999981,"y":2542606.0700000003}},{"attributes":{"ID":553594,"DIS_CODE":0,"TOWNNAME":"東區","LI":"東光里","LIN":"1鄰","STREET":"東寧路","SECT":" ","MAREA":" ","LANE":" ","ALLEY":" ","HOUSE_NO":"３８１號","E_COORD97":170944.76999999999,"N_COORD97":2543376.1899999999,"ADDRESS":"東寧路３８１號","OBJECTID":553567},"geometry":{"x":170944.76999999955,"y":2543376.1900000013}},{"attributes":{"ID":553595,"DIS_CODE":0,"TOWNNAME":"永康區","LI":"五王里","LIN":"21鄰","STREET":"振興路","SECT":" ","MAREA":" ","LANE":" ","ALLEY":" ","HOUSE_NO":"２３號","E_COORD97":171427.98999999999,"N_COORD97":2545785.5,"ADDRESS":"振興路２３號","OBJECTID":553568},"geometry":{"x":171427.99000000115,"y":2545785.5000000019}},{"attributes":{"ID":553596,"DIS_CODE":0,"TOWNNAME":"永康區","LI":"正強里","LIN":"21鄰","STREET":"自強路","SECT":" ","MAREA":" ","LANE":" ","ALLEY":" ","HOUSE_NO":"３３９號","E_COORD97":173491.09,"N_COORD97":2547771.46,"ADDRESS":"自強路３３９號","OBJECTID":553569},"geometry":{"x":173491.08999999985,"y":2547771.4600000009}},{"attributes":{"ID":553597,"DIS_CODE":0,"TOWNNAME":"永康區","LI":"正強里","LIN":"21鄰","STREET":"中正路","SECT":" ","MAREA":" ","LANE":" ","ALLEY":" ","HOUSE_NO":"１２１號之３","E_COORD97":173407.17000000001,"N_COORD97":2547856.5,"ADDRESS":"中正路１２１號之３","OBJECTID":553570},"geometry":{"x":173407.16999999993,"y":2547856.5000000019}},{"attributes":{"ID":553598,"DIS_CODE":0,"TOWNNAME":"永康區","LI":"正強里","LIN":"21鄰","STREET":"中正路","SECT":" ","MAREA":" ","LANE":" ","ALLEY":" ","HOUSE_NO":"６７號","E_COORD97":173538.07000000001,"N_COORD97":2547837.7400000002,"ADDRESS":"中正路６７號","OBJECTID":553571},"geometry":{"x":173538.07000000123,"y":2547837.7400000021}},{"attributes":{"ID":553599,"DIS_CODE":0,"TOWNNAME":"東區","LI":"仁和里","LIN":"7鄰","STREET":"仁和路","SECT":" ","MAREA":" ","LANE":" ","ALLEY":" ","HOUSE_NO":"１２７號","E_COORD97":171479.19,"N_COORD97":2541141.4199999999,"ADDRESS":"仁和路１２７號","OBJECTID":553572},"geometry":{"x":171479.19000000227,"y":2541141.4199999999}},{"attributes":{"ID":553600,"DIS_CODE":0,"TOWNNAME":"東區","LI":"仁和里","LIN":"7鄰","STREET":"仁和路","SECT":" ","MAREA":" ","LANE":" ","ALLEY":" ","HOUSE_NO":"１３１號","E_COORD97":171483.79000000001,"N_COORD97":2541131.4199999999,"ADDRESS":"仁和路１３１號","OBJECTID":553573},"geometry":{"x":171483.79000000097,"y":2541131.4199999999}},{"attributes":{"ID":553601,"DIS_CODE":0,"TOWNNAME":"東區","LI":"小東里","LIN":"15鄰","STREET":"光明街","SECT":" ","MAREA":" ","LANE":" ","ALLEY":" ","HOUSE_NO":"９８號","E_COORD97":170902.04999999999,"N_COORD97":2544098.5299999998,"ADDRESS":"光明街９８號","OBJECTID":553574},"geometry":{"x":170902.05000000075,"y":2544098.5300000012}},{"attributes":{"ID":553602,"DIS_CODE":0,"TOWNNAME":"東區","LI":"崇誨里","LIN":"19鄰","STREET":"東寧路","SECT":" ","MAREA":" ","LANE":" ","ALLEY":" ","HOUSE_NO":"２９２號","E_COORD97":170712.72,"N_COORD97":2543410.96,"ADDRESS":"東寧路２９２號","OBJECTID":553575},"geometry":{"x":170712.72000000067,"y":2543410.9600000009}},{"attributes":{"ID":553603,"DIS_CODE":0,"TOWNNAME":"東區","LI":"崇誨里","LIN":"19鄰","STREET":"東寧路","SECT":" ","MAREA":" ","LANE":" ","ALLEY":" ","HOUSE_NO":"２９４號","E_COORD97":170723.85999999999,"N_COORD97":2543413.8100000001,"ADDRESS":"東寧路２９４號","OBJECTID":553576},"geometry":{"x":170723.86000000127,"y":2543413.8100000024}},{"attributes":{"ID":553604,"DIS_CODE":0,"TOWNNAME":"永康區","LI":"正強里","LIN":"21鄰","STREET":"中正路","SECT":" ","MAREA":" ","LANE":" ","ALLEY":" ","HOUSE_NO":"１２３號","E_COORD97":173430.38,"N_COORD97":2547873.6099999999,"ADDRESS":"中正路１２３號","OBJECTID":553577},"geometry":{"x":173430.38000000082,"y":2547873.6099999994}},{"attributes":{"ID":553605,"DIS_CODE":0,"TOWNNAME":"永康區","LI":"五王里","LIN":"21鄰","STREET":"振興路","SECT":" ","MAREA":" ","LANE":" ","ALLEY":" ","HOUSE_NO":"３０號","E_COORD97":171432.03,"N_COORD97":2545763.0499999998,"ADDRESS":"振興路３０號","OBJECTID":553578},"geometry":{"x":171432.03000000026,"y":2545763.0500000007}},{"attributes":{"ID":553606,"DIS_CODE":0,"TOWNNAME":"永康區","LI":"五王里","LIN":"21鄰","STREET":"振興路","SECT":" ","MAREA":" ","LANE":" ","ALLEY":" ","HOUSE_NO":"６５號","E_COORD97":171510.82000000001,"N_COORD97":2545840.9900000002,"ADDRESS":"振興路６５號","OBJECTID":553579},"geometry":{"x":171510.82000000123,"y":2545840.9900000002}},{"attributes":{"ID":553607,"DIS_CODE":0,"TOWNNAME":"永康區","LI":"五王里","LIN":"21鄰","STREET":"振興路","SECT":" ","MAREA":" ","LANE":" ","ALLEY":" ","HOUSE_NO":"５９號","E_COORD97":171493.67000000001,"N_COORD97":2545831.5,"ADDRESS":"振興路５９號","OBJECTID":553580},"geometry":{"x":171493.66999999993,"y":2545831.5000000037}},{"attributes":{"ID":553608,"DIS_CODE":0,"TOWNNAME":"永康區","LI":"五王里","LIN":"21鄰","STREET":"振興路","SECT":" ","MAREA":" ","LANE":" ","ALLEY":" ","HOUSE_NO":"３２號","E_COORD97":171435.42999999999,"N_COORD97":2545765.5499999998,"ADDRESS":"振興路３２號","OBJECTID":553581},"geometry":{"x":171435.4299999997,"y":2545765.5500000026}},{"attributes":{"ID":553609,"DIS_CODE":0,"TOWNNAME":"永康區","LI":"五王里","LIN":"21鄰","STREET":"振興路","SECT":" ","MAREA":" ","LANE":" ","ALLEY":" ","HOUSE_NO":"１６號","E_COORD97":171408.98000000001,"N_COORD97":2545746.7999999998,"ADDRESS":"振興路１６號","OBJECTID":553582},"geometry":{"x":171408.98000000045,"y":2545746.8000000026}},{"attributes":{"ID":553610,"DIS_CODE":0,"TOWNNAME":"永康區","LI":"五王里","LIN":"21鄰","STREET":"振興路","SECT":" ","MAREA":" ","LANE":" ","ALLEY":" ","HOUSE_NO":"６１號","E_COORD97":171499.22,"N_COORD97":2545834.4900000002,"ADDRESS":"振興路６１號","OBJECTID":553583},"geometry":{"x":171499.22000000067,"y":2545834.4900000002}},{"attributes":{"ID":553611,"DIS_CODE":0,"TOWNNAME":"永康區","LI":"正強里","LIN":"21鄰","STREET":"中正路","SECT":" ","MAREA":" ","LANE":" ","ALLEY":" ","HOUSE_NO":"１２１號之２","E_COORD97":173408.28,"N_COORD97":2547852.4900000002,"ADDRESS":"中正路１２１號之２","OBJECTID":553584},"geometry":{"x":173408.28000000119,"y":2547852.4900000039}},{"attributes":{"ID":553612,"DIS_CODE":0,"TOWNNAME":"永康區","LI":"五王里","LIN":"21鄰","STREET":"振興路","SECT":" ","MAREA":" ","LANE":" ","ALLEY":" ","HOUSE_NO":"２８號","E_COORD97":171428.81,"N_COORD97":2545760.7999999998,"ADDRESS":"振興路２８號","OBJECTID":553585},"geometry":{"x":171428.81000000052,"y":2545760.8000000007}},{"attributes":{"ID":553613,"DIS_CODE":0,"TOWNNAME":"永康區","LI":"正強里","LIN":"21鄰","STREET":"中正路","SECT":" ","MAREA":" ","LANE":" ","ALLEY":" ","HOUSE_NO":"１２５號之３","E_COORD97":173402.59,"N_COORD97":2547869.2999999998,"ADDRESS":"中正路１２５號之３","OBJECTID":553586},"geometry":{"x":173402.58999999985,"y":2547869.3000000026}},{"attributes":{"ID":553614,"DIS_CODE":0,"TOWNNAME":"東區","LI":"中西里","LIN":"9鄰","STREET":"勝利路","SECT":" ","MAREA":" ","LANE":" ","ALLEY":" ","HOUSE_NO":"５４號之２","E_COORD97":169821.88,"N_COORD97":2543569.4700000002,"ADDRESS":"勝利路５４號之２","OBJECTID":553587},"geometry":{"x":169821.88000000082,"y":2543569.4700000007}},{"attributes":{"ID":553615,"DIS_CODE":0,"TOWNNAME":"永康區","LI":"正強里","LIN":"21鄰","STREET":"中正路","SECT":" ","MAREA":" ","LANE":" ","ALLEY":" ","HOUSE_NO":"１２５之４號","E_COORD97":173398.95000000001,"N_COORD97":2547868.0499999998,"ADDRESS":"中正路１２５之４號","OBJECTID":553588},"geometry":{"x":173398.95000000019,"y":2547868.0500000007}},{"attributes":{"ID":553616,"DIS_CODE":0,"TOWNNAME":"永康區","LI":"五王里","LIN":"21鄰","STREET":"振興路","SECT":" ","MAREA":" ","LANE":" ","ALLEY":" ","HOUSE_NO":"２４號","E_COORD97":171422.14000000001,"N_COORD97":2545756.0499999998,"ADDRESS":"振興路２４號","OBJECTID":553589},"geometry":{"x":171422.13999999966,"y":2545756.0500000007}},{"attributes":{"ID":553617,"DIS_CODE":0,"TOWNNAME":"永康區","LI":"五王里","LIN":"21鄰","STREET":"振興路","SECT":" ","MAREA":" ","LANE":" ","ALLEY":" ","HOUSE_NO":"２０號","E_COORD97":171415.39999999999,"N_COORD97":2545751.5499999998,"ADDRESS":"振興路２０號","OBJECTID":553590},"geometry":{"x":171415.4000000013,"y":2545751.5500000026}},{"attributes":{"ID":553618,"DIS_CODE":0,"TOWNNAME":"永康區","LI":"正強里","LIN":"21鄰","STREET":"中正路","SECT":" ","MAREA":" ","LANE":" ","ALLEY":" ","HOUSE_NO":"１２５號之２","E_COORD97":173406.32999999999,"N_COORD97":2547870.2999999998,"ADDRESS":"中正路１２５號之２","OBJECTID":553591},"geometry":{"x":173406.33000000007,"y":2547870.3000000007}},{"attributes":{"ID":553619,"DIS_CODE":0,"TOWNNAME":"永康區","LI":"五王里","LIN":"21鄰","STREET":"振興路","SECT":" ","MAREA":" ","LANE":" ","ALLEY":" ","HOUSE_NO":"１９號","E_COORD97":171417.03,"N_COORD97":2545776.7400000002,"ADDRESS":"振興路１９號","OBJECTID":553592},"geometry":{"x":171417.03000000026,"y":2545776.7400000021}},{"attributes":{"ID":553620,"DIS_CODE":0,"TOWNNAME":"永康區","LI":"五王里","LIN":"21鄰","STREET":"振興路","SECT":" ","MAREA":" ","LANE":" ","ALLEY":" ","HOUSE_NO":"２１號","E_COORD97":171422.42000000001,"N_COORD97":2545780.2400000002,"ADDRESS":"振興路２１號","OBJECTID":553593},"geometry":{"x":171422.41999999993,"y":2545780.2400000021}},{"attributes":{"ID":553621,"DIS_CODE":0,"TOWNNAME":"永康區","LI":"正強里","LIN":"21鄰","STREET":"中正路","SECT":" ","MAREA":" ","LANE":" ","ALLEY":" ","HOUSE_NO":"１２５號之６","E_COORD97":173391.23000000001,"N_COORD97":2547866.0499999998,"ADDRESS":"中正路１２５號之６","OBJECTID":553594},"geometry":{"x":173391.23000000138,"y":2547866.0500000045}},{"attributes":{"ID":553622,"DIS_CODE":0,"TOWNNAME":"永康區","LI":"正強里","LIN":"21鄰","STREET":"中正路","SECT":" ","MAREA":" ","LANE":" ","ALLEY":" ","HOUSE_NO":"６３號","E_COORD97":173545.73000000001,"N_COORD97":2547828.4900000002,"ADDRESS":"中正路６３號","OBJECTID":553595},"geometry":{"x":173545.73000000138,"y":2547828.4900000039}},{"attributes":{"ID":553623,"DIS_CODE":0,"TOWNNAME":"新市區","LI":"新和里","LIN":"21鄰","STREET":"中正路","SECT":" ","MAREA":" ","LANE":" ","ALLEY":" ","HOUSE_NO":"１５０號","E_COORD97":177402.12,"N_COORD97":2552659.25,"ADDRESS":"中正路１５０號","OBJECTID":553596},"geometry":{"x":177402.11999999918,"y":2552659.2500000019}},{"attributes":{"ID":553624,"DIS_CODE":0,"TOWNNAME":"永康區","LI":"正強里","LIN":"21鄰","STREET":"中正路","SECT":" ","MAREA":" ","LANE":" ","ALLEY":" ","HOUSE_NO":"６７之２號","E_COORD97":173531.59,"N_COORD97":2547844.79,"ADDRESS":"中正路６７之２號","OBJECTID":553597},"geometry":{"x":173531.58999999985,"y":2547844.7899999991}},{"attributes":{"ID":553625,"DIS_CODE":0,"TOWNNAME":"永康區","LI":"五王里","LIN":"21鄰","STREET":"振興路","SECT":" ","MAREA":" ","LANE":" ","ALLEY":" ","HOUSE_NO":"１２號","E_COORD97":171403.26000000001,"N_COORD97":2545739.5499999998,"ADDRESS":"振興路１２號","OBJECTID":553598},"geometry":{"x":171403.25999999885,"y":2545739.5500000007}},{"attributes":{"ID":553626,"DIS_CODE":0,"TOWNNAME":"永康區","LI":"五王里","LIN":"21鄰","STREET":"振興路","SECT":" ","MAREA":" ","LANE":" ","ALLEY":" ","HOUSE_NO":"５６號","E_COORD97":171476.16,"N_COORD97":2545795.96,"ADDRESS":"振興路５６號","OBJECTID":553599},"geometry":{"x":171476.16000000108,"y":2545795.9600000028}},{"attributes":{"ID":553627,"DIS_CODE":0,"TOWNNAME":"新市區","LI":"新和里","LIN":"21鄰","STREET":"中正路","SECT":" ","MAREA":" ","LANE":" ","ALLEY":" ","HOUSE_NO":"１０４號","E_COORD97":177428.91,"N_COORD97":2552528.25,"ADDRESS":"中正路１０４號","OBJECTID":553600},"geometry":{"x":177428.91000000015,"y":2552528.25}}]}