{"displayFieldName":"TOWNNAME","fieldAliases":{"ID":"ID","DIS_CODE":"DIS_CODE","TOWNNAME":"TOWNNAME","LI":"LI","LIN":"LIN","STREET":"STREET","SECT":"SECT","MAREA":"MAREA","LANE":"LANE","ALLEY":"ALLEY","HOUSE_NO":"HOUSE_NO","E_COORD97":"E_COORD97","N_COORD97":"N_COORD97","ADDRESS":"ADDRESS","OBJECTID":"OBJECTID"},"geometryType":"esriGeometryPoint","spatialReference":{"wkid":102443,"latestWkid":3826},"fields":[{"name":"ID","type":"esriFieldTypeDouble","alias":"ID"},{"name":"DIS_CODE","type":"esriFieldTypeInteger","alias":"DIS_CODE"},{"name":"TOWNNAME","type":"esriFieldTypeString","alias":"TOWNNAME","length":8},{"name":"LI","type":"esriFieldTypeString","alias":"LI","length":8},{"name":"LIN","type":"esriFieldTypeString","alias":"LIN","length":12},{"name":"STREET","type":"esriFieldTypeString","alias":"STREET","length":20},{"name":"SECT","type":"esriFieldTypeString","alias":"SECT","length":8},{"name":"MAREA","type":"esriFieldTypeString","alias":"MAREA","length":12},{"name":"LANE","type":"esriFieldTypeString","alias":"LANE","length":10},{"name":"ALLEY","type":"esriFieldTypeString","alias":"ALLEY","length":10},{"name":"HOUSE_NO","type":"esriFieldTypeString","alias":"HOUSE_NO","length":20},{"name":"E_COORD97","type":"esriFieldTypeDouble","alias":"E_COORD97"},{"name":"N_COORD97","type":"esriFieldTypeDouble","alias":"N_COORD97"},{"name":"ADDRESS","type":"esriFieldTypeString","alias":"ADDRESS","length":50},{"name":"OBJECTID","type":"esriFieldTypeOID","alias":"OBJECTID"}],"features":[{"attributes":{"ID":378611,"DIS_CODE":0,"TOWNNAME":"永康區","LI":"網寮里","LIN":"21鄰","STREET":"文化路","SECT":" ","MAREA":" ","LANE":"２４２巷","ALLEY":" ","HOUSE_NO":"２６之５號","E_COORD97":173598.92000000001,"N_COORD97":2546181.0699999998,"ADDRESS":"文化路２４２巷２６之５號","OBJECTID":378601},"geometry":{"x":173598.91999999993,"y":2546181.0700000022}},{"attributes":{"ID":378612,"DIS_CODE":0,"TOWNNAME":"永康區","LI":"網寮里","LIN":"21鄰","STREET":"文化路","SECT":" ","MAREA":" ","LANE":"２４２巷","ALLEY":" ","HOUSE_NO":"３０之１３號","E_COORD97":173572.53,"N_COORD97":2546192.0299999998,"ADDRESS":"文化路２４２巷３０之１３號","OBJECTID":378602},"geometry":{"x":173572.53000000119,"y":2546192.0299999993}},{"attributes":{"ID":378613,"DIS_CODE":0,"TOWNNAME":"永康區","LI":"網寮里","LIN":"21鄰","STREET":"文化路","SECT":" ","MAREA":" ","LANE":"２６１巷","ALLEY":" ","HOUSE_NO":"２３號","E_COORD97":173638.35000000001,"N_COORD97":2546100.3300000001,"ADDRESS":"文化路２６１巷２３號","OBJECTID":378603},"geometry":{"x":173638.34999999963,"y":2546100.3300000038}},{"attributes":{"ID":378614,"DIS_CODE":0,"TOWNNAME":"永康區","LI":"復國里","LIN":"21鄰","STREET":"復國一路","SECT":" ","MAREA":" ","LANE":"３４１巷","ALLEY":" ","HOUSE_NO":"６號","E_COORD97":172729.70000000001,"N_COORD97":2545787.4900000002,"ADDRESS":"復國一路３４１巷６號","OBJECTID":378604},"geometry":{"x":172729.69999999925,"y":2545787.4900000039}},{"attributes":{"ID":378615,"DIS_CODE":0,"TOWNNAME":"永康區","LI":"崑山里","LIN":"21鄰","STREET":"大灣路","SECT":" ","MAREA":" ","LANE":"９４２巷","ALLEY":" ","HOUSE_NO":"５８號","E_COORD97":173679.19,"N_COORD97":2544625.8999999999,"ADDRESS":"大灣路９４２巷５８號","OBJECTID":378605},"geometry":{"x":173679.19000000041,"y":2544625.9000000022}},{"attributes":{"ID":378616,"DIS_CODE":0,"TOWNNAME":"永康區","LI":"崑山里","LIN":"21鄰","STREET":"大灣路","SECT":" ","MAREA":" ","LANE":"９４２巷","ALLEY":" ","HOUSE_NO":"４８號","E_COORD97":173670.54000000001,"N_COORD97":2544601.3999999999,"ADDRESS":"大灣路９４２巷４８號","OBJECTID":378606},"geometry":{"x":173670.54000000097,"y":2544601.4000000004}},{"attributes":{"ID":378617,"DIS_CODE":0,"TOWNNAME":"永康區","LI":"崑山里","LIN":"21鄰","STREET":"大灣路","SECT":" ","MAREA":" ","LANE":"９４２巷","ALLEY":" ","HOUSE_NO":"５６號","E_COORD97":173677.07999999999,"N_COORD97":2544619.8999999999,"ADDRESS":"大灣路９４２巷５６號","OBJECTID":378607},"geometry":{"x":173677.08000000101,"y":2544619.9000000022}},{"attributes":{"ID":378618,"DIS_CODE":0,"TOWNNAME":"永康區","LI":"崑山里","LIN":"21鄰","STREET":"大灣路","SECT":" ","MAREA":" ","LANE":"９４２巷","ALLEY":" ","HOUSE_NO":"５０號","E_COORD97":173672.17999999999,"N_COORD97":2544605.8999999999,"ADDRESS":"大灣路９４２巷５０號","OBJECTID":378608},"geometry":{"x":173672.18000000063,"y":2544605.9000000022}},{"attributes":{"ID":378619,"DIS_CODE":0,"TOWNNAME":"永康區","LI":"崑山里","LIN":"21鄰","STREET":"大灣路","SECT":" ","MAREA":" ","LANE":"９４２巷","ALLEY":" ","HOUSE_NO":"６８號","E_COORD97":173688.89000000001,"N_COORD97":2544657.3100000001,"ADDRESS":"大灣路９４２巷６８號","OBJECTID":378609},"geometry":{"x":173688.88999999966,"y":2544657.3100000024}},{"attributes":{"ID":378620,"DIS_CODE":0,"TOWNNAME":"永康區","LI":"崑山里","LIN":"21鄰","STREET":"大灣路","SECT":" ","MAREA":" ","LANE":"９４２巷","ALLEY":" ","HOUSE_NO":"５４號","E_COORD97":173675.48999999999,"N_COORD97":2544615.1499999999,"ADDRESS":"大灣路９４２巷５４號","OBJECTID":378610},"geometry":{"x":173675.49000000209,"y":2544615.1500000022}},{"attributes":{"ID":378621,"DIS_CODE":0,"TOWNNAME":"永康區","LI":"崑山里","LIN":"21鄰","STREET":"大灣路","SECT":" ","MAREA":" ","LANE":"９４２巷","ALLEY":" ","HOUSE_NO":"６４號","E_COORD97":173685.94,"N_COORD97":2544648.5600000001,"ADDRESS":"大灣路９４２巷６４號","OBJECTID":378611},"geometry":{"x":173685.94000000041,"y":2544648.5600000024}},{"attributes":{"ID":378622,"DIS_CODE":0,"TOWNNAME":"東區","LI":"莊敬里","LIN":"21鄰","STREET":"莊敬路","SECT":" ","MAREA":" ","LANE":"１３６巷","ALLEY":" ","HOUSE_NO":"５號","E_COORD97":171400.07999999999,"N_COORD97":2544039.6800000002,"ADDRESS":"莊敬路１３６巷５號","OBJECTID":378612},"geometry":{"x":171400.08000000101,"y":2544039.6800000034}},{"attributes":{"ID":378623,"DIS_CODE":0,"TOWNNAME":"東區","LI":"莊敬里","LIN":"21鄰","STREET":"莊敬路","SECT":" ","MAREA":" ","LANE":"１３６巷","ALLEY":" ","HOUSE_NO":"７號","E_COORD97":171405.20000000001,"N_COORD97":2544040.7400000002,"ADDRESS":"莊敬路１３６巷７號","OBJECTID":378613},"geometry":{"x":171405.20000000019,"y":2544040.7400000021}},{"attributes":{"ID":378624,"DIS_CODE":0,"TOWNNAME":"東區","LI":"莊敬里","LIN":"21鄰","STREET":"莊敬路","SECT":" ","MAREA":" ","LANE":"１５８巷","ALLEY":" ","HOUSE_NO":"２８號","E_COORD97":171438.47,"N_COORD97":2544074.9900000002,"ADDRESS":"莊敬路１５８巷２８號","OBJECTID":378614},"geometry":{"x":171438.46999999974,"y":2544074.9900000002}},{"attributes":{"ID":378625,"DIS_CODE":0,"TOWNNAME":"東區","LI":"莊敬里","LIN":"21鄰","STREET":"莊敬路","SECT":" ","MAREA":" ","LANE":"１５８巷","ALLEY":" ","HOUSE_NO":"４號","E_COORD97":171401.34,"N_COORD97":2544081.9700000002,"ADDRESS":"莊敬路１５８巷４號","OBJECTID":378615},"geometry":{"x":171401.34000000078,"y":2544081.9700000007}},{"attributes":{"ID":378626,"DIS_CODE":0,"TOWNNAME":"東區","LI":"莊敬里","LIN":"21鄰","STREET":"莊敬路","SECT":" ","MAREA":" ","LANE":"１５８巷","ALLEY":" ","HOUSE_NO":"６號","E_COORD97":171404.67000000001,"N_COORD97":2544079.3700000001,"ADDRESS":"莊敬路１５８巷６號","OBJECTID":378616},"geometry":{"x":171404.67000000086,"y":2544079.370000001}},{"attributes":{"ID":378627,"DIS_CODE":0,"TOWNNAME":"東區","LI":"莊敬里","LIN":"21鄰","STREET":"東平路","SECT":" ","MAREA":" ","LANE":"１２巷","ALLEY":" ","HOUSE_NO":"１９號","E_COORD97":171441.01000000001,"N_COORD97":2544053.04,"ADDRESS":"東平路１２巷１９號","OBJECTID":378617},"geometry":{"x":171441.01000000071,"y":2544053.0399999991}},{"attributes":{"ID":378628,"DIS_CODE":0,"TOWNNAME":"東區","LI":"莊敬里","LIN":"21鄰","STREET":"莊敬路","SECT":" ","MAREA":" ","LANE":"１３６巷","ALLEY":" ","HOUSE_NO":"１５號","E_COORD97":171423.60000000001,"N_COORD97":2544038.0600000001,"ADDRESS":"莊敬路１３６巷１５號","OBJECTID":378618},"geometry":{"x":171423.60000000056,"y":2544038.0600000042}},{"attributes":{"ID":378629,"DIS_CODE":0,"TOWNNAME":"東區","LI":"莊敬里","LIN":"21鄰","STREET":"莊敬路","SECT":" ","MAREA":" ","LANE":"１５８巷","ALLEY":" ","HOUSE_NO":"３０號","E_COORD97":171444.81,"N_COORD97":2544073.2000000002,"ADDRESS":"莊敬路１５８巷３０號","OBJECTID":378619},"geometry":{"x":171444.80999999959,"y":2544073.200000003}},{"attributes":{"ID":378630,"DIS_CODE":0,"TOWNNAME":"東區","LI":"莊敬里","LIN":"21鄰","STREET":"東平路","SECT":" ","MAREA":" ","LANE":"１２巷","ALLEY":" ","HOUSE_NO":"２３號","E_COORD97":171442.14000000001,"N_COORD97":2544060.5,"ADDRESS":"東平路１２巷２３號","OBJECTID":378620},"geometry":{"x":171442.1400000006,"y":2544060.5}},{"attributes":{"ID":378631,"DIS_CODE":0,"TOWNNAME":"東區","LI":"莊敬里","LIN":"21鄰","STREET":"東平路","SECT":" ","MAREA":" ","LANE":"１２巷","ALLEY":" ","HOUSE_NO":"１７號","E_COORD97":171440.44,"N_COORD97":2544048.5699999998,"ADDRESS":"東平路１２巷１７號","OBJECTID":378621},"geometry":{"x":171440.44000000134,"y":2544048.5700000022}},{"attributes":{"ID":378632,"DIS_CODE":0,"TOWNNAME":"東區","LI":"莊敬里","LIN":"21鄰","STREET":"莊敬路","SECT":" ","MAREA":" ","LANE":"１３６巷","ALLEY":" ","HOUSE_NO":"９號","E_COORD97":171409.75,"N_COORD97":2544038.4700000002,"ADDRESS":"莊敬路１３６巷９號","OBJECTID":378622},"geometry":{"x":171409.75,"y":2544038.4699999988}},{"attributes":{"ID":378633,"DIS_CODE":0,"TOWNNAME":"東區","LI":"莊敬里","LIN":"21鄰","STREET":"莊敬路","SECT":" ","MAREA":" ","LANE":"１３６巷","ALLEY":" ","HOUSE_NO":"２１號","E_COORD97":171437.34,"N_COORD97":2544035.3799999999,"ADDRESS":"莊敬路１３６巷２１號","OBJECTID":378623},"geometry":{"x":171437.34000000078,"y":2544035.3800000008}},{"attributes":{"ID":378634,"DIS_CODE":0,"TOWNNAME":"東區","LI":"莊敬里","LIN":"21鄰","STREET":"莊敬路","SECT":" ","MAREA":" ","LANE":"１３６巷","ALLEY":" ","HOUSE_NO":"２３號","E_COORD97":171441.64999999999,"N_COORD97":2544032.9399999999,"ADDRESS":"莊敬路１３６巷２３號","OBJECTID":378624},"geometry":{"x":171441.65000000037,"y":2544032.9399999995}},{"attributes":{"ID":378635,"DIS_CODE":0,"TOWNNAME":"東區","LI":"莊敬里","LIN":"21鄰","STREET":"莊敬路","SECT":" ","MAREA":" ","LANE":"１５８巷","ALLEY":" ","HOUSE_NO":"２號","E_COORD97":171396.95000000001,"N_COORD97":2544080.75,"ADDRESS":"莊敬路１５８巷２號","OBJECTID":378625},"geometry":{"x":171396.95000000019,"y":2544080.7500000019}},{"attributes":{"ID":378636,"DIS_CODE":0,"TOWNNAME":"東區","LI":"莊敬里","LIN":"21鄰","STREET":"莊敬路","SECT":" ","MAREA":" ","LANE":"１５８巷","ALLEY":" ","HOUSE_NO":"２２號","E_COORD97":171427.51000000001,"N_COORD97":2544079.21,"ADDRESS":"莊敬路１５８巷２２號","OBJECTID":378626},"geometry":{"x":171427.51000000071,"y":2544079.2100000028}},{"attributes":{"ID":378637,"DIS_CODE":0,"TOWNNAME":"東區","LI":"莊敬里","LIN":"21鄰","STREET":"莊敬路","SECT":" ","MAREA":" ","LANE":"１５８巷","ALLEY":" ","HOUSE_NO":"２６號","E_COORD97":171434.89999999999,"N_COORD97":2544078.0699999998,"ADDRESS":"莊敬路１５８巷２６號","OBJECTID":378627},"geometry":{"x":171434.90000000037,"y":2544078.0699999984}},{"attributes":{"ID":378638,"DIS_CODE":0,"TOWNNAME":"永康區","LI":"\u25A0行里","LIN":"37鄰","STREET":"仁愛街","SECT":" ","MAREA":" ","LANE":"８４巷","ALLEY":" ","HOUSE_NO":"１號","E_COORD97":172067.91,"N_COORD97":2549418.6600000001,"ADDRESS":"仁愛街８４巷１號","OBJECTID":378628},"geometry":{"x":172067.91000000108,"y":2549418.660000002}},{"attributes":{"ID":378639,"DIS_CODE":0,"TOWNNAME":"中西區","LI":"西湖里","LIN":"21鄰","STREET":"湖美街","SECT":" ","MAREA":" ","LANE":"２２巷","ALLEY":" ","HOUSE_NO":"１０號","E_COORD97":165985.64999999999,"N_COORD97":2544505,"ADDRESS":"湖美街２２巷１０號","OBJECTID":378629},"geometry":{"x":165985.6500000013,"y":2544505}},{"attributes":{"ID":378640,"DIS_CODE":0,"TOWNNAME":"中西區","LI":"西湖里","LIN":"21鄰","STREET":"湖美街","SECT":" ","MAREA":" ","LANE":"２２巷","ALLEY":" ","HOUSE_NO":"１１號","E_COORD97":165988.85999999999,"N_COORD97":2544532.77,"ADDRESS":"湖美街２２巷１１號","OBJECTID":378630},"geometry":{"x":165988.8600000022,"y":2544532.7699999996}},{"attributes":{"ID":378641,"DIS_CODE":0,"TOWNNAME":"中西區","LI":"西湖里","LIN":"21鄰","STREET":"湖美街","SECT":" ","MAREA":" ","LANE":"２２巷","ALLEY":" ","HOUSE_NO":"１２號","E_COORD97":165989.92999999999,"N_COORD97":2544505.7999999998,"ADDRESS":"湖美街２２巷１２號","OBJECTID":378631},"geometry":{"x":165989.93000000063,"y":2544505.8000000026}},{"attributes":{"ID":378642,"DIS_CODE":0,"TOWNNAME":"中西區","LI":"西湖里","LIN":"21鄰","STREET":"湖美街","SECT":" ","MAREA":" ","LANE":"２２巷","ALLEY":" ","HOUSE_NO":"１３號","E_COORD97":165993.67000000001,"N_COORD97":2544532.77,"ADDRESS":"湖美街２２巷１３號","OBJECTID":378632},"geometry":{"x":165993.67000000086,"y":2544532.7699999996}},{"attributes":{"ID":378643,"DIS_CODE":0,"TOWNNAME":"中西區","LI":"西湖里","LIN":"21鄰","STREET":"湖美街","SECT":" ","MAREA":" ","LANE":"２２巷","ALLEY":" ","HOUSE_NO":"１４號","E_COORD97":165994.20999999999,"N_COORD97":2544504.46,"ADDRESS":"湖美街２２巷１４號","OBJECTID":378633},"geometry":{"x":165994.20999999996,"y":2544504.4600000028}},{"attributes":{"ID":378644,"DIS_CODE":0,"TOWNNAME":"中西區","LI":"西湖里","LIN":"21鄰","STREET":"湖美街","SECT":" ","MAREA":" ","LANE":"２２巷","ALLEY":" ","HOUSE_NO":"１５號","E_COORD97":165997.42000000001,"N_COORD97":2544533.8399999999,"ADDRESS":"湖美街２２巷１５號","OBJECTID":378634},"geometry":{"x":165997.41999999993,"y":2544533.8400000036}},{"attributes":{"ID":378645,"DIS_CODE":0,"TOWNNAME":"永康區","LI":"\u25A0行里","LIN":"3鄰","STREET":"中正路","SECT":" ","MAREA":" ","LANE":"８７２巷","ALLEY":" ","HOUSE_NO":"１０號","E_COORD97":172090.32999999999,"N_COORD97":2548852.3199999998,"ADDRESS":"中正路８７２巷１０號","OBJECTID":378635},"geometry":{"x":172090.33000000101,"y":2548852.3200000003}},{"attributes":{"ID":378646,"DIS_CODE":0,"TOWNNAME":"永康區","LI":"\u25A0洲里","LIN":"24鄰","STREET":"正南二街","SECT":" ","MAREA":" ","LANE":"８６巷","ALLEY":" ","HOUSE_NO":"３２號","E_COORD97":170813.60999999999,"N_COORD97":2548526.25,"ADDRESS":"正南二街８６巷３２號","OBJECTID":378636},"geometry":{"x":170813.61000000127,"y":2548526.2500000019}},{"attributes":{"ID":378647,"DIS_CODE":0,"TOWNNAME":"永康區","LI":"\u25A0行里","LIN":"47鄰","STREET":"新行街","SECT":" ","MAREA":" ","LANE":"４巷","ALLEY":" ","HOUSE_NO":"３７號","E_COORD97":172309.32000000001,"N_COORD97":2548811.8199999998,"ADDRESS":"新行街４巷３７號","OBJECTID":378637},"geometry":{"x":172309.32000000123,"y":2548811.8200000003}},{"attributes":{"ID":378648,"DIS_CODE":0,"TOWNNAME":"永康區","LI":"\u25A0行里","LIN":"44鄰","STREET":"\u25A0平街","SECT":" ","MAREA":" ","LANE":"２３２巷","ALLEY":" ","HOUSE_NO":"１３號","E_COORD97":171998.81,"N_COORD97":2548238.2400000002,"ADDRESS":"\u25A0平街２３２巷１３號","OBJECTID":378638},"geometry":{"x":171998.80999999959,"y":2548238.2400000021}},{"attributes":{"ID":378649,"DIS_CODE":0,"TOWNNAME":"中西區","LI":"西湖里","LIN":"21鄰","STREET":"湖美街","SECT":" ","MAREA":" ","LANE":"２２巷","ALLEY":" ","HOUSE_NO":"１８號","E_COORD97":166002.5,"N_COORD97":2544505,"ADDRESS":"湖美街２２巷１８號","OBJECTID":378639},"geometry":{"x":166002.5,"y":2544505}},{"attributes":{"ID":378650,"DIS_CODE":0,"TOWNNAME":"中西區","LI":"西湖里","LIN":"21鄰","STREET":"湖美街","SECT":" ","MAREA":" ","LANE":"２２巷","ALLEY":" ","HOUSE_NO":"１９號","E_COORD97":166005.97,"N_COORD97":2544533.04,"ADDRESS":"湖美街２２巷１９號","OBJECTID":378640},"geometry":{"x":166005.96999999881,"y":2544533.040000001}},{"attributes":{"ID":378651,"DIS_CODE":0,"TOWNNAME":"中西區","LI":"西湖里","LIN":"21鄰","STREET":"湖美街","SECT":" ","MAREA":" ","LANE":"２２巷","ALLEY":" ","HOUSE_NO":"２０號","E_COORD97":166007.04000000001,"N_COORD97":2544505.7999999998,"ADDRESS":"湖美街２２巷２０號","OBJECTID":378641},"geometry":{"x":166007.04000000004,"y":2544505.8000000026}},{"attributes":{"ID":378652,"DIS_CODE":0,"TOWNNAME":"中西區","LI":"西湖里","LIN":"21鄰","STREET":"湖美街","SECT":" ","MAREA":" ","LANE":"２２巷","ALLEY":" ","HOUSE_NO":"２１號","E_COORD97":166009.98999999999,"N_COORD97":2544533.8399999999,"ADDRESS":"湖美街２２巷２１號","OBJECTID":378642},"geometry":{"x":166009.99000000209,"y":2544533.8400000036}},{"attributes":{"ID":378653,"DIS_CODE":0,"TOWNNAME":"中西區","LI":"西湖里","LIN":"21鄰","STREET":"湖美街","SECT":" ","MAREA":" ","LANE":"２２巷","ALLEY":" ","HOUSE_NO":"２２號","E_COORD97":166011.06,"N_COORD97":2544505.5299999998,"ADDRESS":"湖美街２２巷２２號","OBJECTID":378643},"geometry":{"x":166011.06000000052,"y":2544505.5300000012}},{"attributes":{"ID":378654,"DIS_CODE":0,"TOWNNAME":"中西區","LI":"西湖里","LIN":"21鄰","STREET":"湖美街","SECT":" ","MAREA":" ","LANE":"２２巷","ALLEY":" ","HOUSE_NO":"２３號","E_COORD97":166014.26000000001,"N_COORD97":2544533.8399999999,"ADDRESS":"湖美街２２巷２３號","OBJECTID":378644},"geometry":{"x":166014.25999999885,"y":2544533.8400000036}},{"attributes":{"ID":378655,"DIS_CODE":0,"TOWNNAME":"中西區","LI":"西湖里","LIN":"21鄰","STREET":"湖美街","SECT":" ","MAREA":" ","LANE":"２２巷","ALLEY":" ","HOUSE_NO":"２４號","E_COORD97":166015.60000000001,"N_COORD97":2544506.0600000001,"ADDRESS":"湖美街２２巷２４號","OBJECTID":378645},"geometry":{"x":166015.60000000056,"y":2544506.0600000042}},{"attributes":{"ID":378656,"DIS_CODE":0,"TOWNNAME":"中西區","LI":"西湖里","LIN":"21鄰","STREET":"湖美街","SECT":" ","MAREA":" ","LANE":"２２巷","ALLEY":" ","HOUSE_NO":"２５號","E_COORD97":166019.07999999999,"N_COORD97":2544533.5699999998,"ADDRESS":"湖美街２２巷２５號","OBJECTID":378646},"geometry":{"x":166019.08000000007,"y":2544533.5700000022}},{"attributes":{"ID":378657,"DIS_CODE":0,"TOWNNAME":"中西區","LI":"西湖里","LIN":"21鄰","STREET":"湖美街","SECT":" ","MAREA":" ","LANE":"２２巷","ALLEY":" ","HOUSE_NO":"２６號","E_COORD97":166019.07999999999,"N_COORD97":2544507.6699999999,"ADDRESS":"湖美街２２巷２６號","OBJECTID":378647},"geometry":{"x":166019.08000000007,"y":2544507.6699999981}},{"attributes":{"ID":378658,"DIS_CODE":0,"TOWNNAME":"中西區","LI":"西湖里","LIN":"21鄰","STREET":"湖美街","SECT":" ","MAREA":" ","LANE":"２２巷","ALLEY":" ","HOUSE_NO":"２７號","E_COORD97":166023.35999999999,"N_COORD97":2544534.1099999999,"ADDRESS":"湖美街２２巷２７號","OBJECTID":378648},"geometry":{"x":166023.36000000127,"y":2544534.1099999994}},{"attributes":{"ID":378659,"DIS_CODE":0,"TOWNNAME":"永康區","LI":"龍潭里","LIN":"40鄰","STREET":"國民路","SECT":" ","MAREA":" ","LANE":"２０１巷","ALLEY":" ","HOUSE_NO":"９號","E_COORD97":174506.38,"N_COORD97":2547101.0099999998,"ADDRESS":"國民路２０１巷９號","OBJECTID":378649},"geometry":{"x":174506.37999999989,"y":2547101.0099999998}},{"attributes":{"ID":378660,"DIS_CODE":0,"TOWNNAME":"中西區","LI":"西湖里","LIN":"21鄰","STREET":"湖美街","SECT":" ","MAREA":" ","LANE":"２２巷","ALLEY":" ","HOUSE_NO":"２８號","E_COORD97":166023.62,"N_COORD97":2544505.7999999998,"ADDRESS":"湖美街２２巷２８號","OBJECTID":378650},"geometry":{"x":166023.62000000011,"y":2544505.8000000026}},{"attributes":{"ID":378661,"DIS_CODE":0,"TOWNNAME":"永康區","LI":"\u25A0行里","LIN":"6鄰","STREET":"新行街","SECT":" ","MAREA":" ","LANE":"３３巷","ALLEY":" ","HOUSE_NO":"６號","E_COORD97":172232.48999999999,"N_COORD97":2548833.6699999999,"ADDRESS":"新行街３３巷６號","OBJECTID":378651},"geometry":{"x":172232.49000000022,"y":2548833.6699999999}},{"attributes":{"ID":378662,"DIS_CODE":0,"TOWNNAME":"永康區","LI":"\u25A0行里","LIN":"27鄰","STREET":"中正南路","SECT":" ","MAREA":" ","LANE":"３６０巷","ALLEY":" ","HOUSE_NO":"２號","E_COORD97":170992.64999999999,"N_COORD97":2548045.9900000002,"ADDRESS":"中正南路３６０巷２號","OBJECTID":378652},"geometry":{"x":170992.65000000037,"y":2548045.9900000021}},{"attributes":{"ID":378663,"DIS_CODE":0,"TOWNNAME":"永康區","LI":"\u25A0行里","LIN":"41鄰","STREET":"永安路","SECT":" ","MAREA":" ","LANE":"１６５巷","ALLEY":" ","HOUSE_NO":"１１５號","E_COORD97":172471.88,"N_COORD97":2549432.5699999998,"ADDRESS":"永安路１６５巷１１５號","OBJECTID":378653},"geometry":{"x":172471.87999999989,"y":2549432.5700000022}},{"attributes":{"ID":378664,"DIS_CODE":0,"TOWNNAME":"永康區","LI":"龍潭里","LIN":"34鄰","STREET":"龍埔街","SECT":" ","MAREA":" ","LANE":"１８１巷","ALLEY":" ","HOUSE_NO":"２０號","E_COORD97":174448.89999999999,"N_COORD97":2548189.4399999999,"ADDRESS":"龍埔街１８１巷２０號","OBJECTID":378654},"geometry":{"x":174448.90000000037,"y":2548189.4399999995}},{"attributes":{"ID":378665,"DIS_CODE":0,"TOWNNAME":"中西區","LI":"西湖里","LIN":"21鄰","STREET":"湖美街","SECT":" ","MAREA":" ","LANE":"２２巷","ALLEY":" ","HOUSE_NO":"２９號","E_COORD97":166027.37,"N_COORD97":2544534.9100000001,"ADDRESS":"湖美街２２巷２９號","OBJECTID":378655},"geometry":{"x":166027.37000000011,"y":2544534.910000002}},{"attributes":{"ID":378666,"DIS_CODE":0,"TOWNNAME":"中西區","LI":"西湖里","LIN":"21鄰","STREET":"湖美街","SECT":" ","MAREA":" ","LANE":"２２巷","ALLEY":" ","HOUSE_NO":"２號","E_COORD97":165968.26999999999,"N_COORD97":2544503.9300000002,"ADDRESS":"湖美街２２巷２號","OBJECTID":378656},"geometry":{"x":165968.27000000142,"y":2544503.9300000016}},{"attributes":{"ID":378667,"DIS_CODE":0,"TOWNNAME":"中西區","LI":"西湖里","LIN":"21鄰","STREET":"湖美街","SECT":" ","MAREA":" ","LANE":"２２巷","ALLEY":" ","HOUSE_NO":"４號","E_COORD97":165973.07999999999,"N_COORD97":2544503.6600000001,"ADDRESS":"湖美街２２巷４號","OBJECTID":378657},"geometry":{"x":165973.08000000007,"y":2544503.6600000001}},{"attributes":{"ID":378668,"DIS_CODE":0,"TOWNNAME":"中西區","LI":"西湖里","LIN":"21鄰","STREET":"湖美街","SECT":" ","MAREA":" ","LANE":"２２巷","ALLEY":" ","HOUSE_NO":"５號","E_COORD97":165975.76000000001,"N_COORD97":2544531.7000000002,"ADDRESS":"湖美街２２巷５號","OBJECTID":378658},"geometry":{"x":165975.76000000071,"y":2544531.7000000011}},{"attributes":{"ID":378669,"DIS_CODE":0,"TOWNNAME":"中西區","LI":"西湖里","LIN":"21鄰","STREET":"湖美街","SECT":" ","MAREA":" ","LANE":"２２巷","ALLEY":" ","HOUSE_NO":"６號","E_COORD97":165977.63,"N_COORD97":2544504.46,"ADDRESS":"湖美街２２巷６號","OBJECTID":378659},"geometry":{"x":165977.62999999989,"y":2544504.4600000028}},{"attributes":{"ID":378670,"DIS_CODE":0,"TOWNNAME":"中西區","LI":"西湖里","LIN":"21鄰","STREET":"湖美街","SECT":" ","MAREA":" ","LANE":"２２巷","ALLEY":" ","HOUSE_NO":"７號","E_COORD97":165980.57000000001,"N_COORD97":2544532.2400000002,"ADDRESS":"湖美街２２巷７號","OBJECTID":378660},"geometry":{"x":165980.57000000216,"y":2544532.2400000021}},{"attributes":{"ID":378671,"DIS_CODE":0,"TOWNNAME":"中西區","LI":"西湖里","LIN":"21鄰","STREET":"湖美街","SECT":" ","MAREA":" ","LANE":"２２巷","ALLEY":" ","HOUSE_NO":"８號","E_COORD97":165981.37,"N_COORD97":2544503.6600000001,"ADDRESS":"湖美街２２巷８號","OBJECTID":378661},"geometry":{"x":165981.37000000011,"y":2544503.6600000001}},{"attributes":{"ID":378672,"DIS_CODE":0,"TOWNNAME":"中西區","LI":"西湖里","LIN":"21鄰","STREET":"湖美街","SECT":" ","MAREA":" ","LANE":"２２巷","ALLEY":" ","HOUSE_NO":"９號","E_COORD97":165984.57999999999,"N_COORD97":2544533.5699999998,"ADDRESS":"湖美街２２巷９號","OBJECTID":378662},"geometry":{"x":165984.58000000007,"y":2544533.5700000022}},{"attributes":{"ID":378673,"DIS_CODE":0,"TOWNNAME":"善化區","LI":"胡厝里","LIN":"21鄰","STREET":"興農路","SECT":" ","MAREA":" ","LANE":"３６１巷","ALLEY":" ","HOUSE_NO":"１７號","E_COORD97":175485.63,"N_COORD97":2558944.0099999998,"ADDRESS":"興農路３６１巷１７號","OBJECTID":378663},"geometry":{"x":175485.62999999989,"y":2558944.0099999998}},{"attributes":{"ID":378674,"DIS_CODE":0,"TOWNNAME":"永康區","LI":"\u25A0行里","LIN":"29鄰","STREET":"竹林街","SECT":" ","MAREA":" ","LANE":"２４巷","ALLEY":" ","HOUSE_NO":"７之１１號","E_COORD97":172691.60000000001,"N_COORD97":2548928.8599999999,"ADDRESS":"竹林街２４巷７之１１號","OBJECTID":378664},"geometry":{"x":172691.60000000056,"y":2548928.8599999994}},{"attributes":{"ID":378675,"DIS_CODE":0,"TOWNNAME":"永康區","LI":"\u25A0行里","LIN":"36鄰","STREET":"三村一街","SECT":" ","MAREA":" ","LANE":"３０巷","ALLEY":" ","HOUSE_NO":"５號","E_COORD97":172251.59,"N_COORD97":2549281.23,"ADDRESS":"三村一街３０巷５號","OBJECTID":378665},"geometry":{"x":172251.58999999985,"y":2549281.2300000004}},{"attributes":{"ID":378676,"DIS_CODE":0,"TOWNNAME":"中西區","LI":"光賢里","LIN":"21鄰","STREET":"武聖路","SECT":" ","MAREA":" ","LANE":"２３９巷","ALLEY":" ","HOUSE_NO":"１４號","E_COORD97":166786.38,"N_COORD97":2545245.3199999998,"ADDRESS":"武聖路２３９巷１４號","OBJECTID":378666},"geometry":{"x":166786.37999999989,"y":2545245.3200000003}},{"attributes":{"ID":378677,"DIS_CODE":0,"TOWNNAME":"中西區","LI":"光賢里","LIN":"21鄰","STREET":"武聖路","SECT":" ","MAREA":" ","LANE":"２３９巷","ALLEY":" ","HOUSE_NO":"１５號","E_COORD97":166814.10999999999,"N_COORD97":2545232.9300000002,"ADDRESS":"武聖路２３９巷１５號","OBJECTID":378667},"geometry":{"x":166814.11000000034,"y":2545232.9300000016}},{"attributes":{"ID":378678,"DIS_CODE":0,"TOWNNAME":"中西區","LI":"光賢里","LIN":"21鄰","STREET":"武聖路","SECT":" ","MAREA":" ","LANE":"２３９巷","ALLEY":" ","HOUSE_NO":"１６號","E_COORD97":166785.04000000001,"N_COORD97":2545240.8799999999,"ADDRESS":"武聖路２３９巷１６號","OBJECTID":378668},"geometry":{"x":166785.04000000004,"y":2545240.8799999971}},{"attributes":{"ID":378679,"DIS_CODE":0,"TOWNNAME":"中西區","LI":"光賢里","LIN":"21鄰","STREET":"武聖路","SECT":" ","MAREA":" ","LANE":"２３９巷","ALLEY":" ","HOUSE_NO":"１７號","E_COORD97":166812.07000000001,"N_COORD97":2545229.3700000001,"ADDRESS":"武聖路２３９巷１７號","OBJECTID":378669},"geometry":{"x":166812.0700000003,"y":2545229.370000001}},{"attributes":{"ID":378680,"DIS_CODE":0,"TOWNNAME":"中西區","LI":"光賢里","LIN":"21鄰","STREET":"武聖路","SECT":" ","MAREA":" ","LANE":"２３９巷","ALLEY":" ","HOUSE_NO":"１８號","E_COORD97":166783.70999999999,"N_COORD97":2545236.4500000002,"ADDRESS":"武聖路２３９巷１８號","OBJECTID":378670},"geometry":{"x":166783.70999999996,"y":2545236.4499999993}},{"attributes":{"ID":378681,"DIS_CODE":0,"TOWNNAME":"永康區","LI":"甲頂里","LIN":" ","STREET":"大武街","SECT":" ","MAREA":" ","LANE":"５９７巷","ALLEY":" ","HOUSE_NO":"７０號","E_COORD97":170271.53,"N_COORD97":2546630.75,"ADDRESS":"大武街５９７巷７０號","OBJECTID":378671},"geometry":{"x":170271.53000000119,"y":2546630.7500000019}},{"attributes":{"ID":378682,"DIS_CODE":0,"TOWNNAME":"永康區","LI":"\u25A0洲里","LIN":"25鄰","STREET":"洲工街","SECT":" ","MAREA":" ","LANE":"２２巷","ALLEY":" ","HOUSE_NO":"２號","E_COORD97":170636.81,"N_COORD97":2548158.1299999999,"ADDRESS":"洲工街２２巷２號","OBJECTID":378672},"geometry":{"x":170636.81000000052,"y":2548158.129999999}},{"attributes":{"ID":378683,"DIS_CODE":0,"TOWNNAME":"永康區","LI":"\u25A0行里","LIN":"41鄰","STREET":"永安路","SECT":" ","MAREA":" ","LANE":"１６５巷","ALLEY":" ","HOUSE_NO":"１２０號","E_COORD97":172461.53,"N_COORD97":2549452.0699999998,"ADDRESS":"永安路１６５巷１２０號","OBJECTID":378673},"geometry":{"x":172461.53000000212,"y":2549452.070000004}},{"attributes":{"ID":378684,"DIS_CODE":0,"TOWNNAME":"中西區","LI":"光賢里","LIN":"21鄰","STREET":"武聖路","SECT":" ","MAREA":" ","LANE":"２３９巷","ALLEY":" ","HOUSE_NO":"２號","E_COORD97":166820.56,"N_COORD97":2545285.6699999999,"ADDRESS":"武聖路２３９巷２號","OBJECTID":378674},"geometry":{"x":166820.55999999959,"y":2545285.6700000018}},{"attributes":{"ID":378685,"DIS_CODE":0,"TOWNNAME":"中西區","LI":"光賢里","LIN":"21鄰","STREET":"武聖路","SECT":" ","MAREA":" ","LANE":"２３９巷","ALLEY":" ","HOUSE_NO":"３號","E_COORD97":166832.10999999999,"N_COORD97":2545263.0499999998,"ADDRESS":"武聖路２３９巷３號","OBJECTID":378675},"geometry":{"x":166832.11000000127,"y":2545263.0500000026}},{"attributes":{"ID":378686,"DIS_CODE":0,"TOWNNAME":"中西區","LI":"光賢里","LIN":"21鄰","STREET":"武聖路","SECT":" ","MAREA":" ","LANE":"２３９巷","ALLEY":" ","HOUSE_NO":"４號","E_COORD97":166813.89999999999,"N_COORD97":2545287,"ADDRESS":"武聖路２３９巷４號","OBJECTID":378676},"geometry":{"x":166813.90000000037,"y":2545287.0000000019}},{"attributes":{"ID":378687,"DIS_CODE":0,"TOWNNAME":"中西區","LI":"光賢里","LIN":"21鄰","STREET":"武聖路","SECT":" ","MAREA":" ","LANE":"２３９巷","ALLEY":" ","HOUSE_NO":"５號","E_COORD97":166829.44,"N_COORD97":2545258.1800000002,"ADDRESS":"武聖路２３９巷５號","OBJECTID":378677},"geometry":{"x":166829.44000000134,"y":2545258.1800000016}},{"attributes":{"ID":378688,"DIS_CODE":0,"TOWNNAME":"中西區","LI":"光賢里","LIN":"21鄰","STREET":"武聖路","SECT":" ","MAREA":" ","LANE":"２３９巷","ALLEY":" ","HOUSE_NO":"６號","E_COORD97":166793.10999999999,"N_COORD97":2545189.75,"ADDRESS":"武聖路２３９巷６號","OBJECTID":378678},"geometry":{"x":166793.11000000127,"y":2545189.7500000019}},{"attributes":{"ID":378689,"DIS_CODE":0,"TOWNNAME":"永康區","LI":"崑山里","LIN":" ","STREET":"國光六街","SECT":" ","MAREA":" ","LANE":"３７巷","ALLEY":" ","HOUSE_NO":"２號","E_COORD97":174217.92999999999,"N_COORD97":2545267.75,"ADDRESS":"國光六街３７巷２號","OBJECTID":378679},"geometry":{"x":174217.93000000156,"y":2545267.7500000019}},{"attributes":{"ID":378690,"DIS_CODE":0,"TOWNNAME":"永康區","LI":"\u25A0行里","LIN":"43鄰","STREET":"\u25A0和街","SECT":" ","MAREA":" ","LANE":"２６３巷","ALLEY":" ","HOUSE_NO":"３號","E_COORD97":171483.67999999999,"N_COORD97":2548438.4700000002,"ADDRESS":"\u25A0和街２６３巷３號","OBJECTID":378680},"geometry":{"x":171483.68000000063,"y":2548438.4700000007}},{"attributes":{"ID":378691,"DIS_CODE":0,"TOWNNAME":"善化區","LI":"小新里","LIN":"21鄰","STREET":"成功路","SECT":" ","MAREA":" ","LANE":"３巷","ALLEY":" ","HOUSE_NO":"７５號","E_COORD97":180079.492933,"N_COORD97":2558347.1047100001,"ADDRESS":"成功路３巷７５號","OBJECTID":378681},"geometry":{"x":180079.49293300137,"y":2558347.1047070008}},{"attributes":{"ID":378692,"DIS_CODE":0,"TOWNNAME":"善化區","LI":"小新里","LIN":"21鄰","STREET":"成功路","SECT":" ","MAREA":" ","LANE":"３巷","ALLEY":" ","HOUSE_NO":"７７號","E_COORD97":180076.31573999999,"N_COORD97":2558343.0830399999,"ADDRESS":"成功路３巷７７號","OBJECTID":378682},"geometry":{"x":180076.31574000046,"y":2558343.0830429997}},{"attributes":{"ID":378693,"DIS_CODE":0,"TOWNNAME":"永康區","LI":"\u25A0行里","LIN":"6鄰","STREET":"新行街","SECT":" ","MAREA":" ","LANE":"２１巷","ALLEY":" ","HOUSE_NO":"４號","E_COORD97":172208.76999999999,"N_COORD97":2548799.9700000002,"ADDRESS":"新行街２１巷４號","OBJECTID":378683},"geometry":{"x":172208.77000000048,"y":2548799.9700000025}},{"attributes":{"ID":378694,"DIS_CODE":0,"TOWNNAME":"新營區","LI":"新北里","LIN":"21鄰","STREET":"民生路","SECT":" ","MAREA":" ","LANE":"３３６巷","ALLEY":" ","HOUSE_NO":"７號","E_COORD97":178962.56,"N_COORD97":2579232.1499999999,"ADDRESS":"民生路３３６巷７號","OBJECTID":378684},"geometry":{"x":178962.55999999959,"y":2579232.1500000004}},{"attributes":{"ID":378695,"DIS_CODE":0,"TOWNNAME":"永康區","LI":"\u25A0行里","LIN":"20鄰","STREET":"正南五街","SECT":" ","MAREA":" ","LANE":"２８９巷","ALLEY":" ","HOUSE_NO":"８７號","E_COORD97":171798.35000000001,"N_COORD97":2548342.6000000001,"ADDRESS":"正南五街２８９巷８７號","OBJECTID":378685},"geometry":{"x":171798.35000000056,"y":2548342.6000000034}},{"attributes":{"ID":378696,"DIS_CODE":0,"TOWNNAME":"永康區","LI":"\u25A0行里","LIN":"41鄰","STREET":"永安路","SECT":" ","MAREA":" ","LANE":"１６５巷","ALLEY":" ","HOUSE_NO":"１１０號","E_COORD97":172484.98000000001,"N_COORD97":2549453.3199999998,"ADDRESS":"永安路１６５巷１１０號","OBJECTID":378686},"geometry":{"x":172484.98000000045,"y":2549453.3200000003}},{"attributes":{"ID":378697,"DIS_CODE":0,"TOWNNAME":"永康區","LI":"龍潭里","LIN":"32鄰","STREET":"龍國街","SECT":" ","MAREA":" ","LANE":"２４０巷","ALLEY":" ","HOUSE_NO":"１６號","E_COORD97":174471.76000000001,"N_COORD97":2547982.8599999999,"ADDRESS":"龍國街２４０巷１６號","OBJECTID":378687},"geometry":{"x":174471.76000000164,"y":2547982.8599999994}},{"attributes":{"ID":378698,"DIS_CODE":0,"TOWNNAME":"永康區","LI":"\u25A0洲里","LIN":"12鄰","STREET":"\u25A0洲一街","SECT":" ","MAREA":" ","LANE":"１１巷","ALLEY":" ","HOUSE_NO":"３５號","E_COORD97":171565.07999999999,"N_COORD97":2549122,"ADDRESS":"\u25A0洲一街１１巷３５號","OBJECTID":378688},"geometry":{"x":171565.08000000007,"y":2549122}},{"attributes":{"ID":378699,"DIS_CODE":0,"TOWNNAME":"新市區","LI":"港墘里","LIN":"21鄰","STREET":"華美街","SECT":" ","MAREA":" ","LANE":"７巷","ALLEY":" ","HOUSE_NO":"１１號","E_COORD97":178056.39999999999,"N_COORD97":2552783.7999999998,"ADDRESS":"華美街７巷１１號","OBJECTID":378689},"geometry":{"x":178056.40000000037,"y":2552783.8000000045}},{"attributes":{"ID":378700,"DIS_CODE":0,"TOWNNAME":"新市區","LI":"港墘里","LIN":"21鄰","STREET":"華美街","SECT":" ","MAREA":" ","LANE":"７巷","ALLEY":" ","HOUSE_NO":"１５號","E_COORD97":178047.60000000001,"N_COORD97":2552783.0499999998,"ADDRESS":"華美街７巷１５號","OBJECTID":378690},"geometry":{"x":178047.5999999987,"y":2552783.0500000026}},{"attributes":{"ID":378701,"DIS_CODE":0,"TOWNNAME":"新市區","LI":"新市里","LIN":"21鄰","STREET":"和平街","SECT":" ","MAREA":" ","LANE":"３２巷","ALLEY":" ","HOUSE_NO":"５號","E_COORD97":177702.98999999999,"N_COORD97":2553485.5,"ADDRESS":"和平街３２巷５號","OBJECTID":378691},"geometry":{"x":177702.99000000022,"y":2553485.5}},{"attributes":{"ID":378702,"DIS_CODE":0,"TOWNNAME":"新市區","LI":"新市里","LIN":"21鄰","STREET":"和平街","SECT":" ","MAREA":" ","LANE":"５０巷","ALLEY":" ","HOUSE_NO":"８號","E_COORD97":177674.12,"N_COORD97":2553483.5,"ADDRESS":"和平街５０巷８號","OBJECTID":378692},"geometry":{"x":177674.12000000104,"y":2553483.5000000037}},{"attributes":{"ID":378703,"DIS_CODE":0,"TOWNNAME":"新市區","LI":"港墘里","LIN":"21鄰","STREET":"華美街","SECT":" ","MAREA":" ","LANE":"７巷","ALLEY":" ","HOUSE_NO":"１７號","E_COORD97":178043.20000000001,"N_COORD97":2552782.5499999998,"ADDRESS":"華美街７巷１７號","OBJECTID":378693},"geometry":{"x":178043.20000000112,"y":2552782.5500000026}},{"attributes":{"ID":378704,"DIS_CODE":0,"TOWNNAME":"新市區","LI":"新市里","LIN":"21鄰","STREET":"和平街","SECT":" ","MAREA":" ","LANE":"５０巷","ALLEY":" ","HOUSE_NO":"１號","E_COORD97":177668.70999999999,"N_COORD97":2553467.5,"ADDRESS":"和平街５０巷１號","OBJECTID":378694},"geometry":{"x":177668.70999999996,"y":2553467.5000000019}},{"attributes":{"ID":378705,"DIS_CODE":0,"TOWNNAME":"新市區","LI":"港墘里","LIN":"21鄰","STREET":"華美街","SECT":" ","MAREA":" ","LANE":"７巷","ALLEY":" ","HOUSE_NO":"３號","E_COORD97":178073.37,"N_COORD97":2552785.7999999998,"ADDRESS":"華美街７巷３號","OBJECTID":378695},"geometry":{"x":178073.37000000011,"y":2552785.8000000007}},{"attributes":{"ID":378706,"DIS_CODE":0,"TOWNNAME":"新市區","LI":"港墘里","LIN":"21鄰","STREET":"華美街","SECT":" ","MAREA":" ","LANE":"７巷","ALLEY":" ","HOUSE_NO":"２３號","E_COORD97":178030.01000000001,"N_COORD97":2552781.0499999998,"ADDRESS":"華美街７巷２３號","OBJECTID":378696},"geometry":{"x":178030.01000000071,"y":2552781.0500000007}},{"attributes":{"ID":378707,"DIS_CODE":0,"TOWNNAME":"東區","LI":"崇善里","LIN":"21鄰","STREET":"崇善十一街","SECT":" ","MAREA":" ","LANE":"１２巷","ALLEY":" ","HOUSE_NO":"７號","E_COORD97":171194.78,"N_COORD97":2541159.27,"ADDRESS":"崇善十一街１２巷７號","OBJECTID":378697},"geometry":{"x":171194.78000000026,"y":2541159.2699999996}},{"attributes":{"ID":378708,"DIS_CODE":0,"TOWNNAME":"東區","LI":"崇善里","LIN":"21鄰","STREET":"崇善十一街","SECT":" ","MAREA":" ","LANE":"１２巷","ALLEY":" ","HOUSE_NO":"９號","E_COORD97":171195.66,"N_COORD97":2541155.5,"ADDRESS":"崇善十一街１２巷９號","OBJECTID":378698},"geometry":{"x":171195.66000000015,"y":2541155.5}},{"attributes":{"ID":378709,"DIS_CODE":0,"TOWNNAME":"永康區","LI":"\u25A0行里","LIN":"45鄰","STREET":"中正路","SECT":" ","MAREA":" ","LANE":"６３５巷","ALLEY":" ","HOUSE_NO":"１５號之１","E_COORD97":171725.87,"N_COORD97":2548882.8300000001,"ADDRESS":"中正路６３５巷１５號之１","OBJECTID":378699},"geometry":{"x":171725.87000000104,"y":2548882.8300000001}},{"attributes":{"ID":378710,"DIS_CODE":0,"TOWNNAME":"永康區","LI":"\u25A0行里","LIN":"42鄰","STREET":"永安二街","SECT":" ","MAREA":" ","LANE":"２５巷","ALLEY":" ","HOUSE_NO":"２２號","E_COORD97":172425.79000000001,"N_COORD97":2549530.7999999998,"ADDRESS":"永安二街２５巷２２號","OBJECTID":378700},"geometry":{"x":172425.79000000097,"y":2549530.8000000007}},{"attributes":{"ID":378711,"DIS_CODE":0,"TOWNNAME":"永康區","LI":"復國里","LIN":"21鄰","STREET":"復國一路","SECT":" ","MAREA":" ","LANE":"３４７巷","ALLEY":" ","HOUSE_NO":"６號","E_COORD97":172735.73000000001,"N_COORD97":2545809.2799999998,"ADDRESS":"復國一路３４７巷６號","OBJECTID":378701},"geometry":{"x":172735.73000000138,"y":2545809.2800000012}},{"attributes":{"ID":378712,"DIS_CODE":0,"TOWNNAME":"永康區","LI":"復國里","LIN":"21鄰","STREET":"復國一路","SECT":" ","MAREA":" ","LANE":"３４７巷","ALLEY":" ","HOUSE_NO":"２之１號","E_COORD97":172739.57999999999,"N_COORD97":2545809.2799999998,"ADDRESS":"復國一路３４７巷２之１號","OBJECTID":378702},"geometry":{"x":172739.58000000101,"y":2545809.2800000012}},{"attributes":{"ID":378713,"DIS_CODE":0,"TOWNNAME":"永康區","LI":"復國里","LIN":"21鄰","STREET":"復國一路","SECT":" ","MAREA":" ","LANE":"３４７巷","ALLEY":" ","HOUSE_NO":"１６號","E_COORD97":172717.01999999999,"N_COORD97":2545809.7799999998,"ADDRESS":"復國一路３４７巷１６號","OBJECTID":378703},"geometry":{"x":172717.02000000048,"y":2545809.7800000012}},{"attributes":{"ID":378714,"DIS_CODE":0,"TOWNNAME":"永康區","LI":"\u25A0行里","LIN":"27鄰","STREET":"中正南路","SECT":" ","MAREA":" ","LANE":"３４４巷","ALLEY":" ","HOUSE_NO":"７號","E_COORD97":171005.57999999999,"N_COORD97":2547945.7400000002,"ADDRESS":"中正南路３４４巷７號","OBJECTID":378704},"geometry":{"x":171005.58000000101,"y":2547945.7400000039}},{"attributes":{"ID":378715,"DIS_CODE":0,"TOWNNAME":"永康區","LI":"\u25A0行里","LIN":"32鄰","STREET":"三村一街","SECT":" ","MAREA":" ","LANE":"１３８巷","ALLEY":" ","HOUSE_NO":"３０號","E_COORD97":172076.85000000001,"N_COORD97":2549312.0899999999,"ADDRESS":"三村一街１３８巷３０號","OBJECTID":378705},"geometry":{"x":172076.84999999963,"y":2549312.0899999999}},{"attributes":{"ID":378716,"DIS_CODE":0,"TOWNNAME":"永康區","LI":"復國里","LIN":"21鄰","STREET":"復國一路","SECT":" ","MAREA":" ","LANE":"３４１巷","ALLEY":" ","HOUSE_NO":"２號","E_COORD97":172738.44,"N_COORD97":2545787.2400000002,"ADDRESS":"復國一路３４１巷２號","OBJECTID":378706},"geometry":{"x":172738.44000000041,"y":2545787.2400000021}},{"attributes":{"ID":378717,"DIS_CODE":0,"TOWNNAME":"永康區","LI":"崑山里","LIN":"21鄰","STREET":"大仁街","SECT":" ","MAREA":" ","LANE":"３１巷","ALLEY":" ","HOUSE_NO":"３５號","E_COORD97":173708.70999999999,"N_COORD97":2544602.8300000001,"ADDRESS":"大仁街３１巷３５號","OBJECTID":378707},"geometry":{"x":173708.70999999996,"y":2544602.8300000019}},{"attributes":{"ID":378718,"DIS_CODE":0,"TOWNNAME":"永康區","LI":"\u25A0行里","LIN":"21鄰","STREET":"正南五街","SECT":" ","MAREA":" ","LANE":"５２０巷","ALLEY":" ","HOUSE_NO":"８８號","E_COORD97":171755.81,"N_COORD97":2548696.02,"ADDRESS":"正南五街５２０巷８８號","OBJECTID":378708},"geometry":{"x":171755.81000000052,"y":2548696.0200000014}},{"attributes":{"ID":378719,"DIS_CODE":0,"TOWNNAME":"中西區","LI":"五妃里","LIN":"14鄰","STREET":"南門路","SECT":" ","MAREA":" ","LANE":"２０９巷","ALLEY":" ","HOUSE_NO":"１７號","E_COORD97":168489.01000000001,"N_COORD97":2542838.4199999999,"ADDRESS":"南門路２０９巷１７號","OBJECTID":378709},"geometry":{"x":168489.00999999978,"y":2542838.4200000018}},{"attributes":{"ID":378720,"DIS_CODE":0,"TOWNNAME":"中西區","LI":"五妃里","LIN":"14鄰","STREET":"南門路","SECT":" ","MAREA":" ","LANE":"２０９巷","ALLEY":" ","HOUSE_NO":"１９號","E_COORD97":168495.39000000001,"N_COORD97":2542837.6499999999,"ADDRESS":"南門路２０９巷１９號","OBJECTID":378710},"geometry":{"x":168495.3900000006,"y":2542837.6500000022}},{"attributes":{"ID":378721,"DIS_CODE":0,"TOWNNAME":"中西區","LI":"五妃里","LIN":"14鄰","STREET":"南門路","SECT":" ","MAREA":" ","LANE":"２０９巷","ALLEY":" ","HOUSE_NO":"１號","E_COORD97":168432.10000000001,"N_COORD97":2542850,"ADDRESS":"南門路２０９巷１號","OBJECTID":378711},"geometry":{"x":168432.09999999963,"y":2542850}},{"attributes":{"ID":378722,"DIS_CODE":0,"TOWNNAME":"中西區","LI":"五妃里","LIN":"14鄰","STREET":"南門路","SECT":" ","MAREA":" ","LANE":"２０９巷","ALLEY":" ","HOUSE_NO":"１號之１","E_COORD97":168436.82999999999,"N_COORD97":2542850.3799999999,"ADDRESS":"南門路２０９巷１號之１","OBJECTID":378712},"geometry":{"x":168436.83000000101,"y":2542850.379999999}},{"attributes":{"ID":378723,"DIS_CODE":0,"TOWNNAME":"中西區","LI":"五妃里","LIN":"14鄰","STREET":"南門路","SECT":" ","MAREA":" ","LANE":"２０９巷","ALLEY":" ","HOUSE_NO":"１號之２","E_COORD97":168441.67999999999,"N_COORD97":2542849.23,"ADDRESS":"南門路２０９巷１號之２","OBJECTID":378713},"geometry":{"x":168441.6799999997,"y":2542849.2300000004}},{"attributes":{"ID":378724,"DIS_CODE":0,"TOWNNAME":"中西區","LI":"五妃里","LIN":"14鄰","STREET":"南門路","SECT":" ","MAREA":" ","LANE":"２０９巷","ALLEY":" ","HOUSE_NO":"２１號","E_COORD97":168500.88,"N_COORD97":2542836.25,"ADDRESS":"南門路２０９巷２１號","OBJECTID":378714},"geometry":{"x":168500.88000000082,"y":2542836.2500000019}},{"attributes":{"ID":378725,"DIS_CODE":0,"TOWNNAME":"中西區","LI":"五妃里","LIN":"14鄰","STREET":"南門路","SECT":" ","MAREA":" ","LANE":"２０９巷","ALLEY":" ","HOUSE_NO":"２１號之１","E_COORD97":168497.56,"N_COORD97":2542853.3399999999,"ADDRESS":"南門路２０９巷２１號之１","OBJECTID":378715},"geometry":{"x":168497.56000000052,"y":2542853.3400000017}},{"attributes":{"ID":378726,"DIS_CODE":0,"TOWNNAME":"中西區","LI":"五妃里","LIN":"14鄰","STREET":"南門路","SECT":" ","MAREA":" ","LANE":"２０９巷","ALLEY":" ","HOUSE_NO":"２３號","E_COORD97":168507.95000000001,"N_COORD97":2542835.4199999999,"ADDRESS":"南門路２０９巷２３號","OBJECTID":378716},"geometry":{"x":168507.95000000112,"y":2542835.4200000018}},{"attributes":{"ID":378727,"DIS_CODE":0,"TOWNNAME":"永康區","LI":"龍潭里","LIN":"33鄰","STREET":"龍國街","SECT":" ","MAREA":" ","LANE":"２４０巷","ALLEY":" ","HOUSE_NO":"５號","E_COORD97":174493.54000000001,"N_COORD97":2547972.6899999999,"ADDRESS":"龍國街２４０巷５號","OBJECTID":378717},"geometry":{"x":174493.54000000004,"y":2547972.6900000013}},{"attributes":{"ID":378728,"DIS_CODE":0,"TOWNNAME":"中西區","LI":"五妃里","LIN":"14鄰","STREET":"南門路","SECT":" ","MAREA":" ","LANE":"２０９巷","ALLEY":" ","HOUSE_NO":"９號底層","E_COORD97":168456.20000000001,"N_COORD97":2542849.8999999999,"ADDRESS":"南門路２０９巷９號底層","OBJECTID":378718},"geometry":{"x":168456.20000000205,"y":2542849.9000000022}},{"attributes":{"ID":378729,"DIS_CODE":0,"TOWNNAME":"中西區","LI":"五妃里","LIN":"17鄰","STREET":"南門路","SECT":" ","MAREA":" ","LANE":"１８７巷","ALLEY":" ","HOUSE_NO":"１０號","E_COORD97":168485.35000000001,"N_COORD97":2542877.1899999999,"ADDRESS":"南門路１８７巷１０號","OBJECTID":378719},"geometry":{"x":168485.35000000056,"y":2542877.1900000013}},{"attributes":{"ID":378730,"DIS_CODE":0,"TOWNNAME":"中西區","LI":"五妃里","LIN":"17鄰","STREET":"南門路","SECT":" ","MAREA":" ","LANE":"１８７巷","ALLEY":" ","HOUSE_NO":"１６號","E_COORD97":168501.17999999999,"N_COORD97":2542876.5499999998,"ADDRESS":"南門路１８７巷１６號","OBJECTID":378720},"geometry":{"x":168501.1799999997,"y":2542876.5500000026}},{"attributes":{"ID":378731,"DIS_CODE":0,"TOWNNAME":"中西區","LI":"五妃里","LIN":"17鄰","STREET":"南門路","SECT":" ","MAREA":" ","LANE":"１８７巷","ALLEY":" ","HOUSE_NO":"１８號","E_COORD97":168507.04999999999,"N_COORD97":2542876.6800000002,"ADDRESS":"南門路１８７巷１８號","OBJECTID":378721},"geometry":{"x":168507.04999999981,"y":2542876.6800000034}},{"attributes":{"ID":378732,"DIS_CODE":0,"TOWNNAME":"中西區","LI":"五妃里","LIN":"17鄰","STREET":"南門路","SECT":" ","MAREA":" ","LANE":"１８７巷","ALLEY":" ","HOUSE_NO":"２０號","E_COORD97":168516.12,"N_COORD97":2542875.2799999998,"ADDRESS":"南門路１８７巷２０號","OBJECTID":378722},"geometry":{"x":168516.12000000197,"y":2542875.2799999993}},{"attributes":{"ID":378733,"DIS_CODE":0,"TOWNNAME":"中西區","LI":"五妃里","LIN":"17鄰","STREET":"南門路","SECT":" ","MAREA":" ","LANE":"１８７巷","ALLEY":" ","HOUSE_NO":"２０號之１","E_COORD97":168513.95000000001,"N_COORD97":2542859.3300000001,"ADDRESS":"南門路１８７巷２０號之１","OBJECTID":378723},"geometry":{"x":168513.95000000205,"y":2542859.3300000038}},{"attributes":{"ID":378734,"DIS_CODE":0,"TOWNNAME":"中西區","LI":"五妃里","LIN":"17鄰","STREET":"南門路","SECT":" ","MAREA":" ","LANE":"１８７巷","ALLEY":" ","HOUSE_NO":"２２號","E_COORD97":168524.48000000001,"N_COORD97":2542873.48,"ADDRESS":"南門路１８７巷２２號","OBJECTID":378724},"geometry":{"x":168524.48000000138,"y":2542873.4800000023}},{"attributes":{"ID":378735,"DIS_CODE":0,"TOWNNAME":"中西區","LI":"五妃里","LIN":"17鄰","STREET":"南門路","SECT":" ","MAREA":" ","LANE":"１８７巷","ALLEY":" ","HOUSE_NO":"２６號","E_COORD97":168547.72,"N_COORD97":2542869.27,"ADDRESS":"南門路１８７巷２６號","OBJECTID":378725},"geometry":{"x":168547.72000000067,"y":2542869.2700000033}},{"attributes":{"ID":378736,"DIS_CODE":0,"TOWNNAME":"永康區","LI":"\u25A0行里","LIN":"36鄰","STREET":"三村一街","SECT":" ","MAREA":" ","LANE":"３０巷","ALLEY":" ","HOUSE_NO":"１９號","E_COORD97":172251.66,"N_COORD97":2549312.98,"ADDRESS":"三村一街３０巷１９號","OBJECTID":378726},"geometry":{"x":172251.66000000015,"y":2549312.9800000004}},{"attributes":{"ID":378737,"DIS_CODE":0,"TOWNNAME":"安南區","LI":"州北里","LIN":"21鄰","STREET":"安和路","SECT":"五段","MAREA":" ","LANE":"３２５巷","ALLEY":" ","HOUSE_NO":"３０號","E_COORD97":169649.26999999999,"N_COORD97":2552043.8999999999,"ADDRESS":"安和路五段３２５巷３０號","OBJECTID":378727},"geometry":{"x":169649.27000000048,"y":2552043.9000000022}},{"attributes":{"ID":378738,"DIS_CODE":0,"TOWNNAME":"安南區","LI":"州北里","LIN":"21鄰","STREET":"安和路","SECT":"五段","MAREA":" ","LANE":"３２５巷","ALLEY":" ","HOUSE_NO":"３６號","E_COORD97":169654.88,"N_COORD97":2552027.71,"ADDRESS":"安和路五段３２５巷３６號","OBJECTID":378728},"geometry":{"x":169654.88000000175,"y":2552027.7100000009}},{"attributes":{"ID":378739,"DIS_CODE":0,"TOWNNAME":"安南區","LI":"州北里","LIN":"21鄰","STREET":"安和路","SECT":"五段","MAREA":" ","LANE":"３２９巷","ALLEY":" ","HOUSE_NO":"１２號之１","E_COORD97":169652.09,"N_COORD97":2552165.1200000001,"ADDRESS":"安和路五段３２９巷１２號之１","OBJECTID":378729},"geometry":{"x":169652.09000000078,"y":2552165.1200000029}},{"attributes":{"ID":378740,"DIS_CODE":0,"TOWNNAME":"安南區","LI":"州北里","LIN":"21鄰","STREET":"安和路","SECT":"五段","MAREA":" ","LANE":"３２９巷","ALLEY":" ","HOUSE_NO":"１２號之６","E_COORD97":169624,"N_COORD97":2552162.8700000001,"ADDRESS":"安和路五段３２９巷１２號之６","OBJECTID":378730},"geometry":{"x":169624.00000000093,"y":2552162.8699999992}},{"attributes":{"ID":378741,"DIS_CODE":0,"TOWNNAME":"仁德區","LI":"仁德里","LIN":"21鄰","STREET":"文華路","SECT":"三段","MAREA":" ","LANE":"４６７巷","ALLEY":" ","HOUSE_NO":"８號","E_COORD97":172388.73000000001,"N_COORD97":2541315.3199999998,"ADDRESS":"文華路三段４６７巷８號","OBJECTID":378731},"geometry":{"x":172388.73000000045,"y":2541315.3200000003}},{"attributes":{"ID":378742,"DIS_CODE":0,"TOWNNAME":"仁德區","LI":"仁德里","LIN":"21鄰","STREET":"文華路","SECT":"三段","MAREA":" ","LANE":"４６７巷","ALLEY":" ","HOUSE_NO":"５號","E_COORD97":172387.97,"N_COORD97":2541296.0699999998,"ADDRESS":"文華路三段４６７巷５號","OBJECTID":378732},"geometry":{"x":172387.96999999974,"y":2541296.0700000022}},{"attributes":{"ID":378743,"DIS_CODE":0,"TOWNNAME":"仁德區","LI":"仁德里","LIN":"21鄰","STREET":"文華路","SECT":"三段","MAREA":" ","LANE":"４８１巷","ALLEY":" ","HOUSE_NO":"９號","E_COORD97":172389.67000000001,"N_COORD97":2541340.8300000001,"ADDRESS":"文華路三段４８１巷９號","OBJECTID":378733},"geometry":{"x":172389.67000000086,"y":2541340.8300000019}},{"attributes":{"ID":378744,"DIS_CODE":0,"TOWNNAME":"永康區","LI":"\u25A0行里","LIN":"14鄰","STREET":"中正路","SECT":" ","MAREA":" ","LANE":"６３５巷","ALLEY":" ","HOUSE_NO":"５號","E_COORD97":171819.95000000001,"N_COORD97":2548991.0499999998,"ADDRESS":"中正路６３５巷５號","OBJECTID":378734},"geometry":{"x":171819.95000000112,"y":2548991.0500000007}},{"attributes":{"ID":378745,"DIS_CODE":0,"TOWNNAME":"東區","LI":"後甲里","LIN":"21鄰","STREET":"建東街","SECT":" ","MAREA":" ","LANE":"３５巷","ALLEY":" ","HOUSE_NO":"７號","E_COORD97":171753.29000000001,"N_COORD97":2543368.3900000001,"ADDRESS":"建東街３５巷７號","OBJECTID":378735},"geometry":{"x":171753.29000000097,"y":2543368.3900000025}},{"attributes":{"ID":378746,"DIS_CODE":0,"TOWNNAME":"東區","LI":"後甲里","LIN":"21鄰","STREET":"建東街","SECT":" ","MAREA":" ","LANE":"３５巷","ALLEY":" ","HOUSE_NO":"９號","E_COORD97":171744.54999999999,"N_COORD97":2543367.8599999999,"ADDRESS":"建東街３５巷９號","OBJECTID":378736},"geometry":{"x":171744.55000000075,"y":2543367.8600000013}},{"attributes":{"ID":378747,"DIS_CODE":0,"TOWNNAME":"東區","LI":"後甲里","LIN":"21鄰","STREET":"建東街","SECT":" ","MAREA":" ","LANE":"３７巷","ALLEY":" ","HOUSE_NO":"１３號","E_COORD97":171751.17000000001,"N_COORD97":2543379.5,"ADDRESS":"建東街３７巷１３號","OBJECTID":378737},"geometry":{"x":171751.16999999993,"y":2543379.5}},{"attributes":{"ID":378748,"DIS_CODE":0,"TOWNNAME":"東區","LI":"後甲里","LIN":"21鄰","STREET":"建東街","SECT":" ","MAREA":" ","LANE":"３７巷","ALLEY":" ","HOUSE_NO":"１５號","E_COORD97":171746.67000000001,"N_COORD97":2543381.3599999999,"ADDRESS":"建東街３７巷１５號","OBJECTID":378738},"geometry":{"x":171746.67000000179,"y":2543381.3600000013}},{"attributes":{"ID":378749,"DIS_CODE":0,"TOWNNAME":"東區","LI":"後甲里","LIN":"21鄰","STREET":"建東街","SECT":" ","MAREA":" ","LANE":"３７巷","ALLEY":" ","HOUSE_NO":"１７號","E_COORD97":171742.42999999999,"N_COORD97":2543379.5,"ADDRESS":"建東街３７巷１７號","OBJECTID":378739},"geometry":{"x":171742.4299999997,"y":2543379.5}},{"attributes":{"ID":378750,"DIS_CODE":0,"TOWNNAME":"東區","LI":"後甲里","LIN":"21鄰","STREET":"建東街","SECT":" ","MAREA":" ","LANE":"３７巷","ALLEY":" ","HOUSE_NO":"１８號","E_COORD97":171741.37,"N_COORD97":2543393.7999999998,"ADDRESS":"建東街３７巷１８號","OBJECTID":378740},"geometry":{"x":171741.37000000011,"y":2543393.8000000026}},{"attributes":{"ID":378751,"DIS_CODE":0,"TOWNNAME":"東區","LI":"後甲里","LIN":"21鄰","STREET":"建東街","SECT":" ","MAREA":" ","LANE":"３７巷","ALLEY":" ","HOUSE_NO":"１９號","E_COORD97":171737.92000000001,"N_COORD97":2543380.2999999998,"ADDRESS":"建東街３７巷１９號","OBJECTID":378741},"geometry":{"x":171737.91999999993,"y":2543380.3000000026}},{"attributes":{"ID":378752,"DIS_CODE":0,"TOWNNAME":"東區","LI":"後甲里","LIN":"21鄰","STREET":"建東街","SECT":" ","MAREA":" ","LANE":"３７巷","ALLEY":" ","HOUSE_NO":"２０號","E_COORD97":171735.79999999999,"N_COORD97":2543392.4700000002,"ADDRESS":"建東街３７巷２０號","OBJECTID":378742},"geometry":{"x":171735.80000000075,"y":2543392.4700000025}},{"attributes":{"ID":378753,"DIS_CODE":0,"TOWNNAME":"東區","LI":"後甲里","LIN":"21鄰","STREET":"建東街","SECT":" ","MAREA":" ","LANE":"３７巷","ALLEY":" ","HOUSE_NO":"２１號","E_COORD97":171733.67999999999,"N_COORD97":2543378.9700000002,"ADDRESS":"建東街３７巷２１號","OBJECTID":378743},"geometry":{"x":171733.6799999997,"y":2543378.9700000025}},{"attributes":{"ID":378754,"DIS_CODE":0,"TOWNNAME":"東區","LI":"後甲里","LIN":"21鄰","STREET":"建東街","SECT":" ","MAREA":" ","LANE":"３７巷","ALLEY":" ","HOUSE_NO":"２３號","E_COORD97":171729.70999999999,"N_COORD97":2543377.3900000001,"ADDRESS":"建東街３７巷２３號","OBJECTID":378744},"geometry":{"x":171729.71000000089,"y":2543377.3900000006}},{"attributes":{"ID":378755,"DIS_CODE":0,"TOWNNAME":"東區","LI":"後甲里","LIN":"21鄰","STREET":"建東街","SECT":" ","MAREA":" ","LANE":"３７巷","ALLEY":" ","HOUSE_NO":"２５號","E_COORD97":171724.94,"N_COORD97":2543376.3300000001,"ADDRESS":"建東街３７巷２５號","OBJECTID":378745},"geometry":{"x":171724.94000000227,"y":2543376.3300000001}},{"attributes":{"ID":378756,"DIS_CODE":0,"TOWNNAME":"東區","LI":"後甲里","LIN":"21鄰","STREET":"建東街","SECT":" ","MAREA":" ","LANE":"３７巷","ALLEY":" ","HOUSE_NO":"３號","E_COORD97":171772.10999999999,"N_COORD97":2543385.0600000001,"ADDRESS":"建東街３７巷３號","OBJECTID":378746},"geometry":{"x":171772.11000000034,"y":2543385.0600000024}},{"attributes":{"ID":378757,"DIS_CODE":0,"TOWNNAME":"東區","LI":"後甲里","LIN":"21鄰","STREET":"建東街","SECT":" ","MAREA":" ","LANE":"３７巷","ALLEY":" ","HOUSE_NO":"５號","E_COORD97":171767.34,"N_COORD97":2543386.3799999999,"ADDRESS":"建東街３７巷５號","OBJECTID":378747},"geometry":{"x":171767.34000000171,"y":2543386.3799999971}},{"attributes":{"ID":378758,"DIS_CODE":0,"TOWNNAME":"東區","LI":"後甲里","LIN":"21鄰","STREET":"建東街","SECT":" ","MAREA":" ","LANE":"３７巷","ALLEY":" ","HOUSE_NO":"１號","E_COORD97":171775.82000000001,"N_COORD97":2543386.6499999999,"ADDRESS":"建東街３７巷１號","OBJECTID":378748},"geometry":{"x":171775.8200000003,"y":2543386.6500000022}},{"attributes":{"ID":378759,"DIS_CODE":0,"TOWNNAME":"東區","LI":"後甲里","LIN":"21鄰","STREET":"建東街","SECT":" ","MAREA":" ","LANE":"３５巷","ALLEY":" ","HOUSE_NO":"６號","E_COORD97":171756.73999999999,"N_COORD97":2543368.9199999999,"ADDRESS":"建東街３５巷６號","OBJECTID":378749},"geometry":{"x":171756.74000000115,"y":2543368.9199999999}},{"attributes":{"ID":378760,"DIS_CODE":0,"TOWNNAME":"永康區","LI":"龍潭里","LIN":"28鄰","STREET":"中山北路","SECT":" ","MAREA":" ","LANE":"３８５巷","ALLEY":" ","HOUSE_NO":"１６號","E_COORD97":174874.66,"N_COORD97":2547762.9199999999,"ADDRESS":"中山北路３８５巷１６號","OBJECTID":378750},"geometry":{"x":174874.66000000108,"y":2547762.9199999999}},{"attributes":{"ID":378761,"DIS_CODE":0,"TOWNNAME":"東區","LI":"後甲里","LIN":"21鄰","STREET":"建東街","SECT":" ","MAREA":" ","LANE":"３５巷","ALLEY":" ","HOUSE_NO":"１３號","E_COORD97":171726.53,"N_COORD97":2543364.9500000002,"ADDRESS":"建東街３５巷１３號","OBJECTID":378751},"geometry":{"x":171726.53000000119,"y":2543364.9499999993}},{"attributes":{"ID":378762,"DIS_CODE":0,"TOWNNAME":"東區","LI":"後甲里","LIN":"21鄰","STREET":"建東街","SECT":" ","MAREA":" ","LANE":"３７巷","ALLEY":" ","HOUSE_NO":"１１號","E_COORD97":171754.88,"N_COORD97":2543382.6800000002,"ADDRESS":"建東街３７巷１１號","OBJECTID":378752},"geometry":{"x":171754.87999999989,"y":2543382.6800000016}},{"attributes":{"ID":378763,"DIS_CODE":0,"TOWNNAME":"永康區","LI":"\u25A0行里","LIN":"38鄰","STREET":"仁愛街","SECT":" ","MAREA":" ","LANE":"１３８巷","ALLEY":" ","HOUSE_NO":"２２號","E_COORD97":172262.23000000001,"N_COORD97":2549638.7799999998,"ADDRESS":"仁愛街１３８巷２２號","OBJECTID":378753},"geometry":{"x":172262.23000000138,"y":2549638.7799999993}},{"attributes":{"ID":378764,"DIS_CODE":0,"TOWNNAME":"仁德區","LI":"後壁里","LIN":"21鄰","STREET":"中正路","SECT":"二段","MAREA":" ","LANE":"９７巷","ALLEY":" ","HOUSE_NO":"３７號","E_COORD97":173064.23999999999,"N_COORD97":2538560.0299999998,"ADDRESS":"中正路二段９７巷３７號","OBJECTID":378754},"geometry":{"x":173064.24000000115,"y":2538560.0299999993}},{"attributes":{"ID":378765,"DIS_CODE":0,"TOWNNAME":"仁德區","LI":"仁德里","LIN":"21鄰","STREET":"文華路","SECT":"三段","MAREA":" ","LANE":"４８１巷","ALLEY":" ","HOUSE_NO":"１１號","E_COORD97":172386.73000000001,"N_COORD97":2541341.8300000001,"ADDRESS":"文華路三段４８１巷１１號","OBJECTID":378755},"geometry":{"x":172386.73000000045,"y":2541341.8300000019}},{"attributes":{"ID":378766,"DIS_CODE":0,"TOWNNAME":"仁德區","LI":"太子里","LIN":"21鄰","STREET":"長興路","SECT":" ","MAREA":" ","LANE":"８７巷","ALLEY":" ","HOUSE_NO":"６１號","E_COORD97":173885.45999999999,"N_COORD97":2543742.2599999998,"ADDRESS":"長興路８７巷６１號","OBJECTID":378756},"geometry":{"x":173885.45999999996,"y":2543742.2600000016}},{"attributes":{"ID":378767,"DIS_CODE":0,"TOWNNAME":"仁德區","LI":"後壁里","LIN":"21鄰","STREET":"中正路","SECT":"二段","MAREA":" ","LANE":"９７巷","ALLEY":" ","HOUSE_NO":"４２號","E_COORD97":173141.01000000001,"N_COORD97":2538557.5299999998,"ADDRESS":"中正路二段９７巷４２號","OBJECTID":378757},"geometry":{"x":173141.01000000164,"y":2538557.5299999993}},{"attributes":{"ID":378768,"DIS_CODE":0,"TOWNNAME":"仁德區","LI":"成功里","LIN":"21鄰","STREET":"保生路","SECT":" ","MAREA":" ","LANE":"６５巷","ALLEY":" ","HOUSE_NO":"５號","E_COORD97":170724.64999999999,"N_COORD97":2539779.75,"ADDRESS":"保生路６５巷５號","OBJECTID":378758},"geometry":{"x":170724.65000000037,"y":2539779.75}},{"attributes":{"ID":378769,"DIS_CODE":0,"TOWNNAME":"仁德區","LI":"後壁里","LIN":"21鄰","STREET":"中正路","SECT":"二段","MAREA":" ","LANE":"９７巷","ALLEY":" ","HOUSE_NO":"２之１號","E_COORD97":173134.03,"N_COORD97":2538513.02,"ADDRESS":"中正路二段９７巷２之１號","OBJECTID":378759},"geometry":{"x":173134.03000000026,"y":2538513.0199999996}},{"attributes":{"ID":378770,"DIS_CODE":0,"TOWNNAME":"仁德區","LI":"後壁里","LIN":"21鄰","STREET":"中正路","SECT":"二段","MAREA":" ","LANE":"９７巷","ALLEY":" ","HOUSE_NO":"１７號","E_COORD97":173096.57000000001,"N_COORD97":2538531.52,"ADDRESS":"中正路二段９７巷１７號","OBJECTID":378760},"geometry":{"x":173096.5700000003,"y":2538531.5200000014}},{"attributes":{"ID":378771,"DIS_CODE":0,"TOWNNAME":"仁德區","LI":"太子里","LIN":"21鄰","STREET":"長興路","SECT":" ","MAREA":" ","LANE":"８７巷","ALLEY":" ","HOUSE_NO":"７５號","E_COORD97":173862.17999999999,"N_COORD97":2543720.7599999998,"ADDRESS":"長興路８７巷７５號","OBJECTID":378761},"geometry":{"x":173862.18000000063,"y":2543720.7600000035}},{"attributes":{"ID":378772,"DIS_CODE":0,"TOWNNAME":"仁德區","LI":"太子里","LIN":"21鄰","STREET":"長興四街","SECT":" ","MAREA":" ","LANE":"７４巷","ALLEY":" ","HOUSE_NO":"５號","E_COORD97":173903.76999999999,"N_COORD97":2543594.5,"ADDRESS":"長興四街７４巷５號","OBJECTID":378762},"geometry":{"x":173903.77000000048,"y":2543594.5000000019}},{"attributes":{"ID":378773,"DIS_CODE":0,"TOWNNAME":"仁德區","LI":"保安里","LIN":"21鄰","STREET":"文賢一街","SECT":" ","MAREA":" ","LANE":"１巷","ALLEY":" ","HOUSE_NO":"７號","E_COORD97":171101.92000000001,"N_COORD97":2536694.5800000001,"ADDRESS":"文賢一街１巷７號","OBJECTID":378763},"geometry":{"x":171101.91999999993,"y":2536694.5800000019}},{"attributes":{"ID":378774,"DIS_CODE":0,"TOWNNAME":"仁德區","LI":"太子里","LIN":"21鄰","STREET":"長興路","SECT":" ","MAREA":" ","LANE":"８７巷","ALLEY":" ","HOUSE_NO":"６３號","E_COORD97":173880.84,"N_COORD97":2543741.2599999998,"ADDRESS":"長興路８７巷６３號","OBJECTID":378764},"geometry":{"x":173880.83999999985,"y":2543741.2600000016}},{"attributes":{"ID":378775,"DIS_CODE":0,"TOWNNAME":"仁德區","LI":"後壁里","LIN":"21鄰","STREET":"中正路","SECT":"二段","MAREA":" ","LANE":"９７巷","ALLEY":" ","HOUSE_NO":"１８號","E_COORD97":173154.82999999999,"N_COORD97":2538552.2799999998,"ADDRESS":"中正路二段９７巷１８號","OBJECTID":378765},"geometry":{"x":173154.83000000101,"y":2538552.2799999993}},{"attributes":{"ID":378776,"DIS_CODE":0,"TOWNNAME":"仁德區","LI":"太子里","LIN":"21鄰","STREET":"長興路","SECT":" ","MAREA":" ","LANE":"８７巷","ALLEY":" ","HOUSE_NO":"７７號","E_COORD97":173861.20999999999,"N_COORD97":2543715.5099999998,"ADDRESS":"長興路８７巷７７號","OBJECTID":378766},"geometry":{"x":173861.20999999996,"y":2543715.5100000035}},{"attributes":{"ID":378777,"DIS_CODE":0,"TOWNNAME":"永康區","LI":"\u25A0行里","LIN":"4鄰","STREET":"新行街","SECT":" ","MAREA":" ","LANE":"２０巷","ALLEY":" ","HOUSE_NO":"２號","E_COORD97":172246.07000000001,"N_COORD97":2548757.2400000002,"ADDRESS":"新行街２０巷２號","OBJECTID":378767},"geometry":{"x":172246.07000000216,"y":2548757.2400000021}},{"attributes":{"ID":378778,"DIS_CODE":0,"TOWNNAME":"永康區","LI":"\u25A0行里","LIN":"25鄰","STREET":"\u25A0和街","SECT":" ","MAREA":" ","LANE":"２４７巷","ALLEY":" ","HOUSE_NO":"５號","E_COORD97":171524.64999999999,"N_COORD97":2548356.2400000002,"ADDRESS":"\u25A0和街２４７巷５號","OBJECTID":378768},"geometry":{"x":171524.65000000037,"y":2548356.2400000021}},{"attributes":{"ID":378779,"DIS_CODE":0,"TOWNNAME":"永康區","LI":"龍潭里","LIN":"43鄰","STREET":"國民路","SECT":" ","MAREA":" ","LANE":"２３１巷","ALLEY":" ","HOUSE_NO":"２３號","E_COORD97":174594.72,"N_COORD97":2547006.1200000001,"ADDRESS":"國民路２３１巷２３號","OBJECTID":378769},"geometry":{"x":174594.72000000067,"y":2547006.1200000029}},{"attributes":{"ID":378780,"DIS_CODE":0,"TOWNNAME":"仁德區","LI":"保安里","LIN":"21鄰","STREET":"文賢一街","SECT":" ","MAREA":" ","LANE":"１巷","ALLEY":" ","HOUSE_NO":"１０號","E_COORD97":171092.76999999999,"N_COORD97":2536684.3300000001,"ADDRESS":"文賢一街１巷１０號","OBJECTID":378770},"geometry":{"x":171092.77000000142,"y":2536684.3300000001}},{"attributes":{"ID":378781,"DIS_CODE":0,"TOWNNAME":"仁德區","LI":"保安里","LIN":"21鄰","STREET":"文賢一街","SECT":" ","MAREA":" ","LANE":"１巷","ALLEY":" ","HOUSE_NO":"１３號","E_COORD97":171105.04000000001,"N_COORD97":2536681.0800000001,"ADDRESS":"文賢一街１巷１３號","OBJECTID":378771},"geometry":{"x":171105.0400000019,"y":2536681.0800000019}},{"attributes":{"ID":378782,"DIS_CODE":0,"TOWNNAME":"仁德區","LI":"保安里","LIN":"21鄰","STREET":"文賢一街","SECT":" ","MAREA":" ","LANE":"３巷","ALLEY":" ","HOUSE_NO":"３號","E_COORD97":171071.84,"N_COORD97":2536692.5800000001,"ADDRESS":"文賢一街３巷３號","OBJECTID":378772},"geometry":{"x":171071.83999999985,"y":2536692.5800000001}},{"attributes":{"ID":378783,"DIS_CODE":0,"TOWNNAME":"仁德區","LI":"保安里","LIN":"21鄰","STREET":"文賢一街","SECT":" ","MAREA":" ","LANE":"１巷","ALLEY":" ","HOUSE_NO":"１８號","E_COORD97":171094.01000000001,"N_COORD97":2536666.0699999998,"ADDRESS":"文賢一街１巷１８號","OBJECTID":378773},"geometry":{"x":171094.00999999978,"y":2536666.0700000003}},{"attributes":{"ID":378784,"DIS_CODE":0,"TOWNNAME":"仁德區","LI":"保安里","LIN":"21鄰","STREET":"文賢一街","SECT":" ","MAREA":" ","LANE":"１巷","ALLEY":" ","HOUSE_NO":"２２號","E_COORD97":171093.95000000001,"N_COORD97":2536657.5699999998,"ADDRESS":"文賢一街１巷２２號","OBJECTID":378774},"geometry":{"x":171093.95000000205,"y":2536657.5700000022}},{"attributes":{"ID":378785,"DIS_CODE":0,"TOWNNAME":"仁德區","LI":"太子里","LIN":"21鄰","STREET":"長興路","SECT":" ","MAREA":" ","LANE":"８７巷","ALLEY":" ","HOUSE_NO":"６７號","E_COORD97":173866.17999999999,"N_COORD97":2543740.0099999998,"ADDRESS":"長興路８７巷６７號","OBJECTID":378775},"geometry":{"x":173866.1799999997,"y":2543740.0100000016}},{"attributes":{"ID":378786,"DIS_CODE":0,"TOWNNAME":"仁德區","LI":"保安里","LIN":"21鄰","STREET":"文賢一街","SECT":" ","MAREA":" ","LANE":"１巷","ALLEY":" ","HOUSE_NO":"３號","E_COORD97":171101.01000000001,"N_COORD97":2536703.5800000001,"ADDRESS":"文賢一街１巷３號","OBJECTID":378776},"geometry":{"x":171101.00999999978,"y":2536703.5800000001}},{"attributes":{"ID":378787,"DIS_CODE":0,"TOWNNAME":"仁德區","LI":"太子里","LIN":"21鄰","STREET":"長興路","SECT":" ","MAREA":" ","LANE":"８７巷","ALLEY":" ","HOUSE_NO":"１０３號","E_COORD97":173848.38,"N_COORD97":2543697,"ADDRESS":"長興路８７巷１０３號","OBJECTID":378777},"geometry":{"x":173848.37999999989,"y":2543697.0000000019}},{"attributes":{"ID":378788,"DIS_CODE":0,"TOWNNAME":"仁德區","LI":"太子里","LIN":"21鄰","STREET":"長興路","SECT":" ","MAREA":" ","LANE":"８７巷","ALLEY":" ","HOUSE_NO":"７９號","E_COORD97":173860.64999999999,"N_COORD97":2543710.75,"ADDRESS":"長興路８７巷７９號","OBJECTID":378778},"geometry":{"x":173860.65000000037,"y":2543710.7500000037}},{"attributes":{"ID":378789,"DIS_CODE":0,"TOWNNAME":"仁德區","LI":"太子里","LIN":"21鄰","STREET":"長興路","SECT":" ","MAREA":" ","LANE":"８７巷","ALLEY":" ","HOUSE_NO":"９３號","E_COORD97":173843.59,"N_COORD97":2543673.25,"ADDRESS":"長興路８７巷９３號","OBJECTID":378779},"geometry":{"x":173843.58999999985,"y":2543673.2500000037}},{"attributes":{"ID":378790,"DIS_CODE":0,"TOWNNAME":"仁德區","LI":"保安里","LIN":"21鄰","STREET":"文賢一街","SECT":" ","MAREA":" ","LANE":"１巷","ALLEY":" ","HOUSE_NO":"１２號","E_COORD97":171093.14999999999,"N_COORD97":2536679.8300000001,"ADDRESS":"文賢一街１巷１２號","OBJECTID":378780},"geometry":{"x":171093.1500000013,"y":2536679.8300000019}},{"attributes":{"ID":378791,"DIS_CODE":0,"TOWNNAME":"仁德區","LI":"太子里","LIN":"21鄰","STREET":"長興路","SECT":" ","MAREA":" ","LANE":"８７巷","ALLEY":" ","HOUSE_NO":"１０５號","E_COORD97":173851.23999999999,"N_COORD97":2543711,"ADDRESS":"長興路８７巷１０５號","OBJECTID":378781},"geometry":{"x":173851.24000000022,"y":2543711}},{"attributes":{"ID":378792,"DIS_CODE":0,"TOWNNAME":"永康區","LI":"\u25A0行里","LIN":"9鄰","STREET":"中正路","SECT":" ","MAREA":" ","LANE":"３３７巷","ALLEY":" ","HOUSE_NO":"１５號","E_COORD97":172492.88,"N_COORD97":2548273.25,"ADDRESS":"中正路３３７巷１５號","OBJECTID":378782},"geometry":{"x":172492.88000000082,"y":2548273.25}},{"attributes":{"ID":378793,"DIS_CODE":0,"TOWNNAME":"永康區","LI":"\u25A0行里","LIN":"4鄰","STREET":"新行街","SECT":" ","MAREA":" ","LANE":"４巷","ALLEY":" ","HOUSE_NO":"２２號","E_COORD97":172274.84,"N_COORD97":2548787.7799999998,"ADDRESS":"新行街４巷２２號","OBJECTID":378783},"geometry":{"x":172274.84000000078,"y":2548787.7799999993}},{"attributes":{"ID":378794,"DIS_CODE":0,"TOWNNAME":"永康區","LI":"\u25A0行里","LIN":"41鄰","STREET":"永安二街","SECT":" ","MAREA":" ","LANE":"２５巷","ALLEY":" ","HOUSE_NO":"１１號","E_COORD97":172450.98000000001,"N_COORD97":2549579.3100000001,"ADDRESS":"永安二街２５巷１１號","OBJECTID":378784},"geometry":{"x":172450.98000000138,"y":2549579.3099999987}},{"attributes":{"ID":378795,"DIS_CODE":0,"TOWNNAME":"永康區","LI":"\u25A0行里","LIN":"6鄰","STREET":"新行街","SECT":" ","MAREA":" ","LANE":"３３巷","ALLEY":" ","HOUSE_NO":"２７號","E_COORD97":172188.19,"N_COORD97":2548848.52,"ADDRESS":"新行街３３巷２７號","OBJECTID":378785},"geometry":{"x":172188.19000000134,"y":2548848.5200000014}},{"attributes":{"ID":378796,"DIS_CODE":0,"TOWNNAME":"仁德區","LI":"太子里","LIN":"21鄰","STREET":"長興路","SECT":" ","MAREA":" ","LANE":"８７巷","ALLEY":" ","HOUSE_NO":"１１１號","E_COORD97":173853.20000000001,"N_COORD97":2543725.2599999998,"ADDRESS":"長興路８７巷１１１號","OBJECTID":378786},"geometry":{"x":173853.20000000019,"y":2543725.2600000016}},{"attributes":{"ID":378797,"DIS_CODE":0,"TOWNNAME":"仁德區","LI":"太子里","LIN":"21鄰","STREET":"長興路","SECT":" ","MAREA":" ","LANE":"８７巷","ALLEY":" ","HOUSE_NO":"１０１號","E_COORD97":173847.89000000001,"N_COORD97":2543692.25,"ADDRESS":"長興路８７巷１０１號","OBJECTID":378787},"geometry":{"x":173847.88999999966,"y":2543692.25}},{"attributes":{"ID":378798,"DIS_CODE":0,"TOWNNAME":"仁德區","LI":"保安里","LIN":"21鄰","STREET":"文賢一街","SECT":" ","MAREA":" ","LANE":"１巷","ALLEY":" ","HOUSE_NO":"２號","E_COORD97":171090.12,"N_COORD97":2536702.3300000001,"ADDRESS":"文賢一街１巷２號","OBJECTID":378788},"geometry":{"x":171090.12000000104,"y":2536702.3300000038}},{"attributes":{"ID":378799,"DIS_CODE":0,"TOWNNAME":"仁德區","LI":"成功里","LIN":"21鄰","STREET":"保生路","SECT":" ","MAREA":" ","LANE":"６３巷","ALLEY":" ","HOUSE_NO":"７號","E_COORD97":170752.10000000001,"N_COORD97":2539762.7400000002,"ADDRESS":"保生路６３巷７號","OBJECTID":378789},"geometry":{"x":170752.10000000056,"y":2539762.7400000021}},{"attributes":{"ID":378800,"DIS_CODE":0,"TOWNNAME":"仁德區","LI":"保安里","LIN":"21鄰","STREET":"文賢一街","SECT":" ","MAREA":" ","LANE":"３巷","ALLEY":" ","HOUSE_NO":"２號","E_COORD97":171063.54000000001,"N_COORD97":2536693.5800000001,"ADDRESS":"文賢一街３巷２號","OBJECTID":378790},"geometry":{"x":171063.54000000004,"y":2536693.5799999982}},{"attributes":{"ID":378801,"DIS_CODE":0,"TOWNNAME":"仁德區","LI":"太子里","LIN":"21鄰","STREET":"長興路","SECT":" ","MAREA":" ","LANE":"８７巷","ALLEY":" ","HOUSE_NO":"９９號","E_COORD97":173845.94,"N_COORD97":2543687.5,"ADDRESS":"長興路８７巷９９號","OBJECTID":378791},"geometry":{"x":173845.94000000134,"y":2543687.5}},{"attributes":{"ID":378802,"DIS_CODE":0,"TOWNNAME":"仁德區","LI":"保安里","LIN":"21鄰","STREET":"文賢一街","SECT":" ","MAREA":" ","LANE":"１巷","ALLEY":" ","HOUSE_NO":"４號","E_COORD97":171090.35000000001,"N_COORD97":2536697.8300000001,"ADDRESS":"文賢一街１巷４號","OBJECTID":378792},"geometry":{"x":171090.34999999963,"y":2536697.8300000001}},{"attributes":{"ID":378803,"DIS_CODE":0,"TOWNNAME":"仁德區","LI":"保安里","LIN":"21鄰","STREET":"文賢一街","SECT":" ","MAREA":" ","LANE":"１巷","ALLEY":" ","HOUSE_NO":"２１號","E_COORD97":171107.01000000001,"N_COORD97":2536663.3199999998,"ADDRESS":"文賢一街１巷２１號","OBJECTID":378793},"geometry":{"x":171107.01000000071,"y":2536663.3200000022}},{"attributes":{"ID":378804,"DIS_CODE":0,"TOWNNAME":"仁德區","LI":"太子里","LIN":"21鄰","STREET":"長興路","SECT":" ","MAREA":" ","LANE":"８７巷","ALLEY":" ","HOUSE_NO":"８３號","E_COORD97":173857.57000000001,"N_COORD97":2543690.5,"ADDRESS":"長興路８７巷８３號","OBJECTID":378794},"geometry":{"x":173857.5700000003,"y":2543690.5}},{"attributes":{"ID":378805,"DIS_CODE":0,"TOWNNAME":"仁德區","LI":"太子里","LIN":"21鄰","STREET":"長興路","SECT":" ","MAREA":" ","LANE":"８７巷","ALLEY":" ","HOUSE_NO":"１１３號","E_COORD97":173854.53,"N_COORD97":2543732.2599999998,"ADDRESS":"長興路８７巷１１３號","OBJECTID":378795},"geometry":{"x":173854.53000000026,"y":2543732.2600000016}},{"attributes":{"ID":378806,"DIS_CODE":0,"TOWNNAME":"永康區","LI":"甲頂里","LIN":"21鄰","STREET":"中正南路","SECT":" ","MAREA":" ","LANE":"５２巷","ALLEY":" ","HOUSE_NO":"７號","E_COORD97":169693.82999999999,"N_COORD97":2546754.8500000001,"ADDRESS":"中正南路５２巷７號","OBJECTID":378796},"geometry":{"x":169693.83000000007,"y":2546754.8500000015}},{"attributes":{"ID":378807,"DIS_CODE":0,"TOWNNAME":"白河區","LI":"外角里","LIN":"13鄰","STREET":"三民路","SECT":" ","MAREA":" ","LANE":" ","ALLEY":" ","HOUSE_NO":"１８５號","E_COORD97":190835.98000000001,"N_COORD97":2583290.6800000002,"ADDRESS":"三民路１８５號","OBJECTID":378797},"geometry":{"x":190835.98000000045,"y":2583290.6800000016}},{"attributes":{"ID":378808,"DIS_CODE":0,"TOWNNAME":"永康區","LI":"龍潭里","LIN":"28鄰","STREET":"中山北路","SECT":" ","MAREA":" ","LANE":"３８５巷","ALLEY":" ","HOUSE_NO":"２２號之２","E_COORD97":174896.10000000001,"N_COORD97":2547780.9500000002,"ADDRESS":"中山北路３８５巷２２號之２","OBJECTID":378798},"geometry":{"x":174896.09999999963,"y":2547780.9500000011}},{"attributes":{"ID":378809,"DIS_CODE":0,"TOWNNAME":"永康區","LI":"\u25A0行里","LIN":"4鄰","STREET":"新行街","SECT":" ","MAREA":" ","LANE":"４巷","ALLEY":" ","HOUSE_NO":"１７號","E_COORD97":172278.89000000001,"N_COORD97":2548766.4900000002,"ADDRESS":"新行街４巷１７號","OBJECTID":378799},"geometry":{"x":172278.89000000153,"y":2548766.4900000002}},{"attributes":{"ID":378810,"DIS_CODE":0,"TOWNNAME":"永康區","LI":"甲頂里","LIN":" ","STREET":"大武街","SECT":" ","MAREA":" ","LANE":"５９７巷","ALLEY":" ","HOUSE_NO":"４６號","E_COORD97":170240.12,"N_COORD97":2546586.2400000002,"ADDRESS":"大武街５９７巷４６號","OBJECTID":378800},"geometry":{"x":170240.12000000197,"y":2546586.2400000039}}]}