{"displayFieldName":"TOWNNAME","fieldAliases":{"ID":"ID","DIS_CODE":"DIS_CODE","TOWNNAME":"TOWNNAME","LI":"LI","LIN":"LIN","STREET":"STREET","SECT":"SECT","MAREA":"MAREA","LANE":"LANE","ALLEY":"ALLEY","HOUSE_NO":"HOUSE_NO","E_COORD97":"E_COORD97","N_COORD97":"N_COORD97","ADDRESS":"ADDRESS","OBJECTID":"OBJECTID"},"geometryType":"esriGeometryPoint","spatialReference":{"wkid":102443,"latestWkid":3826},"fields":[{"name":"ID","type":"esriFieldTypeDouble","alias":"ID"},{"name":"DIS_CODE","type":"esriFieldTypeInteger","alias":"DIS_CODE"},{"name":"TOWNNAME","type":"esriFieldTypeString","alias":"TOWNNAME","length":8},{"name":"LI","type":"esriFieldTypeString","alias":"LI","length":8},{"name":"LIN","type":"esriFieldTypeString","alias":"LIN","length":12},{"name":"STREET","type":"esriFieldTypeString","alias":"STREET","length":20},{"name":"SECT","type":"esriFieldTypeString","alias":"SECT","length":8},{"name":"MAREA","type":"esriFieldTypeString","alias":"MAREA","length":12},{"name":"LANE","type":"esriFieldTypeString","alias":"LANE","length":10},{"name":"ALLEY","type":"esriFieldTypeString","alias":"ALLEY","length":10},{"name":"HOUSE_NO","type":"esriFieldTypeString","alias":"HOUSE_NO","length":20},{"name":"E_COORD97","type":"esriFieldTypeDouble","alias":"E_COORD97"},{"name":"N_COORD97","type":"esriFieldTypeDouble","alias":"N_COORD97"},{"name":"ADDRESS","type":"esriFieldTypeString","alias":"ADDRESS","length":50},{"name":"OBJECTID","type":"esriFieldTypeOID","alias":"OBJECTID"}],"features":[{"attributes":{"ID":587828,"DIS_CODE":0,"TOWNNAME":"南區","LI":"省躬里","LIN":"11鄰","STREET":"省躬三街","SECT":" ","MAREA":" ","LANE":" ","ALLEY":" ","HOUSE_NO":"７６號","E_COORD97":165669.89000000001,"N_COORD97":2536969,"ADDRESS":"省躬三街７６號","OBJECTID":587801},"geometry":{"x":165669.8900000006,"y":2536969.0000000037}},{"attributes":{"ID":587829,"DIS_CODE":0,"TOWNNAME":"南區","LI":"省躬里","LIN":"11鄰","STREET":"省躬三街","SECT":" ","MAREA":" ","LANE":" ","ALLEY":" ","HOUSE_NO":"７８號","E_COORD97":165670.54000000001,"N_COORD97":2536965.0800000001,"ADDRESS":"省躬三街７８號","OBJECTID":587802},"geometry":{"x":165670.54000000097,"y":2536965.0800000038}},{"attributes":{"ID":587830,"DIS_CODE":0,"TOWNNAME":"南區","LI":"省躬里","LIN":"11鄰","STREET":"省躬三街","SECT":" ","MAREA":" ","LANE":" ","ALLEY":" ","HOUSE_NO":"８０號","E_COORD97":165670.87,"N_COORD97":2536961.4900000002,"ADDRESS":"省躬三街８０號","OBJECTID":587803},"geometry":{"x":165670.87000000011,"y":2536961.4900000002}},{"attributes":{"ID":587831,"DIS_CODE":0,"TOWNNAME":"南區","LI":"省躬里","LIN":"11鄰","STREET":"省躬三街","SECT":" ","MAREA":" ","LANE":" ","ALLEY":" ","HOUSE_NO":"８２號","E_COORD97":165671.51999999999,"N_COORD97":2536956.5899999999,"ADDRESS":"省躬三街８２號","OBJECTID":587804},"geometry":{"x":165671.51999999862,"y":2536956.5899999999}},{"attributes":{"ID":587832,"DIS_CODE":0,"TOWNNAME":"南區","LI":"省躬里","LIN":"11鄰","STREET":"省躬三街","SECT":" ","MAREA":" ","LANE":" ","ALLEY":" ","HOUSE_NO":"８４號","E_COORD97":165670.87,"N_COORD97":2536952.3500000001,"ADDRESS":"省躬三街８４號","OBJECTID":587805},"geometry":{"x":165670.87000000011,"y":2536952.3499999978}},{"attributes":{"ID":587833,"DIS_CODE":0,"TOWNNAME":"南區","LI":"省躬里","LIN":"11鄰","STREET":"省躬三街","SECT":" ","MAREA":" ","LANE":" ","ALLEY":" ","HOUSE_NO":"８６號","E_COORD97":165671.19,"N_COORD97":2536947.7799999998,"ADDRESS":"省躬三街８６號","OBJECTID":587806},"geometry":{"x":165671.19000000041,"y":2536947.7799999993}},{"attributes":{"ID":587834,"DIS_CODE":0,"TOWNNAME":"南區","LI":"省躬里","LIN":"11鄰","STREET":"省躬三街","SECT":" ","MAREA":" ","LANE":" ","ALLEY":" ","HOUSE_NO":"８８號","E_COORD97":165671.51999999999,"N_COORD97":2536943.8599999999,"ADDRESS":"省躬三街８８號","OBJECTID":587807},"geometry":{"x":165671.51999999862,"y":2536943.8599999994}},{"attributes":{"ID":587835,"DIS_CODE":0,"TOWNNAME":"南區","LI":"省躬里","LIN":"11鄰","STREET":"省躬三街","SECT":" ","MAREA":" ","LANE":" ","ALLEY":" ","HOUSE_NO":"９０號","E_COORD97":165671.19,"N_COORD97":2536939.6099999999,"ADDRESS":"省躬三街９０號","OBJECTID":587808},"geometry":{"x":165671.19000000041,"y":2536939.6099999994}},{"attributes":{"ID":587836,"DIS_CODE":0,"TOWNNAME":"南區","LI":"省躬里","LIN":"11鄰","STREET":"省躬三街","SECT":" ","MAREA":" ","LANE":" ","ALLEY":" ","HOUSE_NO":"９２號","E_COORD97":165671.51999999999,"N_COORD97":2536935.04,"ADDRESS":"省躬三街９２號","OBJECTID":587809},"geometry":{"x":165671.51999999862,"y":2536935.040000001}},{"attributes":{"ID":587837,"DIS_CODE":0,"TOWNNAME":"南區","LI":"省躬里","LIN":"11鄰","STREET":"省躬三街","SECT":" ","MAREA":" ","LANE":" ","ALLEY":" ","HOUSE_NO":"９４號","E_COORD97":165672.17000000001,"N_COORD97":2536930.4700000002,"ADDRESS":"省躬三街９４號","OBJECTID":587810},"geometry":{"x":165672.16999999993,"y":2536930.4700000025}},{"attributes":{"ID":587838,"DIS_CODE":0,"TOWNNAME":"南區","LI":"省躬里","LIN":"11鄰","STREET":"省躬三街","SECT":" ","MAREA":" ","LANE":" ","ALLEY":" ","HOUSE_NO":"９６號","E_COORD97":165671.85000000001,"N_COORD97":2536926.2200000002,"ADDRESS":"省躬三街９６號","OBJECTID":587811},"geometry":{"x":165671.85000000056,"y":2536926.2200000007}},{"attributes":{"ID":587839,"DIS_CODE":0,"TOWNNAME":"南區","LI":"省躬里","LIN":"11鄰","STREET":"省躬三街","SECT":" ","MAREA":" ","LANE":" ","ALLEY":" ","HOUSE_NO":"２５號","E_COORD97":165683.29000000001,"N_COORD97":2537062.79,"ADDRESS":"省躬三街２５號","OBJECTID":587812},"geometry":{"x":165683.29000000004,"y":2537062.7899999991}},{"attributes":{"ID":587840,"DIS_CODE":0,"TOWNNAME":"南區","LI":"省躬里","LIN":"11鄰","STREET":"省躬三街","SECT":" ","MAREA":" ","LANE":" ","ALLEY":" ","HOUSE_NO":"２７號","E_COORD97":165682.97,"N_COORD97":2537058.5499999998,"ADDRESS":"省躬三街２７號","OBJECTID":587813},"geometry":{"x":165682.97000000067,"y":2537058.5500000026}},{"attributes":{"ID":587841,"DIS_CODE":0,"TOWNNAME":"南區","LI":"省躬里","LIN":"11鄰","STREET":"省躬三街","SECT":" ","MAREA":" ","LANE":" ","ALLEY":" ","HOUSE_NO":"２９號","E_COORD97":165683.29000000001,"N_COORD97":2537054.6299999999,"ADDRESS":"省躬三街２９號","OBJECTID":587814},"geometry":{"x":165683.29000000004,"y":2537054.629999999}},{"attributes":{"ID":587842,"DIS_CODE":0,"TOWNNAME":"南區","LI":"省躬里","LIN":"11鄰","STREET":"省躬三街","SECT":" ","MAREA":" ","LANE":" ","ALLEY":" ","HOUSE_NO":"３１號","E_COORD97":165684.26999999999,"N_COORD97":2537050.3900000001,"ADDRESS":"省躬三街３１號","OBJECTID":587815},"geometry":{"x":165684.27000000048,"y":2537050.3900000006}},{"attributes":{"ID":587843,"DIS_CODE":0,"TOWNNAME":"南區","LI":"省躬里","LIN":"11鄰","STREET":"省躬三街","SECT":" ","MAREA":" ","LANE":" ","ALLEY":" ","HOUSE_NO":"３３號","E_COORD97":165685.25,"N_COORD97":2537046.4700000002,"ADDRESS":"省躬三街３３號","OBJECTID":587816},"geometry":{"x":165685.25,"y":2537046.4700000007}},{"attributes":{"ID":587844,"DIS_CODE":0,"TOWNNAME":"南區","LI":"省躬里","LIN":"11鄰","STREET":"省躬三街","SECT":" ","MAREA":" ","LANE":" ","ALLEY":" ","HOUSE_NO":"３５號","E_COORD97":165685.57999999999,"N_COORD97":2537043.2000000002,"ADDRESS":"省躬三街３５號","OBJECTID":587817},"geometry":{"x":165685.58000000101,"y":2537043.1999999993}},{"attributes":{"ID":587845,"DIS_CODE":0,"TOWNNAME":"南區","LI":"省躬里","LIN":"11鄰","STREET":"省躬三街","SECT":" ","MAREA":" ","LANE":" ","ALLEY":" ","HOUSE_NO":"３７號","E_COORD97":165685.91,"N_COORD97":2537038.3100000001,"ADDRESS":"省躬三街３７號","OBJECTID":587818},"geometry":{"x":165685.91000000015,"y":2537038.3099999987}},{"attributes":{"ID":587846,"DIS_CODE":0,"TOWNNAME":"南區","LI":"省躬里","LIN":"11鄰","STREET":"省躬三街","SECT":" ","MAREA":" ","LANE":" ","ALLEY":" ","HOUSE_NO":"３９號","E_COORD97":165686.56,"N_COORD97":2537033.7400000002,"ADDRESS":"省躬三街３９號","OBJECTID":587819},"geometry":{"x":165686.55999999866,"y":2537033.7400000002}},{"attributes":{"ID":587847,"DIS_CODE":0,"TOWNNAME":"南區","LI":"省躬里","LIN":"11鄰","STREET":"省躬三街","SECT":" ","MAREA":" ","LANE":" ","ALLEY":" ","HOUSE_NO":"４１號","E_COORD97":165687.87,"N_COORD97":2537030.4700000002,"ADDRESS":"省躬三街４１號","OBJECTID":587820},"geometry":{"x":165687.87000000011,"y":2537030.4700000007}},{"attributes":{"ID":587848,"DIS_CODE":0,"TOWNNAME":"南區","LI":"省躬里","LIN":"11鄰","STREET":"省躬三街","SECT":" ","MAREA":" ","LANE":" ","ALLEY":" ","HOUSE_NO":"４３號","E_COORD97":165688.85000000001,"N_COORD97":2537026.5499999998,"ADDRESS":"省躬三街４３號","OBJECTID":587821},"geometry":{"x":165688.85000000056,"y":2537026.5500000007}},{"attributes":{"ID":587849,"DIS_CODE":0,"TOWNNAME":"南區","LI":"省躬里","LIN":"11鄰","STREET":"省躬三街","SECT":" ","MAREA":" ","LANE":" ","ALLEY":" ","HOUSE_NO":"４５號","E_COORD97":165689.82999999999,"N_COORD97":2537021.6600000001,"ADDRESS":"省躬三街４５號","OBJECTID":587822},"geometry":{"x":165689.83000000007,"y":2537021.6600000001}},{"attributes":{"ID":587850,"DIS_CODE":0,"TOWNNAME":"南區","LI":"省躬里","LIN":"11鄰","STREET":"省躬三街","SECT":" ","MAREA":" ","LANE":" ","ALLEY":" ","HOUSE_NO":"４７號","E_COORD97":165690.48999999999,"N_COORD97":2537018.0699999998,"ADDRESS":"省躬三街４７號","OBJECTID":587823},"geometry":{"x":165690.49000000022,"y":2537018.0700000003}},{"attributes":{"ID":587851,"DIS_CODE":0,"TOWNNAME":"南區","LI":"省躬里","LIN":"11鄰","STREET":"省躬三街","SECT":" ","MAREA":" ","LANE":" ","ALLEY":" ","HOUSE_NO":"４９號","E_COORD97":165690.48999999999,"N_COORD97":2537014.1499999999,"ADDRESS":"省躬三街４９號","OBJECTID":587824},"geometry":{"x":165690.49000000022,"y":2537014.1500000004}},{"attributes":{"ID":587852,"DIS_CODE":0,"TOWNNAME":"南區","LI":"省躬里","LIN":"11鄰","STREET":"省躬三街","SECT":" ","MAREA":" ","LANE":" ","ALLEY":" ","HOUSE_NO":"５１號","E_COORD97":165691.14000000001,"N_COORD97":2537010.8799999999,"ADDRESS":"省躬三街５１號","OBJECTID":587825},"geometry":{"x":165691.13999999873,"y":2537010.8800000008}},{"attributes":{"ID":587853,"DIS_CODE":0,"TOWNNAME":"南區","LI":"省躬里","LIN":"11鄰","STREET":"省躬三街","SECT":" ","MAREA":" ","LANE":" ","ALLEY":" ","HOUSE_NO":"５３號","E_COORD97":165691.47,"N_COORD97":2537006.3100000001,"ADDRESS":"省躬三街５３號","OBJECTID":587826},"geometry":{"x":165691.47000000067,"y":2537006.3100000005}},{"attributes":{"ID":587854,"DIS_CODE":0,"TOWNNAME":"南區","LI":"省躬里","LIN":"11鄰","STREET":"省躬三街","SECT":" ","MAREA":" ","LANE":" ","ALLEY":" ","HOUSE_NO":"５５號","E_COORD97":165692.45000000001,"N_COORD97":2537001.7400000002,"ADDRESS":"省躬三街５５號","OBJECTID":587827},"geometry":{"x":165692.45000000019,"y":2537001.7400000021}},{"attributes":{"ID":587855,"DIS_CODE":0,"TOWNNAME":"南區","LI":"省躬里","LIN":"11鄰","STREET":"省躬三街","SECT":" ","MAREA":" ","LANE":" ","ALLEY":" ","HOUSE_NO":"５７號","E_COORD97":165692.45000000001,"N_COORD97":2536998.1499999999,"ADDRESS":"省躬三街５７號","OBJECTID":587828},"geometry":{"x":165692.45000000019,"y":2536998.1500000004}},{"attributes":{"ID":587856,"DIS_CODE":0,"TOWNNAME":"南區","LI":"省躬里","LIN":"11鄰","STREET":"省躬三街","SECT":" ","MAREA":" ","LANE":" ","ALLEY":" ","HOUSE_NO":"５９號","E_COORD97":165693.10000000001,"N_COORD97":2536993.9100000001,"ADDRESS":"省躬三街５９號","OBJECTID":587829},"geometry":{"x":165693.0999999987,"y":2536993.910000002}},{"attributes":{"ID":587857,"DIS_CODE":0,"TOWNNAME":"南區","LI":"省躬里","LIN":"11鄰","STREET":"省躬三街","SECT":" ","MAREA":" ","LANE":" ","ALLEY":" ","HOUSE_NO":"６１號","E_COORD97":165693.10000000001,"N_COORD97":2536988.6800000002,"ADDRESS":"省躬三街６１號","OBJECTID":587830},"geometry":{"x":165693.0999999987,"y":2536988.6800000016}},{"attributes":{"ID":587858,"DIS_CODE":0,"TOWNNAME":"南區","LI":"省躬里","LIN":"11鄰","STREET":"省躬三街","SECT":" ","MAREA":" ","LANE":" ","ALLEY":" ","HOUSE_NO":"６３號","E_COORD97":165693.10000000001,"N_COORD97":2536983.7799999998,"ADDRESS":"省躬三街６３號","OBJECTID":587831},"geometry":{"x":165693.0999999987,"y":2536983.7800000012}},{"attributes":{"ID":587859,"DIS_CODE":0,"TOWNNAME":"南區","LI":"省躬里","LIN":"11鄰","STREET":"省躬三街","SECT":" ","MAREA":" ","LANE":" ","ALLEY":" ","HOUSE_NO":"６５號","E_COORD97":165693.42999999999,"N_COORD97":2536979.54,"ADDRESS":"省躬三街６５號","OBJECTID":587832},"geometry":{"x":165693.43000000063,"y":2536979.5399999991}},{"attributes":{"ID":587860,"DIS_CODE":0,"TOWNNAME":"南區","LI":"省躬里","LIN":"11鄰","STREET":"省躬三街","SECT":" ","MAREA":" ","LANE":" ","ALLEY":" ","HOUSE_NO":"６７號","E_COORD97":165694.41,"N_COORD97":2536975.2999999998,"ADDRESS":"省躬三街６７號","OBJECTID":587833},"geometry":{"x":165694.41000000015,"y":2536975.3000000026}},{"attributes":{"ID":587861,"DIS_CODE":0,"TOWNNAME":"南區","LI":"省躬里","LIN":"11鄰","STREET":"省躬三街","SECT":" ","MAREA":" ","LANE":" ","ALLEY":" ","HOUSE_NO":"６９號","E_COORD97":165694.41,"N_COORD97":2536970.3900000001,"ADDRESS":"省躬三街６９號","OBJECTID":587834},"geometry":{"x":165694.41000000015,"y":2536970.3900000043}},{"attributes":{"ID":587862,"DIS_CODE":0,"TOWNNAME":"南區","LI":"省躬里","LIN":"11鄰","STREET":"省躬三街","SECT":" ","MAREA":" ","LANE":" ","ALLEY":" ","HOUSE_NO":"７１號","E_COORD97":165694.07999999999,"N_COORD97":2536966.1499999999,"ADDRESS":"省躬三街７１號","OBJECTID":587835},"geometry":{"x":165694.08000000101,"y":2536966.1500000022}},{"attributes":{"ID":587863,"DIS_CODE":0,"TOWNNAME":"南區","LI":"省躬里","LIN":"11鄰","STREET":"省躬三街","SECT":" ","MAREA":" ","LANE":" ","ALLEY":" ","HOUSE_NO":"７３號","E_COORD97":165694.41,"N_COORD97":2536960.6000000001,"ADDRESS":"省躬三街７３號","OBJECTID":587836},"geometry":{"x":165694.41000000015,"y":2536960.5999999996}},{"attributes":{"ID":587864,"DIS_CODE":0,"TOWNNAME":"新化區","LI":"知義里","LIN":"11鄰","STREET":"中興路","SECT":" ","MAREA":" ","LANE":" ","ALLEY":" ","HOUSE_NO":"７１號","E_COORD97":181890.16,"N_COORD97":2547301.25,"ADDRESS":"中興路７１號","OBJECTID":587837},"geometry":{"x":181890.16000000015,"y":2547301.2500000037}},{"attributes":{"ID":587865,"DIS_CODE":0,"TOWNNAME":"新化區","LI":"太平里","LIN":"11鄰","STREET":"正新北路","SECT":" ","MAREA":" ","LANE":" ","ALLEY":" ","HOUSE_NO":"７２號","E_COORD97":178600.32000000001,"N_COORD97":2549046.25,"ADDRESS":"正新北路７２號","OBJECTID":587838},"geometry":{"x":178600.32000000123,"y":2549046.25}},{"attributes":{"ID":587866,"DIS_CODE":0,"TOWNNAME":"新化區","LI":"太平里","LIN":"11鄰","STREET":"正新北路","SECT":" ","MAREA":" ","LANE":" ","ALLEY":" ","HOUSE_NO":"５８號","E_COORD97":178619.12,"N_COORD97":2549055.25,"ADDRESS":"正新北路５８號","OBJECTID":587839},"geometry":{"x":178619.12000000011,"y":2549055.2500000019}},{"attributes":{"ID":587867,"DIS_CODE":0,"TOWNNAME":"新化區","LI":"武安里","LIN":"11鄰","STREET":"信義路","SECT":" ","MAREA":" ","LANE":" ","ALLEY":" ","HOUSE_NO":"３３７號","E_COORD97":178843.32999999999,"N_COORD97":2548283.25,"ADDRESS":"信義路３３７號","OBJECTID":587840},"geometry":{"x":178843.33000000194,"y":2548283.25}},{"attributes":{"ID":587868,"DIS_CODE":0,"TOWNNAME":"新化區","LI":"太平里","LIN":"11鄰","STREET":"民權街","SECT":" ","MAREA":" ","LANE":" ","ALLEY":" ","HOUSE_NO":"１７１號","E_COORD97":178678.20999999999,"N_COORD97":2548914.25,"ADDRESS":"民權街１７１號","OBJECTID":587841},"geometry":{"x":178678.21000000089,"y":2548914.25}},{"attributes":{"ID":587869,"DIS_CODE":0,"TOWNNAME":"新化區","LI":"知義里","LIN":"11鄰","STREET":"中興路","SECT":" ","MAREA":" ","LANE":" ","ALLEY":" ","HOUSE_NO":"６７號","E_COORD97":181899.45999999999,"N_COORD97":2547299.25,"ADDRESS":"中興路６７號","OBJECTID":587842},"geometry":{"x":181899.46000000089,"y":2547299.2500000019}},{"attributes":{"ID":587870,"DIS_CODE":0,"TOWNNAME":"新化區","LI":"東榮里","LIN":"11鄰","STREET":"中興路","SECT":" ","MAREA":" ","LANE":" ","ALLEY":" ","HOUSE_NO":"４９１號","E_COORD97":180210.88,"N_COORD97":2547751.46,"ADDRESS":"中興路４９１號","OBJECTID":587843},"geometry":{"x":180210.88000000175,"y":2547751.4600000046}},{"attributes":{"ID":587871,"DIS_CODE":0,"TOWNNAME":"新化區","LI":"太平里","LIN":"11鄰","STREET":"正新北路","SECT":" ","MAREA":" ","LANE":" ","ALLEY":" ","HOUSE_NO":"２１號","E_COORD97":178740.51999999999,"N_COORD97":2549093.25,"ADDRESS":"正新北路２１號","OBJECTID":587844},"geometry":{"x":178740.52000000048,"y":2549093.25}},{"attributes":{"ID":587872,"DIS_CODE":0,"TOWNNAME":"新化區","LI":"太平里","LIN":"11鄰","STREET":"民權街","SECT":" ","MAREA":" ","LANE":" ","ALLEY":" ","HOUSE_NO":"１７９號","E_COORD97":178693.91,"N_COORD97":2548932.25,"ADDRESS":"民權街１７９號","OBJECTID":587845},"geometry":{"x":178693.91000000108,"y":2548932.2500000019}},{"attributes":{"ID":587873,"DIS_CODE":0,"TOWNNAME":"新化區","LI":"武安里","LIN":"11鄰","STREET":"和平街","SECT":" ","MAREA":" ","LANE":" ","ALLEY":" ","HOUSE_NO":"１６７號","E_COORD97":178892.82000000001,"N_COORD97":2548262.25,"ADDRESS":"和平街１６７號","OBJECTID":587846},"geometry":{"x":178892.82000000216,"y":2548262.25}},{"attributes":{"ID":587874,"DIS_CODE":0,"TOWNNAME":"新化區","LI":"武安里","LIN":"11鄰","STREET":"信義路","SECT":" ","MAREA":" ","LANE":" ","ALLEY":" ","HOUSE_NO":"３３１號之１","E_COORD97":178863.95999999999,"N_COORD97":2548286.2599999998,"ADDRESS":"信義路３３１號之１","OBJECTID":587847},"geometry":{"x":178863.95999999996,"y":2548286.2599999998}},{"attributes":{"ID":587875,"DIS_CODE":0,"TOWNNAME":"新化區","LI":"武安里","LIN":"11鄰","STREET":"信義路","SECT":" ","MAREA":" ","LANE":" ","ALLEY":" ","HOUSE_NO":"３４５號","E_COORD97":178819.13,"N_COORD97":2548278.25,"ADDRESS":"信義路３４５號","OBJECTID":587848},"geometry":{"x":178819.13000000175,"y":2548278.2500000019}},{"attributes":{"ID":587876,"DIS_CODE":0,"TOWNNAME":"新化區","LI":"護國里","LIN":"11鄰","STREET":"中山路","SECT":" ","MAREA":" ","LANE":" ","ALLEY":" ","HOUSE_NO":"６１號","E_COORD97":179879.45999999999,"N_COORD97":2549390.25,"ADDRESS":"中山路６１號","OBJECTID":587849},"geometry":{"x":179879.45999999996,"y":2549390.2500000019}},{"attributes":{"ID":587877,"DIS_CODE":0,"TOWNNAME":"新化區","LI":"太平里","LIN":"11鄰","STREET":"民權街","SECT":" ","MAREA":" ","LANE":" ","ALLEY":" ","HOUSE_NO":"１８１號","E_COORD97":178667.31,"N_COORD97":2548940.25,"ADDRESS":"民權街１８１號","OBJECTID":587850},"geometry":{"x":178667.31000000052,"y":2548940.2500000019}},{"attributes":{"ID":587878,"DIS_CODE":0,"TOWNNAME":"新化區","LI":"武安里","LIN":"11鄰","STREET":"信義路","SECT":" ","MAREA":" ","LANE":" ","ALLEY":" ","HOUSE_NO":"３３５號","E_COORD97":178850.82999999999,"N_COORD97":2548284.25,"ADDRESS":"信義路３３５號","OBJECTID":587851},"geometry":{"x":178850.83000000101,"y":2548284.2500000037}},{"attributes":{"ID":587879,"DIS_CODE":0,"TOWNNAME":"新化區","LI":"太平里","LIN":"11鄰","STREET":"民權街","SECT":" ","MAREA":" ","LANE":" ","ALLEY":" ","HOUSE_NO":"１８７號","E_COORD97":178680.60999999999,"N_COORD97":2548942.25,"ADDRESS":"民權街１８７號","OBJECTID":587852},"geometry":{"x":178680.6099999994,"y":2548942.2500000037}},{"attributes":{"ID":587880,"DIS_CODE":0,"TOWNNAME":"新化區","LI":"太平里","LIN":"11鄰","STREET":"正新北路","SECT":" ","MAREA":" ","LANE":" ","ALLEY":" ","HOUSE_NO":"７６號","E_COORD97":178597.82000000001,"N_COORD97":2549044.25,"ADDRESS":"正新北路７６號","OBJECTID":587853},"geometry":{"x":178597.82000000216,"y":2549044.2500000019}},{"attributes":{"ID":587881,"DIS_CODE":0,"TOWNNAME":"新化區","LI":"太平里","LIN":"11鄰","STREET":"正新北路","SECT":" ","MAREA":" ","LANE":" ","ALLEY":" ","HOUSE_NO":"２０號","E_COORD97":178721.92000000001,"N_COORD97":2549111.25,"ADDRESS":"正新北路２０號","OBJECTID":587854},"geometry":{"x":178721.91999999993,"y":2549111.2499999981}},{"attributes":{"ID":587882,"DIS_CODE":0,"TOWNNAME":"新化區","LI":"太平里","LIN":"11鄰","STREET":"正新北路","SECT":" ","MAREA":" ","LANE":" ","ALLEY":" ","HOUSE_NO":"２２號","E_COORD97":178718.62,"N_COORD97":2549109.25,"ADDRESS":"正新北路２２號","OBJECTID":587855},"geometry":{"x":178718.62000000011,"y":2549109.2500000019}},{"attributes":{"ID":587883,"DIS_CODE":0,"TOWNNAME":"新化區","LI":"太平里","LIN":"11鄰","STREET":"民權街","SECT":" ","MAREA":" ","LANE":" ","ALLEY":" ","HOUSE_NO":"１７７號","E_COORD97":178694.41,"N_COORD97":2548928.25,"ADDRESS":"民權街１７７號","OBJECTID":587856},"geometry":{"x":178694.41000000108,"y":2548928.2499999981}},{"attributes":{"ID":587884,"DIS_CODE":0,"TOWNNAME":"新化區","LI":"太平里","LIN":"11鄰","STREET":"民權街","SECT":" ","MAREA":" ","LANE":" ","ALLEY":" ","HOUSE_NO":"１７３號","E_COORD97":178695.51000000001,"N_COORD97":2548919.25,"ADDRESS":"民權街１７３號","OBJECTID":587857},"geometry":{"x":178695.50999999978,"y":2548919.2500000019}},{"attributes":{"ID":587885,"DIS_CODE":0,"TOWNNAME":"新化區","LI":"太平里","LIN":"11鄰","STREET":"民權街","SECT":" ","MAREA":" ","LANE":" ","ALLEY":" ","HOUSE_NO":"１８５號","E_COORD97":178675.51000000001,"N_COORD97":2548941.25,"ADDRESS":"民權街１８５號","OBJECTID":587858},"geometry":{"x":178675.50999999978,"y":2548941.25}},{"attributes":{"ID":587886,"DIS_CODE":0,"TOWNNAME":"新化區","LI":"太平里","LIN":"11鄰","STREET":"正新北路","SECT":" ","MAREA":" ","LANE":" ","ALLEY":" ","HOUSE_NO":"５２號","E_COORD97":178624.12,"N_COORD97":2549058.25,"ADDRESS":"正新北路５２號","OBJECTID":587859},"geometry":{"x":178624.12000000011,"y":2549058.2500000019}},{"attributes":{"ID":587887,"DIS_CODE":0,"TOWNNAME":"新化區","LI":"武安里","LIN":"11鄰","STREET":"信義路","SECT":" ","MAREA":" ","LANE":" ","ALLEY":" ","HOUSE_NO":"３３５號之１","E_COORD97":178847.45999999999,"N_COORD97":2548284.2599999998,"ADDRESS":"信義路３３５號之１","OBJECTID":587860},"geometry":{"x":178847.46000000183,"y":2548284.2600000016}},{"attributes":{"ID":587888,"DIS_CODE":0,"TOWNNAME":"新化區","LI":"護國里","LIN":"11鄰","STREET":"中山路","SECT":" ","MAREA":" ","LANE":" ","ALLEY":" ","HOUSE_NO":"６５號","E_COORD97":179876.95999999999,"N_COORD97":2549387.25,"ADDRESS":"中山路６５號","OBJECTID":587861},"geometry":{"x":179876.96000000089,"y":2549387.2500000019}},{"attributes":{"ID":587889,"DIS_CODE":0,"TOWNNAME":"新化區","LI":"太平里","LIN":"11鄰","STREET":"正新北路","SECT":" ","MAREA":" ","LANE":" ","ALLEY":" ","HOUSE_NO":"５０號","E_COORD97":178627.62,"N_COORD97":2549060.25,"ADDRESS":"正新北路５０號","OBJECTID":587862},"geometry":{"x":178627.62000000011,"y":2549060.25}},{"attributes":{"ID":587890,"DIS_CODE":0,"TOWNNAME":"新化區","LI":"太平里","LIN":"11鄰","STREET":"正新北路","SECT":" ","MAREA":" ","LANE":" ","ALLEY":" ","HOUSE_NO":"２８號","E_COORD97":178710.92000000001,"N_COORD97":2549105.25,"ADDRESS":"正新北路２８號","OBJECTID":587863},"geometry":{"x":178710.92000000086,"y":2549105.2500000019}},{"attributes":{"ID":587891,"DIS_CODE":0,"TOWNNAME":"新化區","LI":"太平里","LIN":"11鄰","STREET":"民權街","SECT":" ","MAREA":" ","LANE":" ","ALLEY":" ","HOUSE_NO":"１８４號","E_COORD97":178709.91,"N_COORD97":2548931.25,"ADDRESS":"民權街１８４號","OBJECTID":587864},"geometry":{"x":178709.91000000015,"y":2548931.25}},{"attributes":{"ID":587892,"DIS_CODE":0,"TOWNNAME":"新化區","LI":"太平里","LIN":"11鄰","STREET":"民權街","SECT":" ","MAREA":" ","LANE":" ","ALLEY":" ","HOUSE_NO":"１７５號","E_COORD97":178695.10999999999,"N_COORD97":2548924.25,"ADDRESS":"民權街１７５號","OBJECTID":587865},"geometry":{"x":178695.11000000127,"y":2548924.25}},{"attributes":{"ID":587893,"DIS_CODE":0,"TOWNNAME":"新化區","LI":"太平里","LIN":"11鄰","STREET":"民權街","SECT":" ","MAREA":" ","LANE":" ","ALLEY":" ","HOUSE_NO":"１８３號","E_COORD97":178671.41,"N_COORD97":2548940.25,"ADDRESS":"民權街１８３號","OBJECTID":587866},"geometry":{"x":178671.41000000015,"y":2548940.2500000019}},{"attributes":{"ID":587894,"DIS_CODE":0,"TOWNNAME":"新化區","LI":"太平里","LIN":"11鄰","STREET":"正新北路","SECT":" ","MAREA":" ","LANE":" ","ALLEY":" ","HOUSE_NO":"８０號","E_COORD97":178591.22,"N_COORD97":2549040.25,"ADDRESS":"正新北路８０號","OBJECTID":587867},"geometry":{"x":178591.2200000016,"y":2549040.2500000037}},{"attributes":{"ID":587895,"DIS_CODE":0,"TOWNNAME":"新化區","LI":"太平里","LIN":"11鄰","STREET":"正新北路","SECT":" ","MAREA":" ","LANE":" ","ALLEY":" ","HOUSE_NO":"４０號","E_COORD97":178695.92000000001,"N_COORD97":2549093.25,"ADDRESS":"正新北路４０號","OBJECTID":587868},"geometry":{"x":178695.92000000086,"y":2549093.25}},{"attributes":{"ID":587896,"DIS_CODE":0,"TOWNNAME":"新化區","LI":"太平里","LIN":"11鄰","STREET":"正新北路","SECT":" ","MAREA":" ","LANE":" ","ALLEY":" ","HOUSE_NO":"６８號","E_COORD97":178606.32000000001,"N_COORD97":2549049.25,"ADDRESS":"正新北路６８號","OBJECTID":587869},"geometry":{"x":178606.32000000216,"y":2549049.25}},{"attributes":{"ID":587897,"DIS_CODE":0,"TOWNNAME":"麻豆區","LI":"穀興里","LIN":"11鄰","STREET":"中華街","SECT":" ","MAREA":" ","LANE":" ","ALLEY":" ","HOUSE_NO":"１７號","E_COORD97":172938.57000000001,"N_COORD97":2564768.7999999998,"ADDRESS":"中華街１７號","OBJECTID":587870},"geometry":{"x":172938.5700000003,"y":2564768.8000000045}},{"attributes":{"ID":587898,"DIS_CODE":0,"TOWNNAME":"東區","LI":"大學里","LIN":"11鄰","STREET":"長榮路","SECT":"三段","MAREA":" ","LANE":" ","ALLEY":" ","HOUSE_NO":"７２號","E_COORD97":170225.89999999999,"N_COORD97":2543815.96,"ADDRESS":"長榮路三段７２號","OBJECTID":587871},"geometry":{"x":170225.90000000037,"y":2543815.9600000028}},{"attributes":{"ID":587899,"DIS_CODE":0,"TOWNNAME":"東區","LI":"和平里","LIN":"11鄰","STREET":"仁和路","SECT":" ","MAREA":" ","LANE":" ","ALLEY":" ","HOUSE_NO":"９９號之５","E_COORD97":171353.82000000001,"N_COORD97":2541375.7599999998,"ADDRESS":"仁和路９９號之５","OBJECTID":587872},"geometry":{"x":171353.8200000003,"y":2541375.7600000016}},{"attributes":{"ID":587900,"DIS_CODE":0,"TOWNNAME":"東區","LI":"和平里","LIN":"11鄰","STREET":"仁和路","SECT":" ","MAREA":" ","LANE":" ","ALLEY":" ","HOUSE_NO":"９９號之６","E_COORD97":171354.54000000001,"N_COORD97":2541371.4500000002,"ADDRESS":"仁和路９９號之６","OBJECTID":587873},"geometry":{"x":171354.54000000097,"y":2541371.4499999993}},{"attributes":{"ID":587901,"DIS_CODE":0,"TOWNNAME":"東區","LI":"和平里","LIN":"11鄰","STREET":"仁和路","SECT":" ","MAREA":" ","LANE":" ","ALLEY":" ","HOUSE_NO":"９１號","E_COORD97":171279.07000000001,"N_COORD97":2541480.3100000001,"ADDRESS":"仁和路９１號","OBJECTID":587874},"geometry":{"x":171279.0700000003,"y":2541480.3100000024}},{"attributes":{"ID":587902,"DIS_CODE":0,"TOWNNAME":"東區","LI":"和平里","LIN":"11鄰","STREET":"仁和路","SECT":" ","MAREA":" ","LANE":" ","ALLEY":" ","HOUSE_NO":"１０３號","E_COORD97":171338.72,"N_COORD97":2541375.3999999999,"ADDRESS":"仁和路１０３號","OBJECTID":587875},"geometry":{"x":171338.71999999974,"y":2541375.4000000022}},{"attributes":{"ID":587903,"DIS_CODE":0,"TOWNNAME":"東區","LI":"崇成里","LIN":"11鄰","STREET":"崇德路","SECT":" ","MAREA":" ","LANE":" ","ALLEY":" ","HOUSE_NO":"６２１號","E_COORD97":170809.48999999999,"N_COORD97":2541360.6600000001,"ADDRESS":"崇德路６２１號","OBJECTID":587876},"geometry":{"x":170809.49000000115,"y":2541360.6600000001}},{"attributes":{"ID":587904,"DIS_CODE":0,"TOWNNAME":"東區","LI":"崇成里","LIN":"11鄰","STREET":"崇德路","SECT":" ","MAREA":" ","LANE":" ","ALLEY":" ","HOUSE_NO":"６２９號","E_COORD97":170805.10999999999,"N_COORD97":2541303.4100000001,"ADDRESS":"崇德路６２９號","OBJECTID":587877},"geometry":{"x":170805.11000000127,"y":2541303.410000002}},{"attributes":{"ID":587905,"DIS_CODE":0,"TOWNNAME":"新化區","LI":"東榮里","LIN":"22鄰","STREET":"護安街","SECT":" ","MAREA":" ","LANE":" ","ALLEY":" ","HOUSE_NO":"１０號","E_COORD97":179276.88,"N_COORD97":2548219.2599999998,"ADDRESS":"護安街１０號","OBJECTID":587878},"geometry":{"x":179276.88000000175,"y":2548219.2599999998}},{"attributes":{"ID":587906,"DIS_CODE":0,"TOWNNAME":"新化區","LI":"東榮里","LIN":"22鄰","STREET":"復興路","SECT":" ","MAREA":" ","LANE":" ","ALLEY":" ","HOUSE_NO":"２０９號","E_COORD97":179392.42000000001,"N_COORD97":2548057.25,"ADDRESS":"復興路２０９號","OBJECTID":587879},"geometry":{"x":179392.42000000086,"y":2548057.2500000037}},{"attributes":{"ID":587907,"DIS_CODE":0,"TOWNNAME":"新化區","LI":"東榮里","LIN":"22鄰","STREET":"中興路","SECT":" ","MAREA":" ","LANE":" ","ALLEY":" ","HOUSE_NO":"７７３號","E_COORD97":179295.10999999999,"N_COORD97":2548236.25,"ADDRESS":"中興路７７３號","OBJECTID":587880},"geometry":{"x":179295.11000000127,"y":2548236.25}},{"attributes":{"ID":587908,"DIS_CODE":0,"TOWNNAME":"新化區","LI":"東榮里","LIN":"22鄰","STREET":"復興路","SECT":" ","MAREA":" ","LANE":" ","ALLEY":" ","HOUSE_NO":"２２１號之６","E_COORD97":179372.76999999999,"N_COORD97":2548134.2599999998,"ADDRESS":"復興路２２１號之６","OBJECTID":587881},"geometry":{"x":179372.77000000048,"y":2548134.2599999998}},{"attributes":{"ID":587909,"DIS_CODE":0,"TOWNNAME":"新化區","LI":"東榮里","LIN":"22鄰","STREET":"復興路","SECT":" ","MAREA":" ","LANE":" ","ALLEY":" ","HOUSE_NO":"２２３號之３","E_COORD97":179372.76999999999,"N_COORD97":2548134.2599999998,"ADDRESS":"復興路２２３號之３","OBJECTID":587882},"geometry":{"x":179372.77000000048,"y":2548134.2599999998}},{"attributes":{"ID":587910,"DIS_CODE":0,"TOWNNAME":"新化區","LI":"東榮里","LIN":"22鄰","STREET":"復興路","SECT":" ","MAREA":" ","LANE":" ","ALLEY":" ","HOUSE_NO":"２３３號之６","E_COORD97":179372.76999999999,"N_COORD97":2548134.2599999998,"ADDRESS":"復興路２３３號之６","OBJECTID":587883},"geometry":{"x":179372.77000000048,"y":2548134.2599999998}},{"attributes":{"ID":587911,"DIS_CODE":0,"TOWNNAME":"新化區","LI":"東榮里","LIN":"22鄰","STREET":"中興路","SECT":" ","MAREA":" ","LANE":" ","ALLEY":" ","HOUSE_NO":"７７５號","E_COORD97":179287.41,"N_COORD97":2548239.25,"ADDRESS":"中興路７７５號","OBJECTID":587884},"geometry":{"x":179287.41000000108,"y":2548239.25}},{"attributes":{"ID":587912,"DIS_CODE":0,"TOWNNAME":"新化區","LI":"東榮里","LIN":"22鄰","STREET":"中興路","SECT":" ","MAREA":" ","LANE":" ","ALLEY":" ","HOUSE_NO":"７６１號","E_COORD97":179320.81,"N_COORD97":2548220.25,"ADDRESS":"中興路７６１號","OBJECTID":587885},"geometry":{"x":179320.80999999959,"y":2548220.2500000019}},{"attributes":{"ID":587913,"DIS_CODE":0,"TOWNNAME":"新化區","LI":"東榮里","LIN":"22鄰","STREET":"復興路","SECT":" ","MAREA":" ","LANE":" ","ALLEY":" ","HOUSE_NO":"２２９號之５","E_COORD97":179372.78,"N_COORD97":2548134.2599999998,"ADDRESS":"復興路２２９號之５","OBJECTID":587886},"geometry":{"x":179372.78000000212,"y":2548134.2599999998}},{"attributes":{"ID":587914,"DIS_CODE":0,"TOWNNAME":"新化區","LI":"東榮里","LIN":"22鄰","STREET":"復興路","SECT":" ","MAREA":" ","LANE":" ","ALLEY":" ","HOUSE_NO":"２３１號之２","E_COORD97":179372.78,"N_COORD97":2548134.2599999998,"ADDRESS":"復興路２３１號之２","OBJECTID":587887},"geometry":{"x":179372.78000000212,"y":2548134.2599999998}},{"attributes":{"ID":587915,"DIS_CODE":0,"TOWNNAME":"新化區","LI":"東榮里","LIN":"22鄰","STREET":"復興路","SECT":" ","MAREA":" ","LANE":" ","ALLEY":" ","HOUSE_NO":"２２９號之４","E_COORD97":179372.76000000001,"N_COORD97":2548134.2599999998,"ADDRESS":"復興路２２９號之４","OBJECTID":587888},"geometry":{"x":179372.76000000071,"y":2548134.2599999998}},{"attributes":{"ID":587916,"DIS_CODE":0,"TOWNNAME":"新化區","LI":"東榮里","LIN":"22鄰","STREET":"復興路","SECT":" ","MAREA":" ","LANE":" ","ALLEY":" ","HOUSE_NO":"２２７號之１","E_COORD97":179372.75,"N_COORD97":2548134.2599999998,"ADDRESS":"復興路２２７號之１","OBJECTID":587889},"geometry":{"x":179372.75000000186,"y":2548134.2599999998}},{"attributes":{"ID":587917,"DIS_CODE":0,"TOWNNAME":"新化區","LI":"東榮里","LIN":"22鄰","STREET":"復興路","SECT":" ","MAREA":" ","LANE":" ","ALLEY":" ","HOUSE_NO":"２３３號之５","E_COORD97":179372.78,"N_COORD97":2548134.2599999998,"ADDRESS":"復興路２３３號之５","OBJECTID":587890},"geometry":{"x":179372.78000000212,"y":2548134.2599999998}},{"attributes":{"ID":587918,"DIS_CODE":0,"TOWNNAME":"新化區","LI":"東榮里","LIN":"22鄰","STREET":"復興路","SECT":" ","MAREA":" ","LANE":" ","ALLEY":" ","HOUSE_NO":"２３５號之５","E_COORD97":179372.78,"N_COORD97":2548134.2599999998,"ADDRESS":"復興路２３５號之５","OBJECTID":587891},"geometry":{"x":179372.78000000212,"y":2548134.2599999998}},{"attributes":{"ID":587919,"DIS_CODE":0,"TOWNNAME":"新化區","LI":"東榮里","LIN":"22鄰","STREET":"復興路","SECT":" ","MAREA":" ","LANE":" ","ALLEY":" ","HOUSE_NO":"２３１號之３","E_COORD97":179372.76999999999,"N_COORD97":2548134.2599999998,"ADDRESS":"復興路２３１號之３","OBJECTID":587892},"geometry":{"x":179372.77000000048,"y":2548134.2599999998}},{"attributes":{"ID":587920,"DIS_CODE":0,"TOWNNAME":"新化區","LI":"東榮里","LIN":"22鄰","STREET":"中興路","SECT":" ","MAREA":" ","LANE":" ","ALLEY":" ","HOUSE_NO":"７５５號之１","E_COORD97":179342.64000000001,"N_COORD97":2548200.2599999998,"ADDRESS":"中興路７５５號之１","OBJECTID":587893},"geometry":{"x":179342.64000000153,"y":2548200.2600000016}},{"attributes":{"ID":587921,"DIS_CODE":0,"TOWNNAME":"新化區","LI":"東榮里","LIN":"22鄰","STREET":"復興路","SECT":" ","MAREA":" ","LANE":" ","ALLEY":" ","HOUSE_NO":"２３５號之４","E_COORD97":179372.76000000001,"N_COORD97":2548134.2599999998,"ADDRESS":"復興路２３５號之４","OBJECTID":587894},"geometry":{"x":179372.76000000071,"y":2548134.2599999998}},{"attributes":{"ID":587922,"DIS_CODE":0,"TOWNNAME":"新化區","LI":"東榮里","LIN":"22鄰","STREET":"中興路","SECT":" ","MAREA":" ","LANE":" ","ALLEY":" ","HOUSE_NO":"７５９號","E_COORD97":179325.70999999999,"N_COORD97":2548219.25,"ADDRESS":"中興路７５９號","OBJECTID":587895},"geometry":{"x":179325.71000000089,"y":2548219.25}},{"attributes":{"ID":587923,"DIS_CODE":0,"TOWNNAME":"新化區","LI":"東榮里","LIN":"22鄰","STREET":"復興路","SECT":" ","MAREA":" ","LANE":" ","ALLEY":" ","HOUSE_NO":"２３３號之３","E_COORD97":179372.76999999999,"N_COORD97":2548134.2599999998,"ADDRESS":"復興路２３３號之３","OBJECTID":587896},"geometry":{"x":179372.77000000048,"y":2548134.2599999998}},{"attributes":{"ID":587924,"DIS_CODE":0,"TOWNNAME":"新化區","LI":"東榮里","LIN":"22鄰","STREET":"復興路","SECT":" ","MAREA":" ","LANE":" ","ALLEY":" ","HOUSE_NO":"２３３號之４","E_COORD97":179372.76000000001,"N_COORD97":2548134.2599999998,"ADDRESS":"復興路２３３號之４","OBJECTID":587897},"geometry":{"x":179372.76000000071,"y":2548134.2599999998}},{"attributes":{"ID":587925,"DIS_CODE":0,"TOWNNAME":"新化區","LI":"東榮里","LIN":"22鄰","STREET":"復興路","SECT":" ","MAREA":" ","LANE":" ","ALLEY":" ","HOUSE_NO":"２３１號之６","E_COORD97":179372.76999999999,"N_COORD97":2548134.2599999998,"ADDRESS":"復興路２３１號之６","OBJECTID":587898},"geometry":{"x":179372.77000000048,"y":2548134.2599999998}},{"attributes":{"ID":587926,"DIS_CODE":0,"TOWNNAME":"新化區","LI":"東榮里","LIN":"22鄰","STREET":"復興路","SECT":" ","MAREA":" ","LANE":" ","ALLEY":" ","HOUSE_NO":"２３５號之３","E_COORD97":179372.76999999999,"N_COORD97":2548134.2599999998,"ADDRESS":"復興路２３５號之３","OBJECTID":587899},"geometry":{"x":179372.77000000048,"y":2548134.2599999998}},{"attributes":{"ID":587927,"DIS_CODE":0,"TOWNNAME":"新化區","LI":"東榮里","LIN":"22鄰","STREET":"復興路","SECT":" ","MAREA":" ","LANE":" ","ALLEY":" ","HOUSE_NO":"２２９號之３","E_COORD97":179372.76999999999,"N_COORD97":2548134.2599999998,"ADDRESS":"復興路２２９號之３","OBJECTID":587900},"geometry":{"x":179372.77000000048,"y":2548134.2599999998}},{"attributes":{"ID":587928,"DIS_CODE":0,"TOWNNAME":"新化區","LI":"東榮里","LIN":"22鄰","STREET":"復興路","SECT":" ","MAREA":" ","LANE":" ","ALLEY":" ","HOUSE_NO":"２２９號之６","E_COORD97":179372.76999999999,"N_COORD97":2548134.2599999998,"ADDRESS":"復興路２２９號之６","OBJECTID":587901},"geometry":{"x":179372.77000000048,"y":2548134.2599999998}},{"attributes":{"ID":587929,"DIS_CODE":0,"TOWNNAME":"新化區","LI":"東榮里","LIN":"22鄰","STREET":"復興路","SECT":" ","MAREA":" ","LANE":" ","ALLEY":" ","HOUSE_NO":"２２７號之４","E_COORD97":179372.76000000001,"N_COORD97":2548134.2599999998,"ADDRESS":"復興路２２７號之４","OBJECTID":587902},"geometry":{"x":179372.76000000071,"y":2548134.2599999998}},{"attributes":{"ID":587930,"DIS_CODE":0,"TOWNNAME":"新化區","LI":"東榮里","LIN":"22鄰","STREET":"復興路","SECT":" ","MAREA":" ","LANE":" ","ALLEY":" ","HOUSE_NO":"２３１號之５","E_COORD97":179372.78,"N_COORD97":2548134.2599999998,"ADDRESS":"復興路２３１號之５","OBJECTID":587903},"geometry":{"x":179372.78000000212,"y":2548134.2599999998}},{"attributes":{"ID":587931,"DIS_CODE":0,"TOWNNAME":"新化區","LI":"東榮里","LIN":"22鄰","STREET":"中興路","SECT":" ","MAREA":" ","LANE":" ","ALLEY":" ","HOUSE_NO":"７５７號","E_COORD97":179329.60999999999,"N_COORD97":2548218.25,"ADDRESS":"中興路７５７號","OBJECTID":587904},"geometry":{"x":179329.61000000034,"y":2548218.25}},{"attributes":{"ID":587932,"DIS_CODE":0,"TOWNNAME":"新化區","LI":"東榮里","LIN":"22鄰","STREET":"復興路","SECT":" ","MAREA":" ","LANE":" ","ALLEY":" ","HOUSE_NO":"２２９號之２","E_COORD97":179372.78,"N_COORD97":2548134.2599999998,"ADDRESS":"復興路２２９號之２","OBJECTID":587905},"geometry":{"x":179372.78000000212,"y":2548134.2599999998}},{"attributes":{"ID":587933,"DIS_CODE":0,"TOWNNAME":"新化區","LI":"東榮里","LIN":"22鄰","STREET":"中興路","SECT":" ","MAREA":" ","LANE":" ","ALLEY":" ","HOUSE_NO":"７７９號之１","E_COORD97":179272.14000000001,"N_COORD97":2548242.2599999998,"ADDRESS":"中興路７７９號之１","OBJECTID":587906},"geometry":{"x":179272.1400000006,"y":2548242.2599999998}},{"attributes":{"ID":587934,"DIS_CODE":0,"TOWNNAME":"新化區","LI":"東榮里","LIN":"22鄰","STREET":"復興路","SECT":" ","MAREA":" ","LANE":" ","ALLEY":" ","HOUSE_NO":"２２９號","E_COORD97":179372.32000000001,"N_COORD97":2548134.25,"ADDRESS":"復興路２２９號","OBJECTID":587907},"geometry":{"x":179372.3200000003,"y":2548134.25}},{"attributes":{"ID":587935,"DIS_CODE":0,"TOWNNAME":"新化區","LI":"東榮里","LIN":"22鄰","STREET":"復興路","SECT":" ","MAREA":" ","LANE":" ","ALLEY":" ","HOUSE_NO":"２３５號之６","E_COORD97":179372.76999999999,"N_COORD97":2548134.2599999998,"ADDRESS":"復興路２３５號之６","OBJECTID":587908},"geometry":{"x":179372.77000000048,"y":2548134.2599999998}},{"attributes":{"ID":587936,"DIS_CODE":0,"TOWNNAME":"東區","LI":"復興里","LIN":"11鄰","STREET":"裕忠路","SECT":" ","MAREA":" ","LANE":" ","ALLEY":" ","HOUSE_NO":"５１０號","E_COORD97":172235.64000000001,"N_COORD97":2542226.6200000001,"ADDRESS":"裕忠路５１０號","OBJECTID":587909},"geometry":{"x":172235.63999999966,"y":2542226.620000001}},{"attributes":{"ID":587937,"DIS_CODE":0,"TOWNNAME":"東區","LI":"復興里","LIN":"11鄰","STREET":"裕忠路","SECT":" ","MAREA":" ","LANE":" ","ALLEY":" ","HOUSE_NO":"５１２號","E_COORD97":172235.79999999999,"N_COORD97":2542223.4100000001,"ADDRESS":"裕忠路５１２號","OBJECTID":587910},"geometry":{"x":172235.80000000075,"y":2542223.4100000001}},{"attributes":{"ID":587938,"DIS_CODE":0,"TOWNNAME":"東區","LI":"裕農里","LIN":"11鄰","STREET":"東寧路","SECT":" ","MAREA":" ","LANE":" ","ALLEY":" ","HOUSE_NO":"５０２號","E_COORD97":171104.98999999999,"N_COORD97":2543283.0499999998,"ADDRESS":"東寧路５０２號","OBJECTID":587911},"geometry":{"x":171104.99000000022,"y":2543283.0500000026}},{"attributes":{"ID":587939,"DIS_CODE":0,"TOWNNAME":"東區","LI":"裕農里","LIN":"11鄰","STREET":"東寧路","SECT":" ","MAREA":" ","LANE":" ","ALLEY":" ","HOUSE_NO":"５０４號","E_COORD97":171111.48999999999,"N_COORD97":2543283.4199999999,"ADDRESS":"東寧路５０４號","OBJECTID":587912},"geometry":{"x":171111.49000000115,"y":2543283.4200000018}},{"attributes":{"ID":587940,"DIS_CODE":0,"TOWNNAME":"東區","LI":"裕農里","LIN":"11鄰","STREET":"東寧路","SECT":" ","MAREA":" ","LANE":" ","ALLEY":" ","HOUSE_NO":"５０６號","E_COORD97":171116.51000000001,"N_COORD97":2543282.7999999998,"ADDRESS":"東寧路５０６號","OBJECTID":587913},"geometry":{"x":171116.50999999978,"y":2543282.8000000007}},{"attributes":{"ID":587941,"DIS_CODE":0,"TOWNNAME":"新市區","LI":"新市里","LIN":"11鄰","STREET":"中正路","SECT":" ","MAREA":" ","LANE":" ","ALLEY":" ","HOUSE_NO":"３２４號","E_COORD97":177532.70999999999,"N_COORD97":2553193.75,"ADDRESS":"中正路３２４號","OBJECTID":587914},"geometry":{"x":177532.71000000089,"y":2553193.7500000037}},{"attributes":{"ID":587942,"DIS_CODE":0,"TOWNNAME":"新市區","LI":"新和里","LIN":"11鄰","STREET":"仁愛街","SECT":" ","MAREA":" ","LANE":" ","ALLEY":" ","HOUSE_NO":"１５３號","E_COORD97":177568.89000000001,"N_COORD97":2552668.7799999998,"ADDRESS":"仁愛街１５３號","OBJECTID":587915},"geometry":{"x":177568.88999999966,"y":2552668.7800000012}},{"attributes":{"ID":587943,"DIS_CODE":0,"TOWNNAME":"新市區","LI":"新市里","LIN":"11鄰","STREET":"中正路","SECT":" ","MAREA":" ","LANE":" ","ALLEY":" ","HOUSE_NO":"３５４號","E_COORD97":177591.42999999999,"N_COORD97":2553217.75,"ADDRESS":"中正路３５４號","OBJECTID":587916},"geometry":{"x":177591.43000000063,"y":2553217.7500000019}},{"attributes":{"ID":587944,"DIS_CODE":0,"TOWNNAME":"新市區","LI":"新市里","LIN":"11鄰","STREET":"中正路","SECT":" ","MAREA":" ","LANE":" ","ALLEY":" ","HOUSE_NO":"３２８號","E_COORD97":177540.32000000001,"N_COORD97":2553197,"ADDRESS":"中正路３２８號","OBJECTID":587917},"geometry":{"x":177540.32000000123,"y":2553197}},{"attributes":{"ID":587945,"DIS_CODE":0,"TOWNNAME":"新市區","LI":"新市里","LIN":"11鄰","STREET":"中正路","SECT":" ","MAREA":" ","LANE":" ","ALLEY":" ","HOUSE_NO":"３５２號","E_COORD97":177587.37,"N_COORD97":2553216.25,"ADDRESS":"中正路３５２號","OBJECTID":587918},"geometry":{"x":177587.37000000104,"y":2553216.25}},{"attributes":{"ID":587946,"DIS_CODE":0,"TOWNNAME":"新市區","LI":"新市里","LIN":"11鄰","STREET":"中正路","SECT":" ","MAREA":" ","LANE":" ","ALLEY":" ","HOUSE_NO":"３６２號","E_COORD97":177612.01000000001,"N_COORD97":2553227.5,"ADDRESS":"中正路３６２號","OBJECTID":587919},"geometry":{"x":177612.00999999978,"y":2553227.5}},{"attributes":{"ID":587947,"DIS_CODE":0,"TOWNNAME":"新市區","LI":"新市里","LIN":"11鄰","STREET":"中正路","SECT":" ","MAREA":" ","LANE":" ","ALLEY":" ","HOUSE_NO":"３７２之６號","E_COORD97":177659.95000000001,"N_COORD97":2553246.0499999998,"ADDRESS":"中正路３７２之６號","OBJECTID":587920},"geometry":{"x":177659.95000000112,"y":2553246.0500000007}},{"attributes":{"ID":587948,"DIS_CODE":0,"TOWNNAME":"新市區","LI":"新市里","LIN":"11鄰","STREET":"中正路","SECT":" ","MAREA":" ","LANE":" ","ALLEY":" ","HOUSE_NO":"３３０號","E_COORD97":177544.20999999999,"N_COORD97":2553198.5,"ADDRESS":"中正路３３０號","OBJECTID":587921},"geometry":{"x":177544.21000000089,"y":2553198.5000000037}},{"attributes":{"ID":587949,"DIS_CODE":0,"TOWNNAME":"新市區","LI":"新市里","LIN":"11鄰","STREET":"中正路","SECT":" ","MAREA":" ","LANE":" ","ALLEY":" ","HOUSE_NO":"３３６號","E_COORD97":177555.41,"N_COORD97":2553203,"ADDRESS":"中正路３３６號","OBJECTID":587922},"geometry":{"x":177555.41000000108,"y":2553203.0000000019}},{"attributes":{"ID":587950,"DIS_CODE":0,"TOWNNAME":"新市區","LI":"新市里","LIN":"11鄰","STREET":"中正路","SECT":" ","MAREA":" ","LANE":" ","ALLEY":" ","HOUSE_NO":"３７２號","E_COORD97":177632.48999999999,"N_COORD97":2553235.5,"ADDRESS":"中正路３７２號","OBJECTID":587923},"geometry":{"x":177632.49000000115,"y":2553235.5}},{"attributes":{"ID":587951,"DIS_CODE":0,"TOWNNAME":"新市區","LI":"新和里","LIN":"11鄰","STREET":"仁愛街","SECT":" ","MAREA":" ","LANE":" ","ALLEY":" ","HOUSE_NO":"１１８號","E_COORD97":177557.64000000001,"N_COORD97":2552525.2799999998,"ADDRESS":"仁愛街１１８號","OBJECTID":587924},"geometry":{"x":177557.64000000153,"y":2552525.2800000012}},{"attributes":{"ID":587952,"DIS_CODE":0,"TOWNNAME":"新市區","LI":"新市里","LIN":"11鄰","STREET":"中正路","SECT":" ","MAREA":" ","LANE":" ","ALLEY":" ","HOUSE_NO":"３７２之１號","E_COORD97":177638.98999999999,"N_COORD97":2553237.2999999998,"ADDRESS":"中正路３７２之１號","OBJECTID":587925},"geometry":{"x":177638.99000000209,"y":2553237.3000000007}},{"attributes":{"ID":587953,"DIS_CODE":0,"TOWNNAME":"新市區","LI":"新和里","LIN":"11鄰","STREET":"仁愛街","SECT":" ","MAREA":" ","LANE":" ","ALLEY":" ","HOUSE_NO":"１２８號","E_COORD97":177559.84,"N_COORD97":2552546.2799999998,"ADDRESS":"仁愛街１２８號","OBJECTID":587926},"geometry":{"x":177559.84000000171,"y":2552546.2800000012}},{"attributes":{"ID":587954,"DIS_CODE":0,"TOWNNAME":"新市區","LI":"新和里","LIN":"11鄰","STREET":"仁愛街","SECT":" ","MAREA":" ","LANE":" ","ALLEY":" ","HOUSE_NO":"１２２號","E_COORD97":177557.75,"N_COORD97":2552533.7799999998,"ADDRESS":"仁愛街１２２號","OBJECTID":587927},"geometry":{"x":177557.75000000093,"y":2552533.7799999993}},{"attributes":{"ID":587955,"DIS_CODE":0,"TOWNNAME":"新市區","LI":"新和里","LIN":"11鄰","STREET":"仁愛街","SECT":" ","MAREA":" ","LANE":" ","ALLEY":" ","HOUSE_NO":"１５０號","E_COORD97":177572.84,"N_COORD97":2552605.0299999998,"ADDRESS":"仁愛街１５０號","OBJECTID":587928},"geometry":{"x":177572.83999999985,"y":2552605.0300000012}},{"attributes":{"ID":587956,"DIS_CODE":0,"TOWNNAME":"新市區","LI":"新市里","LIN":"11鄰","STREET":"中正路","SECT":" ","MAREA":" ","LANE":" ","ALLEY":" ","HOUSE_NO":"３７６號","E_COORD97":177666.76000000001,"N_COORD97":2553250,"ADDRESS":"中正路３７６號","OBJECTID":587929},"geometry":{"x":177666.75999999978,"y":2553250.0000000019}},{"attributes":{"ID":587957,"DIS_CODE":0,"TOWNNAME":"新市區","LI":"新市里","LIN":"11鄰","STREET":"中正路","SECT":" ","MAREA":" ","LANE":" ","ALLEY":" ","HOUSE_NO":"３６４號","E_COORD97":177615.76000000001,"N_COORD97":2553229,"ADDRESS":"中正路３６４號","OBJECTID":587930},"geometry":{"x":177615.75999999978,"y":2553229.0000000037}},{"attributes":{"ID":587958,"DIS_CODE":0,"TOWNNAME":"新市區","LI":"新市里","LIN":"11鄰","STREET":"中正路","SECT":" ","MAREA":" ","LANE":" ","ALLEY":" ","HOUSE_NO":"３６８號","E_COORD97":177624.89999999999,"N_COORD97":2553232.5,"ADDRESS":"中正路３６８號","OBJECTID":587931},"geometry":{"x":177624.9000000013,"y":2553232.5000000037}},{"attributes":{"ID":587959,"DIS_CODE":0,"TOWNNAME":"新市區","LI":"新和里","LIN":"11鄰","STREET":"仁愛街","SECT":" ","MAREA":" ","LANE":" ","ALLEY":" ","HOUSE_NO":"１４０號","E_COORD97":177565.45000000001,"N_COORD97":2552573.27,"ADDRESS":"仁愛街１４０號","OBJECTID":587932},"geometry":{"x":177565.45000000019,"y":2552573.2700000014}},{"attributes":{"ID":587960,"DIS_CODE":0,"TOWNNAME":"新市區","LI":"新市里","LIN":"11鄰","STREET":"中正路","SECT":" ","MAREA":" ","LANE":" ","ALLEY":" ","HOUSE_NO":"３６０號","E_COORD97":177608.10000000001,"N_COORD97":2553225.75,"ADDRESS":"中正路３６０號","OBJECTID":587933},"geometry":{"x":177608.09999999963,"y":2553225.75}},{"attributes":{"ID":587961,"DIS_CODE":0,"TOWNNAME":"安南區","LI":"安順里","LIN":"11鄰","STREET":"安和路","SECT":"四段","MAREA":" ","LANE":" ","ALLEY":" ","HOUSE_NO":"１１６號","E_COORD97":169956.59,"N_COORD97":2550337.75,"ADDRESS":"安和路四段１１６號","OBJECTID":587934},"geometry":{"x":169956.58999999985,"y":2550337.75}},{"attributes":{"ID":587962,"DIS_CODE":0,"TOWNNAME":"安南區","LI":"州南里","LIN":"11鄰","STREET":"安和路","SECT":"四段","MAREA":" ","LANE":" ","ALLEY":" ","HOUSE_NO":"５６４號","E_COORD97":169956.22,"N_COORD97":2551385.8999999999,"ADDRESS":"安和路四段５６４號","OBJECTID":587935},"geometry":{"x":169956.22000000067,"y":2551385.9000000041}},{"attributes":{"ID":587963,"DIS_CODE":0,"TOWNNAME":"安南區","LI":"海東里","LIN":"11鄰","STREET":"海中街","SECT":" ","MAREA":" ","LANE":" ","ALLEY":" ","HOUSE_NO":"７２號","E_COORD97":166418.70999999999,"N_COORD97":2548940.7200000002,"ADDRESS":"海中街７２號","OBJECTID":587936},"geometry":{"x":166418.71000000089,"y":2548940.7200000025}},{"attributes":{"ID":587964,"DIS_CODE":0,"TOWNNAME":"安南區","LI":"海東里","LIN":"11鄰","STREET":"海中街","SECT":" ","MAREA":" ","LANE":" ","ALLEY":" ","HOUSE_NO":"８４號","E_COORD97":166412.54000000001,"N_COORD97":2548962.6699999999,"ADDRESS":"海中街８４號","OBJECTID":587937},"geometry":{"x":166412.54000000004,"y":2548962.6700000037}},{"attributes":{"ID":587965,"DIS_CODE":0,"TOWNNAME":"安南區","LI":"海東里","LIN":"11鄰","STREET":"海中街","SECT":" ","MAREA":" ","LANE":" ","ALLEY":" ","HOUSE_NO":"８８號","E_COORD97":166418.09,"N_COORD97":2548971.8999999999,"ADDRESS":"海中街８８號","OBJECTID":587938},"geometry":{"x":166418.09000000078,"y":2548971.9000000041}},{"attributes":{"ID":587966,"DIS_CODE":0,"TOWNNAME":"安南區","LI":"海東里","LIN":"11鄰","STREET":"海中街","SECT":" ","MAREA":" ","LANE":" ","ALLEY":" ","HOUSE_NO":"９０號","E_COORD97":166413.70999999999,"N_COORD97":2548977.6400000001,"ADDRESS":"海中街９０號","OBJECTID":587939},"geometry":{"x":166413.71000000089,"y":2548977.6400000025}},{"attributes":{"ID":587967,"DIS_CODE":0,"TOWNNAME":"安南區","LI":"海東里","LIN":"11鄰","STREET":"海中街","SECT":" ","MAREA":" ","LANE":" ","ALLEY":" ","HOUSE_NO":"９４號","E_COORD97":166417.29000000001,"N_COORD97":2548985.0099999998,"ADDRESS":"海中街９４號","OBJECTID":587940},"geometry":{"x":166417.29000000004,"y":2548985.0100000016}},{"attributes":{"ID":587968,"DIS_CODE":0,"TOWNNAME":"安南區","LI":"海東里","LIN":"11鄰","STREET":"海中街","SECT":" ","MAREA":" ","LANE":" ","ALLEY":" ","HOUSE_NO":"９６號","E_COORD97":166415.95999999999,"N_COORD97":2548991.21,"ADDRESS":"海中街９６號","OBJECTID":587941},"geometry":{"x":166415.95999999996,"y":2548991.2100000028}},{"attributes":{"ID":587969,"DIS_CODE":0,"TOWNNAME":"中西區","LI":"小西里","LIN":"11鄰","STREET":"府前路","SECT":"一段","MAREA":" ","LANE":" ","ALLEY":" ","HOUSE_NO":"３８３號","E_COORD97":167851.26000000001,"N_COORD97":2543406.4300000002,"ADDRESS":"府前路一段３８３號","OBJECTID":587942},"geometry":{"x":167851.25999999978,"y":2543406.4299999997}},{"attributes":{"ID":587970,"DIS_CODE":0,"TOWNNAME":"中西區","LI":"小西里","LIN":"11鄰","STREET":"府前路","SECT":"一段","MAREA":" ","LANE":" ","ALLEY":" ","HOUSE_NO":"３８５號","E_COORD97":167846.92000000001,"N_COORD97":2543407.9500000002,"ADDRESS":"府前路一段３８５號","OBJECTID":587943},"geometry":{"x":167846.91999999993,"y":2543407.9500000011}},{"attributes":{"ID":587971,"DIS_CODE":0,"TOWNNAME":"中西區","LI":"小西里","LIN":"11鄰","STREET":"府前路","SECT":"一段","MAREA":" ","LANE":" ","ALLEY":" ","HOUSE_NO":"３８７號","E_COORD97":167847.72,"N_COORD97":2543396.6800000002,"ADDRESS":"府前路一段３８７號","OBJECTID":587944},"geometry":{"x":167847.72000000067,"y":2543396.6800000016}},{"attributes":{"ID":587972,"DIS_CODE":0,"TOWNNAME":"中西區","LI":"小西里","LIN":"11鄰","STREET":"府前路","SECT":"一段","MAREA":" ","LANE":" ","ALLEY":" ","HOUSE_NO":"３８９號","E_COORD97":167848.84,"N_COORD97":2543390.8599999999,"ADDRESS":"府前路一段３８９號","OBJECTID":587945},"geometry":{"x":167848.84000000078,"y":2543390.8600000013}},{"attributes":{"ID":587973,"DIS_CODE":0,"TOWNNAME":"中西區","LI":"小西里","LIN":"11鄰","STREET":"府前路","SECT":"一段","MAREA":" ","LANE":" ","ALLEY":" ","HOUSE_NO":"３９１號","E_COORD97":167848.72,"N_COORD97":2543388.0600000001,"ADDRESS":"府前路一段３９１號","OBJECTID":587946},"geometry":{"x":167848.7200000016,"y":2543388.0600000024}},{"attributes":{"ID":587974,"DIS_CODE":0,"TOWNNAME":"中西區","LI":"小西里","LIN":"11鄰","STREET":"府前路","SECT":"一段","MAREA":" ","LANE":" ","ALLEY":" ","HOUSE_NO":"３９３號","E_COORD97":167847.72,"N_COORD97":2543384.1400000001,"ADDRESS":"府前路一段３９３號","OBJECTID":587947},"geometry":{"x":167847.72000000067,"y":2543384.1400000025}},{"attributes":{"ID":587975,"DIS_CODE":0,"TOWNNAME":"中西區","LI":"小西里","LIN":"11鄰","STREET":"府前路","SECT":"一段","MAREA":" ","LANE":" ","ALLEY":" ","HOUSE_NO":"４１１號","E_COORD97":167823.51000000001,"N_COORD97":2543410.52,"ADDRESS":"府前路一段４１１號","OBJECTID":587948},"geometry":{"x":167823.51000000071,"y":2543410.5200000014}},{"attributes":{"ID":587976,"DIS_CODE":0,"TOWNNAME":"中西區","LI":"小西里","LIN":"11鄰","STREET":"府前路","SECT":"一段","MAREA":" ","LANE":" ","ALLEY":" ","HOUSE_NO":"４１３號","E_COORD97":167819.69,"N_COORD97":2543408.02,"ADDRESS":"府前路一段４１３號","OBJECTID":587949},"geometry":{"x":167819.69000000134,"y":2543408.0200000014}},{"attributes":{"ID":587977,"DIS_CODE":0,"TOWNNAME":"中西區","LI":"小西里","LIN":"11鄰","STREET":"府前路","SECT":"一段","MAREA":" ","LANE":" ","ALLEY":" ","HOUSE_NO":"４１５號","E_COORD97":167816.14999999999,"N_COORD97":2543410.1699999999,"ADDRESS":"府前路一段４１５號","OBJECTID":587950},"geometry":{"x":167816.1500000013,"y":2543410.1700000018}},{"attributes":{"ID":587978,"DIS_CODE":0,"TOWNNAME":"中西區","LI":"小西里","LIN":"11鄰","STREET":"府前路","SECT":"一段","MAREA":" ","LANE":" ","ALLEY":" ","HOUSE_NO":"４１７號","E_COORD97":167811.14000000001,"N_COORD97":2543412.0499999998,"ADDRESS":"府前路一段４１７號","OBJECTID":587951},"geometry":{"x":167811.13999999966,"y":2543412.0500000026}},{"attributes":{"ID":587979,"DIS_CODE":0,"TOWNNAME":"中西區","LI":"小西里","LIN":"11鄰","STREET":"府前路","SECT":"一段","MAREA":" ","LANE":" ","ALLEY":" ","HOUSE_NO":"４１９號","E_COORD97":167804.39000000001,"N_COORD97":2543413.23,"ADDRESS":"府前路一段４１９號","OBJECTID":587952},"geometry":{"x":167804.38999999966,"y":2543413.2300000023}},{"attributes":{"ID":587980,"DIS_CODE":0,"TOWNNAME":"中西區","LI":"小西里","LIN":"11鄰","STREET":"府前路","SECT":"一段","MAREA":" ","LANE":" ","ALLEY":" ","HOUSE_NO":"４２１號","E_COORD97":167798.39000000001,"N_COORD97":2543412.2999999998,"ADDRESS":"府前路一段４２１號","OBJECTID":587953},"geometry":{"x":167798.39000000153,"y":2543412.3000000007}},{"attributes":{"ID":587981,"DIS_CODE":0,"TOWNNAME":"中西區","LI":"小西里","LIN":"11鄰","STREET":"府前路","SECT":"一段","MAREA":" ","LANE":" ","ALLEY":" ","HOUSE_NO":"４２３號","E_COORD97":167794.06,"N_COORD97":2543418.8500000001,"ADDRESS":"府前路一段４２３號","OBJECTID":587954},"geometry":{"x":167794.06000000052,"y":2543418.8500000015}},{"attributes":{"ID":587982,"DIS_CODE":0,"TOWNNAME":"中西區","LI":"小西里","LIN":"11鄰","STREET":"府前路","SECT":"一段","MAREA":" ","LANE":" ","ALLEY":" ","HOUSE_NO":"４２５號","E_COORD97":167791.67000000001,"N_COORD97":2543410.8700000001,"ADDRESS":"府前路一段４２５號","OBJECTID":587955},"geometry":{"x":167791.67000000179,"y":2543410.8700000029}},{"attributes":{"ID":587983,"DIS_CODE":0,"TOWNNAME":"中西區","LI":"仙草里","LIN":"11鄰","STREET":"府緯街","SECT":" ","MAREA":" ","LANE":" ","ALLEY":" ","HOUSE_NO":"２７號","E_COORD97":167883.70999999999,"N_COORD97":2542711.9199999999,"ADDRESS":"府緯街２７號","OBJECTID":587956},"geometry":{"x":167883.71000000089,"y":2542711.9199999999}},{"attributes":{"ID":587984,"DIS_CODE":0,"TOWNNAME":"安南區","LI":"海西里","LIN":"11鄰","STREET":"海中街","SECT":" ","MAREA":" ","LANE":" ","ALLEY":" ","HOUSE_NO":"１１號","E_COORD97":166512.14000000001,"N_COORD97":2548806.04,"ADDRESS":"海中街１１號","OBJECTID":587957},"geometry":{"x":166512.1400000006,"y":2548806.0399999991}},{"attributes":{"ID":587985,"DIS_CODE":0,"TOWNNAME":"安南區","LI":"海西里","LIN":"11鄰","STREET":"海中街","SECT":" ","MAREA":" ","LANE":" ","ALLEY":" ","HOUSE_NO":"１３號","E_COORD97":166509.73999999999,"N_COORD97":2548809.23,"ADDRESS":"海中街１３號","OBJECTID":587958},"geometry":{"x":166509.74000000022,"y":2548809.2300000004}},{"attributes":{"ID":587986,"DIS_CODE":0,"TOWNNAME":"安南區","LI":"海西里","LIN":"11鄰","STREET":"海中街","SECT":" ","MAREA":" ","LANE":" ","ALLEY":" ","HOUSE_NO":"１９號","E_COORD97":166500.75,"N_COORD97":2548820.21,"ADDRESS":"海中街１９號","OBJECTID":587959},"geometry":{"x":166500.75,"y":2548820.2100000009}},{"attributes":{"ID":587987,"DIS_CODE":0,"TOWNNAME":"安南區","LI":"海西里","LIN":"11鄰","STREET":"海中街","SECT":" ","MAREA":" ","LANE":" ","ALLEY":" ","HOUSE_NO":"２７號","E_COORD97":166488.76999999999,"N_COORD97":2548836.8900000001,"ADDRESS":"海中街２７號","OBJECTID":587960},"geometry":{"x":166488.77000000142,"y":2548836.8900000025}},{"attributes":{"ID":587988,"DIS_CODE":0,"TOWNNAME":"安南區","LI":"海西里","LIN":"11鄰","STREET":"海中街","SECT":" ","MAREA":" ","LANE":" ","ALLEY":" ","HOUSE_NO":"２９號","E_COORD97":166486.17000000001,"N_COORD97":2548840.0899999999,"ADDRESS":"海中街２９號","OBJECTID":587961},"geometry":{"x":166486.16999999993,"y":2548840.0899999999}},{"attributes":{"ID":587989,"DIS_CODE":0,"TOWNNAME":"安南區","LI":"海西里","LIN":"11鄰","STREET":"海中街","SECT":" ","MAREA":" ","LANE":" ","ALLEY":" ","HOUSE_NO":"３１號","E_COORD97":166483.97,"N_COORD97":2548843.2799999998,"ADDRESS":"海中街３１號","OBJECTID":587962},"geometry":{"x":166483.96999999974,"y":2548843.2800000012}},{"attributes":{"ID":587990,"DIS_CODE":0,"TOWNNAME":"安南區","LI":"海西里","LIN":"11鄰","STREET":"海中街","SECT":" ","MAREA":" ","LANE":" ","ALLEY":" ","HOUSE_NO":"３３號","E_COORD97":166481.38,"N_COORD97":2548846.0699999998,"ADDRESS":"海中街３３號","OBJECTID":587963},"geometry":{"x":166481.37999999896,"y":2548846.0700000022}},{"attributes":{"ID":587991,"DIS_CODE":0,"TOWNNAME":"安南區","LI":"海西里","LIN":"11鄰","STREET":"海中街","SECT":" ","MAREA":" ","LANE":" ","ALLEY":" ","HOUSE_NO":"４１號","E_COORD97":166473.59,"N_COORD97":2548858.3599999999,"ADDRESS":"海中街４１號","OBJECTID":587964},"geometry":{"x":166473.59000000078,"y":2548858.3599999994}},{"attributes":{"ID":587992,"DIS_CODE":0,"TOWNNAME":"安南區","LI":"海西里","LIN":"11鄰","STREET":"海中街","SECT":" ","MAREA":" ","LANE":" ","ALLEY":" ","HOUSE_NO":"４３號","E_COORD97":166471.19,"N_COORD97":2548862.75,"ADDRESS":"海中街４３號","OBJECTID":587965},"geometry":{"x":166471.19000000041,"y":2548862.75}},{"attributes":{"ID":587993,"DIS_CODE":0,"TOWNNAME":"安南區","LI":"海西里","LIN":"11鄰","STREET":"海中街","SECT":" ","MAREA":" ","LANE":" ","ALLEY":" ","HOUSE_NO":"５３號","E_COORD97":166452.34,"N_COORD97":2548885.4100000001,"ADDRESS":"海中街５３號","OBJECTID":587966},"geometry":{"x":166452.33999999985,"y":2548885.4100000001}},{"attributes":{"ID":587994,"DIS_CODE":0,"TOWNNAME":"安南區","LI":"海西里","LIN":"11鄰","STREET":"海中街","SECT":" ","MAREA":" ","LANE":" ","ALLEY":" ","HOUSE_NO":"５７號","E_COORD97":166449.07999999999,"N_COORD97":2548895.7000000002,"ADDRESS":"海中街５７號","OBJECTID":587967},"geometry":{"x":166449.08000000007,"y":2548895.7000000011}},{"attributes":{"ID":587995,"DIS_CODE":0,"TOWNNAME":"安南區","LI":"海西里","LIN":"11鄰","STREET":"海中街","SECT":" ","MAREA":" ","LANE":" ","ALLEY":" ","HOUSE_NO":"５９號","E_COORD97":166446.98999999999,"N_COORD97":2548899.7400000002,"ADDRESS":"海中街５９號","OBJECTID":587968},"geometry":{"x":166446.99000000022,"y":2548899.7400000021}},{"attributes":{"ID":587996,"DIS_CODE":0,"TOWNNAME":"安南區","LI":"海西里","LIN":"11鄰","STREET":"海中街","SECT":" ","MAREA":" ","LANE":" ","ALLEY":" ","HOUSE_NO":"６１號","E_COORD97":166440.47,"N_COORD97":2548901.1800000002,"ADDRESS":"海中街６１號","OBJECTID":587969},"geometry":{"x":166440.47000000067,"y":2548901.1799999997}},{"attributes":{"ID":587997,"DIS_CODE":0,"TOWNNAME":"安南區","LI":"海西里","LIN":"11鄰","STREET":"海中街","SECT":" ","MAREA":" ","LANE":" ","ALLEY":" ","HOUSE_NO":"６３號","E_COORD97":166436.67999999999,"N_COORD97":2548903.1299999999,"ADDRESS":"海中街６３號","OBJECTID":587970},"geometry":{"x":166436.6799999997,"y":2548903.129999999}},{"attributes":{"ID":587998,"DIS_CODE":0,"TOWNNAME":"安南區","LI":"海西里","LIN":"11鄰","STREET":"海中街","SECT":" ","MAREA":" ","LANE":" ","ALLEY":" ","HOUSE_NO":"６５號","E_COORD97":166432.38,"N_COORD97":2548905.7400000002,"ADDRESS":"海中街６５號","OBJECTID":587971},"geometry":{"x":166432.38000000175,"y":2548905.7400000021}},{"attributes":{"ID":587999,"DIS_CODE":0,"TOWNNAME":"安南區","LI":"海西里","LIN":"11鄰","STREET":"海中街","SECT":" ","MAREA":" ","LANE":" ","ALLEY":" ","HOUSE_NO":"６７號","E_COORD97":166428.60000000001,"N_COORD97":2548908.6000000001,"ADDRESS":"海中街６７號","OBJECTID":587972},"geometry":{"x":166428.59999999963,"y":2548908.6000000034}},{"attributes":{"ID":588000,"DIS_CODE":0,"TOWNNAME":"安南區","LI":"海西里","LIN":"11鄰","STREET":"海中街","SECT":" ","MAREA":" ","LANE":" ","ALLEY":" ","HOUSE_NO":"６９號","E_COORD97":166420.22,"N_COORD97":2548911.3100000001,"ADDRESS":"海中街６９號","OBJECTID":587973},"geometry":{"x":166420.22000000067,"y":2548911.3100000005}},{"attributes":{"ID":588001,"DIS_CODE":0,"TOWNNAME":"安南區","LI":"海西里","LIN":"11鄰","STREET":"海中街","SECT":" ","MAREA":" ","LANE":" ","ALLEY":" ","HOUSE_NO":"７３號","E_COORD97":166392.57999999999,"N_COORD97":2548933.0600000001,"ADDRESS":"海中街７３號","OBJECTID":587974},"geometry":{"x":166392.58000000101,"y":2548933.0600000005}},{"attributes":{"ID":588002,"DIS_CODE":0,"TOWNNAME":"安南區","LI":"溪心里","LIN":"11鄰","STREET":"海佃路","SECT":"三段","MAREA":" ","LANE":" ","ALLEY":" ","HOUSE_NO":"１０６號","E_COORD97":166208.04999999999,"N_COORD97":2549967.4399999999,"ADDRESS":"海佃路三段１０６號","OBJECTID":587975},"geometry":{"x":166208.05000000075,"y":2549967.4400000032}},{"attributes":{"ID":588003,"DIS_CODE":0,"TOWNNAME":"安南區","LI":"溪心里","LIN":"11鄰","STREET":"海佃路","SECT":"三段","MAREA":" ","LANE":" ","ALLEY":" ","HOUSE_NO":"１１４號","E_COORD97":166195.51000000001,"N_COORD97":2549990.0600000001,"ADDRESS":"海佃路三段１１４號","OBJECTID":587976},"geometry":{"x":166195.50999999978,"y":2549990.0600000005}},{"attributes":{"ID":588004,"DIS_CODE":0,"TOWNNAME":"安南區","LI":"溪心里","LIN":"11鄰","STREET":"海佃路","SECT":"三段","MAREA":" ","LANE":" ","ALLEY":" ","HOUSE_NO":"１１８號","E_COORD97":166188.29000000001,"N_COORD97":2549997.71,"ADDRESS":"海佃路三段１１８號","OBJECTID":587977},"geometry":{"x":166188.29000000004,"y":2549997.7100000046}},{"attributes":{"ID":588005,"DIS_CODE":0,"TOWNNAME":"安南區","LI":"海西里","LIN":"11鄰","STREET":"海中街","SECT":" ","MAREA":" ","LANE":" ","ALLEY":" ","HOUSE_NO":"１７號","E_COORD97":166504.73999999999,"N_COORD97":2548816.6200000001,"ADDRESS":"海中街１７號","OBJECTID":587978},"geometry":{"x":166504.73999999929,"y":2548816.6200000029}},{"attributes":{"ID":588006,"DIS_CODE":0,"TOWNNAME":"安南區","LI":"海西里","LIN":"11鄰","STREET":"海環街","SECT":" ","MAREA":" ","LANE":" ","ALLEY":" ","HOUSE_NO":"８６號","E_COORD97":166538.70000000001,"N_COORD97":2548791.2799999998,"ADDRESS":"海環街８６號","OBJECTID":587979},"geometry":{"x":166538.70000000019,"y":2548791.2799999993}},{"attributes":{"ID":588007,"DIS_CODE":0,"TOWNNAME":"安南區","LI":"\u25A0南里","LIN":"11鄰","STREET":"環福街","SECT":" ","MAREA":" ","LANE":" ","ALLEY":" ","HOUSE_NO":"１９５號","E_COORD97":170285.26000000001,"N_COORD97":2552625.02,"ADDRESS":"環福街１９５號","OBJECTID":587980},"geometry":{"x":170285.26000000071,"y":2552625.0200000033}},{"attributes":{"ID":588008,"DIS_CODE":0,"TOWNNAME":"南區","LI":"明興里","LIN":"11鄰","STREET":"永興四街","SECT":" ","MAREA":" ","LANE":" ","ALLEY":" ","HOUSE_NO":"３０號","E_COORD97":167167.07000000001,"N_COORD97":2540577.6400000001,"ADDRESS":"永興四街３０號","OBJECTID":587981},"geometry":{"x":167167.0700000003,"y":2540577.6400000006}},{"attributes":{"ID":588009,"DIS_CODE":0,"TOWNNAME":"南區","LI":"明興里","LIN":"11鄰","STREET":"永興四街","SECT":" ","MAREA":" ","LANE":" ","ALLEY":" ","HOUSE_NO":"２８號","E_COORD97":167171.53,"N_COORD97":2540577.3799999999,"ADDRESS":"永興四街２８號","OBJECTID":587982},"geometry":{"x":167171.53000000119,"y":2540577.3800000008}},{"attributes":{"ID":588010,"DIS_CODE":0,"TOWNNAME":"南區","LI":"明興里","LIN":"11鄰","STREET":"永興四街","SECT":" ","MAREA":" ","LANE":" ","ALLEY":" ","HOUSE_NO":"２６號","E_COORD97":167176.25,"N_COORD97":2540575.8100000001,"ADDRESS":"永興四街２６號","OBJECTID":587983},"geometry":{"x":167176.25000000093,"y":2540575.8100000024}},{"attributes":{"ID":588011,"DIS_CODE":0,"TOWNNAME":"南區","LI":"喜北里","LIN":"11鄰","STREET":"喜樹路","SECT":" ","MAREA":" ","LANE":" ","ALLEY":" ","HOUSE_NO":"１７０號","E_COORD97":165865.28,"N_COORD97":2538220.3799999999,"ADDRESS":"喜樹路１７０號","OBJECTID":587984},"geometry":{"x":165865.28000000026,"y":2538220.3800000008}},{"attributes":{"ID":588012,"DIS_CODE":0,"TOWNNAME":"南區","LI":"喜北里","LIN":"11鄰","STREET":"喜樹路","SECT":" ","MAREA":" ","LANE":" ","ALLEY":" ","HOUSE_NO":"１７２號","E_COORD97":165865.28,"N_COORD97":2538215.7000000002,"ADDRESS":"喜樹路１７２號","OBJECTID":587985},"geometry":{"x":165865.28000000026,"y":2538215.7000000011}},{"attributes":{"ID":588013,"DIS_CODE":0,"TOWNNAME":"南區","LI":"喜北里","LIN":"11鄰","STREET":"喜樹路","SECT":" ","MAREA":" ","LANE":" ","ALLEY":" ","HOUSE_NO":"１７６號","E_COORD97":165860.37,"N_COORD97":2538201.8700000001,"ADDRESS":"喜樹路１７６號","OBJECTID":587986},"geometry":{"x":165860.37000000104,"y":2538201.8700000029}},{"attributes":{"ID":588014,"DIS_CODE":0,"TOWNNAME":"南區","LI":"喜北里","LIN":"11鄰","STREET":"喜樹路","SECT":" ","MAREA":" ","LANE":" ","ALLEY":" ","HOUSE_NO":"１８０號","E_COORD97":165840.64999999999,"N_COORD97":2538193.1000000001,"ADDRESS":"喜樹路１８０號","OBJECTID":587987},"geometry":{"x":165840.65000000037,"y":2538193.1000000015}},{"attributes":{"ID":588015,"DIS_CODE":0,"TOWNNAME":"南區","LI":"喜北里","LIN":"11鄰","STREET":"喜樹路","SECT":" ","MAREA":" ","LANE":" ","ALLEY":" ","HOUSE_NO":"１８４號","E_COORD97":165834.20999999999,"N_COORD97":2538162.8300000001,"ADDRESS":"喜樹路１８４號","OBJECTID":587988},"geometry":{"x":165834.21000000089,"y":2538162.8300000001}},{"attributes":{"ID":588016,"DIS_CODE":0,"TOWNNAME":"南區","LI":"喜北里","LIN":"11鄰","STREET":"喜樹路","SECT":" ","MAREA":" ","LANE":" ","ALLEY":" ","HOUSE_NO":"１８６號","E_COORD97":165833.23000000001,"N_COORD97":2538159.0600000001,"ADDRESS":"喜樹路１８６號","OBJECTID":587989},"geometry":{"x":165833.23000000045,"y":2538159.0600000042}},{"attributes":{"ID":588017,"DIS_CODE":0,"TOWNNAME":"南區","LI":"喜北里","LIN":"11鄰","STREET":"喜樹路","SECT":" ","MAREA":" ","LANE":" ","ALLEY":" ","HOUSE_NO":"１９２號","E_COORD97":165825.59,"N_COORD97":2538141.1400000001,"ADDRESS":"喜樹路１９２號","OBJECTID":587990},"geometry":{"x":165825.58999999892,"y":2538141.1400000006}},{"attributes":{"ID":588018,"DIS_CODE":0,"TOWNNAME":"南區","LI":"喜東里","LIN":"11鄰","STREET":"明興路","SECT":" ","MAREA":" ","LANE":" ","ALLEY":" ","HOUSE_NO":"７１０號","E_COORD97":166058.51000000001,"N_COORD97":2538019.5899999999,"ADDRESS":"明興路７１０號","OBJECTID":587991},"geometry":{"x":166058.51000000164,"y":2538019.5900000017}},{"attributes":{"ID":588019,"DIS_CODE":0,"TOWNNAME":"南區","LI":"喜東里","LIN":"11鄰","STREET":"明興路","SECT":" ","MAREA":" ","LANE":" ","ALLEY":" ","HOUSE_NO":"７１２號","E_COORD97":166057.89000000001,"N_COORD97":2538015.6899999999,"ADDRESS":"明興路７１２號","OBJECTID":587992},"geometry":{"x":166057.8900000006,"y":2538015.6900000013}},{"attributes":{"ID":588020,"DIS_CODE":0,"TOWNNAME":"南區","LI":"喜東里","LIN":"11鄰","STREET":"明興路","SECT":" ","MAREA":" ","LANE":" ","ALLEY":" ","HOUSE_NO":"７１４號","E_COORD97":166056.87,"N_COORD97":2538011.0699999998,"ADDRESS":"明興路７１４號","OBJECTID":587993},"geometry":{"x":166056.87000000104,"y":2538011.0700000022}},{"attributes":{"ID":588021,"DIS_CODE":0,"TOWNNAME":"南區","LI":"喜東里","LIN":"11鄰","STREET":"明興路","SECT":" ","MAREA":" ","LANE":" ","ALLEY":" ","HOUSE_NO":"７１６號","E_COORD97":166056.97,"N_COORD97":2538006.2400000002,"ADDRESS":"明興路７１６號","OBJECTID":587994},"geometry":{"x":166056.9700000016,"y":2538006.2400000021}},{"attributes":{"ID":588022,"DIS_CODE":0,"TOWNNAME":"南區","LI":"喜東里","LIN":"11鄰","STREET":"明興路","SECT":" ","MAREA":" ","LANE":" ","ALLEY":" ","HOUSE_NO":"７１８號","E_COORD97":166056.25,"N_COORD97":2538001.7200000002,"ADDRESS":"明興路７１８號","OBJECTID":587995},"geometry":{"x":166056.25,"y":2538001.7200000007}},{"attributes":{"ID":588023,"DIS_CODE":0,"TOWNNAME":"南區","LI":"喜東里","LIN":"11鄰","STREET":"明興路","SECT":" ","MAREA":" ","LANE":" ","ALLEY":" ","HOUSE_NO":"７２０號","E_COORD97":166054.81,"N_COORD97":2537997.2000000002,"ADDRESS":"明興路７２０號","OBJECTID":587996},"geometry":{"x":166054.81000000052,"y":2537997.1999999974}},{"attributes":{"ID":588024,"DIS_CODE":0,"TOWNNAME":"南區","LI":"喜東里","LIN":"11鄰","STREET":"明興路","SECT":" ","MAREA":" ","LANE":" ","ALLEY":" ","HOUSE_NO":"７２２號","E_COORD97":166053.67999999999,"N_COORD97":2537992.54,"ADDRESS":"明興路７２２號","OBJECTID":587997},"geometry":{"x":166053.67999999877,"y":2537992.540000001}},{"attributes":{"ID":588025,"DIS_CODE":0,"TOWNNAME":"南區","LI":"喜東里","LIN":"11鄰","STREET":"明興路","SECT":" ","MAREA":" ","LANE":" ","ALLEY":" ","HOUSE_NO":"７２４號","E_COORD97":166052.34,"N_COORD97":2537989.1499999999,"ADDRESS":"明興路７２４號","OBJECTID":587998},"geometry":{"x":166052.33999999985,"y":2537989.1500000022}},{"attributes":{"ID":588026,"DIS_CODE":0,"TOWNNAME":"南區","LI":"喜東里","LIN":"11鄰","STREET":"明興路","SECT":" ","MAREA":" ","LANE":" ","ALLEY":" ","HOUSE_NO":"７２６號","E_COORD97":166048.84,"N_COORD97":2537986.5800000001,"ADDRESS":"明興路７２６號","OBJECTID":587999},"geometry":{"x":166048.83999999985,"y":2537986.5800000019}},{"attributes":{"ID":588027,"DIS_CODE":0,"TOWNNAME":"南區","LI":"喜東里","LIN":"11鄰","STREET":"明興路","SECT":" ","MAREA":" ","LANE":" ","ALLEY":" ","HOUSE_NO":"７２８號","E_COORD97":166048.64000000001,"N_COORD97":2537981.04,"ADDRESS":"明興路７２８號","OBJECTID":588000},"geometry":{"x":166048.63999999966,"y":2537981.0399999991}}]}