{"displayFieldName":"TOWNNAME","fieldAliases":{"ID":"ID","DIS_CODE":"DIS_CODE","TOWNNAME":"TOWNNAME","LI":"LI","LIN":"LIN","STREET":"STREET","SECT":"SECT","MAREA":"MAREA","LANE":"LANE","ALLEY":"ALLEY","HOUSE_NO":"HOUSE_NO","E_COORD97":"E_COORD97","N_COORD97":"N_COORD97","ADDRESS":"ADDRESS","OBJECTID":"OBJECTID"},"geometryType":"esriGeometryPoint","spatialReference":{"wkid":102443,"latestWkid":3826},"fields":[{"name":"ID","type":"esriFieldTypeDouble","alias":"ID"},{"name":"DIS_CODE","type":"esriFieldTypeInteger","alias":"DIS_CODE"},{"name":"TOWNNAME","type":"esriFieldTypeString","alias":"TOWNNAME","length":8},{"name":"LI","type":"esriFieldTypeString","alias":"LI","length":8},{"name":"LIN","type":"esriFieldTypeString","alias":"LIN","length":12},{"name":"STREET","type":"esriFieldTypeString","alias":"STREET","length":20},{"name":"SECT","type":"esriFieldTypeString","alias":"SECT","length":8},{"name":"MAREA","type":"esriFieldTypeString","alias":"MAREA","length":12},{"name":"LANE","type":"esriFieldTypeString","alias":"LANE","length":10},{"name":"ALLEY","type":"esriFieldTypeString","alias":"ALLEY","length":10},{"name":"HOUSE_NO","type":"esriFieldTypeString","alias":"HOUSE_NO","length":20},{"name":"E_COORD97","type":"esriFieldTypeDouble","alias":"E_COORD97"},{"name":"N_COORD97","type":"esriFieldTypeDouble","alias":"N_COORD97"},{"name":"ADDRESS","type":"esriFieldTypeString","alias":"ADDRESS","length":50},{"name":"OBJECTID","type":"esriFieldTypeOID","alias":"OBJECTID"}],"features":[{"attributes":{"ID":195802,"DIS_CODE":0,"TOWNNAME":"安南區","LI":"州北里","LIN":"18鄰","STREET":"安昌街","SECT":" ","MAREA":" ","LANE":"８５巷","ALLEY":"９７弄","HOUSE_NO":"５號","E_COORD97":169888.66,"N_COORD97":2552391.0099999998,"ADDRESS":"安昌街８５巷９７弄５號","OBJECTID":195801},"geometry":{"x":169888.66000000015,"y":2552391.0099999998}},{"attributes":{"ID":195803,"DIS_CODE":0,"TOWNNAME":"安南區","LI":"州北里","LIN":"18鄰","STREET":"安昌街","SECT":" ","MAREA":" ","LANE":"８５巷","ALLEY":"９７弄","HOUSE_NO":"７號","E_COORD97":169884.73000000001,"N_COORD97":2552391.0600000001,"ADDRESS":"安昌街８５巷９７弄７號","OBJECTID":195802},"geometry":{"x":169884.73000000045,"y":2552391.0600000005}},{"attributes":{"ID":195804,"DIS_CODE":0,"TOWNNAME":"安南區","LI":"州北里","LIN":"18鄰","STREET":"安昌街","SECT":" ","MAREA":" ","LANE":"８５巷","ALLEY":"９７弄","HOUSE_NO":"８號","E_COORD97":169879.95000000001,"N_COORD97":2552419.25,"ADDRESS":"安昌街８５巷９７弄８號","OBJECTID":195803},"geometry":{"x":169879.95000000019,"y":2552419.25}},{"attributes":{"ID":195805,"DIS_CODE":0,"TOWNNAME":"安南區","LI":"州北里","LIN":"18鄰","STREET":"安昌街","SECT":" ","MAREA":" ","LANE":"８５巷","ALLEY":"９７弄","HOUSE_NO":"９號","E_COORD97":169880.85999999999,"N_COORD97":2552391.3199999998,"ADDRESS":"安昌街８５巷９７弄９號","OBJECTID":195804},"geometry":{"x":169880.8599999994,"y":2552391.3200000022}},{"attributes":{"ID":195806,"DIS_CODE":0,"TOWNNAME":"安南區","LI":"海東里","LIN":"18鄰","STREET":"海佃路","SECT":"二段","MAREA":" ","LANE":"３０７巷","ALLEY":"３３弄","HOUSE_NO":"１號","E_COORD97":166708.16,"N_COORD97":2548678.1000000001,"ADDRESS":"海佃路二段３０７巷３３弄１號","OBJECTID":195805},"geometry":{"x":166708.16000000015,"y":2548678.1000000034}},{"attributes":{"ID":195807,"DIS_CODE":0,"TOWNNAME":"新營區","LI":"太北里","LIN":"21鄰","STREET":" ","SECT":" ","MAREA":"太子宮","LANE":" ","ALLEY":" ","HOUSE_NO":"１５２之４０號","E_COORD97":175283.81,"N_COORD97":2577251.3700000001,"ADDRESS":"太子宮１５２之４０號","OBJECTID":195806},"geometry":{"x":175283.81000000052,"y":2577251.370000001}},{"attributes":{"ID":195808,"DIS_CODE":0,"TOWNNAME":"安定區","LI":"港南里","LIN":"3鄰","STREET":" ","SECT":" ","MAREA":"港口","LANE":" ","ALLEY":" ","HOUSE_NO":"２３之１４號","E_COORD97":171428.70999999999,"N_COORD97":2554026.2999999998,"ADDRESS":"港口２３號之２","OBJECTID":195807},"geometry":{"x":171428.70999999996,"y":2554026.3000000026}},{"attributes":{"ID":195809,"DIS_CODE":0,"TOWNNAME":"安定區","LI":"新吉里","LIN":"3鄰","STREET":" ","SECT":" ","MAREA":"新吉","LANE":" ","ALLEY":" ","HOUSE_NO":"２５之１０號","E_COORD97":169510.82000000001,"N_COORD97":2554140.2999999998,"ADDRESS":"新吉２５之１０號","OBJECTID":195808},"geometry":{"x":169510.8200000003,"y":2554140.3000000026}},{"attributes":{"ID":195810,"DIS_CODE":0,"TOWNNAME":"新營區","LI":"新東里","LIN":"21鄰","STREET":"東興路","SECT":" ","MAREA":" ","LANE":" ","ALLEY":" ","HOUSE_NO":"５２２號","E_COORD97":180755.79000000001,"N_COORD97":2579844.9500000002,"ADDRESS":"東興路５２２號","OBJECTID":195809},"geometry":{"x":180755.7900000019,"y":2579844.9499999993}},{"attributes":{"ID":195811,"DIS_CODE":0,"TOWNNAME":"安南區","LI":"海東里","LIN":"18鄰","STREET":"海佃路","SECT":"二段","MAREA":" ","LANE":"３０７巷","ALLEY":"３３弄","HOUSE_NO":"２號","E_COORD97":166701.63,"N_COORD97":2548709.6400000001,"ADDRESS":"海佃路二段３０７巷３３弄２號","OBJECTID":195810},"geometry":{"x":166701.62999999989,"y":2548709.6400000043}},{"attributes":{"ID":195812,"DIS_CODE":0,"TOWNNAME":"新營區","LI":"忠政里","LIN":"21鄰","STREET":"府西路","SECT":" ","MAREA":" ","LANE":" ","ALLEY":" ","HOUSE_NO":"２１７號","E_COORD97":179797.22,"N_COORD97":2579568.1800000002,"ADDRESS":"府西路２１７號","OBJECTID":195811},"geometry":{"x":179797.22000000067,"y":2579568.1800000016}},{"attributes":{"ID":195813,"DIS_CODE":0,"TOWNNAME":"新營區","LI":"太北里","LIN":"21鄰","STREET":" ","SECT":" ","MAREA":"太子宮","LANE":" ","ALLEY":" ","HOUSE_NO":"１５２之３６號","E_COORD97":175284.89000000001,"N_COORD97":2577261.3300000001,"ADDRESS":"太子宮１５２之３６號","OBJECTID":195812},"geometry":{"x":175284.8900000006,"y":2577261.3300000038}},{"attributes":{"ID":195814,"DIS_CODE":0,"TOWNNAME":"安南區","LI":"海東里","LIN":"18鄰","STREET":"海佃路","SECT":"二段","MAREA":" ","LANE":"３０７巷","ALLEY":"３３弄","HOUSE_NO":"３號","E_COORD97":166703.5,"N_COORD97":2548680.1200000001,"ADDRESS":"海佃路二段３０７巷３３弄３號","OBJECTID":195813},"geometry":{"x":166703.50000000093,"y":2548680.1200000029}},{"attributes":{"ID":195815,"DIS_CODE":0,"TOWNNAME":"安南區","LI":"海東里","LIN":"18鄰","STREET":"海佃路","SECT":"二段","MAREA":" ","LANE":"３０７巷","ALLEY":"３３弄","HOUSE_NO":"５號","E_COORD97":166700.75,"N_COORD97":2548672.75,"ADDRESS":"海佃路二段３０７巷３３弄５號","OBJECTID":195814},"geometry":{"x":166700.75,"y":2548672.75}},{"attributes":{"ID":195816,"DIS_CODE":0,"TOWNNAME":"安南區","LI":"海東里","LIN":"18鄰","STREET":"海佃路","SECT":"二段","MAREA":" ","LANE":"３０７巷","ALLEY":"３３弄","HOUSE_NO":"６號","E_COORD97":166695.26000000001,"N_COORD97":2548700.6499999999,"ADDRESS":"海佃路二段３０７巷３３弄６號","OBJECTID":195815},"geometry":{"x":166695.25999999978,"y":2548700.6500000022}},{"attributes":{"ID":195817,"DIS_CODE":0,"TOWNNAME":"新營區","LI":"太北里","LIN":"21鄰","STREET":" ","SECT":" ","MAREA":"太子宮","LANE":" ","ALLEY":" ","HOUSE_NO":"１５２之２６號","E_COORD97":175279.23728299999,"N_COORD97":2577238.8730199998,"ADDRESS":"太子宮１５２之２６號","OBJECTID":195816},"geometry":{"x":175279.23728300072,"y":2577238.8730209991}},{"attributes":{"ID":195818,"DIS_CODE":0,"TOWNNAME":"新營區","LI":"太北里","LIN":"21鄰","STREET":" ","SECT":" ","MAREA":"太子宮","LANE":" ","ALLEY":" ","HOUSE_NO":"１５２之２９號","E_COORD97":175293.0123,"N_COORD97":2577237.1796900001,"ADDRESS":"太子宮１５２之２９號","OBJECTID":195817},"geometry":{"x":175293.01230000053,"y":2577237.1796880011}},{"attributes":{"ID":195819,"DIS_CODE":0,"TOWNNAME":"新營區","LI":"太北里","LIN":"21鄰","STREET":" ","SECT":" ","MAREA":"太子宮","LANE":" ","ALLEY":" ","HOUSE_NO":"１５２之３３號","E_COORD97":175311.44962999999,"N_COORD97":2577236.22719,"ADDRESS":"太子宮１５２之３３號","OBJECTID":195818},"geometry":{"x":175311.4496299997,"y":2577236.2271890044}},{"attributes":{"ID":195820,"DIS_CODE":0,"TOWNNAME":"新營區","LI":"太北里","LIN":"21鄰","STREET":" ","SECT":" ","MAREA":"太子宮","LANE":" ","ALLEY":" ","HOUSE_NO":"１５２之４４號","E_COORD97":175307.846934,"N_COORD97":2577255.38301,"ADDRESS":"太子宮１５２之４４號","OBJECTID":195819},"geometry":{"x":175307.84693400096,"y":2577255.3830120005}},{"attributes":{"ID":195821,"DIS_CODE":0,"TOWNNAME":"新營區","LI":"太北里","LIN":"21鄰","STREET":" ","SECT":" ","MAREA":"太子宮","LANE":" ","ALLEY":" ","HOUSE_NO":"１５２之４９號","E_COORD97":175267.47,"N_COORD97":2577256.9900000002,"ADDRESS":"太子宮１５２之４９號","OBJECTID":195820},"geometry":{"x":175267.47000000067,"y":2577256.9900000039}},{"attributes":{"ID":195822,"DIS_CODE":0,"TOWNNAME":"安南區","LI":"海東里","LIN":"18鄰","STREET":"海佃路","SECT":"二段","MAREA":" ","LANE":"３０７巷","ALLEY":"３３弄","HOUSE_NO":"８號","E_COORD97":166691.16,"N_COORD97":2548699.4399999999,"ADDRESS":"海佃路二段３０７巷３３弄８號","OBJECTID":195821},"geometry":{"x":166691.16000000015,"y":2548699.4400000032}},{"attributes":{"ID":195823,"DIS_CODE":0,"TOWNNAME":"仁德區","LI":"成功里","LIN":"18鄰","STREET":"全福路","SECT":" ","MAREA":" ","LANE":"７５巷","ALLEY":"１４弄","HOUSE_NO":"８號","E_COORD97":171069.37,"N_COORD97":2539339.2400000002,"ADDRESS":"全福路７５巷１４弄８號","OBJECTID":195822},"geometry":{"x":171069.37000000104,"y":2539339.2400000002}},{"attributes":{"ID":195824,"DIS_CODE":0,"TOWNNAME":"仁德區","LI":"成功里","LIN":"18鄰","STREET":"全福路","SECT":" ","MAREA":" ","LANE":"７５巷","ALLEY":"１４弄","HOUSE_NO":"４號","E_COORD97":171061.13,"N_COORD97":2539339.7400000002,"ADDRESS":"全福路７５巷１４弄４號","OBJECTID":195823},"geometry":{"x":171061.12999999989,"y":2539339.7400000002}},{"attributes":{"ID":195825,"DIS_CODE":0,"TOWNNAME":"仁德區","LI":"後壁里","LIN":"18鄰","STREET":"德南路","SECT":" ","MAREA":" ","LANE":"２２巷","ALLEY":"９弄","HOUSE_NO":"１１號","E_COORD97":173318.89000000001,"N_COORD97":2538733.2599999998,"ADDRESS":"德南路２２巷９弄１１號","OBJECTID":195824},"geometry":{"x":173318.88999999966,"y":2538733.2600000035}},{"attributes":{"ID":195826,"DIS_CODE":0,"TOWNNAME":"新營區","LI":"忠政里","LIN":"21鄰","STREET":"府西路","SECT":" ","MAREA":" ","LANE":" ","ALLEY":" ","HOUSE_NO":"２２１號","E_COORD97":179797.26000000001,"N_COORD97":2579578.1400000001,"ADDRESS":"府西路２２１號","OBJECTID":195825},"geometry":{"x":179797.25999999978,"y":2579578.1400000006}},{"attributes":{"ID":195827,"DIS_CODE":0,"TOWNNAME":"新營區","LI":"太北里","LIN":"21鄰","STREET":" ","SECT":" ","MAREA":"太子宮","LANE":" ","ALLEY":" ","HOUSE_NO":"１５２之３４號","E_COORD97":175283.89000000001,"N_COORD97":2577265.77,"ADDRESS":"太子宮１５２之３４號","OBJECTID":195826},"geometry":{"x":175283.88999999966,"y":2577265.7700000014}},{"attributes":{"ID":195828,"DIS_CODE":0,"TOWNNAME":"歸仁區","LI":"大潭里","LIN":"21鄰","STREET":"長榮路","SECT":"三段","MAREA":" ","LANE":" ","ALLEY":" ","HOUSE_NO":"３０２號","E_COORD97":179781.62,"N_COORD97":2534051.25,"ADDRESS":"長榮路三段３０２號","OBJECTID":195827},"geometry":{"x":179781.62000000011,"y":2534051.2499999981}},{"attributes":{"ID":195829,"DIS_CODE":0,"TOWNNAME":"歸仁區","LI":"八甲里","LIN":"21鄰","STREET":"大仁街","SECT":" ","MAREA":" ","LANE":" ","ALLEY":" ","HOUSE_NO":"３２６號","E_COORD97":178267.59,"N_COORD97":2541390.25,"ADDRESS":"大仁街３２６號","OBJECTID":195828},"geometry":{"x":178267.58999999985,"y":2541390.25}},{"attributes":{"ID":195830,"DIS_CODE":0,"TOWNNAME":"歸仁區","LI":"崙頂里","LIN":"21鄰","STREET":"大成路","SECT":" ","MAREA":" ","LANE":" ","ALLEY":" ","HOUSE_NO":"２００號","E_COORD97":177772.72,"N_COORD97":2540136.25,"ADDRESS":"大成路２００號","OBJECTID":195829},"geometry":{"x":177772.72000000067,"y":2540136.25}},{"attributes":{"ID":195831,"DIS_CODE":0,"TOWNNAME":"歸仁區","LI":"看西里","LIN":"21鄰","STREET":"成功九街","SECT":" ","MAREA":" ","LANE":" ","ALLEY":" ","HOUSE_NO":"１１號","E_COORD97":178102.85999999999,"N_COORD97":2539780.3599999999,"ADDRESS":"成功九街１１號","OBJECTID":195830},"geometry":{"x":178102.86000000127,"y":2539780.3600000013}},{"attributes":{"ID":195832,"DIS_CODE":0,"TOWNNAME":"安南區","LI":"梅花里","LIN":"18鄰","STREET":"同安路","SECT":" ","MAREA":" ","LANE":"３８２巷","ALLEY":"１４弄","HOUSE_NO":"１０號","E_COORD97":167320.35999999999,"N_COORD97":2549313.7200000002,"ADDRESS":"同安路３８２巷１４弄１０號","OBJECTID":195831},"geometry":{"x":167320.36000000127,"y":2549313.7200000025}},{"attributes":{"ID":195833,"DIS_CODE":0,"TOWNNAME":"安南區","LI":"梅花里","LIN":"18鄰","STREET":"同安路","SECT":" ","MAREA":" ","LANE":"３８２巷","ALLEY":"１４弄","HOUSE_NO":"１２號","E_COORD97":167317.17000000001,"N_COORD97":2549317.1200000001,"ADDRESS":"同安路３８２巷１４弄１２號","OBJECTID":195832},"geometry":{"x":167317.17000000086,"y":2549317.1200000048}},{"attributes":{"ID":195834,"DIS_CODE":0,"TOWNNAME":"安南區","LI":"梅花里","LIN":"18鄰","STREET":"同安路","SECT":" ","MAREA":" ","LANE":"３８２巷","ALLEY":"１４弄","HOUSE_NO":"１４號","E_COORD97":167303.98000000001,"N_COORD97":2549296.0800000001,"ADDRESS":"同安路３８２巷１４弄１４號","OBJECTID":195833},"geometry":{"x":167303.98000000138,"y":2549296.0800000038}},{"attributes":{"ID":195835,"DIS_CODE":0,"TOWNNAME":"安南區","LI":"梅花里","LIN":"18鄰","STREET":"同安路","SECT":" ","MAREA":" ","LANE":"３８２巷","ALLEY":"１４弄","HOUSE_NO":"１６號","E_COORD97":167307.81,"N_COORD97":2549293.7400000002,"ADDRESS":"同安路３８２巷１４弄１６號","OBJECTID":195834},"geometry":{"x":167307.81000000052,"y":2549293.7400000002}},{"attributes":{"ID":195836,"DIS_CODE":0,"TOWNNAME":"安南區","LI":"梅花里","LIN":"18鄰","STREET":"同安路","SECT":" ","MAREA":" ","LANE":"３８２巷","ALLEY":"１４弄","HOUSE_NO":"１８號","E_COORD97":167310.57000000001,"N_COORD97":2549290.9700000002,"ADDRESS":"同安路３８２巷１４弄１８號","OBJECTID":195835},"geometry":{"x":167310.5700000003,"y":2549290.9700000025}},{"attributes":{"ID":195837,"DIS_CODE":0,"TOWNNAME":"安南區","LI":"梅花里","LIN":"18鄰","STREET":"同安路","SECT":" ","MAREA":" ","LANE":"３８２巷","ALLEY":"１４弄","HOUSE_NO":"２０號","E_COORD97":167314.60999999999,"N_COORD97":2549288.6299999999,"ADDRESS":"同安路３８２巷１４弄２０號","OBJECTID":195836},"geometry":{"x":167314.61000000127,"y":2549288.6300000008}},{"attributes":{"ID":195838,"DIS_CODE":0,"TOWNNAME":"安南區","LI":"梅花里","LIN":"18鄰","STREET":"同安路","SECT":" ","MAREA":" ","LANE":"３８２巷","ALLEY":"１４弄","HOUSE_NO":"２２號","E_COORD97":167318.23000000001,"N_COORD97":2549285.8700000001,"ADDRESS":"同安路３８２巷１４弄２２號","OBJECTID":195837},"geometry":{"x":167318.23000000045,"y":2549285.8700000029}},{"attributes":{"ID":195839,"DIS_CODE":0,"TOWNNAME":"安南區","LI":"梅花里","LIN":"18鄰","STREET":"同安路","SECT":" ","MAREA":" ","LANE":"３８２巷","ALLEY":"１４弄","HOUSE_NO":"２４號","E_COORD97":167323.12,"N_COORD97":2549284.5899999999,"ADDRESS":"同安路３８２巷１４弄２４號","OBJECTID":195838},"geometry":{"x":167323.12000000104,"y":2549284.5899999999}},{"attributes":{"ID":195840,"DIS_CODE":0,"TOWNNAME":"南區","LI":"郡南里","LIN":"21鄰","STREET":"新都路","SECT":" ","MAREA":" ","LANE":" ","ALLEY":" ","HOUSE_NO":"３３３號","E_COORD97":167613.29000000001,"N_COORD97":2540875.3599999999,"ADDRESS":"新都路３３３號","OBJECTID":195839},"geometry":{"x":167613.29000000097,"y":2540875.3600000013}},{"attributes":{"ID":195841,"DIS_CODE":0,"TOWNNAME":"安南區","LI":"梅花里","LIN":"18鄰","STREET":"同安路","SECT":" ","MAREA":" ","LANE":"３８２巷","ALLEY":"１４弄","HOUSE_NO":"２號","E_COORD97":167335.89000000001,"N_COORD97":2549306.0699999998,"ADDRESS":"同安路３８２巷１４弄２號","OBJECTID":195840},"geometry":{"x":167335.8900000006,"y":2549306.0699999984}},{"attributes":{"ID":195842,"DIS_CODE":0,"TOWNNAME":"安南區","LI":"梅花里","LIN":"18鄰","STREET":"同安路","SECT":" ","MAREA":" ","LANE":"３８２巷","ALLEY":"１４弄","HOUSE_NO":"４號","E_COORD97":167330.78,"N_COORD97":2549307.5600000001,"ADDRESS":"同安路３８２巷１４弄４號","OBJECTID":195841},"geometry":{"x":167330.78000000119,"y":2549307.5600000024}},{"attributes":{"ID":195843,"DIS_CODE":0,"TOWNNAME":"安南區","LI":"梅花里","LIN":"18鄰","STREET":"同安路","SECT":" ","MAREA":" ","LANE":"３８２巷","ALLEY":"１４弄","HOUSE_NO":"６號","E_COORD97":167327.79999999999,"N_COORD97":2549309.2599999998,"ADDRESS":"同安路３８２巷１４弄６號","OBJECTID":195842},"geometry":{"x":167327.79999999888,"y":2549309.2600000016}},{"attributes":{"ID":195844,"DIS_CODE":0,"TOWNNAME":"安南區","LI":"梅花里","LIN":"18鄰","STREET":"同安路","SECT":" ","MAREA":" ","LANE":"３８２巷","ALLEY":"１４弄","HOUSE_NO":"８號","E_COORD97":167324.19,"N_COORD97":2549311.6000000001,"ADDRESS":"同安路３８２巷１４弄８號","OBJECTID":195843},"geometry":{"x":167324.19000000227,"y":2549311.5999999996}},{"attributes":{"ID":195845,"DIS_CODE":0,"TOWNNAME":"安南區","LI":"淵中里","LIN":"18鄰","STREET":"安中路","SECT":"四段","MAREA":" ","LANE":"１９７巷","ALLEY":"１８弄","HOUSE_NO":"１０號","E_COORD97":164717.09,"N_COORD97":2550057.5600000001,"ADDRESS":"安中路四段１９７巷１８弄１０號","OBJECTID":195844},"geometry":{"x":164717.09000000171,"y":2550057.5600000024}},{"attributes":{"ID":195846,"DIS_CODE":0,"TOWNNAME":"安南區","LI":"淵中里","LIN":"18鄰","STREET":"安中路","SECT":"四段","MAREA":" ","LANE":"１９７巷","ALLEY":"１８弄","HOUSE_NO":"１２號","E_COORD97":164713.25,"N_COORD97":2550058.9700000002,"ADDRESS":"安中路四段１９７巷１８弄１２號","OBJECTID":195845},"geometry":{"x":164713.25000000093,"y":2550058.9700000007}},{"attributes":{"ID":195847,"DIS_CODE":0,"TOWNNAME":"安南區","LI":"淵中里","LIN":"18鄰","STREET":"安中路","SECT":"四段","MAREA":" ","LANE":"１９７巷","ALLEY":"１８弄","HOUSE_NO":"１４號","E_COORD97":164708.92000000001,"N_COORD97":2550060.6400000001,"ADDRESS":"安中路四段１９７巷１８弄１４號","OBJECTID":195846},"geometry":{"x":164708.92000000086,"y":2550060.6400000006}},{"attributes":{"ID":195848,"DIS_CODE":0,"TOWNNAME":"安南區","LI":"淵中里","LIN":"18鄰","STREET":"安中路","SECT":"四段","MAREA":" ","LANE":"１９７巷","ALLEY":"１８弄","HOUSE_NO":"１６號","E_COORD97":164704.64000000001,"N_COORD97":2550062.4900000002,"ADDRESS":"安中路四段１９７巷１８弄１６號","OBJECTID":195847},"geometry":{"x":164704.64000000153,"y":2550062.4900000002}},{"attributes":{"ID":195849,"DIS_CODE":0,"TOWNNAME":"安定區","LI":"港南里","LIN":"3鄰","STREET":" ","SECT":" ","MAREA":"港口","LANE":" ","ALLEY":" ","HOUSE_NO":"２２號之９","E_COORD97":171488.95999999999,"N_COORD97":2554108.2999999998,"ADDRESS":"港口２２號之９","OBJECTID":195848},"geometry":{"x":171488.96000000089,"y":2554108.3000000007}},{"attributes":{"ID":195850,"DIS_CODE":0,"TOWNNAME":"新營區","LI":"太北里","LIN":"21鄰","STREET":" ","SECT":" ","MAREA":"太子宮","LANE":" ","ALLEY":" ","HOUSE_NO":"１５２之１３號","E_COORD97":175324.608905,"N_COORD97":2577169.8980800002,"ADDRESS":"太子宮１５２之１３號","OBJECTID":195849},"geometry":{"x":175324.60890500154,"y":2577169.8980810028}},{"attributes":{"ID":195851,"DIS_CODE":0,"TOWNNAME":"安定區","LI":"新吉里","LIN":"3鄰","STREET":" ","SECT":" ","MAREA":"新吉","LANE":" ","ALLEY":" ","HOUSE_NO":"２５之６號","E_COORD97":169491.76999999999,"N_COORD97":2554136.2999999998,"ADDRESS":"新吉２５之６號","OBJECTID":195850},"geometry":{"x":169491.76999999955,"y":2554136.2999999989}},{"attributes":{"ID":195852,"DIS_CODE":0,"TOWNNAME":"安南區","LI":"淵中里","LIN":"18鄰","STREET":"安中路","SECT":"四段","MAREA":" ","LANE":"１９７巷","ALLEY":"１８弄","HOUSE_NO":"２號","E_COORD97":164738.69,"N_COORD97":2550045.98,"ADDRESS":"安中路四段１９７巷１８弄２號","OBJECTID":195851},"geometry":{"x":164738.69000000041,"y":2550045.9799999986}},{"attributes":{"ID":195853,"DIS_CODE":0,"TOWNNAME":"安定區","LI":"新吉里","LIN":"3鄰","STREET":" ","SECT":" ","MAREA":"新吉","LANE":" ","ALLEY":" ","HOUSE_NO":"２５之１號","E_COORD97":169469.07000000001,"N_COORD97":2554132.2999999998,"ADDRESS":"新吉２５之１號","OBJECTID":195852},"geometry":{"x":169469.0700000003,"y":2554132.3000000007}},{"attributes":{"ID":195854,"DIS_CODE":0,"TOWNNAME":"安定區","LI":"港南里","LIN":"3鄰","STREET":" ","SECT":" ","MAREA":"港口","LANE":" ","ALLEY":" ","HOUSE_NO":"２３號之２２","E_COORD97":171529.26000000001,"N_COORD97":2554082.2999999998,"ADDRESS":"港口２３號之２２","OBJECTID":195853},"geometry":{"x":171529.26000000071,"y":2554082.3000000045}},{"attributes":{"ID":195855,"DIS_CODE":0,"TOWNNAME":"安定區","LI":"港南里","LIN":"3鄰","STREET":" ","SECT":" ","MAREA":"港口","LANE":" ","ALLEY":" ","HOUSE_NO":"２３之２８號","E_COORD97":171529.89000000001,"N_COORD97":2553799.2999999998,"ADDRESS":"港口２３之２８號","OBJECTID":195854},"geometry":{"x":171529.8900000006,"y":2553799.3000000007}},{"attributes":{"ID":195856,"DIS_CODE":0,"TOWNNAME":"安定區","LI":"港南里","LIN":"3鄰","STREET":" ","SECT":" ","MAREA":"港口","LANE":" ","ALLEY":" ","HOUSE_NO":"２３之７號","E_COORD97":171442.34,"N_COORD97":2554081.2999999998,"ADDRESS":"港口２３之７號","OBJECTID":195855},"geometry":{"x":171442.34000000078,"y":2554081.3000000007}},{"attributes":{"ID":195857,"DIS_CODE":0,"TOWNNAME":"安定區","LI":"港南里","LIN":"3鄰","STREET":" ","SECT":" ","MAREA":"港口","LANE":" ","ALLEY":" ","HOUSE_NO":"２３號之１１","E_COORD97":171436.03,"N_COORD97":2554062.2999999998,"ADDRESS":"港口２３號之１１","OBJECTID":195856},"geometry":{"x":171436.03000000212,"y":2554062.3000000026}},{"attributes":{"ID":195858,"DIS_CODE":0,"TOWNNAME":"安定區","LI":"新吉里","LIN":"3鄰","STREET":" ","SECT":" ","MAREA":"新吉","LANE":" ","ALLEY":" ","HOUSE_NO":"２４號之２","E_COORD97":169549.54000000001,"N_COORD97":2554137.2999999998,"ADDRESS":"新吉２４號之２","OBJECTID":195857},"geometry":{"x":169549.54000000097,"y":2554137.3000000026}},{"attributes":{"ID":195859,"DIS_CODE":0,"TOWNNAME":"安定區","LI":"港南里","LIN":"3鄰","STREET":" ","SECT":" ","MAREA":"港口","LANE":" ","ALLEY":" ","HOUSE_NO":"３４號","E_COORD97":171513.73999999999,"N_COORD97":2554184.25,"ADDRESS":"港口３４號","OBJECTID":195858},"geometry":{"x":171513.74000000022,"y":2554184.2500000019}},{"attributes":{"ID":195860,"DIS_CODE":0,"TOWNNAME":"安定區","LI":"新吉里","LIN":"3鄰","STREET":" ","SECT":" ","MAREA":"新吉","LANE":" ","ALLEY":" ","HOUSE_NO":"２４之１１號","E_COORD97":169566.22,"N_COORD97":2554135.2999999998,"ADDRESS":"新吉２４之１１號","OBJECTID":195859},"geometry":{"x":169566.22000000067,"y":2554135.3000000007}},{"attributes":{"ID":195861,"DIS_CODE":0,"TOWNNAME":"安定區","LI":"新吉里","LIN":"3鄰","STREET":" ","SECT":" ","MAREA":"新吉","LANE":" ","ALLEY":" ","HOUSE_NO":"２４之１５號","E_COORD97":169556.22,"N_COORD97":2554117.2999999998,"ADDRESS":"新吉２４之１５號","OBJECTID":195860},"geometry":{"x":169556.22000000067,"y":2554117.3000000026}},{"attributes":{"ID":195862,"DIS_CODE":0,"TOWNNAME":"安南區","LI":"淵中里","LIN":"18鄰","STREET":"安中路","SECT":"四段","MAREA":" ","LANE":"１９７巷","ALLEY":"１８弄","HOUSE_NO":"４號","E_COORD97":164732.67999999999,"N_COORD97":2550047.8900000001,"ADDRESS":"安中路四段１９７巷１８弄４號","OBJECTID":195861},"geometry":{"x":164732.6799999997,"y":2550047.8900000025}},{"attributes":{"ID":195863,"DIS_CODE":0,"TOWNNAME":"新化區","LI":"全興里","LIN":"21鄰","STREET":" ","SECT":" ","MAREA":"竹子\u25A0","LANE":" ","ALLEY":" ","HOUSE_NO":"２４７號之４７２","E_COORD97":178479.89000000001,"N_COORD97":2546631.2599999998,"ADDRESS":"竹子\u25A0２４７號之４７２","OBJECTID":195862},"geometry":{"x":178479.89000000153,"y":2546631.2599999998}},{"attributes":{"ID":195864,"DIS_CODE":0,"TOWNNAME":"安定區","LI":"蘇林里","LIN":"3鄰","STREET":" ","SECT":" ","MAREA":"蘇厝","LANE":" ","ALLEY":" ","HOUSE_NO":"３３號","E_COORD97":173459.87,"N_COORD97":2558605.25,"ADDRESS":"蘇厝３３號","OBJECTID":195863},"geometry":{"x":173459.87000000104,"y":2558605.2500000019}},{"attributes":{"ID":195865,"DIS_CODE":0,"TOWNNAME":"安南區","LI":"淵中里","LIN":"18鄰","STREET":"安中路","SECT":"四段","MAREA":" ","LANE":"１９７巷","ALLEY":"１８弄","HOUSE_NO":"６號","E_COORD97":164727.10000000001,"N_COORD97":2550051.1400000001,"ADDRESS":"安中路四段１９７巷１８弄６號","OBJECTID":195864},"geometry":{"x":164727.10000000056,"y":2550051.1400000006}},{"attributes":{"ID":195866,"DIS_CODE":0,"TOWNNAME":"安南區","LI":"淵中里","LIN":"18鄰","STREET":"安中路","SECT":"四段","MAREA":" ","LANE":"１９７巷","ALLEY":"１８弄","HOUSE_NO":"８號","E_COORD97":164721.84,"N_COORD97":2550054.3900000001,"ADDRESS":"安中路四段１９７巷１８弄８號","OBJECTID":195865},"geometry":{"x":164721.83999999985,"y":2550054.3900000025}},{"attributes":{"ID":195867,"DIS_CODE":0,"TOWNNAME":"安南區","LI":"淵中里","LIN":"18鄰","STREET":"安中路","SECT":"四段","MAREA":" ","LANE":"１９７巷","ALLEY":"２８弄","HOUSE_NO":"１０號","E_COORD97":164707.04000000001,"N_COORD97":2550037.29,"ADDRESS":"安中路四段１９７巷２８弄１０號","OBJECTID":195866},"geometry":{"x":164707.04000000004,"y":2550037.290000001}},{"attributes":{"ID":195868,"DIS_CODE":0,"TOWNNAME":"安定區","LI":"新吉里","LIN":"3鄰","STREET":" ","SECT":" ","MAREA":"新吉","LANE":" ","ALLEY":" ","HOUSE_NO":"２４號之６","E_COORD97":169537.91,"N_COORD97":2554118.2999999998,"ADDRESS":"新吉２４號之６","OBJECTID":195867},"geometry":{"x":169537.90999999922,"y":2554118.3000000007}},{"attributes":{"ID":195869,"DIS_CODE":0,"TOWNNAME":"安南區","LI":"淵中里","LIN":"18鄰","STREET":"安中路","SECT":"四段","MAREA":" ","LANE":"１９７巷","ALLEY":"２８弄","HOUSE_NO":"１２號","E_COORD97":164700.20000000001,"N_COORD97":2550040.3700000001,"ADDRESS":"安中路四段１９７巷２８弄１２號","OBJECTID":195868},"geometry":{"x":164700.20000000112,"y":2550040.370000001}},{"attributes":{"ID":195870,"DIS_CODE":0,"TOWNNAME":"安定區","LI":"大同里","LIN":"3鄰","STREET":" ","SECT":" ","MAREA":"大同","LANE":" ","ALLEY":" ","HOUSE_NO":"２９號","E_COORD97":170458.07000000001,"N_COORD97":2553886.25,"ADDRESS":"大同２９號","OBJECTID":195869},"geometry":{"x":170458.07000000123,"y":2553886.2500000019}},{"attributes":{"ID":195871,"DIS_CODE":0,"TOWNNAME":"安南區","LI":"淵中里","LIN":"18鄰","STREET":"安中路","SECT":"四段","MAREA":" ","LANE":"１９７巷","ALLEY":"２８弄","HOUSE_NO":"１４號","E_COORD97":164694.70000000001,"N_COORD97":2550044.04,"ADDRESS":"安中路四段１９７巷２８弄１４號","OBJECTID":195870},"geometry":{"x":164694.70000000205,"y":2550044.0399999991}},{"attributes":{"ID":195872,"DIS_CODE":0,"TOWNNAME":"安定區","LI":"大同里","LIN":"3鄰","STREET":" ","SECT":" ","MAREA":"大同","LANE":" ","ALLEY":" ","HOUSE_NO":"３８號","E_COORD97":170441.17000000001,"N_COORD97":2553934.25,"ADDRESS":"大同３８號","OBJECTID":195871},"geometry":{"x":170441.16999999899,"y":2553934.2500000019}},{"attributes":{"ID":195873,"DIS_CODE":0,"TOWNNAME":"安定區","LI":"中榮里","LIN":"3鄰","STREET":" ","SECT":" ","MAREA":"許中營","LANE":" ","ALLEY":" ","HOUSE_NO":"３５之１２號","E_COORD97":172406.29000000001,"N_COORD97":2555002.2999999998,"ADDRESS":"許中營３５之１２號","OBJECTID":195872},"geometry":{"x":172406.29000000004,"y":2555002.3000000026}},{"attributes":{"ID":195874,"DIS_CODE":0,"TOWNNAME":"七股區","LI":"大埕里","LIN":"3鄰","STREET":" ","SECT":" ","MAREA":"大埕","LANE":" ","ALLEY":" ","HOUSE_NO":"９１號","E_COORD97":162902.41,"N_COORD97":2561024.5499999998,"ADDRESS":"大埕９１號","OBJECTID":195873},"geometry":{"x":162902.41000000015,"y":2561024.5500000026}},{"attributes":{"ID":195875,"DIS_CODE":0,"TOWNNAME":"安定區","LI":"中榮里","LIN":"3鄰","STREET":" ","SECT":" ","MAREA":"許中營","LANE":" ","ALLEY":" ","HOUSE_NO":"３８之６號","E_COORD97":172558.94,"N_COORD97":2555041.2999999998,"ADDRESS":"許中營３８之６號","OBJECTID":195874},"geometry":{"x":172558.94000000227,"y":2555041.3000000007}},{"attributes":{"ID":195876,"DIS_CODE":0,"TOWNNAME":"安定區","LI":"港尾里","LIN":"3鄰","STREET":" ","SECT":" ","MAREA":"港子尾","LANE":" ","ALLEY":" ","HOUSE_NO":"１號之７","E_COORD97":171579.64999999999,"N_COORD97":2556274.2999999998,"ADDRESS":"港子尾１號之７","OBJECTID":195875},"geometry":{"x":171579.6500000013,"y":2556274.3000000007}},{"attributes":{"ID":195877,"DIS_CODE":0,"TOWNNAME":"安定區","LI":"港尾里","LIN":"3鄰","STREET":" ","SECT":" ","MAREA":"港子尾","LANE":" ","ALLEY":" ","HOUSE_NO":"１２號之２","E_COORD97":171640.66,"N_COORD97":2556162.2999999998,"ADDRESS":"港子尾１２號之２","OBJECTID":195876},"geometry":{"x":171640.66000000108,"y":2556162.3000000007}},{"attributes":{"ID":195878,"DIS_CODE":0,"TOWNNAME":"安定區","LI":"港口里","LIN":"3鄰","STREET":" ","SECT":" ","MAREA":"港口","LANE":" ","ALLEY":" ","HOUSE_NO":"２５２號之４","E_COORD97":171525.25,"N_COORD97":2554759.2999999998,"ADDRESS":"港口２５２號之４","OBJECTID":195877},"geometry":{"x":171525.25,"y":2554759.3000000007}},{"attributes":{"ID":195879,"DIS_CODE":0,"TOWNNAME":"安定區","LI":"港尾里","LIN":"3鄰","STREET":" ","SECT":" ","MAREA":"港子尾","LANE":" ","ALLEY":" ","HOUSE_NO":"１５之１０號","E_COORD97":171656.64000000001,"N_COORD97":2556157.2999999998,"ADDRESS":"港子尾１５之１０號","OBJECTID":195878},"geometry":{"x":171656.64000000153,"y":2556157.3000000045}},{"attributes":{"ID":195880,"DIS_CODE":0,"TOWNNAME":"安定區","LI":"六嘉里","LIN":"3鄰","STREET":" ","SECT":" ","MAREA":"六塊寮","LANE":" ","ALLEY":" ","HOUSE_NO":"２１號之４","E_COORD97":170072.98000000001,"N_COORD97":2553433.2999999998,"ADDRESS":"六塊寮２１號之４","OBJECTID":195879},"geometry":{"x":170072.98000000045,"y":2553433.3000000007}},{"attributes":{"ID":195881,"DIS_CODE":0,"TOWNNAME":"安南區","LI":"淵中里","LIN":"18鄰","STREET":"安中路","SECT":"四段","MAREA":" ","LANE":"１９７巷","ALLEY":"２８弄","HOUSE_NO":"１６號","E_COORD97":164689.28,"N_COORD97":2550046.04,"ADDRESS":"安中路四段１９７巷２８弄１６號","OBJECTID":195880},"geometry":{"x":164689.28000000119,"y":2550046.0399999991}},{"attributes":{"ID":195882,"DIS_CODE":0,"TOWNNAME":"安定區","LI":"中榮里","LIN":"3鄰","STREET":" ","SECT":" ","MAREA":"許中營","LANE":" ","ALLEY":" ","HOUSE_NO":"３５之９號","E_COORD97":172392.84,"N_COORD97":2554994.2999999998,"ADDRESS":"許中營３５之９號","OBJECTID":195881},"geometry":{"x":172392.84000000171,"y":2554994.3000000045}},{"attributes":{"ID":195883,"DIS_CODE":0,"TOWNNAME":"安定區","LI":"港尾里","LIN":"3鄰","STREET":" ","SECT":" ","MAREA":"港子尾","LANE":" ","ALLEY":" ","HOUSE_NO":"１號之４","E_COORD97":171551.39999999999,"N_COORD97":2556267.2999999998,"ADDRESS":"港子尾１號之４","OBJECTID":195882},"geometry":{"x":171551.40000000037,"y":2556267.3000000026}},{"attributes":{"ID":195884,"DIS_CODE":0,"TOWNNAME":"安定區","LI":"港尾里","LIN":"3鄰","STREET":" ","SECT":" ","MAREA":"港子尾","LANE":" ","ALLEY":" ","HOUSE_NO":"１５號之５","E_COORD97":171675.38,"N_COORD97":2556168.2999999998,"ADDRESS":"港子尾１５號之５","OBJECTID":195883},"geometry":{"x":171675.37999999989,"y":2556168.3000000026}},{"attributes":{"ID":195885,"DIS_CODE":0,"TOWNNAME":"安南區","LI":"淵中里","LIN":"18鄰","STREET":"安中路","SECT":"四段","MAREA":" ","LANE":"１９７巷","ALLEY":"２８弄","HOUSE_NO":"１８號","E_COORD97":164682.51999999999,"N_COORD97":2550048.54,"ADDRESS":"安中路四段１９７巷２８弄１８號","OBJECTID":195884},"geometry":{"x":164682.51999999955,"y":2550048.540000001}},{"attributes":{"ID":195886,"DIS_CODE":0,"TOWNNAME":"安定區","LI":"港口里","LIN":"3鄰","STREET":" ","SECT":" ","MAREA":"港口","LANE":" ","ALLEY":" ","HOUSE_NO":"２５３之１７號","E_COORD97":171682.64000000001,"N_COORD97":2554944.2999999998,"ADDRESS":"港口２５３之１７號","OBJECTID":195885},"geometry":{"x":171682.6400000006,"y":2554944.3000000026}},{"attributes":{"ID":195887,"DIS_CODE":0,"TOWNNAME":"安定區","LI":"港口里","LIN":"3鄰","STREET":" ","SECT":" ","MAREA":"港口","LANE":" ","ALLEY":" ","HOUSE_NO":"２５３之４８號","E_COORD97":171630.54000000001,"N_COORD97":2554867.2999999998,"ADDRESS":"港口２５３之４８號","OBJECTID":195886},"geometry":{"x":171630.5400000019,"y":2554867.3000000007}},{"attributes":{"ID":195888,"DIS_CODE":0,"TOWNNAME":"安定區","LI":"中沙里","LIN":"3鄰","STREET":" ","SECT":" ","MAREA":"中崙","LANE":" ","ALLEY":" ","HOUSE_NO":"１０５號","E_COORD97":169005.60999999999,"N_COORD97":2553206.25,"ADDRESS":"中崙１０５號","OBJECTID":195887},"geometry":{"x":169005.61000000034,"y":2553206.25}},{"attributes":{"ID":195889,"DIS_CODE":0,"TOWNNAME":"安定區","LI":"中沙里","LIN":"3鄰","STREET":" ","SECT":" ","MAREA":"中崙","LANE":" ","ALLEY":" ","HOUSE_NO":"１０６號","E_COORD97":169040.81,"N_COORD97":2553219.25,"ADDRESS":"中崙１０６號","OBJECTID":195888},"geometry":{"x":169040.80999999959,"y":2553219.25}},{"attributes":{"ID":195890,"DIS_CODE":0,"TOWNNAME":"安平區","LI":"金城里","LIN":"15鄰","STREET":"安北路","SECT":" ","MAREA":" ","LANE":" ","ALLEY":" ","HOUSE_NO":"５７８號","E_COORD97":162796.88,"N_COORD97":2544370.4399999999,"ADDRESS":"安北路５７８號","OBJECTID":195889},"geometry":{"x":162796.88000000082,"y":2544370.4400000013}},{"attributes":{"ID":195891,"DIS_CODE":0,"TOWNNAME":"安定區","LI":"港口里","LIN":"3鄰","STREET":" ","SECT":" ","MAREA":"港口","LANE":" ","ALLEY":" ","HOUSE_NO":"２５３之３５號","E_COORD97":171679.54000000001,"N_COORD97":2554845.2999999998,"ADDRESS":"港口２５３之３５號","OBJECTID":195890},"geometry":{"x":171679.54000000004,"y":2554845.3000000045}},{"attributes":{"ID":195892,"DIS_CODE":0,"TOWNNAME":"安定區","LI":"港尾里","LIN":"3鄰","STREET":" ","SECT":" ","MAREA":"港子尾","LANE":" ","ALLEY":" ","HOUSE_NO":"２之３號","E_COORD97":171596.23999999999,"N_COORD97":2556202.2999999998,"ADDRESS":"港子尾２之３號","OBJECTID":195891},"geometry":{"x":171596.24000000115,"y":2556202.3000000026}},{"attributes":{"ID":195893,"DIS_CODE":0,"TOWNNAME":"安定區","LI":"港口里","LIN":"3鄰","STREET":" ","SECT":" ","MAREA":"港口","LANE":" ","ALLEY":" ","HOUSE_NO":"２５３號之２１","E_COORD97":171664.48000000001,"N_COORD97":2554934.2999999998,"ADDRESS":"港口２５３號之２１","OBJECTID":195892},"geometry":{"x":171664.48000000045,"y":2554934.3000000026}},{"attributes":{"ID":195894,"DIS_CODE":0,"TOWNNAME":"安定區","LI":"港尾里","LIN":"3鄰","STREET":" ","SECT":" ","MAREA":"港子尾","LANE":" ","ALLEY":" ","HOUSE_NO":"１５號之２","E_COORD97":171641.35999999999,"N_COORD97":2556205.2999999998,"ADDRESS":"港子尾１５號之２","OBJECTID":195893},"geometry":{"x":171641.36000000127,"y":2556205.3000000026}},{"attributes":{"ID":195895,"DIS_CODE":0,"TOWNNAME":"安定區","LI":"安定里","LIN":"3鄰","STREET":" ","SECT":" ","MAREA":"安定","LANE":" ","ALLEY":" ","HOUSE_NO":"２之７號","E_COORD97":172731.62,"N_COORD97":2558050.3199999998,"ADDRESS":"安定２之７號","OBJECTID":195894},"geometry":{"x":172731.62000000011,"y":2558050.3200000003}},{"attributes":{"ID":195896,"DIS_CODE":0,"TOWNNAME":"南區","LI":"建南里","LIN":"21鄰","STREET":"中華南路","SECT":"二段","MAREA":" ","LANE":" ","ALLEY":" ","HOUSE_NO":"５１號","E_COORD97":167364.92999999999,"N_COORD97":2540292.9500000002,"ADDRESS":"中華南路二段５１號","OBJECTID":195895},"geometry":{"x":167364.93000000063,"y":2540292.9499999993}},{"attributes":{"ID":195897,"DIS_CODE":0,"TOWNNAME":"北區","LI":"成德里","LIN":"21鄰","STREET":"文成五街","SECT":" ","MAREA":" ","LANE":" ","ALLEY":" ","HOUSE_NO":"５８號","E_COORD97":168526.84,"N_COORD97":2546607.46,"ADDRESS":"文成五街５８號","OBJECTID":195896},"geometry":{"x":168526.84000000078,"y":2546607.4600000009}},{"attributes":{"ID":195898,"DIS_CODE":0,"TOWNNAME":"安南區","LI":"淵中里","LIN":"18鄰","STREET":"安中路","SECT":"四段","MAREA":" ","LANE":"１９７巷","ALLEY":"２８弄","HOUSE_NO":"２號","E_COORD97":164730.14000000001,"N_COORD97":2550026.79,"ADDRESS":"安中路四段１９７巷２８弄２號","OBJECTID":195897},"geometry":{"x":164730.14000000153,"y":2550026.790000001}},{"attributes":{"ID":195899,"DIS_CODE":0,"TOWNNAME":"安南區","LI":"淵中里","LIN":"18鄰","STREET":"安中路","SECT":"四段","MAREA":" ","LANE":"１９７巷","ALLEY":"２８弄","HOUSE_NO":"４號","E_COORD97":164724.04999999999,"N_COORD97":2550029.29,"ADDRESS":"安中路四段１９７巷２８弄４號","OBJECTID":195898},"geometry":{"x":164724.05000000168,"y":2550029.2900000028}},{"attributes":{"ID":195900,"DIS_CODE":0,"TOWNNAME":"安南區","LI":"淵中里","LIN":"18鄰","STREET":"安中路","SECT":"四段","MAREA":" ","LANE":"１９７巷","ALLEY":"２８弄","HOUSE_NO":"６號","E_COORD97":164718.20999999999,"N_COORD97":2550032.29,"ADDRESS":"安中路四段１９７巷２８弄６號","OBJECTID":195899},"geometry":{"x":164718.21000000089,"y":2550032.2899999972}},{"attributes":{"ID":195901,"DIS_CODE":0,"TOWNNAME":"安南區","LI":"淵中里","LIN":"18鄰","STREET":"安中路","SECT":"四段","MAREA":" ","LANE":"１９７巷","ALLEY":"２８弄","HOUSE_NO":"８號","E_COORD97":164712.45999999999,"N_COORD97":2550034.96,"ADDRESS":"安中路四段１９７巷２８弄８號","OBJECTID":195900},"geometry":{"x":164712.45999999996,"y":2550034.9600000009}},{"attributes":{"ID":195902,"DIS_CODE":0,"TOWNNAME":"安南區","LI":"淵中里","LIN":"18鄰","STREET":"安中路","SECT":"四段","MAREA":" ","LANE":"１９７巷","ALLEY":"４弄","HOUSE_NO":"１３號","E_COORD97":164728.60000000001,"N_COORD97":2550070.3900000001,"ADDRESS":"安中路四段１９７巷４弄１３號","OBJECTID":195901},"geometry":{"x":164728.60000000149,"y":2550070.3900000006}},{"attributes":{"ID":195903,"DIS_CODE":0,"TOWNNAME":"安南區","LI":"淵中里","LIN":"18鄰","STREET":"安中路","SECT":"四段","MAREA":" ","LANE":"１９７巷","ALLEY":"４弄","HOUSE_NO":"１４號","E_COORD97":164749.48000000001,"N_COORD97":2550085.3599999999,"ADDRESS":"安中路四段１９７巷４弄１４號","OBJECTID":195902},"geometry":{"x":164749.48000000138,"y":2550085.3599999994}},{"attributes":{"ID":195904,"DIS_CODE":0,"TOWNNAME":"新化區","LI":"全興里","LIN":"21鄰","STREET":" ","SECT":" ","MAREA":"竹子\u25A0","LANE":" ","ALLEY":" ","HOUSE_NO":"２４７號之５８３","E_COORD97":178463.17999999999,"N_COORD97":2546603.2599999998,"ADDRESS":"竹子\u25A0２４７號之５８３","OBJECTID":195903},"geometry":{"x":178463.18000000063,"y":2546603.2600000016}},{"attributes":{"ID":195905,"DIS_CODE":0,"TOWNNAME":"新化區","LI":"全興里","LIN":"21鄰","STREET":" ","SECT":" ","MAREA":"竹子\u25A0","LANE":" ","ALLEY":" ","HOUSE_NO":"２４７號之４７４","E_COORD97":178475.17000000001,"N_COORD97":2546631.2599999998,"ADDRESS":"竹子\u25A0２４７號之４７４","OBJECTID":195904},"geometry":{"x":178475.17000000086,"y":2546631.2599999998}},{"attributes":{"ID":195906,"DIS_CODE":0,"TOWNNAME":"新化區","LI":"全興里","LIN":"21鄰","STREET":" ","SECT":" ","MAREA":"竹子\u25A0","LANE":" ","ALLEY":" ","HOUSE_NO":"２４７號之５０２","E_COORD97":178390.79000000001,"N_COORD97":2546632.2599999998,"ADDRESS":"竹子\u25A0２４７號之５０２","OBJECTID":195905},"geometry":{"x":178390.79000000004,"y":2546632.2599999998}},{"attributes":{"ID":195907,"DIS_CODE":0,"TOWNNAME":"新化區","LI":"全興里","LIN":"21鄰","STREET":" ","SECT":" ","MAREA":"竹子\u25A0","LANE":" ","ALLEY":" ","HOUSE_NO":"２４７號之４５０","E_COORD97":178530.76999999999,"N_COORD97":2546629.2599999998,"ADDRESS":"竹子\u25A0２４７號之４５０","OBJECTID":195906},"geometry":{"x":178530.76999999955,"y":2546629.2599999979}},{"attributes":{"ID":195908,"DIS_CODE":0,"TOWNNAME":"安定區","LI":"中榮里","LIN":"3鄰","STREET":" ","SECT":" ","MAREA":"許中營","LANE":" ","ALLEY":" ","HOUSE_NO":"３５號","E_COORD97":172432.34,"N_COORD97":2555004.25,"ADDRESS":"許中營３５號","OBJECTID":195907},"geometry":{"x":172432.34000000078,"y":2555004.2500000037}},{"attributes":{"ID":195909,"DIS_CODE":0,"TOWNNAME":"安定區","LI":"港口里","LIN":"3鄰","STREET":" ","SECT":" ","MAREA":"港口","LANE":" ","ALLEY":" ","HOUSE_NO":"２５３號之１２","E_COORD97":171705.91,"N_COORD97":2554933.2999999998,"ADDRESS":"港口２５３號之１２","OBJECTID":195908},"geometry":{"x":171705.91000000015,"y":2554933.3000000045}},{"attributes":{"ID":195910,"DIS_CODE":0,"TOWNNAME":"安定區","LI":"港口里","LIN":"3鄰","STREET":" ","SECT":" ","MAREA":"港口","LANE":" ","ALLEY":" ","HOUSE_NO":"２５３之１８號","E_COORD97":171677.94,"N_COORD97":2554941.2999999998,"ADDRESS":"港口２５３之１８號","OBJECTID":195909},"geometry":{"x":171677.94000000134,"y":2554941.3000000026}},{"attributes":{"ID":195911,"DIS_CODE":0,"TOWNNAME":"安定區","LI":"港口里","LIN":"3鄰","STREET":" ","SECT":" ","MAREA":"港口","LANE":" ","ALLEY":" ","HOUSE_NO":"２５２之５號","E_COORD97":171532.09,"N_COORD97":2554755.2999999998,"ADDRESS":"港口２５２之５號","OBJECTID":195910},"geometry":{"x":171532.09000000078,"y":2554755.3000000007}},{"attributes":{"ID":195912,"DIS_CODE":0,"TOWNNAME":"安定區","LI":"港尾里","LIN":"3鄰","STREET":" ","SECT":" ","MAREA":"港子尾","LANE":" ","ALLEY":" ","HOUSE_NO":"２之２號","E_COORD97":171619.64000000001,"N_COORD97":2556194.2999999998,"ADDRESS":"港子尾２之２號","OBJECTID":195911},"geometry":{"x":171619.6400000006,"y":2556194.2999999989}},{"attributes":{"ID":195913,"DIS_CODE":0,"TOWNNAME":"安定區","LI":"安定里","LIN":"3鄰","STREET":" ","SECT":" ","MAREA":"安定","LANE":" ","ALLEY":" ","HOUSE_NO":"２之３號","E_COORD97":172746.32000000001,"N_COORD97":2558077.3199999998,"ADDRESS":"安定２之３號","OBJECTID":195912},"geometry":{"x":172746.32000000123,"y":2558077.3200000003}},{"attributes":{"ID":195914,"DIS_CODE":0,"TOWNNAME":"安南區","LI":"淵中里","LIN":"18鄰","STREET":"安中路","SECT":"四段","MAREA":" ","LANE":"１９７巷","ALLEY":"４弄","HOUSE_NO":"５號","E_COORD97":164747.79000000001,"N_COORD97":2550062.4700000002,"ADDRESS":"安中路四段１９７巷４弄５號","OBJECTID":195913},"geometry":{"x":164747.79000000004,"y":2550062.4700000007}},{"attributes":{"ID":195915,"DIS_CODE":0,"TOWNNAME":"安南區","LI":"淵中里","LIN":"18鄰","STREET":"安中路","SECT":"四段","MAREA":" ","LANE":"１９７巷","ALLEY":"４弄","HOUSE_NO":"７號","E_COORD97":164743.28,"N_COORD97":2550064.1299999999,"ADDRESS":"安中路四段１９７巷４弄７號","OBJECTID":195914},"geometry":{"x":164743.28000000212,"y":2550064.1300000027}},{"attributes":{"ID":195916,"DIS_CODE":0,"TOWNNAME":"安南區","LI":"淵中里","LIN":"18鄰","STREET":"安中路","SECT":"四段","MAREA":" ","LANE":"１９７巷","ALLEY":"４弄","HOUSE_NO":"９號","E_COORD97":164739.78,"N_COORD97":2550065.8799999999,"ADDRESS":"安中路四段１９７巷４弄９號","OBJECTID":195915},"geometry":{"x":164739.78000000026,"y":2550065.8800000027}},{"attributes":{"ID":195917,"DIS_CODE":0,"TOWNNAME":"永康區","LI":"三合里","LIN":"18鄰","STREET":"南工街","SECT":" ","MAREA":" ","LANE":"２６７巷","ALLEY":"７弄","HOUSE_NO":"２號","E_COORD97":171908.04999999999,"N_COORD97":2545929.25,"ADDRESS":"南工街２６７巷７弄２號","OBJECTID":195916},"geometry":{"x":171908.04999999981,"y":2545929.2500000019}},{"attributes":{"ID":195918,"DIS_CODE":0,"TOWNNAME":"永康區","LI":"大橋里","LIN":"18鄰","STREET":"大橋一街","SECT":" ","MAREA":" ","LANE":"１３９巷","ALLEY":"４４弄","HOUSE_NO":"２７號","E_COORD97":171001.59,"N_COORD97":2546667.9100000001,"ADDRESS":"大橋一街１３９巷４４弄２７號","OBJECTID":195917},"geometry":{"x":171001.59000000078,"y":2546667.9100000001}},{"attributes":{"ID":195919,"DIS_CODE":0,"TOWNNAME":"永康區","LI":"二王里","LIN":"18鄰","STREET":"忠孝路","SECT":" ","MAREA":" ","LANE":"４６１巷","ALLEY":"２弄","HOUSE_NO":"１號","E_COORD97":172439.35999999999,"N_COORD97":2546625.2999999998,"ADDRESS":"忠孝路４６１巷２弄１號","OBJECTID":195918},"geometry":{"x":172439.36000000127,"y":2546625.3000000007}},{"attributes":{"ID":195920,"DIS_CODE":0,"TOWNNAME":"永康區","LI":"烏竹里","LIN":"18鄰","STREET":"自強路","SECT":" ","MAREA":" ","LANE":"７７３巷","ALLEY":"５弄","HOUSE_NO":"２１號","E_COORD97":174417.35000000001,"N_COORD97":2548547.6299999999,"ADDRESS":"自強路７７３巷５弄２１號","OBJECTID":195919},"geometry":{"x":174417.35000000056,"y":2548547.629999999}},{"attributes":{"ID":195921,"DIS_CODE":0,"TOWNNAME":"永康區","LI":"烏竹里","LIN":"18鄰","STREET":"自強路","SECT":" ","MAREA":" ","LANE":"７７３巷","ALLEY":"５弄","HOUSE_NO":"１７號","E_COORD97":174427.32999999999,"N_COORD97":2548554.6299999999,"ADDRESS":"自強路７７３巷５弄１７號","OBJECTID":195920},"geometry":{"x":174427.32999999914,"y":2548554.629999999}},{"attributes":{"ID":195922,"DIS_CODE":0,"TOWNNAME":"永康區","LI":"烏竹里","LIN":"18鄰","STREET":"自強路","SECT":" ","MAREA":" ","LANE":"７７３巷","ALLEY":"５弄","HOUSE_NO":"５４號","E_COORD97":174385.35999999999,"N_COORD97":2548547.9900000002,"ADDRESS":"自強路７７３巷５弄５４號","OBJECTID":195921},"geometry":{"x":174385.36000000127,"y":2548547.9900000021}},{"attributes":{"ID":195923,"DIS_CODE":0,"TOWNNAME":"北區","LI":"成德里","LIN":"21鄰","STREET":"文成五街","SECT":" ","MAREA":" ","LANE":" ","ALLEY":" ","HOUSE_NO":"３０號","E_COORD97":168571.85999999999,"N_COORD97":2546619.1200000001,"ADDRESS":"文成五街３０號","OBJECTID":195922},"geometry":{"x":168571.86000000034,"y":2546619.1200000029}},{"attributes":{"ID":195924,"DIS_CODE":0,"TOWNNAME":"永康區","LI":"崑山里","LIN":"18鄰","STREET":"大灣路","SECT":" ","MAREA":" ","LANE":"９４２巷","ALLEY":"３４弄","HOUSE_NO":"５號","E_COORD97":173669.12,"N_COORD97":2544541.75,"ADDRESS":"大灣路９４２巷３４弄５號","OBJECTID":195923},"geometry":{"x":173669.12000000011,"y":2544541.7500000019}},{"attributes":{"ID":195925,"DIS_CODE":0,"TOWNNAME":"永康區","LI":"崑山里","LIN":"18鄰","STREET":"大灣路","SECT":" ","MAREA":" ","LANE":"９４２巷","ALLEY":"１６弄","HOUSE_NO":"２號","E_COORD97":173652.76999999999,"N_COORD97":2544471,"ADDRESS":"大灣路９４２巷１６弄２號","OBJECTID":195924},"geometry":{"x":173652.77000000048,"y":2544471}},{"attributes":{"ID":195926,"DIS_CODE":0,"TOWNNAME":"安南區","LI":"安富里","LIN":"18鄰","STREET":"安富街","SECT":" ","MAREA":" ","LANE":"１９９巷","ALLEY":"４弄","HOUSE_NO":"１１號","E_COORD97":167655.45000000001,"N_COORD97":2547380.1400000001,"ADDRESS":"安富街１９９巷４弄１１號","OBJECTID":195925},"geometry":{"x":167655.45000000019,"y":2547380.1399999987}},{"attributes":{"ID":195927,"DIS_CODE":0,"TOWNNAME":"安南區","LI":"安富里","LIN":"18鄰","STREET":"安富街","SECT":" ","MAREA":" ","LANE":"１９９巷","ALLEY":"４弄","HOUSE_NO":"１３號","E_COORD97":167649.13,"N_COORD97":2547378.3399999999,"ADDRESS":"安富街１９９巷４弄１３號","OBJECTID":195926},"geometry":{"x":167649.12999999989,"y":2547378.3400000036}},{"attributes":{"ID":195928,"DIS_CODE":0,"TOWNNAME":"北區","LI":"和順里","LIN":"26鄰","STREET":"民德路","SECT":" ","MAREA":" ","LANE":"５８巷","ALLEY":"５弄","HOUSE_NO":"５號","E_COORD97":168183.66,"N_COORD97":2545231.6600000001,"ADDRESS":"民德路５８巷５弄５號","OBJECTID":195927},"geometry":{"x":168183.66000000201,"y":2545231.660000002}},{"attributes":{"ID":195929,"DIS_CODE":0,"TOWNNAME":"安定區","LI":"中榮里","LIN":"3鄰","STREET":" ","SECT":" ","MAREA":"許中營","LANE":" ","ALLEY":" ","HOUSE_NO":"３５之５號","E_COORD97":172406.23999999999,"N_COORD97":2554978.2999999998,"ADDRESS":"許中營３５之５號","OBJECTID":195928},"geometry":{"x":172406.24000000115,"y":2554978.3000000026}},{"attributes":{"ID":195930,"DIS_CODE":0,"TOWNNAME":"安南區","LI":"安富里","LIN":"18鄰","STREET":"安富街","SECT":" ","MAREA":" ","LANE":"１９９巷","ALLEY":"４弄","HOUSE_NO":"１５號","E_COORD97":167640.70999999999,"N_COORD97":2547376.54,"ADDRESS":"安富街１９９巷４弄１５號","OBJECTID":195929},"geometry":{"x":167640.71000000089,"y":2547376.540000001}},{"attributes":{"ID":195931,"DIS_CODE":0,"TOWNNAME":"安定區","LI":"六嘉里","LIN":"3鄰","STREET":" ","SECT":" ","MAREA":"六塊寮","LANE":" ","ALLEY":" ","HOUSE_NO":"２２號之１４","E_COORD97":170035.42999999999,"N_COORD97":2553502.2999999998,"ADDRESS":"六塊寮２２號之１４","OBJECTID":195930},"geometry":{"x":170035.4299999997,"y":2553502.2999999989}},{"attributes":{"ID":195932,"DIS_CODE":0,"TOWNNAME":"安定區","LI":"港口里","LIN":"3鄰","STREET":" ","SECT":" ","MAREA":"港口","LANE":" ","ALLEY":" ","HOUSE_NO":"２５３之２８號","E_COORD97":171690.84,"N_COORD97":2554878.2999999998,"ADDRESS":"港口２５３之２８號","OBJECTID":195931},"geometry":{"x":171690.83999999985,"y":2554878.3000000007}},{"attributes":{"ID":195933,"DIS_CODE":0,"TOWNNAME":"安定區","LI":"六嘉里","LIN":"3鄰","STREET":" ","SECT":" ","MAREA":"六塊寮","LANE":" ","ALLEY":" ","HOUSE_NO":"２２號之８","E_COORD97":170048,"N_COORD97":2553465.2999999998,"ADDRESS":"六塊寮２２號之８","OBJECTID":195932},"geometry":{"x":170048.00000000093,"y":2553465.3000000045}},{"attributes":{"ID":195934,"DIS_CODE":0,"TOWNNAME":"安定區","LI":"港口里","LIN":"3鄰","STREET":" ","SECT":" ","MAREA":"港口","LANE":" ","ALLEY":" ","HOUSE_NO":"２５３之３３號","E_COORD97":171686.64000000001,"N_COORD97":2554857.2999999998,"ADDRESS":"港口２５３之３３號","OBJECTID":195933},"geometry":{"x":171686.63999999966,"y":2554857.3000000007}},{"attributes":{"ID":195935,"DIS_CODE":0,"TOWNNAME":"安定區","LI":"中榮里","LIN":"3鄰","STREET":" ","SECT":" ","MAREA":"許中營","LANE":" ","ALLEY":" ","HOUSE_NO":"３５之７號","E_COORD97":172415.44,"N_COORD97":2554983.2999999998,"ADDRESS":"許中營３５之７號","OBJECTID":195934},"geometry":{"x":172415.44000000134,"y":2554983.3000000007}},{"attributes":{"ID":195936,"DIS_CODE":0,"TOWNNAME":"安定區","LI":"港尾里","LIN":"3鄰","STREET":" ","SECT":" ","MAREA":"港子尾","LANE":" ","ALLEY":" ","HOUSE_NO":"６號之２","E_COORD97":171552.01000000001,"N_COORD97":2556175.2999999998,"ADDRESS":"港子尾６號之２","OBJECTID":195935},"geometry":{"x":171552.00999999978,"y":2556175.3000000026}},{"attributes":{"ID":195937,"DIS_CODE":0,"TOWNNAME":"安定區","LI":"安定里","LIN":"3鄰","STREET":" ","SECT":" ","MAREA":"安定","LANE":" ","ALLEY":" ","HOUSE_NO":"２之１號","E_COORD97":172759.82000000001,"N_COORD97":2558076.3199999998,"ADDRESS":"安定２之１號","OBJECTID":195936},"geometry":{"x":172759.82000000123,"y":2558076.3200000022}},{"attributes":{"ID":195938,"DIS_CODE":0,"TOWNNAME":"安定區","LI":"保西里","LIN":"3鄰","STREET":" ","SECT":" ","MAREA":"安定","LANE":" ","ALLEY":" ","HOUSE_NO":"３４８號","E_COORD97":171727.01999999999,"N_COORD97":2557665.3199999998,"ADDRESS":"安定３４８號","OBJECTID":195937},"geometry":{"x":171727.02000000048,"y":2557665.320000004}},{"attributes":{"ID":195939,"DIS_CODE":0,"TOWNNAME":"安定區","LI":"中榮里","LIN":"3鄰","STREET":" ","SECT":" ","MAREA":"許中營","LANE":" ","ALLEY":" ","HOUSE_NO":"３８之５號","E_COORD97":172552.23999999999,"N_COORD97":2555056.2999999998,"ADDRESS":"許中營３８之５號","OBJECTID":195938},"geometry":{"x":172552.24000000115,"y":2555056.3000000026}},{"attributes":{"ID":195940,"DIS_CODE":0,"TOWNNAME":"安定區","LI":"中榮里","LIN":"3鄰","STREET":" ","SECT":" ","MAREA":"許中營","LANE":" ","ALLEY":" ","HOUSE_NO":"３８之７號","E_COORD97":172566.84,"N_COORD97":2555045.2999999998,"ADDRESS":"許中營３８之７號","OBJECTID":195939},"geometry":{"x":172566.83999999985,"y":2555045.3000000045}},{"attributes":{"ID":195941,"DIS_CODE":0,"TOWNNAME":"安定區","LI":"安定里","LIN":"3鄰","STREET":" ","SECT":" ","MAREA":"安定","LANE":" ","ALLEY":" ","HOUSE_NO":"１之３號","E_COORD97":172927.32000000001,"N_COORD97":2558060.3199999998,"ADDRESS":"安定１之３號","OBJECTID":195940},"geometry":{"x":172927.3200000003,"y":2558060.3200000003}},{"attributes":{"ID":195942,"DIS_CODE":0,"TOWNNAME":"安定區","LI":"安定里","LIN":"3鄰","STREET":" ","SECT":" ","MAREA":"安定","LANE":" ","ALLEY":" ","HOUSE_NO":"１之２號","E_COORD97":172869.12,"N_COORD97":2558263.3199999998,"ADDRESS":"安定１之２號","OBJECTID":195941},"geometry":{"x":172869.12000000011,"y":2558263.3200000022}},{"attributes":{"ID":195943,"DIS_CODE":0,"TOWNNAME":"安定區","LI":"中榮里","LIN":"3鄰","STREET":" ","SECT":" ","MAREA":"許中營","LANE":" ","ALLEY":" ","HOUSE_NO":"３５之３號","E_COORD97":172402.14000000001,"N_COORD97":2554976.2999999998,"ADDRESS":"許中營３５之３號","OBJECTID":195942},"geometry":{"x":172402.13999999966,"y":2554976.3000000007}},{"attributes":{"ID":195944,"DIS_CODE":0,"TOWNNAME":"安定區","LI":"港口里","LIN":"3鄰","STREET":" ","SECT":" ","MAREA":"港口","LANE":" ","ALLEY":" ","HOUSE_NO":"２５２號之９","E_COORD97":171544.81,"N_COORD97":2554755.2999999998,"ADDRESS":"港口２５２號之９","OBJECTID":195943},"geometry":{"x":171544.80999999959,"y":2554755.3000000007}},{"attributes":{"ID":195945,"DIS_CODE":0,"TOWNNAME":"安定區","LI":"港口里","LIN":"3鄰","STREET":" ","SECT":" ","MAREA":"港口","LANE":" ","ALLEY":" ","HOUSE_NO":"２５３之４９號","E_COORD97":171634.14000000001,"N_COORD97":2554866.2999999998,"ADDRESS":"港口２５３之４９號","OBJECTID":195944},"geometry":{"x":171634.13999999966,"y":2554866.3000000026}},{"attributes":{"ID":195946,"DIS_CODE":0,"TOWNNAME":"安定區","LI":"六嘉里","LIN":"3鄰","STREET":" ","SECT":" ","MAREA":"六塊寮","LANE":" ","ALLEY":" ","HOUSE_NO":"２２號之５","E_COORD97":170057.70999999999,"N_COORD97":2553471.2999999998,"ADDRESS":"六塊寮２２號之５","OBJECTID":195945},"geometry":{"x":170057.70999999996,"y":2553471.3000000007}},{"attributes":{"ID":195947,"DIS_CODE":0,"TOWNNAME":"安定區","LI":"港口里","LIN":"3鄰","STREET":" ","SECT":" ","MAREA":"港口","LANE":" ","ALLEY":" ","HOUSE_NO":"２５３之５４號","E_COORD97":171660.54000000001,"N_COORD97":2554865.2999999998,"ADDRESS":"港口２５３之５４號","OBJECTID":195946},"geometry":{"x":171660.54000000004,"y":2554865.3000000045}},{"attributes":{"ID":195948,"DIS_CODE":0,"TOWNNAME":"安南區","LI":"安富里","LIN":"18鄰","STREET":"安富街","SECT":" ","MAREA":" ","LANE":"１９９巷","ALLEY":"４弄","HOUSE_NO":"１７號","E_COORD97":167634.39000000001,"N_COORD97":2547376.54,"ADDRESS":"安富街１９９巷４弄１７號","OBJECTID":195947},"geometry":{"x":167634.3900000006,"y":2547376.540000001}},{"attributes":{"ID":195949,"DIS_CODE":0,"TOWNNAME":"中西區","LI":"萬昌里","LIN":"18鄰","STREET":"青年路","SECT":" ","MAREA":" ","LANE":"１６４巷","ALLEY":"２７弄","HOUSE_NO":"６號","E_COORD97":169023.70000000001,"N_COORD97":2543522.3100000001,"ADDRESS":"青年路１６４巷２７弄６號","OBJECTID":195948},"geometry":{"x":169023.70000000019,"y":2543522.3100000024}},{"attributes":{"ID":195950,"DIS_CODE":0,"TOWNNAME":"安南區","LI":"安富里","LIN":"18鄰","STREET":"安富街","SECT":" ","MAREA":" ","LANE":"１９９巷","ALLEY":"４弄","HOUSE_NO":"１８號","E_COORD97":167635.87,"N_COORD97":2547399.1299999999,"ADDRESS":"安富街１９９巷４弄１８號","OBJECTID":195949},"geometry":{"x":167635.87000000011,"y":2547399.1300000027}},{"attributes":{"ID":195951,"DIS_CODE":0,"TOWNNAME":"安南區","LI":"安富里","LIN":"18鄰","STREET":"安富街","SECT":" ","MAREA":" ","LANE":"１９９巷","ALLEY":"４弄","HOUSE_NO":"１９號","E_COORD97":167627.17000000001,"N_COORD97":2547375.04,"ADDRESS":"安富街１９９巷４弄１９號","OBJECTID":195950},"geometry":{"x":167627.17000000179,"y":2547375.0399999991}},{"attributes":{"ID":195952,"DIS_CODE":0,"TOWNNAME":"安南區","LI":"安富里","LIN":"18鄰","STREET":"安富街","SECT":" ","MAREA":" ","LANE":"１９９巷","ALLEY":"４弄","HOUSE_NO":"１號","E_COORD97":167699.06,"N_COORD97":2547388.5499999998,"ADDRESS":"安富街１９９巷４弄１號","OBJECTID":195951},"geometry":{"x":167699.06000000052,"y":2547388.5500000026}},{"attributes":{"ID":195953,"DIS_CODE":0,"TOWNNAME":"安定區","LI":"港尾里","LIN":"3鄰","STREET":" ","SECT":" ","MAREA":"港子尾","LANE":" ","ALLEY":" ","HOUSE_NO":"６號之１","E_COORD97":171535.57999999999,"N_COORD97":2556190.2999999998,"ADDRESS":"港子尾６號之１","OBJECTID":195952},"geometry":{"x":171535.58000000101,"y":2556190.3000000007}},{"attributes":{"ID":195954,"DIS_CODE":0,"TOWNNAME":"安定區","LI":"中沙里","LIN":"3鄰","STREET":" ","SECT":" ","MAREA":"中崙","LANE":" ","ALLEY":" ","HOUSE_NO":"１０４號","E_COORD97":169005.13570000001,"N_COORD97":2553222.32265,"ADDRESS":"中崙１０４號","OBJECTID":195953},"geometry":{"x":169005.13570000138,"y":2553222.3226480018}},{"attributes":{"ID":195955,"DIS_CODE":0,"TOWNNAME":"安定區","LI":"港尾里","LIN":"3鄰","STREET":" ","SECT":" ","MAREA":"港子尾","LANE":" ","ALLEY":" ","HOUSE_NO":"１號","E_COORD97":171565.84,"N_COORD97":2556246.2599999998,"ADDRESS":"港子尾１號","OBJECTID":195954},"geometry":{"x":171565.84000000078,"y":2556246.2599999998}},{"attributes":{"ID":195956,"DIS_CODE":0,"TOWNNAME":"安定區","LI":"港口里","LIN":"3鄰","STREET":" ","SECT":" ","MAREA":"港口","LANE":" ","ALLEY":" ","HOUSE_NO":"２５３之５８號","E_COORD97":171644.23999999999,"N_COORD97":2554873.2999999998,"ADDRESS":"港口２５３之５８號","OBJECTID":195955},"geometry":{"x":171644.24000000022,"y":2554873.3000000026}},{"attributes":{"ID":195957,"DIS_CODE":0,"TOWNNAME":"安定區","LI":"港口里","LIN":"3鄰","STREET":" ","SECT":" ","MAREA":"港口","LANE":" ","ALLEY":" ","HOUSE_NO":"２５３之１９號","E_COORD97":171673.94,"N_COORD97":2554939.2999999998,"ADDRESS":"港口２５３之１９號","OBJECTID":195956},"geometry":{"x":171673.93999999948,"y":2554939.3000000007}},{"attributes":{"ID":195958,"DIS_CODE":0,"TOWNNAME":"安定區","LI":"港口里","LIN":"3鄰","STREET":" ","SECT":" ","MAREA":"港口","LANE":" ","ALLEY":" ","HOUSE_NO":"２５３號之８","E_COORD97":171707.26999999999,"N_COORD97":2554949.29,"ADDRESS":"港口２５３號之８","OBJECTID":195957},"geometry":{"x":171707.27000000048,"y":2554949.290000001}},{"attributes":{"ID":195959,"DIS_CODE":0,"TOWNNAME":"安定區","LI":"港口里","LIN":"3鄰","STREET":" ","SECT":" ","MAREA":"港口","LANE":" ","ALLEY":" ","HOUSE_NO":"２５２號之７","E_COORD97":171546.5,"N_COORD97":2554746.2999999998,"ADDRESS":"港口２５２號之７","OBJECTID":195958},"geometry":{"x":171546.50000000093,"y":2554746.3000000007}},{"attributes":{"ID":195960,"DIS_CODE":0,"TOWNNAME":"安定區","LI":"港口里","LIN":"3鄰","STREET":" ","SECT":" ","MAREA":"港口","LANE":" ","ALLEY":" ","HOUSE_NO":"２５３號之２３","E_COORD97":171695.07000000001,"N_COORD97":2554902.2999999998,"ADDRESS":"港口２５３號之２３","OBJECTID":195959},"geometry":{"x":171695.07000000216,"y":2554902.3000000007}},{"attributes":{"ID":195961,"DIS_CODE":0,"TOWNNAME":"安定區","LI":"港口里","LIN":"3鄰","STREET":" ","SECT":" ","MAREA":"港口","LANE":" ","ALLEY":" ","HOUSE_NO":"２５２號之１４","E_COORD97":171542.10000000001,"N_COORD97":2554774.2999999998,"ADDRESS":"港口２５２號之１４","OBJECTID":195960},"geometry":{"x":171542.10000000056,"y":2554774.3000000026}},{"attributes":{"ID":195962,"DIS_CODE":0,"TOWNNAME":"安定區","LI":"安定里","LIN":"3鄰","STREET":" ","SECT":" ","MAREA":"安定","LANE":" ","ALLEY":" ","HOUSE_NO":"４之２號","E_COORD97":172666.12,"N_COORD97":2558074.3199999998,"ADDRESS":"安定４之２號","OBJECTID":195961},"geometry":{"x":172666.12000000104,"y":2558074.3200000003}},{"attributes":{"ID":195963,"DIS_CODE":0,"TOWNNAME":"安定區","LI":"安定里","LIN":"3鄰","STREET":" ","SECT":" ","MAREA":"安定","LANE":" ","ALLEY":" ","HOUSE_NO":"１之８號","E_COORD97":173090.01999999999,"N_COORD97":2557659.3199999998,"ADDRESS":"安定１之８號","OBJECTID":195962},"geometry":{"x":173090.02000000048,"y":2557659.3200000022}},{"attributes":{"ID":195964,"DIS_CODE":0,"TOWNNAME":"安定區","LI":"港尾里","LIN":"3鄰","STREET":" ","SECT":" ","MAREA":"港子尾","LANE":" ","ALLEY":" ","HOUSE_NO":"３之１號","E_COORD97":171536.14000000001,"N_COORD97":2556275.2999999998,"ADDRESS":"港子尾３之１號","OBJECTID":195963},"geometry":{"x":171536.13999999873,"y":2556275.3000000007}},{"attributes":{"ID":195965,"DIS_CODE":0,"TOWNNAME":"安定區","LI":"六嘉里","LIN":"3鄰","STREET":" ","SECT":" ","MAREA":"六塊寮","LANE":" ","ALLEY":" ","HOUSE_NO":"２２號之６","E_COORD97":170054.26000000001,"N_COORD97":2553469.2999999998,"ADDRESS":"六塊寮２２號之６","OBJECTID":195964},"geometry":{"x":170054.26000000071,"y":2553469.3000000026}},{"attributes":{"ID":195966,"DIS_CODE":0,"TOWNNAME":"安定區","LI":"港口里","LIN":"3鄰","STREET":" ","SECT":" ","MAREA":"港口","LANE":" ","ALLEY":" ","HOUSE_NO":"２５３號之１４","E_COORD97":171703.89999999999,"N_COORD97":2554923.2999999998,"ADDRESS":"港口２５３號之１４","OBJECTID":195965},"geometry":{"x":171703.9000000013,"y":2554923.3000000045}},{"attributes":{"ID":195967,"DIS_CODE":0,"TOWNNAME":"安定區","LI":"安定里","LIN":"3鄰","STREET":" ","SECT":" ","MAREA":"安定","LANE":" ","ALLEY":" ","HOUSE_NO":"２之２號","E_COORD97":172752.82000000001,"N_COORD97":2558077.3199999998,"ADDRESS":"安定２之２號","OBJECTID":195966},"geometry":{"x":172752.82000000216,"y":2558077.3200000003}},{"attributes":{"ID":195968,"DIS_CODE":0,"TOWNNAME":"安定區","LI":"六嘉里","LIN":"3鄰","STREET":" ","SECT":" ","MAREA":"六塊寮","LANE":" ","ALLEY":" ","HOUSE_NO":"２２號之７","E_COORD97":170051.23000000001,"N_COORD97":2553467.2999999998,"ADDRESS":"六塊寮２２號之７","OBJECTID":195967},"geometry":{"x":170051.23000000045,"y":2553467.3000000007}},{"attributes":{"ID":195969,"DIS_CODE":0,"TOWNNAME":"安定區","LI":"港口里","LIN":"3鄰","STREET":" ","SECT":" ","MAREA":"港口","LANE":" ","ALLEY":" ","HOUSE_NO":"２５３之４２號","E_COORD97":171606.73999999999,"N_COORD97":2554881.2999999998,"ADDRESS":"港口２５３之４２號","OBJECTID":195968},"geometry":{"x":171606.74000000022,"y":2554881.3000000007}},{"attributes":{"ID":195970,"DIS_CODE":0,"TOWNNAME":"安定區","LI":"港口里","LIN":"3鄰","STREET":" ","SECT":" ","MAREA":"港口","LANE":" ","ALLEY":" ","HOUSE_NO":"２５３之１５號","E_COORD97":171703.64000000001,"N_COORD97":2554918.2999999998,"ADDRESS":"港口２５３之１５號","OBJECTID":195969},"geometry":{"x":171703.63999999966,"y":2554918.3000000007}},{"attributes":{"ID":195971,"DIS_CODE":0,"TOWNNAME":"安定區","LI":"港口里","LIN":"3鄰","STREET":" ","SECT":" ","MAREA":"港口","LANE":" ","ALLEY":" ","HOUSE_NO":"２５２之１６號","E_COORD97":171540.64000000001,"N_COORD97":2554781.2999999998,"ADDRESS":"港口２５２之１６號","OBJECTID":195970},"geometry":{"x":171540.63999999966,"y":2554781.3000000026}},{"attributes":{"ID":195972,"DIS_CODE":0,"TOWNNAME":"安定區","LI":"港口里","LIN":"3鄰","STREET":" ","SECT":" ","MAREA":"港口","LANE":" ","ALLEY":" ","HOUSE_NO":"２５３之５２號","E_COORD97":171645.73999999999,"N_COORD97":2554860.2999999998,"ADDRESS":"港口２５３之５２號","OBJECTID":195971},"geometry":{"x":171645.74000000022,"y":2554860.3000000026}},{"attributes":{"ID":195973,"DIS_CODE":0,"TOWNNAME":"安南區","LI":"安富里","LIN":"18鄰","STREET":"安富街","SECT":" ","MAREA":" ","LANE":"１９９巷","ALLEY":"４弄","HOUSE_NO":"２０號","E_COORD97":167629.91,"N_COORD97":2547397.98,"ADDRESS":"安富街１９９巷４弄２０號","OBJECTID":195972},"geometry":{"x":167629.91000000108,"y":2547397.9800000004}},{"attributes":{"ID":195974,"DIS_CODE":0,"TOWNNAME":"安南區","LI":"安富里","LIN":"18鄰","STREET":"安富街","SECT":" ","MAREA":" ","LANE":"１９９巷","ALLEY":"４弄","HOUSE_NO":"２１號","E_COORD97":167619.95999999999,"N_COORD97":2547375.04,"ADDRESS":"安富街１９９巷４弄２１號","OBJECTID":195973},"geometry":{"x":167619.95999999996,"y":2547375.0399999991}},{"attributes":{"ID":195975,"DIS_CODE":0,"TOWNNAME":"西港區","LI":"慶安里","LIN":"3鄰","STREET":" ","SECT":" ","MAREA":"中州","LANE":" ","ALLEY":" ","HOUSE_NO":"２０號之２８","E_COORD97":167272.89000000001,"N_COORD97":2560215.1000000001,"ADDRESS":"中州２０號之２８","OBJECTID":195974},"geometry":{"x":167272.89000000153,"y":2560215.0999999996}},{"attributes":{"ID":195976,"DIS_CODE":0,"TOWNNAME":"安南區","LI":"安富里","LIN":"18鄰","STREET":"安富街","SECT":" ","MAREA":" ","LANE":"１９９巷","ALLEY":"４弄","HOUSE_NO":"２２號","E_COORD97":167622.14000000001,"N_COORD97":2547396.1400000001,"ADDRESS":"安富街１９９巷４弄２２號","OBJECTID":195975},"geometry":{"x":167622.14000000153,"y":2547396.1400000006}},{"attributes":{"ID":195977,"DIS_CODE":0,"TOWNNAME":"安南區","LI":"安富里","LIN":"18鄰","STREET":"安富街","SECT":" ","MAREA":" ","LANE":"１９９巷","ALLEY":"４弄","HOUSE_NO":"２４號","E_COORD97":167616.20999999999,"N_COORD97":2547395.7400000002,"ADDRESS":"安富街１９９巷４弄２４號","OBJECTID":195976},"geometry":{"x":167616.20999999996,"y":2547395.7400000002}},{"attributes":{"ID":195978,"DIS_CODE":0,"TOWNNAME":"安南區","LI":"安富里","LIN":"18鄰","STREET":"安富街","SECT":" ","MAREA":" ","LANE":"１９９巷","ALLEY":"４弄","HOUSE_NO":"３號","E_COORD97":167690.63,"N_COORD97":2547387.0499999998,"ADDRESS":"安富街１９９巷４弄３號","OBJECTID":195977},"geometry":{"x":167690.63000000082,"y":2547387.0500000007}},{"attributes":{"ID":195979,"DIS_CODE":0,"TOWNNAME":"安南區","LI":"安富里","LIN":"18鄰","STREET":"安富街","SECT":" ","MAREA":" ","LANE":"１９９巷","ALLEY":"４弄","HOUSE_NO":"５號","E_COORD97":167681.31,"N_COORD97":2547384.9500000002,"ADDRESS":"安富街１９９巷４弄５號","OBJECTID":195978},"geometry":{"x":167681.30999999959,"y":2547384.9500000011}},{"attributes":{"ID":195980,"DIS_CODE":0,"TOWNNAME":"安南區","LI":"安富里","LIN":"18鄰","STREET":"安富街","SECT":" ","MAREA":" ","LANE":"１９９巷","ALLEY":"４弄","HOUSE_NO":"６號","E_COORD97":167679,"N_COORD97":2547406.9199999999,"ADDRESS":"安富街１９９巷４弄６號","OBJECTID":195979},"geometry":{"x":167679,"y":2547406.9199999999}},{"attributes":{"ID":195981,"DIS_CODE":0,"TOWNNAME":"安南區","LI":"安富里","LIN":"18鄰","STREET":"安富街","SECT":" ","MAREA":" ","LANE":"１９９巷","ALLEY":"４弄","HOUSE_NO":"７號","E_COORD97":167673.19,"N_COORD97":2547383.7400000002,"ADDRESS":"安富街１９９巷４弄７號","OBJECTID":195980},"geometry":{"x":167673.19000000041,"y":2547383.7400000021}},{"attributes":{"ID":195982,"DIS_CODE":0,"TOWNNAME":"安南區","LI":"安富里","LIN":"18鄰","STREET":"安富街","SECT":" ","MAREA":" ","LANE":"１９９巷","ALLEY":"５弄","HOUSE_NO":"１３號","E_COORD97":167741.39000000001,"N_COORD97":2547422.0800000001,"ADDRESS":"安富街１９９巷５弄１３號","OBJECTID":195981},"geometry":{"x":167741.3900000006,"y":2547422.0800000019}},{"attributes":{"ID":195983,"DIS_CODE":0,"TOWNNAME":"安南區","LI":"安富里","LIN":"18鄰","STREET":"安富街","SECT":" ","MAREA":" ","LANE":"１９９巷","ALLEY":"５弄","HOUSE_NO":"１５號","E_COORD97":167745.51999999999,"N_COORD97":2547424.1400000001,"ADDRESS":"安富街１９９巷５弄１５號","OBJECTID":195982},"geometry":{"x":167745.52000000048,"y":2547424.1400000006}},{"attributes":{"ID":195984,"DIS_CODE":0,"TOWNNAME":"安南區","LI":"安富里","LIN":"18鄰","STREET":"安富街","SECT":" ","MAREA":" ","LANE":"１９９巷","ALLEY":"５弄","HOUSE_NO":"１７號","E_COORD97":167750.79999999999,"N_COORD97":2547423.6800000002,"ADDRESS":"安富街１９９巷５弄１７號","OBJECTID":195983},"geometry":{"x":167750.80000000075,"y":2547423.6800000016}},{"attributes":{"ID":195985,"DIS_CODE":0,"TOWNNAME":"安南區","LI":"安富里","LIN":"18鄰","STREET":"安富街","SECT":" ","MAREA":" ","LANE":"１９９巷","ALLEY":"５弄","HOUSE_NO":"１９號","E_COORD97":167755.84,"N_COORD97":2547425.5099999998,"ADDRESS":"安富街１９９巷５弄１９號","OBJECTID":195984},"geometry":{"x":167755.83999999985,"y":2547425.5100000016}},{"attributes":{"ID":195986,"DIS_CODE":0,"TOWNNAME":"安南區","LI":"安富里","LIN":"18鄰","STREET":"安富街","SECT":" ","MAREA":" ","LANE":"１９９巷","ALLEY":"５弄","HOUSE_NO":"１號","E_COORD97":167711.57000000001,"N_COORD97":2547415.6600000001,"ADDRESS":"安富街１９９巷５弄１號","OBJECTID":195985},"geometry":{"x":167711.57000000123,"y":2547415.6600000001}},{"attributes":{"ID":195987,"DIS_CODE":0,"TOWNNAME":"安南區","LI":"安富里","LIN":"18鄰","STREET":"安富街","SECT":" ","MAREA":" ","LANE":"１９９巷","ALLEY":"５弄","HOUSE_NO":"２１號","E_COORD97":167760.42999999999,"N_COORD97":2547426.4300000002,"ADDRESS":"安富街１９９巷５弄２１號","OBJECTID":195986},"geometry":{"x":167760.4299999997,"y":2547426.4300000016}},{"attributes":{"ID":195988,"DIS_CODE":0,"TOWNNAME":"安南區","LI":"安富里","LIN":"18鄰","STREET":"安富街","SECT":" ","MAREA":" ","LANE":"１９９巷","ALLEY":"５弄","HOUSE_NO":"２３號","E_COORD97":167765.70999999999,"N_COORD97":2547427.3399999999,"ADDRESS":"安富街１９９巷５弄２３號","OBJECTID":195987},"geometry":{"x":167765.70999999996,"y":2547427.3400000017}},{"attributes":{"ID":195989,"DIS_CODE":0,"TOWNNAME":"安平區","LI":"文平里","LIN":"21鄰","STREET":"健康一街","SECT":" ","MAREA":" ","LANE":" ","ALLEY":" ","HOUSE_NO":"１號","E_COORD97":165916.03,"N_COORD97":2542648.8700000001,"ADDRESS":"健康一街１號","OBJECTID":195988},"geometry":{"x":165916.03000000026,"y":2542648.870000001}},{"attributes":{"ID":195990,"DIS_CODE":0,"TOWNNAME":"北區","LI":"成德里","LIN":"21鄰","STREET":"育德一街","SECT":" ","MAREA":" ","LANE":" ","ALLEY":" ","HOUSE_NO":"３７６號","E_COORD97":168519.70999999999,"N_COORD97":2546657.1699999999,"ADDRESS":"育德一街３７６號","OBJECTID":195989},"geometry":{"x":168519.70999999996,"y":2546657.1699999981}},{"attributes":{"ID":195991,"DIS_CODE":0,"TOWNNAME":"安南區","LI":"安富里","LIN":"18鄰","STREET":"安富街","SECT":" ","MAREA":" ","LANE":"１９９巷","ALLEY":"５弄","HOUSE_NO":"２５號","E_COORD97":167770.53,"N_COORD97":2547428.4900000002,"ADDRESS":"安富街１９９巷５弄２５號","OBJECTID":195990},"geometry":{"x":167770.53000000026,"y":2547428.4900000039}},{"attributes":{"ID":195992,"DIS_CODE":0,"TOWNNAME":"北區","LI":"成德里","LIN":"21鄰","STREET":"育成路","SECT":" ","MAREA":" ","LANE":" ","ALLEY":" ","HOUSE_NO":"１９２號","E_COORD97":168716.01000000001,"N_COORD97":2546527.75,"ADDRESS":"育成路１９２號","OBJECTID":195991},"geometry":{"x":168716.00999999978,"y":2546527.75}},{"attributes":{"ID":195993,"DIS_CODE":0,"TOWNNAME":"安南區","LI":"安富里","LIN":"18鄰","STREET":"安富街","SECT":" ","MAREA":" ","LANE":"１９９巷","ALLEY":"５弄","HOUSE_NO":"２７號","E_COORD97":167774.42000000001,"N_COORD97":2547431.2400000002,"ADDRESS":"安富街１９９巷５弄２７號","OBJECTID":195992},"geometry":{"x":167774.41999999993,"y":2547431.2400000021}},{"attributes":{"ID":195994,"DIS_CODE":0,"TOWNNAME":"安南區","LI":"安富里","LIN":"18鄰","STREET":"安富街","SECT":" ","MAREA":" ","LANE":"１９９巷","ALLEY":"５弄","HOUSE_NO":"５號","E_COORD97":167721.67000000001,"N_COORD97":2547419.3300000001,"ADDRESS":"安富街１９９巷５弄５號","OBJECTID":195993},"geometry":{"x":167721.66999999993,"y":2547419.3300000038}},{"attributes":{"ID":195995,"DIS_CODE":0,"TOWNNAME":"北區","LI":"成德里","LIN":"21鄰","STREET":"育成路","SECT":" ","MAREA":" ","LANE":" ","ALLEY":" ","HOUSE_NO":"１９６號","E_COORD97":168710.42000000001,"N_COORD97":2546533.0899999999,"ADDRESS":"育成路１９６號","OBJECTID":195994},"geometry":{"x":168710.42000000179,"y":2546533.0900000017}},{"attributes":{"ID":195996,"DIS_CODE":0,"TOWNNAME":"北區","LI":"成德里","LIN":"21鄰","STREET":"育成路","SECT":" ","MAREA":" ","LANE":" ","ALLEY":" ","HOUSE_NO":"１９８號","E_COORD97":168705.72,"N_COORD97":2546536.2599999998,"ADDRESS":"育成路１９８號","OBJECTID":195995},"geometry":{"x":168705.71999999974,"y":2546536.2599999998}},{"attributes":{"ID":195997,"DIS_CODE":0,"TOWNNAME":"安南區","LI":"淵東里","LIN":"4鄰","STREET":"仁安一街","SECT":" ","MAREA":" ","LANE":" ","ALLEY":" ","HOUSE_NO":"１０１號","E_COORD97":165835.64999999999,"N_COORD97":2550346.79,"ADDRESS":"仁安一街１０１號","OBJECTID":195996},"geometry":{"x":165835.65000000037,"y":2550346.7899999991}},{"attributes":{"ID":195998,"DIS_CODE":0,"TOWNNAME":"安南區","LI":"淵東里","LIN":"4鄰","STREET":"仁安一街","SECT":" ","MAREA":" ","LANE":" ","ALLEY":" ","HOUSE_NO":"５２號","E_COORD97":165704.57000000001,"N_COORD97":2550271.25,"ADDRESS":"仁安一街５２號","OBJECTID":195997},"geometry":{"x":165704.57000000123,"y":2550271.2500000037}},{"attributes":{"ID":195999,"DIS_CODE":0,"TOWNNAME":"安南區","LI":"淵東里","LIN":"4鄰","STREET":"仁安一街","SECT":" ","MAREA":" ","LANE":" ","ALLEY":" ","HOUSE_NO":"５４號","E_COORD97":165709.04000000001,"N_COORD97":2550272.4399999999,"ADDRESS":"仁安一街５４號","OBJECTID":195998},"geometry":{"x":165709.04000000004,"y":2550272.4400000032}},{"attributes":{"ID":196000,"DIS_CODE":0,"TOWNNAME":"安南區","LI":"淵東里","LIN":"4鄰","STREET":"仁安一街","SECT":" ","MAREA":" ","LANE":" ","ALLEY":" ","HOUSE_NO":"５６號","E_COORD97":165713.01999999999,"N_COORD97":2550273.8700000001,"ADDRESS":"仁安一街５６號","OBJECTID":195999},"geometry":{"x":165713.02000000048,"y":2550273.870000001}},{"attributes":{"ID":196001,"DIS_CODE":0,"TOWNNAME":"安南區","LI":"安富里","LIN":"18鄰","STREET":"安富街","SECT":" ","MAREA":" ","LANE":"１９９巷","ALLEY":"５弄","HOUSE_NO":"７號","E_COORD97":167727.17000000001,"N_COORD97":2547419.1000000001,"ADDRESS":"安富街１９９巷５弄７號","OBJECTID":196000},"geometry":{"x":167727.16999999899,"y":2547419.0999999996}}]}