{"displayFieldName":"TOWNNAME","fieldAliases":{"ID":"ID","DIS_CODE":"DIS_CODE","TOWNNAME":"TOWNNAME","LI":"LI","LIN":"LIN","STREET":"STREET","SECT":"SECT","MAREA":"MAREA","LANE":"LANE","ALLEY":"ALLEY","HOUSE_NO":"HOUSE_NO","E_COORD97":"E_COORD97","N_COORD97":"N_COORD97","ADDRESS":"ADDRESS","OBJECTID":"OBJECTID"},"geometryType":"esriGeometryPoint","spatialReference":{"wkid":102443,"latestWkid":3826},"fields":[{"name":"ID","type":"esriFieldTypeDouble","alias":"ID"},{"name":"DIS_CODE","type":"esriFieldTypeInteger","alias":"DIS_CODE"},{"name":"TOWNNAME","type":"esriFieldTypeString","alias":"TOWNNAME","length":8},{"name":"LI","type":"esriFieldTypeString","alias":"LI","length":8},{"name":"LIN","type":"esriFieldTypeString","alias":"LIN","length":12},{"name":"STREET","type":"esriFieldTypeString","alias":"STREET","length":20},{"name":"SECT","type":"esriFieldTypeString","alias":"SECT","length":8},{"name":"MAREA","type":"esriFieldTypeString","alias":"MAREA","length":12},{"name":"LANE","type":"esriFieldTypeString","alias":"LANE","length":10},{"name":"ALLEY","type":"esriFieldTypeString","alias":"ALLEY","length":10},{"name":"HOUSE_NO","type":"esriFieldTypeString","alias":"HOUSE_NO","length":20},{"name":"E_COORD97","type":"esriFieldTypeDouble","alias":"E_COORD97"},{"name":"N_COORD97","type":"esriFieldTypeDouble","alias":"N_COORD97"},{"name":"ADDRESS","type":"esriFieldTypeString","alias":"ADDRESS","length":50},{"name":"OBJECTID","type":"esriFieldTypeOID","alias":"OBJECTID"}],"features":[{"attributes":{"ID":291407,"DIS_CODE":0,"TOWNNAME":"永康區","LI":"中華里","LIN":"25鄰","STREET":"忠義街","SECT":" ","MAREA":" ","LANE":" ","ALLEY":" ","HOUSE_NO":"７５號","E_COORD97":171711.35000000001,"N_COORD97":2544629.2200000002,"ADDRESS":"忠義街７５號","OBJECTID":291401},"geometry":{"x":171711.35000000056,"y":2544629.2200000007}},{"attributes":{"ID":291408,"DIS_CODE":0,"TOWNNAME":"仁德區","LI":"仁義里","LIN":"4鄰","STREET":"仁義四街","SECT":" ","MAREA":" ","LANE":" ","ALLEY":" ","HOUSE_NO":"５７號","E_COORD97":173834.17000000001,"N_COORD97":2541061.52,"ADDRESS":"仁義四街５７號","OBJECTID":291402},"geometry":{"x":173834.16999999993,"y":2541061.5200000014}},{"attributes":{"ID":291409,"DIS_CODE":0,"TOWNNAME":"東區","LI":"崇信里","LIN":"21鄰","STREET":"中華東路","SECT":"三段","MAREA":" ","LANE":"４４巷","ALLEY":" ","HOUSE_NO":"５７號","E_COORD97":170804.97,"N_COORD97":2542460.6000000001,"ADDRESS":"中華東路三段４４巷５７號","OBJECTID":291403},"geometry":{"x":170804.96999999974,"y":2542460.6000000015}},{"attributes":{"ID":291410,"DIS_CODE":0,"TOWNNAME":"永康區","LI":"\u25A0洲里","LIN":" ","STREET":"正南六街","SECT":" ","MAREA":" ","LANE":" ","ALLEY":" ","HOUSE_NO":"１０９號","E_COORD97":170809.69,"N_COORD97":2548679.7400000002,"ADDRESS":"正南六街１０９號","OBJECTID":291404},"geometry":{"x":170809.69000000134,"y":2548679.7400000002}},{"attributes":{"ID":291411,"DIS_CODE":0,"TOWNNAME":"東區","LI":"圍下里","LIN":"21鄰","STREET":"前鋒路","SECT":" ","MAREA":" ","LANE":"１１５巷","ALLEY":" ","HOUSE_NO":"１０號","E_COORD97":169271.85000000001,"N_COORD97":2543746.5600000001,"ADDRESS":"前鋒路１１５巷１０號","OBJECTID":291405},"geometry":{"x":169271.85000000149,"y":2543746.5600000042}},{"attributes":{"ID":291412,"DIS_CODE":0,"TOWNNAME":"東區","LI":"圍下里","LIN":"21鄰","STREET":"前鋒路","SECT":" ","MAREA":" ","LANE":"１１５巷","ALLEY":" ","HOUSE_NO":"１１號","E_COORD97":169262.79999999999,"N_COORD97":2543744.21,"ADDRESS":"前鋒路１１５巷１１號","OBJECTID":291406},"geometry":{"x":169262.80000000075,"y":2543744.2100000009}},{"attributes":{"ID":291413,"DIS_CODE":0,"TOWNNAME":"東區","LI":"圍下里","LIN":"21鄰","STREET":"前鋒路","SECT":" ","MAREA":" ","LANE":"１１５巷","ALLEY":" ","HOUSE_NO":"１２號","E_COORD97":169270.17000000001,"N_COORD97":2543742.9199999999,"ADDRESS":"前鋒路１１５巷１２號","OBJECTID":291407},"geometry":{"x":169270.17000000086,"y":2543742.9199999999}},{"attributes":{"ID":291414,"DIS_CODE":0,"TOWNNAME":"歸仁區","LI":"看西里","LIN":"9鄰","STREET":"仁愛五街","SECT":" ","MAREA":" ","LANE":"２巷","ALLEY":" ","HOUSE_NO":"７號","E_COORD97":178342.88,"N_COORD97":2540290.2000000002,"ADDRESS":"仁愛五街２巷７號","OBJECTID":291408},"geometry":{"x":178342.88000000175,"y":2540290.2000000011}},{"attributes":{"ID":291415,"DIS_CODE":0,"TOWNNAME":"北區","LI":"長德里","LIN":"9鄰","STREET":"西門路","SECT":"三段","MAREA":" ","LANE":"２３２巷","ALLEY":" ","HOUSE_NO":"１０號","E_COORD97":168479.62,"N_COORD97":2544931.9300000002,"ADDRESS":"西門路三段２３２巷１０號","OBJECTID":291409},"geometry":{"x":168479.62000000011,"y":2544931.9299999997}},{"attributes":{"ID":291416,"DIS_CODE":0,"TOWNNAME":"北區","LI":"長德里","LIN":"9鄰","STREET":"西門路","SECT":"三段","MAREA":" ","LANE":"２３２巷","ALLEY":" ","HOUSE_NO":"１２號","E_COORD97":168481.70000000001,"N_COORD97":2544935.04,"ADDRESS":"西門路三段２３２巷１２號","OBJECTID":291410},"geometry":{"x":168481.70000000205,"y":2544935.0400000028}},{"attributes":{"ID":291417,"DIS_CODE":0,"TOWNNAME":"安南區","LI":"顯宮里","LIN":"6鄰","STREET":"媽祖宮路","SECT":" ","MAREA":" ","LANE":" ","ALLEY":" ","HOUSE_NO":"１５２號","E_COORD97":160661.70037000001,"N_COORD97":2548867.3850799999,"ADDRESS":"媽祖宮路１５２號","OBJECTID":291411},"geometry":{"x":160661.70036999974,"y":2548867.3850800022}},{"attributes":{"ID":291418,"DIS_CODE":0,"TOWNNAME":"新營區","LI":"興業里","LIN":"9鄰","STREET":"中興路","SECT":" ","MAREA":" ","LANE":"１３巷","ALLEY":" ","HOUSE_NO":"１１之４號","E_COORD97":180193.89000000001,"N_COORD97":2577980.48,"ADDRESS":"中興路１３巷１１之４號","OBJECTID":291412},"geometry":{"x":180193.8900000006,"y":2577980.4800000023}},{"attributes":{"ID":291419,"DIS_CODE":0,"TOWNNAME":"永康區","LI":"大橋里","LIN":"4鄰","STREET":"大橋五街","SECT":" ","MAREA":" ","LANE":" ","ALLEY":" ","HOUSE_NO":"７９號","E_COORD97":170857.60999999999,"N_COORD97":2546911.6200000001,"ADDRESS":"大橋五街７９號","OBJECTID":291413},"geometry":{"x":170857.61000000127,"y":2546911.620000001}},{"attributes":{"ID":291420,"DIS_CODE":0,"TOWNNAME":"永康區","LI":"中華里","LIN":"24鄰","STREET":"華興街","SECT":" ","MAREA":" ","LANE":" ","ALLEY":" ","HOUSE_NO":"１７６號","E_COORD97":171652.48000000001,"N_COORD97":2544580.7999999998,"ADDRESS":"華興街１７６號","OBJECTID":291414},"geometry":{"x":171652.48000000138,"y":2544580.8000000007}},{"attributes":{"ID":291421,"DIS_CODE":0,"TOWNNAME":"永康區","LI":"三合里","LIN":"14鄰","STREET":"南工街","SECT":" ","MAREA":" ","LANE":" ","ALLEY":" ","HOUSE_NO":"２２１號","E_COORD97":172023.06,"N_COORD97":2545916,"ADDRESS":"南工街２２１號","OBJECTID":291415},"geometry":{"x":172023.05999999959,"y":2545916.0000000037}},{"attributes":{"ID":291422,"DIS_CODE":0,"TOWNNAME":"永康區","LI":"中興里","LIN":"26鄰","STREET":"中山東路","SECT":" ","MAREA":" ","LANE":" ","ALLEY":" ","HOUSE_NO":"３７６號","E_COORD97":171893.41,"N_COORD97":2545271.8900000001,"ADDRESS":"中山東路３７６號","OBJECTID":291416},"geometry":{"x":171893.41000000108,"y":2545271.8900000006}},{"attributes":{"ID":291423,"DIS_CODE":0,"TOWNNAME":"永康區","LI":"三合里","LIN":"25鄰","STREET":"中山東路","SECT":" ","MAREA":" ","LANE":" ","ALLEY":" ","HOUSE_NO":"１８７號","E_COORD97":171808.87,"N_COORD97":2545701.1499999999,"ADDRESS":"中山東路１８７號","OBJECTID":291417},"geometry":{"x":171808.87000000104,"y":2545701.1500000004}},{"attributes":{"ID":291424,"DIS_CODE":0,"TOWNNAME":"永康區","LI":"大橋里","LIN":"4鄰","STREET":"大橋五街","SECT":" ","MAREA":" ","LANE":" ","ALLEY":" ","HOUSE_NO":"８５號","E_COORD97":170865.79999999999,"N_COORD97":2546926.1299999999,"ADDRESS":"大橋五街８５號","OBJECTID":291418},"geometry":{"x":170865.80000000168,"y":2546926.129999999}},{"attributes":{"ID":291425,"DIS_CODE":0,"TOWNNAME":"中西區","LI":"西湖里","LIN":"9鄰","STREET":"湖美二街","SECT":" ","MAREA":" ","LANE":" ","ALLEY":" ","HOUSE_NO":"６號","E_COORD97":166150.41,"N_COORD97":2544439.6400000001,"ADDRESS":"湖美二街６號","OBJECTID":291419},"geometry":{"x":166150.41000000015,"y":2544439.6400000006}},{"attributes":{"ID":291426,"DIS_CODE":0,"TOWNNAME":"新營區","LI":"大宏里","LIN":"9鄰","STREET":"民治路","SECT":" ","MAREA":" ","LANE":"２９巷","ALLEY":" ","HOUSE_NO":"４７號","E_COORD97":180193.91,"N_COORD97":2578715.7599999998,"ADDRESS":"民治路２９巷４７號","OBJECTID":291420},"geometry":{"x":180193.91000000201,"y":2578715.7599999979}},{"attributes":{"ID":291427,"DIS_CODE":0,"TOWNNAME":"新營區","LI":"大宏里","LIN":"9鄰","STREET":"民治路","SECT":" ","MAREA":" ","LANE":"２９巷","ALLEY":" ","HOUSE_NO":"４３號之３","E_COORD97":180230.98999999999,"N_COORD97":2578731.1600000001,"ADDRESS":"民治路２９巷４３號之３","OBJECTID":291421},"geometry":{"x":180230.99000000115,"y":2578731.160000002}},{"attributes":{"ID":291428,"DIS_CODE":0,"TOWNNAME":"永康區","LI":"三合里","LIN":"14鄰","STREET":"南工街","SECT":" ","MAREA":" ","LANE":" ","ALLEY":" ","HOUSE_NO":"２２５號","E_COORD97":172024.07000000001,"N_COORD97":2545924,"ADDRESS":"南工街２２５號","OBJECTID":291422},"geometry":{"x":172024.07000000123,"y":2545924.0000000019}},{"attributes":{"ID":291429,"DIS_CODE":0,"TOWNNAME":"新營區","LI":"新東里","LIN":"9鄰","STREET":"東仁街","SECT":" ","MAREA":" ","LANE":"４３巷","ALLEY":" ","HOUSE_NO":"３０號","E_COORD97":181216.03,"N_COORD97":2579660.0800000001,"ADDRESS":"東仁街４３巷３０號","OBJECTID":291423},"geometry":{"x":181216.03000000119,"y":2579660.0800000038}},{"attributes":{"ID":291430,"DIS_CODE":0,"TOWNNAME":"新營區","LI":"忠政里","LIN":"9鄰","STREET":"中正路","SECT":" ","MAREA":" ","LANE":"３９巷","ALLEY":" ","HOUSE_NO":"２１之１號","E_COORD97":179990.14000000001,"N_COORD97":2579224,"ADDRESS":"中正路３９巷２１之１號","OBJECTID":291424},"geometry":{"x":179990.14000000153,"y":2579224.0000000019}},{"attributes":{"ID":291431,"DIS_CODE":0,"TOWNNAME":"新營區","LI":"三仙里","LIN":"9鄰","STREET":"正義街","SECT":" ","MAREA":" ","LANE":"４３巷","ALLEY":" ","HOUSE_NO":"１０號","E_COORD97":179617.32000000001,"N_COORD97":2578149.2599999998,"ADDRESS":"正義街４３巷１０號","OBJECTID":291425},"geometry":{"x":179617.32000000123,"y":2578149.2599999998}},{"attributes":{"ID":291432,"DIS_CODE":0,"TOWNNAME":"南區","LI":"新生里","LIN":"9鄰","STREET":"大同路","SECT":"二段","MAREA":" ","LANE":"１６４巷","ALLEY":" ","HOUSE_NO":"６號","E_COORD97":169310.88,"N_COORD97":2542044.8300000001,"ADDRESS":"大同路二段１６４巷６號","OBJECTID":291426},"geometry":{"x":169310.88000000175,"y":2542044.8300000001}},{"attributes":{"ID":291433,"DIS_CODE":0,"TOWNNAME":"北區","LI":"大道里","LIN":"9鄰","STREET":"北門路","SECT":"二段","MAREA":" ","LANE":"５４７巷","ALLEY":" ","HOUSE_NO":"７號","E_COORD97":169624.73999999999,"N_COORD97":2545682.8799999999,"ADDRESS":"北門路二段５４７巷７號","OBJECTID":291427},"geometry":{"x":169624.74000000115,"y":2545682.8800000008}},{"attributes":{"ID":291434,"DIS_CODE":0,"TOWNNAME":"北區","LI":"大道里","LIN":"9鄰","STREET":"北門路","SECT":"二段","MAREA":" ","LANE":"５４７巷","ALLEY":" ","HOUSE_NO":"１７號","E_COORD97":169598.85999999999,"N_COORD97":2545691.6899999999,"ADDRESS":"北門路二段５４７巷１７號","OBJECTID":291428},"geometry":{"x":169598.86000000034,"y":2545691.6900000013}},{"attributes":{"ID":291435,"DIS_CODE":0,"TOWNNAME":"北區","LI":"大道里","LIN":"9鄰","STREET":"北門路","SECT":"二段","MAREA":" ","LANE":"５４７巷","ALLEY":" ","HOUSE_NO":"２５號","E_COORD97":169587.12,"N_COORD97":2545684.5499999998,"ADDRESS":"北門路二段５４７巷２５號","OBJECTID":291429},"geometry":{"x":169587.12000000011,"y":2545684.5500000007}},{"attributes":{"ID":291436,"DIS_CODE":0,"TOWNNAME":"北區","LI":"大道里","LIN":"9鄰","STREET":"北門路","SECT":"二段","MAREA":" ","LANE":"５４７巷","ALLEY":" ","HOUSE_NO":"２７號","E_COORD97":169581.88,"N_COORD97":2545686.29,"ADDRESS":"北門路二段５４７巷２７號","OBJECTID":291430},"geometry":{"x":169581.87999999896,"y":2545686.290000001}},{"attributes":{"ID":291437,"DIS_CODE":0,"TOWNNAME":"北區","LI":"大道里","LIN":"9鄰","STREET":"北門路","SECT":"二段","MAREA":" ","LANE":"５４７巷","ALLEY":" ","HOUSE_NO":"２９號","E_COORD97":169576.95999999999,"N_COORD97":2545688.04,"ADDRESS":"北門路二段５４７巷２９號","OBJECTID":291431},"geometry":{"x":169576.96000000089,"y":2545688.040000001}},{"attributes":{"ID":291438,"DIS_CODE":0,"TOWNNAME":"北區","LI":"大道里","LIN":"9鄰","STREET":"北門路","SECT":"二段","MAREA":" ","LANE":"５４７巷","ALLEY":" ","HOUSE_NO":"３１號","E_COORD97":169568.22,"N_COORD97":2545690.8999999999,"ADDRESS":"北門路二段５４７巷３１號","OBJECTID":291432},"geometry":{"x":169568.22000000067,"y":2545690.9000000022}},{"attributes":{"ID":291439,"DIS_CODE":0,"TOWNNAME":"永康區","LI":"中華里","LIN":"18鄰","STREET":"中華路","SECT":" ","MAREA":" ","LANE":"１０巷","ALLEY":" ","HOUSE_NO":"４１號","E_COORD97":171695.10999999999,"N_COORD97":2544482.0899999999,"ADDRESS":"中華路１０巷４１號","OBJECTID":291433},"geometry":{"x":171695.11000000127,"y":2544482.0900000017}},{"attributes":{"ID":291440,"DIS_CODE":0,"TOWNNAME":"永康區","LI":"三民里","LIN":"13鄰","STREET":"和平路","SECT":" ","MAREA":" ","LANE":" ","ALLEY":" ","HOUSE_NO":"２８５號","E_COORD97":174462.54000000001,"N_COORD97":2551254.8399999999,"ADDRESS":"和平路２８５號","OBJECTID":291434},"geometry":{"x":174462.54000000004,"y":2551254.8400000017}},{"attributes":{"ID":291441,"DIS_CODE":0,"TOWNNAME":"永康區","LI":"三合里","LIN":"5鄰","STREET":"南工街","SECT":" ","MAREA":" ","LANE":" ","ALLEY":" ","HOUSE_NO":"９６號","E_COORD97":172104.31,"N_COORD97":2545715.8700000001,"ADDRESS":"南工街９６號","OBJECTID":291435},"geometry":{"x":172104.30999999959,"y":2545715.8700000029}},{"attributes":{"ID":291442,"DIS_CODE":0,"TOWNNAME":"麻豆區","LI":"大埕里","LIN":"8鄰","STREET":" ","SECT":" ","MAREA":"大埕","LANE":" ","ALLEY":" ","HOUSE_NO":"１８號","E_COORD97":173155.07000000001,"N_COORD97":2565235.8900000001,"ADDRESS":"大埕１８號","OBJECTID":291436},"geometry":{"x":173155.07000000123,"y":2565235.8900000043}},{"attributes":{"ID":291443,"DIS_CODE":0,"TOWNNAME":"北區","LI":"大道里","LIN":"9鄰","STREET":"北門路","SECT":"二段","MAREA":" ","LANE":"５４７巷","ALLEY":" ","HOUSE_NO":"３３號","E_COORD97":169563.29999999999,"N_COORD97":2545692.7999999998,"ADDRESS":"北門路二段５４７巷３３號","OBJECTID":291437},"geometry":{"x":169563.29999999981,"y":2545692.8000000007}},{"attributes":{"ID":291444,"DIS_CODE":0,"TOWNNAME":"永康區","LI":"三合里","LIN":"5鄰","STREET":"南工街","SECT":" ","MAREA":" ","LANE":" ","ALLEY":" ","HOUSE_NO":"９０號","E_COORD97":172104.20999999999,"N_COORD97":2545703.6200000001,"ADDRESS":"南工街９０號","OBJECTID":291438},"geometry":{"x":172104.21000000089,"y":2545703.6200000029}},{"attributes":{"ID":291445,"DIS_CODE":0,"TOWNNAME":"永康區","LI":"三民里","LIN":"3鄰","STREET":"三民街","SECT":" ","MAREA":" ","LANE":" ","ALLEY":" ","HOUSE_NO":"５１號","E_COORD97":172942.01000000001,"N_COORD97":2550243.5299999998,"ADDRESS":"三民街５１號","OBJECTID":291439},"geometry":{"x":172942.00999999978,"y":2550243.5299999993}},{"attributes":{"ID":291446,"DIS_CODE":0,"TOWNNAME":"永康區","LI":"三合里","LIN":"13鄰","STREET":"南工街","SECT":" ","MAREA":" ","LANE":" ","ALLEY":" ","HOUSE_NO":"１７３號","E_COORD97":172035.78,"N_COORD97":2545831.8199999998,"ADDRESS":"南工街１７３號","OBJECTID":291440},"geometry":{"x":172035.78000000026,"y":2545831.8200000003}},{"attributes":{"ID":291447,"DIS_CODE":0,"TOWNNAME":"中西區","LI":"西湖里","LIN":"4鄰","STREET":"頂美二街","SECT":" ","MAREA":" ","LANE":" ","ALLEY":" ","HOUSE_NO":"３３號","E_COORD97":166398.25,"N_COORD97":2544539.6000000001,"ADDRESS":"頂美二街３３號","OBJECTID":291441},"geometry":{"x":166398.25000000093,"y":2544539.6000000015}},{"attributes":{"ID":291448,"DIS_CODE":0,"TOWNNAME":"中西區","LI":"西湖里","LIN":"4鄰","STREET":"頂美二街","SECT":" ","MAREA":" ","LANE":" ","ALLEY":" ","HOUSE_NO":"３５號","E_COORD97":166397.03,"N_COORD97":2544547.6200000001,"ADDRESS":"頂美二街３５號","OBJECTID":291442},"geometry":{"x":166397.03000000026,"y":2544547.6200000029}},{"attributes":{"ID":291449,"DIS_CODE":0,"TOWNNAME":"北區","LI":"大道里","LIN":"9鄰","STREET":"北門路","SECT":"二段","MAREA":" ","LANE":"５４７巷","ALLEY":" ","HOUSE_NO":"３５號","E_COORD97":169558.38,"N_COORD97":2545694.5499999998,"ADDRESS":"北門路二段５４７巷３５號","OBJECTID":291443},"geometry":{"x":169558.38000000175,"y":2545694.5500000007}},{"attributes":{"ID":291450,"DIS_CODE":0,"TOWNNAME":"東區","LI":"東明里","LIN":"4鄰","STREET":"東興路","SECT":" ","MAREA":" ","LANE":" ","ALLEY":" ","HOUSE_NO":"８９號","E_COORD97":170926.98000000001,"N_COORD97":2543604.04,"ADDRESS":"東興路８９號","OBJECTID":291444},"geometry":{"x":170926.98000000138,"y":2543604.040000001}},{"attributes":{"ID":291451,"DIS_CODE":0,"TOWNNAME":"北區","LI":"大道里","LIN":"9鄰","STREET":"北門路","SECT":"二段","MAREA":" ","LANE":"５４７巷","ALLEY":" ","HOUSE_NO":"３７號","E_COORD97":169552.98000000001,"N_COORD97":2545696.1299999999,"ADDRESS":"北門路二段５４７巷３７號","OBJECTID":291445},"geometry":{"x":169552.97999999952,"y":2545696.129999999}},{"attributes":{"ID":291452,"DIS_CODE":0,"TOWNNAME":"北區","LI":"大道里","LIN":"9鄰","STREET":"北門路","SECT":"二段","MAREA":" ","LANE":"５４７巷","ALLEY":" ","HOUSE_NO":"４３號","E_COORD97":169548.70000000001,"N_COORD97":2545706.8500000001,"ADDRESS":"北門路二段５４７巷４３號","OBJECTID":291446},"geometry":{"x":169548.70000000112,"y":2545706.8500000015}},{"attributes":{"ID":291453,"DIS_CODE":0,"TOWNNAME":"善化區","LI":"坐駕里","LIN":" ","STREET":"中正路","SECT":" ","MAREA":" ","LANE":" ","ALLEY":" ","HOUSE_NO":"３２２號","E_COORD97":177723.66,"N_COORD97":2558536.75,"ADDRESS":"中正路３２２號","OBJECTID":291447},"geometry":{"x":177723.66000000015,"y":2558536.7500000037}},{"attributes":{"ID":291454,"DIS_CODE":0,"TOWNNAME":"北區","LI":"大道里","LIN":"9鄰","STREET":"北門路","SECT":"二段","MAREA":" ","LANE":"５４７巷","ALLEY":" ","HOUSE_NO":"４５號","E_COORD97":169542.67000000001,"N_COORD97":2545708.6000000001,"ADDRESS":"北門路二段５４７巷４５號","OBJECTID":291448},"geometry":{"x":169542.66999999899,"y":2545708.6000000015}},{"attributes":{"ID":291455,"DIS_CODE":0,"TOWNNAME":"新營區","LI":"南興里","LIN":"9鄰","STREET":"和平路","SECT":" ","MAREA":" ","LANE":"１０２巷","ALLEY":" ","HOUSE_NO":"２２號","E_COORD97":179345.82999999999,"N_COORD97":2577615.6600000001,"ADDRESS":"和平路１０２巷２２號","OBJECTID":291449},"geometry":{"x":179345.83000000101,"y":2577615.660000002}},{"attributes":{"ID":291456,"DIS_CODE":0,"TOWNNAME":"歸仁區","LI":"武東里","LIN":"9鄰","STREET":"武東三街","SECT":" ","MAREA":" ","LANE":"５３巷","ALLEY":" ","HOUSE_NO":"５４號","E_COORD97":175121.39000000001,"N_COORD97":2535080.25,"ADDRESS":"武東三街５３巷５４號","OBJECTID":291450},"geometry":{"x":175121.38999999966,"y":2535080.2500000019}},{"attributes":{"ID":291457,"DIS_CODE":0,"TOWNNAME":"歸仁區","LI":"武東里","LIN":"9鄰","STREET":"武東三街","SECT":" ","MAREA":" ","LANE":"２１巷","ALLEY":" ","HOUSE_NO":"２６號","E_COORD97":175202.89000000001,"N_COORD97":2535172.25,"ADDRESS":"武東三街２１巷２６號","OBJECTID":291451},"geometry":{"x":175202.88999999873,"y":2535172.25}},{"attributes":{"ID":291458,"DIS_CODE":0,"TOWNNAME":"玉井區","LI":"玉井里","LIN":"9鄰","STREET":"民生路","SECT":" ","MAREA":" ","LANE":"１１巷","ALLEY":" ","HOUSE_NO":"１２號","E_COORD97":194735.98999999999,"N_COORD97":2558226.29,"ADDRESS":"民生路１１巷１２號","OBJECTID":291452},"geometry":{"x":194735.99000000022,"y":2558226.2899999991}},{"attributes":{"ID":291459,"DIS_CODE":0,"TOWNNAME":"善化區","LI":"光文里","LIN":" ","STREET":"中山路","SECT":" ","MAREA":" ","LANE":" ","ALLEY":" ","HOUSE_NO":"７１號","E_COORD97":178686.32999999999,"N_COORD97":2559186,"ADDRESS":"中山路７１號","OBJECTID":291453},"geometry":{"x":178686.33000000101,"y":2559186.0000000037}},{"attributes":{"ID":291460,"DIS_CODE":0,"TOWNNAME":"北區","LI":"公園里","LIN":"9鄰","STREET":"北忠街","SECT":" ","MAREA":" ","LANE":"５８巷","ALLEY":" ","HOUSE_NO":"５２號","E_COORD97":169167.17999999999,"N_COORD97":2544485.4500000002,"ADDRESS":"北忠街５８巷５２號","OBJECTID":291454},"geometry":{"x":169167.1799999997,"y":2544485.4500000011}},{"attributes":{"ID":291461,"DIS_CODE":0,"TOWNNAME":"善化區","LI":"光文里","LIN":"20鄰","STREET":"和平路","SECT":" ","MAREA":" ","LANE":" ","ALLEY":" ","HOUSE_NO":"１２３號","E_COORD97":178116.53,"N_COORD97":2558922,"ADDRESS":"和平路１２３號","OBJECTID":291455},"geometry":{"x":178116.53000000026,"y":2558922.0000000019}},{"attributes":{"ID":291462,"DIS_CODE":0,"TOWNNAME":"善化區","LI":"光文里","LIN":"25鄰","STREET":"公園路","SECT":" ","MAREA":" ","LANE":" ","ALLEY":" ","HOUSE_NO":"８２號","E_COORD97":178128.88,"N_COORD97":2559214,"ADDRESS":"公園路８２號","OBJECTID":291456},"geometry":{"x":178128.87999999989,"y":2559214.0000000019}},{"attributes":{"ID":291463,"DIS_CODE":0,"TOWNNAME":"北區","LI":"公園里","LIN":"9鄰","STREET":"北忠街","SECT":" ","MAREA":" ","LANE":"５８巷","ALLEY":" ","HOUSE_NO":"５４號","E_COORD97":169154.41,"N_COORD97":2544488.9199999999,"ADDRESS":"北忠街５８巷５４號","OBJECTID":291457},"geometry":{"x":169154.41000000015,"y":2544488.9199999981}},{"attributes":{"ID":291464,"DIS_CODE":0,"TOWNNAME":"新營區","LI":"南興里","LIN":"9鄰","STREET":"和平路","SECT":" ","MAREA":" ","LANE":"１０２巷","ALLEY":" ","HOUSE_NO":"８號","E_COORD97":179379.35999999999,"N_COORD97":2577614.3900000001,"ADDRESS":"和平路１０２巷８號","OBJECTID":291458},"geometry":{"x":179379.36000000127,"y":2577614.3900000025}},{"attributes":{"ID":291465,"DIS_CODE":0,"TOWNNAME":"善化區","LI":"南關里","LIN":"13鄰","STREET":"自由路","SECT":" ","MAREA":" ","LANE":" ","ALLEY":" ","HOUSE_NO":"１８５號","E_COORD97":176911.51999999999,"N_COORD97":2558905,"ADDRESS":"自由路１８５號","OBJECTID":291459},"geometry":{"x":176911.52000000048,"y":2558905.0000000019}},{"attributes":{"ID":291466,"DIS_CODE":0,"TOWNNAME":"善化區","LI":"光文里","LIN":"17鄰","STREET":"民權路","SECT":" ","MAREA":" ","LANE":" ","ALLEY":" ","HOUSE_NO":"２１３號","E_COORD97":178155.51999999999,"N_COORD97":2558987.0099999998,"ADDRESS":"民權路２１３號","OBJECTID":291460},"geometry":{"x":178155.52000000048,"y":2558987.0100000016}},{"attributes":{"ID":291467,"DIS_CODE":0,"TOWNNAME":"善化區","LI":"坐駕里","LIN":"17鄰","STREET":"興華路","SECT":" ","MAREA":" ","LANE":" ","ALLEY":" ","HOUSE_NO":"２５６號之１","E_COORD97":177985.35000000001,"N_COORD97":2558553.52,"ADDRESS":"興華路２５６號之１","OBJECTID":291461},"geometry":{"x":177985.35000000056,"y":2558553.5199999996}},{"attributes":{"ID":291468,"DIS_CODE":0,"TOWNNAME":"歸仁區","LI":"八甲里","LIN":"9鄰","STREET":"中正北路","SECT":"一段","MAREA":" ","LANE":"３９５巷","ALLEY":" ","HOUSE_NO":"６號","E_COORD97":177692.53,"N_COORD97":2541880.4900000002,"ADDRESS":"中正北路一段３９５巷６號","OBJECTID":291462},"geometry":{"x":177692.53000000026,"y":2541880.4900000002}},{"attributes":{"ID":291469,"DIS_CODE":0,"TOWNNAME":"歸仁區","LI":"八甲里","LIN":"9鄰","STREET":"大明街","SECT":" ","MAREA":" ","LANE":"１８巷","ALLEY":" ","HOUSE_NO":"１１號","E_COORD97":177802.62,"N_COORD97":2541832.6099999999,"ADDRESS":"大明街１８巷１１號","OBJECTID":291463},"geometry":{"x":177802.62000000104,"y":2541832.6100000031}},{"attributes":{"ID":291470,"DIS_CODE":0,"TOWNNAME":"北區","LI":"玉皇里","LIN":"9鄰","STREET":"崇安街","SECT":" ","MAREA":" ","LANE":"７０巷","ALLEY":" ","HOUSE_NO":"８號","E_COORD97":168727.73999999999,"N_COORD97":2544537.02,"ADDRESS":"崇安街７０巷８號","OBJECTID":291464},"geometry":{"x":168727.74000000115,"y":2544537.0200000014}},{"attributes":{"ID":291471,"DIS_CODE":0,"TOWNNAME":"善化區","LI":"東關里","LIN":"4鄰","STREET":"進學路","SECT":" ","MAREA":" ","LANE":" ","ALLEY":" ","HOUSE_NO":"１０號","E_COORD97":177399.66,"N_COORD97":2559156.75,"ADDRESS":"進學路１０號","OBJECTID":291465},"geometry":{"x":177399.66000000015,"y":2559156.75}},{"attributes":{"ID":291472,"DIS_CODE":0,"TOWNNAME":"中西區","LI":"西湖里","LIN":"18鄰","STREET":"湖美二街","SECT":" ","MAREA":" ","LANE":" ","ALLEY":" ","HOUSE_NO":"１０９號","E_COORD97":166121.70000000001,"N_COORD97":2544839.46,"ADDRESS":"湖美二街１０９號","OBJECTID":291466},"geometry":{"x":166121.70000000019,"y":2544839.4600000028}},{"attributes":{"ID":291473,"DIS_CODE":0,"TOWNNAME":"中西區","LI":"西湖里","LIN":"18鄰","STREET":"湖美二街","SECT":" ","MAREA":" ","LANE":" ","ALLEY":" ","HOUSE_NO":"１１１號","E_COORD97":166120.73000000001,"N_COORD97":2544855.7400000002,"ADDRESS":"湖美二街１１１號","OBJECTID":291467},"geometry":{"x":166120.73000000138,"y":2544855.7400000002}},{"attributes":{"ID":291474,"DIS_CODE":0,"TOWNNAME":"南區","LI":"金華里","LIN":"9鄰","STREET":"金華路","SECT":"二段","MAREA":" ","LANE":"８１巷","ALLEY":" ","HOUSE_NO":"３１號之１","E_COORD97":166889.41,"N_COORD97":2542208.9100000001,"ADDRESS":"金華路二段８１巷３１號之１","OBJECTID":291468},"geometry":{"x":166889.41000000015,"y":2542208.910000002}},{"attributes":{"ID":291475,"DIS_CODE":0,"TOWNNAME":"南區","LI":"金華里","LIN":"9鄰","STREET":"金華路","SECT":"二段","MAREA":" ","LANE":"８１巷","ALLEY":" ","HOUSE_NO":"３３號","E_COORD97":166883.22,"N_COORD97":2542208.9100000001,"ADDRESS":"金華路二段８１巷３３號","OBJECTID":291469},"geometry":{"x":166883.22000000067,"y":2542208.910000002}},{"attributes":{"ID":291476,"DIS_CODE":0,"TOWNNAME":"南區","LI":"金華里","LIN":"9鄰","STREET":"金華路","SECT":"二段","MAREA":" ","LANE":"８１巷","ALLEY":" ","HOUSE_NO":"３５號","E_COORD97":166877.35000000001,"N_COORD97":2542208.6099999999,"ADDRESS":"金華路二段８１巷３５號","OBJECTID":291470},"geometry":{"x":166877.34999999963,"y":2542208.6099999994}},{"attributes":{"ID":291477,"DIS_CODE":0,"TOWNNAME":"北區","LI":"華興里","LIN":"9鄰","STREET":"南園街","SECT":" ","MAREA":" ","LANE":"１６２巷","ALLEY":" ","HOUSE_NO":"１８號","E_COORD97":170580.28,"N_COORD97":2545215.0800000001,"ADDRESS":"南園街１６２巷１８號","OBJECTID":291471},"geometry":{"x":170580.28000000119,"y":2545215.0800000019}},{"attributes":{"ID":291478,"DIS_CODE":0,"TOWNNAME":"北區","LI":"新勝里","LIN":"9鄰","STREET":"開元路","SECT":" ","MAREA":" ","LANE":"３３３巷","ALLEY":" ","HOUSE_NO":"２０號","E_COORD97":170131.92000000001,"N_COORD97":2545510.6400000001,"ADDRESS":"開元路３３３巷２０號","OBJECTID":291472},"geometry":{"x":170131.91999999993,"y":2545510.6400000006}},{"attributes":{"ID":291479,"DIS_CODE":0,"TOWNNAME":"安平區","LI":"平安里","LIN":"9鄰","STREET":"安平路","SECT":" ","MAREA":" ","LANE":"４２６巷","ALLEY":" ","HOUSE_NO":"１４號","E_COORD97":165349.72,"N_COORD97":2544365.5699999998,"ADDRESS":"安平路４２６巷１４號","OBJECTID":291473},"geometry":{"x":165349.71999999974,"y":2544365.5700000003}},{"attributes":{"ID":291480,"DIS_CODE":0,"TOWNNAME":"新營區","LI":"新南里","LIN":"9鄰","STREET":"新北五街","SECT":" ","MAREA":" ","LANE":"１４３巷","ALLEY":" ","HOUSE_NO":"８號","E_COORD97":178540.79000000001,"N_COORD97":2579146.7000000002,"ADDRESS":"新北五街１４３巷８號","OBJECTID":291474},"geometry":{"x":178540.79000000097,"y":2579146.700000003}},{"attributes":{"ID":291481,"DIS_CODE":0,"TOWNNAME":"新營區","LI":"南紙里","LIN":"9鄰","STREET":"南紙街","SECT":" ","MAREA":" ","LANE":"８５巷","ALLEY":" ","HOUSE_NO":"５之４號","E_COORD97":177856.51000000001,"N_COORD97":2577591.8900000001,"ADDRESS":"南紙街８５巷５之４號","OBJECTID":291475},"geometry":{"x":177856.50999999978,"y":2577591.8900000025}},{"attributes":{"ID":291482,"DIS_CODE":0,"TOWNNAME":"新營區","LI":"新南里","LIN":"9鄰","STREET":"新北五街","SECT":" ","MAREA":" ","LANE":"１４３巷","ALLEY":" ","HOUSE_NO":"４號","E_COORD97":178546.95999999999,"N_COORD97":2579152.21,"ADDRESS":"新北五街１４３巷４號","OBJECTID":291476},"geometry":{"x":178546.95999999996,"y":2579152.2100000028}},{"attributes":{"ID":291483,"DIS_CODE":0,"TOWNNAME":"新營區","LI":"新東里","LIN":"9鄰","STREET":"東仁街","SECT":" ","MAREA":" ","LANE":"２１巷","ALLEY":" ","HOUSE_NO":"１５號","E_COORD97":181229.89000000001,"N_COORD97":2579580.27,"ADDRESS":"東仁街２１巷１５號","OBJECTID":291477},"geometry":{"x":181229.8900000006,"y":2579580.2700000033}},{"attributes":{"ID":291484,"DIS_CODE":0,"TOWNNAME":"南區","LI":"建南里","LIN":"9鄰","STREET":"德興路","SECT":" ","MAREA":" ","LANE":"２７４巷","ALLEY":" ","HOUSE_NO":"１號","E_COORD97":167185.85999999999,"N_COORD97":2540000.6000000001,"ADDRESS":"德興路２７４巷１號","OBJECTID":291478},"geometry":{"x":167185.86000000127,"y":2540000.5999999996}},{"attributes":{"ID":291485,"DIS_CODE":0,"TOWNNAME":"南區","LI":"大林里","LIN":"9鄰","STREET":"大同路","SECT":"二段","MAREA":" ","LANE":"４８２巷","ALLEY":" ","HOUSE_NO":"１２８號","E_COORD97":169133.70999999999,"N_COORD97":2541575,"ADDRESS":"大同路二段４８２巷１２８號","OBJECTID":291479},"geometry":{"x":169133.70999999996,"y":2541575}},{"attributes":{"ID":291486,"DIS_CODE":0,"TOWNNAME":"南區","LI":"大林里","LIN":"9鄰","STREET":"大同路","SECT":"二段","MAREA":" ","LANE":"４８２巷","ALLEY":" ","HOUSE_NO":"１２２號","E_COORD97":169151.69,"N_COORD97":2541572.21,"ADDRESS":"大同路二段４８２巷１２２號","OBJECTID":291480},"geometry":{"x":169151.69000000227,"y":2541572.2100000009}},{"attributes":{"ID":291487,"DIS_CODE":0,"TOWNNAME":"南區","LI":"文南里","LIN":"9鄰","STREET":"長南街","SECT":" ","MAREA":" ","LANE":"３６巷","ALLEY":" ","HOUSE_NO":"４９號","E_COORD97":166979.54000000001,"N_COORD97":2542760.6899999999,"ADDRESS":"長南街３６巷４９號","OBJECTID":291481},"geometry":{"x":166979.54000000097,"y":2542760.6899999995}},{"attributes":{"ID":291488,"DIS_CODE":0,"TOWNNAME":"南區","LI":"文南里","LIN":"9鄰","STREET":"長南街","SECT":" ","MAREA":" ","LANE":"３６巷","ALLEY":" ","HOUSE_NO":"５１號","E_COORD97":166980.23999999999,"N_COORD97":2542765.29,"ADDRESS":"長南街３６巷５１號","OBJECTID":291482},"geometry":{"x":166980.24000000115,"y":2542765.2899999991}},{"attributes":{"ID":291489,"DIS_CODE":0,"TOWNNAME":"南區","LI":"文南里","LIN":"9鄰","STREET":"長南街","SECT":" ","MAREA":" ","LANE":"３６巷","ALLEY":" ","HOUSE_NO":"５３號","E_COORD97":166980.51999999999,"N_COORD97":2542769.4700000002,"ADDRESS":"長南街３６巷５３號","OBJECTID":291483},"geometry":{"x":166980.52000000048,"y":2542769.4700000007}},{"attributes":{"ID":291490,"DIS_CODE":0,"TOWNNAME":"新化區","LI":"護國里","LIN":"9鄰","STREET":"中山路","SECT":" ","MAREA":" ","LANE":"１１１巷","ALLEY":" ","HOUSE_NO":"４６號","E_COORD97":180071.06,"N_COORD97":2549092.25,"ADDRESS":"中山路１１１巷４６號","OBJECTID":291484},"geometry":{"x":180071.06000000052,"y":2549092.2500000019}},{"attributes":{"ID":291491,"DIS_CODE":0,"TOWNNAME":"新化區","LI":"東榮里","LIN":"9鄰","STREET":"信義路","SECT":" ","MAREA":" ","LANE":"１３１巷","ALLEY":" ","HOUSE_NO":"１１４號","E_COORD97":179668.53,"N_COORD97":2548244.25,"ADDRESS":"信義路１３１巷１１４號","OBJECTID":291485},"geometry":{"x":179668.53000000119,"y":2548244.2500000019}},{"attributes":{"ID":291492,"DIS_CODE":0,"TOWNNAME":"新化區","LI":"東榮里","LIN":"9鄰","STREET":"信義路","SECT":" ","MAREA":" ","LANE":"１３１巷","ALLEY":" ","HOUSE_NO":"９０號","E_COORD97":179663.07999999999,"N_COORD97":2548283.25,"ADDRESS":"信義路１３１巷９０號","OBJECTID":291486},"geometry":{"x":179663.08000000007,"y":2548283.25}},{"attributes":{"ID":291495,"DIS_CODE":0,"TOWNNAME":"將軍區","LI":"廣山里","LIN":"11鄰","STREET":" ","SECT":" ","MAREA":"廣山","LANE":" ","ALLEY":" ","HOUSE_NO":"１０５號","E_COORD97":159512.691009,"N_COORD97":2569022.8296300001,"ADDRESS":"廣山１０５號","OBJECTID":291487},"geometry":{"x":159512.69100900181,"y":2569022.8296270035}},{"attributes":{"ID":291496,"DIS_CODE":0,"TOWNNAME":"永康區","LI":"安康里","LIN":"9鄰","STREET":"中山南路","SECT":" ","MAREA":" ","LANE":"９５巷","ALLEY":" ","HOUSE_NO":"１１號","E_COORD97":170854.85000000001,"N_COORD97":2545960.2400000002,"ADDRESS":"中山南路９５巷１１號","OBJECTID":291488},"geometry":{"x":170854.84999999963,"y":2545960.2400000021}},{"attributes":{"ID":291497,"DIS_CODE":0,"TOWNNAME":"東區","LI":"德光里","LIN":"9鄰","STREET":"崇學路","SECT":" ","MAREA":" ","LANE":"５９巷","ALLEY":" ","HOUSE_NO":"１０號","E_COORD97":170027.01999999999,"N_COORD97":2542149.5499999998,"ADDRESS":"崇學路５９巷１０號","OBJECTID":291489},"geometry":{"x":170027.02000000048,"y":2542149.5499999989}},{"attributes":{"ID":291498,"DIS_CODE":0,"TOWNNAME":"東區","LI":"路東里","LIN":"9鄰","STREET":"林森路","SECT":"一段","MAREA":" ","LANE":"５８巷","ALLEY":" ","HOUSE_NO":"３２號","E_COORD97":169387.29000000001,"N_COORD97":2542326.9300000002,"ADDRESS":"林森路一段５８巷３２號","OBJECTID":291490},"geometry":{"x":169387.29000000004,"y":2542326.9300000016}},{"attributes":{"ID":291499,"DIS_CODE":0,"TOWNNAME":"東區","LI":"路東里","LIN":"9鄰","STREET":"林森路","SECT":"一段","MAREA":" ","LANE":"５８巷","ALLEY":" ","HOUSE_NO":"３８號","E_COORD97":169395.32999999999,"N_COORD97":2542327.5600000001,"ADDRESS":"林森路一段５８巷３８號","OBJECTID":291491},"geometry":{"x":169395.33000000007,"y":2542327.5600000005}},{"attributes":{"ID":291500,"DIS_CODE":0,"TOWNNAME":"東區","LI":"路東里","LIN":"9鄰","STREET":"林森路","SECT":"一段","MAREA":" ","LANE":"５８巷","ALLEY":" ","HOUSE_NO":"６號","E_COORD97":169313.42000000001,"N_COORD97":2542338.3599999999,"ADDRESS":"林森路一段５８巷６號","OBJECTID":291492},"geometry":{"x":169313.41999999993,"y":2542338.3599999994}},{"attributes":{"ID":291501,"DIS_CODE":0,"TOWNNAME":"仁德區","LI":"仁德里","LIN":"39鄰","STREET":"文華路","SECT":"三段","MAREA":" ","LANE":" ","ALLEY":" ","HOUSE_NO":"５８９號","E_COORD97":172527.42000000001,"N_COORD97":2541789.3300000001,"ADDRESS":"文華路三段５８９號","OBJECTID":291493},"geometry":{"x":172527.41999999993,"y":2541789.3300000019}},{"attributes":{"ID":291502,"DIS_CODE":0,"TOWNNAME":"仁德區","LI":"仁義里","LIN":"4鄰","STREET":"仁義二街","SECT":" ","MAREA":" ","LANE":" ","ALLEY":" ","HOUSE_NO":"３４號","E_COORD97":173801.45999999999,"N_COORD97":2541165.02,"ADDRESS":"仁義二街３４號","OBJECTID":291494},"geometry":{"x":173801.46000000089,"y":2541165.0199999996}},{"attributes":{"ID":291503,"DIS_CODE":0,"TOWNNAME":"仁德區","LI":"太子里","LIN":"9鄰","STREET":"長興二街","SECT":" ","MAREA":" ","LANE":"５巷","ALLEY":" ","HOUSE_NO":"１３號","E_COORD97":174587.23000000001,"N_COORD97":2543624.7599999998,"ADDRESS":"長興二街５巷１３號","OBJECTID":291495},"geometry":{"x":174587.23000000045,"y":2543624.7599999998}},{"attributes":{"ID":291504,"DIS_CODE":0,"TOWNNAME":"新化區","LI":"東榮里","LIN":"9鄰","STREET":"信義路","SECT":" ","MAREA":" ","LANE":"１３１巷","ALLEY":" ","HOUSE_NO":"８８號","E_COORD97":179662.07999999999,"N_COORD97":2548289.25,"ADDRESS":"信義路１３１巷８８號","OBJECTID":291496},"geometry":{"x":179662.08000000194,"y":2548289.2500000019}},{"attributes":{"ID":291505,"DIS_CODE":0,"TOWNNAME":"仁德區","LI":"仁義里","LIN":"25鄰","STREET":"正義路","SECT":" ","MAREA":" ","LANE":" ","ALLEY":" ","HOUSE_NO":"６８號","E_COORD97":173497.04000000001,"N_COORD97":2541429.5099999998,"ADDRESS":"正義路６８號","OBJECTID":291497},"geometry":{"x":173497.0400000019,"y":2541429.5099999998}},{"attributes":{"ID":291506,"DIS_CODE":0,"TOWNNAME":"仁德區","LI":"仁義里","LIN":"25鄰","STREET":"正義路","SECT":" ","MAREA":" ","LANE":" ","ALLEY":" ","HOUSE_NO":"８０號","E_COORD97":173518.89999999999,"N_COORD97":2541426.5099999998,"ADDRESS":"正義路８０號","OBJECTID":291498},"geometry":{"x":173518.9000000013,"y":2541426.5099999998}},{"attributes":{"ID":291507,"DIS_CODE":0,"TOWNNAME":"仁德區","LI":"仁義里","LIN":"26鄰","STREET":"中山路","SECT":" ","MAREA":" ","LANE":" ","ALLEY":" ","HOUSE_NO":"５４８號","E_COORD97":173375.31,"N_COORD97":2541337,"ADDRESS":"中山路５４８號","OBJECTID":291499},"geometry":{"x":173375.30999999959,"y":2541337.0000000019}},{"attributes":{"ID":291508,"DIS_CODE":0,"TOWNNAME":"仁德區","LI":"後壁里","LIN":"26鄰","STREET":"中正路","SECT":"二段","MAREA":" ","LANE":" ","ALLEY":" ","HOUSE_NO":"３５３號","E_COORD97":173251.44,"N_COORD97":2539211.02,"ADDRESS":"中正路二段３５３號","OBJECTID":291500},"geometry":{"x":173251.44000000041,"y":2539211.0199999996}},{"attributes":{"ID":291509,"DIS_CODE":0,"TOWNNAME":"仁德區","LI":"仁義里","LIN":"18鄰","STREET":"正義路","SECT":" ","MAREA":" ","LANE":" ","ALLEY":" ","HOUSE_NO":"１８６號","E_COORD97":173884.73000000001,"N_COORD97":2541386.7599999998,"ADDRESS":"正義路１８６號","OBJECTID":291501},"geometry":{"x":173884.73000000138,"y":2541386.7599999998}},{"attributes":{"ID":291510,"DIS_CODE":0,"TOWNNAME":"永康區","LI":"甲頂里","LIN":"9鄰","STREET":"中華路","SECT":" ","MAREA":" ","LANE":"８９７巷","ALLEY":" ","HOUSE_NO":"２號","E_COORD97":170410.92000000001,"N_COORD97":2546706.2400000002,"ADDRESS":"中華路８９７巷２號","OBJECTID":291502},"geometry":{"x":170410.92000000086,"y":2546706.2400000021}},{"attributes":{"ID":291511,"DIS_CODE":0,"TOWNNAME":"永康區","LI":"西灣里","LIN":"9鄰","STREET":"大灣五街","SECT":" ","MAREA":" ","LANE":"１４１巷","ALLEY":" ","HOUSE_NO":"２０號","E_COORD97":174414.89999999999,"N_COORD97":2545289.4900000002,"ADDRESS":"大灣五街１４１巷２０號","OBJECTID":291503},"geometry":{"x":174414.90000000037,"y":2545289.4900000021}},{"attributes":{"ID":291512,"DIS_CODE":0,"TOWNNAME":"永康區","LI":"甲頂里","LIN":"9鄰","STREET":"中華路","SECT":" ","MAREA":" ","LANE":"８９９巷","ALLEY":" ","HOUSE_NO":"５號","E_COORD97":170386.82000000001,"N_COORD97":2546717.75,"ADDRESS":"中華路８９９巷５號","OBJECTID":291504},"geometry":{"x":170386.82000000123,"y":2546717.7499999981}},{"attributes":{"ID":291513,"DIS_CODE":0,"TOWNNAME":"中西區","LI":"仙草里","LIN":"9鄰","STREET":"南寧街","SECT":" ","MAREA":" ","LANE":"７１巷","ALLEY":" ","HOUSE_NO":"２５號","E_COORD97":167832.23000000001,"N_COORD97":2542751.6499999999,"ADDRESS":"南寧街７１巷２５號","OBJECTID":291505},"geometry":{"x":167832.23000000045,"y":2542751.6500000004}},{"attributes":{"ID":291514,"DIS_CODE":0,"TOWNNAME":"中西區","LI":"仙草里","LIN":"9鄰","STREET":"南寧街","SECT":" ","MAREA":" ","LANE":"７１巷","ALLEY":" ","HOUSE_NO":"２７號","E_COORD97":167832.57999999999,"N_COORD97":2542764.6600000001,"ADDRESS":"南寧街７１巷２７號","OBJECTID":291506},"geometry":{"x":167832.58000000007,"y":2542764.6600000001}},{"attributes":{"ID":291515,"DIS_CODE":0,"TOWNNAME":"永康區","LI":"龍潭里","LIN":"9鄰","STREET":"龍埔街","SECT":" ","MAREA":" ","LANE":"４６巷","ALLEY":" ","HOUSE_NO":"１號","E_COORD97":174745.56,"N_COORD97":2548256.5899999999,"ADDRESS":"龍埔街４６巷１號","OBJECTID":291507},"geometry":{"x":174745.55999999959,"y":2548256.5899999999}},{"attributes":{"ID":291516,"DIS_CODE":0,"TOWNNAME":"永康區","LI":"蔦松里","LIN":"9鄰","STREET":"正北一路","SECT":" ","MAREA":" ","LANE":"１３６巷","ALLEY":" ","HOUSE_NO":"７號","E_COORD97":174234.63,"N_COORD97":2549998.3999999999,"ADDRESS":"正北一路１３６巷７號","OBJECTID":291508},"geometry":{"x":174234.62999999989,"y":2549998.4000000004}},{"attributes":{"ID":291517,"DIS_CODE":0,"TOWNNAME":"仁德區","LI":"仁義里","LIN":"26鄰","STREET":"中山路","SECT":" ","MAREA":" ","LANE":" ","ALLEY":" ","HOUSE_NO":"５７６號","E_COORD97":173317.69,"N_COORD97":2541344.5,"ADDRESS":"中山路５７６號","OBJECTID":291509},"geometry":{"x":173317.69000000041,"y":2541344.5}},{"attributes":{"ID":291518,"DIS_CODE":0,"TOWNNAME":"永康區","LI":"新樹里","LIN":"9鄰","STREET":"富強路","SECT":"二段","MAREA":" ","LANE":"５６巷","ALLEY":" ","HOUSE_NO":"７３號","E_COORD97":175768.04999999999,"N_COORD97":2547069.2200000002,"ADDRESS":"富強路二段５６巷７３號","OBJECTID":291510},"geometry":{"x":175768.04999999981,"y":2547069.2200000025}},{"attributes":{"ID":291519,"DIS_CODE":0,"TOWNNAME":"安南區","LI":"安順里","LIN":"9鄰","STREET":"安和路","SECT":"四段","MAREA":" ","LANE":"１３１巷","ALLEY":" ","HOUSE_NO":"２１號","E_COORD97":169868.95999999999,"N_COORD97":2550408.3399999999,"ADDRESS":"安和路四段１３１巷２１號","OBJECTID":291511},"geometry":{"x":169868.95999999996,"y":2550408.3399999999}},{"attributes":{"ID":291520,"DIS_CODE":0,"TOWNNAME":"仁德區","LI":"仁義里","LIN":"26鄰","STREET":"中山路","SECT":" ","MAREA":" ","LANE":" ","ALLEY":" ","HOUSE_NO":"５４０號","E_COORD97":173391.81,"N_COORD97":2541335,"ADDRESS":"中山路５４０號","OBJECTID":291512},"geometry":{"x":173391.81000000052,"y":2541335}},{"attributes":{"ID":291521,"DIS_CODE":0,"TOWNNAME":"仁德區","LI":"仁義里","LIN":"18鄰","STREET":"正義路","SECT":" ","MAREA":" ","LANE":" ","ALLEY":" ","HOUSE_NO":"２４３號","E_COORD97":174009.70999999999,"N_COORD97":2541394.7599999998,"ADDRESS":"正義路２４３號","OBJECTID":291513},"geometry":{"x":174009.71000000089,"y":2541394.7600000035}},{"attributes":{"ID":291522,"DIS_CODE":0,"TOWNNAME":"仁德區","LI":"仁德里","LIN":"39鄰","STREET":"文宏一街","SECT":" ","MAREA":" ","LANE":" ","ALLEY":" ","HOUSE_NO":"５７號","E_COORD97":172453.89999999999,"N_COORD97":2541814.0699999998,"ADDRESS":"文宏一街５７號","OBJECTID":291514},"geometry":{"x":172453.90000000037,"y":2541814.0700000022}},{"attributes":{"ID":291523,"DIS_CODE":0,"TOWNNAME":"安南區","LI":"安順里","LIN":"9鄰","STREET":"安和路","SECT":"四段","MAREA":" ","LANE":"１３１巷","ALLEY":" ","HOUSE_NO":"２３號","E_COORD97":169864.42000000001,"N_COORD97":2550408.4399999999,"ADDRESS":"安和路四段１３１巷２３號","OBJECTID":291515},"geometry":{"x":169864.41999999993,"y":2550408.4400000032}},{"attributes":{"ID":291524,"DIS_CODE":0,"TOWNNAME":"仁德區","LI":"仁義里","LIN":"18鄰","STREET":"正義路","SECT":" ","MAREA":" ","LANE":" ","ALLEY":" ","HOUSE_NO":"２１８號","E_COORD97":173977.09,"N_COORD97":2541374.52,"ADDRESS":"正義路２１８號","OBJECTID":291516},"geometry":{"x":173977.08999999985,"y":2541374.5199999996}},{"attributes":{"ID":291525,"DIS_CODE":0,"TOWNNAME":"仁德區","LI":"仁義里","LIN":"25鄰","STREET":"正義路","SECT":" ","MAREA":" ","LANE":" ","ALLEY":" ","HOUSE_NO":"８６號","E_COORD97":173527.14999999999,"N_COORD97":2541425.2599999998,"ADDRESS":"正義路８６號","OBJECTID":291517},"geometry":{"x":173527.15000000224,"y":2541425.2600000035}},{"attributes":{"ID":291526,"DIS_CODE":0,"TOWNNAME":"安南區","LI":"安順里","LIN":"9鄰","STREET":"安和路","SECT":"四段","MAREA":" ","LANE":"１３１巷","ALLEY":" ","HOUSE_NO":"２７號","E_COORD97":169854.26000000001,"N_COORD97":2550410.6299999999,"ADDRESS":"安和路四段１３１巷２７號","OBJECTID":291518},"geometry":{"x":169854.26000000071,"y":2550410.6300000008}},{"attributes":{"ID":291527,"DIS_CODE":0,"TOWNNAME":"仁德區","LI":"仁德里","LIN":"39鄰","STREET":"文山路","SECT":" ","MAREA":" ","LANE":" ","ALLEY":" ","HOUSE_NO":"１５６號","E_COORD97":172711.03,"N_COORD97":2541830.5699999998,"ADDRESS":"文山路１５６號","OBJECTID":291519},"geometry":{"x":172711.03000000119,"y":2541830.570000004}},{"attributes":{"ID":291528,"DIS_CODE":0,"TOWNNAME":"仁德區","LI":"仁義里","LIN":"18鄰","STREET":"正義路","SECT":" ","MAREA":" ","LANE":" ","ALLEY":" ","HOUSE_NO":"２３１號","E_COORD97":173984.85000000001,"N_COORD97":2541398.2599999998,"ADDRESS":"正義路２３１號","OBJECTID":291520},"geometry":{"x":173984.85000000056,"y":2541398.2600000035}},{"attributes":{"ID":291529,"DIS_CODE":0,"TOWNNAME":"仁德區","LI":"仁義里","LIN":"26鄰","STREET":"中山路","SECT":" ","MAREA":" ","LANE":" ","ALLEY":" ","HOUSE_NO":"５９０號","E_COORD97":173294.35000000001,"N_COORD97":2541345.75,"ADDRESS":"中山路５９０號","OBJECTID":291521},"geometry":{"x":173294.35000000149,"y":2541345.7500000019}},{"attributes":{"ID":291530,"DIS_CODE":0,"TOWNNAME":"安南區","LI":"安順里","LIN":"9鄰","STREET":"安和路","SECT":"四段","MAREA":" ","LANE":"１３１巷","ALLEY":" ","HOUSE_NO":"３３號","E_COORD97":169841.23999999999,"N_COORD97":2550412.3999999999,"ADDRESS":"安和路四段１３１巷３３號","OBJECTID":291522},"geometry":{"x":169841.24000000115,"y":2550412.4000000004}},{"attributes":{"ID":291531,"DIS_CODE":0,"TOWNNAME":"安南區","LI":"安順里","LIN":"9鄰","STREET":"安和路","SECT":"四段","MAREA":" ","LANE":"１３１巷","ALLEY":" ","HOUSE_NO":"３５號","E_COORD97":169836.48999999999,"N_COORD97":2550412.6000000001,"ADDRESS":"安和路四段１３１巷３５號","OBJECTID":291523},"geometry":{"x":169836.49000000115,"y":2550412.5999999996}},{"attributes":{"ID":291532,"DIS_CODE":0,"TOWNNAME":"仁德區","LI":"中洲里","LIN":"4鄰","STREET":" ","SECT":" ","MAREA":"中洲","LANE":" ","ALLEY":" ","HOUSE_NO":"２９之２１號","E_COORD97":173202.67000000001,"N_COORD97":2534680.04,"ADDRESS":"中洲２９之２１號","OBJECTID":291524},"geometry":{"x":173202.67000000179,"y":2534680.040000001}},{"attributes":{"ID":291533,"DIS_CODE":0,"TOWNNAME":"仁德區","LI":"仁愛里","LIN":"20鄰","STREET":" ","SECT":" ","MAREA":"仁愛","LANE":" ","ALLEY":" ","HOUSE_NO":"４１７之１號","E_COORD97":170102.994335,"N_COORD97":2540176.5674299998,"ADDRESS":"仁愛４１７之１號","OBJECTID":291525},"geometry":{"x":170102.99433500133,"y":2540176.5674290024}},{"attributes":{"ID":291534,"DIS_CODE":0,"TOWNNAME":"安南區","LI":"安順里","LIN":"9鄰","STREET":"安和路","SECT":"四段","MAREA":" ","LANE":"１３１巷","ALLEY":" ","HOUSE_NO":"３７號","E_COORD97":169832.04999999999,"N_COORD97":2550413.3900000001,"ADDRESS":"安和路四段１３１巷３７號","OBJECTID":291526},"geometry":{"x":169832.05000000075,"y":2550413.3900000025}},{"attributes":{"ID":291535,"DIS_CODE":0,"TOWNNAME":"仁德區","LI":"仁愛里","LIN":"20鄰","STREET":" ","SECT":" ","MAREA":"仁愛","LANE":" ","ALLEY":" ","HOUSE_NO":"４２１號","E_COORD97":170158.82000000001,"N_COORD97":2540161.3900000001,"ADDRESS":"仁愛４２１號","OBJECTID":291527},"geometry":{"x":170158.8200000003,"y":2540161.3900000025}},{"attributes":{"ID":291536,"DIS_CODE":0,"TOWNNAME":"安南區","LI":"州南里","LIN":"9鄰","STREET":"安和路","SECT":"五段","MAREA":" ","LANE":"８１巷","ALLEY":" ","HOUSE_NO":"７３號","E_COORD97":169762.41,"N_COORD97":2551614.4700000002,"ADDRESS":"安和路五段８１巷７３號","OBJECTID":291528},"geometry":{"x":169762.41000000108,"y":2551614.4700000025}},{"attributes":{"ID":291537,"DIS_CODE":0,"TOWNNAME":"安南區","LI":"州南里","LIN":"9鄰","STREET":"安和路","SECT":"五段","MAREA":" ","LANE":"８１巷","ALLEY":" ","HOUSE_NO":"８７號","E_COORD97":169730.030581,"N_COORD97":2551598.7891099998,"ADDRESS":"安和路五段８１巷８７號","OBJECTID":291529},"geometry":{"x":169730.03058100212,"y":2551598.7891140003}},{"attributes":{"ID":291538,"DIS_CODE":0,"TOWNNAME":"仁德區","LI":"仁義里","LIN":"26鄰","STREET":"中山路","SECT":" ","MAREA":" ","LANE":" ","ALLEY":" ","HOUSE_NO":"５４４號","E_COORD97":173383.79999999999,"N_COORD97":2541336.25,"ADDRESS":"中山路５４４號","OBJECTID":291530},"geometry":{"x":173383.80000000075,"y":2541336.25}},{"attributes":{"ID":291539,"DIS_CODE":0,"TOWNNAME":"仁德區","LI":"中洲里","LIN":"5鄰","STREET":" ","SECT":" ","MAREA":"中洲","LANE":" ","ALLEY":" ","HOUSE_NO":"２６１號之１","E_COORD97":173217.72,"N_COORD97":2534102.2999999998,"ADDRESS":"中洲２６１號之１","OBJECTID":291531},"geometry":{"x":173217.72000000067,"y":2534102.3000000007}},{"attributes":{"ID":291540,"DIS_CODE":0,"TOWNNAME":"仁德區","LI":"仁愛里","LIN":"20鄰","STREET":" ","SECT":" ","MAREA":"仁愛","LANE":" ","ALLEY":" ","HOUSE_NO":"３９６之１號","E_COORD97":170158.02877400001,"N_COORD97":2540188.7911700001,"ADDRESS":"仁愛３９６之１號","OBJECTID":291532},"geometry":{"x":170158.0287740007,"y":2540188.7911719996}},{"attributes":{"ID":291541,"DIS_CODE":0,"TOWNNAME":"仁德區","LI":"仁愛里","LIN":"20鄰","STREET":" ","SECT":" ","MAREA":"仁愛","LANE":" ","ALLEY":" ","HOUSE_NO":"４０７號","E_COORD97":170090.28185699999,"N_COORD97":2540156.8799999999,"ADDRESS":"仁愛４０７號","OBJECTID":291533},"geometry":{"x":170090.28185700066,"y":2540156.8800000008}},{"attributes":{"ID":291542,"DIS_CODE":0,"TOWNNAME":"仁德區","LI":"仁愛里","LIN":"20鄰","STREET":" ","SECT":" ","MAREA":"仁愛","LANE":" ","ALLEY":" ","HOUSE_NO":"４１３號","E_COORD97":170116.766187,"N_COORD97":2540156.8799999999,"ADDRESS":"仁愛４１３號","OBJECTID":291534},"geometry":{"x":170116.76618700009,"y":2540156.8800000008}},{"attributes":{"ID":291543,"DIS_CODE":0,"TOWNNAME":"仁德區","LI":"仁義里","LIN":"4鄰","STREET":"仁義二街","SECT":" ","MAREA":" ","LANE":" ","ALLEY":" ","HOUSE_NO":"４０號","E_COORD97":173815.14000000001,"N_COORD97":2541167.27,"ADDRESS":"仁義二街４０號","OBJECTID":291535},"geometry":{"x":173815.1400000006,"y":2541167.2700000033}},{"attributes":{"ID":291544,"DIS_CODE":0,"TOWNNAME":"仁德區","LI":"仁愛里","LIN":"26鄰","STREET":"大同路","SECT":"三段","MAREA":" ","LANE":"３５８巷","ALLEY":" ","HOUSE_NO":"３３號","E_COORD97":169734.10500000001,"N_COORD97":2539380.7520300001,"ADDRESS":"大同路三段３５８巷３３號","OBJECTID":291536},"geometry":{"x":169734.10500000138,"y":2539380.7520300038}},{"attributes":{"ID":291545,"DIS_CODE":0,"TOWNNAME":"仁德區","LI":"仁愛里","LIN":"26鄰","STREET":"大同路","SECT":"三段","MAREA":" ","LANE":" ","ALLEY":" ","HOUSE_NO":"５２號","E_COORD97":169699.98915000001,"N_COORD97":2540015.9901899998,"ADDRESS":"大同路三段５２號","OBJECTID":291537},"geometry":{"x":169699.9891499998,"y":2540015.9901940003}},{"attributes":{"ID":291546,"DIS_CODE":0,"TOWNNAME":"仁德區","LI":"仁愛里","LIN":"18鄰","STREET":" ","SECT":" ","MAREA":"仁愛","LANE":" ","ALLEY":" ","HOUSE_NO":"３８０號","E_COORD97":170164.43738399999,"N_COORD97":2540207.3462200002,"ADDRESS":"仁愛３８０號","OBJECTID":291538},"geometry":{"x":170164.43738400098,"y":2540207.346218003}},{"attributes":{"ID":291547,"DIS_CODE":0,"TOWNNAME":"安南區","LI":"佃東里","LIN":"9鄰","STREET":"公學路","SECT":"四段","MAREA":" ","LANE":"２１０巷","ALLEY":" ","HOUSE_NO":"８號","E_COORD97":165493.16,"N_COORD97":2551927.4700000002,"ADDRESS":"公學路四段２１０巷８號","OBJECTID":291539},"geometry":{"x":165493.15999999922,"y":2551927.4700000007}},{"attributes":{"ID":291548,"DIS_CODE":0,"TOWNNAME":"仁德區","LI":"中洲里","LIN":"4鄰","STREET":" ","SECT":" ","MAREA":"中洲","LANE":" ","ALLEY":" ","HOUSE_NO":"４８之６號","E_COORD97":173193.75,"N_COORD97":2534254.04,"ADDRESS":"中洲４８之６號","OBJECTID":291540},"geometry":{"x":173193.75000000186,"y":2534254.0399999991}},{"attributes":{"ID":291549,"DIS_CODE":0,"TOWNNAME":"仁德區","LI":"中洲里","LIN":"4鄰","STREET":" ","SECT":" ","MAREA":"中洲","LANE":" ","ALLEY":" ","HOUSE_NO":"４１號之２","E_COORD97":173251.03,"N_COORD97":2534352.29,"ADDRESS":"中洲４１號之２","OBJECTID":291541},"geometry":{"x":173251.03000000026,"y":2534352.290000001}},{"attributes":{"ID":291550,"DIS_CODE":0,"TOWNNAME":"安南區","LI":"幸福里","LIN":"9鄰","STREET":"國安街","SECT":" ","MAREA":" ","LANE":"１５５巷","ALLEY":" ","HOUSE_NO":"６１號","E_COORD97":166785.92999999999,"N_COORD97":2546788.7599999998,"ADDRESS":"國安街１５５巷６１號","OBJECTID":291542},"geometry":{"x":166785.9299999997,"y":2546788.7600000035}},{"attributes":{"ID":291551,"DIS_CODE":0,"TOWNNAME":"安南區","LI":"幸福里","LIN":"9鄰","STREET":"國安街","SECT":" ","MAREA":" ","LANE":"１５５巷","ALLEY":" ","HOUSE_NO":"６９號","E_COORD97":166788.85999999999,"N_COORD97":2546769.4700000002,"ADDRESS":"國安街１５５巷６９號","OBJECTID":291543},"geometry":{"x":166788.8599999994,"y":2546769.4700000025}},{"attributes":{"ID":291552,"DIS_CODE":0,"TOWNNAME":"安南區","LI":"長安里","LIN":"9鄰","STREET":"長溪路","SECT":"三段","MAREA":" ","LANE":"４３６巷","ALLEY":" ","HOUSE_NO":"３號","E_COORD97":167637,"N_COORD97":2552125.3799999999,"ADDRESS":"長溪路三段４３６巷３號","OBJECTID":291544},"geometry":{"x":167637.00000000186,"y":2552125.379999999}},{"attributes":{"ID":291553,"DIS_CODE":0,"TOWNNAME":"安南區","LI":"長安里","LIN":"9鄰","STREET":"長溪路","SECT":"三段","MAREA":" ","LANE":"４３６巷","ALLEY":" ","HOUSE_NO":"１９號","E_COORD97":167669.85000000001,"N_COORD97":2552180.3100000001,"ADDRESS":"長溪路三段４３６巷１９號","OBJECTID":291545},"geometry":{"x":167669.85000000149,"y":2552180.3100000024}},{"attributes":{"ID":291554,"DIS_CODE":0,"TOWNNAME":"安南區","LI":"青草里","LIN":"9鄰","STREET":"青砂街","SECT":"二段","MAREA":" ","LANE":"３５１巷","ALLEY":" ","HOUSE_NO":"１１號之１","E_COORD97":159091.01000000001,"N_COORD97":2553038.3100000001,"ADDRESS":"青砂街二段３５１巷１１號之１","OBJECTID":291546},"geometry":{"x":159091.00999999978,"y":2553038.3100000024}},{"attributes":{"ID":291555,"DIS_CODE":0,"TOWNNAME":"安南區","LI":"青草里","LIN":"9鄰","STREET":"青砂街","SECT":"二段","MAREA":" ","LANE":"３５１巷","ALLEY":" ","HOUSE_NO":"１１號之２","E_COORD97":159086.04000000001,"N_COORD97":2553037.27,"ADDRESS":"青砂街二段３５１巷１１號之２","OBJECTID":291547},"geometry":{"x":159086.03999999911,"y":2553037.2700000014}},{"attributes":{"ID":291556,"DIS_CODE":0,"TOWNNAME":"仁德區","LI":"仁義里","LIN":"50鄰","STREET":"中清路","SECT":" ","MAREA":" ","LANE":"２３巷","ALLEY":" ","HOUSE_NO":"６號","E_COORD97":173662.35000000001,"N_COORD97":2541055.2999999998,"ADDRESS":"中清路２３巷６號","OBJECTID":291548},"geometry":{"x":173662.35000000149,"y":2541055.3000000007}},{"attributes":{"ID":291557,"DIS_CODE":0,"TOWNNAME":"仁德區","LI":"仁義里","LIN":"18鄰","STREET":"正義路","SECT":" ","MAREA":" ","LANE":"１９１巷","ALLEY":" ","HOUSE_NO":"１１號","E_COORD97":173889.5,"N_COORD97":2541428.5099999998,"ADDRESS":"正義路１９１巷１１號","OBJECTID":291549},"geometry":{"x":173889.50000000093,"y":2541428.5100000016}},{"attributes":{"ID":291558,"DIS_CODE":0,"TOWNNAME":"仁德區","LI":"仁義里","LIN":"5鄰","STREET":"中山路","SECT":" ","MAREA":" ","LANE":" ","ALLEY":" ","HOUSE_NO":"３７７號","E_COORD97":173878.76000000001,"N_COORD97":2541244.25,"ADDRESS":"中山路３７７號","OBJECTID":291550},"geometry":{"x":173878.76000000071,"y":2541244.25}},{"attributes":{"ID":291559,"DIS_CODE":0,"TOWNNAME":"仁德區","LI":"仁義里","LIN":"25鄰","STREET":"中清一街","SECT":" ","MAREA":" ","LANE":" ","ALLEY":" ","HOUSE_NO":"９號","E_COORD97":173611.98999999999,"N_COORD97":2541326.04,"ADDRESS":"中清一街９號","OBJECTID":291551},"geometry":{"x":173611.99000000022,"y":2541326.0399999991}},{"attributes":{"ID":291560,"DIS_CODE":0,"TOWNNAME":"仁德區","LI":"仁愛里","LIN":"18鄰","STREET":" ","SECT":" ","MAREA":"仁愛","LANE":" ","ALLEY":" ","HOUSE_NO":"３７０號","E_COORD97":170198.919983,"N_COORD97":2540209.99205,"ADDRESS":"仁愛３７０號","OBJECTID":291552},"geometry":{"x":170198.91998299956,"y":2540209.9920499977}},{"attributes":{"ID":291561,"DIS_CODE":0,"TOWNNAME":"仁德區","LI":"仁愛里","LIN":"18鄰","STREET":" ","SECT":" ","MAREA":"仁愛","LANE":" ","ALLEY":" ","HOUSE_NO":"３７９號","E_COORD97":170167.82737899999,"N_COORD97":2540207.3991399999,"ADDRESS":"仁愛３７９號","OBJECTID":291553},"geometry":{"x":170167.82737900037,"y":2540207.399135001}},{"attributes":{"ID":291562,"DIS_CODE":0,"TOWNNAME":"仁德區","LI":"仁愛里","LIN":"26鄰","STREET":"大同路","SECT":"三段","MAREA":" ","LANE":"３５８巷","ALLEY":" ","HOUSE_NO":"２６號","E_COORD97":169712.85000000001,"N_COORD97":2539492.1499999999,"ADDRESS":"大同路三段３５８巷２６號","OBJECTID":291554},"geometry":{"x":169712.85000000056,"y":2539492.1500000022}},{"attributes":{"ID":291563,"DIS_CODE":0,"TOWNNAME":"仁德區","LI":"中洲里","LIN":"4鄰","STREET":" ","SECT":" ","MAREA":"中洲","LANE":" ","ALLEY":" ","HOUSE_NO":"４８號之１","E_COORD97":173189.73999999999,"N_COORD97":2534272.04,"ADDRESS":"中洲４８號之１","OBJECTID":291555},"geometry":{"x":173189.74000000115,"y":2534272.0399999972}},{"attributes":{"ID":291564,"DIS_CODE":0,"TOWNNAME":"仁德區","LI":"中洲里","LIN":"4鄰","STREET":" ","SECT":" ","MAREA":"中洲","LANE":" ","ALLEY":" ","HOUSE_NO":"３５號之１","E_COORD97":173352.85000000001,"N_COORD97":2534412.7999999998,"ADDRESS":"中洲３５號之１","OBJECTID":291556},"geometry":{"x":173352.85000000056,"y":2534412.8000000026}},{"attributes":{"ID":291565,"DIS_CODE":0,"TOWNNAME":"仁德區","LI":"仁愛里","LIN":"25鄰","STREET":"大同路","SECT":"三段","MAREA":" ","LANE":" ","ALLEY":" ","HOUSE_NO":"７１號","E_COORD97":169743.01999999999,"N_COORD97":2539974.2590000001,"ADDRESS":"大同路三段７１號","OBJECTID":291557},"geometry":{"x":169743.01999999955,"y":2539974.2589999996}},{"attributes":{"ID":291566,"DIS_CODE":0,"TOWNNAME":"仁德區","LI":"中洲里","LIN":"5鄰","STREET":" ","SECT":" ","MAREA":"中洲","LANE":" ","ALLEY":" ","HOUSE_NO":"２５３之６號","E_COORD97":173238.12,"N_COORD97":2534079.0499999998,"ADDRESS":"中洲２５３之６號","OBJECTID":291558},"geometry":{"x":173238.12000000011,"y":2534079.0500000007}},{"attributes":{"ID":291567,"DIS_CODE":0,"TOWNNAME":"仁德區","LI":"仁愛里","LIN":"20鄰","STREET":" ","SECT":" ","MAREA":"仁愛","LANE":" ","ALLEY":" ","HOUSE_NO":"４１８號","E_COORD97":170136.04678,"N_COORD97":2540174.3978499998,"ADDRESS":"仁愛４１８號","OBJECTID":291559},"geometry":{"x":170136.04678000137,"y":2540174.3978470042}},{"attributes":{"ID":291568,"DIS_CODE":0,"TOWNNAME":"仁德區","LI":"中洲里","LIN":"4鄰","STREET":" ","SECT":" ","MAREA":"中洲","LANE":" ","ALLEY":" ","HOUSE_NO":"３９號之１","E_COORD97":173228.57999999999,"N_COORD97":2534358.54,"ADDRESS":"中洲３９號之１","OBJECTID":291560},"geometry":{"x":173228.58000000007,"y":2534358.540000001}},{"attributes":{"ID":291569,"DIS_CODE":0,"TOWNNAME":"仁德區","LI":"仁愛里","LIN":"20鄰","STREET":" ","SECT":" ","MAREA":"仁愛","LANE":" ","ALLEY":" ","HOUSE_NO":"４０１號","E_COORD97":170122.01008499999,"N_COORD97":2540192.2836699998,"ADDRESS":"仁愛４０１號","OBJECTID":291561},"geometry":{"x":170122.01008500066,"y":2540192.2836700026}},{"attributes":{"ID":291570,"DIS_CODE":0,"TOWNNAME":"安南區","LI":"南興里","LIN":"9鄰","STREET":"安興街","SECT":" ","MAREA":" ","LANE":"６４０巷","ALLEY":" ","HOUSE_NO":"２９號","E_COORD97":163564.10999999999,"N_COORD97":2552504.8100000001,"ADDRESS":"安興街６４０巷２９號","OBJECTID":291562},"geometry":{"x":163564.11000000034,"y":2552504.8100000005}},{"attributes":{"ID":291571,"DIS_CODE":0,"TOWNNAME":"中西區","LI":"文賢里","LIN":"9鄰","STREET":"和善街","SECT":" ","MAREA":" ","LANE":"９１巷","ALLEY":" ","HOUSE_NO":"４４號","E_COORD97":166861.10000000001,"N_COORD97":2544694.2599999998,"ADDRESS":"和善街９１巷４４號","OBJECTID":291563},"geometry":{"x":166861.10000000149,"y":2544694.2600000016}},{"attributes":{"ID":291572,"DIS_CODE":0,"TOWNNAME":"永康區","LI":"中華里","LIN":"9鄰","STREET":"小東路","SECT":" ","MAREA":" ","LANE":"６４７巷","ALLEY":" ","HOUSE_NO":"６９號","E_COORD97":171926.42999999999,"N_COORD97":2544507.1699999999,"ADDRESS":"小東路６４７巷６９號","OBJECTID":291564},"geometry":{"x":171926.43000000063,"y":2544507.1699999999}},{"attributes":{"ID":291573,"DIS_CODE":0,"TOWNNAME":"永康區","LI":"中華里","LIN":"9鄰","STREET":"小東路","SECT":" ","MAREA":" ","LANE":"６４７巷","ALLEY":" ","HOUSE_NO":"７９號","E_COORD97":171917.10999999999,"N_COORD97":2544529.2599999998,"ADDRESS":"小東路６４７巷７９號","OBJECTID":291565},"geometry":{"x":171917.11000000127,"y":2544529.2599999998}},{"attributes":{"ID":291574,"DIS_CODE":0,"TOWNNAME":"永康區","LI":"中華里","LIN":"9鄰","STREET":"小東路","SECT":" ","MAREA":" ","LANE":"６４７巷","ALLEY":" ","HOUSE_NO":"８３號","E_COORD97":171921.01000000001,"N_COORD97":2544539.4399999999,"ADDRESS":"小東路６４７巷８３號","OBJECTID":291566},"geometry":{"x":171921.01000000071,"y":2544539.4400000032}},{"attributes":{"ID":291575,"DIS_CODE":0,"TOWNNAME":"永康區","LI":"中華里","LIN":"9鄰","STREET":"小東路","SECT":" ","MAREA":" ","LANE":"６４７巷","ALLEY":" ","HOUSE_NO":"６７號","E_COORD97":171921.66,"N_COORD97":2544507.1699999999,"ADDRESS":"小東路６４７巷６７號","OBJECTID":291567},"geometry":{"x":171921.66000000108,"y":2544507.1699999999}},{"attributes":{"ID":291576,"DIS_CODE":0,"TOWNNAME":"永康區","LI":"中華里","LIN":"9鄰","STREET":"小東路","SECT":" ","MAREA":" ","LANE":"６４７巷","ALLEY":" ","HOUSE_NO":"７３號","E_COORD97":171931.39999999999,"N_COORD97":2544529.0499999998,"ADDRESS":"小東路６４７巷７３號","OBJECTID":291568},"geometry":{"x":171931.40000000037,"y":2544529.0500000007}},{"attributes":{"ID":291577,"DIS_CODE":0,"TOWNNAME":"中西區","LI":"西湖里","LIN":"9鄰","STREET":"湖美一街","SECT":" ","MAREA":" ","LANE":"１４巷","ALLEY":" ","HOUSE_NO":"８號","E_COORD97":166094.04999999999,"N_COORD97":2544462.2799999998,"ADDRESS":"湖美一街１４巷８號","OBJECTID":291569},"geometry":{"x":166094.05000000075,"y":2544462.2800000031}},{"attributes":{"ID":291578,"DIS_CODE":0,"TOWNNAME":"仁德區","LI":"土庫里","LIN":"18鄰","STREET":"土庫一街","SECT":" ","MAREA":" ","LANE":"５６巷","ALLEY":" ","HOUSE_NO":"１０號","E_COORD97":174519.04000000001,"N_COORD97":2543080.7400000002,"ADDRESS":"土庫一街５６巷１０號","OBJECTID":291570},"geometry":{"x":174519.03999999911,"y":2543080.7400000021}},{"attributes":{"ID":291579,"DIS_CODE":0,"TOWNNAME":"仁德區","LI":"大甲里","LIN":"4鄰","STREET":"行大街","SECT":" ","MAREA":" ","LANE":"２７１巷","ALLEY":" ","HOUSE_NO":"２０號","E_COORD97":169749.64000000001,"N_COORD97":2535054,"ADDRESS":"行大街２７１巷２０號","OBJECTID":291571},"geometry":{"x":169749.64000000153,"y":2535054.0000000019}},{"attributes":{"ID":291580,"DIS_CODE":0,"TOWNNAME":"仁德區","LI":"仁義里","LIN":"34鄰","STREET":"正義二街","SECT":" ","MAREA":" ","LANE":" ","ALLEY":" ","HOUSE_NO":"１６４號一樓","E_COORD97":173836.39000000001,"N_COORD97":2541581.02,"ADDRESS":"正義二街１６４號一樓","OBJECTID":291572},"geometry":{"x":173836.38999999966,"y":2541581.0199999996}},{"attributes":{"ID":291581,"DIS_CODE":0,"TOWNNAME":"仁德區","LI":"仁義里","LIN":"34鄰","STREET":"正義二街","SECT":" ","MAREA":" ","LANE":" ","ALLEY":" ","HOUSE_NO":"１０５號四樓","E_COORD97":173659.75,"N_COORD97":2541607.2599999998,"ADDRESS":"正義二街１０５號四樓","OBJECTID":291573},"geometry":{"x":173659.75,"y":2541607.2599999998}},{"attributes":{"ID":291582,"DIS_CODE":0,"TOWNNAME":"仁德區","LI":"仁和里","LIN":"26鄰","STREET":" ","SECT":" ","MAREA":"仁和","LANE":" ","ALLEY":" ","HOUSE_NO":"５２０號","E_COORD97":170452.80799900001,"N_COORD97":2539781.25,"ADDRESS":"仁和５２０號","OBJECTID":291574},"geometry":{"x":170452.80799899995,"y":2539781.2500000037}},{"attributes":{"ID":291583,"DIS_CODE":0,"TOWNNAME":"仁德區","LI":"中洲里","LIN":"4鄰","STREET":" ","SECT":" ","MAREA":"中洲","LANE":" ","ALLEY":" ","HOUSE_NO":"４８號","E_COORD97":173179.20999999999,"N_COORD97":2534294.75,"ADDRESS":"中洲４８號","OBJECTID":291575},"geometry":{"x":173179.21000000089,"y":2534294.75}},{"attributes":{"ID":291584,"DIS_CODE":0,"TOWNNAME":"仁德區","LI":"中洲里","LIN":"4鄰","STREET":" ","SECT":" ","MAREA":"中洲","LANE":" ","ALLEY":" ","HOUSE_NO":"４５之５號","E_COORD97":173177.42000000001,"N_COORD97":2534303.7999999998,"ADDRESS":"中洲４５之５號","OBJECTID":291576},"geometry":{"x":173177.42000000086,"y":2534303.8000000026}},{"attributes":{"ID":291585,"DIS_CODE":0,"TOWNNAME":"仁德區","LI":"中洲里","LIN":"4鄰","STREET":" ","SECT":" ","MAREA":"中洲","LANE":" ","ALLEY":" ","HOUSE_NO":"４３號","E_COORD97":173162.79000000001,"N_COORD97":2534338.4900000002,"ADDRESS":"中洲４３號","OBJECTID":291577},"geometry":{"x":173162.79000000004,"y":2534338.4900000039}},{"attributes":{"ID":291586,"DIS_CODE":0,"TOWNNAME":"仁德區","LI":"中洲里","LIN":"5鄰","STREET":" ","SECT":" ","MAREA":"中洲","LANE":" ","ALLEY":" ","HOUSE_NO":"２５８號","E_COORD97":173229.23999999999,"N_COORD97":2534089.75,"ADDRESS":"中洲２５８號","OBJECTID":291578},"geometry":{"x":173229.24000000022,"y":2534089.7500000019}},{"attributes":{"ID":291587,"DIS_CODE":0,"TOWNNAME":"仁德區","LI":"仁愛里","LIN":"26鄰","STREET":"大同路","SECT":"三段","MAREA":" ","LANE":"３５８巷","ALLEY":" ","HOUSE_NO":"７號","E_COORD97":169733.52499999999,"N_COORD97":2539442.27,"ADDRESS":"大同路三段３５８巷７號","OBJECTID":291579},"geometry":{"x":169733.52500000037,"y":2539442.2700000014}},{"attributes":{"ID":291588,"DIS_CODE":0,"TOWNNAME":"仁德區","LI":"仁愛里","LIN":"26鄰","STREET":"大同路","SECT":"三段","MAREA":" ","LANE":" ","ALLEY":" ","HOUSE_NO":"６８號","E_COORD97":169703.80276399999,"N_COORD97":2539992.4952099998,"ADDRESS":"大同路三段６８號","OBJECTID":291580},"geometry":{"x":169703.80276400037,"y":2539992.4952070042}},{"attributes":{"ID":291589,"DIS_CODE":0,"TOWNNAME":"仁德區","LI":"仁愛里","LIN":"26鄰","STREET":"大同路","SECT":"三段","MAREA":" ","LANE":" ","ALLEY":" ","HOUSE_NO":"７０號","E_COORD97":169704.86210100001,"N_COORD97":2539983.9227100001,"ADDRESS":"大同路三段７０號","OBJECTID":291581},"geometry":{"x":169704.86210100166,"y":2539983.9227120019}},{"attributes":{"ID":291590,"DIS_CODE":0,"TOWNNAME":"中西區","LI":"西湖里","LIN":"9鄰","STREET":"湖美二街","SECT":" ","MAREA":" ","LANE":"１４巷","ALLEY":" ","HOUSE_NO":"４號","E_COORD97":166172.07000000001,"N_COORD97":2544461.7599999998,"ADDRESS":"湖美二街１４巷４號","OBJECTID":291582},"geometry":{"x":166172.07000000216,"y":2544461.7599999998}},{"attributes":{"ID":291591,"DIS_CODE":0,"TOWNNAME":"中西區","LI":"西湖里","LIN":"9鄰","STREET":"湖美二街","SECT":" ","MAREA":" ","LANE":"１４巷","ALLEY":" ","HOUSE_NO":"１號","E_COORD97":166147.25,"N_COORD97":2544483.1499999999,"ADDRESS":"湖美二街１４巷１號","OBJECTID":291583},"geometry":{"x":166147.25000000093,"y":2544483.1500000004}},{"attributes":{"ID":291592,"DIS_CODE":0,"TOWNNAME":"中西區","LI":"西湖里","LIN":"9鄰","STREET":"湖美二街","SECT":" ","MAREA":" ","LANE":"１４巷","ALLEY":" ","HOUSE_NO":"２號","E_COORD97":166165.01000000001,"N_COORD97":2544461.27,"ADDRESS":"湖美二街１４巷２號","OBJECTID":291584},"geometry":{"x":166165.00999999978,"y":2544461.2699999996}},{"attributes":{"ID":291593,"DIS_CODE":0,"TOWNNAME":"中西區","LI":"西湖里","LIN":"9鄰","STREET":"湖美二街","SECT":" ","MAREA":" ","LANE":"１４巷","ALLEY":" ","HOUSE_NO":"３號","E_COORD97":166153.57000000001,"N_COORD97":2544483.6299999999,"ADDRESS":"湖美二街１４巷３號","OBJECTID":291585},"geometry":{"x":166153.57000000216,"y":2544483.6300000008}},{"attributes":{"ID":291594,"DIS_CODE":0,"TOWNNAME":"仁德區","LI":"仁義里","LIN":"9鄰","STREET":"仁義一街","SECT":" ","MAREA":" ","LANE":"１５６巷","ALLEY":" ","HOUSE_NO":"４號","E_COORD97":173658.56,"N_COORD97":2541154.52,"ADDRESS":"仁義一街１５６巷４號","OBJECTID":291586},"geometry":{"x":173658.55999999959,"y":2541154.5199999996}},{"attributes":{"ID":291595,"DIS_CODE":0,"TOWNNAME":"仁德區","LI":"仁德里","LIN":"9鄰","STREET":"中正路","SECT":"二段","MAREA":" ","LANE":"１１９１巷","ALLEY":" ","HOUSE_NO":"７號","E_COORD97":173262.89999999999,"N_COORD97":2541136.2799999998,"ADDRESS":"中正路二段１１９１巷７號","OBJECTID":291587},"geometry":{"x":173262.9000000013,"y":2541136.2799999975}},{"attributes":{"ID":291596,"DIS_CODE":0,"TOWNNAME":"仁德區","LI":"土庫里","LIN":"9鄰","STREET":"土庫路","SECT":" ","MAREA":" ","LANE":"５３巷","ALLEY":" ","HOUSE_NO":"１６號","E_COORD97":174280.32999999999,"N_COORD97":2543332,"ADDRESS":"土庫路５３巷１６號","OBJECTID":291588},"geometry":{"x":174280.33000000101,"y":2543332}},{"attributes":{"ID":291597,"DIS_CODE":0,"TOWNNAME":"仁德區","LI":"土庫里","LIN":"9鄰","STREET":"土庫路","SECT":" ","MAREA":" ","LANE":"５３巷","ALLEY":" ","HOUSE_NO":"１７號","E_COORD97":174285.42999999999,"N_COORD97":2543346.25,"ADDRESS":"土庫路５３巷１７號","OBJECTID":291589},"geometry":{"x":174285.4299999997,"y":2543346.25}},{"attributes":{"ID":291598,"DIS_CODE":0,"TOWNNAME":"仁德區","LI":"仁德里","LIN":"18鄰","STREET":"文華路","SECT":"三段","MAREA":" ","LANE":"１８９巷","ALLEY":" ","HOUSE_NO":"８１號","E_COORD97":172090.06,"N_COORD97":2540456.5,"ADDRESS":"文華路三段１８９巷８１號","OBJECTID":291590},"geometry":{"x":172090.06000000052,"y":2540456.5}},{"attributes":{"ID":291599,"DIS_CODE":0,"TOWNNAME":"仁德區","LI":"仁義里","LIN":"4鄰","STREET":"仁義三街","SECT":" ","MAREA":" ","LANE":"１７０巷","ALLEY":" ","HOUSE_NO":"５號","E_COORD97":173791.23000000001,"N_COORD97":2541092.5099999998,"ADDRESS":"仁義三街１７０巷５號","OBJECTID":291591},"geometry":{"x":173791.23000000138,"y":2541092.5100000016}},{"attributes":{"ID":291600,"DIS_CODE":0,"TOWNNAME":"仁德區","LI":"仁義里","LIN":"34鄰","STREET":"正義二街","SECT":" ","MAREA":" ","LANE":" ","ALLEY":" ","HOUSE_NO":"１０７號三樓","E_COORD97":173678.37,"N_COORD97":2541601.5099999998,"ADDRESS":"正義二街１０７號三樓","OBJECTID":291592},"geometry":{"x":173678.37000000104,"y":2541601.5100000016}},{"attributes":{"ID":291601,"DIS_CODE":0,"TOWNNAME":"仁德區","LI":"大甲里","LIN":"4鄰","STREET":"行大街","SECT":" ","MAREA":" ","LANE":"２７１巷","ALLEY":" ","HOUSE_NO":"１６號","E_COORD97":169757.20000000001,"N_COORD97":2535068.9900000002,"ADDRESS":"行大街２７１巷１６號","OBJECTID":291593},"geometry":{"x":169757.20000000112,"y":2535068.9900000002}},{"attributes":{"ID":291602,"DIS_CODE":0,"TOWNNAME":"仁德區","LI":"仁義里","LIN":"34鄰","STREET":"正義二街","SECT":" ","MAREA":" ","LANE":" ","ALLEY":" ","HOUSE_NO":"１４７號五樓","E_COORD97":173780.64000000001,"N_COORD97":2541601.0099999998,"ADDRESS":"正義二街１４７號五樓","OBJECTID":291594},"geometry":{"x":173780.64000000153,"y":2541601.0100000016}},{"attributes":{"ID":291603,"DIS_CODE":0,"TOWNNAME":"仁德區","LI":"仁義里","LIN":"34鄰","STREET":"正義二街","SECT":" ","MAREA":" ","LANE":" ","ALLEY":" ","HOUSE_NO":"１４５號八樓","E_COORD97":173779.95999999999,"N_COORD97":2541607.0099999998,"ADDRESS":"正義二街１４５號八樓","OBJECTID":291595},"geometry":{"x":173779.95999999996,"y":2541607.0100000016}},{"attributes":{"ID":291604,"DIS_CODE":0,"TOWNNAME":"仁德區","LI":"仁愛里","LIN":"26鄰","STREET":"機場路","SECT":" ","MAREA":" ","LANE":" ","ALLEY":" ","HOUSE_NO":"１３９８號","E_COORD97":169693.38,"N_COORD97":2539501.75,"ADDRESS":"機場路１３９８號","OBJECTID":291596},"geometry":{"x":169693.37999999989,"y":2539501.75}},{"attributes":{"ID":291605,"DIS_CODE":0,"TOWNNAME":"仁德區","LI":"中洲里","LIN":"4鄰","STREET":" ","SECT":" ","MAREA":"中洲","LANE":" ","ALLEY":" ","HOUSE_NO":"２９號之３","E_COORD97":173180.59,"N_COORD97":2534519.0499999998,"ADDRESS":"中洲２９號之３","OBJECTID":291597},"geometry":{"x":173180.58999999985,"y":2534519.0500000026}},{"attributes":{"ID":291606,"DIS_CODE":0,"TOWNNAME":"仁德區","LI":"仁愛里","LIN":"18鄰","STREET":" ","SECT":" ","MAREA":"仁愛","LANE":" ","ALLEY":" ","HOUSE_NO":"３７１號","E_COORD97":170193.78202300001,"N_COORD97":2540209.5158000002,"ADDRESS":"仁愛３７１號","OBJECTID":291598},"geometry":{"x":170193.78202299867,"y":2540209.515800003}},{"attributes":{"ID":291607,"DIS_CODE":0,"TOWNNAME":"仁德區","LI":"仁愛里","LIN":"25鄰","STREET":"大同路","SECT":"三段","MAREA":" ","LANE":" ","ALLEY":" ","HOUSE_NO":"６５號","E_COORD97":169742.07092599999,"N_COORD97":2539989.1614600001,"ADDRESS":"大同路三段６５號","OBJECTID":291599},"geometry":{"x":169742.0709260013,"y":2539989.1614590008}},{"attributes":{"ID":291608,"DIS_CODE":0,"TOWNNAME":"仁德區","LI":"中洲里","LIN":"4鄰","STREET":" ","SECT":" ","MAREA":"中洲","LANE":" ","ALLEY":" ","HOUSE_NO":"３９號","E_COORD97":173218.75,"N_COORD97":2534365.4900000002,"ADDRESS":"中洲３９號","OBJECTID":291600},"geometry":{"x":173218.75,"y":2534365.4900000039}}]}