{"displayFieldName":"TOWNNAME","fieldAliases":{"ID":"ID","DIS_CODE":"DIS_CODE","TOWNNAME":"TOWNNAME","LI":"LI","LIN":"LIN","STREET":"STREET","SECT":"SECT","MAREA":"MAREA","LANE":"LANE","ALLEY":"ALLEY","HOUSE_NO":"HOUSE_NO","E_COORD97":"E_COORD97","N_COORD97":"N_COORD97","ADDRESS":"ADDRESS","OBJECTID":"OBJECTID"},"geometryType":"esriGeometryPoint","spatialReference":{"wkid":102443,"latestWkid":3826},"fields":[{"name":"ID","type":"esriFieldTypeDouble","alias":"ID"},{"name":"DIS_CODE","type":"esriFieldTypeInteger","alias":"DIS_CODE"},{"name":"TOWNNAME","type":"esriFieldTypeString","alias":"TOWNNAME","length":8},{"name":"LI","type":"esriFieldTypeString","alias":"LI","length":8},{"name":"LIN","type":"esriFieldTypeString","alias":"LIN","length":12},{"name":"STREET","type":"esriFieldTypeString","alias":"STREET","length":20},{"name":"SECT","type":"esriFieldTypeString","alias":"SECT","length":8},{"name":"MAREA","type":"esriFieldTypeString","alias":"MAREA","length":12},{"name":"LANE","type":"esriFieldTypeString","alias":"LANE","length":10},{"name":"ALLEY","type":"esriFieldTypeString","alias":"ALLEY","length":10},{"name":"HOUSE_NO","type":"esriFieldTypeString","alias":"HOUSE_NO","length":20},{"name":"E_COORD97","type":"esriFieldTypeDouble","alias":"E_COORD97"},{"name":"N_COORD97","type":"esriFieldTypeDouble","alias":"N_COORD97"},{"name":"ADDRESS","type":"esriFieldTypeString","alias":"ADDRESS","length":50},{"name":"OBJECTID","type":"esriFieldTypeOID","alias":"OBJECTID"}],"features":[{"attributes":{"ID":368611,"DIS_CODE":0,"TOWNNAME":"仁德區","LI":"後壁里","LIN":"12鄰","STREET":"德南路","SECT":" ","MAREA":" ","LANE":"１９４巷","ALLEY":" ","HOUSE_NO":"６號四樓之１","E_COORD97":173684.28,"N_COORD97":2538479.75,"ADDRESS":"德南路１９４巷６號四樓之１","OBJECTID":368601},"geometry":{"x":173684.28000000119,"y":2538479.7500000019}},{"attributes":{"ID":368612,"DIS_CODE":0,"TOWNNAME":"仁德區","LI":"後壁里","LIN":"12鄰","STREET":"德南路","SECT":" ","MAREA":" ","LANE":"１９４巷","ALLEY":" ","HOUSE_NO":"１４號五樓之２","E_COORD97":173662.82999999999,"N_COORD97":2538492.7400000002,"ADDRESS":"德南路１９４巷１４號五樓之２","OBJECTID":368602},"geometry":{"x":173662.83000000194,"y":2538492.7400000002}},{"attributes":{"ID":368613,"DIS_CODE":0,"TOWNNAME":"仁德區","LI":"後壁里","LIN":"12鄰","STREET":"德南路","SECT":" ","MAREA":" ","LANE":"１９４巷","ALLEY":" ","HOUSE_NO":"１２號六樓之２","E_COORD97":173666.73999999999,"N_COORD97":2538479.9900000002,"ADDRESS":"德南路１９４巷１２號六樓之２","OBJECTID":368603},"geometry":{"x":173666.74000000022,"y":2538479.9900000002}},{"attributes":{"ID":368614,"DIS_CODE":0,"TOWNNAME":"仁德區","LI":"後壁里","LIN":"12鄰","STREET":"德南路","SECT":" ","MAREA":" ","LANE":"１９４巷","ALLEY":" ","HOUSE_NO":"６號四樓之２","E_COORD97":173684.41,"N_COORD97":2538479.75,"ADDRESS":"德南路１９４巷６號四樓之２","OBJECTID":368604},"geometry":{"x":173684.41000000201,"y":2538479.7500000019}},{"attributes":{"ID":368615,"DIS_CODE":0,"TOWNNAME":"仁德區","LI":"後壁里","LIN":"12鄰","STREET":"德南路","SECT":" ","MAREA":" ","LANE":"１９４巷","ALLEY":" ","HOUSE_NO":"１２號二樓之２","E_COORD97":173666.73999999999,"N_COORD97":2538479.9900000002,"ADDRESS":"德南路１９４巷１２號二樓之２","OBJECTID":368605},"geometry":{"x":173666.74000000022,"y":2538479.9900000002}},{"attributes":{"ID":368616,"DIS_CODE":0,"TOWNNAME":"仁德區","LI":"後壁里","LIN":"12鄰","STREET":"德南路","SECT":" ","MAREA":" ","LANE":"１９４巷","ALLEY":" ","HOUSE_NO":"１４號一樓之１","E_COORD97":173662.70000000001,"N_COORD97":2538492.7400000002,"ADDRESS":"德南路１９４巷１４號一樓之１","OBJECTID":368606},"geometry":{"x":173662.70000000112,"y":2538492.7400000002}},{"attributes":{"ID":368617,"DIS_CODE":0,"TOWNNAME":"仁德區","LI":"後壁里","LIN":"12鄰","STREET":"德南路","SECT":" ","MAREA":" ","LANE":"１８７巷","ALLEY":" ","HOUSE_NO":"３９號四樓","E_COORD97":173701.60000000001,"N_COORD97":2538587.5099999998,"ADDRESS":"德南路１８７巷３９號四樓","OBJECTID":368607},"geometry":{"x":173701.60000000056,"y":2538587.5099999998}},{"attributes":{"ID":368618,"DIS_CODE":0,"TOWNNAME":"仁德區","LI":"後壁里","LIN":"12鄰","STREET":"德南路","SECT":" ","MAREA":" ","LANE":"１９４巷","ALLEY":" ","HOUSE_NO":"１４號二樓之１","E_COORD97":173662.70000000001,"N_COORD97":2538492.7400000002,"ADDRESS":"德南路１９４巷１４號二樓之１","OBJECTID":368608},"geometry":{"x":173662.70000000112,"y":2538492.7400000002}},{"attributes":{"ID":368619,"DIS_CODE":0,"TOWNNAME":"仁德區","LI":"後壁里","LIN":"12鄰","STREET":"德南路","SECT":" ","MAREA":" ","LANE":"１９４巷","ALLEY":" ","HOUSE_NO":"８號五樓之１","E_COORD97":173684.28,"N_COORD97":2538479.75,"ADDRESS":"德南路１９４巷８號五樓之１","OBJECTID":368609},"geometry":{"x":173684.28000000119,"y":2538479.7500000019}},{"attributes":{"ID":368620,"DIS_CODE":0,"TOWNNAME":"仁德區","LI":"後壁里","LIN":"12鄰","STREET":"德南路","SECT":" ","MAREA":" ","LANE":"１８７巷","ALLEY":" ","HOUSE_NO":"３９號七樓","E_COORD97":173701.60000000001,"N_COORD97":2538587.5099999998,"ADDRESS":"德南路１８７巷３９號七樓","OBJECTID":368610},"geometry":{"x":173701.60000000056,"y":2538587.5099999998}},{"attributes":{"ID":368621,"DIS_CODE":0,"TOWNNAME":"仁德區","LI":"後壁里","LIN":"12鄰","STREET":"德南路","SECT":" ","MAREA":" ","LANE":"１８７巷","ALLEY":" ","HOUSE_NO":"３９號三樓","E_COORD97":173701.60000000001,"N_COORD97":2538587.5099999998,"ADDRESS":"德南路１８７巷３９號三樓","OBJECTID":368611},"geometry":{"x":173701.60000000056,"y":2538587.5099999998}},{"attributes":{"ID":368622,"DIS_CODE":0,"TOWNNAME":"仁德區","LI":"後壁里","LIN":"12鄰","STREET":"德南路","SECT":" ","MAREA":" ","LANE":"１８７巷","ALLEY":" ","HOUSE_NO":"３９號六樓","E_COORD97":173701.60000000001,"N_COORD97":2538587.5099999998,"ADDRESS":"德南路１８７巷３９號六樓","OBJECTID":368612},"geometry":{"x":173701.60000000056,"y":2538587.5099999998}},{"attributes":{"ID":368623,"DIS_CODE":0,"TOWNNAME":"仁德區","LI":"後壁里","LIN":"12鄰","STREET":"德南路","SECT":" ","MAREA":" ","LANE":"１８７巷","ALLEY":" ","HOUSE_NO":"３７號四樓","E_COORD97":173696.59,"N_COORD97":2538581.27,"ADDRESS":"德南路１８７巷３７號四樓","OBJECTID":368613},"geometry":{"x":173696.59000000171,"y":2538581.2700000014}},{"attributes":{"ID":368624,"DIS_CODE":0,"TOWNNAME":"仁德區","LI":"後壁里","LIN":"12鄰","STREET":"德南路","SECT":" ","MAREA":" ","LANE":"１９４巷","ALLEY":" ","HOUSE_NO":"８號六樓之１","E_COORD97":173684.28,"N_COORD97":2538479.75,"ADDRESS":"德南路１９４巷８號六樓之１","OBJECTID":368614},"geometry":{"x":173684.28000000119,"y":2538479.7500000019}},{"attributes":{"ID":368625,"DIS_CODE":0,"TOWNNAME":"仁德區","LI":"後壁里","LIN":"12鄰","STREET":"德南路","SECT":" ","MAREA":" ","LANE":"１９４巷","ALLEY":" ","HOUSE_NO":"８號三樓之２","E_COORD97":173684.41,"N_COORD97":2538479.75,"ADDRESS":"德南路１９４巷８號三樓之２","OBJECTID":368615},"geometry":{"x":173684.41000000201,"y":2538479.7500000019}},{"attributes":{"ID":368626,"DIS_CODE":0,"TOWNNAME":"仁德區","LI":"後壁里","LIN":"12鄰","STREET":"德南路","SECT":" ","MAREA":" ","LANE":"１９４巷","ALLEY":" ","HOUSE_NO":"１４號六樓之２","E_COORD97":173662.82999999999,"N_COORD97":2538492.7400000002,"ADDRESS":"德南路１９４巷１４號六樓之２","OBJECTID":368616},"geometry":{"x":173662.83000000194,"y":2538492.7400000002}},{"attributes":{"ID":368627,"DIS_CODE":0,"TOWNNAME":"仁德區","LI":"後壁里","LIN":"12鄰","STREET":"德南路","SECT":" ","MAREA":" ","LANE":"１８７巷","ALLEY":" ","HOUSE_NO":"３７號八樓","E_COORD97":173696.59,"N_COORD97":2538581.27,"ADDRESS":"德南路１８７巷３７號八樓","OBJECTID":368617},"geometry":{"x":173696.59000000171,"y":2538581.2700000014}},{"attributes":{"ID":368628,"DIS_CODE":0,"TOWNNAME":"仁德區","LI":"後壁里","LIN":"12鄰","STREET":"德南路","SECT":" ","MAREA":" ","LANE":"１８７巷","ALLEY":" ","HOUSE_NO":"３７號七樓","E_COORD97":173696.59,"N_COORD97":2538581.27,"ADDRESS":"德南路１８７巷３７號七樓","OBJECTID":368618},"geometry":{"x":173696.59000000171,"y":2538581.2700000014}},{"attributes":{"ID":368629,"DIS_CODE":0,"TOWNNAME":"仁德區","LI":"後壁里","LIN":"12鄰","STREET":"德南路","SECT":" ","MAREA":" ","LANE":"１８７巷","ALLEY":" ","HOUSE_NO":"３５號一樓","E_COORD97":173680.32000000001,"N_COORD97":2538589.5099999998,"ADDRESS":"德南路１８７巷３５號一樓","OBJECTID":368619},"geometry":{"x":173680.32000000123,"y":2538589.5100000016}},{"attributes":{"ID":368630,"DIS_CODE":0,"TOWNNAME":"仁德區","LI":"後壁里","LIN":"12鄰","STREET":"德南路","SECT":" ","MAREA":" ","LANE":"１８７巷","ALLEY":" ","HOUSE_NO":"３７號六樓","E_COORD97":173696.59,"N_COORD97":2538581.27,"ADDRESS":"德南路１８７巷３７號六樓","OBJECTID":368620},"geometry":{"x":173696.59000000171,"y":2538581.2700000014}},{"attributes":{"ID":368631,"DIS_CODE":0,"TOWNNAME":"仁德區","LI":"後壁里","LIN":"12鄰","STREET":"德南路","SECT":" ","MAREA":" ","LANE":"１９４巷","ALLEY":" ","HOUSE_NO":"６號五樓之１","E_COORD97":173684.28,"N_COORD97":2538479.75,"ADDRESS":"德南路１９４巷６號五樓之１","OBJECTID":368621},"geometry":{"x":173684.28000000119,"y":2538479.7500000019}},{"attributes":{"ID":368632,"DIS_CODE":0,"TOWNNAME":"仁德區","LI":"後壁里","LIN":"12鄰","STREET":"德南路","SECT":" ","MAREA":" ","LANE":"１９４巷","ALLEY":" ","HOUSE_NO":"６號七樓之２","E_COORD97":173684.41,"N_COORD97":2538479.75,"ADDRESS":"德南路１９４巷６號七樓之２","OBJECTID":368622},"geometry":{"x":173684.41000000201,"y":2538479.7500000019}},{"attributes":{"ID":368633,"DIS_CODE":0,"TOWNNAME":"仁德區","LI":"後壁里","LIN":"12鄰","STREET":"德南路","SECT":" ","MAREA":" ","LANE":"１９４巷","ALLEY":" ","HOUSE_NO":"８號四樓之１","E_COORD97":173684.28,"N_COORD97":2538479.75,"ADDRESS":"德南路１９４巷８號四樓之１","OBJECTID":368623},"geometry":{"x":173684.28000000119,"y":2538479.7500000019}},{"attributes":{"ID":368634,"DIS_CODE":0,"TOWNNAME":"仁德區","LI":"後壁里","LIN":"12鄰","STREET":"德南路","SECT":" ","MAREA":" ","LANE":"１９４巷","ALLEY":" ","HOUSE_NO":"８號六樓之２","E_COORD97":173684.41,"N_COORD97":2538479.75,"ADDRESS":"德南路１９４巷８號六樓之２","OBJECTID":368624},"geometry":{"x":173684.41000000201,"y":2538479.7500000019}},{"attributes":{"ID":368635,"DIS_CODE":0,"TOWNNAME":"北區","LI":"安民里","LIN":"12鄰","STREET":"海安路","SECT":"三段","MAREA":" ","LANE":"５３巷","ALLEY":" ","HOUSE_NO":"１２號","E_COORD97":167877.62,"N_COORD97":2544755.0899999999,"ADDRESS":"海安路三段５３巷１２號","OBJECTID":368625},"geometry":{"x":167877.62000000104,"y":2544755.0899999999}},{"attributes":{"ID":368636,"DIS_CODE":0,"TOWNNAME":"東區","LI":"大學里","LIN":"12鄰","STREET":"長榮路","SECT":"三段","MAREA":" ","LANE":"６６巷","ALLEY":" ","HOUSE_NO":"４１號三樓","E_COORD97":170355.54999999999,"N_COORD97":2543793.4100000001,"ADDRESS":"長榮路三段６６巷４１號三樓","OBJECTID":368626},"geometry":{"x":170355.55000000168,"y":2543793.4100000001}},{"attributes":{"ID":368637,"DIS_CODE":0,"TOWNNAME":"東區","LI":"大學里","LIN":"12鄰","STREET":"長榮路","SECT":"三段","MAREA":" ","LANE":"６６巷","ALLEY":" ","HOUSE_NO":"４１號五樓","E_COORD97":170355.54999999999,"N_COORD97":2543793.4100000001,"ADDRESS":"長榮路三段６６巷４１號五樓","OBJECTID":368627},"geometry":{"x":170355.55000000168,"y":2543793.4100000001}},{"attributes":{"ID":368638,"DIS_CODE":0,"TOWNNAME":"東區","LI":"大學里","LIN":"12鄰","STREET":"長榮路","SECT":"三段","MAREA":" ","LANE":"６６巷","ALLEY":" ","HOUSE_NO":"４１號四樓","E_COORD97":170355.54999999999,"N_COORD97":2543793.4100000001,"ADDRESS":"長榮路三段６６巷４１號四樓","OBJECTID":368628},"geometry":{"x":170355.55000000168,"y":2543793.4100000001}},{"attributes":{"ID":368639,"DIS_CODE":0,"TOWNNAME":"中西區","LI":"萬昌里","LIN":"12鄰","STREET":"北門路","SECT":"一段","MAREA":" ","LANE":"５１巷","ALLEY":" ","HOUSE_NO":"１３號二樓之１","E_COORD97":169093.14000000001,"N_COORD97":2543424.9300000002,"ADDRESS":"北門路一段５１巷１３號二樓之１","OBJECTID":368629},"geometry":{"x":169093.13999999966,"y":2543424.9300000016}},{"attributes":{"ID":368640,"DIS_CODE":0,"TOWNNAME":"中西區","LI":"萬昌里","LIN":"12鄰","STREET":"北門路","SECT":"一段","MAREA":" ","LANE":"５１巷","ALLEY":" ","HOUSE_NO":"１３號二樓之１０","E_COORD97":169093.14000000001,"N_COORD97":2543424.9300000002,"ADDRESS":"北門路一段５１巷１３號二樓之１０","OBJECTID":368630},"geometry":{"x":169093.13999999966,"y":2543424.9300000016}},{"attributes":{"ID":368641,"DIS_CODE":0,"TOWNNAME":"中西區","LI":"萬昌里","LIN":"12鄰","STREET":"北門路","SECT":"一段","MAREA":" ","LANE":"５１巷","ALLEY":" ","HOUSE_NO":"１３號三樓之３","E_COORD97":169093.14000000001,"N_COORD97":2543424.9300000002,"ADDRESS":"北門路一段５１巷１３號三樓之３","OBJECTID":368631},"geometry":{"x":169093.13999999966,"y":2543424.9300000016}},{"attributes":{"ID":368642,"DIS_CODE":0,"TOWNNAME":"中西區","LI":"萬昌里","LIN":"12鄰","STREET":"北門路","SECT":"一段","MAREA":" ","LANE":"５１巷","ALLEY":" ","HOUSE_NO":"１３號二樓之１１","E_COORD97":169093.14000000001,"N_COORD97":2543424.9300000002,"ADDRESS":"北門路一段５１巷１３號二樓之１１","OBJECTID":368632},"geometry":{"x":169093.13999999966,"y":2543424.9300000016}},{"attributes":{"ID":368643,"DIS_CODE":0,"TOWNNAME":"中西區","LI":"萬昌里","LIN":"12鄰","STREET":"北門路","SECT":"一段","MAREA":" ","LANE":"５１巷","ALLEY":" ","HOUSE_NO":"１３號二樓之１２","E_COORD97":169093.14000000001,"N_COORD97":2543424.9300000002,"ADDRESS":"北門路一段５１巷１３號二樓之１２","OBJECTID":368633},"geometry":{"x":169093.13999999966,"y":2543424.9300000016}},{"attributes":{"ID":368644,"DIS_CODE":0,"TOWNNAME":"中西區","LI":"萬昌里","LIN":"12鄰","STREET":"北門路","SECT":"一段","MAREA":" ","LANE":"５１巷","ALLEY":" ","HOUSE_NO":"１３號二樓之１３","E_COORD97":169093.14000000001,"N_COORD97":2543424.9300000002,"ADDRESS":"北門路一段５１巷１３號二樓之１３","OBJECTID":368634},"geometry":{"x":169093.13999999966,"y":2543424.9300000016}},{"attributes":{"ID":368645,"DIS_CODE":0,"TOWNNAME":"中西區","LI":"萬昌里","LIN":"12鄰","STREET":"北門路","SECT":"一段","MAREA":" ","LANE":"５１巷","ALLEY":" ","HOUSE_NO":"１３號二樓之１４","E_COORD97":169093.14000000001,"N_COORD97":2543424.9300000002,"ADDRESS":"北門路一段５１巷１３號二樓之１４","OBJECTID":368635},"geometry":{"x":169093.13999999966,"y":2543424.9300000016}},{"attributes":{"ID":368646,"DIS_CODE":0,"TOWNNAME":"中西區","LI":"萬昌里","LIN":"12鄰","STREET":"北門路","SECT":"一段","MAREA":" ","LANE":"５１巷","ALLEY":" ","HOUSE_NO":"１３號二樓之１５","E_COORD97":169093.14000000001,"N_COORD97":2543424.9300000002,"ADDRESS":"北門路一段５１巷１３號二樓之１５","OBJECTID":368636},"geometry":{"x":169093.13999999966,"y":2543424.9300000016}},{"attributes":{"ID":368647,"DIS_CODE":0,"TOWNNAME":"中西區","LI":"萬昌里","LIN":"12鄰","STREET":"北門路","SECT":"一段","MAREA":" ","LANE":"５１巷","ALLEY":" ","HOUSE_NO":"１３號二樓之２","E_COORD97":169093.14000000001,"N_COORD97":2543424.9300000002,"ADDRESS":"北門路一段５１巷１３號二樓之２","OBJECTID":368637},"geometry":{"x":169093.13999999966,"y":2543424.9300000016}},{"attributes":{"ID":368648,"DIS_CODE":0,"TOWNNAME":"中西區","LI":"萬昌里","LIN":"12鄰","STREET":"北門路","SECT":"一段","MAREA":" ","LANE":"５１巷","ALLEY":" ","HOUSE_NO":"１３號二樓之３","E_COORD97":169093.14000000001,"N_COORD97":2543424.9300000002,"ADDRESS":"北門路一段５１巷１３號二樓之３","OBJECTID":368638},"geometry":{"x":169093.13999999966,"y":2543424.9300000016}},{"attributes":{"ID":368649,"DIS_CODE":0,"TOWNNAME":"中西區","LI":"萬昌里","LIN":"12鄰","STREET":"北門路","SECT":"一段","MAREA":" ","LANE":"５１巷","ALLEY":" ","HOUSE_NO":"１３號二樓之４","E_COORD97":169093.14000000001,"N_COORD97":2543424.9300000002,"ADDRESS":"北門路一段５１巷１３號二樓之４","OBJECTID":368639},"geometry":{"x":169093.13999999966,"y":2543424.9300000016}},{"attributes":{"ID":368650,"DIS_CODE":0,"TOWNNAME":"中西區","LI":"萬昌里","LIN":"12鄰","STREET":"北門路","SECT":"一段","MAREA":" ","LANE":"５１巷","ALLEY":" ","HOUSE_NO":"１３號二樓之５","E_COORD97":169093.14000000001,"N_COORD97":2543424.9300000002,"ADDRESS":"北門路一段５１巷１３號二樓之５","OBJECTID":368640},"geometry":{"x":169093.13999999966,"y":2543424.9300000016}},{"attributes":{"ID":368651,"DIS_CODE":0,"TOWNNAME":"中西區","LI":"萬昌里","LIN":"12鄰","STREET":"北門路","SECT":"一段","MAREA":" ","LANE":"５１巷","ALLEY":" ","HOUSE_NO":"１３號二樓之６","E_COORD97":169093.14000000001,"N_COORD97":2543424.9300000002,"ADDRESS":"北門路一段５１巷１３號二樓之６","OBJECTID":368641},"geometry":{"x":169093.13999999966,"y":2543424.9300000016}},{"attributes":{"ID":368652,"DIS_CODE":0,"TOWNNAME":"中西區","LI":"萬昌里","LIN":"12鄰","STREET":"北門路","SECT":"一段","MAREA":" ","LANE":"５１巷","ALLEY":" ","HOUSE_NO":"１３號二樓之７","E_COORD97":169093.14000000001,"N_COORD97":2543424.9300000002,"ADDRESS":"北門路一段５１巷１３號二樓之７","OBJECTID":368642},"geometry":{"x":169093.13999999966,"y":2543424.9300000016}},{"attributes":{"ID":368653,"DIS_CODE":0,"TOWNNAME":"中西區","LI":"萬昌里","LIN":"12鄰","STREET":"北門路","SECT":"一段","MAREA":" ","LANE":"５１巷","ALLEY":" ","HOUSE_NO":"１３號二樓之８","E_COORD97":169093.14000000001,"N_COORD97":2543424.9300000002,"ADDRESS":"北門路一段５１巷１３號二樓之８","OBJECTID":368643},"geometry":{"x":169093.13999999966,"y":2543424.9300000016}},{"attributes":{"ID":368654,"DIS_CODE":0,"TOWNNAME":"中西區","LI":"萬昌里","LIN":"12鄰","STREET":"北門路","SECT":"一段","MAREA":" ","LANE":"５１巷","ALLEY":" ","HOUSE_NO":"１３號二樓之９","E_COORD97":169093.14000000001,"N_COORD97":2543424.9300000002,"ADDRESS":"北門路一段５１巷１３號二樓之９","OBJECTID":368644},"geometry":{"x":169093.13999999966,"y":2543424.9300000016}},{"attributes":{"ID":368655,"DIS_CODE":0,"TOWNNAME":"中西區","LI":"萬昌里","LIN":"12鄰","STREET":"北門路","SECT":"一段","MAREA":" ","LANE":"５１巷","ALLEY":" ","HOUSE_NO":"１３號三樓之１","E_COORD97":169093.14000000001,"N_COORD97":2543424.9300000002,"ADDRESS":"北門路一段５１巷１３號三樓之１","OBJECTID":368645},"geometry":{"x":169093.13999999966,"y":2543424.9300000016}},{"attributes":{"ID":368656,"DIS_CODE":0,"TOWNNAME":"中西區","LI":"萬昌里","LIN":"12鄰","STREET":"北門路","SECT":"一段","MAREA":" ","LANE":"５１巷","ALLEY":" ","HOUSE_NO":"１３號三樓之１０","E_COORD97":169093.14000000001,"N_COORD97":2543424.9300000002,"ADDRESS":"北門路一段５１巷１３號三樓之１０","OBJECTID":368646},"geometry":{"x":169093.13999999966,"y":2543424.9300000016}},{"attributes":{"ID":368657,"DIS_CODE":0,"TOWNNAME":"中西區","LI":"萬昌里","LIN":"12鄰","STREET":"北門路","SECT":"一段","MAREA":" ","LANE":"５１巷","ALLEY":" ","HOUSE_NO":"１３號三樓之１１","E_COORD97":169093.14000000001,"N_COORD97":2543424.9300000002,"ADDRESS":"北門路一段５１巷１３號三樓之１１","OBJECTID":368647},"geometry":{"x":169093.13999999966,"y":2543424.9300000016}},{"attributes":{"ID":368658,"DIS_CODE":0,"TOWNNAME":"中西區","LI":"萬昌里","LIN":"12鄰","STREET":"北門路","SECT":"一段","MAREA":" ","LANE":"５１巷","ALLEY":" ","HOUSE_NO":"１３號三樓之１２","E_COORD97":169093.14000000001,"N_COORD97":2543424.9300000002,"ADDRESS":"北門路一段５１巷１３號三樓之１２","OBJECTID":368648},"geometry":{"x":169093.13999999966,"y":2543424.9300000016}},{"attributes":{"ID":368659,"DIS_CODE":0,"TOWNNAME":"中西區","LI":"萬昌里","LIN":"12鄰","STREET":"北門路","SECT":"一段","MAREA":" ","LANE":"５１巷","ALLEY":" ","HOUSE_NO":"１３號三樓之１３","E_COORD97":169093.14000000001,"N_COORD97":2543424.9300000002,"ADDRESS":"北門路一段５１巷１３號三樓之１３","OBJECTID":368649},"geometry":{"x":169093.13999999966,"y":2543424.9300000016}},{"attributes":{"ID":368660,"DIS_CODE":0,"TOWNNAME":"中西區","LI":"萬昌里","LIN":"12鄰","STREET":"北門路","SECT":"一段","MAREA":" ","LANE":"５１巷","ALLEY":" ","HOUSE_NO":"１３號三樓之１４","E_COORD97":169093.14000000001,"N_COORD97":2543424.9300000002,"ADDRESS":"北門路一段５１巷１３號三樓之１４","OBJECTID":368650},"geometry":{"x":169093.13999999966,"y":2543424.9300000016}},{"attributes":{"ID":368661,"DIS_CODE":0,"TOWNNAME":"中西區","LI":"萬昌里","LIN":"12鄰","STREET":"北門路","SECT":"一段","MAREA":" ","LANE":"５１巷","ALLEY":" ","HOUSE_NO":"１３號三樓之１５","E_COORD97":169093.14000000001,"N_COORD97":2543424.9300000002,"ADDRESS":"北門路一段５１巷１３號三樓之１５","OBJECTID":368651},"geometry":{"x":169093.13999999966,"y":2543424.9300000016}},{"attributes":{"ID":368662,"DIS_CODE":0,"TOWNNAME":"中西區","LI":"萬昌里","LIN":"12鄰","STREET":"北門路","SECT":"一段","MAREA":" ","LANE":"５１巷","ALLEY":" ","HOUSE_NO":"１３號三樓之１６","E_COORD97":169093.14000000001,"N_COORD97":2543424.9300000002,"ADDRESS":"北門路一段５１巷１３號三樓之１６","OBJECTID":368652},"geometry":{"x":169093.13999999966,"y":2543424.9300000016}},{"attributes":{"ID":368663,"DIS_CODE":0,"TOWNNAME":"中西區","LI":"萬昌里","LIN":"12鄰","STREET":"北門路","SECT":"一段","MAREA":" ","LANE":"５１巷","ALLEY":" ","HOUSE_NO":"１３號三樓之１７","E_COORD97":169093.14000000001,"N_COORD97":2543424.9300000002,"ADDRESS":"北門路一段５１巷１３號三樓之１７","OBJECTID":368653},"geometry":{"x":169093.13999999966,"y":2543424.9300000016}},{"attributes":{"ID":368664,"DIS_CODE":0,"TOWNNAME":"中西區","LI":"萬昌里","LIN":"12鄰","STREET":"北門路","SECT":"一段","MAREA":" ","LANE":"５１巷","ALLEY":" ","HOUSE_NO":"１３號三樓之１８","E_COORD97":169093.14000000001,"N_COORD97":2543424.9300000002,"ADDRESS":"北門路一段５１巷１３號三樓之１８","OBJECTID":368654},"geometry":{"x":169093.13999999966,"y":2543424.9300000016}},{"attributes":{"ID":368665,"DIS_CODE":0,"TOWNNAME":"中西區","LI":"萬昌里","LIN":"12鄰","STREET":"北門路","SECT":"一段","MAREA":" ","LANE":"５１巷","ALLEY":" ","HOUSE_NO":"１３號三樓之１９","E_COORD97":169093.14000000001,"N_COORD97":2543424.9300000002,"ADDRESS":"北門路一段５１巷１３號三樓之１９","OBJECTID":368655},"geometry":{"x":169093.13999999966,"y":2543424.9300000016}},{"attributes":{"ID":368666,"DIS_CODE":0,"TOWNNAME":"中西區","LI":"萬昌里","LIN":"12鄰","STREET":"北門路","SECT":"一段","MAREA":" ","LANE":"５１巷","ALLEY":" ","HOUSE_NO":"１３號三樓之２","E_COORD97":169093.14000000001,"N_COORD97":2543424.9300000002,"ADDRESS":"北門路一段５１巷１３號三樓之２","OBJECTID":368656},"geometry":{"x":169093.13999999966,"y":2543424.9300000016}},{"attributes":{"ID":368667,"DIS_CODE":0,"TOWNNAME":"中西區","LI":"萬昌里","LIN":"12鄰","STREET":"北門路","SECT":"一段","MAREA":" ","LANE":"５１巷","ALLEY":" ","HOUSE_NO":"１３號三樓之２０","E_COORD97":169093.14000000001,"N_COORD97":2543424.9300000002,"ADDRESS":"北門路一段５１巷１３號三樓之２０","OBJECTID":368657},"geometry":{"x":169093.13999999966,"y":2543424.9300000016}},{"attributes":{"ID":368668,"DIS_CODE":0,"TOWNNAME":"中西區","LI":"萬昌里","LIN":"12鄰","STREET":"北門路","SECT":"一段","MAREA":" ","LANE":"５１巷","ALLEY":" ","HOUSE_NO":"１３號三樓之２１","E_COORD97":169093.14000000001,"N_COORD97":2543424.9300000002,"ADDRESS":"北門路一段５１巷１３號三樓之２１","OBJECTID":368658},"geometry":{"x":169093.13999999966,"y":2543424.9300000016}},{"attributes":{"ID":368669,"DIS_CODE":0,"TOWNNAME":"中西區","LI":"萬昌里","LIN":"12鄰","STREET":"北門路","SECT":"一段","MAREA":" ","LANE":"５１巷","ALLEY":" ","HOUSE_NO":"１３號三樓之４","E_COORD97":169093.14000000001,"N_COORD97":2543424.9300000002,"ADDRESS":"北門路一段５１巷１３號三樓之４","OBJECTID":368659},"geometry":{"x":169093.13999999966,"y":2543424.9300000016}},{"attributes":{"ID":368670,"DIS_CODE":0,"TOWNNAME":"中西區","LI":"萬昌里","LIN":"12鄰","STREET":"北門路","SECT":"一段","MAREA":" ","LANE":"５１巷","ALLEY":" ","HOUSE_NO":"１３號三樓之５","E_COORD97":169093.14000000001,"N_COORD97":2543424.9300000002,"ADDRESS":"北門路一段５１巷１３號三樓之５","OBJECTID":368660},"geometry":{"x":169093.13999999966,"y":2543424.9300000016}},{"attributes":{"ID":368671,"DIS_CODE":0,"TOWNNAME":"中西區","LI":"萬昌里","LIN":"12鄰","STREET":"北門路","SECT":"一段","MAREA":" ","LANE":"５１巷","ALLEY":" ","HOUSE_NO":"１３號三樓之６","E_COORD97":169093.14000000001,"N_COORD97":2543424.9300000002,"ADDRESS":"北門路一段５１巷１３號三樓之６","OBJECTID":368661},"geometry":{"x":169093.13999999966,"y":2543424.9300000016}},{"attributes":{"ID":368672,"DIS_CODE":0,"TOWNNAME":"中西區","LI":"萬昌里","LIN":"12鄰","STREET":"北門路","SECT":"一段","MAREA":" ","LANE":"５１巷","ALLEY":" ","HOUSE_NO":"１３號三樓之７","E_COORD97":169093.14000000001,"N_COORD97":2543424.9300000002,"ADDRESS":"北門路一段５１巷１３號三樓之７","OBJECTID":368662},"geometry":{"x":169093.13999999966,"y":2543424.9300000016}},{"attributes":{"ID":368673,"DIS_CODE":0,"TOWNNAME":"中西區","LI":"萬昌里","LIN":"12鄰","STREET":"北門路","SECT":"一段","MAREA":" ","LANE":"５１巷","ALLEY":" ","HOUSE_NO":"１３號三樓之８","E_COORD97":169093.14000000001,"N_COORD97":2543424.9300000002,"ADDRESS":"北門路一段５１巷１３號三樓之８","OBJECTID":368663},"geometry":{"x":169093.13999999966,"y":2543424.9300000016}},{"attributes":{"ID":368674,"DIS_CODE":0,"TOWNNAME":"中西區","LI":"萬昌里","LIN":"12鄰","STREET":"北門路","SECT":"一段","MAREA":" ","LANE":"５１巷","ALLEY":" ","HOUSE_NO":"１３號三樓之９","E_COORD97":169093.14000000001,"N_COORD97":2543424.9300000002,"ADDRESS":"北門路一段５１巷１３號三樓之９","OBJECTID":368664},"geometry":{"x":169093.13999999966,"y":2543424.9300000016}},{"attributes":{"ID":368675,"DIS_CODE":0,"TOWNNAME":"中西區","LI":"萬昌里","LIN":"12鄰","STREET":"北門路","SECT":"一段","MAREA":" ","LANE":"５１巷","ALLEY":" ","HOUSE_NO":"１３號五樓之１","E_COORD97":169093.14000000001,"N_COORD97":2543424.9300000002,"ADDRESS":"北門路一段５１巷１３號五樓之１","OBJECTID":368665},"geometry":{"x":169093.13999999966,"y":2543424.9300000016}},{"attributes":{"ID":368676,"DIS_CODE":0,"TOWNNAME":"中西區","LI":"萬昌里","LIN":"12鄰","STREET":"北門路","SECT":"一段","MAREA":" ","LANE":"５１巷","ALLEY":" ","HOUSE_NO":"１３號五樓之１０","E_COORD97":169093.14000000001,"N_COORD97":2543424.9300000002,"ADDRESS":"北門路一段５１巷１３號五樓之１０","OBJECTID":368666},"geometry":{"x":169093.13999999966,"y":2543424.9300000016}},{"attributes":{"ID":368677,"DIS_CODE":0,"TOWNNAME":"中西區","LI":"萬昌里","LIN":"12鄰","STREET":"北門路","SECT":"一段","MAREA":" ","LANE":"５１巷","ALLEY":" ","HOUSE_NO":"１３號五樓之１１","E_COORD97":169093.14000000001,"N_COORD97":2543424.9300000002,"ADDRESS":"北門路一段５１巷１３號五樓之１１","OBJECTID":368667},"geometry":{"x":169093.13999999966,"y":2543424.9300000016}},{"attributes":{"ID":368678,"DIS_CODE":0,"TOWNNAME":"中西區","LI":"萬昌里","LIN":"12鄰","STREET":"北門路","SECT":"一段","MAREA":" ","LANE":"５１巷","ALLEY":" ","HOUSE_NO":"１３號五樓之１２","E_COORD97":169093.14000000001,"N_COORD97":2543424.9300000002,"ADDRESS":"北門路一段５１巷１３號五樓之１２","OBJECTID":368668},"geometry":{"x":169093.13999999966,"y":2543424.9300000016}},{"attributes":{"ID":368679,"DIS_CODE":0,"TOWNNAME":"中西區","LI":"萬昌里","LIN":"12鄰","STREET":"北門路","SECT":"一段","MAREA":" ","LANE":"５１巷","ALLEY":" ","HOUSE_NO":"１３號五樓之１３","E_COORD97":169093.14000000001,"N_COORD97":2543424.9300000002,"ADDRESS":"北門路一段５１巷１３號五樓之１３","OBJECTID":368669},"geometry":{"x":169093.13999999966,"y":2543424.9300000016}},{"attributes":{"ID":368680,"DIS_CODE":0,"TOWNNAME":"中西區","LI":"萬昌里","LIN":"12鄰","STREET":"北門路","SECT":"一段","MAREA":" ","LANE":"５１巷","ALLEY":" ","HOUSE_NO":"１３號五樓之１４","E_COORD97":169093.14000000001,"N_COORD97":2543424.9300000002,"ADDRESS":"北門路一段５１巷１３號五樓之１４","OBJECTID":368670},"geometry":{"x":169093.13999999966,"y":2543424.9300000016}},{"attributes":{"ID":368681,"DIS_CODE":0,"TOWNNAME":"中西區","LI":"萬昌里","LIN":"12鄰","STREET":"北門路","SECT":"一段","MAREA":" ","LANE":"５１巷","ALLEY":" ","HOUSE_NO":"１３號五樓之１５","E_COORD97":169093.14000000001,"N_COORD97":2543424.9300000002,"ADDRESS":"北門路一段５１巷１３號五樓之１５","OBJECTID":368671},"geometry":{"x":169093.13999999966,"y":2543424.9300000016}},{"attributes":{"ID":368682,"DIS_CODE":0,"TOWNNAME":"南區","LI":"新生里","LIN":"5鄰","STREET":"大同路","SECT":"二段","MAREA":" ","LANE":" ","ALLEY":" ","HOUSE_NO":"１７６號","E_COORD97":169347.70999999999,"N_COORD97":2541981.29,"ADDRESS":"大同路二段１７６號","OBJECTID":368672},"geometry":{"x":169347.71000000183,"y":2541981.290000001}},{"attributes":{"ID":368683,"DIS_CODE":0,"TOWNNAME":"中西區","LI":"萬昌里","LIN":"12鄰","STREET":"北門路","SECT":"一段","MAREA":" ","LANE":"５１巷","ALLEY":" ","HOUSE_NO":"１３號五樓之１６","E_COORD97":169093.14000000001,"N_COORD97":2543424.9300000002,"ADDRESS":"北門路一段５１巷１３號五樓之１６","OBJECTID":368673},"geometry":{"x":169093.13999999966,"y":2543424.9300000016}},{"attributes":{"ID":368684,"DIS_CODE":0,"TOWNNAME":"中西區","LI":"萬昌里","LIN":"12鄰","STREET":"北門路","SECT":"一段","MAREA":" ","LANE":"５１巷","ALLEY":" ","HOUSE_NO":"１３號五樓之１７","E_COORD97":169093.14000000001,"N_COORD97":2543424.9300000002,"ADDRESS":"北門路一段５１巷１３號五樓之１７","OBJECTID":368674},"geometry":{"x":169093.13999999966,"y":2543424.9300000016}},{"attributes":{"ID":368685,"DIS_CODE":0,"TOWNNAME":"中西區","LI":"萬昌里","LIN":"12鄰","STREET":"北門路","SECT":"一段","MAREA":" ","LANE":"５１巷","ALLEY":" ","HOUSE_NO":"１３號五樓之１８","E_COORD97":169093.14000000001,"N_COORD97":2543424.9300000002,"ADDRESS":"北門路一段５１巷１３號五樓之１８","OBJECTID":368675},"geometry":{"x":169093.13999999966,"y":2543424.9300000016}},{"attributes":{"ID":368686,"DIS_CODE":0,"TOWNNAME":"中西區","LI":"萬昌里","LIN":"12鄰","STREET":"北門路","SECT":"一段","MAREA":" ","LANE":"５１巷","ALLEY":" ","HOUSE_NO":"１３號五樓之２","E_COORD97":169093.14000000001,"N_COORD97":2543424.9300000002,"ADDRESS":"北門路一段５１巷１３號五樓之２","OBJECTID":368676},"geometry":{"x":169093.13999999966,"y":2543424.9300000016}},{"attributes":{"ID":368687,"DIS_CODE":0,"TOWNNAME":"中西區","LI":"萬昌里","LIN":"12鄰","STREET":"北門路","SECT":"一段","MAREA":" ","LANE":"５１巷","ALLEY":" ","HOUSE_NO":"１３號五樓之３","E_COORD97":169093.14000000001,"N_COORD97":2543424.9300000002,"ADDRESS":"北門路一段５１巷１３號五樓之３","OBJECTID":368677},"geometry":{"x":169093.13999999966,"y":2543424.9300000016}},{"attributes":{"ID":368688,"DIS_CODE":0,"TOWNNAME":"中西區","LI":"萬昌里","LIN":"12鄰","STREET":"北門路","SECT":"一段","MAREA":" ","LANE":"５１巷","ALLEY":" ","HOUSE_NO":"１３號五樓之４","E_COORD97":169093.14000000001,"N_COORD97":2543424.9300000002,"ADDRESS":"北門路一段５１巷１３號五樓之４","OBJECTID":368678},"geometry":{"x":169093.13999999966,"y":2543424.9300000016}},{"attributes":{"ID":368689,"DIS_CODE":0,"TOWNNAME":"中西區","LI":"萬昌里","LIN":"12鄰","STREET":"北門路","SECT":"一段","MAREA":" ","LANE":"５１巷","ALLEY":" ","HOUSE_NO":"１３號五樓之５","E_COORD97":169093.14000000001,"N_COORD97":2543424.9300000002,"ADDRESS":"北門路一段５１巷１３號五樓之５","OBJECTID":368679},"geometry":{"x":169093.13999999966,"y":2543424.9300000016}},{"attributes":{"ID":368690,"DIS_CODE":0,"TOWNNAME":"中西區","LI":"萬昌里","LIN":"12鄰","STREET":"北門路","SECT":"一段","MAREA":" ","LANE":"５１巷","ALLEY":" ","HOUSE_NO":"１３號五樓之６","E_COORD97":169093.14000000001,"N_COORD97":2543424.9300000002,"ADDRESS":"北門路一段５１巷１３號五樓之６","OBJECTID":368680},"geometry":{"x":169093.13999999966,"y":2543424.9300000016}},{"attributes":{"ID":368691,"DIS_CODE":0,"TOWNNAME":"中西區","LI":"萬昌里","LIN":"12鄰","STREET":"北門路","SECT":"一段","MAREA":" ","LANE":"５１巷","ALLEY":" ","HOUSE_NO":"１３號五樓之７","E_COORD97":169093.14000000001,"N_COORD97":2543424.9300000002,"ADDRESS":"北門路一段５１巷１３號五樓之７","OBJECTID":368681},"geometry":{"x":169093.13999999966,"y":2543424.9300000016}},{"attributes":{"ID":368692,"DIS_CODE":0,"TOWNNAME":"中西區","LI":"萬昌里","LIN":"12鄰","STREET":"北門路","SECT":"一段","MAREA":" ","LANE":"５１巷","ALLEY":" ","HOUSE_NO":"１３號五樓之８","E_COORD97":169093.14000000001,"N_COORD97":2543424.9300000002,"ADDRESS":"北門路一段５１巷１３號五樓之８","OBJECTID":368682},"geometry":{"x":169093.13999999966,"y":2543424.9300000016}},{"attributes":{"ID":368693,"DIS_CODE":0,"TOWNNAME":"中西區","LI":"萬昌里","LIN":"12鄰","STREET":"北門路","SECT":"一段","MAREA":" ","LANE":"５１巷","ALLEY":" ","HOUSE_NO":"１３號五樓之９","E_COORD97":169093.14000000001,"N_COORD97":2543424.9300000002,"ADDRESS":"北門路一段５１巷１３號五樓之９","OBJECTID":368683},"geometry":{"x":169093.13999999966,"y":2543424.9300000016}},{"attributes":{"ID":368694,"DIS_CODE":0,"TOWNNAME":"中西區","LI":"萬昌里","LIN":"12鄰","STREET":"北門路","SECT":"一段","MAREA":" ","LANE":"５１巷","ALLEY":" ","HOUSE_NO":"１３號六樓之１","E_COORD97":169093.14000000001,"N_COORD97":2543424.9300000002,"ADDRESS":"北門路一段５１巷１３號六樓之１","OBJECTID":368684},"geometry":{"x":169093.13999999966,"y":2543424.9300000016}},{"attributes":{"ID":368695,"DIS_CODE":0,"TOWNNAME":"中西區","LI":"萬昌里","LIN":"12鄰","STREET":"北門路","SECT":"一段","MAREA":" ","LANE":"５１巷","ALLEY":" ","HOUSE_NO":"１３號六樓之１０","E_COORD97":169093.14000000001,"N_COORD97":2543424.9300000002,"ADDRESS":"北門路一段５１巷１３號六樓之１０","OBJECTID":368685},"geometry":{"x":169093.13999999966,"y":2543424.9300000016}},{"attributes":{"ID":368696,"DIS_CODE":0,"TOWNNAME":"中西區","LI":"萬昌里","LIN":"12鄰","STREET":"北門路","SECT":"一段","MAREA":" ","LANE":"５１巷","ALLEY":" ","HOUSE_NO":"１３號六樓之１１","E_COORD97":169093.14000000001,"N_COORD97":2543424.9300000002,"ADDRESS":"北門路一段５１巷１３號六樓之１１","OBJECTID":368686},"geometry":{"x":169093.13999999966,"y":2543424.9300000016}},{"attributes":{"ID":368697,"DIS_CODE":0,"TOWNNAME":"中西區","LI":"萬昌里","LIN":"12鄰","STREET":"北門路","SECT":"一段","MAREA":" ","LANE":"５１巷","ALLEY":" ","HOUSE_NO":"１３號六樓之１２","E_COORD97":169093.14000000001,"N_COORD97":2543424.9300000002,"ADDRESS":"北門路一段５１巷１３號六樓之１２","OBJECTID":368687},"geometry":{"x":169093.13999999966,"y":2543424.9300000016}},{"attributes":{"ID":368698,"DIS_CODE":0,"TOWNNAME":"中西區","LI":"萬昌里","LIN":"12鄰","STREET":"北門路","SECT":"一段","MAREA":" ","LANE":"５１巷","ALLEY":" ","HOUSE_NO":"１３號六樓之１３","E_COORD97":169093.14000000001,"N_COORD97":2543424.9300000002,"ADDRESS":"北門路一段５１巷１３號六樓之１３","OBJECTID":368688},"geometry":{"x":169093.13999999966,"y":2543424.9300000016}},{"attributes":{"ID":368699,"DIS_CODE":0,"TOWNNAME":"中西區","LI":"萬昌里","LIN":"12鄰","STREET":"北門路","SECT":"一段","MAREA":" ","LANE":"５１巷","ALLEY":" ","HOUSE_NO":"１３號六樓之１４","E_COORD97":169093.14000000001,"N_COORD97":2543424.9300000002,"ADDRESS":"北門路一段５１巷１３號六樓之１４","OBJECTID":368689},"geometry":{"x":169093.13999999966,"y":2543424.9300000016}},{"attributes":{"ID":368700,"DIS_CODE":0,"TOWNNAME":"中西區","LI":"萬昌里","LIN":"12鄰","STREET":"北門路","SECT":"一段","MAREA":" ","LANE":"５１巷","ALLEY":" ","HOUSE_NO":"１３號六樓之１５","E_COORD97":169093.14000000001,"N_COORD97":2543424.9300000002,"ADDRESS":"北門路一段５１巷１３號六樓之１５","OBJECTID":368690},"geometry":{"x":169093.13999999966,"y":2543424.9300000016}},{"attributes":{"ID":368701,"DIS_CODE":0,"TOWNNAME":"中西區","LI":"萬昌里","LIN":"12鄰","STREET":"北門路","SECT":"一段","MAREA":" ","LANE":"５１巷","ALLEY":" ","HOUSE_NO":"１３號六樓之１６","E_COORD97":169093.14000000001,"N_COORD97":2543424.9300000002,"ADDRESS":"北門路一段５１巷１３號六樓之１６","OBJECTID":368691},"geometry":{"x":169093.13999999966,"y":2543424.9300000016}},{"attributes":{"ID":368702,"DIS_CODE":0,"TOWNNAME":"中西區","LI":"萬昌里","LIN":"12鄰","STREET":"北門路","SECT":"一段","MAREA":" ","LANE":"５１巷","ALLEY":" ","HOUSE_NO":"１３號六樓之１７","E_COORD97":169093.14000000001,"N_COORD97":2543424.9300000002,"ADDRESS":"北門路一段５１巷１３號六樓之１７","OBJECTID":368692},"geometry":{"x":169093.13999999966,"y":2543424.9300000016}},{"attributes":{"ID":368703,"DIS_CODE":0,"TOWNNAME":"東區","LI":"東光里","LIN":"12鄰","STREET":"怡東路","SECT":" ","MAREA":" ","LANE":"１５０巷","ALLEY":" ","HOUSE_NO":"１號五樓","E_COORD97":170968.92999999999,"N_COORD97":2543972.8100000001,"ADDRESS":"怡東路１５０巷１號五樓","OBJECTID":368693},"geometry":{"x":170968.93000000063,"y":2543972.8100000024}},{"attributes":{"ID":368704,"DIS_CODE":0,"TOWNNAME":"中西區","LI":"萬昌里","LIN":"12鄰","STREET":"北門路","SECT":"一段","MAREA":" ","LANE":"５１巷","ALLEY":" ","HOUSE_NO":"１３號六樓之１８","E_COORD97":169093.14000000001,"N_COORD97":2543424.9300000002,"ADDRESS":"北門路一段５１巷１３號六樓之１８","OBJECTID":368694},"geometry":{"x":169093.13999999966,"y":2543424.9300000016}},{"attributes":{"ID":368705,"DIS_CODE":0,"TOWNNAME":"中西區","LI":"萬昌里","LIN":"12鄰","STREET":"北門路","SECT":"一段","MAREA":" ","LANE":"５１巷","ALLEY":" ","HOUSE_NO":"１３號六樓之１９","E_COORD97":169093.14000000001,"N_COORD97":2543424.9300000002,"ADDRESS":"北門路一段５１巷１３號六樓之１９","OBJECTID":368695},"geometry":{"x":169093.13999999966,"y":2543424.9300000016}},{"attributes":{"ID":368706,"DIS_CODE":0,"TOWNNAME":"中西區","LI":"萬昌里","LIN":"12鄰","STREET":"北門路","SECT":"一段","MAREA":" ","LANE":"５１巷","ALLEY":" ","HOUSE_NO":"１３號六樓之２","E_COORD97":169093.14000000001,"N_COORD97":2543424.9300000002,"ADDRESS":"北門路一段５１巷１３號六樓之２","OBJECTID":368696},"geometry":{"x":169093.13999999966,"y":2543424.9300000016}},{"attributes":{"ID":368707,"DIS_CODE":0,"TOWNNAME":"中西區","LI":"萬昌里","LIN":"12鄰","STREET":"北門路","SECT":"一段","MAREA":" ","LANE":"５１巷","ALLEY":" ","HOUSE_NO":"１３號六樓之３","E_COORD97":169093.14000000001,"N_COORD97":2543424.9300000002,"ADDRESS":"北門路一段５１巷１３號六樓之３","OBJECTID":368697},"geometry":{"x":169093.13999999966,"y":2543424.9300000016}},{"attributes":{"ID":368708,"DIS_CODE":0,"TOWNNAME":"中西區","LI":"萬昌里","LIN":"12鄰","STREET":"北門路","SECT":"一段","MAREA":" ","LANE":"５１巷","ALLEY":" ","HOUSE_NO":"１３號六樓之４","E_COORD97":169093.14000000001,"N_COORD97":2543424.9300000002,"ADDRESS":"北門路一段５１巷１３號六樓之４","OBJECTID":368698},"geometry":{"x":169093.13999999966,"y":2543424.9300000016}},{"attributes":{"ID":368709,"DIS_CODE":0,"TOWNNAME":"中西區","LI":"萬昌里","LIN":"12鄰","STREET":"北門路","SECT":"一段","MAREA":" ","LANE":"５１巷","ALLEY":" ","HOUSE_NO":"１３號六樓之５","E_COORD97":169093.14000000001,"N_COORD97":2543424.9300000002,"ADDRESS":"北門路一段５１巷１３號六樓之５","OBJECTID":368699},"geometry":{"x":169093.13999999966,"y":2543424.9300000016}},{"attributes":{"ID":368710,"DIS_CODE":0,"TOWNNAME":"中西區","LI":"萬昌里","LIN":"12鄰","STREET":"北門路","SECT":"一段","MAREA":" ","LANE":"５１巷","ALLEY":" ","HOUSE_NO":"１３號六樓之６","E_COORD97":169093.14000000001,"N_COORD97":2543424.9300000002,"ADDRESS":"北門路一段５１巷１３號六樓之６","OBJECTID":368700},"geometry":{"x":169093.13999999966,"y":2543424.9300000016}},{"attributes":{"ID":368711,"DIS_CODE":0,"TOWNNAME":"中西區","LI":"萬昌里","LIN":"12鄰","STREET":"北門路","SECT":"一段","MAREA":" ","LANE":"５１巷","ALLEY":" ","HOUSE_NO":"１３號六樓之７","E_COORD97":169093.14000000001,"N_COORD97":2543424.9300000002,"ADDRESS":"北門路一段５１巷１３號六樓之７","OBJECTID":368701},"geometry":{"x":169093.13999999966,"y":2543424.9300000016}},{"attributes":{"ID":368712,"DIS_CODE":0,"TOWNNAME":"中西區","LI":"萬昌里","LIN":"12鄰","STREET":"北門路","SECT":"一段","MAREA":" ","LANE":"５１巷","ALLEY":" ","HOUSE_NO":"１３號六樓之８","E_COORD97":169093.14000000001,"N_COORD97":2543424.9300000002,"ADDRESS":"北門路一段５１巷１３號六樓之８","OBJECTID":368702},"geometry":{"x":169093.13999999966,"y":2543424.9300000016}},{"attributes":{"ID":368713,"DIS_CODE":0,"TOWNNAME":"中西區","LI":"萬昌里","LIN":"12鄰","STREET":"北門路","SECT":"一段","MAREA":" ","LANE":"５１巷","ALLEY":" ","HOUSE_NO":"１３號六樓之９","E_COORD97":169093.14000000001,"N_COORD97":2543424.9300000002,"ADDRESS":"北門路一段５１巷１３號六樓之９","OBJECTID":368703},"geometry":{"x":169093.13999999966,"y":2543424.9300000016}},{"attributes":{"ID":368714,"DIS_CODE":0,"TOWNNAME":"中西區","LI":"萬昌里","LIN":"12鄰","STREET":"北門路","SECT":"一段","MAREA":" ","LANE":"５１巷","ALLEY":" ","HOUSE_NO":"１３號四樓之１","E_COORD97":169093.14000000001,"N_COORD97":2543424.9300000002,"ADDRESS":"北門路一段５１巷１３號四樓之１","OBJECTID":368704},"geometry":{"x":169093.13999999966,"y":2543424.9300000016}},{"attributes":{"ID":368715,"DIS_CODE":0,"TOWNNAME":"中西區","LI":"萬昌里","LIN":"12鄰","STREET":"北門路","SECT":"一段","MAREA":" ","LANE":"５１巷","ALLEY":" ","HOUSE_NO":"１３號四樓之１０","E_COORD97":169093.14000000001,"N_COORD97":2543424.9300000002,"ADDRESS":"北門路一段５１巷１３號四樓之１０","OBJECTID":368705},"geometry":{"x":169093.13999999966,"y":2543424.9300000016}},{"attributes":{"ID":368716,"DIS_CODE":0,"TOWNNAME":"中西區","LI":"萬昌里","LIN":"12鄰","STREET":"北門路","SECT":"一段","MAREA":" ","LANE":"５１巷","ALLEY":" ","HOUSE_NO":"１３號四樓之１９","E_COORD97":169093.14000000001,"N_COORD97":2543424.9300000002,"ADDRESS":"北門路一段５１巷１３號四樓之１９","OBJECTID":368706},"geometry":{"x":169093.13999999966,"y":2543424.9300000016}},{"attributes":{"ID":368717,"DIS_CODE":0,"TOWNNAME":"中西區","LI":"萬昌里","LIN":"12鄰","STREET":"北門路","SECT":"一段","MAREA":" ","LANE":"５１巷","ALLEY":" ","HOUSE_NO":"１３號四樓之２","E_COORD97":169093.14000000001,"N_COORD97":2543424.9300000002,"ADDRESS":"北門路一段５１巷１３號四樓之２","OBJECTID":368707},"geometry":{"x":169093.13999999966,"y":2543424.9300000016}},{"attributes":{"ID":368718,"DIS_CODE":0,"TOWNNAME":"中西區","LI":"萬昌里","LIN":"12鄰","STREET":"北門路","SECT":"一段","MAREA":" ","LANE":"５１巷","ALLEY":" ","HOUSE_NO":"１３號四樓之２０","E_COORD97":169093.14000000001,"N_COORD97":2543424.9300000002,"ADDRESS":"北門路一段５１巷１３號四樓之２０","OBJECTID":368708},"geometry":{"x":169093.13999999966,"y":2543424.9300000016}},{"attributes":{"ID":368719,"DIS_CODE":0,"TOWNNAME":"中西區","LI":"萬昌里","LIN":"12鄰","STREET":"北門路","SECT":"一段","MAREA":" ","LANE":"５１巷","ALLEY":" ","HOUSE_NO":"１３號四樓之３","E_COORD97":169093.14000000001,"N_COORD97":2543424.9300000002,"ADDRESS":"北門路一段５１巷１３號四樓之３","OBJECTID":368709},"geometry":{"x":169093.13999999966,"y":2543424.9300000016}},{"attributes":{"ID":368720,"DIS_CODE":0,"TOWNNAME":"中西區","LI":"萬昌里","LIN":"12鄰","STREET":"北門路","SECT":"一段","MAREA":" ","LANE":"５１巷","ALLEY":" ","HOUSE_NO":"１３號四樓之４","E_COORD97":169093.14000000001,"N_COORD97":2543424.9300000002,"ADDRESS":"北門路一段５１巷１３號四樓之４","OBJECTID":368710},"geometry":{"x":169093.13999999966,"y":2543424.9300000016}},{"attributes":{"ID":368721,"DIS_CODE":0,"TOWNNAME":"中西區","LI":"萬昌里","LIN":"12鄰","STREET":"北門路","SECT":"一段","MAREA":" ","LANE":"５１巷","ALLEY":" ","HOUSE_NO":"１３號四樓之５","E_COORD97":169093.14000000001,"N_COORD97":2543424.9300000002,"ADDRESS":"北門路一段５１巷１３號四樓之５","OBJECTID":368711},"geometry":{"x":169093.13999999966,"y":2543424.9300000016}},{"attributes":{"ID":368722,"DIS_CODE":0,"TOWNNAME":"中西區","LI":"萬昌里","LIN":"12鄰","STREET":"北門路","SECT":"一段","MAREA":" ","LANE":"５１巷","ALLEY":" ","HOUSE_NO":"１３號四樓之６","E_COORD97":169093.14000000001,"N_COORD97":2543424.9300000002,"ADDRESS":"北門路一段５１巷１３號四樓之６","OBJECTID":368712},"geometry":{"x":169093.13999999966,"y":2543424.9300000016}},{"attributes":{"ID":368723,"DIS_CODE":0,"TOWNNAME":"中西區","LI":"萬昌里","LIN":"12鄰","STREET":"北門路","SECT":"一段","MAREA":" ","LANE":"５１巷","ALLEY":" ","HOUSE_NO":"１３號四樓之７","E_COORD97":169093.14000000001,"N_COORD97":2543424.9300000002,"ADDRESS":"北門路一段５１巷１３號四樓之７","OBJECTID":368713},"geometry":{"x":169093.13999999966,"y":2543424.9300000016}},{"attributes":{"ID":368724,"DIS_CODE":0,"TOWNNAME":"中西區","LI":"萬昌里","LIN":"12鄰","STREET":"北門路","SECT":"一段","MAREA":" ","LANE":"５１巷","ALLEY":" ","HOUSE_NO":"１３號四樓之８","E_COORD97":169093.14000000001,"N_COORD97":2543424.9300000002,"ADDRESS":"北門路一段５１巷１３號四樓之８","OBJECTID":368714},"geometry":{"x":169093.13999999966,"y":2543424.9300000016}},{"attributes":{"ID":368725,"DIS_CODE":0,"TOWNNAME":"中西區","LI":"萬昌里","LIN":"12鄰","STREET":"北門路","SECT":"一段","MAREA":" ","LANE":"５１巷","ALLEY":" ","HOUSE_NO":"１３號四樓之９","E_COORD97":169093.14000000001,"N_COORD97":2543424.9300000002,"ADDRESS":"北門路一段５１巷１３號四樓之９","OBJECTID":368715},"geometry":{"x":169093.13999999966,"y":2543424.9300000016}},{"attributes":{"ID":368726,"DIS_CODE":0,"TOWNNAME":"中西區","LI":"銀同里","LIN":"12鄰","STREET":"開山路","SECT":" ","MAREA":" ","LANE":"３巷","ALLEY":" ","HOUSE_NO":"２６號二樓","E_COORD97":168635.95000000001,"N_COORD97":2543574.1600000001,"ADDRESS":"開山路３巷２６號二樓","OBJECTID":368716},"geometry":{"x":168635.95000000205,"y":2543574.1600000001}},{"attributes":{"ID":368727,"DIS_CODE":0,"TOWNNAME":"中西區","LI":"銀同里","LIN":"12鄰","STREET":"開山路","SECT":" ","MAREA":" ","LANE":"３巷","ALLEY":" ","HOUSE_NO":"２６號三樓","E_COORD97":168635.95000000001,"N_COORD97":2543574.1600000001,"ADDRESS":"開山路３巷２６號三樓","OBJECTID":368717},"geometry":{"x":168635.95000000205,"y":2543574.1600000001}},{"attributes":{"ID":368728,"DIS_CODE":0,"TOWNNAME":"中西區","LI":"銀同里","LIN":"12鄰","STREET":"開山路","SECT":" ","MAREA":" ","LANE":"３巷","ALLEY":" ","HOUSE_NO":"２６號四樓","E_COORD97":168635.95000000001,"N_COORD97":2543574.1600000001,"ADDRESS":"開山路３巷２６號四樓","OBJECTID":368718},"geometry":{"x":168635.95000000205,"y":2543574.1600000001}},{"attributes":{"ID":368729,"DIS_CODE":0,"TOWNNAME":"東區","LI":"東光里","LIN":"12鄰","STREET":"怡東路","SECT":" ","MAREA":" ","LANE":"１５０巷","ALLEY":" ","HOUSE_NO":"１號二樓","E_COORD97":170968.92999999999,"N_COORD97":2543972.8100000001,"ADDRESS":"怡東路１５０巷１號二樓","OBJECTID":368719},"geometry":{"x":170968.93000000063,"y":2543972.8100000024}},{"attributes":{"ID":368730,"DIS_CODE":0,"TOWNNAME":"東區","LI":"東光里","LIN":"12鄰","STREET":"怡東路","SECT":" ","MAREA":" ","LANE":"１５０巷","ALLEY":" ","HOUSE_NO":"１號三樓","E_COORD97":170968.92999999999,"N_COORD97":2543972.8100000001,"ADDRESS":"怡東路１５０巷１號三樓","OBJECTID":368720},"geometry":{"x":170968.93000000063,"y":2543972.8100000024}},{"attributes":{"ID":368731,"DIS_CODE":0,"TOWNNAME":"東區","LI":"東光里","LIN":"12鄰","STREET":"怡東路","SECT":" ","MAREA":" ","LANE":"１５０巷","ALLEY":" ","HOUSE_NO":"１號四樓","E_COORD97":170968.92999999999,"N_COORD97":2543972.8100000001,"ADDRESS":"怡東路１５０巷１號四樓","OBJECTID":368721},"geometry":{"x":170968.93000000063,"y":2543972.8100000024}},{"attributes":{"ID":368732,"DIS_CODE":0,"TOWNNAME":"東區","LI":"東光里","LIN":"12鄰","STREET":"怡東路","SECT":" ","MAREA":" ","LANE":"１５０巷","ALLEY":" ","HOUSE_NO":"１號六樓","E_COORD97":170968.92999999999,"N_COORD97":2543972.8100000001,"ADDRESS":"怡東路１５０巷１號六樓","OBJECTID":368722},"geometry":{"x":170968.93000000063,"y":2543972.8100000024}},{"attributes":{"ID":368733,"DIS_CODE":0,"TOWNNAME":"東區","LI":"東光里","LIN":"12鄰","STREET":"怡東路","SECT":" ","MAREA":" ","LANE":"１５０巷","ALLEY":" ","HOUSE_NO":"１號七樓","E_COORD97":170968.92999999999,"N_COORD97":2543972.8100000001,"ADDRESS":"怡東路１５０巷１號七樓","OBJECTID":368723},"geometry":{"x":170968.93000000063,"y":2543972.8100000024}},{"attributes":{"ID":368734,"DIS_CODE":0,"TOWNNAME":"東區","LI":"東光里","LIN":"12鄰","STREET":"怡東路","SECT":" ","MAREA":" ","LANE":"１５０巷","ALLEY":" ","HOUSE_NO":"１號八樓","E_COORD97":170968.92999999999,"N_COORD97":2543972.8100000001,"ADDRESS":"怡東路１５０巷１號八樓","OBJECTID":368724},"geometry":{"x":170968.93000000063,"y":2543972.8100000024}},{"attributes":{"ID":368735,"DIS_CODE":0,"TOWNNAME":"東區","LI":"東光里","LIN":"12鄰","STREET":"怡東路","SECT":" ","MAREA":" ","LANE":"１５０巷","ALLEY":" ","HOUSE_NO":"１號九樓","E_COORD97":170968.92999999999,"N_COORD97":2543972.8100000001,"ADDRESS":"怡東路１５０巷１號九樓","OBJECTID":368725},"geometry":{"x":170968.93000000063,"y":2543972.8100000024}},{"attributes":{"ID":368736,"DIS_CODE":0,"TOWNNAME":"東區","LI":"東光里","LIN":"12鄰","STREET":"怡東路","SECT":" ","MAREA":" ","LANE":"１５０巷","ALLEY":" ","HOUSE_NO":"１號十樓","E_COORD97":170968.92999999999,"N_COORD97":2543972.8100000001,"ADDRESS":"怡東路１５０巷１號十樓","OBJECTID":368726},"geometry":{"x":170968.93000000063,"y":2543972.8100000024}},{"attributes":{"ID":368737,"DIS_CODE":0,"TOWNNAME":"東區","LI":"東光里","LIN":"12鄰","STREET":"怡東路","SECT":" ","MAREA":" ","LANE":"１５０巷","ALLEY":" ","HOUSE_NO":"１號十一樓","E_COORD97":170968.92999999999,"N_COORD97":2543972.8100000001,"ADDRESS":"怡東路１５０巷１號十一樓","OBJECTID":368727},"geometry":{"x":170968.93000000063,"y":2543972.8100000024}},{"attributes":{"ID":368738,"DIS_CODE":0,"TOWNNAME":"東區","LI":"東光里","LIN":"12鄰","STREET":"怡東路","SECT":" ","MAREA":" ","LANE":"１５０巷","ALLEY":" ","HOUSE_NO":"１號十二樓","E_COORD97":170968.92999999999,"N_COORD97":2543972.8100000001,"ADDRESS":"怡東路１５０巷１號十二樓","OBJECTID":368728},"geometry":{"x":170968.93000000063,"y":2543972.8100000024}},{"attributes":{"ID":368739,"DIS_CODE":0,"TOWNNAME":"東區","LI":"東光里","LIN":"12鄰","STREET":"怡東路","SECT":" ","MAREA":" ","LANE":"１５０巷","ALLEY":" ","HOUSE_NO":"５號二樓","E_COORD97":170945.42000000001,"N_COORD97":2543976.6299999999,"ADDRESS":"怡東路１５０巷５號二樓","OBJECTID":368729},"geometry":{"x":170945.42000000086,"y":2543976.629999999}},{"attributes":{"ID":368740,"DIS_CODE":0,"TOWNNAME":"東區","LI":"東光里","LIN":"12鄰","STREET":"怡東路","SECT":" ","MAREA":" ","LANE":"１５０巷","ALLEY":" ","HOUSE_NO":"５號三樓","E_COORD97":170945.42000000001,"N_COORD97":2543976.6299999999,"ADDRESS":"怡東路１５０巷５號三樓","OBJECTID":368730},"geometry":{"x":170945.42000000086,"y":2543976.629999999}},{"attributes":{"ID":368741,"DIS_CODE":0,"TOWNNAME":"東區","LI":"東光里","LIN":"12鄰","STREET":"怡東路","SECT":" ","MAREA":" ","LANE":"１５０巷","ALLEY":" ","HOUSE_NO":"５號四樓","E_COORD97":170945.42000000001,"N_COORD97":2543976.6299999999,"ADDRESS":"怡東路１５０巷５號四樓","OBJECTID":368731},"geometry":{"x":170945.42000000086,"y":2543976.629999999}},{"attributes":{"ID":368742,"DIS_CODE":0,"TOWNNAME":"東區","LI":"東光里","LIN":"12鄰","STREET":"怡東路","SECT":" ","MAREA":" ","LANE":"１５０巷","ALLEY":" ","HOUSE_NO":"５號五樓","E_COORD97":170945.42000000001,"N_COORD97":2543976.6299999999,"ADDRESS":"怡東路１５０巷５號五樓","OBJECTID":368732},"geometry":{"x":170945.42000000086,"y":2543976.629999999}},{"attributes":{"ID":368743,"DIS_CODE":0,"TOWNNAME":"東區","LI":"東光里","LIN":"12鄰","STREET":"怡東路","SECT":" ","MAREA":" ","LANE":"１５０巷","ALLEY":" ","HOUSE_NO":"５號六樓","E_COORD97":170945.42000000001,"N_COORD97":2543976.6299999999,"ADDRESS":"怡東路１５０巷５號六樓","OBJECTID":368733},"geometry":{"x":170945.42000000086,"y":2543976.629999999}},{"attributes":{"ID":368744,"DIS_CODE":0,"TOWNNAME":"東區","LI":"東光里","LIN":"12鄰","STREET":"怡東路","SECT":" ","MAREA":" ","LANE":"１５０巷","ALLEY":" ","HOUSE_NO":"５號七樓","E_COORD97":170945.42000000001,"N_COORD97":2543976.6299999999,"ADDRESS":"怡東路１５０巷５號七樓","OBJECTID":368734},"geometry":{"x":170945.42000000086,"y":2543976.629999999}},{"attributes":{"ID":368745,"DIS_CODE":0,"TOWNNAME":"東區","LI":"東光里","LIN":"12鄰","STREET":"怡東路","SECT":" ","MAREA":" ","LANE":"１５０巷","ALLEY":" ","HOUSE_NO":"５號八樓","E_COORD97":170945.42000000001,"N_COORD97":2543976.6299999999,"ADDRESS":"怡東路１５０巷５號八樓","OBJECTID":368735},"geometry":{"x":170945.42000000086,"y":2543976.629999999}},{"attributes":{"ID":368746,"DIS_CODE":0,"TOWNNAME":"東區","LI":"東光里","LIN":"12鄰","STREET":"怡東路","SECT":" ","MAREA":" ","LANE":"１５０巷","ALLEY":" ","HOUSE_NO":"５號九樓","E_COORD97":170945.42000000001,"N_COORD97":2543976.6299999999,"ADDRESS":"怡東路１５０巷５號九樓","OBJECTID":368736},"geometry":{"x":170945.42000000086,"y":2543976.629999999}},{"attributes":{"ID":368747,"DIS_CODE":0,"TOWNNAME":"東區","LI":"東光里","LIN":"12鄰","STREET":"怡東路","SECT":" ","MAREA":" ","LANE":"１５０巷","ALLEY":" ","HOUSE_NO":"５號十樓","E_COORD97":170945.42000000001,"N_COORD97":2543976.6299999999,"ADDRESS":"怡東路１５０巷５號十樓","OBJECTID":368737},"geometry":{"x":170945.42000000086,"y":2543976.629999999}},{"attributes":{"ID":368748,"DIS_CODE":0,"TOWNNAME":"東區","LI":"東光里","LIN":"12鄰","STREET":"怡東路","SECT":" ","MAREA":" ","LANE":"１５０巷","ALLEY":" ","HOUSE_NO":"５號十一樓","E_COORD97":170945.42000000001,"N_COORD97":2543976.6299999999,"ADDRESS":"怡東路１５０巷５號十一樓","OBJECTID":368738},"geometry":{"x":170945.42000000086,"y":2543976.629999999}},{"attributes":{"ID":368749,"DIS_CODE":0,"TOWNNAME":"東區","LI":"東光里","LIN":"12鄰","STREET":"怡東路","SECT":" ","MAREA":" ","LANE":"１５０巷","ALLEY":" ","HOUSE_NO":"５號十二樓","E_COORD97":170945.42000000001,"N_COORD97":2543976.6299999999,"ADDRESS":"怡東路１５０巷５號十二樓","OBJECTID":368739},"geometry":{"x":170945.42000000086,"y":2543976.629999999}},{"attributes":{"ID":368750,"DIS_CODE":0,"TOWNNAME":"東區","LI":"東光里","LIN":"12鄰","STREET":"怡東路","SECT":" ","MAREA":" ","LANE":"１５０巷","ALLEY":" ","HOUSE_NO":"９號二樓","E_COORD97":170931.32000000001,"N_COORD97":2543958.7200000002,"ADDRESS":"怡東路１５０巷９號二樓","OBJECTID":368740},"geometry":{"x":170931.32000000123,"y":2543958.7200000007}},{"attributes":{"ID":368751,"DIS_CODE":0,"TOWNNAME":"東區","LI":"東光里","LIN":"12鄰","STREET":"怡東路","SECT":" ","MAREA":" ","LANE":"１５０巷","ALLEY":" ","HOUSE_NO":"９號三樓","E_COORD97":170931.32000000001,"N_COORD97":2543958.7200000002,"ADDRESS":"怡東路１５０巷９號三樓","OBJECTID":368741},"geometry":{"x":170931.32000000123,"y":2543958.7200000007}},{"attributes":{"ID":368752,"DIS_CODE":0,"TOWNNAME":"東區","LI":"東光里","LIN":"12鄰","STREET":"怡東路","SECT":" ","MAREA":" ","LANE":"１５０巷","ALLEY":" ","HOUSE_NO":"９號四樓","E_COORD97":170931.32000000001,"N_COORD97":2543958.7200000002,"ADDRESS":"怡東路１５０巷９號四樓","OBJECTID":368742},"geometry":{"x":170931.32000000123,"y":2543958.7200000007}},{"attributes":{"ID":368753,"DIS_CODE":0,"TOWNNAME":"東區","LI":"東光里","LIN":"12鄰","STREET":"怡東路","SECT":" ","MAREA":" ","LANE":"１５０巷","ALLEY":" ","HOUSE_NO":"９號五樓","E_COORD97":170931.32000000001,"N_COORD97":2543958.7200000002,"ADDRESS":"怡東路１５０巷９號五樓","OBJECTID":368743},"geometry":{"x":170931.32000000123,"y":2543958.7200000007}},{"attributes":{"ID":368754,"DIS_CODE":0,"TOWNNAME":"中西區","LI":"安海里","LIN":"12鄰","STREET":"河中街","SECT":" ","MAREA":" ","LANE":"３７巷","ALLEY":" ","HOUSE_NO":"９號","E_COORD97":167255.95000000001,"N_COORD97":2544004.02,"ADDRESS":"河中街３７巷９號","OBJECTID":368744},"geometry":{"x":167255.94999999925,"y":2544004.0200000014}},{"attributes":{"ID":368755,"DIS_CODE":0,"TOWNNAME":"東區","LI":"東光里","LIN":"12鄰","STREET":"怡東路","SECT":" ","MAREA":" ","LANE":"１５０巷","ALLEY":" ","HOUSE_NO":"９號六樓","E_COORD97":170931.32000000001,"N_COORD97":2543958.7200000002,"ADDRESS":"怡東路１５０巷９號六樓","OBJECTID":368745},"geometry":{"x":170931.32000000123,"y":2543958.7200000007}},{"attributes":{"ID":368756,"DIS_CODE":0,"TOWNNAME":"東區","LI":"東光里","LIN":"12鄰","STREET":"怡東路","SECT":" ","MAREA":" ","LANE":"１５０巷","ALLEY":" ","HOUSE_NO":"９號七樓","E_COORD97":170931.32000000001,"N_COORD97":2543958.7200000002,"ADDRESS":"怡東路１５０巷９號七樓","OBJECTID":368746},"geometry":{"x":170931.32000000123,"y":2543958.7200000007}},{"attributes":{"ID":368757,"DIS_CODE":0,"TOWNNAME":"東區","LI":"東光里","LIN":"12鄰","STREET":"怡東路","SECT":" ","MAREA":" ","LANE":"１５０巷","ALLEY":" ","HOUSE_NO":"９號八樓","E_COORD97":170931.32000000001,"N_COORD97":2543958.7200000002,"ADDRESS":"怡東路１５０巷９號八樓","OBJECTID":368747},"geometry":{"x":170931.32000000123,"y":2543958.7200000007}},{"attributes":{"ID":368758,"DIS_CODE":0,"TOWNNAME":"東區","LI":"東光里","LIN":"12鄰","STREET":"怡東路","SECT":" ","MAREA":" ","LANE":"１５０巷","ALLEY":" ","HOUSE_NO":"９號九樓","E_COORD97":170931.32000000001,"N_COORD97":2543958.7200000002,"ADDRESS":"怡東路１５０巷９號九樓","OBJECTID":368748},"geometry":{"x":170931.32000000123,"y":2543958.7200000007}},{"attributes":{"ID":368759,"DIS_CODE":0,"TOWNNAME":"東區","LI":"東光里","LIN":"12鄰","STREET":"怡東路","SECT":" ","MAREA":" ","LANE":"１５０巷","ALLEY":" ","HOUSE_NO":"９號十樓","E_COORD97":170931.32000000001,"N_COORD97":2543958.7200000002,"ADDRESS":"怡東路１５０巷９號十樓","OBJECTID":368749},"geometry":{"x":170931.32000000123,"y":2543958.7200000007}},{"attributes":{"ID":368760,"DIS_CODE":0,"TOWNNAME":"東區","LI":"東光里","LIN":"12鄰","STREET":"怡東路","SECT":" ","MAREA":" ","LANE":"１５０巷","ALLEY":" ","HOUSE_NO":"９號十一樓","E_COORD97":170931.32000000001,"N_COORD97":2543958.7200000002,"ADDRESS":"怡東路１５０巷９號十一樓","OBJECTID":368750},"geometry":{"x":170931.32000000123,"y":2543958.7200000007}},{"attributes":{"ID":368761,"DIS_CODE":0,"TOWNNAME":"東區","LI":"東光里","LIN":"12鄰","STREET":"怡東路","SECT":" ","MAREA":" ","LANE":"１５０巷","ALLEY":" ","HOUSE_NO":"１１號二樓","E_COORD97":170927.79000000001,"N_COORD97":2543946.3900000001,"ADDRESS":"怡東路１５０巷１１號二樓","OBJECTID":368751},"geometry":{"x":170927.79000000097,"y":2543946.3900000006}},{"attributes":{"ID":368762,"DIS_CODE":0,"TOWNNAME":"東區","LI":"東光里","LIN":"12鄰","STREET":"怡東路","SECT":" ","MAREA":" ","LANE":"１５０巷","ALLEY":" ","HOUSE_NO":"１１號三樓","E_COORD97":170927.79000000001,"N_COORD97":2543946.3900000001,"ADDRESS":"怡東路１５０巷１１號三樓","OBJECTID":368752},"geometry":{"x":170927.79000000097,"y":2543946.3900000006}},{"attributes":{"ID":368763,"DIS_CODE":0,"TOWNNAME":"東區","LI":"東光里","LIN":"12鄰","STREET":"怡東路","SECT":" ","MAREA":" ","LANE":"１５０巷","ALLEY":" ","HOUSE_NO":"１１號四樓","E_COORD97":170927.79000000001,"N_COORD97":2543946.3900000001,"ADDRESS":"怡東路１５０巷１１號四樓","OBJECTID":368753},"geometry":{"x":170927.79000000097,"y":2543946.3900000006}},{"attributes":{"ID":368764,"DIS_CODE":0,"TOWNNAME":"東區","LI":"東光里","LIN":"12鄰","STREET":"怡東路","SECT":" ","MAREA":" ","LANE":"１５０巷","ALLEY":" ","HOUSE_NO":"１１號五樓","E_COORD97":170927.79000000001,"N_COORD97":2543946.3900000001,"ADDRESS":"怡東路１５０巷１１號五樓","OBJECTID":368754},"geometry":{"x":170927.79000000097,"y":2543946.3900000006}},{"attributes":{"ID":368765,"DIS_CODE":0,"TOWNNAME":"東區","LI":"東光里","LIN":"12鄰","STREET":"怡東路","SECT":" ","MAREA":" ","LANE":"１５０巷","ALLEY":" ","HOUSE_NO":"１１號六樓","E_COORD97":170927.79000000001,"N_COORD97":2543946.3900000001,"ADDRESS":"怡東路１５０巷１１號六樓","OBJECTID":368755},"geometry":{"x":170927.79000000097,"y":2543946.3900000006}},{"attributes":{"ID":368766,"DIS_CODE":0,"TOWNNAME":"東區","LI":"東光里","LIN":"12鄰","STREET":"怡東路","SECT":" ","MAREA":" ","LANE":"１５０巷","ALLEY":" ","HOUSE_NO":"１１號七樓","E_COORD97":170927.79000000001,"N_COORD97":2543946.3900000001,"ADDRESS":"怡東路１５０巷１１號七樓","OBJECTID":368756},"geometry":{"x":170927.79000000097,"y":2543946.3900000006}},{"attributes":{"ID":368767,"DIS_CODE":0,"TOWNNAME":"東區","LI":"東光里","LIN":"12鄰","STREET":"怡東路","SECT":" ","MAREA":" ","LANE":"１５０巷","ALLEY":" ","HOUSE_NO":"１１號八樓","E_COORD97":170927.79000000001,"N_COORD97":2543946.3900000001,"ADDRESS":"怡東路１５０巷１１號八樓","OBJECTID":368757},"geometry":{"x":170927.79000000097,"y":2543946.3900000006}},{"attributes":{"ID":368768,"DIS_CODE":0,"TOWNNAME":"東區","LI":"東光里","LIN":"12鄰","STREET":"怡東路","SECT":" ","MAREA":" ","LANE":"１５０巷","ALLEY":" ","HOUSE_NO":"１１號九樓","E_COORD97":170927.79000000001,"N_COORD97":2543946.3900000001,"ADDRESS":"怡東路１５０巷１１號九樓","OBJECTID":368758},"geometry":{"x":170927.79000000097,"y":2543946.3900000006}},{"attributes":{"ID":368769,"DIS_CODE":0,"TOWNNAME":"東區","LI":"東光里","LIN":"12鄰","STREET":"怡東路","SECT":" ","MAREA":" ","LANE":"１５０巷","ALLEY":" ","HOUSE_NO":"１１號十樓","E_COORD97":170927.79000000001,"N_COORD97":2543946.3900000001,"ADDRESS":"怡東路１５０巷１１號十樓","OBJECTID":368759},"geometry":{"x":170927.79000000097,"y":2543946.3900000006}},{"attributes":{"ID":368770,"DIS_CODE":0,"TOWNNAME":"東區","LI":"東光里","LIN":"12鄰","STREET":"怡東路","SECT":" ","MAREA":" ","LANE":"１５０巷","ALLEY":" ","HOUSE_NO":"１１號十一樓","E_COORD97":170927.79000000001,"N_COORD97":2543946.3900000001,"ADDRESS":"怡東路１５０巷１１號十一樓","OBJECTID":368760},"geometry":{"x":170927.79000000097,"y":2543946.3900000006}},{"attributes":{"ID":368771,"DIS_CODE":0,"TOWNNAME":"南區","LI":"新生里","LIN":"5鄰","STREET":"大同路","SECT":"二段","MAREA":" ","LANE":" ","ALLEY":" ","HOUSE_NO":"１７８號","E_COORD97":169348.84,"N_COORD97":2541975.0899999999,"ADDRESS":"大同路二段１７８號","OBJECTID":368761},"geometry":{"x":169348.84000000078,"y":2541975.0899999999}},{"attributes":{"ID":368772,"DIS_CODE":0,"TOWNNAME":"仁德區","LI":"後壁里","LIN":"12鄰","STREET":"德南路","SECT":" ","MAREA":" ","LANE":"１９４巷","ALLEY":" ","HOUSE_NO":"１４號六樓之１","E_COORD97":173662.70000000001,"N_COORD97":2538492.7400000002,"ADDRESS":"德南路１９４巷１４號六樓之１","OBJECTID":368762},"geometry":{"x":173662.70000000112,"y":2538492.7400000002}},{"attributes":{"ID":368773,"DIS_CODE":0,"TOWNNAME":"仁德區","LI":"後壁里","LIN":"12鄰","STREET":"德南路","SECT":" ","MAREA":" ","LANE":"１９４巷","ALLEY":" ","HOUSE_NO":"１０號三樓之２","E_COORD97":173682.39000000001,"N_COORD97":2538469,"ADDRESS":"德南路１９４巷１０號三樓之２","OBJECTID":368763},"geometry":{"x":173682.39000000153,"y":2538469.0000000019}},{"attributes":{"ID":368774,"DIS_CODE":0,"TOWNNAME":"仁德區","LI":"後壁里","LIN":"12鄰","STREET":"德南路","SECT":" ","MAREA":" ","LANE":"１８７巷","ALLEY":" ","HOUSE_NO":"３１號八樓","E_COORD97":173669.91,"N_COORD97":2538599.0099999998,"ADDRESS":"德南路１８７巷３１號八樓","OBJECTID":368764},"geometry":{"x":173669.91000000108,"y":2538599.0099999998}},{"attributes":{"ID":368775,"DIS_CODE":0,"TOWNNAME":"仁德區","LI":"後壁里","LIN":"12鄰","STREET":"德南路","SECT":" ","MAREA":" ","LANE":"１９４巷","ALLEY":" ","HOUSE_NO":"１４號三樓之１","E_COORD97":173662.70000000001,"N_COORD97":2538492.7400000002,"ADDRESS":"德南路１９４巷１４號三樓之１","OBJECTID":368765},"geometry":{"x":173662.70000000112,"y":2538492.7400000002}},{"attributes":{"ID":368776,"DIS_CODE":0,"TOWNNAME":"仁德區","LI":"後壁里","LIN":"12鄰","STREET":"德南路","SECT":" ","MAREA":" ","LANE":"１８７巷","ALLEY":" ","HOUSE_NO":"３３號一樓","E_COORD97":173676.35999999999,"N_COORD97":2538593.5099999998,"ADDRESS":"德南路１８７巷３３號一樓","OBJECTID":368766},"geometry":{"x":173676.36000000034,"y":2538593.5100000016}},{"attributes":{"ID":368777,"DIS_CODE":0,"TOWNNAME":"仁德區","LI":"後壁里","LIN":"12鄰","STREET":"德南路","SECT":" ","MAREA":" ","LANE":"１８７巷","ALLEY":" ","HOUSE_NO":"３３號三樓","E_COORD97":173676.35999999999,"N_COORD97":2538593.5099999998,"ADDRESS":"德南路１８７巷３３號三樓","OBJECTID":368767},"geometry":{"x":173676.36000000034,"y":2538593.5100000016}},{"attributes":{"ID":368778,"DIS_CODE":0,"TOWNNAME":"仁德區","LI":"後壁里","LIN":"12鄰","STREET":"德南路","SECT":" ","MAREA":" ","LANE":"１９４巷","ALLEY":" ","HOUSE_NO":"１０號六樓之２","E_COORD97":173682.39000000001,"N_COORD97":2538469,"ADDRESS":"德南路１９４巷１０號六樓之２","OBJECTID":368768},"geometry":{"x":173682.39000000153,"y":2538469.0000000019}},{"attributes":{"ID":368779,"DIS_CODE":0,"TOWNNAME":"仁德區","LI":"後壁里","LIN":"12鄰","STREET":"德南路","SECT":" ","MAREA":" ","LANE":"１８７巷","ALLEY":" ","HOUSE_NO":"３１號二樓","E_COORD97":173669.91,"N_COORD97":2538599.0099999998,"ADDRESS":"德南路１８７巷３１號二樓","OBJECTID":368769},"geometry":{"x":173669.91000000108,"y":2538599.0099999998}},{"attributes":{"ID":368780,"DIS_CODE":0,"TOWNNAME":"仁德區","LI":"後壁里","LIN":"12鄰","STREET":"德南路","SECT":" ","MAREA":" ","LANE":"１８７巷","ALLEY":" ","HOUSE_NO":"３３號七樓","E_COORD97":173676.35999999999,"N_COORD97":2538593.5099999998,"ADDRESS":"德南路１８７巷３３號七樓","OBJECTID":368770},"geometry":{"x":173676.36000000034,"y":2538593.5100000016}},{"attributes":{"ID":368781,"DIS_CODE":0,"TOWNNAME":"仁德區","LI":"後壁里","LIN":"12鄰","STREET":"德南路","SECT":" ","MAREA":" ","LANE":"１８７巷","ALLEY":" ","HOUSE_NO":"９號七樓","E_COORD97":173686.23999999999,"N_COORD97":2538567.77,"ADDRESS":"德南路１８７巷９號七樓","OBJECTID":368771},"geometry":{"x":173686.24000000115,"y":2538567.7700000014}},{"attributes":{"ID":368782,"DIS_CODE":0,"TOWNNAME":"仁德區","LI":"後壁里","LIN":"12鄰","STREET":"德南路","SECT":" ","MAREA":" ","LANE":"１９４巷","ALLEY":" ","HOUSE_NO":"１０號二樓之２","E_COORD97":173682.39000000001,"N_COORD97":2538469,"ADDRESS":"德南路１９４巷１０號二樓之２","OBJECTID":368772},"geometry":{"x":173682.39000000153,"y":2538469.0000000019}},{"attributes":{"ID":368783,"DIS_CODE":0,"TOWNNAME":"仁德區","LI":"後壁里","LIN":"12鄰","STREET":"德南路","SECT":" ","MAREA":" ","LANE":"１８７巷","ALLEY":" ","HOUSE_NO":"２９號三樓","E_COORD97":173663.39999999999,"N_COORD97":2538588.25,"ADDRESS":"德南路１８７巷２９號三樓","OBJECTID":368773},"geometry":{"x":173663.4000000013,"y":2538588.2500000019}},{"attributes":{"ID":368784,"DIS_CODE":0,"TOWNNAME":"仁德區","LI":"後壁里","LIN":"12鄰","STREET":"德南路","SECT":" ","MAREA":" ","LANE":"１８７巷","ALLEY":" ","HOUSE_NO":"３１號七樓","E_COORD97":173669.91,"N_COORD97":2538599.0099999998,"ADDRESS":"德南路１８７巷３１號七樓","OBJECTID":368774},"geometry":{"x":173669.91000000108,"y":2538599.0099999998}},{"attributes":{"ID":368785,"DIS_CODE":0,"TOWNNAME":"仁德區","LI":"後壁里","LIN":"12鄰","STREET":"德南路","SECT":" ","MAREA":" ","LANE":"１９４巷","ALLEY":" ","HOUSE_NO":"１２號一樓之１","E_COORD97":173666.60999999999,"N_COORD97":2538479.9900000002,"ADDRESS":"德南路１９４巷１２號一樓之１","OBJECTID":368775},"geometry":{"x":173666.61000000127,"y":2538479.9900000002}},{"attributes":{"ID":368786,"DIS_CODE":0,"TOWNNAME":"仁德區","LI":"後壁里","LIN":"12鄰","STREET":"德南路","SECT":" ","MAREA":" ","LANE":"１８７巷","ALLEY":" ","HOUSE_NO":"９號六樓","E_COORD97":173686.23999999999,"N_COORD97":2538567.77,"ADDRESS":"德南路１８７巷９號六樓","OBJECTID":368776},"geometry":{"x":173686.24000000115,"y":2538567.7700000014}},{"attributes":{"ID":368787,"DIS_CODE":0,"TOWNNAME":"仁德區","LI":"後壁里","LIN":"12鄰","STREET":"德南路","SECT":" ","MAREA":" ","LANE":"１８７巷","ALLEY":" ","HOUSE_NO":"２５號一樓","E_COORD97":173656.85000000001,"N_COORD97":2538575.2599999998,"ADDRESS":"德南路１８７巷２５號一樓","OBJECTID":368777},"geometry":{"x":173656.84999999963,"y":2538575.2600000016}},{"attributes":{"ID":368788,"DIS_CODE":0,"TOWNNAME":"仁德區","LI":"後壁里","LIN":"12鄰","STREET":"德南路","SECT":" ","MAREA":" ","LANE":"１９４巷","ALLEY":" ","HOUSE_NO":"１２號一樓之２","E_COORD97":173666.73999999999,"N_COORD97":2538479.9900000002,"ADDRESS":"德南路１９４巷１２號一樓之２","OBJECTID":368778},"geometry":{"x":173666.74000000022,"y":2538479.9900000002}},{"attributes":{"ID":368789,"DIS_CODE":0,"TOWNNAME":"仁德區","LI":"後壁里","LIN":"12鄰","STREET":"德南路","SECT":" ","MAREA":" ","LANE":"１８７巷","ALLEY":" ","HOUSE_NO":"２９號一樓","E_COORD97":173663.39999999999,"N_COORD97":2538588.25,"ADDRESS":"德南路１８７巷２９號一樓","OBJECTID":368779},"geometry":{"x":173663.4000000013,"y":2538588.2500000019}},{"attributes":{"ID":368790,"DIS_CODE":0,"TOWNNAME":"仁德區","LI":"後壁里","LIN":"12鄰","STREET":"德南路","SECT":" ","MAREA":" ","LANE":"１８７巷","ALLEY":" ","HOUSE_NO":"９號五樓","E_COORD97":173686.23999999999,"N_COORD97":2538567.77,"ADDRESS":"德南路１８７巷９號五樓","OBJECTID":368780},"geometry":{"x":173686.24000000115,"y":2538567.7700000014}},{"attributes":{"ID":368791,"DIS_CODE":0,"TOWNNAME":"仁德區","LI":"後壁里","LIN":"12鄰","STREET":"德南路","SECT":" ","MAREA":" ","LANE":"１９４巷","ALLEY":" ","HOUSE_NO":"１２號五樓之２","E_COORD97":173666.73999999999,"N_COORD97":2538479.9900000002,"ADDRESS":"德南路１９４巷１２號五樓之２","OBJECTID":368781},"geometry":{"x":173666.74000000022,"y":2538479.9900000002}},{"attributes":{"ID":368792,"DIS_CODE":0,"TOWNNAME":"仁德區","LI":"後壁里","LIN":"12鄰","STREET":"德南路","SECT":" ","MAREA":" ","LANE":"１９４巷","ALLEY":" ","HOUSE_NO":"１２號三樓之２","E_COORD97":173666.73999999999,"N_COORD97":2538479.9900000002,"ADDRESS":"德南路１９４巷１２號三樓之２","OBJECTID":368782},"geometry":{"x":173666.74000000022,"y":2538479.9900000002}},{"attributes":{"ID":368793,"DIS_CODE":0,"TOWNNAME":"東區","LI":"東安里","LIN":"12鄰","STREET":"長榮路","SECT":"二段","MAREA":" ","LANE":"３２巷","ALLEY":" ","HOUSE_NO":"１２８號二樓","E_COORD97":170169.79999999999,"N_COORD97":2543138.4500000002,"ADDRESS":"長榮路二段３２巷１２８號二樓","OBJECTID":368783},"geometry":{"x":170169.80000000075,"y":2543138.4499999993}},{"attributes":{"ID":368794,"DIS_CODE":0,"TOWNNAME":"東區","LI":"東安里","LIN":"12鄰","STREET":"長榮路","SECT":"二段","MAREA":" ","LANE":"３２巷","ALLEY":" ","HOUSE_NO":"１２８號三樓","E_COORD97":170169.79999999999,"N_COORD97":2543138.4500000002,"ADDRESS":"長榮路二段３２巷１２８號三樓","OBJECTID":368784},"geometry":{"x":170169.80000000075,"y":2543138.4499999993}},{"attributes":{"ID":368795,"DIS_CODE":0,"TOWNNAME":"東區","LI":"東安里","LIN":"12鄰","STREET":"長榮路","SECT":"二段","MAREA":" ","LANE":"３２巷","ALLEY":" ","HOUSE_NO":"１３０號二樓","E_COORD97":170171.34,"N_COORD97":2543134.2799999998,"ADDRESS":"長榮路二段３２巷１３０號二樓","OBJECTID":368785},"geometry":{"x":170171.33999999985,"y":2543134.2800000012}},{"attributes":{"ID":368796,"DIS_CODE":0,"TOWNNAME":"東區","LI":"東安里","LIN":"12鄰","STREET":"長榮路","SECT":"二段","MAREA":" ","LANE":"３２巷","ALLEY":" ","HOUSE_NO":"１３０號三樓","E_COORD97":170171.34,"N_COORD97":2543134.2799999998,"ADDRESS":"長榮路二段３２巷１３０號三樓","OBJECTID":368786},"geometry":{"x":170171.33999999985,"y":2543134.2800000012}},{"attributes":{"ID":368797,"DIS_CODE":0,"TOWNNAME":"仁德區","LI":"後壁里","LIN":"12鄰","STREET":"德南路","SECT":" ","MAREA":" ","LANE":"１９４巷","ALLEY":" ","HOUSE_NO":"１０號五樓之１","E_COORD97":173682.26000000001,"N_COORD97":2538469,"ADDRESS":"德南路１９４巷１０號五樓之１","OBJECTID":368787},"geometry":{"x":173682.26000000071,"y":2538469.0000000019}},{"attributes":{"ID":368798,"DIS_CODE":0,"TOWNNAME":"仁德區","LI":"後壁里","LIN":"12鄰","STREET":"德南路","SECT":" ","MAREA":" ","LANE":"１９４巷","ALLEY":" ","HOUSE_NO":"１２號五樓之１","E_COORD97":173666.60999999999,"N_COORD97":2538479.9900000002,"ADDRESS":"德南路１９４巷１２號五樓之１","OBJECTID":368788},"geometry":{"x":173666.61000000127,"y":2538479.9900000002}},{"attributes":{"ID":368799,"DIS_CODE":0,"TOWNNAME":"仁德區","LI":"後壁里","LIN":"12鄰","STREET":"德南路","SECT":" ","MAREA":" ","LANE":"１８７巷","ALLEY":" ","HOUSE_NO":"２５號五樓","E_COORD97":173656.85000000001,"N_COORD97":2538575.2599999998,"ADDRESS":"德南路１８７巷２５號五樓","OBJECTID":368789},"geometry":{"x":173656.84999999963,"y":2538575.2600000016}},{"attributes":{"ID":368800,"DIS_CODE":0,"TOWNNAME":"仁德區","LI":"後壁里","LIN":"12鄰","STREET":"德南路","SECT":" ","MAREA":" ","LANE":"１９４巷","ALLEY":" ","HOUSE_NO":"１０號六樓之１","E_COORD97":173682.26000000001,"N_COORD97":2538469,"ADDRESS":"德南路１９４巷１０號六樓之１","OBJECTID":368790},"geometry":{"x":173682.26000000071,"y":2538469.0000000019}},{"attributes":{"ID":368801,"DIS_CODE":0,"TOWNNAME":"東區","LI":"和平里","LIN":"1鄰","STREET":"文化一街","SECT":" ","MAREA":" ","LANE":" ","ALLEY":" ","HOUSE_NO":"２號八樓","E_COORD97":171099.45000000001,"N_COORD97":2542097.2200000002,"ADDRESS":"文化一街２號八樓","OBJECTID":368791},"geometry":{"x":171099.45000000112,"y":2542097.2200000007}},{"attributes":{"ID":368802,"DIS_CODE":0,"TOWNNAME":"仁德區","LI":"後壁里","LIN":"12鄰","STREET":"德南路","SECT":" ","MAREA":" ","LANE":"１８７巷","ALLEY":" ","HOUSE_NO":"９號四樓","E_COORD97":173686.23999999999,"N_COORD97":2538567.77,"ADDRESS":"德南路１８７巷９號四樓","OBJECTID":368792},"geometry":{"x":173686.24000000115,"y":2538567.7700000014}},{"attributes":{"ID":368803,"DIS_CODE":0,"TOWNNAME":"仁德區","LI":"後壁里","LIN":"12鄰","STREET":"德南路","SECT":" ","MAREA":" ","LANE":"１８７巷","ALLEY":" ","HOUSE_NO":"３１號一樓","E_COORD97":173669.91,"N_COORD97":2538599.0099999998,"ADDRESS":"德南路１８７巷３１號一樓","OBJECTID":368793},"geometry":{"x":173669.91000000108,"y":2538599.0099999998}},{"attributes":{"ID":368804,"DIS_CODE":0,"TOWNNAME":"仁德區","LI":"後壁里","LIN":"12鄰","STREET":"德南路","SECT":" ","MAREA":" ","LANE":"１８７巷","ALLEY":" ","HOUSE_NO":"９號三樓","E_COORD97":173686.23999999999,"N_COORD97":2538567.77,"ADDRESS":"德南路１８７巷９號三樓","OBJECTID":368794},"geometry":{"x":173686.24000000115,"y":2538567.7700000014}},{"attributes":{"ID":368805,"DIS_CODE":0,"TOWNNAME":"仁德區","LI":"後壁里","LIN":"12鄰","STREET":"德南路","SECT":" ","MAREA":" ","LANE":"１９４巷","ALLEY":" ","HOUSE_NO":"１０號二樓之１","E_COORD97":173682.26000000001,"N_COORD97":2538469,"ADDRESS":"德南路１９４巷１０號二樓之１","OBJECTID":368795},"geometry":{"x":173682.26000000071,"y":2538469.0000000019}},{"attributes":{"ID":368806,"DIS_CODE":0,"TOWNNAME":"仁德區","LI":"後壁里","LIN":"12鄰","STREET":"德南路","SECT":" ","MAREA":" ","LANE":"１８７巷","ALLEY":" ","HOUSE_NO":"２５號三樓","E_COORD97":173656.85000000001,"N_COORD97":2538575.2599999998,"ADDRESS":"德南路１８７巷２５號三樓","OBJECTID":368796},"geometry":{"x":173656.84999999963,"y":2538575.2600000016}},{"attributes":{"ID":368807,"DIS_CODE":0,"TOWNNAME":"仁德區","LI":"後壁里","LIN":"12鄰","STREET":"德南路","SECT":" ","MAREA":" ","LANE":"１８７巷","ALLEY":" ","HOUSE_NO":"３５號三樓","E_COORD97":173680.32000000001,"N_COORD97":2538589.5099999998,"ADDRESS":"德南路１８７巷３５號三樓","OBJECTID":368797},"geometry":{"x":173680.32000000123,"y":2538589.5100000016}},{"attributes":{"ID":368808,"DIS_CODE":0,"TOWNNAME":"仁德區","LI":"後壁里","LIN":"12鄰","STREET":"德南路","SECT":" ","MAREA":" ","LANE":"１８７巷","ALLEY":" ","HOUSE_NO":"３９號一樓","E_COORD97":173701.60000000001,"N_COORD97":2538587.5099999998,"ADDRESS":"德南路１８７巷３９號一樓","OBJECTID":368798},"geometry":{"x":173701.60000000056,"y":2538587.5099999998}},{"attributes":{"ID":368809,"DIS_CODE":0,"TOWNNAME":"仁德區","LI":"後壁里","LIN":"12鄰","STREET":"德南路","SECT":" ","MAREA":" ","LANE":"１９４巷","ALLEY":" ","HOUSE_NO":"１２號七樓之１","E_COORD97":173666.60999999999,"N_COORD97":2538479.9900000002,"ADDRESS":"德南路１９４巷１２號七樓之１","OBJECTID":368799},"geometry":{"x":173666.61000000127,"y":2538479.9900000002}},{"attributes":{"ID":368810,"DIS_CODE":0,"TOWNNAME":"仁德區","LI":"後壁里","LIN":"12鄰","STREET":"德南路","SECT":" ","MAREA":" ","LANE":"１８７巷","ALLEY":" ","HOUSE_NO":"３１號五樓","E_COORD97":173669.91,"N_COORD97":2538599.0099999998,"ADDRESS":"德南路１８７巷３１號五樓","OBJECTID":368800},"geometry":{"x":173669.91000000108,"y":2538599.0099999998}}]}