{"displayFieldName":"TOWNNAME","fieldAliases":{"ID":"ID","DIS_CODE":"DIS_CODE","TOWNNAME":"TOWNNAME","LI":"LI","LIN":"LIN","STREET":"STREET","SECT":"SECT","MAREA":"MAREA","LANE":"LANE","ALLEY":"ALLEY","HOUSE_NO":"HOUSE_NO","E_COORD97":"E_COORD97","N_COORD97":"N_COORD97","ADDRESS":"ADDRESS","OBJECTID":"OBJECTID"},"geometryType":"esriGeometryPoint","spatialReference":{"wkid":102443,"latestWkid":3826},"fields":[{"name":"ID","type":"esriFieldTypeDouble","alias":"ID"},{"name":"DIS_CODE","type":"esriFieldTypeInteger","alias":"DIS_CODE"},{"name":"TOWNNAME","type":"esriFieldTypeString","alias":"TOWNNAME","length":8},{"name":"LI","type":"esriFieldTypeString","alias":"LI","length":8},{"name":"LIN","type":"esriFieldTypeString","alias":"LIN","length":12},{"name":"STREET","type":"esriFieldTypeString","alias":"STREET","length":20},{"name":"SECT","type":"esriFieldTypeString","alias":"SECT","length":8},{"name":"MAREA","type":"esriFieldTypeString","alias":"MAREA","length":12},{"name":"LANE","type":"esriFieldTypeString","alias":"LANE","length":10},{"name":"ALLEY","type":"esriFieldTypeString","alias":"ALLEY","length":10},{"name":"HOUSE_NO","type":"esriFieldTypeString","alias":"HOUSE_NO","length":20},{"name":"E_COORD97","type":"esriFieldTypeDouble","alias":"E_COORD97"},{"name":"N_COORD97","type":"esriFieldTypeDouble","alias":"N_COORD97"},{"name":"ADDRESS","type":"esriFieldTypeString","alias":"ADDRESS","length":50},{"name":"OBJECTID","type":"esriFieldTypeOID","alias":"OBJECTID"}],"features":[{"attributes":{"ID":531028,"DIS_CODE":0,"TOWNNAME":"北區","LI":"大港里","LIN":"33鄰","STREET":"大興街","SECT":" ","MAREA":" ","LANE":" ","ALLEY":" ","HOUSE_NO":"５６０號","E_COORD97":165950.10999999999,"N_COORD97":2545425,"ADDRESS":"大興街５６０號","OBJECTID":531001},"geometry":{"x":165950.11000000127,"y":2545425.0000000019}},{"attributes":{"ID":531029,"DIS_CODE":0,"TOWNNAME":"北區","LI":"大港里","LIN":"33鄰","STREET":"大興街","SECT":" ","MAREA":" ","LANE":" ","ALLEY":" ","HOUSE_NO":"５６２號","E_COORD97":165946.04000000001,"N_COORD97":2545423.4100000001,"ADDRESS":"大興街５６２號","OBJECTID":531002},"geometry":{"x":165946.04000000004,"y":2545423.410000002}},{"attributes":{"ID":531030,"DIS_CODE":0,"TOWNNAME":"北區","LI":"大港里","LIN":"33鄰","STREET":"大興街","SECT":" ","MAREA":" ","LANE":" ","ALLEY":" ","HOUSE_NO":"５６４號","E_COORD97":165942.98999999999,"N_COORD97":2545421.23,"ADDRESS":"大興街５６４號","OBJECTID":531003},"geometry":{"x":165942.99000000022,"y":2545421.2300000023}},{"attributes":{"ID":531031,"DIS_CODE":0,"TOWNNAME":"北區","LI":"大港里","LIN":"33鄰","STREET":"大興街","SECT":" ","MAREA":" ","LANE":" ","ALLEY":" ","HOUSE_NO":"５６６號","E_COORD97":165938.5,"N_COORD97":2545419.6200000001,"ADDRESS":"大興街５６６號","OBJECTID":531004},"geometry":{"x":165938.50000000093,"y":2545419.6200000029}},{"attributes":{"ID":531032,"DIS_CODE":0,"TOWNNAME":"北區","LI":"大港里","LIN":"33鄰","STREET":"大興街","SECT":" ","MAREA":" ","LANE":" ","ALLEY":" ","HOUSE_NO":"５６８號","E_COORD97":165934.38,"N_COORD97":2545417.3900000001,"ADDRESS":"大興街５６８號","OBJECTID":531005},"geometry":{"x":165934.38000000082,"y":2545417.3900000006}},{"attributes":{"ID":531033,"DIS_CODE":0,"TOWNNAME":"北區","LI":"大港里","LIN":"33鄰","STREET":"大興街","SECT":" ","MAREA":" ","LANE":" ","ALLEY":" ","HOUSE_NO":"５７０號","E_COORD97":165930.31,"N_COORD97":2545415.79,"ADDRESS":"大興街５７０號","OBJECTID":531006},"geometry":{"x":165930.30999999959,"y":2545415.790000001}},{"attributes":{"ID":531034,"DIS_CODE":0,"TOWNNAME":"北區","LI":"大港里","LIN":"33鄰","STREET":"大興街","SECT":" ","MAREA":" ","LANE":" ","ALLEY":" ","HOUSE_NO":"５７２號","E_COORD97":165926.03,"N_COORD97":2545413.7999999998,"ADDRESS":"大興街５７２號","OBJECTID":531007},"geometry":{"x":165926.03000000026,"y":2545413.8000000026}},{"attributes":{"ID":531035,"DIS_CODE":0,"TOWNNAME":"北區","LI":"大港里","LIN":"33鄰","STREET":"大興街","SECT":" ","MAREA":" ","LANE":" ","ALLEY":" ","HOUSE_NO":"５７４號","E_COORD97":165923.17999999999,"N_COORD97":2545412.3999999999,"ADDRESS":"大興街５７４號","OBJECTID":531008},"geometry":{"x":165923.17999999877,"y":2545412.4000000022}},{"attributes":{"ID":531036,"DIS_CODE":0,"TOWNNAME":"北區","LI":"大港里","LIN":"33鄰","STREET":"大興街","SECT":" ","MAREA":" ","LANE":" ","ALLEY":" ","HOUSE_NO":"５７６號","E_COORD97":165918.5,"N_COORD97":2545410.6099999999,"ADDRESS":"大興街５７６號","OBJECTID":531009},"geometry":{"x":165918.50000000093,"y":2545410.6100000013}},{"attributes":{"ID":531037,"DIS_CODE":0,"TOWNNAME":"北區","LI":"大港里","LIN":"33鄰","STREET":"大興街","SECT":" ","MAREA":" ","LANE":" ","ALLEY":" ","HOUSE_NO":"５７８號","E_COORD97":165914.82999999999,"N_COORD97":2545409.02,"ADDRESS":"大興街５７８號","OBJECTID":531010},"geometry":{"x":165914.83000000101,"y":2545409.0199999996}},{"attributes":{"ID":531038,"DIS_CODE":0,"TOWNNAME":"北區","LI":"大港里","LIN":"33鄰","STREET":"大興街","SECT":" ","MAREA":" ","LANE":" ","ALLEY":" ","HOUSE_NO":"５８０號","E_COORD97":165909.54999999999,"N_COORD97":2545407.1800000002,"ADDRESS":"大興街５８０號","OBJECTID":531011},"geometry":{"x":165909.55000000075,"y":2545407.1800000016}},{"attributes":{"ID":531039,"DIS_CODE":0,"TOWNNAME":"北區","LI":"大港里","LIN":"33鄰","STREET":"大興街","SECT":" ","MAREA":" ","LANE":" ","ALLEY":" ","HOUSE_NO":"５８２號","E_COORD97":165904.60999999999,"N_COORD97":2545403.9900000002,"ADDRESS":"大興街５８２號","OBJECTID":531012},"geometry":{"x":165904.61000000127,"y":2545403.9900000002}},{"attributes":{"ID":531040,"DIS_CODE":0,"TOWNNAME":"北區","LI":"大港里","LIN":"33鄰","STREET":"大興街","SECT":" ","MAREA":" ","LANE":" ","ALLEY":" ","HOUSE_NO":"５８４號","E_COORD97":165900.42999999999,"N_COORD97":2545402.8700000001,"ADDRESS":"大興街５８４號","OBJECTID":531013},"geometry":{"x":165900.4299999997,"y":2545402.8700000048}},{"attributes":{"ID":531041,"DIS_CODE":0,"TOWNNAME":"北區","LI":"大港里","LIN":"33鄰","STREET":"大興街","SECT":" ","MAREA":" ","LANE":" ","ALLEY":" ","HOUSE_NO":"５８６號","E_COORD97":165895.98999999999,"N_COORD97":2545399.75,"ADDRESS":"大興街５８６號","OBJECTID":531014},"geometry":{"x":165895.99000000022,"y":2545399.7500000019}},{"attributes":{"ID":531042,"DIS_CODE":0,"TOWNNAME":"北區","LI":"大港里","LIN":"33鄰","STREET":"大興街","SECT":" ","MAREA":" ","LANE":" ","ALLEY":" ","HOUSE_NO":"５８８號","E_COORD97":165892.32000000001,"N_COORD97":2545397.9100000001,"ADDRESS":"大興街５８８號","OBJECTID":531015},"geometry":{"x":165892.31999999937,"y":2545397.9099999983}},{"attributes":{"ID":531043,"DIS_CODE":0,"TOWNNAME":"北區","LI":"大港里","LIN":"33鄰","STREET":"大興街","SECT":" ","MAREA":" ","LANE":" ","ALLEY":" ","HOUSE_NO":"５９０號","E_COORD97":165888.23999999999,"N_COORD97":2545396.27,"ADDRESS":"大興街５９０號","OBJECTID":531016},"geometry":{"x":165888.24000000115,"y":2545396.2700000014}},{"attributes":{"ID":531044,"DIS_CODE":0,"TOWNNAME":"北區","LI":"大港里","LIN":"33鄰","STREET":"大興街","SECT":" ","MAREA":" ","LANE":" ","ALLEY":" ","HOUSE_NO":"５９２號","E_COORD97":165884.35999999999,"N_COORD97":2545394.3199999998,"ADDRESS":"大興街５９２號","OBJECTID":531017},"geometry":{"x":165884.36000000127,"y":2545394.3200000003}},{"attributes":{"ID":531045,"DIS_CODE":0,"TOWNNAME":"北區","LI":"大港里","LIN":"33鄰","STREET":"大興街","SECT":" ","MAREA":" ","LANE":" ","ALLEY":" ","HOUSE_NO":"５９４號","E_COORD97":165880.17000000001,"N_COORD97":2545392.4700000002,"ADDRESS":"大興街５９４號","OBJECTID":531018},"geometry":{"x":165880.17000000086,"y":2545392.4700000025}},{"attributes":{"ID":531046,"DIS_CODE":0,"TOWNNAME":"北區","LI":"大港里","LIN":"33鄰","STREET":"大興街","SECT":" ","MAREA":" ","LANE":" ","ALLEY":" ","HOUSE_NO":"５９６號","E_COORD97":165876.29000000001,"N_COORD97":2545390.52,"ADDRESS":"大興街５９６號","OBJECTID":531019},"geometry":{"x":165876.29000000004,"y":2545390.5200000014}},{"attributes":{"ID":531047,"DIS_CODE":0,"TOWNNAME":"北區","LI":"大港里","LIN":"33鄰","STREET":"大興街","SECT":" ","MAREA":" ","LANE":" ","ALLEY":" ","HOUSE_NO":"５９８號","E_COORD97":165872.62,"N_COORD97":2545389.0899999999,"ADDRESS":"大興街５９８號","OBJECTID":531020},"geometry":{"x":165872.62000000011,"y":2545389.0899999999}},{"attributes":{"ID":531048,"DIS_CODE":0,"TOWNNAME":"北區","LI":"大港里","LIN":"33鄰","STREET":"大興街","SECT":" ","MAREA":" ","LANE":" ","ALLEY":" ","HOUSE_NO":"６００號","E_COORD97":165868.25,"N_COORD97":2545389.3999999999,"ADDRESS":"大興街６００號","OBJECTID":531021},"geometry":{"x":165868.25,"y":2545389.4000000022}},{"attributes":{"ID":531049,"DIS_CODE":0,"TOWNNAME":"歸仁區","LI":"後市里","LIN":"33鄰","STREET":"民族北街","SECT":" ","MAREA":" ","LANE":" ","ALLEY":" ","HOUSE_NO":"８３號","E_COORD97":177443.03,"N_COORD97":2541062.75,"ADDRESS":"民族北街８３號","OBJECTID":531022},"geometry":{"x":177443.03000000026,"y":2541062.7500000037}},{"attributes":{"ID":531050,"DIS_CODE":0,"TOWNNAME":"歸仁區","LI":"南保里","LIN":"33鄰","STREET":"中山路","SECT":"三段","MAREA":" ","LANE":" ","ALLEY":" ","HOUSE_NO":"６８之１號","E_COORD97":176816.79999999999,"N_COORD97":2540889.21,"ADDRESS":"中山路三段６８之１號","OBJECTID":531023},"geometry":{"x":176816.79999999981,"y":2540889.2100000028}},{"attributes":{"ID":531051,"DIS_CODE":0,"TOWNNAME":"歸仁區","LI":"許厝里","LIN":"33鄰","STREET":"公園八街","SECT":" ","MAREA":" ","LANE":" ","ALLEY":" ","HOUSE_NO":"１之１號","E_COORD97":177870.29000000001,"N_COORD97":2540485.3599999999,"ADDRESS":"公園八街１之１號","OBJECTID":531024},"geometry":{"x":177870.29000000004,"y":2540485.3600000013}},{"attributes":{"ID":531052,"DIS_CODE":0,"TOWNNAME":"安平區","LI":"育平里","LIN":"33鄰","STREET":"永華路","SECT":"二段","MAREA":" ","LANE":" ","ALLEY":" ","HOUSE_NO":"１０８３號","E_COORD97":164413.66,"N_COORD97":2543585.6000000001,"ADDRESS":"永華路二段１０８３號","OBJECTID":531025},"geometry":{"x":164413.66000000108,"y":2543585.5999999978}},{"attributes":{"ID":531053,"DIS_CODE":0,"TOWNNAME":"安平區","LI":"育平里","LIN":"33鄰","STREET":"永華路","SECT":"二段","MAREA":" ","LANE":" ","ALLEY":" ","HOUSE_NO":"１０８５號","E_COORD97":164409.04999999999,"N_COORD97":2543585.6000000001,"ADDRESS":"永華路二段１０８５號","OBJECTID":531026},"geometry":{"x":164409.05000000075,"y":2543585.5999999978}},{"attributes":{"ID":531054,"DIS_CODE":0,"TOWNNAME":"安平區","LI":"育平里","LIN":"33鄰","STREET":"光州六街","SECT":" ","MAREA":" ","LANE":" ","ALLEY":" ","HOUSE_NO":"１６號","E_COORD97":164467.76000000001,"N_COORD97":2543546.27,"ADDRESS":"光州六街１６號","OBJECTID":531027},"geometry":{"x":164467.75999999978,"y":2543546.2699999996}},{"attributes":{"ID":531055,"DIS_CODE":0,"TOWNNAME":"安平區","LI":"育平里","LIN":"33鄰","STREET":"光州六街","SECT":" ","MAREA":" ","LANE":" ","ALLEY":" ","HOUSE_NO":"１６之１號","E_COORD97":164468.56,"N_COORD97":2543550.8700000001,"ADDRESS":"光州六街１６之１號","OBJECTID":531028},"geometry":{"x":164468.56000000052,"y":2543550.870000001}},{"attributes":{"ID":531056,"DIS_CODE":0,"TOWNNAME":"安平區","LI":"育平里","LIN":"33鄰","STREET":"光州六街","SECT":" ","MAREA":" ","LANE":" ","ALLEY":" ","HOUSE_NO":"１６之２號","E_COORD97":164467.95000000001,"N_COORD97":2543554.4199999999,"ADDRESS":"光州六街１６之２號","OBJECTID":531029},"geometry":{"x":164467.95000000112,"y":2543554.4200000018}},{"attributes":{"ID":531057,"DIS_CODE":0,"TOWNNAME":"安平區","LI":"育平里","LIN":"33鄰","STREET":"光州六街","SECT":" ","MAREA":" ","LANE":" ","ALLEY":" ","HOUSE_NO":"１６之３號","E_COORD97":164468.07999999999,"N_COORD97":2543559.0499999998,"ADDRESS":"光州六街１６之３號","OBJECTID":531030},"geometry":{"x":164468.07999999914,"y":2543559.0500000007}},{"attributes":{"ID":531058,"DIS_CODE":0,"TOWNNAME":"安平區","LI":"育平里","LIN":"33鄰","STREET":"光州六街","SECT":" ","MAREA":" ","LANE":" ","ALLEY":" ","HOUSE_NO":"１６之５號","E_COORD97":164461.41,"N_COORD97":2543546.8999999999,"ADDRESS":"光州六街１６之５號","OBJECTID":531031},"geometry":{"x":164461.41000000108,"y":2543546.9000000004}},{"attributes":{"ID":531059,"DIS_CODE":0,"TOWNNAME":"安平區","LI":"育平里","LIN":"33鄰","STREET":"光州六街","SECT":" ","MAREA":" ","LANE":" ","ALLEY":" ","HOUSE_NO":"１６之６號","E_COORD97":164461.73000000001,"N_COORD97":2543551.1099999999,"ADDRESS":"光州六街１６之６號","OBJECTID":531032},"geometry":{"x":164461.73000000045,"y":2543551.1099999994}},{"attributes":{"ID":531060,"DIS_CODE":0,"TOWNNAME":"安平區","LI":"育平里","LIN":"33鄰","STREET":"光州六街","SECT":" ","MAREA":" ","LANE":" ","ALLEY":" ","HOUSE_NO":"１６之７號","E_COORD97":164461.60000000001,"N_COORD97":2543554.29,"ADDRESS":"光州六街１６之７號","OBJECTID":531033},"geometry":{"x":164461.60000000056,"y":2543554.290000001}},{"attributes":{"ID":531061,"DIS_CODE":0,"TOWNNAME":"安平區","LI":"育平里","LIN":"33鄰","STREET":"光州六街","SECT":" ","MAREA":" ","LANE":" ","ALLEY":" ","HOUSE_NO":"１６之８號","E_COORD97":164461.85999999999,"N_COORD97":2543559.0499999998,"ADDRESS":"光州六街１６之８號","OBJECTID":531034},"geometry":{"x":164461.86000000127,"y":2543559.0500000007}},{"attributes":{"ID":531062,"DIS_CODE":0,"TOWNNAME":"安平區","LI":"育平里","LIN":"33鄰","STREET":"育平路","SECT":" ","MAREA":" ","LANE":" ","ALLEY":" ","HOUSE_NO":"２０３號","E_COORD97":164595.64000000001,"N_COORD97":2543471.8100000001,"ADDRESS":"育平路２０３號","OBJECTID":531035},"geometry":{"x":164595.63999999966,"y":2543471.8100000005}},{"attributes":{"ID":531063,"DIS_CODE":0,"TOWNNAME":"安南區","LI":"幸福里","LIN":"21鄰","STREET":"國安街","SECT":" ","MAREA":" ","LANE":" ","ALLEY":" ","HOUSE_NO":"１５７號","E_COORD97":166725.79999999999,"N_COORD97":2546917.5299999998,"ADDRESS":"國安街１５７號","OBJECTID":531036},"geometry":{"x":166725.79999999981,"y":2546917.5299999993}},{"attributes":{"ID":531064,"DIS_CODE":0,"TOWNNAME":"安南區","LI":"海東里","LIN":"21鄰","STREET":"海前路","SECT":" ","MAREA":" ","LANE":" ","ALLEY":" ","HOUSE_NO":"１１０號","E_COORD97":166721.48000000001,"N_COORD97":2547908.2799999998,"ADDRESS":"海前路１１０號","OBJECTID":531037},"geometry":{"x":166721.48000000045,"y":2547908.2800000012}},{"attributes":{"ID":531065,"DIS_CODE":0,"TOWNNAME":"東區","LI":"崇信里","LIN":"21鄰","STREET":"崇善一街","SECT":" ","MAREA":" ","LANE":" ","ALLEY":" ","HOUSE_NO":"１１６之１號","E_COORD97":170813.59,"N_COORD97":2542369.3399999999,"ADDRESS":"崇善一街１１６之１號","OBJECTID":531038},"geometry":{"x":170813.59000000078,"y":2542369.3399999999}},{"attributes":{"ID":531066,"DIS_CODE":0,"TOWNNAME":"東區","LI":"崇文里","LIN":"21鄰","STREET":"崇德二十一街","SECT":" ","MAREA":" ","LANE":" ","ALLEY":" ","HOUSE_NO":"３１號","E_COORD97":170893.51999999999,"N_COORD97":2540879.3199999998,"ADDRESS":"崇德二十一街３１號","OBJECTID":531039},"geometry":{"x":170893.52000000048,"y":2540879.3199999984}},{"attributes":{"ID":531067,"DIS_CODE":0,"TOWNNAME":"東區","LI":"關聖里","LIN":"21鄰","STREET":"裕和路","SECT":" ","MAREA":" ","LANE":" ","ALLEY":" ","HOUSE_NO":"３３８號","E_COORD97":172649.53,"N_COORD97":2543112.52,"ADDRESS":"裕和路３３８號","OBJECTID":531040},"geometry":{"x":172649.53000000026,"y":2543112.5200000014}},{"attributes":{"ID":531068,"DIS_CODE":0,"TOWNNAME":"東區","LI":"關聖里","LIN":"21鄰","STREET":"裕和路","SECT":" ","MAREA":" ","LANE":" ","ALLEY":" ","HOUSE_NO":"３４０號","E_COORD97":172658.25,"N_COORD97":2543112.96,"ADDRESS":"裕和路３４０號","OBJECTID":531041},"geometry":{"x":172658.25000000093,"y":2543112.9600000009}},{"attributes":{"ID":531069,"DIS_CODE":0,"TOWNNAME":"中西區","LI":"光賢里","LIN":"21鄰","STREET":"光賢街","SECT":" ","MAREA":" ","LANE":" ","ALLEY":" ","HOUSE_NO":"７３號","E_COORD97":166857.82999999999,"N_COORD97":2545087.6699999999,"ADDRESS":"光賢街７３號","OBJECTID":531042},"geometry":{"x":166857.83000000007,"y":2545087.6700000037}},{"attributes":{"ID":531070,"DIS_CODE":0,"TOWNNAME":"安南區","LI":"新順里","LIN":"21鄰","STREET":"育安一街","SECT":" ","MAREA":" ","LANE":" ","ALLEY":" ","HOUSE_NO":"３７之１號","E_COORD97":169336.76000000001,"N_COORD97":2549854.48,"ADDRESS":"育安一街３７之１號","OBJECTID":531043},"geometry":{"x":169336.75999999978,"y":2549854.4800000023}},{"attributes":{"ID":531071,"DIS_CODE":0,"TOWNNAME":"安平區","LI":"育平里","LIN":"21鄰","STREET":"郡平路","SECT":" ","MAREA":" ","LANE":" ","ALLEY":" ","HOUSE_NO":"１８８號四樓之４","E_COORD97":164649.25,"N_COORD97":2543341.9500000002,"ADDRESS":"郡平路１８８號四樓之４","OBJECTID":531044},"geometry":{"x":164649.25,"y":2543341.9499999993}},{"attributes":{"ID":531072,"DIS_CODE":0,"TOWNNAME":"安平區","LI":"建平里","LIN":"21鄰","STREET":"平通路","SECT":" ","MAREA":" ","LANE":" ","ALLEY":" ","HOUSE_NO":"１２８號五樓之４","E_COORD97":165922.42000000001,"N_COORD97":2543732.46,"ADDRESS":"平通路１２８號五樓之４","OBJECTID":531045},"geometry":{"x":165922.42000000086,"y":2543732.4600000009}},{"attributes":{"ID":531073,"DIS_CODE":0,"TOWNNAME":"北區","LI":"文元里","LIN":"21鄰","STREET":"海安路","SECT":"三段","MAREA":" ","LANE":" ","ALLEY":" ","HOUSE_NO":"７６１之１號","E_COORD97":168022.92000000001,"N_COORD97":2545935.9199999999,"ADDRESS":"海安路三段７６１之１號","OBJECTID":531046},"geometry":{"x":168022.92000000086,"y":2545935.9199999999}},{"attributes":{"ID":531074,"DIS_CODE":0,"TOWNNAME":"北區","LI":"成德里","LIN":"21鄰","STREET":"育成路","SECT":" ","MAREA":" ","LANE":" ","ALLEY":" ","HOUSE_NO":"１８８號","E_COORD97":168722.45000000001,"N_COORD97":2546518.3799999999,"ADDRESS":"育成路１８８號","OBJECTID":531047},"geometry":{"x":168722.45000000205,"y":2546518.379999999}},{"attributes":{"ID":531075,"DIS_CODE":0,"TOWNNAME":"中西區","LI":"光賢里","LIN":"21鄰","STREET":"育安四街","SECT":" ","MAREA":" ","LANE":" ","ALLEY":" ","HOUSE_NO":"１３６號","E_COORD97":169765.37,"N_COORD97":2549768.29,"ADDRESS":"育安四街１３６號","OBJECTID":531048},"geometry":{"x":169765.37000000197,"y":2549768.2900000028}},{"attributes":{"ID":531076,"DIS_CODE":0,"TOWNNAME":"安平區","LI":"文平里","LIN":"21鄰","STREET":"建平路","SECT":" ","MAREA":" ","LANE":" ","ALLEY":" ","HOUSE_NO":"１１７號","E_COORD97":166105.92999999999,"N_COORD97":2542936.7999999998,"ADDRESS":"建平路１１７號","OBJECTID":531049},"geometry":{"x":166105.9299999997,"y":2542936.8000000007}},{"attributes":{"ID":531077,"DIS_CODE":0,"TOWNNAME":"安南區","LI":"顯宮里","LIN":"3鄰","STREET":"科技五路","SECT":" ","MAREA":" ","LANE":" ","ALLEY":" ","HOUSE_NO":"３０號","E_COORD97":161882.12,"N_COORD97":2549199.5499999998,"ADDRESS":"科技五路３０號","OBJECTID":531050},"geometry":{"x":161882.12000000011,"y":2549199.5500000026}},{"attributes":{"ID":531078,"DIS_CODE":0,"TOWNNAME":"仁德區","LI":"新田里","LIN":"13鄰","STREET":"北保一街","SECT":" ","MAREA":" ","LANE":" ","ALLEY":" ","HOUSE_NO":"３號","E_COORD97":173263.20000000001,"N_COORD97":2539435.2400000002,"ADDRESS":"北保一街３號","OBJECTID":531051},"geometry":{"x":173263.20000000019,"y":2539435.2400000002}},{"attributes":{"ID":531079,"DIS_CODE":0,"TOWNNAME":"仁德區","LI":"一甲里","LIN":"17鄰","STREET":"中清路","SECT":" ","MAREA":" ","LANE":" ","ALLEY":" ","HOUSE_NO":"２３８號","E_COORD97":173750.82000000001,"N_COORD97":2541714.79,"ADDRESS":"中清路２３８號","OBJECTID":531052},"geometry":{"x":173750.8200000003,"y":2541714.7899999991}},{"attributes":{"ID":531080,"DIS_CODE":0,"TOWNNAME":"仁德區","LI":"仁德里","LIN":"14鄰","STREET":"四維街","SECT":" ","MAREA":" ","LANE":" ","ALLEY":" ","HOUSE_NO":"１４號","E_COORD97":173304.067003,"N_COORD97":2541537.0508400002,"ADDRESS":"四維街１４號","OBJECTID":531053},"geometry":{"x":173304.06700300053,"y":2541537.0508409999}},{"attributes":{"ID":531081,"DIS_CODE":0,"TOWNNAME":"仁德區","LI":"土庫里","LIN":"1鄰","STREET":"太乙十二街","SECT":" ","MAREA":" ","LANE":" ","ALLEY":" ","HOUSE_NO":"３１號","E_COORD97":173158.12,"N_COORD97":2542835.75,"ADDRESS":"太乙十二街３１號","OBJECTID":531054},"geometry":{"x":173158.12000000104,"y":2542835.7499999981}},{"attributes":{"ID":531082,"DIS_CODE":0,"TOWNNAME":"仁德區","LI":"仁義里","LIN":"13鄰","STREET":"中山路","SECT":" ","MAREA":" ","LANE":" ","ALLEY":" ","HOUSE_NO":"１１０號","E_COORD97":174676.42000000001,"N_COORD97":2541170.25,"ADDRESS":"中山路１１０號","OBJECTID":531055},"geometry":{"x":174676.42000000086,"y":2541170.25}},{"attributes":{"ID":531083,"DIS_CODE":0,"TOWNNAME":"仁德區","LI":"上崙里","LIN":"6鄰","STREET":"德南路","SECT":" ","MAREA":" ","LANE":" ","ALLEY":" ","HOUSE_NO":"４０３號","E_COORD97":173930.32000000001,"N_COORD97":2538235.77,"ADDRESS":"德南路４０３號","OBJECTID":531056},"geometry":{"x":173930.3200000003,"y":2538235.7700000014}},{"attributes":{"ID":531084,"DIS_CODE":0,"TOWNNAME":"仁德區","LI":"仁義里","LIN":"25鄰","STREET":"正義一街","SECT":" ","MAREA":" ","LANE":" ","ALLEY":" ","HOUSE_NO":"６１號","E_COORD97":173523.20000000001,"N_COORD97":2541384.0099999998,"ADDRESS":"正義一街６１號","OBJECTID":531057},"geometry":{"x":173523.20000000205,"y":2541384.0100000016}},{"attributes":{"ID":531085,"DIS_CODE":0,"TOWNNAME":"學甲區","LI":"仁得里","LIN":"1鄰","STREET":"公館路","SECT":" ","MAREA":" ","LANE":" ","ALLEY":" ","HOUSE_NO":"１４號","E_COORD97":166174.85999999999,"N_COORD97":2569676.4900000002,"ADDRESS":"公館路１４號","OBJECTID":531058},"geometry":{"x":166174.86000000034,"y":2569676.4900000021}},{"attributes":{"ID":531086,"DIS_CODE":0,"TOWNNAME":"學甲區","LI":"仁得里","LIN":"1鄰","STREET":"公館路","SECT":" ","MAREA":" ","LANE":" ","ALLEY":" ","HOUSE_NO":"２０號","E_COORD97":166175.67000000001,"N_COORD97":2569690.2200000002,"ADDRESS":"公館路２０號","OBJECTID":531059},"geometry":{"x":166175.66999999993,"y":2569690.2200000025}},{"attributes":{"ID":531087,"DIS_CODE":0,"TOWNNAME":"學甲區","LI":"仁得里","LIN":"1鄰","STREET":"公館路","SECT":" ","MAREA":" ","LANE":" ","ALLEY":" ","HOUSE_NO":"２１號","E_COORD97":166152.54000000001,"N_COORD97":2569688.0800000001,"ADDRESS":"公館路２１號","OBJECTID":531060},"geometry":{"x":166152.54000000097,"y":2569688.0800000001}},{"attributes":{"ID":531088,"DIS_CODE":0,"TOWNNAME":"學甲區","LI":"仁得里","LIN":"1鄰","STREET":"公館路","SECT":" ","MAREA":" ","LANE":" ","ALLEY":" ","HOUSE_NO":"２２號","E_COORD97":166178.35000000001,"N_COORD97":2569705.3300000001,"ADDRESS":"公館路２２號","OBJECTID":531061},"geometry":{"x":166178.35000000056,"y":2569705.3300000019}},{"attributes":{"ID":531089,"DIS_CODE":0,"TOWNNAME":"學甲區","LI":"仁得里","LIN":"1鄰","STREET":"公館路","SECT":" ","MAREA":" ","LANE":" ","ALLEY":" ","HOUSE_NO":"２３號","E_COORD97":166151.88,"N_COORD97":2569693.6099999999,"ADDRESS":"公館路２３號","OBJECTID":531062},"geometry":{"x":166151.87999999989,"y":2569693.6099999994}},{"attributes":{"ID":531090,"DIS_CODE":0,"TOWNNAME":"學甲區","LI":"仁得里","LIN":"1鄰","STREET":"公館路","SECT":" ","MAREA":" ","LANE":" ","ALLEY":" ","HOUSE_NO":"２４號","E_COORD97":166179.07000000001,"N_COORD97":2569712.4399999999,"ADDRESS":"公館路２４號","OBJECTID":531063},"geometry":{"x":166179.07000000123,"y":2569712.4399999995}},{"attributes":{"ID":531091,"DIS_CODE":0,"TOWNNAME":"仁德區","LI":"太子里","LIN":"29鄰","STREET":"大發路","SECT":" ","MAREA":" ","LANE":" ","ALLEY":" ","HOUSE_NO":"１６５號","E_COORD97":173242.17000000001,"N_COORD97":2543033.52,"ADDRESS":"大發路１６５號","OBJECTID":531064},"geometry":{"x":173242.17000000086,"y":2543033.5200000033}},{"attributes":{"ID":531092,"DIS_CODE":0,"TOWNNAME":"學甲區","LI":"仁得里","LIN":"1鄰","STREET":"公館路","SECT":" ","MAREA":" ","LANE":" ","ALLEY":" ","HOUSE_NO":"２５號","E_COORD97":166154.45999999999,"N_COORD97":2569708.1099999999,"ADDRESS":"公館路２５號","OBJECTID":531065},"geometry":{"x":166154.46000000089,"y":2569708.1099999975}},{"attributes":{"ID":531093,"DIS_CODE":0,"TOWNNAME":"學甲區","LI":"仁得里","LIN":"1鄰","STREET":"公館路","SECT":" ","MAREA":" ","LANE":" ","ALLEY":" ","HOUSE_NO":"２６號","E_COORD97":166179.59,"N_COORD97":2569716.6499999999,"ADDRESS":"公館路２６號","OBJECTID":531066},"geometry":{"x":166179.58999999985,"y":2569716.6500000022}},{"attributes":{"ID":531094,"DIS_CODE":0,"TOWNNAME":"學甲區","LI":"仁得里","LIN":"1鄰","STREET":"公館路","SECT":" ","MAREA":" ","LANE":" ","ALLEY":" ","HOUSE_NO":"２７號","E_COORD97":166155.48000000001,"N_COORD97":2569713.7400000002,"ADDRESS":"公館路２７號","OBJECTID":531067},"geometry":{"x":166155.48000000045,"y":2569713.7400000002}},{"attributes":{"ID":531095,"DIS_CODE":0,"TOWNNAME":"學甲區","LI":"仁得里","LIN":"1鄰","STREET":"公館路","SECT":" ","MAREA":" ","LANE":" ","ALLEY":" ","HOUSE_NO":"２８號","E_COORD97":166179.67999999999,"N_COORD97":2569720.7200000002,"ADDRESS":"公館路２８號","OBJECTID":531068},"geometry":{"x":166179.68000000063,"y":2569720.7200000025}},{"attributes":{"ID":531096,"DIS_CODE":0,"TOWNNAME":"仁德區","LI":"仁義里","LIN":"25鄰","STREET":"中山路","SECT":" ","MAREA":" ","LANE":" ","ALLEY":" ","HOUSE_NO":"４７０號","E_COORD97":173587.89999999999,"N_COORD97":2541312.4900000002,"ADDRESS":"中山路４７０號","OBJECTID":531069},"geometry":{"x":173587.90000000037,"y":2541312.4900000039}},{"attributes":{"ID":531097,"DIS_CODE":0,"TOWNNAME":"學甲區","LI":"仁得里","LIN":"1鄰","STREET":"公館路","SECT":" ","MAREA":" ","LANE":" ","ALLEY":" ","HOUSE_NO":"２９號","E_COORD97":166155.95000000001,"N_COORD97":2569718.1400000001,"ADDRESS":"公館路２９號","OBJECTID":531070},"geometry":{"x":166155.95000000205,"y":2569718.1400000006}},{"attributes":{"ID":531098,"DIS_CODE":0,"TOWNNAME":"學甲區","LI":"仁得里","LIN":"1鄰","STREET":"公館路","SECT":" ","MAREA":" ","LANE":" ","ALLEY":" ","HOUSE_NO":"３０號","E_COORD97":166179.92999999999,"N_COORD97":2569724.9700000002,"ADDRESS":"公館路３０號","OBJECTID":531071},"geometry":{"x":166179.93000000063,"y":2569724.9700000025}},{"attributes":{"ID":531099,"DIS_CODE":0,"TOWNNAME":"學甲區","LI":"仁得里","LIN":"1鄰","STREET":"公館路","SECT":" ","MAREA":" ","LANE":" ","ALLEY":" ","HOUSE_NO":"３１號","E_COORD97":166156.48999999999,"N_COORD97":2569722.23,"ADDRESS":"公館路３１號","OBJECTID":531072},"geometry":{"x":166156.49000000115,"y":2569722.2300000042}},{"attributes":{"ID":531100,"DIS_CODE":0,"TOWNNAME":"學甲區","LI":"仁得里","LIN":"1鄰","STREET":"公館路","SECT":" ","MAREA":" ","LANE":" ","ALLEY":" ","HOUSE_NO":"３２號","E_COORD97":166180.23000000001,"N_COORD97":2569729.6699999999,"ADDRESS":"公館路３２號","OBJECTID":531073},"geometry":{"x":166180.23000000138,"y":2569729.6700000018}},{"attributes":{"ID":531101,"DIS_CODE":0,"TOWNNAME":"學甲區","LI":"仁得里","LIN":"1鄰","STREET":"公館路","SECT":" ","MAREA":" ","LANE":" ","ALLEY":" ","HOUSE_NO":"３３號","E_COORD97":166157.51999999999,"N_COORD97":2569726.5299999998,"ADDRESS":"公館路３３號","OBJECTID":531074},"geometry":{"x":166157.51999999955,"y":2569726.5300000012}},{"attributes":{"ID":531102,"DIS_CODE":0,"TOWNNAME":"學甲區","LI":"仁得里","LIN":"1鄰","STREET":"公館路","SECT":" ","MAREA":" ","LANE":" ","ALLEY":" ","HOUSE_NO":"３４號","E_COORD97":166180.62,"N_COORD97":2569734.3599999999,"ADDRESS":"公館路３４號","OBJECTID":531075},"geometry":{"x":166180.62000000104,"y":2569734.3600000013}},{"attributes":{"ID":531103,"DIS_CODE":0,"TOWNNAME":"學甲區","LI":"仁得里","LIN":"1鄰","STREET":"公館路","SECT":" ","MAREA":" ","LANE":" ","ALLEY":" ","HOUSE_NO":"３５號","E_COORD97":166157.89999999999,"N_COORD97":2569731.3799999999,"ADDRESS":"公館路３５號","OBJECTID":531076},"geometry":{"x":166157.90000000037,"y":2569731.3800000008}},{"attributes":{"ID":531104,"DIS_CODE":0,"TOWNNAME":"學甲區","LI":"仁得里","LIN":"1鄰","STREET":"公館路","SECT":" ","MAREA":" ","LANE":" ","ALLEY":" ","HOUSE_NO":"６號","E_COORD97":166191.85000000001,"N_COORD97":2569662.8599999999,"ADDRESS":"公館路６號","OBJECTID":531077},"geometry":{"x":166191.85000000056,"y":2569662.8600000031}},{"attributes":{"ID":531105,"DIS_CODE":0,"TOWNNAME":"學甲區","LI":"仁得里","LIN":"1鄰","STREET":"公館路","SECT":" ","MAREA":" ","LANE":" ","ALLEY":" ","HOUSE_NO":"７４號","E_COORD97":166188.22,"N_COORD97":2569804.04,"ADDRESS":"公館路７４號","OBJECTID":531078},"geometry":{"x":166188.22000000067,"y":2569804.040000001}},{"attributes":{"ID":531106,"DIS_CODE":0,"TOWNNAME":"學甲區","LI":"仁得里","LIN":"1鄰","STREET":"公館路","SECT":" ","MAREA":" ","LANE":" ","ALLEY":" ","HOUSE_NO":"１０號","E_COORD97":166174.19,"N_COORD97":2569666.5699999998,"ADDRESS":"公館路１０號","OBJECTID":531079},"geometry":{"x":166174.19000000041,"y":2569666.5700000022}},{"attributes":{"ID":531107,"DIS_CODE":0,"TOWNNAME":"學甲區","LI":"仁得里","LIN":"1鄰","STREET":"公館路","SECT":" ","MAREA":" ","LANE":" ","ALLEY":" ","HOUSE_NO":"１１１號","E_COORD97":166160.91,"N_COORD97":2569775.8500000001,"ADDRESS":"公館路１１１號","OBJECTID":531080},"geometry":{"x":166160.91000000015,"y":2569775.8500000015}},{"attributes":{"ID":531108,"DIS_CODE":0,"TOWNNAME":"學甲區","LI":"仁得里","LIN":"1鄰","STREET":"公館路","SECT":" ","MAREA":" ","LANE":" ","ALLEY":" ","HOUSE_NO":"１１２號","E_COORD97":166206.64999999999,"N_COORD97":2570032.25,"ADDRESS":"公館路１１２號","OBJECTID":531081},"geometry":{"x":166206.65000000037,"y":2570032.25}},{"attributes":{"ID":531109,"DIS_CODE":0,"TOWNNAME":"學甲區","LI":"仁得里","LIN":"1鄰","STREET":"公館路","SECT":" ","MAREA":" ","LANE":" ","ALLEY":" ","HOUSE_NO":"１１３號","E_COORD97":166161.38,"N_COORD97":2569781.27,"ADDRESS":"公館路１１３號","OBJECTID":531082},"geometry":{"x":166161.38000000082,"y":2569781.2699999996}},{"attributes":{"ID":531110,"DIS_CODE":0,"TOWNNAME":"學甲區","LI":"仁得里","LIN":"1鄰","STREET":"公館路","SECT":" ","MAREA":" ","LANE":" ","ALLEY":" ","HOUSE_NO":"１１５號","E_COORD97":166162.32999999999,"N_COORD97":2569785.1299999999,"ADDRESS":"公館路１１５號","OBJECTID":531083},"geometry":{"x":166162.33000000101,"y":2569785.129999999}},{"attributes":{"ID":531111,"DIS_CODE":0,"TOWNNAME":"學甲區","LI":"仁得里","LIN":"1鄰","STREET":"公館路","SECT":" ","MAREA":" ","LANE":" ","ALLEY":" ","HOUSE_NO":"１１７號","E_COORD97":166161.89999999999,"N_COORD97":2569789.3999999999,"ADDRESS":"公館路１１７號","OBJECTID":531084},"geometry":{"x":166161.9000000013,"y":2569789.4000000022}},{"attributes":{"ID":531112,"DIS_CODE":0,"TOWNNAME":"學甲區","LI":"仁得里","LIN":"1鄰","STREET":"公館路","SECT":" ","MAREA":" ","LANE":" ","ALLEY":" ","HOUSE_NO":"１１９號","E_COORD97":166162.42999999999,"N_COORD97":2569793.71,"ADDRESS":"公館路１１９號","OBJECTID":531085},"geometry":{"x":166162.43000000063,"y":2569793.7100000009}},{"attributes":{"ID":531113,"DIS_CODE":0,"TOWNNAME":"學甲區","LI":"仁得里","LIN":"1鄰","STREET":"公館路","SECT":" ","MAREA":" ","LANE":" ","ALLEY":" ","HOUSE_NO":"１１號","E_COORD97":166148.89000000001,"N_COORD97":2569663.5600000001,"ADDRESS":"公館路１１號","OBJECTID":531086},"geometry":{"x":166148.89000000153,"y":2569663.5600000024}},{"attributes":{"ID":531114,"DIS_CODE":0,"TOWNNAME":"學甲區","LI":"仁得里","LIN":"1鄰","STREET":"公館路","SECT":" ","MAREA":" ","LANE":" ","ALLEY":" ","HOUSE_NO":"１２０號","E_COORD97":166218.39999999999,"N_COORD97":2570049.4900000002,"ADDRESS":"公館路１２０號","OBJECTID":531087},"geometry":{"x":166218.40000000037,"y":2570049.4900000021}},{"attributes":{"ID":531115,"DIS_CODE":0,"TOWNNAME":"學甲區","LI":"仁得里","LIN":"1鄰","STREET":"公館路","SECT":" ","MAREA":" ","LANE":" ","ALLEY":" ","HOUSE_NO":"１２１號","E_COORD97":166162.79000000001,"N_COORD97":2569798.0699999998,"ADDRESS":"公館路１２１號","OBJECTID":531088},"geometry":{"x":166162.79000000004,"y":2569798.0700000022}},{"attributes":{"ID":531116,"DIS_CODE":0,"TOWNNAME":"學甲區","LI":"仁得里","LIN":"1鄰","STREET":"公館路","SECT":" ","MAREA":" ","LANE":" ","ALLEY":" ","HOUSE_NO":"１２３號","E_COORD97":166163.64999999999,"N_COORD97":2569802.9399999999,"ADDRESS":"公館路１２３號","OBJECTID":531089},"geometry":{"x":166163.6500000013,"y":2569802.9399999995}},{"attributes":{"ID":531117,"DIS_CODE":0,"TOWNNAME":"學甲區","LI":"仁得里","LIN":"1鄰","STREET":"公館路","SECT":" ","MAREA":" ","LANE":" ","ALLEY":" ","HOUSE_NO":"１２號","E_COORD97":166174.56,"N_COORD97":2569671.2799999998,"ADDRESS":"公館路１２號","OBJECTID":531090},"geometry":{"x":166174.55999999959,"y":2569671.2800000012}},{"attributes":{"ID":531118,"DIS_CODE":0,"TOWNNAME":"學甲區","LI":"仁得里","LIN":"1鄰","STREET":"公館路","SECT":" ","MAREA":" ","LANE":" ","ALLEY":" ","HOUSE_NO":"１３２號","E_COORD97":166216.14999999999,"N_COORD97":2570094.5699999998,"ADDRESS":"公館路１３２號","OBJECTID":531091},"geometry":{"x":166216.1500000013,"y":2570094.5700000003}},{"attributes":{"ID":531119,"DIS_CODE":0,"TOWNNAME":"學甲區","LI":"仁得里","LIN":"1鄰","STREET":"公館路","SECT":" ","MAREA":" ","LANE":" ","ALLEY":" ","HOUSE_NO":"１３號","E_COORD97":166149.57000000001,"N_COORD97":2569668.21,"ADDRESS":"公館路１３號","OBJECTID":531092},"geometry":{"x":166149.5700000003,"y":2569668.2100000009}},{"attributes":{"ID":531120,"DIS_CODE":0,"TOWNNAME":"學甲區","LI":"仁得里","LIN":"1鄰","STREET":"公館路","SECT":" ","MAREA":" ","LANE":" ","ALLEY":" ","HOUSE_NO":"１９號","E_COORD97":166151.89000000001,"N_COORD97":2569682.6299999999,"ADDRESS":"公館路１９號","OBJECTID":531093},"geometry":{"x":166151.88999999966,"y":2569682.629999999}},{"attributes":{"ID":531121,"DIS_CODE":0,"TOWNNAME":"學甲區","LI":"仁得里","LIN":"1鄰","STREET":"公館路","SECT":" ","MAREA":" ","LANE":" ","ALLEY":" ","HOUSE_NO":"１４９號","E_COORD97":166174.42000000001,"N_COORD97":2569904.4399999999,"ADDRESS":"公館路１４９號","OBJECTID":531094},"geometry":{"x":166174.42000000179,"y":2569904.4400000013}},{"attributes":{"ID":531122,"DIS_CODE":0,"TOWNNAME":"學甲區","LI":"仁得里","LIN":"1鄰","STREET":"公館路","SECT":" ","MAREA":" ","LANE":" ","ALLEY":" ","HOUSE_NO":"１５１號","E_COORD97":166176.88,"N_COORD97":2569932.1299999999,"ADDRESS":"公館路１５１號","OBJECTID":531095},"geometry":{"x":166176.88000000082,"y":2569932.1300000008}},{"attributes":{"ID":531123,"DIS_CODE":0,"TOWNNAME":"學甲區","LI":"仁得里","LIN":"1鄰","STREET":"公館路","SECT":" ","MAREA":" ","LANE":" ","ALLEY":" ","HOUSE_NO":"１５３號","E_COORD97":166176.66,"N_COORD97":2569945.3300000001,"ADDRESS":"公館路１５３號","OBJECTID":531096},"geometry":{"x":166176.66000000108,"y":2569945.3300000019}},{"attributes":{"ID":531124,"DIS_CODE":0,"TOWNNAME":"學甲區","LI":"仁得里","LIN":"1鄰","STREET":"公館路","SECT":" ","MAREA":" ","LANE":" ","ALLEY":" ","HOUSE_NO":"１５５號","E_COORD97":166176.60999999999,"N_COORD97":2569949.9399999999,"ADDRESS":"公館路１５５號","OBJECTID":531097},"geometry":{"x":166176.61000000034,"y":2569949.9399999995}},{"attributes":{"ID":531125,"DIS_CODE":0,"TOWNNAME":"學甲區","LI":"仁得里","LIN":"1鄰","STREET":"公館路","SECT":" ","MAREA":" ","LANE":" ","ALLEY":" ","HOUSE_NO":"１５７號","E_COORD97":166176.85999999999,"N_COORD97":2569954.4100000001,"ADDRESS":"公館路１５７號","OBJECTID":531098},"geometry":{"x":166176.8599999994,"y":2569954.4099999983}},{"attributes":{"ID":531126,"DIS_CODE":0,"TOWNNAME":"學甲區","LI":"仁得里","LIN":"1鄰","STREET":"公館路","SECT":" ","MAREA":" ","LANE":" ","ALLEY":" ","HOUSE_NO":"１５９號","E_COORD97":166177.16,"N_COORD97":2569959.0099999998,"ADDRESS":"公館路１５９號","OBJECTID":531099},"geometry":{"x":166177.16000000108,"y":2569959.0099999998}},{"attributes":{"ID":531127,"DIS_CODE":0,"TOWNNAME":"學甲區","LI":"仁得里","LIN":"1鄰","STREET":"公館路","SECT":" ","MAREA":" ","LANE":" ","ALLEY":" ","HOUSE_NO":"１５號","E_COORD97":166149.98000000001,"N_COORD97":2569673.3500000001,"ADDRESS":"公館路１５號","OBJECTID":531100},"geometry":{"x":166149.98000000138,"y":2569673.3500000034}},{"attributes":{"ID":531128,"DIS_CODE":0,"TOWNNAME":"學甲區","LI":"仁得里","LIN":"1鄰","STREET":"公館路","SECT":" ","MAREA":" ","LANE":" ","ALLEY":" ","HOUSE_NO":"１６１號","E_COORD97":166178.26999999999,"N_COORD97":2569963.8599999999,"ADDRESS":"公館路１６１號","OBJECTID":531101},"geometry":{"x":166178.26999999955,"y":2569963.8599999994}},{"attributes":{"ID":531129,"DIS_CODE":0,"TOWNNAME":"學甲區","LI":"仁得里","LIN":"1鄰","STREET":"公館路","SECT":" ","MAREA":" ","LANE":" ","ALLEY":" ","HOUSE_NO":"１６３號","E_COORD97":166178.44,"N_COORD97":2569968.2799999998,"ADDRESS":"公館路１６３號","OBJECTID":531102},"geometry":{"x":166178.44000000134,"y":2569968.2800000031}},{"attributes":{"ID":531130,"DIS_CODE":0,"TOWNNAME":"學甲區","LI":"仁得里","LIN":"1鄰","STREET":"公館路","SECT":" ","MAREA":" ","LANE":" ","ALLEY":" ","HOUSE_NO":"１６５號","E_COORD97":166179.20000000001,"N_COORD97":2569972.73,"ADDRESS":"公館路１６５號","OBJECTID":531103},"geometry":{"x":166179.20000000019,"y":2569972.7300000004}},{"attributes":{"ID":531131,"DIS_CODE":0,"TOWNNAME":"學甲區","LI":"仁得里","LIN":"1鄰","STREET":"公館路","SECT":" ","MAREA":" ","LANE":" ","ALLEY":" ","HOUSE_NO":"１６７號","E_COORD97":166179.79999999999,"N_COORD97":2569977.3300000001,"ADDRESS":"公館路１６７號","OBJECTID":531104},"geometry":{"x":166179.79999999981,"y":2569977.3300000001}},{"attributes":{"ID":531132,"DIS_CODE":0,"TOWNNAME":"學甲區","LI":"仁得里","LIN":"1鄰","STREET":"公館路","SECT":" ","MAREA":" ","LANE":" ","ALLEY":" ","HOUSE_NO":"１６９號","E_COORD97":166185.85999999999,"N_COORD97":2570018.5099999998,"ADDRESS":"公館路１６９號","OBJECTID":531105},"geometry":{"x":166185.86000000127,"y":2570018.5100000016}},{"attributes":{"ID":531133,"DIS_CODE":0,"TOWNNAME":"學甲區","LI":"仁得里","LIN":"1鄰","STREET":"公館路","SECT":" ","MAREA":" ","LANE":" ","ALLEY":" ","HOUSE_NO":"１６號","E_COORD97":166175.29000000001,"N_COORD97":2569681.1800000002,"ADDRESS":"公館路１６號","OBJECTID":531106},"geometry":{"x":166175.29000000004,"y":2569681.1800000034}},{"attributes":{"ID":531134,"DIS_CODE":0,"TOWNNAME":"學甲區","LI":"仁得里","LIN":"1鄰","STREET":"公館路","SECT":" ","MAREA":" ","LANE":" ","ALLEY":" ","HOUSE_NO":"１７１號","E_COORD97":166185.14000000001,"N_COORD97":2570034.02,"ADDRESS":"公館路１７１號","OBJECTID":531107},"geometry":{"x":166185.1400000006,"y":2570034.0199999996}},{"attributes":{"ID":531135,"DIS_CODE":0,"TOWNNAME":"學甲區","LI":"仁得里","LIN":"1鄰","STREET":"公館路","SECT":" ","MAREA":" ","LANE":" ","ALLEY":" ","HOUSE_NO":"１７３號","E_COORD97":166185.51000000001,"N_COORD97":2570038.27,"ADDRESS":"公館路１７３號","OBJECTID":531108},"geometry":{"x":166185.51000000164,"y":2570038.2699999996}},{"attributes":{"ID":531136,"DIS_CODE":0,"TOWNNAME":"學甲區","LI":"仁得里","LIN":"1鄰","STREET":"公館路","SECT":" ","MAREA":" ","LANE":" ","ALLEY":" ","HOUSE_NO":"１７５號","E_COORD97":166185.92000000001,"N_COORD97":2570043.23,"ADDRESS":"公館路１７５號","OBJECTID":531109},"geometry":{"x":166185.91999999993,"y":2570043.2300000004}},{"attributes":{"ID":531137,"DIS_CODE":0,"TOWNNAME":"學甲區","LI":"仁得里","LIN":"1鄰","STREET":"公館路","SECT":" ","MAREA":" ","LANE":" ","ALLEY":" ","HOUSE_NO":"１７７號","E_COORD97":166186.28,"N_COORD97":2570047.6899999999,"ADDRESS":"公館路１７７號","OBJECTID":531110},"geometry":{"x":166186.28000000119,"y":2570047.6900000013}},{"attributes":{"ID":531138,"DIS_CODE":0,"TOWNNAME":"學甲區","LI":"仁得里","LIN":"1鄰","STREET":"公館路","SECT":" ","MAREA":" ","LANE":" ","ALLEY":" ","HOUSE_NO":"１７號","E_COORD97":166151.10000000001,"N_COORD97":2569678,"ADDRESS":"公館路１７號","OBJECTID":531111},"geometry":{"x":166151.10000000056,"y":2569678}},{"attributes":{"ID":531139,"DIS_CODE":0,"TOWNNAME":"學甲區","LI":"仁得里","LIN":"1鄰","STREET":"公館路","SECT":" ","MAREA":" ","LANE":" ","ALLEY":" ","HOUSE_NO":"１８１號","E_COORD97":166189.72,"N_COORD97":2570056.04,"ADDRESS":"公館路１８１號","OBJECTID":531112},"geometry":{"x":166189.72000000067,"y":2570056.040000001}},{"attributes":{"ID":531140,"DIS_CODE":0,"TOWNNAME":"學甲區","LI":"仁得里","LIN":"1鄰","STREET":"公館路","SECT":" ","MAREA":" ","LANE":" ","ALLEY":" ","HOUSE_NO":"１８３號","E_COORD97":166189.82999999999,"N_COORD97":2570060.1899999999,"ADDRESS":"公館路１８３號","OBJECTID":531113},"geometry":{"x":166189.83000000007,"y":2570060.1899999995}},{"attributes":{"ID":531141,"DIS_CODE":0,"TOWNNAME":"學甲區","LI":"仁得里","LIN":"1鄰","STREET":"公館路","SECT":" ","MAREA":" ","LANE":" ","ALLEY":" ","HOUSE_NO":"１８５號","E_COORD97":166190.22,"N_COORD97":2570063.8599999999,"ADDRESS":"公館路１８５號","OBJECTID":531114},"geometry":{"x":166190.21999999974,"y":2570063.8600000013}},{"attributes":{"ID":531142,"DIS_CODE":0,"TOWNNAME":"學甲區","LI":"仁得里","LIN":"1鄰","STREET":"公館路","SECT":" ","MAREA":" ","LANE":" ","ALLEY":" ","HOUSE_NO":"１８７號","E_COORD97":166190.51000000001,"N_COORD97":2570068.3300000001,"ADDRESS":"公館路１８７號","OBJECTID":531115},"geometry":{"x":166190.50999999885,"y":2570068.3300000019}},{"attributes":{"ID":531143,"DIS_CODE":0,"TOWNNAME":"學甲區","LI":"仁得里","LIN":"1鄰","STREET":"公館路","SECT":" ","MAREA":" ","LANE":" ","ALLEY":" ","HOUSE_NO":"１８號","E_COORD97":166175.29000000001,"N_COORD97":2569685.7400000002,"ADDRESS":"公館路１８號","OBJECTID":531116},"geometry":{"x":166175.29000000004,"y":2569685.7400000021}},{"attributes":{"ID":531144,"DIS_CODE":0,"TOWNNAME":"學甲區","LI":"仁得里","LIN":"1鄰","STREET":"公館路","SECT":" ","MAREA":" ","LANE":" ","ALLEY":" ","HOUSE_NO":"７６號","E_COORD97":166188.48000000001,"N_COORD97":2569808,"ADDRESS":"公館路７６號","OBJECTID":531117},"geometry":{"x":166188.48000000138,"y":2569808.0000000037}},{"attributes":{"ID":531145,"DIS_CODE":0,"TOWNNAME":"學甲區","LI":"仁得里","LIN":"1鄰","STREET":"公館路","SECT":" ","MAREA":" ","LANE":" ","ALLEY":" ","HOUSE_NO":"７８號","E_COORD97":166188.48999999999,"N_COORD97":2569812.2000000002,"ADDRESS":"公館路７８號","OBJECTID":531118},"geometry":{"x":166188.49000000115,"y":2569812.1999999993}},{"attributes":{"ID":531146,"DIS_CODE":0,"TOWNNAME":"學甲區","LI":"仁得里","LIN":"1鄰","STREET":"公館路","SECT":" ","MAREA":" ","LANE":" ","ALLEY":" ","HOUSE_NO":"８０號","E_COORD97":166189.04000000001,"N_COORD97":2569815.9500000002,"ADDRESS":"公館路８０號","OBJECTID":531119},"geometry":{"x":166189.0400000019,"y":2569815.9500000011}},{"attributes":{"ID":531147,"DIS_CODE":0,"TOWNNAME":"學甲區","LI":"仁得里","LIN":"1鄰","STREET":"公館路","SECT":" ","MAREA":" ","LANE":" ","ALLEY":" ","HOUSE_NO":"８號","E_COORD97":166173.94,"N_COORD97":2569661.73,"ADDRESS":"公館路８號","OBJECTID":531120},"geometry":{"x":166173.94000000134,"y":2569661.7300000023}},{"attributes":{"ID":531148,"DIS_CODE":0,"TOWNNAME":"學甲區","LI":"仁得里","LIN":"1鄰","STREET":"公館路","SECT":" ","MAREA":" ","LANE":" ","ALLEY":" ","HOUSE_NO":"６號二樓之１","E_COORD97":166191.85000000001,"N_COORD97":2569662.8599999999,"ADDRESS":"公館路６號二樓之１","OBJECTID":531121},"geometry":{"x":166191.85000000056,"y":2569662.8600000031}},{"attributes":{"ID":531149,"DIS_CODE":0,"TOWNNAME":"學甲區","LI":"仁得里","LIN":"1鄰","STREET":"公館路","SECT":" ","MAREA":" ","LANE":" ","ALLEY":" ","HOUSE_NO":"６號二樓之２","E_COORD97":166191.85000000001,"N_COORD97":2569662.8599999999,"ADDRESS":"公館路６號二樓之２","OBJECTID":531122},"geometry":{"x":166191.85000000056,"y":2569662.8600000031}},{"attributes":{"ID":531150,"DIS_CODE":0,"TOWNNAME":"學甲區","LI":"仁得里","LIN":"1鄰","STREET":"公館路","SECT":" ","MAREA":" ","LANE":" ","ALLEY":" ","HOUSE_NO":"６號三樓之１","E_COORD97":166191.85000000001,"N_COORD97":2569662.8599999999,"ADDRESS":"公館路６號三樓之１","OBJECTID":531123},"geometry":{"x":166191.85000000056,"y":2569662.8600000031}},{"attributes":{"ID":531151,"DIS_CODE":0,"TOWNNAME":"學甲區","LI":"仁得里","LIN":"1鄰","STREET":"公館路","SECT":" ","MAREA":" ","LANE":" ","ALLEY":" ","HOUSE_NO":"６號三樓之２","E_COORD97":166191.85000000001,"N_COORD97":2569662.8599999999,"ADDRESS":"公館路６號三樓之２","OBJECTID":531124},"geometry":{"x":166191.85000000056,"y":2569662.8600000031}},{"attributes":{"ID":531152,"DIS_CODE":0,"TOWNNAME":"學甲區","LI":"仁得里","LIN":"1鄰","STREET":"公館路","SECT":" ","MAREA":" ","LANE":" ","ALLEY":" ","HOUSE_NO":"６號五樓之１","E_COORD97":166191.85000000001,"N_COORD97":2569662.8599999999,"ADDRESS":"公館路６號五樓之１","OBJECTID":531125},"geometry":{"x":166191.85000000056,"y":2569662.8600000031}},{"attributes":{"ID":531153,"DIS_CODE":0,"TOWNNAME":"學甲區","LI":"仁得里","LIN":"1鄰","STREET":"公館路","SECT":" ","MAREA":" ","LANE":" ","ALLEY":" ","HOUSE_NO":"６號五樓之２","E_COORD97":166191.85000000001,"N_COORD97":2569662.8599999999,"ADDRESS":"公館路６號五樓之２","OBJECTID":531126},"geometry":{"x":166191.85000000056,"y":2569662.8600000031}},{"attributes":{"ID":531154,"DIS_CODE":0,"TOWNNAME":"學甲區","LI":"仁得里","LIN":"1鄰","STREET":"公館路","SECT":" ","MAREA":" ","LANE":" ","ALLEY":" ","HOUSE_NO":"６號四樓之１","E_COORD97":166191.85000000001,"N_COORD97":2569662.8599999999,"ADDRESS":"公館路６號四樓之１","OBJECTID":531127},"geometry":{"x":166191.85000000056,"y":2569662.8600000031}},{"attributes":{"ID":531155,"DIS_CODE":0,"TOWNNAME":"學甲區","LI":"仁得里","LIN":"1鄰","STREET":"公館路","SECT":" ","MAREA":" ","LANE":" ","ALLEY":" ","HOUSE_NO":"６號四樓之２","E_COORD97":166191.85000000001,"N_COORD97":2569662.8599999999,"ADDRESS":"公館路６號四樓之２","OBJECTID":531128},"geometry":{"x":166191.85000000056,"y":2569662.8600000031}},{"attributes":{"ID":531156,"DIS_CODE":0,"TOWNNAME":"學甲區","LI":"仁得里","LIN":"1鄰","STREET":"公館路","SECT":" ","MAREA":" ","LANE":" ","ALLEY":" ","HOUSE_NO":"９號一樓","E_COORD97":166133.54000000001,"N_COORD97":2569668.4199999999,"ADDRESS":"公館路９號一樓","OBJECTID":531129},"geometry":{"x":166133.54000000097,"y":2569668.4199999999}},{"attributes":{"ID":531157,"DIS_CODE":0,"TOWNNAME":"學甲區","LI":"仁得里","LIN":"1鄰","STREET":"公館路","SECT":" ","MAREA":" ","LANE":" ","ALLEY":" ","HOUSE_NO":"９號二樓之１","E_COORD97":166133.54000000001,"N_COORD97":2569668.4199999999,"ADDRESS":"公館路９號二樓之１","OBJECTID":531130},"geometry":{"x":166133.54000000097,"y":2569668.4199999999}},{"attributes":{"ID":531158,"DIS_CODE":0,"TOWNNAME":"學甲區","LI":"仁得里","LIN":"1鄰","STREET":"公館路","SECT":" ","MAREA":" ","LANE":" ","ALLEY":" ","HOUSE_NO":"９號二樓之２","E_COORD97":166133.54000000001,"N_COORD97":2569668.4199999999,"ADDRESS":"公館路９號二樓之２","OBJECTID":531131},"geometry":{"x":166133.54000000097,"y":2569668.4199999999}},{"attributes":{"ID":531159,"DIS_CODE":0,"TOWNNAME":"學甲區","LI":"仁得里","LIN":"1鄰","STREET":"公館路","SECT":" ","MAREA":" ","LANE":" ","ALLEY":" ","HOUSE_NO":"９號三樓之１","E_COORD97":166133.54000000001,"N_COORD97":2569668.4199999999,"ADDRESS":"公館路９號三樓之１","OBJECTID":531132},"geometry":{"x":166133.54000000097,"y":2569668.4199999999}},{"attributes":{"ID":531160,"DIS_CODE":0,"TOWNNAME":"學甲區","LI":"仁得里","LIN":"1鄰","STREET":"公館路","SECT":" ","MAREA":" ","LANE":" ","ALLEY":" ","HOUSE_NO":"９號三樓之２","E_COORD97":166133.54000000001,"N_COORD97":2569668.4199999999,"ADDRESS":"公館路９號三樓之２","OBJECTID":531133},"geometry":{"x":166133.54000000097,"y":2569668.4199999999}},{"attributes":{"ID":531161,"DIS_CODE":0,"TOWNNAME":"學甲區","LI":"仁得里","LIN":"1鄰","STREET":"公館路","SECT":" ","MAREA":" ","LANE":" ","ALLEY":" ","HOUSE_NO":"９號五樓之１","E_COORD97":166133.54000000001,"N_COORD97":2569668.4199999999,"ADDRESS":"公館路９號五樓之１","OBJECTID":531134},"geometry":{"x":166133.54000000097,"y":2569668.4199999999}},{"attributes":{"ID":531162,"DIS_CODE":0,"TOWNNAME":"學甲區","LI":"仁得里","LIN":"1鄰","STREET":"公館路","SECT":" ","MAREA":" ","LANE":" ","ALLEY":" ","HOUSE_NO":"９號五樓之２","E_COORD97":166133.54000000001,"N_COORD97":2569668.4199999999,"ADDRESS":"公館路９號五樓之２","OBJECTID":531135},"geometry":{"x":166133.54000000097,"y":2569668.4199999999}},{"attributes":{"ID":531163,"DIS_CODE":0,"TOWNNAME":"學甲區","LI":"仁得里","LIN":"1鄰","STREET":"公館路","SECT":" ","MAREA":" ","LANE":" ","ALLEY":" ","HOUSE_NO":"９號四樓之１","E_COORD97":166133.54000000001,"N_COORD97":2569668.4199999999,"ADDRESS":"公館路９號四樓之１","OBJECTID":531136},"geometry":{"x":166133.54000000097,"y":2569668.4199999999}},{"attributes":{"ID":531164,"DIS_CODE":0,"TOWNNAME":"學甲區","LI":"仁得里","LIN":"1鄰","STREET":"公館路","SECT":" ","MAREA":" ","LANE":" ","ALLEY":" ","HOUSE_NO":"９號四樓之２","E_COORD97":166133.54000000001,"N_COORD97":2569668.4199999999,"ADDRESS":"公館路９號四樓之２","OBJECTID":531137},"geometry":{"x":166133.54000000097,"y":2569668.4199999999}},{"attributes":{"ID":531165,"DIS_CODE":0,"TOWNNAME":"鹽水區","LI":"水正里","LIN":"14鄰","STREET":"康樂路","SECT":" ","MAREA":" ","LANE":" ","ALLEY":" ","HOUSE_NO":"４號","E_COORD97":175076.06,"N_COORD97":2579626.1899999999,"ADDRESS":"康樂路４號","OBJECTID":531138},"geometry":{"x":175076.05999999959,"y":2579626.1900000013}},{"attributes":{"ID":531166,"DIS_CODE":0,"TOWNNAME":"鹽水區","LI":"水秀里","LIN":"14鄰","STREET":"清泉路","SECT":" ","MAREA":" ","LANE":" ","ALLEY":" ","HOUSE_NO":"２６號","E_COORD97":175251.14999999999,"N_COORD97":2580092.0499999998,"ADDRESS":"清泉路２６號","OBJECTID":531139},"geometry":{"x":175251.15000000224,"y":2580092.0500000026}},{"attributes":{"ID":531167,"DIS_CODE":0,"TOWNNAME":"鹽水區","LI":"水秀里","LIN":"14鄰","STREET":"清泉路","SECT":" ","MAREA":" ","LANE":" ","ALLEY":" ","HOUSE_NO":"３０號","E_COORD97":175246.35999999999,"N_COORD97":2580099.9300000002,"ADDRESS":"清泉路３０號","OBJECTID":531140},"geometry":{"x":175246.3600000022,"y":2580099.9299999997}},{"attributes":{"ID":531168,"DIS_CODE":0,"TOWNNAME":"鹽水區","LI":"水秀里","LIN":"14鄰","STREET":"清泉路","SECT":" ","MAREA":" ","LANE":" ","ALLEY":" ","HOUSE_NO":"５２號","E_COORD97":175218.98000000001,"N_COORD97":2580142.3599999999,"ADDRESS":"清泉路５２號","OBJECTID":531141},"geometry":{"x":175218.98000000138,"y":2580142.3600000031}},{"attributes":{"ID":531169,"DIS_CODE":0,"TOWNNAME":"鹽水區","LI":"水秀里","LIN":"14鄰","STREET":"清泉路","SECT":" ","MAREA":" ","LANE":" ","ALLEY":" ","HOUSE_NO":"５４號","E_COORD97":175218.63,"N_COORD97":2580147.6200000001,"ADDRESS":"清泉路５４號","OBJECTID":531142},"geometry":{"x":175218.63000000175,"y":2580147.620000001}},{"attributes":{"ID":531170,"DIS_CODE":0,"TOWNNAME":"鹽水區","LI":"水秀里","LIN":"14鄰","STREET":"清泉路","SECT":" ","MAREA":" ","LANE":" ","ALLEY":" ","HOUSE_NO":"５６號","E_COORD97":175218.26999999999,"N_COORD97":2580152.8900000001,"ADDRESS":"清泉路５６號","OBJECTID":531143},"geometry":{"x":175218.26999999955,"y":2580152.8900000006}},{"attributes":{"ID":531171,"DIS_CODE":0,"TOWNNAME":"鹽水區","LI":"水秀里","LIN":"14鄰","STREET":"清泉路","SECT":" ","MAREA":" ","LANE":" ","ALLEY":" ","HOUSE_NO":"５８號","E_COORD97":175217.91,"N_COORD97":2580158.1600000001,"ADDRESS":"清泉路５８號","OBJECTID":531144},"geometry":{"x":175217.91000000015,"y":2580158.1600000039}},{"attributes":{"ID":531172,"DIS_CODE":0,"TOWNNAME":"鹽水區","LI":"水秀里","LIN":"14鄰","STREET":"清泉路","SECT":" ","MAREA":" ","LANE":" ","ALLEY":" ","HOUSE_NO":"６０號","E_COORD97":175217.54999999999,"N_COORD97":2580163.4199999999,"ADDRESS":"清泉路６０號","OBJECTID":531145},"geometry":{"x":175217.55000000075,"y":2580163.4200000018}},{"attributes":{"ID":531173,"DIS_CODE":0,"TOWNNAME":"鹽水區","LI":"水秀里","LIN":"14鄰","STREET":"清泉路","SECT":" ","MAREA":" ","LANE":" ","ALLEY":" ","HOUSE_NO":"６２號","E_COORD97":175217.20000000001,"N_COORD97":2580168.6899999999,"ADDRESS":"清泉路６２號","OBJECTID":531146},"geometry":{"x":175217.20000000112,"y":2580168.6900000013}},{"attributes":{"ID":531174,"DIS_CODE":0,"TOWNNAME":"鹽水區","LI":"水秀里","LIN":"14鄰","STREET":"清泉路","SECT":" ","MAREA":" ","LANE":" ","ALLEY":" ","HOUSE_NO":"６４號","E_COORD97":175216.84,"N_COORD97":2580173.9500000002,"ADDRESS":"清泉路６４號","OBJECTID":531147},"geometry":{"x":175216.83999999985,"y":2580173.9499999993}},{"attributes":{"ID":531175,"DIS_CODE":0,"TOWNNAME":"鹽水區","LI":"水秀里","LIN":"14鄰","STREET":"清泉路","SECT":" ","MAREA":" ","LANE":" ","ALLEY":" ","HOUSE_NO":"６６號","E_COORD97":175216.62,"N_COORD97":2580180.6299999999,"ADDRESS":"清泉路６６號","OBJECTID":531148},"geometry":{"x":175216.62000000011,"y":2580180.6300000027}},{"attributes":{"ID":531176,"DIS_CODE":0,"TOWNNAME":"新營區","LI":"新北里","LIN":"30鄰","STREET":"新北四街","SECT":" ","MAREA":" ","LANE":" ","ALLEY":" ","HOUSE_NO":"５７號","E_COORD97":178771.23999999999,"N_COORD97":2578961.7599999998,"ADDRESS":"新北四街５７號","OBJECTID":531149},"geometry":{"x":178771.24000000209,"y":2578961.7600000016}},{"attributes":{"ID":531177,"DIS_CODE":0,"TOWNNAME":"新營區","LI":"忠政里","LIN":"30鄰","STREET":"府西路","SECT":" ","MAREA":" ","LANE":" ","ALLEY":" ","HOUSE_NO":"５７號之３","E_COORD97":179776.34,"N_COORD97":2579067.7599999998,"ADDRESS":"府西路５７號之３","OBJECTID":531150},"geometry":{"x":179776.33999999985,"y":2579067.7599999998}},{"attributes":{"ID":531178,"DIS_CODE":0,"TOWNNAME":"新營區","LI":"新北里","LIN":"30鄰","STREET":"新北四街","SECT":" ","MAREA":" ","LANE":" ","ALLEY":" ","HOUSE_NO":"２３號","E_COORD97":178719.01000000001,"N_COORD97":2578938.75,"ADDRESS":"新北四街２３號","OBJECTID":531151},"geometry":{"x":178719.00999999978,"y":2578938.75}},{"attributes":{"ID":531179,"DIS_CODE":0,"TOWNNAME":"新營區","LI":"三仙里","LIN":"30鄰","STREET":"育德九街","SECT":" ","MAREA":" ","LANE":" ","ALLEY":" ","HOUSE_NO":"３４號","E_COORD97":179505.70000000001,"N_COORD97":2579178.6200000001,"ADDRESS":"育德九街３４號","OBJECTID":531152},"geometry":{"x":179505.70000000112,"y":2579178.620000001}},{"attributes":{"ID":531180,"DIS_CODE":0,"TOWNNAME":"歸仁區","LI":"南興里","LIN":"30鄰","STREET":"保興一街","SECT":" ","MAREA":" ","LANE":" ","ALLEY":" ","HOUSE_NO":"１５號","E_COORD97":176438.82999999999,"N_COORD97":2541106.25,"ADDRESS":"保興一街１５號","OBJECTID":531153},"geometry":{"x":176438.83000000007,"y":2541106.25}},{"attributes":{"ID":531181,"DIS_CODE":0,"TOWNNAME":"歸仁區","LI":"許厝里","LIN":"30鄰","STREET":"大智街","SECT":" ","MAREA":" ","LANE":" ","ALLEY":" ","HOUSE_NO":"１０號","E_COORD97":177918.76999999999,"N_COORD97":2540671.5299999998,"ADDRESS":"大智街１０號","OBJECTID":531154},"geometry":{"x":177918.76999999955,"y":2540671.5300000012}},{"attributes":{"ID":531182,"DIS_CODE":0,"TOWNNAME":"歸仁區","LI":"南興里","LIN":"30鄰","STREET":"保興一街","SECT":" ","MAREA":" ","LANE":" ","ALLEY":" ","HOUSE_NO":"２３號","E_COORD97":176459.23000000001,"N_COORD97":2541096.25,"ADDRESS":"保興一街２３號","OBJECTID":531155},"geometry":{"x":176459.22999999952,"y":2541096.25}},{"attributes":{"ID":531183,"DIS_CODE":0,"TOWNNAME":"歸仁區","LI":"南興里","LIN":"30鄰","STREET":"保興一街","SECT":" ","MAREA":" ","LANE":" ","ALLEY":" ","HOUSE_NO":"９號","E_COORD97":176457.07999999999,"N_COORD97":2541116.25,"ADDRESS":"保興一街９號","OBJECTID":531156},"geometry":{"x":176457.08000000101,"y":2541116.25}},{"attributes":{"ID":531184,"DIS_CODE":0,"TOWNNAME":"新營區","LI":"忠政里","LIN":"30鄰","STREET":"府西路","SECT":" ","MAREA":" ","LANE":" ","ALLEY":" ","HOUSE_NO":"７９號","E_COORD97":179802.16,"N_COORD97":2579158.3900000001,"ADDRESS":"府西路７９號","OBJECTID":531157},"geometry":{"x":179802.16000000015,"y":2579158.3900000025}},{"attributes":{"ID":531185,"DIS_CODE":0,"TOWNNAME":"新化區","LI":"東榮里","LIN":"30鄰","STREET":"信義路","SECT":" ","MAREA":" ","LANE":" ","ALLEY":" ","HOUSE_NO":"１７１號之７","E_COORD97":179263.57000000001,"N_COORD97":2548318.2599999998,"ADDRESS":"信義路１７１號之７","OBJECTID":531158},"geometry":{"x":179263.5700000003,"y":2548318.2600000016}},{"attributes":{"ID":531186,"DIS_CODE":0,"TOWNNAME":"新化區","LI":"東榮里","LIN":"30鄰","STREET":"信義路","SECT":" ","MAREA":" ","LANE":" ","ALLEY":" ","HOUSE_NO":"１７１號之３","E_COORD97":179259.78,"N_COORD97":2548334.2599999998,"ADDRESS":"信義路１７１號之３","OBJECTID":531159},"geometry":{"x":179259.78000000119,"y":2548334.2599999998}},{"attributes":{"ID":531187,"DIS_CODE":0,"TOWNNAME":"新化區","LI":"東榮里","LIN":"30鄰","STREET":"信義路","SECT":" ","MAREA":" ","LANE":" ","ALLEY":" ","HOUSE_NO":"１７３號之１","E_COORD97":179249.06,"N_COORD97":2548339.2599999998,"ADDRESS":"信義路１７３號之１","OBJECTID":531160},"geometry":{"x":179249.05999999959,"y":2548339.2600000016}},{"attributes":{"ID":531188,"DIS_CODE":0,"TOWNNAME":"新化區","LI":"東榮里","LIN":"30鄰","STREET":"信義路","SECT":" ","MAREA":" ","LANE":" ","ALLEY":" ","HOUSE_NO":"１７３號之９","E_COORD97":179260.47,"N_COORD97":2548299.2599999998,"ADDRESS":"信義路１７３號之９","OBJECTID":531161},"geometry":{"x":179260.46999999974,"y":2548299.2599999998}},{"attributes":{"ID":531189,"DIS_CODE":0,"TOWNNAME":"永康區","LI":"\u25A0洲里","LIN":"30鄰","STREET":"洲尾街","SECT":" ","MAREA":" ","LANE":" ","ALLEY":" ","HOUSE_NO":"２９７號","E_COORD97":171068.17000000001,"N_COORD97":2549149.4500000002,"ADDRESS":"洲尾街２９７號","OBJECTID":531162},"geometry":{"x":171068.16999999993,"y":2549149.4499999993}},{"attributes":{"ID":531190,"DIS_CODE":0,"TOWNNAME":"永康區","LI":"\u25A0洲里","LIN":"30鄰","STREET":"洲尾街","SECT":" ","MAREA":" ","LANE":" ","ALLEY":" ","HOUSE_NO":"３１５號","E_COORD97":171101.67000000001,"N_COORD97":2549162.1899999999,"ADDRESS":"洲尾街３１５號","OBJECTID":531163},"geometry":{"x":171101.66999999993,"y":2549162.1900000032}},{"attributes":{"ID":531191,"DIS_CODE":0,"TOWNNAME":"永康區","LI":"\u25A0洲里","LIN":"30鄰","STREET":"洲尾街","SECT":" ","MAREA":" ","LANE":" ","ALLEY":" ","HOUSE_NO":"３０３號","E_COORD97":171079.51000000001,"N_COORD97":2549153.6899999999,"ADDRESS":"洲尾街３０３號","OBJECTID":531164},"geometry":{"x":171079.51000000164,"y":2549153.6900000013}},{"attributes":{"ID":531192,"DIS_CODE":0,"TOWNNAME":"永康區","LI":"大灣里","LIN":"30鄰","STREET":"民族路","SECT":" ","MAREA":" ","LANE":" ","ALLEY":" ","HOUSE_NO":"１２８號","E_COORD97":175275.92000000001,"N_COORD97":2544893.1600000001,"ADDRESS":"民族路１２８號","OBJECTID":531165},"geometry":{"x":175275.92000000179,"y":2544893.1600000001}},{"attributes":{"ID":531193,"DIS_CODE":0,"TOWNNAME":"永康區","LI":"大灣里","LIN":"30鄰","STREET":"民族路","SECT":" ","MAREA":" ","LANE":" ","ALLEY":" ","HOUSE_NO":"９２號","E_COORD97":175344.95000000001,"N_COORD97":2544811.27,"ADDRESS":"民族路９２號","OBJECTID":531166},"geometry":{"x":175344.95000000019,"y":2544811.2699999996}},{"attributes":{"ID":531194,"DIS_CODE":0,"TOWNNAME":"東區","LI":"東明里","LIN":"30鄰","STREET":"東安路","SECT":" ","MAREA":" ","LANE":" ","ALLEY":" ","HOUSE_NO":"９３號","E_COORD97":170683.13,"N_COORD97":2543710.2200000002,"ADDRESS":"東安路９３號","OBJECTID":531167},"geometry":{"x":170683.12999999989,"y":2543710.2200000007}},{"attributes":{"ID":531195,"DIS_CODE":0,"TOWNNAME":"東區","LI":"東明里","LIN":"30鄰","STREET":"東安路","SECT":" ","MAREA":" ","LANE":" ","ALLEY":" ","HOUSE_NO":"９９號","E_COORD97":170685.60000000001,"N_COORD97":2543723.3599999999,"ADDRESS":"東安路９９號","OBJECTID":531168},"geometry":{"x":170685.60000000149,"y":2543723.3600000013}},{"attributes":{"ID":531196,"DIS_CODE":0,"TOWNNAME":"仁德區","LI":"仁義里","LIN":"30鄰","STREET":"正義路","SECT":" ","MAREA":" ","LANE":" ","ALLEY":" ","HOUSE_NO":"９５號","E_COORD97":173598.07999999999,"N_COORD97":2541443.27,"ADDRESS":"正義路９５號","OBJECTID":531169},"geometry":{"x":173598.08000000007,"y":2541443.2700000014}},{"attributes":{"ID":531197,"DIS_CODE":0,"TOWNNAME":"仁德區","LI":"仁義里","LIN":"30鄰","STREET":"正義路","SECT":" ","MAREA":" ","LANE":" ","ALLEY":" ","HOUSE_NO":"１０７號","E_COORD97":173624.75,"N_COORD97":2541440.27,"ADDRESS":"正義路１０７號","OBJECTID":531170},"geometry":{"x":173624.75000000093,"y":2541440.2699999996}},{"attributes":{"ID":531198,"DIS_CODE":0,"TOWNNAME":"仁德區","LI":"太子里","LIN":"30鄰","STREET":"太子路","SECT":" ","MAREA":" ","LANE":" ","ALLEY":" ","HOUSE_NO":"５９５號","E_COORD97":173774.47,"N_COORD97":2543512.5099999998,"ADDRESS":"太子路５９５號","OBJECTID":531171},"geometry":{"x":173774.46999999974,"y":2543512.5100000016}},{"attributes":{"ID":531199,"DIS_CODE":0,"TOWNNAME":"仁德區","LI":"仁義里","LIN":"30鄰","STREET":"正義路","SECT":" ","MAREA":" ","LANE":" ","ALLEY":" ","HOUSE_NO":"１０９號","E_COORD97":173629.92000000001,"N_COORD97":2541440.77,"ADDRESS":"正義路１０９號","OBJECTID":531172},"geometry":{"x":173629.92000000179,"y":2541440.7699999996}},{"attributes":{"ID":531200,"DIS_CODE":0,"TOWNNAME":"仁德區","LI":"仁義里","LIN":"30鄰","STREET":"中清一街","SECT":" ","MAREA":" ","LANE":" ","ALLEY":" ","HOUSE_NO":"６１號","E_COORD97":173634.5,"N_COORD97":2541492.04,"ADDRESS":"中清一街６１號","OBJECTID":531173},"geometry":{"x":173634.50000000186,"y":2541492.040000001}},{"attributes":{"ID":531201,"DIS_CODE":0,"TOWNNAME":"仁德區","LI":"仁義里","LIN":"30鄰","STREET":"中清一街","SECT":" ","MAREA":" ","LANE":" ","ALLEY":" ","HOUSE_NO":"６７號","E_COORD97":173635.44,"N_COORD97":2541505.54,"ADDRESS":"中清一街６７號","OBJECTID":531174},"geometry":{"x":173635.44000000227,"y":2541505.540000001}},{"attributes":{"ID":531202,"DIS_CODE":0,"TOWNNAME":"仁德區","LI":"仁義里","LIN":"30鄰","STREET":"中清二街","SECT":" ","MAREA":" ","LANE":" ","ALLEY":" ","HOUSE_NO":"３４號","E_COORD97":173576.16,"N_COORD97":2541486.79,"ADDRESS":"中清二街３４號","OBJECTID":531175},"geometry":{"x":173576.16000000108,"y":2541486.790000001}},{"attributes":{"ID":531203,"DIS_CODE":0,"TOWNNAME":"仁德區","LI":"太子里","LIN":"30鄰","STREET":"中正路","SECT":"三段","MAREA":" ","LANE":" ","ALLEY":" ","HOUSE_NO":"５３６號","E_COORD97":173943.34,"N_COORD97":2543168.52,"ADDRESS":"中正路三段５３６號","OBJECTID":531176},"geometry":{"x":173943.33999999985,"y":2543168.5199999996}},{"attributes":{"ID":531204,"DIS_CODE":0,"TOWNNAME":"仁德區","LI":"太子里","LIN":"30鄰","STREET":"中正路","SECT":"三段","MAREA":" ","LANE":" ","ALLEY":" ","HOUSE_NO":"６１８號","E_COORD97":173822.64999999999,"N_COORD97":2543317.0299999998,"ADDRESS":"中正路三段６１８號","OBJECTID":531177},"geometry":{"x":173822.6500000013,"y":2543317.0299999993}},{"attributes":{"ID":531205,"DIS_CODE":0,"TOWNNAME":"仁德區","LI":"仁義里","LIN":"30鄰","STREET":"中清一街","SECT":" ","MAREA":" ","LANE":" ","ALLEY":" ","HOUSE_NO":"７３號","E_COORD97":173636.76000000001,"N_COORD97":2541519.04,"ADDRESS":"中清一街７３號","OBJECTID":531178},"geometry":{"x":173636.75999999978,"y":2541519.040000001}},{"attributes":{"ID":531206,"DIS_CODE":0,"TOWNNAME":"仁德區","LI":"仁義里","LIN":"30鄰","STREET":"中清二街","SECT":" ","MAREA":" ","LANE":" ","ALLEY":" ","HOUSE_NO":"２８號","E_COORD97":173575.41,"N_COORD97":2541474.0499999998,"ADDRESS":"中清二街２８號","OBJECTID":531179},"geometry":{"x":173575.41000000015,"y":2541474.0500000007}},{"attributes":{"ID":531207,"DIS_CODE":0,"TOWNNAME":"仁德區","LI":"仁義里","LIN":"30鄰","STREET":"中清一街","SECT":" ","MAREA":" ","LANE":" ","ALLEY":" ","HOUSE_NO":"７７號","E_COORD97":173637.63,"N_COORD97":2541528.04,"ADDRESS":"中清一街７７號","OBJECTID":531180},"geometry":{"x":173637.63000000082,"y":2541528.040000001}},{"attributes":{"ID":531208,"DIS_CODE":0,"TOWNNAME":"仁德區","LI":"仁義里","LIN":"30鄰","STREET":"中清一街","SECT":" ","MAREA":" ","LANE":" ","ALLEY":" ","HOUSE_NO":"７５號","E_COORD97":173637.26000000001,"N_COORD97":2541523.29,"ADDRESS":"中清一街７５號","OBJECTID":531181},"geometry":{"x":173637.25999999978,"y":2541523.290000001}},{"attributes":{"ID":531209,"DIS_CODE":0,"TOWNNAME":"仁德區","LI":"仁義里","LIN":"30鄰","STREET":"中清一街","SECT":" ","MAREA":" ","LANE":" ","ALLEY":" ","HOUSE_NO":"５７號","E_COORD97":173633.42000000001,"N_COORD97":2541483.29,"ADDRESS":"中清一街５７號","OBJECTID":531182},"geometry":{"x":173633.42000000179,"y":2541483.290000001}},{"attributes":{"ID":531210,"DIS_CODE":0,"TOWNNAME":"仁德區","LI":"太子里","LIN":"30鄰","STREET":"中正路","SECT":"三段","MAREA":" ","LANE":" ","ALLEY":" ","HOUSE_NO":"６２４號","E_COORD97":173813.67000000001,"N_COORD97":2543327.7799999998,"ADDRESS":"中正路三段６２４號","OBJECTID":531183},"geometry":{"x":173813.67000000086,"y":2543327.7800000012}},{"attributes":{"ID":531211,"DIS_CODE":0,"TOWNNAME":"仁德區","LI":"太子里","LIN":"30鄰","STREET":"中正路","SECT":"三段","MAREA":" ","LANE":" ","ALLEY":" ","HOUSE_NO":"６２０號","E_COORD97":173819.63,"N_COORD97":2543320.5299999998,"ADDRESS":"中正路三段６２０號","OBJECTID":531184},"geometry":{"x":173819.62999999989,"y":2543320.5299999993}},{"attributes":{"ID":531212,"DIS_CODE":0,"TOWNNAME":"仁德區","LI":"太子里","LIN":"30鄰","STREET":"中正路","SECT":"三段","MAREA":" ","LANE":" ","ALLEY":" ","HOUSE_NO":"５３２號","E_COORD97":173946.51999999999,"N_COORD97":2543165.02,"ADDRESS":"中正路三段５３２號","OBJECTID":531185},"geometry":{"x":173946.52000000048,"y":2543165.0199999996}},{"attributes":{"ID":531213,"DIS_CODE":0,"TOWNNAME":"仁德區","LI":"仁義里","LIN":"30鄰","STREET":"中清一街","SECT":" ","MAREA":" ","LANE":" ","ALLEY":" ","HOUSE_NO":"４７號","E_COORD97":173631.82000000001,"N_COORD97":2541460.0499999998,"ADDRESS":"中清一街４７號","OBJECTID":531186},"geometry":{"x":173631.8200000003,"y":2541460.0500000007}},{"attributes":{"ID":531214,"DIS_CODE":0,"TOWNNAME":"仁德區","LI":"仁義里","LIN":"30鄰","STREET":"中清二街","SECT":" ","MAREA":" ","LANE":" ","ALLEY":" ","HOUSE_NO":"６０號","E_COORD97":173581.29000000001,"N_COORD97":2541543.0499999998,"ADDRESS":"中清二街６０號","OBJECTID":531187},"geometry":{"x":173581.29000000004,"y":2541543.0500000045}},{"attributes":{"ID":531215,"DIS_CODE":0,"TOWNNAME":"仁德區","LI":"仁義里","LIN":"30鄰","STREET":"中清二街","SECT":" ","MAREA":" ","LANE":" ","ALLEY":" ","HOUSE_NO":"５４號","E_COORD97":173580.20000000001,"N_COORD97":2541530.29,"ADDRESS":"中清二街５４號","OBJECTID":531188},"geometry":{"x":173580.20000000019,"y":2541530.290000001}},{"attributes":{"ID":531216,"DIS_CODE":0,"TOWNNAME":"仁德區","LI":"太子里","LIN":"30鄰","STREET":"中正路","SECT":"三段","MAREA":" ","LANE":" ","ALLEY":" ","HOUSE_NO":"６２２號","E_COORD97":173816.78,"N_COORD97":2543324.0299999998,"ADDRESS":"中正路三段６２２號","OBJECTID":531189},"geometry":{"x":173816.78000000119,"y":2543324.0299999993}},{"attributes":{"ID":531217,"DIS_CODE":0,"TOWNNAME":"仁德區","LI":"仁義里","LIN":"30鄰","STREET":"中清一街","SECT":" ","MAREA":" ","LANE":" ","ALLEY":" ","HOUSE_NO":"６５號","E_COORD97":173635.29000000001,"N_COORD97":2541501.29,"ADDRESS":"中清一街６５號","OBJECTID":531190},"geometry":{"x":173635.29000000004,"y":2541501.2899999991}},{"attributes":{"ID":531218,"DIS_CODE":0,"TOWNNAME":"佳里區","LI":"忠仁里","LIN":"12鄰","STREET":"新生路","SECT":" ","MAREA":" ","LANE":" ","ALLEY":" ","HOUSE_NO":"１７號之１","E_COORD97":166129.14999999999,"N_COORD97":2562388.9500000002,"ADDRESS":"新生路１７號之１","OBJECTID":531191},"geometry":{"x":166129.15000000037,"y":2562388.9499999993}},{"attributes":{"ID":531219,"DIS_CODE":0,"TOWNNAME":"佳里區","LI":"建南里","LIN":"6鄰","STREET":"新生路","SECT":" ","MAREA":" ","LANE":" ","ALLEY":" ","HOUSE_NO":"２６７號","E_COORD97":165673.25,"N_COORD97":2562253.6299999999,"ADDRESS":"新生路２６７號","OBJECTID":531192},"geometry":{"x":165673.25,"y":2562253.6300000008}},{"attributes":{"ID":531220,"DIS_CODE":0,"TOWNNAME":"佳里區","LI":"建南里","LIN":"6鄰","STREET":"新生路","SECT":" ","MAREA":" ","LANE":" ","ALLEY":" ","HOUSE_NO":"２６９號","E_COORD97":165668.41,"N_COORD97":2562252.8999999999,"ADDRESS":"新生路２６９號","OBJECTID":531193},"geometry":{"x":165668.41000000108,"y":2562252.9000000022}},{"attributes":{"ID":531221,"DIS_CODE":0,"TOWNNAME":"佳里區","LI":"建南里","LIN":"6鄰","STREET":"新生路","SECT":" ","MAREA":" ","LANE":" ","ALLEY":" ","HOUSE_NO":"２７１號","E_COORD97":165661.89999999999,"N_COORD97":2562251.6600000001,"ADDRESS":"新生路２７１號","OBJECTID":531194},"geometry":{"x":165661.9000000013,"y":2562251.660000002}},{"attributes":{"ID":531222,"DIS_CODE":0,"TOWNNAME":"東區","LI":"小東里","LIN":"30鄰","STREET":"東平路","SECT":" ","MAREA":" ","LANE":" ","ALLEY":" ","HOUSE_NO":"２４４號","E_COORD97":170753.01000000001,"N_COORD97":2544019.5800000001,"ADDRESS":"東平路２４４號","OBJECTID":531195},"geometry":{"x":170753.01000000071,"y":2544019.5800000001}},{"attributes":{"ID":531223,"DIS_CODE":0,"TOWNNAME":"東區","LI":"忠孝里","LIN":"30鄰","STREET":"崇明十街","SECT":" ","MAREA":" ","LANE":" ","ALLEY":" ","HOUSE_NO":"１３號","E_COORD97":170016.60000000001,"N_COORD97":2541750.0099999998,"ADDRESS":"崇明十街１３號","OBJECTID":531196},"geometry":{"x":170016.60000000056,"y":2541750.0100000016}},{"attributes":{"ID":531224,"DIS_CODE":0,"TOWNNAME":"東區","LI":"忠孝里","LIN":"30鄰","STREET":"崇明十街","SECT":" ","MAREA":" ","LANE":" ","ALLEY":" ","HOUSE_NO":"１９號","E_COORD97":170029.10000000001,"N_COORD97":2541757.9100000001,"ADDRESS":"崇明十街１９號","OBJECTID":531197},"geometry":{"x":170029.09999999963,"y":2541757.910000002}},{"attributes":{"ID":531225,"DIS_CODE":0,"TOWNNAME":"東區","LI":"忠孝里","LIN":"30鄰","STREET":"崇明十街","SECT":" ","MAREA":" ","LANE":" ","ALLEY":" ","HOUSE_NO":"１號","E_COORD97":169989.57000000001,"N_COORD97":2541734.0600000001,"ADDRESS":"崇明十街１號","OBJECTID":531198},"geometry":{"x":169989.56999999937,"y":2541734.0600000024}},{"attributes":{"ID":531226,"DIS_CODE":0,"TOWNNAME":"東區","LI":"忠孝里","LIN":"30鄰","STREET":"崇明十街","SECT":" ","MAREA":" ","LANE":" ","ALLEY":" ","HOUSE_NO":"１１號","E_COORD97":170011.76999999999,"N_COORD97":2541747.6000000001,"ADDRESS":"崇明十街１１號","OBJECTID":531199},"geometry":{"x":170011.77000000048,"y":2541747.5999999996}},{"attributes":{"ID":531227,"DIS_CODE":0,"TOWNNAME":"東區","LI":"忠孝里","LIN":"30鄰","STREET":"崇明十街","SECT":" ","MAREA":" ","LANE":" ","ALLEY":" ","HOUSE_NO":"２１號","E_COORD97":170031.42999999999,"N_COORD97":2541759.4700000002,"ADDRESS":"崇明十街２１號","OBJECTID":531200},"geometry":{"x":170031.43000000063,"y":2541759.4700000007}}]}