{"displayFieldName":"TOWNNAME","fieldAliases":{"ID":"ID","DIS_CODE":"DIS_CODE","TOWNNAME":"TOWNNAME","LI":"LI","LIN":"LIN","STREET":"STREET","SECT":"SECT","MAREA":"MAREA","LANE":"LANE","ALLEY":"ALLEY","HOUSE_NO":"HOUSE_NO","E_COORD97":"E_COORD97","N_COORD97":"N_COORD97","ADDRESS":"ADDRESS","OBJECTID":"OBJECTID"},"geometryType":"esriGeometryPoint","spatialReference":{"wkid":102443,"latestWkid":3826},"fields":[{"name":"ID","type":"esriFieldTypeDouble","alias":"ID"},{"name":"DIS_CODE","type":"esriFieldTypeInteger","alias":"DIS_CODE"},{"name":"TOWNNAME","type":"esriFieldTypeString","alias":"TOWNNAME","length":8},{"name":"LI","type":"esriFieldTypeString","alias":"LI","length":8},{"name":"LIN","type":"esriFieldTypeString","alias":"LIN","length":12},{"name":"STREET","type":"esriFieldTypeString","alias":"STREET","length":20},{"name":"SECT","type":"esriFieldTypeString","alias":"SECT","length":8},{"name":"MAREA","type":"esriFieldTypeString","alias":"MAREA","length":12},{"name":"LANE","type":"esriFieldTypeString","alias":"LANE","length":10},{"name":"ALLEY","type":"esriFieldTypeString","alias":"ALLEY","length":10},{"name":"HOUSE_NO","type":"esriFieldTypeString","alias":"HOUSE_NO","length":20},{"name":"E_COORD97","type":"esriFieldTypeDouble","alias":"E_COORD97"},{"name":"N_COORD97","type":"esriFieldTypeDouble","alias":"N_COORD97"},{"name":"ADDRESS","type":"esriFieldTypeString","alias":"ADDRESS","length":50},{"name":"OBJECTID","type":"esriFieldTypeOID","alias":"OBJECTID"}],"features":[{"attributes":{"ID":440426,"DIS_CODE":0,"TOWNNAME":"永康區","LI":"西橋里","LIN":" ","STREET":"中山南路","SECT":" ","MAREA":" ","LANE":"４３巷","ALLEY":" ","HOUSE_NO":"１５號","E_COORD97":170723.04000000001,"N_COORD97":2545887.25,"ADDRESS":"中山南路４３巷１５號","OBJECTID":440401},"geometry":{"x":170723.04000000004,"y":2545887.2500000037}},{"attributes":{"ID":440427,"DIS_CODE":0,"TOWNNAME":"永康區","LI":"尚頂里","LIN":" ","STREET":"中正二街","SECT":" ","MAREA":" ","LANE":"１８２巷","ALLEY":" ","HOUSE_NO":"４３號","E_COORD97":171461.54000000001,"N_COORD97":2547627.4900000002,"ADDRESS":"中正二街１８２巷４３號","OBJECTID":440402},"geometry":{"x":171461.54000000097,"y":2547627.4900000002}},{"attributes":{"ID":440428,"DIS_CODE":0,"TOWNNAME":"永康區","LI":"尚頂里","LIN":" ","STREET":"中華路","SECT":" ","MAREA":" ","LANE":"９１２巷","ALLEY":" ","HOUSE_NO":"９號","E_COORD97":170530.64999999999,"N_COORD97":2546786.3300000001,"ADDRESS":"中華路９１２巷９號","OBJECTID":440403},"geometry":{"x":170530.6500000013,"y":2546786.3300000019}},{"attributes":{"ID":440429,"DIS_CODE":0,"TOWNNAME":"永康區","LI":"\u25A0行里","LIN":"5鄰","STREET":"新行街","SECT":" ","MAREA":" ","LANE":"２１巷","ALLEY":" ","HOUSE_NO":"５號","E_COORD97":172195.54000000001,"N_COORD97":2548792.3199999998,"ADDRESS":"新行街２１巷５號","OBJECTID":440404},"geometry":{"x":172195.54000000097,"y":2548792.3200000003}},{"attributes":{"ID":440430,"DIS_CODE":0,"TOWNNAME":"永康區","LI":"西勢里","LIN":" ","STREET":"西勢路","SECT":" ","MAREA":" ","LANE":"６２１巷","ALLEY":" ","HOUSE_NO":"６８之１號","E_COORD97":174865.42000000001,"N_COORD97":2546659.1099999999,"ADDRESS":"西勢路６２１巷６８之１號","OBJECTID":440405},"geometry":{"x":174865.41999999993,"y":2546659.1099999994}},{"attributes":{"ID":440431,"DIS_CODE":0,"TOWNNAME":"永康區","LI":"\u25A0洲里","LIN":" ","STREET":"鹽洲二街","SECT":" ","MAREA":" ","LANE":"１１１巷","ALLEY":" ","HOUSE_NO":"１之１號","E_COORD97":171592.45999999999,"N_COORD97":2549311.23,"ADDRESS":"鹽洲二街１１１巷１之１號","OBJECTID":440406},"geometry":{"x":171592.46000000089,"y":2549311.2300000004}},{"attributes":{"ID":440432,"DIS_CODE":0,"TOWNNAME":"永康區","LI":"\u25A0洲里","LIN":"36鄰","STREET":"\u25A0洲二街","SECT":" ","MAREA":" ","LANE":"１７５巷","ALLEY":" ","HOUSE_NO":"２２號","E_COORD97":171692.85000000001,"N_COORD97":2549454.5,"ADDRESS":"\u25A0洲二街１７５巷２２號","OBJECTID":440407},"geometry":{"x":171692.85000000056,"y":2549454.5}},{"attributes":{"ID":440433,"DIS_CODE":0,"TOWNNAME":"永康區","LI":"\u25A0洲里","LIN":"5鄰","STREET":"仁愛街","SECT":" ","MAREA":" ","LANE":"１０３巷","ALLEY":" ","HOUSE_NO":"３３號","E_COORD97":171913.70000000001,"N_COORD97":2549529.5299999998,"ADDRESS":"仁愛街１０３巷３３號","OBJECTID":440408},"geometry":{"x":171913.70000000019,"y":2549529.5300000031}},{"attributes":{"ID":440434,"DIS_CODE":0,"TOWNNAME":"永康區","LI":"\u25A0洲里","LIN":"5鄰","STREET":"仁愛街","SECT":" ","MAREA":" ","LANE":"１０３巷","ALLEY":" ","HOUSE_NO":"１０８號","E_COORD97":171834.32999999999,"N_COORD97":2549591.27,"ADDRESS":"仁愛街１０３巷１０８號","OBJECTID":440409},"geometry":{"x":171834.33000000101,"y":2549591.2699999996}},{"attributes":{"ID":440435,"DIS_CODE":0,"TOWNNAME":"永康區","LI":"\u25A0洲里","LIN":"5鄰","STREET":"仁愛街","SECT":" ","MAREA":" ","LANE":"１０３巷","ALLEY":" ","HOUSE_NO":"１７號","E_COORD97":171971.73999999999,"N_COORD97":2549497.02,"ADDRESS":"仁愛街１０３巷１７號","OBJECTID":440410},"geometry":{"x":171971.73999999929,"y":2549497.0200000014}},{"attributes":{"ID":440436,"DIS_CODE":0,"TOWNNAME":"永康區","LI":"\u25A0行里","LIN":"20鄰","STREET":"正南五街","SECT":" ","MAREA":" ","LANE":"２８９巷","ALLEY":" ","HOUSE_NO":"６５號","E_COORD97":171797.35000000001,"N_COORD97":2548361.1000000001,"ADDRESS":"正南五街２８９巷６５號","OBJECTID":440411},"geometry":{"x":171797.34999999963,"y":2548361.1000000015}},{"attributes":{"ID":440437,"DIS_CODE":0,"TOWNNAME":"永康區","LI":"\u25A0洲里","LIN":"24鄰","STREET":"正南二街","SECT":" ","MAREA":" ","LANE":"８６巷","ALLEY":" ","HOUSE_NO":"１２號","E_COORD97":170786.91,"N_COORD97":2548468.4900000002,"ADDRESS":"正南二街８６巷１２號","OBJECTID":440412},"geometry":{"x":170786.91000000015,"y":2548468.4900000002}},{"attributes":{"ID":440438,"DIS_CODE":0,"TOWNNAME":"永康區","LI":"西橋里","LIN":" ","STREET":"大橋三街","SECT":" ","MAREA":" ","LANE":"１０巷","ALLEY":" ","HOUSE_NO":"１６之５號","E_COORD97":170521.01000000001,"N_COORD97":2546307.7999999998,"ADDRESS":"大橋三街１０巷１６之５號","OBJECTID":440413},"geometry":{"x":170521.00999999978,"y":2546307.8000000007}},{"attributes":{"ID":440439,"DIS_CODE":0,"TOWNNAME":"永康區","LI":"復興里","LIN":" ","STREET":"興國街","SECT":" ","MAREA":" ","LANE":"１８５巷","ALLEY":" ","HOUSE_NO":"４０號","E_COORD97":172303.89999999999,"N_COORD97":2544748.75,"ADDRESS":"興國街１８５巷４０號","OBJECTID":440414},"geometry":{"x":172303.9000000013,"y":2544748.7500000019}},{"attributes":{"ID":440440,"DIS_CODE":0,"TOWNNAME":"永康區","LI":"復國里","LIN":" ","STREET":"復國二路","SECT":" ","MAREA":" ","LANE":"１００巷","ALLEY":" ","HOUSE_NO":"３號","E_COORD97":172858.72,"N_COORD97":2545285.7799999998,"ADDRESS":"復國二路１００巷３號","OBJECTID":440415},"geometry":{"x":172858.72000000067,"y":2545285.7799999993}},{"attributes":{"ID":440441,"DIS_CODE":0,"TOWNNAME":"永康區","LI":"二王里","LIN":" ","STREET":"中山南路","SECT":" ","MAREA":" ","LANE":"８７２巷","ALLEY":" ","HOUSE_NO":"８６４號","E_COORD97":172966.75,"N_COORD97":2546855.4300000002,"ADDRESS":"中山南路８７２巷８６４號","OBJECTID":440416},"geometry":{"x":172966.75000000186,"y":2546855.4300000034}},{"attributes":{"ID":440442,"DIS_CODE":0,"TOWNNAME":"永康區","LI":"\u25A0行里","LIN":"32鄰","STREET":"仁愛街","SECT":" ","MAREA":" ","LANE":"１０８巷","ALLEY":" ","HOUSE_NO":"２５號","E_COORD97":172202.44,"N_COORD97":2549436.46,"ADDRESS":"仁愛街１０８巷２５號","OBJECTID":440417},"geometry":{"x":172202.44000000041,"y":2549436.4600000046}},{"attributes":{"ID":440443,"DIS_CODE":0,"TOWNNAME":"永康區","LI":"\u25A0行里","LIN":"39鄰","STREET":"永安路","SECT":" ","MAREA":" ","LANE":"１０５巷","ALLEY":" ","HOUSE_NO":"４３號","E_COORD97":172688.34,"N_COORD97":2549282.7999999998,"ADDRESS":"永安路１０５巷４３號","OBJECTID":440418},"geometry":{"x":172688.34000000078,"y":2549282.8000000026}},{"attributes":{"ID":440444,"DIS_CODE":0,"TOWNNAME":"安南區","LI":"溪頂里","LIN":"4鄰","STREET":"府安路","SECT":"四段","MAREA":" ","LANE":"１２１巷","ALLEY":" ","HOUSE_NO":"１０號","E_COORD97":168988.39000000001,"N_COORD97":2547306.3399999999,"ADDRESS":"府安路四段１２１巷１０號","OBJECTID":440419},"geometry":{"x":168988.39000000153,"y":2547306.3399999999}},{"attributes":{"ID":440445,"DIS_CODE":0,"TOWNNAME":"安南區","LI":"溪頂里","LIN":"4鄰","STREET":"府安路","SECT":"四段","MAREA":" ","LANE":"１２１巷","ALLEY":" ","HOUSE_NO":"１１號","E_COORD97":168961.04000000001,"N_COORD97":2547309.73,"ADDRESS":"府安路四段１２１巷１１號","OBJECTID":440420},"geometry":{"x":168961.04000000097,"y":2547309.7300000023}},{"attributes":{"ID":440446,"DIS_CODE":0,"TOWNNAME":"安南區","LI":"溪頂里","LIN":"4鄰","STREET":"府安路","SECT":"四段","MAREA":" ","LANE":"１２１巷","ALLEY":" ","HOUSE_NO":"１２號","E_COORD97":168987.17000000001,"N_COORD97":2547310.8100000001,"ADDRESS":"府安路四段１２１巷１２號","OBJECTID":440421},"geometry":{"x":168987.17000000086,"y":2547310.8100000005}},{"attributes":{"ID":440447,"DIS_CODE":0,"TOWNNAME":"北區","LI":"大豐里","LIN":"20鄰","STREET":"大興街","SECT":" ","MAREA":" ","LANE":"２３３巷","ALLEY":" ","HOUSE_NO":"５６號九樓之１","E_COORD97":166846.79999999999,"N_COORD97":2545498.4500000002,"ADDRESS":"大興街２３３巷５６號九樓之１","OBJECTID":440422},"geometry":{"x":166846.80000000075,"y":2545498.4499999974}},{"attributes":{"ID":440448,"DIS_CODE":0,"TOWNNAME":"北區","LI":"大豐里","LIN":"20鄰","STREET":"大興街","SECT":" ","MAREA":" ","LANE":"２３３巷","ALLEY":" ","HOUSE_NO":"５６號九樓之２","E_COORD97":166846.79999999999,"N_COORD97":2545498.4500000002,"ADDRESS":"大興街２３３巷５６號九樓之２","OBJECTID":440423},"geometry":{"x":166846.80000000075,"y":2545498.4499999974}},{"attributes":{"ID":440449,"DIS_CODE":0,"TOWNNAME":"北區","LI":"大豐里","LIN":"20鄰","STREET":"大興街","SECT":" ","MAREA":" ","LANE":"２３３巷","ALLEY":" ","HOUSE_NO":"５６號九樓之３","E_COORD97":166846.79999999999,"N_COORD97":2545498.4500000002,"ADDRESS":"大興街２３３巷５６號九樓之３","OBJECTID":440424},"geometry":{"x":166846.80000000075,"y":2545498.4499999974}},{"attributes":{"ID":440450,"DIS_CODE":0,"TOWNNAME":"北區","LI":"大豐里","LIN":"20鄰","STREET":"大興街","SECT":" ","MAREA":" ","LANE":"２３３巷","ALLEY":" ","HOUSE_NO":"５６號十樓之１","E_COORD97":166846.79999999999,"N_COORD97":2545498.4500000002,"ADDRESS":"大興街２３３巷５６號十樓之１","OBJECTID":440425},"geometry":{"x":166846.80000000075,"y":2545498.4499999974}},{"attributes":{"ID":440451,"DIS_CODE":0,"TOWNNAME":"東區","LI":"崇文里","LIN":"40鄰","STREET":"生產路","SECT":" ","MAREA":" ","LANE":" ","ALLEY":" ","HOUSE_NO":"２６９號七樓","E_COORD97":170885.10999999999,"N_COORD97":2540617.8100000001,"ADDRESS":"生產路２６９號七樓","OBJECTID":440426},"geometry":{"x":170885.11000000127,"y":2540617.8100000005}},{"attributes":{"ID":440452,"DIS_CODE":0,"TOWNNAME":"北區","LI":"大豐里","LIN":"20鄰","STREET":"大興街","SECT":" ","MAREA":" ","LANE":"２３３巷","ALLEY":" ","HOUSE_NO":"５６號十樓之２","E_COORD97":166846.79999999999,"N_COORD97":2545498.4500000002,"ADDRESS":"大興街２３３巷５６號十樓之２","OBJECTID":440427},"geometry":{"x":166846.80000000075,"y":2545498.4499999974}},{"attributes":{"ID":440453,"DIS_CODE":0,"TOWNNAME":"北區","LI":"大豐里","LIN":"20鄰","STREET":"大興街","SECT":" ","MAREA":" ","LANE":"２３３巷","ALLEY":" ","HOUSE_NO":"５６號十樓之３","E_COORD97":166846.79999999999,"N_COORD97":2545498.4500000002,"ADDRESS":"大興街２３３巷５６號十樓之３","OBJECTID":440428},"geometry":{"x":166846.80000000075,"y":2545498.4499999974}},{"attributes":{"ID":440454,"DIS_CODE":0,"TOWNNAME":"北區","LI":"大豐里","LIN":"20鄰","STREET":"大興街","SECT":" ","MAREA":" ","LANE":"２３３巷","ALLEY":" ","HOUSE_NO":"５６號十一樓之１","E_COORD97":166846.79999999999,"N_COORD97":2545498.4500000002,"ADDRESS":"大興街２３３巷５６號十一樓之１","OBJECTID":440429},"geometry":{"x":166846.80000000075,"y":2545498.4499999974}},{"attributes":{"ID":440455,"DIS_CODE":0,"TOWNNAME":"北區","LI":"大豐里","LIN":"20鄰","STREET":"大興街","SECT":" ","MAREA":" ","LANE":"２３３巷","ALLEY":" ","HOUSE_NO":"５６號十一樓之２","E_COORD97":166846.79999999999,"N_COORD97":2545498.4500000002,"ADDRESS":"大興街２３３巷５６號十一樓之２","OBJECTID":440430},"geometry":{"x":166846.80000000075,"y":2545498.4499999974}},{"attributes":{"ID":440456,"DIS_CODE":0,"TOWNNAME":"北區","LI":"大豐里","LIN":"20鄰","STREET":"大興街","SECT":" ","MAREA":" ","LANE":"２３３巷","ALLEY":" ","HOUSE_NO":"５６號十一樓之３","E_COORD97":166846.79999999999,"N_COORD97":2545498.4500000002,"ADDRESS":"大興街２３３巷５６號十一樓之３","OBJECTID":440431},"geometry":{"x":166846.80000000075,"y":2545498.4499999974}},{"attributes":{"ID":440457,"DIS_CODE":0,"TOWNNAME":"北區","LI":"大豐里","LIN":"20鄰","STREET":"大興街","SECT":" ","MAREA":" ","LANE":"２３３巷","ALLEY":" ","HOUSE_NO":"５６號十二樓之１","E_COORD97":166846.79999999999,"N_COORD97":2545498.4500000002,"ADDRESS":"大興街２３３巷５６號十二樓之１","OBJECTID":440432},"geometry":{"x":166846.80000000075,"y":2545498.4499999974}},{"attributes":{"ID":440458,"DIS_CODE":0,"TOWNNAME":"永康區","LI":"龍潭里","LIN":"42鄰","STREET":"國民路","SECT":" ","MAREA":" ","LANE":"２０１巷","ALLEY":" ","HOUSE_NO":"６號","E_COORD97":174505.67999999999,"N_COORD97":2547087.8700000001,"ADDRESS":"國民路２０１巷６號","OBJECTID":440433},"geometry":{"x":174505.6799999997,"y":2547087.8700000048}},{"attributes":{"ID":440459,"DIS_CODE":0,"TOWNNAME":"永康區","LI":"\u25A0行里","LIN":"4鄰","STREET":"新行街","SECT":" ","MAREA":" ","LANE":"４巷","ALLEY":" ","HOUSE_NO":"６號","E_COORD97":172244.03,"N_COORD97":2548728.5,"ADDRESS":"新行街４巷６號","OBJECTID":440434},"geometry":{"x":172244.03000000026,"y":2548728.5}},{"attributes":{"ID":440460,"DIS_CODE":0,"TOWNNAME":"永康區","LI":"\u25A0行里","LIN":"5鄰","STREET":"新行街","SECT":" ","MAREA":" ","LANE":"２１巷","ALLEY":" ","HOUSE_NO":"１５號","E_COORD97":172169.37,"N_COORD97":2548793,"ADDRESS":"新行街２１巷１５號","OBJECTID":440435},"geometry":{"x":172169.37000000104,"y":2548793}},{"attributes":{"ID":440461,"DIS_CODE":0,"TOWNNAME":"永康區","LI":"\u25A0洲里","LIN":" ","STREET":"鹽洲二街","SECT":" ","MAREA":" ","LANE":"１６０巷","ALLEY":" ","HOUSE_NO":"１７號","E_COORD97":171702.85000000001,"N_COORD97":2549279.9700000002,"ADDRESS":"鹽洲二街１６０巷１７號","OBJECTID":440436},"geometry":{"x":171702.85000000056,"y":2549279.9700000007}},{"attributes":{"ID":440462,"DIS_CODE":0,"TOWNNAME":"永康區","LI":"龍潭里","LIN":"39鄰","STREET":"永明街","SECT":" ","MAREA":" ","LANE":"２３１巷","ALLEY":" ","HOUSE_NO":"５９號","E_COORD97":174562.60000000001,"N_COORD97":2547371.8599999999,"ADDRESS":"永明街２３１巷５９號","OBJECTID":440437},"geometry":{"x":174562.60000000056,"y":2547371.8600000013}},{"attributes":{"ID":440463,"DIS_CODE":0,"TOWNNAME":"永康區","LI":"龍潭里","LIN":"39鄰","STREET":"永明街","SECT":" ","MAREA":" ","LANE":"２３１巷","ALLEY":" ","HOUSE_NO":"８６號","E_COORD97":174583.92999999999,"N_COORD97":2547400.0899999999,"ADDRESS":"永明街２３１巷８６號","OBJECTID":440438},"geometry":{"x":174583.93000000156,"y":2547400.089999998}},{"attributes":{"ID":440464,"DIS_CODE":0,"TOWNNAME":"永康區","LI":"\u25A0行里","LIN":"42鄰","STREET":"永安二街","SECT":" ","MAREA":" ","LANE":"２５巷","ALLEY":" ","HOUSE_NO":"３號","E_COORD97":172470.07999999999,"N_COORD97":2549579.8100000001,"ADDRESS":"永安二街２５巷３號","OBJECTID":440439},"geometry":{"x":172470.08000000101,"y":2549579.8100000024}},{"attributes":{"ID":440465,"DIS_CODE":0,"TOWNNAME":"永康區","LI":"\u25A0行里","LIN":"42鄰","STREET":"永安二街","SECT":" ","MAREA":" ","LANE":"２５巷","ALLEY":" ","HOUSE_NO":"１７號","E_COORD97":172441.76999999999,"N_COORD97":2549562.8199999998,"ADDRESS":"永安二街２５巷１７號","OBJECTID":440440},"geometry":{"x":172441.76999999955,"y":2549562.8200000022}},{"attributes":{"ID":440466,"DIS_CODE":0,"TOWNNAME":"永康區","LI":"龍潭里","LIN":"25鄰","STREET":"龍昌街","SECT":" ","MAREA":" ","LANE":"５１巷","ALLEY":" ","HOUSE_NO":"７號","E_COORD97":174979.69,"N_COORD97":2547892.02,"ADDRESS":"龍昌街５１巷７號","OBJECTID":440441},"geometry":{"x":174979.69000000227,"y":2547892.0200000033}},{"attributes":{"ID":440467,"DIS_CODE":0,"TOWNNAME":"永康區","LI":"龍潭里","LIN":"13鄰","STREET":"龍橋街","SECT":" ","MAREA":" ","LANE":"８７巷","ALLEY":" ","HOUSE_NO":"２號","E_COORD97":174717.75,"N_COORD97":2548433.7799999998,"ADDRESS":"龍橋街８７巷２號","OBJECTID":440442},"geometry":{"x":174717.75000000186,"y":2548433.7800000012}},{"attributes":{"ID":440468,"DIS_CODE":0,"TOWNNAME":"永康區","LI":"大橋里","LIN":" ","STREET":"大橋一街","SECT":" ","MAREA":" ","LANE":"１３７巷","ALLEY":" ","HOUSE_NO":"９號","E_COORD97":171018.39999999999,"N_COORD97":2546531.25,"ADDRESS":"大橋一街１３７巷９號","OBJECTID":440443},"geometry":{"x":171018.4000000013,"y":2546531.2499999981}},{"attributes":{"ID":440469,"DIS_CODE":0,"TOWNNAME":"永康區","LI":"北灣里","LIN":" ","STREET":"大灣路","SECT":" ","MAREA":" ","LANE":"７４巷","ALLEY":" ","HOUSE_NO":"３１號","E_COORD97":175101.98999999999,"N_COORD97":2545781.1299999999,"ADDRESS":"大灣路７４巷３１號","OBJECTID":440444},"geometry":{"x":175101.99000000115,"y":2545781.129999999}},{"attributes":{"ID":440470,"DIS_CODE":0,"TOWNNAME":"永康區","LI":"甲頂里","LIN":" ","STREET":"大武街","SECT":" ","MAREA":" ","LANE":"５９７巷","ALLEY":" ","HOUSE_NO":"６８號","E_COORD97":170268.42999999999,"N_COORD97":2546627.5,"ADDRESS":"大武街５９７巷６８號","OBJECTID":440445},"geometry":{"x":170268.43000000063,"y":2546627.5}},{"attributes":{"ID":440471,"DIS_CODE":0,"TOWNNAME":"永康區","LI":"\u25A0行里","LIN":"38鄰","STREET":"仁愛街","SECT":" ","MAREA":" ","LANE":"１３８巷","ALLEY":" ","HOUSE_NO":"１９號","E_COORD97":172297.04999999999,"N_COORD97":2549669.02,"ADDRESS":"仁愛街１３８巷１９號","OBJECTID":440446},"geometry":{"x":172297.05000000075,"y":2549669.0200000014}},{"attributes":{"ID":440472,"DIS_CODE":0,"TOWNNAME":"永康區","LI":"龍潭里","LIN":"26鄰","STREET":"龍昌街","SECT":" ","MAREA":" ","LANE":"６６巷","ALLEY":" ","HOUSE_NO":"４２號","E_COORD97":175120.04000000001,"N_COORD97":2547905.9100000001,"ADDRESS":"龍昌街６６巷４２號","OBJECTID":440447},"geometry":{"x":175120.04000000097,"y":2547905.9100000001}},{"attributes":{"ID":440473,"DIS_CODE":0,"TOWNNAME":"永康區","LI":"\u25A0行里","LIN":"32鄰","STREET":"三村一街","SECT":" ","MAREA":" ","LANE":"１３８巷","ALLEY":" ","HOUSE_NO":"７６號","E_COORD97":172101.45000000001,"N_COORD97":2549392.7400000002,"ADDRESS":"三村一街１３８巷７６號","OBJECTID":440448},"geometry":{"x":172101.45000000112,"y":2549392.7400000002}},{"attributes":{"ID":440474,"DIS_CODE":0,"TOWNNAME":"永康區","LI":"龍潭里","LIN":"26鄰","STREET":"龍昌街","SECT":" ","MAREA":" ","LANE":"６６巷","ALLEY":" ","HOUSE_NO":"８號","E_COORD97":175047.44,"N_COORD97":2547898.1099999999,"ADDRESS":"龍昌街６６巷８號","OBJECTID":440449},"geometry":{"x":175047.44000000227,"y":2547898.1100000031}},{"attributes":{"ID":440475,"DIS_CODE":0,"TOWNNAME":"永康區","LI":"\u25A0行里","LIN":"26鄰","STREET":"中正南路","SECT":" ","MAREA":" ","LANE":"４０４巷","ALLEY":" ","HOUSE_NO":"３號","E_COORD97":171085.67000000001,"N_COORD97":2548295.1899999999,"ADDRESS":"中正南路４０４巷３號","OBJECTID":440450},"geometry":{"x":171085.67000000086,"y":2548295.1900000013}},{"attributes":{"ID":440476,"DIS_CODE":0,"TOWNNAME":"永康區","LI":"龍潭里","LIN":"39鄰","STREET":"永明街","SECT":" ","MAREA":" ","LANE":"２１５巷","ALLEY":" ","HOUSE_NO":"１５號","E_COORD97":174509.82999999999,"N_COORD97":2547285.4100000001,"ADDRESS":"永明街２１５巷１５號","OBJECTID":440451},"geometry":{"x":174509.83000000007,"y":2547285.4100000001}},{"attributes":{"ID":440477,"DIS_CODE":0,"TOWNNAME":"永康區","LI":"\u25A0行里","LIN":"42鄰","STREET":"永安二街","SECT":" ","MAREA":" ","LANE":"２５巷","ALLEY":" ","HOUSE_NO":"７１號","E_COORD97":172463.79000000001,"N_COORD97":2549523.8199999998,"ADDRESS":"永安二街２５巷７１號","OBJECTID":440452},"geometry":{"x":172463.79000000004,"y":2549523.8200000003}},{"attributes":{"ID":440478,"DIS_CODE":0,"TOWNNAME":"永康區","LI":"龍潭里","LIN":"13鄰","STREET":"龍橋街","SECT":" ","MAREA":" ","LANE":"５３巷","ALLEY":" ","HOUSE_NO":"８號","E_COORD97":174780.14999999999,"N_COORD97":2548377.6200000001,"ADDRESS":"龍橋街５３巷８號","OBJECTID":440453},"geometry":{"x":174780.1500000013,"y":2548377.6199999992}},{"attributes":{"ID":440479,"DIS_CODE":0,"TOWNNAME":"永康區","LI":"龍潭里","LIN":"39鄰","STREET":"國民路","SECT":" ","MAREA":" ","LANE":"９３巷","ALLEY":" ","HOUSE_NO":"１０號","E_COORD97":174402.51000000001,"N_COORD97":2547289.8300000001,"ADDRESS":"國民路９３巷１０號","OBJECTID":440454},"geometry":{"x":174402.51000000071,"y":2547289.8300000001}},{"attributes":{"ID":440480,"DIS_CODE":0,"TOWNNAME":"永康區","LI":"龍潭里","LIN":"39鄰","STREET":"永明街","SECT":" ","MAREA":" ","LANE":"２７３巷","ALLEY":" ","HOUSE_NO":"２號","E_COORD97":174672.35999999999,"N_COORD97":2547227.2200000002,"ADDRESS":"永明街２７３巷２號","OBJECTID":440455},"geometry":{"x":174672.36000000127,"y":2547227.2199999988}},{"attributes":{"ID":440481,"DIS_CODE":0,"TOWNNAME":"永康區","LI":"龍潭里","LIN":"38鄰","STREET":"國民路","SECT":" ","MAREA":" ","LANE":"７１巷","ALLEY":" ","HOUSE_NO":"１０號","E_COORD97":174380.5,"N_COORD97":2547337.6099999999,"ADDRESS":"國民路７１巷１０號","OBJECTID":440456},"geometry":{"x":174380.50000000186,"y":2547337.6099999994}},{"attributes":{"ID":440482,"DIS_CODE":0,"TOWNNAME":"永康區","LI":"龍潭里","LIN":"39鄰","STREET":"永明街","SECT":" ","MAREA":" ","LANE":"１７９巷","ALLEY":" ","HOUSE_NO":"５號","E_COORD97":174429.98000000001,"N_COORD97":2547258.7200000002,"ADDRESS":"永明街１７９巷５號","OBJECTID":440457},"geometry":{"x":174429.98000000045,"y":2547258.7200000025}},{"attributes":{"ID":440483,"DIS_CODE":0,"TOWNNAME":"永康區","LI":"龍潭里","LIN":"39鄰","STREET":"永明街","SECT":" ","MAREA":" ","LANE":"２３１巷","ALLEY":" ","HOUSE_NO":"１５號","E_COORD97":174563.14999999999,"N_COORD97":2547242.0899999999,"ADDRESS":"永明街２３１巷１５號","OBJECTID":440458},"geometry":{"x":174563.1500000013,"y":2547242.0900000017}},{"attributes":{"ID":440484,"DIS_CODE":0,"TOWNNAME":"永康區","LI":"龍潭里","LIN":"39鄰","STREET":"永明街","SECT":" ","MAREA":" ","LANE":"２７３巷","ALLEY":" ","HOUSE_NO":"２７號","E_COORD97":174654.14000000001,"N_COORD97":2547299.5699999998,"ADDRESS":"永明街２７３巷２７號","OBJECTID":440459},"geometry":{"x":174654.1400000006,"y":2547299.5700000022}},{"attributes":{"ID":440485,"DIS_CODE":0,"TOWNNAME":"永康區","LI":"龍潭里","LIN":"38鄰","STREET":"中山北路","SECT":" ","MAREA":" ","LANE":"１６４巷","ALLEY":" ","HOUSE_NO":"１０２號","E_COORD97":174500.73999999999,"N_COORD97":2547394.9100000001,"ADDRESS":"中山北路１６４巷１０２號","OBJECTID":440460},"geometry":{"x":174500.74000000022,"y":2547394.9099999983}},{"attributes":{"ID":440486,"DIS_CODE":0,"TOWNNAME":"永康區","LI":"龍潭里","LIN":"38鄰","STREET":"中山北路","SECT":" ","MAREA":" ","LANE":"１６４巷","ALLEY":" ","HOUSE_NO":"８２號之１６","E_COORD97":174451.39000000001,"N_COORD97":2547386.9199999999,"ADDRESS":"中山北路１６４巷８２號之１６","OBJECTID":440461},"geometry":{"x":174451.38999999966,"y":2547386.9199999999}},{"attributes":{"ID":440487,"DIS_CODE":0,"TOWNNAME":"永康區","LI":"網寮里","LIN":"20鄰","STREET":"永二街","SECT":" ","MAREA":" ","LANE":"２４５巷","ALLEY":" ","HOUSE_NO":"３８號","E_COORD97":173285.60000000001,"N_COORD97":2546122.8100000001,"ADDRESS":"永二街２４５巷３８號","OBJECTID":440462},"geometry":{"x":173285.59999999963,"y":2546122.8100000024}},{"attributes":{"ID":440488,"DIS_CODE":0,"TOWNNAME":"永康區","LI":"\u25A0行里","LIN":"26鄰","STREET":"中正南路","SECT":" ","MAREA":" ","LANE":"４０４巷","ALLEY":" ","HOUSE_NO":"１２號","E_COORD97":171098.01000000001,"N_COORD97":2548261.6800000002,"ADDRESS":"中正南路４０４巷１２號","OBJECTID":440463},"geometry":{"x":171098.00999999978,"y":2548261.6800000016}},{"attributes":{"ID":440489,"DIS_CODE":0,"TOWNNAME":"永康區","LI":"龍潭里","LIN":"39鄰","STREET":"永明街","SECT":" ","MAREA":" ","LANE":"２１５巷","ALLEY":" ","HOUSE_NO":"４０號","E_COORD97":174547.75,"N_COORD97":2547278.27,"ADDRESS":"永明街２１５巷４０號","OBJECTID":440464},"geometry":{"x":174547.75,"y":2547278.2700000014}},{"attributes":{"ID":440490,"DIS_CODE":0,"TOWNNAME":"永康區","LI":"龍潭里","LIN":"39鄰","STREET":"永明街","SECT":" ","MAREA":" ","LANE":"２７３巷","ALLEY":" ","HOUSE_NO":"２５號","E_COORD97":174654.42000000001,"N_COORD97":2547295.0699999998,"ADDRESS":"永明街２７３巷２５號","OBJECTID":440465},"geometry":{"x":174654.42000000086,"y":2547295.0700000003}},{"attributes":{"ID":440491,"DIS_CODE":0,"TOWNNAME":"永康區","LI":"\u25A0行里","LIN":"43鄰","STREET":"中正南路","SECT":" ","MAREA":" ","LANE":"４９０巷","ALLEY":" ","HOUSE_NO":"４９號之３","E_COORD97":171456.23000000001,"N_COORD97":2548221.4300000002,"ADDRESS":"中正南路４９０巷４９號之３","OBJECTID":440466},"geometry":{"x":171456.23000000045,"y":2548221.4299999978}},{"attributes":{"ID":440492,"DIS_CODE":0,"TOWNNAME":"永康區","LI":"龍潭里","LIN":"38鄰","STREET":"中山北路","SECT":" ","MAREA":" ","LANE":"１６４巷","ALLEY":" ","HOUSE_NO":"１０４號","E_COORD97":174505.19,"N_COORD97":2547395.1600000001,"ADDRESS":"中山北路１６４巷１０４號","OBJECTID":440467},"geometry":{"x":174505.19000000134,"y":2547395.1600000001}},{"attributes":{"ID":440493,"DIS_CODE":0,"TOWNNAME":"永康區","LI":"龍潭里","LIN":"39鄰","STREET":"永明街","SECT":" ","MAREA":" ","LANE":"２１５巷","ALLEY":" ","HOUSE_NO":"３６號","E_COORD97":174539.44,"N_COORD97":2547278.0099999998,"ADDRESS":"永明街２１５巷３６號","OBJECTID":440468},"geometry":{"x":174539.44000000134,"y":2547278.0099999998}},{"attributes":{"ID":440494,"DIS_CODE":0,"TOWNNAME":"永康區","LI":"龍潭里","LIN":"39鄰","STREET":"永明街","SECT":" ","MAREA":" ","LANE":"２７３巷","ALLEY":" ","HOUSE_NO":"２１號","E_COORD97":174654.38,"N_COORD97":2547285.3300000001,"ADDRESS":"永明街２７３巷２１號","OBJECTID":440469},"geometry":{"x":174654.38000000082,"y":2547285.3300000001}},{"attributes":{"ID":440495,"DIS_CODE":0,"TOWNNAME":"永康區","LI":"龍潭里","LIN":"42鄰","STREET":"永平街","SECT":" ","MAREA":" ","LANE":"７５９巷","ALLEY":" ","HOUSE_NO":"５２號","E_COORD97":174558.57000000001,"N_COORD97":2547051.75,"ADDRESS":"永平街７５９巷５２號","OBJECTID":440470},"geometry":{"x":174558.57000000123,"y":2547051.7500000019}},{"attributes":{"ID":440496,"DIS_CODE":0,"TOWNNAME":"永康區","LI":"龍潭里","LIN":"38鄰","STREET":"中山北路","SECT":" ","MAREA":" ","LANE":"１６４巷","ALLEY":" ","HOUSE_NO":"８０號之１７","E_COORD97":174455.17999999999,"N_COORD97":2547365.7999999998,"ADDRESS":"中山北路１６４巷８０號之１７","OBJECTID":440471},"geometry":{"x":174455.18000000156,"y":2547365.8000000045}},{"attributes":{"ID":440497,"DIS_CODE":0,"TOWNNAME":"永康區","LI":"龍潭里","LIN":"38鄰","STREET":"中山北路","SECT":" ","MAREA":" ","LANE":"１６４巷","ALLEY":" ","HOUSE_NO":"１０６號","E_COORD97":174509.73999999999,"N_COORD97":2547394.9100000001,"ADDRESS":"中山北路１６４巷１０６號","OBJECTID":440472},"geometry":{"x":174509.74000000115,"y":2547394.9099999983}},{"attributes":{"ID":440498,"DIS_CODE":0,"TOWNNAME":"永康區","LI":"龍潭里","LIN":"38鄰","STREET":"中山北路","SECT":" ","MAREA":" ","LANE":"１６４巷","ALLEY":" ","HOUSE_NO":"９４號","E_COORD97":174481.26999999999,"N_COORD97":2547392.6200000001,"ADDRESS":"中山北路１６４巷９４號","OBJECTID":440473},"geometry":{"x":174481.26999999955,"y":2547392.6200000029}},{"attributes":{"ID":440499,"DIS_CODE":0,"TOWNNAME":"永康區","LI":"龍潭里","LIN":"38鄰","STREET":"中山北路","SECT":" ","MAREA":" ","LANE":"１６４巷","ALLEY":" ","HOUSE_NO":"８２號之１７","E_COORD97":174451.37,"N_COORD97":2547386.9199999999,"ADDRESS":"中山北路１６４巷８２號之１７","OBJECTID":440474},"geometry":{"x":174451.37000000104,"y":2547386.9199999999}},{"attributes":{"ID":440500,"DIS_CODE":0,"TOWNNAME":"永康區","LI":"龍潭里","LIN":"39鄰","STREET":"永明街","SECT":" ","MAREA":" ","LANE":"２１５巷","ALLEY":" ","HOUSE_NO":"２０號","E_COORD97":174540.23999999999,"N_COORD97":2547256.3100000001,"ADDRESS":"永明街２１５巷２０號","OBJECTID":440475},"geometry":{"x":174540.24000000115,"y":2547256.3100000005}},{"attributes":{"ID":440501,"DIS_CODE":0,"TOWNNAME":"永康區","LI":"\u25A0行里","LIN":"43鄰","STREET":"中正南路","SECT":" ","MAREA":" ","LANE":"４９０巷","ALLEY":" ","HOUSE_NO":"１８號","E_COORD97":171384.56,"N_COORD97":2548254.3599999999,"ADDRESS":"中正南路４９０巷１８號","OBJECTID":440476},"geometry":{"x":171384.56000000052,"y":2548254.3599999994}},{"attributes":{"ID":440502,"DIS_CODE":0,"TOWNNAME":"永康區","LI":"龍潭里","LIN":"43鄰","STREET":"國民路","SECT":" ","MAREA":" ","LANE":"２３１巷","ALLEY":" ","HOUSE_NO":"５３號","E_COORD97":174610.64000000001,"N_COORD97":2547006.3199999998,"ADDRESS":"國民路２３１巷５３號","OBJECTID":440477},"geometry":{"x":174610.63999999966,"y":2547006.3200000022}},{"attributes":{"ID":440503,"DIS_CODE":0,"TOWNNAME":"永康區","LI":"網寮里","LIN":"13鄰","STREET":"永勝街","SECT":" ","MAREA":" ","LANE":"１６９巷","ALLEY":" ","HOUSE_NO":"６號","E_COORD97":173299.32000000001,"N_COORD97":2546537.04,"ADDRESS":"永勝街１６９巷６號","OBJECTID":440478},"geometry":{"x":173299.32000000123,"y":2546537.0399999991}},{"attributes":{"ID":440504,"DIS_CODE":0,"TOWNNAME":"永康區","LI":"新樹里","LIN":"4鄰","STREET":"富強路","SECT":"二段","MAREA":" ","LANE":"２９８巷","ALLEY":" ","HOUSE_NO":"５１號","E_COORD97":175702.79999999999,"N_COORD97":2547576.8300000001,"ADDRESS":"富強路二段２９８巷５１號","OBJECTID":440479},"geometry":{"x":175702.80000000075,"y":2547576.8300000019}},{"attributes":{"ID":440505,"DIS_CODE":0,"TOWNNAME":"永康區","LI":"龍潭里","LIN":"38鄰","STREET":"中山北路","SECT":" ","MAREA":" ","LANE":"１６４巷","ALLEY":" ","HOUSE_NO":"９８號","E_COORD97":174490.98999999999,"N_COORD97":2547394.9100000001,"ADDRESS":"中山北路１６４巷９８號","OBJECTID":440480},"geometry":{"x":174490.99000000209,"y":2547394.9099999983}},{"attributes":{"ID":440506,"DIS_CODE":0,"TOWNNAME":"永康區","LI":"龍潭里","LIN":"39鄰","STREET":"永明街","SECT":" ","MAREA":" ","LANE":"２７３巷","ALLEY":" ","HOUSE_NO":"１０號","E_COORD97":174673.79000000001,"N_COORD97":2547241.98,"ADDRESS":"永明街２７３巷１０號","OBJECTID":440481},"geometry":{"x":174673.79000000097,"y":2547241.9800000004}},{"attributes":{"ID":440507,"DIS_CODE":0,"TOWNNAME":"永康區","LI":"復興里","LIN":"14鄰","STREET":"復興路","SECT":" ","MAREA":" ","LANE":"２９６巷","ALLEY":" ","HOUSE_NO":"５號","E_COORD97":172336.34,"N_COORD97":2544353.4500000002,"ADDRESS":"復興路２９６巷５號","OBJECTID":440482},"geometry":{"x":172336.33999999985,"y":2544353.4500000011}},{"attributes":{"ID":440508,"DIS_CODE":0,"TOWNNAME":"永康區","LI":"龍潭里","LIN":"38鄰","STREET":"中山北路","SECT":" ","MAREA":" ","LANE":"１６４巷","ALLEY":" ","HOUSE_NO":"８２號之１８","E_COORD97":174451.44,"N_COORD97":2547386.9199999999,"ADDRESS":"中山北路１６４巷８２號之１８","OBJECTID":440483},"geometry":{"x":174451.44000000134,"y":2547386.9199999999}},{"attributes":{"ID":440509,"DIS_CODE":0,"TOWNNAME":"永康區","LI":"龍潭里","LIN":"38鄰","STREET":"中山北路","SECT":" ","MAREA":" ","LANE":"１６４巷","ALLEY":" ","HOUSE_NO":"８２號之２１","E_COORD97":174451.29000000001,"N_COORD97":2547386.9199999999,"ADDRESS":"中山北路１６４巷８２號之２１","OBJECTID":440484},"geometry":{"x":174451.28999999911,"y":2547386.9199999999}},{"attributes":{"ID":440510,"DIS_CODE":0,"TOWNNAME":"永康區","LI":"龍潭里","LIN":"38鄰","STREET":"中山北路","SECT":" ","MAREA":" ","LANE":"１６４巷","ALLEY":" ","HOUSE_NO":"９２號","E_COORD97":174476.84,"N_COORD97":2547392.8900000001,"ADDRESS":"中山北路１６４巷９２號","OBJECTID":440485},"geometry":{"x":174476.84000000078,"y":2547392.8900000025}},{"attributes":{"ID":440511,"DIS_CODE":0,"TOWNNAME":"永康區","LI":"龍潭里","LIN":"42鄰","STREET":"永平街","SECT":" ","MAREA":" ","LANE":"７５９巷","ALLEY":" ","HOUSE_NO":"４０號","E_COORD97":174592.92999999999,"N_COORD97":2547054.0800000001,"ADDRESS":"永平街７５９巷４０號","OBJECTID":440486},"geometry":{"x":174592.93000000063,"y":2547054.0800000001}},{"attributes":{"ID":440512,"DIS_CODE":0,"TOWNNAME":"永康區","LI":"網寮里","LIN":"24鄰","STREET":"永春街","SECT":" ","MAREA":" ","LANE":"３６巷","ALLEY":" ","HOUSE_NO":"８號","E_COORD97":173768.16,"N_COORD97":2546380.6699999999,"ADDRESS":"永春街３６巷８號","OBJECTID":440487},"geometry":{"x":173768.16000000108,"y":2546380.6700000018}},{"attributes":{"ID":440513,"DIS_CODE":0,"TOWNNAME":"永康區","LI":"網寮里","LIN":"14鄰","STREET":"永勝街","SECT":" ","MAREA":" ","LANE":"２４６巷","ALLEY":" ","HOUSE_NO":"５號","E_COORD97":173387.23000000001,"N_COORD97":2546615.71,"ADDRESS":"永勝街２４６巷５號","OBJECTID":440488},"geometry":{"x":173387.23000000045,"y":2546615.7100000028}},{"attributes":{"ID":440514,"DIS_CODE":0,"TOWNNAME":"永康區","LI":"網寮里","LIN":"8鄰","STREET":"永二街","SECT":" ","MAREA":" ","LANE":"２４４巷","ALLEY":" ","HOUSE_NO":"１號之２２","E_COORD97":173265.20999999999,"N_COORD97":2546436.5299999998,"ADDRESS":"永二街２４４巷１號之２２","OBJECTID":440489},"geometry":{"x":173265.21000000183,"y":2546436.5299999993}},{"attributes":{"ID":440515,"DIS_CODE":0,"TOWNNAME":"永康區","LI":"龍潭里","LIN":"39鄰","STREET":"永明街","SECT":" ","MAREA":" ","LANE":"２１５巷","ALLEY":" ","HOUSE_NO":"５２號","E_COORD97":174543.63,"N_COORD97":2547288.96,"ADDRESS":"永明街２１５巷５２號","OBJECTID":440490},"geometry":{"x":174543.62999999989,"y":2547288.9600000009}},{"attributes":{"ID":440516,"DIS_CODE":0,"TOWNNAME":"永康區","LI":"龍潭里","LIN":"39鄰","STREET":"永明街","SECT":" ","MAREA":" ","LANE":"２７３巷","ALLEY":" ","HOUSE_NO":"１９號","E_COORD97":174654.75,"N_COORD97":2547280.8300000001,"ADDRESS":"永明街２７３巷１９號","OBJECTID":440491},"geometry":{"x":174654.75,"y":2547280.8300000019}},{"attributes":{"ID":440517,"DIS_CODE":0,"TOWNNAME":"永康區","LI":"龍潭里","LIN":"39鄰","STREET":"永明街","SECT":" ","MAREA":" ","LANE":"２７３巷","ALLEY":" ","HOUSE_NO":"１７號","E_COORD97":174655.04999999999,"N_COORD97":2547276.3300000001,"ADDRESS":"永明街２７３巷１７號","OBJECTID":440492},"geometry":{"x":174655.05000000075,"y":2547276.3300000001}},{"attributes":{"ID":440518,"DIS_CODE":0,"TOWNNAME":"永康區","LI":"龍潭里","LIN":"42鄰","STREET":"永平街","SECT":" ","MAREA":" ","LANE":"７５９巷","ALLEY":" ","HOUSE_NO":"３２號","E_COORD97":174592.60999999999,"N_COORD97":2547071.8300000001,"ADDRESS":"永平街７５９巷３２號","OBJECTID":440493},"geometry":{"x":174592.61000000127,"y":2547071.8300000001}},{"attributes":{"ID":440519,"DIS_CODE":0,"TOWNNAME":"永康區","LI":"網寮里","LIN":"24鄰","STREET":"永春街","SECT":" ","MAREA":" ","LANE":"３６巷","ALLEY":" ","HOUSE_NO":"１３號","E_COORD97":173777.63,"N_COORD97":2546403.8399999999,"ADDRESS":"永春街３６巷１３號","OBJECTID":440494},"geometry":{"x":173777.63000000175,"y":2546403.8399999999}},{"attributes":{"ID":440520,"DIS_CODE":0,"TOWNNAME":"永康區","LI":"網寮里","LIN":"14鄰","STREET":"永勝街","SECT":" ","MAREA":" ","LANE":"２４６巷","ALLEY":" ","HOUSE_NO":"７號","E_COORD97":173392.17999999999,"N_COORD97":2546613.21,"ADDRESS":"永勝街２４６巷７號","OBJECTID":440495},"geometry":{"x":173392.17999999877,"y":2546613.2100000009}},{"attributes":{"ID":440521,"DIS_CODE":0,"TOWNNAME":"永康區","LI":"網寮里","LIN":"4鄰","STREET":"永二街","SECT":" ","MAREA":" ","LANE":"１３０巷","ALLEY":" ","HOUSE_NO":"８號","E_COORD97":173455.57000000001,"N_COORD97":2546463.1200000001,"ADDRESS":"永二街１３０巷８號","OBJECTID":440496},"geometry":{"x":173455.5700000003,"y":2546463.1200000029}},{"attributes":{"ID":440522,"DIS_CODE":0,"TOWNNAME":"永康區","LI":"龍潭里","LIN":"39鄰","STREET":"永明街","SECT":" ","MAREA":" ","LANE":"２７３巷","ALLEY":" ","HOUSE_NO":"２０號","E_COORD97":174671.31,"N_COORD97":2547268.3300000001,"ADDRESS":"永明街２７３巷２０號","OBJECTID":440497},"geometry":{"x":174671.31000000052,"y":2547268.3300000019}},{"attributes":{"ID":440523,"DIS_CODE":0,"TOWNNAME":"永康區","LI":"蔦松里","LIN":"4鄰","STREET":"蔦松一街","SECT":" ","MAREA":" ","LANE":"３５巷","ALLEY":" ","HOUSE_NO":"１６號","E_COORD97":173941.03,"N_COORD97":2549329.8900000001,"ADDRESS":"蔦松一街３５巷１６號","OBJECTID":440498},"geometry":{"x":173941.03000000026,"y":2549329.8900000006}},{"attributes":{"ID":440524,"DIS_CODE":0,"TOWNNAME":"永康區","LI":"蔦松里","LIN":"5鄰","STREET":"蔦松一街","SECT":" ","MAREA":" ","LANE":"２０１巷","ALLEY":" ","HOUSE_NO":"１６６號","E_COORD97":173110.92999999999,"N_COORD97":2549770.4900000002,"ADDRESS":"蔦松一街２０１巷１６６號","OBJECTID":440499},"geometry":{"x":173110.93000000156,"y":2549770.4900000002}},{"attributes":{"ID":440525,"DIS_CODE":0,"TOWNNAME":"永康區","LI":"龍潭里","LIN":"42鄰","STREET":"永平街","SECT":" ","MAREA":" ","LANE":"７５９巷","ALLEY":" ","HOUSE_NO":"５０號","E_COORD97":174561.28,"N_COORD97":2547051.75,"ADDRESS":"永平街７５９巷５０號","OBJECTID":440500},"geometry":{"x":174561.28000000026,"y":2547051.7500000019}},{"attributes":{"ID":440526,"DIS_CODE":0,"TOWNNAME":"白河區","LI":"永安里","LIN":"18鄰","STREET":" ","SECT":" ","MAREA":"新厝子","LANE":" ","ALLEY":" ","HOUSE_NO":"７１之１１７號","E_COORD97":188686.23420899999,"N_COORD97":2582102.3355399999,"ADDRESS":"新厝子７１之１１７號","OBJECTID":440501},"geometry":{"x":188686.23420900106,"y":2582102.3355380017}},{"attributes":{"ID":440527,"DIS_CODE":0,"TOWNNAME":"永康區","LI":"網寮里","LIN":"13鄰","STREET":"永二街","SECT":" ","MAREA":" ","LANE":"２４４巷","ALLEY":" ","HOUSE_NO":"３０號","E_COORD97":173284.87,"N_COORD97":2546543.7799999998,"ADDRESS":"永二街２４４巷３０號","OBJECTID":440502},"geometry":{"x":173284.87000000104,"y":2546543.7799999993}},{"attributes":{"ID":440528,"DIS_CODE":0,"TOWNNAME":"永康區","LI":"網寮里","LIN":"14鄰","STREET":"永勝街","SECT":" ","MAREA":" ","LANE":"２４６巷","ALLEY":" ","HOUSE_NO":"１１號","E_COORD97":173402.73999999999,"N_COORD97":2546608.7000000002,"ADDRESS":"永勝街２４６巷１１號","OBJECTID":440503},"geometry":{"x":173402.74000000115,"y":2546608.6999999974}},{"attributes":{"ID":440529,"DIS_CODE":0,"TOWNNAME":"永康區","LI":"蔦松里","LIN":"8鄰","STREET":"中正北路","SECT":" ","MAREA":" ","LANE":"４２９巷","ALLEY":" ","HOUSE_NO":"３號","E_COORD97":173589.87,"N_COORD97":2549177.4900000002,"ADDRESS":"中正北路４２９巷３號","OBJECTID":440504},"geometry":{"x":173589.87000000197,"y":2549177.4900000002}},{"attributes":{"ID":440530,"DIS_CODE":0,"TOWNNAME":"永康區","LI":"龍潭里","LIN":"38鄰","STREET":"中山北路","SECT":" ","MAREA":" ","LANE":"１６４巷","ALLEY":" ","HOUSE_NO":"８０號之９","E_COORD97":174453.92999999999,"N_COORD97":2547365.7999999998,"ADDRESS":"中山北路１６４巷８０號之９","OBJECTID":440505},"geometry":{"x":174453.93000000063,"y":2547365.8000000045}},{"attributes":{"ID":440531,"DIS_CODE":0,"TOWNNAME":"永康區","LI":"網寮里","LIN":"5鄰","STREET":"永二街","SECT":" ","MAREA":" ","LANE":"１４５巷","ALLEY":" ","HOUSE_NO":"３號","E_COORD97":173532.76999999999,"N_COORD97":2546431.9700000002,"ADDRESS":"永二街１４５巷３號","OBJECTID":440506},"geometry":{"x":173532.77000000048,"y":2546431.9700000007}},{"attributes":{"ID":440532,"DIS_CODE":0,"TOWNNAME":"永康區","LI":"網寮里","LIN":"5鄰","STREET":"永二街","SECT":" ","MAREA":" ","LANE":"１４５巷","ALLEY":" ","HOUSE_NO":"５號","E_COORD97":173536.01999999999,"N_COORD97":2546429.7200000002,"ADDRESS":"永二街１４５巷５號","OBJECTID":440507},"geometry":{"x":173536.02000000048,"y":2546429.7200000007}},{"attributes":{"ID":440533,"DIS_CODE":0,"TOWNNAME":"永康區","LI":"龍潭里","LIN":"38鄰","STREET":"中山北路","SECT":" ","MAREA":" ","LANE":"１６４巷","ALLEY":" ","HOUSE_NO":"８０號之１９","E_COORD97":174455.17999999999,"N_COORD97":2547365.7999999998,"ADDRESS":"中山北路１６４巷８０號之１９","OBJECTID":440508},"geometry":{"x":174455.18000000156,"y":2547365.8000000045}},{"attributes":{"ID":440534,"DIS_CODE":0,"TOWNNAME":"永康區","LI":"龍潭里","LIN":"38鄰","STREET":"中山北路","SECT":" ","MAREA":" ","LANE":"１６４巷","ALLEY":" ","HOUSE_NO":"９０號","E_COORD97":174471.92000000001,"N_COORD97":2547392.6400000001,"ADDRESS":"中山北路１６４巷９０號","OBJECTID":440509},"geometry":{"x":174471.91999999993,"y":2547392.6400000006}},{"attributes":{"ID":440535,"DIS_CODE":0,"TOWNNAME":"永康區","LI":"龍潭里","LIN":"39鄰","STREET":"永明街","SECT":" ","MAREA":" ","LANE":"２３１巷","ALLEY":" ","HOUSE_NO":"４５號","E_COORD97":174563.10000000001,"N_COORD97":2547311.8500000001,"ADDRESS":"永明街２３１巷４５號","OBJECTID":440510},"geometry":{"x":174563.10000000056,"y":2547311.8499999996}},{"attributes":{"ID":440536,"DIS_CODE":0,"TOWNNAME":"永康區","LI":"蔦松里","LIN":"5鄰","STREET":"蔦松一街","SECT":" ","MAREA":" ","LANE":"１１３巷","ALLEY":" ","HOUSE_NO":"７號","E_COORD97":173732.79999999999,"N_COORD97":2549463.2400000002,"ADDRESS":"蔦松一街１１３巷７號","OBJECTID":440511},"geometry":{"x":173732.80000000075,"y":2549463.2400000002}},{"attributes":{"ID":440537,"DIS_CODE":0,"TOWNNAME":"永康區","LI":"龍潭里","LIN":"38鄰","STREET":"中山北路","SECT":" ","MAREA":" ","LANE":"１６４巷","ALLEY":" ","HOUSE_NO":"８２號之２２","E_COORD97":174451.42000000001,"N_COORD97":2547386.9199999999,"ADDRESS":"中山北路１６４巷８２號之２２","OBJECTID":440512},"geometry":{"x":174451.41999999993,"y":2547386.9199999999}},{"attributes":{"ID":440538,"DIS_CODE":0,"TOWNNAME":"永康區","LI":"龍潭里","LIN":"38鄰","STREET":"中山北路","SECT":" ","MAREA":" ","LANE":"１６４巷","ALLEY":" ","HOUSE_NO":"８２號之７","E_COORD97":174450.12,"N_COORD97":2547386.9199999999,"ADDRESS":"中山北路１６４巷８２號之７","OBJECTID":440513},"geometry":{"x":174450.12000000011,"y":2547386.9199999999}},{"attributes":{"ID":440539,"DIS_CODE":0,"TOWNNAME":"永康區","LI":"龍潭里","LIN":"39鄰","STREET":"永明街","SECT":" ","MAREA":" ","LANE":"２７３巷","ALLEY":" ","HOUSE_NO":"２３號","E_COORD97":174654.29000000001,"N_COORD97":2547290.3199999998,"ADDRESS":"永明街２７３巷２３號","OBJECTID":440514},"geometry":{"x":174654.29000000004,"y":2547290.3200000003}},{"attributes":{"ID":440540,"DIS_CODE":0,"TOWNNAME":"永康區","LI":"網寮里","LIN":"25鄰","STREET":"永華路","SECT":" ","MAREA":" ","LANE":"４６５巷","ALLEY":" ","HOUSE_NO":"１３號","E_COORD97":173842.88,"N_COORD97":2546582.5899999999,"ADDRESS":"永華路４６５巷１３號","OBJECTID":440515},"geometry":{"x":173842.87999999989,"y":2546582.5899999999}},{"attributes":{"ID":440541,"DIS_CODE":0,"TOWNNAME":"永康區","LI":"龍潭里","LIN":"39鄰","STREET":"永明街","SECT":" ","MAREA":" ","LANE":"２１５巷","ALLEY":" ","HOUSE_NO":"４８號","E_COORD97":174535.42999999999,"N_COORD97":2547288.96,"ADDRESS":"永明街２１５巷４８號","OBJECTID":440516},"geometry":{"x":174535.43000000063,"y":2547288.9600000009}},{"attributes":{"ID":440542,"DIS_CODE":0,"TOWNNAME":"永康區","LI":"蔦松里","LIN":"5鄰","STREET":"蔦松一街","SECT":" ","MAREA":" ","LANE":"２０１巷","ALLEY":" ","HOUSE_NO":"１０１號之１","E_COORD97":173337.14000000001,"N_COORD97":2549694.23,"ADDRESS":"蔦松一街２０１巷１０１號之１","OBJECTID":440517},"geometry":{"x":173337.1400000006,"y":2549694.2300000004}},{"attributes":{"ID":440543,"DIS_CODE":0,"TOWNNAME":"永康區","LI":"龍潭里","LIN":"38鄰","STREET":"中山北路","SECT":" ","MAREA":" ","LANE":"１６４巷","ALLEY":" ","HOUSE_NO":"８０號之２１","E_COORD97":174455.10000000001,"N_COORD97":2547365.7999999998,"ADDRESS":"中山北路１６４巷８０號之２１","OBJECTID":440518},"geometry":{"x":174455.09999999963,"y":2547365.8000000045}},{"attributes":{"ID":440544,"DIS_CODE":0,"TOWNNAME":"永康區","LI":"網寮里","LIN":"20鄰","STREET":"永二街","SECT":" ","MAREA":" ","LANE":"２４５巷","ALLEY":" ","HOUSE_NO":"３６號","E_COORD97":173286.34,"N_COORD97":2546127.0600000001,"ADDRESS":"永二街２４５巷３６號","OBJECTID":440519},"geometry":{"x":173286.34000000171,"y":2546127.0600000024}},{"attributes":{"ID":440545,"DIS_CODE":0,"TOWNNAME":"永康區","LI":"網寮里","LIN":"20鄰","STREET":"永二街","SECT":" ","MAREA":" ","LANE":"２４５巷","ALLEY":" ","HOUSE_NO":"１０號","E_COORD97":173311.29999999999,"N_COORD97":2546197.75,"ADDRESS":"永二街２４５巷１０號","OBJECTID":440520},"geometry":{"x":173311.29999999981,"y":2546197.75}},{"attributes":{"ID":440546,"DIS_CODE":0,"TOWNNAME":"永康區","LI":"網寮里","LIN":"20鄰","STREET":"永二街","SECT":" ","MAREA":" ","LANE":"２４５巷","ALLEY":" ","HOUSE_NO":"２７號之１","E_COORD97":173318.78,"N_COORD97":2546140.1200000001,"ADDRESS":"永二街２４５巷２７號之１","OBJECTID":440521},"geometry":{"x":173318.78000000026,"y":2546140.1200000048}},{"attributes":{"ID":440547,"DIS_CODE":0,"TOWNNAME":"永康區","LI":"蔦松里","LIN":"4鄰","STREET":"蔦松一街","SECT":" ","MAREA":" ","LANE":"３５巷","ALLEY":" ","HOUSE_NO":"２號","E_COORD97":173945.48999999999,"N_COORD97":2549392.4900000002,"ADDRESS":"蔦松一街３５巷２號","OBJECTID":440522},"geometry":{"x":173945.49000000115,"y":2549392.4900000021}},{"attributes":{"ID":440548,"DIS_CODE":0,"TOWNNAME":"永康區","LI":"龍潭里","LIN":"38鄰","STREET":"中山北路","SECT":" ","MAREA":" ","LANE":"１６４巷","ALLEY":" ","HOUSE_NO":"６０之６號","E_COORD97":174379.57000000001,"N_COORD97":2547390.5800000001,"ADDRESS":"中山北路１６４巷６０之６號","OBJECTID":440523},"geometry":{"x":174379.5700000003,"y":2547390.5800000038}},{"attributes":{"ID":440549,"DIS_CODE":0,"TOWNNAME":"永康區","LI":"龍潭里","LIN":"38鄰","STREET":"中山北路","SECT":" ","MAREA":" ","LANE":"１６４巷","ALLEY":" ","HOUSE_NO":"８０號之１０","E_COORD97":174455.14999999999,"N_COORD97":2547365.7999999998,"ADDRESS":"中山北路１６４巷８０號之１０","OBJECTID":440524},"geometry":{"x":174455.1500000013,"y":2547365.8000000045}},{"attributes":{"ID":440550,"DIS_CODE":0,"TOWNNAME":"永康區","LI":"網寮里","LIN":"20鄰","STREET":"永二街","SECT":" ","MAREA":" ","LANE":"２４５巷","ALLEY":" ","HOUSE_NO":"３４號","E_COORD97":173286.84,"N_COORD97":2546130.8100000001,"ADDRESS":"永二街２４５巷３４號","OBJECTID":440525},"geometry":{"x":173286.84000000078,"y":2546130.8100000005}},{"attributes":{"ID":440551,"DIS_CODE":0,"TOWNNAME":"永康區","LI":"蔦松里","LIN":"8鄰","STREET":"中正北路","SECT":" ","MAREA":" ","LANE":"４２９巷","ALLEY":" ","HOUSE_NO":"１２號","E_COORD97":173615.64999999999,"N_COORD97":2549199.23,"ADDRESS":"中正北路４２９巷１２號","OBJECTID":440526},"geometry":{"x":173615.6500000013,"y":2549199.2300000004}},{"attributes":{"ID":440552,"DIS_CODE":0,"TOWNNAME":"永康區","LI":"蔦松里","LIN":"4鄰","STREET":"蔦松一街","SECT":" ","MAREA":" ","LANE":"３５巷","ALLEY":" ","HOUSE_NO":"６號之１","E_COORD97":173938.03,"N_COORD97":2549360.29,"ADDRESS":"蔦松一街３５巷６號之１","OBJECTID":440527},"geometry":{"x":173938.03000000212,"y":2549360.2899999991}},{"attributes":{"ID":440553,"DIS_CODE":0,"TOWNNAME":"永康區","LI":"龍潭里","LIN":"38鄰","STREET":"中山北路","SECT":" ","MAREA":" ","LANE":"１６４巷","ALLEY":" ","HOUSE_NO":"８０號之２２","E_COORD97":174455.23000000001,"N_COORD97":2547365.7999999998,"ADDRESS":"中山北路１６４巷８０號之２２","OBJECTID":440528},"geometry":{"x":174455.23000000045,"y":2547365.8000000045}},{"attributes":{"ID":440554,"DIS_CODE":0,"TOWNNAME":"永康區","LI":"復興里","LIN":"20鄰","STREET":"復興路","SECT":" ","MAREA":" ","LANE":"２８２巷","ALLEY":" ","HOUSE_NO":"３９號","E_COORD97":172375.26000000001,"N_COORD97":2544401.02,"ADDRESS":"復興路２８２巷３９號","OBJECTID":440529},"geometry":{"x":172375.26000000071,"y":2544401.0200000014}},{"attributes":{"ID":440555,"DIS_CODE":0,"TOWNNAME":"永康區","LI":"網寮里","LIN":"24鄰","STREET":"永春街","SECT":" ","MAREA":" ","LANE":"３６巷","ALLEY":" ","HOUSE_NO":"１０號","E_COORD97":173773.62,"N_COORD97":2546381.9199999999,"ADDRESS":"永春街３６巷１０號","OBJECTID":440530},"geometry":{"x":173773.62000000104,"y":2546381.9200000018}},{"attributes":{"ID":440556,"DIS_CODE":0,"TOWNNAME":"永康區","LI":"龍潭里","LIN":"38鄰","STREET":"中山北路","SECT":" ","MAREA":" ","LANE":"１６４巷","ALLEY":" ","HOUSE_NO":"５２號","E_COORD97":174343.29999999999,"N_COORD97":2547391.9399999999,"ADDRESS":"中山北路１６４巷５２號","OBJECTID":440531},"geometry":{"x":174343.30000000075,"y":2547391.9400000013}},{"attributes":{"ID":440557,"DIS_CODE":0,"TOWNNAME":"永康區","LI":"網寮里","LIN":"20鄰","STREET":"永二街","SECT":" ","MAREA":" ","LANE":"２４５巷","ALLEY":" ","HOUSE_NO":"１號","E_COORD97":173332.98999999999,"N_COORD97":2546194.9900000002,"ADDRESS":"永二街２４５巷１號","OBJECTID":440532},"geometry":{"x":173332.98999999929,"y":2546194.9900000021}},{"attributes":{"ID":440558,"DIS_CODE":0,"TOWNNAME":"永康區","LI":"網寮里","LIN":"25鄰","STREET":"永華路","SECT":" ","MAREA":" ","LANE":"４６５巷","ALLEY":" ","HOUSE_NO":"１７號","E_COORD97":173825.07000000001,"N_COORD97":2546585.2400000002,"ADDRESS":"永華路４６５巷１７號","OBJECTID":440533},"geometry":{"x":173825.0700000003,"y":2546585.2400000002}},{"attributes":{"ID":440559,"DIS_CODE":0,"TOWNNAME":"永康區","LI":"\u25A0行里","LIN":"8鄰","STREET":"中正一街","SECT":" ","MAREA":" ","LANE":"３２巷","ALLEY":" ","HOUSE_NO":"８號","E_COORD97":172814.54999999999,"N_COORD97":2548306,"ADDRESS":"中正一街３２巷８號","OBJECTID":440534},"geometry":{"x":172814.54999999981,"y":2548306}},{"attributes":{"ID":440560,"DIS_CODE":0,"TOWNNAME":"仁德區","LI":"土庫里","LIN":"13鄰","STREET":"土庫路","SECT":" ","MAREA":" ","LANE":"２１１巷","ALLEY":" ","HOUSE_NO":"１０號","E_COORD97":174318.23000000001,"N_COORD97":2542880.2400000002,"ADDRESS":"土庫路２１１巷１０號","OBJECTID":440535},"geometry":{"x":174318.23000000231,"y":2542880.2400000039}},{"attributes":{"ID":440561,"DIS_CODE":0,"TOWNNAME":"仁德區","LI":"土庫里","LIN":"20鄰","STREET":"太子二街","SECT":" ","MAREA":" ","LANE":"８８巷","ALLEY":" ","HOUSE_NO":"３２號","E_COORD97":174387.69,"N_COORD97":2543223.7599999998,"ADDRESS":"太子二街８８巷３２號","OBJECTID":440536},"geometry":{"x":174387.69000000041,"y":2543223.7600000016}},{"attributes":{"ID":440562,"DIS_CODE":0,"TOWNNAME":"仁德區","LI":"土庫里","LIN":"13鄰","STREET":"土庫路","SECT":" ","MAREA":" ","LANE":"２４５巷","ALLEY":" ","HOUSE_NO":"１２號","E_COORD97":174270,"N_COORD97":2542826.5,"ADDRESS":"土庫路２４５巷１２號","OBJECTID":440537},"geometry":{"x":174270,"y":2542826.5}},{"attributes":{"ID":440563,"DIS_CODE":0,"TOWNNAME":"仁德區","LI":"土庫里","LIN":"13鄰","STREET":"土庫路","SECT":" ","MAREA":" ","LANE":"２１１巷","ALLEY":" ","HOUSE_NO":"９號","E_COORD97":174327.75,"N_COORD97":2542887.5,"ADDRESS":"土庫路２１１巷９號","OBJECTID":440538},"geometry":{"x":174327.74999999907,"y":2542887.5}},{"attributes":{"ID":440564,"DIS_CODE":0,"TOWNNAME":"仁德區","LI":"大甲里","LIN":"24鄰","STREET":"行大街","SECT":" ","MAREA":" ","LANE":"４０２巷","ALLEY":" ","HOUSE_NO":"６１號","E_COORD97":169585.79000000001,"N_COORD97":2535266.75,"ADDRESS":"行大街４０２巷６１號","OBJECTID":440539},"geometry":{"x":169585.79000000004,"y":2535266.7500000019}},{"attributes":{"ID":440565,"DIS_CODE":0,"TOWNNAME":"仁德區","LI":"二行里","LIN":"4鄰","STREET":"二行一路","SECT":" ","MAREA":" ","LANE":"８３巷","ALLEY":" ","HOUSE_NO":"６號","E_COORD97":170397.28,"N_COORD97":2535354,"ADDRESS":"二行一路８３巷６號","OBJECTID":440540},"geometry":{"x":170397.28000000119,"y":2535354}},{"attributes":{"ID":440566,"DIS_CODE":0,"TOWNNAME":"仁德區","LI":"大甲里","LIN":"18鄰","STREET":"行大街","SECT":" ","MAREA":" ","LANE":"５２１巷","ALLEY":" ","HOUSE_NO":"７號","E_COORD97":169244.79000000001,"N_COORD97":2535342.75,"ADDRESS":"行大街５２１巷７號","OBJECTID":440541},"geometry":{"x":169244.79000000004,"y":2535342.75}},{"attributes":{"ID":440567,"DIS_CODE":0,"TOWNNAME":"仁德區","LI":"土庫里","LIN":"4鄰","STREET":"土庫三街","SECT":" ","MAREA":" ","LANE":"５２巷","ALLEY":" ","HOUSE_NO":"９號","E_COORD97":174241.20999999999,"N_COORD97":2542983.7400000002,"ADDRESS":"土庫三街５２巷９號","OBJECTID":440542},"geometry":{"x":174241.20999999996,"y":2542983.7400000002}},{"attributes":{"ID":440568,"DIS_CODE":0,"TOWNNAME":"仁德區","LI":"土庫里","LIN":"5鄰","STREET":"土庫三街","SECT":" ","MAREA":" ","LANE":"３９巷","ALLEY":" ","HOUSE_NO":"２號","E_COORD97":174223.14999999999,"N_COORD97":2543107,"ADDRESS":"土庫三街３９巷２號","OBJECTID":440543},"geometry":{"x":174223.15000000037,"y":2543107.0000000019}},{"attributes":{"ID":440569,"DIS_CODE":0,"TOWNNAME":"仁德區","LI":"大甲里","LIN":"24鄰","STREET":"行大街","SECT":" ","MAREA":" ","LANE":"４０２巷","ALLEY":" ","HOUSE_NO":"５１號","E_COORD97":169565.01000000001,"N_COORD97":2535275.2400000002,"ADDRESS":"行大街４０２巷５１號","OBJECTID":440544},"geometry":{"x":169565.00999999978,"y":2535275.2400000002}},{"attributes":{"ID":440570,"DIS_CODE":0,"TOWNNAME":"仁德區","LI":"土庫里","LIN":"4鄰","STREET":"土庫三街","SECT":" ","MAREA":" ","LANE":"５２巷","ALLEY":" ","HOUSE_NO":"７號","E_COORD97":174239.23999999999,"N_COORD97":2542993,"ADDRESS":"土庫三街５２巷７號","OBJECTID":440545},"geometry":{"x":174239.24000000022,"y":2542993}},{"attributes":{"ID":440571,"DIS_CODE":0,"TOWNNAME":"仁德區","LI":"土庫里","LIN":"4鄰","STREET":"土庫三街","SECT":" ","MAREA":" ","LANE":"５２巷","ALLEY":" ","HOUSE_NO":"１號","E_COORD97":174227.97,"N_COORD97":2543053.7400000002,"ADDRESS":"土庫三街５２巷１號","OBJECTID":440546},"geometry":{"x":174227.97000000067,"y":2543053.7400000021}},{"attributes":{"ID":440572,"DIS_CODE":0,"TOWNNAME":"仁德區","LI":"土庫里","LIN":"4鄰","STREET":"土庫三街","SECT":" ","MAREA":" ","LANE":"５２巷","ALLEY":" ","HOUSE_NO":"１３號","E_COORD97":174264.62,"N_COORD97":2542980.7400000002,"ADDRESS":"土庫三街５２巷１３號","OBJECTID":440547},"geometry":{"x":174264.62000000104,"y":2542980.7400000002}},{"attributes":{"ID":440573,"DIS_CODE":0,"TOWNNAME":"仁德區","LI":"土庫里","LIN":"20鄰","STREET":"太子二街","SECT":" ","MAREA":" ","LANE":"８８巷","ALLEY":" ","HOUSE_NO":"２０號","E_COORD97":174376.04000000001,"N_COORD97":2543238.2599999998,"ADDRESS":"太子二街８８巷２０號","OBJECTID":440548},"geometry":{"x":174376.04000000004,"y":2543238.2599999998}},{"attributes":{"ID":440574,"DIS_CODE":0,"TOWNNAME":"仁德區","LI":"土庫里","LIN":"13鄰","STREET":"土庫路","SECT":" ","MAREA":" ","LANE":"２４５巷","ALLEY":" ","HOUSE_NO":"３號","E_COORD97":174263.51000000001,"N_COORD97":2542836.4900000002,"ADDRESS":"土庫路２４５巷３號","OBJECTID":440549},"geometry":{"x":174263.51000000071,"y":2542836.4900000002}},{"attributes":{"ID":440575,"DIS_CODE":0,"TOWNNAME":"仁德區","LI":"二行里","LIN":"4鄰","STREET":"二行一路","SECT":" ","MAREA":" ","LANE":"８３巷","ALLEY":" ","HOUSE_NO":"８號","E_COORD97":170390.13,"N_COORD97":2535355,"ADDRESS":"二行一路８３巷８號","OBJECTID":440550},"geometry":{"x":170390.12999999989,"y":2535355.0000000037}},{"attributes":{"ID":440576,"DIS_CODE":0,"TOWNNAME":"仁德區","LI":"大甲里","LIN":"18鄰","STREET":"行大街","SECT":" ","MAREA":" ","LANE":"５５５巷","ALLEY":" ","HOUSE_NO":"７號","E_COORD97":169187.35000000001,"N_COORD97":2535397.2400000002,"ADDRESS":"行大街５５５巷７號","OBJECTID":440551},"geometry":{"x":169187.35000000056,"y":2535397.2400000002}},{"attributes":{"ID":440577,"DIS_CODE":0,"TOWNNAME":"仁德區","LI":"土庫里","LIN":"20鄰","STREET":"太子二街","SECT":" ","MAREA":" ","LANE":"１３８巷","ALLEY":" ","HOUSE_NO":"３號","E_COORD97":174470,"N_COORD97":2543249.5,"ADDRESS":"太子二街１３８巷３號","OBJECTID":440552},"geometry":{"x":174470,"y":2543249.5000000019}},{"attributes":{"ID":440578,"DIS_CODE":0,"TOWNNAME":"仁德區","LI":"上崙里","LIN":"24鄰","STREET":"中正路","SECT":"一段","MAREA":" ","LANE":"７７４巷","ALLEY":" ","HOUSE_NO":"８號","E_COORD97":173025.42999999999,"N_COORD97":2537869.02,"ADDRESS":"中正路一段７７４巷８號","OBJECTID":440553},"geometry":{"x":173025.4299999997,"y":2537869.0199999996}},{"attributes":{"ID":440579,"DIS_CODE":0,"TOWNNAME":"仁德區","LI":"大甲里","LIN":"24鄰","STREET":"行大街","SECT":" ","MAREA":" ","LANE":"４０２巷","ALLEY":" ","HOUSE_NO":"５９號","E_COORD97":169581.42999999999,"N_COORD97":2535268.5,"ADDRESS":"行大街４０２巷５９號","OBJECTID":440554},"geometry":{"x":169581.43000000156,"y":2535268.5000000019}},{"attributes":{"ID":440580,"DIS_CODE":0,"TOWNNAME":"仁德區","LI":"仁義里","LIN":"18鄰","STREET":"正義路","SECT":" ","MAREA":" ","LANE":"２０５巷","ALLEY":" ","HOUSE_NO":"２９號","E_COORD97":174010.17999999999,"N_COORD97":2541426.5099999998,"ADDRESS":"正義路２０５巷２９號","OBJECTID":440555},"geometry":{"x":174010.1799999997,"y":2541426.5099999998}},{"attributes":{"ID":440581,"DIS_CODE":0,"TOWNNAME":"仁德區","LI":"大甲里","LIN":"4鄰","STREET":"行大街","SECT":" ","MAREA":" ","LANE":"２８５巷","ALLEY":" ","HOUSE_NO":"９號","E_COORD97":169744.54000000001,"N_COORD97":2535097.4900000002,"ADDRESS":"行大街２８５巷９號","OBJECTID":440556},"geometry":{"x":169744.54000000097,"y":2535097.4899999984}},{"attributes":{"ID":440582,"DIS_CODE":0,"TOWNNAME":"仁德區","LI":"仁義里","LIN":"4鄰","STREET":"仁義三街","SECT":" ","MAREA":" ","LANE":"１９８巷","ALLEY":" ","HOUSE_NO":"２號","E_COORD97":173831.28,"N_COORD97":2541095.7599999998,"ADDRESS":"仁義三街１９８巷２號","OBJECTID":440557},"geometry":{"x":173831.28000000212,"y":2541095.7599999998}},{"attributes":{"ID":440583,"DIS_CODE":0,"TOWNNAME":"仁德區","LI":"土庫里","LIN":"5鄰","STREET":"土庫六街","SECT":" ","MAREA":" ","LANE":"７５巷","ALLEY":" ","HOUSE_NO":"８６號","E_COORD97":174112.89999999999,"N_COORD97":2543155.5,"ADDRESS":"土庫六街７５巷８６號","OBJECTID":440558},"geometry":{"x":174112.90000000037,"y":2543155.5}},{"attributes":{"ID":440584,"DIS_CODE":0,"TOWNNAME":"仁德區","LI":"仁義里","LIN":"50鄰","STREET":"中清路","SECT":" ","MAREA":" ","LANE":"２３巷","ALLEY":" ","HOUSE_NO":"９號","E_COORD97":173653.73999999999,"N_COORD97":2541044.7999999998,"ADDRESS":"中清路２３巷９號","OBJECTID":440559},"geometry":{"x":173653.74000000115,"y":2541044.8000000007}},{"attributes":{"ID":440585,"DIS_CODE":0,"TOWNNAME":"仁德區","LI":"仁義里","LIN":"18鄰","STREET":"正義路","SECT":" ","MAREA":" ","LANE":"１９１巷","ALLEY":" ","HOUSE_NO":"５號","E_COORD97":173885,"N_COORD97":2541415.5099999998,"ADDRESS":"正義路１９１巷５號","OBJECTID":440560},"geometry":{"x":173885,"y":2541415.5099999998}},{"attributes":{"ID":440586,"DIS_CODE":0,"TOWNNAME":"仁德區","LI":"大甲里","LIN":"4鄰","STREET":"行大街","SECT":" ","MAREA":" ","LANE":"２７１巷","ALLEY":" ","HOUSE_NO":"２之１號","E_COORD97":169764.59,"N_COORD97":2535103.04,"ADDRESS":"行大街２７１巷２之１號","OBJECTID":440561},"geometry":{"x":169764.58999999985,"y":2535103.0400000028}},{"attributes":{"ID":440587,"DIS_CODE":0,"TOWNNAME":"仁德區","LI":"仁義里","LIN":"18鄰","STREET":"正義路","SECT":" ","MAREA":" ","LANE":"１９１巷","ALLEY":" ","HOUSE_NO":"９號","E_COORD97":173887.04000000001,"N_COORD97":2541423.5099999998,"ADDRESS":"正義路１９１巷９號","OBJECTID":440562},"geometry":{"x":173887.04000000097,"y":2541423.5100000035}},{"attributes":{"ID":440588,"DIS_CODE":0,"TOWNNAME":"仁德區","LI":"仁德里","LIN":"4鄰","STREET":"仁中二街","SECT":" ","MAREA":" ","LANE":"７６巷","ALLEY":" ","HOUSE_NO":"２２號","E_COORD97":173277.95000000001,"N_COORD97":2540578.7400000002,"ADDRESS":"仁中二街７６巷２２號","OBJECTID":440563},"geometry":{"x":173277.95000000112,"y":2540578.7400000021}},{"attributes":{"ID":440589,"DIS_CODE":0,"TOWNNAME":"仁德區","LI":"仁義里","LIN":"4鄰","STREET":"仁義三街","SECT":" ","MAREA":" ","LANE":"１７０巷","ALLEY":" ","HOUSE_NO":"７號","E_COORD97":173795.06,"N_COORD97":2541092.7599999998,"ADDRESS":"仁義三街１７０巷７號","OBJECTID":440564},"geometry":{"x":173795.06000000052,"y":2541092.7599999979}},{"attributes":{"ID":440590,"DIS_CODE":0,"TOWNNAME":"仁德區","LI":"仁德里","LIN":"18鄰","STREET":"文華路","SECT":"三段","MAREA":" ","LANE":"１８９巷","ALLEY":" ","HOUSE_NO":"８３號","E_COORD97":172091.20999999999,"N_COORD97":2540461.5,"ADDRESS":"文華路三段１８９巷８３號","OBJECTID":440565},"geometry":{"x":172091.21000000089,"y":2540461.5000000019}},{"attributes":{"ID":440591,"DIS_CODE":0,"TOWNNAME":"仁德區","LI":"土庫里","LIN":"5鄰","STREET":"土庫六街","SECT":" ","MAREA":" ","LANE":"７５巷","ALLEY":" ","HOUSE_NO":"７７號","E_COORD97":174138.87,"N_COORD97":2543128.25,"ADDRESS":"土庫六街７５巷７７號","OBJECTID":440566},"geometry":{"x":174138.86999999918,"y":2543128.2500000019}},{"attributes":{"ID":440592,"DIS_CODE":0,"TOWNNAME":"仁德區","LI":"仁義里","LIN":"4鄰","STREET":"仁義三街","SECT":" ","MAREA":" ","LANE":"１９８巷","ALLEY":" ","HOUSE_NO":"８號","E_COORD97":173830.35999999999,"N_COORD97":2541082.0099999998,"ADDRESS":"仁義三街１９８巷８號","OBJECTID":440567},"geometry":{"x":173830.36000000034,"y":2541082.0100000016}},{"attributes":{"ID":440593,"DIS_CODE":0,"TOWNNAME":"仁德區","LI":"仁義里","LIN":"46鄰","STREET":"仁義路","SECT":" ","MAREA":" ","LANE":"１２６巷","ALLEY":" ","HOUSE_NO":"２２號","E_COORD97":173679.67000000001,"N_COORD97":2540894.3900000001,"ADDRESS":"仁義路１２６巷２２號","OBJECTID":440568},"geometry":{"x":173679.67000000086,"y":2540894.3900000025}},{"attributes":{"ID":440594,"DIS_CODE":0,"TOWNNAME":"仁德區","LI":"仁德里","LIN":"18鄰","STREET":"文華路","SECT":"三段","MAREA":" ","LANE":"１８９巷","ALLEY":" ","HOUSE_NO":"７０號","E_COORD97":172104.20000000001,"N_COORD97":2540484.8199999998,"ADDRESS":"文華路三段１８９巷７０號","OBJECTID":440569},"geometry":{"x":172104.19999999925,"y":2540484.8200000003}},{"attributes":{"ID":440595,"DIS_CODE":0,"TOWNNAME":"仁德區","LI":"仁德里","LIN":"4鄰","STREET":"仁中二街","SECT":" ","MAREA":" ","LANE":"７６巷","ALLEY":" ","HOUSE_NO":"１６號","E_COORD97":173288.06,"N_COORD97":2540570.2400000002,"ADDRESS":"仁中二街７６巷１６號","OBJECTID":440570},"geometry":{"x":173288.06000000052,"y":2540570.2400000002}},{"attributes":{"ID":440596,"DIS_CODE":0,"TOWNNAME":"仁德區","LI":"仁德里","LIN":"18鄰","STREET":"文華路","SECT":"三段","MAREA":" ","LANE":"１８９巷","ALLEY":" ","HOUSE_NO":"７３號","E_COORD97":172082.85999999999,"N_COORD97":2540438.5099999998,"ADDRESS":"文華路三段１８９巷７３號","OBJECTID":440571},"geometry":{"x":172082.86000000034,"y":2540438.5100000016}},{"attributes":{"ID":440597,"DIS_CODE":0,"TOWNNAME":"仁德區","LI":"仁德里","LIN":"18鄰","STREET":"文華路","SECT":"三段","MAREA":" ","LANE":"１８９巷","ALLEY":" ","HOUSE_NO":"８５號","E_COORD97":172092,"N_COORD97":2540467,"ADDRESS":"文華路三段１８９巷８５號","OBJECTID":440572},"geometry":{"x":172092.00000000186,"y":2540467}},{"attributes":{"ID":440598,"DIS_CODE":0,"TOWNNAME":"仁德區","LI":"仁德里","LIN":"18鄰","STREET":"文華路","SECT":"三段","MAREA":" ","LANE":"１８９巷","ALLEY":" ","HOUSE_NO":"９７號","E_COORD97":172038.04000000001,"N_COORD97":2540482.0699999998,"ADDRESS":"文華路三段１８９巷９７號","OBJECTID":440573},"geometry":{"x":172038.04000000097,"y":2540482.0700000022}},{"attributes":{"ID":440599,"DIS_CODE":0,"TOWNNAME":"仁德區","LI":"仁德里","LIN":"6鄰","STREET":"仁德三街","SECT":" ","MAREA":" ","LANE":"９巷","ALLEY":" ","HOUSE_NO":"１號","E_COORD97":173321.51999999999,"N_COORD97":2540976.7599999998,"ADDRESS":"仁德三街９巷１號","OBJECTID":440574},"geometry":{"x":173321.51999999955,"y":2540976.7599999998}},{"attributes":{"ID":440600,"DIS_CODE":0,"TOWNNAME":"仁德區","LI":"仁德里","LIN":"18鄰","STREET":"文華路","SECT":"三段","MAREA":" ","LANE":"１８９巷","ALLEY":" ","HOUSE_NO":"６９號","E_COORD97":172098.12,"N_COORD97":2540430.2599999998,"ADDRESS":"文華路三段１８９巷６９號","OBJECTID":440575},"geometry":{"x":172098.12000000104,"y":2540430.2599999998}},{"attributes":{"ID":440601,"DIS_CODE":0,"TOWNNAME":"仁德區","LI":"仁義里","LIN":"18鄰","STREET":"正義三街","SECT":" ","MAREA":" ","LANE":"２８６巷","ALLEY":" ","HOUSE_NO":"４８號","E_COORD97":173988.76000000001,"N_COORD97":2541448.5,"ADDRESS":"正義三街２８６巷４８號","OBJECTID":440576},"geometry":{"x":173988.76000000071,"y":2541448.5000000019}},{"attributes":{"ID":440602,"DIS_CODE":0,"TOWNNAME":"仁德區","LI":"仁德里","LIN":"20鄰","STREET":"中山路","SECT":" ","MAREA":" ","LANE":"８７５巷","ALLEY":" ","HOUSE_NO":"２３號","E_COORD97":172414.76999999999,"N_COORD97":2541488.4900000002,"ADDRESS":"中山路８７５巷２３號","OBJECTID":440577},"geometry":{"x":172414.76999999955,"y":2541488.4900000039}},{"attributes":{"ID":440603,"DIS_CODE":0,"TOWNNAME":"仁德區","LI":"太子里","LIN":"32鄰","STREET":"太子三街","SECT":" ","MAREA":" ","LANE":"２３巷","ALLEY":" ","HOUSE_NO":"１號","E_COORD97":174004.54999999999,"N_COORD97":2543445.5099999998,"ADDRESS":"太子三街２３巷１號","OBJECTID":440578},"geometry":{"x":174004.54999999981,"y":2543445.5100000016}},{"attributes":{"ID":440604,"DIS_CODE":0,"TOWNNAME":"仁德區","LI":"仁義里","LIN":"46鄰","STREET":"仁義路","SECT":" ","MAREA":" ","LANE":"９８巷","ALLEY":" ","HOUSE_NO":"２１號","E_COORD97":173629.44,"N_COORD97":2540895.2599999998,"ADDRESS":"仁義路９８巷２１號","OBJECTID":440579},"geometry":{"x":173629.44000000041,"y":2540895.2599999998}},{"attributes":{"ID":440605,"DIS_CODE":0,"TOWNNAME":"仁德區","LI":"仁義里","LIN":"18鄰","STREET":"正義三街","SECT":" ","MAREA":" ","LANE":"２８６巷","ALLEY":" ","HOUSE_NO":"５６號","E_COORD97":173985.57000000001,"N_COORD97":2541436.5,"ADDRESS":"正義三街２８６巷５６號","OBJECTID":440580},"geometry":{"x":173985.57000000123,"y":2541436.5}},{"attributes":{"ID":440606,"DIS_CODE":0,"TOWNNAME":"仁德區","LI":"仁德里","LIN":"18鄰","STREET":"文華路","SECT":"三段","MAREA":" ","LANE":"１８９巷","ALLEY":" ","HOUSE_NO":"９９號","E_COORD97":172050.64999999999,"N_COORD97":2540495.8199999998,"ADDRESS":"文華路三段１８９巷９９號","OBJECTID":440581},"geometry":{"x":172050.65000000224,"y":2540495.8200000003}},{"attributes":{"ID":440607,"DIS_CODE":0,"TOWNNAME":"安南區","LI":"安慶里","LIN":"13鄰","STREET":"怡安路","SECT":"一段","MAREA":" ","LANE":"１３巷","ALLEY":" ","HOUSE_NO":"７號","E_COORD97":169513.04999999999,"N_COORD97":2548910.4399999999,"ADDRESS":"怡安路一段１３巷７號","OBJECTID":440582},"geometry":{"x":169513.05000000168,"y":2548910.4400000013}},{"attributes":{"ID":440608,"DIS_CODE":0,"TOWNNAME":"安南區","LI":"安慶里","LIN":"13鄰","STREET":"怡安路","SECT":"一段","MAREA":" ","LANE":"１３巷","ALLEY":" ","HOUSE_NO":"９號","E_COORD97":169509.84,"N_COORD97":2548907.25,"ADDRESS":"怡安路一段１３巷９號","OBJECTID":440583},"geometry":{"x":169509.84000000078,"y":2548907.25}},{"attributes":{"ID":440609,"DIS_CODE":0,"TOWNNAME":"安南區","LI":"安慶里","LIN":"13鄰","STREET":"怡安路","SECT":"一段","MAREA":" ","LANE":"１３巷","ALLEY":" ","HOUSE_NO":"１１號","E_COORD97":169509.79000000001,"N_COORD97":2548901.6400000001,"ADDRESS":"怡安路一段１３巷１１號","OBJECTID":440584},"geometry":{"x":169509.78999999911,"y":2548901.6400000006}},{"attributes":{"ID":440610,"DIS_CODE":0,"TOWNNAME":"安南區","LI":"安慶里","LIN":"13鄰","STREET":"怡安路","SECT":"一段","MAREA":" ","LANE":"１３巷","ALLEY":" ","HOUSE_NO":"１３號","E_COORD97":169502.23999999999,"N_COORD97":2548897.1899999999,"ADDRESS":"怡安路一段１３巷１３號","OBJECTID":440585},"geometry":{"x":169502.24000000115,"y":2548897.1899999995}},{"attributes":{"ID":440611,"DIS_CODE":0,"TOWNNAME":"安南區","LI":"溪心里","LIN":"12鄰","STREET":"海佃路","SECT":"二段","MAREA":" ","LANE":"７００巷","ALLEY":" ","HOUSE_NO":"１１號","E_COORD97":166590.76000000001,"N_COORD97":2549530.3900000001,"ADDRESS":"海佃路二段７００巷１１號","OBJECTID":440586},"geometry":{"x":166590.76000000164,"y":2549530.3900000006}},{"attributes":{"ID":440612,"DIS_CODE":0,"TOWNNAME":"安南區","LI":"溪心里","LIN":"12鄰","STREET":"海佃路","SECT":"二段","MAREA":" ","LANE":"７００巷","ALLEY":" ","HOUSE_NO":"１３號","E_COORD97":166592.13,"N_COORD97":2549536.7599999998,"ADDRESS":"海佃路二段７００巷１３號","OBJECTID":440587},"geometry":{"x":166592.13000000082,"y":2549536.7599999998}},{"attributes":{"ID":440613,"DIS_CODE":0,"TOWNNAME":"安南區","LI":"溪心里","LIN":"12鄰","STREET":"海佃路","SECT":"二段","MAREA":" ","LANE":"７００巷","ALLEY":" ","HOUSE_NO":"１５號","E_COORD97":166595.16,"N_COORD97":2549540.21,"ADDRESS":"海佃路二段７００巷１５號","OBJECTID":440588},"geometry":{"x":166595.16000000201,"y":2549540.2100000028}},{"attributes":{"ID":440614,"DIS_CODE":0,"TOWNNAME":"安南區","LI":"溪心里","LIN":"12鄰","STREET":"海佃路","SECT":"二段","MAREA":" ","LANE":"７００巷","ALLEY":" ","HOUSE_NO":"１７號","E_COORD97":166599.39999999999,"N_COORD97":2549541.54,"ADDRESS":"海佃路二段７００巷１７號","OBJECTID":440589},"geometry":{"x":166599.4000000013,"y":2549541.5399999991}},{"attributes":{"ID":440615,"DIS_CODE":0,"TOWNNAME":"安南區","LI":"溪心里","LIN":"12鄰","STREET":"海佃路","SECT":"二段","MAREA":" ","LANE":"７００巷","ALLEY":" ","HOUSE_NO":"１９號","E_COORD97":166603.04000000001,"N_COORD97":2549543.9300000002,"ADDRESS":"海佃路二段７００巷１９號","OBJECTID":440590},"geometry":{"x":166603.04000000097,"y":2549543.9300000034}},{"attributes":{"ID":440616,"DIS_CODE":0,"TOWNNAME":"安南區","LI":"溪心里","LIN":"12鄰","STREET":"海佃路","SECT":"二段","MAREA":" ","LANE":"７００巷","ALLEY":" ","HOUSE_NO":"２１號","E_COORD97":166606.70000000001,"N_COORD97":2549546.3300000001,"ADDRESS":"海佃路二段７００巷２１號","OBJECTID":440591},"geometry":{"x":166606.69999999925,"y":2549546.3300000019}},{"attributes":{"ID":440617,"DIS_CODE":0,"TOWNNAME":"安南區","LI":"溪心里","LIN":"12鄰","STREET":"海佃路","SECT":"二段","MAREA":" ","LANE":"７００巷","ALLEY":" ","HOUSE_NO":"２５號","E_COORD97":166618.14999999999,"N_COORD97":2549549.4900000002,"ADDRESS":"海佃路二段７００巷２５號","OBJECTID":440592},"geometry":{"x":166618.1500000013,"y":2549549.4900000002}},{"attributes":{"ID":440618,"DIS_CODE":0,"TOWNNAME":"安南區","LI":"淵東里","LIN":"12鄰","STREET":"海佃路","SECT":"四段","MAREA":" ","LANE":"１４９巷","ALLEY":" ","HOUSE_NO":"３號","E_COORD97":165623.82000000001,"N_COORD97":2550765.3799999999,"ADDRESS":"海佃路四段１４９巷３號","OBJECTID":440593},"geometry":{"x":165623.8200000003,"y":2550765.3800000008}},{"attributes":{"ID":440619,"DIS_CODE":0,"TOWNNAME":"東區","LI":"中西里","LIN":"4鄰","STREET":"勝利路","SECT":" ","MAREA":" ","LANE":"１２巷","ALLEY":" ","HOUSE_NO":"２５號","E_COORD97":169908.37,"N_COORD97":2543406.2400000002,"ADDRESS":"勝利路１２巷２５號","OBJECTID":440594},"geometry":{"x":169908.37000000104,"y":2543406.2400000021}},{"attributes":{"ID":440620,"DIS_CODE":0,"TOWNNAME":"東區","LI":"中西里","LIN":"4鄰","STREET":"勝利路","SECT":" ","MAREA":" ","LANE":"１２巷","ALLEY":" ","HOUSE_NO":"２７號","E_COORD97":169902.85999999999,"N_COORD97":2543406.4300000002,"ADDRESS":"勝利路１２巷２７號","OBJECTID":440595},"geometry":{"x":169902.86000000034,"y":2543406.4299999997}},{"attributes":{"ID":440621,"DIS_CODE":0,"TOWNNAME":"東區","LI":"中西里","LIN":"4鄰","STREET":"勝利路","SECT":" ","MAREA":" ","LANE":"１２巷","ALLEY":" ","HOUSE_NO":"２９號","E_COORD97":169903.41,"N_COORD97":2543394.7000000002,"ADDRESS":"勝利路１２巷２９號","OBJECTID":440596},"geometry":{"x":169903.41000000015,"y":2543394.6999999974}},{"attributes":{"ID":440622,"DIS_CODE":0,"TOWNNAME":"仁德區","LI":"太子里","LIN":"39鄰","STREET":"太子路","SECT":" ","MAREA":" ","LANE":"８６巷","ALLEY":" ","HOUSE_NO":"８之３號","E_COORD97":175056.65685199999,"N_COORD97":2543727.7872500001,"ADDRESS":"太子路８６巷８之３號","OBJECTID":440597},"geometry":{"x":175056.65685200132,"y":2543727.7872480005}},{"attributes":{"ID":440623,"DIS_CODE":0,"TOWNNAME":"東區","LI":"新東里","LIN":"20鄰","STREET":"裕豐街","SECT":" ","MAREA":" ","LANE":"１６３巷","ALLEY":" ","HOUSE_NO":"３號","E_COORD97":170692.20000000001,"N_COORD97":2543131.4700000002,"ADDRESS":"裕豐街１６３巷３號","OBJECTID":440598},"geometry":{"x":170692.20000000205,"y":2543131.4700000025}},{"attributes":{"ID":440624,"DIS_CODE":0,"TOWNNAME":"東區","LI":"新東里","LIN":"20鄰","STREET":"裕豐街","SECT":" ","MAREA":" ","LANE":"１６３巷","ALLEY":" ","HOUSE_NO":"５號","E_COORD97":170688.34,"N_COORD97":2543130.73,"ADDRESS":"裕豐街１６３巷５號","OBJECTID":440599},"geometry":{"x":170688.34000000078,"y":2543130.7300000004}},{"attributes":{"ID":440625,"DIS_CODE":0,"TOWNNAME":"東區","LI":"新東里","LIN":"20鄰","STREET":"裕豐街","SECT":" ","MAREA":" ","LANE":"１６３巷","ALLEY":" ","HOUSE_NO":"７號","E_COORD97":170681.37,"N_COORD97":2543128.7599999998,"ADDRESS":"裕豐街１６３巷７號","OBJECTID":440600},"geometry":{"x":170681.37000000104,"y":2543128.7600000016}}]}