{"displayFieldName":"TOWNNAME","fieldAliases":{"ID":"ID","DIS_CODE":"DIS_CODE","TOWNNAME":"TOWNNAME","LI":"LI","LIN":"LIN","STREET":"STREET","SECT":"SECT","MAREA":"MAREA","LANE":"LANE","ALLEY":"ALLEY","HOUSE_NO":"HOUSE_NO","E_COORD97":"E_COORD97","N_COORD97":"N_COORD97","ADDRESS":"ADDRESS","OBJECTID":"OBJECTID"},"geometryType":"esriGeometryPoint","spatialReference":{"wkid":102443,"latestWkid":3826},"fields":[{"name":"ID","type":"esriFieldTypeDouble","alias":"ID"},{"name":"DIS_CODE","type":"esriFieldTypeInteger","alias":"DIS_CODE"},{"name":"TOWNNAME","type":"esriFieldTypeString","alias":"TOWNNAME","length":8},{"name":"LI","type":"esriFieldTypeString","alias":"LI","length":8},{"name":"LIN","type":"esriFieldTypeString","alias":"LIN","length":12},{"name":"STREET","type":"esriFieldTypeString","alias":"STREET","length":20},{"name":"SECT","type":"esriFieldTypeString","alias":"SECT","length":8},{"name":"MAREA","type":"esriFieldTypeString","alias":"MAREA","length":12},{"name":"LANE","type":"esriFieldTypeString","alias":"LANE","length":10},{"name":"ALLEY","type":"esriFieldTypeString","alias":"ALLEY","length":10},{"name":"HOUSE_NO","type":"esriFieldTypeString","alias":"HOUSE_NO","length":20},{"name":"E_COORD97","type":"esriFieldTypeDouble","alias":"E_COORD97"},{"name":"N_COORD97","type":"esriFieldTypeDouble","alias":"N_COORD97"},{"name":"ADDRESS","type":"esriFieldTypeString","alias":"ADDRESS","length":50},{"name":"OBJECTID","type":"esriFieldTypeOID","alias":"OBJECTID"}],"features":[{"attributes":{"ID":290607,"DIS_CODE":0,"TOWNNAME":"永康區","LI":"甲頂里","LIN":"13鄰","STREET":"大武街","SECT":" ","MAREA":" ","LANE":" ","ALLEY":" ","HOUSE_NO":"８號","E_COORD97":170282.70000000001,"N_COORD97":2546650.3399999999,"ADDRESS":"大武街８號","OBJECTID":290601},"geometry":{"x":170282.70000000112,"y":2546650.3400000017}},{"attributes":{"ID":290608,"DIS_CODE":0,"TOWNNAME":"安平區","LI":"建平里","LIN":"21鄰","STREET":"平通路","SECT":" ","MAREA":" ","LANE":"８４巷","ALLEY":" ","HOUSE_NO":"２號五樓","E_COORD97":166062.17999999999,"N_COORD97":2543694.9900000002,"ADDRESS":"平通路８４巷２號五樓","OBJECTID":290602},"geometry":{"x":166062.17999999877,"y":2543694.9900000002}},{"attributes":{"ID":290609,"DIS_CODE":0,"TOWNNAME":"永康區","LI":"永康里","LIN":"31鄰","STREET":"中山北路","SECT":" ","MAREA":" ","LANE":" ","ALLEY":" ","HOUSE_NO":"１７３號","E_COORD97":174247.14999999999,"N_COORD97":2547532.4300000002,"ADDRESS":"中山北路１７３號","OBJECTID":290603},"geometry":{"x":174247.15000000037,"y":2547532.4299999997}},{"attributes":{"ID":290610,"DIS_CODE":0,"TOWNNAME":"永康區","LI":"永康里","LIN":"6鄰","STREET":"中山南路","SECT":" ","MAREA":" ","LANE":" ","ALLEY":" ","HOUSE_NO":"６５１號","E_COORD97":173817.56,"N_COORD97":2547356.1200000001,"ADDRESS":"中山南路６５１號","OBJECTID":290604},"geometry":{"x":173817.56000000052,"y":2547356.120000001}},{"attributes":{"ID":290611,"DIS_CODE":0,"TOWNNAME":"永康區","LI":"永康里","LIN":"21鄰","STREET":"中山南路","SECT":" ","MAREA":" ","LANE":" ","ALLEY":" ","HOUSE_NO":"１００６號","E_COORD97":173633.63,"N_COORD97":2547239.75,"ADDRESS":"中山南路１００６號","OBJECTID":290605},"geometry":{"x":173633.63000000175,"y":2547239.7499999981}},{"attributes":{"ID":290612,"DIS_CODE":0,"TOWNNAME":"永康區","LI":"甲頂里","LIN":"25鄰","STREET":"中正南路","SECT":" ","MAREA":" ","LANE":" ","ALLEY":" ","HOUSE_NO":"５１號","E_COORD97":169633.41,"N_COORD97":2546800.6499999999,"ADDRESS":"中正南路５１號","OBJECTID":290606},"geometry":{"x":169633.41000000108,"y":2546800.6500000022}},{"attributes":{"ID":290613,"DIS_CODE":0,"TOWNNAME":"永康區","LI":"安康里","LIN":"21鄰","STREET":"中華路","SECT":" ","MAREA":" ","LANE":" ","ALLEY":" ","HOUSE_NO":"６９５號","E_COORD97":170923.26000000001,"N_COORD97":2546309.25,"ADDRESS":"中華路６９５號","OBJECTID":290607},"geometry":{"x":170923.25999999978,"y":2546309.2500000019}},{"attributes":{"ID":290614,"DIS_CODE":0,"TOWNNAME":"安平區","LI":"建平里","LIN":"21鄰","STREET":"平通路","SECT":" ","MAREA":" ","LANE":"８４巷","ALLEY":" ","HOUSE_NO":"２號六樓","E_COORD97":166062.17999999999,"N_COORD97":2543694.9900000002,"ADDRESS":"平通路８４巷２號六樓","OBJECTID":290608},"geometry":{"x":166062.17999999877,"y":2543694.9900000002}},{"attributes":{"ID":290615,"DIS_CODE":0,"TOWNNAME":"永康區","LI":"永康里","LIN":"6鄰","STREET":"中山南路","SECT":" ","MAREA":" ","LANE":" ","ALLEY":" ","HOUSE_NO":"１１０４號","E_COORD97":173835.26999999999,"N_COORD97":2547333.7400000002,"ADDRESS":"中山南路１１０４號","OBJECTID":290609},"geometry":{"x":173835.26999999955,"y":2547333.7400000002}},{"attributes":{"ID":290616,"DIS_CODE":0,"TOWNNAME":"安平區","LI":"建平里","LIN":"21鄰","STREET":"平通路","SECT":" ","MAREA":" ","LANE":"８４巷","ALLEY":" ","HOUSE_NO":"２號四樓","E_COORD97":166062.17999999999,"N_COORD97":2543694.9900000002,"ADDRESS":"平通路８４巷２號四樓","OBJECTID":290610},"geometry":{"x":166062.17999999877,"y":2543694.9900000002}},{"attributes":{"ID":290617,"DIS_CODE":0,"TOWNNAME":"安平區","LI":"建平里","LIN":"21鄰","STREET":"平通路","SECT":" ","MAREA":" ","LANE":"８４巷","ALLEY":" ","HOUSE_NO":"３號三樓","E_COORD97":166073.48999999999,"N_COORD97":2543695.3500000001,"ADDRESS":"平通路８４巷３號三樓","OBJECTID":290611},"geometry":{"x":166073.49000000022,"y":2543695.3499999996}},{"attributes":{"ID":290618,"DIS_CODE":0,"TOWNNAME":"安平區","LI":"建平里","LIN":"21鄰","STREET":"平通路","SECT":" ","MAREA":" ","LANE":"８４巷","ALLEY":" ","HOUSE_NO":"３號五樓","E_COORD97":166073.48999999999,"N_COORD97":2543695.3500000001,"ADDRESS":"平通路８４巷３號五樓","OBJECTID":290612},"geometry":{"x":166073.49000000022,"y":2543695.3499999996}},{"attributes":{"ID":290619,"DIS_CODE":0,"TOWNNAME":"安平區","LI":"建平里","LIN":"21鄰","STREET":"平通路","SECT":" ","MAREA":" ","LANE":"８４巷","ALLEY":" ","HOUSE_NO":"３號六樓","E_COORD97":166073.48999999999,"N_COORD97":2543695.3500000001,"ADDRESS":"平通路８４巷３號六樓","OBJECTID":290613},"geometry":{"x":166073.49000000022,"y":2543695.3499999996}},{"attributes":{"ID":290620,"DIS_CODE":0,"TOWNNAME":"永康區","LI":"甲頂里","LIN":"28鄰","STREET":"中華路","SECT":" ","MAREA":" ","LANE":" ","ALLEY":" ","HOUSE_NO":"１００９號","E_COORD97":169497.70000000001,"N_COORD97":2547042.2400000002,"ADDRESS":"中華路１００９號","OBJECTID":290614},"geometry":{"x":169497.70000000112,"y":2547042.2400000002}},{"attributes":{"ID":290621,"DIS_CODE":0,"TOWNNAME":"安平區","LI":"建平里","LIN":"21鄰","STREET":"平通路","SECT":" ","MAREA":" ","LANE":"８４巷","ALLEY":" ","HOUSE_NO":"３號四樓","E_COORD97":166073.48999999999,"N_COORD97":2543695.3500000001,"ADDRESS":"平通路８４巷３號四樓","OBJECTID":290615},"geometry":{"x":166073.49000000022,"y":2543695.3499999996}},{"attributes":{"ID":290622,"DIS_CODE":0,"TOWNNAME":"安平區","LI":"建平里","LIN":"21鄰","STREET":"平通路","SECT":" ","MAREA":" ","LANE":"８４巷","ALLEY":" ","HOUSE_NO":"４號三樓","E_COORD97":166084.56,"N_COORD97":2543691.6299999999,"ADDRESS":"平通路８４巷４號三樓","OBJECTID":290616},"geometry":{"x":166084.55999999959,"y":2543691.6300000008}},{"attributes":{"ID":290623,"DIS_CODE":0,"TOWNNAME":"永康區","LI":"永康里","LIN":"11鄰","STREET":"永平街","SECT":" ","MAREA":" ","LANE":" ","ALLEY":" ","HOUSE_NO":"７７號","E_COORD97":173739.14999999999,"N_COORD97":2547072.75,"ADDRESS":"永平街７７號","OBJECTID":290617},"geometry":{"x":173739.1500000013,"y":2547072.75}},{"attributes":{"ID":290624,"DIS_CODE":0,"TOWNNAME":"安平區","LI":"建平里","LIN":"21鄰","STREET":"平通路","SECT":" ","MAREA":" ","LANE":"８４巷","ALLEY":" ","HOUSE_NO":"５號四樓","E_COORD97":166084.56,"N_COORD97":2543691.6299999999,"ADDRESS":"平通路８４巷５號四樓","OBJECTID":290618},"geometry":{"x":166084.55999999959,"y":2543691.6300000008}},{"attributes":{"ID":290625,"DIS_CODE":0,"TOWNNAME":"北區","LI":"大豐里","LIN":"21鄰","STREET":"大興街","SECT":" ","MAREA":" ","LANE":"３２５巷","ALLEY":" ","HOUSE_NO":"３３號二樓之１","E_COORD97":166624.57000000001,"N_COORD97":2545581.3700000001,"ADDRESS":"大興街３２５巷３３號二樓之１","OBJECTID":290619},"geometry":{"x":166624.5700000003,"y":2545581.370000001}},{"attributes":{"ID":290626,"DIS_CODE":0,"TOWNNAME":"北區","LI":"大豐里","LIN":"21鄰","STREET":"大興街","SECT":" ","MAREA":" ","LANE":"３２５巷","ALLEY":" ","HOUSE_NO":"３３號六樓之２","E_COORD97":166624.57000000001,"N_COORD97":2545581.3700000001,"ADDRESS":"大興街３２５巷３３號六樓之２","OBJECTID":290620},"geometry":{"x":166624.5700000003,"y":2545581.370000001}},{"attributes":{"ID":290627,"DIS_CODE":0,"TOWNNAME":"永康區","LI":"安康里","LIN":"24鄰","STREET":"大橋一街","SECT":" ","MAREA":" ","LANE":" ","ALLEY":" ","HOUSE_NO":"１０６號","E_COORD97":170771.92999999999,"N_COORD97":2546317.25,"ADDRESS":"大橋一街１０６號","OBJECTID":290621},"geometry":{"x":170771.93000000063,"y":2546317.25}},{"attributes":{"ID":290628,"DIS_CODE":0,"TOWNNAME":"永康區","LI":"永康里","LIN":"42鄰","STREET":"永大二路","SECT":" ","MAREA":" ","LANE":" ","ALLEY":" ","HOUSE_NO":"８８號","E_COORD97":174137.75,"N_COORD97":2546576.9900000002,"ADDRESS":"永大二路８８號","OBJECTID":290622},"geometry":{"x":174137.75,"y":2546576.9900000002}},{"attributes":{"ID":290629,"DIS_CODE":0,"TOWNNAME":"永康區","LI":"安康里","LIN":"24鄰","STREET":"大橋一街","SECT":" ","MAREA":" ","LANE":" ","ALLEY":" ","HOUSE_NO":"７２號","E_COORD97":170712.01000000001,"N_COORD97":2546289.9900000002,"ADDRESS":"大橋一街７２號","OBJECTID":290623},"geometry":{"x":170712.01000000071,"y":2546289.9900000021}},{"attributes":{"ID":290630,"DIS_CODE":0,"TOWNNAME":"永康區","LI":"北灣里","LIN":"21鄰","STREET":"大灣路","SECT":" ","MAREA":" ","LANE":"４０巷","ALLEY":" ","HOUSE_NO":"１０５號","E_COORD97":174952.45000000001,"N_COORD97":2546155.9700000002,"ADDRESS":"大灣路４０巷１０５號","OBJECTID":290624},"geometry":{"x":174952.45000000112,"y":2546155.9700000025}},{"attributes":{"ID":290631,"DIS_CODE":0,"TOWNNAME":"永康區","LI":"永康里","LIN":"23鄰","STREET":"正強街","SECT":" ","MAREA":" ","LANE":" ","ALLEY":" ","HOUSE_NO":"４６號","E_COORD97":173365.79000000001,"N_COORD97":2547245.7999999998,"ADDRESS":"正強街４６號","OBJECTID":290625},"geometry":{"x":173365.79000000004,"y":2547245.8000000007}},{"attributes":{"ID":290632,"DIS_CODE":0,"TOWNNAME":"永康區","LI":"甲頂里","LIN":"25鄰","STREET":"中正南路","SECT":" ","MAREA":" ","LANE":" ","ALLEY":" ","HOUSE_NO":"８３號","E_COORD97":169646.54000000001,"N_COORD97":2546890.1000000001,"ADDRESS":"中正南路８３號","OBJECTID":290626},"geometry":{"x":169646.54000000004,"y":2546890.0999999996}},{"attributes":{"ID":290633,"DIS_CODE":0,"TOWNNAME":"永康區","LI":"永康里","LIN":"19鄰","STREET":"永中街","SECT":" ","MAREA":" ","LANE":" ","ALLEY":" ","HOUSE_NO":"１４６號","E_COORD97":173991.76999999999,"N_COORD97":2547288.3500000001,"ADDRESS":"永中街１４６號","OBJECTID":290627},"geometry":{"x":173991.77000000048,"y":2547288.3499999996}},{"attributes":{"ID":290634,"DIS_CODE":0,"TOWNNAME":"永康區","LI":"北灣里","LIN":"21鄰","STREET":"大灣路","SECT":" ","MAREA":" ","LANE":"４０巷","ALLEY":" ","HOUSE_NO":"１０９號","E_COORD97":174952.35999999999,"N_COORD97":2546163.98,"ADDRESS":"大灣路４０巷１０９號","OBJECTID":290628},"geometry":{"x":174952.36000000034,"y":2546163.9799999986}},{"attributes":{"ID":290635,"DIS_CODE":0,"TOWNNAME":"永康區","LI":"永康里","LIN":"18鄰","STREET":"永華路","SECT":" ","MAREA":" ","LANE":" ","ALLEY":" ","HOUSE_NO":"４９５號","E_COORD97":174119.06,"N_COORD97":2547190.3300000001,"ADDRESS":"永華路４９５號","OBJECTID":290629},"geometry":{"x":174119.06000000052,"y":2547190.3300000019}},{"attributes":{"ID":290636,"DIS_CODE":0,"TOWNNAME":"永康區","LI":"永康里","LIN":"25鄰","STREET":"中山北路","SECT":" ","MAREA":" ","LANE":" ","ALLEY":" ","HOUSE_NO":"１３７號","E_COORD97":174145.66,"N_COORD97":2547502.52,"ADDRESS":"中山北路１３７號","OBJECTID":290630},"geometry":{"x":174145.66000000201,"y":2547502.5200000014}},{"attributes":{"ID":290637,"DIS_CODE":0,"TOWNNAME":"下營區","LI":"仁里里","LIN":"21鄰","STREET":"仁里街","SECT":" ","MAREA":" ","LANE":"１０３巷","ALLEY":" ","HOUSE_NO":"６號","E_COORD97":174212.66,"N_COORD97":2569710.96,"ADDRESS":"仁里街１０３巷６號","OBJECTID":290631},"geometry":{"x":174212.66000000015,"y":2569710.9600000046}},{"attributes":{"ID":290638,"DIS_CODE":0,"TOWNNAME":"下營區","LI":"仁里里","LIN":"21鄰","STREET":"仁里街","SECT":" ","MAREA":" ","LANE":"１０３巷","ALLEY":" ","HOUSE_NO":"８號","E_COORD97":174217.04999999999,"N_COORD97":2569709.6400000001,"ADDRESS":"仁里街１０３巷８號","OBJECTID":290632},"geometry":{"x":174217.04999999888,"y":2569709.6400000043}},{"attributes":{"ID":290639,"DIS_CODE":0,"TOWNNAME":"下營區","LI":"仁里里","LIN":"21鄰","STREET":"仁里街","SECT":" ","MAREA":" ","LANE":"１３１巷","ALLEY":" ","HOUSE_NO":"２６號","E_COORD97":174240.82000000001,"N_COORD97":2569507.3799999999,"ADDRESS":"仁里街１３１巷２６號","OBJECTID":290633},"geometry":{"x":174240.8200000003,"y":2569507.3800000008}},{"attributes":{"ID":290640,"DIS_CODE":0,"TOWNNAME":"下營區","LI":"仁里里","LIN":"21鄰","STREET":"仁里街","SECT":" ","MAREA":" ","LANE":"１３１巷","ALLEY":" ","HOUSE_NO":"４５號","E_COORD97":174352.28,"N_COORD97":2569552.02,"ADDRESS":"仁里街１３１巷４５號","OBJECTID":290634},"geometry":{"x":174352.28000000119,"y":2569552.0199999996}},{"attributes":{"ID":290641,"DIS_CODE":0,"TOWNNAME":"下營區","LI":"營前里","LIN":"21鄰","STREET":"健康路","SECT":" ","MAREA":" ","LANE":"１５３巷","ALLEY":" ","HOUSE_NO":"１５號","E_COORD97":174892.70000000001,"N_COORD97":2570291.7400000002,"ADDRESS":"健康路１５３巷１５號","OBJECTID":290635},"geometry":{"x":174892.70000000019,"y":2570291.7400000039}},{"attributes":{"ID":290642,"DIS_CODE":0,"TOWNNAME":"下營區","LI":"營前里","LIN":"21鄰","STREET":"健康路","SECT":" ","MAREA":" ","LANE":"１５３巷","ALLEY":" ","HOUSE_NO":"２１號","E_COORD97":174890.20999999999,"N_COORD97":2570315.7599999998,"ADDRESS":"健康路１５３巷２１號","OBJECTID":290636},"geometry":{"x":174890.20999999996,"y":2570315.7600000016}},{"attributes":{"ID":290643,"DIS_CODE":0,"TOWNNAME":"下營區","LI":"營前里","LIN":"21鄰","STREET":"健康路","SECT":" ","MAREA":" ","LANE":"２２１巷","ALLEY":" ","HOUSE_NO":"４０號","E_COORD97":174843.38,"N_COORD97":2570322.9900000002,"ADDRESS":"健康路２２１巷４０號","OBJECTID":290637},"geometry":{"x":174843.37999999989,"y":2570322.9900000002}},{"attributes":{"ID":290644,"DIS_CODE":0,"TOWNNAME":"下營區","LI":"營前里","LIN":"21鄰","STREET":"健康路","SECT":" ","MAREA":" ","LANE":"２７８巷","ALLEY":" ","HOUSE_NO":"１１號","E_COORD97":175021.39000000001,"N_COORD97":2570396,"ADDRESS":"健康路２７８巷１１號","OBJECTID":290638},"geometry":{"x":175021.38999999966,"y":2570396.0000000019}},{"attributes":{"ID":290645,"DIS_CODE":0,"TOWNNAME":"下營區","LI":"營前里","LIN":"21鄰","STREET":"健康路","SECT":" ","MAREA":" ","LANE":"２７８巷","ALLEY":" ","HOUSE_NO":"１號","E_COORD97":175001.81,"N_COORD97":2570391.9900000002,"ADDRESS":"健康路２７８巷１號","OBJECTID":290639},"geometry":{"x":175001.81000000145,"y":2570391.9900000021}},{"attributes":{"ID":290646,"DIS_CODE":0,"TOWNNAME":"永康區","LI":"甲頂里","LIN":"14鄰","STREET":"大武街","SECT":" ","MAREA":" ","LANE":" ","ALLEY":" ","HOUSE_NO":"１９號","E_COORD97":170287.45000000001,"N_COORD97":2546690.9900000002,"ADDRESS":"大武街１９號","OBJECTID":290640},"geometry":{"x":170287.45000000112,"y":2546690.9900000021}},{"attributes":{"ID":290647,"DIS_CODE":0,"TOWNNAME":"永康區","LI":"甲頂里","LIN":"14鄰","STREET":"大武街","SECT":" ","MAREA":" ","LANE":" ","ALLEY":" ","HOUSE_NO":"４１號","E_COORD97":170321.39999999999,"N_COORD97":2546738.75,"ADDRESS":"大武街４１號","OBJECTID":290641},"geometry":{"x":170321.39999999944,"y":2546738.7500000019}},{"attributes":{"ID":290648,"DIS_CODE":0,"TOWNNAME":"永康區","LI":"永康里","LIN":"25鄰","STREET":"中山北路","SECT":" ","MAREA":" ","LANE":" ","ALLEY":" ","HOUSE_NO":"１３１號","E_COORD97":174133.95999999999,"N_COORD97":2547497.6200000001,"ADDRESS":"中山北路１３１號","OBJECTID":290642},"geometry":{"x":174133.96000000089,"y":2547497.6200000029}},{"attributes":{"ID":290649,"DIS_CODE":0,"TOWNNAME":"永康區","LI":"永康里","LIN":"37鄰","STREET":"永平街","SECT":" ","MAREA":" ","LANE":" ","ALLEY":" ","HOUSE_NO":"１３０號","E_COORD97":174528.57000000001,"N_COORD97":2546899.3900000001,"ADDRESS":"永平街１３０號","OBJECTID":290643},"geometry":{"x":174528.57000000123,"y":2546899.3900000006}},{"attributes":{"ID":290650,"DIS_CODE":0,"TOWNNAME":"下營區","LI":"營前里","LIN":"21鄰","STREET":"健康路","SECT":" ","MAREA":" ","LANE":"２７８巷","ALLEY":" ","HOUSE_NO":"２號","E_COORD97":175022.42000000001,"N_COORD97":2570377.1299999999,"ADDRESS":"健康路２７８巷２號","OBJECTID":290644},"geometry":{"x":175022.42000000086,"y":2570377.1300000008}},{"attributes":{"ID":290651,"DIS_CODE":0,"TOWNNAME":"永康區","LI":"永康里","LIN":"34鄰","STREET":"永康街","SECT":" ","MAREA":" ","LANE":" ","ALLEY":" ","HOUSE_NO":"３５２號","E_COORD97":174339.76000000001,"N_COORD97":2547049.8100000001,"ADDRESS":"永康街３５２號","OBJECTID":290645},"geometry":{"x":174339.76000000071,"y":2547049.8100000005}},{"attributes":{"ID":290652,"DIS_CODE":0,"TOWNNAME":"永康區","LI":"甲頂里","LIN":"14鄰","STREET":"大武街","SECT":" ","MAREA":" ","LANE":" ","ALLEY":" ","HOUSE_NO":"２０號","E_COORD97":170302.35999999999,"N_COORD97":2546677.8500000001,"ADDRESS":"大武街２０號","OBJECTID":290646},"geometry":{"x":170302.36000000034,"y":2546677.8499999996}},{"attributes":{"ID":290653,"DIS_CODE":0,"TOWNNAME":"永康區","LI":"永康里","LIN":"15鄰","STREET":"永中街","SECT":" ","MAREA":" ","LANE":" ","ALLEY":" ","HOUSE_NO":"７２號","E_COORD97":173927.17999999999,"N_COORD97":2547171.52,"ADDRESS":"永中街７２號","OBJECTID":290647},"geometry":{"x":173927.1799999997,"y":2547171.5200000014}},{"attributes":{"ID":290654,"DIS_CODE":0,"TOWNNAME":"中西區","LI":"大涼里","LIN":"21鄰","STREET":"府前一街","SECT":" ","MAREA":" ","LANE":"９巷","ALLEY":" ","HOUSE_NO":"１４號","E_COORD97":166735.98000000001,"N_COORD97":2543758.3599999999,"ADDRESS":"府前一街９巷１４號","OBJECTID":290648},"geometry":{"x":166735.98000000138,"y":2543758.3600000013}},{"attributes":{"ID":290655,"DIS_CODE":0,"TOWNNAME":"中西區","LI":"大涼里","LIN":"21鄰","STREET":"府前一街","SECT":" ","MAREA":" ","LANE":"９巷","ALLEY":" ","HOUSE_NO":"１６號","E_COORD97":166714.04999999999,"N_COORD97":2543756.79,"ADDRESS":"府前一街９巷１６號","OBJECTID":290649},"geometry":{"x":166714.04999999981,"y":2543756.7900000028}},{"attributes":{"ID":290656,"DIS_CODE":0,"TOWNNAME":"永康區","LI":"網寮里","LIN":"21鄰","STREET":"文化路","SECT":" ","MAREA":" ","LANE":"２７９巷","ALLEY":" ","HOUSE_NO":"８號","E_COORD97":173521.23000000001,"N_COORD97":2546094.0800000001,"ADDRESS":"文化路２７９巷８號","OBJECTID":290650},"geometry":{"x":173521.23000000045,"y":2546094.0800000001}},{"attributes":{"ID":290657,"DIS_CODE":0,"TOWNNAME":"永康區","LI":"崑山里","LIN":"21鄰","STREET":"大仁街","SECT":" ","MAREA":" ","LANE":"１１巷","ALLEY":" ","HOUSE_NO":"２８號","E_COORD97":173702.31,"N_COORD97":2544577.0899999999,"ADDRESS":"大仁街１１巷２８號","OBJECTID":290651},"geometry":{"x":173702.31000000052,"y":2544577.0900000017}},{"attributes":{"ID":290658,"DIS_CODE":0,"TOWNNAME":"永康區","LI":"網寮里","LIN":"21鄰","STREET":"文化路","SECT":" ","MAREA":" ","LANE":"２５２巷","ALLEY":" ","HOUSE_NO":"８號","E_COORD97":173538.88,"N_COORD97":2546144.4900000002,"ADDRESS":"文化路２５２巷８號","OBJECTID":290652},"geometry":{"x":173538.88000000082,"y":2546144.4900000021}},{"attributes":{"ID":290659,"DIS_CODE":0,"TOWNNAME":"佳里區","LI":"六安里","LIN":"21鄰","STREET":"延平路","SECT":" ","MAREA":" ","LANE":"５７７巷","ALLEY":" ","HOUSE_NO":"１０號","E_COORD97":165918.07000000001,"N_COORD97":2563538.8799999999,"ADDRESS":"延平路５７７巷１０號","OBJECTID":290653},"geometry":{"x":165918.07000000123,"y":2563538.8800000027}},{"attributes":{"ID":290660,"DIS_CODE":0,"TOWNNAME":"佳里區","LI":"六安里","LIN":"21鄰","STREET":"延平路","SECT":" ","MAREA":" ","LANE":"５７７巷","ALLEY":" ","HOUSE_NO":"１２號","E_COORD97":165913.16,"N_COORD97":2563539.1600000001,"ADDRESS":"延平路５７７巷１２號","OBJECTID":290654},"geometry":{"x":165913.16000000015,"y":2563539.160000002}},{"attributes":{"ID":290661,"DIS_CODE":0,"TOWNNAME":"永康區","LI":"永康里","LIN":"10鄰","STREET":"永康街","SECT":" ","MAREA":" ","LANE":" ","ALLEY":" ","HOUSE_NO":"２８號","E_COORD97":173770.35999999999,"N_COORD97":2547268.0299999998,"ADDRESS":"永康街２８號","OBJECTID":290655},"geometry":{"x":173770.36000000127,"y":2547268.0300000031}},{"attributes":{"ID":290662,"DIS_CODE":0,"TOWNNAME":"永康區","LI":"永康里","LIN":"36鄰","STREET":"永平街","SECT":" ","MAREA":" ","LANE":" ","ALLEY":" ","HOUSE_NO":"６２９號","E_COORD97":174451.5,"N_COORD97":2546904.77,"ADDRESS":"永平街６２９號","OBJECTID":290656},"geometry":{"x":174451.49999999907,"y":2546904.7700000014}},{"attributes":{"ID":290663,"DIS_CODE":0,"TOWNNAME":"永康區","LI":"正強里","LIN":"33鄰","STREET":"埔園街","SECT":" ","MAREA":" ","LANE":" ","ALLEY":" ","HOUSE_NO":"３９６號","E_COORD97":173331.85999999999,"N_COORD97":2548154.21,"ADDRESS":"埔園街３９６號","OBJECTID":290657},"geometry":{"x":173331.86000000034,"y":2548154.2100000028}},{"attributes":{"ID":290664,"DIS_CODE":0,"TOWNNAME":"永康區","LI":"永康里","LIN":"10鄰","STREET":"永康街","SECT":" ","MAREA":" ","LANE":" ","ALLEY":" ","HOUSE_NO":"６０號","E_COORD97":173776.23000000001,"N_COORD97":2547217.0899999999,"ADDRESS":"永康街６０號","OBJECTID":290658},"geometry":{"x":173776.23000000138,"y":2547217.0900000036}},{"attributes":{"ID":290665,"DIS_CODE":0,"TOWNNAME":"佳里區","LI":"六安里","LIN":"21鄰","STREET":"延平路","SECT":" ","MAREA":" ","LANE":"５７７巷","ALLEY":" ","HOUSE_NO":"４８號","E_COORD97":165842.01000000001,"N_COORD97":2563550.1099999999,"ADDRESS":"延平路５７７巷４８號","OBJECTID":290659},"geometry":{"x":165842.01000000071,"y":2563550.1099999994}},{"attributes":{"ID":290666,"DIS_CODE":0,"TOWNNAME":"佳里區","LI":"六安里","LIN":"21鄰","STREET":"延平路","SECT":" ","MAREA":" ","LANE":"５７７巷","ALLEY":" ","HOUSE_NO":"８號","E_COORD97":165922.41,"N_COORD97":2563537.7200000002,"ADDRESS":"延平路５７７巷８號","OBJECTID":290660},"geometry":{"x":165922.41000000108,"y":2563537.7200000007}},{"attributes":{"ID":290667,"DIS_CODE":0,"TOWNNAME":"安南區","LI":"安慶里","LIN":"21鄰","STREET":"安中路","SECT":"一段","MAREA":" ","LANE":"１８９巷","ALLEY":" ","HOUSE_NO":"７２號","E_COORD97":168756.51000000001,"N_COORD97":2548302.1699999999,"ADDRESS":"安中路一段１８９巷７２號","OBJECTID":290661},"geometry":{"x":168756.50999999978,"y":2548302.1700000018}},{"attributes":{"ID":290668,"DIS_CODE":0,"TOWNNAME":"安南區","LI":"安慶里","LIN":"21鄰","STREET":"安中路","SECT":"一段","MAREA":" ","LANE":"１８９巷","ALLEY":" ","HOUSE_NO":"７４號","E_COORD97":168757.29000000001,"N_COORD97":2548298.9300000002,"ADDRESS":"安中路一段１８９巷７４號","OBJECTID":290662},"geometry":{"x":168757.2900000019,"y":2548298.9299999997}},{"attributes":{"ID":290669,"DIS_CODE":0,"TOWNNAME":"安南區","LI":"安慶里","LIN":"21鄰","STREET":"安中路","SECT":"一段","MAREA":" ","LANE":"１８９巷","ALLEY":" ","HOUSE_NO":"７８號","E_COORD97":168759.17000000001,"N_COORD97":2548290.6299999999,"ADDRESS":"安中路一段１８９巷７８號","OBJECTID":290663},"geometry":{"x":168759.16999999993,"y":2548290.6300000027}},{"attributes":{"ID":290670,"DIS_CODE":0,"TOWNNAME":"永康區","LI":"甲頂里","LIN":"25鄰","STREET":"中正南路","SECT":" ","MAREA":" ","LANE":" ","ALLEY":" ","HOUSE_NO":"６１號","E_COORD97":169643.32000000001,"N_COORD97":2546820.75,"ADDRESS":"中正南路６１號","OBJECTID":290664},"geometry":{"x":169643.3200000003,"y":2546820.7500000019}},{"attributes":{"ID":290671,"DIS_CODE":0,"TOWNNAME":"永康區","LI":"永康里","LIN":"8鄰","STREET":"永康街","SECT":" ","MAREA":" ","LANE":" ","ALLEY":" ","HOUSE_NO":"４５號","E_COORD97":173799.70999999999,"N_COORD97":2547239.4500000002,"ADDRESS":"永康街４５號","OBJECTID":290665},"geometry":{"x":173799.71000000089,"y":2547239.4500000011}},{"attributes":{"ID":290672,"DIS_CODE":0,"TOWNNAME":"永康區","LI":"甲頂里","LIN":"22鄰","STREET":"中正南路","SECT":" ","MAREA":" ","LANE":" ","ALLEY":" ","HOUSE_NO":"４６號","E_COORD97":169670.44,"N_COORD97":2546723.23,"ADDRESS":"中正南路４６號","OBJECTID":290666},"geometry":{"x":169670.44000000227,"y":2546723.2300000023}},{"attributes":{"ID":290673,"DIS_CODE":0,"TOWNNAME":"永康區","LI":"北灣里","LIN":"41鄰","STREET":"大灣七街","SECT":" ","MAREA":" ","LANE":" ","ALLEY":" ","HOUSE_NO":"７７號","E_COORD97":175062.48000000001,"N_COORD97":2545754.79,"ADDRESS":"大灣七街７７號","OBJECTID":290667},"geometry":{"x":175062.48000000231,"y":2545754.790000001}},{"attributes":{"ID":290674,"DIS_CODE":0,"TOWNNAME":"永康區","LI":"北灣里","LIN":"13鄰","STREET":"文賢街","SECT":" ","MAREA":" ","LANE":" ","ALLEY":" ","HOUSE_NO":"２４６號","E_COORD97":175223.10000000001,"N_COORD97":2545822.8900000001,"ADDRESS":"文賢街２４６號","OBJECTID":290668},"geometry":{"x":175223.09999999963,"y":2545822.8900000025}},{"attributes":{"ID":290675,"DIS_CODE":0,"TOWNNAME":"安南區","LI":"安慶里","LIN":"21鄰","STREET":"安中路","SECT":"一段","MAREA":" ","LANE":"１８９巷","ALLEY":" ","HOUSE_NO":"８０號","E_COORD97":168760.06,"N_COORD97":2548286.71,"ADDRESS":"安中路一段１８９巷８０號","OBJECTID":290669},"geometry":{"x":168760.06000000145,"y":2548286.7100000028}},{"attributes":{"ID":290676,"DIS_CODE":0,"TOWNNAME":"安南區","LI":"安慶里","LIN":"21鄰","STREET":"安中路","SECT":"一段","MAREA":" ","LANE":"１８９巷","ALLEY":" ","HOUSE_NO":"７６號","E_COORD97":168757.67999999999,"N_COORD97":2548294.4100000001,"ADDRESS":"安中路一段１８９巷７６號","OBJECTID":290670},"geometry":{"x":168757.68000000156,"y":2548294.410000002}},{"attributes":{"ID":290677,"DIS_CODE":0,"TOWNNAME":"永康區","LI":"王行里","LIN":"13鄰","STREET":"王行路","SECT":" ","MAREA":" ","LANE":" ","ALLEY":" ","HOUSE_NO":"１０３８號","E_COORD97":175789.91,"N_COORD97":2550146.75,"ADDRESS":"王行路１０３８號","OBJECTID":290671},"geometry":{"x":175789.91000000201,"y":2550146.7500000019}},{"attributes":{"ID":290678,"DIS_CODE":0,"TOWNNAME":"安南區","LI":"安東里","LIN":"21鄰","STREET":"安和路","SECT":"一段","MAREA":" ","LANE":"４９６巷","ALLEY":" ","HOUSE_NO":"２５號之８","E_COORD97":169551.98000000001,"N_COORD97":2548405.0600000001,"ADDRESS":"安和路一段４９６巷２５號之８","OBJECTID":290672},"geometry":{"x":169551.98000000138,"y":2548405.0600000024}},{"attributes":{"ID":290679,"DIS_CODE":0,"TOWNNAME":"安南區","LI":"安東里","LIN":"21鄰","STREET":"安和路","SECT":"一段","MAREA":" ","LANE":"４９６巷","ALLEY":" ","HOUSE_NO":"２５號","E_COORD97":169533.53,"N_COORD97":2548427.2599999998,"ADDRESS":"安和路一段４９６巷２５號","OBJECTID":290673},"geometry":{"x":169533.53000000026,"y":2548427.2600000016}},{"attributes":{"ID":290680,"DIS_CODE":0,"TOWNNAME":"永康區","LI":"永康里","LIN":"38鄰","STREET":"大同街","SECT":" ","MAREA":" ","LANE":" ","ALLEY":" ","HOUSE_NO":"７６６號","E_COORD97":174530.22,"N_COORD97":2546698.5899999999,"ADDRESS":"大同街７６６號","OBJECTID":290674},"geometry":{"x":174530.22000000067,"y":2546698.5900000036}},{"attributes":{"ID":290681,"DIS_CODE":0,"TOWNNAME":"安南區","LI":"安東里","LIN":"21鄰","STREET":"安和路","SECT":"一段","MAREA":" ","LANE":"４９６巷","ALLEY":" ","HOUSE_NO":"２５號之１","E_COORD97":169547.51000000001,"N_COORD97":2548432.98,"ADDRESS":"安和路一段４９６巷２５號之１","OBJECTID":290675},"geometry":{"x":169547.51000000071,"y":2548432.9800000023}},{"attributes":{"ID":290682,"DIS_CODE":0,"TOWNNAME":"安南區","LI":"安東里","LIN":"21鄰","STREET":"安和路","SECT":"一段","MAREA":" ","LANE":"４９６巷","ALLEY":" ","HOUSE_NO":"２５號之１０","E_COORD97":169553.64999999999,"N_COORD97":2548398.3500000001,"ADDRESS":"安和路一段４９６巷２５號之１０","OBJECTID":290676},"geometry":{"x":169553.65000000224,"y":2548398.3500000034}},{"attributes":{"ID":290683,"DIS_CODE":0,"TOWNNAME":"安南區","LI":"安東里","LIN":"21鄰","STREET":"安和路","SECT":"一段","MAREA":" ","LANE":"４９６巷","ALLEY":" ","HOUSE_NO":"２５號之３","E_COORD97":169550.01999999999,"N_COORD97":2548425.7200000002,"ADDRESS":"安和路一段４９６巷２５號之３","OBJECTID":290677},"geometry":{"x":169550.01999999955,"y":2548425.7200000025}},{"attributes":{"ID":290684,"DIS_CODE":0,"TOWNNAME":"永康區","LI":"北灣里","LIN":"3鄰","STREET":"信義街","SECT":" ","MAREA":" ","LANE":" ","ALLEY":" ","HOUSE_NO":"７１號","E_COORD97":175343.92000000001,"N_COORD97":2545646.3900000001,"ADDRESS":"信義街７１號","OBJECTID":290678},"geometry":{"x":175343.92000000086,"y":2545646.3900000043}},{"attributes":{"ID":290685,"DIS_CODE":0,"TOWNNAME":"安南區","LI":"安東里","LIN":"21鄰","STREET":"安和路","SECT":"一段","MAREA":" ","LANE":"４９６巷","ALLEY":" ","HOUSE_NO":"２５號之６","E_COORD97":169551.56,"N_COORD97":2548414.1299999999,"ADDRESS":"安和路一段４９６巷２５號之６","OBJECTID":290679},"geometry":{"x":169551.55999999866,"y":2548414.1300000008}},{"attributes":{"ID":290686,"DIS_CODE":0,"TOWNNAME":"永康區","LI":"北灣里","LIN":"15鄰","STREET":"信義二街","SECT":" ","MAREA":" ","LANE":" ","ALLEY":" ","HOUSE_NO":"８８號","E_COORD97":175019.06,"N_COORD97":2545738.7599999998,"ADDRESS":"信義二街８８號","OBJECTID":290680},"geometry":{"x":175019.06000000052,"y":2545738.7600000016}},{"attributes":{"ID":290687,"DIS_CODE":0,"TOWNNAME":"永康區","LI":"正強里","LIN":"6鄰","STREET":"自強路","SECT":" ","MAREA":" ","LANE":" ","ALLEY":" ","HOUSE_NO":"３５８號","E_COORD97":173468.47,"N_COORD97":2547731.9900000002,"ADDRESS":"自強路３５８號","OBJECTID":290681},"geometry":{"x":173468.47000000067,"y":2547731.9900000002}},{"attributes":{"ID":290688,"DIS_CODE":0,"TOWNNAME":"南區","LI":"建南里","LIN":"21鄰","STREET":"永成路","SECT":"二段","MAREA":" ","LANE":"８８１巷","ALLEY":" ","HOUSE_NO":"１２號","E_COORD97":167449.17000000001,"N_COORD97":2540278.2799999998,"ADDRESS":"永成路二段８８１巷１２號","OBJECTID":290682},"geometry":{"x":167449.17000000179,"y":2540278.2799999993}},{"attributes":{"ID":290689,"DIS_CODE":0,"TOWNNAME":"永康區","LI":"正強里","LIN":"22鄰","STREET":"自強路","SECT":" ","MAREA":" ","LANE":" ","ALLEY":" ","HOUSE_NO":"３２３號","E_COORD97":173447.5,"N_COORD97":2547739.2400000002,"ADDRESS":"自強路３２３號","OBJECTID":290683},"geometry":{"x":173447.5,"y":2547739.2400000021}},{"attributes":{"ID":290690,"DIS_CODE":0,"TOWNNAME":"永康區","LI":"正強里","LIN":"8鄰","STREET":"正義街","SECT":" ","MAREA":" ","LANE":" ","ALLEY":" ","HOUSE_NO":"８５號","E_COORD97":173464.92999999999,"N_COORD97":2547569.46,"ADDRESS":"正義街８５號","OBJECTID":290684},"geometry":{"x":173464.9299999997,"y":2547569.4600000028}},{"attributes":{"ID":290691,"DIS_CODE":0,"TOWNNAME":"永康區","LI":"永康里","LIN":"26鄰","STREET":"永大路","SECT":"二段","MAREA":" ","LANE":" ","ALLEY":" ","HOUSE_NO":"１１２９號地下一層之","E_COORD97":174201.09,"N_COORD97":2547482.3599999999,"ADDRESS":"永大路二段１１２９號地下一層之８","OBJECTID":290685},"geometry":{"x":174201.08999999985,"y":2547482.3599999994}},{"attributes":{"ID":290692,"DIS_CODE":0,"TOWNNAME":"永康區","LI":"王行里","LIN":"14鄰","STREET":"環工路","SECT":" ","MAREA":" ","LANE":" ","ALLEY":" ","HOUSE_NO":"３０號","E_COORD97":175274.29999999999,"N_COORD97":2549367.8700000001,"ADDRESS":"環工路３０號","OBJECTID":290686},"geometry":{"x":175274.29999999981,"y":2549367.870000001}},{"attributes":{"ID":290693,"DIS_CODE":0,"TOWNNAME":"歸仁區","LI":"崙頂里","LIN":"21鄰","STREET":"大成路","SECT":" ","MAREA":" ","LANE":"１８２巷","ALLEY":" ","HOUSE_NO":"２３號","E_COORD97":177724.17000000001,"N_COORD97":2540126.25,"ADDRESS":"大成路１８２巷２３號","OBJECTID":290687},"geometry":{"x":177724.17000000086,"y":2540126.25}},{"attributes":{"ID":290694,"DIS_CODE":0,"TOWNNAME":"歸仁區","LI":"歸仁里","LIN":"21鄰","STREET":"大仁街","SECT":" ","MAREA":" ","LANE":"１１３巷","ALLEY":" ","HOUSE_NO":"１７號","E_COORD97":178064.82000000001,"N_COORD97":2541055.1099999999,"ADDRESS":"大仁街１１３巷１７號","OBJECTID":290688},"geometry":{"x":178064.8200000003,"y":2541055.1099999994}},{"attributes":{"ID":290695,"DIS_CODE":0,"TOWNNAME":"歸仁區","LI":"崙頂里","LIN":"21鄰","STREET":"大成路","SECT":" ","MAREA":" ","LANE":"１８２巷","ALLEY":" ","HOUSE_NO":"１７號","E_COORD97":177717.07000000001,"N_COORD97":2540138.25,"ADDRESS":"大成路１８２巷１７號","OBJECTID":290689},"geometry":{"x":177717.07000000123,"y":2540138.2500000019}},{"attributes":{"ID":290696,"DIS_CODE":0,"TOWNNAME":"永康區","LI":"永康里","LIN":"24鄰","STREET":"永正路","SECT":" ","MAREA":" ","LANE":" ","ALLEY":" ","HOUSE_NO":"２５號","E_COORD97":173555.69,"N_COORD97":2547321.7400000002,"ADDRESS":"永正路２５號","OBJECTID":290690},"geometry":{"x":173555.69000000227,"y":2547321.7400000039}},{"attributes":{"ID":290697,"DIS_CODE":0,"TOWNNAME":"永康區","LI":"正強里","LIN":"4鄰","STREET":"正義街","SECT":" ","MAREA":" ","LANE":" ","ALLEY":" ","HOUSE_NO":"３８號","E_COORD97":173585.87,"N_COORD97":2547688.9700000002,"ADDRESS":"正義街３８號","OBJECTID":290691},"geometry":{"x":173585.87000000011,"y":2547688.9700000007}},{"attributes":{"ID":290698,"DIS_CODE":0,"TOWNNAME":"歸仁區","LI":"辜厝里","LIN":"21鄰","STREET":"大順三街","SECT":" ","MAREA":" ","LANE":"２１巷","ALLEY":" ","HOUSE_NO":"１０號","E_COORD97":177396.67999999999,"N_COORD97":2540545.1499999999,"ADDRESS":"大順三街２１巷１０號","OBJECTID":290692},"geometry":{"x":177396.68000000063,"y":2540545.1500000041}},{"attributes":{"ID":290699,"DIS_CODE":0,"TOWNNAME":"歸仁區","LI":"看西里","LIN":"21鄰","STREET":"成功七街","SECT":" ","MAREA":" ","LANE":"１０１巷","ALLEY":" ","HOUSE_NO":"１號","E_COORD97":178205.10999999999,"N_COORD97":2539766.3599999999,"ADDRESS":"成功七街１０１巷１號","OBJECTID":290693},"geometry":{"x":178205.11000000127,"y":2539766.3600000031}},{"attributes":{"ID":290700,"DIS_CODE":0,"TOWNNAME":"歸仁區","LI":"大潭里","LIN":"21鄰","STREET":"長榮路","SECT":"二段","MAREA":" ","LANE":"２巷","ALLEY":" ","HOUSE_NO":"２８號","E_COORD97":176637.72,"N_COORD97":2534478.2799999998,"ADDRESS":"長榮路二段２巷２８號","OBJECTID":290694},"geometry":{"x":176637.71999999974,"y":2534478.2800000012}},{"attributes":{"ID":290701,"DIS_CODE":0,"TOWNNAME":"永康區","LI":"北灣里","LIN":"10鄰","STREET":"信義街","SECT":" ","MAREA":" ","LANE":" ","ALLEY":" ","HOUSE_NO":"１１０號","E_COORD97":175144.10000000001,"N_COORD97":2545634,"ADDRESS":"信義街１１０號","OBJECTID":290695},"geometry":{"x":175144.10000000056,"y":2545634}},{"attributes":{"ID":290702,"DIS_CODE":0,"TOWNNAME":"永康區","LI":"正強里","LIN":"23鄰","STREET":"正強街","SECT":" ","MAREA":" ","LANE":" ","ALLEY":" ","HOUSE_NO":"２０５號","E_COORD97":173295.29000000001,"N_COORD97":2547683.8300000001,"ADDRESS":"正強街２０５號","OBJECTID":290696},"geometry":{"x":173295.2900000019,"y":2547683.8300000038}},{"attributes":{"ID":290703,"DIS_CODE":0,"TOWNNAME":"永康區","LI":"永康里","LIN":"26鄰","STREET":"永明街","SECT":" ","MAREA":" ","LANE":" ","ALLEY":" ","HOUSE_NO":"１１號","E_COORD97":174051.59,"N_COORD97":2547370.77,"ADDRESS":"永明街１１號","OBJECTID":290697},"geometry":{"x":174051.59000000078,"y":2547370.7699999996}},{"attributes":{"ID":290704,"DIS_CODE":0,"TOWNNAME":"中西區","LI":"保安里","LIN":"3鄰","STREET":"保安路","SECT":" ","MAREA":" ","LANE":" ","ALLEY":" ","HOUSE_NO":"７４號","E_COORD97":167584.89000000001,"N_COORD97":2543451.8599999999,"ADDRESS":"保安路７４號","OBJECTID":290698},"geometry":{"x":167584.89000000153,"y":2543451.8600000031}},{"attributes":{"ID":290705,"DIS_CODE":0,"TOWNNAME":"永康區","LI":"永康里","LIN":"2鄰","STREET":"中山北路","SECT":" ","MAREA":" ","LANE":" ","ALLEY":" ","HOUSE_NO":"２１號","E_COORD97":173935.20999999999,"N_COORD97":2547380.6099999999,"ADDRESS":"中山北路２１號","OBJECTID":290699},"geometry":{"x":173935.21000000089,"y":2547380.6100000013}},{"attributes":{"ID":290706,"DIS_CODE":0,"TOWNNAME":"歸仁區","LI":"大潭里","LIN":"21鄰","STREET":"長榮路","SECT":"二段","MAREA":" ","LANE":"９０巷","ALLEY":" ","HOUSE_NO":"３１號","E_COORD97":176853.26999999999,"N_COORD97":2534465.2799999998,"ADDRESS":"長榮路二段９０巷３１號","OBJECTID":290700},"geometry":{"x":176853.27000000048,"y":2534465.2800000012}},{"attributes":{"ID":290707,"DIS_CODE":0,"TOWNNAME":"永康區","LI":"正強里","LIN":"13鄰","STREET":"正強街","SECT":" ","MAREA":" ","LANE":" ","ALLEY":" ","HOUSE_NO":"１６７號","E_COORD97":173311.32999999999,"N_COORD97":2547547.9900000002,"ADDRESS":"正強街１６７號","OBJECTID":290701},"geometry":{"x":173311.33000000007,"y":2547547.9900000021}},{"attributes":{"ID":290708,"DIS_CODE":0,"TOWNNAME":"善化區","LI":"坐駕里","LIN":" ","STREET":"興華路","SECT":" ","MAREA":" ","LANE":" ","ALLEY":" ","HOUSE_NO":"２５７號","E_COORD97":177912.20999999999,"N_COORD97":2558513,"ADDRESS":"興華路２５７號","OBJECTID":290702},"geometry":{"x":177912.21000000089,"y":2558513.0000000019}},{"attributes":{"ID":290709,"DIS_CODE":0,"TOWNNAME":"善化區","LI":"光文里","LIN":"20鄰","STREET":"民生路","SECT":" ","MAREA":" ","LANE":" ","ALLEY":" ","HOUSE_NO":"３４７號","E_COORD97":178062.42000000001,"N_COORD97":2558889.7599999998,"ADDRESS":"民生路３４７號","OBJECTID":290703},"geometry":{"x":178062.41999999993,"y":2558889.7600000016}},{"attributes":{"ID":290710,"DIS_CODE":0,"TOWNNAME":"歸仁區","LI":"大潭里","LIN":"21鄰","STREET":"長榮路","SECT":"二段","MAREA":" ","LANE":"２巷","ALLEY":" ","HOUSE_NO":"６０號","E_COORD97":176594.22,"N_COORD97":2534382.2799999998,"ADDRESS":"長榮路二段２巷６０號","OBJECTID":290704},"geometry":{"x":176594.2200000016,"y":2534382.2799999993}},{"attributes":{"ID":290711,"DIS_CODE":0,"TOWNNAME":"歸仁區","LI":"大潭里","LIN":"21鄰","STREET":"長榮路","SECT":"二段","MAREA":" ","LANE":"９０巷","ALLEY":" ","HOUSE_NO":"２號","E_COORD97":176950.72,"N_COORD97":2534497.2799999998,"ADDRESS":"長榮路二段９０巷２號","OBJECTID":290705},"geometry":{"x":176950.72000000067,"y":2534497.2799999993}},{"attributes":{"ID":290712,"DIS_CODE":0,"TOWNNAME":"歸仁區","LI":"崙頂里","LIN":"21鄰","STREET":"大成路","SECT":" ","MAREA":" ","LANE":"２０６巷","ALLEY":" ","HOUSE_NO":"２９號","E_COORD97":177703.54000000001,"N_COORD97":2540080.48,"ADDRESS":"大成路２０６巷２９號","OBJECTID":290706},"geometry":{"x":177703.54000000097,"y":2540080.4800000004}},{"attributes":{"ID":290713,"DIS_CODE":0,"TOWNNAME":"六甲區","LI":"甲南里","LIN":"21鄰","STREET":"復興街","SECT":" ","MAREA":" ","LANE":"１巷","ALLEY":" ","HOUSE_NO":"１號","E_COORD97":183940.64000000001,"N_COORD97":2569888.25,"ADDRESS":"復興街１巷１號","OBJECTID":290707},"geometry":{"x":183940.6400000006,"y":2569888.2500000019}},{"attributes":{"ID":290714,"DIS_CODE":0,"TOWNNAME":"新營區","LI":"民生里","LIN":"21鄰","STREET":"民生路","SECT":" ","MAREA":" ","LANE":"１６３巷","ALLEY":" ","HOUSE_NO":"１００號","E_COORD97":179102.89000000001,"N_COORD97":2578544.8700000001,"ADDRESS":"民生路１６３巷１００號","OBJECTID":290708},"geometry":{"x":179102.88999999966,"y":2578544.8700000029}},{"attributes":{"ID":290715,"DIS_CODE":0,"TOWNNAME":"新營區","LI":"民生里","LIN":"21鄰","STREET":"民生路","SECT":" ","MAREA":" ","LANE":"１６３巷","ALLEY":" ","HOUSE_NO":"１１８號","E_COORD97":179121.01999999999,"N_COORD97":2578487.2000000002,"ADDRESS":"民生路１６３巷１１８號","OBJECTID":290709},"geometry":{"x":179121.01999999955,"y":2578487.1999999993}},{"attributes":{"ID":290716,"DIS_CODE":0,"TOWNNAME":"新營區","LI":"民生里","LIN":"21鄰","STREET":"民生路","SECT":" ","MAREA":" ","LANE":"１６３巷","ALLEY":" ","HOUSE_NO":"１０４號","E_COORD97":179107.92000000001,"N_COORD97":2578527.1299999999,"ADDRESS":"民生路１６３巷１０４號","OBJECTID":290710},"geometry":{"x":179107.91999999993,"y":2578527.1300000008}},{"attributes":{"ID":290717,"DIS_CODE":0,"TOWNNAME":"永康區","LI":"正強里","LIN":"32鄰","STREET":"中正路","SECT":" ","MAREA":" ","LANE":"２２２巷","ALLEY":" ","HOUSE_NO":"５號","E_COORD97":173310.89999999999,"N_COORD97":2547933.4900000002,"ADDRESS":"中正路２２２巷５號","OBJECTID":290711},"geometry":{"x":173310.9000000013,"y":2547933.4899999984}},{"attributes":{"ID":290718,"DIS_CODE":0,"TOWNNAME":"善化區","LI":"光文里","LIN":"20鄰","STREET":"民生路","SECT":" ","MAREA":" ","LANE":" ","ALLEY":" ","HOUSE_NO":"３３９號","E_COORD97":178078.53,"N_COORD97":2558892.2599999998,"ADDRESS":"民生路３３９號","OBJECTID":290712},"geometry":{"x":178078.53000000026,"y":2558892.2599999979}},{"attributes":{"ID":290719,"DIS_CODE":0,"TOWNNAME":"善化區","LI":"南關里","LIN":"13鄰","STREET":"自由路","SECT":" ","MAREA":" ","LANE":" ","ALLEY":" ","HOUSE_NO":"２１８號之１","E_COORD97":176917.57999999999,"N_COORD97":2558978.52,"ADDRESS":"自由路２１８號之１","OBJECTID":290713},"geometry":{"x":176917.58000000194,"y":2558978.5200000033}},{"attributes":{"ID":290720,"DIS_CODE":0,"TOWNNAME":"仁德區","LI":"保安里","LIN":"12鄰","STREET":"永德路","SECT":" ","MAREA":" ","LANE":" ","ALLEY":" ","HOUSE_NO":"３７號","E_COORD97":172603.10913900001,"N_COORD97":2535630.2892100001,"ADDRESS":"永德路３７號","OBJECTID":290714},"geometry":{"x":172603.109139001,"y":2535630.289214002}},{"attributes":{"ID":290721,"DIS_CODE":0,"TOWNNAME":"永康區","LI":"永康里","LIN":"32鄰","STREET":"永大路","SECT":"二段","MAREA":" ","LANE":" ","ALLEY":" ","HOUSE_NO":"１５３２號","E_COORD97":174259.35000000001,"N_COORD97":2547269.79,"ADDRESS":"永大路二段１５３２號","OBJECTID":290715},"geometry":{"x":174259.35000000056,"y":2547269.790000001}},{"attributes":{"ID":290722,"DIS_CODE":0,"TOWNNAME":"安定區","LI":"港口里","LIN":"22鄰","STREET":" ","SECT":" ","MAREA":"港口","LANE":" ","ALLEY":" ","HOUSE_NO":"４２２號","E_COORD97":172120.19,"N_COORD97":2555489.25,"ADDRESS":"港口４２２號","OBJECTID":290716},"geometry":{"x":172120.19000000134,"y":2555489.2500000019}},{"attributes":{"ID":290723,"DIS_CODE":0,"TOWNNAME":"新營區","LI":"新東里","LIN":"21鄰","STREET":"東明街","SECT":" ","MAREA":" ","LANE":"５６巷","ALLEY":" ","HOUSE_NO":"７號","E_COORD97":180817.07000000001,"N_COORD97":2579704.0099999998,"ADDRESS":"東明街５６巷７號","OBJECTID":290717},"geometry":{"x":180817.07000000123,"y":2579704.0099999998}},{"attributes":{"ID":290724,"DIS_CODE":0,"TOWNNAME":"新營區","LI":"民生里","LIN":"21鄰","STREET":"民生路","SECT":" ","MAREA":" ","LANE":"１６３巷","ALLEY":" ","HOUSE_NO":"１３０號","E_COORD97":179129.07999999999,"N_COORD97":2578461.6899999999,"ADDRESS":"民生路１６３巷１３０號","OBJECTID":290718},"geometry":{"x":179129.08000000007,"y":2578461.6899999976}},{"attributes":{"ID":290725,"DIS_CODE":0,"TOWNNAME":"永康區","LI":"北灣里","LIN":"16鄰","STREET":"信義二街","SECT":" ","MAREA":" ","LANE":" ","ALLEY":" ","HOUSE_NO":"１２２號","E_COORD97":174906.84,"N_COORD97":2545748.8500000001,"ADDRESS":"信義二街１２２號","OBJECTID":290719},"geometry":{"x":174906.84000000171,"y":2545748.8500000015}},{"attributes":{"ID":290726,"DIS_CODE":0,"TOWNNAME":"安定區","LI":"新吉里","LIN":"7鄰","STREET":" ","SECT":" ","MAREA":"新吉","LANE":" ","ALLEY":" ","HOUSE_NO":"５９號之３９","E_COORD97":168965.14000000001,"N_COORD97":2553975.2999999998,"ADDRESS":"新吉５９號之３９","OBJECTID":290720},"geometry":{"x":168965.1400000006,"y":2553975.3000000026}},{"attributes":{"ID":290727,"DIS_CODE":0,"TOWNNAME":"安定區","LI":"港口里","LIN":"22鄰","STREET":" ","SECT":" ","MAREA":"港口","LANE":" ","ALLEY":" ","HOUSE_NO":"４０８號","E_COORD97":171636.79000000001,"N_COORD97":2555062.25,"ADDRESS":"港口４０８號","OBJECTID":290721},"geometry":{"x":171636.79000000004,"y":2555062.2500000019}},{"attributes":{"ID":290728,"DIS_CODE":0,"TOWNNAME":"安定區","LI":"安加里","LIN":"8鄰","STREET":" ","SECT":" ","MAREA":"安定","LANE":" ","ALLEY":" ","HOUSE_NO":"２３４號","E_COORD97":171858.12,"N_COORD97":2557553.3199999998,"ADDRESS":"安定２３４號","OBJECTID":290722},"geometry":{"x":171858.12000000011,"y":2557553.320000004}},{"attributes":{"ID":290729,"DIS_CODE":0,"TOWNNAME":"安定區","LI":"港南里","LIN":"3鄰","STREET":" ","SECT":" ","MAREA":"港口","LANE":" ","ALLEY":" ","HOUSE_NO":"２３號之４","E_COORD97":171445.79999999999,"N_COORD97":2554093.2999999998,"ADDRESS":"港口２３號之４","OBJECTID":290723},"geometry":{"x":171445.80000000075,"y":2554093.3000000026}},{"attributes":{"ID":290730,"DIS_CODE":0,"TOWNNAME":"安定區","LI":"港南里","LIN":"3鄰","STREET":" ","SECT":" ","MAREA":"港口","LANE":" ","ALLEY":" ","HOUSE_NO":"２３號之２１","E_COORD97":171524.03,"N_COORD97":2554080.2999999998,"ADDRESS":"港口２３號之２１","OBJECTID":290724},"geometry":{"x":171524.03000000212,"y":2554080.3000000026}},{"attributes":{"ID":290731,"DIS_CODE":0,"TOWNNAME":"安定區","LI":"六嘉里","LIN":"12鄰","STREET":" ","SECT":" ","MAREA":"六塊寮","LANE":" ","ALLEY":" ","HOUSE_NO":"９７號","E_COORD97":170356.51999999999,"N_COORD97":2553366.27,"ADDRESS":"六塊寮９７號","OBJECTID":290725},"geometry":{"x":170356.51999999955,"y":2553366.2700000014}},{"attributes":{"ID":290732,"DIS_CODE":0,"TOWNNAME":"安定區","LI":"港南里","LIN":"3鄰","STREET":" ","SECT":" ","MAREA":"港口","LANE":" ","ALLEY":" ","HOUSE_NO":"２１號之６","E_COORD97":171442.88,"N_COORD97":2554153.2999999998,"ADDRESS":"港口２１號之６","OBJECTID":290726},"geometry":{"x":171442.87999999989,"y":2554153.2999999989}},{"attributes":{"ID":290733,"DIS_CODE":0,"TOWNNAME":"新營區","LI":"民生里","LIN":"21鄰","STREET":"民生路","SECT":" ","MAREA":" ","LANE":"１６３巷","ALLEY":" ","HOUSE_NO":"１１２號","E_COORD97":179116.98999999999,"N_COORD97":2578499.3999999999,"ADDRESS":"民生路１６３巷１１２號","OBJECTID":290727},"geometry":{"x":179116.98999999929,"y":2578499.4000000022}},{"attributes":{"ID":290734,"DIS_CODE":0,"TOWNNAME":"新營區","LI":"王公里","LIN":"21鄰","STREET":"民族路","SECT":" ","MAREA":" ","LANE":"１５０巷","ALLEY":" ","HOUSE_NO":"７號","E_COORD97":180463.57999999999,"N_COORD97":2579350.1800000002,"ADDRESS":"民族路１５０巷７號","OBJECTID":290728},"geometry":{"x":180463.58000000007,"y":2579350.1799999997}},{"attributes":{"ID":290735,"DIS_CODE":0,"TOWNNAME":"安平區","LI":"怡平里","LIN":"26鄰","STREET":"永華六街","SECT":" ","MAREA":" ","LANE":" ","ALLEY":" ","HOUSE_NO":"３２號二樓之５","E_COORD97":165607.88,"N_COORD97":2543622.2599999998,"ADDRESS":"永華六街３２號二樓之５","OBJECTID":290729},"geometry":{"x":165607.87999999989,"y":2543622.2600000035}},{"attributes":{"ID":290736,"DIS_CODE":0,"TOWNNAME":"新營區","LI":"民權里","LIN":" ","STREET":"博愛街","SECT":" ","MAREA":" ","LANE":" ","ALLEY":" ","HOUSE_NO":"３５號２樓","E_COORD97":179942.10000000001,"N_COORD97":2578144.4300000002,"ADDRESS":"博愛街３５號２樓","OBJECTID":290730},"geometry":{"x":179942.09999999963,"y":2578144.4299999997}},{"attributes":{"ID":290737,"DIS_CODE":0,"TOWNNAME":"永康區","LI":"龍潭里","LIN":"7鄰","STREET":"龍埔街","SECT":" ","MAREA":" ","LANE":" ","ALLEY":" ","HOUSE_NO":"１８號","E_COORD97":174811.66,"N_COORD97":2548204.54,"ADDRESS":"龍埔街１８號","OBJECTID":290731},"geometry":{"x":174811.65999999922,"y":2548204.540000001}},{"attributes":{"ID":290738,"DIS_CODE":0,"TOWNNAME":"新營區","LI":"民生里","LIN":"21鄰","STREET":"民生路","SECT":" ","MAREA":" ","LANE":"１６３巷","ALLEY":" ","HOUSE_NO":"８２號","E_COORD97":179086.56,"N_COORD97":2578585.9199999999,"ADDRESS":"民生路１６３巷８２號","OBJECTID":290732},"geometry":{"x":179086.55999999959,"y":2578585.9199999999}},{"attributes":{"ID":290739,"DIS_CODE":0,"TOWNNAME":"大內區","LI":"二溪里","LIN":"14鄰","STREET":" ","SECT":" ","MAREA":"其子瓦","LANE":" ","ALLEY":" ","HOUSE_NO":"３９號","E_COORD97":190536.42000000001,"N_COORD97":2558007.25,"ADDRESS":"其子瓦３９號","OBJECTID":290733},"geometry":{"x":190536.42000000086,"y":2558007.25}},{"attributes":{"ID":290740,"DIS_CODE":0,"TOWNNAME":"新營區","LI":"南紙里","LIN":"21鄰","STREET":"建業路","SECT":" ","MAREA":" ","LANE":"２６９巷","ALLEY":" ","HOUSE_NO":"１１號","E_COORD97":178001.82999999999,"N_COORD97":2577443.8300000001,"ADDRESS":"建業路２６９巷１１號","OBJECTID":290734},"geometry":{"x":178001.83000000007,"y":2577443.8300000001}},{"attributes":{"ID":290741,"DIS_CODE":0,"TOWNNAME":"新營區","LI":"民生里","LIN":"21鄰","STREET":"民生路","SECT":" ","MAREA":" ","LANE":"１６３巷","ALLEY":" ","HOUSE_NO":"８８號","E_COORD97":179090.60000000001,"N_COORD97":2578573.7200000002,"ADDRESS":"民生路１６３巷８８號","OBJECTID":290735},"geometry":{"x":179090.60000000056,"y":2578573.7200000007}},{"attributes":{"ID":290742,"DIS_CODE":0,"TOWNNAME":"大內區","LI":"大內里","LIN":"7鄰","STREET":" ","SECT":" ","MAREA":"內庄","LANE":" ","ALLEY":" ","HOUSE_NO":"８６號之２","E_COORD97":184727.5,"N_COORD97":2557573.2999999998,"ADDRESS":"內庄８６號之２","OBJECTID":290736},"geometry":{"x":184727.5,"y":2557573.3000000007}},{"attributes":{"ID":290743,"DIS_CODE":0,"TOWNNAME":"新營區","LI":"民生里","LIN":"21鄰","STREET":"民生路","SECT":" ","MAREA":" ","LANE":"１６３巷","ALLEY":" ","HOUSE_NO":"９４號","E_COORD97":179097.57999999999,"N_COORD97":2578558.1800000002,"ADDRESS":"民生路１６３巷９４號","OBJECTID":290737},"geometry":{"x":179097.57999999914,"y":2578558.1800000016}},{"attributes":{"ID":290744,"DIS_CODE":0,"TOWNNAME":"新營區","LI":"新北里","LIN":"21鄰","STREET":"民生路","SECT":" ","MAREA":" ","LANE":"３３６巷","ALLEY":" ","HOUSE_NO":"３１號","E_COORD97":179000.78,"N_COORD97":2579249.7000000002,"ADDRESS":"民生路３３６巷３１號","OBJECTID":290738},"geometry":{"x":179000.78000000026,"y":2579249.7000000011}},{"attributes":{"ID":290745,"DIS_CODE":0,"TOWNNAME":"新營區","LI":"民生里","LIN":"21鄰","STREET":"民生路","SECT":" ","MAREA":" ","LANE":"１６３巷","ALLEY":" ","HOUSE_NO":"９２號","E_COORD97":179095.54999999999,"N_COORD97":2578561.5099999998,"ADDRESS":"民生路１６３巷９２號","OBJECTID":290739},"geometry":{"x":179095.54999999981,"y":2578561.5099999979}},{"attributes":{"ID":290746,"DIS_CODE":0,"TOWNNAME":"新營區","LI":"民生里","LIN":"21鄰","STREET":"民生路","SECT":" ","MAREA":" ","LANE":"１６３巷","ALLEY":" ","HOUSE_NO":"７０號","E_COORD97":179078.45000000001,"N_COORD97":2578608.1000000001,"ADDRESS":"民生路１６３巷７０號","OBJECTID":290740},"geometry":{"x":179078.45000000112,"y":2578608.0999999996}},{"attributes":{"ID":290747,"DIS_CODE":0,"TOWNNAME":"新營區","LI":"民生里","LIN":"21鄰","STREET":"民生路","SECT":" ","MAREA":" ","LANE":"１６３巷","ALLEY":" ","HOUSE_NO":"８４號","E_COORD97":179088.57999999999,"N_COORD97":2578581.48,"ADDRESS":"民生路１６３巷８４號","OBJECTID":290741},"geometry":{"x":179088.58000000007,"y":2578581.4800000004}},{"attributes":{"ID":290748,"DIS_CODE":0,"TOWNNAME":"大內區","LI":"內江里","LIN":"4鄰","STREET":" ","SECT":" ","MAREA":"內庄","LANE":" ","ALLEY":" ","HOUSE_NO":"２４８號","E_COORD97":184640.78,"N_COORD97":2557386.25,"ADDRESS":"內庄２４８號","OBJECTID":290742},"geometry":{"x":184640.78000000026,"y":2557386.25}},{"attributes":{"ID":290749,"DIS_CODE":0,"TOWNNAME":"大內區","LI":"內江里","LIN":"13鄰","STREET":" ","SECT":" ","MAREA":"蒙正","LANE":" ","ALLEY":" ","HOUSE_NO":"１７號","E_COORD97":185696.23999999999,"N_COORD97":2556264.25,"ADDRESS":"蒙正１７號","OBJECTID":290743},"geometry":{"x":185696.24000000115,"y":2556264.25}},{"attributes":{"ID":290750,"DIS_CODE":0,"TOWNNAME":"新營區","LI":"新北里","LIN":"21鄰","STREET":"民生路","SECT":" ","MAREA":" ","LANE":"３３６巷","ALLEY":" ","HOUSE_NO":"２７號","E_COORD97":178988.38,"N_COORD97":2579229.8199999998,"ADDRESS":"民生路３３６巷２７號","OBJECTID":290744},"geometry":{"x":178988.37999999989,"y":2579229.8200000003}},{"attributes":{"ID":290751,"DIS_CODE":0,"TOWNNAME":"大內區","LI":"內郭里","LIN":"9鄰","STREET":" ","SECT":" ","MAREA":"後堀","LANE":" ","ALLEY":" ","HOUSE_NO":"３１號","E_COORD97":185711.26000000001,"N_COORD97":2557272.3199999998,"ADDRESS":"後堀３１號","OBJECTID":290745},"geometry":{"x":185711.26000000071,"y":2557272.3200000022}},{"attributes":{"ID":290752,"DIS_CODE":0,"TOWNNAME":"大內區","LI":"大內里","LIN":"1鄰","STREET":" ","SECT":" ","MAREA":"內庄","LANE":" ","ALLEY":" ","HOUSE_NO":"１號之２８","E_COORD97":184262.10999999999,"N_COORD97":2557656.2999999998,"ADDRESS":"內庄１號之２８","OBJECTID":290746},"geometry":{"x":184262.11000000127,"y":2557656.3000000026}},{"attributes":{"ID":290753,"DIS_CODE":0,"TOWNNAME":"新營區","LI":"王公里","LIN":"21鄰","STREET":"民族路","SECT":" ","MAREA":" ","LANE":"１４２巷","ALLEY":" ","HOUSE_NO":"２８號","E_COORD97":180555.72,"N_COORD97":2579313.2000000002,"ADDRESS":"民族路１４２巷２８號","OBJECTID":290747},"geometry":{"x":180555.71999999974,"y":2579313.2000000011}},{"attributes":{"ID":290754,"DIS_CODE":0,"TOWNNAME":"歸仁區","LI":"八甲里","LIN":"21鄰","STREET":"大仁三街","SECT":" ","MAREA":" ","LANE":"２３巷","ALLEY":" ","HOUSE_NO":"２０號","E_COORD97":178285.64000000001,"N_COORD97":2541359.25,"ADDRESS":"大仁三街２３巷２０號","OBJECTID":290748},"geometry":{"x":178285.6400000006,"y":2541359.2500000019}},{"attributes":{"ID":290755,"DIS_CODE":0,"TOWNNAME":"柳營區","LI":"士林里","LIN":"21鄰","STREET":"柳營路","SECT":"一段","MAREA":" ","LANE":"１５１巷","ALLEY":" ","HOUSE_NO":"１０６號","E_COORD97":179494.34,"N_COORD97":2573591.21,"ADDRESS":"柳營路一段１５１巷１０６號","OBJECTID":290749},"geometry":{"x":179494.34000000078,"y":2573591.2100000046}},{"attributes":{"ID":290756,"DIS_CODE":0,"TOWNNAME":"柳營區","LI":"士林里","LIN":"21鄰","STREET":"柳營路","SECT":"一段","MAREA":" ","LANE":"２７９巷","ALLEY":" ","HOUSE_NO":"１１２號","E_COORD97":179461.14999999999,"N_COORD97":2573849.9300000002,"ADDRESS":"柳營路一段２７９巷１１２號","OBJECTID":290750},"geometry":{"x":179461.15000000037,"y":2573849.9300000016}},{"attributes":{"ID":290757,"DIS_CODE":0,"TOWNNAME":"柳營區","LI":"士林里","LIN":"21鄰","STREET":"柳營路","SECT":"一段","MAREA":" ","LANE":"４９１巷","ALLEY":" ","HOUSE_NO":"３５之１號","E_COORD97":179606.14999999999,"N_COORD97":2574128.25,"ADDRESS":"柳營路一段４９１巷３５之１號","OBJECTID":290751},"geometry":{"x":179606.15000000224,"y":2574128.25}},{"attributes":{"ID":290758,"DIS_CODE":0,"TOWNNAME":"東區","LI":"東安里","LIN":"4鄰","STREET":"東門路","SECT":"二段","MAREA":" ","LANE":" ","ALLEY":" ","HOUSE_NO":"５號","E_COORD97":169937.01000000001,"N_COORD97":2543019.5,"ADDRESS":"東門路二段５號","OBJECTID":290752},"geometry":{"x":169937.01000000164,"y":2543019.5}},{"attributes":{"ID":290759,"DIS_CODE":0,"TOWNNAME":"東區","LI":"和平里","LIN":"4鄰","STREET":"東門路","SECT":"三段","MAREA":" ","LANE":" ","ALLEY":" ","HOUSE_NO":"２２８號","E_COORD97":171519.32999999999,"N_COORD97":2541948.3399999999,"ADDRESS":"東門路三段２２８號","OBJECTID":290753},"geometry":{"x":171519.33000000007,"y":2541948.3400000017}},{"attributes":{"ID":290760,"DIS_CODE":0,"TOWNNAME":"東區","LI":"和平里","LIN":"4鄰","STREET":"東門路","SECT":"三段","MAREA":" ","LANE":" ","ALLEY":" ","HOUSE_NO":"２４６號","E_COORD97":171603.22,"N_COORD97":2541882.8999999999,"ADDRESS":"東門路三段２４６號","OBJECTID":290754},"geometry":{"x":171603.21999999974,"y":2541882.9000000022}},{"attributes":{"ID":290761,"DIS_CODE":0,"TOWNNAME":"柳營區","LI":"士林里","LIN":"21鄰","STREET":"柳營路","SECT":"一段","MAREA":" ","LANE":"４９１巷","ALLEY":" ","HOUSE_NO":"３５之２號","E_COORD97":179664.57000000001,"N_COORD97":2574168.0800000001,"ADDRESS":"柳營路一段４９１巷３５之２號","OBJECTID":290755},"geometry":{"x":179664.57000000123,"y":2574168.0800000019}},{"attributes":{"ID":290762,"DIS_CODE":0,"TOWNNAME":"柳營區","LI":"士林里","LIN":"21鄰","STREET":"柳營路","SECT":"一段","MAREA":" ","LANE":"４９１巷","ALLEY":" ","HOUSE_NO":"３５號","E_COORD97":179642.19,"N_COORD97":2574214.29,"ADDRESS":"柳營路一段４９１巷３５號","OBJECTID":290756},"geometry":{"x":179642.19000000134,"y":2574214.290000001}},{"attributes":{"ID":290763,"DIS_CODE":0,"TOWNNAME":"柳營區","LI":"士林里","LIN":"21鄰","STREET":"柳營路","SECT":"一段","MAREA":" ","LANE":"４９１巷","ALLEY":" ","HOUSE_NO":"７８號","E_COORD97":179577.57999999999,"N_COORD97":2574254.8599999999,"ADDRESS":"柳營路一段４９１巷７８號","OBJECTID":290757},"geometry":{"x":179577.58000000101,"y":2574254.8600000013}},{"attributes":{"ID":290764,"DIS_CODE":0,"TOWNNAME":"柳營區","LI":"士林里","LIN":"21鄰","STREET":"柳營路","SECT":"一段","MAREA":" ","LANE":"４９１巷","ALLEY":" ","HOUSE_NO":"８８號","E_COORD97":179547.07999999999,"N_COORD97":2574291.3799999999,"ADDRESS":"柳營路一段４９１巷８８號","OBJECTID":290758},"geometry":{"x":179547.08000000101,"y":2574291.3800000008}},{"attributes":{"ID":290765,"DIS_CODE":0,"TOWNNAME":"柳營區","LI":"士林里","LIN":"21鄰","STREET":"柳營路","SECT":"一段","MAREA":" ","LANE":"５７１巷","ALLEY":" ","HOUSE_NO":"１３３號","E_COORD97":179656.94,"N_COORD97":2574510.5,"ADDRESS":"柳營路一段５７１巷１３３號","OBJECTID":290759},"geometry":{"x":179656.94000000134,"y":2574510.5000000037}},{"attributes":{"ID":290766,"DIS_CODE":0,"TOWNNAME":"柳營區","LI":"重溪里","LIN":"21鄰","STREET":"義士路","SECT":"一段","MAREA":" ","LANE":"８３２巷","ALLEY":" ","HOUSE_NO":"５９號","E_COORD97":185292.09,"N_COORD97":2576142.8399999999,"ADDRESS":"義士路一段８３２巷５９號","OBJECTID":290760},"geometry":{"x":185292.09000000078,"y":2576142.8400000017}},{"attributes":{"ID":290767,"DIS_CODE":0,"TOWNNAME":"柳營區","LI":"重溪里","LIN":"21鄰","STREET":"義士路","SECT":"一段","MAREA":" ","LANE":"８３２巷","ALLEY":" ","HOUSE_NO":"５號","E_COORD97":185300.32000000001,"N_COORD97":2576014.2799999998,"ADDRESS":"義士路一段８３２巷５號","OBJECTID":290761},"geometry":{"x":185300.3200000003,"y":2576014.2800000012}},{"attributes":{"ID":290768,"DIS_CODE":0,"TOWNNAME":"柳營區","LI":"重溪里","LIN":"21鄰","STREET":"義士路","SECT":"一段","MAREA":" ","LANE":"８３２巷","ALLEY":" ","HOUSE_NO":"７號","E_COORD97":185300.32000000001,"N_COORD97":2576018.7000000002,"ADDRESS":"義士路一段８３２巷７號","OBJECTID":290762},"geometry":{"x":185300.3200000003,"y":2576018.7000000011}},{"attributes":{"ID":290769,"DIS_CODE":0,"TOWNNAME":"柳營區","LI":"重溪里","LIN":"21鄰","STREET":"義士路","SECT":"一段","MAREA":" ","LANE":"８３２巷","ALLEY":" ","HOUSE_NO":"９號","E_COORD97":185300.19,"N_COORD97":2576022.46,"ADDRESS":"義士路一段８３２巷９號","OBJECTID":290763},"geometry":{"x":185300.19000000134,"y":2576022.4600000009}},{"attributes":{"ID":290770,"DIS_CODE":0,"TOWNNAME":"歸仁區","LI":"六甲里","LIN":"21鄰","STREET":"中正十八街","SECT":" ","MAREA":" ","LANE":"６巷","ALLEY":" ","HOUSE_NO":"１號","E_COORD97":176388.98999999999,"N_COORD97":2539693.7400000002,"ADDRESS":"中正十八街６巷１號","OBJECTID":290764},"geometry":{"x":176388.99000000022,"y":2539693.7400000021}},{"attributes":{"ID":290771,"DIS_CODE":0,"TOWNNAME":"歸仁區","LI":"六甲里","LIN":"21鄰","STREET":"中正十八街","SECT":" ","MAREA":" ","LANE":"２巷","ALLEY":" ","HOUSE_NO":"１２號","E_COORD97":176421.168856,"N_COORD97":2539683.43536,"ADDRESS":"中正十八街２巷１２號","OBJECTID":290765},"geometry":{"x":176421.16885600053,"y":2539683.4353560023}},{"attributes":{"ID":290772,"DIS_CODE":0,"TOWNNAME":"歸仁區","LI":"大廟里","LIN":"21鄰","STREET":"大廟一街","SECT":" ","MAREA":" ","LANE":"２８巷","ALLEY":" ","HOUSE_NO":"８３號","E_COORD97":175594.5,"N_COORD97":2544237.3900000001,"ADDRESS":"大廟一街２８巷８３號","OBJECTID":290766},"geometry":{"x":175594.50000000093,"y":2544237.3900000025}},{"attributes":{"ID":290773,"DIS_CODE":0,"TOWNNAME":"歸仁區","LI":"六甲里","LIN":"21鄰","STREET":"中正十八街","SECT":" ","MAREA":" ","LANE":"２巷","ALLEY":" ","HOUSE_NO":"１８號","E_COORD97":176428.372348,"N_COORD97":2539692.3253500001,"ADDRESS":"中正十八街２巷１８號","OBJECTID":290767},"geometry":{"x":176428.37234800123,"y":2539692.3253510017}},{"attributes":{"ID":290774,"DIS_CODE":0,"TOWNNAME":"歸仁區","LI":"六甲里","LIN":"21鄰","STREET":"中正十八街","SECT":" ","MAREA":" ","LANE":"６巷","ALLEY":" ","HOUSE_NO":"９號","E_COORD97":176400.39000000001,"N_COORD97":2539707.7400000002,"ADDRESS":"中正十八街６巷９號","OBJECTID":290768},"geometry":{"x":176400.3900000006,"y":2539707.7400000021}},{"attributes":{"ID":290775,"DIS_CODE":0,"TOWNNAME":"歸仁區","LI":"大潭里","LIN":"21鄰","STREET":"長榮路","SECT":"二段","MAREA":" ","LANE":"９０巷","ALLEY":" ","HOUSE_NO":"５６號","E_COORD97":176816.26999999999,"N_COORD97":2534442.2799999998,"ADDRESS":"長榮路二段９０巷５６號","OBJECTID":290769},"geometry":{"x":176816.27000000048,"y":2534442.2799999993}},{"attributes":{"ID":290776,"DIS_CODE":0,"TOWNNAME":"歸仁區","LI":"六甲里","LIN":"21鄰","STREET":"中正十八街","SECT":" ","MAREA":" ","LANE":"２巷","ALLEY":" ","HOUSE_NO":"５號","E_COORD97":176406.48999999999,"N_COORD97":2539693.7400000002,"ADDRESS":"中正十八街２巷５號","OBJECTID":290770},"geometry":{"x":176406.49000000209,"y":2539693.7400000021}},{"attributes":{"ID":290777,"DIS_CODE":0,"TOWNNAME":"六甲區","LI":"甲東里","LIN":"21鄰","STREET":"裕農街","SECT":" ","MAREA":" ","LANE":"８９巷","ALLEY":" ","HOUSE_NO":"１０號","E_COORD97":184240.06,"N_COORD97":2569820.98,"ADDRESS":"裕農街８９巷１０號","OBJECTID":290771},"geometry":{"x":184240.05999999959,"y":2569820.9800000004}},{"attributes":{"ID":290778,"DIS_CODE":0,"TOWNNAME":"六甲區","LI":"甲東里","LIN":"21鄰","STREET":"裕農街","SECT":" ","MAREA":" ","LANE":"８９巷","ALLEY":" ","HOUSE_NO":"１１號","E_COORD97":184192.79000000001,"N_COORD97":2569798.6800000002,"ADDRESS":"裕農街８９巷１１號","OBJECTID":290772},"geometry":{"x":184192.79000000004,"y":2569798.6799999997}},{"attributes":{"ID":290779,"DIS_CODE":0,"TOWNNAME":"六甲區","LI":"甲東里","LIN":"21鄰","STREET":"裕農街","SECT":" ","MAREA":" ","LANE":"８９巷","ALLEY":" ","HOUSE_NO":"１４號","E_COORD97":184218.79999999999,"N_COORD97":2569812.6000000001,"ADDRESS":"裕農街８９巷１４號","OBJECTID":290773},"geometry":{"x":184218.80000000168,"y":2569812.5999999996}},{"attributes":{"ID":290780,"DIS_CODE":0,"TOWNNAME":"六甲區","LI":"甲東里","LIN":"21鄰","STREET":"裕農街","SECT":" ","MAREA":" ","LANE":"８９巷","ALLEY":" ","HOUSE_NO":"１６號","E_COORD97":184216.19,"N_COORD97":2569827.1200000001,"ADDRESS":"裕農街８９巷１６號","OBJECTID":290774},"geometry":{"x":184216.19000000041,"y":2569827.120000001}},{"attributes":{"ID":290781,"DIS_CODE":0,"TOWNNAME":"六甲區","LI":"甲東里","LIN":"21鄰","STREET":"裕農街","SECT":" ","MAREA":" ","LANE":"８９巷","ALLEY":" ","HOUSE_NO":"５號","E_COORD97":184259.62,"N_COORD97":2569782.0899999999,"ADDRESS":"裕農街８９巷５號","OBJECTID":290775},"geometry":{"x":184259.62000000104,"y":2569782.0899999999}},{"attributes":{"ID":290782,"DIS_CODE":0,"TOWNNAME":"東區","LI":"龍山里","LIN":"18鄰","STREET":"東門路","SECT":"一段","MAREA":" ","LANE":" ","ALLEY":" ","HOUSE_NO":"２９４號","E_COORD97":169698.31,"N_COORD97":2543073.2999999998,"ADDRESS":"東門路一段２９４號","OBJECTID":290776},"geometry":{"x":169698.30999999959,"y":2543073.3000000007}},{"attributes":{"ID":290783,"DIS_CODE":0,"TOWNNAME":"東區","LI":"忠孝里","LIN":"26鄰","STREET":"林森路","SECT":"一段","MAREA":" ","LANE":" ","ALLEY":" ","HOUSE_NO":"１７８號","E_COORD97":169603.23000000001,"N_COORD97":2542494.3700000001,"ADDRESS":"林森路一段１７８號","OBJECTID":290777},"geometry":{"x":169603.23000000045,"y":2542494.3700000029}},{"attributes":{"ID":290784,"DIS_CODE":0,"TOWNNAME":"東區","LI":"忠孝里","LIN":"26鄰","STREET":"林森路","SECT":"一段","MAREA":" ","LANE":" ","ALLEY":" ","HOUSE_NO":"１６８號","E_COORD97":169574.48999999999,"N_COORD97":2542485.0600000001,"ADDRESS":"林森路一段１６８號","OBJECTID":290778},"geometry":{"x":169574.49000000022,"y":2542485.0600000042}},{"attributes":{"ID":290785,"DIS_CODE":0,"TOWNNAME":"東區","LI":"東光里","LIN":"21鄰","STREET":"怡東路","SECT":" ","MAREA":" ","LANE":" ","ALLEY":" ","HOUSE_NO":"１２７號","E_COORD97":170863.78,"N_COORD97":2543783.1200000001,"ADDRESS":"怡東路１２７號","OBJECTID":290779},"geometry":{"x":170863.78000000119,"y":2543783.120000001}},{"attributes":{"ID":290786,"DIS_CODE":0,"TOWNNAME":"東區","LI":"東光里","LIN":"21鄰","STREET":"怡東路","SECT":" ","MAREA":" ","LANE":" ","ALLEY":" ","HOUSE_NO":"１２９號","E_COORD97":170864.67000000001,"N_COORD97":2543786.9100000001,"ADDRESS":"怡東路１２９號","OBJECTID":290780},"geometry":{"x":170864.66999999993,"y":2543786.9100000001}},{"attributes":{"ID":290787,"DIS_CODE":0,"TOWNNAME":"關廟區","LI":"五甲里","LIN":"21鄰","STREET":"五權街","SECT":" ","MAREA":" ","LANE":"２巷","ALLEY":" ","HOUSE_NO":"６號","E_COORD97":181019.57000000001,"N_COORD97":2539151.25,"ADDRESS":"五權街２巷６號","OBJECTID":290781},"geometry":{"x":181019.5700000003,"y":2539151.2500000019}},{"attributes":{"ID":290788,"DIS_CODE":0,"TOWNNAME":"關廟區","LI":"五甲里","LIN":"21鄰","STREET":"五權街","SECT":" ","MAREA":" ","LANE":"２巷","ALLEY":" ","HOUSE_NO":"１號","E_COORD97":181018.37,"N_COORD97":2539137.25,"ADDRESS":"五權街２巷１號","OBJECTID":290782},"geometry":{"x":181018.37000000104,"y":2539137.2500000037}},{"attributes":{"ID":290789,"DIS_CODE":0,"TOWNNAME":"關廟區","LI":"東勢里","LIN":"21鄰","STREET":"東昌街","SECT":" ","MAREA":" ","LANE":"６０巷","ALLEY":" ","HOUSE_NO":"６號","E_COORD97":181945.12,"N_COORD97":2539248.25,"ADDRESS":"東昌街６０巷６號","OBJECTID":290783},"geometry":{"x":181945.12000000011,"y":2539248.25}},{"attributes":{"ID":290790,"DIS_CODE":0,"TOWNNAME":"關廟區","LI":"五甲里","LIN":"21鄰","STREET":"五權街","SECT":" ","MAREA":" ","LANE":"２巷","ALLEY":" ","HOUSE_NO":"１６號","E_COORD97":181006.62,"N_COORD97":2539142.25,"ADDRESS":"五權街２巷１６號","OBJECTID":290784},"geometry":{"x":181006.62000000104,"y":2539142.25}},{"attributes":{"ID":290791,"DIS_CODE":0,"TOWNNAME":"北區","LI":"大豐里","LIN":"21鄰","STREET":"大興街","SECT":" ","MAREA":" ","LANE":"２８５巷","ALLEY":" ","HOUSE_NO":"８１號","E_COORD97":166712.35999999999,"N_COORD97":2545528.4199999999,"ADDRESS":"大興街２８５巷８１號","OBJECTID":290785},"geometry":{"x":166712.36000000034,"y":2545528.4199999999}},{"attributes":{"ID":290792,"DIS_CODE":0,"TOWNNAME":"北區","LI":"文元里","LIN":"21鄰","STREET":"海安路","SECT":"三段","MAREA":" ","LANE":"７８１巷","ALLEY":" ","HOUSE_NO":"４３號","E_COORD97":167898.78,"N_COORD97":2545980.21,"ADDRESS":"海安路三段７８１巷４３號","OBJECTID":290786},"geometry":{"x":167898.78000000119,"y":2545980.2100000046}},{"attributes":{"ID":290793,"DIS_CODE":0,"TOWNNAME":"北區","LI":"文元里","LIN":"21鄰","STREET":"海安路","SECT":"三段","MAREA":" ","LANE":"７８１巷","ALLEY":" ","HOUSE_NO":"４１號","E_COORD97":167907.67000000001,"N_COORD97":2545980.5299999998,"ADDRESS":"海安路三段７８１巷４１號","OBJECTID":290787},"geometry":{"x":167907.67000000086,"y":2545980.5300000012}},{"attributes":{"ID":290794,"DIS_CODE":0,"TOWNNAME":"北區","LI":"文元里","LIN":"21鄰","STREET":"海安路","SECT":"三段","MAREA":" ","LANE":"７８１巷","ALLEY":" ","HOUSE_NO":"４７號","E_COORD97":167887.03,"N_COORD97":2545980.21,"ADDRESS":"海安路三段７８１巷４７號","OBJECTID":290788},"geometry":{"x":167887.03000000119,"y":2545980.2100000046}},{"attributes":{"ID":290795,"DIS_CODE":0,"TOWNNAME":"北區","LI":"文元里","LIN":"21鄰","STREET":"海安路","SECT":"三段","MAREA":" ","LANE":"７８１巷","ALLEY":" ","HOUSE_NO":"４９號","E_COORD97":167878.76999999999,"N_COORD97":2545979.4199999999,"ADDRESS":"海安路三段７８１巷４９號","OBJECTID":290789},"geometry":{"x":167878.77000000142,"y":2545979.4199999999}},{"attributes":{"ID":290796,"DIS_CODE":0,"TOWNNAME":"新營區","LI":"新東里","LIN":"21鄰","STREET":"東明街","SECT":" ","MAREA":" ","LANE":"５６巷","ALLEY":" ","HOUSE_NO":"３１號","E_COORD97":180875.67999999999,"N_COORD97":2579709.2799999998,"ADDRESS":"東明街５６巷３１號","OBJECTID":290790},"geometry":{"x":180875.6799999997,"y":2579709.2800000012}},{"attributes":{"ID":290797,"DIS_CODE":0,"TOWNNAME":"新營區","LI":"新東里","LIN":"21鄰","STREET":"東明街","SECT":" ","MAREA":" ","LANE":"５６巷","ALLEY":" ","HOUSE_NO":"４１號","E_COORD97":180900.22,"N_COORD97":2579710.27,"ADDRESS":"東明街５６巷４１號","OBJECTID":290791},"geometry":{"x":180900.22000000067,"y":2579710.2700000014}},{"attributes":{"ID":290798,"DIS_CODE":0,"TOWNNAME":"新營區","LI":"忠政里","LIN":"21鄰","STREET":"府西路","SECT":" ","MAREA":" ","LANE":"２３１巷","ALLEY":" ","HOUSE_NO":"１５號","E_COORD97":179740.82000000001,"N_COORD97":2579599.4399999999,"ADDRESS":"府西路２３１巷１５號","OBJECTID":290792},"geometry":{"x":179740.82000000123,"y":2579599.4400000032}},{"attributes":{"ID":290799,"DIS_CODE":0,"TOWNNAME":"新營區","LI":"王公里","LIN":"21鄰","STREET":"民族路","SECT":" ","MAREA":" ","LANE":"１５０巷","ALLEY":" ","HOUSE_NO":"４５號","E_COORD97":180556.98000000001,"N_COORD97":2579359.71,"ADDRESS":"民族路１５０巷４５號","OBJECTID":290793},"geometry":{"x":180556.98000000138,"y":2579359.7100000028}},{"attributes":{"ID":290800,"DIS_CODE":0,"TOWNNAME":"新營區","LI":"王公里","LIN":"21鄰","STREET":"民族路","SECT":" ","MAREA":" ","LANE":"１５０巷","ALLEY":" ","HOUSE_NO":"６之１號","E_COORD97":180487.47,"N_COORD97":2579335.7200000002,"ADDRESS":"民族路１５０巷６之１號","OBJECTID":290794},"geometry":{"x":180487.46999999974,"y":2579335.7200000025}},{"attributes":{"ID":290801,"DIS_CODE":0,"TOWNNAME":"新營區","LI":"新北里","LIN":"21鄰","STREET":"民生路","SECT":" ","MAREA":" ","LANE":"３３６巷","ALLEY":" ","HOUSE_NO":"２３之１號","E_COORD97":178988.98000000001,"N_COORD97":2579257.5699999998,"ADDRESS":"民生路３３６巷２３之１號","OBJECTID":290795},"geometry":{"x":178988.98000000138,"y":2579257.5700000022}},{"attributes":{"ID":290802,"DIS_CODE":0,"TOWNNAME":"新營區","LI":"新北里","LIN":"21鄰","STREET":"民生路","SECT":" ","MAREA":" ","LANE":"３３６巷","ALLEY":" ","HOUSE_NO":"２３號","E_COORD97":178985.42000000001,"N_COORD97":2579251.9900000002,"ADDRESS":"民生路３３６巷２３號","OBJECTID":290796},"geometry":{"x":178985.42000000086,"y":2579251.9900000021}},{"attributes":{"ID":290803,"DIS_CODE":0,"TOWNNAME":"新營區","LI":"王公里","LIN":"21鄰","STREET":"民族路","SECT":" ","MAREA":" ","LANE":"１５０巷","ALLEY":" ","HOUSE_NO":"２０號","E_COORD97":180467.72,"N_COORD97":2579304.75,"ADDRESS":"民族路１５０巷２０號","OBJECTID":290797},"geometry":{"x":180467.7200000016,"y":2579304.75}},{"attributes":{"ID":290804,"DIS_CODE":0,"TOWNNAME":"新營區","LI":"王公里","LIN":"21鄰","STREET":"民族路","SECT":" ","MAREA":" ","LANE":"１５０巷","ALLEY":" ","HOUSE_NO":"１２號","E_COORD97":180499.5,"N_COORD97":2579335.6099999999,"ADDRESS":"民族路１５０巷１２號","OBJECTID":290798},"geometry":{"x":180499.5,"y":2579335.6099999994}},{"attributes":{"ID":290805,"DIS_CODE":0,"TOWNNAME":"新營區","LI":"王公里","LIN":"21鄰","STREET":"民族路","SECT":" ","MAREA":" ","LANE":"１５０巷","ALLEY":" ","HOUSE_NO":"３８號","E_COORD97":180553.85999999999,"N_COORD97":2579347.54,"ADDRESS":"民族路１５０巷３８號","OBJECTID":290799},"geometry":{"x":180553.8600000022,"y":2579347.5400000028}},{"attributes":{"ID":290806,"DIS_CODE":0,"TOWNNAME":"永康區","LI":"蔦松里","LIN":"1鄰","STREET":"蔦松二街","SECT":" ","MAREA":" ","LANE":" ","ALLEY":" ","HOUSE_NO":"７０號之１","E_COORD97":173710.72,"N_COORD97":2549254.6699999999,"ADDRESS":"蔦松二街７０號之１","OBJECTID":290800},"geometry":{"x":173710.7200000016,"y":2549254.6700000018}}]}