{"displayFieldName":"TOWNNAME","fieldAliases":{"ID":"ID","DIS_CODE":"DIS_CODE","TOWNNAME":"TOWNNAME","LI":"LI","LIN":"LIN","STREET":"STREET","SECT":"SECT","MAREA":"MAREA","LANE":"LANE","ALLEY":"ALLEY","HOUSE_NO":"HOUSE_NO","E_COORD97":"E_COORD97","N_COORD97":"N_COORD97","ADDRESS":"ADDRESS","OBJECTID":"OBJECTID"},"geometryType":"esriGeometryPoint","spatialReference":{"wkid":102443,"latestWkid":3826},"fields":[{"name":"ID","type":"esriFieldTypeDouble","alias":"ID"},{"name":"DIS_CODE","type":"esriFieldTypeInteger","alias":"DIS_CODE"},{"name":"TOWNNAME","type":"esriFieldTypeString","alias":"TOWNNAME","length":8},{"name":"LI","type":"esriFieldTypeString","alias":"LI","length":8},{"name":"LIN","type":"esriFieldTypeString","alias":"LIN","length":12},{"name":"STREET","type":"esriFieldTypeString","alias":"STREET","length":20},{"name":"SECT","type":"esriFieldTypeString","alias":"SECT","length":8},{"name":"MAREA","type":"esriFieldTypeString","alias":"MAREA","length":12},{"name":"LANE","type":"esriFieldTypeString","alias":"LANE","length":10},{"name":"ALLEY","type":"esriFieldTypeString","alias":"ALLEY","length":10},{"name":"HOUSE_NO","type":"esriFieldTypeString","alias":"HOUSE_NO","length":20},{"name":"E_COORD97","type":"esriFieldTypeDouble","alias":"E_COORD97"},{"name":"N_COORD97","type":"esriFieldTypeDouble","alias":"N_COORD97"},{"name":"ADDRESS","type":"esriFieldTypeString","alias":"ADDRESS","length":50},{"name":"OBJECTID","type":"esriFieldTypeOID","alias":"OBJECTID"}],"features":[{"attributes":{"ID":538428,"DIS_CODE":0,"TOWNNAME":"永康區","LI":"成功里","LIN":"44鄰","STREET":"中華路","SECT":" ","MAREA":" ","LANE":" ","ALLEY":" ","HOUSE_NO":"６８號之３","E_COORD97":171645.23999999999,"N_COORD97":2544689.5499999998,"ADDRESS":"中華路６８號之３","OBJECTID":538401},"geometry":{"x":171645.24000000115,"y":2544689.5500000026}},{"attributes":{"ID":538429,"DIS_CODE":0,"TOWNNAME":"仁德區","LI":"仁義里","LIN":"44鄰","STREET":"仁義路","SECT":" ","MAREA":" ","LANE":" ","ALLEY":" ","HOUSE_NO":"３２號","E_COORD97":173467.78,"N_COORD97":2540940.52,"ADDRESS":"仁義路３２號","OBJECTID":538402},"geometry":{"x":173467.78000000026,"y":2540940.5199999996}},{"attributes":{"ID":538430,"DIS_CODE":0,"TOWNNAME":"仁德區","LI":"仁義里","LIN":"44鄰","STREET":"仁義路","SECT":" ","MAREA":" ","LANE":" ","ALLEY":" ","HOUSE_NO":"２８號","E_COORD97":173456.70000000001,"N_COORD97":2540939.52,"ADDRESS":"仁義路２８號","OBJECTID":538403},"geometry":{"x":173456.70000000019,"y":2540939.5200000014}},{"attributes":{"ID":538431,"DIS_CODE":0,"TOWNNAME":"仁德區","LI":"太子里","LIN":"44鄰","STREET":"太子路","SECT":" ","MAREA":" ","LANE":" ","ALLEY":" ","HOUSE_NO":"１１３號","E_COORD97":174883.41,"N_COORD97":2543512.5099999998,"ADDRESS":"太子路１１３號","OBJECTID":538404},"geometry":{"x":174883.41000000108,"y":2543512.5100000016}},{"attributes":{"ID":538432,"DIS_CODE":0,"TOWNNAME":"仁德區","LI":"太子里","LIN":"44鄰","STREET":"太子路","SECT":" ","MAREA":" ","LANE":" ","ALLEY":" ","HOUSE_NO":"９３號","E_COORD97":174962.48000000001,"N_COORD97":2543527.5099999998,"ADDRESS":"太子路９３號","OBJECTID":538405},"geometry":{"x":174962.48000000231,"y":2543527.5099999998}},{"attributes":{"ID":538433,"DIS_CODE":0,"TOWNNAME":"仁德區","LI":"成功里","LIN":"39鄰","STREET":"文賢路","SECT":"一段","MAREA":" ","LANE":" ","ALLEY":" ","HOUSE_NO":"１２２號","E_COORD97":170321.07000000001,"N_COORD97":2538131.8300000001,"ADDRESS":"文賢路一段１２２號","OBJECTID":538406},"geometry":{"x":170321.07000000123,"y":2538131.8300000001}},{"attributes":{"ID":538434,"DIS_CODE":0,"TOWNNAME":"仁德區","LI":"太子里","LIN":"44鄰","STREET":"太子路","SECT":" ","MAREA":" ","LANE":" ","ALLEY":" ","HOUSE_NO":"１２１號","E_COORD97":174863.76999999999,"N_COORD97":2543522.5099999998,"ADDRESS":"太子路１２１號","OBJECTID":538407},"geometry":{"x":174863.77000000048,"y":2543522.5100000016}},{"attributes":{"ID":538435,"DIS_CODE":0,"TOWNNAME":"新市區","LI":"新和里","LIN":"44鄰","STREET":"民生路","SECT":" ","MAREA":" ","LANE":" ","ALLEY":" ","HOUSE_NO":"６５號","E_COORD97":177262.42999999999,"N_COORD97":2553196.29,"ADDRESS":"民生路６５號","OBJECTID":538408},"geometry":{"x":177262.43000000156,"y":2553196.290000001}},{"attributes":{"ID":538436,"DIS_CODE":0,"TOWNNAME":"新市區","LI":"新和里","LIN":"44鄰","STREET":"民權路","SECT":" ","MAREA":" ","LANE":" ","ALLEY":" ","HOUSE_NO":"４之３號","E_COORD97":177384.54000000001,"N_COORD97":2553094.7999999998,"ADDRESS":"民權路４之３號","OBJECTID":538409},"geometry":{"x":177384.54000000097,"y":2553094.8000000007}},{"attributes":{"ID":538437,"DIS_CODE":0,"TOWNNAME":"新市區","LI":"新和里","LIN":"44鄰","STREET":"民生路","SECT":" ","MAREA":" ","LANE":" ","ALLEY":" ","HOUSE_NO":"１號","E_COORD97":177395.01999999999,"N_COORD97":2553119.54,"ADDRESS":"民生路１號","OBJECTID":538410},"geometry":{"x":177395.01999999955,"y":2553119.5400000028}},{"attributes":{"ID":538438,"DIS_CODE":0,"TOWNNAME":"新市區","LI":"新和里","LIN":"44鄰","STREET":"信義街","SECT":" ","MAREA":" ","LANE":" ","ALLEY":" ","HOUSE_NO":"１８２號","E_COORD97":177247.34,"N_COORD97":2553172.5099999998,"ADDRESS":"信義街１８２號","OBJECTID":538411},"geometry":{"x":177247.33999999985,"y":2553172.5100000016}},{"attributes":{"ID":538439,"DIS_CODE":0,"TOWNNAME":"新市區","LI":"新和里","LIN":"44鄰","STREET":"民生路","SECT":" ","MAREA":" ","LANE":" ","ALLEY":" ","HOUSE_NO":"６１號","E_COORD97":177269.67999999999,"N_COORD97":2553192.29,"ADDRESS":"民生路６１號","OBJECTID":538412},"geometry":{"x":177269.68000000063,"y":2553192.2900000028}},{"attributes":{"ID":538440,"DIS_CODE":0,"TOWNNAME":"新市區","LI":"新和里","LIN":"44鄰","STREET":"民生路","SECT":" ","MAREA":" ","LANE":" ","ALLEY":" ","HOUSE_NO":"１１號","E_COORD97":177374.84,"N_COORD97":2553131.79,"ADDRESS":"民生路１１號","OBJECTID":538413},"geometry":{"x":177374.83999999985,"y":2553131.790000001}},{"attributes":{"ID":538441,"DIS_CODE":0,"TOWNNAME":"新市區","LI":"新和里","LIN":"44鄰","STREET":"民生路","SECT":" ","MAREA":" ","LANE":" ","ALLEY":" ","HOUSE_NO":"５號","E_COORD97":177385.67999999999,"N_COORD97":2553125.04,"ADDRESS":"民生路５號","OBJECTID":538414},"geometry":{"x":177385.6799999997,"y":2553125.0399999991}},{"attributes":{"ID":538442,"DIS_CODE":0,"TOWNNAME":"新市區","LI":"新和里","LIN":"44鄰","STREET":"民生路","SECT":" ","MAREA":" ","LANE":" ","ALLEY":" ","HOUSE_NO":"１０號","E_COORD97":177368.64999999999,"N_COORD97":2553159.04,"ADDRESS":"民生路１０號","OBJECTID":538415},"geometry":{"x":177368.6500000013,"y":2553159.0399999991}},{"attributes":{"ID":538443,"DIS_CODE":0,"TOWNNAME":"新市區","LI":"新和里","LIN":"44鄰","STREET":"民生路","SECT":" ","MAREA":" ","LANE":" ","ALLEY":" ","HOUSE_NO":"７號","E_COORD97":177381.17999999999,"N_COORD97":2553127.54,"ADDRESS":"民生路７號","OBJECTID":538416},"geometry":{"x":177381.18000000156,"y":2553127.540000001}},{"attributes":{"ID":538444,"DIS_CODE":0,"TOWNNAME":"新市區","LI":"新和里","LIN":"44鄰","STREET":"信義街","SECT":" ","MAREA":" ","LANE":" ","ALLEY":" ","HOUSE_NO":"１８６號","E_COORD97":177248.42999999999,"N_COORD97":2553180.02,"ADDRESS":"信義街１８６號","OBJECTID":538417},"geometry":{"x":177248.4299999997,"y":2553180.0199999996}},{"attributes":{"ID":538445,"DIS_CODE":0,"TOWNNAME":"仁德區","LI":"仁義里","LIN":"44鄰","STREET":"仁義路","SECT":" ","MAREA":" ","LANE":" ","ALLEY":" ","HOUSE_NO":"１６號","E_COORD97":173429.16,"N_COORD97":2540937.52,"ADDRESS":"仁義路１６號","OBJECTID":538418},"geometry":{"x":173429.16000000108,"y":2540937.5199999996}},{"attributes":{"ID":538446,"DIS_CODE":0,"TOWNNAME":"永康區","LI":"成功里","LIN":"44鄰","STREET":"中華路","SECT":" ","MAREA":" ","LANE":" ","ALLEY":" ","HOUSE_NO":"１４２號之１","E_COORD97":171619.20999999999,"N_COORD97":2544840.29,"ADDRESS":"中華路１４２號之１","OBJECTID":538419},"geometry":{"x":171619.21000000183,"y":2544840.2899999991}},{"attributes":{"ID":538447,"DIS_CODE":0,"TOWNNAME":"永康區","LI":"\u25A0行里","LIN":"44鄰","STREET":"\u25A0和街","SECT":" ","MAREA":" ","LANE":" ","ALLEY":" ","HOUSE_NO":"２２０號","E_COORD97":171803.98999999999,"N_COORD97":2548120.9300000002,"ADDRESS":"\u25A0和街２２０號","OBJECTID":538420},"geometry":{"x":171803.99000000209,"y":2548120.9300000016}},{"attributes":{"ID":538448,"DIS_CODE":0,"TOWNNAME":"永康區","LI":"\u25A0行里","LIN":"44鄰","STREET":"\u25A0和街","SECT":" ","MAREA":" ","LANE":" ","ALLEY":" ","HOUSE_NO":"２１４號","E_COORD97":171817.34,"N_COORD97":2548100.6899999999,"ADDRESS":"\u25A0和街２１４號","OBJECTID":538421},"geometry":{"x":171817.34000000078,"y":2548100.6899999995}},{"attributes":{"ID":538449,"DIS_CODE":0,"TOWNNAME":"永康區","LI":"\u25A0行里","LIN":"44鄰","STREET":"\u25A0平街","SECT":" ","MAREA":" ","LANE":" ","ALLEY":" ","HOUSE_NO":"１４７號","E_COORD97":171886.12,"N_COORD97":2548242.23,"ADDRESS":"\u25A0平街１４７號","OBJECTID":538422},"geometry":{"x":171886.12000000197,"y":2548242.2300000023}},{"attributes":{"ID":538450,"DIS_CODE":0,"TOWNNAME":"永康區","LI":"\u25A0行里","LIN":"44鄰","STREET":"\u25A0和街","SECT":" ","MAREA":" ","LANE":" ","ALLEY":" ","HOUSE_NO":"１６２號","E_COORD97":171961.67000000001,"N_COORD97":2547897,"ADDRESS":"\u25A0和街１６２號","OBJECTID":538423},"geometry":{"x":171961.66999999993,"y":2547897.0000000019}},{"attributes":{"ID":538451,"DIS_CODE":0,"TOWNNAME":"永康區","LI":"\u25A0行里","LIN":"44鄰","STREET":"\u25A0和街","SECT":" ","MAREA":" ","LANE":" ","ALLEY":" ","HOUSE_NO":"１７４號","E_COORD97":171903.26999999999,"N_COORD97":2547975.25,"ADDRESS":"\u25A0和街１７４號","OBJECTID":538424},"geometry":{"x":171903.27000000048,"y":2547975.25}},{"attributes":{"ID":538452,"DIS_CODE":0,"TOWNNAME":"永康區","LI":"\u25A0行里","LIN":"44鄰","STREET":"\u25A0和街","SECT":" ","MAREA":" ","LANE":" ","ALLEY":" ","HOUSE_NO":"２２９號","E_COORD97":171692.79000000001,"N_COORD97":2548211.75,"ADDRESS":"\u25A0和街２２９號","OBJECTID":538425},"geometry":{"x":171692.79000000004,"y":2548211.75}},{"attributes":{"ID":538453,"DIS_CODE":0,"TOWNNAME":"永康區","LI":"\u25A0行里","LIN":"44鄰","STREET":"\u25A0平街","SECT":" ","MAREA":" ","LANE":" ","ALLEY":" ","HOUSE_NO":"２３８號","E_COORD97":171977.03,"N_COORD97":2548269.25,"ADDRESS":"\u25A0平街２３８號","OBJECTID":538426},"geometry":{"x":171977.03000000119,"y":2548269.25}},{"attributes":{"ID":538454,"DIS_CODE":0,"TOWNNAME":"永康區","LI":"\u25A0行里","LIN":"44鄰","STREET":"\u25A0和街","SECT":" ","MAREA":" ","LANE":" ","ALLEY":" ","HOUSE_NO":"２１８號","E_COORD97":171808.94,"N_COORD97":2548113.4399999999,"ADDRESS":"\u25A0和街２１８號","OBJECTID":538427},"geometry":{"x":171808.94000000041,"y":2548113.4400000013}},{"attributes":{"ID":538455,"DIS_CODE":0,"TOWNNAME":"永康區","LI":"龍潭里","LIN":"44鄰","STREET":"永平街","SECT":" ","MAREA":" ","LANE":" ","ALLEY":" ","HOUSE_NO":"２９２之１３號","E_COORD97":174655.56,"N_COORD97":2547068.5499999998,"ADDRESS":"永平街２９２之１３號","OBJECTID":538428},"geometry":{"x":174655.55999999959,"y":2547068.5500000007}},{"attributes":{"ID":538456,"DIS_CODE":0,"TOWNNAME":"永康區","LI":"\u25A0行里","LIN":"44鄰","STREET":"\u25A0平街","SECT":" ","MAREA":" ","LANE":" ","ALLEY":" ","HOUSE_NO":"２４０號","E_COORD97":171982.98999999999,"N_COORD97":2548273.5,"ADDRESS":"\u25A0平街２４０號","OBJECTID":538429},"geometry":{"x":171982.99000000022,"y":2548273.5000000019}},{"attributes":{"ID":538457,"DIS_CODE":0,"TOWNNAME":"永康區","LI":"\u25A0行里","LIN":"44鄰","STREET":"\u25A0和街","SECT":" ","MAREA":" ","LANE":" ","ALLEY":" ","HOUSE_NO":"１８２號","E_COORD97":171885.25,"N_COORD97":2548002.75,"ADDRESS":"\u25A0和街１８２號","OBJECTID":538430},"geometry":{"x":171885.25000000093,"y":2548002.7500000037}},{"attributes":{"ID":538458,"DIS_CODE":0,"TOWNNAME":"永康區","LI":"\u25A0行里","LIN":"44鄰","STREET":"\u25A0平街","SECT":" ","MAREA":" ","LANE":" ","ALLEY":" ","HOUSE_NO":"２１２號","E_COORD97":171921.89000000001,"N_COORD97":2548232.4900000002,"ADDRESS":"\u25A0平街２１２號","OBJECTID":538431},"geometry":{"x":171921.8900000006,"y":2548232.4900000021}},{"attributes":{"ID":538459,"DIS_CODE":0,"TOWNNAME":"永康區","LI":"龍潭里","LIN":"44鄰","STREET":"永平街","SECT":" ","MAREA":" ","LANE":" ","ALLEY":" ","HOUSE_NO":"２９２之１１號","E_COORD97":174655.56,"N_COORD97":2547068.5499999998,"ADDRESS":"永平街２９２之１１號","OBJECTID":538432},"geometry":{"x":174655.55999999959,"y":2547068.5500000007}},{"attributes":{"ID":538460,"DIS_CODE":0,"TOWNNAME":"永康區","LI":"龍潭里","LIN":"44鄰","STREET":"永平街","SECT":" ","MAREA":" ","LANE":" ","ALLEY":" ","HOUSE_NO":"２９０之１７號","E_COORD97":174658.23000000001,"N_COORD97":2547049.7999999998,"ADDRESS":"永平街２９０之１７號","OBJECTID":538433},"geometry":{"x":174658.23000000045,"y":2547049.8000000007}},{"attributes":{"ID":538461,"DIS_CODE":0,"TOWNNAME":"永康區","LI":"\u25A0行里","LIN":"44鄰","STREET":"\u25A0和街","SECT":" ","MAREA":" ","LANE":" ","ALLEY":" ","HOUSE_NO":"２２３號","E_COORD97":171745.70999999999,"N_COORD97":2548168.25,"ADDRESS":"\u25A0和街２２３號","OBJECTID":538434},"geometry":{"x":171745.70999999996,"y":2548168.25}},{"attributes":{"ID":538462,"DIS_CODE":0,"TOWNNAME":"永康區","LI":"西灣里","LIN":"44鄰","STREET":"永華路","SECT":" ","MAREA":" ","LANE":" ","ALLEY":" ","HOUSE_NO":"１９９號","E_COORD97":174085.20999999999,"N_COORD97":2545623.6099999999,"ADDRESS":"永華路１９９號","OBJECTID":538435},"geometry":{"x":174085.20999999996,"y":2545623.6100000013}},{"attributes":{"ID":538463,"DIS_CODE":0,"TOWNNAME":"永康區","LI":"西灣里","LIN":"44鄰","STREET":"永華路","SECT":" ","MAREA":" ","LANE":" ","ALLEY":" ","HOUSE_NO":"１９５號","E_COORD97":174085.26000000001,"N_COORD97":2545613.8599999999,"ADDRESS":"永華路１９５號","OBJECTID":538436},"geometry":{"x":174085.26000000164,"y":2545613.8599999994}},{"attributes":{"ID":538464,"DIS_CODE":0,"TOWNNAME":"永康區","LI":"龍潭里","LIN":"44鄰","STREET":"永平街","SECT":" ","MAREA":" ","LANE":" ","ALLEY":" ","HOUSE_NO":"２９２之８號","E_COORD97":174654.31,"N_COORD97":2547068.5499999998,"ADDRESS":"永平街２９２之８號","OBJECTID":538437},"geometry":{"x":174654.31000000145,"y":2547068.5500000007}},{"attributes":{"ID":538465,"DIS_CODE":0,"TOWNNAME":"永康區","LI":"\u25A0行里","LIN":"44鄰","STREET":"\u25A0平街","SECT":" ","MAREA":" ","LANE":" ","ALLEY":" ","HOUSE_NO":"２１０號","E_COORD97":171904.44,"N_COORD97":2548225.4900000002,"ADDRESS":"\u25A0平街２１０號","OBJECTID":538438},"geometry":{"x":171904.43999999948,"y":2548225.4900000039}},{"attributes":{"ID":538466,"DIS_CODE":0,"TOWNNAME":"永康區","LI":"\u25A0行里","LIN":"44鄰","STREET":"\u25A0平街","SECT":" ","MAREA":" ","LANE":" ","ALLEY":" ","HOUSE_NO":"２３６號","E_COORD97":171970.44,"N_COORD97":2548265.2400000002,"ADDRESS":"\u25A0平街２３６號","OBJECTID":538439},"geometry":{"x":171970.44000000041,"y":2548265.2400000021}},{"attributes":{"ID":538467,"DIS_CODE":0,"TOWNNAME":"永康區","LI":"龍潭里","LIN":"44鄰","STREET":"永平街","SECT":" ","MAREA":" ","LANE":" ","ALLEY":" ","HOUSE_NO":"２９２之２５號","E_COORD97":174655.56,"N_COORD97":2547068.5499999998,"ADDRESS":"永平街２９２之２５號","OBJECTID":538440},"geometry":{"x":174655.55999999959,"y":2547068.5500000007}},{"attributes":{"ID":538468,"DIS_CODE":0,"TOWNNAME":"永康區","LI":"龍潭里","LIN":"44鄰","STREET":"永平街","SECT":" ","MAREA":" ","LANE":" ","ALLEY":" ","HOUSE_NO":"２９０之２５號","E_COORD97":174658.23000000001,"N_COORD97":2547049.7999999998,"ADDRESS":"永平街２９０之２５號","OBJECTID":538441},"geometry":{"x":174658.23000000045,"y":2547049.8000000007}},{"attributes":{"ID":538469,"DIS_CODE":0,"TOWNNAME":"永康區","LI":"\u25A0行里","LIN":"44鄰","STREET":"\u25A0和街","SECT":" ","MAREA":" ","LANE":" ","ALLEY":" ","HOUSE_NO":"１７３號","E_COORD97":171902.22,"N_COORD97":2547928.4900000002,"ADDRESS":"\u25A0和街１７３號","OBJECTID":538442},"geometry":{"x":171902.22000000067,"y":2547928.4900000021}},{"attributes":{"ID":538470,"DIS_CODE":0,"TOWNNAME":"永康區","LI":"龍潭里","LIN":"44鄰","STREET":"永平街","SECT":" ","MAREA":" ","LANE":" ","ALLEY":" ","HOUSE_NO":"２９６之９號","E_COORD97":174672.37,"N_COORD97":2547093.29,"ADDRESS":"永平街２９６之９號","OBJECTID":538443},"geometry":{"x":174672.37000000011,"y":2547093.2900000028}},{"attributes":{"ID":538471,"DIS_CODE":0,"TOWNNAME":"永康區","LI":"龍潭里","LIN":"44鄰","STREET":"永平街","SECT":" ","MAREA":" ","LANE":" ","ALLEY":" ","HOUSE_NO":"２９２之６號","E_COORD97":174654.31,"N_COORD97":2547068.5499999998,"ADDRESS":"永平街２９２之６號","OBJECTID":538444},"geometry":{"x":174654.31000000145,"y":2547068.5500000007}},{"attributes":{"ID":538472,"DIS_CODE":0,"TOWNNAME":"永康區","LI":"龍潭里","LIN":"44鄰","STREET":"永平街","SECT":" ","MAREA":" ","LANE":" ","ALLEY":" ","HOUSE_NO":"２９０之１６號","E_COORD97":174658.23000000001,"N_COORD97":2547049.7999999998,"ADDRESS":"永平街２９０之１６號","OBJECTID":538445},"geometry":{"x":174658.23000000045,"y":2547049.8000000007}},{"attributes":{"ID":538473,"DIS_CODE":0,"TOWNNAME":"永康區","LI":"\u25A0行里","LIN":"44鄰","STREET":"\u25A0和街","SECT":" ","MAREA":" ","LANE":" ","ALLEY":" ","HOUSE_NO":"２２２號","E_COORD97":171798.38,"N_COORD97":2548128.1800000002,"ADDRESS":"\u25A0和街２２２號","OBJECTID":538446},"geometry":{"x":171798.38000000082,"y":2548128.1799999997}},{"attributes":{"ID":538474,"DIS_CODE":0,"TOWNNAME":"永康區","LI":"龍潭里","LIN":"44鄰","STREET":"永平街","SECT":" ","MAREA":" ","LANE":" ","ALLEY":" ","HOUSE_NO":"２７８之１號","E_COORD97":174684.26000000001,"N_COORD97":2547032.0499999998,"ADDRESS":"永平街２７８之１號","OBJECTID":538447},"geometry":{"x":174684.26000000071,"y":2547032.0500000045}},{"attributes":{"ID":538475,"DIS_CODE":0,"TOWNNAME":"永康區","LI":"龍潭里","LIN":"44鄰","STREET":"永平街","SECT":" ","MAREA":" ","LANE":" ","ALLEY":" ","HOUSE_NO":"２９０之２３號","E_COORD97":174658.23000000001,"N_COORD97":2547049.7999999998,"ADDRESS":"永平街２９０之２３號","OBJECTID":538448},"geometry":{"x":174658.23000000045,"y":2547049.8000000007}},{"attributes":{"ID":538476,"DIS_CODE":0,"TOWNNAME":"永康區","LI":"\u25A0行里","LIN":"44鄰","STREET":"中正二街","SECT":" ","MAREA":" ","LANE":" ","ALLEY":" ","HOUSE_NO":"４１８號","E_COORD97":171980.13,"N_COORD97":2548061.1800000002,"ADDRESS":"中正二街４１８號","OBJECTID":538449},"geometry":{"x":171980.12999999989,"y":2548061.1800000016}},{"attributes":{"ID":538477,"DIS_CODE":0,"TOWNNAME":"永康區","LI":"龍潭里","LIN":"44鄰","STREET":"永平街","SECT":" ","MAREA":" ","LANE":" ","ALLEY":" ","HOUSE_NO":"２９６之５號","E_COORD97":174672.37,"N_COORD97":2547093.29,"ADDRESS":"永平街２９６之５號","OBJECTID":538450},"geometry":{"x":174672.37000000011,"y":2547093.2900000028}},{"attributes":{"ID":538478,"DIS_CODE":0,"TOWNNAME":"永康區","LI":"龍潭里","LIN":"44鄰","STREET":"永平街","SECT":" ","MAREA":" ","LANE":" ","ALLEY":" ","HOUSE_NO":"２７６之１６號","E_COORD97":174684.09,"N_COORD97":2547014.79,"ADDRESS":"永平街２７６之１６號","OBJECTID":538451},"geometry":{"x":174684.08999999985,"y":2547014.7899999972}},{"attributes":{"ID":538479,"DIS_CODE":0,"TOWNNAME":"永康區","LI":"龍潭里","LIN":"44鄰","STREET":"永平街","SECT":" ","MAREA":" ","LANE":" ","ALLEY":" ","HOUSE_NO":"２７６之１７號","E_COORD97":174684.09,"N_COORD97":2547014.79,"ADDRESS":"永平街２７６之１７號","OBJECTID":538452},"geometry":{"x":174684.08999999985,"y":2547014.7899999972}},{"attributes":{"ID":538480,"DIS_CODE":0,"TOWNNAME":"永康區","LI":"龍潭里","LIN":"44鄰","STREET":"永平街","SECT":" ","MAREA":" ","LANE":" ","ALLEY":" ","HOUSE_NO":"２９０之５號","E_COORD97":174656.98000000001,"N_COORD97":2547049.7999999998,"ADDRESS":"永平街２９０之５號","OBJECTID":538453},"geometry":{"x":174656.98000000045,"y":2547049.8000000007}},{"attributes":{"ID":538481,"DIS_CODE":0,"TOWNNAME":"永康區","LI":"龍潭里","LIN":"44鄰","STREET":"永平街","SECT":" ","MAREA":" ","LANE":" ","ALLEY":" ","HOUSE_NO":"２９２之２號","E_COORD97":174654.31,"N_COORD97":2547068.5499999998,"ADDRESS":"永平街２９２之２號","OBJECTID":538454},"geometry":{"x":174654.31000000145,"y":2547068.5500000007}},{"attributes":{"ID":538482,"DIS_CODE":0,"TOWNNAME":"永康區","LI":"龍潭里","LIN":"44鄰","STREET":"永平街","SECT":" ","MAREA":" ","LANE":" ","ALLEY":" ","HOUSE_NO":"２９０之２６號","E_COORD97":174658.23000000001,"N_COORD97":2547049.7999999998,"ADDRESS":"永平街２９０之２６號","OBJECTID":538455},"geometry":{"x":174658.23000000045,"y":2547049.8000000007}},{"attributes":{"ID":538483,"DIS_CODE":0,"TOWNNAME":"永康區","LI":"龍潭里","LIN":"44鄰","STREET":"永平街","SECT":" ","MAREA":" ","LANE":" ","ALLEY":" ","HOUSE_NO":"２９２之２３號","E_COORD97":174655.56,"N_COORD97":2547068.5499999998,"ADDRESS":"永平街２９２之２３號","OBJECTID":538456},"geometry":{"x":174655.55999999959,"y":2547068.5500000007}},{"attributes":{"ID":538484,"DIS_CODE":0,"TOWNNAME":"永康區","LI":"龍潭里","LIN":"44鄰","STREET":"永平街","SECT":" ","MAREA":" ","LANE":" ","ALLEY":" ","HOUSE_NO":"２９０之６號","E_COORD97":174656.98000000001,"N_COORD97":2547049.7999999998,"ADDRESS":"永平街２９０之６號","OBJECTID":538457},"geometry":{"x":174656.98000000045,"y":2547049.8000000007}},{"attributes":{"ID":538485,"DIS_CODE":0,"TOWNNAME":"永康區","LI":"龍潭里","LIN":"44鄰","STREET":"永平街","SECT":" ","MAREA":" ","LANE":" ","ALLEY":" ","HOUSE_NO":"２９２之５號","E_COORD97":174654.31,"N_COORD97":2547068.5499999998,"ADDRESS":"永平街２９２之５號","OBJECTID":538458},"geometry":{"x":174654.31000000145,"y":2547068.5500000007}},{"attributes":{"ID":538486,"DIS_CODE":0,"TOWNNAME":"新營區","LI":"民生里","LIN":"12鄰","STREET":"復興路","SECT":" ","MAREA":" ","LANE":" ","ALLEY":" ","HOUSE_NO":"２１２號","E_COORD97":179029.10000000001,"N_COORD97":2578073.4500000002,"ADDRESS":"復興路２１２號","OBJECTID":538459},"geometry":{"x":179029.0999999987,"y":2578073.450000003}},{"attributes":{"ID":538487,"DIS_CODE":0,"TOWNNAME":"永康區","LI":"龍潭里","LIN":"44鄰","STREET":"永平街","SECT":" ","MAREA":" ","LANE":" ","ALLEY":" ","HOUSE_NO":"２９２之１２號","E_COORD97":174655.56,"N_COORD97":2547068.5499999998,"ADDRESS":"永平街２９２之１２號","OBJECTID":538460},"geometry":{"x":174655.55999999959,"y":2547068.5500000007}},{"attributes":{"ID":538488,"DIS_CODE":0,"TOWNNAME":"永康區","LI":"龍潭里","LIN":"44鄰","STREET":"永平街","SECT":" ","MAREA":" ","LANE":" ","ALLEY":" ","HOUSE_NO":"２９６之１５號","E_COORD97":174673.62,"N_COORD97":2547093.29,"ADDRESS":"永平街２９６之１５號","OBJECTID":538461},"geometry":{"x":174673.62000000104,"y":2547093.2900000028}},{"attributes":{"ID":538489,"DIS_CODE":0,"TOWNNAME":"永康區","LI":"龍潭里","LIN":"44鄰","STREET":"永平街","SECT":" ","MAREA":" ","LANE":" ","ALLEY":" ","HOUSE_NO":"２９２之２１號","E_COORD97":174655.56,"N_COORD97":2547068.5499999998,"ADDRESS":"永平街２９２之２１號","OBJECTID":538462},"geometry":{"x":174655.55999999959,"y":2547068.5500000007}},{"attributes":{"ID":538490,"DIS_CODE":0,"TOWNNAME":"永康區","LI":"龍潭里","LIN":"44鄰","STREET":"永平街","SECT":" ","MAREA":" ","LANE":" ","ALLEY":" ","HOUSE_NO":"２９０之８號","E_COORD97":174656.98000000001,"N_COORD97":2547049.7999999998,"ADDRESS":"永平街２９０之８號","OBJECTID":538463},"geometry":{"x":174656.98000000045,"y":2547049.8000000007}},{"attributes":{"ID":538491,"DIS_CODE":0,"TOWNNAME":"永康區","LI":"龍潭里","LIN":"44鄰","STREET":"永平街","SECT":" ","MAREA":" ","LANE":" ","ALLEY":" ","HOUSE_NO":"２７６之９號","E_COORD97":174682.84,"N_COORD97":2547014.79,"ADDRESS":"永平街２７６之９號","OBJECTID":538464},"geometry":{"x":174682.83999999985,"y":2547014.7899999972}},{"attributes":{"ID":538492,"DIS_CODE":0,"TOWNNAME":"永康區","LI":"龍潭里","LIN":"44鄰","STREET":"永平街","SECT":" ","MAREA":" ","LANE":" ","ALLEY":" ","HOUSE_NO":"２９０之２２號","E_COORD97":174658.23000000001,"N_COORD97":2547049.7999999998,"ADDRESS":"永平街２９０之２２號","OBJECTID":538465},"geometry":{"x":174658.23000000045,"y":2547049.8000000007}},{"attributes":{"ID":538493,"DIS_CODE":0,"TOWNNAME":"永康區","LI":"龍潭里","LIN":"44鄰","STREET":"永平街","SECT":" ","MAREA":" ","LANE":" ","ALLEY":" ","HOUSE_NO":"２９６之１０號","E_COORD97":174673.62,"N_COORD97":2547093.29,"ADDRESS":"永平街２９６之１０號","OBJECTID":538466},"geometry":{"x":174673.62000000104,"y":2547093.2900000028}},{"attributes":{"ID":538494,"DIS_CODE":0,"TOWNNAME":"永康區","LI":"龍潭里","LIN":"44鄰","STREET":"永平街","SECT":" ","MAREA":" ","LANE":" ","ALLEY":" ","HOUSE_NO":"２７８之１５號","E_COORD97":174685.51000000001,"N_COORD97":2547032.0499999998,"ADDRESS":"永平街２７８之１５號","OBJECTID":538467},"geometry":{"x":174685.51000000071,"y":2547032.0500000045}},{"attributes":{"ID":538495,"DIS_CODE":0,"TOWNNAME":"永康區","LI":"龍潭里","LIN":"44鄰","STREET":"永平街","SECT":" ","MAREA":" ","LANE":" ","ALLEY":" ","HOUSE_NO":"２８０之１６號","E_COORD97":174657.84,"N_COORD97":2547031.5499999998,"ADDRESS":"永平街２８０之１６號","OBJECTID":538468},"geometry":{"x":174657.84000000078,"y":2547031.5500000007}},{"attributes":{"ID":538496,"DIS_CODE":0,"TOWNNAME":"永康區","LI":"龍潭里","LIN":"44鄰","STREET":"永平街","SECT":" ","MAREA":" ","LANE":" ","ALLEY":" ","HOUSE_NO":"２８０之１０號","E_COORD97":174657.84,"N_COORD97":2547031.5499999998,"ADDRESS":"永平街２８０之１０號","OBJECTID":538469},"geometry":{"x":174657.84000000078,"y":2547031.5500000007}},{"attributes":{"ID":538497,"DIS_CODE":0,"TOWNNAME":"永康區","LI":"龍潭里","LIN":"44鄰","STREET":"永平街","SECT":" ","MAREA":" ","LANE":" ","ALLEY":" ","HOUSE_NO":"２８０之１５號","E_COORD97":174657.84,"N_COORD97":2547031.5499999998,"ADDRESS":"永平街２８０之１５號","OBJECTID":538470},"geometry":{"x":174657.84000000078,"y":2547031.5500000007}},{"attributes":{"ID":538498,"DIS_CODE":0,"TOWNNAME":"永康區","LI":"龍潭里","LIN":"44鄰","STREET":"永平街","SECT":" ","MAREA":" ","LANE":" ","ALLEY":" ","HOUSE_NO":"２８０之９號","E_COORD97":174656.59,"N_COORD97":2547031.5499999998,"ADDRESS":"永平街２８０之９號","OBJECTID":538471},"geometry":{"x":174656.59000000078,"y":2547031.5500000007}},{"attributes":{"ID":538499,"DIS_CODE":0,"TOWNNAME":"仁德區","LI":"太子里","LIN":"44鄰","STREET":"太子路","SECT":" ","MAREA":" ","LANE":" ","ALLEY":" ","HOUSE_NO":"１２９號","E_COORD97":174795.04000000001,"N_COORD97":2543514.7599999998,"ADDRESS":"太子路１２９號","OBJECTID":538472},"geometry":{"x":174795.04000000004,"y":2543514.7600000016}},{"attributes":{"ID":538500,"DIS_CODE":0,"TOWNNAME":"仁德區","LI":"太子里","LIN":"44鄰","STREET":"太子路","SECT":" ","MAREA":" ","LANE":" ","ALLEY":" ","HOUSE_NO":"１３３號","E_COORD97":174786.56,"N_COORD97":2543514.5099999998,"ADDRESS":"太子路１３３號","OBJECTID":538473},"geometry":{"x":174786.56000000052,"y":2543514.5099999998}},{"attributes":{"ID":538501,"DIS_CODE":0,"TOWNNAME":"仁德區","LI":"太子里","LIN":"44鄰","STREET":"太子一街","SECT":" ","MAREA":" ","LANE":" ","ALLEY":" ","HOUSE_NO":"３號","E_COORD97":174795.07999999999,"N_COORD97":2543494,"ADDRESS":"太子一街３號","OBJECTID":538474},"geometry":{"x":174795.08000000007,"y":2543494}},{"attributes":{"ID":538502,"DIS_CODE":0,"TOWNNAME":"仁德區","LI":"太子里","LIN":"44鄰","STREET":"太子路","SECT":" ","MAREA":" ","LANE":" ","ALLEY":" ","HOUSE_NO":"１２５號","E_COORD97":174844.39999999999,"N_COORD97":2543516.5099999998,"ADDRESS":"太子路１２５號","OBJECTID":538475},"geometry":{"x":174844.4000000013,"y":2543516.5100000016}},{"attributes":{"ID":538503,"DIS_CODE":0,"TOWNNAME":"仁德區","LI":"太子里","LIN":"44鄰","STREET":"太子路","SECT":" ","MAREA":" ","LANE":" ","ALLEY":" ","HOUSE_NO":"１３７號","E_COORD97":174756.98999999999,"N_COORD97":2543513.0099999998,"ADDRESS":"太子路１３７號","OBJECTID":538476},"geometry":{"x":174756.99000000209,"y":2543513.0100000016}},{"attributes":{"ID":538504,"DIS_CODE":0,"TOWNNAME":"永康區","LI":"\u25A0行里","LIN":"44鄰","STREET":"\u25A0和街","SECT":" ","MAREA":" ","LANE":" ","ALLEY":" ","HOUSE_NO":"２０２號","E_COORD97":171853.47,"N_COORD97":2548047.7400000002,"ADDRESS":"\u25A0和街２０２號","OBJECTID":538477},"geometry":{"x":171853.47000000067,"y":2548047.7400000021}},{"attributes":{"ID":538505,"DIS_CODE":0,"TOWNNAME":"永康區","LI":"\u25A0行里","LIN":"44鄰","STREET":"\u25A0和街","SECT":" ","MAREA":" ","LANE":" ","ALLEY":" ","HOUSE_NO":"２０１號","E_COORD97":171837.29999999999,"N_COORD97":2548036.46,"ADDRESS":"\u25A0和街２０１號","OBJECTID":538478},"geometry":{"x":171837.30000000075,"y":2548036.4600000046}},{"attributes":{"ID":538506,"DIS_CODE":0,"TOWNNAME":"永康區","LI":"\u25A0行里","LIN":"44鄰","STREET":"\u25A0和街","SECT":" ","MAREA":" ","LANE":" ","ALLEY":" ","HOUSE_NO":"２０９號","E_COORD97":171794.56,"N_COORD97":2548098.7200000002,"ADDRESS":"\u25A0和街２０９號","OBJECTID":538479},"geometry":{"x":171794.56000000052,"y":2548098.7200000044}},{"attributes":{"ID":538507,"DIS_CODE":0,"TOWNNAME":"永康區","LI":"龍潭里","LIN":"44鄰","STREET":"永平街","SECT":" ","MAREA":" ","LANE":" ","ALLEY":" ","HOUSE_NO":"２８０之２０號","E_COORD97":174657.84,"N_COORD97":2547031.5499999998,"ADDRESS":"永平街２８０之２０號","OBJECTID":538480},"geometry":{"x":174657.84000000078,"y":2547031.5500000007}},{"attributes":{"ID":538508,"DIS_CODE":0,"TOWNNAME":"永康區","LI":"龍潭里","LIN":"44鄰","STREET":"永平街","SECT":" ","MAREA":" ","LANE":" ","ALLEY":" ","HOUSE_NO":"２８８之１５號","E_COORD97":174686.12,"N_COORD97":2547050.2999999998,"ADDRESS":"永平街２８８之１５號","OBJECTID":538481},"geometry":{"x":174686.12000000011,"y":2547050.3000000007}},{"attributes":{"ID":538509,"DIS_CODE":0,"TOWNNAME":"永康區","LI":"龍潭里","LIN":"44鄰","STREET":"永平街","SECT":" ","MAREA":" ","LANE":" ","ALLEY":" ","HOUSE_NO":"２９０之２１號","E_COORD97":174658.23000000001,"N_COORD97":2547049.7999999998,"ADDRESS":"永平街２９０之２１號","OBJECTID":538482},"geometry":{"x":174658.23000000045,"y":2547049.8000000007}},{"attributes":{"ID":538510,"DIS_CODE":0,"TOWNNAME":"永康區","LI":"龍潭里","LIN":"44鄰","STREET":"永平街","SECT":" ","MAREA":" ","LANE":" ","ALLEY":" ","HOUSE_NO":"２９２之２２號","E_COORD97":174655.56,"N_COORD97":2547068.5499999998,"ADDRESS":"永平街２９２之２２號","OBJECTID":538483},"geometry":{"x":174655.55999999959,"y":2547068.5500000007}},{"attributes":{"ID":538511,"DIS_CODE":0,"TOWNNAME":"歸仁區","LI":"大廟里","LIN":"12鄰","STREET":"大廟六街","SECT":" ","MAREA":" ","LANE":" ","ALLEY":" ","HOUSE_NO":"７０號","E_COORD97":176118.47,"N_COORD97":2544211.25,"ADDRESS":"大廟六街７０號","OBJECTID":538484},"geometry":{"x":176118.47000000067,"y":2544211.25}},{"attributes":{"ID":538512,"DIS_CODE":0,"TOWNNAME":"永康區","LI":"龍潭里","LIN":"44鄰","STREET":"永平街","SECT":" ","MAREA":" ","LANE":" ","ALLEY":" ","HOUSE_NO":"２７８之１３號","E_COORD97":174685.51000000001,"N_COORD97":2547032.0499999998,"ADDRESS":"永平街２７８之１３號","OBJECTID":538485},"geometry":{"x":174685.51000000071,"y":2547032.0500000045}},{"attributes":{"ID":538513,"DIS_CODE":0,"TOWNNAME":"永康區","LI":"龍潭里","LIN":"44鄰","STREET":"永平街","SECT":" ","MAREA":" ","LANE":" ","ALLEY":" ","HOUSE_NO":"２４２號","E_COORD97":174661.97,"N_COORD97":2546977.1600000001,"ADDRESS":"永平街２４２號","OBJECTID":538486},"geometry":{"x":174661.97000000067,"y":2546977.160000002}},{"attributes":{"ID":538514,"DIS_CODE":0,"TOWNNAME":"永康區","LI":"龍潭里","LIN":"44鄰","STREET":"永平街","SECT":" ","MAREA":" ","LANE":" ","ALLEY":" ","HOUSE_NO":"２９０之９號","E_COORD97":174656.98000000001,"N_COORD97":2547049.7999999998,"ADDRESS":"永平街２９０之９號","OBJECTID":538487},"geometry":{"x":174656.98000000045,"y":2547049.8000000007}},{"attributes":{"ID":538515,"DIS_CODE":0,"TOWNNAME":"永康區","LI":"龍潭里","LIN":"44鄰","STREET":"永平街","SECT":" ","MAREA":" ","LANE":" ","ALLEY":" ","HOUSE_NO":"２４０號","E_COORD97":174661.97,"N_COORD97":2546972.6699999999,"ADDRESS":"永平街２４０號","OBJECTID":538488},"geometry":{"x":174661.97000000067,"y":2546972.6700000037}},{"attributes":{"ID":538516,"DIS_CODE":0,"TOWNNAME":"永康區","LI":"龍潭里","LIN":"44鄰","STREET":"永平街","SECT":" ","MAREA":" ","LANE":" ","ALLEY":" ","HOUSE_NO":"２９６之１７號","E_COORD97":174673.62,"N_COORD97":2547093.29,"ADDRESS":"永平街２９６之１７號","OBJECTID":538489},"geometry":{"x":174673.62000000104,"y":2547093.2900000028}},{"attributes":{"ID":538517,"DIS_CODE":0,"TOWNNAME":"永康區","LI":"龍潭里","LIN":"44鄰","STREET":"永平街","SECT":" ","MAREA":" ","LANE":" ","ALLEY":" ","HOUSE_NO":"２７８之１１號","E_COORD97":174685.51000000001,"N_COORD97":2547032.0499999998,"ADDRESS":"永平街２７８之１１號","OBJECTID":538490},"geometry":{"x":174685.51000000071,"y":2547032.0500000045}},{"attributes":{"ID":538518,"DIS_CODE":0,"TOWNNAME":"永康區","LI":"龍潭里","LIN":"44鄰","STREET":"永平街","SECT":" ","MAREA":" ","LANE":" ","ALLEY":" ","HOUSE_NO":"２７８之１８號","E_COORD97":174685.51000000001,"N_COORD97":2547032.0499999998,"ADDRESS":"永平街２７８之１８號","OBJECTID":538491},"geometry":{"x":174685.51000000071,"y":2547032.0500000045}},{"attributes":{"ID":538519,"DIS_CODE":0,"TOWNNAME":"永康區","LI":"龍潭里","LIN":"44鄰","STREET":"永平街","SECT":" ","MAREA":" ","LANE":" ","ALLEY":" ","HOUSE_NO":"２７８之１７號","E_COORD97":174685.51000000001,"N_COORD97":2547032.0499999998,"ADDRESS":"永平街２７８之１７號","OBJECTID":538492},"geometry":{"x":174685.51000000071,"y":2547032.0500000045}},{"attributes":{"ID":538520,"DIS_CODE":0,"TOWNNAME":"永康區","LI":"龍潭里","LIN":"44鄰","STREET":"永平街","SECT":" ","MAREA":" ","LANE":" ","ALLEY":" ","HOUSE_NO":"２８８之２１號","E_COORD97":174686.12,"N_COORD97":2547050.2999999998,"ADDRESS":"永平街２８８之２１號","OBJECTID":538493},"geometry":{"x":174686.12000000011,"y":2547050.3000000007}},{"attributes":{"ID":538521,"DIS_CODE":0,"TOWNNAME":"永康區","LI":"龍潭里","LIN":"44鄰","STREET":"永平街","SECT":" ","MAREA":" ","LANE":" ","ALLEY":" ","HOUSE_NO":"２９２之７號","E_COORD97":174654.31,"N_COORD97":2547068.5499999998,"ADDRESS":"永平街２９２之７號","OBJECTID":538494},"geometry":{"x":174654.31000000145,"y":2547068.5500000007}},{"attributes":{"ID":538522,"DIS_CODE":0,"TOWNNAME":"永康區","LI":"龍潭里","LIN":"44鄰","STREET":"永平街","SECT":" ","MAREA":" ","LANE":" ","ALLEY":" ","HOUSE_NO":"２７８之８號","E_COORD97":174684.26000000001,"N_COORD97":2547032.0499999998,"ADDRESS":"永平街２７８之８號","OBJECTID":538495},"geometry":{"x":174684.26000000071,"y":2547032.0500000045}},{"attributes":{"ID":538523,"DIS_CODE":0,"TOWNNAME":"永康區","LI":"龍潭里","LIN":"44鄰","STREET":"永平街","SECT":" ","MAREA":" ","LANE":" ","ALLEY":" ","HOUSE_NO":"２７６之８號","E_COORD97":174682.84,"N_COORD97":2547014.79,"ADDRESS":"永平街２７６之８號","OBJECTID":538496},"geometry":{"x":174682.83999999985,"y":2547014.7899999972}},{"attributes":{"ID":538524,"DIS_CODE":0,"TOWNNAME":"永康區","LI":"龍潭里","LIN":"44鄰","STREET":"永平街","SECT":" ","MAREA":" ","LANE":" ","ALLEY":" ","HOUSE_NO":"２８８之１６號","E_COORD97":174686.12,"N_COORD97":2547050.2999999998,"ADDRESS":"永平街２８８之１６號","OBJECTID":538497},"geometry":{"x":174686.12000000011,"y":2547050.3000000007}},{"attributes":{"ID":538525,"DIS_CODE":0,"TOWNNAME":"新營區","LI":"三仙里","LIN":"12鄰","STREET":"武昌街","SECT":" ","MAREA":" ","LANE":" ","ALLEY":" ","HOUSE_NO":"５３號","E_COORD97":179630.37,"N_COORD97":2578306.46,"ADDRESS":"武昌街５３號","OBJECTID":538498},"geometry":{"x":179630.37000000104,"y":2578306.4600000028}},{"attributes":{"ID":538526,"DIS_CODE":0,"TOWNNAME":"永康區","LI":"龍潭里","LIN":"44鄰","STREET":"永平街","SECT":" ","MAREA":" ","LANE":" ","ALLEY":" ","HOUSE_NO":"２７８之２３號","E_COORD97":174685.51000000001,"N_COORD97":2547032.0499999998,"ADDRESS":"永平街２７８之２３號","OBJECTID":538499},"geometry":{"x":174685.51000000071,"y":2547032.0500000045}},{"attributes":{"ID":538527,"DIS_CODE":0,"TOWNNAME":"永康區","LI":"龍潭里","LIN":"44鄰","STREET":"永平街","SECT":" ","MAREA":" ","LANE":" ","ALLEY":" ","HOUSE_NO":"２７６之５號","E_COORD97":174682.84,"N_COORD97":2547014.79,"ADDRESS":"永平街２７６之５號","OBJECTID":538500},"geometry":{"x":174682.83999999985,"y":2547014.7899999972}},{"attributes":{"ID":538528,"DIS_CODE":0,"TOWNNAME":"永康區","LI":"龍潭里","LIN":"44鄰","STREET":"永平街","SECT":" ","MAREA":" ","LANE":" ","ALLEY":" ","HOUSE_NO":"２８０之５號","E_COORD97":174656.59,"N_COORD97":2547031.5499999998,"ADDRESS":"永平街２８０之５號","OBJECTID":538501},"geometry":{"x":174656.59000000078,"y":2547031.5500000007}},{"attributes":{"ID":538529,"DIS_CODE":0,"TOWNNAME":"永康區","LI":"龍潭里","LIN":"44鄰","STREET":"永平街","SECT":" ","MAREA":" ","LANE":" ","ALLEY":" ","HOUSE_NO":"２９０之１８號","E_COORD97":174658.23000000001,"N_COORD97":2547049.7999999998,"ADDRESS":"永平街２９０之１８號","OBJECTID":538502},"geometry":{"x":174658.23000000045,"y":2547049.8000000007}},{"attributes":{"ID":538530,"DIS_CODE":0,"TOWNNAME":"永康區","LI":"龍潭里","LIN":"44鄰","STREET":"永平街","SECT":" ","MAREA":" ","LANE":" ","ALLEY":" ","HOUSE_NO":"２９０之１５號","E_COORD97":174658.23000000001,"N_COORD97":2547049.7999999998,"ADDRESS":"永平街２９０之１５號","OBJECTID":538503},"geometry":{"x":174658.23000000045,"y":2547049.8000000007}},{"attributes":{"ID":538531,"DIS_CODE":0,"TOWNNAME":"永康區","LI":"龍潭里","LIN":"44鄰","STREET":"永平街","SECT":" ","MAREA":" ","LANE":" ","ALLEY":" ","HOUSE_NO":"２７６之１號","E_COORD97":174682.84,"N_COORD97":2547014.79,"ADDRESS":"永平街２７６之１號","OBJECTID":538504},"geometry":{"x":174682.83999999985,"y":2547014.7899999972}},{"attributes":{"ID":538532,"DIS_CODE":0,"TOWNNAME":"永康區","LI":"龍潭里","LIN":"44鄰","STREET":"永平街","SECT":" ","MAREA":" ","LANE":" ","ALLEY":" ","HOUSE_NO":"２８８之２０號","E_COORD97":174686.12,"N_COORD97":2547050.2999999998,"ADDRESS":"永平街２８８之２０號","OBJECTID":538505},"geometry":{"x":174686.12000000011,"y":2547050.3000000007}},{"attributes":{"ID":538533,"DIS_CODE":0,"TOWNNAME":"永康區","LI":"龍潭里","LIN":"44鄰","STREET":"永平街","SECT":" ","MAREA":" ","LANE":" ","ALLEY":" ","HOUSE_NO":"２７８之３號","E_COORD97":174684.26000000001,"N_COORD97":2547032.0499999998,"ADDRESS":"永平街２７８之３號","OBJECTID":538506},"geometry":{"x":174684.26000000071,"y":2547032.0500000045}},{"attributes":{"ID":538534,"DIS_CODE":0,"TOWNNAME":"永康區","LI":"龍潭里","LIN":"44鄰","STREET":"永平街","SECT":" ","MAREA":" ","LANE":" ","ALLEY":" ","HOUSE_NO":"２９０之１２號","E_COORD97":174658.23000000001,"N_COORD97":2547049.7999999998,"ADDRESS":"永平街２９０之１２號","OBJECTID":538507},"geometry":{"x":174658.23000000045,"y":2547049.8000000007}},{"attributes":{"ID":538535,"DIS_CODE":0,"TOWNNAME":"永康區","LI":"龍潭里","LIN":"44鄰","STREET":"永平街","SECT":" ","MAREA":" ","LANE":" ","ALLEY":" ","HOUSE_NO":"２９６之１６號","E_COORD97":174673.62,"N_COORD97":2547093.29,"ADDRESS":"永平街２９６之１６號","OBJECTID":538508},"geometry":{"x":174673.62000000104,"y":2547093.2900000028}},{"attributes":{"ID":538536,"DIS_CODE":0,"TOWNNAME":"永康區","LI":"龍潭里","LIN":"44鄰","STREET":"永平街","SECT":" ","MAREA":" ","LANE":" ","ALLEY":" ","HOUSE_NO":"２８０之１號","E_COORD97":174656.59,"N_COORD97":2547031.5499999998,"ADDRESS":"永平街２８０之１號","OBJECTID":538509},"geometry":{"x":174656.59000000078,"y":2547031.5500000007}},{"attributes":{"ID":538537,"DIS_CODE":0,"TOWNNAME":"永康區","LI":"龍潭里","LIN":"44鄰","STREET":"永平街","SECT":" ","MAREA":" ","LANE":" ","ALLEY":" ","HOUSE_NO":"２７６之７號","E_COORD97":174682.84,"N_COORD97":2547014.79,"ADDRESS":"永平街２７６之７號","OBJECTID":538510},"geometry":{"x":174682.83999999985,"y":2547014.7899999972}},{"attributes":{"ID":538538,"DIS_CODE":0,"TOWNNAME":"永康區","LI":"龍潭里","LIN":"44鄰","STREET":"永平街","SECT":" ","MAREA":" ","LANE":" ","ALLEY":" ","HOUSE_NO":"２７８之２２號","E_COORD97":174685.51000000001,"N_COORD97":2547032.0499999998,"ADDRESS":"永平街２７８之２２號","OBJECTID":538511},"geometry":{"x":174685.51000000071,"y":2547032.0500000045}},{"attributes":{"ID":538539,"DIS_CODE":0,"TOWNNAME":"永康區","LI":"龍潭里","LIN":"44鄰","STREET":"永平街","SECT":" ","MAREA":" ","LANE":" ","ALLEY":" ","HOUSE_NO":"２７６之６號","E_COORD97":174682.84,"N_COORD97":2547014.79,"ADDRESS":"永平街２７６之６號","OBJECTID":538512},"geometry":{"x":174682.83999999985,"y":2547014.7899999972}},{"attributes":{"ID":538540,"DIS_CODE":0,"TOWNNAME":"永康區","LI":"龍潭里","LIN":"44鄰","STREET":"永平街","SECT":" ","MAREA":" ","LANE":" ","ALLEY":" ","HOUSE_NO":"３００號","E_COORD97":174646.45000000001,"N_COORD97":2547160.3599999999,"ADDRESS":"永平街３００號","OBJECTID":538513},"geometry":{"x":174646.45000000019,"y":2547160.3599999994}},{"attributes":{"ID":538541,"DIS_CODE":0,"TOWNNAME":"永康區","LI":"龍潭里","LIN":"44鄰","STREET":"永平街","SECT":" ","MAREA":" ","LANE":" ","ALLEY":" ","HOUSE_NO":"２８０之２號","E_COORD97":174656.59,"N_COORD97":2547031.5499999998,"ADDRESS":"永平街２８０之２號","OBJECTID":538514},"geometry":{"x":174656.59000000078,"y":2547031.5500000007}},{"attributes":{"ID":538542,"DIS_CODE":0,"TOWNNAME":"永康區","LI":"龍潭里","LIN":"44鄰","STREET":"永平街","SECT":" ","MAREA":" ","LANE":" ","ALLEY":" ","HOUSE_NO":"２７６之１５號","E_COORD97":174684.09,"N_COORD97":2547014.79,"ADDRESS":"永平街２７６之１５號","OBJECTID":538515},"geometry":{"x":174684.08999999985,"y":2547014.7899999972}},{"attributes":{"ID":538543,"DIS_CODE":0,"TOWNNAME":"永康區","LI":"龍潭里","LIN":"44鄰","STREET":"永平街","SECT":" ","MAREA":" ","LANE":" ","ALLEY":" ","HOUSE_NO":"２７６之１３號","E_COORD97":174684.09,"N_COORD97":2547014.79,"ADDRESS":"永平街２７６之１３號","OBJECTID":538516},"geometry":{"x":174684.08999999985,"y":2547014.7899999972}},{"attributes":{"ID":538544,"DIS_CODE":0,"TOWNNAME":"永康區","LI":"龍潭里","LIN":"44鄰","STREET":"永平街","SECT":" ","MAREA":" ","LANE":" ","ALLEY":" ","HOUSE_NO":"２８８之１７號","E_COORD97":174686.12,"N_COORD97":2547050.2999999998,"ADDRESS":"永平街２８８之１７號","OBJECTID":538517},"geometry":{"x":174686.12000000011,"y":2547050.3000000007}},{"attributes":{"ID":538545,"DIS_CODE":0,"TOWNNAME":"永康區","LI":"龍潭里","LIN":"44鄰","STREET":"永平街","SECT":" ","MAREA":" ","LANE":" ","ALLEY":" ","HOUSE_NO":"２９０之１９號","E_COORD97":174658.23000000001,"N_COORD97":2547049.7999999998,"ADDRESS":"永平街２９０之１９號","OBJECTID":538518},"geometry":{"x":174658.23000000045,"y":2547049.8000000007}},{"attributes":{"ID":538546,"DIS_CODE":0,"TOWNNAME":"永康區","LI":"龍潭里","LIN":"44鄰","STREET":"永平街","SECT":" ","MAREA":" ","LANE":" ","ALLEY":" ","HOUSE_NO":"２８８之１８號","E_COORD97":174686.12,"N_COORD97":2547050.2999999998,"ADDRESS":"永平街２８８之１８號","OBJECTID":538519},"geometry":{"x":174686.12000000011,"y":2547050.3000000007}},{"attributes":{"ID":538547,"DIS_CODE":0,"TOWNNAME":"永康區","LI":"崑山里","LIN":"44鄰","STREET":"國光六街","SECT":" ","MAREA":" ","LANE":" ","ALLEY":" ","HOUSE_NO":"１２９號","E_COORD97":173947.79000000001,"N_COORD97":2545363.29,"ADDRESS":"國光六街１２９號","OBJECTID":538520},"geometry":{"x":173947.78999999911,"y":2545363.2899999991}},{"attributes":{"ID":538548,"DIS_CODE":0,"TOWNNAME":"永康區","LI":"\u25A0行里","LIN":"44鄰","STREET":"\u25A0和街","SECT":" ","MAREA":" ","LANE":" ","ALLEY":" ","HOUSE_NO":"２１１號","E_COORD97":171785.38,"N_COORD97":2548111.7200000002,"ADDRESS":"\u25A0和街２１１號","OBJECTID":538521},"geometry":{"x":171785.37999999989,"y":2548111.7200000007}},{"attributes":{"ID":538549,"DIS_CODE":0,"TOWNNAME":"永康區","LI":"\u25A0行里","LIN":"44鄰","STREET":"\u25A0和街","SECT":" ","MAREA":" ","LANE":" ","ALLEY":" ","HOUSE_NO":"１７１號","E_COORD97":171909.13,"N_COORD97":2547923.4900000002,"ADDRESS":"\u25A0和街１７１號","OBJECTID":538522},"geometry":{"x":171909.12999999989,"y":2547923.4900000039}},{"attributes":{"ID":538550,"DIS_CODE":0,"TOWNNAME":"永康區","LI":"\u25A0行里","LIN":"44鄰","STREET":"\u25A0和街","SECT":" ","MAREA":" ","LANE":" ","ALLEY":" ","HOUSE_NO":"１７８號","E_COORD97":171894.67000000001,"N_COORD97":2547987.5,"ADDRESS":"\u25A0和街１７８號","OBJECTID":538523},"geometry":{"x":171894.67000000086,"y":2547987.5000000037}},{"attributes":{"ID":538551,"DIS_CODE":0,"TOWNNAME":"永康區","LI":"\u25A0行里","LIN":"44鄰","STREET":"\u25A0和街","SECT":" ","MAREA":" ","LANE":" ","ALLEY":" ","HOUSE_NO":"２０６號","E_COORD97":171835.32000000001,"N_COORD97":2548070.6899999999,"ADDRESS":"\u25A0和街２０６號","OBJECTID":538524},"geometry":{"x":171835.3200000003,"y":2548070.6900000032}},{"attributes":{"ID":538552,"DIS_CODE":0,"TOWNNAME":"永康區","LI":"成功里","LIN":"44鄰","STREET":"中華路","SECT":" ","MAREA":" ","LANE":" ","ALLEY":" ","HOUSE_NO":"１４２號","E_COORD97":171616.38,"N_COORD97":2544835.9900000002,"ADDRESS":"中華路１４２號","OBJECTID":538525},"geometry":{"x":171616.38000000175,"y":2544835.9900000021}},{"attributes":{"ID":538553,"DIS_CODE":0,"TOWNNAME":"歸仁區","LI":"新厝里","LIN":"12鄰","STREET":"公園十街","SECT":" ","MAREA":" ","LANE":" ","ALLEY":" ","HOUSE_NO":"６３號","E_COORD97":177669.73000000001,"N_COORD97":2540557.25,"ADDRESS":"公園十街６３號","OBJECTID":538526},"geometry":{"x":177669.73000000231,"y":2540557.25}},{"attributes":{"ID":538554,"DIS_CODE":0,"TOWNNAME":"新營區","LI":"忠政里","LIN":"12鄰","STREET":"中正路","SECT":" ","MAREA":" ","LANE":" ","ALLEY":" ","HOUSE_NO":"８３號","E_COORD97":180070.22,"N_COORD97":2579598.9900000002,"ADDRESS":"中正路８３號","OBJECTID":538527},"geometry":{"x":180070.22000000067,"y":2579598.9900000002}},{"attributes":{"ID":538555,"DIS_CODE":0,"TOWNNAME":"新營區","LI":"南興里","LIN":"12鄰","STREET":"建業路","SECT":" ","MAREA":" ","LANE":" ","ALLEY":" ","HOUSE_NO":"８６號","E_COORD97":179319.67999999999,"N_COORD97":2577495.0800000001,"ADDRESS":"建業路８６號","OBJECTID":538528},"geometry":{"x":179319.6799999997,"y":2577495.0800000019}},{"attributes":{"ID":538556,"DIS_CODE":0,"TOWNNAME":"南區","LI":"新興里","LIN":"12鄰","STREET":"夏林路","SECT":" ","MAREA":" ","LANE":" ","ALLEY":" ","HOUSE_NO":"２２４號","E_COORD97":167448.70000000001,"N_COORD97":2542213.6800000002,"ADDRESS":"夏林路２２４號","OBJECTID":538529},"geometry":{"x":167448.70000000019,"y":2542213.6800000016}},{"attributes":{"ID":538557,"DIS_CODE":0,"TOWNNAME":"南區","LI":"新興里","LIN":"12鄰","STREET":"夏林路","SECT":" ","MAREA":" ","LANE":" ","ALLEY":" ","HOUSE_NO":"２２６號","E_COORD97":167450.06,"N_COORD97":2542205.4199999999,"ADDRESS":"夏林路２２６號","OBJECTID":538530},"geometry":{"x":167450.06000000052,"y":2542205.4200000018}},{"attributes":{"ID":538558,"DIS_CODE":0,"TOWNNAME":"南區","LI":"新興里","LIN":"12鄰","STREET":"夏林路","SECT":" ","MAREA":" ","LANE":" ","ALLEY":" ","HOUSE_NO":"２２８號","E_COORD97":167449.98000000001,"N_COORD97":2542200.8599999999,"ADDRESS":"夏林路２２８號","OBJECTID":538531},"geometry":{"x":167449.98000000138,"y":2542200.8600000013}},{"attributes":{"ID":538559,"DIS_CODE":0,"TOWNNAME":"南區","LI":"新興里","LIN":"12鄰","STREET":"夏林路","SECT":" ","MAREA":" ","LANE":" ","ALLEY":" ","HOUSE_NO":"２３０號","E_COORD97":167450.14999999999,"N_COORD97":2542195.3300000001,"ADDRESS":"夏林路２３０號","OBJECTID":538532},"geometry":{"x":167450.1500000013,"y":2542195.3300000019}},{"attributes":{"ID":538560,"DIS_CODE":0,"TOWNNAME":"南區","LI":"新興里","LIN":"12鄰","STREET":"夏林路","SECT":" ","MAREA":" ","LANE":" ","ALLEY":" ","HOUSE_NO":"２３０號之１","E_COORD97":167449.72,"N_COORD97":2542190.2200000002,"ADDRESS":"夏林路２３０號之１","OBJECTID":538533},"geometry":{"x":167449.71999999974,"y":2542190.2200000025}},{"attributes":{"ID":538561,"DIS_CODE":0,"TOWNNAME":"南區","LI":"新興里","LIN":"12鄰","STREET":"夏林路","SECT":" ","MAREA":" ","LANE":" ","ALLEY":" ","HOUSE_NO":"２３２號","E_COORD97":167449.04000000001,"N_COORD97":2542186.04,"ADDRESS":"夏林路２３２號","OBJECTID":538534},"geometry":{"x":167449.04000000097,"y":2542186.040000001}},{"attributes":{"ID":538562,"DIS_CODE":0,"TOWNNAME":"南區","LI":"新興里","LIN":"12鄰","STREET":"夏林路","SECT":" ","MAREA":" ","LANE":" ","ALLEY":" ","HOUSE_NO":"２３４號","E_COORD97":167449.89000000001,"N_COORD97":2542181.23,"ADDRESS":"夏林路２３４號","OBJECTID":538535},"geometry":{"x":167449.8900000006,"y":2542181.2300000004}},{"attributes":{"ID":538563,"DIS_CODE":0,"TOWNNAME":"南區","LI":"新興里","LIN":"12鄰","STREET":"夏林路","SECT":" ","MAREA":" ","LANE":" ","ALLEY":" ","HOUSE_NO":"２３６號","E_COORD97":167449.38,"N_COORD97":2542178.4199999999,"ADDRESS":"夏林路２３６號","OBJECTID":538536},"geometry":{"x":167449.37999999896,"y":2542178.4200000018}},{"attributes":{"ID":538564,"DIS_CODE":0,"TOWNNAME":"南區","LI":"新興里","LIN":"12鄰","STREET":"夏林路","SECT":" ","MAREA":" ","LANE":" ","ALLEY":" ","HOUSE_NO":"２３８號","E_COORD97":167448.70000000001,"N_COORD97":2542173.0600000001,"ADDRESS":"夏林路２３８號","OBJECTID":538537},"geometry":{"x":167448.70000000019,"y":2542173.0599999987}},{"attributes":{"ID":538565,"DIS_CODE":0,"TOWNNAME":"南區","LI":"新興里","LIN":"12鄰","STREET":"夏林路","SECT":" ","MAREA":" ","LANE":" ","ALLEY":" ","HOUSE_NO":"２４０號","E_COORD97":167452.19,"N_COORD97":2542165.1000000001,"ADDRESS":"夏林路２４０號","OBJECTID":538538},"geometry":{"x":167452.19000000041,"y":2542165.0999999978}},{"attributes":{"ID":538566,"DIS_CODE":0,"TOWNNAME":"安平區","LI":"華平里","LIN":"12鄰","STREET":"永華路","SECT":"二段","MAREA":" ","LANE":" ","ALLEY":" ","HOUSE_NO":"５２８號","E_COORD97":165329.81,"N_COORD97":2543515.7599999998,"ADDRESS":"永華路二段５２８號","OBJECTID":538539},"geometry":{"x":165329.80999999959,"y":2543515.7599999998}},{"attributes":{"ID":538567,"DIS_CODE":0,"TOWNNAME":"安平區","LI":"華平里","LIN":"12鄰","STREET":"永華路","SECT":"二段","MAREA":" ","LANE":" ","ALLEY":" ","HOUSE_NO":"５３０號","E_COORD97":165317.84,"N_COORD97":2543518.8900000001,"ADDRESS":"永華路二段５３０號","OBJECTID":538540},"geometry":{"x":165317.84000000078,"y":2543518.8900000006}},{"attributes":{"ID":538568,"DIS_CODE":0,"TOWNNAME":"新營區","LI":"民生里","LIN":"12鄰","STREET":"復興路","SECT":" ","MAREA":" ","LANE":" ","ALLEY":" ","HOUSE_NO":"１８４號","E_COORD97":179077.92000000001,"N_COORD97":2578030.0299999998,"ADDRESS":"復興路１８４號","OBJECTID":538541},"geometry":{"x":179077.91999999993,"y":2578030.0300000012}},{"attributes":{"ID":538569,"DIS_CODE":0,"TOWNNAME":"學甲區","LI":"慈福里","LIN":"12鄰","STREET":"民族路","SECT":" ","MAREA":" ","LANE":" ","ALLEY":" ","HOUSE_NO":"４８號","E_COORD97":166624.17000000001,"N_COORD97":2570276.5600000001,"ADDRESS":"民族路４８號","OBJECTID":538542},"geometry":{"x":166624.17000000086,"y":2570276.5600000024}},{"attributes":{"ID":538570,"DIS_CODE":0,"TOWNNAME":"學甲區","LI":"慈福里","LIN":"12鄰","STREET":"民族路","SECT":" ","MAREA":" ","LANE":" ","ALLEY":" ","HOUSE_NO":"４９號","E_COORD97":166596.45000000001,"N_COORD97":2570286.3599999999,"ADDRESS":"民族路４９號","OBJECTID":538543},"geometry":{"x":166596.45000000019,"y":2570286.3600000031}},{"attributes":{"ID":538571,"DIS_CODE":0,"TOWNNAME":"學甲區","LI":"慈福里","LIN":"12鄰","STREET":"民族路","SECT":" ","MAREA":" ","LANE":" ","ALLEY":" ","HOUSE_NO":"５１號","E_COORD97":166607.48999999999,"N_COORD97":2570293.2000000002,"ADDRESS":"民族路５１號","OBJECTID":538544},"geometry":{"x":166607.49000000022,"y":2570293.1999999993}},{"attributes":{"ID":538572,"DIS_CODE":0,"TOWNNAME":"學甲區","LI":"仁得里","LIN":"12鄰","STREET":"自立街","SECT":" ","MAREA":" ","LANE":" ","ALLEY":" ","HOUSE_NO":"７７號","E_COORD97":165919.76999999999,"N_COORD97":2569954.8999999999,"ADDRESS":"自立街７７號","OBJECTID":538545},"geometry":{"x":165919.77000000048,"y":2569954.9000000041}},{"attributes":{"ID":538573,"DIS_CODE":0,"TOWNNAME":"學甲區","LI":"仁得里","LIN":"12鄰","STREET":"自立街","SECT":" ","MAREA":" ","LANE":" ","ALLEY":" ","HOUSE_NO":"８５號","E_COORD97":165897.60000000001,"N_COORD97":2569955.3700000001,"ADDRESS":"自立街８５號","OBJECTID":538546},"geometry":{"x":165897.59999999963,"y":2569955.370000001}},{"attributes":{"ID":538574,"DIS_CODE":0,"TOWNNAME":"學甲區","LI":"仁得里","LIN":"12鄰","STREET":"自立街","SECT":" ","MAREA":" ","LANE":" ","ALLEY":" ","HOUSE_NO":"８７號","E_COORD97":165891.07000000001,"N_COORD97":2569956.6000000001,"ADDRESS":"自立街８７號","OBJECTID":538547},"geometry":{"x":165891.07000000123,"y":2569956.6000000015}},{"attributes":{"ID":538575,"DIS_CODE":0,"TOWNNAME":"學甲區","LI":"仁得里","LIN":"12鄰","STREET":"自立街","SECT":" ","MAREA":" ","LANE":" ","ALLEY":" ","HOUSE_NO":"９０號","E_COORD97":165967.5,"N_COORD97":2569987.21,"ADDRESS":"自立街９０號","OBJECTID":538548},"geometry":{"x":165967.50000000093,"y":2569987.2100000046}},{"attributes":{"ID":538576,"DIS_CODE":0,"TOWNNAME":"北區","LI":"文元里","LIN":"12鄰","STREET":"文賢路","SECT":" ","MAREA":" ","LANE":" ","ALLEY":" ","HOUSE_NO":"１１６４號","E_COORD97":167329.67000000001,"N_COORD97":2546419.23,"ADDRESS":"文賢路１１６４號","OBJECTID":538549},"geometry":{"x":167329.67000000086,"y":2546419.2300000004}},{"attributes":{"ID":538577,"DIS_CODE":0,"TOWNNAME":"歸仁區","LI":"大廟里","LIN":"12鄰","STREET":"保大路","SECT":"三段","MAREA":" ","LANE":" ","ALLEY":" ","HOUSE_NO":"１４０號","E_COORD97":176080.67000000001,"N_COORD97":2544138.2799999998,"ADDRESS":"保大路三段１４０號","OBJECTID":538550},"geometry":{"x":176080.66999999993,"y":2544138.2800000012}},{"attributes":{"ID":538578,"DIS_CODE":0,"TOWNNAME":"楠西區","LI":"楠西里","LIN":"12鄰","STREET":"中華路","SECT":" ","MAREA":" ","LANE":" ","ALLEY":" ","HOUSE_NO":"１１３號","E_COORD97":197107.26000000001,"N_COORD97":2564174.25,"ADDRESS":"中華路１１３號","OBJECTID":538551},"geometry":{"x":197107.25999999978,"y":2564174.25}},{"attributes":{"ID":538579,"DIS_CODE":0,"TOWNNAME":"楠西區","LI":"楠西里","LIN":"12鄰","STREET":"中華路","SECT":" ","MAREA":" ","LANE":" ","ALLEY":" ","HOUSE_NO":"１２３號","E_COORD97":197086.56,"N_COORD97":2564156.25,"ADDRESS":"中華路１２３號","OBJECTID":538552},"geometry":{"x":197086.56000000145,"y":2564156.2500000019}},{"attributes":{"ID":538580,"DIS_CODE":0,"TOWNNAME":"新營區","LI":"中營里","LIN":"12鄰","STREET":"東山路","SECT":" ","MAREA":" ","LANE":" ","ALLEY":" ","HOUSE_NO":"２２號","E_COORD97":181001.67000000001,"N_COORD97":2578655.5099999998,"ADDRESS":"東山路２２號","OBJECTID":538553},"geometry":{"x":181001.66999999993,"y":2578655.5099999998}},{"attributes":{"ID":538581,"DIS_CODE":0,"TOWNNAME":"新營區","LI":"新南里","LIN":"12鄰","STREET":"新北七街","SECT":" ","MAREA":" ","LANE":" ","ALLEY":" ","HOUSE_NO":"５４號","E_COORD97":178481.70000000001,"N_COORD97":2579158.0600000001,"ADDRESS":"新北七街５４號","OBJECTID":538554},"geometry":{"x":178481.70000000205,"y":2579158.0600000005}},{"attributes":{"ID":538582,"DIS_CODE":0,"TOWNNAME":"新營區","LI":"大宏里","LIN":"12鄰","STREET":"開元路","SECT":" ","MAREA":" ","LANE":" ","ALLEY":" ","HOUSE_NO":"６１之４號","E_COORD97":180878.79999999999,"N_COORD97":2578763.5600000001,"ADDRESS":"開元路６１之４號","OBJECTID":538555},"geometry":{"x":180878.79999999981,"y":2578763.5600000024}},{"attributes":{"ID":538583,"DIS_CODE":0,"TOWNNAME":"新營區","LI":"延平里","LIN":"12鄰","STREET":"忠義街","SECT":" ","MAREA":" ","LANE":" ","ALLEY":" ","HOUSE_NO":"４號","E_COORD97":179623.974999,"N_COORD97":2577989.2256399998,"ADDRESS":"忠義街４號","OBJECTID":538556},"geometry":{"x":179623.97499900125,"y":2577989.2256429996}},{"attributes":{"ID":538584,"DIS_CODE":0,"TOWNNAME":"北區","LI":"五福里","LIN":"12鄰","STREET":"自強街","SECT":" ","MAREA":" ","LANE":" ","ALLEY":" ","HOUSE_NO":"１６號","E_COORD97":168252.47,"N_COORD97":2544475.1699999999,"ADDRESS":"自強街１６號","OBJECTID":538557},"geometry":{"x":168252.47000000067,"y":2544475.1700000018}},{"attributes":{"ID":538585,"DIS_CODE":0,"TOWNNAME":"北區","LI":"五福里","LIN":"12鄰","STREET":"自強街","SECT":" ","MAREA":" ","LANE":" ","ALLEY":" ","HOUSE_NO":"３２號","E_COORD97":168246.20000000001,"N_COORD97":2544512.9199999999,"ADDRESS":"自強街３２號","OBJECTID":538558},"geometry":{"x":168246.20000000112,"y":2544512.9200000037}},{"attributes":{"ID":538586,"DIS_CODE":0,"TOWNNAME":"北區","LI":"三德里","LIN":"12鄰","STREET":"裕民街","SECT":" ","MAREA":" ","LANE":" ","ALLEY":" ","HOUSE_NO":"３９號","E_COORD97":168461.35000000001,"N_COORD97":2544463.5899999999,"ADDRESS":"裕民街３９號","OBJECTID":538559},"geometry":{"x":168461.3499999987,"y":2544463.5899999999}},{"attributes":{"ID":538587,"DIS_CODE":0,"TOWNNAME":"北區","LI":"三德里","LIN":"12鄰","STREET":"裕民街","SECT":" ","MAREA":" ","LANE":" ","ALLEY":" ","HOUSE_NO":"４１號","E_COORD97":168463.07999999999,"N_COORD97":2544465.79,"ADDRESS":"裕民街４１號","OBJECTID":538560},"geometry":{"x":168463.08000000007,"y":2544465.790000001}},{"attributes":{"ID":538588,"DIS_CODE":0,"TOWNNAME":"北區","LI":"三德里","LIN":"12鄰","STREET":"裕民街","SECT":" ","MAREA":" ","LANE":" ","ALLEY":" ","HOUSE_NO":"４３號","E_COORD97":168464.64999999999,"N_COORD97":2544468.29,"ADDRESS":"裕民街４３號","OBJECTID":538561},"geometry":{"x":168464.65000000037,"y":2544468.2899999991}},{"attributes":{"ID":538589,"DIS_CODE":0,"TOWNNAME":"北區","LI":"振興里","LIN":"12鄰","STREET":"長榮路","SECT":"四段","MAREA":" ","LANE":" ","ALLEY":" ","HOUSE_NO":"１０９號","E_COORD97":170264.45000000001,"N_COORD97":2545091.8100000001,"ADDRESS":"長榮路四段１０９號","OBJECTID":538562},"geometry":{"x":170264.45000000019,"y":2545091.8100000024}},{"attributes":{"ID":538590,"DIS_CODE":0,"TOWNNAME":"新營區","LI":"王公里","LIN":"12鄰","STREET":"義和街","SECT":" ","MAREA":" ","LANE":" ","ALLEY":" ","HOUSE_NO":"３號","E_COORD97":180455.92999999999,"N_COORD97":2579015.75,"ADDRESS":"義和街３號","OBJECTID":538563},"geometry":{"x":180455.9299999997,"y":2579015.7500000019}},{"attributes":{"ID":538591,"DIS_CODE":0,"TOWNNAME":"新營區","LI":"三仙里","LIN":"12鄰","STREET":"武昌街","SECT":" ","MAREA":" ","LANE":" ","ALLEY":" ","HOUSE_NO":"４７之１號","E_COORD97":179662.63,"N_COORD97":2578314.1299999999,"ADDRESS":"武昌街４７之１號","OBJECTID":538564},"geometry":{"x":179662.62999999989,"y":2578314.1300000008}},{"attributes":{"ID":538592,"DIS_CODE":0,"TOWNNAME":"新營區","LI":"民榮里","LIN":"12鄰","STREET":"興農街","SECT":" ","MAREA":" ","LANE":" ","ALLEY":" ","HOUSE_NO":"４０之７號","E_COORD97":179221.89999999999,"N_COORD97":2577914.2200000002,"ADDRESS":"興農街４０之７號","OBJECTID":538565},"geometry":{"x":179221.9000000013,"y":2577914.2200000025}},{"attributes":{"ID":538593,"DIS_CODE":0,"TOWNNAME":"新營區","LI":"民榮里","LIN":"12鄰","STREET":"興農街","SECT":" ","MAREA":" ","LANE":" ","ALLEY":" ","HOUSE_NO":"８４號","E_COORD97":179254.62,"N_COORD97":2577794.3999999999,"ADDRESS":"興農街８４號","OBJECTID":538566},"geometry":{"x":179254.62000000011,"y":2577794.4000000022}},{"attributes":{"ID":538594,"DIS_CODE":0,"TOWNNAME":"新營區","LI":"新北里","LIN":"12鄰","STREET":"南新街","SECT":" ","MAREA":" ","LANE":" ","ALLEY":" ","HOUSE_NO":"１６號","E_COORD97":179360.75,"N_COORD97":2578828.25,"ADDRESS":"南新街１６號","OBJECTID":538567},"geometry":{"x":179360.74999999907,"y":2578828.2500000037}},{"attributes":{"ID":538595,"DIS_CODE":0,"TOWNNAME":"安平區","LI":"華平里","LIN":"12鄰","STREET":"永華路","SECT":"二段","MAREA":" ","LANE":" ","ALLEY":" ","HOUSE_NO":"５３２號","E_COORD97":165308.78,"N_COORD97":2543520.1200000001,"ADDRESS":"永華路二段５３２號","OBJECTID":538568},"geometry":{"x":165308.78000000026,"y":2543520.1200000029}},{"attributes":{"ID":538596,"DIS_CODE":0,"TOWNNAME":"安平區","LI":"華平里","LIN":"12鄰","STREET":"永華路","SECT":"二段","MAREA":" ","LANE":" ","ALLEY":" ","HOUSE_NO":"５１２號","E_COORD97":165357.48000000001,"N_COORD97":2543532.1899999999,"ADDRESS":"永華路二段５１２號","OBJECTID":538569},"geometry":{"x":165357.48000000231,"y":2543532.1900000013}},{"attributes":{"ID":538597,"DIS_CODE":0,"TOWNNAME":"安平區","LI":"華平里","LIN":"12鄰","STREET":"永華路","SECT":"二段","MAREA":" ","LANE":" ","ALLEY":" ","HOUSE_NO":"５１４號","E_COORD97":165351.10000000001,"N_COORD97":2543532.9700000002,"ADDRESS":"永華路二段５１４號","OBJECTID":538570},"geometry":{"x":165351.10000000056,"y":2543532.9700000007}},{"attributes":{"ID":538598,"DIS_CODE":0,"TOWNNAME":"安平區","LI":"華平里","LIN":"12鄰","STREET":"建平八街","SECT":" ","MAREA":" ","LANE":" ","ALLEY":" ","HOUSE_NO":"３６６號","E_COORD97":165386.95000000001,"N_COORD97":2543571.0800000001,"ADDRESS":"建平八街３６６號","OBJECTID":538571},"geometry":{"x":165386.95000000112,"y":2543571.0800000019}},{"attributes":{"ID":538599,"DIS_CODE":0,"TOWNNAME":"新營區","LI":"新東里","LIN":"12鄰","STREET":"東大街","SECT":" ","MAREA":" ","LANE":" ","ALLEY":" ","HOUSE_NO":"５６號","E_COORD97":181016.23000000001,"N_COORD97":2579157.1099999999,"ADDRESS":"東大街５６號","OBJECTID":538572},"geometry":{"x":181016.23000000138,"y":2579157.1099999975}},{"attributes":{"ID":538600,"DIS_CODE":0,"TOWNNAME":"新營區","LI":"民生里","LIN":"12鄰","STREET":"復興路","SECT":" ","MAREA":" ","LANE":" ","ALLEY":" ","HOUSE_NO":"２０６號","E_COORD97":179034.07000000001,"N_COORD97":2578042.4199999999,"ADDRESS":"復興路２０６號","OBJECTID":538573},"geometry":{"x":179034.07000000123,"y":2578042.4199999999}},{"attributes":{"ID":538601,"DIS_CODE":0,"TOWNNAME":"南區","LI":"郡南里","LIN":"12鄰","STREET":"永吉街","SECT":" ","MAREA":" ","LANE":" ","ALLEY":" ","HOUSE_NO":"５４號","E_COORD97":167322.42999999999,"N_COORD97":2540687.6200000001,"ADDRESS":"永吉街５４號","OBJECTID":538574},"geometry":{"x":167322.43000000063,"y":2540687.620000001}},{"attributes":{"ID":538602,"DIS_CODE":0,"TOWNNAME":"南區","LI":"佛壇里","LIN":"12鄰","STREET":"興南街","SECT":" ","MAREA":" ","LANE":" ","ALLEY":" ","HOUSE_NO":"８５號","E_COORD97":166172.92999999999,"N_COORD97":2535889.8799999999,"ADDRESS":"興南街８５號","OBJECTID":538575},"geometry":{"x":166172.93000000063,"y":2535889.879999999}},{"attributes":{"ID":538603,"DIS_CODE":0,"TOWNNAME":"南區","LI":"佛壇里","LIN":"12鄰","STREET":"興南街","SECT":" ","MAREA":" ","LANE":" ","ALLEY":" ","HOUSE_NO":"９３號","E_COORD97":166171.44,"N_COORD97":2535879.23,"ADDRESS":"興南街９３號","OBJECTID":538576},"geometry":{"x":166171.44000000227,"y":2535879.2299999986}},{"attributes":{"ID":538604,"DIS_CODE":0,"TOWNNAME":"歸仁區","LI":"六甲里","LIN":"12鄰","STREET":"六甲路","SECT":" ","MAREA":" ","LANE":" ","ALLEY":" ","HOUSE_NO":"２３３號","E_COORD97":175936.85999999999,"N_COORD97":2539184.25,"ADDRESS":"六甲路２３３號","OBJECTID":538577},"geometry":{"x":175936.86000000127,"y":2539184.2499999981}},{"attributes":{"ID":538605,"DIS_CODE":0,"TOWNNAME":"歸仁區","LI":"六甲里","LIN":"12鄰","STREET":"中正南路","SECT":"一段","MAREA":" ","LANE":" ","ALLEY":" ","HOUSE_NO":"２２５０號","E_COORD97":175836.66,"N_COORD97":2538042.2799999998,"ADDRESS":"中正南路一段２２５０號","OBJECTID":538578},"geometry":{"x":175836.66000000015,"y":2538042.2800000012}},{"attributes":{"ID":538606,"DIS_CODE":0,"TOWNNAME":"歸仁區","LI":"六甲里","LIN":"12鄰","STREET":"中正南路","SECT":"一段","MAREA":" ","LANE":" ","ALLEY":" ","HOUSE_NO":"２５００號","E_COORD97":175813.95999999999,"N_COORD97":2537378.2799999998,"ADDRESS":"中正南路一段２５００號","OBJECTID":538579},"geometry":{"x":175813.95999999996,"y":2537378.2799999993}},{"attributes":{"ID":538607,"DIS_CODE":0,"TOWNNAME":"歸仁區","LI":"文化里","LIN":"12鄰","STREET":"文化北一街","SECT":" ","MAREA":" ","LANE":" ","ALLEY":" ","HOUSE_NO":"４１號","E_COORD97":177331.51000000001,"N_COORD97":2541448.3399999999,"ADDRESS":"文化北一街４１號","OBJECTID":538580},"geometry":{"x":177331.51000000164,"y":2541448.339999998}},{"attributes":{"ID":538608,"DIS_CODE":0,"TOWNNAME":"歸仁區","LI":"六甲里","LIN":"12鄰","STREET":"六甲路","SECT":" ","MAREA":" ","LANE":" ","ALLEY":" ","HOUSE_NO":"２３９號","E_COORD97":175951.37,"N_COORD97":2539201.25,"ADDRESS":"六甲路２３９號","OBJECTID":538581},"geometry":{"x":175951.37000000104,"y":2539201.2499999981}},{"attributes":{"ID":538609,"DIS_CODE":0,"TOWNNAME":"歸仁區","LI":"南興里","LIN":"12鄰","STREET":"南興街","SECT":" ","MAREA":" ","LANE":" ","ALLEY":" ","HOUSE_NO":"１２１號","E_COORD97":175867.48999999999,"N_COORD97":2541338.25,"ADDRESS":"南興街１２１號","OBJECTID":538582},"geometry":{"x":175867.49000000209,"y":2541338.2500000019}},{"attributes":{"ID":538610,"DIS_CODE":0,"TOWNNAME":"歸仁區","LI":"南興里","LIN":"12鄰","STREET":"南興街","SECT":" ","MAREA":" ","LANE":" ","ALLEY":" ","HOUSE_NO":"９１號","E_COORD97":175880.73999999999,"N_COORD97":2541377.25,"ADDRESS":"南興街９１號","OBJECTID":538583},"geometry":{"x":175880.74000000022,"y":2541377.25}},{"attributes":{"ID":538611,"DIS_CODE":0,"TOWNNAME":"歸仁區","LI":"南興里","LIN":"12鄰","STREET":"文化十八街","SECT":" ","MAREA":" ","LANE":" ","ALLEY":" ","HOUSE_NO":"５１號","E_COORD97":175864.59,"N_COORD97":2541319.3300000001,"ADDRESS":"文化十八街５１號","OBJECTID":538584},"geometry":{"x":175864.59000000171,"y":2541319.3300000001}},{"attributes":{"ID":538612,"DIS_CODE":0,"TOWNNAME":"麻豆區","LI":"\u25A0江里","LIN":"12鄰","STREET":"民生路","SECT":" ","MAREA":" ","LANE":" ","ALLEY":" ","HOUSE_NO":"８２號","E_COORD97":173729.23999999999,"N_COORD97":2564368.5699999998,"ADDRESS":"民生路８２號","OBJECTID":538585},"geometry":{"x":173729.24000000022,"y":2564368.5700000003}},{"attributes":{"ID":538613,"DIS_CODE":0,"TOWNNAME":"六甲區","LI":"甲東里","LIN":"12鄰","STREET":"裕農街","SECT":" ","MAREA":" ","LANE":" ","ALLEY":" ","HOUSE_NO":"２８０號","E_COORD97":184142.57999999999,"N_COORD97":2570015.5099999998,"ADDRESS":"裕農街２８０號","OBJECTID":538586},"geometry":{"x":184142.58000000194,"y":2570015.5100000016}},{"attributes":{"ID":538614,"DIS_CODE":0,"TOWNNAME":"六甲區","LI":"甲東里","LIN":"12鄰","STREET":"裕農街","SECT":" ","MAREA":" ","LANE":" ","ALLEY":" ","HOUSE_NO":"２８２號","E_COORD97":184137.59,"N_COORD97":2570015.2999999998,"ADDRESS":"裕農街２８２號","OBJECTID":538587},"geometry":{"x":184137.59000000078,"y":2570015.3000000026}},{"attributes":{"ID":538615,"DIS_CODE":0,"TOWNNAME":"安平區","LI":"平通里","LIN":"12鄰","STREET":"育平九街","SECT":" ","MAREA":" ","LANE":" ","ALLEY":" ","HOUSE_NO":"２２１號","E_COORD97":164945.92999999999,"N_COORD97":2543999.73,"ADDRESS":"育平九街２２１號","OBJECTID":538588},"geometry":{"x":164945.93000000063,"y":2543999.7300000023}},{"attributes":{"ID":538616,"DIS_CODE":0,"TOWNNAME":"安平區","LI":"平通里","LIN":"12鄰","STREET":"育平九街","SECT":" ","MAREA":" ","LANE":" ","ALLEY":" ","HOUSE_NO":"２２３號","E_COORD97":164941.82000000001,"N_COORD97":2544000.29,"ADDRESS":"育平九街２２３號","OBJECTID":538589},"geometry":{"x":164941.82000000123,"y":2544000.2899999991}},{"attributes":{"ID":538617,"DIS_CODE":0,"TOWNNAME":"安平區","LI":"平通里","LIN":"12鄰","STREET":"育平九街","SECT":" ","MAREA":" ","LANE":" ","ALLEY":" ","HOUSE_NO":"２２５號","E_COORD97":164937.63,"N_COORD97":2544001.1000000001,"ADDRESS":"育平九街２２５號","OBJECTID":538590},"geometry":{"x":164937.63000000082,"y":2544001.1000000015}},{"attributes":{"ID":538618,"DIS_CODE":0,"TOWNNAME":"安平區","LI":"平通里","LIN":"12鄰","STREET":"育平九街","SECT":" ","MAREA":" ","LANE":" ","ALLEY":" ","HOUSE_NO":"２２７號","E_COORD97":164933.51999999999,"N_COORD97":2544001.5800000001,"ADDRESS":"育平九街２２７號","OBJECTID":538591},"geometry":{"x":164933.51999999955,"y":2544001.5800000019}},{"attributes":{"ID":538619,"DIS_CODE":0,"TOWNNAME":"安平區","LI":"平通里","LIN":"12鄰","STREET":"育平九街","SECT":" ","MAREA":" ","LANE":" ","ALLEY":" ","HOUSE_NO":"２２９號","E_COORD97":164929.73000000001,"N_COORD97":2544002.1400000001,"ADDRESS":"育平九街２２９號","OBJECTID":538592},"geometry":{"x":164929.73000000045,"y":2544002.1400000006}},{"attributes":{"ID":538620,"DIS_CODE":0,"TOWNNAME":"安平區","LI":"平通里","LIN":"12鄰","STREET":"育平九街","SECT":" ","MAREA":" ","LANE":" ","ALLEY":" ","HOUSE_NO":"２３１號","E_COORD97":164925.82000000001,"N_COORD97":2544002.5499999998,"ADDRESS":"育平九街２３１號","OBJECTID":538593},"geometry":{"x":164925.8200000003,"y":2544002.5500000026}},{"attributes":{"ID":538621,"DIS_CODE":0,"TOWNNAME":"安平區","LI":"平通里","LIN":"12鄰","STREET":"育平九街","SECT":" ","MAREA":" ","LANE":" ","ALLEY":" ","HOUSE_NO":"２３３號","E_COORD97":164921.95000000001,"N_COORD97":2544002.9500000002,"ADDRESS":"育平九街２３３號","OBJECTID":538594},"geometry":{"x":164921.95000000112,"y":2544002.9499999993}},{"attributes":{"ID":538622,"DIS_CODE":0,"TOWNNAME":"安平區","LI":"平通里","LIN":"12鄰","STREET":"育平九街","SECT":" ","MAREA":" ","LANE":" ","ALLEY":" ","HOUSE_NO":"２３５號","E_COORD97":164917.84,"N_COORD97":2544003.1899999999,"ADDRESS":"育平九街２３５號","OBJECTID":538595},"geometry":{"x":164917.84000000078,"y":2544003.1900000013}},{"attributes":{"ID":538623,"DIS_CODE":0,"TOWNNAME":"安平區","LI":"平通里","LIN":"12鄰","STREET":"育平九街","SECT":" ","MAREA":" ","LANE":" ","ALLEY":" ","HOUSE_NO":"２３７號","E_COORD97":164914.04999999999,"N_COORD97":2544003.8399999999,"ADDRESS":"育平九街２３７號","OBJECTID":538596},"geometry":{"x":164914.05000000168,"y":2544003.8399999999}},{"attributes":{"ID":538624,"DIS_CODE":0,"TOWNNAME":"安平區","LI":"平通里","LIN":"12鄰","STREET":"育平九街","SECT":" ","MAREA":" ","LANE":" ","ALLEY":" ","HOUSE_NO":"２３９號","E_COORD97":164910.17999999999,"N_COORD97":2544004.3199999998,"ADDRESS":"育平九街２３９號","OBJECTID":538597},"geometry":{"x":164910.18000000063,"y":2544004.3200000003}},{"attributes":{"ID":538625,"DIS_CODE":0,"TOWNNAME":"安平區","LI":"平通里","LIN":"12鄰","STREET":"育平九街","SECT":" ","MAREA":" ","LANE":" ","ALLEY":" ","HOUSE_NO":"２４１號","E_COORD97":164906.31,"N_COORD97":2544004.7200000002,"ADDRESS":"育平九街２４１號","OBJECTID":538598},"geometry":{"x":164906.30999999959,"y":2544004.7200000025}},{"attributes":{"ID":538626,"DIS_CODE":0,"TOWNNAME":"安平區","LI":"平通里","LIN":"12鄰","STREET":"育平九街","SECT":" ","MAREA":" ","LANE":" ","ALLEY":" ","HOUSE_NO":"２４３號","E_COORD97":164902.35999999999,"N_COORD97":2544005.2799999998,"ADDRESS":"育平九街２４３號","OBJECTID":538599},"geometry":{"x":164902.36000000127,"y":2544005.2800000012}},{"attributes":{"ID":538627,"DIS_CODE":0,"TOWNNAME":"新營區","LI":"民榮里","LIN":"12鄰","STREET":"新進路","SECT":"二段","MAREA":" ","LANE":" ","ALLEY":" ","HOUSE_NO":"１６６號","E_COORD97":179268.87,"N_COORD97":2577745.6000000001,"ADDRESS":"新進路二段１６６號","OBJECTID":538600},"geometry":{"x":179268.87000000104,"y":2577745.5999999996}}]}