{"displayFieldName":"TOWNNAME","fieldAliases":{"ID":"ID","DIS_CODE":"DIS_CODE","TOWNNAME":"TOWNNAME","LI":"LI","LIN":"LIN","STREET":"STREET","SECT":"SECT","MAREA":"MAREA","LANE":"LANE","ALLEY":"ALLEY","HOUSE_NO":"HOUSE_NO","E_COORD97":"E_COORD97","N_COORD97":"N_COORD97","ADDRESS":"ADDRESS","OBJECTID":"OBJECTID"},"geometryType":"esriGeometryPoint","spatialReference":{"wkid":102443,"latestWkid":3826},"fields":[{"name":"ID","type":"esriFieldTypeDouble","alias":"ID"},{"name":"DIS_CODE","type":"esriFieldTypeInteger","alias":"DIS_CODE"},{"name":"TOWNNAME","type":"esriFieldTypeString","alias":"TOWNNAME","length":8},{"name":"LI","type":"esriFieldTypeString","alias":"LI","length":8},{"name":"LIN","type":"esriFieldTypeString","alias":"LIN","length":12},{"name":"STREET","type":"esriFieldTypeString","alias":"STREET","length":20},{"name":"SECT","type":"esriFieldTypeString","alias":"SECT","length":8},{"name":"MAREA","type":"esriFieldTypeString","alias":"MAREA","length":12},{"name":"LANE","type":"esriFieldTypeString","alias":"LANE","length":10},{"name":"ALLEY","type":"esriFieldTypeString","alias":"ALLEY","length":10},{"name":"HOUSE_NO","type":"esriFieldTypeString","alias":"HOUSE_NO","length":20},{"name":"E_COORD97","type":"esriFieldTypeDouble","alias":"E_COORD97"},{"name":"N_COORD97","type":"esriFieldTypeDouble","alias":"N_COORD97"},{"name":"ADDRESS","type":"esriFieldTypeString","alias":"ADDRESS","length":50},{"name":"OBJECTID","type":"esriFieldTypeOID","alias":"OBJECTID"}],"features":[{"attributes":{"ID":545828,"DIS_CODE":0,"TOWNNAME":"西港區","LI":"慶安里","LIN":"26鄰","STREET":"新興街","SECT":" ","MAREA":" ","LANE":" ","ALLEY":" ","HOUSE_NO":"１４號之３","E_COORD97":168219.48999999999,"N_COORD97":2557824.8399999999,"ADDRESS":"新興街１４號之３","OBJECTID":545801},"geometry":{"x":168219.49000000115,"y":2557824.8400000017}},{"attributes":{"ID":545829,"DIS_CODE":0,"TOWNNAME":"西港區","LI":"慶安里","LIN":"26鄰","STREET":"新興街","SECT":" ","MAREA":" ","LANE":" ","ALLEY":" ","HOUSE_NO":"１４號之４","E_COORD97":168220.48999999999,"N_COORD97":2557818.3300000001,"ADDRESS":"新興街１４號之４","OBJECTID":545802},"geometry":{"x":168220.49000000209,"y":2557818.3300000019}},{"attributes":{"ID":545830,"DIS_CODE":0,"TOWNNAME":"西港區","LI":"慶安里","LIN":"26鄰","STREET":"新興街","SECT":" ","MAREA":" ","LANE":" ","ALLEY":" ","HOUSE_NO":"１４號之５","E_COORD97":168222.03,"N_COORD97":2557811.8999999999,"ADDRESS":"新興街１４號之５","OBJECTID":545803},"geometry":{"x":168222.03000000119,"y":2557811.9000000022}},{"attributes":{"ID":545831,"DIS_CODE":0,"TOWNNAME":"西港區","LI":"慶安里","LIN":"26鄰","STREET":"新興街","SECT":" ","MAREA":" ","LANE":" ","ALLEY":" ","HOUSE_NO":"１４號之６","E_COORD97":168223.14000000001,"N_COORD97":2557808.3799999999,"ADDRESS":"新興街１４號之６","OBJECTID":545804},"geometry":{"x":168223.13999999966,"y":2557808.379999999}},{"attributes":{"ID":545832,"DIS_CODE":0,"TOWNNAME":"西港區","LI":"慶安里","LIN":"26鄰","STREET":"新興街","SECT":" ","MAREA":" ","LANE":" ","ALLEY":" ","HOUSE_NO":"１４號之７","E_COORD97":168223.98999999999,"N_COORD97":2557804.4199999999,"ADDRESS":"新興街１４號之７","OBJECTID":545805},"geometry":{"x":168223.99000000115,"y":2557804.4200000018}},{"attributes":{"ID":545833,"DIS_CODE":0,"TOWNNAME":"西港區","LI":"慶安里","LIN":"26鄰","STREET":"新興街","SECT":" ","MAREA":" ","LANE":" ","ALLEY":" ","HOUSE_NO":"１４號之８","E_COORD97":168224.72,"N_COORD97":2557800,"ADDRESS":"新興街１４號之８","OBJECTID":545806},"geometry":{"x":168224.71999999974,"y":2557800.0000000019}},{"attributes":{"ID":545834,"DIS_CODE":0,"TOWNNAME":"西港區","LI":"慶安里","LIN":"26鄰","STREET":"新興街","SECT":" ","MAREA":" ","LANE":" ","ALLEY":" ","HOUSE_NO":"１４號之９","E_COORD97":168225.70000000001,"N_COORD97":2557796.0499999998,"ADDRESS":"新興街１４號之９","OBJECTID":545807},"geometry":{"x":168225.70000000205,"y":2557796.0500000007}},{"attributes":{"ID":545835,"DIS_CODE":0,"TOWNNAME":"西港區","LI":"慶安里","LIN":"8鄰","STREET":"新興街","SECT":" ","MAREA":" ","LANE":" ","ALLEY":" ","HOUSE_NO":"１４７號","E_COORD97":168199.70999999999,"N_COORD97":2558318.3799999999,"ADDRESS":"新興街１４７號","OBJECTID":545808},"geometry":{"x":168199.70999999996,"y":2558318.3800000008}},{"attributes":{"ID":545836,"DIS_CODE":0,"TOWNNAME":"西港區","LI":"慶安里","LIN":"8鄰","STREET":"新興街","SECT":" ","MAREA":" ","LANE":" ","ALLEY":" ","HOUSE_NO":"１４９號","E_COORD97":168199.76000000001,"N_COORD97":2558323.1299999999,"ADDRESS":"新興街１４９號","OBJECTID":545809},"geometry":{"x":168199.76000000071,"y":2558323.1300000027}},{"attributes":{"ID":545837,"DIS_CODE":0,"TOWNNAME":"西港區","LI":"慶安里","LIN":"8鄰","STREET":"新興街","SECT":" ","MAREA":" ","LANE":" ","ALLEY":" ","HOUSE_NO":"１５１號","E_COORD97":168199.92000000001,"N_COORD97":2558328.1099999999,"ADDRESS":"新興街１５１號","OBJECTID":545810},"geometry":{"x":168199.91999999993,"y":2558328.1100000013}},{"attributes":{"ID":545838,"DIS_CODE":0,"TOWNNAME":"西港區","LI":"慶安里","LIN":"8鄰","STREET":"新興街","SECT":" ","MAREA":" ","LANE":" ","ALLEY":" ","HOUSE_NO":"１５３號","E_COORD97":168199.60000000001,"N_COORD97":2558333.04,"ADDRESS":"新興街１５３號","OBJECTID":545811},"geometry":{"x":168199.59999999963,"y":2558333.0399999991}},{"attributes":{"ID":545839,"DIS_CODE":0,"TOWNNAME":"中西區","LI":"天后里","LIN":"10鄰","STREET":"民族路","SECT":"二段","MAREA":" ","LANE":" ","ALLEY":" ","HOUSE_NO":"３９３號","E_COORD97":168116.22,"N_COORD97":2544186.5499999998,"ADDRESS":"民族路二段３９３號","OBJECTID":545812},"geometry":{"x":168116.21999999974,"y":2544186.5500000007}},{"attributes":{"ID":545840,"DIS_CODE":0,"TOWNNAME":"中西區","LI":"天后里","LIN":"10鄰","STREET":"民族路","SECT":"二段","MAREA":" ","LANE":" ","ALLEY":" ","HOUSE_NO":"３９５號","E_COORD97":168112.54000000001,"N_COORD97":2544187.8500000001,"ADDRESS":"民族路二段３９５號","OBJECTID":545813},"geometry":{"x":168112.54000000004,"y":2544187.8500000034}},{"attributes":{"ID":545841,"DIS_CODE":0,"TOWNNAME":"中西區","LI":"天后里","LIN":"10鄰","STREET":"民族路","SECT":"二段","MAREA":" ","LANE":" ","ALLEY":" ","HOUSE_NO":"３９７號","E_COORD97":168108.64999999999,"N_COORD97":2544189.1400000001,"ADDRESS":"民族路二段３９７號","OBJECTID":545814},"geometry":{"x":168108.65000000037,"y":2544189.1400000006}},{"attributes":{"ID":545842,"DIS_CODE":0,"TOWNNAME":"中西區","LI":"天后里","LIN":"10鄰","STREET":"民族路","SECT":"二段","MAREA":" ","LANE":" ","ALLEY":" ","HOUSE_NO":"３９９號","E_COORD97":168105.41,"N_COORD97":2544188.71,"ADDRESS":"民族路二段３９９號","OBJECTID":545815},"geometry":{"x":168105.41000000015,"y":2544188.7100000009}},{"attributes":{"ID":545843,"DIS_CODE":0,"TOWNNAME":"中西區","LI":"天后里","LIN":"10鄰","STREET":"民族路","SECT":"二段","MAREA":" ","LANE":" ","ALLEY":" ","HOUSE_NO":"４０１號","E_COORD97":168097.42000000001,"N_COORD97":2544191.2999999998,"ADDRESS":"民族路二段４０１號","OBJECTID":545816},"geometry":{"x":168097.42000000086,"y":2544191.3000000007}},{"attributes":{"ID":545844,"DIS_CODE":0,"TOWNNAME":"中西區","LI":"天后里","LIN":"10鄰","STREET":"民族路","SECT":"二段","MAREA":" ","LANE":" ","ALLEY":" ","HOUSE_NO":"４０３號","E_COORD97":168094.17999999999,"N_COORD97":2544191.73,"ADDRESS":"民族路二段４０３號","OBJECTID":545817},"geometry":{"x":168094.1799999997,"y":2544191.7300000004}},{"attributes":{"ID":545845,"DIS_CODE":0,"TOWNNAME":"中西區","LI":"天后里","LIN":"10鄰","STREET":"新美街","SECT":" ","MAREA":" ","LANE":" ","ALLEY":" ","HOUSE_NO":"１４０號","E_COORD97":168089.04999999999,"N_COORD97":2544151.27,"ADDRESS":"新美街１４０號","OBJECTID":545818},"geometry":{"x":168089.05000000168,"y":2544151.2700000014}},{"attributes":{"ID":545846,"DIS_CODE":0,"TOWNNAME":"中西區","LI":"天后里","LIN":"10鄰","STREET":"新美街","SECT":" ","MAREA":" ","LANE":" ","ALLEY":" ","HOUSE_NO":"１４２號","E_COORD97":168091.78,"N_COORD97":2544155.7599999998,"ADDRESS":"新美街１４２號","OBJECTID":545819},"geometry":{"x":168091.78000000119,"y":2544155.7600000016}},{"attributes":{"ID":545847,"DIS_CODE":0,"TOWNNAME":"中西區","LI":"天后里","LIN":"10鄰","STREET":"新美街","SECT":" ","MAREA":" ","LANE":" ","ALLEY":" ","HOUSE_NO":"１４４號","E_COORD97":168092.38,"N_COORD97":2544156.9100000001,"ADDRESS":"新美街１４４號","OBJECTID":545820},"geometry":{"x":168092.38000000082,"y":2544156.9100000001}},{"attributes":{"ID":545848,"DIS_CODE":0,"TOWNNAME":"中西區","LI":"天后里","LIN":"10鄰","STREET":"新美街","SECT":" ","MAREA":" ","LANE":" ","ALLEY":" ","HOUSE_NO":"１４６號","E_COORD97":168086.04999999999,"N_COORD97":2544166.2400000002,"ADDRESS":"新美街１４６號","OBJECTID":545821},"geometry":{"x":168086.05000000075,"y":2544166.2400000021}},{"attributes":{"ID":545849,"DIS_CODE":0,"TOWNNAME":"中西區","LI":"天后里","LIN":"10鄰","STREET":"新美街","SECT":" ","MAREA":" ","LANE":" ","ALLEY":" ","HOUSE_NO":"１４８號","E_COORD97":168088.5,"N_COORD97":2544169.1800000002,"ADDRESS":"新美街１４８號","OBJECTID":545822},"geometry":{"x":168088.50000000093,"y":2544169.1800000016}},{"attributes":{"ID":545850,"DIS_CODE":0,"TOWNNAME":"中西區","LI":"天后里","LIN":"10鄰","STREET":"新美街","SECT":" ","MAREA":" ","LANE":" ","ALLEY":" ","HOUSE_NO":"１５０號","E_COORD97":168089.48000000001,"N_COORD97":2544172.6099999999,"ADDRESS":"新美街１５０號","OBJECTID":545823},"geometry":{"x":168089.48000000045,"y":2544172.6100000013}},{"attributes":{"ID":545851,"DIS_CODE":0,"TOWNNAME":"中西區","LI":"天后里","LIN":"10鄰","STREET":"新美街","SECT":" ","MAREA":" ","LANE":" ","ALLEY":" ","HOUSE_NO":"１５２號","E_COORD97":168090.45999999999,"N_COORD97":2544175.54,"ADDRESS":"新美街１５２號","OBJECTID":545824},"geometry":{"x":168090.46000000089,"y":2544175.5400000028}},{"attributes":{"ID":545852,"DIS_CODE":0,"TOWNNAME":"中西區","LI":"天后里","LIN":"10鄰","STREET":"新美街","SECT":" ","MAREA":" ","LANE":" ","ALLEY":" ","HOUSE_NO":"１５４號","E_COORD97":168094.38,"N_COORD97":2544178.48,"ADDRESS":"新美街１５４號","OBJECTID":545825},"geometry":{"x":168094.38000000082,"y":2544178.4800000023}},{"attributes":{"ID":545853,"DIS_CODE":0,"TOWNNAME":"中西區","LI":"天后里","LIN":"10鄰","STREET":"新美街","SECT":" ","MAREA":" ","LANE":" ","ALLEY":" ","HOUSE_NO":"１５６號","E_COORD97":168094.87,"N_COORD97":2544182.0699999998,"ADDRESS":"新美街１５６號","OBJECTID":545826},"geometry":{"x":168094.87000000011,"y":2544182.0700000003}},{"attributes":{"ID":545854,"DIS_CODE":0,"TOWNNAME":"中西區","LI":"天后里","LIN":"10鄰","STREET":"新美街","SECT":" ","MAREA":" ","LANE":" ","ALLEY":" ","HOUSE_NO":"１５８號","E_COORD97":168093.57000000001,"N_COORD97":2544187.46,"ADDRESS":"新美街１５８號","OBJECTID":545827},"geometry":{"x":168093.57000000123,"y":2544187.4600000009}},{"attributes":{"ID":545855,"DIS_CODE":0,"TOWNNAME":"安南區","LI":"安慶里","LIN":"10鄰","STREET":"長溪路","SECT":"一段","MAREA":" ","LANE":" ","ALLEY":" ","HOUSE_NO":"３１２號","E_COORD97":168769.07999999999,"N_COORD97":2548808.4300000002,"ADDRESS":"長溪路一段３１２號","OBJECTID":545828},"geometry":{"x":168769.08000000101,"y":2548808.4300000034}},{"attributes":{"ID":545856,"DIS_CODE":0,"TOWNNAME":"安南區","LI":"安慶里","LIN":"10鄰","STREET":"長溪路","SECT":"一段","MAREA":" ","LANE":" ","ALLEY":" ","HOUSE_NO":"３３８號","E_COORD97":168725.54999999999,"N_COORD97":2548845.2400000002,"ADDRESS":"長溪路一段３３８號","OBJECTID":545829},"geometry":{"x":168725.55000000075,"y":2548845.2400000021}},{"attributes":{"ID":545857,"DIS_CODE":0,"TOWNNAME":"安南區","LI":"佃西里","LIN":"10鄰","STREET":"海佃路","SECT":"四段","MAREA":" ","LANE":" ","ALLEY":" ","HOUSE_NO":"３８３號","E_COORD97":165565.01000000001,"N_COORD97":2551501.46,"ADDRESS":"海佃路四段３８３號","OBJECTID":545830},"geometry":{"x":165565.00999999885,"y":2551501.4600000046}},{"attributes":{"ID":545858,"DIS_CODE":0,"TOWNNAME":"安南區","LI":"佃西里","LIN":"10鄰","STREET":"海佃路","SECT":"四段","MAREA":" ","LANE":" ","ALLEY":" ","HOUSE_NO":"４１８號","E_COORD97":165521.45999999999,"N_COORD97":2551571.73,"ADDRESS":"海佃路四段４１８號","OBJECTID":545831},"geometry":{"x":165521.45999999903,"y":2551571.7300000023}},{"attributes":{"ID":545859,"DIS_CODE":0,"TOWNNAME":"安南區","LI":"佃東里","LIN":"10鄰","STREET":"公學路","SECT":"四段","MAREA":" ","LANE":" ","ALLEY":" ","HOUSE_NO":"１６０號","E_COORD97":165594.13,"N_COORD97":2551984.04,"ADDRESS":"公學路四段１６０號","OBJECTID":545832},"geometry":{"x":165594.12999999989,"y":2551984.040000001}},{"attributes":{"ID":545860,"DIS_CODE":0,"TOWNNAME":"安南區","LI":"長安里","LIN":"10鄰","STREET":"公學路","SECT":"二段","MAREA":" ","LANE":" ","ALLEY":" ","HOUSE_NO":"１２９號","E_COORD97":167695.78,"N_COORD97":2552250.5899999999,"ADDRESS":"公學路二段１２９號","OBJECTID":545833},"geometry":{"x":167695.78000000026,"y":2552250.5899999999}},{"attributes":{"ID":545861,"DIS_CODE":0,"TOWNNAME":"安南區","LI":"長安里","LIN":"10鄰","STREET":"公學路","SECT":"二段","MAREA":" ","LANE":" ","ALLEY":" ","HOUSE_NO":"１６３號","E_COORD97":167649.48000000001,"N_COORD97":2552202.0899999999,"ADDRESS":"公學路二段１６３號","OBJECTID":545834},"geometry":{"x":167649.48000000231,"y":2552202.0900000017}},{"attributes":{"ID":545862,"DIS_CODE":0,"TOWNNAME":"安南區","LI":"長安里","LIN":"10鄰","STREET":"公學路","SECT":"二段","MAREA":" ","LANE":" ","ALLEY":" ","HOUSE_NO":"１８１號","E_COORD97":167615.42000000001,"N_COORD97":2552177.1800000002,"ADDRESS":"公學路二段１８１號","OBJECTID":545835},"geometry":{"x":167615.42000000179,"y":2552177.1800000016}},{"attributes":{"ID":545863,"DIS_CODE":0,"TOWNNAME":"安南區","LI":"城東里","LIN":"10鄰","STREET":"城北路","SECT":" ","MAREA":" ","LANE":" ","ALLEY":" ","HOUSE_NO":"１３５號","E_COORD97":160979.60000000001,"N_COORD97":2551690.2400000002,"ADDRESS":"城北路１３５號","OBJECTID":545836},"geometry":{"x":160979.60000000056,"y":2551690.2400000002}},{"attributes":{"ID":545864,"DIS_CODE":0,"TOWNNAME":"安南區","LI":"城東里","LIN":"10鄰","STREET":"城北路","SECT":" ","MAREA":" ","LANE":" ","ALLEY":" ","HOUSE_NO":"１０１號","E_COORD97":160998.89999999999,"N_COORD97":2551606.3500000001,"ADDRESS":"城北路１０１號","OBJECTID":545837},"geometry":{"x":160998.90000000037,"y":2551606.3500000015}},{"attributes":{"ID":545865,"DIS_CODE":0,"TOWNNAME":"安南區","LI":"城南里","LIN":"10鄰","STREET":"城西街","SECT":"一段","MAREA":" ","LANE":" ","ALLEY":" ","HOUSE_NO":"２６４號","E_COORD97":160307.26000000001,"N_COORD97":2551189.0499999998,"ADDRESS":"城西街一段２６４號","OBJECTID":545838},"geometry":{"x":160307.26000000071,"y":2551189.0500000026}},{"attributes":{"ID":545866,"DIS_CODE":0,"TOWNNAME":"安南區","LI":"城南里","LIN":"10鄰","STREET":"城西街","SECT":"一段","MAREA":" ","LANE":" ","ALLEY":" ","HOUSE_NO":"２５１號","E_COORD97":160357.26999999999,"N_COORD97":2551174.6099999999,"ADDRESS":"城西街一段２５１號","OBJECTID":545839},"geometry":{"x":160357.27000000142,"y":2551174.6100000013}},{"attributes":{"ID":545867,"DIS_CODE":0,"TOWNNAME":"安南區","LI":"城南里","LIN":"10鄰","STREET":"城西街","SECT":"一段","MAREA":" ","LANE":" ","ALLEY":" ","HOUSE_NO":"２５３號","E_COORD97":160353.79000000001,"N_COORD97":2551170.8799999999,"ADDRESS":"城西街一段２５３號","OBJECTID":545840},"geometry":{"x":160353.79000000004,"y":2551170.8800000027}},{"attributes":{"ID":545868,"DIS_CODE":0,"TOWNNAME":"安南區","LI":"城南里","LIN":"10鄰","STREET":"城西街","SECT":"一段","MAREA":" ","LANE":" ","ALLEY":" ","HOUSE_NO":"２５７號","E_COORD97":160345.09,"N_COORD97":2551167.8999999999,"ADDRESS":"城西街一段２５７號","OBJECTID":545841},"geometry":{"x":160345.08999999892,"y":2551167.9000000004}},{"attributes":{"ID":545869,"DIS_CODE":0,"TOWNNAME":"安南區","LI":"城南里","LIN":"10鄰","STREET":"城西街","SECT":"一段","MAREA":" ","LANE":" ","ALLEY":" ","HOUSE_NO":"２５９號","E_COORD97":160341.10999999999,"N_COORD97":2551164.6800000002,"ADDRESS":"城西街一段２５９號","OBJECTID":545842},"geometry":{"x":160341.11000000127,"y":2551164.6799999997}},{"attributes":{"ID":545870,"DIS_CODE":0,"TOWNNAME":"安南區","LI":"城南里","LIN":"10鄰","STREET":"城西街","SECT":"一段","MAREA":" ","LANE":" ","ALLEY":" ","HOUSE_NO":"２６１號","E_COORD97":160336.39000000001,"N_COORD97":2551162.4399999999,"ADDRESS":"城西街一段２６１號","OBJECTID":545843},"geometry":{"x":160336.3900000006,"y":2551162.4400000013}},{"attributes":{"ID":545871,"DIS_CODE":0,"TOWNNAME":"安南區","LI":"城南里","LIN":"10鄰","STREET":"城西街","SECT":"一段","MAREA":" ","LANE":" ","ALLEY":" ","HOUSE_NO":"２６３號","E_COORD97":160332.91,"N_COORD97":2551158.9700000002,"ADDRESS":"城西街一段２６３號","OBJECTID":545844},"geometry":{"x":160332.91000000015,"y":2551158.9700000025}},{"attributes":{"ID":545872,"DIS_CODE":0,"TOWNNAME":"安南區","LI":"城南里","LIN":"10鄰","STREET":"城西街","SECT":"一段","MAREA":" ","LANE":" ","ALLEY":" ","HOUSE_NO":"２７５號","E_COORD97":160318.98000000001,"N_COORD97":2551143.5800000001,"ADDRESS":"城西街一段２７５號","OBJECTID":545845},"geometry":{"x":160318.98000000045,"y":2551143.5800000038}},{"attributes":{"ID":545873,"DIS_CODE":0,"TOWNNAME":"安南區","LI":"淵東里","LIN":"10鄰","STREET":"仁安路","SECT":" ","MAREA":" ","LANE":" ","ALLEY":" ","HOUSE_NO":"１８號","E_COORD97":165479.09,"N_COORD97":2549999.8599999999,"ADDRESS":"仁安路１８號","OBJECTID":545846},"geometry":{"x":165479.08999999985,"y":2549999.8600000013}},{"attributes":{"ID":545874,"DIS_CODE":0,"TOWNNAME":"安南區","LI":"淵東里","LIN":"10鄰","STREET":"仁安路","SECT":" ","MAREA":" ","LANE":" ","ALLEY":" ","HOUSE_NO":"２０號","E_COORD97":165483.26999999999,"N_COORD97":2550000.8999999999,"ADDRESS":"仁安路２０號","OBJECTID":545847},"geometry":{"x":165483.26999999955,"y":2550000.9000000004}},{"attributes":{"ID":545875,"DIS_CODE":0,"TOWNNAME":"安南區","LI":"安西里","LIN":"10鄰","STREET":"安和路","SECT":"一段","MAREA":" ","LANE":" ","ALLEY":" ","HOUSE_NO":"４２１號","E_COORD97":169345.51999999999,"N_COORD97":2548389.1899999999,"ADDRESS":"安和路一段４２１號","OBJECTID":545848},"geometry":{"x":169345.52000000048,"y":2548389.1900000032}},{"attributes":{"ID":545876,"DIS_CODE":0,"TOWNNAME":"安南區","LI":"安西里","LIN":"10鄰","STREET":"長溪路","SECT":"一段","MAREA":" ","LANE":" ","ALLEY":" ","HOUSE_NO":"１６號","E_COORD97":169263.54000000001,"N_COORD97":2548238.6699999999,"ADDRESS":"長溪路一段１６號","OBJECTID":545849},"geometry":{"x":169263.54000000004,"y":2548238.6700000018}},{"attributes":{"ID":545877,"DIS_CODE":0,"TOWNNAME":"安南區","LI":"原佃里","LIN":"10鄰","STREET":"本原街","SECT":"一段","MAREA":" ","LANE":" ","ALLEY":" ","HOUSE_NO":"４２２號之１","E_COORD97":167491.26000000001,"N_COORD97":2550484.3399999999,"ADDRESS":"本原街一段４２２號之１","OBJECTID":545850},"geometry":{"x":167491.26000000071,"y":2550484.3400000017}},{"attributes":{"ID":545878,"DIS_CODE":0,"TOWNNAME":"安南區","LI":"新順里","LIN":"10鄰","STREET":"政安路","SECT":" ","MAREA":" ","LANE":" ","ALLEY":" ","HOUSE_NO":"８０號","E_COORD97":170005.57999999999,"N_COORD97":2549023.3900000001,"ADDRESS":"政安路８０號","OBJECTID":545851},"geometry":{"x":170005.58000000007,"y":2549023.3900000025}},{"attributes":{"ID":545879,"DIS_CODE":0,"TOWNNAME":"安南區","LI":"溪心里","LIN":"10鄰","STREET":"仁安八街","SECT":" ","MAREA":" ","LANE":" ","ALLEY":" ","HOUSE_NO":"２２號","E_COORD97":166198.45000000001,"N_COORD97":2549831.98,"ADDRESS":"仁安八街２２號","OBJECTID":545852},"geometry":{"x":166198.45000000112,"y":2549831.9800000004}},{"attributes":{"ID":545880,"DIS_CODE":0,"TOWNNAME":"安南區","LI":"溪心里","LIN":"10鄰","STREET":"仁安八街","SECT":" ","MAREA":" ","LANE":" ","ALLEY":" ","HOUSE_NO":"２６號","E_COORD97":166201.89999999999,"N_COORD97":2549836.9300000002,"ADDRESS":"仁安八街２６號","OBJECTID":545853},"geometry":{"x":166201.90000000037,"y":2549836.9300000016}},{"attributes":{"ID":545881,"DIS_CODE":0,"TOWNNAME":"安南區","LI":"溪心里","LIN":"10鄰","STREET":"仁安八街","SECT":" ","MAREA":" ","LANE":" ","ALLEY":" ","HOUSE_NO":"３０號","E_COORD97":166209.73999999999,"N_COORD97":2549848.27,"ADDRESS":"仁安八街３０號","OBJECTID":545854},"geometry":{"x":166209.74000000022,"y":2549848.2700000014}},{"attributes":{"ID":545882,"DIS_CODE":0,"TOWNNAME":"安南區","LI":"溪心里","LIN":"10鄰","STREET":"仁安八街","SECT":" ","MAREA":" ","LANE":" ","ALLEY":" ","HOUSE_NO":"３２號","E_COORD97":166213.84,"N_COORD97":2549854.2599999998,"ADDRESS":"仁安八街３２號","OBJECTID":545855},"geometry":{"x":166213.84000000171,"y":2549854.2600000016}},{"attributes":{"ID":545883,"DIS_CODE":0,"TOWNNAME":"安南區","LI":"安富里","LIN":"10鄰","STREET":"安富街","SECT":" ","MAREA":" ","LANE":" ","ALLEY":" ","HOUSE_NO":"２８３號","E_COORD97":167457.54000000001,"N_COORD97":2547416.5099999998,"ADDRESS":"安富街２８３號","OBJECTID":545856},"geometry":{"x":167457.54000000097,"y":2547416.5099999998}},{"attributes":{"ID":545884,"DIS_CODE":0,"TOWNNAME":"中西區","LI":"文賢里","LIN":"10鄰","STREET":"文和街","SECT":" ","MAREA":" ","LANE":" ","ALLEY":" ","HOUSE_NO":"２０６之１號","E_COORD97":166903.23000000001,"N_COORD97":2544660.0099999998,"ADDRESS":"文和街２０６之１號","OBJECTID":545857},"geometry":{"x":166903.23000000045,"y":2544660.0099999998}},{"attributes":{"ID":545885,"DIS_CODE":0,"TOWNNAME":"中西區","LI":"文賢里","LIN":"10鄰","STREET":"文和街","SECT":" ","MAREA":" ","LANE":" ","ALLEY":" ","HOUSE_NO":"１７６號","E_COORD97":166961,"N_COORD97":2544705.96,"ADDRESS":"文和街１７６號","OBJECTID":545858},"geometry":{"x":166961.00000000093,"y":2544705.9600000009}},{"attributes":{"ID":545886,"DIS_CODE":0,"TOWNNAME":"西港區","LI":"慶安里","LIN":"13鄰","STREET":"新興街","SECT":" ","MAREA":" ","LANE":" ","ALLEY":" ","HOUSE_NO":"６７號","E_COORD97":168162.04999999999,"N_COORD97":2558004.3799999999,"ADDRESS":"新興街６７號","OBJECTID":545859},"geometry":{"x":168162.05000000075,"y":2558004.379999999}},{"attributes":{"ID":545887,"DIS_CODE":0,"TOWNNAME":"中西區","LI":"文賢里","LIN":"10鄰","STREET":"文和街","SECT":" ","MAREA":" ","LANE":" ","ALLEY":" ","HOUSE_NO":"１７８號","E_COORD97":166957.64000000001,"N_COORD97":2544703.3100000001,"ADDRESS":"文和街１７８號","OBJECTID":545860},"geometry":{"x":166957.64000000153,"y":2544703.3100000005}},{"attributes":{"ID":545888,"DIS_CODE":0,"TOWNNAME":"中西區","LI":"文賢里","LIN":"10鄰","STREET":"文和街","SECT":" ","MAREA":" ","LANE":" ","ALLEY":" ","HOUSE_NO":"１８０號","E_COORD97":166950.57000000001,"N_COORD97":2544701.2000000002,"ADDRESS":"文和街１８０號","OBJECTID":545861},"geometry":{"x":166950.57000000123,"y":2544701.2000000011}},{"attributes":{"ID":545889,"DIS_CODE":0,"TOWNNAME":"中西區","LI":"文賢里","LIN":"10鄰","STREET":"文和街","SECT":" ","MAREA":" ","LANE":" ","ALLEY":" ","HOUSE_NO":"１８６號","E_COORD97":166938.75,"N_COORD97":2544690.6299999999,"ADDRESS":"文和街１８６號","OBJECTID":545862},"geometry":{"x":166938.75000000093,"y":2544690.6300000008}},{"attributes":{"ID":545890,"DIS_CODE":0,"TOWNNAME":"中西區","LI":"文賢里","LIN":"10鄰","STREET":"文和街","SECT":" ","MAREA":" ","LANE":" ","ALLEY":" ","HOUSE_NO":"１８８號","E_COORD97":166934.92000000001,"N_COORD97":2544687.4199999999,"ADDRESS":"文和街１８８號","OBJECTID":545863},"geometry":{"x":166934.91999999993,"y":2544687.4200000018}},{"attributes":{"ID":545891,"DIS_CODE":0,"TOWNNAME":"中西區","LI":"文賢里","LIN":"10鄰","STREET":"文和街","SECT":" ","MAREA":" ","LANE":" ","ALLEY":" ","HOUSE_NO":"１９０號","E_COORD97":166930.85000000001,"N_COORD97":2544684.71,"ADDRESS":"文和街１９０號","OBJECTID":545864},"geometry":{"x":166930.85000000056,"y":2544684.709999999}},{"attributes":{"ID":545892,"DIS_CODE":0,"TOWNNAME":"中西區","LI":"文賢里","LIN":"10鄰","STREET":"文和街","SECT":" ","MAREA":" ","LANE":" ","ALLEY":" ","HOUSE_NO":"１９２號","E_COORD97":166927.51000000001,"N_COORD97":2544682.3700000001,"ADDRESS":"文和街１９２號","OBJECTID":545865},"geometry":{"x":166927.50999999978,"y":2544682.370000001}},{"attributes":{"ID":545893,"DIS_CODE":0,"TOWNNAME":"中西區","LI":"文賢里","LIN":"10鄰","STREET":"文和街","SECT":" ","MAREA":" ","LANE":" ","ALLEY":" ","HOUSE_NO":"１９４號","E_COORD97":166924.42999999999,"N_COORD97":2544679.6499999999,"ADDRESS":"文和街１９４號","OBJECTID":545866},"geometry":{"x":166924.4299999997,"y":2544679.6500000022}},{"attributes":{"ID":545894,"DIS_CODE":0,"TOWNNAME":"中西區","LI":"文賢里","LIN":"10鄰","STREET":"文和街","SECT":" ","MAREA":" ","LANE":" ","ALLEY":" ","HOUSE_NO":"１９６號","E_COORD97":166918.72,"N_COORD97":2544676.2799999998,"ADDRESS":"文和街１９６號","OBJECTID":545867},"geometry":{"x":166918.72000000067,"y":2544676.2800000012}},{"attributes":{"ID":545895,"DIS_CODE":0,"TOWNNAME":"中西區","LI":"文賢里","LIN":"10鄰","STREET":"文和街","SECT":" ","MAREA":" ","LANE":" ","ALLEY":" ","HOUSE_NO":"２０２號","E_COORD97":166905.89000000001,"N_COORD97":2544666.4100000001,"ADDRESS":"文和街２０２號","OBJECTID":545868},"geometry":{"x":166905.88999999966,"y":2544666.410000002}},{"attributes":{"ID":545896,"DIS_CODE":0,"TOWNNAME":"中西區","LI":"文賢里","LIN":"10鄰","STREET":"文和街","SECT":" ","MAREA":" ","LANE":" ","ALLEY":" ","HOUSE_NO":"２０４號","E_COORD97":166902.29999999999,"N_COORD97":2544664.4399999999,"ADDRESS":"文和街２０４號","OBJECTID":545869},"geometry":{"x":166902.29999999888,"y":2544664.4399999995}},{"attributes":{"ID":545897,"DIS_CODE":0,"TOWNNAME":"中西區","LI":"文賢里","LIN":"10鄰","STREET":"文和街","SECT":" ","MAREA":" ","LANE":" ","ALLEY":" ","HOUSE_NO":"２０６號","E_COORD97":166898.72,"N_COORD97":2544662.1000000001,"ADDRESS":"文和街２０６號","OBJECTID":545870},"geometry":{"x":166898.71999999974,"y":2544662.1000000015}},{"attributes":{"ID":545898,"DIS_CODE":0,"TOWNNAME":"中西區","LI":"文賢里","LIN":"10鄰","STREET":"文和街","SECT":" ","MAREA":" ","LANE":" ","ALLEY":" ","HOUSE_NO":"２０８號","E_COORD97":166894.64999999999,"N_COORD97":2544659.1400000001,"ADDRESS":"文和街２０８號","OBJECTID":545871},"geometry":{"x":166894.6500000013,"y":2544659.1400000025}},{"attributes":{"ID":545899,"DIS_CODE":0,"TOWNNAME":"中西區","LI":"文賢里","LIN":"10鄰","STREET":"文和街","SECT":" ","MAREA":" ","LANE":" ","ALLEY":" ","HOUSE_NO":"２１０號","E_COORD97":166891.07000000001,"N_COORD97":2544656.4300000002,"ADDRESS":"文和街２１０號","OBJECTID":545872},"geometry":{"x":166891.07000000123,"y":2544656.4300000016}},{"attributes":{"ID":545900,"DIS_CODE":0,"TOWNNAME":"中西區","LI":"文賢里","LIN":"10鄰","STREET":"文和街","SECT":" ","MAREA":" ","LANE":" ","ALLEY":" ","HOUSE_NO":"２１２號","E_COORD97":166887.60999999999,"N_COORD97":2544654.0899999999,"ADDRESS":"文和街２１２號","OBJECTID":545873},"geometry":{"x":166887.61000000127,"y":2544654.0900000036}},{"attributes":{"ID":545901,"DIS_CODE":0,"TOWNNAME":"中西區","LI":"文賢里","LIN":"10鄰","STREET":"文和街","SECT":" ","MAREA":" ","LANE":" ","ALLEY":" ","HOUSE_NO":"２１４號","E_COORD97":166883.66,"N_COORD97":2544652.6099999999,"ADDRESS":"文和街２１４號","OBJECTID":545874},"geometry":{"x":166883.66000000108,"y":2544652.6099999994}},{"attributes":{"ID":545902,"DIS_CODE":0,"TOWNNAME":"中西區","LI":"文賢里","LIN":"10鄰","STREET":"和善街","SECT":" ","MAREA":" ","LANE":" ","ALLEY":" ","HOUSE_NO":"７５號","E_COORD97":166976.98000000001,"N_COORD97":2544710.1200000001,"ADDRESS":"和善街７５號","OBJECTID":545875},"geometry":{"x":166976.98000000138,"y":2544710.1200000029}},{"attributes":{"ID":545903,"DIS_CODE":0,"TOWNNAME":"中西區","LI":"文賢里","LIN":"10鄰","STREET":"和善街","SECT":" ","MAREA":" ","LANE":" ","ALLEY":" ","HOUSE_NO":"７７號","E_COORD97":166973.09,"N_COORD97":2544714.5299999998,"ADDRESS":"和善街７７號","OBJECTID":545876},"geometry":{"x":166973.08999999985,"y":2544714.5299999993}},{"attributes":{"ID":545904,"DIS_CODE":0,"TOWNNAME":"中西區","LI":"文賢里","LIN":"10鄰","STREET":"和善街","SECT":" ","MAREA":" ","LANE":" ","ALLEY":" ","HOUSE_NO":"７９號","E_COORD97":166971.85999999999,"N_COORD97":2544718.7599999998,"ADDRESS":"和善街７９號","OBJECTID":545877},"geometry":{"x":166971.86000000034,"y":2544718.7600000016}},{"attributes":{"ID":545905,"DIS_CODE":0,"TOWNNAME":"中西區","LI":"文賢里","LIN":"10鄰","STREET":"和善街","SECT":" ","MAREA":" ","LANE":" ","ALLEY":" ","HOUSE_NO":"８３號","E_COORD97":166966.20000000001,"N_COORD97":2544727.4100000001,"ADDRESS":"和善街８３號","OBJECTID":545878},"geometry":{"x":166966.20000000205,"y":2544727.410000002}},{"attributes":{"ID":545906,"DIS_CODE":0,"TOWNNAME":"中西區","LI":"文賢里","LIN":"10鄰","STREET":"和善街","SECT":" ","MAREA":" ","LANE":" ","ALLEY":" ","HOUSE_NO":"８７號","E_COORD97":166961.42999999999,"N_COORD97":2544734.8199999998,"ADDRESS":"和善街８７號","OBJECTID":545879},"geometry":{"x":166961.43000000063,"y":2544734.8200000022}},{"attributes":{"ID":545907,"DIS_CODE":0,"TOWNNAME":"中西區","LI":"文賢里","LIN":"10鄰","STREET":"和善街","SECT":" ","MAREA":" ","LANE":" ","ALLEY":" ","HOUSE_NO":"８９號","E_COORD97":166958.94,"N_COORD97":2544740.0099999998,"ADDRESS":"和善街８９號","OBJECTID":545880},"geometry":{"x":166958.94000000041,"y":2544740.0100000016}},{"attributes":{"ID":545908,"DIS_CODE":0,"TOWNNAME":"中西區","LI":"光賢里","LIN":"10鄰","STREET":"和善街","SECT":" ","MAREA":" ","LANE":" ","ALLEY":" ","HOUSE_NO":"１０１號","E_COORD97":166931.45000000001,"N_COORD97":2544780.0800000001,"ADDRESS":"和善街１０１號","OBJECTID":545881},"geometry":{"x":166931.45000000019,"y":2544780.0800000038}},{"attributes":{"ID":545909,"DIS_CODE":0,"TOWNNAME":"中西區","LI":"光賢里","LIN":"10鄰","STREET":"和善街","SECT":" ","MAREA":" ","LANE":" ","ALLEY":" ","HOUSE_NO":"１０３號","E_COORD97":166927.85000000001,"N_COORD97":2544782.6200000001,"ADDRESS":"和善街１０３號","OBJECTID":545882},"geometry":{"x":166927.85000000056,"y":2544782.620000001}},{"attributes":{"ID":545910,"DIS_CODE":0,"TOWNNAME":"中西區","LI":"光賢里","LIN":"10鄰","STREET":"和善街","SECT":" ","MAREA":" ","LANE":" ","ALLEY":" ","HOUSE_NO":"１０５號","E_COORD97":166924.67999999999,"N_COORD97":2544785.5899999999,"ADDRESS":"和善街１０５號","OBJECTID":545883},"geometry":{"x":166924.6799999997,"y":2544785.5899999999}},{"attributes":{"ID":545911,"DIS_CODE":0,"TOWNNAME":"中西區","LI":"光賢里","LIN":"10鄰","STREET":"和善街","SECT":" ","MAREA":" ","LANE":" ","ALLEY":" ","HOUSE_NO":"１０７號","E_COORD97":166920.87,"N_COORD97":2544788.7599999998,"ADDRESS":"和善街１０７號","OBJECTID":545884},"geometry":{"x":166920.87000000197,"y":2544788.7600000016}},{"attributes":{"ID":545912,"DIS_CODE":0,"TOWNNAME":"中西區","LI":"光賢里","LIN":"10鄰","STREET":"和善街","SECT":" ","MAREA":" ","LANE":" ","ALLEY":" ","HOUSE_NO":"１０９號","E_COORD97":166917.48000000001,"N_COORD97":2544791.5099999998,"ADDRESS":"和善街１０９號","OBJECTID":545885},"geometry":{"x":166917.48000000138,"y":2544791.5100000016}},{"attributes":{"ID":545913,"DIS_CODE":0,"TOWNNAME":"中西區","LI":"光賢里","LIN":"10鄰","STREET":"和善街","SECT":" ","MAREA":" ","LANE":" ","ALLEY":" ","HOUSE_NO":"１１１號","E_COORD97":166914.31,"N_COORD97":2544794.48,"ADDRESS":"和善街１１１號","OBJECTID":545886},"geometry":{"x":166914.31000000052,"y":2544794.4800000042}},{"attributes":{"ID":545914,"DIS_CODE":0,"TOWNNAME":"中西區","LI":"光賢里","LIN":"10鄰","STREET":"和善街","SECT":" ","MAREA":" ","LANE":" ","ALLEY":" ","HOUSE_NO":"１１３號","E_COORD97":166910.5,"N_COORD97":2544797.4399999999,"ADDRESS":"和善街１１３號","OBJECTID":545887},"geometry":{"x":166910.50000000093,"y":2544797.4400000013}},{"attributes":{"ID":545915,"DIS_CODE":0,"TOWNNAME":"中西區","LI":"光賢里","LIN":"10鄰","STREET":"和善街","SECT":" ","MAREA":" ","LANE":" ","ALLEY":" ","HOUSE_NO":"１１５號","E_COORD97":166906.89999999999,"N_COORD97":2544800.1899999999,"ADDRESS":"和善街１１５號","OBJECTID":545888},"geometry":{"x":166906.90000000037,"y":2544800.1900000013}},{"attributes":{"ID":545916,"DIS_CODE":0,"TOWNNAME":"中西區","LI":"光賢里","LIN":"10鄰","STREET":"和善街","SECT":" ","MAREA":" ","LANE":" ","ALLEY":" ","HOUSE_NO":"１１７號","E_COORD97":166903.51000000001,"N_COORD97":2544802.9399999999,"ADDRESS":"和善街１１７號","OBJECTID":545889},"geometry":{"x":166903.50999999978,"y":2544802.9399999995}},{"attributes":{"ID":545917,"DIS_CODE":0,"TOWNNAME":"中西區","LI":"光賢里","LIN":"10鄰","STREET":"和善街","SECT":" ","MAREA":" ","LANE":" ","ALLEY":" ","HOUSE_NO":"１１９號","E_COORD97":166899.91,"N_COORD97":2544805.6899999999,"ADDRESS":"和善街１１９號","OBJECTID":545890},"geometry":{"x":166899.91000000015,"y":2544805.6900000032}},{"attributes":{"ID":545918,"DIS_CODE":0,"TOWNNAME":"中西區","LI":"光賢里","LIN":"10鄰","STREET":"和善街","SECT":" ","MAREA":" ","LANE":" ","ALLEY":" ","HOUSE_NO":"１２１號","E_COORD97":166896.53,"N_COORD97":2544808.4500000002,"ADDRESS":"和善街１２１號","OBJECTID":545891},"geometry":{"x":166896.53000000119,"y":2544808.4500000011}},{"attributes":{"ID":545919,"DIS_CODE":0,"TOWNNAME":"中西區","LI":"光賢里","LIN":"10鄰","STREET":"和善街","SECT":" ","MAREA":" ","LANE":" ","ALLEY":" ","HOUSE_NO":"１２３號","E_COORD97":166892.92999999999,"N_COORD97":2544811.4100000001,"ADDRESS":"和善街１２３號","OBJECTID":545892},"geometry":{"x":166892.93000000156,"y":2544811.4099999983}},{"attributes":{"ID":545920,"DIS_CODE":0,"TOWNNAME":"永康區","LI":"中華里","LIN":"10鄰","STREET":"小東路","SECT":" ","MAREA":" ","LANE":" ","ALLEY":" ","HOUSE_NO":"６１７號","E_COORD97":171862.17999999999,"N_COORD97":2544341.4199999999,"ADDRESS":"小東路６１７號","OBJECTID":545893},"geometry":{"x":171862.18000000063,"y":2544341.4200000018}},{"attributes":{"ID":545921,"DIS_CODE":0,"TOWNNAME":"永康區","LI":"中華里","LIN":"10鄰","STREET":"小東路","SECT":" ","MAREA":" ","LANE":" ","ALLEY":" ","HOUSE_NO":"６１３號","E_COORD97":171853.07999999999,"N_COORD97":2544341.4199999999,"ADDRESS":"小東路６１３號","OBJECTID":545894},"geometry":{"x":171853.08000000101,"y":2544341.4200000018}},{"attributes":{"ID":545922,"DIS_CODE":0,"TOWNNAME":"永康區","LI":"大灣里","LIN":"10鄰","STREET":"大灣路","SECT":" ","MAREA":" ","LANE":" ","ALLEY":" ","HOUSE_NO":"１９８號","E_COORD97":175022.23000000001,"N_COORD97":2545432.71,"ADDRESS":"大灣路１９８號","OBJECTID":545895},"geometry":{"x":175022.23000000138,"y":2545432.7100000009}},{"attributes":{"ID":545923,"DIS_CODE":0,"TOWNNAME":"永康區","LI":"大灣里","LIN":"10鄰","STREET":"大灣路","SECT":" ","MAREA":" ","LANE":" ","ALLEY":" ","HOUSE_NO":"１９６號","E_COORD97":175026.17999999999,"N_COORD97":2545437.9700000002,"ADDRESS":"大灣路１９６號","OBJECTID":545896},"geometry":{"x":175026.1799999997,"y":2545437.9700000007}},{"attributes":{"ID":545924,"DIS_CODE":0,"TOWNNAME":"永康區","LI":"二王里","LIN":"10鄰","STREET":"永二街","SECT":" ","MAREA":" ","LANE":" ","ALLEY":" ","HOUSE_NO":"３０７號","E_COORD97":173125.03,"N_COORD97":2546440.8399999999,"ADDRESS":"永二街３０７號","OBJECTID":545897},"geometry":{"x":173125.03000000119,"y":2546440.8399999999}},{"attributes":{"ID":545925,"DIS_CODE":0,"TOWNNAME":"仁德區","LI":"仁義里","LIN":"10鄰","STREET":"中山路","SECT":" ","MAREA":" ","LANE":" ","ALLEY":" ","HOUSE_NO":"５６５號","E_COORD97":173400.20999999999,"N_COORD97":2541306.2400000002,"ADDRESS":"中山路５６５號","OBJECTID":545898},"geometry":{"x":173400.20999999996,"y":2541306.2400000002}},{"attributes":{"ID":545926,"DIS_CODE":0,"TOWNNAME":"仁德區","LI":"仁義里","LIN":"10鄰","STREET":"中山路","SECT":" ","MAREA":" ","LANE":" ","ALLEY":" ","HOUSE_NO":"５４５號","E_COORD97":173448.82000000001,"N_COORD97":2541297.2400000002,"ADDRESS":"中山路５４５號","OBJECTID":545899},"geometry":{"x":173448.8200000003,"y":2541297.2400000039}},{"attributes":{"ID":545927,"DIS_CODE":0,"TOWNNAME":"仁德區","LI":"太子里","LIN":"10鄰","STREET":"太子北路","SECT":" ","MAREA":" ","LANE":" ","ALLEY":" ","HOUSE_NO":"５６號","E_COORD97":174204.79000000001,"N_COORD97":2543643.2599999998,"ADDRESS":"太子北路５６號","OBJECTID":545900},"geometry":{"x":174204.79000000004,"y":2543643.2600000016}},{"attributes":{"ID":545928,"DIS_CODE":0,"TOWNNAME":"仁德區","LI":"仁義里","LIN":"10鄰","STREET":"中山路","SECT":" ","MAREA":" ","LANE":" ","ALLEY":" ","HOUSE_NO":"５５１號","E_COORD97":173431.31,"N_COORD97":2541297.7400000002,"ADDRESS":"中山路５５１號","OBJECTID":545901},"geometry":{"x":173431.30999999959,"y":2541297.7400000021}},{"attributes":{"ID":545929,"DIS_CODE":0,"TOWNNAME":"仁德區","LI":"仁德里","LIN":"10鄰","STREET":"中正路","SECT":"二段","MAREA":" ","LANE":" ","ALLEY":" ","HOUSE_NO":"１２２１號","E_COORD97":173263.39000000001,"N_COORD97":2541221.5299999998,"ADDRESS":"中正路二段１２２１號","OBJECTID":545902},"geometry":{"x":173263.38999999966,"y":2541221.5299999993}},{"attributes":{"ID":545930,"DIS_CODE":0,"TOWNNAME":"仁德區","LI":"土庫里","LIN":"10鄰","STREET":"土庫路","SECT":" ","MAREA":" ","LANE":" ","ALLEY":" ","HOUSE_NO":"４５號","E_COORD97":174220.57000000001,"N_COORD97":2543357.9900000002,"ADDRESS":"土庫路４５號","OBJECTID":545903},"geometry":{"x":174220.5700000003,"y":2543357.9900000021}},{"attributes":{"ID":545931,"DIS_CODE":0,"TOWNNAME":"仁德區","LI":"仁義里","LIN":"10鄰","STREET":"仁義一街","SECT":" ","MAREA":" ","LANE":" ","ALLEY":" ","HOUSE_NO":"６８號","E_COORD97":173458.69,"N_COORD97":2541191.2599999998,"ADDRESS":"仁義一街６８號","OBJECTID":545904},"geometry":{"x":173458.69000000041,"y":2541191.2600000035}},{"attributes":{"ID":545932,"DIS_CODE":0,"TOWNNAME":"仁德區","LI":"仁義里","LIN":"10鄰","STREET":"仁義一街","SECT":" ","MAREA":" ","LANE":" ","ALLEY":" ","HOUSE_NO":"７２號","E_COORD97":173467.75,"N_COORD97":2541191.0099999998,"ADDRESS":"仁義一街７２號","OBJECTID":545905},"geometry":{"x":173467.75,"y":2541191.0100000016}},{"attributes":{"ID":545933,"DIS_CODE":0,"TOWNNAME":"仁德區","LI":"仁義里","LIN":"10鄰","STREET":"仁義一街","SECT":" ","MAREA":" ","LANE":" ","ALLEY":" ","HOUSE_NO":"６６號","E_COORD97":173454.66,"N_COORD97":2541191.0099999998,"ADDRESS":"仁義一街６６號","OBJECTID":545906},"geometry":{"x":173454.66000000108,"y":2541191.0100000016}},{"attributes":{"ID":545934,"DIS_CODE":0,"TOWNNAME":"仁德區","LI":"仁義里","LIN":"10鄰","STREET":"仁義一街","SECT":" ","MAREA":" ","LANE":" ","ALLEY":" ","HOUSE_NO":"９２號","E_COORD97":173509,"N_COORD97":2541187.5099999998,"ADDRESS":"仁義一街９２號","OBJECTID":545907},"geometry":{"x":173508.99999999907,"y":2541187.5100000016}},{"attributes":{"ID":545935,"DIS_CODE":0,"TOWNNAME":"仁德區","LI":"仁義里","LIN":"10鄰","STREET":"仁義一街","SECT":" ","MAREA":" ","LANE":" ","ALLEY":" ","HOUSE_NO":"７３號","E_COORD97":173405.95000000001,"N_COORD97":2541214.0099999998,"ADDRESS":"仁義一街７３號","OBJECTID":545908},"geometry":{"x":173405.95000000019,"y":2541214.0100000016}},{"attributes":{"ID":545936,"DIS_CODE":0,"TOWNNAME":"仁德區","LI":"仁義里","LIN":"10鄰","STREET":"仁義一街","SECT":" ","MAREA":" ","LANE":" ","ALLEY":" ","HOUSE_NO":"６３號","E_COORD97":173385.51000000001,"N_COORD97":2541215.5099999998,"ADDRESS":"仁義一街６３號","OBJECTID":545909},"geometry":{"x":173385.51000000071,"y":2541215.5099999998}},{"attributes":{"ID":545937,"DIS_CODE":0,"TOWNNAME":"仁德區","LI":"仁義里","LIN":"10鄰","STREET":"仁義一街","SECT":" ","MAREA":" ","LANE":" ","ALLEY":" ","HOUSE_NO":"９５號","E_COORD97":173510.20000000001,"N_COORD97":2541204.0099999998,"ADDRESS":"仁義一街９５號","OBJECTID":545910},"geometry":{"x":173510.20000000112,"y":2541204.0100000016}},{"attributes":{"ID":545938,"DIS_CODE":0,"TOWNNAME":"仁德區","LI":"仁義里","LIN":"10鄰","STREET":"仁義三街","SECT":" ","MAREA":" ","LANE":" ","ALLEY":" ","HOUSE_NO":"４７號","E_COORD97":173420.70999999999,"N_COORD97":2541138.77,"ADDRESS":"仁義三街４７號","OBJECTID":545911},"geometry":{"x":173420.70999999996,"y":2541138.7699999996}},{"attributes":{"ID":545939,"DIS_CODE":0,"TOWNNAME":"仁德區","LI":"仁義里","LIN":"10鄰","STREET":"仁義一街","SECT":" ","MAREA":" ","LANE":" ","ALLEY":" ","HOUSE_NO":"７１號","E_COORD97":173401.47,"N_COORD97":2541214.0099999998,"ADDRESS":"仁義一街７１號","OBJECTID":545912},"geometry":{"x":173401.46999999974,"y":2541214.0100000016}},{"attributes":{"ID":545940,"DIS_CODE":0,"TOWNNAME":"仁德區","LI":"仁義里","LIN":"10鄰","STREET":"仁義一街","SECT":" ","MAREA":" ","LANE":" ","ALLEY":" ","HOUSE_NO":"９８號","E_COORD97":173521.10000000001,"N_COORD97":2541186.5099999998,"ADDRESS":"仁義一街９８號","OBJECTID":545913},"geometry":{"x":173521.09999999963,"y":2541186.5100000016}},{"attributes":{"ID":545941,"DIS_CODE":0,"TOWNNAME":"仁德區","LI":"仁義里","LIN":"10鄰","STREET":"仁義一街","SECT":" ","MAREA":" ","LANE":" ","ALLEY":" ","HOUSE_NO":"７７號","E_COORD97":173436.37,"N_COORD97":2541213.5099999998,"ADDRESS":"仁義一街７７號","OBJECTID":545914},"geometry":{"x":173436.37000000011,"y":2541213.5100000035}},{"attributes":{"ID":545942,"DIS_CODE":0,"TOWNNAME":"仁德區","LI":"仁義里","LIN":"10鄰","STREET":"仁義一街","SECT":" ","MAREA":" ","LANE":" ","ALLEY":" ","HOUSE_NO":"７８號","E_COORD97":173486.12,"N_COORD97":2541188.0099999998,"ADDRESS":"仁義一街７８號","OBJECTID":545915},"geometry":{"x":173486.12000000011,"y":2541188.0099999998}},{"attributes":{"ID":545943,"DIS_CODE":0,"TOWNNAME":"仁德區","LI":"仁義里","LIN":"10鄰","STREET":"仁義一街","SECT":" ","MAREA":" ","LANE":" ","ALLEY":" ","HOUSE_NO":"６５號","E_COORD97":173389.32999999999,"N_COORD97":2541214.7599999998,"ADDRESS":"仁義一街６５號","OBJECTID":545916},"geometry":{"x":173389.33000000007,"y":2541214.7599999979}},{"attributes":{"ID":545944,"DIS_CODE":0,"TOWNNAME":"仁德區","LI":"仁義里","LIN":"10鄰","STREET":"仁義三街","SECT":" ","MAREA":" ","LANE":" ","ALLEY":" ","HOUSE_NO":"４９號","E_COORD97":173425.70000000001,"N_COORD97":2541138.52,"ADDRESS":"仁義三街４９號","OBJECTID":545917},"geometry":{"x":173425.70000000019,"y":2541138.5200000033}},{"attributes":{"ID":545945,"DIS_CODE":0,"TOWNNAME":"仁德區","LI":"仁義里","LIN":"10鄰","STREET":"仁義一街","SECT":" ","MAREA":" ","LANE":" ","ALLEY":" ","HOUSE_NO":"５９號","E_COORD97":173376.35000000001,"N_COORD97":2541216.5099999998,"ADDRESS":"仁義一街５９號","OBJECTID":545918},"geometry":{"x":173376.35000000056,"y":2541216.5099999979}},{"attributes":{"ID":545946,"DIS_CODE":0,"TOWNNAME":"西港區","LI":"慶安里","LIN":"34鄰","STREET":"新興街","SECT":" ","MAREA":" ","LANE":" ","ALLEY":" ","HOUSE_NO":"８號之１８","E_COORD97":168332.82000000001,"N_COORD97":2557304.6099999999,"ADDRESS":"新興街８號之１８","OBJECTID":545919},"geometry":{"x":168332.8200000003,"y":2557304.6100000013}},{"attributes":{"ID":545947,"DIS_CODE":0,"TOWNNAME":"西港區","LI":"慶安里","LIN":"34鄰","STREET":"新興街","SECT":" ","MAREA":" ","LANE":" ","ALLEY":" ","HOUSE_NO":"８號之１９","E_COORD97":168331.82000000001,"N_COORD97":2557309.1299999999,"ADDRESS":"新興街８號之１９","OBJECTID":545920},"geometry":{"x":168331.82000000216,"y":2557309.1300000027}},{"attributes":{"ID":545948,"DIS_CODE":0,"TOWNNAME":"西港區","LI":"慶安里","LIN":"34鄰","STREET":"新興街","SECT":" ","MAREA":" ","LANE":" ","ALLEY":" ","HOUSE_NO":"８號之２０","E_COORD97":168330.97,"N_COORD97":2557313.1499999999,"ADDRESS":"新興街８號之２０","OBJECTID":545921},"geometry":{"x":168330.97000000067,"y":2557313.1500000004}},{"attributes":{"ID":545949,"DIS_CODE":0,"TOWNNAME":"西港區","LI":"慶安里","LIN":"34鄰","STREET":"新興街","SECT":" ","MAREA":" ","LANE":" ","ALLEY":" ","HOUSE_NO":"８號之２１","E_COORD97":168329.60000000001,"N_COORD97":2557318.0299999998,"ADDRESS":"新興街８號之２１","OBJECTID":545922},"geometry":{"x":168329.60000000056,"y":2557318.0300000012}},{"attributes":{"ID":545950,"DIS_CODE":0,"TOWNNAME":"西港區","LI":"慶安里","LIN":"34鄰","STREET":"新興街","SECT":" ","MAREA":" ","LANE":" ","ALLEY":" ","HOUSE_NO":"８號之２２","E_COORD97":168328.42999999999,"N_COORD97":2557323.1400000001,"ADDRESS":"新興街８號之２２","OBJECTID":545923},"geometry":{"x":168328.4299999997,"y":2557323.1400000006}},{"attributes":{"ID":545951,"DIS_CODE":0,"TOWNNAME":"西港區","LI":"慶安里","LIN":"34鄰","STREET":"新興街","SECT":" ","MAREA":" ","LANE":" ","ALLEY":" ","HOUSE_NO":"８號之２３","E_COORD97":168327.04999999999,"N_COORD97":2557337.1600000001,"ADDRESS":"新興街８號之２３","OBJECTID":545924},"geometry":{"x":168327.05000000075,"y":2557337.1599999983}},{"attributes":{"ID":545952,"DIS_CODE":0,"TOWNNAME":"西港區","LI":"慶安里","LIN":"34鄰","STREET":"新興街","SECT":" ","MAREA":" ","LANE":" ","ALLEY":" ","HOUSE_NO":"８號之２４","E_COORD97":168326.26999999999,"N_COORD97":2557341.1200000001,"ADDRESS":"新興街８號之２４","OBJECTID":545925},"geometry":{"x":168326.27000000142,"y":2557341.120000001}},{"attributes":{"ID":545953,"DIS_CODE":0,"TOWNNAME":"西港區","LI":"慶安里","LIN":"34鄰","STREET":"新興街","SECT":" ","MAREA":" ","LANE":" ","ALLEY":" ","HOUSE_NO":"８號之２５","E_COORD97":168325.39000000001,"N_COORD97":2557345.8199999998,"ADDRESS":"新興街８號之２５","OBJECTID":545926},"geometry":{"x":168325.38999999966,"y":2557345.8200000003}},{"attributes":{"ID":545954,"DIS_CODE":0,"TOWNNAME":"西港區","LI":"慶安里","LIN":"34鄰","STREET":"新興街","SECT":" ","MAREA":" ","LANE":" ","ALLEY":" ","HOUSE_NO":"８號之２６","E_COORD97":168324.42000000001,"N_COORD97":2557350.1600000001,"ADDRESS":"新興街８號之２６","OBJECTID":545927},"geometry":{"x":168324.42000000086,"y":2557350.1600000001}},{"attributes":{"ID":545955,"DIS_CODE":0,"TOWNNAME":"西港區","LI":"慶安里","LIN":"34鄰","STREET":"新興街","SECT":" ","MAREA":" ","LANE":" ","ALLEY":" ","HOUSE_NO":"８號之２７","E_COORD97":168323.14999999999,"N_COORD97":2557353.8100000001,"ADDRESS":"新興街８號之２７","OBJECTID":545928},"geometry":{"x":168323.1500000013,"y":2557353.8100000042}},{"attributes":{"ID":545956,"DIS_CODE":0,"TOWNNAME":"西港區","LI":"慶安里","LIN":"34鄰","STREET":"新興街","SECT":" ","MAREA":" ","LANE":" ","ALLEY":" ","HOUSE_NO":"８號之２８","E_COORD97":168322.31,"N_COORD97":2557358.2999999998,"ADDRESS":"新興街８號之２８","OBJECTID":545929},"geometry":{"x":168322.30999999959,"y":2557358.3000000026}},{"attributes":{"ID":545957,"DIS_CODE":0,"TOWNNAME":"西港區","LI":"慶安里","LIN":"34鄰","STREET":"新興街","SECT":" ","MAREA":" ","LANE":" ","ALLEY":" ","HOUSE_NO":"８號之２９","E_COORD97":168321.67999999999,"N_COORD97":2557362.8199999998,"ADDRESS":"新興街８號之２９","OBJECTID":545930},"geometry":{"x":168321.6799999997,"y":2557362.8200000003}},{"attributes":{"ID":545958,"DIS_CODE":0,"TOWNNAME":"西港區","LI":"慶安里","LIN":"34鄰","STREET":"新興街","SECT":" ","MAREA":" ","LANE":" ","ALLEY":" ","HOUSE_NO":"８號之３０","E_COORD97":168320.64999999999,"N_COORD97":2557367.4500000002,"ADDRESS":"新興街８號之３０","OBJECTID":545931},"geometry":{"x":168320.65000000037,"y":2557367.4499999993}},{"attributes":{"ID":545959,"DIS_CODE":0,"TOWNNAME":"仁德區","LI":"仁義里","LIN":"10鄰","STREET":"仁義一街","SECT":" ","MAREA":" ","LANE":" ","ALLEY":" ","HOUSE_NO":"８２號","E_COORD97":173494.92999999999,"N_COORD97":2541187.2599999998,"ADDRESS":"仁義一街８２號","OBJECTID":545932},"geometry":{"x":173494.9299999997,"y":2541187.2599999998}},{"attributes":{"ID":545960,"DIS_CODE":0,"TOWNNAME":"仁德區","LI":"仁義里","LIN":"10鄰","STREET":"仁義一街","SECT":" ","MAREA":" ","LANE":" ","ALLEY":" ","HOUSE_NO":"５２號","E_COORD97":173425.54999999999,"N_COORD97":2541193.7599999998,"ADDRESS":"仁義一街５２號","OBJECTID":545933},"geometry":{"x":173425.55000000168,"y":2541193.7599999998}},{"attributes":{"ID":545961,"DIS_CODE":0,"TOWNNAME":"仁德區","LI":"仁義里","LIN":"10鄰","STREET":"仁義一街","SECT":" ","MAREA":" ","LANE":" ","ALLEY":" ","HOUSE_NO":"７０號","E_COORD97":173463.25,"N_COORD97":2541191.2599999998,"ADDRESS":"仁義一街７０號","OBJECTID":545934},"geometry":{"x":173463.25000000186,"y":2541191.2600000035}},{"attributes":{"ID":545962,"DIS_CODE":0,"TOWNNAME":"仁德區","LI":"仁義里","LIN":"10鄰","STREET":"仁義一街","SECT":" ","MAREA":" ","LANE":" ","ALLEY":" ","HOUSE_NO":"６１號","E_COORD97":173381.20999999999,"N_COORD97":2541215.7599999998,"ADDRESS":"仁義一街６１號","OBJECTID":545935},"geometry":{"x":173381.21000000089,"y":2541215.7600000016}},{"attributes":{"ID":545963,"DIS_CODE":0,"TOWNNAME":"仁德區","LI":"仁義里","LIN":"10鄰","STREET":"仁義一街","SECT":" ","MAREA":" ","LANE":" ","ALLEY":" ","HOUSE_NO":"１００號","E_COORD97":173526.67999999999,"N_COORD97":2541186.0099999998,"ADDRESS":"仁義一街１００號","OBJECTID":545936},"geometry":{"x":173526.68000000063,"y":2541186.0099999979}},{"attributes":{"ID":545964,"DIS_CODE":0,"TOWNNAME":"仁德區","LI":"太子里","LIN":"10鄰","STREET":"長興路","SECT":" ","MAREA":" ","LANE":" ","ALLEY":" ","HOUSE_NO":"２８號","E_COORD97":174131.57000000001,"N_COORD97":2543610.0099999998,"ADDRESS":"長興路２８號","OBJECTID":545937},"geometry":{"x":174131.57000000123,"y":2543610.0099999998}},{"attributes":{"ID":545965,"DIS_CODE":0,"TOWNNAME":"仁德區","LI":"太子里","LIN":"10鄰","STREET":"長興路","SECT":" ","MAREA":" ","LANE":" ","ALLEY":" ","HOUSE_NO":"２４號","E_COORD97":174131.76000000001,"N_COORD97":2543600.5,"ADDRESS":"長興路２４號","OBJECTID":545938},"geometry":{"x":174131.75999999978,"y":2543600.5000000037}},{"attributes":{"ID":545966,"DIS_CODE":0,"TOWNNAME":"安南區","LI":"溪東里","LIN":"10鄰","STREET":"北安路","SECT":"二段","MAREA":" ","LANE":" ","ALLEY":" ","HOUSE_NO":"４９號","E_COORD97":168490.06,"N_COORD97":2547348.0600000001,"ADDRESS":"北安路二段４９號","OBJECTID":545939},"geometry":{"x":168490.05999999959,"y":2547348.0600000024}},{"attributes":{"ID":545967,"DIS_CODE":0,"TOWNNAME":"安南區","LI":"溪東里","LIN":"10鄰","STREET":"北安路","SECT":"二段","MAREA":" ","LANE":" ","ALLEY":" ","HOUSE_NO":"４１號","E_COORD97":168479.23999999999,"N_COORD97":2547320.6200000001,"ADDRESS":"北安路二段４１號","OBJECTID":545940},"geometry":{"x":168479.24000000022,"y":2547320.6200000029}},{"attributes":{"ID":545968,"DIS_CODE":0,"TOWNNAME":"安南區","LI":"溪東里","LIN":"10鄰","STREET":"北安路","SECT":"二段","MAREA":" ","LANE":" ","ALLEY":" ","HOUSE_NO":"４５號","E_COORD97":168491.04999999999,"N_COORD97":2547339.9500000002,"ADDRESS":"北安路二段４５號","OBJECTID":545941},"geometry":{"x":168491.05000000075,"y":2547339.9500000011}},{"attributes":{"ID":545969,"DIS_CODE":0,"TOWNNAME":"安南區","LI":"溪東里","LIN":"10鄰","STREET":"北安路","SECT":"二段","MAREA":" ","LANE":" ","ALLEY":" ","HOUSE_NO":"５１號","E_COORD97":168489.06,"N_COORD97":2547353.6899999999,"ADDRESS":"北安路二段５１號","OBJECTID":545942},"geometry":{"x":168489.06000000052,"y":2547353.6899999995}},{"attributes":{"ID":545970,"DIS_CODE":0,"TOWNNAME":"安南區","LI":"溪東里","LIN":"10鄰","STREET":"北安路","SECT":"二段","MAREA":" ","LANE":" ","ALLEY":" ","HOUSE_NO":"５５號","E_COORD97":168487.57000000001,"N_COORD97":2547361.9700000002,"ADDRESS":"北安路二段５５號","OBJECTID":545943},"geometry":{"x":168487.5700000003,"y":2547361.9700000025}},{"attributes":{"ID":545971,"DIS_CODE":0,"TOWNNAME":"安南區","LI":"溪東里","LIN":"10鄰","STREET":"北安路","SECT":"二段","MAREA":" ","LANE":" ","ALLEY":" ","HOUSE_NO":"５７號","E_COORD97":168486.64999999999,"N_COORD97":2547366.5099999998,"ADDRESS":"北安路二段５７號","OBJECTID":545944},"geometry":{"x":168486.65000000037,"y":2547366.5099999998}},{"attributes":{"ID":545972,"DIS_CODE":0,"TOWNNAME":"安南區","LI":"溪東里","LIN":"10鄰","STREET":"北安路","SECT":"二段","MAREA":" ","LANE":" ","ALLEY":" ","HOUSE_NO":"５９號","E_COORD97":168485.97,"N_COORD97":2547371.2999999998,"ADDRESS":"北安路二段５９號","OBJECTID":545945},"geometry":{"x":168485.96999999974,"y":2547371.3000000007}},{"attributes":{"ID":545973,"DIS_CODE":0,"TOWNNAME":"安南區","LI":"溪東里","LIN":"10鄰","STREET":"北安路","SECT":"二段","MAREA":" ","LANE":" ","ALLEY":" ","HOUSE_NO":"６１號","E_COORD97":168484.94,"N_COORD97":2547375.8700000001,"ADDRESS":"北安路二段６１號","OBJECTID":545946},"geometry":{"x":168484.94000000041,"y":2547375.8700000048}},{"attributes":{"ID":545974,"DIS_CODE":0,"TOWNNAME":"安南區","LI":"溪東里","LIN":"10鄰","STREET":"北安路","SECT":"二段","MAREA":" ","LANE":" ","ALLEY":" ","HOUSE_NO":"６９號","E_COORD97":168486.07000000001,"N_COORD97":2547398.8700000001,"ADDRESS":"北安路二段６９號","OBJECTID":545947},"geometry":{"x":168486.07000000216,"y":2547398.870000001}},{"attributes":{"ID":545975,"DIS_CODE":0,"TOWNNAME":"安南區","LI":"溪東里","LIN":"10鄰","STREET":"北安路","SECT":"二段","MAREA":" ","LANE":" ","ALLEY":" ","HOUSE_NO":"７１號","E_COORD97":168484.76999999999,"N_COORD97":2547403.4100000001,"ADDRESS":"北安路二段７１號","OBJECTID":545948},"geometry":{"x":168484.77000000048,"y":2547403.410000002}},{"attributes":{"ID":545976,"DIS_CODE":0,"TOWNNAME":"安南區","LI":"溪東里","LIN":"10鄰","STREET":"北安路","SECT":"二段","MAREA":" ","LANE":" ","ALLEY":" ","HOUSE_NO":"７３號","E_COORD97":168484.39999999999,"N_COORD97":2547408.5299999998,"ADDRESS":"北安路二段７３號","OBJECTID":545949},"geometry":{"x":168484.4000000013,"y":2547408.5300000012}},{"attributes":{"ID":545977,"DIS_CODE":0,"TOWNNAME":"安南區","LI":"溪東里","LIN":"10鄰","STREET":"北安路","SECT":"二段","MAREA":" ","LANE":" ","ALLEY":" ","HOUSE_NO":"７５號","E_COORD97":168483.56,"N_COORD97":2547412.8799999999,"ADDRESS":"北安路二段７５號","OBJECTID":545950},"geometry":{"x":168483.55999999866,"y":2547412.879999999}},{"attributes":{"ID":545978,"DIS_CODE":0,"TOWNNAME":"安南區","LI":"溪東里","LIN":"10鄰","STREET":"北安路","SECT":"二段","MAREA":" ","LANE":" ","ALLEY":" ","HOUSE_NO":"８１號","E_COORD97":168482.44,"N_COORD97":2547425.98,"ADDRESS":"北安路二段８１號","OBJECTID":545951},"geometry":{"x":168482.44000000134,"y":2547425.9800000023}},{"attributes":{"ID":545979,"DIS_CODE":0,"TOWNNAME":"安南區","LI":"溪東里","LIN":"10鄰","STREET":"北安路","SECT":"二段","MAREA":" ","LANE":" ","ALLEY":" ","HOUSE_NO":"８７號","E_COORD97":168480.20999999999,"N_COORD97":2547440.75,"ADDRESS":"北安路二段８７號","OBJECTID":545952},"geometry":{"x":168480.21000000089,"y":2547440.7500000019}},{"attributes":{"ID":545980,"DIS_CODE":0,"TOWNNAME":"安南區","LI":"溪東里","LIN":"10鄰","STREET":"北安路","SECT":"二段","MAREA":" ","LANE":" ","ALLEY":" ","HOUSE_NO":"９１號","E_COORD97":168477.89000000001,"N_COORD97":2547450.1899999999,"ADDRESS":"北安路二段９１號","OBJECTID":545953},"geometry":{"x":168477.88999999966,"y":2547450.1900000032}},{"attributes":{"ID":545981,"DIS_CODE":0,"TOWNNAME":"安南區","LI":"溪東里","LIN":"10鄰","STREET":"北安路","SECT":"二段","MAREA":" ","LANE":" ","ALLEY":" ","HOUSE_NO":"９７號","E_COORD97":168476.17999999999,"N_COORD97":2547466.1000000001,"ADDRESS":"北安路二段９７號","OBJECTID":545954},"geometry":{"x":168476.18000000156,"y":2547466.1000000015}},{"attributes":{"ID":545982,"DIS_CODE":0,"TOWNNAME":"安南區","LI":"溪東里","LIN":"10鄰","STREET":"北安路","SECT":"二段","MAREA":" ","LANE":" ","ALLEY":" ","HOUSE_NO":"１０３號","E_COORD97":168475.42999999999,"N_COORD97":2547479.8399999999,"ADDRESS":"北安路二段１０３號","OBJECTID":545955},"geometry":{"x":168475.4299999997,"y":2547479.8400000036}},{"attributes":{"ID":545983,"DIS_CODE":0,"TOWNNAME":"善化區","LI":"坐駕里","LIN":"10鄰","STREET":"建國路","SECT":" ","MAREA":" ","LANE":" ","ALLEY":" ","HOUSE_NO":"３１號","E_COORD97":178023.04000000001,"N_COORD97":2558560.2799999998,"ADDRESS":"建國路３１號","OBJECTID":545956},"geometry":{"x":178023.03999999911,"y":2558560.2800000012}},{"attributes":{"ID":545984,"DIS_CODE":0,"TOWNNAME":"安南區","LI":"溪東里","LIN":"10鄰","STREET":"北安路","SECT":"二段","MAREA":" ","LANE":" ","ALLEY":" ","HOUSE_NO":"１０５號","E_COORD97":168475.32000000001,"N_COORD97":2547484.8999999999,"ADDRESS":"北安路二段１０５號","OBJECTID":545957},"geometry":{"x":168475.3200000003,"y":2547484.9000000022}},{"attributes":{"ID":545985,"DIS_CODE":0,"TOWNNAME":"安南區","LI":"溪東里","LIN":"10鄰","STREET":"北安路","SECT":"二段","MAREA":" ","LANE":" ","ALLEY":" ","HOUSE_NO":"１２７號","E_COORD97":168468.45000000001,"N_COORD97":2547544.9300000002,"ADDRESS":"北安路二段１２７號","OBJECTID":545958},"geometry":{"x":168468.45000000112,"y":2547544.9300000016}},{"attributes":{"ID":545986,"DIS_CODE":0,"TOWNNAME":"安南區","LI":"溪東里","LIN":"10鄰","STREET":"北安路","SECT":"二段","MAREA":" ","LANE":" ","ALLEY":" ","HOUSE_NO":"１４９號","E_COORD97":168458.06,"N_COORD97":2547606.3599999999,"ADDRESS":"北安路二段１４９號","OBJECTID":545959},"geometry":{"x":168458.05999999959,"y":2547606.3600000013}},{"attributes":{"ID":545987,"DIS_CODE":0,"TOWNNAME":"安南區","LI":"溪東里","LIN":"10鄰","STREET":"北安路","SECT":"二段","MAREA":" ","LANE":" ","ALLEY":" ","HOUSE_NO":"１５５號","E_COORD97":168457.89999999999,"N_COORD97":2547619.2400000002,"ADDRESS":"北安路二段１５５號","OBJECTID":545960},"geometry":{"x":168457.90000000037,"y":2547619.2400000002}},{"attributes":{"ID":545988,"DIS_CODE":0,"TOWNNAME":"安南區","LI":"溪東里","LIN":"10鄰","STREET":"北安路","SECT":"二段","MAREA":" ","LANE":" ","ALLEY":" ","HOUSE_NO":"１５７號","E_COORD97":168457.42999999999,"N_COORD97":2547624.1000000001,"ADDRESS":"北安路二段１５７號","OBJECTID":545961},"geometry":{"x":168457.4299999997,"y":2547624.1000000015}},{"attributes":{"ID":545989,"DIS_CODE":0,"TOWNNAME":"安南區","LI":"溪東里","LIN":"10鄰","STREET":"北安路","SECT":"二段","MAREA":" ","LANE":" ","ALLEY":" ","HOUSE_NO":"１５９號","E_COORD97":168457.26999999999,"N_COORD97":2547629.6000000001,"ADDRESS":"北安路二段１５９號","OBJECTID":545962},"geometry":{"x":168457.27000000048,"y":2547629.5999999996}},{"attributes":{"ID":545990,"DIS_CODE":0,"TOWNNAME":"安南區","LI":"溪東里","LIN":"10鄰","STREET":"北安路","SECT":"二段","MAREA":" ","LANE":" ","ALLEY":" ","HOUSE_NO":"１６３號","E_COORD97":168455.38,"N_COORD97":2547639.1000000001,"ADDRESS":"北安路二段１６３號","OBJECTID":545963},"geometry":{"x":168455.38000000082,"y":2547639.0999999996}},{"attributes":{"ID":545991,"DIS_CODE":0,"TOWNNAME":"安南區","LI":"溪東里","LIN":"10鄰","STREET":"北安路","SECT":"二段","MAREA":" ","LANE":" ","ALLEY":" ","HOUSE_NO":"１６５號","E_COORD97":168456.01000000001,"N_COORD97":2547643.02,"ADDRESS":"北安路二段１６５號","OBJECTID":545964},"geometry":{"x":168456.01000000071,"y":2547643.0199999996}},{"attributes":{"ID":545992,"DIS_CODE":0,"TOWNNAME":"安南區","LI":"溪東里","LIN":"10鄰","STREET":"北安路","SECT":"二段","MAREA":" ","LANE":" ","ALLEY":" ","HOUSE_NO":"１６９號","E_COORD97":168454.12,"N_COORD97":2547652.29,"ADDRESS":"北安路二段１６９號","OBJECTID":545965},"geometry":{"x":168454.12000000104,"y":2547652.2899999972}},{"attributes":{"ID":545993,"DIS_CODE":0,"TOWNNAME":"安南區","LI":"溪東里","LIN":"10鄰","STREET":"北安路","SECT":"二段","MAREA":" ","LANE":" ","ALLEY":" ","HOUSE_NO":"２９號","E_COORD97":168506.01000000001,"N_COORD97":2547296,"ADDRESS":"北安路二段２９號","OBJECTID":545966},"geometry":{"x":168506.00999999978,"y":2547296.0000000037}},{"attributes":{"ID":545994,"DIS_CODE":0,"TOWNNAME":"安南區","LI":"安富里","LIN":"10鄰","STREET":"安富街","SECT":" ","MAREA":" ","LANE":" ","ALLEY":" ","HOUSE_NO":"３１３號","E_COORD97":167391.39000000001,"N_COORD97":2547404.3999999999,"ADDRESS":"安富街３１３號","OBJECTID":545967},"geometry":{"x":167391.38999999966,"y":2547404.4000000004}},{"attributes":{"ID":545995,"DIS_CODE":0,"TOWNNAME":"東區","LI":"忠孝里","LIN":"10鄰","STREET":"崇明路","SECT":" ","MAREA":" ","LANE":" ","ALLEY":" ","HOUSE_NO":"３４６號","E_COORD97":170084,"N_COORD97":2541929.2999999998,"ADDRESS":"崇明路３４６號","OBJECTID":545968},"geometry":{"x":170084,"y":2541929.3000000026}},{"attributes":{"ID":545996,"DIS_CODE":0,"TOWNNAME":"東區","LI":"崇德里","LIN":"10鄰","STREET":"崇德九街","SECT":" ","MAREA":" ","LANE":" ","ALLEY":" ","HOUSE_NO":"２１號","E_COORD97":170841.26000000001,"N_COORD97":2541578.4399999999,"ADDRESS":"崇德九街２１號","OBJECTID":545969},"geometry":{"x":170841.26000000071,"y":2541578.4399999995}},{"attributes":{"ID":545997,"DIS_CODE":0,"TOWNNAME":"善化區","LI":"坐駕里","LIN":"10鄰","STREET":"建國路","SECT":" ","MAREA":" ","LANE":" ","ALLEY":" ","HOUSE_NO":"４７號","E_COORD97":178013.82000000001,"N_COORD97":2558606.7799999998,"ADDRESS":"建國路４７號","OBJECTID":545970},"geometry":{"x":178013.82000000123,"y":2558606.7799999975}},{"attributes":{"ID":545998,"DIS_CODE":0,"TOWNNAME":"麻豆區","LI":"穀興里","LIN":"10鄰","STREET":"三民路","SECT":" ","MAREA":" ","LANE":" ","ALLEY":" ","HOUSE_NO":"１號之１０","E_COORD97":172792.95000000001,"N_COORD97":2564898.5800000001,"ADDRESS":"三民路１號之１０","OBJECTID":545971},"geometry":{"x":172792.95000000112,"y":2564898.5800000038}},{"attributes":{"ID":545999,"DIS_CODE":0,"TOWNNAME":"麻豆區","LI":"穀興里","LIN":"10鄰","STREET":"三民路","SECT":" ","MAREA":" ","LANE":" ","ALLEY":" ","HOUSE_NO":"１號之２","E_COORD97":172792.31,"N_COORD97":2564891.7000000002,"ADDRESS":"三民路１號之２","OBJECTID":545972},"geometry":{"x":172792.30999999959,"y":2564891.6999999993}},{"attributes":{"ID":546000,"DIS_CODE":0,"TOWNNAME":"麻豆區","LI":"穀興里","LIN":"10鄰","STREET":"三民路","SECT":" ","MAREA":" ","LANE":" ","ALLEY":" ","HOUSE_NO":"１號之３","E_COORD97":172794.67999999999,"N_COORD97":2564885.3900000001,"ADDRESS":"三民路１號之３","OBJECTID":545973},"geometry":{"x":172794.68000000063,"y":2564885.3900000006}},{"attributes":{"ID":546001,"DIS_CODE":0,"TOWNNAME":"麻豆區","LI":"穀興里","LIN":"10鄰","STREET":"三民路","SECT":" ","MAREA":" ","LANE":" ","ALLEY":" ","HOUSE_NO":"１號之４","E_COORD97":172794.22,"N_COORD97":2564881.2999999998,"ADDRESS":"三民路１號之４","OBJECTID":545974},"geometry":{"x":172794.22000000067,"y":2564881.3000000026}},{"attributes":{"ID":546002,"DIS_CODE":0,"TOWNNAME":"麻豆區","LI":"穀興里","LIN":"10鄰","STREET":"三民路","SECT":" ","MAREA":" ","LANE":" ","ALLEY":" ","HOUSE_NO":"１號之６","E_COORD97":172791.44,"N_COORD97":2564876.8500000001,"ADDRESS":"三民路１號之６","OBJECTID":545975},"geometry":{"x":172791.44000000134,"y":2564876.8500000015}},{"attributes":{"ID":546003,"DIS_CODE":0,"TOWNNAME":"麻豆區","LI":"穀興里","LIN":"10鄰","STREET":"三民路","SECT":" ","MAREA":" ","LANE":" ","ALLEY":" ","HOUSE_NO":"１號之７","E_COORD97":172791.42000000001,"N_COORD97":2564872.8199999998,"ADDRESS":"三民路１號之７","OBJECTID":545976},"geometry":{"x":172791.42000000086,"y":2564872.8200000003}},{"attributes":{"ID":546004,"DIS_CODE":0,"TOWNNAME":"麻豆區","LI":"穀興里","LIN":"10鄰","STREET":"三民路","SECT":" ","MAREA":" ","LANE":" ","ALLEY":" ","HOUSE_NO":"１號之８","E_COORD97":172791.51999999999,"N_COORD97":2564868.7599999998,"ADDRESS":"三民路１號之８","OBJECTID":545977},"geometry":{"x":172791.52000000142,"y":2564868.7599999998}},{"attributes":{"ID":546005,"DIS_CODE":0,"TOWNNAME":"麻豆區","LI":"穀興里","LIN":"10鄰","STREET":"三民路","SECT":" ","MAREA":" ","LANE":" ","ALLEY":" ","HOUSE_NO":"２號之１","E_COORD97":172768.81,"N_COORD97":2564899.0299999998,"ADDRESS":"三民路２號之１","OBJECTID":545978},"geometry":{"x":172768.80999999959,"y":2564899.0300000012}},{"attributes":{"ID":546006,"DIS_CODE":0,"TOWNNAME":"麻豆區","LI":"穀興里","LIN":"10鄰","STREET":"三民路","SECT":" ","MAREA":" ","LANE":" ","ALLEY":" ","HOUSE_NO":"２號之２","E_COORD97":172768.89000000001,"N_COORD97":2564894.7999999998,"ADDRESS":"三民路２號之２","OBJECTID":545979},"geometry":{"x":172768.8900000006,"y":2564894.8000000026}},{"attributes":{"ID":546007,"DIS_CODE":0,"TOWNNAME":"麻豆區","LI":"穀興里","LIN":"10鄰","STREET":"三民路","SECT":" ","MAREA":" ","LANE":" ","ALLEY":" ","HOUSE_NO":"２號之３","E_COORD97":172770.13,"N_COORD97":2564889.6600000001,"ADDRESS":"三民路２號之３","OBJECTID":545980},"geometry":{"x":172770.12999999989,"y":2564889.6600000001}},{"attributes":{"ID":546008,"DIS_CODE":0,"TOWNNAME":"麻豆區","LI":"穀興里","LIN":"10鄰","STREET":"三民路","SECT":" ","MAREA":" ","LANE":" ","ALLEY":" ","HOUSE_NO":"２號之５","E_COORD97":172769.84,"N_COORD97":2564881.3500000001,"ADDRESS":"三民路２號之５","OBJECTID":545981},"geometry":{"x":172769.84000000078,"y":2564881.3499999996}},{"attributes":{"ID":546009,"DIS_CODE":0,"TOWNNAME":"麻豆區","LI":"穀興里","LIN":"10鄰","STREET":"三民路","SECT":" ","MAREA":" ","LANE":" ","ALLEY":" ","HOUSE_NO":"２號之６","E_COORD97":172770.09,"N_COORD97":2564876.8700000001,"ADDRESS":"三民路２號之６","OBJECTID":545982},"geometry":{"x":172770.08999999985,"y":2564876.8699999992}},{"attributes":{"ID":546010,"DIS_CODE":0,"TOWNNAME":"善化區","LI":"光文里","LIN":"10鄰","STREET":"中山路","SECT":" ","MAREA":" ","LANE":" ","ALLEY":" ","HOUSE_NO":"５１號","E_COORD97":178771.5,"N_COORD97":2559196.5,"ADDRESS":"中山路５１號","OBJECTID":545983},"geometry":{"x":178771.50000000093,"y":2559196.5000000019}},{"attributes":{"ID":546011,"DIS_CODE":0,"TOWNNAME":"善化區","LI":"西關里","LIN":"10鄰","STREET":"復興街","SECT":" ","MAREA":" ","LANE":" ","ALLEY":" ","HOUSE_NO":"４０號","E_COORD97":177012,"N_COORD97":2559065.2599999998,"ADDRESS":"復興街４０號","OBJECTID":545984},"geometry":{"x":177012.00000000093,"y":2559065.2600000035}},{"attributes":{"ID":546012,"DIS_CODE":0,"TOWNNAME":"善化區","LI":"光文里","LIN":"10鄰","STREET":"中山路","SECT":" ","MAREA":" ","LANE":" ","ALLEY":" ","HOUSE_NO":"１２１號","E_COORD97":178551.70999999999,"N_COORD97":2559166.75,"ADDRESS":"中山路１２１號","OBJECTID":545985},"geometry":{"x":178551.70999999996,"y":2559166.75}},{"attributes":{"ID":546013,"DIS_CODE":0,"TOWNNAME":"善化區","LI":"坐駕里","LIN":"10鄰","STREET":"自立路","SECT":" ","MAREA":" ","LANE":" ","ALLEY":" ","HOUSE_NO":"１２２號","E_COORD97":177927.42000000001,"N_COORD97":2558626.25,"ADDRESS":"自立路１２２號","OBJECTID":545986},"geometry":{"x":177927.42000000086,"y":2558626.2500000019}},{"attributes":{"ID":546014,"DIS_CODE":0,"TOWNNAME":"善化區","LI":"光文里","LIN":"10鄰","STREET":"中山路","SECT":" ","MAREA":" ","LANE":" ","ALLEY":" ","HOUSE_NO":"１７９號","E_COORD97":178374,"N_COORD97":2559134.75,"ADDRESS":"中山路１７９號","OBJECTID":545987},"geometry":{"x":178374,"y":2559134.7500000019}},{"attributes":{"ID":546015,"DIS_CODE":0,"TOWNNAME":"善化區","LI":"南關里","LIN":"10鄰","STREET":"三民路","SECT":" ","MAREA":" ","LANE":" ","ALLEY":" ","HOUSE_NO":"５３號之１","E_COORD97":177087.14999999999,"N_COORD97":2559018.27,"ADDRESS":"三民路５３號之１","OBJECTID":545988},"geometry":{"x":177087.1500000013,"y":2559018.2700000014}},{"attributes":{"ID":546016,"DIS_CODE":0,"TOWNNAME":"善化區","LI":"坐駕里","LIN":"10鄰","STREET":"自立路","SECT":" ","MAREA":" ","LANE":" ","ALLEY":" ","HOUSE_NO":"１１７號","E_COORD97":177980.51999999999,"N_COORD97":2558615,"ADDRESS":"自立路１１７號","OBJECTID":545989},"geometry":{"x":177980.52000000048,"y":2558615}},{"attributes":{"ID":546017,"DIS_CODE":0,"TOWNNAME":"善化區","LI":"光文里","LIN":"10鄰","STREET":"中山路","SECT":" ","MAREA":" ","LANE":" ","ALLEY":" ","HOUSE_NO":"１４３之１０號","E_COORD97":178416.06,"N_COORD97":2559141.02,"ADDRESS":"中山路１４３之１０號","OBJECTID":545990},"geometry":{"x":178416.06000000052,"y":2559141.0199999996}},{"attributes":{"ID":546018,"DIS_CODE":0,"TOWNNAME":"善化區","LI":"光文里","LIN":"10鄰","STREET":"中山路","SECT":" ","MAREA":" ","LANE":" ","ALLEY":" ","HOUSE_NO":"１４３之６號","E_COORD97":178447.89999999999,"N_COORD97":2559147.52,"ADDRESS":"中山路１４３之６號","OBJECTID":545991},"geometry":{"x":178447.90000000037,"y":2559147.5199999996}},{"attributes":{"ID":546019,"DIS_CODE":0,"TOWNNAME":"善化區","LI":"光文里","LIN":"10鄰","STREET":"中山路","SECT":" ","MAREA":" ","LANE":" ","ALLEY":" ","HOUSE_NO":"１８１號","E_COORD97":178367.25,"N_COORD97":2559134,"ADDRESS":"中山路１８１號","OBJECTID":545992},"geometry":{"x":178367.25,"y":2559134}},{"attributes":{"ID":546020,"DIS_CODE":0,"TOWNNAME":"善化區","LI":"光文里","LIN":"10鄰","STREET":"中山路","SECT":" ","MAREA":" ","LANE":" ","ALLEY":" ","HOUSE_NO":"１４３號之２","E_COORD97":178468.70000000001,"N_COORD97":2559150.52,"ADDRESS":"中山路１４３號之２","OBJECTID":545993},"geometry":{"x":178468.70000000112,"y":2559150.5199999996}},{"attributes":{"ID":546021,"DIS_CODE":0,"TOWNNAME":"善化區","LI":"光文里","LIN":"10鄰","STREET":"中山路","SECT":" ","MAREA":" ","LANE":" ","ALLEY":" ","HOUSE_NO":"１３１號","E_COORD97":178523.06,"N_COORD97":2559159.25,"ADDRESS":"中山路１３１號","OBJECTID":545994},"geometry":{"x":178523.06000000052,"y":2559159.25}},{"attributes":{"ID":546022,"DIS_CODE":0,"TOWNNAME":"善化區","LI":"光文里","LIN":"10鄰","STREET":"民族路","SECT":" ","MAREA":" ","LANE":" ","ALLEY":" ","HOUSE_NO":"１０６號","E_COORD97":178408.10000000001,"N_COORD97":2559111.0099999998,"ADDRESS":"民族路１０６號","OBJECTID":545995},"geometry":{"x":178408.09999999963,"y":2559111.0100000035}},{"attributes":{"ID":546023,"DIS_CODE":0,"TOWNNAME":"善化區","LI":"坐駕里","LIN":"10鄰","STREET":"自立路","SECT":" ","MAREA":" ","LANE":" ","ALLEY":" ","HOUSE_NO":"１２４號","E_COORD97":177922.38,"N_COORD97":2558625.75,"ADDRESS":"自立路１２４號","OBJECTID":545996},"geometry":{"x":177922.38000000175,"y":2558625.7500000019}},{"attributes":{"ID":546024,"DIS_CODE":0,"TOWNNAME":"善化區","LI":"光文里","LIN":"10鄰","STREET":"中山路","SECT":" ","MAREA":" ","LANE":" ","ALLEY":" ","HOUSE_NO":"１０７號","E_COORD97":178589.09,"N_COORD97":2559171.5,"ADDRESS":"中山路１０７號","OBJECTID":545997},"geometry":{"x":178589.09000000078,"y":2559171.5}},{"attributes":{"ID":546025,"DIS_CODE":0,"TOWNNAME":"善化區","LI":"光文里","LIN":"10鄰","STREET":"中山路","SECT":" ","MAREA":" ","LANE":" ","ALLEY":" ","HOUSE_NO":"５３號之１","E_COORD97":178763.04999999999,"N_COORD97":2559195.52,"ADDRESS":"中山路５３號之１","OBJECTID":545998},"geometry":{"x":178763.04999999981,"y":2559195.5200000033}},{"attributes":{"ID":546026,"DIS_CODE":0,"TOWNNAME":"善化區","LI":"光文里","LIN":"10鄰","STREET":"中山路","SECT":" ","MAREA":" ","LANE":" ","ALLEY":" ","HOUSE_NO":"１１１號","E_COORD97":178576.20000000001,"N_COORD97":2559168.75,"ADDRESS":"中山路１１１號","OBJECTID":545999},"geometry":{"x":178576.20000000019,"y":2559168.7500000019}},{"attributes":{"ID":546027,"DIS_CODE":0,"TOWNNAME":"善化區","LI":"光文里","LIN":"10鄰","STREET":"中山路","SECT":" ","MAREA":" ","LANE":" ","ALLEY":" ","HOUSE_NO":"５９號","E_COORD97":178719.39999999999,"N_COORD97":2559191,"ADDRESS":"中山路５９號","OBJECTID":546000},"geometry":{"x":178719.40000000224,"y":2559191.0000000019}}]}