{"displayFieldName":"TOWNNAME","fieldAliases":{"ID":"ID","DIS_CODE":"DIS_CODE","TOWNNAME":"TOWNNAME","LI":"LI","LIN":"LIN","STREET":"STREET","SECT":"SECT","MAREA":"MAREA","LANE":"LANE","ALLEY":"ALLEY","HOUSE_NO":"HOUSE_NO","E_COORD97":"E_COORD97","N_COORD97":"N_COORD97","ADDRESS":"ADDRESS","OBJECTID":"OBJECTID"},"geometryType":"esriGeometryPoint","spatialReference":{"wkid":102443,"latestWkid":3826},"fields":[{"name":"ID","type":"esriFieldTypeDouble","alias":"ID"},{"name":"DIS_CODE","type":"esriFieldTypeInteger","alias":"DIS_CODE"},{"name":"TOWNNAME","type":"esriFieldTypeString","alias":"TOWNNAME","length":8},{"name":"LI","type":"esriFieldTypeString","alias":"LI","length":8},{"name":"LIN","type":"esriFieldTypeString","alias":"LIN","length":12},{"name":"STREET","type":"esriFieldTypeString","alias":"STREET","length":20},{"name":"SECT","type":"esriFieldTypeString","alias":"SECT","length":8},{"name":"MAREA","type":"esriFieldTypeString","alias":"MAREA","length":12},{"name":"LANE","type":"esriFieldTypeString","alias":"LANE","length":10},{"name":"ALLEY","type":"esriFieldTypeString","alias":"ALLEY","length":10},{"name":"HOUSE_NO","type":"esriFieldTypeString","alias":"HOUSE_NO","length":20},{"name":"E_COORD97","type":"esriFieldTypeDouble","alias":"E_COORD97"},{"name":"N_COORD97","type":"esriFieldTypeDouble","alias":"N_COORD97"},{"name":"ADDRESS","type":"esriFieldTypeString","alias":"ADDRESS","length":50},{"name":"OBJECTID","type":"esriFieldTypeOID","alias":"OBJECTID"}],"features":[{"attributes":{"ID":351210,"DIS_CODE":0,"TOWNNAME":"鹽水區","LI":"岸內里","LIN":"18鄰","STREET":"北門路","SECT":" ","MAREA":" ","LANE":"１巷","ALLEY":" ","HOUSE_NO":"２０號","E_COORD97":175056.13,"N_COORD97":2580377.2799999998,"ADDRESS":"北門路１巷２０號","OBJECTID":351201},"geometry":{"x":175056.13000000082,"y":2580377.2800000012}},{"attributes":{"ID":351211,"DIS_CODE":0,"TOWNNAME":"鹽水區","LI":"岸內里","LIN":"18鄰","STREET":"北門路","SECT":" ","MAREA":" ","LANE":"１巷","ALLEY":" ","HOUSE_NO":"２６號","E_COORD97":175055.57999999999,"N_COORD97":2580389.79,"ADDRESS":"北門路１巷２６號","OBJECTID":351202},"geometry":{"x":175055.58000000007,"y":2580389.7899999972}},{"attributes":{"ID":351212,"DIS_CODE":0,"TOWNNAME":"鹽水區","LI":"岸內里","LIN":"18鄰","STREET":"北門路","SECT":" ","MAREA":" ","LANE":"１巷","ALLEY":" ","HOUSE_NO":"２８號","E_COORD97":175055.29000000001,"N_COORD97":2580393.8100000001,"ADDRESS":"北門路１巷２８號","OBJECTID":351203},"geometry":{"x":175055.29000000097,"y":2580393.8100000005}},{"attributes":{"ID":351213,"DIS_CODE":0,"TOWNNAME":"鹽水區","LI":"岸內里","LIN":"18鄰","STREET":"北門路","SECT":" ","MAREA":" ","LANE":"１巷","ALLEY":" ","HOUSE_NO":"３０號","E_COORD97":175055.03,"N_COORD97":2580398.1400000001,"ADDRESS":"北門路１巷３０號","OBJECTID":351204},"geometry":{"x":175055.02999999933,"y":2580398.1400000006}},{"attributes":{"ID":351214,"DIS_CODE":0,"TOWNNAME":"鹽水區","LI":"岸內里","LIN":"18鄰","STREET":"北門路","SECT":" ","MAREA":" ","LANE":"１巷","ALLEY":" ","HOUSE_NO":"３１號","E_COORD97":175108.38,"N_COORD97":2580332.1299999999,"ADDRESS":"北門路１巷３１號","OBJECTID":351205},"geometry":{"x":175108.38000000175,"y":2580332.129999999}},{"attributes":{"ID":351215,"DIS_CODE":0,"TOWNNAME":"北區","LI":"興南里","LIN":"6鄰","STREET":"公園路","SECT":" ","MAREA":" ","LANE":"３２１巷","ALLEY":" ","HOUSE_NO":"１６號五樓之１","E_COORD97":168949.03,"N_COORD97":2544978.0299999998,"ADDRESS":"公園路３２１巷１６號五樓之１","OBJECTID":351206},"geometry":{"x":168949.03000000212,"y":2544978.0299999993}},{"attributes":{"ID":351216,"DIS_CODE":0,"TOWNNAME":"北區","LI":"興南里","LIN":"6鄰","STREET":"公園路","SECT":" ","MAREA":" ","LANE":"３２１巷","ALLEY":" ","HOUSE_NO":"１６號五樓之２","E_COORD97":168949.03,"N_COORD97":2544978.0299999998,"ADDRESS":"公園路３２１巷１６號五樓之２","OBJECTID":351207},"geometry":{"x":168949.03000000212,"y":2544978.0299999993}},{"attributes":{"ID":351217,"DIS_CODE":0,"TOWNNAME":"北區","LI":"興南里","LIN":"6鄰","STREET":"公園路","SECT":" ","MAREA":" ","LANE":"３２１巷","ALLEY":" ","HOUSE_NO":"１６號五樓之３","E_COORD97":168949.03,"N_COORD97":2544978.0299999998,"ADDRESS":"公園路３２１巷１６號五樓之３","OBJECTID":351208},"geometry":{"x":168949.03000000212,"y":2544978.0299999993}},{"attributes":{"ID":351218,"DIS_CODE":0,"TOWNNAME":"北區","LI":"興南里","LIN":"6鄰","STREET":"公園路","SECT":" ","MAREA":" ","LANE":"３２１巷","ALLEY":" ","HOUSE_NO":"１６號四樓之１","E_COORD97":168949.03,"N_COORD97":2544978.0299999998,"ADDRESS":"公園路３２１巷１６號四樓之１","OBJECTID":351209},"geometry":{"x":168949.03000000212,"y":2544978.0299999993}},{"attributes":{"ID":351219,"DIS_CODE":0,"TOWNNAME":"北區","LI":"興南里","LIN":"6鄰","STREET":"公園路","SECT":" ","MAREA":" ","LANE":"３２１巷","ALLEY":" ","HOUSE_NO":"１６號四樓之２","E_COORD97":168949.03,"N_COORD97":2544978.0299999998,"ADDRESS":"公園路３２１巷１６號四樓之２","OBJECTID":351210},"geometry":{"x":168949.03000000212,"y":2544978.0299999993}},{"attributes":{"ID":351220,"DIS_CODE":0,"TOWNNAME":"北區","LI":"興南里","LIN":"6鄰","STREET":"公園路","SECT":" ","MAREA":" ","LANE":"３２１巷","ALLEY":" ","HOUSE_NO":"１６號四樓之３","E_COORD97":168949.03,"N_COORD97":2544978.0299999998,"ADDRESS":"公園路３２１巷１６號四樓之３","OBJECTID":351211},"geometry":{"x":168949.03000000212,"y":2544978.0299999993}},{"attributes":{"ID":351221,"DIS_CODE":0,"TOWNNAME":"北區","LI":"興南里","LIN":"6鄰","STREET":"公園路","SECT":" ","MAREA":" ","LANE":"３２１巷","ALLEY":" ","HOUSE_NO":"２２號二樓之１","E_COORD97":168922.85000000001,"N_COORD97":2544985.3799999999,"ADDRESS":"公園路３２１巷２２號二樓之１","OBJECTID":351212},"geometry":{"x":168922.85000000056,"y":2544985.379999999}},{"attributes":{"ID":351222,"DIS_CODE":0,"TOWNNAME":"北區","LI":"興南里","LIN":"6鄰","STREET":"公園路","SECT":" ","MAREA":" ","LANE":"３２１巷","ALLEY":" ","HOUSE_NO":"２２號二樓之２","E_COORD97":168922.85000000001,"N_COORD97":2544985.3799999999,"ADDRESS":"公園路３２１巷２２號二樓之２","OBJECTID":351213},"geometry":{"x":168922.85000000056,"y":2544985.379999999}},{"attributes":{"ID":351223,"DIS_CODE":0,"TOWNNAME":"北區","LI":"興南里","LIN":"6鄰","STREET":"公園路","SECT":" ","MAREA":" ","LANE":"３２１巷","ALLEY":" ","HOUSE_NO":"２２號二樓之３","E_COORD97":168922.85000000001,"N_COORD97":2544985.3799999999,"ADDRESS":"公園路３２１巷２２號二樓之３","OBJECTID":351214},"geometry":{"x":168922.85000000056,"y":2544985.379999999}},{"attributes":{"ID":351224,"DIS_CODE":0,"TOWNNAME":"北區","LI":"興南里","LIN":"6鄰","STREET":"公園路","SECT":" ","MAREA":" ","LANE":"３２１巷","ALLEY":" ","HOUSE_NO":"２２號三樓之１","E_COORD97":168922.85000000001,"N_COORD97":2544985.3799999999,"ADDRESS":"公園路３２１巷２２號三樓之１","OBJECTID":351215},"geometry":{"x":168922.85000000056,"y":2544985.379999999}},{"attributes":{"ID":351225,"DIS_CODE":0,"TOWNNAME":"北區","LI":"興南里","LIN":"6鄰","STREET":"公園路","SECT":" ","MAREA":" ","LANE":"３２１巷","ALLEY":" ","HOUSE_NO":"２２號三樓之２","E_COORD97":168922.85000000001,"N_COORD97":2544985.3799999999,"ADDRESS":"公園路３２１巷２２號三樓之２","OBJECTID":351216},"geometry":{"x":168922.85000000056,"y":2544985.379999999}},{"attributes":{"ID":351226,"DIS_CODE":0,"TOWNNAME":"北區","LI":"興南里","LIN":"6鄰","STREET":"公園路","SECT":" ","MAREA":" ","LANE":"３２１巷","ALLEY":" ","HOUSE_NO":"２２號三樓之３","E_COORD97":168922.85000000001,"N_COORD97":2544985.3799999999,"ADDRESS":"公園路３２１巷２２號三樓之３","OBJECTID":351217},"geometry":{"x":168922.85000000056,"y":2544985.379999999}},{"attributes":{"ID":351227,"DIS_CODE":0,"TOWNNAME":"北區","LI":"興南里","LIN":"6鄰","STREET":"公園路","SECT":" ","MAREA":" ","LANE":"３２１巷","ALLEY":" ","HOUSE_NO":"２２號五樓之１","E_COORD97":168922.85000000001,"N_COORD97":2544985.3799999999,"ADDRESS":"公園路３２１巷２２號五樓之１","OBJECTID":351218},"geometry":{"x":168922.85000000056,"y":2544985.379999999}},{"attributes":{"ID":351228,"DIS_CODE":0,"TOWNNAME":"北區","LI":"興南里","LIN":"6鄰","STREET":"公園路","SECT":" ","MAREA":" ","LANE":"３２１巷","ALLEY":" ","HOUSE_NO":"２２號五樓之２","E_COORD97":168922.85000000001,"N_COORD97":2544985.3799999999,"ADDRESS":"公園路３２１巷２２號五樓之２","OBJECTID":351219},"geometry":{"x":168922.85000000056,"y":2544985.379999999}},{"attributes":{"ID":351229,"DIS_CODE":0,"TOWNNAME":"北區","LI":"興南里","LIN":"6鄰","STREET":"公園路","SECT":" ","MAREA":" ","LANE":"３２１巷","ALLEY":" ","HOUSE_NO":"２２號五樓之３","E_COORD97":168922.85000000001,"N_COORD97":2544985.3799999999,"ADDRESS":"公園路３２１巷２２號五樓之３","OBJECTID":351220},"geometry":{"x":168922.85000000056,"y":2544985.379999999}},{"attributes":{"ID":351230,"DIS_CODE":0,"TOWNNAME":"北區","LI":"興南里","LIN":"6鄰","STREET":"公園路","SECT":" ","MAREA":" ","LANE":"３２１巷","ALLEY":" ","HOUSE_NO":"２２號四樓之１","E_COORD97":168922.85000000001,"N_COORD97":2544985.3799999999,"ADDRESS":"公園路３２１巷２２號四樓之１","OBJECTID":351221},"geometry":{"x":168922.85000000056,"y":2544985.379999999}},{"attributes":{"ID":351231,"DIS_CODE":0,"TOWNNAME":"北區","LI":"興南里","LIN":"6鄰","STREET":"公園路","SECT":" ","MAREA":" ","LANE":"３２１巷","ALLEY":" ","HOUSE_NO":"２２號四樓之２","E_COORD97":168922.85000000001,"N_COORD97":2544985.3799999999,"ADDRESS":"公園路３２１巷２２號四樓之２","OBJECTID":351222},"geometry":{"x":168922.85000000056,"y":2544985.379999999}},{"attributes":{"ID":351232,"DIS_CODE":0,"TOWNNAME":"北區","LI":"興南里","LIN":"6鄰","STREET":"公園路","SECT":" ","MAREA":" ","LANE":"３２１巷","ALLEY":" ","HOUSE_NO":"２２號四樓之３","E_COORD97":168922.85000000001,"N_COORD97":2544985.3799999999,"ADDRESS":"公園路３２１巷２２號四樓之３","OBJECTID":351223},"geometry":{"x":168922.85000000056,"y":2544985.379999999}},{"attributes":{"ID":351233,"DIS_CODE":0,"TOWNNAME":"北區","LI":"興南里","LIN":"6鄰","STREET":"公園路","SECT":" ","MAREA":" ","LANE":"３２１巷","ALLEY":" ","HOUSE_NO":"２８號二樓","E_COORD97":168907.12,"N_COORD97":2544997.8599999999,"ADDRESS":"公園路３２１巷２８號二樓","OBJECTID":351224},"geometry":{"x":168907.12000000011,"y":2544997.8600000031}},{"attributes":{"ID":351234,"DIS_CODE":0,"TOWNNAME":"北區","LI":"長德里","LIN":"8鄰","STREET":"自強街","SECT":" ","MAREA":" ","LANE":" ","ALLEY":" ","HOUSE_NO":"２１６號","E_COORD97":168475.12,"N_COORD97":2544857.5699999998,"ADDRESS":"自強街２１６號","OBJECTID":351225},"geometry":{"x":168475.12000000011,"y":2544857.5700000003}},{"attributes":{"ID":351235,"DIS_CODE":0,"TOWNNAME":"北區","LI":"長德里","LIN":"8鄰","STREET":"自強街","SECT":" ","MAREA":" ","LANE":" ","ALLEY":" ","HOUSE_NO":"１７１號","E_COORD97":168386.35999999999,"N_COORD97":2544783.96,"ADDRESS":"自強街１７１號","OBJECTID":351226},"geometry":{"x":168386.36000000127,"y":2544783.9600000009}},{"attributes":{"ID":351236,"DIS_CODE":0,"TOWNNAME":"北區","LI":"長德里","LIN":"8鄰","STREET":"自強街","SECT":" ","MAREA":" ","LANE":" ","ALLEY":" ","HOUSE_NO":"１７３號","E_COORD97":168400.41,"N_COORD97":2544792.75,"ADDRESS":"自強街１７３號","OBJECTID":351227},"geometry":{"x":168400.40999999922,"y":2544792.7500000019}},{"attributes":{"ID":351237,"DIS_CODE":0,"TOWNNAME":"北區","LI":"長德里","LIN":"8鄰","STREET":"自強街","SECT":" ","MAREA":" ","LANE":" ","ALLEY":" ","HOUSE_NO":"１７７號","E_COORD97":168395.07000000001,"N_COORD97":2544819.6600000001,"ADDRESS":"自強街１７７號","OBJECTID":351228},"geometry":{"x":168395.07000000123,"y":2544819.6600000001}},{"attributes":{"ID":351238,"DIS_CODE":0,"TOWNNAME":"北區","LI":"長德里","LIN":"8鄰","STREET":"自強街","SECT":" ","MAREA":" ","LANE":" ","ALLEY":" ","HOUSE_NO":"１７９號","E_COORD97":168401.07000000001,"N_COORD97":2544817.0699999998,"ADDRESS":"自強街１７９號","OBJECTID":351229},"geometry":{"x":168401.0700000003,"y":2544817.0700000003}},{"attributes":{"ID":351239,"DIS_CODE":0,"TOWNNAME":"北區","LI":"長德里","LIN":"8鄰","STREET":"自強街","SECT":" ","MAREA":" ","LANE":" ","ALLEY":" ","HOUSE_NO":"１８１號","E_COORD97":168413.82999999999,"N_COORD97":2544807.8599999999,"ADDRESS":"自強街１８１號","OBJECTID":351230},"geometry":{"x":168413.83000000007,"y":2544807.8600000031}},{"attributes":{"ID":351240,"DIS_CODE":0,"TOWNNAME":"關廟區","LI":"松腳里","LIN":"18鄰","STREET":"中山路","SECT":"一段","MAREA":" ","LANE":"８９巷","ALLEY":" ","HOUSE_NO":"９號","E_COORD97":181932.91,"N_COORD97":2539907.2799999998,"ADDRESS":"中山路一段８９巷９號","OBJECTID":351231},"geometry":{"x":181932.91000000015,"y":2539907.2800000012}},{"attributes":{"ID":351241,"DIS_CODE":0,"TOWNNAME":"關廟區","LI":"山西里","LIN":"18鄰","STREET":"崇明街","SECT":" ","MAREA":" ","LANE":"６９巷","ALLEY":" ","HOUSE_NO":"１１號","E_COORD97":180929.57000000001,"N_COORD97":2540805.25,"ADDRESS":"崇明街６９巷１１號","OBJECTID":351232},"geometry":{"x":180929.57000000123,"y":2540805.2500000037}},{"attributes":{"ID":351242,"DIS_CODE":0,"TOWNNAME":"關廟區","LI":"山西里","LIN":"18鄰","STREET":"崇明街","SECT":" ","MAREA":" ","LANE":"６９巷","ALLEY":" ","HOUSE_NO":"３號","E_COORD97":180945.92000000001,"N_COORD97":2540807.25,"ADDRESS":"崇明街６９巷３號","OBJECTID":351233},"geometry":{"x":180945.91999999993,"y":2540807.25}},{"attributes":{"ID":351243,"DIS_CODE":0,"TOWNNAME":"關廟區","LI":"山西里","LIN":"18鄰","STREET":"崇明街","SECT":" ","MAREA":" ","LANE":"６９巷","ALLEY":" ","HOUSE_NO":"８號","E_COORD97":180930.22,"N_COORD97":2540815.25,"ADDRESS":"崇明街６９巷８號","OBJECTID":351234},"geometry":{"x":180930.21999999974,"y":2540815.2500000037}},{"attributes":{"ID":351244,"DIS_CODE":0,"TOWNNAME":"關廟區","LI":"山西里","LIN":"18鄰","STREET":"崇明街","SECT":" ","MAREA":" ","LANE":"６９巷","ALLEY":" ","HOUSE_NO":"１號","E_COORD97":180950.51999999999,"N_COORD97":2540807.25,"ADDRESS":"崇明街６９巷１號","OBJECTID":351235},"geometry":{"x":180950.52000000048,"y":2540807.25}},{"attributes":{"ID":351245,"DIS_CODE":0,"TOWNNAME":"關廟區","LI":"山西里","LIN":"18鄰","STREET":"崇明街","SECT":" ","MAREA":" ","LANE":"６９巷","ALLEY":" ","HOUSE_NO":"２號","E_COORD97":180940.22,"N_COORD97":2540816.25,"ADDRESS":"崇明街６９巷２號","OBJECTID":351236},"geometry":{"x":180940.21999999974,"y":2540816.2500000019}},{"attributes":{"ID":351246,"DIS_CODE":0,"TOWNNAME":"關廟區","LI":"山西里","LIN":"18鄰","STREET":"崇明街","SECT":" ","MAREA":" ","LANE":"６９巷","ALLEY":" ","HOUSE_NO":"７號","E_COORD97":180937.12,"N_COORD97":2540806.25,"ADDRESS":"崇明街６９巷７號","OBJECTID":351237},"geometry":{"x":180937.12000000104,"y":2540806.2500000019}},{"attributes":{"ID":351247,"DIS_CODE":0,"TOWNNAME":"關廟區","LI":"五甲里","LIN":"18鄰","STREET":"五權街","SECT":" ","MAREA":" ","LANE":"２巷","ALLEY":" ","HOUSE_NO":"５２號","E_COORD97":180972.01999999999,"N_COORD97":2539126.25,"ADDRESS":"五權街２巷５２號","OBJECTID":351238},"geometry":{"x":180972.01999999955,"y":2539126.25}},{"attributes":{"ID":351248,"DIS_CODE":0,"TOWNNAME":"關廟區","LI":"五甲里","LIN":"18鄰","STREET":"五權街","SECT":" ","MAREA":" ","LANE":"２巷","ALLEY":" ","HOUSE_NO":"８８號","E_COORD97":180916.82000000001,"N_COORD97":2539104.25,"ADDRESS":"五權街２巷８８號","OBJECTID":351239},"geometry":{"x":180916.81999999937,"y":2539104.2500000019}},{"attributes":{"ID":351249,"DIS_CODE":0,"TOWNNAME":"關廟區","LI":"北花里","LIN":"18鄰","STREET":"中正路","SECT":" ","MAREA":" ","LANE":"５６７巷","ALLEY":" ","HOUSE_NO":"２１號","E_COORD97":182346.03,"N_COORD97":2540418.4700000002,"ADDRESS":"中正路５６７巷２１號","OBJECTID":351240},"geometry":{"x":182346.03000000026,"y":2540418.4700000025}},{"attributes":{"ID":351250,"DIS_CODE":0,"TOWNNAME":"關廟區","LI":"北花里","LIN":"18鄰","STREET":"中正路","SECT":" ","MAREA":" ","LANE":"５６７巷","ALLEY":" ","HOUSE_NO":"９號","E_COORD97":182322.88,"N_COORD97":2540426.4700000002,"ADDRESS":"中正路５６７巷９號","OBJECTID":351241},"geometry":{"x":182322.87999999989,"y":2540426.4700000007}},{"attributes":{"ID":351251,"DIS_CODE":0,"TOWNNAME":"關廟區","LI":"北花里","LIN":"18鄰","STREET":"中正路","SECT":" ","MAREA":" ","LANE":"５６７巷","ALLEY":" ","HOUSE_NO":"２３號","E_COORD97":182350.23000000001,"N_COORD97":2540416.4700000002,"ADDRESS":"中正路５６７巷２３號","OBJECTID":351242},"geometry":{"x":182350.23000000231,"y":2540416.4700000007}},{"attributes":{"ID":351252,"DIS_CODE":0,"TOWNNAME":"關廟區","LI":"北花里","LIN":"18鄰","STREET":"中正路","SECT":" ","MAREA":" ","LANE":"５６７巷","ALLEY":" ","HOUSE_NO":"１１號","E_COORD97":182328.03,"N_COORD97":2540424.4700000002,"ADDRESS":"中正路５６７巷１１號","OBJECTID":351243},"geometry":{"x":182328.03000000119,"y":2540424.4700000044}},{"attributes":{"ID":351253,"DIS_CODE":0,"TOWNNAME":"關廟區","LI":"北花里","LIN":"18鄰","STREET":"中正路","SECT":" ","MAREA":" ","LANE":"５６７巷","ALLEY":" ","HOUSE_NO":"１０號","E_COORD97":182350.67000000001,"N_COORD97":2540405.0699999998,"ADDRESS":"中正路５６７巷１０號","OBJECTID":351244},"geometry":{"x":182350.67000000086,"y":2540405.0700000003}},{"attributes":{"ID":351254,"DIS_CODE":0,"TOWNNAME":"北區","LI":"興南里","LIN":"6鄰","STREET":"公園路","SECT":" ","MAREA":" ","LANE":"３２１巷","ALLEY":" ","HOUSE_NO":"２８號三樓","E_COORD97":168907.12,"N_COORD97":2544997.8599999999,"ADDRESS":"公園路３２１巷２８號三樓","OBJECTID":351245},"geometry":{"x":168907.12000000011,"y":2544997.8600000031}},{"attributes":{"ID":351255,"DIS_CODE":0,"TOWNNAME":"北區","LI":"勝安里","LIN":"6鄰","STREET":"開元路","SECT":" ","MAREA":" ","LANE":"７３巷","ALLEY":" ","HOUSE_NO":"６６號二樓","E_COORD97":169874.62,"N_COORD97":2545364.1699999999,"ADDRESS":"開元路７３巷６６號二樓","OBJECTID":351246},"geometry":{"x":169874.62000000104,"y":2545364.1699999999}},{"attributes":{"ID":351256,"DIS_CODE":0,"TOWNNAME":"北區","LI":"勝安里","LIN":"6鄰","STREET":"開元路","SECT":" ","MAREA":" ","LANE":"７３巷","ALLEY":" ","HOUSE_NO":"６６號三樓","E_COORD97":169874.62,"N_COORD97":2545364.1699999999,"ADDRESS":"開元路７３巷６６號三樓","OBJECTID":351247},"geometry":{"x":169874.62000000104,"y":2545364.1699999999}},{"attributes":{"ID":351257,"DIS_CODE":0,"TOWNNAME":"北區","LI":"勝安里","LIN":"6鄰","STREET":"開元路","SECT":" ","MAREA":" ","LANE":"７３巷","ALLEY":" ","HOUSE_NO":"６６號之１一樓","E_COORD97":169876.20000000001,"N_COORD97":2545358.1800000002,"ADDRESS":"開元路７３巷６６號之１一樓","OBJECTID":351248},"geometry":{"x":169876.20000000019,"y":2545358.1799999997}},{"attributes":{"ID":351258,"DIS_CODE":0,"TOWNNAME":"北區","LI":"長德里","LIN":"8鄰","STREET":"自強街","SECT":" ","MAREA":" ","LANE":" ","ALLEY":" ","HOUSE_NO":"１８３號","E_COORD97":168408.78,"N_COORD97":2544811.71,"ADDRESS":"自強街１８３號","OBJECTID":351249},"geometry":{"x":168408.78000000119,"y":2544811.7100000028}},{"attributes":{"ID":351259,"DIS_CODE":0,"TOWNNAME":"北區","LI":"長德里","LIN":"8鄰","STREET":"自強街","SECT":" ","MAREA":" ","LANE":" ","ALLEY":" ","HOUSE_NO":"１８７號","E_COORD97":168421.64000000001,"N_COORD97":2544816.3599999999,"ADDRESS":"自強街１８７號","OBJECTID":351250},"geometry":{"x":168421.63999999966,"y":2544816.3599999994}},{"attributes":{"ID":351260,"DIS_CODE":0,"TOWNNAME":"北區","LI":"長德里","LIN":"8鄰","STREET":"自強街","SECT":" ","MAREA":" ","LANE":" ","ALLEY":" ","HOUSE_NO":"１９３號","E_COORD97":168428.82999999999,"N_COORD97":2544826.5699999998,"ADDRESS":"自強街１９３號","OBJECTID":351251},"geometry":{"x":168428.83000000101,"y":2544826.5700000003}},{"attributes":{"ID":351261,"DIS_CODE":0,"TOWNNAME":"北區","LI":"長德里","LIN":"8鄰","STREET":"自強街","SECT":" ","MAREA":" ","LANE":" ","ALLEY":" ","HOUSE_NO":"２０７號","E_COORD97":168439.78,"N_COORD97":2544846.3999999999,"ADDRESS":"自強街２０７號","OBJECTID":351252},"geometry":{"x":168439.78000000026,"y":2544846.4000000022}},{"attributes":{"ID":351262,"DIS_CODE":0,"TOWNNAME":"北區","LI":"長德里","LIN":"8鄰","STREET":"自強街","SECT":" ","MAREA":" ","LANE":" ","ALLEY":" ","HOUSE_NO":"２０９號","E_COORD97":168445.32000000001,"N_COORD97":2544854.0099999998,"ADDRESS":"自強街２０９號","OBJECTID":351253},"geometry":{"x":168445.32000000216,"y":2544854.0099999998}},{"attributes":{"ID":351263,"DIS_CODE":0,"TOWNNAME":"北區","LI":"長德里","LIN":"8鄰","STREET":"西門路","SECT":"三段","MAREA":" ","LANE":" ","ALLEY":" ","HOUSE_NO":"１７６號","E_COORD97":168368.13,"N_COORD97":2544795.5099999998,"ADDRESS":"西門路三段１７６號","OBJECTID":351254},"geometry":{"x":168368.12999999896,"y":2544795.5099999998}},{"attributes":{"ID":351264,"DIS_CODE":0,"TOWNNAME":"北區","LI":"長德里","LIN":"8鄰","STREET":"西門路","SECT":"三段","MAREA":" ","LANE":" ","ALLEY":" ","HOUSE_NO":"１７８號","E_COORD97":168368.84,"N_COORD97":2544799.3599999999,"ADDRESS":"西門路三段１７８號","OBJECTID":351255},"geometry":{"x":168368.84000000078,"y":2544799.3599999994}},{"attributes":{"ID":351265,"DIS_CODE":0,"TOWNNAME":"北區","LI":"長德里","LIN":"8鄰","STREET":"西門路","SECT":"三段","MAREA":" ","LANE":" ","ALLEY":" ","HOUSE_NO":"１８２號","E_COORD97":168373.04000000001,"N_COORD97":2544813.7000000002,"ADDRESS":"西門路三段１８２號","OBJECTID":351256},"geometry":{"x":168373.04000000097,"y":2544813.7000000011}},{"attributes":{"ID":351266,"DIS_CODE":0,"TOWNNAME":"北區","LI":"長德里","LIN":"8鄰","STREET":"西門路","SECT":"三段","MAREA":" ","LANE":" ","ALLEY":" ","HOUSE_NO":"１８２號之１","E_COORD97":168377.95000000001,"N_COORD97":2544817.2000000002,"ADDRESS":"西門路三段１８２號之１","OBJECTID":351257},"geometry":{"x":168377.95000000019,"y":2544817.1999999993}},{"attributes":{"ID":351267,"DIS_CODE":0,"TOWNNAME":"北區","LI":"長德里","LIN":"8鄰","STREET":"西門路","SECT":"三段","MAREA":" ","LANE":" ","ALLEY":" ","HOUSE_NO":"１８８號","E_COORD97":168387.06,"N_COORD97":2544824.2000000002,"ADDRESS":"西門路三段１８８號","OBJECTID":351258},"geometry":{"x":168387.06000000145,"y":2544824.1999999993}},{"attributes":{"ID":351268,"DIS_CODE":0,"TOWNNAME":"北區","LI":"長德里","LIN":"8鄰","STREET":"西門路","SECT":"三段","MAREA":" ","LANE":" ","ALLEY":" ","HOUSE_NO":"１９０號","E_COORD97":168388.10999999999,"N_COORD97":2544829.4500000002,"ADDRESS":"西門路三段１９０號","OBJECTID":351259},"geometry":{"x":168388.11000000127,"y":2544829.4499999993}},{"attributes":{"ID":351269,"DIS_CODE":0,"TOWNNAME":"北區","LI":"長德里","LIN":"8鄰","STREET":"西門路","SECT":"三段","MAREA":" ","LANE":" ","ALLEY":" ","HOUSE_NO":"１９２號","E_COORD97":168394.42000000001,"N_COORD97":2544835.75,"ADDRESS":"西門路三段１９２號","OBJECTID":351260},"geometry":{"x":168394.41999999993,"y":2544835.75}},{"attributes":{"ID":351270,"DIS_CODE":0,"TOWNNAME":"歸仁區","LI":"歸仁里","LIN":"8鄰","STREET":"和平北街","SECT":" ","MAREA":" ","LANE":" ","ALLEY":" ","HOUSE_NO":"４０號","E_COORD97":177853.60000000001,"N_COORD97":2540920.48,"ADDRESS":"和平北街４０號","OBJECTID":351261},"geometry":{"x":177853.60000000056,"y":2540920.4800000023}},{"attributes":{"ID":351271,"DIS_CODE":0,"TOWNNAME":"歸仁區","LI":"歸仁里","LIN":"8鄰","STREET":"中山路","SECT":"一段","MAREA":" ","LANE":" ","ALLEY":" ","HOUSE_NO":"５１４號","E_COORD97":177842.48000000001,"N_COORD97":2540763.1800000002,"ADDRESS":"中山路一段５１４號","OBJECTID":351262},"geometry":{"x":177842.47999999952,"y":2540763.1799999997}},{"attributes":{"ID":351272,"DIS_CODE":0,"TOWNNAME":"北區","LI":"成功里","LIN":"18鄰","STREET":"北成路","SECT":" ","MAREA":" ","LANE":"１２８巷","ALLEY":" ","HOUSE_NO":"２５號","E_COORD97":168934.41,"N_COORD97":2546762.6699999999,"ADDRESS":"北成路１２８巷２５號","OBJECTID":351263},"geometry":{"x":168934.40999999922,"y":2546762.6700000037}},{"attributes":{"ID":351273,"DIS_CODE":0,"TOWNNAME":"北區","LI":"成功里","LIN":"18鄰","STREET":"北成路","SECT":" ","MAREA":" ","LANE":"１２８巷","ALLEY":" ","HOUSE_NO":"２７號","E_COORD97":168938.57999999999,"N_COORD97":2546767.4700000002,"ADDRESS":"北成路１２８巷２７號","OBJECTID":351264},"geometry":{"x":168938.58000000101,"y":2546767.4700000007}},{"attributes":{"ID":351274,"DIS_CODE":0,"TOWNNAME":"北區","LI":"成功里","LIN":"18鄰","STREET":"北成路","SECT":" ","MAREA":" ","LANE":"１２８巷","ALLEY":" ","HOUSE_NO":"３１號","E_COORD97":168943.39000000001,"N_COORD97":2546774.8399999999,"ADDRESS":"北成路１２８巷３１號","OBJECTID":351265},"geometry":{"x":168943.3900000006,"y":2546774.8400000036}},{"attributes":{"ID":351275,"DIS_CODE":0,"TOWNNAME":"北區","LI":"成功里","LIN":"18鄰","STREET":"北成路","SECT":" ","MAREA":" ","LANE":"１２８巷","ALLEY":" ","HOUSE_NO":"３３號","E_COORD97":168944.67000000001,"N_COORD97":2546778.6800000002,"ADDRESS":"北成路１２８巷３３號","OBJECTID":351266},"geometry":{"x":168944.67000000086,"y":2546778.6799999997}},{"attributes":{"ID":351276,"DIS_CODE":0,"TOWNNAME":"北區","LI":"成功里","LIN":"18鄰","STREET":"北成路","SECT":" ","MAREA":" ","LANE":"１２８巷","ALLEY":" ","HOUSE_NO":"３５號","E_COORD97":168947.56,"N_COORD97":2546781.8799999999,"ADDRESS":"北成路１２８巷３５號","OBJECTID":351267},"geometry":{"x":168947.55999999959,"y":2546781.8800000008}},{"attributes":{"ID":351277,"DIS_CODE":0,"TOWNNAME":"北區","LI":"成功里","LIN":"18鄰","STREET":"北成路","SECT":" ","MAREA":" ","LANE":"１２８巷","ALLEY":" ","HOUSE_NO":"３７號","E_COORD97":168949.48000000001,"N_COORD97":2546786.6899999999,"ADDRESS":"北成路１２８巷３７號","OBJECTID":351268},"geometry":{"x":168949.48000000045,"y":2546786.6900000013}},{"attributes":{"ID":351278,"DIS_CODE":0,"TOWNNAME":"北區","LI":"成功里","LIN":"18鄰","STREET":"北成路","SECT":" ","MAREA":" ","LANE":"１２８巷","ALLEY":" ","HOUSE_NO":"３９號","E_COORD97":168951.73000000001,"N_COORD97":2546789.8900000001,"ADDRESS":"北成路１２８巷３９號","OBJECTID":351269},"geometry":{"x":168951.73000000138,"y":2546789.8900000025}},{"attributes":{"ID":351279,"DIS_CODE":0,"TOWNNAME":"北區","LI":"力行里","LIN":"18鄰","STREET":"南園街","SECT":" ","MAREA":" ","LANE":"１２７巷","ALLEY":" ","HOUSE_NO":"１２３號","E_COORD97":170869.57999999999,"N_COORD97":2545424.75,"ADDRESS":"南園街１２７巷１２３號","OBJECTID":351270},"geometry":{"x":170869.58000000101,"y":2545424.75}},{"attributes":{"ID":351280,"DIS_CODE":0,"TOWNNAME":"北區","LI":"力行里","LIN":"18鄰","STREET":"南園街","SECT":" ","MAREA":" ","LANE":"１２７巷","ALLEY":" ","HOUSE_NO":"１２５號","E_COORD97":170871.17000000001,"N_COORD97":2545428.2400000002,"ADDRESS":"南園街１２７巷１２５號","OBJECTID":351271},"geometry":{"x":170871.16999999993,"y":2545428.2400000002}},{"attributes":{"ID":351281,"DIS_CODE":0,"TOWNNAME":"北區","LI":"勝安里","LIN":"6鄰","STREET":"開元路","SECT":" ","MAREA":" ","LANE":"７３巷","ALLEY":" ","HOUSE_NO":"６６號之１二樓","E_COORD97":169876.20000000001,"N_COORD97":2545358.1800000002,"ADDRESS":"開元路７３巷６６號之１二樓","OBJECTID":351272},"geometry":{"x":169876.20000000019,"y":2545358.1799999997}},{"attributes":{"ID":351282,"DIS_CODE":0,"TOWNNAME":"北區","LI":"勝安里","LIN":"6鄰","STREET":"開元路","SECT":" ","MAREA":" ","LANE":"７３巷","ALLEY":" ","HOUSE_NO":"６６號之１三樓","E_COORD97":169876.20000000001,"N_COORD97":2545358.1800000002,"ADDRESS":"開元路７３巷６６號之１三樓","OBJECTID":351273},"geometry":{"x":169876.20000000019,"y":2545358.1799999997}},{"attributes":{"ID":351283,"DIS_CODE":0,"TOWNNAME":"北區","LI":"勝安里","LIN":"6鄰","STREET":"開元路","SECT":" ","MAREA":" ","LANE":"７３巷","ALLEY":" ","HOUSE_NO":"６６號之１四樓","E_COORD97":169876.20000000001,"N_COORD97":2545358.1800000002,"ADDRESS":"開元路７３巷６６號之１四樓","OBJECTID":351274},"geometry":{"x":169876.20000000019,"y":2545358.1799999997}},{"attributes":{"ID":351284,"DIS_CODE":0,"TOWNNAME":"北區","LI":"勝安里","LIN":"6鄰","STREET":"開元路","SECT":" ","MAREA":" ","LANE":"７３巷","ALLEY":" ","HOUSE_NO":"６６號之２一樓","E_COORD97":169884.72,"N_COORD97":2545361.1800000002,"ADDRESS":"開元路７３巷６６號之２一樓","OBJECTID":351275},"geometry":{"x":169884.7200000016,"y":2545361.1799999997}},{"attributes":{"ID":351285,"DIS_CODE":0,"TOWNNAME":"北區","LI":"勝安里","LIN":"6鄰","STREET":"開元路","SECT":" ","MAREA":" ","LANE":"７３巷","ALLEY":" ","HOUSE_NO":"６６號之２二樓","E_COORD97":169884.72,"N_COORD97":2545361.1800000002,"ADDRESS":"開元路７３巷６６號之２二樓","OBJECTID":351276},"geometry":{"x":169884.7200000016,"y":2545361.1799999997}},{"attributes":{"ID":351286,"DIS_CODE":0,"TOWNNAME":"北區","LI":"勝安里","LIN":"6鄰","STREET":"開元路","SECT":" ","MAREA":" ","LANE":"７３巷","ALLEY":" ","HOUSE_NO":"６６號之２三樓","E_COORD97":169884.72,"N_COORD97":2545361.1800000002,"ADDRESS":"開元路７３巷６６號之２三樓","OBJECTID":351277},"geometry":{"x":169884.7200000016,"y":2545361.1799999997}},{"attributes":{"ID":351287,"DIS_CODE":0,"TOWNNAME":"北區","LI":"勝安里","LIN":"6鄰","STREET":"開元路","SECT":" ","MAREA":" ","LANE":"７３巷","ALLEY":" ","HOUSE_NO":"６６號之２四樓","E_COORD97":169884.72,"N_COORD97":2545361.1800000002,"ADDRESS":"開元路７３巷６６號之２四樓","OBJECTID":351278},"geometry":{"x":169884.7200000016,"y":2545361.1799999997}},{"attributes":{"ID":351288,"DIS_CODE":0,"TOWNNAME":"北區","LI":"勝安里","LIN":"6鄰","STREET":"開元路","SECT":" ","MAREA":" ","LANE":"７３巷","ALLEY":" ","HOUSE_NO":"６６號之３一樓","E_COORD97":169883.92999999999,"N_COORD97":2545366.3799999999,"ADDRESS":"開元路７３巷６６號之３一樓","OBJECTID":351279},"geometry":{"x":169883.93000000063,"y":2545366.3799999971}},{"attributes":{"ID":351289,"DIS_CODE":0,"TOWNNAME":"北區","LI":"勝安里","LIN":"6鄰","STREET":"開元路","SECT":" ","MAREA":" ","LANE":"７３巷","ALLEY":" ","HOUSE_NO":"６６號之３二樓","E_COORD97":169883.92999999999,"N_COORD97":2545366.3799999999,"ADDRESS":"開元路７３巷６６號之３二樓","OBJECTID":351280},"geometry":{"x":169883.93000000063,"y":2545366.3799999971}},{"attributes":{"ID":351290,"DIS_CODE":0,"TOWNNAME":"北區","LI":"勝安里","LIN":"6鄰","STREET":"開元路","SECT":" ","MAREA":" ","LANE":"７３巷","ALLEY":" ","HOUSE_NO":"６６號之３三樓","E_COORD97":169883.92999999999,"N_COORD97":2545366.3799999999,"ADDRESS":"開元路７３巷６６號之３三樓","OBJECTID":351281},"geometry":{"x":169883.93000000063,"y":2545366.3799999971}},{"attributes":{"ID":351291,"DIS_CODE":0,"TOWNNAME":"北區","LI":"勝安里","LIN":"6鄰","STREET":"開元路","SECT":" ","MAREA":" ","LANE":"７３巷","ALLEY":" ","HOUSE_NO":"６６號之３五樓","E_COORD97":169883.92999999999,"N_COORD97":2545366.3799999999,"ADDRESS":"開元路７３巷６６號之３五樓","OBJECTID":351282},"geometry":{"x":169883.93000000063,"y":2545366.3799999971}},{"attributes":{"ID":351292,"DIS_CODE":0,"TOWNNAME":"北區","LI":"勝安里","LIN":"6鄰","STREET":"開元路","SECT":" ","MAREA":" ","LANE":"７３巷","ALLEY":" ","HOUSE_NO":"６６號五樓","E_COORD97":169874.62,"N_COORD97":2545364.1699999999,"ADDRESS":"開元路７３巷６６號五樓","OBJECTID":351283},"geometry":{"x":169874.62000000104,"y":2545364.1699999999}},{"attributes":{"ID":351293,"DIS_CODE":0,"TOWNNAME":"歸仁區","LI":"歸仁里","LIN":"8鄰","STREET":"和平北街","SECT":" ","MAREA":" ","LANE":" ","ALLEY":" ","HOUSE_NO":"２２號","E_COORD97":177849.48999999999,"N_COORD97":2540840.1699999999,"ADDRESS":"和平北街２２號","OBJECTID":351284},"geometry":{"x":177849.49000000115,"y":2540840.1700000018}},{"attributes":{"ID":351294,"DIS_CODE":0,"TOWNNAME":"歸仁區","LI":"文化里","LIN":"8鄰","STREET":"民權一街","SECT":" ","MAREA":" ","LANE":" ","ALLEY":" ","HOUSE_NO":"３１號","E_COORD97":177139.04999999999,"N_COORD97":2541361.3300000001,"ADDRESS":"民權一街３１號","OBJECTID":351285},"geometry":{"x":177139.04999999981,"y":2541361.3300000019}},{"attributes":{"ID":351295,"DIS_CODE":0,"TOWNNAME":"歸仁區","LI":"許厝里","LIN":"8鄰","STREET":"公園路","SECT":" ","MAREA":" ","LANE":" ","ALLEY":" ","HOUSE_NO":"２０號","E_COORD97":178215.42999999999,"N_COORD97":2540580.7999999998,"ADDRESS":"公園路２０號","OBJECTID":351286},"geometry":{"x":178215.43000000063,"y":2540580.8000000007}},{"attributes":{"ID":351296,"DIS_CODE":0,"TOWNNAME":"歸仁區","LI":"文化里","LIN":"8鄰","STREET":"文化北街","SECT":" ","MAREA":" ","LANE":" ","ALLEY":" ","HOUSE_NO":"１１５號","E_COORD97":177179.51000000001,"N_COORD97":2541402.3399999999,"ADDRESS":"文化北街１１５號","OBJECTID":351287},"geometry":{"x":177179.51000000071,"y":2541402.3400000017}},{"attributes":{"ID":351297,"DIS_CODE":0,"TOWNNAME":"歸仁區","LI":"新厝里","LIN":"8鄰","STREET":"和平南街","SECT":" ","MAREA":" ","LANE":" ","ALLEY":" ","HOUSE_NO":"１０８號","E_COORD97":177799.37,"N_COORD97":2540520.27,"ADDRESS":"和平南街１０８號","OBJECTID":351288},"geometry":{"x":177799.37000000104,"y":2540520.2700000014}},{"attributes":{"ID":351298,"DIS_CODE":0,"TOWNNAME":"歸仁區","LI":"六甲里","LIN":"8鄰","STREET":"中正十五街","SECT":" ","MAREA":" ","LANE":" ","ALLEY":" ","HOUSE_NO":"１０６號","E_COORD97":176491.56,"N_COORD97":2539494.25,"ADDRESS":"中正十五街１０６號","OBJECTID":351289},"geometry":{"x":176491.55999999959,"y":2539494.2500000019}},{"attributes":{"ID":351299,"DIS_CODE":0,"TOWNNAME":"歸仁區","LI":"大廟里","LIN":"8鄰","STREET":"大廟一街","SECT":" ","MAREA":" ","LANE":" ","ALLEY":" ","HOUSE_NO":"８９號","E_COORD97":175786.17000000001,"N_COORD97":2543960.25,"ADDRESS":"大廟一街８９號","OBJECTID":351290},"geometry":{"x":175786.17000000179,"y":2543960.25}},{"attributes":{"ID":351300,"DIS_CODE":0,"TOWNNAME":"歸仁區","LI":"六甲里","LIN":"8鄰","STREET":"中正十五街","SECT":" ","MAREA":" ","LANE":" ","ALLEY":" ","HOUSE_NO":"１００號","E_COORD97":176488.35999999999,"N_COORD97":2539476.25,"ADDRESS":"中正十五街１００號","OBJECTID":351291},"geometry":{"x":176488.36000000034,"y":2539476.2500000037}},{"attributes":{"ID":351301,"DIS_CODE":0,"TOWNNAME":"歸仁區","LI":"看東里","LIN":"8鄰","STREET":"成功一街","SECT":" ","MAREA":" ","LANE":" ","ALLEY":" ","HOUSE_NO":"５１號","E_COORD97":178626.54999999999,"N_COORD97":2540080.4500000002,"ADDRESS":"成功一街５１號","OBJECTID":351292},"geometry":{"x":178626.55000000075,"y":2540080.4499999993}},{"attributes":{"ID":351302,"DIS_CODE":0,"TOWNNAME":"歸仁區","LI":"武東里","LIN":"8鄰","STREET":"武東一街","SECT":" ","MAREA":" ","LANE":" ","ALLEY":" ","HOUSE_NO":"８５號","E_COORD97":175718.94,"N_COORD97":2535543.25,"ADDRESS":"武東一街８５號","OBJECTID":351293},"geometry":{"x":175718.94000000134,"y":2535543.2500000037}},{"attributes":{"ID":351303,"DIS_CODE":0,"TOWNNAME":"歸仁區","LI":"歸仁里","LIN":"8鄰","STREET":"大通路","SECT":" ","MAREA":" ","LANE":" ","ALLEY":" ","HOUSE_NO":"２７號","E_COORD97":177878.04999999999,"N_COORD97":2540853.1800000002,"ADDRESS":"大通路２７號","OBJECTID":351294},"geometry":{"x":177878.04999999981,"y":2540853.1800000016}},{"attributes":{"ID":351304,"DIS_CODE":0,"TOWNNAME":"北區","LI":"力行里","LIN":"18鄰","STREET":"南園街","SECT":" ","MAREA":" ","LANE":"１２７巷","ALLEY":" ","HOUSE_NO":"１３５號","E_COORD97":170880.16,"N_COORD97":2545451.1299999999,"ADDRESS":"南園街１２７巷１３５號","OBJECTID":351295},"geometry":{"x":170880.16000000015,"y":2545451.1300000008}},{"attributes":{"ID":351305,"DIS_CODE":0,"TOWNNAME":"北區","LI":"力行里","LIN":"18鄰","STREET":"南園街","SECT":" ","MAREA":" ","LANE":"１２７巷","ALLEY":" ","HOUSE_NO":"１３５號之１","E_COORD97":170883.25,"N_COORD97":2545456.0800000001,"ADDRESS":"南園街１２７巷１３５號之１","OBJECTID":351296},"geometry":{"x":170883.25000000186,"y":2545456.0800000019}},{"attributes":{"ID":351306,"DIS_CODE":0,"TOWNNAME":"北區","LI":"力行里","LIN":"18鄰","STREET":"南園街","SECT":" ","MAREA":" ","LANE":"１２７巷","ALLEY":" ","HOUSE_NO":"１３５號之２","E_COORD97":170872.88,"N_COORD97":2545457.6299999999,"ADDRESS":"南園街１２７巷１３５號之２","OBJECTID":351297},"geometry":{"x":170872.88000000082,"y":2545457.6300000008}},{"attributes":{"ID":351307,"DIS_CODE":0,"TOWNNAME":"北區","LI":"力行里","LIN":"18鄰","STREET":"南園街","SECT":" ","MAREA":" ","LANE":"１２７巷","ALLEY":" ","HOUSE_NO":"１３５號之３","E_COORD97":170877.82999999999,"N_COORD97":2545462.4199999999,"ADDRESS":"南園街１２７巷１３５號之３","OBJECTID":351298},"geometry":{"x":170877.83000000101,"y":2545462.4200000037}},{"attributes":{"ID":351308,"DIS_CODE":0,"TOWNNAME":"北區","LI":"力行里","LIN":"18鄰","STREET":"南園街","SECT":" ","MAREA":" ","LANE":"１２７巷","ALLEY":" ","HOUSE_NO":"１３９號","E_COORD97":170895.34,"N_COORD97":2545459.8500000001,"ADDRESS":"南園街１２７巷１３９號","OBJECTID":351299},"geometry":{"x":170895.33999999985,"y":2545459.8500000015}},{"attributes":{"ID":351309,"DIS_CODE":0,"TOWNNAME":"北區","LI":"力行里","LIN":"18鄰","STREET":"南園街","SECT":" ","MAREA":" ","LANE":"１２７巷","ALLEY":" ","HOUSE_NO":"１４１號","E_COORD97":170897.20000000001,"N_COORD97":2545462.1699999999,"ADDRESS":"南園街１２７巷１４１號","OBJECTID":351300},"geometry":{"x":170897.19999999925,"y":2545462.1700000018}},{"attributes":{"ID":351310,"DIS_CODE":0,"TOWNNAME":"北區","LI":"力行里","LIN":"18鄰","STREET":"南園街","SECT":" ","MAREA":" ","LANE":"１２７巷","ALLEY":" ","HOUSE_NO":"１４３號","E_COORD97":170899.82999999999,"N_COORD97":2545464.7999999998,"ADDRESS":"南園街１２７巷１４３號","OBJECTID":351301},"geometry":{"x":170899.83000000194,"y":2545464.8000000026}},{"attributes":{"ID":351311,"DIS_CODE":0,"TOWNNAME":"北區","LI":"力行里","LIN":"18鄰","STREET":"南園街","SECT":" ","MAREA":" ","LANE":"１２７巷","ALLEY":" ","HOUSE_NO":"１４５號","E_COORD97":170902.31,"N_COORD97":2545467.7400000002,"ADDRESS":"南園街１２７巷１４５號","OBJECTID":351302},"geometry":{"x":170902.30999999959,"y":2545467.7400000021}},{"attributes":{"ID":351312,"DIS_CODE":0,"TOWNNAME":"北區","LI":"力行里","LIN":"18鄰","STREET":"南園街","SECT":" ","MAREA":" ","LANE":"１２７巷","ALLEY":" ","HOUSE_NO":"１４７號","E_COORD97":170903.70000000001,"N_COORD97":2545470.8300000001,"ADDRESS":"南園街１２７巷１４７號","OBJECTID":351303},"geometry":{"x":170903.70000000019,"y":2545470.8300000019}},{"attributes":{"ID":351313,"DIS_CODE":0,"TOWNNAME":"北區","LI":"力行里","LIN":"18鄰","STREET":"南園街","SECT":" ","MAREA":" ","LANE":"１２７巷","ALLEY":" ","HOUSE_NO":"１４９號","E_COORD97":170906.95999999999,"N_COORD97":2545474.54,"ADDRESS":"南園街１２７巷１４９號","OBJECTID":351304},"geometry":{"x":170906.95999999996,"y":2545474.540000001}},{"attributes":{"ID":351314,"DIS_CODE":0,"TOWNNAME":"中西區","LI":"大涼里","LIN":"25鄰","STREET":"永華一街","SECT":" ","MAREA":" ","LANE":"９６巷","ALLEY":" ","HOUSE_NO":"８號","E_COORD97":166922.59,"N_COORD97":2543449.1899999999,"ADDRESS":"永華一街９６巷８號","OBJECTID":351305},"geometry":{"x":166922.59000000171,"y":2543449.1899999976}},{"attributes":{"ID":351315,"DIS_CODE":0,"TOWNNAME":"中西區","LI":"大涼里","LIN":"25鄰","STREET":"府前路","SECT":"二段","MAREA":" ","LANE":"２３７巷","ALLEY":" ","HOUSE_NO":"６８號","E_COORD97":166974.32000000001,"N_COORD97":2543447.8799999999,"ADDRESS":"府前路二段２３７巷６８號","OBJECTID":351306},"geometry":{"x":166974.32000000123,"y":2543447.8800000008}},{"attributes":{"ID":351316,"DIS_CODE":0,"TOWNNAME":"中西區","LI":"大涼里","LIN":"25鄰","STREET":"府前路","SECT":"二段","MAREA":" ","LANE":"２３７巷","ALLEY":" ","HOUSE_NO":"７０號","E_COORD97":166975.16,"N_COORD97":2543441.5699999998,"ADDRESS":"府前路二段２３７巷７０號","OBJECTID":351307},"geometry":{"x":166975.16000000108,"y":2543441.5700000022}},{"attributes":{"ID":351317,"DIS_CODE":0,"TOWNNAME":"中西區","LI":"大涼里","LIN":"25鄰","STREET":"府前路","SECT":"二段","MAREA":" ","LANE":"２３７巷","ALLEY":" ","HOUSE_NO":"７２號","E_COORD97":166973.37,"N_COORD97":2543432.27,"ADDRESS":"府前路二段２３７巷７２號","OBJECTID":351308},"geometry":{"x":166973.37000000197,"y":2543432.2700000033}},{"attributes":{"ID":351318,"DIS_CODE":0,"TOWNNAME":"歸仁區","LI":"新厝里","LIN":"8鄰","STREET":"和平南街","SECT":" ","MAREA":" ","LANE":" ","ALLEY":" ","HOUSE_NO":"９８號","E_COORD97":177801.22,"N_COORD97":2540536.27,"ADDRESS":"和平南街９８號","OBJECTID":351309},"geometry":{"x":177801.2200000016,"y":2540536.2699999996}},{"attributes":{"ID":351319,"DIS_CODE":0,"TOWNNAME":"歸仁區","LI":"許厝里","LIN":"8鄰","STREET":"仁愛南街","SECT":" ","MAREA":" ","LANE":" ","ALLEY":" ","HOUSE_NO":"６２號","E_COORD97":178261.23000000001,"N_COORD97":2540509.25,"ADDRESS":"仁愛南街６２號","OBJECTID":351310},"geometry":{"x":178261.23000000231,"y":2540509.25}},{"attributes":{"ID":351320,"DIS_CODE":0,"TOWNNAME":"歸仁區","LI":"後市里","LIN":"8鄰","STREET":"中山五街","SECT":" ","MAREA":" ","LANE":" ","ALLEY":" ","HOUSE_NO":"５７號","E_COORD97":177101.48999999999,"N_COORD97":2540672.25,"ADDRESS":"中山五街５７號","OBJECTID":351311},"geometry":{"x":177101.49000000209,"y":2540672.25}},{"attributes":{"ID":351321,"DIS_CODE":0,"TOWNNAME":"歸仁區","LI":"歸仁里","LIN":"8鄰","STREET":"大通一街","SECT":" ","MAREA":" ","LANE":" ","ALLEY":" ","HOUSE_NO":"１１１號","E_COORD97":177891.16,"N_COORD97":2540997.4900000002,"ADDRESS":"大通一街１１１號","OBJECTID":351312},"geometry":{"x":177891.16000000015,"y":2540997.4900000021}},{"attributes":{"ID":351322,"DIS_CODE":0,"TOWNNAME":"歸仁區","LI":"歸仁里","LIN":"8鄰","STREET":"大通一街","SECT":" ","MAREA":" ","LANE":" ","ALLEY":" ","HOUSE_NO":"１１９號","E_COORD97":177887.92000000001,"N_COORD97":2541008.9199999999,"ADDRESS":"大通一街１１９號","OBJECTID":351313},"geometry":{"x":177887.91999999993,"y":2541008.9200000018}},{"attributes":{"ID":351323,"DIS_CODE":0,"TOWNNAME":"歸仁區","LI":"西埔里","LIN":"8鄰","STREET":"保大路","SECT":"二段","MAREA":" ","LANE":" ","ALLEY":" ","HOUSE_NO":"３１２號","E_COORD97":176559.57000000001,"N_COORD97":2544169.2799999998,"ADDRESS":"保大路二段３１２號","OBJECTID":351314},"geometry":{"x":176559.5700000003,"y":2544169.2799999993}},{"attributes":{"ID":351324,"DIS_CODE":0,"TOWNNAME":"歸仁區","LI":"辜厝里","LIN":"8鄰","STREET":"大順二街","SECT":" ","MAREA":" ","LANE":" ","ALLEY":" ","HOUSE_NO":"２６號","E_COORD97":177517.45000000001,"N_COORD97":2540591.1699999999,"ADDRESS":"大順二街２６號","OBJECTID":351315},"geometry":{"x":177517.45000000112,"y":2540591.1699999999}},{"attributes":{"ID":351325,"DIS_CODE":0,"TOWNNAME":"歸仁區","LI":"文化里","LIN":"8鄰","STREET":"文化北街","SECT":" ","MAREA":" ","LANE":" ","ALLEY":" ","HOUSE_NO":"１０１號","E_COORD97":177208.20999999999,"N_COORD97":2541401.3399999999,"ADDRESS":"文化北街１０１號","OBJECTID":351316},"geometry":{"x":177208.21000000183,"y":2541401.3400000017}},{"attributes":{"ID":351326,"DIS_CODE":0,"TOWNNAME":"歸仁區","LI":"八甲里","LIN":"8鄰","STREET":"大明街","SECT":" ","MAREA":" ","LANE":" ","ALLEY":" ","HOUSE_NO":"３８號","E_COORD97":177881.97,"N_COORD97":2541859.6099999999,"ADDRESS":"大明街３８號","OBJECTID":351317},"geometry":{"x":177881.96999999974,"y":2541859.6099999975}},{"attributes":{"ID":351327,"DIS_CODE":0,"TOWNNAME":"安平區","LI":"海頭里","LIN":"18鄰","STREET":"古堡街","SECT":" ","MAREA":" ","LANE":" ","ALLEY":" ","HOUSE_NO":"１０８號","E_COORD97":163870.67999999999,"N_COORD97":2544911.8700000001,"ADDRESS":"古堡街１０８號","OBJECTID":351318},"geometry":{"x":163870.68000000063,"y":2544911.8700000029}},{"attributes":{"ID":351328,"DIS_CODE":0,"TOWNNAME":"玉井區","LI":"玉井里","LIN":"8鄰","STREET":"民生路","SECT":" ","MAREA":" ","LANE":" ","ALLEY":" ","HOUSE_NO":"２８號","E_COORD97":194779.34,"N_COORD97":2558255.29,"ADDRESS":"民生路２８號","OBJECTID":351319},"geometry":{"x":194779.33999999985,"y":2558255.290000001}},{"attributes":{"ID":351329,"DIS_CODE":0,"TOWNNAME":"玉井區","LI":"玉井里","LIN":"8鄰","STREET":"民生路","SECT":" ","MAREA":" ","LANE":" ","ALLEY":" ","HOUSE_NO":"３８號","E_COORD97":194782.42999999999,"N_COORD97":2558272.2799999998,"ADDRESS":"民生路３８號","OBJECTID":351320},"geometry":{"x":194782.43000000063,"y":2558272.2800000012}},{"attributes":{"ID":351330,"DIS_CODE":0,"TOWNNAME":"玉井區","LI":"中正里","LIN":"8鄰","STREET":"健康街","SECT":" ","MAREA":" ","LANE":" ","ALLEY":" ","HOUSE_NO":"５３號","E_COORD97":195579.23000000001,"N_COORD97":2558827.29,"ADDRESS":"健康街５３號","OBJECTID":351321},"geometry":{"x":195579.22999999952,"y":2558827.2900000028}},{"attributes":{"ID":351331,"DIS_CODE":0,"TOWNNAME":"玉井區","LI":"竹圍里","LIN":"8鄰","STREET":"中正路","SECT":" ","MAREA":" ","LANE":" ","ALLEY":" ","HOUSE_NO":"６６６號","E_COORD97":195816.12,"N_COORD97":2558940.8399999999,"ADDRESS":"中正路６６６號","OBJECTID":351322},"geometry":{"x":195816.12000000104,"y":2558940.8400000017}},{"attributes":{"ID":351332,"DIS_CODE":0,"TOWNNAME":"玉井區","LI":"中正里","LIN":"8鄰","STREET":"大埕街","SECT":" ","MAREA":" ","LANE":" ","ALLEY":" ","HOUSE_NO":"５６號","E_COORD97":195520.10999999999,"N_COORD97":2558801.2400000002,"ADDRESS":"大埕街５６號","OBJECTID":351323},"geometry":{"x":195520.11000000034,"y":2558801.2400000002}},{"attributes":{"ID":351333,"DIS_CODE":0,"TOWNNAME":"玉井區","LI":"竹圍里","LIN":"8鄰","STREET":"中正路","SECT":" ","MAREA":" ","LANE":" ","ALLEY":" ","HOUSE_NO":"６６２之１號","E_COORD97":195815.13,"N_COORD97":2558937.4700000002,"ADDRESS":"中正路６６２之１號","OBJECTID":351324},"geometry":{"x":195815.13000000175,"y":2558937.4700000025}},{"attributes":{"ID":351334,"DIS_CODE":0,"TOWNNAME":"玉井區","LI":"竹圍里","LIN":"8鄰","STREET":"武成街","SECT":" ","MAREA":" ","LANE":" ","ALLEY":" ","HOUSE_NO":"６號","E_COORD97":195917.13,"N_COORD97":2559022.4399999999,"ADDRESS":"武成街６號","OBJECTID":351325},"geometry":{"x":195917.13000000082,"y":2559022.4399999995}},{"attributes":{"ID":351335,"DIS_CODE":0,"TOWNNAME":"安平區","LI":"平安里","LIN":"18鄰","STREET":"安平路","SECT":" ","MAREA":" ","LANE":"６０６巷","ALLEY":" ","HOUSE_NO":"２１號","E_COORD97":164849.12,"N_COORD97":2544489.0699999998,"ADDRESS":"安平路６０６巷２１號","OBJECTID":351326},"geometry":{"x":164849.12000000011,"y":2544489.0700000022}},{"attributes":{"ID":351336,"DIS_CODE":0,"TOWNNAME":"安平區","LI":"平安里","LIN":"18鄰","STREET":"安平路","SECT":" ","MAREA":" ","LANE":"６０６巷","ALLEY":" ","HOUSE_NO":"２６號","E_COORD97":164870.03,"N_COORD97":2544502.1299999999,"ADDRESS":"安平路６０６巷２６號","OBJECTID":351327},"geometry":{"x":164870.03000000026,"y":2544502.129999999}},{"attributes":{"ID":351337,"DIS_CODE":0,"TOWNNAME":"佳里區","LI":"三協里","LIN":"9鄰","STREET":" ","SECT":" ","MAREA":"後庄","LANE":" ","ALLEY":" ","HOUSE_NO":"１０號之２３","E_COORD97":168308.57999999999,"N_COORD97":2564645.75,"ADDRESS":"後庄１０號之２３","OBJECTID":351328},"geometry":{"x":168308.58000000101,"y":2564645.75}},{"attributes":{"ID":351338,"DIS_CODE":0,"TOWNNAME":"安平區","LI":"平安里","LIN":"18鄰","STREET":"安平路","SECT":" ","MAREA":" ","LANE":"６０６巷","ALLEY":" ","HOUSE_NO":"２７號","E_COORD97":164856.82000000001,"N_COORD97":2544508.52,"ADDRESS":"安平路６０６巷２７號","OBJECTID":351329},"geometry":{"x":164856.82000000123,"y":2544508.5200000033}},{"attributes":{"ID":351339,"DIS_CODE":0,"TOWNNAME":"安平區","LI":"平安里","LIN":"18鄰","STREET":"安平路","SECT":" ","MAREA":" ","LANE":"６０６巷","ALLEY":" ","HOUSE_NO":"２８號","E_COORD97":164870.41,"N_COORD97":2544507.3900000001,"ADDRESS":"安平路６０６巷２８號","OBJECTID":351330},"geometry":{"x":164870.41000000015,"y":2544507.3900000025}},{"attributes":{"ID":351340,"DIS_CODE":0,"TOWNNAME":"安平區","LI":"平安里","LIN":"18鄰","STREET":"安平路","SECT":" ","MAREA":" ","LANE":"６０６巷","ALLEY":" ","HOUSE_NO":"３０號","E_COORD97":164871.70000000001,"N_COORD97":2544511.4900000002,"ADDRESS":"安平路６０６巷３０號","OBJECTID":351331},"geometry":{"x":164871.70000000112,"y":2544511.4900000002}},{"attributes":{"ID":351341,"DIS_CODE":0,"TOWNNAME":"安平區","LI":"平安里","LIN":"18鄰","STREET":"安平路","SECT":" ","MAREA":" ","LANE":"６０６巷","ALLEY":" ","HOUSE_NO":"３２號","E_COORD97":164876.06,"N_COORD97":2544517.1299999999,"ADDRESS":"安平路６０６巷３２號","OBJECTID":351332},"geometry":{"x":164876.05999999959,"y":2544517.1300000027}},{"attributes":{"ID":351342,"DIS_CODE":0,"TOWNNAME":"安平區","LI":"平安里","LIN":"18鄰","STREET":"安北路","SECT":" ","MAREA":" ","LANE":"１６巷","ALLEY":" ","HOUSE_NO":"１０號","E_COORD97":164726.16,"N_COORD97":2544497.5600000001,"ADDRESS":"安北路１６巷１０號","OBJECTID":351333},"geometry":{"x":164726.16000000108,"y":2544497.5600000005}},{"attributes":{"ID":351343,"DIS_CODE":0,"TOWNNAME":"安平區","LI":"平安里","LIN":"18鄰","STREET":"安北路","SECT":" ","MAREA":" ","LANE":"１６巷","ALLEY":" ","HOUSE_NO":"１２號","E_COORD97":164729.54999999999,"N_COORD97":2544500.52,"ADDRESS":"安北路１６巷１２號","OBJECTID":351334},"geometry":{"x":164729.55000000075,"y":2544500.5199999996}},{"attributes":{"ID":351344,"DIS_CODE":0,"TOWNNAME":"安平區","LI":"平安里","LIN":"18鄰","STREET":"安北路","SECT":" ","MAREA":" ","LANE":"１６巷","ALLEY":" ","HOUSE_NO":"１４號","E_COORD97":164733.35999999999,"N_COORD97":2544504.3300000001,"ADDRESS":"安北路１６巷１４號","OBJECTID":351335},"geometry":{"x":164733.36000000127,"y":2544504.3300000019}},{"attributes":{"ID":351345,"DIS_CODE":0,"TOWNNAME":"安平區","LI":"平安里","LIN":"18鄰","STREET":"安北路","SECT":" ","MAREA":" ","LANE":"１６巷","ALLEY":" ","HOUSE_NO":"１６號","E_COORD97":164737.79999999999,"N_COORD97":2544508.1400000001,"ADDRESS":"安北路１６巷１６號","OBJECTID":351336},"geometry":{"x":164737.80000000075,"y":2544508.1400000006}},{"attributes":{"ID":351346,"DIS_CODE":0,"TOWNNAME":"安平區","LI":"平安里","LIN":"18鄰","STREET":"安北路","SECT":" ","MAREA":" ","LANE":"１６巷","ALLEY":" ","HOUSE_NO":"１８號","E_COORD97":164746.06,"N_COORD97":2544520.29,"ADDRESS":"安北路１６巷１８號","OBJECTID":351337},"geometry":{"x":164746.06000000052,"y":2544520.290000001}},{"attributes":{"ID":351347,"DIS_CODE":0,"TOWNNAME":"北區","LI":"勝安里","LIN":"6鄰","STREET":"開元路","SECT":" ","MAREA":" ","LANE":"７３巷","ALLEY":" ","HOUSE_NO":"６６號四樓","E_COORD97":169874.62,"N_COORD97":2545364.1699999999,"ADDRESS":"開元路７３巷６６號四樓","OBJECTID":351338},"geometry":{"x":169874.62000000104,"y":2545364.1699999999}},{"attributes":{"ID":351348,"DIS_CODE":0,"TOWNNAME":"玉井區","LI":"竹圍里","LIN":"8鄰","STREET":"中正路","SECT":" ","MAREA":" ","LANE":" ","ALLEY":" ","HOUSE_NO":"８７０號","E_COORD97":196130.95000000001,"N_COORD97":2559165.2799999998,"ADDRESS":"中正路８７０號","OBJECTID":351339},"geometry":{"x":196130.95000000112,"y":2559165.2799999993}},{"attributes":{"ID":351349,"DIS_CODE":0,"TOWNNAME":"玉井區","LI":"竹圍里","LIN":"8鄰","STREET":"武成街","SECT":" ","MAREA":" ","LANE":" ","ALLEY":" ","HOUSE_NO":"８５號","E_COORD97":196087.10000000001,"N_COORD97":2559036.27,"ADDRESS":"武成街８５號","OBJECTID":351340},"geometry":{"x":196087.09999999963,"y":2559036.2699999996}},{"attributes":{"ID":351350,"DIS_CODE":0,"TOWNNAME":"玉井區","LI":"中正里","LIN":"8鄰","STREET":"健康街","SECT":" ","MAREA":" ","LANE":" ","ALLEY":" ","HOUSE_NO":"７９號","E_COORD97":195541.23000000001,"N_COORD97":2558870.2999999998,"ADDRESS":"健康街７９號","OBJECTID":351341},"geometry":{"x":195541.23000000045,"y":2558870.3000000026}},{"attributes":{"ID":351351,"DIS_CODE":0,"TOWNNAME":"佳里區","LI":"三協里","LIN":"9鄰","STREET":" ","SECT":" ","MAREA":"後庄","LANE":" ","ALLEY":" ","HOUSE_NO":"１０號之２４","E_COORD97":168309.5,"N_COORD97":2564652.1699999999,"ADDRESS":"後庄１０號之２４","OBJECTID":351342},"geometry":{"x":168309.5,"y":2564652.1699999999}},{"attributes":{"ID":351352,"DIS_CODE":0,"TOWNNAME":"玉井區","LI":"玉井里","LIN":"8鄰","STREET":"民生路","SECT":" ","MAREA":" ","LANE":" ","ALLEY":" ","HOUSE_NO":"３２號","E_COORD97":194780.63,"N_COORD97":2558264.2799999998,"ADDRESS":"民生路３２號","OBJECTID":351343},"geometry":{"x":194780.62999999989,"y":2558264.2799999993}},{"attributes":{"ID":351353,"DIS_CODE":0,"TOWNNAME":"玉井區","LI":"竹圍里","LIN":"8鄰","STREET":"武成街","SECT":" ","MAREA":" ","LANE":" ","ALLEY":" ","HOUSE_NO":"５０號","E_COORD97":196006.09,"N_COORD97":2559017.1400000001,"ADDRESS":"武成街５０號","OBJECTID":351344},"geometry":{"x":196006.08999999985,"y":2559017.1400000025}},{"attributes":{"ID":351354,"DIS_CODE":0,"TOWNNAME":"安平區","LI":"平通里","LIN":"26鄰","STREET":"育平八街","SECT":" ","MAREA":" ","LANE":" ","ALLEY":" ","HOUSE_NO":"４３號","E_COORD97":164529.72,"N_COORD97":2543895.1200000001,"ADDRESS":"育平八街４３號","OBJECTID":351345},"geometry":{"x":164529.7200000016,"y":2543895.120000001}},{"attributes":{"ID":351355,"DIS_CODE":0,"TOWNNAME":"安平區","LI":"平通里","LIN":"26鄰","STREET":"育平八街","SECT":" ","MAREA":" ","LANE":" ","ALLEY":" ","HOUSE_NO":"４５號","E_COORD97":164525.14999999999,"N_COORD97":2543895.1600000001,"ADDRESS":"育平八街４５號","OBJECTID":351346},"geometry":{"x":164525.15000000037,"y":2543895.160000002}},{"attributes":{"ID":351356,"DIS_CODE":0,"TOWNNAME":"玉井區","LI":"竹圍里","LIN":"8鄰","STREET":"武成街","SECT":" ","MAREA":" ","LANE":" ","ALLEY":" ","HOUSE_NO":"１２號","E_COORD97":195931.69,"N_COORD97":2559021.0600000001,"ADDRESS":"武成街１２號","OBJECTID":351347},"geometry":{"x":195931.69000000041,"y":2559021.0600000024}},{"attributes":{"ID":351357,"DIS_CODE":0,"TOWNNAME":"玉井區","LI":"竹圍里","LIN":"8鄰","STREET":"武成街","SECT":" ","MAREA":" ","LANE":" ","ALLEY":" ","HOUSE_NO":"１６號","E_COORD97":195935.26999999999,"N_COORD97":2559020.3799999999,"ADDRESS":"武成街１６號","OBJECTID":351348},"geometry":{"x":195935.26999999955,"y":2559020.3800000008}},{"attributes":{"ID":351358,"DIS_CODE":0,"TOWNNAME":"玉井區","LI":"竹圍里","LIN":"8鄰","STREET":"中正路","SECT":" ","MAREA":" ","LANE":" ","ALLEY":" ","HOUSE_NO":"６６８號","E_COORD97":195819.51000000001,"N_COORD97":2558944.04,"ADDRESS":"中正路６６８號","OBJECTID":351349},"geometry":{"x":195819.51000000071,"y":2558944.0400000028}},{"attributes":{"ID":351359,"DIS_CODE":0,"TOWNNAME":"玉井區","LI":"竹圍里","LIN":"8鄰","STREET":"武成街","SECT":" ","MAREA":" ","LANE":" ","ALLEY":" ","HOUSE_NO":"３６號","E_COORD97":195980.70000000001,"N_COORD97":2559018.1699999999,"ADDRESS":"武成街３６號","OBJECTID":351350},"geometry":{"x":195980.70000000019,"y":2559018.1699999999}},{"attributes":{"ID":351360,"DIS_CODE":0,"TOWNNAME":"玉井區","LI":"竹圍里","LIN":"8鄰","STREET":"武成街","SECT":" ","MAREA":" ","LANE":" ","ALLEY":" ","HOUSE_NO":"６５號","E_COORD97":196047.97,"N_COORD97":2559030.7200000002,"ADDRESS":"武成街６５號","OBJECTID":351351},"geometry":{"x":196047.96999999974,"y":2559030.7200000025}},{"attributes":{"ID":351361,"DIS_CODE":0,"TOWNNAME":"玉井區","LI":"竹圍里","LIN":"8鄰","STREET":"武成街","SECT":" ","MAREA":" ","LANE":" ","ALLEY":" ","HOUSE_NO":"２０號","E_COORD97":195944.17999999999,"N_COORD97":2559019.9100000001,"ADDRESS":"武成街２０號","OBJECTID":351352},"geometry":{"x":195944.18000000063,"y":2559019.9100000001}},{"attributes":{"ID":351362,"DIS_CODE":0,"TOWNNAME":"麻豆區","LI":"寮\u25A0里","LIN":"18鄰","STREET":" ","SECT":" ","MAREA":"寮子\u25A0","LANE":" ","ALLEY":" ","HOUSE_NO":"１４３號","E_COORD97":176503.76000000001,"N_COORD97":2565250.0800000001,"ADDRESS":"寮子\u25A0１４３號","OBJECTID":351353},"geometry":{"x":176503.75999999978,"y":2565250.0800000001}},{"attributes":{"ID":351363,"DIS_CODE":0,"TOWNNAME":"北區","LI":"勝安里","LIN":"6鄰","STREET":"開元路","SECT":" ","MAREA":" ","LANE":"７３巷","ALLEY":" ","HOUSE_NO":"６６號四樓之１","E_COORD97":169874.62,"N_COORD97":2545364.1699999999,"ADDRESS":"開元路７３巷６６號四樓之１","OBJECTID":351354},"geometry":{"x":169874.62000000104,"y":2545364.1699999999}},{"attributes":{"ID":351364,"DIS_CODE":0,"TOWNNAME":"北區","LI":"長榮里","LIN":"6鄰","STREET":"長榮路","SECT":"五段","MAREA":" ","LANE":"４１巷","ALLEY":" ","HOUSE_NO":"２０號四樓之２","E_COORD97":169989.37,"N_COORD97":2545569.0099999998,"ADDRESS":"長榮路五段４１巷２０號四樓之２","OBJECTID":351355},"geometry":{"x":169989.37000000104,"y":2545569.0099999998}},{"attributes":{"ID":351365,"DIS_CODE":0,"TOWNNAME":"北區","LI":"長榮里","LIN":"6鄰","STREET":"長榮路","SECT":"五段","MAREA":" ","LANE":"４１巷","ALLEY":" ","HOUSE_NO":"２０號四樓之３","E_COORD97":169989.37,"N_COORD97":2545569.0099999998,"ADDRESS":"長榮路五段４１巷２０號四樓之３","OBJECTID":351356},"geometry":{"x":169989.37000000104,"y":2545569.0099999998}},{"attributes":{"ID":351366,"DIS_CODE":0,"TOWNNAME":"麻豆區","LI":"寮\u25A0里","LIN":"18鄰","STREET":" ","SECT":" ","MAREA":"寮子\u25A0","LANE":" ","ALLEY":" ","HOUSE_NO":"１４４號","E_COORD97":176533.13,"N_COORD97":2565233.1899999999,"ADDRESS":"寮子\u25A0１４４號","OBJECTID":351357},"geometry":{"x":176533.13000000082,"y":2565233.1900000013}},{"attributes":{"ID":351367,"DIS_CODE":0,"TOWNNAME":"麻豆區","LI":"寮\u25A0里","LIN":"18鄰","STREET":" ","SECT":" ","MAREA":"寮子\u25A0","LANE":" ","ALLEY":" ","HOUSE_NO":"１４５號之１","E_COORD97":176515.23999999999,"N_COORD97":2565202.9500000002,"ADDRESS":"寮子\u25A0１４５號之１","OBJECTID":351358},"geometry":{"x":176515.24000000115,"y":2565202.9499999993}},{"attributes":{"ID":351368,"DIS_CODE":0,"TOWNNAME":"麻豆區","LI":"寮\u25A0里","LIN":"18鄰","STREET":" ","SECT":" ","MAREA":"寮子\u25A0","LANE":" ","ALLEY":" ","HOUSE_NO":"１４５號","E_COORD97":176519.73999999999,"N_COORD97":2565214.4900000002,"ADDRESS":"寮子\u25A0１４５號","OBJECTID":351359},"geometry":{"x":176519.74000000022,"y":2565214.4900000039}},{"attributes":{"ID":351369,"DIS_CODE":0,"TOWNNAME":"麻豆區","LI":"寮\u25A0里","LIN":"18鄰","STREET":" ","SECT":" ","MAREA":"寮子\u25A0","LANE":" ","ALLEY":" ","HOUSE_NO":"１４６號","E_COORD97":176545.82999999999,"N_COORD97":2565209.5699999998,"ADDRESS":"寮子\u25A0１４６號","OBJECTID":351360},"geometry":{"x":176545.83000000007,"y":2565209.5700000003}},{"attributes":{"ID":351370,"DIS_CODE":0,"TOWNNAME":"麻豆區","LI":"寮\u25A0里","LIN":"18鄰","STREET":" ","SECT":" ","MAREA":"寮子\u25A0","LANE":" ","ALLEY":" ","HOUSE_NO":"１４７號之１","E_COORD97":176554.78,"N_COORD97":2565167.04,"ADDRESS":"寮子\u25A0１４７號之１","OBJECTID":351361},"geometry":{"x":176554.78000000026,"y":2565167.040000001}},{"attributes":{"ID":351371,"DIS_CODE":0,"TOWNNAME":"麻豆區","LI":"寮\u25A0里","LIN":"18鄰","STREET":" ","SECT":" ","MAREA":"寮子\u25A0","LANE":" ","ALLEY":" ","HOUSE_NO":"１４７號之２","E_COORD97":176567.57999999999,"N_COORD97":2565154.3700000001,"ADDRESS":"寮子\u25A0１４７號之２","OBJECTID":351362},"geometry":{"x":176567.58000000007,"y":2565154.370000001}},{"attributes":{"ID":351372,"DIS_CODE":0,"TOWNNAME":"麻豆區","LI":"寮\u25A0里","LIN":"18鄰","STREET":" ","SECT":" ","MAREA":"寮子\u25A0","LANE":" ","ALLEY":" ","HOUSE_NO":"１４７號","E_COORD97":176556.03,"N_COORD97":2565192.1600000001,"ADDRESS":"寮子\u25A0１４７號","OBJECTID":351363},"geometry":{"x":176556.03000000119,"y":2565192.1600000001}},{"attributes":{"ID":351373,"DIS_CODE":0,"TOWNNAME":"麻豆區","LI":"寮\u25A0里","LIN":"18鄰","STREET":" ","SECT":" ","MAREA":"寮子\u25A0","LANE":" ","ALLEY":" ","HOUSE_NO":"１４８號之１","E_COORD97":176508.70999999999,"N_COORD97":2565168.25,"ADDRESS":"寮子\u25A0１４８號之１","OBJECTID":351364},"geometry":{"x":176508.71000000089,"y":2565168.2500000037}},{"attributes":{"ID":351374,"DIS_CODE":0,"TOWNNAME":"麻豆區","LI":"寮\u25A0里","LIN":"18鄰","STREET":" ","SECT":" ","MAREA":"寮子\u25A0","LANE":" ","ALLEY":" ","HOUSE_NO":"１４８號","E_COORD97":176516.53,"N_COORD97":2565189.4399999999,"ADDRESS":"寮子\u25A0１４８號","OBJECTID":351365},"geometry":{"x":176516.53000000212,"y":2565189.4399999995}},{"attributes":{"ID":351375,"DIS_CODE":0,"TOWNNAME":"麻豆區","LI":"寮\u25A0里","LIN":"18鄰","STREET":" ","SECT":" ","MAREA":"寮子\u25A0","LANE":" ","ALLEY":" ","HOUSE_NO":"１４９號","E_COORD97":176524.01999999999,"N_COORD97":2565166.9900000002,"ADDRESS":"寮子\u25A0１４９號","OBJECTID":351366},"geometry":{"x":176524.01999999955,"y":2565166.9900000039}},{"attributes":{"ID":351376,"DIS_CODE":0,"TOWNNAME":"麻豆區","LI":"寮\u25A0里","LIN":"18鄰","STREET":" ","SECT":" ","MAREA":"寮子\u25A0","LANE":" ","ALLEY":" ","HOUSE_NO":"１５０號之１","E_COORD97":176539.17999999999,"N_COORD97":2565155.4300000002,"ADDRESS":"寮子\u25A0１５０號之１","OBJECTID":351367},"geometry":{"x":176539.18000000063,"y":2565155.4299999997}},{"attributes":{"ID":351377,"DIS_CODE":0,"TOWNNAME":"北區","LI":"長榮里","LIN":"6鄰","STREET":"長榮路","SECT":"五段","MAREA":" ","LANE":"４１巷","ALLEY":" ","HOUSE_NO":"２０號四樓之５","E_COORD97":169989.37,"N_COORD97":2545569.0099999998,"ADDRESS":"長榮路五段４１巷２０號四樓之５","OBJECTID":351368},"geometry":{"x":169989.37000000104,"y":2545569.0099999998}},{"attributes":{"ID":351378,"DIS_CODE":0,"TOWNNAME":"北區","LI":"長榮里","LIN":"6鄰","STREET":"長榮路","SECT":"五段","MAREA":" ","LANE":"４１巷","ALLEY":" ","HOUSE_NO":"２０號五樓之１","E_COORD97":169989.37,"N_COORD97":2545569.0099999998,"ADDRESS":"長榮路五段４１巷２０號五樓之１","OBJECTID":351369},"geometry":{"x":169989.37000000104,"y":2545569.0099999998}},{"attributes":{"ID":351379,"DIS_CODE":0,"TOWNNAME":"北區","LI":"長榮里","LIN":"6鄰","STREET":"長榮路","SECT":"五段","MAREA":" ","LANE":"４１巷","ALLEY":" ","HOUSE_NO":"２０號五樓之２","E_COORD97":169989.37,"N_COORD97":2545569.0099999998,"ADDRESS":"長榮路五段４１巷２０號五樓之２","OBJECTID":351370},"geometry":{"x":169989.37000000104,"y":2545569.0099999998}},{"attributes":{"ID":351380,"DIS_CODE":0,"TOWNNAME":"麻豆區","LI":"寮\u25A0里","LIN":"18鄰","STREET":" ","SECT":" ","MAREA":"寮子\u25A0","LANE":" ","ALLEY":" ","HOUSE_NO":"１５０號","E_COORD97":176519.26000000001,"N_COORD97":2565149.98,"ADDRESS":"寮子\u25A0１５０號","OBJECTID":351371},"geometry":{"x":176519.25999999978,"y":2565149.9800000004}},{"attributes":{"ID":351381,"DIS_CODE":0,"TOWNNAME":"北區","LI":"長榮里","LIN":"6鄰","STREET":"長榮路","SECT":"五段","MAREA":" ","LANE":"４１巷","ALLEY":" ","HOUSE_NO":"２０號五樓之３","E_COORD97":169989.37,"N_COORD97":2545569.0099999998,"ADDRESS":"長榮路五段４１巷２０號五樓之３","OBJECTID":351372},"geometry":{"x":169989.37000000104,"y":2545569.0099999998}},{"attributes":{"ID":351382,"DIS_CODE":0,"TOWNNAME":"北區","LI":"長榮里","LIN":"6鄰","STREET":"長榮路","SECT":"五段","MAREA":" ","LANE":"４１巷","ALLEY":" ","HOUSE_NO":"２０號五樓之５","E_COORD97":169989.37,"N_COORD97":2545569.0099999998,"ADDRESS":"長榮路五段４１巷２０號五樓之５","OBJECTID":351373},"geometry":{"x":169989.37000000104,"y":2545569.0099999998}},{"attributes":{"ID":351383,"DIS_CODE":0,"TOWNNAME":"新營區","LI":"太北里","LIN":"18鄰","STREET":" ","SECT":" ","MAREA":"太子宮","LANE":" ","ALLEY":" ","HOUSE_NO":"８號之５","E_COORD97":176235.04999999999,"N_COORD97":2577190.1099999999,"ADDRESS":"太子宮８號之５","OBJECTID":351374},"geometry":{"x":176235.05000000075,"y":2577190.1099999994}},{"attributes":{"ID":351384,"DIS_CODE":0,"TOWNNAME":"新營區","LI":"太北里","LIN":"18鄰","STREET":" ","SECT":" ","MAREA":"太子宮","LANE":" ","ALLEY":" ","HOUSE_NO":"８之２７號","E_COORD97":176203,"N_COORD97":2577239,"ADDRESS":"太子宮８之２７號","OBJECTID":351375},"geometry":{"x":176203.00000000093,"y":2577239}},{"attributes":{"ID":351385,"DIS_CODE":0,"TOWNNAME":"歸仁區","LI":"新厝里","LIN":"18鄰","STREET":"中正南路","SECT":"一段","MAREA":" ","LANE":"１８３巷","ALLEY":" ","HOUSE_NO":"９號","E_COORD97":177443.29999999999,"N_COORD97":2540317.21,"ADDRESS":"中正南路一段１８３巷９號","OBJECTID":351376},"geometry":{"x":177443.30000000075,"y":2540317.2100000009}},{"attributes":{"ID":351386,"DIS_CODE":0,"TOWNNAME":"新營區","LI":"太北里","LIN":"18鄰","STREET":" ","SECT":" ","MAREA":"太子宮","LANE":" ","ALLEY":" ","HOUSE_NO":"８之３６號","E_COORD97":176192.70999999999,"N_COORD97":2577226.8700000001,"ADDRESS":"太子宮８之３６號","OBJECTID":351377},"geometry":{"x":176192.70999999903,"y":2577226.870000001}},{"attributes":{"ID":351387,"DIS_CODE":0,"TOWNNAME":"新營區","LI":"太北里","LIN":"18鄰","STREET":" ","SECT":" ","MAREA":"太子宮","LANE":" ","ALLEY":" ","HOUSE_NO":"８之１８號","E_COORD97":176216.25,"N_COORD97":2577227.8599999999,"ADDRESS":"太子宮８之１８號","OBJECTID":351378},"geometry":{"x":176216.25000000186,"y":2577227.8600000013}},{"attributes":{"ID":351388,"DIS_CODE":0,"TOWNNAME":"新營區","LI":"太北里","LIN":"18鄰","STREET":" ","SECT":" ","MAREA":"太子宮","LANE":" ","ALLEY":" ","HOUSE_NO":"８號之１２","E_COORD97":176226.22,"N_COORD97":2577222.27,"ADDRESS":"太子宮８號之１２","OBJECTID":351379},"geometry":{"x":176226.21999999974,"y":2577222.2699999996}},{"attributes":{"ID":351389,"DIS_CODE":0,"TOWNNAME":"新營區","LI":"太北里","LIN":"18鄰","STREET":" ","SECT":" ","MAREA":"太子宮","LANE":" ","ALLEY":" ","HOUSE_NO":"８之３５號","E_COORD97":176191.66,"N_COORD97":2577220.23,"ADDRESS":"太子宮８之３５號","OBJECTID":351380},"geometry":{"x":176191.66000000201,"y":2577220.2300000004}},{"attributes":{"ID":351390,"DIS_CODE":0,"TOWNNAME":"新營區","LI":"太北里","LIN":"18鄰","STREET":" ","SECT":" ","MAREA":"太子宮","LANE":" ","ALLEY":" ","HOUSE_NO":"８之１４號","E_COORD97":176226.5,"N_COORD97":2577232.2400000002,"ADDRESS":"太子宮８之１４號","OBJECTID":351381},"geometry":{"x":176226.50000000186,"y":2577232.2400000021}},{"attributes":{"ID":351391,"DIS_CODE":0,"TOWNNAME":"歸仁區","LI":"看西里","LIN":"18鄰","STREET":"成功五街","SECT":" ","MAREA":" ","LANE":"８８巷","ALLEY":" ","HOUSE_NO":"１４號","E_COORD97":178402.51000000001,"N_COORD97":2539876.3599999999,"ADDRESS":"成功五街８８巷１４號","OBJECTID":351382},"geometry":{"x":178402.50999999978,"y":2539876.3600000013}},{"attributes":{"ID":351392,"DIS_CODE":0,"TOWNNAME":"北區","LI":"長榮里","LIN":"6鄰","STREET":"長榮路","SECT":"五段","MAREA":" ","LANE":"４１巷","ALLEY":" ","HOUSE_NO":"２０號六樓之１","E_COORD97":169989.37,"N_COORD97":2545569.0099999998,"ADDRESS":"長榮路五段４１巷２０號六樓之１","OBJECTID":351383},"geometry":{"x":169989.37000000104,"y":2545569.0099999998}},{"attributes":{"ID":351393,"DIS_CODE":0,"TOWNNAME":"北區","LI":"長榮里","LIN":"6鄰","STREET":"長榮路","SECT":"五段","MAREA":" ","LANE":"４１巷","ALLEY":" ","HOUSE_NO":"２０號六樓之２","E_COORD97":169989.37,"N_COORD97":2545569.0099999998,"ADDRESS":"長榮路五段４１巷２０號六樓之２","OBJECTID":351384},"geometry":{"x":169989.37000000104,"y":2545569.0099999998}},{"attributes":{"ID":351394,"DIS_CODE":0,"TOWNNAME":"北區","LI":"長榮里","LIN":"6鄰","STREET":"長榮路","SECT":"五段","MAREA":" ","LANE":"４１巷","ALLEY":" ","HOUSE_NO":"２０號六樓之３","E_COORD97":169989.37,"N_COORD97":2545569.0099999998,"ADDRESS":"長榮路五段４１巷２０號六樓之３","OBJECTID":351385},"geometry":{"x":169989.37000000104,"y":2545569.0099999998}},{"attributes":{"ID":351395,"DIS_CODE":0,"TOWNNAME":"仁德區","LI":"仁德里","LIN":"10鄰","STREET":"中正路","SECT":"二段","MAREA":" ","LANE":"１２１５巷","ALLEY":" ","HOUSE_NO":"５號","E_COORD97":173248.73999999999,"N_COORD97":2541197.52,"ADDRESS":"中正路二段１２１５巷５號","OBJECTID":351386},"geometry":{"x":173248.74000000115,"y":2541197.5200000014}},{"attributes":{"ID":351396,"DIS_CODE":0,"TOWNNAME":"北區","LI":"長榮里","LIN":"6鄰","STREET":"長榮路","SECT":"五段","MAREA":" ","LANE":"４１巷","ALLEY":" ","HOUSE_NO":"２０號六樓之５","E_COORD97":169989.37,"N_COORD97":2545569.0099999998,"ADDRESS":"長榮路五段４１巷２０號六樓之５","OBJECTID":351387},"geometry":{"x":169989.37000000104,"y":2545569.0099999998}},{"attributes":{"ID":351397,"DIS_CODE":0,"TOWNNAME":"北區","LI":"長榮里","LIN":"6鄰","STREET":"長榮路","SECT":"五段","MAREA":" ","LANE":"４１巷","ALLEY":" ","HOUSE_NO":"２０號七樓之１","E_COORD97":169989.37,"N_COORD97":2545569.0099999998,"ADDRESS":"長榮路五段４１巷２０號七樓之１","OBJECTID":351388},"geometry":{"x":169989.37000000104,"y":2545569.0099999998}},{"attributes":{"ID":351398,"DIS_CODE":0,"TOWNNAME":"玉井區","LI":"竹圍里","LIN":"8鄰","STREET":"武成街","SECT":" ","MAREA":" ","LANE":" ","ALLEY":" ","HOUSE_NO":"２６號","E_COORD97":195953.20000000001,"N_COORD97":2559020.1000000001,"ADDRESS":"武成街２６號","OBJECTID":351389},"geometry":{"x":195953.20000000019,"y":2559020.1000000015}},{"attributes":{"ID":351399,"DIS_CODE":0,"TOWNNAME":"玉井區","LI":"竹圍里","LIN":"8鄰","STREET":"武成街","SECT":" ","MAREA":" ","LANE":" ","ALLEY":" ","HOUSE_NO":"４８號","E_COORD97":196002.04000000001,"N_COORD97":2559017.3100000001,"ADDRESS":"武成街４８號","OBJECTID":351390},"geometry":{"x":196002.04000000004,"y":2559017.3100000005}},{"attributes":{"ID":351400,"DIS_CODE":0,"TOWNNAME":"玉井區","LI":"竹圍里","LIN":"8鄰","STREET":"武成街","SECT":" ","MAREA":" ","LANE":" ","ALLEY":" ","HOUSE_NO":"４０號","E_COORD97":195989.32000000001,"N_COORD97":2559017.52,"ADDRESS":"武成街４０號","OBJECTID":351391},"geometry":{"x":195989.32000000123,"y":2559017.5200000014}},{"attributes":{"ID":351401,"DIS_CODE":0,"TOWNNAME":"新營區","LI":"太北里","LIN":"18鄰","STREET":" ","SECT":" ","MAREA":"太子宮","LANE":" ","ALLEY":" ","HOUSE_NO":"８之２５號","E_COORD97":176207.16,"N_COORD97":2577251.1600000001,"ADDRESS":"太子宮８之２５號","OBJECTID":351392},"geometry":{"x":176207.16000000108,"y":2577251.1600000001}},{"attributes":{"ID":351402,"DIS_CODE":0,"TOWNNAME":"新營區","LI":"太北里","LIN":"18鄰","STREET":" ","SECT":" ","MAREA":"太子宮","LANE":" ","ALLEY":" ","HOUSE_NO":"８之８號","E_COORD97":176217.88,"N_COORD97":2577192.4100000001,"ADDRESS":"太子宮８之８號","OBJECTID":351393},"geometry":{"x":176217.87999999989,"y":2577192.4100000001}},{"attributes":{"ID":351403,"DIS_CODE":0,"TOWNNAME":"新營區","LI":"太北里","LIN":"18鄰","STREET":" ","SECT":" ","MAREA":"太子宮","LANE":" ","ALLEY":" ","HOUSE_NO":"８之２８號","E_COORD97":176202.98000000001,"N_COORD97":2577233.46,"ADDRESS":"太子宮８之２８號","OBJECTID":351394},"geometry":{"x":176202.98000000045,"y":2577233.4600000009}},{"attributes":{"ID":351404,"DIS_CODE":0,"TOWNNAME":"新營區","LI":"太南里","LIN":"18鄰","STREET":" ","SECT":" ","MAREA":"太子宮","LANE":" ","ALLEY":" ","HOUSE_NO":"３０９之９號","E_COORD97":175970.13,"N_COORD97":2576646.5699999998,"ADDRESS":"太子宮３０９之９號","OBJECTID":351395},"geometry":{"x":175970.13000000082,"y":2576646.570000004}},{"attributes":{"ID":351405,"DIS_CODE":0,"TOWNNAME":"新營區","LI":"太南里","LIN":"18鄰","STREET":" ","SECT":" ","MAREA":"太子宮","LANE":" ","ALLEY":" ","HOUSE_NO":"３０９之２４號","E_COORD97":176005.07999999999,"N_COORD97":2576635.3300000001,"ADDRESS":"太子宮３０９之２４號","OBJECTID":351396},"geometry":{"x":176005.08000000007,"y":2576635.3300000019}},{"attributes":{"ID":351406,"DIS_CODE":0,"TOWNNAME":"新營區","LI":"民生里","LIN":"18鄰","STREET":"民治路","SECT":" ","MAREA":" ","LANE":"１８３巷","ALLEY":" ","HOUSE_NO":"２６號","E_COORD97":178886.10999999999,"N_COORD97":2578379.79,"ADDRESS":"民治路１８３巷２６號","OBJECTID":351397},"geometry":{"x":178886.11000000127,"y":2578379.790000001}},{"attributes":{"ID":351407,"DIS_CODE":0,"TOWNNAME":"新營區","LI":"南紙里","LIN":"18鄰","STREET":"南紙街","SECT":" ","MAREA":" ","LANE":"４４巷","ALLEY":" ","HOUSE_NO":"５號","E_COORD97":177766.57999999999,"N_COORD97":2577701.8999999999,"ADDRESS":"南紙街４４巷５號","OBJECTID":351398},"geometry":{"x":177766.58000000007,"y":2577701.9000000041}},{"attributes":{"ID":351408,"DIS_CODE":0,"TOWNNAME":"新營區","LI":"太南里","LIN":"18鄰","STREET":" ","SECT":" ","MAREA":"太子宮","LANE":" ","ALLEY":" ","HOUSE_NO":"３０９之３號","E_COORD97":175986.57999999999,"N_COORD97":2576664.21,"ADDRESS":"太子宮３０９之３號","OBJECTID":351399},"geometry":{"x":175986.58000000007,"y":2576664.2100000028}},{"attributes":{"ID":351409,"DIS_CODE":0,"TOWNNAME":"新營區","LI":"太南里","LIN":"18鄰","STREET":" ","SECT":" ","MAREA":"太子宮","LANE":" ","ALLEY":" ","HOUSE_NO":"３０９之１３號","E_COORD97":175951.79000000001,"N_COORD97":2576616.77,"ADDRESS":"太子宮３０９之１３號","OBJECTID":351400},"geometry":{"x":175951.79000000097,"y":2576616.7699999996}}]}