{"displayFieldName":"TOWNNAME","fieldAliases":{"ID":"ID","DIS_CODE":"DIS_CODE","TOWNNAME":"TOWNNAME","LI":"LI","LIN":"LIN","STREET":"STREET","SECT":"SECT","MAREA":"MAREA","LANE":"LANE","ALLEY":"ALLEY","HOUSE_NO":"HOUSE_NO","E_COORD97":"E_COORD97","N_COORD97":"N_COORD97","ADDRESS":"ADDRESS","OBJECTID":"OBJECTID"},"geometryType":"esriGeometryPoint","spatialReference":{"wkid":102443,"latestWkid":3826},"fields":[{"name":"ID","type":"esriFieldTypeDouble","alias":"ID"},{"name":"DIS_CODE","type":"esriFieldTypeInteger","alias":"DIS_CODE"},{"name":"TOWNNAME","type":"esriFieldTypeString","alias":"TOWNNAME","length":8},{"name":"LI","type":"esriFieldTypeString","alias":"LI","length":8},{"name":"LIN","type":"esriFieldTypeString","alias":"LIN","length":12},{"name":"STREET","type":"esriFieldTypeString","alias":"STREET","length":20},{"name":"SECT","type":"esriFieldTypeString","alias":"SECT","length":8},{"name":"MAREA","type":"esriFieldTypeString","alias":"MAREA","length":12},{"name":"LANE","type":"esriFieldTypeString","alias":"LANE","length":10},{"name":"ALLEY","type":"esriFieldTypeString","alias":"ALLEY","length":10},{"name":"HOUSE_NO","type":"esriFieldTypeString","alias":"HOUSE_NO","length":20},{"name":"E_COORD97","type":"esriFieldTypeDouble","alias":"E_COORD97"},{"name":"N_COORD97","type":"esriFieldTypeDouble","alias":"N_COORD97"},{"name":"ADDRESS","type":"esriFieldTypeString","alias":"ADDRESS","length":50},{"name":"OBJECTID","type":"esriFieldTypeOID","alias":"OBJECTID"}],"features":[{"attributes":{"ID":287407,"DIS_CODE":0,"TOWNNAME":"佳里區","LI":"安西里","LIN":"56鄰","STREET":"佳安北街","SECT":" ","MAREA":" ","LANE":" ","ALLEY":" ","HOUSE_NO":"７５號","E_COORD97":163975.25,"N_COORD97":2562281.48,"ADDRESS":"佳安北街７５號","OBJECTID":287401},"geometry":{"x":163975.24999999907,"y":2562281.4800000004}},{"attributes":{"ID":287408,"DIS_CODE":0,"TOWNNAME":"佳里區","LI":"安西里","LIN":"56鄰","STREET":"佳安北街","SECT":" ","MAREA":" ","LANE":" ","ALLEY":" ","HOUSE_NO":"７７號","E_COORD97":163975.70000000001,"N_COORD97":2562277.2000000002,"ADDRESS":"佳安北街７７號","OBJECTID":287402},"geometry":{"x":163975.70000000019,"y":2562277.2000000011}},{"attributes":{"ID":287409,"DIS_CODE":0,"TOWNNAME":"佳里區","LI":"安西里","LIN":"56鄰","STREET":"佳安北街","SECT":" ","MAREA":" ","LANE":" ","ALLEY":" ","HOUSE_NO":"７號","E_COORD97":164002.73000000001,"N_COORD97":2562395.6699999999,"ADDRESS":"佳安北街７號","OBJECTID":287403},"geometry":{"x":164002.73000000045,"y":2562395.6700000037}},{"attributes":{"ID":287410,"DIS_CODE":0,"TOWNNAME":"佳里區","LI":"安西里","LIN":"56鄰","STREET":"佳安北街","SECT":" ","MAREA":" ","LANE":" ","ALLEY":" ","HOUSE_NO":"９號","E_COORD97":164002.85000000001,"N_COORD97":2562399.6299999999,"ADDRESS":"佳安北街９號","OBJECTID":287404},"geometry":{"x":164002.84999999963,"y":2562399.6300000008}},{"attributes":{"ID":287411,"DIS_CODE":0,"TOWNNAME":"歸仁區","LI":"南保里","LIN":"56鄰","STREET":"民權南路","SECT":" ","MAREA":" ","LANE":" ","ALLEY":" ","HOUSE_NO":"１４８號","E_COORD97":176946.56,"N_COORD97":2540466.25,"ADDRESS":"民權南路１４８號","OBJECTID":287405},"geometry":{"x":176946.56000000052,"y":2540466.2500000037}},{"attributes":{"ID":287412,"DIS_CODE":0,"TOWNNAME":"歸仁區","LI":"南保里","LIN":"56鄰","STREET":"民權南路","SECT":" ","MAREA":" ","LANE":" ","ALLEY":" ","HOUSE_NO":"１６２號","E_COORD97":176952.34,"N_COORD97":2540442.29,"ADDRESS":"民權南路１６２號","OBJECTID":287406},"geometry":{"x":176952.33999999985,"y":2540442.290000001}},{"attributes":{"ID":287413,"DIS_CODE":0,"TOWNNAME":"歸仁區","LI":"南保里","LIN":"56鄰","STREET":"民權南路","SECT":" ","MAREA":" ","LANE":" ","ALLEY":" ","HOUSE_NO":"１４６號","E_COORD97":176954.54000000001,"N_COORD97":2540471.29,"ADDRESS":"民權南路１４６號","OBJECTID":287407},"geometry":{"x":176954.54000000004,"y":2540471.2899999991}},{"attributes":{"ID":287414,"DIS_CODE":0,"TOWNNAME":"歸仁區","LI":"南保里","LIN":"56鄰","STREET":"民權南路","SECT":" ","MAREA":" ","LANE":" ","ALLEY":" ","HOUSE_NO":"１５０號","E_COORD97":176954.44,"N_COORD97":2540463.29,"ADDRESS":"民權南路１５０號","OBJECTID":287408},"geometry":{"x":176954.43999999948,"y":2540463.2899999991}},{"attributes":{"ID":287415,"DIS_CODE":0,"TOWNNAME":"歸仁區","LI":"南保里","LIN":"56鄰","STREET":"民權南路","SECT":" ","MAREA":" ","LANE":" ","ALLEY":" ","HOUSE_NO":"１４０號","E_COORD97":176954.54000000001,"N_COORD97":2540483.29,"ADDRESS":"民權南路１４０號","OBJECTID":287409},"geometry":{"x":176954.54000000004,"y":2540483.290000001}},{"attributes":{"ID":287416,"DIS_CODE":0,"TOWNNAME":"安南區","LI":"海西里","LIN":"10鄰","STREET":"海環街","SECT":" ","MAREA":" ","LANE":"２５６巷","ALLEY":" ","HOUSE_NO":"１１８號","E_COORD97":166368.41,"N_COORD97":2548834,"ADDRESS":"海環街２５６巷１１８號","OBJECTID":287410},"geometry":{"x":166368.41000000108,"y":2548834}},{"attributes":{"ID":287417,"DIS_CODE":0,"TOWNNAME":"安南區","LI":"海西里","LIN":"10鄰","STREET":"海環街","SECT":" ","MAREA":" ","LANE":"２５６巷","ALLEY":" ","HOUSE_NO":"７１號","E_COORD97":166339.10000000001,"N_COORD97":2548798.71,"ADDRESS":"海環街２５６巷７１號","OBJECTID":287411},"geometry":{"x":166339.10000000149,"y":2548798.7100000028}},{"attributes":{"ID":287418,"DIS_CODE":0,"TOWNNAME":"中西區","LI":"光賢里","LIN":"10鄰","STREET":"和善街","SECT":" ","MAREA":" ","LANE":"１２５巷","ALLEY":" ","HOUSE_NO":"１３號","E_COORD97":166865.84,"N_COORD97":2544776.5499999998,"ADDRESS":"和善街１２５巷１３號","OBJECTID":287412},"geometry":{"x":166865.83999999985,"y":2544776.5500000007}},{"attributes":{"ID":287419,"DIS_CODE":0,"TOWNNAME":"中西區","LI":"光賢里","LIN":"10鄰","STREET":"和善街","SECT":" ","MAREA":" ","LANE":"１２５巷","ALLEY":" ","HOUSE_NO":"１５號","E_COORD97":166863.51000000001,"N_COORD97":2544773.3700000001,"ADDRESS":"和善街１２５巷１５號","OBJECTID":287413},"geometry":{"x":166863.50999999885,"y":2544773.3700000029}},{"attributes":{"ID":287420,"DIS_CODE":0,"TOWNNAME":"安南區","LI":"佃東里","LIN":"2鄰","STREET":"海佃路","SECT":"四段","MAREA":" ","LANE":" ","ALLEY":" ","HOUSE_NO":"３２６之１號","E_COORD97":165613.26999999999,"N_COORD97":2551376.3300000001,"ADDRESS":"海佃路四段３２６之１號","OBJECTID":287414},"geometry":{"x":165613.26999999955,"y":2551376.3300000019}},{"attributes":{"ID":287421,"DIS_CODE":0,"TOWNNAME":"安南區","LI":"佃東里","LIN":"2鄰","STREET":"海佃路","SECT":"四段","MAREA":" ","LANE":" ","ALLEY":" ","HOUSE_NO":"３８４號","E_COORD97":165609.10000000001,"N_COORD97":2551489.6699999999,"ADDRESS":"海佃路四段３８４號","OBJECTID":287415},"geometry":{"x":165609.10000000056,"y":2551489.6700000018}},{"attributes":{"ID":287422,"DIS_CODE":0,"TOWNNAME":"安南區","LI":"安和里","LIN":"2鄰","STREET":"府安路","SECT":"三段","MAREA":" ","LANE":" ","ALLEY":" ","HOUSE_NO":"３０１之１號","E_COORD97":169845.72,"N_COORD97":2547720.4500000002,"ADDRESS":"府安路三段３０１之１號","OBJECTID":287416},"geometry":{"x":169845.7200000016,"y":2547720.4500000011}},{"attributes":{"ID":287423,"DIS_CODE":0,"TOWNNAME":"中西區","LI":"光賢里","LIN":"10鄰","STREET":"和善街","SECT":" ","MAREA":" ","LANE":"１２５巷","ALLEY":" ","HOUSE_NO":"１７號","E_COORD97":166860.76000000001,"N_COORD97":2544770.2000000002,"ADDRESS":"和善街１２５巷１７號","OBJECTID":287417},"geometry":{"x":166860.76000000071,"y":2544770.1999999993}},{"attributes":{"ID":287424,"DIS_CODE":0,"TOWNNAME":"善化區","LI":"光文里","LIN":"20鄰","STREET":"建國路","SECT":" ","MAREA":" ","LANE":" ","ALLEY":" ","HOUSE_NO":"９６號","E_COORD97":178007.32000000001,"N_COORD97":2558864.2799999998,"ADDRESS":"建國路９６號","OBJECTID":287418},"geometry":{"x":178007.3200000003,"y":2558864.2799999993}},{"attributes":{"ID":287425,"DIS_CODE":0,"TOWNNAME":"七股區","LI":"竹橋里","LIN":"2鄰","STREET":" ","SECT":" ","MAREA":"竹橋","LANE":" ","ALLEY":" ","HOUSE_NO":"１１號","E_COORD97":164450.98999999999,"N_COORD97":2556035.3700000001,"ADDRESS":"竹橋１１號","OBJECTID":287419},"geometry":{"x":164450.99000000115,"y":2556035.3700000029}},{"attributes":{"ID":287426,"DIS_CODE":0,"TOWNNAME":"七股區","LI":"竹橋里","LIN":"2鄰","STREET":" ","SECT":" ","MAREA":"竹橋","LANE":" ","ALLEY":" ","HOUSE_NO":"１２號","E_COORD97":164431.66,"N_COORD97":2556019.1000000001,"ADDRESS":"竹橋１２號","OBJECTID":287420},"geometry":{"x":164431.66000000015,"y":2556019.1000000015}},{"attributes":{"ID":287427,"DIS_CODE":0,"TOWNNAME":"七股區","LI":"竹橋里","LIN":"2鄰","STREET":" ","SECT":" ","MAREA":"竹橋","LANE":" ","ALLEY":" ","HOUSE_NO":"１３號","E_COORD97":164431.97,"N_COORD97":2556063.1200000001,"ADDRESS":"竹橋１３號","OBJECTID":287421},"geometry":{"x":164431.97000000067,"y":2556063.120000001}},{"attributes":{"ID":287428,"DIS_CODE":0,"TOWNNAME":"七股區","LI":"竹橋里","LIN":"2鄰","STREET":" ","SECT":" ","MAREA":"竹橋","LANE":" ","ALLEY":" ","HOUSE_NO":"１４號","E_COORD97":164415.28,"N_COORD97":2556054.04,"ADDRESS":"竹橋１４號","OBJECTID":287422},"geometry":{"x":164415.28000000119,"y":2556054.0399999991}},{"attributes":{"ID":287429,"DIS_CODE":0,"TOWNNAME":"七股區","LI":"竹橋里","LIN":"2鄰","STREET":" ","SECT":" ","MAREA":"竹橋","LANE":" ","ALLEY":" ","HOUSE_NO":"１５號之１","E_COORD97":164404.97,"N_COORD97":2556005.5800000001,"ADDRESS":"竹橋１５號之１","OBJECTID":287423},"geometry":{"x":164404.97000000067,"y":2556005.5800000038}},{"attributes":{"ID":287430,"DIS_CODE":0,"TOWNNAME":"七股區","LI":"竹橋里","LIN":"2鄰","STREET":" ","SECT":" ","MAREA":"竹橋","LANE":" ","ALLEY":" ","HOUSE_NO":"２２號","E_COORD97":164339.12,"N_COORD97":2556032.0800000001,"ADDRESS":"竹橋２２號","OBJECTID":287424},"geometry":{"x":164339.12000000197,"y":2556032.0800000001}},{"attributes":{"ID":287431,"DIS_CODE":0,"TOWNNAME":"七股區","LI":"竹橋里","LIN":"2鄰","STREET":" ","SECT":" ","MAREA":"竹橋","LANE":" ","ALLEY":" ","HOUSE_NO":"２３號","E_COORD97":164354.01000000001,"N_COORD97":2556039.8599999999,"ADDRESS":"竹橋２３號","OBJECTID":287425},"geometry":{"x":164354.00999999978,"y":2556039.8599999975}},{"attributes":{"ID":287432,"DIS_CODE":0,"TOWNNAME":"七股區","LI":"竹橋里","LIN":"2鄰","STREET":" ","SECT":" ","MAREA":"竹橋","LANE":" ","ALLEY":" ","HOUSE_NO":"２４號","E_COORD97":164388.89000000001,"N_COORD97":2556041.6800000002,"ADDRESS":"竹橋２４號","OBJECTID":287426},"geometry":{"x":164388.88999999966,"y":2556041.6800000034}},{"attributes":{"ID":287433,"DIS_CODE":0,"TOWNNAME":"七股區","LI":"西寮里","LIN":"2鄰","STREET":" ","SECT":" ","MAREA":"西寮","LANE":" ","ALLEY":" ","HOUSE_NO":"１２號","E_COORD97":157461.23999999999,"N_COORD97":2563483.4300000002,"ADDRESS":"西寮１２號","OBJECTID":287427},"geometry":{"x":157461.24000000115,"y":2563483.4300000016}},{"attributes":{"ID":287434,"DIS_CODE":0,"TOWNNAME":"七股區","LI":"西寮里","LIN":"2鄰","STREET":" ","SECT":" ","MAREA":"西寮","LANE":" ","ALLEY":" ","HOUSE_NO":"１３號之１","E_COORD97":157448.25,"N_COORD97":2563503.1099999999,"ADDRESS":"西寮１３號之１","OBJECTID":287428},"geometry":{"x":157448.25,"y":2563503.1099999994}},{"attributes":{"ID":287435,"DIS_CODE":0,"TOWNNAME":"七股區","LI":"西寮里","LIN":"2鄰","STREET":" ","SECT":" ","MAREA":"西寮","LANE":" ","ALLEY":" ","HOUSE_NO":"１３號","E_COORD97":157453.29999999999,"N_COORD97":2563495.0600000001,"ADDRESS":"西寮１３號","OBJECTID":287429},"geometry":{"x":157453.29999999888,"y":2563495.0600000005}},{"attributes":{"ID":287436,"DIS_CODE":0,"TOWNNAME":"七股區","LI":"西寮里","LIN":"2鄰","STREET":" ","SECT":" ","MAREA":"西寮","LANE":" ","ALLEY":" ","HOUSE_NO":"１４號","E_COORD97":157470.29999999999,"N_COORD97":2563504.46,"ADDRESS":"西寮１４號","OBJECTID":287430},"geometry":{"x":157470.30000000168,"y":2563504.4600000028}},{"attributes":{"ID":287437,"DIS_CODE":0,"TOWNNAME":"七股區","LI":"西寮里","LIN":"2鄰","STREET":" ","SECT":" ","MAREA":"西寮","LANE":" ","ALLEY":" ","HOUSE_NO":"１５號之１","E_COORD97":157461.31,"N_COORD97":2563526.1499999999,"ADDRESS":"西寮１５號之１","OBJECTID":287431},"geometry":{"x":157461.30999999959,"y":2563526.1500000022}},{"attributes":{"ID":287438,"DIS_CODE":0,"TOWNNAME":"七股區","LI":"西寮里","LIN":"2鄰","STREET":" ","SECT":" ","MAREA":"西寮","LANE":" ","ALLEY":" ","HOUSE_NO":"１８號","E_COORD97":157453.06,"N_COORD97":2563531.0699999998,"ADDRESS":"西寮１８號","OBJECTID":287432},"geometry":{"x":157453.06000000145,"y":2563531.0700000003}},{"attributes":{"ID":287439,"DIS_CODE":0,"TOWNNAME":"七股區","LI":"西寮里","LIN":"2鄰","STREET":" ","SECT":" ","MAREA":"西寮","LANE":" ","ALLEY":" ","HOUSE_NO":"２０號之１","E_COORD97":157481.28,"N_COORD97":2563522.1299999999,"ADDRESS":"西寮２０號之１","OBJECTID":287433},"geometry":{"x":157481.28000000119,"y":2563522.129999999}},{"attributes":{"ID":287440,"DIS_CODE":0,"TOWNNAME":"七股區","LI":"西寮里","LIN":"2鄰","STREET":" ","SECT":" ","MAREA":"西寮","LANE":" ","ALLEY":" ","HOUSE_NO":"２０號","E_COORD97":157476.13,"N_COORD97":2563537.2400000002,"ADDRESS":"西寮２０號","OBJECTID":287434},"geometry":{"x":157476.12999999989,"y":2563537.2400000002}},{"attributes":{"ID":287441,"DIS_CODE":0,"TOWNNAME":"七股區","LI":"永吉里","LIN":"1鄰","STREET":" ","SECT":" ","MAREA":"永吉","LANE":" ","ALLEY":" ","HOUSE_NO":"１５號","E_COORD97":160646.48999999999,"N_COORD97":2555166.3999999999,"ADDRESS":"永吉１５號","OBJECTID":287435},"geometry":{"x":160646.49000000115,"y":2555166.4000000022}},{"attributes":{"ID":287442,"DIS_CODE":0,"TOWNNAME":"七股區","LI":"城內里","LIN":"2鄰","STREET":" ","SECT":" ","MAREA":"城內","LANE":" ","ALLEY":" ","HOUSE_NO":"１０號之１","E_COORD97":162497.04000000001,"N_COORD97":2563819.9700000002,"ADDRESS":"城內１０號之１","OBJECTID":287436},"geometry":{"x":162497.04000000097,"y":2563819.9700000007}},{"attributes":{"ID":287443,"DIS_CODE":0,"TOWNNAME":"東山區","LI":"青山里","LIN":"8鄰","STREET":" ","SECT":" ","MAREA":"青山","LANE":" ","ALLEY":" ","HOUSE_NO":"６９之９號","E_COORD97":197530.69697300001,"N_COORD97":2575227.5455100001,"ADDRESS":"青山６９之９號","OBJECTID":287437},"geometry":{"x":197530.69697300065,"y":2575227.5455060005}},{"attributes":{"ID":287444,"DIS_CODE":0,"TOWNNAME":"七股區","LI":"城內里","LIN":"2鄰","STREET":" ","SECT":" ","MAREA":"城內","LANE":" ","ALLEY":" ","HOUSE_NO":"１０號之２","E_COORD97":162461.72,"N_COORD97":2563845.2000000002,"ADDRESS":"城內１０號之２","OBJECTID":287438},"geometry":{"x":162461.72000000067,"y":2563845.1999999993}},{"attributes":{"ID":287445,"DIS_CODE":0,"TOWNNAME":"將軍區","LI":"仁和里","LIN":"2鄰","STREET":" ","SECT":" ","MAREA":"仁巷","LANE":" ","ALLEY":" ","HOUSE_NO":"１３之１號","E_COORD97":164141.48000000001,"N_COORD97":2569385.4300000002,"ADDRESS":"仁巷１３之１號","OBJECTID":287439},"geometry":{"x":164141.48000000045,"y":2569385.4300000016}},{"attributes":{"ID":287446,"DIS_CODE":0,"TOWNNAME":"將軍區","LI":"仁和里","LIN":"2鄰","STREET":" ","SECT":" ","MAREA":"仁巷","LANE":" ","ALLEY":" ","HOUSE_NO":"１３之２號","E_COORD97":164111.57000000001,"N_COORD97":2569389.29,"ADDRESS":"仁巷１３之２號","OBJECTID":287440},"geometry":{"x":164111.57000000123,"y":2569389.290000001}},{"attributes":{"ID":287447,"DIS_CODE":0,"TOWNNAME":"將軍區","LI":"仁和里","LIN":"2鄰","STREET":" ","SECT":" ","MAREA":"仁巷","LANE":" ","ALLEY":" ","HOUSE_NO":"１３號","E_COORD97":164118.14000000001,"N_COORD97":2569416.04,"ADDRESS":"仁巷１３號","OBJECTID":287441},"geometry":{"x":164118.14000000153,"y":2569416.0399999991}},{"attributes":{"ID":287448,"DIS_CODE":0,"TOWNNAME":"將軍區","LI":"仁和里","LIN":"2鄰","STREET":" ","SECT":" ","MAREA":"仁巷","LANE":" ","ALLEY":" ","HOUSE_NO":"１４之１號","E_COORD97":164145.09,"N_COORD97":2569364.7400000002,"ADDRESS":"仁巷１４之１號","OBJECTID":287442},"geometry":{"x":164145.08999999985,"y":2569364.7400000002}},{"attributes":{"ID":287449,"DIS_CODE":0,"TOWNNAME":"將軍區","LI":"仁和里","LIN":"2鄰","STREET":" ","SECT":" ","MAREA":"仁巷","LANE":" ","ALLEY":" ","HOUSE_NO":"１４號","E_COORD97":164107.59,"N_COORD97":2569361.8500000001,"ADDRESS":"仁巷１４號","OBJECTID":287443},"geometry":{"x":164107.59000000078,"y":2569361.8500000015}},{"attributes":{"ID":287450,"DIS_CODE":0,"TOWNNAME":"將軍區","LI":"仁和里","LIN":"2鄰","STREET":" ","SECT":" ","MAREA":"仁巷","LANE":" ","ALLEY":" ","HOUSE_NO":"１５號","E_COORD97":164090.28,"N_COORD97":2569364.04,"ADDRESS":"仁巷１５號","OBJECTID":287444},"geometry":{"x":164090.28000000026,"y":2569364.040000001}},{"attributes":{"ID":287451,"DIS_CODE":0,"TOWNNAME":"將軍區","LI":"仁和里","LIN":"2鄰","STREET":" ","SECT":" ","MAREA":"仁巷","LANE":" ","ALLEY":" ","HOUSE_NO":"１７之１號","E_COORD97":164013.51000000001,"N_COORD97":2569375.98,"ADDRESS":"仁巷１７之１號","OBJECTID":287445},"geometry":{"x":164013.50999999978,"y":2569375.9800000023}},{"attributes":{"ID":287452,"DIS_CODE":0,"TOWNNAME":"將軍區","LI":"仁和里","LIN":"2鄰","STREET":" ","SECT":" ","MAREA":"仁巷","LANE":" ","ALLEY":" ","HOUSE_NO":"１７之２號","E_COORD97":164013.41,"N_COORD97":2569371.1499999999,"ADDRESS":"仁巷１７之２號","OBJECTID":287446},"geometry":{"x":164013.41000000201,"y":2569371.1500000022}},{"attributes":{"ID":287453,"DIS_CODE":0,"TOWNNAME":"將軍區","LI":"仁和里","LIN":"2鄰","STREET":" ","SECT":" ","MAREA":"仁巷","LANE":" ","ALLEY":" ","HOUSE_NO":"１７之３號","E_COORD97":164012.76000000001,"N_COORD97":2569367.4199999999,"ADDRESS":"仁巷１７之３號","OBJECTID":287447},"geometry":{"x":164012.76000000071,"y":2569367.4199999999}},{"attributes":{"ID":287454,"DIS_CODE":0,"TOWNNAME":"官田區","LI":"大崎里","LIN":"2鄰","STREET":" ","SECT":" ","MAREA":"大崎","LANE":" ","ALLEY":" ","HOUSE_NO":"１４號之１","E_COORD97":185505.57000000001,"N_COORD97":2565571.1600000001,"ADDRESS":"大崎１４號之１","OBJECTID":287448},"geometry":{"x":185505.5700000003,"y":2565571.1600000001}},{"attributes":{"ID":287455,"DIS_CODE":0,"TOWNNAME":"官田區","LI":"大崎里","LIN":"2鄰","STREET":" ","SECT":" ","MAREA":"大崎","LANE":" ","ALLEY":" ","HOUSE_NO":"１４號之２","E_COORD97":185516.17999999999,"N_COORD97":2565571.3599999999,"ADDRESS":"大崎１４號之２","OBJECTID":287449},"geometry":{"x":185516.17999999877,"y":2565571.3600000013}},{"attributes":{"ID":287456,"DIS_CODE":0,"TOWNNAME":"官田區","LI":"大崎里","LIN":"2鄰","STREET":" ","SECT":" ","MAREA":"大崎","LANE":" ","ALLEY":" ","HOUSE_NO":"１４號之３","E_COORD97":185494.04999999999,"N_COORD97":2565566.1000000001,"ADDRESS":"大崎１４號之３","OBJECTID":287450},"geometry":{"x":185494.05000000075,"y":2565566.1000000015}},{"attributes":{"ID":287457,"DIS_CODE":0,"TOWNNAME":"官田區","LI":"大崎里","LIN":"2鄰","STREET":" ","SECT":" ","MAREA":"大崎","LANE":" ","ALLEY":" ","HOUSE_NO":"１４號","E_COORD97":185534.47,"N_COORD97":2565569.0600000001,"ADDRESS":"大崎１４號","OBJECTID":287451},"geometry":{"x":185534.46999999974,"y":2565569.0600000005}},{"attributes":{"ID":287458,"DIS_CODE":0,"TOWNNAME":"官田區","LI":"大崎里","LIN":"2鄰","STREET":" ","SECT":" ","MAREA":"大崎","LANE":" ","ALLEY":" ","HOUSE_NO":"１５號之１","E_COORD97":185502.47,"N_COORD97":2565539.5699999998,"ADDRESS":"大崎１５號之１","OBJECTID":287452},"geometry":{"x":185502.4700000016,"y":2565539.570000004}},{"attributes":{"ID":287459,"DIS_CODE":0,"TOWNNAME":"官田區","LI":"大崎里","LIN":"2鄰","STREET":" ","SECT":" ","MAREA":"大崎","LANE":" ","ALLEY":" ","HOUSE_NO":"１５號","E_COORD97":185526.07999999999,"N_COORD97":2565539.0099999998,"ADDRESS":"大崎１５號","OBJECTID":287453},"geometry":{"x":185526.08000000101,"y":2565539.0099999998}},{"attributes":{"ID":287460,"DIS_CODE":0,"TOWNNAME":"官田區","LI":"大崎里","LIN":"2鄰","STREET":" ","SECT":" ","MAREA":"大崎","LANE":" ","ALLEY":" ","HOUSE_NO":"１６號","E_COORD97":185543.04000000001,"N_COORD97":2565516.3799999999,"ADDRESS":"大崎１６號","OBJECTID":287454},"geometry":{"x":185543.0400000019,"y":2565516.3800000008}},{"attributes":{"ID":287461,"DIS_CODE":0,"TOWNNAME":"官田區","LI":"大崎里","LIN":"2鄰","STREET":" ","SECT":" ","MAREA":"大崎","LANE":" ","ALLEY":" ","HOUSE_NO":"１７號之１","E_COORD97":185526.44,"N_COORD97":2565497.2999999998,"ADDRESS":"大崎１７號之１","OBJECTID":287455},"geometry":{"x":185526.44000000041,"y":2565497.3000000007}},{"attributes":{"ID":287462,"DIS_CODE":0,"TOWNNAME":"中西區","LI":"光賢里","LIN":"10鄰","STREET":"和善街","SECT":" ","MAREA":" ","LANE":"１２５巷","ALLEY":" ","HOUSE_NO":"１９號","E_COORD97":166858,"N_COORD97":2544767.02,"ADDRESS":"和善街１２５巷１９號","OBJECTID":287456},"geometry":{"x":166858,"y":2544767.0200000014}},{"attributes":{"ID":287463,"DIS_CODE":0,"TOWNNAME":"將軍區","LI":"仁和里","LIN":"2鄰","STREET":" ","SECT":" ","MAREA":"仁巷","LANE":" ","ALLEY":" ","HOUSE_NO":"１７之４號","E_COORD97":164012.20999999999,"N_COORD97":2569362.6800000002,"ADDRESS":"仁巷１７之４號","OBJECTID":287457},"geometry":{"x":164012.20999999996,"y":2569362.6800000016}},{"attributes":{"ID":287464,"DIS_CODE":0,"TOWNNAME":"將軍區","LI":"仁和里","LIN":"2鄰","STREET":" ","SECT":" ","MAREA":"仁巷","LANE":" ","ALLEY":" ","HOUSE_NO":"１７之５號","E_COORD97":164012.10000000001,"N_COORD97":2569358,"ADDRESS":"仁巷１７之５號","OBJECTID":287458},"geometry":{"x":164012.10000000056,"y":2569358.0000000019}},{"attributes":{"ID":287465,"DIS_CODE":0,"TOWNNAME":"將軍區","LI":"仁和里","LIN":"2鄰","STREET":" ","SECT":" ","MAREA":"仁巷","LANE":" ","ALLEY":" ","HOUSE_NO":"１７之６號","E_COORD97":164013.09,"N_COORD97":2569350.2599999998,"ADDRESS":"仁巷１７之６號","OBJECTID":287459},"geometry":{"x":164013.08999999985,"y":2569350.2599999998}},{"attributes":{"ID":287466,"DIS_CODE":0,"TOWNNAME":"將軍區","LI":"仁和里","LIN":"2鄰","STREET":" ","SECT":" ","MAREA":"仁巷","LANE":" ","ALLEY":" ","HOUSE_NO":"１７之７號","E_COORD97":164030.35000000001,"N_COORD97":2569345.4100000001,"ADDRESS":"仁巷１７之７號","OBJECTID":287460},"geometry":{"x":164030.35000000056,"y":2569345.410000002}},{"attributes":{"ID":287467,"DIS_CODE":0,"TOWNNAME":"將軍區","LI":"仁和里","LIN":"2鄰","STREET":" ","SECT":" ","MAREA":"仁巷","LANE":" ","ALLEY":" ","HOUSE_NO":"１７之８號","E_COORD97":164035.10999999999,"N_COORD97":2569345.6400000001,"ADDRESS":"仁巷１７之８號","OBJECTID":287461},"geometry":{"x":164035.11000000127,"y":2569345.6400000006}},{"attributes":{"ID":287468,"DIS_CODE":0,"TOWNNAME":"將軍區","LI":"仁和里","LIN":"2鄰","STREET":" ","SECT":" ","MAREA":"仁巷","LANE":" ","ALLEY":" ","HOUSE_NO":"１７之９號","E_COORD97":164035.56,"N_COORD97":2569371.4199999999,"ADDRESS":"仁巷１７之９號","OBJECTID":287462},"geometry":{"x":164035.56000000145,"y":2569371.4200000037}},{"attributes":{"ID":287469,"DIS_CODE":0,"TOWNNAME":"中西區","LI":"光賢里","LIN":"10鄰","STREET":"和善街","SECT":" ","MAREA":" ","LANE":"１２５巷","ALLEY":" ","HOUSE_NO":"１號","E_COORD97":166883.5,"N_COORD97":2544796.1200000001,"ADDRESS":"和善街１２５巷１號","OBJECTID":287463},"geometry":{"x":166883.5,"y":2544796.120000001}},{"attributes":{"ID":287470,"DIS_CODE":0,"TOWNNAME":"中西區","LI":"光賢里","LIN":"10鄰","STREET":"和善街","SECT":" ","MAREA":" ","LANE":"１２５巷","ALLEY":" ","HOUSE_NO":"２１號","E_COORD97":166855.89000000001,"N_COORD97":2544764.0600000001,"ADDRESS":"和善街１２５巷２１號","OBJECTID":287464},"geometry":{"x":166855.89000000153,"y":2544764.0600000024}},{"attributes":{"ID":287471,"DIS_CODE":0,"TOWNNAME":"中西區","LI":"光賢里","LIN":"10鄰","STREET":"和善街","SECT":" ","MAREA":" ","LANE":"１２５巷","ALLEY":" ","HOUSE_NO":"２３號","E_COORD97":166852.92000000001,"N_COORD97":2544760.6699999999,"ADDRESS":"和善街１２５巷２３號","OBJECTID":287465},"geometry":{"x":166852.92000000086,"y":2544760.6699999999}},{"attributes":{"ID":287472,"DIS_CODE":0,"TOWNNAME":"中西區","LI":"光賢里","LIN":"10鄰","STREET":"和善街","SECT":" ","MAREA":" ","LANE":"１２５巷","ALLEY":" ","HOUSE_NO":"２５號","E_COORD97":166850.17000000001,"N_COORD97":2544757.5,"ADDRESS":"和善街１２５巷２５號","OBJECTID":287466},"geometry":{"x":166850.16999999993,"y":2544757.5000000019}},{"attributes":{"ID":287473,"DIS_CODE":0,"TOWNNAME":"中西區","LI":"光賢里","LIN":"10鄰","STREET":"和善街","SECT":" ","MAREA":" ","LANE":"１２５巷","ALLEY":" ","HOUSE_NO":"２７號","E_COORD97":166847.63,"N_COORD97":2544754.1099999999,"ADDRESS":"和善街１２５巷２７號","OBJECTID":287467},"geometry":{"x":166847.63000000175,"y":2544754.1099999994}},{"attributes":{"ID":287474,"DIS_CODE":0,"TOWNNAME":"中西區","LI":"西賢里","LIN":"2鄰","STREET":"湖美街","SECT":" ","MAREA":" ","LANE":" ","ALLEY":" ","HOUSE_NO":"５３號","E_COORD97":165929.39999999999,"N_COORD97":2544604.1499999999,"ADDRESS":"湖美街５３號","OBJECTID":287468},"geometry":{"x":165929.4000000013,"y":2544604.1500000022}},{"attributes":{"ID":287475,"DIS_CODE":0,"TOWNNAME":"中西區","LI":"西賢里","LIN":"2鄰","STREET":"湖美街","SECT":" ","MAREA":" ","LANE":" ","ALLEY":" ","HOUSE_NO":"５１號","E_COORD97":165928.10000000001,"N_COORD97":2544592.75,"ADDRESS":"湖美街５１號","OBJECTID":287469},"geometry":{"x":165928.09999999963,"y":2544592.7500000019}},{"attributes":{"ID":287476,"DIS_CODE":0,"TOWNNAME":"中西區","LI":"西賢里","LIN":"2鄰","STREET":"湖美街","SECT":" ","MAREA":" ","LANE":" ","ALLEY":" ","HOUSE_NO":"５７號","E_COORD97":165912.45000000001,"N_COORD97":2544597.79,"ADDRESS":"湖美街５７號","OBJECTID":287470},"geometry":{"x":165912.45000000112,"y":2544597.7900000028}},{"attributes":{"ID":287477,"DIS_CODE":0,"TOWNNAME":"安南區","LI":"安和里","LIN":"2鄰","STREET":"府安路","SECT":"三段","MAREA":" ","LANE":" ","ALLEY":" ","HOUSE_NO":"３１７號","E_COORD97":169819.75757399999,"N_COORD97":2547616.81121,"ADDRESS":"府安路三段３１７號","OBJECTID":287471},"geometry":{"x":169819.75757400226,"y":2547616.811209999}},{"attributes":{"ID":287478,"DIS_CODE":0,"TOWNNAME":"安南區","LI":"安和里","LIN":"2鄰","STREET":"府安路","SECT":"三段","MAREA":" ","LANE":" ","ALLEY":" ","HOUSE_NO":"３１６號","E_COORD97":169822.08783999999,"N_COORD97":2547619.35121,"ADDRESS":"府安路三段３１６號","OBJECTID":287472},"geometry":{"x":169822.0878400011,"y":2547619.3512089998}},{"attributes":{"ID":287479,"DIS_CODE":0,"TOWNNAME":"安南區","LI":"安和里","LIN":"2鄰","STREET":"府安路","SECT":"三段","MAREA":" ","LANE":" ","ALLEY":" ","HOUSE_NO":"３１３號","E_COORD97":169828.20999999999,"N_COORD97":2547624.5899999999,"ADDRESS":"府安路三段３１３號","OBJECTID":287473},"geometry":{"x":169828.20999999996,"y":2547624.5900000017}},{"attributes":{"ID":287480,"DIS_CODE":0,"TOWNNAME":"中西區","LI":"光賢里","LIN":"10鄰","STREET":"和善街","SECT":" ","MAREA":" ","LANE":"１２５巷","ALLEY":" ","HOUSE_NO":"２９號","E_COORD97":166845.09,"N_COORD97":2544750.9399999999,"ADDRESS":"和善街１２５巷２９號","OBJECTID":287474},"geometry":{"x":166845.09000000078,"y":2544750.9400000013}},{"attributes":{"ID":287481,"DIS_CODE":0,"TOWNNAME":"中西區","LI":"光賢里","LIN":"10鄰","STREET":"和善街","SECT":" ","MAREA":" ","LANE":"１２５巷","ALLEY":" ","HOUSE_NO":"３１號","E_COORD97":166841.14999999999,"N_COORD97":2544748.2799999998,"ADDRESS":"和善街１２５巷３１號","OBJECTID":287475},"geometry":{"x":166841.14999999944,"y":2544748.2800000012}},{"attributes":{"ID":287482,"DIS_CODE":0,"TOWNNAME":"中西區","LI":"光賢里","LIN":"10鄰","STREET":"和善街","SECT":" ","MAREA":" ","LANE":"１２５巷","ALLEY":" ","HOUSE_NO":"３號","E_COORD97":166880.85999999999,"N_COORD97":2544793.6899999999,"ADDRESS":"和善街１２５巷３號","OBJECTID":287476},"geometry":{"x":166880.86000000127,"y":2544793.6900000013}},{"attributes":{"ID":287483,"DIS_CODE":0,"TOWNNAME":"中西區","LI":"光賢里","LIN":"10鄰","STREET":"和善街","SECT":" ","MAREA":" ","LANE":"１２５巷","ALLEY":" ","HOUSE_NO":"５號","E_COORD97":166878.32000000001,"N_COORD97":2544790.3100000001,"ADDRESS":"和善街１２５巷５號","OBJECTID":287477},"geometry":{"x":166878.3200000003,"y":2544790.3100000024}},{"attributes":{"ID":287484,"DIS_CODE":0,"TOWNNAME":"中西區","LI":"光賢里","LIN":"10鄰","STREET":"和善街","SECT":" ","MAREA":" ","LANE":"１２５巷","ALLEY":" ","HOUSE_NO":"７號","E_COORD97":166875.57000000001,"N_COORD97":2544787.1299999999,"ADDRESS":"和善街１２５巷７號","OBJECTID":287478},"geometry":{"x":166875.56999999937,"y":2544787.129999999}},{"attributes":{"ID":287485,"DIS_CODE":0,"TOWNNAME":"中西區","LI":"光賢里","LIN":"10鄰","STREET":"和善街","SECT":" ","MAREA":" ","LANE":"１２５巷","ALLEY":" ","HOUSE_NO":"９號","E_COORD97":166873.03,"N_COORD97":2544783.96,"ADDRESS":"和善街１２５巷９號","OBJECTID":287479},"geometry":{"x":166873.03000000119,"y":2544783.9600000009}},{"attributes":{"ID":287486,"DIS_CODE":0,"TOWNNAME":"永康區","LI":"\u25A0洲里","LIN":"10鄰","STREET":"\u25A0行路","SECT":" ","MAREA":" ","LANE":"１４６巷","ALLEY":" ","HOUSE_NO":"１０號","E_COORD97":171408.64000000001,"N_COORD97":2549278.7999999998,"ADDRESS":"\u25A0行路１４６巷１０號","OBJECTID":287480},"geometry":{"x":171408.63999999966,"y":2549278.8000000026}},{"attributes":{"ID":287487,"DIS_CODE":0,"TOWNNAME":"永康區","LI":"\u25A0洲里","LIN":"10鄰","STREET":"\u25A0行路","SECT":" ","MAREA":" ","LANE":"１００巷","ALLEY":" ","HOUSE_NO":"３８號","E_COORD97":171452.32000000001,"N_COORD97":2549369.9900000002,"ADDRESS":"\u25A0行路１００巷３８號","OBJECTID":287481},"geometry":{"x":171452.3200000003,"y":2549369.9900000002}},{"attributes":{"ID":287488,"DIS_CODE":0,"TOWNNAME":"永康區","LI":"龍潭里","LIN":"10鄰","STREET":"龍潭街","SECT":" ","MAREA":" ","LANE":"１５１巷","ALLEY":" ","HOUSE_NO":"１０號","E_COORD97":174838.38,"N_COORD97":2548269.6699999999,"ADDRESS":"龍潭街１５１巷１０號","OBJECTID":287482},"geometry":{"x":174838.37999999989,"y":2548269.6699999999}},{"attributes":{"ID":287489,"DIS_CODE":0,"TOWNNAME":"白河區","LI":"竹門里","LIN":"2鄰","STREET":" ","SECT":" ","MAREA":"竹子門","LANE":" ","ALLEY":" ","HOUSE_NO":"１８號","E_COORD97":193579.60000000001,"N_COORD97":2585997.0699999998,"ADDRESS":"竹子門１８號","OBJECTID":287483},"geometry":{"x":193579.60000000056,"y":2585997.070000004}},{"attributes":{"ID":287490,"DIS_CODE":0,"TOWNNAME":"白河區","LI":"竹門里","LIN":"2鄰","STREET":" ","SECT":" ","MAREA":"竹子門","LANE":" ","ALLEY":" ","HOUSE_NO":"１６之１號","E_COORD97":193619.17999999999,"N_COORD97":2586005.7200000002,"ADDRESS":"竹子門１６之１號","OBJECTID":287484},"geometry":{"x":193619.17999999877,"y":2586005.7200000007}},{"attributes":{"ID":287491,"DIS_CODE":0,"TOWNNAME":"安南區","LI":"海西里","LIN":"16鄰","STREET":"海前路","SECT":" ","MAREA":" ","LANE":" ","ALLEY":" ","HOUSE_NO":"１９５號","E_COORD97":166627.866805,"N_COORD97":2548170.89164,"ADDRESS":"海前路１９５號","OBJECTID":287485},"geometry":{"x":166627.86680500116,"y":2548170.8916420005}},{"attributes":{"ID":287492,"DIS_CODE":0,"TOWNNAME":"永康區","LI":"\u25A0洲里","LIN":"10鄰","STREET":"\u25A0行路","SECT":" ","MAREA":" ","LANE":"１００巷","ALLEY":" ","HOUSE_NO":"２號","E_COORD97":171509.48000000001,"N_COORD97":2549294.7400000002,"ADDRESS":"\u25A0行路１００巷２號","OBJECTID":287486},"geometry":{"x":171509.48000000231,"y":2549294.7399999984}},{"attributes":{"ID":287493,"DIS_CODE":0,"TOWNNAME":"善化區","LI":"西關里","LIN":"10鄰","STREET":"復興街","SECT":" ","MAREA":" ","LANE":" ","ALLEY":" ","HOUSE_NO":"３８號","E_COORD97":177002.92999999999,"N_COORD97":2559057.5299999998,"ADDRESS":"復興街３８號","OBJECTID":287487},"geometry":{"x":177002.92999999877,"y":2559057.5300000012}},{"attributes":{"ID":287494,"DIS_CODE":0,"TOWNNAME":"永康區","LI":"\u25A0洲里","LIN":"10鄰","STREET":"\u25A0行路","SECT":" ","MAREA":" ","LANE":"１００巷","ALLEY":" ","HOUSE_NO":"５７號","E_COORD97":171396.45999999999,"N_COORD97":2549393.0600000001,"ADDRESS":"\u25A0行路１００巷５７號","OBJECTID":287488},"geometry":{"x":171396.45999999996,"y":2549393.0600000005}},{"attributes":{"ID":287495,"DIS_CODE":0,"TOWNNAME":"永康區","LI":"\u25A0洲里","LIN":"10鄰","STREET":"\u25A0行路","SECT":" ","MAREA":" ","LANE":"１４６巷","ALLEY":" ","HOUSE_NO":"４號之１","E_COORD97":171433.13,"N_COORD97":2549249.2400000002,"ADDRESS":"\u25A0行路１４６巷４號之１","OBJECTID":287489},"geometry":{"x":171433.13000000175,"y":2549249.2400000002}},{"attributes":{"ID":287496,"DIS_CODE":0,"TOWNNAME":"永康區","LI":"中華里","LIN":"10鄰","STREET":"忠義街","SECT":" ","MAREA":" ","LANE":"１０巷","ALLEY":" ","HOUSE_NO":"３６號","E_COORD97":171836.16,"N_COORD97":2544372.8100000001,"ADDRESS":"忠義街１０巷３６號","OBJECTID":287490},"geometry":{"x":171836.16000000015,"y":2544372.8100000024}},{"attributes":{"ID":287497,"DIS_CODE":0,"TOWNNAME":"永康區","LI":"中華里","LIN":"10鄰","STREET":"忠義街","SECT":" ","MAREA":" ","LANE":"１０巷","ALLEY":" ","HOUSE_NO":"４６號","E_COORD97":171861.23999999999,"N_COORD97":2544372.4100000001,"ADDRESS":"忠義街１０巷４６號","OBJECTID":287491},"geometry":{"x":171861.24000000022,"y":2544372.410000002}},{"attributes":{"ID":287498,"DIS_CODE":0,"TOWNNAME":"永康區","LI":"中華里","LIN":"10鄰","STREET":"忠義街","SECT":" ","MAREA":" ","LANE":"１０巷","ALLEY":" ","HOUSE_NO":"３４號","E_COORD97":171828.54000000001,"N_COORD97":2544370.6699999999,"ADDRESS":"忠義街１０巷３４號","OBJECTID":287492},"geometry":{"x":171828.54000000004,"y":2544370.6699999999}},{"attributes":{"ID":287499,"DIS_CODE":0,"TOWNNAME":"永康區","LI":"中華里","LIN":"10鄰","STREET":"忠義街","SECT":" ","MAREA":" ","LANE":"１０巷","ALLEY":" ","HOUSE_NO":"４２之１號","E_COORD97":171858.97,"N_COORD97":2544372.6499999999,"ADDRESS":"忠義街１０巷４２之１號","OBJECTID":287493},"geometry":{"x":171858.96999999974,"y":2544372.6499999985}},{"attributes":{"ID":287500,"DIS_CODE":0,"TOWNNAME":"新營區","LI":"延平里","LIN":"2鄰","STREET":"延平路","SECT":" ","MAREA":" ","LANE":" ","ALLEY":" ","HOUSE_NO":"４０之１號九樓之２","E_COORD97":179768.48000000001,"N_COORD97":2577845.1899999999,"ADDRESS":"延平路４０之１號九樓之２","OBJECTID":287494},"geometry":{"x":179768.48000000138,"y":2577845.1900000013}},{"attributes":{"ID":287501,"DIS_CODE":0,"TOWNNAME":"新營區","LI":"延平里","LIN":"2鄰","STREET":"延平路","SECT":" ","MAREA":" ","LANE":" ","ALLEY":" ","HOUSE_NO":"４０之２號二樓之３","E_COORD97":179768.44,"N_COORD97":2577845.1899999999,"ADDRESS":"延平路４０之２號二樓之３","OBJECTID":287495},"geometry":{"x":179768.43999999948,"y":2577845.1900000013}},{"attributes":{"ID":287502,"DIS_CODE":0,"TOWNNAME":"永康區","LI":"中華里","LIN":"10鄰","STREET":"忠義街","SECT":" ","MAREA":" ","LANE":"１０巷","ALLEY":" ","HOUSE_NO":"４０號","E_COORD97":171847.59,"N_COORD97":2544372.6200000001,"ADDRESS":"忠義街１０巷４０號","OBJECTID":287496},"geometry":{"x":171847.59000000078,"y":2544372.620000001}},{"attributes":{"ID":287503,"DIS_CODE":0,"TOWNNAME":"永康區","LI":"大灣里","LIN":"10鄰","STREET":"大灣路","SECT":" ","MAREA":" ","LANE":"２１８巷","ALLEY":" ","HOUSE_NO":"１７號","E_COORD97":174929.45000000001,"N_COORD97":2545492.04,"ADDRESS":"大灣路２１８巷１７號","OBJECTID":287497},"geometry":{"x":174929.45000000019,"y":2545492.040000001}},{"attributes":{"ID":287504,"DIS_CODE":0,"TOWNNAME":"中西區","LI":"西湖里","LIN":"10鄰","STREET":"湖美一街","SECT":" ","MAREA":" ","LANE":"２０巷","ALLEY":" ","HOUSE_NO":"１０號","E_COORD97":166107.57999999999,"N_COORD97":2544497,"ADDRESS":"湖美一街２０巷１０號","OBJECTID":287498},"geometry":{"x":166107.58000000101,"y":2544497.0000000019}},{"attributes":{"ID":287505,"DIS_CODE":0,"TOWNNAME":"中西區","LI":"西湖里","LIN":"10鄰","STREET":"湖美一街","SECT":" ","MAREA":" ","LANE":"２０巷","ALLEY":" ","HOUSE_NO":"１１號","E_COORD97":166113.67000000001,"N_COORD97":2544515.71,"ADDRESS":"湖美一街２０巷１１號","OBJECTID":287499},"geometry":{"x":166113.67000000086,"y":2544515.7100000028}},{"attributes":{"ID":287506,"DIS_CODE":0,"TOWNNAME":"中西區","LI":"西湖里","LIN":"10鄰","STREET":"湖美一街","SECT":" ","MAREA":" ","LANE":"２０巷","ALLEY":" ","HOUSE_NO":"１２號","E_COORD97":166114.88,"N_COORD97":2544496.75,"ADDRESS":"湖美一街２０巷１２號","OBJECTID":287500},"geometry":{"x":166114.87999999989,"y":2544496.75}},{"attributes":{"ID":287507,"DIS_CODE":0,"TOWNNAME":"中西區","LI":"西湖里","LIN":"10鄰","STREET":"湖美一街","SECT":" ","MAREA":" ","LANE":"２０巷","ALLEY":" ","HOUSE_NO":"１３號","E_COORD97":166122.42999999999,"N_COORD97":2544515.9500000002,"ADDRESS":"湖美一街２０巷１３號","OBJECTID":287501},"geometry":{"x":166122.43000000063,"y":2544515.9500000011}},{"attributes":{"ID":287508,"DIS_CODE":0,"TOWNNAME":"中西區","LI":"西湖里","LIN":"10鄰","STREET":"湖美一街","SECT":" ","MAREA":" ","LANE":"２７巷","ALLEY":" ","HOUSE_NO":"１號","E_COORD97":166058.42999999999,"N_COORD97":2544495.0299999998,"ADDRESS":"湖美一街２７巷１號","OBJECTID":287502},"geometry":{"x":166058.4299999997,"y":2544495.0300000012}},{"attributes":{"ID":287509,"DIS_CODE":0,"TOWNNAME":"中西區","LI":"西湖里","LIN":"10鄰","STREET":"湖美一街","SECT":" ","MAREA":" ","LANE":"２７巷","ALLEY":" ","HOUSE_NO":"２號","E_COORD97":166058.42999999999,"N_COORD97":2544513.5,"ADDRESS":"湖美一街２７巷２號","OBJECTID":287503},"geometry":{"x":166058.4299999997,"y":2544513.5000000019}},{"attributes":{"ID":287510,"DIS_CODE":0,"TOWNNAME":"中西區","LI":"西湖里","LIN":"10鄰","STREET":"湖美一街","SECT":" ","MAREA":" ","LANE":"２７巷","ALLEY":" ","HOUSE_NO":"３號","E_COORD97":166051.62,"N_COORD97":2544494.54,"ADDRESS":"湖美一街２７巷３號","OBJECTID":287504},"geometry":{"x":166051.62000000104,"y":2544494.5400000028}},{"attributes":{"ID":287511,"DIS_CODE":0,"TOWNNAME":"中西區","LI":"西湖里","LIN":"10鄰","STREET":"湖美一街","SECT":" ","MAREA":" ","LANE":"２７巷","ALLEY":" ","HOUSE_NO":"４號","E_COORD97":166051.13,"N_COORD97":2544513.7400000002,"ADDRESS":"湖美一街２７巷４號","OBJECTID":287505},"geometry":{"x":166051.13000000082,"y":2544513.7400000002}},{"attributes":{"ID":287512,"DIS_CODE":0,"TOWNNAME":"仁德區","LI":"土庫里","LIN":"10鄰","STREET":"土庫路","SECT":" ","MAREA":" ","LANE":"９５巷","ALLEY":" ","HOUSE_NO":"１號","E_COORD97":174289.72,"N_COORD97":2543209,"ADDRESS":"土庫路９５巷１號","OBJECTID":287506},"geometry":{"x":174289.71999999974,"y":2543209}},{"attributes":{"ID":287513,"DIS_CODE":0,"TOWNNAME":"仁德區","LI":"仁義里","LIN":"10鄰","STREET":"中山路","SECT":" ","MAREA":" ","LANE":"５３９巷","ALLEY":" ","HOUSE_NO":"５號底二層","E_COORD97":173486.16,"N_COORD97":2541224.5,"ADDRESS":"中山路５３９巷５號底二層","OBJECTID":287507},"geometry":{"x":173486.16000000201,"y":2541224.5000000019}},{"attributes":{"ID":287514,"DIS_CODE":0,"TOWNNAME":"仁德區","LI":"保安里","LIN":"10鄰","STREET":"中正路","SECT":"一段","MAREA":" ","LANE":"２５１巷","ALLEY":" ","HOUSE_NO":"３２號","E_COORD97":171740.04000000001,"N_COORD97":2536064.7799999998,"ADDRESS":"中正路一段２５１巷３２號","OBJECTID":287508},"geometry":{"x":171740.04000000004,"y":2536064.7800000012}},{"attributes":{"ID":287515,"DIS_CODE":0,"TOWNNAME":"東區","LI":"富強里","LIN":"10鄰","STREET":"中華東路","SECT":"二段","MAREA":" ","LANE":"２２６巷","ALLEY":" ","HOUSE_NO":"５２號","E_COORD97":171108.48000000001,"N_COORD97":2542682.9399999999,"ADDRESS":"中華東路二段２２６巷５２號","OBJECTID":287509},"geometry":{"x":171108.48000000045,"y":2542682.9400000013}},{"attributes":{"ID":287516,"DIS_CODE":0,"TOWNNAME":"安南區","LI":"海佃里","LIN":"10鄰","STREET":"國安街","SECT":" ","MAREA":" ","LANE":"５６巷","ALLEY":" ","HOUSE_NO":"１０１號","E_COORD97":166930.23999999999,"N_COORD97":2547288.8100000001,"ADDRESS":"國安街５６巷１０１號","OBJECTID":287510},"geometry":{"x":166930.23999999929,"y":2547288.8100000024}},{"attributes":{"ID":287517,"DIS_CODE":0,"TOWNNAME":"安南區","LI":"海佃里","LIN":"10鄰","STREET":"國安街","SECT":" ","MAREA":" ","LANE":"５６巷","ALLEY":" ","HOUSE_NO":"１０３號","E_COORD97":166931.57000000001,"N_COORD97":2547293.46,"ADDRESS":"國安街５６巷１０３號","OBJECTID":287511},"geometry":{"x":166931.57000000216,"y":2547293.4600000009}},{"attributes":{"ID":287518,"DIS_CODE":0,"TOWNNAME":"安南區","LI":"海佃里","LIN":"10鄰","STREET":"國安街","SECT":" ","MAREA":" ","LANE":"５６巷","ALLEY":" ","HOUSE_NO":"９５號","E_COORD97":166938.22,"N_COORD97":2547275.52,"ADDRESS":"國安街５６巷９５號","OBJECTID":287512},"geometry":{"x":166938.21999999974,"y":2547275.5200000014}},{"attributes":{"ID":287519,"DIS_CODE":0,"TOWNNAME":"安南區","LI":"海佃里","LIN":"10鄰","STREET":"國安街","SECT":" ","MAREA":" ","LANE":"５６巷","ALLEY":" ","HOUSE_NO":"９９號","E_COORD97":166931.57000000001,"N_COORD97":2547284.1600000001,"ADDRESS":"國安街５６巷９９號","OBJECTID":287513},"geometry":{"x":166931.57000000216,"y":2547284.1600000001}},{"attributes":{"ID":287520,"DIS_CODE":0,"TOWNNAME":"永康區","LI":"二王里","LIN":"10鄰","STREET":"二王路","SECT":" ","MAREA":" ","LANE":"１５５巷","ALLEY":" ","HOUSE_NO":"３２號","E_COORD97":173032.79999999999,"N_COORD97":2546479.0800000001,"ADDRESS":"二王路１５５巷３２號","OBJECTID":287514},"geometry":{"x":173032.80000000075,"y":2546479.0800000019}},{"attributes":{"ID":287521,"DIS_CODE":0,"TOWNNAME":"七股區","LI":"頂山里","LIN":"2鄰","STREET":" ","SECT":" ","MAREA":"頂山","LANE":" ","ALLEY":" ","HOUSE_NO":"１４號","E_COORD97":159080.23999999999,"N_COORD97":2564549.6499999999,"ADDRESS":"頂山１４號","OBJECTID":287515},"geometry":{"x":159080.24000000115,"y":2564549.6500000022}},{"attributes":{"ID":287522,"DIS_CODE":0,"TOWNNAME":"七股區","LI":"頂山里","LIN":"1鄰","STREET":" ","SECT":" ","MAREA":"頂山","LANE":" ","ALLEY":" ","HOUSE_NO":"２號","E_COORD97":159106.35999999999,"N_COORD97":2564627.9700000002,"ADDRESS":"頂山２號","OBJECTID":287516},"geometry":{"x":159106.3600000022,"y":2564627.9700000007}},{"attributes":{"ID":287523,"DIS_CODE":0,"TOWNNAME":"七股區","LI":"玉成里","LIN":"1鄰","STREET":" ","SECT":" ","MAREA":"玉成","LANE":" ","ALLEY":" ","HOUSE_NO":"５號","E_COORD97":161555.10999999999,"N_COORD97":2559909.73,"ADDRESS":"玉成５號","OBJECTID":287517},"geometry":{"x":161555.11000000034,"y":2559909.7300000004}},{"attributes":{"ID":287524,"DIS_CODE":0,"TOWNNAME":"七股區","LI":"竹港里","LIN":"7鄰","STREET":" ","SECT":" ","MAREA":"竹港","LANE":" ","ALLEY":" ","HOUSE_NO":"６２號","E_COORD97":164982.72,"N_COORD97":2556787.27,"ADDRESS":"竹港６２號","OBJECTID":287518},"geometry":{"x":164982.72000000067,"y":2556787.2700000014}},{"attributes":{"ID":287525,"DIS_CODE":0,"TOWNNAME":"七股區","LI":"竹港里","LIN":"7鄰","STREET":" ","SECT":" ","MAREA":"竹港","LANE":" ","ALLEY":" ","HOUSE_NO":"６３號之１","E_COORD97":164942.35000000001,"N_COORD97":2556785.4100000001,"ADDRESS":"竹港６３號之１","OBJECTID":287519},"geometry":{"x":164942.35000000056,"y":2556785.4100000001}},{"attributes":{"ID":287526,"DIS_CODE":0,"TOWNNAME":"七股區","LI":"竹港里","LIN":"7鄰","STREET":" ","SECT":" ","MAREA":"竹港","LANE":" ","ALLEY":" ","HOUSE_NO":"６３號之２","E_COORD97":164951.23000000001,"N_COORD97":2556786.96,"ADDRESS":"竹港６３號之２","OBJECTID":287520},"geometry":{"x":164951.23000000138,"y":2556786.9600000046}},{"attributes":{"ID":287527,"DIS_CODE":0,"TOWNNAME":"七股區","LI":"竹港里","LIN":"7鄰","STREET":" ","SECT":" ","MAREA":"竹港","LANE":" ","ALLEY":" ","HOUSE_NO":"６３號","E_COORD97":164955.78,"N_COORD97":2556787.1000000001,"ADDRESS":"竹港６３號","OBJECTID":287521},"geometry":{"x":164955.78000000119,"y":2556787.0999999996}},{"attributes":{"ID":287528,"DIS_CODE":0,"TOWNNAME":"七股區","LI":"竹港里","LIN":"7鄰","STREET":" ","SECT":" ","MAREA":"竹港","LANE":" ","ALLEY":" ","HOUSE_NO":"６４號","E_COORD97":164952.51000000001,"N_COORD97":2556753.4300000002,"ADDRESS":"竹港６４號","OBJECTID":287522},"geometry":{"x":164952.50999999978,"y":2556753.4300000016}},{"attributes":{"ID":287529,"DIS_CODE":0,"TOWNNAME":"七股區","LI":"竹港里","LIN":"7鄰","STREET":" ","SECT":" ","MAREA":"竹港","LANE":" ","ALLEY":" ","HOUSE_NO":"６５號","E_COORD97":164982.07999999999,"N_COORD97":2556755.2599999998,"ADDRESS":"竹港６５號","OBJECTID":287523},"geometry":{"x":164982.08000000101,"y":2556755.2599999998}},{"attributes":{"ID":287530,"DIS_CODE":0,"TOWNNAME":"永康區","LI":"三合里","LIN":"10鄰","STREET":"南工街","SECT":" ","MAREA":" ","LANE":"２４７巷","ALLEY":" ","HOUSE_NO":"６３號","E_COORD97":171968.23000000001,"N_COORD97":2545681,"ADDRESS":"南工街２４７巷６３號","OBJECTID":287524},"geometry":{"x":171968.23000000045,"y":2545681}},{"attributes":{"ID":287531,"DIS_CODE":0,"TOWNNAME":"永康區","LI":"二王里","LIN":"10鄰","STREET":"二王路","SECT":" ","MAREA":" ","LANE":"１５５巷","ALLEY":" ","HOUSE_NO":"３０號","E_COORD97":173029.13,"N_COORD97":2546481.3300000001,"ADDRESS":"二王路１５５巷３０號","OBJECTID":287525},"geometry":{"x":173029.13000000082,"y":2546481.3300000019}},{"attributes":{"ID":287532,"DIS_CODE":0,"TOWNNAME":"永康區","LI":"二王里","LIN":"10鄰","STREET":"二王路","SECT":" ","MAREA":" ","LANE":"１５５巷","ALLEY":" ","HOUSE_NO":"１６號","E_COORD97":173004.13,"N_COORD97":2546493.9900000002,"ADDRESS":"二王路１５５巷１６號","OBJECTID":287526},"geometry":{"x":173004.12999999989,"y":2546493.9900000021}},{"attributes":{"ID":287533,"DIS_CODE":0,"TOWNNAME":"永康區","LI":"三合里","LIN":"10鄰","STREET":"南工街","SECT":" ","MAREA":" ","LANE":"２４７巷","ALLEY":" ","HOUSE_NO":"４１號","E_COORD97":171961.54000000001,"N_COORD97":2545759.7400000002,"ADDRESS":"南工街２４７巷４１號","OBJECTID":287527},"geometry":{"x":171961.54000000097,"y":2545759.7400000021}},{"attributes":{"ID":287534,"DIS_CODE":0,"TOWNNAME":"永康區","LI":"二王里","LIN":"10鄰","STREET":"二王路","SECT":" ","MAREA":" ","LANE":"１５５巷","ALLEY":" ","HOUSE_NO":"１８號","E_COORD97":173007.91,"N_COORD97":2546491.9900000002,"ADDRESS":"二王路１５５巷１８號","OBJECTID":287528},"geometry":{"x":173007.91000000015,"y":2546491.9900000002}},{"attributes":{"ID":287535,"DIS_CODE":0,"TOWNNAME":"永康區","LI":"二王里","LIN":"10鄰","STREET":"二王路","SECT":" ","MAREA":" ","LANE":"１８１巷","ALLEY":" ","HOUSE_NO":"１３號","E_COORD97":173034.76999999999,"N_COORD97":2546441.2000000002,"ADDRESS":"二王路１８１巷１３號","OBJECTID":287529},"geometry":{"x":173034.76999999955,"y":2546441.1999999993}},{"attributes":{"ID":287536,"DIS_CODE":0,"TOWNNAME":"永康區","LI":"三合里","LIN":"10鄰","STREET":"南工街","SECT":" ","MAREA":" ","LANE":"２４７巷","ALLEY":" ","HOUSE_NO":"６９號","E_COORD97":171971.63,"N_COORD97":2545655.9900000002,"ADDRESS":"南工街２４７巷６９號","OBJECTID":287530},"geometry":{"x":171971.62999999989,"y":2545655.9900000021}},{"attributes":{"ID":287537,"DIS_CODE":0,"TOWNNAME":"永康區","LI":"三合里","LIN":"10鄰","STREET":"南工街","SECT":" ","MAREA":" ","LANE":"２４７巷","ALLEY":" ","HOUSE_NO":"７１號","E_COORD97":171973.26999999999,"N_COORD97":2545644.9900000002,"ADDRESS":"南工街２４７巷７１號","OBJECTID":287531},"geometry":{"x":171973.27000000048,"y":2545644.9899999984}},{"attributes":{"ID":287538,"DIS_CODE":0,"TOWNNAME":"永康區","LI":"二王里","LIN":"10鄰","STREET":"二王路","SECT":" ","MAREA":" ","LANE":"１８１巷","ALLEY":" ","HOUSE_NO":"７號","E_COORD97":173020.20999999999,"N_COORD97":2546441.4500000002,"ADDRESS":"二王路１８１巷７號","OBJECTID":287532},"geometry":{"x":173020.21000000089,"y":2546441.4500000011}},{"attributes":{"ID":287539,"DIS_CODE":0,"TOWNNAME":"永康區","LI":"二王里","LIN":"10鄰","STREET":"二王路","SECT":" ","MAREA":" ","LANE":"１８１巷","ALLEY":" ","HOUSE_NO":"５號","E_COORD97":173005.79999999999,"N_COORD97":2546442.6400000001,"ADDRESS":"二王路１８１巷５號","OBJECTID":287533},"geometry":{"x":173005.80000000075,"y":2546442.6400000025}},{"attributes":{"ID":287540,"DIS_CODE":0,"TOWNNAME":"歸仁區","LI":"辜厝里","LIN":"30鄰","STREET":"大順三街","SECT":" ","MAREA":" ","LANE":" ","ALLEY":" ","HOUSE_NO":"６０號","E_COORD97":177383.26869,"N_COORD97":2540512.0236300002,"ADDRESS":"大順三街６０號","OBJECTID":287534},"geometry":{"x":177383.26869000122,"y":2540512.0236300007}},{"attributes":{"ID":287541,"DIS_CODE":0,"TOWNNAME":"永康區","LI":"二王里","LIN":"10鄰","STREET":"二王路","SECT":" ","MAREA":" ","LANE":"１５５巷","ALLEY":" ","HOUSE_NO":"２８號","E_COORD97":173024.63,"N_COORD97":2546483.3300000001,"ADDRESS":"二王路１５５巷２８號","OBJECTID":287535},"geometry":{"x":173024.62999999989,"y":2546483.3299999982}},{"attributes":{"ID":287542,"DIS_CODE":0,"TOWNNAME":"七股區","LI":"竹港里","LIN":"7鄰","STREET":" ","SECT":" ","MAREA":"竹港","LANE":" ","ALLEY":" ","HOUSE_NO":"６６號之１０","E_COORD97":164980,"N_COORD97":2556715.7799999998,"ADDRESS":"竹港６６號之１０","OBJECTID":287536},"geometry":{"x":164980,"y":2556715.7800000012}},{"attributes":{"ID":287543,"DIS_CODE":0,"TOWNNAME":"七股區","LI":"竹港里","LIN":"7鄰","STREET":" ","SECT":" ","MAREA":"竹港","LANE":" ","ALLEY":" ","HOUSE_NO":"６６號之１","E_COORD97":164946.70999999999,"N_COORD97":2556716.6600000001,"ADDRESS":"竹港６６號之１","OBJECTID":287537},"geometry":{"x":164946.70999999996,"y":2556716.6599999983}},{"attributes":{"ID":287544,"DIS_CODE":0,"TOWNNAME":"七股區","LI":"竹港里","LIN":"7鄰","STREET":" ","SECT":" ","MAREA":"竹港","LANE":" ","ALLEY":" ","HOUSE_NO":"６６號之２","E_COORD97":164951.10999999999,"N_COORD97":2556716.46,"ADDRESS":"竹港６６號之２","OBJECTID":287538},"geometry":{"x":164951.11000000034,"y":2556716.4600000028}},{"attributes":{"ID":287545,"DIS_CODE":0,"TOWNNAME":"七股區","LI":"竹港里","LIN":"7鄰","STREET":" ","SECT":" ","MAREA":"竹港","LANE":" ","ALLEY":" ","HOUSE_NO":"６６號之３","E_COORD97":164955.51000000001,"N_COORD97":2556716.2599999998,"ADDRESS":"竹港６６號之３","OBJECTID":287539},"geometry":{"x":164955.51000000071,"y":2556716.2600000016}},{"attributes":{"ID":287546,"DIS_CODE":0,"TOWNNAME":"永康區","LI":"二王里","LIN":"10鄰","STREET":"二王路","SECT":" ","MAREA":" ","LANE":"１５５巷","ALLEY":" ","HOUSE_NO":"２２號","E_COORD97":173016.85000000001,"N_COORD97":2546486.5800000001,"ADDRESS":"二王路１５５巷２２號","OBJECTID":287540},"geometry":{"x":173016.85000000056,"y":2546486.5800000019}},{"attributes":{"ID":287547,"DIS_CODE":0,"TOWNNAME":"永康區","LI":"二王里","LIN":"10鄰","STREET":"二王路","SECT":" ","MAREA":" ","LANE":"１５５巷","ALLEY":" ","HOUSE_NO":"１０號","E_COORD97":172996.14000000001,"N_COORD97":2546498.2400000002,"ADDRESS":"二王路１５５巷１０號","OBJECTID":287541},"geometry":{"x":172996.1400000006,"y":2546498.2400000021}},{"attributes":{"ID":287548,"DIS_CODE":0,"TOWNNAME":"仁德區","LI":"仁義里","LIN":"34鄰","STREET":"正義二街","SECT":" ","MAREA":" ","LANE":" ","ALLEY":" ","HOUSE_NO":"１０５號二樓","E_COORD97":173659.75,"N_COORD97":2541607.2599999998,"ADDRESS":"正義二街１０５號二樓","OBJECTID":287542},"geometry":{"x":173659.75,"y":2541607.2599999998}},{"attributes":{"ID":287549,"DIS_CODE":0,"TOWNNAME":"安平區","LI":"建平里","LIN":"2鄰","STREET":"建平十七街","SECT":" ","MAREA":" ","LANE":" ","ALLEY":" ","HOUSE_NO":"４３號九樓之８","E_COORD97":166197.94,"N_COORD97":2544207.8599999999,"ADDRESS":"建平十七街４３號九樓之８","OBJECTID":287543},"geometry":{"x":166197.94000000041,"y":2544207.8600000031}},{"attributes":{"ID":287550,"DIS_CODE":0,"TOWNNAME":"安平區","LI":"建平里","LIN":"2鄰","STREET":"建平十七街","SECT":" ","MAREA":" ","LANE":" ","ALLEY":" ","HOUSE_NO":"４３號九樓之９","E_COORD97":166197.94,"N_COORD97":2544207.8599999999,"ADDRESS":"建平十七街４３號九樓之９","OBJECTID":287544},"geometry":{"x":166197.94000000041,"y":2544207.8600000031}},{"attributes":{"ID":287551,"DIS_CODE":0,"TOWNNAME":"永康區","LI":"三合里","LIN":"10鄰","STREET":"南工街","SECT":" ","MAREA":" ","LANE":"２４７巷","ALLEY":" ","HOUSE_NO":"５１號","E_COORD97":171963.42999999999,"N_COORD97":2545725.75,"ADDRESS":"南工街２４７巷５１號","OBJECTID":287545},"geometry":{"x":171963.43000000063,"y":2545725.7500000019}},{"attributes":{"ID":287552,"DIS_CODE":0,"TOWNNAME":"永康區","LI":"東灣里","LIN":"10鄰","STREET":"立興街","SECT":" ","MAREA":" ","LANE":"２８巷","ALLEY":" ","HOUSE_NO":"８號","E_COORD97":174667.23000000001,"N_COORD97":2544894.3500000001,"ADDRESS":"立興街２８巷８號","OBJECTID":287546},"geometry":{"x":174667.23000000045,"y":2544894.3500000015}},{"attributes":{"ID":287553,"DIS_CODE":0,"TOWNNAME":"永康區","LI":"二王里","LIN":"10鄰","STREET":"二王路","SECT":" ","MAREA":" ","LANE":"１５５巷","ALLEY":" ","HOUSE_NO":"８號","E_COORD97":172994.51000000001,"N_COORD97":2546500.29,"ADDRESS":"二王路１５５巷８號","OBJECTID":287547},"geometry":{"x":172994.50999999978,"y":2546500.290000001}},{"attributes":{"ID":287554,"DIS_CODE":0,"TOWNNAME":"永康區","LI":"三合里","LIN":"10鄰","STREET":"南工街","SECT":" ","MAREA":" ","LANE":"２４７巷","ALLEY":" ","HOUSE_NO":"４５號","E_COORD97":171962.23000000001,"N_COORD97":2545747.2400000002,"ADDRESS":"南工街２４７巷４５號","OBJECTID":287548},"geometry":{"x":171962.23000000138,"y":2545747.2400000002}},{"attributes":{"ID":287555,"DIS_CODE":0,"TOWNNAME":"永康區","LI":"埔園里","LIN":"30鄰","STREET":"龍埔街","SECT":" ","MAREA":" ","LANE":"４３０巷","ALLEY":" ","HOUSE_NO":"１５號","E_COORD97":173958.26000000001,"N_COORD97":2548418.5,"ADDRESS":"龍埔街４３０巷１５號","OBJECTID":287549},"geometry":{"x":173958.26000000071,"y":2548418.5000000019}},{"attributes":{"ID":287556,"DIS_CODE":0,"TOWNNAME":"永康區","LI":"二王里","LIN":"10鄰","STREET":"二王路","SECT":" ","MAREA":" ","LANE":"１８１巷","ALLEY":" ","HOUSE_NO":"１５號","E_COORD97":173039.69,"N_COORD97":2546440.4500000002,"ADDRESS":"二王路１８１巷１５號","OBJECTID":287550},"geometry":{"x":173039.69000000041,"y":2546440.4499999993}},{"attributes":{"ID":287557,"DIS_CODE":0,"TOWNNAME":"永康區","LI":"二王里","LIN":"10鄰","STREET":"二王路","SECT":" ","MAREA":" ","LANE":"１８１巷","ALLEY":" ","HOUSE_NO":"９號","E_COORD97":173025.54000000001,"N_COORD97":2546440.9500000002,"ADDRESS":"二王路１８１巷９號","OBJECTID":287551},"geometry":{"x":173025.54000000004,"y":2546440.9499999974}},{"attributes":{"ID":287558,"DIS_CODE":0,"TOWNNAME":"永康區","LI":"復國里","LIN":"10鄰","STREET":"復國一路","SECT":" ","MAREA":" ","LANE":"２５０巷","ALLEY":" ","HOUSE_NO":"２８號","E_COORD97":172831.32999999999,"N_COORD97":2545334.1200000001,"ADDRESS":"復國一路２５０巷２８號","OBJECTID":287552},"geometry":{"x":172831.33000000101,"y":2545334.1200000029}},{"attributes":{"ID":287559,"DIS_CODE":0,"TOWNNAME":"永康區","LI":"三合里","LIN":"10鄰","STREET":"南工街","SECT":" ","MAREA":" ","LANE":"２４７巷","ALLEY":" ","HOUSE_NO":"４７號","E_COORD97":171962.53,"N_COORD97":2545738.7400000002,"ADDRESS":"南工街２４７巷４７號","OBJECTID":287553},"geometry":{"x":171962.53000000026,"y":2545738.7400000021}},{"attributes":{"ID":287560,"DIS_CODE":0,"TOWNNAME":"永康區","LI":"二王里","LIN":"10鄰","STREET":"二王路","SECT":" ","MAREA":" ","LANE":"１５５巷","ALLEY":" ","HOUSE_NO":"６號","E_COORD97":172988.25,"N_COORD97":2546502.4900000002,"ADDRESS":"二王路１５５巷６號","OBJECTID":287554},"geometry":{"x":172988.25,"y":2546502.4900000002}},{"attributes":{"ID":287561,"DIS_CODE":0,"TOWNNAME":"永康區","LI":"二王里","LIN":"10鄰","STREET":"二王路","SECT":" ","MAREA":" ","LANE":"１５５巷","ALLEY":" ","HOUSE_NO":"１２號","E_COORD97":173000.39000000001,"N_COORD97":2546495.9900000002,"ADDRESS":"二王路１５５巷１２號","OBJECTID":287555},"geometry":{"x":173000.38999999966,"y":2546495.9899999984}},{"attributes":{"ID":287562,"DIS_CODE":0,"TOWNNAME":"中西區","LI":"元安里","LIN":"2鄰","STREET":"永華路","SECT":"一段","MAREA":" ","LANE":" ","ALLEY":" ","HOUSE_NO":"３６號五樓之６","E_COORD97":167592.14999999999,"N_COORD97":2543152.5699999998,"ADDRESS":"永華路一段３６號五樓之６","OBJECTID":287556},"geometry":{"x":167592.14999999944,"y":2543152.5699999984}},{"attributes":{"ID":287563,"DIS_CODE":0,"TOWNNAME":"安南區","LI":"幸福里","LIN":"10鄰","STREET":"府安路","SECT":"六段","MAREA":" ","LANE":"１０３巷","ALLEY":" ","HOUSE_NO":"７４號","E_COORD97":166697.53,"N_COORD97":2546690.25,"ADDRESS":"府安路六段１０３巷７４號","OBJECTID":287557},"geometry":{"x":166697.53000000026,"y":2546690.25}},{"attributes":{"ID":287564,"DIS_CODE":0,"TOWNNAME":"安南區","LI":"幸福里","LIN":"10鄰","STREET":"府安路","SECT":"六段","MAREA":" ","LANE":"１０３巷","ALLEY":" ","HOUSE_NO":"７６號","E_COORD97":166696.03,"N_COORD97":2546695,"ADDRESS":"府安路六段１０３巷７６號","OBJECTID":287558},"geometry":{"x":166696.03000000026,"y":2546695}},{"attributes":{"ID":287565,"DIS_CODE":0,"TOWNNAME":"安南區","LI":"幸福里","LIN":"10鄰","STREET":"府安路","SECT":"六段","MAREA":" ","LANE":"１０３巷","ALLEY":" ","HOUSE_NO":"７８號","E_COORD97":166696.37,"N_COORD97":2546700.3199999998,"ADDRESS":"府安路六段１０３巷７８號","OBJECTID":287559},"geometry":{"x":166696.37000000011,"y":2546700.3200000003}},{"attributes":{"ID":287566,"DIS_CODE":0,"TOWNNAME":"安南區","LI":"幸福里","LIN":"10鄰","STREET":"府安路","SECT":"六段","MAREA":" ","LANE":"１０３巷","ALLEY":" ","HOUSE_NO":"８０號","E_COORD97":166693.47,"N_COORD97":2546711.25,"ADDRESS":"府安路六段１０３巷８０號","OBJECTID":287560},"geometry":{"x":166693.47000000067,"y":2546711.2500000037}},{"attributes":{"ID":287567,"DIS_CODE":0,"TOWNNAME":"永康區","LI":"東橋里","LIN":"5鄰","STREET":"中山南路","SECT":" ","MAREA":" ","LANE":"１９５巷","ALLEY":" ","HOUSE_NO":"３１號","E_COORD97":171466.57999999999,"N_COORD97":2546356.5099999998,"ADDRESS":"中山南路１９５巷３１號","OBJECTID":287561},"geometry":{"x":171466.58000000101,"y":2546356.5100000035}},{"attributes":{"ID":287568,"DIS_CODE":0,"TOWNNAME":"永康區","LI":"東灣里","LIN":"12鄰","STREET":"大灣二街","SECT":" ","MAREA":" ","LANE":"１１４巷","ALLEY":" ","HOUSE_NO":"１０號","E_COORD97":174766.85999999999,"N_COORD97":2544833.1499999999,"ADDRESS":"大灣二街１１４巷１０號","OBJECTID":287562},"geometry":{"x":174766.86000000127,"y":2544833.1500000004}},{"attributes":{"ID":287569,"DIS_CODE":0,"TOWNNAME":"安南區","LI":"幸福里","LIN":"10鄰","STREET":"國安街","SECT":" ","MAREA":" ","LANE":"１５５巷","ALLEY":" ","HOUSE_NO":"７７號","E_COORD97":166794.10000000001,"N_COORD97":2546749.9100000001,"ADDRESS":"國安街１５５巷７７號","OBJECTID":287563},"geometry":{"x":166794.10000000056,"y":2546749.9100000001}},{"attributes":{"ID":287570,"DIS_CODE":0,"TOWNNAME":"安南區","LI":"幸福里","LIN":"10鄰","STREET":"國安街","SECT":" ","MAREA":" ","LANE":"１５５巷","ALLEY":" ","HOUSE_NO":"７８號","E_COORD97":166765.78,"N_COORD97":2546749.1299999999,"ADDRESS":"國安街１５５巷７８號","OBJECTID":287564},"geometry":{"x":166765.78000000212,"y":2546749.1300000008}},{"attributes":{"ID":287571,"DIS_CODE":0,"TOWNNAME":"安南區","LI":"幸福里","LIN":"10鄰","STREET":"國安街","SECT":" ","MAREA":" ","LANE":"１５５巷","ALLEY":" ","HOUSE_NO":"７９號","E_COORD97":166794.75,"N_COORD97":2546744.9700000002,"ADDRESS":"國安街１５５巷７９號","OBJECTID":287565},"geometry":{"x":166794.75000000093,"y":2546744.9700000025}},{"attributes":{"ID":287572,"DIS_CODE":0,"TOWNNAME":"安南區","LI":"幸福里","LIN":"10鄰","STREET":"國安街","SECT":" ","MAREA":" ","LANE":"１５５巷","ALLEY":" ","HOUSE_NO":"８０號","E_COORD97":166766.41,"N_COORD97":2546744.6000000001,"ADDRESS":"國安街１５５巷８０號","OBJECTID":287566},"geometry":{"x":166766.41000000201,"y":2546744.5999999996}},{"attributes":{"ID":287573,"DIS_CODE":0,"TOWNNAME":"安南區","LI":"幸福里","LIN":"10鄰","STREET":"國安街","SECT":" ","MAREA":" ","LANE":"１５５巷","ALLEY":" ","HOUSE_NO":"８１號","E_COORD97":166795.81,"N_COORD97":2546739.9199999999,"ADDRESS":"國安街１５５巷８１號","OBJECTID":287567},"geometry":{"x":166795.81000000052,"y":2546739.9199999999}},{"attributes":{"ID":287574,"DIS_CODE":0,"TOWNNAME":"安南區","LI":"幸福里","LIN":"10鄰","STREET":"國安街","SECT":" ","MAREA":" ","LANE":"１５５巷","ALLEY":" ","HOUSE_NO":"８３號","E_COORD97":166796.29999999999,"N_COORD97":2546735.3799999999,"ADDRESS":"國安街１５５巷８３號","OBJECTID":287568},"geometry":{"x":166796.30000000075,"y":2546735.379999999}},{"attributes":{"ID":287575,"DIS_CODE":0,"TOWNNAME":"安南區","LI":"幸福里","LIN":"10鄰","STREET":"國安街","SECT":" ","MAREA":" ","LANE":"１５５巷","ALLEY":" ","HOUSE_NO":"８４號","E_COORD97":166767.29000000001,"N_COORD97":2546734.27,"ADDRESS":"國安街１５５巷８４號","OBJECTID":287569},"geometry":{"x":166767.29000000097,"y":2546734.2700000033}},{"attributes":{"ID":287576,"DIS_CODE":0,"TOWNNAME":"永康區","LI":"東橋里","LIN":"11鄰","STREET":"中山南路","SECT":" ","MAREA":" ","LANE":"１９５巷","ALLEY":" ","HOUSE_NO":"１２號","E_COORD97":171552.87,"N_COORD97":2546234.1000000001,"ADDRESS":"中山南路１９５巷１２號","OBJECTID":287570},"geometry":{"x":171552.87000000104,"y":2546234.1000000015}},{"attributes":{"ID":287577,"DIS_CODE":0,"TOWNNAME":"永康區","LI":"埔園里","LIN":"32鄰","STREET":"龍埔街","SECT":" ","MAREA":" ","LANE":"２８３巷","ALLEY":" ","HOUSE_NO":"３８號","E_COORD97":174024.95000000001,"N_COORD97":2548234.9900000002,"ADDRESS":"龍埔街２８３巷３８號","OBJECTID":287571},"geometry":{"x":174024.95000000205,"y":2548234.9900000002}},{"attributes":{"ID":287578,"DIS_CODE":0,"TOWNNAME":"永康區","LI":"東灣里","LIN":"12鄰","STREET":"大灣二街","SECT":" ","MAREA":" ","LANE":"１１４巷","ALLEY":" ","HOUSE_NO":"１號","E_COORD97":174753.45999999999,"N_COORD97":2544827.3599999999,"ADDRESS":"大灣二街１１４巷１號","OBJECTID":287572},"geometry":{"x":174753.45999999903,"y":2544827.3599999994}},{"attributes":{"ID":287579,"DIS_CODE":0,"TOWNNAME":"安南區","LI":"幸福里","LIN":"10鄰","STREET":"國安街","SECT":" ","MAREA":" ","LANE":"１５５巷","ALLEY":" ","HOUSE_NO":"８５號","E_COORD97":166797.51999999999,"N_COORD97":2546730.3599999999,"ADDRESS":"國安街１５５巷８５號","OBJECTID":287573},"geometry":{"x":166797.52000000048,"y":2546730.3600000031}},{"attributes":{"ID":287580,"DIS_CODE":0,"TOWNNAME":"安南區","LI":"幸福里","LIN":"10鄰","STREET":"國安街","SECT":" ","MAREA":" ","LANE":"１５５巷","ALLEY":" ","HOUSE_NO":"８６號","E_COORD97":166768.29999999999,"N_COORD97":2546729.7400000002,"ADDRESS":"國安街１５５巷８６號","OBJECTID":287574},"geometry":{"x":166768.29999999981,"y":2546729.7400000021}},{"attributes":{"ID":287581,"DIS_CODE":0,"TOWNNAME":"安南區","LI":"幸福里","LIN":"10鄰","STREET":"國安街","SECT":" ","MAREA":" ","LANE":"１５５巷","ALLEY":" ","HOUSE_NO":"８８號","E_COORD97":166769.31,"N_COORD97":2546724.7000000002,"ADDRESS":"國安街１５５巷８８號","OBJECTID":287575},"geometry":{"x":166769.30999999959,"y":2546724.7000000011}},{"attributes":{"ID":287582,"DIS_CODE":0,"TOWNNAME":"安南區","LI":"新順里","LIN":"10鄰","STREET":"安和路","SECT":"二段","MAREA":" ","LANE":"２８５巷","ALLEY":" ","HOUSE_NO":"７號","E_COORD97":169648.41,"N_COORD97":2549254.5099999998,"ADDRESS":"安和路二段２８５巷７號","OBJECTID":287576},"geometry":{"x":169648.41000000108,"y":2549254.5099999998}},{"attributes":{"ID":287583,"DIS_CODE":0,"TOWNNAME":"安南區","LI":"海南里","LIN":"10鄰","STREET":"府安路","SECT":"七段","MAREA":" ","LANE":"１０巷","ALLEY":" ","HOUSE_NO":"４號","E_COORD97":166118.95000000001,"N_COORD97":2546060.1899999999,"ADDRESS":"府安路七段１０巷４號","OBJECTID":287577},"geometry":{"x":166118.95000000112,"y":2546060.1900000032}},{"attributes":{"ID":287584,"DIS_CODE":0,"TOWNNAME":"安南區","LI":"海南里","LIN":"10鄰","STREET":"府安路","SECT":"七段","MAREA":" ","LANE":"１巷","ALLEY":" ","HOUSE_NO":"９號","E_COORD97":166112.98000000001,"N_COORD97":2546092.6400000001,"ADDRESS":"府安路七段１巷９號","OBJECTID":287578},"geometry":{"x":166112.98000000045,"y":2546092.6400000025}},{"attributes":{"ID":287585,"DIS_CODE":0,"TOWNNAME":"安南區","LI":"幸福里","LIN":"18鄰","STREET":"府安路","SECT":"六段","MAREA":" ","LANE":" ","ALLEY":" ","HOUSE_NO":"２６號","E_COORD97":167058.25,"N_COORD97":2546702.1400000001,"ADDRESS":"府安路六段２６號","OBJECTID":287579},"geometry":{"x":167058.25,"y":2546702.1399999987}},{"attributes":{"ID":287586,"DIS_CODE":0,"TOWNNAME":"安南區","LI":"海南里","LIN":"13鄰","STREET":"府安路","SECT":"七段","MAREA":" ","LANE":" ","ALLEY":" ","HOUSE_NO":"４６號","E_COORD97":165995.70999999999,"N_COORD97":2545944,"ADDRESS":"府安路七段４６號","OBJECTID":287580},"geometry":{"x":165995.70999999996,"y":2545944.0000000019}},{"attributes":{"ID":287587,"DIS_CODE":0,"TOWNNAME":"安南區","LI":"海南里","LIN":"14鄰","STREET":"府安路","SECT":"七段","MAREA":" ","LANE":" ","ALLEY":" ","HOUSE_NO":"５９號","E_COORD97":165951.35999999999,"N_COORD97":2545905.25,"ADDRESS":"府安路七段５９號","OBJECTID":287581},"geometry":{"x":165951.36000000034,"y":2545905.2500000019}},{"attributes":{"ID":287588,"DIS_CODE":0,"TOWNNAME":"安南區","LI":"安慶里","LIN":"6鄰","STREET":"怡安路","SECT":"一段","MAREA":" ","LANE":" ","ALLEY":" ","HOUSE_NO":"３０２號","E_COORD97":168922.29999999999,"N_COORD97":2549126.1200000001,"ADDRESS":"怡安路一段３０２號","OBJECTID":287582},"geometry":{"x":168922.29999999981,"y":2549126.120000001}},{"attributes":{"ID":287589,"DIS_CODE":0,"TOWNNAME":"安南區","LI":"頂安里","LIN":"8鄰","STREET":"頂安街","SECT":" ","MAREA":" ","LANE":" ","ALLEY":" ","HOUSE_NO":"５６６號","E_COORD97":168548.54000000001,"N_COORD97":2549275.23,"ADDRESS":"頂安街５６６號","OBJECTID":287583},"geometry":{"x":168548.54000000004,"y":2549275.2300000023}},{"attributes":{"ID":287590,"DIS_CODE":0,"TOWNNAME":"安南區","LI":"頂安里","LIN":"8鄰","STREET":"頂安街","SECT":" ","MAREA":" ","LANE":" ","ALLEY":" ","HOUSE_NO":"５６８號","E_COORD97":168545.67000000001,"N_COORD97":2549272.6299999999,"ADDRESS":"頂安街５６８號","OBJECTID":287584},"geometry":{"x":168545.66999999993,"y":2549272.629999999}},{"attributes":{"ID":287591,"DIS_CODE":0,"TOWNNAME":"安南區","LI":"頂安里","LIN":"8鄰","STREET":"頂安街","SECT":" ","MAREA":" ","LANE":" ","ALLEY":" ","HOUSE_NO":"５７０號","E_COORD97":168541.23999999999,"N_COORD97":2549273.1499999999,"ADDRESS":"頂安街５７０號","OBJECTID":287585},"geometry":{"x":168541.24000000115,"y":2549273.1500000022}},{"attributes":{"ID":287592,"DIS_CODE":0,"TOWNNAME":"安南區","LI":"海南里","LIN":"10鄰","STREET":"府安路","SECT":"七段","MAREA":" ","LANE":" ","ALLEY":" ","HOUSE_NO":"６號","E_COORD97":166138.26999999999,"N_COORD97":2546045.1600000001,"ADDRESS":"府安路七段６號","OBJECTID":287586},"geometry":{"x":166138.27000000048,"y":2546045.160000002}},{"attributes":{"ID":287593,"DIS_CODE":0,"TOWNNAME":"善化區","LI":"北關里","LIN":"8鄰","STREET":"進學路","SECT":" ","MAREA":" ","LANE":" ","ALLEY":" ","HOUSE_NO":"５０號","E_COORD97":177269.73000000001,"N_COORD97":2559283.75,"ADDRESS":"進學路５０號","OBJECTID":287587},"geometry":{"x":177269.73000000231,"y":2559283.7500000019}},{"attributes":{"ID":287594,"DIS_CODE":0,"TOWNNAME":"善化區","LI":"文正里","LIN":"13鄰","STREET":"中山路","SECT":" ","MAREA":" ","LANE":" ","ALLEY":" ","HOUSE_NO":"５６０號之１５","E_COORD97":176754.85999999999,"N_COORD97":2559309.27,"ADDRESS":"中山路５６０號之１５","OBJECTID":287588},"geometry":{"x":176754.8599999994,"y":2559309.2700000033}},{"attributes":{"ID":287595,"DIS_CODE":0,"TOWNNAME":"善化區","LI":"坐駕里","LIN":"13鄰","STREET":"自強路","SECT":" ","MAREA":" ","LANE":" ","ALLEY":" ","HOUSE_NO":"３３號","E_COORD97":178253.91,"N_COORD97":2558739.5,"ADDRESS":"自強路３３號","OBJECTID":287589},"geometry":{"x":178253.91000000015,"y":2558739.5000000019}},{"attributes":{"ID":287596,"DIS_CODE":0,"TOWNNAME":"後壁區","LI":"頂安里","LIN":"4鄰","STREET":" ","SECT":" ","MAREA":"頂寮","LANE":" ","ALLEY":" ","HOUSE_NO":"４１號","E_COORD97":183957.98999999999,"N_COORD97":2581452.7999999998,"ADDRESS":"頂寮４１號","OBJECTID":287590},"geometry":{"x":183957.99000000022,"y":2581452.8000000045}},{"attributes":{"ID":287597,"DIS_CODE":0,"TOWNNAME":"善化區","LI":"文正里","LIN":"13鄰","STREET":"中山路","SECT":" ","MAREA":" ","LANE":" ","ALLEY":" ","HOUSE_NO":"５５０號之３","E_COORD97":176835.75,"N_COORD97":2559227.02,"ADDRESS":"中山路５５０號之３","OBJECTID":287591},"geometry":{"x":176835.75000000093,"y":2559227.0200000014}},{"attributes":{"ID":287598,"DIS_CODE":0,"TOWNNAME":"善化區","LI":"坐駕里","LIN":"13鄰","STREET":"自強路","SECT":" ","MAREA":" ","LANE":" ","ALLEY":" ","HOUSE_NO":"２９號","E_COORD97":178263.89000000001,"N_COORD97":2558740.75,"ADDRESS":"自強路２９號","OBJECTID":287592},"geometry":{"x":178263.88999999966,"y":2558740.7500000019}},{"attributes":{"ID":287599,"DIS_CODE":0,"TOWNNAME":"善化區","LI":"西關里","LIN":"4鄰","STREET":"中山路","SECT":" ","MAREA":" ","LANE":" ","ALLEY":" ","HOUSE_NO":"４９５號","E_COORD97":177181,"N_COORD97":2559131.25,"ADDRESS":"中山路４９５號","OBJECTID":287593},"geometry":{"x":177181.00000000093,"y":2559131.2500000019}},{"attributes":{"ID":287600,"DIS_CODE":0,"TOWNNAME":"西港區","LI":"西港里","LIN":"20鄰","STREET":"中山路","SECT":" ","MAREA":" ","LANE":" ","ALLEY":" ","HOUSE_NO":"１２８號","E_COORD97":168470.23999999999,"N_COORD97":2557580.7400000002,"ADDRESS":"中山路１２８號","OBJECTID":287594},"geometry":{"x":168470.24000000115,"y":2557580.7399999984}},{"attributes":{"ID":287601,"DIS_CODE":0,"TOWNNAME":"西港區","LI":"西港里","LIN":"20鄰","STREET":"中山路","SECT":" ","MAREA":" ","LANE":" ","ALLEY":" ","HOUSE_NO":"１４０號","E_COORD97":168467.19,"N_COORD97":2557604.3900000001,"ADDRESS":"中山路１４０號","OBJECTID":287595},"geometry":{"x":168467.19000000134,"y":2557604.3900000025}},{"attributes":{"ID":287602,"DIS_CODE":0,"TOWNNAME":"善化區","LI":"文正里","LIN":"13鄰","STREET":"中山路","SECT":" ","MAREA":" ","LANE":" ","ALLEY":" ","HOUSE_NO":"５６０之６號","E_COORD97":176790.35999999999,"N_COORD97":2559294.1899999999,"ADDRESS":"中山路５６０之６號","OBJECTID":287596},"geometry":{"x":176790.36000000034,"y":2559294.1900000013}},{"attributes":{"ID":287603,"DIS_CODE":0,"TOWNNAME":"善化區","LI":"文正里","LIN":"13鄰","STREET":"中山路","SECT":" ","MAREA":" ","LANE":" ","ALLEY":" ","HOUSE_NO":"５５０號之１","E_COORD97":176843.92999999999,"N_COORD97":2559228.02,"ADDRESS":"中山路５５０號之１","OBJECTID":287597},"geometry":{"x":176843.93000000063,"y":2559228.0199999996}},{"attributes":{"ID":287604,"DIS_CODE":0,"TOWNNAME":"善化區","LI":"文昌里","LIN":"14鄰","STREET":"新興街","SECT":" ","MAREA":" ","LANE":" ","ALLEY":" ","HOUSE_NO":"２５號","E_COORD97":177573.67999999999,"N_COORD97":2558948.75,"ADDRESS":"新興街２５號","OBJECTID":287598},"geometry":{"x":177573.6799999997,"y":2558948.75}},{"attributes":{"ID":287605,"DIS_CODE":0,"TOWNNAME":"善化區","LI":"文正里","LIN":" ","STREET":"興農路","SECT":" ","MAREA":" ","LANE":" ","ALLEY":" ","HOUSE_NO":"２４號","E_COORD97":176593.73000000001,"N_COORD97":2559196.75,"ADDRESS":"興農路２４號","OBJECTID":287599},"geometry":{"x":176593.73000000138,"y":2559196.75}},{"attributes":{"ID":287606,"DIS_CODE":0,"TOWNNAME":"善化區","LI":"文正里","LIN":"13鄰","STREET":"中山路","SECT":" ","MAREA":" ","LANE":" ","ALLEY":" ","HOUSE_NO":"５６０之１４號","E_COORD97":176779.97,"N_COORD97":2559250.02,"ADDRESS":"中山路５６０之１４號","OBJECTID":287600},"geometry":{"x":176779.96999999974,"y":2559250.0200000033}}]}