{"displayFieldName":"TOWNNAME","fieldAliases":{"ID":"ID","DIS_CODE":"DIS_CODE","TOWNNAME":"TOWNNAME","LI":"LI","LIN":"LIN","STREET":"STREET","SECT":"SECT","MAREA":"MAREA","LANE":"LANE","ALLEY":"ALLEY","HOUSE_NO":"HOUSE_NO","E_COORD97":"E_COORD97","N_COORD97":"N_COORD97","ADDRESS":"ADDRESS","OBJECTID":"OBJECTID"},"geometryType":"esriGeometryPoint","spatialReference":{"wkid":102443,"latestWkid":3826},"fields":[{"name":"ID","type":"esriFieldTypeDouble","alias":"ID"},{"name":"DIS_CODE","type":"esriFieldTypeInteger","alias":"DIS_CODE"},{"name":"TOWNNAME","type":"esriFieldTypeString","alias":"TOWNNAME","length":8},{"name":"LI","type":"esriFieldTypeString","alias":"LI","length":8},{"name":"LIN","type":"esriFieldTypeString","alias":"LIN","length":12},{"name":"STREET","type":"esriFieldTypeString","alias":"STREET","length":20},{"name":"SECT","type":"esriFieldTypeString","alias":"SECT","length":8},{"name":"MAREA","type":"esriFieldTypeString","alias":"MAREA","length":12},{"name":"LANE","type":"esriFieldTypeString","alias":"LANE","length":10},{"name":"ALLEY","type":"esriFieldTypeString","alias":"ALLEY","length":10},{"name":"HOUSE_NO","type":"esriFieldTypeString","alias":"HOUSE_NO","length":20},{"name":"E_COORD97","type":"esriFieldTypeDouble","alias":"E_COORD97"},{"name":"N_COORD97","type":"esriFieldTypeDouble","alias":"N_COORD97"},{"name":"ADDRESS","type":"esriFieldTypeString","alias":"ADDRESS","length":50},{"name":"OBJECTID","type":"esriFieldTypeOID","alias":"OBJECTID"}],"features":[{"attributes":{"ID":454426,"DIS_CODE":0,"TOWNNAME":"中西區","LI":"西賢里","LIN":"25鄰","STREET":"民權路","SECT":"四段","MAREA":" ","LANE":"４７４巷","ALLEY":" ","HOUSE_NO":"１１號","E_COORD97":165223.85999999999,"N_COORD97":2544550.27,"ADDRESS":"民權路四段４７４巷１１號","OBJECTID":454401},"geometry":{"x":165223.86000000034,"y":2544550.2699999996}},{"attributes":{"ID":454427,"DIS_CODE":0,"TOWNNAME":"中西區","LI":"西賢里","LIN":"25鄰","STREET":"民權路","SECT":"四段","MAREA":" ","LANE":"４７４巷","ALLEY":" ","HOUSE_NO":"１３號","E_COORD97":165219.13,"N_COORD97":2544553.0800000001,"ADDRESS":"民權路四段４７４巷１３號","OBJECTID":454402},"geometry":{"x":165219.13000000082,"y":2544553.0800000019}},{"attributes":{"ID":454428,"DIS_CODE":0,"TOWNNAME":"中西區","LI":"西賢里","LIN":"25鄰","STREET":"民權路","SECT":"四段","MAREA":" ","LANE":"４７４巷","ALLEY":" ","HOUSE_NO":"１５號","E_COORD97":165215.04000000001,"N_COORD97":2544555.25,"ADDRESS":"民權路四段４７４巷１５號","OBJECTID":454403},"geometry":{"x":165215.04000000097,"y":2544555.2500000019}},{"attributes":{"ID":454429,"DIS_CODE":0,"TOWNNAME":"中西區","LI":"西賢里","LIN":"25鄰","STREET":"民權路","SECT":"四段","MAREA":" ","LANE":"４７４巷","ALLEY":" ","HOUSE_NO":"１７號","E_COORD97":165218.10999999999,"N_COORD97":2544565.3300000001,"ADDRESS":"民權路四段４７４巷１７號","OBJECTID":454404},"geometry":{"x":165218.11000000127,"y":2544565.3300000019}},{"attributes":{"ID":454430,"DIS_CODE":0,"TOWNNAME":"中西區","LI":"西賢里","LIN":"25鄰","STREET":"民權路","SECT":"四段","MAREA":" ","LANE":"４７４巷","ALLEY":" ","HOUSE_NO":"１９號","E_COORD97":165221.82000000001,"N_COORD97":2544563.29,"ADDRESS":"民權路四段４７４巷１９號","OBJECTID":454405},"geometry":{"x":165221.82000000123,"y":2544563.2899999991}},{"attributes":{"ID":454431,"DIS_CODE":0,"TOWNNAME":"中西區","LI":"西賢里","LIN":"25鄰","STREET":"民權路","SECT":"四段","MAREA":" ","LANE":"４７４巷","ALLEY":" ","HOUSE_NO":"１號","E_COORD97":165227.89999999999,"N_COORD97":2544559.3799999999,"ADDRESS":"民權路四段４７４巷１號","OBJECTID":454406},"geometry":{"x":165227.9000000013,"y":2544559.3799999971}},{"attributes":{"ID":454432,"DIS_CODE":0,"TOWNNAME":"中西區","LI":"西賢里","LIN":"25鄰","STREET":"民權路","SECT":"四段","MAREA":" ","LANE":"４７４巷","ALLEY":" ","HOUSE_NO":"２１號","E_COORD97":165232.76000000001,"N_COORD97":2544557.6200000001,"ADDRESS":"民權路四段４７４巷２１號","OBJECTID":454407},"geometry":{"x":165232.75999999885,"y":2544557.6200000029}},{"attributes":{"ID":454433,"DIS_CODE":0,"TOWNNAME":"中西區","LI":"西賢里","LIN":"25鄰","STREET":"民權路","SECT":"四段","MAREA":" ","LANE":"４７４巷","ALLEY":" ","HOUSE_NO":"２３號","E_COORD97":165236.54000000001,"N_COORD97":2544555.3300000001,"ADDRESS":"民權路四段４７４巷２３號","OBJECTID":454408},"geometry":{"x":165236.54000000097,"y":2544555.3300000019}},{"attributes":{"ID":454434,"DIS_CODE":0,"TOWNNAME":"中西區","LI":"西賢里","LIN":"25鄰","STREET":"民權路","SECT":"四段","MAREA":" ","LANE":"４７４巷","ALLEY":" ","HOUSE_NO":"２５號","E_COORD97":165241.81,"N_COORD97":2544553.1699999999,"ADDRESS":"民權路四段４７４巷２５號","OBJECTID":454409},"geometry":{"x":165241.80999999959,"y":2544553.1700000018}},{"attributes":{"ID":454435,"DIS_CODE":0,"TOWNNAME":"中西區","LI":"西賢里","LIN":"25鄰","STREET":"民權路","SECT":"四段","MAREA":" ","LANE":"４７４巷","ALLEY":" ","HOUSE_NO":"２７號","E_COORD97":165247.22,"N_COORD97":2544551.4199999999,"ADDRESS":"民權路四段４７４巷２７號","OBJECTID":454410},"geometry":{"x":165247.22000000067,"y":2544551.4200000018}},{"attributes":{"ID":454436,"DIS_CODE":0,"TOWNNAME":"中西區","LI":"西賢里","LIN":"25鄰","STREET":"民權路","SECT":"四段","MAREA":" ","LANE":"４７４巷","ALLEY":" ","HOUSE_NO":"２９號","E_COORD97":165251.95000000001,"N_COORD97":2544548.7200000002,"ADDRESS":"民權路四段４７４巷２９號","OBJECTID":454411},"geometry":{"x":165251.95000000019,"y":2544548.7199999988}},{"attributes":{"ID":454437,"DIS_CODE":0,"TOWNNAME":"中西區","LI":"西賢里","LIN":"25鄰","STREET":"民權路","SECT":"四段","MAREA":" ","LANE":"４７４巷","ALLEY":" ","HOUSE_NO":"３１號","E_COORD97":165248.42000000001,"N_COORD97":2544539.7599999998,"ADDRESS":"民權路四段４７４巷３１號","OBJECTID":454412},"geometry":{"x":165248.41999999993,"y":2544539.7599999998}},{"attributes":{"ID":454438,"DIS_CODE":0,"TOWNNAME":"中西區","LI":"西賢里","LIN":"25鄰","STREET":"民權路","SECT":"四段","MAREA":" ","LANE":"４７４巷","ALLEY":" ","HOUSE_NO":"３號","E_COORD97":165243.56,"N_COORD97":2544541.7799999998,"ADDRESS":"民權路四段４７４巷３號","OBJECTID":454413},"geometry":{"x":165243.55999999959,"y":2544541.7800000012}},{"attributes":{"ID":454439,"DIS_CODE":0,"TOWNNAME":"中西區","LI":"西賢里","LIN":"25鄰","STREET":"民權路","SECT":"四段","MAREA":" ","LANE":"４７４巷","ALLEY":" ","HOUSE_NO":"５號","E_COORD97":165237.62,"N_COORD97":2544543.3999999999,"ADDRESS":"民權路四段４７４巷５號","OBJECTID":454414},"geometry":{"x":165237.62000000197,"y":2544543.4000000004}},{"attributes":{"ID":454440,"DIS_CODE":0,"TOWNNAME":"中西區","LI":"西賢里","LIN":"25鄰","STREET":"民權路","SECT":"四段","MAREA":" ","LANE":"４７４巷","ALLEY":" ","HOUSE_NO":"７８號","E_COORD97":165311.39000000001,"N_COORD97":2544519.5600000001,"ADDRESS":"民權路四段４７４巷７８號","OBJECTID":454415},"geometry":{"x":165311.38999999966,"y":2544519.5600000042}},{"attributes":{"ID":454441,"DIS_CODE":0,"TOWNNAME":"中西區","LI":"西賢里","LIN":"25鄰","STREET":"民權路","SECT":"四段","MAREA":" ","LANE":"４７４巷","ALLEY":" ","HOUSE_NO":"７號","E_COORD97":165234.64000000001,"N_COORD97":2544545.8300000001,"ADDRESS":"民權路四段４７４巷７號","OBJECTID":454416},"geometry":{"x":165234.63999999966,"y":2544545.8300000019}},{"attributes":{"ID":454442,"DIS_CODE":0,"TOWNNAME":"中西區","LI":"西賢里","LIN":"25鄰","STREET":"民權路","SECT":"四段","MAREA":" ","LANE":"４７４巷","ALLEY":" ","HOUSE_NO":"９號","E_COORD97":165229.91,"N_COORD97":2544547.5899999999,"ADDRESS":"民權路四段４７４巷９號","OBJECTID":454417},"geometry":{"x":165229.91000000015,"y":2544547.5899999999}},{"attributes":{"ID":454443,"DIS_CODE":0,"TOWNNAME":"永康區","LI":"網寮里","LIN":"25鄰","STREET":"永春街","SECT":" ","MAREA":" ","LANE":"９６巷","ALLEY":" ","HOUSE_NO":"１８號","E_COORD97":173779.84,"N_COORD97":2546534.73,"ADDRESS":"永春街９６巷１８號","OBJECTID":454418},"geometry":{"x":173779.84000000078,"y":2546534.7300000004}},{"attributes":{"ID":454444,"DIS_CODE":0,"TOWNNAME":"安南區","LI":"溪頂里","LIN":"25鄰","STREET":"惠安街","SECT":" ","MAREA":" ","LANE":"１００巷","ALLEY":" ","HOUSE_NO":"２７號","E_COORD97":168896.89000000001,"N_COORD97":2547593.6200000001,"ADDRESS":"惠安街１００巷２７號","OBJECTID":454419},"geometry":{"x":168896.89000000153,"y":2547593.620000001}},{"attributes":{"ID":454445,"DIS_CODE":0,"TOWNNAME":"仁德區","LI":"後壁里","LIN":"25鄰","STREET":"德洋一街","SECT":" ","MAREA":" ","LANE":"１０巷","ALLEY":" ","HOUSE_NO":"４號","E_COORD97":173103.12,"N_COORD97":2539100.02,"ADDRESS":"德洋一街１０巷４號","OBJECTID":454420},"geometry":{"x":173103.11999999918,"y":2539100.0199999996}},{"attributes":{"ID":454446,"DIS_CODE":0,"TOWNNAME":"仁德區","LI":"後壁里","LIN":"25鄰","STREET":"德糖路","SECT":" ","MAREA":" ","LANE":" ","ALLEY":" ","HOUSE_NO":"５４２號","E_COORD97":173146.95000000001,"N_COORD97":2539057.0499999998,"ADDRESS":"德糖路５４２號","OBJECTID":454421},"geometry":{"x":173146.95000000205,"y":2539057.0500000007}},{"attributes":{"ID":454447,"DIS_CODE":0,"TOWNNAME":"仁德區","LI":"後壁里","LIN":"25鄰","STREET":"德洋一街","SECT":" ","MAREA":" ","LANE":"１０巷","ALLEY":" ","HOUSE_NO":"５號","E_COORD97":173116.73000000001,"N_COORD97":2539105.2599999998,"ADDRESS":"德洋一街１０巷５號","OBJECTID":454422},"geometry":{"x":173116.73000000138,"y":2539105.2599999998}},{"attributes":{"ID":454448,"DIS_CODE":0,"TOWNNAME":"仁德區","LI":"後壁里","LIN":"25鄰","STREET":"德洋一街","SECT":" ","MAREA":" ","LANE":"１０巷","ALLEY":" ","HOUSE_NO":"３號","E_COORD97":173113.51000000001,"N_COORD97":2539108.2599999998,"ADDRESS":"德洋一街１０巷３號","OBJECTID":454423},"geometry":{"x":173113.50999999978,"y":2539108.2599999998}},{"attributes":{"ID":454449,"DIS_CODE":0,"TOWNNAME":"仁德區","LI":"仁義里","LIN":"25鄰","STREET":"中清一街","SECT":" ","MAREA":" ","LANE":"２７巷","ALLEY":" ","HOUSE_NO":"１０號","E_COORD97":173607.88,"N_COORD97":2541376.4900000002,"ADDRESS":"中清一街２７巷１０號","OBJECTID":454424},"geometry":{"x":173607.87999999989,"y":2541376.4899999984}},{"attributes":{"ID":454450,"DIS_CODE":0,"TOWNNAME":"仁德區","LI":"仁義里","LIN":"25鄰","STREET":"中清一街","SECT":" ","MAREA":" ","LANE":"２７巷","ALLEY":" ","HOUSE_NO":"２號","E_COORD97":173619.64000000001,"N_COORD97":2541374.8900000001,"ADDRESS":"中清一街２７巷２號","OBJECTID":454425},"geometry":{"x":173619.64000000153,"y":2541374.8900000025}},{"attributes":{"ID":454451,"DIS_CODE":0,"TOWNNAME":"仁德區","LI":"仁義里","LIN":"25鄰","STREET":"中清一街","SECT":" ","MAREA":" ","LANE":"２７巷","ALLEY":" ","HOUSE_NO":"６號","E_COORD97":173615.04999999999,"N_COORD97":2541375.21,"ADDRESS":"中清一街２７巷６號","OBJECTID":454426},"geometry":{"x":173615.04999999981,"y":2541375.2100000009}},{"attributes":{"ID":454452,"DIS_CODE":0,"TOWNNAME":"仁德區","LI":"仁義里","LIN":"25鄰","STREET":"中清一街","SECT":" ","MAREA":" ","LANE":"２７巷","ALLEY":" ","HOUSE_NO":"８號","E_COORD97":173610.95000000001,"N_COORD97":2541376.0600000001,"ADDRESS":"中清一街２７巷８號","OBJECTID":454427},"geometry":{"x":173610.95000000019,"y":2541376.0600000005}},{"attributes":{"ID":454453,"DIS_CODE":0,"TOWNNAME":"仁德區","LI":"仁義里","LIN":"25鄰","STREET":"中清一街","SECT":" ","MAREA":" ","LANE":"３９巷","ALLEY":" ","HOUSE_NO":"１０號","E_COORD97":173623.97,"N_COORD97":2541402.7000000002,"ADDRESS":"中清一街３９巷１０號","OBJECTID":454428},"geometry":{"x":173623.96999999974,"y":2541402.7000000011}},{"attributes":{"ID":454454,"DIS_CODE":0,"TOWNNAME":"仁德區","LI":"仁義里","LIN":"25鄰","STREET":"中清一街","SECT":" ","MAREA":" ","LANE":"３９巷","ALLEY":" ","HOUSE_NO":"１１號","E_COORD97":173614.72,"N_COORD97":2541398.3300000001,"ADDRESS":"中清一街３９巷１１號","OBJECTID":454429},"geometry":{"x":173614.72000000067,"y":2541398.3300000019}},{"attributes":{"ID":454455,"DIS_CODE":0,"TOWNNAME":"仁德區","LI":"仁義里","LIN":"25鄰","STREET":"中清一街","SECT":" ","MAREA":" ","LANE":"３９巷","ALLEY":" ","HOUSE_NO":"１２號","E_COORD97":173618.97,"N_COORD97":2541403.2599999998,"ADDRESS":"中清一街３９巷１２號","OBJECTID":454430},"geometry":{"x":173618.96999999974,"y":2541403.2599999998}},{"attributes":{"ID":454456,"DIS_CODE":0,"TOWNNAME":"仁德區","LI":"仁義里","LIN":"25鄰","STREET":"中清一街","SECT":" ","MAREA":" ","LANE":"３９巷","ALLEY":" ","HOUSE_NO":"１３號","E_COORD97":173610.03,"N_COORD97":2541398.7599999998,"ADDRESS":"中清一街３９巷１３號","OBJECTID":454431},"geometry":{"x":173610.03000000026,"y":2541398.7600000016}},{"attributes":{"ID":454457,"DIS_CODE":0,"TOWNNAME":"仁德區","LI":"仁義里","LIN":"25鄰","STREET":"中清一街","SECT":" ","MAREA":" ","LANE":"３９巷","ALLEY":" ","HOUSE_NO":"１６號","E_COORD97":173614.72,"N_COORD97":2541403.6299999999,"ADDRESS":"中清一街３９巷１６號","OBJECTID":454432},"geometry":{"x":173614.72000000067,"y":2541403.629999999}},{"attributes":{"ID":454458,"DIS_CODE":0,"TOWNNAME":"仁德區","LI":"仁義里","LIN":"25鄰","STREET":"中清一街","SECT":" ","MAREA":" ","LANE":"３９巷","ALLEY":" ","HOUSE_NO":"１８號","E_COORD97":173610.70999999999,"N_COORD97":2541404.6099999999,"ADDRESS":"中清一街３９巷１８號","OBJECTID":454433},"geometry":{"x":173610.70999999996,"y":2541404.6099999994}},{"attributes":{"ID":454459,"DIS_CODE":0,"TOWNNAME":"仁德區","LI":"仁義里","LIN":"25鄰","STREET":"中清一街","SECT":" ","MAREA":" ","LANE":"３９巷","ALLEY":" ","HOUSE_NO":"１號","E_COORD97":173635.42999999999,"N_COORD97":2541395.6200000001,"ADDRESS":"中清一街３９巷１號","OBJECTID":454434},"geometry":{"x":173635.43000000063,"y":2541395.620000001}},{"attributes":{"ID":454460,"DIS_CODE":0,"TOWNNAME":"仁德區","LI":"仁義里","LIN":"25鄰","STREET":"中清一街","SECT":" ","MAREA":" ","LANE":"３９巷","ALLEY":" ","HOUSE_NO":"２號","E_COORD97":173635.57000000001,"N_COORD97":2541400.7000000002,"ADDRESS":"中清一街３９巷２號","OBJECTID":454435},"geometry":{"x":173635.5700000003,"y":2541400.6999999993}},{"attributes":{"ID":454461,"DIS_CODE":0,"TOWNNAME":"仁德區","LI":"仁義里","LIN":"25鄰","STREET":"中清一街","SECT":" ","MAREA":" ","LANE":"３９巷","ALLEY":" ","HOUSE_NO":"３號","E_COORD97":173630.73999999999,"N_COORD97":2541396.0499999998,"ADDRESS":"中清一街３９巷３號","OBJECTID":454436},"geometry":{"x":173630.74000000022,"y":2541396.0500000007}},{"attributes":{"ID":454462,"DIS_CODE":0,"TOWNNAME":"仁德區","LI":"仁義里","LIN":"25鄰","STREET":"中清一街","SECT":" ","MAREA":" ","LANE":"３９巷","ALLEY":" ","HOUSE_NO":"５號","E_COORD97":173625.79999999999,"N_COORD97":2541396.3500000001,"ADDRESS":"中清一街３９巷５號","OBJECTID":454437},"geometry":{"x":173625.80000000075,"y":2541396.3499999996}},{"attributes":{"ID":454463,"DIS_CODE":0,"TOWNNAME":"仁德區","LI":"仁義里","LIN":"25鄰","STREET":"中清一街","SECT":" ","MAREA":" ","LANE":"３９巷","ALLEY":" ","HOUSE_NO":"６號","E_COORD97":173631.54000000001,"N_COORD97":2541401.29,"ADDRESS":"中清一街３９巷６號","OBJECTID":454438},"geometry":{"x":173631.54000000097,"y":2541401.290000001}},{"attributes":{"ID":454464,"DIS_CODE":0,"TOWNNAME":"仁德區","LI":"仁義里","LIN":"25鄰","STREET":"中清一街","SECT":" ","MAREA":" ","LANE":"３９巷","ALLEY":" ","HOUSE_NO":"７號","E_COORD97":173621.35999999999,"N_COORD97":2541396.8500000001,"ADDRESS":"中清一街３９巷７號","OBJECTID":454439},"geometry":{"x":173621.36000000127,"y":2541396.8499999996}},{"attributes":{"ID":454465,"DIS_CODE":0,"TOWNNAME":"仁德區","LI":"仁義里","LIN":"25鄰","STREET":"中清一街","SECT":" ","MAREA":" ","LANE":"３９巷","ALLEY":" ","HOUSE_NO":"８號","E_COORD97":173626.98000000001,"N_COORD97":2541402.0299999998,"ADDRESS":"中清一街３９巷８號","OBJECTID":454440},"geometry":{"x":173626.98000000138,"y":2541402.0299999993}},{"attributes":{"ID":454466,"DIS_CODE":0,"TOWNNAME":"仁德區","LI":"仁義里","LIN":"25鄰","STREET":"中清一街","SECT":" ","MAREA":" ","LANE":"３９巷","ALLEY":" ","HOUSE_NO":"９號","E_COORD97":173617.23000000001,"N_COORD97":2541397.3399999999,"ADDRESS":"中清一街３９巷９號","OBJECTID":454441},"geometry":{"x":173617.23000000138,"y":2541397.3399999999}},{"attributes":{"ID":454467,"DIS_CODE":0,"TOWNNAME":"安南區","LI":"州北里","LIN":"25鄰","STREET":"安和路","SECT":"五段","MAREA":" ","LANE":"１７１巷","ALLEY":" ","HOUSE_NO":"３８號","E_COORD97":169762.17000000001,"N_COORD97":2551825.6699999999,"ADDRESS":"安和路五段１７１巷３８號","OBJECTID":454442},"geometry":{"x":169762.17000000086,"y":2551825.6700000018}},{"attributes":{"ID":454468,"DIS_CODE":0,"TOWNNAME":"安南區","LI":"州北里","LIN":"25鄰","STREET":"安和路","SECT":"五段","MAREA":" ","LANE":"１７１巷","ALLEY":" ","HOUSE_NO":"３８號之１","E_COORD97":169757.79000000001,"N_COORD97":2551823.1899999999,"ADDRESS":"安和路五段１７１巷３８號之１","OBJECTID":454443},"geometry":{"x":169757.79000000097,"y":2551823.1899999995}},{"attributes":{"ID":454469,"DIS_CODE":0,"TOWNNAME":"新市區","LI":"新市里","LIN":"25鄰","STREET":"復興路","SECT":" ","MAREA":" ","LANE":"６巷","ALLEY":" ","HOUSE_NO":"３０號","E_COORD97":177905.23999999999,"N_COORD97":2553349.7799999998,"ADDRESS":"復興路６巷３０號","OBJECTID":454444},"geometry":{"x":177905.24000000115,"y":2553349.7800000012}},{"attributes":{"ID":454470,"DIS_CODE":0,"TOWNNAME":"安南區","LI":"新順里","LIN":"25鄰","STREET":"培安路","SECT":" ","MAREA":" ","LANE":"１９５巷","ALLEY":" ","HOUSE_NO":"４７號","E_COORD97":169302.17999999999,"N_COORD97":2549212.5800000001,"ADDRESS":"培安路１９５巷４７號","OBJECTID":454445},"geometry":{"x":169302.18000000063,"y":2549212.5800000019}},{"attributes":{"ID":454471,"DIS_CODE":0,"TOWNNAME":"安南區","LI":"新順里","LIN":"25鄰","STREET":"培安路","SECT":" ","MAREA":" ","LANE":"２２９巷","ALLEY":" ","HOUSE_NO":"６６號","E_COORD97":169415.14999999999,"N_COORD97":2549038.1499999999,"ADDRESS":"培安路２２９巷６６號","OBJECTID":454446},"geometry":{"x":169415.1500000013,"y":2549038.1500000041}},{"attributes":{"ID":454472,"DIS_CODE":0,"TOWNNAME":"安南區","LI":"新順里","LIN":"25鄰","STREET":"培安路","SECT":" ","MAREA":" ","LANE":"２２９巷","ALLEY":" ","HOUSE_NO":"７１號","E_COORD97":169412.35999999999,"N_COORD97":2549059.0099999998,"ADDRESS":"培安路２２９巷７１號","OBJECTID":454447},"geometry":{"x":169412.36000000034,"y":2549059.0100000016}},{"attributes":{"ID":454473,"DIS_CODE":0,"TOWNNAME":"佳里區","LI":"建南里","LIN":"25鄰","STREET":"公園路","SECT":" ","MAREA":" ","LANE":"１２８巷","ALLEY":" ","HOUSE_NO":"１２號","E_COORD97":165382.5,"N_COORD97":2561760.71,"ADDRESS":"公園路１２８巷１２號","OBJECTID":454448},"geometry":{"x":165382.50000000093,"y":2561760.7100000009}},{"attributes":{"ID":454474,"DIS_CODE":0,"TOWNNAME":"佳里區","LI":"建南里","LIN":"25鄰","STREET":"公園路","SECT":" ","MAREA":" ","LANE":"１２８巷","ALLEY":" ","HOUSE_NO":"１５號","E_COORD97":165383.73000000001,"N_COORD97":2561752.4700000002,"ADDRESS":"公園路１２８巷１５號","OBJECTID":454449},"geometry":{"x":165383.73000000138,"y":2561752.4700000007}},{"attributes":{"ID":454475,"DIS_CODE":0,"TOWNNAME":"佳里區","LI":"建南里","LIN":"25鄰","STREET":"公園路","SECT":" ","MAREA":" ","LANE":"１２８巷","ALLEY":" ","HOUSE_NO":"１６號","E_COORD97":165383.14000000001,"N_COORD97":2561736.75,"ADDRESS":"公園路１２８巷１６號","OBJECTID":454450},"geometry":{"x":165383.1400000006,"y":2561736.75}},{"attributes":{"ID":454476,"DIS_CODE":0,"TOWNNAME":"佳里區","LI":"建南里","LIN":"25鄰","STREET":"公園路","SECT":" ","MAREA":" ","LANE":"１２８巷","ALLEY":" ","HOUSE_NO":"１７號","E_COORD97":165387.54999999999,"N_COORD97":2561737.2000000002,"ADDRESS":"公園路１２８巷１７號","OBJECTID":454451},"geometry":{"x":165387.55000000075,"y":2561737.2000000011}},{"attributes":{"ID":454477,"DIS_CODE":0,"TOWNNAME":"佳里區","LI":"建南里","LIN":"25鄰","STREET":"公園路","SECT":" ","MAREA":" ","LANE":"１２８巷","ALLEY":" ","HOUSE_NO":"１８號","E_COORD97":165392.44,"N_COORD97":2561737.7400000002,"ADDRESS":"公園路１２８巷１８號","OBJECTID":454452},"geometry":{"x":165392.44000000134,"y":2561737.7400000039}},{"attributes":{"ID":454478,"DIS_CODE":0,"TOWNNAME":"佳里區","LI":"建南里","LIN":"25鄰","STREET":"公園路","SECT":" ","MAREA":" ","LANE":"１２８巷","ALLEY":" ","HOUSE_NO":"１９號","E_COORD97":165396.85000000001,"N_COORD97":2561738.3500000001,"ADDRESS":"公園路１２８巷１９號","OBJECTID":454453},"geometry":{"x":165396.85000000056,"y":2561738.3499999996}},{"attributes":{"ID":454479,"DIS_CODE":0,"TOWNNAME":"佳里區","LI":"建南里","LIN":"25鄰","STREET":"公園路","SECT":" ","MAREA":" ","LANE":"１２８巷","ALLEY":" ","HOUSE_NO":"１號之１","E_COORD97":165349.73999999999,"N_COORD97":2561740.4700000002,"ADDRESS":"公園路１２８巷１號之１","OBJECTID":454454},"geometry":{"x":165349.74000000022,"y":2561740.4700000025}},{"attributes":{"ID":454480,"DIS_CODE":0,"TOWNNAME":"佳里區","LI":"建南里","LIN":"25鄰","STREET":"公園路","SECT":" ","MAREA":" ","LANE":"１２８巷","ALLEY":" ","HOUSE_NO":"１號","E_COORD97":165357.20999999999,"N_COORD97":2561729.5899999999,"ADDRESS":"公園路１２８巷１號","OBJECTID":454455},"geometry":{"x":165357.21000000183,"y":2561729.5900000017}},{"attributes":{"ID":454481,"DIS_CODE":0,"TOWNNAME":"佳里區","LI":"建南里","LIN":"25鄰","STREET":"公園路","SECT":" ","MAREA":" ","LANE":"１２８巷","ALLEY":" ","HOUSE_NO":"２０號","E_COORD97":165404.64999999999,"N_COORD97":2561742.6699999999,"ADDRESS":"公園路１２８巷２０號","OBJECTID":454456},"geometry":{"x":165404.65000000037,"y":2561742.6700000018}},{"attributes":{"ID":454482,"DIS_CODE":0,"TOWNNAME":"佳里區","LI":"建南里","LIN":"25鄰","STREET":"公園路","SECT":" ","MAREA":" ","LANE":"１２８巷","ALLEY":" ","HOUSE_NO":"２１號","E_COORD97":165429.75,"N_COORD97":2561754.7599999998,"ADDRESS":"公園路１２８巷２１號","OBJECTID":454457},"geometry":{"x":165429.75000000186,"y":2561754.7600000016}},{"attributes":{"ID":454483,"DIS_CODE":0,"TOWNNAME":"佳里區","LI":"建南里","LIN":"25鄰","STREET":"公園路","SECT":" ","MAREA":" ","LANE":"１２８巷","ALLEY":" ","HOUSE_NO":"２號","E_COORD97":165361.37,"N_COORD97":2561730.1899999999,"ADDRESS":"公園路１２８巷２號","OBJECTID":454458},"geometry":{"x":165361.37000000197,"y":2561730.1899999976}},{"attributes":{"ID":454484,"DIS_CODE":0,"TOWNNAME":"佳里區","LI":"建南里","LIN":"25鄰","STREET":"公園路","SECT":" ","MAREA":" ","LANE":"１２８巷","ALLEY":" ","HOUSE_NO":"３號","E_COORD97":165365.76000000001,"N_COORD97":2561730.79,"ADDRESS":"公園路１２８巷３號","OBJECTID":454459},"geometry":{"x":165365.76000000071,"y":2561730.790000001}},{"attributes":{"ID":454485,"DIS_CODE":0,"TOWNNAME":"佳里區","LI":"建南里","LIN":"25鄰","STREET":"公園路","SECT":" ","MAREA":" ","LANE":"１２８巷","ALLEY":" ","HOUSE_NO":"５號","E_COORD97":165369.97,"N_COORD97":2561731.3700000001,"ADDRESS":"公園路１２８巷５號","OBJECTID":454460},"geometry":{"x":165369.96999999974,"y":2561731.3700000029}},{"attributes":{"ID":454486,"DIS_CODE":0,"TOWNNAME":"佳里區","LI":"建南里","LIN":"25鄰","STREET":"公園路","SECT":" ","MAREA":" ","LANE":"１２８巷","ALLEY":" ","HOUSE_NO":"６號","E_COORD97":165374.35000000001,"N_COORD97":2561731.8599999999,"ADDRESS":"公園路１２８巷６號","OBJECTID":454461},"geometry":{"x":165374.3499999987,"y":2561731.8599999994}},{"attributes":{"ID":454487,"DIS_CODE":0,"TOWNNAME":"佳里區","LI":"建南里","LIN":"25鄰","STREET":"公園路","SECT":" ","MAREA":" ","LANE":"１２８巷","ALLEY":" ","HOUSE_NO":"７號","E_COORD97":165366.97,"N_COORD97":2561750.3900000001,"ADDRESS":"公園路１２８巷７號","OBJECTID":454462},"geometry":{"x":165366.9700000016,"y":2561750.3900000043}},{"attributes":{"ID":454488,"DIS_CODE":0,"TOWNNAME":"佳里區","LI":"建南里","LIN":"25鄰","STREET":"公園路","SECT":" ","MAREA":" ","LANE":"１２８巷","ALLEY":" ","HOUSE_NO":"８號","E_COORD97":165366.62,"N_COORD97":2561754.3900000001,"ADDRESS":"公園路１２８巷８號","OBJECTID":454463},"geometry":{"x":165366.62000000104,"y":2561754.3900000025}},{"attributes":{"ID":454489,"DIS_CODE":0,"TOWNNAME":"佳里區","LI":"建南里","LIN":"25鄰","STREET":"公園路","SECT":" ","MAREA":" ","LANE":"１２８巷","ALLEY":" ","HOUSE_NO":"９號","E_COORD97":165365.98999999999,"N_COORD97":2561758.4300000002,"ADDRESS":"公園路１２８巷９號","OBJECTID":454464},"geometry":{"x":165365.99000000115,"y":2561758.4299999997}},{"attributes":{"ID":454490,"DIS_CODE":0,"TOWNNAME":"佳里區","LI":"建南里","LIN":"25鄰","STREET":"公園路","SECT":" ","MAREA":" ","LANE":"１５８巷","ALLEY":" ","HOUSE_NO":"１０號","E_COORD97":165359.63,"N_COORD97":2561778.7999999998,"ADDRESS":"公園路１５８巷１０號","OBJECTID":454465},"geometry":{"x":165359.63000000082,"y":2561778.8000000026}},{"attributes":{"ID":454491,"DIS_CODE":0,"TOWNNAME":"佳里區","LI":"建南里","LIN":"25鄰","STREET":"公園路","SECT":" ","MAREA":" ","LANE":"１５８巷","ALLEY":" ","HOUSE_NO":"１１號","E_COORD97":165369.32999999999,"N_COORD97":2561796.4199999999,"ADDRESS":"公園路１５８巷１１號","OBJECTID":454466},"geometry":{"x":165369.33000000007,"y":2561796.4199999999}},{"attributes":{"ID":454492,"DIS_CODE":0,"TOWNNAME":"佳里區","LI":"建南里","LIN":"25鄰","STREET":"公園路","SECT":" ","MAREA":" ","LANE":"１５８巷","ALLEY":" ","HOUSE_NO":"１２號","E_COORD97":165364.04999999999,"N_COORD97":2561779.4100000001,"ADDRESS":"公園路１５８巷１２號","OBJECTID":454467},"geometry":{"x":165364.04999999981,"y":2561779.4100000001}},{"attributes":{"ID":454493,"DIS_CODE":0,"TOWNNAME":"佳里區","LI":"建南里","LIN":"25鄰","STREET":"公園路","SECT":" ","MAREA":" ","LANE":"１５８巷","ALLEY":" ","HOUSE_NO":"１６號","E_COORD97":165368.29000000001,"N_COORD97":2561780.04,"ADDRESS":"公園路１５８巷１６號","OBJECTID":454468},"geometry":{"x":165368.29000000004,"y":2561780.040000001}},{"attributes":{"ID":454494,"DIS_CODE":0,"TOWNNAME":"佳里區","LI":"建南里","LIN":"25鄰","STREET":"公園路","SECT":" ","MAREA":" ","LANE":"１５８巷","ALLEY":" ","HOUSE_NO":"２６號","E_COORD97":165391.63,"N_COORD97":2561782.0299999998,"ADDRESS":"公園路１５８巷２６號","OBJECTID":454469},"geometry":{"x":165391.63000000175,"y":2561782.0300000031}},{"attributes":{"ID":454495,"DIS_CODE":0,"TOWNNAME":"佳里區","LI":"建南里","LIN":"25鄰","STREET":"公園路","SECT":" ","MAREA":" ","LANE":"１５８巷","ALLEY":" ","HOUSE_NO":"３號","E_COORD97":165352.78,"N_COORD97":2561794.71,"ADDRESS":"公園路１５８巷３號","OBJECTID":454470},"geometry":{"x":165352.78000000026,"y":2561794.7100000009}},{"attributes":{"ID":454496,"DIS_CODE":0,"TOWNNAME":"佳里區","LI":"建南里","LIN":"25鄰","STREET":"公園路","SECT":" ","MAREA":" ","LANE":"１５８巷","ALLEY":" ","HOUSE_NO":"５號","E_COORD97":165356.82999999999,"N_COORD97":2561795.1200000001,"ADDRESS":"公園路１５８巷５號","OBJECTID":454471},"geometry":{"x":165356.83000000101,"y":2561795.1200000029}},{"attributes":{"ID":454497,"DIS_CODE":0,"TOWNNAME":"佳里區","LI":"建南里","LIN":"25鄰","STREET":"公園路","SECT":" ","MAREA":" ","LANE":"１５８巷","ALLEY":" ","HOUSE_NO":"６號","E_COORD97":165351.31,"N_COORD97":2561777.8100000001,"ADDRESS":"公園路１５８巷６號","OBJECTID":454472},"geometry":{"x":165351.31000000052,"y":2561777.8100000005}},{"attributes":{"ID":454498,"DIS_CODE":0,"TOWNNAME":"佳里區","LI":"建南里","LIN":"25鄰","STREET":"公園路","SECT":" ","MAREA":" ","LANE":"１５８巷","ALLEY":" ","HOUSE_NO":"７號","E_COORD97":165360.98999999999,"N_COORD97":2561795.5899999999,"ADDRESS":"公園路１５８巷７號","OBJECTID":454473},"geometry":{"x":165360.99000000115,"y":2561795.589999998}},{"attributes":{"ID":454499,"DIS_CODE":0,"TOWNNAME":"佳里區","LI":"建南里","LIN":"25鄰","STREET":"公園路","SECT":" ","MAREA":" ","LANE":"１５８巷","ALLEY":" ","HOUSE_NO":"８號","E_COORD97":165355.51000000001,"N_COORD97":2561778.3100000001,"ADDRESS":"公園路１５８巷８號","OBJECTID":454474},"geometry":{"x":165355.51000000071,"y":2561778.3100000042}},{"attributes":{"ID":454500,"DIS_CODE":0,"TOWNNAME":"佳里區","LI":"建南里","LIN":"25鄰","STREET":"公園路","SECT":" ","MAREA":" ","LANE":"１５８巷","ALLEY":" ","HOUSE_NO":"９號","E_COORD97":165365.13,"N_COORD97":2561796.0299999998,"ADDRESS":"公園路１５８巷９號","OBJECTID":454475},"geometry":{"x":165365.13000000082,"y":2561796.0300000012}},{"attributes":{"ID":454501,"DIS_CODE":0,"TOWNNAME":"佳里區","LI":"建南里","LIN":"25鄰","STREET":"公園路","SECT":" ","MAREA":" ","LANE":"１７０巷","ALLEY":" ","HOUSE_NO":"１３號","E_COORD97":165377.57000000001,"N_COORD97":2561825.1299999999,"ADDRESS":"公園路１７０巷１３號","OBJECTID":454476},"geometry":{"x":165377.57000000123,"y":2561825.1300000027}},{"attributes":{"ID":454502,"DIS_CODE":0,"TOWNNAME":"佳里區","LI":"建南里","LIN":"25鄰","STREET":"公園路","SECT":" ","MAREA":" ","LANE":"１７０巷","ALLEY":" ","HOUSE_NO":"１５號","E_COORD97":165382.28,"N_COORD97":2561825.79,"ADDRESS":"公園路１７０巷１５號","OBJECTID":454477},"geometry":{"x":165382.27999999933,"y":2561825.790000001}},{"attributes":{"ID":454503,"DIS_CODE":0,"TOWNNAME":"佳里區","LI":"建南里","LIN":"25鄰","STREET":"公園路","SECT":" ","MAREA":" ","LANE":"１７０巷","ALLEY":" ","HOUSE_NO":"１７號","E_COORD97":165387.20999999999,"N_COORD97":2561826.5299999998,"ADDRESS":"公園路１７０巷１７號","OBJECTID":454478},"geometry":{"x":165387.20999999996,"y":2561826.5300000012}},{"attributes":{"ID":454504,"DIS_CODE":0,"TOWNNAME":"佳里區","LI":"建南里","LIN":"25鄰","STREET":"公園路","SECT":" ","MAREA":" ","LANE":"１７０巷","ALLEY":" ","HOUSE_NO":"１９號","E_COORD97":165392.20000000001,"N_COORD97":2561827.0899999999,"ADDRESS":"公園路１７０巷１９號","OBJECTID":454479},"geometry":{"x":165392.20000000019,"y":2561827.0900000017}},{"attributes":{"ID":454505,"DIS_CODE":0,"TOWNNAME":"佳里區","LI":"建南里","LIN":"25鄰","STREET":"公園路","SECT":" ","MAREA":" ","LANE":"１７０巷","ALLEY":" ","HOUSE_NO":"２１號","E_COORD97":165397.04999999999,"N_COORD97":2561827.6800000002,"ADDRESS":"公園路１７０巷２１號","OBJECTID":454480},"geometry":{"x":165397.05000000168,"y":2561827.6799999997}},{"attributes":{"ID":454506,"DIS_CODE":0,"TOWNNAME":"佳里區","LI":"建南里","LIN":"25鄰","STREET":"公園路","SECT":" ","MAREA":" ","LANE":"１７０巷","ALLEY":" ","HOUSE_NO":"２３號","E_COORD97":165401.67000000001,"N_COORD97":2561828.2400000002,"ADDRESS":"公園路１７０巷２３號","OBJECTID":454481},"geometry":{"x":165401.67000000086,"y":2561828.2400000002}},{"attributes":{"ID":454507,"DIS_CODE":0,"TOWNNAME":"佳里區","LI":"建南里","LIN":"25鄰","STREET":"公園路","SECT":" ","MAREA":" ","LANE":"１７０巷","ALLEY":" ","HOUSE_NO":"５號","E_COORD97":165358.14999999999,"N_COORD97":2561822.3599999999,"ADDRESS":"公園路１７０巷５號","OBJECTID":454482},"geometry":{"x":165358.1500000013,"y":2561822.3599999994}},{"attributes":{"ID":454508,"DIS_CODE":0,"TOWNNAME":"佳里區","LI":"建南里","LIN":"25鄰","STREET":"公園路","SECT":" ","MAREA":" ","LANE":"１７０巷","ALLEY":" ","HOUSE_NO":"７號","E_COORD97":165362.94,"N_COORD97":2561823.1000000001,"ADDRESS":"公園路１７０巷７號","OBJECTID":454483},"geometry":{"x":165362.94000000227,"y":2561823.1000000015}},{"attributes":{"ID":454509,"DIS_CODE":0,"TOWNNAME":"佳里區","LI":"建南里","LIN":"25鄰","STREET":"公園路","SECT":" ","MAREA":" ","LANE":"１７０巷","ALLEY":" ","HOUSE_NO":"９號","E_COORD97":165367.78,"N_COORD97":2561823.7400000002,"ADDRESS":"公園路１７０巷９號","OBJECTID":454484},"geometry":{"x":165367.78000000119,"y":2561823.7400000021}},{"attributes":{"ID":454510,"DIS_CODE":0,"TOWNNAME":"永康區","LI":"西灣里","LIN":"25鄰","STREET":"國光七街","SECT":" ","MAREA":" ","LANE":"２０巷","ALLEY":" ","HOUSE_NO":"２７號","E_COORD97":174321.34,"N_COORD97":2545605.1499999999,"ADDRESS":"國光七街２０巷２７號","OBJECTID":454485},"geometry":{"x":174321.33999999985,"y":2545605.1500000022}},{"attributes":{"ID":454511,"DIS_CODE":0,"TOWNNAME":"永康區","LI":"尚頂里","LIN":"25鄰","STREET":"中正南路","SECT":" ","MAREA":" ","LANE":"２１０巷","ALLEY":" ","HOUSE_NO":"２２號","E_COORD97":170178.32000000001,"N_COORD97":2547132,"ADDRESS":"中正南路２１０巷２２號","OBJECTID":454486},"geometry":{"x":170178.32000000123,"y":2547132}},{"attributes":{"ID":454512,"DIS_CODE":0,"TOWNNAME":"永康區","LI":"南灣里","LIN":"25鄰","STREET":"立興街","SECT":" ","MAREA":" ","LANE":"７４巷","ALLEY":" ","HOUSE_NO":"９號","E_COORD97":174513.47,"N_COORD97":2544815.9199999999,"ADDRESS":"立興街７４巷９號","OBJECTID":454487},"geometry":{"x":174513.46999999974,"y":2544815.9200000018}},{"attributes":{"ID":454513,"DIS_CODE":0,"TOWNNAME":"永康區","LI":"西灣里","LIN":"25鄰","STREET":"國光七街","SECT":" ","MAREA":" ","LANE":"２０巷","ALLEY":" ","HOUSE_NO":"１７號","E_COORD97":174327.10000000001,"N_COORD97":2545625.3999999999,"ADDRESS":"國光七街２０巷１７號","OBJECTID":454488},"geometry":{"x":174327.10000000056,"y":2545625.3999999985}},{"attributes":{"ID":454514,"DIS_CODE":0,"TOWNNAME":"永康區","LI":"西灣里","LIN":"25鄰","STREET":"國光七街","SECT":" ","MAREA":" ","LANE":"２０巷","ALLEY":" ","HOUSE_NO":"１５號","E_COORD97":174328.22,"N_COORD97":2545629.6400000001,"ADDRESS":"國光七街２０巷１５號","OBJECTID":454489},"geometry":{"x":174328.22000000067,"y":2545629.6400000006}},{"attributes":{"ID":454515,"DIS_CODE":0,"TOWNNAME":"永康區","LI":"尚頂里","LIN":"25鄰","STREET":"南台街","SECT":" ","MAREA":" ","LANE":"１５４巷","ALLEY":" ","HOUSE_NO":"２０號","E_COORD97":170108.10000000001,"N_COORD97":2547110.2400000002,"ADDRESS":"南台街１５４巷２０號","OBJECTID":454490},"geometry":{"x":170108.10000000056,"y":2547110.2400000002}},{"attributes":{"ID":454516,"DIS_CODE":0,"TOWNNAME":"永康區","LI":"西灣里","LIN":"25鄰","STREET":"國光七街","SECT":" ","MAREA":" ","LANE":"２０巷","ALLEY":" ","HOUSE_NO":"２１號","E_COORD97":174324.73999999999,"N_COORD97":2545617.3999999999,"ADDRESS":"國光七街２０巷２１號","OBJECTID":454491},"geometry":{"x":174324.74000000209,"y":2545617.4000000004}},{"attributes":{"ID":454517,"DIS_CODE":0,"TOWNNAME":"安南區","LI":"新順里","LIN":"25鄰","STREET":"培安路","SECT":" ","MAREA":" ","LANE":"１９５巷","ALLEY":" ","HOUSE_NO":"３６號","E_COORD97":169288.07000000001,"N_COORD97":2549196.1800000002,"ADDRESS":"培安路１９５巷３６號","OBJECTID":454492},"geometry":{"x":169288.07000000123,"y":2549196.1799999978}},{"attributes":{"ID":454518,"DIS_CODE":0,"TOWNNAME":"安南區","LI":"新順里","LIN":"25鄰","STREET":"培安路","SECT":" ","MAREA":" ","LANE":"２２９巷","ALLEY":" ","HOUSE_NO":"２６號","E_COORD97":169334.81,"N_COORD97":2549056.48,"ADDRESS":"培安路２２９巷２６號","OBJECTID":454493},"geometry":{"x":169334.81000000145,"y":2549056.4800000023}},{"attributes":{"ID":454519,"DIS_CODE":0,"TOWNNAME":"佳里區","LI":"安西里","LIN":"25鄰","STREET":"佳北路","SECT":" ","MAREA":" ","LANE":"４８２巷","ALLEY":" ","HOUSE_NO":"１１號","E_COORD97":164985.56,"N_COORD97":2563394.9399999999,"ADDRESS":"佳北路４８２巷１１號","OBJECTID":454494},"geometry":{"x":164985.56000000052,"y":2563394.9400000013}},{"attributes":{"ID":454520,"DIS_CODE":0,"TOWNNAME":"佳里區","LI":"安西里","LIN":"25鄰","STREET":"佳北路","SECT":" ","MAREA":" ","LANE":"４８２巷","ALLEY":" ","HOUSE_NO":"１３號","E_COORD97":164988.70000000001,"N_COORD97":2563396.9300000002,"ADDRESS":"佳北路４８２巷１３號","OBJECTID":454495},"geometry":{"x":164988.70000000112,"y":2563396.9300000034}},{"attributes":{"ID":454521,"DIS_CODE":0,"TOWNNAME":"佳里區","LI":"安西里","LIN":"25鄰","STREET":"佳北路","SECT":" ","MAREA":" ","LANE":"４８２巷","ALLEY":" ","HOUSE_NO":"１５號","E_COORD97":164992.82999999999,"N_COORD97":2563400.0600000001,"ADDRESS":"佳北路４８２巷１５號","OBJECTID":454496},"geometry":{"x":164992.83000000007,"y":2563400.0600000005}},{"attributes":{"ID":454522,"DIS_CODE":0,"TOWNNAME":"佳里區","LI":"安西里","LIN":"25鄰","STREET":"佳北路","SECT":" ","MAREA":" ","LANE":"４８２巷","ALLEY":" ","HOUSE_NO":"１７號","E_COORD97":164996.31,"N_COORD97":2563402.79,"ADDRESS":"佳北路４８２巷１７號","OBJECTID":454497},"geometry":{"x":164996.30999999959,"y":2563402.7899999991}},{"attributes":{"ID":454523,"DIS_CODE":0,"TOWNNAME":"佳里區","LI":"安西里","LIN":"25鄰","STREET":"佳北路","SECT":" ","MAREA":" ","LANE":"４８２巷","ALLEY":" ","HOUSE_NO":"１號","E_COORD97":165014.45999999999,"N_COORD97":2563373.3799999999,"ADDRESS":"佳北路４８２巷１號","OBJECTID":454498},"geometry":{"x":165014.45999999996,"y":2563373.3800000008}},{"attributes":{"ID":454524,"DIS_CODE":0,"TOWNNAME":"佳里區","LI":"安西里","LIN":"25鄰","STREET":"佳北路","SECT":" ","MAREA":" ","LANE":"４８２巷","ALLEY":" ","HOUSE_NO":"３號","E_COORD97":165010.79999999999,"N_COORD97":2563378.9100000001,"ADDRESS":"佳北路４８２巷３號","OBJECTID":454499},"geometry":{"x":165010.80000000075,"y":2563378.910000002}},{"attributes":{"ID":454525,"DIS_CODE":0,"TOWNNAME":"佳里區","LI":"安西里","LIN":"25鄰","STREET":"佳北路","SECT":" ","MAREA":" ","LANE":"４８２巷","ALLEY":" ","HOUSE_NO":"５號","E_COORD97":165007.29999999999,"N_COORD97":2563384.7400000002,"ADDRESS":"佳北路４８２巷５號","OBJECTID":454500},"geometry":{"x":165007.30000000168,"y":2563384.7400000002}},{"attributes":{"ID":454526,"DIS_CODE":0,"TOWNNAME":"佳里區","LI":"安西里","LIN":"25鄰","STREET":"佳北路","SECT":" ","MAREA":" ","LANE":"４８２巷","ALLEY":" ","HOUSE_NO":"７號","E_COORD97":165003.98999999999,"N_COORD97":2563389.3599999999,"ADDRESS":"佳北路４８２巷７號","OBJECTID":454501},"geometry":{"x":165003.99000000022,"y":2563389.3599999994}},{"attributes":{"ID":454527,"DIS_CODE":0,"TOWNNAME":"佳里區","LI":"安西里","LIN":"25鄰","STREET":"佳北路","SECT":" ","MAREA":" ","LANE":"４８２巷","ALLEY":" ","HOUSE_NO":"９號","E_COORD97":164982.92000000001,"N_COORD97":2563392.6699999999,"ADDRESS":"佳北路４８２巷９號","OBJECTID":454502},"geometry":{"x":164982.92000000086,"y":2563392.6700000018}},{"attributes":{"ID":454528,"DIS_CODE":0,"TOWNNAME":"東區","LI":"東門里","LIN":"25鄰","STREET":"東門路","SECT":"一段","MAREA":" ","LANE":"１３１巷","ALLEY":" ","HOUSE_NO":"１７號","E_COORD97":169454.98999999999,"N_COORD97":2543324.5,"ADDRESS":"東門路一段１３１巷１７號","OBJECTID":454503},"geometry":{"x":169454.99000000115,"y":2543324.5}},{"attributes":{"ID":454529,"DIS_CODE":0,"TOWNNAME":"東區","LI":"東門里","LIN":"25鄰","STREET":"東門路","SECT":"一段","MAREA":" ","LANE":"１３１巷","ALLEY":" ","HOUSE_NO":"１９號","E_COORD97":169455.22,"N_COORD97":2543329.6699999999,"ADDRESS":"東門路一段１３１巷１９號","OBJECTID":454504},"geometry":{"x":169455.21999999974,"y":2543329.6700000018}},{"attributes":{"ID":454530,"DIS_CODE":0,"TOWNNAME":"官田區","LI":"二鎮里","LIN":"25鄰","STREET":"工社西街","SECT":" ","MAREA":" ","LANE":"２５巷","ALLEY":" ","HOUSE_NO":"４２號","E_COORD97":181174.70999999999,"N_COORD97":2568835.8599999999,"ADDRESS":"工社西街２５巷４２號","OBJECTID":454505},"geometry":{"x":181174.70999999996,"y":2568835.8600000013}},{"attributes":{"ID":454531,"DIS_CODE":0,"TOWNNAME":"官田區","LI":"二鎮里","LIN":"25鄰","STREET":"工社西街","SECT":" ","MAREA":" ","LANE":"２５巷","ALLEY":" ","HOUSE_NO":"４７號","E_COORD97":181213.51999999999,"N_COORD97":2568847.0099999998,"ADDRESS":"工社西街２５巷４７號","OBJECTID":454506},"geometry":{"x":181213.52000000048,"y":2568847.0099999998}},{"attributes":{"ID":454532,"DIS_CODE":0,"TOWNNAME":"官田區","LI":"二鎮里","LIN":"25鄰","STREET":"工社西街","SECT":" ","MAREA":" ","LANE":"２５巷","ALLEY":" ","HOUSE_NO":"４８號","E_COORD97":181222.37,"N_COORD97":2568849.4300000002,"ADDRESS":"工社西街２５巷４８號","OBJECTID":454507},"geometry":{"x":181222.37000000011,"y":2568849.4300000016}},{"attributes":{"ID":454533,"DIS_CODE":0,"TOWNNAME":"官田區","LI":"二鎮里","LIN":"25鄰","STREET":"工社西街","SECT":" ","MAREA":" ","LANE":"２５巷","ALLEY":" ","HOUSE_NO":"５２號","E_COORD97":181250.73000000001,"N_COORD97":2568854.6800000002,"ADDRESS":"工社西街２５巷５２號","OBJECTID":454508},"geometry":{"x":181250.73000000138,"y":2568854.6800000016}},{"attributes":{"ID":454534,"DIS_CODE":0,"TOWNNAME":"官田區","LI":"二鎮里","LIN":"25鄰","STREET":"工社西街","SECT":" ","MAREA":" ","LANE":"２５巷","ALLEY":" ","HOUSE_NO":"５３號","E_COORD97":181257.39999999999,"N_COORD97":2568859.3799999999,"ADDRESS":"工社西街２５巷５３號","OBJECTID":454509},"geometry":{"x":181257.4000000013,"y":2568859.3800000008}},{"attributes":{"ID":454535,"DIS_CODE":0,"TOWNNAME":"官田區","LI":"二鎮里","LIN":"25鄰","STREET":"工社西街","SECT":" ","MAREA":" ","LANE":"２５巷","ALLEY":" ","HOUSE_NO":"５４號","E_COORD97":181273.45999999999,"N_COORD97":2568863.6099999999,"ADDRESS":"工社西街２５巷５４號","OBJECTID":454510},"geometry":{"x":181273.46000000089,"y":2568863.6099999994}},{"attributes":{"ID":454536,"DIS_CODE":0,"TOWNNAME":"官田區","LI":"二鎮里","LIN":"25鄰","STREET":"工社西街","SECT":" ","MAREA":" ","LANE":"２５巷","ALLEY":" ","HOUSE_NO":"５５號","E_COORD97":181285.03,"N_COORD97":2568866.2400000002,"ADDRESS":"工社西街２５巷５５號","OBJECTID":454511},"geometry":{"x":181285.03000000212,"y":2568866.2400000002}},{"attributes":{"ID":454537,"DIS_CODE":0,"TOWNNAME":"官田區","LI":"二鎮里","LIN":"25鄰","STREET":"工社西街","SECT":" ","MAREA":" ","LANE":"２５巷","ALLEY":" ","HOUSE_NO":"５７號","E_COORD97":181300.87,"N_COORD97":2568866.3999999999,"ADDRESS":"工社西街２５巷５７號","OBJECTID":454512},"geometry":{"x":181300.87000000011,"y":2568866.3999999985}},{"attributes":{"ID":454538,"DIS_CODE":0,"TOWNNAME":"官田區","LI":"二鎮里","LIN":"25鄰","STREET":"工社西街","SECT":" ","MAREA":" ","LANE":"２５巷","ALLEY":" ","HOUSE_NO":"６５號","E_COORD97":181338.63,"N_COORD97":2568877.6400000001,"ADDRESS":"工社西街２５巷６５號","OBJECTID":454513},"geometry":{"x":181338.63000000082,"y":2568877.6400000006}},{"attributes":{"ID":454539,"DIS_CODE":0,"TOWNNAME":"官田區","LI":"二鎮里","LIN":"25鄰","STREET":"工社西街","SECT":" ","MAREA":" ","LANE":"２５巷","ALLEY":" ","HOUSE_NO":"７１號","E_COORD97":181421.35999999999,"N_COORD97":2568893.21,"ADDRESS":"工社西街２５巷７１號","OBJECTID":454514},"geometry":{"x":181421.36000000034,"y":2568893.2100000028}},{"attributes":{"ID":454540,"DIS_CODE":0,"TOWNNAME":"東區","LI":"和平里","LIN":"1鄰","STREET":"仁和路","SECT":" ","MAREA":" ","LANE":" ","ALLEY":" ","HOUSE_NO":"３５號十二樓","E_COORD97":171099.45000000001,"N_COORD97":2542097.2200000002,"ADDRESS":"仁和路３５號十二樓","OBJECTID":454515},"geometry":{"x":171099.45000000112,"y":2542097.2200000007}},{"attributes":{"ID":454541,"DIS_CODE":0,"TOWNNAME":"永康區","LI":"龍潭里","LIN":"17鄰","STREET":"龍潭街","SECT":" ","MAREA":" ","LANE":"１９３巷","ALLEY":" ","HOUSE_NO":"４號","E_COORD97":174916.17999999999,"N_COORD97":2548371.1200000001,"ADDRESS":"龍潭街１９３巷４號","OBJECTID":454516},"geometry":{"x":174916.18000000156,"y":2548371.1200000048}},{"attributes":{"ID":454542,"DIS_CODE":0,"TOWNNAME":"官田區","LI":"二鎮里","LIN":"25鄰","STREET":"工社西街","SECT":" ","MAREA":" ","LANE":"２５巷","ALLEY":" ","HOUSE_NO":"７７號","E_COORD97":181450.54999999999,"N_COORD97":2568900.9199999999,"ADDRESS":"工社西街２５巷７７號","OBJECTID":454517},"geometry":{"x":181450.55000000168,"y":2568900.9200000018}},{"attributes":{"ID":454543,"DIS_CODE":0,"TOWNNAME":"官田區","LI":"二鎮里","LIN":"25鄰","STREET":"工社西街","SECT":" ","MAREA":" ","LANE":"２５巷","ALLEY":" ","HOUSE_NO":"７９號","E_COORD97":181464.5,"N_COORD97":2568903.25,"ADDRESS":"工社西街２５巷７９號","OBJECTID":454518},"geometry":{"x":181464.49999999907,"y":2568903.25}},{"attributes":{"ID":454544,"DIS_CODE":0,"TOWNNAME":"官田區","LI":"二鎮里","LIN":"25鄰","STREET":"工社西街","SECT":" ","MAREA":" ","LANE":"２５巷","ALLEY":" ","HOUSE_NO":"８１號","E_COORD97":181483.81,"N_COORD97":2568898.3799999999,"ADDRESS":"工社西街２５巷８１號","OBJECTID":454519},"geometry":{"x":181483.80999999959,"y":2568898.379999999}},{"attributes":{"ID":454545,"DIS_CODE":0,"TOWNNAME":"官田區","LI":"二鎮里","LIN":"25鄰","STREET":"工社西街","SECT":" ","MAREA":" ","LANE":"２５巷","ALLEY":" ","HOUSE_NO":"９號","E_COORD97":180892.63,"N_COORD97":2568760.2000000002,"ADDRESS":"工社西街２５巷９號","OBJECTID":454520},"geometry":{"x":180892.63000000082,"y":2568760.1999999993}},{"attributes":{"ID":454546,"DIS_CODE":0,"TOWNNAME":"官田區","LI":"隆田里","LIN":"25鄰","STREET":"中山路","SECT":"二段","MAREA":" ","LANE":"２１巷","ALLEY":" ","HOUSE_NO":"１號","E_COORD97":179069.06,"N_COORD97":2565922.3199999998,"ADDRESS":"中山路二段２１巷１號","OBJECTID":454521},"geometry":{"x":179069.06000000052,"y":2565922.3200000022}},{"attributes":{"ID":454547,"DIS_CODE":0,"TOWNNAME":"官田區","LI":"隆田里","LIN":"25鄰","STREET":"中山路","SECT":"二段","MAREA":" ","LANE":"２１巷","ALLEY":" ","HOUSE_NO":"３號","E_COORD97":179062.73999999999,"N_COORD97":2565923.79,"ADDRESS":"中山路二段２１巷３號","OBJECTID":454522},"geometry":{"x":179062.73999999929,"y":2565923.790000001}},{"attributes":{"ID":454548,"DIS_CODE":0,"TOWNNAME":"官田區","LI":"隆田里","LIN":"25鄰","STREET":"中山路","SECT":"二段","MAREA":" ","LANE":"２１巷","ALLEY":" ","HOUSE_NO":"５號","E_COORD97":179056.14999999999,"N_COORD97":2565925.73,"ADDRESS":"中山路二段２１巷５號","OBJECTID":454523},"geometry":{"x":179056.15000000037,"y":2565925.7300000023}},{"attributes":{"ID":454549,"DIS_CODE":0,"TOWNNAME":"官田區","LI":"隆田里","LIN":"25鄰","STREET":"中山路","SECT":"二段","MAREA":" ","LANE":"２１巷","ALLEY":" ","HOUSE_NO":"７號","E_COORD97":179049.82999999999,"N_COORD97":2565927.3799999999,"ADDRESS":"中山路二段２１巷７號","OBJECTID":454524},"geometry":{"x":179049.83000000007,"y":2565927.3800000008}},{"attributes":{"ID":454550,"DIS_CODE":0,"TOWNNAME":"官田區","LI":"隆田里","LIN":"25鄰","STREET":"中山路","SECT":"二段","MAREA":" ","LANE":"２１巷","ALLEY":" ","HOUSE_NO":"９號","E_COORD97":179043.47,"N_COORD97":2565929.1400000001,"ADDRESS":"中山路二段２１巷９號","OBJECTID":454525},"geometry":{"x":179043.46999999974,"y":2565929.1400000043}},{"attributes":{"ID":454551,"DIS_CODE":0,"TOWNNAME":"官田區","LI":"隆田里","LIN":"25鄰","STREET":"中山路","SECT":"二段","MAREA":" ","LANE":"５３巷","ALLEY":" ","HOUSE_NO":"１７號","E_COORD97":179010.89000000001,"N_COORD97":2565932.46,"ADDRESS":"中山路二段５３巷１７號","OBJECTID":454526},"geometry":{"x":179010.8900000006,"y":2565932.4600000009}},{"attributes":{"ID":454552,"DIS_CODE":0,"TOWNNAME":"官田區","LI":"隆田里","LIN":"25鄰","STREET":"中山路","SECT":"二段","MAREA":" ","LANE":"５３巷","ALLEY":" ","HOUSE_NO":"１９號","E_COORD97":179009.44,"N_COORD97":2565928.2200000002,"ADDRESS":"中山路二段５３巷１９號","OBJECTID":454527},"geometry":{"x":179009.44000000134,"y":2565928.2200000007}},{"attributes":{"ID":454553,"DIS_CODE":0,"TOWNNAME":"官田區","LI":"隆田里","LIN":"25鄰","STREET":"中山路","SECT":"二段","MAREA":" ","LANE":"５３巷","ALLEY":" ","HOUSE_NO":"１號","E_COORD97":179019.32000000001,"N_COORD97":2565948.48,"ADDRESS":"中山路二段５３巷１號","OBJECTID":454528},"geometry":{"x":179019.3200000003,"y":2565948.4800000023}},{"attributes":{"ID":454554,"DIS_CODE":0,"TOWNNAME":"官田區","LI":"隆田里","LIN":"25鄰","STREET":"中山路","SECT":"二段","MAREA":" ","LANE":"５３巷","ALLEY":" ","HOUSE_NO":"２１號","E_COORD97":179007.45999999999,"N_COORD97":2565923.8799999999,"ADDRESS":"中山路二段５３巷２１號","OBJECTID":454529},"geometry":{"x":179007.46000000089,"y":2565923.8800000008}},{"attributes":{"ID":454555,"DIS_CODE":0,"TOWNNAME":"官田區","LI":"隆田里","LIN":"25鄰","STREET":"中山路","SECT":"二段","MAREA":" ","LANE":"５３巷","ALLEY":" ","HOUSE_NO":"２３號","E_COORD97":179005.73000000001,"N_COORD97":2565919.7400000002,"ADDRESS":"中山路二段５３巷２３號","OBJECTID":454530},"geometry":{"x":179005.73000000138,"y":2565919.7400000002}},{"attributes":{"ID":454556,"DIS_CODE":0,"TOWNNAME":"安南區","LI":"新順里","LIN":"25鄰","STREET":"培安路","SECT":" ","MAREA":" ","LANE":"２２９巷","ALLEY":" ","HOUSE_NO":"５１號","E_COORD97":169360.54999999999,"N_COORD97":2549069.7200000002,"ADDRESS":"培安路２２９巷５１號","OBJECTID":454531},"geometry":{"x":169360.55000000075,"y":2549069.7200000025}},{"attributes":{"ID":454557,"DIS_CODE":0,"TOWNNAME":"安南區","LI":"安慶里","LIN":"25鄰","STREET":"北安二街","SECT":" ","MAREA":" ","LANE":"１巷","ALLEY":" ","HOUSE_NO":"３６號","E_COORD97":168648.75,"N_COORD97":2548384.52,"ADDRESS":"北安二街１巷３６號","OBJECTID":454532},"geometry":{"x":168648.75,"y":2548384.5200000014}},{"attributes":{"ID":454558,"DIS_CODE":0,"TOWNNAME":"安南區","LI":"安慶里","LIN":"25鄰","STREET":"北安二街","SECT":" ","MAREA":" ","LANE":"１巷","ALLEY":" ","HOUSE_NO":"３８號","E_COORD97":168642.07999999999,"N_COORD97":2548382.6699999999,"ADDRESS":"北安二街１巷３８號","OBJECTID":454533},"geometry":{"x":168642.08000000101,"y":2548382.6699999999}},{"attributes":{"ID":454559,"DIS_CODE":0,"TOWNNAME":"安南區","LI":"安慶里","LIN":"25鄰","STREET":"北安二街","SECT":" ","MAREA":" ","LANE":"１巷","ALLEY":" ","HOUSE_NO":"４０號","E_COORD97":168635.23000000001,"N_COORD97":2548381.7400000002,"ADDRESS":"北安二街１巷４０號","OBJECTID":454534},"geometry":{"x":168635.23000000045,"y":2548381.7400000002}},{"attributes":{"ID":454560,"DIS_CODE":0,"TOWNNAME":"新營區","LI":"新東里","LIN":"25鄰","STREET":"東興三街","SECT":" ","MAREA":" ","LANE":"２２巷","ALLEY":" ","HOUSE_NO":"９號十一樓","E_COORD97":180703.73999999999,"N_COORD97":2579395.5899999999,"ADDRESS":"東興三街２２巷９號十一樓","OBJECTID":454535},"geometry":{"x":180703.74000000209,"y":2579395.5900000017}},{"attributes":{"ID":454561,"DIS_CODE":0,"TOWNNAME":"北區","LI":"文成里","LIN":"5鄰","STREET":"文賢路","SECT":" ","MAREA":" ","LANE":"５９６巷","ALLEY":" ","HOUSE_NO":"２０號","E_COORD97":167411.45999999999,"N_COORD97":2545468.6099999999,"ADDRESS":"文賢路５９６巷２０號","OBJECTID":454536},"geometry":{"x":167411.45999999996,"y":2545468.6100000013}},{"attributes":{"ID":454562,"DIS_CODE":0,"TOWNNAME":"北區","LI":"文成里","LIN":"5鄰","STREET":"文賢路","SECT":" ","MAREA":" ","LANE":"５９６巷","ALLEY":" ","HOUSE_NO":"２２號","E_COORD97":167413.37,"N_COORD97":2545468.9900000002,"ADDRESS":"文賢路５９６巷２２號","OBJECTID":454537},"geometry":{"x":167413.37000000011,"y":2545468.9900000039}},{"attributes":{"ID":454563,"DIS_CODE":0,"TOWNNAME":"北區","LI":"文成里","LIN":"5鄰","STREET":"文賢路","SECT":" ","MAREA":" ","LANE":"５９６巷","ALLEY":" ","HOUSE_NO":"２６號","E_COORD97":167415.78,"N_COORD97":2545468.8700000001,"ADDRESS":"文賢路５９６巷２６號","OBJECTID":454538},"geometry":{"x":167415.78000000119,"y":2545468.870000001}},{"attributes":{"ID":454564,"DIS_CODE":0,"TOWNNAME":"北區","LI":"文成里","LIN":"5鄰","STREET":"文賢路","SECT":" ","MAREA":" ","LANE":"５９６巷","ALLEY":" ","HOUSE_NO":"３０號","E_COORD97":167420.73000000001,"N_COORD97":2545468.6099999999,"ADDRESS":"文賢路５９６巷３０號","OBJECTID":454539},"geometry":{"x":167420.73000000138,"y":2545468.6100000013}},{"attributes":{"ID":454565,"DIS_CODE":0,"TOWNNAME":"北區","LI":"文成里","LIN":"12鄰","STREET":"文賢二街","SECT":" ","MAREA":" ","LANE":"１０１巷","ALLEY":" ","HOUSE_NO":"８號","E_COORD97":167751.42999999999,"N_COORD97":2545413.0299999998,"ADDRESS":"文賢二街１０１巷８號","OBJECTID":454540},"geometry":{"x":167751.43000000063,"y":2545413.0299999993}},{"attributes":{"ID":454566,"DIS_CODE":0,"TOWNNAME":"北區","LI":"和順里","LIN":"28鄰","STREET":"臨安路","SECT":"二段","MAREA":" ","LANE":"１４３巷","ALLEY":" ","HOUSE_NO":"９８號","E_COORD97":167780.54000000001,"N_COORD97":2545144.52,"ADDRESS":"臨安路二段１４３巷９８號","OBJECTID":454541},"geometry":{"x":167780.54000000004,"y":2545144.5199999996}},{"attributes":{"ID":454567,"DIS_CODE":0,"TOWNNAME":"北區","LI":"和順里","LIN":"28鄰","STREET":"臨安路","SECT":"二段","MAREA":" ","LANE":"１４３巷","ALLEY":" ","HOUSE_NO":"１００號","E_COORD97":167781.32999999999,"N_COORD97":2545148.9700000002,"ADDRESS":"臨安路二段１４３巷１００號","OBJECTID":454542},"geometry":{"x":167781.33000000101,"y":2545148.9700000025}},{"attributes":{"ID":454568,"DIS_CODE":0,"TOWNNAME":"北區","LI":"和順里","LIN":"28鄰","STREET":"臨安路","SECT":"二段","MAREA":" ","LANE":"１４３巷","ALLEY":" ","HOUSE_NO":"１０２號","E_COORD97":167781.81,"N_COORD97":2545154.52,"ADDRESS":"臨安路二段１４３巷１０２號","OBJECTID":454543},"geometry":{"x":167781.80999999866,"y":2545154.5199999996}},{"attributes":{"ID":454569,"DIS_CODE":0,"TOWNNAME":"北區","LI":"和順里","LIN":"28鄰","STREET":"臨安路","SECT":"二段","MAREA":" ","LANE":"１４３巷","ALLEY":" ","HOUSE_NO":"１０６號","E_COORD97":167781.81,"N_COORD97":2545159.29,"ADDRESS":"臨安路二段１４３巷１０６號","OBJECTID":454544},"geometry":{"x":167781.80999999866,"y":2545159.2899999991}},{"attributes":{"ID":454570,"DIS_CODE":0,"TOWNNAME":"北區","LI":"和順里","LIN":"28鄰","STREET":"臨安路","SECT":"二段","MAREA":" ","LANE":"１４３巷","ALLEY":" ","HOUSE_NO":"１０８號","E_COORD97":167781.97,"N_COORD97":2545164.8399999999,"ADDRESS":"臨安路二段１４３巷１０８號","OBJECTID":454545},"geometry":{"x":167781.96999999974,"y":2545164.8400000017}},{"attributes":{"ID":454571,"DIS_CODE":0,"TOWNNAME":"北區","LI":"和順里","LIN":"28鄰","STREET":"臨安路","SECT":"二段","MAREA":" ","LANE":"１４３巷","ALLEY":" ","HOUSE_NO":"１１０號","E_COORD97":167782.13,"N_COORD97":2545170.8799999999,"ADDRESS":"臨安路二段１４３巷１１０號","OBJECTID":454546},"geometry":{"x":167782.13000000082,"y":2545170.8800000008}},{"attributes":{"ID":454572,"DIS_CODE":0,"TOWNNAME":"東區","LI":"崇文里","LIN":"40鄰","STREET":"生產路","SECT":" ","MAREA":" ","LANE":" ","ALLEY":" ","HOUSE_NO":"２７５號十二樓","E_COORD97":170911.67999999999,"N_COORD97":2540618.3100000001,"ADDRESS":"生產路２７５號十二樓","OBJECTID":454547},"geometry":{"x":170911.6799999997,"y":2540618.3100000005}},{"attributes":{"ID":454573,"DIS_CODE":0,"TOWNNAME":"北區","LI":"和順里","LIN":"28鄰","STREET":"海安路","SECT":"三段","MAREA":" ","LANE":"１８１巷","ALLEY":" ","HOUSE_NO":"２０號","E_COORD97":167895.63,"N_COORD97":2545143.73,"ADDRESS":"海安路三段１８１巷２０號","OBJECTID":454548},"geometry":{"x":167895.63000000082,"y":2545143.7300000004}},{"attributes":{"ID":454574,"DIS_CODE":0,"TOWNNAME":"北區","LI":"和順里","LIN":"28鄰","STREET":"海安路","SECT":"三段","MAREA":" ","LANE":"１８１巷","ALLEY":" ","HOUSE_NO":"６２號","E_COORD97":167787.67999999999,"N_COORD97":2545142.9399999999,"ADDRESS":"海安路三段１８１巷６２號","OBJECTID":454549},"geometry":{"x":167787.6799999997,"y":2545142.9400000032}},{"attributes":{"ID":454575,"DIS_CODE":0,"TOWNNAME":"北區","LI":"和順里","LIN":"28鄰","STREET":"海安路","SECT":"三段","MAREA":" ","LANE":"１８１巷","ALLEY":" ","HOUSE_NO":"２２號","E_COORD97":167888.48999999999,"N_COORD97":2545143.73,"ADDRESS":"海安路三段１８１巷２２號","OBJECTID":454550},"geometry":{"x":167888.49000000115,"y":2545143.7300000004}},{"attributes":{"ID":454576,"DIS_CODE":0,"TOWNNAME":"北區","LI":"和順里","LIN":"28鄰","STREET":"海安路","SECT":"三段","MAREA":" ","LANE":"１８１巷","ALLEY":" ","HOUSE_NO":"６０號","E_COORD97":167792.28,"N_COORD97":2545143.4100000001,"ADDRESS":"海安路三段１８１巷６０號","OBJECTID":454551},"geometry":{"x":167792.28000000026,"y":2545143.4100000001}},{"attributes":{"ID":454577,"DIS_CODE":0,"TOWNNAME":"北區","LI":"和順里","LIN":"28鄰","STREET":"海安路","SECT":"三段","MAREA":" ","LANE":"１８１巷","ALLEY":" ","HOUSE_NO":"３２號","E_COORD97":167867.06,"N_COORD97":2545143.5699999998,"ADDRESS":"海安路三段１８１巷３２號","OBJECTID":454552},"geometry":{"x":167867.06000000052,"y":2545143.5700000022}},{"attributes":{"ID":454578,"DIS_CODE":0,"TOWNNAME":"北區","LI":"和順里","LIN":"28鄰","STREET":"海安路","SECT":"三段","MAREA":" ","LANE":"１８１巷","ALLEY":" ","HOUSE_NO":"３６號","E_COORD97":167861.01999999999,"N_COORD97":2545143.5699999998,"ADDRESS":"海安路三段１８１巷３６號","OBJECTID":454553},"geometry":{"x":167861.01999999955,"y":2545143.5700000022}},{"attributes":{"ID":454579,"DIS_CODE":0,"TOWNNAME":"北區","LI":"和順里","LIN":"28鄰","STREET":"海安路","SECT":"三段","MAREA":" ","LANE":"１８１巷","ALLEY":" ","HOUSE_NO":"３８號","E_COORD97":167854.67000000001,"N_COORD97":2545143.5699999998,"ADDRESS":"海安路三段１８１巷３８號","OBJECTID":454554},"geometry":{"x":167854.67000000086,"y":2545143.5700000022}},{"attributes":{"ID":454580,"DIS_CODE":0,"TOWNNAME":"北區","LI":"和順里","LIN":"28鄰","STREET":"海安路","SECT":"三段","MAREA":" ","LANE":"１８１巷","ALLEY":" ","HOUSE_NO":"４０號","E_COORD97":167848.32000000001,"N_COORD97":2545143.73,"ADDRESS":"海安路三段１８１巷４０號","OBJECTID":454555},"geometry":{"x":167848.3200000003,"y":2545143.7300000004}},{"attributes":{"ID":454581,"DIS_CODE":0,"TOWNNAME":"北區","LI":"和順里","LIN":"28鄰","STREET":"海安路","SECT":"三段","MAREA":" ","LANE":"１８１巷","ALLEY":" ","HOUSE_NO":"４２號","E_COORD97":167841.34,"N_COORD97":2545143.25,"ADDRESS":"海安路三段１８１巷４２號","OBJECTID":454556},"geometry":{"x":167841.34000000171,"y":2545143.25}},{"attributes":{"ID":454582,"DIS_CODE":0,"TOWNNAME":"北區","LI":"和順里","LIN":"28鄰","STREET":"海安路","SECT":"三段","MAREA":" ","LANE":"１８１巷","ALLEY":" ","HOUSE_NO":"４６號","E_COORD97":167834.82999999999,"N_COORD97":2545143.0899999999,"ADDRESS":"海安路三段１８１巷４６號","OBJECTID":454557},"geometry":{"x":167834.83000000194,"y":2545143.0900000017}},{"attributes":{"ID":454583,"DIS_CODE":0,"TOWNNAME":"北區","LI":"和順里","LIN":"28鄰","STREET":"海安路","SECT":"三段","MAREA":" ","LANE":"１８１巷","ALLEY":" ","HOUSE_NO":"５８號","E_COORD97":167800.22,"N_COORD97":2545143.8900000001,"ADDRESS":"海安路三段１８１巷５８號","OBJECTID":454558},"geometry":{"x":167800.22000000067,"y":2545143.8900000006}},{"attributes":{"ID":454584,"DIS_CODE":0,"TOWNNAME":"北區","LI":"和順里","LIN":"28鄰","STREET":"海安路","SECT":"三段","MAREA":" ","LANE":"１８１巷","ALLEY":" ","HOUSE_NO":"４８號","E_COORD97":167827.04999999999,"N_COORD97":2545143.0899999999,"ADDRESS":"海安路三段１８１巷４８號","OBJECTID":454559},"geometry":{"x":167827.05000000075,"y":2545143.0900000017}},{"attributes":{"ID":454585,"DIS_CODE":0,"TOWNNAME":"北區","LI":"和順里","LIN":"28鄰","STREET":"海安路","SECT":"三段","MAREA":" ","LANE":"１８１巷","ALLEY":" ","HOUSE_NO":"５０號","E_COORD97":167819.91,"N_COORD97":2545143.73,"ADDRESS":"海安路三段１８１巷５０號","OBJECTID":454560},"geometry":{"x":167819.91000000108,"y":2545143.7300000004}},{"attributes":{"ID":454586,"DIS_CODE":0,"TOWNNAME":"北區","LI":"和順里","LIN":"28鄰","STREET":"海安路","SECT":"三段","MAREA":" ","LANE":"１８１巷","ALLEY":" ","HOUSE_NO":"５２號","E_COORD97":167813.07999999999,"N_COORD97":2545144.0499999998,"ADDRESS":"海安路三段１８１巷５２號","OBJECTID":454561},"geometry":{"x":167813.08000000101,"y":2545144.0500000026}},{"attributes":{"ID":454587,"DIS_CODE":0,"TOWNNAME":"北區","LI":"和順里","LIN":"28鄰","STREET":"海安路","SECT":"三段","MAREA":" ","LANE":"１８１巷","ALLEY":" ","HOUSE_NO":"５６號","E_COORD97":167806.57000000001,"N_COORD97":2545144.3599999999,"ADDRESS":"海安路三段１８１巷５６號","OBJECTID":454562},"geometry":{"x":167806.57000000123,"y":2545144.3600000013}},{"attributes":{"ID":454588,"DIS_CODE":0,"TOWNNAME":"北區","LI":"東興里","LIN":"10鄰","STREET":"小東路","SECT":" ","MAREA":" ","LANE":"４２３巷","ALLEY":" ","HOUSE_NO":"１號","E_COORD97":171337.60999999999,"N_COORD97":2544404.3100000001,"ADDRESS":"小東路４２３巷１號","OBJECTID":454563},"geometry":{"x":171337.61000000127,"y":2544404.3100000005}},{"attributes":{"ID":454589,"DIS_CODE":0,"TOWNNAME":"北區","LI":"成德里","LIN":"41鄰","STREET":"育德二路","SECT":" ","MAREA":" ","LANE":"３４５巷","ALLEY":" ","HOUSE_NO":"１１號","E_COORD97":168251.42999999999,"N_COORD97":2546205.5600000001,"ADDRESS":"育德二路３４５巷１１號","OBJECTID":454564},"geometry":{"x":168251.43000000063,"y":2546205.5600000024}},{"attributes":{"ID":454590,"DIS_CODE":0,"TOWNNAME":"玉井區","LI":"竹圍里","LIN":"4鄰","STREET":"大成路","SECT":" ","MAREA":" ","LANE":"２３０巷","ALLEY":" ","HOUSE_NO":"１６０號","E_COORD97":195690.60000000001,"N_COORD97":2558531.9300000002,"ADDRESS":"大成路２３０巷１６０號","OBJECTID":454565},"geometry":{"x":195690.59999999963,"y":2558531.9300000034}},{"attributes":{"ID":454591,"DIS_CODE":0,"TOWNNAME":"玉井區","LI":"竹圍里","LIN":"4鄰","STREET":"大成路","SECT":" ","MAREA":" ","LANE":"３０９巷","ALLEY":" ","HOUSE_NO":"８號","E_COORD97":195610.60000000001,"N_COORD97":2558318.0499999998,"ADDRESS":"大成路３０９巷８號","OBJECTID":454566},"geometry":{"x":195610.60000000056,"y":2558318.0500000007}},{"attributes":{"ID":454592,"DIS_CODE":0,"TOWNNAME":"玉井區","LI":"玉田里","LIN":"25鄰","STREET":"信義街","SECT":" ","MAREA":" ","LANE":"２２巷","ALLEY":" ","HOUSE_NO":"２６號","E_COORD97":195184.45999999999,"N_COORD97":2557586.2599999998,"ADDRESS":"信義街２２巷２６號","OBJECTID":454567},"geometry":{"x":195184.46000000089,"y":2557586.2599999998}},{"attributes":{"ID":454593,"DIS_CODE":0,"TOWNNAME":"玉井區","LI":"玉井里","LIN":"1鄰","STREET":"中正路","SECT":" ","MAREA":" ","LANE":"２１巷","ALLEY":" ","HOUSE_NO":"１２號","E_COORD97":194658.64000000001,"N_COORD97":2558005.1499999999,"ADDRESS":"中正路２１巷１２號","OBJECTID":454568},"geometry":{"x":194658.64000000153,"y":2558005.1500000004}},{"attributes":{"ID":454594,"DIS_CODE":0,"TOWNNAME":"玉井區","LI":"玉井里","LIN":"1鄰","STREET":"中正路","SECT":" ","MAREA":" ","LANE":"２１巷","ALLEY":" ","HOUSE_NO":"１７號","E_COORD97":194664.44,"N_COORD97":2558015.1600000001,"ADDRESS":"中正路２１巷１７號","OBJECTID":454569},"geometry":{"x":194664.44000000134,"y":2558015.1599999983}},{"attributes":{"ID":454595,"DIS_CODE":0,"TOWNNAME":"新營區","LI":"新南里","LIN":"25鄰","STREET":"復興路","SECT":" ","MAREA":" ","LANE":"６２０巷","ALLEY":" ","HOUSE_NO":"６６號四樓之６","E_COORD97":178065.10999999999,"N_COORD97":2578543.2999999998,"ADDRESS":"復興路６２０巷６６號四樓之６","OBJECTID":454570},"geometry":{"x":178065.11000000034,"y":2578543.3000000007}},{"attributes":{"ID":454596,"DIS_CODE":0,"TOWNNAME":"新營區","LI":"新南里","LIN":"25鄰","STREET":"復興路","SECT":" ","MAREA":" ","LANE":"６２０巷","ALLEY":" ","HOUSE_NO":"６６號四樓之５","E_COORD97":178065.16,"N_COORD97":2578543.2999999998,"ADDRESS":"復興路６２０巷６６號四樓之５","OBJECTID":454571},"geometry":{"x":178065.16000000108,"y":2578543.3000000007}},{"attributes":{"ID":454597,"DIS_CODE":0,"TOWNNAME":"新營區","LI":"新南里","LIN":"25鄰","STREET":"復興路","SECT":" ","MAREA":" ","LANE":"６２０巷","ALLEY":" ","HOUSE_NO":"６６號五樓之８","E_COORD97":178065.14999999999,"N_COORD97":2578543.2999999998,"ADDRESS":"復興路６２０巷６６號五樓之８","OBJECTID":454572},"geometry":{"x":178065.15000000224,"y":2578543.3000000007}},{"attributes":{"ID":454598,"DIS_CODE":0,"TOWNNAME":"新營區","LI":"新南里","LIN":"25鄰","STREET":"復興路","SECT":" ","MAREA":" ","LANE":"６２０巷","ALLEY":" ","HOUSE_NO":"６６號五樓之７","E_COORD97":178065.07999999999,"N_COORD97":2578543.2999999998,"ADDRESS":"復興路６２０巷６６號五樓之７","OBJECTID":454573},"geometry":{"x":178065.08000000007,"y":2578543.3000000007}},{"attributes":{"ID":454599,"DIS_CODE":0,"TOWNNAME":"新營區","LI":"民生里","LIN":"25鄰","STREET":"民生路","SECT":" ","MAREA":" ","LANE":"１６３巷","ALLEY":" ","HOUSE_NO":"１５號四樓之６","E_COORD97":179179.42000000001,"N_COORD97":2578630.96,"ADDRESS":"民生路１６３巷１５號四樓之６","OBJECTID":454574},"geometry":{"x":179179.41999999993,"y":2578630.9600000046}},{"attributes":{"ID":454600,"DIS_CODE":0,"TOWNNAME":"永康區","LI":"尚頂里","LIN":"25鄰","STREET":"中正南路","SECT":" ","MAREA":" ","LANE":"２１０巷","ALLEY":" ","HOUSE_NO":"２２之１號二樓之２","E_COORD97":170187.17999999999,"N_COORD97":2547126.0099999998,"ADDRESS":"中正南路２１０巷２２之１號二樓之２","OBJECTID":454575},"geometry":{"x":170187.18000000063,"y":2547126.0100000035}},{"attributes":{"ID":454601,"DIS_CODE":0,"TOWNNAME":"永康區","LI":"尚頂里","LIN":"25鄰","STREET":"中正南路","SECT":" ","MAREA":" ","LANE":"２１０巷","ALLEY":" ","HOUSE_NO":"２２之１號三樓之１","E_COORD97":170187.17999999999,"N_COORD97":2547126.0099999998,"ADDRESS":"中正南路２１０巷２２之１號三樓之１","OBJECTID":454576},"geometry":{"x":170187.18000000063,"y":2547126.0100000035}},{"attributes":{"ID":454602,"DIS_CODE":0,"TOWNNAME":"永康區","LI":"尚頂里","LIN":"25鄰","STREET":"中正南路","SECT":" ","MAREA":" ","LANE":"２１０巷","ALLEY":" ","HOUSE_NO":"２２之１號四樓","E_COORD97":170187.17999999999,"N_COORD97":2547126.0099999998,"ADDRESS":"中正南路２１０巷２２之１號四樓","OBJECTID":454577},"geometry":{"x":170187.18000000063,"y":2547126.0100000035}},{"attributes":{"ID":454603,"DIS_CODE":0,"TOWNNAME":"永康區","LI":"尚頂里","LIN":"25鄰","STREET":"中正南路","SECT":" ","MAREA":" ","LANE":"２１０巷","ALLEY":" ","HOUSE_NO":"２２之１號二樓之１","E_COORD97":170187.17999999999,"N_COORD97":2547126.0099999998,"ADDRESS":"中正南路２１０巷２２之１號二樓之１","OBJECTID":454578},"geometry":{"x":170187.18000000063,"y":2547126.0100000035}},{"attributes":{"ID":454604,"DIS_CODE":0,"TOWNNAME":"永康區","LI":"尚頂里","LIN":"25鄰","STREET":"中正南路","SECT":" ","MAREA":" ","LANE":"２１０巷","ALLEY":" ","HOUSE_NO":"２２之１號三樓之２","E_COORD97":170187.79999999999,"N_COORD97":2547111.1699999999,"ADDRESS":"中正南路２１０巷２２之１號三樓之２","OBJECTID":454579},"geometry":{"x":170187.80000000075,"y":2547111.1699999999}},{"attributes":{"ID":454605,"DIS_CODE":0,"TOWNNAME":"玉井區","LI":"玉田里","LIN":"5鄰","STREET":"民族路","SECT":" ","MAREA":" ","LANE":"２７巷","ALLEY":" ","HOUSE_NO":"９號","E_COORD97":195002.04000000001,"N_COORD97":2558147.29,"ADDRESS":"民族路２７巷９號","OBJECTID":454580},"geometry":{"x":195002.03999999911,"y":2558147.290000001}},{"attributes":{"ID":454606,"DIS_CODE":0,"TOWNNAME":"南區","LI":"府南里","LIN":"25鄰","STREET":"大成路","SECT":"二段","MAREA":" ","LANE":"１４３巷","ALLEY":" ","HOUSE_NO":"３３號二樓","E_COORD97":167292.38,"N_COORD97":2541591.6400000001,"ADDRESS":"大成路二段１４３巷３３號二樓","OBJECTID":454581},"geometry":{"x":167292.38000000082,"y":2541591.6400000006}},{"attributes":{"ID":454607,"DIS_CODE":0,"TOWNNAME":"南區","LI":"府南里","LIN":"25鄰","STREET":"大成路","SECT":"二段","MAREA":" ","LANE":"１４３巷","ALLEY":" ","HOUSE_NO":"３３號三樓","E_COORD97":167292.38,"N_COORD97":2541591.6400000001,"ADDRESS":"大成路二段１４３巷３３號三樓","OBJECTID":454582},"geometry":{"x":167292.38000000082,"y":2541591.6400000006}},{"attributes":{"ID":454608,"DIS_CODE":0,"TOWNNAME":"南區","LI":"府南里","LIN":"25鄰","STREET":"大成路","SECT":"二段","MAREA":" ","LANE":"１４３巷","ALLEY":" ","HOUSE_NO":"３３號五樓","E_COORD97":167292.38,"N_COORD97":2541591.6400000001,"ADDRESS":"大成路二段１４３巷３３號五樓","OBJECTID":454583},"geometry":{"x":167292.38000000082,"y":2541591.6400000006}},{"attributes":{"ID":454609,"DIS_CODE":0,"TOWNNAME":"南區","LI":"府南里","LIN":"25鄰","STREET":"大成路","SECT":"二段","MAREA":" ","LANE":"１４３巷","ALLEY":" ","HOUSE_NO":"３３號四樓","E_COORD97":167292.38,"N_COORD97":2541591.6400000001,"ADDRESS":"大成路二段１４３巷３３號四樓","OBJECTID":454584},"geometry":{"x":167292.38000000082,"y":2541591.6400000006}},{"attributes":{"ID":454610,"DIS_CODE":0,"TOWNNAME":"南區","LI":"府南里","LIN":"25鄰","STREET":"大成路","SECT":"二段","MAREA":" ","LANE":"１４３巷","ALLEY":" ","HOUSE_NO":"３３號之１二樓","E_COORD97":167313.63,"N_COORD97":2541584.6699999999,"ADDRESS":"大成路二段１４３巷３３號之１二樓","OBJECTID":454585},"geometry":{"x":167313.62999999989,"y":2541584.6699999999}},{"attributes":{"ID":454611,"DIS_CODE":0,"TOWNNAME":"南區","LI":"府南里","LIN":"25鄰","STREET":"大成路","SECT":"二段","MAREA":" ","LANE":"１４３巷","ALLEY":" ","HOUSE_NO":"３３號之１三樓","E_COORD97":167313.63,"N_COORD97":2541584.6699999999,"ADDRESS":"大成路二段１４３巷３３號之１三樓","OBJECTID":454586},"geometry":{"x":167313.62999999989,"y":2541584.6699999999}},{"attributes":{"ID":454612,"DIS_CODE":0,"TOWNNAME":"南區","LI":"府南里","LIN":"25鄰","STREET":"大成路","SECT":"二段","MAREA":" ","LANE":"１４３巷","ALLEY":" ","HOUSE_NO":"３３號之１五樓","E_COORD97":167313.63,"N_COORD97":2541584.6699999999,"ADDRESS":"大成路二段１４３巷３３號之１五樓","OBJECTID":454587},"geometry":{"x":167313.62999999989,"y":2541584.6699999999}},{"attributes":{"ID":454613,"DIS_CODE":0,"TOWNNAME":"南區","LI":"府南里","LIN":"25鄰","STREET":"大成路","SECT":"二段","MAREA":" ","LANE":"８１巷","ALLEY":" ","HOUSE_NO":"７４號五樓","E_COORD97":167332.85000000001,"N_COORD97":2541579.29,"ADDRESS":"大成路二段８１巷７４號五樓","OBJECTID":454588},"geometry":{"x":167332.85000000056,"y":2541579.2899999991}},{"attributes":{"ID":454614,"DIS_CODE":0,"TOWNNAME":"南區","LI":"府南里","LIN":"25鄰","STREET":"大成路","SECT":"二段","MAREA":" ","LANE":"８１巷","ALLEY":" ","HOUSE_NO":"７４號四樓","E_COORD97":167332.85000000001,"N_COORD97":2541579.29,"ADDRESS":"大成路二段８１巷７４號四樓","OBJECTID":454589},"geometry":{"x":167332.85000000056,"y":2541579.2899999991}},{"attributes":{"ID":454615,"DIS_CODE":0,"TOWNNAME":"永康區","LI":"復國里","LIN":"25鄰","STREET":"復華三街","SECT":" ","MAREA":" ","LANE":"９０巷","ALLEY":" ","HOUSE_NO":"１６號七樓之２","E_COORD97":172656.23000000001,"N_COORD97":2545612.7999999998,"ADDRESS":"復華三街９０巷１６號七樓之２","OBJECTID":454590},"geometry":{"x":172656.23000000045,"y":2545612.8000000007}},{"attributes":{"ID":454616,"DIS_CODE":0,"TOWNNAME":"永康區","LI":"復國里","LIN":"25鄰","STREET":"復華三街","SECT":" ","MAREA":" ","LANE":"９０巷","ALLEY":" ","HOUSE_NO":"１６號六樓之１","E_COORD97":172656.10000000001,"N_COORD97":2545612.7999999998,"ADDRESS":"復華三街９０巷１６號六樓之１","OBJECTID":454591},"geometry":{"x":172656.10000000056,"y":2545612.8000000007}},{"attributes":{"ID":454617,"DIS_CODE":0,"TOWNNAME":"永康區","LI":"網寮里","LIN":"25鄰","STREET":"永春街","SECT":" ","MAREA":" ","LANE":"１０８巷","ALLEY":" ","HOUSE_NO":"２９號","E_COORD97":173822.26000000001,"N_COORD97":2546592.9700000002,"ADDRESS":"永春街１０８巷２９號","OBJECTID":454592},"geometry":{"x":173822.25999999885,"y":2546592.9700000025}},{"attributes":{"ID":454618,"DIS_CODE":0,"TOWNNAME":"永康區","LI":"網寮里","LIN":"25鄰","STREET":"永春街","SECT":" ","MAREA":" ","LANE":"９６巷","ALLEY":" ","HOUSE_NO":"２３號","E_COORD97":173789.35000000001,"N_COORD97":2546554.3300000001,"ADDRESS":"永春街９６巷２３號","OBJECTID":454593},"geometry":{"x":173789.35000000149,"y":2546554.3300000001}},{"attributes":{"ID":454619,"DIS_CODE":0,"TOWNNAME":"永康區","LI":"復興里","LIN":"25鄰","STREET":"復興路","SECT":" ","MAREA":" ","LANE":"４２９巷","ALLEY":" ","HOUSE_NO":"８３號","E_COORD97":172264.29999999999,"N_COORD97":2543902.1800000002,"ADDRESS":"復興路４２９巷８３號","OBJECTID":454594},"geometry":{"x":172264.30000000168,"y":2543902.1800000016}},{"attributes":{"ID":454620,"DIS_CODE":0,"TOWNNAME":"永康區","LI":"復興里","LIN":"25鄰","STREET":"復興路","SECT":" ","MAREA":" ","LANE":"４２９巷","ALLEY":" ","HOUSE_NO":"９６號之１","E_COORD97":172275.87,"N_COORD97":2543846.4399999999,"ADDRESS":"復興路４２９巷９６號之１","OBJECTID":454595},"geometry":{"x":172275.86999999918,"y":2543846.4399999995}},{"attributes":{"ID":454621,"DIS_CODE":0,"TOWNNAME":"永康區","LI":"復興里","LIN":"25鄰","STREET":"復興路","SECT":" ","MAREA":" ","LANE":"４２９巷","ALLEY":" ","HOUSE_NO":"７８號","E_COORD97":172257.98999999999,"N_COORD97":2543861.3399999999,"ADDRESS":"復興路４２９巷７８號","OBJECTID":454596},"geometry":{"x":172257.99000000022,"y":2543861.3399999999}},{"attributes":{"ID":454622,"DIS_CODE":0,"TOWNNAME":"永康區","LI":"復華里","LIN":"25鄰","STREET":"復華八街","SECT":" ","MAREA":" ","LANE":"４７巷","ALLEY":" ","HOUSE_NO":"１０號","E_COORD97":172767.12,"N_COORD97":2546384.27,"ADDRESS":"復華八街４７巷１０號","OBJECTID":454597},"geometry":{"x":172767.12000000011,"y":2546384.2699999996}},{"attributes":{"ID":454623,"DIS_CODE":0,"TOWNNAME":"永康區","LI":"三合里","LIN":"25鄰","STREET":"南工街","SECT":" ","MAREA":" ","LANE":"３１１巷","ALLEY":" ","HOUSE_NO":"５４號","E_COORD97":171791.42000000001,"N_COORD97":2545894.8100000001,"ADDRESS":"南工街３１１巷５４號","OBJECTID":454598},"geometry":{"x":171791.42000000086,"y":2545894.8100000024}},{"attributes":{"ID":454624,"DIS_CODE":0,"TOWNNAME":"永康區","LI":"復華里","LIN":"25鄰","STREET":"復華八街","SECT":" ","MAREA":" ","LANE":"４７巷","ALLEY":" ","HOUSE_NO":"２號","E_COORD97":172780.07000000001,"N_COORD97":2546385.77,"ADDRESS":"復華八街４７巷２號","OBJECTID":454599},"geometry":{"x":172780.07000000216,"y":2546385.7700000014}},{"attributes":{"ID":454625,"DIS_CODE":0,"TOWNNAME":"東區","LI":"崇誨里","LIN":"25鄰","STREET":"東寧路","SECT":" ","MAREA":" ","LANE":"２７２巷","ALLEY":" ","HOUSE_NO":"１３號","E_COORD97":170654.64000000001,"N_COORD97":2543386.3599999999,"ADDRESS":"東寧路２７２巷１３號","OBJECTID":454600},"geometry":{"x":170654.63999999873,"y":2543386.3599999994}}]}