{"displayFieldName":"TOWNNAME","fieldAliases":{"ID":"ID","DIS_CODE":"DIS_CODE","TOWNNAME":"TOWNNAME","LI":"LI","LIN":"LIN","STREET":"STREET","SECT":"SECT","MAREA":"MAREA","LANE":"LANE","ALLEY":"ALLEY","HOUSE_NO":"HOUSE_NO","E_COORD97":"E_COORD97","N_COORD97":"N_COORD97","ADDRESS":"ADDRESS","OBJECTID":"OBJECTID"},"geometryType":"esriGeometryPoint","spatialReference":{"wkid":102443,"latestWkid":3826},"fields":[{"name":"ID","type":"esriFieldTypeDouble","alias":"ID"},{"name":"DIS_CODE","type":"esriFieldTypeInteger","alias":"DIS_CODE"},{"name":"TOWNNAME","type":"esriFieldTypeString","alias":"TOWNNAME","length":8},{"name":"LI","type":"esriFieldTypeString","alias":"LI","length":8},{"name":"LIN","type":"esriFieldTypeString","alias":"LIN","length":12},{"name":"STREET","type":"esriFieldTypeString","alias":"STREET","length":20},{"name":"SECT","type":"esriFieldTypeString","alias":"SECT","length":8},{"name":"MAREA","type":"esriFieldTypeString","alias":"MAREA","length":12},{"name":"LANE","type":"esriFieldTypeString","alias":"LANE","length":10},{"name":"ALLEY","type":"esriFieldTypeString","alias":"ALLEY","length":10},{"name":"HOUSE_NO","type":"esriFieldTypeString","alias":"HOUSE_NO","length":20},{"name":"E_COORD97","type":"esriFieldTypeDouble","alias":"E_COORD97"},{"name":"N_COORD97","type":"esriFieldTypeDouble","alias":"N_COORD97"},{"name":"ADDRESS","type":"esriFieldTypeString","alias":"ADDRESS","length":50},{"name":"OBJECTID","type":"esriFieldTypeOID","alias":"OBJECTID"}],"features":[{"attributes":{"ID":150002,"DIS_CODE":0,"TOWNNAME":"東區","LI":"圍下里","LIN":"19鄰","STREET":"慶東街","SECT":" ","MAREA":" ","LANE":" ","ALLEY":" ","HOUSE_NO":"１３１號","E_COORD97":169657.29000000001,"N_COORD97":2543403.4500000002,"ADDRESS":"慶東街１３１號","OBJECTID":150001},"geometry":{"x":169657.28999999911,"y":2543403.450000003}},{"attributes":{"ID":150003,"DIS_CODE":0,"TOWNNAME":"東區","LI":"和平里","LIN":"20鄰","STREET":"仁和路","SECT":" ","MAREA":" ","LANE":" ","ALLEY":" ","HOUSE_NO":"６５之３號","E_COORD97":171353.20999999999,"N_COORD97":2541679.79,"ADDRESS":"仁和路６５之３號","OBJECTID":150002},"geometry":{"x":171353.21000000089,"y":2541679.790000001}},{"attributes":{"ID":150004,"DIS_CODE":0,"TOWNNAME":"東區","LI":"自強里","LIN":"1鄰","STREET":"東成街","SECT":" ","MAREA":" ","LANE":" ","ALLEY":" ","HOUSE_NO":"７７號之１","E_COORD97":171480.85000000001,"N_COORD97":2542286.8900000001,"ADDRESS":"東成街７７號之１","OBJECTID":150003},"geometry":{"x":171480.85000000056,"y":2542286.8900000025}},{"attributes":{"ID":150005,"DIS_CODE":0,"TOWNNAME":"東區","LI":"自強里","LIN":"1鄰","STREET":"東成街","SECT":" ","MAREA":" ","LANE":" ","ALLEY":" ","HOUSE_NO":"７７號之２","E_COORD97":171486.37,"N_COORD97":2542287.9900000002,"ADDRESS":"東成街７７號之２","OBJECTID":150004},"geometry":{"x":171486.37000000104,"y":2542287.9900000002}},{"attributes":{"ID":150006,"DIS_CODE":0,"TOWNNAME":"東區","LI":"和平里","LIN":"1鄰","STREET":"仁和路","SECT":" ","MAREA":" ","LANE":" ","ALLEY":" ","HOUSE_NO":"５號","E_COORD97":171027.82000000001,"N_COORD97":2542318.4300000002,"ADDRESS":"仁和路５號","OBJECTID":150005},"geometry":{"x":171027.82000000123,"y":2542318.4299999997}},{"attributes":{"ID":150007,"DIS_CODE":0,"TOWNNAME":"安南區","LI":"安富里","LIN":"3鄰","STREET":"郡安路","SECT":"五段","MAREA":" ","LANE":"１８４巷","ALLEY":"２４弄","HOUSE_NO":"４１號","E_COORD97":167342.07000000001,"N_COORD97":2547647.1299999999,"ADDRESS":"郡安路五段１８４巷２４弄４１號","OBJECTID":150006},"geometry":{"x":167342.07000000123,"y":2547647.1300000008}},{"attributes":{"ID":150008,"DIS_CODE":0,"TOWNNAME":"安南區","LI":"國安里","LIN":"3鄰","STREET":"國安街","SECT":" ","MAREA":" ","LANE":"１５６巷","ALLEY":"１０１弄","HOUSE_NO":"３２號","E_COORD97":166586.09,"N_COORD97":2547235.4500000002,"ADDRESS":"國安街１５６巷１０１弄３２號","OBJECTID":150007},"geometry":{"x":166586.08999999985,"y":2547235.4500000011}},{"attributes":{"ID":150009,"DIS_CODE":0,"TOWNNAME":"安南區","LI":"國安里","LIN":"3鄰","STREET":"國安街","SECT":" ","MAREA":" ","LANE":"１５６巷","ALLEY":"１０１弄","HOUSE_NO":"３０號","E_COORD97":166593.23000000001,"N_COORD97":2547235.23,"ADDRESS":"國安街１５６巷１０１弄３０號","OBJECTID":150008},"geometry":{"x":166593.22999999952,"y":2547235.2300000023}},{"attributes":{"ID":150010,"DIS_CODE":0,"TOWNNAME":"安南區","LI":"安富里","LIN":"3鄰","STREET":"郡安路","SECT":"五段","MAREA":" ","LANE":"１８４巷","ALLEY":"２４弄","HOUSE_NO":"１３號","E_COORD97":167429.29000000001,"N_COORD97":2547663.9100000001,"ADDRESS":"郡安路五段１８４巷２４弄１３號","OBJECTID":150009},"geometry":{"x":167429.29000000004,"y":2547663.910000002}},{"attributes":{"ID":150011,"DIS_CODE":0,"TOWNNAME":"東區","LI":"莊敬里","LIN":"3鄰","STREET":"小東路","SECT":" ","MAREA":" ","LANE":"２５４巷","ALLEY":"１８弄","HOUSE_NO":"１１號","E_COORD97":171130.10000000001,"N_COORD97":2544258.98,"ADDRESS":"小東路２５４巷１８弄１１號","OBJECTID":150010},"geometry":{"x":171130.10000000056,"y":2544258.9800000042}},{"attributes":{"ID":150012,"DIS_CODE":0,"TOWNNAME":"安南區","LI":"國安里","LIN":"3鄰","STREET":"國安街","SECT":" ","MAREA":" ","LANE":"１５６巷","ALLEY":"１０１弄","HOUSE_NO":"１０號","E_COORD97":166640.57999999999,"N_COORD97":2547246.5099999998,"ADDRESS":"國安街１５６巷１０１弄１０號","OBJECTID":150011},"geometry":{"x":166640.58000000007,"y":2547246.5099999998}},{"attributes":{"ID":150013,"DIS_CODE":0,"TOWNNAME":"安南區","LI":"國安里","LIN":"3鄰","STREET":"國安街","SECT":" ","MAREA":" ","LANE":"１５６巷","ALLEY":"１０１弄","HOUSE_NO":"１２號","E_COORD97":166636.73000000001,"N_COORD97":2547245.5099999998,"ADDRESS":"國安街１５６巷１０１弄１２號","OBJECTID":150012},"geometry":{"x":166636.73000000045,"y":2547245.5100000016}},{"attributes":{"ID":150014,"DIS_CODE":0,"TOWNNAME":"安南區","LI":"國安里","LIN":"3鄰","STREET":"國安街","SECT":" ","MAREA":" ","LANE":"１５６巷","ALLEY":"１０１弄","HOUSE_NO":"１４號","E_COORD97":166631.88,"N_COORD97":2547244.3199999998,"ADDRESS":"國安街１５６巷１０１弄１４號","OBJECTID":150013},"geometry":{"x":166631.87999999989,"y":2547244.3200000022}},{"attributes":{"ID":150015,"DIS_CODE":0,"TOWNNAME":"安南區","LI":"國安里","LIN":"3鄰","STREET":"國安街","SECT":" ","MAREA":" ","LANE":"１５６巷","ALLEY":"１０１弄","HOUSE_NO":"１６號","E_COORD97":166626.47,"N_COORD97":2547244.1299999999,"ADDRESS":"國安街１５６巷１０１弄１６號","OBJECTID":150014},"geometry":{"x":166626.4700000016,"y":2547244.1300000008}},{"attributes":{"ID":150016,"DIS_CODE":0,"TOWNNAME":"安南區","LI":"國安里","LIN":"3鄰","STREET":"國安街","SECT":" ","MAREA":" ","LANE":"１５６巷","ALLEY":"１０１弄","HOUSE_NO":"１８號","E_COORD97":166622.07000000001,"N_COORD97":2547243.3999999999,"ADDRESS":"國安街１５６巷１０１弄１８號","OBJECTID":150015},"geometry":{"x":166622.07000000123,"y":2547243.4000000022}},{"attributes":{"ID":150017,"DIS_CODE":0,"TOWNNAME":"安南區","LI":"國安里","LIN":"3鄰","STREET":"國安街","SECT":" ","MAREA":" ","LANE":"１５６巷","ALLEY":"１０１弄","HOUSE_NO":"２０號","E_COORD97":166616.48000000001,"N_COORD97":2547242.0299999998,"ADDRESS":"國安街１５６巷１０１弄２０號","OBJECTID":150016},"geometry":{"x":166616.48000000045,"y":2547242.0300000012}},{"attributes":{"ID":150018,"DIS_CODE":0,"TOWNNAME":"安南區","LI":"國安里","LIN":"3鄰","STREET":"國安街","SECT":" ","MAREA":" ","LANE":"１５６巷","ALLEY":"１０１弄","HOUSE_NO":"２２號","E_COORD97":166611.76999999999,"N_COORD97":2547241.4700000002,"ADDRESS":"國安街１５６巷１０１弄２２號","OBJECTID":150017},"geometry":{"x":166611.76999999955,"y":2547241.4700000007}},{"attributes":{"ID":150019,"DIS_CODE":0,"TOWNNAME":"安南區","LI":"國安里","LIN":"3鄰","STREET":"國安街","SECT":" ","MAREA":" ","LANE":"１５６巷","ALLEY":"１０１弄","HOUSE_NO":"２４號","E_COORD97":166607.53,"N_COORD97":2547239.5699999998,"ADDRESS":"國安街１５６巷１０１弄２４號","OBJECTID":150018},"geometry":{"x":166607.53000000026,"y":2547239.5700000022}},{"attributes":{"ID":150020,"DIS_CODE":0,"TOWNNAME":"安南區","LI":"國安里","LIN":"3鄰","STREET":"國安街","SECT":" ","MAREA":" ","LANE":"１５６巷","ALLEY":"１０１弄","HOUSE_NO":"２６號","E_COORD97":166603.51000000001,"N_COORD97":2547237.23,"ADDRESS":"國安街１５６巷１０１弄２６號","OBJECTID":150019},"geometry":{"x":166603.50999999978,"y":2547237.2300000042}},{"attributes":{"ID":150021,"DIS_CODE":0,"TOWNNAME":"安南區","LI":"國安里","LIN":"3鄰","STREET":"國安街","SECT":" ","MAREA":" ","LANE":"１５６巷","ALLEY":"１０１弄","HOUSE_NO":"２８號","E_COORD97":166598.26000000001,"N_COORD97":2547236.4500000002,"ADDRESS":"國安街１５６巷１０１弄２８號","OBJECTID":150020},"geometry":{"x":166598.26000000071,"y":2547236.4499999993}},{"attributes":{"ID":150022,"DIS_CODE":0,"TOWNNAME":"安南區","LI":"國安里","LIN":"3鄰","STREET":"國安街","SECT":" ","MAREA":" ","LANE":"１５６巷","ALLEY":"１０１弄","HOUSE_NO":"２號","E_COORD97":166660.48000000001,"N_COORD97":2547250.6299999999,"ADDRESS":"國安街１５６巷１０１弄２號","OBJECTID":150021},"geometry":{"x":166660.48000000045,"y":2547250.6300000008}},{"attributes":{"ID":150023,"DIS_CODE":0,"TOWNNAME":"安南區","LI":"國安里","LIN":"3鄰","STREET":"國安街","SECT":" ","MAREA":" ","LANE":"１５６巷","ALLEY":"１０１弄","HOUSE_NO":"３４號","E_COORD97":166581.06,"N_COORD97":2547234.7799999998,"ADDRESS":"國安街１５６巷１０１弄３４號","OBJECTID":150022},"geometry":{"x":166581.05999999959,"y":2547234.7799999993}},{"attributes":{"ID":150024,"DIS_CODE":0,"TOWNNAME":"安南區","LI":"國安里","LIN":"3鄰","STREET":"國安街","SECT":" ","MAREA":" ","LANE":"１５６巷","ALLEY":"１０１弄","HOUSE_NO":"３６號","E_COORD97":166576.14999999999,"N_COORD97":2547234.2200000002,"ADDRESS":"國安街１５６巷１０１弄３６號","OBJECTID":150023},"geometry":{"x":166576.15000000037,"y":2547234.2200000044}},{"attributes":{"ID":150025,"DIS_CODE":0,"TOWNNAME":"安南區","LI":"國安里","LIN":"3鄰","STREET":"國安街","SECT":" ","MAREA":" ","LANE":"１５６巷","ALLEY":"１０１弄","HOUSE_NO":"４號","E_COORD97":166655.07000000001,"N_COORD97":2547249.6299999999,"ADDRESS":"國安街１５６巷１０１弄４號","OBJECTID":150024},"geometry":{"x":166655.0700000003,"y":2547249.629999999}},{"attributes":{"ID":150026,"DIS_CODE":0,"TOWNNAME":"安南區","LI":"國安里","LIN":"3鄰","STREET":"國安街","SECT":" ","MAREA":" ","LANE":"１５６巷","ALLEY":"１０１弄","HOUSE_NO":"６號","E_COORD97":166650.39000000001,"N_COORD97":2547248.25,"ADDRESS":"國安街１５６巷１０１弄６號","OBJECTID":150025},"geometry":{"x":166650.38999999966,"y":2547248.2500000019}},{"attributes":{"ID":150027,"DIS_CODE":0,"TOWNNAME":"安南區","LI":"國安里","LIN":"3鄰","STREET":"國安街","SECT":" ","MAREA":" ","LANE":"１５６巷","ALLEY":"１０１弄","HOUSE_NO":"８號","E_COORD97":166645.81,"N_COORD97":2547247.52,"ADDRESS":"國安街１５６巷１０１弄８號","OBJECTID":150026},"geometry":{"x":166645.80999999959,"y":2547247.5199999996}},{"attributes":{"ID":150028,"DIS_CODE":0,"TOWNNAME":"安南區","LI":"國安里","LIN":"3鄰","STREET":"國安街","SECT":" ","MAREA":" ","LANE":"１５６巷","ALLEY":"１１９弄","HOUSE_NO":"１１號","E_COORD97":166634.35000000001,"N_COORD97":2547260.1800000002,"ADDRESS":"國安街１５６巷１１９弄１１號","OBJECTID":150027},"geometry":{"x":166634.35000000056,"y":2547260.1799999997}},{"attributes":{"ID":150029,"DIS_CODE":0,"TOWNNAME":"安南區","LI":"國安里","LIN":"3鄰","STREET":"國安街","SECT":" ","MAREA":" ","LANE":"１５６巷","ALLEY":"１１９弄","HOUSE_NO":"１３號","E_COORD97":166628.64000000001,"N_COORD97":2547258,"ADDRESS":"國安街１５６巷１１９弄１３號","OBJECTID":150028},"geometry":{"x":166628.64000000153,"y":2547258}},{"attributes":{"ID":150030,"DIS_CODE":0,"TOWNNAME":"南區","LI":"郡南里","LIN":"7鄰","STREET":"永成路","SECT":"三段","MAREA":" ","LANE":"１７７巷","ALLEY":" ","HOUSE_NO":"２０號","E_COORD97":167440.096208,"N_COORD97":2540846.8563999999,"ADDRESS":"永成路三段１７７巷２０號","OBJECTID":150029},"geometry":{"x":167440.09620800056,"y":2540846.8563950025}},{"attributes":{"ID":150031,"DIS_CODE":0,"TOWNNAME":"安定區","LI":"蘇林里","LIN":"20鄰","STREET":" ","SECT":" ","MAREA":"蘇厝","LANE":" ","ALLEY":" ","HOUSE_NO":"２２７之５號","E_COORD97":173350.22,"N_COORD97":2558823.2999999998,"ADDRESS":"蘇厝２２７之５號","OBJECTID":150030},"geometry":{"x":173350.22000000067,"y":2558823.3000000026}},{"attributes":{"ID":150032,"DIS_CODE":0,"TOWNNAME":"永康區","LI":"大灣里","LIN":"19鄰","STREET":"大灣路","SECT":" ","MAREA":" ","LANE":" ","ALLEY":" ","HOUSE_NO":"３６４號","E_COORD97":174830.51000000001,"N_COORD97":2545104.25,"ADDRESS":"大灣路３６４號","OBJECTID":150031},"geometry":{"x":174830.50999999978,"y":2545104.2500000037}},{"attributes":{"ID":150033,"DIS_CODE":0,"TOWNNAME":"佳里區","LI":"建南里","LIN":"17鄰","STREET":"建南街","SECT":" ","MAREA":" ","LANE":" ","ALLEY":" ","HOUSE_NO":"９４號","E_COORD97":165653.63267299999,"N_COORD97":2561956.4797299998,"ADDRESS":"建南街９４號","OBJECTID":150032},"geometry":{"x":165653.63267300092,"y":2561956.4797320012}},{"attributes":{"ID":150034,"DIS_CODE":0,"TOWNNAME":"永康區","LI":"大灣里","LIN":"19鄰","STREET":"大灣路","SECT":" ","MAREA":" ","LANE":" ","ALLEY":" ","HOUSE_NO":"３７４號","E_COORD97":174821.70999999999,"N_COORD97":2545088.9300000002,"ADDRESS":"大灣路３７４號","OBJECTID":150033},"geometry":{"x":174821.71000000089,"y":2545088.9300000034}},{"attributes":{"ID":150035,"DIS_CODE":0,"TOWNNAME":"永康區","LI":"五王里","LIN":"19鄰","STREET":"成功路","SECT":" ","MAREA":" ","LANE":" ","ALLEY":" ","HOUSE_NO":"１８６號","E_COORD97":171424.45000000001,"N_COORD97":2545655.6299999999,"ADDRESS":"成功路１８６號","OBJECTID":150034},"geometry":{"x":171424.44999999925,"y":2545655.629999999}},{"attributes":{"ID":150036,"DIS_CODE":0,"TOWNNAME":"永康區","LI":"崑山里","LIN":"19鄰","STREET":"國光一街","SECT":" ","MAREA":" ","LANE":" ","ALLEY":" ","HOUSE_NO":"１７號","E_COORD97":173980.06,"N_COORD97":2544580.6400000001,"ADDRESS":"國光一街１７號","OBJECTID":150035},"geometry":{"x":173980.06000000052,"y":2544580.6400000025}},{"attributes":{"ID":150037,"DIS_CODE":0,"TOWNNAME":"永康區","LI":"崑山里","LIN":"19鄰","STREET":"大灣路","SECT":" ","MAREA":" ","LANE":" ","ALLEY":" ","HOUSE_NO":"８２６號之５","E_COORD97":173944.97,"N_COORD97":2544520.1699999999,"ADDRESS":"大灣路８２６號之５","OBJECTID":150036},"geometry":{"x":173944.97000000067,"y":2544520.1699999999}},{"attributes":{"ID":150038,"DIS_CODE":0,"TOWNNAME":"永康區","LI":"崑山里","LIN":"19鄰","STREET":"國光一街","SECT":" ","MAREA":" ","LANE":" ","ALLEY":" ","HOUSE_NO":"１５號","E_COORD97":173985.59,"N_COORD97":2544579.3900000001,"ADDRESS":"國光一街１５號","OBJECTID":150037},"geometry":{"x":173985.58999999985,"y":2544579.3900000025}},{"attributes":{"ID":150039,"DIS_CODE":0,"TOWNNAME":"仁德區","LI":"後壁里","LIN":"19鄰","STREET":"中正路","SECT":"二段","MAREA":" ","LANE":" ","ALLEY":" ","HOUSE_NO":"１６４號","E_COORD97":173223.89999999999,"N_COORD97":2538656.7799999998,"ADDRESS":"中正路二段１６４號","OBJECTID":150038},"geometry":{"x":173223.9000000013,"y":2538656.7799999993}},{"attributes":{"ID":150040,"DIS_CODE":0,"TOWNNAME":"仁德區","LI":"後壁里","LIN":"19鄰","STREET":"中正路","SECT":"二段","MAREA":" ","LANE":" ","ALLEY":" ","HOUSE_NO":"１７４號","E_COORD97":173226.34,"N_COORD97":2538679.7799999998,"ADDRESS":"中正路二段１７４號","OBJECTID":150039},"geometry":{"x":173226.33999999985,"y":2538679.7800000012}},{"attributes":{"ID":150041,"DIS_CODE":0,"TOWNNAME":"東區","LI":"和平里","LIN":"1鄰","STREET":"仁和路","SECT":" ","MAREA":" ","LANE":" ","ALLEY":" ","HOUSE_NO":"７號","E_COORD97":171027.64000000001,"N_COORD97":2542310.8500000001,"ADDRESS":"仁和路７號","OBJECTID":150040},"geometry":{"x":171027.63999999873,"y":2542310.8500000015}},{"attributes":{"ID":150042,"DIS_CODE":0,"TOWNNAME":"安南區","LI":"國安里","LIN":"3鄰","STREET":"國安街","SECT":" ","MAREA":" ","LANE":"１５６巷","ALLEY":"１１９弄","HOUSE_NO":"１５號","E_COORD97":166624.38,"N_COORD97":2547257.52,"ADDRESS":"國安街１５６巷１１９弄１５號","OBJECTID":150041},"geometry":{"x":166624.38000000082,"y":2547257.5199999996}},{"attributes":{"ID":150043,"DIS_CODE":0,"TOWNNAME":"安南區","LI":"國安里","LIN":"3鄰","STREET":"國安街","SECT":" ","MAREA":" ","LANE":"１５６巷","ALLEY":"１１９弄","HOUSE_NO":"１７號","E_COORD97":166619.16,"N_COORD97":2547257.52,"ADDRESS":"國安街１５６巷１１９弄１７號","OBJECTID":150042},"geometry":{"x":166619.16000000108,"y":2547257.5199999996}},{"attributes":{"ID":150044,"DIS_CODE":0,"TOWNNAME":"安南區","LI":"國安里","LIN":"3鄰","STREET":"國安街","SECT":" ","MAREA":" ","LANE":"１５６巷","ALLEY":"１１９弄","HOUSE_NO":"１９號","E_COORD97":166614.85999999999,"N_COORD97":2547256.4700000002,"ADDRESS":"國安街１５６巷１１９弄１９號","OBJECTID":150043},"geometry":{"x":166614.86000000127,"y":2547256.4700000025}},{"attributes":{"ID":150045,"DIS_CODE":0,"TOWNNAME":"安南區","LI":"國安里","LIN":"3鄰","STREET":"國安街","SECT":" ","MAREA":" ","LANE":"１５６巷","ALLEY":"１１９弄","HOUSE_NO":"１號","E_COORD97":166657.72,"N_COORD97":2547264.75,"ADDRESS":"國安街１５６巷１１９弄１號","OBJECTID":150044},"geometry":{"x":166657.72000000067,"y":2547264.7500000019}},{"attributes":{"ID":150046,"DIS_CODE":0,"TOWNNAME":"安南區","LI":"國安里","LIN":"3鄰","STREET":"國安街","SECT":" ","MAREA":" ","LANE":"１５６巷","ALLEY":"１１９弄","HOUSE_NO":"２１號","E_COORD97":166609.72,"N_COORD97":2547255.5899999999,"ADDRESS":"國安街１５６巷１１９弄２１號","OBJECTID":150045},"geometry":{"x":166609.72000000067,"y":2547255.5900000017}},{"attributes":{"ID":150047,"DIS_CODE":0,"TOWNNAME":"安南區","LI":"國安里","LIN":"3鄰","STREET":"國安街","SECT":" ","MAREA":" ","LANE":"１５６巷","ALLEY":"１１９弄","HOUSE_NO":"２３號","E_COORD97":166605.94,"N_COORD97":2547254.9500000002,"ADDRESS":"國安街１５６巷１１９弄２３號","OBJECTID":150046},"geometry":{"x":166605.94000000134,"y":2547254.950000003}},{"attributes":{"ID":150048,"DIS_CODE":0,"TOWNNAME":"安南區","LI":"國安里","LIN":"3鄰","STREET":"國安街","SECT":" ","MAREA":" ","LANE":"１５６巷","ALLEY":"１１９弄","HOUSE_NO":"２５號","E_COORD97":166600.23999999999,"N_COORD97":2547254.2999999998,"ADDRESS":"國安街１５６巷１１９弄２５號","OBJECTID":150047},"geometry":{"x":166600.24000000115,"y":2547254.3000000045}},{"attributes":{"ID":150049,"DIS_CODE":0,"TOWNNAME":"安南區","LI":"國安里","LIN":"3鄰","STREET":"國安街","SECT":" ","MAREA":" ","LANE":"１５６巷","ALLEY":"１１９弄","HOUSE_NO":"２７號","E_COORD97":166595.10000000001,"N_COORD97":2547253.3399999999,"ADDRESS":"國安街１５６巷１１９弄２７號","OBJECTID":150048},"geometry":{"x":166595.10000000149,"y":2547253.3400000017}},{"attributes":{"ID":150050,"DIS_CODE":0,"TOWNNAME":"安南區","LI":"國安里","LIN":"3鄰","STREET":"國安街","SECT":" ","MAREA":" ","LANE":"１５６巷","ALLEY":"１１９弄","HOUSE_NO":"２９號","E_COORD97":166589.72,"N_COORD97":2547252.46,"ADDRESS":"國安街１５６巷１１９弄２９號","OBJECTID":150049},"geometry":{"x":166589.72000000067,"y":2547252.4600000009}},{"attributes":{"ID":150051,"DIS_CODE":0,"TOWNNAME":"安南區","LI":"國安里","LIN":"3鄰","STREET":"國安街","SECT":" ","MAREA":" ","LANE":"１５６巷","ALLEY":"１１９弄","HOUSE_NO":"３號","E_COORD97":166653.22,"N_COORD97":2547263.9500000002,"ADDRESS":"國安街１５６巷１１９弄３號","OBJECTID":150050},"geometry":{"x":166653.21999999974,"y":2547263.9499999993}},{"attributes":{"ID":150052,"DIS_CODE":0,"TOWNNAME":"安南區","LI":"國安里","LIN":"3鄰","STREET":"國安街","SECT":" ","MAREA":" ","LANE":"１５６巷","ALLEY":"１１９弄","HOUSE_NO":"５號","E_COORD97":166648.23999999999,"N_COORD97":2547262.98,"ADDRESS":"國安街１５６巷１１９弄５號","OBJECTID":150051},"geometry":{"x":166648.24000000022,"y":2547262.9800000023}},{"attributes":{"ID":150053,"DIS_CODE":0,"TOWNNAME":"安南區","LI":"國安里","LIN":"3鄰","STREET":"國安街","SECT":" ","MAREA":" ","LANE":"１５６巷","ALLEY":"１１９弄","HOUSE_NO":"６號","E_COORD97":166658.51999999999,"N_COORD97":2547295.73,"ADDRESS":"國安街１５６巷１１９弄６號","OBJECTID":150052},"geometry":{"x":166658.52000000048,"y":2547295.7300000023}},{"attributes":{"ID":150054,"DIS_CODE":0,"TOWNNAME":"安南區","LI":"國安里","LIN":"3鄰","STREET":"國安街","SECT":" ","MAREA":" ","LANE":"１５６巷","ALLEY":"１１９弄","HOUSE_NO":"７號","E_COORD97":166643.5,"N_COORD97":2547261.8599999999,"ADDRESS":"國安街１５６巷１１９弄７號","OBJECTID":150053},"geometry":{"x":166643.50000000186,"y":2547261.8599999994}},{"attributes":{"ID":150055,"DIS_CODE":0,"TOWNNAME":"南區","LI":"郡南里","LIN":"7鄰","STREET":"永成路","SECT":"三段","MAREA":" ","LANE":"１７７巷","ALLEY":" ","HOUSE_NO":"２２號","E_COORD97":167435.01363,"N_COORD97":2540846.8563999999,"ADDRESS":"永成路三段１７７巷２２號","OBJECTID":150054},"geometry":{"x":167435.01363000181,"y":2540846.8563950025}},{"attributes":{"ID":150056,"DIS_CODE":0,"TOWNNAME":"東區","LI":"和平里","LIN":"10鄰","STREET":"仁和路","SECT":" ","MAREA":" ","LANE":" ","ALLEY":" ","HOUSE_NO":"８７號","E_COORD97":171267.79000000001,"N_COORD97":2541503.46,"ADDRESS":"仁和路８７號","OBJECTID":150055},"geometry":{"x":171267.7900000019,"y":2541503.4600000028}},{"attributes":{"ID":150057,"DIS_CODE":0,"TOWNNAME":"安定區","LI":"蘇林里","LIN":"20鄰","STREET":" ","SECT":" ","MAREA":"蘇厝","LANE":" ","ALLEY":" ","HOUSE_NO":"２２８之３號","E_COORD97":173336.42000000001,"N_COORD97":2558832.2999999998,"ADDRESS":"蘇厝２２８之３號","OBJECTID":150056},"geometry":{"x":173336.41999999993,"y":2558832.3000000045}},{"attributes":{"ID":150058,"DIS_CODE":0,"TOWNNAME":"安定區","LI":"蘇厝里","LIN":"20鄰","STREET":" ","SECT":" ","MAREA":"蘇厝","LANE":" ","ALLEY":" ","HOUSE_NO":"４７６號","E_COORD97":173203.92000000001,"N_COORD97":2558912.25,"ADDRESS":"蘇厝４７６號","OBJECTID":150057},"geometry":{"x":173203.91999999993,"y":2558912.25}},{"attributes":{"ID":150059,"DIS_CODE":0,"TOWNNAME":"安定區","LI":"蘇林里","LIN":"20鄰","STREET":" ","SECT":" ","MAREA":"蘇厝","LANE":" ","ALLEY":" ","HOUSE_NO":"２２６號","E_COORD97":173374.32000000001,"N_COORD97":2558868.2400000002,"ADDRESS":"蘇厝２２６號","OBJECTID":150058},"geometry":{"x":173374.3200000003,"y":2558868.2400000002}},{"attributes":{"ID":150060,"DIS_CODE":0,"TOWNNAME":"安定區","LI":"蘇林里","LIN":"20鄰","STREET":" ","SECT":" ","MAREA":"蘇厝","LANE":" ","ALLEY":" ","HOUSE_NO":"２２７之２號","E_COORD97":173362.72,"N_COORD97":2558824.2999999998,"ADDRESS":"蘇厝２２７之２號","OBJECTID":150059},"geometry":{"x":173362.71999999974,"y":2558824.3000000007}},{"attributes":{"ID":150061,"DIS_CODE":0,"TOWNNAME":"安定區","LI":"蘇厝里","LIN":"20鄰","STREET":" ","SECT":" ","MAREA":"蘇厝","LANE":" ","ALLEY":" ","HOUSE_NO":"４７５之３號","E_COORD97":173181.51999999999,"N_COORD97":2558890.2999999998,"ADDRESS":"蘇厝４７５之３號","OBJECTID":150060},"geometry":{"x":173181.52000000048,"y":2558890.3000000026}},{"attributes":{"ID":150062,"DIS_CODE":0,"TOWNNAME":"安定區","LI":"蘇林里","LIN":"20鄰","STREET":" ","SECT":" ","MAREA":"蘇厝","LANE":" ","ALLEY":" ","HOUSE_NO":"２２８之９號","E_COORD97":173361.32000000001,"N_COORD97":2558833.2999999998,"ADDRESS":"蘇厝２２８之９號","OBJECTID":150061},"geometry":{"x":173361.31999999937,"y":2558833.3000000026}},{"attributes":{"ID":150063,"DIS_CODE":0,"TOWNNAME":"安定區","LI":"蘇林里","LIN":"20鄰","STREET":" ","SECT":" ","MAREA":"蘇厝","LANE":" ","ALLEY":" ","HOUSE_NO":"２２７之８號","E_COORD97":173337.22,"N_COORD97":2558822.2999999998,"ADDRESS":"蘇厝２２７之８號","OBJECTID":150062},"geometry":{"x":173337.21999999974,"y":2558822.3000000026}},{"attributes":{"ID":150064,"DIS_CODE":0,"TOWNNAME":"仁德區","LI":"仁德里","LIN":"19鄰","STREET":"文華一街","SECT":" ","MAREA":" ","LANE":" ","ALLEY":" ","HOUSE_NO":"２６號","E_COORD97":172273.29000000001,"N_COORD97":2540291.5699999998,"ADDRESS":"文華一街２６號","OBJECTID":150063},"geometry":{"x":172273.29000000097,"y":2540291.5700000022}},{"attributes":{"ID":150065,"DIS_CODE":0,"TOWNNAME":"仁德區","LI":"仁德里","LIN":"19鄰","STREET":"文華一街","SECT":" ","MAREA":" ","LANE":" ","ALLEY":" ","HOUSE_NO":"１１０之２號","E_COORD97":172375.35000000001,"N_COORD97":2540124.0800000001,"ADDRESS":"文華一街１１０之２號","OBJECTID":150064},"geometry":{"x":172375.34999999963,"y":2540124.0800000001}},{"attributes":{"ID":150066,"DIS_CODE":0,"TOWNNAME":"仁德區","LI":"保安里","LIN":"19鄰","STREET":"文賢路","SECT":"二段","MAREA":" ","LANE":" ","ALLEY":" ","HOUSE_NO":"６１號","E_COORD97":172010.01999999999,"N_COORD97":2535627.0699999998,"ADDRESS":"文賢路二段６１號","OBJECTID":150065},"geometry":{"x":172010.02000000142,"y":2535627.0700000022}},{"attributes":{"ID":150067,"DIS_CODE":0,"TOWNNAME":"仁德區","LI":"仁德里","LIN":"19鄰","STREET":"文華一街","SECT":" ","MAREA":" ","LANE":" ","ALLEY":" ","HOUSE_NO":"１１０之１號","E_COORD97":172319.14999999999,"N_COORD97":2540013.0800000001,"ADDRESS":"文華一街１１０之１號","OBJECTID":150066},"geometry":{"x":172319.1500000013,"y":2540013.0800000038}},{"attributes":{"ID":150068,"DIS_CODE":0,"TOWNNAME":"善化區","LI":"東關里","LIN":"19鄰","STREET":"中興路","SECT":" ","MAREA":" ","LANE":" ","ALLEY":" ","HOUSE_NO":"７２號","E_COORD97":177566.57999999999,"N_COORD97":2559026.25,"ADDRESS":"中興路７２號","OBJECTID":150067},"geometry":{"x":177566.58000000007,"y":2559026.2500000019}},{"attributes":{"ID":150069,"DIS_CODE":0,"TOWNNAME":"善化區","LI":"東關里","LIN":"19鄰","STREET":"大信路","SECT":" ","MAREA":" ","LANE":" ","ALLEY":" ","HOUSE_NO":"１５號之１","E_COORD97":177484.42999999999,"N_COORD97":2559040.02,"ADDRESS":"大信路１５號之１","OBJECTID":150068},"geometry":{"x":177484.43000000156,"y":2559040.0200000014}},{"attributes":{"ID":150070,"DIS_CODE":0,"TOWNNAME":"善化區","LI":"胡厝里","LIN":"19鄰","STREET":" ","SECT":" ","MAREA":"西衛","LANE":" ","ALLEY":" ","HOUSE_NO":"２０號","E_COORD97":174373.84,"N_COORD97":2559365.5,"ADDRESS":"西衛２０號","OBJECTID":150069},"geometry":{"x":174373.83999999985,"y":2559365.4999999981}},{"attributes":{"ID":150071,"DIS_CODE":0,"TOWNNAME":"善化區","LI":"溪美里","LIN":"18鄰","STREET":" ","SECT":" ","MAREA":"溪尾","LANE":" ","ALLEY":" ","HOUSE_NO":"２２０號","E_COORD97":177275.23999999999,"N_COORD97":2561465.2599999998,"ADDRESS":"溪尾２２０號","OBJECTID":150070},"geometry":{"x":177275.24000000115,"y":2561465.2599999998}},{"attributes":{"ID":150072,"DIS_CODE":0,"TOWNNAME":"善化區","LI":"坐駕里","LIN":"19鄰","STREET":" ","SECT":" ","MAREA":"坐駕","LANE":" ","ALLEY":" ","HOUSE_NO":"６號之１０","E_COORD97":178350.45999999999,"N_COORD97":2558345.3300000001,"ADDRESS":"坐駕６號之１０","OBJECTID":150071},"geometry":{"x":178350.45999999996,"y":2558345.3300000001}},{"attributes":{"ID":150073,"DIS_CODE":0,"TOWNNAME":"善化區","LI":"胡厝里","LIN":"19鄰","STREET":" ","SECT":" ","MAREA":"西衛","LANE":" ","ALLEY":" ","HOUSE_NO":"３０號之４","E_COORD97":174192.04000000001,"N_COORD97":2559242.6600000001,"ADDRESS":"西衛３０號之４","OBJECTID":150072},"geometry":{"x":174192.0400000019,"y":2559242.6600000039}},{"attributes":{"ID":150074,"DIS_CODE":0,"TOWNNAME":"善化區","LI":"胡厝里","LIN":"19鄰","STREET":" ","SECT":" ","MAREA":"西衛","LANE":" ","ALLEY":" ","HOUSE_NO":"３０號之１１","E_COORD97":174194.42999999999,"N_COORD97":2559220.27,"ADDRESS":"西衛３０號之１１","OBJECTID":150073},"geometry":{"x":174194.43000000063,"y":2559220.2699999996}},{"attributes":{"ID":150075,"DIS_CODE":0,"TOWNNAME":"安南區","LI":"國安里","LIN":"3鄰","STREET":"國安街","SECT":" ","MAREA":" ","LANE":"１５６巷","ALLEY":"１１９弄","HOUSE_NO":"９號","E_COORD97":166638.28,"N_COORD97":2547261.0600000001,"ADDRESS":"國安街１５６巷１１９弄９號","OBJECTID":150074},"geometry":{"x":166638.28000000026,"y":2547261.0600000005}},{"attributes":{"ID":150076,"DIS_CODE":0,"TOWNNAME":"永康區","LI":"復興里","LIN":"3鄰","STREET":"復興路","SECT":" ","MAREA":" ","LANE":"２７７巷","ALLEY":"９４弄","HOUSE_NO":"４號","E_COORD97":172331.14000000001,"N_COORD97":2544079.02,"ADDRESS":"復興路２７７巷９４弄４號","OBJECTID":150075},"geometry":{"x":172331.13999999966,"y":2544079.0200000014}},{"attributes":{"ID":150077,"DIS_CODE":0,"TOWNNAME":"永康區","LI":"復興里","LIN":"3鄰","STREET":"復興路","SECT":" ","MAREA":" ","LANE":"２７７巷","ALLEY":"７８弄","HOUSE_NO":"１５號","E_COORD97":172296.42999999999,"N_COORD97":2544114.52,"ADDRESS":"復興路２７７巷７８弄１５號","OBJECTID":150076},"geometry":{"x":172296.4299999997,"y":2544114.5199999996}},{"attributes":{"ID":150078,"DIS_CODE":0,"TOWNNAME":"永康區","LI":"復興里","LIN":"3鄰","STREET":"復興路","SECT":" ","MAREA":" ","LANE":"２７７巷","ALLEY":"９４弄","HOUSE_NO":"２２號","E_COORD97":172298.48999999999,"N_COORD97":2544088.1299999999,"ADDRESS":"復興路２７７巷９４弄２２號","OBJECTID":150077},"geometry":{"x":172298.49000000022,"y":2544088.1300000008}},{"attributes":{"ID":150079,"DIS_CODE":0,"TOWNNAME":"永康區","LI":"復興里","LIN":"3鄰","STREET":"復興路","SECT":" ","MAREA":" ","LANE":"２７７巷","ALLEY":"９４弄","HOUSE_NO":"１０號","E_COORD97":172323.39999999999,"N_COORD97":2544088.1299999999,"ADDRESS":"復興路２７７巷９４弄１０號","OBJECTID":150078},"geometry":{"x":172323.39999999944,"y":2544088.1300000008}},{"attributes":{"ID":150080,"DIS_CODE":0,"TOWNNAME":"永康區","LI":"復興里","LIN":"3鄰","STREET":"復興路","SECT":" ","MAREA":" ","LANE":"２７７巷","ALLEY":"７８弄","HOUSE_NO":"３６號","E_COORD97":172323.04000000001,"N_COORD97":2544153.2799999998,"ADDRESS":"復興路２７７巷７８弄３６號","OBJECTID":150079},"geometry":{"x":172323.04000000097,"y":2544153.2799999993}},{"attributes":{"ID":150081,"DIS_CODE":0,"TOWNNAME":"善化區","LI":"胡厝里","LIN":"19鄰","STREET":" ","SECT":" ","MAREA":"西衛","LANE":" ","ALLEY":" ","HOUSE_NO":"３０號之１３","E_COORD97":174179.95999999999,"N_COORD97":2559212.73,"ADDRESS":"西衛３０號之１３","OBJECTID":150080},"geometry":{"x":174179.95999999996,"y":2559212.7300000023}},{"attributes":{"ID":150082,"DIS_CODE":0,"TOWNNAME":"善化區","LI":"坐駕里","LIN":"19鄰","STREET":" ","SECT":" ","MAREA":"坐駕","LANE":" ","ALLEY":" ","HOUSE_NO":"５號之７","E_COORD97":178300,"N_COORD97":2558425.27,"ADDRESS":"坐駕５號之７","OBJECTID":150081},"geometry":{"x":178300.00000000093,"y":2558425.2700000014}},{"attributes":{"ID":150083,"DIS_CODE":0,"TOWNNAME":"善化區","LI":"坐駕里","LIN":"19鄰","STREET":" ","SECT":" ","MAREA":"坐駕","LANE":" ","ALLEY":" ","HOUSE_NO":"６號之８","E_COORD97":178371.82000000001,"N_COORD97":2558368.1000000001,"ADDRESS":"坐駕６號之８","OBJECTID":150082},"geometry":{"x":178371.8200000003,"y":2558368.1000000034}},{"attributes":{"ID":150084,"DIS_CODE":0,"TOWNNAME":"善化區","LI":"胡厝里","LIN":"19鄰","STREET":" ","SECT":" ","MAREA":"西衛","LANE":" ","ALLEY":" ","HOUSE_NO":"２０之１２號","E_COORD97":174394.98000000001,"N_COORD97":2559303.5099999998,"ADDRESS":"西衛２０之１２號","OBJECTID":150083},"geometry":{"x":174394.98000000138,"y":2559303.5099999998}},{"attributes":{"ID":150085,"DIS_CODE":0,"TOWNNAME":"善化區","LI":"胡厝里","LIN":"19鄰","STREET":" ","SECT":" ","MAREA":"西衛","LANE":" ","ALLEY":" ","HOUSE_NO":"２０之１３號","E_COORD97":174396.22,"N_COORD97":2559299.0600000001,"ADDRESS":"西衛２０之１３號","OBJECTID":150084},"geometry":{"x":174396.22000000067,"y":2559299.0600000024}},{"attributes":{"ID":150086,"DIS_CODE":0,"TOWNNAME":"善化區","LI":"胡厝里","LIN":"19鄰","STREET":" ","SECT":" ","MAREA":"西衛","LANE":" ","ALLEY":" ","HOUSE_NO":"２０之１５號","E_COORD97":174398.66,"N_COORD97":2559293.0499999998,"ADDRESS":"西衛２０之１５號","OBJECTID":150085},"geometry":{"x":174398.66000000108,"y":2559293.0500000026}},{"attributes":{"ID":150087,"DIS_CODE":0,"TOWNNAME":"永康區","LI":"復興里","LIN":"3鄰","STREET":"復興路","SECT":" ","MAREA":" ","LANE":"２７７巷","ALLEY":"７８弄","HOUSE_NO":"１６號","E_COORD97":172331.17000000001,"N_COORD97":2544134.2799999998,"ADDRESS":"復興路２７７巷７８弄１６號","OBJECTID":150086},"geometry":{"x":172331.16999999993,"y":2544134.2800000012}},{"attributes":{"ID":150088,"DIS_CODE":0,"TOWNNAME":"永康區","LI":"復興里","LIN":"3鄰","STREET":"復興路","SECT":" ","MAREA":" ","LANE":"２７７巷","ALLEY":"７８弄","HOUSE_NO":"２０號","E_COORD97":172322.85000000001,"N_COORD97":2544134.2799999998,"ADDRESS":"復興路２７７巷７８弄２０號","OBJECTID":150087},"geometry":{"x":172322.84999999963,"y":2544134.2800000012}},{"attributes":{"ID":150089,"DIS_CODE":0,"TOWNNAME":"永康區","LI":"復興里","LIN":"3鄰","STREET":"復興路","SECT":" ","MAREA":" ","LANE":"２７７巷","ALLEY":"７８弄","HOUSE_NO":"２６號","E_COORD97":172303.48999999999,"N_COORD97":2544136.8999999999,"ADDRESS":"復興路２７７巷７８弄２６號","OBJECTID":150088},"geometry":{"x":172303.49000000022,"y":2544136.9000000004}},{"attributes":{"ID":150090,"DIS_CODE":0,"TOWNNAME":"永康區","LI":"復興里","LIN":"3鄰","STREET":"復興路","SECT":" ","MAREA":" ","LANE":"２７７巷","ALLEY":"７８弄","HOUSE_NO":"４６號","E_COORD97":172297.5,"N_COORD97":2544152.2799999998,"ADDRESS":"復興路２７７巷７８弄４６號","OBJECTID":150089},"geometry":{"x":172297.50000000093,"y":2544152.2799999993}},{"attributes":{"ID":150091,"DIS_CODE":0,"TOWNNAME":"中西區","LI":"開山里","LIN":"19鄰","STREET":"開山路","SECT":" ","MAREA":" ","LANE":"２３５巷","ALLEY":" ","HOUSE_NO":"１０號","E_COORD97":169026.66,"N_COORD97":2543004.4300000002,"ADDRESS":"開山路２３５巷１０號","OBJECTID":150090},"geometry":{"x":169026.66000000108,"y":2543004.4300000016}},{"attributes":{"ID":150092,"DIS_CODE":0,"TOWNNAME":"中西區","LI":"光賢里","LIN":"19鄰","STREET":"武聖路","SECT":" ","MAREA":" ","LANE":" ","ALLEY":" ","HOUSE_NO":"１９９號","E_COORD97":166923.32000000001,"N_COORD97":2545237.75,"ADDRESS":"武聖路１９９號","OBJECTID":150091},"geometry":{"x":166923.32000000123,"y":2545237.7500000019}},{"attributes":{"ID":150093,"DIS_CODE":0,"TOWNNAME":"新市區","LI":"大營里","LIN":"19鄰","STREET":" ","SECT":" ","MAREA":"豐榮","LANE":" ","ALLEY":" ","HOUSE_NO":"３０之１號","E_COORD97":178836.48999999999,"N_COORD97":2554416.2999999998,"ADDRESS":"豐榮３０之１號","OBJECTID":150092},"geometry":{"x":178836.49000000115,"y":2554416.3000000007}},{"attributes":{"ID":150094,"DIS_CODE":0,"TOWNNAME":"新市區","LI":"大營里","LIN":"19鄰","STREET":" ","SECT":" ","MAREA":"豐榮","LANE":" ","ALLEY":" ","HOUSE_NO":"４３之２９號","E_COORD97":178716.64999999999,"N_COORD97":2554309.7999999998,"ADDRESS":"豐榮４３之２９號","OBJECTID":150093},"geometry":{"x":178716.6500000013,"y":2554309.8000000026}},{"attributes":{"ID":150095,"DIS_CODE":0,"TOWNNAME":"新市區","LI":"大社里","LIN":"19鄰","STREET":" ","SECT":" ","MAREA":"大社","LANE":" ","ALLEY":" ","HOUSE_NO":"７８０號","E_COORD97":179910.89999999999,"N_COORD97":2554187,"ADDRESS":"大社７８０號","OBJECTID":150094},"geometry":{"x":179910.90000000037,"y":2554187}},{"attributes":{"ID":150096,"DIS_CODE":0,"TOWNNAME":"北門區","LI":"保吉里","LIN":"19鄰","STREET":" ","SECT":" ","MAREA":"蚵寮","LANE":" ","ALLEY":" ","HOUSE_NO":"４３２號","E_COORD97":161587.97,"N_COORD97":2576299.21,"ADDRESS":"蚵寮４３２號","OBJECTID":150095},"geometry":{"x":161587.96999999974,"y":2576299.2100000009}},{"attributes":{"ID":150097,"DIS_CODE":0,"TOWNNAME":"北門區","LI":"保吉里","LIN":"19鄰","STREET":" ","SECT":" ","MAREA":"蚵寮","LANE":" ","ALLEY":" ","HOUSE_NO":"４３３號","E_COORD97":161586.01999999999,"N_COORD97":2576304.6600000001,"ADDRESS":"蚵寮４３３號","OBJECTID":150096},"geometry":{"x":161586.01999999955,"y":2576304.660000002}},{"attributes":{"ID":150098,"DIS_CODE":0,"TOWNNAME":"北門區","LI":"保吉里","LIN":"19鄰","STREET":" ","SECT":" ","MAREA":"蚵寮","LANE":" ","ALLEY":" ","HOUSE_NO":"４３４號","E_COORD97":161608.87,"N_COORD97":2576339.04,"ADDRESS":"蚵寮４３４號","OBJECTID":150097},"geometry":{"x":161608.87000000104,"y":2576339.0399999991}},{"attributes":{"ID":150099,"DIS_CODE":0,"TOWNNAME":"北門區","LI":"保吉里","LIN":"19鄰","STREET":" ","SECT":" ","MAREA":"蚵寮","LANE":" ","ALLEY":" ","HOUSE_NO":"４３６號","E_COORD97":161601.29999999999,"N_COORD97":2576360.1400000001,"ADDRESS":"蚵寮４３６號","OBJECTID":150098},"geometry":{"x":161601.29999999981,"y":2576360.1400000006}},{"attributes":{"ID":150100,"DIS_CODE":0,"TOWNNAME":"北門區","LI":"保吉里","LIN":"19鄰","STREET":" ","SECT":" ","MAREA":"蚵寮","LANE":" ","ALLEY":" ","HOUSE_NO":"４３７號","E_COORD97":161594.63,"N_COORD97":2576368.23,"ADDRESS":"蚵寮４３７號","OBJECTID":150099},"geometry":{"x":161594.63000000082,"y":2576368.2300000023}},{"attributes":{"ID":150101,"DIS_CODE":0,"TOWNNAME":"北門區","LI":"保吉里","LIN":"19鄰","STREET":" ","SECT":" ","MAREA":"蚵寮","LANE":" ","ALLEY":" ","HOUSE_NO":"４４２號","E_COORD97":161588.14999999999,"N_COORD97":2576382.3700000001,"ADDRESS":"蚵寮４４２號","OBJECTID":150100},"geometry":{"x":161588.1500000013,"y":2576382.370000001}},{"attributes":{"ID":150102,"DIS_CODE":0,"TOWNNAME":"安定區","LI":"蘇厝里","LIN":"20鄰","STREET":" ","SECT":" ","MAREA":"蘇厝","LANE":" ","ALLEY":" ","HOUSE_NO":"４７７號之２","E_COORD97":173204.89000000001,"N_COORD97":2558954.2999999998,"ADDRESS":"蘇厝４７７號之２","OBJECTID":150101},"geometry":{"x":173204.8900000006,"y":2558954.3000000045}},{"attributes":{"ID":150103,"DIS_CODE":0,"TOWNNAME":"安定區","LI":"蘇厝里","LIN":"20鄰","STREET":" ","SECT":" ","MAREA":"蘇厝","LANE":" ","ALLEY":" ","HOUSE_NO":"４７５之７號","E_COORD97":173204.62,"N_COORD97":2558891.2999999998,"ADDRESS":"蘇厝４７５之７號","OBJECTID":150102},"geometry":{"x":173204.62000000011,"y":2558891.3000000026}},{"attributes":{"ID":150104,"DIS_CODE":0,"TOWNNAME":"安定區","LI":"蘇林里","LIN":"20鄰","STREET":" ","SECT":" ","MAREA":"蘇厝","LANE":" ","ALLEY":" ","HOUSE_NO":"２２７之３號","E_COORD97":173359.01999999999,"N_COORD97":2558823.2999999998,"ADDRESS":"蘇厝２２７之３號","OBJECTID":150103},"geometry":{"x":173359.01999999955,"y":2558823.3000000026}},{"attributes":{"ID":150105,"DIS_CODE":0,"TOWNNAME":"安定區","LI":"港南里","LIN":"20鄰","STREET":" ","SECT":" ","MAREA":"港口","LANE":" ","ALLEY":" ","HOUSE_NO":"２０９號之１","E_COORD97":171426.78729099999,"N_COORD97":2554575.2345400001,"ADDRESS":"港口２０９號之１","OBJECTID":150104},"geometry":{"x":171426.78729099967,"y":2554575.2345390003}},{"attributes":{"ID":150106,"DIS_CODE":0,"TOWNNAME":"柳營區","LI":"重溪里","LIN":"20鄰","STREET":" ","SECT":" ","MAREA":"五軍營","LANE":" ","ALLEY":" ","HOUSE_NO":"３０號之５","E_COORD97":183480.48999999999,"N_COORD97":2577253.3900000001,"ADDRESS":"五軍營３０號之５","OBJECTID":150105},"geometry":{"x":183480.49000000209,"y":2577253.3900000006}},{"attributes":{"ID":150107,"DIS_CODE":0,"TOWNNAME":"柳營區","LI":"重溪里","LIN":"20鄰","STREET":" ","SECT":" ","MAREA":"五軍營","LANE":" ","ALLEY":" ","HOUSE_NO":"３０號之６","E_COORD97":183480.60999999999,"N_COORD97":2577249.23,"ADDRESS":"五軍營３０號之６","OBJECTID":150106},"geometry":{"x":183480.61000000127,"y":2577249.2300000023}},{"attributes":{"ID":150108,"DIS_CODE":0,"TOWNNAME":"柳營區","LI":"重溪里","LIN":"20鄰","STREET":" ","SECT":" ","MAREA":"五軍營","LANE":" ","ALLEY":" ","HOUSE_NO":"３０號之７","E_COORD97":183481.07999999999,"N_COORD97":2577245.4700000002,"ADDRESS":"五軍營３０號之７","OBJECTID":150107},"geometry":{"x":183481.08000000007,"y":2577245.4700000025}},{"attributes":{"ID":150109,"DIS_CODE":0,"TOWNNAME":"中西區","LI":"光賢里","LIN":"19鄰","STREET":"武聖路","SECT":" ","MAREA":" ","LANE":" ","ALLEY":" ","HOUSE_NO":"２０１號","E_COORD97":166919.17000000001,"N_COORD97":2545243.04,"ADDRESS":"武聖路２０１號","OBJECTID":150108},"geometry":{"x":166919.17000000086,"y":2545243.0399999991}},{"attributes":{"ID":150110,"DIS_CODE":0,"TOWNNAME":"柳營區","LI":"重溪里","LIN":"20鄰","STREET":" ","SECT":" ","MAREA":"五軍營","LANE":" ","ALLEY":" ","HOUSE_NO":"３１號","E_COORD97":183450.04999999999,"N_COORD97":2577232.2400000002,"ADDRESS":"五軍營３１號","OBJECTID":150109},"geometry":{"x":183450.04999999981,"y":2577232.2400000021}},{"attributes":{"ID":150111,"DIS_CODE":0,"TOWNNAME":"中西區","LI":"光賢里","LIN":"19鄰","STREET":"武聖路","SECT":" ","MAREA":" ","LANE":" ","ALLEY":" ","HOUSE_NO":"２０３號","E_COORD97":166913.63,"N_COORD97":2545244.6600000001,"ADDRESS":"武聖路２０３號","OBJECTID":150110},"geometry":{"x":166913.62999999989,"y":2545244.660000002}},{"attributes":{"ID":150112,"DIS_CODE":0,"TOWNNAME":"柳營區","LI":"重溪里","LIN":"20鄰","STREET":" ","SECT":" ","MAREA":"五軍營","LANE":" ","ALLEY":" ","HOUSE_NO":"３２號之１","E_COORD97":183358.98999999999,"N_COORD97":2577268.54,"ADDRESS":"五軍營３２號之１","OBJECTID":150111},"geometry":{"x":183358.99000000115,"y":2577268.5399999991}},{"attributes":{"ID":150113,"DIS_CODE":0,"TOWNNAME":"柳營區","LI":"重溪里","LIN":"20鄰","STREET":" ","SECT":" ","MAREA":"五軍營","LANE":" ","ALLEY":" ","HOUSE_NO":"３２號之２","E_COORD97":183430.85000000001,"N_COORD97":2577251.2200000002,"ADDRESS":"五軍營３２號之２","OBJECTID":150112},"geometry":{"x":183430.84999999963,"y":2577251.2200000007}},{"attributes":{"ID":150114,"DIS_CODE":0,"TOWNNAME":"永康區","LI":"新樹里","LIN":"3鄰","STREET":"中山北路","SECT":" ","MAREA":" ","LANE":"７６４巷","ALLEY":"５６弄","HOUSE_NO":"３號","E_COORD97":176200.41,"N_COORD97":2547335.4300000002,"ADDRESS":"中山北路７６４巷５６弄３號","OBJECTID":150113},"geometry":{"x":176200.41000000108,"y":2547335.4299999997}},{"attributes":{"ID":150115,"DIS_CODE":0,"TOWNNAME":"永康區","LI":"勝利里","LIN":"3鄰","STREET":"勝利街","SECT":" ","MAREA":" ","LANE":"２巷","ALLEY":"４８弄","HOUSE_NO":"７８號","E_COORD97":171109.51999999999,"N_COORD97":2544764.7599999998,"ADDRESS":"勝利街２巷４８弄７８號","OBJECTID":150114},"geometry":{"x":171109.51999999955,"y":2544764.7600000035}},{"attributes":{"ID":150116,"DIS_CODE":0,"TOWNNAME":"永康區","LI":"甲頂里","LIN":"3鄰","STREET":"中正南路","SECT":" ","MAREA":" ","LANE":"１６８巷","ALLEY":"２弄","HOUSE_NO":"２８號","E_COORD97":169833.95999999999,"N_COORD97":2546952.25,"ADDRESS":"中正南路１６８巷２弄２８號","OBJECTID":150115},"geometry":{"x":169833.95999999996,"y":2546952.2500000019}},{"attributes":{"ID":150117,"DIS_CODE":0,"TOWNNAME":"永康區","LI":"復興里","LIN":"3鄰","STREET":"復興路","SECT":" ","MAREA":" ","LANE":"２７７巷","ALLEY":"７８弄","HOUSE_NO":"４號","E_COORD97":172327.23999999999,"N_COORD97":2544121.27,"ADDRESS":"復興路２７７巷７８弄４號","OBJECTID":150116},"geometry":{"x":172327.24000000022,"y":2544121.2700000014}},{"attributes":{"ID":150118,"DIS_CODE":0,"TOWNNAME":"永康區","LI":"五王里","LIN":"3鄰","STREET":"中華二路","SECT":" ","MAREA":" ","LANE":"２０６巷","ALLEY":"５１弄","HOUSE_NO":"９號","E_COORD97":171560.5,"N_COORD97":2545588.8700000001,"ADDRESS":"中華二路２０６巷５１弄９號","OBJECTID":150117},"geometry":{"x":171560.5,"y":2545588.870000001}},{"attributes":{"ID":150119,"DIS_CODE":0,"TOWNNAME":"安南區","LI":"城東里","LIN":"3鄰","STREET":"城北路","SECT":" ","MAREA":" ","LANE":"２３４巷","ALLEY":"２８弄","HOUSE_NO":"１２號","E_COORD97":161047.06,"N_COORD97":2551822.9100000001,"ADDRESS":"城北路２３４巷２８弄１２號","OBJECTID":150118},"geometry":{"x":161047.06000000052,"y":2551822.9100000039}},{"attributes":{"ID":150120,"DIS_CODE":0,"TOWNNAME":"安南區","LI":"城東里","LIN":"3鄰","STREET":"城北路","SECT":" ","MAREA":" ","LANE":"２３４巷","ALLEY":"２８弄","HOUSE_NO":"６號","E_COORD97":161043.22,"N_COORD97":2551835.9199999999,"ADDRESS":"城北路２３４巷２８弄６號","OBJECTID":150119},"geometry":{"x":161043.22000000067,"y":2551835.9199999981}},{"attributes":{"ID":150121,"DIS_CODE":0,"TOWNNAME":"安南區","LI":"城東里","LIN":"3鄰","STREET":"城北路","SECT":" ","MAREA":" ","LANE":"２３４巷","ALLEY":"２８弄","HOUSE_NO":"８號","E_COORD97":161044.41,"N_COORD97":2551832.0899999999,"ADDRESS":"城北路２３４巷２８弄８號","OBJECTID":150120},"geometry":{"x":161044.41000000015,"y":2551832.0900000017}},{"attributes":{"ID":150122,"DIS_CODE":0,"TOWNNAME":"東區","LI":"和平里","LIN":" ","STREET":"仁和路","SECT":" ","MAREA":" ","LANE":" ","ALLEY":" ","HOUSE_NO":"９９號","E_COORD97":171353.72,"N_COORD97":2541394.4900000002,"ADDRESS":"仁和路９９號","OBJECTID":150121},"geometry":{"x":171353.71999999974,"y":2541394.4900000021}},{"attributes":{"ID":150123,"DIS_CODE":0,"TOWNNAME":"東區","LI":"崇善里","LIN":"19鄰","STREET":"崇善十一街","SECT":" ","MAREA":" ","LANE":" ","ALLEY":" ","HOUSE_NO":"１８號","E_COORD97":171192.32999999999,"N_COORD97":2541185.6800000002,"ADDRESS":"崇善十一街１８號","OBJECTID":150122},"geometry":{"x":171192.33000000007,"y":2541185.6800000016}},{"attributes":{"ID":150124,"DIS_CODE":0,"TOWNNAME":"新市區","LI":"大社里","LIN":"19鄰","STREET":" ","SECT":" ","MAREA":"大社","LANE":" ","ALLEY":" ","HOUSE_NO":"７７６號","E_COORD97":179903.42999999999,"N_COORD97":2554231.25,"ADDRESS":"大社７７６號","OBJECTID":150123},"geometry":{"x":179903.43000000156,"y":2554231.2500000037}},{"attributes":{"ID":150125,"DIS_CODE":0,"TOWNNAME":"新市區","LI":"大社里","LIN":"19鄰","STREET":" ","SECT":" ","MAREA":"大社","LANE":" ","ALLEY":" ","HOUSE_NO":"７６６號","E_COORD97":179952.95999999999,"N_COORD97":2554190,"ADDRESS":"大社７６６號","OBJECTID":150124},"geometry":{"x":179952.96000000089,"y":2554190.0000000019}},{"attributes":{"ID":150126,"DIS_CODE":0,"TOWNNAME":"新市區","LI":"大社里","LIN":"19鄰","STREET":" ","SECT":" ","MAREA":"大社","LANE":" ","ALLEY":" ","HOUSE_NO":"７６８號","E_COORD97":179954.87,"N_COORD97":2554218.25,"ADDRESS":"大社７６８號","OBJECTID":150125},"geometry":{"x":179954.87000000011,"y":2554218.2500000019}},{"attributes":{"ID":150127,"DIS_CODE":0,"TOWNNAME":"六甲區","LI":"中社里","LIN":"20鄰","STREET":" ","SECT":" ","MAREA":"林鳳營","LANE":" ","ALLEY":" ","HOUSE_NO":"２４０號之５３","E_COORD97":180316.51999999999,"N_COORD97":2571126.6600000001,"ADDRESS":"林鳳營２４０號之５３","OBJECTID":150126},"geometry":{"x":180316.52000000048,"y":2571126.660000002}},{"attributes":{"ID":150128,"DIS_CODE":0,"TOWNNAME":"六甲區","LI":"中社里","LIN":"20鄰","STREET":" ","SECT":" ","MAREA":"林鳳營","LANE":" ","ALLEY":" ","HOUSE_NO":"２４０號之５４","E_COORD97":180320.51999999999,"N_COORD97":2571127.46,"ADDRESS":"林鳳營２４０號之５４","OBJECTID":150127},"geometry":{"x":180320.52000000048,"y":2571127.4600000009}},{"attributes":{"ID":150129,"DIS_CODE":0,"TOWNNAME":"六甲區","LI":"中社里","LIN":"20鄰","STREET":" ","SECT":" ","MAREA":"林鳳營","LANE":" ","ALLEY":" ","HOUSE_NO":"２４０之５５號","E_COORD97":180325.03,"N_COORD97":2571128.3300000001,"ADDRESS":"林鳳營２４０之５５號","OBJECTID":150128},"geometry":{"x":180325.03000000026,"y":2571128.3300000038}},{"attributes":{"ID":150130,"DIS_CODE":0,"TOWNNAME":"六甲區","LI":"中社里","LIN":"20鄰","STREET":" ","SECT":" ","MAREA":"林鳳營","LANE":" ","ALLEY":" ","HOUSE_NO":"２４０號之５５","E_COORD97":180325.03,"N_COORD97":2571128.3300000001,"ADDRESS":"林鳳營２４０號之５５","OBJECTID":150129},"geometry":{"x":180325.03000000026,"y":2571128.3300000038}},{"attributes":{"ID":150131,"DIS_CODE":0,"TOWNNAME":"六甲區","LI":"中社里","LIN":"20鄰","STREET":" ","SECT":" ","MAREA":"林鳳營","LANE":" ","ALLEY":" ","HOUSE_NO":"２４０號之５６","E_COORD97":180329.14999999999,"N_COORD97":2571129.1499999999,"ADDRESS":"林鳳營２４０號之５６","OBJECTID":150130},"geometry":{"x":180329.15000000037,"y":2571129.1500000004}},{"attributes":{"ID":150132,"DIS_CODE":0,"TOWNNAME":"六甲區","LI":"中社里","LIN":"20鄰","STREET":" ","SECT":" ","MAREA":"林鳳營","LANE":" ","ALLEY":" ","HOUSE_NO":"２４０號之５７","E_COORD97":180333.54999999999,"N_COORD97":2571129.96,"ADDRESS":"林鳳營２４０號之５７","OBJECTID":150131},"geometry":{"x":180333.55000000075,"y":2571129.9600000009}},{"attributes":{"ID":150133,"DIS_CODE":0,"TOWNNAME":"六甲區","LI":"中社里","LIN":"20鄰","STREET":" ","SECT":" ","MAREA":"林鳳營","LANE":" ","ALLEY":" ","HOUSE_NO":"２４０號之５８","E_COORD97":180337.82000000001,"N_COORD97":2571130.73,"ADDRESS":"林鳳營２４０號之５８","OBJECTID":150132},"geometry":{"x":180337.82000000123,"y":2571130.7300000023}},{"attributes":{"ID":150134,"DIS_CODE":0,"TOWNNAME":"六甲區","LI":"中社里","LIN":"20鄰","STREET":" ","SECT":" ","MAREA":"林鳳營","LANE":" ","ALLEY":" ","HOUSE_NO":"２４０號之５９","E_COORD97":180341.98000000001,"N_COORD97":2571131.27,"ADDRESS":"林鳳營２４０號之５９","OBJECTID":150133},"geometry":{"x":180341.98000000138,"y":2571131.2699999977}},{"attributes":{"ID":150135,"DIS_CODE":0,"TOWNNAME":"六甲區","LI":"中社里","LIN":"20鄰","STREET":" ","SECT":" ","MAREA":"林鳳營","LANE":" ","ALLEY":" ","HOUSE_NO":"２４０號之１２","E_COORD97":180260.98000000001,"N_COORD97":2571113.8999999999,"ADDRESS":"林鳳營２４０號之１２","OBJECTID":150134},"geometry":{"x":180260.98000000045,"y":2571113.9000000004}},{"attributes":{"ID":150136,"DIS_CODE":0,"TOWNNAME":"六甲區","LI":"中社里","LIN":"20鄰","STREET":" ","SECT":" ","MAREA":"林鳳營","LANE":" ","ALLEY":" ","HOUSE_NO":"２４０號之１３","E_COORD97":180265.41,"N_COORD97":2571113.5600000001,"ADDRESS":"林鳳營２４０號之１３","OBJECTID":150135},"geometry":{"x":180265.41000000108,"y":2571113.5600000042}},{"attributes":{"ID":150137,"DIS_CODE":0,"TOWNNAME":"六甲區","LI":"中社里","LIN":"20鄰","STREET":" ","SECT":" ","MAREA":"林鳳營","LANE":" ","ALLEY":" ","HOUSE_NO":"２４０號之１４","E_COORD97":180270.66,"N_COORD97":2571113.3599999999,"ADDRESS":"林鳳營２４０號之１４","OBJECTID":150136},"geometry":{"x":180270.66000000108,"y":2571113.3599999994}},{"attributes":{"ID":150138,"DIS_CODE":0,"TOWNNAME":"六甲區","LI":"中社里","LIN":"20鄰","STREET":" ","SECT":" ","MAREA":"林鳳營","LANE":" ","ALLEY":" ","HOUSE_NO":"２４０號之１５","E_COORD97":180289.87,"N_COORD97":2571146.3900000001,"ADDRESS":"林鳳營２４０號之１５","OBJECTID":150137},"geometry":{"x":180289.87000000104,"y":2571146.3900000025}},{"attributes":{"ID":150139,"DIS_CODE":0,"TOWNNAME":"六甲區","LI":"中社里","LIN":"20鄰","STREET":" ","SECT":" ","MAREA":"林鳳營","LANE":" ","ALLEY":" ","HOUSE_NO":"２４０號之１６","E_COORD97":180303.20000000001,"N_COORD97":2571161.8900000001,"ADDRESS":"林鳳營２４０號之１６","OBJECTID":150138},"geometry":{"x":180303.20000000019,"y":2571161.8900000006}},{"attributes":{"ID":150140,"DIS_CODE":0,"TOWNNAME":"六甲區","LI":"中社里","LIN":"20鄰","STREET":" ","SECT":" ","MAREA":"林鳳營","LANE":" ","ALLEY":" ","HOUSE_NO":"２４０號之１７","E_COORD97":180326.78,"N_COORD97":2571165.0499999998,"ADDRESS":"林鳳營２４０號之１７","OBJECTID":150139},"geometry":{"x":180326.78000000026,"y":2571165.0500000026}},{"attributes":{"ID":150141,"DIS_CODE":0,"TOWNNAME":"六甲區","LI":"中社里","LIN":"20鄰","STREET":" ","SECT":" ","MAREA":"林鳳營","LANE":" ","ALLEY":" ","HOUSE_NO":"２４０號之１８","E_COORD97":180326.73999999999,"N_COORD97":2571169.54,"ADDRESS":"林鳳營２４０號之１８","OBJECTID":150140},"geometry":{"x":180326.74000000022,"y":2571169.5399999972}},{"attributes":{"ID":150142,"DIS_CODE":0,"TOWNNAME":"六甲區","LI":"中社里","LIN":"20鄰","STREET":" ","SECT":" ","MAREA":"林鳳營","LANE":" ","ALLEY":" ","HOUSE_NO":"２４０號之１９","E_COORD97":180313.60999999999,"N_COORD97":2571175.8799999999,"ADDRESS":"林鳳營２４０號之１９","OBJECTID":150141},"geometry":{"x":180313.61000000127,"y":2571175.879999999}},{"attributes":{"ID":150143,"DIS_CODE":0,"TOWNNAME":"六甲區","LI":"中社里","LIN":"20鄰","STREET":" ","SECT":" ","MAREA":"林鳳營","LANE":" ","ALLEY":" ","HOUSE_NO":"２４０號之１","E_COORD97":179980.01999999999,"N_COORD97":2571155.6000000001,"ADDRESS":"林鳳營２４０號之１","OBJECTID":150142},"geometry":{"x":179980.01999999955,"y":2571155.5999999996}},{"attributes":{"ID":150144,"DIS_CODE":0,"TOWNNAME":"六甲區","LI":"中社里","LIN":"20鄰","STREET":" ","SECT":" ","MAREA":"林鳳營","LANE":" ","ALLEY":" ","HOUSE_NO":"２４０之２０號","E_COORD97":180313.20999999999,"N_COORD97":2571183.9700000002,"ADDRESS":"林鳳營２４０之２０號","OBJECTID":150143},"geometry":{"x":180313.20999999996,"y":2571183.9700000007}},{"attributes":{"ID":150145,"DIS_CODE":0,"TOWNNAME":"六甲區","LI":"中社里","LIN":"20鄰","STREET":" ","SECT":" ","MAREA":"林鳳營","LANE":" ","ALLEY":" ","HOUSE_NO":"２４０號之２１","E_COORD97":180327.07000000001,"N_COORD97":2571189.3300000001,"ADDRESS":"林鳳營２４０號之２１","OBJECTID":150144},"geometry":{"x":180327.07000000216,"y":2571189.3300000038}},{"attributes":{"ID":150146,"DIS_CODE":0,"TOWNNAME":"安南區","LI":"城東里","LIN":"3鄰","STREET":"城北路","SECT":" ","MAREA":" ","LANE":"２３４巷","ALLEY":"２８弄","HOUSE_NO":"１０號","E_COORD97":161044.89999999999,"N_COORD97":2551827.6299999999,"ADDRESS":"城北路２３４巷２８弄１０號","OBJECTID":150145},"geometry":{"x":161044.90000000037,"y":2551827.6300000008}},{"attributes":{"ID":150147,"DIS_CODE":0,"TOWNNAME":"安南區","LI":"頂安里","LIN":"3鄰","STREET":"怡安路","SECT":"一段","MAREA":" ","LANE":"３８５巷","ALLEY":"３９弄","HOUSE_NO":"５號","E_COORD97":168754.81,"N_COORD97":2549072.1400000001,"ADDRESS":"怡安路一段３８５巷３９弄５號","OBJECTID":150146},"geometry":{"x":168754.80999999866,"y":2549072.1400000043}},{"attributes":{"ID":150148,"DIS_CODE":0,"TOWNNAME":"安南區","LI":"城南里","LIN":"3鄰","STREET":"城西街","SECT":"一段","MAREA":" ","LANE":"６１巷","ALLEY":"２８弄","HOUSE_NO":"４０號","E_COORD97":160636.51999999999,"N_COORD97":2551304.8500000001,"ADDRESS":"城西街一段６１巷２８弄４０號","OBJECTID":150147},"geometry":{"x":160636.51999999955,"y":2551304.8500000015}},{"attributes":{"ID":150149,"DIS_CODE":0,"TOWNNAME":"安南區","LI":"州南里","LIN":"3鄰","STREET":"安和路","SECT":"四段","MAREA":" ","LANE":"５３３巷","ALLEY":"１７２弄","HOUSE_NO":"１０號","E_COORD97":169554.48999999999,"N_COORD97":2551252.5299999998,"ADDRESS":"安和路四段５３３巷１７２弄１０號","OBJECTID":150148},"geometry":{"x":169554.49000000209,"y":2551252.5300000012}},{"attributes":{"ID":150150,"DIS_CODE":0,"TOWNNAME":"安南區","LI":"州南里","LIN":"3鄰","STREET":"安和路","SECT":"四段","MAREA":" ","LANE":"５３３巷","ALLEY":"１７２弄","HOUSE_NO":"１１號","E_COORD97":169526.16,"N_COORD97":2551275.71,"ADDRESS":"安和路四段５３３巷１７２弄１１號","OBJECTID":150149},"geometry":{"x":169526.16000000201,"y":2551275.7100000046}},{"attributes":{"ID":150151,"DIS_CODE":0,"TOWNNAME":"安南區","LI":"州南里","LIN":"3鄰","STREET":"安和路","SECT":"四段","MAREA":" ","LANE":"５３３巷","ALLEY":"１７２弄","HOUSE_NO":"１２號","E_COORD97":169551.79000000001,"N_COORD97":2551257.1099999999,"ADDRESS":"安和路四段５３３巷１７２弄１２號","OBJECTID":150150},"geometry":{"x":169551.79000000004,"y":2551257.1099999994}},{"attributes":{"ID":150152,"DIS_CODE":0,"TOWNNAME":"安南區","LI":"州南里","LIN":"3鄰","STREET":"安和路","SECT":"四段","MAREA":" ","LANE":"５３３巷","ALLEY":"１７２弄","HOUSE_NO":"１３號","E_COORD97":169527.51000000001,"N_COORD97":2551279.21,"ADDRESS":"安和路四段５３３巷１７２弄１３號","OBJECTID":150151},"geometry":{"x":169527.51000000071,"y":2551279.2100000046}},{"attributes":{"ID":150153,"DIS_CODE":0,"TOWNNAME":"永康區","LI":"二王里","LIN":"19鄰","STREET":"忠孝路","SECT":" ","MAREA":" ","LANE":" ","ALLEY":" ","HOUSE_NO":"４８５號","E_COORD97":172484.38,"N_COORD97":2546670.0299999998,"ADDRESS":"忠孝路４８５號","OBJECTID":150152},"geometry":{"x":172484.38000000082,"y":2546670.0299999993}},{"attributes":{"ID":150154,"DIS_CODE":0,"TOWNNAME":"安南區","LI":"州南里","LIN":"3鄰","STREET":"安和路","SECT":"四段","MAREA":" ","LANE":"５３３巷","ALLEY":"１７２弄","HOUSE_NO":"１４號","E_COORD97":169552.87,"N_COORD97":2551261.1499999999,"ADDRESS":"安和路四段５３３巷１７２弄１４號","OBJECTID":150153},"geometry":{"x":169552.87000000011,"y":2551261.1500000004}},{"attributes":{"ID":150155,"DIS_CODE":0,"TOWNNAME":"安南區","LI":"州南里","LIN":"3鄰","STREET":"安和路","SECT":"四段","MAREA":" ","LANE":"５３３巷","ALLEY":"１７２弄","HOUSE_NO":"１５號","E_COORD97":169528.04999999999,"N_COORD97":2551283.52,"ADDRESS":"安和路四段５３３巷１７２弄１５號","OBJECTID":150154},"geometry":{"x":169528.04999999981,"y":2551283.5200000014}},{"attributes":{"ID":150156,"DIS_CODE":0,"TOWNNAME":"永康區","LI":"二王里","LIN":"19鄰","STREET":"忠孝路","SECT":" ","MAREA":" ","LANE":" ","ALLEY":" ","HOUSE_NO":"４７９號","E_COORD97":172478.51999999999,"N_COORD97":2546657.54,"ADDRESS":"忠孝路４７９號","OBJECTID":150155},"geometry":{"x":172478.52000000048,"y":2546657.5400000028}},{"attributes":{"ID":150157,"DIS_CODE":0,"TOWNNAME":"安南區","LI":"州南里","LIN":"3鄰","STREET":"安和路","SECT":"四段","MAREA":" ","LANE":"５３３巷","ALLEY":"１７２弄","HOUSE_NO":"１６號","E_COORD97":169553.14000000001,"N_COORD97":2551268.1600000001,"ADDRESS":"安和路四段５３３巷１７２弄１６號","OBJECTID":150156},"geometry":{"x":169553.1400000006,"y":2551268.1600000001}},{"attributes":{"ID":150158,"DIS_CODE":0,"TOWNNAME":"安南區","LI":"州南里","LIN":"3鄰","STREET":"安和路","SECT":"四段","MAREA":" ","LANE":"５３３巷","ALLEY":"１７２弄","HOUSE_NO":"１７號","E_COORD97":169528.04999999999,"N_COORD97":2551288.6400000001,"ADDRESS":"安和路四段５３３巷１７２弄１７號","OBJECTID":150157},"geometry":{"x":169528.04999999981,"y":2551288.6400000006}},{"attributes":{"ID":150159,"DIS_CODE":0,"TOWNNAME":"永康區","LI":"北灣里","LIN":"19鄰","STREET":"大同街","SECT":" ","MAREA":" ","LANE":" ","ALLEY":" ","HOUSE_NO":"２８５號","E_COORD97":174769.45999999999,"N_COORD97":2545919.8100000001,"ADDRESS":"大同街２８５號","OBJECTID":150158},"geometry":{"x":174769.46000000089,"y":2545919.8100000005}},{"attributes":{"ID":150160,"DIS_CODE":0,"TOWNNAME":"永康區","LI":"北灣里","LIN":"19鄰","STREET":"大同街","SECT":" ","MAREA":" ","LANE":" ","ALLEY":" ","HOUSE_NO":"２７１號","E_COORD97":174769.07999999999,"N_COORD97":2545890.9500000002,"ADDRESS":"大同街２７１號","OBJECTID":150159},"geometry":{"x":174769.08000000007,"y":2545890.9499999993}},{"attributes":{"ID":150161,"DIS_CODE":0,"TOWNNAME":"永康區","LI":"北灣里","LIN":"19鄰","STREET":"大同街","SECT":" ","MAREA":" ","LANE":" ","ALLEY":" ","HOUSE_NO":"２７７號","E_COORD97":174768.62,"N_COORD97":2545903.2000000002,"ADDRESS":"大同街２７７號","OBJECTID":150160},"geometry":{"x":174768.62000000104,"y":2545903.1999999993}},{"attributes":{"ID":150162,"DIS_CODE":0,"TOWNNAME":"永康區","LI":"北灣里","LIN":"19鄰","STREET":"大同街","SECT":" ","MAREA":" ","LANE":" ","ALLEY":" ","HOUSE_NO":"２６９號","E_COORD97":174769.03,"N_COORD97":2545886.7000000002,"ADDRESS":"大同街２６９號","OBJECTID":150161},"geometry":{"x":174769.03000000119,"y":2545886.700000003}},{"attributes":{"ID":150163,"DIS_CODE":0,"TOWNNAME":"六甲區","LI":"中社里","LIN":"20鄰","STREET":" ","SECT":" ","MAREA":"林鳳營","LANE":" ","ALLEY":" ","HOUSE_NO":"２４０號之２２","E_COORD97":180331.32999999999,"N_COORD97":2571189.3399999999,"ADDRESS":"林鳳營２４０號之２２","OBJECTID":150162},"geometry":{"x":180331.33000000007,"y":2571189.3400000017}},{"attributes":{"ID":150164,"DIS_CODE":0,"TOWNNAME":"六甲區","LI":"中社里","LIN":"20鄰","STREET":" ","SECT":" ","MAREA":"林鳳營","LANE":" ","ALLEY":" ","HOUSE_NO":"２４０號之２３","E_COORD97":180336.25,"N_COORD97":2571189.4300000002,"ADDRESS":"林鳳營２４０號之２３","OBJECTID":150163},"geometry":{"x":180336.25000000093,"y":2571189.4300000016}},{"attributes":{"ID":150165,"DIS_CODE":0,"TOWNNAME":"永康區","LI":"北灣里","LIN":"19鄰","STREET":"大同街","SECT":" ","MAREA":" ","LANE":" ","ALLEY":" ","HOUSE_NO":"２７９號","E_COORD97":174768.28,"N_COORD97":2545907.2000000002,"ADDRESS":"大同街２７９號","OBJECTID":150164},"geometry":{"x":174768.28000000026,"y":2545907.200000003}},{"attributes":{"ID":150166,"DIS_CODE":0,"TOWNNAME":"安南區","LI":"州南里","LIN":"3鄰","STREET":"安和路","SECT":"四段","MAREA":" ","LANE":"５３３巷","ALLEY":"１７２弄","HOUSE_NO":"１９號","E_COORD97":169528.04999999999,"N_COORD97":2551292.9500000002,"ADDRESS":"安和路四段５３３巷１７２弄１９號","OBJECTID":150165},"geometry":{"x":169528.04999999981,"y":2551292.950000003}},{"attributes":{"ID":150167,"DIS_CODE":0,"TOWNNAME":"六甲區","LI":"中社里","LIN":"20鄰","STREET":" ","SECT":" ","MAREA":"林鳳營","LANE":" ","ALLEY":" ","HOUSE_NO":"２４０之２４號","E_COORD97":180341.10000000001,"N_COORD97":2571189.3700000001,"ADDRESS":"林鳳營２４０之２４號","OBJECTID":150166},"geometry":{"x":180341.09999999963,"y":2571189.370000001}},{"attributes":{"ID":150168,"DIS_CODE":0,"TOWNNAME":"永康區","LI":"崑山里","LIN":"19鄰","STREET":"大灣路","SECT":" ","MAREA":" ","LANE":" ","ALLEY":" ","HOUSE_NO":"８４２號","E_COORD97":173882.67999999999,"N_COORD97":2544480.0899999999,"ADDRESS":"大灣路８４２號","OBJECTID":150167},"geometry":{"x":173882.68000000063,"y":2544480.0899999999}},{"attributes":{"ID":150169,"DIS_CODE":0,"TOWNNAME":"永康區","LI":"崑山里","LIN":"19鄰","STREET":"大灣路","SECT":" ","MAREA":" ","LANE":" ","ALLEY":" ","HOUSE_NO":"８０４號","E_COORD97":173998.78,"N_COORD97":2544504.1200000001,"ADDRESS":"大灣路８０４號","OBJECTID":150168},"geometry":{"x":173998.78000000026,"y":2544504.1200000029}},{"attributes":{"ID":150170,"DIS_CODE":0,"TOWNNAME":"六甲區","LI":"中社里","LIN":"20鄰","STREET":" ","SECT":" ","MAREA":"林鳳營","LANE":" ","ALLEY":" ","HOUSE_NO":"２４０號之２５","E_COORD97":180350.70999999999,"N_COORD97":2571185.6899999999,"ADDRESS":"林鳳營２４０號之２５","OBJECTID":150169},"geometry":{"x":180350.70999999996,"y":2571185.6899999995}},{"attributes":{"ID":150171,"DIS_CODE":0,"TOWNNAME":"六甲區","LI":"中社里","LIN":"20鄰","STREET":" ","SECT":" ","MAREA":"林鳳營","LANE":" ","ALLEY":" ","HOUSE_NO":"２４０號之２６","E_COORD97":180350.89000000001,"N_COORD97":2571181.0299999998,"ADDRESS":"林鳳營２４０號之２６","OBJECTID":150170},"geometry":{"x":180350.88999999966,"y":2571181.0300000012}},{"attributes":{"ID":150172,"DIS_CODE":0,"TOWNNAME":"六甲區","LI":"中社里","LIN":"20鄰","STREET":" ","SECT":" ","MAREA":"林鳳營","LANE":" ","ALLEY":" ","HOUSE_NO":"２４０號之２７","E_COORD97":180351.06,"N_COORD97":2571176.27,"ADDRESS":"林鳳營２４０號之２７","OBJECTID":150171},"geometry":{"x":180351.05999999959,"y":2571176.2700000014}},{"attributes":{"ID":150173,"DIS_CODE":0,"TOWNNAME":"六甲區","LI":"中社里","LIN":"20鄰","STREET":" ","SECT":" ","MAREA":"林鳳營","LANE":" ","ALLEY":" ","HOUSE_NO":"２４０號之２８","E_COORD97":180351.17999999999,"N_COORD97":2571171.5099999998,"ADDRESS":"林鳳營２４０號之２８","OBJECTID":150172},"geometry":{"x":180351.18000000063,"y":2571171.5100000016}},{"attributes":{"ID":150174,"DIS_CODE":0,"TOWNNAME":"永康區","LI":"崑山里","LIN":"19鄰","STREET":"大灣路","SECT":" ","MAREA":" ","LANE":" ","ALLEY":" ","HOUSE_NO":"８４４號","E_COORD97":173878.97,"N_COORD97":2544480.1099999999,"ADDRESS":"大灣路８４４號","OBJECTID":150173},"geometry":{"x":173878.97000000067,"y":2544480.1099999994}},{"attributes":{"ID":150175,"DIS_CODE":0,"TOWNNAME":"六甲區","LI":"中社里","LIN":"20鄰","STREET":" ","SECT":" ","MAREA":"林鳳營","LANE":" ","ALLEY":" ","HOUSE_NO":"２４０號之３８","E_COORD97":180313.62,"N_COORD97":2571152.1299999999,"ADDRESS":"林鳳營２４０號之３８","OBJECTID":150174},"geometry":{"x":180313.62000000104,"y":2571152.1300000027}},{"attributes":{"ID":150176,"DIS_CODE":0,"TOWNNAME":"六甲區","LI":"中社里","LIN":"20鄰","STREET":" ","SECT":" ","MAREA":"林鳳營","LANE":" ","ALLEY":" ","HOUSE_NO":"２４０號之３９","E_COORD97":180318.38,"N_COORD97":2571153.2599999998,"ADDRESS":"林鳳營２４０號之３９","OBJECTID":150175},"geometry":{"x":180318.38000000082,"y":2571153.2600000016}},{"attributes":{"ID":150177,"DIS_CODE":0,"TOWNNAME":"六甲區","LI":"中社里","LIN":"20鄰","STREET":" ","SECT":" ","MAREA":"林鳳營","LANE":" ","ALLEY":" ","HOUSE_NO":"２４０號之４０","E_COORD97":180323.14000000001,"N_COORD97":2571153.7799999998,"ADDRESS":"林鳳營２４０號之４０","OBJECTID":150176},"geometry":{"x":180323.1400000006,"y":2571153.7799999993}},{"attributes":{"ID":150178,"DIS_CODE":0,"TOWNNAME":"六甲區","LI":"中社里","LIN":"20鄰","STREET":" ","SECT":" ","MAREA":"林鳳營","LANE":" ","ALLEY":" ","HOUSE_NO":"２４０號之４１","E_COORD97":180327.51999999999,"N_COORD97":2571154.5899999999,"ADDRESS":"林鳳營２４０號之４１","OBJECTID":150177},"geometry":{"x":180327.51999999955,"y":2571154.5900000017}},{"attributes":{"ID":150179,"DIS_CODE":0,"TOWNNAME":"六甲區","LI":"中社里","LIN":"20鄰","STREET":" ","SECT":" ","MAREA":"林鳳營","LANE":" ","ALLEY":" ","HOUSE_NO":"２４０號之４２","E_COORD97":180332.29999999999,"N_COORD97":2571155.5899999999,"ADDRESS":"林鳳營２４０號之４２","OBJECTID":150178},"geometry":{"x":180332.30000000075,"y":2571155.5899999999}},{"attributes":{"ID":150180,"DIS_CODE":0,"TOWNNAME":"六甲區","LI":"中社里","LIN":"20鄰","STREET":" ","SECT":" ","MAREA":"林鳳營","LANE":" ","ALLEY":" ","HOUSE_NO":"２４０號之４３之１","E_COORD97":180341.85000000001,"N_COORD97":2571156.1899999999,"ADDRESS":"林鳳營２４０號之４３之１","OBJECTID":150179},"geometry":{"x":180341.85000000056,"y":2571156.1900000013}},{"attributes":{"ID":150181,"DIS_CODE":0,"TOWNNAME":"六甲區","LI":"中社里","LIN":"20鄰","STREET":" ","SECT":" ","MAREA":"林鳳營","LANE":" ","ALLEY":" ","HOUSE_NO":"２４０號之４３","E_COORD97":180337.12,"N_COORD97":2571156.2000000002,"ADDRESS":"林鳳營２４０號之４３","OBJECTID":150180},"geometry":{"x":180337.12000000104,"y":2571156.2000000011}},{"attributes":{"ID":150182,"DIS_CODE":0,"TOWNNAME":"六甲區","LI":"中社里","LIN":"20鄰","STREET":" ","SECT":" ","MAREA":"林鳳營","LANE":" ","ALLEY":" ","HOUSE_NO":"２４０號之４５","E_COORD97":180281.97,"N_COORD97":2571120.9100000001,"ADDRESS":"林鳳營２４０號之４５","OBJECTID":150181},"geometry":{"x":180281.97000000067,"y":2571120.9100000039}},{"attributes":{"ID":150183,"DIS_CODE":0,"TOWNNAME":"柳營區","LI":"東昇里","LIN":"20鄰","STREET":" ","SECT":" ","MAREA":"柳營","LANE":" ","ALLEY":" ","HOUSE_NO":"４５５號之１８","E_COORD97":180390.28,"N_COORD97":2575608.5800000001,"ADDRESS":"柳營４５５號之１８","OBJECTID":150182},"geometry":{"x":180390.28000000119,"y":2575608.5800000038}},{"attributes":{"ID":150184,"DIS_CODE":0,"TOWNNAME":"安南區","LI":"州南里","LIN":"3鄰","STREET":"安和路","SECT":"四段","MAREA":" ","LANE":"５３３巷","ALLEY":"１７２弄","HOUSE_NO":"２１號","E_COORD97":169526.70000000001,"N_COORD97":2551297.5299999998,"ADDRESS":"安和路四段５３３巷１７２弄２１號","OBJECTID":150183},"geometry":{"x":169526.70000000112,"y":2551297.5299999993}},{"attributes":{"ID":150185,"DIS_CODE":0,"TOWNNAME":"柳營區","LI":"東昇里","LIN":"20鄰","STREET":" ","SECT":" ","MAREA":"柳營","LANE":" ","ALLEY":" ","HOUSE_NO":"４５５號之１９","E_COORD97":180386.19,"N_COORD97":2575608.6200000001,"ADDRESS":"柳營４５５號之１９","OBJECTID":150184},"geometry":{"x":180386.19000000134,"y":2575608.620000001}},{"attributes":{"ID":150186,"DIS_CODE":0,"TOWNNAME":"柳營區","LI":"東昇里","LIN":"20鄰","STREET":" ","SECT":" ","MAREA":"柳營","LANE":" ","ALLEY":" ","HOUSE_NO":"４５５號之２０","E_COORD97":180382.10000000001,"N_COORD97":2575608.6600000001,"ADDRESS":"柳營４５５號之２０","OBJECTID":150185},"geometry":{"x":180382.10000000149,"y":2575608.660000002}},{"attributes":{"ID":150187,"DIS_CODE":0,"TOWNNAME":"柳營區","LI":"東昇里","LIN":"20鄰","STREET":" ","SECT":" ","MAREA":"柳營","LANE":" ","ALLEY":" ","HOUSE_NO":"４５５號之２１","E_COORD97":180378.01999999999,"N_COORD97":2575608.7000000002,"ADDRESS":"柳營４５５號之２１","OBJECTID":150186},"geometry":{"x":180378.02000000048,"y":2575608.6999999993}},{"attributes":{"ID":150188,"DIS_CODE":0,"TOWNNAME":"柳營區","LI":"東昇里","LIN":"20鄰","STREET":" ","SECT":" ","MAREA":"柳營","LANE":" ","ALLEY":" ","HOUSE_NO":"４５５號之２２","E_COORD97":180382.62,"N_COORD97":2575624.3199999998,"ADDRESS":"柳營４５５號之２２","OBJECTID":150187},"geometry":{"x":180382.62000000104,"y":2575624.320000004}},{"attributes":{"ID":150189,"DIS_CODE":0,"TOWNNAME":"柳營區","LI":"東昇里","LIN":"20鄰","STREET":" ","SECT":" ","MAREA":"柳營","LANE":" ","ALLEY":" ","HOUSE_NO":"４５５號之２３","E_COORD97":180382.31,"N_COORD97":2575628.3900000001,"ADDRESS":"柳營４５５號之２３","OBJECTID":150188},"geometry":{"x":180382.31000000145,"y":2575628.3900000025}},{"attributes":{"ID":150190,"DIS_CODE":0,"TOWNNAME":"柳營區","LI":"東昇里","LIN":"20鄰","STREET":" ","SECT":" ","MAREA":"柳營","LANE":" ","ALLEY":" ","HOUSE_NO":"４５５號之２４","E_COORD97":180382.45999999999,"N_COORD97":2575632.6099999999,"ADDRESS":"柳營４５５號之２４","OBJECTID":150189},"geometry":{"x":180382.45999999996,"y":2575632.6100000013}},{"attributes":{"ID":150191,"DIS_CODE":0,"TOWNNAME":"柳營區","LI":"東昇里","LIN":"20鄰","STREET":" ","SECT":" ","MAREA":"柳營","LANE":" ","ALLEY":" ","HOUSE_NO":"４５５號之２５","E_COORD97":180382.54999999999,"N_COORD97":2575636.6800000002,"ADDRESS":"柳營４５５號之２５","OBJECTID":150190},"geometry":{"x":180382.55000000168,"y":2575636.6799999997}},{"attributes":{"ID":150192,"DIS_CODE":0,"TOWNNAME":"柳營區","LI":"東昇里","LIN":"20鄰","STREET":" ","SECT":" ","MAREA":"柳營","LANE":" ","ALLEY":" ","HOUSE_NO":"４５５號之３０","E_COORD97":180404.57999999999,"N_COORD97":2575571.2400000002,"ADDRESS":"柳營４５５號之３０","OBJECTID":150191},"geometry":{"x":180404.58000000194,"y":2575571.2400000021}},{"attributes":{"ID":150193,"DIS_CODE":0,"TOWNNAME":"東山區","LI":"大客里","LIN":"12鄰","STREET":" ","SECT":" ","MAREA":"大庄","LANE":" ","ALLEY":" ","HOUSE_NO":"９１號","E_COORD97":190534.16,"N_COORD97":2578975.0299999998,"ADDRESS":"大庄９１號","OBJECTID":150192},"geometry":{"x":190534.16000000015,"y":2578975.0300000012}},{"attributes":{"ID":150194,"DIS_CODE":0,"TOWNNAME":"柳營區","LI":"東昇里","LIN":"20鄰","STREET":" ","SECT":" ","MAREA":"柳營","LANE":" ","ALLEY":" ","HOUSE_NO":"４５５號之３１","E_COORD97":180404.57999999999,"N_COORD97":2575575.9199999999,"ADDRESS":"柳營４５５號之３１","OBJECTID":150193},"geometry":{"x":180404.58000000194,"y":2575575.9200000018}},{"attributes":{"ID":150195,"DIS_CODE":0,"TOWNNAME":"柳營區","LI":"東昇里","LIN":"20鄰","STREET":" ","SECT":" ","MAREA":"柳營","LANE":" ","ALLEY":" ","HOUSE_NO":"４５５號之３２","E_COORD97":180404.57999999999,"N_COORD97":2575580.6099999999,"ADDRESS":"柳營４５５號之３２","OBJECTID":150194},"geometry":{"x":180404.58000000194,"y":2575580.6100000031}},{"attributes":{"ID":150196,"DIS_CODE":0,"TOWNNAME":"柳營區","LI":"東昇里","LIN":"20鄰","STREET":" ","SECT":" ","MAREA":"柳營","LANE":" ","ALLEY":" ","HOUSE_NO":"４５５號之３３","E_COORD97":180404.57999999999,"N_COORD97":2575585.29,"ADDRESS":"柳營４５５號之３３","OBJECTID":150195},"geometry":{"x":180404.58000000194,"y":2575585.2899999991}},{"attributes":{"ID":150197,"DIS_CODE":0,"TOWNNAME":"柳營區","LI":"東昇里","LIN":"20鄰","STREET":" ","SECT":" ","MAREA":"柳營","LANE":" ","ALLEY":" ","HOUSE_NO":"４５５之３９號","E_COORD97":180404.89000000001,"N_COORD97":2575635.3300000001,"ADDRESS":"柳營４５５之３９號","OBJECTID":150196},"geometry":{"x":180404.88999999966,"y":2575635.3300000019}},{"attributes":{"ID":150198,"DIS_CODE":0,"TOWNNAME":"將軍區","LI":"玉山里","LIN":"17鄰","STREET":"玉山","SECT":" ","MAREA":" ","LANE":" ","ALLEY":" ","HOUSE_NO":"１４２號","E_COORD97":159737.13908299999,"N_COORD97":2568243.91977,"ADDRESS":"玉山１４２號","OBJECTID":150197},"geometry":{"x":159737.13908300083,"y":2568243.919768}},{"attributes":{"ID":150199,"DIS_CODE":0,"TOWNNAME":"柳營區","LI":"東昇里","LIN":"20鄰","STREET":" ","SECT":" ","MAREA":"柳營","LANE":" ","ALLEY":" ","HOUSE_NO":"４５５號之４０","E_COORD97":180424.85999999999,"N_COORD97":2575634.04,"ADDRESS":"柳營４５５號之４０","OBJECTID":150198},"geometry":{"x":180424.86000000034,"y":2575634.0399999991}},{"attributes":{"ID":150200,"DIS_CODE":0,"TOWNNAME":"柳營區","LI":"東昇里","LIN":"20鄰","STREET":" ","SECT":" ","MAREA":"柳營","LANE":" ","ALLEY":" ","HOUSE_NO":"４５５號之４１","E_COORD97":180424.84,"N_COORD97":2575628.3100000001,"ADDRESS":"柳營４５５號之４１","OBJECTID":150199},"geometry":{"x":180424.84000000078,"y":2575628.3100000024}},{"attributes":{"ID":150201,"DIS_CODE":0,"TOWNNAME":"柳營區","LI":"東昇里","LIN":"20鄰","STREET":" ","SECT":" ","MAREA":"柳營","LANE":" ","ALLEY":" ","HOUSE_NO":"４５５號之４２","E_COORD97":180425.23000000001,"N_COORD97":2575619.04,"ADDRESS":"柳營４５５號之４２","OBJECTID":150200},"geometry":{"x":180425.23000000045,"y":2575619.040000001}}]}