{"displayFieldName":"TOWNNAME","fieldAliases":{"ID":"ID","DIS_CODE":"DIS_CODE","TOWNNAME":"TOWNNAME","LI":"LI","LIN":"LIN","STREET":"STREET","SECT":"SECT","MAREA":"MAREA","LANE":"LANE","ALLEY":"ALLEY","HOUSE_NO":"HOUSE_NO","E_COORD97":"E_COORD97","N_COORD97":"N_COORD97","ADDRESS":"ADDRESS","OBJECTID":"OBJECTID"},"geometryType":"esriGeometryPoint","spatialReference":{"wkid":102443,"latestWkid":3826},"fields":[{"name":"ID","type":"esriFieldTypeDouble","alias":"ID"},{"name":"DIS_CODE","type":"esriFieldTypeInteger","alias":"DIS_CODE"},{"name":"TOWNNAME","type":"esriFieldTypeString","alias":"TOWNNAME","length":8},{"name":"LI","type":"esriFieldTypeString","alias":"LI","length":8},{"name":"LIN","type":"esriFieldTypeString","alias":"LIN","length":12},{"name":"STREET","type":"esriFieldTypeString","alias":"STREET","length":20},{"name":"SECT","type":"esriFieldTypeString","alias":"SECT","length":8},{"name":"MAREA","type":"esriFieldTypeString","alias":"MAREA","length":12},{"name":"LANE","type":"esriFieldTypeString","alias":"LANE","length":10},{"name":"ALLEY","type":"esriFieldTypeString","alias":"ALLEY","length":10},{"name":"HOUSE_NO","type":"esriFieldTypeString","alias":"HOUSE_NO","length":20},{"name":"E_COORD97","type":"esriFieldTypeDouble","alias":"E_COORD97"},{"name":"N_COORD97","type":"esriFieldTypeDouble","alias":"N_COORD97"},{"name":"ADDRESS","type":"esriFieldTypeString","alias":"ADDRESS","length":50},{"name":"OBJECTID","type":"esriFieldTypeOID","alias":"OBJECTID"}],"features":[{"attributes":{"ID":643828,"DIS_CODE":0,"TOWNNAME":"南區","LI":"明興里","LIN":"17鄰","STREET":"中華南路","SECT":"二段","MAREA":" ","LANE":" ","ALLEY":" ","HOUSE_NO":"１６２號","E_COORD97":167082.45999999999,"N_COORD97":2540271.9399999999,"ADDRESS":"中華南路二段１６２號","OBJECTID":643801},"geometry":{"x":167082.45999999996,"y":2540271.9400000013}},{"attributes":{"ID":643829,"DIS_CODE":0,"TOWNNAME":"南區","LI":"文南里","LIN":"7鄰","STREET":"長南街","SECT":" ","MAREA":" ","LANE":" ","ALLEY":" ","HOUSE_NO":"１７號","E_COORD97":167032.59,"N_COORD97":2542605.27,"ADDRESS":"長南街１７號","OBJECTID":643802},"geometry":{"x":167032.58999999892,"y":2542605.2700000014}},{"attributes":{"ID":643830,"DIS_CODE":0,"TOWNNAME":"南區","LI":"文南里","LIN":"7鄰","STREET":"長南街","SECT":" ","MAREA":" ","LANE":" ","ALLEY":" ","HOUSE_NO":"１９號","E_COORD97":167026.70000000001,"N_COORD97":2542605.0800000001,"ADDRESS":"長南街１９號","OBJECTID":643803},"geometry":{"x":167026.70000000019,"y":2542605.0800000001}},{"attributes":{"ID":643831,"DIS_CODE":0,"TOWNNAME":"南區","LI":"彰南里","LIN":"15鄰","STREET":"新義路","SECT":" ","MAREA":" ","LANE":" ","ALLEY":" ","HOUSE_NO":"２２號之１","E_COORD97":165655.54000000001,"N_COORD97":2541265.2999999998,"ADDRESS":"新義路２２號之１","OBJECTID":643804},"geometry":{"x":165655.54000000097,"y":2541265.3000000007}},{"attributes":{"ID":643832,"DIS_CODE":0,"TOWNNAME":"南區","LI":"再興里","LIN":"12鄰","STREET":"三官路","SECT":" ","MAREA":" ","LANE":" ","ALLEY":" ","HOUSE_NO":"２０６號","E_COORD97":167165.07000000001,"N_COORD97":2541995.0499999998,"ADDRESS":"三官路２０６號","OBJECTID":643805},"geometry":{"x":167165.0700000003,"y":2541995.0500000026}},{"attributes":{"ID":643833,"DIS_CODE":0,"TOWNNAME":"南區","LI":"白雪里","LIN":"16鄰","STREET":"金華路","SECT":"一段","MAREA":" ","LANE":" ","ALLEY":" ","HOUSE_NO":"１５１號","E_COORD97":166817.17000000001,"N_COORD97":2540646.1099999999,"ADDRESS":"金華路一段１５１號","OBJECTID":643806},"geometry":{"x":166817.17000000086,"y":2540646.1100000031}},{"attributes":{"ID":643834,"DIS_CODE":0,"TOWNNAME":"南區","LI":"佛壇里","LIN":"3鄰","STREET":"興南街","SECT":" ","MAREA":" ","LANE":" ","ALLEY":" ","HOUSE_NO":"１６８號之１","E_COORD97":166088.45999999999,"N_COORD97":2535858.2599999998,"ADDRESS":"興南街１６８號之１","OBJECTID":643807},"geometry":{"x":166088.46000000089,"y":2535858.2600000035}},{"attributes":{"ID":643835,"DIS_CODE":0,"TOWNNAME":"南區","LI":"明亮里","LIN":"1鄰","STREET":"金華路","SECT":"一段","MAREA":" ","LANE":" ","ALLEY":" ","HOUSE_NO":"２９２號","E_COORD97":166994.79000000001,"N_COORD97":2541037.0099999998,"ADDRESS":"金華路一段２９２號","OBJECTID":643808},"geometry":{"x":166994.79000000097,"y":2541037.0100000035}},{"attributes":{"ID":643836,"DIS_CODE":0,"TOWNNAME":"南區","LI":"日新里","LIN":"4鄰","STREET":"利南街","SECT":" ","MAREA":" ","LANE":" ","ALLEY":" ","HOUSE_NO":"１０８號之１","E_COORD97":166768.70000000001,"N_COORD97":2541320.27,"ADDRESS":"利南街１０８號之１","OBJECTID":643809},"geometry":{"x":166768.70000000019,"y":2541320.2700000014}},{"attributes":{"ID":643837,"DIS_CODE":0,"TOWNNAME":"鹽水區","LI":"武廟里","LIN":"13鄰","STREET":"民生街","SECT":" ","MAREA":" ","LANE":" ","ALLEY":" ","HOUSE_NO":"２８號","E_COORD97":175085.06,"N_COORD97":2580156.0499999998,"ADDRESS":"民生街２８號","OBJECTID":643810},"geometry":{"x":175085.06000000052,"y":2580156.0500000045}},{"attributes":{"ID":643838,"DIS_CODE":0,"TOWNNAME":"南區","LI":"明興里","LIN":"17鄰","STREET":"中華南路","SECT":"二段","MAREA":" ","LANE":" ","ALLEY":" ","HOUSE_NO":"１９４號","E_COORD97":167007.51000000001,"N_COORD97":2540256.8500000001,"ADDRESS":"中華南路二段１９４號","OBJECTID":643811},"geometry":{"x":167007.50999999978,"y":2540256.8499999996}},{"attributes":{"ID":643839,"DIS_CODE":0,"TOWNNAME":"南區","LI":"廣州里","LIN":"14鄰","STREET":"福吉一街","SECT":" ","MAREA":" ","LANE":" ","ALLEY":" ","HOUSE_NO":"３３號","E_COORD97":167328.59,"N_COORD97":2542757.6400000001,"ADDRESS":"福吉一街３３號","OBJECTID":643812},"geometry":{"x":167328.58999999985,"y":2542757.6400000006}},{"attributes":{"ID":643840,"DIS_CODE":0,"TOWNNAME":"南區","LI":"廣州里","LIN":"14鄰","STREET":"福吉一街","SECT":" ","MAREA":" ","LANE":" ","ALLEY":" ","HOUSE_NO":"３５號","E_COORD97":167327.32000000001,"N_COORD97":2542760.1699999999,"ADDRESS":"福吉一街３５號","OBJECTID":643813},"geometry":{"x":167327.32000000123,"y":2542760.1699999999}},{"attributes":{"ID":643841,"DIS_CODE":0,"TOWNNAME":"南區","LI":"廣州里","LIN":"14鄰","STREET":"福吉一街","SECT":" ","MAREA":" ","LANE":" ","ALLEY":" ","HOUSE_NO":"３５號之１","E_COORD97":167324.37,"N_COORD97":2542765.23,"ADDRESS":"福吉一街３５號之１","OBJECTID":643814},"geometry":{"x":167324.37000000197,"y":2542765.2300000042}},{"attributes":{"ID":643842,"DIS_CODE":0,"TOWNNAME":"南區","LI":"文南里","LIN":"13鄰","STREET":"育南街","SECT":" ","MAREA":" ","LANE":" ","ALLEY":" ","HOUSE_NO":"２３號","E_COORD97":166855.98999999999,"N_COORD97":2542626.8999999999,"ADDRESS":"育南街２３號","OBJECTID":643815},"geometry":{"x":166855.99000000115,"y":2542626.9000000004}},{"attributes":{"ID":643843,"DIS_CODE":0,"TOWNNAME":"南區","LI":"新昌里","LIN":"20鄰","STREET":"大德街","SECT":" ","MAREA":" ","LANE":" ","ALLEY":" ","HOUSE_NO":"１２７號","E_COORD97":167554.20999999999,"N_COORD97":2543067.5499999998,"ADDRESS":"大德街１２７號","OBJECTID":643816},"geometry":{"x":167554.21000000183,"y":2543067.5500000007}},{"attributes":{"ID":643844,"DIS_CODE":0,"TOWNNAME":"南區","LI":"國宅里","LIN":"14鄰","STREET":"新興路","SECT":" ","MAREA":" ","LANE":" ","ALLEY":" ","HOUSE_NO":"３９０之１號","E_COORD97":166790.98000000001,"N_COORD97":2541763.1600000001,"ADDRESS":"新興路３９０之１號","OBJECTID":643817},"geometry":{"x":166790.98000000045,"y":2541763.160000002}},{"attributes":{"ID":643845,"DIS_CODE":0,"TOWNNAME":"南區","LI":"日新里","LIN":"4鄰","STREET":"利南街","SECT":" ","MAREA":" ","LANE":" ","ALLEY":" ","HOUSE_NO":"１２４號","E_COORD97":166796.07000000001,"N_COORD97":2541340.4300000002,"ADDRESS":"利南街１２４號","OBJECTID":643818},"geometry":{"x":166796.07000000216,"y":2541340.4300000016}},{"attributes":{"ID":643846,"DIS_CODE":0,"TOWNNAME":"南區","LI":"郡南里","LIN":"20鄰","STREET":"中華南路","SECT":"二段","MAREA":" ","LANE":" ","ALLEY":" ","HOUSE_NO":"４２號","E_COORD97":167396.32999999999,"N_COORD97":2540336.8199999998,"ADDRESS":"中華南路二段４２號","OBJECTID":643819},"geometry":{"x":167396.33000000101,"y":2540336.8199999984}},{"attributes":{"ID":643847,"DIS_CODE":0,"TOWNNAME":"南區","LI":"郡南里","LIN":"20鄰","STREET":"中華南路","SECT":"二段","MAREA":" ","LANE":" ","ALLEY":" ","HOUSE_NO":"４８號","E_COORD97":167382.26999999999,"N_COORD97":2540335.46,"ADDRESS":"中華南路二段４８號","OBJECTID":643820},"geometry":{"x":167382.27000000048,"y":2540335.4600000009}},{"attributes":{"ID":643848,"DIS_CODE":0,"TOWNNAME":"南區","LI":"郡南里","LIN":"20鄰","STREET":"中華南路","SECT":"二段","MAREA":" ","LANE":" ","ALLEY":" ","HOUSE_NO":"５２號","E_COORD97":167372.56,"N_COORD97":2540334.0800000001,"ADDRESS":"中華南路二段５２號","OBJECTID":643821},"geometry":{"x":167372.55999999959,"y":2540334.0800000001}},{"attributes":{"ID":643849,"DIS_CODE":0,"TOWNNAME":"南區","LI":"郡南里","LIN":"20鄰","STREET":"中華南路","SECT":"二段","MAREA":" ","LANE":" ","ALLEY":" ","HOUSE_NO":"５６號","E_COORD97":167369.32000000001,"N_COORD97":2540333.8500000001,"ADDRESS":"中華南路二段５６號","OBJECTID":643822},"geometry":{"x":167369.32000000123,"y":2540333.8500000015}},{"attributes":{"ID":643850,"DIS_CODE":0,"TOWNNAME":"鹽水區","LI":"武廟里","LIN":"13鄰","STREET":"民生街","SECT":" ","MAREA":" ","LANE":" ","ALLEY":" ","HOUSE_NO":"３０號","E_COORD97":175083.88,"N_COORD97":2580164.8999999999,"ADDRESS":"民生街３０號","OBJECTID":643823},"geometry":{"x":175083.87999999989,"y":2580164.9000000022}},{"attributes":{"ID":643851,"DIS_CODE":0,"TOWNNAME":"南區","LI":"文華里","LIN":"17鄰","STREET":"德南街","SECT":" ","MAREA":" ","LANE":" ","ALLEY":" ","HOUSE_NO":"４２號之１","E_COORD97":166801.09,"N_COORD97":2543079.4300000002,"ADDRESS":"德南街４２號之１","OBJECTID":643824},"geometry":{"x":166801.09000000078,"y":2543079.4300000016}},{"attributes":{"ID":643852,"DIS_CODE":0,"TOWNNAME":"南區","LI":"彰南里","LIN":"17鄰","STREET":"新義南路","SECT":" ","MAREA":" ","LANE":" ","ALLEY":" ","HOUSE_NO":"５號之１","E_COORD97":166168.03,"N_COORD97":2541099.8900000001,"ADDRESS":"新義南路５號之１","OBJECTID":643825},"geometry":{"x":166168.03000000119,"y":2541099.8900000043}},{"attributes":{"ID":643853,"DIS_CODE":0,"TOWNNAME":"南區","LI":"建南里","LIN":"8鄰","STREET":"德興路","SECT":" ","MAREA":" ","LANE":" ","ALLEY":" ","HOUSE_NO":"２０６號","E_COORD97":167199.20999999999,"N_COORD97":2540173.1600000001,"ADDRESS":"德興路２０６號","OBJECTID":643826},"geometry":{"x":167199.20999999996,"y":2540173.160000002}},{"attributes":{"ID":643854,"DIS_CODE":0,"TOWNNAME":"南區","LI":"建南里","LIN":"8鄰","STREET":"德興路","SECT":" ","MAREA":" ","LANE":" ","ALLEY":" ","HOUSE_NO":"２０８號","E_COORD97":167199.20999999999,"N_COORD97":2540168.23,"ADDRESS":"德興路２０８號","OBJECTID":643827},"geometry":{"x":167199.20999999996,"y":2540168.2300000042}},{"attributes":{"ID":643855,"DIS_CODE":0,"TOWNNAME":"南區","LI":"喜北里","LIN":"1鄰","STREET":"濱南路","SECT":" ","MAREA":" ","LANE":" ","ALLEY":" ","HOUSE_NO":"４３０號","E_COORD97":165578.87,"N_COORD97":2538871.4100000001,"ADDRESS":"濱南路４３０號","OBJECTID":643828},"geometry":{"x":165578.87000000104,"y":2538871.4099999983}},{"attributes":{"ID":643856,"DIS_CODE":0,"TOWNNAME":"南區","LI":"彰南里","LIN":"20鄰","STREET":"新樂路","SECT":" ","MAREA":" ","LANE":" ","ALLEY":" ","HOUSE_NO":"８４號之２","E_COORD97":165390.76999999999,"N_COORD97":2540709.8999999999,"ADDRESS":"新樂路８４號之２","OBJECTID":643829},"geometry":{"x":165390.77000000048,"y":2540709.9000000022}},{"attributes":{"ID":643857,"DIS_CODE":0,"TOWNNAME":"南區","LI":"文南里","LIN":"13鄰","STREET":"育南街","SECT":" ","MAREA":" ","LANE":" ","ALLEY":" ","HOUSE_NO":"２號","E_COORD97":166869.91,"N_COORD97":2542564.2400000002,"ADDRESS":"育南街２號","OBJECTID":643830},"geometry":{"x":166869.91000000201,"y":2542564.2400000002}},{"attributes":{"ID":643858,"DIS_CODE":0,"TOWNNAME":"南區","LI":"文南里","LIN":"17鄰","STREET":"健康路","SECT":"二段","MAREA":" ","LANE":" ","ALLEY":" ","HOUSE_NO":"３３４號","E_COORD97":166764.26000000001,"N_COORD97":2542523.1499999999,"ADDRESS":"健康路二段３３４號","OBJECTID":643831},"geometry":{"x":166764.26000000071,"y":2542523.1500000022}},{"attributes":{"ID":643859,"DIS_CODE":0,"TOWNNAME":"南區","LI":"明興里","LIN":"17鄰","STREET":"中華南路","SECT":"二段","MAREA":" ","LANE":" ","ALLEY":" ","HOUSE_NO":"２２４號","E_COORD97":166934.23999999999,"N_COORD97":2540241.4700000002,"ADDRESS":"中華南路二段２２４號","OBJECTID":643832},"geometry":{"x":166934.24000000115,"y":2540241.4700000044}},{"attributes":{"ID":643860,"DIS_CODE":0,"TOWNNAME":"南區","LI":"彰南里","LIN":"20鄰","STREET":"新樂路","SECT":" ","MAREA":" ","LANE":" ","ALLEY":" ","HOUSE_NO":"８４號之１","E_COORD97":165447.12,"N_COORD97":2540743.4700000002,"ADDRESS":"新樂路８４號之１","OBJECTID":643833},"geometry":{"x":165447.12000000011,"y":2540743.4700000044}},{"attributes":{"ID":643861,"DIS_CODE":0,"TOWNNAME":"南區","LI":"彰南里","LIN":"13鄰","STREET":"中華西路","SECT":"一段","MAREA":" ","LANE":" ","ALLEY":" ","HOUSE_NO":"８１號","E_COORD97":166306.54000000001,"N_COORD97":2541876.8799999999,"ADDRESS":"中華西路一段８１號","OBJECTID":643834},"geometry":{"x":166306.54000000097,"y":2541876.879999999}},{"attributes":{"ID":643862,"DIS_CODE":0,"TOWNNAME":"南區","LI":"大忠里","LIN":"24鄰","STREET":"中華南路","SECT":"一段","MAREA":" ","LANE":" ","ALLEY":" ","HOUSE_NO":"１０５號","E_COORD97":169232.82000000001,"N_COORD97":2541272.2200000002,"ADDRESS":"中華南路一段１０５號","OBJECTID":643835},"geometry":{"x":169232.8200000003,"y":2541272.2200000007}},{"attributes":{"ID":643863,"DIS_CODE":0,"TOWNNAME":"鹽水區","LI":"三生里","LIN":"4鄰","STREET":"民生街","SECT":" ","MAREA":" ","LANE":" ","ALLEY":" ","HOUSE_NO":"１號之１","E_COORD97":175111.70000000001,"N_COORD97":2580017.3900000001,"ADDRESS":"民生街１號之１","OBJECTID":643836},"geometry":{"x":175111.70000000205,"y":2580017.3900000006}},{"attributes":{"ID":643864,"DIS_CODE":0,"TOWNNAME":"鹽水區","LI":"橋南里","LIN":"4鄰","STREET":"行昌路","SECT":" ","MAREA":" ","LANE":" ","ALLEY":" ","HOUSE_NO":"３９號","E_COORD97":175189.37,"N_COORD97":2579402.1499999999,"ADDRESS":"行昌路３９號","OBJECTID":643837},"geometry":{"x":175189.37000000011,"y":2579402.1500000041}},{"attributes":{"ID":643865,"DIS_CODE":0,"TOWNNAME":"鹽水區","LI":"橋南里","LIN":"4鄰","STREET":"行昌路","SECT":" ","MAREA":" ","LANE":" ","ALLEY":" ","HOUSE_NO":"４１號","E_COORD97":175193.38,"N_COORD97":2579403.8700000001,"ADDRESS":"行昌路４１號","OBJECTID":643838},"geometry":{"x":175193.38000000082,"y":2579403.870000001}},{"attributes":{"ID":643866,"DIS_CODE":0,"TOWNNAME":"鹽水區","LI":"橋南里","LIN":"4鄰","STREET":"行昌路","SECT":" ","MAREA":" ","LANE":" ","ALLEY":" ","HOUSE_NO":"４３號","E_COORD97":175197.73000000001,"N_COORD97":2579405.6899999999,"ADDRESS":"行昌路４３號","OBJECTID":643839},"geometry":{"x":175197.73000000045,"y":2579405.6900000013}},{"attributes":{"ID":643867,"DIS_CODE":0,"TOWNNAME":"鹽水區","LI":"武廟里","LIN":"13鄰","STREET":"民生街","SECT":" ","MAREA":" ","LANE":" ","ALLEY":" ","HOUSE_NO":"２１號之１","E_COORD97":175011.63,"N_COORD97":2580198.8100000001,"ADDRESS":"民生街２１號之１","OBJECTID":643840},"geometry":{"x":175011.62999999896,"y":2580198.8100000024}},{"attributes":{"ID":643868,"DIS_CODE":0,"TOWNNAME":"鹽水區","LI":"武廟里","LIN":"13鄰","STREET":"民生街","SECT":" ","MAREA":" ","LANE":" ","ALLEY":" ","HOUSE_NO":"２３號","E_COORD97":175094.20000000001,"N_COORD97":2580124.0499999998,"ADDRESS":"民生街２３號","OBJECTID":643841},"geometry":{"x":175094.20000000019,"y":2580124.0500000007}},{"attributes":{"ID":643869,"DIS_CODE":0,"TOWNNAME":"鹽水區","LI":"武廟里","LIN":"13鄰","STREET":"民生街","SECT":" ","MAREA":" ","LANE":" ","ALLEY":" ","HOUSE_NO":"２８號之１","E_COORD97":175087.44,"N_COORD97":2580145.6200000001,"ADDRESS":"民生街２８號之１","OBJECTID":643842},"geometry":{"x":175087.44000000041,"y":2580145.6200000048}},{"attributes":{"ID":643870,"DIS_CODE":0,"TOWNNAME":"鹽水區","LI":"橋南里","LIN":"24鄰","STREET":"行昌路","SECT":" ","MAREA":" ","LANE":" ","ALLEY":" ","HOUSE_NO":"３２號","E_COORD97":175014.70000000001,"N_COORD97":2579355.3199999998,"ADDRESS":"行昌路３２號","OBJECTID":643843},"geometry":{"x":175014.70000000019,"y":2579355.3200000003}},{"attributes":{"ID":643871,"DIS_CODE":0,"TOWNNAME":"鹽水區","LI":"橋南里","LIN":"24鄰","STREET":"行昌路","SECT":" ","MAREA":" ","LANE":" ","ALLEY":" ","HOUSE_NO":"３４號","E_COORD97":175018.92000000001,"N_COORD97":2579357.3999999999,"ADDRESS":"行昌路３４號","OBJECTID":643844},"geometry":{"x":175018.92000000086,"y":2579357.4000000022}},{"attributes":{"ID":643872,"DIS_CODE":0,"TOWNNAME":"鹽水區","LI":"武廟里","LIN":"6鄰","STREET":"民生街","SECT":" ","MAREA":" ","LANE":" ","ALLEY":" ","HOUSE_NO":"３９號","E_COORD97":175077.16,"N_COORD97":2580227.0600000001,"ADDRESS":"民生街３９號","OBJECTID":643845},"geometry":{"x":175077.16000000015,"y":2580227.0600000042}},{"attributes":{"ID":643873,"DIS_CODE":0,"TOWNNAME":"鹽水區","LI":"武廟里","LIN":"6鄰","STREET":"民生街","SECT":" ","MAREA":" ","LANE":" ","ALLEY":" ","HOUSE_NO":"４０號","E_COORD97":175076.81,"N_COORD97":2580231.7000000002,"ADDRESS":"民生街４０號","OBJECTID":643846},"geometry":{"x":175076.81000000052,"y":2580231.7000000011}},{"attributes":{"ID":643874,"DIS_CODE":0,"TOWNNAME":"鹽水區","LI":"武廟里","LIN":"6鄰","STREET":"民生街","SECT":" ","MAREA":" ","LANE":" ","ALLEY":" ","HOUSE_NO":"４１號","E_COORD97":175076.45000000001,"N_COORD97":2580236.3300000001,"ADDRESS":"民生街４１號","OBJECTID":643847},"geometry":{"x":175076.45000000112,"y":2580236.3300000019}},{"attributes":{"ID":643875,"DIS_CODE":0,"TOWNNAME":"鹽水區","LI":"武廟里","LIN":"6鄰","STREET":"民生街","SECT":" ","MAREA":" ","LANE":" ","ALLEY":" ","HOUSE_NO":"４２號","E_COORD97":175076.10000000001,"N_COORD97":2580240.96,"ADDRESS":"民生街４２號","OBJECTID":643848},"geometry":{"x":175076.10000000149,"y":2580240.9600000009}},{"attributes":{"ID":643876,"DIS_CODE":0,"TOWNNAME":"鹽水區","LI":"武廟里","LIN":"6鄰","STREET":"民生街","SECT":" ","MAREA":" ","LANE":" ","ALLEY":" ","HOUSE_NO":"４３號","E_COORD97":175075.73999999999,"N_COORD97":2580245.5899999999,"ADDRESS":"民生街４３號","OBJECTID":643849},"geometry":{"x":175075.74000000209,"y":2580245.5899999999}},{"attributes":{"ID":643877,"DIS_CODE":0,"TOWNNAME":"鹽水區","LI":"橋南里","LIN":"4鄰","STREET":"行昌路","SECT":" ","MAREA":" ","LANE":" ","ALLEY":" ","HOUSE_NO":"４７號","E_COORD97":175207.01000000001,"N_COORD97":2579405.3300000001,"ADDRESS":"行昌路４７號","OBJECTID":643850},"geometry":{"x":175207.00999999978,"y":2579405.3300000019}},{"attributes":{"ID":643878,"DIS_CODE":0,"TOWNNAME":"鹽水區","LI":"橋南里","LIN":"4鄰","STREET":"行昌路","SECT":" ","MAREA":" ","LANE":" ","ALLEY":" ","HOUSE_NO":"４９號","E_COORD97":175211.39000000001,"N_COORD97":2579406.8500000001,"ADDRESS":"行昌路４９號","OBJECTID":643851},"geometry":{"x":175211.39000000153,"y":2579406.8500000034}},{"attributes":{"ID":643879,"DIS_CODE":0,"TOWNNAME":"鹽水區","LI":"橋南里","LIN":"4鄰","STREET":"行昌路","SECT":" ","MAREA":" ","LANE":" ","ALLEY":" ","HOUSE_NO":"５１號","E_COORD97":175215.41,"N_COORD97":2579408.4500000002,"ADDRESS":"行昌路５１號","OBJECTID":643852},"geometry":{"x":175215.41000000108,"y":2579408.4499999993}},{"attributes":{"ID":643880,"DIS_CODE":0,"TOWNNAME":"鹽水區","LI":"橋南里","LIN":"4鄰","STREET":"行昌路","SECT":" ","MAREA":" ","LANE":" ","ALLEY":" ","HOUSE_NO":"５３號","E_COORD97":175219.92000000001,"N_COORD97":2579410.8700000001,"ADDRESS":"行昌路５３號","OBJECTID":643853},"geometry":{"x":175219.92000000179,"y":2579410.870000001}},{"attributes":{"ID":643881,"DIS_CODE":0,"TOWNNAME":"鹽水區","LI":"橋南里","LIN":"4鄰","STREET":"行昌路","SECT":" ","MAREA":" ","LANE":" ","ALLEY":" ","HOUSE_NO":"５５號","E_COORD97":175224.92999999999,"N_COORD97":2579412.9700000002,"ADDRESS":"行昌路５５號","OBJECTID":643854},"geometry":{"x":175224.93000000063,"y":2579412.9700000007}},{"attributes":{"ID":643882,"DIS_CODE":0,"TOWNNAME":"鹽水區","LI":"橋南里","LIN":"4鄰","STREET":"行昌路","SECT":" ","MAREA":" ","LANE":" ","ALLEY":" ","HOUSE_NO":"５７號","E_COORD97":175228.47,"N_COORD97":2579414.0800000001,"ADDRESS":"行昌路５７號","OBJECTID":643855},"geometry":{"x":175228.47000000067,"y":2579414.0800000019}},{"attributes":{"ID":643883,"DIS_CODE":0,"TOWNNAME":"鹽水區","LI":"橋南里","LIN":"4鄰","STREET":"行昌路","SECT":" ","MAREA":" ","LANE":" ","ALLEY":" ","HOUSE_NO":"５９號","E_COORD97":175232.73999999999,"N_COORD97":2579415.71,"ADDRESS":"行昌路５９號","OBJECTID":643856},"geometry":{"x":175232.74000000022,"y":2579415.709999999}},{"attributes":{"ID":643884,"DIS_CODE":0,"TOWNNAME":"鹽水區","LI":"橋南里","LIN":"24鄰","STREET":"行昌路","SECT":" ","MAREA":" ","LANE":" ","ALLEY":" ","HOUSE_NO":"５號","E_COORD97":174974.44,"N_COORD97":2579310.1099999999,"ADDRESS":"行昌路５號","OBJECTID":643857},"geometry":{"x":174974.43999999948,"y":2579310.1100000031}},{"attributes":{"ID":643885,"DIS_CODE":0,"TOWNNAME":"鹽水區","LI":"橋南里","LIN":"10鄰","STREET":"行昌路","SECT":" ","MAREA":" ","LANE":" ","ALLEY":" ","HOUSE_NO":"６２號","E_COORD97":175119.76999999999,"N_COORD97":2579395.4399999999,"ADDRESS":"行昌路６２號","OBJECTID":643858},"geometry":{"x":175119.76999999955,"y":2579395.4399999995}},{"attributes":{"ID":643886,"DIS_CODE":0,"TOWNNAME":"鹽水區","LI":"橋南里","LIN":"4鄰","STREET":"行昌路","SECT":" ","MAREA":" ","LANE":" ","ALLEY":" ","HOUSE_NO":"７０號","E_COORD97":175198.42999999999,"N_COORD97":2579431.2200000002,"ADDRESS":"行昌路７０號","OBJECTID":643859},"geometry":{"x":175198.43000000063,"y":2579431.2200000007}},{"attributes":{"ID":643887,"DIS_CODE":0,"TOWNNAME":"鹽水區","LI":"橋南里","LIN":"4鄰","STREET":"行昌路","SECT":" ","MAREA":" ","LANE":" ","ALLEY":" ","HOUSE_NO":"７２號","E_COORD97":175202.37,"N_COORD97":2579433.1299999999,"ADDRESS":"行昌路７２號","OBJECTID":643860},"geometry":{"x":175202.37000000104,"y":2579433.129999999}},{"attributes":{"ID":643888,"DIS_CODE":0,"TOWNNAME":"鹽水區","LI":"橋南里","LIN":"4鄰","STREET":"行昌路","SECT":" ","MAREA":" ","LANE":" ","ALLEY":" ","HOUSE_NO":"７４號","E_COORD97":175206.31,"N_COORD97":2579435.0299999998,"ADDRESS":"行昌路７４號","OBJECTID":643861},"geometry":{"x":175206.30999999959,"y":2579435.0299999993}},{"attributes":{"ID":643889,"DIS_CODE":0,"TOWNNAME":"鹽水區","LI":"橋南里","LIN":"4鄰","STREET":"行昌路","SECT":" ","MAREA":" ","LANE":" ","ALLEY":" ","HOUSE_NO":"７６號","E_COORD97":175210.23999999999,"N_COORD97":2579436.9399999999,"ADDRESS":"行昌路７６號","OBJECTID":643862},"geometry":{"x":175210.24000000115,"y":2579436.9400000013}},{"attributes":{"ID":643890,"DIS_CODE":0,"TOWNNAME":"鹽水區","LI":"橋南里","LIN":"4鄰","STREET":"行昌路","SECT":" ","MAREA":" ","LANE":" ","ALLEY":" ","HOUSE_NO":"８０號","E_COORD97":175218.12,"N_COORD97":2579440.75,"ADDRESS":"行昌路８０號","OBJECTID":643863},"geometry":{"x":175218.12000000011,"y":2579440.75}},{"attributes":{"ID":643891,"DIS_CODE":0,"TOWNNAME":"鹽水區","LI":"橋南里","LIN":"4鄰","STREET":"行昌路","SECT":" ","MAREA":" ","LANE":" ","ALLEY":" ","HOUSE_NO":"８２號","E_COORD97":175222.06,"N_COORD97":2579442.6600000001,"ADDRESS":"行昌路８２號","OBJECTID":643864},"geometry":{"x":175222.06000000145,"y":2579442.6600000039}},{"attributes":{"ID":643892,"DIS_CODE":0,"TOWNNAME":"鹽水區","LI":"橋南里","LIN":"24鄰","STREET":"行昌路","SECT":" ","MAREA":" ","LANE":" ","ALLEY":" ","HOUSE_NO":"７號","E_COORD97":174978.73000000001,"N_COORD97":2579311.6299999999,"ADDRESS":"行昌路７號","OBJECTID":643865},"geometry":{"x":174978.73000000045,"y":2579311.629999999}},{"attributes":{"ID":643893,"DIS_CODE":0,"TOWNNAME":"鹽水區","LI":"橋南里","LIN":"24鄰","STREET":"行昌路","SECT":" ","MAREA":" ","LANE":" ","ALLEY":" ","HOUSE_NO":"９號","E_COORD97":174982.48999999999,"N_COORD97":2579313.2799999998,"ADDRESS":"行昌路９號","OBJECTID":643866},"geometry":{"x":174982.49000000209,"y":2579313.2800000012}},{"attributes":{"ID":643894,"DIS_CODE":0,"TOWNNAME":"鹽水區","LI":"水正里","LIN":"17鄰","STREET":"西門路","SECT":" ","MAREA":" ","LANE":" ","ALLEY":" ","HOUSE_NO":"１０之１號","E_COORD97":174988.29000000001,"N_COORD97":2579705.9500000002,"ADDRESS":"西門路１０之１號","OBJECTID":643867},"geometry":{"x":174988.29000000004,"y":2579705.9499999993}},{"attributes":{"ID":643895,"DIS_CODE":0,"TOWNNAME":"鹽水區","LI":"水正里","LIN":"17鄰","STREET":"西門路","SECT":" ","MAREA":" ","LANE":" ","ALLEY":" ","HOUSE_NO":"１０號","E_COORD97":175009.45000000001,"N_COORD97":2579699.2999999998,"ADDRESS":"西門路１０號","OBJECTID":643868},"geometry":{"x":175009.45000000019,"y":2579699.3000000007}},{"attributes":{"ID":643896,"DIS_CODE":0,"TOWNNAME":"鹽水區","LI":"水仙里","LIN":"5鄰","STREET":"西門路","SECT":" ","MAREA":" ","LANE":" ","ALLEY":" ","HOUSE_NO":"３號","E_COORD97":174971.67999999999,"N_COORD97":2579670.3999999999,"ADDRESS":"西門路３號","OBJECTID":643869},"geometry":{"x":174971.6799999997,"y":2579670.4000000004}},{"attributes":{"ID":643897,"DIS_CODE":0,"TOWNNAME":"鹽水區","LI":"水正里","LIN":"17鄰","STREET":"西門路","SECT":" ","MAREA":" ","LANE":" ","ALLEY":" ","HOUSE_NO":"６號之１","E_COORD97":174996.10000000001,"N_COORD97":2579673.7999999998,"ADDRESS":"西門路６號之１","OBJECTID":643870},"geometry":{"x":174996.09999999963,"y":2579673.8000000026}},{"attributes":{"ID":643898,"DIS_CODE":0,"TOWNNAME":"鹽水區","LI":"水正里","LIN":"17鄰","STREET":"西門路","SECT":" ","MAREA":" ","LANE":" ","ALLEY":" ","HOUSE_NO":"６號","E_COORD97":175000.41,"N_COORD97":2579687.02,"ADDRESS":"西門路６號","OBJECTID":643871},"geometry":{"x":175000.41000000108,"y":2579687.0200000033}},{"attributes":{"ID":643899,"DIS_CODE":0,"TOWNNAME":"鹽水區","LI":"武廟里","LIN":"4鄰","STREET":"武廟路","SECT":" ","MAREA":" ","LANE":" ","ALLEY":" ","HOUSE_NO":"１２號","E_COORD97":174918.5,"N_COORD97":2580036.79,"ADDRESS":"武廟路１２號","OBJECTID":643872},"geometry":{"x":174918.50000000093,"y":2580036.7899999991}},{"attributes":{"ID":643900,"DIS_CODE":0,"TOWNNAME":"鹽水區","LI":"武廟里","LIN":"4鄰","STREET":"武廟路","SECT":" ","MAREA":" ","LANE":" ","ALLEY":" ","HOUSE_NO":"１４號","E_COORD97":175010.34,"N_COORD97":2580097.6299999999,"ADDRESS":"武廟路１４號","OBJECTID":643873},"geometry":{"x":175010.34000000171,"y":2580097.629999999}},{"attributes":{"ID":643901,"DIS_CODE":0,"TOWNNAME":"鹽水區","LI":"武廟里","LIN":"4鄰","STREET":"武廟路","SECT":" ","MAREA":" ","LANE":" ","ALLEY":" ","HOUSE_NO":"１６號","E_COORD97":174918.64999999999,"N_COORD97":2580046.0800000001,"ADDRESS":"武廟路１６號","OBJECTID":643874},"geometry":{"x":174918.65000000037,"y":2580046.0800000001}},{"attributes":{"ID":643902,"DIS_CODE":0,"TOWNNAME":"鹽水區","LI":"武廟里","LIN":"4鄰","STREET":"武廟路","SECT":" ","MAREA":" ","LANE":" ","ALLEY":" ","HOUSE_NO":"１８號","E_COORD97":174918.85999999999,"N_COORD97":2580050.8100000001,"ADDRESS":"武廟路１８號","OBJECTID":643875},"geometry":{"x":174918.86000000034,"y":2580050.8100000005}},{"attributes":{"ID":643903,"DIS_CODE":0,"TOWNNAME":"鹽水區","LI":"武廟里","LIN":"4鄰","STREET":"武廟路","SECT":" ","MAREA":" ","LANE":" ","ALLEY":" ","HOUSE_NO":"２０號","E_COORD97":174919.29999999999,"N_COORD97":2580055.3799999999,"ADDRESS":"武廟路２０號","OBJECTID":643876},"geometry":{"x":174919.30000000075,"y":2580055.379999999}},{"attributes":{"ID":643904,"DIS_CODE":0,"TOWNNAME":"鹽水區","LI":"武廟里","LIN":"4鄰","STREET":"武廟路","SECT":" ","MAREA":" ","LANE":" ","ALLEY":" ","HOUSE_NO":"２２號","E_COORD97":174919.51000000001,"N_COORD97":2580060.1800000002,"ADDRESS":"武廟路２２號","OBJECTID":643877},"geometry":{"x":174919.51000000071,"y":2580060.1800000016}},{"attributes":{"ID":643905,"DIS_CODE":0,"TOWNNAME":"安平區","LI":"金城里","LIN":" ","STREET":"國勝路","SECT":" ","MAREA":" ","LANE":" ","ALLEY":" ","HOUSE_NO":"２８號","E_COORD97":164028.62,"N_COORD97":2544477.5499999998,"ADDRESS":"國勝路２８號","OBJECTID":643878},"geometry":{"x":164028.62000000011,"y":2544477.5500000007}},{"attributes":{"ID":643906,"DIS_CODE":0,"TOWNNAME":"安平區","LI":"金城里","LIN":" ","STREET":"運河路","SECT":" ","MAREA":" ","LANE":" ","ALLEY":" ","HOUSE_NO":"５０號","E_COORD97":163962.28,"N_COORD97":2544323.4300000002,"ADDRESS":"運河路５０號","OBJECTID":643879},"geometry":{"x":163962.28000000119,"y":2544323.4300000016}},{"attributes":{"ID":643907,"DIS_CODE":0,"TOWNNAME":"安平區","LI":"漁光里","LIN":" ","STREET":"漁光路","SECT":" ","MAREA":" ","LANE":" ","ALLEY":" ","HOUSE_NO":"６０號","E_COORD97":163884.23000000001,"N_COORD97":2542039.77,"ADDRESS":"漁光路６０號","OBJECTID":643880},"geometry":{"x":163884.23000000045,"y":2542039.7700000014}},{"attributes":{"ID":643908,"DIS_CODE":0,"TOWNNAME":"安平區","LI":"港仔里","LIN":"1鄰","STREET":"安平路","SECT":" ","MAREA":" ","LANE":" ","ALLEY":" ","HOUSE_NO":"７號","E_COORD97":164361.81,"N_COORD97":2544532.4199999999,"ADDRESS":"安平路７號","OBJECTID":643881},"geometry":{"x":164361.81000000052,"y":2544532.4199999999}},{"attributes":{"ID":643909,"DIS_CODE":0,"TOWNNAME":"安平區","LI":"怡平里","LIN":"14鄰","STREET":"建平十一街","SECT":" ","MAREA":" ","LANE":" ","ALLEY":" ","HOUSE_NO":"３２０號","E_COORD97":165567.60999999999,"N_COORD97":2544008.6299999999,"ADDRESS":"建平十一街３２０號","OBJECTID":643882},"geometry":{"x":165567.61000000034,"y":2544008.6300000027}},{"attributes":{"ID":643910,"DIS_CODE":0,"TOWNNAME":"安平區","LI":"港仔里","LIN":" ","STREET":"觀音街","SECT":" ","MAREA":" ","LANE":" ","ALLEY":" ","HOUSE_NO":"３９號","E_COORD97":164164.07999999999,"N_COORD97":2544551.52,"ADDRESS":"觀音街３９號","OBJECTID":643883},"geometry":{"x":164164.08000000007,"y":2544551.5199999996}},{"attributes":{"ID":643911,"DIS_CODE":0,"TOWNNAME":"安平區","LI":"怡平里","LIN":"14鄰","STREET":"建平十一街","SECT":" ","MAREA":" ","LANE":" ","ALLEY":" ","HOUSE_NO":"３２４號","E_COORD97":165558.53,"N_COORD97":2544009.6200000001,"ADDRESS":"建平十一街３２４號","OBJECTID":643884},"geometry":{"x":165558.53000000026,"y":2544009.620000001}},{"attributes":{"ID":643912,"DIS_CODE":0,"TOWNNAME":"鹽水區","LI":"橋南里","LIN":"6鄰","STREET":"南門路","SECT":" ","MAREA":" ","LANE":" ","ALLEY":" ","HOUSE_NO":"１１０號","E_COORD97":175228.14000000001,"N_COORD97":2579184.7599999998,"ADDRESS":"南門路１１０號","OBJECTID":643885},"geometry":{"x":175228.13999999966,"y":2579184.7600000016}},{"attributes":{"ID":643913,"DIS_CODE":0,"TOWNNAME":"安平區","LI":"石門里","LIN":"8鄰","STREET":"安北路","SECT":" ","MAREA":" ","LANE":" ","ALLEY":" ","HOUSE_NO":"４８號","E_COORD97":164572.19,"N_COORD97":2544616.3700000001,"ADDRESS":"安北路４８號","OBJECTID":643886},"geometry":{"x":164572.19000000041,"y":2544616.3700000048}},{"attributes":{"ID":643914,"DIS_CODE":0,"TOWNNAME":"安平區","LI":"西門里","LIN":" ","STREET":"古堡街","SECT":" ","MAREA":" ","LANE":" ","ALLEY":" ","HOUSE_NO":"１２０之１號","E_COORD97":163803.89999999999,"N_COORD97":2544898.3599999999,"ADDRESS":"古堡街１２０之１號","OBJECTID":643887},"geometry":{"x":163803.9000000013,"y":2544898.3599999994}},{"attributes":{"ID":643915,"DIS_CODE":0,"TOWNNAME":"安平區","LI":"西門里","LIN":" ","STREET":"古堡街","SECT":" ","MAREA":" ","LANE":" ","ALLEY":" ","HOUSE_NO":"１２０之２號","E_COORD97":163800.67000000001,"N_COORD97":2544904.5499999998,"ADDRESS":"古堡街１２０之２號","OBJECTID":643888},"geometry":{"x":163800.66999999993,"y":2544904.5500000007}},{"attributes":{"ID":643916,"DIS_CODE":0,"TOWNNAME":"安平區","LI":"西門里","LIN":" ","STREET":"古堡街","SECT":" ","MAREA":" ","LANE":" ","ALLEY":" ","HOUSE_NO":"１２０之３號","E_COORD97":163798.92000000001,"N_COORD97":2544909.4199999999,"ADDRESS":"古堡街１２０之３號","OBJECTID":643889},"geometry":{"x":163798.91999999993,"y":2544909.4199999981}},{"attributes":{"ID":643917,"DIS_CODE":0,"TOWNNAME":"安平區","LI":"西門里","LIN":" ","STREET":"古堡街","SECT":" ","MAREA":" ","LANE":" ","ALLEY":" ","HOUSE_NO":"１２０之５號","E_COORD97":163797.98000000001,"N_COORD97":2544912.6400000001,"ADDRESS":"古堡街１２０之５號","OBJECTID":643890},"geometry":{"x":163797.98000000231,"y":2544912.6400000025}},{"attributes":{"ID":643918,"DIS_CODE":0,"TOWNNAME":"安平區","LI":"西門里","LIN":" ","STREET":"古堡街","SECT":" ","MAREA":" ","LANE":" ","ALLEY":" ","HOUSE_NO":"１２０之６號","E_COORD97":163796.5,"N_COORD97":2544916.54,"ADDRESS":"古堡街１２０之６號","OBJECTID":643891},"geometry":{"x":163796.5,"y":2544916.5399999991}},{"attributes":{"ID":643919,"DIS_CODE":0,"TOWNNAME":"安平區","LI":"西門里","LIN":" ","STREET":"古堡街","SECT":" ","MAREA":" ","LANE":" ","ALLEY":" ","HOUSE_NO":"１２０之７號","E_COORD97":163795.14999999999,"N_COORD97":2544920.8500000001,"ADDRESS":"古堡街１２０之７號","OBJECTID":643892},"geometry":{"x":163795.15000000224,"y":2544920.8500000015}},{"attributes":{"ID":643920,"DIS_CODE":0,"TOWNNAME":"安平區","LI":"西門里","LIN":" ","STREET":"古堡街","SECT":" ","MAREA":" ","LANE":" ","ALLEY":" ","HOUSE_NO":"１２０之８號","E_COORD97":163793.94,"N_COORD97":2544924.21,"ADDRESS":"古堡街１２０之８號","OBJECTID":643893},"geometry":{"x":163793.94000000041,"y":2544924.2100000009}},{"attributes":{"ID":643921,"DIS_CODE":0,"TOWNNAME":"安平區","LI":"西門里","LIN":" ","STREET":"古堡街","SECT":" ","MAREA":" ","LANE":" ","ALLEY":" ","HOUSE_NO":"１２０之９號","E_COORD97":163792.73000000001,"N_COORD97":2544928.6499999999,"ADDRESS":"古堡街１２０之９號","OBJECTID":643894},"geometry":{"x":163792.72999999952,"y":2544928.6499999985}},{"attributes":{"ID":643922,"DIS_CODE":0,"TOWNNAME":"安平區","LI":"西門里","LIN":" ","STREET":"古堡街","SECT":" ","MAREA":" ","LANE":" ","ALLEY":" ","HOUSE_NO":"１２０之１１號","E_COORD97":163790.57000000001,"N_COORD97":2544936.3199999998,"ADDRESS":"古堡街１２０之１１號","OBJECTID":643895},"geometry":{"x":163790.57000000123,"y":2544936.3200000003}},{"attributes":{"ID":643923,"DIS_CODE":0,"TOWNNAME":"安平區","LI":"西門里","LIN":" ","STREET":"古堡街","SECT":" ","MAREA":" ","LANE":" ","ALLEY":" ","HOUSE_NO":"１２０之１２號","E_COORD97":163788.69,"N_COORD97":2544940.4900000002,"ADDRESS":"古堡街１２０之１２號","OBJECTID":643896},"geometry":{"x":163788.69000000134,"y":2544940.4900000021}},{"attributes":{"ID":643924,"DIS_CODE":0,"TOWNNAME":"安平區","LI":"西門里","LIN":" ","STREET":"古堡街","SECT":" ","MAREA":" ","LANE":" ","ALLEY":" ","HOUSE_NO":"１２０之１３號","E_COORD97":163787.60999999999,"N_COORD97":2544944.6600000001,"ADDRESS":"古堡街１２０之１３號","OBJECTID":643897},"geometry":{"x":163787.61000000127,"y":2544944.6600000001}},{"attributes":{"ID":643925,"DIS_CODE":0,"TOWNNAME":"安平區","LI":"西門里","LIN":" ","STREET":"古堡街","SECT":" ","MAREA":" ","LANE":" ","ALLEY":" ","HOUSE_NO":"１２０之１４號","E_COORD97":163786.13,"N_COORD97":2544947.8799999999,"ADDRESS":"古堡街１２０之１４號","OBJECTID":643898},"geometry":{"x":163786.13000000175,"y":2544947.879999999}},{"attributes":{"ID":643926,"DIS_CODE":0,"TOWNNAME":"安平區","LI":"西門里","LIN":" ","STREET":"古堡街","SECT":" ","MAREA":" ","LANE":" ","ALLEY":" ","HOUSE_NO":"１２０之１５號","E_COORD97":163784.78,"N_COORD97":2544952.3199999998,"ADDRESS":"古堡街１２０之１５號","OBJECTID":643899},"geometry":{"x":163784.78000000026,"y":2544952.3200000022}},{"attributes":{"ID":643927,"DIS_CODE":0,"TOWNNAME":"安平區","LI":"西門里","LIN":" ","STREET":"古堡街","SECT":" ","MAREA":" ","LANE":" ","ALLEY":" ","HOUSE_NO":"１２０之１６號","E_COORD97":163783.57000000001,"N_COORD97":2544956.0899999999,"ADDRESS":"古堡街１２０之１６號","OBJECTID":643900},"geometry":{"x":163783.57000000216,"y":2544956.0900000036}},{"attributes":{"ID":643928,"DIS_CODE":0,"TOWNNAME":"安平區","LI":"西門里","LIN":" ","STREET":"古堡街","SECT":" ","MAREA":" ","LANE":" ","ALLEY":" ","HOUSE_NO":"１２０之１７號","E_COORD97":163782.23000000001,"N_COORD97":2544960.7999999998,"ADDRESS":"古堡街１２０之１７號","OBJECTID":643901},"geometry":{"x":163782.23000000045,"y":2544960.8000000007}},{"attributes":{"ID":643929,"DIS_CODE":0,"TOWNNAME":"鹽水區","LI":"橋南里","LIN":"6鄰","STREET":"南門路","SECT":" ","MAREA":" ","LANE":" ","ALLEY":" ","HOUSE_NO":"１１３號","E_COORD97":175288.57000000001,"N_COORD97":2579172.1299999999,"ADDRESS":"南門路１１３號","OBJECTID":643902},"geometry":{"x":175288.5700000003,"y":2579172.129999999}},{"attributes":{"ID":643930,"DIS_CODE":0,"TOWNNAME":"安平區","LI":"金城里","LIN":"15鄰","STREET":"安北路","SECT":" ","MAREA":" ","LANE":" ","ALLEY":" ","HOUSE_NO":"５８８之１號","E_COORD97":162765.07000000001,"N_COORD97":2544351.5600000001,"ADDRESS":"安北路５８８之１號","OBJECTID":643903},"geometry":{"x":162765.07000000123,"y":2544351.5600000024}},{"attributes":{"ID":643931,"DIS_CODE":0,"TOWNNAME":"安平區","LI":"港仔里","LIN":" ","STREET":"安平路","SECT":" ","MAREA":" ","LANE":" ","ALLEY":" ","HOUSE_NO":"７６２號","E_COORD97":164131.03,"N_COORD97":2544547.5,"ADDRESS":"安平路７６２號","OBJECTID":643904},"geometry":{"x":164131.03000000026,"y":2544547.5000000019}},{"attributes":{"ID":643932,"DIS_CODE":0,"TOWNNAME":"安平區","LI":"港仔里","LIN":" ","STREET":"安平路","SECT":" ","MAREA":" ","LANE":" ","ALLEY":" ","HOUSE_NO":"１２７號","E_COORD97":164204.25,"N_COORD97":2544508.0899999999,"ADDRESS":"安平路１２７號","OBJECTID":643905},"geometry":{"x":164204.25000000186,"y":2544508.089999998}},{"attributes":{"ID":643933,"DIS_CODE":0,"TOWNNAME":"安平區","LI":"港仔里","LIN":" ","STREET":"安平路","SECT":" ","MAREA":" ","LANE":" ","ALLEY":" ","HOUSE_NO":"９５之１號","E_COORD97":164387.54000000001,"N_COORD97":2544456.3199999998,"ADDRESS":"安平路９５之１號","OBJECTID":643906},"geometry":{"x":164387.54000000097,"y":2544456.320000004}},{"attributes":{"ID":643934,"DIS_CODE":0,"TOWNNAME":"安平區","LI":"港仔里","LIN":"7鄰","STREET":"安平路","SECT":" ","MAREA":" ","LANE":" ","ALLEY":" ","HOUSE_NO":"７０２號","E_COORD97":164369.67000000001,"N_COORD97":2544490.5899999999,"ADDRESS":"安平路７０２號","OBJECTID":643907},"geometry":{"x":164369.67000000086,"y":2544490.5899999999}},{"attributes":{"ID":643935,"DIS_CODE":0,"TOWNNAME":"安平區","LI":"石門里","LIN":"20鄰","STREET":"\u25A0忠街","SECT":" ","MAREA":" ","LANE":" ","ALLEY":" ","HOUSE_NO":"１號之５","E_COORD97":164397.60999999999,"N_COORD97":2544572.6899999999,"ADDRESS":"\u25A0忠街１號之５","OBJECTID":643908},"geometry":{"x":164397.61000000127,"y":2544572.6900000013}},{"attributes":{"ID":643936,"DIS_CODE":0,"TOWNNAME":"安平區","LI":"石門里","LIN":"17鄰","STREET":"\u25A0忠街","SECT":" ","MAREA":" ","LANE":" ","ALLEY":" ","HOUSE_NO":"１２號","E_COORD97":164378.25,"N_COORD97":2544613.0499999998,"ADDRESS":"\u25A0忠街１２號","OBJECTID":643909},"geometry":{"x":164378.25,"y":2544613.0500000007}},{"attributes":{"ID":643937,"DIS_CODE":0,"TOWNNAME":"安平區","LI":"石門里","LIN":"13鄰","STREET":"\u25A0忠街","SECT":" ","MAREA":" ","LANE":" ","ALLEY":" ","HOUSE_NO":"２５號","E_COORD97":164271.29000000001,"N_COORD97":2544614.5499999998,"ADDRESS":"\u25A0忠街２５號","OBJECTID":643910},"geometry":{"x":164271.29000000004,"y":2544614.5500000045}},{"attributes":{"ID":643938,"DIS_CODE":0,"TOWNNAME":"安平區","LI":"漁光里","LIN":"7鄰","STREET":"漁光路","SECT":" ","MAREA":" ","LANE":" ","ALLEY":" ","HOUSE_NO":"１５８號之２","E_COORD97":163267.14000000001,"N_COORD97":2542996.9199999999,"ADDRESS":"漁光路１５８號之２","OBJECTID":643911},"geometry":{"x":163267.14000000153,"y":2542996.9199999999}},{"attributes":{"ID":643939,"DIS_CODE":0,"TOWNNAME":"安平區","LI":"漁光里","LIN":"7鄰","STREET":"漁光路","SECT":" ","MAREA":" ","LANE":" ","ALLEY":" ","HOUSE_NO":"１５８號之４","E_COORD97":163261.32000000001,"N_COORD97":2542993.5299999998,"ADDRESS":"漁光路１５８號之４","OBJECTID":643912},"geometry":{"x":163261.3200000003,"y":2542993.5300000012}},{"attributes":{"ID":643940,"DIS_CODE":0,"TOWNNAME":"安平區","LI":"漁光里","LIN":" ","STREET":"漁光路","SECT":" ","MAREA":" ","LANE":" ","ALLEY":" ","HOUSE_NO":"１５８之８號","E_COORD97":163273.45000000001,"N_COORD97":2542987.9500000002,"ADDRESS":"漁光路１５８之８號","OBJECTID":643913},"geometry":{"x":163273.45000000019,"y":2542987.9500000011}},{"attributes":{"ID":643941,"DIS_CODE":0,"TOWNNAME":"安平區","LI":"石門里","LIN":"20鄰","STREET":"延平街","SECT":" ","MAREA":" ","LANE":" ","ALLEY":" ","HOUSE_NO":"８號","E_COORD97":164368.62,"N_COORD97":2544545.2000000002,"ADDRESS":"延平街８號","OBJECTID":643914},"geometry":{"x":164368.62000000104,"y":2544545.2000000011}},{"attributes":{"ID":643942,"DIS_CODE":0,"TOWNNAME":"安平區","LI":"石門里","LIN":"20鄰","STREET":"延平街","SECT":" ","MAREA":" ","LANE":" ","ALLEY":" ","HOUSE_NO":"６號","E_COORD97":164377.10999999999,"N_COORD97":2544541.3999999999,"ADDRESS":"延平街６號","OBJECTID":643915},"geometry":{"x":164377.11000000127,"y":2544541.4000000022}},{"attributes":{"ID":643943,"DIS_CODE":0,"TOWNNAME":"安平區","LI":"漁光里","LIN":"7鄰","STREET":"漁光路","SECT":" ","MAREA":" ","LANE":" ","ALLEY":" ","HOUSE_NO":"１３２號之４","E_COORD97":163501.29000000001,"N_COORD97":2542633.4100000001,"ADDRESS":"漁光路１３２號之４","OBJECTID":643916},"geometry":{"x":163501.29000000097,"y":2542633.4100000001}},{"attributes":{"ID":643944,"DIS_CODE":0,"TOWNNAME":"安平區","LI":"漁光里","LIN":"7鄰","STREET":"漁光路","SECT":" ","MAREA":" ","LANE":" ","ALLEY":" ","HOUSE_NO":"１３２號之３","E_COORD97":163505.97,"N_COORD97":2542621.0299999998,"ADDRESS":"漁光路１３２號之３","OBJECTID":643917},"geometry":{"x":163505.97000000067,"y":2542621.0300000012}},{"attributes":{"ID":643945,"DIS_CODE":0,"TOWNNAME":"安平區","LI":"漁光里","LIN":"7鄰","STREET":"漁光路","SECT":" ","MAREA":" ","LANE":" ","ALLEY":" ","HOUSE_NO":"１３２號之１","E_COORD97":163499.92000000001,"N_COORD97":2542608.6499999999,"ADDRESS":"漁光路１３２號之１","OBJECTID":643918},"geometry":{"x":163499.92000000086,"y":2542608.6500000004}},{"attributes":{"ID":643946,"DIS_CODE":0,"TOWNNAME":"安平區","LI":"漁光里","LIN":"7鄰","STREET":"漁光路","SECT":" ","MAREA":" ","LANE":" ","ALLEY":" ","HOUSE_NO":"１３２號之２","E_COORD97":163517.54000000001,"N_COORD97":2542608.9199999999,"ADDRESS":"漁光路１３２號之２","OBJECTID":643919},"geometry":{"x":163517.54000000097,"y":2542608.9200000018}},{"attributes":{"ID":643947,"DIS_CODE":0,"TOWNNAME":"安平區","LI":"漁光里","LIN":"7鄰","STREET":"漁光路","SECT":" ","MAREA":" ","LANE":" ","ALLEY":" ","HOUSE_NO":"１３０號之１","E_COORD97":163510.64999999999,"N_COORD97":2542596.8199999998,"ADDRESS":"漁光路１３０號之１","OBJECTID":643920},"geometry":{"x":163510.6500000013,"y":2542596.8200000003}},{"attributes":{"ID":643948,"DIS_CODE":0,"TOWNNAME":"安平區","LI":"漁光里","LIN":"7鄰","STREET":"漁光路","SECT":" ","MAREA":" ","LANE":" ","ALLEY":" ","HOUSE_NO":"１２２號之１","E_COORD97":163515.34,"N_COORD97":2542546.7000000002,"ADDRESS":"漁光路１２２號之１","OBJECTID":643921},"geometry":{"x":163515.34000000078,"y":2542546.6999999993}},{"attributes":{"ID":643949,"DIS_CODE":0,"TOWNNAME":"安平區","LI":"漁光里","LIN":"7鄰","STREET":"漁光路","SECT":" ","MAREA":" ","LANE":" ","ALLEY":" ","HOUSE_NO":"１１８號之１","E_COORD97":163592.26999999999,"N_COORD97":2542480,"ADDRESS":"漁光路１１８號之１","OBJECTID":643922},"geometry":{"x":163592.27000000048,"y":2542480}},{"attributes":{"ID":643950,"DIS_CODE":0,"TOWNNAME":"安平區","LI":"漁光里","LIN":"7鄰","STREET":"漁光路","SECT":" ","MAREA":" ","LANE":" ","ALLEY":" ","HOUSE_NO":"１１８號之６","E_COORD97":163501.17000000001,"N_COORD97":2542498.54,"ADDRESS":"漁光路１１８號之６","OBJECTID":643923},"geometry":{"x":163501.17000000179,"y":2542498.540000001}},{"attributes":{"ID":643951,"DIS_CODE":0,"TOWNNAME":"安平區","LI":"漁光里","LIN":" ","STREET":"漁光路","SECT":" ","MAREA":" ","LANE":" ","ALLEY":" ","HOUSE_NO":"１３４號","E_COORD97":163571.20000000001,"N_COORD97":2542319.7000000002,"ADDRESS":"漁光路１３４號","OBJECTID":643924},"geometry":{"x":163571.20000000112,"y":2542319.6999999993}},{"attributes":{"ID":643952,"DIS_CODE":0,"TOWNNAME":"安平區","LI":"漁光里","LIN":"6鄰","STREET":"漁光路","SECT":" ","MAREA":" ","LANE":" ","ALLEY":" ","HOUSE_NO":"１４７號之１","E_COORD97":163807.16,"N_COORD97":2542055.3999999999,"ADDRESS":"漁光路１４７號之１","OBJECTID":643925},"geometry":{"x":163807.16000000108,"y":2542055.4000000041}},{"attributes":{"ID":643953,"DIS_CODE":0,"TOWNNAME":"安平區","LI":"漁光里","LIN":"6鄰","STREET":"漁光路","SECT":" ","MAREA":" ","LANE":" ","ALLEY":" ","HOUSE_NO":"１４３號之２","E_COORD97":163778.53,"N_COORD97":2542004.1099999999,"ADDRESS":"漁光路１４３號之２","OBJECTID":643926},"geometry":{"x":163778.53000000026,"y":2542004.1099999994}},{"attributes":{"ID":643954,"DIS_CODE":0,"TOWNNAME":"安平區","LI":"漁光里","LIN":"7鄰","STREET":"漁光路","SECT":" ","MAREA":" ","LANE":" ","ALLEY":" ","HOUSE_NO":"１５２號","E_COORD97":163263.72,"N_COORD97":2542904.3799999999,"ADDRESS":"漁光路１５２號","OBJECTID":643927},"geometry":{"x":163263.72000000067,"y":2542904.379999999}},{"attributes":{"ID":643955,"DIS_CODE":0,"TOWNNAME":"安平區","LI":"漁光里","LIN":"7鄰","STREET":"漁光路","SECT":" ","MAREA":" ","LANE":" ","ALLEY":" ","HOUSE_NO":"１４８號","E_COORD97":163242.60999999999,"N_COORD97":2542884.9900000002,"ADDRESS":"漁光路１４８號","OBJECTID":643928},"geometry":{"x":163242.6100000022,"y":2542884.9900000002}},{"attributes":{"ID":643956,"DIS_CODE":0,"TOWNNAME":"安平區","LI":"漁光里","LIN":"4鄰","STREET":"漁光路","SECT":" ","MAREA":" ","LANE":" ","ALLEY":" ","HOUSE_NO":"１１１號","E_COORD97":163995.54000000001,"N_COORD97":2541981.9900000002,"ADDRESS":"漁光路１１１號","OBJECTID":643929},"geometry":{"x":163995.5400000019,"y":2541981.9900000002}},{"attributes":{"ID":643957,"DIS_CODE":0,"TOWNNAME":"安平區","LI":"漁光里","LIN":"4鄰","STREET":"漁光路","SECT":" ","MAREA":" ","LANE":" ","ALLEY":" ","HOUSE_NO":"１１７號","E_COORD97":163975.67000000001,"N_COORD97":2541949.0800000001,"ADDRESS":"漁光路１１７號","OBJECTID":643930},"geometry":{"x":163975.66999999899,"y":2541949.0800000038}},{"attributes":{"ID":643958,"DIS_CODE":0,"TOWNNAME":"安平區","LI":"漁光里","LIN":" ","STREET":"漁光路","SECT":" ","MAREA":" ","LANE":" ","ALLEY":" ","HOUSE_NO":"５１號","E_COORD97":164074.29000000001,"N_COORD97":2541719.4199999999,"ADDRESS":"漁光路５１號","OBJECTID":643931},"geometry":{"x":164074.29000000004,"y":2541719.4200000037}},{"attributes":{"ID":643959,"DIS_CODE":0,"TOWNNAME":"安平區","LI":"漁光里","LIN":"5鄰","STREET":"漁光路","SECT":" ","MAREA":" ","LANE":" ","ALLEY":" ","HOUSE_NO":"１２１號","E_COORD97":163985.07999999999,"N_COORD97":2541993.8500000001,"ADDRESS":"漁光路１２１號","OBJECTID":643932},"geometry":{"x":163985.08000000194,"y":2541993.8499999978}},{"attributes":{"ID":643960,"DIS_CODE":0,"TOWNNAME":"安平區","LI":"漁光里","LIN":"1鄰","STREET":"漁光路","SECT":" ","MAREA":" ","LANE":" ","ALLEY":" ","HOUSE_NO":"７５號","E_COORD97":164045.12,"N_COORD97":2541786.1800000002,"ADDRESS":"漁光路７５號","OBJECTID":643933},"geometry":{"x":164045.12000000011,"y":2541786.1800000016}},{"attributes":{"ID":643961,"DIS_CODE":0,"TOWNNAME":"安平區","LI":"金城里","LIN":"4鄰","STREET":"湖內一街","SECT":" ","MAREA":" ","LANE":" ","ALLEY":" ","HOUSE_NO":"１６號","E_COORD97":163790.97,"N_COORD97":2544225.3100000001,"ADDRESS":"湖內一街１６號","OBJECTID":643934},"geometry":{"x":163790.97000000067,"y":2544225.3100000005}},{"attributes":{"ID":643962,"DIS_CODE":0,"TOWNNAME":"安平區","LI":"漁光里","LIN":" ","STREET":"漁光路","SECT":" ","MAREA":" ","LANE":" ","ALLEY":" ","HOUSE_NO":"３９號","E_COORD97":164132.66,"N_COORD97":2541629.48,"ADDRESS":"漁光路３９號","OBJECTID":643935},"geometry":{"x":164132.66000000108,"y":2541629.4800000023}},{"attributes":{"ID":643963,"DIS_CODE":0,"TOWNNAME":"安平區","LI":"漁光里","LIN":"1鄰","STREET":"漁光路","SECT":" ","MAREA":" ","LANE":" ","ALLEY":" ","HOUSE_NO":"６１號之１","E_COORD97":163966.13,"N_COORD97":2541737.23,"ADDRESS":"漁光路６１號之１","OBJECTID":643936},"geometry":{"x":163966.13000000082,"y":2541737.2300000004}},{"attributes":{"ID":643964,"DIS_CODE":0,"TOWNNAME":"安平區","LI":"漁光里","LIN":"1鄰","STREET":"漁光路","SECT":" ","MAREA":" ","LANE":" ","ALLEY":" ","HOUSE_NO":"５５號之１","E_COORD97":164003.39000000001,"N_COORD97":2541689.77,"ADDRESS":"漁光路５５號之１","OBJECTID":643937},"geometry":{"x":164003.3900000006,"y":2541689.7700000014}},{"attributes":{"ID":643965,"DIS_CODE":0,"TOWNNAME":"安平區","LI":"漁光里","LIN":"1鄰","STREET":"漁光路","SECT":" ","MAREA":" ","LANE":" ","ALLEY":" ","HOUSE_NO":"５３號之１","E_COORD97":164058.48000000001,"N_COORD97":2541693.6200000001,"ADDRESS":"漁光路５３號之１","OBJECTID":643938},"geometry":{"x":164058.48000000045,"y":2541693.6200000029}},{"attributes":{"ID":643966,"DIS_CODE":0,"TOWNNAME":"安平區","LI":"金城里","LIN":" ","STREET":"運河路","SECT":" ","MAREA":" ","LANE":" ","ALLEY":" ","HOUSE_NO":"４２之１號","E_COORD97":164041.57000000001,"N_COORD97":2544365.9199999999,"ADDRESS":"運河路４２之１號","OBJECTID":643939},"geometry":{"x":164041.57000000123,"y":2544365.9199999999}},{"attributes":{"ID":643967,"DIS_CODE":0,"TOWNNAME":"安平區","LI":"金城里","LIN":" ","STREET":"運河路","SECT":" ","MAREA":" ","LANE":" ","ALLEY":" ","HOUSE_NO":"４３之１號","E_COORD97":164003.82999999999,"N_COORD97":2544305.8100000001,"ADDRESS":"運河路４３之１號","OBJECTID":643940},"geometry":{"x":164003.83000000101,"y":2544305.8100000005}},{"attributes":{"ID":643968,"DIS_CODE":0,"TOWNNAME":"安平區","LI":"金城里","LIN":" ","STREET":"運河路","SECT":" ","MAREA":" ","LANE":" ","ALLEY":" ","HOUSE_NO":"４３之３號","E_COORD97":163965.47,"N_COORD97":2544258.5699999998,"ADDRESS":"運河路４３之３號","OBJECTID":643941},"geometry":{"x":163965.47000000067,"y":2544258.5700000022}},{"attributes":{"ID":643969,"DIS_CODE":0,"TOWNNAME":"安平區","LI":"金城里","LIN":" ","STREET":"運河路","SECT":" ","MAREA":" ","LANE":" ","ALLEY":" ","HOUSE_NO":"１之１號","E_COORD97":164176.73000000001,"N_COORD97":2544378.25,"ADDRESS":"運河路１之１號","OBJECTID":643942},"geometry":{"x":164176.73000000138,"y":2544378.25}},{"attributes":{"ID":643970,"DIS_CODE":0,"TOWNNAME":"安平區","LI":"金城里","LIN":" ","STREET":"安平路","SECT":" ","MAREA":" ","LANE":" ","ALLEY":" ","HOUSE_NO":"１８１之１號","E_COORD97":163979.25,"N_COORD97":2544539.5299999998,"ADDRESS":"安平路１８１之１號","OBJECTID":643943},"geometry":{"x":163979.25000000093,"y":2544539.5300000012}},{"attributes":{"ID":643971,"DIS_CODE":0,"TOWNNAME":"安平區","LI":"金城里","LIN":" ","STREET":"湖內二街","SECT":" ","MAREA":" ","LANE":" ","ALLEY":" ","HOUSE_NO":"５１號之２","E_COORD97":163756.5,"N_COORD97":2544353.3399999999,"ADDRESS":"湖內二街５１號之２","OBJECTID":643944},"geometry":{"x":163756.5,"y":2544353.3399999999}},{"attributes":{"ID":643972,"DIS_CODE":0,"TOWNNAME":"安平區","LI":"金城里","LIN":" ","STREET":"湖內一街","SECT":" ","MAREA":" ","LANE":" ","ALLEY":" ","HOUSE_NO":"７２號","E_COORD97":163743.31,"N_COORD97":2544331.2599999998,"ADDRESS":"湖內一街７２號","OBJECTID":643945},"geometry":{"x":163743.30999999959,"y":2544331.2600000016}},{"attributes":{"ID":643973,"DIS_CODE":0,"TOWNNAME":"安平區","LI":"金城里","LIN":" ","STREET":"世平五街","SECT":" ","MAREA":" ","LANE":" ","ALLEY":" ","HOUSE_NO":"５３號","E_COORD97":162869.25,"N_COORD97":2544174.71,"ADDRESS":"世平五街５３號","OBJECTID":643946},"geometry":{"x":162869.25,"y":2544174.7100000009}},{"attributes":{"ID":643974,"DIS_CODE":0,"TOWNNAME":"安平區","LI":"華平里","LIN":"32鄰","STREET":"永華八街","SECT":" ","MAREA":" ","LANE":" ","ALLEY":" ","HOUSE_NO":"２３６號","E_COORD97":165194.16,"N_COORD97":2543943.6299999999,"ADDRESS":"永華八街２３６號","OBJECTID":643947},"geometry":{"x":165194.16000000015,"y":2543943.629999999}},{"attributes":{"ID":643975,"DIS_CODE":0,"TOWNNAME":"安平區","LI":"文平里","LIN":"24鄰","STREET":"永華二街","SECT":" ","MAREA":" ","LANE":" ","ALLEY":" ","HOUSE_NO":"２１號","E_COORD97":166330.20999999999,"N_COORD97":2542883.3900000001,"ADDRESS":"永華二街２１號","OBJECTID":643948},"geometry":{"x":166330.21000000183,"y":2542883.3900000025}},{"attributes":{"ID":643976,"DIS_CODE":0,"TOWNNAME":"安平區","LI":"平安里","LIN":"13鄰","STREET":"安平路","SECT":" ","MAREA":" ","LANE":" ","ALLEY":" ","HOUSE_NO":"５０８號","E_COORD97":165110,"N_COORD97":2544341.6699999999,"ADDRESS":"安平路５０８號","OBJECTID":643949},"geometry":{"x":165110.00000000093,"y":2544341.6700000037}},{"attributes":{"ID":643977,"DIS_CODE":0,"TOWNNAME":"安平區","LI":"平安里","LIN":"4鄰","STREET":"安平路","SECT":" ","MAREA":" ","LANE":" ","ALLEY":" ","HOUSE_NO":"２１２號","E_COORD97":165985.39000000001,"N_COORD97":2544358.1000000001,"ADDRESS":"安平路２１２號","OBJECTID":643950},"geometry":{"x":165985.38999999966,"y":2544358.0999999996}},{"attributes":{"ID":643978,"DIS_CODE":0,"TOWNNAME":"安平區","LI":"平安里","LIN":"4鄰","STREET":"安平路","SECT":" ","MAREA":" ","LANE":" ","ALLEY":" ","HOUSE_NO":"２１６號","E_COORD97":165980.31,"N_COORD97":2544358.1000000001,"ADDRESS":"安平路２１６號","OBJECTID":643951},"geometry":{"x":165980.31000000052,"y":2544358.0999999996}},{"attributes":{"ID":643979,"DIS_CODE":0,"TOWNNAME":"安平區","LI":"平安里","LIN":"4鄰","STREET":"安平路","SECT":" ","MAREA":" ","LANE":" ","ALLEY":" ","HOUSE_NO":"１２２號","E_COORD97":166299.07000000001,"N_COORD97":2544335.0600000001,"ADDRESS":"安平路１２２號","OBJECTID":643952},"geometry":{"x":166299.0700000003,"y":2544335.0600000005}},{"attributes":{"ID":643980,"DIS_CODE":0,"TOWNNAME":"安平區","LI":"平安里","LIN":"4鄰","STREET":"安平路","SECT":" ","MAREA":" ","LANE":" ","ALLEY":" ","HOUSE_NO":"２１８號","E_COORD97":165973.95999999999,"N_COORD97":2544357.7799999998,"ADDRESS":"安平路２１８號","OBJECTID":643953},"geometry":{"x":165973.95999999996,"y":2544357.7800000012}},{"attributes":{"ID":643981,"DIS_CODE":0,"TOWNNAME":"安平區","LI":"平安里","LIN":"4鄰","STREET":"安平路","SECT":" ","MAREA":" ","LANE":" ","ALLEY":" ","HOUSE_NO":"２２０號","E_COORD97":165967.60999999999,"N_COORD97":2544357.7799999998,"ADDRESS":"安平路２２０號","OBJECTID":643954},"geometry":{"x":165967.61000000127,"y":2544357.7800000012}},{"attributes":{"ID":643982,"DIS_CODE":0,"TOWNNAME":"安平區","LI":"平安里","LIN":"4鄰","STREET":"安平路","SECT":" ","MAREA":" ","LANE":" ","ALLEY":" ","HOUSE_NO":"２２２號","E_COORD97":165962.53,"N_COORD97":2544357.9399999999,"ADDRESS":"安平路２２２號","OBJECTID":643955},"geometry":{"x":165962.53000000119,"y":2544357.9400000013}},{"attributes":{"ID":643983,"DIS_CODE":0,"TOWNNAME":"安平區","LI":"石門里","LIN":"19鄰","STREET":"安平路","SECT":" ","MAREA":" ","LANE":" ","ALLEY":" ","HOUSE_NO":"６８２號","E_COORD97":164590.59,"N_COORD97":2544467.0899999999,"ADDRESS":"安平路６８２號","OBJECTID":643956},"geometry":{"x":164590.59000000078,"y":2544467.0899999999}},{"attributes":{"ID":643984,"DIS_CODE":0,"TOWNNAME":"安平區","LI":"平安里","LIN":"4鄰","STREET":"安平路","SECT":" ","MAREA":" ","LANE":" ","ALLEY":" ","HOUSE_NO":"２３２之１號","E_COORD97":165906.01999999999,"N_COORD97":2544359.0699999998,"ADDRESS":"安平路２３２之１號","OBJECTID":643957},"geometry":{"x":165906.02000000048,"y":2544359.0700000003}},{"attributes":{"ID":643985,"DIS_CODE":0,"TOWNNAME":"安平區","LI":"平安里","LIN":"4鄰","STREET":"安平路","SECT":" ","MAREA":" ","LANE":" ","ALLEY":" ","HOUSE_NO":"２３２之２號","E_COORD97":165902.04999999999,"N_COORD97":2544359.8700000001,"ADDRESS":"安平路２３２之２號","OBJECTID":643958},"geometry":{"x":165902.04999999981,"y":2544359.8700000029}},{"attributes":{"ID":643986,"DIS_CODE":0,"TOWNNAME":"安平區","LI":"平安里","LIN":"4鄰","STREET":"安平路","SECT":" ","MAREA":" ","LANE":" ","ALLEY":" ","HOUSE_NO":"２３２之３號","E_COORD97":165897.76999999999,"N_COORD97":2544359.5499999998,"ADDRESS":"安平路２３２之３號","OBJECTID":643959},"geometry":{"x":165897.77000000048,"y":2544359.5500000007}},{"attributes":{"ID":643987,"DIS_CODE":0,"TOWNNAME":"安平區","LI":"金城里","LIN":"11鄰","STREET":"世平路","SECT":" ","MAREA":" ","LANE":" ","ALLEY":" ","HOUSE_NO":"１０之１號","E_COORD97":163048,"N_COORD97":2543851.9399999999,"ADDRESS":"世平路１０之１號","OBJECTID":643960},"geometry":{"x":163048.00000000186,"y":2543851.9400000013}},{"attributes":{"ID":643988,"DIS_CODE":0,"TOWNNAME":"安平區","LI":"石門里","LIN":"19鄰","STREET":"安平路","SECT":" ","MAREA":" ","LANE":" ","ALLEY":" ","HOUSE_NO":"６８４號","E_COORD97":164587.25,"N_COORD97":2544468.3599999999,"ADDRESS":"安平路６８４號","OBJECTID":643961},"geometry":{"x":164587.25000000186,"y":2544468.3599999994}},{"attributes":{"ID":643989,"DIS_CODE":0,"TOWNNAME":"安平區","LI":"平安里","LIN":"4鄰","STREET":"安平路","SECT":" ","MAREA":" ","LANE":" ","ALLEY":" ","HOUSE_NO":"２６４號","E_COORD97":165826.47,"N_COORD97":2544354.8799999999,"ADDRESS":"安平路２６４號","OBJECTID":643962},"geometry":{"x":165826.4700000016,"y":2544354.879999999}},{"attributes":{"ID":643990,"DIS_CODE":0,"TOWNNAME":"安平區","LI":"平安里","LIN":"4鄰","STREET":"安平路","SECT":" ","MAREA":" ","LANE":" ","ALLEY":" ","HOUSE_NO":"２６６號","E_COORD97":165822.48000000001,"N_COORD97":2544356.29,"ADDRESS":"安平路２６６號","OBJECTID":643963},"geometry":{"x":165822.48000000138,"y":2544356.2899999991}},{"attributes":{"ID":643991,"DIS_CODE":0,"TOWNNAME":"安平區","LI":"平安里","LIN":"4鄰","STREET":"安平路","SECT":" ","MAREA":" ","LANE":" ","ALLEY":" ","HOUSE_NO":"２７８號","E_COORD97":165797.12,"N_COORD97":2544352.5299999998,"ADDRESS":"安平路２７８號","OBJECTID":643964},"geometry":{"x":165797.12000000104,"y":2544352.5300000012}},{"attributes":{"ID":643992,"DIS_CODE":0,"TOWNNAME":"安平區","LI":"平安里","LIN":"8鄰","STREET":"安平路","SECT":" ","MAREA":" ","LANE":" ","ALLEY":" ","HOUSE_NO":"４１４號","E_COORD97":165366.37,"N_COORD97":2544325.8700000001,"ADDRESS":"安平路４１４號","OBJECTID":643965},"geometry":{"x":165366.37000000197,"y":2544325.8700000029}},{"attributes":{"ID":643993,"DIS_CODE":0,"TOWNNAME":"安平區","LI":"平安里","LIN":"8鄰","STREET":"安平路","SECT":" ","MAREA":" ","LANE":" ","ALLEY":" ","HOUSE_NO":"４２４號","E_COORD97":165335.17999999999,"N_COORD97":2544321.5600000001,"ADDRESS":"安平路４２４號","OBJECTID":643966},"geometry":{"x":165335.18000000063,"y":2544321.5600000005}},{"attributes":{"ID":643994,"DIS_CODE":0,"TOWNNAME":"安平區","LI":"平安里","LIN":"6鄰","STREET":"安平路","SECT":" ","MAREA":" ","LANE":" ","ALLEY":" ","HOUSE_NO":"３７４號","E_COORD97":165490.95999999999,"N_COORD97":2544340.7999999998,"ADDRESS":"安平路３７４號","OBJECTID":643967},"geometry":{"x":165490.95999999903,"y":2544340.8000000007}},{"attributes":{"ID":643995,"DIS_CODE":0,"TOWNNAME":"安平區","LI":"文平里","LIN":"1鄰","STREET":"永華二街","SECT":" ","MAREA":" ","LANE":" ","ALLEY":" ","HOUSE_NO":"１８０號","E_COORD97":166395.64000000001,"N_COORD97":2543230.02,"ADDRESS":"永華二街１８０號","OBJECTID":643968},"geometry":{"x":166395.63999999966,"y":2543230.0199999977}},{"attributes":{"ID":643996,"DIS_CODE":0,"TOWNNAME":"安平區","LI":"怡平里","LIN":"25鄰","STREET":"永華路","SECT":"二段","MAREA":" ","LANE":" ","ALLEY":" ","HOUSE_NO":"４６６號","E_COORD97":165558.26999999999,"N_COORD97":2543508.04,"ADDRESS":"永華路二段４６６號","OBJECTID":643969},"geometry":{"x":165558.27000000048,"y":2543508.040000001}},{"attributes":{"ID":643997,"DIS_CODE":0,"TOWNNAME":"安平區","LI":"平安里","LIN":"8鄰","STREET":"安平路","SECT":" ","MAREA":" ","LANE":" ","ALLEY":" ","HOUSE_NO":"４３４號","E_COORD97":165301.25,"N_COORD97":2544320.8700000001,"ADDRESS":"安平路４３４號","OBJECTID":643970},"geometry":{"x":165301.25000000093,"y":2544320.870000001}},{"attributes":{"ID":643998,"DIS_CODE":0,"TOWNNAME":"永康區","LI":"北灣里","LIN":"4鄰","STREET":"信義街","SECT":" ","MAREA":" ","LANE":" ","ALLEY":" ","HOUSE_NO":"１０５號","E_COORD97":175233.79000000001,"N_COORD97":2545636,"ADDRESS":"信義街１０５號","OBJECTID":643971},"geometry":{"x":175233.79000000004,"y":2545636.0000000019}},{"attributes":{"ID":643999,"DIS_CODE":0,"TOWNNAME":"永康區","LI":"永康里","LIN":"42鄰","STREET":"永信路","SECT":" ","MAREA":" ","LANE":" ","ALLEY":" ","HOUSE_NO":"５５號","E_COORD97":174111.07999999999,"N_COORD97":2546456.3599999999,"ADDRESS":"永信路５５號","OBJECTID":643972},"geometry":{"x":174111.08000000101,"y":2546456.3600000013}},{"attributes":{"ID":644000,"DIS_CODE":0,"TOWNNAME":"永康區","LI":"北灣里","LIN":"4鄰","STREET":"信義街","SECT":" ","MAREA":" ","LANE":" ","ALLEY":" ","HOUSE_NO":"１００號","E_COORD97":175261.41,"N_COORD97":2545654.8700000001,"ADDRESS":"信義街１００號","OBJECTID":643973},"geometry":{"x":175261.41000000108,"y":2545654.8700000029}},{"attributes":{"ID":644001,"DIS_CODE":0,"TOWNNAME":"永康區","LI":"正強里","LIN":"41鄰","STREET":"正強街","SECT":" ","MAREA":" ","LANE":" ","ALLEY":" ","HOUSE_NO":"２９２號二樓之１","E_COORD97":173302.98000000001,"N_COORD97":2547942.04,"ADDRESS":"正強街２９２號二樓之１","OBJECTID":643974},"geometry":{"x":173302.98000000231,"y":2547942.0399999972}},{"attributes":{"ID":644002,"DIS_CODE":0,"TOWNNAME":"鹽水區","LI":"橋南里","LIN":"17鄰","STREET":"治水路","SECT":" ","MAREA":" ","LANE":" ","ALLEY":" ","HOUSE_NO":"１４２號","E_COORD97":174667.39000000001,"N_COORD97":2579406.0099999998,"ADDRESS":"治水路１４２號","OBJECTID":643975},"geometry":{"x":174667.39000000153,"y":2579406.0100000035}},{"attributes":{"ID":644003,"DIS_CODE":0,"TOWNNAME":"鹽水區","LI":"橋南里","LIN":"17鄰","STREET":"治水路","SECT":" ","MAREA":" ","LANE":" ","ALLEY":" ","HOUSE_NO":"１４６號","E_COORD97":174664.88,"N_COORD97":2579409.2599999998,"ADDRESS":"治水路１４６號","OBJECTID":643976},"geometry":{"x":174664.88000000082,"y":2579409.2600000016}},{"attributes":{"ID":644004,"DIS_CODE":0,"TOWNNAME":"鹽水區","LI":"橋南里","LIN":"17鄰","STREET":"治水路","SECT":" ","MAREA":" ","LANE":" ","ALLEY":" ","HOUSE_NO":"１４８號","E_COORD97":174662.87,"N_COORD97":2579413.48,"ADDRESS":"治水路１４８號","OBJECTID":643977},"geometry":{"x":174662.87000000197,"y":2579413.4799999986}},{"attributes":{"ID":644005,"DIS_CODE":0,"TOWNNAME":"鹽水區","LI":"橋南里","LIN":"17鄰","STREET":"治水路","SECT":" ","MAREA":" ","LANE":" ","ALLEY":" ","HOUSE_NO":"１５０號","E_COORD97":174660.85000000001,"N_COORD97":2579417.7000000002,"ADDRESS":"治水路１５０號","OBJECTID":643978},"geometry":{"x":174660.85000000149,"y":2579417.700000003}},{"attributes":{"ID":644006,"DIS_CODE":0,"TOWNNAME":"鹽水區","LI":"橋南里","LIN":"17鄰","STREET":"治水路","SECT":" ","MAREA":" ","LANE":" ","ALLEY":" ","HOUSE_NO":"１５２號","E_COORD97":174658.84,"N_COORD97":2579421.9199999999,"ADDRESS":"治水路１５２號","OBJECTID":643979},"geometry":{"x":174658.83999999985,"y":2579421.9200000018}},{"attributes":{"ID":644007,"DIS_CODE":0,"TOWNNAME":"鹽水區","LI":"橋南里","LIN":"17鄰","STREET":"治水路","SECT":" ","MAREA":" ","LANE":" ","ALLEY":" ","HOUSE_NO":"１５４號","E_COORD97":174656.82000000001,"N_COORD97":2579426.1400000001,"ADDRESS":"治水路１５４號","OBJECTID":643980},"geometry":{"x":174656.82000000123,"y":2579426.1400000043}},{"attributes":{"ID":644008,"DIS_CODE":0,"TOWNNAME":"鹽水區","LI":"橋南里","LIN":"17鄰","STREET":"治水路","SECT":" ","MAREA":" ","LANE":" ","ALLEY":" ","HOUSE_NO":"１８號","E_COORD97":174791.76000000001,"N_COORD97":2579167.0699999998,"ADDRESS":"治水路１８號","OBJECTID":643981},"geometry":{"x":174791.75999999978,"y":2579167.0700000003}},{"attributes":{"ID":644009,"DIS_CODE":0,"TOWNNAME":"鹽水區","LI":"橋南里","LIN":"17鄰","STREET":"治水路","SECT":" ","MAREA":" ","LANE":" ","ALLEY":" ","HOUSE_NO":"２０號","E_COORD97":174782.32999999999,"N_COORD97":2579195.04,"ADDRESS":"治水路２０號","OBJECTID":643982},"geometry":{"x":174782.33000000101,"y":2579195.0400000028}},{"attributes":{"ID":644010,"DIS_CODE":0,"TOWNNAME":"鹽水區","LI":"橋南里","LIN":"17鄰","STREET":"治水路","SECT":" ","MAREA":" ","LANE":" ","ALLEY":" ","HOUSE_NO":"２１號","E_COORD97":174730.54999999999,"N_COORD97":2579226.3599999999,"ADDRESS":"治水路２１號","OBJECTID":643983},"geometry":{"x":174730.54999999981,"y":2579226.3599999994}},{"attributes":{"ID":644011,"DIS_CODE":0,"TOWNNAME":"鹽水區","LI":"橋南里","LIN":"17鄰","STREET":"治水路","SECT":" ","MAREA":" ","LANE":" ","ALLEY":" ","HOUSE_NO":"３５號","E_COORD97":174698.81,"N_COORD97":2579201.8500000001,"ADDRESS":"治水路３５號","OBJECTID":643984},"geometry":{"x":174698.81000000052,"y":2579201.8499999996}},{"attributes":{"ID":644012,"DIS_CODE":0,"TOWNNAME":"鹽水區","LI":"橋南里","LIN":"17鄰","STREET":"治水路","SECT":" ","MAREA":" ","LANE":" ","ALLEY":" ","HOUSE_NO":"４５號","E_COORD97":174598.72,"N_COORD97":2579334.96,"ADDRESS":"治水路４５號","OBJECTID":643985},"geometry":{"x":174598.71999999974,"y":2579334.9600000009}},{"attributes":{"ID":644013,"DIS_CODE":0,"TOWNNAME":"鹽水區","LI":"橋南里","LIN":"17鄰","STREET":"治水路","SECT":" ","MAREA":" ","LANE":" ","ALLEY":" ","HOUSE_NO":"７號","E_COORD97":174780.54999999999,"N_COORD97":2579129.3999999999,"ADDRESS":"治水路７號","OBJECTID":643986},"geometry":{"x":174780.55000000075,"y":2579129.4000000041}},{"attributes":{"ID":644014,"DIS_CODE":0,"TOWNNAME":"鹽水區","LI":"中境里","LIN":"11鄰","STREET":"治水路","SECT":" ","MAREA":" ","LANE":" ","ALLEY":" ","HOUSE_NO":"３８９號","E_COORD97":174616.94,"N_COORD97":2580298.7400000002,"ADDRESS":"治水路３８９號","OBJECTID":643987},"geometry":{"x":174616.94000000227,"y":2580298.7400000002}},{"attributes":{"ID":644015,"DIS_CODE":0,"TOWNNAME":"鹽水區","LI":"中境里","LIN":"11鄰","STREET":"治水路","SECT":" ","MAREA":" ","LANE":" ","ALLEY":" ","HOUSE_NO":"３９１號","E_COORD97":174617.04000000001,"N_COORD97":2580303.6499999999,"ADDRESS":"治水路３９１號","OBJECTID":643988},"geometry":{"x":174617.04000000004,"y":2580303.6500000004}},{"attributes":{"ID":644016,"DIS_CODE":0,"TOWNNAME":"鹽水區","LI":"中境里","LIN":"11鄰","STREET":"治水路","SECT":" ","MAREA":" ","LANE":" ","ALLEY":" ","HOUSE_NO":"３９３號","E_COORD97":174616.85000000001,"N_COORD97":2580308.1499999999,"ADDRESS":"治水路３９３號","OBJECTID":643989},"geometry":{"x":174616.85000000056,"y":2580308.1500000022}},{"attributes":{"ID":644017,"DIS_CODE":0,"TOWNNAME":"鹽水區","LI":"中境里","LIN":"11鄰","STREET":"治水路","SECT":" ","MAREA":" ","LANE":" ","ALLEY":" ","HOUSE_NO":"３９５號","E_COORD97":174616.66,"N_COORD97":2580312.6499999999,"ADDRESS":"治水路３９５號","OBJECTID":643990},"geometry":{"x":174616.66000000015,"y":2580312.6500000004}},{"attributes":{"ID":644018,"DIS_CODE":0,"TOWNNAME":"鹽水區","LI":"中境里","LIN":"11鄰","STREET":"治水路","SECT":" ","MAREA":" ","LANE":" ","ALLEY":" ","HOUSE_NO":"３９７號","E_COORD97":174616.47,"N_COORD97":2580317.1499999999,"ADDRESS":"治水路３９７號","OBJECTID":643991},"geometry":{"x":174616.47000000067,"y":2580317.1500000004}},{"attributes":{"ID":644019,"DIS_CODE":0,"TOWNNAME":"鹽水區","LI":"中境里","LIN":"11鄰","STREET":"治水路","SECT":" ","MAREA":" ","LANE":" ","ALLEY":" ","HOUSE_NO":"３９９號","E_COORD97":174616.28,"N_COORD97":2580321.6499999999,"ADDRESS":"治水路３９９號","OBJECTID":643992},"geometry":{"x":174616.28000000119,"y":2580321.6500000022}},{"attributes":{"ID":644020,"DIS_CODE":0,"TOWNNAME":"鹽水區","LI":"中境里","LIN":"11鄰","STREET":"治水路","SECT":" ","MAREA":" ","LANE":" ","ALLEY":" ","HOUSE_NO":"４０１號","E_COORD97":174616.09,"N_COORD97":2580326.1400000001,"ADDRESS":"治水路４０１號","OBJECTID":643993},"geometry":{"x":174616.09000000078,"y":2580326.1400000025}},{"attributes":{"ID":644021,"DIS_CODE":0,"TOWNNAME":"鹽水區","LI":"中境里","LIN":"11鄰","STREET":"治水路","SECT":" ","MAREA":" ","LANE":" ","ALLEY":" ","HOUSE_NO":"４０３號","E_COORD97":174615.89999999999,"N_COORD97":2580330.6499999999,"ADDRESS":"治水路４０３號","OBJECTID":643994},"geometry":{"x":174615.9000000013,"y":2580330.6500000004}},{"attributes":{"ID":644022,"DIS_CODE":0,"TOWNNAME":"鹽水區","LI":"中境里","LIN":"11鄰","STREET":"治水路","SECT":" ","MAREA":" ","LANE":" ","ALLEY":" ","HOUSE_NO":"４０５號","E_COORD97":174615.66,"N_COORD97":2580335.2799999998,"ADDRESS":"治水路４０５號","OBJECTID":643995},"geometry":{"x":174615.66000000108,"y":2580335.2799999993}},{"attributes":{"ID":644023,"DIS_CODE":0,"TOWNNAME":"永康區","LI":"正強里","LIN":"25鄰","STREET":"正強街","SECT":" ","MAREA":" ","LANE":" ","ALLEY":" ","HOUSE_NO":"２７６號","E_COORD97":173303.51999999999,"N_COORD97":2547832.9900000002,"ADDRESS":"正強街２７６號","OBJECTID":643996},"geometry":{"x":173303.52000000048,"y":2547832.9900000021}},{"attributes":{"ID":644024,"DIS_CODE":0,"TOWNNAME":"永康區","LI":"北灣里","LIN":"24鄰","STREET":"大灣路","SECT":" ","MAREA":" ","LANE":" ","ALLEY":" ","HOUSE_NO":"７號","E_COORD97":175363.38,"N_COORD97":2545941.0699999998,"ADDRESS":"大灣路７號","OBJECTID":643997},"geometry":{"x":175363.38000000082,"y":2545941.0700000022}},{"attributes":{"ID":644025,"DIS_CODE":0,"TOWNNAME":"鹽水區","LI":"橋南里","LIN":"14鄰","STREET":"南門路","SECT":" ","MAREA":" ","LANE":" ","ALLEY":" ","HOUSE_NO":"１１號","E_COORD97":175044.35000000001,"N_COORD97":2579485.8399999999,"ADDRESS":"南門路１１號","OBJECTID":643998},"geometry":{"x":175044.35000000056,"y":2579485.8400000017}},{"attributes":{"ID":644026,"DIS_CODE":0,"TOWNNAME":"鹽水區","LI":"橋南里","LIN":"15鄰","STREET":"南門路","SECT":" ","MAREA":" ","LANE":" ","ALLEY":" ","HOUSE_NO":"１０號","E_COORD97":175033.06,"N_COORD97":2579449.8999999999,"ADDRESS":"南門路１０號","OBJECTID":643999},"geometry":{"x":175033.05999999959,"y":2579449.9000000004}},{"attributes":{"ID":644027,"DIS_CODE":0,"TOWNNAME":"鹽水區","LI":"橋南里","LIN":"6鄰","STREET":"南門路","SECT":" ","MAREA":" ","LANE":" ","ALLEY":" ","HOUSE_NO":"１１５號","E_COORD97":175282.67000000001,"N_COORD97":2579156.71,"ADDRESS":"南門路１１５號","OBJECTID":644000},"geometry":{"x":175282.67000000179,"y":2579156.7100000009}}]}