{"displayFieldName":"TOWNNAME","fieldAliases":{"ID":"ID","DIS_CODE":"DIS_CODE","TOWNNAME":"TOWNNAME","LI":"LI","LIN":"LIN","STREET":"STREET","SECT":"SECT","MAREA":"MAREA","LANE":"LANE","ALLEY":"ALLEY","HOUSE_NO":"HOUSE_NO","E_COORD97":"E_COORD97","N_COORD97":"N_COORD97","ADDRESS":"ADDRESS","OBJECTID":"OBJECTID"},"geometryType":"esriGeometryPoint","spatialReference":{"wkid":102443,"latestWkid":3826},"fields":[{"name":"ID","type":"esriFieldTypeDouble","alias":"ID"},{"name":"DIS_CODE","type":"esriFieldTypeInteger","alias":"DIS_CODE"},{"name":"TOWNNAME","type":"esriFieldTypeString","alias":"TOWNNAME","length":8},{"name":"LI","type":"esriFieldTypeString","alias":"LI","length":8},{"name":"LIN","type":"esriFieldTypeString","alias":"LIN","length":12},{"name":"STREET","type":"esriFieldTypeString","alias":"STREET","length":20},{"name":"SECT","type":"esriFieldTypeString","alias":"SECT","length":8},{"name":"MAREA","type":"esriFieldTypeString","alias":"MAREA","length":12},{"name":"LANE","type":"esriFieldTypeString","alias":"LANE","length":10},{"name":"ALLEY","type":"esriFieldTypeString","alias":"ALLEY","length":10},{"name":"HOUSE_NO","type":"esriFieldTypeString","alias":"HOUSE_NO","length":20},{"name":"E_COORD97","type":"esriFieldTypeDouble","alias":"E_COORD97"},{"name":"N_COORD97","type":"esriFieldTypeDouble","alias":"N_COORD97"},{"name":"ADDRESS","type":"esriFieldTypeString","alias":"ADDRESS","length":50},{"name":"OBJECTID","type":"esriFieldTypeOID","alias":"OBJECTID"}],"features":[{"attributes":{"ID":426826,"DIS_CODE":0,"TOWNNAME":"北區","LI":"賢北里","LIN":"4鄰","STREET":"中華北路","SECT":"一段","MAREA":" ","LANE":"１０５巷","ALLEY":" ","HOUSE_NO":"４６號七樓之９","E_COORD97":166368.51999999999,"N_COORD97":2545489.8199999998,"ADDRESS":"中華北路一段１０５巷４６號七樓之９","OBJECTID":426801},"geometry":{"x":166368.52000000048,"y":2545489.8200000003}},{"attributes":{"ID":426827,"DIS_CODE":0,"TOWNNAME":"北區","LI":"賢北里","LIN":"4鄰","STREET":"中華北路","SECT":"一段","MAREA":" ","LANE":"１０５巷","ALLEY":" ","HOUSE_NO":"４６號二樓之１","E_COORD97":166368.51999999999,"N_COORD97":2545489.8199999998,"ADDRESS":"中華北路一段１０５巷４６號二樓之１","OBJECTID":426802},"geometry":{"x":166368.52000000048,"y":2545489.8200000003}},{"attributes":{"ID":426828,"DIS_CODE":0,"TOWNNAME":"北區","LI":"賢北里","LIN":"4鄰","STREET":"中華北路","SECT":"一段","MAREA":" ","LANE":"１０５巷","ALLEY":" ","HOUSE_NO":"４６號二樓之１０","E_COORD97":166368.51999999999,"N_COORD97":2545489.8199999998,"ADDRESS":"中華北路一段１０５巷４６號二樓之１０","OBJECTID":426803},"geometry":{"x":166368.52000000048,"y":2545489.8200000003}},{"attributes":{"ID":426829,"DIS_CODE":0,"TOWNNAME":"北區","LI":"賢北里","LIN":"4鄰","STREET":"中華北路","SECT":"一段","MAREA":" ","LANE":"１０５巷","ALLEY":" ","HOUSE_NO":"４６號二樓之１１","E_COORD97":166368.51999999999,"N_COORD97":2545489.8199999998,"ADDRESS":"中華北路一段１０５巷４６號二樓之１１","OBJECTID":426804},"geometry":{"x":166368.52000000048,"y":2545489.8200000003}},{"attributes":{"ID":426830,"DIS_CODE":0,"TOWNNAME":"北區","LI":"賢北里","LIN":"4鄰","STREET":"中華北路","SECT":"一段","MAREA":" ","LANE":"１０５巷","ALLEY":" ","HOUSE_NO":"４６號二樓之２","E_COORD97":166368.51999999999,"N_COORD97":2545489.8199999998,"ADDRESS":"中華北路一段１０５巷４６號二樓之２","OBJECTID":426805},"geometry":{"x":166368.52000000048,"y":2545489.8200000003}},{"attributes":{"ID":426831,"DIS_CODE":0,"TOWNNAME":"東區","LI":"崇學里","LIN":"4鄰","STREET":"崇學路","SECT":" ","MAREA":" ","LANE":"５６巷","ALLEY":" ","HOUSE_NO":"３１號","E_COORD97":170337.57999999999,"N_COORD97":2542045.3700000001,"ADDRESS":"崇學路５６巷３１號","OBJECTID":426806},"geometry":{"x":170337.58000000101,"y":2542045.370000001}},{"attributes":{"ID":426832,"DIS_CODE":0,"TOWNNAME":"北區","LI":"賢北里","LIN":"4鄰","STREET":"中華北路","SECT":"一段","MAREA":" ","LANE":"１０５巷","ALLEY":" ","HOUSE_NO":"４６號二樓之３","E_COORD97":166368.51999999999,"N_COORD97":2545489.8199999998,"ADDRESS":"中華北路一段１０５巷４６號二樓之３","OBJECTID":426807},"geometry":{"x":166368.52000000048,"y":2545489.8200000003}},{"attributes":{"ID":426833,"DIS_CODE":0,"TOWNNAME":"北區","LI":"賢北里","LIN":"4鄰","STREET":"中華北路","SECT":"一段","MAREA":" ","LANE":"１０５巷","ALLEY":" ","HOUSE_NO":"４６號二樓之４","E_COORD97":166368.51999999999,"N_COORD97":2545489.8199999998,"ADDRESS":"中華北路一段１０５巷４６號二樓之４","OBJECTID":426808},"geometry":{"x":166368.52000000048,"y":2545489.8200000003}},{"attributes":{"ID":426834,"DIS_CODE":0,"TOWNNAME":"北區","LI":"賢北里","LIN":"4鄰","STREET":"中華北路","SECT":"一段","MAREA":" ","LANE":"１０５巷","ALLEY":" ","HOUSE_NO":"４６號二樓之５","E_COORD97":166368.51999999999,"N_COORD97":2545489.8199999998,"ADDRESS":"中華北路一段１０５巷４６號二樓之５","OBJECTID":426809},"geometry":{"x":166368.52000000048,"y":2545489.8200000003}},{"attributes":{"ID":426835,"DIS_CODE":0,"TOWNNAME":"北區","LI":"賢北里","LIN":"4鄰","STREET":"中華北路","SECT":"一段","MAREA":" ","LANE":"１０５巷","ALLEY":" ","HOUSE_NO":"４６號二樓之６","E_COORD97":166368.51999999999,"N_COORD97":2545489.8199999998,"ADDRESS":"中華北路一段１０５巷４６號二樓之６","OBJECTID":426810},"geometry":{"x":166368.52000000048,"y":2545489.8200000003}},{"attributes":{"ID":426836,"DIS_CODE":0,"TOWNNAME":"北區","LI":"賢北里","LIN":"4鄰","STREET":"中華北路","SECT":"一段","MAREA":" ","LANE":"１０５巷","ALLEY":" ","HOUSE_NO":"４６號二樓之７","E_COORD97":166368.51999999999,"N_COORD97":2545489.8199999998,"ADDRESS":"中華北路一段１０５巷４６號二樓之７","OBJECTID":426811},"geometry":{"x":166368.52000000048,"y":2545489.8200000003}},{"attributes":{"ID":426837,"DIS_CODE":0,"TOWNNAME":"北區","LI":"賢北里","LIN":"4鄰","STREET":"中華北路","SECT":"一段","MAREA":" ","LANE":"１０５巷","ALLEY":" ","HOUSE_NO":"４６號二樓之８","E_COORD97":166368.51999999999,"N_COORD97":2545489.8199999998,"ADDRESS":"中華北路一段１０５巷４６號二樓之８","OBJECTID":426812},"geometry":{"x":166368.52000000048,"y":2545489.8200000003}},{"attributes":{"ID":426838,"DIS_CODE":0,"TOWNNAME":"北區","LI":"賢北里","LIN":"4鄰","STREET":"中華北路","SECT":"一段","MAREA":" ","LANE":"１０５巷","ALLEY":" ","HOUSE_NO":"４６號二樓之９","E_COORD97":166368.51999999999,"N_COORD97":2545489.8199999998,"ADDRESS":"中華北路一段１０５巷４６號二樓之９","OBJECTID":426813},"geometry":{"x":166368.52000000048,"y":2545489.8200000003}},{"attributes":{"ID":426839,"DIS_CODE":0,"TOWNNAME":"北區","LI":"賢北里","LIN":"4鄰","STREET":"中華北路","SECT":"一段","MAREA":" ","LANE":"１０５巷","ALLEY":" ","HOUSE_NO":"４６號八樓之１","E_COORD97":166368.51999999999,"N_COORD97":2545489.8199999998,"ADDRESS":"中華北路一段１０５巷４６號八樓之１","OBJECTID":426814},"geometry":{"x":166368.52000000048,"y":2545489.8200000003}},{"attributes":{"ID":426840,"DIS_CODE":0,"TOWNNAME":"北區","LI":"賢北里","LIN":"4鄰","STREET":"中華北路","SECT":"一段","MAREA":" ","LANE":"１０５巷","ALLEY":" ","HOUSE_NO":"４６號八樓之２","E_COORD97":166368.51999999999,"N_COORD97":2545489.8199999998,"ADDRESS":"中華北路一段１０５巷４６號八樓之２","OBJECTID":426815},"geometry":{"x":166368.52000000048,"y":2545489.8200000003}},{"attributes":{"ID":426841,"DIS_CODE":0,"TOWNNAME":"永康區","LI":"大橋里","LIN":"18鄰","STREET":"大橋一街","SECT":" ","MAREA":" ","LANE":"１３９巷","ALLEY":" ","HOUSE_NO":"５２號","E_COORD97":170966.04999999999,"N_COORD97":2546643.75,"ADDRESS":"大橋一街１３９巷５２號","OBJECTID":426816},"geometry":{"x":170966.05000000075,"y":2546643.7500000019}},{"attributes":{"ID":426842,"DIS_CODE":0,"TOWNNAME":"永康區","LI":"三合里","LIN":"24鄰","STREET":"南工街","SECT":" ","MAREA":" ","LANE":"３１１巷","ALLEY":" ","HOUSE_NO":"７３號","E_COORD97":171797.82000000001,"N_COORD97":2545832.25,"ADDRESS":"南工街３１１巷７３號","OBJECTID":426817},"geometry":{"x":171797.8200000003,"y":2545832.25}},{"attributes":{"ID":426843,"DIS_CODE":0,"TOWNNAME":"北區","LI":"賢北里","LIN":"4鄰","STREET":"中華北路","SECT":"一段","MAREA":" ","LANE":"１０５巷","ALLEY":" ","HOUSE_NO":"４６號八樓之３","E_COORD97":166368.51999999999,"N_COORD97":2545489.8199999998,"ADDRESS":"中華北路一段１０５巷４６號八樓之３","OBJECTID":426818},"geometry":{"x":166368.52000000048,"y":2545489.8200000003}},{"attributes":{"ID":426844,"DIS_CODE":0,"TOWNNAME":"北區","LI":"賢北里","LIN":"4鄰","STREET":"中華北路","SECT":"一段","MAREA":" ","LANE":"１０５巷","ALLEY":" ","HOUSE_NO":"４６號八樓之４","E_COORD97":166368.51999999999,"N_COORD97":2545489.8199999998,"ADDRESS":"中華北路一段１０５巷４６號八樓之４","OBJECTID":426819},"geometry":{"x":166368.52000000048,"y":2545489.8200000003}},{"attributes":{"ID":426845,"DIS_CODE":0,"TOWNNAME":"北區","LI":"賢北里","LIN":"4鄰","STREET":"中華北路","SECT":"一段","MAREA":" ","LANE":"１０５巷","ALLEY":" ","HOUSE_NO":"４６號八樓之５","E_COORD97":166368.51999999999,"N_COORD97":2545489.8199999998,"ADDRESS":"中華北路一段１０５巷４６號八樓之５","OBJECTID":426820},"geometry":{"x":166368.52000000048,"y":2545489.8200000003}},{"attributes":{"ID":426846,"DIS_CODE":0,"TOWNNAME":"北區","LI":"賢北里","LIN":"4鄰","STREET":"中華北路","SECT":"一段","MAREA":" ","LANE":"１０５巷","ALLEY":" ","HOUSE_NO":"４６號三樓之１","E_COORD97":166368.51999999999,"N_COORD97":2545489.8199999998,"ADDRESS":"中華北路一段１０５巷４６號三樓之１","OBJECTID":426821},"geometry":{"x":166368.52000000048,"y":2545489.8200000003}},{"attributes":{"ID":426847,"DIS_CODE":0,"TOWNNAME":"北區","LI":"賢北里","LIN":"4鄰","STREET":"中華北路","SECT":"一段","MAREA":" ","LANE":"１０５巷","ALLEY":" ","HOUSE_NO":"４６號三樓之１０","E_COORD97":166368.51999999999,"N_COORD97":2545489.8199999998,"ADDRESS":"中華北路一段１０５巷４６號三樓之１０","OBJECTID":426822},"geometry":{"x":166368.52000000048,"y":2545489.8200000003}},{"attributes":{"ID":426848,"DIS_CODE":0,"TOWNNAME":"北區","LI":"賢北里","LIN":"4鄰","STREET":"中華北路","SECT":"一段","MAREA":" ","LANE":"１０５巷","ALLEY":" ","HOUSE_NO":"４６號三樓之１１","E_COORD97":166368.51999999999,"N_COORD97":2545489.8199999998,"ADDRESS":"中華北路一段１０５巷４６號三樓之１１","OBJECTID":426823},"geometry":{"x":166368.52000000048,"y":2545489.8200000003}},{"attributes":{"ID":426849,"DIS_CODE":0,"TOWNNAME":"北區","LI":"賢北里","LIN":"4鄰","STREET":"中華北路","SECT":"一段","MAREA":" ","LANE":"１０５巷","ALLEY":" ","HOUSE_NO":"４６號三樓之２","E_COORD97":166368.51999999999,"N_COORD97":2545489.8199999998,"ADDRESS":"中華北路一段１０５巷４６號三樓之２","OBJECTID":426824},"geometry":{"x":166368.52000000048,"y":2545489.8200000003}},{"attributes":{"ID":426850,"DIS_CODE":0,"TOWNNAME":"北區","LI":"賢北里","LIN":"4鄰","STREET":"中華北路","SECT":"一段","MAREA":" ","LANE":"１０５巷","ALLEY":" ","HOUSE_NO":"４６號三樓之３","E_COORD97":166368.51999999999,"N_COORD97":2545489.8199999998,"ADDRESS":"中華北路一段１０５巷４６號三樓之３","OBJECTID":426825},"geometry":{"x":166368.52000000048,"y":2545489.8200000003}},{"attributes":{"ID":426851,"DIS_CODE":0,"TOWNNAME":"中西區","LI":"永華里","LIN":"14鄰","STREET":"開山路","SECT":" ","MAREA":" ","LANE":"５２巷","ALLEY":" ","HOUSE_NO":"９號","E_COORD97":168629.95999999999,"N_COORD97":2543451.2000000002,"ADDRESS":"開山路５２巷９號","OBJECTID":426826},"geometry":{"x":168629.95999999996,"y":2543451.1999999993}},{"attributes":{"ID":426852,"DIS_CODE":0,"TOWNNAME":"北區","LI":"賢北里","LIN":"4鄰","STREET":"中華北路","SECT":"一段","MAREA":" ","LANE":"１０５巷","ALLEY":" ","HOUSE_NO":"４６號三樓之４","E_COORD97":166368.51999999999,"N_COORD97":2545489.8199999998,"ADDRESS":"中華北路一段１０５巷４６號三樓之４","OBJECTID":426827},"geometry":{"x":166368.52000000048,"y":2545489.8200000003}},{"attributes":{"ID":426853,"DIS_CODE":0,"TOWNNAME":"北區","LI":"賢北里","LIN":"4鄰","STREET":"中華北路","SECT":"一段","MAREA":" ","LANE":"１０５巷","ALLEY":" ","HOUSE_NO":"４６號三樓之５","E_COORD97":166368.51999999999,"N_COORD97":2545489.8199999998,"ADDRESS":"中華北路一段１０５巷４６號三樓之５","OBJECTID":426828},"geometry":{"x":166368.52000000048,"y":2545489.8200000003}},{"attributes":{"ID":426854,"DIS_CODE":0,"TOWNNAME":"北區","LI":"賢北里","LIN":"4鄰","STREET":"中華北路","SECT":"一段","MAREA":" ","LANE":"１０５巷","ALLEY":" ","HOUSE_NO":"４６號三樓之６","E_COORD97":166368.51999999999,"N_COORD97":2545489.8199999998,"ADDRESS":"中華北路一段１０５巷４６號三樓之６","OBJECTID":426829},"geometry":{"x":166368.52000000048,"y":2545489.8200000003}},{"attributes":{"ID":426855,"DIS_CODE":0,"TOWNNAME":"北區","LI":"賢北里","LIN":"4鄰","STREET":"中華北路","SECT":"一段","MAREA":" ","LANE":"１０５巷","ALLEY":" ","HOUSE_NO":"４６號三樓之７","E_COORD97":166368.51999999999,"N_COORD97":2545489.8199999998,"ADDRESS":"中華北路一段１０５巷４６號三樓之７","OBJECTID":426830},"geometry":{"x":166368.52000000048,"y":2545489.8200000003}},{"attributes":{"ID":426856,"DIS_CODE":0,"TOWNNAME":"北區","LI":"賢北里","LIN":"4鄰","STREET":"中華北路","SECT":"一段","MAREA":" ","LANE":"１０５巷","ALLEY":" ","HOUSE_NO":"４６號三樓之８","E_COORD97":166368.51999999999,"N_COORD97":2545489.8199999998,"ADDRESS":"中華北路一段１０５巷４６號三樓之８","OBJECTID":426831},"geometry":{"x":166368.52000000048,"y":2545489.8200000003}},{"attributes":{"ID":426857,"DIS_CODE":0,"TOWNNAME":"北區","LI":"賢北里","LIN":"4鄰","STREET":"中華北路","SECT":"一段","MAREA":" ","LANE":"１０５巷","ALLEY":" ","HOUSE_NO":"４６號三樓之９","E_COORD97":166368.51999999999,"N_COORD97":2545489.8199999998,"ADDRESS":"中華北路一段１０５巷４６號三樓之９","OBJECTID":426832},"geometry":{"x":166368.52000000048,"y":2545489.8200000003}},{"attributes":{"ID":426858,"DIS_CODE":0,"TOWNNAME":"北區","LI":"賢北里","LIN":"4鄰","STREET":"中華北路","SECT":"一段","MAREA":" ","LANE":"１０５巷","ALLEY":" ","HOUSE_NO":"４６號五樓之１","E_COORD97":166368.51999999999,"N_COORD97":2545489.8199999998,"ADDRESS":"中華北路一段１０５巷４６號五樓之１","OBJECTID":426833},"geometry":{"x":166368.52000000048,"y":2545489.8200000003}},{"attributes":{"ID":426859,"DIS_CODE":0,"TOWNNAME":"東區","LI":"崇學里","LIN":"4鄰","STREET":"崇學路","SECT":" ","MAREA":" ","LANE":"５６巷","ALLEY":" ","HOUSE_NO":"３２號","E_COORD97":170286.01000000001,"N_COORD97":2542054.8399999999,"ADDRESS":"崇學路５６巷３２號","OBJECTID":426834},"geometry":{"x":170286.00999999978,"y":2542054.8399999999}},{"attributes":{"ID":426860,"DIS_CODE":0,"TOWNNAME":"北區","LI":"賢北里","LIN":"4鄰","STREET":"中華北路","SECT":"一段","MAREA":" ","LANE":"１０５巷","ALLEY":" ","HOUSE_NO":"４６號五樓之１０","E_COORD97":166368.51999999999,"N_COORD97":2545489.8199999998,"ADDRESS":"中華北路一段１０５巷４６號五樓之１０","OBJECTID":426835},"geometry":{"x":166368.52000000048,"y":2545489.8200000003}},{"attributes":{"ID":426861,"DIS_CODE":0,"TOWNNAME":"北區","LI":"賢北里","LIN":"4鄰","STREET":"中華北路","SECT":"一段","MAREA":" ","LANE":"１０５巷","ALLEY":" ","HOUSE_NO":"４６號五樓之１１","E_COORD97":166368.51999999999,"N_COORD97":2545489.8199999998,"ADDRESS":"中華北路一段１０５巷４６號五樓之１１","OBJECTID":426836},"geometry":{"x":166368.52000000048,"y":2545489.8200000003}},{"attributes":{"ID":426862,"DIS_CODE":0,"TOWNNAME":"北區","LI":"賢北里","LIN":"4鄰","STREET":"中華北路","SECT":"一段","MAREA":" ","LANE":"１０５巷","ALLEY":" ","HOUSE_NO":"４６號五樓之２","E_COORD97":166368.51999999999,"N_COORD97":2545489.8199999998,"ADDRESS":"中華北路一段１０５巷４６號五樓之２","OBJECTID":426837},"geometry":{"x":166368.52000000048,"y":2545489.8200000003}},{"attributes":{"ID":426863,"DIS_CODE":0,"TOWNNAME":"北區","LI":"賢北里","LIN":"4鄰","STREET":"中華北路","SECT":"一段","MAREA":" ","LANE":"１０５巷","ALLEY":" ","HOUSE_NO":"４６號五樓之３","E_COORD97":166368.51999999999,"N_COORD97":2545489.8199999998,"ADDRESS":"中華北路一段１０５巷４６號五樓之３","OBJECTID":426838},"geometry":{"x":166368.52000000048,"y":2545489.8200000003}},{"attributes":{"ID":426864,"DIS_CODE":0,"TOWNNAME":"北區","LI":"賢北里","LIN":"4鄰","STREET":"中華北路","SECT":"一段","MAREA":" ","LANE":"１０５巷","ALLEY":" ","HOUSE_NO":"４６號五樓之１２","E_COORD97":166368.51999999999,"N_COORD97":2545489.8199999998,"ADDRESS":"中華北路一段１０５巷４６號五樓之１２","OBJECTID":426839},"geometry":{"x":166368.52000000048,"y":2545489.8200000003}},{"attributes":{"ID":426865,"DIS_CODE":0,"TOWNNAME":"北區","LI":"賢北里","LIN":"4鄰","STREET":"中華北路","SECT":"一段","MAREA":" ","LANE":"１０５巷","ALLEY":" ","HOUSE_NO":"４６號五樓之５","E_COORD97":166368.51999999999,"N_COORD97":2545489.8199999998,"ADDRESS":"中華北路一段１０５巷４６號五樓之５","OBJECTID":426840},"geometry":{"x":166368.52000000048,"y":2545489.8200000003}},{"attributes":{"ID":426866,"DIS_CODE":0,"TOWNNAME":"北區","LI":"賢北里","LIN":"4鄰","STREET":"中華北路","SECT":"一段","MAREA":" ","LANE":"１０５巷","ALLEY":" ","HOUSE_NO":"４６號五樓之６","E_COORD97":166368.51999999999,"N_COORD97":2545489.8199999998,"ADDRESS":"中華北路一段１０５巷４６號五樓之６","OBJECTID":426841},"geometry":{"x":166368.52000000048,"y":2545489.8200000003}},{"attributes":{"ID":426867,"DIS_CODE":0,"TOWNNAME":"北區","LI":"賢北里","LIN":"4鄰","STREET":"中華北路","SECT":"一段","MAREA":" ","LANE":"１０５巷","ALLEY":" ","HOUSE_NO":"４６號五樓之７","E_COORD97":166368.51999999999,"N_COORD97":2545489.8199999998,"ADDRESS":"中華北路一段１０５巷４６號五樓之７","OBJECTID":426842},"geometry":{"x":166368.52000000048,"y":2545489.8200000003}},{"attributes":{"ID":426868,"DIS_CODE":0,"TOWNNAME":"北區","LI":"賢北里","LIN":"4鄰","STREET":"中華北路","SECT":"一段","MAREA":" ","LANE":"１０５巷","ALLEY":" ","HOUSE_NO":"４６號五樓之８","E_COORD97":166368.51999999999,"N_COORD97":2545489.8199999998,"ADDRESS":"中華北路一段１０５巷４６號五樓之８","OBJECTID":426843},"geometry":{"x":166368.52000000048,"y":2545489.8200000003}},{"attributes":{"ID":426869,"DIS_CODE":0,"TOWNNAME":"永康區","LI":"二王里","LIN":"46鄰","STREET":"南工街","SECT":" ","MAREA":" ","LANE":"２１２巷","ALLEY":" ","HOUSE_NO":"５號","E_COORD97":172072.28,"N_COORD97":2545963.8199999998,"ADDRESS":"南工街２１２巷５號","OBJECTID":426844},"geometry":{"x":172072.28000000119,"y":2545963.8200000003}},{"attributes":{"ID":426870,"DIS_CODE":0,"TOWNNAME":"北區","LI":"賢北里","LIN":"4鄰","STREET":"中華北路","SECT":"一段","MAREA":" ","LANE":"１０５巷","ALLEY":" ","HOUSE_NO":"４６號五樓之９","E_COORD97":166368.51999999999,"N_COORD97":2545489.8199999998,"ADDRESS":"中華北路一段１０５巷４６號五樓之９","OBJECTID":426845},"geometry":{"x":166368.52000000048,"y":2545489.8200000003}},{"attributes":{"ID":426871,"DIS_CODE":0,"TOWNNAME":"北區","LI":"賢北里","LIN":"4鄰","STREET":"中華北路","SECT":"一段","MAREA":" ","LANE":"１０５巷","ALLEY":" ","HOUSE_NO":"４６號六樓之１","E_COORD97":166368.51999999999,"N_COORD97":2545489.8199999998,"ADDRESS":"中華北路一段１０５巷４６號六樓之１","OBJECTID":426846},"geometry":{"x":166368.52000000048,"y":2545489.8200000003}},{"attributes":{"ID":426872,"DIS_CODE":0,"TOWNNAME":"北區","LI":"賢北里","LIN":"4鄰","STREET":"中華北路","SECT":"一段","MAREA":" ","LANE":"１０５巷","ALLEY":" ","HOUSE_NO":"４６號六樓之１０","E_COORD97":166368.51999999999,"N_COORD97":2545489.8199999998,"ADDRESS":"中華北路一段１０５巷４６號六樓之１０","OBJECTID":426847},"geometry":{"x":166368.52000000048,"y":2545489.8200000003}},{"attributes":{"ID":426873,"DIS_CODE":0,"TOWNNAME":"南區","LI":"新生里","LIN":"4鄰","STREET":"大同路","SECT":"二段","MAREA":" ","LANE":"１８６巷","ALLEY":" ","HOUSE_NO":"７號七樓之１","E_COORD97":169284.39000000001,"N_COORD97":2541921.7200000002,"ADDRESS":"大同路二段１８６巷７號七樓之１","OBJECTID":426848},"geometry":{"x":169284.38999999966,"y":2541921.7200000025}},{"attributes":{"ID":426874,"DIS_CODE":0,"TOWNNAME":"北區","LI":"賢北里","LIN":"4鄰","STREET":"中華北路","SECT":"一段","MAREA":" ","LANE":"１０５巷","ALLEY":" ","HOUSE_NO":"４６號六樓之１１","E_COORD97":166368.51999999999,"N_COORD97":2545489.8199999998,"ADDRESS":"中華北路一段１０５巷４６號六樓之１１","OBJECTID":426849},"geometry":{"x":166368.52000000048,"y":2545489.8200000003}},{"attributes":{"ID":426875,"DIS_CODE":0,"TOWNNAME":"北區","LI":"賢北里","LIN":"4鄰","STREET":"中華北路","SECT":"一段","MAREA":" ","LANE":"１０５巷","ALLEY":" ","HOUSE_NO":"４６號六樓之２","E_COORD97":166368.51999999999,"N_COORD97":2545489.8199999998,"ADDRESS":"中華北路一段１０５巷４６號六樓之２","OBJECTID":426850},"geometry":{"x":166368.52000000048,"y":2545489.8200000003}},{"attributes":{"ID":426876,"DIS_CODE":0,"TOWNNAME":"北區","LI":"賢北里","LIN":"4鄰","STREET":"中華北路","SECT":"一段","MAREA":" ","LANE":"１０５巷","ALLEY":" ","HOUSE_NO":"４６號六樓之３","E_COORD97":166368.51999999999,"N_COORD97":2545489.8199999998,"ADDRESS":"中華北路一段１０５巷４６號六樓之３","OBJECTID":426851},"geometry":{"x":166368.52000000048,"y":2545489.8200000003}},{"attributes":{"ID":426877,"DIS_CODE":0,"TOWNNAME":"永康區","LI":"三合里","LIN":"4鄰","STREET":"中華二路","SECT":" ","MAREA":" ","LANE":"８８巷","ALLEY":" ","HOUSE_NO":"３１號","E_COORD97":172071.54000000001,"N_COORD97":2545552.7999999998,"ADDRESS":"中華二路８８巷３１號","OBJECTID":426852},"geometry":{"x":172071.54000000097,"y":2545552.8000000026}},{"attributes":{"ID":426878,"DIS_CODE":0,"TOWNNAME":"北區","LI":"賢北里","LIN":"4鄰","STREET":"中華北路","SECT":"一段","MAREA":" ","LANE":"１０５巷","ALLEY":" ","HOUSE_NO":"４６號六樓之４","E_COORD97":166368.51999999999,"N_COORD97":2545489.8199999998,"ADDRESS":"中華北路一段１０５巷４６號六樓之４","OBJECTID":426853},"geometry":{"x":166368.52000000048,"y":2545489.8200000003}},{"attributes":{"ID":426879,"DIS_CODE":0,"TOWNNAME":"永康區","LI":"勝利里","LIN":"40鄰","STREET":"中華一路","SECT":" ","MAREA":" ","LANE":" ","ALLEY":" ","HOUSE_NO":"１８０號","E_COORD97":171509.23999999999,"N_COORD97":2544979.9900000002,"ADDRESS":"中華一路１８０號","OBJECTID":426854},"geometry":{"x":171509.24000000115,"y":2544979.9900000002}},{"attributes":{"ID":426880,"DIS_CODE":0,"TOWNNAME":"北區","LI":"賢北里","LIN":"4鄰","STREET":"中華北路","SECT":"一段","MAREA":" ","LANE":"１０５巷","ALLEY":" ","HOUSE_NO":"４６號六樓之５","E_COORD97":166368.51999999999,"N_COORD97":2545489.8199999998,"ADDRESS":"中華北路一段１０５巷４６號六樓之５","OBJECTID":426855},"geometry":{"x":166368.52000000048,"y":2545489.8200000003}},{"attributes":{"ID":426881,"DIS_CODE":0,"TOWNNAME":"北區","LI":"賢北里","LIN":"4鄰","STREET":"中華北路","SECT":"一段","MAREA":" ","LANE":"１０５巷","ALLEY":" ","HOUSE_NO":"４６號六樓之６","E_COORD97":166368.51999999999,"N_COORD97":2545489.8199999998,"ADDRESS":"中華北路一段１０５巷４６號六樓之６","OBJECTID":426856},"geometry":{"x":166368.52000000048,"y":2545489.8200000003}},{"attributes":{"ID":426882,"DIS_CODE":0,"TOWNNAME":"北區","LI":"賢北里","LIN":"4鄰","STREET":"中華北路","SECT":"一段","MAREA":" ","LANE":"１０５巷","ALLEY":" ","HOUSE_NO":"４６號六樓之７","E_COORD97":166368.51999999999,"N_COORD97":2545489.8199999998,"ADDRESS":"中華北路一段１０５巷４６號六樓之７","OBJECTID":426857},"geometry":{"x":166368.52000000048,"y":2545489.8200000003}},{"attributes":{"ID":426883,"DIS_CODE":0,"TOWNNAME":"北區","LI":"賢北里","LIN":"4鄰","STREET":"中華北路","SECT":"一段","MAREA":" ","LANE":"１０５巷","ALLEY":" ","HOUSE_NO":"４６號六樓之８","E_COORD97":166368.51999999999,"N_COORD97":2545489.8199999998,"ADDRESS":"中華北路一段１０５巷４６號六樓之８","OBJECTID":426858},"geometry":{"x":166368.52000000048,"y":2545489.8200000003}},{"attributes":{"ID":426884,"DIS_CODE":0,"TOWNNAME":"北區","LI":"賢北里","LIN":"4鄰","STREET":"中華北路","SECT":"一段","MAREA":" ","LANE":"１０５巷","ALLEY":" ","HOUSE_NO":"４６號六樓之９","E_COORD97":166368.51999999999,"N_COORD97":2545489.8199999998,"ADDRESS":"中華北路一段１０５巷４６號六樓之９","OBJECTID":426859},"geometry":{"x":166368.52000000048,"y":2545489.8200000003}},{"attributes":{"ID":426885,"DIS_CODE":0,"TOWNNAME":"北區","LI":"賢北里","LIN":"4鄰","STREET":"中華北路","SECT":"一段","MAREA":" ","LANE":"１０５巷","ALLEY":" ","HOUSE_NO":"４６號四樓之１","E_COORD97":166368.51999999999,"N_COORD97":2545489.8199999998,"ADDRESS":"中華北路一段１０５巷４６號四樓之１","OBJECTID":426860},"geometry":{"x":166368.52000000048,"y":2545489.8200000003}},{"attributes":{"ID":426886,"DIS_CODE":0,"TOWNNAME":"北區","LI":"賢北里","LIN":"4鄰","STREET":"中華北路","SECT":"一段","MAREA":" ","LANE":"１０５巷","ALLEY":" ","HOUSE_NO":"４６號四樓之１０","E_COORD97":166368.51999999999,"N_COORD97":2545489.8199999998,"ADDRESS":"中華北路一段１０５巷４６號四樓之１０","OBJECTID":426861},"geometry":{"x":166368.52000000048,"y":2545489.8200000003}},{"attributes":{"ID":426887,"DIS_CODE":0,"TOWNNAME":"北區","LI":"賢北里","LIN":"4鄰","STREET":"中華北路","SECT":"一段","MAREA":" ","LANE":"１０５巷","ALLEY":" ","HOUSE_NO":"４６號四樓之１１","E_COORD97":166368.51999999999,"N_COORD97":2545489.8199999998,"ADDRESS":"中華北路一段１０５巷４６號四樓之１１","OBJECTID":426862},"geometry":{"x":166368.52000000048,"y":2545489.8200000003}},{"attributes":{"ID":426888,"DIS_CODE":0,"TOWNNAME":"北區","LI":"賢北里","LIN":"4鄰","STREET":"中華北路","SECT":"一段","MAREA":" ","LANE":"１０５巷","ALLEY":" ","HOUSE_NO":"４６號四樓之２","E_COORD97":166368.51999999999,"N_COORD97":2545489.8199999998,"ADDRESS":"中華北路一段１０５巷４６號四樓之２","OBJECTID":426863},"geometry":{"x":166368.52000000048,"y":2545489.8200000003}},{"attributes":{"ID":426889,"DIS_CODE":0,"TOWNNAME":"北區","LI":"賢北里","LIN":"4鄰","STREET":"中華北路","SECT":"一段","MAREA":" ","LANE":"１０５巷","ALLEY":" ","HOUSE_NO":"４６號四樓之３","E_COORD97":166368.51999999999,"N_COORD97":2545489.8199999998,"ADDRESS":"中華北路一段１０５巷４６號四樓之３","OBJECTID":426864},"geometry":{"x":166368.52000000048,"y":2545489.8200000003}},{"attributes":{"ID":426890,"DIS_CODE":0,"TOWNNAME":"北區","LI":"賢北里","LIN":"4鄰","STREET":"中華北路","SECT":"一段","MAREA":" ","LANE":"１０５巷","ALLEY":" ","HOUSE_NO":"４６號四樓之５","E_COORD97":166368.51999999999,"N_COORD97":2545489.8199999998,"ADDRESS":"中華北路一段１０５巷４６號四樓之５","OBJECTID":426865},"geometry":{"x":166368.52000000048,"y":2545489.8200000003}},{"attributes":{"ID":426891,"DIS_CODE":0,"TOWNNAME":"北區","LI":"賢北里","LIN":"4鄰","STREET":"中華北路","SECT":"一段","MAREA":" ","LANE":"１０５巷","ALLEY":" ","HOUSE_NO":"４６號四樓之６","E_COORD97":166368.51999999999,"N_COORD97":2545489.8199999998,"ADDRESS":"中華北路一段１０５巷４６號四樓之６","OBJECTID":426866},"geometry":{"x":166368.52000000048,"y":2545489.8200000003}},{"attributes":{"ID":426892,"DIS_CODE":0,"TOWNNAME":"北區","LI":"賢北里","LIN":"4鄰","STREET":"中華北路","SECT":"一段","MAREA":" ","LANE":"１０５巷","ALLEY":" ","HOUSE_NO":"４６號四樓之７","E_COORD97":166368.51999999999,"N_COORD97":2545489.8199999998,"ADDRESS":"中華北路一段１０５巷４６號四樓之７","OBJECTID":426867},"geometry":{"x":166368.52000000048,"y":2545489.8200000003}},{"attributes":{"ID":426893,"DIS_CODE":0,"TOWNNAME":"北區","LI":"賢北里","LIN":"4鄰","STREET":"中華北路","SECT":"一段","MAREA":" ","LANE":"１０５巷","ALLEY":" ","HOUSE_NO":"４６號四樓之８","E_COORD97":166368.51999999999,"N_COORD97":2545489.8199999998,"ADDRESS":"中華北路一段１０５巷４６號四樓之８","OBJECTID":426868},"geometry":{"x":166368.52000000048,"y":2545489.8200000003}},{"attributes":{"ID":426894,"DIS_CODE":0,"TOWNNAME":"北區","LI":"中樓里","LIN":"4鄰","STREET":"前鋒路","SECT":" ","MAREA":" ","LANE":"１８５巷","ALLEY":" ","HOUSE_NO":"８號五樓之１","E_COORD97":169455.62,"N_COORD97":2544821.0499999998,"ADDRESS":"前鋒路１８５巷８號五樓之１","OBJECTID":426869},"geometry":{"x":169455.62000000104,"y":2544821.0500000007}},{"attributes":{"ID":426895,"DIS_CODE":0,"TOWNNAME":"北區","LI":"中樓里","LIN":"4鄰","STREET":"前鋒路","SECT":" ","MAREA":" ","LANE":"１８５巷","ALLEY":" ","HOUSE_NO":"８號五樓之２","E_COORD97":169455.62,"N_COORD97":2544821.0499999998,"ADDRESS":"前鋒路１８５巷８號五樓之２","OBJECTID":426870},"geometry":{"x":169455.62000000104,"y":2544821.0500000007}},{"attributes":{"ID":426896,"DIS_CODE":0,"TOWNNAME":"北區","LI":"中樓里","LIN":"4鄰","STREET":"前鋒路","SECT":" ","MAREA":" ","LANE":"１８５巷","ALLEY":" ","HOUSE_NO":"８號四樓之１","E_COORD97":169455.62,"N_COORD97":2544821.0499999998,"ADDRESS":"前鋒路１８５巷８號四樓之１","OBJECTID":426871},"geometry":{"x":169455.62000000104,"y":2544821.0500000007}},{"attributes":{"ID":426897,"DIS_CODE":0,"TOWNNAME":"北區","LI":"中樓里","LIN":"4鄰","STREET":"前鋒路","SECT":" ","MAREA":" ","LANE":"１８５巷","ALLEY":" ","HOUSE_NO":"８號四樓之２","E_COORD97":169455.62,"N_COORD97":2544821.0499999998,"ADDRESS":"前鋒路１８５巷８號四樓之２","OBJECTID":426872},"geometry":{"x":169455.62000000104,"y":2544821.0500000007}},{"attributes":{"ID":426898,"DIS_CODE":0,"TOWNNAME":"永康區","LI":"中興里","LIN":"26鄰","STREET":"中山東路","SECT":" ","MAREA":" ","LANE":"３８６巷","ALLEY":" ","HOUSE_NO":"８號","E_COORD97":171860.60999999999,"N_COORD97":2545256.4900000002,"ADDRESS":"中山東路３８６巷８號","OBJECTID":426873},"geometry":{"x":171860.61000000034,"y":2545256.4900000021}},{"attributes":{"ID":426899,"DIS_CODE":0,"TOWNNAME":"永康區","LI":"大橋里","LIN":"13鄰","STREET":"大橋一街","SECT":" ","MAREA":" ","LANE":"２４７巷","ALLEY":" ","HOUSE_NO":"８３號","E_COORD97":171151.07000000001,"N_COORD97":2546870.8300000001,"ADDRESS":"大橋一街２４７巷８３號","OBJECTID":426874},"geometry":{"x":171151.07000000123,"y":2546870.8300000019}},{"attributes":{"ID":426900,"DIS_CODE":0,"TOWNNAME":"南區","LI":"新生里","LIN":"4鄰","STREET":"大同路","SECT":"二段","MAREA":" ","LANE":"１８６巷","ALLEY":" ","HOUSE_NO":"７號六樓之５","E_COORD97":169284.39000000001,"N_COORD97":2541921.7200000002,"ADDRESS":"大同路二段１８６巷７號六樓之５","OBJECTID":426875},"geometry":{"x":169284.38999999966,"y":2541921.7200000025}},{"attributes":{"ID":426901,"DIS_CODE":0,"TOWNNAME":"永康區","LI":"復國里","LIN":"4鄰","STREET":"復國一路","SECT":" ","MAREA":" ","LANE":"６８巷","ALLEY":" ","HOUSE_NO":"６號","E_COORD97":172745.44,"N_COORD97":2544857.27,"ADDRESS":"復國一路６８巷６號","OBJECTID":426876},"geometry":{"x":172745.44000000227,"y":2544857.2700000014}},{"attributes":{"ID":426902,"DIS_CODE":0,"TOWNNAME":"南區","LI":"新生里","LIN":"4鄰","STREET":"大同路","SECT":"二段","MAREA":" ","LANE":"１８６巷","ALLEY":" ","HOUSE_NO":"７號七樓之２","E_COORD97":169284.39000000001,"N_COORD97":2541921.7200000002,"ADDRESS":"大同路二段１８６巷７號七樓之２","OBJECTID":426877},"geometry":{"x":169284.38999999966,"y":2541921.7200000025}},{"attributes":{"ID":426903,"DIS_CODE":0,"TOWNNAME":"南區","LI":"新生里","LIN":"4鄰","STREET":"大同路","SECT":"二段","MAREA":" ","LANE":"１８６巷","ALLEY":" ","HOUSE_NO":"７號七樓之３","E_COORD97":169284.39000000001,"N_COORD97":2541921.7200000002,"ADDRESS":"大同路二段１８６巷７號七樓之３","OBJECTID":426878},"geometry":{"x":169284.38999999966,"y":2541921.7200000025}},{"attributes":{"ID":426904,"DIS_CODE":0,"TOWNNAME":"南區","LI":"新生里","LIN":"4鄰","STREET":"大同路","SECT":"二段","MAREA":" ","LANE":"１８６巷","ALLEY":" ","HOUSE_NO":"７號七樓之５","E_COORD97":169284.39000000001,"N_COORD97":2541921.7200000002,"ADDRESS":"大同路二段１８６巷７號七樓之５","OBJECTID":426879},"geometry":{"x":169284.38999999966,"y":2541921.7200000025}},{"attributes":{"ID":426905,"DIS_CODE":0,"TOWNNAME":"南區","LI":"新生里","LIN":"4鄰","STREET":"大同路","SECT":"二段","MAREA":" ","LANE":"１８６巷","ALLEY":" ","HOUSE_NO":"７號九樓之１","E_COORD97":169284.39000000001,"N_COORD97":2541921.7200000002,"ADDRESS":"大同路二段１８６巷７號九樓之１","OBJECTID":426880},"geometry":{"x":169284.38999999966,"y":2541921.7200000025}},{"attributes":{"ID":426906,"DIS_CODE":0,"TOWNNAME":"南區","LI":"新生里","LIN":"4鄰","STREET":"大同路","SECT":"二段","MAREA":" ","LANE":"１８６巷","ALLEY":" ","HOUSE_NO":"７號九樓之２","E_COORD97":169284.39000000001,"N_COORD97":2541921.7200000002,"ADDRESS":"大同路二段１８６巷７號九樓之２","OBJECTID":426881},"geometry":{"x":169284.38999999966,"y":2541921.7200000025}},{"attributes":{"ID":426907,"DIS_CODE":0,"TOWNNAME":"南區","LI":"新生里","LIN":"4鄰","STREET":"大同路","SECT":"二段","MAREA":" ","LANE":"１８６巷","ALLEY":" ","HOUSE_NO":"７號九樓之３","E_COORD97":169284.39000000001,"N_COORD97":2541921.7200000002,"ADDRESS":"大同路二段１８６巷７號九樓之３","OBJECTID":426882},"geometry":{"x":169284.38999999966,"y":2541921.7200000025}},{"attributes":{"ID":426908,"DIS_CODE":0,"TOWNNAME":"南區","LI":"新生里","LIN":"4鄰","STREET":"大同路","SECT":"二段","MAREA":" ","LANE":"１８６巷","ALLEY":" ","HOUSE_NO":"７號九樓之５","E_COORD97":169284.39000000001,"N_COORD97":2541921.7200000002,"ADDRESS":"大同路二段１８６巷７號九樓之５","OBJECTID":426883},"geometry":{"x":169284.38999999966,"y":2541921.7200000025}},{"attributes":{"ID":426909,"DIS_CODE":0,"TOWNNAME":"南區","LI":"新生里","LIN":"4鄰","STREET":"大同路","SECT":"二段","MAREA":" ","LANE":"１８６巷","ALLEY":" ","HOUSE_NO":"７號八樓之１","E_COORD97":169284.39000000001,"N_COORD97":2541921.7200000002,"ADDRESS":"大同路二段１８６巷７號八樓之１","OBJECTID":426884},"geometry":{"x":169284.38999999966,"y":2541921.7200000025}},{"attributes":{"ID":426910,"DIS_CODE":0,"TOWNNAME":"南區","LI":"新生里","LIN":"4鄰","STREET":"大同路","SECT":"二段","MAREA":" ","LANE":"１８６巷","ALLEY":" ","HOUSE_NO":"７號八樓之２","E_COORD97":169284.39000000001,"N_COORD97":2541921.7200000002,"ADDRESS":"大同路二段１８６巷７號八樓之２","OBJECTID":426885},"geometry":{"x":169284.38999999966,"y":2541921.7200000025}},{"attributes":{"ID":426911,"DIS_CODE":0,"TOWNNAME":"南區","LI":"新生里","LIN":"4鄰","STREET":"大同路","SECT":"二段","MAREA":" ","LANE":"１８６巷","ALLEY":" ","HOUSE_NO":"７號八樓之３","E_COORD97":169284.39000000001,"N_COORD97":2541921.7200000002,"ADDRESS":"大同路二段１８６巷７號八樓之３","OBJECTID":426886},"geometry":{"x":169284.38999999966,"y":2541921.7200000025}},{"attributes":{"ID":426912,"DIS_CODE":0,"TOWNNAME":"南區","LI":"新生里","LIN":"4鄰","STREET":"大同路","SECT":"二段","MAREA":" ","LANE":"１８６巷","ALLEY":" ","HOUSE_NO":"７號八樓之５","E_COORD97":169284.39000000001,"N_COORD97":2541921.7200000002,"ADDRESS":"大同路二段１８６巷７號八樓之５","OBJECTID":426887},"geometry":{"x":169284.38999999966,"y":2541921.7200000025}},{"attributes":{"ID":426913,"DIS_CODE":0,"TOWNNAME":"南區","LI":"新生里","LIN":"4鄰","STREET":"大同路","SECT":"二段","MAREA":" ","LANE":"１８６巷","ALLEY":" ","HOUSE_NO":"７號十樓之１","E_COORD97":169284.39000000001,"N_COORD97":2541921.7200000002,"ADDRESS":"大同路二段１８６巷７號十樓之１","OBJECTID":426888},"geometry":{"x":169284.38999999966,"y":2541921.7200000025}},{"attributes":{"ID":426914,"DIS_CODE":0,"TOWNNAME":"南區","LI":"新生里","LIN":"4鄰","STREET":"大同路","SECT":"二段","MAREA":" ","LANE":"１８６巷","ALLEY":" ","HOUSE_NO":"７號十樓之２","E_COORD97":169284.39000000001,"N_COORD97":2541921.7200000002,"ADDRESS":"大同路二段１８６巷７號十樓之２","OBJECTID":426889},"geometry":{"x":169284.38999999966,"y":2541921.7200000025}},{"attributes":{"ID":426915,"DIS_CODE":0,"TOWNNAME":"南區","LI":"新生里","LIN":"4鄰","STREET":"大同路","SECT":"二段","MAREA":" ","LANE":"１８６巷","ALLEY":" ","HOUSE_NO":"９號一樓之１","E_COORD97":169272.98999999999,"N_COORD97":2541919.4399999999,"ADDRESS":"大同路二段１８６巷９號一樓之１","OBJECTID":426890},"geometry":{"x":169272.98999999929,"y":2541919.4400000013}},{"attributes":{"ID":426916,"DIS_CODE":0,"TOWNNAME":"南區","LI":"新生里","LIN":"4鄰","STREET":"大同路","SECT":"二段","MAREA":" ","LANE":"１８６巷","ALLEY":" ","HOUSE_NO":"９號一樓之５","E_COORD97":169272.98999999999,"N_COORD97":2541919.4399999999,"ADDRESS":"大同路二段１８６巷９號一樓之５","OBJECTID":426891},"geometry":{"x":169272.98999999929,"y":2541919.4400000013}},{"attributes":{"ID":426917,"DIS_CODE":0,"TOWNNAME":"南區","LI":"新生里","LIN":"4鄰","STREET":"大同路","SECT":"二段","MAREA":" ","LANE":"１８６巷","ALLEY":" ","HOUSE_NO":"９號一樓之２","E_COORD97":169272.98999999999,"N_COORD97":2541919.4399999999,"ADDRESS":"大同路二段１８６巷９號一樓之２","OBJECTID":426892},"geometry":{"x":169272.98999999929,"y":2541919.4400000013}},{"attributes":{"ID":426918,"DIS_CODE":0,"TOWNNAME":"南區","LI":"新生里","LIN":"4鄰","STREET":"大同路","SECT":"二段","MAREA":" ","LANE":"１８６巷","ALLEY":" ","HOUSE_NO":"９號一樓之３","E_COORD97":169272.98999999999,"N_COORD97":2541919.4399999999,"ADDRESS":"大同路二段１８６巷９號一樓之３","OBJECTID":426893},"geometry":{"x":169272.98999999929,"y":2541919.4400000013}},{"attributes":{"ID":426919,"DIS_CODE":0,"TOWNNAME":"南區","LI":"新生里","LIN":"4鄰","STREET":"大同路","SECT":"二段","MAREA":" ","LANE":"１８６巷","ALLEY":" ","HOUSE_NO":"９號二樓之１","E_COORD97":169272.98999999999,"N_COORD97":2541919.4399999999,"ADDRESS":"大同路二段１８６巷９號二樓之１","OBJECTID":426894},"geometry":{"x":169272.98999999929,"y":2541919.4400000013}},{"attributes":{"ID":426920,"DIS_CODE":0,"TOWNNAME":"南區","LI":"新生里","LIN":"4鄰","STREET":"大同路","SECT":"二段","MAREA":" ","LANE":"１８６巷","ALLEY":" ","HOUSE_NO":"９號二樓之２","E_COORD97":169272.98999999999,"N_COORD97":2541919.4399999999,"ADDRESS":"大同路二段１８６巷９號二樓之２","OBJECTID":426895},"geometry":{"x":169272.98999999929,"y":2541919.4400000013}},{"attributes":{"ID":426921,"DIS_CODE":0,"TOWNNAME":"南區","LI":"新生里","LIN":"4鄰","STREET":"大同路","SECT":"二段","MAREA":" ","LANE":"１８６巷","ALLEY":" ","HOUSE_NO":"９號二樓之３","E_COORD97":169272.98999999999,"N_COORD97":2541919.4399999999,"ADDRESS":"大同路二段１８６巷９號二樓之３","OBJECTID":426896},"geometry":{"x":169272.98999999929,"y":2541919.4400000013}},{"attributes":{"ID":426922,"DIS_CODE":0,"TOWNNAME":"南區","LI":"新生里","LIN":"4鄰","STREET":"大同路","SECT":"二段","MAREA":" ","LANE":"１８６巷","ALLEY":" ","HOUSE_NO":"９號二樓之５","E_COORD97":169272.98999999999,"N_COORD97":2541919.4399999999,"ADDRESS":"大同路二段１８６巷９號二樓之５","OBJECTID":426897},"geometry":{"x":169272.98999999929,"y":2541919.4400000013}},{"attributes":{"ID":426923,"DIS_CODE":0,"TOWNNAME":"南區","LI":"新生里","LIN":"4鄰","STREET":"大同路","SECT":"二段","MAREA":" ","LANE":"１８６巷","ALLEY":" ","HOUSE_NO":"９號三樓之１","E_COORD97":169272.98999999999,"N_COORD97":2541919.4399999999,"ADDRESS":"大同路二段１８６巷９號三樓之１","OBJECTID":426898},"geometry":{"x":169272.98999999929,"y":2541919.4400000013}},{"attributes":{"ID":426924,"DIS_CODE":0,"TOWNNAME":"南區","LI":"新生里","LIN":"4鄰","STREET":"大同路","SECT":"二段","MAREA":" ","LANE":"１８６巷","ALLEY":" ","HOUSE_NO":"９號三樓之２","E_COORD97":169272.98999999999,"N_COORD97":2541919.4399999999,"ADDRESS":"大同路二段１８６巷９號三樓之２","OBJECTID":426899},"geometry":{"x":169272.98999999929,"y":2541919.4400000013}},{"attributes":{"ID":426925,"DIS_CODE":0,"TOWNNAME":"南區","LI":"新生里","LIN":"4鄰","STREET":"大同路","SECT":"二段","MAREA":" ","LANE":"１８６巷","ALLEY":" ","HOUSE_NO":"９號三樓之３","E_COORD97":169272.98999999999,"N_COORD97":2541919.4399999999,"ADDRESS":"大同路二段１８６巷９號三樓之３","OBJECTID":426900},"geometry":{"x":169272.98999999929,"y":2541919.4400000013}},{"attributes":{"ID":426926,"DIS_CODE":0,"TOWNNAME":"南區","LI":"新生里","LIN":"4鄰","STREET":"大同路","SECT":"二段","MAREA":" ","LANE":"１８６巷","ALLEY":" ","HOUSE_NO":"９號三樓之５","E_COORD97":169272.98999999999,"N_COORD97":2541919.4399999999,"ADDRESS":"大同路二段１８６巷９號三樓之５","OBJECTID":426901},"geometry":{"x":169272.98999999929,"y":2541919.4400000013}},{"attributes":{"ID":426927,"DIS_CODE":0,"TOWNNAME":"南區","LI":"新生里","LIN":"4鄰","STREET":"大同路","SECT":"二段","MAREA":" ","LANE":"１８６巷","ALLEY":" ","HOUSE_NO":"９號四樓之１","E_COORD97":169272.98999999999,"N_COORD97":2541919.4399999999,"ADDRESS":"大同路二段１８６巷９號四樓之１","OBJECTID":426902},"geometry":{"x":169272.98999999929,"y":2541919.4400000013}},{"attributes":{"ID":426928,"DIS_CODE":0,"TOWNNAME":"南區","LI":"新生里","LIN":"4鄰","STREET":"大同路","SECT":"二段","MAREA":" ","LANE":"１８６巷","ALLEY":" ","HOUSE_NO":"９號四樓之２","E_COORD97":169272.98999999999,"N_COORD97":2541919.4399999999,"ADDRESS":"大同路二段１８６巷９號四樓之２","OBJECTID":426903},"geometry":{"x":169272.98999999929,"y":2541919.4400000013}},{"attributes":{"ID":426929,"DIS_CODE":0,"TOWNNAME":"南區","LI":"新生里","LIN":"4鄰","STREET":"大同路","SECT":"二段","MAREA":" ","LANE":"１８６巷","ALLEY":" ","HOUSE_NO":"９號四樓之３","E_COORD97":169272.98999999999,"N_COORD97":2541919.4399999999,"ADDRESS":"大同路二段１８６巷９號四樓之３","OBJECTID":426904},"geometry":{"x":169272.98999999929,"y":2541919.4400000013}},{"attributes":{"ID":426930,"DIS_CODE":0,"TOWNNAME":"南區","LI":"新生里","LIN":"4鄰","STREET":"大同路","SECT":"二段","MAREA":" ","LANE":"１８６巷","ALLEY":" ","HOUSE_NO":"９號四樓之５","E_COORD97":169272.98999999999,"N_COORD97":2541919.4399999999,"ADDRESS":"大同路二段１８６巷９號四樓之５","OBJECTID":426905},"geometry":{"x":169272.98999999929,"y":2541919.4400000013}},{"attributes":{"ID":426931,"DIS_CODE":0,"TOWNNAME":"永康區","LI":"二王里","LIN":"39鄰","STREET":"中山南路","SECT":" ","MAREA":" ","LANE":"３１６巷","ALLEY":" ","HOUSE_NO":"６５號","E_COORD97":171988.29999999999,"N_COORD97":2546186.7400000002,"ADDRESS":"中山南路３１６巷６５號","OBJECTID":426906},"geometry":{"x":171988.30000000075,"y":2546186.7400000021}},{"attributes":{"ID":426932,"DIS_CODE":0,"TOWNNAME":"南區","LI":"新生里","LIN":"4鄰","STREET":"大同路","SECT":"二段","MAREA":" ","LANE":"１８６巷","ALLEY":" ","HOUSE_NO":"９號六樓之１","E_COORD97":169272.98999999999,"N_COORD97":2541919.4399999999,"ADDRESS":"大同路二段１８６巷９號六樓之１","OBJECTID":426907},"geometry":{"x":169272.98999999929,"y":2541919.4400000013}},{"attributes":{"ID":426933,"DIS_CODE":0,"TOWNNAME":"南區","LI":"新生里","LIN":"4鄰","STREET":"大同路","SECT":"二段","MAREA":" ","LANE":"１８６巷","ALLEY":" ","HOUSE_NO":"９號八樓之１","E_COORD97":169272.98999999999,"N_COORD97":2541919.4399999999,"ADDRESS":"大同路二段１８６巷９號八樓之１","OBJECTID":426908},"geometry":{"x":169272.98999999929,"y":2541919.4400000013}},{"attributes":{"ID":426934,"DIS_CODE":0,"TOWNNAME":"永康區","LI":"勝利里","LIN":"40鄰","STREET":"中華一路","SECT":" ","MAREA":" ","LANE":" ","ALLEY":" ","HOUSE_NO":"１７４號","E_COORD97":171520.95999999999,"N_COORD97":2544977,"ADDRESS":"中華一路１７４號","OBJECTID":426909},"geometry":{"x":171520.96000000183,"y":2544977.0000000037}},{"attributes":{"ID":426935,"DIS_CODE":0,"TOWNNAME":"南區","LI":"新生里","LIN":"4鄰","STREET":"大同路","SECT":"二段","MAREA":" ","LANE":"１８６巷","ALLEY":" ","HOUSE_NO":"９號八樓之２","E_COORD97":169272.98999999999,"N_COORD97":2541919.4399999999,"ADDRESS":"大同路二段１８６巷９號八樓之２","OBJECTID":426910},"geometry":{"x":169272.98999999929,"y":2541919.4400000013}},{"attributes":{"ID":426936,"DIS_CODE":0,"TOWNNAME":"南區","LI":"新生里","LIN":"4鄰","STREET":"大同路","SECT":"二段","MAREA":" ","LANE":"１８６巷","ALLEY":" ","HOUSE_NO":"９號八樓之３","E_COORD97":169272.98999999999,"N_COORD97":2541919.4399999999,"ADDRESS":"大同路二段１８６巷９號八樓之３","OBJECTID":426911},"geometry":{"x":169272.98999999929,"y":2541919.4400000013}},{"attributes":{"ID":426937,"DIS_CODE":0,"TOWNNAME":"南區","LI":"新生里","LIN":"4鄰","STREET":"大同路","SECT":"二段","MAREA":" ","LANE":"１８６巷","ALLEY":" ","HOUSE_NO":"９號八樓之５","E_COORD97":169272.98999999999,"N_COORD97":2541919.4399999999,"ADDRESS":"大同路二段１８６巷９號八樓之５","OBJECTID":426912},"geometry":{"x":169272.98999999929,"y":2541919.4400000013}},{"attributes":{"ID":426938,"DIS_CODE":0,"TOWNNAME":"南區","LI":"新生里","LIN":"4鄰","STREET":"大同路","SECT":"二段","MAREA":" ","LANE":"１８６巷","ALLEY":" ","HOUSE_NO":"９號十樓之１","E_COORD97":169272.98999999999,"N_COORD97":2541919.4399999999,"ADDRESS":"大同路二段１８６巷９號十樓之１","OBJECTID":426913},"geometry":{"x":169272.98999999929,"y":2541919.4400000013}},{"attributes":{"ID":426939,"DIS_CODE":0,"TOWNNAME":"南區","LI":"新生里","LIN":"4鄰","STREET":"大同路","SECT":"二段","MAREA":" ","LANE":"１８６巷","ALLEY":" ","HOUSE_NO":"９號十樓之２","E_COORD97":169272.98999999999,"N_COORD97":2541919.4399999999,"ADDRESS":"大同路二段１８６巷９號十樓之２","OBJECTID":426914},"geometry":{"x":169272.98999999929,"y":2541919.4400000013}},{"attributes":{"ID":426940,"DIS_CODE":0,"TOWNNAME":"南區","LI":"新生里","LIN":"4鄰","STREET":"大同路","SECT":"二段","MAREA":" ","LANE":"１８６巷","ALLEY":" ","HOUSE_NO":"９號十樓之３","E_COORD97":169272.98999999999,"N_COORD97":2541919.4399999999,"ADDRESS":"大同路二段１８６巷９號十樓之３","OBJECTID":426915},"geometry":{"x":169272.98999999929,"y":2541919.4400000013}},{"attributes":{"ID":426941,"DIS_CODE":0,"TOWNNAME":"南區","LI":"新生里","LIN":"4鄰","STREET":"大同路","SECT":"二段","MAREA":" ","LANE":"１８６巷","ALLEY":" ","HOUSE_NO":"９號十樓之５","E_COORD97":169272.98999999999,"N_COORD97":2541919.4399999999,"ADDRESS":"大同路二段１８６巷９號十樓之５","OBJECTID":426916},"geometry":{"x":169272.98999999929,"y":2541919.4400000013}},{"attributes":{"ID":426942,"DIS_CODE":0,"TOWNNAME":"南區","LI":"新生里","LIN":"4鄰","STREET":"大同路","SECT":"二段","MAREA":" ","LANE":"１８６巷","ALLEY":" ","HOUSE_NO":"１１號一樓之１","E_COORD97":169268.42999999999,"N_COORD97":2541891.6699999999,"ADDRESS":"大同路二段１８６巷１１號一樓之１","OBJECTID":426917},"geometry":{"x":169268.43000000063,"y":2541891.6700000018}},{"attributes":{"ID":426943,"DIS_CODE":0,"TOWNNAME":"南區","LI":"新生里","LIN":"4鄰","STREET":"大同路","SECT":"二段","MAREA":" ","LANE":"１８６巷","ALLEY":" ","HOUSE_NO":"１１號二樓之１","E_COORD97":169268.42999999999,"N_COORD97":2541891.6699999999,"ADDRESS":"大同路二段１８６巷１１號二樓之１","OBJECTID":426918},"geometry":{"x":169268.43000000063,"y":2541891.6700000018}},{"attributes":{"ID":426944,"DIS_CODE":0,"TOWNNAME":"南區","LI":"新生里","LIN":"4鄰","STREET":"大同路","SECT":"二段","MAREA":" ","LANE":"１８６巷","ALLEY":" ","HOUSE_NO":"１１號二樓之５","E_COORD97":169268.42999999999,"N_COORD97":2541891.6699999999,"ADDRESS":"大同路二段１８６巷１１號二樓之５","OBJECTID":426919},"geometry":{"x":169268.43000000063,"y":2541891.6700000018}},{"attributes":{"ID":426945,"DIS_CODE":0,"TOWNNAME":"南區","LI":"新生里","LIN":"4鄰","STREET":"大同路","SECT":"二段","MAREA":" ","LANE":"１８６巷","ALLEY":" ","HOUSE_NO":"１１號三樓之１","E_COORD97":169268.42999999999,"N_COORD97":2541891.6699999999,"ADDRESS":"大同路二段１８６巷１１號三樓之１","OBJECTID":426920},"geometry":{"x":169268.43000000063,"y":2541891.6700000018}},{"attributes":{"ID":426946,"DIS_CODE":0,"TOWNNAME":"南區","LI":"新生里","LIN":"4鄰","STREET":"大同路","SECT":"二段","MAREA":" ","LANE":"１８６巷","ALLEY":" ","HOUSE_NO":"１１號三樓之５","E_COORD97":169268.42999999999,"N_COORD97":2541891.6699999999,"ADDRESS":"大同路二段１８６巷１１號三樓之５","OBJECTID":426921},"geometry":{"x":169268.43000000063,"y":2541891.6700000018}},{"attributes":{"ID":426947,"DIS_CODE":0,"TOWNNAME":"南區","LI":"新生里","LIN":"4鄰","STREET":"大同路","SECT":"二段","MAREA":" ","LANE":"１８６巷","ALLEY":" ","HOUSE_NO":"１１號四樓之１","E_COORD97":169268.42999999999,"N_COORD97":2541891.6699999999,"ADDRESS":"大同路二段１８６巷１１號四樓之１","OBJECTID":426922},"geometry":{"x":169268.43000000063,"y":2541891.6700000018}},{"attributes":{"ID":426948,"DIS_CODE":0,"TOWNNAME":"南區","LI":"新生里","LIN":"4鄰","STREET":"大同路","SECT":"二段","MAREA":" ","LANE":"１８６巷","ALLEY":" ","HOUSE_NO":"１１號四樓之５","E_COORD97":169268.42999999999,"N_COORD97":2541891.6699999999,"ADDRESS":"大同路二段１８６巷１１號四樓之５","OBJECTID":426923},"geometry":{"x":169268.43000000063,"y":2541891.6700000018}},{"attributes":{"ID":426949,"DIS_CODE":0,"TOWNNAME":"北區","LI":"大道里","LIN":"4鄰","STREET":"北門路","SECT":"二段","MAREA":" ","LANE":"５７６巷","ALLEY":" ","HOUSE_NO":"１號十樓之１","E_COORD97":169689.35000000001,"N_COORD97":2545697.6400000001,"ADDRESS":"北門路二段５７６巷１號十樓之１","OBJECTID":426924},"geometry":{"x":169689.35000000056,"y":2545697.6400000006}},{"attributes":{"ID":426950,"DIS_CODE":0,"TOWNNAME":"北區","LI":"大道里","LIN":"4鄰","STREET":"北門路","SECT":"二段","MAREA":" ","LANE":"５７６巷","ALLEY":" ","HOUSE_NO":"２號三樓之２","E_COORD97":169677.76000000001,"N_COORD97":2545660.9700000002,"ADDRESS":"北門路二段５７６巷２號三樓之２","OBJECTID":426925},"geometry":{"x":169677.76000000164,"y":2545660.9700000025}},{"attributes":{"ID":426951,"DIS_CODE":0,"TOWNNAME":"北區","LI":"大道里","LIN":"4鄰","STREET":"北門路","SECT":"二段","MAREA":" ","LANE":"５７６巷","ALLEY":" ","HOUSE_NO":"２號三樓之１","E_COORD97":169677.76000000001,"N_COORD97":2545660.9700000002,"ADDRESS":"北門路二段５７６巷２號三樓之１","OBJECTID":426926},"geometry":{"x":169677.76000000164,"y":2545660.9700000025}},{"attributes":{"ID":426952,"DIS_CODE":0,"TOWNNAME":"北區","LI":"大道里","LIN":"4鄰","STREET":"北門路","SECT":"二段","MAREA":" ","LANE":"５７６巷","ALLEY":" ","HOUSE_NO":"２號四樓之２","E_COORD97":169677.76000000001,"N_COORD97":2545660.9700000002,"ADDRESS":"北門路二段５７６巷２號四樓之２","OBJECTID":426927},"geometry":{"x":169677.76000000164,"y":2545660.9700000025}},{"attributes":{"ID":426953,"DIS_CODE":0,"TOWNNAME":"北區","LI":"大道里","LIN":"4鄰","STREET":"北門路","SECT":"二段","MAREA":" ","LANE":"５７６巷","ALLEY":" ","HOUSE_NO":"２號四樓之１","E_COORD97":169677.76000000001,"N_COORD97":2545660.9700000002,"ADDRESS":"北門路二段５７６巷２號四樓之１","OBJECTID":426928},"geometry":{"x":169677.76000000164,"y":2545660.9700000025}},{"attributes":{"ID":426954,"DIS_CODE":0,"TOWNNAME":"北區","LI":"大道里","LIN":"4鄰","STREET":"北門路","SECT":"二段","MAREA":" ","LANE":"５７６巷","ALLEY":" ","HOUSE_NO":"２號五樓之２","E_COORD97":169677.76000000001,"N_COORD97":2545660.9700000002,"ADDRESS":"北門路二段５７６巷２號五樓之２","OBJECTID":426929},"geometry":{"x":169677.76000000164,"y":2545660.9700000025}},{"attributes":{"ID":426955,"DIS_CODE":0,"TOWNNAME":"七股區","LI":"樹林里","LIN":"2鄰","STREET":" ","SECT":" ","MAREA":"樹林","LANE":" ","ALLEY":" ","HOUSE_NO":"５９號之３","E_COORD97":163812.44946999999,"N_COORD97":2557116.2131599998,"ADDRESS":"樹林５９號之３","OBJECTID":426930},"geometry":{"x":163812.44947000127,"y":2557116.2131630015}},{"attributes":{"ID":426956,"DIS_CODE":0,"TOWNNAME":"北區","LI":"大道里","LIN":"4鄰","STREET":"北門路","SECT":"二段","MAREA":" ","LANE":"５７６巷","ALLEY":" ","HOUSE_NO":"２號五樓之１","E_COORD97":169677.76000000001,"N_COORD97":2545660.9700000002,"ADDRESS":"北門路二段５７６巷２號五樓之１","OBJECTID":426931},"geometry":{"x":169677.76000000164,"y":2545660.9700000025}},{"attributes":{"ID":426957,"DIS_CODE":0,"TOWNNAME":"永康區","LI":"勝利里","LIN":"20鄰","STREET":"勝學路","SECT":" ","MAREA":" ","LANE":"２６９巷","ALLEY":" ","HOUSE_NO":"８號","E_COORD97":171150.56,"N_COORD97":2545324,"ADDRESS":"勝學路２６９巷８號","OBJECTID":426932},"geometry":{"x":171150.56000000052,"y":2545324.0000000019}},{"attributes":{"ID":426958,"DIS_CODE":0,"TOWNNAME":"永康區","LI":"崑山里","LIN":"41鄰","STREET":"崑山街","SECT":" ","MAREA":" ","LANE":"２０３巷","ALLEY":" ","HOUSE_NO":"１８號","E_COORD97":174025.98000000001,"N_COORD97":2545020.4399999999,"ADDRESS":"崑山街２０３巷１８號","OBJECTID":426933},"geometry":{"x":174025.98000000045,"y":2545020.4399999995}},{"attributes":{"ID":426959,"DIS_CODE":0,"TOWNNAME":"永康區","LI":"崑山里","LIN":"4鄰","STREET":"永大路","SECT":"一段","MAREA":" ","LANE":"２８７巷","ALLEY":" ","HOUSE_NO":"９９號","E_COORD97":173754.39999999999,"N_COORD97":2544319.3500000001,"ADDRESS":"永大路一段２８７巷９９號","OBJECTID":426934},"geometry":{"x":173754.4000000013,"y":2544319.3499999996}},{"attributes":{"ID":426960,"DIS_CODE":0,"TOWNNAME":"永康區","LI":"勝利里","LIN":"4鄰","STREET":"勝學路","SECT":" ","MAREA":" ","LANE":"８９巷","ALLEY":" ","HOUSE_NO":"１７號","E_COORD97":171073.14000000001,"N_COORD97":2544829,"ADDRESS":"勝學路８９巷１７號","OBJECTID":426935},"geometry":{"x":171073.13999999966,"y":2544829.0000000019}},{"attributes":{"ID":426961,"DIS_CODE":0,"TOWNNAME":"北區","LI":"大道里","LIN":"4鄰","STREET":"北門路","SECT":"二段","MAREA":" ","LANE":"５７６巷","ALLEY":" ","HOUSE_NO":"２號六樓之２","E_COORD97":169677.76000000001,"N_COORD97":2545660.9700000002,"ADDRESS":"北門路二段５７６巷２號六樓之２","OBJECTID":426936},"geometry":{"x":169677.76000000164,"y":2545660.9700000025}},{"attributes":{"ID":426962,"DIS_CODE":0,"TOWNNAME":"北區","LI":"大道里","LIN":"4鄰","STREET":"北門路","SECT":"二段","MAREA":" ","LANE":"５７６巷","ALLEY":" ","HOUSE_NO":"２號六樓之１","E_COORD97":169677.76000000001,"N_COORD97":2545660.9700000002,"ADDRESS":"北門路二段５７６巷２號六樓之１","OBJECTID":426937},"geometry":{"x":169677.76000000164,"y":2545660.9700000025}},{"attributes":{"ID":426963,"DIS_CODE":0,"TOWNNAME":"北區","LI":"大道里","LIN":"4鄰","STREET":"北門路","SECT":"二段","MAREA":" ","LANE":"５７６巷","ALLEY":" ","HOUSE_NO":"２號八樓之１","E_COORD97":169677.76000000001,"N_COORD97":2545660.9700000002,"ADDRESS":"北門路二段５７６巷２號八樓之１","OBJECTID":426938},"geometry":{"x":169677.76000000164,"y":2545660.9700000025}},{"attributes":{"ID":426964,"DIS_CODE":0,"TOWNNAME":"永康區","LI":"勝利里","LIN":"40鄰","STREET":"中華一路","SECT":" ","MAREA":" ","LANE":" ","ALLEY":" ","HOUSE_NO":"１６６號","E_COORD97":171541.35000000001,"N_COORD97":2544975.75,"ADDRESS":"中華一路１６６號","OBJECTID":426939},"geometry":{"x":171541.34999999963,"y":2544975.7500000019}},{"attributes":{"ID":426965,"DIS_CODE":0,"TOWNNAME":"仁德區","LI":"仁德里","LIN":"14鄰","STREET":"四維街","SECT":" ","MAREA":" ","LANE":"８巷","ALLEY":" ","HOUSE_NO":"１３號","E_COORD97":173311.73999999999,"N_COORD97":2541582.5,"ADDRESS":"四維街８巷１３號","OBJECTID":426940},"geometry":{"x":173311.74000000115,"y":2541582.5}},{"attributes":{"ID":426966,"DIS_CODE":0,"TOWNNAME":"北區","LI":"大道里","LIN":"4鄰","STREET":"北門路","SECT":"二段","MAREA":" ","LANE":"５７６巷","ALLEY":" ","HOUSE_NO":"２號九樓之２","E_COORD97":169677.76000000001,"N_COORD97":2545660.9700000002,"ADDRESS":"北門路二段５７６巷２號九樓之２","OBJECTID":426941},"geometry":{"x":169677.76000000164,"y":2545660.9700000025}},{"attributes":{"ID":426967,"DIS_CODE":0,"TOWNNAME":"北區","LI":"大道里","LIN":"4鄰","STREET":"北門路","SECT":"二段","MAREA":" ","LANE":"５７６巷","ALLEY":" ","HOUSE_NO":"２號九樓之１","E_COORD97":169677.76000000001,"N_COORD97":2545660.9700000002,"ADDRESS":"北門路二段５７６巷２號九樓之１","OBJECTID":426942},"geometry":{"x":169677.76000000164,"y":2545660.9700000025}},{"attributes":{"ID":426968,"DIS_CODE":0,"TOWNNAME":"北區","LI":"大道里","LIN":"4鄰","STREET":"北門路","SECT":"二段","MAREA":" ","LANE":"５７６巷","ALLEY":" ","HOUSE_NO":"２號十樓之２","E_COORD97":169677.76000000001,"N_COORD97":2545660.9700000002,"ADDRESS":"北門路二段５７６巷２號十樓之２","OBJECTID":426943},"geometry":{"x":169677.76000000164,"y":2545660.9700000025}},{"attributes":{"ID":426969,"DIS_CODE":0,"TOWNNAME":"北區","LI":"大道里","LIN":"4鄰","STREET":"北門路","SECT":"二段","MAREA":" ","LANE":"５７６巷","ALLEY":" ","HOUSE_NO":"２號十樓之１","E_COORD97":169677.76000000001,"N_COORD97":2545660.9700000002,"ADDRESS":"北門路二段５７６巷２號十樓之１","OBJECTID":426944},"geometry":{"x":169677.76000000164,"y":2545660.9700000025}},{"attributes":{"ID":426970,"DIS_CODE":0,"TOWNNAME":"北區","LI":"大道里","LIN":"4鄰","STREET":"北門路","SECT":"二段","MAREA":" ","LANE":"５７６巷","ALLEY":" ","HOUSE_NO":"２號十一樓之２","E_COORD97":169677.76000000001,"N_COORD97":2545660.9700000002,"ADDRESS":"北門路二段５７６巷２號十一樓之２","OBJECTID":426945},"geometry":{"x":169677.76000000164,"y":2545660.9700000025}},{"attributes":{"ID":426971,"DIS_CODE":0,"TOWNNAME":"北區","LI":"大道里","LIN":"4鄰","STREET":"北門路","SECT":"二段","MAREA":" ","LANE":"５７６巷","ALLEY":" ","HOUSE_NO":"２號十一樓之１","E_COORD97":169677.76000000001,"N_COORD97":2545660.9700000002,"ADDRESS":"北門路二段５７６巷２號十一樓之１","OBJECTID":426946},"geometry":{"x":169677.76000000164,"y":2545660.9700000025}},{"attributes":{"ID":426972,"DIS_CODE":0,"TOWNNAME":"北區","LI":"大道里","LIN":"4鄰","STREET":"北門路","SECT":"二段","MAREA":" ","LANE":"５７６巷","ALLEY":" ","HOUSE_NO":"３號三樓之２","E_COORD97":169696.01999999999,"N_COORD97":2545717.6400000001,"ADDRESS":"北門路二段５７６巷３號三樓之２","OBJECTID":426947},"geometry":{"x":169696.02000000142,"y":2545717.6400000006}},{"attributes":{"ID":426973,"DIS_CODE":0,"TOWNNAME":"北區","LI":"大道里","LIN":"4鄰","STREET":"北門路","SECT":"二段","MAREA":" ","LANE":"５７６巷","ALLEY":" ","HOUSE_NO":"３號三樓之１","E_COORD97":169696.01999999999,"N_COORD97":2545717.6400000001,"ADDRESS":"北門路二段５７６巷３號三樓之１","OBJECTID":426948},"geometry":{"x":169696.02000000142,"y":2545717.6400000006}},{"attributes":{"ID":426974,"DIS_CODE":0,"TOWNNAME":"北區","LI":"大道里","LIN":"4鄰","STREET":"北門路","SECT":"二段","MAREA":" ","LANE":"５７６巷","ALLEY":" ","HOUSE_NO":"３號四樓之２","E_COORD97":169696.01999999999,"N_COORD97":2545717.6400000001,"ADDRESS":"北門路二段５７６巷３號四樓之２","OBJECTID":426949},"geometry":{"x":169696.02000000142,"y":2545717.6400000006}},{"attributes":{"ID":426975,"DIS_CODE":0,"TOWNNAME":"北區","LI":"大道里","LIN":"4鄰","STREET":"北門路","SECT":"二段","MAREA":" ","LANE":"５７６巷","ALLEY":" ","HOUSE_NO":"３號四樓之１","E_COORD97":169696.01999999999,"N_COORD97":2545717.6400000001,"ADDRESS":"北門路二段５７６巷３號四樓之１","OBJECTID":426950},"geometry":{"x":169696.02000000142,"y":2545717.6400000006}},{"attributes":{"ID":426976,"DIS_CODE":0,"TOWNNAME":"北區","LI":"大道里","LIN":"4鄰","STREET":"北門路","SECT":"二段","MAREA":" ","LANE":"５７６巷","ALLEY":" ","HOUSE_NO":"３號五樓之２","E_COORD97":169696.01999999999,"N_COORD97":2545717.6400000001,"ADDRESS":"北門路二段５７６巷３號五樓之２","OBJECTID":426951},"geometry":{"x":169696.02000000142,"y":2545717.6400000006}},{"attributes":{"ID":426977,"DIS_CODE":0,"TOWNNAME":"北區","LI":"大道里","LIN":"4鄰","STREET":"北門路","SECT":"二段","MAREA":" ","LANE":"５７６巷","ALLEY":" ","HOUSE_NO":"３號五樓之１","E_COORD97":169696.01999999999,"N_COORD97":2545717.6400000001,"ADDRESS":"北門路二段５７６巷３號五樓之１","OBJECTID":426952},"geometry":{"x":169696.02000000142,"y":2545717.6400000006}},{"attributes":{"ID":426978,"DIS_CODE":0,"TOWNNAME":"北區","LI":"大道里","LIN":"4鄰","STREET":"北門路","SECT":"二段","MAREA":" ","LANE":"５７６巷","ALLEY":" ","HOUSE_NO":"３號六樓之２","E_COORD97":169696.01999999999,"N_COORD97":2545717.6400000001,"ADDRESS":"北門路二段５７６巷３號六樓之２","OBJECTID":426953},"geometry":{"x":169696.02000000142,"y":2545717.6400000006}},{"attributes":{"ID":426979,"DIS_CODE":0,"TOWNNAME":"北區","LI":"大道里","LIN":"4鄰","STREET":"北門路","SECT":"二段","MAREA":" ","LANE":"５７６巷","ALLEY":" ","HOUSE_NO":"３號六樓之１","E_COORD97":169696.01999999999,"N_COORD97":2545717.6400000001,"ADDRESS":"北門路二段５７６巷３號六樓之１","OBJECTID":426954},"geometry":{"x":169696.02000000142,"y":2545717.6400000006}},{"attributes":{"ID":426980,"DIS_CODE":0,"TOWNNAME":"北區","LI":"大道里","LIN":"4鄰","STREET":"北門路","SECT":"二段","MAREA":" ","LANE":"５７６巷","ALLEY":" ","HOUSE_NO":"３號七樓之２","E_COORD97":169696.01999999999,"N_COORD97":2545717.6400000001,"ADDRESS":"北門路二段５７６巷３號七樓之２","OBJECTID":426955},"geometry":{"x":169696.02000000142,"y":2545717.6400000006}},{"attributes":{"ID":426981,"DIS_CODE":0,"TOWNNAME":"北區","LI":"大道里","LIN":"4鄰","STREET":"北門路","SECT":"二段","MAREA":" ","LANE":"５７６巷","ALLEY":" ","HOUSE_NO":"３號七樓之１","E_COORD97":169696.01999999999,"N_COORD97":2545717.6400000001,"ADDRESS":"北門路二段５７６巷３號七樓之１","OBJECTID":426956},"geometry":{"x":169696.02000000142,"y":2545717.6400000006}},{"attributes":{"ID":426982,"DIS_CODE":0,"TOWNNAME":"北區","LI":"大道里","LIN":"4鄰","STREET":"北門路","SECT":"二段","MAREA":" ","LANE":"５７６巷","ALLEY":" ","HOUSE_NO":"３號八樓之２","E_COORD97":169696.01999999999,"N_COORD97":2545717.6400000001,"ADDRESS":"北門路二段５７６巷３號八樓之２","OBJECTID":426957},"geometry":{"x":169696.02000000142,"y":2545717.6400000006}},{"attributes":{"ID":426983,"DIS_CODE":0,"TOWNNAME":"北區","LI":"大道里","LIN":"4鄰","STREET":"北門路","SECT":"二段","MAREA":" ","LANE":"５７６巷","ALLEY":" ","HOUSE_NO":"３號八樓之１","E_COORD97":169696.01999999999,"N_COORD97":2545717.6400000001,"ADDRESS":"北門路二段５７６巷３號八樓之１","OBJECTID":426958},"geometry":{"x":169696.02000000142,"y":2545717.6400000006}},{"attributes":{"ID":426984,"DIS_CODE":0,"TOWNNAME":"北區","LI":"大道里","LIN":"4鄰","STREET":"北門路","SECT":"二段","MAREA":" ","LANE":"５７６巷","ALLEY":" ","HOUSE_NO":"３號九樓之２","E_COORD97":169696.01999999999,"N_COORD97":2545717.6400000001,"ADDRESS":"北門路二段５７６巷３號九樓之２","OBJECTID":426959},"geometry":{"x":169696.02000000142,"y":2545717.6400000006}},{"attributes":{"ID":426985,"DIS_CODE":0,"TOWNNAME":"大內區","LI":"環湖里","LIN":"9鄰","STREET":" ","SECT":" ","MAREA":"環湖","LANE":" ","ALLEY":" ","HOUSE_NO":"１３０號","E_COORD97":189228.34278199999,"N_COORD97":2561401.09412,"ADDRESS":"環湖１３０號","OBJECTID":426960},"geometry":{"x":189228.34278200194,"y":2561401.0941170007}},{"attributes":{"ID":426986,"DIS_CODE":0,"TOWNNAME":"永康區","LI":"勝利里","LIN":"20鄰","STREET":"勝學路","SECT":" ","MAREA":" ","LANE":"２６９巷","ALLEY":" ","HOUSE_NO":"１５號","E_COORD97":171149.35999999999,"N_COORD97":2545282.5099999998,"ADDRESS":"勝學路２６９巷１５號","OBJECTID":426961},"geometry":{"x":171149.36000000127,"y":2545282.5100000016}},{"attributes":{"ID":426987,"DIS_CODE":0,"TOWNNAME":"永康區","LI":"崑山里","LIN":"32鄰","STREET":"大灣路","SECT":" ","MAREA":" ","LANE":"７９８巷","ALLEY":" ","HOUSE_NO":"６８號","E_COORD97":174103.73999999999,"N_COORD97":2544771.8700000001,"ADDRESS":"大灣路７９８巷６８號","OBJECTID":426962},"geometry":{"x":174103.74000000022,"y":2544771.8699999992}},{"attributes":{"ID":426988,"DIS_CODE":0,"TOWNNAME":"永康區","LI":"復國里","LIN":"4鄰","STREET":"復國一路","SECT":" ","MAREA":" ","LANE":"６８巷","ALLEY":" ","HOUSE_NO":"１號","E_COORD97":172736.13,"N_COORD97":2544875.0299999998,"ADDRESS":"復國一路６８巷１號","OBJECTID":426963},"geometry":{"x":172736.12999999989,"y":2544875.0300000012}},{"attributes":{"ID":426989,"DIS_CODE":0,"TOWNNAME":"北區","LI":"大道里","LIN":"4鄰","STREET":"北門路","SECT":"二段","MAREA":" ","LANE":"５７６巷","ALLEY":" ","HOUSE_NO":"３號九樓之１","E_COORD97":169696.01999999999,"N_COORD97":2545717.6400000001,"ADDRESS":"北門路二段５７６巷３號九樓之１","OBJECTID":426964},"geometry":{"x":169696.02000000142,"y":2545717.6400000006}},{"attributes":{"ID":426990,"DIS_CODE":0,"TOWNNAME":"北區","LI":"大道里","LIN":"4鄰","STREET":"北門路","SECT":"二段","MAREA":" ","LANE":"５７６巷","ALLEY":" ","HOUSE_NO":"３號十樓之２","E_COORD97":169696.01999999999,"N_COORD97":2545717.6400000001,"ADDRESS":"北門路二段５７６巷３號十樓之２","OBJECTID":426965},"geometry":{"x":169696.02000000142,"y":2545717.6400000006}},{"attributes":{"ID":426991,"DIS_CODE":0,"TOWNNAME":"永康區","LI":"崑山里","LIN":"41鄰","STREET":"崑山街","SECT":" ","MAREA":" ","LANE":"２１９巷","ALLEY":" ","HOUSE_NO":"１２號","E_COORD97":174058.45000000001,"N_COORD97":2545065.96,"ADDRESS":"崑山街２１９巷１２號","OBJECTID":426966},"geometry":{"x":174058.45000000019,"y":2545065.9600000009}},{"attributes":{"ID":426992,"DIS_CODE":0,"TOWNNAME":"永康區","LI":"勝利里","LIN":"34鄰","STREET":"勝利街","SECT":" ","MAREA":" ","LANE":"１巷","ALLEY":" ","HOUSE_NO":"５７號","E_COORD97":170929.20000000001,"N_COORD97":2544672.7599999998,"ADDRESS":"勝利街１巷５７號","OBJECTID":426967},"geometry":{"x":170929.20000000019,"y":2544672.7599999998}},{"attributes":{"ID":426993,"DIS_CODE":0,"TOWNNAME":"永康區","LI":"勝利里","LIN":"4鄰","STREET":"勝學路","SECT":" ","MAREA":" ","LANE":"８９巷","ALLEY":" ","HOUSE_NO":"２７號","E_COORD97":171026.09,"N_COORD97":2544832.5,"ADDRESS":"勝學路８９巷２７號","OBJECTID":426968},"geometry":{"x":171026.08999999985,"y":2544832.5000000019}},{"attributes":{"ID":426994,"DIS_CODE":0,"TOWNNAME":"永康區","LI":"崑山里","LIN":"40鄰","STREET":"國光五街","SECT":" ","MAREA":" ","LANE":" ","ALLEY":" ","HOUSE_NO":"１５號","E_COORD97":174145.01000000001,"N_COORD97":2545073.75,"ADDRESS":"國光五街１５號","OBJECTID":426969},"geometry":{"x":174145.01000000071,"y":2545073.7500000037}},{"attributes":{"ID":426995,"DIS_CODE":0,"TOWNNAME":"永康區","LI":"崑山里","LIN":"32鄰","STREET":"大灣路","SECT":" ","MAREA":" ","LANE":"７９８巷","ALLEY":" ","HOUSE_NO":"７４號","E_COORD97":174107.79999999999,"N_COORD97":2544783.8700000001,"ADDRESS":"大灣路７９８巷７４號","OBJECTID":426970},"geometry":{"x":174107.79999999981,"y":2544783.8700000029}},{"attributes":{"ID":426996,"DIS_CODE":0,"TOWNNAME":"永康區","LI":"復華里","LIN":"32鄰","STREET":"國華街","SECT":" ","MAREA":" ","LANE":"１６２巷","ALLEY":" ","HOUSE_NO":"７號","E_COORD97":172576.92000000001,"N_COORD97":2546331.25,"ADDRESS":"國華街１６２巷７號","OBJECTID":426971},"geometry":{"x":172576.91999999993,"y":2546331.2499999981}},{"attributes":{"ID":426997,"DIS_CODE":0,"TOWNNAME":"永康區","LI":"崑山里","LIN":"41鄰","STREET":"崑山街","SECT":" ","MAREA":" ","LANE":"２１９巷","ALLEY":" ","HOUSE_NO":"１３號","E_COORD97":174044.63,"N_COORD97":2545051.79,"ADDRESS":"崑山街２１９巷１３號","OBJECTID":426972},"geometry":{"x":174044.62999999989,"y":2545051.7899999972}},{"attributes":{"ID":426998,"DIS_CODE":0,"TOWNNAME":"永康區","LI":"復國里","LIN":"17鄰","STREET":"國華街","SECT":" ","MAREA":" ","LANE":"１８巷","ALLEY":" ","HOUSE_NO":"１號","E_COORD97":172853.85000000001,"N_COORD97":2545619.75,"ADDRESS":"國華街１８巷１號","OBJECTID":426973},"geometry":{"x":172853.85000000056,"y":2545619.7500000019}},{"attributes":{"ID":426999,"DIS_CODE":0,"TOWNNAME":"安平區","LI":"國平里","LIN":"4鄰","STREET":"建平五街","SECT":" ","MAREA":" ","LANE":"１８４巷","ALLEY":" ","HOUSE_NO":"８號二樓之１０","E_COORD97":165592.51000000001,"N_COORD97":2543215.7200000002,"ADDRESS":"建平五街１８４巷８號二樓之１０","OBJECTID":426974},"geometry":{"x":165592.51000000071,"y":2543215.7200000007}},{"attributes":{"ID":427000,"DIS_CODE":0,"TOWNNAME":"安平區","LI":"國平里","LIN":"4鄰","STREET":"建平五街","SECT":" ","MAREA":" ","LANE":"１８４巷","ALLEY":" ","HOUSE_NO":"８號二樓之１１","E_COORD97":165592.51000000001,"N_COORD97":2543215.7200000002,"ADDRESS":"建平五街１８４巷８號二樓之１１","OBJECTID":426975},"geometry":{"x":165592.51000000071,"y":2543215.7200000007}},{"attributes":{"ID":427001,"DIS_CODE":0,"TOWNNAME":"安平區","LI":"國平里","LIN":"4鄰","STREET":"建平五街","SECT":" ","MAREA":" ","LANE":"１８４巷","ALLEY":" ","HOUSE_NO":"８號二樓之１２","E_COORD97":165592.51000000001,"N_COORD97":2543215.7200000002,"ADDRESS":"建平五街１８４巷８號二樓之１２","OBJECTID":426976},"geometry":{"x":165592.51000000071,"y":2543215.7200000007}},{"attributes":{"ID":427002,"DIS_CODE":0,"TOWNNAME":"安平區","LI":"國平里","LIN":"4鄰","STREET":"建平五街","SECT":" ","MAREA":" ","LANE":"１８４巷","ALLEY":" ","HOUSE_NO":"８號二樓之１３","E_COORD97":165592.51000000001,"N_COORD97":2543215.7200000002,"ADDRESS":"建平五街１８４巷８號二樓之１３","OBJECTID":426977},"geometry":{"x":165592.51000000071,"y":2543215.7200000007}},{"attributes":{"ID":427003,"DIS_CODE":0,"TOWNNAME":"安平區","LI":"國平里","LIN":"4鄰","STREET":"建平五街","SECT":" ","MAREA":" ","LANE":"１８４巷","ALLEY":" ","HOUSE_NO":"８號二樓之１５","E_COORD97":165592.51000000001,"N_COORD97":2543215.7200000002,"ADDRESS":"建平五街１８４巷８號二樓之１５","OBJECTID":426978},"geometry":{"x":165592.51000000071,"y":2543215.7200000007}},{"attributes":{"ID":427004,"DIS_CODE":0,"TOWNNAME":"安平區","LI":"國平里","LIN":"4鄰","STREET":"建平五街","SECT":" ","MAREA":" ","LANE":"１８４巷","ALLEY":" ","HOUSE_NO":"８號二樓之１６","E_COORD97":165592.51000000001,"N_COORD97":2543215.7200000002,"ADDRESS":"建平五街１８４巷８號二樓之１６","OBJECTID":426979},"geometry":{"x":165592.51000000071,"y":2543215.7200000007}},{"attributes":{"ID":427005,"DIS_CODE":0,"TOWNNAME":"安平區","LI":"國平里","LIN":"4鄰","STREET":"建平五街","SECT":" ","MAREA":" ","LANE":"１８４巷","ALLEY":" ","HOUSE_NO":"８號二樓之２","E_COORD97":165592.51000000001,"N_COORD97":2543215.7200000002,"ADDRESS":"建平五街１８４巷８號二樓之２","OBJECTID":426980},"geometry":{"x":165592.51000000071,"y":2543215.7200000007}},{"attributes":{"ID":427006,"DIS_CODE":0,"TOWNNAME":"安平區","LI":"國平里","LIN":"4鄰","STREET":"建平五街","SECT":" ","MAREA":" ","LANE":"１８４巷","ALLEY":" ","HOUSE_NO":"８號二樓之３","E_COORD97":165592.51000000001,"N_COORD97":2543215.7200000002,"ADDRESS":"建平五街１８４巷８號二樓之３","OBJECTID":426981},"geometry":{"x":165592.51000000071,"y":2543215.7200000007}},{"attributes":{"ID":427007,"DIS_CODE":0,"TOWNNAME":"安平區","LI":"國平里","LIN":"4鄰","STREET":"建平五街","SECT":" ","MAREA":" ","LANE":"１８４巷","ALLEY":" ","HOUSE_NO":"８號二樓之４","E_COORD97":165592.51000000001,"N_COORD97":2543215.7200000002,"ADDRESS":"建平五街１８４巷８號二樓之４","OBJECTID":426982},"geometry":{"x":165592.51000000071,"y":2543215.7200000007}},{"attributes":{"ID":427008,"DIS_CODE":0,"TOWNNAME":"安平區","LI":"國平里","LIN":"4鄰","STREET":"建平五街","SECT":" ","MAREA":" ","LANE":"１８４巷","ALLEY":" ","HOUSE_NO":"８號二樓之５","E_COORD97":165592.51000000001,"N_COORD97":2543215.7200000002,"ADDRESS":"建平五街１８４巷８號二樓之５","OBJECTID":426983},"geometry":{"x":165592.51000000071,"y":2543215.7200000007}},{"attributes":{"ID":427009,"DIS_CODE":0,"TOWNNAME":"安平區","LI":"國平里","LIN":"4鄰","STREET":"建平五街","SECT":" ","MAREA":" ","LANE":"１８４巷","ALLEY":" ","HOUSE_NO":"８號二樓之６","E_COORD97":165592.51000000001,"N_COORD97":2543215.7200000002,"ADDRESS":"建平五街１８４巷８號二樓之６","OBJECTID":426984},"geometry":{"x":165592.51000000071,"y":2543215.7200000007}},{"attributes":{"ID":427010,"DIS_CODE":0,"TOWNNAME":"安平區","LI":"國平里","LIN":"4鄰","STREET":"建平五街","SECT":" ","MAREA":" ","LANE":"１８４巷","ALLEY":" ","HOUSE_NO":"８號二樓之７","E_COORD97":165592.51000000001,"N_COORD97":2543215.7200000002,"ADDRESS":"建平五街１８４巷８號二樓之７","OBJECTID":426985},"geometry":{"x":165592.51000000071,"y":2543215.7200000007}},{"attributes":{"ID":427011,"DIS_CODE":0,"TOWNNAME":"安平區","LI":"國平里","LIN":"4鄰","STREET":"建平五街","SECT":" ","MAREA":" ","LANE":"１８４巷","ALLEY":" ","HOUSE_NO":"８號二樓之８","E_COORD97":165592.51000000001,"N_COORD97":2543215.7200000002,"ADDRESS":"建平五街１８４巷８號二樓之８","OBJECTID":426986},"geometry":{"x":165592.51000000071,"y":2543215.7200000007}},{"attributes":{"ID":427012,"DIS_CODE":0,"TOWNNAME":"安平區","LI":"國平里","LIN":"4鄰","STREET":"建平五街","SECT":" ","MAREA":" ","LANE":"１８４巷","ALLEY":" ","HOUSE_NO":"８號二樓之９","E_COORD97":165592.51000000001,"N_COORD97":2543215.7200000002,"ADDRESS":"建平五街１８４巷８號二樓之９","OBJECTID":426987},"geometry":{"x":165592.51000000071,"y":2543215.7200000007}},{"attributes":{"ID":427013,"DIS_CODE":0,"TOWNNAME":"安平區","LI":"國平里","LIN":"4鄰","STREET":"建平五街","SECT":" ","MAREA":" ","LANE":"１８４巷","ALLEY":" ","HOUSE_NO":"８號三樓之１","E_COORD97":165592.51000000001,"N_COORD97":2543215.7200000002,"ADDRESS":"建平五街１８４巷８號三樓之１","OBJECTID":426988},"geometry":{"x":165592.51000000071,"y":2543215.7200000007}},{"attributes":{"ID":427014,"DIS_CODE":0,"TOWNNAME":"安平區","LI":"國平里","LIN":"4鄰","STREET":"建平五街","SECT":" ","MAREA":" ","LANE":"１８４巷","ALLEY":" ","HOUSE_NO":"８號三樓之１０","E_COORD97":165592.51000000001,"N_COORD97":2543215.7200000002,"ADDRESS":"建平五街１８４巷８號三樓之１０","OBJECTID":426989},"geometry":{"x":165592.51000000071,"y":2543215.7200000007}},{"attributes":{"ID":427015,"DIS_CODE":0,"TOWNNAME":"安平區","LI":"國平里","LIN":"4鄰","STREET":"建平五街","SECT":" ","MAREA":" ","LANE":"１８４巷","ALLEY":" ","HOUSE_NO":"８號三樓之１１","E_COORD97":165592.51000000001,"N_COORD97":2543215.7200000002,"ADDRESS":"建平五街１８４巷８號三樓之１１","OBJECTID":426990},"geometry":{"x":165592.51000000071,"y":2543215.7200000007}},{"attributes":{"ID":427016,"DIS_CODE":0,"TOWNNAME":"安平區","LI":"國平里","LIN":"4鄰","STREET":"建平五街","SECT":" ","MAREA":" ","LANE":"１８４巷","ALLEY":" ","HOUSE_NO":"８號三樓之１２","E_COORD97":165592.51000000001,"N_COORD97":2543215.7200000002,"ADDRESS":"建平五街１８４巷８號三樓之１２","OBJECTID":426991},"geometry":{"x":165592.51000000071,"y":2543215.7200000007}},{"attributes":{"ID":427017,"DIS_CODE":0,"TOWNNAME":"安平區","LI":"國平里","LIN":"4鄰","STREET":"建平五街","SECT":" ","MAREA":" ","LANE":"１８４巷","ALLEY":" ","HOUSE_NO":"８號三樓之１３","E_COORD97":165592.51000000001,"N_COORD97":2543215.7200000002,"ADDRESS":"建平五街１８４巷８號三樓之１３","OBJECTID":426992},"geometry":{"x":165592.51000000071,"y":2543215.7200000007}},{"attributes":{"ID":427018,"DIS_CODE":0,"TOWNNAME":"安平區","LI":"國平里","LIN":"4鄰","STREET":"建平五街","SECT":" ","MAREA":" ","LANE":"１８４巷","ALLEY":" ","HOUSE_NO":"８號三樓之１４","E_COORD97":165592.51000000001,"N_COORD97":2543215.7200000002,"ADDRESS":"建平五街１８４巷８號三樓之１４","OBJECTID":426993},"geometry":{"x":165592.51000000071,"y":2543215.7200000007}},{"attributes":{"ID":427019,"DIS_CODE":0,"TOWNNAME":"永康區","LI":"復華里","LIN":"32鄰","STREET":"國華街","SECT":" ","MAREA":" ","LANE":"１６２巷","ALLEY":" ","HOUSE_NO":"１６號","E_COORD97":172593.76999999999,"N_COORD97":2546336.5,"ADDRESS":"國華街１６２巷１６號","OBJECTID":426994},"geometry":{"x":172593.77000000048,"y":2546336.5000000037}},{"attributes":{"ID":427020,"DIS_CODE":0,"TOWNNAME":"安平區","LI":"國平里","LIN":"4鄰","STREET":"建平五街","SECT":" ","MAREA":" ","LANE":"１８４巷","ALLEY":" ","HOUSE_NO":"８號三樓之１５","E_COORD97":165592.51000000001,"N_COORD97":2543215.7200000002,"ADDRESS":"建平五街１８４巷８號三樓之１５","OBJECTID":426995},"geometry":{"x":165592.51000000071,"y":2543215.7200000007}},{"attributes":{"ID":427021,"DIS_CODE":0,"TOWNNAME":"安平區","LI":"國平里","LIN":"4鄰","STREET":"建平五街","SECT":" ","MAREA":" ","LANE":"１８４巷","ALLEY":" ","HOUSE_NO":"８號三樓之１６","E_COORD97":165592.51000000001,"N_COORD97":2543215.7200000002,"ADDRESS":"建平五街１８４巷８號三樓之１６","OBJECTID":426996},"geometry":{"x":165592.51000000071,"y":2543215.7200000007}},{"attributes":{"ID":427022,"DIS_CODE":0,"TOWNNAME":"安平區","LI":"國平里","LIN":"4鄰","STREET":"建平五街","SECT":" ","MAREA":" ","LANE":"１８４巷","ALLEY":" ","HOUSE_NO":"８號三樓之１７","E_COORD97":165592.51000000001,"N_COORD97":2543215.7200000002,"ADDRESS":"建平五街１８４巷８號三樓之１７","OBJECTID":426997},"geometry":{"x":165592.51000000071,"y":2543215.7200000007}},{"attributes":{"ID":427023,"DIS_CODE":0,"TOWNNAME":"永康區","LI":"勝利里","LIN":"40鄰","STREET":"中華一路","SECT":" ","MAREA":" ","LANE":" ","ALLEY":" ","HOUSE_NO":"１６４號","E_COORD97":171545.69,"N_COORD97":2544975.5,"ADDRESS":"中華一路１６４號","OBJECTID":426998},"geometry":{"x":171545.69000000134,"y":2544975.5}},{"attributes":{"ID":427024,"DIS_CODE":0,"TOWNNAME":"安平區","LI":"國平里","LIN":"4鄰","STREET":"建平五街","SECT":" ","MAREA":" ","LANE":"１８４巷","ALLEY":" ","HOUSE_NO":"８號三樓之１８","E_COORD97":165592.51000000001,"N_COORD97":2543215.7200000002,"ADDRESS":"建平五街１８４巷８號三樓之１８","OBJECTID":426999},"geometry":{"x":165592.51000000071,"y":2543215.7200000007}},{"attributes":{"ID":427025,"DIS_CODE":0,"TOWNNAME":"安平區","LI":"國平里","LIN":"4鄰","STREET":"建平五街","SECT":" ","MAREA":" ","LANE":"１８４巷","ALLEY":" ","HOUSE_NO":"８號三樓之１９","E_COORD97":165592.51000000001,"N_COORD97":2543215.7200000002,"ADDRESS":"建平五街１８４巷８號三樓之１９","OBJECTID":427000},"geometry":{"x":165592.51000000071,"y":2543215.7200000007}}]}