{"displayFieldName":"TOWNNAME","fieldAliases":{"ID":"ID","DIS_CODE":"DIS_CODE","TOWNNAME":"TOWNNAME","LI":"LI","LIN":"LIN","STREET":"STREET","SECT":"SECT","MAREA":"MAREA","LANE":"LANE","ALLEY":"ALLEY","HOUSE_NO":"HOUSE_NO","E_COORD97":"E_COORD97","N_COORD97":"N_COORD97","ADDRESS":"ADDRESS","OBJECTID":"OBJECTID"},"geometryType":"esriGeometryPoint","spatialReference":{"wkid":102443,"latestWkid":3826},"fields":[{"name":"ID","type":"esriFieldTypeDouble","alias":"ID"},{"name":"DIS_CODE","type":"esriFieldTypeInteger","alias":"DIS_CODE"},{"name":"TOWNNAME","type":"esriFieldTypeString","alias":"TOWNNAME","length":8},{"name":"LI","type":"esriFieldTypeString","alias":"LI","length":8},{"name":"LIN","type":"esriFieldTypeString","alias":"LIN","length":12},{"name":"STREET","type":"esriFieldTypeString","alias":"STREET","length":20},{"name":"SECT","type":"esriFieldTypeString","alias":"SECT","length":8},{"name":"MAREA","type":"esriFieldTypeString","alias":"MAREA","length":12},{"name":"LANE","type":"esriFieldTypeString","alias":"LANE","length":10},{"name":"ALLEY","type":"esriFieldTypeString","alias":"ALLEY","length":10},{"name":"HOUSE_NO","type":"esriFieldTypeString","alias":"HOUSE_NO","length":20},{"name":"E_COORD97","type":"esriFieldTypeDouble","alias":"E_COORD97"},{"name":"N_COORD97","type":"esriFieldTypeDouble","alias":"N_COORD97"},{"name":"ADDRESS","type":"esriFieldTypeString","alias":"ADDRESS","length":50},{"name":"OBJECTID","type":"esriFieldTypeOID","alias":"OBJECTID"}],"features":[{"attributes":{"ID":656028,"DIS_CODE":0,"TOWNNAME":"關廟區","LI":"北花里","LIN":"13鄰","STREET":"中正路","SECT":" ","MAREA":" ","LANE":" ","ALLEY":" ","HOUSE_NO":"４２１號","E_COORD97":182876.61626800001,"N_COORD97":2540810.4935400002,"ADDRESS":"中正路４２１號","OBJECTID":656001},"geometry":{"x":182876.61626799963,"y":2540810.493544003}},{"attributes":{"ID":656029,"DIS_CODE":0,"TOWNNAME":"關廟區","LI":"北花里","LIN":"13鄰","STREET":"中正路","SECT":" ","MAREA":" ","LANE":" ","ALLEY":" ","HOUSE_NO":"４２３號","E_COORD97":182866.23028300001,"N_COORD97":2540807.7418800001,"ADDRESS":"中正路４２３號","OBJECTID":656002},"geometry":{"x":182866.23028299864,"y":2540807.7418790013}},{"attributes":{"ID":656030,"DIS_CODE":0,"TOWNNAME":"關廟區","LI":"深坑里","LIN":"14鄰","STREET":"南雄路","SECT":"一段","MAREA":" ","LANE":" ","ALLEY":" ","HOUSE_NO":"３４８號","E_COORD97":181803.81162299999,"N_COORD97":2537555.2525599999,"ADDRESS":"南雄路一段３４８號","OBJECTID":656003},"geometry":{"x":181803.81162300054,"y":2537555.2525600046}},{"attributes":{"ID":656031,"DIS_CODE":0,"TOWNNAME":"關廟區","LI":"深坑里","LIN":"14鄰","STREET":"南雄路","SECT":"一段","MAREA":" ","LANE":" ","ALLEY":" ","HOUSE_NO":"３５０號","E_COORD97":181797.88099999999,"N_COORD97":2537555.8875600002,"ADDRESS":"南雄路一段３５０號","OBJECTID":656004},"geometry":{"x":181797.88100000005,"y":2537555.8875600044}},{"attributes":{"ID":656032,"DIS_CODE":0,"TOWNNAME":"關廟區","LI":"山西里","LIN":"14鄰","STREET":"崇尚街","SECT":" ","MAREA":" ","LANE":" ","ALLEY":" ","HOUSE_NO":"５２號","E_COORD97":181019.36193000001,"N_COORD97":2540548.96539,"ADDRESS":"崇尚街５２號","OBJECTID":656005},"geometry":{"x":181019.3619300006,"y":2540548.9653860014}},{"attributes":{"ID":656033,"DIS_CODE":0,"TOWNNAME":"關廟區","LI":"北花里","LIN":"13鄰","STREET":"中正路","SECT":" ","MAREA":" ","LANE":" ","ALLEY":" ","HOUSE_NO":"２７０號","E_COORD97":183152.586725,"N_COORD97":2540899.0230800002,"ADDRESS":"中正路２７０號","OBJECTID":656006},"geometry":{"x":183152.58672500029,"y":2540899.0230790023}},{"attributes":{"ID":656034,"DIS_CODE":0,"TOWNNAME":"關廟區","LI":"山西里","LIN":"19鄰","STREET":"文衡路","SECT":" ","MAREA":" ","LANE":"１１９巷","ALLEY":" ","HOUSE_NO":"９號","E_COORD97":180869.356371,"N_COORD97":2540355.5021600001,"ADDRESS":"文衡路１１９巷９號","OBJECTID":656007},"geometry":{"x":180869.35637100041,"y":2540355.5021570008}},{"attributes":{"ID":656035,"DIS_CODE":0,"TOWNNAME":"新營區","LI":"三仙里","LIN":"32鄰","STREET":"育德北路","SECT":" ","MAREA":" ","LANE":" ","ALLEY":" ","HOUSE_NO":"２１號","E_COORD97":179526.57270300001,"N_COORD97":2579392.7074199999,"ADDRESS":"育德北路２１號","OBJECTID":656008},"geometry":{"x":179526.57270300016,"y":2579392.707421001}},{"attributes":{"ID":656036,"DIS_CODE":0,"TOWNNAME":"新營區","LI":"三仙里","LIN":"32鄰","STREET":"育德北路","SECT":" ","MAREA":" ","LANE":" ","ALLEY":" ","HOUSE_NO":"２３號","E_COORD97":179520.00855999999,"N_COORD97":2579392.2840900002,"ADDRESS":"育德北路２３號","OBJECTID":656009},"geometry":{"x":179520.00856000092,"y":2579392.2840880025}},{"attributes":{"ID":656037,"DIS_CODE":0,"TOWNNAME":"新營區","LI":"三仙里","LIN":"32鄰","STREET":"育德北路","SECT":" ","MAREA":" ","LANE":" ","ALLEY":" ","HOUSE_NO":"２５號","E_COORD97":179514.503149,"N_COORD97":2579392.0724200001,"ADDRESS":"育德北路２５號","OBJECTID":656010},"geometry":{"x":179514.50314900093,"y":2579392.0724219996}},{"attributes":{"ID":656038,"DIS_CODE":0,"TOWNNAME":"新營區","LI":"三仙里","LIN":"32鄰","STREET":"育德北路","SECT":" ","MAREA":" ","LANE":" ","ALLEY":" ","HOUSE_NO":"２７號","E_COORD97":179509.844725,"N_COORD97":2579391.64909,"ADDRESS":"育德北路２７號","OBJECTID":656011},"geometry":{"x":179509.8447250016,"y":2579391.6490890011}},{"attributes":{"ID":656039,"DIS_CODE":0,"TOWNNAME":"新營區","LI":"三仙里","LIN":"32鄰","STREET":"育德北路","SECT":" ","MAREA":" ","LANE":" ","ALLEY":" ","HOUSE_NO":"２９號","E_COORD97":179504.97455499999,"N_COORD97":2579391.0140900002,"ADDRESS":"育德北路２９號","OBJECTID":656012},"geometry":{"x":179504.97455500159,"y":2579391.0140890013}},{"attributes":{"ID":656040,"DIS_CODE":0,"TOWNNAME":"新營區","LI":"三仙里","LIN":"32鄰","STREET":"育德北路","SECT":" ","MAREA":" ","LANE":" ","ALLEY":" ","HOUSE_NO":"３１號","E_COORD97":179500.73962400001,"N_COORD97":2579390.1674199998,"ADDRESS":"育德北路３１號","OBJECTID":656013},"geometry":{"x":179500.73962400015,"y":2579390.1674230006}},{"attributes":{"ID":656041,"DIS_CODE":0,"TOWNNAME":"新營區","LI":"三仙里","LIN":"32鄰","STREET":"育德北路","SECT":" ","MAREA":" ","LANE":" ","ALLEY":" ","HOUSE_NO":"３３號","E_COORD97":179495.44596000001,"N_COORD97":2579389.32076,"ADDRESS":"育德北路３３號","OBJECTID":656014},"geometry":{"x":179495.44595999923,"y":2579389.3207569979}},{"attributes":{"ID":656042,"DIS_CODE":0,"TOWNNAME":"新營區","LI":"三仙里","LIN":"32鄰","STREET":"育德北路","SECT":" ","MAREA":" ","LANE":" ","ALLEY":" ","HOUSE_NO":"３５號","E_COORD97":179489.72880400001,"N_COORD97":2579393.3424200001,"ADDRESS":"育德北路３５號","OBJECTID":656015},"geometry":{"x":179489.72880400158,"y":2579393.3424210008}},{"attributes":{"ID":656043,"DIS_CODE":0,"TOWNNAME":"新營區","LI":"三仙里","LIN":"32鄰","STREET":"育德北路","SECT":" ","MAREA":" ","LANE":" ","ALLEY":" ","HOUSE_NO":"３７號","E_COORD97":179484.858633,"N_COORD97":2579393.13075,"ADDRESS":"育德北路３７號","OBJECTID":656016},"geometry":{"x":179484.85863300227,"y":2579393.1307550017}},{"attributes":{"ID":656044,"DIS_CODE":0,"TOWNNAME":"新營區","LI":"三仙里","LIN":"32鄰","STREET":"育德北路","SECT":" ","MAREA":" ","LANE":" ","ALLEY":" ","HOUSE_NO":"３９號","E_COORD97":179479.35322300001,"N_COORD97":2579392.91909,"ADDRESS":"育德北路３９號","OBJECTID":656017},"geometry":{"x":179479.35322300158,"y":2579392.9190880023}},{"attributes":{"ID":656045,"DIS_CODE":0,"TOWNNAME":"新營區","LI":"三仙里","LIN":"32鄰","STREET":"育德北路","SECT":" ","MAREA":" ","LANE":" ","ALLEY":" ","HOUSE_NO":"４１號","E_COORD97":179474.483052,"N_COORD97":2579392.91909,"ADDRESS":"育德北路４１號","OBJECTID":656018},"geometry":{"x":179474.48305200227,"y":2579392.9190880023}},{"attributes":{"ID":656046,"DIS_CODE":0,"TOWNNAME":"新營區","LI":"三仙里","LIN":"32鄰","STREET":"育德北路","SECT":" ","MAREA":" ","LANE":" ","ALLEY":" ","HOUSE_NO":"４５號","E_COORD97":179463.472232,"N_COORD97":2579392.0724200001,"ADDRESS":"育德北路４５號","OBJECTID":656019},"geometry":{"x":179463.47223199997,"y":2579392.0724219996}},{"attributes":{"ID":656047,"DIS_CODE":0,"TOWNNAME":"新營區","LI":"三仙里","LIN":"32鄰","STREET":"育德北路","SECT":" ","MAREA":" ","LANE":" ","ALLEY":" ","HOUSE_NO":"４３號","E_COORD97":179467.918909,"N_COORD97":2579392.4957599998,"ADDRESS":"育德北路４３號","OBJECTID":656020},"geometry":{"x":179467.91890900116,"y":2579392.4957550038}},{"attributes":{"ID":656048,"DIS_CODE":0,"TOWNNAME":"新營區","LI":"延平里","LIN":"9鄰","STREET":"復興路","SECT":" ","MAREA":" ","LANE":"２９巷","ALLEY":" ","HOUSE_NO":"２號","E_COORD97":179703.02240399999,"N_COORD97":2577982.2406500001,"ADDRESS":"復興路２９巷２號","OBJECTID":656021},"geometry":{"x":179703.02240400016,"y":2577982.2406469993}},{"attributes":{"ID":656049,"DIS_CODE":0,"TOWNNAME":"新營區","LI":"延平里","LIN":"9鄰","STREET":"復興路","SECT":" ","MAREA":" ","LANE":"２９巷","ALLEY":" ","HOUSE_NO":"１６號","E_COORD97":179672.08159700001,"N_COORD97":2577951.2315000002,"ADDRESS":"復興路２９巷１６號","OBJECTID":656022},"geometry":{"x":179672.08159700036,"y":2577951.2314970009}},{"attributes":{"ID":656050,"DIS_CODE":0,"TOWNNAME":"關廟區","LI":"山西里","LIN":"19鄰","STREET":"崇平路","SECT":" ","MAREA":" ","LANE":" ","ALLEY":" ","HOUSE_NO":"１１８號","E_COORD97":180703.83851100001,"N_COORD97":2540404.1927999998,"ADDRESS":"崇平路１１８號","OBJECTID":656023},"geometry":{"x":180703.83851100039,"y":2540404.1927990019}},{"attributes":{"ID":656051,"DIS_CODE":0,"TOWNNAME":"關廟區","LI":"山西里","LIN":"19鄰","STREET":"崇平路","SECT":" ","MAREA":" ","LANE":" ","ALLEY":" ","HOUSE_NO":"１１６號","E_COORD97":180703.83851100001,"N_COORD97":2540404.1927999998,"ADDRESS":"崇平路１１６號","OBJECTID":656024},"geometry":{"x":180703.83851100039,"y":2540404.1927990019}},{"attributes":{"ID":656052,"DIS_CODE":0,"TOWNNAME":"新營區","LI":"延平里","LIN":"9鄰","STREET":"復興路","SECT":" ","MAREA":" ","LANE":"２９巷","ALLEY":" ","HOUSE_NO":"１８號之１","E_COORD97":179665.51197299999,"N_COORD97":2577945.93983,"ADDRESS":"復興路２９巷１８號之１","OBJECTID":656025},"geometry":{"x":179665.51197300013,"y":2577945.9398330003}},{"attributes":{"ID":656053,"DIS_CODE":0,"TOWNNAME":"關廟區","LI":"山西里","LIN":"19鄰","STREET":"崇平路","SECT":" ","MAREA":" ","LANE":" ","ALLEY":" ","HOUSE_NO":"１１６號","E_COORD97":180709.66499799999,"N_COORD97":2540403.0286300001,"ADDRESS":"崇平路１１６號","OBJECTID":656026},"geometry":{"x":180709.66499800049,"y":2540403.0286330022}},{"attributes":{"ID":656054,"DIS_CODE":0,"TOWNNAME":"新營區","LI":"延平里","LIN":"9鄰","STREET":"復興路","SECT":" ","MAREA":" ","LANE":"２９巷","ALLEY":" ","HOUSE_NO":"２０號","E_COORD97":179659.366197,"N_COORD97":2577939.58984,"ADDRESS":"復興路２９巷２０號","OBJECTID":656027},"geometry":{"x":179659.36619700212,"y":2577939.5898360014}},{"attributes":{"ID":656055,"DIS_CODE":0,"TOWNNAME":"新營區","LI":"延平里","LIN":"9鄰","STREET":"復興路","SECT":" ","MAREA":" ","LANE":"２９巷","ALLEY":" ","HOUSE_NO":"２２號","E_COORD97":179657.24696300001,"N_COORD97":2577937.8964999998,"ADDRESS":"復興路２９巷２２號","OBJECTID":656028},"geometry":{"x":179657.24696300179,"y":2577937.8965039998}},{"attributes":{"ID":656056,"DIS_CODE":0,"TOWNNAME":"新營區","LI":"延平里","LIN":"9鄰","STREET":"復興路","SECT":" ","MAREA":" ","LANE":"２９巷","ALLEY":" ","HOUSE_NO":"２８號","E_COORD97":179651.94888000001,"N_COORD97":2577934.50984,"ADDRESS":"復興路２９巷２８號","OBJECTID":656029},"geometry":{"x":179651.94888000004,"y":2577934.509839002}},{"attributes":{"ID":656057,"DIS_CODE":0,"TOWNNAME":"善化區","LI":"文昌里","LIN":"8鄰","STREET":"文昌路","SECT":" ","MAREA":" ","LANE":"３６巷","ALLEY":" ","HOUSE_NO":"４號","E_COORD97":177349.67827500001,"N_COORD97":2558800.4806900001,"ADDRESS":"文昌路３６巷４號","OBJECTID":656030},"geometry":{"x":177349.67827500124,"y":2558800.4806949999}},{"attributes":{"ID":656058,"DIS_CODE":0,"TOWNNAME":"官田區","LI":"西庄里","LIN":"1鄰","STREET":" ","SECT":" ","MAREA":"西庄","LANE":" ","ALLEY":" ","HOUSE_NO":"４號之９","E_COORD97":177875.413095,"N_COORD97":2564908.7328900001,"ADDRESS":"西庄４號之９","OBJECTID":656031},"geometry":{"x":177875.41309500206,"y":2564908.7328930032}},{"attributes":{"ID":656059,"DIS_CODE":0,"TOWNNAME":"官田區","LI":"西庄里","LIN":"6鄰","STREET":" ","SECT":" ","MAREA":"西庄","LANE":" ","ALLEY":" ","HOUSE_NO":"４４號","E_COORD97":177870.222343,"N_COORD97":2565185.4339899998,"ADDRESS":"西庄４４號","OBJECTID":656032},"geometry":{"x":177870.22234300151,"y":2565185.4339940008}},{"attributes":{"ID":656060,"DIS_CODE":0,"TOWNNAME":"官田區","LI":"西庄里","LIN":"13鄰","STREET":" ","SECT":" ","MAREA":"西庄","LANE":" ","ALLEY":" ","HOUSE_NO":"９５號","E_COORD97":177961.80202999999,"N_COORD97":2565191.7046099999,"ADDRESS":"西庄９５號","OBJECTID":656033},"geometry":{"x":177961.80203000084,"y":2565191.7046099994}},{"attributes":{"ID":656061,"DIS_CODE":0,"TOWNNAME":"關廟區","LI":"北花里","LIN":"14鄰","STREET":"北安一街","SECT":" ","MAREA":" ","LANE":" ","ALLEY":" ","HOUSE_NO":"６號","E_COORD97":182123.30363899999,"N_COORD97":2540415.5493800002,"ADDRESS":"北安一街６號","OBJECTID":656034},"geometry":{"x":182123.30363900028,"y":2540415.5493800025}},{"attributes":{"ID":656062,"DIS_CODE":0,"TOWNNAME":"官田區","LI":"西庄里","LIN":"13鄰","STREET":" ","SECT":" ","MAREA":"西庄","LANE":" ","ALLEY":" ","HOUSE_NO":"９５號之４","E_COORD97":177953.115471,"N_COORD97":2565186.30712,"ADDRESS":"西庄９５號之４","OBJECTID":656035},"geometry":{"x":177953.11547099892,"y":2565186.3071180005}},{"attributes":{"ID":656063,"DIS_CODE":0,"TOWNNAME":"關廟區","LI":"北花里","LIN":"14鄰","STREET":"北安一街","SECT":" ","MAREA":" ","LANE":" ","ALLEY":" ","HOUSE_NO":"１０號","E_COORD97":182144.28756699999,"N_COORD97":2540452.16769,"ADDRESS":"北安一街１０號","OBJECTID":656036},"geometry":{"x":182144.2875669999,"y":2540452.1676940043}},{"attributes":{"ID":656064,"DIS_CODE":0,"TOWNNAME":"官田區","LI":"西庄里","LIN":"13鄰","STREET":" ","SECT":" ","MAREA":"西庄","LANE":" ","ALLEY":" ","HOUSE_NO":"９５號之５","E_COORD97":177948.45438800001,"N_COORD97":2565179.7454599999,"ADDRESS":"西庄９５號之５","OBJECTID":656037},"geometry":{"x":177948.45438800007,"y":2565179.7454550043}},{"attributes":{"ID":656065,"DIS_CODE":0,"TOWNNAME":"官田區","LI":"西庄里","LIN":"5鄰","STREET":" ","SECT":" ","MAREA":"西庄","LANE":" ","ALLEY":" ","HOUSE_NO":"３４號之４","E_COORD97":177784.25713700001,"N_COORD97":2565153.1812999998,"ADDRESS":"西庄３４號之４","OBJECTID":656038},"geometry":{"x":177784.25713700056,"y":2565153.1813030001}},{"attributes":{"ID":656066,"DIS_CODE":0,"TOWNNAME":"關廟區","LI":"北花里","LIN":"14鄰","STREET":"北安一街","SECT":" ","MAREA":" ","LANE":" ","ALLEY":" ","HOUSE_NO":"１６號","E_COORD97":182136.39209899999,"N_COORD97":2540459.9720700001,"ADDRESS":"北安一街１６號","OBJECTID":656039},"geometry":{"x":182136.39209899958,"y":2540459.9720709994}},{"attributes":{"ID":656067,"DIS_CODE":0,"TOWNNAME":"官田區","LI":"西庄里","LIN":"9鄰","STREET":" ","SECT":" ","MAREA":"西庄","LANE":" ","ALLEY":" ","HOUSE_NO":"６９號之１","E_COORD97":177935.984,"N_COORD97":2565154.77,"ADDRESS":"西庄６９號之１","OBJECTID":656040},"geometry":{"x":177935.98400000017,"y":2565154.7700000014}},{"attributes":{"ID":656068,"DIS_CODE":0,"TOWNNAME":"關廟區","LI":"深坑里","LIN":"14鄰","STREET":"南雄路","SECT":"一段","MAREA":" ","LANE":"３５９巷","ALLEY":" ","HOUSE_NO":"８號","E_COORD97":181780.76078700001,"N_COORD97":2537465.96013,"ADDRESS":"南雄路一段３５９巷８號","OBJECTID":656041},"geometry":{"x":181780.76078700181,"y":2537465.9601259995}},{"attributes":{"ID":656069,"DIS_CODE":0,"TOWNNAME":"關廟區","LI":"深坑里","LIN":"14鄰","STREET":"南雄路","SECT":"一段","MAREA":" ","LANE":"３５９巷","ALLEY":" ","HOUSE_NO":"１０號","E_COORD97":181773.55931700001,"N_COORD97":2537467.8651299998,"ADDRESS":"南雄路一段３５９巷１０號","OBJECTID":656042},"geometry":{"x":181773.55931700207,"y":2537467.8651250005}},{"attributes":{"ID":656070,"DIS_CODE":0,"TOWNNAME":"關廟區","LI":"北花里","LIN":"19鄰","STREET":"北安一街","SECT":" ","MAREA":" ","LANE":" ","ALLEY":" ","HOUSE_NO":"８２號","E_COORD97":181928.67240000001,"N_COORD97":2540545.90869,"ADDRESS":"北安一街８２號","OBJECTID":656043},"geometry":{"x":181928.67240000051,"y":2540545.9086910002}},{"attributes":{"ID":656071,"DIS_CODE":0,"TOWNNAME":"善化區","LI":"文昌里","LIN":"17鄰","STREET":" ","SECT":" ","MAREA":"益民寮","LANE":" ","ALLEY":" ","HOUSE_NO":"１０號","E_COORD97":177769.65269300001,"N_COORD97":2557169.3245000001,"ADDRESS":"益民寮１０號","OBJECTID":656044},"geometry":{"x":177769.65269300062,"y":2557169.3244969994}},{"attributes":{"ID":656072,"DIS_CODE":0,"TOWNNAME":"關廟區","LI":"深坑里","LIN":"1鄰","STREET":"南雄路","SECT":"一段","MAREA":" ","LANE":"２６６巷","ALLEY":" ","HOUSE_NO":"２號","E_COORD97":181970.13381199999,"N_COORD97":2537375.3372800001,"ADDRESS":"南雄路一段２６６巷２號","OBJECTID":656045},"geometry":{"x":181970.13381200098,"y":2537375.3372760043}},{"attributes":{"ID":656073,"DIS_CODE":0,"TOWNNAME":"善化區","LI":"文昌里","LIN":"17鄰","STREET":" ","SECT":" ","MAREA":"益民寮","LANE":" ","ALLEY":" ","HOUSE_NO":"５０號","E_COORD97":176794.638828,"N_COORD97":2556875.9546599998,"ADDRESS":"益民寮５０號","OBJECTID":656046},"geometry":{"x":176794.63882800099,"y":2556875.9546560012}},{"attributes":{"ID":656074,"DIS_CODE":0,"TOWNNAME":"仁德區","LI":"土庫里","LIN":"2鄰","STREET":"太乙八街","SECT":" ","MAREA":" ","LANE":" ","ALLEY":" ","HOUSE_NO":"６號","E_COORD97":173503.02223,"N_COORD97":2542539.3693200001,"ADDRESS":"太乙八街６號","OBJECTID":656047},"geometry":{"x":173503.02223000117,"y":2542539.3693209998}},{"attributes":{"ID":656075,"DIS_CODE":0,"TOWNNAME":"仁德區","LI":"土庫里","LIN":"2鄰","STREET":"太乙路","SECT":" ","MAREA":" ","LANE":" ","ALLEY":" ","HOUSE_NO":"３６之１號","E_COORD97":173512.13428200001,"N_COORD97":2542510.9001699998,"ADDRESS":"太乙路３６之１號","OBJECTID":656048},"geometry":{"x":173512.13428200036,"y":2542510.9001690019}},{"attributes":{"ID":656076,"DIS_CODE":0,"TOWNNAME":"仁德區","LI":"土庫里","LIN":"2鄰","STREET":"太乙路","SECT":" ","MAREA":" ","LANE":" ","ALLEY":" ","HOUSE_NO":"３８號","E_COORD97":173480.77187299999,"N_COORD97":2542515.3451700001,"ADDRESS":"太乙路３８號","OBJECTID":656049},"geometry":{"x":173480.77187300101,"y":2542515.3451669998}},{"attributes":{"ID":656077,"DIS_CODE":0,"TOWNNAME":"仁德區","LI":"土庫里","LIN":"2鄰","STREET":"太乙路","SECT":" ","MAREA":" ","LANE":" ","ALLEY":" ","HOUSE_NO":"４２號","E_COORD97":173454.07144299999,"N_COORD97":2542518.5201699999,"ADDRESS":"太乙路４２號","OBJECTID":656050},"geometry":{"x":173454.07144300081,"y":2542518.5201650001}},{"attributes":{"ID":656078,"DIS_CODE":0,"TOWNNAME":"西港區","LI":"港東里","LIN":"5鄰","STREET":" ","SECT":" ","MAREA":"下面厝","LANE":" ","ALLEY":" ","HOUSE_NO":"２１號","E_COORD97":169757.25696299999,"N_COORD97":2557901.7493500002,"ADDRESS":"下面厝２１號","OBJECTID":656051},"geometry":{"x":169757.25696300063,"y":2557901.7493460029}},{"attributes":{"ID":656079,"DIS_CODE":0,"TOWNNAME":"西港區","LI":"港東里","LIN":"4鄰","STREET":" ","SECT":" ","MAREA":"下面厝","LANE":" ","ALLEY":" ","HOUSE_NO":"１２之５號","E_COORD97":169812.98066500001,"N_COORD97":2557769.9869200001,"ADDRESS":"下面厝１２之５號","OBJECTID":656052},"geometry":{"x":169812.98066500016,"y":2557769.9869179986}},{"attributes":{"ID":656080,"DIS_CODE":0,"TOWNNAME":"仁德區","LI":"土庫里","LIN":"3鄰","STREET":"土庫路","SECT":" ","MAREA":" ","LANE":" ","ALLEY":" ","HOUSE_NO":"１２０號","E_COORD97":174343.23811800001,"N_COORD97":2543034.4573900001,"ADDRESS":"土庫路１２０號","OBJECTID":656053},"geometry":{"x":174343.23811800033,"y":2543034.457387004}},{"attributes":{"ID":656081,"DIS_CODE":0,"TOWNNAME":"仁德區","LI":"土庫里","LIN":"3鄰","STREET":"土庫路","SECT":" ","MAREA":" ","LANE":" ","ALLEY":" ","HOUSE_NO":"１０８號","E_COORD97":174348.95963900001,"N_COORD97":2543062.8207,"ADDRESS":"土庫路１０８號","OBJECTID":656054},"geometry":{"x":174348.95963900071,"y":2543062.8207050022}},{"attributes":{"ID":656082,"DIS_CODE":0,"TOWNNAME":"仁德區","LI":"土庫里","LIN":"3鄰","STREET":"土庫路","SECT":" ","MAREA":" ","LANE":" ","ALLEY":" ","HOUSE_NO":"１１０號","E_COORD97":174347.26437399999,"N_COORD97":2543059.4340400002,"ADDRESS":"土庫路１１０號","OBJECTID":656055},"geometry":{"x":174347.26437400002,"y":2543059.4340400007}},{"attributes":{"ID":656083,"DIS_CODE":0,"TOWNNAME":"西港區","LI":"慶安里","LIN":"36鄰","STREET":"中山路","SECT":" ","MAREA":" ","LANE":" ","ALLEY":" ","HOUSE_NO":"１號之１","E_COORD97":168228.330682,"N_COORD97":2556652.5029600002,"ADDRESS":"中山路１號之１","OBJECTID":656056},"geometry":{"x":168228.33068200015,"y":2556652.5029610023}},{"attributes":{"ID":656084,"DIS_CODE":0,"TOWNNAME":"善化區","LI":"文昌里","LIN":"17鄰","STREET":" ","SECT":" ","MAREA":"益民","LANE":" ","ALLEY":" ","HOUSE_NO":"５０之１０號（該建物","E_COORD97":176775.34236400001,"N_COORD97":2556949.02006,"ADDRESS":"益民５０之１０號（該建物係農業設施不得設籍）","OBJECTID":656057},"geometry":{"x":176775.34236400109,"y":2556949.0200620033}},{"attributes":{"ID":656085,"DIS_CODE":0,"TOWNNAME":"善化區","LI":"文昌里","LIN":"21鄰","STREET":"中正路","SECT":" ","MAREA":" ","LANE":" ","ALLEY":" ","HOUSE_NO":"５號之１（該建物係農","E_COORD97":177677.67955299999,"N_COORD97":2557550.6707299999,"ADDRESS":"中正路５號之１（該建物係農業設施不得設籍）","OBJECTID":656058},"geometry":{"x":177677.67955300119,"y":2557550.6707330048}},{"attributes":{"ID":656086,"DIS_CODE":0,"TOWNNAME":"善化區","LI":"文昌里","LIN":"21鄰","STREET":"中正路","SECT":" ","MAREA":" ","LANE":"２２３巷","ALLEY":" ","HOUSE_NO":"７５號之１（該建物係","E_COORD97":177223.496747,"N_COORD97":2558070.9471200001,"ADDRESS":"中正路２２３巷７５號之１（該建物係農業設施不得設籍","OBJECTID":656059},"geometry":{"x":177223.49674700107,"y":2558070.9471179992}},{"attributes":{"ID":656087,"DIS_CODE":0,"TOWNNAME":"西港區","LI":"慶安里","LIN":"11鄰","STREET":"進學街","SECT":" ","MAREA":" ","LANE":" ","ALLEY":" ","HOUSE_NO":"２６號之１","E_COORD97":168263.49527000001,"N_COORD97":2558077.2305200002,"ADDRESS":"進學街２６號之１","OBJECTID":656060},"geometry":{"x":168263.49527000077,"y":2558077.2305200044}},{"attributes":{"ID":656088,"DIS_CODE":0,"TOWNNAME":"西港區","LI":"慶安里","LIN":"20鄰","STREET":"中山路","SECT":" ","MAREA":" ","LANE":" ","ALLEY":" ","HOUSE_NO":"３３１號之１","E_COORD97":168360.303835,"N_COORD97":2558047.5755699999,"ADDRESS":"中山路３３１號之１","OBJECTID":656061},"geometry":{"x":168360.30383499991,"y":2558047.5755700003}},{"attributes":{"ID":656089,"DIS_CODE":0,"TOWNNAME":"西港區","LI":"慶安里","LIN":"4鄰","STREET":" ","SECT":" ","MAREA":"中州","LANE":" ","ALLEY":" ","HOUSE_NO":"２９號之１","E_COORD97":167389.67624999999,"N_COORD97":2558174.1521600001,"ADDRESS":"中州２９號之１","OBJECTID":656062},"geometry":{"x":167389.67624999955,"y":2558174.1521599982}},{"attributes":{"ID":656090,"DIS_CODE":0,"TOWNNAME":"西港區","LI":"慶安里","LIN":"3鄰","STREET":" ","SECT":" ","MAREA":"中州","LANE":" ","ALLEY":" ","HOUSE_NO":"２１號之８","E_COORD97":167630.57947999999,"N_COORD97":2559515.22694,"ADDRESS":"中州２１號之８","OBJECTID":656063},"geometry":{"x":167630.5794800017,"y":2559515.2269400023}},{"attributes":{"ID":656091,"DIS_CODE":0,"TOWNNAME":"仁德區","LI":"土庫里","LIN":"3鄰","STREET":"土庫路","SECT":" ","MAREA":" ","LANE":" ","ALLEY":" ","HOUSE_NO":"１８８號","E_COORD97":174245.11976900001,"N_COORD97":2542872.24707,"ADDRESS":"土庫路１８８號","OBJECTID":656064},"geometry":{"x":174245.11976900231,"y":2542872.2470740005}},{"attributes":{"ID":656092,"DIS_CODE":0,"TOWNNAME":"仁德區","LI":"土庫里","LIN":"3鄰","STREET":"土庫路","SECT":" ","MAREA":" ","LANE":" ","ALLEY":" ","HOUSE_NO":"１８８號","E_COORD97":174245.11976900001,"N_COORD97":2542872.24707,"ADDRESS":"土庫路１８８號","OBJECTID":656065},"geometry":{"x":174245.11976900231,"y":2542872.2470740005}},{"attributes":{"ID":656093,"DIS_CODE":0,"TOWNNAME":"仁德區","LI":"土庫里","LIN":"3鄰","STREET":"土庫路","SECT":" ","MAREA":" ","LANE":" ","ALLEY":" ","HOUSE_NO":"２２８號","E_COORD97":174194.93729100001,"N_COORD97":2542818.4837699998,"ADDRESS":"土庫路２２８號","OBJECTID":656066},"geometry":{"x":174194.9372910019,"y":2542818.4837700017}},{"attributes":{"ID":656094,"DIS_CODE":0,"TOWNNAME":"仁德區","LI":"土庫里","LIN":"3鄰","STREET":"土庫三街","SECT":" ","MAREA":" ","LANE":" ","ALLEY":" ","HOUSE_NO":"４０號","E_COORD97":174182.444606,"N_COORD97":2543050.2586400001,"ADDRESS":"土庫三街４０號","OBJECTID":656067},"geometry":{"x":174182.44460600056,"y":2543050.2586450037}},{"attributes":{"ID":656095,"DIS_CODE":0,"TOWNNAME":"仁德區","LI":"上崙里","LIN":"29鄰","STREET":"崑崙路","SECT":" ","MAREA":" ","LANE":" ","ALLEY":" ","HOUSE_NO":"１１５號","E_COORD97":172913.403334,"N_COORD97":2536910.1048300001,"ADDRESS":"崑崙路１１５號","OBJECTID":656068},"geometry":{"x":172913.40333400015,"y":2536910.1048270017}},{"attributes":{"ID":656096,"DIS_CODE":0,"TOWNNAME":"仁德區","LI":"上崙里","LIN":"29鄰","STREET":"崑崙路","SECT":" ","MAREA":" ","LANE":" ","ALLEY":" ","HOUSE_NO":"１１７號","E_COORD97":172953.44719100001,"N_COORD97":2536918.1481599999,"ADDRESS":"崑崙路１１７號","OBJECTID":656069},"geometry":{"x":172953.44719099998,"y":2536918.148156004}},{"attributes":{"ID":656097,"DIS_CODE":0,"TOWNNAME":"仁德區","LI":"土庫里","LIN":"3鄰","STREET":"土庫三街","SECT":" ","MAREA":" ","LANE":"５１巷","ALLEY":" ","HOUSE_NO":"３號","E_COORD97":174247.66065400001,"N_COORD97":2543098.62445,"ADDRESS":"土庫三街５１巷３號","OBJECTID":656070},"geometry":{"x":174247.66065400094,"y":2543098.6244520005}},{"attributes":{"ID":656098,"DIS_CODE":0,"TOWNNAME":"仁德區","LI":"土庫里","LIN":"3鄰","STREET":"土庫三街","SECT":" ","MAREA":" ","LANE":"５１巷","ALLEY":" ","HOUSE_NO":"７號","E_COORD97":174254.64808799999,"N_COORD97":2543124.0244399998,"ADDRESS":"土庫三街５１巷７號","OBJECTID":656071},"geometry":{"x":174254.64808800071,"y":2543124.0244380012}},{"attributes":{"ID":656099,"DIS_CODE":0,"TOWNNAME":"仁德區","LI":"上崙里","LIN":"29鄰","STREET":"崑崙路","SECT":" ","MAREA":" ","LANE":" ","ALLEY":" ","HOUSE_NO":"２０３號","E_COORD97":173128.87742100001,"N_COORD97":2537030.6489300001,"ADDRESS":"崑崙路２０３號","OBJECTID":656072},"geometry":{"x":173128.87742100004,"y":2537030.6489290036}},{"attributes":{"ID":656100,"DIS_CODE":0,"TOWNNAME":"仁德區","LI":"上崙里","LIN":"29鄰","STREET":"崑崙路","SECT":" ","MAREA":" ","LANE":" ","ALLEY":" ","HOUSE_NO":"２０２號","E_COORD97":173199.21901100001,"N_COORD97":2537022.1822700002,"ADDRESS":"崑崙路２０２號","OBJECTID":656073},"geometry":{"x":173199.21901100036,"y":2537022.182266999}},{"attributes":{"ID":656101,"DIS_CODE":0,"TOWNNAME":"仁德區","LI":"上崙里","LIN":"29鄰","STREET":"崑崙路","SECT":" ","MAREA":" ","LANE":" ","ALLEY":" ","HOUSE_NO":"２００號","E_COORD97":173147.73405200001,"N_COORD97":2536981.9656199999,"ADDRESS":"崑崙路２００號","OBJECTID":656074},"geometry":{"x":173147.7340520015,"y":2536981.9656220041}},{"attributes":{"ID":656102,"DIS_CODE":0,"TOWNNAME":"仁德區","LI":"土庫里","LIN":"3鄰","STREET":"土庫三街","SECT":" ","MAREA":" ","LANE":"５２巷","ALLEY":"１２弄","HOUSE_NO":"７號","E_COORD97":174191.125963,"N_COORD97":2542990.8861799999,"ADDRESS":"土庫三街５２巷１２弄７號","OBJECTID":656075},"geometry":{"x":174191.12596299965,"y":2542990.8861770015}},{"attributes":{"ID":656103,"DIS_CODE":0,"TOWNNAME":"仁德區","LI":"上崙里","LIN":"29鄰","STREET":"崑崙路","SECT":" ","MAREA":" ","LANE":" ","ALLEY":" ","HOUSE_NO":"２８０號","E_COORD97":173452.61823200001,"N_COORD97":2537210.5655,"ADDRESS":"崑崙路２８０號","OBJECTID":656076},"geometry":{"x":173452.61823200155,"y":2537210.5654990003}},{"attributes":{"ID":656104,"DIS_CODE":0,"TOWNNAME":"仁德區","LI":"土庫里","LIN":"3鄰","STREET":"土庫三街","SECT":" ","MAREA":" ","LANE":"５２巷","ALLEY":" ","HOUSE_NO":"２號","E_COORD97":174211.45304299999,"N_COORD97":2543056.6086400002,"ADDRESS":"土庫三街５２巷２號","OBJECTID":656077},"geometry":{"x":174211.45304300077,"y":2543056.6086410023}},{"attributes":{"ID":656105,"DIS_CODE":0,"TOWNNAME":"仁德區","LI":"上崙里","LIN":"29鄰","STREET":"崑崙路","SECT":" ","MAREA":" ","LANE":" ","ALLEY":" ","HOUSE_NO":"２９７號","E_COORD97":173448.16891499999,"N_COORD97":2537258.4021399999,"ADDRESS":"崑崙路２９７號","OBJECTID":656078},"geometry":{"x":173448.16891499888,"y":2537258.4021390025}},{"attributes":{"ID":656106,"DIS_CODE":0,"TOWNNAME":"山上區","LI":"南洲里","LIN":"4鄰","STREET":" ","SECT":" ","MAREA":"南洲","LANE":" ","ALLEY":" ","HOUSE_NO":"１４號","E_COORD97":183909.96766900001,"N_COORD97":2555486.9737,"ADDRESS":"南洲１４號","OBJECTID":656079},"geometry":{"x":183909.96766900178,"y":2555486.9736960027}},{"attributes":{"ID":656107,"DIS_CODE":0,"TOWNNAME":"仁德區","LI":"上崙里","LIN":"27鄰","STREET":"上崙街","SECT":" ","MAREA":" ","LANE":"４０１巷","ALLEY":" ","HOUSE_NO":"１６號","E_COORD97":173070.09755400001,"N_COORD97":2537594.0450400002,"ADDRESS":"上崙街４０１巷１６號","OBJECTID":656080},"geometry":{"x":173070.09755400009,"y":2537594.0450400021}},{"attributes":{"ID":656108,"DIS_CODE":0,"TOWNNAME":"仁德區","LI":"上崙里","LIN":"27鄰","STREET":"上崙街","SECT":" ","MAREA":" ","LANE":"４０１巷","ALLEY":" ","HOUSE_NO":"２４號","E_COORD97":173052.08841200001,"N_COORD97":2537556.7917300002,"ADDRESS":"上崙街４０１巷２４號","OBJECTID":656081},"geometry":{"x":173052.08841199894,"y":2537556.7917270008}},{"attributes":{"ID":656109,"DIS_CODE":0,"TOWNNAME":"仁德區","LI":"土庫里","LIN":"4鄰","STREET":"中正路","SECT":"三段","MAREA":" ","LANE":" ","ALLEY":" ","HOUSE_NO":"３６９號","E_COORD97":173943.06046499999,"N_COORD97":2542605.9589499999,"ADDRESS":"中正路三段３６９號","OBJECTID":656082},"geometry":{"x":173943.06046499964,"y":2542605.9589520004}},{"attributes":{"ID":656110,"DIS_CODE":0,"TOWNNAME":"西港區","LI":"慶安里","LIN":"35鄰","STREET":"中山路","SECT":" ","MAREA":" ","LANE":" ","ALLEY":" ","HOUSE_NO":"４９號之２","E_COORD97":168434.03081,"N_COORD97":2557189.00551,"ADDRESS":"中山路４９號之２","OBJECTID":656083},"geometry":{"x":168434.03081000037,"y":2557189.0055100024}},{"attributes":{"ID":656111,"DIS_CODE":0,"TOWNNAME":"鹽水區","LI":"河南里","LIN":"4鄰","STREET":" ","SECT":" ","MAREA":"?頭港","LANE":" ","ALLEY":" ","HOUSE_NO":"２號","E_COORD97":173028.74592300001,"N_COORD97":2572760.0031900001,"ADDRESS":"?頭港２號","OBJECTID":656084},"geometry":{"x":173028.74592300132,"y":2572760.003190998}},{"attributes":{"ID":656112,"DIS_CODE":0,"TOWNNAME":"鹽水區","LI":"河南里","LIN":"3鄰","STREET":" ","SECT":" ","MAREA":"?頭港","LANE":" ","ALLEY":" ","HOUSE_NO":"３４號","E_COORD97":173110.73861500001,"N_COORD97":2572738.2015399998,"ADDRESS":"?頭港３４號","OBJECTID":656085},"geometry":{"x":173110.73861499969,"y":2572738.2015360016}},{"attributes":{"ID":656113,"DIS_CODE":0,"TOWNNAME":"鹽水區","LI":"河南里","LIN":"4鄰","STREET":" ","SECT":" ","MAREA":"?頭港","LANE":" ","ALLEY":" ","HOUSE_NO":"３８號","E_COORD97":173098.60897900001,"N_COORD97":2572737.4075600002,"ADDRESS":"?頭港３８號","OBJECTID":656086},"geometry":{"x":173098.60897899978,"y":2572737.4075600039}},{"attributes":{"ID":656114,"DIS_CODE":0,"TOWNNAME":"鹽水區","LI":"河南里","LIN":"4鄰","STREET":" ","SECT":" ","MAREA":"?頭港","LANE":" ","ALLEY":" ","HOUSE_NO":"４號之１","E_COORD97":173085.89693399999,"N_COORD97":2572743.8633900001,"ADDRESS":"?頭港４號之１","OBJECTID":656087},"geometry":{"x":173085.89693399984,"y":2572743.8633900024}},{"attributes":{"ID":656115,"DIS_CODE":0,"TOWNNAME":"鹽水區","LI":"河南里","LIN":"5鄰","STREET":" ","SECT":" ","MAREA":"?頭港","LANE":" ","ALLEY":" ","HOUSE_NO":"３９號之１","E_COORD97":173028.480863,"N_COORD97":2572705.6575799999,"ADDRESS":"?頭港３９號之１","OBJECTID":656088},"geometry":{"x":173028.48086299933,"y":2572705.6575769987}},{"attributes":{"ID":656116,"DIS_CODE":0,"TOWNNAME":"仁德區","LI":"土庫里","LIN":"4鄰","STREET":"中正路","SECT":"三段","MAREA":" ","LANE":" ","ALLEY":" ","HOUSE_NO":"５２１號","E_COORD97":173970.91546600001,"N_COORD97":2543073.77966,"ADDRESS":"中正路三段５２１號","OBJECTID":656089},"geometry":{"x":173970.91546600033,"y":2543073.7796560023}},{"attributes":{"ID":656117,"DIS_CODE":0,"TOWNNAME":"仁德區","LI":"土庫里","LIN":"4鄰","STREET":"中正路","SECT":"三段","MAREA":" ","LANE":"５２３巷","ALLEY":" ","HOUSE_NO":"１０６號","E_COORD97":173579.73298,"N_COORD97":2543076.6371499998,"ADDRESS":"中正路三段５２３巷１０６號","OBJECTID":656090},"geometry":{"x":173579.73298000079,"y":2543076.6371500026}},{"attributes":{"ID":656118,"DIS_CODE":0,"TOWNNAME":"仁德區","LI":"土庫里","LIN":"4鄰","STREET":"中正路","SECT":"三段","MAREA":" ","LANE":"５２３巷","ALLEY":" ","HOUSE_NO":"９８號","E_COORD97":173617.03034299999,"N_COORD97":2543085.64378,"ADDRESS":"中正路三段５２３巷９８號","OBJECTID":656091},"geometry":{"x":173617.03034299891,"y":2543085.6437849998}},{"attributes":{"ID":656119,"DIS_CODE":0,"TOWNNAME":"仁德區","LI":"土庫里","LIN":"5鄰","STREET":"土庫三街","SECT":" ","MAREA":" ","LANE":" ","ALLEY":" ","HOUSE_NO":"１３號","E_COORD97":174066.568123,"N_COORD97":2543091.4538099999,"ADDRESS":"土庫三街１３號","OBJECTID":656092},"geometry":{"x":174066.56812300161,"y":2543091.4538129978}},{"attributes":{"ID":656120,"DIS_CODE":0,"TOWNNAME":"仁德區","LI":"土庫里","LIN":"5鄰","STREET":"土庫三街","SECT":" ","MAREA":" ","LANE":"３９巷","ALLEY":" ","HOUSE_NO":"１號","E_COORD97":174211.72521800001,"N_COORD97":2543109.3396399999,"ADDRESS":"土庫三街３９巷１號","OBJECTID":656093},"geometry":{"x":174211.72521800082,"y":2543109.3396370001}},{"attributes":{"ID":656121,"DIS_CODE":0,"TOWNNAME":"仁德區","LI":"土庫里","LIN":"5鄰","STREET":"土庫三街","SECT":" ","MAREA":" ","LANE":"３９巷","ALLEY":" ","HOUSE_NO":"１４號","E_COORD97":174228.254055,"N_COORD97":2543170.2996,"ADDRESS":"土庫三街３９巷１４號","OBJECTID":656094},"geometry":{"x":174228.25405500177,"y":2543170.2996040042}},{"attributes":{"ID":656122,"DIS_CODE":0,"TOWNNAME":"仁德區","LI":"土庫里","LIN":"6鄰","STREET":"土庫三街","SECT":" ","MAREA":" ","LANE":"５１巷","ALLEY":" ","HOUSE_NO":"１１號","E_COORD97":174250.29250499999,"N_COORD97":2543139.71379,"ADDRESS":"土庫三街５１巷１１號","OBJECTID":656095},"geometry":{"x":174250.29250499979,"y":2543139.7137870044}},{"attributes":{"ID":656123,"DIS_CODE":0,"TOWNNAME":"仁德區","LI":"土庫里","LIN":"6鄰","STREET":"土庫三街","SECT":" ","MAREA":" ","LANE":"５７巷","ALLEY":" ","HOUSE_NO":"５號","E_COORD97":174261.09982100001,"N_COORD97":2543119.7113000001,"ADDRESS":"土庫三街５７巷５號","OBJECTID":656096},"geometry":{"x":174261.09982100222,"y":2543119.7112980001}},{"attributes":{"ID":656124,"DIS_CODE":0,"TOWNNAME":"仁德區","LI":"土庫里","LIN":"6鄰","STREET":"土庫三街","SECT":" ","MAREA":" ","LANE":"５７巷","ALLEY":" ","HOUSE_NO":"９號","E_COORD97":174263.430811,"N_COORD97":2543136.6446199999,"ADDRESS":"土庫三街５７巷９號","OBJECTID":656097},"geometry":{"x":174263.43081100006,"y":2543136.6446219999}},{"attributes":{"ID":656125,"DIS_CODE":0,"TOWNNAME":"仁德區","LI":"土庫里","LIN":"6鄰","STREET":"土庫三街","SECT":" ","MAREA":" ","LANE":"７９巷","ALLEY":" ","HOUSE_NO":"３號","E_COORD97":174315.56022000001,"N_COORD97":2543106.3763000001,"ADDRESS":"土庫三街７９巷３號","OBJECTID":656098},"geometry":{"x":174315.56022000033,"y":2543106.376304999}},{"attributes":{"ID":656126,"DIS_CODE":0,"TOWNNAME":"仁德區","LI":"土庫里","LIN":"6鄰","STREET":"土庫三街","SECT":" ","MAREA":" ","LANE":"７９巷","ALLEY":" ","HOUSE_NO":"５號","E_COORD97":174318.738843,"N_COORD97":2543118.4413000001,"ADDRESS":"土庫三街７９巷５號","OBJECTID":656099},"geometry":{"x":174318.73884300143,"y":2543118.4412990008}},{"attributes":{"ID":656127,"DIS_CODE":0,"TOWNNAME":"仁德區","LI":"土庫里","LIN":"6鄰","STREET":"土庫三街","SECT":" ","MAREA":" ","LANE":"５７巷","ALLEY":" ","HOUSE_NO":"１２號","E_COORD97":174266.60943400001,"N_COORD97":2543147.4396199998,"ADDRESS":"土庫三街５７巷１２號","OBJECTID":656100},"geometry":{"x":174266.60943400115,"y":2543147.439616004}},{"attributes":{"ID":656128,"DIS_CODE":0,"TOWNNAME":"仁德區","LI":"土庫里","LIN":"6鄰","STREET":"土庫三街","SECT":" ","MAREA":" ","LANE":"４７巷","ALLEY":" ","HOUSE_NO":"３號","E_COORD97":174241.18045300001,"N_COORD97":2543099.7088100002,"ADDRESS":"土庫三街４７巷３號","OBJECTID":656101},"geometry":{"x":174241.18045300059,"y":2543099.7088090014}},{"attributes":{"ID":656129,"DIS_CODE":0,"TOWNNAME":"仁德區","LI":"土庫里","LIN":"6鄰","STREET":"土庫三街","SECT":" ","MAREA":" ","LANE":"４７巷","ALLEY":" ","HOUSE_NO":"５號","E_COORD97":174244.99479999999,"N_COORD97":2543111.7738000001,"ADDRESS":"土庫三街４７巷５號","OBJECTID":656102},"geometry":{"x":174244.99479999952,"y":2543111.7738020048}},{"attributes":{"ID":656130,"DIS_CODE":0,"TOWNNAME":"仁德區","LI":"土庫里","LIN":"7鄰","STREET":"土庫路","SECT":" ","MAREA":" ","LANE":" ","ALLEY":" ","HOUSE_NO":"７８號","E_COORD97":174297.50026199999,"N_COORD97":2543153.1956000002,"ADDRESS":"土庫路７８號","OBJECTID":656103},"geometry":{"x":174297.5002620006,"y":2543153.1956030019}},{"attributes":{"ID":656131,"DIS_CODE":0,"TOWNNAME":"仁德區","LI":"土庫里","LIN":"7鄰","STREET":"土庫路","SECT":" ","MAREA":" ","LANE":" ","ALLEY":" ","HOUSE_NO":"７８號之１","E_COORD97":174283.93814000001,"N_COORD97":2543152.9839400002,"ADDRESS":"土庫路７８號之１","OBJECTID":656104},"geometry":{"x":174283.93814000115,"y":2543152.9839360006}},{"attributes":{"ID":656132,"DIS_CODE":0,"TOWNNAME":"仁德區","LI":"成功里","LIN":"8鄰","STREET":"保華路","SECT":" ","MAREA":" ","LANE":"１４５巷","ALLEY":" ","HOUSE_NO":"１號","E_COORD97":171066.31932499999,"N_COORD97":2540038.6136500002,"ADDRESS":"保華路１４５巷１號","OBJECTID":656105},"geometry":{"x":171066.31932500098,"y":2540038.613651}},{"attributes":{"ID":656133,"DIS_CODE":0,"TOWNNAME":"仁德區","LI":"土庫里","LIN":"8鄰","STREET":"土庫三街","SECT":" ","MAREA":" ","LANE":"３９巷","ALLEY":"１９弄","HOUSE_NO":"２號","E_COORD97":174137.150697,"N_COORD97":2543186.8505799999,"ADDRESS":"土庫三街３９巷１９弄２號","OBJECTID":656106},"geometry":{"x":174137.15069700126,"y":2543186.8505840003}},{"attributes":{"ID":656134,"DIS_CODE":0,"TOWNNAME":"仁德區","LI":"土庫里","LIN":"8鄰","STREET":"土庫三街","SECT":" ","MAREA":" ","LANE":"３９巷","ALLEY":"１９弄","HOUSE_NO":"８號","E_COORD97":174153.679534,"N_COORD97":2543186.2155800001,"ADDRESS":"土庫三街３９巷１９弄８號","OBJECTID":656107},"geometry":{"x":174153.67953400034,"y":2543186.2155850008}},{"attributes":{"ID":656135,"DIS_CODE":0,"TOWNNAME":"仁德區","LI":"土庫里","LIN":"8鄰","STREET":"土庫三街","SECT":" ","MAREA":" ","LANE":"３９巷","ALLEY":"１９弄","HOUSE_NO":"１２號","E_COORD97":174185.25385099999,"N_COORD97":2543197.6455799998,"ADDRESS":"土庫三街３９巷１９弄１２號","OBJECTID":656108},"geometry":{"x":174185.25385100115,"y":2543197.6455789991}},{"attributes":{"ID":656136,"DIS_CODE":0,"TOWNNAME":"仁德區","LI":"成功里","LIN":"8鄰","STREET":"保華路","SECT":" ","MAREA":" ","LANE":"１４５巷","ALLEY":" ","HOUSE_NO":"３號","E_COORD97":171066.10223300001,"N_COORD97":2540033.5136199999,"ADDRESS":"保華路１４５巷３號","OBJECTID":656109},"geometry":{"x":171066.1022330001,"y":2540033.5136179999}},{"attributes":{"ID":656137,"DIS_CODE":0,"TOWNNAME":"仁德區","LI":"成功里","LIN":"8鄰","STREET":"保華路","SECT":" ","MAREA":" ","LANE":"１４５巷","ALLEY":" ","HOUSE_NO":"５號","E_COORD97":171065.99633200001,"N_COORD97":2540027.8515400002,"ADDRESS":"保華路１４５巷５號","OBJECTID":656110},"geometry":{"x":171065.99633200094,"y":2540027.8515370004}},{"attributes":{"ID":656138,"DIS_CODE":0,"TOWNNAME":"仁德區","LI":"成功里","LIN":"8鄰","STREET":"保華路","SECT":" ","MAREA":" ","LANE":"１４５巷","ALLEY":" ","HOUSE_NO":"７號","E_COORD97":171066.239245,"N_COORD97":2540023.0923000001,"ADDRESS":"保華路１４５巷７號","OBJECTID":656111},"geometry":{"x":171066.23924500123,"y":2540023.0922989994}},{"attributes":{"ID":656139,"DIS_CODE":0,"TOWNNAME":"仁德區","LI":"成功里","LIN":"8鄰","STREET":"保華路","SECT":" ","MAREA":" ","LANE":"１４５巷","ALLEY":" ","HOUSE_NO":"９號","E_COORD97":171067.19236300001,"N_COORD97":2540018.4356300002,"ADDRESS":"保華路１４５巷９號","OBJECTID":656112},"geometry":{"x":171067.19236300047,"y":2540018.435634004}},{"attributes":{"ID":656140,"DIS_CODE":0,"TOWNNAME":"仁德區","LI":"成功里","LIN":"8鄰","STREET":"保華路","SECT":" ","MAREA":" ","LANE":"１４５巷","ALLEY":" ","HOUSE_NO":"９之１號","E_COORD97":171067.161253,"N_COORD97":2540013.51113,"ADDRESS":"保華路１４５巷９之１號","OBJECTID":656113},"geometry":{"x":171067.16125299968,"y":2540013.5111280028}},{"attributes":{"ID":656141,"DIS_CODE":0,"TOWNNAME":"仁德區","LI":"成功里","LIN":"8鄰","STREET":"保華路","SECT":" ","MAREA":" ","LANE":"１４５巷","ALLEY":" ","HOUSE_NO":"９之２號","E_COORD97":171067.37305699999,"N_COORD97":2540009.2248800001,"ADDRESS":"保華路１４５巷９之２號","OBJECTID":656114},"geometry":{"x":171067.37305700127,"y":2540009.2248810008}},{"attributes":{"ID":656142,"DIS_CODE":0,"TOWNNAME":"仁德區","LI":"土庫里","LIN":"8鄰","STREET":"土庫路","SECT":" ","MAREA":" ","LANE":" ","ALLEY":" ","HOUSE_NO":"６６之１號","E_COORD97":174262.17651600001,"N_COORD97":2543174.5739199999,"ADDRESS":"土庫路６６之１號","OBJECTID":656115},"geometry":{"x":174262.17651600018,"y":2543174.5739240013}},{"attributes":{"ID":656143,"DIS_CODE":0,"TOWNNAME":"仁德區","LI":"土庫里","LIN":"10鄰","STREET":"土庫路","SECT":" ","MAREA":" ","LANE":" ","ALLEY":" ","HOUSE_NO":"６１號","E_COORD97":174237.807077,"N_COORD97":2543298.6105200001,"ADDRESS":"土庫路６１號","OBJECTID":656116},"geometry":{"x":174237.80707700085,"y":2543298.6105240043}},{"attributes":{"ID":656144,"DIS_CODE":0,"TOWNNAME":"仁德區","LI":"土庫里","LIN":"10鄰","STREET":"土庫路","SECT":" ","MAREA":" ","LANE":" ","ALLEY":" ","HOUSE_NO":"８７號","E_COORD97":174262.121797,"N_COORD97":2543208.4709899998,"ADDRESS":"土庫路８７號","OBJECTID":656117},"geometry":{"x":174262.12179700099,"y":2543208.4709910005}},{"attributes":{"ID":656145,"DIS_CODE":0,"TOWNNAME":"仁德區","LI":"成功里","LIN":"7鄰","STREET":"保華路","SECT":" ","MAREA":" ","LANE":" ","ALLEY":" ","HOUSE_NO":"１３３號","E_COORD97":171094.71157099999,"N_COORD97":2540041.3807700002,"ADDRESS":"保華路１３３號","OBJECTID":656118},"geometry":{"x":171094.71157100052,"y":2540041.3807660006}},{"attributes":{"ID":656146,"DIS_CODE":0,"TOWNNAME":"仁德區","LI":"成功里","LIN":"11鄰","STREET":"成功二街","SECT":" ","MAREA":" ","LANE":"２３巷","ALLEY":" ","HOUSE_NO":"５號","E_COORD97":170934.74809400001,"N_COORD97":2539927.0468299999,"ADDRESS":"成功二街２３巷５號","OBJECTID":656119},"geometry":{"x":170934.74809399992,"y":2539927.0468269996}},{"attributes":{"ID":656147,"DIS_CODE":0,"TOWNNAME":"仁德區","LI":"土庫里","LIN":"10鄰","STREET":"土庫路","SECT":" ","MAREA":" ","LANE":"９５巷","ALLEY":" ","HOUSE_NO":"８號","E_COORD97":174341.37545200001,"N_COORD97":2543225.1926500001,"ADDRESS":"土庫路９５巷８號","OBJECTID":656120},"geometry":{"x":174341.37545199972,"y":2543225.1926480029}},{"attributes":{"ID":656148,"DIS_CODE":0,"TOWNNAME":"仁德區","LI":"土庫里","LIN":"10鄰","STREET":"土庫路","SECT":" ","MAREA":" ","LANE":"９５巷","ALLEY":" ","HOUSE_NO":"９號","E_COORD97":174333.95866599999,"N_COORD97":2543232.17765,"ADDRESS":"土庫路９５巷９號","OBJECTID":656121},"geometry":{"x":174333.95866600052,"y":2543232.1776450016}},{"attributes":{"ID":656149,"DIS_CODE":0,"TOWNNAME":"仁德區","LI":"土庫里","LIN":"10鄰","STREET":"土庫路","SECT":" ","MAREA":" ","LANE":" ","ALLEY":" ","HOUSE_NO":"１１７號","E_COORD97":174323.78707399999,"N_COORD97":2543147.1935200002,"ADDRESS":"土庫路１１７號","OBJECTID":656122},"geometry":{"x":174323.78707400057,"y":2543147.1935239993}},{"attributes":{"ID":656150,"DIS_CODE":0,"TOWNNAME":"仁德區","LI":"土庫里","LIN":"10鄰","STREET":"土庫路","SECT":" ","MAREA":" ","LANE":"９９巷","ALLEY":" ","HOUSE_NO":"６號","E_COORD97":174333.74675799999,"N_COORD97":2543196.61766,"ADDRESS":"土庫路９９巷６號","OBJECTID":656123},"geometry":{"x":174333.74675800186,"y":2543196.6176640037}},{"attributes":{"ID":656151,"DIS_CODE":0,"TOWNNAME":"仁德區","LI":"土庫里","LIN":"14鄰","STREET":"土庫路","SECT":" ","MAREA":" ","LANE":"１８５巷","ALLEY":" ","HOUSE_NO":"１３號","E_COORD97":174412.15278100001,"N_COORD97":2542985.1627799999,"ADDRESS":"土庫路１８５巷１３號","OBJECTID":656124},"geometry":{"x":174412.15278100129,"y":2542985.1627779994}},{"attributes":{"ID":656152,"DIS_CODE":0,"TOWNNAME":"仁德區","LI":"成功里","LIN":"28鄰","STREET":"成功一街","SECT":" ","MAREA":" ","LANE":"８巷","ALLEY":" ","HOUSE_NO":"８號","E_COORD97":170510.69342,"N_COORD97":2540210.9463599999,"ADDRESS":"成功一街８巷８號","OBJECTID":656125},"geometry":{"x":170510.69342000131,"y":2540210.9463640023}},{"attributes":{"ID":656153,"DIS_CODE":0,"TOWNNAME":"仁德區","LI":"土庫里","LIN":"14鄰","STREET":"土庫路","SECT":" ","MAREA":" ","LANE":"１８５巷","ALLEY":"３２弄","HOUSE_NO":"５１之１號","E_COORD97":174447.531246,"N_COORD97":2542531.8484399999,"ADDRESS":"土庫路１８５巷３２弄５１之１號","OBJECTID":656126},"geometry":{"x":174447.5312460009,"y":2542531.8484380022}},{"attributes":{"ID":656154,"DIS_CODE":0,"TOWNNAME":"仁德區","LI":"土庫里","LIN":"14鄰","STREET":"土庫路","SECT":" ","MAREA":" ","LANE":"１８５巷","ALLEY":"３２弄","HOUSE_NO":"６號","E_COORD97":174411.718765,"N_COORD97":2542913.0599000002,"ADDRESS":"土庫路１８５巷３２弄６號","OBJECTID":656127},"geometry":{"x":174411.71876500081,"y":2542913.0598990005}},{"attributes":{"ID":656155,"DIS_CODE":0,"TOWNNAME":"仁德區","LI":"土庫里","LIN":"14鄰","STREET":"土庫二街","SECT":" ","MAREA":" ","LANE":" ","ALLEY":" ","HOUSE_NO":"２７號","E_COORD97":174459.18619499999,"N_COORD97":2542984.70903,"ADDRESS":"土庫二街２７號","OBJECTID":656128},"geometry":{"x":174459.18619500007,"y":2542984.7090270016}},{"attributes":{"ID":656156,"DIS_CODE":0,"TOWNNAME":"仁德區","LI":"土庫里","LIN":"14鄰","STREET":"土庫二街","SECT":" ","MAREA":" ","LANE":" ","ALLEY":" ","HOUSE_NO":"７５號","E_COORD97":174521.275288,"N_COORD97":2542901.6299000001,"ADDRESS":"土庫二街７５號","OBJECTID":656129},"geometry":{"x":174521.2752880007,"y":2542901.6299050041}},{"attributes":{"ID":656157,"DIS_CODE":0,"TOWNNAME":"仁德區","LI":"成功里","LIN":"37鄰","STREET":"保華路","SECT":" ","MAREA":" ","LANE":" ","ALLEY":" ","HOUSE_NO":"２４５號","E_COORD97":170713.072132,"N_COORD97":2539968.5881599998,"ADDRESS":"保華路２４５號","OBJECTID":656130},"geometry":{"x":170713.0721320007,"y":2539968.588161001}},{"attributes":{"ID":656158,"DIS_CODE":0,"TOWNNAME":"仁德區","LI":"土庫里","LIN":"16鄰","STREET":"土庫一街","SECT":" ","MAREA":" ","LANE":"２２巷","ALLEY":"２３弄","HOUSE_NO":"２５號","E_COORD97":174587.390637,"N_COORD97":2543040.37733,"ADDRESS":"土庫一街２２巷２３弄２５號","OBJECTID":656131},"geometry":{"x":174587.39063700009,"y":2543040.3773299996}},{"attributes":{"ID":656159,"DIS_CODE":0,"TOWNNAME":"仁德區","LI":"土庫里","LIN":"16鄰","STREET":"土庫一街","SECT":" ","MAREA":" ","LANE":"２２巷","ALLEY":"２３弄","HOUSE_NO":"３０號","E_COORD97":174593.112157,"N_COORD97":2543035.1915000002,"ADDRESS":"土庫一街２２巷２３弄３０號","OBJECTID":656132},"geometry":{"x":174593.11215700116,"y":2543035.1915000007}},{"attributes":{"ID":656160,"DIS_CODE":0,"TOWNNAME":"仁德區","LI":"土庫里","LIN":"16鄰","STREET":"土庫一街","SECT":" ","MAREA":" ","LANE":"２２巷","ALLEY":" ","HOUSE_NO":"２５號","E_COORD97":174490.12478799999,"N_COORD97":2543006.0873500002,"ADDRESS":"土庫一街２２巷２５號","OBJECTID":656133},"geometry":{"x":174490.12478800025,"y":2543006.0873490013}},{"attributes":{"ID":656161,"DIS_CODE":0,"TOWNNAME":"仁德區","LI":"土庫里","LIN":"16鄰","STREET":"土庫一街","SECT":" ","MAREA":" ","LANE":"２２巷","ALLEY":" ","HOUSE_NO":"３３號","E_COORD97":174497.96539,"N_COORD97":2542990.6356899999,"ADDRESS":"土庫一街２２巷３３號","OBJECTID":656134},"geometry":{"x":174497.96539000049,"y":2542990.6356900018}},{"attributes":{"ID":656162,"DIS_CODE":0,"TOWNNAME":"仁德區","LI":"成功里","LIN":"13鄰","STREET":"全福路","SECT":" ","MAREA":" ","LANE":"３巷","ALLEY":"３５弄","HOUSE_NO":"９２號","E_COORD97":170657.24574099999,"N_COORD97":2539332.58042,"ADDRESS":"全福路３巷３５弄９２號","OBJECTID":656135},"geometry":{"x":170657.2457410004,"y":2539332.5804170035}},{"attributes":{"ID":656163,"DIS_CODE":0,"TOWNNAME":"仁德區","LI":"土庫里","LIN":"16鄰","STREET":"土庫一街","SECT":" ","MAREA":" ","LANE":"７１１巷","ALLEY":" ","HOUSE_NO":"９００號","E_COORD97":174956.74657399999,"N_COORD97":2542867.7632599999,"ADDRESS":"土庫一街７１１巷９００號","OBJECTID":656136},"geometry":{"x":174956.74657400046,"y":2542867.7632570025}},{"attributes":{"ID":656164,"DIS_CODE":0,"TOWNNAME":"仁德區","LI":"土庫里","LIN":"16鄰","STREET":"土庫一街","SECT":" ","MAREA":" ","LANE":"７１１巷","ALLEY":" ","HOUSE_NO":"９０３號","E_COORD97":174986.413718,"N_COORD97":2542938.6715500001,"ADDRESS":"土庫一街７１１巷９０３號","OBJECTID":656137},"geometry":{"x":174986.41371800099,"y":2542938.6715520024}},{"attributes":{"ID":656165,"DIS_CODE":0,"TOWNNAME":"仁德區","LI":"後壁里","LIN":"37鄰","STREET":"民安路","SECT":"一段","MAREA":" ","LANE":" ","ALLEY":" ","HOUSE_NO":"３６８號","E_COORD97":173077.513083,"N_COORD97":2539339.9325899999,"ADDRESS":"民安路一段３６８號","OBJECTID":656138},"geometry":{"x":173077.51308299974,"y":2539339.9325880036}},{"attributes":{"ID":656166,"DIS_CODE":0,"TOWNNAME":"仁德區","LI":"後壁里","LIN":"40鄰","STREET":"德善一街","SECT":" ","MAREA":" ","LANE":" ","ALLEY":" ","HOUSE_NO":"５４號","E_COORD97":173494.546126,"N_COORD97":2539031.4888399998,"ADDRESS":"德善一街５４號","OBJECTID":656139},"geometry":{"x":173494.54612600151,"y":2539031.4888390023}},{"attributes":{"ID":656167,"DIS_CODE":0,"TOWNNAME":"仁德區","LI":"成功里","LIN":"29鄰","STREET":"成功一街","SECT":" ","MAREA":" ","LANE":"１巷","ALLEY":"２６弄","HOUSE_NO":"１５號","E_COORD97":170703.31310900001,"N_COORD97":2540134.4262299999,"ADDRESS":"成功一街１巷２６弄１５號","OBJECTID":656140},"geometry":{"x":170703.31310900021,"y":2540134.4262340032}},{"attributes":{"ID":656168,"DIS_CODE":0,"TOWNNAME":"仁德區","LI":"成功里","LIN":"29鄰","STREET":"成功一街","SECT":" ","MAREA":" ","LANE":"１巷","ALLEY":"２６弄","HOUSE_NO":"１７號","E_COORD97":170701.93638299999,"N_COORD97":2540129.8753999998,"ADDRESS":"成功一街１巷２６弄１７號","OBJECTID":656141},"geometry":{"x":170701.93638300058,"y":2540129.8754030019}},{"attributes":{"ID":656169,"DIS_CODE":0,"TOWNNAME":"仁德區","LI":"成功里","LIN":"29鄰","STREET":"成功一街","SECT":" ","MAREA":" ","LANE":"１巷","ALLEY":"２６弄","HOUSE_NO":"１９號","E_COORD97":170702.359991,"N_COORD97":2540125.3245700002,"ADDRESS":"成功一街１巷２６弄１９號","OBJECTID":656142},"geometry":{"x":170702.35999100003,"y":2540125.3245720025}},{"attributes":{"ID":656170,"DIS_CODE":0,"TOWNNAME":"仁德區","LI":"成功里","LIN":"29鄰","STREET":"成功一街","SECT":" ","MAREA":" ","LANE":"１巷","ALLEY":"２６弄","HOUSE_NO":"２１號","E_COORD97":170701.406873,"N_COORD97":2540119.9270799998,"ADDRESS":"成功一街１巷２６弄２１號","OBJECTID":656143},"geometry":{"x":170701.40687300079,"y":2540119.9270750005}},{"attributes":{"ID":656171,"DIS_CODE":0,"TOWNNAME":"仁德區","LI":"成功里","LIN":"29鄰","STREET":"成功一街","SECT":" ","MAREA":" ","LANE":"１巷","ALLEY":"２６弄","HOUSE_NO":"２３號","E_COORD97":170701.51277500001,"N_COORD97":2540115.3762400001,"ADDRESS":"成功一街１巷２６弄２３號","OBJECTID":656144},"geometry":{"x":170701.51277500018,"y":2540115.3762440011}},{"attributes":{"ID":656172,"DIS_CODE":0,"TOWNNAME":"仁德區","LI":"成功里","LIN":"29鄰","STREET":"成功一街","SECT":" ","MAREA":" ","LANE":"１巷","ALLEY":"２６弄","HOUSE_NO":"２５號","E_COORD97":170700.771461,"N_COORD97":2540110.9312499999,"ADDRESS":"成功一街１巷２６弄２５號","OBJECTID":656145},"geometry":{"x":170700.77146100067,"y":2540110.9312460031}},{"attributes":{"ID":656173,"DIS_CODE":0,"TOWNNAME":"仁德區","LI":"成功里","LIN":"29鄰","STREET":"成功一街","SECT":" ","MAREA":" ","LANE":"１巷","ALLEY":"２６弄","HOUSE_NO":"３８號","E_COORD97":170683.72124000001,"N_COORD97":2540109.4495799998,"ADDRESS":"成功一街１巷２６弄３８號","OBJECTID":656146},"geometry":{"x":170683.7212400008,"y":2540109.4495800007}},{"attributes":{"ID":656174,"DIS_CODE":0,"TOWNNAME":"仁德區","LI":"成功里","LIN":"29鄰","STREET":"成功一街","SECT":" ","MAREA":" ","LANE":"１巷","ALLEY":"２６弄","HOUSE_NO":"４０號","E_COORD97":170683.82714199999,"N_COORD97":2540104.6870800001,"ADDRESS":"成功一街１巷２６弄４０號","OBJECTID":656147},"geometry":{"x":170683.82714200113,"y":2540104.6870830003}},{"attributes":{"ID":656175,"DIS_CODE":0,"TOWNNAME":"仁德區","LI":"成功里","LIN":"29鄰","STREET":"成功一街","SECT":" ","MAREA":" ","LANE":"１巷","ALLEY":"２６弄","HOUSE_NO":"４２號","E_COORD97":170684.144848,"N_COORD97":2540100.66542,"ADDRESS":"成功一街１巷２６弄４２號","OBJECTID":656148},"geometry":{"x":170684.14484800026,"y":2540100.665417999}},{"attributes":{"ID":656176,"DIS_CODE":0,"TOWNNAME":"仁德區","LI":"成功里","LIN":"29鄰","STREET":"成功一街","SECT":" ","MAREA":" ","LANE":"１巷","ALLEY":"２６弄","HOUSE_NO":"４６號","E_COORD97":170684.67435799999,"N_COORD97":2540092.9395900001,"ADDRESS":"成功一街１巷２６弄４６號","OBJECTID":656149},"geometry":{"x":170684.67435800098,"y":2540092.9395889994}},{"attributes":{"ID":656177,"DIS_CODE":0,"TOWNNAME":"仁德區","LI":"三甲里","LIN":"1鄰","STREET":" ","SECT":" ","MAREA":"三甲子","LANE":" ","ALLEY":" ","HOUSE_NO":"１１之１７號","E_COORD97":171672.86844799999,"N_COORD97":2537058.3332400001,"ADDRESS":"三甲子１１之１７號","OBJECTID":656150},"geometry":{"x":171672.8684480004,"y":2537058.3332380001}},{"attributes":{"ID":656178,"DIS_CODE":0,"TOWNNAME":"仁德區","LI":"成功里","LIN":"38鄰","STREET":"保華路","SECT":" ","MAREA":" ","LANE":"２巷","ALLEY":" ","HOUSE_NO":"２０號","E_COORD97":170732.33025500001,"N_COORD97":2540101.93542,"ADDRESS":"保華路２巷２０號","OBJECTID":656151},"geometry":{"x":170732.33025500085,"y":2540101.9354180023}},{"attributes":{"ID":656179,"DIS_CODE":0,"TOWNNAME":"仁德區","LI":"成功里","LIN":"38鄰","STREET":"保華路","SECT":" ","MAREA":" ","LANE":"２巷","ALLEY":" ","HOUSE_NO":"２２號","E_COORD97":170730.21221500001,"N_COORD97":2540090.6112600002,"ADDRESS":"保華路２巷２２號","OBJECTID":656152},"geometry":{"x":170730.21221500076,"y":2540090.6112570018}},{"attributes":{"ID":656180,"DIS_CODE":0,"TOWNNAME":"仁德區","LI":"成功里","LIN":"38鄰","STREET":"保華路","SECT":" ","MAREA":" ","LANE":"２巷","ALLEY":" ","HOUSE_NO":"２６號","E_COORD97":170724.49350800001,"N_COORD97":2540091.0345899998,"ADDRESS":"保華路２巷２６號","OBJECTID":656153},"geometry":{"x":170724.49350800179,"y":2540091.0345900003}},{"attributes":{"ID":656181,"DIS_CODE":0,"TOWNNAME":"仁德區","LI":"成功里","LIN":"38鄰","STREET":"保華路","SECT":" ","MAREA":" ","LANE":"２巷","ALLEY":" ","HOUSE_NO":"２８號","E_COORD97":170719.93972200001,"N_COORD97":2540091.1404200001,"ADDRESS":"保華路２巷２８號","OBJECTID":656154},"geometry":{"x":170719.93972199969,"y":2540091.1404240001}},{"attributes":{"ID":656182,"DIS_CODE":0,"TOWNNAME":"仁德區","LI":"成功里","LIN":"38鄰","STREET":"保華路","SECT":" ","MAREA":" ","LANE":"２巷","ALLEY":" ","HOUSE_NO":"３０號","E_COORD97":170715.59774,"N_COORD97":2540091.2462599999,"ADDRESS":"保華路２巷３０號","OBJECTID":656155},"geometry":{"x":170715.59774000105,"y":2540091.2462570015}},{"attributes":{"ID":656183,"DIS_CODE":0,"TOWNNAME":"仁德區","LI":"成功里","LIN":"38鄰","STREET":"保華路","SECT":" ","MAREA":" ","LANE":"２巷","ALLEY":" ","HOUSE_NO":"３２號","E_COORD97":170711.149856,"N_COORD97":2540091.5637599998,"ADDRESS":"保華路２巷３２號","OBJECTID":656156},"geometry":{"x":170711.14985600114,"y":2540091.5637570024}},{"attributes":{"ID":656184,"DIS_CODE":0,"TOWNNAME":"仁德區","LI":"成功里","LIN":"38鄰","STREET":"保華路","SECT":" ","MAREA":" ","LANE":"２巷","ALLEY":" ","HOUSE_NO":"３６號","E_COORD97":170705.53705099999,"N_COORD97":2540092.3045899998,"ADDRESS":"保華路２巷３６號","OBJECTID":656157},"geometry":{"x":170705.5370509997,"y":2540092.3045899998}},{"attributes":{"ID":656185,"DIS_CODE":0,"TOWNNAME":"仁德區","LI":"成功里","LIN":"38鄰","STREET":"保華路","SECT":" ","MAREA":" ","LANE":"２巷","ALLEY":" ","HOUSE_NO":"３８號","E_COORD97":170698.86522499999,"N_COORD97":2540093.99792,"ADDRESS":"保華路２巷３８號","OBJECTID":656158},"geometry":{"x":170698.86522500124,"y":2540093.9979220014}},{"attributes":{"ID":656186,"DIS_CODE":0,"TOWNNAME":"仁德區","LI":"土庫里","LIN":"17鄰","STREET":"土庫一街","SECT":" ","MAREA":" ","LANE":"２２巷","ALLEY":"１５弄","HOUSE_NO":"２號","E_COORD97":174491.39623700001,"N_COORD97":2543034.1331699998,"ADDRESS":"土庫一街２２巷１５弄２號","OBJECTID":656159},"geometry":{"x":174491.39623700082,"y":2543034.1331670024}},{"attributes":{"ID":656187,"DIS_CODE":0,"TOWNNAME":"仁德區","LI":"土庫里","LIN":"17鄰","STREET":"土庫一街","SECT":" ","MAREA":" ","LANE":" ","ALLEY":" ","HOUSE_NO":"３４號","E_COORD97":174515.76567600001,"N_COORD97":2543105.57063,"ADDRESS":"土庫一街３４號","OBJECTID":656160},"geometry":{"x":174515.76567600109,"y":2543105.5706280004}},{"attributes":{"ID":656188,"DIS_CODE":0,"TOWNNAME":"仁德區","LI":"土庫里","LIN":"18鄰","STREET":"土庫一街","SECT":" ","MAREA":" ","LANE":" ","ALLEY":" ","HOUSE_NO":"３９號","E_COORD97":174503.89881799999,"N_COORD97":2543115.73062,"ADDRESS":"土庫一街３９號","OBJECTID":656161},"geometry":{"x":174503.89881800115,"y":2543115.7306229994}},{"attributes":{"ID":656189,"DIS_CODE":0,"TOWNNAME":"仁德區","LI":"成功里","LIN":"39鄰","STREET":"文華路","SECT":"二段","MAREA":" ","LANE":"６１巷","ALLEY":" ","HOUSE_NO":"３號","E_COORD97":170350.76535999999,"N_COORD97":2537633.26841,"ADDRESS":"文華路二段６１巷３號","OBJECTID":656162},"geometry":{"x":170350.76535999961,"y":2537633.2684100028}},{"attributes":{"ID":656190,"DIS_CODE":0,"TOWNNAME":"仁德區","LI":"土庫里","LIN":"19鄰","STREET":"土庫一街","SECT":" ","MAREA":" ","LANE":" ","ALLEY":" ","HOUSE_NO":"２９號","E_COORD97":174493.72722599999,"N_COORD97":2542993.7048599999,"ADDRESS":"土庫一街２９號","OBJECTID":656163},"geometry":{"x":174493.72722600121,"y":2542993.7048550006}},{"attributes":{"ID":656191,"DIS_CODE":0,"TOWNNAME":"仁德區","LI":"土庫里","LIN":"19鄰","STREET":"太子一街","SECT":" ","MAREA":" ","LANE":" ","ALLEY":" ","HOUSE_NO":"４７號","E_COORD97":174751.61946700001,"N_COORD97":2543324.9630100001,"ADDRESS":"太子一街４７號","OBJECTID":656164},"geometry":{"x":174751.61946699955,"y":2543324.9630100019}},{"attributes":{"ID":656192,"DIS_CODE":0,"TOWNNAME":"仁德區","LI":"土庫里","LIN":"19鄰","STREET":"太子二街","SECT":" ","MAREA":" ","LANE":"１５６巷","ALLEY":" ","HOUSE_NO":"９號","E_COORD97":174437.359654,"N_COORD97":2543197.22224,"ADDRESS":"太子二街１５６巷９號","OBJECTID":656165},"geometry":{"x":174437.35965400096,"y":2543197.2222450003}},{"attributes":{"ID":656193,"DIS_CODE":0,"TOWNNAME":"仁德區","LI":"成功里","LIN":"10鄰","STREET":"成功二街","SECT":" ","MAREA":" ","LANE":"１５巷","ALLEY":" ","HOUSE_NO":"７號","E_COORD97":170943.73469700001,"N_COORD97":2539962.63314,"ADDRESS":"成功二街１５巷７號","OBJECTID":656166},"geometry":{"x":170943.73469700105,"y":2539962.6331400014}},{"attributes":{"ID":656194,"DIS_CODE":0,"TOWNNAME":"仁德區","LI":"成功里","LIN":"24鄰","STREET":"保華路","SECT":" ","MAREA":" ","LANE":"２６５巷","ALLEY":" ","HOUSE_NO":"１２號","E_COORD97":170629.62135999999,"N_COORD97":2539943.6115100002,"ADDRESS":"保華路２６５巷１２號","OBJECTID":656167},"geometry":{"x":170629.62136000209,"y":2539943.6115080025}},{"attributes":{"ID":656195,"DIS_CODE":0,"TOWNNAME":"仁德區","LI":"土庫里","LIN":"8鄰","STREET":"土庫路","SECT":" ","MAREA":" ","LANE":" ","ALLEY":" ","HOUSE_NO":"３０號","E_COORD97":174218.45851600001,"N_COORD97":2543311.0340100001,"ADDRESS":"土庫路３０號","OBJECTID":656168},"geometry":{"x":174218.45851599984,"y":2543311.0340069979}},{"attributes":{"ID":656196,"DIS_CODE":0,"TOWNNAME":"仁德區","LI":"成功里","LIN":"5鄰","STREET":"成功三街","SECT":" ","MAREA":" ","LANE":" ","ALLEY":" ","HOUSE_NO":"７７號","E_COORD97":171183.488793,"N_COORD97":2539856.8811400002,"ADDRESS":"成功三街７７號","OBJECTID":656169},"geometry":{"x":171183.48879300151,"y":2539856.8811379988}},{"attributes":{"ID":656197,"DIS_CODE":0,"TOWNNAME":"仁德區","LI":"土庫里","LIN":"19鄰","STREET":"太子二街","SECT":" ","MAREA":" ","LANE":"８８巷","ALLEY":" ","HOUSE_NO":"５５號","E_COORD97":174400.06381600001,"N_COORD97":2543162.33825,"ADDRESS":"太子二街８８巷５５號","OBJECTID":656170},"geometry":{"x":174400.06381599978,"y":2543162.338254001}},{"attributes":{"ID":656198,"DIS_CODE":0,"TOWNNAME":"仁德區","LI":"土庫里","LIN":"19鄰","STREET":"太子二街","SECT":" ","MAREA":" ","LANE":"１３８巷","ALLEY":" ","HOUSE_NO":"２０號","E_COORD97":174421.678449,"N_COORD97":2543254.5190400002,"ADDRESS":"太子二街１３８巷２０號","OBJECTID":656171},"geometry":{"x":174421.67844900209,"y":2543254.5190370046}},{"attributes":{"ID":656199,"DIS_CODE":0,"TOWNNAME":"仁德區","LI":"土庫里","LIN":"19鄰","STREET":"太子二街","SECT":" ","MAREA":" ","LANE":"８８巷","ALLEY":" ","HOUSE_NO":"１５號","E_COORD97":174404.09007100001,"N_COORD97":2543259.1757,"ADDRESS":"太子二街８８巷１５號","OBJECTID":656172},"geometry":{"x":174404.09007100016,"y":2543259.1757009998}},{"attributes":{"ID":656200,"DIS_CODE":0,"TOWNNAME":"仁德區","LI":"土庫里","LIN":"19鄰","STREET":"太子二街","SECT":" ","MAREA":" ","LANE":"８８巷","ALLEY":" ","HOUSE_NO":"１５號","E_COORD97":174404.09007100001,"N_COORD97":2543259.1757,"ADDRESS":"太子二街８８巷１５號","OBJECTID":656173},"geometry":{"x":174404.09007100016,"y":2543259.1757009998}},{"attributes":{"ID":656201,"DIS_CODE":0,"TOWNNAME":"仁德區","LI":"土庫里","LIN":"19鄰","STREET":"太子二街","SECT":" ","MAREA":" ","LANE":"８８巷","ALLEY":" ","HOUSE_NO":"１６號","E_COORD97":174368.06568299999,"N_COORD97":2543245.3115400001,"ADDRESS":"太子二街８８巷１６號","OBJECTID":656174},"geometry":{"x":174368.06568300072,"y":2543245.3115420043}},{"attributes":{"ID":656202,"DIS_CODE":0,"TOWNNAME":"仁德區","LI":"土庫里","LIN":"19鄰","STREET":"太子二街","SECT":" ","MAREA":" ","LANE":"８８巷","ALLEY":" ","HOUSE_NO":"３７號","E_COORD97":174424.85707200001,"N_COORD97":2543204.5657299999,"ADDRESS":"太子二街８８巷３７號","OBJECTID":656175},"geometry":{"x":174424.85707200039,"y":2543204.5657310002}},{"attributes":{"ID":656203,"DIS_CODE":0,"TOWNNAME":"仁德區","LI":"土庫里","LIN":"19鄰","STREET":"太子二街","SECT":" ","MAREA":" ","LANE":" ","ALLEY":" ","HOUSE_NO":"１０４號","E_COORD97":174396.249469,"N_COORD97":2543304.15484,"ADDRESS":"太子二街１０４號","OBJECTID":656176},"geometry":{"x":174396.24946900085,"y":2543304.1548440009}},{"attributes":{"ID":656204,"DIS_CODE":0,"TOWNNAME":"仁德區","LI":"成功里","LIN":"15鄰","STREET":"全福路","SECT":" ","MAREA":" ","LANE":"８０巷","ALLEY":" ","HOUSE_NO":"２２號","E_COORD97":171016.799053,"N_COORD97":2539191.719,"ADDRESS":"全福路８０巷２２號","OBJECTID":656177},"geometry":{"x":171016.79905300122,"y":2539191.7189980019}},{"attributes":{"ID":656205,"DIS_CODE":0,"TOWNNAME":"仁德區","LI":"土庫里","LIN":"21鄰","STREET":"太子二街","SECT":" ","MAREA":" ","LANE":"１２５巷","ALLEY":" ","HOUSE_NO":"１３號","E_COORD97":174514.28231899999,"N_COORD97":2543347.0173200001,"ADDRESS":"太子二街１２５巷１３號","OBJECTID":656178},"geometry":{"x":174514.28231899999,"y":2543347.0173209999}},{"attributes":{"ID":656206,"DIS_CODE":0,"TOWNNAME":"仁德區","LI":"土庫里","LIN":"21鄰","STREET":"太子二街","SECT":" ","MAREA":" ","LANE":"１２５巷","ALLEY":" ","HOUSE_NO":"７號","E_COORD97":174502.203553,"N_COORD97":2543343.5248199999,"ADDRESS":"太子二街１２５巷７號","OBJECTID":656179},"geometry":{"x":174502.20355300047,"y":2543343.5248220041}},{"attributes":{"ID":656207,"DIS_CODE":0,"TOWNNAME":"仁德區","LI":"土庫里","LIN":"21鄰","STREET":"太子二街","SECT":" ","MAREA":" ","LANE":"１２５巷","ALLEY":" ","HOUSE_NO":"２０號","E_COORD97":174528.69207399999,"N_COORD97":2543307.3298399998,"ADDRESS":"太子二街１２５巷２０號","OBJECTID":656180},"geometry":{"x":174528.6920739999,"y":2543307.3298420012}},{"attributes":{"ID":656208,"DIS_CODE":0,"TOWNNAME":"仁德區","LI":"土庫里","LIN":"21鄰","STREET":"太子二街","SECT":" ","MAREA":" ","LANE":"８８巷","ALLEY":" ","HOUSE_NO":"８號","E_COORD97":174366.158509,"N_COORD97":2543259.3873700001,"ADDRESS":"太子二街８８巷８號","OBJECTID":656181},"geometry":{"x":174366.15850900114,"y":2543259.387368001}},{"attributes":{"ID":656209,"DIS_CODE":0,"TOWNNAME":"仁德區","LI":"三甲里","LIN":"2鄰","STREET":" ","SECT":" ","MAREA":"三甲子","LANE":" ","ALLEY":" ","HOUSE_NO":"１６號","E_COORD97":171992.30992900001,"N_COORD97":2537150.5124499998,"ADDRESS":"三甲子１６號","OBJECTID":656182},"geometry":{"x":171992.30992900208,"y":2537150.512449}},{"attributes":{"ID":656210,"DIS_CODE":0,"TOWNNAME":"仁德區","LI":"土庫里","LIN":"22鄰","STREET":"太子二街","SECT":" ","MAREA":" ","LANE":" ","ALLEY":" ","HOUSE_NO":"１１號","E_COORD97":174316.148181,"N_COORD97":2543473.4880900001,"ADDRESS":"太子二街１１號","OBJECTID":656183},"geometry":{"x":174316.14818099979,"y":2543473.4880860019}},{"attributes":{"ID":656211,"DIS_CODE":0,"TOWNNAME":"仁德區","LI":"土庫里","LIN":"22鄰","STREET":"太子二街","SECT":" ","MAREA":" ","LANE":" ","ALLEY":" ","HOUSE_NO":"１３號","E_COORD97":174329.28648800001,"N_COORD97":2543483.2247500001,"ADDRESS":"太子二街１３號","OBJECTID":656184},"geometry":{"x":174329.2864880003,"y":2543483.2247470021}},{"attributes":{"ID":656212,"DIS_CODE":0,"TOWNNAME":"仁德區","LI":"成功里","LIN":"12鄰","STREET":"成功二街","SECT":" ","MAREA":" ","LANE":"３２巷","ALLEY":" ","HOUSE_NO":"１０號","E_COORD97":170862.17412099999,"N_COORD97":2539929.8558499999,"ADDRESS":"成功二街３２巷１０號","OBJECTID":656185},"geometry":{"x":170862.17412099987,"y":2539929.8558540046}},{"attributes":{"ID":656213,"DIS_CODE":0,"TOWNNAME":"仁德區","LI":"土庫里","LIN":"22鄰","STREET":"太子二街","SECT":" ","MAREA":" ","LANE":" ","ALLEY":" ","HOUSE_NO":"８１號","E_COORD97":174368.865384,"N_COORD97":2543322.2267800001,"ADDRESS":"太子二街８１號","OBJECTID":656186},"geometry":{"x":174368.86538400035,"y":2543322.2267760001}},{"attributes":{"ID":656214,"DIS_CODE":0,"TOWNNAME":"仁德區","LI":"土庫里","LIN":"22鄰","STREET":"太子路","SECT":" ","MAREA":" ","LANE":"１７９巷","ALLEY":"１１弄","HOUSE_NO":"７號","E_COORD97":174463.16451900001,"N_COORD97":2543456.42337,"ADDRESS":"太子路１７９巷１１弄７號","OBJECTID":656187},"geometry":{"x":174463.16451900173,"y":2543456.4233700018}},{"attributes":{"ID":656215,"DIS_CODE":0,"TOWNNAME":"仁德區","LI":"土庫里","LIN":"22鄰","STREET":"太子路","SECT":" ","MAREA":" ","LANE":"１７９巷","ALLEY":"１１弄","HOUSE_NO":"１３號","E_COORD97":174466.97886599999,"N_COORD97":2543424.7792199999,"ADDRESS":"太子路１７９巷１１弄１３號","OBJECTID":656188},"geometry":{"x":174466.97886600066,"y":2543424.7792200036}},{"attributes":{"ID":656216,"DIS_CODE":0,"TOWNNAME":"仁德區","LI":"土庫里","LIN":"23鄰","STREET":"太子二街","SECT":" ","MAREA":" ","LANE":"１２１巷","ALLEY":" ","HOUSE_NO":"１６號","E_COORD97":174487.74586,"N_COORD97":2543365.3009100002,"ADDRESS":"太子二街１２１巷１６號","OBJECTID":656189},"geometry":{"x":174487.74586000107,"y":2543365.3009100035}},{"attributes":{"ID":656217,"DIS_CODE":0,"TOWNNAME":"仁德區","LI":"土庫里","LIN":"23鄰","STREET":"太子路","SECT":" ","MAREA":" ","LANE":" ","ALLEY":" ","HOUSE_NO":"１４３號","E_COORD97":174700.28975900001,"N_COORD97":2543510.3983399998,"ADDRESS":"太子路１４３號","OBJECTID":656190},"geometry":{"x":174700.2897589989,"y":2543510.3983410001}},{"attributes":{"ID":656218,"DIS_CODE":0,"TOWNNAME":"仁德區","LI":"土庫里","LIN":"23鄰","STREET":"太子路","SECT":" ","MAREA":" ","LANE":" ","ALLEY":" ","HOUSE_NO":"１５９號","E_COORD97":174592.85231799999,"N_COORD97":2543506.48251,"ADDRESS":"太子路１５９號","OBJECTID":656191},"geometry":{"x":174592.85231800005,"y":2543506.4825090021}},{"attributes":{"ID":656219,"DIS_CODE":0,"TOWNNAME":"仁德區","LI":"土庫里","LIN":"23鄰","STREET":"太子路","SECT":" ","MAREA":" ","LANE":" ","ALLEY":" ","HOUSE_NO":"１６３號","E_COORD97":174554.07312300001,"N_COORD97":2543503.94251,"ADDRESS":"太子路１６３號","OBJECTID":656192},"geometry":{"x":174554.07312299963,"y":2543503.9425110016}},{"attributes":{"ID":656220,"DIS_CODE":0,"TOWNNAME":"仁德區","LI":"土庫里","LIN":"23鄰","STREET":"太子路","SECT":" ","MAREA":" ","LANE":" ","ALLEY":" ","HOUSE_NO":"１６７號","E_COORD97":174537.96810200001,"N_COORD97":2543501.1908499999,"ADDRESS":"太子路１６７號","OBJECTID":656193},"geometry":{"x":174537.96810199972,"y":2543501.1908459999}},{"attributes":{"ID":656221,"DIS_CODE":0,"TOWNNAME":"仁德區","LI":"土庫里","LIN":"23鄰","STREET":"太子路","SECT":" ","MAREA":" ","LANE":" ","ALLEY":" ","HOUSE_NO":"１７１號","E_COORD97":174502.79134600001,"N_COORD97":2543498.6508499999,"ADDRESS":"太子路１７１號","OBJECTID":656194},"geometry":{"x":174502.79134600144,"y":2543498.650847001}},{"attributes":{"ID":656222,"DIS_CODE":0,"TOWNNAME":"仁德區","LI":"成功里","LIN":"13鄰","STREET":"全福路","SECT":" ","MAREA":" ","LANE":"３巷","ALLEY":"３５弄","HOUSE_NO":"６７號","E_COORD97":170760.29640200001,"N_COORD97":2539225.4295700002,"ADDRESS":"全福路３巷３５弄６７號","OBJECTID":656195},"geometry":{"x":170760.29640199989,"y":2539225.4295680001}},{"attributes":{"ID":656223,"DIS_CODE":0,"TOWNNAME":"仁德區","LI":"土庫里","LIN":"23鄰","STREET":"太子路","SECT":" ","MAREA":" ","LANE":"１７９巷","ALLEY":" ","HOUSE_NO":"１７號","E_COORD97":174466.13123299999,"N_COORD97":2543414.51339,"ADDRESS":"太子路１７９巷１７號","OBJECTID":656196},"geometry":{"x":174466.13123300206,"y":2543414.5133919995}},{"attributes":{"ID":656224,"DIS_CODE":0,"TOWNNAME":"仁德區","LI":"土庫里","LIN":"23鄰","STREET":"太子路","SECT":" ","MAREA":" ","LANE":" ","ALLEY":" ","HOUSE_NO":"１８５號","E_COORD97":174431.59020100001,"N_COORD97":2543502.6725099999,"ADDRESS":"太子路１８５號","OBJECTID":656197},"geometry":{"x":174431.59020100161,"y":2543502.672511002}},{"attributes":{"ID":656225,"DIS_CODE":0,"TOWNNAME":"仁德區","LI":"土庫里","LIN":"23鄰","STREET":"太子路","SECT":" ","MAREA":" ","LANE":" ","ALLEY":" ","HOUSE_NO":"１９１號","E_COORD97":174411.24701699999,"N_COORD97":2543500.1325099999,"ADDRESS":"太子路１９１號","OBJECTID":656198},"geometry":{"x":174411.2470170008,"y":2543500.1325130016}},{"attributes":{"ID":656226,"DIS_CODE":0,"TOWNNAME":"仁德區","LI":"一甲里","LIN":"19鄰","STREET":"太乙二街","SECT":" ","MAREA":" ","LANE":" ","ALLEY":" ","HOUSE_NO":"６２號之１","E_COORD97":173380.31377800001,"N_COORD97":2542220.3965400001,"ADDRESS":"太乙二街６２號之１","OBJECTID":656199},"geometry":{"x":173380.31377800088,"y":2542220.3965370022}},{"attributes":{"ID":656227,"DIS_CODE":0,"TOWNNAME":"仁德區","LI":"一甲里","LIN":"19鄰","STREET":"太乙二街","SECT":" ","MAREA":" ","LANE":" ","ALLEY":" ","HOUSE_NO":"７０號","E_COORD97":173343.44175599999,"N_COORD97":2542214.4698700001,"ADDRESS":"太乙二街７０號","OBJECTID":656200},"geometry":{"x":173343.44175599981,"y":2542214.469874002}}]}