{"displayFieldName":"TOWNNAME","fieldAliases":{"ID":"ID","DIS_CODE":"DIS_CODE","TOWNNAME":"TOWNNAME","LI":"LI","LIN":"LIN","STREET":"STREET","SECT":"SECT","MAREA":"MAREA","LANE":"LANE","ALLEY":"ALLEY","HOUSE_NO":"HOUSE_NO","E_COORD97":"E_COORD97","N_COORD97":"N_COORD97","ADDRESS":"ADDRESS","OBJECTID":"OBJECTID"},"geometryType":"esriGeometryPoint","spatialReference":{"wkid":102443,"latestWkid":3826},"fields":[{"name":"ID","type":"esriFieldTypeDouble","alias":"ID"},{"name":"DIS_CODE","type":"esriFieldTypeInteger","alias":"DIS_CODE"},{"name":"TOWNNAME","type":"esriFieldTypeString","alias":"TOWNNAME","length":8},{"name":"LI","type":"esriFieldTypeString","alias":"LI","length":8},{"name":"LIN","type":"esriFieldTypeString","alias":"LIN","length":12},{"name":"STREET","type":"esriFieldTypeString","alias":"STREET","length":20},{"name":"SECT","type":"esriFieldTypeString","alias":"SECT","length":8},{"name":"MAREA","type":"esriFieldTypeString","alias":"MAREA","length":12},{"name":"LANE","type":"esriFieldTypeString","alias":"LANE","length":10},{"name":"ALLEY","type":"esriFieldTypeString","alias":"ALLEY","length":10},{"name":"HOUSE_NO","type":"esriFieldTypeString","alias":"HOUSE_NO","length":20},{"name":"E_COORD97","type":"esriFieldTypeDouble","alias":"E_COORD97"},{"name":"N_COORD97","type":"esriFieldTypeDouble","alias":"N_COORD97"},{"name":"ADDRESS","type":"esriFieldTypeString","alias":"ADDRESS","length":50},{"name":"OBJECTID","type":"esriFieldTypeOID","alias":"OBJECTID"}],"features":[{"attributes":{"ID":458626,"DIS_CODE":0,"TOWNNAME":"安南區","LI":"頂安里","LIN":"13鄰","STREET":"安中路","SECT":"一段","MAREA":" ","LANE":"３７９巷","ALLEY":" ","HOUSE_NO":"２號","E_COORD97":168353.66,"N_COORD97":2548733.48,"ADDRESS":"安中路一段３７９巷２號","OBJECTID":458601},"geometry":{"x":168353.66000000108,"y":2548733.4800000004}},{"attributes":{"ID":458627,"DIS_CODE":0,"TOWNNAME":"安平區","LI":"華平里","LIN":"18鄰","STREET":"建平八街","SECT":" ","MAREA":" ","LANE":"４５０巷","ALLEY":" ","HOUSE_NO":"２０號","E_COORD97":165108.73000000001,"N_COORD97":2543700.27,"ADDRESS":"建平八街４５０巷２０號","OBJECTID":458602},"geometry":{"x":165108.73000000138,"y":2543700.2700000014}},{"attributes":{"ID":458628,"DIS_CODE":0,"TOWNNAME":"安平區","LI":"華平里","LIN":"18鄰","STREET":"建平八街","SECT":" ","MAREA":" ","LANE":"４５０巷","ALLEY":" ","HOUSE_NO":"２號","E_COORD97":165100.01000000001,"N_COORD97":2543631.9300000002,"ADDRESS":"建平八街４５０巷２號","OBJECTID":458603},"geometry":{"x":165100.00999999978,"y":2543631.9300000016}},{"attributes":{"ID":458629,"DIS_CODE":0,"TOWNNAME":"安南區","LI":"頂安里","LIN":"13鄰","STREET":"安中路","SECT":"一段","MAREA":" ","LANE":"３７９巷","ALLEY":" ","HOUSE_NO":"１０號","E_COORD97":168351.44,"N_COORD97":2548719.1899999999,"ADDRESS":"安中路一段３７９巷１０號","OBJECTID":458604},"geometry":{"x":168351.44000000227,"y":2548719.1900000013}},{"attributes":{"ID":458630,"DIS_CODE":0,"TOWNNAME":"安南區","LI":"頂安里","LIN":"13鄰","STREET":"安中路","SECT":"一段","MAREA":" ","LANE":"３７９巷","ALLEY":" ","HOUSE_NO":"１２號","E_COORD97":168351.28,"N_COORD97":2548714.75,"ADDRESS":"安中路一段３７９巷１２號","OBJECTID":458605},"geometry":{"x":168351.28000000119,"y":2548714.7500000037}},{"attributes":{"ID":458631,"DIS_CODE":0,"TOWNNAME":"安南區","LI":"頂安里","LIN":"13鄰","STREET":"安中路","SECT":"一段","MAREA":" ","LANE":"３７９巷","ALLEY":" ","HOUSE_NO":"１６號","E_COORD97":168350.64000000001,"N_COORD97":2548710.7799999998,"ADDRESS":"安中路一段３７９巷１６號","OBJECTID":458606},"geometry":{"x":168350.63999999966,"y":2548710.7800000031}},{"attributes":{"ID":458632,"DIS_CODE":0,"TOWNNAME":"安南區","LI":"頂安里","LIN":"13鄰","STREET":"安中路","SECT":"一段","MAREA":" ","LANE":"３７９巷","ALLEY":" ","HOUSE_NO":"１８號","E_COORD97":168350.17000000001,"N_COORD97":2548705.7000000002,"ADDRESS":"安中路一段３７９巷１８號","OBJECTID":458607},"geometry":{"x":168350.17000000086,"y":2548705.7000000011}},{"attributes":{"ID":458633,"DIS_CODE":0,"TOWNNAME":"安南區","LI":"頂安里","LIN":"13鄰","STREET":"安中路","SECT":"一段","MAREA":" ","LANE":"３７９巷","ALLEY":" ","HOUSE_NO":"２０號","E_COORD97":168349.53,"N_COORD97":2548701.5699999998,"ADDRESS":"安中路一段３７９巷２０號","OBJECTID":458608},"geometry":{"x":168349.53000000119,"y":2548701.5700000003}},{"attributes":{"ID":458634,"DIS_CODE":0,"TOWNNAME":"安南區","LI":"頂安里","LIN":"13鄰","STREET":"安中路","SECT":"一段","MAREA":" ","LANE":"３７９巷","ALLEY":" ","HOUSE_NO":"２２號","E_COORD97":168348.26000000001,"N_COORD97":2548696.4900000002,"ADDRESS":"安中路一段３７９巷２２號","OBJECTID":458609},"geometry":{"x":168348.25999999978,"y":2548696.4900000039}},{"attributes":{"ID":458635,"DIS_CODE":0,"TOWNNAME":"安南區","LI":"頂安里","LIN":"13鄰","STREET":"安中路","SECT":"一段","MAREA":" ","LANE":"３７９巷","ALLEY":" ","HOUSE_NO":"２８號","E_COORD97":168347.31,"N_COORD97":2548686.9700000002,"ADDRESS":"安中路一段３７９巷２８號","OBJECTID":458610},"geometry":{"x":168347.30999999959,"y":2548686.9700000044}},{"attributes":{"ID":458636,"DIS_CODE":0,"TOWNNAME":"安南區","LI":"頂安里","LIN":"13鄰","STREET":"安中路","SECT":"一段","MAREA":" ","LANE":"３７９巷","ALLEY":" ","HOUSE_NO":"３０號","E_COORD97":168346.04000000001,"N_COORD97":2548683.3199999998,"ADDRESS":"安中路一段３７９巷３０號","OBJECTID":458611},"geometry":{"x":168346.04000000097,"y":2548683.3200000003}},{"attributes":{"ID":458637,"DIS_CODE":0,"TOWNNAME":"安南區","LI":"海西里","LIN":"13鄰","STREET":"海環街","SECT":" ","MAREA":" ","LANE":"２８１巷","ALLEY":" ","HOUSE_NO":"３１０號","E_COORD97":164702.07594899999,"N_COORD97":2548161.9331299998,"ADDRESS":"海環街２８１巷３１０號","OBJECTID":458612},"geometry":{"x":164702.07594900113,"y":2548161.9331340045}},{"attributes":{"ID":458638,"DIS_CODE":0,"TOWNNAME":"安平區","LI":"華平里","LIN":"19鄰","STREET":"建平八街","SECT":" ","MAREA":" ","LANE":"４５０巷","ALLEY":" ","HOUSE_NO":"２２號","E_COORD97":165109.29000000001,"N_COORD97":2543706.7200000002,"ADDRESS":"建平八街４５０巷２２號","OBJECTID":458613},"geometry":{"x":165109.2900000019,"y":2543706.7200000007}},{"attributes":{"ID":458639,"DIS_CODE":0,"TOWNNAME":"安平區","LI":"華平里","LIN":"19鄰","STREET":"建平八街","SECT":" ","MAREA":" ","LANE":"４５０巷","ALLEY":" ","HOUSE_NO":"２４號","E_COORD97":165109.84,"N_COORD97":2543711,"ADDRESS":"建平八街４５０巷２４號","OBJECTID":458614},"geometry":{"x":165109.83999999985,"y":2543711}},{"attributes":{"ID":458640,"DIS_CODE":0,"TOWNNAME":"安平區","LI":"華平里","LIN":"18鄰","STREET":"建平八街","SECT":" ","MAREA":" ","LANE":"４５０巷","ALLEY":" ","HOUSE_NO":"４號","E_COORD97":165100.42999999999,"N_COORD97":2543638.2799999998,"ADDRESS":"建平八街４５０巷４號","OBJECTID":458615},"geometry":{"x":165100.4299999997,"y":2543638.2799999975}},{"attributes":{"ID":458641,"DIS_CODE":0,"TOWNNAME":"永康區","LI":"六合里","LIN":"13鄰","STREET":"六合路","SECT":" ","MAREA":" ","LANE":"４８巷","ALLEY":" ","HOUSE_NO":"２７號","E_COORD97":171241.88,"N_COORD97":2545595,"ADDRESS":"六合路４８巷２７號","OBJECTID":458616},"geometry":{"x":171241.88000000082,"y":2545595.0000000019}},{"attributes":{"ID":458642,"DIS_CODE":0,"TOWNNAME":"永康區","LI":"六合里","LIN":"13鄰","STREET":"六合路","SECT":" ","MAREA":" ","LANE":"４８巷","ALLEY":" ","HOUSE_NO":"２９號","E_COORD97":171245.34,"N_COORD97":2545594,"ADDRESS":"六合路４８巷２９號","OBJECTID":458617},"geometry":{"x":171245.34000000171,"y":2545594.0000000037}},{"attributes":{"ID":458643,"DIS_CODE":0,"TOWNNAME":"永康區","LI":"六合里","LIN":"13鄰","STREET":"六合路","SECT":" ","MAREA":" ","LANE":"４８巷","ALLEY":" ","HOUSE_NO":"３１號","E_COORD97":171250.39999999999,"N_COORD97":2545593,"ADDRESS":"六合路４８巷３１號","OBJECTID":458618},"geometry":{"x":171250.40000000224,"y":2545593}},{"attributes":{"ID":458644,"DIS_CODE":0,"TOWNNAME":"永康區","LI":"六合里","LIN":"13鄰","STREET":"六合路","SECT":" ","MAREA":" ","LANE":"４８巷","ALLEY":" ","HOUSE_NO":"３３號","E_COORD97":171253.98000000001,"N_COORD97":2545592.5,"ADDRESS":"六合路４８巷３３號","OBJECTID":458619},"geometry":{"x":171253.98000000138,"y":2545592.5}},{"attributes":{"ID":458645,"DIS_CODE":0,"TOWNNAME":"永康區","LI":"六合里","LIN":"13鄰","STREET":"六合路","SECT":" ","MAREA":" ","LANE":"４８巷","ALLEY":" ","HOUSE_NO":"３５號","E_COORD97":171259.01999999999,"N_COORD97":2545591.25,"ADDRESS":"六合路４８巷３５號","OBJECTID":458620},"geometry":{"x":171259.02000000142,"y":2545591.25}},{"attributes":{"ID":458646,"DIS_CODE":0,"TOWNNAME":"永康區","LI":"六合里","LIN":"13鄰","STREET":"六合路","SECT":" ","MAREA":" ","LANE":"４８巷","ALLEY":" ","HOUSE_NO":"３９號","E_COORD97":171267.48999999999,"N_COORD97":2545589.5,"ADDRESS":"六合路４８巷３９號","OBJECTID":458621},"geometry":{"x":171267.49000000115,"y":2545589.5}},{"attributes":{"ID":458647,"DIS_CODE":0,"TOWNNAME":"永康區","LI":"六合里","LIN":"13鄰","STREET":"六合路","SECT":" ","MAREA":" ","LANE":"４８巷","ALLEY":" ","HOUSE_NO":"３號","E_COORD97":171184.48000000001,"N_COORD97":2545603.21,"ADDRESS":"六合路４８巷３號","OBJECTID":458622},"geometry":{"x":171184.48000000138,"y":2545603.2100000009}},{"attributes":{"ID":458648,"DIS_CODE":0,"TOWNNAME":"永康區","LI":"六合里","LIN":"13鄰","STREET":"六合路","SECT":" ","MAREA":" ","LANE":"４８巷","ALLEY":" ","HOUSE_NO":"５號","E_COORD97":171188.38,"N_COORD97":2545603.46,"ADDRESS":"六合路４８巷５號","OBJECTID":458623},"geometry":{"x":171188.37999999989,"y":2545603.4600000028}},{"attributes":{"ID":458649,"DIS_CODE":0,"TOWNNAME":"永康區","LI":"六合里","LIN":"13鄰","STREET":"六合路","SECT":" ","MAREA":" ","LANE":"４８巷","ALLEY":" ","HOUSE_NO":"７號","E_COORD97":171192.03,"N_COORD97":2545603.21,"ADDRESS":"六合路４８巷７號","OBJECTID":458624},"geometry":{"x":171192.03000000119,"y":2545603.2100000009}},{"attributes":{"ID":458650,"DIS_CODE":0,"TOWNNAME":"永康區","LI":"六合里","LIN":"13鄰","STREET":"六合路","SECT":" ","MAREA":" ","LANE":"４８巷","ALLEY":" ","HOUSE_NO":"９號","E_COORD97":171196.20999999999,"N_COORD97":2545602.96,"ADDRESS":"六合路４８巷９號","OBJECTID":458625},"geometry":{"x":171196.21000000089,"y":2545602.9600000028}},{"attributes":{"ID":458651,"DIS_CODE":0,"TOWNNAME":"永康區","LI":"六合里","LIN":"13鄰","STREET":"六合路","SECT":" ","MAREA":" ","LANE":"５４巷","ALLEY":" ","HOUSE_NO":"１０號","E_COORD97":171197.73999999999,"N_COORD97":2545628.4500000002,"ADDRESS":"六合路５４巷１０號","OBJECTID":458626},"geometry":{"x":171197.74000000115,"y":2545628.4500000011}},{"attributes":{"ID":458652,"DIS_CODE":0,"TOWNNAME":"麻豆區","LI":"穀興里","LIN":"10鄰","STREET":"三民路","SECT":" ","MAREA":" ","LANE":" ","ALLEY":" ","HOUSE_NO":"１號","E_COORD97":172794.60999999999,"N_COORD97":2564904.5699999998,"ADDRESS":"三民路１號","OBJECTID":458627},"geometry":{"x":172794.61000000034,"y":2564904.5700000003}},{"attributes":{"ID":458653,"DIS_CODE":0,"TOWNNAME":"永康區","LI":"六合里","LIN":"13鄰","STREET":"六合路","SECT":" ","MAREA":" ","LANE":"５４巷","ALLEY":" ","HOUSE_NO":"１４號","E_COORD97":171206.53,"N_COORD97":2545627.9500000002,"ADDRESS":"六合路５４巷１４號","OBJECTID":458628},"geometry":{"x":171206.53000000026,"y":2545627.9500000011}},{"attributes":{"ID":458654,"DIS_CODE":0,"TOWNNAME":"永康區","LI":"六合里","LIN":"13鄰","STREET":"六合路","SECT":" ","MAREA":" ","LANE":"５４巷","ALLEY":" ","HOUSE_NO":"１６號","E_COORD97":171212.16,"N_COORD97":2545625.25,"ADDRESS":"六合路５４巷１６號","OBJECTID":458629},"geometry":{"x":171212.16000000015,"y":2545625.25}},{"attributes":{"ID":458655,"DIS_CODE":0,"TOWNNAME":"永康區","LI":"六合里","LIN":"13鄰","STREET":"六合路","SECT":" ","MAREA":" ","LANE":"５４巷","ALLEY":" ","HOUSE_NO":"１８號","E_COORD97":171217.20999999999,"N_COORD97":2545624,"ADDRESS":"六合路５４巷１８號","OBJECTID":458630},"geometry":{"x":171217.20999999996,"y":2545624}},{"attributes":{"ID":458656,"DIS_CODE":0,"TOWNNAME":"永康區","LI":"六合里","LIN":"13鄰","STREET":"六合路","SECT":" ","MAREA":" ","LANE":"５４巷","ALLEY":" ","HOUSE_NO":"２０號","E_COORD97":171223.17000000001,"N_COORD97":2545622.5,"ADDRESS":"六合路５４巷２０號","OBJECTID":458631},"geometry":{"x":171223.17000000086,"y":2545622.5000000019}},{"attributes":{"ID":458657,"DIS_CODE":0,"TOWNNAME":"永康區","LI":"六合里","LIN":"13鄰","STREET":"六合路","SECT":" ","MAREA":" ","LANE":"５４巷","ALLEY":" ","HOUSE_NO":"２２號","E_COORD97":171229.20999999999,"N_COORD97":2545621.5,"ADDRESS":"六合路５４巷２２號","OBJECTID":458632},"geometry":{"x":171229.21000000183,"y":2545621.5000000019}},{"attributes":{"ID":458658,"DIS_CODE":0,"TOWNNAME":"永康區","LI":"六合里","LIN":"13鄰","STREET":"六合路","SECT":" ","MAREA":" ","LANE":"５４巷","ALLEY":" ","HOUSE_NO":"２４號","E_COORD97":171233.56,"N_COORD97":2545620.25,"ADDRESS":"六合路５４巷２４號","OBJECTID":458633},"geometry":{"x":171233.56000000052,"y":2545620.2500000019}},{"attributes":{"ID":458659,"DIS_CODE":0,"TOWNNAME":"永康區","LI":"六合里","LIN":"13鄰","STREET":"六合路","SECT":" ","MAREA":" ","LANE":"５４巷","ALLEY":" ","HOUSE_NO":"２６號","E_COORD97":171237.32000000001,"N_COORD97":2545619.25,"ADDRESS":"六合路５４巷２６號","OBJECTID":458634},"geometry":{"x":171237.32000000216,"y":2545619.2499999981}},{"attributes":{"ID":458660,"DIS_CODE":0,"TOWNNAME":"永康區","LI":"六合里","LIN":"13鄰","STREET":"六合路","SECT":" ","MAREA":" ","LANE":"５４巷","ALLEY":" ","HOUSE_NO":"２８號","E_COORD97":171246.82000000001,"N_COORD97":2545617,"ADDRESS":"六合路５４巷２８號","OBJECTID":458635},"geometry":{"x":171246.8200000003,"y":2545617}},{"attributes":{"ID":458661,"DIS_CODE":0,"TOWNNAME":"永康區","LI":"六合里","LIN":"13鄰","STREET":"六合路","SECT":" ","MAREA":" ","LANE":"５４巷","ALLEY":" ","HOUSE_NO":"３０號","E_COORD97":171250.56,"N_COORD97":2545616.25,"ADDRESS":"六合路５４巷３０號","OBJECTID":458636},"geometry":{"x":171250.56000000052,"y":2545616.2500000037}},{"attributes":{"ID":458662,"DIS_CODE":0,"TOWNNAME":"永康區","LI":"六合里","LIN":"13鄰","STREET":"六合路","SECT":" ","MAREA":" ","LANE":"５４巷","ALLEY":" ","HOUSE_NO":"３２號","E_COORD97":171255.26000000001,"N_COORD97":2545615.25,"ADDRESS":"六合路５４巷３２號","OBJECTID":458637},"geometry":{"x":171255.25999999978,"y":2545615.25}},{"attributes":{"ID":458663,"DIS_CODE":0,"TOWNNAME":"永康區","LI":"六合里","LIN":"13鄰","STREET":"六合路","SECT":" ","MAREA":" ","LANE":"５４巷","ALLEY":" ","HOUSE_NO":"３４號","E_COORD97":171259.17000000001,"N_COORD97":2545614.25,"ADDRESS":"六合路５４巷３４號","OBJECTID":458638},"geometry":{"x":171259.17000000086,"y":2545614.2500000019}},{"attributes":{"ID":458664,"DIS_CODE":0,"TOWNNAME":"永康區","LI":"六合里","LIN":"13鄰","STREET":"六合路","SECT":" ","MAREA":" ","LANE":"５４巷","ALLEY":" ","HOUSE_NO":"３６號","E_COORD97":171264.12,"N_COORD97":2545613.25,"ADDRESS":"六合路５４巷３６號","OBJECTID":458639},"geometry":{"x":171264.12000000104,"y":2545613.2500000019}},{"attributes":{"ID":458665,"DIS_CODE":0,"TOWNNAME":"永康區","LI":"六合里","LIN":"13鄰","STREET":"六合路","SECT":" ","MAREA":" ","LANE":"５４巷","ALLEY":" ","HOUSE_NO":"４號","E_COORD97":171184.89000000001,"N_COORD97":2545628.9500000002,"ADDRESS":"六合路５４巷４號","OBJECTID":458640},"geometry":{"x":171184.88999999966,"y":2545628.9500000011}},{"attributes":{"ID":458666,"DIS_CODE":0,"TOWNNAME":"永康區","LI":"六合里","LIN":"13鄰","STREET":"六合路","SECT":" ","MAREA":" ","LANE":"５４巷","ALLEY":" ","HOUSE_NO":"６號","E_COORD97":171188.73000000001,"N_COORD97":2545628.7000000002,"ADDRESS":"六合路５４巷６號","OBJECTID":458641},"geometry":{"x":171188.73000000045,"y":2545628.6999999993}},{"attributes":{"ID":458667,"DIS_CODE":0,"TOWNNAME":"永康區","LI":"六合里","LIN":"13鄰","STREET":"六合路","SECT":" ","MAREA":" ","LANE":"５４巷","ALLEY":" ","HOUSE_NO":"８號","E_COORD97":171192.78,"N_COORD97":2545628.4500000002,"ADDRESS":"六合路５４巷８號","OBJECTID":458642},"geometry":{"x":171192.78000000026,"y":2545628.4500000011}},{"attributes":{"ID":458668,"DIS_CODE":0,"TOWNNAME":"安平區","LI":"億載里","LIN":"5鄰","STREET":"永華十一街","SECT":" ","MAREA":" ","LANE":"１１３巷","ALLEY":" ","HOUSE_NO":"６４號","E_COORD97":163912.51999999999,"N_COORD97":2543690.9700000002,"ADDRESS":"永華十一街１１３巷６４號","OBJECTID":458643},"geometry":{"x":163912.52000000048,"y":2543690.9700000025}},{"attributes":{"ID":458669,"DIS_CODE":0,"TOWNNAME":"仁德區","LI":"土庫里","LIN":"13鄰","STREET":"土庫路","SECT":" ","MAREA":" ","LANE":"２１１巷","ALLEY":" ","HOUSE_NO":"６號","E_COORD97":174310.31,"N_COORD97":2542885.5,"ADDRESS":"土庫路２１１巷６號","OBJECTID":458644},"geometry":{"x":174310.31000000052,"y":2542885.5000000019}},{"attributes":{"ID":458670,"DIS_CODE":0,"TOWNNAME":"新化區","LI":"太平里","LIN":"13鄰","STREET":"太平街","SECT":" ","MAREA":" ","LANE":"４８巷","ALLEY":" ","HOUSE_NO":"２號","E_COORD97":178849.47,"N_COORD97":2548813.25,"ADDRESS":"太平街４８巷２號","OBJECTID":458645},"geometry":{"x":178849.47000000067,"y":2548813.2500000037}},{"attributes":{"ID":458671,"DIS_CODE":0,"TOWNNAME":"新化區","LI":"協興里","LIN":"13鄰","STREET":"太平街","SECT":" ","MAREA":" ","LANE":"１５０巷","ALLEY":" ","HOUSE_NO":"４３號","E_COORD97":178315.87,"N_COORD97":2548802.25,"ADDRESS":"太平街１５０巷４３號","OBJECTID":458646},"geometry":{"x":178315.87000000197,"y":2548802.25}},{"attributes":{"ID":458672,"DIS_CODE":0,"TOWNNAME":"佳里區","LI":"鎮山里","LIN":"13鄰","STREET":"祥和三街","SECT":" ","MAREA":" ","LANE":"２３巷","ALLEY":" ","HOUSE_NO":"８號","E_COORD97":166052.60000000001,"N_COORD97":2561255.04,"ADDRESS":"祥和三街２３巷８號","OBJECTID":458647},"geometry":{"x":166052.60000000149,"y":2561255.0399999991}},{"attributes":{"ID":458673,"DIS_CODE":0,"TOWNNAME":"安平區","LI":"平通里","LIN":"1鄰","STREET":"國平路","SECT":" ","MAREA":" ","LANE":"５９１巷","ALLEY":" ","HOUSE_NO":"２號","E_COORD97":165052.23000000001,"N_COORD97":2544139.27,"ADDRESS":"國平路５９１巷２號","OBJECTID":458648},"geometry":{"x":165052.23000000045,"y":2544139.2699999996}},{"attributes":{"ID":458674,"DIS_CODE":0,"TOWNNAME":"佳里區","LI":"鎮山里","LIN":"13鄰","STREET":"勝利路","SECT":" ","MAREA":" ","LANE":"２５巷","ALLEY":" ","HOUSE_NO":"２號","E_COORD97":165914.29000000001,"N_COORD97":2561372.8300000001,"ADDRESS":"勝利路２５巷２號","OBJECTID":458649},"geometry":{"x":165914.28999999911,"y":2561372.8300000001}},{"attributes":{"ID":458675,"DIS_CODE":0,"TOWNNAME":"佳里區","LI":"鎮山里","LIN":"13鄰","STREET":"勝利路","SECT":" ","MAREA":" ","LANE":"２５巷","ALLEY":" ","HOUSE_NO":"３號","E_COORD97":165908.79999999999,"N_COORD97":2561383.54,"ADDRESS":"勝利路２５巷３號","OBJECTID":458650},"geometry":{"x":165908.79999999981,"y":2561383.5399999991}},{"attributes":{"ID":458676,"DIS_CODE":0,"TOWNNAME":"歸仁區","LI":"看東里","LIN":"13鄰","STREET":"忠孝南路","SECT":" ","MAREA":" ","LANE":"２５巷","ALLEY":" ","HOUSE_NO":"４１號","E_COORD97":178583.20000000001,"N_COORD97":2540519.48,"ADDRESS":"忠孝南路２５巷４１號","OBJECTID":458651},"geometry":{"x":178583.19999999925,"y":2540519.4800000023}},{"attributes":{"ID":458677,"DIS_CODE":0,"TOWNNAME":"歸仁區","LI":"看東里","LIN":"13鄰","STREET":"忠孝南路","SECT":" ","MAREA":" ","LANE":"２５巷","ALLEY":" ","HOUSE_NO":"５３號","E_COORD97":178587.20000000001,"N_COORD97":2540492.48,"ADDRESS":"忠孝南路２５巷５３號","OBJECTID":458652},"geometry":{"x":178587.20000000112,"y":2540492.4800000023}},{"attributes":{"ID":458678,"DIS_CODE":0,"TOWNNAME":"北區","LI":"賢北里","LIN":"13鄰","STREET":"賢北街","SECT":" ","MAREA":" ","LANE":"５７巷","ALLEY":" ","HOUSE_NO":"２７號","E_COORD97":166179.23000000001,"N_COORD97":2545430.9399999999,"ADDRESS":"賢北街５７巷２７號","OBJECTID":458653},"geometry":{"x":166179.23000000045,"y":2545430.9399999976}},{"attributes":{"ID":458679,"DIS_CODE":0,"TOWNNAME":"北區","LI":"賢北里","LIN":"13鄰","STREET":"賢北街","SECT":" ","MAREA":" ","LANE":"５７巷","ALLEY":" ","HOUSE_NO":"２９號","E_COORD97":166174.42999999999,"N_COORD97":2545429.8500000001,"ADDRESS":"賢北街５７巷２９號","OBJECTID":458654},"geometry":{"x":166174.43000000063,"y":2545429.8500000015}},{"attributes":{"ID":458680,"DIS_CODE":0,"TOWNNAME":"北區","LI":"賢北里","LIN":"13鄰","STREET":"賢北街","SECT":" ","MAREA":" ","LANE":"５７巷","ALLEY":" ","HOUSE_NO":"３１號","E_COORD97":166171.37,"N_COORD97":2545427.02,"ADDRESS":"賢北街５７巷３１號","OBJECTID":458655},"geometry":{"x":166171.37000000011,"y":2545427.0199999977}},{"attributes":{"ID":458681,"DIS_CODE":0,"TOWNNAME":"北區","LI":"賢北里","LIN":"13鄰","STREET":"賢北街","SECT":" ","MAREA":" ","LANE":"５７巷","ALLEY":" ","HOUSE_NO":"３３號","E_COORD97":166167,"N_COORD97":2545426.7999999998,"ADDRESS":"賢北街５７巷３３號","OBJECTID":458656},"geometry":{"x":166167,"y":2545426.8000000045}},{"attributes":{"ID":458682,"DIS_CODE":0,"TOWNNAME":"北區","LI":"賢北里","LIN":"13鄰","STREET":"賢北街","SECT":" ","MAREA":" ","LANE":"５７巷","ALLEY":" ","HOUSE_NO":"３５號","E_COORD97":166163.28,"N_COORD97":2545424.3999999999,"ADDRESS":"賢北街５７巷３５號","OBJECTID":458657},"geometry":{"x":166163.28000000026,"y":2545424.4000000004}},{"attributes":{"ID":458683,"DIS_CODE":0,"TOWNNAME":"北區","LI":"賢北里","LIN":"13鄰","STREET":"賢北街","SECT":" ","MAREA":" ","LANE":"５７巷","ALLEY":" ","HOUSE_NO":"３７號","E_COORD97":166159.35000000001,"N_COORD97":2545423.3100000001,"ADDRESS":"賢北街５７巷３７號","OBJECTID":458658},"geometry":{"x":166159.35000000149,"y":2545423.3100000024}},{"attributes":{"ID":458684,"DIS_CODE":0,"TOWNNAME":"北區","LI":"賢北里","LIN":"13鄰","STREET":"賢北街","SECT":" ","MAREA":" ","LANE":"５７巷","ALLEY":" ","HOUSE_NO":"３９號","E_COORD97":166155.63,"N_COORD97":2545421.5600000001,"ADDRESS":"賢北街５７巷３９號","OBJECTID":458659},"geometry":{"x":166155.62999999989,"y":2545421.5600000024}},{"attributes":{"ID":458685,"DIS_CODE":0,"TOWNNAME":"北區","LI":"賢北里","LIN":"13鄰","STREET":"賢北街","SECT":" ","MAREA":" ","LANE":"５７巷","ALLEY":" ","HOUSE_NO":"３號","E_COORD97":166227.75,"N_COORD97":2545449.71,"ADDRESS":"賢北街５７巷３號","OBJECTID":458660},"geometry":{"x":166227.75,"y":2545449.7100000009}},{"attributes":{"ID":458686,"DIS_CODE":0,"TOWNNAME":"北區","LI":"賢北里","LIN":"13鄰","STREET":"賢北街","SECT":" ","MAREA":" ","LANE":"５７巷","ALLEY":" ","HOUSE_NO":"４１號","E_COORD97":166151.26000000001,"N_COORD97":2545419.3799999999,"ADDRESS":"賢北街５７巷４１號","OBJECTID":458661},"geometry":{"x":166151.25999999978,"y":2545419.379999999}},{"attributes":{"ID":458687,"DIS_CODE":0,"TOWNNAME":"北區","LI":"小康里","LIN":"13鄰","STREET":"公園路","SECT":" ","MAREA":" ","LANE":"９９４巷","ALLEY":" ","HOUSE_NO":"３５號","E_COORD97":169705.26999999999,"N_COORD97":2546306.3399999999,"ADDRESS":"公園路９９４巷３５號","OBJECTID":458662},"geometry":{"x":169705.27000000048,"y":2546306.3399999999}},{"attributes":{"ID":458688,"DIS_CODE":0,"TOWNNAME":"北區","LI":"小康里","LIN":"13鄰","STREET":"公園路","SECT":" ","MAREA":" ","LANE":"９９４巷","ALLEY":" ","HOUSE_NO":"３７號","E_COORD97":169710.76000000001,"N_COORD97":2546305.7000000002,"ADDRESS":"公園路９９４巷３７號","OBJECTID":458663},"geometry":{"x":169710.75999999978,"y":2546305.6999999993}},{"attributes":{"ID":458689,"DIS_CODE":0,"TOWNNAME":"北區","LI":"小康里","LIN":"13鄰","STREET":"公園路","SECT":" ","MAREA":" ","LANE":"９９４巷","ALLEY":" ","HOUSE_NO":"５８號","E_COORD97":169778.29999999999,"N_COORD97":2546292.1099999999,"ADDRESS":"公園路９９４巷５８號","OBJECTID":458664},"geometry":{"x":169778.29999999981,"y":2546292.1100000013}},{"attributes":{"ID":458690,"DIS_CODE":0,"TOWNNAME":"北區","LI":"小康里","LIN":"13鄰","STREET":"公園路","SECT":" ","MAREA":" ","LANE":"９９４巷","ALLEY":" ","HOUSE_NO":"５８號之１","E_COORD97":169789.23999999999,"N_COORD97":2546295.3900000001,"ADDRESS":"公園路９９４巷５８號之１","OBJECTID":458665},"geometry":{"x":169789.24000000115,"y":2546295.3900000025}},{"attributes":{"ID":458691,"DIS_CODE":0,"TOWNNAME":"安平區","LI":"億載里","LIN":"13鄰","STREET":"健康四街","SECT":" ","MAREA":" ","LANE":"９５巷","ALLEY":" ","HOUSE_NO":"２８號","E_COORD97":164106,"N_COORD97":2543259.7599999998,"ADDRESS":"健康四街９５巷２８號","OBJECTID":458666},"geometry":{"x":164106.00000000093,"y":2543259.7600000016}},{"attributes":{"ID":458692,"DIS_CODE":0,"TOWNNAME":"東區","LI":"關聖里","LIN":"13鄰","STREET":"裕英街","SECT":" ","MAREA":" ","LANE":" ","ALLEY":" ","HOUSE_NO":"９號","E_COORD97":172073.64999999999,"N_COORD97":2543030.79,"ADDRESS":"裕英街９號","OBJECTID":458667},"geometry":{"x":172073.65000000037,"y":2543030.7899999991}},{"attributes":{"ID":458693,"DIS_CODE":0,"TOWNNAME":"安平區","LI":"億載里","LIN":"13鄰","STREET":"健康四街","SECT":" ","MAREA":" ","LANE":"９５巷","ALLEY":" ","HOUSE_NO":"３０號","E_COORD97":164102.04000000001,"N_COORD97":2543259.2799999998,"ADDRESS":"健康四街９５巷３０號","OBJECTID":458668},"geometry":{"x":164102.04000000004,"y":2543259.2800000012}},{"attributes":{"ID":458694,"DIS_CODE":0,"TOWNNAME":"安平區","LI":"國平里","LIN":"13鄰","STREET":"建平一街","SECT":" ","MAREA":" ","LANE":"１８９巷","ALLEY":" ","HOUSE_NO":"６６號","E_COORD97":165491.38,"N_COORD97":2542755.3799999999,"ADDRESS":"建平一街１８９巷６６號","OBJECTID":458669},"geometry":{"x":165491.37999999989,"y":2542755.379999999}},{"attributes":{"ID":458695,"DIS_CODE":0,"TOWNNAME":"安平區","LI":"國平里","LIN":"13鄰","STREET":"建平一街","SECT":" ","MAREA":" ","LANE":"１８９巷","ALLEY":" ","HOUSE_NO":"６８號","E_COORD97":165491.38,"N_COORD97":2542759.4700000002,"ADDRESS":"建平一街１８９巷６８號","OBJECTID":458670},"geometry":{"x":165491.37999999989,"y":2542759.4700000007}},{"attributes":{"ID":458696,"DIS_CODE":0,"TOWNNAME":"安平區","LI":"國平里","LIN":"13鄰","STREET":"建平一街","SECT":" ","MAREA":" ","LANE":"１８９巷","ALLEY":" ","HOUSE_NO":"７０號","E_COORD97":165491.56,"N_COORD97":2542762.8500000001,"ADDRESS":"建平一街１８９巷７０號","OBJECTID":458671},"geometry":{"x":165491.55999999866,"y":2542762.8499999996}},{"attributes":{"ID":458697,"DIS_CODE":0,"TOWNNAME":"安平區","LI":"國平里","LIN":"13鄰","STREET":"建平一街","SECT":" ","MAREA":" ","LANE":"１８９巷","ALLEY":" ","HOUSE_NO":"７２號","E_COORD97":165491.56,"N_COORD97":2542766.4900000002,"ADDRESS":"建平一街１８９巷７２號","OBJECTID":458672},"geometry":{"x":165491.55999999866,"y":2542766.4899999984}},{"attributes":{"ID":458698,"DIS_CODE":0,"TOWNNAME":"安平區","LI":"國平里","LIN":"13鄰","STREET":"建平一街","SECT":" ","MAREA":" ","LANE":"１８９巷","ALLEY":" ","HOUSE_NO":"７６號","E_COORD97":165480.63,"N_COORD97":2542767.5499999998,"ADDRESS":"建平一街１８９巷７６號","OBJECTID":458673},"geometry":{"x":165480.62999999989,"y":2542767.5500000026}},{"attributes":{"ID":458699,"DIS_CODE":0,"TOWNNAME":"安平區","LI":"國平里","LIN":"13鄰","STREET":"建平一街","SECT":" ","MAREA":" ","LANE":"１８９巷","ALLEY":" ","HOUSE_NO":"７８號","E_COORD97":165480.63,"N_COORD97":2542765.0699999998,"ADDRESS":"建平一街１８９巷７８號","OBJECTID":458674},"geometry":{"x":165480.62999999989,"y":2542765.0700000003}},{"attributes":{"ID":458700,"DIS_CODE":0,"TOWNNAME":"安平區","LI":"國平里","LIN":"13鄰","STREET":"建平一街","SECT":" ","MAREA":" ","LANE":"１８９巷","ALLEY":" ","HOUSE_NO":"８０號","E_COORD97":165479.92000000001,"N_COORD97":2542762.4900000002,"ADDRESS":"建平一街１８９巷８０號","OBJECTID":458675},"geometry":{"x":165479.92000000086,"y":2542762.4900000002}},{"attributes":{"ID":458701,"DIS_CODE":0,"TOWNNAME":"安平區","LI":"國平里","LIN":"13鄰","STREET":"建平一街","SECT":" ","MAREA":" ","LANE":"１８９巷","ALLEY":" ","HOUSE_NO":"８２號","E_COORD97":165479.82999999999,"N_COORD97":2542759.1200000001,"ADDRESS":"建平一街１８９巷８２號","OBJECTID":458676},"geometry":{"x":165479.83000000007,"y":2542759.120000001}},{"attributes":{"ID":458702,"DIS_CODE":0,"TOWNNAME":"安平區","LI":"億載里","LIN":"13鄰","STREET":"健康四街","SECT":" ","MAREA":" ","LANE":"９５巷","ALLEY":" ","HOUSE_NO":"３８號","E_COORD97":164090.29000000001,"N_COORD97":2543259.2799999998,"ADDRESS":"健康四街９５巷３８號","OBJECTID":458677},"geometry":{"x":164090.28999999911,"y":2543259.2800000012}},{"attributes":{"ID":458703,"DIS_CODE":0,"TOWNNAME":"安平區","LI":"億載里","LIN":"13鄰","STREET":"健康四街","SECT":" ","MAREA":" ","LANE":"９５巷","ALLEY":" ","HOUSE_NO":"３６號","E_COORD97":164092.35000000001,"N_COORD97":2543258.6499999999,"ADDRESS":"健康四街９５巷３６號","OBJECTID":458678},"geometry":{"x":164092.34999999963,"y":2543258.6500000022}},{"attributes":{"ID":458704,"DIS_CODE":0,"TOWNNAME":"安平區","LI":"億載里","LIN":"13鄰","STREET":"健康四街","SECT":" ","MAREA":" ","LANE":"９５巷","ALLEY":" ","HOUSE_NO":"３２號","E_COORD97":164094.73000000001,"N_COORD97":2543259.1200000001,"ADDRESS":"健康四街９５巷３２號","OBJECTID":458679},"geometry":{"x":164094.73000000231,"y":2543259.1200000029}},{"attributes":{"ID":458705,"DIS_CODE":0,"TOWNNAME":"安平區","LI":"怡平里","LIN":"13鄰","STREET":"建平十二街","SECT":" ","MAREA":" ","LANE":"３８６巷","ALLEY":" ","HOUSE_NO":"２０號","E_COORD97":165619.29999999999,"N_COORD97":2544096.5,"ADDRESS":"建平十二街３８６巷２０號","OBJECTID":458680},"geometry":{"x":165619.30000000075,"y":2544096.5000000019}},{"attributes":{"ID":458706,"DIS_CODE":0,"TOWNNAME":"安平區","LI":"怡平里","LIN":"13鄰","STREET":"建平十二街","SECT":" ","MAREA":" ","LANE":"３８６巷","ALLEY":" ","HOUSE_NO":"１８號","E_COORD97":165619.29999999999,"N_COORD97":2544092.8500000001,"ADDRESS":"建平十二街３８６巷１８號","OBJECTID":458681},"geometry":{"x":165619.30000000075,"y":2544092.8500000034}},{"attributes":{"ID":458707,"DIS_CODE":0,"TOWNNAME":"新營區","LI":"興業里","LIN":"13鄰","STREET":"中興路","SECT":" ","MAREA":" ","LANE":"１３巷","ALLEY":" ","HOUSE_NO":"２８之１號","E_COORD97":180264.44,"N_COORD97":2577960.2200000002,"ADDRESS":"中興路１３巷２８之１號","OBJECTID":458682},"geometry":{"x":180264.44000000041,"y":2577960.2200000007}},{"attributes":{"ID":458708,"DIS_CODE":0,"TOWNNAME":"南區","LI":"新興里","LIN":"13鄰","STREET":"夏林路","SECT":" ","MAREA":" ","LANE":"２２２巷","ALLEY":" ","HOUSE_NO":"７號","E_COORD97":167423.97,"N_COORD97":2542216.02,"ADDRESS":"夏林路２２２巷７號","OBJECTID":458683},"geometry":{"x":167423.97000000067,"y":2542216.0199999996}},{"attributes":{"ID":458709,"DIS_CODE":0,"TOWNNAME":"南區","LI":"新興里","LIN":"13鄰","STREET":"夏林路","SECT":" ","MAREA":" ","LANE":"２２２巷","ALLEY":" ","HOUSE_NO":"８號","E_COORD97":167415.01999999999,"N_COORD97":2542244.9500000002,"ADDRESS":"夏林路２２２巷８號","OBJECTID":458684},"geometry":{"x":167415.02000000048,"y":2542244.9500000011}},{"attributes":{"ID":458710,"DIS_CODE":0,"TOWNNAME":"南區","LI":"新興里","LIN":"13鄰","STREET":"夏林路","SECT":" ","MAREA":" ","LANE":"２２２巷","ALLEY":" ","HOUSE_NO":"９號","E_COORD97":167418.76999999999,"N_COORD97":2542218.02,"ADDRESS":"夏林路２２２巷９號","OBJECTID":458685},"geometry":{"x":167418.76999999955,"y":2542218.0200000014}},{"attributes":{"ID":458711,"DIS_CODE":0,"TOWNNAME":"南區","LI":"鯤鯓里","LIN":"13鄰","STREET":"鯤鯓路","SECT":" ","MAREA":" ","LANE":"１９４巷","ALLEY":" ","HOUSE_NO":"４１號","E_COORD97":164997.23999999999,"N_COORD97":2540340.6800000002,"ADDRESS":"鯤鯓路１９４巷４１號","OBJECTID":458686},"geometry":{"x":164997.24000000022,"y":2540340.6800000034}},{"attributes":{"ID":458712,"DIS_CODE":0,"TOWNNAME":"南區","LI":"鯤鯓里","LIN":"13鄰","STREET":"鯤鯓路","SECT":" ","MAREA":" ","LANE":"１９４巷","ALLEY":" ","HOUSE_NO":"４３號","E_COORD97":164994.22,"N_COORD97":2540348.29,"ADDRESS":"鯤鯓路１９４巷４３號","OBJECTID":458687},"geometry":{"x":164994.22000000067,"y":2540348.2899999991}},{"attributes":{"ID":458713,"DIS_CODE":0,"TOWNNAME":"南區","LI":"鯤鯓里","LIN":"13鄰","STREET":"鯤鯓路","SECT":" ","MAREA":" ","LANE":"１９４巷","ALLEY":" ","HOUSE_NO":"４５號","E_COORD97":164996.60999999999,"N_COORD97":2540359.2000000002,"ADDRESS":"鯤鯓路１９４巷４５號","OBJECTID":458688},"geometry":{"x":164996.61000000034,"y":2540359.1999999993}},{"attributes":{"ID":458714,"DIS_CODE":0,"TOWNNAME":"南區","LI":"鯤鯓里","LIN":"13鄰","STREET":"鯤鯓路","SECT":" ","MAREA":" ","LANE":"１９４巷","ALLEY":" ","HOUSE_NO":"４９號","E_COORD97":165022.01000000001,"N_COORD97":2540324.0800000001,"ADDRESS":"鯤鯓路１９４巷４９號","OBJECTID":458689},"geometry":{"x":165022.00999999978,"y":2540324.0800000001}},{"attributes":{"ID":458715,"DIS_CODE":0,"TOWNNAME":"南區","LI":"鯤鯓里","LIN":"13鄰","STREET":"鯤鯓路","SECT":" ","MAREA":" ","LANE":"１９４巷","ALLEY":" ","HOUSE_NO":"５３號","E_COORD97":165035.66,"N_COORD97":2540334.7000000002,"ADDRESS":"鯤鯓路１９４巷５３號","OBJECTID":458690},"geometry":{"x":165035.66000000201,"y":2540334.7000000011}},{"attributes":{"ID":458716,"DIS_CODE":0,"TOWNNAME":"南區","LI":"鯤鯓里","LIN":"13鄰","STREET":"鯤鯓路","SECT":" ","MAREA":" ","LANE":"１９４巷","ALLEY":" ","HOUSE_NO":"５５號","E_COORD97":165035.12,"N_COORD97":2540344.1899999999,"ADDRESS":"鯤鯓路１９４巷５５號","OBJECTID":458691},"geometry":{"x":165035.12000000011,"y":2540344.1900000013}},{"attributes":{"ID":458717,"DIS_CODE":0,"TOWNNAME":"南區","LI":"鯤鯓里","LIN":"13鄰","STREET":"鯤鯓路","SECT":" ","MAREA":" ","LANE":"１９４巷","ALLEY":" ","HOUSE_NO":"５７號","E_COORD97":165025.03,"N_COORD97":2540349.0600000001,"ADDRESS":"鯤鯓路１９４巷５７號","OBJECTID":458692},"geometry":{"x":165025.03000000119,"y":2540349.0599999987}},{"attributes":{"ID":458718,"DIS_CODE":0,"TOWNNAME":"南區","LI":"鯤鯓里","LIN":"13鄰","STREET":"鯤鯓路","SECT":" ","MAREA":" ","LANE":"１９４巷","ALLEY":" ","HOUSE_NO":"５９號","E_COORD97":165045.07999999999,"N_COORD97":2540324.9199999999,"ADDRESS":"鯤鯓路１９４巷５９號","OBJECTID":458693},"geometry":{"x":165045.08000000101,"y":2540324.9199999999}},{"attributes":{"ID":458719,"DIS_CODE":0,"TOWNNAME":"南區","LI":"鯤鯓里","LIN":"13鄰","STREET":"鯤鯓路","SECT":" ","MAREA":" ","LANE":"１９４巷","ALLEY":" ","HOUSE_NO":"５９號之１","E_COORD97":165062.82999999999,"N_COORD97":2540326.0099999998,"ADDRESS":"鯤鯓路１９４巷５９號之１","OBJECTID":458694},"geometry":{"x":165062.83000000007,"y":2540326.0100000016}},{"attributes":{"ID":458720,"DIS_CODE":0,"TOWNNAME":"學甲區","LI":"慈福里","LIN":"13鄰","STREET":"綿和路","SECT":" ","MAREA":" ","LANE":" ","ALLEY":" ","HOUSE_NO":"８號","E_COORD97":166552.14999999999,"N_COORD97":2570343.6600000001,"ADDRESS":"綿和路８號","OBJECTID":458695},"geometry":{"x":166552.1500000013,"y":2570343.660000002}},{"attributes":{"ID":458721,"DIS_CODE":0,"TOWNNAME":"南區","LI":"鯤鯓里","LIN":"13鄰","STREET":"鯤鯓路","SECT":" ","MAREA":" ","LANE":"１９４巷","ALLEY":" ","HOUSE_NO":"６７號","E_COORD97":165049.42000000001,"N_COORD97":2540333.4900000002,"ADDRESS":"鯤鯓路１９４巷６７號","OBJECTID":458696},"geometry":{"x":165049.42000000086,"y":2540333.4900000021}},{"attributes":{"ID":458722,"DIS_CODE":0,"TOWNNAME":"南區","LI":"鯤鯓里","LIN":"13鄰","STREET":"鯤鯓路","SECT":" ","MAREA":" ","LANE":"１９４巷","ALLEY":" ","HOUSE_NO":"６９號","E_COORD97":165053.41,"N_COORD97":2540343.3900000001,"ADDRESS":"鯤鯓路１９４巷６９號","OBJECTID":458697},"geometry":{"x":165053.41000000015,"y":2540343.3900000006}},{"attributes":{"ID":458723,"DIS_CODE":0,"TOWNNAME":"南區","LI":"鯤鯓里","LIN":"13鄰","STREET":"鯤鯓路","SECT":" ","MAREA":" ","LANE":"１９４巷","ALLEY":" ","HOUSE_NO":"７１號","E_COORD97":165049.42000000001,"N_COORD97":2540352.7999999998,"ADDRESS":"鯤鯓路１９４巷７１號","OBJECTID":458698},"geometry":{"x":165049.42000000086,"y":2540352.8000000026}},{"attributes":{"ID":458724,"DIS_CODE":0,"TOWNNAME":"南區","LI":"鯤鯓里","LIN":"13鄰","STREET":"鯤鯓路","SECT":" ","MAREA":" ","LANE":"１９４巷","ALLEY":" ","HOUSE_NO":"７３號","E_COORD97":165066.57000000001,"N_COORD97":2540336.9900000002,"ADDRESS":"鯤鯓路１９４巷７３號","OBJECTID":458699},"geometry":{"x":165066.5700000003,"y":2540336.9900000021}},{"attributes":{"ID":458725,"DIS_CODE":0,"TOWNNAME":"南區","LI":"鯤鯓里","LIN":"13鄰","STREET":"鯤鯓路","SECT":" ","MAREA":" ","LANE":"１９４巷","ALLEY":" ","HOUSE_NO":"７５號","E_COORD97":165067.17999999999,"N_COORD97":2540342.9700000002,"ADDRESS":"鯤鯓路１９４巷７５號","OBJECTID":458700},"geometry":{"x":165067.18000000156,"y":2540342.9699999988}},{"attributes":{"ID":458726,"DIS_CODE":0,"TOWNNAME":"永康區","LI":"\u25A0洲里","LIN":"13鄰","STREET":"\u25A0洲一街","SECT":" ","MAREA":" ","LANE":" ","ALLEY":" ","HOUSE_NO":"６８號","E_COORD97":171592.23999999999,"N_COORD97":2549052.7400000002,"ADDRESS":"\u25A0洲一街６８號","OBJECTID":458701},"geometry":{"x":171592.24000000209,"y":2549052.7400000002}},{"attributes":{"ID":458727,"DIS_CODE":0,"TOWNNAME":"北區","LI":"延平里","LIN":"13鄰","STREET":"長榮路","SECT":"五段","MAREA":" ","LANE":"４０１巷","ALLEY":" ","HOUSE_NO":"１０號","E_COORD97":169330.01000000001,"N_COORD97":2545910.6699999999,"ADDRESS":"長榮路五段４０１巷１０號","OBJECTID":458702},"geometry":{"x":169330.00999999885,"y":2545910.6699999999}},{"attributes":{"ID":458728,"DIS_CODE":0,"TOWNNAME":"北區","LI":"延平里","LIN":"13鄰","STREET":"長榮路","SECT":"五段","MAREA":" ","LANE":"４０１巷","ALLEY":" ","HOUSE_NO":"１２號","E_COORD97":169329.14999999999,"N_COORD97":2545905.6899999999,"ADDRESS":"長榮路五段４０１巷１２號","OBJECTID":458703},"geometry":{"x":169329.15000000037,"y":2545905.6900000013}},{"attributes":{"ID":458729,"DIS_CODE":0,"TOWNNAME":"北區","LI":"延平里","LIN":"13鄰","STREET":"長榮路","SECT":"五段","MAREA":" ","LANE":"４０１巷","ALLEY":" ","HOUSE_NO":"１４號","E_COORD97":169327.95000000001,"N_COORD97":2545901.0600000001,"ADDRESS":"長榮路五段４０１巷１４號","OBJECTID":458704},"geometry":{"x":169327.95000000112,"y":2545901.0600000005}},{"attributes":{"ID":458730,"DIS_CODE":0,"TOWNNAME":"北區","LI":"延平里","LIN":"13鄰","STREET":"長榮路","SECT":"五段","MAREA":" ","LANE":"４０１巷","ALLEY":" ","HOUSE_NO":"１６號","E_COORD97":169326.75,"N_COORD97":2545896.6000000001,"ADDRESS":"長榮路五段４０１巷１６號","OBJECTID":458705},"geometry":{"x":169326.75,"y":2545896.5999999996}},{"attributes":{"ID":458731,"DIS_CODE":0,"TOWNNAME":"北區","LI":"延平里","LIN":"13鄰","STREET":"長榮路","SECT":"五段","MAREA":" ","LANE":"４０１巷","ALLEY":" ","HOUSE_NO":"１８號","E_COORD97":169325.72,"N_COORD97":2545892.48,"ADDRESS":"長榮路五段４０１巷１８號","OBJECTID":458706},"geometry":{"x":169325.72000000067,"y":2545892.4800000004}},{"attributes":{"ID":458732,"DIS_CODE":0,"TOWNNAME":"北區","LI":"延平里","LIN":"13鄰","STREET":"長榮路","SECT":"五段","MAREA":" ","LANE":"４０１巷","ALLEY":" ","HOUSE_NO":"２０號","E_COORD97":169325.38,"N_COORD97":2545887.8500000001,"ADDRESS":"長榮路五段４０１巷２０號","OBJECTID":458707},"geometry":{"x":169325.37999999989,"y":2545887.8500000015}},{"attributes":{"ID":458733,"DIS_CODE":0,"TOWNNAME":"北區","LI":"延平里","LIN":"13鄰","STREET":"長榮路","SECT":"五段","MAREA":" ","LANE":"４０１巷","ALLEY":" ","HOUSE_NO":"２２號","E_COORD97":169323.82999999999,"N_COORD97":2545881.1600000001,"ADDRESS":"長榮路五段４０１巷２２號","OBJECTID":458708},"geometry":{"x":169323.83000000101,"y":2545881.1600000039}},{"attributes":{"ID":458734,"DIS_CODE":0,"TOWNNAME":"北區","LI":"延平里","LIN":"13鄰","STREET":"長榮路","SECT":"五段","MAREA":" ","LANE":"４０１巷","ALLEY":" ","HOUSE_NO":"２４號","E_COORD97":169322.29000000001,"N_COORD97":2545876.6899999999,"ADDRESS":"長榮路五段４０１巷２４號","OBJECTID":458709},"geometry":{"x":169322.29000000097,"y":2545876.6899999976}},{"attributes":{"ID":458735,"DIS_CODE":0,"TOWNNAME":"北區","LI":"延平里","LIN":"13鄰","STREET":"長榮路","SECT":"五段","MAREA":" ","LANE":"４０１巷","ALLEY":" ","HOUSE_NO":"２６號","E_COORD97":169321.94,"N_COORD97":2545874.6400000001,"ADDRESS":"長榮路五段４０１巷２６號","OBJECTID":458710},"geometry":{"x":169321.94000000134,"y":2545874.6400000006}},{"attributes":{"ID":458736,"DIS_CODE":0,"TOWNNAME":"北區","LI":"延平里","LIN":"13鄰","STREET":"長榮路","SECT":"五段","MAREA":" ","LANE":"４０１巷","ALLEY":" ","HOUSE_NO":"２８號","E_COORD97":169321.07999999999,"N_COORD97":2545870.6899999999,"ADDRESS":"長榮路五段４０１巷２８號","OBJECTID":458711},"geometry":{"x":169321.08000000007,"y":2545870.6900000013}},{"attributes":{"ID":458737,"DIS_CODE":0,"TOWNNAME":"北區","LI":"延平里","LIN":"13鄰","STREET":"長榮路","SECT":"五段","MAREA":" ","LANE":"４０１巷","ALLEY":" ","HOUSE_NO":"２號","E_COORD97":169333.62,"N_COORD97":2545926.7999999998,"ADDRESS":"長榮路五段４０１巷２號","OBJECTID":458712},"geometry":{"x":169333.62000000104,"y":2545926.8000000007}},{"attributes":{"ID":458738,"DIS_CODE":0,"TOWNNAME":"北區","LI":"延平里","LIN":"13鄰","STREET":"長榮路","SECT":"五段","MAREA":" ","LANE":"４０１巷","ALLEY":" ","HOUSE_NO":"３０號","E_COORD97":169321.60000000001,"N_COORD97":2545864.6899999999,"ADDRESS":"長榮路五段４０１巷３０號","OBJECTID":458713},"geometry":{"x":169321.60000000056,"y":2545864.6900000013}},{"attributes":{"ID":458739,"DIS_CODE":0,"TOWNNAME":"北區","LI":"延平里","LIN":"13鄰","STREET":"長榮路","SECT":"五段","MAREA":" ","LANE":"４０１巷","ALLEY":" ","HOUSE_NO":"３２號","E_COORD97":169320.91,"N_COORD97":2545860.0600000001,"ADDRESS":"長榮路五段４０１巷３２號","OBJECTID":458714},"geometry":{"x":169320.90999999922,"y":2545860.0600000024}},{"attributes":{"ID":458740,"DIS_CODE":0,"TOWNNAME":"北區","LI":"延平里","LIN":"13鄰","STREET":"長榮路","SECT":"五段","MAREA":" ","LANE":"４０１巷","ALLEY":" ","HOUSE_NO":"３４號","E_COORD97":169305.10999999999,"N_COORD97":2545863.8300000001,"ADDRESS":"長榮路五段４０１巷３４號","OBJECTID":458715},"geometry":{"x":169305.11000000127,"y":2545863.8300000019}},{"attributes":{"ID":458741,"DIS_CODE":0,"TOWNNAME":"北區","LI":"延平里","LIN":"13鄰","STREET":"長榮路","SECT":"五段","MAREA":" ","LANE":"４０１巷","ALLEY":" ","HOUSE_NO":"４號","E_COORD97":169332.07000000001,"N_COORD97":2545922.8500000001,"ADDRESS":"長榮路五段４０１巷４號","OBJECTID":458716},"geometry":{"x":169332.07000000216,"y":2545922.8499999996}},{"attributes":{"ID":458742,"DIS_CODE":0,"TOWNNAME":"北區","LI":"延平里","LIN":"13鄰","STREET":"長榮路","SECT":"五段","MAREA":" ","LANE":"４０１巷","ALLEY":" ","HOUSE_NO":"６號","E_COORD97":169331.56,"N_COORD97":2545919.4199999999,"ADDRESS":"長榮路五段４０１巷６號","OBJECTID":458717},"geometry":{"x":169331.56000000052,"y":2545919.4199999999}},{"attributes":{"ID":458743,"DIS_CODE":0,"TOWNNAME":"北區","LI":"延平里","LIN":"13鄰","STREET":"長榮路","SECT":"五段","MAREA":" ","LANE":"４０１巷","ALLEY":" ","HOUSE_NO":"８號","E_COORD97":169330.87,"N_COORD97":2545915.6400000001,"ADDRESS":"長榮路五段４０１巷８號","OBJECTID":458718},"geometry":{"x":169330.87000000011,"y":2545915.6400000043}},{"attributes":{"ID":458744,"DIS_CODE":0,"TOWNNAME":"安平區","LI":"國平里","LIN":"13鄰","STREET":"建平一街","SECT":" ","MAREA":" ","LANE":"１８９巷","ALLEY":" ","HOUSE_NO":"１１１號","E_COORD97":165416.23999999999,"N_COORD97":2542747.8300000001,"ADDRESS":"建平一街１８９巷１１１號","OBJECTID":458719},"geometry":{"x":165416.24000000022,"y":2542747.8300000019}},{"attributes":{"ID":458745,"DIS_CODE":0,"TOWNNAME":"安平區","LI":"國平里","LIN":"13鄰","STREET":"建平一街","SECT":" ","MAREA":" ","LANE":"１８９巷","ALLEY":" ","HOUSE_NO":"１１３號","E_COORD97":165412.26000000001,"N_COORD97":2542748.8199999998,"ADDRESS":"建平一街１８９巷１１３號","OBJECTID":458720},"geometry":{"x":165412.25999999978,"y":2542748.8200000022}},{"attributes":{"ID":458746,"DIS_CODE":0,"TOWNNAME":"安平區","LI":"國平里","LIN":"13鄰","STREET":"建平一街","SECT":" ","MAREA":" ","LANE":"１８９巷","ALLEY":" ","HOUSE_NO":"１１５號","E_COORD97":165407.70000000001,"N_COORD97":2542749.2200000002,"ADDRESS":"建平一街１８９巷１１５號","OBJECTID":458721},"geometry":{"x":165407.70000000019,"y":2542749.2200000025}},{"attributes":{"ID":458747,"DIS_CODE":0,"TOWNNAME":"安平區","LI":"國平里","LIN":"13鄰","STREET":"建平一街","SECT":" ","MAREA":" ","LANE":"１８９巷","ALLEY":" ","HOUSE_NO":"１１７號","E_COORD97":165403.72,"N_COORD97":2542749.8100000001,"ADDRESS":"建平一街１８９巷１１７號","OBJECTID":458722},"geometry":{"x":165403.71999999974,"y":2542749.8100000005}},{"attributes":{"ID":458748,"DIS_CODE":0,"TOWNNAME":"安平區","LI":"國平里","LIN":"13鄰","STREET":"建平一街","SECT":" ","MAREA":" ","LANE":"１８９巷","ALLEY":" ","HOUSE_NO":"１１９號","E_COORD97":165399.95000000001,"N_COORD97":2542751,"ADDRESS":"建平一街１８９巷１１９號","OBJECTID":458723},"geometry":{"x":165399.95000000205,"y":2542751.0000000019}},{"attributes":{"ID":458749,"DIS_CODE":0,"TOWNNAME":"安平區","LI":"國平里","LIN":"13鄰","STREET":"建平一街","SECT":" ","MAREA":" ","LANE":"１８９巷","ALLEY":" ","HOUSE_NO":"１２１號","E_COORD97":165396.57000000001,"N_COORD97":2542751.6000000001,"ADDRESS":"建平一街１８９巷１２１號","OBJECTID":458724},"geometry":{"x":165396.57000000123,"y":2542751.5999999978}},{"attributes":{"ID":458750,"DIS_CODE":0,"TOWNNAME":"安平區","LI":"國平里","LIN":"13鄰","STREET":"建平一街","SECT":" ","MAREA":" ","LANE":"１８９巷","ALLEY":" ","HOUSE_NO":"１２３號","E_COORD97":165391.01000000001,"N_COORD97":2542751.2000000002,"ADDRESS":"建平一街１８９巷１２３號","OBJECTID":458725},"geometry":{"x":165391.01000000071,"y":2542751.2000000011}},{"attributes":{"ID":458751,"DIS_CODE":0,"TOWNNAME":"北區","LI":"玉皇里","LIN":"13鄰","STREET":"成功路","SECT":" ","MAREA":" ","LANE":"６８巷","ALLEY":" ","HOUSE_NO":"３２號","E_COORD97":168728.23000000001,"N_COORD97":2544449.5699999998,"ADDRESS":"成功路６８巷３２號","OBJECTID":458726},"geometry":{"x":168728.23000000138,"y":2544449.5700000022}},{"attributes":{"ID":458752,"DIS_CODE":0,"TOWNNAME":"北區","LI":"玉皇里","LIN":"13鄰","STREET":"成功路","SECT":" ","MAREA":" ","LANE":"６８巷","ALLEY":" ","HOUSE_NO":"３４號","E_COORD97":168731.69,"N_COORD97":2544456.1000000001,"ADDRESS":"成功路６８巷３４號","OBJECTID":458727},"geometry":{"x":168731.69000000134,"y":2544456.0999999996}},{"attributes":{"ID":458753,"DIS_CODE":0,"TOWNNAME":"北區","LI":"玉皇里","LIN":"13鄰","STREET":"成功路","SECT":" ","MAREA":" ","LANE":"６８巷","ALLEY":" ","HOUSE_NO":"３６號","E_COORD97":168733.64999999999,"N_COORD97":2544463.1499999999,"ADDRESS":"成功路６８巷３６號","OBJECTID":458728},"geometry":{"x":168733.6500000013,"y":2544463.1500000004}},{"attributes":{"ID":458754,"DIS_CODE":0,"TOWNNAME":"北區","LI":"玉皇里","LIN":"13鄰","STREET":"成功路","SECT":" ","MAREA":" ","LANE":"６８巷","ALLEY":" ","HOUSE_NO":"３８號","E_COORD97":168736.54999999999,"N_COORD97":2544471.4100000001,"ADDRESS":"成功路６８巷３８號","OBJECTID":458729},"geometry":{"x":168736.55000000168,"y":2544471.4100000001}},{"attributes":{"ID":458755,"DIS_CODE":0,"TOWNNAME":"北區","LI":"玉皇里","LIN":"13鄰","STREET":"成功路","SECT":" ","MAREA":" ","LANE":"６８巷","ALLEY":" ","HOUSE_NO":"４０號","E_COORD97":168738.59,"N_COORD97":2544480.5899999999,"ADDRESS":"成功路６８巷４０號","OBJECTID":458730},"geometry":{"x":168738.59000000078,"y":2544480.5899999999}},{"attributes":{"ID":458756,"DIS_CODE":0,"TOWNNAME":"北區","LI":"玉皇里","LIN":"13鄰","STREET":"成功路","SECT":" ","MAREA":" ","LANE":"６８巷","ALLEY":" ","HOUSE_NO":"４２號","E_COORD97":168744.63,"N_COORD97":2544494.6400000001,"ADDRESS":"成功路６８巷４２號","OBJECTID":458731},"geometry":{"x":168744.63000000175,"y":2544494.6400000006}},{"attributes":{"ID":458757,"DIS_CODE":0,"TOWNNAME":"北區","LI":"玉皇里","LIN":"13鄰","STREET":"成功路","SECT":" ","MAREA":" ","LANE":"６８巷","ALLEY":" ","HOUSE_NO":"４４號","E_COORD97":168749.64999999999,"N_COORD97":2544493.7799999998,"ADDRESS":"成功路６８巷４４號","OBJECTID":458732},"geometry":{"x":168749.65000000037,"y":2544493.7800000012}},{"attributes":{"ID":458758,"DIS_CODE":0,"TOWNNAME":"北區","LI":"三德里","LIN":"13鄰","STREET":"裕民街","SECT":" ","MAREA":" ","LANE":" ","ALLEY":" ","HOUSE_NO":"２３號","E_COORD97":168431.01000000001,"N_COORD97":2544426.7000000002,"ADDRESS":"裕民街２３號","OBJECTID":458733},"geometry":{"x":168431.00999999978,"y":2544426.7000000011}},{"attributes":{"ID":458759,"DIS_CODE":0,"TOWNNAME":"北區","LI":"玉皇里","LIN":"13鄰","STREET":"成功路","SECT":" ","MAREA":" ","LANE":"６８巷","ALLEY":" ","HOUSE_NO":"４６號","E_COORD97":168753.17999999999,"N_COORD97":2544490.8799999999,"ADDRESS":"成功路６８巷４６號","OBJECTID":458734},"geometry":{"x":168753.18000000063,"y":2544490.879999999}},{"attributes":{"ID":458760,"DIS_CODE":0,"TOWNNAME":"北區","LI":"玉皇里","LIN":"13鄰","STREET":"成功路","SECT":" ","MAREA":" ","LANE":"６８巷","ALLEY":" ","HOUSE_NO":"４８號","E_COORD97":168756.63,"N_COORD97":2544489.4700000002,"ADDRESS":"成功路６８巷４８號","OBJECTID":458735},"geometry":{"x":168756.63000000082,"y":2544489.4699999988}},{"attributes":{"ID":458761,"DIS_CODE":0,"TOWNNAME":"北區","LI":"玉皇里","LIN":"13鄰","STREET":"成功路","SECT":" ","MAREA":" ","LANE":"６８巷","ALLEY":" ","HOUSE_NO":"１４號","E_COORD97":168714.48999999999,"N_COORD97":2544400.9100000001,"ADDRESS":"成功路６８巷１４號","OBJECTID":458736},"geometry":{"x":168714.49000000115,"y":2544400.9100000001}},{"attributes":{"ID":458762,"DIS_CODE":0,"TOWNNAME":"北區","LI":"玉皇里","LIN":"13鄰","STREET":"成功路","SECT":" ","MAREA":" ","LANE":"６８巷","ALLEY":" ","HOUSE_NO":"１４號之１","E_COORD97":168713.48000000001,"N_COORD97":2544397.54,"ADDRESS":"成功路６８巷１４號之１","OBJECTID":458737},"geometry":{"x":168713.48000000045,"y":2544397.540000001}},{"attributes":{"ID":458763,"DIS_CODE":0,"TOWNNAME":"北區","LI":"玉皇里","LIN":"13鄰","STREET":"成功路","SECT":" ","MAREA":" ","LANE":"６８巷","ALLEY":" ","HOUSE_NO":"１４號之２","E_COORD97":168712.22,"N_COORD97":2544394.1000000001,"ADDRESS":"成功路６８巷１４號之２","OBJECTID":458738},"geometry":{"x":168712.22000000067,"y":2544394.1000000015}},{"attributes":{"ID":458764,"DIS_CODE":0,"TOWNNAME":"北區","LI":"玉皇里","LIN":"13鄰","STREET":"成功路","SECT":" ","MAREA":" ","LANE":"６８巷","ALLEY":" ","HOUSE_NO":"１４號之３","E_COORD97":168711.64000000001,"N_COORD97":2544390.9399999999,"ADDRESS":"成功路６８巷１４號之３","OBJECTID":458739},"geometry":{"x":168711.63999999966,"y":2544390.9400000013}},{"attributes":{"ID":458765,"DIS_CODE":0,"TOWNNAME":"北區","LI":"玉皇里","LIN":"13鄰","STREET":"成功路","SECT":" ","MAREA":" ","LANE":"６８巷","ALLEY":" ","HOUSE_NO":"１６號","E_COORD97":168718.48999999999,"N_COORD97":2544405.0699999998,"ADDRESS":"成功路６８巷１６號","OBJECTID":458740},"geometry":{"x":168718.49000000022,"y":2544405.0700000022}},{"attributes":{"ID":458766,"DIS_CODE":0,"TOWNNAME":"北區","LI":"玉皇里","LIN":"13鄰","STREET":"成功路","SECT":" ","MAREA":" ","LANE":"６８巷","ALLEY":" ","HOUSE_NO":"１８號","E_COORD97":168717.47,"N_COORD97":2544411.04,"ADDRESS":"成功路６８巷１８號","OBJECTID":458741},"geometry":{"x":168717.47000000067,"y":2544411.040000001}},{"attributes":{"ID":458767,"DIS_CODE":0,"TOWNNAME":"北區","LI":"玉皇里","LIN":"13鄰","STREET":"成功路","SECT":" ","MAREA":" ","LANE":"６８巷","ALLEY":" ","HOUSE_NO":"２０號","E_COORD97":168719.67000000001,"N_COORD97":2544415.8199999998,"ADDRESS":"成功路６８巷２０號","OBJECTID":458742},"geometry":{"x":168719.67000000086,"y":2544415.820000004}},{"attributes":{"ID":458768,"DIS_CODE":0,"TOWNNAME":"歸仁區","LI":"媽廟里","LIN":"13鄰","STREET":"中正北路","SECT":"三段","MAREA":" ","LANE":"５０巷","ALLEY":" ","HOUSE_NO":"１００號","E_COORD97":177830.41,"N_COORD97":2543471.7200000002,"ADDRESS":"中正北路三段５０巷１００號","OBJECTID":458743},"geometry":{"x":177830.41000000015,"y":2543471.7200000025}},{"attributes":{"ID":458769,"DIS_CODE":0,"TOWNNAME":"歸仁區","LI":"看西里","LIN":"13鄰","STREET":"成功六街","SECT":" ","MAREA":" ","LANE":"１３巷","ALLEY":" ","HOUSE_NO":"２６號","E_COORD97":178355.16,"N_COORD97":2540130.1099999999,"ADDRESS":"成功六街１３巷２６號","OBJECTID":458744},"geometry":{"x":178355.16000000108,"y":2540130.1099999994}},{"attributes":{"ID":458770,"DIS_CODE":0,"TOWNNAME":"歸仁區","LI":"看東里","LIN":"13鄰","STREET":"忠孝南路","SECT":" ","MAREA":" ","LANE":"２５巷","ALLEY":" ","HOUSE_NO":"４５號","E_COORD97":178583.20000000001,"N_COORD97":2540512.48,"ADDRESS":"忠孝南路２５巷４５號","OBJECTID":458745},"geometry":{"x":178583.19999999925,"y":2540512.4800000042}},{"attributes":{"ID":458771,"DIS_CODE":0,"TOWNNAME":"歸仁區","LI":"看西里","LIN":"13鄰","STREET":"成功六街","SECT":" ","MAREA":" ","LANE":"１３巷","ALLEY":" ","HOUSE_NO":"２８號","E_COORD97":178348.95999999999,"N_COORD97":2540128.1099999999,"ADDRESS":"成功六街１３巷２８號","OBJECTID":458746},"geometry":{"x":178348.95999999903,"y":2540128.1100000013}},{"attributes":{"ID":458772,"DIS_CODE":0,"TOWNNAME":"歸仁區","LI":"崙頂里","LIN":"13鄰","STREET":"成功路","SECT":"二段","MAREA":" ","LANE":"１６８巷","ALLEY":" ","HOUSE_NO":"１１號","E_COORD97":177940.69,"N_COORD97":2539753.25,"ADDRESS":"成功路二段１６８巷１１號","OBJECTID":458747},"geometry":{"x":177940.69000000041,"y":2539753.25}},{"attributes":{"ID":458773,"DIS_CODE":0,"TOWNNAME":"歸仁區","LI":"歸南里","LIN":"13鄰","STREET":"民生南街","SECT":"二段","MAREA":" ","LANE":"２７７巷","ALLEY":" ","HOUSE_NO":"２５號","E_COORD97":176181.09,"N_COORD97":2539997.29,"ADDRESS":"民生南街二段２７７巷２５號","OBJECTID":458748},"geometry":{"x":176181.08999999985,"y":2539997.290000001}},{"attributes":{"ID":458774,"DIS_CODE":0,"TOWNNAME":"歸仁區","LI":"崙頂里","LIN":"13鄰","STREET":"成功路","SECT":"二段","MAREA":" ","LANE":"１６８巷","ALLEY":" ","HOUSE_NO":"１７號","E_COORD97":177941.79000000001,"N_COORD97":2539772.25,"ADDRESS":"成功路二段１６８巷１７號","OBJECTID":458749},"geometry":{"x":177941.7900000019,"y":2539772.2500000019}},{"attributes":{"ID":458775,"DIS_CODE":0,"TOWNNAME":"歸仁區","LI":"看東里","LIN":"13鄰","STREET":"忠孝南路","SECT":" ","MAREA":" ","LANE":"２５巷","ALLEY":" ","HOUSE_NO":"３５號","E_COORD97":178583.29999999999,"N_COORD97":2540533.48,"ADDRESS":"忠孝南路２５巷３５號","OBJECTID":458750},"geometry":{"x":178583.29999999981,"y":2540533.4800000023}},{"attributes":{"ID":458776,"DIS_CODE":0,"TOWNNAME":"歸仁區","LI":"文化里","LIN":"13鄰","STREET":"大德路","SECT":" ","MAREA":" ","LANE":"１９３巷","ALLEY":" ","HOUSE_NO":"３１號","E_COORD97":177389.62,"N_COORD97":2541483.3199999998,"ADDRESS":"大德路１９３巷３１號","OBJECTID":458751},"geometry":{"x":177389.62000000011,"y":2541483.3200000022}},{"attributes":{"ID":458777,"DIS_CODE":0,"TOWNNAME":"歸仁區","LI":"六甲里","LIN":"13鄰","STREET":"六甲路","SECT":" ","MAREA":" ","LANE":"２５７巷","ALLEY":" ","HOUSE_NO":"９號","E_COORD97":175903.35999999999,"N_COORD97":2539158.25,"ADDRESS":"六甲路２５７巷９號","OBJECTID":458752},"geometry":{"x":175903.36000000034,"y":2539158.2500000019}},{"attributes":{"ID":458778,"DIS_CODE":0,"TOWNNAME":"歸仁區","LI":"六甲里","LIN":"13鄰","STREET":"六甲路","SECT":" ","MAREA":" ","LANE":"２５７巷","ALLEY":" ","HOUSE_NO":"１１號","E_COORD97":175904.51000000001,"N_COORD97":2539145.25,"ADDRESS":"六甲路２５７巷１１號","OBJECTID":458753},"geometry":{"x":175904.51000000071,"y":2539145.2500000019}},{"attributes":{"ID":458779,"DIS_CODE":0,"TOWNNAME":"歸仁區","LI":"新厝里","LIN":"13鄰","STREET":"中正南路","SECT":"一段","MAREA":" ","LANE":"８５巷","ALLEY":" ","HOUSE_NO":"８號","E_COORD97":177596,"N_COORD97":2540510.5899999999,"ADDRESS":"中正南路一段８５巷８號","OBJECTID":458754},"geometry":{"x":177596,"y":2540510.5899999999}},{"attributes":{"ID":458780,"DIS_CODE":0,"TOWNNAME":"歸仁區","LI":"歸南里","LIN":"13鄰","STREET":"民生南街","SECT":"二段","MAREA":" ","LANE":"２７７巷","ALLEY":" ","HOUSE_NO":"２３號","E_COORD97":176175.98999999999,"N_COORD97":2539996.29,"ADDRESS":"民生南街二段２７７巷２３號","OBJECTID":458755},"geometry":{"x":176175.99000000209,"y":2539996.2899999991}},{"attributes":{"ID":458781,"DIS_CODE":0,"TOWNNAME":"歸仁區","LI":"南興里","LIN":"13鄰","STREET":"文化十八街","SECT":" ","MAREA":" ","LANE":"１８巷","ALLEY":" ","HOUSE_NO":"２號","E_COORD97":175885.19,"N_COORD97":2541256.3300000001,"ADDRESS":"文化十八街１８巷２號","OBJECTID":458756},"geometry":{"x":175885.19000000134,"y":2541256.3300000019}},{"attributes":{"ID":458782,"DIS_CODE":0,"TOWNNAME":"玉井區","LI":"玉田里","LIN":"13鄰","STREET":"民權路","SECT":" ","MAREA":" ","LANE":"９３巷","ALLEY":" ","HOUSE_NO":"１號","E_COORD97":194852.35000000001,"N_COORD97":2557889.5899999999,"ADDRESS":"民權路９３巷１號","OBJECTID":458757},"geometry":{"x":194852.35000000056,"y":2557889.5899999999}},{"attributes":{"ID":458783,"DIS_CODE":0,"TOWNNAME":"玉井區","LI":"玉田里","LIN":"13鄰","STREET":"民權路","SECT":" ","MAREA":" ","LANE":"９７巷","ALLEY":" ","HOUSE_NO":"３號","E_COORD97":194848.92999999999,"N_COORD97":2557889.2799999998,"ADDRESS":"民權路９７巷３號","OBJECTID":458758},"geometry":{"x":194848.93000000063,"y":2557889.2800000012}},{"attributes":{"ID":458784,"DIS_CODE":0,"TOWNNAME":"玉井區","LI":"玉田里","LIN":"13鄰","STREET":"民權路","SECT":" ","MAREA":" ","LANE":"９３巷","ALLEY":" ","HOUSE_NO":"２號","E_COORD97":194862.64000000001,"N_COORD97":2557877.2799999998,"ADDRESS":"民權路９３巷２號","OBJECTID":458759},"geometry":{"x":194862.6400000006,"y":2557877.2799999993}},{"attributes":{"ID":458785,"DIS_CODE":0,"TOWNNAME":"北區","LI":"文元里","LIN":"13鄰","STREET":"文賢路","SECT":" ","MAREA":" ","LANE":"１１８０巷","ALLEY":" ","HOUSE_NO":"１５號","E_COORD97":167364.89999999999,"N_COORD97":2546474.0600000001,"ADDRESS":"文賢路１１８０巷１５號","OBJECTID":458760},"geometry":{"x":167364.90000000037,"y":2546474.0600000005}},{"attributes":{"ID":458786,"DIS_CODE":0,"TOWNNAME":"北區","LI":"文元里","LIN":"13鄰","STREET":"文賢路","SECT":" ","MAREA":" ","LANE":"１１８０巷","ALLEY":" ","HOUSE_NO":"１６號","E_COORD97":167392.51000000001,"N_COORD97":2546460.8999999999,"ADDRESS":"文賢路１１８０巷１６號","OBJECTID":458761},"geometry":{"x":167392.51000000164,"y":2546460.9000000022}},{"attributes":{"ID":458787,"DIS_CODE":0,"TOWNNAME":"北區","LI":"文元里","LIN":"13鄰","STREET":"文賢路","SECT":" ","MAREA":" ","LANE":"１１８０巷","ALLEY":" ","HOUSE_NO":"１８號","E_COORD97":167396.97,"N_COORD97":2546458.5299999998,"ADDRESS":"文賢路１１８０巷１８號","OBJECTID":458762},"geometry":{"x":167396.97000000067,"y":2546458.5300000012}},{"attributes":{"ID":458788,"DIS_CODE":0,"TOWNNAME":"北區","LI":"文元里","LIN":"13鄰","STREET":"文賢路","SECT":" ","MAREA":" ","LANE":"１１８０巷","ALLEY":" ","HOUSE_NO":"１９號","E_COORD97":167374.89999999999,"N_COORD97":2546473.23,"ADDRESS":"文賢路１１８０巷１９號","OBJECTID":458763},"geometry":{"x":167374.90000000037,"y":2546473.2300000004}},{"attributes":{"ID":458789,"DIS_CODE":0,"TOWNNAME":"北區","LI":"文元里","LIN":"13鄰","STREET":"文賢路","SECT":" ","MAREA":" ","LANE":"１１８０巷","ALLEY":" ","HOUSE_NO":"１號","E_COORD97":167335.42999999999,"N_COORD97":2546466.8399999999,"ADDRESS":"文賢路１１８０巷１號","OBJECTID":458764},"geometry":{"x":167335.43000000156,"y":2546466.8400000017}},{"attributes":{"ID":458790,"DIS_CODE":0,"TOWNNAME":"北區","LI":"文元里","LIN":"13鄰","STREET":"文賢路","SECT":" ","MAREA":" ","LANE":"１１８０巷","ALLEY":" ","HOUSE_NO":"２０號","E_COORD97":167401.12,"N_COORD97":2546461.2000000002,"ADDRESS":"文賢路１１８０巷２０號","OBJECTID":458765},"geometry":{"x":167401.12000000104,"y":2546461.2000000011}},{"attributes":{"ID":458791,"DIS_CODE":0,"TOWNNAME":"北區","LI":"文元里","LIN":"13鄰","STREET":"文賢路","SECT":" ","MAREA":" ","LANE":"１１８０巷","ALLEY":" ","HOUSE_NO":"２１號","E_COORD97":167378.79999999999,"N_COORD97":2546475.4500000002,"ADDRESS":"文賢路１１８０巷２１號","OBJECTID":458766},"geometry":{"x":167378.80000000168,"y":2546475.4500000011}},{"attributes":{"ID":458792,"DIS_CODE":0,"TOWNNAME":"北區","LI":"文元里","LIN":"13鄰","STREET":"文賢路","SECT":" ","MAREA":" ","LANE":"１１８０巷","ALLEY":" ","HOUSE_NO":"２３號","E_COORD97":167382.41,"N_COORD97":2546474.3399999999,"ADDRESS":"文賢路１１８０巷２３號","OBJECTID":458767},"geometry":{"x":167382.41000000108,"y":2546474.3400000017}},{"attributes":{"ID":458793,"DIS_CODE":0,"TOWNNAME":"北區","LI":"文元里","LIN":"13鄰","STREET":"文賢路","SECT":" ","MAREA":" ","LANE":"１１８０巷","ALLEY":" ","HOUSE_NO":"２５號","E_COORD97":167385.75,"N_COORD97":2546476.5600000001,"ADDRESS":"文賢路１１８０巷２５號","OBJECTID":458768},"geometry":{"x":167385.75,"y":2546476.5600000024}},{"attributes":{"ID":458794,"DIS_CODE":0,"TOWNNAME":"北區","LI":"文元里","LIN":"13鄰","STREET":"文賢路","SECT":" ","MAREA":" ","LANE":"１１８０巷","ALLEY":" ","HOUSE_NO":"２７號","E_COORD97":167390.19,"N_COORD97":2546475.73,"ADDRESS":"文賢路１１８０巷２７號","OBJECTID":458769},"geometry":{"x":167390.18999999948,"y":2546475.7300000023}},{"attributes":{"ID":458795,"DIS_CODE":0,"TOWNNAME":"北區","LI":"文元里","LIN":"13鄰","STREET":"文賢路","SECT":" ","MAREA":" ","LANE":"１１８０巷","ALLEY":" ","HOUSE_NO":"２９號","E_COORD97":167394.09,"N_COORD97":2546477.9500000002,"ADDRESS":"文賢路１１８０巷２９號","OBJECTID":458770},"geometry":{"x":167394.09000000078,"y":2546477.9499999993}},{"attributes":{"ID":458796,"DIS_CODE":0,"TOWNNAME":"北區","LI":"文元里","LIN":"13鄰","STREET":"文賢路","SECT":" ","MAREA":" ","LANE":"１１８０巷","ALLEY":" ","HOUSE_NO":"３１號","E_COORD97":167397.98000000001,"N_COORD97":2546476.5600000001,"ADDRESS":"文賢路１１８０巷３１號","OBJECTID":458771},"geometry":{"x":167397.98000000045,"y":2546476.5600000024}},{"attributes":{"ID":458797,"DIS_CODE":0,"TOWNNAME":"北區","LI":"文元里","LIN":"13鄰","STREET":"文賢路","SECT":" ","MAREA":" ","LANE":"１１８０巷","ALLEY":" ","HOUSE_NO":"３號","E_COORD97":167339.60000000001,"N_COORD97":2546469.6200000001,"ADDRESS":"文賢路１１８０巷３號","OBJECTID":458772},"geometry":{"x":167339.60000000056,"y":2546469.6200000029}},{"attributes":{"ID":458798,"DIS_CODE":0,"TOWNNAME":"北區","LI":"文元里","LIN":"13鄰","STREET":"文賢路","SECT":" ","MAREA":" ","LANE":"１１８０巷","ALLEY":" ","HOUSE_NO":"５號","E_COORD97":167344.04000000001,"N_COORD97":2546468.23,"ADDRESS":"文賢路１１８０巷５號","OBJECTID":458773},"geometry":{"x":167344.04000000097,"y":2546468.2300000023}},{"attributes":{"ID":458799,"DIS_CODE":0,"TOWNNAME":"北區","LI":"和順里","LIN":"13鄰","STREET":"民德路","SECT":" ","MAREA":" ","LANE":"１０５巷","ALLEY":" ","HOUSE_NO":"１０號","E_COORD97":168137.09,"N_COORD97":2545163.3199999998,"ADDRESS":"民德路１０５巷１０號","OBJECTID":458774},"geometry":{"x":168137.09000000078,"y":2545163.3200000003}},{"attributes":{"ID":458800,"DIS_CODE":0,"TOWNNAME":"北區","LI":"和順里","LIN":"13鄰","STREET":"民德路","SECT":" ","MAREA":" ","LANE":"１０５巷","ALLEY":" ","HOUSE_NO":"１１號","E_COORD97":168158.51000000001,"N_COORD97":2545141.6400000001,"ADDRESS":"民德路１０５巷１１號","OBJECTID":458775},"geometry":{"x":168158.50999999978,"y":2545141.6400000006}},{"attributes":{"ID":458801,"DIS_CODE":0,"TOWNNAME":"北區","LI":"和順里","LIN":"13鄰","STREET":"民德路","SECT":" ","MAREA":" ","LANE":"１０５巷","ALLEY":" ","HOUSE_NO":"１２號","E_COORD97":168132.85000000001,"N_COORD97":2545161.9700000002,"ADDRESS":"民德路１０５巷１２號","OBJECTID":458776},"geometry":{"x":168132.85000000056,"y":2545161.9700000025}},{"attributes":{"ID":458802,"DIS_CODE":0,"TOWNNAME":"北區","LI":"和順里","LIN":"13鄰","STREET":"民德路","SECT":" ","MAREA":" ","LANE":"１０５巷","ALLEY":" ","HOUSE_NO":"１３號","E_COORD97":168154.45000000001,"N_COORD97":2545140.29,"ADDRESS":"民德路１０５巷１３號","OBJECTID":458777},"geometry":{"x":168154.45000000205,"y":2545140.2900000028}},{"attributes":{"ID":458803,"DIS_CODE":0,"TOWNNAME":"北區","LI":"和順里","LIN":"13鄰","STREET":"民德路","SECT":" ","MAREA":" ","LANE":"１０５巷","ALLEY":" ","HOUSE_NO":"１４號","E_COORD97":168128.60000000001,"N_COORD97":2545160.6200000001,"ADDRESS":"民德路１０５巷１４號","OBJECTID":458778},"geometry":{"x":168128.59999999963,"y":2545160.6200000029}},{"attributes":{"ID":458804,"DIS_CODE":0,"TOWNNAME":"北區","LI":"和順里","LIN":"13鄰","STREET":"民德路","SECT":" ","MAREA":" ","LANE":"１０５巷","ALLEY":" ","HOUSE_NO":"１５號","E_COORD97":168150.98000000001,"N_COORD97":2545139.1299999999,"ADDRESS":"民德路１０５巷１５號","OBJECTID":458779},"geometry":{"x":168150.98000000045,"y":2545139.1300000008}},{"attributes":{"ID":458805,"DIS_CODE":0,"TOWNNAME":"北區","LI":"和順里","LIN":"13鄰","STREET":"民德路","SECT":" ","MAREA":" ","LANE":"１０５巷","ALLEY":" ","HOUSE_NO":"１６號","E_COORD97":168125.13,"N_COORD97":2545159.0800000001,"ADDRESS":"民德路１０５巷１６號","OBJECTID":458780},"geometry":{"x":168125.12999999989,"y":2545159.0800000001}},{"attributes":{"ID":458806,"DIS_CODE":0,"TOWNNAME":"北區","LI":"和順里","LIN":"13鄰","STREET":"民德路","SECT":" ","MAREA":" ","LANE":"１０５巷","ALLEY":" ","HOUSE_NO":"１７號","E_COORD97":168146.92999999999,"N_COORD97":2545137.5899999999,"ADDRESS":"民德路１０５巷１７號","OBJECTID":458781},"geometry":{"x":168146.9299999997,"y":2545137.5899999999}},{"attributes":{"ID":458807,"DIS_CODE":0,"TOWNNAME":"北區","LI":"和順里","LIN":"13鄰","STREET":"民德路","SECT":" ","MAREA":" ","LANE":"１０５巷","ALLEY":" ","HOUSE_NO":"１９號","E_COORD97":168142.88,"N_COORD97":2545136.0499999998,"ADDRESS":"民德路１０５巷１９號","OBJECTID":458782},"geometry":{"x":168142.88000000175,"y":2545136.0500000007}},{"attributes":{"ID":458808,"DIS_CODE":0,"TOWNNAME":"北區","LI":"和順里","LIN":"13鄰","STREET":"民德路","SECT":" ","MAREA":" ","LANE":"１０５巷","ALLEY":" ","HOUSE_NO":"１號","E_COORD97":168178.62,"N_COORD97":2545149.3500000001,"ADDRESS":"民德路１０５巷１號","OBJECTID":458783},"geometry":{"x":168178.61999999918,"y":2545149.3499999996}},{"attributes":{"ID":458809,"DIS_CODE":0,"TOWNNAME":"北區","LI":"和順里","LIN":"13鄰","STREET":"民德路","SECT":" ","MAREA":" ","LANE":"１０５巷","ALLEY":" ","HOUSE_NO":"２０號","E_COORD97":168117.03,"N_COORD97":2545156,"ADDRESS":"民德路１０５巷２０號","OBJECTID":458784},"geometry":{"x":168117.03000000119,"y":2545156}},{"attributes":{"ID":458810,"DIS_CODE":0,"TOWNNAME":"北區","LI":"和順里","LIN":"13鄰","STREET":"民德路","SECT":" ","MAREA":" ","LANE":"１０５巷","ALLEY":" ","HOUSE_NO":"２１號","E_COORD97":168138.82999999999,"N_COORD97":2545134.5099999998,"ADDRESS":"民德路１０５巷２１號","OBJECTID":458785},"geometry":{"x":168138.83000000101,"y":2545134.5099999998}},{"attributes":{"ID":458811,"DIS_CODE":0,"TOWNNAME":"北區","LI":"和順里","LIN":"13鄰","STREET":"民德路","SECT":" ","MAREA":" ","LANE":"１０５巷","ALLEY":" ","HOUSE_NO":"２２號","E_COORD97":168113.54999999999,"N_COORD97":2545154.2599999998,"ADDRESS":"民德路１０５巷２２號","OBJECTID":458786},"geometry":{"x":168113.55000000075,"y":2545154.2599999998}},{"attributes":{"ID":458812,"DIS_CODE":0,"TOWNNAME":"北區","LI":"和順里","LIN":"13鄰","STREET":"民德路","SECT":" ","MAREA":" ","LANE":"１０５巷","ALLEY":" ","HOUSE_NO":"２３號","E_COORD97":168135.16,"N_COORD97":2545133.3500000001,"ADDRESS":"民德路１０５巷２３號","OBJECTID":458787},"geometry":{"x":168135.16000000108,"y":2545133.3499999978}},{"attributes":{"ID":458813,"DIS_CODE":0,"TOWNNAME":"北區","LI":"和順里","LIN":"13鄰","STREET":"民德路","SECT":" ","MAREA":" ","LANE":"１０５巷","ALLEY":" ","HOUSE_NO":"２４號","E_COORD97":168109.5,"N_COORD97":2545152.5299999998,"ADDRESS":"民德路１０５巷２４號","OBJECTID":458788},"geometry":{"x":168109.5,"y":2545152.5300000031}},{"attributes":{"ID":458814,"DIS_CODE":0,"TOWNNAME":"北區","LI":"和順里","LIN":"13鄰","STREET":"民德路","SECT":" ","MAREA":" ","LANE":"１０５巷","ALLEY":" ","HOUSE_NO":"２５號","E_COORD97":168130.72,"N_COORD97":2545132,"ADDRESS":"民德路１０５巷２５號","OBJECTID":458789},"geometry":{"x":168130.72000000067,"y":2545132}},{"attributes":{"ID":458815,"DIS_CODE":0,"TOWNNAME":"北區","LI":"和順里","LIN":"13鄰","STREET":"民德路","SECT":" ","MAREA":" ","LANE":"１０５巷","ALLEY":" ","HOUSE_NO":"２６號","E_COORD97":168105.45000000001,"N_COORD97":2545151.1800000002,"ADDRESS":"民德路１０５巷２６號","OBJECTID":458790},"geometry":{"x":168105.45000000205,"y":2545151.1799999997}},{"attributes":{"ID":458816,"DIS_CODE":0,"TOWNNAME":"北區","LI":"和順里","LIN":"13鄰","STREET":"民德路","SECT":" ","MAREA":" ","LANE":"１０５巷","ALLEY":" ","HOUSE_NO":"２７號","E_COORD97":168127.06,"N_COORD97":2545130.46,"ADDRESS":"民德路１０５巷２７號","OBJECTID":458791},"geometry":{"x":168127.05999999959,"y":2545130.459999999}},{"attributes":{"ID":458817,"DIS_CODE":0,"TOWNNAME":"東區","LI":"東明里","LIN":"28鄰","STREET":"東安路","SECT":" ","MAREA":" ","LANE":" ","ALLEY":" ","HOUSE_NO":"７號","E_COORD97":170641.98999999999,"N_COORD97":2543507.46,"ADDRESS":"東安路７號","OBJECTID":458792},"geometry":{"x":170641.99000000022,"y":2543507.4600000028}},{"attributes":{"ID":458818,"DIS_CODE":0,"TOWNNAME":"北區","LI":"和順里","LIN":"13鄰","STREET":"民德路","SECT":" ","MAREA":" ","LANE":"１０５巷","ALLEY":" ","HOUSE_NO":"２８號","E_COORD97":168101.78,"N_COORD97":2545149.8300000001,"ADDRESS":"民德路１０５巷２８號","OBJECTID":458793},"geometry":{"x":168101.78000000119,"y":2545149.8300000001}},{"attributes":{"ID":458819,"DIS_CODE":0,"TOWNNAME":"北區","LI":"和順里","LIN":"13鄰","STREET":"民德路","SECT":" ","MAREA":" ","LANE":"１０５巷","ALLEY":" ","HOUSE_NO":"２９號","E_COORD97":168123.20000000001,"N_COORD97":2545128.73,"ADDRESS":"民德路１０５巷２９號","OBJECTID":458794},"geometry":{"x":168123.20000000019,"y":2545128.7300000023}},{"attributes":{"ID":458820,"DIS_CODE":0,"TOWNNAME":"北區","LI":"和順里","LIN":"13鄰","STREET":"民德路","SECT":" ","MAREA":" ","LANE":"１０５巷","ALLEY":" ","HOUSE_NO":"２號","E_COORD97":168152.32999999999,"N_COORD97":2545170.2599999998,"ADDRESS":"民德路１０５巷２號","OBJECTID":458795},"geometry":{"x":168152.33000000101,"y":2545170.2599999998}},{"attributes":{"ID":458821,"DIS_CODE":0,"TOWNNAME":"北區","LI":"和順里","LIN":"13鄰","STREET":"民德路","SECT":" ","MAREA":" ","LANE":"１０５巷","ALLEY":" ","HOUSE_NO":"３０號","E_COORD97":168097.35000000001,"N_COORD97":2545148.6699999999,"ADDRESS":"民德路１０５巷３０號","OBJECTID":458796},"geometry":{"x":168097.35000000056,"y":2545148.6700000037}},{"attributes":{"ID":458822,"DIS_CODE":0,"TOWNNAME":"北區","LI":"和順里","LIN":"13鄰","STREET":"民德路","SECT":" ","MAREA":" ","LANE":"１０５巷","ALLEY":" ","HOUSE_NO":"３１號","E_COORD97":168119.34,"N_COORD97":2545127.5699999998,"ADDRESS":"民德路１０５巷３１號","OBJECTID":458797},"geometry":{"x":168119.34000000171,"y":2545127.5700000022}},{"attributes":{"ID":458823,"DIS_CODE":0,"TOWNNAME":"北區","LI":"和順里","LIN":"13鄰","STREET":"民德路","SECT":" ","MAREA":" ","LANE":"１０５巷","ALLEY":" ","HOUSE_NO":"３２號","E_COORD97":168093.29000000001,"N_COORD97":2545146.75,"ADDRESS":"民德路１０５巷３２號","OBJECTID":458798},"geometry":{"x":168093.29000000097,"y":2545146.75}},{"attributes":{"ID":458824,"DIS_CODE":0,"TOWNNAME":"北區","LI":"和順里","LIN":"13鄰","STREET":"民德路","SECT":" ","MAREA":" ","LANE":"１０５巷","ALLEY":" ","HOUSE_NO":"３３號","E_COORD97":168115.29000000001,"N_COORD97":2545126.2200000002,"ADDRESS":"民德路１０５巷３３號","OBJECTID":458799},"geometry":{"x":168115.29000000097,"y":2545126.2200000025}},{"attributes":{"ID":458825,"DIS_CODE":0,"TOWNNAME":"北區","LI":"和順里","LIN":"13鄰","STREET":"民德路","SECT":" ","MAREA":" ","LANE":"１０５巷","ALLEY":" ","HOUSE_NO":"３４號","E_COORD97":168089.82000000001,"N_COORD97":2545145.5899999999,"ADDRESS":"民德路１０５巷３４號","OBJECTID":458800},"geometry":{"x":168089.82000000123,"y":2545145.5900000036}}]}