{"displayFieldName":"TOWNNAME","fieldAliases":{"ID":"ID","DIS_CODE":"DIS_CODE","TOWNNAME":"TOWNNAME","LI":"LI","LIN":"LIN","STREET":"STREET","SECT":"SECT","MAREA":"MAREA","LANE":"LANE","ALLEY":"ALLEY","HOUSE_NO":"HOUSE_NO","E_COORD97":"E_COORD97","N_COORD97":"N_COORD97","ADDRESS":"ADDRESS","OBJECTID":"OBJECTID"},"geometryType":"esriGeometryPoint","spatialReference":{"wkid":102443,"latestWkid":3826},"fields":[{"name":"ID","type":"esriFieldTypeDouble","alias":"ID"},{"name":"DIS_CODE","type":"esriFieldTypeInteger","alias":"DIS_CODE"},{"name":"TOWNNAME","type":"esriFieldTypeString","alias":"TOWNNAME","length":8},{"name":"LI","type":"esriFieldTypeString","alias":"LI","length":8},{"name":"LIN","type":"esriFieldTypeString","alias":"LIN","length":12},{"name":"STREET","type":"esriFieldTypeString","alias":"STREET","length":20},{"name":"SECT","type":"esriFieldTypeString","alias":"SECT","length":8},{"name":"MAREA","type":"esriFieldTypeString","alias":"MAREA","length":12},{"name":"LANE","type":"esriFieldTypeString","alias":"LANE","length":10},{"name":"ALLEY","type":"esriFieldTypeString","alias":"ALLEY","length":10},{"name":"HOUSE_NO","type":"esriFieldTypeString","alias":"HOUSE_NO","length":20},{"name":"E_COORD97","type":"esriFieldTypeDouble","alias":"E_COORD97"},{"name":"N_COORD97","type":"esriFieldTypeDouble","alias":"N_COORD97"},{"name":"ADDRESS","type":"esriFieldTypeString","alias":"ADDRESS","length":50},{"name":"OBJECTID","type":"esriFieldTypeOID","alias":"OBJECTID"}],"features":[{"attributes":{"ID":322610,"DIS_CODE":0,"TOWNNAME":"白河區","LI":"永安里","LIN":"17鄰","STREET":"國泰路","SECT":" ","MAREA":" ","LANE":" ","ALLEY":" ","HOUSE_NO":"１１１號","E_COORD97":190009.19,"N_COORD97":2582905.9399999999,"ADDRESS":"國泰路１１１號","OBJECTID":322601},"geometry":{"x":190009.19000000227,"y":2582905.9400000013}},{"attributes":{"ID":322611,"DIS_CODE":0,"TOWNNAME":"白河區","LI":"永安里","LIN":"17鄰","STREET":"國泰路","SECT":" ","MAREA":" ","LANE":" ","ALLEY":" ","HOUSE_NO":"１１３號","E_COORD97":190004.97,"N_COORD97":2582909.4199999999,"ADDRESS":"國泰路１１３號","OBJECTID":322602},"geometry":{"x":190004.9700000016,"y":2582909.4200000018}},{"attributes":{"ID":322612,"DIS_CODE":0,"TOWNNAME":"安南區","LI":"州北里","LIN":"32鄰","STREET":"北安路","SECT":"四段","MAREA":" ","LANE":"５４８巷","ALLEY":" ","HOUSE_NO":"１４號","E_COORD97":169595.39999999999,"N_COORD97":2551889.5299999998,"ADDRESS":"北安路四段５４８巷１４號","OBJECTID":322603},"geometry":{"x":169595.40000000037,"y":2551889.5300000012}},{"attributes":{"ID":322613,"DIS_CODE":0,"TOWNNAME":"安南區","LI":"州北里","LIN":"32鄰","STREET":"北安路","SECT":"四段","MAREA":" ","LANE":"５４８巷","ALLEY":" ","HOUSE_NO":"１６號","E_COORD97":169599.32999999999,"N_COORD97":2551891.4199999999,"ADDRESS":"北安路四段５４８巷１６號","OBJECTID":322604},"geometry":{"x":169599.33000000007,"y":2551891.4200000018}},{"attributes":{"ID":322614,"DIS_CODE":0,"TOWNNAME":"安南區","LI":"州北里","LIN":"32鄰","STREET":"北安路","SECT":"四段","MAREA":" ","LANE":"５４８巷","ALLEY":" ","HOUSE_NO":"１８號","E_COORD97":169603.75,"N_COORD97":2551892.8900000001,"ADDRESS":"北安路四段５４８巷１８號","OBJECTID":322605},"geometry":{"x":169603.75000000093,"y":2551892.8900000025}},{"attributes":{"ID":322615,"DIS_CODE":0,"TOWNNAME":"安南區","LI":"新順里","LIN":"1鄰","STREET":"安生街","SECT":" ","MAREA":" ","LANE":"１２２巷","ALLEY":" ","HOUSE_NO":"１８號","E_COORD97":169424.22,"N_COORD97":2549600.6299999999,"ADDRESS":"安生街１２２巷１８號","OBJECTID":322606},"geometry":{"x":169424.22000000067,"y":2549600.6300000008}},{"attributes":{"ID":322616,"DIS_CODE":0,"TOWNNAME":"新化區","LI":"東榮里","LIN":"26鄰","STREET":"和平街","SECT":" ","MAREA":" ","LANE":"４５巷","ALLEY":" ","HOUSE_NO":"１５號","E_COORD97":179232.62,"N_COORD97":2548109.25,"ADDRESS":"和平街４５巷１５號","OBJECTID":322607},"geometry":{"x":179232.62000000011,"y":2548109.2500000019}},{"attributes":{"ID":322617,"DIS_CODE":0,"TOWNNAME":"新化區","LI":"協興里","LIN":"13鄰","STREET":"太平街","SECT":" ","MAREA":" ","LANE":"１５０巷","ALLEY":" ","HOUSE_NO":"４７號","E_COORD97":178313.97,"N_COORD97":2548809.25,"ADDRESS":"太平街１５０巷４７號","OBJECTID":322608},"geometry":{"x":178313.97000000067,"y":2548809.25}},{"attributes":{"ID":322618,"DIS_CODE":0,"TOWNNAME":"新化區","LI":"太平里","LIN":"4鄰","STREET":"中正路","SECT":" ","MAREA":" ","LANE":"５８０巷","ALLEY":" ","HOUSE_NO":"２號之２","E_COORD97":178917.66,"N_COORD97":2549015.2599999998,"ADDRESS":"中正路５８０巷２號之２","OBJECTID":322609},"geometry":{"x":178917.66000000108,"y":2549015.2599999998}},{"attributes":{"ID":322619,"DIS_CODE":0,"TOWNNAME":"新化區","LI":"太平里","LIN":"4鄰","STREET":"民生路","SECT":" ","MAREA":" ","LANE":"２１７巷","ALLEY":" ","HOUSE_NO":"１２號","E_COORD97":179040.56,"N_COORD97":2548952.25,"ADDRESS":"民生路２１７巷１２號","OBJECTID":322610},"geometry":{"x":179040.55999999959,"y":2548952.2500000037}},{"attributes":{"ID":322620,"DIS_CODE":0,"TOWNNAME":"新化區","LI":"太平里","LIN":"4鄰","STREET":"民生路","SECT":" ","MAREA":" ","LANE":" ","ALLEY":" ","HOUSE_NO":"１８８號","E_COORD97":179113.51000000001,"N_COORD97":2548927.25,"ADDRESS":"民生路１８８號","OBJECTID":322611},"geometry":{"x":179113.51000000071,"y":2548927.25}},{"attributes":{"ID":322621,"DIS_CODE":0,"TOWNNAME":"新化區","LI":"豐榮里","LIN":"13鄰","STREET":"信義路","SECT":" ","MAREA":" ","LANE":" ","ALLEY":" ","HOUSE_NO":"３９３號","E_COORD97":178637.92999999999,"N_COORD97":2548260.25,"ADDRESS":"信義路３９３號","OBJECTID":322612},"geometry":{"x":178637.93000000063,"y":2548260.25}},{"attributes":{"ID":322622,"DIS_CODE":0,"TOWNNAME":"新化區","LI":"太平里","LIN":"14鄰","STREET":"民權街","SECT":" ","MAREA":" ","LANE":" ","ALLEY":" ","HOUSE_NO":"１１８號之１","E_COORD97":178730.34,"N_COORD97":2548796.2599999998,"ADDRESS":"民權街１１８號之１","OBJECTID":322613},"geometry":{"x":178730.33999999985,"y":2548796.2600000016}},{"attributes":{"ID":322623,"DIS_CODE":0,"TOWNNAME":"新化區","LI":"太平里","LIN":"4鄰","STREET":"民生路","SECT":" ","MAREA":" ","LANE":" ","ALLEY":" ","HOUSE_NO":"２１２號","E_COORD97":179087.51000000001,"N_COORD97":2548965.25,"ADDRESS":"民生路２１２號","OBJECTID":322614},"geometry":{"x":179087.50999999885,"y":2548965.25}},{"attributes":{"ID":322624,"DIS_CODE":0,"TOWNNAME":"仁德區","LI":"仁德里","LIN":"39鄰","STREET":"文山路","SECT":" ","MAREA":" ","LANE":" ","ALLEY":" ","HOUSE_NO":"２７１號","E_COORD97":172623.37,"N_COORD97":2541751.8300000001,"ADDRESS":"文山路２７１號","OBJECTID":322615},"geometry":{"x":172623.36999999918,"y":2541751.8300000019}},{"attributes":{"ID":322625,"DIS_CODE":0,"TOWNNAME":"仁德區","LI":"仁義里","LIN":"32鄰","STREET":"正義路","SECT":" ","MAREA":" ","LANE":" ","ALLEY":" ","HOUSE_NO":"７３號","E_COORD97":173530.23000000001,"N_COORD97":2541451.52,"ADDRESS":"正義路７３號","OBJECTID":322616},"geometry":{"x":173530.23000000138,"y":2541451.5200000014}},{"attributes":{"ID":322626,"DIS_CODE":0,"TOWNNAME":"仁德區","LI":"仁德里","LIN":"4鄰","STREET":"仁中三街","SECT":" ","MAREA":" ","LANE":" ","ALLEY":" ","HOUSE_NO":"５２號","E_COORD97":173325.31,"N_COORD97":2540429.5,"ADDRESS":"仁中三街５２號","OBJECTID":322617},"geometry":{"x":173325.31000000052,"y":2540429.5}},{"attributes":{"ID":322627,"DIS_CODE":0,"TOWNNAME":"仁德區","LI":"仁德里","LIN":"4鄰","STREET":"仁中六街","SECT":" ","MAREA":" ","LANE":" ","ALLEY":" ","HOUSE_NO":"１１１號","E_COORD97":173365.17999999999,"N_COORD97":2540429.5,"ADDRESS":"仁中六街１１１號","OBJECTID":322618},"geometry":{"x":173365.18000000156,"y":2540429.5}},{"attributes":{"ID":322628,"DIS_CODE":0,"TOWNNAME":"仁德區","LI":"仁義里","LIN":"25鄰","STREET":"正義路","SECT":" ","MAREA":" ","LANE":" ","ALLEY":" ","HOUSE_NO":"８２號","E_COORD97":173523.25,"N_COORD97":2541425.7599999998,"ADDRESS":"正義路８２號","OBJECTID":322619},"geometry":{"x":173523.25000000093,"y":2541425.7600000016}},{"attributes":{"ID":322629,"DIS_CODE":0,"TOWNNAME":"仁德區","LI":"仁德里","LIN":"39鄰","STREET":"文宏二街","SECT":" ","MAREA":" ","LANE":" ","ALLEY":" ","HOUSE_NO":"６９號","E_COORD97":172452.23000000001,"N_COORD97":2541790.3300000001,"ADDRESS":"文宏二街６９號","OBJECTID":322620},"geometry":{"x":172452.23000000138,"y":2541790.3300000001}},{"attributes":{"ID":322630,"DIS_CODE":0,"TOWNNAME":"白河區","LI":"永安里","LIN":"4鄰","STREET":"九龍街","SECT":" ","MAREA":" ","LANE":" ","ALLEY":" ","HOUSE_NO":"８６號","E_COORD97":190029.94,"N_COORD97":2583047.21,"ADDRESS":"九龍街８６號","OBJECTID":322621},"geometry":{"x":190029.94000000134,"y":2583047.2100000046}},{"attributes":{"ID":322631,"DIS_CODE":0,"TOWNNAME":"安南區","LI":"溪心里","LIN":"18鄰","STREET":"功安一街","SECT":" ","MAREA":" ","LANE":" ","ALLEY":" ","HOUSE_NO":"１２０號","E_COORD97":166055.01999999999,"N_COORD97":2549949.27,"ADDRESS":"功安一街１２０號","OBJECTID":322622},"geometry":{"x":166055.02000000048,"y":2549949.2700000014}},{"attributes":{"ID":322632,"DIS_CODE":0,"TOWNNAME":"安南區","LI":"溪心里","LIN":"17鄰","STREET":"功安四街","SECT":" ","MAREA":" ","LANE":" ","ALLEY":" ","HOUSE_NO":"３７號","E_COORD97":166244.47,"N_COORD97":2550067.1499999999,"ADDRESS":"功安四街３７號","OBJECTID":322623},"geometry":{"x":166244.46999999974,"y":2550067.1500000004}},{"attributes":{"ID":322633,"DIS_CODE":0,"TOWNNAME":"麻豆區","LI":"小埤里","LIN":"4鄰","STREET":" ","SECT":" ","MAREA":"小埤頭","LANE":" ","ALLEY":" ","HOUSE_NO":"１５號之９","E_COORD97":171358.70999999999,"N_COORD97":2566021.4100000001,"ADDRESS":"小埤頭１５號之９","OBJECTID":322624},"geometry":{"x":171358.71000000089,"y":2566021.4100000001}},{"attributes":{"ID":322634,"DIS_CODE":0,"TOWNNAME":"新化區","LI":"全興里","LIN":"13鄰","STREET":" ","SECT":" ","MAREA":"竹子\u25A0","LANE":" ","ALLEY":" ","HOUSE_NO":"２４７號之２４７","E_COORD97":178214.48000000001,"N_COORD97":2546747.2599999998,"ADDRESS":"竹子\u25A0２４７號之２４７","OBJECTID":322625},"geometry":{"x":178214.48000000138,"y":2546747.2599999998}},{"attributes":{"ID":322635,"DIS_CODE":0,"TOWNNAME":"新化區","LI":"\u25A0拔里","LIN":"4鄰","STREET":" ","SECT":" ","MAREA":"\u25A0拔林","LANE":" ","ALLEY":" ","HOUSE_NO":"２１８號之６","E_COORD97":183814.37,"N_COORD97":2552086.2599999998,"ADDRESS":"\u25A0拔林２１８號之６","OBJECTID":322626},"geometry":{"x":183814.37000000011,"y":2552086.2600000016}},{"attributes":{"ID":322636,"DIS_CODE":0,"TOWNNAME":"歸仁區","LI":"歸仁里","LIN":"8鄰","STREET":"中山路","SECT":"一段","MAREA":" ","LANE":" ","ALLEY":" ","HOUSE_NO":"５１２號","E_COORD97":177845.502285,"N_COORD97":2540761.3478000001,"ADDRESS":"中山路一段５１２號","OBJECTID":322627},"geometry":{"x":177845.50228500087,"y":2540761.347802002}},{"attributes":{"ID":322637,"DIS_CODE":0,"TOWNNAME":"中西區","LI":"五妃里","LIN":"7鄰","STREET":"南門路","SECT":" ","MAREA":" ","LANE":" ","ALLEY":" ","HOUSE_NO":"２２９之４號","E_COORD97":168399.264214,"N_COORD97":2542714.1545600002,"ADDRESS":"南門路２２９之４號","OBJECTID":322628},"geometry":{"x":168399.2642140016,"y":2542714.1545590013}},{"attributes":{"ID":322638,"DIS_CODE":0,"TOWNNAME":"安南區","LI":"海佃里","LIN":"20鄰","STREET":"海佃路","SECT":"一段","MAREA":" ","LANE":"２２７巷","ALLEY":" ","HOUSE_NO":"３１號","E_COORD97":167015.5,"N_COORD97":2547283.5899999999,"ADDRESS":"海佃路一段２２７巷３１號","OBJECTID":322629},"geometry":{"x":167015.50000000093,"y":2547283.5899999999}},{"attributes":{"ID":322639,"DIS_CODE":0,"TOWNNAME":"新化區","LI":"知義里","LIN":" ","STREET":" ","SECT":" ","MAREA":"新和庄","LANE":" ","ALLEY":" ","HOUSE_NO":"１７３號","E_COORD97":182012.98999999999,"N_COORD97":2546758.25,"ADDRESS":"新和庄１７３號","OBJECTID":322630},"geometry":{"x":182012.99000000115,"y":2546758.25}},{"attributes":{"ID":322640,"DIS_CODE":0,"TOWNNAME":"新化區","LI":"全興里","LIN":"20鄰","STREET":" ","SECT":" ","MAREA":"竹子\u25A0","LANE":" ","ALLEY":" ","HOUSE_NO":"２４７號之４３１","E_COORD97":178479.56,"N_COORD97":2546657.2599999998,"ADDRESS":"竹子\u25A0２４７號之４３１","OBJECTID":322631},"geometry":{"x":178479.55999999959,"y":2546657.2600000016}},{"attributes":{"ID":322641,"DIS_CODE":0,"TOWNNAME":"安南區","LI":"海佃里","LIN":"20鄰","STREET":"海佃路","SECT":"一段","MAREA":" ","LANE":"２２７巷","ALLEY":" ","HOUSE_NO":"３２號","E_COORD97":167011.51000000001,"N_COORD97":2547305.98,"ADDRESS":"海佃路一段２２７巷３２號","OBJECTID":322632},"geometry":{"x":167011.51000000071,"y":2547305.9800000004}},{"attributes":{"ID":322642,"DIS_CODE":0,"TOWNNAME":"新化區","LI":"全興里","LIN":"13鄰","STREET":" ","SECT":" ","MAREA":"竹子\u25A0","LANE":" ","ALLEY":" ","HOUSE_NO":"２４７號之１４６","E_COORD97":178253.48000000001,"N_COORD97":2546759.2599999998,"ADDRESS":"竹子\u25A0２４７號之１４６","OBJECTID":322633},"geometry":{"x":178253.48000000138,"y":2546759.2600000016}},{"attributes":{"ID":322643,"DIS_CODE":0,"TOWNNAME":"安南區","LI":"海佃里","LIN":"20鄰","STREET":"海佃路","SECT":"一段","MAREA":" ","LANE":"２２７巷","ALLEY":" ","HOUSE_NO":"３３號","E_COORD97":167010.17999999999,"N_COORD97":2547282.9300000002,"ADDRESS":"海佃路一段２２７巷３３號","OBJECTID":322634},"geometry":{"x":167010.18000000063,"y":2547282.9300000016}},{"attributes":{"ID":322644,"DIS_CODE":0,"TOWNNAME":"新化區","LI":"全興里","LIN":"4鄰","STREET":" ","SECT":" ","MAREA":"竹子\u25A0","LANE":" ","ALLEY":" ","HOUSE_NO":"４６號","E_COORD97":177666.78,"N_COORD97":2547730.25,"ADDRESS":"竹子\u25A0４６號","OBJECTID":322635},"geometry":{"x":177666.78000000026,"y":2547730.25}},{"attributes":{"ID":322645,"DIS_CODE":0,"TOWNNAME":"安南區","LI":"海佃里","LIN":"20鄰","STREET":"海佃路","SECT":"一段","MAREA":" ","LANE":"２２７巷","ALLEY":" ","HOUSE_NO":"３４號","E_COORD97":167006.85999999999,"N_COORD97":2547303.9900000002,"ADDRESS":"海佃路一段２２７巷３４號","OBJECTID":322636},"geometry":{"x":167006.86000000034,"y":2547303.9900000021}},{"attributes":{"ID":322646,"DIS_CODE":0,"TOWNNAME":"新化區","LI":"\u25A0拔里","LIN":"4鄰","STREET":" ","SECT":" ","MAREA":"\u25A0拔林","LANE":" ","ALLEY":" ","HOUSE_NO":"２１８號之１１","E_COORD97":183791.20000000001,"N_COORD97":2552076.2599999998,"ADDRESS":"\u25A0拔林２１８號之１１","OBJECTID":322637},"geometry":{"x":183791.20000000112,"y":2552076.2599999998}},{"attributes":{"ID":322647,"DIS_CODE":0,"TOWNNAME":"安南區","LI":"海佃里","LIN":"20鄰","STREET":"海佃路","SECT":"一段","MAREA":" ","LANE":"２２７巷","ALLEY":" ","HOUSE_NO":"３５號","E_COORD97":167006.85999999999,"N_COORD97":2547281.6000000001,"ADDRESS":"海佃路一段２２７巷３５號","OBJECTID":322638},"geometry":{"x":167006.86000000034,"y":2547281.6000000034}},{"attributes":{"ID":322648,"DIS_CODE":0,"TOWNNAME":"新化區","LI":"全興里","LIN":"20鄰","STREET":" ","SECT":" ","MAREA":"竹子\u25A0","LANE":" ","ALLEY":" ","HOUSE_NO":"２４７號之４１１","E_COORD97":178526.76000000001,"N_COORD97":2546656.2599999998,"ADDRESS":"竹子\u25A0２４７號之４１１","OBJECTID":322639},"geometry":{"x":178526.76000000071,"y":2546656.2599999998}},{"attributes":{"ID":322649,"DIS_CODE":0,"TOWNNAME":"安南區","LI":"海佃里","LIN":"20鄰","STREET":"海佃路","SECT":"一段","MAREA":" ","LANE":"２２７巷","ALLEY":" ","HOUSE_NO":"３６號","E_COORD97":167002.87,"N_COORD97":2547302.6600000001,"ADDRESS":"海佃路一段２２７巷３６號","OBJECTID":322640},"geometry":{"x":167002.87000000104,"y":2547302.660000002}},{"attributes":{"ID":322650,"DIS_CODE":0,"TOWNNAME":"安南區","LI":"海佃里","LIN":"20鄰","STREET":"海佃路","SECT":"一段","MAREA":" ","LANE":"２２７巷","ALLEY":" ","HOUSE_NO":"３７號","E_COORD97":167002.20000000001,"N_COORD97":2547279.6099999999,"ADDRESS":"海佃路一段２２７巷３７號","OBJECTID":322641},"geometry":{"x":167002.20000000112,"y":2547279.6099999994}},{"attributes":{"ID":322651,"DIS_CODE":0,"TOWNNAME":"安南區","LI":"海佃里","LIN":"20鄰","STREET":"海佃路","SECT":"一段","MAREA":" ","LANE":"２２７巷","ALLEY":" ","HOUSE_NO":"３８號","E_COORD97":166998.88,"N_COORD97":2547301.9900000002,"ADDRESS":"海佃路一段２２７巷３８號","OBJECTID":322642},"geometry":{"x":166998.88000000082,"y":2547301.9900000002}},{"attributes":{"ID":322652,"DIS_CODE":0,"TOWNNAME":"安南區","LI":"海佃里","LIN":"20鄰","STREET":"海佃路","SECT":"一段","MAREA":" ","LANE":"２２７巷","ALLEY":" ","HOUSE_NO":"３９號","E_COORD97":166998.88,"N_COORD97":2547279.6099999999,"ADDRESS":"海佃路一段２２７巷３９號","OBJECTID":322643},"geometry":{"x":166998.88000000082,"y":2547279.6099999994}},{"attributes":{"ID":322653,"DIS_CODE":0,"TOWNNAME":"新化區","LI":"知義里","LIN":" ","STREET":" ","SECT":" ","MAREA":"新和庄","LANE":" ","ALLEY":" ","HOUSE_NO":"８３號之１","E_COORD97":182005.35999999999,"N_COORD97":2546510.2599999998,"ADDRESS":"新和庄８３號之１","OBJECTID":322644},"geometry":{"x":182005.36000000127,"y":2546510.2599999998}},{"attributes":{"ID":322654,"DIS_CODE":0,"TOWNNAME":"新化區","LI":"\u25A0拔里","LIN":"4鄰","STREET":" ","SECT":" ","MAREA":"\u25A0拔林","LANE":" ","ALLEY":" ","HOUSE_NO":"２１９號之１５","E_COORD97":183743.53,"N_COORD97":2551989.2599999998,"ADDRESS":"\u25A0拔林２１９號之１５","OBJECTID":322645},"geometry":{"x":183743.53000000119,"y":2551989.2599999998}},{"attributes":{"ID":322655,"DIS_CODE":0,"TOWNNAME":"新化區","LI":"\u25A0拔里","LIN":"4鄰","STREET":" ","SECT":" ","MAREA":"\u25A0拔林","LANE":" ","ALLEY":" ","HOUSE_NO":"２０１號之５","E_COORD97":183770.78,"N_COORD97":2551936.2599999998,"ADDRESS":"\u25A0拔林２０１號之５","OBJECTID":322646},"geometry":{"x":183770.78000000119,"y":2551936.2600000016}},{"attributes":{"ID":322656,"DIS_CODE":0,"TOWNNAME":"白河區","LI":"永安里","LIN":"17鄰","STREET":"國泰路","SECT":" ","MAREA":" ","LANE":" ","ALLEY":" ","HOUSE_NO":"１１５號","E_COORD97":190000.84,"N_COORD97":2582911.54,"ADDRESS":"國泰路１１５號","OBJECTID":322647},"geometry":{"x":190000.84000000171,"y":2582911.540000001}},{"attributes":{"ID":322657,"DIS_CODE":0,"TOWNNAME":"安南區","LI":"海佃里","LIN":"20鄰","STREET":"海佃路","SECT":"一段","MAREA":" ","LANE":"２２７巷","ALLEY":" ","HOUSE_NO":"３號","E_COORD97":167072.70000000001,"N_COORD97":2547294.2200000002,"ADDRESS":"海佃路一段２２７巷３號","OBJECTID":322648},"geometry":{"x":167072.70000000019,"y":2547294.2200000007}},{"attributes":{"ID":322658,"DIS_CODE":0,"TOWNNAME":"安南區","LI":"海佃里","LIN":"20鄰","STREET":"海佃路","SECT":"一段","MAREA":" ","LANE":"２２７巷","ALLEY":" ","HOUSE_NO":"４０號","E_COORD97":166994.22,"N_COORD97":2547301.3300000001,"ADDRESS":"海佃路一段２２７巷４０號","OBJECTID":322649},"geometry":{"x":166994.21999999974,"y":2547301.3300000019}},{"attributes":{"ID":322659,"DIS_CODE":0,"TOWNNAME":"新市區","LI":"永就里","LIN":"2鄰","STREET":" ","SECT":" ","MAREA":"永就","LANE":" ","ALLEY":" ","HOUSE_NO":"２５之５０號","E_COORD97":179739.74608899999,"N_COORD97":2551330.7495599999,"ADDRESS":"永就２５之５０號","OBJECTID":322650},"geometry":{"x":179739.74608900025,"y":2551330.7495559994}},{"attributes":{"ID":322660,"DIS_CODE":0,"TOWNNAME":"新化區","LI":"\u25A0拔里","LIN":"4鄰","STREET":" ","SECT":" ","MAREA":"\u25A0拔林","LANE":" ","ALLEY":" ","HOUSE_NO":"２２１號之５","E_COORD97":183702.57999999999,"N_COORD97":2551999.2599999998,"ADDRESS":"\u25A0拔林２２１號之５","OBJECTID":322651},"geometry":{"x":183702.58000000101,"y":2551999.2599999998}},{"attributes":{"ID":322661,"DIS_CODE":0,"TOWNNAME":"新化區","LI":"全興里","LIN":"20鄰","STREET":" ","SECT":" ","MAREA":"竹子\u25A0","LANE":" ","ALLEY":" ","HOUSE_NO":"２４７號之３７２","E_COORD97":178368.79000000001,"N_COORD97":2546676.2599999998,"ADDRESS":"竹子\u25A0２４７號之３７２","OBJECTID":322652},"geometry":{"x":178368.79000000004,"y":2546676.2599999998}},{"attributes":{"ID":322662,"DIS_CODE":0,"TOWNNAME":"安南區","LI":"海佃里","LIN":"20鄰","STREET":"海佃路","SECT":"一段","MAREA":" ","LANE":"２２７巷","ALLEY":" ","HOUSE_NO":"４１號","E_COORD97":166994.22,"N_COORD97":2547277.6200000001,"ADDRESS":"海佃路一段２２７巷４１號","OBJECTID":322653},"geometry":{"x":166994.21999999974,"y":2547277.620000001}},{"attributes":{"ID":322663,"DIS_CODE":0,"TOWNNAME":"新化區","LI":"\u25A0拔里","LIN":"4鄰","STREET":" ","SECT":" ","MAREA":"\u25A0拔林","LANE":" ","ALLEY":" ","HOUSE_NO":"２１９號之５","E_COORD97":183761.98000000001,"N_COORD97":2552012.2599999998,"ADDRESS":"\u25A0拔林２１９號之５","OBJECTID":322654},"geometry":{"x":183761.98000000045,"y":2552012.2599999998}},{"attributes":{"ID":322664,"DIS_CODE":0,"TOWNNAME":"安南區","LI":"海佃里","LIN":"20鄰","STREET":"海佃路","SECT":"一段","MAREA":" ","LANE":"２２７巷","ALLEY":" ","HOUSE_NO":"４２號","E_COORD97":166990.23000000001,"N_COORD97":2547300.6699999999,"ADDRESS":"海佃路一段２２７巷４２號","OBJECTID":322655},"geometry":{"x":166990.23000000138,"y":2547300.6699999999}},{"attributes":{"ID":322665,"DIS_CODE":0,"TOWNNAME":"麻豆區","LI":"小埤里","LIN":"4鄰","STREET":" ","SECT":" ","MAREA":"小埤頭","LANE":" ","ALLEY":" ","HOUSE_NO":"１６號之１","E_COORD97":171339.16,"N_COORD97":2566073.3599999999,"ADDRESS":"小埤頭１６號之１","OBJECTID":322656},"geometry":{"x":171339.16000000015,"y":2566073.3600000013}},{"attributes":{"ID":322666,"DIS_CODE":0,"TOWNNAME":"新化區","LI":"全興里","LIN":"20鄰","STREET":" ","SECT":" ","MAREA":"竹子\u25A0","LANE":" ","ALLEY":" ","HOUSE_NO":"２４７號之４４７","E_COORD97":178425.28,"N_COORD97":2546660.2599999998,"ADDRESS":"竹子\u25A0２４７號之４４７","OBJECTID":322657},"geometry":{"x":178425.28000000212,"y":2546660.2600000016}},{"attributes":{"ID":322667,"DIS_CODE":0,"TOWNNAME":"安南區","LI":"海佃里","LIN":"20鄰","STREET":"海佃路","SECT":"一段","MAREA":" ","LANE":"２２７巷","ALLEY":" ","HOUSE_NO":"４３號","E_COORD97":166990.23000000001,"N_COORD97":2547276.9500000002,"ADDRESS":"海佃路一段２２７巷４３號","OBJECTID":322658},"geometry":{"x":166990.23000000138,"y":2547276.9499999993}},{"attributes":{"ID":322668,"DIS_CODE":0,"TOWNNAME":"安南區","LI":"海佃里","LIN":"20鄰","STREET":"海佃路","SECT":"一段","MAREA":" ","LANE":"２２７巷","ALLEY":" ","HOUSE_NO":"４５號","E_COORD97":166985.57999999999,"N_COORD97":2547277.6200000001,"ADDRESS":"海佃路一段２２７巷４５號","OBJECTID":322659},"geometry":{"x":166985.58000000194,"y":2547277.620000001}},{"attributes":{"ID":322669,"DIS_CODE":0,"TOWNNAME":"安南區","LI":"海佃里","LIN":"20鄰","STREET":"海佃路","SECT":"一段","MAREA":" ","LANE":"２２７巷","ALLEY":" ","HOUSE_NO":"４６號","E_COORD97":166982.92000000001,"N_COORD97":2547299.3399999999,"ADDRESS":"海佃路一段２２７巷４６號","OBJECTID":322660},"geometry":{"x":166982.91999999993,"y":2547299.3399999999}},{"attributes":{"ID":322670,"DIS_CODE":0,"TOWNNAME":"安南區","LI":"海佃里","LIN":"20鄰","STREET":"海佃路","SECT":"一段","MAREA":" ","LANE":"２２７巷","ALLEY":" ","HOUSE_NO":"４７號","E_COORD97":166982.25,"N_COORD97":2547275.6200000001,"ADDRESS":"海佃路一段２２７巷４７號","OBJECTID":322661},"geometry":{"x":166982.25,"y":2547275.620000001}},{"attributes":{"ID":322671,"DIS_CODE":0,"TOWNNAME":"新化區","LI":"\u25A0拔里","LIN":"4鄰","STREET":" ","SECT":" ","MAREA":"\u25A0拔林","LANE":" ","ALLEY":" ","HOUSE_NO":"２１８號之１２","E_COORD97":183786.92999999999,"N_COORD97":2552074.2599999998,"ADDRESS":"\u25A0拔林２１８號之１２","OBJECTID":322662},"geometry":{"x":183786.9299999997,"y":2552074.2599999979}},{"attributes":{"ID":322672,"DIS_CODE":0,"TOWNNAME":"新化區","LI":"全興里","LIN":"14鄰","STREET":" ","SECT":" ","MAREA":"竹子\u25A0","LANE":" ","ALLEY":" ","HOUSE_NO":"２４７號之２９２","E_COORD97":178139.39000000001,"N_COORD97":2546724.2599999998,"ADDRESS":"竹子\u25A0２４７號之２９２","OBJECTID":322663},"geometry":{"x":178139.3900000006,"y":2546724.2600000035}},{"attributes":{"ID":322673,"DIS_CODE":0,"TOWNNAME":"新化區","LI":"大坑里","LIN":"4鄰","STREET":" ","SECT":" ","MAREA":"大坑尾","LANE":" ","ALLEY":" ","HOUSE_NO":"７２號之２","E_COORD97":186997.23000000001,"N_COORD97":2545518.2599999998,"ADDRESS":"大坑尾７２號之２","OBJECTID":322664},"geometry":{"x":186997.23000000138,"y":2545518.2600000016}},{"attributes":{"ID":322674,"DIS_CODE":0,"TOWNNAME":"新化區","LI":"知義里","LIN":" ","STREET":" ","SECT":" ","MAREA":"新和庄","LANE":" ","ALLEY":" ","HOUSE_NO":"７２號","E_COORD97":181939.54000000001,"N_COORD97":2546549.25,"ADDRESS":"新和庄７２號","OBJECTID":322665},"geometry":{"x":181939.54000000097,"y":2546549.2500000019}},{"attributes":{"ID":322675,"DIS_CODE":0,"TOWNNAME":"新化區","LI":"\u25A0拔里","LIN":"4鄰","STREET":" ","SECT":" ","MAREA":"\u25A0拔林","LANE":" ","ALLEY":" ","HOUSE_NO":"２１９號之６","E_COORD97":183757.07000000001,"N_COORD97":2552012.2599999998,"ADDRESS":"\u25A0拔林２１９號之６","OBJECTID":322666},"geometry":{"x":183757.07000000123,"y":2552012.2599999998}},{"attributes":{"ID":322676,"DIS_CODE":0,"TOWNNAME":"安南區","LI":"海佃里","LIN":"20鄰","STREET":"海佃路","SECT":"一段","MAREA":" ","LANE":"２２７巷","ALLEY":" ","HOUSE_NO":"４８號","E_COORD97":166978.26000000001,"N_COORD97":2547296.6800000002,"ADDRESS":"海佃路一段２２７巷４８號","OBJECTID":322667},"geometry":{"x":166978.25999999978,"y":2547296.6799999997}},{"attributes":{"ID":322677,"DIS_CODE":0,"TOWNNAME":"新化區","LI":"全興里","LIN":"20鄰","STREET":" ","SECT":" ","MAREA":"竹子\u25A0","LANE":" ","ALLEY":" ","HOUSE_NO":"２４７號之３１０","E_COORD97":178530.07000000001,"N_COORD97":2546671.2599999998,"ADDRESS":"竹子\u25A0２４７號之３１０","OBJECTID":322668},"geometry":{"x":178530.07000000216,"y":2546671.2600000016}},{"attributes":{"ID":322678,"DIS_CODE":0,"TOWNNAME":"新化區","LI":"全興里","LIN":"17鄰","STREET":" ","SECT":" ","MAREA":"竹子\u25A0","LANE":" ","ALLEY":" ","HOUSE_NO":"２４７號之３７４","E_COORD97":178346.17000000001,"N_COORD97":2546675.2599999998,"ADDRESS":"竹子\u25A0２４７號之３７４","OBJECTID":322669},"geometry":{"x":178346.17000000086,"y":2546675.2599999998}},{"attributes":{"ID":322679,"DIS_CODE":0,"TOWNNAME":"新化區","LI":"全興里","LIN":"8鄰","STREET":" ","SECT":" ","MAREA":"竹子\u25A0","LANE":" ","ALLEY":" ","HOUSE_NO":"１０１號之１","E_COORD97":177276.76000000001,"N_COORD97":2547677.2599999998,"ADDRESS":"竹子\u25A0１０１號之１","OBJECTID":322670},"geometry":{"x":177276.75999999978,"y":2547677.2600000035}},{"attributes":{"ID":322680,"DIS_CODE":0,"TOWNNAME":"新化區","LI":"全興里","LIN":"18鄰","STREET":" ","SECT":" ","MAREA":"竹子\u25A0","LANE":" ","ALLEY":" ","HOUSE_NO":"２４７號之１６５","E_COORD97":178550.79000000001,"N_COORD97":2546740.2599999998,"ADDRESS":"竹子\u25A0２４７號之１６５","OBJECTID":322671},"geometry":{"x":178550.79000000097,"y":2546740.2599999998}},{"attributes":{"ID":322681,"DIS_CODE":0,"TOWNNAME":"新化區","LI":"全興里","LIN":"14鄰","STREET":" ","SECT":" ","MAREA":"竹子\u25A0","LANE":" ","ALLEY":" ","HOUSE_NO":"２４７號之２８６","E_COORD97":178153.48000000001,"N_COORD97":2546723.2599999998,"ADDRESS":"竹子\u25A0２４７號之２８６","OBJECTID":322672},"geometry":{"x":178153.48000000138,"y":2546723.2599999998}},{"attributes":{"ID":322682,"DIS_CODE":0,"TOWNNAME":"新化區","LI":"全興里","LIN":"18鄰","STREET":" ","SECT":" ","MAREA":"竹子\u25A0","LANE":" ","ALLEY":" ","HOUSE_NO":"２４７號之７７","E_COORD97":178420.23000000001,"N_COORD97":2546782.2599999998,"ADDRESS":"竹子\u25A0２４７號之７７","OBJECTID":322673},"geometry":{"x":178420.23000000045,"y":2546782.2600000035}},{"attributes":{"ID":322683,"DIS_CODE":0,"TOWNNAME":"新化區","LI":"全興里","LIN":"18鄰","STREET":" ","SECT":" ","MAREA":"竹子\u25A0","LANE":" ","ALLEY":" ","HOUSE_NO":"２４７號之２０９","E_COORD97":178412.07999999999,"N_COORD97":2546742.2599999998,"ADDRESS":"竹子\u25A0２４７號之２０９","OBJECTID":322674},"geometry":{"x":178412.08000000007,"y":2546742.2600000016}},{"attributes":{"ID":322684,"DIS_CODE":0,"TOWNNAME":"安南區","LI":"海佃里","LIN":"20鄰","STREET":"海佃路","SECT":"一段","MAREA":" ","LANE":"２２７巷","ALLEY":" ","HOUSE_NO":"４９號","E_COORD97":166977.60000000001,"N_COORD97":2547275.6200000001,"ADDRESS":"海佃路一段２２７巷４９號","OBJECTID":322675},"geometry":{"x":166977.59999999963,"y":2547275.620000001}},{"attributes":{"ID":322685,"DIS_CODE":0,"TOWNNAME":"安南區","LI":"海佃里","LIN":"20鄰","STREET":"海佃路","SECT":"一段","MAREA":" ","LANE":"２２７巷","ALLEY":" ","HOUSE_NO":"４號","E_COORD97":167069.37,"N_COORD97":2547319.27,"ADDRESS":"海佃路一段２２７巷４號","OBJECTID":322676},"geometry":{"x":167069.37000000011,"y":2547319.2699999996}},{"attributes":{"ID":322686,"DIS_CODE":0,"TOWNNAME":"新化區","LI":"全興里","LIN":"13鄰","STREET":" ","SECT":" ","MAREA":"竹子\u25A0","LANE":" ","ALLEY":" ","HOUSE_NO":"２４７號之１４２","E_COORD97":178262.79000000001,"N_COORD97":2546759.2599999998,"ADDRESS":"竹子\u25A0２４７號之１４２","OBJECTID":322677},"geometry":{"x":178262.79000000097,"y":2546759.2600000016}},{"attributes":{"ID":322687,"DIS_CODE":0,"TOWNNAME":"新化區","LI":"羊林里","LIN":"4鄰","STREET":" ","SECT":" ","MAREA":"\u25A0拔林","LANE":" ","ALLEY":" ","HOUSE_NO":"４５４號","E_COORD97":183631.32000000001,"N_COORD97":2551744.25,"ADDRESS":"\u25A0拔林４５４號","OBJECTID":322678},"geometry":{"x":183631.32000000123,"y":2551744.25}},{"attributes":{"ID":322688,"DIS_CODE":0,"TOWNNAME":"新化區","LI":"北勢里","LIN":"4鄰","STREET":" ","SECT":" ","MAREA":"北勢","LANE":" ","ALLEY":" ","HOUSE_NO":"１３４號","E_COORD97":177272.28,"N_COORD97":2549553.2599999998,"ADDRESS":"北勢１３４號","OBJECTID":322679},"geometry":{"x":177272.28000000026,"y":2549553.2600000016}},{"attributes":{"ID":322689,"DIS_CODE":0,"TOWNNAME":"新化區","LI":"全興里","LIN":"18鄰","STREET":" ","SECT":" ","MAREA":"竹子\u25A0","LANE":" ","ALLEY":" ","HOUSE_NO":"２４７號之２０５","E_COORD97":178421.19,"N_COORD97":2546741.2599999998,"ADDRESS":"竹子\u25A0２４７號之２０５","OBJECTID":322680},"geometry":{"x":178421.19000000134,"y":2546741.2600000035}},{"attributes":{"ID":322690,"DIS_CODE":0,"TOWNNAME":"安南區","LI":"海佃里","LIN":"20鄰","STREET":"海佃路","SECT":"一段","MAREA":" ","LANE":"２２７巷","ALLEY":" ","HOUSE_NO":"５０號","E_COORD97":166973.60999999999,"N_COORD97":2547297.3399999999,"ADDRESS":"海佃路一段２２７巷５０號","OBJECTID":322681},"geometry":{"x":166973.6099999994,"y":2547297.3400000017}},{"attributes":{"ID":322691,"DIS_CODE":0,"TOWNNAME":"安南區","LI":"海佃里","LIN":"20鄰","STREET":"海佃路","SECT":"一段","MAREA":" ","LANE":"２２７巷","ALLEY":" ","HOUSE_NO":"５１號","E_COORD97":166972.94,"N_COORD97":2547276.29,"ADDRESS":"海佃路一段２２７巷５１號","OBJECTID":322682},"geometry":{"x":166972.94000000041,"y":2547276.2900000028}},{"attributes":{"ID":322692,"DIS_CODE":0,"TOWNNAME":"安南區","LI":"海佃里","LIN":"20鄰","STREET":"海佃路","SECT":"一段","MAREA":" ","LANE":"２２７巷","ALLEY":" ","HOUSE_NO":"５２號","E_COORD97":166969.62,"N_COORD97":2547296.02,"ADDRESS":"海佃路一段２２７巷５２號","OBJECTID":322683},"geometry":{"x":166969.62000000011,"y":2547296.0200000014}},{"attributes":{"ID":322693,"DIS_CODE":0,"TOWNNAME":"安南區","LI":"海佃里","LIN":"20鄰","STREET":"海佃路","SECT":"一段","MAREA":" ","LANE":"２２７巷","ALLEY":" ","HOUSE_NO":"５３號","E_COORD97":166968.95000000001,"N_COORD97":2547274.96,"ADDRESS":"海佃路一段２２７巷５３號","OBJECTID":322684},"geometry":{"x":166968.95000000019,"y":2547274.9600000028}},{"attributes":{"ID":322694,"DIS_CODE":0,"TOWNNAME":"安南區","LI":"海佃里","LIN":"20鄰","STREET":"海佃路","SECT":"一段","MAREA":" ","LANE":"２２７巷","ALLEY":" ","HOUSE_NO":"５４號","E_COORD97":166966.29000000001,"N_COORD97":2547295.3500000001,"ADDRESS":"海佃路一段２２７巷５４號","OBJECTID":322685},"geometry":{"x":166966.29000000004,"y":2547295.3499999996}},{"attributes":{"ID":322695,"DIS_CODE":0,"TOWNNAME":"新化區","LI":"全興里","LIN":"18鄰","STREET":" ","SECT":" ","MAREA":"竹子\u25A0","LANE":" ","ALLEY":" ","HOUSE_NO":"２４７號之２１９","E_COORD97":178389.07999999999,"N_COORD97":2546743.2599999998,"ADDRESS":"竹子\u25A0２４７號之２１９","OBJECTID":322686},"geometry":{"x":178389.08000000194,"y":2546743.2599999998}},{"attributes":{"ID":322696,"DIS_CODE":0,"TOWNNAME":"新化區","LI":"全興里","LIN":"17鄰","STREET":" ","SECT":" ","MAREA":"竹子\u25A0","LANE":" ","ALLEY":" ","HOUSE_NO":"２４７號之５０８","E_COORD97":178361.48999999999,"N_COORD97":2546632.2599999998,"ADDRESS":"竹子\u25A0２４７號之５０８","OBJECTID":322687},"geometry":{"x":178361.49000000115,"y":2546632.2599999998}},{"attributes":{"ID":322697,"DIS_CODE":0,"TOWNNAME":"新化區","LI":"全興里","LIN":"17鄰","STREET":" ","SECT":" ","MAREA":"竹子\u25A0","LANE":" ","ALLEY":" ","HOUSE_NO":"２４７號之５３６","E_COORD97":178295.48000000001,"N_COORD97":2546634.2599999998,"ADDRESS":"竹子\u25A0２４７號之５３６","OBJECTID":322688},"geometry":{"x":178295.48000000138,"y":2546634.2600000016}},{"attributes":{"ID":322698,"DIS_CODE":0,"TOWNNAME":"新化區","LI":"全興里","LIN":"18鄰","STREET":" ","SECT":" ","MAREA":"竹子\u25A0","LANE":" ","ALLEY":" ","HOUSE_NO":"２４７號之１６７","E_COORD97":178546.28,"N_COORD97":2546740.2599999998,"ADDRESS":"竹子\u25A0２４７號之１６７","OBJECTID":322689},"geometry":{"x":178546.28000000119,"y":2546740.2599999998}},{"attributes":{"ID":322699,"DIS_CODE":0,"TOWNNAME":"新化區","LI":"全興里","LIN":"18鄰","STREET":" ","SECT":" ","MAREA":"竹子\u25A0","LANE":" ","ALLEY":" ","HOUSE_NO":"２４７號之８３","E_COORD97":178397.92999999999,"N_COORD97":2546759.2599999998,"ADDRESS":"竹子\u25A0２４７號之８３","OBJECTID":322690},"geometry":{"x":178397.9299999997,"y":2546759.2600000016}},{"attributes":{"ID":322700,"DIS_CODE":0,"TOWNNAME":"新化區","LI":"全興里","LIN":"17鄰","STREET":" ","SECT":" ","MAREA":"竹子\u25A0","LANE":" ","ALLEY":" ","HOUSE_NO":"２４７號之５１２","E_COORD97":178351.19,"N_COORD97":2546633.2599999998,"ADDRESS":"竹子\u25A0２４７號之５１２","OBJECTID":322691},"geometry":{"x":178351.19000000041,"y":2546633.2600000016}},{"attributes":{"ID":322701,"DIS_CODE":0,"TOWNNAME":"新化區","LI":"全興里","LIN":"17鄰","STREET":" ","SECT":" ","MAREA":"竹子\u25A0","LANE":" ","ALLEY":" ","HOUSE_NO":"２４７號之６３９","E_COORD97":178305.88,"N_COORD97":2546607.2599999998,"ADDRESS":"竹子\u25A0２４７號之６３９","OBJECTID":322692},"geometry":{"x":178305.88000000082,"y":2546607.2600000016}},{"attributes":{"ID":322702,"DIS_CODE":0,"TOWNNAME":"新化區","LI":"全興里","LIN":"4鄰","STREET":" ","SECT":" ","MAREA":"竹子\u25A0","LANE":" ","ALLEY":" ","HOUSE_NO":"５５號","E_COORD97":177599.57999999999,"N_COORD97":2547777.25,"ADDRESS":"竹子\u25A0５５號","OBJECTID":322693},"geometry":{"x":177599.58000000101,"y":2547777.2500000019}},{"attributes":{"ID":322703,"DIS_CODE":0,"TOWNNAME":"中西區","LI":"中正里","LIN":"11鄰","STREET":"正興街","SECT":" ","MAREA":" ","LANE":" ","ALLEY":" ","HOUSE_NO":"１５２號","E_COORD97":167555.65486099999,"N_COORD97":2543934.0310200001,"ADDRESS":"正興街１５２號","OBJECTID":322694},"geometry":{"x":167555.6548610013,"y":2543934.0310210027}},{"attributes":{"ID":322704,"DIS_CODE":0,"TOWNNAME":"新化區","LI":"全興里","LIN":"18鄰","STREET":" ","SECT":" ","MAREA":"竹子\u25A0","LANE":" ","ALLEY":" ","HOUSE_NO":"２４７號之２１３","E_COORD97":178402.28,"N_COORD97":2546742.2599999998,"ADDRESS":"竹子\u25A0２４７號之２１３","OBJECTID":322695},"geometry":{"x":178402.28000000119,"y":2546742.2600000016}},{"attributes":{"ID":322705,"DIS_CODE":0,"TOWNNAME":"新化區","LI":"全興里","LIN":"18鄰","STREET":" ","SECT":" ","MAREA":"竹子\u25A0","LANE":" ","ALLEY":" ","HOUSE_NO":"２４７號之１８３","E_COORD97":178491.17999999999,"N_COORD97":2546742.2599999998,"ADDRESS":"竹子\u25A0２４７號之１８３","OBJECTID":322696},"geometry":{"x":178491.1799999997,"y":2546742.2600000016}},{"attributes":{"ID":322706,"DIS_CODE":0,"TOWNNAME":"新化區","LI":"全興里","LIN":"18鄰","STREET":" ","SECT":" ","MAREA":"竹子\u25A0","LANE":" ","ALLEY":" ","HOUSE_NO":"２４７號之１８５","E_COORD97":178486.39000000001,"N_COORD97":2546742.2599999998,"ADDRESS":"竹子\u25A0２４７號之１８５","OBJECTID":322697},"geometry":{"x":178486.38999999966,"y":2546742.2600000016}},{"attributes":{"ID":322707,"DIS_CODE":0,"TOWNNAME":"新化區","LI":"全興里","LIN":"18鄰","STREET":" ","SECT":" ","MAREA":"竹子\u25A0","LANE":" ","ALLEY":" ","HOUSE_NO":"２４７號之１６１","E_COORD97":178563.56,"N_COORD97":2546739.2599999998,"ADDRESS":"竹子\u25A0２４７號之１６１","OBJECTID":322698},"geometry":{"x":178563.56000000052,"y":2546739.2600000016}},{"attributes":{"ID":322708,"DIS_CODE":0,"TOWNNAME":"新化區","LI":"全興里","LIN":"17鄰","STREET":" ","SECT":" ","MAREA":"竹子\u25A0","LANE":" ","ALLEY":" ","HOUSE_NO":"２４７號之６４５","E_COORD97":178292.09,"N_COORD97":2546608.2599999998,"ADDRESS":"竹子\u25A0２４７號之６４５","OBJECTID":322699},"geometry":{"x":178292.09000000171,"y":2546608.2599999998}},{"attributes":{"ID":322709,"DIS_CODE":0,"TOWNNAME":"新化區","LI":"全興里","LIN":"17鄰","STREET":" ","SECT":" ","MAREA":"竹子\u25A0","LANE":" ","ALLEY":" ","HOUSE_NO":"２４７號之５２８","E_COORD97":178314.09,"N_COORD97":2546634.2599999998,"ADDRESS":"竹子\u25A0２４７號之５２８","OBJECTID":322700},"geometry":{"x":178314.08999999892,"y":2546634.2600000016}},{"attributes":{"ID":322710,"DIS_CODE":0,"TOWNNAME":"新化區","LI":"全興里","LIN":"18鄰","STREET":" ","SECT":" ","MAREA":"竹子\u25A0","LANE":" ","ALLEY":" ","HOUSE_NO":"２４７號之２０３","E_COORD97":178425.88,"N_COORD97":2546741.2599999998,"ADDRESS":"竹子\u25A0２４７號之２０３","OBJECTID":322701},"geometry":{"x":178425.88000000175,"y":2546741.2600000035}},{"attributes":{"ID":322711,"DIS_CODE":0,"TOWNNAME":"新化區","LI":"全興里","LIN":"17鄰","STREET":" ","SECT":" ","MAREA":"竹子\u25A0","LANE":" ","ALLEY":" ","HOUSE_NO":"２４７號之６３７","E_COORD97":178310.78,"N_COORD97":2546607.2599999998,"ADDRESS":"竹子\u25A0２４７號之６３７","OBJECTID":322702},"geometry":{"x":178310.78000000026,"y":2546607.2600000016}},{"attributes":{"ID":322712,"DIS_CODE":0,"TOWNNAME":"安南區","LI":"海佃里","LIN":"20鄰","STREET":"海佃路","SECT":"一段","MAREA":" ","LANE":"２２７巷","ALLEY":" ","HOUSE_NO":"５５號","E_COORD97":166964.29999999999,"N_COORD97":2547273.6299999999,"ADDRESS":"海佃路一段２２７巷５５號","OBJECTID":322703},"geometry":{"x":166964.29999999981,"y":2547273.6300000027}},{"attributes":{"ID":322713,"DIS_CODE":0,"TOWNNAME":"新化區","LI":"全興里","LIN":"18鄰","STREET":" ","SECT":" ","MAREA":"竹子\u25A0","LANE":" ","ALLEY":" ","HOUSE_NO":"２４７號之１８７","E_COORD97":178481.67999999999,"N_COORD97":2546742.2599999998,"ADDRESS":"竹子\u25A0２４７號之１８７","OBJECTID":322704},"geometry":{"x":178481.68000000063,"y":2546742.2600000016}},{"attributes":{"ID":322714,"DIS_CODE":0,"TOWNNAME":"新化區","LI":"\u25A0拔里","LIN":"4鄰","STREET":" ","SECT":" ","MAREA":"\u25A0拔林","LANE":" ","ALLEY":" ","HOUSE_NO":"２１８號之１８","E_COORD97":183758.42999999999,"N_COORD97":2552060.2599999998,"ADDRESS":"\u25A0拔林２１８號之１８","OBJECTID":322705},"geometry":{"x":183758.43000000156,"y":2552060.2599999998}},{"attributes":{"ID":322715,"DIS_CODE":0,"TOWNNAME":"安南區","LI":"海佃里","LIN":"20鄰","STREET":"海佃路","SECT":"一段","MAREA":" ","LANE":"２２７巷","ALLEY":" ","HOUSE_NO":"５６號","E_COORD97":166962.29999999999,"N_COORD97":2547294.6899999999,"ADDRESS":"海佃路一段２２７巷５６號","OBJECTID":322706},"geometry":{"x":166962.30000000075,"y":2547294.6900000013}},{"attributes":{"ID":322716,"DIS_CODE":0,"TOWNNAME":"新化區","LI":"\u25A0拔里","LIN":"4鄰","STREET":" ","SECT":" ","MAREA":"\u25A0拔林","LANE":" ","ALLEY":" ","HOUSE_NO":"２１８號之２５","E_COORD97":183801.03,"N_COORD97":2552027.2599999998,"ADDRESS":"\u25A0拔林２１８號之２５","OBJECTID":322707},"geometry":{"x":183801.03000000119,"y":2552027.2600000016}},{"attributes":{"ID":322717,"DIS_CODE":0,"TOWNNAME":"新化區","LI":"全興里","LIN":"18鄰","STREET":" ","SECT":" ","MAREA":"竹子\u25A0","LANE":" ","ALLEY":" ","HOUSE_NO":"２４７號之１９３","E_COORD97":178453.88,"N_COORD97":2546740.2599999998,"ADDRESS":"竹子\u25A0２４７號之１９３","OBJECTID":322708},"geometry":{"x":178453.87999999989,"y":2546740.2599999998}},{"attributes":{"ID":322718,"DIS_CODE":0,"TOWNNAME":"安南區","LI":"海佃里","LIN":"20鄰","STREET":"海佃路","SECT":"一段","MAREA":" ","LANE":"２２７巷","ALLEY":" ","HOUSE_NO":"５７號","E_COORD97":166960.97,"N_COORD97":2547274.29,"ADDRESS":"海佃路一段２２７巷５７號","OBJECTID":322709},"geometry":{"x":166960.97000000067,"y":2547274.290000001}},{"attributes":{"ID":322719,"DIS_CODE":0,"TOWNNAME":"新化區","LI":"知義里","LIN":" ","STREET":" ","SECT":" ","MAREA":"新和庄","LANE":" ","ALLEY":" ","HOUSE_NO":"８６號","E_COORD97":182020.84,"N_COORD97":2546501.25,"ADDRESS":"新和庄８６號","OBJECTID":322710},"geometry":{"x":182020.83999999985,"y":2546501.2500000019}},{"attributes":{"ID":322720,"DIS_CODE":0,"TOWNNAME":"安南區","LI":"海佃里","LIN":"20鄰","STREET":"海佃路","SECT":"一段","MAREA":" ","LANE":"２２７巷","ALLEY":" ","HOUSE_NO":"６號","E_COORD97":167065.38,"N_COORD97":2547316.6099999999,"ADDRESS":"海佃路一段２２７巷６號","OBJECTID":322711},"geometry":{"x":167065.38000000082,"y":2547316.6100000013}},{"attributes":{"ID":322721,"DIS_CODE":0,"TOWNNAME":"新化區","LI":"\u25A0拔里","LIN":"4鄰","STREET":" ","SECT":" ","MAREA":"\u25A0拔林","LANE":" ","ALLEY":" ","HOUSE_NO":"２２２號之２","E_COORD97":183715.17999999999,"N_COORD97":2551972.2599999998,"ADDRESS":"\u25A0拔林２２２號之２","OBJECTID":322712},"geometry":{"x":183715.1799999997,"y":2551972.2599999998}},{"attributes":{"ID":322722,"DIS_CODE":0,"TOWNNAME":"新化區","LI":"知義里","LIN":" ","STREET":" ","SECT":" ","MAREA":"新和庄","LANE":" ","ALLEY":" ","HOUSE_NO":"２１７號之５","E_COORD97":181492.45000000001,"N_COORD97":2546961.2599999998,"ADDRESS":"新和庄２１７號之５","OBJECTID":322713},"geometry":{"x":181492.45000000112,"y":2546961.2599999998}},{"attributes":{"ID":322723,"DIS_CODE":0,"TOWNNAME":"安南區","LI":"海佃里","LIN":"20鄰","STREET":"海佃路","SECT":"一段","MAREA":" ","LANE":"２２７巷","ALLEY":" ","HOUSE_NO":"７號","E_COORD97":167064.72,"N_COORD97":2547292.8900000001,"ADDRESS":"海佃路一段２２７巷７號","OBJECTID":322714},"geometry":{"x":167064.72000000067,"y":2547292.8900000006}},{"attributes":{"ID":322724,"DIS_CODE":0,"TOWNNAME":"安南區","LI":"海佃里","LIN":"20鄰","STREET":"海佃路","SECT":"一段","MAREA":" ","LANE":"２２７巷","ALLEY":" ","HOUSE_NO":"８號","E_COORD97":167062.06,"N_COORD97":2547315.2799999998,"ADDRESS":"海佃路一段２２７巷８號","OBJECTID":322715},"geometry":{"x":167062.06000000052,"y":2547315.2800000012}},{"attributes":{"ID":322725,"DIS_CODE":0,"TOWNNAME":"新化區","LI":"知義里","LIN":" ","STREET":" ","SECT":" ","MAREA":"新和庄","LANE":" ","ALLEY":" ","HOUSE_NO":"１４６號","E_COORD97":181971.59,"N_COORD97":2546549.25,"ADDRESS":"新和庄１４６號","OBJECTID":322716},"geometry":{"x":181971.58999999985,"y":2546549.2500000019}},{"attributes":{"ID":322726,"DIS_CODE":0,"TOWNNAME":"安南區","LI":"海佃里","LIN":"20鄰","STREET":"海佃路","SECT":"一段","MAREA":" ","LANE":"２２７巷","ALLEY":" ","HOUSE_NO":"９號","E_COORD97":167060.73000000001,"N_COORD97":2547292.23,"ADDRESS":"海佃路一段２２７巷９號","OBJECTID":322717},"geometry":{"x":167060.73000000045,"y":2547292.2300000023}},{"attributes":{"ID":322727,"DIS_CODE":0,"TOWNNAME":"安南區","LI":"幸福里","LIN":"20鄰","STREET":"海佃路","SECT":"一段","MAREA":" ","LANE":"９５巷","ALLEY":" ","HOUSE_NO":"１０號","E_COORD97":167122.19,"N_COORD97":2546950.7000000002,"ADDRESS":"海佃路一段９５巷１０號","OBJECTID":322718},"geometry":{"x":167122.19000000041,"y":2546950.6999999993}},{"attributes":{"ID":322728,"DIS_CODE":0,"TOWNNAME":"新化區","LI":"知義里","LIN":" ","STREET":" ","SECT":" ","MAREA":"新和庄","LANE":" ","ALLEY":" ","HOUSE_NO":"１４５號之７","E_COORD97":181975.53,"N_COORD97":2546547.2599999998,"ADDRESS":"新和庄１４５號之７","OBJECTID":322719},"geometry":{"x":181975.53000000119,"y":2546547.2599999998}},{"attributes":{"ID":322729,"DIS_CODE":0,"TOWNNAME":"佳里區","LI":"建南里","LIN":"17鄰","STREET":"建南街","SECT":" ","MAREA":" ","LANE":" ","ALLEY":" ","HOUSE_NO":"１０３號","E_COORD97":165647.60999999999,"N_COORD97":2562005.29,"ADDRESS":"建南街１０３號","OBJECTID":322720},"geometry":{"x":165647.61000000034,"y":2562005.290000001}},{"attributes":{"ID":322730,"DIS_CODE":0,"TOWNNAME":"安南區","LI":"幸福里","LIN":"20鄰","STREET":"海佃路","SECT":"一段","MAREA":" ","LANE":"９５巷","ALLEY":" ","HOUSE_NO":"１３號","E_COORD97":167121.72,"N_COORD97":2546925.7799999998,"ADDRESS":"海佃路一段９５巷１３號","OBJECTID":322721},"geometry":{"x":167121.72000000067,"y":2546925.7799999993}},{"attributes":{"ID":322731,"DIS_CODE":0,"TOWNNAME":"新化區","LI":"知義里","LIN":"10鄰","STREET":" ","SECT":" ","MAREA":"新和庄","LANE":" ","ALLEY":" ","HOUSE_NO":"２２７號","E_COORD97":181474.050552,"N_COORD97":2546918.3607800002,"ADDRESS":"新和庄２２７號","OBJECTID":322722},"geometry":{"x":181474.05055200122,"y":2546918.3607840016}},{"attributes":{"ID":322732,"DIS_CODE":0,"TOWNNAME":"新化區","LI":"豐榮里","LIN":"4鄰","STREET":" ","SECT":" ","MAREA":"洋子","LANE":" ","ALLEY":" ","HOUSE_NO":"６１號","E_COORD97":178002.53,"N_COORD97":2548294.25,"ADDRESS":"洋子６１號","OBJECTID":322723},"geometry":{"x":178002.53000000026,"y":2548294.2499999981}},{"attributes":{"ID":322733,"DIS_CODE":0,"TOWNNAME":"新化區","LI":"知義里","LIN":" ","STREET":" ","SECT":" ","MAREA":"新和庄","LANE":" ","ALLEY":" ","HOUSE_NO":"８５號","E_COORD97":182014.34,"N_COORD97":2546505.25,"ADDRESS":"新和庄８５號","OBJECTID":322724},"geometry":{"x":182014.33999999985,"y":2546505.2500000019}},{"attributes":{"ID":322734,"DIS_CODE":0,"TOWNNAME":"新化區","LI":"知義里","LIN":" ","STREET":" ","SECT":" ","MAREA":"新和庄","LANE":" ","ALLEY":" ","HOUSE_NO":"２１號之５","E_COORD97":181363,"N_COORD97":2546766.2599999998,"ADDRESS":"新和庄２１號之５","OBJECTID":322725},"geometry":{"x":181363.00000000186,"y":2546766.2600000016}},{"attributes":{"ID":322735,"DIS_CODE":0,"TOWNNAME":"新化區","LI":"知義里","LIN":" ","STREET":" ","SECT":" ","MAREA":"新和庄","LANE":" ","ALLEY":" ","HOUSE_NO":"１５３號","E_COORD97":181964.48999999999,"N_COORD97":2546572.25,"ADDRESS":"新和庄１５３號","OBJECTID":322726},"geometry":{"x":181964.49000000022,"y":2546572.2500000037}},{"attributes":{"ID":322736,"DIS_CODE":0,"TOWNNAME":"新化區","LI":"東榮里","LIN":"8鄰","STREET":"信義路","SECT":" ","MAREA":" ","LANE":"１１７巷","ALLEY":" ","HOUSE_NO":"７３號之４","E_COORD97":179754.91,"N_COORD97":2548253.2599999998,"ADDRESS":"信義路１１７巷７３號之４","OBJECTID":322727},"geometry":{"x":179754.91000000201,"y":2548253.2599999979}},{"attributes":{"ID":322737,"DIS_CODE":0,"TOWNNAME":"新化區","LI":"護國里","LIN":"4鄰","STREET":"中山路","SECT":" ","MAREA":" ","LANE":"１９４巷","ALLEY":" ","HOUSE_NO":"３號","E_COORD97":179172.31,"N_COORD97":2548480.25,"ADDRESS":"中山路１９４巷３號","OBJECTID":322728},"geometry":{"x":179172.31000000052,"y":2548480.25}},{"attributes":{"ID":322738,"DIS_CODE":0,"TOWNNAME":"新化區","LI":"東榮里","LIN":"13鄰","STREET":"中興路","SECT":" ","MAREA":" ","LANE":"５５４巷","ALLEY":" ","HOUSE_NO":"４５號","E_COORD97":179909.95999999999,"N_COORD97":2548055.25,"ADDRESS":"中興路５５４巷４５號","OBJECTID":322729},"geometry":{"x":179909.95999999996,"y":2548055.2500000019}},{"attributes":{"ID":322739,"DIS_CODE":0,"TOWNNAME":"新化區","LI":"知義里","LIN":"14鄰","STREET":"中正路","SECT":" ","MAREA":" ","LANE":"２００巷","ALLEY":" ","HOUSE_NO":"４７號","E_COORD97":179269.95999999999,"N_COORD97":2547517.25,"ADDRESS":"中正路２００巷４７號","OBJECTID":322730},"geometry":{"x":179269.96000000089,"y":2547517.25}},{"attributes":{"ID":322740,"DIS_CODE":0,"TOWNNAME":"安南區","LI":"幸福里","LIN":"20鄰","STREET":"海佃路","SECT":"一段","MAREA":" ","LANE":"９５巷","ALLEY":" ","HOUSE_NO":"１４號","E_COORD97":167104.98000000001,"N_COORD97":2546943.3700000001,"ADDRESS":"海佃路一段９５巷１４號","OBJECTID":322731},"geometry":{"x":167104.98000000045,"y":2546943.3700000029}},{"attributes":{"ID":322741,"DIS_CODE":0,"TOWNNAME":"安南區","LI":"幸福里","LIN":"20鄰","STREET":"海佃路","SECT":"一段","MAREA":" ","LANE":"９５巷","ALLEY":" ","HOUSE_NO":"１４號之１","E_COORD97":167103.94,"N_COORD97":2546949.46,"ADDRESS":"海佃路一段９５巷１４號之１","OBJECTID":322732},"geometry":{"x":167103.94000000134,"y":2546949.4600000028}},{"attributes":{"ID":322742,"DIS_CODE":0,"TOWNNAME":"新化區","LI":"\u25A0拔里","LIN":"4鄰","STREET":" ","SECT":" ","MAREA":"\u25A0拔林","LANE":" ","ALLEY":" ","HOUSE_NO":"２２０號之１","E_COORD97":183743.45000000001,"N_COORD97":2551966.2599999998,"ADDRESS":"\u25A0拔林２２０號之１","OBJECTID":322733},"geometry":{"x":183743.45000000205,"y":2551966.2600000016}},{"attributes":{"ID":322743,"DIS_CODE":0,"TOWNNAME":"安南區","LI":"幸福里","LIN":"20鄰","STREET":"海佃路","SECT":"一段","MAREA":" ","LANE":"９５巷","ALLEY":" ","HOUSE_NO":"１４號之２","E_COORD97":167102.45000000001,"N_COORD97":2546954.8100000001,"ADDRESS":"海佃路一段９５巷１４號之２","OBJECTID":322734},"geometry":{"x":167102.45000000112,"y":2546954.8100000005}},{"attributes":{"ID":322744,"DIS_CODE":0,"TOWNNAME":"安南區","LI":"幸福里","LIN":"20鄰","STREET":"海佃路","SECT":"一段","MAREA":" ","LANE":"９５巷","ALLEY":" ","HOUSE_NO":"１４號之３","E_COORD97":167101.26000000001,"N_COORD97":2546962.0800000001,"ADDRESS":"海佃路一段９５巷１４號之３","OBJECTID":322735},"geometry":{"x":167101.26000000071,"y":2546962.0800000001}},{"attributes":{"ID":322745,"DIS_CODE":0,"TOWNNAME":"新化區","LI":"豐榮里","LIN":"4鄰","STREET":" ","SECT":" ","MAREA":"洋子","LANE":" ","ALLEY":" ","HOUSE_NO":"７１號之２","E_COORD97":177990.88,"N_COORD97":2548320.25,"ADDRESS":"洋子７１號之２","OBJECTID":322736},"geometry":{"x":177990.88000000082,"y":2548320.25}},{"attributes":{"ID":322746,"DIS_CODE":0,"TOWNNAME":"安南區","LI":"幸福里","LIN":"20鄰","STREET":"海佃路","SECT":"一段","MAREA":" ","LANE":"９５巷","ALLEY":" ","HOUSE_NO":"１４號之４","E_COORD97":167083.72,"N_COORD97":2546956.4399999999,"ADDRESS":"海佃路一段９５巷１４號之４","OBJECTID":322737},"geometry":{"x":167083.71999999974,"y":2546956.4399999995}},{"attributes":{"ID":322747,"DIS_CODE":0,"TOWNNAME":"新化區","LI":"知義里","LIN":" ","STREET":" ","SECT":" ","MAREA":"新和庄","LANE":" ","ALLEY":" ","HOUSE_NO":"１８號之３","E_COORD97":181388.28,"N_COORD97":2546853.2599999998,"ADDRESS":"新和庄１８號之３","OBJECTID":322738},"geometry":{"x":181388.27999999933,"y":2546853.2600000035}},{"attributes":{"ID":322748,"DIS_CODE":0,"TOWNNAME":"新化區","LI":"知義里","LIN":" ","STREET":" ","SECT":" ","MAREA":"新和庄","LANE":" ","ALLEY":" ","HOUSE_NO":"２１號之１０","E_COORD97":181346.32999999999,"N_COORD97":2546754.2599999998,"ADDRESS":"新和庄２１號之１０","OBJECTID":322739},"geometry":{"x":181346.33000000007,"y":2546754.2599999998}},{"attributes":{"ID":322749,"DIS_CODE":0,"TOWNNAME":"安南區","LI":"幸福里","LIN":"20鄰","STREET":"海佃路","SECT":"一段","MAREA":" ","LANE":"９５巷","ALLEY":" ","HOUSE_NO":"１４號之５","E_COORD97":167084.31,"N_COORD97":2546950.3500000001,"ADDRESS":"海佃路一段９５巷１４號之５","OBJECTID":322740},"geometry":{"x":167084.31000000052,"y":2546950.3499999996}},{"attributes":{"ID":322750,"DIS_CODE":0,"TOWNNAME":"安南區","LI":"幸福里","LIN":"20鄰","STREET":"海佃路","SECT":"一段","MAREA":" ","LANE":"９５巷","ALLEY":" ","HOUSE_NO":"１４號之６","E_COORD97":167085.5,"N_COORD97":2546945.6000000001,"ADDRESS":"海佃路一段９５巷１４號之６","OBJECTID":322741},"geometry":{"x":167085.5,"y":2546945.6000000034}},{"attributes":{"ID":322751,"DIS_CODE":0,"TOWNNAME":"安南區","LI":"幸福里","LIN":"20鄰","STREET":"海佃路","SECT":"一段","MAREA":" ","LANE":"９５巷","ALLEY":" ","HOUSE_NO":"１５號","E_COORD97":167107.45000000001,"N_COORD97":2546923.4199999999,"ADDRESS":"海佃路一段９５巷１５號","OBJECTID":322742},"geometry":{"x":167107.45000000112,"y":2546923.4200000037}},{"attributes":{"ID":322752,"DIS_CODE":0,"TOWNNAME":"安南區","LI":"幸福里","LIN":"20鄰","STREET":"海佃路","SECT":"一段","MAREA":" ","LANE":"９５巷","ALLEY":" ","HOUSE_NO":"１７號","E_COORD97":167100.56,"N_COORD97":2546924.8999999999,"ADDRESS":"海佃路一段９５巷１７號","OBJECTID":322743},"geometry":{"x":167100.56000000052,"y":2546924.9000000022}},{"attributes":{"ID":322753,"DIS_CODE":0,"TOWNNAME":"白河區","LI":"永安里","LIN":"17鄰","STREET":"國泰路","SECT":" ","MAREA":" ","LANE":" ","ALLEY":" ","HOUSE_NO":"８６號","E_COORD97":190043.47,"N_COORD97":2582913.7400000002,"ADDRESS":"國泰路８６號","OBJECTID":322744},"geometry":{"x":190043.46999999974,"y":2582913.7399999984}},{"attributes":{"ID":322754,"DIS_CODE":0,"TOWNNAME":"白河區","LI":"永安里","LIN":"17鄰","STREET":"國泰路","SECT":" ","MAREA":" ","LANE":" ","ALLEY":" ","HOUSE_NO":"８８號","E_COORD97":190038.14000000001,"N_COORD97":2582916.96,"ADDRESS":"國泰路８８號","OBJECTID":322745},"geometry":{"x":190038.1400000006,"y":2582916.9600000028}},{"attributes":{"ID":322755,"DIS_CODE":0,"TOWNNAME":"新化區","LI":"知義里","LIN":" ","STREET":" ","SECT":" ","MAREA":"新和庄","LANE":" ","ALLEY":" ","HOUSE_NO":"１４５號之１８","E_COORD97":182006.19,"N_COORD97":2546577.2599999998,"ADDRESS":"新和庄１４５號之１８","OBJECTID":322746},"geometry":{"x":182006.19000000227,"y":2546577.2599999998}},{"attributes":{"ID":322756,"DIS_CODE":0,"TOWNNAME":"安南區","LI":"海東里","LIN":"17鄰","STREET":"同安路","SECT":" ","MAREA":" ","LANE":" ","ALLEY":" ","HOUSE_NO":"３４５之３號","E_COORD97":167242.20000000001,"N_COORD97":2549277.4900000002,"ADDRESS":"同安路３４５之３號","OBJECTID":322747},"geometry":{"x":167242.20000000019,"y":2549277.4900000021}},{"attributes":{"ID":322757,"DIS_CODE":0,"TOWNNAME":"安南區","LI":"新順里","LIN":"20鄰","STREET":"慶安路","SECT":" ","MAREA":" ","LANE":"１７５巷","ALLEY":" ","HOUSE_NO":"１１８號","E_COORD97":169217.98000000001,"N_COORD97":2549334.0499999998,"ADDRESS":"慶安路１７５巷１１８號","OBJECTID":322748},"geometry":{"x":169217.98000000138,"y":2549334.0500000045}},{"attributes":{"ID":322758,"DIS_CODE":0,"TOWNNAME":"安南區","LI":"新順里","LIN":"20鄰","STREET":"慶安路","SECT":" ","MAREA":" ","LANE":"１７５巷","ALLEY":" ","HOUSE_NO":"１２０號","E_COORD97":169214.42000000001,"N_COORD97":2549334.1800000002,"ADDRESS":"慶安路１７５巷１２０號","OBJECTID":322749},"geometry":{"x":169214.42000000086,"y":2549334.1799999997}},{"attributes":{"ID":322759,"DIS_CODE":0,"TOWNNAME":"安南區","LI":"新順里","LIN":"20鄰","STREET":"慶安路","SECT":" ","MAREA":" ","LANE":"１７５巷","ALLEY":" ","HOUSE_NO":"１２２號","E_COORD97":169210.35999999999,"N_COORD97":2549334.1800000002,"ADDRESS":"慶安路１７５巷１２２號","OBJECTID":322750},"geometry":{"x":169210.36000000127,"y":2549334.1799999997}},{"attributes":{"ID":322760,"DIS_CODE":0,"TOWNNAME":"安南區","LI":"新順里","LIN":"20鄰","STREET":"慶安路","SECT":" ","MAREA":" ","LANE":"１７５巷","ALLEY":" ","HOUSE_NO":"１２６號","E_COORD97":169206.54999999999,"N_COORD97":2549334.3100000001,"ADDRESS":"慶安路１７５巷１２６號","OBJECTID":322751},"geometry":{"x":169206.55000000075,"y":2549334.3100000005}},{"attributes":{"ID":322761,"DIS_CODE":0,"TOWNNAME":"安南區","LI":"新順里","LIN":"20鄰","STREET":"慶安路","SECT":" ","MAREA":" ","LANE":"１７５巷","ALLEY":" ","HOUSE_NO":"１２８號","E_COORD97":169202.35999999999,"N_COORD97":2549334.4300000002,"ADDRESS":"慶安路１７５巷１２８號","OBJECTID":322752},"geometry":{"x":169202.36000000034,"y":2549334.4300000016}},{"attributes":{"ID":322762,"DIS_CODE":0,"TOWNNAME":"安南區","LI":"新順里","LIN":"20鄰","STREET":"慶安路","SECT":" ","MAREA":" ","LANE":"１７５巷","ALLEY":" ","HOUSE_NO":"１３０號","E_COORD97":169198.42000000001,"N_COORD97":2549334.5600000001,"ADDRESS":"慶安路１７５巷１３０號","OBJECTID":322753},"geometry":{"x":169198.41999999993,"y":2549334.5600000024}},{"attributes":{"ID":322763,"DIS_CODE":0,"TOWNNAME":"安南區","LI":"幸福里","LIN":"20鄰","STREET":"海佃路","SECT":"一段","MAREA":" ","LANE":"９５巷","ALLEY":" ","HOUSE_NO":"２２號","E_COORD97":167072.67000000001,"N_COORD97":2546937.6200000001,"ADDRESS":"海佃路一段９５巷２２號","OBJECTID":322754},"geometry":{"x":167072.66999999993,"y":2546937.6200000029}},{"attributes":{"ID":322764,"DIS_CODE":0,"TOWNNAME":"安南區","LI":"幸福里","LIN":"20鄰","STREET":"海佃路","SECT":"一段","MAREA":" ","LANE":"９５巷","ALLEY":" ","HOUSE_NO":"２４號","E_COORD97":167045.97,"N_COORD97":2546942.9900000002,"ADDRESS":"海佃路一段９５巷２４號","OBJECTID":322755},"geometry":{"x":167045.97000000067,"y":2546942.9900000002}},{"attributes":{"ID":322765,"DIS_CODE":0,"TOWNNAME":"安南區","LI":"幸福里","LIN":"20鄰","STREET":"海佃路","SECT":"一段","MAREA":" ","LANE":"９５巷","ALLEY":" ","HOUSE_NO":"２６號","E_COORD97":167055.82000000001,"N_COORD97":2546933.98,"ADDRESS":"海佃路一段９５巷２６號","OBJECTID":322756},"geometry":{"x":167055.82000000123,"y":2546933.9800000042}},{"attributes":{"ID":322766,"DIS_CODE":0,"TOWNNAME":"安南區","LI":"幸福里","LIN":"20鄰","STREET":"海佃路","SECT":"一段","MAREA":" ","LANE":"９５巷","ALLEY":" ","HOUSE_NO":"２８號","E_COORD97":167045.44,"N_COORD97":2546930.8199999998,"ADDRESS":"海佃路一段９５巷２８號","OBJECTID":322757},"geometry":{"x":167045.44000000041,"y":2546930.8200000003}},{"attributes":{"ID":322767,"DIS_CODE":0,"TOWNNAME":"安南區","LI":"幸福里","LIN":"20鄰","STREET":"海佃路","SECT":"一段","MAREA":" ","LANE":"９５巷","ALLEY":" ","HOUSE_NO":"３０號","E_COORD97":167037.20999999999,"N_COORD97":2546926.21,"ADDRESS":"海佃路一段９５巷３０號","OBJECTID":322758},"geometry":{"x":167037.21000000183,"y":2546926.2100000028}},{"attributes":{"ID":322768,"DIS_CODE":0,"TOWNNAME":"安南區","LI":"幸福里","LIN":"20鄰","STREET":"海佃路","SECT":"一段","MAREA":" ","LANE":"９５巷","ALLEY":" ","HOUSE_NO":"３２號","E_COORD97":167022.69,"N_COORD97":2546926.6200000001,"ADDRESS":"海佃路一段９５巷３２號","OBJECTID":322759},"geometry":{"x":167022.69000000134,"y":2546926.6200000048}},{"attributes":{"ID":322769,"DIS_CODE":0,"TOWNNAME":"安南區","LI":"幸福里","LIN":"20鄰","STREET":"海佃路","SECT":"一段","MAREA":" ","LANE":"９５巷","ALLEY":" ","HOUSE_NO":"３６號","E_COORD97":167019.44,"N_COORD97":2546940.4399999999,"ADDRESS":"海佃路一段９５巷３６號","OBJECTID":322760},"geometry":{"x":167019.44000000134,"y":2546940.4400000013}},{"attributes":{"ID":322770,"DIS_CODE":0,"TOWNNAME":"安南區","LI":"幸福里","LIN":"20鄰","STREET":"海佃路","SECT":"一段","MAREA":" ","LANE":"９５巷","ALLEY":" ","HOUSE_NO":"４６號之１","E_COORD97":166988.59,"N_COORD97":2546920.6099999999,"ADDRESS":"海佃路一段９５巷４６號之１","OBJECTID":322761},"geometry":{"x":166988.59000000171,"y":2546920.6099999994}},{"attributes":{"ID":322771,"DIS_CODE":0,"TOWNNAME":"安南區","LI":"幸福里","LIN":"20鄰","STREET":"海佃路","SECT":"一段","MAREA":" ","LANE":"９５巷","ALLEY":" ","HOUSE_NO":"４８號","E_COORD97":166968.51999999999,"N_COORD97":2546915.96,"ADDRESS":"海佃路一段９５巷４８號","OBJECTID":322762},"geometry":{"x":166968.52000000142,"y":2546915.9600000009}},{"attributes":{"ID":322772,"DIS_CODE":0,"TOWNNAME":"佳里區","LI":"安西里","LIN":"17鄰","STREET":"長安街","SECT":" ","MAREA":" ","LANE":" ","ALLEY":" ","HOUSE_NO":"１３７號","E_COORD97":165397.17999999999,"N_COORD97":2562621.6800000002,"ADDRESS":"長安街１３７號","OBJECTID":322763},"geometry":{"x":165397.1799999997,"y":2562621.6799999997}},{"attributes":{"ID":322773,"DIS_CODE":0,"TOWNNAME":"佳里區","LI":"安西里","LIN":"17鄰","STREET":"長安街","SECT":" ","MAREA":" ","LANE":" ","ALLEY":" ","HOUSE_NO":"１４３號","E_COORD97":165417.64999999999,"N_COORD97":2562639.8999999999,"ADDRESS":"長安街１４３號","OBJECTID":322764},"geometry":{"x":165417.6500000013,"y":2562639.9000000022}},{"attributes":{"ID":322774,"DIS_CODE":0,"TOWNNAME":"佳里區","LI":"安西里","LIN":"17鄰","STREET":"長安街","SECT":" ","MAREA":" ","LANE":" ","ALLEY":" ","HOUSE_NO":"１４５號","E_COORD97":165418,"N_COORD97":2562644.21,"ADDRESS":"長安街１４５號","OBJECTID":322765},"geometry":{"x":165418.00000000186,"y":2562644.2100000028}},{"attributes":{"ID":322775,"DIS_CODE":0,"TOWNNAME":"佳里區","LI":"安西里","LIN":"17鄰","STREET":"長安街","SECT":" ","MAREA":" ","LANE":" ","ALLEY":" ","HOUSE_NO":"１５１號","E_COORD97":165419,"N_COORD97":2562657.4399999999,"ADDRESS":"長安街１５１號","OBJECTID":322766},"geometry":{"x":165419,"y":2562657.4399999976}},{"attributes":{"ID":322776,"DIS_CODE":0,"TOWNNAME":"佳里區","LI":"安西里","LIN":"17鄰","STREET":"長安街","SECT":" ","MAREA":" ","LANE":" ","ALLEY":" ","HOUSE_NO":"１５３號","E_COORD97":165419.35999999999,"N_COORD97":2562661.79,"ADDRESS":"長安街１５３號","OBJECTID":322767},"geometry":{"x":165419.3600000022,"y":2562661.7900000028}},{"attributes":{"ID":322777,"DIS_CODE":0,"TOWNNAME":"安南區","LI":"海東里","LIN":"24鄰","STREET":"同安路","SECT":" ","MAREA":" ","LANE":"１９５巷","ALLEY":" ","HOUSE_NO":"１３８號","E_COORD97":166917.89999999999,"N_COORD97":2549316.2999999998,"ADDRESS":"同安路１９５巷１３８號","OBJECTID":322768},"geometry":{"x":166917.9000000013,"y":2549316.3000000026}},{"attributes":{"ID":322778,"DIS_CODE":0,"TOWNNAME":"安南區","LI":"幸福里","LIN":"20鄰","STREET":"海佃路","SECT":"一段","MAREA":" ","LANE":"９５巷","ALLEY":" ","HOUSE_NO":"５０號","E_COORD97":166956.41,"N_COORD97":2546904.3900000001,"ADDRESS":"海佃路一段９５巷５０號","OBJECTID":322769},"geometry":{"x":166956.41000000108,"y":2546904.3900000025}},{"attributes":{"ID":322779,"DIS_CODE":0,"TOWNNAME":"安南區","LI":"幸福里","LIN":"20鄰","STREET":"海佃路","SECT":"一段","MAREA":" ","LANE":"９５巷","ALLEY":" ","HOUSE_NO":"５４號","E_COORD97":166933.14999999999,"N_COORD97":2546892.3900000001,"ADDRESS":"海佃路一段９５巷５４號","OBJECTID":322770},"geometry":{"x":166933.1500000013,"y":2546892.3900000006}},{"attributes":{"ID":322780,"DIS_CODE":0,"TOWNNAME":"安南區","LI":"海東里","LIN":"20鄰","STREET":"海佃路","SECT":"二段","MAREA":" ","LANE":"１９３巷","ALLEY":" ","HOUSE_NO":"４號","E_COORD97":166868.17000000001,"N_COORD97":2548381.9700000002,"ADDRESS":"海佃路二段１９３巷４號","OBJECTID":322771},"geometry":{"x":166868.17000000086,"y":2548381.9700000044}},{"attributes":{"ID":322781,"DIS_CODE":0,"TOWNNAME":"安南區","LI":"海東里","LIN":"20鄰","STREET":"海佃路","SECT":"二段","MAREA":" ","LANE":"２２５巷","ALLEY":" ","HOUSE_NO":"３２號","E_COORD97":166811.28,"N_COORD97":2548470.73,"ADDRESS":"海佃路二段２２５巷３２號","OBJECTID":322772},"geometry":{"x":166811.28000000026,"y":2548470.7300000004}},{"attributes":{"ID":322782,"DIS_CODE":0,"TOWNNAME":"安南區","LI":"\u25A0南里","LIN":"20鄰","STREET":"環福街","SECT":" ","MAREA":" ","LANE":"１５２巷","ALLEY":" ","HOUSE_NO":"２７號","E_COORD97":170443.72,"N_COORD97":2552579.2000000002,"ADDRESS":"環福街１５２巷２７號","OBJECTID":322773},"geometry":{"x":170443.71999999974,"y":2552579.1999999974}},{"attributes":{"ID":322783,"DIS_CODE":0,"TOWNNAME":"安南區","LI":"\u25A0南里","LIN":"20鄰","STREET":"環福街","SECT":" ","MAREA":" ","LANE":"１５２巷","ALLEY":" ","HOUSE_NO":"３１號","E_COORD97":170456.78,"N_COORD97":2552579.2000000002,"ADDRESS":"環福街１５２巷３１號","OBJECTID":322774},"geometry":{"x":170456.78000000119,"y":2552579.1999999974}},{"attributes":{"ID":322784,"DIS_CODE":0,"TOWNNAME":"安南區","LI":"\u25A0南里","LIN":"20鄰","STREET":"環福街","SECT":" ","MAREA":" ","LANE":"１５２巷","ALLEY":" ","HOUSE_NO":"３７號","E_COORD97":170474.14999999999,"N_COORD97":2552579.6200000001,"ADDRESS":"環福街１５２巷３７號","OBJECTID":322775},"geometry":{"x":170474.15000000224,"y":2552579.6200000029}},{"attributes":{"ID":322785,"DIS_CODE":0,"TOWNNAME":"安南區","LI":"\u25A0南里","LIN":"20鄰","STREET":"環福街","SECT":" ","MAREA":" ","LANE":"１５２巷","ALLEY":" ","HOUSE_NO":"３８號","E_COORD97":170477.45000000001,"N_COORD97":2552544.79,"ADDRESS":"環福街１５２巷３８號","OBJECTID":322776},"geometry":{"x":170477.45000000112,"y":2552544.7900000028}},{"attributes":{"ID":322786,"DIS_CODE":0,"TOWNNAME":"安南區","LI":"\u25A0南里","LIN":"20鄰","STREET":"環福街","SECT":" ","MAREA":" ","LANE":"１５２巷","ALLEY":" ","HOUSE_NO":"４７號","E_COORD97":170494.39000000001,"N_COORD97":2552576.7599999998,"ADDRESS":"環福街１５２巷４７號","OBJECTID":322777},"geometry":{"x":170494.3900000006,"y":2552576.7600000016}},{"attributes":{"ID":322787,"DIS_CODE":0,"TOWNNAME":"永康區","LI":"埔園里","LIN":"20鄰","STREET":"四維街","SECT":" ","MAREA":" ","LANE":"１０２巷","ALLEY":" ","HOUSE_NO":"３６號","E_COORD97":173460.62,"N_COORD97":2548233.8799999999,"ADDRESS":"四維街１０２巷３６號","OBJECTID":322778},"geometry":{"x":173460.62000000011,"y":2548233.879999999}},{"attributes":{"ID":322788,"DIS_CODE":0,"TOWNNAME":"鹽水區","LI":"橋南里","LIN":"24鄰","STREET":"南門路","SECT":" ","MAREA":" ","LANE":"８０巷","ALLEY":" ","HOUSE_NO":"１５號","E_COORD97":175138.94,"N_COORD97":2579223.54,"ADDRESS":"南門路８０巷１５號","OBJECTID":322779},"geometry":{"x":175138.94000000227,"y":2579223.540000001}},{"attributes":{"ID":322789,"DIS_CODE":0,"TOWNNAME":"東區","LI":"復興里","LIN":"20鄰","STREET":"東成街","SECT":" ","MAREA":" ","LANE":"２０１巷","ALLEY":" ","HOUSE_NO":"５０號","E_COORD97":171848.81,"N_COORD97":2542434.48,"ADDRESS":"東成街２０１巷５０號","OBJECTID":322780},"geometry":{"x":171848.81000000052,"y":2542434.4800000004}},{"attributes":{"ID":322790,"DIS_CODE":0,"TOWNNAME":"東區","LI":"復興里","LIN":"20鄰","STREET":"東成街","SECT":" ","MAREA":" ","LANE":"２１９巷","ALLEY":" ","HOUSE_NO":"５５號","E_COORD97":171866.82000000001,"N_COORD97":2542435.79,"ADDRESS":"東成街２１９巷５５號","OBJECTID":322781},"geometry":{"x":171866.82000000123,"y":2542435.790000001}},{"attributes":{"ID":322791,"DIS_CODE":0,"TOWNNAME":"新營區","LI":"土庫里","LIN":"17鄰","STREET":" ","SECT":" ","MAREA":"卯舍","LANE":" ","ALLEY":" ","HOUSE_NO":"６８２號","E_COORD97":181066.86425899999,"N_COORD97":2580627.08078,"ADDRESS":"卯舍６８２號","OBJECTID":322782},"geometry":{"x":181066.86425899994,"y":2580627.0807800014}},{"attributes":{"ID":322792,"DIS_CODE":0,"TOWNNAME":"東區","LI":"崇德里","LIN":"20鄰","STREET":"崇明十四街","SECT":" ","MAREA":" ","LANE":"６０巷","ALLEY":" ","HOUSE_NO":"３２號","E_COORD97":170719.57000000001,"N_COORD97":2541604.6800000002,"ADDRESS":"崇明十四街６０巷３２號","OBJECTID":322783},"geometry":{"x":170719.5700000003,"y":2541604.6799999997}},{"attributes":{"ID":322793,"DIS_CODE":0,"TOWNNAME":"歸仁區","LI":"媽廟里","LIN":"1鄰","STREET":"媽廟一街","SECT":" ","MAREA":" ","LANE":" ","ALLEY":" ","HOUSE_NO":"６６號","E_COORD97":177309.21159799999,"N_COORD97":2543518.1474799998,"ADDRESS":"媽廟一街６６號","OBJECTID":322784},"geometry":{"x":177309.21159800049,"y":2543518.1474780012}},{"attributes":{"ID":322794,"DIS_CODE":0,"TOWNNAME":"東區","LI":"崇德里","LIN":"20鄰","STREET":"崇明十四街","SECT":" ","MAREA":" ","LANE":"６０巷","ALLEY":" ","HOUSE_NO":"３６號","E_COORD97":170724.35000000001,"N_COORD97":2541605.1099999999,"ADDRESS":"崇明十四街６０巷３６號","OBJECTID":322785},"geometry":{"x":170724.34999999963,"y":2541605.1099999994}},{"attributes":{"ID":322795,"DIS_CODE":0,"TOWNNAME":"東區","LI":"崇德里","LIN":"20鄰","STREET":"崇明十四街","SECT":" ","MAREA":" ","LANE":"６０巷","ALLEY":" ","HOUSE_NO":"３８號","E_COORD97":170730.20999999999,"N_COORD97":2541604.6800000002,"ADDRESS":"崇明十四街６０巷３８號","OBJECTID":322786},"geometry":{"x":170730.20999999996,"y":2541604.6799999997}},{"attributes":{"ID":322796,"DIS_CODE":0,"TOWNNAME":"東區","LI":"崇德里","LIN":"20鄰","STREET":"崇明十四街","SECT":" ","MAREA":" ","LANE":"６０巷","ALLEY":" ","HOUSE_NO":"４０號","E_COORD97":170735.64999999999,"N_COORD97":2541604.46,"ADDRESS":"崇明十四街６０巷４０號","OBJECTID":322787},"geometry":{"x":170735.6500000013,"y":2541604.459999999}},{"attributes":{"ID":322797,"DIS_CODE":0,"TOWNNAME":"佳里區","LI":"安西里","LIN":"17鄰","STREET":"長安街","SECT":" ","MAREA":" ","LANE":" ","ALLEY":" ","HOUSE_NO":"１５５號","E_COORD97":165419.76000000001,"N_COORD97":2562666.2400000002,"ADDRESS":"長安街１５５號","OBJECTID":322788},"geometry":{"x":165419.76000000071,"y":2562666.2400000002}},{"attributes":{"ID":322798,"DIS_CODE":0,"TOWNNAME":"安南區","LI":"海東里","LIN":"24鄰","STREET":"同安路","SECT":" ","MAREA":" ","LANE":"１９５巷","ALLEY":" ","HOUSE_NO":"１５２號","E_COORD97":166898.47,"N_COORD97":2549331.6200000001,"ADDRESS":"同安路１９５巷１５２號","OBJECTID":322789},"geometry":{"x":166898.47000000067,"y":2549331.6200000029}},{"attributes":{"ID":322799,"DIS_CODE":0,"TOWNNAME":"安南區","LI":"海東里","LIN":"24鄰","STREET":"同安路","SECT":" ","MAREA":" ","LANE":"２２５巷","ALLEY":" ","HOUSE_NO":"１９８號","E_COORD97":166963.45999999999,"N_COORD97":2549353.4500000002,"ADDRESS":"同安路２２５巷１９８號","OBJECTID":322790},"geometry":{"x":166963.45999999996,"y":2549353.450000003}},{"attributes":{"ID":322800,"DIS_CODE":0,"TOWNNAME":"安南區","LI":" ","LIN":" ","STREET":"本原街","SECT":"二段","MAREA":" ","LANE":"１１６巷","ALLEY":" ","HOUSE_NO":"３１之１號","E_COORD97":166748.19,"N_COORD97":2550866.3900000001,"ADDRESS":"本原街二段１１６巷３１之１號","OBJECTID":322791},"geometry":{"x":166748.19000000134,"y":2550866.3900000006}},{"attributes":{"ID":322801,"DIS_CODE":0,"TOWNNAME":"安南區","LI":"長安里","LIN":"13鄰","STREET":"長和路","SECT":"四段","MAREA":" ","LANE":"３５６巷","ALLEY":" ","HOUSE_NO":"８８號","E_COORD97":168170.51999999999,"N_COORD97":2552099.4700000002,"ADDRESS":"長和路四段３５６巷８８號","OBJECTID":322792},"geometry":{"x":168170.52000000048,"y":2552099.4700000007}},{"attributes":{"ID":322802,"DIS_CODE":0,"TOWNNAME":"安南區","LI":"長安里","LIN":"13鄰","STREET":"長和路","SECT":"四段","MAREA":" ","LANE":"３５６巷","ALLEY":" ","HOUSE_NO":"１１１號","E_COORD97":168096.22,"N_COORD97":2552134.3700000001,"ADDRESS":"長和路四段３５６巷１１１號","OBJECTID":322793},"geometry":{"x":168096.2200000016,"y":2552134.370000001}},{"attributes":{"ID":322803,"DIS_CODE":0,"TOWNNAME":"安南區","LI":"長安里","LIN":"13鄰","STREET":"長和路","SECT":"四段","MAREA":" ","LANE":"３５６巷","ALLEY":" ","HOUSE_NO":"８７號","E_COORD97":168135.59,"N_COORD97":2552078.8700000001,"ADDRESS":"長和路四段３５６巷８７號","OBJECTID":322794},"geometry":{"x":168135.58999999985,"y":2552078.8700000029}},{"attributes":{"ID":322804,"DIS_CODE":0,"TOWNNAME":"安南區","LI":"長安里","LIN":"13鄰","STREET":"長和路","SECT":"四段","MAREA":" ","LANE":"３５６巷","ALLEY":" ","HOUSE_NO":"９５號","E_COORD97":168126.82999999999,"N_COORD97":2552090.7999999998,"ADDRESS":"長和路四段３５６巷９５號","OBJECTID":322795},"geometry":{"x":168126.83000000101,"y":2552090.8000000007}},{"attributes":{"ID":322805,"DIS_CODE":0,"TOWNNAME":"安南區","LI":"溪心里","LIN":"10鄰","STREET":"功安一街","SECT":" ","MAREA":" ","LANE":"６巷","ALLEY":" ","HOUSE_NO":"１號","E_COORD97":166128.26000000001,"N_COORD97":2549841.6499999999,"ADDRESS":"功安一街６巷１號","OBJECTID":322796},"geometry":{"x":166128.26000000071,"y":2549841.6500000041}},{"attributes":{"ID":322806,"DIS_CODE":0,"TOWNNAME":"安南區","LI":"溪心里","LIN":"10鄰","STREET":"功安一街","SECT":" ","MAREA":" ","LANE":"６巷","ALLEY":" ","HOUSE_NO":"２號","E_COORD97":166132.85999999999,"N_COORD97":2549841.4900000002,"ADDRESS":"功安一街６巷２號","OBJECTID":322797},"geometry":{"x":166132.8600000022,"y":2549841.4900000002}},{"attributes":{"ID":322807,"DIS_CODE":0,"TOWNNAME":"南區","LI":"白雪里","LIN":" ","STREET":"鹽埕路","SECT":" ","MAREA":" ","LANE":"１０３巷","ALLEY":" ","HOUSE_NO":"４０號","E_COORD97":166732.12,"N_COORD97":2540740.54,"ADDRESS":"鹽埕路１０３巷４０號","OBJECTID":322798},"geometry":{"x":166732.12000000011,"y":2540740.5399999991}},{"attributes":{"ID":322808,"DIS_CODE":0,"TOWNNAME":"南區","LI":"白雪里","LIN":" ","STREET":"鹽埕路","SECT":" ","MAREA":" ","LANE":"１０３巷","ALLEY":" ","HOUSE_NO":"４２號","E_COORD97":166732.73000000001,"N_COORD97":2540737.8900000001,"ADDRESS":"鹽埕路１０３巷４２號","OBJECTID":322799},"geometry":{"x":166732.73000000138,"y":2540737.8900000025}},{"attributes":{"ID":322809,"DIS_CODE":0,"TOWNNAME":"南區","LI":"白雪里","LIN":" ","STREET":"鹽埕路","SECT":" ","MAREA":" ","LANE":"１０３巷","ALLEY":" ","HOUSE_NO":"４２號之１","E_COORD97":166733.17999999999,"N_COORD97":2540735.1899999999,"ADDRESS":"鹽埕路１０３巷４２號之１","OBJECTID":322800},"geometry":{"x":166733.1799999997,"y":2540735.1900000013}}]}