{"displayFieldName":"TOWNNAME","fieldAliases":{"ID":"ID","DIS_CODE":"DIS_CODE","TOWNNAME":"TOWNNAME","LI":"LI","LIN":"LIN","STREET":"STREET","SECT":"SECT","MAREA":"MAREA","LANE":"LANE","ALLEY":"ALLEY","HOUSE_NO":"HOUSE_NO","E_COORD97":"E_COORD97","N_COORD97":"N_COORD97","ADDRESS":"ADDRESS","OBJECTID":"OBJECTID"},"geometryType":"esriGeometryPoint","spatialReference":{"wkid":102443,"latestWkid":3826},"fields":[{"name":"ID","type":"esriFieldTypeDouble","alias":"ID"},{"name":"DIS_CODE","type":"esriFieldTypeInteger","alias":"DIS_CODE"},{"name":"TOWNNAME","type":"esriFieldTypeString","alias":"TOWNNAME","length":8},{"name":"LI","type":"esriFieldTypeString","alias":"LI","length":8},{"name":"LIN","type":"esriFieldTypeString","alias":"LIN","length":12},{"name":"STREET","type":"esriFieldTypeString","alias":"STREET","length":20},{"name":"SECT","type":"esriFieldTypeString","alias":"SECT","length":8},{"name":"MAREA","type":"esriFieldTypeString","alias":"MAREA","length":12},{"name":"LANE","type":"esriFieldTypeString","alias":"LANE","length":10},{"name":"ALLEY","type":"esriFieldTypeString","alias":"ALLEY","length":10},{"name":"HOUSE_NO","type":"esriFieldTypeString","alias":"HOUSE_NO","length":20},{"name":"E_COORD97","type":"esriFieldTypeDouble","alias":"E_COORD97"},{"name":"N_COORD97","type":"esriFieldTypeDouble","alias":"N_COORD97"},{"name":"ADDRESS","type":"esriFieldTypeString","alias":"ADDRESS","length":50},{"name":"OBJECTID","type":"esriFieldTypeOID","alias":"OBJECTID"}],"features":[{"attributes":{"ID":386225,"DIS_CODE":0,"TOWNNAME":"永康區","LI":"西灣里","LIN":"37鄰","STREET":"國光八街","SECT":" ","MAREA":" ","LANE":"１２９巷","ALLEY":" ","HOUSE_NO":"２２號","E_COORD97":174140.70000000001,"N_COORD97":2545691.54,"ADDRESS":"國光八街１２９巷２２號","OBJECTID":386201},"geometry":{"x":174140.70000000112,"y":2545691.540000001}},{"attributes":{"ID":386226,"DIS_CODE":0,"TOWNNAME":"永康區","LI":"西灣里","LIN":"37鄰","STREET":"國光八街","SECT":" ","MAREA":" ","LANE":"１２９巷","ALLEY":" ","HOUSE_NO":"３６號","E_COORD97":174143.10999999999,"N_COORD97":2545660.7799999998,"ADDRESS":"國光八街１２９巷３６號","OBJECTID":386202},"geometry":{"x":174143.11000000127,"y":2545660.7800000012}},{"attributes":{"ID":386227,"DIS_CODE":0,"TOWNNAME":"永康區","LI":"西灣里","LIN":"37鄰","STREET":"國光八街","SECT":" ","MAREA":" ","LANE":"１２９巷","ALLEY":" ","HOUSE_NO":"３８號","E_COORD97":174143.26000000001,"N_COORD97":2545649.2200000002,"ADDRESS":"國光八街１２９巷３８號","OBJECTID":386203},"geometry":{"x":174143.26000000071,"y":2545649.2200000007}},{"attributes":{"ID":386228,"DIS_CODE":0,"TOWNNAME":"永康區","LI":"西灣里","LIN":"37鄰","STREET":"國光八街","SECT":" ","MAREA":" ","LANE":"１２９巷","ALLEY":" ","HOUSE_NO":"２５號","E_COORD97":174166.41,"N_COORD97":2545608.96,"ADDRESS":"國光八街１２９巷２５號","OBJECTID":386204},"geometry":{"x":174166.41000000108,"y":2545608.9600000046}},{"attributes":{"ID":386229,"DIS_CODE":0,"TOWNNAME":"永康區","LI":"西灣里","LIN":"37鄰","STREET":"國光八街","SECT":" ","MAREA":" ","LANE":"１２９巷","ALLEY":" ","HOUSE_NO":"３６號之１","E_COORD97":174146.35999999999,"N_COORD97":2545655.6299999999,"ADDRESS":"國光八街１２９巷３６號之１","OBJECTID":386205},"geometry":{"x":174146.36000000127,"y":2545655.629999999}},{"attributes":{"ID":386230,"DIS_CODE":0,"TOWNNAME":"永康區","LI":"\u25A0行里","LIN":"13鄰","STREET":"中正南路","SECT":" ","MAREA":" ","LANE":" ","ALLEY":" ","HOUSE_NO":"７５８號","E_COORD97":171754.59,"N_COORD97":2548977.4900000002,"ADDRESS":"中正南路７５８號","OBJECTID":386206},"geometry":{"x":171754.59000000078,"y":2548977.4900000002}},{"attributes":{"ID":386231,"DIS_CODE":0,"TOWNNAME":"永康區","LI":"西灣里","LIN":"37鄰","STREET":"國光八街","SECT":" ","MAREA":" ","LANE":"１２９巷","ALLEY":" ","HOUSE_NO":"２４號","E_COORD97":174141,"N_COORD97":2545686.79,"ADDRESS":"國光八街１２９巷２４號","OBJECTID":386207},"geometry":{"x":174141,"y":2545686.790000001}},{"attributes":{"ID":386232,"DIS_CODE":0,"TOWNNAME":"永康區","LI":"南灣里","LIN":"37鄰","STREET":"南灣街","SECT":" ","MAREA":" ","LANE":"８４巷","ALLEY":" ","HOUSE_NO":"１５號","E_COORD97":174426.53,"N_COORD97":2544994.75,"ADDRESS":"南灣街８４巷１５號","OBJECTID":386208},"geometry":{"x":174426.53000000119,"y":2544994.75}},{"attributes":{"ID":386233,"DIS_CODE":0,"TOWNNAME":"永康區","LI":"正強里","LIN":"37鄰","STREET":"正強街","SECT":" ","MAREA":" ","LANE":"３３０巷","ALLEY":" ","HOUSE_NO":"２２號","E_COORD97":173305.57999999999,"N_COORD97":2548224.2599999998,"ADDRESS":"正強街３３０巷２２號","OBJECTID":386209},"geometry":{"x":173305.58000000101,"y":2548224.2600000016}},{"attributes":{"ID":386234,"DIS_CODE":0,"TOWNNAME":"永康區","LI":"正強里","LIN":"37鄰","STREET":"正強街","SECT":" ","MAREA":" ","LANE":"３３０巷","ALLEY":" ","HOUSE_NO":"２８號","E_COORD97":173316.04000000001,"N_COORD97":2548224.7599999998,"ADDRESS":"正強街３３０巷２８號","OBJECTID":386210},"geometry":{"x":173316.04000000097,"y":2548224.7599999998}},{"attributes":{"ID":386235,"DIS_CODE":0,"TOWNNAME":"永康區","LI":"正強里","LIN":"37鄰","STREET":"正強街","SECT":" ","MAREA":" ","LANE":"３３２巷","ALLEY":" ","HOUSE_NO":"１０號","E_COORD97":173268.72,"N_COORD97":2548235.7400000002,"ADDRESS":"正強街３３２巷１０號","OBJECTID":386211},"geometry":{"x":173268.72000000067,"y":2548235.7400000002}},{"attributes":{"ID":386236,"DIS_CODE":0,"TOWNNAME":"永康區","LI":"正強里","LIN":"37鄰","STREET":"正強街","SECT":" ","MAREA":" ","LANE":"３３２巷","ALLEY":" ","HOUSE_NO":"７號","E_COORD97":173265.70000000001,"N_COORD97":2548261.6299999999,"ADDRESS":"正強街３３２巷７號","OBJECTID":386212},"geometry":{"x":173265.70000000112,"y":2548261.6300000008}},{"attributes":{"ID":386237,"DIS_CODE":0,"TOWNNAME":"永康區","LI":"北灣里","LIN":"37鄰","STREET":"大同街","SECT":" ","MAREA":" ","LANE":"３１５巷","ALLEY":" ","HOUSE_NO":"１２號","E_COORD97":174703.88,"N_COORD97":2546020.1400000001,"ADDRESS":"大同街３１５巷１２號","OBJECTID":386213},"geometry":{"x":174703.88000000082,"y":2546020.1400000006}},{"attributes":{"ID":386238,"DIS_CODE":0,"TOWNNAME":"永康區","LI":"北灣里","LIN":"37鄰","STREET":"大同街","SECT":" ","MAREA":" ","LANE":"３２０巷","ALLEY":" ","HOUSE_NO":"４６號","E_COORD97":174846.14000000001,"N_COORD97":2546006.98,"ADDRESS":"大同街３２０巷４６號","OBJECTID":386214},"geometry":{"x":174846.13999999966,"y":2546006.9800000004}},{"attributes":{"ID":386239,"DIS_CODE":0,"TOWNNAME":"永康區","LI":"北灣里","LIN":"37鄰","STREET":"大同街","SECT":" ","MAREA":" ","LANE":"３２０巷","ALLEY":" ","HOUSE_NO":"２９號","E_COORD97":174835.20999999999,"N_COORD97":2546021.6600000001,"ADDRESS":"大同街３２０巷２９號","OBJECTID":386215},"geometry":{"x":174835.21000000089,"y":2546021.660000002}},{"attributes":{"ID":386240,"DIS_CODE":0,"TOWNNAME":"永康區","LI":"正強里","LIN":"37鄰","STREET":"正強街","SECT":" ","MAREA":" ","LANE":"３３２巷","ALLEY":" ","HOUSE_NO":"６號","E_COORD97":173258.62,"N_COORD97":2548233.9900000002,"ADDRESS":"正強街３３２巷６號","OBJECTID":386216},"geometry":{"x":173258.62000000011,"y":2548233.9900000002}},{"attributes":{"ID":386241,"DIS_CODE":0,"TOWNNAME":"永康區","LI":"正強里","LIN":"37鄰","STREET":"正強街","SECT":" ","MAREA":" ","LANE":"３３０巷","ALLEY":" ","HOUSE_NO":"１０號","E_COORD97":173268.64000000001,"N_COORD97":2548210.25,"ADDRESS":"正強街３３０巷１０號","OBJECTID":386217},"geometry":{"x":173268.63999999873,"y":2548210.2500000019}},{"attributes":{"ID":386242,"DIS_CODE":0,"TOWNNAME":"永康區","LI":"北灣里","LIN":"37鄰","STREET":"大同街","SECT":" ","MAREA":" ","LANE":"３２０巷","ALLEY":" ","HOUSE_NO":"４８號","E_COORD97":174851.09,"N_COORD97":2546007.98,"ADDRESS":"大同街３２０巷４８號","OBJECTID":386218},"geometry":{"x":174851.09000000078,"y":2546007.9799999986}},{"attributes":{"ID":386243,"DIS_CODE":0,"TOWNNAME":"中西區","LI":"赤嵌里","LIN":"18鄰","STREET":"民族路","SECT":"二段","MAREA":" ","LANE":"２０８巷","ALLEY":" ","HOUSE_NO":"２號","E_COORD97":168299.60000000001,"N_COORD97":2544155.8900000001,"ADDRESS":"民族路二段２０８巷２號","OBJECTID":386219},"geometry":{"x":168299.59999999963,"y":2544155.8900000025}},{"attributes":{"ID":386244,"DIS_CODE":0,"TOWNNAME":"中西區","LI":"赤嵌里","LIN":"18鄰","STREET":"民族路","SECT":"二段","MAREA":" ","LANE":"２０８巷","ALLEY":" ","HOUSE_NO":"３號","E_COORD97":168301.07999999999,"N_COORD97":2544158.8399999999,"ADDRESS":"民族路二段２０８巷３號","OBJECTID":386220},"geometry":{"x":168301.08000000194,"y":2544158.8400000017}},{"attributes":{"ID":386245,"DIS_CODE":0,"TOWNNAME":"中西區","LI":"赤嵌里","LIN":"18鄰","STREET":"民族路","SECT":"二段","MAREA":" ","LANE":"２０８巷","ALLEY":" ","HOUSE_NO":"５號","E_COORD97":168303.14000000001,"N_COORD97":2544162.3700000001,"ADDRESS":"民族路二段２０８巷５號","OBJECTID":386221},"geometry":{"x":168303.13999999966,"y":2544162.3700000029}},{"attributes":{"ID":386246,"DIS_CODE":0,"TOWNNAME":"中西區","LI":"赤嵌里","LIN":"18鄰","STREET":"民族路","SECT":"二段","MAREA":" ","LANE":"２０８巷","ALLEY":" ","HOUSE_NO":"６號","E_COORD97":168304.32000000001,"N_COORD97":2544165.6000000001,"ADDRESS":"民族路二段２０８巷６號","OBJECTID":386222},"geometry":{"x":168304.3200000003,"y":2544165.6000000034}},{"attributes":{"ID":386247,"DIS_CODE":0,"TOWNNAME":"中西區","LI":"赤嵌里","LIN":"18鄰","STREET":"民族路","SECT":"二段","MAREA":" ","LANE":"２０８巷","ALLEY":" ","HOUSE_NO":"７號","E_COORD97":168305.5,"N_COORD97":2544168.54,"ADDRESS":"民族路二段２０８巷７號","OBJECTID":386223},"geometry":{"x":168305.50000000093,"y":2544168.5399999991}},{"attributes":{"ID":386248,"DIS_CODE":0,"TOWNNAME":"永康區","LI":"北灣里","LIN":"37鄰","STREET":"大同街","SECT":" ","MAREA":" ","LANE":"３２０巷","ALLEY":" ","HOUSE_NO":"１３號","E_COORD97":174792.70999999999,"N_COORD97":2545984.2999999998,"ADDRESS":"大同街３２０巷１３號","OBJECTID":386224},"geometry":{"x":174792.71000000089,"y":2545984.3000000026}},{"attributes":{"ID":386249,"DIS_CODE":0,"TOWNNAME":"永康區","LI":"北灣里","LIN":"37鄰","STREET":"大同街","SECT":" ","MAREA":" ","LANE":"３２０巷","ALLEY":" ","HOUSE_NO":"６號","E_COORD97":174794.22,"N_COORD97":2545950.2799999998,"ADDRESS":"大同街３２０巷６號","OBJECTID":386225},"geometry":{"x":174794.22000000067,"y":2545950.2799999993}},{"attributes":{"ID":386250,"DIS_CODE":0,"TOWNNAME":"永康區","LI":"\u25A0行里","LIN":"37鄰","STREET":"仁愛街","SECT":" ","MAREA":" ","LANE":"８４巷","ALLEY":" ","HOUSE_NO":"１號四樓","E_COORD97":172070.41,"N_COORD97":2549418.6600000001,"ADDRESS":"仁愛街８４巷１號四樓","OBJECTID":386226},"geometry":{"x":172070.41000000015,"y":2549418.660000002}},{"attributes":{"ID":386251,"DIS_CODE":0,"TOWNNAME":"永康區","LI":"\u25A0行里","LIN":"37鄰","STREET":"仁愛街","SECT":" ","MAREA":" ","LANE":"８４巷","ALLEY":" ","HOUSE_NO":"１號三樓","E_COORD97":172070.41,"N_COORD97":2549418.6600000001,"ADDRESS":"仁愛街８４巷１號三樓","OBJECTID":386227},"geometry":{"x":172070.41000000015,"y":2549418.660000002}},{"attributes":{"ID":386252,"DIS_CODE":0,"TOWNNAME":"永康區","LI":"\u25A0行里","LIN":"37鄰","STREET":"仁愛街","SECT":" ","MAREA":" ","LANE":"８４巷","ALLEY":" ","HOUSE_NO":"３號七樓","E_COORD97":172077.29000000001,"N_COORD97":2549415.6600000001,"ADDRESS":"仁愛街８４巷３號七樓","OBJECTID":386228},"geometry":{"x":172077.29000000004,"y":2549415.660000002}},{"attributes":{"ID":386253,"DIS_CODE":0,"TOWNNAME":"永康區","LI":"\u25A0行里","LIN":"37鄰","STREET":"仁愛街","SECT":" ","MAREA":" ","LANE":"８４巷","ALLEY":" ","HOUSE_NO":"１號二樓","E_COORD97":172070.41,"N_COORD97":2549418.6600000001,"ADDRESS":"仁愛街８４巷１號二樓","OBJECTID":386229},"geometry":{"x":172070.41000000015,"y":2549418.660000002}},{"attributes":{"ID":386254,"DIS_CODE":0,"TOWNNAME":"永康區","LI":"\u25A0行里","LIN":"37鄰","STREET":"仁愛街","SECT":" ","MAREA":" ","LANE":"８４巷","ALLEY":" ","HOUSE_NO":"５號四樓","E_COORD97":172088,"N_COORD97":2549414.9100000001,"ADDRESS":"仁愛街８４巷５號四樓","OBJECTID":386230},"geometry":{"x":172088,"y":2549414.9100000001}},{"attributes":{"ID":386255,"DIS_CODE":0,"TOWNNAME":"永康區","LI":"\u25A0行里","LIN":"37鄰","STREET":"仁愛街","SECT":" ","MAREA":" ","LANE":"８４巷","ALLEY":" ","HOUSE_NO":"３號三樓","E_COORD97":172077.29000000001,"N_COORD97":2549415.6600000001,"ADDRESS":"仁愛街８４巷３號三樓","OBJECTID":386231},"geometry":{"x":172077.29000000004,"y":2549415.660000002}},{"attributes":{"ID":386256,"DIS_CODE":0,"TOWNNAME":"永康區","LI":"\u25A0行里","LIN":"37鄰","STREET":"仁愛街","SECT":" ","MAREA":" ","LANE":"８４巷","ALLEY":" ","HOUSE_NO":"４號五樓","E_COORD97":172068.14000000001,"N_COORD97":2549396.1499999999,"ADDRESS":"仁愛街８４巷４號五樓","OBJECTID":386232},"geometry":{"x":172068.13999999966,"y":2549396.1500000004}},{"attributes":{"ID":386257,"DIS_CODE":0,"TOWNNAME":"永康區","LI":"\u25A0行里","LIN":"37鄰","STREET":"仁愛街","SECT":" ","MAREA":" ","LANE":"８４巷","ALLEY":" ","HOUSE_NO":"４號二樓","E_COORD97":172068.14000000001,"N_COORD97":2549396.1499999999,"ADDRESS":"仁愛街８４巷４號二樓","OBJECTID":386233},"geometry":{"x":172068.13999999966,"y":2549396.1500000004}},{"attributes":{"ID":386258,"DIS_CODE":0,"TOWNNAME":"永康區","LI":"\u25A0行里","LIN":"37鄰","STREET":"仁愛街","SECT":" ","MAREA":" ","LANE":"８４巷","ALLEY":" ","HOUSE_NO":"２號三樓","E_COORD97":172060.85000000001,"N_COORD97":2549398.8999999999,"ADDRESS":"仁愛街８４巷２號三樓","OBJECTID":386234},"geometry":{"x":172060.85000000056,"y":2549398.8999999985}},{"attributes":{"ID":386259,"DIS_CODE":0,"TOWNNAME":"永康區","LI":"\u25A0行里","LIN":"37鄰","STREET":"仁愛街","SECT":" ","MAREA":" ","LANE":"８４巷","ALLEY":" ","HOUSE_NO":"１號七樓","E_COORD97":172070.41,"N_COORD97":2549418.6600000001,"ADDRESS":"仁愛街８４巷１號七樓","OBJECTID":386235},"geometry":{"x":172070.41000000015,"y":2549418.660000002}},{"attributes":{"ID":386260,"DIS_CODE":0,"TOWNNAME":"永康區","LI":"\u25A0行里","LIN":"37鄰","STREET":"仁愛街","SECT":" ","MAREA":" ","LANE":"８４巷","ALLEY":" ","HOUSE_NO":"２號五樓","E_COORD97":172060.85000000001,"N_COORD97":2549398.8999999999,"ADDRESS":"仁愛街８４巷２號五樓","OBJECTID":386236},"geometry":{"x":172060.85000000056,"y":2549398.8999999985}},{"attributes":{"ID":386261,"DIS_CODE":0,"TOWNNAME":"永康區","LI":"\u25A0行里","LIN":"37鄰","STREET":"仁愛街","SECT":" ","MAREA":" ","LANE":"８４巷","ALLEY":" ","HOUSE_NO":"７號七樓","E_COORD97":172083.25,"N_COORD97":2549407.9100000001,"ADDRESS":"仁愛街８４巷７號七樓","OBJECTID":386237},"geometry":{"x":172083.25,"y":2549407.9100000001}},{"attributes":{"ID":386262,"DIS_CODE":0,"TOWNNAME":"永康區","LI":"\u25A0行里","LIN":"37鄰","STREET":"仁愛街","SECT":" ","MAREA":" ","LANE":"８４巷","ALLEY":" ","HOUSE_NO":"８號四樓","E_COORD97":172079.45000000001,"N_COORD97":2549395.8999999999,"ADDRESS":"仁愛街８４巷８號四樓","OBJECTID":386238},"geometry":{"x":172079.45000000112,"y":2549395.9000000041}},{"attributes":{"ID":386263,"DIS_CODE":0,"TOWNNAME":"永康區","LI":"\u25A0行里","LIN":"37鄰","STREET":"仁愛街","SECT":" ","MAREA":" ","LANE":"８４巷","ALLEY":" ","HOUSE_NO":"２號七樓","E_COORD97":172060.85000000001,"N_COORD97":2549398.8999999999,"ADDRESS":"仁愛街８４巷２號七樓","OBJECTID":386239},"geometry":{"x":172060.85000000056,"y":2549398.8999999985}},{"attributes":{"ID":386264,"DIS_CODE":0,"TOWNNAME":"永康區","LI":"\u25A0行里","LIN":"37鄰","STREET":"仁愛街","SECT":" ","MAREA":" ","LANE":"８４巷","ALLEY":" ","HOUSE_NO":"５號七樓","E_COORD97":172088,"N_COORD97":2549414.9100000001,"ADDRESS":"仁愛街８４巷５號七樓","OBJECTID":386240},"geometry":{"x":172088,"y":2549414.9100000001}},{"attributes":{"ID":386265,"DIS_CODE":0,"TOWNNAME":"永康區","LI":"\u25A0行里","LIN":"37鄰","STREET":"仁愛街","SECT":" ","MAREA":" ","LANE":"８４巷","ALLEY":" ","HOUSE_NO":"５號六樓","E_COORD97":172088,"N_COORD97":2549414.9100000001,"ADDRESS":"仁愛街８４巷５號六樓","OBJECTID":386241},"geometry":{"x":172088,"y":2549414.9100000001}},{"attributes":{"ID":386266,"DIS_CODE":0,"TOWNNAME":"永康區","LI":"龍潭里","LIN":"37鄰","STREET":"中山北路","SECT":" ","MAREA":" ","LANE":"１６４巷","ALLEY":" ","HOUSE_NO":"１１６號之３三樓","E_COORD97":174539.72,"N_COORD97":2547313.6400000001,"ADDRESS":"中山北路１６４巷１１６號之３三樓","OBJECTID":386242},"geometry":{"x":174539.7200000016,"y":2547313.6400000025}},{"attributes":{"ID":386267,"DIS_CODE":0,"TOWNNAME":"東區","LI":"崇信里","LIN":"28鄰","STREET":"崇善一街","SECT":" ","MAREA":" ","LANE":"３巷","ALLEY":" ","HOUSE_NO":"７號","E_COORD97":170668.39000000001,"N_COORD97":2542145.6600000001,"ADDRESS":"崇善一街３巷７號","OBJECTID":386243},"geometry":{"x":170668.39000000153,"y":2542145.660000002}},{"attributes":{"ID":386268,"DIS_CODE":0,"TOWNNAME":"永康區","LI":"龍潭里","LIN":"37鄰","STREET":"中山北路","SECT":" ","MAREA":" ","LANE":"１６４巷","ALLEY":" ","HOUSE_NO":"１１８號之１三樓","E_COORD97":174550.88,"N_COORD97":2547327.5299999998,"ADDRESS":"中山北路１６４巷１１８號之１三樓","OBJECTID":386244},"geometry":{"x":174550.88000000082,"y":2547327.5299999993}},{"attributes":{"ID":386269,"DIS_CODE":0,"TOWNNAME":"永康區","LI":"龍潭里","LIN":"37鄰","STREET":"中山北路","SECT":" ","MAREA":" ","LANE":"１６４巷","ALLEY":" ","HOUSE_NO":"１１８號二樓","E_COORD97":174547.42000000001,"N_COORD97":2547314.3599999999,"ADDRESS":"中山北路１６４巷１１８號二樓","OBJECTID":386245},"geometry":{"x":174547.42000000086,"y":2547314.3600000013}},{"attributes":{"ID":386270,"DIS_CODE":0,"TOWNNAME":"永康區","LI":"龍潭里","LIN":"37鄰","STREET":"中山北路","SECT":" ","MAREA":" ","LANE":"１６４巷","ALLEY":" ","HOUSE_NO":"１１６號之３二樓","E_COORD97":174539.72,"N_COORD97":2547313.6400000001,"ADDRESS":"中山北路１６４巷１１６號之３二樓","OBJECTID":386246},"geometry":{"x":174539.7200000016,"y":2547313.6400000025}},{"attributes":{"ID":386271,"DIS_CODE":0,"TOWNNAME":"永康區","LI":"龍潭里","LIN":"37鄰","STREET":"中山北路","SECT":" ","MAREA":" ","LANE":"１６４巷","ALLEY":" ","HOUSE_NO":"１１６號五樓","E_COORD97":174536.51999999999,"N_COORD97":2547346.8700000001,"ADDRESS":"中山北路１６４巷１１６號五樓","OBJECTID":386247},"geometry":{"x":174536.52000000048,"y":2547346.8700000029}},{"attributes":{"ID":386272,"DIS_CODE":0,"TOWNNAME":"永康區","LI":"龍潭里","LIN":"37鄰","STREET":"中山北路","SECT":" ","MAREA":" ","LANE":"１６４巷","ALLEY":" ","HOUSE_NO":"１１８號之１二樓","E_COORD97":174550.88,"N_COORD97":2547327.5299999998,"ADDRESS":"中山北路１６４巷１１８號之１二樓","OBJECTID":386248},"geometry":{"x":174550.88000000082,"y":2547327.5299999993}},{"attributes":{"ID":386273,"DIS_CODE":0,"TOWNNAME":"永康區","LI":"龍潭里","LIN":"42鄰","STREET":"永平街","SECT":" ","MAREA":" ","LANE":"７５９巷","ALLEY":" ","HOUSE_NO":"４６號","E_COORD97":174571.42000000001,"N_COORD97":2547052.25,"ADDRESS":"永平街７５９巷４６號","OBJECTID":386249},"geometry":{"x":174571.42000000086,"y":2547052.25}},{"attributes":{"ID":386274,"DIS_CODE":0,"TOWNNAME":"永康區","LI":"龍潭里","LIN":"44鄰","STREET":"永平街","SECT":" ","MAREA":" ","LANE":"２９８巷","ALLEY":" ","HOUSE_NO":"８之５號","E_COORD97":174660.16,"N_COORD97":2547120.04,"ADDRESS":"永平街２９８巷８之５號","OBJECTID":386250},"geometry":{"x":174660.16000000015,"y":2547120.040000001}},{"attributes":{"ID":386275,"DIS_CODE":0,"TOWNNAME":"永康區","LI":"網寮里","LIN":"10鄰","STREET":"永勝街","SECT":" ","MAREA":" ","LANE":"１５１巷","ALLEY":" ","HOUSE_NO":"９號","E_COORD97":173315.31,"N_COORD97":2546419.0099999998,"ADDRESS":"永勝街１５１巷９號","OBJECTID":386251},"geometry":{"x":173315.31000000052,"y":2546419.0100000016}},{"attributes":{"ID":386276,"DIS_CODE":0,"TOWNNAME":"永康區","LI":"龍潭里","LIN":"37鄰","STREET":"中山北路","SECT":" ","MAREA":" ","LANE":"１６４巷","ALLEY":" ","HOUSE_NO":"１１８號之２五樓","E_COORD97":174548.13,"N_COORD97":2547335.2000000002,"ADDRESS":"中山北路１６４巷１１８號之２五樓","OBJECTID":386252},"geometry":{"x":174548.12999999989,"y":2547335.2000000011}},{"attributes":{"ID":386277,"DIS_CODE":0,"TOWNNAME":"永康區","LI":"龍潭里","LIN":"37鄰","STREET":"中山北路","SECT":" ","MAREA":" ","LANE":"１６４巷","ALLEY":" ","HOUSE_NO":"１１８號之３二樓","E_COORD97":174547.73000000001,"N_COORD97":2547349.8900000001,"ADDRESS":"中山北路１６４巷１１８號之３二樓","OBJECTID":386253},"geometry":{"x":174547.73000000138,"y":2547349.8900000006}},{"attributes":{"ID":386278,"DIS_CODE":0,"TOWNNAME":"永康區","LI":"龍潭里","LIN":"37鄰","STREET":"中山北路","SECT":" ","MAREA":" ","LANE":"１６４巷","ALLEY":" ","HOUSE_NO":"１１４號二樓","E_COORD97":174534.29999999999,"N_COORD97":2547394.6099999999,"ADDRESS":"中山北路１６４巷１１４號二樓","OBJECTID":386254},"geometry":{"x":174534.30000000075,"y":2547394.6099999994}},{"attributes":{"ID":386279,"DIS_CODE":0,"TOWNNAME":"永康區","LI":"龍潭里","LIN":"37鄰","STREET":"中山北路","SECT":" ","MAREA":" ","LANE":"１６４巷","ALLEY":" ","HOUSE_NO":"１１４號之１二樓","E_COORD97":174537,"N_COORD97":2547383.8999999999,"ADDRESS":"中山北路１６４巷１１４號之１二樓","OBJECTID":386255},"geometry":{"x":174537.00000000093,"y":2547383.9000000004}},{"attributes":{"ID":386280,"DIS_CODE":0,"TOWNNAME":"永康區","LI":"龍潭里","LIN":"37鄰","STREET":"中山北路","SECT":" ","MAREA":" ","LANE":"１６４巷","ALLEY":" ","HOUSE_NO":"１１４號之３四樓","E_COORD97":174537.16,"N_COORD97":2547361.6499999999,"ADDRESS":"中山北路１６４巷１１４號之３四樓","OBJECTID":386256},"geometry":{"x":174537.16000000201,"y":2547361.6500000004}},{"attributes":{"ID":386281,"DIS_CODE":0,"TOWNNAME":"永康區","LI":"龍潭里","LIN":"37鄰","STREET":"中山北路","SECT":" ","MAREA":" ","LANE":"１６４巷","ALLEY":" ","HOUSE_NO":"１１６號三樓","E_COORD97":174536.51999999999,"N_COORD97":2547346.8700000001,"ADDRESS":"中山北路１６４巷１１６號三樓","OBJECTID":386257},"geometry":{"x":174536.52000000048,"y":2547346.8700000029}},{"attributes":{"ID":386282,"DIS_CODE":0,"TOWNNAME":"永康區","LI":"龍潭里","LIN":"37鄰","STREET":"中山北路","SECT":" ","MAREA":" ","LANE":"１６４巷","ALLEY":" ","HOUSE_NO":"１１６號二樓","E_COORD97":174536.51999999999,"N_COORD97":2547346.8700000001,"ADDRESS":"中山北路１６４巷１１６號二樓","OBJECTID":386258},"geometry":{"x":174536.52000000048,"y":2547346.8700000029}},{"attributes":{"ID":386283,"DIS_CODE":0,"TOWNNAME":"永康區","LI":"龍潭里","LIN":"37鄰","STREET":"中山北路","SECT":" ","MAREA":" ","LANE":"１６４巷","ALLEY":" ","HOUSE_NO":"１１４號之２二樓","E_COORD97":174537.45999999999,"N_COORD97":2547373.1499999999,"ADDRESS":"中山北路１６４巷１１４號之２二樓","OBJECTID":386259},"geometry":{"x":174537.45999999996,"y":2547373.1499999985}},{"attributes":{"ID":386284,"DIS_CODE":0,"TOWNNAME":"永康區","LI":"網寮里","LIN":"13鄰","STREET":"永勝街","SECT":" ","MAREA":" ","LANE":"１６９巷","ALLEY":" ","HOUSE_NO":"２號","E_COORD97":173310.56,"N_COORD97":2546526.3300000001,"ADDRESS":"永勝街１６９巷２號","OBJECTID":386260},"geometry":{"x":173310.56000000052,"y":2546526.3300000001}},{"attributes":{"ID":386285,"DIS_CODE":0,"TOWNNAME":"永康區","LI":"龍潭里","LIN":"44鄰","STREET":"永平街","SECT":" ","MAREA":" ","LANE":"２９８巷","ALLEY":" ","HOUSE_NO":"５之２號","E_COORD97":174680.09,"N_COORD97":2547171.0499999998,"ADDRESS":"永平街２９８巷５之２號","OBJECTID":386261},"geometry":{"x":174680.09000000078,"y":2547171.0500000045}},{"attributes":{"ID":386286,"DIS_CODE":0,"TOWNNAME":"永康區","LI":"龍潭里","LIN":"37鄰","STREET":"中山北路","SECT":" ","MAREA":" ","LANE":"１６４巷","ALLEY":" ","HOUSE_NO":"１１４號之３五樓","E_COORD97":174537.16,"N_COORD97":2547361.6499999999,"ADDRESS":"中山北路１６４巷１１４號之３五樓","OBJECTID":386262},"geometry":{"x":174537.16000000201,"y":2547361.6500000004}},{"attributes":{"ID":386287,"DIS_CODE":0,"TOWNNAME":"永康區","LI":"龍潭里","LIN":"37鄰","STREET":"中山北路","SECT":" ","MAREA":" ","LANE":"１６４巷","ALLEY":" ","HOUSE_NO":"１１４號五樓","E_COORD97":174534.29999999999,"N_COORD97":2547394.6099999999,"ADDRESS":"中山北路１６４巷１１４號五樓","OBJECTID":386263},"geometry":{"x":174534.30000000075,"y":2547394.6099999994}},{"attributes":{"ID":386288,"DIS_CODE":0,"TOWNNAME":"永康區","LI":"龍潭里","LIN":"37鄰","STREET":"中山北路","SECT":" ","MAREA":" ","LANE":"１６４巷","ALLEY":" ","HOUSE_NO":"１１４號之１三樓","E_COORD97":174537,"N_COORD97":2547383.8999999999,"ADDRESS":"中山北路１６４巷１１４號之１三樓","OBJECTID":386264},"geometry":{"x":174537.00000000093,"y":2547383.9000000004}},{"attributes":{"ID":386289,"DIS_CODE":0,"TOWNNAME":"永康區","LI":"龍潭里","LIN":"37鄰","STREET":"中山北路","SECT":" ","MAREA":" ","LANE":"１６４巷","ALLEY":" ","HOUSE_NO":"１２０號之３一樓","E_COORD97":174551.03,"N_COORD97":2547397.3399999999,"ADDRESS":"中山北路１６４巷１２０號之３一樓","OBJECTID":386265},"geometry":{"x":174551.03000000026,"y":2547397.3399999999}},{"attributes":{"ID":386290,"DIS_CODE":0,"TOWNNAME":"永康區","LI":"\u25A0行里","LIN":"37鄰","STREET":"仁愛街","SECT":" ","MAREA":" ","LANE":"８４巷","ALLEY":" ","HOUSE_NO":"６號七樓","E_COORD97":172077.14000000001,"N_COORD97":2549388.1499999999,"ADDRESS":"仁愛街８４巷６號七樓","OBJECTID":386266},"geometry":{"x":172077.14000000153,"y":2549388.1500000022}},{"attributes":{"ID":386291,"DIS_CODE":0,"TOWNNAME":"永康區","LI":"龍潭里","LIN":"37鄰","STREET":"中山北路","SECT":" ","MAREA":" ","LANE":"１６４巷","ALLEY":" ","HOUSE_NO":"１１６號之３五樓","E_COORD97":174539.72,"N_COORD97":2547313.6400000001,"ADDRESS":"中山北路１６４巷１１６號之３五樓","OBJECTID":386267},"geometry":{"x":174539.7200000016,"y":2547313.6400000025}},{"attributes":{"ID":386292,"DIS_CODE":0,"TOWNNAME":"永康區","LI":"\u25A0行里","LIN":"37鄰","STREET":"仁愛街","SECT":" ","MAREA":" ","LANE":"８４巷","ALLEY":" ","HOUSE_NO":"８號二樓","E_COORD97":172079.45000000001,"N_COORD97":2549395.8999999999,"ADDRESS":"仁愛街８４巷８號二樓","OBJECTID":386268},"geometry":{"x":172079.45000000112,"y":2549395.9000000041}},{"attributes":{"ID":386293,"DIS_CODE":0,"TOWNNAME":"永康區","LI":"\u25A0行里","LIN":"37鄰","STREET":"仁愛街","SECT":" ","MAREA":" ","LANE":"８４巷","ALLEY":" ","HOUSE_NO":"７號四樓","E_COORD97":172083.25,"N_COORD97":2549407.9100000001,"ADDRESS":"仁愛街８４巷７號四樓","OBJECTID":386269},"geometry":{"x":172083.25,"y":2549407.9100000001}},{"attributes":{"ID":386294,"DIS_CODE":0,"TOWNNAME":"永康區","LI":"龍潭里","LIN":"37鄰","STREET":"中山北路","SECT":" ","MAREA":" ","LANE":"１６４巷","ALLEY":" ","HOUSE_NO":"１１８號之２二樓","E_COORD97":174548.13,"N_COORD97":2547335.2000000002,"ADDRESS":"中山北路１６４巷１１８號之２二樓","OBJECTID":386270},"geometry":{"x":174548.12999999989,"y":2547335.2000000011}},{"attributes":{"ID":386295,"DIS_CODE":0,"TOWNNAME":"永康區","LI":"龍潭里","LIN":"37鄰","STREET":"中山北路","SECT":" ","MAREA":" ","LANE":"１６４巷","ALLEY":" ","HOUSE_NO":"１１６號之１五樓","E_COORD97":174539.10999999999,"N_COORD97":2547335.1400000001,"ADDRESS":"中山北路１６４巷１１６號之１五樓","OBJECTID":386271},"geometry":{"x":174539.11000000034,"y":2547335.1400000006}},{"attributes":{"ID":386296,"DIS_CODE":0,"TOWNNAME":"永康區","LI":"龍潭里","LIN":"37鄰","STREET":"中山北路","SECT":" ","MAREA":" ","LANE":"１６４巷","ALLEY":" ","HOUSE_NO":"１１８號之３五樓","E_COORD97":174547.73000000001,"N_COORD97":2547349.8900000001,"ADDRESS":"中山北路１６４巷１１８號之３五樓","OBJECTID":386272},"geometry":{"x":174547.73000000138,"y":2547349.8900000006}},{"attributes":{"ID":386297,"DIS_CODE":0,"TOWNNAME":"永康區","LI":"龍潭里","LIN":"37鄰","STREET":"中山北路","SECT":" ","MAREA":" ","LANE":"１６４巷","ALLEY":" ","HOUSE_NO":"１１６號之１二樓","E_COORD97":174539.10999999999,"N_COORD97":2547335.1400000001,"ADDRESS":"中山北路１６４巷１１６號之１二樓","OBJECTID":386273},"geometry":{"x":174539.11000000034,"y":2547335.1400000006}},{"attributes":{"ID":386298,"DIS_CODE":0,"TOWNNAME":"永康區","LI":"龍潭里","LIN":"37鄰","STREET":"中山北路","SECT":" ","MAREA":" ","LANE":"１６４巷","ALLEY":" ","HOUSE_NO":"１１８號三樓","E_COORD97":174547.42000000001,"N_COORD97":2547314.3599999999,"ADDRESS":"中山北路１６４巷１１８號三樓","OBJECTID":386274},"geometry":{"x":174547.42000000086,"y":2547314.3600000013}},{"attributes":{"ID":386299,"DIS_CODE":0,"TOWNNAME":"永康區","LI":"\u25A0行里","LIN":"37鄰","STREET":"仁愛街","SECT":" ","MAREA":" ","LANE":"８４巷","ALLEY":" ","HOUSE_NO":"７號三樓","E_COORD97":172083.25,"N_COORD97":2549407.9100000001,"ADDRESS":"仁愛街８４巷７號三樓","OBJECTID":386275},"geometry":{"x":172083.25,"y":2549407.9100000001}},{"attributes":{"ID":386300,"DIS_CODE":0,"TOWNNAME":"永康區","LI":"龍潭里","LIN":"37鄰","STREET":"中山北路","SECT":" ","MAREA":" ","LANE":"１６４巷","ALLEY":" ","HOUSE_NO":"１１８號四樓","E_COORD97":174547.42000000001,"N_COORD97":2547314.3599999999,"ADDRESS":"中山北路１６４巷１１８號四樓","OBJECTID":386276},"geometry":{"x":174547.42000000086,"y":2547314.3600000013}},{"attributes":{"ID":386301,"DIS_CODE":0,"TOWNNAME":"永康區","LI":"\u25A0行里","LIN":"37鄰","STREET":"仁愛街","SECT":" ","MAREA":" ","LANE":"８４巷","ALLEY":" ","HOUSE_NO":"７號六樓","E_COORD97":172083.25,"N_COORD97":2549407.9100000001,"ADDRESS":"仁愛街８４巷７號六樓","OBJECTID":386277},"geometry":{"x":172083.25,"y":2549407.9100000001}},{"attributes":{"ID":386302,"DIS_CODE":0,"TOWNNAME":"永康區","LI":"\u25A0行里","LIN":"37鄰","STREET":"仁愛街","SECT":" ","MAREA":" ","LANE":"８４巷","ALLEY":" ","HOUSE_NO":"６號二樓","E_COORD97":172077.14000000001,"N_COORD97":2549388.1499999999,"ADDRESS":"仁愛街８４巷６號二樓","OBJECTID":386278},"geometry":{"x":172077.14000000153,"y":2549388.1500000022}},{"attributes":{"ID":386303,"DIS_CODE":0,"TOWNNAME":"永康區","LI":"\u25A0行里","LIN":"37鄰","STREET":"仁愛街","SECT":" ","MAREA":" ","LANE":"８４巷","ALLEY":" ","HOUSE_NO":"７號二樓","E_COORD97":172083.25,"N_COORD97":2549407.9100000001,"ADDRESS":"仁愛街８４巷７號二樓","OBJECTID":386279},"geometry":{"x":172083.25,"y":2549407.9100000001}},{"attributes":{"ID":386304,"DIS_CODE":0,"TOWNNAME":"永康區","LI":"龍潭里","LIN":"37鄰","STREET":"中山北路","SECT":" ","MAREA":" ","LANE":"１６４巷","ALLEY":" ","HOUSE_NO":"１１８號之２四樓","E_COORD97":174548.13,"N_COORD97":2547335.2000000002,"ADDRESS":"中山北路１６４巷１１８號之２四樓","OBJECTID":386280},"geometry":{"x":174548.12999999989,"y":2547335.2000000011}},{"attributes":{"ID":386305,"DIS_CODE":0,"TOWNNAME":"永康區","LI":"蔦松里","LIN":"4鄰","STREET":"蔦松一街","SECT":" ","MAREA":" ","LANE":"３５巷","ALLEY":" ","HOUSE_NO":"４號","E_COORD97":173949.01999999999,"N_COORD97":2549379.9900000002,"ADDRESS":"蔦松一街３５巷４號","OBJECTID":386281},"geometry":{"x":173949.01999999955,"y":2549379.9900000002}},{"attributes":{"ID":386306,"DIS_CODE":0,"TOWNNAME":"永康區","LI":"龍潭里","LIN":"37鄰","STREET":"中山北路","SECT":" ","MAREA":" ","LANE":"１６４巷","ALLEY":" ","HOUSE_NO":"１１６號之１三樓","E_COORD97":174539.10999999999,"N_COORD97":2547335.1400000001,"ADDRESS":"中山北路１６４巷１１６號之１三樓","OBJECTID":386282},"geometry":{"x":174539.11000000034,"y":2547335.1400000006}},{"attributes":{"ID":386307,"DIS_CODE":0,"TOWNNAME":"永康區","LI":"\u25A0行里","LIN":"37鄰","STREET":"仁愛街","SECT":" ","MAREA":" ","LANE":"８４巷","ALLEY":" ","HOUSE_NO":"８號三樓","E_COORD97":172079.45000000001,"N_COORD97":2549395.8999999999,"ADDRESS":"仁愛街８４巷８號三樓","OBJECTID":386283},"geometry":{"x":172079.45000000112,"y":2549395.9000000041}},{"attributes":{"ID":386308,"DIS_CODE":0,"TOWNNAME":"永康區","LI":"龍潭里","LIN":"37鄰","STREET":"中山北路","SECT":" ","MAREA":" ","LANE":"１６４巷","ALLEY":" ","HOUSE_NO":"１１８號之３四樓","E_COORD97":174547.73000000001,"N_COORD97":2547349.8900000001,"ADDRESS":"中山北路１６４巷１１８號之３四樓","OBJECTID":386284},"geometry":{"x":174547.73000000138,"y":2547349.8900000006}},{"attributes":{"ID":386309,"DIS_CODE":0,"TOWNNAME":"北區","LI":"大和里","LIN":"22鄰","STREET":"大港街","SECT":" ","MAREA":" ","LANE":"１２４巷","ALLEY":" ","HOUSE_NO":"３３號","E_COORD97":166971.35999999999,"N_COORD97":2546108.23,"ADDRESS":"大港街１２４巷３３號","OBJECTID":386285},"geometry":{"x":166971.36000000034,"y":2546108.2300000042}},{"attributes":{"ID":386310,"DIS_CODE":0,"TOWNNAME":"永康區","LI":"網寮里","LIN":"12鄰","STREET":"永勝街","SECT":" ","MAREA":" ","LANE":"１６９巷","ALLEY":" ","HOUSE_NO":"９號","E_COORD97":173296.56,"N_COORD97":2546514.5099999998,"ADDRESS":"永勝街１６９巷９號","OBJECTID":386286},"geometry":{"x":173296.56000000052,"y":2546514.5099999998}},{"attributes":{"ID":386311,"DIS_CODE":0,"TOWNNAME":"永康區","LI":"蔦松里","LIN":"9鄰","STREET":"正北三路","SECT":" ","MAREA":" ","LANE":"１３０巷","ALLEY":" ","HOUSE_NO":"９號","E_COORD97":174434.06,"N_COORD97":2550067.0699999998,"ADDRESS":"正北三路１３０巷９號","OBJECTID":386287},"geometry":{"x":174434.06000000052,"y":2550067.0700000022}},{"attributes":{"ID":386312,"DIS_CODE":0,"TOWNNAME":"永康區","LI":"龍潭里","LIN":"37鄰","STREET":"中山北路","SECT":" ","MAREA":" ","LANE":"１６４巷","ALLEY":" ","HOUSE_NO":"１１８號之１四樓","E_COORD97":174550.88,"N_COORD97":2547327.5299999998,"ADDRESS":"中山北路１６４巷１１８號之１四樓","OBJECTID":386288},"geometry":{"x":174550.88000000082,"y":2547327.5299999993}},{"attributes":{"ID":386313,"DIS_CODE":0,"TOWNNAME":"永康區","LI":"\u25A0行里","LIN":"37鄰","STREET":"仁愛街","SECT":" ","MAREA":" ","LANE":"８４巷","ALLEY":" ","HOUSE_NO":"８號六樓","E_COORD97":172079.45000000001,"N_COORD97":2549395.8999999999,"ADDRESS":"仁愛街８４巷８號六樓","OBJECTID":386289},"geometry":{"x":172079.45000000112,"y":2549395.9000000041}},{"attributes":{"ID":386314,"DIS_CODE":0,"TOWNNAME":"永康區","LI":"龍潭里","LIN":"37鄰","STREET":"中山北路","SECT":" ","MAREA":" ","LANE":"１６４巷","ALLEY":" ","HOUSE_NO":"１１８號之２一樓","E_COORD97":174548.13,"N_COORD97":2547335.2000000002,"ADDRESS":"中山北路１６４巷１１８號之２一樓","OBJECTID":386290},"geometry":{"x":174548.12999999989,"y":2547335.2000000011}},{"attributes":{"ID":386315,"DIS_CODE":0,"TOWNNAME":"永康區","LI":"龍潭里","LIN":"14鄰","STREET":"龍安街","SECT":" ","MAREA":" ","LANE":"８９巷","ALLEY":" ","HOUSE_NO":"３號","E_COORD97":174573.22,"N_COORD97":2548296.52,"ADDRESS":"龍安街８９巷３號","OBJECTID":386291},"geometry":{"x":174573.21999999974,"y":2548296.5200000014}},{"attributes":{"ID":386316,"DIS_CODE":0,"TOWNNAME":"永康區","LI":"\u25A0行里","LIN":"37鄰","STREET":"仁愛街","SECT":" ","MAREA":" ","LANE":"８４巷","ALLEY":" ","HOUSE_NO":"７號五樓","E_COORD97":172083.25,"N_COORD97":2549407.9100000001,"ADDRESS":"仁愛街８４巷７號五樓","OBJECTID":386292},"geometry":{"x":172083.25,"y":2549407.9100000001}},{"attributes":{"ID":386317,"DIS_CODE":0,"TOWNNAME":"永康區","LI":"龍潭里","LIN":"37鄰","STREET":"中山北路","SECT":" ","MAREA":" ","LANE":"１６４巷","ALLEY":" ","HOUSE_NO":"１１６號四樓","E_COORD97":174536.51999999999,"N_COORD97":2547346.8700000001,"ADDRESS":"中山北路１６４巷１１６號四樓","OBJECTID":386293},"geometry":{"x":174536.52000000048,"y":2547346.8700000029}},{"attributes":{"ID":386318,"DIS_CODE":0,"TOWNNAME":"永康區","LI":"龍潭里","LIN":"37鄰","STREET":"中山北路","SECT":" ","MAREA":" ","LANE":"１６４巷","ALLEY":" ","HOUSE_NO":"１１６號之２四樓","E_COORD97":174539.32000000001,"N_COORD97":2547325.1400000001,"ADDRESS":"中山北路１６４巷１１６號之２四樓","OBJECTID":386294},"geometry":{"x":174539.3200000003,"y":2547325.1400000006}},{"attributes":{"ID":386319,"DIS_CODE":0,"TOWNNAME":"永康區","LI":"五王里","LIN":"37鄰","STREET":"中華路","SECT":" ","MAREA":" ","LANE":"５７８巷","ALLEY":" ","HOUSE_NO":"１５號之６６","E_COORD97":171276.04999999999,"N_COORD97":2545965.79,"ADDRESS":"中華路５７８巷１５號之６６","OBJECTID":386295},"geometry":{"x":171276.05000000168,"y":2545965.7899999991}},{"attributes":{"ID":386320,"DIS_CODE":0,"TOWNNAME":"永康區","LI":"龍潭里","LIN":"37鄰","STREET":"中山北路","SECT":" ","MAREA":" ","LANE":"１６４巷","ALLEY":" ","HOUSE_NO":"１１６號之２二樓","E_COORD97":174539.32000000001,"N_COORD97":2547325.1400000001,"ADDRESS":"中山北路１６４巷１１６號之２二樓","OBJECTID":386296},"geometry":{"x":174539.3200000003,"y":2547325.1400000006}},{"attributes":{"ID":386321,"DIS_CODE":0,"TOWNNAME":"永康區","LI":"龍潭里","LIN":"37鄰","STREET":"中山北路","SECT":" ","MAREA":" ","LANE":"１６４巷","ALLEY":" ","HOUSE_NO":"１１６號之３四樓","E_COORD97":174539.72,"N_COORD97":2547313.6400000001,"ADDRESS":"中山北路１６４巷１１６號之３四樓","OBJECTID":386297},"geometry":{"x":174539.7200000016,"y":2547313.6400000025}},{"attributes":{"ID":386322,"DIS_CODE":0,"TOWNNAME":"永康區","LI":"\u25A0行里","LIN":"37鄰","STREET":"仁愛街","SECT":" ","MAREA":" ","LANE":"８４巷","ALLEY":" ","HOUSE_NO":"８號七樓","E_COORD97":172079.45000000001,"N_COORD97":2549395.8999999999,"ADDRESS":"仁愛街８４巷８號七樓","OBJECTID":386298},"geometry":{"x":172079.45000000112,"y":2549395.9000000041}},{"attributes":{"ID":386323,"DIS_CODE":0,"TOWNNAME":"永康區","LI":"復華里","LIN":"37鄰","STREET":"復華七街","SECT":" ","MAREA":" ","LANE":"３２巷","ALLEY":" ","HOUSE_NO":"２９號三樓之２","E_COORD97":172731.17000000001,"N_COORD97":2545951.54,"ADDRESS":"復華七街３２巷２９號三樓之２","OBJECTID":386299},"geometry":{"x":172731.16999999993,"y":2545951.5399999991}},{"attributes":{"ID":386324,"DIS_CODE":0,"TOWNNAME":"永康區","LI":"復華里","LIN":"37鄰","STREET":"復華七街","SECT":" ","MAREA":" ","LANE":"３２巷","ALLEY":" ","HOUSE_NO":"３３號五樓之１","E_COORD97":172738.17999999999,"N_COORD97":2545936.2999999998,"ADDRESS":"復華七街３２巷３３號五樓之１","OBJECTID":386300},"geometry":{"x":172738.18000000063,"y":2545936.3000000026}},{"attributes":{"ID":386325,"DIS_CODE":0,"TOWNNAME":"永康區","LI":"復華里","LIN":"37鄰","STREET":"復華七街","SECT":" ","MAREA":" ","LANE":"３２巷","ALLEY":" ","HOUSE_NO":"３７號八樓之２","E_COORD97":172751.23000000001,"N_COORD97":2545927.0499999998,"ADDRESS":"復華七街３２巷３７號八樓之２","OBJECTID":386301},"geometry":{"x":172751.23000000045,"y":2545927.0500000026}},{"attributes":{"ID":386326,"DIS_CODE":0,"TOWNNAME":"永康區","LI":"\u25A0行里","LIN":"37鄰","STREET":"仁愛街","SECT":" ","MAREA":" ","LANE":"８４巷","ALLEY":" ","HOUSE_NO":"５號五樓","E_COORD97":172088,"N_COORD97":2549414.9100000001,"ADDRESS":"仁愛街８４巷５號五樓","OBJECTID":386302},"geometry":{"x":172088,"y":2549414.9100000001}},{"attributes":{"ID":386327,"DIS_CODE":0,"TOWNNAME":"永康區","LI":"復華里","LIN":"37鄰","STREET":"復華七街","SECT":" ","MAREA":" ","LANE":"３２巷","ALLEY":" ","HOUSE_NO":"３５號六樓之２","E_COORD97":172747.70000000001,"N_COORD97":2545943.54,"ADDRESS":"復華七街３２巷３５號六樓之２","OBJECTID":386303},"geometry":{"x":172747.70000000019,"y":2545943.540000001}},{"attributes":{"ID":386328,"DIS_CODE":0,"TOWNNAME":"永康區","LI":"復華里","LIN":"37鄰","STREET":"復華七街","SECT":" ","MAREA":" ","LANE":"３２巷","ALLEY":" ","HOUSE_NO":"３５號十二樓之１","E_COORD97":172748.82000000001,"N_COORD97":2545943.54,"ADDRESS":"復華七街３２巷３５號十二樓之１","OBJECTID":386304},"geometry":{"x":172748.8200000003,"y":2545943.540000001}},{"attributes":{"ID":386329,"DIS_CODE":0,"TOWNNAME":"永康區","LI":"復華里","LIN":"37鄰","STREET":"復華七街","SECT":" ","MAREA":" ","LANE":"３２巷","ALLEY":" ","HOUSE_NO":"３５號八樓之２","E_COORD97":172747.70000000001,"N_COORD97":2545943.54,"ADDRESS":"復華七街３２巷３５號八樓之２","OBJECTID":386305},"geometry":{"x":172747.70000000019,"y":2545943.540000001}},{"attributes":{"ID":386330,"DIS_CODE":0,"TOWNNAME":"永康區","LI":"復華里","LIN":"37鄰","STREET":"復華七街","SECT":" ","MAREA":" ","LANE":"３２巷","ALLEY":" ","HOUSE_NO":"３３號三樓之１","E_COORD97":172738.17999999999,"N_COORD97":2545936.2999999998,"ADDRESS":"復華七街３２巷３３號三樓之１","OBJECTID":386306},"geometry":{"x":172738.18000000063,"y":2545936.3000000026}},{"attributes":{"ID":386331,"DIS_CODE":0,"TOWNNAME":"永康區","LI":"復華里","LIN":"37鄰","STREET":"復華七街","SECT":" ","MAREA":" ","LANE":"３２巷","ALLEY":" ","HOUSE_NO":"３３號二樓","E_COORD97":172736.04000000001,"N_COORD97":2545936.2799999998,"ADDRESS":"復華七街３２巷３３號二樓","OBJECTID":386307},"geometry":{"x":172736.04000000097,"y":2545936.2799999993}},{"attributes":{"ID":386332,"DIS_CODE":0,"TOWNNAME":"永康區","LI":"復華里","LIN":"37鄰","STREET":"復華七街","SECT":" ","MAREA":" ","LANE":"３２巷","ALLEY":" ","HOUSE_NO":"３７號三樓之１","E_COORD97":172751.10000000001,"N_COORD97":2545927.0499999998,"ADDRESS":"復華七街３２巷３７號三樓之１","OBJECTID":386308},"geometry":{"x":172751.10000000056,"y":2545927.0500000026}},{"attributes":{"ID":386333,"DIS_CODE":0,"TOWNNAME":"永康區","LI":"復華里","LIN":"37鄰","STREET":"復華七街","SECT":" ","MAREA":" ","LANE":"３２巷","ALLEY":" ","HOUSE_NO":"３７號四樓之２","E_COORD97":172751.23000000001,"N_COORD97":2545927.0499999998,"ADDRESS":"復華七街３２巷３７號四樓之２","OBJECTID":386309},"geometry":{"x":172751.23000000045,"y":2545927.0500000026}},{"attributes":{"ID":386334,"DIS_CODE":0,"TOWNNAME":"永康區","LI":"復華里","LIN":"37鄰","STREET":"復華七街","SECT":" ","MAREA":" ","LANE":"３２巷","ALLEY":" ","HOUSE_NO":"３５號九樓之１","E_COORD97":172747.57000000001,"N_COORD97":2545943.54,"ADDRESS":"復華七街３２巷３５號九樓之１","OBJECTID":386310},"geometry":{"x":172747.5700000003,"y":2545943.540000001}},{"attributes":{"ID":386335,"DIS_CODE":0,"TOWNNAME":"永康區","LI":"復華里","LIN":"37鄰","STREET":"復華七街","SECT":" ","MAREA":" ","LANE":"３２巷","ALLEY":" ","HOUSE_NO":"３５號三樓之２","E_COORD97":172747.70000000001,"N_COORD97":2545943.54,"ADDRESS":"復華七街３２巷３５號三樓之２","OBJECTID":386311},"geometry":{"x":172747.70000000019,"y":2545943.540000001}},{"attributes":{"ID":386336,"DIS_CODE":0,"TOWNNAME":"永康區","LI":"復華里","LIN":"37鄰","STREET":"復華七街","SECT":" ","MAREA":" ","LANE":"３２巷","ALLEY":" ","HOUSE_NO":"３７號十樓之２","E_COORD97":172751.23000000001,"N_COORD97":2545927.0499999998,"ADDRESS":"復華七街３２巷３７號十樓之２","OBJECTID":386312},"geometry":{"x":172751.23000000045,"y":2545927.0500000026}},{"attributes":{"ID":386337,"DIS_CODE":0,"TOWNNAME":"永康區","LI":"復華里","LIN":"37鄰","STREET":"復華七街","SECT":" ","MAREA":" ","LANE":"３２巷","ALLEY":" ","HOUSE_NO":"３５號十一樓之１","E_COORD97":172748.82000000001,"N_COORD97":2545943.54,"ADDRESS":"復華七街３２巷３５號十一樓之１","OBJECTID":386313},"geometry":{"x":172748.8200000003,"y":2545943.540000001}},{"attributes":{"ID":386338,"DIS_CODE":0,"TOWNNAME":"永康區","LI":"復華里","LIN":"37鄰","STREET":"復華七街","SECT":" ","MAREA":" ","LANE":"３２巷","ALLEY":" ","HOUSE_NO":"３７號九樓之２","E_COORD97":172751.23000000001,"N_COORD97":2545927.0499999998,"ADDRESS":"復華七街３２巷３７號九樓之２","OBJECTID":386314},"geometry":{"x":172751.23000000045,"y":2545927.0500000026}},{"attributes":{"ID":386339,"DIS_CODE":0,"TOWNNAME":"永康區","LI":"復華里","LIN":"37鄰","STREET":"復華七街","SECT":" ","MAREA":" ","LANE":"３２巷","ALLEY":" ","HOUSE_NO":"３５號五樓之２","E_COORD97":172747.70000000001,"N_COORD97":2545943.54,"ADDRESS":"復華七街３２巷３５號五樓之２","OBJECTID":386315},"geometry":{"x":172747.70000000019,"y":2545943.540000001}},{"attributes":{"ID":386340,"DIS_CODE":0,"TOWNNAME":"永康區","LI":"復華里","LIN":"37鄰","STREET":"復華七街","SECT":" ","MAREA":" ","LANE":"３２巷","ALLEY":" ","HOUSE_NO":"３７號四樓之１","E_COORD97":172751.10000000001,"N_COORD97":2545927.0499999998,"ADDRESS":"復華七街３２巷３７號四樓之１","OBJECTID":386316},"geometry":{"x":172751.10000000056,"y":2545927.0500000026}},{"attributes":{"ID":386341,"DIS_CODE":0,"TOWNNAME":"永康區","LI":"復華里","LIN":"37鄰","STREET":"復華七街","SECT":" ","MAREA":" ","LANE":"３２巷","ALLEY":" ","HOUSE_NO":"２９號五樓之２","E_COORD97":172731.17000000001,"N_COORD97":2545951.54,"ADDRESS":"復華七街３２巷２９號五樓之２","OBJECTID":386317},"geometry":{"x":172731.16999999993,"y":2545951.5399999991}},{"attributes":{"ID":386342,"DIS_CODE":0,"TOWNNAME":"永康區","LI":"復華里","LIN":"37鄰","STREET":"復華七街","SECT":" ","MAREA":" ","LANE":"３２巷","ALLEY":" ","HOUSE_NO":"３７號五樓之２","E_COORD97":172751.23000000001,"N_COORD97":2545927.0499999998,"ADDRESS":"復華七街３２巷３７號五樓之２","OBJECTID":386318},"geometry":{"x":172751.23000000045,"y":2545927.0500000026}},{"attributes":{"ID":386343,"DIS_CODE":0,"TOWNNAME":"永康區","LI":"復華里","LIN":"37鄰","STREET":"復華七街","SECT":" ","MAREA":" ","LANE":"３２巷","ALLEY":" ","HOUSE_NO":"３７號六樓之１","E_COORD97":172751.10000000001,"N_COORD97":2545927.0499999998,"ADDRESS":"復華七街３２巷３７號六樓之１","OBJECTID":386319},"geometry":{"x":172751.10000000056,"y":2545927.0500000026}},{"attributes":{"ID":386344,"DIS_CODE":0,"TOWNNAME":"永康區","LI":"龍潭里","LIN":"42鄰","STREET":"永平街","SECT":" ","MAREA":" ","LANE":"７５９巷","ALLEY":" ","HOUSE_NO":"５８號","E_COORD97":174545.57000000001,"N_COORD97":2547051.25,"ADDRESS":"永平街７５９巷５８號","OBJECTID":386320},"geometry":{"x":174545.5700000003,"y":2547051.2500000019}},{"attributes":{"ID":386345,"DIS_CODE":0,"TOWNNAME":"永康區","LI":"龍潭里","LIN":"37鄰","STREET":"中山北路","SECT":" ","MAREA":" ","LANE":"１６４巷","ALLEY":" ","HOUSE_NO":"１２０號之１三樓","E_COORD97":174551.10000000001,"N_COORD97":2547375.6000000001,"ADDRESS":"中山北路１６４巷１２０號之１三樓","OBJECTID":386321},"geometry":{"x":174551.10000000056,"y":2547375.5999999996}},{"attributes":{"ID":386346,"DIS_CODE":0,"TOWNNAME":"永康區","LI":"龍潭里","LIN":"37鄰","STREET":"中山北路","SECT":" ","MAREA":" ","LANE":"１６４巷","ALLEY":" ","HOUSE_NO":"１２０號之３三樓","E_COORD97":174551.03,"N_COORD97":2547397.3399999999,"ADDRESS":"中山北路１６４巷１２０號之３三樓","OBJECTID":386322},"geometry":{"x":174551.03000000026,"y":2547397.3399999999}},{"attributes":{"ID":386347,"DIS_CODE":0,"TOWNNAME":"永康區","LI":"龍潭里","LIN":"37鄰","STREET":"中山北路","SECT":" ","MAREA":" ","LANE":"１６４巷","ALLEY":" ","HOUSE_NO":"１２０號之１二樓","E_COORD97":174551.10000000001,"N_COORD97":2547375.6000000001,"ADDRESS":"中山北路１６４巷１２０號之１二樓","OBJECTID":386323},"geometry":{"x":174551.10000000056,"y":2547375.5999999996}},{"attributes":{"ID":386348,"DIS_CODE":0,"TOWNNAME":"永康區","LI":"龍潭里","LIN":"37鄰","STREET":"中山北路","SECT":" ","MAREA":" ","LANE":"１６４巷","ALLEY":" ","HOUSE_NO":"１２０號之２三樓","E_COORD97":174550.89000000001,"N_COORD97":2547385.1000000001,"ADDRESS":"中山北路１６４巷１２０號之２三樓","OBJECTID":386324},"geometry":{"x":174550.8900000006,"y":2547385.0999999996}},{"attributes":{"ID":386349,"DIS_CODE":0,"TOWNNAME":"永康區","LI":"龍潭里","LIN":"37鄰","STREET":"中山北路","SECT":" ","MAREA":" ","LANE":"１６４巷","ALLEY":" ","HOUSE_NO":"１２０號之３四樓","E_COORD97":174551.03,"N_COORD97":2547397.3399999999,"ADDRESS":"中山北路１６４巷１２０號之３四樓","OBJECTID":386325},"geometry":{"x":174551.03000000026,"y":2547397.3399999999}},{"attributes":{"ID":386350,"DIS_CODE":0,"TOWNNAME":"永康區","LI":"龍潭里","LIN":"37鄰","STREET":"中山北路","SECT":" ","MAREA":" ","LANE":"１６４巷","ALLEY":" ","HOUSE_NO":"１２０號三樓","E_COORD97":174549.29999999999,"N_COORD97":2547364.5699999998,"ADDRESS":"中山北路１６４巷１２０號三樓","OBJECTID":386326},"geometry":{"x":174549.29999999888,"y":2547364.5700000022}},{"attributes":{"ID":386351,"DIS_CODE":0,"TOWNNAME":"永康區","LI":"龍潭里","LIN":"37鄰","STREET":"中山北路","SECT":" ","MAREA":" ","LANE":"１６４巷","ALLEY":" ","HOUSE_NO":"１２０號五樓","E_COORD97":174549.29999999999,"N_COORD97":2547364.5699999998,"ADDRESS":"中山北路１６４巷１２０號五樓","OBJECTID":386327},"geometry":{"x":174549.29999999888,"y":2547364.5700000022}},{"attributes":{"ID":386352,"DIS_CODE":0,"TOWNNAME":"永康區","LI":"龍潭里","LIN":"37鄰","STREET":"中山北路","SECT":" ","MAREA":" ","LANE":"１６４巷","ALLEY":" ","HOUSE_NO":"１２０號之１四樓","E_COORD97":174551.10000000001,"N_COORD97":2547375.6000000001,"ADDRESS":"中山北路１６４巷１２０號之１四樓","OBJECTID":386328},"geometry":{"x":174551.10000000056,"y":2547375.5999999996}},{"attributes":{"ID":386353,"DIS_CODE":0,"TOWNNAME":"永康區","LI":"蔦松里","LIN":"5鄰","STREET":"蔦松一街","SECT":" ","MAREA":" ","LANE":"１１３巷","ALLEY":" ","HOUSE_NO":"３之１號","E_COORD97":173748.35000000001,"N_COORD97":2549481.04,"ADDRESS":"蔦松一街１１３巷３之１號","OBJECTID":386329},"geometry":{"x":173748.34999999963,"y":2549481.0399999991}},{"attributes":{"ID":386354,"DIS_CODE":0,"TOWNNAME":"永康區","LI":"網寮里","LIN":"25鄰","STREET":"永華路","SECT":" ","MAREA":" ","LANE":"４６５巷","ALLEY":" ","HOUSE_NO":"１５號","E_COORD97":173838.64000000001,"N_COORD97":2546581.8399999999,"ADDRESS":"永華路４６５巷１５號","OBJECTID":386330},"geometry":{"x":173838.6400000006,"y":2546581.8400000017}},{"attributes":{"ID":386355,"DIS_CODE":0,"TOWNNAME":"永康區","LI":"網寮里","LIN":"24鄰","STREET":"永春街","SECT":" ","MAREA":" ","LANE":"３８巷","ALLEY":" ","HOUSE_NO":"２號","E_COORD97":173745.42000000001,"N_COORD97":2546417.8999999999,"ADDRESS":"永春街３８巷２號","OBJECTID":386331},"geometry":{"x":173745.42000000086,"y":2546417.9000000004}},{"attributes":{"ID":386356,"DIS_CODE":0,"TOWNNAME":"永康區","LI":"復華里","LIN":"37鄰","STREET":"復華七街","SECT":" ","MAREA":" ","LANE":"３２巷","ALLEY":" ","HOUSE_NO":"２９號五樓之１","E_COORD97":172731.04000000001,"N_COORD97":2545951.54,"ADDRESS":"復華七街３２巷２９號五樓之１","OBJECTID":386332},"geometry":{"x":172731.04000000097,"y":2545951.5399999991}},{"attributes":{"ID":386357,"DIS_CODE":0,"TOWNNAME":"永康區","LI":"新樹里","LIN":"3鄰","STREET":"中山北路","SECT":" ","MAREA":" ","LANE":"９００巷","ALLEY":" ","HOUSE_NO":"１７８號","E_COORD97":176453.04000000001,"N_COORD97":2547674.73,"ADDRESS":"中山北路９００巷１７８號","OBJECTID":386333},"geometry":{"x":176453.04000000004,"y":2547674.7300000042}},{"attributes":{"ID":386358,"DIS_CODE":0,"TOWNNAME":"永康區","LI":"\u25A0行里","LIN":"8鄰","STREET":"中正一街","SECT":" ","MAREA":" ","LANE":"３２巷","ALLEY":" ","HOUSE_NO":"３０號","E_COORD97":172965.64999999999,"N_COORD97":2548373.25,"ADDRESS":"中正一街３２巷３０號","OBJECTID":386334},"geometry":{"x":172965.65000000037,"y":2548373.2500000019}},{"attributes":{"ID":386359,"DIS_CODE":0,"TOWNNAME":"永康區","LI":"蔦松里","LIN":"9鄰","STREET":"正北三路","SECT":" ","MAREA":" ","LANE":"１３０巷","ALLEY":" ","HOUSE_NO":"８號","E_COORD97":174437.64999999999,"N_COORD97":2550047.75,"ADDRESS":"正北三路１３０巷８號","OBJECTID":386335},"geometry":{"x":174437.6500000013,"y":2550047.7500000019}},{"attributes":{"ID":386360,"DIS_CODE":0,"TOWNNAME":"永康區","LI":"新樹里","LIN":"4鄰","STREET":"富強路","SECT":"二段","MAREA":" ","LANE":"３９８巷","ALLEY":" ","HOUSE_NO":"１９３號之１６","E_COORD97":176095.07000000001,"N_COORD97":2547736.1000000001,"ADDRESS":"富強路二段３９８巷１９３號之１６","OBJECTID":386336},"geometry":{"x":176095.0700000003,"y":2547736.1000000015}},{"attributes":{"ID":386361,"DIS_CODE":0,"TOWNNAME":"永康區","LI":"龍潭里","LIN":"35鄰","STREET":"龍安街","SECT":" ","MAREA":" ","LANE":"１８９巷","ALLEY":" ","HOUSE_NO":"３０號","E_COORD97":174622.01999999999,"N_COORD97":2548556.9100000001,"ADDRESS":"龍安街１８９巷３０號","OBJECTID":386337},"geometry":{"x":174622.01999999955,"y":2548556.9100000001}},{"attributes":{"ID":386362,"DIS_CODE":0,"TOWNNAME":"永康區","LI":"網寮里","LIN":"22鄰","STREET":"永春街","SECT":" ","MAREA":" ","LANE":"２５巷","ALLEY":" ","HOUSE_NO":"７號","E_COORD97":173750.95999999999,"N_COORD97":2546275.4900000002,"ADDRESS":"永春街２５巷７號","OBJECTID":386338},"geometry":{"x":173750.95999999996,"y":2546275.4899999984}},{"attributes":{"ID":386363,"DIS_CODE":0,"TOWNNAME":"永康區","LI":"蔦松里","LIN":"3鄰","STREET":"蔦松一街","SECT":" ","MAREA":" ","LANE":"３５巷","ALLEY":" ","HOUSE_NO":"１０號","E_COORD97":173951.54000000001,"N_COORD97":2549349.5,"ADDRESS":"蔦松一街３５巷１０號","OBJECTID":386339},"geometry":{"x":173951.54000000097,"y":2549349.5}},{"attributes":{"ID":386364,"DIS_CODE":0,"TOWNNAME":"永康區","LI":"龍潭里","LIN":"10鄰","STREET":"龍潭街","SECT":" ","MAREA":" ","LANE":"１５１巷","ALLEY":" ","HOUSE_NO":"１號","E_COORD97":174870.95000000001,"N_COORD97":2548243.4399999999,"ADDRESS":"龍潭街１５１巷１號","OBJECTID":386340},"geometry":{"x":174870.95000000205,"y":2548243.4399999995}},{"attributes":{"ID":386365,"DIS_CODE":0,"TOWNNAME":"永康區","LI":"復國里","LIN":"21鄰","STREET":"復華六街","SECT":" ","MAREA":" ","LANE":"８１巷","ALLEY":" ","HOUSE_NO":"５號","E_COORD97":172656.73999999999,"N_COORD97":2545804.6099999999,"ADDRESS":"復華六街８１巷５號","OBJECTID":386341},"geometry":{"x":172656.74000000209,"y":2545804.6099999994}},{"attributes":{"ID":386366,"DIS_CODE":0,"TOWNNAME":"永康區","LI":"蔦松里","LIN":"9鄰","STREET":"正北三路","SECT":" ","MAREA":" ","LANE":"１５０巷","ALLEY":" ","HOUSE_NO":"９號","E_COORD97":174398.32999999999,"N_COORD97":2550139.8700000001,"ADDRESS":"正北三路１５０巷９號","OBJECTID":386342},"geometry":{"x":174398.33000000007,"y":2550139.8700000029}},{"attributes":{"ID":386367,"DIS_CODE":0,"TOWNNAME":"永康區","LI":"龍潭里","LIN":"23鄰","STREET":"自強路","SECT":" ","MAREA":" ","LANE":"７５０巷","ALLEY":" ","HOUSE_NO":"５６號","E_COORD97":174525.98999999999,"N_COORD97":2548463.54,"ADDRESS":"自強路７５０巷５６號","OBJECTID":386343},"geometry":{"x":174525.99000000022,"y":2548463.5399999991}},{"attributes":{"ID":386368,"DIS_CODE":0,"TOWNNAME":"永康區","LI":"龍潭里","LIN":"44鄰","STREET":"永平街","SECT":" ","MAREA":" ","LANE":"２９８巷","ALLEY":" ","HOUSE_NO":"８之９號","E_COORD97":174660.16,"N_COORD97":2547120.04,"ADDRESS":"永平街２９８巷８之９號","OBJECTID":386344},"geometry":{"x":174660.16000000015,"y":2547120.040000001}},{"attributes":{"ID":386369,"DIS_CODE":0,"TOWNNAME":"永康區","LI":"復華里","LIN":"37鄰","STREET":"復華七街","SECT":" ","MAREA":" ","LANE":"３２巷","ALLEY":" ","HOUSE_NO":"３３號六樓之２","E_COORD97":172738.31,"N_COORD97":2545936.2999999998,"ADDRESS":"復華七街３２巷３３號六樓之２","OBJECTID":386345},"geometry":{"x":172738.30999999959,"y":2545936.3000000026}},{"attributes":{"ID":386370,"DIS_CODE":0,"TOWNNAME":"永康區","LI":"復華里","LIN":"37鄰","STREET":"復華七街","SECT":" ","MAREA":" ","LANE":"３２巷","ALLEY":" ","HOUSE_NO":"２５號七樓之２","E_COORD97":172712.06,"N_COORD97":2545945.04,"ADDRESS":"復華七街３２巷２５號七樓之２","OBJECTID":386346},"geometry":{"x":172712.06000000052,"y":2545945.0399999991}},{"attributes":{"ID":386371,"DIS_CODE":0,"TOWNNAME":"永康區","LI":"復華里","LIN":"37鄰","STREET":"復華七街","SECT":" ","MAREA":" ","LANE":"３２巷","ALLEY":" ","HOUSE_NO":"２９號七樓之２","E_COORD97":172731.17000000001,"N_COORD97":2545951.54,"ADDRESS":"復華七街３２巷２９號七樓之２","OBJECTID":386347},"geometry":{"x":172731.16999999993,"y":2545951.5399999991}},{"attributes":{"ID":386372,"DIS_CODE":0,"TOWNNAME":"永康區","LI":"復華里","LIN":"37鄰","STREET":"復華七街","SECT":" ","MAREA":" ","LANE":"３２巷","ALLEY":" ","HOUSE_NO":"２５號六樓之３","E_COORD97":172712.01999999999,"N_COORD97":2545945.04,"ADDRESS":"復華七街３２巷２５號六樓之３","OBJECTID":386348},"geometry":{"x":172712.02000000048,"y":2545945.0399999991}},{"attributes":{"ID":386373,"DIS_CODE":0,"TOWNNAME":"永康區","LI":"復華里","LIN":"37鄰","STREET":"復華七街","SECT":" ","MAREA":" ","LANE":"３２巷","ALLEY":" ","HOUSE_NO":"２５號七樓之３","E_COORD97":172712.01999999999,"N_COORD97":2545945.04,"ADDRESS":"復華七街３２巷２５號七樓之３","OBJECTID":386349},"geometry":{"x":172712.02000000048,"y":2545945.0399999991}},{"attributes":{"ID":386374,"DIS_CODE":0,"TOWNNAME":"永康區","LI":"網寮里","LIN":"5鄰","STREET":"永勝街","SECT":" ","MAREA":" ","LANE":"１０６巷","ALLEY":" ","HOUSE_NO":"７號","E_COORD97":173566.87,"N_COORD97":2546350.6800000002,"ADDRESS":"永勝街１０６巷７號","OBJECTID":386350},"geometry":{"x":173566.87000000011,"y":2546350.6799999997}},{"attributes":{"ID":386375,"DIS_CODE":0,"TOWNNAME":"永康區","LI":"復華里","LIN":"37鄰","STREET":"復華七街","SECT":" ","MAREA":" ","LANE":"３２巷","ALLEY":" ","HOUSE_NO":"２５號八樓之２","E_COORD97":172712.06,"N_COORD97":2545945.04,"ADDRESS":"復華七街３２巷２５號八樓之２","OBJECTID":386351},"geometry":{"x":172712.06000000052,"y":2545945.0399999991}},{"attributes":{"ID":386376,"DIS_CODE":0,"TOWNNAME":"永康區","LI":"復華里","LIN":"37鄰","STREET":"復華七街","SECT":" ","MAREA":" ","LANE":"３２巷","ALLEY":" ","HOUSE_NO":"２５號三樓","E_COORD97":172709.79000000001,"N_COORD97":2545945.02,"ADDRESS":"復華七街３２巷２５號三樓","OBJECTID":386352},"geometry":{"x":172709.79000000004,"y":2545945.0199999996}},{"attributes":{"ID":386377,"DIS_CODE":0,"TOWNNAME":"永康區","LI":"復華里","LIN":"37鄰","STREET":"復華七街","SECT":" ","MAREA":" ","LANE":"３２巷","ALLEY":" ","HOUSE_NO":"２５號十樓之１","E_COORD97":172711.92999999999,"N_COORD97":2545945.04,"ADDRESS":"復華七街３２巷２５號十樓之１","OBJECTID":386353},"geometry":{"x":172711.9299999997,"y":2545945.0399999991}},{"attributes":{"ID":386378,"DIS_CODE":0,"TOWNNAME":"永康區","LI":"復華里","LIN":"37鄰","STREET":"復華七街","SECT":" ","MAREA":" ","LANE":"３２巷","ALLEY":" ","HOUSE_NO":"２５號五樓之２","E_COORD97":172712.06,"N_COORD97":2545945.04,"ADDRESS":"復華七街３２巷２５號五樓之２","OBJECTID":386354},"geometry":{"x":172712.06000000052,"y":2545945.0399999991}},{"attributes":{"ID":386379,"DIS_CODE":0,"TOWNNAME":"永康區","LI":"復華里","LIN":"37鄰","STREET":"復華七街","SECT":" ","MAREA":" ","LANE":"３２巷","ALLEY":" ","HOUSE_NO":"２５號八樓之１","E_COORD97":172711.92999999999,"N_COORD97":2545945.04,"ADDRESS":"復華七街３２巷２５號八樓之１","OBJECTID":386355},"geometry":{"x":172711.9299999997,"y":2545945.0399999991}},{"attributes":{"ID":386380,"DIS_CODE":0,"TOWNNAME":"永康區","LI":"復華里","LIN":"37鄰","STREET":"復華七街","SECT":" ","MAREA":" ","LANE":"３２巷","ALLEY":" ","HOUSE_NO":"２５號十二樓之１","E_COORD97":172713.17999999999,"N_COORD97":2545945.04,"ADDRESS":"復華七街３２巷２５號十二樓之１","OBJECTID":386356},"geometry":{"x":172713.18000000063,"y":2545945.0399999991}},{"attributes":{"ID":386381,"DIS_CODE":0,"TOWNNAME":"永康區","LI":"復華里","LIN":"37鄰","STREET":"復華七街","SECT":" ","MAREA":" ","LANE":"３２巷","ALLEY":" ","HOUSE_NO":"２５號七樓之１","E_COORD97":172711.92999999999,"N_COORD97":2545945.04,"ADDRESS":"復華七街３２巷２５號七樓之１","OBJECTID":386357},"geometry":{"x":172711.9299999997,"y":2545945.0399999991}},{"attributes":{"ID":386382,"DIS_CODE":0,"TOWNNAME":"永康區","LI":"復華里","LIN":"37鄰","STREET":"復華七街","SECT":" ","MAREA":" ","LANE":"３２巷","ALLEY":" ","HOUSE_NO":"２９號六樓之３","E_COORD97":172731.13,"N_COORD97":2545951.54,"ADDRESS":"復華七街３２巷２９號六樓之３","OBJECTID":386358},"geometry":{"x":172731.12999999989,"y":2545951.5399999991}},{"attributes":{"ID":386383,"DIS_CODE":0,"TOWNNAME":"永康區","LI":"復華里","LIN":"37鄰","STREET":"復華七街","SECT":" ","MAREA":" ","LANE":"３２巷","ALLEY":" ","HOUSE_NO":"２９號二樓之３","E_COORD97":172731.13,"N_COORD97":2545951.54,"ADDRESS":"復華七街３２巷２９號二樓之３","OBJECTID":386359},"geometry":{"x":172731.12999999989,"y":2545951.5399999991}},{"attributes":{"ID":386384,"DIS_CODE":0,"TOWNNAME":"永康區","LI":"復華里","LIN":"37鄰","STREET":"復華七街","SECT":" ","MAREA":" ","LANE":"３２巷","ALLEY":" ","HOUSE_NO":"２５號四樓之１","E_COORD97":172711.92999999999,"N_COORD97":2545945.04,"ADDRESS":"復華七街３２巷２５號四樓之１","OBJECTID":386360},"geometry":{"x":172711.9299999997,"y":2545945.0399999991}},{"attributes":{"ID":386385,"DIS_CODE":0,"TOWNNAME":"永康區","LI":"復華里","LIN":"37鄰","STREET":"復華七街","SECT":" ","MAREA":" ","LANE":"３２巷","ALLEY":" ","HOUSE_NO":"２５號四樓之３","E_COORD97":172712.01999999999,"N_COORD97":2545945.04,"ADDRESS":"復華七街３２巷２５號四樓之３","OBJECTID":386361},"geometry":{"x":172712.02000000048,"y":2545945.0399999991}},{"attributes":{"ID":386386,"DIS_CODE":0,"TOWNNAME":"永康區","LI":"復華里","LIN":"37鄰","STREET":"復華七街","SECT":" ","MAREA":" ","LANE":"３２巷","ALLEY":" ","HOUSE_NO":"２５號五樓之１","E_COORD97":172711.92999999999,"N_COORD97":2545945.04,"ADDRESS":"復華七街３２巷２５號五樓之１","OBJECTID":386362},"geometry":{"x":172711.9299999997,"y":2545945.0399999991}},{"attributes":{"ID":386387,"DIS_CODE":0,"TOWNNAME":"永康區","LI":"復華里","LIN":"37鄰","STREET":"復華七街","SECT":" ","MAREA":" ","LANE":"３２巷","ALLEY":" ","HOUSE_NO":"２５號九樓之１","E_COORD97":172711.92999999999,"N_COORD97":2545945.04,"ADDRESS":"復華七街３２巷２５號九樓之１","OBJECTID":386363},"geometry":{"x":172711.9299999997,"y":2545945.0399999991}},{"attributes":{"ID":386388,"DIS_CODE":0,"TOWNNAME":"永康區","LI":"復華里","LIN":"37鄰","STREET":"復華七街","SECT":" ","MAREA":" ","LANE":"３２巷","ALLEY":" ","HOUSE_NO":"２５號十一樓之３","E_COORD97":172713.26999999999,"N_COORD97":2545945.04,"ADDRESS":"復華七街３２巷２５號十一樓之３","OBJECTID":386364},"geometry":{"x":172713.26999999955,"y":2545945.0399999991}},{"attributes":{"ID":386389,"DIS_CODE":0,"TOWNNAME":"永康區","LI":"復華里","LIN":"37鄰","STREET":"復華七街","SECT":" ","MAREA":" ","LANE":"３２巷","ALLEY":" ","HOUSE_NO":"２９號九樓之１","E_COORD97":172731.04000000001,"N_COORD97":2545951.54,"ADDRESS":"復華七街３２巷２９號九樓之１","OBJECTID":386365},"geometry":{"x":172731.04000000097,"y":2545951.5399999991}},{"attributes":{"ID":386390,"DIS_CODE":0,"TOWNNAME":"永康區","LI":"復華里","LIN":"37鄰","STREET":"復華七街","SECT":" ","MAREA":" ","LANE":"３２巷","ALLEY":" ","HOUSE_NO":"２９號二樓之２","E_COORD97":172731.17000000001,"N_COORD97":2545951.54,"ADDRESS":"復華七街３２巷２９號二樓之２","OBJECTID":386366},"geometry":{"x":172731.16999999993,"y":2545951.5399999991}},{"attributes":{"ID":386391,"DIS_CODE":0,"TOWNNAME":"永康區","LI":"復華里","LIN":"37鄰","STREET":"復華七街","SECT":" ","MAREA":" ","LANE":"３２巷","ALLEY":" ","HOUSE_NO":"２９號九樓之２","E_COORD97":172731.17000000001,"N_COORD97":2545951.54,"ADDRESS":"復華七街３２巷２９號九樓之２","OBJECTID":386367},"geometry":{"x":172731.16999999993,"y":2545951.5399999991}},{"attributes":{"ID":386392,"DIS_CODE":0,"TOWNNAME":"永康區","LI":"勝利里","LIN":"37鄰","STREET":"勝利街","SECT":" ","MAREA":" ","LANE":"１９７巷","ALLEY":" ","HOUSE_NO":"１３號","E_COORD97":171309.39999999999,"N_COORD97":2545125.75,"ADDRESS":"勝利街１９７巷１３號","OBJECTID":386368},"geometry":{"x":171309.40000000037,"y":2545125.7500000019}},{"attributes":{"ID":386393,"DIS_CODE":0,"TOWNNAME":"永康區","LI":"勝利里","LIN":"37鄰","STREET":"勝利街","SECT":" ","MAREA":" ","LANE":"１９７巷","ALLEY":" ","HOUSE_NO":"５號","E_COORD97":171331.67999999999,"N_COORD97":2545124.75,"ADDRESS":"勝利街１９７巷５號","OBJECTID":386369},"geometry":{"x":171331.68000000063,"y":2545124.7500000019}},{"attributes":{"ID":386394,"DIS_CODE":0,"TOWNNAME":"永康區","LI":"二王里","LIN":"37鄰","STREET":"中山南路","SECT":" ","MAREA":" ","LANE":"４９０巷","ALLEY":" ","HOUSE_NO":"４２號","E_COORD97":172262.01999999999,"N_COORD97":2546344.0899999999,"ADDRESS":"中山南路４９０巷４２號","OBJECTID":386370},"geometry":{"x":172262.01999999955,"y":2546344.0900000017}},{"attributes":{"ID":386395,"DIS_CODE":0,"TOWNNAME":"永康區","LI":"二王里","LIN":"37鄰","STREET":"中山南路","SECT":" ","MAREA":" ","LANE":"４９０巷","ALLEY":" ","HOUSE_NO":"３２號","E_COORD97":172240.95999999999,"N_COORD97":2546344.0899999999,"ADDRESS":"中山南路４９０巷３２號","OBJECTID":386371},"geometry":{"x":172240.95999999996,"y":2546344.0900000017}},{"attributes":{"ID":386396,"DIS_CODE":0,"TOWNNAME":"永康區","LI":"二王里","LIN":"37鄰","STREET":"中山南路","SECT":" ","MAREA":" ","LANE":"４９０巷","ALLEY":" ","HOUSE_NO":"２４號","E_COORD97":172223.26999999999,"N_COORD97":2546342.3399999999,"ADDRESS":"中山南路４９０巷２４號","OBJECTID":386372},"geometry":{"x":172223.26999999955,"y":2546342.3400000017}},{"attributes":{"ID":386397,"DIS_CODE":0,"TOWNNAME":"永康區","LI":"二王里","LIN":"37鄰","STREET":"中山南路","SECT":" ","MAREA":" ","LANE":"４９０巷","ALLEY":" ","HOUSE_NO":"４０號","E_COORD97":172257.76000000001,"N_COORD97":2546344.0899999999,"ADDRESS":"中山南路４９０巷４０號","OBJECTID":386373},"geometry":{"x":172257.76000000164,"y":2546344.0900000017}},{"attributes":{"ID":386398,"DIS_CODE":0,"TOWNNAME":"永康區","LI":"五王里","LIN":"37鄰","STREET":"中華路","SECT":" ","MAREA":" ","LANE":"５７８巷","ALLEY":" ","HOUSE_NO":"１５號之６３","E_COORD97":171276.04999999999,"N_COORD97":2545965.79,"ADDRESS":"中華路５７８巷１５號之６３","OBJECTID":386374},"geometry":{"x":171276.05000000168,"y":2545965.7899999991}},{"attributes":{"ID":386399,"DIS_CODE":0,"TOWNNAME":"永康區","LI":"五王里","LIN":"37鄰","STREET":"中華路","SECT":" ","MAREA":" ","LANE":"５７８巷","ALLEY":" ","HOUSE_NO":"１５號之５９","E_COORD97":171276.03,"N_COORD97":2545965.79,"ADDRESS":"中華路５７８巷１５號之５９","OBJECTID":386375},"geometry":{"x":171276.03000000026,"y":2545965.7899999991}},{"attributes":{"ID":386400,"DIS_CODE":0,"TOWNNAME":"永康區","LI":"五王里","LIN":"37鄰","STREET":"中華路","SECT":" ","MAREA":" ","LANE":"５７８巷","ALLEY":" ","HOUSE_NO":"１５號之４８","E_COORD97":171276.10000000001,"N_COORD97":2545965.79,"ADDRESS":"中華路５７８巷１５號之４８","OBJECTID":386376},"geometry":{"x":171276.10000000056,"y":2545965.7899999991}},{"attributes":{"ID":386401,"DIS_CODE":0,"TOWNNAME":"永康區","LI":"二王里","LIN":"37鄰","STREET":"中山南路","SECT":" ","MAREA":" ","LANE":"４９０巷","ALLEY":" ","HOUSE_NO":"３８號","E_COORD97":172253.62,"N_COORD97":2546344.3399999999,"ADDRESS":"中山南路４９０巷３８號","OBJECTID":386377},"geometry":{"x":172253.62000000011,"y":2546344.3400000036}},{"attributes":{"ID":386402,"DIS_CODE":0,"TOWNNAME":"北區","LI":"大和里","LIN":"22鄰","STREET":"大港街","SECT":" ","MAREA":" ","LANE":"１２４巷","ALLEY":" ","HOUSE_NO":"３５號","E_COORD97":166970.04999999999,"N_COORD97":2546112,"ADDRESS":"大港街１２４巷３５號","OBJECTID":386378},"geometry":{"x":166970.04999999981,"y":2546112}},{"attributes":{"ID":386403,"DIS_CODE":0,"TOWNNAME":"永康區","LI":"五王里","LIN":"37鄰","STREET":"中華路","SECT":" ","MAREA":" ","LANE":"５７８巷","ALLEY":" ","HOUSE_NO":"１５號之７５","E_COORD97":171276.10000000001,"N_COORD97":2545965.79,"ADDRESS":"中華路５７８巷１５號之７５","OBJECTID":386379},"geometry":{"x":171276.10000000056,"y":2545965.7899999991}},{"attributes":{"ID":386404,"DIS_CODE":0,"TOWNNAME":"永康區","LI":"五王里","LIN":"37鄰","STREET":"中華路","SECT":" ","MAREA":" ","LANE":"５７８巷","ALLEY":" ","HOUSE_NO":"１５號之８７","E_COORD97":171276.03,"N_COORD97":2545965.79,"ADDRESS":"中華路５７８巷１５號之８７","OBJECTID":386380},"geometry":{"x":171276.03000000026,"y":2545965.7899999991}},{"attributes":{"ID":386405,"DIS_CODE":0,"TOWNNAME":"永康區","LI":"五王里","LIN":"37鄰","STREET":"中華路","SECT":" ","MAREA":" ","LANE":"５７８巷","ALLEY":" ","HOUSE_NO":"１５號之９３","E_COORD97":171276.04999999999,"N_COORD97":2545965.79,"ADDRESS":"中華路５７８巷１５號之９３","OBJECTID":386381},"geometry":{"x":171276.05000000168,"y":2545965.7899999991}},{"attributes":{"ID":386406,"DIS_CODE":0,"TOWNNAME":"永康區","LI":"五王里","LIN":"37鄰","STREET":"中華路","SECT":" ","MAREA":" ","LANE":"５７８巷","ALLEY":" ","HOUSE_NO":"１５號之７４","E_COORD97":171275.97,"N_COORD97":2545965.79,"ADDRESS":"中華路５７８巷１５號之７４","OBJECTID":386382},"geometry":{"x":171275.96999999974,"y":2545965.7899999991}},{"attributes":{"ID":386407,"DIS_CODE":0,"TOWNNAME":"永康區","LI":"五王里","LIN":"37鄰","STREET":"中華路","SECT":" ","MAREA":" ","LANE":"５７８巷","ALLEY":" ","HOUSE_NO":"１５號之８４","E_COORD97":171275.97,"N_COORD97":2545965.79,"ADDRESS":"中華路５７８巷１５號之８４","OBJECTID":386383},"geometry":{"x":171275.96999999974,"y":2545965.7899999991}},{"attributes":{"ID":386408,"DIS_CODE":0,"TOWNNAME":"永康區","LI":"二王里","LIN":"37鄰","STREET":"中山南路","SECT":" ","MAREA":" ","LANE":"４９０巷","ALLEY":" ","HOUSE_NO":"４２號之１","E_COORD97":172268.26000000001,"N_COORD97":2546344.1400000001,"ADDRESS":"中山南路４９０巷４２號之１","OBJECTID":386384},"geometry":{"x":172268.26000000071,"y":2546344.1400000025}},{"attributes":{"ID":386409,"DIS_CODE":0,"TOWNNAME":"永康區","LI":"五王里","LIN":"37鄰","STREET":"中華路","SECT":" ","MAREA":" ","LANE":"５７８巷","ALLEY":" ","HOUSE_NO":"１５號之６９","E_COORD97":171276.03,"N_COORD97":2545965.79,"ADDRESS":"中華路５７８巷１５號之６９","OBJECTID":386385},"geometry":{"x":171276.03000000026,"y":2545965.7899999991}},{"attributes":{"ID":386410,"DIS_CODE":0,"TOWNNAME":"永康區","LI":"五王里","LIN":"37鄰","STREET":"中華路","SECT":" ","MAREA":" ","LANE":"５７８巷","ALLEY":" ","HOUSE_NO":"１５號之８８","E_COORD97":171276.10000000001,"N_COORD97":2545965.79,"ADDRESS":"中華路５７８巷１５號之８８","OBJECTID":386386},"geometry":{"x":171276.10000000056,"y":2545965.7899999991}},{"attributes":{"ID":386411,"DIS_CODE":0,"TOWNNAME":"永康區","LI":"五王里","LIN":"37鄰","STREET":"中華路","SECT":" ","MAREA":" ","LANE":"５７８巷","ALLEY":" ","HOUSE_NO":"１５號之６０","E_COORD97":171276,"N_COORD97":2545965.79,"ADDRESS":"中華路５７８巷１５號之６０","OBJECTID":386387},"geometry":{"x":171276,"y":2545965.7899999991}},{"attributes":{"ID":386412,"DIS_CODE":0,"TOWNNAME":"永康區","LI":"五王里","LIN":"37鄰","STREET":"中華路","SECT":" ","MAREA":" ","LANE":"５７８巷","ALLEY":" ","HOUSE_NO":"１５號之３９","E_COORD97":171276.03,"N_COORD97":2545965.79,"ADDRESS":"中華路５７８巷１５號之３９","OBJECTID":386388},"geometry":{"x":171276.03000000026,"y":2545965.7899999991}},{"attributes":{"ID":386413,"DIS_CODE":0,"TOWNNAME":"永康區","LI":"五王里","LIN":"37鄰","STREET":"中華路","SECT":" ","MAREA":" ","LANE":"５７８巷","ALLEY":" ","HOUSE_NO":"１５號之９５","E_COORD97":171276.10000000001,"N_COORD97":2545965.79,"ADDRESS":"中華路５７８巷１５號之９５","OBJECTID":386389},"geometry":{"x":171276.10000000056,"y":2545965.7899999991}},{"attributes":{"ID":386414,"DIS_CODE":0,"TOWNNAME":"永康區","LI":"五王里","LIN":"37鄰","STREET":"中華路","SECT":" ","MAREA":" ","LANE":"５７８巷","ALLEY":" ","HOUSE_NO":"１５號之７２","E_COORD97":171276.07999999999,"N_COORD97":2545965.79,"ADDRESS":"中華路５７８巷１５號之７２","OBJECTID":386390},"geometry":{"x":171276.08000000194,"y":2545965.7899999991}},{"attributes":{"ID":386415,"DIS_CODE":0,"TOWNNAME":"永康區","LI":"五王里","LIN":"37鄰","STREET":"中華路","SECT":" ","MAREA":" ","LANE":"５７８巷","ALLEY":" ","HOUSE_NO":"１５號之７０","E_COORD97":171276,"N_COORD97":2545965.79,"ADDRESS":"中華路５７８巷１５號之７０","OBJECTID":386391},"geometry":{"x":171276,"y":2545965.7899999991}},{"attributes":{"ID":386416,"DIS_CODE":0,"TOWNNAME":"永康區","LI":"五王里","LIN":"37鄰","STREET":"中華路","SECT":" ","MAREA":" ","LANE":"５７８巷","ALLEY":" ","HOUSE_NO":"１５號之５４","E_COORD97":171275.97,"N_COORD97":2545965.79,"ADDRESS":"中華路５７８巷１５號之５４","OBJECTID":386392},"geometry":{"x":171275.96999999974,"y":2545965.7899999991}},{"attributes":{"ID":386417,"DIS_CODE":0,"TOWNNAME":"仁德區","LI":"成功里","LIN":"37鄰","STREET":"保華路","SECT":" ","MAREA":" ","LANE":"４６巷","ALLEY":" ","HOUSE_NO":"２６號","E_COORD97":170668.73999999999,"N_COORD97":2540077.9900000002,"ADDRESS":"保華路４６巷２６號","OBJECTID":386393},"geometry":{"x":170668.74000000115,"y":2540077.9899999984}},{"attributes":{"ID":386418,"DIS_CODE":0,"TOWNNAME":"仁德區","LI":"成功里","LIN":"37鄰","STREET":"保華路","SECT":" ","MAREA":" ","LANE":"４６巷","ALLEY":" ","HOUSE_NO":"２０號","E_COORD97":170665.82000000001,"N_COORD97":2540061.2400000002,"ADDRESS":"保華路４６巷２０號","OBJECTID":386394},"geometry":{"x":170665.8200000003,"y":2540061.2400000002}},{"attributes":{"ID":386419,"DIS_CODE":0,"TOWNNAME":"仁德區","LI":"成功里","LIN":"37鄰","STREET":"保華路","SECT":" ","MAREA":" ","LANE":"４６巷","ALLEY":" ","HOUSE_NO":"１４號","E_COORD97":170665.79000000001,"N_COORD97":2540047.9900000002,"ADDRESS":"保華路４６巷１４號","OBJECTID":386395},"geometry":{"x":170665.79000000004,"y":2540047.9900000021}},{"attributes":{"ID":386420,"DIS_CODE":0,"TOWNNAME":"仁德區","LI":"成功里","LIN":"37鄰","STREET":"保華路","SECT":" ","MAREA":" ","LANE":"４６巷","ALLEY":" ","HOUSE_NO":"１２號","E_COORD97":170665.85000000001,"N_COORD97":2540043.4900000002,"ADDRESS":"保華路４６巷１２號","OBJECTID":386396},"geometry":{"x":170665.85000000056,"y":2540043.4900000002}},{"attributes":{"ID":386421,"DIS_CODE":0,"TOWNNAME":"仁德區","LI":"成功里","LIN":"37鄰","STREET":"保華路","SECT":" ","MAREA":" ","LANE":"６４巷","ALLEY":" ","HOUSE_NO":"１２號","E_COORD97":170634.64000000001,"N_COORD97":2540036.7400000002,"ADDRESS":"保華路６４巷１２號","OBJECTID":386397},"geometry":{"x":170634.6400000006,"y":2540036.7400000021}},{"attributes":{"ID":386422,"DIS_CODE":0,"TOWNNAME":"永康區","LI":"復興里","LIN":"20鄰","STREET":"復興路","SECT":" ","MAREA":" ","LANE":"３５６巷","ALLEY":" ","HOUSE_NO":"３６號","E_COORD97":172292.70000000001,"N_COORD97":2544429.52,"ADDRESS":"復興路３５６巷３６號","OBJECTID":386398},"geometry":{"x":172292.70000000112,"y":2544429.5199999996}},{"attributes":{"ID":386423,"DIS_CODE":0,"TOWNNAME":"永康區","LI":"蔦松里","LIN":"6鄰","STREET":"蔦松一街","SECT":" ","MAREA":" ","LANE":"７４巷","ALLEY":" ","HOUSE_NO":"８號","E_COORD97":173911.73000000001,"N_COORD97":2549472.9900000002,"ADDRESS":"蔦松一街７４巷８號","OBJECTID":386399},"geometry":{"x":173911.73000000138,"y":2549472.9900000039}},{"attributes":{"ID":386424,"DIS_CODE":0,"TOWNNAME":"新市區","LI":"新和里","LIN":"37鄰","STREET":"仁愛街","SECT":" ","MAREA":" ","LANE":"２４１巷","ALLEY":" ","HOUSE_NO":"２８號","E_COORD97":177535.82999999999,"N_COORD97":2552911.2799999998,"ADDRESS":"仁愛街２４１巷２８號","OBJECTID":386400},"geometry":{"x":177535.83000000007,"y":2552911.2800000031}}]}