{"displayFieldName":"TOWNNAME","fieldAliases":{"ID":"ID","DIS_CODE":"DIS_CODE","TOWNNAME":"TOWNNAME","LI":"LI","LIN":"LIN","STREET":"STREET","SECT":"SECT","MAREA":"MAREA","LANE":"LANE","ALLEY":"ALLEY","HOUSE_NO":"HOUSE_NO","E_COORD97":"E_COORD97","N_COORD97":"N_COORD97","ADDRESS":"ADDRESS","OBJECTID":"OBJECTID"},"geometryType":"esriGeometryPoint","spatialReference":{"wkid":102443,"latestWkid":3826},"fields":[{"name":"ID","type":"esriFieldTypeDouble","alias":"ID"},{"name":"DIS_CODE","type":"esriFieldTypeInteger","alias":"DIS_CODE"},{"name":"TOWNNAME","type":"esriFieldTypeString","alias":"TOWNNAME","length":8},{"name":"LI","type":"esriFieldTypeString","alias":"LI","length":8},{"name":"LIN","type":"esriFieldTypeString","alias":"LIN","length":12},{"name":"STREET","type":"esriFieldTypeString","alias":"STREET","length":20},{"name":"SECT","type":"esriFieldTypeString","alias":"SECT","length":8},{"name":"MAREA","type":"esriFieldTypeString","alias":"MAREA","length":12},{"name":"LANE","type":"esriFieldTypeString","alias":"LANE","length":10},{"name":"ALLEY","type":"esriFieldTypeString","alias":"ALLEY","length":10},{"name":"HOUSE_NO","type":"esriFieldTypeString","alias":"HOUSE_NO","length":20},{"name":"E_COORD97","type":"esriFieldTypeDouble","alias":"E_COORD97"},{"name":"N_COORD97","type":"esriFieldTypeDouble","alias":"N_COORD97"},{"name":"ADDRESS","type":"esriFieldTypeString","alias":"ADDRESS","length":50},{"name":"OBJECTID","type":"esriFieldTypeOID","alias":"OBJECTID"}],"features":[{"attributes":{"ID":588628,"DIS_CODE":0,"TOWNNAME":"仁德區","LI":"大甲里","LIN":"11鄰","STREET":"行大一街","SECT":" ","MAREA":" ","LANE":" ","ALLEY":" ","HOUSE_NO":"２９２號","E_COORD97":169607.76999999999,"N_COORD97":2535062.7400000002,"ADDRESS":"行大一街２９２號","OBJECTID":588601},"geometry":{"x":169607.77000000142,"y":2535062.7400000021}},{"attributes":{"ID":588629,"DIS_CODE":0,"TOWNNAME":"仁德區","LI":"一甲里","LIN":"11鄰","STREET":"忠義路","SECT":" ","MAREA":" ","LANE":" ","ALLEY":" ","HOUSE_NO":"２號","E_COORD97":174597.20999999999,"N_COORD97":2541653.77,"ADDRESS":"忠義路２號","OBJECTID":588602},"geometry":{"x":174597.20999999996,"y":2541653.7699999996}},{"attributes":{"ID":588630,"DIS_CODE":0,"TOWNNAME":"仁德區","LI":"一甲里","LIN":"11鄰","STREET":"忠義二街","SECT":" ","MAREA":" ","LANE":" ","ALLEY":" ","HOUSE_NO":"１２號","E_COORD97":173994.28,"N_COORD97":2542139.2599999998,"ADDRESS":"忠義二街１２號","OBJECTID":588603},"geometry":{"x":173994.28000000119,"y":2542139.2599999998}},{"attributes":{"ID":588631,"DIS_CODE":0,"TOWNNAME":"仁德區","LI":"大甲里","LIN":"11鄰","STREET":"行大一街","SECT":" ","MAREA":" ","LANE":" ","ALLEY":" ","HOUSE_NO":"３００號","E_COORD97":169587.57000000001,"N_COORD97":2535068.9900000002,"ADDRESS":"行大一街３００號","OBJECTID":588604},"geometry":{"x":169587.5700000003,"y":2535068.9900000002}},{"attributes":{"ID":588632,"DIS_CODE":0,"TOWNNAME":"仁德區","LI":"一甲里","LIN":"11鄰","STREET":"忠義路","SECT":" ","MAREA":" ","LANE":" ","ALLEY":" ","HOUSE_NO":"１２４號","E_COORD97":174286.75,"N_COORD97":2541800.5099999998,"ADDRESS":"忠義路１２４號","OBJECTID":588605},"geometry":{"x":174286.75,"y":2541800.5100000016}},{"attributes":{"ID":588633,"DIS_CODE":0,"TOWNNAME":"仁德區","LI":"土庫里","LIN":"11鄰","STREET":"土庫路","SECT":" ","MAREA":" ","LANE":" ","ALLEY":" ","HOUSE_NO":"１１３號","E_COORD97":174316.81,"N_COORD97":2543155.2400000002,"ADDRESS":"土庫路１１３號","OBJECTID":588606},"geometry":{"x":174316.81000000145,"y":2543155.2400000021}},{"attributes":{"ID":588634,"DIS_CODE":0,"TOWNNAME":"仁德區","LI":"一甲里","LIN":"11鄰","STREET":"忠義二街","SECT":" ","MAREA":" ","LANE":" ","ALLEY":" ","HOUSE_NO":"１９號","E_COORD97":173908.32000000001,"N_COORD97":2542132.7599999998,"ADDRESS":"忠義二街１９號","OBJECTID":588607},"geometry":{"x":173908.3200000003,"y":2542132.7599999998}},{"attributes":{"ID":588635,"DIS_CODE":0,"TOWNNAME":"東區","LI":"崇德里","LIN":"25鄰","STREET":"崇道路","SECT":" ","MAREA":" ","LANE":" ","ALLEY":" ","HOUSE_NO":"５５號","E_COORD97":170730.34,"N_COORD97":2541422.4199999999,"ADDRESS":"崇道路５５號","OBJECTID":588608},"geometry":{"x":170730.34000000078,"y":2541422.4200000018}},{"attributes":{"ID":588636,"DIS_CODE":0,"TOWNNAME":"東區","LI":"崇德里","LIN":"25鄰","STREET":"崇道路","SECT":" ","MAREA":" ","LANE":" ","ALLEY":" ","HOUSE_NO":"５７號","E_COORD97":170738.23000000001,"N_COORD97":2541421.7999999998,"ADDRESS":"崇道路５７號","OBJECTID":588609},"geometry":{"x":170738.23000000138,"y":2541421.8000000007}},{"attributes":{"ID":588637,"DIS_CODE":0,"TOWNNAME":"東區","LI":"東智里","LIN":"1鄰","STREET":"長東街","SECT":" ","MAREA":" ","LANE":" ","ALLEY":" ","HOUSE_NO":"３６號","E_COORD97":170988.54000000001,"N_COORD97":2540528.9199999999,"ADDRESS":"長東街３６號","OBJECTID":588610},"geometry":{"x":170988.54000000097,"y":2540528.9199999999}},{"attributes":{"ID":588638,"DIS_CODE":0,"TOWNNAME":"仁德區","LI":"上崙里","LIN":"11鄰","STREET":"德崙路","SECT":" ","MAREA":" ","LANE":" ","ALLEY":" ","HOUSE_NO":"３５７號","E_COORD97":174052.70999999999,"N_COORD97":2538118.52,"ADDRESS":"德崙路３５７號","OBJECTID":588611},"geometry":{"x":174052.70999999996,"y":2538118.5200000014}},{"attributes":{"ID":588639,"DIS_CODE":0,"TOWNNAME":"仁德區","LI":"一甲里","LIN":"11鄰","STREET":"忠義路","SECT":" ","MAREA":" ","LANE":" ","ALLEY":" ","HOUSE_NO":"８０之１號","E_COORD97":174383.06,"N_COORD97":2541772.5499999998,"ADDRESS":"忠義路８０之１號","OBJECTID":588612},"geometry":{"x":174383.06000000145,"y":2541772.5500000007}},{"attributes":{"ID":588640,"DIS_CODE":0,"TOWNNAME":"仁德區","LI":"一甲里","LIN":"11鄰","STREET":"忠義路","SECT":" ","MAREA":" ","LANE":" ","ALLEY":" ","HOUSE_NO":"２８號","E_COORD97":174527.34,"N_COORD97":2541685.52,"ADDRESS":"忠義路２８號","OBJECTID":588613},"geometry":{"x":174527.34000000078,"y":2541685.5200000014}},{"attributes":{"ID":588641,"DIS_CODE":0,"TOWNNAME":"仁德區","LI":"一甲里","LIN":"11鄰","STREET":"忠義路","SECT":" ","MAREA":" ","LANE":" ","ALLEY":" ","HOUSE_NO":"１３４號","E_COORD97":174183.26000000001,"N_COORD97":2541824.0099999998,"ADDRESS":"忠義路１３４號","OBJECTID":588614},"geometry":{"x":174183.25999999978,"y":2541824.0100000016}},{"attributes":{"ID":588642,"DIS_CODE":0,"TOWNNAME":"仁德區","LI":"一甲里","LIN":"11鄰","STREET":"忠義二街","SECT":" ","MAREA":" ","LANE":" ","ALLEY":" ","HOUSE_NO":"２２號","E_COORD97":173925.06,"N_COORD97":2542146.7599999998,"ADDRESS":"忠義二街２２號","OBJECTID":588615},"geometry":{"x":173925.05999999959,"y":2542146.7599999998}},{"attributes":{"ID":588643,"DIS_CODE":0,"TOWNNAME":"中西區","LI":"開山里","LIN":"11鄰","STREET":"府前路","SECT":"一段","MAREA":" ","LANE":" ","ALLEY":" ","HOUSE_NO":"１１號","E_COORD97":169112.85000000001,"N_COORD97":2543228.8399999999,"ADDRESS":"府前路一段１１號","OBJECTID":588616},"geometry":{"x":169112.85000000056,"y":2543228.8400000017}},{"attributes":{"ID":588644,"DIS_CODE":0,"TOWNNAME":"東區","LI":"東光里","LIN":"3鄰","STREET":"東興路","SECT":" ","MAREA":" ","LANE":" ","ALLEY":" ","HOUSE_NO":"１００號","E_COORD97":170986.32000000001,"N_COORD97":2543647.3799999999,"ADDRESS":"東興路１００號","OBJECTID":588617},"geometry":{"x":170986.3200000003,"y":2543647.3799999971}},{"attributes":{"ID":588645,"DIS_CODE":0,"TOWNNAME":"中西區","LI":"開山里","LIN":"11鄰","STREET":"府前路","SECT":"一段","MAREA":" ","LANE":" ","ALLEY":" ","HOUSE_NO":"１３號","E_COORD97":169109.10000000001,"N_COORD97":2543232.1099999999,"ADDRESS":"府前路一段１３號","OBJECTID":588618},"geometry":{"x":169109.10000000149,"y":2543232.1099999994}},{"attributes":{"ID":588646,"DIS_CODE":0,"TOWNNAME":"中西區","LI":"開山里","LIN":"11鄰","STREET":"府前路","SECT":"一段","MAREA":" ","LANE":" ","ALLEY":" ","HOUSE_NO":"１５號","E_COORD97":169106.48000000001,"N_COORD97":2543235.3900000001,"ADDRESS":"府前路一段１５號","OBJECTID":588619},"geometry":{"x":169106.48000000045,"y":2543235.3900000006}},{"attributes":{"ID":588647,"DIS_CODE":0,"TOWNNAME":"中西區","LI":"開山里","LIN":"11鄰","STREET":"府前路","SECT":"一段","MAREA":" ","LANE":" ","ALLEY":" ","HOUSE_NO":"１７號","E_COORD97":169105.17000000001,"N_COORD97":2543239.3100000001,"ADDRESS":"府前路一段１７號","OBJECTID":588620},"geometry":{"x":169105.16999999993,"y":2543239.3099999987}},{"attributes":{"ID":588648,"DIS_CODE":0,"TOWNNAME":"中西區","LI":"開山里","LIN":"11鄰","STREET":"府前路","SECT":"一段","MAREA":" ","LANE":" ","ALLEY":" ","HOUSE_NO":"１９號","E_COORD97":169102.73999999999,"N_COORD97":2543242.8700000001,"ADDRESS":"府前路一段１９號","OBJECTID":588621},"geometry":{"x":169102.74000000022,"y":2543242.8699999992}},{"attributes":{"ID":588649,"DIS_CODE":0,"TOWNNAME":"東區","LI":"中西里","LIN":"8鄰","STREET":"勝利路","SECT":" ","MAREA":" ","LANE":" ","ALLEY":" ","HOUSE_NO":"５０號","E_COORD97":169830.25,"N_COORD97":2543536.9100000001,"ADDRESS":"勝利路５０號","OBJECTID":588622},"geometry":{"x":169830.25,"y":2543536.9100000039}},{"attributes":{"ID":588650,"DIS_CODE":0,"TOWNNAME":"東區","LI":"中西里","LIN":"8鄰","STREET":"勝利路","SECT":" ","MAREA":" ","LANE":" ","ALLEY":" ","HOUSE_NO":"５０號之１","E_COORD97":169814.41,"N_COORD97":2543527.6600000001,"ADDRESS":"勝利路５０號之１","OBJECTID":588623},"geometry":{"x":169814.41000000201,"y":2543527.6600000001}},{"attributes":{"ID":588651,"DIS_CODE":0,"TOWNNAME":"東區","LI":"中西里","LIN":"8鄰","STREET":"勝利路","SECT":" ","MAREA":" ","LANE":" ","ALLEY":" ","HOUSE_NO":"５０號之２","E_COORD97":169815.31,"N_COORD97":2543537.21,"ADDRESS":"勝利路５０號之２","OBJECTID":588624},"geometry":{"x":169815.30999999959,"y":2543537.2100000028}},{"attributes":{"ID":588652,"DIS_CODE":0,"TOWNNAME":"東區","LI":"中西里","LIN":"8鄰","STREET":"勝利路","SECT":" ","MAREA":" ","LANE":" ","ALLEY":" ","HOUSE_NO":"５０號之３","E_COORD97":169821.88,"N_COORD97":2543542.5800000001,"ADDRESS":"勝利路５０號之３","OBJECTID":588625},"geometry":{"x":169821.88000000082,"y":2543542.5800000038}},{"attributes":{"ID":588653,"DIS_CODE":0,"TOWNNAME":"東區","LI":"中西里","LIN":"8鄰","STREET":"勝利路","SECT":" ","MAREA":" ","LANE":" ","ALLEY":" ","HOUSE_NO":"５０號之４","E_COORD97":169829.64999999999,"N_COORD97":2543546.46,"ADDRESS":"勝利路５０號之４","OBJECTID":588626},"geometry":{"x":169829.65000000037,"y":2543546.4600000009}},{"attributes":{"ID":588654,"DIS_CODE":0,"TOWNNAME":"東區","LI":"中西里","LIN":"8鄰","STREET":"勝利路","SECT":" ","MAREA":" ","LANE":" ","ALLEY":" ","HOUSE_NO":"５０號之５","E_COORD97":169835.92000000001,"N_COORD97":2543548.5499999998,"ADDRESS":"勝利路５０號之５","OBJECTID":588627},"geometry":{"x":169835.91999999993,"y":2543548.5500000007}},{"attributes":{"ID":588655,"DIS_CODE":0,"TOWNNAME":"中西區","LI":"開山里","LIN":"11鄰","STREET":"府前路","SECT":"一段","MAREA":" ","LANE":" ","ALLEY":" ","HOUSE_NO":"２１號","E_COORD97":169100.48999999999,"N_COORD97":2543245.7599999998,"ADDRESS":"府前路一段２１號","OBJECTID":588628},"geometry":{"x":169100.49000000115,"y":2543245.7600000035}},{"attributes":{"ID":588656,"DIS_CODE":0,"TOWNNAME":"中西區","LI":"開山里","LIN":"11鄰","STREET":"府前路","SECT":"一段","MAREA":" ","LANE":" ","ALLEY":" ","HOUSE_NO":"２３號","E_COORD97":169099.37,"N_COORD97":2543248.5699999998,"ADDRESS":"府前路一段２３號","OBJECTID":588629},"geometry":{"x":169099.37000000104,"y":2543248.5700000022}},{"attributes":{"ID":588657,"DIS_CODE":0,"TOWNNAME":"中西區","LI":"開山里","LIN":"11鄰","STREET":"府前路","SECT":"一段","MAREA":" ","LANE":" ","ALLEY":" ","HOUSE_NO":"２５號","E_COORD97":169097.97,"N_COORD97":2543251.8399999999,"ADDRESS":"府前路一段２５號","OBJECTID":588630},"geometry":{"x":169097.96999999974,"y":2543251.8399999999}},{"attributes":{"ID":588658,"DIS_CODE":0,"TOWNNAME":"中西區","LI":"開山里","LIN":"11鄰","STREET":"府前路","SECT":"一段","MAREA":" ","LANE":" ","ALLEY":" ","HOUSE_NO":"２７號","E_COORD97":169096.56,"N_COORD97":2543255.9500000002,"ADDRESS":"府前路一段２７號","OBJECTID":588631},"geometry":{"x":169096.55999999959,"y":2543255.9499999993}},{"attributes":{"ID":588659,"DIS_CODE":0,"TOWNNAME":"中西區","LI":"開山里","LIN":"11鄰","STREET":"府前路","SECT":"一段","MAREA":" ","LANE":" ","ALLEY":" ","HOUSE_NO":"２９號","E_COORD97":169094.48000000001,"N_COORD97":2543259.2200000002,"ADDRESS":"府前路一段２９號","OBJECTID":588632},"geometry":{"x":169094.48000000138,"y":2543259.2200000007}},{"attributes":{"ID":588660,"DIS_CODE":0,"TOWNNAME":"中西區","LI":"開山里","LIN":"11鄰","STREET":"府前路","SECT":"一段","MAREA":" ","LANE":" ","ALLEY":" ","HOUSE_NO":"３３號","E_COORD97":169088.70000000001,"N_COORD97":2543261.7000000002,"ADDRESS":"府前路一段３３號","OBJECTID":588633},"geometry":{"x":169088.70000000112,"y":2543261.6999999993}},{"attributes":{"ID":588661,"DIS_CODE":0,"TOWNNAME":"中西區","LI":"開山里","LIN":"11鄰","STREET":"府前路","SECT":"一段","MAREA":" ","LANE":" ","ALLEY":" ","HOUSE_NO":"３５號","E_COORD97":169084.73999999999,"N_COORD97":2543261.3700000001,"ADDRESS":"府前路一段３５號","OBJECTID":588634},"geometry":{"x":169084.74000000022,"y":2543261.3700000029}},{"attributes":{"ID":588662,"DIS_CODE":0,"TOWNNAME":"中西區","LI":"開山里","LIN":"11鄰","STREET":"府前路","SECT":"一段","MAREA":" ","LANE":" ","ALLEY":" ","HOUSE_NO":"３７號","E_COORD97":169081.60000000001,"N_COORD97":2543261.8599999999,"ADDRESS":"府前路一段３７號","OBJECTID":588635},"geometry":{"x":169081.59999999963,"y":2543261.8600000031}},{"attributes":{"ID":588663,"DIS_CODE":0,"TOWNNAME":"中西區","LI":"開山里","LIN":"11鄰","STREET":"府前路","SECT":"一段","MAREA":" ","LANE":" ","ALLEY":" ","HOUSE_NO":"３９號","E_COORD97":169078.45999999999,"N_COORD97":2543262.1899999999,"ADDRESS":"府前路一段３９號","OBJECTID":588636},"geometry":{"x":169078.46000000089,"y":2543262.1899999995}},{"attributes":{"ID":588664,"DIS_CODE":0,"TOWNNAME":"中西區","LI":"開山里","LIN":"11鄰","STREET":"大同路","SECT":"一段","MAREA":" ","LANE":" ","ALLEY":" ","HOUSE_NO":"１０號","E_COORD97":169137.13,"N_COORD97":2543198.6899999999,"ADDRESS":"大同路一段１０號","OBJECTID":588637},"geometry":{"x":169137.12999999989,"y":2543198.6900000032}},{"attributes":{"ID":588665,"DIS_CODE":0,"TOWNNAME":"中西區","LI":"開山里","LIN":"11鄰","STREET":"大同路","SECT":"一段","MAREA":" ","LANE":" ","ALLEY":" ","HOUSE_NO":"１２號","E_COORD97":169136.76000000001,"N_COORD97":2543191.4100000001,"ADDRESS":"大同路一段１２號","OBJECTID":588638},"geometry":{"x":169136.75999999885,"y":2543191.410000002}},{"attributes":{"ID":588666,"DIS_CODE":0,"TOWNNAME":"中西區","LI":"開山里","LIN":"11鄰","STREET":"大同路","SECT":"一段","MAREA":" ","LANE":" ","ALLEY":" ","HOUSE_NO":"１４號","E_COORD97":169135.42999999999,"N_COORD97":2543188.0800000001,"ADDRESS":"大同路一段１４號","OBJECTID":588639},"geometry":{"x":169135.4299999997,"y":2543188.0800000001}},{"attributes":{"ID":588667,"DIS_CODE":0,"TOWNNAME":"中西區","LI":"開山里","LIN":"11鄰","STREET":"大同路","SECT":"一段","MAREA":" ","LANE":" ","ALLEY":" ","HOUSE_NO":"１６號","E_COORD97":169134.76000000001,"N_COORD97":2543184.23,"ADDRESS":"大同路一段１６號","OBJECTID":588640},"geometry":{"x":169134.75999999978,"y":2543184.2300000004}},{"attributes":{"ID":588668,"DIS_CODE":0,"TOWNNAME":"中西區","LI":"開山里","LIN":"11鄰","STREET":"大同路","SECT":"一段","MAREA":" ","LANE":" ","ALLEY":" ","HOUSE_NO":"１８號","E_COORD97":169134.63,"N_COORD97":2543179.7000000002,"ADDRESS":"大同路一段１８號","OBJECTID":588641},"geometry":{"x":169134.63000000082,"y":2543179.6999999993}},{"attributes":{"ID":588669,"DIS_CODE":0,"TOWNNAME":"中西區","LI":"開山里","LIN":"11鄰","STREET":"大同路","SECT":"一段","MAREA":" ","LANE":" ","ALLEY":" ","HOUSE_NO":"２０號","E_COORD97":169135.69,"N_COORD97":2543177.04,"ADDRESS":"大同路一段２０號","OBJECTID":588642},"geometry":{"x":169135.69000000041,"y":2543177.040000001}},{"attributes":{"ID":588670,"DIS_CODE":0,"TOWNNAME":"中西區","LI":"開山里","LIN":"11鄰","STREET":"大同路","SECT":"一段","MAREA":" ","LANE":" ","ALLEY":" ","HOUSE_NO":"２號","E_COORD97":169139.72,"N_COORD97":2543213.4900000002,"ADDRESS":"大同路一段２號","OBJECTID":588643},"geometry":{"x":169139.71999999974,"y":2543213.4900000002}},{"attributes":{"ID":588671,"DIS_CODE":0,"TOWNNAME":"中西區","LI":"開山里","LIN":"11鄰","STREET":"大同路","SECT":"一段","MAREA":" ","LANE":" ","ALLEY":" ","HOUSE_NO":"４號","E_COORD97":169138.98000000001,"N_COORD97":2543210.6499999999,"ADDRESS":"大同路一段４號","OBJECTID":588644},"geometry":{"x":169138.98000000045,"y":2543210.6500000022}},{"attributes":{"ID":588672,"DIS_CODE":0,"TOWNNAME":"中西區","LI":"開山里","LIN":"11鄰","STREET":"大同路","SECT":"一段","MAREA":" ","LANE":" ","ALLEY":" ","HOUSE_NO":"６號","E_COORD97":169137.75,"N_COORD97":2543206.9500000002,"ADDRESS":"大同路一段６號","OBJECTID":588645},"geometry":{"x":169137.75000000093,"y":2543206.950000003}},{"attributes":{"ID":588673,"DIS_CODE":0,"TOWNNAME":"中西區","LI":"開山里","LIN":"11鄰","STREET":"大同路","SECT":"一段","MAREA":" ","LANE":" ","ALLEY":" ","HOUSE_NO":"８號","E_COORD97":169137.62,"N_COORD97":2543202.3900000001,"ADDRESS":"大同路一段８號","OBJECTID":588646},"geometry":{"x":169137.62000000011,"y":2543202.3900000025}},{"attributes":{"ID":588674,"DIS_CODE":0,"TOWNNAME":"中西區","LI":"開山里","LIN":"11鄰","STREET":"府前路","SECT":"一段","MAREA":" ","LANE":" ","ALLEY":" ","HOUSE_NO":"１號","E_COORD97":169130.22,"N_COORD97":2543212.0099999998,"ADDRESS":"府前路一段１號","OBJECTID":588647},"geometry":{"x":169130.21999999881,"y":2543212.0099999998}},{"attributes":{"ID":588675,"DIS_CODE":0,"TOWNNAME":"中西區","LI":"開山里","LIN":"11鄰","STREET":"府前路","SECT":"一段","MAREA":" ","LANE":" ","ALLEY":" ","HOUSE_NO":"７號","E_COORD97":169120.44,"N_COORD97":2543220.29,"ADDRESS":"府前路一段７號","OBJECTID":588648},"geometry":{"x":169120.44000000041,"y":2543220.2899999991}},{"attributes":{"ID":588676,"DIS_CODE":0,"TOWNNAME":"中西區","LI":"開山里","LIN":"11鄰","STREET":"府前路","SECT":"一段","MAREA":" ","LANE":" ","ALLEY":" ","HOUSE_NO":"９號","E_COORD97":169117.16,"N_COORD97":2543223.25,"ADDRESS":"府前路一段９號","OBJECTID":588649},"geometry":{"x":169117.16000000015,"y":2543223.2500000019}},{"attributes":{"ID":588677,"DIS_CODE":0,"TOWNNAME":"東區","LI":"南聖里","LIN":"11鄰","STREET":"裕農路","SECT":" ","MAREA":" ","LANE":" ","ALLEY":" ","HOUSE_NO":"８１０號","E_COORD97":172077.29999999999,"N_COORD97":2543265.1800000002,"ADDRESS":"裕農路８１０號","OBJECTID":588650},"geometry":{"x":172077.29999999981,"y":2543265.1799999997}},{"attributes":{"ID":588678,"DIS_CODE":0,"TOWNNAME":"東區","LI":"南聖里","LIN":"11鄰","STREET":"裕農路","SECT":" ","MAREA":" ","LANE":" ","ALLEY":" ","HOUSE_NO":"８１２之１號","E_COORD97":172087.85999999999,"N_COORD97":2543266.5800000001,"ADDRESS":"裕農路８１２之１號","OBJECTID":588651},"geometry":{"x":172087.86000000034,"y":2543266.5800000001}},{"attributes":{"ID":588679,"DIS_CODE":0,"TOWNNAME":"東區","LI":"南聖里","LIN":"11鄰","STREET":"裕農路","SECT":" ","MAREA":" ","LANE":" ","ALLEY":" ","HOUSE_NO":"８１２號","E_COORD97":172082.29000000001,"N_COORD97":2543265.7599999998,"ADDRESS":"裕農路８１２號","OBJECTID":588652},"geometry":{"x":172082.29000000097,"y":2543265.7599999998}},{"attributes":{"ID":588680,"DIS_CODE":0,"TOWNNAME":"東區","LI":"泉南里","LIN":"11鄰","STREET":"府連路","SECT":" ","MAREA":" ","LANE":" ","ALLEY":" ","HOUSE_NO":"３２１號","E_COORD97":169569.39000000001,"N_COORD97":2542858.1499999999,"ADDRESS":"府連路３２１號","OBJECTID":588653},"geometry":{"x":169569.38999999966,"y":2542858.1500000022}},{"attributes":{"ID":588681,"DIS_CODE":0,"TOWNNAME":"東區","LI":"崇德里","LIN":"11鄰","STREET":"崇德十街","SECT":" ","MAREA":" ","LANE":" ","ALLEY":" ","HOUSE_NO":"３１之１號","E_COORD97":170894.04000000001,"N_COORD97":2541518.6499999999,"ADDRESS":"崇德十街３１之１號","OBJECTID":588654},"geometry":{"x":170894.04000000004,"y":2541518.6500000022}},{"attributes":{"ID":588682,"DIS_CODE":0,"TOWNNAME":"東區","LI":"圍下里","LIN":"11鄰","STREET":"青年路","SECT":" ","MAREA":" ","LANE":" ","ALLEY":" ","HOUSE_NO":"２７７號","E_COORD97":169353.39000000001,"N_COORD97":2543564.1600000001,"ADDRESS":"青年路２７７號","OBJECTID":588655},"geometry":{"x":169353.3900000006,"y":2543564.1600000001}},{"attributes":{"ID":588683,"DIS_CODE":0,"TOWNNAME":"東區","LI":"圍下里","LIN":"11鄰","STREET":"青年路","SECT":" ","MAREA":" ","LANE":" ","ALLEY":" ","HOUSE_NO":"２８１號","E_COORD97":169359.79000000001,"N_COORD97":2543563.7200000002,"ADDRESS":"青年路２８１號","OBJECTID":588656},"geometry":{"x":169359.79000000097,"y":2543563.7200000025}},{"attributes":{"ID":588684,"DIS_CODE":0,"TOWNNAME":"東區","LI":"圍下里","LIN":"11鄰","STREET":"青年路","SECT":" ","MAREA":" ","LANE":" ","ALLEY":" ","HOUSE_NO":"２８３號","E_COORD97":169363.87,"N_COORD97":2543561.4100000001,"ADDRESS":"青年路２８３號","OBJECTID":588657},"geometry":{"x":169363.87000000104,"y":2543561.410000002}},{"attributes":{"ID":588685,"DIS_CODE":0,"TOWNNAME":"東區","LI":"圍下里","LIN":"11鄰","STREET":"青年路","SECT":" ","MAREA":" ","LANE":" ","ALLEY":" ","HOUSE_NO":"２８５號","E_COORD97":169366.95999999999,"N_COORD97":2543563.3900000001,"ADDRESS":"青年路２８５號","OBJECTID":588658},"geometry":{"x":169366.96000000089,"y":2543563.3900000006}},{"attributes":{"ID":588686,"DIS_CODE":0,"TOWNNAME":"東區","LI":"復興里","LIN":"11鄰","STREET":"裕忠路","SECT":" ","MAREA":" ","LANE":" ","ALLEY":" ","HOUSE_NO":"４５６號","E_COORD97":172242.31,"N_COORD97":2542306.1600000001,"ADDRESS":"裕忠路４５６號","OBJECTID":588659},"geometry":{"x":172242.31000000052,"y":2542306.1600000001}},{"attributes":{"ID":588687,"DIS_CODE":0,"TOWNNAME":"東區","LI":"復興里","LIN":"11鄰","STREET":"裕忠二街","SECT":" ","MAREA":" ","LANE":" ","ALLEY":" ","HOUSE_NO":"３號","E_COORD97":172227.72,"N_COORD97":2542244.6299999999,"ADDRESS":"裕忠二街３號","OBJECTID":588660},"geometry":{"x":172227.72000000067,"y":2542244.629999999}},{"attributes":{"ID":588688,"DIS_CODE":0,"TOWNNAME":"東區","LI":"復興里","LIN":"11鄰","STREET":"裕忠路","SECT":" ","MAREA":" ","LANE":" ","ALLEY":" ","HOUSE_NO":"５０８號","E_COORD97":172241.66,"N_COORD97":2542241.8599999999,"ADDRESS":"裕忠路５０８號","OBJECTID":588661},"geometry":{"x":172241.66000000015,"y":2542241.8600000013}},{"attributes":{"ID":588689,"DIS_CODE":0,"TOWNNAME":"東區","LI":"復興里","LIN":"11鄰","STREET":"裕忠三街","SECT":" ","MAREA":" ","LANE":" ","ALLEY":" ","HOUSE_NO":"１２號","E_COORD97":172215,"N_COORD97":2542206.8700000001,"ADDRESS":"裕忠三街１２號","OBJECTID":588662},"geometry":{"x":172215,"y":2542206.8700000029}},{"attributes":{"ID":588690,"DIS_CODE":0,"TOWNNAME":"東區","LI":"仁和里","LIN":"11鄰","STREET":"自由路","SECT":"一段","MAREA":" ","LANE":" ","ALLEY":" ","HOUSE_NO":"２０５號","E_COORD97":171816.62,"N_COORD97":2541110.0899999999,"ADDRESS":"自由路一段２０５號","OBJECTID":588663},"geometry":{"x":171816.62000000197,"y":2541110.0899999999}},{"attributes":{"ID":588691,"DIS_CODE":0,"TOWNNAME":"東區","LI":"和平里","LIN":"11鄰","STREET":"仁和路","SECT":" ","MAREA":" ","LANE":" ","ALLEY":" ","HOUSE_NO":"１０５號之１","E_COORD97":171342.45000000001,"N_COORD97":2541367.0899999999,"ADDRESS":"仁和路１０５號之１","OBJECTID":588664},"geometry":{"x":171342.45000000019,"y":2541367.0900000017}},{"attributes":{"ID":588692,"DIS_CODE":0,"TOWNNAME":"東區","LI":"和平里","LIN":"11鄰","STREET":"仁和路","SECT":" ","MAREA":" ","LANE":" ","ALLEY":" ","HOUSE_NO":"９９號之６","E_COORD97":171355.64000000001,"N_COORD97":2541371.96,"ADDRESS":"仁和路９９號之６","OBJECTID":588665},"geometry":{"x":171355.6400000006,"y":2541371.9600000028}},{"attributes":{"ID":588693,"DIS_CODE":0,"TOWNNAME":"東區","LI":"和平里","LIN":"11鄰","STREET":"仁和路","SECT":" ","MAREA":" ","LANE":" ","ALLEY":" ","HOUSE_NO":"９９號之５","E_COORD97":171355.35000000001,"N_COORD97":2541375.3999999999,"ADDRESS":"仁和路９９號之５","OBJECTID":588666},"geometry":{"x":171355.35000000056,"y":2541375.4000000022}},{"attributes":{"ID":588694,"DIS_CODE":0,"TOWNNAME":"東區","LI":"和平里","LIN":"11鄰","STREET":"仁和路","SECT":" ","MAREA":" ","LANE":" ","ALLEY":" ","HOUSE_NO":"１０３號之１","E_COORD97":171339.57999999999,"N_COORD97":2541370.8100000001,"ADDRESS":"仁和路１０３號之１","OBJECTID":588667},"geometry":{"x":171339.58000000101,"y":2541370.8100000005}},{"attributes":{"ID":588695,"DIS_CODE":0,"TOWNNAME":"東區","LI":"裕農里","LIN":"11鄰","STREET":"東寧路","SECT":" ","MAREA":" ","LANE":" ","ALLEY":" ","HOUSE_NO":"４９４號","E_COORD97":171089.20999999999,"N_COORD97":2543290.8599999999,"ADDRESS":"東寧路４９４號","OBJECTID":588668},"geometry":{"x":171089.21000000089,"y":2543290.8599999994}},{"attributes":{"ID":588696,"DIS_CODE":0,"TOWNNAME":"東區","LI":"忠孝里","LIN":"24鄰","STREET":"崇明四街","SECT":" ","MAREA":" ","LANE":" ","ALLEY":" ","HOUSE_NO":"２８號","E_COORD97":169647.67000000001,"N_COORD97":2542298.3500000001,"ADDRESS":"崇明四街２８號","OBJECTID":588669},"geometry":{"x":169647.66999999993,"y":2542298.3499999996}},{"attributes":{"ID":588697,"DIS_CODE":0,"TOWNNAME":"東區","LI":"忠孝里","LIN":"24鄰","STREET":"崇明四街","SECT":" ","MAREA":" ","LANE":" ","ALLEY":" ","HOUSE_NO":"３０號","E_COORD97":169652.51999999999,"N_COORD97":2542299.8599999999,"ADDRESS":"崇明四街３０號","OBJECTID":588670},"geometry":{"x":169652.52000000048,"y":2542299.8600000013}},{"attributes":{"ID":588698,"DIS_CODE":0,"TOWNNAME":"東區","LI":"忠孝里","LIN":"24鄰","STREET":"崇明四街","SECT":" ","MAREA":" ","LANE":" ","ALLEY":" ","HOUSE_NO":"３２號","E_COORD97":169656.16,"N_COORD97":2542301.0699999998,"ADDRESS":"崇明四街３２號","OBJECTID":588671},"geometry":{"x":169656.16000000015,"y":2542301.0700000003}},{"attributes":{"ID":588699,"DIS_CODE":0,"TOWNNAME":"東區","LI":"忠孝里","LIN":"24鄰","STREET":"崇明四街","SECT":" ","MAREA":" ","LANE":" ","ALLEY":" ","HOUSE_NO":"３４號","E_COORD97":169660.39999999999,"N_COORD97":2542302.2799999998,"ADDRESS":"崇明四街３４號","OBJECTID":588672},"geometry":{"x":169660.40000000224,"y":2542302.2799999993}},{"attributes":{"ID":588700,"DIS_CODE":0,"TOWNNAME":"東區","LI":"忠孝里","LIN":"24鄰","STREET":"崇明五街","SECT":" ","MAREA":" ","LANE":" ","ALLEY":" ","HOUSE_NO":"２９號","E_COORD97":169651.73999999999,"N_COORD97":2542260.5499999998,"ADDRESS":"崇明五街２９號","OBJECTID":588673},"geometry":{"x":169651.74000000115,"y":2542260.5500000007}},{"attributes":{"ID":588701,"DIS_CODE":0,"TOWNNAME":"東區","LI":"忠孝里","LIN":"24鄰","STREET":"崇明五街","SECT":" ","MAREA":" ","LANE":" ","ALLEY":" ","HOUSE_NO":"３１號","E_COORD97":169661.04999999999,"N_COORD97":2542263.4399999999,"ADDRESS":"崇明五街３１號","OBJECTID":588674},"geometry":{"x":169661.05000000075,"y":2542263.4399999995}},{"attributes":{"ID":588702,"DIS_CODE":0,"TOWNNAME":"東區","LI":"中西里","LIN":"8鄰","STREET":"勝利路","SECT":" ","MAREA":" ","LANE":" ","ALLEY":" ","HOUSE_NO":"５０號地下二層","E_COORD97":169830.25,"N_COORD97":2543536.9100000001,"ADDRESS":"勝利路５０號地下二層","OBJECTID":588675},"geometry":{"x":169830.25,"y":2543536.9100000039}},{"attributes":{"ID":588703,"DIS_CODE":0,"TOWNNAME":"東區","LI":"中西里","LIN":"8鄰","STREET":"勝利路","SECT":" ","MAREA":" ","LANE":" ","ALLEY":" ","HOUSE_NO":"５０號地下二層之１","E_COORD97":169830.25,"N_COORD97":2543536.9100000001,"ADDRESS":"勝利路５０號地下二層之１","OBJECTID":588676},"geometry":{"x":169830.25,"y":2543536.9100000039}},{"attributes":{"ID":588704,"DIS_CODE":0,"TOWNNAME":"東區","LI":"中西里","LIN":"11鄰","STREET":"東寧路","SECT":" ","MAREA":" ","LANE":" ","ALLEY":" ","HOUSE_NO":"２號","E_COORD97":169842.37,"N_COORD97":2543634.1000000001,"ADDRESS":"東寧路２號","OBJECTID":588677},"geometry":{"x":169842.37000000104,"y":2543634.1000000015}},{"attributes":{"ID":588705,"DIS_CODE":0,"TOWNNAME":"永康區","LI":"西橋里","LIN":"11鄰","STREET":"大橋一街","SECT":" ","MAREA":" ","LANE":" ","ALLEY":" ","HOUSE_NO":"４號","E_COORD97":170580.56,"N_COORD97":2546151.6600000001,"ADDRESS":"大橋一街４號","OBJECTID":588678},"geometry":{"x":170580.55999999866,"y":2546151.6600000001}},{"attributes":{"ID":588706,"DIS_CODE":0,"TOWNNAME":"永康區","LI":"西灣里","LIN":"11鄰","STREET":"大灣五街","SECT":" ","MAREA":" ","LANE":" ","ALLEY":" ","HOUSE_NO":"１１７號","E_COORD97":174536.98000000001,"N_COORD97":2545313.2599999998,"ADDRESS":"大灣五街１１７號","OBJECTID":588679},"geometry":{"x":174536.98000000231,"y":2545313.2599999998}},{"attributes":{"ID":588707,"DIS_CODE":0,"TOWNNAME":"永康區","LI":"西勢里","LIN":"11鄰","STREET":"廣盛街","SECT":" ","MAREA":" ","LANE":" ","ALLEY":" ","HOUSE_NO":"１１１號","E_COORD97":176067.56,"N_COORD97":2546627.3300000001,"ADDRESS":"廣盛街１１１號","OBJECTID":588680},"geometry":{"x":176067.55999999959,"y":2546627.3300000019}},{"attributes":{"ID":588708,"DIS_CODE":0,"TOWNNAME":"永康區","LI":"西橋里","LIN":"11鄰","STREET":"大橋一街","SECT":" ","MAREA":" ","LANE":" ","ALLEY":" ","HOUSE_NO":"１８號","E_COORD97":170570.95000000001,"N_COORD97":2546179.9100000001,"ADDRESS":"大橋一街１８號","OBJECTID":588681},"geometry":{"x":170570.95000000112,"y":2546179.9100000001}},{"attributes":{"ID":588709,"DIS_CODE":0,"TOWNNAME":"永康區","LI":"尚頂里","LIN":"11鄰","STREET":"正南一街","SECT":" ","MAREA":" ","LANE":" ","ALLEY":" ","HOUSE_NO":"５３號","E_COORD97":171132.22,"N_COORD97":2547297.8799999999,"ADDRESS":"正南一街５３號","OBJECTID":588682},"geometry":{"x":171132.21999999881,"y":2547297.879999999}},{"attributes":{"ID":588710,"DIS_CODE":0,"TOWNNAME":"永康區","LI":"西灣里","LIN":"11鄰","STREET":"大灣五街","SECT":" ","MAREA":" ","LANE":" ","ALLEY":" ","HOUSE_NO":"１０７號","E_COORD97":174556.82000000001,"N_COORD97":2545284,"ADDRESS":"大灣五街１０７號","OBJECTID":588683},"geometry":{"x":174556.82000000123,"y":2545284}},{"attributes":{"ID":588711,"DIS_CODE":0,"TOWNNAME":"永康區","LI":"西灣里","LIN":"11鄰","STREET":"大灣五街","SECT":" ","MAREA":" ","LANE":" ","ALLEY":" ","HOUSE_NO":"１２３號","E_COORD97":174524.14000000001,"N_COORD97":2545311.5,"ADDRESS":"大灣五街１２３號","OBJECTID":588684},"geometry":{"x":174524.13999999966,"y":2545311.5}},{"attributes":{"ID":588712,"DIS_CODE":0,"TOWNNAME":"永康區","LI":"西橋里","LIN":"11鄰","STREET":"大橋一街","SECT":" ","MAREA":" ","LANE":" ","ALLEY":" ","HOUSE_NO":"２２號","E_COORD97":170566.64999999999,"N_COORD97":2546187.4100000001,"ADDRESS":"大橋一街２２號","OBJECTID":588685},"geometry":{"x":170566.65000000037,"y":2546187.4100000001}},{"attributes":{"ID":588713,"DIS_CODE":0,"TOWNNAME":"永康區","LI":"西勢里","LIN":"11鄰","STREET":"廣興街","SECT":" ","MAREA":" ","LANE":" ","ALLEY":" ","HOUSE_NO":"５５號","E_COORD97":175886.14999999999,"N_COORD97":2546589.5299999998,"ADDRESS":"廣興街５５號","OBJECTID":588686},"geometry":{"x":175886.15000000037,"y":2546589.5299999993}},{"attributes":{"ID":588714,"DIS_CODE":0,"TOWNNAME":"永康區","LI":"西橋里","LIN":"11鄰","STREET":"大橋一街","SECT":" ","MAREA":" ","LANE":" ","ALLEY":" ","HOUSE_NO":"７號","E_COORD97":170562.10999999999,"N_COORD97":2546154.7400000002,"ADDRESS":"大橋一街７號","OBJECTID":588687},"geometry":{"x":170562.11000000034,"y":2546154.7400000002}},{"attributes":{"ID":588715,"DIS_CODE":0,"TOWNNAME":"永康區","LI":"尚頂里","LIN":"11鄰","STREET":"正南一街","SECT":" ","MAREA":" ","LANE":" ","ALLEY":" ","HOUSE_NO":"４７號","E_COORD97":171161.37,"N_COORD97":2547315.4100000001,"ADDRESS":"正南一街４７號","OBJECTID":588688},"geometry":{"x":171161.37000000104,"y":2547315.4100000001}},{"attributes":{"ID":588716,"DIS_CODE":0,"TOWNNAME":"永康區","LI":"西橋里","LIN":"11鄰","STREET":"大橋一街","SECT":" ","MAREA":" ","LANE":" ","ALLEY":" ","HOUSE_NO":"１２號","E_COORD97":170573.39000000001,"N_COORD97":2546166.4100000001,"ADDRESS":"大橋一街１２號","OBJECTID":588689},"geometry":{"x":170573.39000000153,"y":2546166.4100000001}},{"attributes":{"ID":588717,"DIS_CODE":0,"TOWNNAME":"永康區","LI":"西橋里","LIN":"11鄰","STREET":"大橋一街","SECT":" ","MAREA":" ","LANE":" ","ALLEY":" ","HOUSE_NO":"１４號","E_COORD97":170571.5,"N_COORD97":2546169.9100000001,"ADDRESS":"大橋一街１４號","OBJECTID":588690},"geometry":{"x":170571.50000000093,"y":2546169.9100000001}},{"attributes":{"ID":588718,"DIS_CODE":0,"TOWNNAME":"永康區","LI":"西勢里","LIN":"11鄰","STREET":"廣興街","SECT":" ","MAREA":" ","LANE":" ","ALLEY":" ","HOUSE_NO":"４７號","E_COORD97":175865.54000000001,"N_COORD97":2546589.46,"ADDRESS":"廣興街４７號","OBJECTID":588691},"geometry":{"x":175865.54000000097,"y":2546589.4600000028}},{"attributes":{"ID":588719,"DIS_CODE":0,"TOWNNAME":"永康區","LI":"西橋里","LIN":"11鄰","STREET":"大橋一街","SECT":" ","MAREA":" ","LANE":" ","ALLEY":" ","HOUSE_NO":"９號","E_COORD97":170559.92999999999,"N_COORD97":2546158.7400000002,"ADDRESS":"大橋一街９號","OBJECTID":588692},"geometry":{"x":170559.93000000063,"y":2546158.7400000039}},{"attributes":{"ID":588720,"DIS_CODE":0,"TOWNNAME":"永康區","LI":"西勢里","LIN":"11鄰","STREET":"廣興街","SECT":" ","MAREA":" ","LANE":" ","ALLEY":" ","HOUSE_NO":"４５號","E_COORD97":175860.92999999999,"N_COORD97":2546588.96,"ADDRESS":"廣興街４５號","OBJECTID":588693},"geometry":{"x":175860.93000000063,"y":2546588.9600000028}},{"attributes":{"ID":588721,"DIS_CODE":0,"TOWNNAME":"永康區","LI":"西勢里","LIN":"11鄰","STREET":"廣興街","SECT":" ","MAREA":" ","LANE":" ","ALLEY":" ","HOUSE_NO":"６３號","E_COORD97":175903.79999999999,"N_COORD97":2546587.0299999998,"ADDRESS":"廣興街６３號","OBJECTID":588694},"geometry":{"x":175903.80000000168,"y":2546587.0300000012}},{"attributes":{"ID":588722,"DIS_CODE":0,"TOWNNAME":"永康區","LI":"西橋里","LIN":"11鄰","STREET":"大橋一街","SECT":" ","MAREA":" ","LANE":" ","ALLEY":" ","HOUSE_NO":"６號","E_COORD97":170578.79000000001,"N_COORD97":2546155.1600000001,"ADDRESS":"大橋一街６號","OBJECTID":588695},"geometry":{"x":170578.79000000004,"y":2546155.1600000001}},{"attributes":{"ID":588723,"DIS_CODE":0,"TOWNNAME":"永康區","LI":"西勢里","LIN":"11鄰","STREET":"廣盛街","SECT":" ","MAREA":" ","LANE":" ","ALLEY":" ","HOUSE_NO":"１０５號","E_COORD97":176066.17999999999,"N_COORD97":2546615.0800000001,"ADDRESS":"廣盛街１０５號","OBJECTID":588696},"geometry":{"x":176066.18000000063,"y":2546615.0800000019}},{"attributes":{"ID":588724,"DIS_CODE":0,"TOWNNAME":"永康區","LI":"西灣里","LIN":"11鄰","STREET":"大灣五街","SECT":" ","MAREA":" ","LANE":" ","ALLEY":" ","HOUSE_NO":"１０９號","E_COORD97":174558.16,"N_COORD97":2545288.5,"ADDRESS":"大灣五街１０９號","OBJECTID":588697},"geometry":{"x":174558.16000000108,"y":2545288.5}},{"attributes":{"ID":588725,"DIS_CODE":0,"TOWNNAME":"永康區","LI":"西橋里","LIN":"11鄰","STREET":"大橋一街","SECT":" ","MAREA":" ","LANE":" ","ALLEY":" ","HOUSE_NO":"１３號","E_COORD97":170552.48000000001,"N_COORD97":2546163.9900000002,"ADDRESS":"大橋一街１３號","OBJECTID":588698},"geometry":{"x":170552.48000000045,"y":2546163.9900000039}},{"attributes":{"ID":588726,"DIS_CODE":0,"TOWNNAME":"永康區","LI":"西勢里","LIN":"11鄰","STREET":"廣興街","SECT":" ","MAREA":" ","LANE":" ","ALLEY":" ","HOUSE_NO":"９３號","E_COORD97":175989.20000000001,"N_COORD97":2546605.9399999999,"ADDRESS":"廣興街９３號","OBJECTID":588699},"geometry":{"x":175989.20000000019,"y":2546605.9399999995}},{"attributes":{"ID":588727,"DIS_CODE":0,"TOWNNAME":"善化區","LI":"文昌里","LIN":"11鄰","STREET":"自由路","SECT":" ","MAREA":" ","LANE":" ","ALLEY":" ","HOUSE_NO":"１３號","E_COORD97":177422.32000000001,"N_COORD97":2558938.75,"ADDRESS":"自由路１３號","OBJECTID":588700},"geometry":{"x":177422.3200000003,"y":2558938.75}},{"attributes":{"ID":588728,"DIS_CODE":0,"TOWNNAME":"官田區","LI":"隆本里","LIN":"11鄰","STREET":"忠孝街","SECT":" ","MAREA":" ","LANE":" ","ALLEY":" ","HOUSE_NO":"１３２號","E_COORD97":179997.92999999999,"N_COORD97":2566417.27,"ADDRESS":"忠孝街１３２號","OBJECTID":588701},"geometry":{"x":179997.9299999997,"y":2566417.2699999996}},{"attributes":{"ID":588729,"DIS_CODE":0,"TOWNNAME":"官田區","LI":"隆本里","LIN":"11鄰","STREET":"忠孝街","SECT":" ","MAREA":" ","LANE":" ","ALLEY":" ","HOUSE_NO":"１３６號","E_COORD97":179997.03,"N_COORD97":2566421.4300000002,"ADDRESS":"忠孝街１３６號","OBJECTID":588702},"geometry":{"x":179997.03000000119,"y":2566421.4300000034}},{"attributes":{"ID":588730,"DIS_CODE":0,"TOWNNAME":"官田區","LI":"隆本里","LIN":"11鄰","STREET":"忠孝街","SECT":" ","MAREA":" ","LANE":" ","ALLEY":" ","HOUSE_NO":"１３８號","E_COORD97":179996,"N_COORD97":2566425.1299999999,"ADDRESS":"忠孝街１３８號","OBJECTID":588703},"geometry":{"x":179996,"y":2566425.129999999}},{"attributes":{"ID":588731,"DIS_CODE":0,"TOWNNAME":"官田區","LI":"隆本里","LIN":"11鄰","STREET":"忠孝街","SECT":" ","MAREA":" ","LANE":" ","ALLEY":" ","HOUSE_NO":"１４０號","E_COORD97":179994.70999999999,"N_COORD97":2566429.0699999998,"ADDRESS":"忠孝街１４０號","OBJECTID":588704},"geometry":{"x":179994.70999999996,"y":2566429.0700000022}},{"attributes":{"ID":588732,"DIS_CODE":0,"TOWNNAME":"官田區","LI":"隆本里","LIN":"11鄰","STREET":"忠孝街","SECT":" ","MAREA":" ","LANE":" ","ALLEY":" ","HOUSE_NO":"１４２號","E_COORD97":179993.82999999999,"N_COORD97":2566433.0499999998,"ADDRESS":"忠孝街１４２號","OBJECTID":588705},"geometry":{"x":179993.83000000007,"y":2566433.0500000026}},{"attributes":{"ID":588733,"DIS_CODE":0,"TOWNNAME":"官田區","LI":"隆本里","LIN":"11鄰","STREET":"忠孝街","SECT":" ","MAREA":" ","LANE":" ","ALLEY":" ","HOUSE_NO":"１４６號","E_COORD97":179992.67000000001,"N_COORD97":2566437.75,"ADDRESS":"忠孝街１４６號","OBJECTID":588706},"geometry":{"x":179992.67000000086,"y":2566437.7500000019}},{"attributes":{"ID":588734,"DIS_CODE":0,"TOWNNAME":"官田區","LI":"隆本里","LIN":"11鄰","STREET":"忠孝街","SECT":" ","MAREA":" ","LANE":" ","ALLEY":" ","HOUSE_NO":"１４８號","E_COORD97":179991.57999999999,"N_COORD97":2566442.8199999998,"ADDRESS":"忠孝街１４８號","OBJECTID":588707},"geometry":{"x":179991.58000000101,"y":2566442.8199999984}},{"attributes":{"ID":588735,"DIS_CODE":0,"TOWNNAME":"東區","LI":"龍山里","LIN":"12鄰","STREET":"長榮路","SECT":"一段","MAREA":" ","LANE":" ","ALLEY":" ","HOUSE_NO":"２４６號","E_COORD97":169905.42000000001,"N_COORD97":2542945.8799999999,"ADDRESS":"長榮路一段２４６號","OBJECTID":588708},"geometry":{"x":169905.41999999993,"y":2542945.8800000027}},{"attributes":{"ID":588736,"DIS_CODE":0,"TOWNNAME":"東區","LI":"龍山里","LIN":"12鄰","STREET":"長榮路","SECT":"一段","MAREA":" ","LANE":" ","ALLEY":" ","HOUSE_NO":"２４８號","E_COORD97":169907.03,"N_COORD97":2542952.6800000002,"ADDRESS":"長榮路一段２４８號","OBJECTID":588709},"geometry":{"x":169907.03000000119,"y":2542952.6800000016}},{"attributes":{"ID":588737,"DIS_CODE":0,"TOWNNAME":"東區","LI":"龍山里","LIN":"12鄰","STREET":"長榮路","SECT":"一段","MAREA":" ","LANE":" ","ALLEY":" ","HOUSE_NO":"２５０號","E_COORD97":169909.03,"N_COORD97":2542958.2799999998,"ADDRESS":"長榮路一段２５０號","OBJECTID":588710},"geometry":{"x":169909.03000000119,"y":2542958.2800000012}},{"attributes":{"ID":588738,"DIS_CODE":0,"TOWNNAME":"東區","LI":"龍山里","LIN":"12鄰","STREET":"長榮路","SECT":"一段","MAREA":" ","LANE":" ","ALLEY":" ","HOUSE_NO":"２５２號","E_COORD97":169910.63,"N_COORD97":2542964.8700000001,"ADDRESS":"長榮路一段２５２號","OBJECTID":588711},"geometry":{"x":169910.62999999989,"y":2542964.8699999992}},{"attributes":{"ID":588739,"DIS_CODE":0,"TOWNNAME":"東區","LI":"龍山里","LIN":"12鄰","STREET":"長榮路","SECT":"一段","MAREA":" ","LANE":" ","ALLEY":" ","HOUSE_NO":"２５４號","E_COORD97":169912.42999999999,"N_COORD97":2542971.27,"ADDRESS":"長榮路一段２５４號","OBJECTID":588712},"geometry":{"x":169912.43000000063,"y":2542971.2700000014}},{"attributes":{"ID":588740,"DIS_CODE":0,"TOWNNAME":"東區","LI":"龍山里","LIN":"12鄰","STREET":"長榮路","SECT":"一段","MAREA":" ","LANE":" ","ALLEY":" ","HOUSE_NO":"２５６號","E_COORD97":169923.89000000001,"N_COORD97":2542985.9199999999,"ADDRESS":"長榮路一段２５６號","OBJECTID":588713},"geometry":{"x":169923.88999999966,"y":2542985.9199999999}},{"attributes":{"ID":588741,"DIS_CODE":0,"TOWNNAME":"東區","LI":"崇德里","LIN":"21鄰","STREET":"崇德路","SECT":" ","MAREA":" ","LANE":" ","ALLEY":" ","HOUSE_NO":"５５２號","E_COORD97":170767.01999999999,"N_COORD97":2541444.1600000001,"ADDRESS":"崇德路５５２號","OBJECTID":588714},"geometry":{"x":170767.01999999955,"y":2541444.160000002}},{"attributes":{"ID":588742,"DIS_CODE":0,"TOWNNAME":"東區","LI":"崇誨里","LIN":"29鄰","STREET":"裕豐街","SECT":" ","MAREA":" ","LANE":" ","ALLEY":" ","HOUSE_NO":"２４１號","E_COORD97":170803.79000000001,"N_COORD97":2543359.9199999999,"ADDRESS":"裕豐街２４１號","OBJECTID":588715},"geometry":{"x":170803.79000000097,"y":2543359.9199999999}},{"attributes":{"ID":588743,"DIS_CODE":0,"TOWNNAME":"新化區","LI":"豐榮里","LIN":"11鄰","STREET":"信義路","SECT":" ","MAREA":" ","LANE":" ","ALLEY":" ","HOUSE_NO":"４６５號","E_COORD97":178343.63,"N_COORD97":2548293.25,"ADDRESS":"信義路４６５號","OBJECTID":588716},"geometry":{"x":178343.62999999989,"y":2548293.25}},{"attributes":{"ID":588744,"DIS_CODE":0,"TOWNNAME":"新化區","LI":"太平里","LIN":"11鄰","STREET":"民權街","SECT":" ","MAREA":" ","LANE":" ","ALLEY":" ","HOUSE_NO":"１９３號","E_COORD97":178695.81,"N_COORD97":2548944.25,"ADDRESS":"民權街１９３號","OBJECTID":588717},"geometry":{"x":178695.81000000052,"y":2548944.25}},{"attributes":{"ID":588745,"DIS_CODE":0,"TOWNNAME":"新化區","LI":"太平里","LIN":"11鄰","STREET":"正新北路","SECT":" ","MAREA":" ","LANE":" ","ALLEY":" ","HOUSE_NO":"４１號","E_COORD97":178636.42000000001,"N_COORD97":2549043.2000000002,"ADDRESS":"正新北路４１號","OBJECTID":588718},"geometry":{"x":178636.42000000086,"y":2549043.200000003}},{"attributes":{"ID":588746,"DIS_CODE":0,"TOWNNAME":"新化區","LI":"太平里","LIN":"11鄰","STREET":"正新北路","SECT":" ","MAREA":" ","LANE":" ","ALLEY":" ","HOUSE_NO":"４３號","E_COORD97":178633.32999999999,"N_COORD97":2549041.48,"ADDRESS":"正新北路４３號","OBJECTID":588719},"geometry":{"x":178633.33000000101,"y":2549041.4800000004}},{"attributes":{"ID":588747,"DIS_CODE":0,"TOWNNAME":"新化區","LI":"太平里","LIN":"11鄰","STREET":"正新北路","SECT":" ","MAREA":" ","LANE":" ","ALLEY":" ","HOUSE_NO":"４５號","E_COORD97":178630.26000000001,"N_COORD97":2549039.9500000002,"ADDRESS":"正新北路４５號","OBJECTID":588720},"geometry":{"x":178630.26000000071,"y":2549039.9499999993}},{"attributes":{"ID":588748,"DIS_CODE":0,"TOWNNAME":"新化區","LI":"太平里","LIN":"11鄰","STREET":"正新北路","SECT":" ","MAREA":" ","LANE":" ","ALLEY":" ","HOUSE_NO":"４７號","E_COORD97":178627.01999999999,"N_COORD97":2549038.1099999999,"ADDRESS":"正新北路４７號","OBJECTID":588721},"geometry":{"x":178627.02000000048,"y":2549038.1100000013}},{"attributes":{"ID":588749,"DIS_CODE":0,"TOWNNAME":"新化區","LI":"太平里","LIN":"11鄰","STREET":"正新北路","SECT":" ","MAREA":" ","LANE":" ","ALLEY":" ","HOUSE_NO":"４９號","E_COORD97":178624.04000000001,"N_COORD97":2549036.29,"ADDRESS":"正新北路４９號","OBJECTID":588722},"geometry":{"x":178624.04000000097,"y":2549036.290000001}},{"attributes":{"ID":588750,"DIS_CODE":0,"TOWNNAME":"新化區","LI":"太平里","LIN":"11鄰","STREET":"正新北路","SECT":" ","MAREA":" ","LANE":" ","ALLEY":" ","HOUSE_NO":"５１號","E_COORD97":178620.81,"N_COORD97":2549034.54,"ADDRESS":"正新北路５１號","OBJECTID":588723},"geometry":{"x":178620.80999999866,"y":2549034.540000001}},{"attributes":{"ID":588751,"DIS_CODE":0,"TOWNNAME":"新化區","LI":"太平里","LIN":"11鄰","STREET":"正新北路","SECT":" ","MAREA":" ","LANE":" ","ALLEY":" ","HOUSE_NO":"５３號","E_COORD97":178617.60000000001,"N_COORD97":2549032.77,"ADDRESS":"正新北路５３號","OBJECTID":588724},"geometry":{"x":178617.60000000056,"y":2549032.7699999977}},{"attributes":{"ID":588752,"DIS_CODE":0,"TOWNNAME":"新化區","LI":"太平里","LIN":"11鄰","STREET":"正新北路","SECT":" ","MAREA":" ","LANE":" ","ALLEY":" ","HOUSE_NO":"５５號","E_COORD97":178614.69,"N_COORD97":2549031.0099999998,"ADDRESS":"正新北路５５號","OBJECTID":588725},"geometry":{"x":178614.69000000134,"y":2549031.0099999998}},{"attributes":{"ID":588753,"DIS_CODE":0,"TOWNNAME":"新化區","LI":"太平里","LIN":"11鄰","STREET":"正新北路","SECT":" ","MAREA":" ","LANE":" ","ALLEY":" ","HOUSE_NO":"５７號","E_COORD97":178611.45999999999,"N_COORD97":2549029.1699999999,"ADDRESS":"正新北路５７號","OBJECTID":588726},"geometry":{"x":178611.45999999996,"y":2549029.1699999999}},{"attributes":{"ID":588754,"DIS_CODE":0,"TOWNNAME":"新化區","LI":"太平里","LIN":"11鄰","STREET":"正新北路","SECT":" ","MAREA":" ","LANE":" ","ALLEY":" ","HOUSE_NO":"５９號","E_COORD97":178608.32000000001,"N_COORD97":2549027.5699999998,"ADDRESS":"正新北路５９號","OBJECTID":588727},"geometry":{"x":178608.32000000123,"y":2549027.5700000003}},{"attributes":{"ID":588755,"DIS_CODE":0,"TOWNNAME":"新化區","LI":"太平里","LIN":"11鄰","STREET":"正新北路","SECT":" ","MAREA":" ","LANE":" ","ALLEY":" ","HOUSE_NO":"６１號","E_COORD97":178605.06,"N_COORD97":2549025.7000000002,"ADDRESS":"正新北路６１號","OBJECTID":588728},"geometry":{"x":178605.05999999959,"y":2549025.6999999993}},{"attributes":{"ID":588756,"DIS_CODE":0,"TOWNNAME":"新化區","LI":"太平里","LIN":"11鄰","STREET":"正新北路","SECT":" ","MAREA":" ","LANE":" ","ALLEY":" ","HOUSE_NO":"６３號","E_COORD97":178601.89999999999,"N_COORD97":2549023.9199999999,"ADDRESS":"正新北路６３號","OBJECTID":588729},"geometry":{"x":178601.90000000037,"y":2549023.9199999999}},{"attributes":{"ID":588757,"DIS_CODE":0,"TOWNNAME":"新化區","LI":"太平里","LIN":"11鄰","STREET":"正新北路","SECT":" ","MAREA":" ","LANE":" ","ALLEY":" ","HOUSE_NO":"６５號","E_COORD97":178598.69,"N_COORD97":2549022.1899999999,"ADDRESS":"正新北路６５號","OBJECTID":588730},"geometry":{"x":178598.69000000041,"y":2549022.1899999995}},{"attributes":{"ID":588758,"DIS_CODE":0,"TOWNNAME":"新化區","LI":"太平里","LIN":"11鄰","STREET":"正新北路","SECT":" ","MAREA":" ","LANE":" ","ALLEY":" ","HOUSE_NO":"６７號","E_COORD97":178595.60000000001,"N_COORD97":2549020.3900000001,"ADDRESS":"正新北路６７號","OBJECTID":588731},"geometry":{"x":178595.60000000056,"y":2549020.3900000025}},{"attributes":{"ID":588759,"DIS_CODE":0,"TOWNNAME":"新化區","LI":"太平里","LIN":"11鄰","STREET":"正新北路","SECT":" ","MAREA":" ","LANE":" ","ALLEY":" ","HOUSE_NO":"６９號","E_COORD97":178592.54000000001,"N_COORD97":2549018.6299999999,"ADDRESS":"正新北路６９號","OBJECTID":588732},"geometry":{"x":178592.54000000004,"y":2549018.629999999}},{"attributes":{"ID":588760,"DIS_CODE":0,"TOWNNAME":"新化區","LI":"太平里","LIN":"11鄰","STREET":"正新北路","SECT":" ","MAREA":" ","LANE":" ","ALLEY":" ","HOUSE_NO":"７１號","E_COORD97":178589.34,"N_COORD97":2549016.79,"ADDRESS":"正新北路７１號","OBJECTID":588733},"geometry":{"x":178589.34000000078,"y":2549016.790000001}},{"attributes":{"ID":588761,"DIS_CODE":0,"TOWNNAME":"新化區","LI":"太平里","LIN":"11鄰","STREET":"正新北路","SECT":" ","MAREA":" ","LANE":" ","ALLEY":" ","HOUSE_NO":"７３號","E_COORD97":178586,"N_COORD97":2549014.8100000001,"ADDRESS":"正新北路７３號","OBJECTID":588734},"geometry":{"x":178586,"y":2549014.8100000024}},{"attributes":{"ID":588762,"DIS_CODE":0,"TOWNNAME":"新化區","LI":"太平里","LIN":"11鄰","STREET":"正新北路","SECT":" ","MAREA":" ","LANE":" ","ALLEY":" ","HOUSE_NO":"７５號","E_COORD97":178582.92000000001,"N_COORD97":2549012.9700000002,"ADDRESS":"正新北路７５號","OBJECTID":588735},"geometry":{"x":178582.91999999993,"y":2549012.9700000025}},{"attributes":{"ID":588763,"DIS_CODE":0,"TOWNNAME":"新化區","LI":"東榮里","LIN":"11鄰","STREET":"中興路","SECT":" ","MAREA":" ","LANE":" ","ALLEY":" ","HOUSE_NO":"４９１號之１","E_COORD97":180204.26000000001,"N_COORD97":2547755.3199999998,"ADDRESS":"中興路４９１號之１","OBJECTID":588736},"geometry":{"x":180204.25999999978,"y":2547755.320000004}},{"attributes":{"ID":588764,"DIS_CODE":0,"TOWNNAME":"安南區","LI":"城南里","LIN":"11鄰","STREET":"城西街","SECT":"二段","MAREA":" ","LANE":" ","ALLEY":" ","HOUSE_NO":"１０號","E_COORD97":160224.29000000001,"N_COORD97":2551175.3500000001,"ADDRESS":"城西街二段１０號","OBJECTID":588737},"geometry":{"x":160224.29000000097,"y":2551175.3500000034}},{"attributes":{"ID":588765,"DIS_CODE":0,"TOWNNAME":"安南區","LI":"城南里","LIN":"11鄰","STREET":"城西街","SECT":"二段","MAREA":" ","LANE":" ","ALLEY":" ","HOUSE_NO":"１２號","E_COORD97":160224.29000000001,"N_COORD97":2551182.7999999998,"ADDRESS":"城西街二段１２號","OBJECTID":588738},"geometry":{"x":160224.29000000097,"y":2551182.8000000007}},{"attributes":{"ID":588766,"DIS_CODE":0,"TOWNNAME":"安南區","LI":"城南里","LIN":"11鄰","STREET":"城西街","SECT":"二段","MAREA":" ","LANE":" ","ALLEY":" ","HOUSE_NO":"１６號","E_COORD97":160226.03,"N_COORD97":2551191.2400000002,"ADDRESS":"城西街二段１６號","OBJECTID":588739},"geometry":{"x":160226.03000000119,"y":2551191.2400000021}},{"attributes":{"ID":588767,"DIS_CODE":0,"TOWNNAME":"東區","LI":"龍山里","LIN":"12鄰","STREET":"長榮路","SECT":"一段","MAREA":" ","LANE":" ","ALLEY":" ","HOUSE_NO":"２４６號地下一層","E_COORD97":169905.42000000001,"N_COORD97":2542945.8799999999,"ADDRESS":"長榮路一段２４６號地下一層","OBJECTID":588740},"geometry":{"x":169905.41999999993,"y":2542945.8800000027}},{"attributes":{"ID":588768,"DIS_CODE":0,"TOWNNAME":"東區","LI":"龍山里","LIN":"12鄰","STREET":"長榮路","SECT":"一段","MAREA":" ","LANE":" ","ALLEY":" ","HOUSE_NO":"２４６號地下二層","E_COORD97":169905.42000000001,"N_COORD97":2542945.8799999999,"ADDRESS":"長榮路一段２４６號地下二層","OBJECTID":588741},"geometry":{"x":169905.41999999993,"y":2542945.8800000027}},{"attributes":{"ID":588769,"DIS_CODE":0,"TOWNNAME":"安南區","LI":"城南里","LIN":"11鄰","STREET":"城西街","SECT":"二段","MAREA":" ","LANE":" ","ALLEY":" ","HOUSE_NO":"１８號","E_COORD97":160225.78,"N_COORD97":2551198.9300000002,"ADDRESS":"城西街二段１８號","OBJECTID":588742},"geometry":{"x":160225.78000000119,"y":2551198.9300000016}},{"attributes":{"ID":588770,"DIS_CODE":0,"TOWNNAME":"東區","LI":"富強里","LIN":"1鄰","STREET":"裕農路","SECT":" ","MAREA":" ","LANE":" ","ALLEY":" ","HOUSE_NO":"２９４號","E_COORD97":170821.82000000001,"N_COORD97":2542951.29,"ADDRESS":"裕農路２９４號","OBJECTID":588743},"geometry":{"x":170821.8200000003,"y":2542951.290000001}},{"attributes":{"ID":588771,"DIS_CODE":0,"TOWNNAME":"東區","LI":"忠孝里","LIN":"33鄰","STREET":"崇明二街","SECT":" ","MAREA":" ","LANE":" ","ALLEY":" ","HOUSE_NO":"２６號","E_COORD97":169592.85000000001,"N_COORD97":2542386.8399999999,"ADDRESS":"崇明二街２６號","OBJECTID":588744},"geometry":{"x":169592.85000000056,"y":2542386.8399999999}},{"attributes":{"ID":588772,"DIS_CODE":0,"TOWNNAME":"東區","LI":"忠孝里","LIN":"33鄰","STREET":"崇明二街","SECT":" ","MAREA":" ","LANE":" ","ALLEY":" ","HOUSE_NO":"２６號之１","E_COORD97":169591.53,"N_COORD97":2542383.5299999998,"ADDRESS":"崇明二街２６號之１","OBJECTID":588745},"geometry":{"x":169591.53000000212,"y":2542383.5300000012}},{"attributes":{"ID":588773,"DIS_CODE":0,"TOWNNAME":"安南區","LI":"\u25A0南里","LIN":"11鄰","STREET":"環福街","SECT":" ","MAREA":" ","LANE":" ","ALLEY":" ","HOUSE_NO":"１８９號","E_COORD97":170296.23000000001,"N_COORD97":2552621.1299999999,"ADDRESS":"環福街１８９號","OBJECTID":588746},"geometry":{"x":170296.23000000138,"y":2552621.1300000008}},{"attributes":{"ID":588774,"DIS_CODE":0,"TOWNNAME":"安南區","LI":"學東里","LIN":"11鄰","STREET":"公學路","SECT":"六段","MAREA":" ","LANE":" ","ALLEY":" ","HOUSE_NO":"６９６號","E_COORD97":162132.95000000001,"N_COORD97":2553303.6000000001,"ADDRESS":"公學路六段６９６號","OBJECTID":588747},"geometry":{"x":162132.95000000019,"y":2553303.6000000015}},{"attributes":{"ID":588775,"DIS_CODE":0,"TOWNNAME":"安南區","LI":"學東里","LIN":"11鄰","STREET":"公學路","SECT":"六段","MAREA":" ","LANE":" ","ALLEY":" ","HOUSE_NO":"６９８號","E_COORD97":162126.25,"N_COORD97":2553305.1600000001,"ADDRESS":"公學路六段６９８號","OBJECTID":588748},"geometry":{"x":162126.25000000093,"y":2553305.1600000001}},{"attributes":{"ID":588776,"DIS_CODE":0,"TOWNNAME":"安南區","LI":"海南里","LIN":"11鄰","STREET":"府安路","SECT":"七段","MAREA":" ","LANE":" ","ALLEY":" ","HOUSE_NO":"２０號","E_COORD97":166086.98999999999,"N_COORD97":2546007.6600000001,"ADDRESS":"府安路七段２０號","OBJECTID":588749},"geometry":{"x":166086.99000000115,"y":2546007.660000002}},{"attributes":{"ID":588777,"DIS_CODE":0,"TOWNNAME":"安南區","LI":"海南里","LIN":"11鄰","STREET":"府安路","SECT":"七段","MAREA":" ","LANE":" ","ALLEY":" ","HOUSE_NO":"２１號","E_COORD97":166083.06,"N_COORD97":2546005.6600000001,"ADDRESS":"府安路七段２１號","OBJECTID":588750},"geometry":{"x":166083.05999999959,"y":2546005.6600000001}},{"attributes":{"ID":588778,"DIS_CODE":0,"TOWNNAME":"安南區","LI":"海南里","LIN":"11鄰","STREET":"府安路","SECT":"七段","MAREA":" ","LANE":" ","ALLEY":" ","HOUSE_NO":"２４號","E_COORD97":166072.60000000001,"N_COORD97":2545998.5099999998,"ADDRESS":"府安路七段２４號","OBJECTID":588751},"geometry":{"x":166072.59999999963,"y":2545998.5100000016}},{"attributes":{"ID":588779,"DIS_CODE":0,"TOWNNAME":"安南區","LI":"海南里","LIN":"11鄰","STREET":"府安路","SECT":"七段","MAREA":" ","LANE":" ","ALLEY":" ","HOUSE_NO":"２５號","E_COORD97":166069.45000000001,"N_COORD97":2545995.98,"ADDRESS":"府安路七段２５號","OBJECTID":588752},"geometry":{"x":166069.45000000205,"y":2545995.9800000023}},{"attributes":{"ID":588780,"DIS_CODE":0,"TOWNNAME":"安南區","LI":"海南里","LIN":"11鄰","STREET":"府安路","SECT":"七段","MAREA":" ","LANE":" ","ALLEY":" ","HOUSE_NO":"２９號","E_COORD97":166054.72,"N_COORD97":2545984.46,"ADDRESS":"府安路七段２９號","OBJECTID":588753},"geometry":{"x":166054.71999999974,"y":2545984.4600000009}},{"attributes":{"ID":588781,"DIS_CODE":0,"TOWNNAME":"安南區","LI":"海南里","LIN":"11鄰","STREET":"府安路","SECT":"七段","MAREA":" ","LANE":" ","ALLEY":" ","HOUSE_NO":"３０號","E_COORD97":166051.89000000001,"N_COORD97":2545981.1499999999,"ADDRESS":"府安路七段３０號","OBJECTID":588754},"geometry":{"x":166051.88999999966,"y":2545981.1500000022}},{"attributes":{"ID":588782,"DIS_CODE":0,"TOWNNAME":"安南區","LI":"海南里","LIN":"11鄰","STREET":"府安路","SECT":"七段","MAREA":" ","LANE":" ","ALLEY":" ","HOUSE_NO":"３１號","E_COORD97":166048.17999999999,"N_COORD97":2545978.3199999998,"ADDRESS":"府安路七段３１號","OBJECTID":588755},"geometry":{"x":166048.1799999997,"y":2545978.3200000003}},{"attributes":{"ID":588783,"DIS_CODE":0,"TOWNNAME":"安南區","LI":"海南里","LIN":"11鄰","STREET":"府安路","SECT":"七段","MAREA":" ","LANE":" ","ALLEY":" ","HOUSE_NO":"３２號","E_COORD97":166044.51999999999,"N_COORD97":2545976.4399999999,"ADDRESS":"府安路七段３２號","OBJECTID":588756},"geometry":{"x":166044.52000000142,"y":2545976.4399999995}},{"attributes":{"ID":588784,"DIS_CODE":0,"TOWNNAME":"安南區","LI":"海南里","LIN":"11鄰","STREET":"府安路","SECT":"七段","MAREA":" ","LANE":" ","ALLEY":" ","HOUSE_NO":"３３號","E_COORD97":166041.85999999999,"N_COORD97":2545973.54,"ADDRESS":"府安路七段３３號","OBJECTID":588757},"geometry":{"x":166041.86000000127,"y":2545973.540000001}},{"attributes":{"ID":588785,"DIS_CODE":0,"TOWNNAME":"安南區","LI":"海南里","LIN":"11鄰","STREET":"府安路","SECT":"七段","MAREA":" ","LANE":" ","ALLEY":" ","HOUSE_NO":"３４號","E_COORD97":166038.63,"N_COORD97":2545970.4700000002,"ADDRESS":"府安路七段３４號","OBJECTID":588758},"geometry":{"x":166038.62999999989,"y":2545970.4700000007}},{"attributes":{"ID":588786,"DIS_CODE":0,"TOWNNAME":"東區","LI":"衛國里","LIN":"20鄰","STREET":"林森路","SECT":"二段","MAREA":" ","LANE":" ","ALLEY":" ","HOUSE_NO":"１８８號之１","E_COORD97":170443.48999999999,"N_COORD97":2543288.23,"ADDRESS":"林森路二段１８８號之１","OBJECTID":588759},"geometry":{"x":170443.49000000115,"y":2543288.2300000023}},{"attributes":{"ID":588787,"DIS_CODE":0,"TOWNNAME":"東區","LI":"東光里","LIN":"7鄰","STREET":"東興路","SECT":" ","MAREA":" ","LANE":" ","ALLEY":" ","HOUSE_NO":"２３９號","E_COORD97":171008.66,"N_COORD97":2543923.7400000002,"ADDRESS":"東興路２３９號","OBJECTID":588760},"geometry":{"x":171008.66000000015,"y":2543923.7400000002}},{"attributes":{"ID":588788,"DIS_CODE":0,"TOWNNAME":"東區","LI":"東光里","LIN":"7鄰","STREET":"東興路","SECT":" ","MAREA":" ","LANE":" ","ALLEY":" ","HOUSE_NO":"２４１號","E_COORD97":171009.03,"N_COORD97":2543927.5,"ADDRESS":"東興路２４１號","OBJECTID":588761},"geometry":{"x":171009.03000000119,"y":2543927.5000000019}},{"attributes":{"ID":588789,"DIS_CODE":0,"TOWNNAME":"東區","LI":"東光里","LIN":"7鄰","STREET":"東興路","SECT":" ","MAREA":" ","LANE":" ","ALLEY":" ","HOUSE_NO":"２４３號","E_COORD97":171010.53,"N_COORD97":2543931.8799999999,"ADDRESS":"東興路２４３號","OBJECTID":588762},"geometry":{"x":171010.53000000212,"y":2543931.879999999}},{"attributes":{"ID":588790,"DIS_CODE":0,"TOWNNAME":"東區","LI":"東光里","LIN":"7鄰","STREET":"東興路","SECT":" ","MAREA":" ","LANE":" ","ALLEY":" ","HOUSE_NO":"２４５號","E_COORD97":171010.53,"N_COORD97":2543937.2599999998,"ADDRESS":"東興路２４５號","OBJECTID":588763},"geometry":{"x":171010.53000000212,"y":2543937.2599999979}},{"attributes":{"ID":588791,"DIS_CODE":0,"TOWNNAME":"東區","LI":"東光里","LIN":"7鄰","STREET":"東興路","SECT":" ","MAREA":" ","LANE":" ","ALLEY":" ","HOUSE_NO":"２４７號","E_COORD97":171011.16,"N_COORD97":2543941.6299999999,"ADDRESS":"東興路２４７號","OBJECTID":588764},"geometry":{"x":171011.16000000201,"y":2543941.6300000008}},{"attributes":{"ID":588792,"DIS_CODE":0,"TOWNNAME":"東區","LI":"東光里","LIN":"7鄰","STREET":"東興路","SECT":" ","MAREA":" ","LANE":" ","ALLEY":" ","HOUSE_NO":"２４９號","E_COORD97":171011.79000000001,"N_COORD97":2543946.6400000001,"ADDRESS":"東興路２４９號","OBJECTID":588765},"geometry":{"x":171011.7900000019,"y":2543946.6400000025}},{"attributes":{"ID":588793,"DIS_CODE":0,"TOWNNAME":"東區","LI":"崇明里","LIN":"1鄰","STREET":"中華東路","SECT":"三段","MAREA":" ","LANE":" ","ALLEY":" ","HOUSE_NO":"５４１號","E_COORD97":169591.73000000001,"N_COORD97":2541438,"ADDRESS":"中華東路三段５４１號","OBJECTID":588766},"geometry":{"x":169591.73000000045,"y":2541438.0000000019}},{"attributes":{"ID":588794,"DIS_CODE":0,"TOWNNAME":"東區","LI":"莊敬里","LIN":"10鄰","STREET":"東光路","SECT":"二段","MAREA":" ","LANE":" ","ALLEY":" ","HOUSE_NO":"６６號","E_COORD97":171233.17000000001,"N_COORD97":2544147.1000000001,"ADDRESS":"東光路二段６６號","OBJECTID":588767},"geometry":{"x":171233.17000000086,"y":2544147.0999999996}},{"attributes":{"ID":588795,"DIS_CODE":0,"TOWNNAME":"東區","LI":"忠孝里","LIN":"9鄰","STREET":"榮譽街","SECT":" ","MAREA":" ","LANE":" ","ALLEY":" ","HOUSE_NO":"８２號","E_COORD97":169738.57999999999,"N_COORD97":2541676.5499999998,"ADDRESS":"榮譽街８２號","OBJECTID":588768},"geometry":{"x":169738.58000000194,"y":2541676.5500000026}},{"attributes":{"ID":588796,"DIS_CODE":0,"TOWNNAME":"東區","LI":"忠孝里","LIN":"9鄰","STREET":"榮譽街","SECT":" ","MAREA":" ","LANE":" ","ALLEY":" ","HOUSE_NO":"８６號","E_COORD97":169745.78,"N_COORD97":2541683.1099999999,"ADDRESS":"榮譽街８６號","OBJECTID":588769},"geometry":{"x":169745.78000000212,"y":2541683.1099999994}},{"attributes":{"ID":588797,"DIS_CODE":0,"TOWNNAME":"東區","LI":"龍山里","LIN":"23鄰","STREET":"府東街","SECT":" ","MAREA":" ","LANE":" ","ALLEY":" ","HOUSE_NO":"４３號","E_COORD97":170011.95999999999,"N_COORD97":2542879.6200000001,"ADDRESS":"府東街４３號","OBJECTID":588770},"geometry":{"x":170011.95999999996,"y":2542879.6200000029}},{"attributes":{"ID":588798,"DIS_CODE":0,"TOWNNAME":"東區","LI":"龍山里","LIN":"23鄰","STREET":"府東街","SECT":" ","MAREA":" ","LANE":" ","ALLEY":" ","HOUSE_NO":"４５號","E_COORD97":170002.67999999999,"N_COORD97":2542881.8399999999,"ADDRESS":"府東街４５號","OBJECTID":588771},"geometry":{"x":170002.68000000063,"y":2542881.8399999999}},{"attributes":{"ID":588799,"DIS_CODE":0,"TOWNNAME":"東區","LI":"龍山里","LIN":"23鄰","STREET":"府東街","SECT":" ","MAREA":" ","LANE":" ","ALLEY":" ","HOUSE_NO":"４７號","E_COORD97":169992.39000000001,"N_COORD97":2542886.8799999999,"ADDRESS":"府東街４７號","OBJECTID":588772},"geometry":{"x":169992.3900000006,"y":2542886.879999999}},{"attributes":{"ID":588800,"DIS_CODE":0,"TOWNNAME":"安南區","LI":"海南里","LIN":"11鄰","STREET":"府安路","SECT":"七段","MAREA":" ","LANE":" ","ALLEY":" ","HOUSE_NO":"３５號","E_COORD97":166034.91,"N_COORD97":2545968.8500000001,"ADDRESS":"府安路七段３５號","OBJECTID":588773},"geometry":{"x":166034.91000000015,"y":2545968.8500000015}},{"attributes":{"ID":588801,"DIS_CODE":0,"TOWNNAME":"安南區","LI":"海南里","LIN":"11鄰","STREET":"府安路","SECT":"七段","MAREA":" ","LANE":" ","ALLEY":" ","HOUSE_NO":"３６號","E_COORD97":166031.44,"N_COORD97":2545966.4300000002,"ADDRESS":"府安路七段３６號","OBJECTID":588774},"geometry":{"x":166031.44000000134,"y":2545966.4299999997}},{"attributes":{"ID":588802,"DIS_CODE":0,"TOWNNAME":"東區","LI":"忠孝里","LIN":"10鄰","STREET":"崇明路","SECT":" ","MAREA":" ","LANE":" ","ALLEY":" ","HOUSE_NO":"３４２號","E_COORD97":170077.88,"N_COORD97":2541937.0800000001,"ADDRESS":"崇明路３４２號","OBJECTID":588775},"geometry":{"x":170077.87999999989,"y":2541937.0800000001}},{"attributes":{"ID":588803,"DIS_CODE":0,"TOWNNAME":"東區","LI":"中西里","LIN":"9鄰","STREET":"勝利路","SECT":" ","MAREA":" ","LANE":" ","ALLEY":" ","HOUSE_NO":"５８號之１","E_COORD97":169823.97,"N_COORD97":2543594.2400000002,"ADDRESS":"勝利路５８號之１","OBJECTID":588776},"geometry":{"x":169823.97000000067,"y":2543594.2400000002}},{"attributes":{"ID":588804,"DIS_CODE":0,"TOWNNAME":"東區","LI":"龍山里","LIN":"23鄰","STREET":"府東街","SECT":" ","MAREA":" ","LANE":" ","ALLEY":" ","HOUSE_NO":"４９號","E_COORD97":169982.70000000001,"N_COORD97":2542888.8999999999,"ADDRESS":"府東街４９號","OBJECTID":588777},"geometry":{"x":169982.70000000112,"y":2542888.9000000004}},{"attributes":{"ID":588805,"DIS_CODE":0,"TOWNNAME":"東區","LI":"東智里","LIN":"12鄰","STREET":"崇德路","SECT":" ","MAREA":" ","LANE":" ","ALLEY":" ","HOUSE_NO":"９４８號","E_COORD97":170773.67000000001,"N_COORD97":2540120.1899999999,"ADDRESS":"崇德路９４８號","OBJECTID":588778},"geometry":{"x":170773.67000000086,"y":2540120.1900000032}},{"attributes":{"ID":588806,"DIS_CODE":0,"TOWNNAME":"東區","LI":"東智里","LIN":"12鄰","STREET":"崇德路","SECT":" ","MAREA":" ","LANE":" ","ALLEY":" ","HOUSE_NO":"９５０號","E_COORD97":170774.81,"N_COORD97":2540096.4300000002,"ADDRESS":"崇德路９５０號","OBJECTID":588779},"geometry":{"x":170774.80999999959,"y":2540096.4300000016}},{"attributes":{"ID":588807,"DIS_CODE":0,"TOWNNAME":"善化區","LI":"西關里","LIN":"11鄰","STREET":"自由路","SECT":" ","MAREA":" ","LANE":" ","ALLEY":" ","HOUSE_NO":"２５２號","E_COORD97":176870.82999999999,"N_COORD97":2559077,"ADDRESS":"自由路２５２號","OBJECTID":588780},"geometry":{"x":176870.83000000101,"y":2559077}},{"attributes":{"ID":588808,"DIS_CODE":0,"TOWNNAME":"善化區","LI":"北關里","LIN":"11鄰","STREET":"博愛路","SECT":" ","MAREA":" ","LANE":" ","ALLEY":" ","HOUSE_NO":"３４號","E_COORD97":177210.12,"N_COORD97":2559239.2599999998,"ADDRESS":"博愛路３４號","OBJECTID":588781},"geometry":{"x":177210.12000000011,"y":2559239.2600000016}},{"attributes":{"ID":588809,"DIS_CODE":0,"TOWNNAME":"善化區","LI":"西關里","LIN":"11鄰","STREET":"自由路","SECT":" ","MAREA":" ","LANE":" ","ALLEY":" ","HOUSE_NO":"２５６號","E_COORD97":176870.95000000001,"N_COORD97":2559081.5,"ADDRESS":"自由路２５６號","OBJECTID":588782},"geometry":{"x":176870.95000000019,"y":2559081.5000000019}},{"attributes":{"ID":588810,"DIS_CODE":0,"TOWNNAME":"善化區","LI":"光文里","LIN":"11鄰","STREET":"民權路","SECT":" ","MAREA":" ","LANE":" ","ALLEY":" ","HOUSE_NO":"５１號","E_COORD97":178623.73000000001,"N_COORD97":2559055.5099999998,"ADDRESS":"民權路５１號","OBJECTID":588783},"geometry":{"x":178623.73000000045,"y":2559055.5099999998}},{"attributes":{"ID":588811,"DIS_CODE":0,"TOWNNAME":"善化區","LI":"光文里","LIN":"11鄰","STREET":"民權路","SECT":" ","MAREA":" ","LANE":" ","ALLEY":" ","HOUSE_NO":"６６號","E_COORD97":178588.42999999999,"N_COORD97":2559075.2599999998,"ADDRESS":"民權路６６號","OBJECTID":588784},"geometry":{"x":178588.43000000063,"y":2559075.2599999979}},{"attributes":{"ID":588812,"DIS_CODE":0,"TOWNNAME":"善化區","LI":"坐駕里","LIN":"11鄰","STREET":"自強路","SECT":" ","MAREA":" ","LANE":" ","ALLEY":" ","HOUSE_NO":"１２４號","E_COORD97":177957.17999999999,"N_COORD97":2558712.75,"ADDRESS":"自強路１２４號","OBJECTID":588785},"geometry":{"x":177957.1799999997,"y":2558712.75}},{"attributes":{"ID":588813,"DIS_CODE":0,"TOWNNAME":"東區","LI":"圍下里","LIN":"19鄰","STREET":"慶東街","SECT":" ","MAREA":" ","LANE":" ","ALLEY":" ","HOUSE_NO":"１３３號","E_COORD97":169657.29000000001,"N_COORD97":2543407.5099999998,"ADDRESS":"慶東街１３３號","OBJECTID":588786},"geometry":{"x":169657.28999999911,"y":2543407.5100000016}},{"attributes":{"ID":588814,"DIS_CODE":0,"TOWNNAME":"善化區","LI":"光文里","LIN":"11鄰","STREET":"民權路","SECT":" ","MAREA":" ","LANE":" ","ALLEY":" ","HOUSE_NO":"７１號","E_COORD97":178578.98000000001,"N_COORD97":2559050.0099999998,"ADDRESS":"民權路７１號","OBJECTID":588787},"geometry":{"x":178578.98000000138,"y":2559050.0100000035}},{"attributes":{"ID":588815,"DIS_CODE":0,"TOWNNAME":"善化區","LI":"光文里","LIN":"11鄰","STREET":"民權路","SECT":" ","MAREA":" ","LANE":" ","ALLEY":" ","HOUSE_NO":"８８號","E_COORD97":178537.92613400001,"N_COORD97":2559067.6519900002,"ADDRESS":"民權路８６號","OBJECTID":588788},"geometry":{"x":178537.92613400053,"y":2559067.6519879997}},{"attributes":{"ID":588816,"DIS_CODE":0,"TOWNNAME":"東區","LI":"崇德里","LIN":"5鄰","STREET":"中華東路","SECT":"三段","MAREA":" ","LANE":" ","ALLEY":" ","HOUSE_NO":"１４５號","E_COORD97":170713.5,"N_COORD97":2542028.5899999999,"ADDRESS":"中華東路三段１４５號","OBJECTID":588789},"geometry":{"x":170713.5,"y":2542028.5899999999}},{"attributes":{"ID":588817,"DIS_CODE":0,"TOWNNAME":"東區","LI":"中西里","LIN":"24鄰","STREET":"長榮路","SECT":"二段","MAREA":" ","LANE":" ","ALLEY":" ","HOUSE_NO":"２５８號","E_COORD97":170191.85000000001,"N_COORD97":2543464.75,"ADDRESS":"長榮路二段２５８號","OBJECTID":588790},"geometry":{"x":170191.84999999963,"y":2543464.7500000019}},{"attributes":{"ID":588818,"DIS_CODE":0,"TOWNNAME":"東區","LI":"崇誨里","LIN":"34鄰","STREET":"東寧路","SECT":" ","MAREA":" ","LANE":" ","ALLEY":" ","HOUSE_NO":"２２６號之１","E_COORD97":170545.23999999999,"N_COORD97":2543462.5,"ADDRESS":"東寧路２２６號之１","OBJECTID":588791},"geometry":{"x":170545.24000000115,"y":2543462.5000000019}},{"attributes":{"ID":588819,"DIS_CODE":0,"TOWNNAME":"東區","LI":"泉南里","LIN":"4鄰","STREET":"府東街","SECT":" ","MAREA":" ","LANE":" ","ALLEY":" ","HOUSE_NO":"１７７號","E_COORD97":169522.51999999999,"N_COORD97":2543048.4900000002,"ADDRESS":"府東街１７７號","OBJECTID":588792},"geometry":{"x":169522.51999999955,"y":2543048.4900000021}},{"attributes":{"ID":588820,"DIS_CODE":0,"TOWNNAME":"東區","LI":"崇誨里","LIN":"34鄰","STREET":"東寧路","SECT":" ","MAREA":" ","LANE":" ","ALLEY":" ","HOUSE_NO":"２２６號之２","E_COORD97":170543.97,"N_COORD97":2543457.5699999998,"ADDRESS":"東寧路２２６號之２","OBJECTID":588793},"geometry":{"x":170543.96999999974,"y":2543457.5700000003}},{"attributes":{"ID":588821,"DIS_CODE":0,"TOWNNAME":"東區","LI":"中西里","LIN":"15鄰","STREET":"長榮路","SECT":"二段","MAREA":" ","LANE":" ","ALLEY":" ","HOUSE_NO":"４１號","E_COORD97":170023.57999999999,"N_COORD97":2543354.1800000002,"ADDRESS":"長榮路二段４１號","OBJECTID":588794},"geometry":{"x":170023.58000000101,"y":2543354.1799999997}},{"attributes":{"ID":588822,"DIS_CODE":0,"TOWNNAME":"東區","LI":"龍山里","LIN":"1鄰","STREET":"崇學路","SECT":" ","MAREA":" ","LANE":" ","ALLEY":" ","HOUSE_NO":"２７１號之７","E_COORD97":170601.26000000001,"N_COORD97":2542558.1099999999,"ADDRESS":"崇學路２７１號之７","OBJECTID":588795},"geometry":{"x":170601.25999999978,"y":2542558.1100000031}},{"attributes":{"ID":588823,"DIS_CODE":0,"TOWNNAME":"東區","LI":"泉南里","LIN":"10鄰","STREET":"樹林街","SECT":"一段","MAREA":" ","LANE":" ","ALLEY":" ","HOUSE_NO":"２２號之１","E_COORD97":169662.45999999999,"N_COORD97":2542922.7999999998,"ADDRESS":"樹林街一段２２號之１","OBJECTID":588796},"geometry":{"x":169662.45999999996,"y":2542922.8000000026}},{"attributes":{"ID":588824,"DIS_CODE":0,"TOWNNAME":"東區","LI":"泉南里","LIN":"23鄰","STREET":"樹林街","SECT":"一段","MAREA":" ","LANE":" ","ALLEY":" ","HOUSE_NO":"１２５號","E_COORD97":169405.95000000001,"N_COORD97":2542990.5899999999,"ADDRESS":"樹林街一段１２５號","OBJECTID":588797},"geometry":{"x":169405.95000000112,"y":2542990.5900000017}},{"attributes":{"ID":588825,"DIS_CODE":0,"TOWNNAME":"東區","LI":"泉南里","LIN":"23鄰","STREET":"樹林街","SECT":"一段","MAREA":" ","LANE":" ","ALLEY":" ","HOUSE_NO":"１２７號","E_COORD97":169402.89000000001,"N_COORD97":2542991.1200000001,"ADDRESS":"樹林街一段１２７號","OBJECTID":588798},"geometry":{"x":169402.88999999966,"y":2542991.1200000029}},{"attributes":{"ID":588826,"DIS_CODE":0,"TOWNNAME":"善化區","LI":"西關里","LIN":"11鄰","STREET":"復興街","SECT":" ","MAREA":" ","LANE":" ","ALLEY":" ","HOUSE_NO":"５０號","E_COORD97":176950.76000000001,"N_COORD97":2559052.5099999998,"ADDRESS":"復興街５０號","OBJECTID":588799},"geometry":{"x":176950.76000000071,"y":2559052.5099999998}},{"attributes":{"ID":588827,"DIS_CODE":0,"TOWNNAME":"善化區","LI":"北關里","LIN":"11鄰","STREET":"進學路","SECT":" ","MAREA":" ","LANE":" ","ALLEY":" ","HOUSE_NO":"３５號之１","E_COORD97":177191.45999999999,"N_COORD97":2559284.52,"ADDRESS":"進學路３５號之１","OBJECTID":588800},"geometry":{"x":177191.46000000089,"y":2559284.5200000014}}]}