{"displayFieldName":"TOWNNAME","fieldAliases":{"ID":"ID","DIS_CODE":"DIS_CODE","TOWNNAME":"TOWNNAME","LI":"LI","LIN":"LIN","STREET":"STREET","SECT":"SECT","MAREA":"MAREA","LANE":"LANE","ALLEY":"ALLEY","HOUSE_NO":"HOUSE_NO","E_COORD97":"E_COORD97","N_COORD97":"N_COORD97","ADDRESS":"ADDRESS","OBJECTID":"OBJECTID"},"geometryType":"esriGeometryPoint","spatialReference":{"wkid":102443,"latestWkid":3826},"fields":[{"name":"ID","type":"esriFieldTypeDouble","alias":"ID"},{"name":"DIS_CODE","type":"esriFieldTypeInteger","alias":"DIS_CODE"},{"name":"TOWNNAME","type":"esriFieldTypeString","alias":"TOWNNAME","length":8},{"name":"LI","type":"esriFieldTypeString","alias":"LI","length":8},{"name":"LIN","type":"esriFieldTypeString","alias":"LIN","length":12},{"name":"STREET","type":"esriFieldTypeString","alias":"STREET","length":20},{"name":"SECT","type":"esriFieldTypeString","alias":"SECT","length":8},{"name":"MAREA","type":"esriFieldTypeString","alias":"MAREA","length":12},{"name":"LANE","type":"esriFieldTypeString","alias":"LANE","length":10},{"name":"ALLEY","type":"esriFieldTypeString","alias":"ALLEY","length":10},{"name":"HOUSE_NO","type":"esriFieldTypeString","alias":"HOUSE_NO","length":20},{"name":"E_COORD97","type":"esriFieldTypeDouble","alias":"E_COORD97"},{"name":"N_COORD97","type":"esriFieldTypeDouble","alias":"N_COORD97"},{"name":"ADDRESS","type":"esriFieldTypeString","alias":"ADDRESS","length":50},{"name":"OBJECTID","type":"esriFieldTypeOID","alias":"OBJECTID"}],"features":[{"attributes":{"ID":280407,"DIS_CODE":0,"TOWNNAME":"北區","LI":"新勝里","LIN":"6鄰","STREET":"北園街","SECT":" ","MAREA":" ","LANE":"５３巷","ALLEY":" ","HOUSE_NO":"５６號","E_COORD97":170254.22,"N_COORD97":2545635.2999999998,"ADDRESS":"北園街５３巷５６號","OBJECTID":280401},"geometry":{"x":170254.2200000016,"y":2545635.3000000007}},{"attributes":{"ID":280408,"DIS_CODE":0,"TOWNNAME":"北區","LI":"文元里","LIN":"6鄰","STREET":"文賢二街","SECT":" ","MAREA":" ","LANE":"４３１巷","ALLEY":" ","HOUSE_NO":"１３號","E_COORD97":167656.79999999999,"N_COORD97":2546072.5699999998,"ADDRESS":"文賢二街４３１巷１３號","OBJECTID":280402},"geometry":{"x":167656.80000000168,"y":2546072.5700000022}},{"attributes":{"ID":280409,"DIS_CODE":0,"TOWNNAME":"北區","LI":"文元里","LIN":"6鄰","STREET":"文賢二街","SECT":" ","MAREA":" ","LANE":"４３１巷","ALLEY":" ","HOUSE_NO":"１１號","E_COORD97":167661.62,"N_COORD97":2546073.0800000001,"ADDRESS":"文賢二街４３１巷１１號","OBJECTID":280403},"geometry":{"x":167661.62000000197,"y":2546073.0800000019}},{"attributes":{"ID":280410,"DIS_CODE":0,"TOWNNAME":"北區","LI":"文元里","LIN":"6鄰","STREET":"文賢二街","SECT":" ","MAREA":" ","LANE":"４３１巷","ALLEY":" ","HOUSE_NO":"９號","E_COORD97":167666.70000000001,"N_COORD97":2546073.3300000001,"ADDRESS":"文賢二街４３１巷９號","OBJECTID":280404},"geometry":{"x":167666.70000000112,"y":2546073.3300000038}},{"attributes":{"ID":280411,"DIS_CODE":0,"TOWNNAME":"北區","LI":"文元里","LIN":"6鄰","STREET":"文賢二街","SECT":" ","MAREA":" ","LANE":"４３１巷","ALLEY":" ","HOUSE_NO":"７號","E_COORD97":167670.76999999999,"N_COORD97":2546073.5899999999,"ADDRESS":"文賢二街４３１巷７號","OBJECTID":280405},"geometry":{"x":167670.77000000048,"y":2546073.5899999999}},{"attributes":{"ID":280412,"DIS_CODE":0,"TOWNNAME":"北區","LI":"成德里","LIN":"6鄰","STREET":"民德路","SECT":" ","MAREA":" ","LANE":"５８巷","ALLEY":" ","HOUSE_NO":"６９號","E_COORD97":168357.14000000001,"N_COORD97":2545453.9500000002,"ADDRESS":"民德路５８巷６９號","OBJECTID":280406},"geometry":{"x":168357.13999999966,"y":2545453.9499999993}},{"attributes":{"ID":280413,"DIS_CODE":0,"TOWNNAME":"北區","LI":"成德里","LIN":"6鄰","STREET":"民德路","SECT":" ","MAREA":" ","LANE":"５８巷","ALLEY":" ","HOUSE_NO":"７１號","E_COORD97":168360.31,"N_COORD97":2545458.3900000001,"ADDRESS":"民德路５８巷７１號","OBJECTID":280407},"geometry":{"x":168360.31000000052,"y":2545458.3900000006}},{"attributes":{"ID":280414,"DIS_CODE":0,"TOWNNAME":"北區","LI":"成德里","LIN":"6鄰","STREET":"民德路","SECT":" ","MAREA":" ","LANE":"５８巷","ALLEY":" ","HOUSE_NO":"７３號","E_COORD97":168363.48999999999,"N_COORD97":2545462.8399999999,"ADDRESS":"民德路５８巷７３號","OBJECTID":280408},"geometry":{"x":168363.49000000115,"y":2545462.8400000036}},{"attributes":{"ID":280415,"DIS_CODE":0,"TOWNNAME":"北區","LI":"成德里","LIN":"6鄰","STREET":"民德路","SECT":" ","MAREA":" ","LANE":"５８巷","ALLEY":" ","HOUSE_NO":"７５號","E_COORD97":168366.35000000001,"N_COORD97":2545466.3300000001,"ADDRESS":"民德路５８巷７５號","OBJECTID":280409},"geometry":{"x":168366.34999999963,"y":2545466.3300000038}},{"attributes":{"ID":280416,"DIS_CODE":0,"TOWNNAME":"南區","LI":"田寮里","LIN":"6鄰","STREET":"新興路","SECT":" ","MAREA":" ","LANE":"２１７巷","ALLEY":" ","HOUSE_NO":"１６號","E_COORD97":167371.07999999999,"N_COORD97":2541916.3999999999,"ADDRESS":"新興路２１７巷１６號","OBJECTID":280410},"geometry":{"x":167371.08000000101,"y":2541916.4000000041}},{"attributes":{"ID":280417,"DIS_CODE":0,"TOWNNAME":"南區","LI":"明興里","LIN":"6鄰","STREET":"永仁街","SECT":" ","MAREA":" ","LANE":"３０巷","ALLEY":" ","HOUSE_NO":"３號","E_COORD97":166975.63,"N_COORD97":2540732.7799999998,"ADDRESS":"永仁街３０巷３號","OBJECTID":280411},"geometry":{"x":166975.63000000082,"y":2540732.7799999975}},{"attributes":{"ID":280418,"DIS_CODE":0,"TOWNNAME":"南區","LI":"明興里","LIN":"6鄰","STREET":"永仁街","SECT":" ","MAREA":" ","LANE":"３０巷","ALLEY":" ","HOUSE_NO":"５號","E_COORD97":166976.14000000001,"N_COORD97":2540737.27,"ADDRESS":"永仁街３０巷５號","OBJECTID":280412},"geometry":{"x":166976.14000000153,"y":2540737.2700000014}},{"attributes":{"ID":280419,"DIS_CODE":0,"TOWNNAME":"南區","LI":"明興里","LIN":"6鄰","STREET":"永仁街","SECT":" ","MAREA":" ","LANE":"３０巷","ALLEY":" ","HOUSE_NO":"７號","E_COORD97":166977.75,"N_COORD97":2540743.4100000001,"ADDRESS":"永仁街３０巷７號","OBJECTID":280413},"geometry":{"x":166977.75000000093,"y":2540743.410000002}},{"attributes":{"ID":280420,"DIS_CODE":0,"TOWNNAME":"北區","LI":"三德里","LIN":"6鄰","STREET":"忠義路","SECT":"三段","MAREA":" ","LANE":"３９巷","ALLEY":" ","HOUSE_NO":"１１號","E_COORD97":168491.81,"N_COORD97":2544416.2200000002,"ADDRESS":"忠義路三段３９巷１１號","OBJECTID":280414},"geometry":{"x":168491.80999999959,"y":2544416.2200000007}},{"attributes":{"ID":280421,"DIS_CODE":0,"TOWNNAME":"北區","LI":"三德里","LIN":"6鄰","STREET":"忠義路","SECT":"三段","MAREA":" ","LANE":"３９巷","ALLEY":" ","HOUSE_NO":"１３號","E_COORD97":168497.26000000001,"N_COORD97":2544411.3199999998,"ADDRESS":"忠義路三段３９巷１３號","OBJECTID":280415},"geometry":{"x":168497.25999999978,"y":2544411.3200000003}},{"attributes":{"ID":280422,"DIS_CODE":0,"TOWNNAME":"北區","LI":"三德里","LIN":"6鄰","STREET":"忠義路","SECT":"三段","MAREA":" ","LANE":"３９巷","ALLEY":" ","HOUSE_NO":"１５號","E_COORD97":168482.94,"N_COORD97":2544428.6099999999,"ADDRESS":"忠義路三段３９巷１５號","OBJECTID":280416},"geometry":{"x":168482.94000000041,"y":2544428.6099999994}},{"attributes":{"ID":280423,"DIS_CODE":0,"TOWNNAME":"北區","LI":"三德里","LIN":"6鄰","STREET":"忠義路","SECT":"三段","MAREA":" ","LANE":"３９巷","ALLEY":" ","HOUSE_NO":"１７號","E_COORD97":168490.13,"N_COORD97":2544435.6400000001,"ADDRESS":"忠義路三段３９巷１７號","OBJECTID":280417},"geometry":{"x":168490.12999999989,"y":2544435.6400000025}},{"attributes":{"ID":280424,"DIS_CODE":0,"TOWNNAME":"北區","LI":"三德里","LIN":"6鄰","STREET":"忠義路","SECT":"三段","MAREA":" ","LANE":"３９巷","ALLEY":" ","HOUSE_NO":"１９號","E_COORD97":168495.35000000001,"N_COORD97":2544433.6499999999,"ADDRESS":"忠義路三段３９巷１９號","OBJECTID":280418},"geometry":{"x":168495.35000000149,"y":2544433.6499999985}},{"attributes":{"ID":280425,"DIS_CODE":0,"TOWNNAME":"北區","LI":"安民里","LIN":"6鄰","STREET":"海安路","SECT":"三段","MAREA":" ","LANE":"４１巷","ALLEY":" ","HOUSE_NO":"１６號","E_COORD97":167851.87,"N_COORD97":2544734.4900000002,"ADDRESS":"海安路三段４１巷１６號","OBJECTID":280419},"geometry":{"x":167851.87000000104,"y":2544734.4900000021}},{"attributes":{"ID":280426,"DIS_CODE":0,"TOWNNAME":"北區","LI":"安民里","LIN":"6鄰","STREET":"海安路","SECT":"三段","MAREA":" ","LANE":"４１巷","ALLEY":" ","HOUSE_NO":"１７號","E_COORD97":167849.39000000001,"N_COORD97":2544722.5099999998,"ADDRESS":"海安路三段４１巷１７號","OBJECTID":280420},"geometry":{"x":167849.3900000006,"y":2544722.5100000035}},{"attributes":{"ID":280427,"DIS_CODE":0,"TOWNNAME":"北區","LI":"安民里","LIN":"6鄰","STREET":"海安路","SECT":"三段","MAREA":" ","LANE":"４１巷","ALLEY":" ","HOUSE_NO":"１８號","E_COORD97":167847.70999999999,"N_COORD97":2544736.73,"ADDRESS":"海安路三段４１巷１８號","OBJECTID":280421},"geometry":{"x":167847.71000000089,"y":2544736.7300000023}},{"attributes":{"ID":280428,"DIS_CODE":0,"TOWNNAME":"北區","LI":"安民里","LIN":"6鄰","STREET":"海安路","SECT":"三段","MAREA":" ","LANE":"４１巷","ALLEY":" ","HOUSE_NO":"１９號","E_COORD97":167845.01000000001,"N_COORD97":2544724.1800000002,"ADDRESS":"海安路三段４１巷１９號","OBJECTID":280422},"geometry":{"x":167845.00999999885,"y":2544724.1799999997}},{"attributes":{"ID":280429,"DIS_CODE":0,"TOWNNAME":"北區","LI":"安民里","LIN":"6鄰","STREET":"海安路","SECT":"三段","MAREA":" ","LANE":"４１巷","ALLEY":" ","HOUSE_NO":"１號","E_COORD97":167888.57999999999,"N_COORD97":2544704.1899999999,"ADDRESS":"海安路三段４１巷１號","OBJECTID":280423},"geometry":{"x":167888.58000000007,"y":2544704.1900000013}},{"attributes":{"ID":280430,"DIS_CODE":0,"TOWNNAME":"北區","LI":"安民里","LIN":"6鄰","STREET":"海安路","SECT":"三段","MAREA":" ","LANE":"４１巷","ALLEY":" ","HOUSE_NO":"２１號","E_COORD97":167840.42000000001,"N_COORD97":2544724.1800000002,"ADDRESS":"海安路三段４１巷２１號","OBJECTID":280424},"geometry":{"x":167840.41999999993,"y":2544724.1799999997}},{"attributes":{"ID":280431,"DIS_CODE":0,"TOWNNAME":"北區","LI":"安民里","LIN":"6鄰","STREET":"海安路","SECT":"三段","MAREA":" ","LANE":"４１巷","ALLEY":" ","HOUSE_NO":"２２號","E_COORD97":167840.01999999999,"N_COORD97":2544738.6499999999,"ADDRESS":"海安路三段４１巷２２號","OBJECTID":280425},"geometry":{"x":167840.02000000048,"y":2544738.6500000004}},{"attributes":{"ID":280432,"DIS_CODE":0,"TOWNNAME":"歸仁區","LI":"媽廟里","LIN":"14鄰","STREET":"中正北路","SECT":"三段","MAREA":" ","LANE":" ","ALLEY":" ","HOUSE_NO":"９６號","E_COORD97":177595.91,"N_COORD97":2543743.7200000002,"ADDRESS":"中正北路三段９６號","OBJECTID":280426},"geometry":{"x":177595.91000000108,"y":2543743.7200000025}},{"attributes":{"ID":280433,"DIS_CODE":0,"TOWNNAME":"歸仁區","LI":"沙崙里","LIN":"2鄰","STREET":" ","SECT":" ","MAREA":"二甲","LANE":" ","ALLEY":" ","HOUSE_NO":"１０７號","E_COORD97":178421.63,"N_COORD97":2539276.8900000001,"ADDRESS":"二甲１０７號","OBJECTID":280427},"geometry":{"x":178421.62999999989,"y":2539276.8900000025}},{"attributes":{"ID":280434,"DIS_CODE":0,"TOWNNAME":"北區","LI":"安民里","LIN":"6鄰","STREET":"海安路","SECT":"三段","MAREA":" ","LANE":"４１巷","ALLEY":" ","HOUSE_NO":"２３號","E_COORD97":167836.25,"N_COORD97":2544726.2599999998,"ADDRESS":"海安路三段４１巷２３號","OBJECTID":280428},"geometry":{"x":167836.25,"y":2544726.2599999998}},{"attributes":{"ID":280435,"DIS_CODE":0,"TOWNNAME":"北區","LI":"安民里","LIN":"6鄰","STREET":"海安路","SECT":"三段","MAREA":" ","LANE":"５３巷","ALLEY":" ","HOUSE_NO":"１１號","E_COORD97":167856.04000000001,"N_COORD97":2544746.98,"ADDRESS":"海安路三段５３巷１１號","OBJECTID":280429},"geometry":{"x":167856.04000000097,"y":2544746.9800000042}},{"attributes":{"ID":280436,"DIS_CODE":0,"TOWNNAME":"永康區","LI":"復華里","LIN":"6鄰","STREET":"國華街","SECT":" ","MAREA":" ","LANE":"１０２巷","ALLEY":" ","HOUSE_NO":"９６號三樓之１","E_COORD97":173016.94,"N_COORD97":2546176.0800000001,"ADDRESS":"國華街１０２巷９６號三樓之１","OBJECTID":280430},"geometry":{"x":173016.94000000134,"y":2546176.0800000001}},{"attributes":{"ID":280437,"DIS_CODE":0,"TOWNNAME":"東山區","LI":"南勢里","LIN":"2鄰","STREET":" ","SECT":" ","MAREA":"大洋","LANE":" ","ALLEY":" ","HOUSE_NO":"１９號","E_COORD97":196079.01999999999,"N_COORD97":2574128.9700000002,"ADDRESS":"大洋１９號","OBJECTID":280431},"geometry":{"x":196079.02000000048,"y":2574128.9700000025}},{"attributes":{"ID":280438,"DIS_CODE":0,"TOWNNAME":"歸仁區","LI":"沙崙里","LIN":"2鄰","STREET":" ","SECT":" ","MAREA":"二甲","LANE":" ","ALLEY":" ","HOUSE_NO":"６８號","E_COORD97":178368.07999999999,"N_COORD97":2539287.8900000001,"ADDRESS":"二甲６８號","OBJECTID":280432},"geometry":{"x":178368.08000000007,"y":2539287.8900000006}},{"attributes":{"ID":280439,"DIS_CODE":0,"TOWNNAME":"歸仁區","LI":"沙崙里","LIN":"2鄰","STREET":" ","SECT":" ","MAREA":"二甲","LANE":" ","ALLEY":" ","HOUSE_NO":"４８號","E_COORD97":178354.88,"N_COORD97":2539306.8900000001,"ADDRESS":"二甲４８號","OBJECTID":280433},"geometry":{"x":178354.88000000082,"y":2539306.8900000025}},{"attributes":{"ID":280440,"DIS_CODE":0,"TOWNNAME":"歸仁區","LI":"沙崙里","LIN":"2鄰","STREET":" ","SECT":" ","MAREA":"二甲","LANE":" ","ALLEY":" ","HOUSE_NO":"５３號","E_COORD97":178354.78,"N_COORD97":2539283.8799999999,"ADDRESS":"二甲５３號","OBJECTID":280434},"geometry":{"x":178354.78000000119,"y":2539283.879999999}},{"attributes":{"ID":280441,"DIS_CODE":0,"TOWNNAME":"永康區","LI":"復華里","LIN":"6鄰","STREET":"國華街","SECT":" ","MAREA":" ","LANE":"１０２巷","ALLEY":" ","HOUSE_NO":"９２號七樓之１","E_COORD97":173003.64000000001,"N_COORD97":2546148.5499999998,"ADDRESS":"國華街１０２巷９２號七樓之１","OBJECTID":280435},"geometry":{"x":173003.63999999966,"y":2546148.5500000026}},{"attributes":{"ID":280442,"DIS_CODE":0,"TOWNNAME":"仁德區","LI":"太子里","LIN":"6鄰","STREET":"太子路","SECT":" ","MAREA":" ","LANE":"１９０巷","ALLEY":" ","HOUSE_NO":"４１號一樓","E_COORD97":174307.29999999999,"N_COORD97":2543684.9700000002,"ADDRESS":"太子路１９０巷４１號一樓","OBJECTID":280436},"geometry":{"x":174307.30000000075,"y":2543684.9700000007}},{"attributes":{"ID":280443,"DIS_CODE":0,"TOWNNAME":"仁德區","LI":"太子里","LIN":"6鄰","STREET":"太子路","SECT":" ","MAREA":" ","LANE":"１９０巷","ALLEY":" ","HOUSE_NO":"４１號二樓","E_COORD97":174307.29999999999,"N_COORD97":2543684.9700000002,"ADDRESS":"太子路１９０巷４１號二樓","OBJECTID":280437},"geometry":{"x":174307.30000000075,"y":2543684.9700000007}},{"attributes":{"ID":280444,"DIS_CODE":0,"TOWNNAME":"仁德區","LI":"仁德里","LIN":"6鄰","STREET":"仁德三街","SECT":" ","MAREA":" ","LANE":"９巷","ALLEY":" ","HOUSE_NO":"１號六樓之３","E_COORD97":173326.26000000001,"N_COORD97":2540976.79,"ADDRESS":"仁德三街９巷１號六樓之３","OBJECTID":280438},"geometry":{"x":173326.26000000071,"y":2540976.7900000028}},{"attributes":{"ID":280445,"DIS_CODE":0,"TOWNNAME":"永康區","LI":"五王里","LIN":"6鄰","STREET":"中華二路","SECT":" ","MAREA":" ","LANE":"２０６巷","ALLEY":" ","HOUSE_NO":"６６號五樓之１","E_COORD97":171606.01999999999,"N_COORD97":2545642.54,"ADDRESS":"中華二路２０６巷６６號五樓之１","OBJECTID":280439},"geometry":{"x":171606.01999999955,"y":2545642.5399999991}},{"attributes":{"ID":280446,"DIS_CODE":0,"TOWNNAME":"永康區","LI":"五王里","LIN":"6鄰","STREET":"中華二路","SECT":" ","MAREA":" ","LANE":"２０６巷","ALLEY":" ","HOUSE_NO":"６６號三樓之３","E_COORD97":171606.12,"N_COORD97":2545642.54,"ADDRESS":"中華二路２０６巷６６號三樓之３","OBJECTID":280440},"geometry":{"x":171606.12000000011,"y":2545642.5399999991}},{"attributes":{"ID":280447,"DIS_CODE":0,"TOWNNAME":"永康區","LI":"復華里","LIN":"6鄰","STREET":"國華街","SECT":" ","MAREA":" ","LANE":"１０２巷","ALLEY":" ","HOUSE_NO":"９２號九樓之２","E_COORD97":173003.76999999999,"N_COORD97":2546148.5499999998,"ADDRESS":"國華街１０２巷９２號九樓之２","OBJECTID":280441},"geometry":{"x":173003.77000000048,"y":2546148.5500000026}},{"attributes":{"ID":280448,"DIS_CODE":0,"TOWNNAME":"永康區","LI":"復華里","LIN":"6鄰","STREET":"國華街","SECT":" ","MAREA":" ","LANE":"１０２巷","ALLEY":" ","HOUSE_NO":"１００號九樓之１","E_COORD97":172985.69,"N_COORD97":2546184.3300000001,"ADDRESS":"國華街１０２巷１００號九樓之１","OBJECTID":280442},"geometry":{"x":172985.69000000041,"y":2546184.3300000001}},{"attributes":{"ID":280449,"DIS_CODE":0,"TOWNNAME":"永康區","LI":"復華里","LIN":"6鄰","STREET":"國華街","SECT":" ","MAREA":" ","LANE":"１０２巷","ALLEY":" ","HOUSE_NO":"９８號七樓之２","E_COORD97":173002.07000000001,"N_COORD97":2546180.0800000001,"ADDRESS":"國華街１０２巷９８號七樓之２","OBJECTID":280443},"geometry":{"x":173002.07000000216,"y":2546180.0800000038}},{"attributes":{"ID":280450,"DIS_CODE":0,"TOWNNAME":"北區","LI":"實踐里","LIN":"2鄰","STREET":"長榮路","SECT":"五段","MAREA":" ","LANE":"２４６巷","ALLEY":" ","HOUSE_NO":"５號","E_COORD97":169878.45000000001,"N_COORD97":2545945.2000000002,"ADDRESS":"長榮路五段２４６巷５號","OBJECTID":280444},"geometry":{"x":169878.45000000205,"y":2545945.2000000011}},{"attributes":{"ID":280451,"DIS_CODE":0,"TOWNNAME":"北區","LI":"公園里","LIN":"7鄰","STREET":"北忠街","SECT":" ","MAREA":" ","LANE":" ","ALLEY":" ","HOUSE_NO":"６６號","E_COORD97":169108.70999999999,"N_COORD97":2544392.4399999999,"ADDRESS":"北忠街６６號","OBJECTID":280445},"geometry":{"x":169108.71000000183,"y":2544392.4399999995}},{"attributes":{"ID":280452,"DIS_CODE":0,"TOWNNAME":"歸仁區","LI":"新厝里","LIN":"14鄰","STREET":"公園十街","SECT":" ","MAREA":" ","LANE":" ","ALLEY":" ","HOUSE_NO":"１號","E_COORD97":177677.98000000001,"N_COORD97":2540425,"ADDRESS":"公園十街１號","OBJECTID":280446},"geometry":{"x":177677.98000000045,"y":2540425.0000000019}},{"attributes":{"ID":280453,"DIS_CODE":0,"TOWNNAME":"歸仁區","LI":"八甲里","LIN":"2鄰","STREET":"大光街","SECT":" ","MAREA":" ","LANE":" ","ALLEY":" ","HOUSE_NO":"４８之３號","E_COORD97":177949.26999999999,"N_COORD97":2541668.6200000001,"ADDRESS":"大光街４８之３號","OBJECTID":280447},"geometry":{"x":177949.26999999955,"y":2541668.6200000029}},{"attributes":{"ID":280454,"DIS_CODE":0,"TOWNNAME":"永康區","LI":"復華里","LIN":"6鄰","STREET":"國華街","SECT":" ","MAREA":" ","LANE":"１０２巷","ALLEY":" ","HOUSE_NO":"９６號四樓之１","E_COORD97":173016.94,"N_COORD97":2546176.0800000001,"ADDRESS":"國華街１０２巷９６號四樓之１","OBJECTID":280448},"geometry":{"x":173016.94000000134,"y":2546176.0800000001}},{"attributes":{"ID":280455,"DIS_CODE":0,"TOWNNAME":"永康區","LI":"復華里","LIN":"6鄰","STREET":"國華街","SECT":" ","MAREA":" ","LANE":"１０２巷","ALLEY":" ","HOUSE_NO":"９４號六樓之２","E_COORD97":173023.81,"N_COORD97":2546167.79,"ADDRESS":"國華街１０２巷９４號六樓之２","OBJECTID":280449},"geometry":{"x":173023.81000000052,"y":2546167.790000001}},{"attributes":{"ID":280456,"DIS_CODE":0,"TOWNNAME":"永康區","LI":"復華里","LIN":"6鄰","STREET":"國華街","SECT":" ","MAREA":" ","LANE":"１０２巷","ALLEY":" ","HOUSE_NO":"９２號八樓之２","E_COORD97":173003.76999999999,"N_COORD97":2546148.5499999998,"ADDRESS":"國華街１０２巷９２號八樓之２","OBJECTID":280450},"geometry":{"x":173003.77000000048,"y":2546148.5500000026}},{"attributes":{"ID":280457,"DIS_CODE":0,"TOWNNAME":"歸仁區","LI":"沙崙里","LIN":"2鄰","STREET":" ","SECT":" ","MAREA":"二甲","LANE":" ","ALLEY":" ","HOUSE_NO":"６５號","E_COORD97":178368.07999999999,"N_COORD97":2539274.8900000001,"ADDRESS":"二甲６５號","OBJECTID":280451},"geometry":{"x":178368.08000000007,"y":2539274.8900000006}},{"attributes":{"ID":280458,"DIS_CODE":0,"TOWNNAME":"永康區","LI":"復華里","LIN":"6鄰","STREET":"國華街","SECT":" ","MAREA":" ","LANE":"１０２巷","ALLEY":" ","HOUSE_NO":"９２號十一樓之１","E_COORD97":173004.89000000001,"N_COORD97":2546148.5499999998,"ADDRESS":"國華街１０２巷９２號十一樓之１","OBJECTID":280452},"geometry":{"x":173004.8900000006,"y":2546148.5500000026}},{"attributes":{"ID":280459,"DIS_CODE":0,"TOWNNAME":"歸仁區","LI":"沙崙里","LIN":"2鄰","STREET":" ","SECT":" ","MAREA":"二甲","LANE":" ","ALLEY":" ","HOUSE_NO":"１７號","E_COORD97":178440.07999999999,"N_COORD97":2539333.8900000001,"ADDRESS":"二甲１７號","OBJECTID":280453},"geometry":{"x":178440.08000000101,"y":2539333.8900000025}},{"attributes":{"ID":280460,"DIS_CODE":0,"TOWNNAME":"歸仁區","LI":"沙崙里","LIN":"2鄰","STREET":" ","SECT":" ","MAREA":"二甲","LANE":" ","ALLEY":" ","HOUSE_NO":"５９號","E_COORD97":178355.67999999999,"N_COORD97":2539256.8900000001,"ADDRESS":"二甲５９號","OBJECTID":280454},"geometry":{"x":178355.67999999877,"y":2539256.8900000025}},{"attributes":{"ID":280461,"DIS_CODE":0,"TOWNNAME":"歸仁區","LI":"沙崙里","LIN":"2鄰","STREET":" ","SECT":" ","MAREA":"二甲","LANE":" ","ALLEY":" ","HOUSE_NO":"１１５號","E_COORD97":178449.53,"N_COORD97":2539316.8900000001,"ADDRESS":"二甲１１５號","OBJECTID":280455},"geometry":{"x":178449.53000000119,"y":2539316.8900000025}},{"attributes":{"ID":280462,"DIS_CODE":0,"TOWNNAME":"永康區","LI":"復華里","LIN":"6鄰","STREET":"國華街","SECT":" ","MAREA":" ","LANE":"１０２巷","ALLEY":" ","HOUSE_NO":"９２號三樓之２","E_COORD97":173003.76999999999,"N_COORD97":2546148.5499999998,"ADDRESS":"國華街１０２巷９２號三樓之２","OBJECTID":280456},"geometry":{"x":173003.77000000048,"y":2546148.5500000026}},{"attributes":{"ID":280463,"DIS_CODE":0,"TOWNNAME":"永康區","LI":"復華里","LIN":"6鄰","STREET":"國華街","SECT":" ","MAREA":" ","LANE":"１０２巷","ALLEY":" ","HOUSE_NO":"９６號七樓之２","E_COORD97":173017.07000000001,"N_COORD97":2546176.0800000001,"ADDRESS":"國華街１０２巷９６號七樓之２","OBJECTID":280457},"geometry":{"x":173017.0700000003,"y":2546176.0800000001}},{"attributes":{"ID":280464,"DIS_CODE":0,"TOWNNAME":"永康區","LI":"復華里","LIN":"6鄰","STREET":"國華街","SECT":" ","MAREA":" ","LANE":"１０２巷","ALLEY":" ","HOUSE_NO":"９０號十二樓之１","E_COORD97":173009.98999999999,"N_COORD97":2546144.3799999999,"ADDRESS":"國華街１０２巷９０號十二樓之１","OBJECTID":280458},"geometry":{"x":173009.99000000115,"y":2546144.3800000008}},{"attributes":{"ID":280465,"DIS_CODE":0,"TOWNNAME":"永康區","LI":"復華里","LIN":"6鄰","STREET":"國華街","SECT":" ","MAREA":" ","LANE":"１０２巷","ALLEY":" ","HOUSE_NO":"９０號十一樓之３","E_COORD97":173010.09,"N_COORD97":2546144.3799999999,"ADDRESS":"國華街１０２巷９０號十一樓之３","OBJECTID":280459},"geometry":{"x":173010.09000000078,"y":2546144.3800000008}},{"attributes":{"ID":280466,"DIS_CODE":0,"TOWNNAME":"永康區","LI":"復華里","LIN":"6鄰","STREET":"國華街","SECT":" ","MAREA":" ","LANE":"１０２巷","ALLEY":" ","HOUSE_NO":"９６號九樓之１","E_COORD97":173016.94,"N_COORD97":2546176.0800000001,"ADDRESS":"國華街１０２巷９６號九樓之１","OBJECTID":280460},"geometry":{"x":173016.94000000134,"y":2546176.0800000001}},{"attributes":{"ID":280467,"DIS_CODE":0,"TOWNNAME":"永康區","LI":"復華里","LIN":"6鄰","STREET":"國華街","SECT":" ","MAREA":" ","LANE":"１０２巷","ALLEY":" ","HOUSE_NO":"９０號六樓之３","E_COORD97":173008.84,"N_COORD97":2546144.3799999999,"ADDRESS":"國華街１０２巷９０號六樓之３","OBJECTID":280461},"geometry":{"x":173008.84000000078,"y":2546144.3800000008}},{"attributes":{"ID":280468,"DIS_CODE":0,"TOWNNAME":"永康區","LI":"復華里","LIN":"6鄰","STREET":"國華街","SECT":" ","MAREA":" ","LANE":"１０２巷","ALLEY":" ","HOUSE_NO":"９４號六樓之１","E_COORD97":173023.67999999999,"N_COORD97":2546167.79,"ADDRESS":"國華街１０２巷９４號六樓之１","OBJECTID":280462},"geometry":{"x":173023.6799999997,"y":2546167.790000001}},{"attributes":{"ID":280469,"DIS_CODE":0,"TOWNNAME":"永康區","LI":"復華里","LIN":"6鄰","STREET":"國華街","SECT":" ","MAREA":" ","LANE":"１０２巷","ALLEY":" ","HOUSE_NO":"９０號九樓之１","E_COORD97":173008.73999999999,"N_COORD97":2546144.3799999999,"ADDRESS":"國華街１０２巷９０號九樓之１","OBJECTID":280463},"geometry":{"x":173008.74000000022,"y":2546144.3800000008}},{"attributes":{"ID":280470,"DIS_CODE":0,"TOWNNAME":"永康區","LI":"復華里","LIN":"6鄰","STREET":"國華街","SECT":" ","MAREA":" ","LANE":"１０２巷","ALLEY":" ","HOUSE_NO":"９２號三樓之１","E_COORD97":173003.64000000001,"N_COORD97":2546148.5499999998,"ADDRESS":"國華街１０２巷９２號三樓之１","OBJECTID":280464},"geometry":{"x":173003.63999999966,"y":2546148.5500000026}},{"attributes":{"ID":280471,"DIS_CODE":0,"TOWNNAME":"永康區","LI":"復華里","LIN":"6鄰","STREET":"國華街","SECT":" ","MAREA":" ","LANE":"１０２巷","ALLEY":" ","HOUSE_NO":"９０號二樓","E_COORD97":173006.60000000001,"N_COORD97":2546144.3500000001,"ADDRESS":"國華街１０２巷９０號二樓","OBJECTID":280465},"geometry":{"x":173006.60000000056,"y":2546144.3500000015}},{"attributes":{"ID":280472,"DIS_CODE":0,"TOWNNAME":"歸仁區","LI":"八甲里","LIN":"2鄰","STREET":"大光街","SECT":" ","MAREA":" ","LANE":" ","ALLEY":" ","HOUSE_NO":"４６號","E_COORD97":177927.17000000001,"N_COORD97":2541660.6099999999,"ADDRESS":"大光街４６號","OBJECTID":280466},"geometry":{"x":177927.17000000179,"y":2541660.6100000013}},{"attributes":{"ID":280473,"DIS_CODE":0,"TOWNNAME":"歸仁區","LI":"沙崙里","LIN":"2鄰","STREET":" ","SECT":" ","MAREA":"二甲","LANE":" ","ALLEY":" ","HOUSE_NO":"６０號","E_COORD97":178355.57999999999,"N_COORD97":2539252.8900000001,"ADDRESS":"二甲６０號","OBJECTID":280467},"geometry":{"x":178355.58000000101,"y":2539252.8900000025}},{"attributes":{"ID":280474,"DIS_CODE":0,"TOWNNAME":"歸仁區","LI":"西埔里","LIN":"2鄰","STREET":"保大路","SECT":"二段","MAREA":" ","LANE":" ","ALLEY":" ","HOUSE_NO":"１５１號","E_COORD97":176905.12969,"N_COORD97":2544132.8594399998,"ADDRESS":"保大路二段１５１號","OBJECTID":280468},"geometry":{"x":176905.12968999986,"y":2544132.8594399989}},{"attributes":{"ID":280475,"DIS_CODE":0,"TOWNNAME":"永康區","LI":"五王里","LIN":"6鄰","STREET":"中華二路","SECT":" ","MAREA":" ","LANE":"２０６巷","ALLEY":" ","HOUSE_NO":"６６號三樓之１","E_COORD97":171606.01999999999,"N_COORD97":2545642.54,"ADDRESS":"中華二路２０６巷６６號三樓之１","OBJECTID":280469},"geometry":{"x":171606.01999999955,"y":2545642.5399999991}},{"attributes":{"ID":280476,"DIS_CODE":0,"TOWNNAME":"歸仁區","LI":"沙崙里","LIN":"2鄰","STREET":" ","SECT":" ","MAREA":"二甲","LANE":" ","ALLEY":" ","HOUSE_NO":"６６號","E_COORD97":178368.07999999999,"N_COORD97":2539278.8900000001,"ADDRESS":"二甲６６號","OBJECTID":280470},"geometry":{"x":178368.08000000007,"y":2539278.8899999987}},{"attributes":{"ID":280477,"DIS_CODE":0,"TOWNNAME":"永康區","LI":"西灣里","LIN":"44鄰","STREET":"大灣路","SECT":" ","MAREA":" ","LANE":"９４２巷","ALLEY":" ","HOUSE_NO":"５２１號","E_COORD97":173971.51000000001,"N_COORD97":2545533.9700000002,"ADDRESS":"大灣路９４２巷５２１號","OBJECTID":280471},"geometry":{"x":173971.51000000164,"y":2545533.9700000044}},{"attributes":{"ID":280478,"DIS_CODE":0,"TOWNNAME":"新營區","LI":"南興里","LIN":"2鄰","STREET":"建業路","SECT":" ","MAREA":" ","LANE":" ","ALLEY":" ","HOUSE_NO":"２號之８","E_COORD97":179667.18015100001,"N_COORD97":2577584.77574,"ADDRESS":"建業路２號之８","OBJECTID":280472},"geometry":{"x":179667.18015100062,"y":2577584.7757400014}},{"attributes":{"ID":280479,"DIS_CODE":0,"TOWNNAME":"歸仁區","LI":"沙崙里","LIN":"2鄰","STREET":" ","SECT":" ","MAREA":"二甲","LANE":" ","ALLEY":" ","HOUSE_NO":"２８號","E_COORD97":178247.46691799999,"N_COORD97":2539346.0916400002,"ADDRESS":"二甲２８號","OBJECTID":280473},"geometry":{"x":178247.46691800002,"y":2539346.0916380007}},{"attributes":{"ID":280480,"DIS_CODE":0,"TOWNNAME":"歸仁區","LI":"沙崙里","LIN":"2鄰","STREET":" ","SECT":" ","MAREA":"二甲","LANE":" ","ALLEY":" ","HOUSE_NO":"２７號","E_COORD97":178248.31438699999,"N_COORD97":2539336.8841400002,"ADDRESS":"二甲２７號","OBJECTID":280474},"geometry":{"x":178248.3143870011,"y":2539336.8841429986}},{"attributes":{"ID":280481,"DIS_CODE":0,"TOWNNAME":"永康區","LI":"成功里","LIN":"31鄰","STREET":"中華路","SECT":" ","MAREA":" ","LANE":"１３４巷","ALLEY":" ","HOUSE_NO":"８５號","E_COORD97":171804.76000000001,"N_COORD97":2544838.2400000002,"ADDRESS":"中華路１３４巷８５號","OBJECTID":280475},"geometry":{"x":171804.75999999978,"y":2544838.2400000021}},{"attributes":{"ID":280482,"DIS_CODE":0,"TOWNNAME":"永康區","LI":"成功里","LIN":"12鄰","STREET":"忠孝路","SECT":" ","MAREA":" ","LANE":"２０３巷","ALLEY":" ","HOUSE_NO":"４８號","E_COORD97":171968.54999999999,"N_COORD97":2544877.46,"ADDRESS":"忠孝路２０３巷４８號","OBJECTID":280476},"geometry":{"x":171968.54999999981,"y":2544877.4600000028}},{"attributes":{"ID":280483,"DIS_CODE":0,"TOWNNAME":"永康區","LI":"西橋里","LIN":"10鄰","STREET":"中華西街","SECT":" ","MAREA":" ","LANE":"８５巷","ALLEY":" ","HOUSE_NO":"６號","E_COORD97":170691.10000000001,"N_COORD97":2546092.7400000002,"ADDRESS":"中華西街８５巷６號","OBJECTID":280477},"geometry":{"x":170691.10000000056,"y":2546092.7400000002}},{"attributes":{"ID":280484,"DIS_CODE":0,"TOWNNAME":"永康區","LI":"光復里","LIN":"20鄰","STREET":"復興路","SECT":" ","MAREA":" ","LANE":"２１６巷","ALLEY":" ","HOUSE_NO":"１９號","E_COORD97":172514.51999999999,"N_COORD97":2544405.5499999998,"ADDRESS":"復興路２１６巷１９號","OBJECTID":280478},"geometry":{"x":172514.51999999955,"y":2544405.5500000026}},{"attributes":{"ID":280485,"DIS_CODE":0,"TOWNNAME":"永康區","LI":"成功里","LIN":"12鄰","STREET":"忠孝路","SECT":" ","MAREA":" ","LANE":"２０７巷","ALLEY":" ","HOUSE_NO":"４７號","E_COORD97":171958.63,"N_COORD97":2544888.5,"ADDRESS":"忠孝路２０７巷４７號","OBJECTID":280479},"geometry":{"x":171958.63000000175,"y":2544888.5}},{"attributes":{"ID":280486,"DIS_CODE":0,"TOWNNAME":"東區","LI":"泉南里","LIN":"34鄰","STREET":"林森路","SECT":"一段","MAREA":" ","LANE":" ","ALLEY":" ","HOUSE_NO":"１４９號十八樓之９","E_COORD97":169495.73000000001,"N_COORD97":2542552.3999999999,"ADDRESS":"林森路一段１４９號十八樓之９","OBJECTID":280480},"geometry":{"x":169495.73000000138,"y":2542552.4000000004}},{"attributes":{"ID":280487,"DIS_CODE":0,"TOWNNAME":"東山區","LI":"科里里","LIN":"2鄰","STREET":" ","SECT":" ","MAREA":"下庄子","LANE":" ","ALLEY":" ","HOUSE_NO":"１５號","E_COORD97":189596.09,"N_COORD97":2578418.4100000001,"ADDRESS":"下庄子１５號","OBJECTID":280481},"geometry":{"x":189596.09000000078,"y":2578418.410000002}},{"attributes":{"ID":280488,"DIS_CODE":0,"TOWNNAME":"東山區","LI":"科里里","LIN":"2鄰","STREET":" ","SECT":" ","MAREA":"下庄子","LANE":" ","ALLEY":" ","HOUSE_NO":"１６號之１","E_COORD97":189501.67999999999,"N_COORD97":2578465.8700000001,"ADDRESS":"下庄子１６號之１","OBJECTID":280482},"geometry":{"x":189501.68000000156,"y":2578465.8700000048}},{"attributes":{"ID":280489,"DIS_CODE":0,"TOWNNAME":"東山區","LI":"科里里","LIN":"2鄰","STREET":" ","SECT":" ","MAREA":"下庄子","LANE":" ","ALLEY":" ","HOUSE_NO":"１６號","E_COORD97":189545.53,"N_COORD97":2578455.48,"ADDRESS":"下庄子１６號","OBJECTID":280483},"geometry":{"x":189545.52999999933,"y":2578455.4800000023}},{"attributes":{"ID":280490,"DIS_CODE":0,"TOWNNAME":"東山區","LI":"科里里","LIN":"2鄰","STREET":" ","SECT":" ","MAREA":"下庄子","LANE":" ","ALLEY":" ","HOUSE_NO":"１７號","E_COORD97":189490.95999999999,"N_COORD97":2578457.2799999998,"ADDRESS":"下庄子１７號","OBJECTID":280484},"geometry":{"x":189490.95999999996,"y":2578457.2799999993}},{"attributes":{"ID":280491,"DIS_CODE":0,"TOWNNAME":"東山區","LI":"科里里","LIN":"2鄰","STREET":" ","SECT":" ","MAREA":"下庄子","LANE":" ","ALLEY":" ","HOUSE_NO":"１８號","E_COORD97":189531,"N_COORD97":2578412.1099999999,"ADDRESS":"下庄子１８號","OBJECTID":280485},"geometry":{"x":189531.00000000093,"y":2578412.1100000013}},{"attributes":{"ID":280492,"DIS_CODE":0,"TOWNNAME":"東山區","LI":"科里里","LIN":"2鄰","STREET":" ","SECT":" ","MAREA":"下庄子","LANE":" ","ALLEY":" ","HOUSE_NO":"１９號之１","E_COORD97":189562.59,"N_COORD97":2578407.02,"ADDRESS":"下庄子１９號之１","OBJECTID":280486},"geometry":{"x":189562.59000000078,"y":2578407.0200000014}},{"attributes":{"ID":280493,"DIS_CODE":0,"TOWNNAME":"麻豆區","LI":"東角里","LIN":"2鄰","STREET":"忠孝路","SECT":" ","MAREA":" ","LANE":" ","ALLEY":" ","HOUSE_NO":"２０號之４","E_COORD97":173508.13,"N_COORD97":2564979.8900000001,"ADDRESS":"忠孝路２０號之４","OBJECTID":280487},"geometry":{"x":173508.13000000175,"y":2564979.8900000006}},{"attributes":{"ID":280494,"DIS_CODE":0,"TOWNNAME":"東區","LI":"東門里","LIN":"6鄰","STREET":"前鋒路","SECT":" ","MAREA":" ","LANE":"６３巷","ALLEY":" ","HOUSE_NO":"２號三樓","E_COORD97":169269.20000000001,"N_COORD97":2543486.73,"ADDRESS":"前鋒路６３巷２號三樓","OBJECTID":280488},"geometry":{"x":169269.20000000019,"y":2543486.7300000004}},{"attributes":{"ID":280495,"DIS_CODE":0,"TOWNNAME":"東區","LI":"東門里","LIN":"6鄰","STREET":"前鋒路","SECT":" ","MAREA":" ","LANE":"６３巷","ALLEY":" ","HOUSE_NO":"２號五樓","E_COORD97":169269.20000000001,"N_COORD97":2543486.73,"ADDRESS":"前鋒路６３巷２號五樓","OBJECTID":280489},"geometry":{"x":169269.20000000019,"y":2543486.7300000004}},{"attributes":{"ID":280496,"DIS_CODE":0,"TOWNNAME":"佳里區","LI":"東寧里","LIN":"6鄰","STREET":"中山路","SECT":" ","MAREA":" ","LANE":"３４６巷","ALLEY":" ","HOUSE_NO":"１９號三樓","E_COORD97":165756.70000000001,"N_COORD97":2562453.1600000001,"ADDRESS":"中山路３４６巷１９號三樓","OBJECTID":280490},"geometry":{"x":165756.70000000019,"y":2562453.1599999983}},{"attributes":{"ID":280497,"DIS_CODE":0,"TOWNNAME":"佳里區","LI":"東寧里","LIN":"6鄰","STREET":"中山路","SECT":" ","MAREA":" ","LANE":"３４６巷","ALLEY":" ","HOUSE_NO":"１９號四樓","E_COORD97":165756.70000000001,"N_COORD97":2562453.1600000001,"ADDRESS":"中山路３４６巷１９號四樓","OBJECTID":280491},"geometry":{"x":165756.70000000019,"y":2562453.1599999983}},{"attributes":{"ID":280498,"DIS_CODE":0,"TOWNNAME":"中西區","LI":"赤嵌里","LIN":"6鄰","STREET":"廣慈街","SECT":" ","MAREA":" ","LANE":"３２巷","ALLEY":" ","HOUSE_NO":"２號六樓之３","E_COORD97":168687.70999999999,"N_COORD97":2544068.0699999998,"ADDRESS":"廣慈街３２巷２號六樓之３","OBJECTID":280492},"geometry":{"x":168687.70999999996,"y":2544068.070000004}},{"attributes":{"ID":280499,"DIS_CODE":0,"TOWNNAME":"中西區","LI":"赤嵌里","LIN":"6鄰","STREET":"廣慈街","SECT":" ","MAREA":" ","LANE":"３２巷","ALLEY":" ","HOUSE_NO":"２號四樓之１","E_COORD97":168687.70999999999,"N_COORD97":2544068.0699999998,"ADDRESS":"廣慈街３２巷２號四樓之１","OBJECTID":280493},"geometry":{"x":168687.70999999996,"y":2544068.070000004}},{"attributes":{"ID":280500,"DIS_CODE":0,"TOWNNAME":"中西區","LI":"赤嵌里","LIN":"6鄰","STREET":"廣慈街","SECT":" ","MAREA":" ","LANE":"３２巷","ALLEY":" ","HOUSE_NO":"２號四樓之２","E_COORD97":168687.70999999999,"N_COORD97":2544068.0699999998,"ADDRESS":"廣慈街３２巷２號四樓之２","OBJECTID":280494},"geometry":{"x":168687.70999999996,"y":2544068.070000004}},{"attributes":{"ID":280501,"DIS_CODE":0,"TOWNNAME":"中西區","LI":"赤嵌里","LIN":"6鄰","STREET":"廣慈街","SECT":" ","MAREA":" ","LANE":"３２巷","ALLEY":" ","HOUSE_NO":"２號四樓之３","E_COORD97":168687.70999999999,"N_COORD97":2544068.0699999998,"ADDRESS":"廣慈街３２巷２號四樓之３","OBJECTID":280495},"geometry":{"x":168687.70999999996,"y":2544068.070000004}},{"attributes":{"ID":280502,"DIS_CODE":0,"TOWNNAME":"中西區","LI":"赤嵌里","LIN":"6鄰","STREET":"廣慈街","SECT":" ","MAREA":" ","LANE":"３２巷","ALLEY":" ","HOUSE_NO":"２號四樓之４","E_COORD97":168687.70999999999,"N_COORD97":2544068.0699999998,"ADDRESS":"廣慈街３２巷２號四樓之４","OBJECTID":280496},"geometry":{"x":168687.70999999996,"y":2544068.070000004}},{"attributes":{"ID":280503,"DIS_CODE":0,"TOWNNAME":"中西區","LI":"赤嵌里","LIN":"6鄰","STREET":"廣慈街","SECT":" ","MAREA":" ","LANE":"３２巷","ALLEY":" ","HOUSE_NO":"２號四樓之５","E_COORD97":168687.70999999999,"N_COORD97":2544068.0699999998,"ADDRESS":"廣慈街３２巷２號四樓之５","OBJECTID":280497},"geometry":{"x":168687.70999999996,"y":2544068.070000004}},{"attributes":{"ID":280504,"DIS_CODE":0,"TOWNNAME":"永康區","LI":"正強里","LIN":"13鄰","STREET":"自強路","SECT":" ","MAREA":" ","LANE":"１８８巷","ALLEY":" ","HOUSE_NO":"１５號之５","E_COORD97":173218.32000000001,"N_COORD97":2547449.7999999998,"ADDRESS":"自強路１８８巷１５號之５","OBJECTID":280498},"geometry":{"x":173218.3200000003,"y":2547449.8000000007}},{"attributes":{"ID":280505,"DIS_CODE":0,"TOWNNAME":"永康區","LI":"甲頂里","LIN":"6鄰","STREET":"中正南路","SECT":" ","MAREA":" ","LANE":"１６８巷","ALLEY":" ","HOUSE_NO":"４３號","E_COORD97":169947.09,"N_COORD97":2546841.1899999999,"ADDRESS":"中正南路１６８巷４３號","OBJECTID":280499},"geometry":{"x":169947.09000000078,"y":2546841.1900000013}},{"attributes":{"ID":280506,"DIS_CODE":0,"TOWNNAME":"永康區","LI":"成功里","LIN":"42鄰","STREET":"中華路","SECT":" ","MAREA":" ","LANE":"１５４巷","ALLEY":" ","HOUSE_NO":"３４號","E_COORD97":171710.54999999999,"N_COORD97":2544885.75,"ADDRESS":"中華路１５４巷３４號","OBJECTID":280500},"geometry":{"x":171710.55000000075,"y":2544885.75}},{"attributes":{"ID":280507,"DIS_CODE":0,"TOWNNAME":"東山區","LI":"科里里","LIN":"2鄰","STREET":" ","SECT":" ","MAREA":"下庄子","LANE":" ","ALLEY":" ","HOUSE_NO":"１９號","E_COORD97":189553.51999999999,"N_COORD97":2578408.5299999998,"ADDRESS":"下庄子１９號","OBJECTID":280501},"geometry":{"x":189553.52000000142,"y":2578408.5300000031}},{"attributes":{"ID":280508,"DIS_CODE":0,"TOWNNAME":"中西區","LI":"五妃里","LIN":"6鄰","STREET":"南門路","SECT":" ","MAREA":" ","LANE":"２２７巷","ALLEY":" ","HOUSE_NO":"１６號四樓之１","E_COORD97":168532.42999999999,"N_COORD97":2542701.5099999998,"ADDRESS":"南門路２２７巷１６號四樓之１","OBJECTID":280502},"geometry":{"x":168532.43000000063,"y":2542701.5099999979}},{"attributes":{"ID":280509,"DIS_CODE":0,"TOWNNAME":"中西區","LI":"民生里","LIN":"6鄰","STREET":"永華路","SECT":"一段","MAREA":" ","LANE":"２５０巷","ALLEY":" ","HOUSE_NO":"２號七樓之１","E_COORD97":167025.42000000001,"N_COORD97":2543276,"ADDRESS":"永華路一段２５０巷２號七樓之１","OBJECTID":280503},"geometry":{"x":167025.42000000179,"y":2543276.0000000019}},{"attributes":{"ID":280510,"DIS_CODE":0,"TOWNNAME":"中西區","LI":"民生里","LIN":"6鄰","STREET":"永華路","SECT":"一段","MAREA":" ","LANE":"２５０巷","ALLEY":" ","HOUSE_NO":"２號三樓之１","E_COORD97":167025.42000000001,"N_COORD97":2543276,"ADDRESS":"永華路一段２５０巷２號三樓之１","OBJECTID":280504},"geometry":{"x":167025.42000000179,"y":2543276.0000000019}},{"attributes":{"ID":280511,"DIS_CODE":0,"TOWNNAME":"中西區","LI":"民生里","LIN":"6鄰","STREET":"永華路","SECT":"一段","MAREA":" ","LANE":"２５０巷","ALLEY":" ","HOUSE_NO":"２號四樓之６","E_COORD97":167025.42000000001,"N_COORD97":2543276,"ADDRESS":"永華路一段２５０巷２號四樓之６","OBJECTID":280505},"geometry":{"x":167025.42000000179,"y":2543276.0000000019}},{"attributes":{"ID":280512,"DIS_CODE":0,"TOWNNAME":"永康區","LI":"成功里","LIN":"41鄰","STREET":"中華路","SECT":" ","MAREA":" ","LANE":"１５４巷","ALLEY":" ","HOUSE_NO":"５９號","E_COORD97":171758.73000000001,"N_COORD97":2544892.2599999998,"ADDRESS":"中華路１５４巷５９號","OBJECTID":280506},"geometry":{"x":171758.73000000138,"y":2544892.2599999998}},{"attributes":{"ID":280513,"DIS_CODE":0,"TOWNNAME":"永康區","LI":"西灣里","LIN":"42鄰","STREET":"大灣路","SECT":" ","MAREA":" ","LANE":"９４２巷","ALLEY":" ","HOUSE_NO":"４６５號","E_COORD97":173938.07999999999,"N_COORD97":2545415.25,"ADDRESS":"大灣路９４２巷４６５號","OBJECTID":280507},"geometry":{"x":173938.08000000101,"y":2545415.25}},{"attributes":{"ID":280514,"DIS_CODE":0,"TOWNNAME":"北區","LI":"勝安里","LIN":"2鄰","STREET":"開元路","SECT":" ","MAREA":" ","LANE":" ","ALLEY":" ","HOUSE_NO":"６１號","E_COORD97":169683.26000000001,"N_COORD97":2545186.1600000001,"ADDRESS":"開元路６１號","OBJECTID":280508},"geometry":{"x":169683.26000000071,"y":2545186.1600000039}},{"attributes":{"ID":280515,"DIS_CODE":0,"TOWNNAME":"中西區","LI":"安海里","LIN":"6鄰","STREET":"正興街","SECT":" ","MAREA":" ","LANE":" ","ALLEY":" ","HOUSE_NO":"１６１號七樓之１８","E_COORD97":167415.34,"N_COORD97":2543918.6400000001,"ADDRESS":"正興街１６１號七樓之１８","OBJECTID":280509},"geometry":{"x":167415.33999999985,"y":2543918.6399999987}},{"attributes":{"ID":280516,"DIS_CODE":0,"TOWNNAME":"中西區","LI":"安海里","LIN":"6鄰","STREET":"正興街","SECT":" ","MAREA":" ","LANE":" ","ALLEY":" ","HOUSE_NO":"１６１號八樓之１４","E_COORD97":167415.34,"N_COORD97":2543918.6400000001,"ADDRESS":"正興街１６１號八樓之１４","OBJECTID":280510},"geometry":{"x":167415.33999999985,"y":2543918.6399999987}},{"attributes":{"ID":280517,"DIS_CODE":0,"TOWNNAME":"中西區","LI":"安海里","LIN":"6鄰","STREET":"正興街","SECT":" ","MAREA":" ","LANE":" ","ALLEY":" ","HOUSE_NO":"１６１號八樓之１５","E_COORD97":167415.34,"N_COORD97":2543918.6400000001,"ADDRESS":"正興街１６１號八樓之１５","OBJECTID":280511},"geometry":{"x":167415.33999999985,"y":2543918.6399999987}},{"attributes":{"ID":280518,"DIS_CODE":0,"TOWNNAME":"中西區","LI":"安海里","LIN":"6鄰","STREET":"正興街","SECT":" ","MAREA":" ","LANE":" ","ALLEY":" ","HOUSE_NO":"１６１號八樓之１６","E_COORD97":167415.34,"N_COORD97":2543918.6400000001,"ADDRESS":"正興街１６１號八樓之１６","OBJECTID":280512},"geometry":{"x":167415.33999999985,"y":2543918.6399999987}},{"attributes":{"ID":280519,"DIS_CODE":0,"TOWNNAME":"中西區","LI":"安海里","LIN":"6鄰","STREET":"正興街","SECT":" ","MAREA":" ","LANE":" ","ALLEY":" ","HOUSE_NO":"１６１號三樓之２","E_COORD97":167416.03,"N_COORD97":2543939.7400000002,"ADDRESS":"正興街１６１號三樓之２","OBJECTID":280513},"geometry":{"x":167416.03000000026,"y":2543939.7400000021}},{"attributes":{"ID":280520,"DIS_CODE":0,"TOWNNAME":"中西區","LI":"安海里","LIN":"6鄰","STREET":"正興街","SECT":" ","MAREA":" ","LANE":" ","ALLEY":" ","HOUSE_NO":"１６１號五樓之５","E_COORD97":167416.03,"N_COORD97":2543939.7400000002,"ADDRESS":"正興街１６１號五樓之５","OBJECTID":280514},"geometry":{"x":167416.03000000026,"y":2543939.7400000021}},{"attributes":{"ID":280521,"DIS_CODE":0,"TOWNNAME":"中西區","LI":"安海里","LIN":"6鄰","STREET":"正興街","SECT":" ","MAREA":" ","LANE":" ","ALLEY":" ","HOUSE_NO":"１６１號五樓之６","E_COORD97":167416.03,"N_COORD97":2543939.7400000002,"ADDRESS":"正興街１６１號五樓之６","OBJECTID":280515},"geometry":{"x":167416.03000000026,"y":2543939.7400000021}},{"attributes":{"ID":280522,"DIS_CODE":0,"TOWNNAME":"中西區","LI":"安海里","LIN":"6鄰","STREET":"正興街","SECT":" ","MAREA":" ","LANE":" ","ALLEY":" ","HOUSE_NO":"１６１號五樓之７","E_COORD97":167416.03,"N_COORD97":2543939.7400000002,"ADDRESS":"正興街１６１號五樓之７","OBJECTID":280516},"geometry":{"x":167416.03000000026,"y":2543939.7400000021}},{"attributes":{"ID":280523,"DIS_CODE":0,"TOWNNAME":"北區","LI":"勝安里","LIN":"2鄰","STREET":"開元路","SECT":" ","MAREA":" ","LANE":" ","ALLEY":" ","HOUSE_NO":"６７號之１","E_COORD97":169710.32999999999,"N_COORD97":2545202.0699999998,"ADDRESS":"開元路６７號之１","OBJECTID":280517},"geometry":{"x":169710.33000000101,"y":2545202.0700000022}},{"attributes":{"ID":280524,"DIS_CODE":0,"TOWNNAME":"北區","LI":"勝安里","LIN":"2鄰","STREET":"開元路","SECT":" ","MAREA":" ","LANE":" ","ALLEY":" ","HOUSE_NO":"６７號之２","E_COORD97":169716.45000000001,"N_COORD97":2545204.1400000001,"ADDRESS":"開元路６７號之２","OBJECTID":280518},"geometry":{"x":169716.45000000112,"y":2545204.1400000025}},{"attributes":{"ID":280525,"DIS_CODE":0,"TOWNNAME":"北區","LI":"勝安里","LIN":"2鄰","STREET":"開元路","SECT":" ","MAREA":" ","LANE":" ","ALLEY":" ","HOUSE_NO":"６７號之３","E_COORD97":169726.51000000001,"N_COORD97":2545195.9399999999,"ADDRESS":"開元路６７號之３","OBJECTID":280519},"geometry":{"x":169726.50999999978,"y":2545195.9399999995}},{"attributes":{"ID":280526,"DIS_CODE":0,"TOWNNAME":"北區","LI":"勝安里","LIN":"2鄰","STREET":"開元路","SECT":" ","MAREA":" ","LANE":" ","ALLEY":" ","HOUSE_NO":"６９號","E_COORD97":169732.66,"N_COORD97":2545198.46,"ADDRESS":"開元路６９號","OBJECTID":280520},"geometry":{"x":169732.66000000015,"y":2545198.4600000046}},{"attributes":{"ID":280527,"DIS_CODE":0,"TOWNNAME":"東區","LI":"圍下里","LIN":"4鄰","STREET":"東榮街","SECT":" ","MAREA":" ","LANE":" ","ALLEY":" ","HOUSE_NO":"１號之２","E_COORD97":169569.69,"N_COORD97":2543510.9500000002,"ADDRESS":"東榮街１號之２","OBJECTID":280521},"geometry":{"x":169569.69000000041,"y":2543510.9499999993}},{"attributes":{"ID":280528,"DIS_CODE":0,"TOWNNAME":"東區","LI":"圍下里","LIN":"4鄰","STREET":"東榮街","SECT":" ","MAREA":" ","LANE":" ","ALLEY":" ","HOUSE_NO":"１號之３","E_COORD97":169569.01999999999,"N_COORD97":2543507.0600000001,"ADDRESS":"東榮街１號之３","OBJECTID":280522},"geometry":{"x":169569.02000000048,"y":2543507.0600000024}},{"attributes":{"ID":280529,"DIS_CODE":0,"TOWNNAME":"東區","LI":"小東里","LIN":"4鄰","STREET":"小東路","SECT":" ","MAREA":" ","LANE":" ","ALLEY":" ","HOUSE_NO":"２０８號","E_COORD97":170857.37,"N_COORD97":2544451.0099999998,"ADDRESS":"小東路２０８號","OBJECTID":280523},"geometry":{"x":170857.37000000104,"y":2544451.0100000035}},{"attributes":{"ID":280530,"DIS_CODE":0,"TOWNNAME":"東區","LI":"小東里","LIN":"4鄰","STREET":"小東路","SECT":" ","MAREA":" ","LANE":" ","ALLEY":" ","HOUSE_NO":"２１０號","E_COORD97":170860.07000000001,"N_COORD97":2544450.1000000001,"ADDRESS":"小東路２１０號","OBJECTID":280524},"geometry":{"x":170860.07000000123,"y":2544450.0999999978}},{"attributes":{"ID":280531,"DIS_CODE":0,"TOWNNAME":"東區","LI":"小東里","LIN":"4鄰","STREET":"小東路","SECT":" ","MAREA":" ","LANE":" ","ALLEY":" ","HOUSE_NO":"２１４號","E_COORD97":170866.39000000001,"N_COORD97":2544447.7000000002,"ADDRESS":"小東路２１４號","OBJECTID":280525},"geometry":{"x":170866.38999999966,"y":2544447.6999999993}},{"attributes":{"ID":280532,"DIS_CODE":0,"TOWNNAME":"東區","LI":"小東里","LIN":"4鄰","STREET":"小東路","SECT":" ","MAREA":" ","LANE":" ","ALLEY":" ","HOUSE_NO":"２０４號","E_COORD97":170850.75,"N_COORD97":2544453.1099999999,"ADDRESS":"小東路２０４號","OBJECTID":280526},"geometry":{"x":170850.75,"y":2544453.1099999994}},{"attributes":{"ID":280533,"DIS_CODE":0,"TOWNNAME":"東區","LI":"小東里","LIN":"4鄰","STREET":"小東路","SECT":" ","MAREA":" ","LANE":" ","ALLEY":" ","HOUSE_NO":"２０６號","E_COORD97":170854.51000000001,"N_COORD97":2544451.9100000001,"ADDRESS":"小東路２０６號","OBJECTID":280527},"geometry":{"x":170854.51000000071,"y":2544451.9100000001}},{"attributes":{"ID":280534,"DIS_CODE":0,"TOWNNAME":"中西區","LI":"安海里","LIN":"6鄰","STREET":"正興街","SECT":" ","MAREA":" ","LANE":" ","ALLEY":" ","HOUSE_NO":"１６１號四樓之１１","E_COORD97":167416.03,"N_COORD97":2543939.7400000002,"ADDRESS":"正興街１６１號四樓之１１","OBJECTID":280528},"geometry":{"x":167416.03000000026,"y":2543939.7400000021}},{"attributes":{"ID":280535,"DIS_CODE":0,"TOWNNAME":"中西區","LI":"安海里","LIN":"6鄰","STREET":"正興街","SECT":" ","MAREA":" ","LANE":" ","ALLEY":" ","HOUSE_NO":"１６１號四樓之１２","E_COORD97":167415.34,"N_COORD97":2543918.6400000001,"ADDRESS":"正興街１６１號四樓之１２","OBJECTID":280529},"geometry":{"x":167415.33999999985,"y":2543918.6399999987}},{"attributes":{"ID":280536,"DIS_CODE":0,"TOWNNAME":"永康區","LI":"甲頂里","LIN":"12鄰","STREET":"中正南路","SECT":" ","MAREA":" ","LANE":"５２巷","ALLEY":" ","HOUSE_NO":"９６號","E_COORD97":170126.13,"N_COORD97":2546796.6000000001,"ADDRESS":"中正南路５２巷９６號","OBJECTID":280530},"geometry":{"x":170126.13000000175,"y":2546796.6000000034}},{"attributes":{"ID":280537,"DIS_CODE":0,"TOWNNAME":"永康區","LI":"西灣里","LIN":"42鄰","STREET":"大灣路","SECT":" ","MAREA":" ","LANE":"９４２巷","ALLEY":" ","HOUSE_NO":"４６７號","E_COORD97":173939.57999999999,"N_COORD97":2545419.25,"ADDRESS":"大灣路９４２巷４６７號","OBJECTID":280531},"geometry":{"x":173939.58000000101,"y":2545419.2499999981}},{"attributes":{"ID":280538,"DIS_CODE":0,"TOWNNAME":"仁德區","LI":"太子里","LIN":"27鄰","STREET":"太子路","SECT":" ","MAREA":" ","LANE":" ","ALLEY":" ","HOUSE_NO":"６７７號","E_COORD97":173441.55083299999,"N_COORD97":2543531.1490199999,"ADDRESS":"太子路６７７號","OBJECTID":280532},"geometry":{"x":173441.5508330008,"y":2543531.1490209997}},{"attributes":{"ID":280539,"DIS_CODE":0,"TOWNNAME":"東區","LI":"崇學里","LIN":"6鄰","STREET":"崇德路","SECT":" ","MAREA":" ","LANE":"３３３巷","ALLEY":" ","HOUSE_NO":"６號二樓","E_COORD97":170381.39000000001,"N_COORD97":2541985.6400000001,"ADDRESS":"崇德路３３３巷６號二樓","OBJECTID":280533},"geometry":{"x":170381.38999999966,"y":2541985.6400000006}},{"attributes":{"ID":280540,"DIS_CODE":0,"TOWNNAME":"東區","LI":"崇學里","LIN":"6鄰","STREET":"崇德路","SECT":" ","MAREA":" ","LANE":"３３３巷","ALLEY":" ","HOUSE_NO":"６號三樓","E_COORD97":170381.39000000001,"N_COORD97":2541985.6400000001,"ADDRESS":"崇德路３３３巷６號三樓","OBJECTID":280534},"geometry":{"x":170381.38999999966,"y":2541985.6400000006}},{"attributes":{"ID":280541,"DIS_CODE":0,"TOWNNAME":"東區","LI":"崇學里","LIN":"6鄰","STREET":"崇德路","SECT":" ","MAREA":" ","LANE":"３３３巷","ALLEY":" ","HOUSE_NO":"６號四樓","E_COORD97":170381.39000000001,"N_COORD97":2541985.6400000001,"ADDRESS":"崇德路３３３巷６號四樓","OBJECTID":280535},"geometry":{"x":170381.38999999966,"y":2541985.6400000006}},{"attributes":{"ID":280542,"DIS_CODE":0,"TOWNNAME":"安南區","LI":"南興里","LIN":"6鄰","STREET":"公學路","SECT":"五段","MAREA":" ","LANE":"６９７巷","ALLEY":" ","HOUSE_NO":"１５５號十二樓","E_COORD97":163864.75,"N_COORD97":2552468.4399999999,"ADDRESS":"公學路五段６９７巷１５５號十二樓","OBJECTID":280536},"geometry":{"x":163864.75,"y":2552468.4399999995}},{"attributes":{"ID":280543,"DIS_CODE":0,"TOWNNAME":"安南區","LI":"南興里","LIN":"6鄰","STREET":"公學路","SECT":"五段","MAREA":" ","LANE":"６９７巷","ALLEY":" ","HOUSE_NO":"１５５號十二樓之１","E_COORD97":163864.75,"N_COORD97":2552468.4399999999,"ADDRESS":"公學路五段６９７巷１５５號十二樓之１","OBJECTID":280537},"geometry":{"x":163864.75,"y":2552468.4399999995}},{"attributes":{"ID":280544,"DIS_CODE":0,"TOWNNAME":"安南區","LI":"南興里","LIN":"6鄰","STREET":"公學路","SECT":"五段","MAREA":" ","LANE":"６９７巷","ALLEY":" ","HOUSE_NO":"１５７號三樓之１","E_COORD97":163838.95999999999,"N_COORD97":2552459.5,"ADDRESS":"公學路五段６９７巷１５７號三樓之１","OBJECTID":280538},"geometry":{"x":163838.96000000089,"y":2552459.5000000037}},{"attributes":{"ID":280545,"DIS_CODE":0,"TOWNNAME":"安南區","LI":"南興里","LIN":"6鄰","STREET":"公學路","SECT":"五段","MAREA":" ","LANE":"６９７巷","ALLEY":" ","HOUSE_NO":"１５７號五樓","E_COORD97":163838.95999999999,"N_COORD97":2552459.5,"ADDRESS":"公學路五段６９７巷１５７號五樓","OBJECTID":280539},"geometry":{"x":163838.96000000089,"y":2552459.5000000037}},{"attributes":{"ID":280546,"DIS_CODE":0,"TOWNNAME":"安南區","LI":"南興里","LIN":"6鄰","STREET":"公學路","SECT":"五段","MAREA":" ","LANE":"６９７巷","ALLEY":" ","HOUSE_NO":"１５７號五樓之１","E_COORD97":163838.95999999999,"N_COORD97":2552459.5,"ADDRESS":"公學路五段６９７巷１５７號五樓之１","OBJECTID":280540},"geometry":{"x":163838.96000000089,"y":2552459.5000000037}},{"attributes":{"ID":280547,"DIS_CODE":0,"TOWNNAME":"永康區","LI":"成功里","LIN":"34鄰","STREET":"中華一路","SECT":" ","MAREA":" ","LANE":"３９巷","ALLEY":" ","HOUSE_NO":"２０號","E_COORD97":171862.87,"N_COORD97":2544934.7000000002,"ADDRESS":"中華一路３９巷２０號","OBJECTID":280541},"geometry":{"x":171862.87000000104,"y":2544934.7000000011}},{"attributes":{"ID":280548,"DIS_CODE":0,"TOWNNAME":"安南區","LI":"南興里","LIN":"6鄰","STREET":"公學路","SECT":"五段","MAREA":" ","LANE":"６９７巷","ALLEY":" ","HOUSE_NO":"１６１號三樓","E_COORD97":163864.35999999999,"N_COORD97":2552461.21,"ADDRESS":"公學路五段６９７巷１６１號三樓","OBJECTID":280542},"geometry":{"x":163864.36000000034,"y":2552461.2100000009}},{"attributes":{"ID":280549,"DIS_CODE":0,"TOWNNAME":"安南區","LI":"南興里","LIN":"6鄰","STREET":"公學路","SECT":"五段","MAREA":" ","LANE":"６９７巷","ALLEY":" ","HOUSE_NO":"１６１號五樓","E_COORD97":163864.35999999999,"N_COORD97":2552461.21,"ADDRESS":"公學路五段６９７巷１６１號五樓","OBJECTID":280543},"geometry":{"x":163864.36000000034,"y":2552461.2100000009}},{"attributes":{"ID":280550,"DIS_CODE":0,"TOWNNAME":"安南區","LI":"南興里","LIN":"6鄰","STREET":"公學路","SECT":"五段","MAREA":" ","LANE":"６９７巷","ALLEY":" ","HOUSE_NO":"１６７號四樓","E_COORD97":163861.59,"N_COORD97":2552440.0499999998,"ADDRESS":"公學路五段６９７巷１６７號四樓","OBJECTID":280544},"geometry":{"x":163861.59000000078,"y":2552440.0500000026}},{"attributes":{"ID":280551,"DIS_CODE":0,"TOWNNAME":"安南區","LI":"南興里","LIN":"6鄰","STREET":"公學路","SECT":"五段","MAREA":" ","LANE":"６９７巷","ALLEY":" ","HOUSE_NO":"１６７號四樓之１","E_COORD97":163861.59,"N_COORD97":2552440.0499999998,"ADDRESS":"公學路五段６９７巷１６７號四樓之１","OBJECTID":280545},"geometry":{"x":163861.59000000078,"y":2552440.0500000026}},{"attributes":{"ID":280552,"DIS_CODE":0,"TOWNNAME":"安南區","LI":"南興里","LIN":"6鄰","STREET":"公學路","SECT":"五段","MAREA":" ","LANE":"６９７巷","ALLEY":" ","HOUSE_NO":"１７１號五樓","E_COORD97":163863.70000000001,"N_COORD97":2552450.5699999998,"ADDRESS":"公學路五段６９７巷１７１號五樓","OBJECTID":280546},"geometry":{"x":163863.70000000019,"y":2552450.5700000022}},{"attributes":{"ID":280553,"DIS_CODE":0,"TOWNNAME":"安南區","LI":"南興里","LIN":"6鄰","STREET":"公學路","SECT":"五段","MAREA":" ","LANE":"６９７巷","ALLEY":" ","HOUSE_NO":"１７１號五樓之１","E_COORD97":163863.70000000001,"N_COORD97":2552450.5699999998,"ADDRESS":"公學路五段６９７巷１７１號五樓之１","OBJECTID":280547},"geometry":{"x":163863.70000000019,"y":2552450.5700000022}},{"attributes":{"ID":280554,"DIS_CODE":0,"TOWNNAME":"安南區","LI":"南興里","LIN":"6鄰","STREET":"公學路","SECT":"五段","MAREA":" ","LANE":"６９７巷","ALLEY":" ","HOUSE_NO":"１７１號六樓","E_COORD97":163863.70000000001,"N_COORD97":2552450.5699999998,"ADDRESS":"公學路五段６９７巷１７１號六樓","OBJECTID":280548},"geometry":{"x":163863.70000000019,"y":2552450.5700000022}},{"attributes":{"ID":280555,"DIS_CODE":0,"TOWNNAME":"安南區","LI":"海東里","LIN":"6鄰","STREET":"同安路","SECT":" ","MAREA":" ","LANE":"２３７巷","ALLEY":" ","HOUSE_NO":"１號八樓之９","E_COORD97":167195.69,"N_COORD97":2549238.3799999999,"ADDRESS":"同安路２３７巷１號八樓之９","OBJECTID":280549},"geometry":{"x":167195.69000000134,"y":2549238.3800000027}},{"attributes":{"ID":280556,"DIS_CODE":0,"TOWNNAME":"永康區","LI":"甲頂里","LIN":"12鄰","STREET":"中正南路","SECT":" ","MAREA":" ","LANE":"５２巷","ALLEY":" ","HOUSE_NO":"９６號","E_COORD97":170118.44,"N_COORD97":2546794.5699999998,"ADDRESS":"中正南路５２巷９６號","OBJECTID":280550},"geometry":{"x":170118.44000000134,"y":2546794.5700000022}},{"attributes":{"ID":280557,"DIS_CODE":0,"TOWNNAME":"麻豆區","LI":"保安里","LIN":"14鄰","STREET":"興南路","SECT":" ","MAREA":" ","LANE":" ","ALLEY":" ","HOUSE_NO":"７７號","E_COORD97":173251.23999999999,"N_COORD97":2564765.1499999999,"ADDRESS":"興南路７７號","OBJECTID":280551},"geometry":{"x":173251.24000000022,"y":2564765.1500000004}},{"attributes":{"ID":280558,"DIS_CODE":0,"TOWNNAME":"六甲區","LI":"龜港里","LIN":"2鄰","STREET":" ","SECT":" ","MAREA":"龜子港","LANE":" ","ALLEY":" ","HOUSE_NO":"２７５號","E_COORD97":179646.87,"N_COORD97":2572368.2799999998,"ADDRESS":"龜子港２７５號","OBJECTID":280552},"geometry":{"x":179646.87000000104,"y":2572368.2799999993}},{"attributes":{"ID":280559,"DIS_CODE":0,"TOWNNAME":"六甲區","LI":"龜港里","LIN":"2鄰","STREET":" ","SECT":" ","MAREA":"龜子港","LANE":" ","ALLEY":" ","HOUSE_NO":"１０號","E_COORD97":179779.76000000001,"N_COORD97":2572132.27,"ADDRESS":"龜子港１０號","OBJECTID":280553},"geometry":{"x":179779.76000000071,"y":2572132.2700000014}},{"attributes":{"ID":280560,"DIS_CODE":0,"TOWNNAME":"六甲區","LI":"龜港里","LIN":"2鄰","STREET":" ","SECT":" ","MAREA":"龜子港","LANE":" ","ALLEY":" ","HOUSE_NO":"１１５號","E_COORD97":179741.06,"N_COORD97":2571966.9100000001,"ADDRESS":"龜子港１１５號","OBJECTID":280554},"geometry":{"x":179741.05999999959,"y":2571966.9100000001}},{"attributes":{"ID":280561,"DIS_CODE":0,"TOWNNAME":"六甲區","LI":"龜港里","LIN":"2鄰","STREET":" ","SECT":" ","MAREA":"龜子港","LANE":" ","ALLEY":" ","HOUSE_NO":"１１７號","E_COORD97":179739.91,"N_COORD97":2571971.1099999999,"ADDRESS":"龜子港１１７號","OBJECTID":280555},"geometry":{"x":179739.91000000108,"y":2571971.1100000013}},{"attributes":{"ID":280562,"DIS_CODE":0,"TOWNNAME":"六甲區","LI":"龜港里","LIN":"2鄰","STREET":" ","SECT":" ","MAREA":"龜子港","LANE":" ","ALLEY":" ","HOUSE_NO":"１１９號","E_COORD97":179748.01000000001,"N_COORD97":2571977.8399999999,"ADDRESS":"龜子港１１９號","OBJECTID":280556},"geometry":{"x":179748.00999999978,"y":2571977.8399999999}},{"attributes":{"ID":280563,"DIS_CODE":0,"TOWNNAME":"六甲區","LI":"龜港里","LIN":"2鄰","STREET":" ","SECT":" ","MAREA":"龜子港","LANE":" ","ALLEY":" ","HOUSE_NO":"１２１號","E_COORD97":179746.85000000001,"N_COORD97":2571982.0699999998,"ADDRESS":"龜子港１２１號","OBJECTID":280557},"geometry":{"x":179746.85000000056,"y":2571982.0700000022}},{"attributes":{"ID":280564,"DIS_CODE":0,"TOWNNAME":"六甲區","LI":"龜港里","LIN":"2鄰","STREET":" ","SECT":" ","MAREA":"龜子港","LANE":" ","ALLEY":" ","HOUSE_NO":"１２３號","E_COORD97":179745.94,"N_COORD97":2571986.1800000002,"ADDRESS":"龜子港１２３號","OBJECTID":280558},"geometry":{"x":179745.94000000041,"y":2571986.1799999997}},{"attributes":{"ID":280565,"DIS_CODE":0,"TOWNNAME":"六甲區","LI":"龜港里","LIN":"2鄰","STREET":" ","SECT":" ","MAREA":"龜子港","LANE":" ","ALLEY":" ","HOUSE_NO":"１２５號","E_COORD97":179744.89000000001,"N_COORD97":2571989.9399999999,"ADDRESS":"龜子港１２５號","OBJECTID":280559},"geometry":{"x":179744.8900000006,"y":2571989.9399999995}},{"attributes":{"ID":280566,"DIS_CODE":0,"TOWNNAME":"六甲區","LI":"龜港里","LIN":"2鄰","STREET":" ","SECT":" ","MAREA":"龜子港","LANE":" ","ALLEY":" ","HOUSE_NO":"１２７號","E_COORD97":179743.91,"N_COORD97":2571994.5499999998,"ADDRESS":"龜子港１２７號","OBJECTID":280560},"geometry":{"x":179743.91000000015,"y":2571994.5500000007}},{"attributes":{"ID":280567,"DIS_CODE":0,"TOWNNAME":"六甲區","LI":"龜港里","LIN":"2鄰","STREET":" ","SECT":" ","MAREA":"龜子港","LANE":" ","ALLEY":" ","HOUSE_NO":"１２號","E_COORD97":179782.59,"N_COORD97":2572138,"ADDRESS":"龜子港１２號","OBJECTID":280561},"geometry":{"x":179782.59000000078,"y":2572138.0000000019}},{"attributes":{"ID":280568,"DIS_CODE":0,"TOWNNAME":"六甲區","LI":"龜港里","LIN":"2鄰","STREET":" ","SECT":" ","MAREA":"龜子港","LANE":"１１１巷","ALLEY":"３８弄","HOUSE_NO":"１５號","E_COORD97":179716.01000000001,"N_COORD97":2571983.6299999999,"ADDRESS":"龜子港１１１巷３８弄１５號","OBJECTID":280562},"geometry":{"x":179716.00999999978,"y":2571983.6300000008}},{"attributes":{"ID":280569,"DIS_CODE":0,"TOWNNAME":"六甲區","LI":"龜港里","LIN":"2鄰","STREET":" ","SECT":" ","MAREA":"龜子港","LANE":"１１１巷","ALLEY":"３８弄","HOUSE_NO":"１６號","E_COORD97":179712.42000000001,"N_COORD97":2571982.9199999999,"ADDRESS":"龜子港１１１巷３８弄１６號","OBJECTID":280563},"geometry":{"x":179712.42000000086,"y":2571982.9200000018}},{"attributes":{"ID":280570,"DIS_CODE":0,"TOWNNAME":"六甲區","LI":"龜港里","LIN":"2鄰","STREET":" ","SECT":" ","MAREA":"龜子港","LANE":"１１１巷","ALLEY":"３８弄","HOUSE_NO":"１７號","E_COORD97":179708.94,"N_COORD97":2571982.4100000001,"ADDRESS":"龜子港１１１巷３８弄１７號","OBJECTID":280564},"geometry":{"x":179708.94000000041,"y":2571982.410000002}},{"attributes":{"ID":280571,"DIS_CODE":0,"TOWNNAME":"六甲區","LI":"龜港里","LIN":"2鄰","STREET":" ","SECT":" ","MAREA":"龜子港","LANE":"１１１巷","ALLEY":"３８弄","HOUSE_NO":"１８號","E_COORD97":179705.06,"N_COORD97":2571981.8900000001,"ADDRESS":"龜子港１１１巷３８弄１８號","OBJECTID":280565},"geometry":{"x":179705.05999999959,"y":2571981.8900000006}},{"attributes":{"ID":280572,"DIS_CODE":0,"TOWNNAME":"六甲區","LI":"龜港里","LIN":"2鄰","STREET":" ","SECT":" ","MAREA":"龜子港","LANE":"１１１巷","ALLEY":"３８弄","HOUSE_NO":"１９號","E_COORD97":179701.32999999999,"N_COORD97":2571981.3700000001,"ADDRESS":"龜子港１１１巷３８弄１９號","OBJECTID":280566},"geometry":{"x":179701.33000000101,"y":2571981.3700000029}},{"attributes":{"ID":280573,"DIS_CODE":0,"TOWNNAME":"六甲區","LI":"龜港里","LIN":"2鄰","STREET":" ","SECT":" ","MAREA":"龜子港","LANE":"１１１巷","ALLEY":"３８弄","HOUSE_NO":"２０號","E_COORD97":179698.01000000001,"N_COORD97":2571981.04,"ADDRESS":"龜子港１１１巷３８弄２０號","OBJECTID":280567},"geometry":{"x":179698.01000000164,"y":2571981.040000001}},{"attributes":{"ID":280574,"DIS_CODE":0,"TOWNNAME":"六甲區","LI":"龜港里","LIN":"2鄰","STREET":" ","SECT":" ","MAREA":"龜子港","LANE":"１１１巷","ALLEY":"３８弄","HOUSE_NO":"２１號","E_COORD97":179694.25,"N_COORD97":2571980.4199999999,"ADDRESS":"龜子港１１１巷３８弄２１號","OBJECTID":280568},"geometry":{"x":179694.25,"y":2571980.4199999999}},{"attributes":{"ID":280575,"DIS_CODE":0,"TOWNNAME":"六甲區","LI":"龜港里","LIN":"2鄰","STREET":" ","SECT":" ","MAREA":"龜子港","LANE":"１１１巷","ALLEY":"３８弄","HOUSE_NO":"２２號","E_COORD97":179690.59,"N_COORD97":2571980.04,"ADDRESS":"龜子港１１１巷３８弄２２號","OBJECTID":280569},"geometry":{"x":179690.58999999892,"y":2571980.0400000028}},{"attributes":{"ID":280576,"DIS_CODE":0,"TOWNNAME":"六甲區","LI":"龜港里","LIN":"2鄰","STREET":" ","SECT":" ","MAREA":"龜子港","LANE":"１１１巷","ALLEY":" ","HOUSE_NO":"１００號","E_COORD97":179476.26999999999,"N_COORD97":2571918.1099999999,"ADDRESS":"龜子港１１１巷１００號","OBJECTID":280570},"geometry":{"x":179476.27000000048,"y":2571918.1099999994}},{"attributes":{"ID":280577,"DIS_CODE":0,"TOWNNAME":"六甲區","LI":"龜港里","LIN":"2鄰","STREET":" ","SECT":" ","MAREA":"龜子港","LANE":"１１１巷","ALLEY":" ","HOUSE_NO":"１０１號","E_COORD97":179465.70000000001,"N_COORD97":2571890.1299999999,"ADDRESS":"龜子港１１１巷１０１號","OBJECTID":280571},"geometry":{"x":179465.70000000019,"y":2571890.129999999}},{"attributes":{"ID":280578,"DIS_CODE":0,"TOWNNAME":"六甲區","LI":"龜港里","LIN":"2鄰","STREET":" ","SECT":" ","MAREA":"龜子港","LANE":"１１１巷","ALLEY":" ","HOUSE_NO":"９１號","E_COORD97":179541.51000000001,"N_COORD97":2571905.4300000002,"ADDRESS":"龜子港１１１巷９１號","OBJECTID":280572},"geometry":{"x":179541.50999999978,"y":2571905.4299999997}},{"attributes":{"ID":280579,"DIS_CODE":0,"TOWNNAME":"六甲區","LI":"龜港里","LIN":"2鄰","STREET":" ","SECT":" ","MAREA":"龜子港","LANE":" ","ALLEY":" ","HOUSE_NO":"１３１號","E_COORD97":179740.95000000001,"N_COORD97":2572001.0299999998,"ADDRESS":"龜子港１３１號","OBJECTID":280573},"geometry":{"x":179740.95000000019,"y":2572001.0300000012}},{"attributes":{"ID":280580,"DIS_CODE":0,"TOWNNAME":"六甲區","LI":"龜港里","LIN":"2鄰","STREET":" ","SECT":" ","MAREA":"龜子港","LANE":"１５９巷","ALLEY":" ","HOUSE_NO":"１６號","E_COORD97":179659.04000000001,"N_COORD97":2572149.8999999999,"ADDRESS":"龜子港１５９巷１６號","OBJECTID":280574},"geometry":{"x":179659.0400000019,"y":2572149.9000000022}},{"attributes":{"ID":280581,"DIS_CODE":0,"TOWNNAME":"六甲區","LI":"龜港里","LIN":"2鄰","STREET":" ","SECT":" ","MAREA":"龜子港","LANE":"１５９巷","ALLEY":" ","HOUSE_NO":"１８號","E_COORD97":179654.22,"N_COORD97":2572148.6200000001,"ADDRESS":"龜子港１５９巷１８號","OBJECTID":280575},"geometry":{"x":179654.22000000067,"y":2572148.6200000029}},{"attributes":{"ID":280582,"DIS_CODE":0,"TOWNNAME":"六甲區","LI":"龜港里","LIN":"2鄰","STREET":" ","SECT":" ","MAREA":"龜子港","LANE":" ","ALLEY":" ","HOUSE_NO":"１３３號","E_COORD97":179739.88,"N_COORD97":2572004.27,"ADDRESS":"龜子港１３３號","OBJECTID":280576},"geometry":{"x":179739.88000000082,"y":2572004.2700000014}},{"attributes":{"ID":280583,"DIS_CODE":0,"TOWNNAME":"六甲區","LI":"龜港里","LIN":"2鄰","STREET":" ","SECT":" ","MAREA":"龜子港","LANE":" ","ALLEY":" ","HOUSE_NO":"１３５號","E_COORD97":179738.76000000001,"N_COORD97":2572007.6200000001,"ADDRESS":"龜子港１３５號","OBJECTID":280577},"geometry":{"x":179738.76000000071,"y":2572007.620000001}},{"attributes":{"ID":280584,"DIS_CODE":0,"TOWNNAME":"六甲區","LI":"龜港里","LIN":"2鄰","STREET":" ","SECT":" ","MAREA":"龜子港","LANE":" ","ALLEY":" ","HOUSE_NO":"１３７號","E_COORD97":179737.59,"N_COORD97":2572010.6400000001,"ADDRESS":"龜子港１３７號","OBJECTID":280578},"geometry":{"x":179737.58999999985,"y":2572010.6400000006}},{"attributes":{"ID":280585,"DIS_CODE":0,"TOWNNAME":"六甲區","LI":"龜港里","LIN":"2鄰","STREET":" ","SECT":" ","MAREA":"龜子港","LANE":" ","ALLEY":" ","HOUSE_NO":"１３９號","E_COORD97":179724.51000000001,"N_COORD97":2572017.2000000002,"ADDRESS":"龜子港１３９號","OBJECTID":280579},"geometry":{"x":179724.50999999978,"y":2572017.2000000011}},{"attributes":{"ID":280586,"DIS_CODE":0,"TOWNNAME":"六甲區","LI":"龜港里","LIN":"2鄰","STREET":" ","SECT":" ","MAREA":"龜子港","LANE":" ","ALLEY":" ","HOUSE_NO":"１４１號","E_COORD97":179722.82999999999,"N_COORD97":2572022.71,"ADDRESS":"龜子港１４１號","OBJECTID":280580},"geometry":{"x":179722.83000000007,"y":2572022.7100000028}},{"attributes":{"ID":280587,"DIS_CODE":0,"TOWNNAME":"六甲區","LI":"龜港里","LIN":"2鄰","STREET":" ","SECT":" ","MAREA":"龜子港","LANE":" ","ALLEY":" ","HOUSE_NO":"１４３號","E_COORD97":179710.35000000001,"N_COORD97":2572073.3100000001,"ADDRESS":"龜子港１４３號","OBJECTID":280581},"geometry":{"x":179710.34999999963,"y":2572073.3100000005}},{"attributes":{"ID":280588,"DIS_CODE":0,"TOWNNAME":"六甲區","LI":"龜港里","LIN":"2鄰","STREET":" ","SECT":" ","MAREA":"龜子港","LANE":" ","ALLEY":" ","HOUSE_NO":"１４號","E_COORD97":179782.84,"N_COORD97":2572143.1600000001,"ADDRESS":"龜子港１４號","OBJECTID":280582},"geometry":{"x":179782.84000000078,"y":2572143.1600000039}},{"attributes":{"ID":280589,"DIS_CODE":0,"TOWNNAME":"六甲區","LI":"龜港里","LIN":"2鄰","STREET":" ","SECT":" ","MAREA":"龜子港","LANE":" ","ALLEY":" ","HOUSE_NO":"１５１號","E_COORD97":179715.91,"N_COORD97":2572047.6699999999,"ADDRESS":"龜子港１５１號","OBJECTID":280583},"geometry":{"x":179715.91000000201,"y":2572047.6699999981}},{"attributes":{"ID":280590,"DIS_CODE":0,"TOWNNAME":"六甲區","LI":"龜港里","LIN":"2鄰","STREET":" ","SECT":" ","MAREA":"龜子港","LANE":" ","ALLEY":" ","HOUSE_NO":"５３號","E_COORD97":179787.41,"N_COORD97":2571799.8500000001,"ADDRESS":"龜子港５３號","OBJECTID":280584},"geometry":{"x":179787.41000000108,"y":2571799.8500000015}},{"attributes":{"ID":280591,"DIS_CODE":0,"TOWNNAME":"六甲區","LI":"龜港里","LIN":"2鄰","STREET":" ","SECT":" ","MAREA":"龜子港","LANE":" ","ALLEY":" ","HOUSE_NO":"１６號","E_COORD97":179782.20000000001,"N_COORD97":2572146.8900000001,"ADDRESS":"龜子港１６號","OBJECTID":280585},"geometry":{"x":179782.20000000112,"y":2572146.8900000025}},{"attributes":{"ID":280592,"DIS_CODE":0,"TOWNNAME":"六甲區","LI":"龜港里","LIN":"2鄰","STREET":" ","SECT":" ","MAREA":"龜子港","LANE":" ","ALLEY":" ","HOUSE_NO":"１８號","E_COORD97":179778.35000000001,"N_COORD97":2572153.7000000002,"ADDRESS":"龜子港１８號","OBJECTID":280586},"geometry":{"x":179778.34999999963,"y":2572153.7000000011}},{"attributes":{"ID":280593,"DIS_CODE":0,"TOWNNAME":"六甲區","LI":"龜港里","LIN":"2鄰","STREET":" ","SECT":" ","MAREA":"龜子港","LANE":" ","ALLEY":" ","HOUSE_NO":"２０１號","E_COORD97":179666.01000000001,"N_COORD97":2572274.6000000001,"ADDRESS":"龜子港２０１號","OBJECTID":280587},"geometry":{"x":179666.01000000071,"y":2572274.5999999996}},{"attributes":{"ID":280594,"DIS_CODE":0,"TOWNNAME":"六甲區","LI":"龜港里","LIN":"2鄰","STREET":" ","SECT":" ","MAREA":"龜子港","LANE":" ","ALLEY":" ","HOUSE_NO":"２０３號","E_COORD97":179657.39999999999,"N_COORD97":2572304.9500000002,"ADDRESS":"龜子港２０３號","OBJECTID":280588},"geometry":{"x":179657.4000000013,"y":2572304.9499999993}},{"attributes":{"ID":280595,"DIS_CODE":0,"TOWNNAME":"六甲區","LI":"龜港里","LIN":"2鄰","STREET":" ","SECT":" ","MAREA":"龜子港","LANE":" ","ALLEY":" ","HOUSE_NO":"２０５號","E_COORD97":179646.29999999999,"N_COORD97":2572301.0899999999,"ADDRESS":"龜子港２０５號","OBJECTID":280589},"geometry":{"x":179646.29999999981,"y":2572301.0899999999}},{"attributes":{"ID":280596,"DIS_CODE":0,"TOWNNAME":"六甲區","LI":"龜港里","LIN":"2鄰","STREET":" ","SECT":" ","MAREA":"龜子港","LANE":" ","ALLEY":" ","HOUSE_NO":"２０７號","E_COORD97":179638.70000000001,"N_COORD97":2572298.7999999998,"ADDRESS":"龜子港２０７號","OBJECTID":280590},"geometry":{"x":179638.70000000019,"y":2572298.8000000045}},{"attributes":{"ID":280597,"DIS_CODE":0,"TOWNNAME":"六甲區","LI":"龜港里","LIN":"2鄰","STREET":" ","SECT":" ","MAREA":"龜子港","LANE":" ","ALLEY":" ","HOUSE_NO":"２１７號","E_COORD97":179646.85000000001,"N_COORD97":2572330.1200000001,"ADDRESS":"龜子港２１７號","OBJECTID":280591},"geometry":{"x":179646.85000000056,"y":2572330.120000001}},{"attributes":{"ID":280598,"DIS_CODE":0,"TOWNNAME":"六甲區","LI":"龜港里","LIN":"2鄰","STREET":" ","SECT":" ","MAREA":"龜子港","LANE":" ","ALLEY":" ","HOUSE_NO":"２１號","E_COORD97":179808.75,"N_COORD97":2571730.5499999998,"ADDRESS":"龜子港２１號","OBJECTID":280592},"geometry":{"x":179808.75000000093,"y":2571730.5500000007}},{"attributes":{"ID":280599,"DIS_CODE":0,"TOWNNAME":"六甲區","LI":"龜港里","LIN":"2鄰","STREET":" ","SECT":" ","MAREA":"龜子港","LANE":" ","ALLEY":" ","HOUSE_NO":"３３號","E_COORD97":179798.56,"N_COORD97":2571756.6800000002,"ADDRESS":"龜子港３３號","OBJECTID":280593},"geometry":{"x":179798.55999999959,"y":2571756.6800000016}},{"attributes":{"ID":280600,"DIS_CODE":0,"TOWNNAME":"六甲區","LI":"龜港里","LIN":"2鄰","STREET":" ","SECT":" ","MAREA":"龜子港","LANE":" ","ALLEY":" ","HOUSE_NO":"３５號","E_COORD97":179797.22,"N_COORD97":2571760.54,"ADDRESS":"龜子港３５號","OBJECTID":280594},"geometry":{"x":179797.22000000067,"y":2571760.540000001}},{"attributes":{"ID":280601,"DIS_CODE":0,"TOWNNAME":"六甲區","LI":"龜港里","LIN":"2鄰","STREET":" ","SECT":" ","MAREA":"龜子港","LANE":" ","ALLEY":" ","HOUSE_NO":"３７號","E_COORD97":179796.37,"N_COORD97":2571765.0800000001,"ADDRESS":"龜子港３７號","OBJECTID":280595},"geometry":{"x":179796.37000000104,"y":2571765.0800000019}},{"attributes":{"ID":280602,"DIS_CODE":0,"TOWNNAME":"六甲區","LI":"龜港里","LIN":"2鄰","STREET":" ","SECT":" ","MAREA":"龜子港","LANE":" ","ALLEY":" ","HOUSE_NO":"３９號","E_COORD97":179795.20000000001,"N_COORD97":2571769.2999999998,"ADDRESS":"龜子港３９號","OBJECTID":280596},"geometry":{"x":179795.20000000019,"y":2571769.3000000007}},{"attributes":{"ID":280603,"DIS_CODE":0,"TOWNNAME":"六甲區","LI":"龜港里","LIN":"2鄰","STREET":" ","SECT":" ","MAREA":"龜子港","LANE":" ","ALLEY":" ","HOUSE_NO":"４１號","E_COORD97":179793.85999999999,"N_COORD97":2571773.6499999999,"ADDRESS":"龜子港４１號","OBJECTID":280597},"geometry":{"x":179793.86000000034,"y":2571773.6499999985}},{"attributes":{"ID":280604,"DIS_CODE":0,"TOWNNAME":"六甲區","LI":"龜港里","LIN":"2鄰","STREET":" ","SECT":" ","MAREA":"龜子港","LANE":" ","ALLEY":" ","HOUSE_NO":"４２號","E_COORD97":179748.42000000001,"N_COORD97":2572212.71,"ADDRESS":"龜子港４２號","OBJECTID":280598},"geometry":{"x":179748.42000000086,"y":2572212.7100000028}},{"attributes":{"ID":280605,"DIS_CODE":0,"TOWNNAME":"六甲區","LI":"龜港里","LIN":"2鄰","STREET":" ","SECT":" ","MAREA":"龜子港","LANE":" ","ALLEY":" ","HOUSE_NO":"４３號","E_COORD97":179792.79999999999,"N_COORD97":2571777.8999999999,"ADDRESS":"龜子港４３號","OBJECTID":280599},"geometry":{"x":179792.80000000075,"y":2571777.9000000004}},{"attributes":{"ID":280606,"DIS_CODE":0,"TOWNNAME":"六甲區","LI":"龜港里","LIN":"2鄰","STREET":" ","SECT":" ","MAREA":"龜子港","LANE":" ","ALLEY":" ","HOUSE_NO":"４５號","E_COORD97":179791.79999999999,"N_COORD97":2571782.2400000002,"ADDRESS":"龜子港４５號","OBJECTID":280600},"geometry":{"x":179791.79999999981,"y":2571782.2400000002}}]}