{"displayFieldName":"TOWNNAME","fieldAliases":{"ID":"ID","DIS_CODE":"DIS_CODE","TOWNNAME":"TOWNNAME","LI":"LI","LIN":"LIN","STREET":"STREET","SECT":"SECT","MAREA":"MAREA","LANE":"LANE","ALLEY":"ALLEY","HOUSE_NO":"HOUSE_NO","E_COORD97":"E_COORD97","N_COORD97":"N_COORD97","ADDRESS":"ADDRESS","OBJECTID":"OBJECTID"},"geometryType":"esriGeometryPoint","spatialReference":{"wkid":102443,"latestWkid":3826},"fields":[{"name":"ID","type":"esriFieldTypeDouble","alias":"ID"},{"name":"DIS_CODE","type":"esriFieldTypeInteger","alias":"DIS_CODE"},{"name":"TOWNNAME","type":"esriFieldTypeString","alias":"TOWNNAME","length":8},{"name":"LI","type":"esriFieldTypeString","alias":"LI","length":8},{"name":"LIN","type":"esriFieldTypeString","alias":"LIN","length":12},{"name":"STREET","type":"esriFieldTypeString","alias":"STREET","length":20},{"name":"SECT","type":"esriFieldTypeString","alias":"SECT","length":8},{"name":"MAREA","type":"esriFieldTypeString","alias":"MAREA","length":12},{"name":"LANE","type":"esriFieldTypeString","alias":"LANE","length":10},{"name":"ALLEY","type":"esriFieldTypeString","alias":"ALLEY","length":10},{"name":"HOUSE_NO","type":"esriFieldTypeString","alias":"HOUSE_NO","length":20},{"name":"E_COORD97","type":"esriFieldTypeDouble","alias":"E_COORD97"},{"name":"N_COORD97","type":"esriFieldTypeDouble","alias":"N_COORD97"},{"name":"ADDRESS","type":"esriFieldTypeString","alias":"ADDRESS","length":50},{"name":"OBJECTID","type":"esriFieldTypeOID","alias":"OBJECTID"}],"features":[{"attributes":{"ID":406225,"DIS_CODE":0,"TOWNNAME":"中西區","LI":"大涼里","LIN":"27鄰","STREET":"永華一街","SECT":" ","MAREA":" ","LANE":"４４巷","ALLEY":" ","HOUSE_NO":"１０號二樓之１","E_COORD97":166887.70999999999,"N_COORD97":2543347.3799999999,"ADDRESS":"永華一街４４巷１０號二樓之１","OBJECTID":406201},"geometry":{"x":166887.70999999996,"y":2543347.3800000008}},{"attributes":{"ID":406226,"DIS_CODE":0,"TOWNNAME":"中西區","LI":"大涼里","LIN":"27鄰","STREET":"永華一街","SECT":" ","MAREA":" ","LANE":"４４巷","ALLEY":" ","HOUSE_NO":"１０號二樓之２","E_COORD97":166887.70999999999,"N_COORD97":2543347.3799999999,"ADDRESS":"永華一街４４巷１０號二樓之２","OBJECTID":406202},"geometry":{"x":166887.70999999996,"y":2543347.3800000008}},{"attributes":{"ID":406227,"DIS_CODE":0,"TOWNNAME":"中西區","LI":"大涼里","LIN":"27鄰","STREET":"永華一街","SECT":" ","MAREA":" ","LANE":"４４巷","ALLEY":" ","HOUSE_NO":"１０號二樓之３","E_COORD97":166887.70999999999,"N_COORD97":2543347.3799999999,"ADDRESS":"永華一街４４巷１０號二樓之３","OBJECTID":406203},"geometry":{"x":166887.70999999996,"y":2543347.3800000008}},{"attributes":{"ID":406228,"DIS_CODE":0,"TOWNNAME":"中西區","LI":"大涼里","LIN":"27鄰","STREET":"永華一街","SECT":" ","MAREA":" ","LANE":"４４巷","ALLEY":" ","HOUSE_NO":"１０號三樓之１","E_COORD97":166887.70999999999,"N_COORD97":2543347.3799999999,"ADDRESS":"永華一街４４巷１０號三樓之１","OBJECTID":406204},"geometry":{"x":166887.70999999996,"y":2543347.3800000008}},{"attributes":{"ID":406229,"DIS_CODE":0,"TOWNNAME":"中西區","LI":"大涼里","LIN":"27鄰","STREET":"永華一街","SECT":" ","MAREA":" ","LANE":"４４巷","ALLEY":" ","HOUSE_NO":"１０號三樓之２","E_COORD97":166887.70999999999,"N_COORD97":2543347.3799999999,"ADDRESS":"永華一街４４巷１０號三樓之２","OBJECTID":406205},"geometry":{"x":166887.70999999996,"y":2543347.3800000008}},{"attributes":{"ID":406230,"DIS_CODE":0,"TOWNNAME":"中西區","LI":"大涼里","LIN":"27鄰","STREET":"永華一街","SECT":" ","MAREA":" ","LANE":"４４巷","ALLEY":" ","HOUSE_NO":"１０號三樓之３","E_COORD97":166887.70999999999,"N_COORD97":2543347.3799999999,"ADDRESS":"永華一街４４巷１０號三樓之３","OBJECTID":406206},"geometry":{"x":166887.70999999996,"y":2543347.3800000008}},{"attributes":{"ID":406231,"DIS_CODE":0,"TOWNNAME":"中西區","LI":"大涼里","LIN":"27鄰","STREET":"永華一街","SECT":" ","MAREA":" ","LANE":"４４巷","ALLEY":" ","HOUSE_NO":"１０號五樓之１","E_COORD97":166887.70999999999,"N_COORD97":2543347.3799999999,"ADDRESS":"永華一街４４巷１０號五樓之１","OBJECTID":406207},"geometry":{"x":166887.70999999996,"y":2543347.3800000008}},{"attributes":{"ID":406232,"DIS_CODE":0,"TOWNNAME":"中西區","LI":"大涼里","LIN":"27鄰","STREET":"永華一街","SECT":" ","MAREA":" ","LANE":"４４巷","ALLEY":" ","HOUSE_NO":"１０號五樓之１０","E_COORD97":166887.70999999999,"N_COORD97":2543347.3799999999,"ADDRESS":"永華一街４４巷１０號五樓之１０","OBJECTID":406208},"geometry":{"x":166887.70999999996,"y":2543347.3800000008}},{"attributes":{"ID":406233,"DIS_CODE":0,"TOWNNAME":"中西區","LI":"大涼里","LIN":"27鄰","STREET":"永華一街","SECT":" ","MAREA":" ","LANE":"４４巷","ALLEY":" ","HOUSE_NO":"１０號五樓之２","E_COORD97":166887.70999999999,"N_COORD97":2543347.3799999999,"ADDRESS":"永華一街４４巷１０號五樓之２","OBJECTID":406209},"geometry":{"x":166887.70999999996,"y":2543347.3800000008}},{"attributes":{"ID":406234,"DIS_CODE":0,"TOWNNAME":"永康區","LI":"崑山里","LIN":"3鄰","STREET":"永大路","SECT":"一段","MAREA":" ","LANE":"２８７巷","ALLEY":" ","HOUSE_NO":"１２６號","E_COORD97":173690.38,"N_COORD97":2544348.98,"ADDRESS":"永大路一段２８７巷１２６號","OBJECTID":406210},"geometry":{"x":173690.37999999989,"y":2544348.9800000004}},{"attributes":{"ID":406235,"DIS_CODE":0,"TOWNNAME":"永康區","LI":"復華里","LIN":"32鄰","STREET":"國華街","SECT":" ","MAREA":" ","LANE":"１６２巷","ALLEY":" ","HOUSE_NO":"１號","E_COORD97":172569.76000000001,"N_COORD97":2546317.75,"ADDRESS":"國華街１６２巷１號","OBJECTID":406211},"geometry":{"x":172569.76000000164,"y":2546317.7500000037}},{"attributes":{"ID":406236,"DIS_CODE":0,"TOWNNAME":"永康區","LI":"復國里","LIN":"10鄰","STREET":"復國二路","SECT":" ","MAREA":" ","LANE":"７９巷","ALLEY":" ","HOUSE_NO":"９號","E_COORD97":172803.73999999999,"N_COORD97":2545264.5699999998,"ADDRESS":"復國二路７９巷９號","OBJECTID":406212},"geometry":{"x":172803.74000000022,"y":2545264.5700000003}},{"attributes":{"ID":406237,"DIS_CODE":0,"TOWNNAME":"中西區","LI":"大涼里","LIN":"27鄰","STREET":"永華一街","SECT":" ","MAREA":" ","LANE":"４４巷","ALLEY":" ","HOUSE_NO":"１０號五樓之４","E_COORD97":166887.70999999999,"N_COORD97":2543347.3799999999,"ADDRESS":"永華一街４４巷１０號五樓之４","OBJECTID":406213},"geometry":{"x":166887.70999999996,"y":2543347.3800000008}},{"attributes":{"ID":406238,"DIS_CODE":0,"TOWNNAME":"中西區","LI":"大涼里","LIN":"27鄰","STREET":"永華一街","SECT":" ","MAREA":" ","LANE":"４４巷","ALLEY":" ","HOUSE_NO":"１０號五樓之５","E_COORD97":166887.70999999999,"N_COORD97":2543347.3799999999,"ADDRESS":"永華一街４４巷１０號五樓之５","OBJECTID":406214},"geometry":{"x":166887.70999999996,"y":2543347.3800000008}},{"attributes":{"ID":406239,"DIS_CODE":0,"TOWNNAME":"中西區","LI":"大涼里","LIN":"27鄰","STREET":"永華一街","SECT":" ","MAREA":" ","LANE":"４４巷","ALLEY":" ","HOUSE_NO":"１０號五樓之６","E_COORD97":166887.70999999999,"N_COORD97":2543347.3799999999,"ADDRESS":"永華一街４４巷１０號五樓之６","OBJECTID":406215},"geometry":{"x":166887.70999999996,"y":2543347.3800000008}},{"attributes":{"ID":406240,"DIS_CODE":0,"TOWNNAME":"中西區","LI":"大涼里","LIN":"27鄰","STREET":"永華一街","SECT":" ","MAREA":" ","LANE":"４４巷","ALLEY":" ","HOUSE_NO":"１０號五樓之７","E_COORD97":166887.70999999999,"N_COORD97":2543347.3799999999,"ADDRESS":"永華一街４４巷１０號五樓之７","OBJECTID":406216},"geometry":{"x":166887.70999999996,"y":2543347.3800000008}},{"attributes":{"ID":406241,"DIS_CODE":0,"TOWNNAME":"中西區","LI":"大涼里","LIN":"27鄰","STREET":"永華一街","SECT":" ","MAREA":" ","LANE":"４４巷","ALLEY":" ","HOUSE_NO":"１０號五樓之８","E_COORD97":166887.70999999999,"N_COORD97":2543347.3799999999,"ADDRESS":"永華一街４４巷１０號五樓之８","OBJECTID":406217},"geometry":{"x":166887.70999999996,"y":2543347.3800000008}},{"attributes":{"ID":406242,"DIS_CODE":0,"TOWNNAME":"中西區","LI":"大涼里","LIN":"27鄰","STREET":"永華一街","SECT":" ","MAREA":" ","LANE":"４４巷","ALLEY":" ","HOUSE_NO":"１０號五樓之９","E_COORD97":166887.70999999999,"N_COORD97":2543347.3799999999,"ADDRESS":"永華一街４４巷１０號五樓之９","OBJECTID":406218},"geometry":{"x":166887.70999999996,"y":2543347.3800000008}},{"attributes":{"ID":406243,"DIS_CODE":0,"TOWNNAME":"中西區","LI":"大涼里","LIN":"27鄰","STREET":"永華一街","SECT":" ","MAREA":" ","LANE":"４４巷","ALLEY":" ","HOUSE_NO":"１０號六樓之１","E_COORD97":166887.70999999999,"N_COORD97":2543347.3799999999,"ADDRESS":"永華一街４４巷１０號六樓之１","OBJECTID":406219},"geometry":{"x":166887.70999999996,"y":2543347.3800000008}},{"attributes":{"ID":406244,"DIS_CODE":0,"TOWNNAME":"中西區","LI":"大涼里","LIN":"27鄰","STREET":"永華一街","SECT":" ","MAREA":" ","LANE":"４４巷","ALLEY":" ","HOUSE_NO":"１０號六樓之２","E_COORD97":166887.70999999999,"N_COORD97":2543347.3799999999,"ADDRESS":"永華一街４４巷１０號六樓之２","OBJECTID":406220},"geometry":{"x":166887.70999999996,"y":2543347.3800000008}},{"attributes":{"ID":406245,"DIS_CODE":0,"TOWNNAME":"中西區","LI":"大涼里","LIN":"27鄰","STREET":"永華一街","SECT":" ","MAREA":" ","LANE":"４４巷","ALLEY":" ","HOUSE_NO":"１０號六樓之３","E_COORD97":166887.70999999999,"N_COORD97":2543347.3799999999,"ADDRESS":"永華一街４４巷１０號六樓之３","OBJECTID":406221},"geometry":{"x":166887.70999999996,"y":2543347.3800000008}},{"attributes":{"ID":406246,"DIS_CODE":0,"TOWNNAME":"中西區","LI":"大涼里","LIN":"27鄰","STREET":"永華一街","SECT":" ","MAREA":" ","LANE":"４４巷","ALLEY":" ","HOUSE_NO":"１０號六樓之４","E_COORD97":166887.70999999999,"N_COORD97":2543347.3799999999,"ADDRESS":"永華一街４４巷１０號六樓之４","OBJECTID":406222},"geometry":{"x":166887.70999999996,"y":2543347.3800000008}},{"attributes":{"ID":406247,"DIS_CODE":0,"TOWNNAME":"中西區","LI":"大涼里","LIN":"27鄰","STREET":"永華一街","SECT":" ","MAREA":" ","LANE":"４４巷","ALLEY":" ","HOUSE_NO":"１０號六樓之５","E_COORD97":166887.70999999999,"N_COORD97":2543347.3799999999,"ADDRESS":"永華一街４４巷１０號六樓之５","OBJECTID":406223},"geometry":{"x":166887.70999999996,"y":2543347.3800000008}},{"attributes":{"ID":406248,"DIS_CODE":0,"TOWNNAME":"永康區","LI":"崑山里","LIN":"4鄰","STREET":"永大路","SECT":"一段","MAREA":" ","LANE":"２８７巷","ALLEY":" ","HOUSE_NO":"１２１號","E_COORD97":173747.35000000001,"N_COORD97":2544292.8500000001,"ADDRESS":"永大路一段２８７巷１２１號","OBJECTID":406224},"geometry":{"x":173747.35000000056,"y":2544292.8500000034}},{"attributes":{"ID":406249,"DIS_CODE":0,"TOWNNAME":"永康區","LI":"崑山里","LIN":"12鄰","STREET":"大灣路","SECT":" ","MAREA":" ","LANE":"１０２０巷","ALLEY":" ","HOUSE_NO":"３４號","E_COORD97":173345.88,"N_COORD97":2544503.1400000001,"ADDRESS":"大灣路１０２０巷３４號","OBJECTID":406225},"geometry":{"x":173345.88000000082,"y":2544503.1400000025}},{"attributes":{"ID":406250,"DIS_CODE":0,"TOWNNAME":"永康區","LI":"復國里","LIN":"12鄰","STREET":"復國二路","SECT":" ","MAREA":" ","LANE":"１０４巷","ALLEY":" ","HOUSE_NO":"２號","E_COORD97":172868.95999999999,"N_COORD97":2545306.0299999998,"ADDRESS":"復國二路１０４巷２號","OBJECTID":406226},"geometry":{"x":172868.96000000089,"y":2545306.0300000012}},{"attributes":{"ID":406251,"DIS_CODE":0,"TOWNNAME":"永康區","LI":"復華里","LIN":"29鄰","STREET":"國華街","SECT":" ","MAREA":" ","LANE":"１３６巷","ALLEY":" ","HOUSE_NO":"８號","E_COORD97":172663.39999999999,"N_COORD97":2546194.9900000002,"ADDRESS":"國華街１３６巷８號","OBJECTID":406227},"geometry":{"x":172663.40000000037,"y":2546194.9900000021}},{"attributes":{"ID":406252,"DIS_CODE":0,"TOWNNAME":"永康區","LI":"勝利里","LIN":"23鄰","STREET":"中華一路","SECT":" ","MAREA":" ","LANE":"２０３巷","ALLEY":" ","HOUSE_NO":"３號","E_COORD97":171455.38,"N_COORD97":2544936.7400000002,"ADDRESS":"中華一路２０３巷３號","OBJECTID":406228},"geometry":{"x":171455.38000000082,"y":2544936.7400000002}},{"attributes":{"ID":406253,"DIS_CODE":0,"TOWNNAME":"中西區","LI":"大涼里","LIN":"27鄰","STREET":"永華一街","SECT":" ","MAREA":" ","LANE":"４４巷","ALLEY":" ","HOUSE_NO":"１０號四樓之１","E_COORD97":166887.70999999999,"N_COORD97":2543347.3799999999,"ADDRESS":"永華一街４４巷１０號四樓之１","OBJECTID":406229},"geometry":{"x":166887.70999999996,"y":2543347.3800000008}},{"attributes":{"ID":406254,"DIS_CODE":0,"TOWNNAME":"中西區","LI":"大涼里","LIN":"27鄰","STREET":"永華一街","SECT":" ","MAREA":" ","LANE":"４４巷","ALLEY":" ","HOUSE_NO":"１０號四樓之１０","E_COORD97":166887.70999999999,"N_COORD97":2543347.3799999999,"ADDRESS":"永華一街４４巷１０號四樓之１０","OBJECTID":406230},"geometry":{"x":166887.70999999996,"y":2543347.3800000008}},{"attributes":{"ID":406255,"DIS_CODE":0,"TOWNNAME":"中西區","LI":"大涼里","LIN":"27鄰","STREET":"永華一街","SECT":" ","MAREA":" ","LANE":"４４巷","ALLEY":" ","HOUSE_NO":"１０號四樓之２","E_COORD97":166887.70999999999,"N_COORD97":2543347.3799999999,"ADDRESS":"永華一街４４巷１０號四樓之２","OBJECTID":406231},"geometry":{"x":166887.70999999996,"y":2543347.3800000008}},{"attributes":{"ID":406256,"DIS_CODE":0,"TOWNNAME":"中西區","LI":"大涼里","LIN":"13鄰","STREET":"金城街","SECT":" ","MAREA":" ","LANE":" ","ALLEY":" ","HOUSE_NO":"８１號","E_COORD97":166846.76999999999,"N_COORD97":2543699.46,"ADDRESS":"金城街８１號","OBJECTID":406232},"geometry":{"x":166846.77000000048,"y":2543699.4600000009}},{"attributes":{"ID":406257,"DIS_CODE":0,"TOWNNAME":"中西區","LI":"大涼里","LIN":"27鄰","STREET":"永華一街","SECT":" ","MAREA":" ","LANE":"４４巷","ALLEY":" ","HOUSE_NO":"１０號四樓之３","E_COORD97":166887.70999999999,"N_COORD97":2543347.3799999999,"ADDRESS":"永華一街４４巷１０號四樓之３","OBJECTID":406233},"geometry":{"x":166887.70999999996,"y":2543347.3800000008}},{"attributes":{"ID":406258,"DIS_CODE":0,"TOWNNAME":"中西區","LI":"大涼里","LIN":"27鄰","STREET":"永華一街","SECT":" ","MAREA":" ","LANE":"４４巷","ALLEY":" ","HOUSE_NO":"１０號四樓之５","E_COORD97":166887.70999999999,"N_COORD97":2543347.3799999999,"ADDRESS":"永華一街４４巷１０號四樓之５","OBJECTID":406234},"geometry":{"x":166887.70999999996,"y":2543347.3800000008}},{"attributes":{"ID":406259,"DIS_CODE":0,"TOWNNAME":"中西區","LI":"大涼里","LIN":"27鄰","STREET":"永華一街","SECT":" ","MAREA":" ","LANE":"４４巷","ALLEY":" ","HOUSE_NO":"１０號四樓之６","E_COORD97":166887.70999999999,"N_COORD97":2543347.3799999999,"ADDRESS":"永華一街４４巷１０號四樓之６","OBJECTID":406235},"geometry":{"x":166887.70999999996,"y":2543347.3800000008}},{"attributes":{"ID":406260,"DIS_CODE":0,"TOWNNAME":"中西區","LI":"大涼里","LIN":"27鄰","STREET":"永華一街","SECT":" ","MAREA":" ","LANE":"４４巷","ALLEY":" ","HOUSE_NO":"１０號四樓之７","E_COORD97":166887.70999999999,"N_COORD97":2543347.3799999999,"ADDRESS":"永華一街４４巷１０號四樓之７","OBJECTID":406236},"geometry":{"x":166887.70999999996,"y":2543347.3800000008}},{"attributes":{"ID":406261,"DIS_CODE":0,"TOWNNAME":"中西區","LI":"大涼里","LIN":"27鄰","STREET":"永華一街","SECT":" ","MAREA":" ","LANE":"４４巷","ALLEY":" ","HOUSE_NO":"１０號四樓之８","E_COORD97":166887.70999999999,"N_COORD97":2543347.3799999999,"ADDRESS":"永華一街４４巷１０號四樓之８","OBJECTID":406237},"geometry":{"x":166887.70999999996,"y":2543347.3800000008}},{"attributes":{"ID":406262,"DIS_CODE":0,"TOWNNAME":"中西區","LI":"大涼里","LIN":"27鄰","STREET":"永華一街","SECT":" ","MAREA":" ","LANE":"４４巷","ALLEY":" ","HOUSE_NO":"１０號四樓之９","E_COORD97":166887.70999999999,"N_COORD97":2543347.3799999999,"ADDRESS":"永華一街４４巷１０號四樓之９","OBJECTID":406238},"geometry":{"x":166887.70999999996,"y":2543347.3800000008}},{"attributes":{"ID":406263,"DIS_CODE":0,"TOWNNAME":"永康區","LI":"復國里","LIN":"8鄰","STREET":"復國二路","SECT":" ","MAREA":" ","LANE":"６３巷","ALLEY":" ","HOUSE_NO":"１９號","E_COORD97":172778.73000000001,"N_COORD97":2545130.27,"ADDRESS":"復國二路６３巷１９號","OBJECTID":406239},"geometry":{"x":172778.73000000045,"y":2545130.2699999996}},{"attributes":{"ID":406264,"DIS_CODE":0,"TOWNNAME":"永康區","LI":"勝利里","LIN":"1鄰","STREET":"勝利街","SECT":" ","MAREA":" ","LANE":"１巷","ALLEY":" ","HOUSE_NO":"３之１號","E_COORD97":171125.5,"N_COORD97":2544574.7999999998,"ADDRESS":"勝利街１巷３之１號","OBJECTID":406240},"geometry":{"x":171125.5,"y":2544574.8000000007}},{"attributes":{"ID":406265,"DIS_CODE":0,"TOWNNAME":"南區","LI":"文南里","LIN":"22鄰","STREET":"中華西路","SECT":"一段","MAREA":" ","LANE":"１３７巷","ALLEY":" ","HOUSE_NO":"２５號","E_COORD97":166393.73999999999,"N_COORD97":2542474.2799999998,"ADDRESS":"中華西路一段１３７巷２５號","OBJECTID":406241},"geometry":{"x":166393.74000000115,"y":2542474.2799999993}},{"attributes":{"ID":406266,"DIS_CODE":0,"TOWNNAME":"南區","LI":"文南里","LIN":"22鄰","STREET":"中華西路","SECT":"一段","MAREA":" ","LANE":"１３７巷","ALLEY":" ","HOUSE_NO":"２７號","E_COORD97":166389.10999999999,"N_COORD97":2542474.8999999999,"ADDRESS":"中華西路一段１３７巷２７號","OBJECTID":406242},"geometry":{"x":166389.11000000127,"y":2542474.9000000004}},{"attributes":{"ID":406267,"DIS_CODE":0,"TOWNNAME":"南區","LI":"文南里","LIN":"22鄰","STREET":"中華西路","SECT":"一段","MAREA":" ","LANE":"１３７巷","ALLEY":" ","HOUSE_NO":"２９號","E_COORD97":166384.48000000001,"N_COORD97":2542474.9900000002,"ADDRESS":"中華西路一段１３７巷２９號","OBJECTID":406243},"geometry":{"x":166384.48000000045,"y":2542474.9899999984}},{"attributes":{"ID":406268,"DIS_CODE":0,"TOWNNAME":"南區","LI":"文南里","LIN":"22鄰","STREET":"中華西路","SECT":"一段","MAREA":" ","LANE":"１３７巷","ALLEY":" ","HOUSE_NO":"３１號","E_COORD97":166380.17000000001,"N_COORD97":2542475.7000000002,"ADDRESS":"中華西路一段１３７巷３１號","OBJECTID":406244},"geometry":{"x":166380.17000000086,"y":2542475.6999999993}},{"attributes":{"ID":406269,"DIS_CODE":0,"TOWNNAME":"永康區","LI":"勝利里","LIN":"22鄰","STREET":"中華一路","SECT":" ","MAREA":" ","LANE":"１８２巷","ALLEY":" ","HOUSE_NO":"７號","E_COORD97":171499.06,"N_COORD97":2545073,"ADDRESS":"中華一路１８２巷７號","OBJECTID":406245},"geometry":{"x":171499.05999999959,"y":2545073.0000000019}},{"attributes":{"ID":406270,"DIS_CODE":0,"TOWNNAME":"永康區","LI":"復國里","LIN":"5鄰","STREET":"復國二路","SECT":" ","MAREA":" ","LANE":"４０巷","ALLEY":" ","HOUSE_NO":"１５號","E_COORD97":172875.73000000001,"N_COORD97":2544995.5299999998,"ADDRESS":"復國二路４０巷１５號","OBJECTID":406246},"geometry":{"x":172875.73000000231,"y":2544995.5299999993}},{"attributes":{"ID":406271,"DIS_CODE":0,"TOWNNAME":"永康區","LI":"崑山里","LIN":"32鄰","STREET":"崑山街","SECT":" ","MAREA":" ","LANE":"１１６巷","ALLEY":" ","HOUSE_NO":"１３號","E_COORD97":174045.79000000001,"N_COORD97":2544787.6299999999,"ADDRESS":"崑山街１１６巷１３號","OBJECTID":406247},"geometry":{"x":174045.79000000004,"y":2544787.629999999}},{"attributes":{"ID":406272,"DIS_CODE":0,"TOWNNAME":"永康區","LI":"勝利里","LIN":"35鄰","STREET":"勝利街","SECT":" ","MAREA":" ","LANE":"２巷","ALLEY":" ","HOUSE_NO":"１號之１８","E_COORD97":171135.39999999999,"N_COORD97":2544690.5499999998,"ADDRESS":"勝利街２巷１號之１８","OBJECTID":406248},"geometry":{"x":171135.4000000013,"y":2544690.5500000026}},{"attributes":{"ID":406273,"DIS_CODE":0,"TOWNNAME":"永康區","LI":"勝利里","LIN":"7鄰","STREET":"勝利街","SECT":" ","MAREA":" ","LANE":"１１巷","ALLEY":" ","HOUSE_NO":"２號","E_COORD97":171206.57000000001,"N_COORD97":2544590.0099999998,"ADDRESS":"勝利街１１巷２號","OBJECTID":406249},"geometry":{"x":171206.5700000003,"y":2544590.0100000035}},{"attributes":{"ID":406274,"DIS_CODE":0,"TOWNNAME":"永康區","LI":"神洲里","LIN":"1鄰","STREET":"忠孝路","SECT":" ","MAREA":" ","LANE":"６巷","ALLEY":" ","HOUSE_NO":"７號","E_COORD97":172122.98999999999,"N_COORD97":2544583.25,"ADDRESS":"忠孝路６巷７號","OBJECTID":406250},"geometry":{"x":172122.99000000115,"y":2544583.2500000019}},{"attributes":{"ID":406275,"DIS_CODE":0,"TOWNNAME":"永康區","LI":"神洲里","LIN":"6鄰","STREET":"忠孝路","SECT":" ","MAREA":" ","LANE":"５４巷","ALLEY":" ","HOUSE_NO":"２２號","E_COORD97":172173.79999999999,"N_COORD97":2544754.75,"ADDRESS":"忠孝路５４巷２２號","OBJECTID":406251},"geometry":{"x":172173.79999999981,"y":2544754.7500000037}},{"attributes":{"ID":406276,"DIS_CODE":0,"TOWNNAME":"永康區","LI":"崑山里","LIN":"28鄰","STREET":"大灣路","SECT":" ","MAREA":" ","LANE":"９４２巷","ALLEY":" ","HOUSE_NO":"２１３號","E_COORD97":173747.60999999999,"N_COORD97":2544868.25,"ADDRESS":"大灣路９４２巷２１３號","OBJECTID":406252},"geometry":{"x":173747.6099999994,"y":2544868.2500000019}},{"attributes":{"ID":406277,"DIS_CODE":0,"TOWNNAME":"永康區","LI":"崑山里","LIN":"32鄰","STREET":"崑山街","SECT":" ","MAREA":" ","LANE":"１１６巷","ALLEY":" ","HOUSE_NO":"１５號","E_COORD97":174049.26999999999,"N_COORD97":2544786.1299999999,"ADDRESS":"崑山街１１６巷１５號","OBJECTID":406253},"geometry":{"x":174049.27000000142,"y":2544786.1300000008}},{"attributes":{"ID":406278,"DIS_CODE":0,"TOWNNAME":"永康區","LI":"崑山里","LIN":"29鄰","STREET":"大仁街","SECT":" ","MAREA":" ","LANE":"１２５巷","ALLEY":" ","HOUSE_NO":"１３號","E_COORD97":173809.89000000001,"N_COORD97":2544858.1000000001,"ADDRESS":"大仁街１２５巷１３號","OBJECTID":406254},"geometry":{"x":173809.8900000006,"y":2544858.1000000015}},{"attributes":{"ID":406279,"DIS_CODE":0,"TOWNNAME":"永康區","LI":"崑山里","LIN":"11鄰","STREET":"大灣路","SECT":" ","MAREA":" ","LANE":"１０２０巷","ALLEY":" ","HOUSE_NO":"５８號","E_COORD97":173335.39000000001,"N_COORD97":2544435.5699999998,"ADDRESS":"大灣路１０２０巷５８號","OBJECTID":406255},"geometry":{"x":173335.3900000006,"y":2544435.5700000022}},{"attributes":{"ID":406280,"DIS_CODE":0,"TOWNNAME":"永康區","LI":"崑山里","LIN":"4鄰","STREET":"永大路","SECT":"一段","MAREA":" ","LANE":"２８７巷","ALLEY":" ","HOUSE_NO":"８３號","E_COORD97":173771.95000000001,"N_COORD97":2544290.5099999998,"ADDRESS":"永大路一段２８７巷８３號","OBJECTID":406256},"geometry":{"x":173771.95000000019,"y":2544290.5099999998}},{"attributes":{"ID":406281,"DIS_CODE":0,"TOWNNAME":"永康區","LI":"崑山里","LIN":"34鄰","STREET":"大仁街","SECT":" ","MAREA":" ","LANE":"１２５巷","ALLEY":" ","HOUSE_NO":"２４號","E_COORD97":173802.76999999999,"N_COORD97":2544875.1600000001,"ADDRESS":"大仁街１２５巷２４號","OBJECTID":406257},"geometry":{"x":173802.76999999955,"y":2544875.160000002}},{"attributes":{"ID":406282,"DIS_CODE":0,"TOWNNAME":"永康區","LI":"崑山里","LIN":"34鄰","STREET":"大仁街","SECT":" ","MAREA":" ","LANE":"１２５巷","ALLEY":" ","HOUSE_NO":"８號","E_COORD97":173834.42999999999,"N_COORD97":2544863.4100000001,"ADDRESS":"大仁街１２５巷８號","OBJECTID":406258},"geometry":{"x":173834.4299999997,"y":2544863.410000002}},{"attributes":{"ID":406283,"DIS_CODE":0,"TOWNNAME":"永康區","LI":"復國里","LIN":"12鄰","STREET":"復國二路","SECT":" ","MAREA":" ","LANE":"１０４巷","ALLEY":" ","HOUSE_NO":"５號","E_COORD97":172884.51000000001,"N_COORD97":2545318.02,"ADDRESS":"復國二路１０４巷５號","OBJECTID":406259},"geometry":{"x":172884.50999999978,"y":2545318.0199999996}},{"attributes":{"ID":406284,"DIS_CODE":0,"TOWNNAME":"永康區","LI":"崑山里","LIN":"12鄰","STREET":"大灣路","SECT":" ","MAREA":" ","LANE":"１０２０巷","ALLEY":" ","HOUSE_NO":"３８號","E_COORD97":173326.06,"N_COORD97":2544498.25,"ADDRESS":"大灣路１０２０巷３８號","OBJECTID":406260},"geometry":{"x":173326.05999999959,"y":2544498.2500000019}},{"attributes":{"ID":406285,"DIS_CODE":0,"TOWNNAME":"永康區","LI":"復國里","LIN":"10鄰","STREET":"復國二路","SECT":" ","MAREA":" ","LANE":"７９巷","ALLEY":" ","HOUSE_NO":"２號之１","E_COORD97":172826.89999999999,"N_COORD97":2545282.2999999998,"ADDRESS":"復國二路７９巷２號之１","OBJECTID":406261},"geometry":{"x":172826.89999999944,"y":2545282.3000000026}},{"attributes":{"ID":406286,"DIS_CODE":0,"TOWNNAME":"永康區","LI":"復國里","LIN":"10鄰","STREET":"復國二路","SECT":" ","MAREA":" ","LANE":"８７巷","ALLEY":" ","HOUSE_NO":"２３號","E_COORD97":172789.57000000001,"N_COORD97":2545373.0299999998,"ADDRESS":"復國二路８７巷２３號","OBJECTID":406262},"geometry":{"x":172789.5700000003,"y":2545373.0300000012}},{"attributes":{"ID":406287,"DIS_CODE":0,"TOWNNAME":"永康區","LI":"復國里","LIN":"10鄰","STREET":"復國二路","SECT":" ","MAREA":" ","LANE":"８７巷","ALLEY":" ","HOUSE_NO":"９號","E_COORD97":172824.92000000001,"N_COORD97":2545370.7799999998,"ADDRESS":"復國二路８７巷９號","OBJECTID":406263},"geometry":{"x":172824.92000000086,"y":2545370.7799999975}},{"attributes":{"ID":406288,"DIS_CODE":0,"TOWNNAME":"永康區","LI":"勝利里","LIN":"23鄰","STREET":"中華一路","SECT":" ","MAREA":" ","LANE":"２０３巷","ALLEY":" ","HOUSE_NO":"１９號","E_COORD97":171453.87,"N_COORD97":2544902.2400000002,"ADDRESS":"中華一路２０３巷１９號","OBJECTID":406264},"geometry":{"x":171453.87000000197,"y":2544902.2400000021}},{"attributes":{"ID":406289,"DIS_CODE":0,"TOWNNAME":"永康區","LI":"崑山里","LIN":"34鄰","STREET":"大仁街","SECT":" ","MAREA":" ","LANE":"１２５巷","ALLEY":" ","HOUSE_NO":"１８號","E_COORD97":173815.37,"N_COORD97":2544870.9100000001,"ADDRESS":"大仁街１２５巷１８號","OBJECTID":406265},"geometry":{"x":173815.37000000104,"y":2544870.910000002}},{"attributes":{"ID":406290,"DIS_CODE":0,"TOWNNAME":"永康區","LI":"崑山里","LIN":"4鄰","STREET":"永大路","SECT":"一段","MAREA":" ","LANE":"２８７巷","ALLEY":" ","HOUSE_NO":"８９號","E_COORD97":173762.85000000001,"N_COORD97":2544288.3500000001,"ADDRESS":"永大路一段２８７巷８９號","OBJECTID":406266},"geometry":{"x":173762.85000000056,"y":2544288.3499999996}},{"attributes":{"ID":406291,"DIS_CODE":0,"TOWNNAME":"永康區","LI":"復國里","LIN":"12鄰","STREET":"復國二路","SECT":" ","MAREA":" ","LANE":"１０６巷","ALLEY":" ","HOUSE_NO":"８號","E_COORD97":172889.94,"N_COORD97":2545337.02,"ADDRESS":"復國二路１０６巷８號","OBJECTID":406267},"geometry":{"x":172889.94000000134,"y":2545337.0200000014}},{"attributes":{"ID":406292,"DIS_CODE":0,"TOWNNAME":"永康區","LI":"復國里","LIN":"10鄰","STREET":"復國二路","SECT":" ","MAREA":" ","LANE":"８７巷","ALLEY":" ","HOUSE_NO":"７號","E_COORD97":172832.82000000001,"N_COORD97":2545370.0299999998,"ADDRESS":"復國二路８７巷７號","OBJECTID":406268},"geometry":{"x":172832.82000000123,"y":2545370.0300000012}},{"attributes":{"ID":406293,"DIS_CODE":0,"TOWNNAME":"永康區","LI":"復國里","LIN":"9鄰","STREET":"復國二路","SECT":" ","MAREA":" ","LANE":"８８巷","ALLEY":" ","HOUSE_NO":"８號之１","E_COORD97":172882.26999999999,"N_COORD97":2545166.0499999998,"ADDRESS":"復國二路８８巷８號之１","OBJECTID":406269},"geometry":{"x":172882.26999999955,"y":2545166.0500000007}},{"attributes":{"ID":406294,"DIS_CODE":0,"TOWNNAME":"永康區","LI":"復華里","LIN":"23鄰","STREET":"國華街","SECT":" ","MAREA":" ","LANE":"１３４巷","ALLEY":" ","HOUSE_NO":"１５號","E_COORD97":172726.64000000001,"N_COORD97":2546176.9900000002,"ADDRESS":"國華街１３４巷１５號","OBJECTID":406270},"geometry":{"x":172726.6400000006,"y":2546176.9900000002}},{"attributes":{"ID":406295,"DIS_CODE":0,"TOWNNAME":"永康區","LI":"勝利里","LIN":"27鄰","STREET":"勝利街","SECT":" ","MAREA":" ","LANE":"５４巷","ALLEY":" ","HOUSE_NO":"２號","E_COORD97":171358.23000000001,"N_COORD97":2544654.8599999999,"ADDRESS":"勝利街５４巷２號","OBJECTID":406271},"geometry":{"x":171358.23000000045,"y":2544654.8599999994}},{"attributes":{"ID":406296,"DIS_CODE":0,"TOWNNAME":"永康區","LI":"崑山里","LIN":"22鄰","STREET":"大灣路","SECT":" ","MAREA":" ","LANE":"７９８巷","ALLEY":" ","HOUSE_NO":"３４號","E_COORD97":174036.54000000001,"N_COORD97":2544611.5099999998,"ADDRESS":"大灣路７９８巷３４號","OBJECTID":406272},"geometry":{"x":174036.54000000097,"y":2544611.5100000016}},{"attributes":{"ID":406297,"DIS_CODE":0,"TOWNNAME":"永康區","LI":"崑山里","LIN":"39鄰","STREET":"國光三街","SECT":" ","MAREA":" ","LANE":"１０巷","ALLEY":" ","HOUSE_NO":"１６號","E_COORD97":174162.89999999999,"N_COORD97":2544917.1600000001,"ADDRESS":"國光三街１０巷１６號","OBJECTID":406273},"geometry":{"x":174162.90000000224,"y":2544917.1600000001}},{"attributes":{"ID":406298,"DIS_CODE":0,"TOWNNAME":"永康區","LI":"復國里","LIN":"8鄰","STREET":"復國二路","SECT":" ","MAREA":" ","LANE":"６５巷","ALLEY":" ","HOUSE_NO":"７號","E_COORD97":172807.79000000001,"N_COORD97":2545163.7799999998,"ADDRESS":"復國二路６５巷７號","OBJECTID":406274},"geometry":{"x":172807.79000000097,"y":2545163.7799999993}},{"attributes":{"ID":406299,"DIS_CODE":0,"TOWNNAME":"永康區","LI":"復國里","LIN":"8鄰","STREET":"復國二路","SECT":" ","MAREA":" ","LANE":"６３巷","ALLEY":" ","HOUSE_NO":"１６號","E_COORD97":172775.48000000001,"N_COORD97":2545146.5499999998,"ADDRESS":"復國二路６３巷１６號","OBJECTID":406275},"geometry":{"x":172775.48000000045,"y":2545146.5500000007}},{"attributes":{"ID":406300,"DIS_CODE":0,"TOWNNAME":"永康區","LI":"復國里","LIN":"8鄰","STREET":"復國二路","SECT":" ","MAREA":" ","LANE":"６５巷","ALLEY":" ","HOUSE_NO":"１０號","E_COORD97":172802.41,"N_COORD97":2545177.1400000001,"ADDRESS":"復國二路６５巷１０號","OBJECTID":406276},"geometry":{"x":172802.41000000015,"y":2545177.1400000025}},{"attributes":{"ID":406301,"DIS_CODE":0,"TOWNNAME":"永康區","LI":"復國里","LIN":"8鄰","STREET":"復國二路","SECT":" ","MAREA":" ","LANE":"６３巷","ALLEY":" ","HOUSE_NO":"１４號","E_COORD97":172782.14000000001,"N_COORD97":2545146.0499999998,"ADDRESS":"復國二路６３巷１４號","OBJECTID":406277},"geometry":{"x":172782.13999999873,"y":2545146.0500000007}},{"attributes":{"ID":406302,"DIS_CODE":0,"TOWNNAME":"永康區","LI":"復國里","LIN":"6鄰","STREET":"復國一路","SECT":" ","MAREA":" ","LANE":"１２０巷","ALLEY":" ","HOUSE_NO":"６號","E_COORD97":172746.06,"N_COORD97":2544992.7799999998,"ADDRESS":"復國一路１２０巷６號","OBJECTID":406278},"geometry":{"x":172746.06000000052,"y":2544992.7800000012}},{"attributes":{"ID":406303,"DIS_CODE":0,"TOWNNAME":"永康區","LI":"勝利里","LIN":"23鄰","STREET":"中華一路","SECT":" ","MAREA":" ","LANE":"１８１巷","ALLEY":" ","HOUSE_NO":"８號","E_COORD97":171493.51000000001,"N_COORD97":2544922.2400000002,"ADDRESS":"中華一路１８１巷８號","OBJECTID":406279},"geometry":{"x":171493.51000000071,"y":2544922.2400000021}},{"attributes":{"ID":406304,"DIS_CODE":0,"TOWNNAME":"永康區","LI":"復華里","LIN":"16鄰","STREET":"國華街","SECT":" ","MAREA":" ","LANE":"１０２巷","ALLEY":" ","HOUSE_NO":"８３號","E_COORD97":172932.84,"N_COORD97":2546178.23,"ADDRESS":"國華街１０２巷８３號","OBJECTID":406280},"geometry":{"x":172932.83999999985,"y":2546178.2300000004}},{"attributes":{"ID":406305,"DIS_CODE":0,"TOWNNAME":"永康區","LI":"復華里","LIN":"27鄰","STREET":"復華八街","SECT":" ","MAREA":" ","LANE":"５１巷","ALLEY":" ","HOUSE_NO":"３９號六樓之３","E_COORD97":172687.94,"N_COORD97":2546429.1400000001,"ADDRESS":"復華八街５１巷３９號六樓之３","OBJECTID":406281},"geometry":{"x":172687.94000000134,"y":2546429.1400000025}},{"attributes":{"ID":406306,"DIS_CODE":0,"TOWNNAME":"永康區","LI":"復華里","LIN":"27鄰","STREET":"復華八街","SECT":" ","MAREA":" ","LANE":"５１巷","ALLEY":" ","HOUSE_NO":"３５號十樓之５","E_COORD97":172703.04000000001,"N_COORD97":2546429.1400000001,"ADDRESS":"復華八街５１巷３５號十樓之５","OBJECTID":406282},"geometry":{"x":172703.04000000004,"y":2546429.1400000025}},{"attributes":{"ID":406307,"DIS_CODE":0,"TOWNNAME":"永康區","LI":"復華里","LIN":"27鄰","STREET":"復華八街","SECT":" ","MAREA":" ","LANE":"５１巷","ALLEY":" ","HOUSE_NO":"３９號五樓之７","E_COORD97":172687.92000000001,"N_COORD97":2546429.1400000001,"ADDRESS":"復華八街５１巷３９號五樓之７","OBJECTID":406283},"geometry":{"x":172687.92000000086,"y":2546429.1400000025}},{"attributes":{"ID":406308,"DIS_CODE":0,"TOWNNAME":"永康區","LI":"復華里","LIN":"27鄰","STREET":"復華八街","SECT":" ","MAREA":" ","LANE":"５１巷","ALLEY":" ","HOUSE_NO":"３９號四樓之２","E_COORD97":172687.98000000001,"N_COORD97":2546429.1400000001,"ADDRESS":"復華八街５１巷３９號四樓之２","OBJECTID":406284},"geometry":{"x":172687.98000000138,"y":2546429.1400000025}},{"attributes":{"ID":406309,"DIS_CODE":0,"TOWNNAME":"東區","LI":"忠孝里","LIN":"27鄰","STREET":"榮譽街","SECT":" ","MAREA":" ","LANE":"８４巷","ALLEY":" ","HOUSE_NO":"２３號之２三樓","E_COORD97":169777.32000000001,"N_COORD97":2541659.9100000001,"ADDRESS":"榮譽街８４巷２３號之２三樓","OBJECTID":406285},"geometry":{"x":169777.3200000003,"y":2541659.910000002}},{"attributes":{"ID":406310,"DIS_CODE":0,"TOWNNAME":"東區","LI":"忠孝里","LIN":"27鄰","STREET":"榮譽街","SECT":" ","MAREA":" ","LANE":"８４巷","ALLEY":" ","HOUSE_NO":"２３號之２五樓","E_COORD97":169777.32000000001,"N_COORD97":2541659.9100000001,"ADDRESS":"榮譽街８４巷２３號之２五樓","OBJECTID":406286},"geometry":{"x":169777.3200000003,"y":2541659.910000002}},{"attributes":{"ID":406311,"DIS_CODE":0,"TOWNNAME":"東區","LI":"忠孝里","LIN":"27鄰","STREET":"榮譽街","SECT":" ","MAREA":" ","LANE":"８４巷","ALLEY":" ","HOUSE_NO":"２３號之２四樓","E_COORD97":169777.32000000001,"N_COORD97":2541659.9100000001,"ADDRESS":"榮譽街８４巷２３號之２四樓","OBJECTID":406287},"geometry":{"x":169777.3200000003,"y":2541659.910000002}},{"attributes":{"ID":406312,"DIS_CODE":0,"TOWNNAME":"東區","LI":"忠孝里","LIN":"27鄰","STREET":"榮譽街","SECT":" ","MAREA":" ","LANE":"８４巷","ALLEY":" ","HOUSE_NO":"２３號之３四樓","E_COORD97":169770.45000000001,"N_COORD97":2541656.8100000001,"ADDRESS":"榮譽街８４巷２３號之３四樓","OBJECTID":406288},"geometry":{"x":169770.45000000112,"y":2541656.8100000024}},{"attributes":{"ID":406313,"DIS_CODE":0,"TOWNNAME":"永康區","LI":"復華里","LIN":"27鄰","STREET":"復華八街","SECT":" ","MAREA":" ","LANE":"５１巷","ALLEY":" ","HOUSE_NO":"３９號九樓之１","E_COORD97":172687.85000000001,"N_COORD97":2546429.1400000001,"ADDRESS":"復華八街５１巷３９號九樓之１","OBJECTID":406289},"geometry":{"x":172687.85000000056,"y":2546429.1400000025}},{"attributes":{"ID":406314,"DIS_CODE":0,"TOWNNAME":"永康區","LI":"復華里","LIN":"27鄰","STREET":"復華八街","SECT":" ","MAREA":" ","LANE":"５１巷","ALLEY":" ","HOUSE_NO":"３９號二樓之７","E_COORD97":172687.92000000001,"N_COORD97":2546429.1400000001,"ADDRESS":"復華八街５１巷３９號二樓之７","OBJECTID":406290},"geometry":{"x":172687.92000000086,"y":2546429.1400000025}},{"attributes":{"ID":406315,"DIS_CODE":0,"TOWNNAME":"永康區","LI":"復華里","LIN":"27鄰","STREET":"復華八街","SECT":" ","MAREA":" ","LANE":"５１巷","ALLEY":" ","HOUSE_NO":"３９號二樓之２","E_COORD97":172687.98000000001,"N_COORD97":2546429.1400000001,"ADDRESS":"復華八街５１巷３９號二樓之２","OBJECTID":406291},"geometry":{"x":172687.98000000138,"y":2546429.1400000025}},{"attributes":{"ID":406316,"DIS_CODE":0,"TOWNNAME":"永康區","LI":"復華里","LIN":"27鄰","STREET":"復華八街","SECT":" ","MAREA":" ","LANE":"５１巷","ALLEY":" ","HOUSE_NO":"３９號四樓之３","E_COORD97":172687.94,"N_COORD97":2546429.1400000001,"ADDRESS":"復華八街５１巷３９號四樓之３","OBJECTID":406292},"geometry":{"x":172687.94000000134,"y":2546429.1400000025}},{"attributes":{"ID":406317,"DIS_CODE":0,"TOWNNAME":"永康區","LI":"復華里","LIN":"27鄰","STREET":"復華八街","SECT":" ","MAREA":" ","LANE":"５１巷","ALLEY":" ","HOUSE_NO":"３９號九樓之３","E_COORD97":172687.94,"N_COORD97":2546429.1400000001,"ADDRESS":"復華八街５１巷３９號九樓之３","OBJECTID":406293},"geometry":{"x":172687.94000000134,"y":2546429.1400000025}},{"attributes":{"ID":406318,"DIS_CODE":0,"TOWNNAME":"永康區","LI":"復華里","LIN":"27鄰","STREET":"復華八街","SECT":" ","MAREA":" ","LANE":"５１巷","ALLEY":" ","HOUSE_NO":"３９號九樓之２","E_COORD97":172687.98000000001,"N_COORD97":2546429.1400000001,"ADDRESS":"復華八街５１巷３９號九樓之２","OBJECTID":406294},"geometry":{"x":172687.98000000138,"y":2546429.1400000025}},{"attributes":{"ID":406319,"DIS_CODE":0,"TOWNNAME":"永康區","LI":"復華里","LIN":"27鄰","STREET":"復華八街","SECT":" ","MAREA":" ","LANE":"５１巷","ALLEY":" ","HOUSE_NO":"３９號六樓之１","E_COORD97":172687.85000000001,"N_COORD97":2546429.1400000001,"ADDRESS":"復華八街５１巷３９號六樓之１","OBJECTID":406295},"geometry":{"x":172687.85000000056,"y":2546429.1400000025}},{"attributes":{"ID":406320,"DIS_CODE":0,"TOWNNAME":"永康區","LI":"復華里","LIN":"27鄰","STREET":"復華八街","SECT":" ","MAREA":" ","LANE":"５１巷","ALLEY":" ","HOUSE_NO":"３９號七樓之３","E_COORD97":172687.94,"N_COORD97":2546429.1400000001,"ADDRESS":"復華八街５１巷３９號七樓之３","OBJECTID":406296},"geometry":{"x":172687.94000000134,"y":2546429.1400000025}},{"attributes":{"ID":406321,"DIS_CODE":0,"TOWNNAME":"永康區","LI":"復華里","LIN":"27鄰","STREET":"復華八街","SECT":" ","MAREA":" ","LANE":"５１巷","ALLEY":" ","HOUSE_NO":"３５號九樓之５","E_COORD97":172703.04000000001,"N_COORD97":2546429.1400000001,"ADDRESS":"復華八街５１巷３５號九樓之５","OBJECTID":406297},"geometry":{"x":172703.04000000004,"y":2546429.1400000025}},{"attributes":{"ID":406322,"DIS_CODE":0,"TOWNNAME":"永康區","LI":"復華里","LIN":"27鄰","STREET":"復華八街","SECT":" ","MAREA":" ","LANE":"５１巷","ALLEY":" ","HOUSE_NO":"３９號三樓之７","E_COORD97":172687.92000000001,"N_COORD97":2546429.1400000001,"ADDRESS":"復華八街５１巷３９號三樓之７","OBJECTID":406298},"geometry":{"x":172687.92000000086,"y":2546429.1400000025}},{"attributes":{"ID":406323,"DIS_CODE":0,"TOWNNAME":"永康區","LI":"復華里","LIN":"27鄰","STREET":"復華八街","SECT":" ","MAREA":" ","LANE":"５１巷","ALLEY":" ","HOUSE_NO":"３９號四樓之６","E_COORD97":172687.95000000001,"N_COORD97":2546429.1400000001,"ADDRESS":"復華八街５１巷３９號四樓之６","OBJECTID":406299},"geometry":{"x":172687.95000000112,"y":2546429.1400000025}},{"attributes":{"ID":406324,"DIS_CODE":0,"TOWNNAME":"永康區","LI":"復華里","LIN":"27鄰","STREET":"復華八街","SECT":" ","MAREA":" ","LANE":"５１巷","ALLEY":" ","HOUSE_NO":"３９號四樓之５","E_COORD97":172688,"N_COORD97":2546429.1400000001,"ADDRESS":"復華八街５１巷３９號四樓之５","OBJECTID":406300},"geometry":{"x":172688,"y":2546429.1400000025}},{"attributes":{"ID":406325,"DIS_CODE":0,"TOWNNAME":"永康區","LI":"復華里","LIN":"27鄰","STREET":"復華八街","SECT":" ","MAREA":" ","LANE":"５１巷","ALLEY":" ","HOUSE_NO":"３９號九樓之７","E_COORD97":172687.92000000001,"N_COORD97":2546429.1400000001,"ADDRESS":"復華八街５１巷３９號九樓之７","OBJECTID":406301},"geometry":{"x":172687.92000000086,"y":2546429.1400000025}},{"attributes":{"ID":406326,"DIS_CODE":0,"TOWNNAME":"永康區","LI":"復華里","LIN":"27鄰","STREET":"復華八街","SECT":" ","MAREA":" ","LANE":"５１巷","ALLEY":" ","HOUSE_NO":"３９號九樓之６","E_COORD97":172687.95000000001,"N_COORD97":2546429.1400000001,"ADDRESS":"復華八街５１巷３９號九樓之６","OBJECTID":406302},"geometry":{"x":172687.95000000112,"y":2546429.1400000025}},{"attributes":{"ID":406327,"DIS_CODE":0,"TOWNNAME":"永康區","LI":"復華里","LIN":"27鄰","STREET":"復華八街","SECT":" ","MAREA":" ","LANE":"５１巷","ALLEY":" ","HOUSE_NO":"３５號九樓之６","E_COORD97":172702.98999999999,"N_COORD97":2546429.1400000001,"ADDRESS":"復華八街５１巷３５號九樓之６","OBJECTID":406303},"geometry":{"x":172702.99000000115,"y":2546429.1400000025}},{"attributes":{"ID":406328,"DIS_CODE":0,"TOWNNAME":"永康區","LI":"復華里","LIN":"27鄰","STREET":"復華八街","SECT":" ","MAREA":" ","LANE":"５１巷","ALLEY":" ","HOUSE_NO":"３９號五樓之６","E_COORD97":172687.95000000001,"N_COORD97":2546429.1400000001,"ADDRESS":"復華八街５１巷３９號五樓之６","OBJECTID":406304},"geometry":{"x":172687.95000000112,"y":2546429.1400000025}},{"attributes":{"ID":406329,"DIS_CODE":0,"TOWNNAME":"永康區","LI":"復華里","LIN":"27鄰","STREET":"復華八街","SECT":" ","MAREA":" ","LANE":"５１巷","ALLEY":" ","HOUSE_NO":"３５號二樓之７","E_COORD97":172702.95999999999,"N_COORD97":2546429.1400000001,"ADDRESS":"復華八街５１巷３５號二樓之７","OBJECTID":406305},"geometry":{"x":172702.96000000089,"y":2546429.1400000025}},{"attributes":{"ID":406330,"DIS_CODE":0,"TOWNNAME":"永康區","LI":"復華里","LIN":"27鄰","STREET":"復華八街","SECT":" ","MAREA":" ","LANE":"５１巷","ALLEY":" ","HOUSE_NO":"３５號二樓之２","E_COORD97":172703.01999999999,"N_COORD97":2546429.1400000001,"ADDRESS":"復華八街５１巷３５號二樓之２","OBJECTID":406306},"geometry":{"x":172703.01999999955,"y":2546429.1400000025}},{"attributes":{"ID":406331,"DIS_CODE":0,"TOWNNAME":"永康區","LI":"復華里","LIN":"27鄰","STREET":"復華八街","SECT":" ","MAREA":" ","LANE":"５１巷","ALLEY":" ","HOUSE_NO":"３５號五樓之３","E_COORD97":172702.98000000001,"N_COORD97":2546429.1400000001,"ADDRESS":"復華八街５１巷３５號五樓之３","OBJECTID":406307},"geometry":{"x":172702.98000000138,"y":2546429.1400000025}},{"attributes":{"ID":406332,"DIS_CODE":0,"TOWNNAME":"永康區","LI":"復華里","LIN":"27鄰","STREET":"復華八街","SECT":" ","MAREA":" ","LANE":"５１巷","ALLEY":" ","HOUSE_NO":"３５號三樓之５","E_COORD97":172703.04000000001,"N_COORD97":2546429.1400000001,"ADDRESS":"復華八街５１巷３５號三樓之５","OBJECTID":406308},"geometry":{"x":172703.04000000004,"y":2546429.1400000025}},{"attributes":{"ID":406333,"DIS_CODE":0,"TOWNNAME":"永康區","LI":"復華里","LIN":"27鄰","STREET":"復華八街","SECT":" ","MAREA":" ","LANE":"５１巷","ALLEY":" ","HOUSE_NO":"３５號六樓之３","E_COORD97":172702.98000000001,"N_COORD97":2546429.1400000001,"ADDRESS":"復華八街５１巷３５號六樓之３","OBJECTID":406309},"geometry":{"x":172702.98000000138,"y":2546429.1400000025}},{"attributes":{"ID":406334,"DIS_CODE":0,"TOWNNAME":"永康區","LI":"復華里","LIN":"27鄰","STREET":"復華八街","SECT":" ","MAREA":" ","LANE":"５１巷","ALLEY":" ","HOUSE_NO":"３５號九樓之１","E_COORD97":172702.89000000001,"N_COORD97":2546429.1400000001,"ADDRESS":"復華八街５１巷３５號九樓之１","OBJECTID":406310},"geometry":{"x":172702.8900000006,"y":2546429.1400000025}},{"attributes":{"ID":406335,"DIS_CODE":0,"TOWNNAME":"永康區","LI":"復華里","LIN":"27鄰","STREET":"復華八街","SECT":" ","MAREA":" ","LANE":"５１巷","ALLEY":" ","HOUSE_NO":"３５號五樓之５","E_COORD97":172703.04000000001,"N_COORD97":2546429.1400000001,"ADDRESS":"復華八街５１巷３５號五樓之５","OBJECTID":406311},"geometry":{"x":172703.04000000004,"y":2546429.1400000025}},{"attributes":{"ID":406336,"DIS_CODE":0,"TOWNNAME":"永康區","LI":"復華里","LIN":"27鄰","STREET":"復華八街","SECT":" ","MAREA":" ","LANE":"５１巷","ALLEY":" ","HOUSE_NO":"３９號八樓之６","E_COORD97":172687.95000000001,"N_COORD97":2546429.1400000001,"ADDRESS":"復華八街５１巷３９號八樓之６","OBJECTID":406312},"geometry":{"x":172687.95000000112,"y":2546429.1400000025}},{"attributes":{"ID":406337,"DIS_CODE":0,"TOWNNAME":"永康區","LI":"復華里","LIN":"27鄰","STREET":"復華八街","SECT":" ","MAREA":" ","LANE":"５１巷","ALLEY":" ","HOUSE_NO":"３５號七樓之１","E_COORD97":172702.89000000001,"N_COORD97":2546429.1400000001,"ADDRESS":"復華八街５１巷３５號七樓之１","OBJECTID":406313},"geometry":{"x":172702.8900000006,"y":2546429.1400000025}},{"attributes":{"ID":406338,"DIS_CODE":0,"TOWNNAME":"永康區","LI":"復華里","LIN":"27鄰","STREET":"復華八街","SECT":" ","MAREA":" ","LANE":"５１巷","ALLEY":" ","HOUSE_NO":"３５號七樓之７","E_COORD97":172702.95999999999,"N_COORD97":2546429.1400000001,"ADDRESS":"復華八街５１巷３５號七樓之７","OBJECTID":406314},"geometry":{"x":172702.96000000089,"y":2546429.1400000025}},{"attributes":{"ID":406339,"DIS_CODE":0,"TOWNNAME":"仁德區","LI":"成功里","LIN":"27鄰","STREET":"成功一街","SECT":" ","MAREA":" ","LANE":"１８巷","ALLEY":" ","HOUSE_NO":"８號","E_COORD97":170514.17000000001,"N_COORD97":2540157.5099999998,"ADDRESS":"成功一街１８巷８號","OBJECTID":406315},"geometry":{"x":170514.17000000179,"y":2540157.5099999998}},{"attributes":{"ID":406340,"DIS_CODE":0,"TOWNNAME":"永康區","LI":"復華里","LIN":"27鄰","STREET":"復華八街","SECT":" ","MAREA":" ","LANE":"５１巷","ALLEY":" ","HOUSE_NO":"３９號十樓之７","E_COORD97":172687.92000000001,"N_COORD97":2546429.1400000001,"ADDRESS":"復華八街５１巷３９號十樓之７","OBJECTID":406316},"geometry":{"x":172687.92000000086,"y":2546429.1400000025}},{"attributes":{"ID":406341,"DIS_CODE":0,"TOWNNAME":"永康區","LI":"復華里","LIN":"27鄰","STREET":"復華八街","SECT":" ","MAREA":" ","LANE":"５１巷","ALLEY":" ","HOUSE_NO":"３９號十樓之５","E_COORD97":172688,"N_COORD97":2546429.1400000001,"ADDRESS":"復華八街５１巷３９號十樓之５","OBJECTID":406317},"geometry":{"x":172688,"y":2546429.1400000025}},{"attributes":{"ID":406342,"DIS_CODE":0,"TOWNNAME":"永康區","LI":"勝利里","LIN":"27鄰","STREET":"勝利街","SECT":" ","MAREA":" ","LANE":"５８巷","ALLEY":" ","HOUSE_NO":"２０號","E_COORD97":171406.73999999999,"N_COORD97":2544662.9199999999,"ADDRESS":"勝利街５８巷２０號","OBJECTID":406318},"geometry":{"x":171406.74000000022,"y":2544662.9200000018}},{"attributes":{"ID":406343,"DIS_CODE":0,"TOWNNAME":"永康區","LI":"勝利里","LIN":"27鄰","STREET":"勝利街","SECT":" ","MAREA":" ","LANE":"５８巷","ALLEY":" ","HOUSE_NO":"１號","E_COORD97":171360.10000000001,"N_COORD97":2544684.0099999998,"ADDRESS":"勝利街５８巷１號","OBJECTID":406319},"geometry":{"x":171360.0999999987,"y":2544684.0099999998}},{"attributes":{"ID":406344,"DIS_CODE":0,"TOWNNAME":"永康區","LI":"勝利里","LIN":"27鄰","STREET":"勝利街","SECT":" ","MAREA":" ","LANE":"５８巷","ALLEY":" ","HOUSE_NO":"１８號","E_COORD97":171401.31,"N_COORD97":2544663.4199999999,"ADDRESS":"勝利街５８巷１８號","OBJECTID":406320},"geometry":{"x":171401.31000000052,"y":2544663.4200000018}},{"attributes":{"ID":406345,"DIS_CODE":0,"TOWNNAME":"永康區","LI":"勝利里","LIN":"27鄰","STREET":"勝利街","SECT":" ","MAREA":" ","LANE":"５８巷","ALLEY":" ","HOUSE_NO":"７號","E_COORD97":171377.97,"N_COORD97":2544681.7599999998,"ADDRESS":"勝利街５８巷７號","OBJECTID":406321},"geometry":{"x":171377.96999999974,"y":2544681.7599999998}},{"attributes":{"ID":406346,"DIS_CODE":0,"TOWNNAME":"永康區","LI":"勝利里","LIN":"27鄰","STREET":"勝利街","SECT":" ","MAREA":" ","LANE":"５８巷","ALLEY":" ","HOUSE_NO":"３號","E_COORD97":171365.70000000001,"N_COORD97":2544683.2599999998,"ADDRESS":"勝利街５８巷３號","OBJECTID":406322},"geometry":{"x":171365.70000000112,"y":2544683.2600000035}},{"attributes":{"ID":406347,"DIS_CODE":0,"TOWNNAME":"永康區","LI":"正強里","LIN":"13鄰","STREET":"正強街","SECT":" ","MAREA":" ","LANE":" ","ALLEY":" ","HOUSE_NO":"１４１號","E_COORD97":173316.85000000001,"N_COORD97":2547491.6600000001,"ADDRESS":"正強街１４１號","OBJECTID":406323},"geometry":{"x":173316.85000000056,"y":2547491.6600000039}},{"attributes":{"ID":406348,"DIS_CODE":0,"TOWNNAME":"永康區","LI":"二王里","LIN":"27鄰","STREET":"中山南路","SECT":" ","MAREA":" ","LANE":"５４４巷","ALLEY":" ","HOUSE_NO":"７８號","E_COORD97":172316.14999999999,"N_COORD97":2546275.71,"ADDRESS":"中山南路５４４巷７８號","OBJECTID":406324},"geometry":{"x":172316.15000000037,"y":2546275.7100000028}},{"attributes":{"ID":406349,"DIS_CODE":0,"TOWNNAME":"永康區","LI":"大灣里","LIN":"27鄰","STREET":"文賢街","SECT":" ","MAREA":" ","LANE":"６８巷","ALLEY":" ","HOUSE_NO":"１號","E_COORD97":175440.01000000001,"N_COORD97":2545169.0800000001,"ADDRESS":"文賢街６８巷１號","OBJECTID":406325},"geometry":{"x":175440.01000000071,"y":2545169.0800000001}},{"attributes":{"ID":406350,"DIS_CODE":0,"TOWNNAME":"永康區","LI":"大灣里","LIN":"27鄰","STREET":"大灣六街","SECT":" ","MAREA":" ","LANE":"８０巷","ALLEY":" ","HOUSE_NO":"４０號","E_COORD97":175266.32999999999,"N_COORD97":2545301.1299999999,"ADDRESS":"大灣六街８０巷４０號","OBJECTID":406326},"geometry":{"x":175266.33000000007,"y":2545301.1300000008}},{"attributes":{"ID":406351,"DIS_CODE":0,"TOWNNAME":"永康區","LI":"大灣里","LIN":"27鄰","STREET":"大灣六街","SECT":" ","MAREA":" ","LANE":"８０巷","ALLEY":" ","HOUSE_NO":"４８號","E_COORD97":175279.95999999999,"N_COORD97":2545304.3799999999,"ADDRESS":"大灣六街８０巷４８號","OBJECTID":406327},"geometry":{"x":175279.95999999996,"y":2545304.379999999}},{"attributes":{"ID":406352,"DIS_CODE":0,"TOWNNAME":"永康區","LI":"五王里","LIN":"27鄰","STREET":"五福街","SECT":" ","MAREA":" ","LANE":"１１０巷","ALLEY":" ","HOUSE_NO":"６２號","E_COORD97":171553.48999999999,"N_COORD97":2545900.2999999998,"ADDRESS":"五福街１１０巷６２號","OBJECTID":406328},"geometry":{"x":171553.49000000115,"y":2545900.3000000007}},{"attributes":{"ID":406353,"DIS_CODE":0,"TOWNNAME":"永康區","LI":"五王里","LIN":"27鄰","STREET":"五福街","SECT":" ","MAREA":" ","LANE":"１１０巷","ALLEY":" ","HOUSE_NO":"２３號","E_COORD97":171586.29000000001,"N_COORD97":2545916.8500000001,"ADDRESS":"五福街１１０巷２３號","OBJECTID":406329},"geometry":{"x":171586.29000000004,"y":2545916.8500000034}},{"attributes":{"ID":406354,"DIS_CODE":0,"TOWNNAME":"永康區","LI":"大灣里","LIN":"27鄰","STREET":"大灣六街","SECT":" ","MAREA":" ","LANE":"８０巷","ALLEY":" ","HOUSE_NO":"６６號","E_COORD97":175311.28,"N_COORD97":2545303.8799999999,"ADDRESS":"大灣六街８０巷６６號","OBJECTID":406330},"geometry":{"x":175311.28000000119,"y":2545303.879999999}},{"attributes":{"ID":406355,"DIS_CODE":0,"TOWNNAME":"永康區","LI":"五王里","LIN":"27鄰","STREET":"五福街","SECT":" ","MAREA":" ","LANE":"１１０巷","ALLEY":" ","HOUSE_NO":"７２號","E_COORD97":171563.10999999999,"N_COORD97":2545892.25,"ADDRESS":"五福街１１０巷７２號","OBJECTID":406331},"geometry":{"x":171563.11000000127,"y":2545892.2500000019}},{"attributes":{"ID":406356,"DIS_CODE":0,"TOWNNAME":"永康區","LI":"五王里","LIN":"27鄰","STREET":"五福街","SECT":" ","MAREA":" ","LANE":"１１０巷","ALLEY":" ","HOUSE_NO":"５０號","E_COORD97":171539.35000000001,"N_COORD97":2545913.8100000001,"ADDRESS":"五福街１１０巷５０號","OBJECTID":406332},"geometry":{"x":171539.34999999963,"y":2545913.8100000005}},{"attributes":{"ID":406357,"DIS_CODE":0,"TOWNNAME":"永康區","LI":"五王里","LIN":"27鄰","STREET":"五福街","SECT":" ","MAREA":" ","LANE":"１１０巷","ALLEY":" ","HOUSE_NO":"４８號","E_COORD97":171546.32000000001,"N_COORD97":2545916.5600000001,"ADDRESS":"五福街１１０巷４８號","OBJECTID":406333},"geometry":{"x":171546.32000000123,"y":2545916.5600000024}},{"attributes":{"ID":406358,"DIS_CODE":0,"TOWNNAME":"東區","LI":"裕農里","LIN":"27鄰","STREET":"東寧路","SECT":" ","MAREA":" ","LANE":"４２８巷","ALLEY":" ","HOUSE_NO":"６號","E_COORD97":170954.23000000001,"N_COORD97":2543279.1200000001,"ADDRESS":"東寧路４２８巷６號","OBJECTID":406334},"geometry":{"x":170954.23000000045,"y":2543279.1200000029}},{"attributes":{"ID":406359,"DIS_CODE":0,"TOWNNAME":"東區","LI":"裕農里","LIN":"27鄰","STREET":"東寧路","SECT":" ","MAREA":" ","LANE":"４２８巷","ALLEY":" ","HOUSE_NO":"８號","E_COORD97":170933.09,"N_COORD97":2543279.1200000001,"ADDRESS":"東寧路４２８巷８號","OBJECTID":406335},"geometry":{"x":170933.08999999985,"y":2543279.1200000029}},{"attributes":{"ID":406360,"DIS_CODE":0,"TOWNNAME":"東區","LI":"裕農里","LIN":"27鄰","STREET":"東寧路","SECT":" ","MAREA":" ","LANE":"４２８巷","ALLEY":" ","HOUSE_NO":"１０號","E_COORD97":170936.06,"N_COORD97":2543270.8700000001,"ADDRESS":"東寧路４２８巷１０號","OBJECTID":406336},"geometry":{"x":170936.05999999959,"y":2543270.8700000029}},{"attributes":{"ID":406361,"DIS_CODE":0,"TOWNNAME":"東區","LI":"裕農里","LIN":"27鄰","STREET":"東寧路","SECT":" ","MAREA":" ","LANE":"４２８巷","ALLEY":" ","HOUSE_NO":"１２號","E_COORD97":170938.04000000001,"N_COORD97":2543265.9199999999,"ADDRESS":"東寧路４２８巷１２號","OBJECTID":406337},"geometry":{"x":170938.04000000097,"y":2543265.9200000018}},{"attributes":{"ID":406362,"DIS_CODE":0,"TOWNNAME":"東區","LI":"裕農里","LIN":"27鄰","STREET":"東寧路","SECT":" ","MAREA":" ","LANE":"４２８巷","ALLEY":" ","HOUSE_NO":"１４號","E_COORD97":170939.70000000001,"N_COORD97":2543257.0099999998,"ADDRESS":"東寧路４２８巷１４號","OBJECTID":406338},"geometry":{"x":170939.70000000205,"y":2543257.0099999998}},{"attributes":{"ID":406363,"DIS_CODE":0,"TOWNNAME":"永康區","LI":"五王里","LIN":"27鄰","STREET":"五福街","SECT":" ","MAREA":" ","LANE":"１１０巷","ALLEY":" ","HOUSE_NO":"７８號","E_COORD97":171580.78,"N_COORD97":2545894.71,"ADDRESS":"五福街１１０巷７８號","OBJECTID":406339},"geometry":{"x":171580.78000000119,"y":2545894.7100000009}},{"attributes":{"ID":406364,"DIS_CODE":0,"TOWNNAME":"永康區","LI":"五王里","LIN":"27鄰","STREET":"五福街","SECT":" ","MAREA":" ","LANE":"１１０巷","ALLEY":" ","HOUSE_NO":"６６號","E_COORD97":171549.38,"N_COORD97":2545898.0499999998,"ADDRESS":"五福街１１０巷６６號","OBJECTID":406340},"geometry":{"x":171549.37999999989,"y":2545898.0500000007}},{"attributes":{"ID":406365,"DIS_CODE":0,"TOWNNAME":"新市區","LI":"港墘里","LIN":"27鄰","STREET":"華美街","SECT":" ","MAREA":" ","LANE":"４９巷","ALLEY":" ","HOUSE_NO":"３４號","E_COORD97":178045.29000000001,"N_COORD97":2552984.2999999998,"ADDRESS":"華美街４９巷３４號","OBJECTID":406341},"geometry":{"x":178045.2900000019,"y":2552984.3000000026}},{"attributes":{"ID":406366,"DIS_CODE":0,"TOWNNAME":"新市區","LI":"新和里","LIN":"27鄰","STREET":"永福街","SECT":" ","MAREA":" ","LANE":"１６巷","ALLEY":" ","HOUSE_NO":"４３號","E_COORD97":177794.14999999999,"N_COORD97":2552800.75,"ADDRESS":"永福街１６巷４３號","OBJECTID":406342},"geometry":{"x":177794.1500000013,"y":2552800.7500000019}},{"attributes":{"ID":406367,"DIS_CODE":0,"TOWNNAME":"東區","LI":"中西里","LIN":"27鄰","STREET":"東寧路","SECT":" ","MAREA":" ","LANE":"１２０巷","ALLEY":" ","HOUSE_NO":"７７號之１","E_COORD97":170270.29999999999,"N_COORD97":2543469.3799999999,"ADDRESS":"東寧路１２０巷７７號之１","OBJECTID":406343},"geometry":{"x":170270.29999999981,"y":2543469.3800000008}},{"attributes":{"ID":406368,"DIS_CODE":0,"TOWNNAME":"東區","LI":"中西里","LIN":"27鄰","STREET":"東寧路","SECT":" ","MAREA":" ","LANE":"１２０巷","ALLEY":" ","HOUSE_NO":"７７號","E_COORD97":170265.88,"N_COORD97":2543468.6899999999,"ADDRESS":"東寧路１２０巷７７號","OBJECTID":406344},"geometry":{"x":170265.88000000082,"y":2543468.6899999995}},{"attributes":{"ID":406369,"DIS_CODE":0,"TOWNNAME":"東區","LI":"大智里","LIN":"27鄰","STREET":"德東街","SECT":" ","MAREA":" ","LANE":"２３５巷","ALLEY":" ","HOUSE_NO":"１０２號","E_COORD97":171426.84,"N_COORD97":2540320.8500000001,"ADDRESS":"德東街２３５巷１０２號","OBJECTID":406345},"geometry":{"x":171426.84000000078,"y":2540320.8500000015}},{"attributes":{"ID":406370,"DIS_CODE":0,"TOWNNAME":"東區","LI":"大智里","LIN":"27鄰","STREET":"德東街","SECT":" ","MAREA":" ","LANE":"２３５巷","ALLEY":" ","HOUSE_NO":"１０４號","E_COORD97":171423.82999999999,"N_COORD97":2540319.2599999998,"ADDRESS":"德東街２３５巷１０４號","OBJECTID":406346},"geometry":{"x":171423.83000000101,"y":2540319.2599999998}},{"attributes":{"ID":406371,"DIS_CODE":0,"TOWNNAME":"東區","LI":"大智里","LIN":"27鄰","STREET":"德東街","SECT":" ","MAREA":" ","LANE":"２３５巷","ALLEY":" ","HOUSE_NO":"１０６號","E_COORD97":171418.54000000001,"N_COORD97":2540321.2000000002,"ADDRESS":"德東街２３５巷１０６號","OBJECTID":406347},"geometry":{"x":171418.53999999911,"y":2540321.2000000011}},{"attributes":{"ID":406372,"DIS_CODE":0,"TOWNNAME":"東區","LI":"大智里","LIN":"27鄰","STREET":"德東街","SECT":" ","MAREA":" ","LANE":"２３５巷","ALLEY":" ","HOUSE_NO":"１０８號","E_COORD97":171415.17999999999,"N_COORD97":2540319.2599999998,"ADDRESS":"德東街２３５巷１０８號","OBJECTID":406348},"geometry":{"x":171415.1799999997,"y":2540319.2599999998}},{"attributes":{"ID":406373,"DIS_CODE":0,"TOWNNAME":"東區","LI":"大智里","LIN":"27鄰","STREET":"德東街","SECT":" ","MAREA":" ","LANE":"２３５巷","ALLEY":" ","HOUSE_NO":"１０號","E_COORD97":171418.26000000001,"N_COORD97":2540294.6699999999,"ADDRESS":"德東街２３５巷１０號","OBJECTID":406349},"geometry":{"x":171418.25999999978,"y":2540294.6700000018}},{"attributes":{"ID":406374,"DIS_CODE":0,"TOWNNAME":"東區","LI":"大智里","LIN":"27鄰","STREET":"德東街","SECT":" ","MAREA":" ","LANE":"２３５巷","ALLEY":" ","HOUSE_NO":"１１０號","E_COORD97":171410.41,"N_COORD97":2540321.2000000002,"ADDRESS":"德東街２３５巷１１０號","OBJECTID":406350},"geometry":{"x":171410.41000000015,"y":2540321.2000000011}},{"attributes":{"ID":406375,"DIS_CODE":0,"TOWNNAME":"東區","LI":"大智里","LIN":"27鄰","STREET":"德東街","SECT":" ","MAREA":" ","LANE":"２３５巷","ALLEY":" ","HOUSE_NO":"１１２號","E_COORD97":171406.35000000001,"N_COORD97":2540319.2599999998,"ADDRESS":"德東街２３５巷１１２號","OBJECTID":406351},"geometry":{"x":171406.35000000056,"y":2540319.2599999998}},{"attributes":{"ID":406376,"DIS_CODE":0,"TOWNNAME":"東區","LI":"大智里","LIN":"27鄰","STREET":"德東街","SECT":" ","MAREA":" ","LANE":"２３５巷","ALLEY":" ","HOUSE_NO":"１１號","E_COORD97":171367.35999999999,"N_COORD97":2540295,"ADDRESS":"德東街２３５巷１１號","OBJECTID":406352},"geometry":{"x":171367.36000000034,"y":2540295.0000000037}},{"attributes":{"ID":406377,"DIS_CODE":0,"TOWNNAME":"東區","LI":"大智里","LIN":"27鄰","STREET":"德東街","SECT":" ","MAREA":" ","LANE":"２３５巷","ALLEY":" ","HOUSE_NO":"１２號","E_COORD97":171422.10000000001,"N_COORD97":2540292.2400000002,"ADDRESS":"德東街２３５巷１２號","OBJECTID":406353},"geometry":{"x":171422.09999999963,"y":2540292.2400000002}},{"attributes":{"ID":406378,"DIS_CODE":0,"TOWNNAME":"東區","LI":"大智里","LIN":"27鄰","STREET":"德東街","SECT":" ","MAREA":" ","LANE":"２３５巷","ALLEY":" ","HOUSE_NO":"１３號","E_COORD97":171362.85999999999,"N_COORD97":2540292.1099999999,"ADDRESS":"德東街２３５巷１３號","OBJECTID":406354},"geometry":{"x":171362.86000000127,"y":2540292.1099999994}},{"attributes":{"ID":406379,"DIS_CODE":0,"TOWNNAME":"東區","LI":"大智里","LIN":"27鄰","STREET":"德東街","SECT":" ","MAREA":" ","LANE":"２３５巷","ALLEY":" ","HOUSE_NO":"１４號","E_COORD97":171425.95000000001,"N_COORD97":2540294.6699999999,"ADDRESS":"德東街２３５巷１４號","OBJECTID":406355},"geometry":{"x":171425.95000000019,"y":2540294.6700000018}},{"attributes":{"ID":406380,"DIS_CODE":0,"TOWNNAME":"東區","LI":"大智里","LIN":"27鄰","STREET":"德東街","SECT":" ","MAREA":" ","LANE":"２３５巷","ALLEY":" ","HOUSE_NO":"１６號","E_COORD97":171430.69,"N_COORD97":2540292.3599999999,"ADDRESS":"德東街２３５巷１６號","OBJECTID":406356},"geometry":{"x":171430.69000000134,"y":2540292.3600000013}},{"attributes":{"ID":406381,"DIS_CODE":0,"TOWNNAME":"東區","LI":"大智里","LIN":"27鄰","STREET":"德東街","SECT":" ","MAREA":" ","LANE":"２３５巷","ALLEY":" ","HOUSE_NO":"１７號","E_COORD97":171354.98000000001,"N_COORD97":2540291.6200000001,"ADDRESS":"德東街２３５巷１７號","OBJECTID":406357},"geometry":{"x":171354.97999999952,"y":2540291.6200000048}},{"attributes":{"ID":406382,"DIS_CODE":0,"TOWNNAME":"東區","LI":"大智里","LIN":"27鄰","STREET":"德東街","SECT":" ","MAREA":" ","LANE":"２３５巷","ALLEY":" ","HOUSE_NO":"１８號","E_COORD97":171434.28,"N_COORD97":2540294.54,"ADDRESS":"德東街２３５巷１８號","OBJECTID":406358},"geometry":{"x":171434.28000000212,"y":2540294.540000001}},{"attributes":{"ID":406383,"DIS_CODE":0,"TOWNNAME":"東區","LI":"大智里","LIN":"27鄰","STREET":"德東街","SECT":" ","MAREA":" ","LANE":"２３５巷","ALLEY":" ","HOUSE_NO":"１９號","E_COORD97":171350.32000000001,"N_COORD97":2540293.3900000001,"ADDRESS":"德東街２３５巷１９號","OBJECTID":406359},"geometry":{"x":171350.3200000003,"y":2540293.3900000025}},{"attributes":{"ID":406384,"DIS_CODE":0,"TOWNNAME":"東區","LI":"大智里","LIN":"27鄰","STREET":"德東街","SECT":" ","MAREA":" ","LANE":"２３５巷","ALLEY":" ","HOUSE_NO":"１號","E_COORD97":171387.29999999999,"N_COORD97":2540293.5499999998,"ADDRESS":"德東街２３５巷１號","OBJECTID":406360},"geometry":{"x":171387.29999999981,"y":2540293.5500000026}},{"attributes":{"ID":406385,"DIS_CODE":0,"TOWNNAME":"東區","LI":"大智里","LIN":"27鄰","STREET":"德東街","SECT":" ","MAREA":" ","LANE":"２３５巷","ALLEY":" ","HOUSE_NO":"２０號","E_COORD97":171438.51000000001,"N_COORD97":2540292.4900000002,"ADDRESS":"德東街２３５巷２０號","OBJECTID":406361},"geometry":{"x":171438.50999999978,"y":2540292.4900000021}},{"attributes":{"ID":406386,"DIS_CODE":0,"TOWNNAME":"東區","LI":"大智里","LIN":"27鄰","STREET":"德東街","SECT":" ","MAREA":" ","LANE":"２３５巷","ALLEY":" ","HOUSE_NO":"２２號","E_COORD97":171441.72,"N_COORD97":2540294.54,"ADDRESS":"德東街２３５巷２２號","OBJECTID":406362},"geometry":{"x":171441.71999999974,"y":2540294.540000001}},{"attributes":{"ID":406387,"DIS_CODE":0,"TOWNNAME":"東區","LI":"大智里","LIN":"27鄰","STREET":"德東街","SECT":" ","MAREA":" ","LANE":"２３５巷","ALLEY":" ","HOUSE_NO":"２４號","E_COORD97":171446.45999999999,"N_COORD97":2540292.6200000001,"ADDRESS":"德東街２３５巷２４號","OBJECTID":406363},"geometry":{"x":171446.46000000089,"y":2540292.6200000029}},{"attributes":{"ID":406388,"DIS_CODE":0,"TOWNNAME":"東區","LI":"大智里","LIN":"27鄰","STREET":"德東街","SECT":" ","MAREA":" ","LANE":"２３５巷","ALLEY":" ","HOUSE_NO":"２６號","E_COORD97":171457.01999999999,"N_COORD97":2540299.9399999999,"ADDRESS":"德東街２３５巷２６號","OBJECTID":406364},"geometry":{"x":171457.01999999955,"y":2540299.9399999995}},{"attributes":{"ID":406389,"DIS_CODE":0,"TOWNNAME":"東區","LI":"大智里","LIN":"27鄰","STREET":"德東街","SECT":" ","MAREA":" ","LANE":"２３５巷","ALLEY":" ","HOUSE_NO":"２８號","E_COORD97":171457.01999999999,"N_COORD97":2540296.4399999999,"ADDRESS":"德東街２３５巷２８號","OBJECTID":406365},"geometry":{"x":171457.01999999955,"y":2540296.4399999995}},{"attributes":{"ID":406390,"DIS_CODE":0,"TOWNNAME":"東區","LI":"大智里","LIN":"27鄰","STREET":"德東街","SECT":" ","MAREA":" ","LANE":"２３５巷","ALLEY":" ","HOUSE_NO":"２號","E_COORD97":171400.44,"N_COORD97":2540292.8799999999,"ADDRESS":"德東街２３５巷２號","OBJECTID":406366},"geometry":{"x":171400.44000000041,"y":2540292.879999999}},{"attributes":{"ID":406391,"DIS_CODE":0,"TOWNNAME":"東區","LI":"大智里","LIN":"27鄰","STREET":"德東街","SECT":" ","MAREA":" ","LANE":"２３５巷","ALLEY":" ","HOUSE_NO":"３０號","E_COORD97":171457.22,"N_COORD97":2540292.3500000001,"ADDRESS":"德東街２３５巷３０號","OBJECTID":406367},"geometry":{"x":171457.21999999974,"y":2540292.3500000015}},{"attributes":{"ID":406392,"DIS_CODE":0,"TOWNNAME":"東區","LI":"大智里","LIN":"27鄰","STREET":"德東街","SECT":" ","MAREA":" ","LANE":"２３５巷","ALLEY":" ","HOUSE_NO":"３２號","E_COORD97":171458.38,"N_COORD97":2540288.0699999998,"ADDRESS":"德東街２３５巷３２號","OBJECTID":406368},"geometry":{"x":171458.37999999989,"y":2540288.070000004}},{"attributes":{"ID":406393,"DIS_CODE":0,"TOWNNAME":"東區","LI":"大智里","LIN":"27鄰","STREET":"德東街","SECT":" ","MAREA":" ","LANE":"２３５巷","ALLEY":" ","HOUSE_NO":"３６號","E_COORD97":171459.16,"N_COORD97":2540279.71,"ADDRESS":"德東街２３５巷３６號","OBJECTID":406369},"geometry":{"x":171459.16000000108,"y":2540279.7100000009}},{"attributes":{"ID":406394,"DIS_CODE":0,"TOWNNAME":"東區","LI":"大智里","LIN":"27鄰","STREET":"德東街","SECT":" ","MAREA":" ","LANE":"２３５巷","ALLEY":" ","HOUSE_NO":"３號","E_COORD97":171382.64000000001,"N_COORD97":2540295.7999999998,"ADDRESS":"德東街２３５巷３號","OBJECTID":406370},"geometry":{"x":171382.6400000006,"y":2540295.8000000007}},{"attributes":{"ID":406395,"DIS_CODE":0,"TOWNNAME":"東區","LI":"大智里","LIN":"27鄰","STREET":"德東街","SECT":" ","MAREA":" ","LANE":"２３５巷","ALLEY":" ","HOUSE_NO":"４０號","E_COORD97":171477.37,"N_COORD97":2540295.6899999999,"ADDRESS":"德東街２３５巷４０號","OBJECTID":406371},"geometry":{"x":171477.37000000011,"y":2540295.6899999995}},{"attributes":{"ID":406396,"DIS_CODE":0,"TOWNNAME":"東區","LI":"大智里","LIN":"27鄰","STREET":"德東街","SECT":" ","MAREA":" ","LANE":"２３５巷","ALLEY":" ","HOUSE_NO":"４４號","E_COORD97":171477.20000000001,"N_COORD97":2540287.7200000002,"ADDRESS":"德東街２３５巷４４號","OBJECTID":406372},"geometry":{"x":171477.20000000205,"y":2540287.7200000025}},{"attributes":{"ID":406397,"DIS_CODE":0,"TOWNNAME":"東區","LI":"大智里","LIN":"27鄰","STREET":"德東街","SECT":" ","MAREA":" ","LANE":"２３５巷","ALLEY":" ","HOUSE_NO":"４６號","E_COORD97":171476.54999999999,"N_COORD97":2540283.3399999999,"ADDRESS":"德東街２３５巷４６號","OBJECTID":406373},"geometry":{"x":171476.55000000075,"y":2540283.3400000017}},{"attributes":{"ID":406398,"DIS_CODE":0,"TOWNNAME":"東區","LI":"大智里","LIN":"27鄰","STREET":"德東街","SECT":" ","MAREA":" ","LANE":"２３５巷","ALLEY":" ","HOUSE_NO":"４８號","E_COORD97":171476.54999999999,"N_COORD97":2540279.4300000002,"ADDRESS":"德東街２３５巷４８號","OBJECTID":406374},"geometry":{"x":171476.55000000075,"y":2540279.4300000016}},{"attributes":{"ID":406399,"DIS_CODE":0,"TOWNNAME":"東區","LI":"大智里","LIN":"27鄰","STREET":"德東街","SECT":" ","MAREA":" ","LANE":"２３５巷","ALLEY":" ","HOUSE_NO":"４號","E_COORD97":171406.59,"N_COORD97":2540292.3599999999,"ADDRESS":"德東街２３５巷４號","OBJECTID":406375},"geometry":{"x":171406.59000000078,"y":2540292.3600000013}},{"attributes":{"ID":406400,"DIS_CODE":0,"TOWNNAME":"東區","LI":"大智里","LIN":"27鄰","STREET":"德東街","SECT":" ","MAREA":" ","LANE":"２３５巷","ALLEY":" ","HOUSE_NO":"５０號","E_COORD97":171495.10000000001,"N_COORD97":2540279.1099999999,"ADDRESS":"德東街２３５巷５０號","OBJECTID":406376},"geometry":{"x":171495.09999999963,"y":2540279.1099999994}},{"attributes":{"ID":406401,"DIS_CODE":0,"TOWNNAME":"東區","LI":"大智里","LIN":"27鄰","STREET":"德東街","SECT":" ","MAREA":" ","LANE":"２３５巷","ALLEY":" ","HOUSE_NO":"５２號","E_COORD97":171495.10000000001,"N_COORD97":2540283.5,"ADDRESS":"德東街２３５巷５２號","OBJECTID":406377},"geometry":{"x":171495.09999999963,"y":2540283.5}},{"attributes":{"ID":406402,"DIS_CODE":0,"TOWNNAME":"東區","LI":"大智里","LIN":"27鄰","STREET":"德東街","SECT":" ","MAREA":" ","LANE":"２３５巷","ALLEY":" ","HOUSE_NO":"５４號","E_COORD97":171494.92999999999,"N_COORD97":2540287.5600000001,"ADDRESS":"德東街２３５巷５４號","OBJECTID":406378},"geometry":{"x":171494.9299999997,"y":2540287.5600000005}},{"attributes":{"ID":406403,"DIS_CODE":0,"TOWNNAME":"東區","LI":"大智里","LIN":"27鄰","STREET":"德東街","SECT":" ","MAREA":" ","LANE":"２３５巷","ALLEY":" ","HOUSE_NO":"５６號","E_COORD97":171494.60999999999,"N_COORD97":2540292.1099999999,"ADDRESS":"德東街２３５巷５６號","OBJECTID":406379},"geometry":{"x":171494.61000000034,"y":2540292.1099999994}},{"attributes":{"ID":406404,"DIS_CODE":0,"TOWNNAME":"東區","LI":"大智里","LIN":"27鄰","STREET":"德東街","SECT":" ","MAREA":" ","LANE":"２３５巷","ALLEY":" ","HOUSE_NO":"５８號","E_COORD97":171495.59,"N_COORD97":2540295.04,"ADDRESS":"德東街２３５巷５８號","OBJECTID":406380},"geometry":{"x":171495.58999999985,"y":2540295.040000001}},{"attributes":{"ID":406405,"DIS_CODE":0,"TOWNNAME":"東區","LI":"大智里","LIN":"27鄰","STREET":"德東街","SECT":" ","MAREA":" ","LANE":"２３５巷","ALLEY":" ","HOUSE_NO":"６２號","E_COORD97":171497.26000000001,"N_COORD97":2540311.9199999999,"ADDRESS":"德東街２３５巷６２號","OBJECTID":406381},"geometry":{"x":171497.26000000071,"y":2540311.9199999999}},{"attributes":{"ID":406406,"DIS_CODE":0,"TOWNNAME":"東區","LI":"大智里","LIN":"27鄰","STREET":"德東街","SECT":" ","MAREA":" ","LANE":"２３５巷","ALLEY":" ","HOUSE_NO":"６４號","E_COORD97":171496.53,"N_COORD97":2540316.8199999998,"ADDRESS":"德東街２３５巷６４號","OBJECTID":406382},"geometry":{"x":171496.53000000026,"y":2540316.820000004}},{"attributes":{"ID":406407,"DIS_CODE":0,"TOWNNAME":"東區","LI":"大智里","LIN":"27鄰","STREET":"德東街","SECT":" ","MAREA":" ","LANE":"２３５巷","ALLEY":" ","HOUSE_NO":"６６號","E_COORD97":171496.35000000001,"N_COORD97":2540320.98,"ADDRESS":"德東街２３５巷６６號","OBJECTID":406383},"geometry":{"x":171496.35000000056,"y":2540320.9800000004}},{"attributes":{"ID":406408,"DIS_CODE":0,"TOWNNAME":"東區","LI":"大智里","LIN":"27鄰","STREET":"德東街","SECT":" ","MAREA":" ","LANE":"２３５巷","ALLEY":" ","HOUSE_NO":"６８號","E_COORD97":171495.63,"N_COORD97":2540325.52,"ADDRESS":"德東街２３５巷６８號","OBJECTID":406384},"geometry":{"x":171495.62999999989,"y":2540325.5200000014}},{"attributes":{"ID":406409,"DIS_CODE":0,"TOWNNAME":"東區","LI":"大智里","LIN":"27鄰","STREET":"德東街","SECT":" ","MAREA":" ","LANE":"２３５巷","ALLEY":" ","HOUSE_NO":"６號","E_COORD97":171410.31,"N_COORD97":2540294.4100000001,"ADDRESS":"德東街２３５巷６號","OBJECTID":406385},"geometry":{"x":171410.31000000052,"y":2540294.4100000001}},{"attributes":{"ID":406410,"DIS_CODE":0,"TOWNNAME":"東區","LI":"大智里","LIN":"27鄰","STREET":"德東街","SECT":" ","MAREA":" ","LANE":"２３５巷","ALLEY":" ","HOUSE_NO":"７０號","E_COORD97":171496.17000000001,"N_COORD97":2540329.8700000001,"ADDRESS":"德東街２３５巷７０號","OBJECTID":406386},"geometry":{"x":171496.17000000086,"y":2540329.870000001}},{"attributes":{"ID":406411,"DIS_CODE":0,"TOWNNAME":"東區","LI":"大智里","LIN":"27鄰","STREET":"德東街","SECT":" ","MAREA":" ","LANE":"２３５巷","ALLEY":" ","HOUSE_NO":"７２號","E_COORD97":171482.38,"N_COORD97":2540326.7799999998,"ADDRESS":"德東街２３５巷７２號","OBJECTID":406387},"geometry":{"x":171482.38000000175,"y":2540326.7800000012}},{"attributes":{"ID":406412,"DIS_CODE":0,"TOWNNAME":"東區","LI":"大智里","LIN":"27鄰","STREET":"德東街","SECT":" ","MAREA":" ","LANE":"２３５巷","ALLEY":" ","HOUSE_NO":"７４號","E_COORD97":171482.01999999999,"N_COORD97":2540322.0699999998,"ADDRESS":"德東街２３５巷７４號","OBJECTID":406388},"geometry":{"x":171482.01999999955,"y":2540322.0700000022}},{"attributes":{"ID":406413,"DIS_CODE":0,"TOWNNAME":"東區","LI":"大智里","LIN":"27鄰","STREET":"德東街","SECT":" ","MAREA":" ","LANE":"２３５巷","ALLEY":" ","HOUSE_NO":"７６號","E_COORD97":171480.92999999999,"N_COORD97":2540316.8199999998,"ADDRESS":"德東街２３５巷７６號","OBJECTID":406389},"geometry":{"x":171480.93000000063,"y":2540316.820000004}},{"attributes":{"ID":406414,"DIS_CODE":0,"TOWNNAME":"南區","LI":"喜北里","LIN":"13鄰","STREET":"喜樹路","SECT":" ","MAREA":" ","LANE":"２０６巷","ALLEY":" ","HOUSE_NO":"１號","E_COORD97":165742.60999999999,"N_COORD97":2538112.2599999998,"ADDRESS":"喜樹路２０６巷１號","OBJECTID":406390},"geometry":{"x":165742.61000000034,"y":2538112.2599999998}},{"attributes":{"ID":406415,"DIS_CODE":0,"TOWNNAME":"東區","LI":"大智里","LIN":"27鄰","STREET":"德東街","SECT":" ","MAREA":" ","LANE":"２３５巷","ALLEY":" ","HOUSE_NO":"７８號","E_COORD97":171481.29000000001,"N_COORD97":2540312.4700000002,"ADDRESS":"德東街２３５巷７８號","OBJECTID":406391},"geometry":{"x":171481.28999999911,"y":2540312.4699999988}},{"attributes":{"ID":406416,"DIS_CODE":0,"TOWNNAME":"東區","LI":"大智里","LIN":"27鄰","STREET":"德東街","SECT":" ","MAREA":" ","LANE":"２３５巷","ALLEY":" ","HOUSE_NO":"７號","E_COORD97":171375.56,"N_COORD97":2540295.96,"ADDRESS":"德東街２３５巷７號","OBJECTID":406392},"geometry":{"x":171375.55999999866,"y":2540295.9600000046}},{"attributes":{"ID":406417,"DIS_CODE":0,"TOWNNAME":"東區","LI":"大智里","LIN":"27鄰","STREET":"德東街","SECT":" ","MAREA":" ","LANE":"２３５巷","ALLEY":" ","HOUSE_NO":"８０號","E_COORD97":171474.54000000001,"N_COORD97":2540315.2799999998,"ADDRESS":"德東街２３５巷８０號","OBJECTID":406393},"geometry":{"x":171474.53999999911,"y":2540315.2799999993}},{"attributes":{"ID":406418,"DIS_CODE":0,"TOWNNAME":"東區","LI":"大智里","LIN":"27鄰","STREET":"德東街","SECT":" ","MAREA":" ","LANE":"２３５巷","ALLEY":" ","HOUSE_NO":"８２號","E_COORD97":171470.79999999999,"N_COORD97":2540318.5499999998,"ADDRESS":"德東街２３５巷８２號","OBJECTID":406394},"geometry":{"x":171470.79999999888,"y":2540318.5500000007}},{"attributes":{"ID":406419,"DIS_CODE":0,"TOWNNAME":"東區","LI":"大智里","LIN":"27鄰","STREET":"德東街","SECT":" ","MAREA":" ","LANE":"２３５巷","ALLEY":" ","HOUSE_NO":"８４號","E_COORD97":171466.75,"N_COORD97":2540314.9700000002,"ADDRESS":"德東街２３５巷８４號","OBJECTID":406395},"geometry":{"x":171466.75000000093,"y":2540314.9700000007}},{"attributes":{"ID":406420,"DIS_CODE":0,"TOWNNAME":"東區","LI":"大智里","LIN":"27鄰","STREET":"德東街","SECT":" ","MAREA":" ","LANE":"２３５巷","ALLEY":" ","HOUSE_NO":"８６號","E_COORD97":171462.16,"N_COORD97":2540318.9399999999,"ADDRESS":"德東街２３５巷８６號","OBJECTID":406396},"geometry":{"x":171462.16000000201,"y":2540318.9400000013}},{"attributes":{"ID":406421,"DIS_CODE":0,"TOWNNAME":"東區","LI":"大智里","LIN":"27鄰","STREET":"德東街","SECT":" ","MAREA":" ","LANE":"２３５巷","ALLEY":" ","HOUSE_NO":"８８號","E_COORD97":171457.89999999999,"N_COORD97":2540315,"ADDRESS":"德東街２３５巷８８號","OBJECTID":406397},"geometry":{"x":171457.9000000013,"y":2540314.9999999981}},{"attributes":{"ID":406422,"DIS_CODE":0,"TOWNNAME":"東區","LI":"大智里","LIN":"27鄰","STREET":"德東街","SECT":" ","MAREA":" ","LANE":"２３５巷","ALLEY":" ","HOUSE_NO":"８號","E_COORD97":171414.01999999999,"N_COORD97":2540292.3599999999,"ADDRESS":"德東街２３５巷８號","OBJECTID":406398},"geometry":{"x":171414.02000000048,"y":2540292.3600000013}},{"attributes":{"ID":406423,"DIS_CODE":0,"TOWNNAME":"東區","LI":"大智里","LIN":"27鄰","STREET":"德東街","SECT":" ","MAREA":" ","LANE":"２３５巷","ALLEY":" ","HOUSE_NO":"９０號","E_COORD97":171453.09,"N_COORD97":2540318.6299999999,"ADDRESS":"德東街２３５巷９０號","OBJECTID":406399},"geometry":{"x":171453.08999999985,"y":2540318.629999999}},{"attributes":{"ID":406424,"DIS_CODE":0,"TOWNNAME":"東區","LI":"大智里","LIN":"27鄰","STREET":"德東街","SECT":" ","MAREA":" ","LANE":"２３５巷","ALLEY":" ","HOUSE_NO":"９２號","E_COORD97":171447.29999999999,"N_COORD97":2540317.02,"ADDRESS":"德東街２３５巷９２號","OBJECTID":406400},"geometry":{"x":171447.30000000168,"y":2540317.0199999996}}]}