{"displayFieldName":"TOWNNAME","fieldAliases":{"ID":"ID","DIS_CODE":"DIS_CODE","TOWNNAME":"TOWNNAME","LI":"LI","LIN":"LIN","STREET":"STREET","SECT":"SECT","MAREA":"MAREA","LANE":"LANE","ALLEY":"ALLEY","HOUSE_NO":"HOUSE_NO","E_COORD97":"E_COORD97","N_COORD97":"N_COORD97","ADDRESS":"ADDRESS","OBJECTID":"OBJECTID"},"geometryType":"esriGeometryPoint","spatialReference":{"wkid":102443,"latestWkid":3826},"fields":[{"name":"ID","type":"esriFieldTypeDouble","alias":"ID"},{"name":"DIS_CODE","type":"esriFieldTypeInteger","alias":"DIS_CODE"},{"name":"TOWNNAME","type":"esriFieldTypeString","alias":"TOWNNAME","length":8},{"name":"LI","type":"esriFieldTypeString","alias":"LI","length":8},{"name":"LIN","type":"esriFieldTypeString","alias":"LIN","length":12},{"name":"STREET","type":"esriFieldTypeString","alias":"STREET","length":20},{"name":"SECT","type":"esriFieldTypeString","alias":"SECT","length":8},{"name":"MAREA","type":"esriFieldTypeString","alias":"MAREA","length":12},{"name":"LANE","type":"esriFieldTypeString","alias":"LANE","length":10},{"name":"ALLEY","type":"esriFieldTypeString","alias":"ALLEY","length":10},{"name":"HOUSE_NO","type":"esriFieldTypeString","alias":"HOUSE_NO","length":20},{"name":"E_COORD97","type":"esriFieldTypeDouble","alias":"E_COORD97"},{"name":"N_COORD97","type":"esriFieldTypeDouble","alias":"N_COORD97"},{"name":"ADDRESS","type":"esriFieldTypeString","alias":"ADDRESS","length":50},{"name":"OBJECTID","type":"esriFieldTypeOID","alias":"OBJECTID"}],"features":[{"attributes":{"ID":646228,"DIS_CODE":0,"TOWNNAME":"關廟區","LI":"松腳里","LIN":"2鄰","STREET":"旺萊路","SECT":" ","MAREA":" ","LANE":" ","ALLEY":" ","HOUSE_NO":"３１３號","E_COORD97":182097.10004300001,"N_COORD97":2539646.76413,"ADDRESS":"旺萊路３１３號","OBJECTID":646201},"geometry":{"x":182097.10004300065,"y":2539646.7641259991}},{"attributes":{"ID":646229,"DIS_CODE":0,"TOWNNAME":"新營區","LI":"延平里","LIN":"1鄰","STREET":"新進路","SECT":"二段","MAREA":" ","LANE":" ","ALLEY":" ","HOUSE_NO":"２６號","E_COORD97":179707.19623100001,"N_COORD97":2577752.8703100001,"ADDRESS":"新進路二段２６號","OBJECTID":646202},"geometry":{"x":179707.19623099919,"y":2577752.8703100011}},{"attributes":{"ID":646230,"DIS_CODE":0,"TOWNNAME":"新營區","LI":"延平里","LIN":"1鄰","STREET":"新進路","SECT":"二段","MAREA":" ","LANE":" ","ALLEY":" ","HOUSE_NO":"２８號","E_COORD97":179704.22930400001,"N_COORD97":2577752.5528099998,"ADDRESS":"新進路二段２８號","OBJECTID":646203},"geometry":{"x":179704.2293039998,"y":2577752.5528100021}},{"attributes":{"ID":646231,"DIS_CODE":0,"TOWNNAME":"新營區","LI":"延平里","LIN":"1鄰","STREET":"新進路","SECT":"二段","MAREA":" ","LANE":" ","ALLEY":" ","HOUSE_NO":"３０號","E_COORD97":179701.47430100001,"N_COORD97":2577752.7644799999,"ADDRESS":"新進路二段３０號","OBJECTID":646204},"geometry":{"x":179701.47430100106,"y":2577752.7644759994}},{"attributes":{"ID":646232,"DIS_CODE":0,"TOWNNAME":"安南區","LI":"長安里","LIN":"3鄰","STREET":"長溪路","SECT":"三段","MAREA":" ","LANE":"４０５巷","ALLEY":"４０弄","HOUSE_NO":"１３１號","E_COORD97":167328.818283,"N_COORD97":2551881.56917,"ADDRESS":"長溪路三段４０５巷４０弄１３１號","OBJECTID":646205},"geometry":{"x":167328.81828300096,"y":2551881.5691750012}},{"attributes":{"ID":646233,"DIS_CODE":0,"TOWNNAME":"安南區","LI":"長安里","LIN":"3鄰","STREET":"長溪路","SECT":"三段","MAREA":" ","LANE":"４０５巷","ALLEY":"４０弄","HOUSE_NO":"１３３號","E_COORD97":167331.570813,"N_COORD97":2551877.1241799998,"ADDRESS":"長溪路三段４０５巷４０弄１３３號","OBJECTID":646206},"geometry":{"x":167331.57081300113,"y":2551877.1241770014}},{"attributes":{"ID":646234,"DIS_CODE":0,"TOWNNAME":"關廟區","LI":"北勢里","LIN":"13鄰","STREET":"北安二街","SECT":" ","MAREA":" ","LANE":" ","ALLEY":" ","HOUSE_NO":"２２１號","E_COORD97":181374.39952499999,"N_COORD97":2540719.9691699999,"ADDRESS":"北安二街２２１號","OBJECTID":646207},"geometry":{"x":181374.39952500071,"y":2540719.9691700023}},{"attributes":{"ID":646235,"DIS_CODE":0,"TOWNNAME":"安南區","LI":"長安里","LIN":"3鄰","STREET":"長溪路","SECT":"三段","MAREA":" ","LANE":"４０５巷","ALLEY":"４０弄","HOUSE_NO":"１３７號","E_COORD97":167332.62947799999,"N_COORD97":2551872.8379299999,"ADDRESS":"長溪路三段４０５巷４０弄１３７號","OBJECTID":646208},"geometry":{"x":167332.62947800104,"y":2551872.8379290011}},{"attributes":{"ID":646236,"DIS_CODE":0,"TOWNNAME":"新營區","LI":"延平里","LIN":"1鄰","STREET":"新進路","SECT":"二段","MAREA":" ","LANE":" ","ALLEY":" ","HOUSE_NO":"３２號","E_COORD97":179698.93122100001,"N_COORD97":2577752.9761399999,"ADDRESS":"新進路二段３２號","OBJECTID":646209},"geometry":{"x":179698.93122100085,"y":2577752.9761430006}},{"attributes":{"ID":646237,"DIS_CODE":0,"TOWNNAME":"安南區","LI":"長安里","LIN":"3鄰","STREET":"長溪路","SECT":"三段","MAREA":" ","LANE":"４０５巷","ALLEY":"４０弄","HOUSE_NO":"１３９號","E_COORD97":167335.06440800001,"N_COORD97":2551868.2870999998,"ADDRESS":"長溪路三段４０５巷４０弄１３９號","OBJECTID":646210},"geometry":{"x":167335.06440799963,"y":2551868.2870980017}},{"attributes":{"ID":646238,"DIS_CODE":0,"TOWNNAME":"安南區","LI":"長安里","LIN":"3鄰","STREET":"長溪路","SECT":"三段","MAREA":" ","LANE":"４０５巷","ALLEY":"４０弄","HOUSE_NO":"１４１號","E_COORD97":167336.97000599999,"N_COORD97":2551865.7470999998,"ADDRESS":"長溪路三段４０５巷４０弄１４１號","OBJECTID":646211},"geometry":{"x":167336.97000600118,"y":2551865.7471000012}},{"attributes":{"ID":646239,"DIS_CODE":0,"TOWNNAME":"安南區","LI":"長安里","LIN":"3鄰","STREET":"長溪路","SECT":"三段","MAREA":" ","LANE":"４０５巷","ALLEY":"４０弄","HOUSE_NO":"１４３號","E_COORD97":167338.87560299999,"N_COORD97":2551861.0904399999,"ADDRESS":"長溪路三段４０５巷４０弄１４３號","OBJECTID":646212},"geometry":{"x":167338.8756029997,"y":2551861.0904360004}},{"attributes":{"ID":646240,"DIS_CODE":0,"TOWNNAME":"新營區","LI":"延平里","LIN":"1鄰","STREET":"新進路","SECT":"二段","MAREA":" ","LANE":" ","ALLEY":" ","HOUSE_NO":"３４號","E_COORD97":179695.11660099999,"N_COORD97":2577753.0290600001,"ADDRESS":"新進路二段３４號","OBJECTID":646213},"geometry":{"x":179695.11660100054,"y":2577753.0290600043}},{"attributes":{"ID":646241,"DIS_CODE":0,"TOWNNAME":"安南區","LI":"長安里","LIN":"3鄰","STREET":"長溪路","SECT":"三段","MAREA":" ","LANE":"４０５巷","ALLEY":"４０弄","HOUSE_NO":"１４５號","E_COORD97":167341.31053300001,"N_COORD97":2551858.0212699999,"ADDRESS":"長溪路三段４０５巷４０弄１４５號","OBJECTID":646214},"geometry":{"x":167341.31053300016,"y":2551858.0212710034}},{"attributes":{"ID":646242,"DIS_CODE":0,"TOWNNAME":"新營區","LI":"延平里","LIN":"1鄰","STREET":"新進路","SECT":"二段","MAREA":" ","LANE":" ","ALLEY":" ","HOUSE_NO":"３６號","E_COORD97":179691.93775099999,"N_COORD97":2577753.2407300002,"ADDRESS":"新進路二段３６號","OBJECTID":646215},"geometry":{"x":179691.93775100075,"y":2577753.2407260016}},{"attributes":{"ID":646243,"DIS_CODE":0,"TOWNNAME":"安南區","LI":"長安里","LIN":"3鄰","STREET":"長溪路","SECT":"三段","MAREA":" ","LANE":"４０５巷","ALLEY":"４０弄","HOUSE_NO":"１４７號","E_COORD97":167343.63959599999,"N_COORD97":2551853.5762700001,"ADDRESS":"長溪路三段４０５巷４０弄１４７號","OBJECTID":646216},"geometry":{"x":167343.63959600031,"y":2551853.5762729999}},{"attributes":{"ID":646244,"DIS_CODE":0,"TOWNNAME":"新營區","LI":"延平里","LIN":"1鄰","STREET":"新進路","SECT":"二段","MAREA":" ","LANE":" ","ALLEY":" ","HOUSE_NO":"３８號","E_COORD97":179689.18274700001,"N_COORD97":2577753.0290600001,"ADDRESS":"新進路二段３８號","OBJECTID":646217},"geometry":{"x":179689.18274700083,"y":2577753.0290600043}},{"attributes":{"ID":646245,"DIS_CODE":0,"TOWNNAME":"新營區","LI":"延平里","LIN":"1鄰","STREET":"新進路","SECT":"二段","MAREA":" ","LANE":" ","ALLEY":" ","HOUSE_NO":"３８號","E_COORD97":179689.18274700001,"N_COORD97":2577753.0290600001,"ADDRESS":"新進路二段３８號","OBJECTID":646218},"geometry":{"x":179689.18274700083,"y":2577753.0290600043}},{"attributes":{"ID":646246,"DIS_CODE":0,"TOWNNAME":"安南區","LI":"長安里","LIN":"3鄰","STREET":"長溪路","SECT":"三段","MAREA":" ","LANE":"４０５巷","ALLEY":"４０弄","HOUSE_NO":"１４９號","E_COORD97":167346.18039299999,"N_COORD97":2551850.4012799999,"ADDRESS":"長溪路三段４０５巷４０弄１４９號","OBJECTID":646219},"geometry":{"x":167346.18039300013,"y":2551850.4012749996}},{"attributes":{"ID":646247,"DIS_CODE":0,"TOWNNAME":"安南區","LI":"長安里","LIN":"3鄰","STREET":"長溪路","SECT":"三段","MAREA":" ","LANE":"４０５巷","ALLEY":"４０弄","HOUSE_NO":"１５１號","E_COORD97":167348.40359,"N_COORD97":2551846.6971100001,"ADDRESS":"長溪路三段４０５巷４０弄１５１號","OBJECTID":646220},"geometry":{"x":167348.40359000023,"y":2551846.697110001}},{"attributes":{"ID":646248,"DIS_CODE":0,"TOWNNAME":"安南區","LI":"長安里","LIN":"3鄰","STREET":"長溪路","SECT":"三段","MAREA":" ","LANE":"４０５巷","ALLEY":"４０弄","HOUSE_NO":"１５３號","E_COORD97":167350.20332100001,"N_COORD97":2551843.2046099999,"ADDRESS":"長溪路三段４０５巷４０弄１５３號","OBJECTID":646221},"geometry":{"x":167350.20332100056,"y":2551843.2046119999}},{"attributes":{"ID":646249,"DIS_CODE":0,"TOWNNAME":"安南區","LI":"長安里","LIN":"3鄰","STREET":"長溪路","SECT":"三段","MAREA":" ","LANE":"４０５巷","ALLEY":"４０弄","HOUSE_NO":"１５５號","E_COORD97":167352.95585,"N_COORD97":2551839.8179500001,"ADDRESS":"長溪路三段４０５巷４０弄１５５號","OBJECTID":646222},"geometry":{"x":167352.95584999956,"y":2551839.8179470021}},{"attributes":{"ID":646250,"DIS_CODE":0,"TOWNNAME":"安南區","LI":"長安里","LIN":"3鄰","STREET":"長溪路","SECT":"三段","MAREA":" ","LANE":"４０５巷","ALLEY":"４０弄","HOUSE_NO":"１５７號","E_COORD97":167355.28491399999,"N_COORD97":2551836.2196200001,"ADDRESS":"長溪路三段４０５巷４０弄１５７號","OBJECTID":646223},"geometry":{"x":167355.28491400089,"y":2551836.2196159996}},{"attributes":{"ID":646251,"DIS_CODE":0,"TOWNNAME":"安南區","LI":"長安里","LIN":"3鄰","STREET":"長溪路","SECT":"三段","MAREA":" ","LANE":"４０５巷","ALLEY":"４０弄","HOUSE_NO":"１５９號","E_COORD97":167357.613977,"N_COORD97":2551832.40962,"ADDRESS":"長溪路三段４０５巷４０弄１５９號","OBJECTID":646224},"geometry":{"x":167357.61397699919,"y":2551832.4096180014}},{"attributes":{"ID":646252,"DIS_CODE":0,"TOWNNAME":"安南區","LI":"長安里","LIN":"3鄰","STREET":"長溪路","SECT":"三段","MAREA":" ","LANE":"４０５巷","ALLEY":"４０弄","HOUSE_NO":"１６１號","E_COORD97":167359.94304099999,"N_COORD97":2551828.2821200001,"ADDRESS":"長溪路三段４０５巷４０弄１６１號","OBJECTID":646225},"geometry":{"x":167359.94304099958,"y":2551828.2821199987}},{"attributes":{"ID":646253,"DIS_CODE":0,"TOWNNAME":"安南區","LI":"長安里","LIN":"3鄰","STREET":"長溪路","SECT":"三段","MAREA":" ","LANE":"４０５巷","ALLEY":"４０弄","HOUSE_NO":"１６３號","E_COORD97":167362.16623800001,"N_COORD97":2551824.47212,"ADDRESS":"長溪路三段４０５巷４０弄１６３號","OBJECTID":646226},"geometry":{"x":167362.16623799969,"y":2551824.4721220005}},{"attributes":{"ID":646254,"DIS_CODE":0,"TOWNNAME":"安南區","LI":"長安里","LIN":"3鄰","STREET":"長溪路","SECT":"三段","MAREA":" ","LANE":"４０５巷","ALLEY":"４０弄","HOUSE_NO":"１６５號","E_COORD97":167365.1305,"N_COORD97":2551820.9796199999,"ADDRESS":"長溪路三段４０５巷４０弄１６５號","OBJECTID":646227},"geometry":{"x":167365.1305000009,"y":2551820.9796239994}},{"attributes":{"ID":646255,"DIS_CODE":0,"TOWNNAME":"安南區","LI":"長安里","LIN":"3鄰","STREET":"長溪路","SECT":"三段","MAREA":" ","LANE":"４０５巷","ALLEY":"４０弄","HOUSE_NO":"１６７號","E_COORD97":167366.612632,"N_COORD97":2551818.0162900002,"ADDRESS":"長溪路三段４０５巷４０弄１６７號","OBJECTID":646228},"geometry":{"x":167366.61263199989,"y":2551818.0162920002}},{"attributes":{"ID":646256,"DIS_CODE":0,"TOWNNAME":"安南區","LI":"長安里","LIN":"3鄰","STREET":"長溪路","SECT":"三段","MAREA":" ","LANE":"４０５巷","ALLEY":"４０弄","HOUSE_NO":"１６９號","E_COORD97":167369.259295,"N_COORD97":2551814.6296299999,"ADDRESS":"長溪路三段４０５巷４０弄１６９號","OBJECTID":646229},"geometry":{"x":167369.25929500069,"y":2551814.6296270005}},{"attributes":{"ID":646257,"DIS_CODE":0,"TOWNNAME":"安南區","LI":"長安里","LIN":"3鄰","STREET":"長溪路","SECT":"三段","MAREA":" ","LANE":"４０５巷","ALLEY":"４０弄","HOUSE_NO":"１７１號","E_COORD97":167372.01182399999,"N_COORD97":2551810.3963000001,"ADDRESS":"長溪路三段４０５巷４０弄１７１號","OBJECTID":646230},"geometry":{"x":167372.01182400063,"y":2551810.396296002}},{"attributes":{"ID":646258,"DIS_CODE":0,"TOWNNAME":"安南區","LI":"長安里","LIN":"3鄰","STREET":"長溪路","SECT":"三段","MAREA":" ","LANE":"４０５巷","ALLEY":"４０弄","HOUSE_NO":"１７３號","E_COORD97":167373.59982199999,"N_COORD97":2551807.0096300002,"ADDRESS":"長溪路三段４０５巷４０弄１７３號","OBJECTID":646231},"geometry":{"x":167373.59982200153,"y":2551807.0096320007}},{"attributes":{"ID":646259,"DIS_CODE":0,"TOWNNAME":"安南區","LI":"長安里","LIN":"3鄰","STREET":"長溪路","SECT":"三段","MAREA":" ","LANE":"４０５巷","ALLEY":"４０弄","HOUSE_NO":"１７５號","E_COORD97":167375.92888600001,"N_COORD97":2551803.5171300001,"ADDRESS":"長溪路三段４０５巷４０弄１７５號","OBJECTID":646232},"geometry":{"x":167375.928886001,"y":2551803.5171329994}},{"attributes":{"ID":646260,"DIS_CODE":0,"TOWNNAME":"安南區","LI":"長安里","LIN":"3鄰","STREET":"長溪路","SECT":"三段","MAREA":" ","LANE":"４０５巷","ALLEY":"４０弄","HOUSE_NO":"１７７號","E_COORD97":167377.83448300001,"N_COORD97":2551800.2363,"ADDRESS":"長溪路三段４０５巷４０弄１７７號","OBJECTID":646233},"geometry":{"x":167377.83448300138,"y":2551800.2363019995}},{"attributes":{"ID":646261,"DIS_CODE":0,"TOWNNAME":"安南區","LI":"長安里","LIN":"3鄰","STREET":"長溪路","SECT":"三段","MAREA":" ","LANE":"４０５巷","ALLEY":"４０弄","HOUSE_NO":"１７９號","E_COORD97":167381.645678,"N_COORD97":2551796.0029699998,"ADDRESS":"長溪路三段４０５巷４０弄１７９號","OBJECTID":646234},"geometry":{"x":167381.64567799959,"y":2551796.002971001}},{"attributes":{"ID":646262,"DIS_CODE":0,"TOWNNAME":"佳里區","LI":"安西里","LIN":"48鄰","STREET":" ","SECT":" ","MAREA":"安西","LANE":" ","ALLEY":" ","HOUSE_NO":"１２１號之２６","E_COORD97":164876.97477999999,"N_COORD97":2562219.23373,"ADDRESS":"安西１２１號之２６","OBJECTID":646235},"geometry":{"x":164876.97477999981,"y":2562219.2337299995}},{"attributes":{"ID":646263,"DIS_CODE":0,"TOWNNAME":"安南區","LI":"長安里","LIN":"3鄰","STREET":"長溪路","SECT":"三段","MAREA":" ","LANE":"４０５巷","ALLEY":"４０弄","HOUSE_NO":"１８１號","E_COORD97":167382.91607599999,"N_COORD97":2551791.9813100002,"ADDRESS":"長溪路三段４０５巷４０弄１８１號","OBJECTID":646236},"geometry":{"x":167382.91607599985,"y":2551791.9813060015}},{"attributes":{"ID":646264,"DIS_CODE":0,"TOWNNAME":"安南區","LI":"長安里","LIN":"3鄰","STREET":"長溪路","SECT":"三段","MAREA":" ","LANE":"４０５巷","ALLEY":"４０弄","HOUSE_NO":"１８３號","E_COORD97":167384.92754,"N_COORD97":2551789.01798,"ADDRESS":"長溪路三段４０５巷４０弄１８３號","OBJECTID":646237},"geometry":{"x":167384.9275399996,"y":2551789.0179750025}},{"attributes":{"ID":646265,"DIS_CODE":0,"TOWNNAME":"安南區","LI":"長安里","LIN":"3鄰","STREET":"長溪路","SECT":"三段","MAREA":" ","LANE":"４０５巷","ALLEY":"４０弄","HOUSE_NO":"１８５號","E_COORD97":167390.11499999999,"N_COORD97":2551782.1388099999,"ADDRESS":"長溪路三段４０５巷４０弄１８５號","OBJECTID":646238},"geometry":{"x":167390.11500000022,"y":2551782.1388119999}},{"attributes":{"ID":646266,"DIS_CODE":0,"TOWNNAME":"安南區","LI":"長安里","LIN":"3鄰","STREET":"長溪路","SECT":"三段","MAREA":" ","LANE":"４０５巷","ALLEY":"４０弄","HOUSE_NO":"１８７號","E_COORD97":167390.11499999999,"N_COORD97":2551782.1388099999,"ADDRESS":"長溪路三段４０５巷４０弄１８７號","OBJECTID":646239},"geometry":{"x":167390.11500000022,"y":2551782.1388119999}},{"attributes":{"ID":646267,"DIS_CODE":0,"TOWNNAME":"安南區","LI":"長安里","LIN":"3鄰","STREET":"長溪路","SECT":"三段","MAREA":" ","LANE":"４０５巷","ALLEY":"４０弄","HOUSE_NO":"１８９號","E_COORD97":167391.49126400001,"N_COORD97":2551778.8579799999,"ADDRESS":"長溪路三段４０５巷４０弄１８９號","OBJECTID":646240},"geometry":{"x":167391.49126400054,"y":2551778.8579799999}},{"attributes":{"ID":646268,"DIS_CODE":0,"TOWNNAME":"安南區","LI":"長安里","LIN":"3鄰","STREET":"長溪路","SECT":"三段","MAREA":" ","LANE":"４０５巷","ALLEY":"４０弄","HOUSE_NO":"１９１號","E_COORD97":167394.34966099999,"N_COORD97":2551774.94215,"ADDRESS":"長溪路三段４０５巷４０弄１９１號","OBJECTID":646241},"geometry":{"x":167394.349661001,"y":2551774.9421490002}},{"attributes":{"ID":646269,"DIS_CODE":0,"TOWNNAME":"安南區","LI":"長安里","LIN":"3鄰","STREET":"長溪路","SECT":"三段","MAREA":" ","LANE":"４０５巷","ALLEY":"４０弄","HOUSE_NO":"２４９號","E_COORD97":167322.25455899999,"N_COORD97":2551870.9858499998,"ADDRESS":"長溪路三段４０５巷４０弄２４９號","OBJECTID":646242},"geometry":{"x":167322.25455900002,"y":2551870.985847}},{"attributes":{"ID":646270,"DIS_CODE":0,"TOWNNAME":"安南區","LI":"長安里","LIN":"3鄰","STREET":"長溪路","SECT":"三段","MAREA":" ","LANE":"４０５巷","ALLEY":"４０弄","HOUSE_NO":"２４７號","E_COORD97":167323.94842299999,"N_COORD97":2551866.7525200001,"ADDRESS":"長溪路三段４０５巷４０弄２４７號","OBJECTID":646243},"geometry":{"x":167323.94842300098,"y":2551866.7525160015}},{"attributes":{"ID":646271,"DIS_CODE":0,"TOWNNAME":"安南區","LI":"長安里","LIN":"3鄰","STREET":"長溪路","SECT":"三段","MAREA":" ","LANE":"４０５巷","ALLEY":"４０弄","HOUSE_NO":"２４５號","E_COORD97":167326.859753,"N_COORD97":2551863.2071000002,"ADDRESS":"長溪路三段４０５巷４０弄２４５號","OBJECTID":646244},"geometry":{"x":167326.85975300055,"y":2551863.2071010023}},{"attributes":{"ID":646272,"DIS_CODE":0,"TOWNNAME":"安南區","LI":"長安里","LIN":"3鄰","STREET":"長溪路","SECT":"三段","MAREA":" ","LANE":"４０５巷","ALLEY":"４０弄","HOUSE_NO":"２４３號","E_COORD97":167329.13588300001,"N_COORD97":2551860.1379399998,"ADDRESS":"長溪路三段４０５巷４０弄２４３號","OBJECTID":646245},"geometry":{"x":167329.13588300068,"y":2551860.1379359998}},{"attributes":{"ID":646273,"DIS_CODE":0,"TOWNNAME":"安南區","LI":"長安里","LIN":"3鄰","STREET":"長溪路","SECT":"三段","MAREA":" ","LANE":"４０５巷","ALLEY":"４０弄","HOUSE_NO":"２４１號","E_COORD97":167331.306147,"N_COORD97":2551856.5396099999,"ADDRESS":"長溪路三段４０５巷４０弄２４１號","OBJECTID":646246},"geometry":{"x":167331.30614700075,"y":2551856.539605001}},{"attributes":{"ID":646274,"DIS_CODE":0,"TOWNNAME":"安南區","LI":"長安里","LIN":"3鄰","STREET":"長溪路","SECT":"三段","MAREA":" ","LANE":"４０５巷","ALLEY":"４０弄","HOUSE_NO":"２３９號","E_COORD97":167332.947078,"N_COORD97":2551852.8354400001,"ADDRESS":"長溪路三段４０５巷４０弄２３９號","OBJECTID":646247},"geometry":{"x":167332.94707800075,"y":2551852.8354400024}},{"attributes":{"ID":646275,"DIS_CODE":0,"TOWNNAME":"新營區","LI":"埤寮里","LIN":"4鄰","STREET":" ","SECT":" ","MAREA":"許丑","LANE":" ","ALLEY":" ","HOUSE_NO":"５０號之２","E_COORD97":179759.98749,"N_COORD97":2581024.87439,"ADDRESS":"許丑５０號之２","OBJECTID":646248},"geometry":{"x":179759.98749000207,"y":2581024.8743900023}},{"attributes":{"ID":646276,"DIS_CODE":0,"TOWNNAME":"安南區","LI":"長安里","LIN":"3鄰","STREET":"長溪路","SECT":"三段","MAREA":" ","LANE":"４０５巷","ALLEY":"４０弄","HOUSE_NO":"２３７號","E_COORD97":167333.89987600001,"N_COORD97":2551849.1312799999,"ADDRESS":"長溪路三段４０５巷４０弄２３７號","OBJECTID":646249},"geometry":{"x":167333.89987600129,"y":2551849.1312750001}},{"attributes":{"ID":646277,"DIS_CODE":0,"TOWNNAME":"安南區","LI":"長安里","LIN":"3鄰","STREET":"長溪路","SECT":"三段","MAREA":" ","LANE":"４０５巷","ALLEY":"４０弄","HOUSE_NO":"２３５號","E_COORD97":167337.18173899999,"N_COORD97":2551845.2154399999,"ADDRESS":"長溪路三段４０５巷４０弄２３５號","OBJECTID":646250},"geometry":{"x":167337.18173899967,"y":2551845.2154440004}},{"attributes":{"ID":646278,"DIS_CODE":0,"TOWNNAME":"關廟區","LI":"埤頭里","LIN":"11鄰","STREET":"關新路","SECT":"二段","MAREA":" ","LANE":"１２８巷","ALLEY":"９２弄","HOUSE_NO":"３３號","E_COORD97":179309.984138,"N_COORD97":2544227.2283200002,"ADDRESS":"關新路二段１２８巷９２弄３３號","OBJECTID":646251},"geometry":{"x":179309.98413799983,"y":2544227.2283190023}},{"attributes":{"ID":646279,"DIS_CODE":0,"TOWNNAME":"安南區","LI":"長安里","LIN":"3鄰","STREET":"長溪路","SECT":"三段","MAREA":" ","LANE":"４０５巷","ALLEY":"４０弄","HOUSE_NO":"２３３號","E_COORD97":167339.087336,"N_COORD97":2551841.61711,"ADDRESS":"長溪路三段４０５巷４０弄２３３號","OBJECTID":646252},"geometry":{"x":167339.08733600006,"y":2551841.6171130016}},{"attributes":{"ID":646280,"DIS_CODE":0,"TOWNNAME":"安南區","LI":"長安里","LIN":"3鄰","STREET":"長溪路","SECT":"三段","MAREA":" ","LANE":"４０５巷","ALLEY":"４０弄","HOUSE_NO":"２３１號","E_COORD97":167341.62813299999,"N_COORD97":2551837.9129499998,"ADDRESS":"長溪路三段４０５巷４０弄２３１號","OBJECTID":646253},"geometry":{"x":167341.62813299987,"y":2551837.9129479993}},{"attributes":{"ID":646281,"DIS_CODE":0,"TOWNNAME":"安南區","LI":"長安里","LIN":"3鄰","STREET":"長溪路","SECT":"三段","MAREA":" ","LANE":"４０５巷","ALLEY":"４０弄","HOUSE_NO":"２２９號","E_COORD97":167343.32199699999,"N_COORD97":2551834.1029500002,"ADDRESS":"長溪路三段４０５巷４０弄２２９號","OBJECTID":646254},"geometry":{"x":167343.3219969999,"y":2551834.1029499993}},{"attributes":{"ID":646282,"DIS_CODE":0,"TOWNNAME":"安南區","LI":"淵東里","LIN":"15鄰","STREET":"本原街","SECT":"三段","MAREA":" ","LANE":"１６９巷","ALLEY":" ","HOUSE_NO":"２８號","E_COORD97":165521.55443600001,"N_COORD97":2550236.1652500001,"ADDRESS":"本原街三段１６９巷２８號","OBJECTID":646255},"geometry":{"x":165521.55443600006,"y":2550236.1652520001}},{"attributes":{"ID":646283,"DIS_CODE":0,"TOWNNAME":"安南區","LI":"淵東里","LIN":"15鄰","STREET":"本原街","SECT":"三段","MAREA":" ","LANE":"１６９巷","ALLEY":" ","HOUSE_NO":"３０號","E_COORD97":165523.249175,"N_COORD97":2550232.35525,"ADDRESS":"本原街三段１６９巷３０號","OBJECTID":646256},"geometry":{"x":165523.24917500187,"y":2550232.3552540001}},{"attributes":{"ID":646284,"DIS_CODE":0,"TOWNNAME":"安南區","LI":"淵東里","LIN":"15鄰","STREET":"本原街","SECT":"三段","MAREA":" ","LANE":"１６９巷","ALLEY":" ","HOUSE_NO":"３２號","E_COORD97":165525.791283,"N_COORD97":2550229.8152600001,"ADDRESS":"本原街三段１６９巷３２號","OBJECTID":646257},"geometry":{"x":165525.79128300119,"y":2550229.8152560014}},{"attributes":{"ID":646285,"DIS_CODE":0,"TOWNNAME":"安南區","LI":"淵東里","LIN":"15鄰","STREET":"本原街","SECT":"三段","MAREA":" ","LANE":"１６９巷","ALLEY":" ","HOUSE_NO":"３６號","E_COORD97":165527.69786499999,"N_COORD97":2550226.00526,"ADDRESS":"本原街三段１６９巷３６號","OBJECTID":646258},"geometry":{"x":165527.69786499999,"y":2550226.0052580014}},{"attributes":{"ID":646286,"DIS_CODE":0,"TOWNNAME":"安南區","LI":"淵東里","LIN":"15鄰","STREET":"本原街","SECT":"三段","MAREA":" ","LANE":"１６９巷","ALLEY":" ","HOUSE_NO":"３８號","E_COORD97":165530.23997299999,"N_COORD97":2550222.4069300001,"ADDRESS":"本原街三段１６９巷３８號","OBJECTID":646259},"geometry":{"x":165530.23997300025,"y":2550222.4069260005}},{"attributes":{"ID":646287,"DIS_CODE":0,"TOWNNAME":"安南區","LI":"淵東里","LIN":"15鄰","STREET":"本原街","SECT":"三段","MAREA":" ","LANE":"１６９巷","ALLEY":" ","HOUSE_NO":"４０號","E_COORD97":165531.72287,"N_COORD97":2550217.7502600001,"ADDRESS":"本原街三段１６９巷４０號","OBJECTID":646260},"geometry":{"x":165531.72287000157,"y":2550217.7502619997}},{"attributes":{"ID":646288,"DIS_CODE":0,"TOWNNAME":"安南區","LI":"淵東里","LIN":"15鄰","STREET":"本原街","SECT":"三段","MAREA":" ","LANE":"１６９巷","ALLEY":" ","HOUSE_NO":"４２號","E_COORD97":165533.62945099999,"N_COORD97":2550214.1519300002,"ADDRESS":"本原街三段１６９巷４２號","OBJECTID":646261},"geometry":{"x":165533.62945100013,"y":2550214.1519310009}},{"attributes":{"ID":646289,"DIS_CODE":0,"TOWNNAME":"安南區","LI":"淵東里","LIN":"15鄰","STREET":"本原街","SECT":"三段","MAREA":" ","LANE":"１６９巷","ALLEY":" ","HOUSE_NO":"４６號","E_COORD97":165535.112348,"N_COORD97":2550210.3419300001,"ADDRESS":"本原街三段１６９巷４６號","OBJECTID":646262},"geometry":{"x":165535.11234799959,"y":2550210.3419330008}},{"attributes":{"ID":646290,"DIS_CODE":0,"TOWNNAME":"白河區","LI":"大竹里","LIN":"8鄰","STREET":" ","SECT":" ","MAREA":"大排竹","LANE":" ","ALLEY":" ","HOUSE_NO":"１２０之１４號","E_COORD97":189859.87347799999,"N_COORD97":2584279.0619000001,"ADDRESS":"大排竹１２０之１４號","OBJECTID":646263},"geometry":{"x":189859.87347800098,"y":2584279.0618980005}},{"attributes":{"ID":646291,"DIS_CODE":0,"TOWNNAME":"山上區","LI":"新莊里","LIN":"6鄰","STREET":" ","SECT":" ","MAREA":"大庄","LANE":" ","ALLEY":" ","HOUSE_NO":"４號","E_COORD97":183938.607468,"N_COORD97":2554928.7826800002,"ADDRESS":"大庄４號","OBJECTID":646264},"geometry":{"x":183938.60746800061,"y":2554928.7826840002}},{"attributes":{"ID":646292,"DIS_CODE":0,"TOWNNAME":"安南區","LI":"淵東里","LIN":"14鄰","STREET":"智安二街","SECT":" ","MAREA":" ","LANE":" ","ALLEY":" ","HOUSE_NO":"５５號","E_COORD97":165707.97572300001,"N_COORD97":2550225.7935899999,"ADDRESS":"智安二街５５號","OBJECTID":646265},"geometry":{"x":165707.97572299931,"y":2550225.7935910001}},{"attributes":{"ID":646293,"DIS_CODE":0,"TOWNNAME":"白河區","LI":"大竹里","LIN":"8鄰","STREET":" ","SECT":" ","MAREA":"大排竹","LANE":" ","ALLEY":" ","HOUSE_NO":"１２０之３４號","E_COORD97":189844.72495800001,"N_COORD97":2584279.2735600001,"ADDRESS":"大排竹１２０之３４號","OBJECTID":646266},"geometry":{"x":189844.72495799977,"y":2584279.2735640015}},{"attributes":{"ID":646294,"DIS_CODE":0,"TOWNNAME":"安南區","LI":"淵東里","LIN":"14鄰","STREET":"智安二街","SECT":" ","MAREA":" ","LANE":" ","ALLEY":" ","HOUSE_NO":"５７號","E_COORD97":165705.43361400001,"N_COORD97":2550233.41359,"ADDRESS":"智安二街５７號","OBJECTID":646267},"geometry":{"x":165705.43361400068,"y":2550233.4135869984}},{"attributes":{"ID":646295,"DIS_CODE":0,"TOWNNAME":"安南區","LI":"淵東里","LIN":"14鄰","STREET":"智安二街","SECT":" ","MAREA":" ","LANE":" ","ALLEY":" ","HOUSE_NO":"５９號","E_COORD97":165703.52703299999,"N_COORD97":2550238.9169200002,"ADDRESS":"智安二街５９號","OBJECTID":646268},"geometry":{"x":165703.52703300118,"y":2550238.9169170018}},{"attributes":{"ID":646296,"DIS_CODE":0,"TOWNNAME":"安南區","LI":"淵東里","LIN":"14鄰","STREET":"智安二街","SECT":" ","MAREA":" ","LANE":" ","ALLEY":" ","HOUSE_NO":"６１號","E_COORD97":165700.98492399999,"N_COORD97":2550244.2085799999,"ADDRESS":"智安二街６１號","OBJECTID":646269},"geometry":{"x":165700.98492399976,"y":2550244.2085810024}},{"attributes":{"ID":646297,"DIS_CODE":0,"TOWNNAME":"安南區","LI":"淵東里","LIN":"11鄰","STREET":"智安一街","SECT":" ","MAREA":" ","LANE":" ","ALLEY":" ","HOUSE_NO":"１２８號","E_COORD97":165556.70702900001,"N_COORD97":2550193.9708500002,"ADDRESS":"智安一街１２８號","OBJECTID":646270},"geometry":{"x":165556.70702900086,"y":2550193.9708479997}},{"attributes":{"ID":646298,"DIS_CODE":0,"TOWNNAME":"安南區","LI":"淵東里","LIN":"11鄰","STREET":"智安一街","SECT":" ","MAREA":" ","LANE":" ","ALLEY":" ","HOUSE_NO":"１３０號","E_COORD97":165553.31755099999,"N_COORD97":2550197.88668,"ADDRESS":"智安一街１３０號","OBJECTID":646271},"geometry":{"x":165553.31755100004,"y":2550197.886679003}},{"attributes":{"ID":646299,"DIS_CODE":0,"TOWNNAME":"安南區","LI":"淵東里","LIN":"11鄰","STREET":"智安一街","SECT":" ","MAREA":" ","LANE":" ","ALLEY":" ","HOUSE_NO":"１３２號","E_COORD97":165551.42421,"N_COORD97":2550201.8752700002,"ADDRESS":"智安一街１３２號","OBJECTID":646272},"geometry":{"x":165551.42421000078,"y":2550201.8752710018}},{"attributes":{"ID":646300,"DIS_CODE":0,"TOWNNAME":"安南區","LI":"淵東里","LIN":"11鄰","STREET":"智安一街","SECT":" ","MAREA":" ","LANE":" ","ALLEY":" ","HOUSE_NO":"１３６號","E_COORD97":165549.09394399999,"N_COORD97":2550204.4152700002,"ADDRESS":"智安一街１３６號","OBJECTID":646273},"geometry":{"x":165549.09394400101,"y":2550204.4152690005}},{"attributes":{"ID":646301,"DIS_CODE":0,"TOWNNAME":"北區","LI":"大山里","LIN":"2鄰","STREET":"和緯路","SECT":"一段","MAREA":" ","LANE":" ","ALLEY":" ","HOUSE_NO":"６９號","E_COORD97":169532.88571,"N_COORD97":2545534.7681900002,"ADDRESS":"和緯路一段６９號","OBJECTID":646274},"geometry":{"x":169532.88571000006,"y":2545534.7681900021}},{"attributes":{"ID":646302,"DIS_CODE":0,"TOWNNAME":"關廟區","LI":"埤頭里","LIN":"14鄰","STREET":"關新路","SECT":"二段","MAREA":" ","LANE":"１２８巷","ALLEY":" ","HOUSE_NO":"２１８號","E_COORD97":179575.39961600001,"N_COORD97":2544189.3954099999,"ADDRESS":"關新路二段１２８巷２１８號","OBJECTID":646275},"geometry":{"x":179575.39961600024,"y":2544189.3954089992}},{"attributes":{"ID":646303,"DIS_CODE":0,"TOWNNAME":"北區","LI":"大山里","LIN":"2鄰","STREET":"和緯路","SECT":"一段","MAREA":" ","LANE":" ","ALLEY":" ","HOUSE_NO":"９５號","E_COORD97":169472.29887200001,"N_COORD97":2545550.6431800001,"ADDRESS":"和緯路一段９５號","OBJECTID":646276},"geometry":{"x":169472.29887199961,"y":2545550.643182002}},{"attributes":{"ID":646304,"DIS_CODE":0,"TOWNNAME":"安南區","LI":"長安里","LIN":"3鄰","STREET":"長溪路","SECT":"三段","MAREA":" ","LANE":"４０５巷","ALLEY":"４０弄","HOUSE_NO":"１８５號","E_COORD97":167386.72727100001,"N_COORD97":2551785.2079799999,"ADDRESS":"長溪路三段４０５巷４０弄１８５號","OBJECTID":646277},"geometry":{"x":167386.72727099992,"y":2551785.2079770025}},{"attributes":{"ID":646305,"DIS_CODE":0,"TOWNNAME":"安南區","LI":"長安里","LIN":"3鄰","STREET":"長溪路","SECT":"三段","MAREA":" ","LANE":"４０５巷","ALLEY":"４０弄","HOUSE_NO":"２２７號","E_COORD97":167345.86279300001,"N_COORD97":2551830.2929500001,"ADDRESS":"長溪路三段４０５巷４０弄２２７號","OBJECTID":646278},"geometry":{"x":167345.86279300041,"y":2551830.2929520011}},{"attributes":{"ID":646306,"DIS_CODE":0,"TOWNNAME":"安南區","LI":"長安里","LIN":"3鄰","STREET":"長溪路","SECT":"三段","MAREA":" ","LANE":"４０５巷","ALLEY":"４０弄","HOUSE_NO":"２２５號","E_COORD97":167347.76839099999,"N_COORD97":2551826.4829500001,"ADDRESS":"長溪路三段４０５巷４０弄２２５號","OBJECTID":646279},"geometry":{"x":167347.76839100011,"y":2551826.4829540011}},{"attributes":{"ID":646307,"DIS_CODE":0,"TOWNNAME":"安南區","LI":"長安里","LIN":"3鄰","STREET":"長溪路","SECT":"三段","MAREA":" ","LANE":"４０５巷","ALLEY":"４０弄","HOUSE_NO":"２２３號","E_COORD97":167350.52092000001,"N_COORD97":2551822.46129,"ADDRESS":"長溪路三段４０５巷４０弄２２３號","OBJECTID":646280},"geometry":{"x":167350.52092000097,"y":2551822.46129}},{"attributes":{"ID":646308,"DIS_CODE":0,"TOWNNAME":"安南區","LI":"長安里","LIN":"3鄰","STREET":"長溪路","SECT":"三段","MAREA":" ","LANE":"４０５巷","ALLEY":"４０弄","HOUSE_NO":"２２１號","E_COORD97":167352.53238399999,"N_COORD97":2551819.39212,"ADDRESS":"長溪路三段４０５巷４０弄２２１號","OBJECTID":646281},"geometry":{"x":167352.53238400165,"y":2551819.3921250012}},{"attributes":{"ID":646309,"DIS_CODE":0,"TOWNNAME":"安南區","LI":"長安里","LIN":"3鄰","STREET":"長溪路","SECT":"三段","MAREA":" ","LANE":"４０５巷","ALLEY":"４０弄","HOUSE_NO":"２１９號","E_COORD97":167354.332115,"N_COORD97":2551815.79379,"ADDRESS":"長溪路三段４０５巷４０弄２１９號","OBJECTID":646282},"geometry":{"x":167354.33211500105,"y":2551815.793793004}},{"attributes":{"ID":646310,"DIS_CODE":0,"TOWNNAME":"關廟區","LI":"埤頭里","LIN":"14鄰","STREET":"關新路","SECT":"二段","MAREA":" ","LANE":"１２８巷","ALLEY":" ","HOUSE_NO":"１３５號","E_COORD97":179441.87025000001,"N_COORD97":2544317.40068,"ADDRESS":"關新路二段１２８巷１３５號","OBJECTID":646283},"geometry":{"x":179441.87024999969,"y":2544317.4006810002}},{"attributes":{"ID":646311,"DIS_CODE":0,"TOWNNAME":"安南區","LI":"長安里","LIN":"3鄰","STREET":"長溪路","SECT":"三段","MAREA":" ","LANE":"４０５巷","ALLEY":"４０弄","HOUSE_NO":"２１７號","E_COORD97":167356.97877799999,"N_COORD97":2551811.8779600002,"ADDRESS":"長溪路三段４０５巷４０弄２１７號","OBJECTID":646284},"geometry":{"x":167356.97877799906,"y":2551811.8779620025}},{"attributes":{"ID":646312,"DIS_CODE":0,"TOWNNAME":"安南區","LI":"長安里","LIN":"3鄰","STREET":"長溪路","SECT":"三段","MAREA":" ","LANE":"４０５巷","ALLEY":"４０弄","HOUSE_NO":"２１５號","E_COORD97":167358.990242,"N_COORD97":2551808.0679600001,"ADDRESS":"長溪路三段４０５巷４０弄２１５號","OBJECTID":646285},"geometry":{"x":167358.99024199974,"y":2551808.0679640044}},{"attributes":{"ID":646313,"DIS_CODE":0,"TOWNNAME":"安南區","LI":"長安里","LIN":"3鄰","STREET":"長溪路","SECT":"三段","MAREA":" ","LANE":"４０５巷","ALLEY":"４０弄","HOUSE_NO":"２１３號","E_COORD97":167361.10757299999,"N_COORD97":2551804.0463,"ADDRESS":"長溪路三段４０５巷４０弄２１３號","OBJECTID":646286},"geometry":{"x":167361.10757299978,"y":2551804.0463000033}},{"attributes":{"ID":646314,"DIS_CODE":0,"TOWNNAME":"安南區","LI":"長安里","LIN":"3鄰","STREET":"長溪路","SECT":"三段","MAREA":" ","LANE":"４０５巷","ALLEY":"４０弄","HOUSE_NO":"２１１號","E_COORD97":167363.01316999999,"N_COORD97":2551801.29464,"ADDRESS":"長溪路三段４０５巷４０弄２１１號","OBJECTID":646287},"geometry":{"x":167363.01317000017,"y":2551801.2946350016}},{"attributes":{"ID":646315,"DIS_CODE":0,"TOWNNAME":"安南區","LI":"長安里","LIN":"3鄰","STREET":"長溪路","SECT":"三段","MAREA":" ","LANE":"４０５巷","ALLEY":"４０弄","HOUSE_NO":"２０９號","E_COORD97":167366.29503199999,"N_COORD97":2551797.0613000002,"ADDRESS":"長溪路三段４０５巷４０弄２０９號","OBJECTID":646288},"geometry":{"x":167366.29503200017,"y":2551797.0613039993}},{"attributes":{"ID":646316,"DIS_CODE":0,"TOWNNAME":"安南區","LI":"長安里","LIN":"3鄰","STREET":"長溪路","SECT":"三段","MAREA":" ","LANE":"４０５巷","ALLEY":"４０弄","HOUSE_NO":"２０７號","E_COORD97":167368.83582899999,"N_COORD97":2551793.7804700001,"ADDRESS":"長溪路三段４０５巷４０弄２０７號","OBJECTID":646289},"geometry":{"x":167368.83582899999,"y":2551793.7804719992}},{"attributes":{"ID":646317,"DIS_CODE":0,"TOWNNAME":"安南區","LI":"長安里","LIN":"3鄰","STREET":"長溪路","SECT":"三段","MAREA":" ","LANE":"４０５巷","ALLEY":"４０弄","HOUSE_NO":"２０５號","E_COORD97":167370.847293,"N_COORD97":2551790.1821400002,"ADDRESS":"長溪路三段４０５巷４０弄２０５號","OBJECTID":646290},"geometry":{"x":167370.84729300067,"y":2551790.1821410004}},{"attributes":{"ID":646318,"DIS_CODE":0,"TOWNNAME":"安南區","LI":"長安里","LIN":"3鄰","STREET":"長溪路","SECT":"三段","MAREA":" ","LANE":"４０５巷","ALLEY":"４０弄","HOUSE_NO":"２０３號","E_COORD97":167372.01182399999,"N_COORD97":2551786.3721400001,"ADDRESS":"長溪路三段４０５巷４０弄２０３號","OBJECTID":646291},"geometry":{"x":167372.01182400063,"y":2551786.3721430022}},{"attributes":{"ID":646319,"DIS_CODE":0,"TOWNNAME":"安南區","LI":"長安里","LIN":"3鄰","STREET":"長溪路","SECT":"三段","MAREA":" ","LANE":"４０５巷","ALLEY":"４０弄","HOUSE_NO":"２０１號","E_COORD97":167374.76435400001,"N_COORD97":2551783.3029800002,"ADDRESS":"長溪路三段４０５巷４０弄２０１號","OBJECTID":646292},"geometry":{"x":167374.7643540008,"y":2551783.3029779997}},{"attributes":{"ID":646320,"DIS_CODE":0,"TOWNNAME":"安南區","LI":"長安里","LIN":"3鄰","STREET":"長溪路","SECT":"三段","MAREA":" ","LANE":"４０５巷","ALLEY":"４０弄","HOUSE_NO":"１９９號","E_COORD97":167377.30515100001,"N_COORD97":2551779.3871499998,"ADDRESS":"長溪路三段４０５巷４０弄１９９號","OBJECTID":646293},"geometry":{"x":167377.30515100062,"y":2551779.3871459998}},{"attributes":{"ID":646321,"DIS_CODE":0,"TOWNNAME":"北區","LI":"大山里","LIN":"2鄰","STREET":"和緯路","SECT":"一段","MAREA":" ","LANE":" ","ALLEY":" ","HOUSE_NO":"７１號","E_COORD97":169527.58965800001,"N_COORD97":2545536.0381900002,"ADDRESS":"和緯路一段７１號","OBJECTID":646294},"geometry":{"x":169527.58965800051,"y":2545536.0381890014}},{"attributes":{"ID":646322,"DIS_CODE":0,"TOWNNAME":"安南區","LI":"長安里","LIN":"3鄰","STREET":"長溪路","SECT":"三段","MAREA":" ","LANE":"４０５巷","ALLEY":"４０弄","HOUSE_NO":"１９７號","E_COORD97":167382.49260999999,"N_COORD97":2551772.7196499999,"ADDRESS":"長溪路三段４０５巷４０弄１９７號","OBJECTID":646295},"geometry":{"x":167382.49261000007,"y":2551772.7196500022}},{"attributes":{"ID":646323,"DIS_CODE":0,"TOWNNAME":"安南區","LI":"長安里","LIN":"3鄰","STREET":"長溪路","SECT":"三段","MAREA":" ","LANE":"４０５巷","ALLEY":"４０弄","HOUSE_NO":"１９５號","E_COORD97":167382.49260999999,"N_COORD97":2551772.7196499999,"ADDRESS":"長溪路三段４０５巷４０弄１９５號","OBJECTID":646296},"geometry":{"x":167382.49261000007,"y":2551772.7196500022}},{"attributes":{"ID":646324,"DIS_CODE":0,"TOWNNAME":"安南區","LI":"長安里","LIN":"3鄰","STREET":"長溪路","SECT":"三段","MAREA":" ","LANE":"４０５巷","ALLEY":"４０弄","HOUSE_NO":"１９３號","E_COORD97":167385.35100600001,"N_COORD97":2551768.4863200001,"ADDRESS":"長溪路三段４０５巷４０弄１９３號","OBJECTID":646297},"geometry":{"x":167385.3510060003,"y":2551768.4863189999}},{"attributes":{"ID":646325,"DIS_CODE":0,"TOWNNAME":"北區","LI":"大山里","LIN":"2鄰","STREET":"和緯路","SECT":"一段","MAREA":" ","LANE":" ","ALLEY":" ","HOUSE_NO":"９３號","E_COORD97":169475.90018699999,"N_COORD97":2545550.0081799999,"ADDRESS":"和緯路一段９３號","OBJECTID":646298},"geometry":{"x":169475.90018699877,"y":2545550.0081820041}},{"attributes":{"ID":646326,"DIS_CODE":0,"TOWNNAME":"歸仁區","LI":"媽廟里","LIN":"27鄰","STREET":"保大路","SECT":"一段","MAREA":" ","LANE":"１５２巷","ALLEY":" ","HOUSE_NO":"９號","E_COORD97":177696.34656599999,"N_COORD97":2544091.60531,"ADDRESS":"保大路一段１５２巷９號","OBJECTID":646299},"geometry":{"x":177696.34656600002,"y":2544091.6053110007}},{"attributes":{"ID":646327,"DIS_CODE":0,"TOWNNAME":"歸仁區","LI":"南興里","LIN":"4鄰","STREET":"民生北街","SECT":" ","MAREA":" ","LANE":"１３６巷","ALLEY":" ","HOUSE_NO":"２８號","E_COORD97":176355.82939999999,"N_COORD97":2541336.63485,"ADDRESS":"民生北街１３６巷２８號","OBJECTID":646300},"geometry":{"x":176355.82940000109,"y":2541336.6348520014}},{"attributes":{"ID":646328,"DIS_CODE":0,"TOWNNAME":"歸仁區","LI":"南興里","LIN":"4鄰","STREET":"民生北街","SECT":" ","MAREA":" ","LANE":"１３６巷","ALLEY":" ","HOUSE_NO":"３０號","E_COORD97":176361.97762399999,"N_COORD97":2541336.63485,"ADDRESS":"民生北街１３６巷３０號","OBJECTID":646301},"geometry":{"x":176361.97762400005,"y":2541336.6348520014}},{"attributes":{"ID":646329,"DIS_CODE":0,"TOWNNAME":"歸仁區","LI":"南興里","LIN":"4鄰","STREET":"民生北街","SECT":" ","MAREA":" ","LANE":"１３６巷","ALLEY":" ","HOUSE_NO":"３２號","E_COORD97":176368.33785499999,"N_COORD97":2541337.4815199999,"ADDRESS":"民生北街１３６巷３２號","OBJECTID":646302},"geometry":{"x":176368.33785500098,"y":2541337.4815179985}},{"attributes":{"ID":646330,"DIS_CODE":0,"TOWNNAME":"安南區","LI":"長安里","LIN":"3鄰","STREET":"長溪路","SECT":"三段","MAREA":" ","LANE":"４０５巷","ALLEY":"４０弄","HOUSE_NO":"１９７號","E_COORD97":167379.84594699999,"N_COORD97":2551776.6354800002,"ADDRESS":"長溪路三段４０５巷４０弄１９７號","OBJECTID":646303},"geometry":{"x":167379.84594700206,"y":2551776.6354810018}},{"attributes":{"ID":646331,"DIS_CODE":0,"TOWNNAME":"安南區","LI":"長安里","LIN":"3鄰","STREET":"長溪路","SECT":"三段","MAREA":" ","LANE":"４０５巷","ALLEY":"４０弄","HOUSE_NO":"１９７號","E_COORD97":167379.84594699999,"N_COORD97":2551776.6354800002,"ADDRESS":"長溪路三段４０５巷４０弄１９７號","OBJECTID":646304},"geometry":{"x":167379.84594700206,"y":2551776.6354810018}},{"attributes":{"ID":646332,"DIS_CODE":0,"TOWNNAME":"歸仁區","LI":"南興里","LIN":"4鄰","STREET":"民生北街","SECT":" ","MAREA":" ","LANE":"１３６巷","ALLEY":" ","HOUSE_NO":"３６號","E_COORD97":176374.69808599999,"N_COORD97":2541337.3756800001,"ADDRESS":"民生北街１３６巷３６號","OBJECTID":646305},"geometry":{"x":176374.69808600005,"y":2541337.3756849989}},{"attributes":{"ID":646333,"DIS_CODE":0,"TOWNNAME":"歸仁區","LI":"南興里","LIN":"4鄰","STREET":"民生北街","SECT":" ","MAREA":" ","LANE":"１３６巷","ALLEY":" ","HOUSE_NO":"３８號","E_COORD97":176381.058318,"N_COORD97":2541336.9523499999,"ADDRESS":"民生北街１３６巷３８號","OBJECTID":646306},"geometry":{"x":176381.05831800029,"y":2541336.9523520004}},{"attributes":{"ID":646334,"DIS_CODE":0,"TOWNNAME":"歸仁區","LI":"南興里","LIN":"4鄰","STREET":"民生北街","SECT":" ","MAREA":" ","LANE":" ","ALLEY":" ","HOUSE_NO":"１３８號","E_COORD97":176278.65859499999,"N_COORD97":2541353.6740100002,"ADDRESS":"民生北街１３８號","OBJECTID":646307},"geometry":{"x":176278.65859500133,"y":2541353.674008999}},{"attributes":{"ID":646335,"DIS_CODE":0,"TOWNNAME":"歸仁區","LI":"南興里","LIN":"4鄰","STREET":"民生北街","SECT":" ","MAREA":" ","LANE":" ","ALLEY":" ","HOUSE_NO":"１４０號","E_COORD97":176275.26647199999,"N_COORD97":2541358.7540099998,"ADDRESS":"民生北街１４０號","OBJECTID":646308},"geometry":{"x":176275.26647200156,"y":2541358.7540070023}},{"attributes":{"ID":646336,"DIS_CODE":0,"TOWNNAME":"關廟區","LI":"埤頭里","LIN":"11鄰","STREET":"關新路","SECT":"二段","MAREA":" ","LANE":"２９８巷","ALLEY":" ","HOUSE_NO":"１２６號","E_COORD97":179429.093387,"N_COORD97":2544638.6336500002,"ADDRESS":"關新路二段２９８巷１２６號","OBJECTID":646309},"geometry":{"x":179429.09338700119,"y":2544638.6336460039}},{"attributes":{"ID":646337,"DIS_CODE":0,"TOWNNAME":"歸仁區","LI":"南興里","LIN":"4鄰","STREET":"民生北街","SECT":" ","MAREA":" ","LANE":" ","ALLEY":" ","HOUSE_NO":"１４２號","E_COORD97":176276.11450200001,"N_COORD97":2541365.1039999998,"ADDRESS":"民生北街１４２號","OBJECTID":646310},"geometry":{"x":176276.11450199969,"y":2541365.104003001}},{"attributes":{"ID":646338,"DIS_CODE":0,"TOWNNAME":"北門區","LI":"鯤江里","LIN":"9鄰","STREET":" ","SECT":" ","MAREA":"新圍","LANE":" ","ALLEY":" ","HOUSE_NO":"１號之１０","E_COORD97":163146.96615200001,"N_COORD97":2577346.66188,"ADDRESS":"新圍１號之１０","OBJECTID":646311},"geometry":{"x":163146.96615200117,"y":2577346.6618790012}},{"attributes":{"ID":646339,"DIS_CODE":0,"TOWNNAME":"歸仁區","LI":"南興里","LIN":"4鄰","STREET":"民生北街","SECT":" ","MAREA":" ","LANE":" ","ALLEY":" ","HOUSE_NO":"１４６號","E_COORD97":176276.75052599999,"N_COORD97":2541370.39567,"ADDRESS":"民生北街１４６號","OBJECTID":646312},"geometry":{"x":176276.75052599981,"y":2541370.3956670016}},{"attributes":{"ID":646340,"DIS_CODE":0,"TOWNNAME":"歸仁區","LI":"南興里","LIN":"4鄰","STREET":"民生北街","SECT":" ","MAREA":" ","LANE":"１３６巷","ALLEY":" ","HOUSE_NO":"１號","E_COORD97":176294.34716500001,"N_COORD97":2541353.2506800001,"ADDRESS":"民生北街１３６巷１號","OBJECTID":646313},"geometry":{"x":176294.34716499969,"y":2541353.2506760005}},{"attributes":{"ID":646341,"DIS_CODE":0,"TOWNNAME":"歸仁區","LI":"南興里","LIN":"4鄰","STREET":"民生北街","SECT":" ","MAREA":" ","LANE":"１３６巷","ALLEY":" ","HOUSE_NO":"３號","E_COORD97":176300.49538899999,"N_COORD97":2541353.2506800001,"ADDRESS":"民生北街１３６巷３號","OBJECTID":646314},"geometry":{"x":176300.49538900051,"y":2541353.2506760005}},{"attributes":{"ID":646342,"DIS_CODE":0,"TOWNNAME":"歸仁區","LI":"南興里","LIN":"4鄰","STREET":"民生北街","SECT":" ","MAREA":" ","LANE":"１３６巷","ALLEY":" ","HOUSE_NO":"５號","E_COORD97":176304.94755099999,"N_COORD97":2541353.0390099999,"ADDRESS":"民生北街１３６巷５號","OBJECTID":646315},"geometry":{"x":176304.94755099993,"y":2541353.0390099995}},{"attributes":{"ID":646343,"DIS_CODE":0,"TOWNNAME":"歸仁區","LI":"南興里","LIN":"4鄰","STREET":"民生北街","SECT":" ","MAREA":" ","LANE":"１３６巷","ALLEY":" ","HOUSE_NO":"７號","E_COORD97":176309.39971200001,"N_COORD97":2541352.8273399998,"ADDRESS":"民生北街１３６巷７號","OBJECTID":646316},"geometry":{"x":176309.39971200004,"y":2541352.827343002}},{"attributes":{"ID":646344,"DIS_CODE":0,"TOWNNAME":"歸仁區","LI":"南興里","LIN":"4鄰","STREET":"民生北街","SECT":" ","MAREA":" ","LANE":"１３６巷","ALLEY":" ","HOUSE_NO":"９號","E_COORD97":176313.85187400001,"N_COORD97":2541353.2506800001,"ADDRESS":"民生北街１３６巷９號","OBJECTID":646317},"geometry":{"x":176313.85187400132,"y":2541353.2506760005}},{"attributes":{"ID":646345,"DIS_CODE":0,"TOWNNAME":"歸仁區","LI":"南興里","LIN":"4鄰","STREET":"民生北街","SECT":" ","MAREA":" ","LANE":"１３６巷","ALLEY":" ","HOUSE_NO":"１１號","E_COORD97":176318.72805199999,"N_COORD97":2541352.1923400001,"ADDRESS":"民生北街１３６巷１１號","OBJECTID":646318},"geometry":{"x":176318.72805200145,"y":2541352.1923430022}},{"attributes":{"ID":646346,"DIS_CODE":0,"TOWNNAME":"歸仁區","LI":"南興里","LIN":"4鄰","STREET":"民生北街","SECT":" ","MAREA":" ","LANE":"１３６巷","ALLEY":" ","HOUSE_NO":"１３號","E_COORD97":176323.18021300001,"N_COORD97":2541352.6156799998,"ADDRESS":"民生北街１３６巷１３號","OBJECTID":646319},"geometry":{"x":176323.18021300156,"y":2541352.615677001}},{"attributes":{"ID":646347,"DIS_CODE":0,"TOWNNAME":"歸仁區","LI":"南興里","LIN":"4鄰","STREET":"民生北街","SECT":" ","MAREA":" ","LANE":"１３６巷","ALLEY":" ","HOUSE_NO":"１５號","E_COORD97":176328.90442199999,"N_COORD97":2541351.7690099999,"ADDRESS":"民生北街１３６巷１５號","OBJECTID":646320},"geometry":{"x":176328.90442200098,"y":2541351.7690099999}},{"attributes":{"ID":646348,"DIS_CODE":0,"TOWNNAME":"歸仁區","LI":"南興里","LIN":"4鄰","STREET":"民生北街","SECT":" ","MAREA":" ","LANE":"１３６巷","ALLEY":" ","HOUSE_NO":"１７號","E_COORD97":176332.72055999999,"N_COORD97":2541353.4623400001,"ADDRESS":"民生北街１３６巷１７號","OBJECTID":646321},"geometry":{"x":176332.72056000028,"y":2541353.4623430017}},{"attributes":{"ID":646349,"DIS_CODE":0,"TOWNNAME":"歸仁區","LI":"南興里","LIN":"4鄰","STREET":"民生北街","SECT":" ","MAREA":" ","LANE":"１３６巷","ALLEY":" ","HOUSE_NO":"１９號","E_COORD97":176338.02075299999,"N_COORD97":2541351.5573399998,"ADDRESS":"民生北街１３６巷１９號","OBJECTID":646322},"geometry":{"x":176338.02075300086,"y":2541351.5573440026}},{"attributes":{"ID":646350,"DIS_CODE":0,"TOWNNAME":"歸仁區","LI":"南興里","LIN":"4鄰","STREET":"民生北街","SECT":" ","MAREA":" ","LANE":"１３６巷","ALLEY":" ","HOUSE_NO":"２１號","E_COORD97":176342.47291499999,"N_COORD97":2541353.2506800001,"ADDRESS":"民生北街１３６巷２１號","OBJECTID":646323},"geometry":{"x":176342.47291500028,"y":2541353.2506760005}},{"attributes":{"ID":646351,"DIS_CODE":0,"TOWNNAME":"歸仁區","LI":"南興里","LIN":"4鄰","STREET":"民生北街","SECT":" ","MAREA":" ","LANE":"１３６巷","ALLEY":" ","HOUSE_NO":"２３號","E_COORD97":176346.92507699999,"N_COORD97":2541350.92234,"ADDRESS":"民生北街１３６巷２３號","OBJECTID":646324},"geometry":{"x":176346.9250769997,"y":2541350.9223440029}},{"attributes":{"ID":646352,"DIS_CODE":0,"TOWNNAME":"歸仁區","LI":"南興里","LIN":"4鄰","STREET":"民生北街","SECT":" ","MAREA":" ","LANE":"１３６巷","ALLEY":" ","HOUSE_NO":"２５號","E_COORD97":176351.37723899999,"N_COORD97":2541354.5206800001,"ADDRESS":"民生北街１３６巷２５號","OBJECTID":646325},"geometry":{"x":176351.37723900098,"y":2541354.520676}},{"attributes":{"ID":646353,"DIS_CODE":0,"TOWNNAME":"歸仁區","LI":"南興里","LIN":"4鄰","STREET":"民生北街","SECT":" ","MAREA":" ","LANE":"１３６巷","ALLEY":" ","HOUSE_NO":"２７號","E_COORD97":176356.25341599999,"N_COORD97":2541350.92234,"ADDRESS":"民生北街１３６巷２７號","OBJECTID":646326},"geometry":{"x":176356.253415999,"y":2541350.9223440029}},{"attributes":{"ID":646354,"DIS_CODE":0,"TOWNNAME":"歸仁區","LI":"南興里","LIN":"4鄰","STREET":"民生北街","SECT":" ","MAREA":" ","LANE":"１３６巷","ALLEY":" ","HOUSE_NO":"２９號","E_COORD97":176360.70557799999,"N_COORD97":2541353.0390099999,"ADDRESS":"民生北街１３６巷２９號","OBJECTID":646327},"geometry":{"x":176360.70557800122,"y":2541353.0390099995}},{"attributes":{"ID":646355,"DIS_CODE":0,"TOWNNAME":"歸仁區","LI":"南興里","LIN":"4鄰","STREET":"民生北街","SECT":" ","MAREA":" ","LANE":"１３６巷","ALLEY":" ","HOUSE_NO":"３１號","E_COORD97":176366.00576999999,"N_COORD97":2541350.4990099999,"ADDRESS":"民生北街１３６巷３１號","OBJECTID":646328},"geometry":{"x":176366.00577000063,"y":2541350.4990110043}},{"attributes":{"ID":646356,"DIS_CODE":0,"TOWNNAME":"歸仁區","LI":"南興里","LIN":"4鄰","STREET":"民生北街","SECT":" ","MAREA":" ","LANE":"１３６巷","ALLEY":" ","HOUSE_NO":"３３號","E_COORD97":176370.245925,"N_COORD97":2541351.5573399998,"ADDRESS":"民生北街１３６巷３３號","OBJECTID":646329},"geometry":{"x":176370.24592499994,"y":2541351.5573440026}},{"attributes":{"ID":646357,"DIS_CODE":0,"TOWNNAME":"北區","LI":"大山里","LIN":"2鄰","STREET":"和緯路","SECT":"一段","MAREA":" ","LANE":" ","ALLEY":" ","HOUSE_NO":"９１號","E_COORD97":169479.57421699999,"N_COORD97":2545548.7381799999,"ADDRESS":"和緯路一段９１號","OBJECTID":646330},"geometry":{"x":169479.57421700191,"y":2545548.7381829992}},{"attributes":{"ID":646358,"DIS_CODE":0,"TOWNNAME":"歸仁區","LI":"南興里","LIN":"4鄰","STREET":"民生北街","SECT":" ","MAREA":" ","LANE":"１３６巷","ALLEY":" ","HOUSE_NO":"３５號","E_COORD97":176377.03017099999,"N_COORD97":2541351.1340100002,"ADDRESS":"民生北街１３６巷３５號","OBJECTID":646331},"geometry":{"x":176377.03017099947,"y":2541351.1340110041}},{"attributes":{"ID":646359,"DIS_CODE":0,"TOWNNAME":"歸仁區","LI":"南興里","LIN":"4鄰","STREET":"民生北街","SECT":" ","MAREA":" ","LANE":"１３６巷","ALLEY":" ","HOUSE_NO":"３７號","E_COORD97":176382.542372,"N_COORD97":2541351.3456799998,"ADDRESS":"民生北街１３６巷３７號","OBJECTID":646332},"geometry":{"x":176382.5423720004,"y":2541351.3456770014}},{"attributes":{"ID":646360,"DIS_CODE":0,"TOWNNAME":"歸仁區","LI":"南興里","LIN":"4鄰","STREET":"民生北街","SECT":" ","MAREA":" ","LANE":"１３６巷","ALLEY":" ","HOUSE_NO":"３９號","E_COORD97":176387.41854899999,"N_COORD97":2541351.1340100002,"ADDRESS":"民生北街１３６巷３９號","OBJECTID":646333},"geometry":{"x":176387.41854900122,"y":2541351.1340110041}},{"attributes":{"ID":646361,"DIS_CODE":0,"TOWNNAME":"歸仁區","LI":"南興里","LIN":"4鄰","STREET":"民生北街","SECT":" ","MAREA":" ","LANE":"１３６巷","ALLEY":" ","HOUSE_NO":"４１號","E_COORD97":176392.29472599999,"N_COORD97":2541350.4990099999,"ADDRESS":"民生北街１３６巷４１號","OBJECTID":646334},"geometry":{"x":176392.2947260011,"y":2541350.4990110043}},{"attributes":{"ID":646362,"DIS_CODE":0,"TOWNNAME":"歸仁區","LI":"南興里","LIN":"4鄰","STREET":"民生北街","SECT":" ","MAREA":" ","LANE":"１３６巷","ALLEY":" ","HOUSE_NO":"４３號","E_COORD97":176396.958896,"N_COORD97":2541350.4990099999,"ADDRESS":"民生北街１３６巷４３號","OBJECTID":646335},"geometry":{"x":176396.95889599994,"y":2541350.4990110043}},{"attributes":{"ID":646363,"DIS_CODE":0,"TOWNNAME":"北門區","LI":"錦湖里","LIN":"1鄰","STREET":" ","SECT":" ","MAREA":"渡子頭","LANE":" ","ALLEY":" ","HOUSE_NO":"３號之２６","E_COORD97":164823.47606300001,"N_COORD97":2575920.9843899999,"ADDRESS":"渡子頭３號之２６","OBJECTID":646336},"geometry":{"x":164823.47606300004,"y":2575920.9843920004}},{"attributes":{"ID":646364,"DIS_CODE":0,"TOWNNAME":"歸仁區","LI":"南興里","LIN":"4鄰","STREET":"民生北街","SECT":" ","MAREA":" ","LANE":"１３６巷","ALLEY":" ","HOUSE_NO":"４５號","E_COORD97":176401.83507299999,"N_COORD97":2541350.0756799998,"ADDRESS":"民生北街１３６巷４５號","OBJECTID":646337},"geometry":{"x":176401.83507300075,"y":2541350.0756780002}},{"attributes":{"ID":646365,"DIS_CODE":0,"TOWNNAME":"歸仁區","LI":"南興里","LIN":"4鄰","STREET":"民生北街","SECT":" ","MAREA":" ","LANE":"１３６巷","ALLEY":" ","HOUSE_NO":"４７號","E_COORD97":176406.07522699999,"N_COORD97":2541350.0756799998,"ADDRESS":"民生北街１３６巷４７號","OBJECTID":646338},"geometry":{"x":176406.07522700075,"y":2541350.0756780002}},{"attributes":{"ID":646366,"DIS_CODE":0,"TOWNNAME":"北門區","LI":"永隆里","LIN":"1鄰","STREET":" ","SECT":" ","MAREA":"北門","LANE":" ","ALLEY":" ","HOUSE_NO":"３號之５","E_COORD97":160351.878673,"N_COORD97":2574313.7584699998,"ADDRESS":"北門３號之５","OBJECTID":646339},"geometry":{"x":160351.87867300119,"y":2574313.758467}},{"attributes":{"ID":646367,"DIS_CODE":0,"TOWNNAME":"東山區","LI":"南溪里","LIN":"2鄰","STREET":" ","SECT":" ","MAREA":"二","LANE":" ","ALLEY":" ","HOUSE_NO":"１２號之１","E_COORD97":188988.88606399999,"N_COORD97":2574645.7944,"ADDRESS":"二１２號之１","OBJECTID":646340},"geometry":{"x":188988.88606400043,"y":2574645.7944020014}},{"attributes":{"ID":646368,"DIS_CODE":0,"TOWNNAME":"東山區","LI":"南溪里","LIN":"1鄰","STREET":" ","SECT":" ","MAREA":"二重溪","LANE":" ","ALLEY":" ","HOUSE_NO":"１２號之１","E_COORD97":188988.67419600001,"N_COORD97":2574648.4402299998,"ADDRESS":"二重溪１２號之１","OBJECTID":646341},"geometry":{"x":188988.67419600021,"y":2574648.4402340017}},{"attributes":{"ID":646369,"DIS_CODE":0,"TOWNNAME":"東山區","LI":"南溪里","LIN":"2鄰","STREET":" ","SECT":" ","MAREA":"二重溪","LANE":" ","ALLEY":" ","HOUSE_NO":"１３號之７","E_COORD97":188745.026664,"N_COORD97":2574752.1568399998,"ADDRESS":"二重溪１３號之７","OBJECTID":646342},"geometry":{"x":188745.02666400187,"y":2574752.1568439994}},{"attributes":{"ID":646370,"DIS_CODE":0,"TOWNNAME":"東山區","LI":"南溪里","LIN":"2鄰","STREET":" ","SECT":" ","MAREA":"二重溪","LANE":" ","ALLEY":" ","HOUSE_NO":"１９號","E_COORD97":188475.743173,"N_COORD97":2574747.6060100002,"ADDRESS":"二重溪１９號","OBJECTID":646343},"geometry":{"x":188475.7431730004,"y":2574747.606013}},{"attributes":{"ID":646371,"DIS_CODE":0,"TOWNNAME":"東山區","LI":"南溪里","LIN":"2鄰","STREET":" ","SECT":" ","MAREA":"二重溪","LANE":" ","ALLEY":" ","HOUSE_NO":"２９號","E_COORD97":188437.183303,"N_COORD97":2574706.8602,"ADDRESS":"二重溪２９號","OBJECTID":646344},"geometry":{"x":188437.18330300041,"y":2574706.8602020014}},{"attributes":{"ID":646372,"DIS_CODE":0,"TOWNNAME":"仁德區","LI":"保安里","LIN":"19鄰","STREET":"文賢路","SECT":"二段","MAREA":" ","LANE":" ","ALLEY":" ","HOUSE_NO":"４７之１號","E_COORD97":171882.29894000001,"N_COORD97":2535742.8958200002,"ADDRESS":"文賢路二段４７之１號","OBJECTID":646345},"geometry":{"x":171882.29894000012,"y":2535742.895820003}},{"attributes":{"ID":646373,"DIS_CODE":0,"TOWNNAME":"仁德區","LI":"保安里","LIN":"20鄰","STREET":"保安路","SECT":"一段","MAREA":" ","LANE":" ","ALLEY":" ","HOUSE_NO":"８１號","E_COORD97":170886.29271400001,"N_COORD97":2536828.9569000001,"ADDRESS":"保安路一段８１號","OBJECTID":646346},"geometry":{"x":170886.29271400068,"y":2536828.9569000024}},{"attributes":{"ID":646374,"DIS_CODE":0,"TOWNNAME":"安南區","LI":"四草里","LIN":"7鄰","STREET":"四草大道","SECT":" ","MAREA":" ","LANE":"４８６巷","ALLEY":" ","HOUSE_NO":"６號","E_COORD97":161142.98929100001,"N_COORD97":2545751.9602999999,"ADDRESS":"四草大道４８６巷６號","OBJECTID":646347},"geometry":{"x":161142.98929100018,"y":2545751.9602970034}},{"attributes":{"ID":646375,"DIS_CODE":0,"TOWNNAME":"安南區","LI":"四草里","LIN":"7鄰","STREET":"四草大道","SECT":" ","MAREA":" ","LANE":"４８６巷","ALLEY":" ","HOUSE_NO":"８號","E_COORD97":161147.22512300001,"N_COORD97":2545759.58029,"ADDRESS":"四草大道４８６巷８號","OBJECTID":646348},"geometry":{"x":161147.22512300126,"y":2545759.5802930016}},{"attributes":{"ID":646376,"DIS_CODE":0,"TOWNNAME":"安南區","LI":"四草里","LIN":"7鄰","STREET":"四草大道","SECT":" ","MAREA":" ","LANE":"４８６巷","ALLEY":" ","HOUSE_NO":"１８號","E_COORD97":161177.62471500001,"N_COORD97":2545769.0219299998,"ADDRESS":"四草大道４８６巷１８號","OBJECTID":646349},"geometry":{"x":161177.62471500039,"y":2545769.0219310001}},{"attributes":{"ID":646377,"DIS_CODE":0,"TOWNNAME":"東山區","LI":"南溪里","LIN":"4鄰","STREET":" ","SECT":" ","MAREA":"二重溪","LANE":" ","ALLEY":" ","HOUSE_NO":"３５號之５","E_COORD97":188361.387357,"N_COORD97":2574564.83195,"ADDRESS":"二重溪３５號之５","OBJECTID":646350},"geometry":{"x":188361.38735700212,"y":2574564.8319450002}},{"attributes":{"ID":646378,"DIS_CODE":0,"TOWNNAME":"安南區","LI":"四草里","LIN":"7鄰","STREET":"四草大道","SECT":" ","MAREA":" ","LANE":"４８６巷","ALLEY":" ","HOUSE_NO":"１０號","E_COORD97":161160.893178,"N_COORD97":2545765.84693,"ADDRESS":"四草大道４８６巷１０號","OBJECTID":646351},"geometry":{"x":161160.89317800105,"y":2545765.8469320014}},{"attributes":{"ID":646379,"DIS_CODE":0,"TOWNNAME":"安南區","LI":"四草里","LIN":"6鄰","STREET":"四草大道","SECT":" ","MAREA":" ","LANE":"６８６巷","ALLEY":" ","HOUSE_NO":"２號","E_COORD97":161105.61556899999,"N_COORD97":2546115.5884500002,"ADDRESS":"四草大道６８６巷２號","OBJECTID":646352},"geometry":{"x":161105.615569002,"y":2546115.5884500016}},{"attributes":{"ID":646380,"DIS_CODE":0,"TOWNNAME":"安南區","LI":"四草里","LIN":"6鄰","STREET":"四草大道","SECT":" ","MAREA":" ","LANE":"６８６巷","ALLEY":" ","HOUSE_NO":"６號","E_COORD97":161116.43192999999,"N_COORD97":2546098.0126299998,"ADDRESS":"四草大道６８６巷６號","OBJECTID":646353},"geometry":{"x":161116.43192999996,"y":2546098.0126300026}},{"attributes":{"ID":646381,"DIS_CODE":0,"TOWNNAME":"安南區","LI":"四草里","LIN":"6鄰","STREET":"四草大道","SECT":" ","MAREA":" ","LANE":"６８６巷","ALLEY":" ","HOUSE_NO":"１２號","E_COORD97":161154.13084,"N_COORD97":2546029.43267,"ADDRESS":"四草大道６８６巷１２號","OBJECTID":646354},"geometry":{"x":161154.13084000163,"y":2546029.4326709993}},{"attributes":{"ID":646382,"DIS_CODE":0,"TOWNNAME":"安南區","LI":"四草里","LIN":"6鄰","STREET":"四草大道","SECT":" ","MAREA":" ","LANE":"６８６巷","ALLEY":"１３弄","HOUSE_NO":"７號","E_COORD97":161330.53825400001,"N_COORD97":2546003.4051799998,"ADDRESS":"四草大道６８６巷１３弄７號","OBJECTID":646355},"geometry":{"x":161330.53825400211,"y":2546003.4051770028}},{"attributes":{"ID":646383,"DIS_CODE":0,"TOWNNAME":"安南區","LI":"四草里","LIN":"6鄰","STREET":"四草大道","SECT":" ","MAREA":" ","LANE":"６８６巷","ALLEY":"１３弄","HOUSE_NO":"８號","E_COORD97":161373.728749,"N_COORD97":2545977.5968399998,"ADDRESS":"四草大道６８６巷１３弄８號","OBJECTID":646356},"geometry":{"x":161373.72874900047,"y":2545977.5968420021}},{"attributes":{"ID":646384,"DIS_CODE":0,"TOWNNAME":"安南區","LI":"四草里","LIN":"6鄰","STREET":"四草大道","SECT":" ","MAREA":" ","LANE":"６８６巷","ALLEY":"１３弄","HOUSE_NO":"１１號","E_COORD97":161349.79629699999,"N_COORD97":2546026.49181,"ADDRESS":"四草大道６８６巷１３弄１１號","OBJECTID":646357},"geometry":{"x":161349.79629700165,"y":2546026.4918150026}},{"attributes":{"ID":646385,"DIS_CODE":0,"TOWNNAME":"東山區","LI":"南溪里","LIN":"4鄰","STREET":" ","SECT":" ","MAREA":"二重溪","LANE":" ","ALLEY":" ","HOUSE_NO":"３６號之１","E_COORD97":188298.46273299999,"N_COORD97":2574633.2002400002,"ADDRESS":"二重溪３６號之１","OBJECTID":646358},"geometry":{"x":188298.46273300052,"y":2574633.2002420016}},{"attributes":{"ID":646386,"DIS_CODE":0,"TOWNNAME":"安南區","LI":"四草里","LIN":"6鄰","STREET":"四草大道","SECT":" ","MAREA":" ","LANE":"６８６巷","ALLEY":"１３弄","HOUSE_NO":"１１之１號","E_COORD97":161346.19584,"N_COORD97":2546040.6734699998,"ADDRESS":"四草大道６８６巷１３弄１１之１號","OBJECTID":646359},"geometry":{"x":161346.19584000111,"y":2546040.6734740008}},{"attributes":{"ID":646387,"DIS_CODE":0,"TOWNNAME":"安南區","LI":"四草里","LIN":"6鄰","STREET":"四草大道","SECT":" ","MAREA":" ","LANE":"６８６巷","ALLEY":"１３弄","HOUSE_NO":"１５號","E_COORD97":161344.07792400001,"N_COORD97":2546060.7818,"ADDRESS":"四草大道６８６巷１３弄１５號","OBJECTID":646360},"geometry":{"x":161344.0779240001,"y":2546060.7817970011}},{"attributes":{"ID":646388,"DIS_CODE":0,"TOWNNAME":"中西區","LI":"郡王里","LIN":"15鄰","STREET":"建業街","SECT":" ","MAREA":" ","LANE":" ","ALLEY":" ","HOUSE_NO":"４０號之１","E_COORD97":168601.138175,"N_COORD97":2543162.07119,"ADDRESS":"建業街４０號之１","OBJECTID":646361},"geometry":{"x":168601.13817500137,"y":2543162.0711949989}},{"attributes":{"ID":646389,"DIS_CODE":0,"TOWNNAME":"東山區","LI":"南溪里","LIN":"4鄰","STREET":" ","SECT":" ","MAREA":"二重溪","LANE":" ","ALLEY":" ","HOUSE_NO":"３６號之６","E_COORD97":188406.09138200001,"N_COORD97":2574459.6336699999,"ADDRESS":"二重溪３６號之６","OBJECTID":646362},"geometry":{"x":188406.0913820006,"y":2574459.633669002}},{"attributes":{"ID":646390,"DIS_CODE":0,"TOWNNAME":"關廟區","LI":"龜洞里","LIN":"7鄰","STREET":"南雄南路","SECT":" ","MAREA":" ","LANE":" ","ALLEY":" ","HOUSE_NO":"７１７號","E_COORD97":183333.79574599999,"N_COORD97":2533445.1430100002,"ADDRESS":"南雄南路７１７號","OBJECTID":646363},"geometry":{"x":183333.79574600048,"y":2533445.1430110037}},{"attributes":{"ID":646391,"DIS_CODE":0,"TOWNNAME":"東山區","LI":"南溪里","LIN":"4鄰","STREET":" ","SECT":" ","MAREA":"二重溪","LANE":" ","ALLEY":" ","HOUSE_NO":"４０號之２","E_COORD97":188306.08996000001,"N_COORD97":2573997.3539200001,"ADDRESS":"二重溪４０號之２","OBJECTID":646364},"geometry":{"x":188306.08995999955,"y":2573997.3539189994}},{"attributes":{"ID":646392,"DIS_CODE":0,"TOWNNAME":"關廟區","LI":"龜洞里","LIN":"7鄰","STREET":"南雄南路","SECT":" ","MAREA":" ","LANE":"７０１巷","ALLEY":"１６弄","HOUSE_NO":"１２號","E_COORD97":183336.70899000001,"N_COORD97":2533413.8825099999,"ADDRESS":"南雄南路７０１巷１６弄１２號","OBJECTID":646365},"geometry":{"x":183336.70899000019,"y":2533413.8825070001}},{"attributes":{"ID":646393,"DIS_CODE":0,"TOWNNAME":"東山區","LI":"南溪里","LIN":"5鄰","STREET":" ","SECT":" ","MAREA":"二重溪","LANE":" ","ALLEY":" ","HOUSE_NO":"４５號之４","E_COORD97":188272.61490799999,"N_COORD97":2574923.9243999999,"ADDRESS":"二重溪４５號之４","OBJECTID":646366},"geometry":{"x":188272.61490799952,"y":2574923.9244020022}},{"attributes":{"ID":646394,"DIS_CODE":0,"TOWNNAME":"安南區","LI":"四草里","LIN":"6鄰","STREET":"四草大道","SECT":" ","MAREA":" ","LANE":" ","ALLEY":" ","HOUSE_NO":"７０６號","E_COORD97":161104.28239099999,"N_COORD97":2546350.0923299999,"ADDRESS":"四草大道７０６號","OBJECTID":646367},"geometry":{"x":161104.28239100054,"y":2546350.0923320018}},{"attributes":{"ID":646395,"DIS_CODE":0,"TOWNNAME":"東山區","LI":"南溪里","LIN":"5鄰","STREET":" ","SECT":" ","MAREA":"二重溪","LANE":" ","ALLEY":" ","HOUSE_NO":"４５號之１","E_COORD97":188288.081229,"N_COORD97":2574904.3452499998,"ADDRESS":"二重溪４５號之１","OBJECTID":646368},"geometry":{"x":188288.08122900128,"y":2574904.3452460021}},{"attributes":{"ID":646396,"DIS_CODE":0,"TOWNNAME":"鹽水區","LI":"歡雅里","LIN":"3鄰","STREET":" ","SECT":" ","MAREA":"歡雅","LANE":" ","ALLEY":" ","HOUSE_NO":"６４之１號","E_COORD97":172456.773606,"N_COORD97":2576609.0788799999,"ADDRESS":"歡雅６４之１號","OBJECTID":646369},"geometry":{"x":172456.7736060014,"y":2576609.0788800027}},{"attributes":{"ID":646397,"DIS_CODE":0,"TOWNNAME":"東山區","LI":"南溪里","LIN":"5鄰","STREET":" ","SECT":" ","MAREA":"二重溪","LANE":" ","ALLEY":" ","HOUSE_NO":"５３號之２","E_COORD97":188343.80236100001,"N_COORD97":2574746.8653299999,"ADDRESS":"二重溪５３號之２","OBJECTID":646370},"geometry":{"x":188343.80236100033,"y":2574746.8653310016}},{"attributes":{"ID":646398,"DIS_CODE":0,"TOWNNAME":"安南區","LI":"四草里","LIN":"6鄰","STREET":"四草大道","SECT":" ","MAREA":" ","LANE":"６９０巷","ALLEY":" ","HOUSE_NO":"２２號","E_COORD97":161244.12727900001,"N_COORD97":2546190.9417400002,"ADDRESS":"四草大道６９０巷２２號","OBJECTID":646371},"geometry":{"x":161244.12727900222,"y":2546190.9417420011}},{"attributes":{"ID":646399,"DIS_CODE":0,"TOWNNAME":"安南區","LI":"四草里","LIN":"6鄰","STREET":"四草大道","SECT":" ","MAREA":" ","LANE":"６９０巷","ALLEY":" ","HOUSE_NO":"２７號","E_COORD97":161263.82389900001,"N_COORD97":2546176.7600799999,"ADDRESS":"四草大道６９０巷２７號","OBJECTID":646372},"geometry":{"x":161263.82389899995,"y":2546176.7600830011}},{"attributes":{"ID":646400,"DIS_CODE":0,"TOWNNAME":"新營區","LI":"嘉芳里","LIN":"7鄰","STREET":" ","SECT":" ","MAREA":"茄苳腳","LANE":" ","ALLEY":" ","HOUSE_NO":"７２號之５","E_COORD97":176829.35556699999,"N_COORD97":2578503.0972899999,"ADDRESS":"茄苳腳７２號之５","OBJECTID":646373},"geometry":{"x":176829.35556699988,"y":2578503.0972869992}},{"attributes":{"ID":646401,"DIS_CODE":0,"TOWNNAME":"新營區","LI":"嘉芳里","LIN":"7鄰","STREET":" ","SECT":" ","MAREA":"茄苳腳","LANE":" ","ALLEY":" ","HOUSE_NO":"７２之６號","E_COORD97":176833.273441,"N_COORD97":2578504.7906200001,"ADDRESS":"茄苳腳７２之６號","OBJECTID":646374},"geometry":{"x":176833.27344099991,"y":2578504.7906190027}},{"attributes":{"ID":646402,"DIS_CODE":0,"TOWNNAME":"東山區","LI":"東河里","LIN":"11鄰","STREET":" ","SECT":" ","MAREA":"吉貝耍","LANE":" ","ALLEY":" ","HOUSE_NO":"１１０號","E_COORD97":186909.959474,"N_COORD97":2577168.6229599998,"ADDRESS":"吉貝耍１１０號","OBJECTID":646375},"geometry":{"x":186909.95947400015,"y":2577168.6229610015}},{"attributes":{"ID":646403,"DIS_CODE":0,"TOWNNAME":"新營區","LI":"嘉芳里","LIN":"7鄰","STREET":" ","SECT":" ","MAREA":"茄苳腳","LANE":" ","ALLEY":" ","HOUSE_NO":"７２之１１號","E_COORD97":176852.01570399999,"N_COORD97":2578508.6006200002,"ADDRESS":"茄苳腳７２之１１號","OBJECTID":646376},"geometry":{"x":176852.0157040013,"y":2578508.6006170008}},{"attributes":{"ID":646404,"DIS_CODE":0,"TOWNNAME":"新營區","LI":"嘉芳里","LIN":"7鄰","STREET":" ","SECT":" ","MAREA":"茄苳腳","LANE":" ","ALLEY":" ","HOUSE_NO":"７２之１０號","E_COORD97":176847.780164,"N_COORD97":2578507.9656199999,"ADDRESS":"茄苳腳７２之１０號","OBJECTID":646377},"geometry":{"x":176847.78016400058,"y":2578507.9656170011}},{"attributes":{"ID":646405,"DIS_CODE":0,"TOWNNAME":"新營區","LI":"嘉芳里","LIN":"7鄰","STREET":" ","SECT":" ","MAREA":"茄苳腳","LANE":" ","ALLEY":" ","HOUSE_NO":"７２之９號","E_COORD97":176844.391733,"N_COORD97":2578506.4839499998,"ADDRESS":"茄苳腳７２之９號","OBJECTID":646378},"geometry":{"x":176844.39173300099,"y":2578506.4839520007}},{"attributes":{"ID":646406,"DIS_CODE":0,"TOWNNAME":"新營區","LI":"嘉芳里","LIN":"7鄰","STREET":" ","SECT":" ","MAREA":"茄苳腳","LANE":" ","ALLEY":" ","HOUSE_NO":"７２之８號","E_COORD97":176841.426855,"N_COORD97":2578505.63729,"ADDRESS":"茄苳腳７２之８號","OBJECTID":646379},"geometry":{"x":176841.42685500067,"y":2578505.6372849997}},{"attributes":{"ID":646407,"DIS_CODE":0,"TOWNNAME":"新營區","LI":"嘉芳里","LIN":"7鄰","STREET":" ","SECT":" ","MAREA":"茄苳腳","LANE":" ","ALLEY":" ","HOUSE_NO":"７２之７號","E_COORD97":176837.61486900001,"N_COORD97":2578504.7906200001,"ADDRESS":"茄苳腳７２之７號","OBJECTID":646380},"geometry":{"x":176837.61486900132,"y":2578504.7906190027}},{"attributes":{"ID":646408,"DIS_CODE":0,"TOWNNAME":"新營區","LI":"嘉芳里","LIN":"7鄰","STREET":" ","SECT":" ","MAREA":"茄苳腳","LANE":" ","ALLEY":" ","HOUSE_NO":"７２之１２號","E_COORD97":176864.29876899999,"N_COORD97":2578511.77562,"ADDRESS":"茄苳腳７２之１２號","OBJECTID":646381},"geometry":{"x":176864.29876899999,"y":2578511.7756150011}},{"attributes":{"ID":646409,"DIS_CODE":0,"TOWNNAME":"新營區","LI":"嘉芳里","LIN":"7鄰","STREET":" ","SECT":" ","MAREA":"茄苳腳","LANE":" ","ALLEY":" ","HOUSE_NO":"７２之１３號","E_COORD97":176868.11075399999,"N_COORD97":2578513.4689500001,"ADDRESS":"茄苳腳７２之１３號","OBJECTID":646382},"geometry":{"x":176868.11075400002,"y":2578513.4689479992}},{"attributes":{"ID":646410,"DIS_CODE":0,"TOWNNAME":"新營區","LI":"嘉芳里","LIN":"7鄰","STREET":" ","SECT":" ","MAREA":"茄苳腳","LANE":" ","ALLEY":" ","HOUSE_NO":"７２之１５號","E_COORD97":176863.87521500001,"N_COORD97":2578506.2722900002,"ADDRESS":"茄苳腳７２之１５號","OBJECTID":646383},"geometry":{"x":176863.8752150014,"y":2578506.2722849995}},{"attributes":{"ID":646411,"DIS_CODE":0,"TOWNNAME":"東山區","LI":"東河里","LIN":"12鄰","STREET":" ","SECT":" ","MAREA":"吉貝耍","LANE":" ","ALLEY":" ","HOUSE_NO":"１１３號","E_COORD97":186879.657878,"N_COORD97":2577113.1663199998,"ADDRESS":"吉貝耍１１３號","OBJECTID":646384},"geometry":{"x":186879.65787800122,"y":2577113.1663240008}},{"attributes":{"ID":646412,"DIS_CODE":0,"TOWNNAME":"善化區","LI":"什乃里","LIN":"10鄰","STREET":" ","SECT":" ","MAREA":"什乃","LANE":" ","ALLEY":" ","HOUSE_NO":"８６之５號","E_COORD97":176005.265407,"N_COORD97":2560358.6977499998,"ADDRESS":"什乃８６之５號","OBJECTID":646385},"geometry":{"x":176005.26540700067,"y":2560358.6977539975}},{"attributes":{"ID":646413,"DIS_CODE":0,"TOWNNAME":"東山區","LI":"東河里","LIN":"12鄰","STREET":" ","SECT":" ","MAREA":"吉貝耍","LANE":" ","ALLEY":" ","HOUSE_NO":"１１５號","E_COORD97":186833.04003900001,"N_COORD97":2577160.36797,"ADDRESS":"吉貝耍１１５號","OBJECTID":646386},"geometry":{"x":186833.04003900103,"y":2577160.3679649998}},{"attributes":{"ID":646414,"DIS_CODE":0,"TOWNNAME":"善化區","LI":"什乃里","LIN":"10鄰","STREET":" ","SECT":" ","MAREA":"什乃","LANE":" ","ALLEY":" ","HOUSE_NO":"８６之６號","E_COORD97":176009.50367100001,"N_COORD97":2560359.5444200002,"ADDRESS":"什乃８６之６號","OBJECTID":646387},"geometry":{"x":176009.50367100071,"y":2560359.5444210041}},{"attributes":{"ID":646415,"DIS_CODE":0,"TOWNNAME":"新營區","LI":"新南里","LIN":"9鄰","STREET":"新北五街","SECT":" ","MAREA":" ","LANE":" ","ALLEY":" ","HOUSE_NO":"１３９號","E_COORD97":178572.09497000001,"N_COORD97":2579151.3745400002,"ADDRESS":"新北五街１３９號","OBJECTID":646388},"geometry":{"x":178572.09497000184,"y":2579151.3745440021}},{"attributes":{"ID":646416,"DIS_CODE":0,"TOWNNAME":"善化區","LI":"什乃里","LIN":"10鄰","STREET":" ","SECT":" ","MAREA":"什乃","LANE":" ","ALLEY":" ","HOUSE_NO":"８６之７號","E_COORD97":176013.953847,"N_COORD97":2560359.5444200002,"ADDRESS":"什乃８６之７號","OBJECTID":646389},"geometry":{"x":176013.95384700038,"y":2560359.5444210041}},{"attributes":{"ID":646417,"DIS_CODE":0,"TOWNNAME":"東山區","LI":"東河里","LIN":"15鄰","STREET":" ","SECT":" ","MAREA":"吉貝耍","LANE":" ","ALLEY":" ","HOUSE_NO":"１３７號之１","E_COORD97":186599.73894000001,"N_COORD97":2577237.8379199998,"ADDRESS":"吉貝耍１３７號之１","OBJECTID":646390},"geometry":{"x":186599.7389399996,"y":2577237.8379200008}},{"attributes":{"ID":646418,"DIS_CODE":0,"TOWNNAME":"新營區","LI":"新南里","LIN":"10鄰","STREET":"新北五街","SECT":" ","MAREA":" ","LANE":"１４３巷","ALLEY":" ","HOUSE_NO":"１２號","E_COORD97":178531.625466,"N_COORD97":2579129.8903899998,"ADDRESS":"新北五街１４３巷１２號","OBJECTID":646391},"geometry":{"x":178531.62546600122,"y":2579129.890389001}},{"attributes":{"ID":646419,"DIS_CODE":0,"TOWNNAME":"善化區","LI":"什乃里","LIN":"10鄰","STREET":" ","SECT":" ","MAREA":"什乃","LANE":" ","ALLEY":" ","HOUSE_NO":"８６之８號","E_COORD97":176018.615937,"N_COORD97":2560359.7560899998,"ADDRESS":"什乃８６之８號","OBJECTID":646392},"geometry":{"x":176018.61593700014,"y":2560359.7560870014}},{"attributes":{"ID":646420,"DIS_CODE":0,"TOWNNAME":"善化區","LI":"什乃里","LIN":"10鄰","STREET":" ","SECT":" ","MAREA":"什乃","LANE":" ","ALLEY":" ","HOUSE_NO":"８６之９號","E_COORD97":176041.078733,"N_COORD97":2560361.8727500001,"ADDRESS":"什乃８６之９號","OBJECTID":646393},"geometry":{"x":176041.07873299997,"y":2560361.8727530017}},{"attributes":{"ID":646421,"DIS_CODE":0,"TOWNNAME":"仁德區","LI":"仁和里","LIN":"8鄰","STREET":"和愛街","SECT":" ","MAREA":" ","LANE":" ","ALLEY":" ","HOUSE_NO":"６號三樓之１","E_COORD97":170386.70999999999,"N_COORD97":2540084.0899999999,"ADDRESS":"和愛街６號三樓之１","OBJECTID":646394},"geometry":{"x":170386.71000000183,"y":2540084.0900000036}},{"attributes":{"ID":646422,"DIS_CODE":0,"TOWNNAME":"仁德區","LI":"仁和里","LIN":"8鄰","STREET":"和愛街","SECT":" ","MAREA":" ","LANE":" ","ALLEY":" ","HOUSE_NO":"６號三樓之２","E_COORD97":170386.70999999999,"N_COORD97":2540084.0899999999,"ADDRESS":"和愛街６號三樓之２","OBJECTID":646395},"geometry":{"x":170386.71000000183,"y":2540084.0900000036}},{"attributes":{"ID":646423,"DIS_CODE":0,"TOWNNAME":"仁德區","LI":"仁和里","LIN":"8鄰","STREET":"和愛街","SECT":" ","MAREA":" ","LANE":" ","ALLEY":" ","HOUSE_NO":"６號三樓之３","E_COORD97":170386.70999999999,"N_COORD97":2540084.0899999999,"ADDRESS":"和愛街６號三樓之３","OBJECTID":646396},"geometry":{"x":170386.71000000183,"y":2540084.0900000036}},{"attributes":{"ID":646424,"DIS_CODE":0,"TOWNNAME":"仁德區","LI":"仁和里","LIN":"8鄰","STREET":"和愛街","SECT":" ","MAREA":" ","LANE":" ","ALLEY":" ","HOUSE_NO":"６號三樓之５","E_COORD97":170386.70999999999,"N_COORD97":2540084.0899999999,"ADDRESS":"和愛街６號三樓之５","OBJECTID":646397},"geometry":{"x":170386.71000000183,"y":2540084.0900000036}},{"attributes":{"ID":646425,"DIS_CODE":0,"TOWNNAME":"東山區","LI":"東河里","LIN":"2鄰","STREET":" ","SECT":" ","MAREA":"吉貝耍","LANE":" ","ALLEY":" ","HOUSE_NO":"１４號","E_COORD97":187288.83536999999,"N_COORD97":2576998.2313899999,"ADDRESS":"吉貝耍１４號","OBJECTID":646398},"geometry":{"x":187288.83537000138,"y":2576998.2313860022}},{"attributes":{"ID":646426,"DIS_CODE":0,"TOWNNAME":"善化區","LI":"什乃里","LIN":"10鄰","STREET":" ","SECT":" ","MAREA":"什乃","LANE":" ","ALLEY":" ","HOUSE_NO":"８６之１０號","E_COORD97":176041.71447199999,"N_COORD97":2560357.4277599999,"ADDRESS":"什乃８６之１０號","OBJECTID":646399},"geometry":{"x":176041.71447199862,"y":2560357.4277550019}},{"attributes":{"ID":646427,"DIS_CODE":0,"TOWNNAME":"善化區","LI":"什乃里","LIN":"10鄰","STREET":" ","SECT":" ","MAREA":"什乃","LANE":" ","ALLEY":" ","HOUSE_NO":"８６之１１號","E_COORD97":176041.71447199999,"N_COORD97":2560352.5594199998,"ADDRESS":"什乃８６之１１號","OBJECTID":646400},"geometry":{"x":176041.71447199862,"y":2560352.5594240017}}]}