{"displayFieldName":"TOWNNAME","fieldAliases":{"ID":"ID","DIS_CODE":"DIS_CODE","TOWNNAME":"TOWNNAME","LI":"LI","LIN":"LIN","STREET":"STREET","SECT":"SECT","MAREA":"MAREA","LANE":"LANE","ALLEY":"ALLEY","HOUSE_NO":"HOUSE_NO","E_COORD97":"E_COORD97","N_COORD97":"N_COORD97","ADDRESS":"ADDRESS","OBJECTID":"OBJECTID"},"geometryType":"esriGeometryPoint","spatialReference":{"wkid":102443,"latestWkid":3826},"fields":[{"name":"ID","type":"esriFieldTypeDouble","alias":"ID"},{"name":"DIS_CODE","type":"esriFieldTypeInteger","alias":"DIS_CODE"},{"name":"TOWNNAME","type":"esriFieldTypeString","alias":"TOWNNAME","length":8},{"name":"LI","type":"esriFieldTypeString","alias":"LI","length":8},{"name":"LIN","type":"esriFieldTypeString","alias":"LIN","length":12},{"name":"STREET","type":"esriFieldTypeString","alias":"STREET","length":20},{"name":"SECT","type":"esriFieldTypeString","alias":"SECT","length":8},{"name":"MAREA","type":"esriFieldTypeString","alias":"MAREA","length":12},{"name":"LANE","type":"esriFieldTypeString","alias":"LANE","length":10},{"name":"ALLEY","type":"esriFieldTypeString","alias":"ALLEY","length":10},{"name":"HOUSE_NO","type":"esriFieldTypeString","alias":"HOUSE_NO","length":20},{"name":"E_COORD97","type":"esriFieldTypeDouble","alias":"E_COORD97"},{"name":"N_COORD97","type":"esriFieldTypeDouble","alias":"N_COORD97"},{"name":"ADDRESS","type":"esriFieldTypeString","alias":"ADDRESS","length":50},{"name":"OBJECTID","type":"esriFieldTypeOID","alias":"OBJECTID"}],"features":[{"attributes":{"ID":475226,"DIS_CODE":0,"TOWNNAME":"新營區","LI":"民權里","LIN":"18鄰","STREET":"民權路","SECT":" ","MAREA":" ","LANE":" ","ALLEY":" ","HOUSE_NO":"３８號之１","E_COORD97":179740.26000000001,"N_COORD97":2578149.8500000001,"ADDRESS":"民權路３８號之１","OBJECTID":475201},"geometry":{"x":179740.26000000164,"y":2578149.8500000015}},{"attributes":{"ID":475227,"DIS_CODE":0,"TOWNNAME":"新營區","LI":"民權里","LIN":"18鄰","STREET":"博愛街","SECT":" ","MAREA":" ","LANE":" ","ALLEY":" ","HOUSE_NO":"６０號","E_COORD97":179777.09,"N_COORD97":2578189.48,"ADDRESS":"博愛街６０號","OBJECTID":475202},"geometry":{"x":179777.09000000171,"y":2578189.4799999986}},{"attributes":{"ID":475228,"DIS_CODE":0,"TOWNNAME":"新營區","LI":"土庫里","LIN":"18鄰","STREET":"開元路","SECT":" ","MAREA":" ","LANE":" ","ALLEY":" ","HOUSE_NO":"２５５號","E_COORD97":181878.38,"N_COORD97":2579747.8199999998,"ADDRESS":"開元路２５５號","OBJECTID":475203},"geometry":{"x":181878.37999999989,"y":2579747.8200000022}},{"attributes":{"ID":475229,"DIS_CODE":0,"TOWNNAME":"新營區","LI":"王公里","LIN":"18鄰","STREET":"樂利街","SECT":" ","MAREA":" ","LANE":" ","ALLEY":" ","HOUSE_NO":"１９號","E_COORD97":180203.59,"N_COORD97":2579267.2400000002,"ADDRESS":"樂利街１９號","OBJECTID":475204},"geometry":{"x":180203.58999999985,"y":2579267.2400000021}},{"attributes":{"ID":475230,"DIS_CODE":0,"TOWNNAME":"新營區","LI":"興業里","LIN":"18鄰","STREET":"公誠街","SECT":" ","MAREA":" ","LANE":" ","ALLEY":" ","HOUSE_NO":"１號之９","E_COORD97":180443.98999999999,"N_COORD97":2578198.5699999998,"ADDRESS":"公誠街１號之９","OBJECTID":475205},"geometry":{"x":180443.99000000022,"y":2578198.5700000003}},{"attributes":{"ID":475231,"DIS_CODE":0,"TOWNNAME":"新營區","LI":"延平里","LIN":"18鄰","STREET":"長春街","SECT":" ","MAREA":" ","LANE":" ","ALLEY":" ","HOUSE_NO":"１３２號之４","E_COORD97":179581.166486,"N_COORD97":2577859.6444399999,"ADDRESS":"長春街１３２號之４","OBJECTID":475206},"geometry":{"x":179581.16648599971,"y":2577859.644441003}},{"attributes":{"ID":475232,"DIS_CODE":0,"TOWNNAME":"歸仁區","LI":"文化里","LIN":"18鄰","STREET":"文化北二街","SECT":" ","MAREA":" ","LANE":" ","ALLEY":" ","HOUSE_NO":"９０號","E_COORD97":177077.41,"N_COORD97":2541499.3399999999,"ADDRESS":"文化北二街９０號","OBJECTID":475207},"geometry":{"x":177077.41000000015,"y":2541499.3400000036}},{"attributes":{"ID":475233,"DIS_CODE":0,"TOWNNAME":"歸仁區","LI":"大廟里","LIN":"18鄰","STREET":"保大路","SECT":"三段","MAREA":" ","LANE":" ","ALLEY":" ","HOUSE_NO":"２１６號","E_COORD97":175890.26999999999,"N_COORD97":2544198.2799999998,"ADDRESS":"保大路三段２１６號","OBJECTID":475208},"geometry":{"x":175890.27000000142,"y":2544198.2800000012}},{"attributes":{"ID":475234,"DIS_CODE":0,"TOWNNAME":"歸仁區","LI":"大廟里","LIN":"18鄰","STREET":"保大路","SECT":"三段","MAREA":" ","LANE":" ","ALLEY":" ","HOUSE_NO":"２０４號","E_COORD97":176070.57000000001,"N_COORD97":2544998.2799999998,"ADDRESS":"保大路三段２０４號","OBJECTID":475209},"geometry":{"x":176070.57000000123,"y":2544998.2800000031}},{"attributes":{"ID":475235,"DIS_CODE":0,"TOWNNAME":"歸仁區","LI":"大潭里","LIN":"18鄰","STREET":"中正南路","SECT":"三段","MAREA":" ","LANE":" ","ALLEY":" ","HOUSE_NO":"２１２號","E_COORD97":175183.5,"N_COORD97":2534817.2799999998,"ADDRESS":"中正南路三段２１２號","OBJECTID":475210},"geometry":{"x":175183.5,"y":2534817.2800000012}},{"attributes":{"ID":475236,"DIS_CODE":0,"TOWNNAME":"歸仁區","LI":"八甲里","LIN":"18鄰","STREET":"大仁八街","SECT":" ","MAREA":" ","LANE":" ","ALLEY":" ","HOUSE_NO":"２５號","E_COORD97":178001.48999999999,"N_COORD97":2541512.25,"ADDRESS":"大仁八街２５號","OBJECTID":475211},"geometry":{"x":178001.49000000022,"y":2541512.25}},{"attributes":{"ID":475237,"DIS_CODE":0,"TOWNNAME":"柳營區","LI":"光福里","LIN":"18鄰","STREET":"柳營路","SECT":"二段","MAREA":" ","LANE":" ","ALLEY":" ","HOUSE_NO":"４８０號","E_COORD97":179667.17999999999,"N_COORD97":2576036.0800000001,"ADDRESS":"柳營路二段４８０號","OBJECTID":475212},"geometry":{"x":179667.1799999997,"y":2576036.0800000019}},{"attributes":{"ID":475238,"DIS_CODE":0,"TOWNNAME":"柳營區","LI":"光福里","LIN":"18鄰","STREET":"柳營路","SECT":"二段","MAREA":" ","LANE":" ","ALLEY":" ","HOUSE_NO":"４９６號","E_COORD97":179657.70000000001,"N_COORD97":2576053.23,"ADDRESS":"柳營路二段４９６號","OBJECTID":475213},"geometry":{"x":179657.70000000019,"y":2576053.2300000023}},{"attributes":{"ID":475239,"DIS_CODE":0,"TOWNNAME":"柳營區","LI":"光福里","LIN":"18鄰","STREET":"柳營路","SECT":"二段","MAREA":" ","LANE":" ","ALLEY":" ","HOUSE_NO":"５００號","E_COORD97":179661.76999999999,"N_COORD97":2576063.6299999999,"ADDRESS":"柳營路二段５００號","OBJECTID":475214},"geometry":{"x":179661.76999999955,"y":2576063.629999999}},{"attributes":{"ID":475240,"DIS_CODE":0,"TOWNNAME":"柳營區","LI":"光福里","LIN":"18鄰","STREET":"柳營路","SECT":"二段","MAREA":" ","LANE":" ","ALLEY":" ","HOUSE_NO":"５０２號","E_COORD97":179660.64000000001,"N_COORD97":2576067.71,"ADDRESS":"柳營路二段５０２號","OBJECTID":475215},"geometry":{"x":179660.63999999966,"y":2576067.7100000028}},{"attributes":{"ID":475241,"DIS_CODE":0,"TOWNNAME":"柳營區","LI":"光福里","LIN":"18鄰","STREET":"柳營路","SECT":"二段","MAREA":" ","LANE":" ","ALLEY":" ","HOUSE_NO":"５０６號","E_COORD97":179659.35000000001,"N_COORD97":2576072.0499999998,"ADDRESS":"柳營路二段５０６號","OBJECTID":475216},"geometry":{"x":179659.34999999963,"y":2576072.0500000026}},{"attributes":{"ID":475242,"DIS_CODE":0,"TOWNNAME":"柳營區","LI":"光福里","LIN":"18鄰","STREET":"柳營路","SECT":"二段","MAREA":" ","LANE":" ","ALLEY":" ","HOUSE_NO":"５０８號","E_COORD97":179666.42999999999,"N_COORD97":2576081.1200000001,"ADDRESS":"柳營路二段５０８號","OBJECTID":475217},"geometry":{"x":179666.43000000063,"y":2576081.1200000029}},{"attributes":{"ID":475243,"DIS_CODE":0,"TOWNNAME":"柳營區","LI":"光福里","LIN":"18鄰","STREET":"柳營路","SECT":"二段","MAREA":" ","LANE":" ","ALLEY":" ","HOUSE_NO":"５１２號","E_COORD97":179670.01999999999,"N_COORD97":2576091.0800000001,"ADDRESS":"柳營路二段５１２號","OBJECTID":475218},"geometry":{"x":179670.01999999955,"y":2576091.0800000019}},{"attributes":{"ID":475244,"DIS_CODE":0,"TOWNNAME":"柳營區","LI":"光福里","LIN":"18鄰","STREET":"柳營路","SECT":"二段","MAREA":" ","LANE":" ","ALLEY":" ","HOUSE_NO":"５１８號","E_COORD97":179667.98999999999,"N_COORD97":2576120.9900000002,"ADDRESS":"柳營路二段５１８號","OBJECTID":475219},"geometry":{"x":179667.99000000209,"y":2576120.9900000002}},{"attributes":{"ID":475245,"DIS_CODE":0,"TOWNNAME":"柳營區","LI":"光福里","LIN":"18鄰","STREET":"柳營路","SECT":"二段","MAREA":" ","LANE":" ","ALLEY":" ","HOUSE_NO":"５２２號","E_COORD97":179659.62,"N_COORD97":2576137.6299999999,"ADDRESS":"柳營路二段５２２號","OBJECTID":475220},"geometry":{"x":179659.62000000011,"y":2576137.629999999}},{"attributes":{"ID":475246,"DIS_CODE":0,"TOWNNAME":"柳營區","LI":"光福里","LIN":"18鄰","STREET":"柳營路","SECT":"二段","MAREA":" ","LANE":" ","ALLEY":" ","HOUSE_NO":"５２６號","E_COORD97":179660.29999999999,"N_COORD97":2576144.54,"ADDRESS":"柳營路二段５２６號","OBJECTID":475221},"geometry":{"x":179660.29999999888,"y":2576144.540000001}},{"attributes":{"ID":475247,"DIS_CODE":0,"TOWNNAME":"柳營區","LI":"太康里","LIN":"18鄰","STREET":"義士路","SECT":"三段","MAREA":" ","LANE":" ","ALLEY":" ","HOUSE_NO":"５３號","E_COORD97":182806.98999999999,"N_COORD97":2576590.7599999998,"ADDRESS":"義士路三段５３號","OBJECTID":475222},"geometry":{"x":182806.99000000022,"y":2576590.7600000016}},{"attributes":{"ID":475248,"DIS_CODE":0,"TOWNNAME":"北區","LI":"中樓里","LIN":"18鄰","STREET":"東豐路","SECT":" ","MAREA":" ","LANE":" ","ALLEY":" ","HOUSE_NO":"１６６號","E_COORD97":169805.73999999999,"N_COORD97":2544843.4100000001,"ADDRESS":"東豐路１６６號","OBJECTID":475223},"geometry":{"x":169805.74000000115,"y":2544843.410000002}},{"attributes":{"ID":475249,"DIS_CODE":0,"TOWNNAME":"北區","LI":"中樓里","LIN":"18鄰","STREET":"勝利路","SECT":" ","MAREA":" ","LANE":" ","ALLEY":" ","HOUSE_NO":"３５１號","E_COORD97":169886.32999999999,"N_COORD97":2544756.5600000001,"ADDRESS":"勝利路３５１號","OBJECTID":475224},"geometry":{"x":169886.33000000101,"y":2544756.5599999987}},{"attributes":{"ID":475250,"DIS_CODE":0,"TOWNNAME":"北區","LI":"中樓里","LIN":"18鄰","STREET":"勝利路","SECT":" ","MAREA":" ","LANE":" ","ALLEY":" ","HOUSE_NO":"３５３號","E_COORD97":169877.75,"N_COORD97":2544757.0099999998,"ADDRESS":"勝利路３５３號","OBJECTID":475225},"geometry":{"x":169877.75,"y":2544757.0100000016}},{"attributes":{"ID":475251,"DIS_CODE":0,"TOWNNAME":"北區","LI":"中樓里","LIN":"18鄰","STREET":"勝利路","SECT":" ","MAREA":" ","LANE":" ","ALLEY":" ","HOUSE_NO":"３５５號","E_COORD97":169870.79000000001,"N_COORD97":2544757.6800000002,"ADDRESS":"勝利路３５５號","OBJECTID":475226},"geometry":{"x":169870.79000000004,"y":2544757.6799999997}},{"attributes":{"ID":475252,"DIS_CODE":0,"TOWNNAME":"北區","LI":"中樓里","LIN":"18鄰","STREET":"勝利路","SECT":" ","MAREA":" ","LANE":" ","ALLEY":" ","HOUSE_NO":"３５７號","E_COORD97":169862.44,"N_COORD97":2544758.2200000002,"ADDRESS":"勝利路３５７號","OBJECTID":475227},"geometry":{"x":169862.44000000134,"y":2544758.2200000007}},{"attributes":{"ID":475253,"DIS_CODE":0,"TOWNNAME":"北區","LI":"中樓里","LIN":"18鄰","STREET":"勝利路","SECT":" ","MAREA":" ","LANE":" ","ALLEY":" ","HOUSE_NO":"３５９號","E_COORD97":169848.38,"N_COORD97":2544760.1200000001,"ADDRESS":"勝利路３５９號","OBJECTID":475228},"geometry":{"x":169848.38000000082,"y":2544760.1200000048}},{"attributes":{"ID":475254,"DIS_CODE":0,"TOWNNAME":"北區","LI":"中樓里","LIN":"18鄰","STREET":"勝利路","SECT":" ","MAREA":" ","LANE":" ","ALLEY":" ","HOUSE_NO":"３６１號","E_COORD97":169838.72,"N_COORD97":2544760.3399999999,"ADDRESS":"勝利路３６１號","OBJECTID":475229},"geometry":{"x":169838.71999999974,"y":2544760.3399999999}},{"attributes":{"ID":475255,"DIS_CODE":0,"TOWNNAME":"北區","LI":"中樓里","LIN":"18鄰","STREET":"勝利路","SECT":" ","MAREA":" ","LANE":" ","ALLEY":" ","HOUSE_NO":"３６３號","E_COORD97":169831.04000000001,"N_COORD97":2544760.71,"ADDRESS":"勝利路３６３號","OBJECTID":475230},"geometry":{"x":169831.04000000097,"y":2544760.7100000028}},{"attributes":{"ID":475256,"DIS_CODE":0,"TOWNNAME":"北區","LI":"中樓里","LIN":"18鄰","STREET":"勝利路","SECT":" ","MAREA":" ","LANE":" ","ALLEY":" ","HOUSE_NO":"３６５號","E_COORD97":169823.04999999999,"N_COORD97":2544761.6499999999,"ADDRESS":"勝利路３６５號","OBJECTID":475231},"geometry":{"x":169823.04999999981,"y":2544761.6500000004}},{"attributes":{"ID":475257,"DIS_CODE":0,"TOWNNAME":"歸仁區","LI":"六甲里","LIN":"18鄰","STREET":"六甲路","SECT":" ","MAREA":" ","LANE":" ","ALLEY":" ","HOUSE_NO":"３４３號","E_COORD97":175675.448053,"N_COORD97":2539217.4248299999,"ADDRESS":"六甲路３４３號","OBJECTID":475232},"geometry":{"x":175675.44805299863,"y":2539217.4248320032}},{"attributes":{"ID":475258,"DIS_CODE":0,"TOWNNAME":"歸仁區","LI":"大廟里","LIN":"18鄰","STREET":"保大路","SECT":"三段","MAREA":" ","LANE":" ","ALLEY":" ","HOUSE_NO":"２１２號","E_COORD97":175886.07000000001,"N_COORD97":2544178.2799999998,"ADDRESS":"保大路三段２１２號","OBJECTID":475233},"geometry":{"x":175886.07000000123,"y":2544178.2800000012}},{"attributes":{"ID":475259,"DIS_CODE":0,"TOWNNAME":"歸仁區","LI":"六甲里","LIN":"18鄰","STREET":"六甲路","SECT":" ","MAREA":" ","LANE":" ","ALLEY":" ","HOUSE_NO":"３５９號","E_COORD97":175628.37,"N_COORD97":2539220.25,"ADDRESS":"六甲路３５９號","OBJECTID":475234},"geometry":{"x":175628.37000000011,"y":2539220.25}},{"attributes":{"ID":475260,"DIS_CODE":0,"TOWNNAME":"歸仁區","LI":"後市里","LIN":"18鄰","STREET":"中山路","SECT":"二段","MAREA":" ","LANE":" ","ALLEY":" ","HOUSE_NO":"４２號","E_COORD97":177483.82000000001,"N_COORD97":2540806.25,"ADDRESS":"中山路二段４２號","OBJECTID":475235},"geometry":{"x":177483.8200000003,"y":2540806.2500000019}},{"attributes":{"ID":475261,"DIS_CODE":0,"TOWNNAME":"歸仁區","LI":"六甲里","LIN":"18鄰","STREET":"六甲路","SECT":" ","MAREA":" ","LANE":" ","ALLEY":" ","HOUSE_NO":"３４９號","E_COORD97":175658.17000000001,"N_COORD97":2539218.25,"ADDRESS":"六甲路３４９號","OBJECTID":475236},"geometry":{"x":175658.17000000086,"y":2539218.2500000037}},{"attributes":{"ID":475262,"DIS_CODE":0,"TOWNNAME":"北區","LI":"華興里","LIN":"18鄰","STREET":"南園街","SECT":" ","MAREA":" ","LANE":" ","ALLEY":" ","HOUSE_NO":"１２９號","E_COORD97":170639.42000000001,"N_COORD97":2545276.9399999999,"ADDRESS":"南園街１２９號","OBJECTID":475237},"geometry":{"x":170639.41999999993,"y":2545276.9399999995}},{"attributes":{"ID":475263,"DIS_CODE":0,"TOWNNAME":"北區","LI":"華興里","LIN":"18鄰","STREET":"南園街","SECT":" ","MAREA":" ","LANE":" ","ALLEY":" ","HOUSE_NO":"１３１號","E_COORD97":170639.10000000001,"N_COORD97":2545272.6000000001,"ADDRESS":"南園街１３１號","OBJECTID":475238},"geometry":{"x":170639.09999999963,"y":2545272.5999999996}},{"attributes":{"ID":475264,"DIS_CODE":0,"TOWNNAME":"北區","LI":"華興里","LIN":"18鄰","STREET":"南園街","SECT":" ","MAREA":" ","LANE":" ","ALLEY":" ","HOUSE_NO":"１３３號","E_COORD97":170638.54999999999,"N_COORD97":2545266.77,"ADDRESS":"南園街１３３號","OBJECTID":475239},"geometry":{"x":170638.55000000168,"y":2545266.7700000014}},{"attributes":{"ID":475265,"DIS_CODE":0,"TOWNNAME":"北區","LI":"華興里","LIN":"18鄰","STREET":"南園街","SECT":" ","MAREA":" ","LANE":" ","ALLEY":" ","HOUSE_NO":"１３５號","E_COORD97":170637.98999999999,"N_COORD97":2545260.9900000002,"ADDRESS":"南園街１３５號","OBJECTID":475240},"geometry":{"x":170637.99000000115,"y":2545260.9900000002}},{"attributes":{"ID":475266,"DIS_CODE":0,"TOWNNAME":"北區","LI":"華興里","LIN":"18鄰","STREET":"南園街","SECT":" ","MAREA":" ","LANE":" ","ALLEY":" ","HOUSE_NO":"１３７號","E_COORD97":170637.51999999999,"N_COORD97":2545256.8900000001,"ADDRESS":"南園街１３７號","OBJECTID":475241},"geometry":{"x":170637.52000000048,"y":2545256.8900000025}},{"attributes":{"ID":475267,"DIS_CODE":0,"TOWNNAME":"北區","LI":"華興里","LIN":"18鄰","STREET":"南園街","SECT":" ","MAREA":" ","LANE":" ","ALLEY":" ","HOUSE_NO":"１３９號","E_COORD97":170636.89000000001,"N_COORD97":2545252.79,"ADDRESS":"南園街１３９號","OBJECTID":475242},"geometry":{"x":170636.8900000006,"y":2545252.790000001}},{"attributes":{"ID":475268,"DIS_CODE":0,"TOWNNAME":"北區","LI":"華興里","LIN":"18鄰","STREET":"南園街","SECT":" ","MAREA":" ","LANE":" ","ALLEY":" ","HOUSE_NO":"１４１號","E_COORD97":170636.01999999999,"N_COORD97":2545247.71,"ADDRESS":"南園街１４１號","OBJECTID":475243},"geometry":{"x":170636.01999999955,"y":2545247.7100000046}},{"attributes":{"ID":475269,"DIS_CODE":0,"TOWNNAME":"北區","LI":"華興里","LIN":"18鄰","STREET":"南園街","SECT":" ","MAREA":" ","LANE":" ","ALLEY":" ","HOUSE_NO":"１４３號","E_COORD97":170635.39000000001,"N_COORD97":2545239.8799999999,"ADDRESS":"南園街１４３號","OBJECTID":475244},"geometry":{"x":170635.38999999966,"y":2545239.879999999}},{"attributes":{"ID":475270,"DIS_CODE":0,"TOWNNAME":"北區","LI":"華興里","LIN":"18鄰","STREET":"南園街","SECT":" ","MAREA":" ","LANE":" ","ALLEY":" ","HOUSE_NO":"１４５號","E_COORD97":170635.14999999999,"N_COORD97":2545234.4399999999,"ADDRESS":"南園街１４５號","OBJECTID":475245},"geometry":{"x":170635.15000000224,"y":2545234.4400000032}},{"attributes":{"ID":475271,"DIS_CODE":0,"TOWNNAME":"北區","LI":"華興里","LIN":"18鄰","STREET":"南園街","SECT":" ","MAREA":" ","LANE":" ","ALLEY":" ","HOUSE_NO":"１４７號","E_COORD97":170634.60000000001,"N_COORD97":2545229.23,"ADDRESS":"南園街１４７號","OBJECTID":475246},"geometry":{"x":170634.60000000149,"y":2545229.2300000004}},{"attributes":{"ID":475272,"DIS_CODE":0,"TOWNNAME":"北區","LI":"華興里","LIN":"18鄰","STREET":"南園街","SECT":" ","MAREA":" ","LANE":" ","ALLEY":" ","HOUSE_NO":"１４９號","E_COORD97":170634.28,"N_COORD97":2545224.6099999999,"ADDRESS":"南園街１４９號","OBJECTID":475247},"geometry":{"x":170634.28000000119,"y":2545224.6100000013}},{"attributes":{"ID":475273,"DIS_CODE":0,"TOWNNAME":"北區","LI":"華興里","LIN":"18鄰","STREET":"南園街","SECT":" ","MAREA":" ","LANE":" ","ALLEY":" ","HOUSE_NO":"１５１號","E_COORD97":170633.73000000001,"N_COORD97":2545220.5099999998,"ADDRESS":"南園街１５１號","OBJECTID":475248},"geometry":{"x":170633.73000000138,"y":2545220.5099999979}},{"attributes":{"ID":475274,"DIS_CODE":0,"TOWNNAME":"關廟區","LI":"山西里","LIN":"18鄰","STREET":"文衡路","SECT":" ","MAREA":" ","LANE":" ","ALLEY":" ","HOUSE_NO":"４１６號","E_COORD97":180886.73999999999,"N_COORD97":2540978.3300000001,"ADDRESS":"文衡路４１６號","OBJECTID":475249},"geometry":{"x":180886.73999999929,"y":2540978.3300000019}},{"attributes":{"ID":475275,"DIS_CODE":0,"TOWNNAME":"關廟區","LI":"山西里","LIN":"18鄰","STREET":"崇明街","SECT":" ","MAREA":" ","LANE":" ","ALLEY":" ","HOUSE_NO":"７５號","E_COORD97":180928.51999999999,"N_COORD97":2540839.25,"ADDRESS":"崇明街７５號","OBJECTID":475250},"geometry":{"x":180928.52000000048,"y":2540839.2500000037}},{"attributes":{"ID":475276,"DIS_CODE":0,"TOWNNAME":"關廟區","LI":"東勢里","LIN":"18鄰","STREET":"東德街","SECT":" ","MAREA":" ","LANE":" ","ALLEY":" ","HOUSE_NO":"６７號","E_COORD97":181918.01999999999,"N_COORD97":2539265.27,"ADDRESS":"東德街６７號","OBJECTID":475251},"geometry":{"x":181918.01999999955,"y":2539265.2700000033}},{"attributes":{"ID":475277,"DIS_CODE":0,"TOWNNAME":"關廟區","LI":"北花里","LIN":"18鄰","STREET":"中正路","SECT":" ","MAREA":" ","LANE":" ","ALLEY":" ","HOUSE_NO":"６２７號","E_COORD97":182142.16,"N_COORD97":2540388.25,"ADDRESS":"中正路６２７號","OBJECTID":475252},"geometry":{"x":182142.16000000108,"y":2540388.2500000037}},{"attributes":{"ID":475278,"DIS_CODE":0,"TOWNNAME":"關廟區","LI":"山西里","LIN":"18鄰","STREET":"文衡路","SECT":" ","MAREA":" ","LANE":" ","ALLEY":" ","HOUSE_NO":"４００號","E_COORD97":180891.73999999999,"N_COORD97":2540944.3300000001,"ADDRESS":"文衡路４００號","OBJECTID":475253},"geometry":{"x":180891.74000000022,"y":2540944.3300000019}},{"attributes":{"ID":475279,"DIS_CODE":0,"TOWNNAME":"關廟區","LI":"山西里","LIN":"18鄰","STREET":"文衡路","SECT":" ","MAREA":" ","LANE":" ","ALLEY":" ","HOUSE_NO":"３６６號","E_COORD97":180906.64000000001,"N_COORD97":2540851.3300000001,"ADDRESS":"文衡路３６６號","OBJECTID":475254},"geometry":{"x":180906.63999999966,"y":2540851.3300000001}},{"attributes":{"ID":475280,"DIS_CODE":0,"TOWNNAME":"關廟區","LI":"山西里","LIN":"18鄰","STREET":"文衡路","SECT":" ","MAREA":" ","LANE":" ","ALLEY":" ","HOUSE_NO":"３９６號","E_COORD97":180894.44,"N_COORD97":2540932.3300000001,"ADDRESS":"文衡路３９６號","OBJECTID":475255},"geometry":{"x":180894.44000000134,"y":2540932.3300000001}},{"attributes":{"ID":475281,"DIS_CODE":0,"TOWNNAME":"關廟區","LI":"五甲里","LIN":"18鄰","STREET":"五平街","SECT":" ","MAREA":" ","LANE":" ","ALLEY":" ","HOUSE_NO":"９號","E_COORD97":180919.57000000001,"N_COORD97":2539067.25,"ADDRESS":"五平街９號","OBJECTID":475256},"geometry":{"x":180919.5700000003,"y":2539067.2500000019}},{"attributes":{"ID":475282,"DIS_CODE":0,"TOWNNAME":"關廟區","LI":"東勢里","LIN":"18鄰","STREET":"旺萊路","SECT":" ","MAREA":" ","LANE":" ","ALLEY":" ","HOUSE_NO":"２１８號","E_COORD97":181842.54000000001,"N_COORD97":2539340.25,"ADDRESS":"旺萊路２１８號","OBJECTID":475257},"geometry":{"x":181842.54000000097,"y":2539340.2499999981}},{"attributes":{"ID":475283,"DIS_CODE":0,"TOWNNAME":"關廟區","LI":"山西里","LIN":"18鄰","STREET":"文衡路","SECT":" ","MAREA":" ","LANE":" ","ALLEY":" ","HOUSE_NO":"４０６號","E_COORD97":180890.54000000001,"N_COORD97":2540956.3300000001,"ADDRESS":"文衡路４０６號","OBJECTID":475258},"geometry":{"x":180890.54000000097,"y":2540956.3300000001}},{"attributes":{"ID":475284,"DIS_CODE":0,"TOWNNAME":"東山區","LI":"東中里","LIN":"18鄰","STREET":"中興路","SECT":" ","MAREA":" ","LANE":" ","ALLEY":" ","HOUSE_NO":"４號","E_COORD97":188980.26000000001,"N_COORD97":2579997.3199999998,"ADDRESS":"中興路４號","OBJECTID":475259},"geometry":{"x":188980.25999999978,"y":2579997.3200000003}},{"attributes":{"ID":475285,"DIS_CODE":0,"TOWNNAME":"北區","LI":"開元里","LIN":"18鄰","STREET":"長榮路","SECT":"五段","MAREA":" ","LANE":" ","ALLEY":" ","HOUSE_NO":"１０８號","E_COORD97":170082.51000000001,"N_COORD97":2545806.6899999999,"ADDRESS":"長榮路五段１０８號","OBJECTID":475260},"geometry":{"x":170082.50999999978,"y":2545806.6900000013}},{"attributes":{"ID":475286,"DIS_CODE":0,"TOWNNAME":"北區","LI":"開元里","LIN":"18鄰","STREET":"長榮路","SECT":"五段","MAREA":" ","LANE":" ","ALLEY":" ","HOUSE_NO":"１１０號","E_COORD97":170081.63,"N_COORD97":2545813.3300000001,"ADDRESS":"長榮路五段１１０號","OBJECTID":475261},"geometry":{"x":170081.62999999989,"y":2545813.3300000019}},{"attributes":{"ID":475287,"DIS_CODE":0,"TOWNNAME":"北區","LI":"開元里","LIN":"18鄰","STREET":"長榮路","SECT":"五段","MAREA":" ","LANE":" ","ALLEY":" ","HOUSE_NO":"１１２號","E_COORD97":170079.10999999999,"N_COORD97":2545824.7999999998,"ADDRESS":"長榮路五段１１２號","OBJECTID":475262},"geometry":{"x":170079.11000000034,"y":2545824.8000000026}},{"attributes":{"ID":475288,"DIS_CODE":0,"TOWNNAME":"北區","LI":"開元里","LIN":"18鄰","STREET":"長榮路","SECT":"五段","MAREA":" ","LANE":" ","ALLEY":" ","HOUSE_NO":"１１４號","E_COORD97":170078.89999999999,"N_COORD97":2545828.8300000001,"ADDRESS":"長榮路五段１１４號","OBJECTID":475263},"geometry":{"x":170078.90000000037,"y":2545828.8300000001}},{"attributes":{"ID":475289,"DIS_CODE":0,"TOWNNAME":"北區","LI":"開元里","LIN":"18鄰","STREET":"長榮路","SECT":"五段","MAREA":" ","LANE":" ","ALLEY":" ","HOUSE_NO":"１１６號","E_COORD97":170078.89999999999,"N_COORD97":2545832.3100000001,"ADDRESS":"長榮路五段１１６號","OBJECTID":475264},"geometry":{"x":170078.90000000037,"y":2545832.3100000005}},{"attributes":{"ID":475290,"DIS_CODE":0,"TOWNNAME":"北區","LI":"開元里","LIN":"18鄰","STREET":"長榮路","SECT":"五段","MAREA":" ","LANE":" ","ALLEY":" ","HOUSE_NO":"１１８號","E_COORD97":170079.22,"N_COORD97":2545836.3399999999,"ADDRESS":"長榮路五段１１８號","OBJECTID":475265},"geometry":{"x":170079.21999999974,"y":2545836.3400000017}},{"attributes":{"ID":475291,"DIS_CODE":0,"TOWNNAME":"安平區","LI":"平通里","LIN":"18鄰","STREET":"健康三街","SECT":" ","MAREA":" ","LANE":" ","ALLEY":" ","HOUSE_NO":"２３７號","E_COORD97":164789.16,"N_COORD97":2543626.2799999998,"ADDRESS":"健康三街２３７號","OBJECTID":475266},"geometry":{"x":164789.16000000015,"y":2543626.2800000012}},{"attributes":{"ID":475292,"DIS_CODE":0,"TOWNNAME":"安平區","LI":"平通里","LIN":"18鄰","STREET":"健康三街","SECT":" ","MAREA":" ","LANE":" ","ALLEY":" ","HOUSE_NO":"２３９號","E_COORD97":164789.48999999999,"N_COORD97":2543630.7599999998,"ADDRESS":"健康三街２３９號","OBJECTID":475267},"geometry":{"x":164789.49000000115,"y":2543630.7599999998}},{"attributes":{"ID":475293,"DIS_CODE":0,"TOWNNAME":"安平區","LI":"育平里","LIN":"18鄰","STREET":"建平七街","SECT":" ","MAREA":" ","LANE":" ","ALLEY":" ","HOUSE_NO":"７１９號","E_COORD97":164676.48999999999,"N_COORD97":2543437.8799999999,"ADDRESS":"建平七街７１９號","OBJECTID":475268},"geometry":{"x":164676.49000000115,"y":2543437.8800000008}},{"attributes":{"ID":475294,"DIS_CODE":0,"TOWNNAME":"安平區","LI":"育平里","LIN":"18鄰","STREET":"建平七街","SECT":" ","MAREA":" ","LANE":" ","ALLEY":" ","HOUSE_NO":"７２１號","E_COORD97":164671.73999999999,"N_COORD97":2543438.6000000001,"ADDRESS":"建平七街７２１號","OBJECTID":475269},"geometry":{"x":164671.74000000022,"y":2543438.5999999996}},{"attributes":{"ID":475295,"DIS_CODE":0,"TOWNNAME":"安平區","LI":"育平里","LIN":"18鄰","STREET":"建平七街","SECT":" ","MAREA":" ","LANE":" ","ALLEY":" ","HOUSE_NO":"７２３號","E_COORD97":164659.94,"N_COORD97":2543439.4700000002,"ADDRESS":"建平七街７２３號","OBJECTID":475270},"geometry":{"x":164659.94000000134,"y":2543439.4700000025}},{"attributes":{"ID":475296,"DIS_CODE":0,"TOWNNAME":"安平區","LI":"育平里","LIN":"18鄰","STREET":"建平七街","SECT":" ","MAREA":" ","LANE":" ","ALLEY":" ","HOUSE_NO":"７３１號","E_COORD97":164635.47,"N_COORD97":2543446.2200000002,"ADDRESS":"建平七街７３１號","OBJECTID":475271},"geometry":{"x":164635.47000000067,"y":2543446.2200000007}},{"attributes":{"ID":475297,"DIS_CODE":0,"TOWNNAME":"安平區","LI":"育平里","LIN":"18鄰","STREET":"健康三街","SECT":" ","MAREA":" ","LANE":" ","ALLEY":" ","HOUSE_NO":"２０９號","E_COORD97":164760.79999999999,"N_COORD97":2543392,"ADDRESS":"健康三街２０９號","OBJECTID":475272},"geometry":{"x":164760.79999999981,"y":2543392}},{"attributes":{"ID":475298,"DIS_CODE":0,"TOWNNAME":"安平區","LI":"育平里","LIN":"18鄰","STREET":"健康三街","SECT":" ","MAREA":" ","LANE":" ","ALLEY":" ","HOUSE_NO":"２１１號","E_COORD97":164762.53,"N_COORD97":2543400.0600000001,"ADDRESS":"健康三街２１１號","OBJECTID":475273},"geometry":{"x":164762.53000000119,"y":2543400.0600000005}},{"attributes":{"ID":475299,"DIS_CODE":0,"TOWNNAME":"安平區","LI":"育平里","LIN":"18鄰","STREET":"健康三街","SECT":" ","MAREA":" ","LANE":" ","ALLEY":" ","HOUSE_NO":"２１３號","E_COORD97":164763.54000000001,"N_COORD97":2543404.23,"ADDRESS":"健康三街２１３號","OBJECTID":475274},"geometry":{"x":164763.54000000097,"y":2543404.2300000023}},{"attributes":{"ID":475300,"DIS_CODE":0,"TOWNNAME":"安平區","LI":"育平里","LIN":"18鄰","STREET":"健康三街","SECT":" ","MAREA":" ","LANE":" ","ALLEY":" ","HOUSE_NO":"２１５號","E_COORD97":164764.12,"N_COORD97":2543408.2599999998,"ADDRESS":"健康三街２１５號","OBJECTID":475275},"geometry":{"x":164764.12000000011,"y":2543408.2599999998}},{"attributes":{"ID":475301,"DIS_CODE":0,"TOWNNAME":"安平區","LI":"育平里","LIN":"18鄰","STREET":"健康三街","SECT":" ","MAREA":" ","LANE":" ","ALLEY":" ","HOUSE_NO":"２１７號","E_COORD97":164764.69,"N_COORD97":2543412.5699999998,"ADDRESS":"健康三街２１７號","OBJECTID":475276},"geometry":{"x":164764.69000000134,"y":2543412.5700000003}},{"attributes":{"ID":475302,"DIS_CODE":0,"TOWNNAME":"安平區","LI":"育平里","LIN":"18鄰","STREET":"健康三街","SECT":" ","MAREA":" ","LANE":" ","ALLEY":" ","HOUSE_NO":"２１９號","E_COORD97":164766.98999999999,"N_COORD97":2543421.0600000001,"ADDRESS":"健康三街２１９號","OBJECTID":475277},"geometry":{"x":164766.99000000022,"y":2543421.0600000042}},{"attributes":{"ID":475303,"DIS_CODE":0,"TOWNNAME":"安平區","LI":"海頭里","LIN":"18鄰","STREET":"古堡街","SECT":" ","MAREA":" ","LANE":" ","ALLEY":" ","HOUSE_NO":"１２０之１０號","E_COORD97":163796.20000000001,"N_COORD97":2544933.5,"ADDRESS":"古堡街１２０之１０號","OBJECTID":475278},"geometry":{"x":163796.20000000205,"y":2544933.5000000019}},{"attributes":{"ID":475304,"DIS_CODE":0,"TOWNNAME":"安平區","LI":"海頭里","LIN":"18鄰","STREET":"古堡街","SECT":" ","MAREA":" ","LANE":" ","ALLEY":" ","HOUSE_NO":"１２０號之１１","E_COORD97":163794.92999999999,"N_COORD97":2544937.1200000001,"ADDRESS":"古堡街１２０號之１１","OBJECTID":475279},"geometry":{"x":163794.93000000063,"y":2544937.1200000029}},{"attributes":{"ID":475305,"DIS_CODE":0,"TOWNNAME":"安平區","LI":"海頭里","LIN":"18鄰","STREET":"古堡街","SECT":" ","MAREA":" ","LANE":" ","ALLEY":" ","HOUSE_NO":"１２０號之１２","E_COORD97":163794.54999999999,"N_COORD97":2544941.1699999999,"ADDRESS":"古堡街１２０號之１２","OBJECTID":475280},"geometry":{"x":163794.54999999981,"y":2544941.1699999999}},{"attributes":{"ID":475306,"DIS_CODE":0,"TOWNNAME":"安平區","LI":"海頭里","LIN":"18鄰","STREET":"古堡街","SECT":" ","MAREA":" ","LANE":" ","ALLEY":" ","HOUSE_NO":"１２０號之１３","E_COORD97":163792.64999999999,"N_COORD97":2544946.1099999999,"ADDRESS":"古堡街１２０號之１３","OBJECTID":475281},"geometry":{"x":163792.65000000037,"y":2544946.1100000013}},{"attributes":{"ID":475307,"DIS_CODE":0,"TOWNNAME":"安平區","LI":"海頭里","LIN":"18鄰","STREET":"古堡街","SECT":" ","MAREA":" ","LANE":" ","ALLEY":" ","HOUSE_NO":"１２０號之１４","E_COORD97":163791.64000000001,"N_COORD97":2544949.4100000001,"ADDRESS":"古堡街１２０號之１４","OBJECTID":475282},"geometry":{"x":163791.6400000006,"y":2544949.4100000001}},{"attributes":{"ID":475308,"DIS_CODE":0,"TOWNNAME":"安平區","LI":"海頭里","LIN":"18鄰","STREET":"古堡街","SECT":" ","MAREA":" ","LANE":" ","ALLEY":" ","HOUSE_NO":"１２０號之１５","E_COORD97":163789.35999999999,"N_COORD97":2544953.3300000001,"ADDRESS":"古堡街１２０號之１５","OBJECTID":475283},"geometry":{"x":163789.36000000034,"y":2544953.3300000001}},{"attributes":{"ID":475309,"DIS_CODE":0,"TOWNNAME":"安平區","LI":"海頭里","LIN":"18鄰","STREET":"古堡街","SECT":" ","MAREA":" ","LANE":" ","ALLEY":" ","HOUSE_NO":"１２０號之１６","E_COORD97":163786.57000000001,"N_COORD97":2544956.25,"ADDRESS":"古堡街１２０號之１６","OBJECTID":475284},"geometry":{"x":163786.5700000003,"y":2544956.2500000019}},{"attributes":{"ID":475310,"DIS_CODE":0,"TOWNNAME":"安平區","LI":"海頭里","LIN":"18鄰","STREET":"古堡街","SECT":" ","MAREA":" ","LANE":" ","ALLEY":" ","HOUSE_NO":"１２０號之３","E_COORD97":163802.54000000001,"N_COORD97":2544909.9300000002,"ADDRESS":"古堡街１２０號之３","OBJECTID":475285},"geometry":{"x":163802.54000000097,"y":2544909.9300000016}},{"attributes":{"ID":475311,"DIS_CODE":0,"TOWNNAME":"安平區","LI":"海頭里","LIN":"18鄰","STREET":"古堡街","SECT":" ","MAREA":" ","LANE":" ","ALLEY":" ","HOUSE_NO":"１２０號之５","E_COORD97":163802.29000000001,"N_COORD97":2544913.73,"ADDRESS":"古堡街１２０號之５","OBJECTID":475286},"geometry":{"x":163802.2900000019,"y":2544913.7300000004}},{"attributes":{"ID":475312,"DIS_CODE":0,"TOWNNAME":"安平區","LI":"海頭里","LIN":"18鄰","STREET":"古堡街","SECT":" ","MAREA":" ","LANE":" ","ALLEY":" ","HOUSE_NO":"１２０號之６","E_COORD97":163799.75,"N_COORD97":2544917.5299999998,"ADDRESS":"古堡街１２０號之６","OBJECTID":475287},"geometry":{"x":163799.75000000093,"y":2544917.5299999993}},{"attributes":{"ID":475313,"DIS_CODE":0,"TOWNNAME":"安平區","LI":"海頭里","LIN":"18鄰","STREET":"古堡街","SECT":" ","MAREA":" ","LANE":" ","ALLEY":" ","HOUSE_NO":"１２０號之７","E_COORD97":163799.5,"N_COORD97":2544921.46,"ADDRESS":"古堡街１２０號之７","OBJECTID":475288},"geometry":{"x":163799.50000000093,"y":2544921.4600000028}},{"attributes":{"ID":475314,"DIS_CODE":0,"TOWNNAME":"安平區","LI":"海頭里","LIN":"18鄰","STREET":"古堡街","SECT":" ","MAREA":" ","LANE":" ","ALLEY":" ","HOUSE_NO":"１２０號之８","E_COORD97":163798.10000000001,"N_COORD97":2544925.52,"ADDRESS":"古堡街１２０號之８","OBJECTID":475289},"geometry":{"x":163798.10000000056,"y":2544925.5200000033}},{"attributes":{"ID":475315,"DIS_CODE":0,"TOWNNAME":"安平區","LI":"海頭里","LIN":"18鄰","STREET":"古堡街","SECT":" ","MAREA":" ","LANE":" ","ALLEY":" ","HOUSE_NO":"１２０號之９","E_COORD97":163797.47,"N_COORD97":2544928.8100000001,"ADDRESS":"古堡街１２０號之９","OBJECTID":475290},"geometry":{"x":163797.47000000067,"y":2544928.8100000024}},{"attributes":{"ID":475316,"DIS_CODE":0,"TOWNNAME":"東區","LI":"龍山里","LIN":"18鄰","STREET":"東門路","SECT":"一段","MAREA":" ","LANE":" ","ALLEY":" ","HOUSE_NO":"２２４號","E_COORD97":169689.54999999999,"N_COORD97":2543069.7599999998,"ADDRESS":"東門路一段２２４號","OBJECTID":475291},"geometry":{"x":169689.55000000075,"y":2543069.7600000035}},{"attributes":{"ID":475317,"DIS_CODE":0,"TOWNNAME":"東山區","LI":"東中里","LIN":"18鄰","STREET":"中興路","SECT":" ","MAREA":" ","LANE":" ","ALLEY":" ","HOUSE_NO":"１４號","E_COORD97":188981.92000000001,"N_COORD97":2580014.9100000001,"ADDRESS":"中興路１４號","OBJECTID":475292},"geometry":{"x":188981.92000000086,"y":2580014.910000002}},{"attributes":{"ID":475318,"DIS_CODE":0,"TOWNNAME":"東山區","LI":"東中里","LIN":"18鄰","STREET":"中興路","SECT":" ","MAREA":" ","LANE":" ","ALLEY":" ","HOUSE_NO":"１６號","E_COORD97":188998.57999999999,"N_COORD97":2580019.2200000002,"ADDRESS":"中興路１６號","OBJECTID":475293},"geometry":{"x":188998.58000000007,"y":2580019.2200000044}},{"attributes":{"ID":475319,"DIS_CODE":0,"TOWNNAME":"東山區","LI":"東中里","LIN":"18鄰","STREET":"中興路","SECT":" ","MAREA":" ","LANE":" ","ALLEY":" ","HOUSE_NO":"１８號","E_COORD97":188986.56,"N_COORD97":2580029.0600000001,"ADDRESS":"中興路１８號","OBJECTID":475294},"geometry":{"x":188986.55999999959,"y":2580029.0600000005}},{"attributes":{"ID":475320,"DIS_CODE":0,"TOWNNAME":"東山區","LI":"東中里","LIN":"18鄰","STREET":"中興路","SECT":" ","MAREA":" ","LANE":" ","ALLEY":" ","HOUSE_NO":"２０號","E_COORD97":188987.16,"N_COORD97":2580036.0800000001,"ADDRESS":"中興路２０號","OBJECTID":475295},"geometry":{"x":188987.16000000108,"y":2580036.0800000001}},{"attributes":{"ID":475321,"DIS_CODE":0,"TOWNNAME":"東山區","LI":"東中里","LIN":"18鄰","STREET":"中興路","SECT":" ","MAREA":" ","LANE":" ","ALLEY":" ","HOUSE_NO":"２２號","E_COORD97":188987.57999999999,"N_COORD97":2580040.5299999998,"ADDRESS":"中興路２２號","OBJECTID":475296},"geometry":{"x":188987.58000000101,"y":2580040.5300000012}},{"attributes":{"ID":475322,"DIS_CODE":0,"TOWNNAME":"東山區","LI":"東中里","LIN":"18鄰","STREET":"中興路","SECT":" ","MAREA":" ","LANE":" ","ALLEY":" ","HOUSE_NO":"２４號","E_COORD97":188988,"N_COORD97":2580044.9700000002,"ADDRESS":"中興路２４號","OBJECTID":475297},"geometry":{"x":188988.00000000093,"y":2580044.9700000025}},{"attributes":{"ID":475323,"DIS_CODE":0,"TOWNNAME":"新營區","LI":"土庫里","LIN":"18鄰","STREET":"開元路","SECT":" ","MAREA":" ","LANE":" ","ALLEY":" ","HOUSE_NO":"２６１號","E_COORD97":181885.57999999999,"N_COORD97":2579755.54,"ADDRESS":"開元路２６１號","OBJECTID":475298},"geometry":{"x":181885.58000000007,"y":2579755.540000001}},{"attributes":{"ID":475324,"DIS_CODE":0,"TOWNNAME":"新營區","LI":"土庫里","LIN":"18鄰","STREET":"開元路","SECT":" ","MAREA":" ","LANE":" ","ALLEY":" ","HOUSE_NO":"２４５號","E_COORD97":181851.67000000001,"N_COORD97":2579720.2599999998,"ADDRESS":"開元路２４５號","OBJECTID":475299},"geometry":{"x":181851.67000000179,"y":2579720.2600000016}},{"attributes":{"ID":475325,"DIS_CODE":0,"TOWNNAME":"新營區","LI":"忠政里","LIN":"18鄰","STREET":"中正路","SECT":" ","MAREA":" ","LANE":" ","ALLEY":" ","HOUSE_NO":"２０３號","E_COORD97":180066.85999999999,"N_COORD97":2579707.54,"ADDRESS":"中正路２０３號","OBJECTID":475300},"geometry":{"x":180066.86000000034,"y":2579707.540000001}},{"attributes":{"ID":475326,"DIS_CODE":0,"TOWNNAME":"新營區","LI":"永生里","LIN":"18鄰","STREET":"新進路","SECT":" ","MAREA":" ","LANE":" ","ALLEY":" ","HOUSE_NO":"３３６號","E_COORD97":179905.47,"N_COORD97":2577801.2799999998,"ADDRESS":"新進路３３６號","OBJECTID":475301},"geometry":{"x":179905.47000000067,"y":2577801.2800000012}},{"attributes":{"ID":475327,"DIS_CODE":0,"TOWNNAME":"新營區","LI":"永生里","LIN":"18鄰","STREET":"新進路","SECT":" ","MAREA":" ","LANE":" ","ALLEY":" ","HOUSE_NO":"３４６號","E_COORD97":179879.84,"N_COORD97":2577789.2200000002,"ADDRESS":"新進路３４６號","OBJECTID":475302},"geometry":{"x":179879.83999999985,"y":2577789.2200000025}},{"attributes":{"ID":475328,"DIS_CODE":0,"TOWNNAME":"新營區","LI":"永生里","LIN":"18鄰","STREET":"新進路","SECT":" ","MAREA":" ","LANE":" ","ALLEY":" ","HOUSE_NO":"３４０號","E_COORD97":179892.14999999999,"N_COORD97":2577795.7999999998,"ADDRESS":"新進路３４０號","OBJECTID":475303},"geometry":{"x":179892.15000000037,"y":2577795.8000000026}},{"attributes":{"ID":475329,"DIS_CODE":0,"TOWNNAME":"新營區","LI":"南紙里","LIN":"18鄰","STREET":"南紙街","SECT":" ","MAREA":" ","LANE":" ","ALLEY":" ","HOUSE_NO":"２０號","E_COORD97":177786.48999999999,"N_COORD97":2577741.6800000002,"ADDRESS":"南紙街２０號","OBJECTID":475304},"geometry":{"x":177786.49000000115,"y":2577741.6800000016}},{"attributes":{"ID":475330,"DIS_CODE":0,"TOWNNAME":"新營區","LI":"忠政里","LIN":"18鄰","STREET":"中正路","SECT":" ","MAREA":" ","LANE":" ","ALLEY":" ","HOUSE_NO":"２０９號之３","E_COORD97":180068.23000000001,"N_COORD97":2579740.8199999998,"ADDRESS":"中正路２０９號之３","OBJECTID":475305},"geometry":{"x":180068.23000000045,"y":2579740.8200000022}},{"attributes":{"ID":475331,"DIS_CODE":0,"TOWNNAME":"新營區","LI":"新東里","LIN":"18鄰","STREET":"東興四街","SECT":" ","MAREA":" ","LANE":" ","ALLEY":" ","HOUSE_NO":"３９號","E_COORD97":180872.20000000001,"N_COORD97":2579183.25,"ADDRESS":"東興四街３９號","OBJECTID":475306},"geometry":{"x":180872.20000000112,"y":2579183.25}},{"attributes":{"ID":475332,"DIS_CODE":0,"TOWNNAME":"新營區","LI":"南紙里","LIN":"18鄰","STREET":"太子路","SECT":" ","MAREA":" ","LANE":" ","ALLEY":" ","HOUSE_NO":"３１１號","E_COORD97":177447.5,"N_COORD97":2577609.3399999999,"ADDRESS":"太子路３１１號","OBJECTID":475307},"geometry":{"x":177447.50000000093,"y":2577609.3399999999}},{"attributes":{"ID":475333,"DIS_CODE":0,"TOWNNAME":"東區","LI":"龍山里","LIN":"18鄰","STREET":"東門路","SECT":"一段","MAREA":" ","LANE":" ","ALLEY":" ","HOUSE_NO":"２２８號","E_COORD97":169686.70000000001,"N_COORD97":2543060.7000000002,"ADDRESS":"東門路一段２２８號","OBJECTID":475308},"geometry":{"x":169686.70000000019,"y":2543060.7000000011}},{"attributes":{"ID":475334,"DIS_CODE":0,"TOWNNAME":"東區","LI":"龍山里","LIN":"18鄰","STREET":"東門路","SECT":"一段","MAREA":" ","LANE":" ","ALLEY":" ","HOUSE_NO":"２３６號","E_COORD97":169683.59,"N_COORD97":2543051.9100000001,"ADDRESS":"東門路一段２３６號","OBJECTID":475309},"geometry":{"x":169683.58999999985,"y":2543051.9100000039}},{"attributes":{"ID":475335,"DIS_CODE":0,"TOWNNAME":"關廟區","LI":"山西里","LIN":"18鄰","STREET":"文衡路","SECT":" ","MAREA":" ","LANE":" ","ALLEY":" ","HOUSE_NO":"３３２號","E_COORD97":180910.94,"N_COORD97":2540794.3300000001,"ADDRESS":"文衡路３３２號","OBJECTID":475310},"geometry":{"x":180910.94000000041,"y":2540794.3300000038}},{"attributes":{"ID":475336,"DIS_CODE":0,"TOWNNAME":"關廟區","LI":"香洋里","LIN":"18鄰","STREET":"和平路","SECT":" ","MAREA":" ","LANE":" ","ALLEY":" ","HOUSE_NO":"２８３號","E_COORD97":181633.64000000001,"N_COORD97":2540107.25,"ADDRESS":"和平路２８３號","OBJECTID":475311},"geometry":{"x":181633.6400000006,"y":2540107.2500000019}},{"attributes":{"ID":475337,"DIS_CODE":0,"TOWNNAME":"關廟區","LI":"香洋里","LIN":"18鄰","STREET":"和平路","SECT":" ","MAREA":" ","LANE":" ","ALLEY":" ","HOUSE_NO":"２８５號","E_COORD97":181629.07999999999,"N_COORD97":2540112.3199999998,"ADDRESS":"和平路２８５號","OBJECTID":475312},"geometry":{"x":181629.08000000101,"y":2540112.3200000003}},{"attributes":{"ID":475338,"DIS_CODE":0,"TOWNNAME":"麻豆區","LI":"油車里","LIN":"18鄰","STREET":"麻學路","SECT":"一段","MAREA":" ","LANE":" ","ALLEY":" ","HOUSE_NO":"１１２號","E_COORD97":172106.23999999999,"N_COORD97":2565156.1899999999,"ADDRESS":"麻學路一段１１２號","OBJECTID":475313},"geometry":{"x":172106.24000000115,"y":2565156.1900000013}},{"attributes":{"ID":475339,"DIS_CODE":0,"TOWNNAME":"安平區","LI":"平安里","LIN":"18鄰","STREET":"安北路","SECT":" ","MAREA":" ","LANE":" ","ALLEY":" ","HOUSE_NO":"２號","E_COORD97":164722.35000000001,"N_COORD97":2544441.6899999999,"ADDRESS":"安北路２號","OBJECTID":475314},"geometry":{"x":164722.35000000056,"y":2544441.6899999995}},{"attributes":{"ID":475340,"DIS_CODE":0,"TOWNNAME":"安平區","LI":"平安里","LIN":"18鄰","STREET":"安北路","SECT":" ","MAREA":" ","LANE":" ","ALLEY":" ","HOUSE_NO":"６號","E_COORD97":164716.42000000001,"N_COORD97":2544447.8300000001,"ADDRESS":"安北路６號","OBJECTID":475315},"geometry":{"x":164716.41999999993,"y":2544447.8300000001}},{"attributes":{"ID":475341,"DIS_CODE":0,"TOWNNAME":"安平區","LI":"國平里","LIN":"18鄰","STREET":"育平五街","SECT":" ","MAREA":" ","LANE":" ","ALLEY":" ","HOUSE_NO":"８號","E_COORD97":164887.91,"N_COORD97":2543487.3999999999,"ADDRESS":"育平五街８號","OBJECTID":475316},"geometry":{"x":164887.91000000015,"y":2543487.4000000022}},{"attributes":{"ID":475342,"DIS_CODE":0,"TOWNNAME":"東區","LI":"龍山里","LIN":"18鄰","STREET":"東門路","SECT":"一段","MAREA":" ","LANE":" ","ALLEY":" ","HOUSE_NO":"２６６號","E_COORD97":169686.31,"N_COORD97":2543042.1600000001,"ADDRESS":"東門路一段２６６號","OBJECTID":475317},"geometry":{"x":169686.31000000052,"y":2543042.1600000001}},{"attributes":{"ID":475343,"DIS_CODE":0,"TOWNNAME":"安平區","LI":"平安里","LIN":"18鄰","STREET":"安北路","SECT":" ","MAREA":" ","LANE":" ","ALLEY":" ","HOUSE_NO":"１２號","E_COORD97":164706.04000000001,"N_COORD97":2544461.3700000001,"ADDRESS":"安北路１２號","OBJECTID":475318},"geometry":{"x":164706.04000000097,"y":2544461.3700000029}},{"attributes":{"ID":475344,"DIS_CODE":0,"TOWNNAME":"安平區","LI":"平安里","LIN":"18鄰","STREET":"安北路","SECT":" ","MAREA":" ","LANE":" ","ALLEY":" ","HOUSE_NO":"１２之１號","E_COORD97":164702.23000000001,"N_COORD97":2544467.9300000002,"ADDRESS":"安北路１２之１號","OBJECTID":475319},"geometry":{"x":164702.23000000138,"y":2544467.9299999997}},{"attributes":{"ID":475345,"DIS_CODE":0,"TOWNNAME":"安平區","LI":"石門里","LIN":"18鄰","STREET":"平生路","SECT":" ","MAREA":" ","LANE":" ","ALLEY":" ","HOUSE_NO":"３２號","E_COORD97":164327.76999999999,"N_COORD97":2544560.8700000001,"ADDRESS":"平生路３２號","OBJECTID":475320},"geometry":{"x":164327.77000000048,"y":2544560.870000001}},{"attributes":{"ID":475346,"DIS_CODE":0,"TOWNNAME":"安平區","LI":"石門里","LIN":"18鄰","STREET":"平生路","SECT":" ","MAREA":" ","LANE":" ","ALLEY":" ","HOUSE_NO":"３４號","E_COORD97":164334.64999999999,"N_COORD97":2544573.5800000001,"ADDRESS":"平生路３４號","OBJECTID":475321},"geometry":{"x":164334.6500000013,"y":2544573.5800000019}},{"attributes":{"ID":475347,"DIS_CODE":0,"TOWNNAME":"安平區","LI":"石門里","LIN":"18鄰","STREET":"平生路","SECT":" ","MAREA":" ","LANE":" ","ALLEY":" ","HOUSE_NO":"３４號之１","E_COORD97":164332.89999999999,"N_COORD97":2544577.6699999999,"ADDRESS":"平生路３４號之１","OBJECTID":475322},"geometry":{"x":164332.9000000013,"y":2544577.6699999999}},{"attributes":{"ID":475348,"DIS_CODE":0,"TOWNNAME":"安平區","LI":"石門里","LIN":"18鄰","STREET":"平生路","SECT":" ","MAREA":" ","LANE":" ","ALLEY":" ","HOUSE_NO":"３６號","E_COORD97":164337.29000000001,"N_COORD97":2544582.9300000002,"ADDRESS":"平生路３６號","OBJECTID":475323},"geometry":{"x":164337.29000000004,"y":2544582.9299999997}},{"attributes":{"ID":475349,"DIS_CODE":0,"TOWNNAME":"安平區","LI":"石門里","LIN":"18鄰","STREET":"平生路","SECT":" ","MAREA":" ","LANE":" ","ALLEY":" ","HOUSE_NO":"３６號之１","E_COORD97":164336.70000000001,"N_COORD97":2544588.4900000002,"ADDRESS":"平生路３６號之１","OBJECTID":475324},"geometry":{"x":164336.70000000019,"y":2544588.4900000021}},{"attributes":{"ID":475350,"DIS_CODE":0,"TOWNNAME":"安平區","LI":"石門里","LIN":"18鄰","STREET":"平生路","SECT":" ","MAREA":" ","LANE":" ","ALLEY":" ","HOUSE_NO":"３８號","E_COORD97":164338.75,"N_COORD97":2544594.9199999999,"ADDRESS":"平生路３８號","OBJECTID":475325},"geometry":{"x":164338.75000000093,"y":2544594.9200000018}},{"attributes":{"ID":475351,"DIS_CODE":0,"TOWNNAME":"安平區","LI":"石門里","LIN":"18鄰","STREET":"平生路","SECT":" ","MAREA":" ","LANE":" ","ALLEY":" ","HOUSE_NO":"３８號之１","E_COORD97":164338.75,"N_COORD97":2544598.1400000001,"ADDRESS":"平生路３８號之１","OBJECTID":475326},"geometry":{"x":164338.75000000093,"y":2544598.1400000025}},{"attributes":{"ID":475352,"DIS_CODE":0,"TOWNNAME":"安平區","LI":"石門里","LIN":"18鄰","STREET":"平生路","SECT":" ","MAREA":" ","LANE":" ","ALLEY":" ","HOUSE_NO":"４０號","E_COORD97":164360.42000000001,"N_COORD97":2544586.73,"ADDRESS":"平生路４０號","OBJECTID":475327},"geometry":{"x":164360.41999999993,"y":2544586.7300000023}},{"attributes":{"ID":475353,"DIS_CODE":0,"TOWNNAME":"麻豆區","LI":"油車里","LIN":"18鄰","STREET":"新生北路","SECT":" ","MAREA":" ","LANE":" ","ALLEY":" ","HOUSE_NO":"１０７號","E_COORD97":172249.45000000001,"N_COORD97":2565345.6400000001,"ADDRESS":"新生北路１０７號","OBJECTID":475328},"geometry":{"x":172249.45000000019,"y":2565345.6400000006}},{"attributes":{"ID":475354,"DIS_CODE":0,"TOWNNAME":"麻豆區","LI":"油車里","LIN":"18鄰","STREET":"新生北路","SECT":" ","MAREA":" ","LANE":" ","ALLEY":" ","HOUSE_NO":"１０９號","E_COORD97":172238.54000000001,"N_COORD97":2565347.2400000002,"ADDRESS":"新生北路１０９號","OBJECTID":475329},"geometry":{"x":172238.54000000004,"y":2565347.2400000002}},{"attributes":{"ID":475355,"DIS_CODE":0,"TOWNNAME":"麻豆區","LI":"油車里","LIN":"18鄰","STREET":"新生北路","SECT":" ","MAREA":" ","LANE":" ","ALLEY":" ","HOUSE_NO":"１１１號","E_COORD97":172222.07999999999,"N_COORD97":2565346.1400000001,"ADDRESS":"新生北路１１１號","OBJECTID":475330},"geometry":{"x":172222.08000000194,"y":2565346.1400000043}},{"attributes":{"ID":475356,"DIS_CODE":0,"TOWNNAME":"麻豆區","LI":"油車里","LIN":"18鄰","STREET":"新生北路","SECT":" ","MAREA":" ","LANE":" ","ALLEY":" ","HOUSE_NO":"１２９號","E_COORD97":172267.44,"N_COORD97":2565360.1600000001,"ADDRESS":"新生北路１２９號","OBJECTID":475331},"geometry":{"x":172267.44000000227,"y":2565360.160000002}},{"attributes":{"ID":475357,"DIS_CODE":0,"TOWNNAME":"麻豆區","LI":"油車里","LIN":"18鄰","STREET":"新生北路","SECT":" ","MAREA":" ","LANE":" ","ALLEY":" ","HOUSE_NO":"１３１號","E_COORD97":172267.29999999999,"N_COORD97":2565364.5,"ADDRESS":"新生北路１３１號","OBJECTID":475332},"geometry":{"x":172267.29999999981,"y":2565364.5000000019}},{"attributes":{"ID":475358,"DIS_CODE":0,"TOWNNAME":"麻豆區","LI":"油車里","LIN":"18鄰","STREET":"新生北路","SECT":" ","MAREA":" ","LANE":" ","ALLEY":" ","HOUSE_NO":"１３３號","E_COORD97":172267.22,"N_COORD97":2565368.6299999999,"ADDRESS":"新生北路１３３號","OBJECTID":475333},"geometry":{"x":172267.22000000067,"y":2565368.6300000008}},{"attributes":{"ID":475359,"DIS_CODE":0,"TOWNNAME":"麻豆區","LI":"油車里","LIN":"18鄰","STREET":"新生北路","SECT":" ","MAREA":" ","LANE":" ","ALLEY":" ","HOUSE_NO":"１３５號","E_COORD97":172267.04999999999,"N_COORD97":2565373.4399999999,"ADDRESS":"新生北路１３５號","OBJECTID":475334},"geometry":{"x":172267.04999999981,"y":2565373.4400000032}},{"attributes":{"ID":475360,"DIS_CODE":0,"TOWNNAME":"麻豆區","LI":"油車里","LIN":"18鄰","STREET":"新生北路","SECT":" ","MAREA":" ","LANE":" ","ALLEY":" ","HOUSE_NO":"１３７號","E_COORD97":172268.22,"N_COORD97":2565479.6000000001,"ADDRESS":"新生北路１３７號","OBJECTID":475335},"geometry":{"x":172268.2200000016,"y":2565479.5999999996}},{"attributes":{"ID":475361,"DIS_CODE":0,"TOWNNAME":"麻豆區","LI":"油車里","LIN":"18鄰","STREET":"新生北路","SECT":" ","MAREA":" ","LANE":" ","ALLEY":" ","HOUSE_NO":"１３９號","E_COORD97":172240.35000000001,"N_COORD97":2565406.8500000001,"ADDRESS":"新生北路１３９號","OBJECTID":475336},"geometry":{"x":172240.35000000056,"y":2565406.8499999996}},{"attributes":{"ID":475362,"DIS_CODE":0,"TOWNNAME":"麻豆區","LI":"油車里","LIN":"18鄰","STREET":"新生北路","SECT":" ","MAREA":" ","LANE":" ","ALLEY":" ","HOUSE_NO":"１９９號","E_COORD97":172251.62,"N_COORD97":2565552.25,"ADDRESS":"新生北路１９９號","OBJECTID":475337},"geometry":{"x":172251.62000000011,"y":2565552.2500000019}},{"attributes":{"ID":475363,"DIS_CODE":0,"TOWNNAME":"歸仁區","LI":"南興里","LIN":"18鄰","STREET":"南興一街","SECT":" ","MAREA":" ","LANE":" ","ALLEY":" ","HOUSE_NO":"１１號","E_COORD97":175673.69,"N_COORD97":2541343.25,"ADDRESS":"南興一街１１號","OBJECTID":475338},"geometry":{"x":175673.69000000134,"y":2541343.25}},{"attributes":{"ID":475364,"DIS_CODE":0,"TOWNNAME":"歸仁區","LI":"新厝里","LIN":"18鄰","STREET":"中正南路","SECT":"一段","MAREA":" ","LANE":" ","ALLEY":" ","HOUSE_NO":"１６５號","E_COORD97":177432.73000000001,"N_COORD97":2540388.2000000002,"ADDRESS":"中正南路一段１６５號","OBJECTID":475339},"geometry":{"x":177432.73000000138,"y":2540388.2000000011}},{"attributes":{"ID":475365,"DIS_CODE":0,"TOWNNAME":"歸仁區","LI":"歸仁里","LIN":"18鄰","STREET":"大仁一街","SECT":" ","MAREA":" ","LANE":" ","ALLEY":" ","HOUSE_NO":"７號","E_COORD97":178119.01999999999,"N_COORD97":2541014.1099999999,"ADDRESS":"大仁一街７號","OBJECTID":475340},"geometry":{"x":178119.01999999955,"y":2541014.1099999994}},{"attributes":{"ID":475366,"DIS_CODE":0,"TOWNNAME":"東區","LI":"龍山里","LIN":"18鄰","STREET":"東門路","SECT":"一段","MAREA":" ","LANE":" ","ALLEY":" ","HOUSE_NO":"２６８號","E_COORD97":169686.31,"N_COORD97":2543041.0699999998,"ADDRESS":"東門路一段２６８號","OBJECTID":475341},"geometry":{"x":169686.31000000052,"y":2543041.070000004}},{"attributes":{"ID":475367,"DIS_CODE":0,"TOWNNAME":"歸仁區","LI":"看西里","LIN":"18鄰","STREET":"成功五街","SECT":" ","MAREA":" ","LANE":" ","ALLEY":" ","HOUSE_NO":"６４號","E_COORD97":178370.06,"N_COORD97":2539899.3599999999,"ADDRESS":"成功五街６４號","OBJECTID":475342},"geometry":{"x":178370.06000000145,"y":2539899.3600000013}},{"attributes":{"ID":475368,"DIS_CODE":0,"TOWNNAME":"歸仁區","LI":"崙頂里","LIN":"18鄰","STREET":"大成一街","SECT":" ","MAREA":" ","LANE":" ","ALLEY":" ","HOUSE_NO":"１２１號","E_COORD97":177924.63,"N_COORD97":2540195.9100000001,"ADDRESS":"大成一街１２１號","OBJECTID":475343},"geometry":{"x":177924.63000000082,"y":2540195.9100000001}},{"attributes":{"ID":475369,"DIS_CODE":0,"TOWNNAME":"歸仁區","LI":"崙頂里","LIN":"18鄰","STREET":"大成一街","SECT":" ","MAREA":" ","LANE":" ","ALLEY":" ","HOUSE_NO":"４９號","E_COORD97":177881.67999999999,"N_COORD97":2540264.9100000001,"ADDRESS":"大成一街４９號","OBJECTID":475344},"geometry":{"x":177881.68000000063,"y":2540264.9099999983}},{"attributes":{"ID":475370,"DIS_CODE":0,"TOWNNAME":"歸仁區","LI":"南保里","LIN":"18鄰","STREET":"文化十街","SECT":" ","MAREA":" ","LANE":" ","ALLEY":" ","HOUSE_NO":"２３號","E_COORD97":176539.94,"N_COORD97":2541283.3300000001,"ADDRESS":"文化十街２３號","OBJECTID":475345},"geometry":{"x":176539.94000000134,"y":2541283.3300000019}},{"attributes":{"ID":475371,"DIS_CODE":0,"TOWNNAME":"歸仁區","LI":"南保里","LIN":"18鄰","STREET":"文化十街","SECT":" ","MAREA":" ","LANE":" ","ALLEY":" ","HOUSE_NO":"１５號","E_COORD97":176537.64000000001,"N_COORD97":2541249.3300000001,"ADDRESS":"文化十街１５號","OBJECTID":475346},"geometry":{"x":176537.6400000006,"y":2541249.3300000019}},{"attributes":{"ID":475372,"DIS_CODE":0,"TOWNNAME":"歸仁區","LI":"南興里","LIN":"18鄰","STREET":"南興一街","SECT":" ","MAREA":" ","LANE":" ","ALLEY":" ","HOUSE_NO":"５號","E_COORD97":175661.14000000001,"N_COORD97":2541343.25,"ADDRESS":"南興一街５號","OBJECTID":475347},"geometry":{"x":175661.1400000006,"y":2541343.25}},{"attributes":{"ID":475373,"DIS_CODE":0,"TOWNNAME":"新營區","LI":"南紙里","LIN":"18鄰","STREET":"太子路","SECT":" ","MAREA":" ","LANE":" ","ALLEY":" ","HOUSE_NO":"３２１號","E_COORD97":177153.07000000001,"N_COORD97":2577435.7999999998,"ADDRESS":"太子路３２１號","OBJECTID":475348},"geometry":{"x":177153.0700000003,"y":2577435.8000000026}},{"attributes":{"ID":475374,"DIS_CODE":0,"TOWNNAME":"新營區","LI":"南紙里","LIN":"18鄰","STREET":"太子路","SECT":" ","MAREA":" ","LANE":" ","ALLEY":" ","HOUSE_NO":"２８５號","E_COORD97":177525.42000000001,"N_COORD97":2577649.9300000002,"ADDRESS":"太子路２８５號","OBJECTID":475349},"geometry":{"x":177525.42000000179,"y":2577649.9299999978}},{"attributes":{"ID":475375,"DIS_CODE":0,"TOWNNAME":"新營區","LI":"新東里","LIN":"18鄰","STREET":"東興四街","SECT":" ","MAREA":" ","LANE":" ","ALLEY":" ","HOUSE_NO":"２６號","E_COORD97":180872.12,"N_COORD97":2579168.8599999999,"ADDRESS":"東興四街２６號","OBJECTID":475350},"geometry":{"x":180872.12000000011,"y":2579168.8599999994}},{"attributes":{"ID":475376,"DIS_CODE":0,"TOWNNAME":"新營區","LI":"南紙里","LIN":"18鄰","STREET":"南紙街","SECT":" ","MAREA":" ","LANE":" ","ALLEY":" ","HOUSE_NO":"８號","E_COORD97":177813.01000000001,"N_COORD97":2577773.6499999999,"ADDRESS":"南紙街８號","OBJECTID":475351},"geometry":{"x":177813.01000000071,"y":2577773.6500000004}},{"attributes":{"ID":475377,"DIS_CODE":0,"TOWNNAME":"新營區","LI":"新東里","LIN":"18鄰","STREET":"東興四街","SECT":" ","MAREA":" ","LANE":" ","ALLEY":" ","HOUSE_NO":"４１號","E_COORD97":180877.31,"N_COORD97":2579183.23,"ADDRESS":"東興四街４１號","OBJECTID":475352},"geometry":{"x":180877.31000000145,"y":2579183.2300000004}},{"attributes":{"ID":475378,"DIS_CODE":0,"TOWNNAME":"新營區","LI":"民生里","LIN":"18鄰","STREET":"進修街","SECT":" ","MAREA":" ","LANE":" ","ALLEY":" ","HOUSE_NO":"９之１３號","E_COORD97":178906.97,"N_COORD97":2578389.71,"ADDRESS":"進修街９之１３號","OBJECTID":475353},"geometry":{"x":178906.97000000067,"y":2578389.7100000028}},{"attributes":{"ID":475379,"DIS_CODE":0,"TOWNNAME":"新營區","LI":"忠政里","LIN":"18鄰","STREET":"中正路","SECT":" ","MAREA":" ","LANE":" ","ALLEY":" ","HOUSE_NO":"２２５號","E_COORD97":180064.34,"N_COORD97":2579821.6200000001,"ADDRESS":"中正路２２５號","OBJECTID":475354},"geometry":{"x":180064.34000000078,"y":2579821.6200000029}},{"attributes":{"ID":475380,"DIS_CODE":0,"TOWNNAME":"新營區","LI":"忠政里","LIN":"18鄰","STREET":"中正路","SECT":" ","MAREA":" ","LANE":" ","ALLEY":" ","HOUSE_NO":"２１１號","E_COORD97":180066.03,"N_COORD97":2579746.3100000001,"ADDRESS":"中正路２１１號","OBJECTID":475355},"geometry":{"x":180066.02999999933,"y":2579746.3100000005}},{"attributes":{"ID":475381,"DIS_CODE":0,"TOWNNAME":"新營區","LI":"忠政里","LIN":"18鄰","STREET":"中正路","SECT":" ","MAREA":" ","LANE":" ","ALLEY":" ","HOUSE_NO":"２２３號之５","E_COORD97":180020.54000000001,"N_COORD97":2579808.5899999999,"ADDRESS":"中正路２２３號之５","OBJECTID":475356},"geometry":{"x":180020.54000000097,"y":2579808.5899999999}},{"attributes":{"ID":475382,"DIS_CODE":0,"TOWNNAME":"新營區","LI":"忠政里","LIN":"18鄰","STREET":"中正路","SECT":" ","MAREA":" ","LANE":" ","ALLEY":" ","HOUSE_NO":"２２５號之５","E_COORD97":180011.39000000001,"N_COORD97":2579819.7200000002,"ADDRESS":"中正路２２５號之５","OBJECTID":475357},"geometry":{"x":180011.38999999966,"y":2579819.7200000025}},{"attributes":{"ID":475383,"DIS_CODE":0,"TOWNNAME":"新營區","LI":"南紙里","LIN":"18鄰","STREET":"南紙街","SECT":" ","MAREA":" ","LANE":" ","ALLEY":" ","HOUSE_NO":"１２號","E_COORD97":177811.07000000001,"N_COORD97":2577762.6000000001,"ADDRESS":"南紙街１２號","OBJECTID":475358},"geometry":{"x":177811.0700000003,"y":2577762.5999999996}},{"attributes":{"ID":475384,"DIS_CODE":0,"TOWNNAME":"新營區","LI":"南紙里","LIN":"18鄰","STREET":"南紙街","SECT":" ","MAREA":" ","LANE":" ","ALLEY":" ","HOUSE_NO":"６號","E_COORD97":177812.97,"N_COORD97":2577778.0800000001,"ADDRESS":"南紙街６號","OBJECTID":475359},"geometry":{"x":177812.96999999881,"y":2577778.0800000001}},{"attributes":{"ID":475385,"DIS_CODE":0,"TOWNNAME":"新營區","LI":"南紙里","LIN":"18鄰","STREET":"南紙街","SECT":" ","MAREA":" ","LANE":" ","ALLEY":" ","HOUSE_NO":"３６號","E_COORD97":177810.98999999999,"N_COORD97":2577728.27,"ADDRESS":"南紙街３６號","OBJECTID":475360},"geometry":{"x":177810.99000000022,"y":2577728.2699999996}},{"attributes":{"ID":475386,"DIS_CODE":0,"TOWNNAME":"新營區","LI":"南紙里","LIN":"18鄰","STREET":"太子路","SECT":" ","MAREA":" ","LANE":" ","ALLEY":" ","HOUSE_NO":"２２３號","E_COORD97":177752.04000000001,"N_COORD97":2577762.8900000001,"ADDRESS":"太子路２２３號","OBJECTID":475361},"geometry":{"x":177752.04000000097,"y":2577762.8900000006}},{"attributes":{"ID":475387,"DIS_CODE":0,"TOWNNAME":"新營區","LI":"南紙里","LIN":"18鄰","STREET":"太子路","SECT":" ","MAREA":" ","LANE":" ","ALLEY":" ","HOUSE_NO":"２２７號","E_COORD97":177743.84,"N_COORD97":2577759.6099999999,"ADDRESS":"太子路２２７號","OBJECTID":475362},"geometry":{"x":177743.83999999985,"y":2577759.6099999994}},{"attributes":{"ID":475388,"DIS_CODE":0,"TOWNNAME":"新營區","LI":"南紙里","LIN":"18鄰","STREET":"太子路","SECT":" ","MAREA":" ","LANE":" ","ALLEY":" ","HOUSE_NO":"２９９號","E_COORD97":177505.85999999999,"N_COORD97":2577624.5600000001,"ADDRESS":"太子路２９９號","OBJECTID":475363},"geometry":{"x":177505.8599999994,"y":2577624.5600000024}},{"attributes":{"ID":475389,"DIS_CODE":0,"TOWNNAME":"新營區","LI":"新北里","LIN":"18鄰","STREET":"金華路","SECT":"二段","MAREA":" ","LANE":" ","ALLEY":" ","HOUSE_NO":"９號","E_COORD97":178971.76999999999,"N_COORD97":2579031.6699999999,"ADDRESS":"金華路二段９號","OBJECTID":475364},"geometry":{"x":178971.76999999955,"y":2579031.6699999999}},{"attributes":{"ID":475390,"DIS_CODE":0,"TOWNNAME":"新營區","LI":"忠政里","LIN":"18鄰","STREET":"中正路","SECT":" ","MAREA":" ","LANE":" ","ALLEY":" ","HOUSE_NO":"２２１號","E_COORD97":180065.22,"N_COORD97":2579792.8300000001,"ADDRESS":"中正路２２１號","OBJECTID":475365},"geometry":{"x":180065.21999999974,"y":2579792.8300000001}},{"attributes":{"ID":475391,"DIS_CODE":0,"TOWNNAME":"新營區","LI":"民生里","LIN":"18鄰","STREET":"進修街","SECT":" ","MAREA":" ","LANE":" ","ALLEY":" ","HOUSE_NO":"９之７號","E_COORD97":178916.82999999999,"N_COORD97":2578359.7599999998,"ADDRESS":"進修街９之７號","OBJECTID":475366},"geometry":{"x":178916.83000000101,"y":2578359.7599999979}},{"attributes":{"ID":475392,"DIS_CODE":0,"TOWNNAME":"新營區","LI":"忠政里","LIN":"18鄰","STREET":"中正路","SECT":" ","MAREA":" ","LANE":" ","ALLEY":" ","HOUSE_NO":"２０９之２號","E_COORD97":180069.51000000001,"N_COORD97":2579737.4900000002,"ADDRESS":"中正路２０９之２號","OBJECTID":475367},"geometry":{"x":180069.51000000071,"y":2579737.4900000002}},{"attributes":{"ID":475393,"DIS_CODE":0,"TOWNNAME":"新營區","LI":"永生里","LIN":"18鄰","STREET":"康樂街","SECT":" ","MAREA":" ","LANE":" ","ALLEY":" ","HOUSE_NO":"２１號","E_COORD97":179928.07999999999,"N_COORD97":2577875.3599999999,"ADDRESS":"康樂街２１號","OBJECTID":475368},"geometry":{"x":179928.08000000007,"y":2577875.3600000013}},{"attributes":{"ID":475394,"DIS_CODE":0,"TOWNNAME":"歸仁區","LI":"後市里","LIN":"18鄰","STREET":"中山路","SECT":"二段","MAREA":" ","LANE":" ","ALLEY":" ","HOUSE_NO":"５０號","E_COORD97":177467.42000000001,"N_COORD97":2540808.25,"ADDRESS":"中山路二段５０號","OBJECTID":475369},"geometry":{"x":177467.41999999993,"y":2540808.2499999981}},{"attributes":{"ID":475395,"DIS_CODE":0,"TOWNNAME":"歸仁區","LI":"後市里","LIN":"18鄰","STREET":"中山路","SECT":"二段","MAREA":" ","LANE":" ","ALLEY":" ","HOUSE_NO":"３０號","E_COORD97":177517.62,"N_COORD97":2540801.25,"ADDRESS":"中山路二段３０號","OBJECTID":475370},"geometry":{"x":177517.62000000197,"y":2540801.25}},{"attributes":{"ID":475396,"DIS_CODE":0,"TOWNNAME":"歸仁區","LI":"大廟里","LIN":"18鄰","STREET":"保大路","SECT":"三段","MAREA":" ","LANE":" ","ALLEY":" ","HOUSE_NO":"２０６號","E_COORD97":175894.26999999999,"N_COORD97":2544171.2799999998,"ADDRESS":"保大路三段２０６號","OBJECTID":475371},"geometry":{"x":175894.27000000048,"y":2544171.2800000012}},{"attributes":{"ID":475397,"DIS_CODE":0,"TOWNNAME":"關廟區","LI":"北花里","LIN":"18鄰","STREET":"中正路","SECT":" ","MAREA":" ","LANE":" ","ALLEY":" ","HOUSE_NO":"５４６號","E_COORD97":182155.26000000001,"N_COORD97":2540450.25,"ADDRESS":"中正路５４６號","OBJECTID":475372},"geometry":{"x":182155.25999999978,"y":2540450.2500000019}},{"attributes":{"ID":475398,"DIS_CODE":0,"TOWNNAME":"關廟區","LI":"山西里","LIN":"18鄰","STREET":"崇明街","SECT":" ","MAREA":" ","LANE":" ","ALLEY":" ","HOUSE_NO":"３１號","E_COORD97":181001.82000000001,"N_COORD97":2540715.25,"ADDRESS":"崇明街３１號","OBJECTID":475373},"geometry":{"x":181001.82000000123,"y":2540715.25}},{"attributes":{"ID":475399,"DIS_CODE":0,"TOWNNAME":"關廟區","LI":"北花里","LIN":"18鄰","STREET":"中正路","SECT":" ","MAREA":" ","LANE":" ","ALLEY":" ","HOUSE_NO":"５６３號","E_COORD97":182289.95999999999,"N_COORD97":2540449.25,"ADDRESS":"中正路５６３號","OBJECTID":475374},"geometry":{"x":182289.95999999996,"y":2540449.2500000037}},{"attributes":{"ID":475400,"DIS_CODE":0,"TOWNNAME":"關廟區","LI":"東勢里","LIN":"18鄰","STREET":"東德街","SECT":" ","MAREA":" ","LANE":" ","ALLEY":" ","HOUSE_NO":"６１號","E_COORD97":181928.82000000001,"N_COORD97":2539275.27,"ADDRESS":"東德街６１號","OBJECTID":475375},"geometry":{"x":181928.81999999937,"y":2539275.2699999977}},{"attributes":{"ID":475401,"DIS_CODE":0,"TOWNNAME":"關廟區","LI":"山西里","LIN":"18鄰","STREET":"崇明街","SECT":" ","MAREA":" ","LANE":" ","ALLEY":" ","HOUSE_NO":"３５號","E_COORD97":180993.01999999999,"N_COORD97":2540730.25,"ADDRESS":"崇明街３５號","OBJECTID":475376},"geometry":{"x":180993.02000000048,"y":2540730.2499999981}},{"attributes":{"ID":475402,"DIS_CODE":0,"TOWNNAME":"關廟區","LI":"東勢里","LIN":"18鄰","STREET":"東德街","SECT":" ","MAREA":" ","LANE":" ","ALLEY":" ","HOUSE_NO":"７９號","E_COORD97":181898.42000000001,"N_COORD97":2539250.27,"ADDRESS":"東德街７９號","OBJECTID":475377},"geometry":{"x":181898.41999999993,"y":2539250.2699999996}},{"attributes":{"ID":475403,"DIS_CODE":0,"TOWNNAME":"北區","LI":"成德里","LIN":"18鄰","STREET":"育成路","SECT":" ","MAREA":" ","LANE":" ","ALLEY":" ","HOUSE_NO":"８３號","E_COORD97":168893.45000000001,"N_COORD97":2546393.6099999999,"ADDRESS":"育成路８３號","OBJECTID":475378},"geometry":{"x":168893.45000000019,"y":2546393.6100000013}},{"attributes":{"ID":475404,"DIS_CODE":0,"TOWNNAME":"南區","LI":"彰南里","LIN":"18鄰","STREET":"新和路","SECT":" ","MAREA":" ","LANE":" ","ALLEY":" ","HOUSE_NO":"１９號之１","E_COORD97":165877.01999999999,"N_COORD97":2540888.1000000001,"ADDRESS":"新和路１９號之１","OBJECTID":475379},"geometry":{"x":165877.02000000048,"y":2540888.1000000015}},{"attributes":{"ID":475405,"DIS_CODE":0,"TOWNNAME":"南區","LI":"文南里","LIN":"18鄰","STREET":"健康路","SECT":"二段","MAREA":" ","LANE":" ","ALLEY":" ","HOUSE_NO":"４１６號","E_COORD97":166576.26000000001,"N_COORD97":2542544.8199999998,"ADDRESS":"健康路二段４１６號","OBJECTID":475380},"geometry":{"x":166576.26000000071,"y":2542544.8200000022}},{"attributes":{"ID":475406,"DIS_CODE":0,"TOWNNAME":"南區","LI":"文南里","LIN":"18鄰","STREET":"健康路","SECT":"二段","MAREA":" ","LANE":" ","ALLEY":" ","HOUSE_NO":"３６６號","E_COORD97":166692.45999999999,"N_COORD97":2542531.48,"ADDRESS":"健康路二段３６６號","OBJECTID":475381},"geometry":{"x":166692.45999999996,"y":2542531.4800000004}},{"attributes":{"ID":475407,"DIS_CODE":0,"TOWNNAME":"安平區","LI":"西門里","LIN":"18鄰","STREET":"安北路","SECT":" ","MAREA":" ","LANE":" ","ALLEY":" ","HOUSE_NO":"４３０號","E_COORD97":163124.35999999999,"N_COORD97":2544509.0099999998,"ADDRESS":"安北路４３０號","OBJECTID":475382},"geometry":{"x":163124.36000000127,"y":2544509.0100000035}},{"attributes":{"ID":475408,"DIS_CODE":0,"TOWNNAME":"安平區","LI":"西門里","LIN":"18鄰","STREET":"安北路","SECT":" ","MAREA":" ","LANE":" ","ALLEY":" ","HOUSE_NO":"４３２號","E_COORD97":163120.32999999999,"N_COORD97":2544508.1299999999,"ADDRESS":"安北路４３２號","OBJECTID":475383},"geometry":{"x":163120.33000000007,"y":2544508.1300000008}},{"attributes":{"ID":475409,"DIS_CODE":0,"TOWNNAME":"安平區","LI":"西門里","LIN":"18鄰","STREET":"安北路","SECT":" ","MAREA":" ","LANE":" ","ALLEY":" ","HOUSE_NO":"４３４號","E_COORD97":163116.14000000001,"N_COORD97":2544507.1600000001,"ADDRESS":"安北路４３４號","OBJECTID":475384},"geometry":{"x":163116.13999999873,"y":2544507.1600000001}},{"attributes":{"ID":475410,"DIS_CODE":0,"TOWNNAME":"安平區","LI":"西門里","LIN":"18鄰","STREET":"安北路","SECT":" ","MAREA":" ","LANE":" ","ALLEY":" ","HOUSE_NO":"４３６號","E_COORD97":163112.26999999999,"N_COORD97":2544505.3900000001,"ADDRESS":"安北路４３６號","OBJECTID":475385},"geometry":{"x":163112.27000000048,"y":2544505.3900000006}},{"attributes":{"ID":475411,"DIS_CODE":0,"TOWNNAME":"安平區","LI":"西門里","LIN":"18鄰","STREET":"安北路","SECT":" ","MAREA":" ","LANE":" ","ALLEY":" ","HOUSE_NO":"４３８號","E_COORD97":163108,"N_COORD97":2544503.9399999999,"ADDRESS":"安北路４３８號","OBJECTID":475386},"geometry":{"x":163108.00000000093,"y":2544503.9399999995}},{"attributes":{"ID":475412,"DIS_CODE":0,"TOWNNAME":"安平區","LI":"海頭里","LIN":"18鄰","STREET":"古堡街","SECT":" ","MAREA":" ","LANE":" ","ALLEY":" ","HOUSE_NO":"１２０號","E_COORD97":163809.14999999999,"N_COORD97":2544899.5699999998,"ADDRESS":"古堡街１２０號","OBJECTID":475387},"geometry":{"x":163809.1500000013,"y":2544899.5700000022}},{"attributes":{"ID":475413,"DIS_CODE":0,"TOWNNAME":"安平區","LI":"海頭里","LIN":"18鄰","STREET":"古堡街","SECT":" ","MAREA":" ","LANE":" ","ALLEY":" ","HOUSE_NO":"１２０之１０號","E_COORD97":163791.64999999999,"N_COORD97":2544932.6899999999,"ADDRESS":"古堡街１２０之１０號","OBJECTID":475388},"geometry":{"x":163791.65000000224,"y":2544932.6900000013}},{"attributes":{"ID":475414,"DIS_CODE":0,"TOWNNAME":"安平區","LI":"平通里","LIN":"18鄰","STREET":"國平路","SECT":" ","MAREA":" ","LANE":" ","ALLEY":" ","HOUSE_NO":"２９５號","E_COORD97":164981.76000000001,"N_COORD97":2543575.23,"ADDRESS":"國平路２９５號","OBJECTID":475389},"geometry":{"x":164981.75999999978,"y":2543575.2300000004}},{"attributes":{"ID":475415,"DIS_CODE":0,"TOWNNAME":"安平區","LI":"平通里","LIN":"18鄰","STREET":"永華路","SECT":"二段","MAREA":" ","LANE":" ","ALLEY":" ","HOUSE_NO":"７６８號","E_COORD97":164973.92000000001,"N_COORD97":2543571.1800000002,"ADDRESS":"永華路二段７６８號","OBJECTID":475390},"geometry":{"x":164973.91999999993,"y":2543571.1799999997}},{"attributes":{"ID":475416,"DIS_CODE":0,"TOWNNAME":"安平區","LI":"海頭里","LIN":"18鄰","STREET":"古堡街","SECT":" ","MAREA":" ","LANE":" ","ALLEY":" ","HOUSE_NO":"１０６號","E_COORD97":163881.85999999999,"N_COORD97":2544901.4300000002,"ADDRESS":"古堡街１０６號","OBJECTID":475391},"geometry":{"x":163881.86000000127,"y":2544901.4299999997}},{"attributes":{"ID":475417,"DIS_CODE":0,"TOWNNAME":"鹽水區","LI":"橋南里","LIN":"18鄰","STREET":"治水路","SECT":" ","MAREA":" ","LANE":" ","ALLEY":" ","HOUSE_NO":"２５４之１號","E_COORD97":174670.04999999999,"N_COORD97":2579715.6400000001,"ADDRESS":"治水路２５４之１號","OBJECTID":475392},"geometry":{"x":174670.05000000075,"y":2579715.6400000025}},{"attributes":{"ID":475418,"DIS_CODE":0,"TOWNNAME":"鹽水區","LI":"橋南里","LIN":"18鄰","STREET":"治水路","SECT":" ","MAREA":" ","LANE":" ","ALLEY":" ","HOUSE_NO":"２５６號","E_COORD97":174617.39000000001,"N_COORD97":2579753.6000000001,"ADDRESS":"治水路２５６號","OBJECTID":475393},"geometry":{"x":174617.38999999966,"y":2579753.5999999996}},{"attributes":{"ID":475419,"DIS_CODE":0,"TOWNNAME":"北區","LI":"成德里","LIN":"18鄰","STREET":"育成路","SECT":" ","MAREA":" ","LANE":" ","ALLEY":" ","HOUSE_NO":"９５號","E_COORD97":168810.72,"N_COORD97":2546420.3799999999,"ADDRESS":"育成路９５號","OBJECTID":475394},"geometry":{"x":168810.72000000067,"y":2546420.379999999}},{"attributes":{"ID":475420,"DIS_CODE":0,"TOWNNAME":"北區","LI":"成德里","LIN":"18鄰","STREET":"文成三路","SECT":" ","MAREA":" ","LANE":" ","ALLEY":" ","HOUSE_NO":"１２８號","E_COORD97":168794.67999999999,"N_COORD97":2546366.0099999998,"ADDRESS":"文成三路１２８號","OBJECTID":475395},"geometry":{"x":168794.6799999997,"y":2546366.0099999998}},{"attributes":{"ID":475421,"DIS_CODE":0,"TOWNNAME":"北區","LI":"成德里","LIN":"18鄰","STREET":"育德路","SECT":" ","MAREA":" ","LANE":" ","ALLEY":" ","HOUSE_NO":"６５０號","E_COORD97":168768.17000000001,"N_COORD97":2546379.5,"ADDRESS":"育德路６５０號","OBJECTID":475396},"geometry":{"x":168768.17000000179,"y":2546379.5}},{"attributes":{"ID":475422,"DIS_CODE":0,"TOWNNAME":"北區","LI":"成德里","LIN":"18鄰","STREET":"育德路","SECT":" ","MAREA":" ","LANE":" ","ALLEY":" ","HOUSE_NO":"６５２號","E_COORD97":168770.07999999999,"N_COORD97":2546383.8700000001,"ADDRESS":"育德路６５２號","OBJECTID":475397},"geometry":{"x":168770.08000000007,"y":2546383.8700000029}},{"attributes":{"ID":475423,"DIS_CODE":0,"TOWNNAME":"北區","LI":"成德里","LIN":"18鄰","STREET":"育德路","SECT":" ","MAREA":" ","LANE":" ","ALLEY":" ","HOUSE_NO":"６５６號","E_COORD97":168771.82000000001,"N_COORD97":2546388.6299999999,"ADDRESS":"育德路６５６號","OBJECTID":475398},"geometry":{"x":168771.8200000003,"y":2546388.6300000027}},{"attributes":{"ID":475424,"DIS_CODE":0,"TOWNNAME":"北區","LI":"成德里","LIN":"18鄰","STREET":"育德路","SECT":" ","MAREA":" ","LANE":" ","ALLEY":" ","HOUSE_NO":"６５８號","E_COORD97":168773.89000000001,"N_COORD97":2546393.23,"ADDRESS":"育德路６５８號","OBJECTID":475399},"geometry":{"x":168773.8900000006,"y":2546393.2300000042}},{"attributes":{"ID":475425,"DIS_CODE":0,"TOWNNAME":"北區","LI":"成德里","LIN":"18鄰","STREET":"育德路","SECT":" ","MAREA":" ","LANE":" ","ALLEY":" ","HOUSE_NO":"６６０號","E_COORD97":168776.10999999999,"N_COORD97":2546397.52,"ADDRESS":"育德路６６０號","OBJECTID":475400},"geometry":{"x":168776.11000000127,"y":2546397.5200000014}}]}