{"displayFieldName":"TOWNNAME","fieldAliases":{"ID":"ID","DIS_CODE":"DIS_CODE","TOWNNAME":"TOWNNAME","LI":"LI","LIN":"LIN","STREET":"STREET","SECT":"SECT","MAREA":"MAREA","LANE":"LANE","ALLEY":"ALLEY","HOUSE_NO":"HOUSE_NO","E_COORD97":"E_COORD97","N_COORD97":"N_COORD97","ADDRESS":"ADDRESS","OBJECTID":"OBJECTID"},"geometryType":"esriGeometryPoint","spatialReference":{"wkid":102443,"latestWkid":3826},"fields":[{"name":"ID","type":"esriFieldTypeDouble","alias":"ID"},{"name":"DIS_CODE","type":"esriFieldTypeInteger","alias":"DIS_CODE"},{"name":"TOWNNAME","type":"esriFieldTypeString","alias":"TOWNNAME","length":8},{"name":"LI","type":"esriFieldTypeString","alias":"LI","length":8},{"name":"LIN","type":"esriFieldTypeString","alias":"LIN","length":12},{"name":"STREET","type":"esriFieldTypeString","alias":"STREET","length":20},{"name":"SECT","type":"esriFieldTypeString","alias":"SECT","length":8},{"name":"MAREA","type":"esriFieldTypeString","alias":"MAREA","length":12},{"name":"LANE","type":"esriFieldTypeString","alias":"LANE","length":10},{"name":"ALLEY","type":"esriFieldTypeString","alias":"ALLEY","length":10},{"name":"HOUSE_NO","type":"esriFieldTypeString","alias":"HOUSE_NO","length":20},{"name":"E_COORD97","type":"esriFieldTypeDouble","alias":"E_COORD97"},{"name":"N_COORD97","type":"esriFieldTypeDouble","alias":"N_COORD97"},{"name":"ADDRESS","type":"esriFieldTypeString","alias":"ADDRESS","length":50},{"name":"OBJECTID","type":"esriFieldTypeOID","alias":"OBJECTID"}],"features":[{"attributes":{"ID":340610,"DIS_CODE":0,"TOWNNAME":"將軍區","LI":"仁和里","LIN":"18鄰","STREET":" ","SECT":" ","MAREA":"和巷","LANE":" ","ALLEY":" ","HOUSE_NO":"６３號","E_COORD97":163930.22,"N_COORD97":2569328.48,"ADDRESS":"和巷６３號","OBJECTID":340601},"geometry":{"x":163930.22000000067,"y":2569328.4800000023}},{"attributes":{"ID":340611,"DIS_CODE":0,"TOWNNAME":"安平區","LI":"國平里","LIN":"1鄰","STREET":"建平七街","SECT":" ","MAREA":" ","LANE":"３７０巷","ALLEY":" ","HOUSE_NO":"２號","E_COORD97":165704.09,"N_COORD97":2543334.1099999999,"ADDRESS":"建平七街３７０巷２號","OBJECTID":340602},"geometry":{"x":165704.09000000078,"y":2543334.1099999994}},{"attributes":{"ID":340612,"DIS_CODE":0,"TOWNNAME":"楠西區","LI":"照興里","LIN":"5鄰","STREET":" ","SECT":" ","MAREA":"興北","LANE":" ","ALLEY":" ","HOUSE_NO":"５５號","E_COORD97":197793.37,"N_COORD97":2567005.25,"ADDRESS":"興北５５號","OBJECTID":340603},"geometry":{"x":197793.37000000011,"y":2567005.25}},{"attributes":{"ID":340613,"DIS_CODE":0,"TOWNNAME":"安平區","LI":"西門里","LIN":"1鄰","STREET":"國勝路","SECT":" ","MAREA":" ","LANE":"３１巷","ALLEY":" ","HOUSE_NO":"４號之２","E_COORD97":163922.60999999999,"N_COORD97":2544584.6899999999,"ADDRESS":"國勝路３１巷４號之２","OBJECTID":340604},"geometry":{"x":163922.61000000127,"y":2544584.6899999995}},{"attributes":{"ID":340614,"DIS_CODE":0,"TOWNNAME":"安平區","LI":"西門里","LIN":"1鄰","STREET":"國勝路","SECT":" ","MAREA":" ","LANE":"３１巷","ALLEY":" ","HOUSE_NO":"４號之１","E_COORD97":163923.04999999999,"N_COORD97":2544580.7999999998,"ADDRESS":"國勝路３１巷４號之１","OBJECTID":340605},"geometry":{"x":163923.05000000075,"y":2544580.8000000007}},{"attributes":{"ID":340615,"DIS_CODE":0,"TOWNNAME":"安平區","LI":"金城里","LIN":"1鄰","STREET":"國勝路","SECT":" ","MAREA":" ","LANE":"３１巷","ALLEY":" ","HOUSE_NO":"１號","E_COORD97":163973.16,"N_COORD97":2544505.79,"ADDRESS":"國勝路３１巷１號","OBJECTID":340606},"geometry":{"x":163973.16000000108,"y":2544505.7899999991}},{"attributes":{"ID":340616,"DIS_CODE":0,"TOWNNAME":"安平區","LI":"億載里","LIN":"1鄰","STREET":"平豐路","SECT":" ","MAREA":" ","LANE":"３９１巷","ALLEY":" ","HOUSE_NO":"５７號","E_COORD97":164106.53,"N_COORD97":2543796.6400000001,"ADDRESS":"平豐路３９１巷５７號","OBJECTID":340607},"geometry":{"x":164106.53000000119,"y":2543796.6400000043}},{"attributes":{"ID":340617,"DIS_CODE":0,"TOWNNAME":"歸仁區","LI":"看東里","LIN":"1鄰","STREET":"忠孝南路","SECT":" ","MAREA":" ","LANE":"６０巷","ALLEY":" ","HOUSE_NO":"３５號","E_COORD97":178428.35000000001,"N_COORD97":2540518.6699999999,"ADDRESS":"忠孝南路６０巷３５號","OBJECTID":340608},"geometry":{"x":178428.34999999963,"y":2540518.6700000018}},{"attributes":{"ID":340618,"DIS_CODE":0,"TOWNNAME":"歸仁區","LI":"看東里","LIN":"1鄰","STREET":"忠孝南路","SECT":" ","MAREA":" ","LANE":"６０巷","ALLEY":" ","HOUSE_NO":"３０號","E_COORD97":178427.45000000001,"N_COORD97":2540531.6699999999,"ADDRESS":"忠孝南路６０巷３０號","OBJECTID":340609},"geometry":{"x":178427.45000000205,"y":2540531.6700000018}},{"attributes":{"ID":340619,"DIS_CODE":0,"TOWNNAME":"歸仁區","LI":"崙頂里","LIN":"1鄰","STREET":"信義南路","SECT":" ","MAREA":" ","LANE":"２２１巷","ALLEY":" ","HOUSE_NO":"１２號","E_COORD97":178209.14999999999,"N_COORD97":2540031.6800000002,"ADDRESS":"信義南路２２１巷１２號","OBJECTID":340610},"geometry":{"x":178209.15000000224,"y":2540031.6799999997}},{"attributes":{"ID":340620,"DIS_CODE":0,"TOWNNAME":"歸仁區","LI":"崙頂里","LIN":"1鄰","STREET":"信義南路","SECT":" ","MAREA":" ","LANE":"２２１巷","ALLEY":" ","HOUSE_NO":"６號","E_COORD97":178191.5,"N_COORD97":2540035.6800000002,"ADDRESS":"信義南路２２１巷６號","OBJECTID":340611},"geometry":{"x":178191.50000000093,"y":2540035.6800000034}},{"attributes":{"ID":340621,"DIS_CODE":0,"TOWNNAME":"歸仁區","LI":"南保里","LIN":"1鄰","STREET":"民權二街","SECT":" ","MAREA":" ","LANE":"２巷","ALLEY":" ","HOUSE_NO":"２１號","E_COORD97":176981.41,"N_COORD97":2541452.25,"ADDRESS":"民權二街２巷２１號","OBJECTID":340612},"geometry":{"x":176981.41000000015,"y":2541452.25}},{"attributes":{"ID":340622,"DIS_CODE":0,"TOWNNAME":"歸仁區","LI":"南保里","LIN":"1鄰","STREET":"民權北路","SECT":" ","MAREA":" ","LANE":"２６７巷","ALLEY":" ","HOUSE_NO":"１０號","E_COORD97":176942.10999999999,"N_COORD97":2541501.25,"ADDRESS":"民權北路２６７巷１０號","OBJECTID":340613},"geometry":{"x":176942.11000000127,"y":2541501.2500000019}},{"attributes":{"ID":340623,"DIS_CODE":0,"TOWNNAME":"歸仁區","LI":"南保里","LIN":"1鄰","STREET":"民權二街","SECT":" ","MAREA":" ","LANE":"２巷","ALLEY":" ","HOUSE_NO":"１７號","E_COORD97":176982.31,"N_COORD97":2541439.25,"ADDRESS":"民權二街２巷１７號","OBJECTID":340614},"geometry":{"x":176982.31000000052,"y":2541439.2500000037}},{"attributes":{"ID":340624,"DIS_CODE":0,"TOWNNAME":"楠西區","LI":"灣丘里","LIN":"5鄰","STREET":" ","SECT":" ","MAREA":"灣丘","LANE":" ","ALLEY":" ","HOUSE_NO":"５１號之４","E_COORD97":200521.82999999999,"N_COORD97":2564197.2999999998,"ADDRESS":"灣丘５１號之４","OBJECTID":340615},"geometry":{"x":200521.83000000101,"y":2564197.3000000026}},{"attributes":{"ID":340625,"DIS_CODE":0,"TOWNNAME":"歸仁區","LI":"南保里","LIN":"1鄰","STREET":"民權二街","SECT":" ","MAREA":" ","LANE":"２巷","ALLEY":" ","HOUSE_NO":"１５號","E_COORD97":176981.20999999999,"N_COORD97":2541429.25,"ADDRESS":"民權二街２巷１５號","OBJECTID":340616},"geometry":{"x":176981.21000000089,"y":2541429.2500000019}},{"attributes":{"ID":340626,"DIS_CODE":0,"TOWNNAME":"歸仁區","LI":"崙頂里","LIN":"1鄰","STREET":"信義南路","SECT":" ","MAREA":" ","LANE":"２２１巷","ALLEY":" ","HOUSE_NO":"２６號","E_COORD97":178221.45000000001,"N_COORD97":2540033.6699999999,"ADDRESS":"信義南路２２１巷２６號","OBJECTID":340617},"geometry":{"x":178221.45000000019,"y":2540033.6700000018}},{"attributes":{"ID":340627,"DIS_CODE":0,"TOWNNAME":"新營區","LI":"民權里","LIN":"24鄰","STREET":"民治路","SECT":" ","MAREA":" ","LANE":"５３巷","ALLEY":" ","HOUSE_NO":"９號之２","E_COORD97":179693.59,"N_COORD97":2578709.3300000001,"ADDRESS":"民治路５３巷９號之２","OBJECTID":340618},"geometry":{"x":179693.58999999985,"y":2578709.3300000019}},{"attributes":{"ID":340628,"DIS_CODE":0,"TOWNNAME":"新營區","LI":"忠政里","LIN":"17鄰","STREET":"府西路","SECT":" ","MAREA":" ","LANE":"２５８巷","ALLEY":" ","HOUSE_NO":"５號","E_COORD97":179805.70000000001,"N_COORD97":2579738.6699999999,"ADDRESS":"府西路２５８巷５號","OBJECTID":340619},"geometry":{"x":179805.70000000112,"y":2579738.6700000018}},{"attributes":{"ID":340629,"DIS_CODE":0,"TOWNNAME":"歸仁區","LI":"看東里","LIN":"1鄰","STREET":"忠孝南路","SECT":" ","MAREA":" ","LANE":"６０巷","ALLEY":" ","HOUSE_NO":"２５號","E_COORD97":178442.64999999999,"N_COORD97":2540499.6699999999,"ADDRESS":"忠孝南路６０巷２５號","OBJECTID":340620},"geometry":{"x":178442.65000000037,"y":2540499.6699999999}},{"attributes":{"ID":340630,"DIS_CODE":0,"TOWNNAME":"楠西區","LI":"照興里","LIN":"5鄰","STREET":" ","SECT":" ","MAREA":"興北","LANE":" ","ALLEY":" ","HOUSE_NO":"７１號之１","E_COORD97":198179.60000000001,"N_COORD97":2566667.2999999998,"ADDRESS":"興北７１號之１","OBJECTID":340621},"geometry":{"x":198179.59999999963,"y":2566667.3000000045}},{"attributes":{"ID":340631,"DIS_CODE":0,"TOWNNAME":"楠西區","LI":"照興里","LIN":"5鄰","STREET":" ","SECT":" ","MAREA":"興北","LANE":" ","ALLEY":" ","HOUSE_NO":"５４號之５","E_COORD97":197435.76000000001,"N_COORD97":2567217.2999999998,"ADDRESS":"興北５４號之５","OBJECTID":340622},"geometry":{"x":197435.75999999978,"y":2567217.3000000026}},{"attributes":{"ID":340632,"DIS_CODE":0,"TOWNNAME":"柳營區","LI":"八翁里","LIN":"5鄰","STREET":" ","SECT":" ","MAREA":"八老爺","LANE":" ","ALLEY":" ","HOUSE_NO":"４０之２號","E_COORD97":178124.47,"N_COORD97":2574926.4199999999,"ADDRESS":"八老爺４０之２號","OBJECTID":340623},"geometry":{"x":178124.46999999974,"y":2574926.4199999999}},{"attributes":{"ID":340633,"DIS_CODE":0,"TOWNNAME":"柳營區","LI":"八翁里","LIN":"5鄰","STREET":" ","SECT":" ","MAREA":"八老爺","LANE":" ","ALLEY":" ","HOUSE_NO":"４１號","E_COORD97":178150.59,"N_COORD97":2574866.3799999999,"ADDRESS":"八老爺４１號","OBJECTID":340624},"geometry":{"x":178150.58999999985,"y":2574866.3800000027}},{"attributes":{"ID":340634,"DIS_CODE":0,"TOWNNAME":"柳營區","LI":"八翁里","LIN":"5鄰","STREET":" ","SECT":" ","MAREA":"八老爺","LANE":" ","ALLEY":" ","HOUSE_NO":"４２之３號","E_COORD97":178070.92000000001,"N_COORD97":2574882.79,"ADDRESS":"八老爺４２之３號","OBJECTID":340625},"geometry":{"x":178070.91999999993,"y":2574882.7899999991}},{"attributes":{"ID":340635,"DIS_CODE":0,"TOWNNAME":"柳營區","LI":"八翁里","LIN":"5鄰","STREET":" ","SECT":" ","MAREA":"八老爺","LANE":" ","ALLEY":" ","HOUSE_NO":"４２號之３","E_COORD97":178070.92000000001,"N_COORD97":2574882.79,"ADDRESS":"八老爺４２號之３","OBJECTID":340626},"geometry":{"x":178070.91999999993,"y":2574882.7899999991}},{"attributes":{"ID":340636,"DIS_CODE":0,"TOWNNAME":"柳營區","LI":"八翁里","LIN":"5鄰","STREET":" ","SECT":" ","MAREA":"八老爺","LANE":" ","ALLEY":" ","HOUSE_NO":"４２之５號","E_COORD97":178074.54999999999,"N_COORD97":2574869.5899999999,"ADDRESS":"八老爺４２之５號","OBJECTID":340627},"geometry":{"x":178074.54999999981,"y":2574869.5900000017}},{"attributes":{"ID":340637,"DIS_CODE":0,"TOWNNAME":"柳營區","LI":"八翁里","LIN":"5鄰","STREET":" ","SECT":" ","MAREA":"八老爺","LANE":" ","ALLEY":" ","HOUSE_NO":"４２號之５","E_COORD97":178074.54999999999,"N_COORD97":2574869.5899999999,"ADDRESS":"八老爺４２號之５","OBJECTID":340628},"geometry":{"x":178074.54999999981,"y":2574869.5900000017}},{"attributes":{"ID":340638,"DIS_CODE":0,"TOWNNAME":"歸仁區","LI":"崙頂里","LIN":"1鄰","STREET":"信義南路","SECT":" ","MAREA":" ","LANE":"２２１巷","ALLEY":" ","HOUSE_NO":"３２號","E_COORD97":178231.75,"N_COORD97":2540027.6800000002,"ADDRESS":"信義南路２２１巷３２號","OBJECTID":340629},"geometry":{"x":178231.74999999907,"y":2540027.6799999997}},{"attributes":{"ID":340639,"DIS_CODE":0,"TOWNNAME":"歸仁區","LI":"南保里","LIN":"1鄰","STREET":"民權二街","SECT":" ","MAREA":" ","LANE":"２巷","ALLEY":" ","HOUSE_NO":"１３號","E_COORD97":176981.20999999999,"N_COORD97":2541425.25,"ADDRESS":"民權二街２巷１３號","OBJECTID":340630},"geometry":{"x":176981.21000000089,"y":2541425.2499999981}},{"attributes":{"ID":340640,"DIS_CODE":0,"TOWNNAME":"北區","LI":"大豐里","LIN":"1鄰","STREET":"武聖路","SECT":" ","MAREA":" ","LANE":"８巷","ALLEY":" ","HOUSE_NO":"８號","E_COORD97":167295.13,"N_COORD97":2545144.5299999998,"ADDRESS":"武聖路８巷８號","OBJECTID":340631},"geometry":{"x":167295.12999999896,"y":2545144.5299999993}},{"attributes":{"ID":340641,"DIS_CODE":0,"TOWNNAME":"北區","LI":"大豐里","LIN":"1鄰","STREET":"武聖路","SECT":" ","MAREA":" ","LANE":"８巷","ALLEY":" ","HOUSE_NO":"１０號","E_COORD97":167299.76999999999,"N_COORD97":2545143.4399999999,"ADDRESS":"武聖路８巷１０號","OBJECTID":340632},"geometry":{"x":167299.77000000048,"y":2545143.4400000013}},{"attributes":{"ID":340642,"DIS_CODE":0,"TOWNNAME":"北區","LI":"大豐里","LIN":"1鄰","STREET":"武聖路","SECT":" ","MAREA":" ","LANE":"８巷","ALLEY":" ","HOUSE_NO":"１２號","E_COORD97":167296.09,"N_COORD97":2545155.2999999998,"ADDRESS":"武聖路８巷１２號","OBJECTID":340633},"geometry":{"x":167296.09000000078,"y":2545155.3000000045}},{"attributes":{"ID":340643,"DIS_CODE":0,"TOWNNAME":"柳營區","LI":"八翁里","LIN":"5鄰","STREET":" ","SECT":" ","MAREA":"八老爺","LANE":" ","ALLEY":" ","HOUSE_NO":"４２之６號","E_COORD97":178075.95999999999,"N_COORD97":2574859.9199999999,"ADDRESS":"八老爺４２之６號","OBJECTID":340634},"geometry":{"x":178075.95999999996,"y":2574859.9199999999}},{"attributes":{"ID":340644,"DIS_CODE":0,"TOWNNAME":"新營區","LI":"太南里","LIN":"5鄰","STREET":" ","SECT":" ","MAREA":"太子宮","LANE":" ","ALLEY":" ","HOUSE_NO":"２０８號","E_COORD97":176223.64000000001,"N_COORD97":2576909.9300000002,"ADDRESS":"太子宮２０８號","OBJECTID":340635},"geometry":{"x":176223.6400000006,"y":2576909.9299999997}},{"attributes":{"ID":340645,"DIS_CODE":0,"TOWNNAME":"新營區","LI":"埤寮里","LIN":"5鄰","STREET":" ","SECT":" ","MAREA":"埤寮","LANE":" ","ALLEY":" ","HOUSE_NO":"１３之３號","E_COORD97":180218.89000000001,"N_COORD97":2580897.3999999999,"ADDRESS":"埤寮１３之３號","OBJECTID":340636},"geometry":{"x":180218.88999999873,"y":2580897.4000000004}},{"attributes":{"ID":340646,"DIS_CODE":0,"TOWNNAME":"新營區","LI":"太南里","LIN":"5鄰","STREET":" ","SECT":" ","MAREA":"太子宮","LANE":" ","ALLEY":" ","HOUSE_NO":"２０６號","E_COORD97":176239.95000000001,"N_COORD97":2576897.6699999999,"ADDRESS":"太子宮２０６號","OBJECTID":340637},"geometry":{"x":176239.95000000019,"y":2576897.6700000018}},{"attributes":{"ID":340647,"DIS_CODE":0,"TOWNNAME":"新營區","LI":"土庫里","LIN":"5鄰","STREET":" ","SECT":" ","MAREA":"土庫","LANE":" ","ALLEY":" ","HOUSE_NO":"４６號","E_COORD97":183277.73999999999,"N_COORD97":2579842.2200000002,"ADDRESS":"土庫４６號","OBJECTID":340638},"geometry":{"x":183277.74000000115,"y":2579842.2200000007}},{"attributes":{"ID":340648,"DIS_CODE":0,"TOWNNAME":"新營區","LI":"大宏里","LIN":"5鄰","STREET":"三民路","SECT":" ","MAREA":" ","LANE":" ","ALLEY":" ","HOUSE_NO":"６４號之１","E_COORD97":180216.78,"N_COORD97":2578494.23,"ADDRESS":"三民路６４號之１","OBJECTID":340639},"geometry":{"x":180216.78000000026,"y":2578494.2300000023}},{"attributes":{"ID":340649,"DIS_CODE":0,"TOWNNAME":"南區","LI":"大恩里","LIN":"5鄰","STREET":"大同路","SECT":"二段","MAREA":" ","LANE":"７２６巷","ALLEY":" ","HOUSE_NO":"１號","E_COORD97":169573.04000000001,"N_COORD97":2540792.5600000001,"ADDRESS":"大同路二段７２６巷１號","OBJECTID":340640},"geometry":{"x":169573.04000000097,"y":2540792.5600000005}},{"attributes":{"ID":340650,"DIS_CODE":0,"TOWNNAME":"北區","LI":"大豐里","LIN":"1鄰","STREET":"武聖路","SECT":" ","MAREA":" ","LANE":"８巷","ALLEY":" ","HOUSE_NO":"１４號","E_COORD97":167289.97,"N_COORD97":2545154.0699999998,"ADDRESS":"武聖路８巷１４號","OBJECTID":340641},"geometry":{"x":167289.97000000067,"y":2545154.0700000022}},{"attributes":{"ID":340651,"DIS_CODE":0,"TOWNNAME":"新營區","LI":"王公里","LIN":"5鄰","STREET":"民治路","SECT":" ","MAREA":" ","LANE":"１８巷","ALLEY":" ","HOUSE_NO":"６號之１","E_COORD97":180396.79999999999,"N_COORD97":2578978.4399999999,"ADDRESS":"民治路１８巷６號之１","OBJECTID":340642},"geometry":{"x":180396.80000000075,"y":2578978.4399999995}},{"attributes":{"ID":340652,"DIS_CODE":0,"TOWNNAME":"北區","LI":"大豐里","LIN":"1鄰","STREET":"武聖路","SECT":" ","MAREA":" ","LANE":"８巷","ALLEY":" ","HOUSE_NO":"１６號","E_COORD97":167285.57999999999,"N_COORD97":2545152.46,"ADDRESS":"武聖路８巷１６號","OBJECTID":340643},"geometry":{"x":167285.58000000194,"y":2545152.4600000028}},{"attributes":{"ID":340653,"DIS_CODE":0,"TOWNNAME":"北區","LI":"大豐里","LIN":"1鄰","STREET":"武聖路","SECT":" ","MAREA":" ","LANE":"８巷","ALLEY":" ","HOUSE_NO":"１８號","E_COORD97":167285.51000000001,"N_COORD97":2545162.5600000001,"ADDRESS":"武聖路８巷１８號","OBJECTID":340644},"geometry":{"x":167285.50999999978,"y":2545162.5600000005}},{"attributes":{"ID":340654,"DIS_CODE":0,"TOWNNAME":"北區","LI":"大豐里","LIN":"1鄰","STREET":"武聖路","SECT":" ","MAREA":" ","LANE":"８巷","ALLEY":" ","HOUSE_NO":"２０號","E_COORD97":167284.60999999999,"N_COORD97":2545166.9399999999,"ADDRESS":"武聖路８巷２０號","OBJECTID":340645},"geometry":{"x":167284.61000000127,"y":2545166.9400000013}},{"attributes":{"ID":340655,"DIS_CODE":0,"TOWNNAME":"新營區","LI":"護鎮里","LIN":"5鄰","STREET":" ","SECT":" ","MAREA":"後鎮","LANE":" ","ALLEY":" ","HOUSE_NO":"５９之１８號","E_COORD97":179077.31,"N_COORD97":2581219.5699999998,"ADDRESS":"後鎮５９之１８號","OBJECTID":340646},"geometry":{"x":179077.31000000052,"y":2581219.5700000003}},{"attributes":{"ID":340656,"DIS_CODE":0,"TOWNNAME":"新營區","LI":"太南里","LIN":"5鄰","STREET":" ","SECT":" ","MAREA":"太子宮","LANE":" ","ALLEY":" ","HOUSE_NO":"２０９之３號","E_COORD97":176213.97,"N_COORD97":2576929.9700000002,"ADDRESS":"太子宮２０９之３號","OBJECTID":340647},"geometry":{"x":176213.96999999974,"y":2576929.9700000025}},{"attributes":{"ID":340657,"DIS_CODE":0,"TOWNNAME":"北區","LI":"中樓里","LIN":"1鄰","STREET":"前鋒路","SECT":" ","MAREA":" ","LANE":"１７５巷","ALLEY":" ","HOUSE_NO":"１７號","E_COORD97":169436.89999999999,"N_COORD97":2544719.54,"ADDRESS":"前鋒路１７５巷１７號","OBJECTID":340648},"geometry":{"x":169436.9000000013,"y":2544719.540000001}},{"attributes":{"ID":340658,"DIS_CODE":0,"TOWNNAME":"新營區","LI":"嘉芳里","LIN":"5鄰","STREET":" ","SECT":" ","MAREA":"茄苳腳","LANE":" ","ALLEY":" ","HOUSE_NO":"６０之２號","E_COORD97":176897.51999999999,"N_COORD97":2578481.4500000002,"ADDRESS":"茄苳腳６０之２號","OBJECTID":340649},"geometry":{"x":176897.52000000048,"y":2578481.4500000011}},{"attributes":{"ID":340659,"DIS_CODE":0,"TOWNNAME":"北區","LI":"六甲里","LIN":"1鄰","STREET":"公園路","SECT":" ","MAREA":" ","LANE":"４５１巷","ALLEY":" ","HOUSE_NO":"２號","E_COORD97":169004.42000000001,"N_COORD97":2545441.1899999999,"ADDRESS":"公園路４５１巷２號","OBJECTID":340650},"geometry":{"x":169004.42000000086,"y":2545441.1900000013}},{"attributes":{"ID":340660,"DIS_CODE":0,"TOWNNAME":"北區","LI":"六甲里","LIN":"1鄰","STREET":"公園路","SECT":" ","MAREA":" ","LANE":"４５１巷","ALLEY":" ","HOUSE_NO":"４號","E_COORD97":168998.53,"N_COORD97":2545444.9199999999,"ADDRESS":"公園路４５１巷４號","OBJECTID":340651},"geometry":{"x":168998.53000000119,"y":2545444.9199999999}},{"attributes":{"ID":340661,"DIS_CODE":0,"TOWNNAME":"下營區","LI":"下營里","LIN":"8鄰","STREET":"中山路","SECT":"一段","MAREA":" ","LANE":" ","ALLEY":" ","HOUSE_NO":"４０號","E_COORD97":174474.39000000001,"N_COORD97":2570483.3500000001,"ADDRESS":"中山路一段４０號","OBJECTID":340652},"geometry":{"x":174474.3900000006,"y":2570483.3500000034}},{"attributes":{"ID":340662,"DIS_CODE":0,"TOWNNAME":"下營區","LI":"營前里","LIN":"8鄰","STREET":"中正南路","SECT":" ","MAREA":" ","LANE":" ","ALLEY":" ","HOUSE_NO":"１０８號","E_COORD97":174619.53,"N_COORD97":2570226.3900000001,"ADDRESS":"中正南路１０８號","OBJECTID":340653},"geometry":{"x":174619.53000000212,"y":2570226.3900000043}},{"attributes":{"ID":340663,"DIS_CODE":0,"TOWNNAME":"新營區","LI":"鐵線里","LIN":"5鄰","STREET":" ","SECT":" ","MAREA":"鐵線橋","LANE":" ","ALLEY":" ","HOUSE_NO":"４８之１０號","E_COORD97":176085.34,"N_COORD97":2573697.9500000002,"ADDRESS":"鐵線橋４８之１０號","OBJECTID":340654},"geometry":{"x":176085.34000000078,"y":2573697.9500000011}},{"attributes":{"ID":340664,"DIS_CODE":0,"TOWNNAME":"新營區","LI":"嘉芳里","LIN":"5鄰","STREET":" ","SECT":" ","MAREA":"茄苳腳","LANE":" ","ALLEY":" ","HOUSE_NO":"５７之２９號","E_COORD97":176872.19,"N_COORD97":2578482.6899999999,"ADDRESS":"茄苳腳５７之２９號","OBJECTID":340655},"geometry":{"x":176872.19000000134,"y":2578482.6900000013}},{"attributes":{"ID":340665,"DIS_CODE":0,"TOWNNAME":"新營區","LI":"興業里","LIN":"5鄰","STREET":"公誠街","SECT":" ","MAREA":" ","LANE":"１１巷","ALLEY":" ","HOUSE_NO":"１２號","E_COORD97":180343.70000000001,"N_COORD97":2577958.6699999999,"ADDRESS":"公誠街１１巷１２號","OBJECTID":340656},"geometry":{"x":180343.70000000112,"y":2577958.6700000018}},{"attributes":{"ID":340666,"DIS_CODE":0,"TOWNNAME":"新營區","LI":"嘉芳里","LIN":"5鄰","STREET":" ","SECT":" ","MAREA":"茄苳腳","LANE":" ","ALLEY":" ","HOUSE_NO":"５７之１８號","E_COORD97":176885.23000000001,"N_COORD97":2578429.4700000002,"ADDRESS":"茄苳腳５７之１８號","OBJECTID":340657},"geometry":{"x":176885.23000000138,"y":2578429.4700000007}},{"attributes":{"ID":340667,"DIS_CODE":0,"TOWNNAME":"新營區","LI":"角帶里","LIN":"5鄰","STREET":" ","SECT":" ","MAREA":"角帶圍","LANE":" ","ALLEY":" ","HOUSE_NO":"６３號","E_COORD97":174735.26000000001,"N_COORD97":2575767.8599999999,"ADDRESS":"角帶圍６３號","OBJECTID":340658},"geometry":{"x":174735.25999999978,"y":2575767.8599999994}},{"attributes":{"ID":340668,"DIS_CODE":0,"TOWNNAME":"新營區","LI":"護鎮里","LIN":"5鄰","STREET":" ","SECT":" ","MAREA":"後鎮","LANE":" ","ALLEY":" ","HOUSE_NO":"５９號","E_COORD97":179080.51999999999,"N_COORD97":2581176.29,"ADDRESS":"後鎮５９號","OBJECTID":340659},"geometry":{"x":179080.52000000142,"y":2581176.2899999972}},{"attributes":{"ID":340669,"DIS_CODE":0,"TOWNNAME":"新營區","LI":"護鎮里","LIN":"5鄰","STREET":" ","SECT":" ","MAREA":"後鎮","LANE":" ","ALLEY":" ","HOUSE_NO":"５９之２５號","E_COORD97":179032.37,"N_COORD97":2581230.8599999999,"ADDRESS":"後鎮５９之２５號","OBJECTID":340660},"geometry":{"x":179032.37000000011,"y":2581230.8600000013}},{"attributes":{"ID":340670,"DIS_CODE":0,"TOWNNAME":"新營區","LI":"鐵線里","LIN":"5鄰","STREET":" ","SECT":" ","MAREA":"鐵線橋","LANE":" ","ALLEY":" ","HOUSE_NO":"５８號","E_COORD97":176007.73999999999,"N_COORD97":2573672.7999999998,"ADDRESS":"鐵線橋５８號","OBJECTID":340661},"geometry":{"x":176007.74000000022,"y":2573672.8000000026}},{"attributes":{"ID":340671,"DIS_CODE":0,"TOWNNAME":"學甲區","LI":"三慶里","LIN":"5鄰","STREET":" ","SECT":" ","MAREA":"頂洲","LANE":" ","ALLEY":" ","HOUSE_NO":"６１號","E_COORD97":168642.07999999999,"N_COORD97":2576390.9700000002,"ADDRESS":"頂洲６１號","OBJECTID":340662},"geometry":{"x":168642.08000000101,"y":2576390.9700000025}},{"attributes":{"ID":340672,"DIS_CODE":0,"TOWNNAME":"新營區","LI":"好平里","LIN":"5鄰","STREET":"長春街","SECT":" ","MAREA":" ","LANE":"１１３巷","ALLEY":" ","HOUSE_NO":"４號","E_COORD97":179495.79999999999,"N_COORD97":2577792.1400000001,"ADDRESS":"長春街１１３巷４號","OBJECTID":340663},"geometry":{"x":179495.79999999981,"y":2577792.1400000043}},{"attributes":{"ID":340673,"DIS_CODE":0,"TOWNNAME":"北區","LI":"六甲里","LIN":"1鄰","STREET":"公園路","SECT":" ","MAREA":" ","LANE":"４５１巷","ALLEY":" ","HOUSE_NO":"６號","E_COORD97":168991.64999999999,"N_COORD97":2545448.25,"ADDRESS":"公園路４５１巷６號","OBJECTID":340664},"geometry":{"x":168991.65000000037,"y":2545448.25}},{"attributes":{"ID":340674,"DIS_CODE":0,"TOWNNAME":"北區","LI":"六甲里","LIN":"1鄰","STREET":"公園路","SECT":" ","MAREA":" ","LANE":"４５１巷","ALLEY":" ","HOUSE_NO":"８號","E_COORD97":168987.53,"N_COORD97":2545451.3900000001,"ADDRESS":"公園路４５１巷８號","OBJECTID":340665},"geometry":{"x":168987.53000000026,"y":2545451.3900000006}},{"attributes":{"ID":340675,"DIS_CODE":0,"TOWNNAME":"北區","LI":"六甲里","LIN":"1鄰","STREET":"公園路","SECT":" ","MAREA":" ","LANE":"４５１巷","ALLEY":" ","HOUSE_NO":"１２號","E_COORD97":168982.22,"N_COORD97":2545454.1299999999,"ADDRESS":"公園路４５１巷１２號","OBJECTID":340666},"geometry":{"x":168982.21999999974,"y":2545454.1300000008}},{"attributes":{"ID":340676,"DIS_CODE":0,"TOWNNAME":"北區","LI":"六甲里","LIN":"1鄰","STREET":"公園路","SECT":" ","MAREA":" ","LANE":"４５１巷","ALLEY":" ","HOUSE_NO":"１４號","E_COORD97":168978.48999999999,"N_COORD97":2545457.0800000001,"ADDRESS":"公園路４５１巷１４號","OBJECTID":340667},"geometry":{"x":168978.49000000115,"y":2545457.0800000001}},{"attributes":{"ID":340677,"DIS_CODE":0,"TOWNNAME":"北區","LI":"六甲里","LIN":"1鄰","STREET":"公園路","SECT":" ","MAREA":" ","LANE":"４５１巷","ALLEY":" ","HOUSE_NO":"１６號","E_COORD97":168974.57000000001,"N_COORD97":2545459.6299999999,"ADDRESS":"公園路４５１巷１６號","OBJECTID":340668},"geometry":{"x":168974.57000000123,"y":2545459.6299999971}},{"attributes":{"ID":340678,"DIS_CODE":0,"TOWNNAME":"北區","LI":"六甲里","LIN":"1鄰","STREET":"公園路","SECT":" ","MAREA":" ","LANE":"４５１巷","ALLEY":" ","HOUSE_NO":"１８號","E_COORD97":168971.03,"N_COORD97":2545462.3700000001,"ADDRESS":"公園路４５１巷１８號","OBJECTID":340669},"geometry":{"x":168971.02999999933,"y":2545462.370000001}},{"attributes":{"ID":340679,"DIS_CODE":0,"TOWNNAME":"將軍區","LI":"西和里","LIN":"25鄰","STREET":" ","SECT":" ","MAREA":"西湖","LANE":" ","ALLEY":" ","HOUSE_NO":"９３號","E_COORD97":162111.92999999999,"N_COORD97":2566223.4700000002,"ADDRESS":"西湖９３號","OBJECTID":340670},"geometry":{"x":162111.9299999997,"y":2566223.4700000025}},{"attributes":{"ID":340680,"DIS_CODE":0,"TOWNNAME":"下營區","LI":"營前里","LIN":"8鄰","STREET":"中正南路","SECT":" ","MAREA":" ","LANE":" ","ALLEY":" ","HOUSE_NO":"１１０號","E_COORD97":174620.79999999999,"N_COORD97":2570217.9300000002,"ADDRESS":"中正南路１１０號","OBJECTID":340671},"geometry":{"x":174620.80000000075,"y":2570217.9299999997}},{"attributes":{"ID":340681,"DIS_CODE":0,"TOWNNAME":"下營區","LI":"營前里","LIN":"8鄰","STREET":"中正南路","SECT":" ","MAREA":" ","LANE":" ","ALLEY":" ","HOUSE_NO":"１１２號","E_COORD97":174621.78,"N_COORD97":2570212.5299999998,"ADDRESS":"中正南路１１２號","OBJECTID":340672},"geometry":{"x":174621.78000000119,"y":2570212.5299999993}},{"attributes":{"ID":340682,"DIS_CODE":0,"TOWNNAME":"南區","LI":"省躬里","LIN":"5鄰","STREET":"灣裡路","SECT":" ","MAREA":" ","LANE":"８８巷","ALLEY":" ","HOUSE_NO":"１３號","E_COORD97":165909.04999999999,"N_COORD97":2536878.1200000001,"ADDRESS":"灣裡路８８巷１３號","OBJECTID":340673},"geometry":{"x":165909.05000000168,"y":2536878.1200000029}},{"attributes":{"ID":340683,"DIS_CODE":0,"TOWNNAME":"南區","LI":"省躬里","LIN":"5鄰","STREET":"灣裡路","SECT":" ","MAREA":" ","LANE":"８８巷","ALLEY":" ","HOUSE_NO":"１５之１號","E_COORD97":165879.63,"N_COORD97":2536871.5899999999,"ADDRESS":"灣裡路８８巷１５之１號","OBJECTID":340674},"geometry":{"x":165879.62999999896,"y":2536871.5899999999}},{"attributes":{"ID":340684,"DIS_CODE":0,"TOWNNAME":"南區","LI":"省躬里","LIN":"5鄰","STREET":"灣裡路","SECT":" ","MAREA":" ","LANE":"８８巷","ALLEY":" ","HOUSE_NO":"１５號","E_COORD97":165889.17000000001,"N_COORD97":2536873.77,"ADDRESS":"灣裡路８８巷１５號","OBJECTID":340675},"geometry":{"x":165889.16999999993,"y":2536873.7699999996}},{"attributes":{"ID":340685,"DIS_CODE":0,"TOWNNAME":"南區","LI":"省躬里","LIN":"5鄰","STREET":"灣裡路","SECT":" ","MAREA":" ","LANE":"８８巷","ALLEY":" ","HOUSE_NO":"３７號","E_COORD97":165861.39000000001,"N_COORD97":2536839.1400000001,"ADDRESS":"灣裡路８８巷３７號","OBJECTID":340676},"geometry":{"x":165861.3900000006,"y":2536839.1400000006}},{"attributes":{"ID":340686,"DIS_CODE":0,"TOWNNAME":"南區","LI":"省躬里","LIN":"5鄰","STREET":"灣裡路","SECT":" ","MAREA":" ","LANE":"８８巷","ALLEY":" ","HOUSE_NO":"３７號之１","E_COORD97":165863.57000000001,"N_COORD97":2536826.9100000001,"ADDRESS":"灣裡路８８巷３７號之１","OBJECTID":340677},"geometry":{"x":165863.57000000216,"y":2536826.9100000001}},{"attributes":{"ID":340687,"DIS_CODE":0,"TOWNNAME":"南區","LI":"省躬里","LIN":"5鄰","STREET":"灣裡路","SECT":" ","MAREA":" ","LANE":"８８巷","ALLEY":" ","HOUSE_NO":"３９號","E_COORD97":165897.06,"N_COORD97":2536838.6000000001,"ADDRESS":"灣裡路８８巷３９號","OBJECTID":340678},"geometry":{"x":165897.06000000052,"y":2536838.5999999996}},{"attributes":{"ID":340688,"DIS_CODE":0,"TOWNNAME":"北區","LI":"六甲里","LIN":"1鄰","STREET":"公園路","SECT":" ","MAREA":" ","LANE":"４５１巷","ALLEY":" ","HOUSE_NO":"２０號","E_COORD97":168966.51000000001,"N_COORD97":2545464.1400000001,"ADDRESS":"公園路４５１巷２０號","OBJECTID":340679},"geometry":{"x":168966.51000000071,"y":2545464.1400000006}},{"attributes":{"ID":340689,"DIS_CODE":0,"TOWNNAME":"北區","LI":"六甲里","LIN":"1鄰","STREET":"公園路","SECT":" ","MAREA":" ","LANE":"４５１巷","ALLEY":" ","HOUSE_NO":"２２號","E_COORD97":168961.20999999999,"N_COORD97":2545467.6699999999,"ADDRESS":"公園路４５１巷２２號","OBJECTID":340680},"geometry":{"x":168961.21000000183,"y":2545467.6700000018}},{"attributes":{"ID":340690,"DIS_CODE":0,"TOWNNAME":"北區","LI":"正覺里","LIN":"1鄰","STREET":"公園路","SECT":" ","MAREA":" ","LANE":"５９３巷","ALLEY":" ","HOUSE_NO":"４６號","E_COORD97":169076.85000000001,"N_COORD97":2546047.2400000002,"ADDRESS":"公園路５９３巷４６號","OBJECTID":340681},"geometry":{"x":169076.85000000149,"y":2546047.2400000021}},{"attributes":{"ID":340691,"DIS_CODE":0,"TOWNNAME":"北區","LI":"正覺里","LIN":"1鄰","STREET":"公園路","SECT":" ","MAREA":" ","LANE":"５９３巷","ALLEY":" ","HOUSE_NO":"４８號","E_COORD97":169073.70999999999,"N_COORD97":2546053.6099999999,"ADDRESS":"公園路５９３巷４８號","OBJECTID":340682},"geometry":{"x":169073.71000000089,"y":2546053.6100000031}},{"attributes":{"ID":340692,"DIS_CODE":0,"TOWNNAME":"北區","LI":"正覺里","LIN":"1鄰","STREET":"公園路","SECT":" ","MAREA":" ","LANE":"５９３巷","ALLEY":" ","HOUSE_NO":"５０號","E_COORD97":169064.60999999999,"N_COORD97":2546057.4199999999,"ADDRESS":"公園路５９３巷５０號","OBJECTID":340683},"geometry":{"x":169064.61000000127,"y":2546057.4199999999}},{"attributes":{"ID":340693,"DIS_CODE":0,"TOWNNAME":"北區","LI":"正覺里","LIN":"1鄰","STREET":"公園路","SECT":" ","MAREA":" ","LANE":"５９３巷","ALLEY":" ","HOUSE_NO":"５２號","E_COORD97":169062.06,"N_COORD97":2546053.3100000001,"ADDRESS":"公園路５９３巷５２號","OBJECTID":340684},"geometry":{"x":169062.06000000052,"y":2546053.3099999987}},{"attributes":{"ID":340694,"DIS_CODE":0,"TOWNNAME":"北區","LI":"新勝里","LIN":"1鄰","STREET":"開元路","SECT":" ","MAREA":" ","LANE":"３３３巷","ALLEY":" ","HOUSE_NO":"２號","E_COORD97":170218.48000000001,"N_COORD97":2545443.5800000001,"ADDRESS":"開元路３３３巷２號","OBJECTID":340685},"geometry":{"x":170218.48000000045,"y":2545443.5800000001}},{"attributes":{"ID":340695,"DIS_CODE":0,"TOWNNAME":"北區","LI":"裕民里","LIN":"1鄰","STREET":"成功路","SECT":" ","MAREA":" ","LANE":"６１４巷","ALLEY":" ","HOUSE_NO":"２號","E_COORD97":167467.72,"N_COORD97":2544849.98,"ADDRESS":"成功路６１４巷２號","OBJECTID":340686},"geometry":{"x":167467.72000000067,"y":2544849.9800000023}},{"attributes":{"ID":340696,"DIS_CODE":0,"TOWNNAME":"下營區","LI":"營前里","LIN":"8鄰","STREET":"中正南路","SECT":" ","MAREA":" ","LANE":" ","ALLEY":" ","HOUSE_NO":"１１６號","E_COORD97":174622.78,"N_COORD97":2570208.29,"ADDRESS":"中正南路１１６號","OBJECTID":340687},"geometry":{"x":174622.77999999933,"y":2570208.2899999991}},{"attributes":{"ID":340697,"DIS_CODE":0,"TOWNNAME":"下營區","LI":"營前里","LIN":"8鄰","STREET":"中正南路","SECT":" ","MAREA":" ","LANE":" ","ALLEY":" ","HOUSE_NO":"１１８號","E_COORD97":174625.62,"N_COORD97":2570201.3700000001,"ADDRESS":"中正南路１１８號","OBJECTID":340688},"geometry":{"x":174625.62000000197,"y":2570201.3700000029}},{"attributes":{"ID":340698,"DIS_CODE":0,"TOWNNAME":"下營區","LI":"營前里","LIN":"8鄰","STREET":"中正南路","SECT":" ","MAREA":" ","LANE":" ","ALLEY":" ","HOUSE_NO":"１２０號","E_COORD97":174626.54000000001,"N_COORD97":2570195.7999999998,"ADDRESS":"中正南路１２０號","OBJECTID":340689},"geometry":{"x":174626.54000000097,"y":2570195.8000000007}},{"attributes":{"ID":340699,"DIS_CODE":0,"TOWNNAME":"下營區","LI":"後街里","LIN":"8鄰","STREET":"中正北路","SECT":" ","MAREA":" ","LANE":" ","ALLEY":" ","HOUSE_NO":"１０１號","E_COORD97":174427.53,"N_COORD97":2570771.3199999998,"ADDRESS":"中正北路１０１號","OBJECTID":340690},"geometry":{"x":174427.53000000026,"y":2570771.3200000003}},{"attributes":{"ID":340700,"DIS_CODE":0,"TOWNNAME":"永康區","LI":"東灣里","LIN":"8鄰","STREET":"大灣路","SECT":" ","MAREA":" ","LANE":" ","ALLEY":" ","HOUSE_NO":"４４６號","E_COORD97":174754.19,"N_COORD97":2544953.7999999998,"ADDRESS":"大灣路４４６號","OBJECTID":340691},"geometry":{"x":174754.19000000227,"y":2544953.8000000007}},{"attributes":{"ID":340701,"DIS_CODE":0,"TOWNNAME":"永康區","LI":"南灣里","LIN":"8鄰","STREET":"南興路","SECT":" ","MAREA":" ","LANE":" ","ALLEY":" ","HOUSE_NO":"３４號","E_COORD97":174208.79999999999,"N_COORD97":2544007.8700000001,"ADDRESS":"南興路３４號","OBJECTID":340692},"geometry":{"x":174208.80000000075,"y":2544007.870000001}},{"attributes":{"ID":340702,"DIS_CODE":0,"TOWNNAME":"永康區","LI":"東灣里","LIN":"8鄰","STREET":"大灣路","SECT":" ","MAREA":" ","LANE":" ","ALLEY":" ","HOUSE_NO":"４４４號","E_COORD97":174755.78,"N_COORD97":2544957.0600000001,"ADDRESS":"大灣路４４４號","OBJECTID":340693},"geometry":{"x":174755.78000000119,"y":2544957.0600000024}},{"attributes":{"ID":340703,"DIS_CODE":0,"TOWNNAME":"南區","LI":"省躬里","LIN":"5鄰","STREET":"灣裡路","SECT":" ","MAREA":" ","LANE":"８８巷","ALLEY":" ","HOUSE_NO":"４１號","E_COORD97":165878,"N_COORD97":2536829.0800000001,"ADDRESS":"灣裡路８８巷４１號","OBJECTID":340694},"geometry":{"x":165878.00000000093,"y":2536829.0800000001}},{"attributes":{"ID":340704,"DIS_CODE":0,"TOWNNAME":"南區","LI":"省躬里","LIN":"5鄰","STREET":"灣裡路","SECT":" ","MAREA":" ","LANE":"８８巷","ALLEY":" ","HOUSE_NO":"４３號","E_COORD97":165901.69,"N_COORD97":2536818.1600000001,"ADDRESS":"灣裡路８８巷４３號","OBJECTID":340695},"geometry":{"x":165901.69000000041,"y":2536818.1600000001}},{"attributes":{"ID":340705,"DIS_CODE":0,"TOWNNAME":"南區","LI":"省躬里","LIN":"5鄰","STREET":"灣裡路","SECT":" ","MAREA":" ","LANE":"８８巷","ALLEY":" ","HOUSE_NO":"４７號","E_COORD97":165903.04999999999,"N_COORD97":2536805.3300000001,"ADDRESS":"灣裡路８８巷４７號","OBJECTID":340696},"geometry":{"x":165903.05000000075,"y":2536805.3300000019}},{"attributes":{"ID":340706,"DIS_CODE":0,"TOWNNAME":"南區","LI":"省躬里","LIN":"5鄰","STREET":"灣裡路","SECT":" ","MAREA":" ","LANE":"８８巷","ALLEY":" ","HOUSE_NO":"４９號","E_COORD97":165882.35999999999,"N_COORD97":2536798.5299999998,"ADDRESS":"灣裡路８８巷４９號","OBJECTID":340697},"geometry":{"x":165882.36000000127,"y":2536798.5300000031}},{"attributes":{"ID":340707,"DIS_CODE":0,"TOWNNAME":"南區","LI":"省躬里","LIN":"5鄰","STREET":"灣裡路","SECT":" ","MAREA":" ","LANE":"８８巷","ALLEY":" ","HOUSE_NO":"４９號之１","E_COORD97":165884.54000000001,"N_COORD97":2536806.1499999999,"ADDRESS":"灣裡路８８巷４９號之１","OBJECTID":340698},"geometry":{"x":165884.54000000097,"y":2536806.1500000022}},{"attributes":{"ID":340708,"DIS_CODE":0,"TOWNNAME":"南區","LI":"省躬里","LIN":"5鄰","STREET":"灣裡路","SECT":" ","MAREA":" ","LANE":"８８巷","ALLEY":" ","HOUSE_NO":"５１號","E_COORD97":165863.84,"N_COORD97":2536803.7000000002,"ADDRESS":"灣裡路８８巷５１號","OBJECTID":340699},"geometry":{"x":165863.84000000078,"y":2536803.6999999993}},{"attributes":{"ID":340709,"DIS_CODE":0,"TOWNNAME":"南區","LI":"省躬里","LIN":"5鄰","STREET":"灣裡路","SECT":" ","MAREA":" ","LANE":"８８巷","ALLEY":" ","HOUSE_NO":"５５號","E_COORD97":165881.81,"N_COORD97":2536790.6499999999,"ADDRESS":"灣裡路８８巷５５號","OBJECTID":340700},"geometry":{"x":165881.81000000052,"y":2536790.6500000004}},{"attributes":{"ID":340710,"DIS_CODE":0,"TOWNNAME":"南區","LI":"省躬里","LIN":"5鄰","STREET":"灣裡路","SECT":" ","MAREA":" ","LANE":"８８巷","ALLEY":" ","HOUSE_NO":"６１號","E_COORD97":165885.89999999999,"N_COORD97":2536779.23,"ADDRESS":"灣裡路８８巷６１號","OBJECTID":340701},"geometry":{"x":165885.9000000013,"y":2536779.2300000023}},{"attributes":{"ID":340711,"DIS_CODE":0,"TOWNNAME":"南區","LI":"省躬里","LIN":"5鄰","STREET":"灣裡路","SECT":" ","MAREA":" ","LANE":"８８巷","ALLEY":" ","HOUSE_NO":"６５號","E_COORD97":165866.56,"N_COORD97":2536775.6800000002,"ADDRESS":"灣裡路８８巷６５號","OBJECTID":340702},"geometry":{"x":165866.56000000052,"y":2536775.6800000016}},{"attributes":{"ID":340712,"DIS_CODE":0,"TOWNNAME":"南區","LI":"省躬里","LIN":"5鄰","STREET":"灣裡路","SECT":" ","MAREA":" ","LANE":"８８巷","ALLEY":" ","HOUSE_NO":"６９號","E_COORD97":165867.38,"N_COORD97":2536760.1800000002,"ADDRESS":"灣裡路８８巷６９號","OBJECTID":340703},"geometry":{"x":165867.37999999989,"y":2536760.1799999997}},{"attributes":{"ID":340713,"DIS_CODE":0,"TOWNNAME":"南區","LI":"省躬里","LIN":"5鄰","STREET":"灣裡路","SECT":" ","MAREA":" ","LANE":"８８巷","ALLEY":" ","HOUSE_NO":"６９號之１","E_COORD97":165891.62,"N_COORD97":2536769.4199999999,"ADDRESS":"灣裡路８８巷６９號之１","OBJECTID":340704},"geometry":{"x":165891.62000000011,"y":2536769.4200000037}},{"attributes":{"ID":340714,"DIS_CODE":0,"TOWNNAME":"北區","LI":"裕民里","LIN":"1鄰","STREET":"成功路","SECT":" ","MAREA":" ","LANE":"６１４巷","ALLEY":" ","HOUSE_NO":"６號","E_COORD97":167477.32000000001,"N_COORD97":2544851.0899999999,"ADDRESS":"成功路６１４巷６號","OBJECTID":340705},"geometry":{"x":167477.31999999937,"y":2544851.0900000017}},{"attributes":{"ID":340715,"DIS_CODE":0,"TOWNNAME":"北區","LI":"裕民里","LIN":"1鄰","STREET":"成功路","SECT":" ","MAREA":" ","LANE":"６１４巷","ALLEY":" ","HOUSE_NO":"８號","E_COORD97":167482.5,"N_COORD97":2544851.0899999999,"ADDRESS":"成功路６１４巷８號","OBJECTID":340706},"geometry":{"x":167482.5,"y":2544851.0900000017}},{"attributes":{"ID":340716,"DIS_CODE":0,"TOWNNAME":"北區","LI":"裕民里","LIN":"1鄰","STREET":"成功路","SECT":" ","MAREA":" ","LANE":"６１４巷","ALLEY":" ","HOUSE_NO":"１０號","E_COORD97":167485.82000000001,"N_COORD97":2544852.2000000002,"ADDRESS":"成功路６１４巷１０號","OBJECTID":340707},"geometry":{"x":167485.81999999937,"y":2544852.1999999993}},{"attributes":{"ID":340717,"DIS_CODE":0,"TOWNNAME":"北區","LI":"裕民里","LIN":"1鄰","STREET":"成功路","SECT":" ","MAREA":" ","LANE":"６１４巷","ALLEY":" ","HOUSE_NO":"１２號","E_COORD97":167489.89000000001,"N_COORD97":2544855.52,"ADDRESS":"成功路６１４巷１２號","OBJECTID":340708},"geometry":{"x":167489.89000000153,"y":2544855.5200000014}},{"attributes":{"ID":340718,"DIS_CODE":0,"TOWNNAME":"北區","LI":"裕民里","LIN":"1鄰","STREET":"成功路","SECT":" ","MAREA":" ","LANE":"６１４巷","ALLEY":" ","HOUSE_NO":"１４號","E_COORD97":167494.69,"N_COORD97":2544856.6299999999,"ADDRESS":"成功路６１４巷１４號","OBJECTID":340709},"geometry":{"x":167494.69000000041,"y":2544856.6300000008}},{"attributes":{"ID":340719,"DIS_CODE":0,"TOWNNAME":"北區","LI":"裕民里","LIN":"1鄰","STREET":"成功路","SECT":" ","MAREA":" ","LANE":"６１４巷","ALLEY":" ","HOUSE_NO":"１６號","E_COORD97":167497.64000000001,"N_COORD97":2544859.21,"ADDRESS":"成功路６１４巷１６號","OBJECTID":340710},"geometry":{"x":167497.63999999966,"y":2544859.2100000028}},{"attributes":{"ID":340720,"DIS_CODE":0,"TOWNNAME":"北區","LI":"裕民里","LIN":"1鄰","STREET":"成功路","SECT":" ","MAREA":" ","LANE":"６１４巷","ALLEY":" ","HOUSE_NO":"１８號","E_COORD97":167503.92999999999,"N_COORD97":2544856.9900000002,"ADDRESS":"成功路６１４巷１８號","OBJECTID":340711},"geometry":{"x":167503.93000000063,"y":2544856.9900000002}},{"attributes":{"ID":340721,"DIS_CODE":0,"TOWNNAME":"北區","LI":"裕民里","LIN":"1鄰","STREET":"成功路","SECT":" ","MAREA":" ","LANE":"６１４巷","ALLEY":" ","HOUSE_NO":"２０號","E_COORD97":167505.76999999999,"N_COORD97":2544860.6800000002,"ADDRESS":"成功路６１４巷２０號","OBJECTID":340712},"geometry":{"x":167505.77000000142,"y":2544860.6800000016}},{"attributes":{"ID":340722,"DIS_CODE":0,"TOWNNAME":"北區","LI":"裕民里","LIN":"1鄰","STREET":"成功路","SECT":" ","MAREA":" ","LANE":"６１４巷","ALLEY":" ","HOUSE_NO":"２２號","E_COORD97":167510.20999999999,"N_COORD97":2544862.5299999998,"ADDRESS":"成功路６１４巷２２號","OBJECTID":340713},"geometry":{"x":167510.21000000089,"y":2544862.5299999993}},{"attributes":{"ID":340723,"DIS_CODE":0,"TOWNNAME":"北區","LI":"裕民里","LIN":"1鄰","STREET":"成功路","SECT":" ","MAREA":" ","LANE":"６１４巷","ALLEY":" ","HOUSE_NO":"２４號","E_COORD97":167513.53,"N_COORD97":2544863.6400000001,"ADDRESS":"成功路６１４巷２４號","OBJECTID":340714},"geometry":{"x":167513.53000000119,"y":2544863.6400000006}},{"attributes":{"ID":340724,"DIS_CODE":0,"TOWNNAME":"北區","LI":"裕民里","LIN":"1鄰","STREET":"成功路","SECT":" ","MAREA":" ","LANE":"６１４巷","ALLEY":" ","HOUSE_NO":"２６號","E_COORD97":167520.54999999999,"N_COORD97":2544866.5899999999,"ADDRESS":"成功路６１４巷２６號","OBJECTID":340715},"geometry":{"x":167520.54999999981,"y":2544866.5899999999}},{"attributes":{"ID":340725,"DIS_CODE":0,"TOWNNAME":"永康區","LI":"南灣里","LIN":"8鄰","STREET":"南興路","SECT":" ","MAREA":" ","LANE":" ","ALLEY":" ","HOUSE_NO":"６４號","E_COORD97":174271.16,"N_COORD97":2544192.7400000002,"ADDRESS":"南興路６４號","OBJECTID":340716},"geometry":{"x":174271.16000000108,"y":2544192.7400000021}},{"attributes":{"ID":340726,"DIS_CODE":0,"TOWNNAME":"永康區","LI":"尚頂里","LIN":"8鄰","STREET":"中正二街","SECT":" ","MAREA":" ","LANE":" ","ALLEY":" ","HOUSE_NO":"６３號","E_COORD97":170930.63,"N_COORD97":2547429.6299999999,"ADDRESS":"中正二街６３號","OBJECTID":340717},"geometry":{"x":170930.62999999989,"y":2547429.6300000027}},{"attributes":{"ID":340727,"DIS_CODE":0,"TOWNNAME":"永康區","LI":"北灣里","LIN":"8鄰","STREET":"大灣路","SECT":" ","MAREA":" ","LANE":" ","ALLEY":" ","HOUSE_NO":"１６２號","E_COORD97":175070.64000000001,"N_COORD97":2545512.29,"ADDRESS":"大灣路１６２號","OBJECTID":340718},"geometry":{"x":175070.63999999873,"y":2545512.2899999991}},{"attributes":{"ID":340728,"DIS_CODE":0,"TOWNNAME":"永康區","LI":"正強里","LIN":"8鄰","STREET":"正義街","SECT":" ","MAREA":" ","LANE":" ","ALLEY":" ","HOUSE_NO":"６７號","E_COORD97":173527.28,"N_COORD97":2547610.9500000002,"ADDRESS":"正義街６７號","OBJECTID":340719},"geometry":{"x":173527.28000000026,"y":2547610.950000003}},{"attributes":{"ID":340729,"DIS_CODE":0,"TOWNNAME":"永康區","LI":"正強里","LIN":"8鄰","STREET":"正義街","SECT":" ","MAREA":" ","LANE":" ","ALLEY":" ","HOUSE_NO":"７３號","E_COORD97":173491.20000000001,"N_COORD97":2547587.9700000002,"ADDRESS":"正義街７３號","OBJECTID":340720},"geometry":{"x":173491.20000000112,"y":2547587.9700000007}},{"attributes":{"ID":340730,"DIS_CODE":0,"TOWNNAME":"永康區","LI":"正強里","LIN":"8鄰","STREET":"正義街","SECT":" ","MAREA":" ","LANE":" ","ALLEY":" ","HOUSE_NO":"８７號","E_COORD97":173459.60999999999,"N_COORD97":2547565.2000000002,"ADDRESS":"正義街８７號","OBJECTID":340721},"geometry":{"x":173459.6100000022,"y":2547565.200000003}},{"attributes":{"ID":340731,"DIS_CODE":0,"TOWNNAME":"安南區","LI":"溪心里","LIN":"8鄰","STREET":"安中路","SECT":"二段","MAREA":" ","LANE":" ","ALLEY":" ","HOUSE_NO":"３０３號","E_COORD97":166458.73999999999,"N_COORD97":2549702.3500000001,"ADDRESS":"安中路二段３０３號","OBJECTID":340722},"geometry":{"x":166458.74000000022,"y":2549702.3499999996}},{"attributes":{"ID":340732,"DIS_CODE":0,"TOWNNAME":"安南區","LI":"長安里","LIN":"8鄰","STREET":"長溪路","SECT":"三段","MAREA":" ","LANE":" ","ALLEY":" ","HOUSE_NO":"４０９號","E_COORD97":167628.73000000001,"N_COORD97":2552061.2999999998,"ADDRESS":"長溪路三段４０９號","OBJECTID":340723},"geometry":{"x":167628.73000000045,"y":2552061.3000000007}},{"attributes":{"ID":340733,"DIS_CODE":0,"TOWNNAME":"安南區","LI":"州北里","LIN":"8鄰","STREET":"北安路","SECT":"四段","MAREA":" ","LANE":" ","ALLEY":" ","HOUSE_NO":"２７１號","E_COORD97":169467.59,"N_COORD97":2551575.8199999998,"ADDRESS":"北安路四段２７１號","OBJECTID":340724},"geometry":{"x":169467.59000000078,"y":2551575.8200000003}},{"attributes":{"ID":340734,"DIS_CODE":0,"TOWNNAME":"安南區","LI":"州北里","LIN":"8鄰","STREET":"北安路","SECT":"四段","MAREA":" ","LANE":" ","ALLEY":" ","HOUSE_NO":"２７３號","E_COORD97":169467.98000000001,"N_COORD97":2551581.3300000001,"ADDRESS":"北安路四段２７３號","OBJECTID":340725},"geometry":{"x":169467.98000000045,"y":2551581.3300000001}},{"attributes":{"ID":340735,"DIS_CODE":0,"TOWNNAME":"安南區","LI":"州北里","LIN":"8鄰","STREET":"北安路","SECT":"四段","MAREA":" ","LANE":" ","ALLEY":" ","HOUSE_NO":"２７５號","E_COORD97":169468.57000000001,"N_COORD97":2551588.2200000002,"ADDRESS":"北安路四段２７５號","OBJECTID":340726},"geometry":{"x":169468.5700000003,"y":2551588.2200000025}},{"attributes":{"ID":340736,"DIS_CODE":0,"TOWNNAME":"安南區","LI":"顯宮里","LIN":"8鄰","STREET":"媽祖宮五街","SECT":" ","MAREA":" ","LANE":" ","ALLEY":" ","HOUSE_NO":"５６號","E_COORD97":160255.14000000001,"N_COORD97":2548757.1000000001,"ADDRESS":"媽祖宮五街５６號","OBJECTID":340727},"geometry":{"x":160255.1400000006,"y":2548757.1000000015}},{"attributes":{"ID":340737,"DIS_CODE":0,"TOWNNAME":"南區","LI":"鯤鯓里","LIN":"5鄰","STREET":"鯤鯓路","SECT":" ","MAREA":" ","LANE":"１１５巷","ALLEY":" ","HOUSE_NO":"９號","E_COORD97":165066.10000000001,"N_COORD97":2539954.4100000001,"ADDRESS":"鯤鯓路１１５巷９號","OBJECTID":340728},"geometry":{"x":165066.10000000056,"y":2539954.410000002}},{"attributes":{"ID":340738,"DIS_CODE":0,"TOWNNAME":"南區","LI":"鯤鯓里","LIN":"5鄰","STREET":"鯤鯓路","SECT":" ","MAREA":" ","LANE":"１１９巷","ALLEY":" ","HOUSE_NO":"１０號","E_COORD97":165023.48999999999,"N_COORD97":2539785.9199999999,"ADDRESS":"鯤鯓路１１９巷１０號","OBJECTID":340729},"geometry":{"x":165023.49000000115,"y":2539785.9199999999}},{"attributes":{"ID":340739,"DIS_CODE":0,"TOWNNAME":"南區","LI":"鯤鯓里","LIN":"5鄰","STREET":"鯤鯓路","SECT":" ","MAREA":" ","LANE":"１１９巷","ALLEY":" ","HOUSE_NO":"１１號","E_COORD97":165055.16,"N_COORD97":2539770.2000000002,"ADDRESS":"鯤鯓路１１９巷１１號","OBJECTID":340730},"geometry":{"x":165055.16000000015,"y":2539770.1999999993}},{"attributes":{"ID":340740,"DIS_CODE":0,"TOWNNAME":"南區","LI":"鯤鯓里","LIN":"5鄰","STREET":"鯤鯓路","SECT":" ","MAREA":" ","LANE":"１１９巷","ALLEY":" ","HOUSE_NO":"１６號","E_COORD97":164983.26999999999,"N_COORD97":2539949.3700000001,"ADDRESS":"鯤鯓路１１９巷１６號","OBJECTID":340731},"geometry":{"x":164983.26999999862,"y":2539949.370000001}},{"attributes":{"ID":340741,"DIS_CODE":0,"TOWNNAME":"南區","LI":"鯤鯓里","LIN":"5鄰","STREET":"鯤鯓路","SECT":" ","MAREA":" ","LANE":"１１９巷","ALLEY":" ","HOUSE_NO":"１６號之１","E_COORD97":164983.63,"N_COORD97":2539944.54,"ADDRESS":"鯤鯓路１１９巷１６號之１","OBJECTID":340732},"geometry":{"x":164983.63000000082,"y":2539944.5400000028}},{"attributes":{"ID":340742,"DIS_CODE":0,"TOWNNAME":"北區","LI":"裕民里","LIN":"1鄰","STREET":"成功路","SECT":" ","MAREA":" ","LANE":"６１４巷","ALLEY":" ","HOUSE_NO":"２８號","E_COORD97":167526.45999999999,"N_COORD97":2544870.2799999998,"ADDRESS":"成功路６１４巷２８號","OBJECTID":340733},"geometry":{"x":167526.45999999996,"y":2544870.2800000012}},{"attributes":{"ID":340743,"DIS_CODE":0,"TOWNNAME":"北區","LI":"裕民里","LIN":"1鄰","STREET":"成功路","SECT":" ","MAREA":" ","LANE":"６１４巷","ALLEY":" ","HOUSE_NO":"３０號","E_COORD97":167532,"N_COORD97":2544873.23,"ADDRESS":"成功路６１４巷３０號","OBJECTID":340734},"geometry":{"x":167532.00000000093,"y":2544873.2300000004}},{"attributes":{"ID":340744,"DIS_CODE":0,"TOWNNAME":"北區","LI":"裕民里","LIN":"1鄰","STREET":"成功路","SECT":" ","MAREA":" ","LANE":"６１４巷","ALLEY":" ","HOUSE_NO":"３２號","E_COORD97":167537.17999999999,"N_COORD97":2544875.0699999998,"ADDRESS":"成功路６１４巷３２號","OBJECTID":340735},"geometry":{"x":167537.18000000156,"y":2544875.070000004}},{"attributes":{"ID":340745,"DIS_CODE":0,"TOWNNAME":"北區","LI":"裕民里","LIN":"1鄰","STREET":"成功路","SECT":" ","MAREA":" ","LANE":"６１４巷","ALLEY":" ","HOUSE_NO":"３４號","E_COORD97":167540.87,"N_COORD97":2544875.4399999999,"ADDRESS":"成功路６１４巷３４號","OBJECTID":340736},"geometry":{"x":167540.87000000011,"y":2544875.4400000013}},{"attributes":{"ID":340746,"DIS_CODE":0,"TOWNNAME":"北區","LI":"裕民里","LIN":"1鄰","STREET":"成功路","SECT":" ","MAREA":" ","LANE":"６１４巷","ALLEY":" ","HOUSE_NO":"３６號","E_COORD97":167547.14999999999,"N_COORD97":2544875.4399999999,"ADDRESS":"成功路６１４巷３６號","OBJECTID":340737},"geometry":{"x":167547.1500000013,"y":2544875.4400000013}},{"attributes":{"ID":340747,"DIS_CODE":0,"TOWNNAME":"北區","LI":"興南里","LIN":"1鄰","STREET":"公園南路","SECT":" ","MAREA":" ","LANE":"３８巷","ALLEY":" ","HOUSE_NO":"８之１號","E_COORD97":168861.89000000001,"N_COORD97":2544678.79,"ADDRESS":"公園南路３８巷８之１號","OBJECTID":340738},"geometry":{"x":168861.8900000006,"y":2544678.7899999991}},{"attributes":{"ID":340748,"DIS_CODE":0,"TOWNNAME":"安南區","LI":"顯宮里","LIN":"8鄰","STREET":"媽祖宮五街","SECT":" ","MAREA":" ","LANE":" ","ALLEY":" ","HOUSE_NO":"８０號","E_COORD97":160272.79000000001,"N_COORD97":2548793.04,"ADDRESS":"媽祖宮五街８０號","OBJECTID":340739},"geometry":{"x":160272.7900000019,"y":2548793.0399999972}},{"attributes":{"ID":340749,"DIS_CODE":0,"TOWNNAME":"安南區","LI":"顯宮里","LIN":"8鄰","STREET":"媽祖宮五街","SECT":" ","MAREA":" ","LANE":" ","ALLEY":" ","HOUSE_NO":"９０號","E_COORD97":160304.67000000001,"N_COORD97":2548818.9500000002,"ADDRESS":"媽祖宮五街９０號","OBJECTID":340740},"geometry":{"x":160304.67000000086,"y":2548818.9500000011}},{"attributes":{"ID":340750,"DIS_CODE":0,"TOWNNAME":"安南區","LI":"顯宮里","LIN":"8鄰","STREET":"媽祖宮五街","SECT":" ","MAREA":" ","LANE":" ","ALLEY":" ","HOUSE_NO":"１９８號","E_COORD97":160401.95000000001,"N_COORD97":2549066.2200000002,"ADDRESS":"媽祖宮五街１９８號","OBJECTID":340741},"geometry":{"x":160401.95000000019,"y":2549066.2200000025}},{"attributes":{"ID":340751,"DIS_CODE":0,"TOWNNAME":"學甲區","LI":"三慶里","LIN":"5鄰","STREET":" ","SECT":" ","MAREA":"頂洲","LANE":" ","ALLEY":" ","HOUSE_NO":"６４號之１","E_COORD97":168674.37,"N_COORD97":2576450.7999999998,"ADDRESS":"頂洲６４號之１","OBJECTID":340742},"geometry":{"x":168674.37000000104,"y":2576450.8000000007}},{"attributes":{"ID":340752,"DIS_CODE":0,"TOWNNAME":"學甲區","LI":"三慶里","LIN":"5鄰","STREET":" ","SECT":" ","MAREA":"頂洲","LANE":" ","ALLEY":" ","HOUSE_NO":"６４號","E_COORD97":168655.17000000001,"N_COORD97":2576447.9500000002,"ADDRESS":"頂洲６４號","OBJECTID":340743},"geometry":{"x":168655.17000000086,"y":2576447.9499999993}},{"attributes":{"ID":340753,"DIS_CODE":0,"TOWNNAME":"安南區","LI":"州南里","LIN":"8鄰","STREET":"長和路","SECT":"三段","MAREA":" ","LANE":" ","ALLEY":" ","HOUSE_NO":"８４號","E_COORD97":169736.62,"N_COORD97":2551535.4100000001,"ADDRESS":"長和路三段８４號","OBJECTID":340744},"geometry":{"x":169736.62000000197,"y":2551535.410000002}},{"attributes":{"ID":340754,"DIS_CODE":0,"TOWNNAME":"安南區","LI":"州南里","LIN":"8鄰","STREET":"長和路","SECT":"三段","MAREA":" ","LANE":" ","ALLEY":" ","HOUSE_NO":"８２號","E_COORD97":169749.95999999999,"N_COORD97":2551534.1400000001,"ADDRESS":"長和路三段８２號","OBJECTID":340745},"geometry":{"x":169749.96000000089,"y":2551534.1400000025}},{"attributes":{"ID":340755,"DIS_CODE":0,"TOWNNAME":"安南區","LI":"州南里","LIN":"8鄰","STREET":"長和路","SECT":"三段","MAREA":" ","LANE":" ","ALLEY":" ","HOUSE_NO":"８０號","E_COORD97":169755.29000000001,"N_COORD97":2551538.9700000002,"ADDRESS":"長和路三段８０號","OBJECTID":340746},"geometry":{"x":169755.29000000004,"y":2551538.9700000025}},{"attributes":{"ID":340756,"DIS_CODE":0,"TOWNNAME":"學甲區","LI":"光華里","LIN":"5鄰","STREET":" ","SECT":" ","MAREA":"過港子","LANE":" ","ALLEY":" ","HOUSE_NO":"３６號","E_COORD97":164623.22,"N_COORD97":2571702.29,"ADDRESS":"過港子３６號","OBJECTID":340747},"geometry":{"x":164623.22000000067,"y":2571702.2899999991}},{"attributes":{"ID":340757,"DIS_CODE":0,"TOWNNAME":"學甲區","LI":"光華里","LIN":"5鄰","STREET":" ","SECT":" ","MAREA":"過港子","LANE":" ","ALLEY":" ","HOUSE_NO":"３７號","E_COORD97":164579.69,"N_COORD97":2571709.8199999998,"ADDRESS":"過港子３７號","OBJECTID":340748},"geometry":{"x":164579.69000000227,"y":2571709.8200000022}},{"attributes":{"ID":340758,"DIS_CODE":0,"TOWNNAME":"學甲區","LI":"光華里","LIN":"5鄰","STREET":" ","SECT":" ","MAREA":"過港子","LANE":" ","ALLEY":" ","HOUSE_NO":"３９號之１","E_COORD97":164510.89000000001,"N_COORD97":2571686.29,"ADDRESS":"過港子３９號之１","OBJECTID":340749},"geometry":{"x":164510.88999999966,"y":2571686.2899999991}},{"attributes":{"ID":340759,"DIS_CODE":0,"TOWNNAME":"學甲區","LI":"光華里","LIN":"5鄰","STREET":" ","SECT":" ","MAREA":"過港子","LANE":" ","ALLEY":" ","HOUSE_NO":"３９號","E_COORD97":164546.85000000001,"N_COORD97":2571695,"ADDRESS":"過港子３９號","OBJECTID":340750},"geometry":{"x":164546.84999999963,"y":2571695}},{"attributes":{"ID":340760,"DIS_CODE":0,"TOWNNAME":"學甲區","LI":"光華里","LIN":"5鄰","STREET":" ","SECT":" ","MAREA":"過港子","LANE":" ","ALLEY":" ","HOUSE_NO":"４１號","E_COORD97":164570.31,"N_COORD97":2571734.8799999999,"ADDRESS":"過港子４１號","OBJECTID":340751},"geometry":{"x":164570.31000000052,"y":2571734.8800000008}},{"attributes":{"ID":340761,"DIS_CODE":0,"TOWNNAME":"學甲區","LI":"光華里","LIN":"5鄰","STREET":" ","SECT":" ","MAREA":"過港子","LANE":" ","ALLEY":" ","HOUSE_NO":"４２號之１","E_COORD97":164608.01999999999,"N_COORD97":2571709.6600000001,"ADDRESS":"過港子４２號之１","OBJECTID":340752},"geometry":{"x":164608.01999999955,"y":2571709.660000002}},{"attributes":{"ID":340762,"DIS_CODE":0,"TOWNNAME":"學甲區","LI":"光華里","LIN":"5鄰","STREET":" ","SECT":" ","MAREA":"過港子","LANE":" ","ALLEY":" ","HOUSE_NO":"４３號","E_COORD97":164624.32999999999,"N_COORD97":2571767.0499999998,"ADDRESS":"過港子４３號","OBJECTID":340753},"geometry":{"x":164624.33000000101,"y":2571767.0500000007}},{"attributes":{"ID":340763,"DIS_CODE":0,"TOWNNAME":"學甲區","LI":"光華里","LIN":"5鄰","STREET":" ","SECT":" ","MAREA":"過港子","LANE":" ","ALLEY":" ","HOUSE_NO":"４５號之１","E_COORD97":164663.53,"N_COORD97":2571722.6699999999,"ADDRESS":"過港子４５號之１","OBJECTID":340754},"geometry":{"x":164663.52999999933,"y":2571722.6700000037}},{"attributes":{"ID":340764,"DIS_CODE":0,"TOWNNAME":"學甲區","LI":"光華里","LIN":"5鄰","STREET":" ","SECT":" ","MAREA":"過港子","LANE":" ","ALLEY":" ","HOUSE_NO":"４５號之２","E_COORD97":164695.01999999999,"N_COORD97":2571718.8300000001,"ADDRESS":"過港子４５號之２","OBJECTID":340755},"geometry":{"x":164695.01999999955,"y":2571718.8300000019}},{"attributes":{"ID":340765,"DIS_CODE":0,"TOWNNAME":"學甲區","LI":"光華里","LIN":"5鄰","STREET":" ","SECT":" ","MAREA":"過港子","LANE":" ","ALLEY":" ","HOUSE_NO":"４５號","E_COORD97":164649.56,"N_COORD97":2571751.9900000002,"ADDRESS":"過港子４５號","OBJECTID":340756},"geometry":{"x":164649.56000000052,"y":2571751.9900000021}},{"attributes":{"ID":340766,"DIS_CODE":0,"TOWNNAME":"學甲區","LI":"光華里","LIN":"5鄰","STREET":" ","SECT":" ","MAREA":"過港子","LANE":" ","ALLEY":" ","HOUSE_NO":"４６號","E_COORD97":164652.25,"N_COORD97":2571704.73,"ADDRESS":"過港子４６號","OBJECTID":340757},"geometry":{"x":164652.25000000093,"y":2571704.7300000004}},{"attributes":{"ID":340767,"DIS_CODE":0,"TOWNNAME":"學甲區","LI":"平和里","LIN":"5鄰","STREET":" ","SECT":" ","MAREA":"學甲寮","LANE":" ","ALLEY":" ","HOUSE_NO":"２６號","E_COORD97":169782.54000000001,"N_COORD97":2573412.71,"ADDRESS":"學甲寮２６號","OBJECTID":340758},"geometry":{"x":169782.54000000004,"y":2573412.7100000028}},{"attributes":{"ID":340768,"DIS_CODE":0,"TOWNNAME":"學甲區","LI":"平和里","LIN":"5鄰","STREET":" ","SECT":" ","MAREA":"學甲寮","LANE":" ","ALLEY":" ","HOUSE_NO":"２７號","E_COORD97":169786.70000000001,"N_COORD97":2573394.1200000001,"ADDRESS":"學甲寮２７號","OBJECTID":340759},"geometry":{"x":169786.70000000019,"y":2573394.120000001}},{"attributes":{"ID":340769,"DIS_CODE":0,"TOWNNAME":"學甲區","LI":"平和里","LIN":"5鄰","STREET":" ","SECT":" ","MAREA":"學甲寮","LANE":" ","ALLEY":" ","HOUSE_NO":"２８號之１","E_COORD97":169843.57000000001,"N_COORD97":2573365.96,"ADDRESS":"學甲寮２８號之１","OBJECTID":340760},"geometry":{"x":169843.5700000003,"y":2573365.9600000046}},{"attributes":{"ID":340770,"DIS_CODE":0,"TOWNNAME":"學甲區","LI":"平和里","LIN":"5鄰","STREET":" ","SECT":" ","MAREA":"學甲寮","LANE":" ","ALLEY":" ","HOUSE_NO":"２９號之１","E_COORD97":169810.59,"N_COORD97":2573361.0800000001,"ADDRESS":"學甲寮２９號之１","OBJECTID":340761},"geometry":{"x":169810.58999999985,"y":2573361.0800000019}},{"attributes":{"ID":340771,"DIS_CODE":0,"TOWNNAME":"學甲區","LI":"平和里","LIN":"5鄰","STREET":" ","SECT":" ","MAREA":"學甲寮","LANE":" ","ALLEY":" ","HOUSE_NO":"２９號","E_COORD97":169797.98000000001,"N_COORD97":2573358.6099999999,"ADDRESS":"學甲寮２９號","OBJECTID":340762},"geometry":{"x":169797.98000000138,"y":2573358.6099999994}},{"attributes":{"ID":340772,"DIS_CODE":0,"TOWNNAME":"學甲區","LI":"平和里","LIN":"5鄰","STREET":" ","SECT":" ","MAREA":"學甲寮","LANE":" ","ALLEY":" ","HOUSE_NO":"３１號之１","E_COORD97":169805.26000000001,"N_COORD97":2573346.0600000001,"ADDRESS":"學甲寮３１號之１","OBJECTID":340763},"geometry":{"x":169805.26000000071,"y":2573346.0600000024}},{"attributes":{"ID":340773,"DIS_CODE":0,"TOWNNAME":"學甲區","LI":"平和里","LIN":"5鄰","STREET":" ","SECT":" ","MAREA":"學甲寮","LANE":" ","ALLEY":" ","HOUSE_NO":"３１號","E_COORD97":169797.32999999999,"N_COORD97":2573324.8999999999,"ADDRESS":"學甲寮３１號","OBJECTID":340764},"geometry":{"x":169797.33000000007,"y":2573324.9000000041}},{"attributes":{"ID":340774,"DIS_CODE":0,"TOWNNAME":"學甲區","LI":"平和里","LIN":"5鄰","STREET":" ","SECT":" ","MAREA":"學甲寮","LANE":" ","ALLEY":" ","HOUSE_NO":"３２號","E_COORD97":169785.29000000001,"N_COORD97":2573321,"ADDRESS":"學甲寮３２號","OBJECTID":340765},"geometry":{"x":169785.29000000097,"y":2573321.0000000019}},{"attributes":{"ID":340775,"DIS_CODE":0,"TOWNNAME":"學甲區","LI":"平和里","LIN":"5鄰","STREET":" ","SECT":" ","MAREA":"學甲寮","LANE":" ","ALLEY":" ","HOUSE_NO":"３３號","E_COORD97":169754.34,"N_COORD97":2573318.7400000002,"ADDRESS":"學甲寮３３號","OBJECTID":340766},"geometry":{"x":169754.33999999985,"y":2573318.7400000002}},{"attributes":{"ID":340776,"DIS_CODE":0,"TOWNNAME":"學甲區","LI":"平和里","LIN":"5鄰","STREET":" ","SECT":" ","MAREA":"學甲寮","LANE":" ","ALLEY":" ","HOUSE_NO":"３４號","E_COORD97":169777.29000000001,"N_COORD97":2573386.7400000002,"ADDRESS":"學甲寮３４號","OBJECTID":340767},"geometry":{"x":169777.29000000004,"y":2573386.7399999984}},{"attributes":{"ID":340777,"DIS_CODE":0,"TOWNNAME":"六甲區","LI":"大丘里","LIN":"5鄰","STREET":" ","SECT":" ","MAREA":"大丘園","LANE":" ","ALLEY":" ","HOUSE_NO":"１６號","E_COORD97":192534.29999999999,"N_COORD97":2568750.6200000001,"ADDRESS":"大丘園１６號","OBJECTID":340768},"geometry":{"x":192534.30000000075,"y":2568750.6200000048}},{"attributes":{"ID":340778,"DIS_CODE":0,"TOWNNAME":"六甲區","LI":"大丘里","LIN":"5鄰","STREET":" ","SECT":" ","MAREA":"大丘園","LANE":" ","ALLEY":" ","HOUSE_NO":"１７號","E_COORD97":192505.39999999999,"N_COORD97":2568773.9100000001,"ADDRESS":"大丘園１７號","OBJECTID":340769},"geometry":{"x":192505.4000000013,"y":2568773.9100000001}},{"attributes":{"ID":340779,"DIS_CODE":0,"TOWNNAME":"六甲區","LI":"大丘里","LIN":"5鄰","STREET":" ","SECT":" ","MAREA":"大丘園","LANE":" ","ALLEY":" ","HOUSE_NO":"１８號之１","E_COORD97":192490.26000000001,"N_COORD97":2568756.9399999999,"ADDRESS":"大丘園１８號之１","OBJECTID":340770},"geometry":{"x":192490.26000000071,"y":2568756.9400000032}},{"attributes":{"ID":340780,"DIS_CODE":0,"TOWNNAME":"六甲區","LI":"大丘里","LIN":"5鄰","STREET":" ","SECT":" ","MAREA":"大丘園","LANE":" ","ALLEY":" ","HOUSE_NO":"１８號","E_COORD97":192501.54000000001,"N_COORD97":2568749.4100000001,"ADDRESS":"大丘園１８號","OBJECTID":340771},"geometry":{"x":192501.54000000004,"y":2568749.4100000001}},{"attributes":{"ID":340781,"DIS_CODE":0,"TOWNNAME":"六甲區","LI":"大丘里","LIN":"5鄰","STREET":" ","SECT":" ","MAREA":"大丘園","LANE":" ","ALLEY":" ","HOUSE_NO":"１９號","E_COORD97":192488.31,"N_COORD97":2568776.27,"ADDRESS":"大丘園１９號","OBJECTID":340772},"geometry":{"x":192488.31000000052,"y":2568776.2700000014}},{"attributes":{"ID":340782,"DIS_CODE":0,"TOWNNAME":"六甲區","LI":"大丘里","LIN":"5鄰","STREET":" ","SECT":" ","MAREA":"大丘園","LANE":" ","ALLEY":" ","HOUSE_NO":"２０號之１","E_COORD97":192446.31,"N_COORD97":2568758.6499999999,"ADDRESS":"大丘園２０號之１","OBJECTID":340773},"geometry":{"x":192446.30999999959,"y":2568758.6500000004}},{"attributes":{"ID":340783,"DIS_CODE":0,"TOWNNAME":"六甲區","LI":"大丘里","LIN":"5鄰","STREET":" ","SECT":" ","MAREA":"大丘園","LANE":" ","ALLEY":" ","HOUSE_NO":"２０號","E_COORD97":192464.63,"N_COORD97":2568779.8999999999,"ADDRESS":"大丘園２０號","OBJECTID":340774},"geometry":{"x":192464.62999999989,"y":2568779.9000000022}},{"attributes":{"ID":340784,"DIS_CODE":0,"TOWNNAME":"六甲區","LI":"大丘里","LIN":"5鄰","STREET":" ","SECT":" ","MAREA":"大丘園","LANE":" ","ALLEY":" ","HOUSE_NO":"２１號","E_COORD97":192481.70999999999,"N_COORD97":2568798.6899999999,"ADDRESS":"大丘園２１號","OBJECTID":340775},"geometry":{"x":192481.70999999996,"y":2568798.6899999995}},{"attributes":{"ID":340785,"DIS_CODE":0,"TOWNNAME":"六甲區","LI":"大丘里","LIN":"5鄰","STREET":" ","SECT":" ","MAREA":"大丘園","LANE":" ","ALLEY":" ","HOUSE_NO":"２２號","E_COORD97":192502.25,"N_COORD97":2568803.1499999999,"ADDRESS":"大丘園２２號","OBJECTID":340776},"geometry":{"x":192502.25000000093,"y":2568803.1500000004}},{"attributes":{"ID":340786,"DIS_CODE":0,"TOWNNAME":"六甲區","LI":"大丘里","LIN":"5鄰","STREET":" ","SECT":" ","MAREA":"大丘園","LANE":" ","ALLEY":" ","HOUSE_NO":"２３號","E_COORD97":192469.38,"N_COORD97":2568821.8399999999,"ADDRESS":"大丘園２３號","OBJECTID":340777},"geometry":{"x":192469.38000000082,"y":2568821.8399999999}},{"attributes":{"ID":340787,"DIS_CODE":0,"TOWNNAME":"六甲區","LI":"大丘里","LIN":"5鄰","STREET":" ","SECT":" ","MAREA":"大丘園","LANE":" ","ALLEY":" ","HOUSE_NO":"２４號","E_COORD97":192499.06,"N_COORD97":2568813.1899999999,"ADDRESS":"大丘園２４號","OBJECTID":340778},"geometry":{"x":192499.05999999959,"y":2568813.1900000013}},{"attributes":{"ID":340788,"DIS_CODE":0,"TOWNNAME":"北區","LI":"大和里","LIN":"1鄰","STREET":"大港街","SECT":" ","MAREA":" ","LANE":"１５巷","ALLEY":" ","HOUSE_NO":"２９號","E_COORD97":167302.82000000001,"N_COORD97":2546018.71,"ADDRESS":"大港街１５巷２９號","OBJECTID":340779},"geometry":{"x":167302.82000000216,"y":2546018.7100000028}},{"attributes":{"ID":340789,"DIS_CODE":0,"TOWNNAME":"北區","LI":"大和里","LIN":"1鄰","STREET":"大港街","SECT":" ","MAREA":" ","LANE":"１５巷","ALLEY":" ","HOUSE_NO":"４２號","E_COORD97":167291.53,"N_COORD97":2546005.4500000002,"ADDRESS":"大港街１５巷４２號","OBJECTID":340780},"geometry":{"x":167291.53000000119,"y":2546005.4500000011}},{"attributes":{"ID":340790,"DIS_CODE":0,"TOWNNAME":"北區","LI":"大和里","LIN":"1鄰","STREET":"大港街","SECT":" ","MAREA":" ","LANE":"１５巷","ALLEY":" ","HOUSE_NO":"４０號","E_COORD97":167291.04000000001,"N_COORD97":2546011.5099999998,"ADDRESS":"大港街１５巷４０號","OBJECTID":340781},"geometry":{"x":167291.04000000097,"y":2546011.5100000016}},{"attributes":{"ID":340791,"DIS_CODE":0,"TOWNNAME":"北區","LI":"大和里","LIN":"1鄰","STREET":"大港街","SECT":" ","MAREA":" ","LANE":"１５巷","ALLEY":" ","HOUSE_NO":"３８號","E_COORD97":167290.38,"N_COORD97":2546017.3999999999,"ADDRESS":"大港街１５巷３８號","OBJECTID":340782},"geometry":{"x":167290.38000000082,"y":2546017.4000000004}},{"attributes":{"ID":340792,"DIS_CODE":0,"TOWNNAME":"北區","LI":"大和里","LIN":"1鄰","STREET":"大港街","SECT":" ","MAREA":" ","LANE":"１５巷","ALLEY":" ","HOUSE_NO":"１０號","E_COORD97":167287.26999999999,"N_COORD97":2546078.96,"ADDRESS":"大港街１５巷１０號","OBJECTID":340783},"geometry":{"x":167287.27000000048,"y":2546078.9600000009}},{"attributes":{"ID":340793,"DIS_CODE":0,"TOWNNAME":"北區","LI":"大和里","LIN":"1鄰","STREET":"大港街","SECT":" ","MAREA":" ","LANE":"１５巷","ALLEY":" ","HOUSE_NO":"１２號","E_COORD97":167287.44,"N_COORD97":2546073.23,"ADDRESS":"大港街１５巷１２號","OBJECTID":340784},"geometry":{"x":167287.44000000134,"y":2546073.2300000004}},{"attributes":{"ID":340794,"DIS_CODE":0,"TOWNNAME":"北區","LI":"大和里","LIN":"1鄰","STREET":"大港街","SECT":" ","MAREA":" ","LANE":"１５巷","ALLEY":" ","HOUSE_NO":"１６號","E_COORD97":167287.60000000001,"N_COORD97":2546067.8300000001,"ADDRESS":"大港街１５巷１６號","OBJECTID":340785},"geometry":{"x":167287.59999999963,"y":2546067.8300000019}},{"attributes":{"ID":340795,"DIS_CODE":0,"TOWNNAME":"北區","LI":"大和里","LIN":"1鄰","STREET":"大港街","SECT":" ","MAREA":" ","LANE":"１５巷","ALLEY":" ","HOUSE_NO":"１８號","E_COORD97":167287.60000000001,"N_COORD97":2546062.75,"ADDRESS":"大港街１５巷１８號","OBJECTID":340786},"geometry":{"x":167287.59999999963,"y":2546062.75}},{"attributes":{"ID":340796,"DIS_CODE":0,"TOWNNAME":"六甲區","LI":"大丘里","LIN":"5鄰","STREET":" ","SECT":" ","MAREA":"大丘園","LANE":" ","ALLEY":" ","HOUSE_NO":"２５號","E_COORD97":192529.69,"N_COORD97":2568872.5800000001,"ADDRESS":"大丘園２５號","OBJECTID":340787},"geometry":{"x":192529.69000000041,"y":2568872.5800000019}},{"attributes":{"ID":340797,"DIS_CODE":0,"TOWNNAME":"北區","LI":"大和里","LIN":"1鄰","STREET":"大港街","SECT":" ","MAREA":" ","LANE":"１５巷","ALLEY":" ","HOUSE_NO":"２０號","E_COORD97":167287.92999999999,"N_COORD97":2546057.3500000001,"ADDRESS":"大港街１５巷２０號","OBJECTID":340788},"geometry":{"x":167287.93000000156,"y":2546057.3500000015}},{"attributes":{"ID":340798,"DIS_CODE":0,"TOWNNAME":"北區","LI":"大和里","LIN":"1鄰","STREET":"大港街","SECT":" ","MAREA":" ","LANE":"１５巷","ALLEY":" ","HOUSE_NO":"２２號","E_COORD97":167288.57999999999,"N_COORD97":2546051.29,"ADDRESS":"大港街１５巷２２號","OBJECTID":340789},"geometry":{"x":167288.58000000007,"y":2546051.2899999991}},{"attributes":{"ID":340799,"DIS_CODE":0,"TOWNNAME":"北區","LI":"大和里","LIN":"1鄰","STREET":"大港街","SECT":" ","MAREA":" ","LANE":"１５巷","ALLEY":" ","HOUSE_NO":"２６號","E_COORD97":167289.07000000001,"N_COORD97":2546045.5600000001,"ADDRESS":"大港街１５巷２６號","OBJECTID":340790},"geometry":{"x":167289.0700000003,"y":2546045.5600000024}},{"attributes":{"ID":340800,"DIS_CODE":0,"TOWNNAME":"北區","LI":"大和里","LIN":"1鄰","STREET":"大港街","SECT":" ","MAREA":" ","LANE":"１５巷","ALLEY":" ","HOUSE_NO":"２８號","E_COORD97":167289.23999999999,"N_COORD97":2546039.6699999999,"ADDRESS":"大港街１５巷２８號","OBJECTID":340791},"geometry":{"x":167289.24000000022,"y":2546039.6699999999}},{"attributes":{"ID":340801,"DIS_CODE":0,"TOWNNAME":"北區","LI":"大和里","LIN":"1鄰","STREET":"大港街","SECT":" ","MAREA":" ","LANE":"１５巷","ALLEY":" ","HOUSE_NO":"３０號","E_COORD97":167289.56,"N_COORD97":2546034.1000000001,"ADDRESS":"大港街１５巷３０號","OBJECTID":340792},"geometry":{"x":167289.55999999959,"y":2546034.1000000015}},{"attributes":{"ID":340802,"DIS_CODE":0,"TOWNNAME":"北區","LI":"大和里","LIN":"1鄰","STREET":"大港街","SECT":" ","MAREA":" ","LANE":"１５巷","ALLEY":" ","HOUSE_NO":"３２號","E_COORD97":167289.73000000001,"N_COORD97":2546029.1899999999,"ADDRESS":"大港街１５巷３２號","OBJECTID":340793},"geometry":{"x":167289.73000000045,"y":2546029.1899999995}},{"attributes":{"ID":340803,"DIS_CODE":0,"TOWNNAME":"北區","LI":"大和里","LIN":"1鄰","STREET":"大港街","SECT":" ","MAREA":" ","LANE":"１５巷","ALLEY":" ","HOUSE_NO":"３６號","E_COORD97":167290.04999999999,"N_COORD97":2546023.2999999998,"ADDRESS":"大港街１５巷３６號","OBJECTID":340794},"geometry":{"x":167290.04999999981,"y":2546023.3000000045}},{"attributes":{"ID":340804,"DIS_CODE":0,"TOWNNAME":"北區","LI":"大和里","LIN":"1鄰","STREET":"大港街","SECT":" ","MAREA":" ","LANE":"１５巷","ALLEY":" ","HOUSE_NO":"３１號","E_COORD97":167303.32000000001,"N_COORD97":2546012.4900000002,"ADDRESS":"大港街１５巷３１號","OBJECTID":340795},"geometry":{"x":167303.32000000123,"y":2546012.4900000021}},{"attributes":{"ID":340805,"DIS_CODE":0,"TOWNNAME":"北區","LI":"大和里","LIN":"1鄰","STREET":"大港街","SECT":" ","MAREA":" ","LANE":"１５巷","ALLEY":" ","HOUSE_NO":"３５號","E_COORD97":167303.81,"N_COORD97":2546000.7000000002,"ADDRESS":"大港街１５巷３５號","OBJECTID":340796},"geometry":{"x":167303.81000000145,"y":2546000.6999999993}},{"attributes":{"ID":340806,"DIS_CODE":0,"TOWNNAME":"北區","LI":"東興里","LIN":"1鄰","STREET":"小東路","SECT":" ","MAREA":" ","LANE":"１４７巷","ALLEY":" ","HOUSE_NO":"２６號","E_COORD97":170743.75,"N_COORD97":2544579.0499999998,"ADDRESS":"小東路１４７巷２６號","OBJECTID":340797},"geometry":{"x":170743.75,"y":2544579.0500000007}},{"attributes":{"ID":340807,"DIS_CODE":0,"TOWNNAME":"北區","LI":"東興里","LIN":"1鄰","STREET":"小東路","SECT":" ","MAREA":" ","LANE":"１４７巷","ALLEY":" ","HOUSE_NO":"２８號","E_COORD97":170744.35000000001,"N_COORD97":2544582.5,"ADDRESS":"小東路１４７巷２８號","OBJECTID":340798},"geometry":{"x":170744.34999999963,"y":2544582.5}},{"attributes":{"ID":340808,"DIS_CODE":0,"TOWNNAME":"北區","LI":"東興里","LIN":"1鄰","STREET":"小東路","SECT":" ","MAREA":" ","LANE":"１４７巷","ALLEY":" ","HOUSE_NO":"３０號","E_COORD97":170745.12,"N_COORD97":2544585.5499999998,"ADDRESS":"小東路１４７巷３０號","OBJECTID":340799},"geometry":{"x":170745.11999999918,"y":2544585.5500000026}},{"attributes":{"ID":340809,"DIS_CODE":0,"TOWNNAME":"北區","LI":"東興里","LIN":"1鄰","STREET":"小東路","SECT":" ","MAREA":" ","LANE":"１４７巷","ALLEY":" ","HOUSE_NO":"３２號","E_COORD97":170745.88,"N_COORD97":2544588.7200000002,"ADDRESS":"小東路１４７巷３２號","OBJECTID":340800},"geometry":{"x":170745.87999999989,"y":2544588.7200000007}}]}