{"displayFieldName":"TOWNNAME","fieldAliases":{"ID":"ID","DIS_CODE":"DIS_CODE","TOWNNAME":"TOWNNAME","LI":"LI","LIN":"LIN","STREET":"STREET","SECT":"SECT","MAREA":"MAREA","LANE":"LANE","ALLEY":"ALLEY","HOUSE_NO":"HOUSE_NO","E_COORD97":"E_COORD97","N_COORD97":"N_COORD97","ADDRESS":"ADDRESS","OBJECTID":"OBJECTID"},"geometryType":"esriGeometryPoint","spatialReference":{"wkid":102443,"latestWkid":3826},"fields":[{"name":"ID","type":"esriFieldTypeDouble","alias":"ID"},{"name":"DIS_CODE","type":"esriFieldTypeInteger","alias":"DIS_CODE"},{"name":"TOWNNAME","type":"esriFieldTypeString","alias":"TOWNNAME","length":8},{"name":"LI","type":"esriFieldTypeString","alias":"LI","length":8},{"name":"LIN","type":"esriFieldTypeString","alias":"LIN","length":12},{"name":"STREET","type":"esriFieldTypeString","alias":"STREET","length":20},{"name":"SECT","type":"esriFieldTypeString","alias":"SECT","length":8},{"name":"MAREA","type":"esriFieldTypeString","alias":"MAREA","length":12},{"name":"LANE","type":"esriFieldTypeString","alias":"LANE","length":10},{"name":"ALLEY","type":"esriFieldTypeString","alias":"ALLEY","length":10},{"name":"HOUSE_NO","type":"esriFieldTypeString","alias":"HOUSE_NO","length":20},{"name":"E_COORD97","type":"esriFieldTypeDouble","alias":"E_COORD97"},{"name":"N_COORD97","type":"esriFieldTypeDouble","alias":"N_COORD97"},{"name":"ADDRESS","type":"esriFieldTypeString","alias":"ADDRESS","length":50},{"name":"OBJECTID","type":"esriFieldTypeOID","alias":"OBJECTID"}],"features":[{"attributes":{"ID":332010,"DIS_CODE":0,"TOWNNAME":"歸仁區","LI":"八甲里","LIN":"7鄰","STREET":"中正北路","SECT":"一段","MAREA":" ","LANE":"２３１巷","ALLEY":" ","HOUSE_NO":"１８２號","E_COORD97":176962.21715000001,"N_COORD97":2541692.4996600002,"ADDRESS":"大德路２３１巷１８２號","OBJECTID":332001},"geometry":{"x":176962.21715000086,"y":2541692.4996610004}},{"attributes":{"ID":332011,"DIS_CODE":0,"TOWNNAME":"歸仁區","LI":"崙頂里","LIN":"21鄰","STREET":"大成路","SECT":" ","MAREA":" ","LANE":"１８２巷","ALLEY":" ","HOUSE_NO":"７５號","E_COORD97":177656.65432500001,"N_COORD97":2540094.0137900002,"ADDRESS":"大成路１８２巷７５號","OBJECTID":332002},"geometry":{"x":177656.65432500094,"y":2540094.0137869995}},{"attributes":{"ID":332012,"DIS_CODE":0,"TOWNNAME":"歸仁區","LI":"武東里","LIN":"10鄰","STREET":"中正南路","SECT":"二段","MAREA":" ","LANE":"２５８巷","ALLEY":" ","HOUSE_NO":"５７號","E_COORD97":175152.915327,"N_COORD97":2535333.3855400002,"ADDRESS":"中正南路二段２５８巷５７號","OBJECTID":332003},"geometry":{"x":175152.91532700229,"y":2535333.3855409995}},{"attributes":{"ID":332013,"DIS_CODE":0,"TOWNNAME":"歸仁區","LI":"崙頂里","LIN":"21鄰","STREET":"大成路","SECT":" ","MAREA":" ","LANE":"１８２巷","ALLEY":" ","HOUSE_NO":"７７號","E_COORD97":177652.83965400001,"N_COORD97":2540091.8971199999,"ADDRESS":"大成路１８２巷７７號","OBJECTID":332004},"geometry":{"x":177652.83965400048,"y":2540091.8971219994}},{"attributes":{"ID":332014,"DIS_CODE":0,"TOWNNAME":"歸仁區","LI":"崙頂里","LIN":"21鄰","STREET":"大成路","SECT":" ","MAREA":" ","LANE":"１８２巷","ALLEY":" ","HOUSE_NO":"７９號","E_COORD97":177648.81305699999,"N_COORD97":2540089.3571199998,"ADDRESS":"大成路１８２巷７９號","OBJECTID":332005},"geometry":{"x":177648.81305699982,"y":2540089.3571230043}},{"attributes":{"ID":332015,"DIS_CODE":0,"TOWNNAME":"善化區","LI":"光文里","LIN":"15鄰","STREET":"樹人路","SECT":" ","MAREA":" ","LANE":"３７巷","ALLEY":" ","HOUSE_NO":"５號","E_COORD97":178336,"N_COORD97":2558986,"ADDRESS":"樹人路３７巷５號","OBJECTID":332006},"geometry":{"x":178336.00000000093,"y":2558986.0000000037}},{"attributes":{"ID":332016,"DIS_CODE":0,"TOWNNAME":"善化區","LI":"光文里","LIN":"15鄰","STREET":"樹人路","SECT":" ","MAREA":" ","LANE":"７巷","ALLEY":" ","HOUSE_NO":"１５號","E_COORD97":178329.72,"N_COORD97":2558894,"ADDRESS":"樹人路７巷１５號","OBJECTID":332007},"geometry":{"x":178329.71999999974,"y":2558894}},{"attributes":{"ID":332017,"DIS_CODE":0,"TOWNNAME":"善化區","LI":"光文里","LIN":"15鄰","STREET":"樹人路","SECT":" ","MAREA":" ","LANE":"７巷","ALLEY":" ","HOUSE_NO":"２０號","E_COORD97":178327.60999999999,"N_COORD97":2558910.5,"ADDRESS":"樹人路７巷２０號","OBJECTID":332008},"geometry":{"x":178327.61000000034,"y":2558910.5}},{"attributes":{"ID":332018,"DIS_CODE":0,"TOWNNAME":"仁德區","LI":"後壁里","LIN":"15鄰","STREET":"德南路","SECT":" ","MAREA":" ","LANE":"１３７巷","ALLEY":" ","HOUSE_NO":"６６之２號","E_COORD97":173628.97,"N_COORD97":2538658.3700000001,"ADDRESS":"德南路１３７巷６６之２號","OBJECTID":332009},"geometry":{"x":173628.96999999974,"y":2538658.370000001}},{"attributes":{"ID":332019,"DIS_CODE":0,"TOWNNAME":"新營區","LI":"三仙里","LIN":"8鄰","STREET":"博愛街","SECT":" ","MAREA":" ","LANE":"８４巷","ALLEY":" ","HOUSE_NO":"９號","E_COORD97":179683.63,"N_COORD97":2578165.5600000001,"ADDRESS":"博愛街８４巷９號","OBJECTID":332010},"geometry":{"x":179683.63000000175,"y":2578165.5600000042}},{"attributes":{"ID":332020,"DIS_CODE":0,"TOWNNAME":"關廟區","LI":"田中里","LIN":"8鄰","STREET":"南雄南路","SECT":" ","MAREA":" ","LANE":" ","ALLEY":" ","HOUSE_NO":"５６８號","E_COORD97":183548.04000000001,"N_COORD97":2533829.25,"ADDRESS":"南雄南路５６８號","OBJECTID":332011},"geometry":{"x":183548.04000000097,"y":2533829.2500000019}},{"attributes":{"ID":332021,"DIS_CODE":0,"TOWNNAME":"仁德區","LI":"保安里","LIN":"15鄰","STREET":"文賢路","SECT":"二段","MAREA":" ","LANE":"１８巷","ALLEY":" ","HOUSE_NO":"２３號","E_COORD97":171669.56,"N_COORD97":2535771.8300000001,"ADDRESS":"文賢路二段１８巷２３號","OBJECTID":332012},"geometry":{"x":171669.56000000052,"y":2535771.8300000001}},{"attributes":{"ID":332022,"DIS_CODE":0,"TOWNNAME":"仁德區","LI":"後壁里","LIN":"15鄰","STREET":"德南路","SECT":" ","MAREA":" ","LANE":"１３７巷","ALLEY":" ","HOUSE_NO":"５８號","E_COORD97":173610.26000000001,"N_COORD97":2538658.52,"ADDRESS":"德南路１３７巷５８號","OBJECTID":332013},"geometry":{"x":173610.25999999978,"y":2538658.5199999996}},{"attributes":{"ID":332023,"DIS_CODE":0,"TOWNNAME":"仁德區","LI":"後壁里","LIN":"15鄰","STREET":"德南路","SECT":" ","MAREA":" ","LANE":"１３７巷","ALLEY":" ","HOUSE_NO":"６６之１３號","E_COORD97":173638.87,"N_COORD97":2538626.3599999999,"ADDRESS":"德南路１３７巷６６之１３號","OBJECTID":332014},"geometry":{"x":173638.87000000197,"y":2538626.3599999994}},{"attributes":{"ID":332024,"DIS_CODE":0,"TOWNNAME":"仁德區","LI":"保安里","LIN":"15鄰","STREET":"中正路","SECT":"一段","MAREA":" ","LANE":"２１０巷","ALLEY":" ","HOUSE_NO":"１２號","E_COORD97":171649.87,"N_COORD97":2535747.2799999998,"ADDRESS":"中正路一段２１０巷１２號","OBJECTID":332015},"geometry":{"x":171649.87000000011,"y":2535747.2800000012}},{"attributes":{"ID":332025,"DIS_CODE":0,"TOWNNAME":"仁德區","LI":"一甲里","LIN":"15鄰","STREET":"忠義路","SECT":" ","MAREA":" ","LANE":"４９巷","ALLEY":" ","HOUSE_NO":"１０號","E_COORD97":174462.64999999999,"N_COORD97":2541659.02,"ADDRESS":"忠義路４９巷１０號","OBJECTID":332016},"geometry":{"x":174462.65000000037,"y":2541659.0199999996}},{"attributes":{"ID":332026,"DIS_CODE":0,"TOWNNAME":"歸仁區","LI":"崙頂里","LIN":"21鄰","STREET":"大成路","SECT":" ","MAREA":" ","LANE":"１８２巷","ALLEY":" ","HOUSE_NO":"５０號","E_COORD97":177640.12408400001,"N_COORD97":2540128.4095999999,"ADDRESS":"大成路１８２巷５０號","OBJECTID":332017},"geometry":{"x":177640.12408399954,"y":2540128.4096019994}},{"attributes":{"ID":332027,"DIS_CODE":0,"TOWNNAME":"歸仁區","LI":"崙頂里","LIN":"21鄰","STREET":"大成路","SECT":" ","MAREA":" ","LANE":"１８２巷","ALLEY":" ","HOUSE_NO":"５２號","E_COORD97":177635.67363500001,"N_COORD97":2540126.1871000002,"ADDRESS":"大成路１８２巷５２號","OBJECTID":332018},"geometry":{"x":177635.67363500036,"y":2540126.1871030014}},{"attributes":{"ID":332028,"DIS_CODE":0,"TOWNNAME":"歸仁區","LI":"八甲里","LIN":"9鄰","STREET":"中正北路","SECT":"一段","MAREA":" ","LANE":"３９５巷","ALLEY":" ","HOUSE_NO":"１５３號","E_COORD97":177047.449853,"N_COORD97":2541842.3821800002,"ADDRESS":"中正北路一段３９５巷１５３號","OBJECTID":332019},"geometry":{"x":177047.44985300116,"y":2541842.3821780048}},{"attributes":{"ID":332029,"DIS_CODE":0,"TOWNNAME":"歸仁區","LI":"崙頂里","LIN":"21鄰","STREET":"大成路","SECT":" ","MAREA":" ","LANE":"１８２巷","ALLEY":" ","HOUSE_NO":"５６號","E_COORD97":177631.435111,"N_COORD97":2540123.9646000001,"ADDRESS":"大成路１８２巷５６號","OBJECTID":332020},"geometry":{"x":177631.4351110002,"y":2540123.9646039996}},{"attributes":{"ID":332030,"DIS_CODE":0,"TOWNNAME":"歸仁區","LI":"崙頂里","LIN":"21鄰","STREET":"大成路","SECT":" ","MAREA":" ","LANE":"１８２巷","ALLEY":" ","HOUSE_NO":"５８號","E_COORD97":177628.04429300001,"N_COORD97":2540121.1071100002,"ADDRESS":"大成路１８２巷５８號","OBJECTID":332021},"geometry":{"x":177628.04429300036,"y":2540121.107106002}},{"attributes":{"ID":332031,"DIS_CODE":0,"TOWNNAME":"歸仁區","LI":"崙頂里","LIN":"21鄰","STREET":"大成路","SECT":" ","MAREA":" ","LANE":"１８２巷","ALLEY":" ","HOUSE_NO":"６０號","E_COORD97":177624.65347399999,"N_COORD97":2540119.3079400002,"ADDRESS":"大成路１８２巷６０號","OBJECTID":332022},"geometry":{"x":177624.65347400028,"y":2540119.3079400044}},{"attributes":{"ID":332032,"DIS_CODE":0,"TOWNNAME":"歸仁區","LI":"崙頂里","LIN":"21鄰","STREET":"大成路","SECT":" ","MAREA":" ","LANE":"１８２巷","ALLEY":" ","HOUSE_NO":"６２號","E_COORD97":177619.77917200001,"N_COORD97":2540117.0854400001,"ADDRESS":"大成路１８２巷６２號","OBJECTID":332023},"geometry":{"x":177619.77917199954,"y":2540117.0854410026}},{"attributes":{"ID":332033,"DIS_CODE":0,"TOWNNAME":"歸仁區","LI":"崙頂里","LIN":"21鄰","STREET":"大成路","SECT":" ","MAREA":" ","LANE":"１８２巷","ALLEY":" ","HOUSE_NO":"６１號","E_COORD97":177652.83965400001,"N_COORD97":2540107.13711,"ADDRESS":"大成路１８２巷６１號","OBJECTID":332024},"geometry":{"x":177652.83965400048,"y":2540107.1371139996}},{"attributes":{"ID":332034,"DIS_CODE":0,"TOWNNAME":"歸仁區","LI":"崙頂里","LIN":"21鄰","STREET":"大成路","SECT":" ","MAREA":" ","LANE":"１８２巷","ALLEY":" ","HOUSE_NO":"６３號","E_COORD97":177649.02498300001,"N_COORD97":2540105.0204500002,"ADDRESS":"大成路１８２巷６３號","OBJECTID":332025},"geometry":{"x":177649.02498300001,"y":2540105.0204479992}},{"attributes":{"ID":332035,"DIS_CODE":0,"TOWNNAME":"歸仁區","LI":"八甲里","LIN":"10鄰","STREET":"中正北路","SECT":"一段","MAREA":" ","LANE":"５２５巷","ALLEY":" ","HOUSE_NO":"７７號","E_COORD97":177274.35985899999,"N_COORD97":2542060.5045599998,"ADDRESS":"中正北路一段５２５巷７７號","OBJECTID":332026},"geometry":{"x":177274.35985900089,"y":2542060.5045600012}},{"attributes":{"ID":332036,"DIS_CODE":0,"TOWNNAME":"歸仁區","LI":"崙頂里","LIN":"21鄰","STREET":"大成路","SECT":" ","MAREA":" ","LANE":"１８２巷","ALLEY":" ","HOUSE_NO":"６５號","E_COORD97":177645.422238,"N_COORD97":2540102.6921199998,"ADDRESS":"大成路１８２巷６５號","OBJECTID":332027},"geometry":{"x":177645.42223800067,"y":2540102.6921160016}},{"attributes":{"ID":332037,"DIS_CODE":0,"TOWNNAME":"安平區","LI":"建平里","LIN":"25鄰","STREET":"建平九街","SECT":" ","MAREA":" ","LANE":"６０巷","ALLEY":" ","HOUSE_NO":"３６號之１六樓之１","E_COORD97":166052.01000000001,"N_COORD97":2543586.4700000002,"ADDRESS":"建平九街６０巷３６號之１六樓之１","OBJECTID":332028},"geometry":{"x":166052.01000000071,"y":2543586.4700000007}},{"attributes":{"ID":332038,"DIS_CODE":0,"TOWNNAME":"東山區","LI":"科里里","LIN":"1鄰","STREET":" ","SECT":" ","MAREA":"下庄子","LANE":" ","ALLEY":" ","HOUSE_NO":"１號之１５","E_COORD97":189648.97816,"N_COORD97":2578576.1473699999,"ADDRESS":"下庄子１號之１５","OBJECTID":332029},"geometry":{"x":189648.97816000134,"y":2578576.1473699976}},{"attributes":{"ID":332039,"DIS_CODE":0,"TOWNNAME":"歸仁區","LI":"沙崙里","LIN":"9鄰","STREET":" ","SECT":" ","MAREA":"沙崙","LANE":" ","ALLEY":" ","HOUSE_NO":"１８５號","E_COORD97":179098.168102,"N_COORD97":2537339.5445099999,"ADDRESS":"沙崙１８５號","OBJECTID":332030},"geometry":{"x":179098.16810199991,"y":2537339.5445080008}},{"attributes":{"ID":332040,"DIS_CODE":0,"TOWNNAME":"歸仁區","LI":"沙崙里","LIN":"9鄰","STREET":" ","SECT":" ","MAREA":"沙崙","LANE":" ","ALLEY":" ","HOUSE_NO":"１８７號","E_COORD97":179100.28677599999,"N_COORD97":2537292.9778700001,"ADDRESS":"沙崙１８７號","OBJECTID":332031},"geometry":{"x":179100.28677600063,"y":2537292.9778660033}},{"attributes":{"ID":332041,"DIS_CODE":0,"TOWNNAME":"歸仁區","LI":"沙崙里","LIN":"9鄰","STREET":" ","SECT":" ","MAREA":"沙崙","LANE":" ","ALLEY":" ","HOUSE_NO":"１８６號","E_COORD97":179128.46514300001,"N_COORD97":2537307.1595299998,"ADDRESS":"沙崙１８６號","OBJECTID":332032},"geometry":{"x":179128.46514300071,"y":2537307.1595250014}},{"attributes":{"ID":332042,"DIS_CODE":0,"TOWNNAME":"大內區","LI":"環湖里","LIN":"3鄰","STREET":" ","SECT":" ","MAREA":"環湖","LANE":" ","ALLEY":" ","HOUSE_NO":"３６號","E_COORD97":190557.89387500001,"N_COORD97":2560722.7126500001,"ADDRESS":"環湖３６號","OBJECTID":332033},"geometry":{"x":190557.89387500193,"y":2560722.7126509994}},{"attributes":{"ID":332043,"DIS_CODE":0,"TOWNNAME":"歸仁區","LI":"沙崙里","LIN":"9鄰","STREET":" ","SECT":" ","MAREA":"沙崙","LANE":" ","ALLEY":" ","HOUSE_NO":"１８８號","E_COORD97":178655.577063,"N_COORD97":2537139.3079499998,"ADDRESS":"沙崙１８８號","OBJECTID":332034},"geometry":{"x":178655.57706300076,"y":2537139.3079490028}},{"attributes":{"ID":332044,"DIS_CODE":0,"TOWNNAME":"歸仁區","LI":"崙頂里","LIN":"21鄰","STREET":"大成路","SECT":" ","MAREA":" ","LANE":"２０６巷","ALLEY":" ","HOUSE_NO":"４２號","E_COORD97":177670.2176,"N_COORD97":2540067.0263,"ADDRESS":"大成路２０６巷４２號","OBJECTID":332035},"geometry":{"x":177670.21760000009,"y":2540067.0263020024}},{"attributes":{"ID":332045,"DIS_CODE":0,"TOWNNAME":"歸仁區","LI":"八甲里","LIN":"22鄰","STREET":"文化街","SECT":"一段","MAREA":" ","LANE":" ","ALLEY":" ","HOUSE_NO":"１８號","E_COORD97":178252.33986800001,"N_COORD97":2541293.5308099999,"ADDRESS":"文化街一段１８號","OBJECTID":332036},"geometry":{"x":178252.33986799978,"y":2541293.5308080018}},{"attributes":{"ID":332046,"DIS_CODE":0,"TOWNNAME":"歸仁區","LI":"八甲里","LIN":"25鄰","STREET":"忠孝北路","SECT":" ","MAREA":" ","LANE":" ","ALLEY":" ","HOUSE_NO":"２５６號","E_COORD97":178023.99968099999,"N_COORD97":2541371.4240999999,"ADDRESS":"忠孝北路２５６號","OBJECTID":332037},"geometry":{"x":178023.9996810006,"y":2541371.4240990002}},{"attributes":{"ID":332047,"DIS_CODE":0,"TOWNNAME":"歸仁區","LI":"武東里","LIN":"8鄰","STREET":"武東一街","SECT":" ","MAREA":" ","LANE":" ","ALLEY":" ","HOUSE_NO":"８６號","E_COORD97":175850.079868,"N_COORD97":2535496.2629499999,"ADDRESS":"武東一街８６號","OBJECTID":332038},"geometry":{"x":175850.07986800093,"y":2535496.2629530001}},{"attributes":{"ID":332048,"DIS_CODE":0,"TOWNNAME":"仁德區","LI":"土庫里","LIN":"15鄰","STREET":"土庫二街","SECT":" ","MAREA":" ","LANE":"６巷","ALLEY":" ","HOUSE_NO":"５號","E_COORD97":174406.85000000001,"N_COORD97":2543010.5,"ADDRESS":"土庫二街６巷５號","OBJECTID":332039},"geometry":{"x":174406.85000000056,"y":2543010.5000000037}},{"attributes":{"ID":332049,"DIS_CODE":0,"TOWNNAME":"仁德區","LI":"保安里","LIN":"15鄰","STREET":"文賢路","SECT":"二段","MAREA":" ","LANE":"１８巷","ALLEY":" ","HOUSE_NO":"１３號","E_COORD97":171684.92999999999,"N_COORD97":2535787.0699999998,"ADDRESS":"文賢路二段１８巷１３號","OBJECTID":332040},"geometry":{"x":171684.9299999997,"y":2535787.0700000022}},{"attributes":{"ID":332050,"DIS_CODE":0,"TOWNNAME":"仁德區","LI":"二行里","LIN":"15鄰","STREET":"中正西路","SECT":" ","MAREA":" ","LANE":"３６０巷","ALLEY":" ","HOUSE_NO":"４６號","E_COORD97":169757.60999999999,"N_COORD97":2535513.9900000002,"ADDRESS":"中正西路３６０巷４６號","OBJECTID":332041},"geometry":{"x":169757.61000000127,"y":2535513.9900000002}},{"attributes":{"ID":332051,"DIS_CODE":0,"TOWNNAME":"仁德區","LI":"一甲里","LIN":"15鄰","STREET":"忠義路","SECT":" ","MAREA":" ","LANE":"４９巷","ALLEY":" ","HOUSE_NO":"２２號","E_COORD97":174437.42000000001,"N_COORD97":2541649.02,"ADDRESS":"忠義路４９巷２２號","OBJECTID":332042},"geometry":{"x":174437.42000000086,"y":2541649.0199999996}},{"attributes":{"ID":332052,"DIS_CODE":0,"TOWNNAME":"仁德區","LI":"一甲里","LIN":"15鄰","STREET":"忠義路","SECT":" ","MAREA":" ","LANE":"４９巷","ALLEY":" ","HOUSE_NO":"３０號","E_COORD97":174408.59,"N_COORD97":2541642.52,"ADDRESS":"忠義路４９巷３０號","OBJECTID":332043},"geometry":{"x":174408.59000000078,"y":2541642.5199999996}},{"attributes":{"ID":332053,"DIS_CODE":0,"TOWNNAME":"仁德區","LI":"二行里","LIN":"15鄰","STREET":"中正西路","SECT":" ","MAREA":" ","LANE":"３６０巷","ALLEY":" ","HOUSE_NO":"１２６號","E_COORD97":169776.12,"N_COORD97":2535726.9900000002,"ADDRESS":"中正西路３６０巷１２６號","OBJECTID":332044},"geometry":{"x":169776.12000000104,"y":2535726.9900000002}},{"attributes":{"ID":332054,"DIS_CODE":0,"TOWNNAME":"仁德區","LI":"一甲里","LIN":"15鄰","STREET":"忠義路","SECT":" ","MAREA":" ","LANE":"４９巷","ALLEY":" ","HOUSE_NO":"２４號","E_COORD97":174430.98999999999,"N_COORD97":2541654.52,"ADDRESS":"忠義路４９巷２４號","OBJECTID":332045},"geometry":{"x":174430.99000000022,"y":2541654.5200000014}},{"attributes":{"ID":332055,"DIS_CODE":0,"TOWNNAME":"仁德區","LI":"仁義里","LIN":"17鄰","STREET":"正義三街","SECT":" ","MAREA":" ","LANE":" ","ALLEY":" ","HOUSE_NO":"３０６號","E_COORD97":174146.28,"N_COORD97":2541465.02,"ADDRESS":"正義三街３０６號","OBJECTID":332046},"geometry":{"x":174146.28000000026,"y":2541465.0200000014}},{"attributes":{"ID":332056,"DIS_CODE":0,"TOWNNAME":"仁德區","LI":"土庫里","LIN":"17鄰","STREET":"土庫一街","SECT":" ","MAREA":" ","LANE":" ","ALLEY":" ","HOUSE_NO":"９７號","E_COORD97":174611.59,"N_COORD97":2543029.25,"ADDRESS":"土庫一街９７號","OBJECTID":332047},"geometry":{"x":174611.58999999985,"y":2543029.2500000037}},{"attributes":{"ID":332057,"DIS_CODE":0,"TOWNNAME":"仁德區","LI":"仁義里","LIN":"17鄰","STREET":"義林十街","SECT":" ","MAREA":" ","LANE":" ","ALLEY":" ","HOUSE_NO":"２號","E_COORD97":174287.63,"N_COORD97":2541408.0099999998,"ADDRESS":"義林十街２號","OBJECTID":332048},"geometry":{"x":174287.62999999989,"y":2541408.0100000016}},{"attributes":{"ID":332058,"DIS_CODE":0,"TOWNNAME":"大內區","LI":"環湖里","LIN":"4鄰","STREET":" ","SECT":" ","MAREA":"環湖","LANE":" ","ALLEY":" ","HOUSE_NO":"４８號之２","E_COORD97":190511.06789999999,"N_COORD97":2560727.36931,"ADDRESS":"環湖４８號之２","OBJECTID":332049},"geometry":{"x":190511.06790000014,"y":2560727.3693100009}},{"attributes":{"ID":332059,"DIS_CODE":0,"TOWNNAME":"大內區","LI":"環湖里","LIN":"4鄰","STREET":" ","SECT":" ","MAREA":"環湖","LANE":" ","ALLEY":" ","HOUSE_NO":"４６號之２","E_COORD97":190515.09366000001,"N_COORD97":2560721.0193099999,"ADDRESS":"環湖４６號之２","OBJECTID":332050},"geometry":{"x":190515.09365999978,"y":2560721.0193099994}},{"attributes":{"ID":332060,"DIS_CODE":0,"TOWNNAME":"歸仁區","LI":"武東里","LIN":"8鄰","STREET":"武東一街","SECT":" ","MAREA":" ","LANE":" ","ALLEY":" ","HOUSE_NO":"７６號","E_COORD97":175788.260236,"N_COORD97":2535433.7683999999,"ADDRESS":"武東一街７６號","OBJECTID":332051},"geometry":{"x":175788.26023599971,"y":2535433.7684040014}},{"attributes":{"ID":332061,"DIS_CODE":0,"TOWNNAME":"歸仁區","LI":"歸南里","LIN":"6鄰","STREET":"中正南路","SECT":"一段","MAREA":" ","LANE":" ","ALLEY":" ","HOUSE_NO":"５６６號","E_COORD97":176744.584623,"N_COORD97":2539944.8966199998,"ADDRESS":"中正南路一段５６６號","OBJECTID":332052},"geometry":{"x":176744.58462299965,"y":2539944.8966160025}},{"attributes":{"ID":332062,"DIS_CODE":0,"TOWNNAME":"關廟區","LI":"關廟里","LIN":"5鄰","STREET":"中山路","SECT":"二段","MAREA":" ","LANE":" ","ALLEY":" ","HOUSE_NO":"２６５之３號","E_COORD97":179638.966285,"N_COORD97":2540230.8303399999,"ADDRESS":"中山路二段２６５之３號","OBJECTID":332053},"geometry":{"x":179638.96628499962,"y":2540230.8303369991}},{"attributes":{"ID":332063,"DIS_CODE":0,"TOWNNAME":"歸仁區","LI":"七甲里","LIN":"13鄰","STREET":"南潭一街","SECT":" ","MAREA":" ","LANE":" ","ALLEY":" ","HOUSE_NO":"３２號","E_COORD97":175921.17099499999,"N_COORD97":2543006.5943100001,"ADDRESS":"南潭一街３２號","OBJECTID":332054},"geometry":{"x":175921.17099500075,"y":2543006.5943069998}},{"attributes":{"ID":332064,"DIS_CODE":0,"TOWNNAME":"安南區","LI":"\u25A0南里","LIN":"20鄰","STREET":"環福街","SECT":" ","MAREA":" ","LANE":"１０６巷","ALLEY":" ","HOUSE_NO":"１３號","E_COORD97":170465.39000000001,"N_COORD97":2552447.3700000001,"ADDRESS":"環福街１０６巷１３號","OBJECTID":332055},"geometry":{"x":170465.3900000006,"y":2552447.370000001}},{"attributes":{"ID":332065,"DIS_CODE":0,"TOWNNAME":"安南區","LI":"\u25A0南里","LIN":"20鄰","STREET":"環福街","SECT":" ","MAREA":" ","LANE":"１０６巷","ALLEY":" ","HOUSE_NO":"１號","E_COORD97":170441.13,"N_COORD97":2552448.23,"ADDRESS":"環福街１０６巷１號","OBJECTID":332056},"geometry":{"x":170441.12999999989,"y":2552448.2300000042}},{"attributes":{"ID":332066,"DIS_CODE":0,"TOWNNAME":"仁德區","LI":"一甲里","LIN":"15鄰","STREET":"忠義路","SECT":" ","MAREA":" ","LANE":"４９巷","ALLEY":" ","HOUSE_NO":"１６之２號","E_COORD97":174434.98000000001,"N_COORD97":2541629.29,"ADDRESS":"忠義路４９巷１６之２號","OBJECTID":332057},"geometry":{"x":174434.98000000045,"y":2541629.290000001}},{"attributes":{"ID":332067,"DIS_CODE":0,"TOWNNAME":"仁德區","LI":"一甲里","LIN":"15鄰","STREET":"忠義路","SECT":" ","MAREA":" ","LANE":"４９巷","ALLEY":" ","HOUSE_NO":"８號","E_COORD97":174447.14999999999,"N_COORD97":2541678.77,"ADDRESS":"忠義路４９巷８號","OBJECTID":332058},"geometry":{"x":174447.15000000037,"y":2541678.7699999996}},{"attributes":{"ID":332068,"DIS_CODE":0,"TOWNNAME":"仁德區","LI":"一甲里","LIN":"15鄰","STREET":"忠義路","SECT":" ","MAREA":" ","LANE":"７５巷","ALLEY":" ","HOUSE_NO":"４號","E_COORD97":174392.73999999999,"N_COORD97":2541686.27,"ADDRESS":"忠義路７５巷４號","OBJECTID":332059},"geometry":{"x":174392.74000000115,"y":2541686.2700000014}},{"attributes":{"ID":332069,"DIS_CODE":0,"TOWNNAME":"仁德區","LI":"仁義里","LIN":"17鄰","STREET":"義林十二街","SECT":" ","MAREA":" ","LANE":" ","ALLEY":" ","HOUSE_NO":"１７８號","E_COORD97":174232.31,"N_COORD97":2541470.27,"ADDRESS":"義林十二街１７８號","OBJECTID":332060},"geometry":{"x":174232.31000000052,"y":2541470.2700000014}},{"attributes":{"ID":332070,"DIS_CODE":0,"TOWNNAME":"仁德區","LI":"仁義里","LIN":"17鄰","STREET":"義林十一街","SECT":" ","MAREA":" ","LANE":" ","ALLEY":" ","HOUSE_NO":"３５號","E_COORD97":174292.79000000001,"N_COORD97":2541423.5099999998,"ADDRESS":"義林十一街３５號","OBJECTID":332061},"geometry":{"x":174292.79000000097,"y":2541423.5100000035}},{"attributes":{"ID":332071,"DIS_CODE":0,"TOWNNAME":"仁德區","LI":"仁義里","LIN":"17鄰","STREET":"義林十一街","SECT":" ","MAREA":" ","LANE":" ","ALLEY":" ","HOUSE_NO":"６４號","E_COORD97":174334.42000000001,"N_COORD97":2541431.5099999998,"ADDRESS":"義林十一街６４號","OBJECTID":332062},"geometry":{"x":174334.41999999993,"y":2541431.5100000016}},{"attributes":{"ID":332072,"DIS_CODE":0,"TOWNNAME":"仁德區","LI":"一甲里","LIN":"17鄰","STREET":"中清路","SECT":" ","MAREA":" ","LANE":" ","ALLEY":" ","HOUSE_NO":"２６０號","E_COORD97":173754.89999999999,"N_COORD97":2541766.2999999998,"ADDRESS":"中清路２６０號","OBJECTID":332063},"geometry":{"x":173754.9000000013,"y":2541766.3000000026}},{"attributes":{"ID":332073,"DIS_CODE":0,"TOWNNAME":"仁德區","LI":"二行里","LIN":"17鄰","STREET":"行大街","SECT":" ","MAREA":" ","LANE":" ","ALLEY":" ","HOUSE_NO":"３１４號","E_COORD97":169685.39999999999,"N_COORD97":2535193.9900000002,"ADDRESS":"行大街３１４號","OBJECTID":332064},"geometry":{"x":169685.40000000037,"y":2535193.9900000021}},{"attributes":{"ID":332074,"DIS_CODE":0,"TOWNNAME":"仁德區","LI":"二行里","LIN":"17鄰","STREET":"行大街","SECT":" ","MAREA":" ","LANE":" ","ALLEY":" ","HOUSE_NO":"３２４號","E_COORD97":169667.84,"N_COORD97":2535202.4900000002,"ADDRESS":"行大街３２４號","OBJECTID":332065},"geometry":{"x":169667.84000000078,"y":2535202.4900000002}},{"attributes":{"ID":332075,"DIS_CODE":0,"TOWNNAME":"仁德區","LI":"土庫里","LIN":"17鄰","STREET":"土庫一街","SECT":" ","MAREA":" ","LANE":" ","ALLEY":" ","HOUSE_NO":"１３２號","E_COORD97":174655.14999999999,"N_COORD97":2542801,"ADDRESS":"土庫一街１３２號","OBJECTID":332066},"geometry":{"x":174655.1500000013,"y":2542801.0000000019}},{"attributes":{"ID":332076,"DIS_CODE":0,"TOWNNAME":"仁德區","LI":"二行里","LIN":"17鄰","STREET":"行大街","SECT":" ","MAREA":" ","LANE":" ","ALLEY":" ","HOUSE_NO":"２９８號","E_COORD97":169714.73999999999,"N_COORD97":2535179.9900000002,"ADDRESS":"行大街２９８號","OBJECTID":332067},"geometry":{"x":169714.74000000022,"y":2535179.9900000021}},{"attributes":{"ID":332077,"DIS_CODE":0,"TOWNNAME":"仁德區","LI":"二行里","LIN":"17鄰","STREET":"行大街","SECT":" ","MAREA":" ","LANE":" ","ALLEY":" ","HOUSE_NO":"３１８號","E_COORD97":169678.14999999999,"N_COORD97":2535197.7400000002,"ADDRESS":"行大街３１８號","OBJECTID":332068},"geometry":{"x":169678.1500000013,"y":2535197.7400000039}},{"attributes":{"ID":332078,"DIS_CODE":0,"TOWNNAME":"官田區","LI":"隆田里","LIN":"5鄰","STREET":"中山路","SECT":"一段","MAREA":" ","LANE":"５５巷","ALLEY":" ","HOUSE_NO":"１９號","E_COORD97":180169.21140299999,"N_COORD97":2565722.2982200002,"ADDRESS":"中山路一段５５巷１９號","OBJECTID":332069},"geometry":{"x":180169.2114030011,"y":2565722.2982240021}},{"attributes":{"ID":332079,"DIS_CODE":0,"TOWNNAME":"歸仁區","LI":"武東里","LIN":"2鄰","STREET":"武東二街","SECT":" ","MAREA":" ","LANE":" ","ALLEY":" ","HOUSE_NO":"１８之１號","E_COORD97":175442.623819,"N_COORD97":2535283.19832,"ADDRESS":"武東二街１８之１號","OBJECTID":332070},"geometry":{"x":175442.62381900009,"y":2535283.1983160023}},{"attributes":{"ID":332080,"DIS_CODE":0,"TOWNNAME":"關廟區","LI":"松腳里","LIN":"14鄰","STREET":"松安街","SECT":" ","MAREA":" ","LANE":" ","ALLEY":" ","HOUSE_NO":"３６號","E_COORD97":182039.359447,"N_COORD97":2539615.5465899999,"ADDRESS":"松安街３６號","OBJECTID":332071},"geometry":{"x":182039.35944700055,"y":2539615.5465930011}},{"attributes":{"ID":332081,"DIS_CODE":0,"TOWNNAME":"東山區","LI":"東中里","LIN":"18鄰","STREET":"中興路","SECT":" ","MAREA":" ","LANE":" ","ALLEY":" ","HOUSE_NO":"１０號","E_COORD97":188981.402947,"N_COORD97":2580015.2913899999,"ADDRESS":"中興路１０號","OBJECTID":332072},"geometry":{"x":188981.40294700116,"y":2580015.2913860045}},{"attributes":{"ID":332082,"DIS_CODE":0,"TOWNNAME":"東山區","LI":"東中里","LIN":"18鄰","STREET":"中興路","SECT":" ","MAREA":" ","LANE":" ","ALLEY":" ","HOUSE_NO":"１２號","E_COORD97":188982.19947200001,"N_COORD97":2580014.6809700001,"ADDRESS":"中興路１２號","OBJECTID":332073},"geometry":{"x":188982.19947200082,"y":2580014.6809669975}},{"attributes":{"ID":332083,"DIS_CODE":0,"TOWNNAME":"關廟區","LI":"松腳里","LIN":"14鄰","STREET":"松安街","SECT":" ","MAREA":" ","LANE":" ","ALLEY":" ","HOUSE_NO":"１００號","E_COORD97":181931.30705999999,"N_COORD97":2539648.5665699998,"ADDRESS":"松安街１００號","OBJECTID":332074},"geometry":{"x":181931.30706000049,"y":2539648.5665699989}},{"attributes":{"ID":332084,"DIS_CODE":0,"TOWNNAME":"仁德區","LI":"二行里","LIN":"15鄰","STREET":"中正西路","SECT":" ","MAREA":" ","LANE":"３５３巷","ALLEY":" ","HOUSE_NO":"５號","E_COORD97":169775.76999999999,"N_COORD97":2535356,"ADDRESS":"中正西路３５３巷５號","OBJECTID":332075},"geometry":{"x":169775.77000000142,"y":2535356.0000000019}},{"attributes":{"ID":332085,"DIS_CODE":0,"TOWNNAME":"仁德區","LI":"二行里","LIN":"15鄰","STREET":"中正西路","SECT":" ","MAREA":" ","LANE":"３５３巷","ALLEY":" ","HOUSE_NO":"７號","E_COORD97":169784.29999999999,"N_COORD97":2535354,"ADDRESS":"中正西路３５３巷７號","OBJECTID":332076},"geometry":{"x":169784.30000000168,"y":2535354}},{"attributes":{"ID":332086,"DIS_CODE":0,"TOWNNAME":"仁德區","LI":"一甲里","LIN":"15鄰","STREET":"忠義路","SECT":" ","MAREA":" ","LANE":"４９巷","ALLEY":" ","HOUSE_NO":"３７號","E_COORD97":174409.79999999999,"N_COORD97":2541596.0099999998,"ADDRESS":"忠義路４９巷３７號","OBJECTID":332077},"geometry":{"x":174409.79999999981,"y":2541596.0099999998}},{"attributes":{"ID":332087,"DIS_CODE":0,"TOWNNAME":"仁德區","LI":"一甲里","LIN":"15鄰","STREET":"忠義路","SECT":" ","MAREA":" ","LANE":"７５巷","ALLEY":" ","HOUSE_NO":"２號","E_COORD97":174393.19,"N_COORD97":2541700.7599999998,"ADDRESS":"忠義路７５巷２號","OBJECTID":332078},"geometry":{"x":174393.19000000227,"y":2541700.7600000016}},{"attributes":{"ID":332088,"DIS_CODE":0,"TOWNNAME":"仁德區","LI":"二行里","LIN":"15鄰","STREET":"中正西路","SECT":" ","MAREA":" ","LANE":"３６０巷","ALLEY":" ","HOUSE_NO":"４２號","E_COORD97":169756.85999999999,"N_COORD97":2535509.4900000002,"ADDRESS":"中正西路３６０巷４２號","OBJECTID":332079},"geometry":{"x":169756.86000000034,"y":2535509.4900000021}},{"attributes":{"ID":332089,"DIS_CODE":0,"TOWNNAME":"仁德區","LI":"一甲里","LIN":"15鄰","STREET":"忠義路","SECT":" ","MAREA":" ","LANE":"７５巷","ALLEY":" ","HOUSE_NO":"１１號","E_COORD97":174394.84,"N_COORD97":2541651.52,"ADDRESS":"忠義路７５巷１１號","OBJECTID":332080},"geometry":{"x":174394.84000000171,"y":2541651.5200000014}},{"attributes":{"ID":332090,"DIS_CODE":0,"TOWNNAME":"仁德區","LI":"一甲里","LIN":"15鄰","STREET":"忠義路","SECT":" ","MAREA":" ","LANE":"４９巷","ALLEY":" ","HOUSE_NO":"１２號","E_COORD97":174445.95000000001,"N_COORD97":2541647.77,"ADDRESS":"忠義路４９巷１２號","OBJECTID":332081},"geometry":{"x":174445.95000000112,"y":2541647.7699999996}},{"attributes":{"ID":332091,"DIS_CODE":0,"TOWNNAME":"仁德區","LI":"一甲里","LIN":"15鄰","STREET":"忠義路","SECT":" ","MAREA":" ","LANE":"４９巷","ALLEY":" ","HOUSE_NO":"２８號","E_COORD97":174408.76999999999,"N_COORD97":2541629.7599999998,"ADDRESS":"忠義路４９巷２８號","OBJECTID":332082},"geometry":{"x":174408.77000000048,"y":2541629.7600000016}},{"attributes":{"ID":332092,"DIS_CODE":0,"TOWNNAME":"仁德區","LI":"一甲里","LIN":"15鄰","STREET":"忠義路","SECT":" ","MAREA":" ","LANE":"４９巷","ALLEY":" ","HOUSE_NO":"１６號","E_COORD97":174448.41,"N_COORD97":2541626.7599999998,"ADDRESS":"忠義路４９巷１６號","OBJECTID":332083},"geometry":{"x":174448.41000000015,"y":2541626.7600000016}},{"attributes":{"ID":332093,"DIS_CODE":0,"TOWNNAME":"新化區","LI":"協興里","LIN":"15鄰","STREET":"大新路","SECT":" ","MAREA":" ","LANE":"１１１巷","ALLEY":" ","HOUSE_NO":"５０號","E_COORD97":177986.98000000001,"N_COORD97":2548642.25,"ADDRESS":"大新路１１１巷５０號","OBJECTID":332084},"geometry":{"x":177986.98000000138,"y":2548642.25}},{"attributes":{"ID":332094,"DIS_CODE":0,"TOWNNAME":"新化區","LI":"協興里","LIN":"15鄰","STREET":"大新路","SECT":" ","MAREA":" ","LANE":"１１１巷","ALLEY":" ","HOUSE_NO":"１４號","E_COORD97":177961.38,"N_COORD97":2548686.25,"ADDRESS":"大新路１１１巷１４號","OBJECTID":332085},"geometry":{"x":177961.38000000175,"y":2548686.25}},{"attributes":{"ID":332095,"DIS_CODE":0,"TOWNNAME":"新化區","LI":"協興里","LIN":"15鄰","STREET":"大新路","SECT":" ","MAREA":" ","LANE":"１１１巷","ALLEY":" ","HOUSE_NO":"３２號","E_COORD97":177992.88,"N_COORD97":2548674.25,"ADDRESS":"大新路１１１巷３２號","OBJECTID":332086},"geometry":{"x":177992.87999999989,"y":2548674.2500000037}},{"attributes":{"ID":332096,"DIS_CODE":0,"TOWNNAME":"新化區","LI":"協興里","LIN":"15鄰","STREET":"大新路","SECT":" ","MAREA":" ","LANE":"１１１巷","ALLEY":" ","HOUSE_NO":"５號","E_COORD97":177994.32999999999,"N_COORD97":2548710.25,"ADDRESS":"大新路１１１巷５號","OBJECTID":332087},"geometry":{"x":177994.33000000101,"y":2548710.25}},{"attributes":{"ID":332097,"DIS_CODE":0,"TOWNNAME":"新化區","LI":"協興里","LIN":"15鄰","STREET":"大新路","SECT":" ","MAREA":" ","LANE":"１１１巷","ALLEY":" ","HOUSE_NO":"２４號","E_COORD97":177967.88,"N_COORD97":2548680.25,"ADDRESS":"大新路１１１巷２４號","OBJECTID":332088},"geometry":{"x":177967.87999999989,"y":2548680.25}},{"attributes":{"ID":332098,"DIS_CODE":0,"TOWNNAME":"仁德區","LI":"二行里","LIN":"17鄰","STREET":"行大街","SECT":" ","MAREA":" ","LANE":" ","ALLEY":" ","HOUSE_NO":"３２８號","E_COORD97":169665.443428,"N_COORD97":2535208.32382,"ADDRESS":"行大街３２８號","OBJECTID":332089},"geometry":{"x":169665.44342800137,"y":2535208.323818}},{"attributes":{"ID":332099,"DIS_CODE":0,"TOWNNAME":"仁德區","LI":"二行里","LIN":"17鄰","STREET":"行大街","SECT":" ","MAREA":" ","LANE":" ","ALLEY":" ","HOUSE_NO":"３２２號","E_COORD97":169672.17999999999,"N_COORD97":2535200.2400000002,"ADDRESS":"行大街３２２號","OBJECTID":332090},"geometry":{"x":169672.1799999997,"y":2535200.2400000002}},{"attributes":{"ID":332100,"DIS_CODE":0,"TOWNNAME":"仁德區","LI":"二行里","LIN":"17鄰","STREET":"行大街","SECT":" ","MAREA":" ","LANE":" ","ALLEY":" ","HOUSE_NO":"３１０號","E_COORD97":169694.85000000001,"N_COORD97":2535190.7400000002,"ADDRESS":"行大街３１０號","OBJECTID":332091},"geometry":{"x":169694.84999999963,"y":2535190.7399999984}},{"attributes":{"ID":332101,"DIS_CODE":0,"TOWNNAME":"東山區","LI":"科里里","LIN":"4鄰","STREET":" ","SECT":" ","MAREA":"下庄子","LANE":" ","ALLEY":" ","HOUSE_NO":"２４號之１","E_COORD97":189612.31959,"N_COORD97":2578394.1141400002,"ADDRESS":"下庄子２４號之１","OBJECTID":332092},"geometry":{"x":189612.31959000137,"y":2578394.1141400002}},{"attributes":{"ID":332102,"DIS_CODE":0,"TOWNNAME":"七股區","LI":"樹林里","LIN":"7鄰","STREET":" ","SECT":" ","MAREA":"樹林","LANE":" ","ALLEY":" ","HOUSE_NO":"６８號之１","E_COORD97":163636.45163600001,"N_COORD97":2556961.16769,"ADDRESS":"樹林６８號之１","OBJECTID":332093},"geometry":{"x":163636.45163600054,"y":2556961.1676909998}},{"attributes":{"ID":332103,"DIS_CODE":0,"TOWNNAME":"東山區","LI":"科里里","LIN":"3鄰","STREET":" ","SECT":" ","MAREA":"下庄子","LANE":" ","ALLEY":" ","HOUSE_NO":"２８號之１７","E_COORD97":189536.03584999999,"N_COORD97":2578378.0274800002,"ADDRESS":"下庄子２８號之１７","OBJECTID":332094},"geometry":{"x":189536.0358500015,"y":2578378.0274800025}},{"attributes":{"ID":332104,"DIS_CODE":0,"TOWNNAME":"大內區","LI":"大內里","LIN":"1鄰","STREET":" ","SECT":" ","MAREA":"內庄","LANE":" ","ALLEY":" ","HOUSE_NO":"８號之３","E_COORD97":184500.88,"N_COORD97":2557552.2999999998,"ADDRESS":"內庄８號之３","OBJECTID":332095},"geometry":{"x":184500.87999999989,"y":2557552.3000000026}},{"attributes":{"ID":332105,"DIS_CODE":0,"TOWNNAME":"東山區","LI":"科里里","LIN":"3鄰","STREET":" ","SECT":" ","MAREA":"下庄子","LANE":" ","ALLEY":" ","HOUSE_NO":"２８號之１８","E_COORD97":189518.87200999999,"N_COORD97":2578395.1724700001,"ADDRESS":"下庄子２８號之１８","OBJECTID":332096},"geometry":{"x":189518.87201000005,"y":2578395.1724700015}},{"attributes":{"ID":332106,"DIS_CODE":0,"TOWNNAME":"東山區","LI":"科里里","LIN":"1鄰","STREET":" ","SECT":" ","MAREA":"下庄子","LANE":" ","ALLEY":" ","HOUSE_NO":"２號之１","E_COORD97":189609.14110000001,"N_COORD97":2578511.1657400001,"ADDRESS":"下庄子２號之１","OBJECTID":332097},"geometry":{"x":189609.14109999966,"y":2578511.1657400019}},{"attributes":{"ID":332107,"DIS_CODE":0,"TOWNNAME":"東山區","LI":"科里里","LIN":"1鄰","STREET":" ","SECT":" ","MAREA":"下庄子","LANE":" ","ALLEY":" ","HOUSE_NO":"２號之２","E_COORD97":189590.28206999999,"N_COORD97":2578519.42074,"ADDRESS":"下庄子２號之２","OBJECTID":332098},"geometry":{"x":189590.28206999972,"y":2578519.4207400028}},{"attributes":{"ID":332108,"DIS_CODE":0,"TOWNNAME":"仁德區","LI":"二行里","LIN":"17鄰","STREET":"行大街","SECT":" ","MAREA":" ","LANE":" ","ALLEY":" ","HOUSE_NO":"３０８號","E_COORD97":169714.29000000001,"N_COORD97":2535206.2400000002,"ADDRESS":"行大街３０８號","OBJECTID":332099},"geometry":{"x":169714.29000000004,"y":2535206.2400000002}},{"attributes":{"ID":332109,"DIS_CODE":0,"TOWNNAME":"七股區","LI":"樹林里","LIN":"4鄰","STREET":" ","SECT":" ","MAREA":"樹林","LANE":" ","ALLEY":" ","HOUSE_NO":"４２號","E_COORD97":164040.11721999999,"N_COORD97":2557223.2108800001,"ADDRESS":"樹林４２號","OBJECTID":332100},"geometry":{"x":164040.11722000036,"y":2557223.210882999}},{"attributes":{"ID":332110,"DIS_CODE":0,"TOWNNAME":"七股區","LI":"樹林里","LIN":"4鄰","STREET":" ","SECT":" ","MAREA":"樹林","LANE":" ","ALLEY":" ","HOUSE_NO":"４１號","E_COORD97":164067.67480199999,"N_COORD97":2557275.2808599998,"ADDRESS":"樹林４１號","OBJECTID":332101},"geometry":{"x":164067.6748019997,"y":2557275.2808550037}},{"attributes":{"ID":332111,"DIS_CODE":0,"TOWNNAME":"七股區","LI":"樹林里","LIN":"5鄰","STREET":" ","SECT":" ","MAREA":"樹林","LANE":" ","ALLEY":" ","HOUSE_NO":"４４號之５","E_COORD97":164108.58721299999,"N_COORD97":2557112.19178,"ADDRESS":"樹林４４號之５","OBJECTID":332102},"geometry":{"x":164108.58721300121,"y":2557112.191776}},{"attributes":{"ID":332112,"DIS_CODE":0,"TOWNNAME":"大內區","LI":"環湖里","LIN":"6鄰","STREET":" ","SECT":" ","MAREA":"環湖","LANE":" ","ALLEY":" ","HOUSE_NO":"８２號之２","E_COORD97":190444.38954999999,"N_COORD97":2560638.8348599998,"ADDRESS":"環湖８２號之２","OBJECTID":332103},"geometry":{"x":190444.38955000043,"y":2560638.8348600008}},{"attributes":{"ID":332113,"DIS_CODE":0,"TOWNNAME":"大內區","LI":"環湖里","LIN":"6鄰","STREET":" ","SECT":" ","MAREA":"環湖","LANE":" ","ALLEY":" ","HOUSE_NO":"８２號之３","E_COORD97":190446.93213999999,"N_COORD97":2560635.8715300001,"ADDRESS":"環湖８２號之３","OBJECTID":332104},"geometry":{"x":190446.9321400011,"y":2560635.871530002}},{"attributes":{"ID":332114,"DIS_CODE":0,"TOWNNAME":"關廟區","LI":"松腳里","LIN":"4鄰","STREET":"旺萊路","SECT":" ","MAREA":" ","LANE":"３４３巷","ALLEY":" ","HOUSE_NO":"２２號","E_COORD97":182050.48248599999,"N_COORD97":2539759.8502699998,"ADDRESS":"旺萊路３４３巷２２號","OBJECTID":332105},"geometry":{"x":182050.48248600028,"y":2539759.8502650019}},{"attributes":{"ID":332115,"DIS_CODE":0,"TOWNNAME":"歸仁區","LI":"歸南里","LIN":"22鄰","STREET":"民生八街","SECT":" ","MAREA":" ","LANE":"２８巷","ALLEY":" ","HOUSE_NO":"９９號","E_COORD97":176048.58509899999,"N_COORD97":2540514.20138,"ADDRESS":"民生八街２８巷９９號","OBJECTID":332106},"geometry":{"x":176048.58509900142,"y":2540514.2013840023}},{"attributes":{"ID":332116,"DIS_CODE":0,"TOWNNAME":"歸仁區","LI":"七甲里","LIN":"13鄰","STREET":"南潭一街","SECT":" ","MAREA":" ","LANE":" ","ALLEY":" ","HOUSE_NO":"６６號","E_COORD97":175839.64387199999,"N_COORD97":2543024.7976299999,"ADDRESS":"南潭一街６６號","OBJECTID":332107},"geometry":{"x":175839.64387200028,"y":2543024.7976309992}},{"attributes":{"ID":332117,"DIS_CODE":0,"TOWNNAME":"官田區","LI":"隆田里","LIN":"9鄰","STREET":"中山路","SECT":"一段","MAREA":" ","LANE":" ","ALLEY":" ","HOUSE_NO":"１３０號","E_COORD97":179963.80593999999,"N_COORD97":2565826.27942,"ADDRESS":"中山路一段１３０號","OBJECTID":332108},"geometry":{"x":179963.80594000127,"y":2565826.2794179972}},{"attributes":{"ID":332118,"DIS_CODE":0,"TOWNNAME":"歸仁區","LI":"歸南里","LIN":"16鄰","STREET":"中正南路","SECT":"一段","MAREA":" ","LANE":" ","ALLEY":" ","HOUSE_NO":"７０６號","E_COORD97":176507.08109399999,"N_COORD97":2539759.5824699998,"ADDRESS":"中正南路一段７０６號","OBJECTID":332109},"geometry":{"x":176507.08109400049,"y":2539759.5824740026}},{"attributes":{"ID":332119,"DIS_CODE":0,"TOWNNAME":"東山區","LI":"東中里","LIN":"18鄰","STREET":"中興路","SECT":" ","MAREA":" ","LANE":" ","ALLEY":" ","HOUSE_NO":"１０號","E_COORD97":188980.344101,"N_COORD97":2580011.0580500001,"ADDRESS":"中興路１０號","OBJECTID":332110},"geometry":{"x":188980.34410100151,"y":2580011.0580550022}},{"attributes":{"ID":332120,"DIS_CODE":0,"TOWNNAME":"歸仁區","LI":"歸南里","LIN":"10鄰","STREET":"民生九街","SECT":" ","MAREA":" ","LANE":"１３３巷","ALLEY":" ","HOUSE_NO":"４６號","E_COORD97":176320.00216,"N_COORD97":2540032.7381600002,"ADDRESS":"民生九街４６號","OBJECTID":332111},"geometry":{"x":176320.00215999968,"y":2540032.7381600011}},{"attributes":{"ID":332121,"DIS_CODE":0,"TOWNNAME":"東山區","LI":"東中里","LIN":"18鄰","STREET":"中興路","SECT":" ","MAREA":" ","LANE":" ","ALLEY":" ","HOUSE_NO":"１４號","E_COORD97":188981.191177,"N_COORD97":2580018.8897199999,"ADDRESS":"中興路１４號","OBJECTID":332112},"geometry":{"x":188981.19117700029,"y":2580018.8897170015}},{"attributes":{"ID":332122,"DIS_CODE":0,"TOWNNAME":"東山區","LI":"東中里","LIN":"4鄰","STREET":"中興路","SECT":" ","MAREA":" ","LANE":" ","ALLEY":" ","HOUSE_NO":"７１號之１","E_COORD97":188938.83733499999,"N_COORD97":2580247.9129300001,"ADDRESS":"中興路７１號之１","OBJECTID":332113},"geometry":{"x":188938.83733500075,"y":2580247.9129270017}},{"attributes":{"ID":332123,"DIS_CODE":0,"TOWNNAME":"歸仁區","LI":"歸南里","LIN":"10鄰","STREET":"民生九街","SECT":" ","MAREA":" ","LANE":" ","ALLEY":" ","HOUSE_NO":"９０號","E_COORD97":176210.67857399999,"N_COORD97":2540099.8364599999,"ADDRESS":"民生九街９０號","OBJECTID":332114},"geometry":{"x":176210.67857399955,"y":2540099.836457001}},{"attributes":{"ID":332124,"DIS_CODE":0,"TOWNNAME":"歸仁區","LI":"歸南里","LIN":"11鄰","STREET":"民生南街","SECT":"二段","MAREA":" ","LANE":" ","ALLEY":" ","HOUSE_NO":"２１９之１號","E_COORD97":176119.628325,"N_COORD97":2540096.6086900001,"ADDRESS":"民生南街二段２１９之１號","OBJECTID":332115},"geometry":{"x":176119.62832500041,"y":2540096.6086930018}},{"attributes":{"ID":332125,"DIS_CODE":0,"TOWNNAME":"仁德區","LI":"新田里","LIN":"7鄰","STREET":"新田一街","SECT":" ","MAREA":" ","LANE":" ","ALLEY":" ","HOUSE_NO":"２２８號","E_COORD97":174375.467175,"N_COORD97":2538929.6838799999,"ADDRESS":"新田一街２２８號","OBJECTID":332116},"geometry":{"x":174375.46717500128,"y":2538929.6838789992}},{"attributes":{"ID":332126,"DIS_CODE":0,"TOWNNAME":"歸仁區","LI":"八甲里","LIN":"11鄰","STREET":"大明街","SECT":" ","MAREA":" ","LANE":" ","ALLEY":" ","HOUSE_NO":"５３號","E_COORD97":177870.23682600001,"N_COORD97":2541916.2541100001,"ADDRESS":"大明街５３號","OBJECTID":332117},"geometry":{"x":177870.23682600167,"y":2541916.2541060038}},{"attributes":{"ID":332127,"DIS_CODE":0,"TOWNNAME":"歸仁區","LI":"八甲里","LIN":"4鄰","STREET":"大明街","SECT":" ","MAREA":" ","LANE":" ","ALLEY":" ","HOUSE_NO":"８０號","E_COORD97":178035.705281,"N_COORD97":2541825.87249,"ADDRESS":"大明街８０號","OBJECTID":332118},"geometry":{"x":178035.70528100058,"y":2541825.8724879995}},{"attributes":{"ID":332128,"DIS_CODE":0,"TOWNNAME":"關廟區","LI":"北勢里","LIN":"7鄰","STREET":"北安二街","SECT":" ","MAREA":" ","LANE":" ","ALLEY":" ","HOUSE_NO":"２０號","E_COORD97":181651.89187399999,"N_COORD97":2540604.3992300001,"ADDRESS":"北安二街２０號","OBJECTID":332119},"geometry":{"x":181651.89187400136,"y":2540604.3992320001}},{"attributes":{"ID":332129,"DIS_CODE":0,"TOWNNAME":"關廟區","LI":"北勢里","LIN":"12鄰","STREET":"北安二街","SECT":" ","MAREA":" ","LANE":" ","ALLEY":" ","HOUSE_NO":"１６１號","E_COORD97":181562.69365299999,"N_COORD97":2540635.9375499999,"ADDRESS":"北安二街１６１號","OBJECTID":332120},"geometry":{"x":181562.69365300145,"y":2540635.9375480022}},{"attributes":{"ID":332130,"DIS_CODE":0,"TOWNNAME":"新化區","LI":"協興里","LIN":"15鄰","STREET":"大新路","SECT":" ","MAREA":" ","LANE":"１１１巷","ALLEY":" ","HOUSE_NO":"３８號","E_COORD97":177997.38,"N_COORD97":2548660.25,"ADDRESS":"大新路１１１巷３８號","OBJECTID":332121},"geometry":{"x":177997.38000000082,"y":2548660.25}},{"attributes":{"ID":332131,"DIS_CODE":0,"TOWNNAME":"南區","LI":"開南里","LIN":"15鄰","STREET":"新建路","SECT":" ","MAREA":" ","LANE":"３０巷","ALLEY":" ","HOUSE_NO":"１號","E_COORD97":166423.20000000001,"N_COORD97":2540980.6000000001,"ADDRESS":"新建路３０巷１號","OBJECTID":332122},"geometry":{"x":166423.20000000019,"y":2540980.5999999996}},{"attributes":{"ID":332132,"DIS_CODE":0,"TOWNNAME":"南區","LI":"開南里","LIN":"15鄰","STREET":"新建路","SECT":" ","MAREA":" ","LANE":"３０巷","ALLEY":" ","HOUSE_NO":"２號","E_COORD97":166440.62,"N_COORD97":2541007.3900000001,"ADDRESS":"新建路３０巷２號","OBJECTID":332123},"geometry":{"x":166440.62000000011,"y":2541007.3900000006}},{"attributes":{"ID":332133,"DIS_CODE":0,"TOWNNAME":"南區","LI":"開南里","LIN":"15鄰","STREET":"新建路","SECT":" ","MAREA":" ","LANE":"３０巷","ALLEY":" ","HOUSE_NO":"３號","E_COORD97":166417.76999999999,"N_COORD97":2540980.8999999999,"ADDRESS":"新建路３０巷３號","OBJECTID":332124},"geometry":{"x":166417.77000000048,"y":2540980.9000000041}},{"attributes":{"ID":332134,"DIS_CODE":0,"TOWNNAME":"南區","LI":"開南里","LIN":"15鄰","STREET":"新建路","SECT":" ","MAREA":" ","LANE":"３０巷","ALLEY":" ","HOUSE_NO":"４號","E_COORD97":166434.98999999999,"N_COORD97":2541007.23,"ADDRESS":"新建路３０巷４號","OBJECTID":332125},"geometry":{"x":166434.99000000022,"y":2541007.2300000023}},{"attributes":{"ID":332135,"DIS_CODE":0,"TOWNNAME":"南區","LI":"開南里","LIN":"15鄰","STREET":"新建路","SECT":" ","MAREA":" ","LANE":"３０巷","ALLEY":" ","HOUSE_NO":"５號","E_COORD97":166405.45000000001,"N_COORD97":2540980.3100000001,"ADDRESS":"新建路３０巷５號","OBJECTID":332126},"geometry":{"x":166405.45000000112,"y":2540980.3100000005}},{"attributes":{"ID":332136,"DIS_CODE":0,"TOWNNAME":"南區","LI":"開南里","LIN":"15鄰","STREET":"新建路","SECT":" ","MAREA":" ","LANE":"３０巷","ALLEY":" ","HOUSE_NO":"６號","E_COORD97":166422.92000000001,"N_COORD97":2541007.1000000001,"ADDRESS":"新建路３０巷６號","OBJECTID":332127},"geometry":{"x":166422.91999999993,"y":2541007.1000000015}},{"attributes":{"ID":332137,"DIS_CODE":0,"TOWNNAME":"南區","LI":"開南里","LIN":"15鄰","STREET":"新建路","SECT":" ","MAREA":" ","LANE":"３０巷","ALLEY":" ","HOUSE_NO":"７號","E_COORD97":166400.17000000001,"N_COORD97":2540980.75,"ADDRESS":"新建路３０巷７號","OBJECTID":332128},"geometry":{"x":166400.17000000086,"y":2540980.75}},{"attributes":{"ID":332138,"DIS_CODE":0,"TOWNNAME":"南區","LI":"開南里","LIN":"15鄰","STREET":"新建路","SECT":" ","MAREA":" ","LANE":"３０巷","ALLEY":" ","HOUSE_NO":"８號","E_COORD97":166417.64000000001,"N_COORD97":2541007.3900000001,"ADDRESS":"新建路３０巷８號","OBJECTID":332129},"geometry":{"x":166417.6400000006,"y":2541007.3900000006}},{"attributes":{"ID":332139,"DIS_CODE":0,"TOWNNAME":"南區","LI":"新昌里","LIN":"15鄰","STREET":"國華街","SECT":"一段","MAREA":" ","LANE":"１００巷","ALLEY":" ","HOUSE_NO":"１號","E_COORD97":167632.89999999999,"N_COORD97":2542908.6899999999,"ADDRESS":"國華街一段１００巷１號","OBJECTID":332130},"geometry":{"x":167632.90000000224,"y":2542908.6899999995}},{"attributes":{"ID":332140,"DIS_CODE":0,"TOWNNAME":"南區","LI":"新昌里","LIN":"15鄰","STREET":"國華街","SECT":"一段","MAREA":" ","LANE":"１００巷","ALLEY":" ","HOUSE_NO":"２號","E_COORD97":167635.14999999999,"N_COORD97":2542888.4399999999,"ADDRESS":"國華街一段１００巷２號","OBJECTID":332131},"geometry":{"x":167635.1500000013,"y":2542888.4400000032}},{"attributes":{"ID":332141,"DIS_CODE":0,"TOWNNAME":"南區","LI":"新昌里","LIN":"15鄰","STREET":"國華街","SECT":"一段","MAREA":" ","LANE":"１００巷","ALLEY":" ","HOUSE_NO":"３號","E_COORD97":167648.01999999999,"N_COORD97":2542908.6899999999,"ADDRESS":"國華街一段１００巷３號","OBJECTID":332132},"geometry":{"x":167648.01999999955,"y":2542908.6899999995}},{"attributes":{"ID":332142,"DIS_CODE":0,"TOWNNAME":"南區","LI":"新昌里","LIN":"15鄰","STREET":"國華街","SECT":"一段","MAREA":" ","LANE":"１００巷","ALLEY":" ","HOUSE_NO":"５號","E_COORD97":167661.85000000001,"N_COORD97":2542909.0099999998,"ADDRESS":"國華街一段１００巷５號","OBJECTID":332133},"geometry":{"x":167661.85000000056,"y":2542909.0100000016}},{"attributes":{"ID":332143,"DIS_CODE":0,"TOWNNAME":"東區","LI":"崇學里","LIN":"12鄰","STREET":"崇明十一街","SECT":" ","MAREA":" ","LANE":" ","ALLEY":" ","HOUSE_NO":"３號","E_COORD97":170268.34,"N_COORD97":2541807.0499999998,"ADDRESS":"崇明十一街３號","OBJECTID":332134},"geometry":{"x":170268.33999999985,"y":2541807.0500000007}},{"attributes":{"ID":332144,"DIS_CODE":0,"TOWNNAME":"東區","LI":"忠孝里","LIN":"10鄰","STREET":"榮譽街","SECT":" ","MAREA":" ","LANE":" ","ALLEY":" ","HOUSE_NO":"２０６號","E_COORD97":170075.44,"N_COORD97":2541880.6499999999,"ADDRESS":"榮譽街２０６號","OBJECTID":332135},"geometry":{"x":170075.44000000227,"y":2541880.6499999985}},{"attributes":{"ID":332145,"DIS_CODE":0,"TOWNNAME":"東區","LI":"忠孝里","LIN":"10鄰","STREET":"榮譽街","SECT":" ","MAREA":" ","LANE":" ","ALLEY":" ","HOUSE_NO":"２０８號","E_COORD97":170079.79999999999,"N_COORD97":2541884.7999999998,"ADDRESS":"榮譽街２０８號","OBJECTID":332136},"geometry":{"x":170079.80000000075,"y":2541884.8000000026}},{"attributes":{"ID":332146,"DIS_CODE":0,"TOWNNAME":"佳里區","LI":"佳化里","LIN":"20鄰","STREET":" ","SECT":" ","MAREA":"佳里興","LANE":" ","ALLEY":" ","HOUSE_NO":"１９０號之２","E_COORD97":167134.98000000001,"N_COORD97":2565172.6400000001,"ADDRESS":"佳里興１９０號之２","OBJECTID":332137},"geometry":{"x":167134.98000000045,"y":2565172.6400000006}},{"attributes":{"ID":332147,"DIS_CODE":0,"TOWNNAME":"佳里區","LI":"佳化里","LIN":"20鄰","STREET":" ","SECT":" ","MAREA":"佳里興","LANE":" ","ALLEY":" ","HOUSE_NO":"１９０號","E_COORD97":167205.31,"N_COORD97":2565181.4900000002,"ADDRESS":"佳里興１９０號","OBJECTID":332138},"geometry":{"x":167205.30999999959,"y":2565181.4900000021}},{"attributes":{"ID":332148,"DIS_CODE":0,"TOWNNAME":"佳里區","LI":"佳化里","LIN":"20鄰","STREET":" ","SECT":" ","MAREA":"佳里興","LANE":" ","ALLEY":" ","HOUSE_NO":"１９１號之１","E_COORD97":167127.53,"N_COORD97":2565195.6899999999,"ADDRESS":"佳里興１９１號之１","OBJECTID":332139},"geometry":{"x":167127.53000000119,"y":2565195.6900000013}},{"attributes":{"ID":332149,"DIS_CODE":0,"TOWNNAME":"佳里區","LI":"佳化里","LIN":"20鄰","STREET":" ","SECT":" ","MAREA":"佳里興","LANE":" ","ALLEY":" ","HOUSE_NO":"１９１號","E_COORD97":167190.39000000001,"N_COORD97":2565213.1400000001,"ADDRESS":"佳里興１９１號","OBJECTID":332140},"geometry":{"x":167190.3900000006,"y":2565213.1400000006}},{"attributes":{"ID":332150,"DIS_CODE":0,"TOWNNAME":"佳里區","LI":"佳化里","LIN":"20鄰","STREET":" ","SECT":" ","MAREA":"佳里興","LANE":" ","ALLEY":" ","HOUSE_NO":"１９２號","E_COORD97":167148.48999999999,"N_COORD97":2565226.8599999999,"ADDRESS":"佳里興１９２號","OBJECTID":332141},"geometry":{"x":167148.49000000022,"y":2565226.8599999994}},{"attributes":{"ID":332151,"DIS_CODE":0,"TOWNNAME":"佳里區","LI":"佳化里","LIN":"20鄰","STREET":" ","SECT":" ","MAREA":"佳里興","LANE":" ","ALLEY":" ","HOUSE_NO":"１９３號","E_COORD97":167125.94,"N_COORD97":2565226.7400000002,"ADDRESS":"佳里興１９３號","OBJECTID":332142},"geometry":{"x":167125.94000000227,"y":2565226.7400000021}},{"attributes":{"ID":332152,"DIS_CODE":0,"TOWNNAME":"佳里區","LI":"佳化里","LIN":"20鄰","STREET":" ","SECT":" ","MAREA":"佳里興","LANE":" ","ALLEY":" ","HOUSE_NO":"１９４號","E_COORD97":167132.73000000001,"N_COORD97":2565249.0600000001,"ADDRESS":"佳里興１９４號","OBJECTID":332143},"geometry":{"x":167132.73000000138,"y":2565249.0600000024}},{"attributes":{"ID":332153,"DIS_CODE":0,"TOWNNAME":"佳里區","LI":"佳化里","LIN":"20鄰","STREET":" ","SECT":" ","MAREA":"佳里興","LANE":" ","ALLEY":" ","HOUSE_NO":"１９５號之６","E_COORD97":167124.14999999999,"N_COORD97":2565305.3399999999,"ADDRESS":"佳里興１９５號之６","OBJECTID":332144},"geometry":{"x":167124.15000000037,"y":2565305.3399999999}},{"attributes":{"ID":332154,"DIS_CODE":0,"TOWNNAME":"永康區","LI":"王行里","LIN":"16鄰","STREET":"王行路","SECT":" ","MAREA":" ","LANE":"６８巷","ALLEY":" ","HOUSE_NO":"６號之１","E_COORD97":175690.54603500001,"N_COORD97":2548032.0519400002,"ADDRESS":"王行路６８巷６號之１","OBJECTID":332145},"geometry":{"x":175690.54603500105,"y":2548032.0519380011}},{"attributes":{"ID":332155,"DIS_CODE":0,"TOWNNAME":"永康區","LI":"埔園里","LIN":"12鄰","STREET":"四維街","SECT":" ","MAREA":" ","LANE":"５８巷","ALLEY":" ","HOUSE_NO":"２０號之２","E_COORD97":173498.878784,"N_COORD97":2548069.72859,"ADDRESS":"四維街５８巷２０號之２","OBJECTID":332146},"geometry":{"x":173498.87878400087,"y":2548069.7285850048}},{"attributes":{"ID":332156,"DIS_CODE":0,"TOWNNAME":"關廟區","LI":"北勢里","LIN":"12鄰","STREET":"仁愛路","SECT":" ","MAREA":" ","LANE":"８００巷","ALLEY":" ","HOUSE_NO":"５７號","E_COORD97":182186.93776599999,"N_COORD97":2541259.3867100002,"ADDRESS":"仁愛路８００巷５７號","OBJECTID":332147},"geometry":{"x":182186.9377659997,"y":2541259.3867090028}},{"attributes":{"ID":332157,"DIS_CODE":0,"TOWNNAME":"關廟區","LI":"北勢里","LIN":"12鄰","STREET":"仁愛路","SECT":" ","MAREA":" ","LANE":"８００巷","ALLEY":" ","HOUSE_NO":"７５號","E_COORD97":182186.302149,"N_COORD97":2541232.92839,"ADDRESS":"仁愛路８００巷７５號","OBJECTID":332148},"geometry":{"x":182186.30214900058,"y":2541232.9283889998}},{"attributes":{"ID":332158,"DIS_CODE":0,"TOWNNAME":"關廟區","LI":"北勢里","LIN":"12鄰","STREET":"仁愛路","SECT":" ","MAREA":" ","LANE":"８００巷","ALLEY":" ","HOUSE_NO":"４２５號","E_COORD97":182339.06204700001,"N_COORD97":2541152.2834299998,"ADDRESS":"仁愛路８００巷４２５號","OBJECTID":332149},"geometry":{"x":182339.06204700191,"y":2541152.2834329996}},{"attributes":{"ID":332159,"DIS_CODE":0,"TOWNNAME":"關廟區","LI":"北勢里","LIN":"13鄰","STREET":"仁愛路","SECT":" ","MAREA":" ","LANE":" ","ALLEY":" ","HOUSE_NO":"３１８號","E_COORD97":181506.653441,"N_COORD97":2540694.67502,"ADDRESS":"仁愛路３１８號","OBJECTID":332150},"geometry":{"x":181506.65344100073,"y":2540694.6750169992}},{"attributes":{"ID":332160,"DIS_CODE":0,"TOWNNAME":"東區","LI":"忠孝里","LIN":"32鄰","STREET":"崇明六街","SECT":" ","MAREA":" ","LANE":" ","ALLEY":" ","HOUSE_NO":"１６號之１","E_COORD97":169665.53301399999,"N_COORD97":2542195.84418,"ADDRESS":"崇明六街１６號之１","OBJECTID":332151},"geometry":{"x":169665.53301400132,"y":2542195.8441770002}},{"attributes":{"ID":332161,"DIS_CODE":0,"TOWNNAME":"關廟區","LI":"北勢里","LIN":"12鄰","STREET":"仁愛路","SECT":" ","MAREA":" ","LANE":" ","ALLEY":" ","HOUSE_NO":"８５０號","E_COORD97":182265.75201699999,"N_COORD97":2541423.10561,"ADDRESS":"仁愛路８５０號","OBJECTID":332152},"geometry":{"x":182265.75201699976,"y":2541423.1056130007}},{"attributes":{"ID":332162,"DIS_CODE":0,"TOWNNAME":"南區","LI":"新昌里","LIN":"15鄰","STREET":"國華街","SECT":"一段","MAREA":" ","LANE":"１００巷","ALLEY":" ","HOUSE_NO":"６號","E_COORD97":167643.51000000001,"N_COORD97":2542889.0800000001,"ADDRESS":"國華街一段１００巷６號","OBJECTID":332153},"geometry":{"x":167643.51000000164,"y":2542889.0800000019}},{"attributes":{"ID":332163,"DIS_CODE":0,"TOWNNAME":"南區","LI":"新昌里","LIN":"15鄰","STREET":"國華街","SECT":"一段","MAREA":" ","LANE":"１００巷","ALLEY":" ","HOUSE_NO":"７號","E_COORD97":167676.32000000001,"N_COORD97":2542909.0099999998,"ADDRESS":"國華街一段１００巷７號","OBJECTID":332154},"geometry":{"x":167676.32000000123,"y":2542909.0100000016}},{"attributes":{"ID":332164,"DIS_CODE":0,"TOWNNAME":"南區","LI":"新昌里","LIN":"15鄰","STREET":"國華街","SECT":"一段","MAREA":" ","LANE":"１００巷","ALLEY":" ","HOUSE_NO":"８號","E_COORD97":167652.51999999999,"N_COORD97":2542888.1200000001,"ADDRESS":"國華街一段１００巷８號","OBJECTID":332155},"geometry":{"x":167652.51999999955,"y":2542888.120000001}},{"attributes":{"ID":332165,"DIS_CODE":0,"TOWNNAME":"南區","LI":"新昌里","LIN":"15鄰","STREET":"國華街","SECT":"一段","MAREA":" ","LANE":"１００巷","ALLEY":" ","HOUSE_NO":"１０號","E_COORD97":167661.85000000001,"N_COORD97":2542888.1200000001,"ADDRESS":"國華街一段１００巷１０號","OBJECTID":332156},"geometry":{"x":167661.85000000056,"y":2542888.120000001}},{"attributes":{"ID":332166,"DIS_CODE":0,"TOWNNAME":"仁德區","LI":"土庫里","LIN":"17鄰","STREET":"土庫一街","SECT":" ","MAREA":" ","LANE":" ","ALLEY":" ","HOUSE_NO":"８１號","E_COORD97":174598.92000000001,"N_COORD97":2543090.25,"ADDRESS":"土庫一街８１號","OBJECTID":332157},"geometry":{"x":174598.91999999993,"y":2543090.2500000037}},{"attributes":{"ID":332167,"DIS_CODE":0,"TOWNNAME":"南區","LI":"金華里","LIN":"26鄰","STREET":"賢南街","SECT":" ","MAREA":" ","LANE":" ","ALLEY":" ","HOUSE_NO":"１５６號","E_COORD97":166633.67000000001,"N_COORD97":2542417.0899999999,"ADDRESS":"賢南街１５６號","OBJECTID":332158},"geometry":{"x":166633.66999999993,"y":2542417.0900000017}},{"attributes":{"ID":332168,"DIS_CODE":0,"TOWNNAME":"佳里區","LI":"佳化里","LIN":"20鄰","STREET":" ","SECT":" ","MAREA":"佳里興","LANE":" ","ALLEY":" ","HOUSE_NO":"１９５號","E_COORD97":167133.91,"N_COORD97":2565265.5899999999,"ADDRESS":"佳里興１９５號","OBJECTID":332159},"geometry":{"x":167133.91000000015,"y":2565265.5900000017}},{"attributes":{"ID":332169,"DIS_CODE":0,"TOWNNAME":"佳里區","LI":"佳化里","LIN":"20鄰","STREET":" ","SECT":" ","MAREA":"佳里興","LANE":" ","ALLEY":" ","HOUSE_NO":"１９６號之１","E_COORD97":167163.17999999999,"N_COORD97":2565314.5600000001,"ADDRESS":"佳里興１９６號之１","OBJECTID":332160},"geometry":{"x":167163.18000000063,"y":2565314.5600000005}},{"attributes":{"ID":332170,"DIS_CODE":0,"TOWNNAME":"七股區","LI":"樹林里","LIN":"1鄰","STREET":" ","SECT":" ","MAREA":"樹林","LANE":" ","ALLEY":" ","HOUSE_NO":"５號之８","E_COORD97":163648.79982799999,"N_COORD97":2557215.4847800001,"ADDRESS":"樹林５號之８","OBJECTID":332161},"geometry":{"x":163648.79982800037,"y":2557215.4847759996}},{"attributes":{"ID":332171,"DIS_CODE":0,"TOWNNAME":"佳里區","LI":"佳化里","LIN":"20鄰","STREET":" ","SECT":" ","MAREA":"佳里興","LANE":" ","ALLEY":" ","HOUSE_NO":"１９６號之２９","E_COORD97":167140.62,"N_COORD97":2565307.1499999999,"ADDRESS":"佳里興１９６號之２９","OBJECTID":332162},"geometry":{"x":167140.62000000011,"y":2565307.1500000004}},{"attributes":{"ID":332172,"DIS_CODE":0,"TOWNNAME":"佳里區","LI":"佳化里","LIN":"20鄰","STREET":" ","SECT":" ","MAREA":"佳里興","LANE":" ","ALLEY":" ","HOUSE_NO":"１９６號之２","E_COORD97":167181.48000000001,"N_COORD97":2565311.4700000002,"ADDRESS":"佳里興１９６號之２","OBJECTID":332163},"geometry":{"x":167181.48000000231,"y":2565311.4700000025}},{"attributes":{"ID":332173,"DIS_CODE":0,"TOWNNAME":"南區","LI":"田寮里","LIN":"9鄰","STREET":"夏林路","SECT":" ","MAREA":" ","LANE":" ","ALLEY":" ","HOUSE_NO":"２８０號","E_COORD97":167501.11720800001,"N_COORD97":2541940.4267699998,"ADDRESS":"夏林路２８０號","OBJECTID":332164},"geometry":{"x":167501.11720800027,"y":2541940.4267650023}},{"attributes":{"ID":332174,"DIS_CODE":0,"TOWNNAME":"南區","LI":"新昌里","LIN":"15鄰","STREET":"國華街","SECT":"一段","MAREA":" ","LANE":"１００巷","ALLEY":" ","HOUSE_NO":"１２號","E_COORD97":167671.17999999999,"N_COORD97":2542888.4399999999,"ADDRESS":"國華街一段１００巷１２號","OBJECTID":332165},"geometry":{"x":167671.18000000063,"y":2542888.4400000032}},{"attributes":{"ID":332175,"DIS_CODE":0,"TOWNNAME":"南區","LI":"新昌里","LIN":"15鄰","STREET":"國華街","SECT":"一段","MAREA":" ","LANE":"１００巷","ALLEY":" ","HOUSE_NO":"１４號","E_COORD97":167680.82999999999,"N_COORD97":2542888.4399999999,"ADDRESS":"國華街一段１００巷１４號","OBJECTID":332166},"geometry":{"x":167680.83000000101,"y":2542888.4400000032}},{"attributes":{"ID":332176,"DIS_CODE":0,"TOWNNAME":"安南區","LI":"大安里","LIN":"15鄰","STREET":"義安街","SECT":" ","MAREA":" ","LANE":"１００巷","ALLEY":" ","HOUSE_NO":"１０號","E_COORD97":167497.04000000001,"N_COORD97":2548064.46,"ADDRESS":"義安街１００巷１０號","OBJECTID":332167},"geometry":{"x":167497.04000000004,"y":2548064.4600000028}},{"attributes":{"ID":332177,"DIS_CODE":0,"TOWNNAME":"安南區","LI":"大安里","LIN":"15鄰","STREET":"義安街","SECT":" ","MAREA":" ","LANE":"１００巷","ALLEY":" ","HOUSE_NO":"１１號","E_COORD97":167516.98000000001,"N_COORD97":2548075.4199999999,"ADDRESS":"義安街１００巷１１號","OBJECTID":332168},"geometry":{"x":167516.98000000045,"y":2548075.4199999999}},{"attributes":{"ID":332178,"DIS_CODE":0,"TOWNNAME":"佳里區","LI":"佳化里","LIN":"20鄰","STREET":" ","SECT":" ","MAREA":"佳里興","LANE":" ","ALLEY":" ","HOUSE_NO":"１９６號","E_COORD97":167171.10999999999,"N_COORD97":2565284.1400000001,"ADDRESS":"佳里興１９６號","OBJECTID":332169},"geometry":{"x":167171.11000000127,"y":2565284.1400000006}},{"attributes":{"ID":332179,"DIS_CODE":0,"TOWNNAME":"佳里區","LI":"佳化里","LIN":"20鄰","STREET":" ","SECT":" ","MAREA":"佳里興","LANE":" ","ALLEY":" ","HOUSE_NO":"１９７號之１","E_COORD97":167174.91,"N_COORD97":2565270.9100000001,"ADDRESS":"佳里興１９７號之１","OBJECTID":332170},"geometry":{"x":167174.91000000201,"y":2565270.9100000001}},{"attributes":{"ID":332180,"DIS_CODE":0,"TOWNNAME":"佳里區","LI":"佳化里","LIN":"20鄰","STREET":" ","SECT":" ","MAREA":"佳里興","LANE":" ","ALLEY":" ","HOUSE_NO":"１９７號之２","E_COORD97":167167.87,"N_COORD97":2565295.6400000001,"ADDRESS":"佳里興１９７號之２","OBJECTID":332171},"geometry":{"x":167167.87000000011,"y":2565295.6400000025}},{"attributes":{"ID":332181,"DIS_CODE":0,"TOWNNAME":"安南區","LI":"大安里","LIN":"15鄰","STREET":"義安街","SECT":" ","MAREA":" ","LANE":"１００巷","ALLEY":" ","HOUSE_NO":"１２號","E_COORD97":167501.20000000001,"N_COORD97":2548061.8799999999,"ADDRESS":"義安街１００巷１２號","OBJECTID":332172},"geometry":{"x":167501.20000000019,"y":2548061.8800000027}},{"attributes":{"ID":332182,"DIS_CODE":0,"TOWNNAME":"安南區","LI":"大安里","LIN":"15鄰","STREET":"義安街","SECT":" ","MAREA":" ","LANE":"１００巷","ALLEY":" ","HOUSE_NO":"１３號","E_COORD97":167523.17000000001,"N_COORD97":2548073.6299999999,"ADDRESS":"義安街１００巷１３號","OBJECTID":332173},"geometry":{"x":167523.16999999993,"y":2548073.6300000027}},{"attributes":{"ID":332183,"DIS_CODE":0,"TOWNNAME":"安南區","LI":"大安里","LIN":"15鄰","STREET":"義安街","SECT":" ","MAREA":" ","LANE":"１００巷","ALLEY":" ","HOUSE_NO":"１４號","E_COORD97":167506.07999999999,"N_COORD97":2548058.7200000002,"ADDRESS":"義安街１００巷１４號","OBJECTID":332174},"geometry":{"x":167506.08000000194,"y":2548058.7200000025}},{"attributes":{"ID":332184,"DIS_CODE":0,"TOWNNAME":"佳里區","LI":"佳化里","LIN":"20鄰","STREET":" ","SECT":" ","MAREA":"佳里興","LANE":" ","ALLEY":" ","HOUSE_NO":"１９７號之３","E_COORD97":167175.09,"N_COORD97":2565275.7200000002,"ADDRESS":"佳里興１９７號之３","OBJECTID":332175},"geometry":{"x":167175.09000000171,"y":2565275.7200000025}},{"attributes":{"ID":332185,"DIS_CODE":0,"TOWNNAME":"佳里區","LI":"佳化里","LIN":"20鄰","STREET":" ","SECT":" ","MAREA":"佳里興","LANE":" ","ALLEY":" ","HOUSE_NO":"１９７號之４","E_COORD97":167171.59,"N_COORD97":2565264.1400000001,"ADDRESS":"佳里興１９７號之４","OBJECTID":332176},"geometry":{"x":167171.58999999892,"y":2565264.1400000006}},{"attributes":{"ID":332186,"DIS_CODE":0,"TOWNNAME":"佳里區","LI":"佳化里","LIN":"20鄰","STREET":" ","SECT":" ","MAREA":"佳里興","LANE":" ","ALLEY":" ","HOUSE_NO":"１９７號之５","E_COORD97":167171.85999999999,"N_COORD97":2565259.1600000001,"ADDRESS":"佳里興１９７號之５","OBJECTID":332177},"geometry":{"x":167171.86000000034,"y":2565259.1600000001}},{"attributes":{"ID":332187,"DIS_CODE":0,"TOWNNAME":"佳里區","LI":"佳化里","LIN":"20鄰","STREET":" ","SECT":" ","MAREA":"佳里興","LANE":" ","ALLEY":" ","HOUSE_NO":"１９７號","E_COORD97":167169.41,"N_COORD97":2565247.21,"ADDRESS":"佳里興１９７號","OBJECTID":332178},"geometry":{"x":167169.41000000015,"y":2565247.2100000009}},{"attributes":{"ID":332188,"DIS_CODE":0,"TOWNNAME":"佳里區","LI":"佳化里","LIN":"20鄰","STREET":" ","SECT":" ","MAREA":"佳里興","LANE":" ","ALLEY":" ","HOUSE_NO":"１９８號","E_COORD97":167157.13,"N_COORD97":2565248.1099999999,"ADDRESS":"佳里興１９８號","OBJECTID":332179},"geometry":{"x":167157.12999999989,"y":2565248.1100000013}},{"attributes":{"ID":332189,"DIS_CODE":0,"TOWNNAME":"佳里區","LI":"佳化里","LIN":"20鄰","STREET":" ","SECT":" ","MAREA":"佳里興","LANE":" ","ALLEY":" ","HOUSE_NO":"１９９號","E_COORD97":167214.89999999999,"N_COORD97":2565247.6200000001,"ADDRESS":"佳里興１９９號","OBJECTID":332180},"geometry":{"x":167214.9000000013,"y":2565247.620000001}},{"attributes":{"ID":332190,"DIS_CODE":0,"TOWNNAME":"關廟區","LI":"五甲里","LIN":"6鄰","STREET":"五甲路","SECT":" ","MAREA":" ","LANE":"３６巷","ALLEY":" ","HOUSE_NO":"２６號","E_COORD97":181230.98304699999,"N_COORD97":2539187.1885299999,"ADDRESS":"五甲路３６巷２６號","OBJECTID":332181},"geometry":{"x":181230.98304700013,"y":2539187.1885270011}},{"attributes":{"ID":332191,"DIS_CODE":0,"TOWNNAME":"關廟區","LI":"北勢里","LIN":"9鄰","STREET":"成功路","SECT":" ","MAREA":" ","LANE":"１８０巷","ALLEY":" ","HOUSE_NO":"２８號","E_COORD97":181605.030608,"N_COORD97":2540513.42086,"ADDRESS":"成功路１８０巷２８號","OBJECTID":332182},"geometry":{"x":181605.03060800023,"y":2540513.4208610039}},{"attributes":{"ID":332192,"DIS_CODE":0,"TOWNNAME":"南區","LI":"田寮里","LIN":"9鄰","STREET":"夏林路","SECT":" ","MAREA":" ","LANE":" ","ALLEY":" ","HOUSE_NO":"３５３號","E_COORD97":167531.74975799999,"N_COORD97":2541970.61571,"ADDRESS":"夏林路３５３號","OBJECTID":332183},"geometry":{"x":167531.74975799955,"y":2541970.6157070007}},{"attributes":{"ID":332193,"DIS_CODE":0,"TOWNNAME":"歸仁區","LI":"六甲里","LIN":"17鄰","STREET":"中正二十街","SECT":" ","MAREA":" ","LANE":" ","ALLEY":" ","HOUSE_NO":"１０５號","E_COORD97":175723.383057,"N_COORD97":2539087.7524600001,"ADDRESS":"中正二十街１０５號","OBJECTID":332184},"geometry":{"x":175723.38305700012,"y":2539087.752460001}},{"attributes":{"ID":332194,"DIS_CODE":0,"TOWNNAME":"歸仁區","LI":"六甲里","LIN":"16鄰","STREET":"中正二十街","SECT":" ","MAREA":" ","LANE":" ","ALLEY":" ","HOUSE_NO":"７６號","E_COORD97":175778.89232099999,"N_COORD97":2539126.38161,"ADDRESS":"中正二十街７６號","OBJECTID":332185},"geometry":{"x":175778.89232100081,"y":2539126.3816059995}},{"attributes":{"ID":332195,"DIS_CODE":0,"TOWNNAME":"永康區","LI":"王行里","LIN":"1鄰","STREET":"王行路","SECT":" ","MAREA":" ","LANE":" ","ALLEY":" ","HOUSE_NO":"１１５號","E_COORD97":175621.578801,"N_COORD97":2548079.4563000002,"ADDRESS":"王行路１１５號","OBJECTID":332186},"geometry":{"x":175621.57880100142,"y":2548079.4563010018}},{"attributes":{"ID":332196,"DIS_CODE":0,"TOWNNAME":"關廟區","LI":"松腳里","LIN":"14鄰","STREET":"東興路","SECT":" ","MAREA":" ","LANE":" ","ALLEY":" ","HOUSE_NO":"２６１號","E_COORD97":181878.24084799999,"N_COORD97":2539566.33091,"ADDRESS":"東興路２６１號","OBJECTID":332187},"geometry":{"x":181878.24084800202,"y":2539566.3309120014}},{"attributes":{"ID":332197,"DIS_CODE":0,"TOWNNAME":"歸仁區","LI":"六甲里","LIN":"7鄰","STREET":"中正十五街","SECT":" ","MAREA":" ","LANE":" ","ALLEY":" ","HOUSE_NO":"１０５號","E_COORD97":176452.84258299999,"N_COORD97":2539397.4206300001,"ADDRESS":"中正十五街１０５號","OBJECTID":332188},"geometry":{"x":176452.84258299973,"y":2539397.4206260014}},{"attributes":{"ID":332198,"DIS_CODE":0,"TOWNNAME":"歸仁區","LI":"六甲里","LIN":"7鄰","STREET":"中正十五街","SECT":" ","MAREA":" ","LANE":" ","ALLEY":" ","HOUSE_NO":"１０３號","E_COORD97":176449.664571,"N_COORD97":2539392.34063,"ADDRESS":"中正十五街１０３號","OBJECTID":332189},"geometry":{"x":176449.66457100119,"y":2539392.3406290021}},{"attributes":{"ID":332199,"DIS_CODE":0,"TOWNNAME":"歸仁區","LI":"六甲里","LIN":"7鄰","STREET":"中正十五街","SECT":" ","MAREA":" ","LANE":" ","ALLEY":" ","HOUSE_NO":"１０１號","E_COORD97":176447.33403,"N_COORD97":2539386.41396,"ADDRESS":"中正十五街１０１號","OBJECTID":332190},"geometry":{"x":176447.33403000049,"y":2539386.4139650017}},{"attributes":{"ID":332200,"DIS_CODE":0,"TOWNNAME":"歸仁區","LI":"六甲里","LIN":"7鄰","STREET":"中正十五街","SECT":" ","MAREA":" ","LANE":" ","ALLEY":" ","HOUSE_NO":"９９號","E_COORD97":176446.91029500001,"N_COORD97":2539380.27563,"ADDRESS":"中正十五街９９號","OBJECTID":332191},"geometry":{"x":176446.91029500123,"y":2539380.2756350003}},{"attributes":{"ID":332201,"DIS_CODE":0,"TOWNNAME":"歸仁區","LI":"六甲里","LIN":"5鄰","STREET":"中正十五街","SECT":" ","MAREA":" ","LANE":" ","ALLEY":" ","HOUSE_NO":"５２號","E_COORD97":176417.03698899999,"N_COORD97":2539390.3297999999,"ADDRESS":"中正十五街５２號","OBJECTID":332192},"geometry":{"x":176417.03698899969,"y":2539390.3297970016}},{"attributes":{"ID":332202,"DIS_CODE":0,"TOWNNAME":"歸仁區","LI":"六甲里","LIN":"5鄰","STREET":"中正十五街","SECT":" ","MAREA":" ","LANE":" ","ALLEY":" ","HOUSE_NO":"５４號","E_COORD97":176418.73192799999,"N_COORD97":2539384.19147,"ADDRESS":"中正十五街５４號","OBJECTID":332193},"geometry":{"x":176418.73192800116,"y":2539384.1914670002}},{"attributes":{"ID":332203,"DIS_CODE":0,"TOWNNAME":"歸仁區","LI":"六甲里","LIN":"5鄰","STREET":"中正十五街","SECT":" ","MAREA":" ","LANE":" ","ALLEY":" ","HOUSE_NO":"５６號","E_COORD97":176419.79126500001,"N_COORD97":2539378.2648,"ADDRESS":"中正十五街５６號","OBJECTID":332194},"geometry":{"x":176419.79126499966,"y":2539378.2648029998}},{"attributes":{"ID":332204,"DIS_CODE":0,"TOWNNAME":"南區","LI":"田寮里","LIN":"7鄰","STREET":"夏林路","SECT":" ","MAREA":" ","LANE":" ","ALLEY":" ","HOUSE_NO":"３７９號","E_COORD97":167504.13138899999,"N_COORD97":2541874.19723,"ADDRESS":"夏林路３７９號","OBJECTID":332195},"geometry":{"x":167504.13138900045,"y":2541874.1972270031}},{"attributes":{"ID":332205,"DIS_CODE":0,"TOWNNAME":"永康區","LI":"王行里","LIN":"1鄰","STREET":"王行路","SECT":" ","MAREA":" ","LANE":" ","ALLEY":" ","HOUSE_NO":"１２９號","E_COORD97":175638.95193000001,"N_COORD97":2548139.7812700002,"ADDRESS":"王行路１２９號","OBJECTID":332196},"geometry":{"x":175638.95193000138,"y":2548139.7812680006}},{"attributes":{"ID":332206,"DIS_CODE":0,"TOWNNAME":"歸仁區","LI":"六甲里","LIN":"7鄰","STREET":"中正十五街","SECT":" ","MAREA":" ","LANE":" ","ALLEY":" ","HOUSE_NO":"９７號","E_COORD97":176448.39336700001,"N_COORD97":2539374.3489700002,"ADDRESS":"中正十五街９７號","OBJECTID":332197},"geometry":{"x":176448.39336700179,"y":2539374.3489720002}},{"attributes":{"ID":332207,"DIS_CODE":0,"TOWNNAME":"歸仁區","LI":"六甲里","LIN":"5鄰","STREET":"中正十五街","SECT":" ","MAREA":" ","LANE":" ","ALLEY":" ","HOUSE_NO":"５０號","E_COORD97":176420.85060199999,"N_COORD97":2539396.2564599998,"ADDRESS":"中正十五街５０號","OBJECTID":332198},"geometry":{"x":176420.85060200095,"y":2539396.2564600017}},{"attributes":{"ID":332208,"DIS_CODE":0,"TOWNNAME":"歸仁區","LI":"六甲里","LIN":"6鄰","STREET":"中正十五街","SECT":" ","MAREA":" ","LANE":" ","ALLEY":" ","HOUSE_NO":"９５號","E_COORD97":176439.07120000001,"N_COORD97":2539377.1006399998,"ADDRESS":"中正十五街９５號","OBJECTID":332199},"geometry":{"x":176439.07119999919,"y":2539377.1006370001}},{"attributes":{"ID":332209,"DIS_CODE":0,"TOWNNAME":"安南區","LI":"大安里","LIN":"15鄰","STREET":"義安街","SECT":" ","MAREA":" ","LANE":"１００巷","ALLEY":" ","HOUSE_NO":"１５號","E_COORD97":167530.60000000001,"N_COORD97":2548067.5800000001,"ADDRESS":"義安街１００巷１５號","OBJECTID":332200},"geometry":{"x":167530.59999999963,"y":2548067.5800000001}}]}