{"displayFieldName":"TOWNNAME","fieldAliases":{"ID":"ID","DIS_CODE":"DIS_CODE","TOWNNAME":"TOWNNAME","LI":"LI","LIN":"LIN","STREET":"STREET","SECT":"SECT","MAREA":"MAREA","LANE":"LANE","ALLEY":"ALLEY","HOUSE_NO":"HOUSE_NO","E_COORD97":"E_COORD97","N_COORD97":"N_COORD97","ADDRESS":"ADDRESS","OBJECTID":"OBJECTID"},"geometryType":"esriGeometryPoint","spatialReference":{"wkid":102443,"latestWkid":3826},"fields":[{"name":"ID","type":"esriFieldTypeDouble","alias":"ID"},{"name":"DIS_CODE","type":"esriFieldTypeInteger","alias":"DIS_CODE"},{"name":"TOWNNAME","type":"esriFieldTypeString","alias":"TOWNNAME","length":8},{"name":"LI","type":"esriFieldTypeString","alias":"LI","length":8},{"name":"LIN","type":"esriFieldTypeString","alias":"LIN","length":12},{"name":"STREET","type":"esriFieldTypeString","alias":"STREET","length":20},{"name":"SECT","type":"esriFieldTypeString","alias":"SECT","length":8},{"name":"MAREA","type":"esriFieldTypeString","alias":"MAREA","length":12},{"name":"LANE","type":"esriFieldTypeString","alias":"LANE","length":10},{"name":"ALLEY","type":"esriFieldTypeString","alias":"ALLEY","length":10},{"name":"HOUSE_NO","type":"esriFieldTypeString","alias":"HOUSE_NO","length":20},{"name":"E_COORD97","type":"esriFieldTypeDouble","alias":"E_COORD97"},{"name":"N_COORD97","type":"esriFieldTypeDouble","alias":"N_COORD97"},{"name":"ADDRESS","type":"esriFieldTypeString","alias":"ADDRESS","length":50},{"name":"OBJECTID","type":"esriFieldTypeOID","alias":"OBJECTID"}],"features":[{"attributes":{"ID":623828,"DIS_CODE":0,"TOWNNAME":"佳里區","LI":"六安里","LIN":"4鄰","STREET":"六安街","SECT":" ","MAREA":" ","LANE":" ","ALLEY":" ","HOUSE_NO":"１２０號","E_COORD97":166118.41,"N_COORD97":2563190.7799999998,"ADDRESS":"六安街１２０號","OBJECTID":623801},"geometry":{"x":166118.41000000015,"y":2563190.7800000031}},{"attributes":{"ID":623829,"DIS_CODE":0,"TOWNNAME":"佳里區","LI":"六安里","LIN":"4鄰","STREET":"六安街","SECT":" ","MAREA":" ","LANE":" ","ALLEY":" ","HOUSE_NO":"１２２號","E_COORD97":166116.75,"N_COORD97":2563194.5499999998,"ADDRESS":"六安街１２２號","OBJECTID":623802},"geometry":{"x":166116.75000000093,"y":2563194.5500000026}},{"attributes":{"ID":623830,"DIS_CODE":0,"TOWNNAME":"佳里區","LI":"六安里","LIN":"4鄰","STREET":"六安街","SECT":" ","MAREA":" ","LANE":" ","ALLEY":" ","HOUSE_NO":"１３０號","E_COORD97":166110.67000000001,"N_COORD97":2563250.5499999998,"ADDRESS":"六安街１３０號","OBJECTID":623803},"geometry":{"x":166110.67000000086,"y":2563250.5500000007}},{"attributes":{"ID":623831,"DIS_CODE":0,"TOWNNAME":"佳里區","LI":"六安里","LIN":"4鄰","STREET":"六安街","SECT":" ","MAREA":" ","LANE":" ","ALLEY":" ","HOUSE_NO":"１３２號","E_COORD97":166108.62,"N_COORD97":2563218.2599999998,"ADDRESS":"六安街１３２號","OBJECTID":623804},"geometry":{"x":166108.62000000011,"y":2563218.2599999998}},{"attributes":{"ID":623832,"DIS_CODE":0,"TOWNNAME":"佳里區","LI":"六安里","LIN":"4鄰","STREET":"六安街","SECT":" ","MAREA":" ","LANE":" ","ALLEY":" ","HOUSE_NO":"１３４號","E_COORD97":166105.34,"N_COORD97":2563222.7999999998,"ADDRESS":"六安街１３４號","OBJECTID":623805},"geometry":{"x":166105.33999999892,"y":2563222.8000000045}},{"attributes":{"ID":623833,"DIS_CODE":0,"TOWNNAME":"佳里區","LI":"六安里","LIN":"4鄰","STREET":"六安街","SECT":" ","MAREA":" ","LANE":" ","ALLEY":" ","HOUSE_NO":"８４號","E_COORD97":166159.79000000001,"N_COORD97":2563056.21,"ADDRESS":"六安街８４號","OBJECTID":623806},"geometry":{"x":166159.79000000004,"y":2563056.2100000009}},{"attributes":{"ID":623834,"DIS_CODE":0,"TOWNNAME":"佳里區","LI":"六安里","LIN":"4鄰","STREET":"六安街","SECT":" ","MAREA":" ","LANE":" ","ALLEY":" ","HOUSE_NO":"８６號","E_COORD97":166165.39000000001,"N_COORD97":2563070.52,"ADDRESS":"六安街８６號","OBJECTID":623807},"geometry":{"x":166165.38999999966,"y":2563070.5199999977}},{"attributes":{"ID":623835,"DIS_CODE":0,"TOWNNAME":"佳里區","LI":"安西里","LIN":"47鄰","STREET":"公園路","SECT":" ","MAREA":" ","LANE":" ","ALLEY":" ","HOUSE_NO":"３８７號","E_COORD97":165240.01999999999,"N_COORD97":2562380.7999999998,"ADDRESS":"公園路３８７號","OBJECTID":623808},"geometry":{"x":165240.02000000048,"y":2562380.8000000007}},{"attributes":{"ID":623836,"DIS_CODE":0,"TOWNNAME":"佳里區","LI":"安西里","LIN":"33鄰","STREET":"公園路","SECT":" ","MAREA":" ","LANE":" ","ALLEY":" ","HOUSE_NO":"４４５號","E_COORD97":165246.34,"N_COORD97":2562701.5299999998,"ADDRESS":"公園路４４５號","OBJECTID":623809},"geometry":{"x":165246.34000000078,"y":2562701.5300000012}},{"attributes":{"ID":623837,"DIS_CODE":0,"TOWNNAME":"佳里區","LI":"安西里","LIN":"21鄰","STREET":"公園路","SECT":" ","MAREA":" ","LANE":" ","ALLEY":" ","HOUSE_NO":"４４７號","E_COORD97":165287.97,"N_COORD97":2562824.1099999999,"ADDRESS":"公園路４４７號","OBJECTID":623810},"geometry":{"x":165287.97000000067,"y":2562824.1100000013}},{"attributes":{"ID":623838,"DIS_CODE":0,"TOWNNAME":"佳里區","LI":"安西里","LIN":"15鄰","STREET":"公園路","SECT":" ","MAREA":" ","LANE":" ","ALLEY":" ","HOUSE_NO":"４８２號","E_COORD97":165299.07000000001,"N_COORD97":2562520.4900000002,"ADDRESS":"公園路４８２號","OBJECTID":623811},"geometry":{"x":165299.07000000216,"y":2562520.4900000021}},{"attributes":{"ID":623839,"DIS_CODE":0,"TOWNNAME":"佳里區","LI":"安西里","LIN":"15鄰","STREET":"公園路","SECT":" ","MAREA":" ","LANE":" ","ALLEY":" ","HOUSE_NO":"４８６號","E_COORD97":165299.06,"N_COORD97":2562525.6299999999,"ADDRESS":"公園路４８６號","OBJECTID":623812},"geometry":{"x":165299.06000000052,"y":2562525.629999999}},{"attributes":{"ID":623840,"DIS_CODE":0,"TOWNNAME":"佳里區","LI":"安西里","LIN":"15鄰","STREET":"公園路","SECT":" ","MAREA":" ","LANE":" ","ALLEY":" ","HOUSE_NO":"４８８號","E_COORD97":165299.34,"N_COORD97":2562530.8100000001,"ADDRESS":"公園路４８８號","OBJECTID":623813},"geometry":{"x":165299.34000000078,"y":2562530.8100000042}},{"attributes":{"ID":623841,"DIS_CODE":0,"TOWNNAME":"佳里區","LI":"安西里","LIN":"15鄰","STREET":"公園路","SECT":" ","MAREA":" ","LANE":" ","ALLEY":" ","HOUSE_NO":"４９０號之１０","E_COORD97":165355.47,"N_COORD97":2562535.1000000001,"ADDRESS":"公園路４９０號之１０","OBJECTID":623814},"geometry":{"x":165355.47000000067,"y":2562535.1000000015}},{"attributes":{"ID":623842,"DIS_CODE":0,"TOWNNAME":"佳里區","LI":"安西里","LIN":"15鄰","STREET":"公園路","SECT":" ","MAREA":" ","LANE":" ","ALLEY":" ","HOUSE_NO":"４９０號之１１","E_COORD97":165360.75,"N_COORD97":2562534.98,"ADDRESS":"公園路４９０號之１１","OBJECTID":623815},"geometry":{"x":165360.75000000093,"y":2562534.9800000004}},{"attributes":{"ID":623843,"DIS_CODE":0,"TOWNNAME":"佳里區","LI":"安西里","LIN":"15鄰","STREET":"公園路","SECT":" ","MAREA":" ","LANE":" ","ALLEY":" ","HOUSE_NO":"４９０號之１２","E_COORD97":165361.29000000001,"N_COORD97":2562544.4300000002,"ADDRESS":"公園路４９０號之１２","OBJECTID":623816},"geometry":{"x":165361.29000000004,"y":2562544.4299999997}},{"attributes":{"ID":623844,"DIS_CODE":0,"TOWNNAME":"佳里區","LI":"安西里","LIN":"15鄰","STREET":"公園路","SECT":" ","MAREA":" ","LANE":" ","ALLEY":" ","HOUSE_NO":"４９０號之１３","E_COORD97":165356.09,"N_COORD97":2562544.54,"ADDRESS":"公園路４９０號之１３","OBJECTID":623817},"geometry":{"x":165356.09000000171,"y":2562544.5400000028}},{"attributes":{"ID":623845,"DIS_CODE":0,"TOWNNAME":"佳里區","LI":"安西里","LIN":"15鄰","STREET":"公園路","SECT":" ","MAREA":" ","LANE":" ","ALLEY":" ","HOUSE_NO":"４９０號之１５","E_COORD97":165350.89000000001,"N_COORD97":2562544.6600000001,"ADDRESS":"公園路４９０號之１５","OBJECTID":623818},"geometry":{"x":165350.8900000006,"y":2562544.6600000001}},{"attributes":{"ID":623846,"DIS_CODE":0,"TOWNNAME":"佳里區","LI":"安西里","LIN":"15鄰","STREET":"公園路","SECT":" ","MAREA":" ","LANE":" ","ALLEY":" ","HOUSE_NO":"４９０號之１６","E_COORD97":165345.67999999999,"N_COORD97":2562544.77,"ADDRESS":"公園路４９０號之１６","OBJECTID":623819},"geometry":{"x":165345.68000000063,"y":2562544.7700000014}},{"attributes":{"ID":623847,"DIS_CODE":0,"TOWNNAME":"佳里區","LI":"安西里","LIN":"15鄰","STREET":"公園路","SECT":" ","MAREA":" ","LANE":" ","ALLEY":" ","HOUSE_NO":"４９０號之１７","E_COORD97":165340.64000000001,"N_COORD97":2562544.9399999999,"ADDRESS":"公園路４９０號之１７","OBJECTID":623820},"geometry":{"x":165340.6400000006,"y":2562544.9399999995}},{"attributes":{"ID":623848,"DIS_CODE":0,"TOWNNAME":"佳里區","LI":"安西里","LIN":"15鄰","STREET":"公園路","SECT":" ","MAREA":" ","LANE":" ","ALLEY":" ","HOUSE_NO":"４９０號之１８","E_COORD97":165335.42999999999,"N_COORD97":2562545.0499999998,"ADDRESS":"公園路４９０號之１８","OBJECTID":623821},"geometry":{"x":165335.43000000063,"y":2562545.0500000007}},{"attributes":{"ID":623849,"DIS_CODE":0,"TOWNNAME":"佳里區","LI":"安西里","LIN":"15鄰","STREET":"公園路","SECT":" ","MAREA":" ","LANE":" ","ALLEY":" ","HOUSE_NO":"４９０號之１９","E_COORD97":165330.47,"N_COORD97":2562544.8999999999,"ADDRESS":"公園路４９０號之１９","OBJECTID":623822},"geometry":{"x":165330.47000000067,"y":2562544.9000000022}},{"attributes":{"ID":623850,"DIS_CODE":0,"TOWNNAME":"佳里區","LI":"安西里","LIN":"15鄰","STREET":"公園路","SECT":" ","MAREA":" ","LANE":" ","ALLEY":" ","HOUSE_NO":"４９０號之１","E_COORD97":165313.22,"N_COORD97":2562536.0499999998,"ADDRESS":"公園路４９０號之１","OBJECTID":623823},"geometry":{"x":165313.22000000067,"y":2562536.0500000045}},{"attributes":{"ID":623851,"DIS_CODE":0,"TOWNNAME":"佳里區","LI":"建南里","LIN":"26鄰","STREET":"公園路","SECT":" ","MAREA":" ","LANE":" ","ALLEY":" ","HOUSE_NO":"５號","E_COORD97":165417.89000000001,"N_COORD97":2561476.48,"ADDRESS":"公園路５號","OBJECTID":623824},"geometry":{"x":165417.88999999966,"y":2561476.4800000023}},{"attributes":{"ID":623852,"DIS_CODE":0,"TOWNNAME":"佳里區","LI":"建南里","LIN":"26鄰","STREET":"公園路","SECT":" ","MAREA":" ","LANE":" ","ALLEY":" ","HOUSE_NO":"６３號","E_COORD97":165338.14999999999,"N_COORD97":2561565.9199999999,"ADDRESS":"公園路６３號","OBJECTID":623825},"geometry":{"x":165338.1500000013,"y":2561565.9199999999}},{"attributes":{"ID":623853,"DIS_CODE":0,"TOWNNAME":"佳里區","LI":"建南里","LIN":"26鄰","STREET":"公園路","SECT":" ","MAREA":" ","LANE":" ","ALLEY":" ","HOUSE_NO":"６５號","E_COORD97":165335.28,"N_COORD97":2561569.7599999998,"ADDRESS":"公園路６５號","OBJECTID":623826},"geometry":{"x":165335.28000000119,"y":2561569.7599999998}},{"attributes":{"ID":623854,"DIS_CODE":0,"TOWNNAME":"佳里區","LI":"建南里","LIN":"26鄰","STREET":"公園路","SECT":" ","MAREA":" ","LANE":" ","ALLEY":" ","HOUSE_NO":"６７號","E_COORD97":165333.20999999999,"N_COORD97":2561573.3700000001,"ADDRESS":"公園路６７號","OBJECTID":623827},"geometry":{"x":165333.20999999996,"y":2561573.370000001}},{"attributes":{"ID":623855,"DIS_CODE":0,"TOWNNAME":"佳里區","LI":"安西里","LIN":"17鄰","STREET":"公園路","SECT":" ","MAREA":" ","LANE":" ","ALLEY":" ","HOUSE_NO":"５０８號","E_COORD97":165328.37,"N_COORD97":2562615.4300000002,"ADDRESS":"公園路５０８號","OBJECTID":623828},"geometry":{"x":165328.37000000011,"y":2562615.4300000016}},{"attributes":{"ID":623856,"DIS_CODE":0,"TOWNNAME":"佳里區","LI":"安西里","LIN":"17鄰","STREET":"公園路","SECT":" ","MAREA":" ","LANE":" ","ALLEY":" ","HOUSE_NO":"５１０號","E_COORD97":165329.12,"N_COORD97":2562619.8300000001,"ADDRESS":"公園路５１０號","OBJECTID":623829},"geometry":{"x":165329.12000000197,"y":2562619.8300000019}},{"attributes":{"ID":623857,"DIS_CODE":0,"TOWNNAME":"佳里區","LI":"安西里","LIN":"17鄰","STREET":"公園路","SECT":" ","MAREA":" ","LANE":" ","ALLEY":" ","HOUSE_NO":"５１２號","E_COORD97":165329.67999999999,"N_COORD97":2562624.48,"ADDRESS":"公園路５１２號","OBJECTID":623830},"geometry":{"x":165329.6799999997,"y":2562624.4800000042}},{"attributes":{"ID":623858,"DIS_CODE":0,"TOWNNAME":"佳里區","LI":"安西里","LIN":"17鄰","STREET":"公園路","SECT":" ","MAREA":" ","LANE":" ","ALLEY":" ","HOUSE_NO":"５１６號","E_COORD97":165330.66,"N_COORD97":2562628.48,"ADDRESS":"公園路５１６號","OBJECTID":623831},"geometry":{"x":165330.66000000201,"y":2562628.4800000023}},{"attributes":{"ID":623859,"DIS_CODE":0,"TOWNNAME":"佳里區","LI":"安西里","LIN":"17鄰","STREET":"公園路","SECT":" ","MAREA":" ","LANE":" ","ALLEY":" ","HOUSE_NO":"５１８號","E_COORD97":165331.73999999999,"N_COORD97":2562632.6200000001,"ADDRESS":"公園路５１８號","OBJECTID":623832},"geometry":{"x":165331.74000000209,"y":2562632.6200000029}},{"attributes":{"ID":623860,"DIS_CODE":0,"TOWNNAME":"佳里區","LI":"安西里","LIN":"17鄰","STREET":"公園路","SECT":" ","MAREA":" ","LANE":" ","ALLEY":" ","HOUSE_NO":"５２０號","E_COORD97":165332.73000000001,"N_COORD97":2562637.04,"ADDRESS":"公園路５２０號","OBJECTID":623833},"geometry":{"x":165332.73000000138,"y":2562637.040000001}},{"attributes":{"ID":623861,"DIS_CODE":0,"TOWNNAME":"佳里區","LI":"安西里","LIN":"17鄰","STREET":"公園路","SECT":" ","MAREA":" ","LANE":" ","ALLEY":" ","HOUSE_NO":"５２２號","E_COORD97":165333.98000000001,"N_COORD97":2562647.79,"ADDRESS":"公園路５２２號","OBJECTID":623834},"geometry":{"x":165333.98000000138,"y":2562647.7899999991}},{"attributes":{"ID":623862,"DIS_CODE":0,"TOWNNAME":"佳里區","LI":"安西里","LIN":"17鄰","STREET":"公園路","SECT":" ","MAREA":" ","LANE":" ","ALLEY":" ","HOUSE_NO":"５２６號","E_COORD97":165334.72,"N_COORD97":2562652.04,"ADDRESS":"公園路５２６號","OBJECTID":623835},"geometry":{"x":165334.71999999881,"y":2562652.0399999991}},{"attributes":{"ID":623863,"DIS_CODE":0,"TOWNNAME":"佳里區","LI":"安西里","LIN":"17鄰","STREET":"公園路","SECT":" ","MAREA":" ","LANE":" ","ALLEY":" ","HOUSE_NO":"５２８號","E_COORD97":165334.89000000001,"N_COORD97":2562656.0499999998,"ADDRESS":"公園路５２８號","OBJECTID":623836},"geometry":{"x":165334.88999999966,"y":2562656.0500000026}},{"attributes":{"ID":623864,"DIS_CODE":0,"TOWNNAME":"佳里區","LI":"安西里","LIN":"15鄰","STREET":"公園路","SECT":" ","MAREA":" ","LANE":" ","ALLEY":" ","HOUSE_NO":"４９０號之６","E_COORD97":165334.34,"N_COORD97":2562535.5699999998,"ADDRESS":"公園路４９０號之６","OBJECTID":623837},"geometry":{"x":165334.34000000078,"y":2562535.570000004}},{"attributes":{"ID":623865,"DIS_CODE":0,"TOWNNAME":"佳里區","LI":"安西里","LIN":"15鄰","STREET":"公園路","SECT":" ","MAREA":" ","LANE":" ","ALLEY":" ","HOUSE_NO":"４９０號","E_COORD97":165299.57999999999,"N_COORD97":2562535.3799999999,"ADDRESS":"公園路４９０號","OBJECTID":623838},"geometry":{"x":165299.58000000101,"y":2562535.3800000027}},{"attributes":{"ID":623866,"DIS_CODE":0,"TOWNNAME":"中西區","LI":"郡王里","LIN":"1鄰","STREET":"法華街","SECT":" ","MAREA":" ","LANE":" ","ALLEY":" ","HOUSE_NO":"３６號","E_COORD97":168983.26999999999,"N_COORD97":2542768.7799999998,"ADDRESS":"法華街３６號","OBJECTID":623839},"geometry":{"x":168983.26999999955,"y":2542768.7800000012}},{"attributes":{"ID":623867,"DIS_CODE":0,"TOWNNAME":"佳里區","LI":"安西里","LIN":"49鄰","STREET":"文化西路","SECT":" ","MAREA":" ","LANE":" ","ALLEY":" ","HOUSE_NO":"１００號","E_COORD97":164184.72,"N_COORD97":2562551.2000000002,"ADDRESS":"文化西路１００號","OBJECTID":623840},"geometry":{"x":164184.71999999974,"y":2562551.2000000011}},{"attributes":{"ID":623868,"DIS_CODE":0,"TOWNNAME":"佳里區","LI":"安西里","LIN":"49鄰","STREET":"文化西路","SECT":" ","MAREA":" ","LANE":" ","ALLEY":" ","HOUSE_NO":"１０２號","E_COORD97":164179.73000000001,"N_COORD97":2562551.1499999999,"ADDRESS":"文化西路１０２號","OBJECTID":623841},"geometry":{"x":164179.73000000138,"y":2562551.1500000004}},{"attributes":{"ID":623869,"DIS_CODE":0,"TOWNNAME":"佳里區","LI":"安西里","LIN":"49鄰","STREET":"文化西路","SECT":" ","MAREA":" ","LANE":" ","ALLEY":" ","HOUSE_NO":"１１６號","E_COORD97":164160.04999999999,"N_COORD97":2562560.7599999998,"ADDRESS":"文化西路１１６號","OBJECTID":623842},"geometry":{"x":164160.05000000075,"y":2562560.7600000035}},{"attributes":{"ID":623870,"DIS_CODE":0,"TOWNNAME":"佳里區","LI":"安西里","LIN":"49鄰","STREET":"文化西路","SECT":" ","MAREA":" ","LANE":" ","ALLEY":" ","HOUSE_NO":"１２６號","E_COORD97":164128.56,"N_COORD97":2562540.29,"ADDRESS":"文化西路１２６號","OBJECTID":623843},"geometry":{"x":164128.55999999959,"y":2562540.290000001}},{"attributes":{"ID":623871,"DIS_CODE":0,"TOWNNAME":"佳里區","LI":"安西里","LIN":"49鄰","STREET":"文化西路","SECT":" ","MAREA":" ","LANE":" ","ALLEY":" ","HOUSE_NO":"１３９號","E_COORD97":164092.5,"N_COORD97":2562480.3500000001,"ADDRESS":"文化西路１３９號","OBJECTID":623844},"geometry":{"x":164092.50000000093,"y":2562480.3500000015}},{"attributes":{"ID":623872,"DIS_CODE":0,"TOWNNAME":"佳里區","LI":"安西里","LIN":"49鄰","STREET":"文化西路","SECT":" ","MAREA":" ","LANE":" ","ALLEY":" ","HOUSE_NO":"１４８號之１","E_COORD97":164084.54000000001,"N_COORD97":2562538.0699999998,"ADDRESS":"文化西路１４８號之１","OBJECTID":623845},"geometry":{"x":164084.54000000004,"y":2562538.0700000003}},{"attributes":{"ID":623873,"DIS_CODE":0,"TOWNNAME":"佳里區","LI":"安西里","LIN":"49鄰","STREET":"文化西路","SECT":" ","MAREA":" ","LANE":" ","ALLEY":" ","HOUSE_NO":"１５５號","E_COORD97":164052.37,"N_COORD97":2562470.8900000001,"ADDRESS":"文化西路１５５號","OBJECTID":623846},"geometry":{"x":164052.37000000011,"y":2562470.8900000025}},{"attributes":{"ID":623874,"DIS_CODE":0,"TOWNNAME":"佳里區","LI":"安西里","LIN":"49鄰","STREET":"文化西路","SECT":" ","MAREA":" ","LANE":" ","ALLEY":" ","HOUSE_NO":"１５７號","E_COORD97":164056.07000000001,"N_COORD97":2562447.7599999998,"ADDRESS":"文化西路１５７號","OBJECTID":623847},"geometry":{"x":164056.0700000003,"y":2562447.7599999998}},{"attributes":{"ID":623875,"DIS_CODE":0,"TOWNNAME":"佳里區","LI":"安西里","LIN":"49鄰","STREET":"文化西路","SECT":" ","MAREA":" ","LANE":" ","ALLEY":" ","HOUSE_NO":"１８號","E_COORD97":164349.32000000001,"N_COORD97":2562577.2200000002,"ADDRESS":"文化西路１８號","OBJECTID":623848},"geometry":{"x":164349.3200000003,"y":2562577.2200000025}},{"attributes":{"ID":623876,"DIS_CODE":0,"TOWNNAME":"佳里區","LI":"安西里","LIN":"49鄰","STREET":"文化西路","SECT":" ","MAREA":" ","LANE":" ","ALLEY":" ","HOUSE_NO":"２０７號","E_COORD97":163971.60999999999,"N_COORD97":2562495.0299999998,"ADDRESS":"文化西路２０７號","OBJECTID":623849},"geometry":{"x":163971.6100000022,"y":2562495.0300000012}},{"attributes":{"ID":623877,"DIS_CODE":0,"TOWNNAME":"佳里區","LI":"安西里","LIN":"49鄰","STREET":"文化西路","SECT":" ","MAREA":" ","LANE":" ","ALLEY":" ","HOUSE_NO":"２０號","E_COORD97":164344.07999999999,"N_COORD97":2562578.54,"ADDRESS":"文化西路２０號","OBJECTID":623850},"geometry":{"x":164344.08000000007,"y":2562578.5400000028}},{"attributes":{"ID":623878,"DIS_CODE":0,"TOWNNAME":"佳里區","LI":"安西里","LIN":"49鄰","STREET":"文化西路","SECT":" ","MAREA":" ","LANE":" ","ALLEY":" ","HOUSE_NO":"２２號","E_COORD97":164338.32999999999,"N_COORD97":2562582.9399999999,"ADDRESS":"文化西路２２號","OBJECTID":623851},"geometry":{"x":164338.33000000101,"y":2562582.9400000032}},{"attributes":{"ID":623879,"DIS_CODE":0,"TOWNNAME":"佳里區","LI":"安西里","LIN":"49鄰","STREET":"文化西路","SECT":" ","MAREA":" ","LANE":" ","ALLEY":" ","HOUSE_NO":"２３６號","E_COORD97":163921.88,"N_COORD97":2562535.3900000001,"ADDRESS":"文化西路２３６號","OBJECTID":623852},"geometry":{"x":163921.88000000175,"y":2562535.3900000025}},{"attributes":{"ID":623880,"DIS_CODE":0,"TOWNNAME":"佳里區","LI":"安西里","LIN":"49鄰","STREET":"文化西路","SECT":" ","MAREA":" ","LANE":" ","ALLEY":" ","HOUSE_NO":"２４２號","E_COORD97":164006.51999999999,"N_COORD97":2562529.6699999999,"ADDRESS":"文化西路２４２號","OBJECTID":623853},"geometry":{"x":164006.51999999955,"y":2562529.6699999999}},{"attributes":{"ID":623881,"DIS_CODE":0,"TOWNNAME":"佳里區","LI":"安西里","LIN":"49鄰","STREET":"文化西路","SECT":" ","MAREA":" ","LANE":" ","ALLEY":" ","HOUSE_NO":"２６３號","E_COORD97":163860.45999999999,"N_COORD97":2562481.1699999999,"ADDRESS":"文化西路２６３號","OBJECTID":623854},"geometry":{"x":163860.46000000089,"y":2562481.1700000018}},{"attributes":{"ID":623882,"DIS_CODE":0,"TOWNNAME":"佳里區","LI":"安西里","LIN":"52鄰","STREET":"文化西路","SECT":" ","MAREA":" ","LANE":" ","ALLEY":" ","HOUSE_NO":"５０９號","E_COORD97":163527.23999999999,"N_COORD97":2562332.8100000001,"ADDRESS":"文化西路５０９號","OBJECTID":623855},"geometry":{"x":163527.24000000115,"y":2562332.8100000005}},{"attributes":{"ID":623883,"DIS_CODE":0,"TOWNNAME":"佳里區","LI":"安西里","LIN":"52鄰","STREET":"文化西路","SECT":" ","MAREA":" ","LANE":" ","ALLEY":" ","HOUSE_NO":"５１１號","E_COORD97":163532.04000000001,"N_COORD97":2562333.1600000001,"ADDRESS":"文化西路５１１號","OBJECTID":623856},"geometry":{"x":163532.04000000004,"y":2562333.1600000001}},{"attributes":{"ID":623884,"DIS_CODE":0,"TOWNNAME":"佳里區","LI":"安西里","LIN":"52鄰","STREET":"文化西路","SECT":" ","MAREA":" ","LANE":" ","ALLEY":" ","HOUSE_NO":"５１３號","E_COORD97":163536.82999999999,"N_COORD97":2562333.5,"ADDRESS":"文化西路５１３號","OBJECTID":623857},"geometry":{"x":163536.83000000007,"y":2562333.5000000019}},{"attributes":{"ID":623885,"DIS_CODE":0,"TOWNNAME":"佳里區","LI":"安西里","LIN":"4鄰","STREET":"文化路","SECT":" ","MAREA":" ","LANE":" ","ALLEY":" ","HOUSE_NO":"２４８號","E_COORD97":165619.06,"N_COORD97":2562598.73,"ADDRESS":"文化路２４８號","OBJECTID":623858},"geometry":{"x":165619.06000000052,"y":2562598.7300000004}},{"attributes":{"ID":623886,"DIS_CODE":0,"TOWNNAME":"佳里區","LI":"安西里","LIN":"4鄰","STREET":"文化路","SECT":" ","MAREA":" ","LANE":" ","ALLEY":" ","HOUSE_NO":"２５０號","E_COORD97":165615.70999999999,"N_COORD97":2562598.8999999999,"ADDRESS":"文化路２５０號","OBJECTID":623859},"geometry":{"x":165615.70999999996,"y":2562598.9000000022}},{"attributes":{"ID":623887,"DIS_CODE":0,"TOWNNAME":"佳里區","LI":"安西里","LIN":"4鄰","STREET":"文化路","SECT":" ","MAREA":" ","LANE":" ","ALLEY":" ","HOUSE_NO":"２５２號","E_COORD97":165611.82000000001,"N_COORD97":2562598.8999999999,"ADDRESS":"文化路２５２號","OBJECTID":623860},"geometry":{"x":165611.82000000123,"y":2562598.9000000022}},{"attributes":{"ID":623888,"DIS_CODE":0,"TOWNNAME":"佳里區","LI":"安西里","LIN":"4鄰","STREET":"文化路","SECT":" ","MAREA":" ","LANE":" ","ALLEY":" ","HOUSE_NO":"２５４號","E_COORD97":165608.10999999999,"N_COORD97":2562598.9100000001,"ADDRESS":"文化路２５４號","OBJECTID":623861},"geometry":{"x":165608.11000000127,"y":2562598.910000002}},{"attributes":{"ID":623889,"DIS_CODE":0,"TOWNNAME":"佳里區","LI":"安西里","LIN":"4鄰","STREET":"文化路","SECT":" ","MAREA":" ","LANE":" ","ALLEY":" ","HOUSE_NO":"２５６號","E_COORD97":165603.94,"N_COORD97":2562599.0499999998,"ADDRESS":"文化路２５６號","OBJECTID":623862},"geometry":{"x":165603.94000000134,"y":2562599.0500000007}},{"attributes":{"ID":623890,"DIS_CODE":0,"TOWNNAME":"佳里區","LI":"安西里","LIN":"4鄰","STREET":"文化路","SECT":" ","MAREA":" ","LANE":" ","ALLEY":" ","HOUSE_NO":"２５８號","E_COORD97":165600.67999999999,"N_COORD97":2562599.1499999999,"ADDRESS":"文化路２５８號","OBJECTID":623863},"geometry":{"x":165600.6799999997,"y":2562599.1500000004}},{"attributes":{"ID":623891,"DIS_CODE":0,"TOWNNAME":"佳里區","LI":"安西里","LIN":"4鄰","STREET":"文化路","SECT":" ","MAREA":" ","LANE":" ","ALLEY":" ","HOUSE_NO":"２６０號","E_COORD97":165596.70000000001,"N_COORD97":2562599.54,"ADDRESS":"文化路２６０號","OBJECTID":623864},"geometry":{"x":165596.70000000112,"y":2562599.540000001}},{"attributes":{"ID":623892,"DIS_CODE":0,"TOWNNAME":"佳里區","LI":"安西里","LIN":"4鄰","STREET":"文化路","SECT":" ","MAREA":" ","LANE":" ","ALLEY":" ","HOUSE_NO":"２６２號","E_COORD97":165592.38,"N_COORD97":2562599.6400000001,"ADDRESS":"文化路２６２號","OBJECTID":623865},"geometry":{"x":165592.38000000082,"y":2562599.6399999987}},{"attributes":{"ID":623893,"DIS_CODE":0,"TOWNNAME":"佳里區","LI":"安西里","LIN":"4鄰","STREET":"文化路","SECT":" ","MAREA":" ","LANE":" ","ALLEY":" ","HOUSE_NO":"２６４號","E_COORD97":165587.76000000001,"N_COORD97":2562599.9300000002,"ADDRESS":"文化路２６４號","OBJECTID":623866},"geometry":{"x":165587.76000000071,"y":2562599.9299999997}},{"attributes":{"ID":623894,"DIS_CODE":0,"TOWNNAME":"佳里區","LI":"安西里","LIN":"4鄰","STREET":"文化路","SECT":" ","MAREA":" ","LANE":" ","ALLEY":" ","HOUSE_NO":"２６６號","E_COORD97":165583.23999999999,"N_COORD97":2562599.7799999998,"ADDRESS":"文化路２６６號","OBJECTID":623867},"geometry":{"x":165583.24000000115,"y":2562599.7799999993}},{"attributes":{"ID":623895,"DIS_CODE":0,"TOWNNAME":"佳里區","LI":"安西里","LIN":"7鄰","STREET":"文化路","SECT":" ","MAREA":" ","LANE":" ","ALLEY":" ","HOUSE_NO":"２２５號","E_COORD97":165678.29999999999,"N_COORD97":2562568.3199999998,"ADDRESS":"文化路２２５號","OBJECTID":623868},"geometry":{"x":165678.29999999981,"y":2562568.3200000022}},{"attributes":{"ID":623896,"DIS_CODE":0,"TOWNNAME":"佳里區","LI":"安西里","LIN":"7鄰","STREET":"文化路","SECT":" ","MAREA":" ","LANE":" ","ALLEY":" ","HOUSE_NO":"２３７號","E_COORD97":165654.20000000001,"N_COORD97":2562568.3100000001,"ADDRESS":"文化路２３７號","OBJECTID":623869},"geometry":{"x":165654.20000000205,"y":2562568.3100000042}},{"attributes":{"ID":623897,"DIS_CODE":0,"TOWNNAME":"佳里區","LI":"安西里","LIN":"7鄰","STREET":"文化路","SECT":" ","MAREA":" ","LANE":" ","ALLEY":" ","HOUSE_NO":"２３９號","E_COORD97":165649.20999999999,"N_COORD97":2562568.1099999999,"ADDRESS":"文化路２３９號","OBJECTID":623870},"geometry":{"x":165649.21000000089,"y":2562568.1100000031}},{"attributes":{"ID":623898,"DIS_CODE":0,"TOWNNAME":"佳里區","LI":"安西里","LIN":"7鄰","STREET":"文化路","SECT":" ","MAREA":" ","LANE":" ","ALLEY":" ","HOUSE_NO":"２４１號","E_COORD97":165644.45999999999,"N_COORD97":2562568.3700000001,"ADDRESS":"文化路２４１號","OBJECTID":623871},"geometry":{"x":165644.46000000089,"y":2562568.3700000048}},{"attributes":{"ID":623899,"DIS_CODE":0,"TOWNNAME":"佳里區","LI":"安西里","LIN":"7鄰","STREET":"文化路","SECT":" ","MAREA":" ","LANE":" ","ALLEY":" ","HOUSE_NO":"２４３號","E_COORD97":165639.79999999999,"N_COORD97":2562568.5099999998,"ADDRESS":"文化路２４３號","OBJECTID":623872},"geometry":{"x":165639.80000000075,"y":2562568.5099999998}},{"attributes":{"ID":623900,"DIS_CODE":0,"TOWNNAME":"佳里區","LI":"安西里","LIN":"7鄰","STREET":"文化路","SECT":" ","MAREA":" ","LANE":" ","ALLEY":" ","HOUSE_NO":"２４５號","E_COORD97":165635.29000000001,"N_COORD97":2562568.5499999998,"ADDRESS":"文化路２４５號","OBJECTID":623873},"geometry":{"x":165635.29000000097,"y":2562568.5500000007}},{"attributes":{"ID":623901,"DIS_CODE":0,"TOWNNAME":"佳里區","LI":"安西里","LIN":"7鄰","STREET":"文化路","SECT":" ","MAREA":" ","LANE":" ","ALLEY":" ","HOUSE_NO":"２４７號","E_COORD97":165630.66,"N_COORD97":2562568.8100000001,"ADDRESS":"文化路２４７號","OBJECTID":623874},"geometry":{"x":165630.66000000201,"y":2562568.8100000024}},{"attributes":{"ID":623902,"DIS_CODE":0,"TOWNNAME":"佳里區","LI":"安西里","LIN":"7鄰","STREET":"文化路","SECT":" ","MAREA":" ","LANE":" ","ALLEY":" ","HOUSE_NO":"２４９號","E_COORD97":165625.48999999999,"N_COORD97":2562568.48,"ADDRESS":"文化路２４９號","OBJECTID":623875},"geometry":{"x":165625.49000000115,"y":2562568.4800000023}},{"attributes":{"ID":623903,"DIS_CODE":0,"TOWNNAME":"佳里區","LI":"安西里","LIN":"1鄰","STREET":"文化路","SECT":" ","MAREA":" ","LANE":" ","ALLEY":" ","HOUSE_NO":"２１６號","E_COORD97":165694.39999999999,"N_COORD97":2562597.4900000002,"ADDRESS":"文化路２１６號","OBJECTID":623876},"geometry":{"x":165694.4000000013,"y":2562597.4900000021}},{"attributes":{"ID":623904,"DIS_CODE":0,"TOWNNAME":"佳里區","LI":"安西里","LIN":"4鄰","STREET":"文化路","SECT":" ","MAREA":" ","LANE":" ","ALLEY":" ","HOUSE_NO":"２６８號","E_COORD97":165578.94,"N_COORD97":2562599.8700000001,"ADDRESS":"文化路２６８號","OBJECTID":623877},"geometry":{"x":165578.94000000134,"y":2562599.8700000029}},{"attributes":{"ID":623905,"DIS_CODE":0,"TOWNNAME":"佳里區","LI":"安西里","LIN":"4鄰","STREET":"文化路","SECT":" ","MAREA":" ","LANE":" ","ALLEY":" ","HOUSE_NO":"２７０號","E_COORD97":165574.26999999999,"N_COORD97":2562599.8199999998,"ADDRESS":"文化路２７０號","OBJECTID":623878},"geometry":{"x":165574.26999999955,"y":2562599.8200000022}},{"attributes":{"ID":623906,"DIS_CODE":0,"TOWNNAME":"佳里區","LI":"安西里","LIN":"4鄰","STREET":"文化路","SECT":" ","MAREA":" ","LANE":" ","ALLEY":" ","HOUSE_NO":"２７２號","E_COORD97":165570.01000000001,"N_COORD97":2562599.77,"ADDRESS":"文化路２７２號","OBJECTID":623879},"geometry":{"x":165570.00999999978,"y":2562599.7699999996}},{"attributes":{"ID":623907,"DIS_CODE":0,"TOWNNAME":"佳里區","LI":"安西里","LIN":"4鄰","STREET":"文化路","SECT":" ","MAREA":" ","LANE":" ","ALLEY":" ","HOUSE_NO":"２７４號","E_COORD97":165565.07999999999,"N_COORD97":2562599.98,"ADDRESS":"文化路２７４號","OBJECTID":623880},"geometry":{"x":165565.08000000194,"y":2562599.9800000004}},{"attributes":{"ID":623908,"DIS_CODE":0,"TOWNNAME":"佳里區","LI":"安西里","LIN":"4鄰","STREET":"文化路","SECT":" ","MAREA":" ","LANE":" ","ALLEY":" ","HOUSE_NO":"２７６號","E_COORD97":165559.91,"N_COORD97":2562599.8900000001,"ADDRESS":"文化路２７６號","OBJECTID":623881},"geometry":{"x":165559.91000000108,"y":2562599.8900000006}},{"attributes":{"ID":623909,"DIS_CODE":0,"TOWNNAME":"佳里區","LI":"安西里","LIN":"4鄰","STREET":"文化路","SECT":" ","MAREA":" ","LANE":" ","ALLEY":" ","HOUSE_NO":"２７８號","E_COORD97":165553.64000000001,"N_COORD97":2562600.3599999999,"ADDRESS":"文化路２７８號","OBJECTID":623882},"geometry":{"x":165553.63999999966,"y":2562600.3600000031}},{"attributes":{"ID":623910,"DIS_CODE":0,"TOWNNAME":"佳里區","LI":"安西里","LIN":"4鄰","STREET":"文化路","SECT":" ","MAREA":" ","LANE":" ","ALLEY":" ","HOUSE_NO":"２８２號","E_COORD97":165548.23999999999,"N_COORD97":2562600.75,"ADDRESS":"文化路２８２號","OBJECTID":623883},"geometry":{"x":165548.24000000022,"y":2562600.75}},{"attributes":{"ID":623911,"DIS_CODE":0,"TOWNNAME":"佳里區","LI":"安西里","LIN":"4鄰","STREET":"文化路","SECT":" ","MAREA":" ","LANE":" ","ALLEY":" ","HOUSE_NO":"２８４號","E_COORD97":165544.95000000001,"N_COORD97":2562600.5299999998,"ADDRESS":"文化路２８４號","OBJECTID":623884},"geometry":{"x":165544.95000000019,"y":2562600.5300000012}},{"attributes":{"ID":623912,"DIS_CODE":0,"TOWNNAME":"佳里區","LI":"安西里","LIN":"4鄰","STREET":"文化路","SECT":" ","MAREA":" ","LANE":" ","ALLEY":" ","HOUSE_NO":"２８６號","E_COORD97":165541.26000000001,"N_COORD97":2562600.6899999999,"ADDRESS":"文化路２８６號","OBJECTID":623885},"geometry":{"x":165541.25999999885,"y":2562600.6899999995}},{"attributes":{"ID":623913,"DIS_CODE":0,"TOWNNAME":"佳里區","LI":"安西里","LIN":"4鄰","STREET":"文化路","SECT":" ","MAREA":" ","LANE":" ","ALLEY":" ","HOUSE_NO":"２８８號","E_COORD97":165538.26000000001,"N_COORD97":2562600.9199999999,"ADDRESS":"文化路２８８號","OBJECTID":623886},"geometry":{"x":165538.26000000071,"y":2562600.9200000018}},{"attributes":{"ID":623914,"DIS_CODE":0,"TOWNNAME":"佳里區","LI":"安西里","LIN":"4鄰","STREET":"文化路","SECT":" ","MAREA":" ","LANE":" ","ALLEY":" ","HOUSE_NO":"２９２號","E_COORD97":165533.89000000001,"N_COORD97":2562601.27,"ADDRESS":"文化路２９２號","OBJECTID":623887},"geometry":{"x":165533.8900000006,"y":2562601.2700000033}},{"attributes":{"ID":623915,"DIS_CODE":0,"TOWNNAME":"佳里區","LI":"安西里","LIN":"4鄰","STREET":"文化路","SECT":" ","MAREA":" ","LANE":" ","ALLEY":" ","HOUSE_NO":"２９４號","E_COORD97":165530.29999999999,"N_COORD97":2562601.1800000002,"ADDRESS":"文化路２９４號","OBJECTID":623888},"geometry":{"x":165530.29999999981,"y":2562601.1799999997}},{"attributes":{"ID":623916,"DIS_CODE":0,"TOWNNAME":"佳里區","LI":"安西里","LIN":"14鄰","STREET":"文化路","SECT":" ","MAREA":" ","LANE":" ","ALLEY":" ","HOUSE_NO":"２８９號","E_COORD97":165471.31,"N_COORD97":2562579.0600000001,"ADDRESS":"文化路２８９號","OBJECTID":623889},"geometry":{"x":165471.31000000145,"y":2562579.0600000005}},{"attributes":{"ID":623917,"DIS_CODE":0,"TOWNNAME":"佳里區","LI":"安西里","LIN":"14鄰","STREET":"文化路","SECT":" ","MAREA":" ","LANE":" ","ALLEY":" ","HOUSE_NO":"２９１號","E_COORD97":165466.69,"N_COORD97":2562578.9300000002,"ADDRESS":"文化路２９１號","OBJECTID":623890},"geometry":{"x":165466.69000000134,"y":2562578.9299999997}},{"attributes":{"ID":623918,"DIS_CODE":0,"TOWNNAME":"佳里區","LI":"安西里","LIN":"14鄰","STREET":"文化路","SECT":" ","MAREA":" ","LANE":" ","ALLEY":" ","HOUSE_NO":"２９３號","E_COORD97":165461.73000000001,"N_COORD97":2562578.6099999999,"ADDRESS":"文化路２９３號","OBJECTID":623891},"geometry":{"x":165461.73000000138,"y":2562578.6100000031}},{"attributes":{"ID":623919,"DIS_CODE":0,"TOWNNAME":"佳里區","LI":"安西里","LIN":"14鄰","STREET":"文化路","SECT":" ","MAREA":" ","LANE":" ","ALLEY":" ","HOUSE_NO":"２９７號","E_COORD97":165451.95999999999,"N_COORD97":2562578.7999999998,"ADDRESS":"文化路２９７號","OBJECTID":623892},"geometry":{"x":165451.95999999903,"y":2562578.8000000045}},{"attributes":{"ID":623920,"DIS_CODE":0,"TOWNNAME":"佳里區","LI":"安西里","LIN":"4鄰","STREET":"文化路","SECT":" ","MAREA":" ","LANE":" ","ALLEY":" ","HOUSE_NO":"２９６號","E_COORD97":165526.32999999999,"N_COORD97":2562601.2799999998,"ADDRESS":"文化路２９６號","OBJECTID":623893},"geometry":{"x":165526.33000000101,"y":2562601.2800000012}},{"attributes":{"ID":623921,"DIS_CODE":0,"TOWNNAME":"佳里區","LI":"安西里","LIN":"43鄰","STREET":"文化路","SECT":" ","MAREA":" ","LANE":" ","ALLEY":" ","HOUSE_NO":"４３７號","E_COORD97":165050.09,"N_COORD97":2562566.3399999999,"ADDRESS":"文化路４３７號","OBJECTID":623894},"geometry":{"x":165050.09000000078,"y":2562566.3399999999}},{"attributes":{"ID":623922,"DIS_CODE":0,"TOWNNAME":"佳里區","LI":"安西里","LIN":"43鄰","STREET":"文化路","SECT":" ","MAREA":" ","LANE":" ","ALLEY":" ","HOUSE_NO":"４４７號","E_COORD97":165029.25,"N_COORD97":2562563.8399999999,"ADDRESS":"文化路４４７號","OBJECTID":623895},"geometry":{"x":165029.25,"y":2562563.8400000036}},{"attributes":{"ID":623923,"DIS_CODE":0,"TOWNNAME":"佳里區","LI":"安西里","LIN":"43鄰","STREET":"文化路","SECT":" ","MAREA":" ","LANE":" ","ALLEY":" ","HOUSE_NO":"４５３號","E_COORD97":165016.85999999999,"N_COORD97":2562563.3199999998,"ADDRESS":"文化路４５３號","OBJECTID":623896},"geometry":{"x":165016.86000000034,"y":2562563.3200000003}},{"attributes":{"ID":623924,"DIS_CODE":0,"TOWNNAME":"佳里區","LI":"安西里","LIN":"43鄰","STREET":"文化路","SECT":" ","MAREA":" ","LANE":" ","ALLEY":" ","HOUSE_NO":"４５５號","E_COORD97":165011.98000000001,"N_COORD97":2562562.73,"ADDRESS":"文化路４５５號","OBJECTID":623897},"geometry":{"x":165011.98000000138,"y":2562562.7300000023}},{"attributes":{"ID":623925,"DIS_CODE":0,"TOWNNAME":"佳里區","LI":"安西里","LIN":"38鄰","STREET":"文化路","SECT":" ","MAREA":" ","LANE":" ","ALLEY":" ","HOUSE_NO":"４７４號","E_COORD97":165018.66,"N_COORD97":2562593.9700000002,"ADDRESS":"文化路４７４號","OBJECTID":623898},"geometry":{"x":165018.66000000201,"y":2562593.9700000007}},{"attributes":{"ID":623926,"DIS_CODE":0,"TOWNNAME":"佳里區","LI":"安西里","LIN":"38鄰","STREET":"文化路","SECT":" ","MAREA":" ","LANE":" ","ALLEY":" ","HOUSE_NO":"４７６號","E_COORD97":165014.19,"N_COORD97":2562593.7400000002,"ADDRESS":"文化路４７６號","OBJECTID":623899},"geometry":{"x":165014.19000000134,"y":2562593.7400000002}},{"attributes":{"ID":623927,"DIS_CODE":0,"TOWNNAME":"佳里區","LI":"安西里","LIN":"38鄰","STREET":"文化路","SECT":" ","MAREA":" ","LANE":" ","ALLEY":" ","HOUSE_NO":"４８４號","E_COORD97":164991.28,"N_COORD97":2562591.77,"ADDRESS":"文化路４８４號","OBJECTID":623900},"geometry":{"x":164991.28000000119,"y":2562591.7700000014}},{"attributes":{"ID":623928,"DIS_CODE":0,"TOWNNAME":"佳里區","LI":"安西里","LIN":"38鄰","STREET":"文化路","SECT":" ","MAREA":" ","LANE":" ","ALLEY":" ","HOUSE_NO":"４８６號","E_COORD97":164987.14000000001,"N_COORD97":2562591.5299999998,"ADDRESS":"文化路４８６號","OBJECTID":623901},"geometry":{"x":164987.13999999966,"y":2562591.5299999993}},{"attributes":{"ID":623929,"DIS_CODE":0,"TOWNNAME":"佳里區","LI":"安西里","LIN":"38鄰","STREET":"文化路","SECT":" ","MAREA":" ","LANE":" ","ALLEY":" ","HOUSE_NO":"４８８號","E_COORD97":164982.70000000001,"N_COORD97":2562591.23,"ADDRESS":"文化路４８８號","OBJECTID":623902},"geometry":{"x":164982.69999999925,"y":2562591.2300000004}},{"attributes":{"ID":623930,"DIS_CODE":0,"TOWNNAME":"佳里區","LI":"安西里","LIN":"38鄰","STREET":"文化路","SECT":" ","MAREA":" ","LANE":" ","ALLEY":" ","HOUSE_NO":"４９０號","E_COORD97":164978.14999999999,"N_COORD97":2562591.0099999998,"ADDRESS":"文化路４９０號","OBJECTID":623903},"geometry":{"x":164978.14999999944,"y":2562591.0100000016}},{"attributes":{"ID":623931,"DIS_CODE":0,"TOWNNAME":"佳里區","LI":"安西里","LIN":"38鄰","STREET":"文化路","SECT":" ","MAREA":" ","LANE":" ","ALLEY":" ","HOUSE_NO":"５０２號","E_COORD97":164947.63,"N_COORD97":2562588.5,"ADDRESS":"文化路５０２號","OBJECTID":623904},"geometry":{"x":164947.63000000082,"y":2562588.5}},{"attributes":{"ID":623932,"DIS_CODE":0,"TOWNNAME":"佳里區","LI":"安西里","LIN":"38鄰","STREET":"文化路","SECT":" ","MAREA":" ","LANE":" ","ALLEY":" ","HOUSE_NO":"５０４號","E_COORD97":164941.32000000001,"N_COORD97":2562588.0600000001,"ADDRESS":"文化路５０４號","OBJECTID":623905},"geometry":{"x":164941.31999999937,"y":2562588.0600000024}},{"attributes":{"ID":623933,"DIS_CODE":0,"TOWNNAME":"佳里區","LI":"安西里","LIN":"38鄰","STREET":"文化路","SECT":" ","MAREA":" ","LANE":" ","ALLEY":" ","HOUSE_NO":"５０６號","E_COORD97":164936.53,"N_COORD97":2562587.9399999999,"ADDRESS":"文化路５０６號","OBJECTID":623906},"geometry":{"x":164936.53000000212,"y":2562587.9400000013}},{"attributes":{"ID":623934,"DIS_CODE":0,"TOWNNAME":"佳里區","LI":"安西里","LIN":"38鄰","STREET":"文化路","SECT":" ","MAREA":" ","LANE":" ","ALLEY":" ","HOUSE_NO":"５０８號","E_COORD97":164931.79000000001,"N_COORD97":2562587.8500000001,"ADDRESS":"文化路５０８號","OBJECTID":623907},"geometry":{"x":164931.79000000097,"y":2562587.8500000015}},{"attributes":{"ID":623935,"DIS_CODE":0,"TOWNNAME":"佳里區","LI":"安西里","LIN":"38鄰","STREET":"文化路","SECT":" ","MAREA":" ","LANE":" ","ALLEY":" ","HOUSE_NO":"５１０號","E_COORD97":164927.07000000001,"N_COORD97":2562587.6400000001,"ADDRESS":"文化路５１０號","OBJECTID":623908},"geometry":{"x":164927.0700000003,"y":2562587.6400000025}},{"attributes":{"ID":623936,"DIS_CODE":0,"TOWNNAME":"佳里區","LI":"安西里","LIN":"38鄰","STREET":"文化路","SECT":" ","MAREA":" ","LANE":" ","ALLEY":" ","HOUSE_NO":"５１２號","E_COORD97":164922.64999999999,"N_COORD97":2562587.3500000001,"ADDRESS":"文化路５１２號","OBJECTID":623909},"geometry":{"x":164922.6500000013,"y":2562587.3500000034}},{"attributes":{"ID":623937,"DIS_CODE":0,"TOWNNAME":"佳里區","LI":"安西里","LIN":"38鄰","STREET":"文化路","SECT":" ","MAREA":" ","LANE":" ","ALLEY":" ","HOUSE_NO":"５１４號","E_COORD97":164915.17999999999,"N_COORD97":2562584.4900000002,"ADDRESS":"文化路５１４號","OBJECTID":623910},"geometry":{"x":164915.18000000063,"y":2562584.4900000021}},{"attributes":{"ID":623938,"DIS_CODE":0,"TOWNNAME":"佳里區","LI":"安西里","LIN":"38鄰","STREET":"文化路","SECT":" ","MAREA":" ","LANE":" ","ALLEY":" ","HOUSE_NO":"５１６號","E_COORD97":164910.69,"N_COORD97":2562584.1699999999,"ADDRESS":"文化路５１６號","OBJECTID":623911},"geometry":{"x":164910.69000000134,"y":2562584.1699999999}},{"attributes":{"ID":623939,"DIS_CODE":0,"TOWNNAME":"佳里區","LI":"安西里","LIN":"38鄰","STREET":"文化路","SECT":" ","MAREA":" ","LANE":" ","ALLEY":" ","HOUSE_NO":"５１８號","E_COORD97":164906.01000000001,"N_COORD97":2562583.98,"ADDRESS":"文化路５１８號","OBJECTID":623912},"geometry":{"x":164906.01000000071,"y":2562583.9800000042}},{"attributes":{"ID":623940,"DIS_CODE":0,"TOWNNAME":"佳里區","LI":"鎮山里","LIN":"1鄰","STREET":"四安街","SECT":" ","MAREA":" ","LANE":" ","ALLEY":" ","HOUSE_NO":"１５號","E_COORD97":165895.48999999999,"N_COORD97":2561823.77,"ADDRESS":"四安街１５號","OBJECTID":623913},"geometry":{"x":165895.49000000022,"y":2561823.7699999996}},{"attributes":{"ID":623941,"DIS_CODE":0,"TOWNNAME":"佳里區","LI":"鎮山里","LIN":"1鄰","STREET":"四安街","SECT":" ","MAREA":" ","LANE":" ","ALLEY":" ","HOUSE_NO":"２５號","E_COORD97":165878.73000000001,"N_COORD97":2561835.5800000001,"ADDRESS":"四安街２５號","OBJECTID":623914},"geometry":{"x":165878.73000000138,"y":2561835.5800000001}},{"attributes":{"ID":623942,"DIS_CODE":0,"TOWNNAME":"佳里區","LI":"安西里","LIN":"38鄰","STREET":"文化路","SECT":" ","MAREA":" ","LANE":" ","ALLEY":" ","HOUSE_NO":"５２０號","E_COORD97":164901.57999999999,"N_COORD97":2562583.52,"ADDRESS":"文化路５２０號","OBJECTID":623915},"geometry":{"x":164901.58000000007,"y":2562583.5200000014}},{"attributes":{"ID":623943,"DIS_CODE":0,"TOWNNAME":"佳里區","LI":"安西里","LIN":"38鄰","STREET":"文化路","SECT":" ","MAREA":" ","LANE":" ","ALLEY":" ","HOUSE_NO":"５２２號","E_COORD97":164897.17000000001,"N_COORD97":2562583.6000000001,"ADDRESS":"文化路５２２號","OBJECTID":623916},"geometry":{"x":164897.16999999993,"y":2562583.6000000015}},{"attributes":{"ID":623944,"DIS_CODE":0,"TOWNNAME":"佳里區","LI":"安西里","LIN":"38鄰","STREET":"文化路","SECT":" ","MAREA":" ","LANE":" ","ALLEY":" ","HOUSE_NO":"５２４號","E_COORD97":164892.42999999999,"N_COORD97":2562583.6400000001,"ADDRESS":"文化路５２４號","OBJECTID":623917},"geometry":{"x":164892.4299999997,"y":2562583.6400000025}},{"attributes":{"ID":623945,"DIS_CODE":0,"TOWNNAME":"佳里區","LI":"安西里","LIN":"38鄰","STREET":"文化路","SECT":" ","MAREA":" ","LANE":" ","ALLEY":" ","HOUSE_NO":"５２６號","E_COORD97":164887.37,"N_COORD97":2562583.6899999999,"ADDRESS":"文化路５２６號","OBJECTID":623918},"geometry":{"x":164887.37000000104,"y":2562583.6899999995}},{"attributes":{"ID":623946,"DIS_CODE":0,"TOWNNAME":"佳里區","LI":"安西里","LIN":"38鄰","STREET":"文化路","SECT":" ","MAREA":" ","LANE":" ","ALLEY":" ","HOUSE_NO":"５２８號","E_COORD97":164882.97,"N_COORD97":2562583.71,"ADDRESS":"文化路５２８號","OBJECTID":623919},"geometry":{"x":164882.97000000067,"y":2562583.7100000028}},{"attributes":{"ID":623947,"DIS_CODE":0,"TOWNNAME":"佳里區","LI":"安西里","LIN":"38鄰","STREET":"文化路","SECT":" ","MAREA":" ","LANE":" ","ALLEY":" ","HOUSE_NO":"５３０號","E_COORD97":164877.28,"N_COORD97":2562584.23,"ADDRESS":"文化路５３０號","OBJECTID":623920},"geometry":{"x":164877.28000000212,"y":2562584.2300000004}},{"attributes":{"ID":623948,"DIS_CODE":0,"TOWNNAME":"佳里區","LI":"安西里","LIN":"38鄰","STREET":"文化路","SECT":" ","MAREA":" ","LANE":" ","ALLEY":" ","HOUSE_NO":"５３２號","E_COORD97":164871.88,"N_COORD97":2562583.7799999998,"ADDRESS":"文化路５３２號","OBJECTID":623921},"geometry":{"x":164871.88000000082,"y":2562583.7799999975}},{"attributes":{"ID":623949,"DIS_CODE":0,"TOWNNAME":"佳里區","LI":"東寧里","LIN":"20鄰","STREET":"文化路","SECT":" ","MAREA":" ","LANE":" ","ALLEY":" ","HOUSE_NO":"５２號","E_COORD97":166176.76999999999,"N_COORD97":2562599.02,"ADDRESS":"文化路５２號","OBJECTID":623922},"geometry":{"x":166176.77000000142,"y":2562599.0199999996}},{"attributes":{"ID":623950,"DIS_CODE":0,"TOWNNAME":"佳里區","LI":"安西里","LIN":"39鄰","STREET":"文化路","SECT":" ","MAREA":" ","LANE":" ","ALLEY":" ","HOUSE_NO":"５４２號之１","E_COORD97":164791.17999999999,"N_COORD97":2562519.3599999999,"ADDRESS":"文化路５４２號之１","OBJECTID":623923},"geometry":{"x":164791.18000000063,"y":2562519.3600000013}},{"attributes":{"ID":623951,"DIS_CODE":0,"TOWNNAME":"佳里區","LI":"安西里","LIN":"40鄰","STREET":"文化路","SECT":" ","MAREA":" ","LANE":" ","ALLEY":" ","HOUSE_NO":"５７８號","E_COORD97":164762.54000000001,"N_COORD97":2562581.9900000002,"ADDRESS":"文化路５７８號","OBJECTID":623924},"geometry":{"x":164762.54000000004,"y":2562581.9900000002}},{"attributes":{"ID":623952,"DIS_CODE":0,"TOWNNAME":"佳里區","LI":"鎮山里","LIN":"1鄰","STREET":"四安街","SECT":" ","MAREA":" ","LANE":" ","ALLEY":" ","HOUSE_NO":"４５號","E_COORD97":165842.60999999999,"N_COORD97":2561834.8199999998,"ADDRESS":"四安街４５號","OBJECTID":623925},"geometry":{"x":165842.61000000034,"y":2561834.8200000003}},{"attributes":{"ID":623953,"DIS_CODE":0,"TOWNNAME":"佳里區","LI":"安西里","LIN":"44鄰","STREET":"文化路","SECT":" ","MAREA":" ","LANE":" ","ALLEY":" ","HOUSE_NO":"５３９號之１","E_COORD97":164805.76999999999,"N_COORD97":2562513.8399999999,"ADDRESS":"文化路５３９號之１","OBJECTID":623926},"geometry":{"x":164805.77000000048,"y":2562513.8400000017}},{"attributes":{"ID":623954,"DIS_CODE":0,"TOWNNAME":"佳里區","LI":"安西里","LIN":"46鄰","STREET":"文化路","SECT":" ","MAREA":" ","LANE":" ","ALLEY":" ","HOUSE_NO":"６３１號","E_COORD97":164573.42000000001,"N_COORD97":2562555.1600000001,"ADDRESS":"文化路６３１號","OBJECTID":623927},"geometry":{"x":164573.41999999993,"y":2562555.1600000039}},{"attributes":{"ID":623955,"DIS_CODE":0,"TOWNNAME":"佳里區","LI":"鎮山里","LIN":"1鄰","STREET":"四安街","SECT":" ","MAREA":" ","LANE":" ","ALLEY":" ","HOUSE_NO":"３號","E_COORD97":165892.10000000001,"N_COORD97":2561854.5800000001,"ADDRESS":"四安街３號","OBJECTID":623928},"geometry":{"x":165892.10000000056,"y":2561854.5800000019}},{"attributes":{"ID":623956,"DIS_CODE":0,"TOWNNAME":"佳里區","LI":"建南里","LIN":"22鄰","STREET":"四維三街","SECT":" ","MAREA":" ","LANE":" ","ALLEY":" ","HOUSE_NO":"１號","E_COORD97":165574.60000000001,"N_COORD97":2561465.6800000002,"ADDRESS":"四維三街１號","OBJECTID":623929},"geometry":{"x":165574.60000000149,"y":2561465.6799999997}},{"attributes":{"ID":623957,"DIS_CODE":0,"TOWNNAME":"佳里區","LI":"鎮山里","LIN":"4鄰","STREET":"平等街","SECT":" ","MAREA":" ","LANE":" ","ALLEY":" ","HOUSE_NO":"１０３號","E_COORD97":165964.62,"N_COORD97":2561896.4300000002,"ADDRESS":"平等街１０３號","OBJECTID":623930},"geometry":{"x":165964.62000000011,"y":2561896.4300000016}},{"attributes":{"ID":623958,"DIS_CODE":0,"TOWNNAME":"佳里區","LI":"忠仁里","LIN":"14鄰","STREET":"平等街","SECT":" ","MAREA":" ","LANE":" ","ALLEY":" ","HOUSE_NO":"１４號","E_COORD97":166285.17999999999,"N_COORD97":2561964.7999999998,"ADDRESS":"平等街１４號","OBJECTID":623931},"geometry":{"x":166285.18000000063,"y":2561964.8000000045}},{"attributes":{"ID":623959,"DIS_CODE":0,"TOWNNAME":"佳里區","LI":"忠仁里","LIN":"14鄰","STREET":"平等街","SECT":" ","MAREA":" ","LANE":" ","ALLEY":" ","HOUSE_NO":"１６號之１","E_COORD97":166270.13,"N_COORD97":2561969.5899999999,"ADDRESS":"平等街１６號之１","OBJECTID":623932},"geometry":{"x":166270.13000000082,"y":2561969.5900000017}},{"attributes":{"ID":623960,"DIS_CODE":0,"TOWNNAME":"佳里區","LI":"忠仁里","LIN":"14鄰","STREET":"平等街","SECT":" ","MAREA":" ","LANE":" ","ALLEY":" ","HOUSE_NO":"１６號之３","E_COORD97":166255.89000000001,"N_COORD97":2561973.6800000002,"ADDRESS":"平等街１６號之３","OBJECTID":623933},"geometry":{"x":166255.8900000006,"y":2561973.6799999997}},{"attributes":{"ID":623961,"DIS_CODE":0,"TOWNNAME":"佳里區","LI":"忠仁里","LIN":"14鄰","STREET":"平等街","SECT":" ","MAREA":" ","LANE":" ","ALLEY":" ","HOUSE_NO":"１６號之５","E_COORD97":166240.17000000001,"N_COORD97":2561973.8100000001,"ADDRESS":"平等街１６號之５","OBJECTID":623934},"geometry":{"x":166240.16999999993,"y":2561973.8100000005}},{"attributes":{"ID":623962,"DIS_CODE":0,"TOWNNAME":"佳里區","LI":"忠仁里","LIN":"6鄰","STREET":"平等街","SECT":" ","MAREA":" ","LANE":" ","ALLEY":" ","HOUSE_NO":"１５２號","E_COORD97":165812.29999999999,"N_COORD97":2561902.3700000001,"ADDRESS":"平等街１５２號","OBJECTID":623935},"geometry":{"x":165812.29999999888,"y":2561902.370000001}},{"attributes":{"ID":623963,"DIS_CODE":0,"TOWNNAME":"佳里區","LI":"忠仁里","LIN":"6鄰","STREET":"平等街","SECT":" ","MAREA":" ","LANE":" ","ALLEY":" ","HOUSE_NO":"１５４號","E_COORD97":165807.32000000001,"N_COORD97":2561901.2400000002,"ADDRESS":"平等街１５４號","OBJECTID":623936},"geometry":{"x":165807.3200000003,"y":2561901.2400000021}},{"attributes":{"ID":623964,"DIS_CODE":0,"TOWNNAME":"佳里區","LI":"建南里","LIN":"18鄰","STREET":"平等街","SECT":" ","MAREA":" ","LANE":" ","ALLEY":" ","HOUSE_NO":"１７０號","E_COORD97":165709.38,"N_COORD97":2561896.5699999998,"ADDRESS":"平等街１７０號","OBJECTID":623937},"geometry":{"x":165709.37999999989,"y":2561896.5700000003}},{"attributes":{"ID":623965,"DIS_CODE":0,"TOWNNAME":"佳里區","LI":"建南里","LIN":"18鄰","STREET":"平等街","SECT":" ","MAREA":" ","LANE":" ","ALLEY":" ","HOUSE_NO":"１７１號","E_COORD97":165704.14999999999,"N_COORD97":2561867.25,"ADDRESS":"平等街１７１號","OBJECTID":623938},"geometry":{"x":165704.1500000013,"y":2561867.2500000019}},{"attributes":{"ID":623966,"DIS_CODE":0,"TOWNNAME":"永康區","LI":"永康里","LIN":"39鄰","STREET":"永大一路","SECT":" ","MAREA":" ","LANE":" ","ALLEY":" ","HOUSE_NO":"１１號","E_COORD97":174331.95000000001,"N_COORD97":2546473.3599999999,"ADDRESS":"永大一路１１號","OBJECTID":623939},"geometry":{"x":174331.95000000112,"y":2546473.3600000013}},{"attributes":{"ID":623967,"DIS_CODE":0,"TOWNNAME":"永康區","LI":"永康里","LIN":"32鄰","STREET":"永康街","SECT":" ","MAREA":" ","LANE":" ","ALLEY":" ","HOUSE_NO":"２７７號","E_COORD97":174381.28,"N_COORD97":2547083.2400000002,"ADDRESS":"永康街２７７號","OBJECTID":623940},"geometry":{"x":174381.28000000119,"y":2547083.2400000002}},{"attributes":{"ID":623968,"DIS_CODE":0,"TOWNNAME":"永康區","LI":"西灣里","LIN":"24鄰","STREET":"永大路","SECT":"二段","MAREA":" ","LANE":" ","ALLEY":" ","HOUSE_NO":"２７７號","E_COORD97":174395.64999999999,"N_COORD97":2545524.4100000001,"ADDRESS":"永大路二段２７７號","OBJECTID":623941},"geometry":{"x":174395.6500000013,"y":2545524.410000002}},{"attributes":{"ID":623969,"DIS_CODE":0,"TOWNNAME":"永康區","LI":"北灣里","LIN":"20鄰","STREET":"北興路","SECT":" ","MAREA":" ","LANE":" ","ALLEY":" ","HOUSE_NO":"１８號","E_COORD97":174622.84,"N_COORD97":2546029.0699999998,"ADDRESS":"北興路１８號","OBJECTID":623942},"geometry":{"x":174622.84000000078,"y":2546029.0700000022}},{"attributes":{"ID":623970,"DIS_CODE":0,"TOWNNAME":"永康區","LI":"北灣里","LIN":"25鄰","STREET":"大同街","SECT":" ","MAREA":" ","LANE":" ","ALLEY":" ","HOUSE_NO":"４５號","E_COORD97":175222.73000000001,"N_COORD97":2545413.25,"ADDRESS":"大同街４５號","OBJECTID":623943},"geometry":{"x":175222.73000000045,"y":2545413.2500000019}},{"attributes":{"ID":623971,"DIS_CODE":0,"TOWNNAME":"永康區","LI":"永康里","LIN":"39鄰","STREET":"永大路","SECT":"二段","MAREA":" ","LANE":" ","ALLEY":" ","HOUSE_NO":"６６９號","E_COORD97":174383.57000000001,"N_COORD97":2546523.0299999998,"ADDRESS":"永大路二段６６９號","OBJECTID":623944},"geometry":{"x":174383.57000000216,"y":2546523.0300000012}},{"attributes":{"ID":623972,"DIS_CODE":0,"TOWNNAME":"永康區","LI":"尚頂里","LIN":"4鄰","STREET":"正南一街","SECT":" ","MAREA":" ","LANE":" ","ALLEY":" ","HOUSE_NO":"１８６號","E_COORD97":170627.32999999999,"N_COORD97":2547472.3199999998,"ADDRESS":"正南一街１８６號","OBJECTID":623945},"geometry":{"x":170627.33000000101,"y":2547472.3200000003}},{"attributes":{"ID":623973,"DIS_CODE":0,"TOWNNAME":"永康區","LI":"西灣里","LIN":"18鄰","STREET":"大安街","SECT":" ","MAREA":" ","LANE":" ","ALLEY":" ","HOUSE_NO":"２８５號","E_COORD97":174666.73000000001,"N_COORD97":2545551.0099999998,"ADDRESS":"大安街２８５號","OBJECTID":623946},"geometry":{"x":174666.73000000045,"y":2545551.0100000016}},{"attributes":{"ID":623974,"DIS_CODE":0,"TOWNNAME":"永康區","LI":"正強里","LIN":"32鄰","STREET":"中正路","SECT":" ","MAREA":" ","LANE":" ","ALLEY":" ","HOUSE_NO":"２１６號","E_COORD97":173336.60000000001,"N_COORD97":2547893,"ADDRESS":"中正路２１６號","OBJECTID":623947},"geometry":{"x":173336.59999999963,"y":2547893.0000000019}},{"attributes":{"ID":623975,"DIS_CODE":0,"TOWNNAME":"永康區","LI":"埔園里","LIN":"38鄰","STREET":"龍國街","SECT":" ","MAREA":" ","LANE":" ","ALLEY":" ","HOUSE_NO":"１９６號","E_COORD97":174328.66,"N_COORD97":2548052.02,"ADDRESS":"龍國街１９６號","OBJECTID":623948},"geometry":{"x":174328.66000000201,"y":2548052.0200000014}},{"attributes":{"ID":623976,"DIS_CODE":0,"TOWNNAME":"永康區","LI":"埔園里","LIN":"18鄰","STREET":"龍埔街","SECT":" ","MAREA":" ","LANE":" ","ALLEY":" ","HOUSE_NO":"４９９號","E_COORD97":173407.57000000001,"N_COORD97":2548360.7400000002,"ADDRESS":"龍埔街４９９號","OBJECTID":623949},"geometry":{"x":173407.57000000123,"y":2548360.7400000021}},{"attributes":{"ID":623977,"DIS_CODE":0,"TOWNNAME":"永康區","LI":"東橋里","LIN":"18鄰","STREET":"中山南路","SECT":" ","MAREA":" ","LANE":" ","ALLEY":" ","HOUSE_NO":"３９１號","E_COORD97":172758.29000000001,"N_COORD97":2546806.1400000001,"ADDRESS":"中山南路３９１號","OBJECTID":623950},"geometry":{"x":172758.29000000097,"y":2546806.1400000006}},{"attributes":{"ID":623978,"DIS_CODE":0,"TOWNNAME":"永康區","LI":"安康里","LIN":"25鄰","STREET":"大橋一街","SECT":" ","MAREA":" ","LANE":" ","ALLEY":" ","HOUSE_NO":"１４８號","E_COORD97":170864.10000000001,"N_COORD97":2546349,"ADDRESS":"大橋一街１４８號","OBJECTID":623951},"geometry":{"x":170864.10000000056,"y":2546349}},{"attributes":{"ID":623979,"DIS_CODE":0,"TOWNNAME":"永康區","LI":"正強里","LIN":"32鄰","STREET":"四維街","SECT":" ","MAREA":" ","LANE":" ","ALLEY":" ","HOUSE_NO":"３９號","E_COORD97":173384.76999999999,"N_COORD97":2548026.8300000001,"ADDRESS":"四維街３９號","OBJECTID":623952},"geometry":{"x":173384.77000000142,"y":2548026.8300000019}},{"attributes":{"ID":623980,"DIS_CODE":0,"TOWNNAME":"永康區","LI":"北灣里","LIN":"4鄰","STREET":"文賢街","SECT":" ","MAREA":" ","LANE":" ","ALLEY":" ","HOUSE_NO":"２４９號","E_COORD97":175349.88,"N_COORD97":2545695.0800000001,"ADDRESS":"文賢街２４９號","OBJECTID":623953},"geometry":{"x":175349.88000000082,"y":2545695.0799999982}},{"attributes":{"ID":623981,"DIS_CODE":0,"TOWNNAME":"永康區","LI":"西灣里","LIN":"41鄰","STREET":"國光六街","SECT":" ","MAREA":" ","LANE":" ","ALLEY":" ","HOUSE_NO":"８８號","E_COORD97":174038.76999999999,"N_COORD97":2545350.9300000002,"ADDRESS":"國光六街８８號","OBJECTID":623954},"geometry":{"x":174038.76999999955,"y":2545350.9300000016}},{"attributes":{"ID":623982,"DIS_CODE":0,"TOWNNAME":"永康區","LI":"永康里","LIN":"20鄰","STREET":"永明街","SECT":" ","MAREA":" ","LANE":" ","ALLEY":" ","HOUSE_NO":"７８號","E_COORD97":174130.54000000001,"N_COORD97":2547279.98,"ADDRESS":"永明街７８號","OBJECTID":623955},"geometry":{"x":174130.54000000004,"y":2547279.9800000023}},{"attributes":{"ID":623983,"DIS_CODE":0,"TOWNNAME":"永康區","LI":"西勢里","LIN":"20鄰","STREET":"富強路","SECT":"一段","MAREA":" ","LANE":" ","ALLEY":" ","HOUSE_NO":"２１７號","E_COORD97":175619.47,"N_COORD97":2546447.7400000002,"ADDRESS":"富強路一段２１７號","OBJECTID":623956},"geometry":{"x":175619.4700000016,"y":2546447.7400000021}},{"attributes":{"ID":623984,"DIS_CODE":0,"TOWNNAME":"永康區","LI":"永康里","LIN":"39鄰","STREET":"永忠路","SECT":" ","MAREA":" ","LANE":" ","ALLEY":" ","HOUSE_NO":"１３號","E_COORD97":174225.73999999999,"N_COORD97":2546398.6600000001,"ADDRESS":"永忠路１３號","OBJECTID":623957},"geometry":{"x":174225.74000000022,"y":2546398.6600000001}},{"attributes":{"ID":623985,"DIS_CODE":0,"TOWNNAME":"永康區","LI":"北灣里","LIN":"39鄰","STREET":"大同街","SECT":" ","MAREA":" ","LANE":" ","ALLEY":" ","HOUSE_NO":"６３１號","E_COORD97":174570.14999999999,"N_COORD97":2546463.2400000002,"ADDRESS":"大同街６３１號","OBJECTID":623958},"geometry":{"x":174570.1500000013,"y":2546463.2400000002}},{"attributes":{"ID":623986,"DIS_CODE":0,"TOWNNAME":"永康區","LI":"正強里","LIN":"4鄰","STREET":"正義街","SECT":" ","MAREA":" ","LANE":" ","ALLEY":" ","HOUSE_NO":"２０號","E_COORD97":173613.82999999999,"N_COORD97":2547713.5099999998,"ADDRESS":"正義街２０號","OBJECTID":623959},"geometry":{"x":173613.83000000194,"y":2547713.5100000016}},{"attributes":{"ID":623987,"DIS_CODE":0,"TOWNNAME":"永康區","LI":"東橋里","LIN":"25鄰","STREET":"中正路","SECT":" ","MAREA":" ","LANE":" ","ALLEY":" ","HOUSE_NO":"２２３號","E_COORD97":173024.39000000001,"N_COORD97":2547975.1000000001,"ADDRESS":"中正路２２３號","OBJECTID":623960},"geometry":{"x":173024.38999999966,"y":2547975.0999999996}},{"attributes":{"ID":623988,"DIS_CODE":0,"TOWNNAME":"永康區","LI":"北灣里","LIN":"4鄰","STREET":"信義街","SECT":" ","MAREA":" ","LANE":" ","ALLEY":" ","HOUSE_NO":"１２３號","E_COORD97":175204.73999999999,"N_COORD97":2545630.9500000002,"ADDRESS":"信義街１２３號","OBJECTID":623961},"geometry":{"x":175204.74000000115,"y":2545630.950000003}},{"attributes":{"ID":623989,"DIS_CODE":0,"TOWNNAME":"永康區","LI":"南灣里","LIN":"8鄰","STREET":"大灣東路","SECT":" ","MAREA":" ","LANE":" ","ALLEY":" ","HOUSE_NO":"９８號","E_COORD97":174375.20999999999,"N_COORD97":2544340.75,"ADDRESS":"大灣東路９８號","OBJECTID":623962},"geometry":{"x":174375.20999999996,"y":2544340.75}},{"attributes":{"ID":623990,"DIS_CODE":0,"TOWNNAME":"永康區","LI":"尚頂里","LIN":"26鄰","STREET":"南台街","SECT":" ","MAREA":" ","LANE":" ","ALLEY":" ","HOUSE_NO":"２２號","E_COORD97":170441.04000000001,"N_COORD97":2546958.75,"ADDRESS":"南台街２２號","OBJECTID":623963},"geometry":{"x":170441.04000000097,"y":2546958.7500000037}},{"attributes":{"ID":623991,"DIS_CODE":0,"TOWNNAME":"永康區","LI":"永康里","LIN":"38鄰","STREET":"西勢路","SECT":" ","MAREA":" ","LANE":" ","ALLEY":" ","HOUSE_NO":"７１５號","E_COORD97":174439.92000000001,"N_COORD97":2546707.5299999998,"ADDRESS":"西勢路７１５號","OBJECTID":623964},"geometry":{"x":174439.91999999993,"y":2546707.5299999993}},{"attributes":{"ID":623992,"DIS_CODE":0,"TOWNNAME":"永康區","LI":"復國里","LIN":"18鄰","STREET":"復華五街","SECT":" ","MAREA":" ","LANE":" ","ALLEY":" ","HOUSE_NO":"２７號","E_COORD97":172800.31,"N_COORD97":2545697.6899999999,"ADDRESS":"復華五街２７號","OBJECTID":623965},"geometry":{"x":172800.31000000052,"y":2545697.6900000013}},{"attributes":{"ID":623993,"DIS_CODE":0,"TOWNNAME":"永康區","LI":"西灣里","LIN":"20鄰","STREET":"文賢街","SECT":" ","MAREA":" ","LANE":" ","ALLEY":" ","HOUSE_NO":"４８８號","E_COORD97":174541.48000000001,"N_COORD97":2545855.75,"ADDRESS":"文賢街４８８號","OBJECTID":623966},"geometry":{"x":174541.48000000045,"y":2545855.75}},{"attributes":{"ID":623994,"DIS_CODE":0,"TOWNNAME":"永康區","LI":"西灣里","LIN":"20鄰","STREET":"永大路","SECT":"二段","MAREA":" ","LANE":" ","ALLEY":" ","HOUSE_NO":"７２２號","E_COORD97":174515.41,"N_COORD97":2545789.5299999998,"ADDRESS":"永大路二段７２２號","OBJECTID":623967},"geometry":{"x":174515.41000000108,"y":2545789.5299999975}},{"attributes":{"ID":623995,"DIS_CODE":0,"TOWNNAME":"永康區","LI":"西灣里","LIN":"13鄰","STREET":"民族路","SECT":" ","MAREA":" ","LANE":" ","ALLEY":" ","HOUSE_NO":"４６９號","E_COORD97":174616.35000000001,"N_COORD97":2545421.5299999998,"ADDRESS":"民族路４６９號","OBJECTID":623968},"geometry":{"x":174616.34999999963,"y":2545421.5300000012}},{"attributes":{"ID":623996,"DIS_CODE":0,"TOWNNAME":"永康區","LI":"建國里","LIN":"24鄰","STREET":"復興路","SECT":" ","MAREA":" ","LANE":" ","ALLEY":" ","HOUSE_NO":"７５號","E_COORD97":172869.16,"N_COORD97":2544310.3199999998,"ADDRESS":"復興路７５號","OBJECTID":623969},"geometry":{"x":172869.16000000201,"y":2544310.3199999984}},{"attributes":{"ID":623997,"DIS_CODE":0,"TOWNNAME":"永康區","LI":"甲頂里","LIN":"15鄰","STREET":"正新街","SECT":" ","MAREA":" ","LANE":" ","ALLEY":" ","HOUSE_NO":"１４號","E_COORD97":170429.45999999999,"N_COORD97":2546646.9900000002,"ADDRESS":"正新街１４號","OBJECTID":623970},"geometry":{"x":170429.46000000089,"y":2546646.9900000021}},{"attributes":{"ID":623998,"DIS_CODE":0,"TOWNNAME":"永康區","LI":"西灣里","LIN":"20鄰","STREET":"文賢街","SECT":" ","MAREA":" ","LANE":" ","ALLEY":" ","HOUSE_NO":"４７７號","E_COORD97":174531.81,"N_COORD97":2545831.8300000001,"ADDRESS":"文賢街４７７號","OBJECTID":623971},"geometry":{"x":174531.80999999959,"y":2545831.8300000001}},{"attributes":{"ID":623999,"DIS_CODE":0,"TOWNNAME":"永康區","LI":"建國里","LIN":"32鄰","STREET":"復興路","SECT":" ","MAREA":" ","LANE":" ","ALLEY":" ","HOUSE_NO":"５１號","E_COORD97":173051.82000000001,"N_COORD97":2544310.4199999999,"ADDRESS":"復興路５１號","OBJECTID":623972},"geometry":{"x":173051.82000000123,"y":2544310.4200000018}},{"attributes":{"ID":624000,"DIS_CODE":0,"TOWNNAME":"永康區","LI":"東灣里","LIN":"26鄰","STREET":"大灣東路","SECT":" ","MAREA":" ","LANE":" ","ALLEY":" ","HOUSE_NO":"２５０號","E_COORD97":174850.01000000001,"N_COORD97":2544503.9900000002,"ADDRESS":"大灣東路２５０號","OBJECTID":623973},"geometry":{"x":174850.01000000071,"y":2544503.9900000021}},{"attributes":{"ID":624001,"DIS_CODE":0,"TOWNNAME":"永康區","LI":"東灣里","LIN":"13鄰","STREET":"大灣路","SECT":" ","MAREA":" ","LANE":" ","ALLEY":" ","HOUSE_NO":"３３５號","E_COORD97":174782.14000000001,"N_COORD97":2544947.2000000002,"ADDRESS":"大灣路３３５號","OBJECTID":623974},"geometry":{"x":174782.13999999966,"y":2544947.1999999993}},{"attributes":{"ID":624002,"DIS_CODE":0,"TOWNNAME":"永康區","LI":"南灣里","LIN":"32鄰","STREET":"大灣一街","SECT":" ","MAREA":" ","LANE":" ","ALLEY":" ","HOUSE_NO":"４１號","E_COORD97":174301.85000000001,"N_COORD97":2544796.3399999999,"ADDRESS":"大灣一街４１號","OBJECTID":623975},"geometry":{"x":174301.85000000056,"y":2544796.3400000017}},{"attributes":{"ID":624003,"DIS_CODE":0,"TOWNNAME":"永康區","LI":"東灣里","LIN":"13鄰","STREET":"大灣路","SECT":" ","MAREA":" ","LANE":" ","ALLEY":" ","HOUSE_NO":"３５３號","E_COORD97":174767.06,"N_COORD97":2544916.1099999999,"ADDRESS":"大灣路３５３號","OBJECTID":623976},"geometry":{"x":174767.05999999959,"y":2544916.1100000013}},{"attributes":{"ID":624004,"DIS_CODE":0,"TOWNNAME":"永康區","LI":"東灣里","LIN":"36鄰","STREET":"大灣三街","SECT":" ","MAREA":" ","LANE":" ","ALLEY":" ","HOUSE_NO":"４８號","E_COORD97":175042.23999999999,"N_COORD97":2544917.8999999999,"ADDRESS":"大灣三街４８號","OBJECTID":623977},"geometry":{"x":175042.24000000115,"y":2544917.9000000022}},{"attributes":{"ID":624005,"DIS_CODE":0,"TOWNNAME":"永康區","LI":"東灣里","LIN":"26鄰","STREET":"大灣一街","SECT":" ","MAREA":" ","LANE":" ","ALLEY":" ","HOUSE_NO":"２４６號","E_COORD97":174944.92999999999,"N_COORD97":2544622.4900000002,"ADDRESS":"大灣一街２４６號","OBJECTID":623978},"geometry":{"x":174944.92999999877,"y":2544622.4900000021}},{"attributes":{"ID":624006,"DIS_CODE":0,"TOWNNAME":"永康區","LI":"南灣里","LIN":"40鄰","STREET":"南灣街","SECT":" ","MAREA":" ","LANE":" ","ALLEY":" ","HOUSE_NO":"１２６號","E_COORD97":174332.26999999999,"N_COORD97":2545002.8100000001,"ADDRESS":"南灣街１２６號","OBJECTID":623979},"geometry":{"x":174332.27000000142,"y":2545002.8100000024}},{"attributes":{"ID":624007,"DIS_CODE":0,"TOWNNAME":"永康區","LI":"西灣里","LIN":"53鄰","STREET":"文化路","SECT":" ","MAREA":" ","LANE":" ","ALLEY":" ","HOUSE_NO":"２１７號","E_COORD97":173696,"N_COORD97":2546155.9700000002,"ADDRESS":"文化路２１７號","OBJECTID":623980},"geometry":{"x":173696.00000000093,"y":2546155.9700000025}},{"attributes":{"ID":624008,"DIS_CODE":0,"TOWNNAME":"永康區","LI":"南灣里","LIN":"36鄰","STREET":"大安街","SECT":" ","MAREA":" ","LANE":" ","ALLEY":" ","HOUSE_NO":"９８號","E_COORD97":174528.76999999999,"N_COORD97":2545018.3300000001,"ADDRESS":"大安街９８號","OBJECTID":623981},"geometry":{"x":174528.76999999955,"y":2545018.3300000001}},{"attributes":{"ID":624009,"DIS_CODE":0,"TOWNNAME":"永康區","LI":"東灣里","LIN":"26鄰","STREET":"大灣東路","SECT":" ","MAREA":" ","LANE":" ","ALLEY":" ","HOUSE_NO":"４００號","E_COORD97":175168.01000000001,"N_COORD97":2544653.8599999999,"ADDRESS":"大灣東路４００號","OBJECTID":623982},"geometry":{"x":175168.00999999978,"y":2544653.8599999994}},{"attributes":{"ID":624010,"DIS_CODE":0,"TOWNNAME":"永康區","LI":"東灣里","LIN":"26鄰","STREET":"大灣東路","SECT":" ","MAREA":" ","LANE":" ","ALLEY":" ","HOUSE_NO":"２２０號","E_COORD97":174769.82000000001,"N_COORD97":2544477.25,"ADDRESS":"大灣東路２２０號","OBJECTID":623983},"geometry":{"x":174769.8200000003,"y":2544477.2500000019}},{"attributes":{"ID":624011,"DIS_CODE":0,"TOWNNAME":"永康區","LI":"南灣里","LIN":"8鄰","STREET":"南興路","SECT":" ","MAREA":" ","LANE":" ","ALLEY":" ","HOUSE_NO":"５０號之７","E_COORD97":174240.76000000001,"N_COORD97":2544141.2999999998,"ADDRESS":"南興路５０號之７","OBJECTID":623984},"geometry":{"x":174240.75999999978,"y":2544141.3000000007}},{"attributes":{"ID":624012,"DIS_CODE":0,"TOWNNAME":"永康區","LI":"東橋里","LIN":"25鄰","STREET":"中正路","SECT":" ","MAREA":" ","LANE":" ","ALLEY":" ","HOUSE_NO":"２２９號","E_COORD97":173006.39000000001,"N_COORD97":2547984.8500000001,"ADDRESS":"中正路２２９號","OBJECTID":623985},"geometry":{"x":173006.3900000006,"y":2547984.8500000034}},{"attributes":{"ID":624013,"DIS_CODE":0,"TOWNNAME":"永康區","LI":"東灣里","LIN":"13鄰","STREET":"大灣路","SECT":" ","MAREA":" ","LANE":" ","ALLEY":" ","HOUSE_NO":"３５１號","E_COORD97":174769.04999999999,"N_COORD97":2544920.5499999998,"ADDRESS":"大灣路３５１號","OBJECTID":623986},"geometry":{"x":174769.04999999981,"y":2544920.5500000026}},{"attributes":{"ID":624014,"DIS_CODE":0,"TOWNNAME":"永康區","LI":"西灣里","LIN":"53鄰","STREET":"文化路","SECT":" ","MAREA":" ","LANE":" ","ALLEY":" ","HOUSE_NO":"２０７號","E_COORD97":173715.12,"N_COORD97":2546162.2200000002,"ADDRESS":"文化路２０７號","OBJECTID":623987},"geometry":{"x":173715.11999999918,"y":2546162.2200000007}},{"attributes":{"ID":624015,"DIS_CODE":0,"TOWNNAME":"永康區","LI":"東橋里","LIN":"18鄰","STREET":"中山南路","SECT":" ","MAREA":" ","LANE":" ","ALLEY":" ","HOUSE_NO":"４０７號","E_COORD97":172796.04999999999,"N_COORD97":2546821.6499999999,"ADDRESS":"中山南路４０７號","OBJECTID":623988},"geometry":{"x":172796.04999999981,"y":2546821.6500000022}},{"attributes":{"ID":624016,"DIS_CODE":0,"TOWNNAME":"佳里區","LI":"忠仁里","LIN":"14鄰","STREET":"平等街","SECT":" ","MAREA":" ","LANE":" ","ALLEY":" ","HOUSE_NO":"６號","E_COORD97":166300.79999999999,"N_COORD97":2561966.8399999999,"ADDRESS":"平等街６號","OBJECTID":623989},"geometry":{"x":166300.80000000075,"y":2561966.839999998}},{"attributes":{"ID":624017,"DIS_CODE":0,"TOWNNAME":"永康區","LI":"南灣里","LIN":"32鄰","STREET":"大灣一街","SECT":" ","MAREA":" ","LANE":" ","ALLEY":" ","HOUSE_NO":"４３號","E_COORD97":174303.85999999999,"N_COORD97":2544801.8300000001,"ADDRESS":"大灣一街４３號","OBJECTID":623990},"geometry":{"x":174303.8600000022,"y":2544801.8300000038}},{"attributes":{"ID":624018,"DIS_CODE":0,"TOWNNAME":"永康區","LI":"建國里","LIN":"32鄰","STREET":"太子路","SECT":" ","MAREA":" ","LANE":" ","ALLEY":" ","HOUSE_NO":"７００號","E_COORD97":173138.57999999999,"N_COORD97":2543558.8999999999,"ADDRESS":"太子路７００號","OBJECTID":623991},"geometry":{"x":173138.58000000007,"y":2543558.9000000022}},{"attributes":{"ID":624019,"DIS_CODE":0,"TOWNNAME":"永康區","LI":"南灣里","LIN":"18鄰","STREET":"立興街","SECT":" ","MAREA":" ","LANE":" ","ALLEY":" ","HOUSE_NO":"１４８號","E_COORD97":174386.47,"N_COORD97":2544658.23,"ADDRESS":"立興街１４８號","OBJECTID":623992},"geometry":{"x":174386.46999999974,"y":2544658.2300000023}},{"attributes":{"ID":624020,"DIS_CODE":0,"TOWNNAME":"永康區","LI":"東橋里","LIN":"20鄰","STREET":"自強路","SECT":" ","MAREA":" ","LANE":" ","ALLEY":" ","HOUSE_NO":"２４號","E_COORD97":172746.03,"N_COORD97":2547191.4900000002,"ADDRESS":"自強路２４號","OBJECTID":623993},"geometry":{"x":172746.03000000026,"y":2547191.4900000021}},{"attributes":{"ID":624021,"DIS_CODE":0,"TOWNNAME":"永康區","LI":"東橋里","LIN":"20鄰","STREET":"自強路","SECT":" ","MAREA":" ","LANE":" ","ALLEY":" ","HOUSE_NO":"３０號","E_COORD97":172771.64999999999,"N_COORD97":2547202.2400000002,"ADDRESS":"自強路３０號","OBJECTID":623994},"geometry":{"x":172771.6500000013,"y":2547202.2400000002}},{"attributes":{"ID":624022,"DIS_CODE":0,"TOWNNAME":"永康區","LI":"東灣里","LIN":"32鄰","STREET":"大灣一街","SECT":" ","MAREA":" ","LANE":" ","ALLEY":" ","HOUSE_NO":"３２０號","E_COORD97":175051.67999999999,"N_COORD97":2544724.0800000001,"ADDRESS":"大灣一街３２０號","OBJECTID":623995},"geometry":{"x":175051.6799999997,"y":2544724.0800000001}},{"attributes":{"ID":624023,"DIS_CODE":0,"TOWNNAME":"永康區","LI":"建國里","LIN":"24鄰","STREET":"復興路","SECT":" ","MAREA":" ","LANE":" ","ALLEY":" ","HOUSE_NO":"９３號","E_COORD97":172832.01000000001,"N_COORD97":2544311.27,"ADDRESS":"復興路９３號","OBJECTID":623996},"geometry":{"x":172832.00999999978,"y":2544311.2700000014}},{"attributes":{"ID":624024,"DIS_CODE":0,"TOWNNAME":"永康區","LI":"東灣里","LIN":"36鄰","STREET":"大灣三街","SECT":" ","MAREA":" ","LANE":" ","ALLEY":" ","HOUSE_NO":"４２號","E_COORD97":175048.95000000001,"N_COORD97":2544911.6499999999,"ADDRESS":"大灣三街４２號","OBJECTID":623997},"geometry":{"x":175048.95000000205,"y":2544911.6499999985}},{"attributes":{"ID":624025,"DIS_CODE":0,"TOWNNAME":"永康區","LI":"東灣里","LIN":"18鄰","STREET":"大灣三街","SECT":" ","MAREA":" ","LANE":" ","ALLEY":" ","HOUSE_NO":"２３號","E_COORD97":175015.64000000001,"N_COORD97":2544905.3300000001,"ADDRESS":"大灣三街２３號","OBJECTID":623998},"geometry":{"x":175015.6400000006,"y":2544905.3300000001}},{"attributes":{"ID":624026,"DIS_CODE":0,"TOWNNAME":"永康區","LI":"東橋里","LIN":"25鄰","STREET":"中正路","SECT":" ","MAREA":" ","LANE":" ","ALLEY":" ","HOUSE_NO":"３５２號","E_COORD97":172914.57000000001,"N_COORD97":2548079.25,"ADDRESS":"中正路３５２號","OBJECTID":623999},"geometry":{"x":172914.57000000123,"y":2548079.25}},{"attributes":{"ID":624027,"DIS_CODE":0,"TOWNNAME":"永康區","LI":"東灣里","LIN":"17鄰","STREET":"大灣三街","SECT":" ","MAREA":" ","LANE":" ","ALLEY":" ","HOUSE_NO":"３７號","E_COORD97":174978.89999999999,"N_COORD97":2544919.5800000001,"ADDRESS":"大灣三街３７號","OBJECTID":624000},"geometry":{"x":174978.9000000013,"y":2544919.5800000019}}]}