{"displayFieldName":"TOWNNAME","fieldAliases":{"ID":"ID","DIS_CODE":"DIS_CODE","TOWNNAME":"TOWNNAME","LI":"LI","LIN":"LIN","STREET":"STREET","SECT":"SECT","MAREA":"MAREA","LANE":"LANE","ALLEY":"ALLEY","HOUSE_NO":"HOUSE_NO","E_COORD97":"E_COORD97","N_COORD97":"N_COORD97","ADDRESS":"ADDRESS","OBJECTID":"OBJECTID"},"geometryType":"esriGeometryPoint","spatialReference":{"wkid":102443,"latestWkid":3826},"fields":[{"name":"ID","type":"esriFieldTypeDouble","alias":"ID"},{"name":"DIS_CODE","type":"esriFieldTypeInteger","alias":"DIS_CODE"},{"name":"TOWNNAME","type":"esriFieldTypeString","alias":"TOWNNAME","length":8},{"name":"LI","type":"esriFieldTypeString","alias":"LI","length":8},{"name":"LIN","type":"esriFieldTypeString","alias":"LIN","length":12},{"name":"STREET","type":"esriFieldTypeString","alias":"STREET","length":20},{"name":"SECT","type":"esriFieldTypeString","alias":"SECT","length":8},{"name":"MAREA","type":"esriFieldTypeString","alias":"MAREA","length":12},{"name":"LANE","type":"esriFieldTypeString","alias":"LANE","length":10},{"name":"ALLEY","type":"esriFieldTypeString","alias":"ALLEY","length":10},{"name":"HOUSE_NO","type":"esriFieldTypeString","alias":"HOUSE_NO","length":20},{"name":"E_COORD97","type":"esriFieldTypeDouble","alias":"E_COORD97"},{"name":"N_COORD97","type":"esriFieldTypeDouble","alias":"N_COORD97"},{"name":"ADDRESS","type":"esriFieldTypeString","alias":"ADDRESS","length":50},{"name":"OBJECTID","type":"esriFieldTypeOID","alias":"OBJECTID"}],"features":[{"attributes":{"ID":152602,"DIS_CODE":0,"TOWNNAME":"新市區","LI":"大洲里","LIN":"5鄰","STREET":" ","SECT":" ","MAREA":"大洲","LANE":" ","ALLEY":" ","HOUSE_NO":"４３之１３號","E_COORD97":174261.45999999999,"N_COORD97":2552229.5499999998,"ADDRESS":"大洲４３之１３號","OBJECTID":152601},"geometry":{"x":174261.45999999996,"y":2552229.5500000045}},{"attributes":{"ID":152603,"DIS_CODE":0,"TOWNNAME":"新市區","LI":"大洲里","LIN":"5鄰","STREET":" ","SECT":" ","MAREA":"大洲","LANE":" ","ALLEY":" ","HOUSE_NO":"４９號之３","E_COORD97":174163.88,"N_COORD97":2552289.7999999998,"ADDRESS":"大洲４９號之３","OBJECTID":152602},"geometry":{"x":174163.87999999989,"y":2552289.8000000026}},{"attributes":{"ID":152604,"DIS_CODE":0,"TOWNNAME":"新市區","LI":"大社里","LIN":"5鄰","STREET":" ","SECT":" ","MAREA":"大社","LANE":" ","ALLEY":" ","HOUSE_NO":"２２３之９號","E_COORD97":180130.45999999999,"N_COORD97":2554396.2999999998,"ADDRESS":"大社２２３之９號","OBJECTID":152603},"geometry":{"x":180130.45999999996,"y":2554396.3000000007}},{"attributes":{"ID":152605,"DIS_CODE":0,"TOWNNAME":"新市區","LI":"大社里","LIN":"5鄰","STREET":" ","SECT":" ","MAREA":"大社","LANE":" ","ALLEY":" ","HOUSE_NO":"２３０之１號","E_COORD97":180165.89999999999,"N_COORD97":2554376.7999999998,"ADDRESS":"大社２３０之１號","OBJECTID":152604},"geometry":{"x":180165.9000000013,"y":2554376.8000000007}},{"attributes":{"ID":152606,"DIS_CODE":0,"TOWNNAME":"新市區","LI":"三舍里","LIN":"5鄰","STREET":" ","SECT":" ","MAREA":"三舍","LANE":" ","ALLEY":" ","HOUSE_NO":"１３３之３號","E_COORD97":177872.31,"N_COORD97":2554480.7999999998,"ADDRESS":"三舍１３３之３號","OBJECTID":152605},"geometry":{"x":177872.31000000052,"y":2554480.8000000007}},{"attributes":{"ID":152607,"DIS_CODE":0,"TOWNNAME":"新市區","LI":"三舍里","LIN":"5鄰","STREET":" ","SECT":" ","MAREA":"三舍","LANE":" ","ALLEY":" ","HOUSE_NO":"１１９號","E_COORD97":177973.09,"N_COORD97":2554509.75,"ADDRESS":"三舍１１９號","OBJECTID":152606},"geometry":{"x":177973.08999999985,"y":2554509.7500000019}},{"attributes":{"ID":152608,"DIS_CODE":0,"TOWNNAME":"新市區","LI":"大社里","LIN":"5鄰","STREET":" ","SECT":" ","MAREA":"大社","LANE":" ","ALLEY":" ","HOUSE_NO":"２２３之７號","E_COORD97":180132.87,"N_COORD97":2554387.2999999998,"ADDRESS":"大社２２３之７號","OBJECTID":152607},"geometry":{"x":180132.87000000011,"y":2554387.3000000045}},{"attributes":{"ID":152609,"DIS_CODE":0,"TOWNNAME":"新市區","LI":"大營里","LIN":"5鄰","STREET":" ","SECT":" ","MAREA":"大營","LANE":" ","ALLEY":" ","HOUSE_NO":"７８之２０號","E_COORD97":179661.23999999999,"N_COORD97":2555478.2999999998,"ADDRESS":"大營７８之２０號","OBJECTID":152608},"geometry":{"x":179661.24000000209,"y":2555478.3000000007}},{"attributes":{"ID":152610,"DIS_CODE":0,"TOWNNAME":"新市區","LI":"大社里","LIN":"5鄰","STREET":" ","SECT":" ","MAREA":"大社","LANE":" ","ALLEY":" ","HOUSE_NO":"１８２號","E_COORD97":180155.62,"N_COORD97":2554358.25,"ADDRESS":"大社１８２號","OBJECTID":152609},"geometry":{"x":180155.62000000104,"y":2554358.25}},{"attributes":{"ID":152611,"DIS_CODE":0,"TOWNNAME":"東區","LI":"小東里","LIN":"1鄰","STREET":"小東路","SECT":" ","MAREA":" ","LANE":"１９８巷","ALLEY":"６弄","HOUSE_NO":"１４號","E_COORD97":170790.84,"N_COORD97":2544448.8500000001,"ADDRESS":"小東路１９８巷６弄１４號","OBJECTID":152610},"geometry":{"x":170790.83999999892,"y":2544448.8500000034}},{"attributes":{"ID":152612,"DIS_CODE":0,"TOWNNAME":"東區","LI":"小東里","LIN":"1鄰","STREET":"小東路","SECT":" ","MAREA":" ","LANE":"１９８巷","ALLEY":"６弄","HOUSE_NO":"１６號","E_COORD97":170784.92999999999,"N_COORD97":2544450.3199999998,"ADDRESS":"小東路１９８巷６弄１６號","OBJECTID":152611},"geometry":{"x":170784.92999999877,"y":2544450.3200000022}},{"attributes":{"ID":152613,"DIS_CODE":0,"TOWNNAME":"佳里區","LI":"建南里","LIN":"37鄰","STREET":"祥和三街","SECT":" ","MAREA":" ","LANE":" ","ALLEY":" ","HOUSE_NO":"１９８號","E_COORD97":165636.55256899999,"N_COORD97":2561240.2930899998,"ADDRESS":"祥和三街１９８號","OBJECTID":152612},"geometry":{"x":165636.55256900005,"y":2561240.2930849995}},{"attributes":{"ID":152614,"DIS_CODE":0,"TOWNNAME":"東區","LI":"小東里","LIN":"1鄰","STREET":"小東路","SECT":" ","MAREA":" ","LANE":"１９８巷","ALLEY":"６弄","HOUSE_NO":"１８號","E_COORD97":170778.67000000001,"N_COORD97":2544452.25,"ADDRESS":"小東路１９８巷６弄１８號","OBJECTID":152613},"geometry":{"x":170778.67000000179,"y":2544452.25}},{"attributes":{"ID":152615,"DIS_CODE":0,"TOWNNAME":"東區","LI":"小東里","LIN":"1鄰","STREET":"小東路","SECT":" ","MAREA":" ","LANE":"１９８巷","ALLEY":"６弄","HOUSE_NO":"２０號","E_COORD97":170773.44,"N_COORD97":2544454.4100000001,"ADDRESS":"小東路１９８巷６弄２０號","OBJECTID":152614},"geometry":{"x":170773.44000000041,"y":2544454.4100000001}},{"attributes":{"ID":152616,"DIS_CODE":0,"TOWNNAME":"東區","LI":"小東里","LIN":"1鄰","STREET":"小東路","SECT":" ","MAREA":" ","LANE":"１９８巷","ALLEY":"６弄","HOUSE_NO":"２２號","E_COORD97":170768.10000000001,"N_COORD97":2544456.3500000001,"ADDRESS":"小東路１９８巷６弄２２號","OBJECTID":152615},"geometry":{"x":170768.09999999963,"y":2544456.3500000015}},{"attributes":{"ID":152617,"DIS_CODE":0,"TOWNNAME":"東區","LI":"小東里","LIN":"1鄰","STREET":"小東路","SECT":" ","MAREA":" ","LANE":"１９８巷","ALLEY":"６弄","HOUSE_NO":"２４號","E_COORD97":170762.17999999999,"N_COORD97":2544458.1600000001,"ADDRESS":"小東路１９８巷６弄２４號","OBJECTID":152616},"geometry":{"x":170762.1799999997,"y":2544458.160000002}},{"attributes":{"ID":152618,"DIS_CODE":0,"TOWNNAME":"東區","LI":"小東里","LIN":"1鄰","STREET":"小東路","SECT":" ","MAREA":" ","LANE":"１９８巷","ALLEY":"６弄","HOUSE_NO":"２６號","E_COORD97":170749.07999999999,"N_COORD97":2544462.9399999999,"ADDRESS":"小東路１９８巷６弄２６號","OBJECTID":152617},"geometry":{"x":170749.08000000101,"y":2544462.9400000013}},{"attributes":{"ID":152619,"DIS_CODE":0,"TOWNNAME":"東區","LI":"小東里","LIN":"1鄰","STREET":"小東路","SECT":" ","MAREA":" ","LANE":"１９８巷","ALLEY":"６弄","HOUSE_NO":"２號","E_COORD97":170819.16,"N_COORD97":2544438.0499999998,"ADDRESS":"小東路１９８巷６弄２號","OBJECTID":152618},"geometry":{"x":170819.16000000015,"y":2544438.0499999989}},{"attributes":{"ID":152620,"DIS_CODE":0,"TOWNNAME":"歸仁區","LI":"七甲里","LIN":"2鄰","STREET":"七甲五街","SECT":" ","MAREA":" ","LANE":"１０２巷","ALLEY":"３９弄","HOUSE_NO":"３號","E_COORD97":177149.5,"N_COORD97":2542651.9300000002,"ADDRESS":"七甲五街１０２巷３９弄３號","OBJECTID":152619},"geometry":{"x":177149.5,"y":2542651.9300000016}},{"attributes":{"ID":152621,"DIS_CODE":0,"TOWNNAME":"歸仁區","LI":"七甲里","LIN":"2鄰","STREET":"七甲五街","SECT":" ","MAREA":" ","LANE":"１０２巷","ALLEY":"３９弄","HOUSE_NO":"７號","E_COORD97":177158.70000000001,"N_COORD97":2542649.9300000002,"ADDRESS":"七甲五街１０２巷３９弄７號","OBJECTID":152620},"geometry":{"x":177158.70000000019,"y":2542649.9299999997}},{"attributes":{"ID":152622,"DIS_CODE":0,"TOWNNAME":"歸仁區","LI":"七甲里","LIN":"2鄰","STREET":"七甲五街","SECT":" ","MAREA":" ","LANE":"１０２巷","ALLEY":"１弄","HOUSE_NO":"２１號","E_COORD97":177144.20000000001,"N_COORD97":2542614.9300000002,"ADDRESS":"七甲五街１０２巷１弄２１號","OBJECTID":152621},"geometry":{"x":177144.20000000205,"y":2542614.9300000016}},{"attributes":{"ID":152623,"DIS_CODE":0,"TOWNNAME":"歸仁區","LI":"七甲里","LIN":"2鄰","STREET":"七甲五街","SECT":" ","MAREA":" ","LANE":"１０２巷","ALLEY":"１弄","HOUSE_NO":"２３號","E_COORD97":177140.10000000001,"N_COORD97":2542614.9300000002,"ADDRESS":"七甲五街１０２巷１弄２３號","OBJECTID":152622},"geometry":{"x":177140.09999999963,"y":2542614.9300000016}},{"attributes":{"ID":152624,"DIS_CODE":0,"TOWNNAME":"歸仁區","LI":"七甲里","LIN":"2鄰","STREET":"七甲五街","SECT":" ","MAREA":" ","LANE":"１０２巷","ALLEY":"１弄","HOUSE_NO":"１６號","E_COORD97":177168.89999999999,"N_COORD97":2542624.9300000002,"ADDRESS":"七甲五街１０２巷１弄１６號","OBJECTID":152623},"geometry":{"x":177168.9000000013,"y":2542624.9300000016}},{"attributes":{"ID":152625,"DIS_CODE":0,"TOWNNAME":"歸仁區","LI":"七甲里","LIN":"2鄰","STREET":"七甲五街","SECT":" ","MAREA":" ","LANE":"１０２巷","ALLEY":"３９弄","HOUSE_NO":"１２號","E_COORD97":177128.14999999999,"N_COORD97":2542627.9300000002,"ADDRESS":"七甲五街１０２巷３９弄１２號","OBJECTID":152624},"geometry":{"x":177128.1500000013,"y":2542627.9300000016}},{"attributes":{"ID":152626,"DIS_CODE":0,"TOWNNAME":"歸仁區","LI":"七甲里","LIN":"2鄰","STREET":"七甲五街","SECT":" ","MAREA":" ","LANE":"１０２巷","ALLEY":"３９弄","HOUSE_NO":"１８號","E_COORD97":177127.04999999999,"N_COORD97":2542619.9300000002,"ADDRESS":"七甲五街１０２巷３９弄１８號","OBJECTID":152625},"geometry":{"x":177127.04999999981,"y":2542619.9299999997}},{"attributes":{"ID":152627,"DIS_CODE":0,"TOWNNAME":"歸仁區","LI":"七甲里","LIN":"2鄰","STREET":"七甲五街","SECT":" ","MAREA":" ","LANE":"１０２巷","ALLEY":"１弄","HOUSE_NO":"３０號","E_COORD97":177143.29999999999,"N_COORD97":2542628.9300000002,"ADDRESS":"七甲五街１０２巷１弄３０號","OBJECTID":152626},"geometry":{"x":177143.30000000075,"y":2542628.9300000016}},{"attributes":{"ID":152628,"DIS_CODE":0,"TOWNNAME":"歸仁區","LI":"七甲里","LIN":"2鄰","STREET":"七甲五街","SECT":" ","MAREA":" ","LANE":"１０２巷","ALLEY":"１弄","HOUSE_NO":"１２號","E_COORD97":177172,"N_COORD97":2542623.9300000002,"ADDRESS":"七甲五街１０２巷１弄１２號","OBJECTID":152627},"geometry":{"x":177172,"y":2542623.9299999978}},{"attributes":{"ID":152629,"DIS_CODE":0,"TOWNNAME":"南區","LI":"府南里","LIN":"12鄰","STREET":"永成路","SECT":"三段","MAREA":" ","LANE":"３９８巷","ALLEY":" ","HOUSE_NO":"２２號","E_COORD97":167563.494294,"N_COORD97":2541031.8762500002,"ADDRESS":"永成路三段３９８巷２２號","OBJECTID":152628},"geometry":{"x":167563.49429400079,"y":2541031.8762519993}},{"attributes":{"ID":152630,"DIS_CODE":0,"TOWNNAME":"新市區","LI":"大營里","LIN":"5鄰","STREET":" ","SECT":" ","MAREA":"大營","LANE":" ","ALLEY":" ","HOUSE_NO":"７８之１８號","E_COORD97":179655.98999999999,"N_COORD97":2555477.5499999998,"ADDRESS":"大營７８之１８號","OBJECTID":152629},"geometry":{"x":179655.99000000022,"y":2555477.5500000045}},{"attributes":{"ID":152631,"DIS_CODE":0,"TOWNNAME":"新市區","LI":"大社里","LIN":"5鄰","STREET":" ","SECT":" ","MAREA":"大社","LANE":" ","ALLEY":" ","HOUSE_NO":"２２３之２號","E_COORD97":180132.73000000001,"N_COORD97":2554366.0499999998,"ADDRESS":"大社２２３之２號","OBJECTID":152630},"geometry":{"x":180132.73000000231,"y":2554366.0500000026}},{"attributes":{"ID":152632,"DIS_CODE":0,"TOWNNAME":"新市區","LI":"三舍里","LIN":"5鄰","STREET":" ","SECT":" ","MAREA":"三舍","LANE":" ","ALLEY":" ","HOUSE_NO":"１２６號","E_COORD97":177855.82000000001,"N_COORD97":2554566.5,"ADDRESS":"三舍１２６號","OBJECTID":152631},"geometry":{"x":177855.82000000123,"y":2554566.5000000019}},{"attributes":{"ID":152633,"DIS_CODE":0,"TOWNNAME":"官田區","LI":"南\u25A0里","LIN":"5鄰","STREET":" ","SECT":" ","MAREA":"南\u25A0","LANE":" ","ALLEY":" ","HOUSE_NO":"６２號之３","E_COORD97":178899.79000000001,"N_COORD97":2567957.8700000001,"ADDRESS":"南\u25A0６２號之３","OBJECTID":152632},"geometry":{"x":178899.79000000097,"y":2567957.870000001}},{"attributes":{"ID":152634,"DIS_CODE":0,"TOWNNAME":"官田區","LI":"南\u25A0里","LIN":"5鄰","STREET":" ","SECT":" ","MAREA":"南\u25A0","LANE":" ","ALLEY":" ","HOUSE_NO":"６２號之５","E_COORD97":178904.67000000001,"N_COORD97":2567958.52,"ADDRESS":"南\u25A0６２號之５","OBJECTID":152633},"geometry":{"x":178904.66999999993,"y":2567958.5199999996}},{"attributes":{"ID":152635,"DIS_CODE":0,"TOWNNAME":"官田區","LI":"南\u25A0里","LIN":"5鄰","STREET":" ","SECT":" ","MAREA":"南\u25A0","LANE":" ","ALLEY":" ","HOUSE_NO":"６２號","E_COORD97":178910.57000000001,"N_COORD97":2567963.1600000001,"ADDRESS":"南\u25A0６２號","OBJECTID":152634},"geometry":{"x":178910.57000000123,"y":2567963.160000002}},{"attributes":{"ID":152636,"DIS_CODE":0,"TOWNNAME":"官田區","LI":"南\u25A0里","LIN":"5鄰","STREET":" ","SECT":" ","MAREA":"南\u25A0","LANE":" ","ALLEY":" ","HOUSE_NO":"６３號","E_COORD97":178881.26000000001,"N_COORD97":2567959.4399999999,"ADDRESS":"南\u25A0６３號","OBJECTID":152635},"geometry":{"x":178881.26000000071,"y":2567959.4399999995}},{"attributes":{"ID":152637,"DIS_CODE":0,"TOWNNAME":"官田區","LI":"南\u25A0里","LIN":"5鄰","STREET":" ","SECT":" ","MAREA":"南\u25A0","LANE":" ","ALLEY":" ","HOUSE_NO":"６５號","E_COORD97":178869.66,"N_COORD97":2567944.23,"ADDRESS":"南\u25A0６５號","OBJECTID":152636},"geometry":{"x":178869.66000000015,"y":2567944.2300000004}},{"attributes":{"ID":152638,"DIS_CODE":0,"TOWNNAME":"官田區","LI":"南\u25A0里","LIN":"5鄰","STREET":" ","SECT":" ","MAREA":"南\u25A0","LANE":" ","ALLEY":" ","HOUSE_NO":"６４號","E_COORD97":178859.63,"N_COORD97":2567953.8399999999,"ADDRESS":"南\u25A0６４號","OBJECTID":152637},"geometry":{"x":178859.62999999989,"y":2567953.8399999999}},{"attributes":{"ID":152639,"DIS_CODE":0,"TOWNNAME":"中西區","LI":"民生里","LIN":"15鄰","STREET":"大仁街","SECT":" ","MAREA":" ","LANE":" ","ALLEY":" ","HOUSE_NO":"１４９號","E_COORD97":167147.22,"N_COORD97":2543479.0699999998,"ADDRESS":"大仁街１４９號","OBJECTID":152638},"geometry":{"x":167147.22000000067,"y":2543479.0700000022}},{"attributes":{"ID":152640,"DIS_CODE":0,"TOWNNAME":"中西區","LI":"民生里","LIN":"15鄰","STREET":"大仁街","SECT":" ","MAREA":" ","LANE":" ","ALLEY":" ","HOUSE_NO":"１５１號","E_COORD97":167143.12,"N_COORD97":2543479.98,"ADDRESS":"大仁街１５１號","OBJECTID":152639},"geometry":{"x":167143.12000000104,"y":2543479.9800000023}},{"attributes":{"ID":152641,"DIS_CODE":0,"TOWNNAME":"中西區","LI":"民生里","LIN":"15鄰","STREET":"大仁街","SECT":" ","MAREA":" ","LANE":" ","ALLEY":" ","HOUSE_NO":"１５３號","E_COORD97":167139.25,"N_COORD97":2543480.6600000001,"ADDRESS":"大仁街１５３號","OBJECTID":152640},"geometry":{"x":167139.25000000093,"y":2543480.6599999983}},{"attributes":{"ID":152642,"DIS_CODE":0,"TOWNNAME":"歸仁區","LI":"七甲里","LIN":"2鄰","STREET":"七甲五街","SECT":" ","MAREA":" ","LANE":"１０２巷","ALLEY":"３９弄","HOUSE_NO":"１０號","E_COORD97":177129.14999999999,"N_COORD97":2542631.9300000002,"ADDRESS":"七甲五街１０２巷３９弄１０號","OBJECTID":152641},"geometry":{"x":177129.15000000037,"y":2542631.9300000016}},{"attributes":{"ID":152643,"DIS_CODE":0,"TOWNNAME":"歸仁區","LI":"七甲里","LIN":"2鄰","STREET":"七甲五街","SECT":" ","MAREA":" ","LANE":"１０２巷","ALLEY":"１弄","HOUSE_NO":"１９號","E_COORD97":177148.29999999999,"N_COORD97":2542613.9300000002,"ADDRESS":"七甲五街１０２巷１弄１９號","OBJECTID":152642},"geometry":{"x":177148.30000000075,"y":2542613.9300000034}},{"attributes":{"ID":152644,"DIS_CODE":0,"TOWNNAME":"歸仁區","LI":"七甲里","LIN":"2鄰","STREET":"七甲五街","SECT":" ","MAREA":" ","LANE":"１０２巷","ALLEY":"３９弄","HOUSE_NO":"９號","E_COORD97":177160.79999999999,"N_COORD97":2542644.9300000002,"ADDRESS":"七甲五街１０２巷３９弄９號","OBJECTID":152643},"geometry":{"x":177160.80000000075,"y":2542644.9300000016}},{"attributes":{"ID":152645,"DIS_CODE":0,"TOWNNAME":"歸仁區","LI":"七甲里","LIN":"2鄰","STREET":"七甲五街","SECT":" ","MAREA":" ","LANE":"１０２巷","ALLEY":"３９弄","HOUSE_NO":"２號","E_COORD97":177131,"N_COORD97":2542645.9300000002,"ADDRESS":"七甲五街１０２巷３９弄２號","OBJECTID":152644},"geometry":{"x":177131,"y":2542645.9300000016}},{"attributes":{"ID":152646,"DIS_CODE":0,"TOWNNAME":"歸仁區","LI":"七甲里","LIN":"2鄰","STREET":"七甲五街","SECT":" ","MAREA":" ","LANE":"１０２巷","ALLEY":"３９弄","HOUSE_NO":"１１號","E_COORD97":177155.85000000001,"N_COORD97":2542643.9300000002,"ADDRESS":"七甲五街１０２巷３９弄１１號","OBJECTID":152645},"geometry":{"x":177155.84999999963,"y":2542643.9299999997}},{"attributes":{"ID":152647,"DIS_CODE":0,"TOWNNAME":"歸仁區","LI":"七甲里","LIN":"2鄰","STREET":"七甲五街","SECT":" ","MAREA":" ","LANE":"１０２巷","ALLEY":"３９弄","HOUSE_NO":"１３號","E_COORD97":177147.75,"N_COORD97":2542643.9300000002,"ADDRESS":"七甲五街１０２巷３９弄１３號","OBJECTID":152646},"geometry":{"x":177147.75000000093,"y":2542643.9299999997}},{"attributes":{"ID":152648,"DIS_CODE":0,"TOWNNAME":"歸仁區","LI":"七甲里","LIN":"2鄰","STREET":"七甲五街","SECT":" ","MAREA":" ","LANE":"１０２巷","ALLEY":"１弄","HOUSE_NO":"１３號","E_COORD97":177161.60000000001,"N_COORD97":2542610.9300000002,"ADDRESS":"七甲五街１０２巷１弄１３號","OBJECTID":152647},"geometry":{"x":177161.60000000056,"y":2542610.9300000016}},{"attributes":{"ID":152649,"DIS_CODE":0,"TOWNNAME":"歸仁區","LI":"七甲里","LIN":"2鄰","STREET":"七甲五街","SECT":" ","MAREA":" ","LANE":"１０２巷","ALLEY":"１弄","HOUSE_NO":"２８號","E_COORD97":177146.29999999999,"N_COORD97":2542627.9300000002,"ADDRESS":"七甲五街１０２巷１弄２８號","OBJECTID":152648},"geometry":{"x":177146.29999999888,"y":2542627.9300000016}},{"attributes":{"ID":152650,"DIS_CODE":0,"TOWNNAME":"歸仁區","LI":"七甲里","LIN":"2鄰","STREET":"七甲五街","SECT":" ","MAREA":" ","LANE":"１０２巷","ALLEY":"３９弄","HOUSE_NO":"６號","E_COORD97":177130,"N_COORD97":2542641.9300000002,"ADDRESS":"七甲五街１０２巷３９弄６號","OBJECTID":152649},"geometry":{"x":177130.00000000186,"y":2542641.9300000016}},{"attributes":{"ID":152651,"DIS_CODE":0,"TOWNNAME":"歸仁區","LI":"七甲里","LIN":"2鄰","STREET":"七甲五街","SECT":" ","MAREA":" ","LANE":"１０２巷","ALLEY":"３９弄","HOUSE_NO":"２０號","E_COORD97":177126.04999999999,"N_COORD97":2542613.9300000002,"ADDRESS":"七甲五街１０２巷３９弄２０號","OBJECTID":152650},"geometry":{"x":177126.05000000168,"y":2542613.9300000034}},{"attributes":{"ID":152652,"DIS_CODE":0,"TOWNNAME":"歸仁區","LI":"七甲里","LIN":"2鄰","STREET":"七甲五街","SECT":" ","MAREA":" ","LANE":"１０２巷","ALLEY":"３９弄","HOUSE_NO":"８號","E_COORD97":177129,"N_COORD97":2542635.9300000002,"ADDRESS":"七甲五街１０２巷３９弄８號","OBJECTID":152651},"geometry":{"x":177129.00000000093,"y":2542635.9300000016}},{"attributes":{"ID":152653,"DIS_CODE":0,"TOWNNAME":"南區","LI":"彰南里","LIN":"15鄰","STREET":"新信路","SECT":" ","MAREA":" ","LANE":" ","ALLEY":" ","HOUSE_NO":"９號","E_COORD97":165978.48999999999,"N_COORD97":2541497.1000000001,"ADDRESS":"新信路９號","OBJECTID":152652},"geometry":{"x":165978.49000000115,"y":2541497.0999999978}},{"attributes":{"ID":152654,"DIS_CODE":0,"TOWNNAME":"歸仁區","LI":"七甲里","LIN":"2鄰","STREET":"七甲五街","SECT":" ","MAREA":" ","LANE":"１０２巷","ALLEY":"１弄","HOUSE_NO":"５號","E_COORD97":177177.75,"N_COORD97":2542608.9300000002,"ADDRESS":"七甲五街１０２巷１弄５號","OBJECTID":152653},"geometry":{"x":177177.75000000093,"y":2542608.9299999997}},{"attributes":{"ID":152655,"DIS_CODE":0,"TOWNNAME":"歸仁區","LI":"七甲里","LIN":"2鄰","STREET":"七甲五街","SECT":" ","MAREA":" ","LANE":"１０２巷","ALLEY":"３９弄","HOUSE_NO":"５號","E_COORD97":177153.60000000001,"N_COORD97":2542650.9300000002,"ADDRESS":"七甲五街１０２巷３９弄５號","OBJECTID":152654},"geometry":{"x":177153.59999999963,"y":2542650.9299999997}},{"attributes":{"ID":152656,"DIS_CODE":0,"TOWNNAME":"歸仁區","LI":"七甲里","LIN":"2鄰","STREET":"七甲五街","SECT":" ","MAREA":" ","LANE":"１０２巷","ALLEY":"１弄","HOUSE_NO":"６號","E_COORD97":177186.04999999999,"N_COORD97":2542620.9300000002,"ADDRESS":"七甲五街１０２巷１弄６號","OBJECTID":152655},"geometry":{"x":177186.05000000075,"y":2542620.9300000034}},{"attributes":{"ID":152657,"DIS_CODE":0,"TOWNNAME":"歸仁區","LI":"七甲里","LIN":"2鄰","STREET":"七甲五街","SECT":" ","MAREA":" ","LANE":"１０２巷","ALLEY":"１弄","HOUSE_NO":"１５號","E_COORD97":177156.5,"N_COORD97":2542612.9300000002,"ADDRESS":"七甲五街１０２巷１弄１５號","OBJECTID":152656},"geometry":{"x":177156.5,"y":2542612.9299999997}},{"attributes":{"ID":152658,"DIS_CODE":0,"TOWNNAME":"南區","LI":"永寧里","LIN":"2鄰","STREET":"灣裡路","SECT":" ","MAREA":" ","LANE":"８８巷","ALLEY":"１２９弄","HOUSE_NO":"１０號","E_COORD97":165928.64999999999,"N_COORD97":2536589.5600000001,"ADDRESS":"灣裡路８８巷１２９弄１０號","OBJECTID":152657},"geometry":{"x":165928.65000000037,"y":2536589.5600000042}},{"attributes":{"ID":152659,"DIS_CODE":0,"TOWNNAME":"南區","LI":"永寧里","LIN":"2鄰","STREET":"灣裡路","SECT":" ","MAREA":" ","LANE":"８８巷","ALLEY":"１２９弄","HOUSE_NO":"１號","E_COORD97":165908.67000000001,"N_COORD97":2536591.6000000001,"ADDRESS":"灣裡路８８巷１２９弄１號","OBJECTID":152658},"geometry":{"x":165908.67000000086,"y":2536591.6000000034}},{"attributes":{"ID":152660,"DIS_CODE":0,"TOWNNAME":"南區","LI":"永寧里","LIN":"2鄰","STREET":"灣裡路","SECT":" ","MAREA":" ","LANE":"８８巷","ALLEY":"１２９弄","HOUSE_NO":"４號","E_COORD97":165909.70999999999,"N_COORD97":2536580.3399999999,"ADDRESS":"灣裡路８８巷１２９弄４號","OBJECTID":152659},"geometry":{"x":165909.71000000183,"y":2536580.3400000017}},{"attributes":{"ID":152661,"DIS_CODE":0,"TOWNNAME":"南區","LI":"永寧里","LIN":"2鄰","STREET":"灣裡路","SECT":" ","MAREA":" ","LANE":"８８巷","ALLEY":"１２９弄","HOUSE_NO":"６號","E_COORD97":165915.95999999999,"N_COORD97":2536582.3199999998,"ADDRESS":"灣裡路８８巷１２９弄６號","OBJECTID":152660},"geometry":{"x":165915.95999999996,"y":2536582.3200000003}},{"attributes":{"ID":152662,"DIS_CODE":0,"TOWNNAME":"南區","LI":"永寧里","LIN":"2鄰","STREET":"灣裡路","SECT":" ","MAREA":" ","LANE":"８８巷","ALLEY":"１２９弄","HOUSE_NO":"８號","E_COORD97":165923.54000000001,"N_COORD97":2536588.0499999998,"ADDRESS":"灣裡路８８巷１２９弄８號","OBJECTID":152661},"geometry":{"x":165923.54000000097,"y":2536588.0500000007}},{"attributes":{"ID":152663,"DIS_CODE":0,"TOWNNAME":"南區","LI":"大成里","LIN":"2鄰","STREET":"西門路","SECT":"一段","MAREA":" ","LANE":"３８０巷","ALLEY":"２弄","HOUSE_NO":"１０號","E_COORD97":167773.20000000001,"N_COORD97":2542366.3900000001,"ADDRESS":"西門路一段３８０巷２弄１０號","OBJECTID":152662},"geometry":{"x":167773.20000000205,"y":2542366.3900000006}},{"attributes":{"ID":152664,"DIS_CODE":0,"TOWNNAME":"南區","LI":"大成里","LIN":"2鄰","STREET":"西門路","SECT":"一段","MAREA":" ","LANE":"３８０巷","ALLEY":"２弄","HOUSE_NO":"１２號","E_COORD97":167773.20000000001,"N_COORD97":2542361.4199999999,"ADDRESS":"西門路一段３８０巷２弄１２號","OBJECTID":152663},"geometry":{"x":167773.20000000205,"y":2542361.4200000018}},{"attributes":{"ID":152665,"DIS_CODE":0,"TOWNNAME":"南區","LI":"大成里","LIN":"2鄰","STREET":"西門路","SECT":"一段","MAREA":" ","LANE":"３８０巷","ALLEY":"２弄","HOUSE_NO":"１６號","E_COORD97":167773.20000000001,"N_COORD97":2542351.1099999999,"ADDRESS":"西門路一段３８０巷２弄１６號","OBJECTID":152664},"geometry":{"x":167773.20000000205,"y":2542351.1099999994}},{"attributes":{"ID":152666,"DIS_CODE":0,"TOWNNAME":"南區","LI":"大成里","LIN":"2鄰","STREET":"西門路","SECT":"一段","MAREA":" ","LANE":"３８０巷","ALLEY":"２弄","HOUSE_NO":"１８號","E_COORD97":167773.38,"N_COORD97":2542346.6899999999,"ADDRESS":"西門路一段３８０巷２弄１８號","OBJECTID":152665},"geometry":{"x":167773.38000000175,"y":2542346.6899999995}},{"attributes":{"ID":152667,"DIS_CODE":0,"TOWNNAME":"南區","LI":"大成里","LIN":"2鄰","STREET":"西門路","SECT":"一段","MAREA":" ","LANE":"３８０巷","ALLEY":"２弄","HOUSE_NO":"２０號","E_COORD97":167773.57000000001,"N_COORD97":2542341.3399999999,"ADDRESS":"西門路一段３８０巷２弄２０號","OBJECTID":152666},"geometry":{"x":167773.5700000003,"y":2542341.3400000017}},{"attributes":{"ID":152668,"DIS_CODE":0,"TOWNNAME":"南區","LI":"大成里","LIN":"2鄰","STREET":"西門路","SECT":"一段","MAREA":" ","LANE":"３８０巷","ALLEY":"２弄","HOUSE_NO":"２號","E_COORD97":167773.20000000001,"N_COORD97":2542384.9900000002,"ADDRESS":"西門路一段３８０巷２弄２號","OBJECTID":152667},"geometry":{"x":167773.20000000205,"y":2542384.9900000021}},{"attributes":{"ID":152669,"DIS_CODE":0,"TOWNNAME":"南區","LI":"大成里","LIN":"2鄰","STREET":"西門路","SECT":"一段","MAREA":" ","LANE":"３８０巷","ALLEY":"２弄","HOUSE_NO":"４號","E_COORD97":167772.64999999999,"N_COORD97":2542380.9399999999,"ADDRESS":"西門路一段３８０巷２弄４號","OBJECTID":152668},"geometry":{"x":167772.6500000013,"y":2542380.9400000013}},{"attributes":{"ID":152670,"DIS_CODE":0,"TOWNNAME":"南區","LI":"大成里","LIN":"2鄰","STREET":"西門路","SECT":"一段","MAREA":" ","LANE":"３８０巷","ALLEY":"２弄","HOUSE_NO":"６號","E_COORD97":167773.20000000001,"N_COORD97":2542376.1499999999,"ADDRESS":"西門路一段３８０巷２弄６號","OBJECTID":152669},"geometry":{"x":167773.20000000205,"y":2542376.1500000041}},{"attributes":{"ID":152671,"DIS_CODE":0,"TOWNNAME":"南區","LI":"大成里","LIN":"2鄰","STREET":"西門路","SECT":"一段","MAREA":" ","LANE":"３８０巷","ALLEY":"２弄","HOUSE_NO":"８號","E_COORD97":167773.01999999999,"N_COORD97":2542371,"ADDRESS":"西門路一段３８０巷２弄８號","OBJECTID":152670},"geometry":{"x":167773.01999999955,"y":2542371.0000000019}},{"attributes":{"ID":152672,"DIS_CODE":0,"TOWNNAME":"東區","LI":"大同里","LIN":"9鄰","STREET":"樹林街","SECT":"一段","MAREA":" ","LANE":"１８３巷","ALLEY":"６弄","HOUSE_NO":"５號","E_COORD97":169256.44,"N_COORD97":2542984.04,"ADDRESS":"樹林街一段１８３巷６弄５號","OBJECTID":152671},"geometry":{"x":169256.44000000041,"y":2542984.0399999991}},{"attributes":{"ID":152673,"DIS_CODE":0,"TOWNNAME":"東區","LI":"大同里","LIN":"9鄰","STREET":"樹林街","SECT":"一段","MAREA":" ","LANE":"１８３巷","ALLEY":"６弄","HOUSE_NO":"７號","E_COORD97":169252.35999999999,"N_COORD97":2542986.02,"ADDRESS":"樹林街一段１８３巷６弄７號","OBJECTID":152672},"geometry":{"x":169252.36000000127,"y":2542986.0199999977}},{"attributes":{"ID":152674,"DIS_CODE":0,"TOWNNAME":"東區","LI":"大同里","LIN":"9鄰","STREET":"樹林街","SECT":"一段","MAREA":" ","LANE":"１８３巷","ALLEY":"６弄","HOUSE_NO":"９號","E_COORD97":169252.01000000001,"N_COORD97":2542982.52,"ADDRESS":"樹林街一段１８３巷６弄９號","OBJECTID":152673},"geometry":{"x":169252.00999999978,"y":2542982.5199999977}},{"attributes":{"ID":152675,"DIS_CODE":0,"TOWNNAME":"東區","LI":"仁和里","LIN":"28鄰","STREET":"仁和路","SECT":" ","MAREA":" ","LANE":"１３９巷","ALLEY":"５１弄","HOUSE_NO":"１１號","E_COORD97":171723.73999999999,"N_COORD97":2541082.5899999999,"ADDRESS":"仁和路１３９巷５１弄１１號","OBJECTID":152674},"geometry":{"x":171723.74000000022,"y":2541082.5899999999}},{"attributes":{"ID":152676,"DIS_CODE":0,"TOWNNAME":"東區","LI":"仁和里","LIN":"28鄰","STREET":"仁和路","SECT":" ","MAREA":" ","LANE":"１３９巷","ALLEY":"５１弄","HOUSE_NO":"１３號","E_COORD97":171723.17000000001,"N_COORD97":2541084.4300000002,"ADDRESS":"仁和路１３９巷５１弄１３號","OBJECTID":152675},"geometry":{"x":171723.17000000086,"y":2541084.4299999997}},{"attributes":{"ID":152677,"DIS_CODE":0,"TOWNNAME":"東區","LI":"仁和里","LIN":"28鄰","STREET":"仁和路","SECT":" ","MAREA":" ","LANE":"１３９巷","ALLEY":"５１弄","HOUSE_NO":"１５號","E_COORD97":171722.47,"N_COORD97":2541088.7000000002,"ADDRESS":"仁和路１３９巷５１弄１５號","OBJECTID":152676},"geometry":{"x":171722.47000000067,"y":2541088.6999999993}},{"attributes":{"ID":152678,"DIS_CODE":0,"TOWNNAME":"南區","LI":"郡南里","LIN":"17鄰","STREET":"永成路","SECT":"三段","MAREA":" ","LANE":" ","ALLEY":" ","HOUSE_NO":"５１號","E_COORD97":167479.59207000001,"N_COORD97":2540485.52306,"ADDRESS":"永成路三段５１號","OBJECTID":152677},"geometry":{"x":167479.59207000118,"y":2540485.5230640024}},{"attributes":{"ID":152679,"DIS_CODE":0,"TOWNNAME":"東區","LI":"仁和里","LIN":"28鄰","STREET":"仁和路","SECT":" ","MAREA":" ","LANE":"１３９巷","ALLEY":"５１弄","HOUSE_NO":"１７號","E_COORD97":171721.19,"N_COORD97":2541092.4500000002,"ADDRESS":"仁和路１３９巷５１弄１７號","OBJECTID":152678},"geometry":{"x":171721.19000000041,"y":2541092.4500000011}},{"attributes":{"ID":152680,"DIS_CODE":0,"TOWNNAME":"東區","LI":"仁和里","LIN":"28鄰","STREET":"仁和路","SECT":" ","MAREA":" ","LANE":"１３９巷","ALLEY":"５１弄","HOUSE_NO":"１９號","E_COORD97":171721.47,"N_COORD97":2541099.1099999999,"ADDRESS":"仁和路１３９巷５１弄１９號","OBJECTID":152679},"geometry":{"x":171721.46999999974,"y":2541099.1099999994}},{"attributes":{"ID":152681,"DIS_CODE":0,"TOWNNAME":"東區","LI":"仁和里","LIN":"28鄰","STREET":"仁和路","SECT":" ","MAREA":" ","LANE":"１３９巷","ALLEY":"５１弄","HOUSE_NO":"７號","E_COORD97":171728.48000000001,"N_COORD97":2541075.5499999998,"ADDRESS":"仁和路１３９巷５１弄７號","OBJECTID":152680},"geometry":{"x":171728.48000000138,"y":2541075.5500000026}},{"attributes":{"ID":152682,"DIS_CODE":0,"TOWNNAME":"東區","LI":"仁和里","LIN":"28鄰","STREET":"仁和路","SECT":" ","MAREA":" ","LANE":"１３９巷","ALLEY":"５１弄","HOUSE_NO":"９號","E_COORD97":171727.32000000001,"N_COORD97":2541078.4399999999,"ADDRESS":"仁和路１３９巷５１弄９號","OBJECTID":152681},"geometry":{"x":171727.32000000216,"y":2541078.4400000013}},{"attributes":{"ID":152683,"DIS_CODE":0,"TOWNNAME":"東區","LI":"仁和里","LIN":"11鄰","STREET":"仁和路","SECT":" ","MAREA":" ","LANE":"１３９巷","ALLEY":"５１弄","HOUSE_NO":"６號之８","E_COORD97":171775.28,"N_COORD97":2541101.0099999998,"ADDRESS":"仁和路１３９巷５１弄６號之８","OBJECTID":152682},"geometry":{"x":171775.28000000119,"y":2541101.0099999998}},{"attributes":{"ID":152684,"DIS_CODE":0,"TOWNNAME":"東區","LI":"仁和里","LIN":"11鄰","STREET":"仁和路","SECT":" ","MAREA":" ","LANE":"１３９巷","ALLEY":"５１弄","HOUSE_NO":"６號之９","E_COORD97":171780.98000000001,"N_COORD97":2541102.1299999999,"ADDRESS":"仁和路１３９巷５１弄６號之９","OBJECTID":152683},"geometry":{"x":171780.98000000138,"y":2541102.129999999}},{"attributes":{"ID":152685,"DIS_CODE":0,"TOWNNAME":"新營區","LI":"忠政里","LIN":"2鄰","STREET":"中正路","SECT":" ","MAREA":" ","LANE":"３１巷","ALLEY":"９弄","HOUSE_NO":"４號","E_COORD97":180043.87,"N_COORD97":2579047.6000000001,"ADDRESS":"中正路３１巷９弄４號","OBJECTID":152684},"geometry":{"x":180043.87000000104,"y":2579047.5999999996}},{"attributes":{"ID":152686,"DIS_CODE":0,"TOWNNAME":"南區","LI":"省躬里","LIN":"2鄰","STREET":"省躬三街","SECT":" ","MAREA":" ","LANE":"１６５巷","ALLEY":"２弄","HOUSE_NO":"１號","E_COORD97":165763.98000000001,"N_COORD97":2536713.1600000001,"ADDRESS":"省躬三街１６５巷２弄１號","OBJECTID":152685},"geometry":{"x":165763.98000000045,"y":2536713.1600000001}},{"attributes":{"ID":152687,"DIS_CODE":0,"TOWNNAME":"南區","LI":"省躬里","LIN":"2鄰","STREET":"省躬三街","SECT":" ","MAREA":" ","LANE":"１６５巷","ALLEY":"２弄","HOUSE_NO":"２號","E_COORD97":165765.34,"N_COORD97":2536705.8199999998,"ADDRESS":"省躬三街１６５巷２弄２號","OBJECTID":152686},"geometry":{"x":165765.34000000078,"y":2536705.820000004}},{"attributes":{"ID":152688,"DIS_CODE":0,"TOWNNAME":"南區","LI":"省躬里","LIN":"2鄰","STREET":"省躬三街","SECT":" ","MAREA":" ","LANE":"１６５巷","ALLEY":"２弄","HOUSE_NO":"３號","E_COORD97":165767.79999999999,"N_COORD97":2536699.02,"ADDRESS":"省躬三街１６５巷２弄３號","OBJECTID":152687},"geometry":{"x":165767.79999999981,"y":2536699.0199999996}},{"attributes":{"ID":152689,"DIS_CODE":0,"TOWNNAME":"南區","LI":"省躬里","LIN":"2鄰","STREET":"省躬三街","SECT":" ","MAREA":" ","LANE":"１６５巷","ALLEY":"２弄","HOUSE_NO":"５號","E_COORD97":165767.51999999999,"N_COORD97":2536691.9500000002,"ADDRESS":"省躬三街１６５巷２弄５號","OBJECTID":152688},"geometry":{"x":165767.51999999955,"y":2536691.9500000011}},{"attributes":{"ID":152690,"DIS_CODE":0,"TOWNNAME":"南區","LI":"省躬里","LIN":"2鄰","STREET":"省躬三街","SECT":" ","MAREA":" ","LANE":"１６５巷","ALLEY":"２弄","HOUSE_NO":"６號","E_COORD97":165768.88,"N_COORD97":2536685.4199999999,"ADDRESS":"省躬三街１６５巷２弄６號","OBJECTID":152689},"geometry":{"x":165768.87999999989,"y":2536685.4200000018}},{"attributes":{"ID":152691,"DIS_CODE":0,"TOWNNAME":"南區","LI":"省躬里","LIN":"2鄰","STREET":"省躬三街","SECT":" ","MAREA":" ","LANE":"１６５巷","ALLEY":"２弄","HOUSE_NO":"７號","E_COORD97":165769.70000000001,"N_COORD97":2536678.8999999999,"ADDRESS":"省躬三街１６５巷２弄７號","OBJECTID":152690},"geometry":{"x":165769.70000000112,"y":2536678.9000000022}},{"attributes":{"ID":152692,"DIS_CODE":0,"TOWNNAME":"南區","LI":"省躬里","LIN":"2鄰","STREET":"省躬三街","SECT":" ","MAREA":" ","LANE":"１６５巷","ALLEY":"６弄","HOUSE_NO":"１０號","E_COORD97":165782.23000000001,"N_COORD97":2536702.8300000001,"ADDRESS":"省躬三街１６５巷６弄１０號","OBJECTID":152691},"geometry":{"x":165782.23000000045,"y":2536702.8300000019}},{"attributes":{"ID":152693,"DIS_CODE":0,"TOWNNAME":"南區","LI":"省躬里","LIN":"2鄰","STREET":"省躬三街","SECT":" ","MAREA":" ","LANE":"１６５巷","ALLEY":"６弄","HOUSE_NO":"１１號","E_COORD97":165798.29999999999,"N_COORD97":2536695.25,"ADDRESS":"省躬三街１６５巷６弄１１號","OBJECTID":152692},"geometry":{"x":165798.29999999981,"y":2536695.25}},{"attributes":{"ID":152694,"DIS_CODE":0,"TOWNNAME":"南區","LI":"省躬里","LIN":"2鄰","STREET":"省躬三街","SECT":" ","MAREA":" ","LANE":"１６５巷","ALLEY":"６弄","HOUSE_NO":"１２號","E_COORD97":165782.5,"N_COORD97":2536698.48,"ADDRESS":"省躬三街１６５巷６弄１２號","OBJECTID":152693},"geometry":{"x":165782.50000000186,"y":2536698.4800000042}},{"attributes":{"ID":152695,"DIS_CODE":0,"TOWNNAME":"南區","LI":"省躬里","LIN":"2鄰","STREET":"省躬三街","SECT":" ","MAREA":" ","LANE":"１６５巷","ALLEY":"６弄","HOUSE_NO":"１３號","E_COORD97":165799.39000000001,"N_COORD97":2536691.4500000002,"ADDRESS":"省躬三街１６５巷６弄１３號","OBJECTID":152694},"geometry":{"x":165799.38999999966,"y":2536691.4500000011}},{"attributes":{"ID":152696,"DIS_CODE":0,"TOWNNAME":"南區","LI":"省躬里","LIN":"2鄰","STREET":"省躬三街","SECT":" ","MAREA":" ","LANE":"１６５巷","ALLEY":"６弄","HOUSE_NO":"１４號","E_COORD97":165783.32000000001,"N_COORD97":2536694.1299999999,"ADDRESS":"省躬三街１６５巷６弄１４號","OBJECTID":152695},"geometry":{"x":165783.3200000003,"y":2536694.129999999}},{"attributes":{"ID":152697,"DIS_CODE":0,"TOWNNAME":"南區","LI":"省躬里","LIN":"2鄰","STREET":"省躬三街","SECT":" ","MAREA":" ","LANE":"１６５巷","ALLEY":"６弄","HOUSE_NO":"１５號","E_COORD97":165800.47,"N_COORD97":2536687.1000000001,"ADDRESS":"省躬三街１６５巷６弄１５號","OBJECTID":152696},"geometry":{"x":165800.46999999974,"y":2536687.1000000015}},{"attributes":{"ID":152698,"DIS_CODE":0,"TOWNNAME":"南區","LI":"省躬里","LIN":"2鄰","STREET":"省躬三街","SECT":" ","MAREA":" ","LANE":"１６５巷","ALLEY":"６弄","HOUSE_NO":"１６號","E_COORD97":165784.67999999999,"N_COORD97":2536688.4199999999,"ADDRESS":"省躬三街１６５巷６弄１６號","OBJECTID":152697},"geometry":{"x":165784.68000000063,"y":2536688.4200000018}},{"attributes":{"ID":152699,"DIS_CODE":0,"TOWNNAME":"南區","LI":"省躬里","LIN":"2鄰","STREET":"省躬三街","SECT":" ","MAREA":" ","LANE":"１６５巷","ALLEY":"６弄","HOUSE_NO":"１７號","E_COORD97":165801.01999999999,"N_COORD97":2536681.9300000002,"ADDRESS":"省躬三街１６５巷６弄１７號","OBJECTID":152698},"geometry":{"x":165801.02000000048,"y":2536681.9300000016}},{"attributes":{"ID":152700,"DIS_CODE":0,"TOWNNAME":"南區","LI":"省躬里","LIN":"2鄰","STREET":"省躬三街","SECT":" ","MAREA":" ","LANE":"１６５巷","ALLEY":"６弄","HOUSE_NO":"１８號","E_COORD97":165785.5,"N_COORD97":2536683.79,"ADDRESS":"省躬三街１６５巷６弄１８號","OBJECTID":152699},"geometry":{"x":165785.5,"y":2536683.7899999991}},{"attributes":{"ID":152701,"DIS_CODE":0,"TOWNNAME":"南區","LI":"省躬里","LIN":"2鄰","STREET":"省躬三街","SECT":" ","MAREA":" ","LANE":"１６５巷","ALLEY":"６弄","HOUSE_NO":"１號","E_COORD97":165793.67000000001,"N_COORD97":2536718.3700000001,"ADDRESS":"省躬三街１６５巷６弄１號","OBJECTID":152700},"geometry":{"x":165793.67000000086,"y":2536718.370000001}},{"attributes":{"ID":152702,"DIS_CODE":0,"TOWNNAME":"南區","LI":"省躬里","LIN":"2鄰","STREET":"省躬三街","SECT":" ","MAREA":" ","LANE":"１６５巷","ALLEY":"６弄","HOUSE_NO":"２０號","E_COORD97":165786.04000000001,"N_COORD97":2536679.9900000002,"ADDRESS":"省躬三街１６５巷６弄２０號","OBJECTID":152701},"geometry":{"x":165786.04000000097,"y":2536679.9900000002}},{"attributes":{"ID":152703,"DIS_CODE":0,"TOWNNAME":"南區","LI":"省躬里","LIN":"2鄰","STREET":"省躬三街","SECT":" ","MAREA":" ","LANE":"１６５巷","ALLEY":"６弄","HOUSE_NO":"２號","E_COORD97":165780.32000000001,"N_COORD97":2536715.3799999999,"ADDRESS":"省躬三街１６５巷６弄２號","OBJECTID":152702},"geometry":{"x":165780.3200000003,"y":2536715.3800000008}},{"attributes":{"ID":152704,"DIS_CODE":0,"TOWNNAME":"南區","LI":"省躬里","LIN":"2鄰","STREET":"省躬三街","SECT":" ","MAREA":" ","LANE":"１６５巷","ALLEY":"６弄","HOUSE_NO":"３號","E_COORD97":165795.29999999999,"N_COORD97":2536714.02,"ADDRESS":"省躬三街１６５巷６弄３號","OBJECTID":152703},"geometry":{"x":165795.29999999888,"y":2536714.0200000033}},{"attributes":{"ID":152705,"DIS_CODE":0,"TOWNNAME":"東區","LI":"小東里","LIN":"33鄰","STREET":"東平路","SECT":" ","MAREA":" ","LANE":" ","ALLEY":" ","HOUSE_NO":"１２６號","E_COORD97":171078.17999999999,"N_COORD97":2543978.71,"ADDRESS":"東平路１２６號","OBJECTID":152704},"geometry":{"x":171078.1799999997,"y":2543978.7100000009}},{"attributes":{"ID":152706,"DIS_CODE":0,"TOWNNAME":"東區","LI":"大智里","LIN":"8鄰","STREET":"德東街","SECT":" ","MAREA":" ","LANE":" ","ALLEY":" ","HOUSE_NO":"９５號","E_COORD97":171054.73999999999,"N_COORD97":2540264.9300000002,"ADDRESS":"德東街９５號","OBJECTID":152705},"geometry":{"x":171054.74000000209,"y":2540264.9300000016}},{"attributes":{"ID":152707,"DIS_CODE":0,"TOWNNAME":"東區","LI":"莊敬里","LIN":"7鄰","STREET":"東光路","SECT":"二段","MAREA":" ","LANE":" ","ALLEY":" ","HOUSE_NO":"１１１號","E_COORD97":171218.32000000001,"N_COORD97":2544228.9900000002,"ADDRESS":"東光路二段１１１號","OBJECTID":152706},"geometry":{"x":171218.3200000003,"y":2544228.9900000021}},{"attributes":{"ID":152708,"DIS_CODE":0,"TOWNNAME":"東區","LI":"莊敬里","LIN":"7鄰","STREET":"東光路","SECT":"二段","MAREA":" ","LANE":" ","ALLEY":" ","HOUSE_NO":"１１３號","E_COORD97":171218.92000000001,"N_COORD97":2544232.1800000002,"ADDRESS":"東光路二段１１３號","OBJECTID":152707},"geometry":{"x":171218.91999999993,"y":2544232.1799999997}},{"attributes":{"ID":152709,"DIS_CODE":0,"TOWNNAME":"東區","LI":"莊敬里","LIN":"7鄰","STREET":"東光路","SECT":"二段","MAREA":" ","LANE":" ","ALLEY":" ","HOUSE_NO":"１１５號","E_COORD97":171219.51999999999,"N_COORD97":2544236.9700000002,"ADDRESS":"東光路二段１１５號","OBJECTID":152708},"geometry":{"x":171219.51999999955,"y":2544236.9700000025}},{"attributes":{"ID":152710,"DIS_CODE":0,"TOWNNAME":"白河區","LI":"秀祐里","LIN":"5鄰","STREET":" ","SECT":" ","MAREA":"下秀祐","LANE":" ","ALLEY":" ","HOUSE_NO":"６號","E_COORD97":188780.56,"N_COORD97":2582939.54,"ADDRESS":"下秀祐６號","OBJECTID":152709},"geometry":{"x":188780.56000000052,"y":2582939.5399999991}},{"attributes":{"ID":152711,"DIS_CODE":0,"TOWNNAME":"南區","LI":"省躬里","LIN":"2鄰","STREET":"省躬三街","SECT":" ","MAREA":" ","LANE":"１６５巷","ALLEY":"６弄","HOUSE_NO":"５號","E_COORD97":165796.39000000001,"N_COORD97":2536709.6699999999,"ADDRESS":"省躬三街１６５巷６弄５號","OBJECTID":152710},"geometry":{"x":165796.39000000153,"y":2536709.6699999999}},{"attributes":{"ID":152712,"DIS_CODE":0,"TOWNNAME":"南區","LI":"省躬里","LIN":"2鄰","STREET":"省躬三街","SECT":" ","MAREA":" ","LANE":"１６５巷","ALLEY":"６弄","HOUSE_NO":"６號","E_COORD97":165781.14000000001,"N_COORD97":2536711.5699999998,"ADDRESS":"省躬三街１６５巷６弄６號","OBJECTID":152711},"geometry":{"x":165781.14000000153,"y":2536711.5700000022}},{"attributes":{"ID":152713,"DIS_CODE":0,"TOWNNAME":"南區","LI":"省躬里","LIN":"2鄰","STREET":"省躬三街","SECT":" ","MAREA":" ","LANE":"１６５巷","ALLEY":"６弄","HOUSE_NO":"７號","E_COORD97":165796.92999999999,"N_COORD97":2536705.3199999998,"ADDRESS":"省躬三街１６５巷６弄７號","OBJECTID":152712},"geometry":{"x":165796.93000000063,"y":2536705.3200000003}},{"attributes":{"ID":152714,"DIS_CODE":0,"TOWNNAME":"南區","LI":"省躬里","LIN":"2鄰","STREET":"省躬三街","SECT":" ","MAREA":" ","LANE":"１６５巷","ALLEY":"６弄","HOUSE_NO":"８號","E_COORD97":165781.41,"N_COORD97":2536708.0299999998,"ADDRESS":"省躬三街１６５巷６弄８號","OBJECTID":152713},"geometry":{"x":165781.41000000201,"y":2536708.0300000012}},{"attributes":{"ID":152715,"DIS_CODE":0,"TOWNNAME":"南區","LI":"省躬里","LIN":"2鄰","STREET":"省躬三街","SECT":" ","MAREA":" ","LANE":"１６５巷","ALLEY":"６弄","HOUSE_NO":"９號","E_COORD97":165798.01999999999,"N_COORD97":2536699.8799999999,"ADDRESS":"省躬三街１６５巷６弄９號","OBJECTID":152714},"geometry":{"x":165798.01999999955,"y":2536699.879999999}},{"attributes":{"ID":152716,"DIS_CODE":0,"TOWNNAME":"南區","LI":"鯤鯓里","LIN":"2鄰","STREET":"鯤鯓路","SECT":" ","MAREA":" ","LANE":"１０２巷","ALLEY":"３８弄","HOUSE_NO":"１０號","E_COORD97":165126.70000000001,"N_COORD97":2540108.4199999999,"ADDRESS":"鯤鯓路１０２巷３８弄１０號","OBJECTID":152715},"geometry":{"x":165126.70000000019,"y":2540108.4199999999}},{"attributes":{"ID":152717,"DIS_CODE":0,"TOWNNAME":"南區","LI":"鯤鯓里","LIN":"2鄰","STREET":"鯤鯓路","SECT":" ","MAREA":" ","LANE":"１０２巷","ALLEY":"３８弄","HOUSE_NO":"１１號","E_COORD97":165098.51000000001,"N_COORD97":2540137.9300000002,"ADDRESS":"鯤鯓路１０２巷３８弄１１號","OBJECTID":152716},"geometry":{"x":165098.50999999978,"y":2540137.9299999997}},{"attributes":{"ID":152718,"DIS_CODE":0,"TOWNNAME":"南區","LI":"鯤鯓里","LIN":"2鄰","STREET":"鯤鯓路","SECT":" ","MAREA":" ","LANE":"１０２巷","ALLEY":"３８弄","HOUSE_NO":"１２號","E_COORD97":165127.17999999999,"N_COORD97":2540104.0699999998,"ADDRESS":"鯤鯓路１０２巷３８弄１２號","OBJECTID":152717},"geometry":{"x":165127.18000000063,"y":2540104.0700000003}},{"attributes":{"ID":152719,"DIS_CODE":0,"TOWNNAME":"南區","LI":"鯤鯓里","LIN":"2鄰","STREET":"鯤鯓路","SECT":" ","MAREA":" ","LANE":"１０２巷","ALLEY":"３８弄","HOUSE_NO":"１３號","E_COORD97":165097.17999999999,"N_COORD97":2540142.1499999999,"ADDRESS":"鯤鯓路１０２巷３８弄１３號","OBJECTID":152718},"geometry":{"x":165097.1799999997,"y":2540142.1500000022}},{"attributes":{"ID":152720,"DIS_CODE":0,"TOWNNAME":"南區","LI":"鯤鯓里","LIN":"2鄰","STREET":"鯤鯓路","SECT":" ","MAREA":" ","LANE":"１０２巷","ALLEY":"３８弄","HOUSE_NO":"１４號","E_COORD97":165127.89999999999,"N_COORD97":2540100.0899999999,"ADDRESS":"鯤鯓路１０２巷３８弄１４號","OBJECTID":152719},"geometry":{"x":165127.9000000013,"y":2540100.0899999999}},{"attributes":{"ID":152721,"DIS_CODE":0,"TOWNNAME":"南區","LI":"鯤鯓里","LIN":"2鄰","STREET":"鯤鯓路","SECT":" ","MAREA":" ","LANE":"１０２巷","ALLEY":"３８弄","HOUSE_NO":"１６號","E_COORD97":165128.03,"N_COORD97":2540096.5899999999,"ADDRESS":"鯤鯓路１０２巷３８弄１６號","OBJECTID":152720},"geometry":{"x":165128.02999999933,"y":2540096.5899999999}},{"attributes":{"ID":152722,"DIS_CODE":0,"TOWNNAME":"南區","LI":"鯤鯓里","LIN":"2鄰","STREET":"鯤鯓路","SECT":" ","MAREA":" ","LANE":"１０２巷","ALLEY":"３８弄","HOUSE_NO":"１７號","E_COORD97":165122.59,"N_COORD97":2540127.79,"ADDRESS":"鯤鯓路１０２巷３８弄１７號","OBJECTID":152721},"geometry":{"x":165122.59000000078,"y":2540127.7899999991}},{"attributes":{"ID":152723,"DIS_CODE":0,"TOWNNAME":"南區","LI":"鯤鯓里","LIN":"2鄰","STREET":"鯤鯓路","SECT":" ","MAREA":" ","LANE":"１０２巷","ALLEY":"３８弄","HOUSE_NO":"１８號","E_COORD97":165128.03,"N_COORD97":2540092.25,"ADDRESS":"鯤鯓路１０２巷３８弄１８號","OBJECTID":152722},"geometry":{"x":165128.02999999933,"y":2540092.25}},{"attributes":{"ID":152724,"DIS_CODE":0,"TOWNNAME":"南區","LI":"鯤鯓里","LIN":"2鄰","STREET":"鯤鯓路","SECT":" ","MAREA":" ","LANE":"１０２巷","ALLEY":"３８弄","HOUSE_NO":"１９號","E_COORD97":165121.87,"N_COORD97":2540131.4100000001,"ADDRESS":"鯤鯓路１０２巷３８弄１９號","OBJECTID":152723},"geometry":{"x":165121.87000000011,"y":2540131.4100000001}},{"attributes":{"ID":152725,"DIS_CODE":0,"TOWNNAME":"南區","LI":"鯤鯓里","LIN":"2鄰","STREET":"鯤鯓路","SECT":" ","MAREA":" ","LANE":"１０２巷","ALLEY":"３８弄","HOUSE_NO":"１號","E_COORD97":165106.19,"N_COORD97":2540119.3199999998,"ADDRESS":"鯤鯓路１０２巷３８弄１號","OBJECTID":152724},"geometry":{"x":165106.19000000041,"y":2540119.3200000003}},{"attributes":{"ID":152726,"DIS_CODE":0,"TOWNNAME":"南區","LI":"鯤鯓里","LIN":"2鄰","STREET":"鯤鯓路","SECT":" ","MAREA":" ","LANE":"１０２巷","ALLEY":"３８弄","HOUSE_NO":"２０號","E_COORD97":165128.87,"N_COORD97":2540088.5099999998,"ADDRESS":"鯤鯓路１０２巷３８弄２０號","OBJECTID":152725},"geometry":{"x":165128.87000000011,"y":2540088.5100000016}},{"attributes":{"ID":152727,"DIS_CODE":0,"TOWNNAME":"南區","LI":"鯤鯓里","LIN":"2鄰","STREET":"鯤鯓路","SECT":" ","MAREA":" ","LANE":"１０２巷","ALLEY":"３８弄","HOUSE_NO":"２１號","E_COORD97":165120.89999999999,"N_COORD97":2540135.2799999998,"ADDRESS":"鯤鯓路１０２巷３８弄２１號","OBJECTID":152726},"geometry":{"x":165120.9000000013,"y":2540135.2799999993}},{"attributes":{"ID":152728,"DIS_CODE":0,"TOWNNAME":"南區","LI":"鯤鯓里","LIN":"2鄰","STREET":"鯤鯓路","SECT":" ","MAREA":" ","LANE":"１０２巷","ALLEY":"３８弄","HOUSE_NO":"２２號","E_COORD97":165129.35000000001,"N_COORD97":2540084.6499999999,"ADDRESS":"鯤鯓路１０２巷３８弄２２號","OBJECTID":152727},"geometry":{"x":165129.35000000056,"y":2540084.6500000022}},{"attributes":{"ID":152729,"DIS_CODE":0,"TOWNNAME":"南區","LI":"鯤鯓里","LIN":"2鄰","STREET":"鯤鯓路","SECT":" ","MAREA":" ","LANE":"１０２巷","ALLEY":"３８弄","HOUSE_NO":"２３號","E_COORD97":165119.92999999999,"N_COORD97":2540139.02,"ADDRESS":"鯤鯓路１０２巷３８弄２３號","OBJECTID":152728},"geometry":{"x":165119.93000000063,"y":2540139.0200000014}},{"attributes":{"ID":152730,"DIS_CODE":0,"TOWNNAME":"南區","LI":"鯤鯓里","LIN":"2鄰","STREET":"鯤鯓路","SECT":" ","MAREA":" ","LANE":"１０２巷","ALLEY":"３８弄","HOUSE_NO":"２號","E_COORD97":165109.42999999999,"N_COORD97":2540102.75,"ADDRESS":"鯤鯓路１０２巷３８弄２號","OBJECTID":152729},"geometry":{"x":165109.4299999997,"y":2540102.75}},{"attributes":{"ID":152731,"DIS_CODE":0,"TOWNNAME":"南區","LI":"鯤鯓里","LIN":"2鄰","STREET":"鯤鯓路","SECT":" ","MAREA":" ","LANE":"１０２巷","ALLEY":"３８弄","HOUSE_NO":"３號","E_COORD97":165102.98000000001,"N_COORD97":2540122.73,"ADDRESS":"鯤鯓路１０２巷３８弄３號","OBJECTID":152730},"geometry":{"x":165102.98000000045,"y":2540122.7300000004}},{"attributes":{"ID":152732,"DIS_CODE":0,"TOWNNAME":"南區","LI":"鯤鯓里","LIN":"2鄰","STREET":"鯤鯓路","SECT":" ","MAREA":" ","LANE":"１０２巷","ALLEY":"３８弄","HOUSE_NO":"４號","E_COORD97":165113.64999999999,"N_COORD97":2540103.9500000002,"ADDRESS":"鯤鯓路１０２巷３８弄４號","OBJECTID":152731},"geometry":{"x":165113.65000000037,"y":2540103.9499999993}},{"attributes":{"ID":152733,"DIS_CODE":0,"TOWNNAME":"南區","LI":"鯤鯓里","LIN":"2鄰","STREET":"鯤鯓路","SECT":" ","MAREA":" ","LANE":"１０２巷","ALLEY":"３８弄","HOUSE_NO":"５號","E_COORD97":165102.13,"N_COORD97":2540126.5899999999,"ADDRESS":"鯤鯓路１０２巷３８弄５號","OBJECTID":152732},"geometry":{"x":165102.13000000082,"y":2540126.5899999999}},{"attributes":{"ID":152734,"DIS_CODE":0,"TOWNNAME":"南區","LI":"鯤鯓里","LIN":"2鄰","STREET":"鯤鯓路","SECT":" ","MAREA":" ","LANE":"１０２巷","ALLEY":"３８弄","HOUSE_NO":"６號","E_COORD97":165117.64000000001,"N_COORD97":2540105.2799999998,"ADDRESS":"鯤鯓路１０２巷３８弄６號","OBJECTID":152733},"geometry":{"x":165117.63999999966,"y":2540105.2799999993}},{"attributes":{"ID":152735,"DIS_CODE":0,"TOWNNAME":"南區","LI":"鯤鯓里","LIN":"2鄰","STREET":"鯤鯓路","SECT":" ","MAREA":" ","LANE":"１０２巷","ALLEY":"３８弄","HOUSE_NO":"７號","E_COORD97":165100.92000000001,"N_COORD97":2540130.9300000002,"ADDRESS":"鯤鯓路１０２巷３８弄７號","OBJECTID":152734},"geometry":{"x":165100.91999999993,"y":2540130.9299999997}},{"attributes":{"ID":152736,"DIS_CODE":0,"TOWNNAME":"東區","LI":"莊敬里","LIN":"7鄰","STREET":"東光路","SECT":"二段","MAREA":" ","LANE":" ","ALLEY":" ","HOUSE_NO":"１１７號","E_COORD97":171219.32000000001,"N_COORD97":2544240.3700000001,"ADDRESS":"東光路二段１１７號","OBJECTID":152735},"geometry":{"x":171219.32000000123,"y":2544240.3700000029}},{"attributes":{"ID":152737,"DIS_CODE":0,"TOWNNAME":"南區","LI":"鯤鯓里","LIN":"2鄰","STREET":"鯤鯓路","SECT":" ","MAREA":" ","LANE":"１０２巷","ALLEY":"３８弄","HOUSE_NO":"８號","E_COORD97":165125.25,"N_COORD97":2540112.52,"ADDRESS":"鯤鯓路１０２巷３８弄８號","OBJECTID":152736},"geometry":{"x":165125.25000000093,"y":2540112.5200000014}},{"attributes":{"ID":152738,"DIS_CODE":0,"TOWNNAME":"南區","LI":"鯤鯓里","LIN":"2鄰","STREET":"鯤鯓路","SECT":" ","MAREA":" ","LANE":"１０２巷","ALLEY":"３８弄","HOUSE_NO":"９號","E_COORD97":165100.44,"N_COORD97":2540134.1899999999,"ADDRESS":"鯤鯓路１０２巷３８弄９號","OBJECTID":152737},"geometry":{"x":165100.44000000134,"y":2540134.1900000013}},{"attributes":{"ID":152739,"DIS_CODE":0,"TOWNNAME":"南區","LI":"田寮里","LIN":"2鄰","STREET":"新興路","SECT":" ","MAREA":" ","LANE":"２６７巷","ALLEY":"１５弄","HOUSE_NO":"２號","E_COORD97":167244.03,"N_COORD97":2541794.5899999999,"ADDRESS":"新興路２６７巷１５弄２號","OBJECTID":152738},"geometry":{"x":167244.03000000119,"y":2541794.5899999999}},{"attributes":{"ID":152740,"DIS_CODE":0,"TOWNNAME":"南區","LI":"田寮里","LIN":"2鄰","STREET":"新興路","SECT":" ","MAREA":" ","LANE":"２６７巷","ALLEY":"１５弄","HOUSE_NO":"２號之１","E_COORD97":167250.70999999999,"N_COORD97":2541792.8599999999,"ADDRESS":"新興路２６７巷１５弄２號之１","OBJECTID":152739},"geometry":{"x":167250.71000000183,"y":2541792.8599999994}},{"attributes":{"ID":152741,"DIS_CODE":0,"TOWNNAME":"六甲區","LI":"龍湖里","LIN":"2鄰","STREET":"七甲街","SECT":" ","MAREA":" ","LANE":"８６巷","ALLEY":"１０弄","HOUSE_NO":"１號","E_COORD97":183167.01000000001,"N_COORD97":2569085.3100000001,"ADDRESS":"七甲街８６巷１０弄１號","OBJECTID":152740},"geometry":{"x":183167.01000000071,"y":2569085.3100000024}},{"attributes":{"ID":152742,"DIS_CODE":0,"TOWNNAME":"六甲區","LI":"龍湖里","LIN":"2鄰","STREET":"七甲街","SECT":" ","MAREA":" ","LANE":"８６巷","ALLEY":"１０弄","HOUSE_NO":"３號","E_COORD97":183183.31,"N_COORD97":2569082.5299999998,"ADDRESS":"七甲街８６巷１０弄３號","OBJECTID":152741},"geometry":{"x":183183.31000000052,"y":2569082.5300000012}},{"attributes":{"ID":152743,"DIS_CODE":0,"TOWNNAME":"六甲區","LI":"龍湖里","LIN":"2鄰","STREET":"七甲街","SECT":" ","MAREA":" ","LANE":"８６巷","ALLEY":"１０弄","HOUSE_NO":"４號","E_COORD97":183201.44,"N_COORD97":2569064.8100000001,"ADDRESS":"七甲街８６巷１０弄４號","OBJECTID":152742},"geometry":{"x":183201.44000000227,"y":2569064.8100000024}},{"attributes":{"ID":152744,"DIS_CODE":0,"TOWNNAME":"六甲區","LI":"龍湖里","LIN":"2鄰","STREET":"七甲街","SECT":" ","MAREA":" ","LANE":"８６巷","ALLEY":"１０弄","HOUSE_NO":"５號","E_COORD97":183205.54999999999,"N_COORD97":2569093.1200000001,"ADDRESS":"七甲街８６巷１０弄５號","OBJECTID":152743},"geometry":{"x":183205.55000000075,"y":2569093.1200000048}},{"attributes":{"ID":152745,"DIS_CODE":0,"TOWNNAME":"六甲區","LI":"龍湖里","LIN":"2鄰","STREET":"七甲街","SECT":" ","MAREA":" ","LANE":"８６巷","ALLEY":"１０弄","HOUSE_NO":"６號","E_COORD97":183202.62,"N_COORD97":2569053.3700000001,"ADDRESS":"七甲街８６巷１０弄６號","OBJECTID":152744},"geometry":{"x":183202.62000000011,"y":2569053.370000001}},{"attributes":{"ID":152746,"DIS_CODE":0,"TOWNNAME":"六甲區","LI":"龍湖里","LIN":"2鄰","STREET":"七甲街","SECT":" ","MAREA":" ","LANE":"８６巷","ALLEY":"１０弄","HOUSE_NO":"８號","E_COORD97":183207.45999999999,"N_COORD97":2569069.3199999998,"ADDRESS":"七甲街８６巷１０弄８號","OBJECTID":152745},"geometry":{"x":183207.46000000183,"y":2569069.3200000003}},{"attributes":{"ID":152747,"DIS_CODE":0,"TOWNNAME":"六甲區","LI":"七甲里","LIN":"2鄰","STREET":"七甲街","SECT":" ","MAREA":" ","LANE":"９３巷","ALLEY":"１５弄","HOUSE_NO":"１８號","E_COORD97":182949.17000000001,"N_COORD97":2568892.7799999998,"ADDRESS":"七甲街９３巷１５弄１８號","OBJECTID":152746},"geometry":{"x":182949.17000000086,"y":2568892.7799999993}},{"attributes":{"ID":152748,"DIS_CODE":0,"TOWNNAME":"六甲區","LI":"七甲里","LIN":"2鄰","STREET":"七甲街","SECT":" ","MAREA":" ","LANE":"９３巷","ALLEY":"１５弄","HOUSE_NO":"２０號","E_COORD97":182953.37,"N_COORD97":2568891.98,"ADDRESS":"七甲街９３巷１５弄２０號","OBJECTID":152747},"geometry":{"x":182953.37000000011,"y":2568891.9800000004}},{"attributes":{"ID":152749,"DIS_CODE":0,"TOWNNAME":"六甲區","LI":"七甲里","LIN":"2鄰","STREET":"七甲街","SECT":" ","MAREA":" ","LANE":"９３巷","ALLEY":"２９弄","HOUSE_NO":"１１號","E_COORD97":182960.09,"N_COORD97":2568865.79,"ADDRESS":"七甲街９３巷２９弄１１號","OBJECTID":152748},"geometry":{"x":182960.08999999985,"y":2568865.7899999972}},{"attributes":{"ID":152750,"DIS_CODE":0,"TOWNNAME":"東區","LI":"小東里","LIN":" ","STREET":"東和路","SECT":" ","MAREA":" ","LANE":" ","ALLEY":" ","HOUSE_NO":"１５３之１號","E_COORD97":170717.35999999999,"N_COORD97":2544304.0299999998,"ADDRESS":"東和路１５３之１號","OBJECTID":152749},"geometry":{"x":170717.36000000127,"y":2544304.0299999993}},{"attributes":{"ID":152751,"DIS_CODE":0,"TOWNNAME":"南區","LI":"新生里","LIN":"19鄰","STREET":"大同路","SECT":"二段","MAREA":" ","LANE":" ","ALLEY":" ","HOUSE_NO":"１０４號五樓之５","E_COORD97":169228.20999999999,"N_COORD97":2542307.8900000001,"ADDRESS":"大同路二段１０４號五樓之５","OBJECTID":152750},"geometry":{"x":169228.20999999996,"y":2542307.8900000025}},{"attributes":{"ID":152752,"DIS_CODE":0,"TOWNNAME":"東區","LI":"莊敬里","LIN":"7鄰","STREET":"東光路","SECT":"二段","MAREA":" ","LANE":" ","ALLEY":" ","HOUSE_NO":"１１９號","E_COORD97":171219.62,"N_COORD97":2544244.6600000001,"ADDRESS":"東光路二段１１９號","OBJECTID":152751},"geometry":{"x":171219.62000000011,"y":2544244.660000002}},{"attributes":{"ID":152753,"DIS_CODE":0,"TOWNNAME":"東區","LI":"圍下里","LIN":"4鄰","STREET":"東榮街","SECT":" ","MAREA":" ","LANE":" ","ALLEY":" ","HOUSE_NO":"１號之１","E_COORD97":169570.64000000001,"N_COORD97":2543516.3799999999,"ADDRESS":"東榮街１號之１","OBJECTID":152752},"geometry":{"x":169570.6400000006,"y":2543516.3800000008}},{"attributes":{"ID":152754,"DIS_CODE":0,"TOWNNAME":"東區","LI":"圍下里","LIN":" ","STREET":"東寧路","SECT":"西段","MAREA":" ","LANE":" ","ALLEY":" ","HOUSE_NO":"２３號","E_COORD97":169702.62,"N_COORD97":2543633.5499999998,"ADDRESS":"東寧路西段２３號","OBJECTID":152753},"geometry":{"x":169702.62000000197,"y":2543633.5500000007}},{"attributes":{"ID":152755,"DIS_CODE":0,"TOWNNAME":"東區","LI":"圍下里","LIN":" ","STREET":"東寧路","SECT":"西段","MAREA":" ","LANE":" ","ALLEY":" ","HOUSE_NO":"２５號","E_COORD97":169700.84,"N_COORD97":2543600.1899999999,"ADDRESS":"東寧路西段２５號","OBJECTID":152754},"geometry":{"x":169700.83999999892,"y":2543600.1900000013}},{"attributes":{"ID":152756,"DIS_CODE":0,"TOWNNAME":"東區","LI":"圍下里","LIN":" ","STREET":"前鋒路","SECT":" ","MAREA":" ","LANE":" ","ALLEY":" ","HOUSE_NO":"１１４號","E_COORD97":169332.38,"N_COORD97":2543807.1600000001,"ADDRESS":"前鋒路１１４號","OBJECTID":152755},"geometry":{"x":169332.37999999989,"y":2543807.160000002}},{"attributes":{"ID":152757,"DIS_CODE":0,"TOWNNAME":"東區","LI":"富強里","LIN":" ","STREET":"東門路","SECT":"二段","MAREA":" ","LANE":" ","ALLEY":" ","HOUSE_NO":"４１１號","E_COORD97":170940.16,"N_COORD97":2542468.5099999998,"ADDRESS":"東門路二段４１１號","OBJECTID":152756},"geometry":{"x":170940.16000000108,"y":2542468.5100000016}},{"attributes":{"ID":152758,"DIS_CODE":0,"TOWNNAME":"東區","LI":"圍下里","LIN":"13鄰","STREET":"衛民街","SECT":" ","MAREA":" ","LANE":" ","ALLEY":" ","HOUSE_NO":"１號","E_COORD97":169331.35999999999,"N_COORD97":2543659.8999999999,"ADDRESS":"衛民街１號","OBJECTID":152757},"geometry":{"x":169331.36000000034,"y":2543659.9000000022}},{"attributes":{"ID":152759,"DIS_CODE":0,"TOWNNAME":"東區","LI":"圍下里","LIN":"24鄰","STREET":"北門路","SECT":"一段","MAREA":" ","LANE":" ","ALLEY":" ","HOUSE_NO":"２１６號","E_COORD97":169206.23000000001,"N_COORD97":2543851.3700000001,"ADDRESS":"北門路一段２１６號","OBJECTID":152758},"geometry":{"x":169206.23000000138,"y":2543851.3700000029}},{"attributes":{"ID":152760,"DIS_CODE":0,"TOWNNAME":"東區","LI":"圍下里","LIN":"24鄰","STREET":"北門路","SECT":"一段","MAREA":" ","LANE":" ","ALLEY":" ","HOUSE_NO":"１４２號","E_COORD97":169198.42999999999,"N_COORD97":2543731.2599999998,"ADDRESS":"北門路一段１４２號","OBJECTID":152759},"geometry":{"x":169198.43000000156,"y":2543731.2600000016}},{"attributes":{"ID":152761,"DIS_CODE":0,"TOWNNAME":"東區","LI":"富強里","LIN":" ","STREET":"裕農路","SECT":" ","MAREA":" ","LANE":" ","ALLEY":" ","HOUSE_NO":"３７４號","E_COORD97":171127.13,"N_COORD97":2543033.3999999999,"ADDRESS":"裕農路３７４號","OBJECTID":152760},"geometry":{"x":171127.13000000082,"y":2543033.4000000022}},{"attributes":{"ID":152762,"DIS_CODE":0,"TOWNNAME":"東區","LI":"富強里","LIN":" ","STREET":"中華東路","SECT":"二段","MAREA":" ","LANE":" ","ALLEY":" ","HOUSE_NO":"３８號","E_COORD97":171382.54999999999,"N_COORD97":2543043.8900000001,"ADDRESS":"中華東路二段３８號","OBJECTID":152761},"geometry":{"x":171382.54999999981,"y":2543043.8900000025}},{"attributes":{"ID":152763,"DIS_CODE":0,"TOWNNAME":"六甲區","LI":"七甲里","LIN":"2鄰","STREET":"七甲街","SECT":" ","MAREA":" ","LANE":"９３巷","ALLEY":"２９弄","HOUSE_NO":"１３號","E_COORD97":182964.35000000001,"N_COORD97":2568865.1800000002,"ADDRESS":"七甲街９３巷２９弄１３號","OBJECTID":152762},"geometry":{"x":182964.35000000056,"y":2568865.1800000016}},{"attributes":{"ID":152764,"DIS_CODE":0,"TOWNNAME":"六甲區","LI":"七甲里","LIN":"2鄰","STREET":"七甲街","SECT":" ","MAREA":" ","LANE":"９３巷","ALLEY":"２９弄","HOUSE_NO":"１５號","E_COORD97":182968.38,"N_COORD97":2568864.6200000001,"ADDRESS":"七甲街９３巷２９弄１５號","OBJECTID":152763},"geometry":{"x":182968.37999999989,"y":2568864.620000001}},{"attributes":{"ID":152765,"DIS_CODE":0,"TOWNNAME":"六甲區","LI":"七甲里","LIN":"2鄰","STREET":"七甲街","SECT":" ","MAREA":" ","LANE":"９３巷","ALLEY":"２９弄","HOUSE_NO":"１號","E_COORD97":182938.94,"N_COORD97":2568868.5800000001,"ADDRESS":"七甲街９３巷２９弄１號","OBJECTID":152764},"geometry":{"x":182938.94000000134,"y":2568868.5800000038}},{"attributes":{"ID":152766,"DIS_CODE":0,"TOWNNAME":"六甲區","LI":"七甲里","LIN":"2鄰","STREET":"七甲街","SECT":" ","MAREA":" ","LANE":"９３巷","ALLEY":"２９弄","HOUSE_NO":"３號","E_COORD97":182943.22,"N_COORD97":2568868.1099999999,"ADDRESS":"七甲街９３巷２９弄３號","OBJECTID":152765},"geometry":{"x":182943.22000000067,"y":2568868.1100000013}},{"attributes":{"ID":152767,"DIS_CODE":0,"TOWNNAME":"東區","LI":"富裕里","LIN":"4鄰","STREET":"裕農路","SECT":" ","MAREA":" ","LANE":" ","ALLEY":" ","HOUSE_NO":"２４號","E_COORD97":170554.12,"N_COORD97":2542840.1899999999,"ADDRESS":"裕農路２４號","OBJECTID":152766},"geometry":{"x":170554.12000000104,"y":2542840.1900000013}},{"attributes":{"ID":152768,"DIS_CODE":0,"TOWNNAME":"官田區","LI":"南\u25A0里","LIN":"5鄰","STREET":" ","SECT":" ","MAREA":"南\u25A0","LANE":" ","ALLEY":" ","HOUSE_NO":"６５號之３","E_COORD97":178806.37,"N_COORD97":2567960.1299999999,"ADDRESS":"南\u25A0６５號之３","OBJECTID":152767},"geometry":{"x":178806.37000000104,"y":2567960.129999999}},{"attributes":{"ID":152769,"DIS_CODE":0,"TOWNNAME":"官田區","LI":"南\u25A0里","LIN":"5鄰","STREET":" ","SECT":" ","MAREA":"南\u25A0","LANE":" ","ALLEY":" ","HOUSE_NO":"６６號之１","E_COORD97":178771.19,"N_COORD97":2567913.4900000002,"ADDRESS":"南\u25A0６６號之１","OBJECTID":152768},"geometry":{"x":178771.19000000041,"y":2567913.4900000021}},{"attributes":{"ID":152770,"DIS_CODE":0,"TOWNNAME":"官田區","LI":"南\u25A0里","LIN":"5鄰","STREET":" ","SECT":" ","MAREA":"南\u25A0","LANE":" ","ALLEY":" ","HOUSE_NO":"６７號","E_COORD97":178793.26999999999,"N_COORD97":2567937.4100000001,"ADDRESS":"南\u25A0６７號","OBJECTID":152769},"geometry":{"x":178793.26999999955,"y":2567937.4100000039}},{"attributes":{"ID":152771,"DIS_CODE":0,"TOWNNAME":"官田區","LI":"南\u25A0里","LIN":"5鄰","STREET":" ","SECT":" ","MAREA":"南\u25A0","LANE":" ","ALLEY":" ","HOUSE_NO":"６８號","E_COORD97":178798.42000000001,"N_COORD97":2567886.0699999998,"ADDRESS":"南\u25A0６８號","OBJECTID":152770},"geometry":{"x":178798.41999999899,"y":2567886.0700000022}},{"attributes":{"ID":152772,"DIS_CODE":0,"TOWNNAME":"白河區","LI":"秀祐里","LIN":"5鄰","STREET":" ","SECT":" ","MAREA":"下秀祐","LANE":" ","ALLEY":" ","HOUSE_NO":"３之６號","E_COORD97":188840.04999999999,"N_COORD97":2583033.2400000002,"ADDRESS":"下秀祐３之６號","OBJECTID":152771},"geometry":{"x":188840.05000000075,"y":2583033.2400000021}},{"attributes":{"ID":152773,"DIS_CODE":0,"TOWNNAME":"白河區","LI":"秀祐里","LIN":"5鄰","STREET":" ","SECT":" ","MAREA":"下秀祐","LANE":" ","ALLEY":" ","HOUSE_NO":"３號","E_COORD97":188810.95999999999,"N_COORD97":2582973.6800000002,"ADDRESS":"下秀祐３號","OBJECTID":152772},"geometry":{"x":188810.95999999996,"y":2582973.6799999997}},{"attributes":{"ID":152774,"DIS_CODE":0,"TOWNNAME":"白河區","LI":"秀祐里","LIN":"5鄰","STREET":" ","SECT":" ","MAREA":"下秀祐","LANE":" ","ALLEY":" ","HOUSE_NO":"５之１號","E_COORD97":188752.07000000001,"N_COORD97":2583015.8399999999,"ADDRESS":"下秀祐５之１號","OBJECTID":152773},"geometry":{"x":188752.07000000216,"y":2583015.8400000017}},{"attributes":{"ID":152775,"DIS_CODE":0,"TOWNNAME":"白河區","LI":"秀祐里","LIN":"5鄰","STREET":" ","SECT":" ","MAREA":"下秀祐","LANE":" ","ALLEY":" ","HOUSE_NO":"７號","E_COORD97":188742.34,"N_COORD97":2582964.1800000002,"ADDRESS":"下秀祐７號","OBJECTID":152774},"geometry":{"x":188742.33999999985,"y":2582964.1799999997}},{"attributes":{"ID":152776,"DIS_CODE":0,"TOWNNAME":"白河區","LI":"秀祐里","LIN":"5鄰","STREET":" ","SECT":" ","MAREA":"下秀祐","LANE":" ","ALLEY":" ","HOUSE_NO":"８之６號","E_COORD97":188701.70999999999,"N_COORD97":2582988.2200000002,"ADDRESS":"下秀祐８之６號","OBJECTID":152775},"geometry":{"x":188701.71000000183,"y":2582988.2200000007}},{"attributes":{"ID":152777,"DIS_CODE":0,"TOWNNAME":"白河區","LI":"秀祐里","LIN":"5鄰","STREET":" ","SECT":" ","MAREA":"下秀祐","LANE":" ","ALLEY":" ","HOUSE_NO":"８號","E_COORD97":188707.53,"N_COORD97":2582940.4500000002,"ADDRESS":"下秀祐８號","OBJECTID":152776},"geometry":{"x":188707.53000000026,"y":2582940.4499999993}},{"attributes":{"ID":152778,"DIS_CODE":0,"TOWNNAME":"官田區","LI":"湖山里","LIN":"5鄰","STREET":" ","SECT":" ","MAREA":"烏山頭","LANE":" ","ALLEY":" ","HOUSE_NO":"２６號之３","E_COORD97":183333.53,"N_COORD97":2567608.71,"ADDRESS":"烏山頭２６號之３","OBJECTID":152777},"geometry":{"x":183333.53000000119,"y":2567608.7100000028}},{"attributes":{"ID":152779,"DIS_CODE":0,"TOWNNAME":"官田區","LI":"湖山里","LIN":"5鄰","STREET":" ","SECT":" ","MAREA":"烏山頭","LANE":" ","ALLEY":" ","HOUSE_NO":"２６號之４","E_COORD97":183329.42000000001,"N_COORD97":2567608.5499999998,"ADDRESS":"烏山頭２６號之４","OBJECTID":152778},"geometry":{"x":183329.41999999993,"y":2567608.5500000026}},{"attributes":{"ID":152780,"DIS_CODE":0,"TOWNNAME":"官田區","LI":"湖山里","LIN":"5鄰","STREET":" ","SECT":" ","MAREA":"烏山頭","LANE":" ","ALLEY":" ","HOUSE_NO":"２６號","E_COORD97":183342.26000000001,"N_COORD97":2567570.0899999999,"ADDRESS":"烏山頭２６號","OBJECTID":152779},"geometry":{"x":183342.25999999978,"y":2567570.0900000017}},{"attributes":{"ID":152781,"DIS_CODE":0,"TOWNNAME":"官田區","LI":"湖山里","LIN":"5鄰","STREET":" ","SECT":" ","MAREA":"烏山頭","LANE":" ","ALLEY":" ","HOUSE_NO":"２７號","E_COORD97":183320.23000000001,"N_COORD97":2567600.8900000001,"ADDRESS":"烏山頭２７號","OBJECTID":152780},"geometry":{"x":183320.23000000138,"y":2567600.8900000006}},{"attributes":{"ID":152782,"DIS_CODE":0,"TOWNNAME":"官田區","LI":"湖山里","LIN":"5鄰","STREET":" ","SECT":" ","MAREA":"烏山頭","LANE":" ","ALLEY":" ","HOUSE_NO":"２８號之１０","E_COORD97":183236.76000000001,"N_COORD97":2567612.02,"ADDRESS":"烏山頭２８號之１０","OBJECTID":152781},"geometry":{"x":183236.75999999978,"y":2567612.0200000014}},{"attributes":{"ID":152783,"DIS_CODE":0,"TOWNNAME":"官田區","LI":"湖山里","LIN":"5鄰","STREET":" ","SECT":" ","MAREA":"烏山頭","LANE":" ","ALLEY":" ","HOUSE_NO":"２８號之１１","E_COORD97":183240.39000000001,"N_COORD97":2567602.77,"ADDRESS":"烏山頭２８號之１１","OBJECTID":152782},"geometry":{"x":183240.3900000006,"y":2567602.7700000014}},{"attributes":{"ID":152784,"DIS_CODE":0,"TOWNNAME":"官田區","LI":"湖山里","LIN":"5鄰","STREET":" ","SECT":" ","MAREA":"烏山頭","LANE":" ","ALLEY":" ","HOUSE_NO":"２８號之１２","E_COORD97":183245.73999999999,"N_COORD97":2567659.3100000001,"ADDRESS":"烏山頭２８號之１２","OBJECTID":152783},"geometry":{"x":183245.74000000022,"y":2567659.3100000005}},{"attributes":{"ID":152785,"DIS_CODE":0,"TOWNNAME":"官田區","LI":"湖山里","LIN":"5鄰","STREET":" ","SECT":" ","MAREA":"烏山頭","LANE":" ","ALLEY":" ","HOUSE_NO":"２８號之１５","E_COORD97":183145.32000000001,"N_COORD97":2567730.6800000002,"ADDRESS":"烏山頭２８號之１５","OBJECTID":152784},"geometry":{"x":183145.3200000003,"y":2567730.6799999997}},{"attributes":{"ID":152786,"DIS_CODE":0,"TOWNNAME":"官田區","LI":"湖山里","LIN":"5鄰","STREET":" ","SECT":" ","MAREA":"烏山頭","LANE":" ","ALLEY":" ","HOUSE_NO":"２８號之１６","E_COORD97":183193.64000000001,"N_COORD97":2567635.9900000002,"ADDRESS":"烏山頭２８號之１６","OBJECTID":152785},"geometry":{"x":183193.63999999966,"y":2567635.9900000021}},{"attributes":{"ID":152787,"DIS_CODE":0,"TOWNNAME":"官田區","LI":"湖山里","LIN":"5鄰","STREET":" ","SECT":" ","MAREA":"烏山頭","LANE":" ","ALLEY":" ","HOUSE_NO":"２８號之１９","E_COORD97":183189.67999999999,"N_COORD97":2567651.73,"ADDRESS":"烏山頭２８號之１９","OBJECTID":152786},"geometry":{"x":183189.6799999997,"y":2567651.7300000023}},{"attributes":{"ID":152788,"DIS_CODE":0,"TOWNNAME":"將軍區","LI":"忠興里","LIN":"2鄰","STREET":" ","SECT":" ","MAREA":"忠興","LANE":" ","ALLEY":" ","HOUSE_NO":"３５號","E_COORD97":163713.28,"N_COORD97":2566765.6400000001,"ADDRESS":"忠興３５號","OBJECTID":152787},"geometry":{"x":163713.28000000119,"y":2566765.6400000006}},{"attributes":{"ID":152789,"DIS_CODE":0,"TOWNNAME":"官田區","LI":"湖山里","LIN":"5鄰","STREET":" ","SECT":" ","MAREA":"烏山頭","LANE":" ","ALLEY":" ","HOUSE_NO":"２８號之１","E_COORD97":183296.51999999999,"N_COORD97":2567617.23,"ADDRESS":"烏山頭２８號之１","OBJECTID":152788},"geometry":{"x":183296.52000000142,"y":2567617.2300000023}},{"attributes":{"ID":152790,"DIS_CODE":0,"TOWNNAME":"官田區","LI":"湖山里","LIN":"5鄰","STREET":" ","SECT":" ","MAREA":"烏山頭","LANE":" ","ALLEY":" ","HOUSE_NO":"２８號之２０","E_COORD97":183248.91,"N_COORD97":2567588.2999999998,"ADDRESS":"烏山頭２８號之２０","OBJECTID":152789},"geometry":{"x":183248.91000000108,"y":2567588.3000000007}},{"attributes":{"ID":152791,"DIS_CODE":0,"TOWNNAME":"官田區","LI":"湖山里","LIN":"5鄰","STREET":" ","SECT":" ","MAREA":"烏山頭","LANE":" ","ALLEY":" ","HOUSE_NO":"２８號之２１","E_COORD97":183263.5,"N_COORD97":2567594.2400000002,"ADDRESS":"烏山頭２８號之２１","OBJECTID":152790},"geometry":{"x":183263.50000000093,"y":2567594.2400000021}},{"attributes":{"ID":152792,"DIS_CODE":0,"TOWNNAME":"官田區","LI":"湖山里","LIN":"5鄰","STREET":" ","SECT":" ","MAREA":"烏山頭","LANE":" ","ALLEY":" ","HOUSE_NO":"２８號之２２","E_COORD97":183259.92999999999,"N_COORD97":2567592.6299999999,"ADDRESS":"烏山頭２８號之２２","OBJECTID":152791},"geometry":{"x":183259.93000000156,"y":2567592.6300000008}},{"attributes":{"ID":152793,"DIS_CODE":0,"TOWNNAME":"官田區","LI":"湖山里","LIN":"5鄰","STREET":" ","SECT":" ","MAREA":"烏山頭","LANE":" ","ALLEY":" ","HOUSE_NO":"２８號之２３","E_COORD97":183286.76000000001,"N_COORD97":2567599.2000000002,"ADDRESS":"烏山頭２８號之２３","OBJECTID":152792},"geometry":{"x":183286.76000000071,"y":2567599.2000000011}},{"attributes":{"ID":152794,"DIS_CODE":0,"TOWNNAME":"官田區","LI":"湖山里","LIN":"5鄰","STREET":" ","SECT":" ","MAREA":"烏山頭","LANE":" ","ALLEY":" ","HOUSE_NO":"２８號之２４","E_COORD97":183250.42999999999,"N_COORD97":2567624.7599999998,"ADDRESS":"烏山頭２８號之２４","OBJECTID":152793},"geometry":{"x":183250.43000000063,"y":2567624.7599999998}},{"attributes":{"ID":152795,"DIS_CODE":0,"TOWNNAME":"官田區","LI":"湖山里","LIN":"5鄰","STREET":" ","SECT":" ","MAREA":"烏山頭","LANE":" ","ALLEY":" ","HOUSE_NO":"２８號之２５","E_COORD97":183252.01999999999,"N_COORD97":2567619.77,"ADDRESS":"烏山頭２８號之２５","OBJECTID":152794},"geometry":{"x":183252.01999999955,"y":2567619.7700000014}},{"attributes":{"ID":152796,"DIS_CODE":0,"TOWNNAME":"官田區","LI":"湖山里","LIN":"5鄰","STREET":" ","SECT":" ","MAREA":"烏山頭","LANE":" ","ALLEY":" ","HOUSE_NO":"２８號之２６","E_COORD97":183202.17000000001,"N_COORD97":2567614.0699999998,"ADDRESS":"烏山頭２８號之２６","OBJECTID":152795},"geometry":{"x":183202.16999999993,"y":2567614.0699999984}},{"attributes":{"ID":152797,"DIS_CODE":0,"TOWNNAME":"官田區","LI":"湖山里","LIN":"5鄰","STREET":" ","SECT":" ","MAREA":"烏山頭","LANE":" ","ALLEY":" ","HOUSE_NO":"２８號之２７","E_COORD97":183202.59,"N_COORD97":2567608.8999999999,"ADDRESS":"烏山頭２８號之２７","OBJECTID":152796},"geometry":{"x":183202.58999999985,"y":2567608.9000000041}},{"attributes":{"ID":152798,"DIS_CODE":0,"TOWNNAME":"官田區","LI":"湖山里","LIN":"5鄰","STREET":" ","SECT":" ","MAREA":"烏山頭","LANE":" ","ALLEY":" ","HOUSE_NO":"２８號之２８","E_COORD97":183205.16,"N_COORD97":2567602.1400000001,"ADDRESS":"烏山頭２８號之２８","OBJECTID":152797},"geometry":{"x":183205.16000000108,"y":2567602.1400000025}},{"attributes":{"ID":152799,"DIS_CODE":0,"TOWNNAME":"官田區","LI":"湖山里","LIN":"5鄰","STREET":" ","SECT":" ","MAREA":"烏山頭","LANE":" ","ALLEY":" ","HOUSE_NO":"２８號之２","E_COORD97":183281.88,"N_COORD97":2567628.9300000002,"ADDRESS":"烏山頭２８號之２","OBJECTID":152798},"geometry":{"x":183281.87999999989,"y":2567628.9300000016}},{"attributes":{"ID":152800,"DIS_CODE":0,"TOWNNAME":"官田區","LI":"湖山里","LIN":"5鄰","STREET":" ","SECT":" ","MAREA":"烏山頭","LANE":" ","ALLEY":" ","HOUSE_NO":"２８號之３１","E_COORD97":183277.98000000001,"N_COORD97":2567648.3100000001,"ADDRESS":"烏山頭２８號之３１","OBJECTID":152799},"geometry":{"x":183277.98000000138,"y":2567648.3100000024}},{"attributes":{"ID":152801,"DIS_CODE":0,"TOWNNAME":"官田區","LI":"湖山里","LIN":"5鄰","STREET":" ","SECT":" ","MAREA":"烏山頭","LANE":" ","ALLEY":" ","HOUSE_NO":"２８號之３７","E_COORD97":183324.60000000001,"N_COORD97":2567629.4100000001,"ADDRESS":"烏山頭２８號之３７","OBJECTID":152800},"geometry":{"x":183324.59999999963,"y":2567629.410000002}}]}