{"displayFieldName":"TOWNNAME","fieldAliases":{"ID":"ID","DIS_CODE":"DIS_CODE","TOWNNAME":"TOWNNAME","LI":"LI","LIN":"LIN","STREET":"STREET","SECT":"SECT","MAREA":"MAREA","LANE":"LANE","ALLEY":"ALLEY","HOUSE_NO":"HOUSE_NO","E_COORD97":"E_COORD97","N_COORD97":"N_COORD97","ADDRESS":"ADDRESS","OBJECTID":"OBJECTID"},"geometryType":"esriGeometryPoint","spatialReference":{"wkid":102443,"latestWkid":3826},"fields":[{"name":"ID","type":"esriFieldTypeDouble","alias":"ID"},{"name":"DIS_CODE","type":"esriFieldTypeInteger","alias":"DIS_CODE"},{"name":"TOWNNAME","type":"esriFieldTypeString","alias":"TOWNNAME","length":8},{"name":"LI","type":"esriFieldTypeString","alias":"LI","length":8},{"name":"LIN","type":"esriFieldTypeString","alias":"LIN","length":12},{"name":"STREET","type":"esriFieldTypeString","alias":"STREET","length":20},{"name":"SECT","type":"esriFieldTypeString","alias":"SECT","length":8},{"name":"MAREA","type":"esriFieldTypeString","alias":"MAREA","length":12},{"name":"LANE","type":"esriFieldTypeString","alias":"LANE","length":10},{"name":"ALLEY","type":"esriFieldTypeString","alias":"ALLEY","length":10},{"name":"HOUSE_NO","type":"esriFieldTypeString","alias":"HOUSE_NO","length":20},{"name":"E_COORD97","type":"esriFieldTypeDouble","alias":"E_COORD97"},{"name":"N_COORD97","type":"esriFieldTypeDouble","alias":"N_COORD97"},{"name":"ADDRESS","type":"esriFieldTypeString","alias":"ADDRESS","length":50},{"name":"OBJECTID","type":"esriFieldTypeOID","alias":"OBJECTID"}],"features":[{"attributes":{"ID":163802,"DIS_CODE":0,"TOWNNAME":"新市區","LI":"新和里","LIN":"20鄰","STREET":"中正路","SECT":" ","MAREA":" ","LANE":"１１６巷","ALLEY":"２弄","HOUSE_NO":"１１號","E_COORD97":177468.67999999999,"N_COORD97":2552538.25,"ADDRESS":"中正路１１６巷２弄１１號","OBJECTID":163801},"geometry":{"x":177468.6799999997,"y":2552538.25}},{"attributes":{"ID":163803,"DIS_CODE":0,"TOWNNAME":"新市區","LI":"新和里","LIN":"26鄰","STREET":"永福街","SECT":" ","MAREA":" ","LANE":"１６巷","ALLEY":"１８弄","HOUSE_NO":"６號","E_COORD97":177818.76000000001,"N_COORD97":2552713.25,"ADDRESS":"永福街１６巷１８弄６號","OBJECTID":163802},"geometry":{"x":177818.76000000071,"y":2552713.2500000019}},{"attributes":{"ID":163804,"DIS_CODE":0,"TOWNNAME":"新市區","LI":"新和里","LIN":"50鄰","STREET":"自強街","SECT":" ","MAREA":" ","LANE":"３４巷","ALLEY":"１弄","HOUSE_NO":"３６號","E_COORD97":177581.10000000001,"N_COORD97":2553510.5,"ADDRESS":"自強街３４巷１弄３６號","OBJECTID":163803},"geometry":{"x":177581.09999999963,"y":2553510.5000000037}},{"attributes":{"ID":163805,"DIS_CODE":0,"TOWNNAME":"新市區","LI":"新和里","LIN":"26鄰","STREET":"永福街","SECT":" ","MAREA":" ","LANE":"１６巷","ALLEY":"１８弄","HOUSE_NO":"１１號","E_COORD97":177837.78,"N_COORD97":2552725.25,"ADDRESS":"永福街１６巷１８弄１１號","OBJECTID":163804},"geometry":{"x":177837.78000000119,"y":2552725.25}},{"attributes":{"ID":163806,"DIS_CODE":0,"TOWNNAME":"新市區","LI":"新和里","LIN":"20鄰","STREET":"中正路","SECT":" ","MAREA":" ","LANE":"１１６巷","ALLEY":"２弄","HOUSE_NO":"１３號","E_COORD97":177469.32000000001,"N_COORD97":2552532.75,"ADDRESS":"中正路１１６巷２弄１３號","OBJECTID":163805},"geometry":{"x":177469.32000000123,"y":2552532.7500000019}},{"attributes":{"ID":163807,"DIS_CODE":0,"TOWNNAME":"新市區","LI":"新和里","LIN":"50鄰","STREET":"自強街","SECT":" ","MAREA":" ","LANE":"３４巷","ALLEY":"１弄","HOUSE_NO":"２８號","E_COORD97":177601.60999999999,"N_COORD97":2553531.25,"ADDRESS":"自強街３４巷１弄２８號","OBJECTID":163806},"geometry":{"x":177601.61000000127,"y":2553531.25}},{"attributes":{"ID":163808,"DIS_CODE":0,"TOWNNAME":"新市區","LI":"新和里","LIN":"50鄰","STREET":"自強街","SECT":" ","MAREA":" ","LANE":"３４巷","ALLEY":"１弄","HOUSE_NO":"１０號","E_COORD97":177652.5,"N_COORD97":2553541,"ADDRESS":"自強街３４巷１弄１０號","OBJECTID":163807},"geometry":{"x":177652.50000000093,"y":2553541.0000000037}},{"attributes":{"ID":163809,"DIS_CODE":0,"TOWNNAME":"永康區","LI":"北灣里","LIN":"12鄰","STREET":"大同街","SECT":" ","MAREA":" ","LANE":" ","ALLEY":" ","HOUSE_NO":"１４８號","E_COORD97":174972.84,"N_COORD97":2545577.4700000002,"ADDRESS":"大同街１４８號","OBJECTID":163808},"geometry":{"x":174972.83999999892,"y":2545577.4700000007}},{"attributes":{"ID":163810,"DIS_CODE":0,"TOWNNAME":"山上區","LI":"南洲里","LIN":"18鄰","STREET":" ","SECT":" ","MAREA":"南洲","LANE":" ","ALLEY":" ","HOUSE_NO":"３４５號之１１","E_COORD97":183494.12,"N_COORD97":2555848.2999999998,"ADDRESS":"南洲３４５號之１１","OBJECTID":163809},"geometry":{"x":183494.12000000011,"y":2555848.3000000007}},{"attributes":{"ID":163811,"DIS_CODE":0,"TOWNNAME":"山上區","LI":"南洲里","LIN":"18鄰","STREET":" ","SECT":" ","MAREA":"南洲","LANE":" ","ALLEY":" ","HOUSE_NO":"３４５之１６號","E_COORD97":183439.29000000001,"N_COORD97":2555822.2999999998,"ADDRESS":"南洲３４５之１６號","OBJECTID":163810},"geometry":{"x":183439.2900000019,"y":2555822.3000000026}},{"attributes":{"ID":163812,"DIS_CODE":0,"TOWNNAME":"山上區","LI":"南洲里","LIN":"18鄰","STREET":" ","SECT":" ","MAREA":"南洲","LANE":" ","ALLEY":" ","HOUSE_NO":"３２４號之１","E_COORD97":183599.47,"N_COORD97":2555736.2999999998,"ADDRESS":"南洲３２４號之１","OBJECTID":163811},"geometry":{"x":183599.47000000067,"y":2555736.3000000007}},{"attributes":{"ID":163813,"DIS_CODE":0,"TOWNNAME":"山上區","LI":"南洲里","LIN":"18鄰","STREET":" ","SECT":" ","MAREA":"南洲","LANE":" ","ALLEY":" ","HOUSE_NO":"２９９號","E_COORD97":183645.84,"N_COORD97":2555716.25,"ADDRESS":"南洲２９９號","OBJECTID":163812},"geometry":{"x":183645.84000000078,"y":2555716.2500000019}},{"attributes":{"ID":163814,"DIS_CODE":0,"TOWNNAME":"山上區","LI":"南洲里","LIN":"18鄰","STREET":" ","SECT":" ","MAREA":"南洲","LANE":" ","ALLEY":" ","HOUSE_NO":"３４４之１號","E_COORD97":183565.64000000001,"N_COORD97":2555738.2999999998,"ADDRESS":"南洲３４４之１號","OBJECTID":163813},"geometry":{"x":183565.6400000006,"y":2555738.3000000026}},{"attributes":{"ID":163815,"DIS_CODE":0,"TOWNNAME":"山上區","LI":"南洲里","LIN":"18鄰","STREET":" ","SECT":" ","MAREA":"南洲","LANE":" ","ALLEY":" ","HOUSE_NO":"３４４之５號","E_COORD97":183549.54000000001,"N_COORD97":2555733.2999999998,"ADDRESS":"南洲３４４之５號","OBJECTID":163814},"geometry":{"x":183549.5400000019,"y":2555733.3000000045}},{"attributes":{"ID":163816,"DIS_CODE":0,"TOWNNAME":"山上區","LI":"南洲里","LIN":"18鄰","STREET":" ","SECT":" ","MAREA":"南洲","LANE":" ","ALLEY":" ","HOUSE_NO":"３４５號之４","E_COORD97":183525.89999999999,"N_COORD97":2555837.2999999998,"ADDRESS":"南洲３４５號之４","OBJECTID":163815},"geometry":{"x":183525.9000000013,"y":2555837.3000000007}},{"attributes":{"ID":163817,"DIS_CODE":0,"TOWNNAME":"白河區","LI":"永安里","LIN":"18鄰","STREET":" ","SECT":" ","MAREA":"新厝子","LANE":" ","ALLEY":" ","HOUSE_NO":"１之２號","E_COORD97":189423.45999999999,"N_COORD97":2583109.8799999999,"ADDRESS":"新厝子１之２號","OBJECTID":163816},"geometry":{"x":189423.45999999996,"y":2583109.8800000008}},{"attributes":{"ID":163818,"DIS_CODE":0,"TOWNNAME":"白河區","LI":"永安里","LIN":"18鄰","STREET":" ","SECT":" ","MAREA":"新厝子","LANE":" ","ALLEY":" ","HOUSE_NO":"２００號","E_COORD97":189130.76999999999,"N_COORD97":2583085.3999999999,"ADDRESS":"新厝子２００號","OBJECTID":163817},"geometry":{"x":189130.76999999955,"y":2583085.4000000004}},{"attributes":{"ID":163819,"DIS_CODE":0,"TOWNNAME":"學甲區","LI":"大灣里","LIN":"20鄰","STREET":" ","SECT":" ","MAREA":"大灣","LANE":" ","ALLEY":" ","HOUSE_NO":"１９６號","E_COORD97":166617.04000000001,"N_COORD97":2567471.3599999999,"ADDRESS":"大灣１９６號","OBJECTID":163818},"geometry":{"x":166617.04000000097,"y":2567471.3599999994}},{"attributes":{"ID":163820,"DIS_CODE":0,"TOWNNAME":"白河區","LI":"永安里","LIN":"18鄰","STREET":" ","SECT":" ","MAREA":"新厝子","LANE":" ","ALLEY":" ","HOUSE_NO":"２２４號","E_COORD97":189077.01000000001,"N_COORD97":2583076.6899999999,"ADDRESS":"新厝子２２４號","OBJECTID":163819},"geometry":{"x":189077.00999999978,"y":2583076.6900000013}},{"attributes":{"ID":163821,"DIS_CODE":0,"TOWNNAME":"白河區","LI":"永安里","LIN":"18鄰","STREET":" ","SECT":" ","MAREA":"新厝子","LANE":" ","ALLEY":" ","HOUSE_NO":"２２６號","E_COORD97":189071.25,"N_COORD97":2583076.27,"ADDRESS":"新厝子２２６號","OBJECTID":163820},"geometry":{"x":189071.25000000093,"y":2583076.2700000014}},{"attributes":{"ID":163822,"DIS_CODE":0,"TOWNNAME":"新市區","LI":"新市里","LIN":"25鄰","STREET":"復興路","SECT":" ","MAREA":" ","LANE":"６巷","ALLEY":"２２弄","HOUSE_NO":"１號","E_COORD97":177899.78,"N_COORD97":2553327.7799999998,"ADDRESS":"復興路６巷２２弄１號","OBJECTID":163821},"geometry":{"x":177899.78000000212,"y":2553327.7799999993}},{"attributes":{"ID":163823,"DIS_CODE":0,"TOWNNAME":"永康區","LI":"大灣里","LIN":"12鄰","STREET":"民族路","SECT":" ","MAREA":" ","LANE":" ","ALLEY":" ","HOUSE_NO":"３２８號","E_COORD97":174913.13,"N_COORD97":2545305.8500000001,"ADDRESS":"民族路３２８號","OBJECTID":163822},"geometry":{"x":174913.12999999989,"y":2545305.8499999996}},{"attributes":{"ID":163824,"DIS_CODE":0,"TOWNNAME":"新市區","LI":"新和里","LIN":"39鄰","STREET":"中正路","SECT":" ","MAREA":" ","LANE":"２６８巷","ALLEY":"１２弄","HOUSE_NO":"２號","E_COORD97":177506.70999999999,"N_COORD97":2552991.5,"ADDRESS":"中正路２６８巷１２弄２號","OBJECTID":163823},"geometry":{"x":177506.71000000089,"y":2552991.5}},{"attributes":{"ID":163825,"DIS_CODE":0,"TOWNNAME":"永康區","LI":"大灣里","LIN":"12鄰","STREET":"民族路","SECT":" ","MAREA":" ","LANE":" ","ALLEY":" ","HOUSE_NO":"３３６號","E_COORD97":174904.06,"N_COORD97":2545309.6000000001,"ADDRESS":"民族路３３６號","OBJECTID":163824},"geometry":{"x":174904.06000000052,"y":2545309.6000000015}},{"attributes":{"ID":163826,"DIS_CODE":0,"TOWNNAME":"永康區","LI":"大灣里","LIN":"12鄰","STREET":"民族路","SECT":" ","MAREA":" ","LANE":" ","ALLEY":" ","HOUSE_NO":"３１６號","E_COORD97":174928.63,"N_COORD97":2545300.1800000002,"ADDRESS":"民族路３１６號","OBJECTID":163825},"geometry":{"x":174928.63000000175,"y":2545300.1799999997}},{"attributes":{"ID":163827,"DIS_CODE":0,"TOWNNAME":"新市區","LI":"新和里","LIN":"39鄰","STREET":"中正路","SECT":" ","MAREA":" ","LANE":"１９５巷","ALLEY":"２弄","HOUSE_NO":"３號","E_COORD97":177406.39999999999,"N_COORD97":2552947.5,"ADDRESS":"中正路１９５巷２弄３號","OBJECTID":163826},"geometry":{"x":177406.4000000013,"y":2552947.4999999981}},{"attributes":{"ID":163828,"DIS_CODE":0,"TOWNNAME":"新市區","LI":"新和里","LIN":"50鄰","STREET":"自強街","SECT":" ","MAREA":" ","LANE":"３４巷","ALLEY":"１弄","HOUSE_NO":"２７號","E_COORD97":177608.51999999999,"N_COORD97":2553516.75,"ADDRESS":"自強街３４巷１弄２７號","OBJECTID":163827},"geometry":{"x":177608.51999999955,"y":2553516.7500000019}},{"attributes":{"ID":163829,"DIS_CODE":0,"TOWNNAME":"永康區","LI":"三民里","LIN":"12鄰","STREET":"和平路","SECT":" ","MAREA":" ","LANE":" ","ALLEY":" ","HOUSE_NO":"２２９號","E_COORD97":174736.42000000001,"N_COORD97":2550685.7200000002,"ADDRESS":"和平路２２９號","OBJECTID":163828},"geometry":{"x":174736.41999999993,"y":2550685.7200000044}},{"attributes":{"ID":163830,"DIS_CODE":0,"TOWNNAME":"新市區","LI":"新和里","LIN":"46鄰","STREET":"和平街","SECT":" ","MAREA":" ","LANE":"２０８巷","ALLEY":"１３弄","HOUSE_NO":"１２號","E_COORD97":177319.82000000001,"N_COORD97":2553275.5,"ADDRESS":"和平街２０８巷１３弄１２號","OBJECTID":163829},"geometry":{"x":177319.82000000216,"y":2553275.5}},{"attributes":{"ID":163831,"DIS_CODE":0,"TOWNNAME":"新市區","LI":"新和里","LIN":"50鄰","STREET":"自強街","SECT":" ","MAREA":" ","LANE":"３４巷","ALLEY":"１弄","HOUSE_NO":"６號","E_COORD97":177659.44,"N_COORD97":2553542.25,"ADDRESS":"自強街３４巷１弄６號","OBJECTID":163830},"geometry":{"x":177659.44000000041,"y":2553542.25}},{"attributes":{"ID":163832,"DIS_CODE":0,"TOWNNAME":"永康區","LI":"大灣里","LIN":"12鄰","STREET":"民族路","SECT":" ","MAREA":" ","LANE":" ","ALLEY":" ","HOUSE_NO":"３２０號","E_COORD97":174922.13,"N_COORD97":2545303.1800000002,"ADDRESS":"民族路３２０號","OBJECTID":163831},"geometry":{"x":174922.13000000082,"y":2545303.1799999997}},{"attributes":{"ID":163833,"DIS_CODE":0,"TOWNNAME":"東區","LI":"關聖里","LIN":"8鄰","STREET":"裕農路","SECT":" ","MAREA":" ","LANE":"６６８巷","ALLEY":"３５弄","HOUSE_NO":"５２之１號","E_COORD97":171847.79999999999,"N_COORD97":2543094.73,"ADDRESS":"裕農路６６８巷３５弄５２之１號","OBJECTID":163832},"geometry":{"x":171847.80000000075,"y":2543094.7300000023}},{"attributes":{"ID":163834,"DIS_CODE":0,"TOWNNAME":"永康區","LI":"埔園里","LIN":"34鄰","STREET":"永大路","SECT":"三段","MAREA":" ","LANE":"５６０巷","ALLEY":"６弄","HOUSE_NO":"６號","E_COORD97":174093.10999999999,"N_COORD97":2548618.1499999999,"ADDRESS":"永大路三段５６０巷６弄６號","OBJECTID":163833},"geometry":{"x":174093.11000000034,"y":2548618.1500000022}},{"attributes":{"ID":163835,"DIS_CODE":0,"TOWNNAME":"永康區","LI":"大灣里","LIN":"12鄰","STREET":"大灣路","SECT":" ","MAREA":" ","LANE":" ","ALLEY":" ","HOUSE_NO":"２７０號","E_COORD97":174952.04000000001,"N_COORD97":2545324.6099999999,"ADDRESS":"大灣路２７０號","OBJECTID":163834},"geometry":{"x":174952.04000000097,"y":2545324.6099999975}},{"attributes":{"ID":163836,"DIS_CODE":0,"TOWNNAME":"安南區","LI":"溪墘里","LIN":"12鄰","STREET":"海佃路","SECT":"一段","MAREA":" ","LANE":" ","ALLEY":" ","HOUSE_NO":"２８６號","E_COORD97":167119.67999999999,"N_COORD97":2547451.3100000001,"ADDRESS":"海佃路一段２８６號","OBJECTID":163835},"geometry":{"x":167119.6799999997,"y":2547451.3100000024}},{"attributes":{"ID":163837,"DIS_CODE":0,"TOWNNAME":"永康區","LI":"\u25A0行里","LIN":"10鄰","STREET":"中正路","SECT":" ","MAREA":" ","LANE":"４９５巷","ALLEY":"６弄","HOUSE_NO":"３號","E_COORD97":172146.97,"N_COORD97":2548594.73,"ADDRESS":"中正路４９５巷６弄３號","OBJECTID":163836},"geometry":{"x":172146.96999999974,"y":2548594.7300000023}},{"attributes":{"ID":163838,"DIS_CODE":0,"TOWNNAME":"永康區","LI":"\u25A0行里","LIN":"10鄰","STREET":"中正路","SECT":" ","MAREA":" ","LANE":"４９５巷","ALLEY":"６弄","HOUSE_NO":"５號","E_COORD97":172144.04000000001,"N_COORD97":2548601.4700000002,"ADDRESS":"中正路４９５巷６弄５號","OBJECTID":163837},"geometry":{"x":172144.04000000004,"y":2548601.4700000007}},{"attributes":{"ID":163839,"DIS_CODE":0,"TOWNNAME":"中西區","LI":"小西里","LIN":"4鄰","STREET":"和意路","SECT":" ","MAREA":" ","LANE":" ","ALLEY":" ","HOUSE_NO":"７０號","E_COORD97":167789.92000000001,"N_COORD97":2543242.8100000001,"ADDRESS":"和意路７０號","OBJECTID":163838},"geometry":{"x":167789.92000000179,"y":2543242.8100000042}},{"attributes":{"ID":163840,"DIS_CODE":0,"TOWNNAME":"中西區","LI":"小西里","LIN":"4鄰","STREET":"和意路","SECT":" ","MAREA":" ","LANE":" ","ALLEY":" ","HOUSE_NO":"７２號","E_COORD97":167782.75,"N_COORD97":2543244.3900000001,"ADDRESS":"和意路７２號","OBJECTID":163839},"geometry":{"x":167782.75000000186,"y":2543244.3900000006}},{"attributes":{"ID":163841,"DIS_CODE":0,"TOWNNAME":"永康區","LI":"\u25A0行里","LIN":"10鄰","STREET":"中正路","SECT":" ","MAREA":" ","LANE":"４９５巷","ALLEY":"６弄","HOUSE_NO":"７號","E_COORD97":172139.67000000001,"N_COORD97":2548603.4199999999,"ADDRESS":"中正路４９５巷６弄７號","OBJECTID":163840},"geometry":{"x":172139.66999999993,"y":2548603.4199999999}},{"attributes":{"ID":163842,"DIS_CODE":0,"TOWNNAME":"永康區","LI":"\u25A0行里","LIN":"10鄰","STREET":"中正路","SECT":" ","MAREA":" ","LANE":"４９５巷","ALLEY":"６弄","HOUSE_NO":"９號","E_COORD97":172138.32000000001,"N_COORD97":2548608.1600000001,"ADDRESS":"中正路４９５巷６弄９號","OBJECTID":163841},"geometry":{"x":172138.32000000123,"y":2548608.160000002}},{"attributes":{"ID":163843,"DIS_CODE":0,"TOWNNAME":"永康區","LI":"\u25A0行里","LIN":"10鄰","STREET":"中正路","SECT":" ","MAREA":" ","LANE":"４９５巷","ALLEY":"６弄","HOUSE_NO":"１１號","E_COORD97":172133.85000000001,"N_COORD97":2548613.6600000001,"ADDRESS":"中正路４９５巷６弄１１號","OBJECTID":163842},"geometry":{"x":172133.85000000056,"y":2548613.6599999983}},{"attributes":{"ID":163844,"DIS_CODE":0,"TOWNNAME":"中西區","LI":"小西里","LIN":"4鄰","STREET":"和意路","SECT":" ","MAREA":" ","LANE":" ","ALLEY":" ","HOUSE_NO":"７６號","E_COORD97":167778.31,"N_COORD97":2543244.6699999999,"ADDRESS":"和意路７６號","OBJECTID":163843},"geometry":{"x":167778.30999999959,"y":2543244.6700000018}},{"attributes":{"ID":163845,"DIS_CODE":0,"TOWNNAME":"中西區","LI":"小西里","LIN":"4鄰","STREET":"和意路","SECT":" ","MAREA":" ","LANE":" ","ALLEY":" ","HOUSE_NO":"７８號","E_COORD97":167774.29000000001,"N_COORD97":2543244.9500000002,"ADDRESS":"和意路７８號","OBJECTID":163844},"geometry":{"x":167774.29000000097,"y":2543244.9500000011}},{"attributes":{"ID":163846,"DIS_CODE":0,"TOWNNAME":"中西區","LI":"小西里","LIN":"4鄰","STREET":"和意路","SECT":" ","MAREA":" ","LANE":" ","ALLEY":" ","HOUSE_NO":"８０號","E_COORD97":167770.13,"N_COORD97":2543244.6699999999,"ADDRESS":"和意路８０號","OBJECTID":163845},"geometry":{"x":167770.13000000082,"y":2543244.6700000018}},{"attributes":{"ID":163847,"DIS_CODE":0,"TOWNNAME":"中西區","LI":"法華里","LIN":"7鄰","STREET":"健康路","SECT":"一段","MAREA":" ","LANE":" ","ALLEY":" ","HOUSE_NO":"６６號","E_COORD97":169009.13,"N_COORD97":2542449.73,"ADDRESS":"健康路一段６６號","OBJECTID":163846},"geometry":{"x":169009.13000000175,"y":2542449.7300000004}},{"attributes":{"ID":163848,"DIS_CODE":0,"TOWNNAME":"中西區","LI":"法華里","LIN":"7鄰","STREET":"健康路","SECT":"一段","MAREA":" ","LANE":" ","ALLEY":" ","HOUSE_NO":"６８號","E_COORD97":169001.70000000001,"N_COORD97":2542447.8799999999,"ADDRESS":"健康路一段６８號","OBJECTID":163847},"geometry":{"x":169001.70000000019,"y":2542447.8800000008}},{"attributes":{"ID":163849,"DIS_CODE":0,"TOWNNAME":"山上區","LI":"新莊里","LIN":"3鄰","STREET":" ","SECT":" ","MAREA":"新庄","LANE":" ","ALLEY":" ","HOUSE_NO":"２７號","E_COORD97":184876.06,"N_COORD97":2555328.25,"ADDRESS":"新庄２７號","OBJECTID":163848},"geometry":{"x":184876.05999999866,"y":2555328.25}},{"attributes":{"ID":163850,"DIS_CODE":0,"TOWNNAME":"龍崎區","LI":"崎頂里","LIN":"12鄰","STREET":" ","SECT":" ","MAREA":"崎頂","LANE":" ","ALLEY":" ","HOUSE_NO":"９號","E_COORD97":185762.95999999999,"N_COORD97":2540268.25,"ADDRESS":"崎頂９號","OBJECTID":163849},"geometry":{"x":185762.96000000089,"y":2540268.25}},{"attributes":{"ID":163851,"DIS_CODE":0,"TOWNNAME":"白河區","LI":"永安里","LIN":"18鄰","STREET":" ","SECT":" ","MAREA":"新厝子","LANE":" ","ALLEY":" ","HOUSE_NO":"２２８號","E_COORD97":189063.29000000001,"N_COORD97":2583076.2400000002,"ADDRESS":"新厝子２２８號","OBJECTID":163850},"geometry":{"x":189063.29000000004,"y":2583076.2400000002}},{"attributes":{"ID":163852,"DIS_CODE":0,"TOWNNAME":"白河區","LI":"永安里","LIN":"18鄰","STREET":" ","SECT":" ","MAREA":"新厝子","LANE":" ","ALLEY":" ","HOUSE_NO":"２３０號","E_COORD97":189047.82000000001,"N_COORD97":2583084.3599999999,"ADDRESS":"新厝子２３０號","OBJECTID":163851},"geometry":{"x":189047.82000000123,"y":2583084.3599999994}},{"attributes":{"ID":163853,"DIS_CODE":0,"TOWNNAME":"白河區","LI":"永安里","LIN":"18鄰","STREET":" ","SECT":" ","MAREA":"新厝子","LANE":" ","ALLEY":" ","HOUSE_NO":"２之１號","E_COORD97":189573.39000000001,"N_COORD97":2583047.3799999999,"ADDRESS":"新厝子２之１號","OBJECTID":163852},"geometry":{"x":189573.3900000006,"y":2583047.3800000027}},{"attributes":{"ID":163854,"DIS_CODE":0,"TOWNNAME":"白河區","LI":"永安里","LIN":"18鄰","STREET":" ","SECT":" ","MAREA":"新厝子","LANE":" ","ALLEY":" ","HOUSE_NO":"３２５號","E_COORD97":189017.75,"N_COORD97":2582884.21,"ADDRESS":"新厝子３２５號","OBJECTID":163853},"geometry":{"x":189017.75,"y":2582884.2100000046}},{"attributes":{"ID":163855,"DIS_CODE":0,"TOWNNAME":"中西區","LI":"大南里","LIN":"1鄰","STREET":"健康路","SECT":"一段","MAREA":" ","LANE":" ","ALLEY":" ","HOUSE_NO":"２８４號","E_COORD97":168339.32999999999,"N_COORD97":2542457.0499999998,"ADDRESS":"健康路一段２８４號","OBJECTID":163854},"geometry":{"x":168339.33000000007,"y":2542457.0500000007}},{"attributes":{"ID":163856,"DIS_CODE":0,"TOWNNAME":"中西區","LI":"大南里","LIN":"1鄰","STREET":"健康路","SECT":"一段","MAREA":" ","LANE":" ","ALLEY":" ","HOUSE_NO":"２８６號","E_COORD97":168334.04999999999,"N_COORD97":2542457.75,"ADDRESS":"健康路一段２８６號","OBJECTID":163855},"geometry":{"x":168334.04999999981,"y":2542457.7500000019}},{"attributes":{"ID":163857,"DIS_CODE":0,"TOWNNAME":"永康區","LI":"\u25A0行里","LIN":"10鄰","STREET":"中正路","SECT":" ","MAREA":" ","LANE":"４９５巷","ALLEY":"６弄","HOUSE_NO":"２號","E_COORD97":172165.89000000001,"N_COORD97":2548605.48,"ADDRESS":"中正路４９５巷６弄２號","OBJECTID":163856},"geometry":{"x":172165.8900000006,"y":2548605.4800000042}},{"attributes":{"ID":163858,"DIS_CODE":0,"TOWNNAME":"永康區","LI":"\u25A0行里","LIN":"10鄰","STREET":"中正路","SECT":" ","MAREA":" ","LANE":"４９５巷","ALLEY":"６弄","HOUSE_NO":"６號","E_COORD97":172162.64000000001,"N_COORD97":2548611.1299999999,"ADDRESS":"中正路４９５巷６弄６號","OBJECTID":163857},"geometry":{"x":172162.63999999966,"y":2548611.1300000008}},{"attributes":{"ID":163859,"DIS_CODE":0,"TOWNNAME":"永康區","LI":"\u25A0行里","LIN":"10鄰","STREET":"中正路","SECT":" ","MAREA":" ","LANE":"４９５巷","ALLEY":"６弄","HOUSE_NO":"８號","E_COORD97":172160.04999999999,"N_COORD97":2548614.6299999999,"ADDRESS":"中正路４９５巷６弄８號","OBJECTID":163858},"geometry":{"x":172160.04999999981,"y":2548614.629999999}},{"attributes":{"ID":163860,"DIS_CODE":0,"TOWNNAME":"永康區","LI":"\u25A0行里","LIN":"10鄰","STREET":"中正路","SECT":" ","MAREA":" ","LANE":"４９５巷","ALLEY":"６弄","HOUSE_NO":"１０號","E_COORD97":172157.45000000001,"N_COORD97":2548618.1299999999,"ADDRESS":"中正路４９５巷６弄１０號","OBJECTID":163859},"geometry":{"x":172157.45000000112,"y":2548618.129999999}},{"attributes":{"ID":163861,"DIS_CODE":0,"TOWNNAME":"永康區","LI":"\u25A0行里","LIN":"10鄰","STREET":"中正路","SECT":" ","MAREA":" ","LANE":"４９５巷","ALLEY":"６弄","HOUSE_NO":"１２號","E_COORD97":172154.78,"N_COORD97":2548621.7400000002,"ADDRESS":"中正路４９５巷６弄１２號","OBJECTID":163860},"geometry":{"x":172154.78000000212,"y":2548621.7400000021}},{"attributes":{"ID":163862,"DIS_CODE":0,"TOWNNAME":"永康區","LI":"\u25A0行里","LIN":"10鄰","STREET":"中正路","SECT":" ","MAREA":" ","LANE":"４９５巷","ALLEY":"６弄","HOUSE_NO":"１６號","E_COORD97":172149.51000000001,"N_COORD97":2548627.3700000001,"ADDRESS":"中正路４９５巷６弄１６號","OBJECTID":163861},"geometry":{"x":172149.51000000071,"y":2548627.3700000029}},{"attributes":{"ID":163863,"DIS_CODE":0,"TOWNNAME":"永康區","LI":"王行里","LIN":"8鄰","STREET":"王行路","SECT":" ","MAREA":" ","LANE":"２１７巷","ALLEY":"２弄","HOUSE_NO":"１號","E_COORD97":175416.92999999999,"N_COORD97":2548412.3399999999,"ADDRESS":"王行路２１７巷２弄１號","OBJECTID":163862},"geometry":{"x":175416.93000000063,"y":2548412.3400000036}},{"attributes":{"ID":163864,"DIS_CODE":0,"TOWNNAME":"永康區","LI":"王行里","LIN":"8鄰","STREET":"王行路","SECT":" ","MAREA":" ","LANE":"２１７巷","ALLEY":"２弄","HOUSE_NO":"３號","E_COORD97":175413.42999999999,"N_COORD97":2548420.4900000002,"ADDRESS":"王行路２１７巷２弄３號","OBJECTID":163863},"geometry":{"x":175413.43000000063,"y":2548420.4900000002}},{"attributes":{"ID":163865,"DIS_CODE":0,"TOWNNAME":"安南區","LI":"海東里","LIN":"13鄰","STREET":"海佃路","SECT":"二段","MAREA":" ","LANE":" ","ALLEY":" ","HOUSE_NO":"３７７號","E_COORD97":166739.44,"N_COORD97":2548905.7799999998,"ADDRESS":"海佃路二段３７７號","OBJECTID":163864},"geometry":{"x":166739.44000000227,"y":2548905.7799999993}},{"attributes":{"ID":163866,"DIS_CODE":0,"TOWNNAME":"永康區","LI":"王行里","LIN":"8鄰","STREET":"王行路","SECT":" ","MAREA":" ","LANE":"２１７巷","ALLEY":"２弄","HOUSE_NO":"５號","E_COORD97":175413.17000000001,"N_COORD97":2548424.3999999999,"ADDRESS":"王行路２１７巷２弄５號","OBJECTID":163865},"geometry":{"x":175413.17000000179,"y":2548424.4000000004}},{"attributes":{"ID":163867,"DIS_CODE":0,"TOWNNAME":"永康區","LI":"王行里","LIN":"8鄰","STREET":"王行路","SECT":" ","MAREA":" ","LANE":"２１７巷","ALLEY":"２弄","HOUSE_NO":"７號","E_COORD97":175407.88,"N_COORD97":2548427.4399999999,"ADDRESS":"王行路２１７巷２弄７號","OBJECTID":163866},"geometry":{"x":175407.87999999989,"y":2548427.4399999995}},{"attributes":{"ID":163868,"DIS_CODE":0,"TOWNNAME":"永康區","LI":"王行里","LIN":"8鄰","STREET":"王行路","SECT":" ","MAREA":" ","LANE":"２１７巷","ALLEY":"２弄","HOUSE_NO":"９號","E_COORD97":175405.57999999999,"N_COORD97":2548431.73,"ADDRESS":"王行路２１７巷２弄９號","OBJECTID":163867},"geometry":{"x":175405.58000000194,"y":2548431.7300000023}},{"attributes":{"ID":163869,"DIS_CODE":0,"TOWNNAME":"永康區","LI":"王行里","LIN":"8鄰","STREET":"王行路","SECT":" ","MAREA":" ","LANE":"２１７巷","ALLEY":"２弄","HOUSE_NO":"１１號","E_COORD97":175402.51999999999,"N_COORD97":2548435.3100000001,"ADDRESS":"王行路２１７巷２弄１１號","OBJECTID":163868},"geometry":{"x":175402.52000000048,"y":2548435.3100000005}},{"attributes":{"ID":163870,"DIS_CODE":0,"TOWNNAME":"永康區","LI":"王行里","LIN":"8鄰","STREET":"王行路","SECT":" ","MAREA":" ","LANE":"２１７巷","ALLEY":"２弄","HOUSE_NO":"２號","E_COORD97":175438.73000000001,"N_COORD97":2548425.7400000002,"ADDRESS":"王行路２１７巷２弄２號","OBJECTID":163869},"geometry":{"x":175438.72999999952,"y":2548425.7400000002}},{"attributes":{"ID":163871,"DIS_CODE":0,"TOWNNAME":"永康區","LI":"王行里","LIN":"8鄰","STREET":"王行路","SECT":" ","MAREA":" ","LANE":"２１７巷","ALLEY":"２弄","HOUSE_NO":"６號","E_COORD97":175436,"N_COORD97":2548431.2200000002,"ADDRESS":"王行路２１７巷２弄６號","OBJECTID":163870},"geometry":{"x":175436,"y":2548431.2200000044}},{"attributes":{"ID":163872,"DIS_CODE":0,"TOWNNAME":"永康區","LI":"王行里","LIN":"8鄰","STREET":"王行路","SECT":" ","MAREA":" ","LANE":"２１７巷","ALLEY":"２弄","HOUSE_NO":"８號","E_COORD97":175432.76000000001,"N_COORD97":2548433.9700000002,"ADDRESS":"王行路２１７巷２弄８號","OBJECTID":163871},"geometry":{"x":175432.76000000164,"y":2548433.9700000025}},{"attributes":{"ID":163873,"DIS_CODE":0,"TOWNNAME":"永康區","LI":"東橋里","LIN":"26鄰","STREET":"中正路","SECT":" ","MAREA":" ","LANE":"２７９巷","ALLEY":"２弄","HOUSE_NO":"２２之１號","E_COORD97":172616.64999999999,"N_COORD97":2547974.4399999999,"ADDRESS":"中正路２７９巷２弄２２之１號","OBJECTID":163872},"geometry":{"x":172616.64999999944,"y":2547974.4400000013}},{"attributes":{"ID":163874,"DIS_CODE":0,"TOWNNAME":"永康區","LI":"東橋里","LIN":"24鄰","STREET":"中正路","SECT":" ","MAREA":" ","LANE":"２１７巷","ALLEY":"３弄","HOUSE_NO":"４２之１號","E_COORD97":172821.81,"N_COORD97":2547909.9900000002,"ADDRESS":"中正路２１７巷３弄４２之１號","OBJECTID":163873},"geometry":{"x":172821.81000000145,"y":2547909.9900000039}},{"attributes":{"ID":163875,"DIS_CODE":0,"TOWNNAME":"永康區","LI":"西灣里","LIN":"28鄰","STREET":"公園路","SECT":" ","MAREA":" ","LANE":"７巷","ALLEY":"３０弄","HOUSE_NO":"１９號","E_COORD97":174402.85000000001,"N_COORD97":2545895,"ADDRESS":"公園路７巷３０弄１９號","OBJECTID":163874},"geometry":{"x":174402.84999999963,"y":2545895}},{"attributes":{"ID":163876,"DIS_CODE":0,"TOWNNAME":"永康區","LI":"西灣里","LIN":"28鄰","STREET":"公園路","SECT":" ","MAREA":" ","LANE":"７巷","ALLEY":"３０弄","HOUSE_NO":"２１號","E_COORD97":174399.23000000001,"N_COORD97":2545892.4300000002,"ADDRESS":"公園路７巷３０弄２１號","OBJECTID":163875},"geometry":{"x":174399.23000000045,"y":2545892.4300000034}},{"attributes":{"ID":163877,"DIS_CODE":0,"TOWNNAME":"永康區","LI":"西灣里","LIN":"28鄰","STREET":"公園路","SECT":" ","MAREA":" ","LANE":"７巷","ALLEY":"３０弄","HOUSE_NO":"２３號","E_COORD97":174394.98000000001,"N_COORD97":2545891.79,"ADDRESS":"公園路７巷３０弄２３號","OBJECTID":163876},"geometry":{"x":174394.98000000138,"y":2545891.7899999991}},{"attributes":{"ID":163878,"DIS_CODE":0,"TOWNNAME":"永康區","LI":"\u25A0行里","LIN":"48鄰","STREET":"新民街","SECT":" ","MAREA":" ","LANE":"１６巷","ALLEY":"１弄","HOUSE_NO":"３號","E_COORD97":172445.76999999999,"N_COORD97":2548972.8300000001,"ADDRESS":"新民街１６巷１弄３號","OBJECTID":163877},"geometry":{"x":172445.77000000048,"y":2548972.8300000019}},{"attributes":{"ID":163879,"DIS_CODE":0,"TOWNNAME":"永康區","LI":"\u25A0行里","LIN":"48鄰","STREET":"新民街","SECT":" ","MAREA":" ","LANE":"１６巷","ALLEY":"１弄","HOUSE_NO":"５號","E_COORD97":172440.76999999999,"N_COORD97":2548973.5800000001,"ADDRESS":"新民街１６巷１弄５號","OBJECTID":163878},"geometry":{"x":172440.77000000048,"y":2548973.5799999982}},{"attributes":{"ID":163880,"DIS_CODE":0,"TOWNNAME":"永康區","LI":"\u25A0行里","LIN":"48鄰","STREET":"新民街","SECT":" ","MAREA":" ","LANE":"１６巷","ALLEY":"１弄","HOUSE_NO":"７號","E_COORD97":172437.45000000001,"N_COORD97":2548974.0800000001,"ADDRESS":"新民街１６巷１弄７號","OBJECTID":163879},"geometry":{"x":172437.45000000019,"y":2548974.0800000019}},{"attributes":{"ID":163881,"DIS_CODE":0,"TOWNNAME":"永康區","LI":"\u25A0行里","LIN":"48鄰","STREET":"新民街","SECT":" ","MAREA":" ","LANE":"１６巷","ALLEY":"１弄","HOUSE_NO":"９號","E_COORD97":172433.29999999999,"N_COORD97":2548974.7000000002,"ADDRESS":"新民街１６巷１弄９號","OBJECTID":163880},"geometry":{"x":172433.29999999981,"y":2548974.6999999993}},{"attributes":{"ID":163882,"DIS_CODE":0,"TOWNNAME":"永康區","LI":"\u25A0行里","LIN":"48鄰","STREET":"新民街","SECT":" ","MAREA":" ","LANE":"１６巷","ALLEY":"１弄","HOUSE_NO":"１１號","E_COORD97":172429.14999999999,"N_COORD97":2548975.3300000001,"ADDRESS":"新民街１６巷１弄１１號","OBJECTID":163881},"geometry":{"x":172429.1500000013,"y":2548975.3300000038}},{"attributes":{"ID":163883,"DIS_CODE":0,"TOWNNAME":"永康區","LI":"\u25A0行里","LIN":"48鄰","STREET":"新民街","SECT":" ","MAREA":" ","LANE":"１６巷","ALLEY":"１弄","HOUSE_NO":"１３號","E_COORD97":172425,"N_COORD97":2548975.9500000002,"ADDRESS":"新民街１６巷１弄１３號","OBJECTID":163882},"geometry":{"x":172425.00000000093,"y":2548975.9499999993}},{"attributes":{"ID":163884,"DIS_CODE":0,"TOWNNAME":"永康區","LI":"\u25A0行里","LIN":"48鄰","STREET":"新民街","SECT":" ","MAREA":" ","LANE":"１６巷","ALLEY":"１弄","HOUSE_NO":"１５號","E_COORD97":172420.84,"N_COORD97":2548976.5800000001,"ADDRESS":"新民街１６巷１弄１５號","OBJECTID":163883},"geometry":{"x":172420.84000000078,"y":2548976.5800000001}},{"attributes":{"ID":163885,"DIS_CODE":0,"TOWNNAME":"永康區","LI":"\u25A0行里","LIN":"48鄰","STREET":"新民街","SECT":" ","MAREA":" ","LANE":"１６巷","ALLEY":"１弄","HOUSE_NO":"１７號","E_COORD97":172416.67999999999,"N_COORD97":2548977.2000000002,"ADDRESS":"新民街１６巷１弄１７號","OBJECTID":163884},"geometry":{"x":172416.68000000063,"y":2548977.1999999993}},{"attributes":{"ID":163886,"DIS_CODE":0,"TOWNNAME":"永康區","LI":"\u25A0行里","LIN":"48鄰","STREET":"新民街","SECT":" ","MAREA":" ","LANE":"１６巷","ALLEY":"１弄","HOUSE_NO":"１９號","E_COORD97":172412.53,"N_COORD97":2548977.8300000001,"ADDRESS":"新民街１６巷１弄１９號","OBJECTID":163885},"geometry":{"x":172412.53000000119,"y":2548977.8300000001}},{"attributes":{"ID":163887,"DIS_CODE":0,"TOWNNAME":"永康區","LI":"\u25A0行里","LIN":"48鄰","STREET":"新民街","SECT":" ","MAREA":" ","LANE":"１６巷","ALLEY":"１弄","HOUSE_NO":"２１號","E_COORD97":172408.38,"N_COORD97":2548978.4500000002,"ADDRESS":"新民街１６巷１弄２１號","OBJECTID":163886},"geometry":{"x":172408.38000000082,"y":2548978.4500000011}},{"attributes":{"ID":163888,"DIS_CODE":0,"TOWNNAME":"永康區","LI":"建國里","LIN":"32鄰","STREET":"復興路","SECT":" ","MAREA":" ","LANE":"１巷","ALLEY":"３０弄","HOUSE_NO":"９號","E_COORD97":173102.85999999999,"N_COORD97":2544085.9900000002,"ADDRESS":"復興路１巷３０弄９號","OBJECTID":163887},"geometry":{"x":173102.86000000034,"y":2544085.9900000021}},{"attributes":{"ID":163889,"DIS_CODE":0,"TOWNNAME":"永康區","LI":"\u25A0行里","LIN":"48鄰","STREET":"新民街","SECT":" ","MAREA":" ","LANE":"１６巷","ALLEY":"１弄","HOUSE_NO":"２３號","E_COORD97":172404.22,"N_COORD97":2548979.0800000001,"ADDRESS":"新民街１６巷１弄２３號","OBJECTID":163888},"geometry":{"x":172404.22000000067,"y":2548979.0800000001}},{"attributes":{"ID":163890,"DIS_CODE":0,"TOWNNAME":"永康區","LI":"\u25A0行里","LIN":"48鄰","STREET":"新民街","SECT":" ","MAREA":" ","LANE":"１６巷","ALLEY":"１弄","HOUSE_NO":"２５號","E_COORD97":172400.07000000001,"N_COORD97":2548979.7000000002,"ADDRESS":"新民街１６巷１弄２５號","OBJECTID":163889},"geometry":{"x":172400.0700000003,"y":2548979.7000000011}},{"attributes":{"ID":163891,"DIS_CODE":0,"TOWNNAME":"永康區","LI":"\u25A0行里","LIN":"48鄰","STREET":"新民街","SECT":" ","MAREA":" ","LANE":"１６巷","ALLEY":"１弄","HOUSE_NO":"２７號","E_COORD97":172396.5,"N_COORD97":2548982.25,"ADDRESS":"新民街１６巷１弄２７號","OBJECTID":163890},"geometry":{"x":172396.5,"y":2548982.25}},{"attributes":{"ID":163892,"DIS_CODE":0,"TOWNNAME":"永康區","LI":"\u25A0行里","LIN":"48鄰","STREET":"新民街","SECT":" ","MAREA":" ","LANE":"１６巷","ALLEY":"１弄","HOUSE_NO":"２９號","E_COORD97":172392.34,"N_COORD97":2548982.8700000001,"ADDRESS":"新民街１６巷１弄２９號","OBJECTID":163891},"geometry":{"x":172392.33999999985,"y":2548982.8700000048}},{"attributes":{"ID":163893,"DIS_CODE":0,"TOWNNAME":"中西區","LI":"西賢里","LIN":"12鄰","STREET":"西賢街","SECT":" ","MAREA":" ","LANE":" ","ALLEY":" ","HOUSE_NO":"１３５號","E_COORD97":165810.39999999999,"N_COORD97":2544842.0699999998,"ADDRESS":"西賢街１３５號","OBJECTID":163892},"geometry":{"x":165810.40000000037,"y":2544842.0700000022}},{"attributes":{"ID":163894,"DIS_CODE":0,"TOWNNAME":"中西區","LI":"西賢里","LIN":"12鄰","STREET":"西賢街","SECT":" ","MAREA":" ","LANE":" ","ALLEY":" ","HOUSE_NO":"１３７號","E_COORD97":165805.53,"N_COORD97":2544839.4300000002,"ADDRESS":"西賢街１３７號","OBJECTID":163893},"geometry":{"x":165805.53000000026,"y":2544839.4300000016}},{"attributes":{"ID":163895,"DIS_CODE":0,"TOWNNAME":"安南區","LI":"海東里","LIN":"13鄰","STREET":"海佃路","SECT":"二段","MAREA":" ","LANE":" ","ALLEY":" ","HOUSE_NO":"３８５號","E_COORD97":166736.35000000001,"N_COORD97":2548924.6800000002,"ADDRESS":"海佃路二段３８５號","OBJECTID":163894},"geometry":{"x":166736.35000000056,"y":2548924.6799999997}},{"attributes":{"ID":163896,"DIS_CODE":0,"TOWNNAME":"安南區","LI":"海西里","LIN":"1鄰","STREET":"海中街","SECT":" ","MAREA":" ","LANE":" ","ALLEY":" ","HOUSE_NO":"１７１號","E_COORD97":166347.12,"N_COORD97":2549145.1299999999,"ADDRESS":"海中街１７１號","OBJECTID":163895},"geometry":{"x":166347.12000000011,"y":2549145.1300000027}},{"attributes":{"ID":163897,"DIS_CODE":0,"TOWNNAME":"安南區","LI":"海西里","LIN":"1鄰","STREET":"海中街","SECT":" ","MAREA":" ","LANE":" ","ALLEY":" ","HOUSE_NO":"１８７號","E_COORD97":166289.73999999999,"N_COORD97":2549152.2400000002,"ADDRESS":"海中街１８７號","OBJECTID":163896},"geometry":{"x":166289.74000000115,"y":2549152.2399999984}},{"attributes":{"ID":163898,"DIS_CODE":0,"TOWNNAME":"永康區","LI":"\u25A0行里","LIN":"48鄰","STREET":"新民街","SECT":" ","MAREA":" ","LANE":"１６巷","ALLEY":"１弄","HOUSE_NO":"３１號","E_COORD97":172385.35999999999,"N_COORD97":2548982.8999999999,"ADDRESS":"新民街１６巷１弄３１號","OBJECTID":163897},"geometry":{"x":172385.36000000127,"y":2548982.9000000022}},{"attributes":{"ID":163899,"DIS_CODE":0,"TOWNNAME":"永康區","LI":"網寮里","LIN":"3鄰","STREET":"永和街","SECT":" ","MAREA":" ","LANE":"２３８巷","ALLEY":"２２弄","HOUSE_NO":"２號","E_COORD97":173494.95000000001,"N_COORD97":2546616.6299999999,"ADDRESS":"永和街２３８巷２２弄２號","OBJECTID":163898},"geometry":{"x":173494.95000000112,"y":2546616.6300000008}},{"attributes":{"ID":163900,"DIS_CODE":0,"TOWNNAME":"永康區","LI":"網寮里","LIN":"3鄰","STREET":"永和街","SECT":" ","MAREA":" ","LANE":"２３８巷","ALLEY":"２２弄","HOUSE_NO":"６號","E_COORD97":173511.53,"N_COORD97":2546609.04,"ADDRESS":"永和街２３８巷２２弄６號","OBJECTID":163899},"geometry":{"x":173511.53000000119,"y":2546609.0399999991}},{"attributes":{"ID":163901,"DIS_CODE":0,"TOWNNAME":"永康區","LI":"龍潭里","LIN":"24鄰","STREET":"中山北路","SECT":" ","MAREA":" ","LANE":"２６４巷","ALLEY":"５５弄","HOUSE_NO":"７０號","E_COORD97":174867.20999999999,"N_COORD97":2547365.48,"ADDRESS":"中山北路２６４巷５５弄７０號","OBJECTID":163900},"geometry":{"x":174867.21000000183,"y":2547365.4800000023}},{"attributes":{"ID":163902,"DIS_CODE":0,"TOWNNAME":"永康區","LI":"\u25A0行里","LIN":"32鄰","STREET":"仁愛街","SECT":" ","MAREA":" ","LANE":"１０８巷","ALLEY":"３５弄","HOUSE_NO":"１１號","E_COORD97":172210.37,"N_COORD97":2549457.3100000001,"ADDRESS":"仁愛街１０８巷３５弄１１號","OBJECTID":163901},"geometry":{"x":172210.37000000104,"y":2549457.3099999987}},{"attributes":{"ID":163903,"DIS_CODE":0,"TOWNNAME":"永康區","LI":"東灣里","LIN":"26鄰","STREET":"大灣東路","SECT":" ","MAREA":" ","LANE":"２１８巷","ALLEY":"４３弄","HOUSE_NO":"２６號","E_COORD97":174874.75,"N_COORD97":2544263.1000000001,"ADDRESS":"大灣東路２１８巷４３弄２６號","OBJECTID":163902},"geometry":{"x":174874.75,"y":2544263.0999999996}},{"attributes":{"ID":163904,"DIS_CODE":0,"TOWNNAME":"永康區","LI":"北灣里","LIN":"36鄰","STREET":"大灣路","SECT":" ","MAREA":" ","LANE":"４０巷","ALLEY":"２０８弄","HOUSE_NO":"７號","E_COORD97":174771,"N_COORD97":2546420.3700000001,"ADDRESS":"大灣路４０巷２０８弄７號","OBJECTID":163903},"geometry":{"x":174771.00000000093,"y":2546420.3700000029}},{"attributes":{"ID":163905,"DIS_CODE":0,"TOWNNAME":"永康區","LI":"西灣里","LIN":"50鄰","STREET":"大灣路","SECT":" ","MAREA":" ","LANE":"９４２巷","ALLEY":"６４１弄","HOUSE_NO":"７８號","E_COORD97":173704.39999999999,"N_COORD97":2545963.77,"ADDRESS":"大灣路９４２巷６４１弄７８號","OBJECTID":163904},"geometry":{"x":173704.40000000037,"y":2545963.7699999996}},{"attributes":{"ID":163906,"DIS_CODE":0,"TOWNNAME":"永康區","LI":"埔園里","LIN":"39鄰","STREET":"自強路","SECT":" ","MAREA":" ","LANE":"５９８巷","ALLEY":"９弄","HOUSE_NO":"１號","E_COORD97":174063.16,"N_COORD97":2548128.3799999999,"ADDRESS":"自強路５９８巷９弄１號","OBJECTID":163905},"geometry":{"x":174063.16000000108,"y":2548128.379999999}},{"attributes":{"ID":163907,"DIS_CODE":0,"TOWNNAME":"歸仁區","LI":"媽廟里","LIN":"9鄰","STREET":"和順路","SECT":"一段","MAREA":" ","LANE":"２８８巷","ALLEY":"３８弄","HOUSE_NO":"４０號","E_COORD97":176941.43904500001,"N_COORD97":2543827.3243100001,"ADDRESS":"和順路一段２８８巷３８弄４０號","OBJECTID":163906},"geometry":{"x":176941.43904499989,"y":2543827.324307004}},{"attributes":{"ID":163908,"DIS_CODE":0,"TOWNNAME":"歸仁區","LI":"大廟里","LIN":"21鄰","STREET":"保大路","SECT":"三段","MAREA":" ","LANE":"４０１巷","ALLEY":"１０５弄","HOUSE_NO":"３６號","E_COORD97":175648.08245099999,"N_COORD97":2544123.5808100002,"ADDRESS":"保大路三段４０１巷１０５弄３６號","OBJECTID":163907},"geometry":{"x":175648.08245099988,"y":2544123.5808080044}},{"attributes":{"ID":163909,"DIS_CODE":0,"TOWNNAME":"新化區","LI":"太平里","LIN":"4鄰","STREET":"民生路","SECT":" ","MAREA":" ","LANE":"２１６巷","ALLEY":"１弄","HOUSE_NO":"１號","E_COORD97":179098.01000000001,"N_COORD97":2548991.25,"ADDRESS":"民生路２１６巷１弄１號","OBJECTID":163908},"geometry":{"x":179098.01000000071,"y":2548991.25}},{"attributes":{"ID":163910,"DIS_CODE":0,"TOWNNAME":"安南區","LI":"海西里","LIN":"1鄰","STREET":"海中街","SECT":" ","MAREA":" ","LANE":" ","ALLEY":" ","HOUSE_NO":"１８９號","E_COORD97":166287.64000000001,"N_COORD97":2549159.77,"ADDRESS":"海中街１８９號","OBJECTID":163909},"geometry":{"x":166287.63999999966,"y":2549159.7700000014}},{"attributes":{"ID":163911,"DIS_CODE":0,"TOWNNAME":"白河區","LI":"永安里","LIN":"18鄰","STREET":" ","SECT":" ","MAREA":"新厝子","LANE":" ","ALLEY":" ","HOUSE_NO":"７０之１１號","E_COORD97":189471.53,"N_COORD97":2582945.0800000001,"ADDRESS":"新厝子７０之１１號","OBJECTID":163910},"geometry":{"x":189471.53000000119,"y":2582945.0799999982}},{"attributes":{"ID":163912,"DIS_CODE":0,"TOWNNAME":"白河區","LI":"永安里","LIN":"18鄰","STREET":" ","SECT":" ","MAREA":"新厝子","LANE":" ","ALLEY":" ","HOUSE_NO":"７０之１２號","E_COORD97":189465.39999999999,"N_COORD97":2582936.4700000002,"ADDRESS":"新厝子７０之１２號","OBJECTID":163911},"geometry":{"x":189465.40000000224,"y":2582936.4700000044}},{"attributes":{"ID":163913,"DIS_CODE":0,"TOWNNAME":"白河區","LI":"永安里","LIN":"18鄰","STREET":" ","SECT":" ","MAREA":"新厝子","LANE":" ","ALLEY":" ","HOUSE_NO":"７０之２０２號","E_COORD97":189291.35999999999,"N_COORD97":2582745.04,"ADDRESS":"新厝子７０之２０２號","OBJECTID":163912},"geometry":{"x":189291.36000000127,"y":2582745.040000001}},{"attributes":{"ID":163914,"DIS_CODE":0,"TOWNNAME":"白河區","LI":"永安里","LIN":"18鄰","STREET":" ","SECT":" ","MAREA":"新厝子","LANE":" ","ALLEY":" ","HOUSE_NO":"７０之２４號","E_COORD97":189564.01000000001,"N_COORD97":2582860.6099999999,"ADDRESS":"新厝子７０之２４號","OBJECTID":163913},"geometry":{"x":189564.01000000164,"y":2582860.6100000013}},{"attributes":{"ID":163915,"DIS_CODE":0,"TOWNNAME":"白河區","LI":"永安里","LIN":"18鄰","STREET":" ","SECT":" ","MAREA":"新厝子","LANE":" ","ALLEY":" ","HOUSE_NO":"７０之２號","E_COORD97":189514.5,"N_COORD97":2582982.1600000001,"ADDRESS":"新厝子７０之２號","OBJECTID":163914},"geometry":{"x":189514.5,"y":2582982.1600000039}},{"attributes":{"ID":163916,"DIS_CODE":0,"TOWNNAME":"仁德區","LI":"後壁里","LIN":"12鄰","STREET":"德南路","SECT":" ","MAREA":" ","LANE":" ","ALLEY":" ","HOUSE_NO":"１７６號","E_COORD97":173672.57000000001,"N_COORD97":2538510.0099999998,"ADDRESS":"德南路１７６號","OBJECTID":163915},"geometry":{"x":173672.5700000003,"y":2538510.0099999998}},{"attributes":{"ID":163917,"DIS_CODE":0,"TOWNNAME":"白河區","LI":"永安里","LIN":"18鄰","STREET":" ","SECT":" ","MAREA":"新厝子","LANE":" ","ALLEY":" ","HOUSE_NO":"７０之３２號","E_COORD97":189521.35999999999,"N_COORD97":2582938.4399999999,"ADDRESS":"新厝子７０之３２號","OBJECTID":163916},"geometry":{"x":189521.3599999994,"y":2582938.4399999995}},{"attributes":{"ID":163918,"DIS_CODE":0,"TOWNNAME":"白河區","LI":"永安里","LIN":"18鄰","STREET":" ","SECT":" ","MAREA":"新厝子","LANE":" ","ALLEY":" ","HOUSE_NO":"７０之６號","E_COORD97":189503.57999999999,"N_COORD97":2582968.1800000002,"ADDRESS":"新厝子７０之６號","OBJECTID":163917},"geometry":{"x":189503.58000000007,"y":2582968.1800000034}},{"attributes":{"ID":163919,"DIS_CODE":0,"TOWNNAME":"白河區","LI":"永安里","LIN":"18鄰","STREET":" ","SECT":" ","MAREA":"新厝子","LANE":" ","ALLEY":" ","HOUSE_NO":"７０之７號","E_COORD97":189497.5,"N_COORD97":2582963.7799999998,"ADDRESS":"新厝子７０之７號","OBJECTID":163918},"geometry":{"x":189497.5,"y":2582963.7800000031}},{"attributes":{"ID":163920,"DIS_CODE":0,"TOWNNAME":"白河區","LI":"永安里","LIN":"18鄰","STREET":" ","SECT":" ","MAREA":"新厝子","LANE":" ","ALLEY":" ","HOUSE_NO":"７０之８號","E_COORD97":189488.45000000001,"N_COORD97":2582956.6699999999,"ADDRESS":"新厝子７０之８號","OBJECTID":163919},"geometry":{"x":189488.45000000205,"y":2582956.6699999999}},{"attributes":{"ID":163921,"DIS_CODE":0,"TOWNNAME":"白河區","LI":"永安里","LIN":"18鄰","STREET":" ","SECT":" ","MAREA":"新厝子","LANE":" ","ALLEY":" ","HOUSE_NO":"７０號","E_COORD97":189556.03,"N_COORD97":2583011.5,"ADDRESS":"新厝子７０號","OBJECTID":163920},"geometry":{"x":189556.03000000119,"y":2583011.5000000019}},{"attributes":{"ID":163922,"DIS_CODE":0,"TOWNNAME":"白河區","LI":"永安里","LIN":"18鄰","STREET":" ","SECT":" ","MAREA":"新厝子","LANE":" ","ALLEY":" ","HOUSE_NO":"７１之１００號","E_COORD97":189281.66,"N_COORD97":2582812.3399999999,"ADDRESS":"新厝子７１之１００號","OBJECTID":163921},"geometry":{"x":189281.66000000015,"y":2582812.3400000017}},{"attributes":{"ID":163923,"DIS_CODE":0,"TOWNNAME":"白河區","LI":"永安里","LIN":"18鄰","STREET":" ","SECT":" ","MAREA":"新厝子","LANE":" ","ALLEY":" ","HOUSE_NO":"７１之１０１號","E_COORD97":189182.17000000001,"N_COORD97":2582816.3399999999,"ADDRESS":"新厝子７１之１０１號","OBJECTID":163922},"geometry":{"x":189182.17000000086,"y":2582816.3399999999}},{"attributes":{"ID":163924,"DIS_CODE":0,"TOWNNAME":"白河區","LI":"永安里","LIN":"18鄰","STREET":" ","SECT":" ","MAREA":"新厝子","LANE":" ","ALLEY":" ","HOUSE_NO":"７１之１１５號","E_COORD97":188706.39000000001,"N_COORD97":2582182.0899999999,"ADDRESS":"新厝子７１之１１５號","OBJECTID":163923},"geometry":{"x":188706.38999999966,"y":2582182.0900000036}},{"attributes":{"ID":163925,"DIS_CODE":0,"TOWNNAME":"白河區","LI":"永安里","LIN":"18鄰","STREET":" ","SECT":" ","MAREA":"新厝子","LANE":" ","ALLEY":" ","HOUSE_NO":"７１之１２７號","E_COORD97":188698.91,"N_COORD97":2582022.21,"ADDRESS":"新厝子７１之１２７號","OBJECTID":163924},"geometry":{"x":188698.91000000108,"y":2582022.2100000009}},{"attributes":{"ID":163926,"DIS_CODE":0,"TOWNNAME":"安南區","LI":"海南里","LIN":"16鄰","STREET":"府安路","SECT":"七段","MAREA":" ","LANE":"１０２巷","ALLEY":"１５弄","HOUSE_NO":"１１號","E_COORD97":165733,"N_COORD97":2545830.1699999999,"ADDRESS":"府安路七段１０２巷１５弄１１號","OBJECTID":163925},"geometry":{"x":165733,"y":2545830.1700000037}},{"attributes":{"ID":163927,"DIS_CODE":0,"TOWNNAME":"安南區","LI":"海南里","LIN":"16鄰","STREET":"府安路","SECT":"七段","MAREA":" ","LANE":"１０２巷","ALLEY":"１５弄","HOUSE_NO":"１３號","E_COORD97":165727.39000000001,"N_COORD97":2545826.7400000002,"ADDRESS":"府安路七段１０２巷１５弄１３號","OBJECTID":163926},"geometry":{"x":165727.3900000006,"y":2545826.7400000039}},{"attributes":{"ID":163928,"DIS_CODE":0,"TOWNNAME":"安南區","LI":"海南里","LIN":"16鄰","STREET":"府安路","SECT":"七段","MAREA":" ","LANE":"１０２巷","ALLEY":"１５弄","HOUSE_NO":"１號","E_COORD97":165753.29999999999,"N_COORD97":2545844.1600000001,"ADDRESS":"府安路七段１０２巷１５弄１號","OBJECTID":163927},"geometry":{"x":165753.30000000075,"y":2545844.1600000039}},{"attributes":{"ID":163929,"DIS_CODE":0,"TOWNNAME":"安南區","LI":"城南里","LIN":"4鄰","STREET":"城西街","SECT":"一段","MAREA":" ","LANE":"６１巷","ALLEY":"１１２弄","HOUSE_NO":"２７號","E_COORD97":160633.20000000001,"N_COORD97":2551260.23,"ADDRESS":"城西街一段６１巷１１２弄２７號","OBJECTID":163928},"geometry":{"x":160633.20000000112,"y":2551260.2300000004}},{"attributes":{"ID":163930,"DIS_CODE":0,"TOWNNAME":"安南區","LI":"城南里","LIN":"4鄰","STREET":"城西街","SECT":"一段","MAREA":" ","LANE":"６１巷","ALLEY":"１１２弄","HOUSE_NO":"２９號","E_COORD97":160630.97,"N_COORD97":2551265.4399999999,"ADDRESS":"城西街一段６１巷１１２弄２９號","OBJECTID":163929},"geometry":{"x":160630.97000000067,"y":2551265.4399999995}},{"attributes":{"ID":163931,"DIS_CODE":0,"TOWNNAME":"安南區","LI":"城南里","LIN":"4鄰","STREET":"城西街","SECT":"一段","MAREA":" ","LANE":"６１巷","ALLEY":"１１２弄","HOUSE_NO":"３１號","E_COORD97":160626.48999999999,"N_COORD97":2551268.4199999999,"ADDRESS":"城西街一段６１巷１１２弄３１號","OBJECTID":163930},"geometry":{"x":160626.49000000115,"y":2551268.4199999999}},{"attributes":{"ID":163932,"DIS_CODE":0,"TOWNNAME":"安南區","LI":"淵東里","LIN":"13鄰","STREET":"本原街","SECT":"三段","MAREA":" ","LANE":"１３４巷","ALLEY":"１９弄","HOUSE_NO":"２２號","E_COORD97":165513.64999999999,"N_COORD97":2550459.6699999999,"ADDRESS":"本原街三段１３４巷１９弄２２號","OBJECTID":163931},"geometry":{"x":165513.65000000037,"y":2550459.6699999999}},{"attributes":{"ID":163933,"DIS_CODE":0,"TOWNNAME":"安南區","LI":"城南里","LIN":"4鄰","STREET":"城西街","SECT":"一段","MAREA":" ","LANE":"６１巷","ALLEY":"２８弄","HOUSE_NO":"５４號","E_COORD97":160607.35000000001,"N_COORD97":2551286.2999999998,"ADDRESS":"城西街一段６１巷２８弄５４號","OBJECTID":163932},"geometry":{"x":160607.34999999963,"y":2551286.3000000026}},{"attributes":{"ID":163934,"DIS_CODE":0,"TOWNNAME":"安南區","LI":"州南里","LIN":"1鄰","STREET":"安和路","SECT":"四段","MAREA":" ","LANE":"４０６巷","ALLEY":"１２弄","HOUSE_NO":"２７號","E_COORD97":170004.82999999999,"N_COORD97":2550983.2799999998,"ADDRESS":"安和路四段４０６巷１２弄２７號","OBJECTID":163933},"geometry":{"x":170004.83000000101,"y":2550983.2800000012}},{"attributes":{"ID":163935,"DIS_CODE":0,"TOWNNAME":"安南區","LI":"淵西里","LIN":"1鄰","STREET":"安中路","SECT":"四段","MAREA":" ","LANE":"２９０巷","ALLEY":"２９１弄","HOUSE_NO":"６０號","E_COORD97":165015.88,"N_COORD97":2550428.54,"ADDRESS":"安中路四段２９０巷２９１弄６０號","OBJECTID":163934},"geometry":{"x":165015.88000000082,"y":2550428.540000001}},{"attributes":{"ID":163936,"DIS_CODE":0,"TOWNNAME":"安南區","LI":"南興里","LIN":"12鄰","STREET":"公學路","SECT":"五段","MAREA":" ","LANE":"５２７巷","ALLEY":"１６弄","HOUSE_NO":"１１號","E_COORD97":163952.01000000001,"N_COORD97":2552500.0299999998,"ADDRESS":"公學路五段５２７巷１６弄１１號","OBJECTID":163935},"geometry":{"x":163952.01000000071,"y":2552500.0300000012}},{"attributes":{"ID":163937,"DIS_CODE":0,"TOWNNAME":"安南區","LI":"南興里","LIN":"12鄰","STREET":"公學路","SECT":"五段","MAREA":" ","LANE":"５２７巷","ALLEY":"１６弄","HOUSE_NO":"１３號","E_COORD97":163942.81,"N_COORD97":2552500.3199999998,"ADDRESS":"公學路五段５２７巷１６弄１３號","OBJECTID":163936},"geometry":{"x":163942.81000000052,"y":2552500.3200000003}},{"attributes":{"ID":163938,"DIS_CODE":0,"TOWNNAME":"安南區","LI":"南興里","LIN":"12鄰","STREET":"公學路","SECT":"五段","MAREA":" ","LANE":"５２７巷","ALLEY":"１６弄","HOUSE_NO":"１５號","E_COORD97":163935.39000000001,"N_COORD97":2552500.0299999998,"ADDRESS":"公學路五段５２７巷１６弄１５號","OBJECTID":163937},"geometry":{"x":163935.3900000006,"y":2552500.0300000012}},{"attributes":{"ID":163939,"DIS_CODE":0,"TOWNNAME":"安南區","LI":"南興里","LIN":"12鄰","STREET":"公學路","SECT":"五段","MAREA":" ","LANE":"５２７巷","ALLEY":"１６弄","HOUSE_NO":"１７號","E_COORD97":163929.23000000001,"N_COORD97":2552498.77,"ADDRESS":"公學路五段５２７巷１６弄１７號","OBJECTID":163938},"geometry":{"x":163929.23000000138,"y":2552498.7700000014}},{"attributes":{"ID":163940,"DIS_CODE":0,"TOWNNAME":"安南區","LI":"南興里","LIN":"12鄰","STREET":"公學路","SECT":"五段","MAREA":" ","LANE":"５２７巷","ALLEY":"１６弄","HOUSE_NO":"１９號","E_COORD97":163921.53,"N_COORD97":2552497.23,"ADDRESS":"公學路五段５２７巷１６弄１９號","OBJECTID":163939},"geometry":{"x":163921.53000000119,"y":2552497.2300000023}},{"attributes":{"ID":163941,"DIS_CODE":0,"TOWNNAME":"安南區","LI":"南興里","LIN":"12鄰","STREET":"公學路","SECT":"五段","MAREA":" ","LANE":"５２７巷","ALLEY":"１６弄","HOUSE_NO":"１號","E_COORD97":163985.79000000001,"N_COORD97":2552504.7400000002,"ADDRESS":"公學路五段５２７巷１６弄１號","OBJECTID":163940},"geometry":{"x":163985.79000000097,"y":2552504.7400000002}},{"attributes":{"ID":163942,"DIS_CODE":0,"TOWNNAME":"安南區","LI":"南興里","LIN":"12鄰","STREET":"公學路","SECT":"五段","MAREA":" ","LANE":"５２７巷","ALLEY":"１６弄","HOUSE_NO":"３號","E_COORD97":163978.10999999999,"N_COORD97":2552508.0699999998,"ADDRESS":"公學路五段５２７巷１６弄３號","OBJECTID":163941},"geometry":{"x":163978.11000000034,"y":2552508.0700000022}},{"attributes":{"ID":163943,"DIS_CODE":0,"TOWNNAME":"安南區","LI":"南興里","LIN":"12鄰","STREET":"公學路","SECT":"五段","MAREA":" ","LANE":"５２７巷","ALLEY":"１６弄","HOUSE_NO":"５號","E_COORD97":163972.10000000001,"N_COORD97":2552502.3999999999,"ADDRESS":"公學路五段５２７巷１６弄５號","OBJECTID":163942},"geometry":{"x":163972.09999999963,"y":2552502.4000000022}},{"attributes":{"ID":163944,"DIS_CODE":0,"TOWNNAME":"安南區","LI":"州南里","LIN":"1鄰","STREET":"安和路","SECT":"四段","MAREA":" ","LANE":"４０６巷","ALLEY":"９弄","HOUSE_NO":"２號","E_COORD97":170010.34,"N_COORD97":2551057.7599999998,"ADDRESS":"安和路四段４０６巷９弄２號","OBJECTID":163943},"geometry":{"x":170010.33999999985,"y":2551057.7600000016}},{"attributes":{"ID":163945,"DIS_CODE":0,"TOWNNAME":"安南區","LI":"州南里","LIN":"1鄰","STREET":"安和路","SECT":"四段","MAREA":" ","LANE":"４０６巷","ALLEY":"９弄","HOUSE_NO":"４號","E_COORD97":170009.17000000001,"N_COORD97":2551063.1299999999,"ADDRESS":"安和路四段４０６巷９弄４號","OBJECTID":163944},"geometry":{"x":170009.17000000086,"y":2551063.129999999}},{"attributes":{"ID":163946,"DIS_CODE":0,"TOWNNAME":"白河區","LI":"永安里","LIN":"18鄰","STREET":" ","SECT":" ","MAREA":"新厝子","LANE":" ","ALLEY":" ","HOUSE_NO":"７１之１３０號","E_COORD97":188597.70999999999,"N_COORD97":2582064.1400000001,"ADDRESS":"新厝子７１之１３０號","OBJECTID":163945},"geometry":{"x":188597.70999999996,"y":2582064.1400000043}},{"attributes":{"ID":163947,"DIS_CODE":0,"TOWNNAME":"安南區","LI":"布袋里","LIN":"8鄰","STREET":"長和路","SECT":"四段","MAREA":" ","LANE":"１６０巷","ALLEY":"５弄","HOUSE_NO":"５３號","E_COORD97":168878.70999999999,"N_COORD97":2551794.27,"ADDRESS":"長和路四段１６０巷５弄５３號","OBJECTID":163946},"geometry":{"x":168878.71000000089,"y":2551794.2700000014}},{"attributes":{"ID":163948,"DIS_CODE":0,"TOWNNAME":"安南區","LI":"布袋里","LIN":"9鄰","STREET":"長和路","SECT":"四段","MAREA":" ","LANE":"１６０巷","ALLEY":"５弄","HOUSE_NO":"７８號","E_COORD97":168860.26999999999,"N_COORD97":2551851.8100000001,"ADDRESS":"長和路四段１６０巷５弄７８號","OBJECTID":163947},"geometry":{"x":168860.27000000142,"y":2551851.8100000024}},{"attributes":{"ID":163949,"DIS_CODE":0,"TOWNNAME":"白河區","LI":"永安里","LIN":"18鄰","STREET":" ","SECT":" ","MAREA":"新厝子","LANE":" ","ALLEY":" ","HOUSE_NO":"７１之１號","E_COORD97":189396.67999999999,"N_COORD97":2582950.4900000002,"ADDRESS":"新厝子７１之１號","OBJECTID":163948},"geometry":{"x":189396.68000000156,"y":2582950.4900000021}},{"attributes":{"ID":163950,"DIS_CODE":0,"TOWNNAME":"白河區","LI":"永安里","LIN":"18鄰","STREET":" ","SECT":" ","MAREA":"新厝子","LANE":" ","ALLEY":" ","HOUSE_NO":"７１之５２號","E_COORD97":189008.73000000001,"N_COORD97":2582583.1099999999,"ADDRESS":"新厝子７１之５２號","OBJECTID":163949},"geometry":{"x":189008.72999999952,"y":2582583.1100000013}},{"attributes":{"ID":163951,"DIS_CODE":0,"TOWNNAME":"白河區","LI":"永安里","LIN":"18鄰","STREET":" ","SECT":" ","MAREA":"新厝子","LANE":" ","ALLEY":" ","HOUSE_NO":"７１之５６號","E_COORD97":189027.59,"N_COORD97":2582548.3599999999,"ADDRESS":"新厝子７１之５６號","OBJECTID":163950},"geometry":{"x":189027.58999999985,"y":2582548.3599999994}},{"attributes":{"ID":163952,"DIS_CODE":0,"TOWNNAME":"白河區","LI":"永安里","LIN":"18鄰","STREET":" ","SECT":" ","MAREA":"新厝子","LANE":" ","ALLEY":" ","HOUSE_NO":"７１之５８號","E_COORD97":189072.92000000001,"N_COORD97":2582615.6800000002,"ADDRESS":"新厝子７１之５８號","OBJECTID":163951},"geometry":{"x":189072.91999999993,"y":2582615.6800000016}},{"attributes":{"ID":163953,"DIS_CODE":0,"TOWNNAME":"白河區","LI":"永安里","LIN":"18鄰","STREET":" ","SECT":" ","MAREA":"新厝子","LANE":" ","ALLEY":" ","HOUSE_NO":"７１之６２號","E_COORD97":189133.16,"N_COORD97":2582675.3799999999,"ADDRESS":"新厝子７１之６２號","OBJECTID":163952},"geometry":{"x":189133.16000000108,"y":2582675.3800000008}},{"attributes":{"ID":163954,"DIS_CODE":0,"TOWNNAME":"白河區","LI":"永安里","LIN":"18鄰","STREET":" ","SECT":" ","MAREA":"新厝子","LANE":" ","ALLEY":" ","HOUSE_NO":"７１之６６號","E_COORD97":189214.59,"N_COORD97":2582729.0099999998,"ADDRESS":"新厝子７１之６６號","OBJECTID":163953},"geometry":{"x":189214.59000000078,"y":2582729.0100000016}},{"attributes":{"ID":163955,"DIS_CODE":0,"TOWNNAME":"白河區","LI":"永安里","LIN":"18鄰","STREET":" ","SECT":" ","MAREA":"新厝子","LANE":" ","ALLEY":" ","HOUSE_NO":"７１號","E_COORD97":189167.04000000001,"N_COORD97":2582761.1299999999,"ADDRESS":"新厝子７１號","OBJECTID":163954},"geometry":{"x":189167.04000000004,"y":2582761.1300000008}},{"attributes":{"ID":163956,"DIS_CODE":0,"TOWNNAME":"白河區","LI":"永安里","LIN":"18鄰","STREET":" ","SECT":" ","MAREA":"新厝子","LANE":" ","ALLEY":" ","HOUSE_NO":"７２號","E_COORD97":189432.29000000001,"N_COORD97":2582948.2000000002,"ADDRESS":"新厝子７２號","OBJECTID":163955},"geometry":{"x":189432.29000000097,"y":2582948.2000000011}},{"attributes":{"ID":163957,"DIS_CODE":0,"TOWNNAME":"白河區","LI":"永安里","LIN":"18鄰","STREET":" ","SECT":" ","MAREA":"新厝子","LANE":" ","ALLEY":" ","HOUSE_NO":"９３號","E_COORD97":189546.42999999999,"N_COORD97":2583039.1899999999,"ADDRESS":"新厝子９３號","OBJECTID":163956},"geometry":{"x":189546.43000000063,"y":2583039.1900000013}},{"attributes":{"ID":163958,"DIS_CODE":0,"TOWNNAME":"官田區","LI":"官田里","LIN":"18鄰","STREET":" ","SECT":" ","MAREA":"官田","LANE":" ","ALLEY":" ","HOUSE_NO":"２４１號之２","E_COORD97":182312.54999999999,"N_COORD97":2564451.1000000001,"ADDRESS":"官田２４１號之２","OBJECTID":163957},"geometry":{"x":182312.54999999981,"y":2564451.1000000015}},{"attributes":{"ID":163959,"DIS_CODE":0,"TOWNNAME":"官田區","LI":"官田里","LIN":"18鄰","STREET":" ","SECT":" ","MAREA":"官田","LANE":" ","ALLEY":" ","HOUSE_NO":"２４１號之３","E_COORD97":182308.67000000001,"N_COORD97":2564454.2999999998,"ADDRESS":"官田２４１號之３","OBJECTID":163958},"geometry":{"x":182308.66999999993,"y":2564454.3000000026}},{"attributes":{"ID":163960,"DIS_CODE":0,"TOWNNAME":"官田區","LI":"官田里","LIN":"18鄰","STREET":" ","SECT":" ","MAREA":"官田","LANE":" ","ALLEY":" ","HOUSE_NO":"２４１號之４","E_COORD97":182304.59,"N_COORD97":2564457.7400000002,"ADDRESS":"官田２４１號之４","OBJECTID":163959},"geometry":{"x":182304.59000000171,"y":2564457.7400000021}},{"attributes":{"ID":163961,"DIS_CODE":0,"TOWNNAME":"官田區","LI":"官田里","LIN":"18鄰","STREET":" ","SECT":" ","MAREA":"官田","LANE":" ","ALLEY":" ","HOUSE_NO":"２４１號之５","E_COORD97":182299.98999999999,"N_COORD97":2564460.4199999999,"ADDRESS":"官田２４１號之５","OBJECTID":163960},"geometry":{"x":182299.99000000022,"y":2564460.4199999999}},{"attributes":{"ID":163962,"DIS_CODE":0,"TOWNNAME":"官田區","LI":"官田里","LIN":"18鄰","STREET":" ","SECT":" ","MAREA":"官田","LANE":" ","ALLEY":" ","HOUSE_NO":"２４１號","E_COORD97":182323.60000000001,"N_COORD97":2564437.8799999999,"ADDRESS":"官田２４１號","OBJECTID":163961},"geometry":{"x":182323.60000000056,"y":2564437.8800000008}},{"attributes":{"ID":163963,"DIS_CODE":0,"TOWNNAME":"官田區","LI":"官田里","LIN":"18鄰","STREET":" ","SECT":" ","MAREA":"官田","LANE":" ","ALLEY":" ","HOUSE_NO":"２４２號","E_COORD97":182292.95999999999,"N_COORD97":2564450.2400000002,"ADDRESS":"官田２４２號","OBJECTID":163962},"geometry":{"x":182292.95999999996,"y":2564450.2400000021}},{"attributes":{"ID":163964,"DIS_CODE":0,"TOWNNAME":"官田區","LI":"官田里","LIN":"18鄰","STREET":" ","SECT":" ","MAREA":"官田","LANE":" ","ALLEY":" ","HOUSE_NO":"２４３號","E_COORD97":182294.48999999999,"N_COORD97":2564424.8300000001,"ADDRESS":"官田２４３號","OBJECTID":163963},"geometry":{"x":182294.49000000115,"y":2564424.8300000001}},{"attributes":{"ID":163965,"DIS_CODE":0,"TOWNNAME":"官田區","LI":"官田里","LIN":"18鄰","STREET":" ","SECT":" ","MAREA":"官田","LANE":" ","ALLEY":" ","HOUSE_NO":"２４４號","E_COORD97":182314.29999999999,"N_COORD97":2564430.3999999999,"ADDRESS":"官田２４４號","OBJECTID":163964},"geometry":{"x":182314.29999999981,"y":2564430.4000000004}},{"attributes":{"ID":163966,"DIS_CODE":0,"TOWNNAME":"官田區","LI":"東庄里","LIN":"18鄰","STREET":" ","SECT":" ","MAREA":"瓦\u25A0","LANE":" ","ALLEY":" ","HOUSE_NO":"１０號之１","E_COORD97":179080.66,"N_COORD97":2565043.0099999998,"ADDRESS":"瓦\u25A0１０號之１","OBJECTID":163965},"geometry":{"x":179080.66000000108,"y":2565043.0099999998}},{"attributes":{"ID":163967,"DIS_CODE":0,"TOWNNAME":"官田區","LI":"東庄里","LIN":"18鄰","STREET":" ","SECT":" ","MAREA":"瓦\u25A0","LANE":" ","ALLEY":" ","HOUSE_NO":"１０號之２","E_COORD97":179081.85999999999,"N_COORD97":2565037.3300000001,"ADDRESS":"瓦\u25A0１０號之２","OBJECTID":163966},"geometry":{"x":179081.86000000034,"y":2565037.3300000019}},{"attributes":{"ID":163968,"DIS_CODE":0,"TOWNNAME":"官田區","LI":"東庄里","LIN":"18鄰","STREET":" ","SECT":" ","MAREA":"瓦\u25A0","LANE":" ","ALLEY":" ","HOUSE_NO":"１０號","E_COORD97":179087.45000000001,"N_COORD97":2565026.46,"ADDRESS":"瓦\u25A0１０號","OBJECTID":163967},"geometry":{"x":179087.45000000112,"y":2565026.4600000028}},{"attributes":{"ID":163969,"DIS_CODE":0,"TOWNNAME":"官田區","LI":"東庄里","LIN":"18鄰","STREET":" ","SECT":" ","MAREA":"瓦\u25A0","LANE":" ","ALLEY":" ","HOUSE_NO":"１號之５","E_COORD97":179139.09,"N_COORD97":2564758.6499999999,"ADDRESS":"瓦\u25A0１號之５","OBJECTID":163968},"geometry":{"x":179139.08999999985,"y":2564758.6500000004}},{"attributes":{"ID":163970,"DIS_CODE":0,"TOWNNAME":"官田區","LI":"東庄里","LIN":"18鄰","STREET":" ","SECT":" ","MAREA":"瓦\u25A0","LANE":" ","ALLEY":" ","HOUSE_NO":"１號","E_COORD97":179119.48999999999,"N_COORD97":2564867.8599999999,"ADDRESS":"瓦\u25A0１號","OBJECTID":163969},"geometry":{"x":179119.49000000115,"y":2564867.8599999994}},{"attributes":{"ID":163971,"DIS_CODE":0,"TOWNNAME":"官田區","LI":"東庄里","LIN":"18鄰","STREET":" ","SECT":" ","MAREA":"瓦\u25A0","LANE":" ","ALLEY":" ","HOUSE_NO":"２號","E_COORD97":179072.5,"N_COORD97":2564878.46,"ADDRESS":"瓦\u25A0２號","OBJECTID":163970},"geometry":{"x":179072.5,"y":2564878.4600000009}},{"attributes":{"ID":163972,"DIS_CODE":0,"TOWNNAME":"官田區","LI":"東庄里","LIN":"18鄰","STREET":" ","SECT":" ","MAREA":"瓦\u25A0","LANE":" ","ALLEY":" ","HOUSE_NO":"３號","E_COORD97":179093.76000000001,"N_COORD97":2564875.0499999998,"ADDRESS":"瓦\u25A0３號","OBJECTID":163971},"geometry":{"x":179093.75999999978,"y":2564875.0500000007}},{"attributes":{"ID":163973,"DIS_CODE":0,"TOWNNAME":"官田區","LI":"東庄里","LIN":"18鄰","STREET":" ","SECT":" ","MAREA":"瓦\u25A0","LANE":" ","ALLEY":" ","HOUSE_NO":"４號","E_COORD97":179089.39000000001,"N_COORD97":2564895.77,"ADDRESS":"瓦\u25A0４號","OBJECTID":163972},"geometry":{"x":179089.38999999966,"y":2564895.7699999996}},{"attributes":{"ID":163974,"DIS_CODE":0,"TOWNNAME":"安南區","LI":"州南里","LIN":"1鄰","STREET":"安和路","SECT":"四段","MAREA":" ","LANE":"４０６巷","ALLEY":"９弄","HOUSE_NO":"６號","E_COORD97":170008.94,"N_COORD97":2551069.8900000001,"ADDRESS":"安和路四段４０６巷９弄６號","OBJECTID":163973},"geometry":{"x":170008.94000000041,"y":2551069.8900000006}},{"attributes":{"ID":163975,"DIS_CODE":0,"TOWNNAME":"安南區","LI":"州北里","LIN":"18鄰","STREET":"安昌街","SECT":" ","MAREA":" ","LANE":"８５巷","ALLEY":"９７弄","HOUSE_NO":"３０號","E_COORD97":169878.06,"N_COORD97":2552463.6200000001,"ADDRESS":"安昌街８５巷９７弄３０號","OBJECTID":163974},"geometry":{"x":169878.05999999959,"y":2552463.6200000029}},{"attributes":{"ID":163976,"DIS_CODE":0,"TOWNNAME":"安南區","LI":"海西里","LIN":"4鄰","STREET":"海中街","SECT":" ","MAREA":" ","LANE":" ","ALLEY":" ","HOUSE_NO":"１５５號","E_COORD97":166350.89000000001,"N_COORD97":2549102.6699999999,"ADDRESS":"海中街１５５號","OBJECTID":163975},"geometry":{"x":166350.8900000006,"y":2549102.6700000018}},{"attributes":{"ID":163977,"DIS_CODE":0,"TOWNNAME":"安南區","LI":"州北里","LIN":"4鄰","STREET":"安和路","SECT":"五段","MAREA":" ","LANE":"１７１巷","ALLEY":"１８１弄","HOUSE_NO":"３１號","E_COORD97":169683.82999999999,"N_COORD97":2551679.96,"ADDRESS":"安和路五段１７１巷１８１弄３１號","OBJECTID":163976},"geometry":{"x":169683.83000000007,"y":2551679.9600000009}},{"attributes":{"ID":163978,"DIS_CODE":0,"TOWNNAME":"安南區","LI":"州北里","LIN":"4鄰","STREET":"安和路","SECT":"五段","MAREA":" ","LANE":"１７１巷","ALLEY":"１８１弄","HOUSE_NO":"３５號","E_COORD97":169692.37,"N_COORD97":2551668.3300000001,"ADDRESS":"安和路五段１７１巷１８１弄３５號","OBJECTID":163977},"geometry":{"x":169692.37000000011,"y":2551668.3300000019}},{"attributes":{"ID":163979,"DIS_CODE":0,"TOWNNAME":"安南區","LI":"州南里","LIN":"25鄰","STREET":"安和路","SECT":"四段","MAREA":" ","LANE":"５３８巷","ALLEY":"１３弄","HOUSE_NO":"１７號","E_COORD97":169997.97,"N_COORD97":2551356,"ADDRESS":"安和路四段５３８巷１３弄１７號","OBJECTID":163978},"geometry":{"x":169997.96999999974,"y":2551356}},{"attributes":{"ID":163980,"DIS_CODE":0,"TOWNNAME":"安南區","LI":"州南里","LIN":"25鄰","STREET":"安和路","SECT":"四段","MAREA":" ","LANE":"５３８巷","ALLEY":"１３弄","HOUSE_NO":"１８號","E_COORD97":170012.63,"N_COORD97":2551342.3900000001,"ADDRESS":"安和路四段５３８巷１３弄１８號","OBJECTID":163979},"geometry":{"x":170012.63000000175,"y":2551342.3900000025}},{"attributes":{"ID":163981,"DIS_CODE":0,"TOWNNAME":"安南區","LI":"州南里","LIN":"25鄰","STREET":"安和路","SECT":"四段","MAREA":" ","LANE":"５３８巷","ALLEY":"１３弄","HOUSE_NO":"１號","E_COORD97":169984.69,"N_COORD97":2551324.6400000001,"ADDRESS":"安和路四段５３８巷１３弄１號","OBJECTID":163980},"geometry":{"x":169984.69000000134,"y":2551324.6400000025}},{"attributes":{"ID":163982,"DIS_CODE":0,"TOWNNAME":"安南區","LI":"州南里","LIN":"25鄰","STREET":"安和路","SECT":"四段","MAREA":" ","LANE":"５３８巷","ALLEY":"１３弄","HOUSE_NO":"２２號","E_COORD97":170016.42999999999,"N_COORD97":2551349.6299999999,"ADDRESS":"安和路四段５３８巷１３弄２２號","OBJECTID":163981},"geometry":{"x":170016.4299999997,"y":2551349.6300000008}},{"attributes":{"ID":163983,"DIS_CODE":0,"TOWNNAME":"安南區","LI":"州南里","LIN":"25鄰","STREET":"安和路","SECT":"四段","MAREA":" ","LANE":"５３８巷","ALLEY":"１３弄","HOUSE_NO":"２４號","E_COORD97":170019.19,"N_COORD97":2551354.2799999998,"ADDRESS":"安和路四段５３８巷１３弄２４號","OBJECTID":163982},"geometry":{"x":170019.19000000041,"y":2551354.2799999993}},{"attributes":{"ID":163984,"DIS_CODE":0,"TOWNNAME":"安南區","LI":"州南里","LIN":"25鄰","STREET":"安和路","SECT":"四段","MAREA":" ","LANE":"５３８巷","ALLEY":"１３弄","HOUSE_NO":"２６號","E_COORD97":170020.22,"N_COORD97":2551358.4100000001,"ADDRESS":"安和路四段５３８巷１３弄２６號","OBJECTID":163983},"geometry":{"x":170020.21999999881,"y":2551358.4100000039}},{"attributes":{"ID":163985,"DIS_CODE":0,"TOWNNAME":"安南區","LI":"州南里","LIN":"25鄰","STREET":"安和路","SECT":"四段","MAREA":" ","LANE":"５３８巷","ALLEY":"１３弄","HOUSE_NO":"２８號","E_COORD97":170021.42999999999,"N_COORD97":2551363.0699999998,"ADDRESS":"安和路四段５３８巷１３弄２８號","OBJECTID":163984},"geometry":{"x":170021.4299999997,"y":2551363.0700000003}},{"attributes":{"ID":163986,"DIS_CODE":0,"TOWNNAME":"安南區","LI":"州北里","LIN":"18鄰","STREET":"安昌街","SECT":" ","MAREA":" ","LANE":"８５巷","ALLEY":"９７弄","HOUSE_NO":"１２號","E_COORD97":169880.66,"N_COORD97":2552425.8599999999,"ADDRESS":"安昌街８５巷９７弄１２號","OBJECTID":163985},"geometry":{"x":169880.66000000108,"y":2552425.8600000031}},{"attributes":{"ID":163987,"DIS_CODE":0,"TOWNNAME":"永康區","LI":"復國里","LIN":"12鄰","STREET":"復國二路","SECT":" ","MAREA":" ","LANE":"１０４巷","ALLEY":" ","HOUSE_NO":"４號","E_COORD97":172875.56,"N_COORD97":2545305.5299999998,"ADDRESS":"復國二路１０４巷４號","OBJECTID":163986},"geometry":{"x":172875.55999999959,"y":2545305.5300000012}},{"attributes":{"ID":163988,"DIS_CODE":0,"TOWNNAME":"東區","LI":"崇信里","LIN":"24鄰","STREET":"崇善一街","SECT":" ","MAREA":" ","LANE":" ","ALLEY":" ","HOUSE_NO":"８０號十五樓","E_COORD97":170834.92000000001,"N_COORD97":2542294.98,"ADDRESS":"崇善一街８０號十五樓","OBJECTID":163987},"geometry":{"x":170834.92000000086,"y":2542294.9800000004}},{"attributes":{"ID":163989,"DIS_CODE":0,"TOWNNAME":"東區","LI":"崇信里","LIN":"24鄰","STREET":"崇善一街","SECT":" ","MAREA":" ","LANE":" ","ALLEY":" ","HOUSE_NO":"８０號十五樓之１","E_COORD97":170834.92000000001,"N_COORD97":2542294.98,"ADDRESS":"崇善一街８０號十五樓之１","OBJECTID":163988},"geometry":{"x":170834.92000000086,"y":2542294.9800000004}},{"attributes":{"ID":163990,"DIS_CODE":0,"TOWNNAME":"東區","LI":"崇信里","LIN":"24鄰","STREET":"崇善一街","SECT":" ","MAREA":" ","LANE":" ","ALLEY":" ","HOUSE_NO":"８０號十五樓之２","E_COORD97":170834.92000000001,"N_COORD97":2542294.98,"ADDRESS":"崇善一街８０號十五樓之２","OBJECTID":163989},"geometry":{"x":170834.92000000086,"y":2542294.9800000004}},{"attributes":{"ID":163991,"DIS_CODE":0,"TOWNNAME":"東區","LI":"崇信里","LIN":"24鄰","STREET":"崇善一街","SECT":" ","MAREA":" ","LANE":" ","ALLEY":" ","HOUSE_NO":"８０號十六樓","E_COORD97":170834.92000000001,"N_COORD97":2542294.98,"ADDRESS":"崇善一街８０號十六樓","OBJECTID":163990},"geometry":{"x":170834.92000000086,"y":2542294.9800000004}},{"attributes":{"ID":163992,"DIS_CODE":0,"TOWNNAME":"東區","LI":"崇信里","LIN":"24鄰","STREET":"崇善一街","SECT":" ","MAREA":" ","LANE":" ","ALLEY":" ","HOUSE_NO":"８０號十六樓之１","E_COORD97":170834.92000000001,"N_COORD97":2542294.98,"ADDRESS":"崇善一街８０號十六樓之１","OBJECTID":163991},"geometry":{"x":170834.92000000086,"y":2542294.9800000004}},{"attributes":{"ID":163993,"DIS_CODE":0,"TOWNNAME":"東區","LI":"崇信里","LIN":"24鄰","STREET":"崇善一街","SECT":" ","MAREA":" ","LANE":" ","ALLEY":" ","HOUSE_NO":"８０號十六樓之２","E_COORD97":170834.92000000001,"N_COORD97":2542294.98,"ADDRESS":"崇善一街８０號十六樓之２","OBJECTID":163992},"geometry":{"x":170834.92000000086,"y":2542294.9800000004}},{"attributes":{"ID":163994,"DIS_CODE":0,"TOWNNAME":"東區","LI":"崇信里","LIN":"24鄰","STREET":"崇善一街","SECT":" ","MAREA":" ","LANE":" ","ALLEY":" ","HOUSE_NO":"８０號十四樓","E_COORD97":170834.92000000001,"N_COORD97":2542294.98,"ADDRESS":"崇善一街８０號十四樓","OBJECTID":163993},"geometry":{"x":170834.92000000086,"y":2542294.9800000004}},{"attributes":{"ID":163995,"DIS_CODE":0,"TOWNNAME":"東區","LI":"崇信里","LIN":"24鄰","STREET":"崇善一街","SECT":" ","MAREA":" ","LANE":" ","ALLEY":" ","HOUSE_NO":"８０號十四樓之１","E_COORD97":170834.92000000001,"N_COORD97":2542294.98,"ADDRESS":"崇善一街８０號十四樓之１","OBJECTID":163994},"geometry":{"x":170834.92000000086,"y":2542294.9800000004}},{"attributes":{"ID":163996,"DIS_CODE":0,"TOWNNAME":"東區","LI":"崇信里","LIN":"24鄰","STREET":"崇善一街","SECT":" ","MAREA":" ","LANE":" ","ALLEY":" ","HOUSE_NO":"８０號十四樓之２","E_COORD97":170834.92000000001,"N_COORD97":2542294.98,"ADDRESS":"崇善一街８０號十四樓之２","OBJECTID":163995},"geometry":{"x":170834.92000000086,"y":2542294.9800000004}},{"attributes":{"ID":163997,"DIS_CODE":0,"TOWNNAME":"東區","LI":"崇信里","LIN":"24鄰","STREET":"崇善一街","SECT":" ","MAREA":" ","LANE":" ","ALLEY":" ","HOUSE_NO":"８０號十樓","E_COORD97":170834.92000000001,"N_COORD97":2542294.98,"ADDRESS":"崇善一街８０號十樓","OBJECTID":163996},"geometry":{"x":170834.92000000086,"y":2542294.9800000004}},{"attributes":{"ID":163998,"DIS_CODE":0,"TOWNNAME":"東區","LI":"崇信里","LIN":"24鄰","STREET":"崇善一街","SECT":" ","MAREA":" ","LANE":" ","ALLEY":" ","HOUSE_NO":"８０號十樓之１","E_COORD97":170834.92000000001,"N_COORD97":2542294.98,"ADDRESS":"崇善一街８０號十樓之１","OBJECTID":163997},"geometry":{"x":170834.92000000086,"y":2542294.9800000004}},{"attributes":{"ID":163999,"DIS_CODE":0,"TOWNNAME":"東區","LI":"崇信里","LIN":"24鄰","STREET":"崇善一街","SECT":" ","MAREA":" ","LANE":" ","ALLEY":" ","HOUSE_NO":"８０號十樓之２","E_COORD97":170834.92000000001,"N_COORD97":2542294.98,"ADDRESS":"崇善一街８０號十樓之２","OBJECTID":163998},"geometry":{"x":170834.92000000086,"y":2542294.9800000004}},{"attributes":{"ID":164000,"DIS_CODE":0,"TOWNNAME":"東區","LI":"崇信里","LIN":"24鄰","STREET":"崇善一街","SECT":" ","MAREA":" ","LANE":" ","ALLEY":" ","HOUSE_NO":"８０號三樓","E_COORD97":170834.92000000001,"N_COORD97":2542294.98,"ADDRESS":"崇善一街８０號三樓","OBJECTID":163999},"geometry":{"x":170834.92000000086,"y":2542294.9800000004}},{"attributes":{"ID":164001,"DIS_CODE":0,"TOWNNAME":"東區","LI":"崇信里","LIN":"24鄰","STREET":"崇善一街","SECT":" ","MAREA":" ","LANE":" ","ALLEY":" ","HOUSE_NO":"８０號五樓","E_COORD97":170834.92000000001,"N_COORD97":2542294.98,"ADDRESS":"崇善一街８０號五樓","OBJECTID":164000},"geometry":{"x":170834.92000000086,"y":2542294.9800000004}}]}