{"displayFieldName":"TOWNNAME","fieldAliases":{"ID":"ID","DIS_CODE":"DIS_CODE","TOWNNAME":"TOWNNAME","LI":"LI","LIN":"LIN","STREET":"STREET","SECT":"SECT","MAREA":"MAREA","LANE":"LANE","ALLEY":"ALLEY","HOUSE_NO":"HOUSE_NO","E_COORD97":"E_COORD97","N_COORD97":"N_COORD97","ADDRESS":"ADDRESS","OBJECTID":"OBJECTID"},"geometryType":"esriGeometryPoint","spatialReference":{"wkid":102443,"latestWkid":3826},"fields":[{"name":"ID","type":"esriFieldTypeDouble","alias":"ID"},{"name":"DIS_CODE","type":"esriFieldTypeInteger","alias":"DIS_CODE"},{"name":"TOWNNAME","type":"esriFieldTypeString","alias":"TOWNNAME","length":8},{"name":"LI","type":"esriFieldTypeString","alias":"LI","length":8},{"name":"LIN","type":"esriFieldTypeString","alias":"LIN","length":12},{"name":"STREET","type":"esriFieldTypeString","alias":"STREET","length":20},{"name":"SECT","type":"esriFieldTypeString","alias":"SECT","length":8},{"name":"MAREA","type":"esriFieldTypeString","alias":"MAREA","length":12},{"name":"LANE","type":"esriFieldTypeString","alias":"LANE","length":10},{"name":"ALLEY","type":"esriFieldTypeString","alias":"ALLEY","length":10},{"name":"HOUSE_NO","type":"esriFieldTypeString","alias":"HOUSE_NO","length":20},{"name":"E_COORD97","type":"esriFieldTypeDouble","alias":"E_COORD97"},{"name":"N_COORD97","type":"esriFieldTypeDouble","alias":"N_COORD97"},{"name":"ADDRESS","type":"esriFieldTypeString","alias":"ADDRESS","length":50},{"name":"OBJECTID","type":"esriFieldTypeOID","alias":"OBJECTID"}],"features":[{"attributes":{"ID":19601,"DIS_CODE":0,"TOWNNAME":"安南區","LI":"頂安里","LIN":"14鄰","STREET":"長溪路","SECT":"一段","MAREA":" ","LANE":"４０７巷","ALLEY":"１６弄","HOUSE_NO":"５２號","E_COORD97":168476.04000000001,"N_COORD97":2548933.3900000001,"ADDRESS":"長溪路一段４０７巷１６弄５２號","OBJECTID":19601},"geometry":{"x":168476.04000000097,"y":2548933.3900000006}},{"attributes":{"ID":19602,"DIS_CODE":0,"TOWNNAME":"安南區","LI":"頂安里","LIN":"14鄰","STREET":"長溪路","SECT":"一段","MAREA":" ","LANE":"４０７巷","ALLEY":"１６弄","HOUSE_NO":"５６號","E_COORD97":168471.5,"N_COORD97":2548934.3399999999,"ADDRESS":"長溪路一段４０７巷１６弄５６號","OBJECTID":19602},"geometry":{"x":168471.50000000093,"y":2548934.3400000036}},{"attributes":{"ID":19603,"DIS_CODE":0,"TOWNNAME":"安南區","LI":"頂安里","LIN":"14鄰","STREET":"長溪路","SECT":"一段","MAREA":" ","LANE":"４０７巷","ALLEY":"１６弄","HOUSE_NO":"５８號","E_COORD97":168467.72,"N_COORD97":2548935.6600000001,"ADDRESS":"長溪路一段４０７巷１６弄５８號","OBJECTID":19603},"geometry":{"x":168467.72000000067,"y":2548935.6600000001}},{"attributes":{"ID":19604,"DIS_CODE":0,"TOWNNAME":"麻豆區","LI":"油車里","LIN":"14鄰","STREET":" ","SECT":" ","MAREA":"油車","LANE":" ","ALLEY":" ","HOUSE_NO":"１０２號之２","E_COORD97":172353.57000000001,"N_COORD97":2565852.7799999998,"ADDRESS":"油車１０２號之２","OBJECTID":19604},"geometry":{"x":172353.57000000123,"y":2565852.7800000012}},{"attributes":{"ID":19605,"DIS_CODE":0,"TOWNNAME":"麻豆區","LI":"油車里","LIN":"14鄰","STREET":" ","SECT":" ","MAREA":"油車","LANE":" ","ALLEY":" ","HOUSE_NO":"１０２號","E_COORD97":172357.82999999999,"N_COORD97":2565835.1600000001,"ADDRESS":"油車１０２號","OBJECTID":19605},"geometry":{"x":172357.83000000101,"y":2565835.160000002}},{"attributes":{"ID":19606,"DIS_CODE":0,"TOWNNAME":"麻豆區","LI":"油車里","LIN":"14鄰","STREET":" ","SECT":" ","MAREA":"油車","LANE":" ","ALLEY":" ","HOUSE_NO":"１０３號之１","E_COORD97":172354.01000000001,"N_COORD97":2565808.8799999999,"ADDRESS":"油車１０３號之１","OBJECTID":19606},"geometry":{"x":172354.00999999978,"y":2565808.879999999}},{"attributes":{"ID":19607,"DIS_CODE":0,"TOWNNAME":"學甲區","LI":"明宜里","LIN":"15鄰","STREET":"中山路","SECT":" ","MAREA":" ","LANE":" ","ALLEY":" ","HOUSE_NO":"１１８號之２","E_COORD97":166115.01000000001,"N_COORD97":2570519.21,"ADDRESS":"中山路１１８號之２","OBJECTID":19607},"geometry":{"x":166115.01000000071,"y":2570519.2100000009}},{"attributes":{"ID":19608,"DIS_CODE":0,"TOWNNAME":"學甲區","LI":"明宜里","LIN":"15鄰","STREET":"中山路","SECT":" ","MAREA":" ","LANE":" ","ALLEY":" ","HOUSE_NO":"１１８號","E_COORD97":166122.48000000001,"N_COORD97":2570517.6899999999,"ADDRESS":"中山路１１８號","OBJECTID":19608},"geometry":{"x":166122.48000000138,"y":2570517.6899999995}},{"attributes":{"ID":19609,"DIS_CODE":0,"TOWNNAME":"麻豆區","LI":"油車里","LIN":"14鄰","STREET":" ","SECT":" ","MAREA":"油車","LANE":" ","ALLEY":" ","HOUSE_NO":"１０３號之２","E_COORD97":172332.70999999999,"N_COORD97":2565804.3799999999,"ADDRESS":"油車１０３號之２","OBJECTID":19609},"geometry":{"x":172332.70999999903,"y":2565804.3800000008}},{"attributes":{"ID":19610,"DIS_CODE":0,"TOWNNAME":"安南區","LI":"頂安里","LIN":"14鄰","STREET":"長溪路","SECT":"一段","MAREA":" ","LANE":"４０７巷","ALLEY":"１６弄","HOUSE_NO":"６０號","E_COORD97":168462.79999999999,"N_COORD97":2548937.1699999999,"ADDRESS":"長溪路一段４０７巷１６弄６０號","OBJECTID":19610},"geometry":{"x":168462.80000000075,"y":2548937.1700000018}},{"attributes":{"ID":19611,"DIS_CODE":0,"TOWNNAME":"安南區","LI":"頂安里","LIN":"14鄰","STREET":"長溪路","SECT":"一段","MAREA":" ","LANE":"４０７巷","ALLEY":"１６弄","HOUSE_NO":"６２號","E_COORD97":168464.92999999999,"N_COORD97":2548952.1099999999,"ADDRESS":"長溪路一段４０７巷１６弄６２號","OBJECTID":19611},"geometry":{"x":168464.93000000063,"y":2548952.1099999994}},{"attributes":{"ID":19612,"DIS_CODE":0,"TOWNNAME":"安南區","LI":"頂安里","LIN":"14鄰","STREET":"長溪路","SECT":"一段","MAREA":" ","LANE":"４０７巷","ALLEY":"１６弄","HOUSE_NO":"６８號","E_COORD97":168467.01000000001,"N_COORD97":2548960.0499999998,"ADDRESS":"長溪路一段４０７巷１６弄６８號","OBJECTID":19612},"geometry":{"x":168467.00999999978,"y":2548960.0500000007}},{"attributes":{"ID":19613,"DIS_CODE":0,"TOWNNAME":"安南區","LI":"頂安里","LIN":"14鄰","STREET":"長溪路","SECT":"一段","MAREA":" ","LANE":"４０７巷","ALLEY":"１６弄","HOUSE_NO":"７０號","E_COORD97":168467.76000000001,"N_COORD97":2548963.8300000001,"ADDRESS":"長溪路一段４０７巷１６弄７０號","OBJECTID":19613},"geometry":{"x":168467.76000000071,"y":2548963.8300000001}},{"attributes":{"ID":19614,"DIS_CODE":0,"TOWNNAME":"安南區","LI":"頂安里","LIN":"14鄰","STREET":"長溪路","SECT":"一段","MAREA":" ","LANE":"４０７巷","ALLEY":"１６弄","HOUSE_NO":"７２號","E_COORD97":168482.51999999999,"N_COORD97":2548948.71,"ADDRESS":"長溪路一段４０７巷１６弄７２號","OBJECTID":19614},"geometry":{"x":168482.52000000048,"y":2548948.7100000009}},{"attributes":{"ID":19615,"DIS_CODE":0,"TOWNNAME":"安南區","LI":"頂安里","LIN":"14鄰","STREET":"長溪路","SECT":"一段","MAREA":" ","LANE":"４０７巷","ALLEY":"１６弄","HOUSE_NO":"６６號","E_COORD97":168465.87,"N_COORD97":2548956.27,"ADDRESS":"長溪路一段４０７巷１６弄６６號","OBJECTID":19615},"geometry":{"x":168465.87000000104,"y":2548956.2700000014}},{"attributes":{"ID":19616,"DIS_CODE":0,"TOWNNAME":"安南區","LI":"頂安里","LIN":"14鄰","STREET":"長溪路","SECT":"一段","MAREA":" ","LANE":"４０７巷","ALLEY":"１６弄","HOUSE_NO":"７６號","E_COORD97":168486.69,"N_COORD97":2548947.5699999998,"ADDRESS":"長溪路一段４０７巷１６弄７６號","OBJECTID":19616},"geometry":{"x":168486.69000000041,"y":2548947.5700000022}},{"attributes":{"ID":19617,"DIS_CODE":0,"TOWNNAME":"永康區","LI":"正強里","LIN":"14鄰","STREET":"正強街","SECT":" ","MAREA":" ","LANE":"１１１巷","ALLEY":"１５弄","HOUSE_NO":"３號","E_COORD97":173270.63,"N_COORD97":2547390.8700000001,"ADDRESS":"正強街１１１巷１５弄３號","OBJECTID":19617},"geometry":{"x":173270.62999999896,"y":2547390.8700000029}},{"attributes":{"ID":19618,"DIS_CODE":0,"TOWNNAME":"永康區","LI":"西灣里","LIN":"14鄰","STREET":"民族路","SECT":" ","MAREA":" ","LANE":"４１５巷","ALLEY":"１８弄","HOUSE_NO":"８號","E_COORD97":174751.07999999999,"N_COORD97":2545317.02,"ADDRESS":"民族路４１５巷１８弄８號","OBJECTID":19618},"geometry":{"x":174751.07999999914,"y":2545317.0200000014}},{"attributes":{"ID":19619,"DIS_CODE":0,"TOWNNAME":"永康區","LI":"安康里","LIN":"14鄰","STREET":"中華路","SECT":" ","MAREA":" ","LANE":"６１９巷","ALLEY":"８８弄","HOUSE_NO":"２８號","E_COORD97":170891.94,"N_COORD97":2546062.2400000002,"ADDRESS":"中華路６１９巷８８弄２８號","OBJECTID":19619},"geometry":{"x":170891.94000000041,"y":2546062.2400000002}},{"attributes":{"ID":19620,"DIS_CODE":0,"TOWNNAME":"永康區","LI":"東橋里","LIN":"14鄰","STREET":"中山南路","SECT":" ","MAREA":" ","LANE":"３１９巷","ALLEY":"２１弄","HOUSE_NO":"３號","E_COORD97":171769.01999999999,"N_COORD97":2546427.8700000001,"ADDRESS":"中山南路３１９巷２１弄３號","OBJECTID":19620},"geometry":{"x":171769.01999999955,"y":2546427.8700000029}},{"attributes":{"ID":19621,"DIS_CODE":0,"TOWNNAME":"永康區","LI":"龍潭里","LIN":"14鄰","STREET":"龍橋街","SECT":" ","MAREA":" ","LANE":"５３巷","ALLEY":"３６弄","HOUSE_NO":"１０號","E_COORD97":174702.16,"N_COORD97":2548349.9199999999,"ADDRESS":"龍橋街５３巷３６弄１０號","OBJECTID":19621},"geometry":{"x":174702.16000000108,"y":2548349.9199999999}},{"attributes":{"ID":19622,"DIS_CODE":0,"TOWNNAME":"永康區","LI":"東橋里","LIN":"14鄰","STREET":"中山南路","SECT":" ","MAREA":" ","LANE":"３１９巷","ALLEY":"１７弄","HOUSE_NO":"１７號","E_COORD97":171767.04000000001,"N_COORD97":2546344.75,"ADDRESS":"中山南路３１９巷１７弄１７號","OBJECTID":19622},"geometry":{"x":171767.04000000004,"y":2546344.7499999981}},{"attributes":{"ID":19623,"DIS_CODE":0,"TOWNNAME":"永康區","LI":"東橋里","LIN":"14鄰","STREET":"中山南路","SECT":" ","MAREA":" ","LANE":"３１９巷","ALLEY":"２１弄","HOUSE_NO":"２號","E_COORD97":171773.37,"N_COORD97":2546447.0499999998,"ADDRESS":"中山南路３１９巷２１弄２號","OBJECTID":19623},"geometry":{"x":171773.37000000011,"y":2546447.0500000026}},{"attributes":{"ID":19624,"DIS_CODE":0,"TOWNNAME":"安南區","LI":"新順里","LIN":"14鄰","STREET":"安和路","SECT":"二段","MAREA":" ","LANE":"３１８巷","ALLEY":"１２５弄","HOUSE_NO":"１１５號","E_COORD97":170088.39000000001,"N_COORD97":2549350.3900000001,"ADDRESS":"安和路二段３１８巷１２５弄１１５號","OBJECTID":19624},"geometry":{"x":170088.38999999966,"y":2549350.3900000006}},{"attributes":{"ID":19625,"DIS_CODE":0,"TOWNNAME":"安南區","LI":"淵西里","LIN":"14鄰","STREET":"安中路","SECT":"四段","MAREA":" ","LANE":"３８１巷","ALLEY":"２２０弄","HOUSE_NO":"５０號","E_COORD97":163761.72,"N_COORD97":2549917.2200000002,"ADDRESS":"安中路四段３８１巷２２０弄５０號","OBJECTID":19625},"geometry":{"x":163761.7200000016,"y":2549917.2200000025}},{"attributes":{"ID":19626,"DIS_CODE":0,"TOWNNAME":"新市區","LI":"新市里","LIN":"14鄰","STREET":"中正路","SECT":" ","MAREA":" ","LANE":"３０１巷","ALLEY":"１８弄","HOUSE_NO":"６之８號","E_COORD97":177630.89999999999,"N_COORD97":2553308.5499999998,"ADDRESS":"中正路３０１巷１８弄６之８號","OBJECTID":19626},"geometry":{"x":177630.90000000037,"y":2553308.5500000026}},{"attributes":{"ID":19627,"DIS_CODE":0,"TOWNNAME":"新市區","LI":"新市里","LIN":"14鄰","STREET":"中正路","SECT":" ","MAREA":" ","LANE":"３０１巷","ALLEY":"１８弄","HOUSE_NO":"６之２號","E_COORD97":177620.64999999999,"N_COORD97":2553322.7999999998,"ADDRESS":"中正路３０１巷１８弄６之２號","OBJECTID":19627},"geometry":{"x":177620.65000000037,"y":2553322.8000000045}},{"attributes":{"ID":19628,"DIS_CODE":0,"TOWNNAME":"永康區","LI":"東橋里","LIN":"14鄰","STREET":"中山南路","SECT":" ","MAREA":" ","LANE":"３１９巷","ALLEY":"２１弄","HOUSE_NO":"４號","E_COORD97":171767.45000000001,"N_COORD97":2546442.6600000001,"ADDRESS":"中山南路３１９巷２１弄４號","OBJECTID":19628},"geometry":{"x":171767.45000000112,"y":2546442.6600000001}},{"attributes":{"ID":19629,"DIS_CODE":0,"TOWNNAME":"永康區","LI":"西灣里","LIN":"14鄰","STREET":"民族路","SECT":" ","MAREA":" ","LANE":"４１５巷","ALLEY":"１８弄","HOUSE_NO":"１０號","E_COORD97":174747.88,"N_COORD97":2545317.5099999998,"ADDRESS":"民族路４１５巷１８弄１０號","OBJECTID":19629},"geometry":{"x":174747.88000000082,"y":2545317.5099999998}},{"attributes":{"ID":19630,"DIS_CODE":0,"TOWNNAME":"永康區","LI":"北灣里","LIN":"14鄰","STREET":"大灣路","SECT":" ","MAREA":" ","LANE":"４０巷","ALLEY":"７５弄","HOUSE_NO":"５６號","E_COORD97":175011.78,"N_COORD97":2545947.7400000002,"ADDRESS":"大灣路４０巷７５弄５６號","OBJECTID":19630},"geometry":{"x":175011.78000000119,"y":2545947.7400000002}},{"attributes":{"ID":19631,"DIS_CODE":0,"TOWNNAME":"永康區","LI":"北灣里","LIN":"14鄰","STREET":"大灣路","SECT":" ","MAREA":" ","LANE":"４０巷","ALLEY":"７５弄","HOUSE_NO":"２２號","E_COORD97":175073.31,"N_COORD97":2546019.5499999998,"ADDRESS":"大灣路４０巷７５弄２２號","OBJECTID":19631},"geometry":{"x":175073.31000000052,"y":2546019.5500000026}},{"attributes":{"ID":19632,"DIS_CODE":0,"TOWNNAME":"永康區","LI":"正強里","LIN":"14鄰","STREET":"正強街","SECT":" ","MAREA":" ","LANE":"１１１巷","ALLEY":"１５弄","HOUSE_NO":"６號","E_COORD97":173260.48000000001,"N_COORD97":2547387.8700000001,"ADDRESS":"正強街１１１巷１５弄６號","OBJECTID":19632},"geometry":{"x":173260.48000000231,"y":2547387.870000001}},{"attributes":{"ID":19633,"DIS_CODE":0,"TOWNNAME":"永康區","LI":"正強里","LIN":"14鄰","STREET":"正強街","SECT":" ","MAREA":" ","LANE":"１１１巷","ALLEY":"１５弄","HOUSE_NO":"１號","E_COORD97":173269.57999999999,"N_COORD97":2547395.1200000001,"ADDRESS":"正強街１１１巷１５弄１號","OBJECTID":19633},"geometry":{"x":173269.58000000194,"y":2547395.1200000029}},{"attributes":{"ID":19634,"DIS_CODE":0,"TOWNNAME":"永康區","LI":"正強里","LIN":"14鄰","STREET":"正強街","SECT":" ","MAREA":" ","LANE":"１１１巷","ALLEY":"１５弄","HOUSE_NO":"８號","E_COORD97":173254.67000000001,"N_COORD97":2547381.1299999999,"ADDRESS":"正強街１１１巷１５弄８號","OBJECTID":19634},"geometry":{"x":173254.66999999993,"y":2547381.129999999}},{"attributes":{"ID":19635,"DIS_CODE":0,"TOWNNAME":"永康區","LI":"正強里","LIN":"14鄰","STREET":"正強街","SECT":" ","MAREA":" ","LANE":"１１１巷","ALLEY":"１５弄","HOUSE_NO":"１６號","E_COORD97":173242.37,"N_COORD97":2547369.6299999999,"ADDRESS":"正強街１１１巷１５弄１６號","OBJECTID":19635},"geometry":{"x":173242.37000000197,"y":2547369.6300000008}},{"attributes":{"ID":19636,"DIS_CODE":0,"TOWNNAME":"北區","LI":"大豐里","LIN":"25鄰","STREET":"和緯路","SECT":"四段","MAREA":" ","LANE":" ","ALLEY":" ","HOUSE_NO":"８７號","E_COORD97":167137.5,"N_COORD97":2545500.0600000001,"ADDRESS":"和緯路四段８７號","OBJECTID":19636},"geometry":{"x":167137.50000000093,"y":2545500.0600000024}},{"attributes":{"ID":19637,"DIS_CODE":0,"TOWNNAME":"永康區","LI":"正強里","LIN":"14鄰","STREET":"正強街","SECT":" ","MAREA":" ","LANE":"１１１巷","ALLEY":"９弄","HOUSE_NO":"８號","E_COORD97":173295.23000000001,"N_COORD97":2547376.25,"ADDRESS":"正強街１１１巷９弄８號","OBJECTID":19637},"geometry":{"x":173295.23000000138,"y":2547376.2500000019}},{"attributes":{"ID":19638,"DIS_CODE":0,"TOWNNAME":"永康區","LI":"正強里","LIN":"14鄰","STREET":"正強街","SECT":" ","MAREA":" ","LANE":"１１１巷","ALLEY":"９弄","HOUSE_NO":"５號","E_COORD97":173305.53,"N_COORD97":2547375,"ADDRESS":"正強街１１１巷９弄５號","OBJECTID":19638},"geometry":{"x":173305.53000000026,"y":2547375.0000000019}},{"attributes":{"ID":19639,"DIS_CODE":0,"TOWNNAME":"永康區","LI":"北灣里","LIN":"14鄰","STREET":"大灣路","SECT":" ","MAREA":" ","LANE":"４０巷","ALLEY":"７５弄","HOUSE_NO":"２８號","E_COORD97":175063.01000000001,"N_COORD97":2546003.7999999998,"ADDRESS":"大灣路４０巷７５弄２８號","OBJECTID":19639},"geometry":{"x":175063.00999999978,"y":2546003.8000000026}},{"attributes":{"ID":19640,"DIS_CODE":0,"TOWNNAME":"安南區","LI":"溪心里","LIN":"14鄰","STREET":"本原街","SECT":"二段","MAREA":" ","LANE":"５３２巷","ALLEY":"１１弄","HOUSE_NO":"５號","E_COORD97":165795.66,"N_COORD97":2550541.6400000001,"ADDRESS":"本原街二段５３２巷１１弄５號","OBJECTID":19640},"geometry":{"x":165795.66000000108,"y":2550541.6400000025}},{"attributes":{"ID":19641,"DIS_CODE":0,"TOWNNAME":"新市區","LI":"大營里","LIN":"24鄰","STREET":" ","SECT":" ","MAREA":"大營","LANE":" ","ALLEY":" ","HOUSE_NO":"１３１之１１號","E_COORD97":179224.60000000001,"N_COORD97":2554702.7999999998,"ADDRESS":"大營１３１之１１號","OBJECTID":19641},"geometry":{"x":179224.60000000056,"y":2554702.8000000045}},{"attributes":{"ID":19642,"DIS_CODE":0,"TOWNNAME":"新市區","LI":"大營里","LIN":"24鄰","STREET":" ","SECT":" ","MAREA":"大營","LANE":" ","ALLEY":" ","HOUSE_NO":"１３１之３０號","E_COORD97":179239.85000000001,"N_COORD97":2554748.5499999998,"ADDRESS":"大營１３１之３０號","OBJECTID":19642},"geometry":{"x":179239.85000000056,"y":2554748.5500000045}},{"attributes":{"ID":19643,"DIS_CODE":0,"TOWNNAME":"新市區","LI":"大營里","LIN":"24鄰","STREET":" ","SECT":" ","MAREA":"大營","LANE":" ","ALLEY":" ","HOUSE_NO":"１３１之５３號","E_COORD97":179206.98000000001,"N_COORD97":2554751.5499999998,"ADDRESS":"大營１３１之５３號","OBJECTID":19643},"geometry":{"x":179206.98000000045,"y":2554751.5500000007}},{"attributes":{"ID":19644,"DIS_CODE":0,"TOWNNAME":"安南區","LI":"溪心里","LIN":"14鄰","STREET":"本原街","SECT":"二段","MAREA":" ","LANE":"５３２巷","ALLEY":"１１弄","HOUSE_NO":"７號","E_COORD97":165792.23000000001,"N_COORD97":2550539.1600000001,"ADDRESS":"本原街二段５３２巷１１弄７號","OBJECTID":19644},"geometry":{"x":165792.23000000138,"y":2550539.1600000001}},{"attributes":{"ID":19645,"DIS_CODE":0,"TOWNNAME":"安南區","LI":"溪心里","LIN":"14鄰","STREET":"本原街","SECT":"二段","MAREA":" ","LANE":"５３２巷","ALLEY":"１１弄","HOUSE_NO":"９號","E_COORD97":165788.79999999999,"N_COORD97":2550537.0600000001,"ADDRESS":"本原街二段５３２巷１１弄９號","OBJECTID":19645},"geometry":{"x":165788.80000000075,"y":2550537.0599999987}},{"attributes":{"ID":19646,"DIS_CODE":0,"TOWNNAME":"安南區","LI":"溪心里","LIN":"14鄰","STREET":"本原街","SECT":"二段","MAREA":" ","LANE":"５３２巷","ALLEY":"１１弄","HOUSE_NO":"１１號","E_COORD97":165785.56,"N_COORD97":2550534.7799999998,"ADDRESS":"本原街二段５３２巷１１弄１１號","OBJECTID":19646},"geometry":{"x":165785.56000000052,"y":2550534.7800000031}},{"attributes":{"ID":19647,"DIS_CODE":0,"TOWNNAME":"安南區","LI":"溪心里","LIN":"14鄰","STREET":"本原街","SECT":"二段","MAREA":" ","LANE":"５３２巷","ALLEY":"１１弄","HOUSE_NO":"１３號","E_COORD97":165782.32000000001,"N_COORD97":2550532.2999999998,"ADDRESS":"本原街二段５３２巷１１弄１３號","OBJECTID":19647},"geometry":{"x":165782.32000000216,"y":2550532.2999999989}},{"attributes":{"ID":19648,"DIS_CODE":0,"TOWNNAME":"安南區","LI":"溪心里","LIN":"14鄰","STREET":"本原街","SECT":"二段","MAREA":" ","LANE":"５３２巷","ALLEY":"１１弄","HOUSE_NO":"１５號","E_COORD97":165778.70000000001,"N_COORD97":2550529.8199999998,"ADDRESS":"本原街二段５３２巷１１弄１５號","OBJECTID":19648},"geometry":{"x":165778.70000000019,"y":2550529.8200000022}},{"attributes":{"ID":19649,"DIS_CODE":0,"TOWNNAME":"安南區","LI":"溪心里","LIN":"14鄰","STREET":"本原街","SECT":"二段","MAREA":" ","LANE":"５３２巷","ALLEY":"１１弄","HOUSE_NO":"６號","E_COORD97":165793.17999999999,"N_COORD97":2550552.4900000002,"ADDRESS":"本原街二段５３２巷１１弄６號","OBJECTID":19649},"geometry":{"x":165793.18000000063,"y":2550552.4900000021}},{"attributes":{"ID":19650,"DIS_CODE":0,"TOWNNAME":"安南區","LI":"溪心里","LIN":"14鄰","STREET":"本原街","SECT":"二段","MAREA":" ","LANE":"５３２巷","ALLEY":"１１弄","HOUSE_NO":"８號","E_COORD97":165790.32000000001,"N_COORD97":2550550.02,"ADDRESS":"本原街二段５３２巷１１弄８號","OBJECTID":19650},"geometry":{"x":165790.3200000003,"y":2550550.0200000033}},{"attributes":{"ID":19651,"DIS_CODE":0,"TOWNNAME":"安南區","LI":"溪心里","LIN":"14鄰","STREET":"本原街","SECT":"二段","MAREA":" ","LANE":"５３２巷","ALLEY":"１１弄","HOUSE_NO":"１０號","E_COORD97":165787.07999999999,"N_COORD97":2550547.54,"ADDRESS":"本原街二段５３２巷１１弄１０號","OBJECTID":19651},"geometry":{"x":165787.08000000194,"y":2550547.540000001}},{"attributes":{"ID":19652,"DIS_CODE":0,"TOWNNAME":"安南區","LI":"溪心里","LIN":"14鄰","STREET":"本原街","SECT":"二段","MAREA":" ","LANE":"５３２巷","ALLEY":"１１弄","HOUSE_NO":"１２號","E_COORD97":165784.23000000001,"N_COORD97":2550544.4900000002,"ADDRESS":"本原街二段５３２巷１１弄１２號","OBJECTID":19652},"geometry":{"x":165784.23000000045,"y":2550544.4900000039}},{"attributes":{"ID":19653,"DIS_CODE":0,"TOWNNAME":"北區","LI":"大豐里","LIN":"25鄰","STREET":"和緯路","SECT":"四段","MAREA":" ","LANE":" ","ALLEY":" ","HOUSE_NO":"９３號","E_COORD97":167124.23999999999,"N_COORD97":2545493.6899999999,"ADDRESS":"和緯路四段９３號","OBJECTID":19653},"geometry":{"x":167124.24000000115,"y":2545493.6899999976}},{"attributes":{"ID":19654,"DIS_CODE":0,"TOWNNAME":"安南區","LI":"安東里","LIN":"24鄰","STREET":"安和路","SECT":"二段","MAREA":" ","LANE":"３６巷","ALLEY":" ","HOUSE_NO":"２２號","E_COORD97":169533.5,"N_COORD97":2548599.7400000002,"ADDRESS":"安和路二段３６巷２２號","OBJECTID":19654},"geometry":{"x":169533.5,"y":2548599.7400000039}},{"attributes":{"ID":19655,"DIS_CODE":0,"TOWNNAME":"永康區","LI":"西橋里","LIN":"24鄰","STREET":"中華西街","SECT":" ","MAREA":" ","LANE":" ","ALLEY":" ","HOUSE_NO":"２８１號","E_COORD97":170703.97,"N_COORD97":2546481.4900000002,"ADDRESS":"中華西街２８１號","OBJECTID":19655},"geometry":{"x":170703.97000000067,"y":2546481.4900000002}},{"attributes":{"ID":19656,"DIS_CODE":0,"TOWNNAME":"安南區","LI":"安慶里","LIN":"24鄰","STREET":"安中路","SECT":"一段","MAREA":" ","LANE":" ","ALLEY":" ","HOUSE_NO":"１９７號","E_COORD97":168751.57999999999,"N_COORD97":2548483.4500000002,"ADDRESS":"安中路一段１９７號","OBJECTID":19656},"geometry":{"x":168751.58000000007,"y":2548483.4500000011}},{"attributes":{"ID":19657,"DIS_CODE":0,"TOWNNAME":"安南區","LI":"安慶里","LIN":"24鄰","STREET":"安中路","SECT":"一段","MAREA":" ","LANE":" ","ALLEY":" ","HOUSE_NO":"１９９號","E_COORD97":168746.76999999999,"N_COORD97":2548485.7599999998,"ADDRESS":"安中路一段１９９號","OBJECTID":19657},"geometry":{"x":168746.77000000142,"y":2548485.7599999998}},{"attributes":{"ID":19658,"DIS_CODE":0,"TOWNNAME":"安南區","LI":"安慶里","LIN":"24鄰","STREET":"安中路","SECT":"一段","MAREA":" ","LANE":" ","ALLEY":" ","HOUSE_NO":"２０１號","E_COORD97":168742.42000000001,"N_COORD97":2548487.7000000002,"ADDRESS":"安中路一段２０１號","OBJECTID":19658},"geometry":{"x":168742.41999999993,"y":2548487.7000000011}},{"attributes":{"ID":19659,"DIS_CODE":0,"TOWNNAME":"東區","LI":"和平里","LIN":"20鄰","STREET":"文化五街","SECT":" ","MAREA":" ","LANE":" ","ALLEY":" ","HOUSE_NO":"３９號","E_COORD97":171237.70999999999,"N_COORD97":2541794.1099999999,"ADDRESS":"文化五街３９號","OBJECTID":19659},"geometry":{"x":171237.71000000183,"y":2541794.1099999994}},{"attributes":{"ID":19660,"DIS_CODE":0,"TOWNNAME":"東區","LI":"和平里","LIN":"20鄰","STREET":"文化五街","SECT":" ","MAREA":" ","LANE":" ","ALLEY":" ","HOUSE_NO":"４１號","E_COORD97":171244.57999999999,"N_COORD97":2541796.3999999999,"ADDRESS":"文化五街４１號","OBJECTID":19660},"geometry":{"x":171244.58000000101,"y":2541796.4000000004}},{"attributes":{"ID":19661,"DIS_CODE":0,"TOWNNAME":"東區","LI":"和平里","LIN":"20鄰","STREET":"文化五街","SECT":" ","MAREA":" ","LANE":" ","ALLEY":" ","HOUSE_NO":"４３號","E_COORD97":171250.97,"N_COORD97":2541799.1899999999,"ADDRESS":"文化五街４３號","OBJECTID":19661},"geometry":{"x":171250.9700000016,"y":2541799.1900000013}},{"attributes":{"ID":19662,"DIS_CODE":0,"TOWNNAME":"東區","LI":"和平里","LIN":"20鄰","STREET":"文化五街","SECT":" ","MAREA":" ","LANE":" ","ALLEY":" ","HOUSE_NO":"４５號","E_COORD97":171256.37,"N_COORD97":2541800.8300000001,"ADDRESS":"文化五街４５號","OBJECTID":19662},"geometry":{"x":171256.37000000011,"y":2541800.8300000001}},{"attributes":{"ID":19663,"DIS_CODE":0,"TOWNNAME":"東區","LI":"和平里","LIN":"20鄰","STREET":"文化五街","SECT":" ","MAREA":" ","LANE":" ","ALLEY":" ","HOUSE_NO":"４７號","E_COORD97":171260.95999999999,"N_COORD97":2541802.9500000002,"ADDRESS":"文化五街４７號","OBJECTID":19663},"geometry":{"x":171260.95999999996,"y":2541802.9499999974}},{"attributes":{"ID":19664,"DIS_CODE":0,"TOWNNAME":"東區","LI":"和平里","LIN":"20鄰","STREET":"文化五街","SECT":" ","MAREA":" ","LANE":" ","ALLEY":" ","HOUSE_NO":"４９號","E_COORD97":171266.35999999999,"N_COORD97":2541805.25,"ADDRESS":"文化五街４９號","OBJECTID":19664},"geometry":{"x":171266.36000000127,"y":2541805.2500000037}},{"attributes":{"ID":19665,"DIS_CODE":0,"TOWNNAME":"東區","LI":"和平里","LIN":"20鄰","STREET":"文化五街","SECT":" ","MAREA":" ","LANE":" ","ALLEY":" ","HOUSE_NO":"５１號","E_COORD97":171272.73999999999,"N_COORD97":2541807.54,"ADDRESS":"文化五街５１號","OBJECTID":19665},"geometry":{"x":171272.74000000022,"y":2541807.5399999991}},{"attributes":{"ID":19666,"DIS_CODE":0,"TOWNNAME":"東區","LI":"和平里","LIN":"20鄰","STREET":"文化五街","SECT":" ","MAREA":" ","LANE":" ","ALLEY":" ","HOUSE_NO":"７號","E_COORD97":171156.04999999999,"N_COORD97":2541767.2200000002,"ADDRESS":"文化五街７號","OBJECTID":19666},"geometry":{"x":171156.05000000075,"y":2541767.2200000007}},{"attributes":{"ID":19667,"DIS_CODE":0,"TOWNNAME":"安南區","LI":"溪心里","LIN":"14鄰","STREET":"本原街","SECT":"二段","MAREA":" ","LANE":"５３２巷","ALLEY":"１１弄","HOUSE_NO":"１６號","E_COORD97":165781.17999999999,"N_COORD97":2550541.4500000002,"ADDRESS":"本原街二段５３２巷１１弄１６號","OBJECTID":19667},"geometry":{"x":165781.18000000063,"y":2550541.4500000011}},{"attributes":{"ID":19668,"DIS_CODE":0,"TOWNNAME":"安南區","LI":"溪心里","LIN":"14鄰","STREET":"本原街","SECT":"二段","MAREA":" ","LANE":"５３２巷","ALLEY":"１１弄","HOUSE_NO":"１８號","E_COORD97":165778.13,"N_COORD97":2550538.7799999998,"ADDRESS":"本原街二段５３２巷１１弄１８號","OBJECTID":19668},"geometry":{"x":165778.13000000175,"y":2550538.7800000012}},{"attributes":{"ID":19669,"DIS_CODE":0,"TOWNNAME":"安南區","LI":"溪心里","LIN":"14鄰","STREET":"本原街","SECT":"二段","MAREA":" ","LANE":"５３２巷","ALLEY":"１３弄","HOUSE_NO":"１號","E_COORD97":165777.37,"N_COORD97":2550581.6400000001,"ADDRESS":"本原街二段５３２巷１３弄１號","OBJECTID":19669},"geometry":{"x":165777.37000000104,"y":2550581.6400000025}},{"attributes":{"ID":19670,"DIS_CODE":0,"TOWNNAME":"安南區","LI":"溪心里","LIN":"14鄰","STREET":"本原街","SECT":"二段","MAREA":" ","LANE":"５３２巷","ALLEY":"１３弄","HOUSE_NO":"３號","E_COORD97":165774.70000000001,"N_COORD97":2550579.7400000002,"ADDRESS":"本原街二段５３２巷１３弄３號","OBJECTID":19670},"geometry":{"x":165774.70000000112,"y":2550579.7400000039}},{"attributes":{"ID":19671,"DIS_CODE":0,"TOWNNAME":"安南區","LI":"溪心里","LIN":"14鄰","STREET":"本原街","SECT":"二段","MAREA":" ","LANE":"５３２巷","ALLEY":"１３弄","HOUSE_NO":"５號","E_COORD97":165771.84,"N_COORD97":2550578.3999999999,"ADDRESS":"本原街二段５３２巷１３弄５號","OBJECTID":19671},"geometry":{"x":165771.84000000078,"y":2550578.4000000004}},{"attributes":{"ID":19672,"DIS_CODE":0,"TOWNNAME":"安南區","LI":"溪心里","LIN":"14鄰","STREET":"本原街","SECT":"二段","MAREA":" ","LANE":"５３２巷","ALLEY":"１３弄","HOUSE_NO":"７號","E_COORD97":165768.79000000001,"N_COORD97":2550575.7400000002,"ADDRESS":"本原街二段５３２巷１３弄７號","OBJECTID":19672},"geometry":{"x":165768.79000000097,"y":2550575.7400000002}},{"attributes":{"ID":19673,"DIS_CODE":0,"TOWNNAME":"麻豆區","LI":"油車里","LIN":"14鄰","STREET":" ","SECT":" ","MAREA":"油車","LANE":" ","ALLEY":" ","HOUSE_NO":"１０６號","E_COORD97":172409.13,"N_COORD97":2565879.3500000001,"ADDRESS":"油車１０６號","OBJECTID":19673},"geometry":{"x":172409.12999999989,"y":2565879.3500000034}},{"attributes":{"ID":19674,"DIS_CODE":0,"TOWNNAME":"麻豆區","LI":"油車里","LIN":"14鄰","STREET":" ","SECT":" ","MAREA":"油車","LANE":" ","ALLEY":" ","HOUSE_NO":"１０８號","E_COORD97":172455.57999999999,"N_COORD97":2565852.8900000001,"ADDRESS":"油車１０８號","OBJECTID":19674},"geometry":{"x":172455.58000000007,"y":2565852.8900000043}},{"attributes":{"ID":19675,"DIS_CODE":0,"TOWNNAME":"麻豆區","LI":"油車里","LIN":"14鄰","STREET":" ","SECT":" ","MAREA":"油車","LANE":" ","ALLEY":" ","HOUSE_NO":"１０９號之２","E_COORD97":172494.91,"N_COORD97":2565804.8100000001,"ADDRESS":"油車１０９號之２","OBJECTID":19675},"geometry":{"x":172494.91000000108,"y":2565804.8100000005}},{"attributes":{"ID":19676,"DIS_CODE":0,"TOWNNAME":"安南區","LI":"溪心里","LIN":"14鄰","STREET":"本原街","SECT":"二段","MAREA":" ","LANE":"５３２巷","ALLEY":"１３弄","HOUSE_NO":"９號","E_COORD97":165765.94,"N_COORD97":2550573.2599999998,"ADDRESS":"本原街二段５３２巷１３弄９號","OBJECTID":19676},"geometry":{"x":165765.94000000041,"y":2550573.2600000016}},{"attributes":{"ID":19677,"DIS_CODE":0,"TOWNNAME":"安南區","LI":"溪心里","LIN":"14鄰","STREET":"本原街","SECT":"二段","MAREA":" ","LANE":"５３２巷","ALLEY":"１３弄","HOUSE_NO":"１１號","E_COORD97":165762.32000000001,"N_COORD97":2550571.73,"ADDRESS":"本原街二段５３２巷１３弄１１號","OBJECTID":19677},"geometry":{"x":165762.32000000123,"y":2550571.7300000004}},{"attributes":{"ID":19678,"DIS_CODE":0,"TOWNNAME":"安南區","LI":"溪心里","LIN":"14鄰","STREET":"本原街","SECT":"二段","MAREA":" ","LANE":"５３２巷","ALLEY":"１３弄","HOUSE_NO":"１３號","E_COORD97":165758.70000000001,"N_COORD97":2550569.8300000001,"ADDRESS":"本原街二段５３２巷１３弄１３號","OBJECTID":19678},"geometry":{"x":165758.70000000019,"y":2550569.8300000019}},{"attributes":{"ID":19679,"DIS_CODE":0,"TOWNNAME":"安南區","LI":"溪心里","LIN":"14鄰","STREET":"本原街","SECT":"二段","MAREA":" ","LANE":"５３２巷","ALLEY":"１３弄","HOUSE_NO":"８號","E_COORD97":165763.26999999999,"N_COORD97":2550587.7400000002,"ADDRESS":"本原街二段５３２巷１３弄８號","OBJECTID":19679},"geometry":{"x":165763.27000000142,"y":2550587.7400000021}},{"attributes":{"ID":19680,"DIS_CODE":0,"TOWNNAME":"安南區","LI":"溪心里","LIN":"14鄰","STREET":"本原街","SECT":"二段","MAREA":" ","LANE":"５３２巷","ALLEY":"１３弄","HOUSE_NO":"６號","E_COORD97":165767.45999999999,"N_COORD97":2550590.3999999999,"ADDRESS":"本原街二段５３２巷１３弄６號","OBJECTID":19680},"geometry":{"x":165767.46000000183,"y":2550590.4000000022}},{"attributes":{"ID":19681,"DIS_CODE":0,"TOWNNAME":"安南區","LI":"溪心里","LIN":"14鄰","STREET":"本原街","SECT":"二段","MAREA":" ","LANE":"５３２巷","ALLEY":"１３弄","HOUSE_NO":"２號","E_COORD97":165770.89000000001,"N_COORD97":2550592.8799999999,"ADDRESS":"本原街二段５３２巷１３弄２號","OBJECTID":19681},"geometry":{"x":165770.89000000153,"y":2550592.879999999}},{"attributes":{"ID":19682,"DIS_CODE":0,"TOWNNAME":"永康區","LI":"正強里","LIN":"14鄰","STREET":"正強街","SECT":" ","MAREA":" ","LANE":"１１１巷","ALLEY":"９弄","HOUSE_NO":"２號","E_COORD97":173294.14000000001,"N_COORD97":2547385.75,"ADDRESS":"正強街１１１巷９弄２號","OBJECTID":19682},"geometry":{"x":173294.14000000153,"y":2547385.7500000037}},{"attributes":{"ID":19683,"DIS_CODE":0,"TOWNNAME":"安南區","LI":"安慶里","LIN":"24鄰","STREET":"安中路","SECT":"一段","MAREA":" ","LANE":" ","ALLEY":" ","HOUSE_NO":"２０５號","E_COORD97":168732.32999999999,"N_COORD97":2548495.1099999999,"ADDRESS":"安中路一段２０５號","OBJECTID":19683},"geometry":{"x":168732.33000000101,"y":2548495.1100000013}},{"attributes":{"ID":19684,"DIS_CODE":0,"TOWNNAME":"安南區","LI":"安慶里","LIN":"24鄰","STREET":"安中路","SECT":"一段","MAREA":" ","LANE":" ","ALLEY":" ","HOUSE_NO":"２０７號","E_COORD97":168726.87,"N_COORD97":2548498.8100000001,"ADDRESS":"安中路一段２０７號","OBJECTID":19684},"geometry":{"x":168726.87000000104,"y":2548498.8100000024}},{"attributes":{"ID":19685,"DIS_CODE":0,"TOWNNAME":"北區","LI":"大豐里","LIN":"25鄰","STREET":"和緯路","SECT":"四段","MAREA":" ","LANE":" ","ALLEY":" ","HOUSE_NO":"８９號","E_COORD97":167133.13,"N_COORD97":2545498.4100000001,"ADDRESS":"和緯路四段８９號","OBJECTID":19685},"geometry":{"x":167133.13000000082,"y":2545498.4100000001}},{"attributes":{"ID":19686,"DIS_CODE":0,"TOWNNAME":"東區","LI":"和平里","LIN":"20鄰","STREET":"文化五街","SECT":" ","MAREA":" ","LANE":" ","ALLEY":" ","HOUSE_NO":"９號","E_COORD97":171158.56,"N_COORD97":2541768.3399999999,"ADDRESS":"文化五街９號","OBJECTID":19686},"geometry":{"x":171158.55999999959,"y":2541768.3400000017}},{"attributes":{"ID":19687,"DIS_CODE":0,"TOWNNAME":"東區","LI":"文聖里","LIN":"20鄰","STREET":"裕義路","SECT":" ","MAREA":" ","LANE":" ","ALLEY":" ","HOUSE_NO":"３０８號","E_COORD97":172869.60000000001,"N_COORD97":2542584.7200000002,"ADDRESS":"裕義路３０８號","OBJECTID":19687},"geometry":{"x":172869.60000000056,"y":2542584.7200000007}},{"attributes":{"ID":19688,"DIS_CODE":0,"TOWNNAME":"東區","LI":"和平里","LIN":"20鄰","STREET":"仁和路","SECT":" ","MAREA":" ","LANE":" ","ALLEY":" ","HOUSE_NO":"５５號","E_COORD97":171129.73999999999,"N_COORD97":2541800.5899999999,"ADDRESS":"仁和路５５號","OBJECTID":19688},"geometry":{"x":171129.74000000115,"y":2541800.5900000017}},{"attributes":{"ID":19689,"DIS_CODE":0,"TOWNNAME":"東區","LI":"和平里","LIN":"20鄰","STREET":"仁和路","SECT":" ","MAREA":" ","LANE":" ","ALLEY":" ","HOUSE_NO":"５７之１號","E_COORD97":171132.92999999999,"N_COORD97":2541792.3100000001,"ADDRESS":"仁和路５７之１號","OBJECTID":19689},"geometry":{"x":171132.93000000063,"y":2541792.3100000024}},{"attributes":{"ID":19690,"DIS_CODE":0,"TOWNNAME":"東區","LI":"和平里","LIN":"20鄰","STREET":"仁和路","SECT":" ","MAREA":" ","LANE":" ","ALLEY":" ","HOUSE_NO":"５７之２號","E_COORD97":171134.51999999999,"N_COORD97":2541788.7999999998,"ADDRESS":"仁和路５７之２號","OBJECTID":19690},"geometry":{"x":171134.51999999955,"y":2541788.8000000045}},{"attributes":{"ID":19691,"DIS_CODE":0,"TOWNNAME":"東區","LI":"和平里","LIN":"20鄰","STREET":"仁和路","SECT":" ","MAREA":" ","LANE":" ","ALLEY":" ","HOUSE_NO":"５７之３號","E_COORD97":171136.75,"N_COORD97":2541783.3900000001,"ADDRESS":"仁和路５７之３號","OBJECTID":19691},"geometry":{"x":171136.75,"y":2541783.3900000006}},{"attributes":{"ID":19692,"DIS_CODE":0,"TOWNNAME":"東區","LI":"和平里","LIN":"20鄰","STREET":"仁和路","SECT":" ","MAREA":" ","LANE":" ","ALLEY":" ","HOUSE_NO":"５７之５號","E_COORD97":171138.66,"N_COORD97":2541779.2400000002,"ADDRESS":"仁和路５７之５號","OBJECTID":19692},"geometry":{"x":171138.66000000108,"y":2541779.2400000021}},{"attributes":{"ID":19693,"DIS_CODE":0,"TOWNNAME":"東區","LI":"和平里","LIN":"20鄰","STREET":"仁和路","SECT":" ","MAREA":" ","LANE":" ","ALLEY":" ","HOUSE_NO":"５７之６號","E_COORD97":171140.57000000001,"N_COORD97":2541775.1000000001,"ADDRESS":"仁和路５７之６號","OBJECTID":19693},"geometry":{"x":171140.5700000003,"y":2541775.0999999978}},{"attributes":{"ID":19694,"DIS_CODE":0,"TOWNNAME":"東區","LI":"和平里","LIN":"20鄰","STREET":"仁和路","SECT":" ","MAREA":" ","LANE":" ","ALLEY":" ","HOUSE_NO":"５７之７號","E_COORD97":171141.53,"N_COORD97":2541770.96,"ADDRESS":"仁和路５７之７號","OBJECTID":19694},"geometry":{"x":171141.53000000119,"y":2541770.9600000046}},{"attributes":{"ID":19695,"DIS_CODE":0,"TOWNNAME":"東區","LI":"和平里","LIN":"20鄰","STREET":"仁和路","SECT":" ","MAREA":" ","LANE":" ","ALLEY":" ","HOUSE_NO":"５９號","E_COORD97":171142.17000000001,"N_COORD97":2541765.54,"ADDRESS":"仁和路５９號","OBJECTID":19695},"geometry":{"x":171142.17000000086,"y":2541765.540000001}},{"attributes":{"ID":19696,"DIS_CODE":0,"TOWNNAME":"安南區","LI":"長安里","LIN":"20鄰","STREET":"長溪路","SECT":"三段","MAREA":" ","LANE":" ","ALLEY":" ","HOUSE_NO":"４０２號","E_COORD97":167670.29000000001,"N_COORD97":2552056.9100000001,"ADDRESS":"長溪路三段４０２號","OBJECTID":19696},"geometry":{"x":167670.29000000004,"y":2552056.9100000039}},{"attributes":{"ID":19697,"DIS_CODE":0,"TOWNNAME":"安南區","LI":"長安里","LIN":"20鄰","STREET":"長溪路","SECT":"三段","MAREA":" ","LANE":" ","ALLEY":" ","HOUSE_NO":"３７８號","E_COORD97":167730.29999999999,"N_COORD97":2552030.4300000002,"ADDRESS":"長溪路三段３７８號","OBJECTID":19697},"geometry":{"x":167730.30000000075,"y":2552030.4300000016}},{"attributes":{"ID":19698,"DIS_CODE":0,"TOWNNAME":"東區","LI":"文聖里","LIN":"20鄰","STREET":"裕信二街","SECT":" ","MAREA":" ","LANE":" ","ALLEY":" ","HOUSE_NO":"１１０號","E_COORD97":172798.57999999999,"N_COORD97":2542701.4700000002,"ADDRESS":"裕信二街１１０號","OBJECTID":19698},"geometry":{"x":172798.58000000101,"y":2542701.4700000007}},{"attributes":{"ID":19699,"DIS_CODE":0,"TOWNNAME":"永康區","LI":"正強里","LIN":"14鄰","STREET":"正強街","SECT":" ","MAREA":" ","LANE":"１１１巷","ALLEY":"９弄","HOUSE_NO":"７號","E_COORD97":173306.42000000001,"N_COORD97":2547370,"ADDRESS":"正強街１１１巷９弄７號","OBJECTID":19699},"geometry":{"x":173306.42000000086,"y":2547370}},{"attributes":{"ID":19700,"DIS_CODE":0,"TOWNNAME":"永康區","LI":"正強里","LIN":"14鄰","STREET":"正強街","SECT":" ","MAREA":" ","LANE":"１１１巷","ALLEY":"９弄","HOUSE_NO":"３號","E_COORD97":173303.69,"N_COORD97":2547383.25,"ADDRESS":"正強街１１１巷９弄３號","OBJECTID":19700},"geometry":{"x":173303.69000000134,"y":2547383.2500000019}},{"attributes":{"ID":19701,"DIS_CODE":0,"TOWNNAME":"永康區","LI":"正強里","LIN":"14鄰","STREET":"正強街","SECT":" ","MAREA":" ","LANE":"１１１巷","ALLEY":"９弄","HOUSE_NO":"６號","E_COORD97":173294.67999999999,"N_COORD97":2547381.5,"ADDRESS":"正強街１１１巷９弄６號","OBJECTID":19701},"geometry":{"x":173294.68000000063,"y":2547381.5000000019}},{"attributes":{"ID":19702,"DIS_CODE":0,"TOWNNAME":"永康區","LI":"北灣里","LIN":"14鄰","STREET":"大灣路","SECT":" ","MAREA":" ","LANE":"４０巷","ALLEY":"７５弄","HOUSE_NO":"２０號","E_COORD97":175082.62,"N_COORD97":2546014.7999999998,"ADDRESS":"大灣路４０巷７５弄２０號","OBJECTID":19702},"geometry":{"x":175082.62000000011,"y":2546014.8000000026}},{"attributes":{"ID":19703,"DIS_CODE":0,"TOWNNAME":"永康區","LI":"北灣里","LIN":"14鄰","STREET":"大灣路","SECT":" ","MAREA":" ","LANE":"４０巷","ALLEY":"７５弄","HOUSE_NO":"１８號","E_COORD97":175081.76000000001,"N_COORD97":2546037.4900000002,"ADDRESS":"大灣路４０巷７５弄１８號","OBJECTID":19703},"geometry":{"x":175081.75999999978,"y":2546037.4900000002}},{"attributes":{"ID":19704,"DIS_CODE":0,"TOWNNAME":"永康區","LI":"北灣里","LIN":"14鄰","STREET":"大灣路","SECT":" ","MAREA":" ","LANE":"４０巷","ALLEY":"７５弄","HOUSE_NO":"８號","E_COORD97":175109.10999999999,"N_COORD97":2546040.9900000002,"ADDRESS":"大灣路４０巷７５弄８號","OBJECTID":19704},"geometry":{"x":175109.11000000127,"y":2546040.9900000002}},{"attributes":{"ID":19705,"DIS_CODE":0,"TOWNNAME":"永康區","LI":"北灣里","LIN":"14鄰","STREET":"大灣路","SECT":" ","MAREA":" ","LANE":"４０巷","ALLEY":"７５弄","HOUSE_NO":"１４號","E_COORD97":175090.17000000001,"N_COORD97":2546033.2400000002,"ADDRESS":"大灣路４０巷７５弄１４號","OBJECTID":19705},"geometry":{"x":175090.17000000086,"y":2546033.2400000039}},{"attributes":{"ID":19706,"DIS_CODE":0,"TOWNNAME":"東區","LI":"文聖里","LIN":"20鄰","STREET":"裕文一街","SECT":" ","MAREA":" ","LANE":" ","ALLEY":" ","HOUSE_NO":"５０號","E_COORD97":172744.10999999999,"N_COORD97":2542607.3500000001,"ADDRESS":"裕文一街５０號","OBJECTID":19706},"geometry":{"x":172744.1100000022,"y":2542607.3499999996}},{"attributes":{"ID":19707,"DIS_CODE":0,"TOWNNAME":"東區","LI":"文聖里","LIN":"20鄰","STREET":"裕文一街","SECT":" ","MAREA":" ","LANE":" ","ALLEY":" ","HOUSE_NO":"５２號","E_COORD97":172743.37,"N_COORD97":2542611.75,"ADDRESS":"裕文一街５２號","OBJECTID":19707},"geometry":{"x":172743.37000000011,"y":2542611.75}},{"attributes":{"ID":19708,"DIS_CODE":0,"TOWNNAME":"東區","LI":"文聖里","LIN":"20鄰","STREET":"裕文一街","SECT":" ","MAREA":" ","LANE":" ","ALLEY":" ","HOUSE_NO":"５６號","E_COORD97":172743.07999999999,"N_COORD97":2542615.5699999998,"ADDRESS":"裕文一街５６號","OBJECTID":19708},"geometry":{"x":172743.08000000101,"y":2542615.5700000003}},{"attributes":{"ID":19709,"DIS_CODE":0,"TOWNNAME":"東區","LI":"關聖里","LIN":"20鄰","STREET":"裕孝路","SECT":" ","MAREA":" ","LANE":" ","ALLEY":" ","HOUSE_NO":"１５９號","E_COORD97":172450.10000000001,"N_COORD97":2542903.8300000001,"ADDRESS":"裕孝路１５９號","OBJECTID":19709},"geometry":{"x":172450.0999999987,"y":2542903.8300000019}},{"attributes":{"ID":19710,"DIS_CODE":0,"TOWNNAME":"東區","LI":"關聖里","LIN":"20鄰","STREET":"裕孝路","SECT":" ","MAREA":" ","LANE":" ","ALLEY":" ","HOUSE_NO":"１６１號","E_COORD97":172449.95000000001,"N_COORD97":2542880.3599999999,"ADDRESS":"裕孝路１６１號","OBJECTID":19710},"geometry":{"x":172449.95000000019,"y":2542880.3599999994}},{"attributes":{"ID":19711,"DIS_CODE":0,"TOWNNAME":"永康區","LI":"正強里","LIN":"14鄰","STREET":"正強街","SECT":" ","MAREA":" ","LANE":"１１１巷","ALLEY":"１５弄","HOUSE_NO":"１２號","E_COORD97":173240.12,"N_COORD97":2547376.3799999999,"ADDRESS":"正強街１１１巷１５弄１２號","OBJECTID":19711},"geometry":{"x":173240.12000000011,"y":2547376.379999999}},{"attributes":{"ID":19712,"DIS_CODE":0,"TOWNNAME":"永康區","LI":"北灣里","LIN":"14鄰","STREET":"大灣路","SECT":" ","MAREA":" ","LANE":"４０巷","ALLEY":"７５弄","HOUSE_NO":"４２號","E_COORD97":175036.95000000001,"N_COORD97":2545968.7400000002,"ADDRESS":"大灣路４０巷７５弄４２號","OBJECTID":19712},"geometry":{"x":175036.95000000205,"y":2545968.7399999984}},{"attributes":{"ID":19713,"DIS_CODE":0,"TOWNNAME":"南區","LI":"光明里","LIN":"4鄰","STREET":"鹽埕路","SECT":" ","MAREA":" ","LANE":"２９１巷","ALLEY":"１４弄","HOUSE_NO":"９７號","E_COORD97":166760.38,"N_COORD97":2541449.2599999998,"ADDRESS":"鹽埕路２９１巷１４弄９７號","OBJECTID":19713},"geometry":{"x":166760.37999999989,"y":2541449.2600000016}},{"attributes":{"ID":19714,"DIS_CODE":0,"TOWNNAME":"安平區","LI":"文平里","LIN":"14鄰","STREET":"建平五街","SECT":" ","MAREA":" ","LANE":"２２巷","ALLEY":"１５弄","HOUSE_NO":"１８之１號四樓之２","E_COORD97":166001.54000000001,"N_COORD97":2543190.98,"ADDRESS":"建平五街２２巷１５弄１８之１號四樓之２","OBJECTID":19714},"geometry":{"x":166001.54000000097,"y":2543190.9800000042}},{"attributes":{"ID":19715,"DIS_CODE":0,"TOWNNAME":"北區","LI":"成功里","LIN":"14鄰","STREET":"北成路","SECT":" ","MAREA":" ","LANE":"８０巷","ALLEY":"２２弄","HOUSE_NO":"１９號七樓","E_COORD97":169114.17000000001,"N_COORD97":2546668.21,"ADDRESS":"北成路８０巷２２弄１９號七樓","OBJECTID":19715},"geometry":{"x":169114.17000000086,"y":2546668.2100000046}},{"attributes":{"ID":19716,"DIS_CODE":0,"TOWNNAME":"麻豆區","LI":"油車里","LIN":"14鄰","STREET":" ","SECT":" ","MAREA":"油車","LANE":" ","ALLEY":" ","HOUSE_NO":"１０９號之３","E_COORD97":172496.76000000001,"N_COORD97":2565791.9199999999,"ADDRESS":"油車１０９號之３","OBJECTID":19716},"geometry":{"x":172496.76000000164,"y":2565791.9200000018}},{"attributes":{"ID":19717,"DIS_CODE":0,"TOWNNAME":"北區","LI":"成功里","LIN":"14鄰","STREET":"北成路","SECT":" ","MAREA":" ","LANE":"８０巷","ALLEY":"２２弄","HOUSE_NO":"１９號二樓","E_COORD97":169114.17000000001,"N_COORD97":2546668.21,"ADDRESS":"北成路８０巷２２弄１９號二樓","OBJECTID":19717},"geometry":{"x":169114.17000000086,"y":2546668.2100000046}},{"attributes":{"ID":19718,"DIS_CODE":0,"TOWNNAME":"麻豆區","LI":"南勢里","LIN":"14鄰","STREET":" ","SECT":" ","MAREA":"南勢","LANE":" ","ALLEY":" ","HOUSE_NO":"３１號","E_COORD97":174413.34,"N_COORD97":2564974.8300000001,"ADDRESS":"南勢３１號","OBJECTID":19718},"geometry":{"x":174413.33999999985,"y":2564974.8300000038}},{"attributes":{"ID":19719,"DIS_CODE":0,"TOWNNAME":"北區","LI":"成功里","LIN":"14鄰","STREET":"北成路","SECT":" ","MAREA":" ","LANE":"８０巷","ALLEY":"２２弄","HOUSE_NO":"１９號三樓","E_COORD97":169114.17000000001,"N_COORD97":2546668.21,"ADDRESS":"北成路８０巷２２弄１９號三樓","OBJECTID":19719},"geometry":{"x":169114.17000000086,"y":2546668.2100000046}},{"attributes":{"ID":19720,"DIS_CODE":0,"TOWNNAME":"北區","LI":"大豐里","LIN":"17鄰","STREET":"和緯路","SECT":"四段","MAREA":" ","LANE":" ","ALLEY":" ","HOUSE_NO":"９７號","E_COORD97":167112.60999999999,"N_COORD97":2545490.79,"ADDRESS":"和緯路四段９７號","OBJECTID":19720},"geometry":{"x":167112.6099999994,"y":2545490.790000001}},{"attributes":{"ID":19721,"DIS_CODE":0,"TOWNNAME":"北區","LI":"大豐里","LIN":"17鄰","STREET":"和緯路","SECT":"四段","MAREA":" ","LANE":" ","ALLEY":" ","HOUSE_NO":"９９號","E_COORD97":167108.60000000001,"N_COORD97":2545488.5699999998,"ADDRESS":"和緯路四段９９號","OBJECTID":19721},"geometry":{"x":167108.60000000149,"y":2545488.5699999984}},{"attributes":{"ID":19722,"DIS_CODE":0,"TOWNNAME":"北區","LI":"重興里","LIN":"8鄰","STREET":"東豐路","SECT":" ","MAREA":" ","LANE":" ","ALLEY":" ","HOUSE_NO":"４２９號","E_COORD97":170719.59,"N_COORD97":2544765.3900000001,"ADDRESS":"東豐路４２９號","OBJECTID":19722},"geometry":{"x":170719.58999999892,"y":2544765.3900000025}},{"attributes":{"ID":19723,"DIS_CODE":0,"TOWNNAME":"北區","LI":"六甲里","LIN":"5鄰","STREET":"公園路","SECT":" ","MAREA":" ","LANE":" ","ALLEY":" ","HOUSE_NO":"５７１號","E_COORD97":169088.31,"N_COORD97":2545676.46,"ADDRESS":"公園路５７１號","OBJECTID":19723},"geometry":{"x":169088.30999999959,"y":2545676.4600000046}},{"attributes":{"ID":19724,"DIS_CODE":0,"TOWNNAME":"麻豆區","LI":"南勢里","LIN":"14鄰","STREET":" ","SECT":" ","MAREA":"南勢","LANE":" ","ALLEY":" ","HOUSE_NO":"２７號之２","E_COORD97":174389.29000000001,"N_COORD97":2565043.71,"ADDRESS":"南勢２７號之２","OBJECTID":19724},"geometry":{"x":174389.29000000097,"y":2565043.7100000009}},{"attributes":{"ID":19725,"DIS_CODE":0,"TOWNNAME":"麻豆區","LI":"南勢里","LIN":"14鄰","STREET":" ","SECT":" ","MAREA":"南勢","LANE":" ","ALLEY":" ","HOUSE_NO":"２７號之３","E_COORD97":174403.95999999999,"N_COORD97":2565086.5699999998,"ADDRESS":"南勢２７號之３","OBJECTID":19725},"geometry":{"x":174403.95999999996,"y":2565086.5700000022}},{"attributes":{"ID":19726,"DIS_CODE":0,"TOWNNAME":"麻豆區","LI":"南勢里","LIN":"14鄰","STREET":" ","SECT":" ","MAREA":"南勢","LANE":" ","ALLEY":" ","HOUSE_NO":"２７號","E_COORD97":174396.20000000001,"N_COORD97":2565024.5299999998,"ADDRESS":"南勢２７號","OBJECTID":19726},"geometry":{"x":174396.20000000205,"y":2565024.5300000012}},{"attributes":{"ID":19727,"DIS_CODE":0,"TOWNNAME":"麻豆區","LI":"南勢里","LIN":"14鄰","STREET":" ","SECT":" ","MAREA":"南勢","LANE":" ","ALLEY":" ","HOUSE_NO":"２８號之１","E_COORD97":174377.04999999999,"N_COORD97":2565071.75,"ADDRESS":"南勢２８號之１","OBJECTID":19727},"geometry":{"x":174377.05000000075,"y":2565071.75}},{"attributes":{"ID":19728,"DIS_CODE":0,"TOWNNAME":"北區","LI":"文元里","LIN":"13鄰","STREET":"文賢路","SECT":" ","MAREA":" ","LANE":" ","ALLEY":" ","HOUSE_NO":"１１９２號","E_COORD97":167317.91,"N_COORD97":2546488.2200000002,"ADDRESS":"文賢路１１９２號","OBJECTID":19728},"geometry":{"x":167317.91000000108,"y":2546488.2200000044}},{"attributes":{"ID":19729,"DIS_CODE":0,"TOWNNAME":"安平區","LI":"文平里","LIN":"24鄰","STREET":"建平路","SECT":" ","MAREA":" ","LANE":" ","ALLEY":" ","HOUSE_NO":"２號","E_COORD97":166118.95999999999,"N_COORD97":2542688.5499999998,"ADDRESS":"建平路２號","OBJECTID":19729},"geometry":{"x":166118.96000000089,"y":2542688.5500000007}},{"attributes":{"ID":19730,"DIS_CODE":0,"TOWNNAME":"北區","LI":"大豐里","LIN":"8鄰","STREET":"文賢路","SECT":" ","MAREA":" ","LANE":" ","ALLEY":" ","HOUSE_NO":"３３９號","E_COORD97":167327.76010399999,"N_COORD97":2545318.4408100001,"ADDRESS":"文賢路３３９號","OBJECTID":19730},"geometry":{"x":167327.7601040015,"y":2545318.4408070017}},{"attributes":{"ID":19731,"DIS_CODE":0,"TOWNNAME":"麻豆區","LI":"南勢里","LIN":"14鄰","STREET":" ","SECT":" ","MAREA":"南勢","LANE":" ","ALLEY":" ","HOUSE_NO":"２８號","E_COORD97":174372.56,"N_COORD97":2565029.3700000001,"ADDRESS":"南勢２８號","OBJECTID":19731},"geometry":{"x":174372.55999999959,"y":2565029.3699999992}},{"attributes":{"ID":19732,"DIS_CODE":0,"TOWNNAME":"麻豆區","LI":"南勢里","LIN":"14鄰","STREET":" ","SECT":" ","MAREA":"南勢","LANE":" ","ALLEY":" ","HOUSE_NO":"２９號之１","E_COORD97":174338.48000000001,"N_COORD97":2565001.2400000002,"ADDRESS":"南勢２９號之１","OBJECTID":19732},"geometry":{"x":174338.48000000045,"y":2565001.2400000002}},{"attributes":{"ID":19733,"DIS_CODE":0,"TOWNNAME":"麻豆區","LI":"南勢里","LIN":"14鄰","STREET":" ","SECT":" ","MAREA":"南勢","LANE":" ","ALLEY":" ","HOUSE_NO":"２９號之２","E_COORD97":174318.97,"N_COORD97":2564999.3300000001,"ADDRESS":"南勢２９號之２","OBJECTID":19733},"geometry":{"x":174318.96999999974,"y":2564999.3300000019}},{"attributes":{"ID":19734,"DIS_CODE":0,"TOWNNAME":"麻豆區","LI":"南勢里","LIN":"14鄰","STREET":" ","SECT":" ","MAREA":"南勢","LANE":" ","ALLEY":" ","HOUSE_NO":"２９號之３","E_COORD97":174318.91,"N_COORD97":2565018.8900000001,"ADDRESS":"南勢２９號之３","OBJECTID":19734},"geometry":{"x":174318.91000000108,"y":2565018.8900000043}},{"attributes":{"ID":19735,"DIS_CODE":0,"TOWNNAME":"北區","LI":"成功里","LIN":"14鄰","STREET":"北成路","SECT":" ","MAREA":" ","LANE":"８０巷","ALLEY":"２２弄","HOUSE_NO":"１９號五樓","E_COORD97":169114.17000000001,"N_COORD97":2546668.21,"ADDRESS":"北成路８０巷２２弄１９號五樓","OBJECTID":19735},"geometry":{"x":169114.17000000086,"y":2546668.2100000046}},{"attributes":{"ID":19736,"DIS_CODE":0,"TOWNNAME":"北區","LI":"成功里","LIN":"14鄰","STREET":"北成路","SECT":" ","MAREA":" ","LANE":"８０巷","ALLEY":"２２弄","HOUSE_NO":"１９號六樓","E_COORD97":169114.17000000001,"N_COORD97":2546668.21,"ADDRESS":"北成路８０巷２２弄１９號六樓","OBJECTID":19736},"geometry":{"x":169114.17000000086,"y":2546668.2100000046}},{"attributes":{"ID":19737,"DIS_CODE":0,"TOWNNAME":"北區","LI":"成功里","LIN":"14鄰","STREET":"北成路","SECT":" ","MAREA":" ","LANE":"８０巷","ALLEY":"２２弄","HOUSE_NO":"１９號四樓","E_COORD97":169114.17000000001,"N_COORD97":2546668.21,"ADDRESS":"北成路８０巷２２弄１９號四樓","OBJECTID":19737},"geometry":{"x":169114.17000000086,"y":2546668.2100000046}},{"attributes":{"ID":19738,"DIS_CODE":0,"TOWNNAME":"麻豆區","LI":"南勢里","LIN":"14鄰","STREET":" ","SECT":" ","MAREA":"南勢","LANE":" ","ALLEY":" ","HOUSE_NO":"２９號之４","E_COORD97":174335.84,"N_COORD97":2565026.79,"ADDRESS":"南勢２９號之４","OBJECTID":19738},"geometry":{"x":174335.84000000078,"y":2565026.7899999991}},{"attributes":{"ID":19739,"DIS_CODE":0,"TOWNNAME":"北區","LI":"成功里","LIN":"14鄰","STREET":"北成路","SECT":" ","MAREA":" ","LANE":"８０巷","ALLEY":"４０弄","HOUSE_NO":"２４號七樓","E_COORD97":169129.64000000001,"N_COORD97":2546702.1899999999,"ADDRESS":"北成路８０巷４０弄２４號七樓","OBJECTID":19739},"geometry":{"x":169129.6400000006,"y":2546702.1900000013}},{"attributes":{"ID":19740,"DIS_CODE":0,"TOWNNAME":"北區","LI":"成功里","LIN":"14鄰","STREET":"北成路","SECT":" ","MAREA":" ","LANE":"８０巷","ALLEY":"４０弄","HOUSE_NO":"２４號二樓","E_COORD97":169129.64000000001,"N_COORD97":2546702.1899999999,"ADDRESS":"北成路８０巷４０弄２４號二樓","OBJECTID":19740},"geometry":{"x":169129.6400000006,"y":2546702.1900000013}},{"attributes":{"ID":19741,"DIS_CODE":0,"TOWNNAME":"北區","LI":"成功里","LIN":"14鄰","STREET":"北成路","SECT":" ","MAREA":" ","LANE":"８０巷","ALLEY":"４０弄","HOUSE_NO":"２４號八樓","E_COORD97":169129.64000000001,"N_COORD97":2546702.1899999999,"ADDRESS":"北成路８０巷４０弄２４號八樓","OBJECTID":19741},"geometry":{"x":169129.6400000006,"y":2546702.1900000013}},{"attributes":{"ID":19742,"DIS_CODE":0,"TOWNNAME":"北區","LI":"成功里","LIN":"14鄰","STREET":"北成路","SECT":" ","MAREA":" ","LANE":"８０巷","ALLEY":"４０弄","HOUSE_NO":"２４號三樓","E_COORD97":169129.64000000001,"N_COORD97":2546702.1899999999,"ADDRESS":"北成路８０巷４０弄２４號三樓","OBJECTID":19742},"geometry":{"x":169129.6400000006,"y":2546702.1900000013}},{"attributes":{"ID":19743,"DIS_CODE":0,"TOWNNAME":"北區","LI":"成功里","LIN":"14鄰","STREET":"北成路","SECT":" ","MAREA":" ","LANE":"８０巷","ALLEY":"４０弄","HOUSE_NO":"２４號五樓","E_COORD97":169129.64000000001,"N_COORD97":2546702.1899999999,"ADDRESS":"北成路８０巷４０弄２４號五樓","OBJECTID":19743},"geometry":{"x":169129.6400000006,"y":2546702.1900000013}},{"attributes":{"ID":19744,"DIS_CODE":0,"TOWNNAME":"北區","LI":"成功里","LIN":"14鄰","STREET":"北成路","SECT":" ","MAREA":" ","LANE":"８０巷","ALLEY":"４０弄","HOUSE_NO":"２４號六樓","E_COORD97":169129.64000000001,"N_COORD97":2546702.1899999999,"ADDRESS":"北成路８０巷４０弄２４號六樓","OBJECTID":19744},"geometry":{"x":169129.6400000006,"y":2546702.1900000013}},{"attributes":{"ID":19745,"DIS_CODE":0,"TOWNNAME":"北區","LI":"成功里","LIN":"14鄰","STREET":"北成路","SECT":" ","MAREA":" ","LANE":"８０巷","ALLEY":"４０弄","HOUSE_NO":"２４號四樓","E_COORD97":169129.64000000001,"N_COORD97":2546702.1899999999,"ADDRESS":"北成路８０巷４０弄２４號四樓","OBJECTID":19745},"geometry":{"x":169129.6400000006,"y":2546702.1900000013}},{"attributes":{"ID":19746,"DIS_CODE":0,"TOWNNAME":"北區","LI":"成功里","LIN":"14鄰","STREET":"北成路","SECT":" ","MAREA":" ","LANE":"８０巷","ALLEY":"４０弄","HOUSE_NO":"２６號七樓","E_COORD97":169138.29999999999,"N_COORD97":2546697.8599999999,"ADDRESS":"北成路８０巷４０弄２６號七樓","OBJECTID":19746},"geometry":{"x":169138.30000000168,"y":2546697.8600000013}},{"attributes":{"ID":19747,"DIS_CODE":0,"TOWNNAME":"北區","LI":"成功里","LIN":"14鄰","STREET":"北成路","SECT":" ","MAREA":" ","LANE":"８０巷","ALLEY":"４０弄","HOUSE_NO":"２６號二樓","E_COORD97":169138.29999999999,"N_COORD97":2546697.8599999999,"ADDRESS":"北成路８０巷４０弄２６號二樓","OBJECTID":19747},"geometry":{"x":169138.30000000168,"y":2546697.8600000013}},{"attributes":{"ID":19748,"DIS_CODE":0,"TOWNNAME":"北區","LI":"成功里","LIN":"14鄰","STREET":"北成路","SECT":" ","MAREA":" ","LANE":"８０巷","ALLEY":"４０弄","HOUSE_NO":"２６號八樓","E_COORD97":169138.29999999999,"N_COORD97":2546697.8599999999,"ADDRESS":"北成路８０巷４０弄２６號八樓","OBJECTID":19748},"geometry":{"x":169138.30000000168,"y":2546697.8600000013}},{"attributes":{"ID":19749,"DIS_CODE":0,"TOWNNAME":"麻豆區","LI":"南勢里","LIN":"14鄰","STREET":" ","SECT":" ","MAREA":"南勢","LANE":" ","ALLEY":" ","HOUSE_NO":"２９號","E_COORD97":174319.69,"N_COORD97":2564987.48,"ADDRESS":"南勢２９號","OBJECTID":19749},"geometry":{"x":174319.69000000041,"y":2564987.4800000042}},{"attributes":{"ID":19750,"DIS_CODE":0,"TOWNNAME":"麻豆區","LI":"南勢里","LIN":"14鄰","STREET":" ","SECT":" ","MAREA":"南勢","LANE":" ","ALLEY":" ","HOUSE_NO":"３１號之１","E_COORD97":174403.91,"N_COORD97":2564948.6000000001,"ADDRESS":"南勢３１號之１","OBJECTID":19750},"geometry":{"x":174403.91000000108,"y":2564948.6000000034}},{"attributes":{"ID":19751,"DIS_CODE":0,"TOWNNAME":"麻豆區","LI":"南勢里","LIN":"14鄰","STREET":" ","SECT":" ","MAREA":"南勢","LANE":" ","ALLEY":" ","HOUSE_NO":"３１號之２","E_COORD97":174428.38,"N_COORD97":2564952.5800000001,"ADDRESS":"南勢３１號之２","OBJECTID":19751},"geometry":{"x":174428.37999999989,"y":2564952.5800000038}},{"attributes":{"ID":19752,"DIS_CODE":0,"TOWNNAME":"麻豆區","LI":"港尾里","LIN":"14鄰","STREET":" ","SECT":" ","MAREA":"客子寮","LANE":" ","ALLEY":" ","HOUSE_NO":"２３號","E_COORD97":169735.54000000001,"N_COORD97":2568358.98,"ADDRESS":"客子寮２３號","OBJECTID":19752},"geometry":{"x":169735.54000000097,"y":2568358.9800000023}},{"attributes":{"ID":19753,"DIS_CODE":0,"TOWNNAME":"麻豆區","LI":"港尾里","LIN":"14鄰","STREET":" ","SECT":" ","MAREA":"客子寮","LANE":" ","ALLEY":" ","HOUSE_NO":"２４號","E_COORD97":169750.62,"N_COORD97":2568339.3100000001,"ADDRESS":"客子寮２４號","OBJECTID":19753},"geometry":{"x":169750.62000000104,"y":2568339.3100000024}},{"attributes":{"ID":19754,"DIS_CODE":0,"TOWNNAME":"麻豆區","LI":"港尾里","LIN":"14鄰","STREET":" ","SECT":" ","MAREA":"客子寮","LANE":" ","ALLEY":" ","HOUSE_NO":"２５號","E_COORD97":169763.75,"N_COORD97":2568351.3999999999,"ADDRESS":"客子寮２５號","OBJECTID":19754},"geometry":{"x":169763.75,"y":2568351.4000000041}},{"attributes":{"ID":19755,"DIS_CODE":0,"TOWNNAME":"北區","LI":"成功里","LIN":"14鄰","STREET":"北成路","SECT":" ","MAREA":" ","LANE":"８０巷","ALLEY":"４０弄","HOUSE_NO":"２６號三樓","E_COORD97":169138.29999999999,"N_COORD97":2546697.8599999999,"ADDRESS":"北成路８０巷４０弄２６號三樓","OBJECTID":19755},"geometry":{"x":169138.30000000168,"y":2546697.8600000013}},{"attributes":{"ID":19756,"DIS_CODE":0,"TOWNNAME":"北區","LI":"成功里","LIN":"14鄰","STREET":"北成路","SECT":" ","MAREA":" ","LANE":"８０巷","ALLEY":"４０弄","HOUSE_NO":"２６號五樓","E_COORD97":169138.29999999999,"N_COORD97":2546697.8599999999,"ADDRESS":"北成路８０巷４０弄２６號五樓","OBJECTID":19756},"geometry":{"x":169138.30000000168,"y":2546697.8600000013}},{"attributes":{"ID":19757,"DIS_CODE":0,"TOWNNAME":"北區","LI":"成功里","LIN":"14鄰","STREET":"北成路","SECT":" ","MAREA":" ","LANE":"８０巷","ALLEY":"４０弄","HOUSE_NO":"２６號六樓","E_COORD97":169138.29999999999,"N_COORD97":2546697.8599999999,"ADDRESS":"北成路８０巷４０弄２６號六樓","OBJECTID":19757},"geometry":{"x":169138.30000000168,"y":2546697.8600000013}},{"attributes":{"ID":19758,"DIS_CODE":0,"TOWNNAME":"北區","LI":"成功里","LIN":"14鄰","STREET":"北成路","SECT":" ","MAREA":" ","LANE":"８０巷","ALLEY":"４０弄","HOUSE_NO":"２６號四樓","E_COORD97":169138.29999999999,"N_COORD97":2546697.8599999999,"ADDRESS":"北成路８０巷４０弄２６號四樓","OBJECTID":19758},"geometry":{"x":169138.30000000168,"y":2546697.8600000013}},{"attributes":{"ID":19759,"DIS_CODE":0,"TOWNNAME":"仁德區","LI":"中生里","LIN":"14鄰","STREET":" ","SECT":" ","MAREA":"中洲","LANE":" ","ALLEY":" ","HOUSE_NO":"２２７號之１","E_COORD97":173116.81,"N_COORD97":2533989.2999999998,"ADDRESS":"中洲２２７號之１","OBJECTID":19759},"geometry":{"x":173116.81000000052,"y":2533989.3000000007}},{"attributes":{"ID":19760,"DIS_CODE":0,"TOWNNAME":"北區","LI":"成功里","LIN":"14鄰","STREET":"北成路","SECT":" ","MAREA":" ","LANE":"８０巷","ALLEY":"４０弄","HOUSE_NO":"２８號七樓","E_COORD97":169144.79000000001,"N_COORD97":2546694.77,"ADDRESS":"北成路８０巷４０弄２８號七樓","OBJECTID":19760},"geometry":{"x":169144.79000000004,"y":2546694.7700000014}},{"attributes":{"ID":19761,"DIS_CODE":0,"TOWNNAME":"安南區","LI":"安東里","LIN":"24鄰","STREET":"安和路","SECT":"二段","MAREA":" ","LANE":" ","ALLEY":" ","HOUSE_NO":"１０號","E_COORD97":169444.23000000001,"N_COORD97":2548544.2200000002,"ADDRESS":"安和路二段１０號","OBJECTID":19761},"geometry":{"x":169444.23000000045,"y":2548544.2200000025}},{"attributes":{"ID":19762,"DIS_CODE":0,"TOWNNAME":"安南區","LI":"安東里","LIN":"24鄰","STREET":"安和路","SECT":"二段","MAREA":" ","LANE":" ","ALLEY":" ","HOUSE_NO":"１２號","E_COORD97":169448,"N_COORD97":2548550.9199999999,"ADDRESS":"安和路二段１２號","OBJECTID":19762},"geometry":{"x":169448.00000000093,"y":2548550.9200000037}},{"attributes":{"ID":19763,"DIS_CODE":0,"TOWNNAME":"安南區","LI":"安東里","LIN":"24鄰","STREET":"安和路","SECT":"二段","MAREA":" ","LANE":" ","ALLEY":" ","HOUSE_NO":"４號","E_COORD97":169446.17999999999,"N_COORD97":2548517.4100000001,"ADDRESS":"安和路二段４號","OBJECTID":19763},"geometry":{"x":169446.18000000063,"y":2548517.4100000039}},{"attributes":{"ID":19764,"DIS_CODE":0,"TOWNNAME":"善化區","LI":"胡家里","LIN":"14鄰","STREET":" ","SECT":" ","MAREA":"胡厝寮","LANE":" ","ALLEY":" ","HOUSE_NO":"１３２號之１","E_COORD97":175392.82000000001,"N_COORD97":2560753.77,"ADDRESS":"胡厝寮１３２號之１","OBJECTID":19764},"geometry":{"x":175392.82000000123,"y":2560753.7700000014}},{"attributes":{"ID":19765,"DIS_CODE":0,"TOWNNAME":"善化區","LI":"胡厝里","LIN":"14鄰","STREET":" ","SECT":" ","MAREA":"胡厝寮","LANE":" ","ALLEY":" ","HOUSE_NO":"２３８號","E_COORD97":174944.39999999999,"N_COORD97":2560205.25,"ADDRESS":"胡厝寮２３８號","OBJECTID":19765},"geometry":{"x":174944.40000000224,"y":2560205.2500000019}},{"attributes":{"ID":19766,"DIS_CODE":0,"TOWNNAME":"善化區","LI":"胡厝里","LIN":"14鄰","STREET":" ","SECT":" ","MAREA":"胡厝寮","LANE":" ","ALLEY":" ","HOUSE_NO":"２２８號之１","E_COORD97":175009.54999999999,"N_COORD97":2560210.52,"ADDRESS":"胡厝寮２２８號之１","OBJECTID":19766},"geometry":{"x":175009.55000000075,"y":2560210.5200000014}},{"attributes":{"ID":19767,"DIS_CODE":0,"TOWNNAME":"善化區","LI":"牛庄里","LIN":"14鄰","STREET":" ","SECT":" ","MAREA":"牛庄","LANE":" ","ALLEY":" ","HOUSE_NO":"１４６之５號","E_COORD97":180030.10000000001,"N_COORD97":2559711.77,"ADDRESS":"牛庄１４６之５號","OBJECTID":19767},"geometry":{"x":180030.10000000056,"y":2559711.7699999996}},{"attributes":{"ID":19768,"DIS_CODE":0,"TOWNNAME":"善化區","LI":"牛庄里","LIN":"14鄰","STREET":" ","SECT":" ","MAREA":"牛庄","LANE":" ","ALLEY":" ","HOUSE_NO":"１４７號之１","E_COORD97":179929.01999999999,"N_COORD97":2559708.27,"ADDRESS":"牛庄１４７號之１","OBJECTID":19768},"geometry":{"x":179929.01999999955,"y":2559708.2699999996}},{"attributes":{"ID":19769,"DIS_CODE":0,"TOWNNAME":"善化區","LI":"牛庄里","LIN":"14鄰","STREET":" ","SECT":" ","MAREA":"牛庄","LANE":" ","ALLEY":" ","HOUSE_NO":"１４７之５號","E_COORD97":179953.32000000001,"N_COORD97":2559705.77,"ADDRESS":"牛庄１４７之５號","OBJECTID":19769},"geometry":{"x":179953.3200000003,"y":2559705.7700000033}},{"attributes":{"ID":19770,"DIS_CODE":0,"TOWNNAME":"善化區","LI":"牛庄里","LIN":"14鄰","STREET":" ","SECT":" ","MAREA":"牛庄","LANE":" ","ALLEY":" ","HOUSE_NO":"２２０號之９","E_COORD97":179882.85000000001,"N_COORD97":2559674.77,"ADDRESS":"牛庄２２０號之９","OBJECTID":19770},"geometry":{"x":179882.84999999963,"y":2559674.7699999996}},{"attributes":{"ID":19771,"DIS_CODE":0,"TOWNNAME":"善化區","LI":"牛庄里","LIN":"14鄰","STREET":" ","SECT":" ","MAREA":"牛庄","LANE":" ","ALLEY":" ","HOUSE_NO":"１４６號之１７","E_COORD97":180047.10999999999,"N_COORD97":2559757.52,"ADDRESS":"牛庄１４６號之１７","OBJECTID":19771},"geometry":{"x":180047.1100000022,"y":2559757.5199999996}},{"attributes":{"ID":19772,"DIS_CODE":0,"TOWNNAME":"善化區","LI":"牛庄里","LIN":"14鄰","STREET":" ","SECT":" ","MAREA":"牛庄","LANE":" ","ALLEY":" ","HOUSE_NO":"１４６之６號","E_COORD97":180033.19,"N_COORD97":2559717.02,"ADDRESS":"牛庄１４６之６號","OBJECTID":19772},"geometry":{"x":180033.19000000134,"y":2559717.0199999996}},{"attributes":{"ID":19773,"DIS_CODE":0,"TOWNNAME":"北區","LI":"成功里","LIN":"14鄰","STREET":"北成路","SECT":" ","MAREA":" ","LANE":"８０巷","ALLEY":"４０弄","HOUSE_NO":"２８號二樓","E_COORD97":169144.79000000001,"N_COORD97":2546694.77,"ADDRESS":"北成路８０巷４０弄２８號二樓","OBJECTID":19773},"geometry":{"x":169144.79000000004,"y":2546694.7700000014}},{"attributes":{"ID":19774,"DIS_CODE":0,"TOWNNAME":"北區","LI":"成功里","LIN":"14鄰","STREET":"北成路","SECT":" ","MAREA":" ","LANE":"８０巷","ALLEY":"４０弄","HOUSE_NO":"２８號八樓","E_COORD97":169144.79000000001,"N_COORD97":2546694.77,"ADDRESS":"北成路８０巷４０弄２８號八樓","OBJECTID":19774},"geometry":{"x":169144.79000000004,"y":2546694.7700000014}},{"attributes":{"ID":19775,"DIS_CODE":0,"TOWNNAME":"北區","LI":"成功里","LIN":"14鄰","STREET":"北成路","SECT":" ","MAREA":" ","LANE":"８０巷","ALLEY":"４０弄","HOUSE_NO":"２８號三樓","E_COORD97":169144.79000000001,"N_COORD97":2546694.77,"ADDRESS":"北成路８０巷４０弄２８號三樓","OBJECTID":19775},"geometry":{"x":169144.79000000004,"y":2546694.7700000014}},{"attributes":{"ID":19776,"DIS_CODE":0,"TOWNNAME":"北區","LI":"成功里","LIN":"14鄰","STREET":"北成路","SECT":" ","MAREA":" ","LANE":"８０巷","ALLEY":"４０弄","HOUSE_NO":"２８號五樓","E_COORD97":169144.79000000001,"N_COORD97":2546694.77,"ADDRESS":"北成路８０巷４０弄２８號五樓","OBJECTID":19776},"geometry":{"x":169144.79000000004,"y":2546694.7700000014}},{"attributes":{"ID":19777,"DIS_CODE":0,"TOWNNAME":"善化區","LI":"牛庄里","LIN":"14鄰","STREET":" ","SECT":" ","MAREA":"牛庄","LANE":" ","ALLEY":" ","HOUSE_NO":"１４６號之２３","E_COORD97":180048,"N_COORD97":2559734.02,"ADDRESS":"牛庄１４６號之２３","OBJECTID":19777},"geometry":{"x":180048.00000000093,"y":2559734.0199999996}},{"attributes":{"ID":19778,"DIS_CODE":0,"TOWNNAME":"將軍區","LI":"忠興里","LIN":"14鄰","STREET":" ","SECT":" ","MAREA":"忠興","LANE":" ","ALLEY":" ","HOUSE_NO":"１４１之１３號","E_COORD97":163570.88,"N_COORD97":2567137.0699999998,"ADDRESS":"忠興１４１之１３號","OBJECTID":19778},"geometry":{"x":163570.88000000175,"y":2567137.0700000022}},{"attributes":{"ID":19779,"DIS_CODE":0,"TOWNNAME":"將軍區","LI":"忠興里","LIN":"14鄰","STREET":" ","SECT":" ","MAREA":"忠興","LANE":" ","ALLEY":" ","HOUSE_NO":"１４１之１４號","E_COORD97":163571.57000000001,"N_COORD97":2567133.1099999999,"ADDRESS":"忠興１４１之１４號","OBJECTID":19779},"geometry":{"x":163571.5700000003,"y":2567133.1100000013}},{"attributes":{"ID":19780,"DIS_CODE":0,"TOWNNAME":"北區","LI":"成功里","LIN":"14鄰","STREET":"北成路","SECT":" ","MAREA":" ","LANE":"８０巷","ALLEY":"４０弄","HOUSE_NO":"２８號六樓","E_COORD97":169144.79000000001,"N_COORD97":2546694.77,"ADDRESS":"北成路８０巷４０弄２８號六樓","OBJECTID":19780},"geometry":{"x":169144.79000000004,"y":2546694.7700000014}},{"attributes":{"ID":19781,"DIS_CODE":0,"TOWNNAME":"北區","LI":"成功里","LIN":"14鄰","STREET":"北成路","SECT":" ","MAREA":" ","LANE":"８０巷","ALLEY":"４０弄","HOUSE_NO":"２８號四樓","E_COORD97":169144.79000000001,"N_COORD97":2546694.77,"ADDRESS":"北成路８０巷４０弄２８號四樓","OBJECTID":19781},"geometry":{"x":169144.79000000004,"y":2546694.7700000014}},{"attributes":{"ID":19782,"DIS_CODE":0,"TOWNNAME":"北區","LI":"成功里","LIN":"14鄰","STREET":"北成路","SECT":" ","MAREA":" ","LANE":"８０巷","ALLEY":"４０弄","HOUSE_NO":"３０號七樓","E_COORD97":169152.82999999999,"N_COORD97":2546689.8300000001,"ADDRESS":"北成路８０巷４０弄３０號七樓","OBJECTID":19782},"geometry":{"x":169152.83000000007,"y":2546689.8300000001}},{"attributes":{"ID":19783,"DIS_CODE":0,"TOWNNAME":"北區","LI":"成功里","LIN":"14鄰","STREET":"北成路","SECT":" ","MAREA":" ","LANE":"８０巷","ALLEY":"４０弄","HOUSE_NO":"３０號二樓","E_COORD97":169152.82999999999,"N_COORD97":2546689.8300000001,"ADDRESS":"北成路８０巷４０弄３０號二樓","OBJECTID":19783},"geometry":{"x":169152.83000000007,"y":2546689.8300000001}},{"attributes":{"ID":19784,"DIS_CODE":0,"TOWNNAME":"北區","LI":"成功里","LIN":"14鄰","STREET":"北成路","SECT":" ","MAREA":" ","LANE":"８０巷","ALLEY":"４０弄","HOUSE_NO":"３０號八樓","E_COORD97":169152.82999999999,"N_COORD97":2546689.8300000001,"ADDRESS":"北成路８０巷４０弄３０號八樓","OBJECTID":19784},"geometry":{"x":169152.83000000007,"y":2546689.8300000001}},{"attributes":{"ID":19785,"DIS_CODE":0,"TOWNNAME":"永康區","LI":"中興里","LIN":"14鄰","STREET":"中興街","SECT":" ","MAREA":" ","LANE":"６９巷","ALLEY":"３１弄","HOUSE_NO":"６號","E_COORD97":171958.57999999999,"N_COORD97":2545255.0299999998,"ADDRESS":"中興街６９巷３１弄６號","OBJECTID":19785},"geometry":{"x":171958.58000000007,"y":2545255.0300000012}},{"attributes":{"ID":19786,"DIS_CODE":0,"TOWNNAME":"北區","LI":"成功里","LIN":"14鄰","STREET":"北成路","SECT":" ","MAREA":" ","LANE":"８０巷","ALLEY":"４０弄","HOUSE_NO":"３０號三樓","E_COORD97":169152.82999999999,"N_COORD97":2546689.8300000001,"ADDRESS":"北成路８０巷４０弄３０號三樓","OBJECTID":19786},"geometry":{"x":169152.83000000007,"y":2546689.8300000001}},{"attributes":{"ID":19787,"DIS_CODE":0,"TOWNNAME":"六甲區","LI":"二甲里","LIN":"24鄰","STREET":"中山路","SECT":" ","MAREA":" ","LANE":" ","ALLEY":" ","HOUSE_NO":"７３號","E_COORD97":183466.64000000001,"N_COORD97":2570006.1600000001,"ADDRESS":"中山路７３號","OBJECTID":19787},"geometry":{"x":183466.63999999966,"y":2570006.1600000001}},{"attributes":{"ID":19788,"DIS_CODE":0,"TOWNNAME":"六甲區","LI":"二甲里","LIN":"24鄰","STREET":"中山路","SECT":" ","MAREA":" ","LANE":" ","ALLEY":" ","HOUSE_NO":"７５號","E_COORD97":183461.47,"N_COORD97":2570007.73,"ADDRESS":"中山路７５號","OBJECTID":19788},"geometry":{"x":183461.4700000016,"y":2570007.7300000023}},{"attributes":{"ID":19789,"DIS_CODE":0,"TOWNNAME":"六甲區","LI":"二甲里","LIN":"24鄰","STREET":"中山路","SECT":" ","MAREA":" ","LANE":" ","ALLEY":" ","HOUSE_NO":"９３號","E_COORD97":183437.54000000001,"N_COORD97":2570008.7599999998,"ADDRESS":"中山路９３號","OBJECTID":19789},"geometry":{"x":183437.5400000019,"y":2570008.7599999998}},{"attributes":{"ID":19790,"DIS_CODE":0,"TOWNNAME":"六甲區","LI":"二甲里","LIN":"24鄰","STREET":"中山路","SECT":" ","MAREA":" ","LANE":" ","ALLEY":" ","HOUSE_NO":"９７號","E_COORD97":183421.04000000001,"N_COORD97":2570016.1899999999,"ADDRESS":"中山路９７號","OBJECTID":19790},"geometry":{"x":183421.04000000097,"y":2570016.1899999976}},{"attributes":{"ID":19791,"DIS_CODE":0,"TOWNNAME":"六甲區","LI":"甲南里","LIN":"24鄰","STREET":"中正路","SECT":" ","MAREA":" ","LANE":" ","ALLEY":" ","HOUSE_NO":"１５６號","E_COORD97":183470.26999999999,"N_COORD97":2569044.5299999998,"ADDRESS":"中正路１５６號","OBJECTID":19791},"geometry":{"x":183470.26999999955,"y":2569044.5300000031}},{"attributes":{"ID":19792,"DIS_CODE":0,"TOWNNAME":"六甲區","LI":"甲南里","LIN":"24鄰","STREET":"中正路","SECT":" ","MAREA":" ","LANE":" ","ALLEY":" ","HOUSE_NO":"１５８號","E_COORD97":183462.32999999999,"N_COORD97":2569054.1600000001,"ADDRESS":"中正路１５８號","OBJECTID":19792},"geometry":{"x":183462.33000000007,"y":2569054.1600000001}},{"attributes":{"ID":19793,"DIS_CODE":0,"TOWNNAME":"六甲區","LI":"甲南里","LIN":"24鄰","STREET":"中正路","SECT":" ","MAREA":" ","LANE":" ","ALLEY":" ","HOUSE_NO":"１６０號","E_COORD97":183463.25,"N_COORD97":2569059.6099999999,"ADDRESS":"中正路１６０號","OBJECTID":19793},"geometry":{"x":183463.25000000186,"y":2569059.6099999994}},{"attributes":{"ID":19794,"DIS_CODE":0,"TOWNNAME":"六甲區","LI":"甲南里","LIN":"24鄰","STREET":"中正路","SECT":" ","MAREA":" ","LANE":" ","ALLEY":" ","HOUSE_NO":"１６２號","E_COORD97":183463.76000000001,"N_COORD97":2569063.2000000002,"ADDRESS":"中正路１６２號","OBJECTID":19794},"geometry":{"x":183463.76000000071,"y":2569063.1999999974}},{"attributes":{"ID":19795,"DIS_CODE":0,"TOWNNAME":"六甲區","LI":"甲南里","LIN":"24鄰","STREET":"中正路","SECT":" ","MAREA":" ","LANE":" ","ALLEY":" ","HOUSE_NO":"１６４號","E_COORD97":183464.35000000001,"N_COORD97":2569070.1899999999,"ADDRESS":"中正路１６４號","OBJECTID":19795},"geometry":{"x":183464.35000000056,"y":2569070.1899999995}},{"attributes":{"ID":19796,"DIS_CODE":0,"TOWNNAME":"六甲區","LI":"甲南里","LIN":"24鄰","STREET":"中正路","SECT":" ","MAREA":" ","LANE":" ","ALLEY":" ","HOUSE_NO":"１７０號","E_COORD97":183467.26999999999,"N_COORD97":2569080.4500000002,"ADDRESS":"中正路１７０號","OBJECTID":19796},"geometry":{"x":183467.26999999955,"y":2569080.4499999993}},{"attributes":{"ID":19797,"DIS_CODE":0,"TOWNNAME":"北區","LI":"成功里","LIN":"14鄰","STREET":"北成路","SECT":" ","MAREA":" ","LANE":"８０巷","ALLEY":"４０弄","HOUSE_NO":"３０號五樓","E_COORD97":169152.82999999999,"N_COORD97":2546689.8300000001,"ADDRESS":"北成路８０巷４０弄３０號五樓","OBJECTID":19797},"geometry":{"x":169152.83000000007,"y":2546689.8300000001}},{"attributes":{"ID":19798,"DIS_CODE":0,"TOWNNAME":"北區","LI":"成功里","LIN":"14鄰","STREET":"北成路","SECT":" ","MAREA":" ","LANE":"８０巷","ALLEY":"４０弄","HOUSE_NO":"３０號六樓","E_COORD97":169152.82999999999,"N_COORD97":2546689.8300000001,"ADDRESS":"北成路８０巷４０弄３０號六樓","OBJECTID":19798},"geometry":{"x":169152.83000000007,"y":2546689.8300000001}},{"attributes":{"ID":19799,"DIS_CODE":0,"TOWNNAME":"仁德區","LI":"成功里","LIN":"1鄰","STREET":"保生東路","SECT":" ","MAREA":" ","LANE":"１３８巷","ALLEY":"６弄","HOUSE_NO":"２號","E_COORD97":171205.815401,"N_COORD97":2539574.1079799999,"ADDRESS":"保生東路１３８巷６弄２號","OBJECTID":19799},"geometry":{"x":171205.81540099997,"y":2539574.1079820003}},{"attributes":{"ID":19800,"DIS_CODE":0,"TOWNNAME":"北區","LI":"成功里","LIN":"14鄰","STREET":"北成路","SECT":" ","MAREA":" ","LANE":"８０巷","ALLEY":"４０弄","HOUSE_NO":"３０號四樓","E_COORD97":169152.82999999999,"N_COORD97":2546689.8300000001,"ADDRESS":"北成路８０巷４０弄３０號四樓","OBJECTID":19800},"geometry":{"x":169152.83000000007,"y":2546689.8300000001}}]}