{"displayFieldName":"TOWNNAME","fieldAliases":{"ID":"ID","DIS_CODE":"DIS_CODE","TOWNNAME":"TOWNNAME","LI":"LI","LIN":"LIN","STREET":"STREET","SECT":"SECT","MAREA":"MAREA","LANE":"LANE","ALLEY":"ALLEY","HOUSE_NO":"HOUSE_NO","E_COORD97":"E_COORD97","N_COORD97":"N_COORD97","ADDRESS":"ADDRESS","OBJECTID":"OBJECTID"},"geometryType":"esriGeometryPoint","spatialReference":{"wkid":102443,"latestWkid":3826},"fields":[{"name":"ID","type":"esriFieldTypeDouble","alias":"ID"},{"name":"DIS_CODE","type":"esriFieldTypeInteger","alias":"DIS_CODE"},{"name":"TOWNNAME","type":"esriFieldTypeString","alias":"TOWNNAME","length":8},{"name":"LI","type":"esriFieldTypeString","alias":"LI","length":8},{"name":"LIN","type":"esriFieldTypeString","alias":"LIN","length":12},{"name":"STREET","type":"esriFieldTypeString","alias":"STREET","length":20},{"name":"SECT","type":"esriFieldTypeString","alias":"SECT","length":8},{"name":"MAREA","type":"esriFieldTypeString","alias":"MAREA","length":12},{"name":"LANE","type":"esriFieldTypeString","alias":"LANE","length":10},{"name":"ALLEY","type":"esriFieldTypeString","alias":"ALLEY","length":10},{"name":"HOUSE_NO","type":"esriFieldTypeString","alias":"HOUSE_NO","length":20},{"name":"E_COORD97","type":"esriFieldTypeDouble","alias":"E_COORD97"},{"name":"N_COORD97","type":"esriFieldTypeDouble","alias":"N_COORD97"},{"name":"ADDRESS","type":"esriFieldTypeString","alias":"ADDRESS","length":50},{"name":"OBJECTID","type":"esriFieldTypeOID","alias":"OBJECTID"}],"features":[{"attributes":{"ID":626428,"DIS_CODE":0,"TOWNNAME":"東區","LI":"文聖里","LIN":"11鄰","STREET":"裕和二街","SECT":" ","MAREA":" ","LANE":" ","ALLEY":" ","HOUSE_NO":"１０２號七樓","E_COORD97":172122.84,"N_COORD97":2542804.3700000001,"ADDRESS":"裕和二街１０２號七樓","OBJECTID":626401},"geometry":{"x":172122.83999999985,"y":2542804.370000001}},{"attributes":{"ID":626429,"DIS_CODE":0,"TOWNNAME":"東區","LI":"文聖里","LIN":"11鄰","STREET":"裕和二街","SECT":" ","MAREA":" ","LANE":" ","ALLEY":" ","HOUSE_NO":"１０２號四樓","E_COORD97":172122.84,"N_COORD97":2542804.3700000001,"ADDRESS":"裕和二街１０２號四樓","OBJECTID":626402},"geometry":{"x":172122.83999999985,"y":2542804.370000001}},{"attributes":{"ID":626430,"DIS_CODE":0,"TOWNNAME":"東區","LI":"大福里","LIN":"23鄰","STREET":"中華東路","SECT":"三段","MAREA":" ","LANE":" ","ALLEY":" ","HOUSE_NO":"６２８號八樓","E_COORD97":169507.69,"N_COORD97":2541467.0800000001,"ADDRESS":"中華東路三段６２８號八樓","OBJECTID":626403},"geometry":{"x":169507.69000000227,"y":2541467.0800000001}},{"attributes":{"ID":626431,"DIS_CODE":0,"TOWNNAME":"東區","LI":"大福里","LIN":"23鄰","STREET":"中華東路","SECT":"三段","MAREA":" ","LANE":" ","ALLEY":" ","HOUSE_NO":"６２８號九樓","E_COORD97":169507.69,"N_COORD97":2541467.0800000001,"ADDRESS":"中華東路三段６２８號九樓","OBJECTID":626404},"geometry":{"x":169507.69000000227,"y":2541467.0800000001}},{"attributes":{"ID":626432,"DIS_CODE":0,"TOWNNAME":"東區","LI":"大福里","LIN":"23鄰","STREET":"中華東路","SECT":"三段","MAREA":" ","LANE":" ","ALLEY":" ","HOUSE_NO":"６２８號十樓","E_COORD97":169507.69,"N_COORD97":2541467.0800000001,"ADDRESS":"中華東路三段６２８號十樓","OBJECTID":626405},"geometry":{"x":169507.69000000227,"y":2541467.0800000001}},{"attributes":{"ID":626433,"DIS_CODE":0,"TOWNNAME":"東區","LI":"大福里","LIN":"23鄰","STREET":"中華東路","SECT":"三段","MAREA":" ","LANE":" ","ALLEY":" ","HOUSE_NO":"６２８號十一樓","E_COORD97":169507.69,"N_COORD97":2541467.0800000001,"ADDRESS":"中華東路三段６２８號十一樓","OBJECTID":626406},"geometry":{"x":169507.69000000227,"y":2541467.0800000001}},{"attributes":{"ID":626434,"DIS_CODE":0,"TOWNNAME":"東區","LI":"大福里","LIN":"23鄰","STREET":"中華東路","SECT":"三段","MAREA":" ","LANE":" ","ALLEY":" ","HOUSE_NO":"６２８號十二樓","E_COORD97":169507.69,"N_COORD97":2541467.0800000001,"ADDRESS":"中華東路三段６２８號十二樓","OBJECTID":626407},"geometry":{"x":169507.69000000227,"y":2541467.0800000001}},{"attributes":{"ID":626435,"DIS_CODE":0,"TOWNNAME":"東區","LI":"大福里","LIN":"23鄰","STREET":"中華東路","SECT":"三段","MAREA":" ","LANE":" ","ALLEY":" ","HOUSE_NO":"６２６號二樓","E_COORD97":169518.66,"N_COORD97":2541468.8799999999,"ADDRESS":"中華東路三段６２６號二樓","OBJECTID":626408},"geometry":{"x":169518.66000000015,"y":2541468.8800000008}},{"attributes":{"ID":626436,"DIS_CODE":0,"TOWNNAME":"東區","LI":"大福里","LIN":"23鄰","STREET":"中華東路","SECT":"三段","MAREA":" ","LANE":" ","ALLEY":" ","HOUSE_NO":"６２６號三樓","E_COORD97":169518.66,"N_COORD97":2541468.8799999999,"ADDRESS":"中華東路三段６２６號三樓","OBJECTID":626409},"geometry":{"x":169518.66000000015,"y":2541468.8800000008}},{"attributes":{"ID":626437,"DIS_CODE":0,"TOWNNAME":"東區","LI":"大福里","LIN":"23鄰","STREET":"中華東路","SECT":"三段","MAREA":" ","LANE":" ","ALLEY":" ","HOUSE_NO":"６２６號四樓","E_COORD97":169518.66,"N_COORD97":2541468.8799999999,"ADDRESS":"中華東路三段６２６號四樓","OBJECTID":626410},"geometry":{"x":169518.66000000015,"y":2541468.8800000008}},{"attributes":{"ID":626438,"DIS_CODE":0,"TOWNNAME":"東區","LI":"大福里","LIN":"23鄰","STREET":"中華東路","SECT":"三段","MAREA":" ","LANE":" ","ALLEY":" ","HOUSE_NO":"６２６號五樓","E_COORD97":169518.66,"N_COORD97":2541468.8799999999,"ADDRESS":"中華東路三段６２６號五樓","OBJECTID":626411},"geometry":{"x":169518.66000000015,"y":2541468.8800000008}},{"attributes":{"ID":626439,"DIS_CODE":0,"TOWNNAME":"東區","LI":"大福里","LIN":"23鄰","STREET":"中華東路","SECT":"三段","MAREA":" ","LANE":" ","ALLEY":" ","HOUSE_NO":"６２６號六樓","E_COORD97":169518.66,"N_COORD97":2541468.8799999999,"ADDRESS":"中華東路三段６２６號六樓","OBJECTID":626412},"geometry":{"x":169518.66000000015,"y":2541468.8800000008}},{"attributes":{"ID":626440,"DIS_CODE":0,"TOWNNAME":"東區","LI":"大福里","LIN":"23鄰","STREET":"中華東路","SECT":"三段","MAREA":" ","LANE":" ","ALLEY":" ","HOUSE_NO":"６２６號七樓","E_COORD97":169518.66,"N_COORD97":2541468.8799999999,"ADDRESS":"中華東路三段６２６號七樓","OBJECTID":626413},"geometry":{"x":169518.66000000015,"y":2541468.8800000008}},{"attributes":{"ID":626441,"DIS_CODE":0,"TOWNNAME":"東區","LI":"大福里","LIN":"23鄰","STREET":"中華東路","SECT":"三段","MAREA":" ","LANE":" ","ALLEY":" ","HOUSE_NO":"６２６號八樓","E_COORD97":169518.66,"N_COORD97":2541468.8799999999,"ADDRESS":"中華東路三段６２６號八樓","OBJECTID":626414},"geometry":{"x":169518.66000000015,"y":2541468.8800000008}},{"attributes":{"ID":626442,"DIS_CODE":0,"TOWNNAME":"東區","LI":"大福里","LIN":"23鄰","STREET":"中華東路","SECT":"三段","MAREA":" ","LANE":" ","ALLEY":" ","HOUSE_NO":"６２６號九樓","E_COORD97":169518.66,"N_COORD97":2541468.8799999999,"ADDRESS":"中華東路三段６２６號九樓","OBJECTID":626415},"geometry":{"x":169518.66000000015,"y":2541468.8800000008}},{"attributes":{"ID":626443,"DIS_CODE":0,"TOWNNAME":"東區","LI":"大福里","LIN":"23鄰","STREET":"中華東路","SECT":"三段","MAREA":" ","LANE":" ","ALLEY":" ","HOUSE_NO":"６２６號十樓","E_COORD97":169518.66,"N_COORD97":2541468.8799999999,"ADDRESS":"中華東路三段６２６號十樓","OBJECTID":626416},"geometry":{"x":169518.66000000015,"y":2541468.8800000008}},{"attributes":{"ID":626444,"DIS_CODE":0,"TOWNNAME":"東區","LI":"自強里","LIN":"8鄰","STREET":"東門路","SECT":"三段","MAREA":" ","LANE":" ","ALLEY":" ","HOUSE_NO":"１３號五樓之１","E_COORD97":171098.26000000001,"N_COORD97":2542396.1299999999,"ADDRESS":"東門路三段１３號五樓之１","OBJECTID":626417},"geometry":{"x":171098.26000000164,"y":2542396.1300000008}},{"attributes":{"ID":626445,"DIS_CODE":0,"TOWNNAME":"東區","LI":"自強里","LIN":"8鄰","STREET":"東門路","SECT":"三段","MAREA":" ","LANE":" ","ALLEY":" ","HOUSE_NO":"１３號五樓之２","E_COORD97":171098.26000000001,"N_COORD97":2542396.1299999999,"ADDRESS":"東門路三段１３號五樓之２","OBJECTID":626418},"geometry":{"x":171098.26000000164,"y":2542396.1300000008}},{"attributes":{"ID":626446,"DIS_CODE":0,"TOWNNAME":"東區","LI":"自強里","LIN":"8鄰","STREET":"東門路","SECT":"三段","MAREA":" ","LANE":" ","ALLEY":" ","HOUSE_NO":"１３號五樓之３","E_COORD97":171098.26000000001,"N_COORD97":2542396.1299999999,"ADDRESS":"東門路三段１３號五樓之３","OBJECTID":626419},"geometry":{"x":171098.26000000164,"y":2542396.1300000008}},{"attributes":{"ID":626447,"DIS_CODE":0,"TOWNNAME":"東區","LI":"自強里","LIN":"8鄰","STREET":"東門路","SECT":"三段","MAREA":" ","LANE":" ","ALLEY":" ","HOUSE_NO":"１３號六樓之１","E_COORD97":171098.26000000001,"N_COORD97":2542396.1299999999,"ADDRESS":"東門路三段１３號六樓之１","OBJECTID":626420},"geometry":{"x":171098.26000000164,"y":2542396.1300000008}},{"attributes":{"ID":626448,"DIS_CODE":0,"TOWNNAME":"東區","LI":"自強里","LIN":"8鄰","STREET":"東門路","SECT":"三段","MAREA":" ","LANE":" ","ALLEY":" ","HOUSE_NO":"１３號六樓之２","E_COORD97":171098.26000000001,"N_COORD97":2542396.1299999999,"ADDRESS":"東門路三段１３號六樓之２","OBJECTID":626421},"geometry":{"x":171098.26000000164,"y":2542396.1300000008}},{"attributes":{"ID":626449,"DIS_CODE":0,"TOWNNAME":"東區","LI":"自強里","LIN":"8鄰","STREET":"東門路","SECT":"三段","MAREA":" ","LANE":" ","ALLEY":" ","HOUSE_NO":"１３號六樓之３","E_COORD97":171098.26000000001,"N_COORD97":2542396.1299999999,"ADDRESS":"東門路三段１３號六樓之３","OBJECTID":626422},"geometry":{"x":171098.26000000164,"y":2542396.1300000008}},{"attributes":{"ID":626450,"DIS_CODE":0,"TOWNNAME":"東區","LI":"自強里","LIN":"8鄰","STREET":"東門路","SECT":"三段","MAREA":" ","LANE":" ","ALLEY":" ","HOUSE_NO":"１５號六樓之１","E_COORD97":171070.75,"N_COORD97":2542365.1800000002,"ADDRESS":"東門路三段１５號六樓之１","OBJECTID":626423},"geometry":{"x":171070.75,"y":2542365.1800000016}},{"attributes":{"ID":626451,"DIS_CODE":0,"TOWNNAME":"東區","LI":"自強里","LIN":"8鄰","STREET":"東門路","SECT":"三段","MAREA":" ","LANE":" ","ALLEY":" ","HOUSE_NO":"１５號六樓之２","E_COORD97":171070.75,"N_COORD97":2542365.1800000002,"ADDRESS":"東門路三段１５號六樓之２","OBJECTID":626424},"geometry":{"x":171070.75,"y":2542365.1800000016}},{"attributes":{"ID":626452,"DIS_CODE":0,"TOWNNAME":"東區","LI":"自強里","LIN":"8鄰","STREET":"東門路","SECT":"三段","MAREA":" ","LANE":" ","ALLEY":" ","HOUSE_NO":"１５號六樓之３","E_COORD97":171070.75,"N_COORD97":2542365.1800000002,"ADDRESS":"東門路三段１５號六樓之３","OBJECTID":626425},"geometry":{"x":171070.75,"y":2542365.1800000016}},{"attributes":{"ID":626453,"DIS_CODE":0,"TOWNNAME":"東區","LI":"自強里","LIN":"8鄰","STREET":"東門路","SECT":"三段","MAREA":" ","LANE":" ","ALLEY":" ","HOUSE_NO":"１５號六樓之５","E_COORD97":171070.75,"N_COORD97":2542365.1800000002,"ADDRESS":"東門路三段１５號六樓之５","OBJECTID":626426},"geometry":{"x":171070.75,"y":2542365.1800000016}},{"attributes":{"ID":626454,"DIS_CODE":0,"TOWNNAME":"東區","LI":"自強里","LIN":"8鄰","STREET":"東門路","SECT":"三段","MAREA":" ","LANE":" ","ALLEY":" ","HOUSE_NO":"１５號五樓之１","E_COORD97":171070.75,"N_COORD97":2542365.1800000002,"ADDRESS":"東門路三段１５號五樓之１","OBJECTID":626427},"geometry":{"x":171070.75,"y":2542365.1800000016}},{"attributes":{"ID":626455,"DIS_CODE":0,"TOWNNAME":"東區","LI":"自強里","LIN":"8鄰","STREET":"東門路","SECT":"三段","MAREA":" ","LANE":" ","ALLEY":" ","HOUSE_NO":"１５號五樓之２","E_COORD97":171070.75,"N_COORD97":2542365.1800000002,"ADDRESS":"東門路三段１５號五樓之２","OBJECTID":626428},"geometry":{"x":171070.75,"y":2542365.1800000016}},{"attributes":{"ID":626456,"DIS_CODE":0,"TOWNNAME":"東區","LI":"自強里","LIN":"8鄰","STREET":"東門路","SECT":"三段","MAREA":" ","LANE":" ","ALLEY":" ","HOUSE_NO":"１５號五樓之３","E_COORD97":171070.75,"N_COORD97":2542365.1800000002,"ADDRESS":"東門路三段１５號五樓之３","OBJECTID":626429},"geometry":{"x":171070.75,"y":2542365.1800000016}},{"attributes":{"ID":626457,"DIS_CODE":0,"TOWNNAME":"東區","LI":"自強里","LIN":"8鄰","STREET":"東門路","SECT":"三段","MAREA":" ","LANE":" ","ALLEY":" ","HOUSE_NO":"１５號五樓之５","E_COORD97":171070.75,"N_COORD97":2542365.1800000002,"ADDRESS":"東門路三段１５號五樓之５","OBJECTID":626430},"geometry":{"x":171070.75,"y":2542365.1800000016}},{"attributes":{"ID":626458,"DIS_CODE":0,"TOWNNAME":"東區","LI":"東光里","LIN":"6鄰","STREET":"凱旋路","SECT":" ","MAREA":" ","LANE":" ","ALLEY":" ","HOUSE_NO":"１０１號二樓之１","E_COORD97":171072.25,"N_COORD97":2543701.8100000001,"ADDRESS":"凱旋路１０１號二樓之１","OBJECTID":626431},"geometry":{"x":171072.25,"y":2543701.8100000024}},{"attributes":{"ID":626459,"DIS_CODE":0,"TOWNNAME":"東區","LI":"東光里","LIN":"6鄰","STREET":"凱旋路","SECT":" ","MAREA":" ","LANE":" ","ALLEY":" ","HOUSE_NO":"１０５號四樓之３","E_COORD97":171006.17000000001,"N_COORD97":2543712.8900000001,"ADDRESS":"凱旋路１０５號四樓之３","OBJECTID":626432},"geometry":{"x":171006.17000000086,"y":2543712.8900000006}},{"attributes":{"ID":626460,"DIS_CODE":0,"TOWNNAME":"東區","LI":"東光里","LIN":"6鄰","STREET":"凱旋路","SECT":" ","MAREA":" ","LANE":" ","ALLEY":" ","HOUSE_NO":"１０５號五樓之３","E_COORD97":171006.17000000001,"N_COORD97":2543712.8900000001,"ADDRESS":"凱旋路１０５號五樓之３","OBJECTID":626433},"geometry":{"x":171006.17000000086,"y":2543712.8900000006}},{"attributes":{"ID":626461,"DIS_CODE":0,"TOWNNAME":"東區","LI":"東光里","LIN":"6鄰","STREET":"凱旋路","SECT":" ","MAREA":" ","LANE":" ","ALLEY":" ","HOUSE_NO":"１０５號六樓之３","E_COORD97":171006.17000000001,"N_COORD97":2543712.8900000001,"ADDRESS":"凱旋路１０５號六樓之３","OBJECTID":626434},"geometry":{"x":171006.17000000086,"y":2543712.8900000006}},{"attributes":{"ID":626462,"DIS_CODE":0,"TOWNNAME":"東區","LI":"東光里","LIN":"6鄰","STREET":"凱旋路","SECT":" ","MAREA":" ","LANE":" ","ALLEY":" ","HOUSE_NO":"１０５號七樓之３","E_COORD97":171006.17000000001,"N_COORD97":2543712.8900000001,"ADDRESS":"凱旋路１０５號七樓之３","OBJECTID":626435},"geometry":{"x":171006.17000000086,"y":2543712.8900000006}},{"attributes":{"ID":626463,"DIS_CODE":0,"TOWNNAME":"東區","LI":"東光里","LIN":"6鄰","STREET":"凱旋路","SECT":" ","MAREA":" ","LANE":" ","ALLEY":" ","HOUSE_NO":"１０５號八樓之３","E_COORD97":171006.17000000001,"N_COORD97":2543712.8900000001,"ADDRESS":"凱旋路１０５號八樓之３","OBJECTID":626436},"geometry":{"x":171006.17000000086,"y":2543712.8900000006}},{"attributes":{"ID":626464,"DIS_CODE":0,"TOWNNAME":"東區","LI":"東光里","LIN":"6鄰","STREET":"凱旋路","SECT":" ","MAREA":" ","LANE":" ","ALLEY":" ","HOUSE_NO":"１０５號九樓之３","E_COORD97":171006.17000000001,"N_COORD97":2543712.8900000001,"ADDRESS":"凱旋路１０５號九樓之３","OBJECTID":626437},"geometry":{"x":171006.17000000086,"y":2543712.8900000006}},{"attributes":{"ID":626465,"DIS_CODE":0,"TOWNNAME":"東區","LI":"東光里","LIN":"6鄰","STREET":"凱旋路","SECT":" ","MAREA":" ","LANE":" ","ALLEY":" ","HOUSE_NO":"１０５號十樓之３","E_COORD97":171006.17000000001,"N_COORD97":2543712.8900000001,"ADDRESS":"凱旋路１０５號十樓之３","OBJECTID":626438},"geometry":{"x":171006.17000000086,"y":2543712.8900000006}},{"attributes":{"ID":626466,"DIS_CODE":0,"TOWNNAME":"東區","LI":"東光里","LIN":"6鄰","STREET":"凱旋路","SECT":" ","MAREA":" ","LANE":" ","ALLEY":" ","HOUSE_NO":"１０５號十一樓之３","E_COORD97":171006.17000000001,"N_COORD97":2543712.8900000001,"ADDRESS":"凱旋路１０５號十一樓之３","OBJECTID":626439},"geometry":{"x":171006.17000000086,"y":2543712.8900000006}},{"attributes":{"ID":626467,"DIS_CODE":0,"TOWNNAME":"東區","LI":"東光里","LIN":"6鄰","STREET":"凱旋路","SECT":" ","MAREA":" ","LANE":" ","ALLEY":" ","HOUSE_NO":"１０５號十二樓之３","E_COORD97":171006.17000000001,"N_COORD97":2543712.8900000001,"ADDRESS":"凱旋路１０５號十二樓之３","OBJECTID":626440},"geometry":{"x":171006.17000000086,"y":2543712.8900000006}},{"attributes":{"ID":626468,"DIS_CODE":0,"TOWNNAME":"東區","LI":"東光里","LIN":"6鄰","STREET":"凱旋路","SECT":" ","MAREA":" ","LANE":" ","ALLEY":" ","HOUSE_NO":"１０５號十三樓之３","E_COORD97":171006.17000000001,"N_COORD97":2543712.8900000001,"ADDRESS":"凱旋路１０５號十三樓之３","OBJECTID":626441},"geometry":{"x":171006.17000000086,"y":2543712.8900000006}},{"attributes":{"ID":626469,"DIS_CODE":0,"TOWNNAME":"東區","LI":"東光里","LIN":"6鄰","STREET":"凱旋路","SECT":" ","MAREA":" ","LANE":" ","ALLEY":" ","HOUSE_NO":"１０５號十四樓之３","E_COORD97":171006.17000000001,"N_COORD97":2543712.8900000001,"ADDRESS":"凱旋路１０５號十四樓之３","OBJECTID":626442},"geometry":{"x":171006.17000000086,"y":2543712.8900000006}},{"attributes":{"ID":626470,"DIS_CODE":0,"TOWNNAME":"東區","LI":"和平里","LIN":"20鄰","STREET":"文化路","SECT":" ","MAREA":" ","LANE":" ","ALLEY":" ","HOUSE_NO":"３３號十三樓之１","E_COORD97":171156.57999999999,"N_COORD97":2541968.77,"ADDRESS":"文化路３３號十三樓之１","OBJECTID":626443},"geometry":{"x":171156.58000000007,"y":2541968.7700000014}},{"attributes":{"ID":626471,"DIS_CODE":0,"TOWNNAME":"東區","LI":"和平里","LIN":"20鄰","STREET":"文化路","SECT":" ","MAREA":" ","LANE":" ","ALLEY":" ","HOUSE_NO":"３３號十四樓之１","E_COORD97":171156.57999999999,"N_COORD97":2541968.77,"ADDRESS":"文化路３３號十四樓之１","OBJECTID":626444},"geometry":{"x":171156.58000000007,"y":2541968.7700000014}},{"attributes":{"ID":626472,"DIS_CODE":0,"TOWNNAME":"東區","LI":"和平里","LIN":"20鄰","STREET":"文化路","SECT":" ","MAREA":" ","LANE":" ","ALLEY":" ","HOUSE_NO":"３３號二樓之２","E_COORD97":171156.57999999999,"N_COORD97":2541968.77,"ADDRESS":"文化路３３號二樓之２","OBJECTID":626445},"geometry":{"x":171156.58000000007,"y":2541968.7700000014}},{"attributes":{"ID":626473,"DIS_CODE":0,"TOWNNAME":"東區","LI":"和平里","LIN":"20鄰","STREET":"文化路","SECT":" ","MAREA":" ","LANE":" ","ALLEY":" ","HOUSE_NO":"３３號三樓之２","E_COORD97":171156.57999999999,"N_COORD97":2541968.77,"ADDRESS":"文化路３３號三樓之２","OBJECTID":626446},"geometry":{"x":171156.58000000007,"y":2541968.7700000014}},{"attributes":{"ID":626474,"DIS_CODE":0,"TOWNNAME":"東區","LI":"和平里","LIN":"20鄰","STREET":"文化路","SECT":" ","MAREA":" ","LANE":" ","ALLEY":" ","HOUSE_NO":"３３號四樓之２","E_COORD97":171156.57999999999,"N_COORD97":2541968.77,"ADDRESS":"文化路３３號四樓之２","OBJECTID":626447},"geometry":{"x":171156.58000000007,"y":2541968.7700000014}},{"attributes":{"ID":626475,"DIS_CODE":0,"TOWNNAME":"東區","LI":"和平里","LIN":"20鄰","STREET":"文化路","SECT":" ","MAREA":" ","LANE":" ","ALLEY":" ","HOUSE_NO":"３３號五樓之２","E_COORD97":171156.57999999999,"N_COORD97":2541968.77,"ADDRESS":"文化路３３號五樓之２","OBJECTID":626448},"geometry":{"x":171156.58000000007,"y":2541968.7700000014}},{"attributes":{"ID":626476,"DIS_CODE":0,"TOWNNAME":"東區","LI":"和平里","LIN":"20鄰","STREET":"文化路","SECT":" ","MAREA":" ","LANE":" ","ALLEY":" ","HOUSE_NO":"３３號六樓之２","E_COORD97":171156.57999999999,"N_COORD97":2541968.77,"ADDRESS":"文化路３３號六樓之２","OBJECTID":626449},"geometry":{"x":171156.58000000007,"y":2541968.7700000014}},{"attributes":{"ID":626477,"DIS_CODE":0,"TOWNNAME":"東區","LI":"和平里","LIN":"20鄰","STREET":"文化路","SECT":" ","MAREA":" ","LANE":" ","ALLEY":" ","HOUSE_NO":"３３號七樓之２","E_COORD97":171156.57999999999,"N_COORD97":2541968.77,"ADDRESS":"文化路３３號七樓之２","OBJECTID":626450},"geometry":{"x":171156.58000000007,"y":2541968.7700000014}},{"attributes":{"ID":626478,"DIS_CODE":0,"TOWNNAME":"東區","LI":"和平里","LIN":"20鄰","STREET":"文化路","SECT":" ","MAREA":" ","LANE":" ","ALLEY":" ","HOUSE_NO":"３３號八樓之２","E_COORD97":171156.57999999999,"N_COORD97":2541968.77,"ADDRESS":"文化路３３號八樓之２","OBJECTID":626451},"geometry":{"x":171156.58000000007,"y":2541968.7700000014}},{"attributes":{"ID":626479,"DIS_CODE":0,"TOWNNAME":"東區","LI":"和平里","LIN":"20鄰","STREET":"文化路","SECT":" ","MAREA":" ","LANE":" ","ALLEY":" ","HOUSE_NO":"３３號九樓之２","E_COORD97":171156.57999999999,"N_COORD97":2541968.77,"ADDRESS":"文化路３３號九樓之２","OBJECTID":626452},"geometry":{"x":171156.58000000007,"y":2541968.7700000014}},{"attributes":{"ID":626480,"DIS_CODE":0,"TOWNNAME":"東區","LI":"和平里","LIN":"20鄰","STREET":"文化路","SECT":" ","MAREA":" ","LANE":" ","ALLEY":" ","HOUSE_NO":"３３號十樓之２","E_COORD97":171156.57999999999,"N_COORD97":2541968.77,"ADDRESS":"文化路３３號十樓之２","OBJECTID":626453},"geometry":{"x":171156.58000000007,"y":2541968.7700000014}},{"attributes":{"ID":626481,"DIS_CODE":0,"TOWNNAME":"東區","LI":"和平里","LIN":"20鄰","STREET":"文化路","SECT":" ","MAREA":" ","LANE":" ","ALLEY":" ","HOUSE_NO":"３３號十一樓之２","E_COORD97":171156.57999999999,"N_COORD97":2541968.77,"ADDRESS":"文化路３３號十一樓之２","OBJECTID":626454},"geometry":{"x":171156.58000000007,"y":2541968.7700000014}},{"attributes":{"ID":626482,"DIS_CODE":0,"TOWNNAME":"東區","LI":"和平里","LIN":"20鄰","STREET":"文化路","SECT":" ","MAREA":" ","LANE":" ","ALLEY":" ","HOUSE_NO":"３３號十二樓之２","E_COORD97":171156.57999999999,"N_COORD97":2541968.77,"ADDRESS":"文化路３３號十二樓之２","OBJECTID":626455},"geometry":{"x":171156.58000000007,"y":2541968.7700000014}},{"attributes":{"ID":626483,"DIS_CODE":0,"TOWNNAME":"東區","LI":"和平里","LIN":"20鄰","STREET":"文化路","SECT":" ","MAREA":" ","LANE":" ","ALLEY":" ","HOUSE_NO":"３３號十三樓之２","E_COORD97":171156.57999999999,"N_COORD97":2541968.77,"ADDRESS":"文化路３３號十三樓之２","OBJECTID":626456},"geometry":{"x":171156.58000000007,"y":2541968.7700000014}},{"attributes":{"ID":626484,"DIS_CODE":0,"TOWNNAME":"東區","LI":"和平里","LIN":"20鄰","STREET":"文化路","SECT":" ","MAREA":" ","LANE":" ","ALLEY":" ","HOUSE_NO":"３３號十四樓之２","E_COORD97":171156.57999999999,"N_COORD97":2541968.77,"ADDRESS":"文化路３３號十四樓之２","OBJECTID":626457},"geometry":{"x":171156.58000000007,"y":2541968.7700000014}},{"attributes":{"ID":626485,"DIS_CODE":0,"TOWNNAME":"東區","LI":"後甲里","LIN":"34鄰","STREET":"中華東路","SECT":"一段","MAREA":" ","LANE":" ","ALLEY":" ","HOUSE_NO":"１４３號七樓","E_COORD97":171477.89999999999,"N_COORD97":2543547.4100000001,"ADDRESS":"中華東路一段１４３號七樓","OBJECTID":626458},"geometry":{"x":171477.9000000013,"y":2543547.410000002}},{"attributes":{"ID":626486,"DIS_CODE":0,"TOWNNAME":"東區","LI":"後甲里","LIN":"34鄰","STREET":"中華東路","SECT":"一段","MAREA":" ","LANE":" ","ALLEY":" ","HOUSE_NO":"１４３號二樓","E_COORD97":171477.89999999999,"N_COORD97":2543547.4100000001,"ADDRESS":"中華東路一段１４３號二樓","OBJECTID":626459},"geometry":{"x":171477.9000000013,"y":2543547.410000002}},{"attributes":{"ID":626487,"DIS_CODE":0,"TOWNNAME":"東區","LI":"後甲里","LIN":"34鄰","STREET":"中華東路","SECT":"一段","MAREA":" ","LANE":" ","ALLEY":" ","HOUSE_NO":"１４３號三樓","E_COORD97":171477.89999999999,"N_COORD97":2543547.4100000001,"ADDRESS":"中華東路一段１４３號三樓","OBJECTID":626460},"geometry":{"x":171477.9000000013,"y":2543547.410000002}},{"attributes":{"ID":626488,"DIS_CODE":0,"TOWNNAME":"東區","LI":"後甲里","LIN":"34鄰","STREET":"中華東路","SECT":"一段","MAREA":" ","LANE":" ","ALLEY":" ","HOUSE_NO":"１４３號五樓","E_COORD97":171477.89999999999,"N_COORD97":2543547.4100000001,"ADDRESS":"中華東路一段１４３號五樓","OBJECTID":626461},"geometry":{"x":171477.9000000013,"y":2543547.410000002}},{"attributes":{"ID":626489,"DIS_CODE":0,"TOWNNAME":"東區","LI":"崇誨里","LIN":"19鄰","STREET":"東寧路","SECT":" ","MAREA":" ","LANE":" ","ALLEY":" ","HOUSE_NO":"２９４號二樓","E_COORD97":170723.85999999999,"N_COORD97":2543413.8100000001,"ADDRESS":"東寧路２９４號二樓","OBJECTID":626462},"geometry":{"x":170723.86000000127,"y":2543413.8100000024}},{"attributes":{"ID":626490,"DIS_CODE":0,"TOWNNAME":"東區","LI":"崇誨里","LIN":"19鄰","STREET":"東寧路","SECT":" ","MAREA":" ","LANE":" ","ALLEY":" ","HOUSE_NO":"２９４號四樓之１","E_COORD97":170723.85999999999,"N_COORD97":2543413.8100000001,"ADDRESS":"東寧路２９４號四樓之１","OBJECTID":626463},"geometry":{"x":170723.86000000127,"y":2543413.8100000024}},{"attributes":{"ID":626491,"DIS_CODE":0,"TOWNNAME":"東區","LI":"崇誨里","LIN":"19鄰","STREET":"東寧路","SECT":" ","MAREA":" ","LANE":" ","ALLEY":" ","HOUSE_NO":"２９４號四樓之２","E_COORD97":170723.85999999999,"N_COORD97":2543413.8100000001,"ADDRESS":"東寧路２９４號四樓之２","OBJECTID":626464},"geometry":{"x":170723.86000000127,"y":2543413.8100000024}},{"attributes":{"ID":626492,"DIS_CODE":0,"TOWNNAME":"東區","LI":"崇誨里","LIN":"19鄰","STREET":"東寧路","SECT":" ","MAREA":" ","LANE":" ","ALLEY":" ","HOUSE_NO":"２９４號五樓之１","E_COORD97":170723.85999999999,"N_COORD97":2543413.8100000001,"ADDRESS":"東寧路２９４號五樓之１","OBJECTID":626465},"geometry":{"x":170723.86000000127,"y":2543413.8100000024}},{"attributes":{"ID":626493,"DIS_CODE":0,"TOWNNAME":"東區","LI":"崇誨里","LIN":"19鄰","STREET":"東寧路","SECT":" ","MAREA":" ","LANE":" ","ALLEY":" ","HOUSE_NO":"２９４號五樓之２","E_COORD97":170723.85999999999,"N_COORD97":2543413.8100000001,"ADDRESS":"東寧路２９４號五樓之２","OBJECTID":626466},"geometry":{"x":170723.86000000127,"y":2543413.8100000024}},{"attributes":{"ID":626494,"DIS_CODE":0,"TOWNNAME":"永康區","LI":"\u25A0行里","LIN":"42鄰","STREET":"永安二街","SECT":" ","MAREA":" ","LANE":" ","ALLEY":" ","HOUSE_NO":"１號七樓之１","E_COORD97":172490.09,"N_COORD97":2549594.3300000001,"ADDRESS":"永安二街１號七樓之１","OBJECTID":626467},"geometry":{"x":172490.09000000078,"y":2549594.3300000001}},{"attributes":{"ID":626495,"DIS_CODE":0,"TOWNNAME":"永康區","LI":"龍潭里","LIN":"5鄰","STREET":"龍埔街","SECT":" ","MAREA":" ","LANE":" ","ALLEY":" ","HOUSE_NO":"８５號九樓之２","E_COORD97":174619.82999999999,"N_COORD97":2548225.75,"ADDRESS":"龍埔街８５號九樓之２","OBJECTID":626468},"geometry":{"x":174619.83000000007,"y":2548225.75}},{"attributes":{"ID":626496,"DIS_CODE":0,"TOWNNAME":"永康區","LI":"\u25A0行里","LIN":"14鄰","STREET":"中正六街","SECT":" ","MAREA":" ","LANE":" ","ALLEY":" ","HOUSE_NO":"１７７號三樓","E_COORD97":171859.70999999999,"N_COORD97":2548865.52,"ADDRESS":"中正六街１７７號三樓","OBJECTID":626469},"geometry":{"x":171859.70999999996,"y":2548865.5200000014}},{"attributes":{"ID":626497,"DIS_CODE":0,"TOWNNAME":"永康區","LI":"龍潭里","LIN":"32鄰","STREET":"龍國街","SECT":" ","MAREA":" ","LANE":" ","ALLEY":" ","HOUSE_NO":"２３８號四樓","E_COORD97":174465.78,"N_COORD97":2548032.3599999999,"ADDRESS":"龍國街２３８號四樓","OBJECTID":626470},"geometry":{"x":174465.78000000119,"y":2548032.3600000013}},{"attributes":{"ID":626498,"DIS_CODE":0,"TOWNNAME":"永康區","LI":"\u25A0行里","LIN":"42鄰","STREET":"永安二街","SECT":" ","MAREA":" ","LANE":" ","ALLEY":" ","HOUSE_NO":"１號六樓之１","E_COORD97":172490.09,"N_COORD97":2549594.3300000001,"ADDRESS":"永安二街１號六樓之１","OBJECTID":626471},"geometry":{"x":172490.09000000078,"y":2549594.3300000001}},{"attributes":{"ID":626499,"DIS_CODE":0,"TOWNNAME":"永康區","LI":"\u25A0行里","LIN":"14鄰","STREET":"中正六街","SECT":" ","MAREA":" ","LANE":" ","ALLEY":" ","HOUSE_NO":"１７７號五樓之３","E_COORD97":171861.95000000001,"N_COORD97":2548865.5600000001,"ADDRESS":"中正六街１７７號五樓之３","OBJECTID":626472},"geometry":{"x":171861.95000000205,"y":2548865.5600000005}},{"attributes":{"ID":626500,"DIS_CODE":0,"TOWNNAME":"永康區","LI":"\u25A0行里","LIN":"1鄰","STREET":"中正北路","SECT":" ","MAREA":" ","LANE":" ","ALLEY":" ","HOUSE_NO":"５４號十樓之８","E_COORD97":172008,"N_COORD97":2549058.5800000001,"ADDRESS":"中正北路５４號十樓之８","OBJECTID":626473},"geometry":{"x":172008,"y":2549058.5800000038}},{"attributes":{"ID":626501,"DIS_CODE":0,"TOWNNAME":"中西區","LI":"五妃里","LIN":"19鄰","STREET":"慶中街","SECT":" ","MAREA":" ","LANE":" ","ALLEY":" ","HOUSE_NO":"６５號二樓之１","E_COORD97":168566.60999999999,"N_COORD97":2542896.8799999999,"ADDRESS":"慶中街６５號二樓之１","OBJECTID":626474},"geometry":{"x":168566.61000000034,"y":2542896.879999999}},{"attributes":{"ID":626502,"DIS_CODE":0,"TOWNNAME":"中西區","LI":"五妃里","LIN":"19鄰","STREET":"樹林街","SECT":"二段","MAREA":" ","LANE":" ","ALLEY":" ","HOUSE_NO":"７５號四樓","E_COORD97":168521.35999999999,"N_COORD97":2542913.8399999999,"ADDRESS":"樹林街二段７５號四樓","OBJECTID":626475},"geometry":{"x":168521.3599999994,"y":2542913.8400000017}},{"attributes":{"ID":626503,"DIS_CODE":0,"TOWNNAME":"中西區","LI":"五妃里","LIN":"19鄰","STREET":"樹林街","SECT":"二段","MAREA":" ","LANE":" ","ALLEY":" ","HOUSE_NO":"７７號一樓","E_COORD97":168516.76000000001,"N_COORD97":2542914.6099999999,"ADDRESS":"樹林街二段７７號一樓","OBJECTID":626476},"geometry":{"x":168516.76000000071,"y":2542914.6100000013}},{"attributes":{"ID":626504,"DIS_CODE":0,"TOWNNAME":"中西區","LI":"五妃里","LIN":"19鄰","STREET":"樹林街","SECT":"二段","MAREA":" ","LANE":" ","ALLEY":" ","HOUSE_NO":"７７號二樓","E_COORD97":168516.76000000001,"N_COORD97":2542914.6099999999,"ADDRESS":"樹林街二段７７號二樓","OBJECTID":626477},"geometry":{"x":168516.76000000071,"y":2542914.6100000013}},{"attributes":{"ID":626505,"DIS_CODE":0,"TOWNNAME":"中西區","LI":"五妃里","LIN":"19鄰","STREET":"樹林街","SECT":"二段","MAREA":" ","LANE":" ","ALLEY":" ","HOUSE_NO":"７７號三樓","E_COORD97":168516.76000000001,"N_COORD97":2542914.6099999999,"ADDRESS":"樹林街二段７７號三樓","OBJECTID":626478},"geometry":{"x":168516.76000000071,"y":2542914.6100000013}},{"attributes":{"ID":626506,"DIS_CODE":0,"TOWNNAME":"中西區","LI":"五妃里","LIN":"19鄰","STREET":"樹林街","SECT":"二段","MAREA":" ","LANE":" ","ALLEY":" ","HOUSE_NO":"７７號四樓","E_COORD97":168516.76000000001,"N_COORD97":2542914.6099999999,"ADDRESS":"樹林街二段７７號四樓","OBJECTID":626479},"geometry":{"x":168516.76000000071,"y":2542914.6100000013}},{"attributes":{"ID":626507,"DIS_CODE":0,"TOWNNAME":"中西區","LI":"五妃里","LIN":"19鄰","STREET":"樹林街","SECT":"二段","MAREA":" ","LANE":" ","ALLEY":" ","HOUSE_NO":"８９號一樓","E_COORD97":168476.67000000001,"N_COORD97":2542923.0299999998,"ADDRESS":"樹林街二段８９號一樓","OBJECTID":626480},"geometry":{"x":168476.67000000086,"y":2542923.0300000012}},{"attributes":{"ID":626508,"DIS_CODE":0,"TOWNNAME":"中西區","LI":"五妃里","LIN":"19鄰","STREET":"樹林街","SECT":"二段","MAREA":" ","LANE":" ","ALLEY":" ","HOUSE_NO":"８９號二樓","E_COORD97":168476.67000000001,"N_COORD97":2542923.0299999998,"ADDRESS":"樹林街二段８９號二樓","OBJECTID":626481},"geometry":{"x":168476.67000000086,"y":2542923.0300000012}},{"attributes":{"ID":626509,"DIS_CODE":0,"TOWNNAME":"中西區","LI":"五妃里","LIN":"19鄰","STREET":"樹林街","SECT":"二段","MAREA":" ","LANE":" ","ALLEY":" ","HOUSE_NO":"８９號三樓","E_COORD97":168476.67000000001,"N_COORD97":2542923.0299999998,"ADDRESS":"樹林街二段８９號三樓","OBJECTID":626482},"geometry":{"x":168476.67000000086,"y":2542923.0300000012}},{"attributes":{"ID":626510,"DIS_CODE":0,"TOWNNAME":"中西區","LI":"三民里","LIN":"4鄰","STREET":"民生路","SECT":"一段","MAREA":" ","LANE":" ","ALLEY":" ","HOUSE_NO":"２８號七樓","E_COORD97":168399.07999999999,"N_COORD97":2543751.6200000001,"ADDRESS":"民生路一段２８號七樓","OBJECTID":626483},"geometry":{"x":168399.08000000007,"y":2543751.620000001}},{"attributes":{"ID":626511,"DIS_CODE":0,"TOWNNAME":"中西區","LI":"三民里","LIN":"4鄰","STREET":"民生路","SECT":"一段","MAREA":" ","LANE":" ","ALLEY":" ","HOUSE_NO":"２８號二樓","E_COORD97":168399.07999999999,"N_COORD97":2543751.6200000001,"ADDRESS":"民生路一段２８號二樓","OBJECTID":626484},"geometry":{"x":168399.08000000007,"y":2543751.620000001}},{"attributes":{"ID":626512,"DIS_CODE":0,"TOWNNAME":"中西區","LI":"三民里","LIN":"4鄰","STREET":"民生路","SECT":"一段","MAREA":" ","LANE":" ","ALLEY":" ","HOUSE_NO":"２８號三樓","E_COORD97":168399.07999999999,"N_COORD97":2543751.6200000001,"ADDRESS":"民生路一段２８號三樓","OBJECTID":626485},"geometry":{"x":168399.08000000007,"y":2543751.620000001}},{"attributes":{"ID":626513,"DIS_CODE":0,"TOWNNAME":"中西區","LI":"三民里","LIN":"4鄰","STREET":"民生路","SECT":"一段","MAREA":" ","LANE":" ","ALLEY":" ","HOUSE_NO":"２８號五樓","E_COORD97":168399.07999999999,"N_COORD97":2543751.6200000001,"ADDRESS":"民生路一段２８號五樓","OBJECTID":626486},"geometry":{"x":168399.08000000007,"y":2543751.620000001}},{"attributes":{"ID":626514,"DIS_CODE":0,"TOWNNAME":"中西區","LI":"三民里","LIN":"4鄰","STREET":"民生路","SECT":"一段","MAREA":" ","LANE":" ","ALLEY":" ","HOUSE_NO":"２８號六樓","E_COORD97":168399.07999999999,"N_COORD97":2543751.6200000001,"ADDRESS":"民生路一段２８號六樓","OBJECTID":626487},"geometry":{"x":168399.08000000007,"y":2543751.620000001}},{"attributes":{"ID":626515,"DIS_CODE":0,"TOWNNAME":"中西區","LI":"三民里","LIN":"4鄰","STREET":"民生路","SECT":"一段","MAREA":" ","LANE":" ","ALLEY":" ","HOUSE_NO":"２８號四樓","E_COORD97":168399.07999999999,"N_COORD97":2543751.6200000001,"ADDRESS":"民生路一段２８號四樓","OBJECTID":626488},"geometry":{"x":168399.08000000007,"y":2543751.620000001}},{"attributes":{"ID":626516,"DIS_CODE":0,"TOWNNAME":"中西區","LI":"三民里","LIN":"4鄰","STREET":"民生路","SECT":"一段","MAREA":" ","LANE":" ","ALLEY":" ","HOUSE_NO":"６２號七樓","E_COORD97":168321.20999999999,"N_COORD97":2543777.54,"ADDRESS":"民生路一段６２號七樓","OBJECTID":626489},"geometry":{"x":168321.20999999996,"y":2543777.5399999991}},{"attributes":{"ID":626517,"DIS_CODE":0,"TOWNNAME":"中西區","LI":"三民里","LIN":"4鄰","STREET":"民生路","SECT":"一段","MAREA":" ","LANE":" ","ALLEY":" ","HOUSE_NO":"６２號九樓","E_COORD97":168321.20999999999,"N_COORD97":2543777.54,"ADDRESS":"民生路一段６２號九樓","OBJECTID":626490},"geometry":{"x":168321.20999999996,"y":2543777.5399999991}},{"attributes":{"ID":626518,"DIS_CODE":0,"TOWNNAME":"中西區","LI":"三民里","LIN":"4鄰","STREET":"民生路","SECT":"一段","MAREA":" ","LANE":" ","ALLEY":" ","HOUSE_NO":"６２號二樓","E_COORD97":168321.20999999999,"N_COORD97":2543777.54,"ADDRESS":"民生路一段６２號二樓","OBJECTID":626491},"geometry":{"x":168321.20999999996,"y":2543777.5399999991}},{"attributes":{"ID":626519,"DIS_CODE":0,"TOWNNAME":"中西區","LI":"三民里","LIN":"4鄰","STREET":"民生路","SECT":"一段","MAREA":" ","LANE":" ","ALLEY":" ","HOUSE_NO":"６２號八樓","E_COORD97":168321.20999999999,"N_COORD97":2543777.54,"ADDRESS":"民生路一段６２號八樓","OBJECTID":626492},"geometry":{"x":168321.20999999996,"y":2543777.5399999991}},{"attributes":{"ID":626520,"DIS_CODE":0,"TOWNNAME":"中西區","LI":"三民里","LIN":"4鄰","STREET":"民生路","SECT":"一段","MAREA":" ","LANE":" ","ALLEY":" ","HOUSE_NO":"６２號十一樓","E_COORD97":168321.20999999999,"N_COORD97":2543777.54,"ADDRESS":"民生路一段６２號十一樓","OBJECTID":626493},"geometry":{"x":168321.20999999996,"y":2543777.5399999991}},{"attributes":{"ID":626521,"DIS_CODE":0,"TOWNNAME":"中西區","LI":"三民里","LIN":"4鄰","STREET":"民生路","SECT":"一段","MAREA":" ","LANE":" ","ALLEY":" ","HOUSE_NO":"６２號十樓","E_COORD97":168321.20999999999,"N_COORD97":2543777.54,"ADDRESS":"民生路一段６２號十樓","OBJECTID":626494},"geometry":{"x":168321.20999999996,"y":2543777.5399999991}},{"attributes":{"ID":626522,"DIS_CODE":0,"TOWNNAME":"中西區","LI":"三民里","LIN":"4鄰","STREET":"民生路","SECT":"一段","MAREA":" ","LANE":" ","ALLEY":" ","HOUSE_NO":"６２號三樓","E_COORD97":168321.20999999999,"N_COORD97":2543777.54,"ADDRESS":"民生路一段６２號三樓","OBJECTID":626495},"geometry":{"x":168321.20999999996,"y":2543777.5399999991}},{"attributes":{"ID":626523,"DIS_CODE":0,"TOWNNAME":"中西區","LI":"三民里","LIN":"4鄰","STREET":"民生路","SECT":"一段","MAREA":" ","LANE":" ","ALLEY":" ","HOUSE_NO":"６２號五樓","E_COORD97":168321.20999999999,"N_COORD97":2543777.54,"ADDRESS":"民生路一段６２號五樓","OBJECTID":626496},"geometry":{"x":168321.20999999996,"y":2543777.5399999991}},{"attributes":{"ID":626524,"DIS_CODE":0,"TOWNNAME":"中西區","LI":"三民里","LIN":"4鄰","STREET":"民生路","SECT":"一段","MAREA":" ","LANE":" ","ALLEY":" ","HOUSE_NO":"６２號六樓","E_COORD97":168321.20999999999,"N_COORD97":2543777.54,"ADDRESS":"民生路一段６２號六樓","OBJECTID":626497},"geometry":{"x":168321.20999999996,"y":2543777.5399999991}},{"attributes":{"ID":626525,"DIS_CODE":0,"TOWNNAME":"中西區","LI":"三民里","LIN":"4鄰","STREET":"民生路","SECT":"一段","MAREA":" ","LANE":" ","ALLEY":" ","HOUSE_NO":"６２號四樓","E_COORD97":168321.20999999999,"N_COORD97":2543777.54,"ADDRESS":"民生路一段６２號四樓","OBJECTID":626498},"geometry":{"x":168321.20999999996,"y":2543777.5399999991}},{"attributes":{"ID":626526,"DIS_CODE":0,"TOWNNAME":"新化區","LI":"太平里","LIN":"4鄰","STREET":"中正路","SECT":" ","MAREA":" ","LANE":" ","ALLEY":" ","HOUSE_NO":"５７８號六樓之８","E_COORD97":178895.87,"N_COORD97":2549000.2599999998,"ADDRESS":"中正路５７８號六樓之８","OBJECTID":626499},"geometry":{"x":178895.87000000104,"y":2549000.2600000016}},{"attributes":{"ID":626527,"DIS_CODE":0,"TOWNNAME":"新化區","LI":"太平里","LIN":"4鄰","STREET":"中正路","SECT":" ","MAREA":" ","LANE":" ","ALLEY":" ","HOUSE_NO":"５７８號五樓之７","E_COORD97":178895.85000000001,"N_COORD97":2549000.2599999998,"ADDRESS":"中正路５７８號五樓之７","OBJECTID":626500},"geometry":{"x":178895.85000000056,"y":2549000.2600000016}},{"attributes":{"ID":626528,"DIS_CODE":0,"TOWNNAME":"新化區","LI":"太平里","LIN":"4鄰","STREET":"中正路","SECT":" ","MAREA":" ","LANE":" ","ALLEY":" ","HOUSE_NO":"５７８號十樓之１","E_COORD97":178895.84,"N_COORD97":2549000.2599999998,"ADDRESS":"中正路５７８號十樓之１","OBJECTID":626501},"geometry":{"x":178895.84000000078,"y":2549000.2600000016}},{"attributes":{"ID":626529,"DIS_CODE":0,"TOWNNAME":"新化區","LI":"太平里","LIN":"4鄰","STREET":"中正路","SECT":" ","MAREA":" ","LANE":" ","ALLEY":" ","HOUSE_NO":"５７８號十樓之２","E_COORD97":178895.85999999999,"N_COORD97":2549000.2599999998,"ADDRESS":"中正路５７８號十樓之２","OBJECTID":626502},"geometry":{"x":178895.8599999994,"y":2549000.2600000016}},{"attributes":{"ID":626530,"DIS_CODE":0,"TOWNNAME":"新化區","LI":"太平里","LIN":"4鄰","STREET":"中正路","SECT":" ","MAREA":" ","LANE":" ","ALLEY":" ","HOUSE_NO":"５７８號五樓之９","E_COORD97":178895.85000000001,"N_COORD97":2549000.2599999998,"ADDRESS":"中正路５７８號五樓之９","OBJECTID":626503},"geometry":{"x":178895.85000000056,"y":2549000.2600000016}},{"attributes":{"ID":626531,"DIS_CODE":0,"TOWNNAME":"新化區","LI":"太平里","LIN":"4鄰","STREET":"中正路","SECT":" ","MAREA":" ","LANE":" ","ALLEY":" ","HOUSE_NO":"５７８號六樓之６","E_COORD97":178895.85999999999,"N_COORD97":2549000.2599999998,"ADDRESS":"中正路５７８號六樓之６","OBJECTID":626504},"geometry":{"x":178895.8599999994,"y":2549000.2600000016}},{"attributes":{"ID":626532,"DIS_CODE":0,"TOWNNAME":"東區","LI":"德光里","LIN":"4鄰","STREET":"崇明四街","SECT":" ","MAREA":" ","LANE":" ","ALLEY":" ","HOUSE_NO":"６７號","E_COORD97":169757.92000000001,"N_COORD97":2542355.9300000002,"ADDRESS":"崇明四街６７號","OBJECTID":626505},"geometry":{"x":169757.91999999993,"y":2542355.9299999997}},{"attributes":{"ID":626533,"DIS_CODE":0,"TOWNNAME":"新化區","LI":"太平里","LIN":"4鄰","STREET":"中正路","SECT":" ","MAREA":" ","LANE":" ","ALLEY":" ","HOUSE_NO":"５７８號十樓之９","E_COORD97":178895.85000000001,"N_COORD97":2549000.2599999998,"ADDRESS":"中正路５７８號十樓之９","OBJECTID":626506},"geometry":{"x":178895.85000000056,"y":2549000.2600000016}},{"attributes":{"ID":626534,"DIS_CODE":0,"TOWNNAME":"新化區","LI":"太平里","LIN":"4鄰","STREET":"中正路","SECT":" ","MAREA":" ","LANE":" ","ALLEY":" ","HOUSE_NO":"５７８號三樓之２","E_COORD97":178895.85999999999,"N_COORD97":2549000.2599999998,"ADDRESS":"中正路５７８號三樓之２","OBJECTID":626507},"geometry":{"x":178895.8599999994,"y":2549000.2600000016}},{"attributes":{"ID":626535,"DIS_CODE":0,"TOWNNAME":"新化區","LI":"太平里","LIN":"4鄰","STREET":"中正路","SECT":" ","MAREA":" ","LANE":" ","ALLEY":" ","HOUSE_NO":"５７８號五樓之３","E_COORD97":178895.85999999999,"N_COORD97":2549000.2599999998,"ADDRESS":"中正路５７８號五樓之３","OBJECTID":626508},"geometry":{"x":178895.8599999994,"y":2549000.2600000016}},{"attributes":{"ID":626536,"DIS_CODE":0,"TOWNNAME":"新化區","LI":"太平里","LIN":"4鄰","STREET":"中正路","SECT":" ","MAREA":" ","LANE":" ","ALLEY":" ","HOUSE_NO":"５７８號六樓之２","E_COORD97":178895.85999999999,"N_COORD97":2549000.2599999998,"ADDRESS":"中正路５７８號六樓之２","OBJECTID":626509},"geometry":{"x":178895.8599999994,"y":2549000.2600000016}},{"attributes":{"ID":626537,"DIS_CODE":0,"TOWNNAME":"新化區","LI":"太平里","LIN":"4鄰","STREET":"中正路","SECT":" ","MAREA":" ","LANE":" ","ALLEY":" ","HOUSE_NO":"５７８號十樓之７","E_COORD97":178895.85000000001,"N_COORD97":2549000.2599999998,"ADDRESS":"中正路５７８號十樓之７","OBJECTID":626510},"geometry":{"x":178895.85000000056,"y":2549000.2600000016}},{"attributes":{"ID":626538,"DIS_CODE":0,"TOWNNAME":"新化區","LI":"太平里","LIN":"4鄰","STREET":"中正路","SECT":" ","MAREA":" ","LANE":" ","ALLEY":" ","HOUSE_NO":"５７８號十三樓之７","E_COORD97":178896.10000000001,"N_COORD97":2549000.2599999998,"ADDRESS":"中正路５７８號十三樓之７","OBJECTID":626511},"geometry":{"x":178896.10000000056,"y":2549000.2600000016}},{"attributes":{"ID":626539,"DIS_CODE":0,"TOWNNAME":"新化區","LI":"太平里","LIN":"4鄰","STREET":"中正路","SECT":" ","MAREA":" ","LANE":" ","ALLEY":" ","HOUSE_NO":"５７８號五樓之８","E_COORD97":178895.87,"N_COORD97":2549000.2599999998,"ADDRESS":"中正路５７８號五樓之８","OBJECTID":626512},"geometry":{"x":178895.87000000104,"y":2549000.2600000016}},{"attributes":{"ID":626540,"DIS_CODE":0,"TOWNNAME":"新化區","LI":"太平里","LIN":"4鄰","STREET":"中正路","SECT":" ","MAREA":" ","LANE":" ","ALLEY":" ","HOUSE_NO":"５７８號十樓之８","E_COORD97":178895.87,"N_COORD97":2549000.2599999998,"ADDRESS":"中正路５７８號十樓之８","OBJECTID":626513},"geometry":{"x":178895.87000000104,"y":2549000.2600000016}},{"attributes":{"ID":626541,"DIS_CODE":0,"TOWNNAME":"新化區","LI":"太平里","LIN":"4鄰","STREET":"中正路","SECT":" ","MAREA":" ","LANE":" ","ALLEY":" ","HOUSE_NO":"５７８號十樓之６","E_COORD97":178895.85999999999,"N_COORD97":2549000.2599999998,"ADDRESS":"中正路５７８號十樓之６","OBJECTID":626514},"geometry":{"x":178895.8599999994,"y":2549000.2600000016}},{"attributes":{"ID":626542,"DIS_CODE":0,"TOWNNAME":"新化區","LI":"太平里","LIN":"4鄰","STREET":"中正路","SECT":" ","MAREA":" ","LANE":" ","ALLEY":" ","HOUSE_NO":"５７８號三樓之３","E_COORD97":178895.85999999999,"N_COORD97":2549000.2599999998,"ADDRESS":"中正路５７８號三樓之３","OBJECTID":626515},"geometry":{"x":178895.8599999994,"y":2549000.2600000016}},{"attributes":{"ID":626543,"DIS_CODE":0,"TOWNNAME":"新化區","LI":"太平里","LIN":"4鄰","STREET":"中正路","SECT":" ","MAREA":" ","LANE":" ","ALLEY":" ","HOUSE_NO":"５７８號六樓之５","E_COORD97":178895.87,"N_COORD97":2549000.2599999998,"ADDRESS":"中正路５７８號六樓之５","OBJECTID":626516},"geometry":{"x":178895.87000000104,"y":2549000.2600000016}},{"attributes":{"ID":626544,"DIS_CODE":0,"TOWNNAME":"新化區","LI":"太平里","LIN":"4鄰","STREET":"中正路","SECT":" ","MAREA":" ","LANE":" ","ALLEY":" ","HOUSE_NO":"５７８號三樓之５","E_COORD97":178895.87,"N_COORD97":2549000.2599999998,"ADDRESS":"中正路５７８號三樓之５","OBJECTID":626517},"geometry":{"x":178895.87000000104,"y":2549000.2600000016}},{"attributes":{"ID":626545,"DIS_CODE":0,"TOWNNAME":"新化區","LI":"太平里","LIN":"4鄰","STREET":"中正路","SECT":" ","MAREA":" ","LANE":" ","ALLEY":" ","HOUSE_NO":"５７８號十三樓之６","E_COORD97":178896.10999999999,"N_COORD97":2549000.2599999998,"ADDRESS":"中正路５７８號十三樓之６","OBJECTID":626518},"geometry":{"x":178896.1100000022,"y":2549000.2600000016}},{"attributes":{"ID":626546,"DIS_CODE":0,"TOWNNAME":"新化區","LI":"太平里","LIN":"4鄰","STREET":"中正路","SECT":" ","MAREA":" ","LANE":" ","ALLEY":" ","HOUSE_NO":"５７８號五樓之１","E_COORD97":178895.84,"N_COORD97":2549000.2599999998,"ADDRESS":"中正路５７８號五樓之１","OBJECTID":626519},"geometry":{"x":178895.84000000078,"y":2549000.2600000016}},{"attributes":{"ID":626547,"DIS_CODE":0,"TOWNNAME":"東區","LI":"東光里","LIN":"17鄰","STREET":"東興路","SECT":" ","MAREA":" ","LANE":" ","ALLEY":" ","HOUSE_NO":"１９５號三樓之１","E_COORD97":170998.14000000001,"N_COORD97":2543847.6800000002,"ADDRESS":"東興路１９５號三樓之１","OBJECTID":626520},"geometry":{"x":170998.13999999966,"y":2543847.6800000016}},{"attributes":{"ID":626548,"DIS_CODE":0,"TOWNNAME":"東區","LI":"東光里","LIN":"17鄰","STREET":"東興路","SECT":" ","MAREA":" ","LANE":" ","ALLEY":" ","HOUSE_NO":"１９５號三樓之２","E_COORD97":170998.14000000001,"N_COORD97":2543847.6800000002,"ADDRESS":"東興路１９５號三樓之２","OBJECTID":626521},"geometry":{"x":170998.13999999966,"y":2543847.6800000016}},{"attributes":{"ID":626549,"DIS_CODE":0,"TOWNNAME":"東區","LI":"成大里","LIN":"4鄰","STREET":"民族一街","SECT":" ","MAREA":" ","LANE":" ","ALLEY":" ","HOUSE_NO":"２７號二樓","E_COORD97":169582.92999999999,"N_COORD97":2543779.6499999999,"ADDRESS":"民族一街２７號二樓","OBJECTID":626522},"geometry":{"x":169582.9299999997,"y":2543779.6500000041}},{"attributes":{"ID":626550,"DIS_CODE":0,"TOWNNAME":"東區","LI":"成大里","LIN":"4鄰","STREET":"民族一街","SECT":" ","MAREA":" ","LANE":" ","ALLEY":" ","HOUSE_NO":"２７號三樓","E_COORD97":169582.92999999999,"N_COORD97":2543779.6499999999,"ADDRESS":"民族一街２７號三樓","OBJECTID":626523},"geometry":{"x":169582.9299999997,"y":2543779.6500000041}},{"attributes":{"ID":626551,"DIS_CODE":0,"TOWNNAME":"東區","LI":"成大里","LIN":"4鄰","STREET":"民族一街","SECT":" ","MAREA":" ","LANE":" ","ALLEY":" ","HOUSE_NO":"２７號四樓","E_COORD97":169582.92999999999,"N_COORD97":2543779.6499999999,"ADDRESS":"民族一街２７號四樓","OBJECTID":626524},"geometry":{"x":169582.9299999997,"y":2543779.6500000041}},{"attributes":{"ID":626552,"DIS_CODE":0,"TOWNNAME":"東區","LI":"成大里","LIN":"4鄰","STREET":"民族一街","SECT":" ","MAREA":" ","LANE":" ","ALLEY":" ","HOUSE_NO":"２７號五樓","E_COORD97":169582.92999999999,"N_COORD97":2543779.6499999999,"ADDRESS":"民族一街２７號五樓","OBJECTID":626525},"geometry":{"x":169582.9299999997,"y":2543779.6500000041}},{"attributes":{"ID":626553,"DIS_CODE":0,"TOWNNAME":"東區","LI":"和平里","LIN":"1鄰","STREET":"仁和路","SECT":" ","MAREA":" ","LANE":" ","ALLEY":" ","HOUSE_NO":"２７號三樓","E_COORD97":171099.45000000001,"N_COORD97":2542097.2200000002,"ADDRESS":"仁和路２７號三樓","OBJECTID":626526},"geometry":{"x":171099.45000000112,"y":2542097.2200000007}},{"attributes":{"ID":626554,"DIS_CODE":0,"TOWNNAME":"東區","LI":"和平里","LIN":"1鄰","STREET":"仁和路","SECT":" ","MAREA":" ","LANE":" ","ALLEY":" ","HOUSE_NO":"２７號四樓","E_COORD97":171099.45000000001,"N_COORD97":2542097.2200000002,"ADDRESS":"仁和路２７號四樓","OBJECTID":626527},"geometry":{"x":171099.45000000112,"y":2542097.2200000007}},{"attributes":{"ID":626555,"DIS_CODE":0,"TOWNNAME":"東區","LI":"和平里","LIN":"1鄰","STREET":"仁和路","SECT":" ","MAREA":" ","LANE":" ","ALLEY":" ","HOUSE_NO":"２７號五樓","E_COORD97":171099.45000000001,"N_COORD97":2542097.2200000002,"ADDRESS":"仁和路２７號五樓","OBJECTID":626528},"geometry":{"x":171099.45000000112,"y":2542097.2200000007}},{"attributes":{"ID":626556,"DIS_CODE":0,"TOWNNAME":"東區","LI":"和平里","LIN":"1鄰","STREET":"仁和路","SECT":" ","MAREA":" ","LANE":" ","ALLEY":" ","HOUSE_NO":"２７號六樓","E_COORD97":171099.45000000001,"N_COORD97":2542097.2200000002,"ADDRESS":"仁和路２７號六樓","OBJECTID":626529},"geometry":{"x":171099.45000000112,"y":2542097.2200000007}},{"attributes":{"ID":626557,"DIS_CODE":0,"TOWNNAME":"東區","LI":"和平里","LIN":"1鄰","STREET":"仁和路","SECT":" ","MAREA":" ","LANE":" ","ALLEY":" ","HOUSE_NO":"２７號七樓","E_COORD97":171099.45000000001,"N_COORD97":2542097.2200000002,"ADDRESS":"仁和路２７號七樓","OBJECTID":626530},"geometry":{"x":171099.45000000112,"y":2542097.2200000007}},{"attributes":{"ID":626558,"DIS_CODE":0,"TOWNNAME":"東區","LI":"和平里","LIN":"1鄰","STREET":"仁和路","SECT":" ","MAREA":" ","LANE":" ","ALLEY":" ","HOUSE_NO":"２７號十一樓","E_COORD97":171099.45000000001,"N_COORD97":2542097.2200000002,"ADDRESS":"仁和路２７號十一樓","OBJECTID":626531},"geometry":{"x":171099.45000000112,"y":2542097.2200000007}},{"attributes":{"ID":626559,"DIS_CODE":0,"TOWNNAME":"東區","LI":"和平里","LIN":"11鄰","STREET":"仁和路","SECT":" ","MAREA":" ","LANE":" ","ALLEY":" ","HOUSE_NO":"９１之１３號二樓","E_COORD97":171328.48000000001,"N_COORD97":2541481.52,"ADDRESS":"仁和路９１之１３號二樓","OBJECTID":626532},"geometry":{"x":171328.48000000138,"y":2541481.5200000014}},{"attributes":{"ID":626560,"DIS_CODE":0,"TOWNNAME":"永康區","LI":"大橋里","LIN":"5鄰","STREET":"大橋三街","SECT":" ","MAREA":" ","LANE":" ","ALLEY":" ","HOUSE_NO":"１９１號二樓之２","E_COORD97":170843.14999999999,"N_COORD97":2546766.4100000001,"ADDRESS":"大橋三街１９１號二樓之２","OBJECTID":626533},"geometry":{"x":170843.15000000037,"y":2546766.4100000001}},{"attributes":{"ID":626561,"DIS_CODE":0,"TOWNNAME":"永康區","LI":"永康里","LIN":"26鄰","STREET":"中山北路","SECT":" ","MAREA":" ","LANE":" ","ALLEY":" ","HOUSE_NO":"１１４號十三樓之４","E_COORD97":174165.01000000001,"N_COORD97":2547447.25,"ADDRESS":"中山北路１１４號十三樓之４","OBJECTID":626534},"geometry":{"x":174165.01000000071,"y":2547447.2500000019}},{"attributes":{"ID":626562,"DIS_CODE":0,"TOWNNAME":"永康區","LI":"永康里","LIN":"39鄰","STREET":"永大一路","SECT":" ","MAREA":" ","LANE":" ","ALLEY":" ","HOUSE_NO":"６２號七樓之３","E_COORD97":174180.64000000001,"N_COORD97":2546456.7200000002,"ADDRESS":"永大一路６２號七樓之３","OBJECTID":626535},"geometry":{"x":174180.63999999873,"y":2546456.7200000007}},{"attributes":{"ID":626563,"DIS_CODE":0,"TOWNNAME":"永康區","LI":"永康里","LIN":"39鄰","STREET":"永大一路","SECT":" ","MAREA":" ","LANE":" ","ALLEY":" ","HOUSE_NO":"６２號十二樓之６","E_COORD97":174181.89000000001,"N_COORD97":2546456.7200000002,"ADDRESS":"永大一路６２號十二樓之６","OBJECTID":626536},"geometry":{"x":174181.88999999966,"y":2546456.7200000007}},{"attributes":{"ID":626564,"DIS_CODE":0,"TOWNNAME":"永康區","LI":"永康里","LIN":"26鄰","STREET":"永大路","SECT":"二段","MAREA":" ","LANE":" ","ALLEY":" ","HOUSE_NO":"１１２９號十九樓之６","E_COORD97":174199.79000000001,"N_COORD97":2547482.3599999999,"ADDRESS":"永大路二段１１２９號十九樓之６","OBJECTID":626537},"geometry":{"x":174199.79000000004,"y":2547482.3599999994}},{"attributes":{"ID":626565,"DIS_CODE":0,"TOWNNAME":"永康區","LI":"永康里","LIN":"39鄰","STREET":"永大一路","SECT":" ","MAREA":" ","LANE":" ","ALLEY":" ","HOUSE_NO":"６２號十樓之４","E_COORD97":174180.57000000001,"N_COORD97":2546456.7200000002,"ADDRESS":"永大一路６２號十樓之４","OBJECTID":626538},"geometry":{"x":174180.57000000123,"y":2546456.7200000007}},{"attributes":{"ID":626566,"DIS_CODE":0,"TOWNNAME":"永康區","LI":"西灣里","LIN":"24鄰","STREET":"國光八街","SECT":" ","MAREA":" ","LANE":" ","ALLEY":" ","HOUSE_NO":"３號七樓","E_COORD97":174432.13,"N_COORD97":2545742,"ADDRESS":"國光八街３號七樓","OBJECTID":626539},"geometry":{"x":174432.13000000082,"y":2545742}},{"attributes":{"ID":626567,"DIS_CODE":0,"TOWNNAME":"永康區","LI":"西灣里","LIN":"25鄰","STREET":"國光七街","SECT":" ","MAREA":" ","LANE":" ","ALLEY":" ","HOUSE_NO":"２８號六樓","E_COORD97":174286.88,"N_COORD97":2545541.3900000001,"ADDRESS":"國光七街２８號六樓","OBJECTID":626540},"geometry":{"x":174286.88000000082,"y":2545541.3900000043}},{"attributes":{"ID":626568,"DIS_CODE":0,"TOWNNAME":"永康區","LI":"\u25A0行里","LIN":"1鄰","STREET":"中正路","SECT":" ","MAREA":" ","LANE":" ","ALLEY":" ","HOUSE_NO":"９８６號三樓之２","E_COORD97":171936.84,"N_COORD97":2549018.2999999998,"ADDRESS":"中正路９８６號三樓之２","OBJECTID":626541},"geometry":{"x":171936.84000000171,"y":2549018.3000000026}},{"attributes":{"ID":626569,"DIS_CODE":0,"TOWNNAME":"永康區","LI":"\u25A0行里","LIN":"1鄰","STREET":"中正路","SECT":" ","MAREA":" ","LANE":" ","ALLEY":" ","HOUSE_NO":"９８６號七樓之６","E_COORD97":171936.81,"N_COORD97":2549018.2999999998,"ADDRESS":"中正路９８６號七樓之６","OBJECTID":626542},"geometry":{"x":171936.81000000145,"y":2549018.3000000026}},{"attributes":{"ID":626570,"DIS_CODE":0,"TOWNNAME":"永康區","LI":"\u25A0行里","LIN":"1鄰","STREET":"中正路","SECT":" ","MAREA":" ","LANE":" ","ALLEY":" ","HOUSE_NO":"９８６號四樓之４","E_COORD97":171936.73000000001,"N_COORD97":2549018.2999999998,"ADDRESS":"中正路９８６號四樓之４","OBJECTID":626543},"geometry":{"x":171936.73000000138,"y":2549018.3000000026}},{"attributes":{"ID":626571,"DIS_CODE":0,"TOWNNAME":"永康區","LI":"\u25A0行里","LIN":"1鄰","STREET":"中正路","SECT":" ","MAREA":" ","LANE":" ","ALLEY":" ","HOUSE_NO":"９８６號六樓之１","E_COORD97":171936.70999999999,"N_COORD97":2549018.2999999998,"ADDRESS":"中正路９８６號六樓之１","OBJECTID":626544},"geometry":{"x":171936.71000000089,"y":2549018.3000000026}},{"attributes":{"ID":626572,"DIS_CODE":0,"TOWNNAME":"永康區","LI":"\u25A0行里","LIN":"31鄰","STREET":"仁愛街","SECT":" ","MAREA":" ","LANE":" ","ALLEY":" ","HOUSE_NO":"４６之２號四樓","E_COORD97":171946.42999999999,"N_COORD97":2549193.9700000002,"ADDRESS":"仁愛街４６之２號四樓","OBJECTID":626545},"geometry":{"x":171946.43000000063,"y":2549193.9700000007}},{"attributes":{"ID":626573,"DIS_CODE":0,"TOWNNAME":"永康區","LI":"\u25A0行里","LIN":"46鄰","STREET":"新行街","SECT":" ","MAREA":" ","LANE":" ","ALLEY":" ","HOUSE_NO":"１２５號四樓之２","E_COORD97":172323.39999999999,"N_COORD97":2549035.2999999998,"ADDRESS":"新行街１２５號四樓之２","OBJECTID":626546},"geometry":{"x":172323.39999999944,"y":2549035.3000000026}},{"attributes":{"ID":626574,"DIS_CODE":0,"TOWNNAME":"永康區","LI":"\u25A0行里","LIN":"46鄰","STREET":"新行街","SECT":" ","MAREA":" ","LANE":" ","ALLEY":" ","HOUSE_NO":"１２５號九樓之２","E_COORD97":172323.39999999999,"N_COORD97":2549035.2999999998,"ADDRESS":"新行街１２５號九樓之２","OBJECTID":626547},"geometry":{"x":172323.39999999944,"y":2549035.3000000026}},{"attributes":{"ID":626575,"DIS_CODE":0,"TOWNNAME":"永康區","LI":"\u25A0洲里","LIN":"39鄰","STREET":"\u25A0洲一街","SECT":" ","MAREA":" ","LANE":" ","ALLEY":" ","HOUSE_NO":"４１號四樓之１","E_COORD97":171589.5,"N_COORD97":2549075.7999999998,"ADDRESS":"\u25A0洲一街４１號四樓之１","OBJECTID":626548},"geometry":{"x":171589.5,"y":2549075.8000000026}},{"attributes":{"ID":626576,"DIS_CODE":0,"TOWNNAME":"永康區","LI":"\u25A0行里","LIN":"31鄰","STREET":"仁愛街","SECT":" ","MAREA":" ","LANE":" ","ALLEY":" ","HOUSE_NO":"４８號七樓","E_COORD97":171949.97,"N_COORD97":2549202.7200000002,"ADDRESS":"仁愛街４８號七樓","OBJECTID":626549},"geometry":{"x":171949.97000000067,"y":2549202.7200000007}},{"attributes":{"ID":626577,"DIS_CODE":0,"TOWNNAME":"永康區","LI":"\u25A0行里","LIN":"42鄰","STREET":"永安二街","SECT":" ","MAREA":" ","LANE":" ","ALLEY":" ","HOUSE_NO":"１號五樓之１","E_COORD97":172490.09,"N_COORD97":2549594.3300000001,"ADDRESS":"永安二街１號五樓之１","OBJECTID":626550},"geometry":{"x":172490.09000000078,"y":2549594.3300000001}},{"attributes":{"ID":626578,"DIS_CODE":0,"TOWNNAME":"永康區","LI":"\u25A0行里","LIN":"42鄰","STREET":"永安二街","SECT":" ","MAREA":" ","LANE":" ","ALLEY":" ","HOUSE_NO":"１號四樓之３","E_COORD97":172490.19,"N_COORD97":2549594.3300000001,"ADDRESS":"永安二街１號四樓之３","OBJECTID":626551},"geometry":{"x":172490.19000000134,"y":2549594.3300000001}},{"attributes":{"ID":626579,"DIS_CODE":0,"TOWNNAME":"永康區","LI":"\u25A0行里","LIN":"42鄰","STREET":"永安二街","SECT":" ","MAREA":" ","LANE":" ","ALLEY":" ","HOUSE_NO":"１號七樓之３","E_COORD97":172490.19,"N_COORD97":2549594.3300000001,"ADDRESS":"永安二街１號七樓之３","OBJECTID":626552},"geometry":{"x":172490.19000000134,"y":2549594.3300000001}},{"attributes":{"ID":626580,"DIS_CODE":0,"TOWNNAME":"永康區","LI":"\u25A0行里","LIN":"14鄰","STREET":"中正六街","SECT":" ","MAREA":" ","LANE":" ","ALLEY":" ","HOUSE_NO":"１７７號七樓之２","E_COORD97":171861.98000000001,"N_COORD97":2548865.5600000001,"ADDRESS":"中正六街１７７號七樓之２","OBJECTID":626553},"geometry":{"x":171861.98000000231,"y":2548865.5600000005}},{"attributes":{"ID":626581,"DIS_CODE":0,"TOWNNAME":"永康區","LI":"\u25A0行里","LIN":"1鄰","STREET":"中正路","SECT":" ","MAREA":" ","LANE":" ","ALLEY":" ","HOUSE_NO":"９８６號六樓之３","E_COORD97":171936.81,"N_COORD97":2549018.2999999998,"ADDRESS":"中正路９８６號六樓之３","OBJECTID":626554},"geometry":{"x":171936.81000000145,"y":2549018.3000000026}},{"attributes":{"ID":626582,"DIS_CODE":0,"TOWNNAME":"永康區","LI":"\u25A0行里","LIN":"1鄰","STREET":"中正路","SECT":" ","MAREA":" ","LANE":" ","ALLEY":" ","HOUSE_NO":"９８６號四樓之１","E_COORD97":171936.70999999999,"N_COORD97":2549018.2999999998,"ADDRESS":"中正路９８６號四樓之１","OBJECTID":626555},"geometry":{"x":171936.71000000089,"y":2549018.3000000026}},{"attributes":{"ID":626583,"DIS_CODE":0,"TOWNNAME":"永康區","LI":"\u25A0行里","LIN":"1鄰","STREET":"中正北路","SECT":" ","MAREA":" ","LANE":" ","ALLEY":" ","HOUSE_NO":"５４號八樓之１２","E_COORD97":172009.23000000001,"N_COORD97":2549058.5800000001,"ADDRESS":"中正北路５４號八樓之１２","OBJECTID":626556},"geometry":{"x":172009.23000000045,"y":2549058.5800000038}},{"attributes":{"ID":626584,"DIS_CODE":0,"TOWNNAME":"永康區","LI":"\u25A0行里","LIN":"1鄰","STREET":"中正路","SECT":" ","MAREA":" ","LANE":" ","ALLEY":" ","HOUSE_NO":"９８６號四樓之５","E_COORD97":171936.85999999999,"N_COORD97":2549018.2999999998,"ADDRESS":"中正路９８６號四樓之５","OBJECTID":626557},"geometry":{"x":171936.86000000034,"y":2549018.3000000026}},{"attributes":{"ID":626585,"DIS_CODE":0,"TOWNNAME":"永康區","LI":"\u25A0行里","LIN":"1鄰","STREET":"中正北路","SECT":" ","MAREA":" ","LANE":" ","ALLEY":" ","HOUSE_NO":"５４號六樓之６","E_COORD97":172007.95000000001,"N_COORD97":2549058.5800000001,"ADDRESS":"中正北路５４號六樓之６","OBJECTID":626558},"geometry":{"x":172007.95000000112,"y":2549058.5800000038}},{"attributes":{"ID":626586,"DIS_CODE":0,"TOWNNAME":"永康區","LI":"\u25A0行里","LIN":"1鄰","STREET":"中正北路","SECT":" ","MAREA":" ","LANE":" ","ALLEY":" ","HOUSE_NO":"５４號八樓之４","E_COORD97":172007.87,"N_COORD97":2549058.5800000001,"ADDRESS":"中正北路５４號八樓之４","OBJECTID":626559},"geometry":{"x":172007.87000000011,"y":2549058.5800000038}},{"attributes":{"ID":626587,"DIS_CODE":0,"TOWNNAME":"永康區","LI":"\u25A0行里","LIN":"31鄰","STREET":"仁愛街","SECT":" ","MAREA":" ","LANE":" ","ALLEY":" ","HOUSE_NO":"４６號之２五樓","E_COORD97":171946.42999999999,"N_COORD97":2549193.9700000002,"ADDRESS":"仁愛街４６號之２五樓","OBJECTID":626560},"geometry":{"x":171946.43000000063,"y":2549193.9700000007}},{"attributes":{"ID":626588,"DIS_CODE":0,"TOWNNAME":"永康區","LI":"龍潭里","LIN":"22鄰","STREET":"龍安街","SECT":" ","MAREA":" ","LANE":" ","ALLEY":" ","HOUSE_NO":"２５３號八樓之１","E_COORD97":174768.17999999999,"N_COORD97":2548600.5499999998,"ADDRESS":"龍安街２５３號八樓之１","OBJECTID":626561},"geometry":{"x":174768.1799999997,"y":2548600.5500000007}},{"attributes":{"ID":626589,"DIS_CODE":0,"TOWNNAME":"永康區","LI":"網寮里","LIN":"26鄰","STREET":"永興路","SECT":" ","MAREA":" ","LANE":" ","ALLEY":" ","HOUSE_NO":"６５號九樓之５","E_COORD97":174047.22,"N_COORD97":2546517.5499999998,"ADDRESS":"永興路６５號九樓之５","OBJECTID":626562},"geometry":{"x":174047.22000000067,"y":2546517.5500000026}},{"attributes":{"ID":626590,"DIS_CODE":0,"TOWNNAME":"永康區","LI":"網寮里","LIN":"26鄰","STREET":"永華路","SECT":" ","MAREA":" ","LANE":" ","ALLEY":" ","HOUSE_NO":"５８０號四樓之３","E_COORD97":173896.98000000001,"N_COORD97":2546572.7999999998,"ADDRESS":"永華路５８０號四樓之３","OBJECTID":626563},"geometry":{"x":173896.98000000138,"y":2546572.8000000045}},{"attributes":{"ID":626591,"DIS_CODE":0,"TOWNNAME":"永康區","LI":"網寮里","LIN":"26鄰","STREET":"永華路","SECT":" ","MAREA":" ","LANE":" ","ALLEY":" ","HOUSE_NO":"５８０號五樓之３","E_COORD97":173896.98000000001,"N_COORD97":2546572.7999999998,"ADDRESS":"永華路５８０號五樓之３","OBJECTID":626564},"geometry":{"x":173896.98000000138,"y":2546572.8000000045}},{"attributes":{"ID":626592,"DIS_CODE":0,"TOWNNAME":"永康區","LI":"網寮里","LIN":"26鄰","STREET":"永華路","SECT":" ","MAREA":" ","LANE":" ","ALLEY":" ","HOUSE_NO":"５７２號四樓之１","E_COORD97":173892.70000000001,"N_COORD97":2546554.5499999998,"ADDRESS":"永華路５７２號四樓之１","OBJECTID":626565},"geometry":{"x":173892.70000000205,"y":2546554.5500000026}},{"attributes":{"ID":626593,"DIS_CODE":0,"TOWNNAME":"永康區","LI":"網寮里","LIN":"26鄰","STREET":"永華路","SECT":" ","MAREA":" ","LANE":" ","ALLEY":" ","HOUSE_NO":"５８０號七樓之１","E_COORD97":173896.89000000001,"N_COORD97":2546572.7999999998,"ADDRESS":"永華路５８０號七樓之１","OBJECTID":626566},"geometry":{"x":173896.88999999966,"y":2546572.8000000045}},{"attributes":{"ID":626594,"DIS_CODE":0,"TOWNNAME":"永康區","LI":"網寮里","LIN":"26鄰","STREET":"永華路","SECT":" ","MAREA":" ","LANE":" ","ALLEY":" ","HOUSE_NO":"５８０號九樓之２","E_COORD97":173897.01999999999,"N_COORD97":2546572.7999999998,"ADDRESS":"永華路５８０號九樓之２","OBJECTID":626567},"geometry":{"x":173897.02000000048,"y":2546572.8000000045}},{"attributes":{"ID":626595,"DIS_CODE":0,"TOWNNAME":"永康區","LI":"\u25A0行里","LIN":"1鄰","STREET":"中正北路","SECT":" ","MAREA":" ","LANE":" ","ALLEY":" ","HOUSE_NO":"５４號五樓之６","E_COORD97":172007.95000000001,"N_COORD97":2549058.5800000001,"ADDRESS":"中正北路５４號五樓之６","OBJECTID":626568},"geometry":{"x":172007.95000000112,"y":2549058.5800000038}},{"attributes":{"ID":626596,"DIS_CODE":0,"TOWNNAME":"永康區","LI":"\u25A0行里","LIN":"1鄰","STREET":"中正北路","SECT":" ","MAREA":" ","LANE":" ","ALLEY":" ","HOUSE_NO":"５４號四樓之１５","E_COORD97":172009.25,"N_COORD97":2549058.5800000001,"ADDRESS":"中正北路５４號四樓之１５","OBJECTID":626569},"geometry":{"x":172009.25000000093,"y":2549058.5800000038}},{"attributes":{"ID":626597,"DIS_CODE":0,"TOWNNAME":"永康區","LI":"\u25A0行里","LIN":"1鄰","STREET":"中正北路","SECT":" ","MAREA":" ","LANE":" ","ALLEY":" ","HOUSE_NO":"５４號四樓之７","E_COORD97":172007.92999999999,"N_COORD97":2549058.5800000001,"ADDRESS":"中正北路５４號四樓之７","OBJECTID":626570},"geometry":{"x":172007.93000000063,"y":2549058.5800000038}},{"attributes":{"ID":626598,"DIS_CODE":0,"TOWNNAME":"永康區","LI":"蔦松里","LIN":"1鄰","STREET":"蔦松二街","SECT":" ","MAREA":" ","LANE":" ","ALLEY":" ","HOUSE_NO":"１１２號五樓之１","E_COORD97":173778.38,"N_COORD97":2549341.8300000001,"ADDRESS":"蔦松二街１１２號五樓之１","OBJECTID":626571},"geometry":{"x":173778.38000000082,"y":2549341.8300000038}},{"attributes":{"ID":626599,"DIS_CODE":0,"TOWNNAME":"永康區","LI":"\u25A0行里","LIN":"1鄰","STREET":"中正北路","SECT":" ","MAREA":" ","LANE":" ","ALLEY":" ","HOUSE_NO":"５４號四樓之５","E_COORD97":172008,"N_COORD97":2549058.5800000001,"ADDRESS":"中正北路５４號四樓之５","OBJECTID":626572},"geometry":{"x":172008,"y":2549058.5800000038}},{"attributes":{"ID":626600,"DIS_CODE":0,"TOWNNAME":"永康區","LI":"龍潭里","LIN":"5鄰","STREET":"龍埔街","SECT":" ","MAREA":" ","LANE":" ","ALLEY":" ","HOUSE_NO":"８５號十樓之５","E_COORD97":174619.85000000001,"N_COORD97":2548225.75,"ADDRESS":"龍埔街８５號十樓之５","OBJECTID":626573},"geometry":{"x":174619.84999999963,"y":2548225.75}},{"attributes":{"ID":626601,"DIS_CODE":0,"TOWNNAME":"永康區","LI":"網寮里","LIN":"26鄰","STREET":"永華路","SECT":" ","MAREA":" ","LANE":" ","ALLEY":" ","HOUSE_NO":"５７２號六樓之１","E_COORD97":173892.70000000001,"N_COORD97":2546554.5499999998,"ADDRESS":"永華路５７２號六樓之１","OBJECTID":626574},"geometry":{"x":173892.70000000205,"y":2546554.5500000026}},{"attributes":{"ID":626602,"DIS_CODE":0,"TOWNNAME":"永康區","LI":"網寮里","LIN":"26鄰","STREET":"永興路","SECT":" ","MAREA":" ","LANE":" ","ALLEY":" ","HOUSE_NO":"６５號七樓之４","E_COORD97":174047.09,"N_COORD97":2546517.5499999998,"ADDRESS":"永興路６５號七樓之４","OBJECTID":626575},"geometry":{"x":174047.08999999985,"y":2546517.5500000026}},{"attributes":{"ID":626603,"DIS_CODE":0,"TOWNNAME":"永康區","LI":"網寮里","LIN":"26鄰","STREET":"永興路","SECT":" ","MAREA":" ","LANE":" ","ALLEY":" ","HOUSE_NO":"６５號八樓之４","E_COORD97":174047.09,"N_COORD97":2546517.5499999998,"ADDRESS":"永興路６５號八樓之４","OBJECTID":626576},"geometry":{"x":174047.08999999985,"y":2546517.5500000026}},{"attributes":{"ID":626604,"DIS_CODE":0,"TOWNNAME":"永康區","LI":"網寮里","LIN":"26鄰","STREET":"永華路","SECT":" ","MAREA":" ","LANE":" ","ALLEY":" ","HOUSE_NO":"５７２號十一樓之１","E_COORD97":173893.95000000001,"N_COORD97":2546554.5499999998,"ADDRESS":"永華路５７２號十一樓之１","OBJECTID":626577},"geometry":{"x":173893.95000000019,"y":2546554.5500000026}},{"attributes":{"ID":626605,"DIS_CODE":0,"TOWNNAME":"永康區","LI":"網寮里","LIN":"26鄰","STREET":"永華路","SECT":" ","MAREA":" ","LANE":" ","ALLEY":" ","HOUSE_NO":"５８０號八樓之１","E_COORD97":173896.89000000001,"N_COORD97":2546572.7999999998,"ADDRESS":"永華路５８０號八樓之１","OBJECTID":626578},"geometry":{"x":173896.88999999966,"y":2546572.8000000045}},{"attributes":{"ID":626606,"DIS_CODE":0,"TOWNNAME":"永康區","LI":"蔦松里","LIN":"1鄰","STREET":"蔦松二街","SECT":" ","MAREA":" ","LANE":" ","ALLEY":" ","HOUSE_NO":"１１２號三樓之１","E_COORD97":173778.38,"N_COORD97":2549341.8300000001,"ADDRESS":"蔦松二街１１２號三樓之１","OBJECTID":626579},"geometry":{"x":173778.38000000082,"y":2549341.8300000038}},{"attributes":{"ID":626607,"DIS_CODE":0,"TOWNNAME":"永康區","LI":"蔦松里","LIN":"1鄰","STREET":"蔦松二街","SECT":" ","MAREA":" ","LANE":" ","ALLEY":" ","HOUSE_NO":"１１４號四樓之１","E_COORD97":173793.79000000001,"N_COORD97":2549352.3300000001,"ADDRESS":"蔦松二街１１４號四樓之１","OBJECTID":626580},"geometry":{"x":173793.79000000097,"y":2549352.3300000019}},{"attributes":{"ID":626608,"DIS_CODE":0,"TOWNNAME":"永康區","LI":"\u25A0行里","LIN":"1鄰","STREET":"中正北路","SECT":" ","MAREA":" ","LANE":" ","ALLEY":" ","HOUSE_NO":"５４號六樓之５","E_COORD97":172008,"N_COORD97":2549058.5800000001,"ADDRESS":"中正北路５４號六樓之５","OBJECTID":626581},"geometry":{"x":172008,"y":2549058.5800000038}},{"attributes":{"ID":626609,"DIS_CODE":0,"TOWNNAME":"永康區","LI":"蔦松里","LIN":"1鄰","STREET":"蔦松二街","SECT":" ","MAREA":" ","LANE":" ","ALLEY":" ","HOUSE_NO":"１１４號三樓之３","E_COORD97":173793.88,"N_COORD97":2549352.3300000001,"ADDRESS":"蔦松二街１１４號三樓之３","OBJECTID":626582},"geometry":{"x":173793.87999999989,"y":2549352.3300000019}},{"attributes":{"ID":626610,"DIS_CODE":0,"TOWNNAME":"永康區","LI":"蔦松里","LIN":"1鄰","STREET":"蔦松二街","SECT":" ","MAREA":" ","LANE":" ","ALLEY":" ","HOUSE_NO":"１１２號六樓之１","E_COORD97":173778.38,"N_COORD97":2549341.8300000001,"ADDRESS":"蔦松二街１１２號六樓之１","OBJECTID":626583},"geometry":{"x":173778.38000000082,"y":2549341.8300000038}},{"attributes":{"ID":626611,"DIS_CODE":0,"TOWNNAME":"永康區","LI":"蔦松里","LIN":"1鄰","STREET":"蔦松二街","SECT":" ","MAREA":" ","LANE":" ","ALLEY":" ","HOUSE_NO":"１１４號六樓之３","E_COORD97":173793.88,"N_COORD97":2549352.3300000001,"ADDRESS":"蔦松二街１１４號六樓之３","OBJECTID":626584},"geometry":{"x":173793.87999999989,"y":2549352.3300000019}},{"attributes":{"ID":626612,"DIS_CODE":0,"TOWNNAME":"永康區","LI":"蔦松里","LIN":"1鄰","STREET":"蔦松二街","SECT":" ","MAREA":" ","LANE":" ","ALLEY":" ","HOUSE_NO":"１１２號四樓之５","E_COORD97":173778.53,"N_COORD97":2549341.8300000001,"ADDRESS":"蔦松二街１１２號四樓之５","OBJECTID":626585},"geometry":{"x":173778.53000000026,"y":2549341.8300000038}},{"attributes":{"ID":626613,"DIS_CODE":0,"TOWNNAME":"永康區","LI":"龍潭里","LIN":"22鄰","STREET":"龍安街","SECT":" ","MAREA":" ","LANE":" ","ALLEY":" ","HOUSE_NO":"２５１號二樓之２","E_COORD97":174751.31,"N_COORD97":2548624.6400000001,"ADDRESS":"龍安街２５１號二樓之２","OBJECTID":626586},"geometry":{"x":174751.31000000052,"y":2548624.6400000043}},{"attributes":{"ID":626614,"DIS_CODE":0,"TOWNNAME":"永康區","LI":"網寮里","LIN":"26鄰","STREET":"永華路","SECT":" ","MAREA":" ","LANE":" ","ALLEY":" ","HOUSE_NO":"５８０號十三樓之３","E_COORD97":173898.23000000001,"N_COORD97":2546572.7999999998,"ADDRESS":"永華路５８０號十三樓之３","OBJECTID":626587},"geometry":{"x":173898.23000000138,"y":2546572.8000000045}},{"attributes":{"ID":626615,"DIS_CODE":0,"TOWNNAME":"永康區","LI":"網寮里","LIN":"26鄰","STREET":"永興路","SECT":" ","MAREA":" ","LANE":" ","ALLEY":" ","HOUSE_NO":"６５號六樓之６","E_COORD97":174047.16,"N_COORD97":2546517.5499999998,"ADDRESS":"永興路６５號六樓之６","OBJECTID":626588},"geometry":{"x":174047.16000000201,"y":2546517.5500000026}},{"attributes":{"ID":626616,"DIS_CODE":0,"TOWNNAME":"永康區","LI":"網寮里","LIN":"26鄰","STREET":"永華路","SECT":" ","MAREA":" ","LANE":" ","ALLEY":" ","HOUSE_NO":"５８０號十二樓之１","E_COORD97":173898.14000000001,"N_COORD97":2546572.7999999998,"ADDRESS":"永華路５８０號十二樓之１","OBJECTID":626589},"geometry":{"x":173898.1400000006,"y":2546572.8000000045}},{"attributes":{"ID":626617,"DIS_CODE":0,"TOWNNAME":"永康區","LI":"網寮里","LIN":"26鄰","STREET":"永興路","SECT":" ","MAREA":" ","LANE":" ","ALLEY":" ","HOUSE_NO":"６５號九樓之４","E_COORD97":174047.09,"N_COORD97":2546517.5499999998,"ADDRESS":"永興路６５號九樓之４","OBJECTID":626590},"geometry":{"x":174047.08999999985,"y":2546517.5500000026}},{"attributes":{"ID":626618,"DIS_CODE":0,"TOWNNAME":"永康區","LI":"網寮里","LIN":"26鄰","STREET":"永華路","SECT":" ","MAREA":" ","LANE":" ","ALLEY":" ","HOUSE_NO":"５７２號十三樓之１","E_COORD97":173893.95000000001,"N_COORD97":2546554.5499999998,"ADDRESS":"永華路５７２號十三樓之１","OBJECTID":626591},"geometry":{"x":173893.95000000019,"y":2546554.5500000026}},{"attributes":{"ID":626619,"DIS_CODE":0,"TOWNNAME":"永康區","LI":"網寮里","LIN":"26鄰","STREET":"永華路","SECT":" ","MAREA":" ","LANE":" ","ALLEY":" ","HOUSE_NO":"５８０號十一樓之２","E_COORD97":173898.26999999999,"N_COORD97":2546572.7999999998,"ADDRESS":"永華路５８０號十一樓之２","OBJECTID":626592},"geometry":{"x":173898.26999999862,"y":2546572.8000000045}},{"attributes":{"ID":626620,"DIS_CODE":0,"TOWNNAME":"永康區","LI":"蔦松里","LIN":"1鄰","STREET":"蔦松二街","SECT":" ","MAREA":" ","LANE":" ","ALLEY":" ","HOUSE_NO":"１１２號三樓之４","E_COORD97":173778.39999999999,"N_COORD97":2549341.8300000001,"ADDRESS":"蔦松二街１１２號三樓之４","OBJECTID":626593},"geometry":{"x":173778.4000000013,"y":2549341.8300000038}},{"attributes":{"ID":626621,"DIS_CODE":0,"TOWNNAME":"永康區","LI":"\u25A0行里","LIN":"1鄰","STREET":"中正北路","SECT":" ","MAREA":" ","LANE":" ","ALLEY":" ","HOUSE_NO":"５４號六樓之２","E_COORD97":172007.98000000001,"N_COORD97":2549058.5800000001,"ADDRESS":"中正北路５４號六樓之２","OBJECTID":626594},"geometry":{"x":172007.98000000138,"y":2549058.5800000038}},{"attributes":{"ID":626622,"DIS_CODE":0,"TOWNNAME":"永康區","LI":"網寮里","LIN":"20鄰","STREET":"文化路","SECT":" ","MAREA":" ","LANE":" ","ALLEY":" ","HOUSE_NO":"３０７號三樓之２","E_COORD97":173464.98999999999,"N_COORD97":2546123.7599999998,"ADDRESS":"文化路３０７號三樓之２","OBJECTID":626595},"geometry":{"x":173464.99000000022,"y":2546123.7599999998}},{"attributes":{"ID":626623,"DIS_CODE":0,"TOWNNAME":"永康區","LI":"網寮里","LIN":"20鄰","STREET":"文化路","SECT":" ","MAREA":" ","LANE":" ","ALLEY":" ","HOUSE_NO":"３０７號五樓之１","E_COORD97":173464.85000000001,"N_COORD97":2546123.7599999998,"ADDRESS":"文化路３０７號五樓之１","OBJECTID":626596},"geometry":{"x":173464.84999999963,"y":2546123.7599999998}},{"attributes":{"ID":626624,"DIS_CODE":0,"TOWNNAME":"永康區","LI":"網寮里","LIN":"26鄰","STREET":"永興路","SECT":" ","MAREA":" ","LANE":" ","ALLEY":" ","HOUSE_NO":"６５號九樓之１","E_COORD97":174047.06,"N_COORD97":2546517.5499999998,"ADDRESS":"永興路６５號九樓之１","OBJECTID":626597},"geometry":{"x":174047.05999999959,"y":2546517.5500000026}},{"attributes":{"ID":626625,"DIS_CODE":0,"TOWNNAME":"永康區","LI":"網寮里","LIN":"26鄰","STREET":"永華路","SECT":" ","MAREA":" ","LANE":" ","ALLEY":" ","HOUSE_NO":"５７２號五樓之１","E_COORD97":173892.70000000001,"N_COORD97":2546554.5499999998,"ADDRESS":"永華路５７２號五樓之１","OBJECTID":626598},"geometry":{"x":173892.70000000205,"y":2546554.5500000026}},{"attributes":{"ID":626626,"DIS_CODE":0,"TOWNNAME":"永康區","LI":"網寮里","LIN":"26鄰","STREET":"永興路","SECT":" ","MAREA":" ","LANE":" ","ALLEY":" ","HOUSE_NO":"６５號四樓之５","E_COORD97":174047.22,"N_COORD97":2546517.5499999998,"ADDRESS":"永興路６５號四樓之５","OBJECTID":626599},"geometry":{"x":174047.22000000067,"y":2546517.5500000026}},{"attributes":{"ID":626627,"DIS_CODE":0,"TOWNNAME":"永康區","LI":"網寮里","LIN":"26鄰","STREET":"永興路","SECT":" ","MAREA":" ","LANE":" ","ALLEY":" ","HOUSE_NO":"６５號五樓之５","E_COORD97":174047.22,"N_COORD97":2546517.5499999998,"ADDRESS":"永興路６５號五樓之５","OBJECTID":626600},"geometry":{"x":174047.22000000067,"y":2546517.5500000026}}]}