{"displayFieldName":"TOWNNAME","fieldAliases":{"ID":"ID","DIS_CODE":"DIS_CODE","TOWNNAME":"TOWNNAME","LI":"LI","LIN":"LIN","STREET":"STREET","SECT":"SECT","MAREA":"MAREA","LANE":"LANE","ALLEY":"ALLEY","HOUSE_NO":"HOUSE_NO","E_COORD97":"E_COORD97","N_COORD97":"N_COORD97","ADDRESS":"ADDRESS","OBJECTID":"OBJECTID"},"geometryType":"esriGeometryPoint","spatialReference":{"wkid":102443,"latestWkid":3826},"fields":[{"name":"ID","type":"esriFieldTypeDouble","alias":"ID"},{"name":"DIS_CODE","type":"esriFieldTypeInteger","alias":"DIS_CODE"},{"name":"TOWNNAME","type":"esriFieldTypeString","alias":"TOWNNAME","length":8},{"name":"LI","type":"esriFieldTypeString","alias":"LI","length":8},{"name":"LIN","type":"esriFieldTypeString","alias":"LIN","length":12},{"name":"STREET","type":"esriFieldTypeString","alias":"STREET","length":20},{"name":"SECT","type":"esriFieldTypeString","alias":"SECT","length":8},{"name":"MAREA","type":"esriFieldTypeString","alias":"MAREA","length":12},{"name":"LANE","type":"esriFieldTypeString","alias":"LANE","length":10},{"name":"ALLEY","type":"esriFieldTypeString","alias":"ALLEY","length":10},{"name":"HOUSE_NO","type":"esriFieldTypeString","alias":"HOUSE_NO","length":20},{"name":"E_COORD97","type":"esriFieldTypeDouble","alias":"E_COORD97"},{"name":"N_COORD97","type":"esriFieldTypeDouble","alias":"N_COORD97"},{"name":"ADDRESS","type":"esriFieldTypeString","alias":"ADDRESS","length":50},{"name":"OBJECTID","type":"esriFieldTypeOID","alias":"OBJECTID"}],"features":[{"attributes":{"ID":604028,"DIS_CODE":0,"TOWNNAME":"安南區","LI":"安順里","LIN":"22鄰","STREET":"北安路","SECT":"三段","MAREA":" ","LANE":" ","ALLEY":" ","HOUSE_NO":"６４２號","E_COORD97":169412.89000000001,"N_COORD97":2550368.1800000002,"ADDRESS":"北安路三段６４２號","OBJECTID":604001},"geometry":{"x":169412.8900000006,"y":2550368.1799999997}},{"attributes":{"ID":604029,"DIS_CODE":0,"TOWNNAME":"安南區","LI":"安順里","LIN":"22鄰","STREET":"總安街","SECT":"一段","MAREA":" ","LANE":" ","ALLEY":" ","HOUSE_NO":"２２２號","E_COORD97":169458.79000000001,"N_COORD97":2550246.4500000002,"ADDRESS":"總安街一段２２２號","OBJECTID":604002},"geometry":{"x":169458.79000000004,"y":2550246.4500000011}},{"attributes":{"ID":604030,"DIS_CODE":0,"TOWNNAME":"安南區","LI":"安順里","LIN":"22鄰","STREET":"總安街","SECT":"一段","MAREA":" ","LANE":" ","ALLEY":" ","HOUSE_NO":"２１６號","E_COORD97":169478.16,"N_COORD97":2550241.3700000001,"ADDRESS":"總安街一段２１６號","OBJECTID":604003},"geometry":{"x":169478.16000000015,"y":2550241.3700000029}},{"attributes":{"ID":604031,"DIS_CODE":0,"TOWNNAME":"安南區","LI":"安順里","LIN":"22鄰","STREET":"總安街","SECT":"一段","MAREA":" ","LANE":" ","ALLEY":" ","HOUSE_NO":"２１８號","E_COORD97":169472.13,"N_COORD97":2550242.6400000001,"ADDRESS":"總安街一段２１８號","OBJECTID":604004},"geometry":{"x":169472.13000000082,"y":2550242.6400000025}},{"attributes":{"ID":604032,"DIS_CODE":0,"TOWNNAME":"安南區","LI":"安順里","LIN":"22鄰","STREET":"總安街","SECT":"一段","MAREA":" ","LANE":" ","ALLEY":" ","HOUSE_NO":"２２０號","E_COORD97":169464.98999999999,"N_COORD97":2550244.8599999999,"ADDRESS":"總安街一段２２０號","OBJECTID":604005},"geometry":{"x":169464.99000000115,"y":2550244.8599999994}},{"attributes":{"ID":604033,"DIS_CODE":0,"TOWNNAME":"東區","LI":"富強里","LIN":"22鄰","STREET":"富強二街","SECT":" ","MAREA":" ","LANE":" ","ALLEY":" ","HOUSE_NO":"３號四樓","E_COORD97":170987.35999999999,"N_COORD97":2542510.77,"ADDRESS":"富強二街３號四樓","OBJECTID":604006},"geometry":{"x":170987.36000000034,"y":2542510.7700000014}},{"attributes":{"ID":604034,"DIS_CODE":0,"TOWNNAME":"歸仁區","LI":"文化里","LIN":"22鄰","STREET":"大德路","SECT":" ","MAREA":" ","LANE":" ","ALLEY":" ","HOUSE_NO":"２４１號十樓之１","E_COORD97":177147.82999999999,"N_COORD97":2541520.4700000002,"ADDRESS":"大德路２４１號十樓之１","OBJECTID":604007},"geometry":{"x":177147.83000000007,"y":2541520.4700000025}},{"attributes":{"ID":604035,"DIS_CODE":0,"TOWNNAME":"歸仁區","LI":"文化里","LIN":"22鄰","STREET":"大德路","SECT":" ","MAREA":" ","LANE":" ","ALLEY":" ","HOUSE_NO":"２４１號三樓之２","E_COORD97":177147.85000000001,"N_COORD97":2541520.4700000002,"ADDRESS":"大德路２４１號三樓之２","OBJECTID":604008},"geometry":{"x":177147.85000000056,"y":2541520.4700000025}},{"attributes":{"ID":604036,"DIS_CODE":0,"TOWNNAME":"北區","LI":"大道里","LIN":"22鄰","STREET":"旭日街","SECT":" ","MAREA":" ","LANE":" ","ALLEY":" ","HOUSE_NO":"７８號三樓之１","E_COORD97":169414.63,"N_COORD97":2545643.4300000002,"ADDRESS":"旭日街７８號三樓之１","OBJECTID":604009},"geometry":{"x":169414.63000000082,"y":2545643.4299999997}},{"attributes":{"ID":604037,"DIS_CODE":0,"TOWNNAME":"北區","LI":"大道里","LIN":"22鄰","STREET":"旭日街","SECT":" ","MAREA":" ","LANE":" ","ALLEY":" ","HOUSE_NO":"７８號三樓之２","E_COORD97":169414.63,"N_COORD97":2545643.4300000002,"ADDRESS":"旭日街７８號三樓之２","OBJECTID":604010},"geometry":{"x":169414.63000000082,"y":2545643.4299999997}},{"attributes":{"ID":604038,"DIS_CODE":0,"TOWNNAME":"北區","LI":"大道里","LIN":"22鄰","STREET":"旭日街","SECT":" ","MAREA":" ","LANE":" ","ALLEY":" ","HOUSE_NO":"７８號四樓之１","E_COORD97":169414.63,"N_COORD97":2545643.4300000002,"ADDRESS":"旭日街７８號四樓之１","OBJECTID":604011},"geometry":{"x":169414.63000000082,"y":2545643.4299999997}},{"attributes":{"ID":604039,"DIS_CODE":0,"TOWNNAME":"北區","LI":"大道里","LIN":"22鄰","STREET":"旭日街","SECT":" ","MAREA":" ","LANE":" ","ALLEY":" ","HOUSE_NO":"７８號四樓之２","E_COORD97":169414.63,"N_COORD97":2545643.4300000002,"ADDRESS":"旭日街７８號四樓之２","OBJECTID":604012},"geometry":{"x":169414.63000000082,"y":2545643.4299999997}},{"attributes":{"ID":604040,"DIS_CODE":0,"TOWNNAME":"北區","LI":"大道里","LIN":"22鄰","STREET":"旭日街","SECT":" ","MAREA":" ","LANE":" ","ALLEY":" ","HOUSE_NO":"７８號五樓之１","E_COORD97":169414.63,"N_COORD97":2545643.4300000002,"ADDRESS":"旭日街７８號五樓之１","OBJECTID":604013},"geometry":{"x":169414.63000000082,"y":2545643.4299999997}},{"attributes":{"ID":604041,"DIS_CODE":0,"TOWNNAME":"北區","LI":"大道里","LIN":"22鄰","STREET":"旭日街","SECT":" ","MAREA":" ","LANE":" ","ALLEY":" ","HOUSE_NO":"７８號五樓之２","E_COORD97":169414.63,"N_COORD97":2545643.4300000002,"ADDRESS":"旭日街７８號五樓之２","OBJECTID":604014},"geometry":{"x":169414.63000000082,"y":2545643.4299999997}},{"attributes":{"ID":604042,"DIS_CODE":0,"TOWNNAME":"北區","LI":"大道里","LIN":"22鄰","STREET":"旭日街","SECT":" ","MAREA":" ","LANE":" ","ALLEY":" ","HOUSE_NO":"７８號六樓之１","E_COORD97":169414.63,"N_COORD97":2545643.4300000002,"ADDRESS":"旭日街７８號六樓之１","OBJECTID":604015},"geometry":{"x":169414.63000000082,"y":2545643.4299999997}},{"attributes":{"ID":604043,"DIS_CODE":0,"TOWNNAME":"北區","LI":"大道里","LIN":"22鄰","STREET":"旭日街","SECT":" ","MAREA":" ","LANE":" ","ALLEY":" ","HOUSE_NO":"７８號六樓之２","E_COORD97":169414.63,"N_COORD97":2545643.4300000002,"ADDRESS":"旭日街７８號六樓之２","OBJECTID":604016},"geometry":{"x":169414.63000000082,"y":2545643.4299999997}},{"attributes":{"ID":604044,"DIS_CODE":0,"TOWNNAME":"北區","LI":"大道里","LIN":"22鄰","STREET":"旭日街","SECT":" ","MAREA":" ","LANE":" ","ALLEY":" ","HOUSE_NO":"７８號七樓之１","E_COORD97":169414.63,"N_COORD97":2545643.4300000002,"ADDRESS":"旭日街７８號七樓之１","OBJECTID":604017},"geometry":{"x":169414.63000000082,"y":2545643.4299999997}},{"attributes":{"ID":604045,"DIS_CODE":0,"TOWNNAME":"北區","LI":"大道里","LIN":"22鄰","STREET":"旭日街","SECT":" ","MAREA":" ","LANE":" ","ALLEY":" ","HOUSE_NO":"７８號七樓之２","E_COORD97":169414.63,"N_COORD97":2545643.4300000002,"ADDRESS":"旭日街７８號七樓之２","OBJECTID":604018},"geometry":{"x":169414.63000000082,"y":2545643.4299999997}},{"attributes":{"ID":604046,"DIS_CODE":0,"TOWNNAME":"北區","LI":"大道里","LIN":"22鄰","STREET":"旭日街","SECT":" ","MAREA":" ","LANE":" ","ALLEY":" ","HOUSE_NO":"７８號八樓之１","E_COORD97":169414.63,"N_COORD97":2545643.4300000002,"ADDRESS":"旭日街７８號八樓之１","OBJECTID":604019},"geometry":{"x":169414.63000000082,"y":2545643.4299999997}},{"attributes":{"ID":604047,"DIS_CODE":0,"TOWNNAME":"北區","LI":"大道里","LIN":"22鄰","STREET":"旭日街","SECT":" ","MAREA":" ","LANE":" ","ALLEY":" ","HOUSE_NO":"７８號八樓之２","E_COORD97":169414.63,"N_COORD97":2545643.4300000002,"ADDRESS":"旭日街７８號八樓之２","OBJECTID":604020},"geometry":{"x":169414.63000000082,"y":2545643.4299999997}},{"attributes":{"ID":604048,"DIS_CODE":0,"TOWNNAME":"北區","LI":"大道里","LIN":"22鄰","STREET":"旭日街","SECT":" ","MAREA":" ","LANE":" ","ALLEY":" ","HOUSE_NO":"７８號九樓之１","E_COORD97":169414.63,"N_COORD97":2545643.4300000002,"ADDRESS":"旭日街７８號九樓之１","OBJECTID":604021},"geometry":{"x":169414.63000000082,"y":2545643.4299999997}},{"attributes":{"ID":604049,"DIS_CODE":0,"TOWNNAME":"北區","LI":"大道里","LIN":"22鄰","STREET":"旭日街","SECT":" ","MAREA":" ","LANE":" ","ALLEY":" ","HOUSE_NO":"７８號九樓之２","E_COORD97":169414.63,"N_COORD97":2545643.4300000002,"ADDRESS":"旭日街７８號九樓之２","OBJECTID":604022},"geometry":{"x":169414.63000000082,"y":2545643.4299999997}},{"attributes":{"ID":604050,"DIS_CODE":0,"TOWNNAME":"北區","LI":"大道里","LIN":"22鄰","STREET":"旭日街","SECT":" ","MAREA":" ","LANE":" ","ALLEY":" ","HOUSE_NO":"７８號十樓之１","E_COORD97":169414.63,"N_COORD97":2545643.4300000002,"ADDRESS":"旭日街７８號十樓之１","OBJECTID":604023},"geometry":{"x":169414.63000000082,"y":2545643.4299999997}},{"attributes":{"ID":604051,"DIS_CODE":0,"TOWNNAME":"北區","LI":"大道里","LIN":"22鄰","STREET":"旭日街","SECT":" ","MAREA":" ","LANE":" ","ALLEY":" ","HOUSE_NO":"７８號十樓之２","E_COORD97":169414.63,"N_COORD97":2545643.4300000002,"ADDRESS":"旭日街７８號十樓之２","OBJECTID":604024},"geometry":{"x":169414.63000000082,"y":2545643.4299999997}},{"attributes":{"ID":604052,"DIS_CODE":0,"TOWNNAME":"南區","LI":"郡南里","LIN":"22鄰","STREET":"永興二街","SECT":" ","MAREA":" ","LANE":" ","ALLEY":" ","HOUSE_NO":"２３號五樓","E_COORD97":167243.92000000001,"N_COORD97":2540643.73,"ADDRESS":"永興二街２３號五樓","OBJECTID":604025},"geometry":{"x":167243.91999999993,"y":2540643.7300000023}},{"attributes":{"ID":604053,"DIS_CODE":0,"TOWNNAME":"安平區","LI":"國平里","LIN":"22鄰","STREET":"建平七街","SECT":" ","MAREA":" ","LANE":" ","ALLEY":" ","HOUSE_NO":"７２６號三樓","E_COORD97":164793.42000000001,"N_COORD97":2543439.8500000001,"ADDRESS":"建平七街７２６號三樓","OBJECTID":604026},"geometry":{"x":164793.42000000086,"y":2543439.8500000015}},{"attributes":{"ID":604054,"DIS_CODE":0,"TOWNNAME":"安平區","LI":"國平里","LIN":"22鄰","STREET":"建平七街","SECT":" ","MAREA":" ","LANE":" ","ALLEY":" ","HOUSE_NO":"７２６號五樓","E_COORD97":164793.42000000001,"N_COORD97":2543439.8500000001,"ADDRESS":"建平七街７２６號五樓","OBJECTID":604027},"geometry":{"x":164793.42000000086,"y":2543439.8500000015}},{"attributes":{"ID":604055,"DIS_CODE":0,"TOWNNAME":"歸仁區","LI":"文化里","LIN":"22鄰","STREET":"大德路","SECT":" ","MAREA":" ","LANE":" ","ALLEY":" ","HOUSE_NO":"２４１號九樓之２","E_COORD97":177147.85000000001,"N_COORD97":2541520.4700000002,"ADDRESS":"大德路２４１號九樓之２","OBJECTID":604028},"geometry":{"x":177147.85000000056,"y":2541520.4700000025}},{"attributes":{"ID":604056,"DIS_CODE":0,"TOWNNAME":"歸仁區","LI":"文化里","LIN":"22鄰","STREET":"大德路","SECT":" ","MAREA":" ","LANE":" ","ALLEY":" ","HOUSE_NO":"２４１號十一樓之５","E_COORD97":177148.10999999999,"N_COORD97":2541520.4700000002,"ADDRESS":"大德路２４１號十一樓之５","OBJECTID":604029},"geometry":{"x":177148.11000000034,"y":2541520.4700000025}},{"attributes":{"ID":604057,"DIS_CODE":0,"TOWNNAME":"歸仁區","LI":"文化里","LIN":"22鄰","STREET":"大德路","SECT":" ","MAREA":" ","LANE":" ","ALLEY":" ","HOUSE_NO":"２４１號六樓之３","E_COORD97":177147.85000000001,"N_COORD97":2541520.4700000002,"ADDRESS":"大德路２４１號六樓之３","OBJECTID":604030},"geometry":{"x":177147.85000000056,"y":2541520.4700000025}},{"attributes":{"ID":604058,"DIS_CODE":0,"TOWNNAME":"永康區","LI":"甲頂里","LIN":"22鄰","STREET":"中正南路","SECT":" ","MAREA":" ","LANE":" ","ALLEY":" ","HOUSE_NO":"３０號十三樓之２","E_COORD97":169670.72,"N_COORD97":2546655.7999999998,"ADDRESS":"中正南路３０號十三樓之２","OBJECTID":604031},"geometry":{"x":169670.71999999974,"y":2546655.8000000007}},{"attributes":{"ID":604059,"DIS_CODE":0,"TOWNNAME":"永康區","LI":"甲頂里","LIN":"22鄰","STREET":"中正南路","SECT":" ","MAREA":" ","LANE":" ","ALLEY":" ","HOUSE_NO":"３０號十六樓之２","E_COORD97":169670.72,"N_COORD97":2546655.7999999998,"ADDRESS":"中正南路３０號十六樓之２","OBJECTID":604032},"geometry":{"x":169670.71999999974,"y":2546655.8000000007}},{"attributes":{"ID":604060,"DIS_CODE":0,"TOWNNAME":"永康區","LI":"甲頂里","LIN":"22鄰","STREET":"中正南路","SECT":" ","MAREA":" ","LANE":" ","ALLEY":" ","HOUSE_NO":"３０號十二樓之３","E_COORD97":169670.69,"N_COORD97":2546655.7999999998,"ADDRESS":"中正南路３０號十二樓之３","OBJECTID":604033},"geometry":{"x":169670.69000000134,"y":2546655.8000000007}},{"attributes":{"ID":604061,"DIS_CODE":0,"TOWNNAME":"永康區","LI":"甲頂里","LIN":"22鄰","STREET":"中正南路","SECT":" ","MAREA":" ","LANE":" ","ALLEY":" ","HOUSE_NO":"３０號十六樓之３","E_COORD97":169670.69,"N_COORD97":2546655.7999999998,"ADDRESS":"中正南路３０號十六樓之３","OBJECTID":604034},"geometry":{"x":169670.69000000134,"y":2546655.8000000007}},{"attributes":{"ID":604062,"DIS_CODE":0,"TOWNNAME":"永康區","LI":"甲頂里","LIN":"22鄰","STREET":"中正南路","SECT":" ","MAREA":" ","LANE":" ","ALLEY":" ","HOUSE_NO":"３０號十六樓之５","E_COORD97":169670.73999999999,"N_COORD97":2546655.7999999998,"ADDRESS":"中正南路３０號十六樓之５","OBJECTID":604035},"geometry":{"x":169670.74000000022,"y":2546655.8000000007}},{"attributes":{"ID":604063,"DIS_CODE":0,"TOWNNAME":"永康區","LI":"甲頂里","LIN":"22鄰","STREET":"中正南路","SECT":" ","MAREA":" ","LANE":" ","ALLEY":" ","HOUSE_NO":"３０號三樓之２","E_COORD97":169669.47,"N_COORD97":2546655.7999999998,"ADDRESS":"中正南路３０號三樓之２","OBJECTID":604036},"geometry":{"x":169669.4700000016,"y":2546655.8000000007}},{"attributes":{"ID":604064,"DIS_CODE":0,"TOWNNAME":"永康區","LI":"甲頂里","LIN":"22鄰","STREET":"中正南路","SECT":" ","MAREA":" ","LANE":" ","ALLEY":" ","HOUSE_NO":"３０號七樓之２","E_COORD97":169669.47,"N_COORD97":2546655.7999999998,"ADDRESS":"中正南路３０號七樓之２","OBJECTID":604037},"geometry":{"x":169669.4700000016,"y":2546655.8000000007}},{"attributes":{"ID":604065,"DIS_CODE":0,"TOWNNAME":"永康區","LI":"甲頂里","LIN":"22鄰","STREET":"中正南路","SECT":" ","MAREA":" ","LANE":" ","ALLEY":" ","HOUSE_NO":"３０號十樓之５","E_COORD97":169669.48999999999,"N_COORD97":2546655.7999999998,"ADDRESS":"中正南路３０號十樓之５","OBJECTID":604038},"geometry":{"x":169669.49000000022,"y":2546655.8000000007}},{"attributes":{"ID":604066,"DIS_CODE":0,"TOWNNAME":"永康區","LI":"甲頂里","LIN":"22鄰","STREET":"中正南路","SECT":" ","MAREA":" ","LANE":" ","ALLEY":" ","HOUSE_NO":"３０號六樓之３","E_COORD97":169669.44,"N_COORD97":2546655.7999999998,"ADDRESS":"中正南路３０號六樓之３","OBJECTID":604039},"geometry":{"x":169669.44000000134,"y":2546655.8000000007}},{"attributes":{"ID":604067,"DIS_CODE":0,"TOWNNAME":"永康區","LI":"甲頂里","LIN":"22鄰","STREET":"中正南路","SECT":" ","MAREA":" ","LANE":" ","ALLEY":" ","HOUSE_NO":"３０號十五樓之５","E_COORD97":169670.73999999999,"N_COORD97":2546655.7999999998,"ADDRESS":"中正南路３０號十五樓之５","OBJECTID":604040},"geometry":{"x":169670.74000000022,"y":2546655.8000000007}},{"attributes":{"ID":604068,"DIS_CODE":0,"TOWNNAME":"永康區","LI":"甲頂里","LIN":"22鄰","STREET":"中正南路","SECT":" ","MAREA":" ","LANE":" ","ALLEY":" ","HOUSE_NO":"３０號十三樓之３","E_COORD97":169670.69,"N_COORD97":2546655.7999999998,"ADDRESS":"中正南路３０號十三樓之３","OBJECTID":604041},"geometry":{"x":169670.69000000134,"y":2546655.8000000007}},{"attributes":{"ID":604069,"DIS_CODE":0,"TOWNNAME":"永康區","LI":"甲頂里","LIN":"22鄰","STREET":"中正南路","SECT":" ","MAREA":" ","LANE":" ","ALLEY":" ","HOUSE_NO":"３０號十五樓之３","E_COORD97":169670.69,"N_COORD97":2546655.7999999998,"ADDRESS":"中正南路３０號十五樓之３","OBJECTID":604042},"geometry":{"x":169670.69000000134,"y":2546655.8000000007}},{"attributes":{"ID":604070,"DIS_CODE":0,"TOWNNAME":"永康區","LI":"甲頂里","LIN":"22鄰","STREET":"中正南路","SECT":" ","MAREA":" ","LANE":" ","ALLEY":" ","HOUSE_NO":"３０號七樓之３","E_COORD97":169669.44,"N_COORD97":2546655.7999999998,"ADDRESS":"中正南路３０號七樓之３","OBJECTID":604043},"geometry":{"x":169669.44000000134,"y":2546655.8000000007}},{"attributes":{"ID":604071,"DIS_CODE":0,"TOWNNAME":"永康區","LI":"甲頂里","LIN":"22鄰","STREET":"中正南路","SECT":" ","MAREA":" ","LANE":" ","ALLEY":" ","HOUSE_NO":"３０號七樓之５","E_COORD97":169669.48999999999,"N_COORD97":2546655.7999999998,"ADDRESS":"中正南路３０號七樓之５","OBJECTID":604044},"geometry":{"x":169669.49000000022,"y":2546655.8000000007}},{"attributes":{"ID":604072,"DIS_CODE":0,"TOWNNAME":"永康區","LI":"甲頂里","LIN":"22鄰","STREET":"中正南路","SECT":" ","MAREA":" ","LANE":" ","ALLEY":" ","HOUSE_NO":"３０號十四樓之２","E_COORD97":169670.72,"N_COORD97":2546655.7999999998,"ADDRESS":"中正南路３０號十四樓之２","OBJECTID":604045},"geometry":{"x":169670.71999999974,"y":2546655.8000000007}},{"attributes":{"ID":604073,"DIS_CODE":0,"TOWNNAME":"永康區","LI":"甲頂里","LIN":"22鄰","STREET":"中正南路","SECT":" ","MAREA":" ","LANE":" ","ALLEY":" ","HOUSE_NO":"３０號十六樓之１","E_COORD97":169670.59,"N_COORD97":2546655.7999999998,"ADDRESS":"中正南路３０號十六樓之１","OBJECTID":604046},"geometry":{"x":169670.59000000078,"y":2546655.8000000007}},{"attributes":{"ID":604074,"DIS_CODE":0,"TOWNNAME":"永康區","LI":"甲頂里","LIN":"22鄰","STREET":"中正南路","SECT":" ","MAREA":" ","LANE":" ","ALLEY":" ","HOUSE_NO":"３０號四樓之５","E_COORD97":169669.48999999999,"N_COORD97":2546655.7999999998,"ADDRESS":"中正南路３０號四樓之５","OBJECTID":604047},"geometry":{"x":169669.49000000022,"y":2546655.8000000007}},{"attributes":{"ID":604075,"DIS_CODE":0,"TOWNNAME":"永康區","LI":"甲頂里","LIN":"22鄰","STREET":"中正南路","SECT":" ","MAREA":" ","LANE":" ","ALLEY":" ","HOUSE_NO":"３０號五樓之５","E_COORD97":169669.48999999999,"N_COORD97":2546655.7999999998,"ADDRESS":"中正南路３０號五樓之５","OBJECTID":604048},"geometry":{"x":169669.49000000022,"y":2546655.8000000007}},{"attributes":{"ID":604076,"DIS_CODE":0,"TOWNNAME":"永康區","LI":"甲頂里","LIN":"22鄰","STREET":"中正南路","SECT":" ","MAREA":" ","LANE":" ","ALLEY":" ","HOUSE_NO":"３０號十八樓","E_COORD97":169668.45000000001,"N_COORD97":2546655.7599999998,"ADDRESS":"中正南路３０號十八樓","OBJECTID":604049},"geometry":{"x":169668.45000000112,"y":2546655.7599999998}},{"attributes":{"ID":604077,"DIS_CODE":0,"TOWNNAME":"永康區","LI":"甲頂里","LIN":"22鄰","STREET":"中正南路","SECT":" ","MAREA":" ","LANE":" ","ALLEY":" ","HOUSE_NO":"３０號六樓之１","E_COORD97":169669.34,"N_COORD97":2546655.7999999998,"ADDRESS":"中正南路３０號六樓之１","OBJECTID":604050},"geometry":{"x":169669.34000000078,"y":2546655.8000000007}},{"attributes":{"ID":604078,"DIS_CODE":0,"TOWNNAME":"永康區","LI":"甲頂里","LIN":"22鄰","STREET":"中正南路","SECT":" ","MAREA":" ","LANE":" ","ALLEY":" ","HOUSE_NO":"３０號十一樓之５","E_COORD97":169670.73999999999,"N_COORD97":2546655.7999999998,"ADDRESS":"中正南路３０號十一樓之５","OBJECTID":604051},"geometry":{"x":169670.74000000022,"y":2546655.8000000007}},{"attributes":{"ID":604079,"DIS_CODE":0,"TOWNNAME":"永康區","LI":"甲頂里","LIN":"22鄰","STREET":"中正南路","SECT":" ","MAREA":" ","LANE":" ","ALLEY":" ","HOUSE_NO":"３０號十九樓","E_COORD97":169668.45000000001,"N_COORD97":2546655.7599999998,"ADDRESS":"中正南路３０號十九樓","OBJECTID":604052},"geometry":{"x":169668.45000000112,"y":2546655.7599999998}},{"attributes":{"ID":604080,"DIS_CODE":0,"TOWNNAME":"永康區","LI":"甲頂里","LIN":"22鄰","STREET":"中正南路","SECT":" ","MAREA":" ","LANE":" ","ALLEY":" ","HOUSE_NO":"３０號十樓之２","E_COORD97":169669.47,"N_COORD97":2546655.7999999998,"ADDRESS":"中正南路３０號十樓之２","OBJECTID":604053},"geometry":{"x":169669.4700000016,"y":2546655.8000000007}},{"attributes":{"ID":604081,"DIS_CODE":0,"TOWNNAME":"永康區","LI":"甲頂里","LIN":"22鄰","STREET":"中正南路","SECT":" ","MAREA":" ","LANE":" ","ALLEY":" ","HOUSE_NO":"３０號六樓之５","E_COORD97":169669.48999999999,"N_COORD97":2546655.7999999998,"ADDRESS":"中正南路３０號六樓之５","OBJECTID":604054},"geometry":{"x":169669.49000000022,"y":2546655.8000000007}},{"attributes":{"ID":604082,"DIS_CODE":0,"TOWNNAME":"永康區","LI":"甲頂里","LIN":"22鄰","STREET":"中正南路","SECT":" ","MAREA":" ","LANE":" ","ALLEY":" ","HOUSE_NO":"３０號六樓之２","E_COORD97":169669.47,"N_COORD97":2546655.7999999998,"ADDRESS":"中正南路３０號六樓之２","OBJECTID":604055},"geometry":{"x":169669.4700000016,"y":2546655.8000000007}},{"attributes":{"ID":604083,"DIS_CODE":0,"TOWNNAME":"永康區","LI":"甲頂里","LIN":"22鄰","STREET":"中正南路","SECT":" ","MAREA":" ","LANE":" ","ALLEY":" ","HOUSE_NO":"３０號七樓之１","E_COORD97":169669.34,"N_COORD97":2546655.7999999998,"ADDRESS":"中正南路３０號七樓之１","OBJECTID":604056},"geometry":{"x":169669.34000000078,"y":2546655.8000000007}},{"attributes":{"ID":604084,"DIS_CODE":0,"TOWNNAME":"永康區","LI":"甲頂里","LIN":"22鄰","STREET":"中正南路","SECT":" ","MAREA":" ","LANE":" ","ALLEY":" ","HOUSE_NO":"３０號十二樓之５","E_COORD97":169670.73999999999,"N_COORD97":2546655.7999999998,"ADDRESS":"中正南路３０號十二樓之５","OBJECTID":604057},"geometry":{"x":169670.74000000022,"y":2546655.8000000007}},{"attributes":{"ID":604085,"DIS_CODE":0,"TOWNNAME":"永康區","LI":"甲頂里","LIN":"22鄰","STREET":"中正南路","SECT":" ","MAREA":" ","LANE":" ","ALLEY":" ","HOUSE_NO":"３０號八樓之２","E_COORD97":169669.47,"N_COORD97":2546655.7999999998,"ADDRESS":"中正南路３０號八樓之２","OBJECTID":604058},"geometry":{"x":169669.4700000016,"y":2546655.8000000007}},{"attributes":{"ID":604086,"DIS_CODE":0,"TOWNNAME":"東區","LI":"富強里","LIN":"22鄰","STREET":"富強二街","SECT":" ","MAREA":" ","LANE":" ","ALLEY":" ","HOUSE_NO":"３號五樓","E_COORD97":170987.35999999999,"N_COORD97":2542510.77,"ADDRESS":"富強二街３號五樓","OBJECTID":604059},"geometry":{"x":170987.36000000034,"y":2542510.7700000014}},{"attributes":{"ID":604087,"DIS_CODE":0,"TOWNNAME":"東區","LI":"富強里","LIN":"22鄰","STREET":"富強二街","SECT":" ","MAREA":" ","LANE":" ","ALLEY":" ","HOUSE_NO":"７號五樓","E_COORD97":170999.60000000001,"N_COORD97":2542521.6499999999,"ADDRESS":"富強二街７號五樓","OBJECTID":604060},"geometry":{"x":170999.60000000056,"y":2542521.6500000041}},{"attributes":{"ID":604088,"DIS_CODE":0,"TOWNNAME":"仁德區","LI":"仁德里","LIN":"22鄰","STREET":"文善街","SECT":" ","MAREA":" ","LANE":" ","ALLEY":" ","HOUSE_NO":"１２６號四樓之２","E_COORD97":172350.07999999999,"N_COORD97":2541468.8300000001,"ADDRESS":"文善街１２６號四樓之２","OBJECTID":604061},"geometry":{"x":172350.08000000007,"y":2541468.8300000001}},{"attributes":{"ID":604089,"DIS_CODE":0,"TOWNNAME":"東區","LI":"富強里","LIN":"22鄰","STREET":"富強二街","SECT":" ","MAREA":" ","LANE":" ","ALLEY":" ","HOUSE_NO":"７號六樓","E_COORD97":170999.60000000001,"N_COORD97":2542521.6499999999,"ADDRESS":"富強二街７號六樓","OBJECTID":604062},"geometry":{"x":170999.60000000056,"y":2542521.6500000041}},{"attributes":{"ID":604090,"DIS_CODE":0,"TOWNNAME":"永康區","LI":"甲頂里","LIN":"22鄰","STREET":"中正南路","SECT":" ","MAREA":" ","LANE":" ","ALLEY":" ","HOUSE_NO":"３０號十三樓之１","E_COORD97":169670.59,"N_COORD97":2546655.7999999998,"ADDRESS":"中正南路３０號十三樓之１","OBJECTID":604063},"geometry":{"x":169670.59000000078,"y":2546655.8000000007}},{"attributes":{"ID":604091,"DIS_CODE":0,"TOWNNAME":"永康區","LI":"甲頂里","LIN":"22鄰","STREET":"中正南路","SECT":" ","MAREA":" ","LANE":" ","ALLEY":" ","HOUSE_NO":"３０號四樓之２","E_COORD97":169669.47,"N_COORD97":2546655.7999999998,"ADDRESS":"中正南路３０號四樓之２","OBJECTID":604064},"geometry":{"x":169669.4700000016,"y":2546655.8000000007}},{"attributes":{"ID":604092,"DIS_CODE":0,"TOWNNAME":"永康區","LI":"甲頂里","LIN":"22鄰","STREET":"中正南路","SECT":" ","MAREA":" ","LANE":" ","ALLEY":" ","HOUSE_NO":"３０號九樓之３","E_COORD97":169669.44,"N_COORD97":2546655.7999999998,"ADDRESS":"中正南路３０號九樓之３","OBJECTID":604065},"geometry":{"x":169669.44000000134,"y":2546655.8000000007}},{"attributes":{"ID":604093,"DIS_CODE":0,"TOWNNAME":"永康區","LI":"甲頂里","LIN":"22鄰","STREET":"中正南路","SECT":" ","MAREA":" ","LANE":" ","ALLEY":" ","HOUSE_NO":"３０號八樓之５","E_COORD97":169669.48999999999,"N_COORD97":2546655.7999999998,"ADDRESS":"中正南路３０號八樓之５","OBJECTID":604066},"geometry":{"x":169669.49000000022,"y":2546655.8000000007}},{"attributes":{"ID":604094,"DIS_CODE":0,"TOWNNAME":"永康區","LI":"甲頂里","LIN":"22鄰","STREET":"中正南路","SECT":" ","MAREA":" ","LANE":" ","ALLEY":" ","HOUSE_NO":"３０號二樓","E_COORD97":169667.20000000001,"N_COORD97":2546655.7599999998,"ADDRESS":"中正南路３０號二樓","OBJECTID":604067},"geometry":{"x":169667.20000000112,"y":2546655.7599999998}},{"attributes":{"ID":604095,"DIS_CODE":0,"TOWNNAME":"永康區","LI":"甲頂里","LIN":"22鄰","STREET":"中正南路","SECT":" ","MAREA":" ","LANE":" ","ALLEY":" ","HOUSE_NO":"３０號三樓之５","E_COORD97":169669.48999999999,"N_COORD97":2546655.7999999998,"ADDRESS":"中正南路３０號三樓之５","OBJECTID":604068},"geometry":{"x":169669.49000000022,"y":2546655.8000000007}},{"attributes":{"ID":604096,"DIS_CODE":0,"TOWNNAME":"永康區","LI":"甲頂里","LIN":"22鄰","STREET":"中正南路","SECT":" ","MAREA":" ","LANE":" ","ALLEY":" ","HOUSE_NO":"３０號十七樓","E_COORD97":169668.45000000001,"N_COORD97":2546655.7599999998,"ADDRESS":"中正南路３０號十七樓","OBJECTID":604069},"geometry":{"x":169668.45000000112,"y":2546655.7599999998}},{"attributes":{"ID":604097,"DIS_CODE":0,"TOWNNAME":"東區","LI":"富強里","LIN":"22鄰","STREET":"富強二街","SECT":" ","MAREA":" ","LANE":" ","ALLEY":" ","HOUSE_NO":"７號八樓","E_COORD97":170999.60000000001,"N_COORD97":2542521.6499999999,"ADDRESS":"富強二街７號八樓","OBJECTID":604070},"geometry":{"x":170999.60000000056,"y":2542521.6500000041}},{"attributes":{"ID":604098,"DIS_CODE":0,"TOWNNAME":"永康區","LI":"甲頂里","LIN":"22鄰","STREET":"中正南路","SECT":" ","MAREA":" ","LANE":" ","ALLEY":" ","HOUSE_NO":"３０號二十一樓","E_COORD97":169669.70000000001,"N_COORD97":2546655.7599999998,"ADDRESS":"中正南路３０號二十一樓","OBJECTID":604071},"geometry":{"x":169669.70000000019,"y":2546655.7599999998}},{"attributes":{"ID":604099,"DIS_CODE":0,"TOWNNAME":"永康區","LI":"甲頂里","LIN":"22鄰","STREET":"中正南路","SECT":" ","MAREA":" ","LANE":" ","ALLEY":" ","HOUSE_NO":"３０號四樓之１","E_COORD97":169669.34,"N_COORD97":2546655.7999999998,"ADDRESS":"中正南路３０號四樓之１","OBJECTID":604072},"geometry":{"x":169669.34000000078,"y":2546655.8000000007}},{"attributes":{"ID":604100,"DIS_CODE":0,"TOWNNAME":"東區","LI":"富強里","LIN":"22鄰","STREET":"富強二街","SECT":" ","MAREA":" ","LANE":" ","ALLEY":" ","HOUSE_NO":"７號九樓","E_COORD97":170999.60000000001,"N_COORD97":2542521.6499999999,"ADDRESS":"富強二街７號九樓","OBJECTID":604073},"geometry":{"x":170999.60000000056,"y":2542521.6500000041}},{"attributes":{"ID":604101,"DIS_CODE":0,"TOWNNAME":"東區","LI":"富強里","LIN":"22鄰","STREET":"富強二街","SECT":" ","MAREA":" ","LANE":" ","ALLEY":" ","HOUSE_NO":"９號二樓","E_COORD97":171004.57999999999,"N_COORD97":2542527.9900000002,"ADDRESS":"富強二街９號二樓","OBJECTID":604074},"geometry":{"x":171004.58000000007,"y":2542527.9900000002}},{"attributes":{"ID":604102,"DIS_CODE":0,"TOWNNAME":"東區","LI":"富強里","LIN":"22鄰","STREET":"富強二街","SECT":" ","MAREA":" ","LANE":" ","ALLEY":" ","HOUSE_NO":"９號三樓","E_COORD97":171004.57999999999,"N_COORD97":2542527.9900000002,"ADDRESS":"富強二街９號三樓","OBJECTID":604075},"geometry":{"x":171004.58000000007,"y":2542527.9900000002}},{"attributes":{"ID":604103,"DIS_CODE":0,"TOWNNAME":"東區","LI":"富強里","LIN":"22鄰","STREET":"富強二街","SECT":" ","MAREA":" ","LANE":" ","ALLEY":" ","HOUSE_NO":"９號四樓","E_COORD97":171004.57999999999,"N_COORD97":2542527.9900000002,"ADDRESS":"富強二街９號四樓","OBJECTID":604076},"geometry":{"x":171004.58000000007,"y":2542527.9900000002}},{"attributes":{"ID":604104,"DIS_CODE":0,"TOWNNAME":"南區","LI":"郡南里","LIN":"22鄰","STREET":"永興二街","SECT":" ","MAREA":" ","LANE":" ","ALLEY":" ","HOUSE_NO":"２１號七樓之１","E_COORD97":167250.67999999999,"N_COORD97":2540643.5299999998,"ADDRESS":"永興二街２１號七樓之１","OBJECTID":604077},"geometry":{"x":167250.68000000156,"y":2540643.5300000012}},{"attributes":{"ID":604105,"DIS_CODE":0,"TOWNNAME":"南區","LI":"郡南里","LIN":"22鄰","STREET":"永興二街","SECT":" ","MAREA":" ","LANE":" ","ALLEY":" ","HOUSE_NO":"２１號七樓之２","E_COORD97":167250.67999999999,"N_COORD97":2540643.5299999998,"ADDRESS":"永興二街２１號七樓之２","OBJECTID":604078},"geometry":{"x":167250.68000000156,"y":2540643.5300000012}},{"attributes":{"ID":604106,"DIS_CODE":0,"TOWNNAME":"南區","LI":"郡南里","LIN":"22鄰","STREET":"永興二街","SECT":" ","MAREA":" ","LANE":" ","ALLEY":" ","HOUSE_NO":"２１號八樓之１","E_COORD97":167250.67999999999,"N_COORD97":2540643.5299999998,"ADDRESS":"永興二街２１號八樓之１","OBJECTID":604079},"geometry":{"x":167250.68000000156,"y":2540643.5300000012}},{"attributes":{"ID":604107,"DIS_CODE":0,"TOWNNAME":"南區","LI":"郡南里","LIN":"22鄰","STREET":"永興二街","SECT":" ","MAREA":" ","LANE":" ","ALLEY":" ","HOUSE_NO":"２１號三樓之１","E_COORD97":167250.67999999999,"N_COORD97":2540643.5299999998,"ADDRESS":"永興二街２１號三樓之１","OBJECTID":604080},"geometry":{"x":167250.68000000156,"y":2540643.5300000012}},{"attributes":{"ID":604108,"DIS_CODE":0,"TOWNNAME":"南區","LI":"郡南里","LIN":"22鄰","STREET":"永興二街","SECT":" ","MAREA":" ","LANE":" ","ALLEY":" ","HOUSE_NO":"２１號三樓之２","E_COORD97":167250.67999999999,"N_COORD97":2540643.5299999998,"ADDRESS":"永興二街２１號三樓之２","OBJECTID":604081},"geometry":{"x":167250.68000000156,"y":2540643.5300000012}},{"attributes":{"ID":604109,"DIS_CODE":0,"TOWNNAME":"南區","LI":"郡南里","LIN":"22鄰","STREET":"永興二街","SECT":" ","MAREA":" ","LANE":" ","ALLEY":" ","HOUSE_NO":"２１號六樓之１","E_COORD97":167250.67999999999,"N_COORD97":2540643.5299999998,"ADDRESS":"永興二街２１號六樓之１","OBJECTID":604082},"geometry":{"x":167250.68000000156,"y":2540643.5300000012}},{"attributes":{"ID":604110,"DIS_CODE":0,"TOWNNAME":"南區","LI":"郡南里","LIN":"22鄰","STREET":"永興二街","SECT":" ","MAREA":" ","LANE":" ","ALLEY":" ","HOUSE_NO":"２１號四樓之１","E_COORD97":167250.67999999999,"N_COORD97":2540643.5299999998,"ADDRESS":"永興二街２１號四樓之１","OBJECTID":604083},"geometry":{"x":167250.68000000156,"y":2540643.5300000012}},{"attributes":{"ID":604111,"DIS_CODE":0,"TOWNNAME":"南區","LI":"郡南里","LIN":"22鄰","STREET":"永興二街","SECT":" ","MAREA":" ","LANE":" ","ALLEY":" ","HOUSE_NO":"２１號四樓之２","E_COORD97":167250.67999999999,"N_COORD97":2540643.5299999998,"ADDRESS":"永興二街２１號四樓之２","OBJECTID":604084},"geometry":{"x":167250.68000000156,"y":2540643.5300000012}},{"attributes":{"ID":604112,"DIS_CODE":0,"TOWNNAME":"南區","LI":"郡南里","LIN":"22鄰","STREET":"永興二街","SECT":" ","MAREA":" ","LANE":" ","ALLEY":" ","HOUSE_NO":"２１號二樓之２","E_COORD97":167250.67999999999,"N_COORD97":2540643.5299999998,"ADDRESS":"永興二街２１號二樓之２","OBJECTID":604085},"geometry":{"x":167250.68000000156,"y":2540643.5300000012}},{"attributes":{"ID":604113,"DIS_CODE":0,"TOWNNAME":"南區","LI":"郡南里","LIN":"22鄰","STREET":"永興二街","SECT":" ","MAREA":" ","LANE":" ","ALLEY":" ","HOUSE_NO":"２１號五樓之２","E_COORD97":167250.67999999999,"N_COORD97":2540643.5299999998,"ADDRESS":"永興二街２１號五樓之２","OBJECTID":604086},"geometry":{"x":167250.68000000156,"y":2540643.5300000012}},{"attributes":{"ID":604114,"DIS_CODE":0,"TOWNNAME":"南區","LI":"郡南里","LIN":"22鄰","STREET":"永興二街","SECT":" ","MAREA":" ","LANE":" ","ALLEY":" ","HOUSE_NO":"２１號六樓之２","E_COORD97":167250.67999999999,"N_COORD97":2540643.5299999998,"ADDRESS":"永興二街２１號六樓之２","OBJECTID":604087},"geometry":{"x":167250.68000000156,"y":2540643.5300000012}},{"attributes":{"ID":604115,"DIS_CODE":0,"TOWNNAME":"東區","LI":"崇成里","LIN":"22鄰","STREET":"崇德路","SECT":" ","MAREA":" ","LANE":" ","ALLEY":" ","HOUSE_NO":"６７２號七樓之６","E_COORD97":170769.31,"N_COORD97":2540890.3900000001,"ADDRESS":"崇德路６７２號七樓之６","OBJECTID":604088},"geometry":{"x":170769.31000000052,"y":2540890.3900000025}},{"attributes":{"ID":604116,"DIS_CODE":0,"TOWNNAME":"東區","LI":"崇成里","LIN":"22鄰","STREET":"崇德路","SECT":" ","MAREA":" ","LANE":" ","ALLEY":" ","HOUSE_NO":"６７２號三樓之６","E_COORD97":170769.31,"N_COORD97":2540890.3900000001,"ADDRESS":"崇德路６７２號三樓之６","OBJECTID":604089},"geometry":{"x":170769.31000000052,"y":2540890.3900000025}},{"attributes":{"ID":604117,"DIS_CODE":0,"TOWNNAME":"南區","LI":"郡南里","LIN":"22鄰","STREET":"德興路","SECT":" ","MAREA":" ","LANE":" ","ALLEY":" ","HOUSE_NO":"７９號五樓之２","E_COORD97":167220.88,"N_COORD97":2540656.0600000001,"ADDRESS":"德興路７９號五樓之２","OBJECTID":604090},"geometry":{"x":167220.88000000082,"y":2540656.0600000005}},{"attributes":{"ID":604118,"DIS_CODE":0,"TOWNNAME":"永康區","LI":"尚頂里","LIN":"22鄰","STREET":"大武街","SECT":" ","MAREA":" ","LANE":" ","ALLEY":" ","HOUSE_NO":"６２號四樓之１","E_COORD97":170390.16,"N_COORD97":2546803.54,"ADDRESS":"大武街６２號四樓之１","OBJECTID":604091},"geometry":{"x":170390.16000000015,"y":2546803.540000001}},{"attributes":{"ID":604119,"DIS_CODE":0,"TOWNNAME":"永康區","LI":"尚頂里","LIN":"22鄰","STREET":"大武街","SECT":" ","MAREA":" ","LANE":" ","ALLEY":" ","HOUSE_NO":"６２號七樓之２","E_COORD97":170390.29999999999,"N_COORD97":2546803.54,"ADDRESS":"大武街６２號七樓之２","OBJECTID":604092},"geometry":{"x":170390.29999999981,"y":2546803.540000001}},{"attributes":{"ID":604120,"DIS_CODE":0,"TOWNNAME":"永康區","LI":"尚頂里","LIN":"22鄰","STREET":"大武街","SECT":" ","MAREA":" ","LANE":" ","ALLEY":" ","HOUSE_NO":"６２號四樓之２","E_COORD97":170390.29999999999,"N_COORD97":2546803.54,"ADDRESS":"大武街６２號四樓之２","OBJECTID":604093},"geometry":{"x":170390.29999999981,"y":2546803.540000001}},{"attributes":{"ID":604121,"DIS_CODE":0,"TOWNNAME":"永康區","LI":"尚頂里","LIN":"22鄰","STREET":"大武街","SECT":" ","MAREA":" ","LANE":" ","ALLEY":" ","HOUSE_NO":"６２號六樓之２","E_COORD97":170390.29999999999,"N_COORD97":2546803.54,"ADDRESS":"大武街６２號六樓之２","OBJECTID":604094},"geometry":{"x":170390.29999999981,"y":2546803.540000001}},{"attributes":{"ID":604122,"DIS_CODE":0,"TOWNNAME":"東區","LI":"富強里","LIN":"22鄰","STREET":"富強二街","SECT":" ","MAREA":" ","LANE":" ","ALLEY":" ","HOUSE_NO":"５號五樓","E_COORD97":170993.70000000001,"N_COORD97":2542516.21,"ADDRESS":"富強二街５號五樓","OBJECTID":604095},"geometry":{"x":170993.70000000019,"y":2542516.2100000028}},{"attributes":{"ID":604123,"DIS_CODE":0,"TOWNNAME":"東區","LI":"富強里","LIN":"22鄰","STREET":"富強二街","SECT":" ","MAREA":" ","LANE":" ","ALLEY":" ","HOUSE_NO":"１１號二樓","E_COORD97":171009.10999999999,"N_COORD97":2542535.7000000002,"ADDRESS":"富強二街１１號二樓","OBJECTID":604096},"geometry":{"x":171009.11000000127,"y":2542535.6999999993}},{"attributes":{"ID":604124,"DIS_CODE":0,"TOWNNAME":"東區","LI":"富強里","LIN":"22鄰","STREET":"富強二街","SECT":" ","MAREA":" ","LANE":" ","ALLEY":" ","HOUSE_NO":"１１號四樓","E_COORD97":171009.10999999999,"N_COORD97":2542535.7000000002,"ADDRESS":"富強二街１１號四樓","OBJECTID":604097},"geometry":{"x":171009.11000000127,"y":2542535.6999999993}},{"attributes":{"ID":604125,"DIS_CODE":0,"TOWNNAME":"東區","LI":"富強里","LIN":"22鄰","STREET":"富強二街","SECT":" ","MAREA":" ","LANE":" ","ALLEY":" ","HOUSE_NO":"１１號五樓","E_COORD97":171009.10999999999,"N_COORD97":2542535.7000000002,"ADDRESS":"富強二街１１號五樓","OBJECTID":604098},"geometry":{"x":171009.11000000127,"y":2542535.6999999993}},{"attributes":{"ID":604126,"DIS_CODE":0,"TOWNNAME":"東區","LI":"富強里","LIN":"22鄰","STREET":"富強二街","SECT":" ","MAREA":" ","LANE":" ","ALLEY":" ","HOUSE_NO":"１１號六樓","E_COORD97":171009.10999999999,"N_COORD97":2542535.7000000002,"ADDRESS":"富強二街１１號六樓","OBJECTID":604099},"geometry":{"x":171009.11000000127,"y":2542535.6999999993}},{"attributes":{"ID":604127,"DIS_CODE":0,"TOWNNAME":"東區","LI":"富強里","LIN":"22鄰","STREET":"富強二街","SECT":" ","MAREA":" ","LANE":" ","ALLEY":" ","HOUSE_NO":"７號七樓","E_COORD97":170999.60000000001,"N_COORD97":2542521.6499999999,"ADDRESS":"富強二街７號七樓","OBJECTID":604100},"geometry":{"x":170999.60000000056,"y":2542521.6500000041}},{"attributes":{"ID":604128,"DIS_CODE":0,"TOWNNAME":"東區","LI":"富強里","LIN":"22鄰","STREET":"富強二街","SECT":" ","MAREA":" ","LANE":" ","ALLEY":" ","HOUSE_NO":"１１號七樓","E_COORD97":171009.10999999999,"N_COORD97":2542535.7000000002,"ADDRESS":"富強二街１１號七樓","OBJECTID":604101},"geometry":{"x":171009.11000000127,"y":2542535.6999999993}},{"attributes":{"ID":604129,"DIS_CODE":0,"TOWNNAME":"東區","LI":"富強里","LIN":"22鄰","STREET":"富強二街","SECT":" ","MAREA":" ","LANE":" ","ALLEY":" ","HOUSE_NO":"１１號八樓","E_COORD97":171009.10999999999,"N_COORD97":2542535.7000000002,"ADDRESS":"富強二街１１號八樓","OBJECTID":604102},"geometry":{"x":171009.11000000127,"y":2542535.6999999993}},{"attributes":{"ID":604130,"DIS_CODE":0,"TOWNNAME":"東區","LI":"富強里","LIN":"22鄰","STREET":"富強二街","SECT":" ","MAREA":" ","LANE":" ","ALLEY":" ","HOUSE_NO":"１１號九樓","E_COORD97":171009.10999999999,"N_COORD97":2542535.7000000002,"ADDRESS":"富強二街１１號九樓","OBJECTID":604103},"geometry":{"x":171009.11000000127,"y":2542535.6999999993}},{"attributes":{"ID":604131,"DIS_CODE":0,"TOWNNAME":"東區","LI":"富強里","LIN":"22鄰","STREET":"富強二街","SECT":" ","MAREA":" ","LANE":" ","ALLEY":" ","HOUSE_NO":"１１號十樓","E_COORD97":171009.10999999999,"N_COORD97":2542535.7000000002,"ADDRESS":"富強二街１１號十樓","OBJECTID":604104},"geometry":{"x":171009.11000000127,"y":2542535.6999999993}},{"attributes":{"ID":604132,"DIS_CODE":0,"TOWNNAME":"東區","LI":"富強里","LIN":"22鄰","STREET":"富強二街","SECT":" ","MAREA":" ","LANE":" ","ALLEY":" ","HOUSE_NO":"１１號三樓","E_COORD97":171009.10999999999,"N_COORD97":2542535.7000000002,"ADDRESS":"富強二街１１號三樓","OBJECTID":604105},"geometry":{"x":171009.11000000127,"y":2542535.6999999993}},{"attributes":{"ID":604133,"DIS_CODE":0,"TOWNNAME":"東區","LI":"富強里","LIN":"22鄰","STREET":"富強二街","SECT":" ","MAREA":" ","LANE":" ","ALLEY":" ","HOUSE_NO":"１３號二樓","E_COORD97":171012.28,"N_COORD97":2542538.8700000001,"ADDRESS":"富強二街１３號二樓","OBJECTID":604106},"geometry":{"x":171012.28000000119,"y":2542538.8700000029}},{"attributes":{"ID":604134,"DIS_CODE":0,"TOWNNAME":"東區","LI":"富強里","LIN":"22鄰","STREET":"富強二街","SECT":" ","MAREA":" ","LANE":" ","ALLEY":" ","HOUSE_NO":"１３號三樓","E_COORD97":171012.28,"N_COORD97":2542538.8700000001,"ADDRESS":"富強二街１３號三樓","OBJECTID":604107},"geometry":{"x":171012.28000000119,"y":2542538.8700000029}},{"attributes":{"ID":604135,"DIS_CODE":0,"TOWNNAME":"東區","LI":"富強里","LIN":"22鄰","STREET":"富強二街","SECT":" ","MAREA":" ","LANE":" ","ALLEY":" ","HOUSE_NO":"１３號四樓","E_COORD97":171012.28,"N_COORD97":2542538.8700000001,"ADDRESS":"富強二街１３號四樓","OBJECTID":604108},"geometry":{"x":171012.28000000119,"y":2542538.8700000029}},{"attributes":{"ID":604136,"DIS_CODE":0,"TOWNNAME":"東區","LI":"富強里","LIN":"22鄰","STREET":"富強二街","SECT":" ","MAREA":" ","LANE":" ","ALLEY":" ","HOUSE_NO":"１３號五樓","E_COORD97":171012.28,"N_COORD97":2542538.8700000001,"ADDRESS":"富強二街１３號五樓","OBJECTID":604109},"geometry":{"x":171012.28000000119,"y":2542538.8700000029}},{"attributes":{"ID":604137,"DIS_CODE":0,"TOWNNAME":"東區","LI":"富強里","LIN":"22鄰","STREET":"富強二街","SECT":" ","MAREA":" ","LANE":" ","ALLEY":" ","HOUSE_NO":"１３號六樓","E_COORD97":171012.28,"N_COORD97":2542538.8700000001,"ADDRESS":"富強二街１３號六樓","OBJECTID":604110},"geometry":{"x":171012.28000000119,"y":2542538.8700000029}},{"attributes":{"ID":604138,"DIS_CODE":0,"TOWNNAME":"東區","LI":"富強里","LIN":"22鄰","STREET":"富強二街","SECT":" ","MAREA":" ","LANE":" ","ALLEY":" ","HOUSE_NO":"１３號七樓","E_COORD97":171012.28,"N_COORD97":2542538.8700000001,"ADDRESS":"富強二街１３號七樓","OBJECTID":604111},"geometry":{"x":171012.28000000119,"y":2542538.8700000029}},{"attributes":{"ID":604139,"DIS_CODE":0,"TOWNNAME":"東區","LI":"富強里","LIN":"22鄰","STREET":"富強二街","SECT":" ","MAREA":" ","LANE":" ","ALLEY":" ","HOUSE_NO":"１３號八樓","E_COORD97":171012.28,"N_COORD97":2542538.8700000001,"ADDRESS":"富強二街１３號八樓","OBJECTID":604112},"geometry":{"x":171012.28000000119,"y":2542538.8700000029}},{"attributes":{"ID":604140,"DIS_CODE":0,"TOWNNAME":"東區","LI":"富強里","LIN":"22鄰","STREET":"富強二街","SECT":" ","MAREA":" ","LANE":" ","ALLEY":" ","HOUSE_NO":"１３號九樓","E_COORD97":171012.28,"N_COORD97":2542538.8700000001,"ADDRESS":"富強二街１３號九樓","OBJECTID":604113},"geometry":{"x":171012.28000000119,"y":2542538.8700000029}},{"attributes":{"ID":604141,"DIS_CODE":0,"TOWNNAME":"東區","LI":"富強里","LIN":"22鄰","STREET":"富強二街","SECT":" ","MAREA":" ","LANE":" ","ALLEY":" ","HOUSE_NO":"１３號十樓","E_COORD97":171012.28,"N_COORD97":2542538.8700000001,"ADDRESS":"富強二街１３號十樓","OBJECTID":604114},"geometry":{"x":171012.28000000119,"y":2542538.8700000029}},{"attributes":{"ID":604142,"DIS_CODE":0,"TOWNNAME":"東區","LI":"富強里","LIN":"22鄰","STREET":"富強二街","SECT":" ","MAREA":" ","LANE":" ","ALLEY":" ","HOUSE_NO":"１５號二樓","E_COORD97":171017.72,"N_COORD97":2542546.5699999998,"ADDRESS":"富強二街１５號二樓","OBJECTID":604115},"geometry":{"x":171017.72000000067,"y":2542546.5700000022}},{"attributes":{"ID":604143,"DIS_CODE":0,"TOWNNAME":"東區","LI":"富強里","LIN":"22鄰","STREET":"富強二街","SECT":" ","MAREA":" ","LANE":" ","ALLEY":" ","HOUSE_NO":"１５號三樓","E_COORD97":171017.72,"N_COORD97":2542546.5699999998,"ADDRESS":"富強二街１５號三樓","OBJECTID":604116},"geometry":{"x":171017.72000000067,"y":2542546.5700000022}},{"attributes":{"ID":604144,"DIS_CODE":0,"TOWNNAME":"東區","LI":"富強里","LIN":"22鄰","STREET":"富強二街","SECT":" ","MAREA":" ","LANE":" ","ALLEY":" ","HOUSE_NO":"１５號四樓","E_COORD97":171017.72,"N_COORD97":2542546.5699999998,"ADDRESS":"富強二街１５號四樓","OBJECTID":604117},"geometry":{"x":171017.72000000067,"y":2542546.5700000022}},{"attributes":{"ID":604145,"DIS_CODE":0,"TOWNNAME":"東區","LI":"富強里","LIN":"22鄰","STREET":"富強二街","SECT":" ","MAREA":" ","LANE":" ","ALLEY":" ","HOUSE_NO":"１５號五樓","E_COORD97":171017.72,"N_COORD97":2542546.5699999998,"ADDRESS":"富強二街１５號五樓","OBJECTID":604118},"geometry":{"x":171017.72000000067,"y":2542546.5700000022}},{"attributes":{"ID":604146,"DIS_CODE":0,"TOWNNAME":"東區","LI":"富強里","LIN":"22鄰","STREET":"富強二街","SECT":" ","MAREA":" ","LANE":" ","ALLEY":" ","HOUSE_NO":"１５號六樓","E_COORD97":171017.72,"N_COORD97":2542546.5699999998,"ADDRESS":"富強二街１５號六樓","OBJECTID":604119},"geometry":{"x":171017.72000000067,"y":2542546.5700000022}},{"attributes":{"ID":604147,"DIS_CODE":0,"TOWNNAME":"東區","LI":"富強里","LIN":"22鄰","STREET":"富強二街","SECT":" ","MAREA":" ","LANE":" ","ALLEY":" ","HOUSE_NO":"１５號七樓","E_COORD97":171017.72,"N_COORD97":2542546.5699999998,"ADDRESS":"富強二街１５號七樓","OBJECTID":604120},"geometry":{"x":171017.72000000067,"y":2542546.5700000022}},{"attributes":{"ID":604148,"DIS_CODE":0,"TOWNNAME":"東區","LI":"富強里","LIN":"22鄰","STREET":"富強二街","SECT":" ","MAREA":" ","LANE":" ","ALLEY":" ","HOUSE_NO":"１５號八樓","E_COORD97":171017.72,"N_COORD97":2542546.5699999998,"ADDRESS":"富強二街１５號八樓","OBJECTID":604121},"geometry":{"x":171017.72000000067,"y":2542546.5700000022}},{"attributes":{"ID":604149,"DIS_CODE":0,"TOWNNAME":"東區","LI":"富強里","LIN":"22鄰","STREET":"富強二街","SECT":" ","MAREA":" ","LANE":" ","ALLEY":" ","HOUSE_NO":"１５號九樓","E_COORD97":171017.72,"N_COORD97":2542546.5699999998,"ADDRESS":"富強二街１５號九樓","OBJECTID":604122},"geometry":{"x":171017.72000000067,"y":2542546.5700000022}},{"attributes":{"ID":604150,"DIS_CODE":0,"TOWNNAME":"東區","LI":"富強里","LIN":"22鄰","STREET":"富強二街","SECT":" ","MAREA":" ","LANE":" ","ALLEY":" ","HOUSE_NO":"１５號十樓","E_COORD97":171017.72,"N_COORD97":2542546.5699999998,"ADDRESS":"富強二街１５號十樓","OBJECTID":604123},"geometry":{"x":171017.72000000067,"y":2542546.5700000022}},{"attributes":{"ID":604151,"DIS_CODE":0,"TOWNNAME":"東區","LI":"富強里","LIN":"22鄰","STREET":"富強二街","SECT":" ","MAREA":" ","LANE":" ","ALLEY":" ","HOUSE_NO":"１７號二樓","E_COORD97":171022.25,"N_COORD97":2542552.0099999998,"ADDRESS":"富強二街１７號二樓","OBJECTID":604124},"geometry":{"x":171022.25000000186,"y":2542552.0099999998}},{"attributes":{"ID":604152,"DIS_CODE":0,"TOWNNAME":"東區","LI":"富強里","LIN":"22鄰","STREET":"富強二街","SECT":" ","MAREA":" ","LANE":" ","ALLEY":" ","HOUSE_NO":"１７號三樓","E_COORD97":171022.25,"N_COORD97":2542552.0099999998,"ADDRESS":"富強二街１７號三樓","OBJECTID":604125},"geometry":{"x":171022.25000000186,"y":2542552.0099999998}},{"attributes":{"ID":604153,"DIS_CODE":0,"TOWNNAME":"東區","LI":"富強里","LIN":"22鄰","STREET":"富強二街","SECT":" ","MAREA":" ","LANE":" ","ALLEY":" ","HOUSE_NO":"１７號四樓","E_COORD97":171022.25,"N_COORD97":2542552.0099999998,"ADDRESS":"富強二街１７號四樓","OBJECTID":604126},"geometry":{"x":171022.25000000186,"y":2542552.0099999998}},{"attributes":{"ID":604154,"DIS_CODE":0,"TOWNNAME":"東區","LI":"富強里","LIN":"22鄰","STREET":"富強二街","SECT":" ","MAREA":" ","LANE":" ","ALLEY":" ","HOUSE_NO":"１７號五樓","E_COORD97":171022.25,"N_COORD97":2542552.0099999998,"ADDRESS":"富強二街１７號五樓","OBJECTID":604127},"geometry":{"x":171022.25000000186,"y":2542552.0099999998}},{"attributes":{"ID":604155,"DIS_CODE":0,"TOWNNAME":"東區","LI":"富強里","LIN":"22鄰","STREET":"富強二街","SECT":" ","MAREA":" ","LANE":" ","ALLEY":" ","HOUSE_NO":"１７號六樓","E_COORD97":171022.25,"N_COORD97":2542552.0099999998,"ADDRESS":"富強二街１７號六樓","OBJECTID":604128},"geometry":{"x":171022.25000000186,"y":2542552.0099999998}},{"attributes":{"ID":604156,"DIS_CODE":0,"TOWNNAME":"東區","LI":"富強里","LIN":"22鄰","STREET":"富強二街","SECT":" ","MAREA":" ","LANE":" ","ALLEY":" ","HOUSE_NO":"１７號七樓","E_COORD97":171022.25,"N_COORD97":2542552.0099999998,"ADDRESS":"富強二街１７號七樓","OBJECTID":604129},"geometry":{"x":171022.25000000186,"y":2542552.0099999998}},{"attributes":{"ID":604157,"DIS_CODE":0,"TOWNNAME":"東區","LI":"富強里","LIN":"22鄰","STREET":"富強二街","SECT":" ","MAREA":" ","LANE":" ","ALLEY":" ","HOUSE_NO":"１７號八樓","E_COORD97":171022.25,"N_COORD97":2542552.0099999998,"ADDRESS":"富強二街１７號八樓","OBJECTID":604130},"geometry":{"x":171022.25000000186,"y":2542552.0099999998}},{"attributes":{"ID":604158,"DIS_CODE":0,"TOWNNAME":"東區","LI":"富強里","LIN":"22鄰","STREET":"富強二街","SECT":" ","MAREA":" ","LANE":" ","ALLEY":" ","HOUSE_NO":"１７號九樓","E_COORD97":171022.25,"N_COORD97":2542552.0099999998,"ADDRESS":"富強二街１７號九樓","OBJECTID":604131},"geometry":{"x":171022.25000000186,"y":2542552.0099999998}},{"attributes":{"ID":604159,"DIS_CODE":0,"TOWNNAME":"東區","LI":"富強里","LIN":"22鄰","STREET":"富強二街","SECT":" ","MAREA":" ","LANE":" ","ALLEY":" ","HOUSE_NO":"１７號十樓","E_COORD97":171022.25,"N_COORD97":2542552.0099999998,"ADDRESS":"富強二街１７號十樓","OBJECTID":604132},"geometry":{"x":171022.25000000186,"y":2542552.0099999998}},{"attributes":{"ID":604160,"DIS_CODE":0,"TOWNNAME":"東區","LI":"富強里","LIN":"22鄰","STREET":"富強二街","SECT":" ","MAREA":" ","LANE":" ","ALLEY":" ","HOUSE_NO":"１９號二樓","E_COORD97":171027.69,"N_COORD97":2542556.0899999999,"ADDRESS":"富強二街１９號二樓","OBJECTID":604133},"geometry":{"x":171027.69000000041,"y":2542556.0900000017}},{"attributes":{"ID":604161,"DIS_CODE":0,"TOWNNAME":"東區","LI":"富強里","LIN":"22鄰","STREET":"富強二街","SECT":" ","MAREA":" ","LANE":" ","ALLEY":" ","HOUSE_NO":"１９號三樓","E_COORD97":171027.69,"N_COORD97":2542556.0899999999,"ADDRESS":"富強二街１９號三樓","OBJECTID":604134},"geometry":{"x":171027.69000000041,"y":2542556.0900000017}},{"attributes":{"ID":604162,"DIS_CODE":0,"TOWNNAME":"東區","LI":"富強里","LIN":"22鄰","STREET":"富強二街","SECT":" ","MAREA":" ","LANE":" ","ALLEY":" ","HOUSE_NO":"１９號四樓","E_COORD97":171027.69,"N_COORD97":2542556.0899999999,"ADDRESS":"富強二街１９號四樓","OBJECTID":604135},"geometry":{"x":171027.69000000041,"y":2542556.0900000017}},{"attributes":{"ID":604163,"DIS_CODE":0,"TOWNNAME":"東區","LI":"富強里","LIN":"22鄰","STREET":"富強二街","SECT":" ","MAREA":" ","LANE":" ","ALLEY":" ","HOUSE_NO":"１９號五樓","E_COORD97":171027.69,"N_COORD97":2542556.0899999999,"ADDRESS":"富強二街１９號五樓","OBJECTID":604136},"geometry":{"x":171027.69000000041,"y":2542556.0900000017}},{"attributes":{"ID":604164,"DIS_CODE":0,"TOWNNAME":"東區","LI":"富強里","LIN":"22鄰","STREET":"富強二街","SECT":" ","MAREA":" ","LANE":" ","ALLEY":" ","HOUSE_NO":"１９號六樓","E_COORD97":171027.69,"N_COORD97":2542556.0899999999,"ADDRESS":"富強二街１９號六樓","OBJECTID":604137},"geometry":{"x":171027.69000000041,"y":2542556.0900000017}},{"attributes":{"ID":604165,"DIS_CODE":0,"TOWNNAME":"東區","LI":"富強里","LIN":"22鄰","STREET":"富強二街","SECT":" ","MAREA":" ","LANE":" ","ALLEY":" ","HOUSE_NO":"１９號七樓","E_COORD97":171027.69,"N_COORD97":2542556.0899999999,"ADDRESS":"富強二街１９號七樓","OBJECTID":604138},"geometry":{"x":171027.69000000041,"y":2542556.0900000017}},{"attributes":{"ID":604166,"DIS_CODE":0,"TOWNNAME":"東區","LI":"富強里","LIN":"22鄰","STREET":"富強二街","SECT":" ","MAREA":" ","LANE":" ","ALLEY":" ","HOUSE_NO":"１９號八樓","E_COORD97":171027.69,"N_COORD97":2542556.0899999999,"ADDRESS":"富強二街１９號八樓","OBJECTID":604139},"geometry":{"x":171027.69000000041,"y":2542556.0900000017}},{"attributes":{"ID":604167,"DIS_CODE":0,"TOWNNAME":"東區","LI":"富強里","LIN":"22鄰","STREET":"富強二街","SECT":" ","MAREA":" ","LANE":" ","ALLEY":" ","HOUSE_NO":"１９號九樓","E_COORD97":171027.69,"N_COORD97":2542556.0899999999,"ADDRESS":"富強二街１９號九樓","OBJECTID":604140},"geometry":{"x":171027.69000000041,"y":2542556.0900000017}},{"attributes":{"ID":604168,"DIS_CODE":0,"TOWNNAME":"東區","LI":"富強里","LIN":"22鄰","STREET":"富強二街","SECT":" ","MAREA":" ","LANE":" ","ALLEY":" ","HOUSE_NO":"１９號十樓","E_COORD97":171027.69,"N_COORD97":2542556.0899999999,"ADDRESS":"富強二街１９號十樓","OBJECTID":604141},"geometry":{"x":171027.69000000041,"y":2542556.0900000017}},{"attributes":{"ID":604169,"DIS_CODE":0,"TOWNNAME":"東區","LI":"富強里","LIN":"22鄰","STREET":"富強二街","SECT":" ","MAREA":" ","LANE":" ","ALLEY":" ","HOUSE_NO":"１號二樓","E_COORD97":170982.38,"N_COORD97":2542503.52,"ADDRESS":"富強二街１號二樓","OBJECTID":604142},"geometry":{"x":170982.38000000082,"y":2542503.5199999996}},{"attributes":{"ID":604170,"DIS_CODE":0,"TOWNNAME":"東區","LI":"富強里","LIN":"22鄰","STREET":"富強二街","SECT":" ","MAREA":" ","LANE":" ","ALLEY":" ","HOUSE_NO":"１號三樓","E_COORD97":170982.38,"N_COORD97":2542503.52,"ADDRESS":"富強二街１號三樓","OBJECTID":604143},"geometry":{"x":170982.38000000082,"y":2542503.5199999996}},{"attributes":{"ID":604171,"DIS_CODE":0,"TOWNNAME":"東區","LI":"富強里","LIN":"22鄰","STREET":"富強二街","SECT":" ","MAREA":" ","LANE":" ","ALLEY":" ","HOUSE_NO":"１號四樓","E_COORD97":170982.38,"N_COORD97":2542503.52,"ADDRESS":"富強二街１號四樓","OBJECTID":604144},"geometry":{"x":170982.38000000082,"y":2542503.5199999996}},{"attributes":{"ID":604172,"DIS_CODE":0,"TOWNNAME":"東區","LI":"富強里","LIN":"22鄰","STREET":"富強二街","SECT":" ","MAREA":" ","LANE":" ","ALLEY":" ","HOUSE_NO":"１號五樓","E_COORD97":170982.38,"N_COORD97":2542503.52,"ADDRESS":"富強二街１號五樓","OBJECTID":604145},"geometry":{"x":170982.38000000082,"y":2542503.5199999996}},{"attributes":{"ID":604173,"DIS_CODE":0,"TOWNNAME":"東區","LI":"富強里","LIN":"22鄰","STREET":"富強二街","SECT":" ","MAREA":" ","LANE":" ","ALLEY":" ","HOUSE_NO":"１號六樓","E_COORD97":170982.38,"N_COORD97":2542503.52,"ADDRESS":"富強二街１號六樓","OBJECTID":604146},"geometry":{"x":170982.38000000082,"y":2542503.5199999996}},{"attributes":{"ID":604174,"DIS_CODE":0,"TOWNNAME":"東區","LI":"富強里","LIN":"22鄰","STREET":"富強二街","SECT":" ","MAREA":" ","LANE":" ","ALLEY":" ","HOUSE_NO":"１號七樓","E_COORD97":170982.38,"N_COORD97":2542503.52,"ADDRESS":"富強二街１號七樓","OBJECTID":604147},"geometry":{"x":170982.38000000082,"y":2542503.5199999996}},{"attributes":{"ID":604175,"DIS_CODE":0,"TOWNNAME":"東區","LI":"富強里","LIN":"22鄰","STREET":"富強二街","SECT":" ","MAREA":" ","LANE":" ","ALLEY":" ","HOUSE_NO":"１號八樓","E_COORD97":170982.38,"N_COORD97":2542503.52,"ADDRESS":"富強二街１號八樓","OBJECTID":604148},"geometry":{"x":170982.38000000082,"y":2542503.5199999996}},{"attributes":{"ID":604176,"DIS_CODE":0,"TOWNNAME":"東區","LI":"富強里","LIN":"22鄰","STREET":"富強二街","SECT":" ","MAREA":" ","LANE":" ","ALLEY":" ","HOUSE_NO":"１號九樓","E_COORD97":170982.38,"N_COORD97":2542503.52,"ADDRESS":"富強二街１號九樓","OBJECTID":604149},"geometry":{"x":170982.38000000082,"y":2542503.5199999996}},{"attributes":{"ID":604177,"DIS_CODE":0,"TOWNNAME":"東區","LI":"富強里","LIN":"22鄰","STREET":"富強二街","SECT":" ","MAREA":" ","LANE":" ","ALLEY":" ","HOUSE_NO":"１號十樓","E_COORD97":170982.38,"N_COORD97":2542503.52,"ADDRESS":"富強二街１號十樓","OBJECTID":604150},"geometry":{"x":170982.38000000082,"y":2542503.5199999996}},{"attributes":{"ID":604178,"DIS_CODE":0,"TOWNNAME":"東區","LI":"富強里","LIN":"22鄰","STREET":"富強二街","SECT":" ","MAREA":" ","LANE":" ","ALLEY":" ","HOUSE_NO":"３號二樓","E_COORD97":170987.35999999999,"N_COORD97":2542510.77,"ADDRESS":"富強二街３號二樓","OBJECTID":604151},"geometry":{"x":170987.36000000034,"y":2542510.7700000014}},{"attributes":{"ID":604179,"DIS_CODE":0,"TOWNNAME":"東區","LI":"富強里","LIN":"22鄰","STREET":"富強二街","SECT":" ","MAREA":" ","LANE":" ","ALLEY":" ","HOUSE_NO":"３號三樓","E_COORD97":170987.35999999999,"N_COORD97":2542510.77,"ADDRESS":"富強二街３號三樓","OBJECTID":604152},"geometry":{"x":170987.36000000034,"y":2542510.7700000014}},{"attributes":{"ID":604180,"DIS_CODE":0,"TOWNNAME":"東區","LI":"富強里","LIN":"22鄰","STREET":"富強二街","SECT":" ","MAREA":" ","LANE":" ","ALLEY":" ","HOUSE_NO":"３號六樓","E_COORD97":170987.35999999999,"N_COORD97":2542510.77,"ADDRESS":"富強二街３號六樓","OBJECTID":604153},"geometry":{"x":170987.36000000034,"y":2542510.7700000014}},{"attributes":{"ID":604181,"DIS_CODE":0,"TOWNNAME":"東區","LI":"富強里","LIN":"22鄰","STREET":"富強二街","SECT":" ","MAREA":" ","LANE":" ","ALLEY":" ","HOUSE_NO":"３號七樓","E_COORD97":170987.35999999999,"N_COORD97":2542510.77,"ADDRESS":"富強二街３號七樓","OBJECTID":604154},"geometry":{"x":170987.36000000034,"y":2542510.7700000014}},{"attributes":{"ID":604182,"DIS_CODE":0,"TOWNNAME":"東區","LI":"富強里","LIN":"22鄰","STREET":"富強二街","SECT":" ","MAREA":" ","LANE":" ","ALLEY":" ","HOUSE_NO":"３號八樓","E_COORD97":170987.35999999999,"N_COORD97":2542510.77,"ADDRESS":"富強二街３號八樓","OBJECTID":604155},"geometry":{"x":170987.36000000034,"y":2542510.7700000014}},{"attributes":{"ID":604183,"DIS_CODE":0,"TOWNNAME":"東區","LI":"富強里","LIN":"22鄰","STREET":"富強二街","SECT":" ","MAREA":" ","LANE":" ","ALLEY":" ","HOUSE_NO":"３號九樓","E_COORD97":170987.35999999999,"N_COORD97":2542510.77,"ADDRESS":"富強二街３號九樓","OBJECTID":604156},"geometry":{"x":170987.36000000034,"y":2542510.7700000014}},{"attributes":{"ID":604184,"DIS_CODE":0,"TOWNNAME":"東區","LI":"富強里","LIN":"22鄰","STREET":"富強二街","SECT":" ","MAREA":" ","LANE":" ","ALLEY":" ","HOUSE_NO":"３號十樓","E_COORD97":170987.35999999999,"N_COORD97":2542510.77,"ADDRESS":"富強二街３號十樓","OBJECTID":604157},"geometry":{"x":170987.36000000034,"y":2542510.7700000014}},{"attributes":{"ID":604185,"DIS_CODE":0,"TOWNNAME":"東區","LI":"富強里","LIN":"22鄰","STREET":"富強二街","SECT":" ","MAREA":" ","LANE":" ","ALLEY":" ","HOUSE_NO":"９號五樓","E_COORD97":171004.57999999999,"N_COORD97":2542527.9900000002,"ADDRESS":"富強二街９號五樓","OBJECTID":604158},"geometry":{"x":171004.58000000007,"y":2542527.9900000002}},{"attributes":{"ID":604186,"DIS_CODE":0,"TOWNNAME":"東區","LI":"富強里","LIN":"22鄰","STREET":"富強二街","SECT":" ","MAREA":" ","LANE":" ","ALLEY":" ","HOUSE_NO":"９號六樓","E_COORD97":171004.57999999999,"N_COORD97":2542527.9900000002,"ADDRESS":"富強二街９號六樓","OBJECTID":604159},"geometry":{"x":171004.58000000007,"y":2542527.9900000002}},{"attributes":{"ID":604187,"DIS_CODE":0,"TOWNNAME":"東區","LI":"富強里","LIN":"22鄰","STREET":"富強二街","SECT":" ","MAREA":" ","LANE":" ","ALLEY":" ","HOUSE_NO":"９號七樓","E_COORD97":171004.57999999999,"N_COORD97":2542527.9900000002,"ADDRESS":"富強二街９號七樓","OBJECTID":604160},"geometry":{"x":171004.58000000007,"y":2542527.9900000002}},{"attributes":{"ID":604188,"DIS_CODE":0,"TOWNNAME":"東區","LI":"富強里","LIN":"22鄰","STREET":"富強二街","SECT":" ","MAREA":" ","LANE":" ","ALLEY":" ","HOUSE_NO":"９號八樓","E_COORD97":171004.57999999999,"N_COORD97":2542527.9900000002,"ADDRESS":"富強二街９號八樓","OBJECTID":604161},"geometry":{"x":171004.58000000007,"y":2542527.9900000002}},{"attributes":{"ID":604189,"DIS_CODE":0,"TOWNNAME":"東區","LI":"富強里","LIN":"22鄰","STREET":"富強二街","SECT":" ","MAREA":" ","LANE":" ","ALLEY":" ","HOUSE_NO":"９號九樓","E_COORD97":171004.57999999999,"N_COORD97":2542527.9900000002,"ADDRESS":"富強二街９號九樓","OBJECTID":604162},"geometry":{"x":171004.58000000007,"y":2542527.9900000002}},{"attributes":{"ID":604190,"DIS_CODE":0,"TOWNNAME":"東區","LI":"富強里","LIN":"22鄰","STREET":"富強二街","SECT":" ","MAREA":" ","LANE":" ","ALLEY":" ","HOUSE_NO":"９號十樓","E_COORD97":171004.57999999999,"N_COORD97":2542527.9900000002,"ADDRESS":"富強二街９號十樓","OBJECTID":604163},"geometry":{"x":171004.58000000007,"y":2542527.9900000002}},{"attributes":{"ID":604191,"DIS_CODE":0,"TOWNNAME":"東區","LI":"富強里","LIN":"22鄰","STREET":"富強三街","SECT":" ","MAREA":" ","LANE":" ","ALLEY":" ","HOUSE_NO":"１１號二樓","E_COORD97":170967.87,"N_COORD97":2542524.3700000001,"ADDRESS":"富強三街１１號二樓","OBJECTID":604164},"geometry":{"x":170967.87000000104,"y":2542524.3700000048}},{"attributes":{"ID":604192,"DIS_CODE":0,"TOWNNAME":"東區","LI":"富強里","LIN":"22鄰","STREET":"富強三街","SECT":" ","MAREA":" ","LANE":" ","ALLEY":" ","HOUSE_NO":"１１號三樓","E_COORD97":170967.87,"N_COORD97":2542524.3700000001,"ADDRESS":"富強三街１１號三樓","OBJECTID":604165},"geometry":{"x":170967.87000000104,"y":2542524.3700000048}},{"attributes":{"ID":604193,"DIS_CODE":0,"TOWNNAME":"東區","LI":"富強里","LIN":"22鄰","STREET":"富強三街","SECT":" ","MAREA":" ","LANE":" ","ALLEY":" ","HOUSE_NO":"１１號四樓","E_COORD97":170967.87,"N_COORD97":2542524.3700000001,"ADDRESS":"富強三街１１號四樓","OBJECTID":604166},"geometry":{"x":170967.87000000104,"y":2542524.3700000048}},{"attributes":{"ID":604194,"DIS_CODE":0,"TOWNNAME":"東區","LI":"富強里","LIN":"22鄰","STREET":"富強三街","SECT":" ","MAREA":" ","LANE":" ","ALLEY":" ","HOUSE_NO":"１１號五樓","E_COORD97":170967.87,"N_COORD97":2542524.3700000001,"ADDRESS":"富強三街１１號五樓","OBJECTID":604167},"geometry":{"x":170967.87000000104,"y":2542524.3700000048}},{"attributes":{"ID":604195,"DIS_CODE":0,"TOWNNAME":"東區","LI":"富強里","LIN":"22鄰","STREET":"富強三街","SECT":" ","MAREA":" ","LANE":" ","ALLEY":" ","HOUSE_NO":"１１號六樓","E_COORD97":170967.87,"N_COORD97":2542524.3700000001,"ADDRESS":"富強三街１１號六樓","OBJECTID":604168},"geometry":{"x":170967.87000000104,"y":2542524.3700000048}},{"attributes":{"ID":604196,"DIS_CODE":0,"TOWNNAME":"東區","LI":"富強里","LIN":"22鄰","STREET":"富強三街","SECT":" ","MAREA":" ","LANE":" ","ALLEY":" ","HOUSE_NO":"１１號七樓","E_COORD97":170967.87,"N_COORD97":2542524.3700000001,"ADDRESS":"富強三街１１號七樓","OBJECTID":604169},"geometry":{"x":170967.87000000104,"y":2542524.3700000048}},{"attributes":{"ID":604197,"DIS_CODE":0,"TOWNNAME":"東區","LI":"富強里","LIN":"22鄰","STREET":"富強三街","SECT":" ","MAREA":" ","LANE":" ","ALLEY":" ","HOUSE_NO":"１１號八樓","E_COORD97":170967.87,"N_COORD97":2542524.3700000001,"ADDRESS":"富強三街１１號八樓","OBJECTID":604170},"geometry":{"x":170967.87000000104,"y":2542524.3700000048}},{"attributes":{"ID":604198,"DIS_CODE":0,"TOWNNAME":"東區","LI":"富強里","LIN":"22鄰","STREET":"富強三街","SECT":" ","MAREA":" ","LANE":" ","ALLEY":" ","HOUSE_NO":"１１號九樓","E_COORD97":170967.87,"N_COORD97":2542524.3700000001,"ADDRESS":"富強三街１１號九樓","OBJECTID":604171},"geometry":{"x":170967.87000000104,"y":2542524.3700000048}},{"attributes":{"ID":604199,"DIS_CODE":0,"TOWNNAME":"東區","LI":"富強里","LIN":"22鄰","STREET":"富強三街","SECT":" ","MAREA":" ","LANE":" ","ALLEY":" ","HOUSE_NO":"１３號三樓","E_COORD97":170970.25,"N_COORD97":2542516,"ADDRESS":"富強三街１３號三樓","OBJECTID":604172},"geometry":{"x":170970.25000000093,"y":2542516.0000000019}},{"attributes":{"ID":604200,"DIS_CODE":0,"TOWNNAME":"東區","LI":"富強里","LIN":"22鄰","STREET":"富強三街","SECT":" ","MAREA":" ","LANE":" ","ALLEY":" ","HOUSE_NO":"１３號二樓","E_COORD97":170970.25,"N_COORD97":2542516,"ADDRESS":"富強三街１３號二樓","OBJECTID":604173},"geometry":{"x":170970.25000000093,"y":2542516.0000000019}},{"attributes":{"ID":604201,"DIS_CODE":0,"TOWNNAME":"東區","LI":"富強里","LIN":"22鄰","STREET":"富強三街","SECT":" ","MAREA":" ","LANE":" ","ALLEY":" ","HOUSE_NO":"１３號四樓","E_COORD97":170970.25,"N_COORD97":2542516,"ADDRESS":"富強三街１３號四樓","OBJECTID":604174},"geometry":{"x":170970.25000000093,"y":2542516.0000000019}},{"attributes":{"ID":604202,"DIS_CODE":0,"TOWNNAME":"東區","LI":"富強里","LIN":"22鄰","STREET":"富強三街","SECT":" ","MAREA":" ","LANE":" ","ALLEY":" ","HOUSE_NO":"１３號五樓","E_COORD97":170970.25,"N_COORD97":2542516,"ADDRESS":"富強三街１３號五樓","OBJECTID":604175},"geometry":{"x":170970.25000000093,"y":2542516.0000000019}},{"attributes":{"ID":604203,"DIS_CODE":0,"TOWNNAME":"東區","LI":"富強里","LIN":"22鄰","STREET":"富強三街","SECT":" ","MAREA":" ","LANE":" ","ALLEY":" ","HOUSE_NO":"１３號六樓","E_COORD97":170970.25,"N_COORD97":2542516,"ADDRESS":"富強三街１３號六樓","OBJECTID":604176},"geometry":{"x":170970.25000000093,"y":2542516.0000000019}},{"attributes":{"ID":604204,"DIS_CODE":0,"TOWNNAME":"東區","LI":"富強里","LIN":"22鄰","STREET":"富強三街","SECT":" ","MAREA":" ","LANE":" ","ALLEY":" ","HOUSE_NO":"１３號七樓","E_COORD97":170970.25,"N_COORD97":2542516,"ADDRESS":"富強三街１３號七樓","OBJECTID":604177},"geometry":{"x":170970.25000000093,"y":2542516.0000000019}},{"attributes":{"ID":604205,"DIS_CODE":0,"TOWNNAME":"東區","LI":"富強里","LIN":"22鄰","STREET":"富強三街","SECT":" ","MAREA":" ","LANE":" ","ALLEY":" ","HOUSE_NO":"１３號八樓","E_COORD97":170970.25,"N_COORD97":2542516,"ADDRESS":"富強三街１３號八樓","OBJECTID":604178},"geometry":{"x":170970.25000000093,"y":2542516.0000000019}},{"attributes":{"ID":604206,"DIS_CODE":0,"TOWNNAME":"東區","LI":"富強里","LIN":"22鄰","STREET":"富強三街","SECT":" ","MAREA":" ","LANE":" ","ALLEY":" ","HOUSE_NO":"１３號九樓","E_COORD97":170970.25,"N_COORD97":2542516,"ADDRESS":"富強三街１３號九樓","OBJECTID":604179},"geometry":{"x":170970.25000000093,"y":2542516.0000000019}},{"attributes":{"ID":604207,"DIS_CODE":0,"TOWNNAME":"東區","LI":"富強里","LIN":"22鄰","STREET":"富強三街","SECT":" ","MAREA":" ","LANE":" ","ALLEY":" ","HOUSE_NO":"１號二樓","E_COORD97":171009.42000000001,"N_COORD97":2542559.7999999998,"ADDRESS":"富強三街１號二樓","OBJECTID":604180},"geometry":{"x":171009.42000000086,"y":2542559.8000000026}},{"attributes":{"ID":604208,"DIS_CODE":0,"TOWNNAME":"東區","LI":"富強里","LIN":"22鄰","STREET":"富強三街","SECT":" ","MAREA":" ","LANE":" ","ALLEY":" ","HOUSE_NO":"１號三樓","E_COORD97":171009.42000000001,"N_COORD97":2542559.7999999998,"ADDRESS":"富強三街１號三樓","OBJECTID":604181},"geometry":{"x":171009.42000000086,"y":2542559.8000000026}},{"attributes":{"ID":604209,"DIS_CODE":0,"TOWNNAME":"東區","LI":"富強里","LIN":"22鄰","STREET":"富強三街","SECT":" ","MAREA":" ","LANE":" ","ALLEY":" ","HOUSE_NO":"１號四樓","E_COORD97":171009.42000000001,"N_COORD97":2542559.7999999998,"ADDRESS":"富強三街１號四樓","OBJECTID":604182},"geometry":{"x":171009.42000000086,"y":2542559.8000000026}},{"attributes":{"ID":604210,"DIS_CODE":0,"TOWNNAME":"東區","LI":"富強里","LIN":"22鄰","STREET":"富強三街","SECT":" ","MAREA":" ","LANE":" ","ALLEY":" ","HOUSE_NO":"１號五樓","E_COORD97":171009.42000000001,"N_COORD97":2542559.7999999998,"ADDRESS":"富強三街１號五樓","OBJECTID":604183},"geometry":{"x":171009.42000000086,"y":2542559.8000000026}},{"attributes":{"ID":604211,"DIS_CODE":0,"TOWNNAME":"東區","LI":"富強里","LIN":"22鄰","STREET":"富強三街","SECT":" ","MAREA":" ","LANE":" ","ALLEY":" ","HOUSE_NO":"１號六樓","E_COORD97":171009.42000000001,"N_COORD97":2542559.7999999998,"ADDRESS":"富強三街１號六樓","OBJECTID":604184},"geometry":{"x":171009.42000000086,"y":2542559.8000000026}},{"attributes":{"ID":604212,"DIS_CODE":0,"TOWNNAME":"東區","LI":"富強里","LIN":"22鄰","STREET":"富強三街","SECT":" ","MAREA":" ","LANE":" ","ALLEY":" ","HOUSE_NO":"１號七樓","E_COORD97":171009.42000000001,"N_COORD97":2542559.7999999998,"ADDRESS":"富強三街１號七樓","OBJECTID":604185},"geometry":{"x":171009.42000000086,"y":2542559.8000000026}},{"attributes":{"ID":604213,"DIS_CODE":0,"TOWNNAME":"東區","LI":"富強里","LIN":"22鄰","STREET":"富強三街","SECT":" ","MAREA":" ","LANE":" ","ALLEY":" ","HOUSE_NO":"１號八樓","E_COORD97":171009.42000000001,"N_COORD97":2542559.7999999998,"ADDRESS":"富強三街１號八樓","OBJECTID":604186},"geometry":{"x":171009.42000000086,"y":2542559.8000000026}},{"attributes":{"ID":604214,"DIS_CODE":0,"TOWNNAME":"東區","LI":"富強里","LIN":"22鄰","STREET":"富強三街","SECT":" ","MAREA":" ","LANE":" ","ALLEY":" ","HOUSE_NO":"１號九樓","E_COORD97":171009.42000000001,"N_COORD97":2542559.7999999998,"ADDRESS":"富強三街１號九樓","OBJECTID":604187},"geometry":{"x":171009.42000000086,"y":2542559.8000000026}},{"attributes":{"ID":604215,"DIS_CODE":0,"TOWNNAME":"東區","LI":"富強里","LIN":"22鄰","STREET":"富強三街","SECT":" ","MAREA":" ","LANE":" ","ALLEY":" ","HOUSE_NO":"３號二樓","E_COORD97":170997.16,"N_COORD97":2542560.1699999999,"ADDRESS":"富強三街３號二樓","OBJECTID":604188},"geometry":{"x":170997.16000000015,"y":2542560.1699999999}},{"attributes":{"ID":604216,"DIS_CODE":0,"TOWNNAME":"東區","LI":"富強里","LIN":"22鄰","STREET":"富強三街","SECT":" ","MAREA":" ","LANE":" ","ALLEY":" ","HOUSE_NO":"３號三樓","E_COORD97":170997.16,"N_COORD97":2542560.1699999999,"ADDRESS":"富強三街３號三樓","OBJECTID":604189},"geometry":{"x":170997.16000000015,"y":2542560.1699999999}},{"attributes":{"ID":604217,"DIS_CODE":0,"TOWNNAME":"東區","LI":"富強里","LIN":"22鄰","STREET":"富強三街","SECT":" ","MAREA":" ","LANE":" ","ALLEY":" ","HOUSE_NO":"３號四樓","E_COORD97":170997.16,"N_COORD97":2542560.1699999999,"ADDRESS":"富強三街３號四樓","OBJECTID":604190},"geometry":{"x":170997.16000000015,"y":2542560.1699999999}},{"attributes":{"ID":604218,"DIS_CODE":0,"TOWNNAME":"東區","LI":"富強里","LIN":"22鄰","STREET":"富強三街","SECT":" ","MAREA":" ","LANE":" ","ALLEY":" ","HOUSE_NO":"３號五樓","E_COORD97":170997.16,"N_COORD97":2542560.1699999999,"ADDRESS":"富強三街３號五樓","OBJECTID":604191},"geometry":{"x":170997.16000000015,"y":2542560.1699999999}},{"attributes":{"ID":604219,"DIS_CODE":0,"TOWNNAME":"東區","LI":"富強里","LIN":"22鄰","STREET":"富強三街","SECT":" ","MAREA":" ","LANE":" ","ALLEY":" ","HOUSE_NO":"３號六樓","E_COORD97":170997.16,"N_COORD97":2542560.1699999999,"ADDRESS":"富強三街３號六樓","OBJECTID":604192},"geometry":{"x":170997.16000000015,"y":2542560.1699999999}},{"attributes":{"ID":604220,"DIS_CODE":0,"TOWNNAME":"東區","LI":"富強里","LIN":"22鄰","STREET":"富強三街","SECT":" ","MAREA":" ","LANE":" ","ALLEY":" ","HOUSE_NO":"３號七樓","E_COORD97":170997.16,"N_COORD97":2542560.1699999999,"ADDRESS":"富強三街３號七樓","OBJECTID":604193},"geometry":{"x":170997.16000000015,"y":2542560.1699999999}},{"attributes":{"ID":604221,"DIS_CODE":0,"TOWNNAME":"東區","LI":"富強里","LIN":"22鄰","STREET":"富強三街","SECT":" ","MAREA":" ","LANE":" ","ALLEY":" ","HOUSE_NO":"３號八樓","E_COORD97":170997.16,"N_COORD97":2542560.1699999999,"ADDRESS":"富強三街３號八樓","OBJECTID":604194},"geometry":{"x":170997.16000000015,"y":2542560.1699999999}},{"attributes":{"ID":604222,"DIS_CODE":0,"TOWNNAME":"東區","LI":"富強里","LIN":"22鄰","STREET":"富強三街","SECT":" ","MAREA":" ","LANE":" ","ALLEY":" ","HOUSE_NO":"３號九樓","E_COORD97":170997.16,"N_COORD97":2542560.1699999999,"ADDRESS":"富強三街３號九樓","OBJECTID":604195},"geometry":{"x":170997.16000000015,"y":2542560.1699999999}},{"attributes":{"ID":604223,"DIS_CODE":0,"TOWNNAME":"東區","LI":"富強里","LIN":"22鄰","STREET":"富強三街","SECT":" ","MAREA":" ","LANE":" ","ALLEY":" ","HOUSE_NO":"５號二樓","E_COORD97":170989.17999999999,"N_COORD97":2542555.3500000001,"ADDRESS":"富強三街５號二樓","OBJECTID":604196},"geometry":{"x":170989.18000000063,"y":2542555.3499999996}},{"attributes":{"ID":604224,"DIS_CODE":0,"TOWNNAME":"東區","LI":"富強里","LIN":"22鄰","STREET":"富強三街","SECT":" ","MAREA":" ","LANE":" ","ALLEY":" ","HOUSE_NO":"５號三樓","E_COORD97":170989.17999999999,"N_COORD97":2542555.3500000001,"ADDRESS":"富強三街５號三樓","OBJECTID":604197},"geometry":{"x":170989.18000000063,"y":2542555.3499999996}},{"attributes":{"ID":604225,"DIS_CODE":0,"TOWNNAME":"東區","LI":"富強里","LIN":"22鄰","STREET":"富強三街","SECT":" ","MAREA":" ","LANE":" ","ALLEY":" ","HOUSE_NO":"５號四樓","E_COORD97":170989.17999999999,"N_COORD97":2542555.3500000001,"ADDRESS":"富強三街５號四樓","OBJECTID":604198},"geometry":{"x":170989.18000000063,"y":2542555.3499999996}},{"attributes":{"ID":604226,"DIS_CODE":0,"TOWNNAME":"東區","LI":"富強里","LIN":"22鄰","STREET":"富強三街","SECT":" ","MAREA":" ","LANE":" ","ALLEY":" ","HOUSE_NO":"５號五樓","E_COORD97":170989.17999999999,"N_COORD97":2542555.3500000001,"ADDRESS":"富強三街５號五樓","OBJECTID":604199},"geometry":{"x":170989.18000000063,"y":2542555.3499999996}},{"attributes":{"ID":604227,"DIS_CODE":0,"TOWNNAME":"東區","LI":"富強里","LIN":"22鄰","STREET":"富強三街","SECT":" ","MAREA":" ","LANE":" ","ALLEY":" ","HOUSE_NO":"５號六樓","E_COORD97":170989.17999999999,"N_COORD97":2542555.3500000001,"ADDRESS":"富強三街５號六樓","OBJECTID":604200},"geometry":{"x":170989.18000000063,"y":2542555.3499999996}}]}