{"displayFieldName":"TOWNNAME","fieldAliases":{"ID":"ID","DIS_CODE":"DIS_CODE","TOWNNAME":"TOWNNAME","LI":"LI","LIN":"LIN","STREET":"STREET","SECT":"SECT","MAREA":"MAREA","LANE":"LANE","ALLEY":"ALLEY","HOUSE_NO":"HOUSE_NO","E_COORD97":"E_COORD97","N_COORD97":"N_COORD97","ADDRESS":"ADDRESS","OBJECTID":"OBJECTID"},"geometryType":"esriGeometryPoint","spatialReference":{"wkid":102443,"latestWkid":3826},"fields":[{"name":"ID","type":"esriFieldTypeDouble","alias":"ID"},{"name":"DIS_CODE","type":"esriFieldTypeInteger","alias":"DIS_CODE"},{"name":"TOWNNAME","type":"esriFieldTypeString","alias":"TOWNNAME","length":8},{"name":"LI","type":"esriFieldTypeString","alias":"LI","length":8},{"name":"LIN","type":"esriFieldTypeString","alias":"LIN","length":12},{"name":"STREET","type":"esriFieldTypeString","alias":"STREET","length":20},{"name":"SECT","type":"esriFieldTypeString","alias":"SECT","length":8},{"name":"MAREA","type":"esriFieldTypeString","alias":"MAREA","length":12},{"name":"LANE","type":"esriFieldTypeString","alias":"LANE","length":10},{"name":"ALLEY","type":"esriFieldTypeString","alias":"ALLEY","length":10},{"name":"HOUSE_NO","type":"esriFieldTypeString","alias":"HOUSE_NO","length":20},{"name":"E_COORD97","type":"esriFieldTypeDouble","alias":"E_COORD97"},{"name":"N_COORD97","type":"esriFieldTypeDouble","alias":"N_COORD97"},{"name":"ADDRESS","type":"esriFieldTypeString","alias":"ADDRESS","length":50},{"name":"OBJECTID","type":"esriFieldTypeOID","alias":"OBJECTID"}],"features":[{"attributes":{"ID":481026,"DIS_CODE":0,"TOWNNAME":"安平區","LI":"怡平里","LIN":"26鄰","STREET":"永華六街","SECT":" ","MAREA":" ","LANE":" ","ALLEY":" ","HOUSE_NO":"３２號四樓之１１","E_COORD97":165607.88,"N_COORD97":2543622.2599999998,"ADDRESS":"永華六街３２號四樓之１１","OBJECTID":481001},"geometry":{"x":165607.87999999989,"y":2543622.2600000035}},{"attributes":{"ID":481027,"DIS_CODE":0,"TOWNNAME":"安平區","LI":"怡平里","LIN":"26鄰","STREET":"永華六街","SECT":" ","MAREA":" ","LANE":" ","ALLEY":" ","HOUSE_NO":"３２號四樓之１２","E_COORD97":165607.88,"N_COORD97":2543622.2599999998,"ADDRESS":"永華六街３２號四樓之１２","OBJECTID":481002},"geometry":{"x":165607.87999999989,"y":2543622.2600000035}},{"attributes":{"ID":481028,"DIS_CODE":0,"TOWNNAME":"安平區","LI":"怡平里","LIN":"26鄰","STREET":"永華六街","SECT":" ","MAREA":" ","LANE":" ","ALLEY":" ","HOUSE_NO":"３２號四樓之１３","E_COORD97":165607.88,"N_COORD97":2543622.2599999998,"ADDRESS":"永華六街３２號四樓之１３","OBJECTID":481003},"geometry":{"x":165607.87999999989,"y":2543622.2600000035}},{"attributes":{"ID":481029,"DIS_CODE":0,"TOWNNAME":"安平區","LI":"怡平里","LIN":"26鄰","STREET":"永華六街","SECT":" ","MAREA":" ","LANE":" ","ALLEY":" ","HOUSE_NO":"３２號四樓之１５","E_COORD97":165607.88,"N_COORD97":2543622.2599999998,"ADDRESS":"永華六街３２號四樓之１５","OBJECTID":481004},"geometry":{"x":165607.87999999989,"y":2543622.2600000035}},{"attributes":{"ID":481030,"DIS_CODE":0,"TOWNNAME":"安平區","LI":"怡平里","LIN":"26鄰","STREET":"永華六街","SECT":" ","MAREA":" ","LANE":" ","ALLEY":" ","HOUSE_NO":"３２號四樓之１６","E_COORD97":165607.88,"N_COORD97":2543622.2599999998,"ADDRESS":"永華六街３２號四樓之１６","OBJECTID":481005},"geometry":{"x":165607.87999999989,"y":2543622.2600000035}},{"attributes":{"ID":481031,"DIS_CODE":0,"TOWNNAME":"六甲區","LI":"六甲里","LIN":"26鄰","STREET":"中正路","SECT":" ","MAREA":" ","LANE":" ","ALLEY":" ","HOUSE_NO":"７０７號","E_COORD97":183832.45999999999,"N_COORD97":2570272.2400000002,"ADDRESS":"中正路７０７號","OBJECTID":481006},"geometry":{"x":183832.45999999996,"y":2570272.2400000021}},{"attributes":{"ID":481032,"DIS_CODE":0,"TOWNNAME":"安平區","LI":"怡平里","LIN":"26鄰","STREET":"永華六街","SECT":" ","MAREA":" ","LANE":" ","ALLEY":" ","HOUSE_NO":"３２號四樓之１７","E_COORD97":165607.88,"N_COORD97":2543622.2599999998,"ADDRESS":"永華六街３２號四樓之１７","OBJECTID":481007},"geometry":{"x":165607.87999999989,"y":2543622.2600000035}},{"attributes":{"ID":481033,"DIS_CODE":0,"TOWNNAME":"安平區","LI":"怡平里","LIN":"26鄰","STREET":"永華六街","SECT":" ","MAREA":" ","LANE":" ","ALLEY":" ","HOUSE_NO":"３２號四樓之１８","E_COORD97":165607.88,"N_COORD97":2543622.2599999998,"ADDRESS":"永華六街３２號四樓之１８","OBJECTID":481008},"geometry":{"x":165607.87999999989,"y":2543622.2600000035}},{"attributes":{"ID":481034,"DIS_CODE":0,"TOWNNAME":"安平區","LI":"怡平里","LIN":"26鄰","STREET":"永華六街","SECT":" ","MAREA":" ","LANE":" ","ALLEY":" ","HOUSE_NO":"３２號四樓之１９","E_COORD97":165607.88,"N_COORD97":2543622.2599999998,"ADDRESS":"永華六街３２號四樓之１９","OBJECTID":481009},"geometry":{"x":165607.87999999989,"y":2543622.2600000035}},{"attributes":{"ID":481035,"DIS_CODE":0,"TOWNNAME":"安平區","LI":"怡平里","LIN":"26鄰","STREET":"永華六街","SECT":" ","MAREA":" ","LANE":" ","ALLEY":" ","HOUSE_NO":"３２號四樓之２","E_COORD97":165607.88,"N_COORD97":2543622.2599999998,"ADDRESS":"永華六街３２號四樓之２","OBJECTID":481010},"geometry":{"x":165607.87999999989,"y":2543622.2600000035}},{"attributes":{"ID":481036,"DIS_CODE":0,"TOWNNAME":"安平區","LI":"怡平里","LIN":"26鄰","STREET":"永華六街","SECT":" ","MAREA":" ","LANE":" ","ALLEY":" ","HOUSE_NO":"３２號四樓之２０","E_COORD97":165607.88,"N_COORD97":2543622.2599999998,"ADDRESS":"永華六街３２號四樓之２０","OBJECTID":481011},"geometry":{"x":165607.87999999989,"y":2543622.2600000035}},{"attributes":{"ID":481037,"DIS_CODE":0,"TOWNNAME":"安平區","LI":"怡平里","LIN":"26鄰","STREET":"永華六街","SECT":" ","MAREA":" ","LANE":" ","ALLEY":" ","HOUSE_NO":"３２號四樓之３","E_COORD97":165607.88,"N_COORD97":2543622.2599999998,"ADDRESS":"永華六街３２號四樓之３","OBJECTID":481012},"geometry":{"x":165607.87999999989,"y":2543622.2600000035}},{"attributes":{"ID":481038,"DIS_CODE":0,"TOWNNAME":"安平區","LI":"怡平里","LIN":"26鄰","STREET":"永華六街","SECT":" ","MAREA":" ","LANE":" ","ALLEY":" ","HOUSE_NO":"３２號四樓之６","E_COORD97":165607.88,"N_COORD97":2543622.2599999998,"ADDRESS":"永華六街３２號四樓之６","OBJECTID":481013},"geometry":{"x":165607.87999999989,"y":2543622.2600000035}},{"attributes":{"ID":481039,"DIS_CODE":0,"TOWNNAME":"安平區","LI":"怡平里","LIN":"26鄰","STREET":"永華六街","SECT":" ","MAREA":" ","LANE":" ","ALLEY":" ","HOUSE_NO":"３２號四樓之７","E_COORD97":165607.88,"N_COORD97":2543622.2599999998,"ADDRESS":"永華六街３２號四樓之７","OBJECTID":481014},"geometry":{"x":165607.87999999989,"y":2543622.2600000035}},{"attributes":{"ID":481040,"DIS_CODE":0,"TOWNNAME":"安平區","LI":"怡平里","LIN":"26鄰","STREET":"永華六街","SECT":" ","MAREA":" ","LANE":" ","ALLEY":" ","HOUSE_NO":"３２號四樓之８","E_COORD97":165607.88,"N_COORD97":2543622.2599999998,"ADDRESS":"永華六街３２號四樓之８","OBJECTID":481015},"geometry":{"x":165607.87999999989,"y":2543622.2600000035}},{"attributes":{"ID":481041,"DIS_CODE":0,"TOWNNAME":"安平區","LI":"怡平里","LIN":"26鄰","STREET":"永華六街","SECT":" ","MAREA":" ","LANE":" ","ALLEY":" ","HOUSE_NO":"３２號四樓之９","E_COORD97":165607.88,"N_COORD97":2543622.2599999998,"ADDRESS":"永華六街３２號四樓之９","OBJECTID":481016},"geometry":{"x":165607.87999999989,"y":2543622.2600000035}},{"attributes":{"ID":481042,"DIS_CODE":0,"TOWNNAME":"新營區","LI":"新東里","LIN":"26鄰","STREET":"東興路","SECT":" ","MAREA":" ","LANE":" ","ALLEY":" ","HOUSE_NO":"２０３號三樓","E_COORD97":180749.70000000001,"N_COORD97":2579507.3399999999,"ADDRESS":"東興路２０３號三樓","OBJECTID":481017},"geometry":{"x":180749.70000000205,"y":2579507.3399999999}},{"attributes":{"ID":481043,"DIS_CODE":0,"TOWNNAME":"新營區","LI":"新東里","LIN":"26鄰","STREET":"東興路","SECT":" ","MAREA":" ","LANE":" ","ALLEY":" ","HOUSE_NO":"２０１號三樓","E_COORD97":180749.70000000001,"N_COORD97":2579507.3399999999,"ADDRESS":"東興路２０１號三樓","OBJECTID":481018},"geometry":{"x":180749.70000000205,"y":2579507.3399999999}},{"attributes":{"ID":481044,"DIS_CODE":0,"TOWNNAME":"北區","LI":"成德里","LIN":"26鄰","STREET":"育德一街","SECT":" ","MAREA":" ","LANE":" ","ALLEY":" ","HOUSE_NO":"１１號二樓","E_COORD97":168464.85999999999,"N_COORD97":2545805.3599999999,"ADDRESS":"育德一街１１號二樓","OBJECTID":481019},"geometry":{"x":168464.86000000034,"y":2545805.3600000013}},{"attributes":{"ID":481045,"DIS_CODE":0,"TOWNNAME":"北區","LI":"成德里","LIN":"26鄰","STREET":"育德一街","SECT":" ","MAREA":" ","LANE":" ","ALLEY":" ","HOUSE_NO":"１１號三樓","E_COORD97":168464.85999999999,"N_COORD97":2545805.3599999999,"ADDRESS":"育德一街１１號三樓","OBJECTID":481020},"geometry":{"x":168464.86000000034,"y":2545805.3600000013}},{"attributes":{"ID":481046,"DIS_CODE":0,"TOWNNAME":"北區","LI":"成德里","LIN":"26鄰","STREET":"育德一街","SECT":" ","MAREA":" ","LANE":" ","ALLEY":" ","HOUSE_NO":"１１號四樓","E_COORD97":168464.85999999999,"N_COORD97":2545805.3599999999,"ADDRESS":"育德一街１１號四樓","OBJECTID":481021},"geometry":{"x":168464.86000000034,"y":2545805.3600000013}},{"attributes":{"ID":481047,"DIS_CODE":0,"TOWNNAME":"北區","LI":"成德里","LIN":"26鄰","STREET":"育德一街","SECT":" ","MAREA":" ","LANE":" ","ALLEY":" ","HOUSE_NO":"１１號五樓","E_COORD97":168464.85999999999,"N_COORD97":2545805.3599999999,"ADDRESS":"育德一街１１號五樓","OBJECTID":481022},"geometry":{"x":168464.86000000034,"y":2545805.3600000013}},{"attributes":{"ID":481048,"DIS_CODE":0,"TOWNNAME":"北區","LI":"成德里","LIN":"26鄰","STREET":"育德一街","SECT":" ","MAREA":" ","LANE":" ","ALLEY":" ","HOUSE_NO":"１１號六樓","E_COORD97":168464.85999999999,"N_COORD97":2545805.3599999999,"ADDRESS":"育德一街１１號六樓","OBJECTID":481023},"geometry":{"x":168464.86000000034,"y":2545805.3600000013}},{"attributes":{"ID":481049,"DIS_CODE":0,"TOWNNAME":"北區","LI":"成德里","LIN":"26鄰","STREET":"育德一街","SECT":" ","MAREA":" ","LANE":" ","ALLEY":" ","HOUSE_NO":"１１號七樓","E_COORD97":168464.85999999999,"N_COORD97":2545805.3599999999,"ADDRESS":"育德一街１１號七樓","OBJECTID":481024},"geometry":{"x":168464.86000000034,"y":2545805.3600000013}},{"attributes":{"ID":481050,"DIS_CODE":0,"TOWNNAME":"北區","LI":"成德里","LIN":"26鄰","STREET":"育德一街","SECT":" ","MAREA":" ","LANE":" ","ALLEY":" ","HOUSE_NO":"１１號八樓","E_COORD97":168464.85999999999,"N_COORD97":2545805.3599999999,"ADDRESS":"育德一街１１號八樓","OBJECTID":481025},"geometry":{"x":168464.86000000034,"y":2545805.3600000013}},{"attributes":{"ID":481051,"DIS_CODE":0,"TOWNNAME":"北區","LI":"成德里","LIN":"26鄰","STREET":"育德一街","SECT":" ","MAREA":" ","LANE":" ","ALLEY":" ","HOUSE_NO":"１１號九樓","E_COORD97":168464.85999999999,"N_COORD97":2545805.3599999999,"ADDRESS":"育德一街１１號九樓","OBJECTID":481026},"geometry":{"x":168464.86000000034,"y":2545805.3600000013}},{"attributes":{"ID":481052,"DIS_CODE":0,"TOWNNAME":"北區","LI":"成德里","LIN":"26鄰","STREET":"育德一街","SECT":" ","MAREA":" ","LANE":" ","ALLEY":" ","HOUSE_NO":"１１號十樓","E_COORD97":168464.85999999999,"N_COORD97":2545805.3599999999,"ADDRESS":"育德一街１１號十樓","OBJECTID":481027},"geometry":{"x":168464.86000000034,"y":2545805.3600000013}},{"attributes":{"ID":481053,"DIS_CODE":0,"TOWNNAME":"北區","LI":"成德里","LIN":"26鄰","STREET":"育德一街","SECT":" ","MAREA":" ","LANE":" ","ALLEY":" ","HOUSE_NO":"１３號二樓","E_COORD97":168466.29000000001,"N_COORD97":2545821.7999999998,"ADDRESS":"育德一街１３號二樓","OBJECTID":481028},"geometry":{"x":168466.29000000097,"y":2545821.8000000007}},{"attributes":{"ID":481054,"DIS_CODE":0,"TOWNNAME":"北區","LI":"成德里","LIN":"26鄰","STREET":"育德一街","SECT":" ","MAREA":" ","LANE":" ","ALLEY":" ","HOUSE_NO":"１３號三樓","E_COORD97":168466.29000000001,"N_COORD97":2545821.7999999998,"ADDRESS":"育德一街１３號三樓","OBJECTID":481029},"geometry":{"x":168466.29000000097,"y":2545821.8000000007}},{"attributes":{"ID":481055,"DIS_CODE":0,"TOWNNAME":"北區","LI":"成德里","LIN":"26鄰","STREET":"育德一街","SECT":" ","MAREA":" ","LANE":" ","ALLEY":" ","HOUSE_NO":"１３號四樓","E_COORD97":168466.29000000001,"N_COORD97":2545821.7999999998,"ADDRESS":"育德一街１３號四樓","OBJECTID":481030},"geometry":{"x":168466.29000000097,"y":2545821.8000000007}},{"attributes":{"ID":481056,"DIS_CODE":0,"TOWNNAME":"北區","LI":"成德里","LIN":"26鄰","STREET":"育德一街","SECT":" ","MAREA":" ","LANE":" ","ALLEY":" ","HOUSE_NO":"１３號五樓","E_COORD97":168466.29000000001,"N_COORD97":2545821.7999999998,"ADDRESS":"育德一街１３號五樓","OBJECTID":481031},"geometry":{"x":168466.29000000097,"y":2545821.8000000007}},{"attributes":{"ID":481057,"DIS_CODE":0,"TOWNNAME":"北區","LI":"成德里","LIN":"26鄰","STREET":"育德一街","SECT":" ","MAREA":" ","LANE":" ","ALLEY":" ","HOUSE_NO":"１３號六樓","E_COORD97":168466.29000000001,"N_COORD97":2545821.7999999998,"ADDRESS":"育德一街１３號六樓","OBJECTID":481032},"geometry":{"x":168466.29000000097,"y":2545821.8000000007}},{"attributes":{"ID":481058,"DIS_CODE":0,"TOWNNAME":"北區","LI":"成德里","LIN":"26鄰","STREET":"育德一街","SECT":" ","MAREA":" ","LANE":" ","ALLEY":" ","HOUSE_NO":"１３號七樓","E_COORD97":168466.29000000001,"N_COORD97":2545821.7999999998,"ADDRESS":"育德一街１３號七樓","OBJECTID":481033},"geometry":{"x":168466.29000000097,"y":2545821.8000000007}},{"attributes":{"ID":481059,"DIS_CODE":0,"TOWNNAME":"北區","LI":"成德里","LIN":"26鄰","STREET":"育德一街","SECT":" ","MAREA":" ","LANE":" ","ALLEY":" ","HOUSE_NO":"１３號八樓","E_COORD97":168466.29000000001,"N_COORD97":2545821.7999999998,"ADDRESS":"育德一街１３號八樓","OBJECTID":481034},"geometry":{"x":168466.29000000097,"y":2545821.8000000007}},{"attributes":{"ID":481060,"DIS_CODE":0,"TOWNNAME":"北區","LI":"成德里","LIN":"26鄰","STREET":"育德一街","SECT":" ","MAREA":" ","LANE":" ","ALLEY":" ","HOUSE_NO":"１３號九樓","E_COORD97":168466.29000000001,"N_COORD97":2545821.7999999998,"ADDRESS":"育德一街１３號九樓","OBJECTID":481035},"geometry":{"x":168466.29000000097,"y":2545821.8000000007}},{"attributes":{"ID":481061,"DIS_CODE":0,"TOWNNAME":"北區","LI":"成德里","LIN":"26鄰","STREET":"育德一街","SECT":" ","MAREA":" ","LANE":" ","ALLEY":" ","HOUSE_NO":"１３號十樓","E_COORD97":168466.29000000001,"N_COORD97":2545821.7999999998,"ADDRESS":"育德一街１３號十樓","OBJECTID":481036},"geometry":{"x":168466.29000000097,"y":2545821.8000000007}},{"attributes":{"ID":481062,"DIS_CODE":0,"TOWNNAME":"北區","LI":"成德里","LIN":"26鄰","STREET":"育德一街","SECT":" ","MAREA":" ","LANE":" ","ALLEY":" ","HOUSE_NO":"１５號二樓","E_COORD97":168451.04999999999,"N_COORD97":2545822.1099999999,"ADDRESS":"育德一街１５號二樓","OBJECTID":481037},"geometry":{"x":168451.04999999981,"y":2545822.1099999994}},{"attributes":{"ID":481063,"DIS_CODE":0,"TOWNNAME":"北區","LI":"成德里","LIN":"26鄰","STREET":"育德一街","SECT":" ","MAREA":" ","LANE":" ","ALLEY":" ","HOUSE_NO":"１５號三樓","E_COORD97":168451.04999999999,"N_COORD97":2545822.1099999999,"ADDRESS":"育德一街１５號三樓","OBJECTID":481038},"geometry":{"x":168451.04999999981,"y":2545822.1099999994}},{"attributes":{"ID":481064,"DIS_CODE":0,"TOWNNAME":"北區","LI":"成德里","LIN":"26鄰","STREET":"育德一街","SECT":" ","MAREA":" ","LANE":" ","ALLEY":" ","HOUSE_NO":"１５號四樓","E_COORD97":168451.04999999999,"N_COORD97":2545822.1099999999,"ADDRESS":"育德一街１５號四樓","OBJECTID":481039},"geometry":{"x":168451.04999999981,"y":2545822.1099999994}},{"attributes":{"ID":481065,"DIS_CODE":0,"TOWNNAME":"北區","LI":"成德里","LIN":"26鄰","STREET":"育德一街","SECT":" ","MAREA":" ","LANE":" ","ALLEY":" ","HOUSE_NO":"１５號五樓","E_COORD97":168451.04999999999,"N_COORD97":2545822.1099999999,"ADDRESS":"育德一街１５號五樓","OBJECTID":481040},"geometry":{"x":168451.04999999981,"y":2545822.1099999994}},{"attributes":{"ID":481066,"DIS_CODE":0,"TOWNNAME":"北區","LI":"成德里","LIN":"26鄰","STREET":"育德一街","SECT":" ","MAREA":" ","LANE":" ","ALLEY":" ","HOUSE_NO":"１５號六樓","E_COORD97":168451.04999999999,"N_COORD97":2545822.1099999999,"ADDRESS":"育德一街１５號六樓","OBJECTID":481041},"geometry":{"x":168451.04999999981,"y":2545822.1099999994}},{"attributes":{"ID":481067,"DIS_CODE":0,"TOWNNAME":"北區","LI":"成德里","LIN":"26鄰","STREET":"育德一街","SECT":" ","MAREA":" ","LANE":" ","ALLEY":" ","HOUSE_NO":"１５號七樓","E_COORD97":168451.04999999999,"N_COORD97":2545822.1099999999,"ADDRESS":"育德一街１５號七樓","OBJECTID":481042},"geometry":{"x":168451.04999999981,"y":2545822.1099999994}},{"attributes":{"ID":481068,"DIS_CODE":0,"TOWNNAME":"北區","LI":"成德里","LIN":"26鄰","STREET":"育德一街","SECT":" ","MAREA":" ","LANE":" ","ALLEY":" ","HOUSE_NO":"１５號八樓","E_COORD97":168451.04999999999,"N_COORD97":2545822.1099999999,"ADDRESS":"育德一街１５號八樓","OBJECTID":481043},"geometry":{"x":168451.04999999981,"y":2545822.1099999994}},{"attributes":{"ID":481069,"DIS_CODE":0,"TOWNNAME":"北區","LI":"成德里","LIN":"26鄰","STREET":"育德一街","SECT":" ","MAREA":" ","LANE":" ","ALLEY":" ","HOUSE_NO":"１５號九樓","E_COORD97":168451.04999999999,"N_COORD97":2545822.1099999999,"ADDRESS":"育德一街１５號九樓","OBJECTID":481044},"geometry":{"x":168451.04999999981,"y":2545822.1099999994}},{"attributes":{"ID":481070,"DIS_CODE":0,"TOWNNAME":"北區","LI":"成德里","LIN":"26鄰","STREET":"育德一街","SECT":" ","MAREA":" ","LANE":" ","ALLEY":" ","HOUSE_NO":"１５號十樓","E_COORD97":168451.04999999999,"N_COORD97":2545822.1099999999,"ADDRESS":"育德一街１５號十樓","OBJECTID":481045},"geometry":{"x":168451.04999999981,"y":2545822.1099999994}},{"attributes":{"ID":481071,"DIS_CODE":0,"TOWNNAME":"北區","LI":"成德里","LIN":"26鄰","STREET":"育德一街","SECT":" ","MAREA":" ","LANE":" ","ALLEY":" ","HOUSE_NO":"１７號二樓","E_COORD97":168451.67999999999,"N_COORD97":2545841.1600000001,"ADDRESS":"育德一街１７號二樓","OBJECTID":481046},"geometry":{"x":168451.6799999997,"y":2545841.160000002}},{"attributes":{"ID":481072,"DIS_CODE":0,"TOWNNAME":"北區","LI":"成德里","LIN":"26鄰","STREET":"育德一街","SECT":" ","MAREA":" ","LANE":" ","ALLEY":" ","HOUSE_NO":"１７號三樓","E_COORD97":168451.67999999999,"N_COORD97":2545841.1600000001,"ADDRESS":"育德一街１７號三樓","OBJECTID":481047},"geometry":{"x":168451.6799999997,"y":2545841.160000002}},{"attributes":{"ID":481073,"DIS_CODE":0,"TOWNNAME":"北區","LI":"成德里","LIN":"26鄰","STREET":"育德一街","SECT":" ","MAREA":" ","LANE":" ","ALLEY":" ","HOUSE_NO":"１７號四樓","E_COORD97":168451.67999999999,"N_COORD97":2545841.1600000001,"ADDRESS":"育德一街１７號四樓","OBJECTID":481048},"geometry":{"x":168451.6799999997,"y":2545841.160000002}},{"attributes":{"ID":481074,"DIS_CODE":0,"TOWNNAME":"北區","LI":"成德里","LIN":"26鄰","STREET":"育德一街","SECT":" ","MAREA":" ","LANE":" ","ALLEY":" ","HOUSE_NO":"１７號五樓","E_COORD97":168451.67999999999,"N_COORD97":2545841.1600000001,"ADDRESS":"育德一街１７號五樓","OBJECTID":481049},"geometry":{"x":168451.6799999997,"y":2545841.160000002}},{"attributes":{"ID":481075,"DIS_CODE":0,"TOWNNAME":"北區","LI":"成德里","LIN":"26鄰","STREET":"育德一街","SECT":" ","MAREA":" ","LANE":" ","ALLEY":" ","HOUSE_NO":"１７號六樓","E_COORD97":168451.67999999999,"N_COORD97":2545841.1600000001,"ADDRESS":"育德一街１７號六樓","OBJECTID":481050},"geometry":{"x":168451.6799999997,"y":2545841.160000002}},{"attributes":{"ID":481076,"DIS_CODE":0,"TOWNNAME":"北區","LI":"成德里","LIN":"26鄰","STREET":"育德一街","SECT":" ","MAREA":" ","LANE":" ","ALLEY":" ","HOUSE_NO":"１７號七樓","E_COORD97":168451.67999999999,"N_COORD97":2545841.1600000001,"ADDRESS":"育德一街１７號七樓","OBJECTID":481051},"geometry":{"x":168451.6799999997,"y":2545841.160000002}},{"attributes":{"ID":481077,"DIS_CODE":0,"TOWNNAME":"北區","LI":"成德里","LIN":"26鄰","STREET":"育德一街","SECT":" ","MAREA":" ","LANE":" ","ALLEY":" ","HOUSE_NO":"１７號八樓","E_COORD97":168451.67999999999,"N_COORD97":2545841.1600000001,"ADDRESS":"育德一街１７號八樓","OBJECTID":481052},"geometry":{"x":168451.6799999997,"y":2545841.160000002}},{"attributes":{"ID":481078,"DIS_CODE":0,"TOWNNAME":"北區","LI":"成德里","LIN":"26鄰","STREET":"育德一街","SECT":" ","MAREA":" ","LANE":" ","ALLEY":" ","HOUSE_NO":"１７號九樓","E_COORD97":168451.67999999999,"N_COORD97":2545841.1600000001,"ADDRESS":"育德一街１７號九樓","OBJECTID":481053},"geometry":{"x":168451.6799999997,"y":2545841.160000002}},{"attributes":{"ID":481079,"DIS_CODE":0,"TOWNNAME":"北區","LI":"成德里","LIN":"26鄰","STREET":"育德一街","SECT":" ","MAREA":" ","LANE":" ","ALLEY":" ","HOUSE_NO":"１７號十樓","E_COORD97":168451.67999999999,"N_COORD97":2545841.1600000001,"ADDRESS":"育德一街１７號十樓","OBJECTID":481054},"geometry":{"x":168451.6799999997,"y":2545841.160000002}},{"attributes":{"ID":481080,"DIS_CODE":0,"TOWNNAME":"北區","LI":"成德里","LIN":"26鄰","STREET":"育德一街","SECT":" ","MAREA":" ","LANE":" ","ALLEY":" ","HOUSE_NO":"１９號二樓","E_COORD97":168466.92000000001,"N_COORD97":2545839.8900000001,"ADDRESS":"育德一街１９號二樓","OBJECTID":481055},"geometry":{"x":168466.92000000086,"y":2545839.8900000025}},{"attributes":{"ID":481081,"DIS_CODE":0,"TOWNNAME":"北區","LI":"成德里","LIN":"26鄰","STREET":"育德一街","SECT":" ","MAREA":" ","LANE":" ","ALLEY":" ","HOUSE_NO":"１９號三樓","E_COORD97":168466.92000000001,"N_COORD97":2545839.8900000001,"ADDRESS":"育德一街１９號三樓","OBJECTID":481056},"geometry":{"x":168466.92000000086,"y":2545839.8900000025}},{"attributes":{"ID":481082,"DIS_CODE":0,"TOWNNAME":"北區","LI":"成德里","LIN":"26鄰","STREET":"育德一街","SECT":" ","MAREA":" ","LANE":" ","ALLEY":" ","HOUSE_NO":"１９號四樓","E_COORD97":168466.92000000001,"N_COORD97":2545839.8900000001,"ADDRESS":"育德一街１９號四樓","OBJECTID":481057},"geometry":{"x":168466.92000000086,"y":2545839.8900000025}},{"attributes":{"ID":481083,"DIS_CODE":0,"TOWNNAME":"北區","LI":"成德里","LIN":"26鄰","STREET":"育德一街","SECT":" ","MAREA":" ","LANE":" ","ALLEY":" ","HOUSE_NO":"１９號五樓","E_COORD97":168466.92000000001,"N_COORD97":2545839.8900000001,"ADDRESS":"育德一街１９號五樓","OBJECTID":481058},"geometry":{"x":168466.92000000086,"y":2545839.8900000025}},{"attributes":{"ID":481084,"DIS_CODE":0,"TOWNNAME":"北區","LI":"成德里","LIN":"26鄰","STREET":"育德一街","SECT":" ","MAREA":" ","LANE":" ","ALLEY":" ","HOUSE_NO":"１９號六樓","E_COORD97":168466.92000000001,"N_COORD97":2545839.8900000001,"ADDRESS":"育德一街１９號六樓","OBJECTID":481059},"geometry":{"x":168466.92000000086,"y":2545839.8900000025}},{"attributes":{"ID":481085,"DIS_CODE":0,"TOWNNAME":"北區","LI":"成德里","LIN":"26鄰","STREET":"育德一街","SECT":" ","MAREA":" ","LANE":" ","ALLEY":" ","HOUSE_NO":"１９號七樓","E_COORD97":168466.92000000001,"N_COORD97":2545839.8900000001,"ADDRESS":"育德一街１９號七樓","OBJECTID":481060},"geometry":{"x":168466.92000000086,"y":2545839.8900000025}},{"attributes":{"ID":481086,"DIS_CODE":0,"TOWNNAME":"北區","LI":"成德里","LIN":"26鄰","STREET":"育德一街","SECT":" ","MAREA":" ","LANE":" ","ALLEY":" ","HOUSE_NO":"１９號八樓","E_COORD97":168466.92000000001,"N_COORD97":2545839.8900000001,"ADDRESS":"育德一街１９號八樓","OBJECTID":481061},"geometry":{"x":168466.92000000086,"y":2545839.8900000025}},{"attributes":{"ID":481087,"DIS_CODE":0,"TOWNNAME":"北區","LI":"成德里","LIN":"26鄰","STREET":"育德一街","SECT":" ","MAREA":" ","LANE":" ","ALLEY":" ","HOUSE_NO":"１９號九樓","E_COORD97":168466.92000000001,"N_COORD97":2545839.8900000001,"ADDRESS":"育德一街１９號九樓","OBJECTID":481062},"geometry":{"x":168466.92000000086,"y":2545839.8900000025}},{"attributes":{"ID":481088,"DIS_CODE":0,"TOWNNAME":"北區","LI":"成德里","LIN":"26鄰","STREET":"育德一街","SECT":" ","MAREA":" ","LANE":" ","ALLEY":" ","HOUSE_NO":"７號七樓","E_COORD97":168449.62,"N_COORD97":2545787.8999999999,"ADDRESS":"育德一街７號七樓","OBJECTID":481063},"geometry":{"x":168449.62000000011,"y":2545787.9000000004}},{"attributes":{"ID":481089,"DIS_CODE":0,"TOWNNAME":"北區","LI":"成德里","LIN":"26鄰","STREET":"育德一街","SECT":" ","MAREA":" ","LANE":" ","ALLEY":" ","HOUSE_NO":"１９號十樓","E_COORD97":168466.92000000001,"N_COORD97":2545839.8900000001,"ADDRESS":"育德一街１９號十樓","OBJECTID":481064},"geometry":{"x":168466.92000000086,"y":2545839.8900000025}},{"attributes":{"ID":481090,"DIS_CODE":0,"TOWNNAME":"北區","LI":"成德里","LIN":"26鄰","STREET":"育德一街","SECT":" ","MAREA":" ","LANE":" ","ALLEY":" ","HOUSE_NO":"１號三樓","E_COORD97":168494.70000000001,"N_COORD97":2545784.4100000001,"ADDRESS":"育德一街１號三樓","OBJECTID":481065},"geometry":{"x":168494.70000000019,"y":2545784.4099999983}},{"attributes":{"ID":481091,"DIS_CODE":0,"TOWNNAME":"北區","LI":"成德里","LIN":"26鄰","STREET":"育德一街","SECT":" ","MAREA":" ","LANE":" ","ALLEY":" ","HOUSE_NO":"１號四樓","E_COORD97":168494.70000000001,"N_COORD97":2545784.4100000001,"ADDRESS":"育德一街１號四樓","OBJECTID":481066},"geometry":{"x":168494.70000000019,"y":2545784.4099999983}},{"attributes":{"ID":481092,"DIS_CODE":0,"TOWNNAME":"北區","LI":"成德里","LIN":"26鄰","STREET":"育德一街","SECT":" ","MAREA":" ","LANE":" ","ALLEY":" ","HOUSE_NO":"１號五樓","E_COORD97":168494.70000000001,"N_COORD97":2545784.4100000001,"ADDRESS":"育德一街１號五樓","OBJECTID":481067},"geometry":{"x":168494.70000000019,"y":2545784.4099999983}},{"attributes":{"ID":481093,"DIS_CODE":0,"TOWNNAME":"北區","LI":"成德里","LIN":"26鄰","STREET":"育德一街","SECT":" ","MAREA":" ","LANE":" ","ALLEY":" ","HOUSE_NO":"１號六樓","E_COORD97":168494.70000000001,"N_COORD97":2545784.4100000001,"ADDRESS":"育德一街１號六樓","OBJECTID":481068},"geometry":{"x":168494.70000000019,"y":2545784.4099999983}},{"attributes":{"ID":481094,"DIS_CODE":0,"TOWNNAME":"北區","LI":"成德里","LIN":"26鄰","STREET":"育德一街","SECT":" ","MAREA":" ","LANE":" ","ALLEY":" ","HOUSE_NO":"１號七樓","E_COORD97":168494.70000000001,"N_COORD97":2545784.4100000001,"ADDRESS":"育德一街１號七樓","OBJECTID":481069},"geometry":{"x":168494.70000000019,"y":2545784.4099999983}},{"attributes":{"ID":481095,"DIS_CODE":0,"TOWNNAME":"北區","LI":"成德里","LIN":"26鄰","STREET":"育德一街","SECT":" ","MAREA":" ","LANE":" ","ALLEY":" ","HOUSE_NO":"１號八樓","E_COORD97":168494.70000000001,"N_COORD97":2545784.4100000001,"ADDRESS":"育德一街１號八樓","OBJECTID":481070},"geometry":{"x":168494.70000000019,"y":2545784.4099999983}},{"attributes":{"ID":481096,"DIS_CODE":0,"TOWNNAME":"北區","LI":"成德里","LIN":"26鄰","STREET":"育德一街","SECT":" ","MAREA":" ","LANE":" ","ALLEY":" ","HOUSE_NO":"１號九樓","E_COORD97":168494.70000000001,"N_COORD97":2545784.4100000001,"ADDRESS":"育德一街１號九樓","OBJECTID":481071},"geometry":{"x":168494.70000000019,"y":2545784.4099999983}},{"attributes":{"ID":481097,"DIS_CODE":0,"TOWNNAME":"北區","LI":"成德里","LIN":"26鄰","STREET":"育德一街","SECT":" ","MAREA":" ","LANE":" ","ALLEY":" ","HOUSE_NO":"１號十樓","E_COORD97":168494.70000000001,"N_COORD97":2545784.4100000001,"ADDRESS":"育德一街１號十樓","OBJECTID":481072},"geometry":{"x":168494.70000000019,"y":2545784.4099999983}},{"attributes":{"ID":481098,"DIS_CODE":0,"TOWNNAME":"北區","LI":"和順里","LIN":"39鄰","STREET":"公園南路","SECT":" ","MAREA":" ","LANE":" ","ALLEY":" ","HOUSE_NO":"３７６號","E_COORD97":168163.20999999999,"N_COORD97":2544877.04,"ADDRESS":"公園南路３７６號","OBJECTID":481073},"geometry":{"x":168163.21000000089,"y":2544877.0399999991}},{"attributes":{"ID":481099,"DIS_CODE":0,"TOWNNAME":"北區","LI":"成德里","LIN":"26鄰","STREET":"育德一街","SECT":" ","MAREA":" ","LANE":" ","ALLEY":" ","HOUSE_NO":"２１號二樓","E_COORD97":168483.26999999999,"N_COORD97":2545839.02,"ADDRESS":"育德一街２１號二樓","OBJECTID":481074},"geometry":{"x":168483.26999999955,"y":2545839.0200000014}},{"attributes":{"ID":481100,"DIS_CODE":0,"TOWNNAME":"北區","LI":"成德里","LIN":"26鄰","STREET":"育德一街","SECT":" ","MAREA":" ","LANE":" ","ALLEY":" ","HOUSE_NO":"２１號三樓","E_COORD97":168483.26999999999,"N_COORD97":2545839.02,"ADDRESS":"育德一街２１號三樓","OBJECTID":481075},"geometry":{"x":168483.26999999955,"y":2545839.0200000014}},{"attributes":{"ID":481101,"DIS_CODE":0,"TOWNNAME":"北區","LI":"成德里","LIN":"26鄰","STREET":"育德一街","SECT":" ","MAREA":" ","LANE":" ","ALLEY":" ","HOUSE_NO":"２１號四樓","E_COORD97":168483.26999999999,"N_COORD97":2545839.02,"ADDRESS":"育德一街２１號四樓","OBJECTID":481076},"geometry":{"x":168483.26999999955,"y":2545839.0200000014}},{"attributes":{"ID":481102,"DIS_CODE":0,"TOWNNAME":"北區","LI":"成德里","LIN":"26鄰","STREET":"育德一街","SECT":" ","MAREA":" ","LANE":" ","ALLEY":" ","HOUSE_NO":"２１號五樓","E_COORD97":168483.26999999999,"N_COORD97":2545839.02,"ADDRESS":"育德一街２１號五樓","OBJECTID":481077},"geometry":{"x":168483.26999999955,"y":2545839.0200000014}},{"attributes":{"ID":481103,"DIS_CODE":0,"TOWNNAME":"北區","LI":"成德里","LIN":"26鄰","STREET":"育德一街","SECT":" ","MAREA":" ","LANE":" ","ALLEY":" ","HOUSE_NO":"２１號六樓","E_COORD97":168483.26999999999,"N_COORD97":2545839.02,"ADDRESS":"育德一街２１號六樓","OBJECTID":481078},"geometry":{"x":168483.26999999955,"y":2545839.0200000014}},{"attributes":{"ID":481104,"DIS_CODE":0,"TOWNNAME":"北區","LI":"成德里","LIN":"26鄰","STREET":"育德一街","SECT":" ","MAREA":" ","LANE":" ","ALLEY":" ","HOUSE_NO":"２１號七樓","E_COORD97":168483.26999999999,"N_COORD97":2545839.02,"ADDRESS":"育德一街２１號七樓","OBJECTID":481079},"geometry":{"x":168483.26999999955,"y":2545839.0200000014}},{"attributes":{"ID":481105,"DIS_CODE":0,"TOWNNAME":"北區","LI":"成德里","LIN":"26鄰","STREET":"育德一街","SECT":" ","MAREA":" ","LANE":" ","ALLEY":" ","HOUSE_NO":"２１號八樓","E_COORD97":168483.26999999999,"N_COORD97":2545839.02,"ADDRESS":"育德一街２１號八樓","OBJECTID":481080},"geometry":{"x":168483.26999999955,"y":2545839.0200000014}},{"attributes":{"ID":481106,"DIS_CODE":0,"TOWNNAME":"北區","LI":"成德里","LIN":"26鄰","STREET":"育德一街","SECT":" ","MAREA":" ","LANE":" ","ALLEY":" ","HOUSE_NO":"２１號九樓","E_COORD97":168483.26999999999,"N_COORD97":2545839.02,"ADDRESS":"育德一街２１號九樓","OBJECTID":481081},"geometry":{"x":168483.26999999955,"y":2545839.0200000014}},{"attributes":{"ID":481107,"DIS_CODE":0,"TOWNNAME":"北區","LI":"成德里","LIN":"26鄰","STREET":"育德一街","SECT":" ","MAREA":" ","LANE":" ","ALLEY":" ","HOUSE_NO":"２１號十樓","E_COORD97":168483.26999999999,"N_COORD97":2545839.02,"ADDRESS":"育德一街２１號十樓","OBJECTID":481082},"geometry":{"x":168483.26999999955,"y":2545839.0200000014}},{"attributes":{"ID":481108,"DIS_CODE":0,"TOWNNAME":"北區","LI":"成德里","LIN":"26鄰","STREET":"育德一街","SECT":" ","MAREA":" ","LANE":" ","ALLEY":" ","HOUSE_NO":"２３號二樓","E_COORD97":168499.14999999999,"N_COORD97":2545837.1099999999,"ADDRESS":"育德一街２３號二樓","OBJECTID":481083},"geometry":{"x":168499.15000000224,"y":2545837.1100000013}},{"attributes":{"ID":481109,"DIS_CODE":0,"TOWNNAME":"北區","LI":"成德里","LIN":"26鄰","STREET":"育德一街","SECT":" ","MAREA":" ","LANE":" ","ALLEY":" ","HOUSE_NO":"２３號三樓","E_COORD97":168499.14999999999,"N_COORD97":2545837.1099999999,"ADDRESS":"育德一街２３號三樓","OBJECTID":481084},"geometry":{"x":168499.15000000224,"y":2545837.1100000013}},{"attributes":{"ID":481110,"DIS_CODE":0,"TOWNNAME":"北區","LI":"成德里","LIN":"26鄰","STREET":"育德一街","SECT":" ","MAREA":" ","LANE":" ","ALLEY":" ","HOUSE_NO":"２３號四樓","E_COORD97":168499.14999999999,"N_COORD97":2545837.1099999999,"ADDRESS":"育德一街２３號四樓","OBJECTID":481085},"geometry":{"x":168499.15000000224,"y":2545837.1100000013}},{"attributes":{"ID":481111,"DIS_CODE":0,"TOWNNAME":"北區","LI":"成德里","LIN":"26鄰","STREET":"育德一街","SECT":" ","MAREA":" ","LANE":" ","ALLEY":" ","HOUSE_NO":"２３號五樓","E_COORD97":168499.14999999999,"N_COORD97":2545837.1099999999,"ADDRESS":"育德一街２３號五樓","OBJECTID":481086},"geometry":{"x":168499.15000000224,"y":2545837.1100000013}},{"attributes":{"ID":481112,"DIS_CODE":0,"TOWNNAME":"北區","LI":"成德里","LIN":"26鄰","STREET":"育德一街","SECT":" ","MAREA":" ","LANE":" ","ALLEY":" ","HOUSE_NO":"２３號六樓","E_COORD97":168499.14999999999,"N_COORD97":2545837.1099999999,"ADDRESS":"育德一街２３號六樓","OBJECTID":481087},"geometry":{"x":168499.15000000224,"y":2545837.1100000013}},{"attributes":{"ID":481113,"DIS_CODE":0,"TOWNNAME":"北區","LI":"成德里","LIN":"26鄰","STREET":"育德一街","SECT":" ","MAREA":" ","LANE":" ","ALLEY":" ","HOUSE_NO":"２３號七樓","E_COORD97":168499.14999999999,"N_COORD97":2545837.1099999999,"ADDRESS":"育德一街２３號七樓","OBJECTID":481088},"geometry":{"x":168499.15000000224,"y":2545837.1100000013}},{"attributes":{"ID":481114,"DIS_CODE":0,"TOWNNAME":"北區","LI":"成德里","LIN":"26鄰","STREET":"育德一街","SECT":" ","MAREA":" ","LANE":" ","ALLEY":" ","HOUSE_NO":"２３號八樓","E_COORD97":168499.14999999999,"N_COORD97":2545837.1099999999,"ADDRESS":"育德一街２３號八樓","OBJECTID":481089},"geometry":{"x":168499.15000000224,"y":2545837.1100000013}},{"attributes":{"ID":481115,"DIS_CODE":0,"TOWNNAME":"北區","LI":"成德里","LIN":"26鄰","STREET":"育德一街","SECT":" ","MAREA":" ","LANE":" ","ALLEY":" ","HOUSE_NO":"２３號九樓","E_COORD97":168499.14999999999,"N_COORD97":2545837.1099999999,"ADDRESS":"育德一街２３號九樓","OBJECTID":481090},"geometry":{"x":168499.15000000224,"y":2545837.1100000013}},{"attributes":{"ID":481116,"DIS_CODE":0,"TOWNNAME":"北區","LI":"成德里","LIN":"26鄰","STREET":"育德一街","SECT":" ","MAREA":" ","LANE":" ","ALLEY":" ","HOUSE_NO":"２３號十樓","E_COORD97":168499.14999999999,"N_COORD97":2545837.1099999999,"ADDRESS":"育德一街２３號十樓","OBJECTID":481091},"geometry":{"x":168499.15000000224,"y":2545837.1100000013}},{"attributes":{"ID":481117,"DIS_CODE":0,"TOWNNAME":"北區","LI":"成德里","LIN":"26鄰","STREET":"育德一街","SECT":" ","MAREA":" ","LANE":" ","ALLEY":" ","HOUSE_NO":"５號二樓","E_COORD97":168463.89999999999,"N_COORD97":2545787.5800000001,"ADDRESS":"育德一街５號二樓","OBJECTID":481092},"geometry":{"x":168463.9000000013,"y":2545787.5800000019}},{"attributes":{"ID":481118,"DIS_CODE":0,"TOWNNAME":"北區","LI":"成德里","LIN":"26鄰","STREET":"育德一街","SECT":" ","MAREA":" ","LANE":" ","ALLEY":" ","HOUSE_NO":"５號三樓","E_COORD97":168463.89999999999,"N_COORD97":2545787.5800000001,"ADDRESS":"育德一街５號三樓","OBJECTID":481093},"geometry":{"x":168463.9000000013,"y":2545787.5800000019}},{"attributes":{"ID":481119,"DIS_CODE":0,"TOWNNAME":"北區","LI":"成德里","LIN":"26鄰","STREET":"育德一街","SECT":" ","MAREA":" ","LANE":" ","ALLEY":" ","HOUSE_NO":"５號四樓","E_COORD97":168463.89999999999,"N_COORD97":2545787.5800000001,"ADDRESS":"育德一街５號四樓","OBJECTID":481094},"geometry":{"x":168463.9000000013,"y":2545787.5800000019}},{"attributes":{"ID":481120,"DIS_CODE":0,"TOWNNAME":"北區","LI":"成德里","LIN":"26鄰","STREET":"育德一街","SECT":" ","MAREA":" ","LANE":" ","ALLEY":" ","HOUSE_NO":"５號五樓","E_COORD97":168463.89999999999,"N_COORD97":2545787.5800000001,"ADDRESS":"育德一街５號五樓","OBJECTID":481095},"geometry":{"x":168463.9000000013,"y":2545787.5800000019}},{"attributes":{"ID":481121,"DIS_CODE":0,"TOWNNAME":"北區","LI":"成德里","LIN":"26鄰","STREET":"育德一街","SECT":" ","MAREA":" ","LANE":" ","ALLEY":" ","HOUSE_NO":"５號七樓","E_COORD97":168463.89999999999,"N_COORD97":2545787.5800000001,"ADDRESS":"育德一街５號七樓","OBJECTID":481096},"geometry":{"x":168463.9000000013,"y":2545787.5800000019}},{"attributes":{"ID":481122,"DIS_CODE":0,"TOWNNAME":"北區","LI":"成德里","LIN":"26鄰","STREET":"育德一街","SECT":" ","MAREA":" ","LANE":" ","ALLEY":" ","HOUSE_NO":"５號八樓","E_COORD97":168463.89999999999,"N_COORD97":2545787.5800000001,"ADDRESS":"育德一街５號八樓","OBJECTID":481097},"geometry":{"x":168463.9000000013,"y":2545787.5800000019}},{"attributes":{"ID":481123,"DIS_CODE":0,"TOWNNAME":"北區","LI":"成德里","LIN":"26鄰","STREET":"育德一街","SECT":" ","MAREA":" ","LANE":" ","ALLEY":" ","HOUSE_NO":"５號九樓","E_COORD97":168463.89999999999,"N_COORD97":2545787.5800000001,"ADDRESS":"育德一街５號九樓","OBJECTID":481098},"geometry":{"x":168463.9000000013,"y":2545787.5800000019}},{"attributes":{"ID":481124,"DIS_CODE":0,"TOWNNAME":"北區","LI":"成德里","LIN":"26鄰","STREET":"育德一街","SECT":" ","MAREA":" ","LANE":" ","ALLEY":" ","HOUSE_NO":"５號十樓","E_COORD97":168463.89999999999,"N_COORD97":2545787.5800000001,"ADDRESS":"育德一街５號十樓","OBJECTID":481099},"geometry":{"x":168463.9000000013,"y":2545787.5800000019}},{"attributes":{"ID":481125,"DIS_CODE":0,"TOWNNAME":"北區","LI":"成德里","LIN":"26鄰","STREET":"育德一街","SECT":" ","MAREA":" ","LANE":" ","ALLEY":" ","HOUSE_NO":"７號二樓","E_COORD97":168449.62,"N_COORD97":2545787.8999999999,"ADDRESS":"育德一街７號二樓","OBJECTID":481100},"geometry":{"x":168449.62000000011,"y":2545787.9000000004}},{"attributes":{"ID":481126,"DIS_CODE":0,"TOWNNAME":"北區","LI":"成德里","LIN":"26鄰","STREET":"育德一街","SECT":" ","MAREA":" ","LANE":" ","ALLEY":" ","HOUSE_NO":"７號三樓","E_COORD97":168449.62,"N_COORD97":2545787.8999999999,"ADDRESS":"育德一街７號三樓","OBJECTID":481101},"geometry":{"x":168449.62000000011,"y":2545787.9000000004}},{"attributes":{"ID":481127,"DIS_CODE":0,"TOWNNAME":"北區","LI":"成德里","LIN":"26鄰","STREET":"育德一街","SECT":" ","MAREA":" ","LANE":" ","ALLEY":" ","HOUSE_NO":"７號四樓","E_COORD97":168449.62,"N_COORD97":2545787.8999999999,"ADDRESS":"育德一街７號四樓","OBJECTID":481102},"geometry":{"x":168449.62000000011,"y":2545787.9000000004}},{"attributes":{"ID":481128,"DIS_CODE":0,"TOWNNAME":"北區","LI":"成德里","LIN":"26鄰","STREET":"育德一街","SECT":" ","MAREA":" ","LANE":" ","ALLEY":" ","HOUSE_NO":"７號五樓","E_COORD97":168449.62,"N_COORD97":2545787.8999999999,"ADDRESS":"育德一街７號五樓","OBJECTID":481103},"geometry":{"x":168449.62000000011,"y":2545787.9000000004}},{"attributes":{"ID":481129,"DIS_CODE":0,"TOWNNAME":"北區","LI":"成德里","LIN":"26鄰","STREET":"育德一街","SECT":" ","MAREA":" ","LANE":" ","ALLEY":" ","HOUSE_NO":"７號八樓","E_COORD97":168449.62,"N_COORD97":2545787.8999999999,"ADDRESS":"育德一街７號八樓","OBJECTID":481104},"geometry":{"x":168449.62000000011,"y":2545787.9000000004}},{"attributes":{"ID":481130,"DIS_CODE":0,"TOWNNAME":"北區","LI":"成德里","LIN":"26鄰","STREET":"育德一街","SECT":" ","MAREA":" ","LANE":" ","ALLEY":" ","HOUSE_NO":"７號九樓","E_COORD97":168449.62,"N_COORD97":2545787.8999999999,"ADDRESS":"育德一街７號九樓","OBJECTID":481105},"geometry":{"x":168449.62000000011,"y":2545787.9000000004}},{"attributes":{"ID":481131,"DIS_CODE":0,"TOWNNAME":"北區","LI":"成德里","LIN":"26鄰","STREET":"育德一街","SECT":" ","MAREA":" ","LANE":" ","ALLEY":" ","HOUSE_NO":"７號十樓","E_COORD97":168449.62,"N_COORD97":2545787.8999999999,"ADDRESS":"育德一街７號十樓","OBJECTID":481106},"geometry":{"x":168449.62000000011,"y":2545787.9000000004}},{"attributes":{"ID":481132,"DIS_CODE":0,"TOWNNAME":"安平區","LI":"育平里","LIN":"26鄰","STREET":"郡平路","SECT":" ","MAREA":" ","LANE":" ","ALLEY":" ","HOUSE_NO":"１８１號七樓之２２","E_COORD97":164638.45000000001,"N_COORD97":2543300.3100000001,"ADDRESS":"郡平路１８１號七樓之２２","OBJECTID":481107},"geometry":{"x":164638.45000000019,"y":2543300.3099999987}},{"attributes":{"ID":481133,"DIS_CODE":0,"TOWNNAME":"安平區","LI":"育平里","LIN":"26鄰","STREET":"郡平路","SECT":" ","MAREA":" ","LANE":" ","ALLEY":" ","HOUSE_NO":"１８１號七樓之２３","E_COORD97":164638.45000000001,"N_COORD97":2543300.3100000001,"ADDRESS":"郡平路１８１號七樓之２３","OBJECTID":481108},"geometry":{"x":164638.45000000019,"y":2543300.3099999987}},{"attributes":{"ID":481134,"DIS_CODE":0,"TOWNNAME":"安平區","LI":"育平里","LIN":"26鄰","STREET":"郡平路","SECT":" ","MAREA":" ","LANE":" ","ALLEY":" ","HOUSE_NO":"１８１號七樓之２４","E_COORD97":164638.45000000001,"N_COORD97":2543300.3100000001,"ADDRESS":"郡平路１８１號七樓之２４","OBJECTID":481109},"geometry":{"x":164638.45000000019,"y":2543300.3099999987}},{"attributes":{"ID":481135,"DIS_CODE":0,"TOWNNAME":"安平區","LI":"育平里","LIN":"26鄰","STREET":"郡平路","SECT":" ","MAREA":" ","LANE":" ","ALLEY":" ","HOUSE_NO":"１８１號七樓之２５","E_COORD97":164638.45000000001,"N_COORD97":2543300.3100000001,"ADDRESS":"郡平路１８１號七樓之２５","OBJECTID":481110},"geometry":{"x":164638.45000000019,"y":2543300.3099999987}},{"attributes":{"ID":481136,"DIS_CODE":0,"TOWNNAME":"安平區","LI":"育平里","LIN":"26鄰","STREET":"郡平路","SECT":" ","MAREA":" ","LANE":" ","ALLEY":" ","HOUSE_NO":"１８１號七樓之２６","E_COORD97":164638.45000000001,"N_COORD97":2543300.3100000001,"ADDRESS":"郡平路１８１號七樓之２６","OBJECTID":481111},"geometry":{"x":164638.45000000019,"y":2543300.3099999987}},{"attributes":{"ID":481137,"DIS_CODE":0,"TOWNNAME":"安平區","LI":"育平里","LIN":"26鄰","STREET":"郡平路","SECT":" ","MAREA":" ","LANE":" ","ALLEY":" ","HOUSE_NO":"１８１號七樓之２７","E_COORD97":164638.45000000001,"N_COORD97":2543300.3100000001,"ADDRESS":"郡平路１８１號七樓之２７","OBJECTID":481112},"geometry":{"x":164638.45000000019,"y":2543300.3099999987}},{"attributes":{"ID":481138,"DIS_CODE":0,"TOWNNAME":"安平區","LI":"育平里","LIN":"26鄰","STREET":"郡平路","SECT":" ","MAREA":" ","LANE":" ","ALLEY":" ","HOUSE_NO":"１８１號九樓之２０","E_COORD97":164638.45000000001,"N_COORD97":2543300.3100000001,"ADDRESS":"郡平路１８１號九樓之２０","OBJECTID":481113},"geometry":{"x":164638.45000000019,"y":2543300.3099999987}},{"attributes":{"ID":481139,"DIS_CODE":0,"TOWNNAME":"安平區","LI":"育平里","LIN":"26鄰","STREET":"郡平路","SECT":" ","MAREA":" ","LANE":" ","ALLEY":" ","HOUSE_NO":"１８１號九樓之２１","E_COORD97":164638.45000000001,"N_COORD97":2543300.3100000001,"ADDRESS":"郡平路１８１號九樓之２１","OBJECTID":481114},"geometry":{"x":164638.45000000019,"y":2543300.3099999987}},{"attributes":{"ID":481140,"DIS_CODE":0,"TOWNNAME":"安平區","LI":"育平里","LIN":"26鄰","STREET":"郡平路","SECT":" ","MAREA":" ","LANE":" ","ALLEY":" ","HOUSE_NO":"１８１號九樓之２２","E_COORD97":164638.45000000001,"N_COORD97":2543300.3100000001,"ADDRESS":"郡平路１８１號九樓之２２","OBJECTID":481115},"geometry":{"x":164638.45000000019,"y":2543300.3099999987}},{"attributes":{"ID":481141,"DIS_CODE":0,"TOWNNAME":"安平區","LI":"育平里","LIN":"26鄰","STREET":"郡平路","SECT":" ","MAREA":" ","LANE":" ","ALLEY":" ","HOUSE_NO":"１８１號九樓之２３","E_COORD97":164638.45000000001,"N_COORD97":2543300.3100000001,"ADDRESS":"郡平路１８１號九樓之２３","OBJECTID":481116},"geometry":{"x":164638.45000000019,"y":2543300.3099999987}},{"attributes":{"ID":481142,"DIS_CODE":0,"TOWNNAME":"安平區","LI":"育平里","LIN":"26鄰","STREET":"郡平路","SECT":" ","MAREA":" ","LANE":" ","ALLEY":" ","HOUSE_NO":"１８１號九樓之２４","E_COORD97":164638.45000000001,"N_COORD97":2543300.3100000001,"ADDRESS":"郡平路１８１號九樓之２４","OBJECTID":481117},"geometry":{"x":164638.45000000019,"y":2543300.3099999987}},{"attributes":{"ID":481143,"DIS_CODE":0,"TOWNNAME":"安平區","LI":"育平里","LIN":"26鄰","STREET":"郡平路","SECT":" ","MAREA":" ","LANE":" ","ALLEY":" ","HOUSE_NO":"１８１號九樓之２５","E_COORD97":164638.45000000001,"N_COORD97":2543300.3100000001,"ADDRESS":"郡平路１８１號九樓之２５","OBJECTID":481118},"geometry":{"x":164638.45000000019,"y":2543300.3099999987}},{"attributes":{"ID":481144,"DIS_CODE":0,"TOWNNAME":"安平區","LI":"育平里","LIN":"26鄰","STREET":"郡平路","SECT":" ","MAREA":" ","LANE":" ","ALLEY":" ","HOUSE_NO":"１８１號九樓之２６","E_COORD97":164638.45000000001,"N_COORD97":2543300.3100000001,"ADDRESS":"郡平路１８１號九樓之２６","OBJECTID":481119},"geometry":{"x":164638.45000000019,"y":2543300.3099999987}},{"attributes":{"ID":481145,"DIS_CODE":0,"TOWNNAME":"安平區","LI":"育平里","LIN":"26鄰","STREET":"郡平路","SECT":" ","MAREA":" ","LANE":" ","ALLEY":" ","HOUSE_NO":"１８１號九樓之２７","E_COORD97":164638.45000000001,"N_COORD97":2543300.3100000001,"ADDRESS":"郡平路１８１號九樓之２７","OBJECTID":481120},"geometry":{"x":164638.45000000019,"y":2543300.3099999987}},{"attributes":{"ID":481146,"DIS_CODE":0,"TOWNNAME":"安平區","LI":"育平里","LIN":"26鄰","STREET":"郡平路","SECT":" ","MAREA":" ","LANE":" ","ALLEY":" ","HOUSE_NO":"１８１號二樓之２","E_COORD97":164638.45000000001,"N_COORD97":2543300.3100000001,"ADDRESS":"郡平路１８１號二樓之２","OBJECTID":481121},"geometry":{"x":164638.45000000019,"y":2543300.3099999987}},{"attributes":{"ID":481147,"DIS_CODE":0,"TOWNNAME":"安平區","LI":"育平里","LIN":"26鄰","STREET":"郡平路","SECT":" ","MAREA":" ","LANE":" ","ALLEY":" ","HOUSE_NO":"１８１號二樓之３","E_COORD97":164638.45000000001,"N_COORD97":2543300.3100000001,"ADDRESS":"郡平路１８１號二樓之３","OBJECTID":481122},"geometry":{"x":164638.45000000019,"y":2543300.3099999987}},{"attributes":{"ID":481148,"DIS_CODE":0,"TOWNNAME":"安平區","LI":"育平里","LIN":"26鄰","STREET":"郡平路","SECT":" ","MAREA":" ","LANE":" ","ALLEY":" ","HOUSE_NO":"１８１號八樓之２０","E_COORD97":164638.45000000001,"N_COORD97":2543300.3100000001,"ADDRESS":"郡平路１８１號八樓之２０","OBJECTID":481123},"geometry":{"x":164638.45000000019,"y":2543300.3099999987}},{"attributes":{"ID":481149,"DIS_CODE":0,"TOWNNAME":"安平區","LI":"育平里","LIN":"26鄰","STREET":"郡平路","SECT":" ","MAREA":" ","LANE":" ","ALLEY":" ","HOUSE_NO":"１８１號八樓之２１","E_COORD97":164638.45000000001,"N_COORD97":2543300.3100000001,"ADDRESS":"郡平路１８１號八樓之２１","OBJECTID":481124},"geometry":{"x":164638.45000000019,"y":2543300.3099999987}},{"attributes":{"ID":481150,"DIS_CODE":0,"TOWNNAME":"佳里區","LI":"六安里","LIN":"26鄰","STREET":"林園街","SECT":" ","MAREA":" ","LANE":" ","ALLEY":" ","HOUSE_NO":"１８６號","E_COORD97":165601.62,"N_COORD97":2562904.5600000001,"ADDRESS":"林園街１８６號","OBJECTID":481125},"geometry":{"x":165601.62000000011,"y":2562904.5600000005}},{"attributes":{"ID":481151,"DIS_CODE":0,"TOWNNAME":"安平區","LI":"育平里","LIN":"26鄰","STREET":"郡平路","SECT":" ","MAREA":" ","LANE":" ","ALLEY":" ","HOUSE_NO":"１８１號八樓之２２","E_COORD97":164638.45000000001,"N_COORD97":2543300.3100000001,"ADDRESS":"郡平路１８１號八樓之２２","OBJECTID":481126},"geometry":{"x":164638.45000000019,"y":2543300.3099999987}},{"attributes":{"ID":481152,"DIS_CODE":0,"TOWNNAME":"安平區","LI":"育平里","LIN":"26鄰","STREET":"郡平路","SECT":" ","MAREA":" ","LANE":" ","ALLEY":" ","HOUSE_NO":"１８１號八樓之２３","E_COORD97":164638.45000000001,"N_COORD97":2543300.3100000001,"ADDRESS":"郡平路１８１號八樓之２３","OBJECTID":481127},"geometry":{"x":164638.45000000019,"y":2543300.3099999987}},{"attributes":{"ID":481153,"DIS_CODE":0,"TOWNNAME":"安平區","LI":"育平里","LIN":"26鄰","STREET":"郡平路","SECT":" ","MAREA":" ","LANE":" ","ALLEY":" ","HOUSE_NO":"１８１號八樓之２４","E_COORD97":164638.45000000001,"N_COORD97":2543300.3100000001,"ADDRESS":"郡平路１８１號八樓之２４","OBJECTID":481128},"geometry":{"x":164638.45000000019,"y":2543300.3099999987}},{"attributes":{"ID":481154,"DIS_CODE":0,"TOWNNAME":"安平區","LI":"育平里","LIN":"26鄰","STREET":"郡平路","SECT":" ","MAREA":" ","LANE":" ","ALLEY":" ","HOUSE_NO":"１８１號八樓之２５","E_COORD97":164638.45000000001,"N_COORD97":2543300.3100000001,"ADDRESS":"郡平路１８１號八樓之２５","OBJECTID":481129},"geometry":{"x":164638.45000000019,"y":2543300.3099999987}},{"attributes":{"ID":481155,"DIS_CODE":0,"TOWNNAME":"安平區","LI":"育平里","LIN":"26鄰","STREET":"郡平路","SECT":" ","MAREA":" ","LANE":" ","ALLEY":" ","HOUSE_NO":"１８１號八樓之２６","E_COORD97":164638.45000000001,"N_COORD97":2543300.3100000001,"ADDRESS":"郡平路１８１號八樓之２６","OBJECTID":481130},"geometry":{"x":164638.45000000019,"y":2543300.3099999987}},{"attributes":{"ID":481156,"DIS_CODE":0,"TOWNNAME":"安平區","LI":"育平里","LIN":"26鄰","STREET":"郡平路","SECT":" ","MAREA":" ","LANE":" ","ALLEY":" ","HOUSE_NO":"１８１號八樓之２７","E_COORD97":164638.45000000001,"N_COORD97":2543300.3100000001,"ADDRESS":"郡平路１８１號八樓之２７","OBJECTID":481131},"geometry":{"x":164638.45000000019,"y":2543300.3099999987}},{"attributes":{"ID":481157,"DIS_CODE":0,"TOWNNAME":"安平區","LI":"育平里","LIN":"26鄰","STREET":"郡平路","SECT":" ","MAREA":" ","LANE":" ","ALLEY":" ","HOUSE_NO":"１８１號十一樓之２１","E_COORD97":164638.45000000001,"N_COORD97":2543300.3100000001,"ADDRESS":"郡平路１８１號十一樓之２１","OBJECTID":481132},"geometry":{"x":164638.45000000019,"y":2543300.3099999987}},{"attributes":{"ID":481158,"DIS_CODE":0,"TOWNNAME":"安平區","LI":"育平里","LIN":"26鄰","STREET":"郡平路","SECT":" ","MAREA":" ","LANE":" ","ALLEY":" ","HOUSE_NO":"１８１號十一樓之２２","E_COORD97":164638.45000000001,"N_COORD97":2543300.3100000001,"ADDRESS":"郡平路１８１號十一樓之２２","OBJECTID":481133},"geometry":{"x":164638.45000000019,"y":2543300.3099999987}},{"attributes":{"ID":481159,"DIS_CODE":0,"TOWNNAME":"安平區","LI":"育平里","LIN":"26鄰","STREET":"郡平路","SECT":" ","MAREA":" ","LANE":" ","ALLEY":" ","HOUSE_NO":"１８１號十一樓之２３","E_COORD97":164638.45000000001,"N_COORD97":2543300.3100000001,"ADDRESS":"郡平路１８１號十一樓之２３","OBJECTID":481134},"geometry":{"x":164638.45000000019,"y":2543300.3099999987}},{"attributes":{"ID":481160,"DIS_CODE":0,"TOWNNAME":"安平區","LI":"育平里","LIN":"26鄰","STREET":"郡平路","SECT":" ","MAREA":" ","LANE":" ","ALLEY":" ","HOUSE_NO":"１８１號十一樓之２４","E_COORD97":164638.45000000001,"N_COORD97":2543300.3100000001,"ADDRESS":"郡平路１８１號十一樓之２４","OBJECTID":481135},"geometry":{"x":164638.45000000019,"y":2543300.3099999987}},{"attributes":{"ID":481161,"DIS_CODE":0,"TOWNNAME":"安平區","LI":"育平里","LIN":"26鄰","STREET":"郡平路","SECT":" ","MAREA":" ","LANE":" ","ALLEY":" ","HOUSE_NO":"１８１號十一樓之２５","E_COORD97":164638.45000000001,"N_COORD97":2543300.3100000001,"ADDRESS":"郡平路１８１號十一樓之２５","OBJECTID":481136},"geometry":{"x":164638.45000000019,"y":2543300.3099999987}},{"attributes":{"ID":481162,"DIS_CODE":0,"TOWNNAME":"安平區","LI":"育平里","LIN":"26鄰","STREET":"郡平路","SECT":" ","MAREA":" ","LANE":" ","ALLEY":" ","HOUSE_NO":"１８１號十一樓之２６","E_COORD97":164638.45000000001,"N_COORD97":2543300.3100000001,"ADDRESS":"郡平路１８１號十一樓之２６","OBJECTID":481137},"geometry":{"x":164638.45000000019,"y":2543300.3099999987}},{"attributes":{"ID":481163,"DIS_CODE":0,"TOWNNAME":"安平區","LI":"育平里","LIN":"26鄰","STREET":"郡平路","SECT":" ","MAREA":" ","LANE":" ","ALLEY":" ","HOUSE_NO":"１８１號十一樓之２７","E_COORD97":164638.45000000001,"N_COORD97":2543300.3100000001,"ADDRESS":"郡平路１８１號十一樓之２７","OBJECTID":481138},"geometry":{"x":164638.45000000019,"y":2543300.3099999987}},{"attributes":{"ID":481164,"DIS_CODE":0,"TOWNNAME":"安平區","LI":"育平里","LIN":"26鄰","STREET":"郡平路","SECT":" ","MAREA":" ","LANE":" ","ALLEY":" ","HOUSE_NO":"１８１號十二樓之２０","E_COORD97":164638.45000000001,"N_COORD97":2543300.3100000001,"ADDRESS":"郡平路１８１號十二樓之２０","OBJECTID":481139},"geometry":{"x":164638.45000000019,"y":2543300.3099999987}},{"attributes":{"ID":481165,"DIS_CODE":0,"TOWNNAME":"安平區","LI":"育平里","LIN":"26鄰","STREET":"郡平路","SECT":" ","MAREA":" ","LANE":" ","ALLEY":" ","HOUSE_NO":"１８１號十二樓之２１","E_COORD97":164638.45000000001,"N_COORD97":2543300.3100000001,"ADDRESS":"郡平路１８１號十二樓之２１","OBJECTID":481140},"geometry":{"x":164638.45000000019,"y":2543300.3099999987}},{"attributes":{"ID":481166,"DIS_CODE":0,"TOWNNAME":"安平區","LI":"育平里","LIN":"26鄰","STREET":"郡平路","SECT":" ","MAREA":" ","LANE":" ","ALLEY":" ","HOUSE_NO":"１８１號十二樓之２２","E_COORD97":164638.45000000001,"N_COORD97":2543300.3100000001,"ADDRESS":"郡平路１８１號十二樓之２２","OBJECTID":481141},"geometry":{"x":164638.45000000019,"y":2543300.3099999987}},{"attributes":{"ID":481167,"DIS_CODE":0,"TOWNNAME":"安平區","LI":"育平里","LIN":"26鄰","STREET":"郡平路","SECT":" ","MAREA":" ","LANE":" ","ALLEY":" ","HOUSE_NO":"１８１號十二樓之２３","E_COORD97":164638.45000000001,"N_COORD97":2543300.3100000001,"ADDRESS":"郡平路１８１號十二樓之２３","OBJECTID":481142},"geometry":{"x":164638.45000000019,"y":2543300.3099999987}},{"attributes":{"ID":481168,"DIS_CODE":0,"TOWNNAME":"安平區","LI":"育平里","LIN":"26鄰","STREET":"郡平路","SECT":" ","MAREA":" ","LANE":" ","ALLEY":" ","HOUSE_NO":"１８１號十二樓之２４","E_COORD97":164638.45000000001,"N_COORD97":2543300.3100000001,"ADDRESS":"郡平路１８１號十二樓之２４","OBJECTID":481143},"geometry":{"x":164638.45000000019,"y":2543300.3099999987}},{"attributes":{"ID":481169,"DIS_CODE":0,"TOWNNAME":"安平區","LI":"育平里","LIN":"26鄰","STREET":"郡平路","SECT":" ","MAREA":" ","LANE":" ","ALLEY":" ","HOUSE_NO":"１８１號十二樓之２５","E_COORD97":164638.45000000001,"N_COORD97":2543300.3100000001,"ADDRESS":"郡平路１８１號十二樓之２５","OBJECTID":481144},"geometry":{"x":164638.45000000019,"y":2543300.3099999987}},{"attributes":{"ID":481170,"DIS_CODE":0,"TOWNNAME":"安平區","LI":"育平里","LIN":"26鄰","STREET":"郡平路","SECT":" ","MAREA":" ","LANE":" ","ALLEY":" ","HOUSE_NO":"１８１號十二樓之２６","E_COORD97":164638.45000000001,"N_COORD97":2543300.3100000001,"ADDRESS":"郡平路１８１號十二樓之２６","OBJECTID":481145},"geometry":{"x":164638.45000000019,"y":2543300.3099999987}},{"attributes":{"ID":481171,"DIS_CODE":0,"TOWNNAME":"安平區","LI":"育平里","LIN":"26鄰","STREET":"郡平路","SECT":" ","MAREA":" ","LANE":" ","ALLEY":" ","HOUSE_NO":"１８１號十二樓之２７","E_COORD97":164638.45000000001,"N_COORD97":2543300.3100000001,"ADDRESS":"郡平路１８１號十二樓之２７","OBJECTID":481146},"geometry":{"x":164638.45000000019,"y":2543300.3099999987}},{"attributes":{"ID":481172,"DIS_CODE":0,"TOWNNAME":"安平區","LI":"育平里","LIN":"26鄰","STREET":"郡平路","SECT":" ","MAREA":" ","LANE":" ","ALLEY":" ","HOUSE_NO":"１８１號十四樓之２４","E_COORD97":164638.45000000001,"N_COORD97":2543300.3100000001,"ADDRESS":"郡平路１８１號十四樓之２４","OBJECTID":481147},"geometry":{"x":164638.45000000019,"y":2543300.3099999987}},{"attributes":{"ID":481173,"DIS_CODE":0,"TOWNNAME":"安平區","LI":"育平里","LIN":"26鄰","STREET":"郡平路","SECT":" ","MAREA":" ","LANE":" ","ALLEY":" ","HOUSE_NO":"１８１號十四樓之２５","E_COORD97":164638.45000000001,"N_COORD97":2543300.3100000001,"ADDRESS":"郡平路１８１號十四樓之２５","OBJECTID":481148},"geometry":{"x":164638.45000000019,"y":2543300.3099999987}},{"attributes":{"ID":481174,"DIS_CODE":0,"TOWNNAME":"安平區","LI":"育平里","LIN":"26鄰","STREET":"郡平路","SECT":" ","MAREA":" ","LANE":" ","ALLEY":" ","HOUSE_NO":"１８１號十四樓之２６","E_COORD97":164638.45000000001,"N_COORD97":2543300.3100000001,"ADDRESS":"郡平路１８１號十四樓之２６","OBJECTID":481149},"geometry":{"x":164638.45000000019,"y":2543300.3099999987}},{"attributes":{"ID":481175,"DIS_CODE":0,"TOWNNAME":"安平區","LI":"育平里","LIN":"26鄰","STREET":"郡平路","SECT":" ","MAREA":" ","LANE":" ","ALLEY":" ","HOUSE_NO":"１８１號十四樓之２７","E_COORD97":164638.45000000001,"N_COORD97":2543300.3100000001,"ADDRESS":"郡平路１８１號十四樓之２７","OBJECTID":481150},"geometry":{"x":164638.45000000019,"y":2543300.3099999987}},{"attributes":{"ID":481176,"DIS_CODE":0,"TOWNNAME":"安平區","LI":"育平里","LIN":"26鄰","STREET":"郡平路","SECT":" ","MAREA":" ","LANE":" ","ALLEY":" ","HOUSE_NO":"１８１號十樓之２１","E_COORD97":164638.45000000001,"N_COORD97":2543300.3100000001,"ADDRESS":"郡平路１８１號十樓之２１","OBJECTID":481151},"geometry":{"x":164638.45000000019,"y":2543300.3099999987}},{"attributes":{"ID":481177,"DIS_CODE":0,"TOWNNAME":"安平區","LI":"育平里","LIN":"26鄰","STREET":"郡平路","SECT":" ","MAREA":" ","LANE":" ","ALLEY":" ","HOUSE_NO":"１８１號十樓之２２","E_COORD97":164638.45000000001,"N_COORD97":2543300.3100000001,"ADDRESS":"郡平路１８１號十樓之２２","OBJECTID":481152},"geometry":{"x":164638.45000000019,"y":2543300.3099999987}},{"attributes":{"ID":481178,"DIS_CODE":0,"TOWNNAME":"安平區","LI":"育平里","LIN":"26鄰","STREET":"郡平路","SECT":" ","MAREA":" ","LANE":" ","ALLEY":" ","HOUSE_NO":"１８１號十樓之２３","E_COORD97":164638.45000000001,"N_COORD97":2543300.3100000001,"ADDRESS":"郡平路１８１號十樓之２３","OBJECTID":481153},"geometry":{"x":164638.45000000019,"y":2543300.3099999987}},{"attributes":{"ID":481179,"DIS_CODE":0,"TOWNNAME":"安平區","LI":"育平里","LIN":"26鄰","STREET":"郡平路","SECT":" ","MAREA":" ","LANE":" ","ALLEY":" ","HOUSE_NO":"１８１號十樓之２４","E_COORD97":164638.45000000001,"N_COORD97":2543300.3100000001,"ADDRESS":"郡平路１８１號十樓之２４","OBJECTID":481154},"geometry":{"x":164638.45000000019,"y":2543300.3099999987}},{"attributes":{"ID":481180,"DIS_CODE":0,"TOWNNAME":"安平區","LI":"育平里","LIN":"26鄰","STREET":"郡平路","SECT":" ","MAREA":" ","LANE":" ","ALLEY":" ","HOUSE_NO":"１８１號十樓之２５","E_COORD97":164638.45000000001,"N_COORD97":2543300.3100000001,"ADDRESS":"郡平路１８１號十樓之２５","OBJECTID":481155},"geometry":{"x":164638.45000000019,"y":2543300.3099999987}},{"attributes":{"ID":481181,"DIS_CODE":0,"TOWNNAME":"安平區","LI":"育平里","LIN":"26鄰","STREET":"郡平路","SECT":" ","MAREA":" ","LANE":" ","ALLEY":" ","HOUSE_NO":"１８１號十樓之２６","E_COORD97":164638.45000000001,"N_COORD97":2543300.3100000001,"ADDRESS":"郡平路１８１號十樓之２６","OBJECTID":481156},"geometry":{"x":164638.45000000019,"y":2543300.3099999987}},{"attributes":{"ID":481182,"DIS_CODE":0,"TOWNNAME":"安平區","LI":"育平里","LIN":"26鄰","STREET":"郡平路","SECT":" ","MAREA":" ","LANE":" ","ALLEY":" ","HOUSE_NO":"１８１號十樓之２７","E_COORD97":164638.45000000001,"N_COORD97":2543300.3100000001,"ADDRESS":"郡平路１８１號十樓之２７","OBJECTID":481157},"geometry":{"x":164638.45000000019,"y":2543300.3099999987}},{"attributes":{"ID":481183,"DIS_CODE":0,"TOWNNAME":"安平區","LI":"育平里","LIN":"26鄰","STREET":"郡平路","SECT":" ","MAREA":" ","LANE":" ","ALLEY":" ","HOUSE_NO":"１８１號三樓之２５","E_COORD97":164638.45000000001,"N_COORD97":2543300.3100000001,"ADDRESS":"郡平路１８１號三樓之２５","OBJECTID":481158},"geometry":{"x":164638.45000000019,"y":2543300.3099999987}},{"attributes":{"ID":481184,"DIS_CODE":0,"TOWNNAME":"安平區","LI":"育平里","LIN":"26鄰","STREET":"郡平路","SECT":" ","MAREA":" ","LANE":" ","ALLEY":" ","HOUSE_NO":"１８１號三樓之２６","E_COORD97":164638.45000000001,"N_COORD97":2543300.3100000001,"ADDRESS":"郡平路１８１號三樓之２６","OBJECTID":481159},"geometry":{"x":164638.45000000019,"y":2543300.3099999987}},{"attributes":{"ID":481185,"DIS_CODE":0,"TOWNNAME":"安平區","LI":"育平里","LIN":"26鄰","STREET":"郡平路","SECT":" ","MAREA":" ","LANE":" ","ALLEY":" ","HOUSE_NO":"１８１號三樓之２７","E_COORD97":164638.45000000001,"N_COORD97":2543300.3100000001,"ADDRESS":"郡平路１８１號三樓之２７","OBJECTID":481160},"geometry":{"x":164638.45000000019,"y":2543300.3099999987}},{"attributes":{"ID":481186,"DIS_CODE":0,"TOWNNAME":"安平區","LI":"育平里","LIN":"26鄰","STREET":"郡平路","SECT":" ","MAREA":" ","LANE":" ","ALLEY":" ","HOUSE_NO":"１８１號五樓之２０","E_COORD97":164638.45000000001,"N_COORD97":2543300.3100000001,"ADDRESS":"郡平路１８１號五樓之２０","OBJECTID":481161},"geometry":{"x":164638.45000000019,"y":2543300.3099999987}},{"attributes":{"ID":481187,"DIS_CODE":0,"TOWNNAME":"安平區","LI":"育平里","LIN":"26鄰","STREET":"郡平路","SECT":" ","MAREA":" ","LANE":" ","ALLEY":" ","HOUSE_NO":"１８１號五樓之２１","E_COORD97":164638.45000000001,"N_COORD97":2543300.3100000001,"ADDRESS":"郡平路１８１號五樓之２１","OBJECTID":481162},"geometry":{"x":164638.45000000019,"y":2543300.3099999987}},{"attributes":{"ID":481188,"DIS_CODE":0,"TOWNNAME":"安平區","LI":"育平里","LIN":"26鄰","STREET":"郡平路","SECT":" ","MAREA":" ","LANE":" ","ALLEY":" ","HOUSE_NO":"１８１號五樓之２２","E_COORD97":164638.45000000001,"N_COORD97":2543300.3100000001,"ADDRESS":"郡平路１８１號五樓之２２","OBJECTID":481163},"geometry":{"x":164638.45000000019,"y":2543300.3099999987}},{"attributes":{"ID":481189,"DIS_CODE":0,"TOWNNAME":"安平區","LI":"育平里","LIN":"26鄰","STREET":"郡平路","SECT":" ","MAREA":" ","LANE":" ","ALLEY":" ","HOUSE_NO":"１８１號五樓之２３","E_COORD97":164638.45000000001,"N_COORD97":2543300.3100000001,"ADDRESS":"郡平路１８１號五樓之２３","OBJECTID":481164},"geometry":{"x":164638.45000000019,"y":2543300.3099999987}},{"attributes":{"ID":481190,"DIS_CODE":0,"TOWNNAME":"安平區","LI":"育平里","LIN":"26鄰","STREET":"郡平路","SECT":" ","MAREA":" ","LANE":" ","ALLEY":" ","HOUSE_NO":"１８１號五樓之２４","E_COORD97":164638.45000000001,"N_COORD97":2543300.3100000001,"ADDRESS":"郡平路１８１號五樓之２４","OBJECTID":481165},"geometry":{"x":164638.45000000019,"y":2543300.3099999987}},{"attributes":{"ID":481191,"DIS_CODE":0,"TOWNNAME":"安平區","LI":"育平里","LIN":"26鄰","STREET":"郡平路","SECT":" ","MAREA":" ","LANE":" ","ALLEY":" ","HOUSE_NO":"１８１號五樓之２５","E_COORD97":164638.45000000001,"N_COORD97":2543300.3100000001,"ADDRESS":"郡平路１８１號五樓之２５","OBJECTID":481166},"geometry":{"x":164638.45000000019,"y":2543300.3099999987}},{"attributes":{"ID":481192,"DIS_CODE":0,"TOWNNAME":"安平區","LI":"育平里","LIN":"26鄰","STREET":"郡平路","SECT":" ","MAREA":" ","LANE":" ","ALLEY":" ","HOUSE_NO":"１８１號五樓之２６","E_COORD97":164638.45000000001,"N_COORD97":2543300.3100000001,"ADDRESS":"郡平路１８１號五樓之２６","OBJECTID":481167},"geometry":{"x":164638.45000000019,"y":2543300.3099999987}},{"attributes":{"ID":481193,"DIS_CODE":0,"TOWNNAME":"安平區","LI":"育平里","LIN":"26鄰","STREET":"郡平路","SECT":" ","MAREA":" ","LANE":" ","ALLEY":" ","HOUSE_NO":"１８１號五樓之２７","E_COORD97":164638.45000000001,"N_COORD97":2543300.3100000001,"ADDRESS":"郡平路１８１號五樓之２７","OBJECTID":481168},"geometry":{"x":164638.45000000019,"y":2543300.3099999987}},{"attributes":{"ID":481194,"DIS_CODE":0,"TOWNNAME":"安平區","LI":"育平里","LIN":"26鄰","STREET":"郡平路","SECT":" ","MAREA":" ","LANE":" ","ALLEY":" ","HOUSE_NO":"１８１號六樓之２０","E_COORD97":164638.45000000001,"N_COORD97":2543300.3100000001,"ADDRESS":"郡平路１８１號六樓之２０","OBJECTID":481169},"geometry":{"x":164638.45000000019,"y":2543300.3099999987}},{"attributes":{"ID":481195,"DIS_CODE":0,"TOWNNAME":"安平區","LI":"育平里","LIN":"26鄰","STREET":"郡平路","SECT":" ","MAREA":" ","LANE":" ","ALLEY":" ","HOUSE_NO":"１８１號六樓之２１","E_COORD97":164638.45000000001,"N_COORD97":2543300.3100000001,"ADDRESS":"郡平路１８１號六樓之２１","OBJECTID":481170},"geometry":{"x":164638.45000000019,"y":2543300.3099999987}},{"attributes":{"ID":481196,"DIS_CODE":0,"TOWNNAME":"安平區","LI":"育平里","LIN":"26鄰","STREET":"郡平路","SECT":" ","MAREA":" ","LANE":" ","ALLEY":" ","HOUSE_NO":"１８１號六樓之２２","E_COORD97":164638.45000000001,"N_COORD97":2543300.3100000001,"ADDRESS":"郡平路１８１號六樓之２２","OBJECTID":481171},"geometry":{"x":164638.45000000019,"y":2543300.3099999987}},{"attributes":{"ID":481197,"DIS_CODE":0,"TOWNNAME":"安平區","LI":"育平里","LIN":"26鄰","STREET":"郡平路","SECT":" ","MAREA":" ","LANE":" ","ALLEY":" ","HOUSE_NO":"１８１號六樓之２３","E_COORD97":164638.45000000001,"N_COORD97":2543300.3100000001,"ADDRESS":"郡平路１８１號六樓之２３","OBJECTID":481172},"geometry":{"x":164638.45000000019,"y":2543300.3099999987}},{"attributes":{"ID":481198,"DIS_CODE":0,"TOWNNAME":"安平區","LI":"育平里","LIN":"26鄰","STREET":"郡平路","SECT":" ","MAREA":" ","LANE":" ","ALLEY":" ","HOUSE_NO":"１８１號六樓之２４","E_COORD97":164638.45000000001,"N_COORD97":2543300.3100000001,"ADDRESS":"郡平路１８１號六樓之２４","OBJECTID":481173},"geometry":{"x":164638.45000000019,"y":2543300.3099999987}},{"attributes":{"ID":481199,"DIS_CODE":0,"TOWNNAME":"安平區","LI":"育平里","LIN":"26鄰","STREET":"郡平路","SECT":" ","MAREA":" ","LANE":" ","ALLEY":" ","HOUSE_NO":"１８１號六樓之２５","E_COORD97":164638.45000000001,"N_COORD97":2543300.3100000001,"ADDRESS":"郡平路１８１號六樓之２５","OBJECTID":481174},"geometry":{"x":164638.45000000019,"y":2543300.3099999987}},{"attributes":{"ID":481200,"DIS_CODE":0,"TOWNNAME":"安平區","LI":"育平里","LIN":"26鄰","STREET":"郡平路","SECT":" ","MAREA":" ","LANE":" ","ALLEY":" ","HOUSE_NO":"１８１號六樓之２６","E_COORD97":164638.45000000001,"N_COORD97":2543300.3100000001,"ADDRESS":"郡平路１８１號六樓之２６","OBJECTID":481175},"geometry":{"x":164638.45000000019,"y":2543300.3099999987}},{"attributes":{"ID":481201,"DIS_CODE":0,"TOWNNAME":"安平區","LI":"育平里","LIN":"26鄰","STREET":"郡平路","SECT":" ","MAREA":" ","LANE":" ","ALLEY":" ","HOUSE_NO":"１８１號六樓之２７","E_COORD97":164638.45000000001,"N_COORD97":2543300.3100000001,"ADDRESS":"郡平路１８１號六樓之２７","OBJECTID":481176},"geometry":{"x":164638.45000000019,"y":2543300.3099999987}},{"attributes":{"ID":481202,"DIS_CODE":0,"TOWNNAME":"安平區","LI":"育平里","LIN":"26鄰","STREET":"郡平路","SECT":" ","MAREA":" ","LANE":" ","ALLEY":" ","HOUSE_NO":"１８１號四樓之２０","E_COORD97":164638.45000000001,"N_COORD97":2543300.3100000001,"ADDRESS":"郡平路１８１號四樓之２０","OBJECTID":481177},"geometry":{"x":164638.45000000019,"y":2543300.3099999987}},{"attributes":{"ID":481203,"DIS_CODE":0,"TOWNNAME":"安平區","LI":"育平里","LIN":"26鄰","STREET":"郡平路","SECT":" ","MAREA":" ","LANE":" ","ALLEY":" ","HOUSE_NO":"１８１號四樓之２１","E_COORD97":164638.45000000001,"N_COORD97":2543300.3100000001,"ADDRESS":"郡平路１８１號四樓之２１","OBJECTID":481178},"geometry":{"x":164638.45000000019,"y":2543300.3099999987}},{"attributes":{"ID":481204,"DIS_CODE":0,"TOWNNAME":"安平區","LI":"育平里","LIN":"26鄰","STREET":"郡平路","SECT":" ","MAREA":" ","LANE":" ","ALLEY":" ","HOUSE_NO":"１８１號四樓之２２","E_COORD97":164638.45000000001,"N_COORD97":2543300.3100000001,"ADDRESS":"郡平路１８１號四樓之２２","OBJECTID":481179},"geometry":{"x":164638.45000000019,"y":2543300.3099999987}},{"attributes":{"ID":481205,"DIS_CODE":0,"TOWNNAME":"安平區","LI":"育平里","LIN":"26鄰","STREET":"郡平路","SECT":" ","MAREA":" ","LANE":" ","ALLEY":" ","HOUSE_NO":"１８１號四樓之２３","E_COORD97":164638.45000000001,"N_COORD97":2543300.3100000001,"ADDRESS":"郡平路１８１號四樓之２３","OBJECTID":481180},"geometry":{"x":164638.45000000019,"y":2543300.3099999987}},{"attributes":{"ID":481206,"DIS_CODE":0,"TOWNNAME":"安平區","LI":"育平里","LIN":"26鄰","STREET":"郡平路","SECT":" ","MAREA":" ","LANE":" ","ALLEY":" ","HOUSE_NO":"１８１號四樓之２４","E_COORD97":164638.45000000001,"N_COORD97":2543300.3100000001,"ADDRESS":"郡平路１８１號四樓之２４","OBJECTID":481181},"geometry":{"x":164638.45000000019,"y":2543300.3099999987}},{"attributes":{"ID":481207,"DIS_CODE":0,"TOWNNAME":"安平區","LI":"育平里","LIN":"26鄰","STREET":"郡平路","SECT":" ","MAREA":" ","LANE":" ","ALLEY":" ","HOUSE_NO":"１８１號四樓之２５","E_COORD97":164638.45000000001,"N_COORD97":2543300.3100000001,"ADDRESS":"郡平路１８１號四樓之２５","OBJECTID":481182},"geometry":{"x":164638.45000000019,"y":2543300.3099999987}},{"attributes":{"ID":481208,"DIS_CODE":0,"TOWNNAME":"安平區","LI":"育平里","LIN":"26鄰","STREET":"郡平路","SECT":" ","MAREA":" ","LANE":" ","ALLEY":" ","HOUSE_NO":"１８１號四樓之２６","E_COORD97":164638.45000000001,"N_COORD97":2543300.3100000001,"ADDRESS":"郡平路１８１號四樓之２６","OBJECTID":481183},"geometry":{"x":164638.45000000019,"y":2543300.3099999987}},{"attributes":{"ID":481209,"DIS_CODE":0,"TOWNNAME":"安平區","LI":"育平里","LIN":"26鄰","STREET":"郡平路","SECT":" ","MAREA":" ","LANE":" ","ALLEY":" ","HOUSE_NO":"１８１號四樓之２７","E_COORD97":164638.45000000001,"N_COORD97":2543300.3100000001,"ADDRESS":"郡平路１８１號四樓之２７","OBJECTID":481184},"geometry":{"x":164638.45000000019,"y":2543300.3099999987}},{"attributes":{"ID":481210,"DIS_CODE":0,"TOWNNAME":"新營區","LI":"新東里","LIN":"26鄰","STREET":"東興五街","SECT":" ","MAREA":" ","LANE":" ","ALLEY":" ","HOUSE_NO":"１號六樓","E_COORD97":180728.63,"N_COORD97":2579509.5299999998,"ADDRESS":"東興五街１號六樓","OBJECTID":481185},"geometry":{"x":180728.63000000082,"y":2579509.5299999993}},{"attributes":{"ID":481211,"DIS_CODE":0,"TOWNNAME":"永康區","LI":"永康里","LIN":"26鄰","STREET":"永大路","SECT":"二段","MAREA":" ","LANE":" ","ALLEY":" ","HOUSE_NO":"１１２９號地下一層之","E_COORD97":174201.04000000001,"N_COORD97":2547482.3599999999,"ADDRESS":"永大路二段１１２９號地下一層之６","OBJECTID":481186},"geometry":{"x":174201.04000000097,"y":2547482.3599999994}},{"attributes":{"ID":481212,"DIS_CODE":0,"TOWNNAME":"永康區","LI":"永康里","LIN":"26鄰","STREET":"永明街","SECT":" ","MAREA":" ","LANE":" ","ALLEY":" ","HOUSE_NO":"１１０號","E_COORD97":174164.06,"N_COORD97":2547232.9399999999,"ADDRESS":"永明街１１０號","OBJECTID":481187},"geometry":{"x":174164.05999999959,"y":2547232.9400000013}},{"attributes":{"ID":481213,"DIS_CODE":0,"TOWNNAME":"永康區","LI":"永康里","LIN":"26鄰","STREET":"永大路","SECT":"二段","MAREA":" ","LANE":" ","ALLEY":" ","HOUSE_NO":"１１２９號地下二層之","E_COORD97":174200.94,"N_COORD97":2547482.3599999999,"ADDRESS":"永大路二段１１２９號地下二層之１","OBJECTID":481188},"geometry":{"x":174200.94000000041,"y":2547482.3599999994}},{"attributes":{"ID":481214,"DIS_CODE":0,"TOWNNAME":"永康區","LI":"永康里","LIN":"26鄰","STREET":"永大路","SECT":"二段","MAREA":" ","LANE":" ","ALLEY":" ","HOUSE_NO":"１１２９號地下一層之","E_COORD97":174200.94,"N_COORD97":2547482.3599999999,"ADDRESS":"永大路二段１１２９號地下一層之１","OBJECTID":481189},"geometry":{"x":174200.94000000041,"y":2547482.3599999994}},{"attributes":{"ID":481215,"DIS_CODE":0,"TOWNNAME":"安南區","LI":"安慶里","LIN":"26鄰","STREET":"長溪路","SECT":"一段","MAREA":" ","LANE":" ","ALLEY":" ","HOUSE_NO":"１３３號","E_COORD97":169057.07999999999,"N_COORD97":2548471.3900000001,"ADDRESS":"長溪路一段１３３號","OBJECTID":481190},"geometry":{"x":169057.08000000194,"y":2548471.3900000025}},{"attributes":{"ID":481216,"DIS_CODE":0,"TOWNNAME":"安南區","LI":"安慶里","LIN":"26鄰","STREET":"長溪路","SECT":"一段","MAREA":" ","LANE":" ","ALLEY":" ","HOUSE_NO":"１３５號","E_COORD97":169051.09,"N_COORD97":2548476.9900000002,"ADDRESS":"長溪路一段１３５號","OBJECTID":481191},"geometry":{"x":169051.08999999985,"y":2548476.9900000021}},{"attributes":{"ID":481217,"DIS_CODE":0,"TOWNNAME":"安南區","LI":"安慶里","LIN":"26鄰","STREET":"長溪路","SECT":"一段","MAREA":" ","LANE":" ","ALLEY":" ","HOUSE_NO":"１３７號","E_COORD97":169045.10000000001,"N_COORD97":2548480.5,"ADDRESS":"長溪路一段１３７號","OBJECTID":481192},"geometry":{"x":169045.10000000056,"y":2548480.5000000019}},{"attributes":{"ID":481218,"DIS_CODE":0,"TOWNNAME":"安南區","LI":"安慶里","LIN":"26鄰","STREET":"長溪路","SECT":"一段","MAREA":" ","LANE":" ","ALLEY":" ","HOUSE_NO":"１３９號","E_COORD97":169043.54000000001,"N_COORD97":2548484.3999999999,"ADDRESS":"長溪路一段１３９號","OBJECTID":481193},"geometry":{"x":169043.54000000004,"y":2548484.4000000022}},{"attributes":{"ID":481219,"DIS_CODE":0,"TOWNNAME":"安南區","LI":"安慶里","LIN":"26鄰","STREET":"長溪路","SECT":"一段","MAREA":" ","LANE":" ","ALLEY":" ","HOUSE_NO":"１４１號","E_COORD97":169042.76000000001,"N_COORD97":2548488.2999999998,"ADDRESS":"長溪路一段１４１號","OBJECTID":481194},"geometry":{"x":169042.76000000071,"y":2548488.3000000045}},{"attributes":{"ID":481220,"DIS_CODE":0,"TOWNNAME":"安南區","LI":"安慶里","LIN":"26鄰","STREET":"長溪路","SECT":"一段","MAREA":" ","LANE":" ","ALLEY":" ","HOUSE_NO":"１４３號","E_COORD97":169037.89999999999,"N_COORD97":2548492.0099999998,"ADDRESS":"長溪路一段１４３號","OBJECTID":481195},"geometry":{"x":169037.90000000037,"y":2548492.0099999998}},{"attributes":{"ID":481221,"DIS_CODE":0,"TOWNNAME":"安南區","LI":"安慶里","LIN":"26鄰","STREET":"長溪路","SECT":"一段","MAREA":" ","LANE":" ","ALLEY":" ","HOUSE_NO":"１４５號","E_COORD97":169035.82000000001,"N_COORD97":2548495.1299999999,"ADDRESS":"長溪路一段１４５號","OBJECTID":481196},"geometry":{"x":169035.82000000123,"y":2548495.1300000008}},{"attributes":{"ID":481222,"DIS_CODE":0,"TOWNNAME":"安南區","LI":"安慶里","LIN":"26鄰","STREET":"長溪路","SECT":"一段","MAREA":" ","LANE":" ","ALLEY":" ","HOUSE_NO":"１４７號","E_COORD97":169033.60000000001,"N_COORD97":2548498.3799999999,"ADDRESS":"長溪路一段１４７號","OBJECTID":481197},"geometry":{"x":169033.59999999963,"y":2548498.379999999}},{"attributes":{"ID":481223,"DIS_CODE":0,"TOWNNAME":"安南區","LI":"安慶里","LIN":"26鄰","STREET":"長溪路","SECT":"一段","MAREA":" ","LANE":" ","ALLEY":" ","HOUSE_NO":"１４９號","E_COORD97":169029.57000000001,"N_COORD97":2548502.6699999999,"ADDRESS":"長溪路一段１４９號","OBJECTID":481198},"geometry":{"x":169029.5700000003,"y":2548502.6700000018}},{"attributes":{"ID":481224,"DIS_CODE":0,"TOWNNAME":"安南區","LI":"安慶里","LIN":"26鄰","STREET":"長溪路","SECT":"一段","MAREA":" ","LANE":" ","ALLEY":" ","HOUSE_NO":"１５１號","E_COORD97":169026.17999999999,"N_COORD97":2548506.4500000002,"ADDRESS":"長溪路一段１５１號","OBJECTID":481199},"geometry":{"x":169026.18000000063,"y":2548506.4500000011}},{"attributes":{"ID":481225,"DIS_CODE":0,"TOWNNAME":"安南區","LI":"安慶里","LIN":"26鄰","STREET":"長溪路","SECT":"一段","MAREA":" ","LANE":" ","ALLEY":" ","HOUSE_NO":"１５３號","E_COORD97":169023.70999999999,"N_COORD97":2548510.6099999999,"ADDRESS":"長溪路一段１５３號","OBJECTID":481200},"geometry":{"x":169023.70999999903,"y":2548510.6099999994}}]}