{"displayFieldName":"TOWNNAME","fieldAliases":{"ID":"ID","DIS_CODE":"DIS_CODE","TOWNNAME":"TOWNNAME","LI":"LI","LIN":"LIN","STREET":"STREET","SECT":"SECT","MAREA":"MAREA","LANE":"LANE","ALLEY":"ALLEY","HOUSE_NO":"HOUSE_NO","E_COORD97":"E_COORD97","N_COORD97":"N_COORD97","ADDRESS":"ADDRESS","OBJECTID":"OBJECTID"},"geometryType":"esriGeometryPoint","spatialReference":{"wkid":102443,"latestWkid":3826},"fields":[{"name":"ID","type":"esriFieldTypeDouble","alias":"ID"},{"name":"DIS_CODE","type":"esriFieldTypeInteger","alias":"DIS_CODE"},{"name":"TOWNNAME","type":"esriFieldTypeString","alias":"TOWNNAME","length":8},{"name":"LI","type":"esriFieldTypeString","alias":"LI","length":8},{"name":"LIN","type":"esriFieldTypeString","alias":"LIN","length":12},{"name":"STREET","type":"esriFieldTypeString","alias":"STREET","length":20},{"name":"SECT","type":"esriFieldTypeString","alias":"SECT","length":8},{"name":"MAREA","type":"esriFieldTypeString","alias":"MAREA","length":12},{"name":"LANE","type":"esriFieldTypeString","alias":"LANE","length":10},{"name":"ALLEY","type":"esriFieldTypeString","alias":"ALLEY","length":10},{"name":"HOUSE_NO","type":"esriFieldTypeString","alias":"HOUSE_NO","length":20},{"name":"E_COORD97","type":"esriFieldTypeDouble","alias":"E_COORD97"},{"name":"N_COORD97","type":"esriFieldTypeDouble","alias":"N_COORD97"},{"name":"ADDRESS","type":"esriFieldTypeString","alias":"ADDRESS","length":50},{"name":"OBJECTID","type":"esriFieldTypeOID","alias":"OBJECTID"}],"features":[{"attributes":{"ID":333210,"DIS_CODE":0,"TOWNNAME":"安南區","LI":"淵中里","LIN":"15鄰","STREET":"安中路","SECT":"四段","MAREA":" ","LANE":"４巷","ALLEY":" ","HOUSE_NO":"８７號","E_COORD97":165099.44,"N_COORD97":2550223.5299999998,"ADDRESS":"安中路四段４巷８７號","OBJECTID":333201},"geometry":{"x":165099.44000000041,"y":2550223.5299999993}},{"attributes":{"ID":333211,"DIS_CODE":0,"TOWNNAME":"安南區","LI":"淵中里","LIN":"15鄰","STREET":"安中路","SECT":"四段","MAREA":" ","LANE":"４巷","ALLEY":" ","HOUSE_NO":"９３號","E_COORD97":165086.89000000001,"N_COORD97":2550232.5,"ADDRESS":"安中路四段４巷９３號","OBJECTID":333202},"geometry":{"x":165086.8900000006,"y":2550232.5000000019}},{"attributes":{"ID":333212,"DIS_CODE":0,"TOWNNAME":"仁德區","LI":"二行里","LIN":"17鄰","STREET":"行大街","SECT":" ","MAREA":" ","LANE":" ","ALLEY":" ","HOUSE_NO":"２９６之１號","E_COORD97":169731.17999999999,"N_COORD97":2535211.54,"ADDRESS":"行大街２９６之１號","OBJECTID":333203},"geometry":{"x":169731.18000000063,"y":2535211.5400000028}},{"attributes":{"ID":333213,"DIS_CODE":0,"TOWNNAME":"仁德區","LI":"二行里","LIN":"17鄰","STREET":"行大街","SECT":" ","MAREA":" ","LANE":" ","ALLEY":" ","HOUSE_NO":"３０４號","E_COORD97":169702.95000000001,"N_COORD97":2535185.9900000002,"ADDRESS":"行大街３０４號","OBJECTID":333204},"geometry":{"x":169702.95000000112,"y":2535185.9900000039}},{"attributes":{"ID":333214,"DIS_CODE":0,"TOWNNAME":"仁德區","LI":"二行里","LIN":"17鄰","STREET":"行大街","SECT":" ","MAREA":" ","LANE":" ","ALLEY":" ","HOUSE_NO":"３００號","E_COORD97":169710.95000000001,"N_COORD97":2535181.9900000002,"ADDRESS":"行大街３００號","OBJECTID":333205},"geometry":{"x":169710.95000000112,"y":2535181.9900000002}},{"attributes":{"ID":333215,"DIS_CODE":0,"TOWNNAME":"下營區","LI":"茅港里","LIN":"6鄰","STREET":" ","SECT":" ","MAREA":"茅港尾","LANE":" ","ALLEY":" ","HOUSE_NO":"１５２之６號","E_COORD97":176828.47988200001,"N_COORD97":2568459.8909499999,"ADDRESS":"茅港尾１５２之６號","OBJECTID":333206},"geometry":{"x":176828.47988199908,"y":2568459.8909520004}},{"attributes":{"ID":333216,"DIS_CODE":0,"TOWNNAME":"新營區","LI":"太北里","LIN":"3鄰","STREET":" ","SECT":" ","MAREA":"太子宮","LANE":" ","ALLEY":" ","HOUSE_NO":"２０之１號","E_COORD97":176046.182524,"N_COORD97":2577197.0688800002,"ADDRESS":"太子宮２０之１號","OBJECTID":333207},"geometry":{"x":176046.18252400123,"y":2577197.0688770022}},{"attributes":{"ID":333217,"DIS_CODE":0,"TOWNNAME":"新營區","LI":"太北里","LIN":"3鄰","STREET":" ","SECT":" ","MAREA":"太子宮","LANE":" ","ALLEY":" ","HOUSE_NO":"２３之６號","E_COORD97":176109.335678,"N_COORD97":2577262.57968,"ADDRESS":"太子宮２３之６號","OBJECTID":333208},"geometry":{"x":176109.335678,"y":2577262.579675002}},{"attributes":{"ID":333218,"DIS_CODE":0,"TOWNNAME":"新營區","LI":"太南里","LIN":"3鄰","STREET":" ","SECT":" ","MAREA":"太子宮","LANE":" ","ALLEY":" ","HOUSE_NO":"２３之１１號","E_COORD97":176117.812611,"N_COORD97":2577237.2855199999,"ADDRESS":"太子宮２３之１１號","OBJECTID":333209},"geometry":{"x":176117.81261100154,"y":2577237.2855220027}},{"attributes":{"ID":333219,"DIS_CODE":0,"TOWNNAME":"新營區","LI":"太北里","LIN":"3鄰","STREET":" ","SECT":" ","MAREA":"太子宮","LANE":" ","ALLEY":" ","HOUSE_NO":"２３之１７號","E_COORD97":176104.673365,"N_COORD97":2577215.4838700001,"ADDRESS":"太子宮２３之１７號","OBJECTID":333210},"geometry":{"x":176104.67336500064,"y":2577215.4838669989}},{"attributes":{"ID":333220,"DIS_CODE":0,"TOWNNAME":"仁德區","LI":"中生里","LIN":"13鄰","STREET":" ","SECT":" ","MAREA":"中洲","LANE":" ","ALLEY":" ","HOUSE_NO":"２２６之３１號","E_COORD97":172976.91943499999,"N_COORD97":2533960.78223,"ADDRESS":"中洲２２６之３１號","OBJECTID":333211},"geometry":{"x":172976.91943500098,"y":2533960.7822260018}},{"attributes":{"ID":333221,"DIS_CODE":0,"TOWNNAME":"仁德區","LI":"仁義里","LIN":"17鄰","STREET":"義林九街","SECT":" ","MAREA":" ","LANE":" ","ALLEY":" ","HOUSE_NO":"６８號","E_COORD97":174191.01999999999,"N_COORD97":2541363.77,"ADDRESS":"義林九街６８號","OBJECTID":333212},"geometry":{"x":174191.01999999955,"y":2541363.7700000033}},{"attributes":{"ID":333222,"DIS_CODE":0,"TOWNNAME":"仁德區","LI":"仁義里","LIN":"17鄰","STREET":"中山路","SECT":" ","MAREA":" ","LANE":" ","ALLEY":" ","HOUSE_NO":"２０２號","E_COORD97":174400.32000000001,"N_COORD97":2541211.9900000002,"ADDRESS":"中山路２０２號","OBJECTID":333213},"geometry":{"x":174400.3200000003,"y":2541211.9900000021}},{"attributes":{"ID":333223,"DIS_CODE":0,"TOWNNAME":"仁德區","LI":"仁義里","LIN":"17鄰","STREET":"義林九街","SECT":" ","MAREA":" ","LANE":" ","ALLEY":" ","HOUSE_NO":"７２號","E_COORD97":174183.60000000001,"N_COORD97":2541365.02,"ADDRESS":"義林九街７２號","OBJECTID":333214},"geometry":{"x":174183.59999999963,"y":2541365.0199999996}},{"attributes":{"ID":333224,"DIS_CODE":0,"TOWNNAME":"仁德區","LI":"中生里","LIN":"13鄰","STREET":" ","SECT":" ","MAREA":"中洲","LANE":" ","ALLEY":" ","HOUSE_NO":"２２６之３９號","E_COORD97":172871.19937399999,"N_COORD97":2533962.8988899998,"ADDRESS":"中洲２２６之３９號","OBJECTID":333215},"geometry":{"x":172871.19937399961,"y":2533962.8988910001}},{"attributes":{"ID":333225,"DIS_CODE":0,"TOWNNAME":"仁德區","LI":"中生里","LIN":"15鄰","STREET":" ","SECT":" ","MAREA":"中洲","LANE":" ","ALLEY":" ","HOUSE_NO":"２５０之８６號","E_COORD97":173310.81686299999,"N_COORD97":2533689.4257100001,"ADDRESS":"中洲２５０之８６號","OBJECTID":333216},"geometry":{"x":173310.81686300132,"y":2533689.4257060029}},{"attributes":{"ID":333226,"DIS_CODE":0,"TOWNNAME":"北區","LI":"中樓里","LIN":"20鄰","STREET":"勝利路","SECT":" ","MAREA":" ","LANE":"４６７巷","ALLEY":" ","HOUSE_NO":"８號","E_COORD97":169846.54999999999,"N_COORD97":2545135.25,"ADDRESS":"勝利路４６７巷８號","OBJECTID":333217},"geometry":{"x":169846.54999999981,"y":2545135.2500000019}},{"attributes":{"ID":333227,"DIS_CODE":0,"TOWNNAME":"仁德區","LI":"仁義里","LIN":"17鄰","STREET":"義林九街","SECT":" ","MAREA":" ","LANE":" ","ALLEY":" ","HOUSE_NO":"７１號","E_COORD97":174220.88,"N_COORD97":2541333.52,"ADDRESS":"義林九街７１號","OBJECTID":333218},"geometry":{"x":174220.88000000082,"y":2541333.5199999996}},{"attributes":{"ID":333228,"DIS_CODE":0,"TOWNNAME":"仁德區","LI":"中生里","LIN":"15鄰","STREET":" ","SECT":" ","MAREA":"中洲","LANE":" ","ALLEY":" ","HOUSE_NO":"２５１之５０號","E_COORD97":173227.34250599999,"N_COORD97":2534006.0788699999,"ADDRESS":"中洲２５１之５０號","OBJECTID":333219},"geometry":{"x":173227.34250600077,"y":2534006.0788680017}},{"attributes":{"ID":333229,"DIS_CODE":0,"TOWNNAME":"仁德區","LI":"中生里","LIN":"15鄰","STREET":" ","SECT":" ","MAREA":"中洲","LANE":" ","ALLEY":" ","HOUSE_NO":"２４６號","E_COORD97":173177.342638,"N_COORD97":2534012.0055300002,"ADDRESS":"中洲２４６號","OBJECTID":333220},"geometry":{"x":173177.34263799991,"y":2534012.0055310018}},{"attributes":{"ID":333230,"DIS_CODE":0,"TOWNNAME":"官田區","LI":"社子里","LIN":"11鄰","STREET":" ","SECT":" ","MAREA":"六\u25A0","LANE":" ","ALLEY":" ","HOUSE_NO":"１０號","E_COORD97":185298.03,"N_COORD97":2563014.6400000001,"ADDRESS":"六\u25A0１０號","OBJECTID":333221},"geometry":{"x":185298.03000000119,"y":2563014.6400000025}},{"attributes":{"ID":333231,"DIS_CODE":0,"TOWNNAME":"官田區","LI":"社子里","LIN":"11鄰","STREET":" ","SECT":" ","MAREA":"六\u25A0","LANE":" ","ALLEY":" ","HOUSE_NO":"１１號","E_COORD97":185253.17999999999,"N_COORD97":2563001.5600000001,"ADDRESS":"六\u25A0１１號","OBJECTID":333222},"geometry":{"x":185253.1799999997,"y":2563001.5600000024}},{"attributes":{"ID":333232,"DIS_CODE":0,"TOWNNAME":"官田區","LI":"官田里","LIN":"29鄰","STREET":" ","SECT":" ","MAREA":"中\u25A0","LANE":" ","ALLEY":" ","HOUSE_NO":"４０號之１","E_COORD97":183475.54999999999,"N_COORD97":2566633.6600000001,"ADDRESS":"中\u25A0４０號之１","OBJECTID":333223},"geometry":{"x":183475.54999999981,"y":2566633.6600000039}},{"attributes":{"ID":333233,"DIS_CODE":0,"TOWNNAME":"官田區","LI":"官田里","LIN":"29鄰","STREET":" ","SECT":" ","MAREA":"中\u25A0","LANE":" ","ALLEY":" ","HOUSE_NO":"４０號之２","E_COORD97":183475.92000000001,"N_COORD97":2566628.27,"ADDRESS":"中\u25A0４０號之２","OBJECTID":333224},"geometry":{"x":183475.92000000086,"y":2566628.2699999996}},{"attributes":{"ID":333234,"DIS_CODE":0,"TOWNNAME":"仁德區","LI":"仁德里","LIN":"3鄰","STREET":"仁中七街","SECT":" ","MAREA":" ","LANE":" ","ALLEY":" ","HOUSE_NO":"６７號","E_COORD97":173202.30814099999,"N_COORD97":2540357.9497799999,"ADDRESS":"仁中七街６７號","OBJECTID":333225},"geometry":{"x":173202.30814100057,"y":2540357.9497780018}},{"attributes":{"ID":333235,"DIS_CODE":0,"TOWNNAME":"歸仁區","LI":"西埔里","LIN":"15鄰","STREET":"西埔二街","SECT":" ","MAREA":" ","LANE":"１５０巷","ALLEY":" ","HOUSE_NO":"６０號","E_COORD97":176573.86590599999,"N_COORD97":2544872.8994700001,"ADDRESS":"西埔二街１５０巷６０號","OBJECTID":333226},"geometry":{"x":176573.86590600107,"y":2544872.8994730022}},{"attributes":{"ID":333236,"DIS_CODE":0,"TOWNNAME":"官田區","LI":"官田里","LIN":"29鄰","STREET":" ","SECT":" ","MAREA":"中\u25A0","LANE":" ","ALLEY":" ","HOUSE_NO":"４０號之３","E_COORD97":183453.42999999999,"N_COORD97":2566643.9900000002,"ADDRESS":"中\u25A0４０號之３","OBJECTID":333227},"geometry":{"x":183453.43000000063,"y":2566643.9900000002}},{"attributes":{"ID":333237,"DIS_CODE":0,"TOWNNAME":"關廟區","LI":"田中里","LIN":"4鄰","STREET":"中大街","SECT":" ","MAREA":" ","LANE":" ","ALLEY":" ","HOUSE_NO":"１７號","E_COORD97":183801.57219599999,"N_COORD97":2533780.6271600001,"ADDRESS":"中大街１７號","OBJECTID":333228},"geometry":{"x":183801.57219600119,"y":2533780.6271620039}},{"attributes":{"ID":333238,"DIS_CODE":0,"TOWNNAME":"中西區","LI":"赤嵌里","LIN":"19鄰","STREET":"赤崁東街","SECT":" ","MAREA":" ","LANE":" ","ALLEY":" ","HOUSE_NO":"２６號","E_COORD97":168334.63334599999,"N_COORD97":2544186.9392499998,"ADDRESS":"赤崁東街２６號","OBJECTID":333229},"geometry":{"x":168334.63334599975,"y":2544186.9392510001}},{"attributes":{"ID":333239,"DIS_CODE":0,"TOWNNAME":"安南區","LI":"淵中里","LIN":"15鄰","STREET":"安中路","SECT":"四段","MAREA":" ","LANE":"４巷","ALLEY":" ","HOUSE_NO":"９５號","E_COORD97":165085.70999999999,"N_COORD97":2550235.5600000001,"ADDRESS":"安中路四段４巷９５號","OBJECTID":333230},"geometry":{"x":165085.70999999996,"y":2550235.5600000042}},{"attributes":{"ID":333240,"DIS_CODE":0,"TOWNNAME":"安南區","LI":"淵中里","LIN":"15鄰","STREET":"安中路","SECT":"四段","MAREA":" ","LANE":"４巷","ALLEY":" ","HOUSE_NO":"９７號","E_COORD97":165084,"N_COORD97":2550239.4300000002,"ADDRESS":"安中路四段４巷９７號","OBJECTID":333231},"geometry":{"x":165084.00000000186,"y":2550239.4300000016}},{"attributes":{"ID":333241,"DIS_CODE":0,"TOWNNAME":"安南區","LI":"淵中里","LIN":"15鄰","STREET":"安中路","SECT":"四段","MAREA":" ","LANE":"４巷","ALLEY":" ","HOUSE_NO":"９９號","E_COORD97":165083.01000000001,"N_COORD97":2550243.3100000001,"ADDRESS":"安中路四段４巷９９號","OBJECTID":333232},"geometry":{"x":165083.00999999978,"y":2550243.3100000005}},{"attributes":{"ID":333242,"DIS_CODE":0,"TOWNNAME":"安南區","LI":"安和里","LIN":"15鄰","STREET":"安和路","SECT":"一段","MAREA":" ","LANE":"９６巷","ALLEY":" ","HOUSE_NO":"１０１號","E_COORD97":169705.14999999999,"N_COORD97":2547786.2599999998,"ADDRESS":"安和路一段９６巷１０１號","OBJECTID":333233},"geometry":{"x":169705.1500000013,"y":2547786.2600000016}},{"attributes":{"ID":333243,"DIS_CODE":0,"TOWNNAME":"安南區","LI":"安和里","LIN":"15鄰","STREET":"安和路","SECT":"一段","MAREA":" ","LANE":"９６巷","ALLEY":" ","HOUSE_NO":"７４號","E_COORD97":169657.5,"N_COORD97":2547744.6899999999,"ADDRESS":"安和路一段９６巷７４號","OBJECTID":333234},"geometry":{"x":169657.49999999907,"y":2547744.6899999995}},{"attributes":{"ID":333244,"DIS_CODE":0,"TOWNNAME":"下營區","LI":"開化里","LIN":"9鄰","STREET":" ","SECT":" ","MAREA":"中營","LANE":" ","ALLEY":" ","HOUSE_NO":"５４７之１號","E_COORD97":176197.424088,"N_COORD97":2568206.35586,"ADDRESS":"中營５４７之１號","OBJECTID":333235},"geometry":{"x":176197.42408800032,"y":2568206.3558610026}},{"attributes":{"ID":333245,"DIS_CODE":0,"TOWNNAME":"官田區","LI":"官田里","LIN":"29鄰","STREET":" ","SECT":" ","MAREA":"中\u25A0","LANE":" ","ALLEY":" ","HOUSE_NO":"４０號之４","E_COORD97":183444.95999999999,"N_COORD97":2566642.4399999999,"ADDRESS":"中\u25A0４０號之４","OBJECTID":333236},"geometry":{"x":183444.96000000089,"y":2566642.4400000013}},{"attributes":{"ID":333246,"DIS_CODE":0,"TOWNNAME":"官田區","LI":"官田里","LIN":"29鄰","STREET":" ","SECT":" ","MAREA":"中\u25A0","LANE":" ","ALLEY":" ","HOUSE_NO":"４０號","E_COORD97":183479.44,"N_COORD97":2566654.0099999998,"ADDRESS":"中\u25A0４０號","OBJECTID":333237},"geometry":{"x":183479.44000000227,"y":2566654.0099999998}},{"attributes":{"ID":333247,"DIS_CODE":0,"TOWNNAME":"官田區","LI":"官田里","LIN":"29鄰","STREET":" ","SECT":" ","MAREA":"中\u25A0","LANE":" ","ALLEY":" ","HOUSE_NO":"４１號之１","E_COORD97":183467.01000000001,"N_COORD97":2566605.9700000002,"ADDRESS":"中\u25A0４１號之１","OBJECTID":333238},"geometry":{"x":183467.01000000071,"y":2566605.9700000025}},{"attributes":{"ID":333248,"DIS_CODE":0,"TOWNNAME":"官田區","LI":"官田里","LIN":"29鄰","STREET":" ","SECT":" ","MAREA":"中\u25A0","LANE":" ","ALLEY":" ","HOUSE_NO":"４１號之２","E_COORD97":183470.17000000001,"N_COORD97":2566597.3999999999,"ADDRESS":"中\u25A0４１號之２","OBJECTID":333239},"geometry":{"x":183470.16999999993,"y":2566597.4000000004}},{"attributes":{"ID":333249,"DIS_CODE":0,"TOWNNAME":"官田區","LI":"官田里","LIN":"30鄰","STREET":" ","SECT":" ","MAREA":"中\u25A0","LANE":" ","ALLEY":" ","HOUSE_NO":"６４號之３","E_COORD97":183545.70999999999,"N_COORD97":2566585.3100000001,"ADDRESS":"中\u25A0６４號之３","OBJECTID":333240},"geometry":{"x":183545.70999999996,"y":2566585.3100000005}},{"attributes":{"ID":333250,"DIS_CODE":0,"TOWNNAME":"官田區","LI":"官田里","LIN":"30鄰","STREET":" ","SECT":" ","MAREA":"中\u25A0","LANE":" ","ALLEY":" ","HOUSE_NO":"６５號之１","E_COORD97":183519.51999999999,"N_COORD97":2566609.54,"ADDRESS":"中\u25A0６５號之１","OBJECTID":333241},"geometry":{"x":183519.51999999955,"y":2566609.5399999972}},{"attributes":{"ID":333251,"DIS_CODE":0,"TOWNNAME":"安南區","LI":"淵東里","LIN":"15鄰","STREET":"本原街","SECT":"三段","MAREA":" ","LANE":"１６９巷","ALLEY":" ","HOUSE_NO":"１５號","E_COORD97":165509.87,"N_COORD97":2550287.4100000001,"ADDRESS":"本原街三段１６９巷１５號","OBJECTID":333242},"geometry":{"x":165509.87000000011,"y":2550287.410000002}},{"attributes":{"ID":333252,"DIS_CODE":0,"TOWNNAME":"安南區","LI":"淵東里","LIN":"15鄰","STREET":"本原街","SECT":"三段","MAREA":" ","LANE":"１６９巷","ALLEY":" ","HOUSE_NO":"３號","E_COORD97":165503.45000000001,"N_COORD97":2550311.1000000001,"ADDRESS":"本原街三段１６９巷３號","OBJECTID":333243},"geometry":{"x":165503.45000000112,"y":2550311.0999999996}},{"attributes":{"ID":333253,"DIS_CODE":0,"TOWNNAME":"安南區","LI":"幸福里","LIN":"15鄰","STREET":"府安路","SECT":"六段","MAREA":" ","LANE":"４５巷","ALLEY":" ","HOUSE_NO":"６４號","E_COORD97":166941.79999999999,"N_COORD97":2546829.8700000001,"ADDRESS":"府安路六段４５巷６４號","OBJECTID":333244},"geometry":{"x":166941.80000000075,"y":2546829.8699999992}},{"attributes":{"ID":333254,"DIS_CODE":0,"TOWNNAME":"六甲區","LI":"中社里","LIN":"20鄰","STREET":" ","SECT":" ","MAREA":"林鳳營","LANE":" ","ALLEY":" ","HOUSE_NO":"２４０之５１號","E_COORD97":180308.22,"N_COORD97":2571125.3599999999,"ADDRESS":"林鳳營２４０之５１號","OBJECTID":333245},"geometry":{"x":180308.21999999974,"y":2571125.3600000013}},{"attributes":{"ID":333255,"DIS_CODE":0,"TOWNNAME":"安南區","LI":"海南里","LIN":"15鄰","STREET":"府安路","SECT":"七段","MAREA":" ","LANE":"８４巷","ALLEY":" ","HOUSE_NO":"５號","E_COORD97":165835.66,"N_COORD97":2545859.1400000001,"ADDRESS":"府安路七段８４巷５號","OBJECTID":333246},"geometry":{"x":165835.66000000201,"y":2545859.1400000025}},{"attributes":{"ID":333256,"DIS_CODE":0,"TOWNNAME":"官田區","LI":"官田里","LIN":"27鄰","STREET":" ","SECT":" ","MAREA":"中\u25A0","LANE":" ","ALLEY":" ","HOUSE_NO":"９號","E_COORD97":183445.95999999999,"N_COORD97":2566436.1400000001,"ADDRESS":"中\u25A0９號","OBJECTID":333247},"geometry":{"x":183445.95999999996,"y":2566436.1400000006}},{"attributes":{"ID":333257,"DIS_CODE":0,"TOWNNAME":"六甲區","LI":"中社里","LIN":"20鄰","STREET":" ","SECT":" ","MAREA":"林鳳營","LANE":" ","ALLEY":" ","HOUSE_NO":"２４０號之５１","E_COORD97":180308.22,"N_COORD97":2571125.3599999999,"ADDRESS":"林鳳營２４０號之５１","OBJECTID":333248},"geometry":{"x":180308.21999999974,"y":2571125.3600000013}},{"attributes":{"ID":333258,"DIS_CODE":0,"TOWNNAME":"六甲區","LI":"中社里","LIN":"20鄰","STREET":" ","SECT":" ","MAREA":"林鳳營","LANE":" ","ALLEY":" ","HOUSE_NO":"２４０號之５２","E_COORD97":180312.22,"N_COORD97":2571126.0099999998,"ADDRESS":"林鳳營２４０號之５２","OBJECTID":333249},"geometry":{"x":180312.22000000067,"y":2571126.0099999998}},{"attributes":{"ID":333259,"DIS_CODE":0,"TOWNNAME":"麻豆區","LI":"龍泉里","LIN":"4鄰","STREET":" ","SECT":" ","MAREA":"溝子墘","LANE":" ","ALLEY":" ","HOUSE_NO":"３７號之２","E_COORD97":174092.752764,"N_COORD97":2564127.0051099998,"ADDRESS":"溝子墘３７號之２","OBJECTID":333250},"geometry":{"x":174092.75276400056,"y":2564127.005107997}},{"attributes":{"ID":333260,"DIS_CODE":0,"TOWNNAME":"永康區","LI":"二王里","LIN":"1鄰","STREET":"二王路","SECT":" ","MAREA":" ","LANE":"２７巷","ALLEY":" ","HOUSE_NO":"１６號","E_COORD97":173052.42181199999,"N_COORD97":2546798.2174,"ADDRESS":"二王路２７巷１６號","OBJECTID":333251},"geometry":{"x":173052.42181199975,"y":2546798.2173970025}},{"attributes":{"ID":333261,"DIS_CODE":0,"TOWNNAME":"安南區","LI":"海南里","LIN":"15鄰","STREET":"府安路","SECT":"七段","MAREA":" ","LANE":"７５巷","ALLEY":" ","HOUSE_NO":"１２號","E_COORD97":165867.5,"N_COORD97":2545921.4100000001,"ADDRESS":"府安路七段７５巷１２號","OBJECTID":333252},"geometry":{"x":165867.50000000093,"y":2545921.410000002}},{"attributes":{"ID":333262,"DIS_CODE":0,"TOWNNAME":"安南區","LI":"幸福里","LIN":"15鄰","STREET":"海佃路","SECT":"一段","MAREA":" ","LANE":"９５巷","ALLEY":" ","HOUSE_NO":"７２號","E_COORD97":166880.41,"N_COORD97":2546883.46,"ADDRESS":"海佃路一段９５巷７２號","OBJECTID":333253},"geometry":{"x":166880.41000000108,"y":2546883.4600000046}},{"attributes":{"ID":333263,"DIS_CODE":0,"TOWNNAME":"安南區","LI":"幸福里","LIN":"15鄰","STREET":"府安路","SECT":"六段","MAREA":" ","LANE":"４５巷","ALLEY":" ","HOUSE_NO":"４６號","E_COORD97":166952.09,"N_COORD97":2546783.8300000001,"ADDRESS":"府安路六段４５巷４６號","OBJECTID":333254},"geometry":{"x":166952.09000000078,"y":2546783.8300000001}},{"attributes":{"ID":333264,"DIS_CODE":0,"TOWNNAME":"安南區","LI":"幸福里","LIN":"15鄰","STREET":"府安路","SECT":"六段","MAREA":" ","LANE":"４５巷","ALLEY":" ","HOUSE_NO":"４８號","E_COORD97":166951.54999999999,"N_COORD97":2546789.5299999998,"ADDRESS":"府安路六段４５巷４８號","OBJECTID":333255},"geometry":{"x":166951.55000000168,"y":2546789.5299999993}},{"attributes":{"ID":333265,"DIS_CODE":0,"TOWNNAME":"安南區","LI":"幸福里","LIN":"15鄰","STREET":"府安路","SECT":"六段","MAREA":" ","LANE":"４５巷","ALLEY":" ","HOUSE_NO":"６７號","E_COORD97":166913.85999999999,"N_COORD97":2546830.27,"ADDRESS":"府安路六段４５巷６７號","OBJECTID":333256},"geometry":{"x":166913.86000000034,"y":2546830.2700000014}},{"attributes":{"ID":333266,"DIS_CODE":0,"TOWNNAME":"安南區","LI":"海南里","LIN":"15鄰","STREET":"府安路","SECT":"七段","MAREA":" ","LANE":"７５巷","ALLEY":" ","HOUSE_NO":"１０號","E_COORD97":165873.87,"N_COORD97":2545914.96,"ADDRESS":"府安路七段７５巷１０號","OBJECTID":333257},"geometry":{"x":165873.87000000104,"y":2545914.9600000028}},{"attributes":{"ID":333267,"DIS_CODE":0,"TOWNNAME":"永康區","LI":"正強里","LIN":"8鄰","STREET":"正義街","SECT":" ","MAREA":" ","LANE":" ","ALLEY":" ","HOUSE_NO":"７５號","E_COORD97":173487.06,"N_COORD97":2547585.2200000002,"ADDRESS":"正義街７５號","OBJECTID":333258},"geometry":{"x":173487.05999999959,"y":2547585.2200000007}},{"attributes":{"ID":333268,"DIS_CODE":0,"TOWNNAME":"六甲區","LI":"中社里","LIN":"20鄰","STREET":" ","SECT":" ","MAREA":"林鳳營","LANE":" ","ALLEY":" ","HOUSE_NO":"２４０號之２９","E_COORD97":180351.07000000001,"N_COORD97":2571167.02,"ADDRESS":"林鳳營２４０號之２９","OBJECTID":333259},"geometry":{"x":180351.07000000123,"y":2571167.0200000033}},{"attributes":{"ID":333269,"DIS_CODE":0,"TOWNNAME":"六甲區","LI":"中社里","LIN":"20鄰","STREET":" ","SECT":" ","MAREA":"林鳳營","LANE":" ","ALLEY":" ","HOUSE_NO":"２４０號之３０","E_COORD97":180351.07999999999,"N_COORD97":2571162.5,"ADDRESS":"林鳳營２４０號之３０","OBJECTID":333260},"geometry":{"x":180351.08000000101,"y":2571162.5000000019}},{"attributes":{"ID":333270,"DIS_CODE":0,"TOWNNAME":"六甲區","LI":"中社里","LIN":"20鄰","STREET":" ","SECT":" ","MAREA":"林鳳營","LANE":" ","ALLEY":" ","HOUSE_NO":"２４０號之３１","E_COORD97":180351.59,"N_COORD97":2571157.7999999998,"ADDRESS":"林鳳營２４０號之３１","OBJECTID":333261},"geometry":{"x":180351.58999999985,"y":2571157.8000000026}},{"attributes":{"ID":333271,"DIS_CODE":0,"TOWNNAME":"六甲區","LI":"中社里","LIN":"20鄰","STREET":" ","SECT":" ","MAREA":"林鳳營","LANE":" ","ALLEY":" ","HOUSE_NO":"２４０號之３２","E_COORD97":180351.66,"N_COORD97":2571153.3900000001,"ADDRESS":"林鳳營２４０號之３２","OBJECTID":333262},"geometry":{"x":180351.66000000201,"y":2571153.3900000025}},{"attributes":{"ID":333272,"DIS_CODE":0,"TOWNNAME":"六甲區","LI":"中社里","LIN":"20鄰","STREET":" ","SECT":" ","MAREA":"林鳳營","LANE":" ","ALLEY":" ","HOUSE_NO":"２４０號之３３","E_COORD97":180351.59,"N_COORD97":2571148.4700000002,"ADDRESS":"林鳳營２４０號之３３","OBJECTID":333263},"geometry":{"x":180351.58999999985,"y":2571148.4700000025}},{"attributes":{"ID":333273,"DIS_CODE":0,"TOWNNAME":"六甲區","LI":"中社里","LIN":"20鄰","STREET":" ","SECT":" ","MAREA":"林鳳營","LANE":" ","ALLEY":" ","HOUSE_NO":"２４０號之３４","E_COORD97":180295.34,"N_COORD97":2571149.48,"ADDRESS":"林鳳營２４０號之３４","OBJECTID":333264},"geometry":{"x":180295.33999999985,"y":2571149.4800000023}},{"attributes":{"ID":333274,"DIS_CODE":0,"TOWNNAME":"六甲區","LI":"中社里","LIN":"20鄰","STREET":" ","SECT":" ","MAREA":"林鳳營","LANE":" ","ALLEY":" ","HOUSE_NO":"２４０號之３５","E_COORD97":180300.28,"N_COORD97":2571150.0099999998,"ADDRESS":"林鳳營２４０號之３５","OBJECTID":333265},"geometry":{"x":180300.28000000119,"y":2571150.0099999998}},{"attributes":{"ID":333275,"DIS_CODE":0,"TOWNNAME":"六甲區","LI":"中社里","LIN":"20鄰","STREET":" ","SECT":" ","MAREA":"林鳳營","LANE":" ","ALLEY":" ","HOUSE_NO":"２４０號之３６","E_COORD97":180304.60000000001,"N_COORD97":2571150.7400000002,"ADDRESS":"林鳳營２４０號之３６","OBJECTID":333266},"geometry":{"x":180304.60000000056,"y":2571150.7400000021}},{"attributes":{"ID":333276,"DIS_CODE":0,"TOWNNAME":"六甲區","LI":"中社里","LIN":"20鄰","STREET":" ","SECT":" ","MAREA":"林鳳營","LANE":" ","ALLEY":" ","HOUSE_NO":"２４０號之３７","E_COORD97":180309.31,"N_COORD97":2571151.5499999998,"ADDRESS":"林鳳營２４０號之３７","OBJECTID":333267},"geometry":{"x":180309.31000000145,"y":2571151.5500000026}},{"attributes":{"ID":333277,"DIS_CODE":0,"TOWNNAME":"永康區","LI":"二王里","LIN":"1鄰","STREET":"二王路","SECT":" ","MAREA":" ","LANE":"２７巷","ALLEY":" ","HOUSE_NO":"２０號","E_COORD97":173065.12804000001,"N_COORD97":2546798.8524000002,"ADDRESS":"二王路２７巷２０號","OBJECTID":333268},"geometry":{"x":173065.1280400008,"y":2546798.8523970023}},{"attributes":{"ID":333278,"DIS_CODE":0,"TOWNNAME":"仁德區","LI":"保安里","LIN":"4鄰","STREET":"文賢路","SECT":"一段","MAREA":" ","LANE":"８３４巷","ALLEY":" ","HOUSE_NO":"２之２號","E_COORD97":171432.76635699999,"N_COORD97":2536148.6199699999,"ADDRESS":"文賢路一段８３４巷２之２號","OBJECTID":333269},"geometry":{"x":171432.76635699999,"y":2536148.6199699976}},{"attributes":{"ID":333279,"DIS_CODE":0,"TOWNNAME":"仁德區","LI":"仁義里","LIN":"1鄰","STREET":"中山路","SECT":" ","MAREA":" ","LANE":"２３巷","ALLEY":" ","HOUSE_NO":"１０號","E_COORD97":175185.071085,"N_COORD97":2540971.4534800001,"ADDRESS":"中山路２３巷１０號","OBJECTID":333270},"geometry":{"x":175185.07108500041,"y":2540971.4534830004}},{"attributes":{"ID":333280,"DIS_CODE":0,"TOWNNAME":"歸仁區","LI":"西埔里","LIN":"1鄰","STREET":"西埔三街","SECT":" ","MAREA":" ","LANE":"５１巷","ALLEY":" ","HOUSE_NO":"７３號","E_COORD97":177081.131483,"N_COORD97":2543985.0103500001,"ADDRESS":"西埔三街５１巷７３號","OBJECTID":333271},"geometry":{"x":177081.13148300163,"y":2543985.0103530008}},{"attributes":{"ID":333281,"DIS_CODE":0,"TOWNNAME":"歸仁區","LI":"西埔里","LIN":"1鄰","STREET":"西埔三街","SECT":" ","MAREA":" ","LANE":"５１巷","ALLEY":" ","HOUSE_NO":"９９號","E_COORD97":177166.89928799999,"N_COORD97":2543980.3536899998,"ADDRESS":"西埔三街５１巷９９號","OBJECTID":333272},"geometry":{"x":177166.89928799961,"y":2543980.353689}},{"attributes":{"ID":333282,"DIS_CODE":0,"TOWNNAME":"仁德區","LI":"保安里","LIN":"3鄰","STREET":"保安路","SECT":"一段","MAREA":" ","LANE":" ","ALLEY":" ","HOUSE_NO":"９０號","E_COORD97":170695.07946400001,"N_COORD97":2536413.20316,"ADDRESS":"保安路一段９０號","OBJECTID":333273},"geometry":{"x":170695.07946399972,"y":2536413.2031610012}},{"attributes":{"ID":333283,"DIS_CODE":0,"TOWNNAME":"仁德區","LI":"保安里","LIN":"4鄰","STREET":"文賢路","SECT":"一段","MAREA":" ","LANE":" ","ALLEY":" ","HOUSE_NO":"８３６之１號","E_COORD97":171474.49025,"N_COORD97":2536160.8966299999,"ADDRESS":"文賢路一段８３６之１號","OBJECTID":333274},"geometry":{"x":171474.49025000166,"y":2536160.8966300022}},{"attributes":{"ID":333284,"DIS_CODE":0,"TOWNNAME":"南區","LI":"府南里","LIN":"14鄰","STREET":"永成路","SECT":"三段","MAREA":" ","LANE":" ","ALLEY":" ","HOUSE_NO":"３５６號","E_COORD97":167507.553934,"N_COORD97":2540971.8687800001,"ADDRESS":"永成路三段３５６號","OBJECTID":333275},"geometry":{"x":167507.55393400136,"y":2540971.868784003}},{"attributes":{"ID":333285,"DIS_CODE":0,"TOWNNAME":"南區","LI":"府南里","LIN":"10鄰","STREET":"永成路","SECT":"三段","MAREA":" ","LANE":" ","ALLEY":" ","HOUSE_NO":"２５１號","E_COORD97":167487.675223,"N_COORD97":2541026.89732,"ADDRESS":"永成路三段２５１號","OBJECTID":333276},"geometry":{"x":167487.67522300128,"y":2541026.8973229993}},{"attributes":{"ID":333286,"DIS_CODE":0,"TOWNNAME":"安南區","LI":"海南里","LIN":"15鄰","STREET":"府安路","SECT":"七段","MAREA":" ","LANE":"７５巷","ALLEY":" ","HOUSE_NO":"１３號","E_COORD97":165844.47,"N_COORD97":2545914.0299999998,"ADDRESS":"府安路七段７５巷１３號","OBJECTID":333277},"geometry":{"x":165844.46999999974,"y":2545914.0299999993}},{"attributes":{"ID":333287,"DIS_CODE":0,"TOWNNAME":"安南區","LI":"海南里","LIN":"15鄰","STREET":"府安路","SECT":"七段","MAREA":" ","LANE":"７５巷","ALLEY":" ","HOUSE_NO":"１４號","E_COORD97":165860.85000000001,"N_COORD97":2545929.1000000001,"ADDRESS":"府安路七段７５巷１４號","OBJECTID":333278},"geometry":{"x":165860.84999999963,"y":2545929.1000000015}},{"attributes":{"ID":333288,"DIS_CODE":0,"TOWNNAME":"安南區","LI":"海南里","LIN":"15鄰","STREET":"府安路","SECT":"七段","MAREA":" ","LANE":"７５巷","ALLEY":" ","HOUSE_NO":"１６號","E_COORD97":165858.07000000001,"N_COORD97":2545935.6099999999,"ADDRESS":"府安路七段７５巷１６號","OBJECTID":333279},"geometry":{"x":165858.0700000003,"y":2545935.6100000013}},{"attributes":{"ID":333289,"DIS_CODE":0,"TOWNNAME":"安南區","LI":"海南里","LIN":"15鄰","STREET":"府安路","SECT":"七段","MAREA":" ","LANE":"７５巷","ALLEY":" ","HOUSE_NO":"１７號","E_COORD97":165832.22,"N_COORD97":2545929.6000000001,"ADDRESS":"府安路七段７５巷１７號","OBJECTID":333280},"geometry":{"x":165832.22000000067,"y":2545929.6000000015}},{"attributes":{"ID":333290,"DIS_CODE":0,"TOWNNAME":"安南區","LI":"海南里","LIN":"15鄰","STREET":"府安路","SECT":"七段","MAREA":" ","LANE":"７５巷","ALLEY":" ","HOUSE_NO":"１９號","E_COORD97":165823.57000000001,"N_COORD97":2545938.04,"ADDRESS":"府安路七段７５巷１９號","OBJECTID":333281},"geometry":{"x":165823.57000000123,"y":2545938.0399999991}},{"attributes":{"ID":333291,"DIS_CODE":0,"TOWNNAME":"七股區","LI":"篤加里","LIN":"5鄰","STREET":" ","SECT":" ","MAREA":"篤加","LANE":" ","ALLEY":" ","HOUSE_NO":"４５號之５","E_COORD97":160609.406078,"N_COORD97":2562159.3334499998,"ADDRESS":"篤加４５號之５","OBJECTID":333282},"geometry":{"x":160609.40607800055,"y":2562159.3334460016}},{"attributes":{"ID":333292,"DIS_CODE":0,"TOWNNAME":"大內區","LI":"曲溪里","LIN":"3鄰","STREET":" ","SECT":" ","MAREA":"二重溪","LANE":" ","ALLEY":" ","HOUSE_NO":"３０號之１","E_COORD97":187426.186869,"N_COORD97":2557552.8364800001,"ADDRESS":"二重溪３０號之１","OBJECTID":333283},"geometry":{"x":187426.18686900102,"y":2557552.8364819996}},{"attributes":{"ID":333293,"DIS_CODE":0,"TOWNNAME":"六甲區","LI":"中社里","LIN":"20鄰","STREET":" ","SECT":" ","MAREA":"林鳳營","LANE":" ","ALLEY":" ","HOUSE_NO":"２４０號之４６","E_COORD97":180286.82999999999,"N_COORD97":2571121.8900000001,"ADDRESS":"林鳳營２４０號之４６","OBJECTID":333284},"geometry":{"x":180286.83000000007,"y":2571121.8900000025}},{"attributes":{"ID":333294,"DIS_CODE":0,"TOWNNAME":"六甲區","LI":"中社里","LIN":"20鄰","STREET":" ","SECT":" ","MAREA":"林鳳營","LANE":" ","ALLEY":" ","HOUSE_NO":"２４０號之４７","E_COORD97":180290.91,"N_COORD97":2571122.5699999998,"ADDRESS":"林鳳營２４０號之４７","OBJECTID":333285},"geometry":{"x":180290.91000000108,"y":2571122.5700000003}},{"attributes":{"ID":333295,"DIS_CODE":0,"TOWNNAME":"六甲區","LI":"中社里","LIN":"20鄰","STREET":" ","SECT":" ","MAREA":"林鳳營","LANE":" ","ALLEY":" ","HOUSE_NO":"２４０之６０號","E_COORD97":180346.32999999999,"N_COORD97":2571131.9500000002,"ADDRESS":"林鳳營２４０之６０號","OBJECTID":333286},"geometry":{"x":180346.33000000007,"y":2571131.9499999993}},{"attributes":{"ID":333296,"DIS_CODE":0,"TOWNNAME":"六甲區","LI":"中社里","LIN":"20鄰","STREET":" ","SECT":" ","MAREA":"林鳳營","LANE":" ","ALLEY":" ","HOUSE_NO":"２４０號之６０","E_COORD97":180346.32999999999,"N_COORD97":2571131.9500000002,"ADDRESS":"林鳳營２４０號之６０","OBJECTID":333287},"geometry":{"x":180346.33000000007,"y":2571131.9499999993}},{"attributes":{"ID":333297,"DIS_CODE":0,"TOWNNAME":"六甲區","LI":"中社里","LIN":"20鄰","STREET":" ","SECT":" ","MAREA":"林鳳營","LANE":" ","ALLEY":" ","HOUSE_NO":"２４０號之６１","E_COORD97":180351.69,"N_COORD97":2571132.8199999998,"ADDRESS":"林鳳營２４０號之６１","OBJECTID":333288},"geometry":{"x":180351.69000000227,"y":2571132.8200000022}},{"attributes":{"ID":333298,"DIS_CODE":0,"TOWNNAME":"六甲區","LI":"中社里","LIN":"20鄰","STREET":" ","SECT":" ","MAREA":"林鳳營","LANE":" ","ALLEY":" ","HOUSE_NO":"２４０號之６２","E_COORD97":180359.87,"N_COORD97":2571134.5099999998,"ADDRESS":"林鳳營２４０號之６２","OBJECTID":333289},"geometry":{"x":180359.87000000011,"y":2571134.5100000016}},{"attributes":{"ID":333299,"DIS_CODE":0,"TOWNNAME":"六甲區","LI":"中社里","LIN":"20鄰","STREET":" ","SECT":" ","MAREA":"林鳳營","LANE":" ","ALLEY":" ","HOUSE_NO":"２４０號","E_COORD97":180201.14000000001,"N_COORD97":2571109.1899999999,"ADDRESS":"林鳳營２４０號","OBJECTID":333290},"geometry":{"x":180201.1400000006,"y":2571109.1900000013}},{"attributes":{"ID":333300,"DIS_CODE":0,"TOWNNAME":"安南區","LI":"海南里","LIN":"15鄰","STREET":"府安路","SECT":"七段","MAREA":" ","LANE":"７５巷","ALLEY":" ","HOUSE_NO":"２０號","E_COORD97":165847.81,"N_COORD97":2545949.5600000001,"ADDRESS":"府安路七段７５巷２０號","OBJECTID":333291},"geometry":{"x":165847.81000000145,"y":2545949.5600000005}},{"attributes":{"ID":333301,"DIS_CODE":0,"TOWNNAME":"安南區","LI":"海南里","LIN":"15鄰","STREET":"府安路","SECT":"七段","MAREA":" ","LANE":"７５巷","ALLEY":" ","HOUSE_NO":"２１號","E_COORD97":165818.44,"N_COORD97":2545945.6400000001,"ADDRESS":"府安路七段７５巷２１號","OBJECTID":333292},"geometry":{"x":165818.44000000041,"y":2545945.6400000006}},{"attributes":{"ID":333302,"DIS_CODE":0,"TOWNNAME":"大內區","LI":"曲溪里","LIN":"4鄰","STREET":" ","SECT":" ","MAREA":"二重溪","LANE":" ","ALLEY":" ","HOUSE_NO":"３５號之１","E_COORD97":187355.00636500001,"N_COORD97":2557553.0481500002,"ADDRESS":"二重溪３５號之１","OBJECTID":333293},"geometry":{"x":187355.00636500027,"y":2557553.048148999}},{"attributes":{"ID":333303,"DIS_CODE":0,"TOWNNAME":"下營區","LI":"西連里","LIN":"5鄰","STREET":" ","SECT":" ","MAREA":"西寮","LANE":" ","ALLEY":" ","HOUSE_NO":"１號之９","E_COORD97":173801.065466,"N_COORD97":2567234.7994900001,"ADDRESS":"西寮１號之９","OBJECTID":333294},"geometry":{"x":173801.06546599977,"y":2567234.7994889989}},{"attributes":{"ID":333304,"DIS_CODE":0,"TOWNNAME":"新營區","LI":"太北里","LIN":"5鄰","STREET":" ","SECT":" ","MAREA":"太子宮","LANE":" ","ALLEY":" ","HOUSE_NO":"３９號","E_COORD97":175829.979399,"N_COORD97":2577234.3221900002,"ADDRESS":"太子宮３９號","OBJECTID":333295},"geometry":{"x":175829.97939900123,"y":2577234.3221899997}},{"attributes":{"ID":333305,"DIS_CODE":0,"TOWNNAME":"新營區","LI":"太北里","LIN":"5鄰","STREET":" ","SECT":" ","MAREA":"太子宮","LANE":" ","ALLEY":" ","HOUSE_NO":"４２號","E_COORD97":175785.468876,"N_COORD97":2577229.39763,"ADDRESS":"太子宮４２號","OBJECTID":333296},"geometry":{"x":175785.46887599956,"y":2577229.3976350017}},{"attributes":{"ID":333306,"DIS_CODE":0,"TOWNNAME":"新營區","LI":"太北里","LIN":"5鄰","STREET":" ","SECT":" ","MAREA":"太子宮","LANE":" ","ALLEY":" ","HOUSE_NO":"３５號之１","E_COORD97":175931.75,"N_COORD97":2577201.6000000001,"ADDRESS":"太子宮３５號之１","OBJECTID":333297},"geometry":{"x":175931.75000000093,"y":2577201.6000000034}},{"attributes":{"ID":333307,"DIS_CODE":0,"TOWNNAME":"歸仁區","LI":"西埔里","LIN":"1鄰","STREET":"西埔三街","SECT":" ","MAREA":" ","LANE":"５１巷","ALLEY":" ","HOUSE_NO":"１２８號","E_COORD97":177172.30615799999,"N_COORD97":2543915.58372,"ADDRESS":"西埔三街５１巷１２８號","OBJECTID":333298},"geometry":{"x":177172.30615799967,"y":2543915.5837240033}},{"attributes":{"ID":333308,"DIS_CODE":0,"TOWNNAME":"永康區","LI":"東橋里","LIN":"14鄰","STREET":"東橋二街","SECT":" ","MAREA":" ","LANE":" ","ALLEY":" ","HOUSE_NO":"７２號","E_COORD97":171716.03795500001,"N_COORD97":2546450.2684200001,"ADDRESS":"東橋二街７２號","OBJECTID":333299},"geometry":{"x":171716.03795500007,"y":2546450.268424999}},{"attributes":{"ID":333309,"DIS_CODE":0,"TOWNNAME":"永康區","LI":"東橋里","LIN":"15鄰","STREET":"東橋二街","SECT":" ","MAREA":" ","LANE":" ","ALLEY":" ","HOUSE_NO":"１３０號","E_COORD97":171848.482797,"N_COORD97":2546551.9742000001,"ADDRESS":"東橋二街１３０號","OBJECTID":333300},"geometry":{"x":171848.48279699869,"y":2546551.9742030017}},{"attributes":{"ID":333310,"DIS_CODE":0,"TOWNNAME":"歸仁區","LI":"西埔里","LIN":"14鄰","STREET":"西埔二街","SECT":" ","MAREA":" ","LANE":" ","ALLEY":" ","HOUSE_NO":"３７號","E_COORD97":176858.15109100001,"N_COORD97":2544771.66909,"ADDRESS":"西埔二街３７號","OBJECTID":333301},"geometry":{"x":176858.15109100007,"y":2544771.6690950021}},{"attributes":{"ID":333311,"DIS_CODE":0,"TOWNNAME":"關廟區","LI":"龜洞里","LIN":"5鄰","STREET":"南橋街","SECT":" ","MAREA":" ","LANE":" ","ALLEY":" ","HOUSE_NO":"１０號","E_COORD97":182271.39167400001,"N_COORD97":2532700.6279199999,"ADDRESS":"南橋街１０號","OBJECTID":333302},"geometry":{"x":182271.39167400077,"y":2532700.6279179994}},{"attributes":{"ID":333312,"DIS_CODE":0,"TOWNNAME":"關廟區","LI":"龜洞里","LIN":"5鄰","STREET":"南橋街","SECT":" ","MAREA":" ","LANE":" ","ALLEY":" ","HOUSE_NO":"２８號","E_COORD97":182241.30581300001,"N_COORD97":2532695.9712499999,"ADDRESS":"南橋街２８號","OBJECTID":333303},"geometry":{"x":182241.30581299867,"y":2532695.9712540042}},{"attributes":{"ID":333313,"DIS_CODE":0,"TOWNNAME":"關廟區","LI":"龜洞里","LIN":"5鄰","STREET":"南橋街","SECT":" ","MAREA":" ","LANE":" ","ALLEY":" ","HOUSE_NO":"３０號","E_COORD97":182226.68662699999,"N_COORD97":2532698.7229200001,"ADDRESS":"南橋街３０號","OBJECTID":333304},"geometry":{"x":182226.68662699964,"y":2532698.7229190003}},{"attributes":{"ID":333314,"DIS_CODE":0,"TOWNNAME":"永康區","LI":"東橋里","LIN":"15鄰","STREET":"東橋二街","SECT":" ","MAREA":" ","LANE":" ","ALLEY":" ","HOUSE_NO":"１３８號","E_COORD97":171858.01882500001,"N_COORD97":2546554.30253,"ADDRESS":"東橋二街１３８號","OBJECTID":333305},"geometry":{"x":171858.01882500015,"y":2546554.3025349993}},{"attributes":{"ID":333315,"DIS_CODE":0,"TOWNNAME":"六甲區","LI":"甲南里","LIN":"20鄰","STREET":"復興街","SECT":" ","MAREA":" ","LANE":"１巷","ALLEY":" ","HOUSE_NO":"７號","E_COORD97":183909.560574,"N_COORD97":2569872.23863,"ADDRESS":"復興街１巷７號","OBJECTID":333306},"geometry":{"x":183909.56057400163,"y":2569872.238625003}},{"attributes":{"ID":333316,"DIS_CODE":0,"TOWNNAME":"安平區","LI":"平通里","LIN":"20鄰","STREET":"育平九街","SECT":" ","MAREA":" ","LANE":"３７２巷","ALLEY":" ","HOUSE_NO":"１６０號","E_COORD97":164594.48000000001,"N_COORD97":2544211.5,"ADDRESS":"育平九街３７２巷１６０號","OBJECTID":333307},"geometry":{"x":164594.48000000045,"y":2544211.5000000019}},{"attributes":{"ID":333317,"DIS_CODE":0,"TOWNNAME":"安平區","LI":"平通里","LIN":"20鄰","STREET":"育平九街","SECT":" ","MAREA":" ","LANE":"３７２巷","ALLEY":" ","HOUSE_NO":"１６０號之１","E_COORD97":164594.35999999999,"N_COORD97":2544219.4500000002,"ADDRESS":"育平九街３７２巷１６０號之１","OBJECTID":333308},"geometry":{"x":164594.36000000127,"y":2544219.4499999993}},{"attributes":{"ID":333318,"DIS_CODE":0,"TOWNNAME":"安平區","LI":"平通里","LIN":"20鄰","STREET":"育平九街","SECT":" ","MAREA":" ","LANE":"３７２巷","ALLEY":" ","HOUSE_NO":"１６０號之２","E_COORD97":164595.10999999999,"N_COORD97":2544232.7000000002,"ADDRESS":"育平九街３７２巷１６０號之２","OBJECTID":333309},"geometry":{"x":164595.11000000034,"y":2544232.7000000011}},{"attributes":{"ID":333319,"DIS_CODE":0,"TOWNNAME":"安南區","LI":"海南里","LIN":"12鄰","STREET":"府安路","SECT":"七段","MAREA":" ","LANE":" ","ALLEY":" ","HOUSE_NO":"４４０號之２０","E_COORD97":163327.61653900001,"N_COORD97":2545423.1504600001,"ADDRESS":"府安路七段４４０號之２０","OBJECTID":333310},"geometry":{"x":163327.6165389996,"y":2545423.1504570004}},{"attributes":{"ID":333320,"DIS_CODE":0,"TOWNNAME":"仁德區","LI":"仁義里","LIN":"17鄰","STREET":"義林十二街","SECT":" ","MAREA":" ","LANE":" ","ALLEY":" ","HOUSE_NO":"１５６號","E_COORD97":174281.23999999999,"N_COORD97":2541468.27,"ADDRESS":"義林十二街１５６號","OBJECTID":333311},"geometry":{"x":174281.24000000115,"y":2541468.2699999996}},{"attributes":{"ID":333321,"DIS_CODE":0,"TOWNNAME":"仁德區","LI":"仁義里","LIN":"17鄰","STREET":"中山路","SECT":" ","MAREA":" ","LANE":" ","ALLEY":" ","HOUSE_NO":"２４６號","E_COORD97":174244.04000000001,"N_COORD97":2541227.25,"ADDRESS":"中山路２４６號","OBJECTID":333312},"geometry":{"x":174244.04000000004,"y":2541227.25}},{"attributes":{"ID":333322,"DIS_CODE":0,"TOWNNAME":"仁德區","LI":"仁德里","LIN":"17鄰","STREET":"文華路","SECT":"三段","MAREA":" ","LANE":" ","ALLEY":" ","HOUSE_NO":"４９５號","E_COORD97":172428.23000000001,"N_COORD97":2541378.5800000001,"ADDRESS":"文華路三段４９５號","OBJECTID":333313},"geometry":{"x":172428.23000000231,"y":2541378.5800000001}},{"attributes":{"ID":333323,"DIS_CODE":0,"TOWNNAME":"仁德區","LI":"仁德里","LIN":"17鄰","STREET":"文華路","SECT":"三段","MAREA":" ","LANE":" ","ALLEY":" ","HOUSE_NO":"５０３號","E_COORD97":172435.20999999999,"N_COORD97":2541409.8199999998,"ADDRESS":"文華路三段５０３號","OBJECTID":333314},"geometry":{"x":172435.21000000089,"y":2541409.8200000022}},{"attributes":{"ID":333324,"DIS_CODE":0,"TOWNNAME":"仁德區","LI":"仁德里","LIN":"17鄰","STREET":"文華路","SECT":"三段","MAREA":" ","LANE":" ","ALLEY":" ","HOUSE_NO":"５０１之１號","E_COORD97":172433.64000000001,"N_COORD97":2541396.0699999998,"ADDRESS":"文華路三段５０１之１號","OBJECTID":333315},"geometry":{"x":172433.6400000006,"y":2541396.0700000003}},{"attributes":{"ID":333325,"DIS_CODE":0,"TOWNNAME":"仁德區","LI":"仁德里","LIN":"17鄰","STREET":"文華路","SECT":"三段","MAREA":" ","LANE":" ","ALLEY":" ","HOUSE_NO":"５０１之２號","E_COORD97":172434.73999999999,"N_COORD97":2541399.8199999998,"ADDRESS":"文華路三段５０１之２號","OBJECTID":333316},"geometry":{"x":172434.74000000209,"y":2541399.8200000022}},{"attributes":{"ID":333326,"DIS_CODE":0,"TOWNNAME":"仁德區","LI":"仁德里","LIN":"17鄰","STREET":"文華路","SECT":"三段","MAREA":" ","LANE":" ","ALLEY":" ","HOUSE_NO":"４６１號","E_COORD97":172410.04999999999,"N_COORD97":2541285.3199999998,"ADDRESS":"文華路三段４６１號","OBJECTID":333317},"geometry":{"x":172410.05000000168,"y":2541285.3200000003}},{"attributes":{"ID":333327,"DIS_CODE":0,"TOWNNAME":"仁德區","LI":"仁德里","LIN":"17鄰","STREET":"文華路","SECT":"三段","MAREA":" ","LANE":" ","ALLEY":" ","HOUSE_NO":"４９１號","E_COORD97":172426.01000000001,"N_COORD97":2541369.5800000001,"ADDRESS":"文華路三段４９１號","OBJECTID":333318},"geometry":{"x":172426.01000000071,"y":2541369.5800000019}},{"attributes":{"ID":333328,"DIS_CODE":0,"TOWNNAME":"仁德區","LI":"仁德里","LIN":"17鄰","STREET":"文華路","SECT":"三段","MAREA":" ","LANE":" ","ALLEY":" ","HOUSE_NO":"４６５號","E_COORD97":172409.44,"N_COORD97":2541293.8199999998,"ADDRESS":"文華路三段４６５號","OBJECTID":333319},"geometry":{"x":172409.44000000041,"y":2541293.8200000022}},{"attributes":{"ID":333329,"DIS_CODE":0,"TOWNNAME":"歸仁區","LI":"西埔里","LIN":"1鄰","STREET":"西埔三街","SECT":" ","MAREA":" ","LANE":"５１巷","ALLEY":" ","HOUSE_NO":"１２６號","E_COORD97":177174.85056799999,"N_COORD97":2543933.5753799998,"ADDRESS":"西埔三街５１巷１２６號","OBJECTID":333320},"geometry":{"x":177174.85056800023,"y":2543933.5753810015}},{"attributes":{"ID":333330,"DIS_CODE":0,"TOWNNAME":"下營區","LI":"西連里","LIN":"7鄰","STREET":" ","SECT":" ","MAREA":"西寮","LANE":" ","ALLEY":" ","HOUSE_NO":"２５號之２","E_COORD97":174708.381257,"N_COORD97":2567624.1587299998,"ADDRESS":"西寮２５號之２","OBJECTID":333321},"geometry":{"x":174708.38125700131,"y":2567624.158733001}},{"attributes":{"ID":333331,"DIS_CODE":0,"TOWNNAME":"新營區","LI":"太北里","LIN":"5鄰","STREET":" ","SECT":" ","MAREA":"太子宮","LANE":" ","ALLEY":" ","HOUSE_NO":"４２號之１４","E_COORD97":175720.40841,"N_COORD97":2577243.68512,"ADDRESS":"太子宮４２號之１４","OBJECTID":333322},"geometry":{"x":175720.40841000061,"y":2577243.6851200014}},{"attributes":{"ID":333332,"DIS_CODE":0,"TOWNNAME":"關廟區","LI":"龜洞里","LIN":"5鄰","STREET":"南橋街","SECT":" ","MAREA":" ","LANE":" ","ALLEY":" ","HOUSE_NO":"３８號","E_COORD97":182210.79620800001,"N_COORD97":2532683.0595900002,"ADDRESS":"南橋街３８號","OBJECTID":333323},"geometry":{"x":182210.79620800074,"y":2532683.0595939998}},{"attributes":{"ID":333333,"DIS_CODE":0,"TOWNNAME":"六甲區","LI":"甲東里","LIN":"7鄰","STREET":"中正路","SECT":" ","MAREA":" ","LANE":" ","ALLEY":" ","HOUSE_NO":"８３０號","E_COORD97":183878.856841,"N_COORD97":2570478.47688,"ADDRESS":"中正路８３０號","OBJECTID":333324},"geometry":{"x":183878.8568409998,"y":2570478.4768759999}},{"attributes":{"ID":333334,"DIS_CODE":0,"TOWNNAME":"仁德區","LI":"仁德里","LIN":"3鄰","STREET":"仁中七街","SECT":" ","MAREA":" ","LANE":" ","ALLEY":" ","HOUSE_NO":"３９號","E_COORD97":173170.03112500001,"N_COORD97":2540351.1436700001,"ADDRESS":"仁中七街３９號","OBJECTID":333325},"geometry":{"x":173170.03112499882,"y":2540351.143666001}},{"attributes":{"ID":333335,"DIS_CODE":0,"TOWNNAME":"關廟區","LI":"龜洞里","LIN":"5鄰","STREET":"南橋街","SECT":" ","MAREA":" ","LANE":" ","ALLEY":" ","HOUSE_NO":"３６號","E_COORD97":182215.45739699999,"N_COORD97":2532685.3879300002,"ADDRESS":"南橋街３６號","OBJECTID":333326},"geometry":{"x":182215.45739699993,"y":2532685.387926003}},{"attributes":{"ID":333336,"DIS_CODE":0,"TOWNNAME":"鹽水區","LI":"橋南里","LIN":"6鄰","STREET":"南門路","SECT":" ","MAREA":" ","LANE":" ","ALLEY":" ","HOUSE_NO":"９４號","E_COORD97":175196.52533599999,"N_COORD97":2579241.8025199999,"ADDRESS":"南門路９４號","OBJECTID":333327},"geometry":{"x":175196.52533600014,"y":2579241.802523002}},{"attributes":{"ID":333337,"DIS_CODE":0,"TOWNNAME":"安南區","LI":"海南里","LIN":"15鄰","STREET":"府安路","SECT":"七段","MAREA":" ","LANE":"７５巷","ALLEY":" ","HOUSE_NO":"２３號","E_COORD97":165812.54999999999,"N_COORD97":2545954.3999999999,"ADDRESS":"府安路七段７５巷２３號","OBJECTID":333328},"geometry":{"x":165812.55000000075,"y":2545954.4000000041}},{"attributes":{"ID":333338,"DIS_CODE":0,"TOWNNAME":"安南區","LI":"海南里","LIN":"15鄰","STREET":"府安路","SECT":"七段","MAREA":" ","LANE":"７５巷","ALLEY":" ","HOUSE_NO":"２４號","E_COORD97":165837.44,"N_COORD97":2545962.0299999998,"ADDRESS":"府安路七段７５巷２４號","OBJECTID":333329},"geometry":{"x":165837.44000000227,"y":2545962.0299999993}},{"attributes":{"ID":333339,"DIS_CODE":0,"TOWNNAME":"安南區","LI":"海南里","LIN":"15鄰","STREET":"府安路","SECT":"七段","MAREA":" ","LANE":"７５巷","ALLEY":" ","HOUSE_NO":"２５號","E_COORD97":165807.42000000001,"N_COORD97":2545961.52,"ADDRESS":"府安路七段７５巷２５號","OBJECTID":333330},"geometry":{"x":165807.42000000086,"y":2545961.5199999996}},{"attributes":{"ID":333340,"DIS_CODE":0,"TOWNNAME":"安南區","LI":"海南里","LIN":"15鄰","STREET":"府安路","SECT":"七段","MAREA":" ","LANE":"７５巷","ALLEY":" ","HOUSE_NO":"２６號","E_COORD97":165827.94,"N_COORD97":2545967.3500000001,"ADDRESS":"府安路七段７５巷２６號","OBJECTID":333331},"geometry":{"x":165827.94000000134,"y":2545967.3499999978}},{"attributes":{"ID":333341,"DIS_CODE":0,"TOWNNAME":"安南區","LI":"海南里","LIN":"15鄰","STREET":"府安路","SECT":"七段","MAREA":" ","LANE":"７５巷","ALLEY":" ","HOUSE_NO":"３號","E_COORD97":165870.79999999999,"N_COORD97":2545875.2000000002,"ADDRESS":"府安路七段７５巷３號","OBJECTID":333332},"geometry":{"x":165870.80000000075,"y":2545875.1999999993}},{"attributes":{"ID":333342,"DIS_CODE":0,"TOWNNAME":"安南區","LI":"海南里","LIN":"15鄰","STREET":"府安路","SECT":"七段","MAREA":" ","LANE":"７５巷","ALLEY":" ","HOUSE_NO":"４號","E_COORD97":165893.75,"N_COORD97":2545888.6099999999,"ADDRESS":"府安路七段７５巷４號","OBJECTID":333333},"geometry":{"x":165893.75,"y":2545888.6100000013}},{"attributes":{"ID":333343,"DIS_CODE":0,"TOWNNAME":"安平區","LI":"文平里","LIN":"17鄰","STREET":"建平四街","SECT":" ","MAREA":" ","LANE":"１８巷","ALLEY":" ","HOUSE_NO":"２０號之１","E_COORD97":166070.87859000001,"N_COORD97":2543070.81537,"ADDRESS":"建平四街１８巷２０號之１","OBJECTID":333334},"geometry":{"x":166070.87859000172,"y":2543070.8153700009}},{"attributes":{"ID":333344,"DIS_CODE":0,"TOWNNAME":"安南區","LI":"海南里","LIN":"15鄰","STREET":"府安路","SECT":"七段","MAREA":" ","LANE":"７５巷","ALLEY":" ","HOUSE_NO":"５號","E_COORD97":165866.09,"N_COORD97":2545880.6299999999,"ADDRESS":"府安路七段７５巷５號","OBJECTID":333335},"geometry":{"x":165866.08999999985,"y":2545880.6300000008}},{"attributes":{"ID":333345,"DIS_CODE":0,"TOWNNAME":"安南區","LI":"海南里","LIN":"15鄰","STREET":"府安路","SECT":"七段","MAREA":" ","LANE":"７５巷","ALLEY":" ","HOUSE_NO":"６號","E_COORD97":165887.76000000001,"N_COORD97":2545893.2599999998,"ADDRESS":"府安路七段７５巷６號","OBJECTID":333336},"geometry":{"x":165887.76000000071,"y":2545893.2599999998}},{"attributes":{"ID":333346,"DIS_CODE":0,"TOWNNAME":"安南區","LI":"海南里","LIN":"15鄰","STREET":"府安路","SECT":"七段","MAREA":" ","LANE":"７５巷","ALLEY":" ","HOUSE_NO":"７號","E_COORD97":165859.85000000001,"N_COORD97":2545889.8100000001,"ADDRESS":"府安路七段７５巷７號","OBJECTID":333337},"geometry":{"x":165859.85000000056,"y":2545889.8100000005}},{"attributes":{"ID":333347,"DIS_CODE":0,"TOWNNAME":"安南區","LI":"海南里","LIN":"15鄰","STREET":"府安路","SECT":"七段","MAREA":" ","LANE":"７５巷","ALLEY":" ","HOUSE_NO":"８號","E_COORD97":165877.10000000001,"N_COORD97":2545908.8900000001,"ADDRESS":"府安路七段７５巷８號","OBJECTID":333338},"geometry":{"x":165877.10000000056,"y":2545908.8900000025}},{"attributes":{"ID":333348,"DIS_CODE":0,"TOWNNAME":"安南區","LI":"海南里","LIN":"15鄰","STREET":"府安路","SECT":"七段","MAREA":" ","LANE":"７５巷","ALLEY":" ","HOUSE_NO":"９號","E_COORD97":165854.56,"N_COORD97":2545897.7000000002,"ADDRESS":"府安路七段７５巷９號","OBJECTID":333339},"geometry":{"x":165854.56000000145,"y":2545897.7000000011}},{"attributes":{"ID":333349,"DIS_CODE":0,"TOWNNAME":"仁德區","LI":"仁德里","LIN":"3鄰","STREET":"仁中七街","SECT":" ","MAREA":" ","LANE":" ","ALLEY":" ","HOUSE_NO":"６３號","E_COORD97":173192.77409300001,"N_COORD97":2540358.4789499999,"ADDRESS":"仁中七街６３號","OBJECTID":333340},"geometry":{"x":173192.77409300022,"y":2540358.4789450001}},{"attributes":{"ID":333350,"DIS_CODE":0,"TOWNNAME":"仁德區","LI":"仁德里","LIN":"3鄰","STREET":"仁中七街","SECT":" ","MAREA":" ","LANE":" ","ALLEY":" ","HOUSE_NO":"６１號","E_COORD97":173188.430804,"N_COORD97":2540358.5847800002,"ADDRESS":"仁中七街６１號","OBJECTID":333341},"geometry":{"x":173188.43080400024,"y":2540358.5847780015}},{"attributes":{"ID":333351,"DIS_CODE":0,"TOWNNAME":"仁德區","LI":"仁德里","LIN":"3鄰","STREET":"仁中七街","SECT":" ","MAREA":" ","LANE":" ","ALLEY":" ","HOUSE_NO":"５９號","E_COORD97":173184.08751499999,"N_COORD97":2540358.2672799998,"ADDRESS":"仁中七街５９號","OBJECTID":333342},"geometry":{"x":173184.08751500025,"y":2540358.2672780026}},{"attributes":{"ID":333352,"DIS_CODE":0,"TOWNNAME":"仁德區","LI":"仁德里","LIN":"3鄰","STREET":"仁中七街","SECT":" ","MAREA":" ","LANE":" ","ALLEY":" ","HOUSE_NO":"５７號","E_COORD97":173179.214557,"N_COORD97":2540358.90228,"ADDRESS":"仁中七街５７號","OBJECTID":333343},"geometry":{"x":173179.21455700137,"y":2540358.9022780024}},{"attributes":{"ID":333353,"DIS_CODE":0,"TOWNNAME":"仁德區","LI":"仁德里","LIN":"3鄰","STREET":"仁中七街","SECT":" ","MAREA":" ","LANE":" ","ALLEY":" ","HOUSE_NO":"５５號","E_COORD97":173174.65940100001,"N_COORD97":2540358.90228,"ADDRESS":"仁中七街５５號","OBJECTID":333344},"geometry":{"x":173174.65940100141,"y":2540358.9022780024}},{"attributes":{"ID":333354,"DIS_CODE":0,"TOWNNAME":"仁德區","LI":"仁德里","LIN":"3鄰","STREET":"仁中七街","SECT":" ","MAREA":" ","LANE":" ","ALLEY":" ","HOUSE_NO":"５３號","E_COORD97":173170.42204599999,"N_COORD97":2540359.43144,"ADDRESS":"仁中七街５３號","OBJECTID":333345},"geometry":{"x":173170.42204600107,"y":2540359.4314440023}},{"attributes":{"ID":333355,"DIS_CODE":0,"TOWNNAME":"安南區","LI":"海南里","LIN":"15鄰","STREET":"府安路","SECT":"七段","MAREA":" ","LANE":"８４巷","ALLEY":" ","HOUSE_NO":"１０號","E_COORD97":165842.76000000001,"N_COORD97":2545888.4300000002,"ADDRESS":"府安路七段８４巷１０號","OBJECTID":333346},"geometry":{"x":165842.75999999978,"y":2545888.4299999997}},{"attributes":{"ID":333356,"DIS_CODE":0,"TOWNNAME":"安南區","LI":"海南里","LIN":"15鄰","STREET":"府安路","SECT":"七段","MAREA":" ","LANE":"８４巷","ALLEY":" ","HOUSE_NO":"１２號","E_COORD97":165836.31,"N_COORD97":2545897.1200000001,"ADDRESS":"府安路七段８４巷１２號","OBJECTID":333347},"geometry":{"x":165836.31000000052,"y":2545897.1200000029}},{"attributes":{"ID":333357,"DIS_CODE":0,"TOWNNAME":"安南區","LI":"海南里","LIN":"15鄰","STREET":"府安路","SECT":"七段","MAREA":" ","LANE":"８４巷","ALLEY":" ","HOUSE_NO":"１３號","E_COORD97":165810.07999999999,"N_COORD97":2545889.27,"ADDRESS":"府安路七段８４巷１３號","OBJECTID":333348},"geometry":{"x":165810.08000000007,"y":2545889.2699999996}},{"attributes":{"ID":333358,"DIS_CODE":0,"TOWNNAME":"安南區","LI":"海南里","LIN":"15鄰","STREET":"府安路","SECT":"七段","MAREA":" ","LANE":"８４巷","ALLEY":" ","HOUSE_NO":"１４號","E_COORD97":165829.42999999999,"N_COORD97":2545903.0600000001,"ADDRESS":"府安路七段８４巷１４號","OBJECTID":333349},"geometry":{"x":165829.4299999997,"y":2545903.0600000024}},{"attributes":{"ID":333359,"DIS_CODE":0,"TOWNNAME":"安南區","LI":"海南里","LIN":"15鄰","STREET":"府安路","SECT":"七段","MAREA":" ","LANE":"８４巷","ALLEY":" ","HOUSE_NO":"１５號","E_COORD97":165802.45999999999,"N_COORD97":2545900.7999999998,"ADDRESS":"府安路七段８４巷１５號","OBJECTID":333350},"geometry":{"x":165802.45999999996,"y":2545900.8000000007}},{"attributes":{"ID":333360,"DIS_CODE":0,"TOWNNAME":"安南區","LI":"海南里","LIN":"15鄰","STREET":"府安路","SECT":"七段","MAREA":" ","LANE":"８４巷","ALLEY":" ","HOUSE_NO":"１６號","E_COORD97":165824.84,"N_COORD97":2545913.3900000001,"ADDRESS":"府安路七段８４巷１６號","OBJECTID":333351},"geometry":{"x":165824.84000000078,"y":2545913.3900000006}},{"attributes":{"ID":333361,"DIS_CODE":0,"TOWNNAME":"安南區","LI":"海南里","LIN":"15鄰","STREET":"府安路","SECT":"七段","MAREA":" ","LANE":"８４巷","ALLEY":" ","HOUSE_NO":"１７號","E_COORD97":165798.20000000001,"N_COORD97":2545905.8900000001,"ADDRESS":"府安路七段８４巷１７號","OBJECTID":333352},"geometry":{"x":165798.20000000205,"y":2545905.8900000006}},{"attributes":{"ID":333362,"DIS_CODE":0,"TOWNNAME":"安南區","LI":"海南里","LIN":"15鄰","STREET":"府安路","SECT":"七段","MAREA":" ","LANE":"８４巷","ALLEY":" ","HOUSE_NO":"１８號","E_COORD97":165818.32000000001,"N_COORD97":2545920.1299999999,"ADDRESS":"府安路七段８４巷１８號","OBJECTID":333353},"geometry":{"x":165818.32000000123,"y":2545920.129999999}},{"attributes":{"ID":333363,"DIS_CODE":0,"TOWNNAME":"安南區","LI":"海南里","LIN":"15鄰","STREET":"府安路","SECT":"七段","MAREA":" ","LANE":"８４巷","ALLEY":" ","HOUSE_NO":"２０號","E_COORD97":165811.79999999999,"N_COORD97":2545929.3999999999,"ADDRESS":"府安路七段８４巷２０號","OBJECTID":333354},"geometry":{"x":165811.79999999981,"y":2545929.4000000004}},{"attributes":{"ID":333364,"DIS_CODE":0,"TOWNNAME":"安南區","LI":"海南里","LIN":"15鄰","STREET":"府安路","SECT":"七段","MAREA":" ","LANE":"８４巷","ALLEY":" ","HOUSE_NO":"２３號","E_COORD97":165777.95000000001,"N_COORD97":2545931.54,"ADDRESS":"府安路七段８４巷２３號","OBJECTID":333355},"geometry":{"x":165777.95000000205,"y":2545931.5399999991}},{"attributes":{"ID":333365,"DIS_CODE":0,"TOWNNAME":"東區","LI":"小東里","LIN":"19鄰","STREET":"東興路","SECT":" ","MAREA":" ","LANE":" ","ALLEY":" ","HOUSE_NO":"３３６號","E_COORD97":171068.78,"N_COORD97":2544144.5,"ADDRESS":"東興路３３６號","OBJECTID":333356},"geometry":{"x":171068.78000000119,"y":2544144.5000000019}},{"attributes":{"ID":333366,"DIS_CODE":0,"TOWNNAME":"東區","LI":"小東里","LIN":"21鄰","STREET":"東興路","SECT":" ","MAREA":" ","LANE":" ","ALLEY":" ","HOUSE_NO":"３１９號","E_COORD97":171048.72,"N_COORD97":2544170.8500000001,"ADDRESS":"東興路３１９號","OBJECTID":333357},"geometry":{"x":171048.71999999974,"y":2544170.8500000034}},{"attributes":{"ID":333367,"DIS_CODE":0,"TOWNNAME":"東區","LI":"小東里","LIN":"21鄰","STREET":"東興路","SECT":" ","MAREA":" ","LANE":" ","ALLEY":" ","HOUSE_NO":"３２１號","E_COORD97":171048.09,"N_COORD97":2544174.9199999999,"ADDRESS":"東興路３２１號","OBJECTID":333358},"geometry":{"x":171048.08999999985,"y":2544174.9200000018}},{"attributes":{"ID":333368,"DIS_CODE":0,"TOWNNAME":"東區","LI":"小東里","LIN":"21鄰","STREET":"東興路","SECT":" ","MAREA":" ","LANE":" ","ALLEY":" ","HOUSE_NO":"３２５號","E_COORD97":171047.45999999999,"N_COORD97":2544183.3799999999,"ADDRESS":"東興路３２５號","OBJECTID":333359},"geometry":{"x":171047.45999999996,"y":2544183.3800000027}},{"attributes":{"ID":333369,"DIS_CODE":0,"TOWNNAME":"東區","LI":"小東里","LIN":"21鄰","STREET":"東興路","SECT":" ","MAREA":" ","LANE":" ","ALLEY":" ","HOUSE_NO":"３２７號","E_COORD97":171047.14999999999,"N_COORD97":2544187.29,"ADDRESS":"東興路３２７號","OBJECTID":333360},"geometry":{"x":171047.15000000224,"y":2544187.2899999972}},{"attributes":{"ID":333370,"DIS_CODE":0,"TOWNNAME":"東區","LI":"小東里","LIN":"21鄰","STREET":"東興路","SECT":" ","MAREA":" ","LANE":" ","ALLEY":" ","HOUSE_NO":"３２９號","E_COORD97":171046.84,"N_COORD97":2544191.52,"ADDRESS":"東興路３２９號","OBJECTID":333361},"geometry":{"x":171046.84000000171,"y":2544191.5199999996}},{"attributes":{"ID":333371,"DIS_CODE":0,"TOWNNAME":"東區","LI":"小東里","LIN":"21鄰","STREET":"東興路","SECT":" ","MAREA":" ","LANE":" ","ALLEY":" ","HOUSE_NO":"３３１號","E_COORD97":171046.67999999999,"N_COORD97":2544195.4300000002,"ADDRESS":"東興路３３１號","OBJECTID":333362},"geometry":{"x":171046.68000000063,"y":2544195.4300000016}},{"attributes":{"ID":333372,"DIS_CODE":0,"TOWNNAME":"東區","LI":"小東里","LIN":"21鄰","STREET":"東興路","SECT":" ","MAREA":" ","LANE":" ","ALLEY":" ","HOUSE_NO":"３３３號","E_COORD97":171046.51999999999,"N_COORD97":2544199.1899999999,"ADDRESS":"東興路３３３號","OBJECTID":333363},"geometry":{"x":171046.51999999955,"y":2544199.1900000013}},{"attributes":{"ID":333373,"DIS_CODE":0,"TOWNNAME":"東區","LI":"小東里","LIN":"21鄰","STREET":"東興路","SECT":" ","MAREA":" ","LANE":" ","ALLEY":" ","HOUSE_NO":"３３５號","E_COORD97":171046.04999999999,"N_COORD97":2544203.1099999999,"ADDRESS":"東興路３３５號","OBJECTID":333364},"geometry":{"x":171046.05000000075,"y":2544203.1100000013}},{"attributes":{"ID":333374,"DIS_CODE":0,"TOWNNAME":"東區","LI":"小東里","LIN":"21鄰","STREET":"東興路","SECT":" ","MAREA":" ","LANE":" ","ALLEY":" ","HOUSE_NO":"３３７號","E_COORD97":171046.04999999999,"N_COORD97":2544207.3300000001,"ADDRESS":"東興路３３７號","OBJECTID":333365},"geometry":{"x":171046.05000000075,"y":2544207.3300000001}},{"attributes":{"ID":333375,"DIS_CODE":0,"TOWNNAME":"東區","LI":"小東里","LIN":"21鄰","STREET":"東興路","SECT":" ","MAREA":" ","LANE":" ","ALLEY":" ","HOUSE_NO":"３３９號","E_COORD97":171045.42000000001,"N_COORD97":2544211.0899999999,"ADDRESS":"東興路３３９號","OBJECTID":333366},"geometry":{"x":171045.42000000086,"y":2544211.0900000017}},{"attributes":{"ID":333376,"DIS_CODE":0,"TOWNNAME":"東區","LI":"小東里","LIN":"21鄰","STREET":"東興路","SECT":" ","MAREA":" ","LANE":" ","ALLEY":" ","HOUSE_NO":"３４３號","E_COORD97":171042.13,"N_COORD97":2544220.7999999998,"ADDRESS":"東興路３４３號","OBJECTID":333367},"geometry":{"x":171042.13000000082,"y":2544220.8000000026}},{"attributes":{"ID":333377,"DIS_CODE":0,"TOWNNAME":"東區","LI":"大智里","LIN":"13鄰","STREET":"長東街","SECT":" ","MAREA":" ","LANE":" ","ALLEY":" ","HOUSE_NO":"１３５號","E_COORD97":171036.54000000001,"N_COORD97":2540163.4500000002,"ADDRESS":"長東街１３５號","OBJECTID":333368},"geometry":{"x":171036.54000000004,"y":2540163.4500000011}},{"attributes":{"ID":333378,"DIS_CODE":0,"TOWNNAME":"東區","LI":"崇明里","LIN":"13鄰","STREET":"大同路","SECT":"二段","MAREA":" ","LANE":" ","ALLEY":" ","HOUSE_NO":"７１１號","E_COORD97":169665.14000000001,"N_COORD97":2540809.5099999998,"ADDRESS":"大同路二段７１１號","OBJECTID":333369},"geometry":{"x":169665.1400000006,"y":2540809.5099999998}},{"attributes":{"ID":333379,"DIS_CODE":0,"TOWNNAME":"東區","LI":"小東里","LIN":"34鄰","STREET":"東興路","SECT":" ","MAREA":" ","LANE":" ","ALLEY":" ","HOUSE_NO":"２８９號","E_COORD97":171052.14999999999,"N_COORD97":2544090.5899999999,"ADDRESS":"東興路２８９號","OBJECTID":333370},"geometry":{"x":171052.15000000224,"y":2544090.5899999999}},{"attributes":{"ID":333380,"DIS_CODE":0,"TOWNNAME":"東區","LI":"大學里","LIN":"15鄰","STREET":"長榮路","SECT":"三段","MAREA":" ","LANE":" ","ALLEY":" ","HOUSE_NO":"２６號","E_COORD97":170215.62,"N_COORD97":2543693.3199999998,"ADDRESS":"長榮路三段２６號","OBJECTID":333371},"geometry":{"x":170215.62000000011,"y":2543693.3199999984}},{"attributes":{"ID":333381,"DIS_CODE":0,"TOWNNAME":"東區","LI":"裕農里","LIN":"6鄰","STREET":"裕農路","SECT":" ","MAREA":" ","LANE":" ","ALLEY":" ","HOUSE_NO":"３５１號之８","E_COORD97":171004.07999999999,"N_COORD97":2543159.8799999999,"ADDRESS":"裕農路３５１號之８","OBJECTID":333372},"geometry":{"x":171004.08000000007,"y":2543159.8800000008}},{"attributes":{"ID":333382,"DIS_CODE":0,"TOWNNAME":"麻豆區","LI":"南勢里","LIN":"24鄰","STREET":" ","SECT":" ","MAREA":"南勢","LANE":" ","ALLEY":" ","HOUSE_NO":"８０號","E_COORD97":174709.398143,"N_COORD97":2564927.6489200001,"ADDRESS":"南勢８０號","OBJECTID":333373},"geometry":{"x":174709.39814299997,"y":2564927.6489170007}},{"attributes":{"ID":333383,"DIS_CODE":0,"TOWNNAME":"麻豆區","LI":"南勢里","LIN":"24鄰","STREET":" ","SECT":" ","MAREA":"南勢","LANE":" ","ALLEY":" ","HOUSE_NO":"８０號之１","E_COORD97":174709.82191,"N_COORD97":2564912.7264200002,"ADDRESS":"南勢８０號之１","OBJECTID":333374},"geometry":{"x":174709.82191000134,"y":2564912.7264200002}},{"attributes":{"ID":333384,"DIS_CODE":0,"TOWNNAME":"佳里區","LI":"佳化里","LIN":"3鄰","STREET":" ","SECT":" ","MAREA":"佳里興","LANE":" ","ALLEY":" ","HOUSE_NO":"２２號","E_COORD97":167717.76999999999,"N_COORD97":2565249.0800000001,"ADDRESS":"佳里興２２號","OBJECTID":333375},"geometry":{"x":167717.77000000142,"y":2565249.0800000019}},{"attributes":{"ID":333385,"DIS_CODE":0,"TOWNNAME":"下營區","LI":"西連里","LIN":"10鄰","STREET":" ","SECT":" ","MAREA":"西寮","LANE":" ","ALLEY":" ","HOUSE_NO":"５７號之９","E_COORD97":174457.350599,"N_COORD97":2567069.4851500001,"ADDRESS":"西寮５７號之９","OBJECTID":333376},"geometry":{"x":174457.35059900116,"y":2567069.4851530045}},{"attributes":{"ID":333386,"DIS_CODE":0,"TOWNNAME":"新營區","LI":"太南里","LIN":"20鄰","STREET":" ","SECT":" ","MAREA":"太子宮","LANE":" ","ALLEY":" ","HOUSE_NO":"１６８號","E_COORD97":176265.84,"N_COORD97":2576973.9500000002,"ADDRESS":"太子宮１６８號","OBJECTID":333377},"geometry":{"x":176265.83999999985,"y":2576973.9499999993}},{"attributes":{"ID":333387,"DIS_CODE":0,"TOWNNAME":"新營區","LI":"民權里","LIN":"7鄰","STREET":"文化街","SECT":" ","MAREA":" ","LANE":" ","ALLEY":" ","HOUSE_NO":"３２之３號","E_COORD97":179802.195729,"N_COORD97":2578108.0531199998,"ADDRESS":"文化街３２之３號","OBJECTID":333378},"geometry":{"x":179802.19572899956,"y":2578108.053123001}},{"attributes":{"ID":333388,"DIS_CODE":0,"TOWNNAME":"安南區","LI":"海南里","LIN":"12鄰","STREET":"府安路","SECT":"七段","MAREA":" ","LANE":" ","ALLEY":" ","HOUSE_NO":"４５５號之１００","E_COORD97":162833.686269,"N_COORD97":2545692.8136499999,"ADDRESS":"府安路七段４５５號之１００","OBJECTID":333379},"geometry":{"x":162833.68626900017,"y":2545692.8136450015}},{"attributes":{"ID":333389,"DIS_CODE":0,"TOWNNAME":"關廟區","LI":"龜洞里","LIN":"6鄰","STREET":"南橋街","SECT":" ","MAREA":" ","LANE":" ","ALLEY":" ","HOUSE_NO":"３３號","E_COORD97":182207.300315,"N_COORD97":2532650.6481499998,"ADDRESS":"南橋街３３號","OBJECTID":333380},"geometry":{"x":182207.30031500105,"y":2532650.6481529996}},{"attributes":{"ID":333390,"DIS_CODE":0,"TOWNNAME":"仁德區","LI":"仁德里","LIN":"3鄰","STREET":"仁中七街","SECT":" ","MAREA":" ","LANE":" ","ALLEY":" ","HOUSE_NO":"５號","E_COORD97":173252.87141299999,"N_COORD97":2540333.04617,"ADDRESS":"仁中七街５號","OBJECTID":333381},"geometry":{"x":173252.87141299993,"y":2540333.0461750012}},{"attributes":{"ID":333391,"DIS_CODE":0,"TOWNNAME":"仁德區","LI":"仁德里","LIN":"3鄰","STREET":"仁中七街","SECT":" ","MAREA":" ","LANE":" ","ALLEY":" ","HOUSE_NO":"３號","E_COORD97":173252.341743,"N_COORD97":2540327.3311800002,"ADDRESS":"仁中七街３號","OBJECTID":333382},"geometry":{"x":173252.34174300078,"y":2540327.3311780021}},{"attributes":{"ID":333392,"DIS_CODE":0,"TOWNNAME":"關廟區","LI":"龜洞里","LIN":"6鄰","STREET":"南橋街","SECT":" ","MAREA":" ","LANE":" ","ALLEY":" ","HOUSE_NO":"４５號","E_COORD97":182175.51947699999,"N_COORD97":2532611.9131700001,"ADDRESS":"南橋街４５號","OBJECTID":333383},"geometry":{"x":182175.51947700046,"y":2532611.9131740015}},{"attributes":{"ID":333393,"DIS_CODE":0,"TOWNNAME":"安南區","LI":"海南里","LIN":"12鄰","STREET":"府安路","SECT":"七段","MAREA":" ","LANE":" ","ALLEY":" ","HOUSE_NO":"４４０號之１００","E_COORD97":163308.130439,"N_COORD97":2545406.2171299998,"ADDRESS":"府安路七段４４０號之１００","OBJECTID":333384},"geometry":{"x":163308.13043900114,"y":2545406.2171330005}},{"attributes":{"ID":333394,"DIS_CODE":0,"TOWNNAME":"東區","LI":"中西里","LIN":"25鄰","STREET":"東寧路","SECT":" ","MAREA":" ","LANE":" ","ALLEY":" ","HOUSE_NO":"１２８號","E_COORD97":170257.70999999999,"N_COORD97":2543577.4700000002,"ADDRESS":"東寧路１２８號","OBJECTID":333385},"geometry":{"x":170257.70999999996,"y":2543577.4699999988}},{"attributes":{"ID":333395,"DIS_CODE":0,"TOWNNAME":"仁德區","LI":"仁德里","LIN":"3鄰","STREET":"仁中五街","SECT":" ","MAREA":" ","LANE":" ","ALLEY":" ","HOUSE_NO":"１２２號","E_COORD97":173238.676274,"N_COORD97":2540317.2770199999,"ADDRESS":"仁中五街１２２號","OBJECTID":333386},"geometry":{"x":173238.67627399974,"y":2540317.2770170011}},{"attributes":{"ID":333396,"DIS_CODE":0,"TOWNNAME":"仁德區","LI":"仁德里","LIN":"3鄰","STREET":"仁中五街","SECT":" ","MAREA":" ","LANE":" ","ALLEY":" ","HOUSE_NO":"１２０號","E_COORD97":173247.25691699999,"N_COORD97":2540316.05993,"ADDRESS":"仁中五街１２０號","OBJECTID":333387},"geometry":{"x":173247.25691699982,"y":2540316.0599339996}},{"attributes":{"ID":333397,"DIS_CODE":0,"TOWNNAME":"新營區","LI":"新東里","LIN":"20鄰","STREET":"東明街","SECT":" ","MAREA":" ","LANE":"４２巷","ALLEY":" ","HOUSE_NO":"５２號","E_COORD97":180911.10999999999,"N_COORD97":2579644.8700000001,"ADDRESS":"東明街４２巷５２號","OBJECTID":333388},"geometry":{"x":180911.11000000034,"y":2579644.870000001}},{"attributes":{"ID":333398,"DIS_CODE":0,"TOWNNAME":"安南區","LI":"海南里","LIN":"15鄰","STREET":"府安路","SECT":"七段","MAREA":" ","LANE":"８４巷","ALLEY":" ","HOUSE_NO":"２４號","E_COORD97":165800.17999999999,"N_COORD97":2545945.2200000002,"ADDRESS":"府安路七段８４巷２４號","OBJECTID":333389},"geometry":{"x":165800.18000000063,"y":2545945.2200000007}},{"attributes":{"ID":333399,"DIS_CODE":0,"TOWNNAME":"安南區","LI":"海南里","LIN":"15鄰","STREET":"府安路","SECT":"七段","MAREA":" ","LANE":"８４巷","ALLEY":" ","HOUSE_NO":"３號","E_COORD97":165840.60999999999,"N_COORD97":2545853.29,"ADDRESS":"府安路七段８４巷３號","OBJECTID":333390},"geometry":{"x":165840.61000000034,"y":2545853.290000001}},{"attributes":{"ID":333400,"DIS_CODE":0,"TOWNNAME":"安南區","LI":"海南里","LIN":"15鄰","STREET":"府安路","SECT":"七段","MAREA":" ","LANE":"８４巷","ALLEY":" ","HOUSE_NO":"４號","E_COORD97":165859.45999999999,"N_COORD97":2545864.7000000002,"ADDRESS":"府安路七段８４巷４號","OBJECTID":333391},"geometry":{"x":165859.46000000089,"y":2545864.7000000011}},{"attributes":{"ID":333401,"DIS_CODE":0,"TOWNNAME":"安南區","LI":"海南里","LIN":"15鄰","STREET":"府安路","SECT":"七段","MAREA":" ","LANE":"８４巷","ALLEY":" ","HOUSE_NO":"６號","E_COORD97":165853.66,"N_COORD97":2545871.29,"ADDRESS":"府安路七段８４巷６號","OBJECTID":333392},"geometry":{"x":165853.66000000015,"y":2545871.2899999991}},{"attributes":{"ID":333402,"DIS_CODE":0,"TOWNNAME":"安南區","LI":"海南里","LIN":"15鄰","STREET":"府安路","SECT":"七段","MAREA":" ","LANE":"８４巷","ALLEY":" ","HOUSE_NO":"７號","E_COORD97":165828.44,"N_COORD97":2545869.02,"ADDRESS":"府安路七段８４巷７號","OBJECTID":333393},"geometry":{"x":165828.44000000041,"y":2545869.0200000014}},{"attributes":{"ID":333403,"DIS_CODE":0,"TOWNNAME":"安南區","LI":"海南里","LIN":"15鄰","STREET":"府安路","SECT":"七段","MAREA":" ","LANE":"８４巷","ALLEY":" ","HOUSE_NO":"８號","E_COORD97":165848.78,"N_COORD97":2545881.04,"ADDRESS":"府安路七段８４巷８號","OBJECTID":333394},"geometry":{"x":165848.78000000119,"y":2545881.0400000028}},{"attributes":{"ID":333404,"DIS_CODE":0,"TOWNNAME":"新營區","LI":"忠政里","LIN":"4鄰","STREET":"中正路","SECT":" ","MAREA":" ","LANE":"３９巷","ALLEY":" ","HOUSE_NO":"５號","E_COORD97":180042.35999999999,"N_COORD97":2579174.96,"ADDRESS":"中正路３９巷５號","OBJECTID":333395},"geometry":{"x":180042.36000000127,"y":2579174.9600000028}},{"attributes":{"ID":333405,"DIS_CODE":0,"TOWNNAME":"麻豆區","LI":"港尾里","LIN":"10鄰","STREET":" ","SECT":" ","MAREA":"港子尾","LANE":" ","ALLEY":" ","HOUSE_NO":"６１號之１","E_COORD97":168254.570462,"N_COORD97":2567084.3824100001,"ADDRESS":"港子尾６１號之１","OBJECTID":333396},"geometry":{"x":168254.57046199962,"y":2567084.3824100029}},{"attributes":{"ID":333406,"DIS_CODE":0,"TOWNNAME":"新營區","LI":"太南里","LIN":"19鄰","STREET":" ","SECT":" ","MAREA":"太子宮","LANE":" ","ALLEY":" ","HOUSE_NO":"４４號","E_COORD97":175745.38066600001,"N_COORD97":2577208.2872000001,"ADDRESS":"太子宮４４號","OBJECTID":333397},"geometry":{"x":175745.38066599984,"y":2577208.2872040048}},{"attributes":{"ID":333407,"DIS_CODE":0,"TOWNNAME":"新營區","LI":"太北里","LIN":"19鄰","STREET":" ","SECT":" ","MAREA":"太子宮","LANE":" ","ALLEY":" ","HOUSE_NO":"４３號","E_COORD97":175771.02338900001,"N_COORD97":2577210.2980399998,"ADDRESS":"太子宮４３號","OBJECTID":333398},"geometry":{"x":175771.02338900138,"y":2577210.2980359998}},{"attributes":{"ID":333408,"DIS_CODE":0,"TOWNNAME":"仁德區","LI":"新田里","LIN":"2鄰","STREET":"新田二街","SECT":" ","MAREA":" ","LANE":"１３８巷","ALLEY":" ","HOUSE_NO":"３號","E_COORD97":174887.11478100001,"N_COORD97":2540005.4758899999,"ADDRESS":"新田二街１３８巷３號","OBJECTID":333399},"geometry":{"x":174887.11478100158,"y":2540005.4758919999}},{"attributes":{"ID":333409,"DIS_CODE":0,"TOWNNAME":"安南區","LI":"海南里","LIN":"12鄰","STREET":"府安路","SECT":"七段","MAREA":" ","LANE":" ","ALLEY":" ","HOUSE_NO":"４４０之１０號","E_COORD97":163313.21376899999,"N_COORD97":2545422.3037899998,"ADDRESS":"府安路七段４４０之１０號","OBJECTID":333400},"geometry":{"x":163313.21376900095,"y":2545422.3037909996}}]}