{"displayFieldName":"TOWNNAME","fieldAliases":{"ID":"ID","DIS_CODE":"DIS_CODE","TOWNNAME":"TOWNNAME","LI":"LI","LIN":"LIN","STREET":"STREET","SECT":"SECT","MAREA":"MAREA","LANE":"LANE","ALLEY":"ALLEY","HOUSE_NO":"HOUSE_NO","E_COORD97":"E_COORD97","N_COORD97":"N_COORD97","ADDRESS":"ADDRESS","OBJECTID":"OBJECTID"},"geometryType":"esriGeometryPoint","spatialReference":{"wkid":102443,"latestWkid":3826},"fields":[{"name":"ID","type":"esriFieldTypeDouble","alias":"ID"},{"name":"DIS_CODE","type":"esriFieldTypeInteger","alias":"DIS_CODE"},{"name":"TOWNNAME","type":"esriFieldTypeString","alias":"TOWNNAME","length":8},{"name":"LI","type":"esriFieldTypeString","alias":"LI","length":8},{"name":"LIN","type":"esriFieldTypeString","alias":"LIN","length":12},{"name":"STREET","type":"esriFieldTypeString","alias":"STREET","length":20},{"name":"SECT","type":"esriFieldTypeString","alias":"SECT","length":8},{"name":"MAREA","type":"esriFieldTypeString","alias":"MAREA","length":12},{"name":"LANE","type":"esriFieldTypeString","alias":"LANE","length":10},{"name":"ALLEY","type":"esriFieldTypeString","alias":"ALLEY","length":10},{"name":"HOUSE_NO","type":"esriFieldTypeString","alias":"HOUSE_NO","length":20},{"name":"E_COORD97","type":"esriFieldTypeDouble","alias":"E_COORD97"},{"name":"N_COORD97","type":"esriFieldTypeDouble","alias":"N_COORD97"},{"name":"ADDRESS","type":"esriFieldTypeString","alias":"ADDRESS","length":50},{"name":"OBJECTID","type":"esriFieldTypeOID","alias":"OBJECTID"}],"features":[{"attributes":{"ID":627428,"DIS_CODE":0,"TOWNNAME":"東區","LI":"崇善里","LIN":"4鄰","STREET":"崇善二街","SECT":" ","MAREA":" ","LANE":" ","ALLEY":" ","HOUSE_NO":"１４號","E_COORD97":170885.16,"N_COORD97":2541999.9900000002,"ADDRESS":"崇善二街１４號","OBJECTID":627401},"geometry":{"x":170885.16000000015,"y":2541999.9900000002}},{"attributes":{"ID":627429,"DIS_CODE":0,"TOWNNAME":"東區","LI":"崇善里","LIN":"4鄰","STREET":"崇善二街","SECT":" ","MAREA":" ","LANE":" ","ALLEY":" ","HOUSE_NO":"１８號","E_COORD97":170892.07999999999,"N_COORD97":2542007.6699999999,"ADDRESS":"崇善二街１８號","OBJECTID":627402},"geometry":{"x":170892.08000000101,"y":2542007.6699999999}},{"attributes":{"ID":627430,"DIS_CODE":0,"TOWNNAME":"東區","LI":"崇善里","LIN":"4鄰","STREET":"崇善二街","SECT":" ","MAREA":" ","LANE":" ","ALLEY":" ","HOUSE_NO":"２４號","E_COORD97":170904.13,"N_COORD97":2542015.8599999999,"ADDRESS":"崇善二街２４號","OBJECTID":627403},"geometry":{"x":170904.12999999896,"y":2542015.8599999994}},{"attributes":{"ID":627431,"DIS_CODE":0,"TOWNNAME":"東區","LI":"崇善里","LIN":"4鄰","STREET":"崇善二街","SECT":" ","MAREA":" ","LANE":" ","ALLEY":" ","HOUSE_NO":"２６號","E_COORD97":170908.73999999999,"N_COORD97":2542018.9399999999,"ADDRESS":"崇善二街２６號","OBJECTID":627404},"geometry":{"x":170908.74000000022,"y":2542018.9399999995}},{"attributes":{"ID":627432,"DIS_CODE":0,"TOWNNAME":"東區","LI":"崇善里","LIN":"4鄰","STREET":"崇善二街","SECT":" ","MAREA":" ","LANE":" ","ALLEY":" ","HOUSE_NO":"２８號","E_COORD97":170911.29999999999,"N_COORD97":2542021.75,"ADDRESS":"崇善二街２８號","OBJECTID":627405},"geometry":{"x":170911.29999999981,"y":2542021.75}},{"attributes":{"ID":627433,"DIS_CODE":0,"TOWNNAME":"東區","LI":"崇善里","LIN":"4鄰","STREET":"崇善二街","SECT":" ","MAREA":" ","LANE":" ","ALLEY":" ","HOUSE_NO":"６８號","E_COORD97":170965.16,"N_COORD97":2542090.79,"ADDRESS":"崇善二街６８號","OBJECTID":627406},"geometry":{"x":170965.16000000015,"y":2542090.7899999991}},{"attributes":{"ID":627434,"DIS_CODE":0,"TOWNNAME":"東區","LI":"崇善里","LIN":"4鄰","STREET":"崇善二街","SECT":" ","MAREA":" ","LANE":" ","ALLEY":" ","HOUSE_NO":"７０號","E_COORD97":170973.42000000001,"N_COORD97":2542097.7999999998,"ADDRESS":"崇善二街７０號","OBJECTID":627407},"geometry":{"x":170973.41999999899,"y":2542097.8000000026}},{"attributes":{"ID":627435,"DIS_CODE":0,"TOWNNAME":"東區","LI":"崇善里","LIN":"4鄰","STREET":"崇善二街","SECT":" ","MAREA":" ","LANE":" ","ALLEY":" ","HOUSE_NO":"５號","E_COORD97":170879.44,"N_COORD97":2542025.6800000002,"ADDRESS":"崇善二街５號","OBJECTID":627408},"geometry":{"x":170879.44000000134,"y":2542025.6800000034}},{"attributes":{"ID":627436,"DIS_CODE":0,"TOWNNAME":"東區","LI":"崇善里","LIN":"4鄰","STREET":"崇善二街","SECT":" ","MAREA":" ","LANE":" ","ALLEY":" ","HOUSE_NO":"１３號","E_COORD97":170901.42999999999,"N_COORD97":2542049.6800000002,"ADDRESS":"崇善二街１３號","OBJECTID":627409},"geometry":{"x":170901.4299999997,"y":2542049.6800000034}},{"attributes":{"ID":627437,"DIS_CODE":0,"TOWNNAME":"東區","LI":"崇善里","LIN":"4鄰","STREET":"崇善二街","SECT":" ","MAREA":" ","LANE":" ","ALLEY":" ","HOUSE_NO":"１９號","E_COORD97":170911.41,"N_COORD97":2542062.98,"ADDRESS":"崇善二街１９號","OBJECTID":627410},"geometry":{"x":170911.41000000108,"y":2542062.9800000023}},{"attributes":{"ID":627438,"DIS_CODE":0,"TOWNNAME":"東區","LI":"崇善里","LIN":"4鄰","STREET":"崇善二街","SECT":" ","MAREA":" ","LANE":" ","ALLEY":" ","HOUSE_NO":"２１號","E_COORD97":170947.575816,"N_COORD97":2542099.95126,"ADDRESS":"崇善二街２１號","OBJECTID":627411},"geometry":{"x":170947.57581600081,"y":2542099.9512650035}},{"attributes":{"ID":627439,"DIS_CODE":0,"TOWNNAME":"東區","LI":"崇善里","LIN":"4鄰","STREET":"崇善二街","SECT":" ","MAREA":" ","LANE":" ","ALLEY":" ","HOUSE_NO":"２５號","E_COORD97":170966.45999999999,"N_COORD97":2542119.0899999999,"ADDRESS":"崇善二街２５號","OBJECTID":627412},"geometry":{"x":170966.46000000183,"y":2542119.0900000017}},{"attributes":{"ID":627440,"DIS_CODE":0,"TOWNNAME":"永康區","LI":"中興里","LIN":"4鄰","STREET":"中華一路","SECT":" ","MAREA":" ","LANE":" ","ALLEY":" ","HOUSE_NO":"１４６之１號","E_COORD97":171671.48000000001,"N_COORD97":2544969.9199999999,"ADDRESS":"中華一路１４６之１號","OBJECTID":627413},"geometry":{"x":171671.48000000045,"y":2544969.9199999999}},{"attributes":{"ID":627441,"DIS_CODE":0,"TOWNNAME":"永康區","LI":"網寮里","LIN":"18鄰","STREET":"永大一路","SECT":" ","MAREA":" ","LANE":" ","ALLEY":" ","HOUSE_NO":"３２０號","E_COORD97":173584.07000000001,"N_COORD97":2546278.73,"ADDRESS":"永大一路３２０號","OBJECTID":627414},"geometry":{"x":173584.07000000123,"y":2546278.7300000023}},{"attributes":{"ID":627442,"DIS_CODE":0,"TOWNNAME":"仁德區","LI":"保安里","LIN":"4鄰","STREET":"文賢路","SECT":"一段","MAREA":" ","LANE":" ","ALLEY":" ","HOUSE_NO":"８２２號","E_COORD97":171455.23000000001,"N_COORD97":2536203.3199999998,"ADDRESS":"文賢路一段８２２號","OBJECTID":627415},"geometry":{"x":171455.23000000231,"y":2536203.3200000003}},{"attributes":{"ID":627443,"DIS_CODE":0,"TOWNNAME":"永康區","LI":"六合里","LIN":"4鄰","STREET":"新興街","SECT":" ","MAREA":" ","LANE":" ","ALLEY":" ","HOUSE_NO":"１０３號","E_COORD97":171088.23000000001,"N_COORD97":2545809.5,"ADDRESS":"新興街１０３號","OBJECTID":627416},"geometry":{"x":171088.23000000045,"y":2545809.5}},{"attributes":{"ID":627444,"DIS_CODE":0,"TOWNNAME":"東區","LI":"大學里","LIN":"4鄰","STREET":"大學路","SECT":" ","MAREA":" ","LANE":" ","ALLEY":" ","HOUSE_NO":"２８號","E_COORD97":170194.56,"N_COORD97":2544042.8300000001,"ADDRESS":"大學路２８號","OBJECTID":627417},"geometry":{"x":170194.56000000052,"y":2544042.8300000019}},{"attributes":{"ID":627445,"DIS_CODE":0,"TOWNNAME":"東區","LI":"大學里","LIN":"4鄰","STREET":"大學路","SECT":" ","MAREA":" ","LANE":" ","ALLEY":" ","HOUSE_NO":"２８號之１","E_COORD97":170198.04000000001,"N_COORD97":2544041.6800000002,"ADDRESS":"大學路２８號之１","OBJECTID":627418},"geometry":{"x":170198.03999999911,"y":2544041.6799999997}},{"attributes":{"ID":627446,"DIS_CODE":0,"TOWNNAME":"東區","LI":"大學里","LIN":"4鄰","STREET":"大學路","SECT":" ","MAREA":" ","LANE":" ","ALLEY":" ","HOUSE_NO":"２８號之２","E_COORD97":170194.35000000001,"N_COORD97":2544027.3799999999,"ADDRESS":"大學路２８號之２","OBJECTID":627419},"geometry":{"x":170194.35000000056,"y":2544027.3800000027}},{"attributes":{"ID":627447,"DIS_CODE":0,"TOWNNAME":"東區","LI":"大學里","LIN":"4鄰","STREET":"大學路","SECT":" ","MAREA":" ","LANE":" ","ALLEY":" ","HOUSE_NO":"３０號","E_COORD97":170199.70000000001,"N_COORD97":2544042.6699999999,"ADDRESS":"大學路３０號","OBJECTID":627420},"geometry":{"x":170199.70000000112,"y":2544042.6699999999}},{"attributes":{"ID":627448,"DIS_CODE":0,"TOWNNAME":"東區","LI":"大學里","LIN":"4鄰","STREET":"大學路","SECT":" ","MAREA":" ","LANE":" ","ALLEY":" ","HOUSE_NO":"８號","E_COORD97":170052.04000000001,"N_COORD97":2544053.0899999999,"ADDRESS":"大學路８號","OBJECTID":627421},"geometry":{"x":170052.04000000004,"y":2544053.0899999999}},{"attributes":{"ID":627449,"DIS_CODE":0,"TOWNNAME":"東區","LI":"大學里","LIN":"4鄰","STREET":"大學路","SECT":" ","MAREA":" ","LANE":" ","ALLEY":" ","HOUSE_NO":"８號地下室","E_COORD97":170052.04000000001,"N_COORD97":2544053.0899999999,"ADDRESS":"大學路８號地下室","OBJECTID":627422},"geometry":{"x":170052.04000000004,"y":2544053.0899999999}},{"attributes":{"ID":627450,"DIS_CODE":0,"TOWNNAME":"東區","LI":"大學里","LIN":"4鄰","STREET":"長榮路","SECT":"三段","MAREA":" ","LANE":" ","ALLEY":" ","HOUSE_NO":"１３５號","E_COORD97":170210.01999999999,"N_COORD97":2544021.0899999999,"ADDRESS":"長榮路三段１３５號","OBJECTID":627423},"geometry":{"x":170210.02000000048,"y":2544021.0900000017}},{"attributes":{"ID":627451,"DIS_CODE":0,"TOWNNAME":"東區","LI":"大學里","LIN":"4鄰","STREET":"長榮路","SECT":"三段","MAREA":" ","LANE":" ","ALLEY":" ","HOUSE_NO":"１３９號","E_COORD97":170212.41,"N_COORD97":2544037.54,"ADDRESS":"長榮路三段１３９號","OBJECTID":627424},"geometry":{"x":170212.41000000015,"y":2544037.540000001}},{"attributes":{"ID":627452,"DIS_CODE":0,"TOWNNAME":"中西區","LI":"民權里","LIN":"4鄰","STREET":"和平街","SECT":" ","MAREA":" ","LANE":" ","ALLEY":" ","HOUSE_NO":"１０９號","E_COORD97":167601.44,"N_COORD97":2544130.9500000002,"ADDRESS":"和平街１０９號","OBJECTID":627425},"geometry":{"x":167601.44000000041,"y":2544130.9499999993}},{"attributes":{"ID":627453,"DIS_CODE":0,"TOWNNAME":"中西區","LI":"民權里","LIN":"4鄰","STREET":"和平街","SECT":" ","MAREA":" ","LANE":" ","ALLEY":" ","HOUSE_NO":"１１１號","E_COORD97":167596.87,"N_COORD97":2544131.77,"ADDRESS":"和平街１１１號","OBJECTID":627426},"geometry":{"x":167596.87000000011,"y":2544131.7700000014}},{"attributes":{"ID":627454,"DIS_CODE":0,"TOWNNAME":"中西區","LI":"民權里","LIN":"4鄰","STREET":"和平街","SECT":" ","MAREA":" ","LANE":" ","ALLEY":" ","HOUSE_NO":"１１３號","E_COORD97":167592.70999999999,"N_COORD97":2544133.1099999999,"ADDRESS":"和平街１１３號","OBJECTID":627427},"geometry":{"x":167592.70999999996,"y":2544133.1099999994}},{"attributes":{"ID":627455,"DIS_CODE":0,"TOWNNAME":"中西區","LI":"民權里","LIN":"4鄰","STREET":"和平街","SECT":" ","MAREA":" ","LANE":" ","ALLEY":" ","HOUSE_NO":"１１５號","E_COORD97":167586.5,"N_COORD97":2544134.7999999998,"ADDRESS":"和平街１１５號","OBJECTID":627428},"geometry":{"x":167586.50000000093,"y":2544134.8000000045}},{"attributes":{"ID":627456,"DIS_CODE":0,"TOWNNAME":"中西區","LI":"民權里","LIN":"4鄰","STREET":"和平街","SECT":" ","MAREA":" ","LANE":" ","ALLEY":" ","HOUSE_NO":"１１７號","E_COORD97":167582.34,"N_COORD97":2544136.21,"ADDRESS":"和平街１１７號","OBJECTID":627429},"geometry":{"x":167582.34000000078,"y":2544136.2100000028}},{"attributes":{"ID":627457,"DIS_CODE":0,"TOWNNAME":"中西區","LI":"民權里","LIN":"4鄰","STREET":"和平街","SECT":" ","MAREA":" ","LANE":" ","ALLEY":" ","HOUSE_NO":"１１９號","E_COORD97":167577.16,"N_COORD97":2544138.5800000001,"ADDRESS":"和平街１１９號","OBJECTID":627430},"geometry":{"x":167577.16000000108,"y":2544138.5800000001}},{"attributes":{"ID":627458,"DIS_CODE":0,"TOWNNAME":"中西區","LI":"民權里","LIN":"4鄰","STREET":"和平街","SECT":" ","MAREA":" ","LANE":" ","ALLEY":" ","HOUSE_NO":"１２１號","E_COORD97":167573,"N_COORD97":2544139.71,"ADDRESS":"和平街１２１號","OBJECTID":627431},"geometry":{"x":167573.00000000093,"y":2544139.7100000028}},{"attributes":{"ID":627459,"DIS_CODE":0,"TOWNNAME":"中西區","LI":"民權里","LIN":"4鄰","STREET":"和平街","SECT":" ","MAREA":" ","LANE":" ","ALLEY":" ","HOUSE_NO":"１２３號","E_COORD97":167571.14999999999,"N_COORD97":2544154.02,"ADDRESS":"和平街１２３號","OBJECTID":627432},"geometry":{"x":167571.15000000037,"y":2544154.0200000014}},{"attributes":{"ID":627460,"DIS_CODE":0,"TOWNNAME":"中西區","LI":"民權里","LIN":"4鄰","STREET":"和平街","SECT":" ","MAREA":" ","LANE":" ","ALLEY":" ","HOUSE_NO":"１２５號","E_COORD97":167564.59,"N_COORD97":2544156.0699999998,"ADDRESS":"和平街１２５號","OBJECTID":627433},"geometry":{"x":167564.58999999985,"y":2544156.0699999984}},{"attributes":{"ID":627461,"DIS_CODE":0,"TOWNNAME":"中西區","LI":"協和里","LIN":"4鄰","STREET":"文賢路","SECT":" ","MAREA":" ","LANE":" ","ALLEY":" ","HOUSE_NO":"２３號","E_COORD97":167414.63,"N_COORD97":2544485.4500000002,"ADDRESS":"文賢路２３號","OBJECTID":627434},"geometry":{"x":167414.63000000082,"y":2544485.4500000011}},{"attributes":{"ID":627462,"DIS_CODE":0,"TOWNNAME":"中西區","LI":"協和里","LIN":"4鄰","STREET":"民族路","SECT":"三段","MAREA":" ","LANE":" ","ALLEY":" ","HOUSE_NO":"１８８號","E_COORD97":167451.41,"N_COORD97":2544442.3199999998,"ADDRESS":"民族路三段１８８號","OBJECTID":627435},"geometry":{"x":167451.41000000108,"y":2544442.3200000003}},{"attributes":{"ID":627463,"DIS_CODE":0,"TOWNNAME":"中西區","LI":"協進里","LIN":"4鄰","STREET":"民生路","SECT":"二段","MAREA":" ","LANE":" ","ALLEY":" ","HOUSE_NO":"２９２號","E_COORD97":167082.29999999999,"N_COORD97":2544193.52,"ADDRESS":"民生路二段２９２號","OBJECTID":627436},"geometry":{"x":167082.30000000075,"y":2544193.5200000014}},{"attributes":{"ID":627464,"DIS_CODE":0,"TOWNNAME":"新化區","LI":"協興里","LIN":"4鄰","STREET":"中山路","SECT":" ","MAREA":" ","LANE":" ","ALLEY":" ","HOUSE_NO":"５３０號","E_COORD97":178517.20999999999,"N_COORD97":2548444.25,"ADDRESS":"中山路５３０號","OBJECTID":627437},"geometry":{"x":178517.21000000089,"y":2548444.2500000019}},{"attributes":{"ID":627465,"DIS_CODE":0,"TOWNNAME":"中西區","LI":"赤嵌里","LIN":"4鄰","STREET":"中山路","SECT":" ","MAREA":" ","LANE":" ","ALLEY":" ","HOUSE_NO":"１２５號之１４","E_COORD97":168883.37,"N_COORD97":2544215.1099999999,"ADDRESS":"中山路１２５號之１４","OBJECTID":627438},"geometry":{"x":168883.37000000011,"y":2544215.1099999994}},{"attributes":{"ID":627466,"DIS_CODE":0,"TOWNNAME":"中西區","LI":"赤嵌里","LIN":"4鄰","STREET":"中山路","SECT":" ","MAREA":" ","LANE":" ","ALLEY":" ","HOUSE_NO":"１２５號之１５","E_COORD97":168880.17999999999,"N_COORD97":2544215.5699999998,"ADDRESS":"中山路１２５號之１５","OBJECTID":627439},"geometry":{"x":168880.18000000063,"y":2544215.5700000022}},{"attributes":{"ID":627467,"DIS_CODE":0,"TOWNNAME":"中西區","LI":"赤嵌里","LIN":"4鄰","STREET":"中山路","SECT":" ","MAREA":" ","LANE":" ","ALLEY":" ","HOUSE_NO":"１２５號之１６","E_COORD97":168873.12,"N_COORD97":2544216.9300000002,"ADDRESS":"中山路１２５號之１６","OBJECTID":627440},"geometry":{"x":168873.12000000011,"y":2544216.9299999997}},{"attributes":{"ID":627468,"DIS_CODE":0,"TOWNNAME":"中西區","LI":"赤嵌里","LIN":"4鄰","STREET":"中山路","SECT":" ","MAREA":" ","LANE":" ","ALLEY":" ","HOUSE_NO":"１２５號之５","E_COORD97":168936.23000000001,"N_COORD97":2544205.5499999998,"ADDRESS":"中山路１２５號之５","OBJECTID":627441},"geometry":{"x":168936.23000000138,"y":2544205.5500000026}},{"attributes":{"ID":627469,"DIS_CODE":0,"TOWNNAME":"東區","LI":"崇德里","LIN":"4鄰","STREET":"崇德五街","SECT":" ","MAREA":" ","LANE":" ","ALLEY":" ","HOUSE_NO":"７７號","E_COORD97":170748.25,"N_COORD97":2541944.8999999999,"ADDRESS":"崇德五街７７號","OBJECTID":627442},"geometry":{"x":170748.25000000093,"y":2541944.9000000022}},{"attributes":{"ID":627470,"DIS_CODE":0,"TOWNNAME":"中西區","LI":"赤嵌里","LIN":"4鄰","STREET":"中山路","SECT":" ","MAREA":" ","LANE":" ","ALLEY":" ","HOUSE_NO":"１２５號之６","E_COORD97":168934.17999999999,"N_COORD97":2544205.7799999998,"ADDRESS":"中山路１２５號之６","OBJECTID":627443},"geometry":{"x":168934.18000000063,"y":2544205.7800000012}},{"attributes":{"ID":627471,"DIS_CODE":0,"TOWNNAME":"中西區","LI":"赤嵌里","LIN":"4鄰","STREET":"中山路","SECT":" ","MAREA":" ","LANE":" ","ALLEY":" ","HOUSE_NO":"１２５號之７","E_COORD97":168931.67000000001,"N_COORD97":2544206.2400000002,"ADDRESS":"中山路１２５號之７","OBJECTID":627444},"geometry":{"x":168931.67000000086,"y":2544206.2400000021}},{"attributes":{"ID":627472,"DIS_CODE":0,"TOWNNAME":"永康區","LI":"龍潭里","LIN":"32鄰","STREET":"龍中街","SECT":" ","MAREA":" ","LANE":" ","ALLEY":" ","HOUSE_NO":"５８號之１","E_COORD97":174452.35000000001,"N_COORD97":2547985.6000000001,"ADDRESS":"龍中街５８號之１","OBJECTID":627445},"geometry":{"x":174452.35000000149,"y":2547985.5999999996}},{"attributes":{"ID":627473,"DIS_CODE":0,"TOWNNAME":"永康區","LI":"龍潭里","LIN":"32鄰","STREET":"龍中街","SECT":" ","MAREA":" ","LANE":" ","ALLEY":" ","HOUSE_NO":"４４之１號","E_COORD97":174457.14999999999,"N_COORD97":2547950.8399999999,"ADDRESS":"龍中街４４之１號","OBJECTID":627446},"geometry":{"x":174457.15000000037,"y":2547950.8399999999}},{"attributes":{"ID":627474,"DIS_CODE":0,"TOWNNAME":"永康區","LI":"網寮里","LIN":"13鄰","STREET":"永勝街","SECT":" ","MAREA":" ","LANE":" ","ALLEY":" ","HOUSE_NO":"１９１號","E_COORD97":173335.66,"N_COORD97":2546576.75,"ADDRESS":"永勝街１９１號","OBJECTID":627447},"geometry":{"x":173335.66000000108,"y":2546576.7500000019}},{"attributes":{"ID":627475,"DIS_CODE":0,"TOWNNAME":"永康區","LI":"龍潭里","LIN":"13鄰","STREET":"龍橋街","SECT":" ","MAREA":" ","LANE":" ","ALLEY":" ","HOUSE_NO":"５９號","E_COORD97":174782.95000000001,"N_COORD97":2548400.9199999999,"ADDRESS":"龍橋街５９號","OBJECTID":627448},"geometry":{"x":174782.95000000112,"y":2548400.9199999999}},{"attributes":{"ID":627476,"DIS_CODE":0,"TOWNNAME":"中西區","LI":"赤嵌里","LIN":"4鄰","STREET":"中山路","SECT":" ","MAREA":" ","LANE":" ","ALLEY":" ","HOUSE_NO":"１２５號之８","E_COORD97":168928.48000000001,"N_COORD97":2544206.6899999999,"ADDRESS":"中山路１２５號之８","OBJECTID":627449},"geometry":{"x":168928.48000000045,"y":2544206.6900000013}},{"attributes":{"ID":627477,"DIS_CODE":0,"TOWNNAME":"佳里區","LI":"六安里","LIN":"4鄰","STREET":"六安街","SECT":" ","MAREA":" ","LANE":" ","ALLEY":" ","HOUSE_NO":"７２號","E_COORD97":166162.44,"N_COORD97":2563030.4700000002,"ADDRESS":"六安街７２號","OBJECTID":627450},"geometry":{"x":166162.44000000041,"y":2563030.4700000007}},{"attributes":{"ID":627478,"DIS_CODE":0,"TOWNNAME":"中西區","LI":"民生里","LIN":"4鄰","STREET":"永華路","SECT":"一段","MAREA":" ","LANE":" ","ALLEY":" ","HOUSE_NO":"２１４號","E_COORD97":167073.76000000001,"N_COORD97":2543235.73,"ADDRESS":"永華路一段２１４號","OBJECTID":627451},"geometry":{"x":167073.75999999885,"y":2543235.7300000004}},{"attributes":{"ID":627479,"DIS_CODE":0,"TOWNNAME":"中西區","LI":"民生里","LIN":"4鄰","STREET":"永華路","SECT":"一段","MAREA":" ","LANE":" ","ALLEY":" ","HOUSE_NO":"２１４號之１","E_COORD97":167075.60999999999,"N_COORD97":2543241.4900000002,"ADDRESS":"永華路一段２１４號之１","OBJECTID":627452},"geometry":{"x":167075.61000000127,"y":2543241.4900000039}},{"attributes":{"ID":627480,"DIS_CODE":0,"TOWNNAME":"中西區","LI":"民生里","LIN":"4鄰","STREET":"南華街","SECT":" ","MAREA":" ","LANE":" ","ALLEY":" ","HOUSE_NO":"１０號","E_COORD97":167078.29000000001,"N_COORD97":2543266.1800000002,"ADDRESS":"南華街１０號","OBJECTID":627453},"geometry":{"x":167078.29000000004,"y":2543266.1799999997}},{"attributes":{"ID":627481,"DIS_CODE":0,"TOWNNAME":"中西區","LI":"民生里","LIN":"4鄰","STREET":"南華街","SECT":" ","MAREA":" ","LANE":" ","ALLEY":" ","HOUSE_NO":"１２號","E_COORD97":167080.14000000001,"N_COORD97":2543273.3799999999,"ADDRESS":"南華街１２號","OBJECTID":627454},"geometry":{"x":167080.1400000006,"y":2543273.379999999}},{"attributes":{"ID":627482,"DIS_CODE":0,"TOWNNAME":"中西區","LI":"永福里","LIN":"4鄰","STREET":"友愛街","SECT":" ","MAREA":" ","LANE":" ","ALLEY":" ","HOUSE_NO":"２０號","E_COORD97":168194.28,"N_COORD97":2543511.0800000001,"ADDRESS":"友愛街２０號","OBJECTID":627455},"geometry":{"x":168194.28000000026,"y":2543511.0800000001}},{"attributes":{"ID":627483,"DIS_CODE":0,"TOWNNAME":"中西區","LI":"永福里","LIN":"4鄰","STREET":"友愛街","SECT":" ","MAREA":" ","LANE":" ","ALLEY":" ","HOUSE_NO":"２０號之１","E_COORD97":168190.39999999999,"N_COORD97":2543510.7400000002,"ADDRESS":"友愛街２０號之１","OBJECTID":627456},"geometry":{"x":168190.40000000037,"y":2543510.7399999984}},{"attributes":{"ID":627484,"DIS_CODE":0,"TOWNNAME":"中西區","LI":"永福里","LIN":"4鄰","STREET":"友愛街","SECT":" ","MAREA":" ","LANE":" ","ALLEY":" ","HOUSE_NO":"２２號","E_COORD97":168186.17999999999,"N_COORD97":2543511.7599999998,"ADDRESS":"友愛街２２號","OBJECTID":627457},"geometry":{"x":168186.1799999997,"y":2543511.7600000016}},{"attributes":{"ID":627485,"DIS_CODE":0,"TOWNNAME":"中西區","LI":"永福里","LIN":"4鄰","STREET":"友愛街","SECT":" ","MAREA":" ","LANE":" ","ALLEY":" ","HOUSE_NO":"２２號之１","E_COORD97":168181.95999999999,"N_COORD97":2543512.4300000002,"ADDRESS":"友愛街２２號之１","OBJECTID":627458},"geometry":{"x":168181.96000000089,"y":2543512.4300000034}},{"attributes":{"ID":627486,"DIS_CODE":0,"TOWNNAME":"永康區","LI":"龍潭里","LIN":"18鄰","STREET":"龍橋街","SECT":" ","MAREA":" ","LANE":" ","ALLEY":" ","HOUSE_NO":"５２號","E_COORD97":174804.53,"N_COORD97":2548407.8700000001,"ADDRESS":"龍橋街５２號","OBJECTID":627459},"geometry":{"x":174804.53000000119,"y":2548407.8700000029}},{"attributes":{"ID":627487,"DIS_CODE":0,"TOWNNAME":"永康區","LI":"網寮里","LIN":"18鄰","STREET":"永勝街","SECT":" ","MAREA":" ","LANE":" ","ALLEY":" ","HOUSE_NO":"９９號","E_COORD97":173477.47,"N_COORD97":2546365.71,"ADDRESS":"永勝街９９號","OBJECTID":627460},"geometry":{"x":173477.47000000067,"y":2546365.7100000009}},{"attributes":{"ID":627488,"DIS_CODE":0,"TOWNNAME":"永康區","LI":"龍潭里","LIN":"20鄰","STREET":"龍潭街","SECT":" ","MAREA":" ","LANE":" ","ALLEY":" ","HOUSE_NO":"２０９號","E_COORD97":174958.75,"N_COORD97":2548426.3700000001,"ADDRESS":"龍潭街２０９號","OBJECTID":627461},"geometry":{"x":174958.75000000093,"y":2548426.370000001}},{"attributes":{"ID":627489,"DIS_CODE":0,"TOWNNAME":"永康區","LI":"龍潭里","LIN":"25鄰","STREET":"龍昌街","SECT":" ","MAREA":" ","LANE":" ","ALLEY":" ","HOUSE_NO":"５２號","E_COORD97":175015.85000000001,"N_COORD97":2547876.8199999998,"ADDRESS":"龍昌街５２號","OBJECTID":627462},"geometry":{"x":175015.85000000056,"y":2547876.8200000003}},{"attributes":{"ID":627490,"DIS_CODE":0,"TOWNNAME":"永康區","LI":"網寮里","LIN":"25鄰","STREET":"永和街","SECT":" ","MAREA":" ","LANE":" ","ALLEY":" ","HOUSE_NO":"３６號","E_COORD97":173779.73000000001,"N_COORD97":2546496.04,"ADDRESS":"永和街３６號","OBJECTID":627463},"geometry":{"x":173779.73000000138,"y":2546496.040000001}},{"attributes":{"ID":627491,"DIS_CODE":0,"TOWNNAME":"中西區","LI":"永福里","LIN":"4鄰","STREET":"友愛街","SECT":" ","MAREA":" ","LANE":" ","ALLEY":" ","HOUSE_NO":"２４號","E_COORD97":168172.51000000001,"N_COORD97":2543514.6200000001,"ADDRESS":"友愛街２４號","OBJECTID":627464},"geometry":{"x":168172.51000000071,"y":2543514.620000001}},{"attributes":{"ID":627492,"DIS_CODE":0,"TOWNNAME":"中西區","LI":"永福里","LIN":"4鄰","STREET":"友愛街","SECT":" ","MAREA":" ","LANE":" ","ALLEY":" ","HOUSE_NO":"２６號","E_COORD97":168160.51999999999,"N_COORD97":2543517.8300000001,"ADDRESS":"友愛街２６號","OBJECTID":627465},"geometry":{"x":168160.52000000048,"y":2543517.8300000019}},{"attributes":{"ID":627493,"DIS_CODE":0,"TOWNNAME":"中西區","LI":"天后里","LIN":"4鄰","STREET":"新美街","SECT":" ","MAREA":" ","LANE":" ","ALLEY":" ","HOUSE_NO":"１２２號","E_COORD97":168075.73000000001,"N_COORD97":2544125.9300000002,"ADDRESS":"新美街１２２號","OBJECTID":627466},"geometry":{"x":168075.73000000138,"y":2544125.9299999978}},{"attributes":{"ID":627494,"DIS_CODE":0,"TOWNNAME":"中西區","LI":"天后里","LIN":"4鄰","STREET":"新美街","SECT":" ","MAREA":" ","LANE":" ","ALLEY":" ","HOUSE_NO":"１２４號","E_COORD97":168082.5,"N_COORD97":2544117.25,"ADDRESS":"新美街１２４號","OBJECTID":627467},"geometry":{"x":168082.5,"y":2544117.2499999981}},{"attributes":{"ID":627495,"DIS_CODE":0,"TOWNNAME":"中西區","LI":"天后里","LIN":"4鄰","STREET":"新美街","SECT":" ","MAREA":" ","LANE":" ","ALLEY":" ","HOUSE_NO":"１２６號","E_COORD97":168086.73000000001,"N_COORD97":2544115.7999999998,"ADDRESS":"新美街１２６號","OBJECTID":627468},"geometry":{"x":168086.73000000231,"y":2544115.8000000026}},{"attributes":{"ID":627496,"DIS_CODE":0,"TOWNNAME":"中西區","LI":"天后里","LIN":"4鄰","STREET":"新美街","SECT":" ","MAREA":" ","LANE":" ","ALLEY":" ","HOUSE_NO":"１２８號","E_COORD97":168099.76000000001,"N_COORD97":2544110.46,"ADDRESS":"新美街１２８號","OBJECTID":627469},"geometry":{"x":168099.76000000071,"y":2544110.4600000046}},{"attributes":{"ID":627497,"DIS_CODE":0,"TOWNNAME":"中西區","LI":"西湖里","LIN":"4鄰","STREET":"頂美一街","SECT":" ","MAREA":" ","LANE":" ","ALLEY":" ","HOUSE_NO":"３８號","E_COORD97":166319.17000000001,"N_COORD97":2544525.75,"ADDRESS":"頂美一街３８號","OBJECTID":627470},"geometry":{"x":166319.17000000086,"y":2544525.7500000019}},{"attributes":{"ID":627498,"DIS_CODE":0,"TOWNNAME":"中西區","LI":"西湖里","LIN":"4鄰","STREET":"頂美一街","SECT":" ","MAREA":" ","LANE":" ","ALLEY":" ","HOUSE_NO":"４０號","E_COORD97":166317.70999999999,"N_COORD97":2544532.3100000001,"ADDRESS":"頂美一街４０號","OBJECTID":627471},"geometry":{"x":166317.70999999996,"y":2544532.3100000024}},{"attributes":{"ID":627499,"DIS_CODE":0,"TOWNNAME":"中西區","LI":"西湖里","LIN":"4鄰","STREET":"頂美一街","SECT":" ","MAREA":" ","LANE":" ","ALLEY":" ","HOUSE_NO":"４２號","E_COORD97":166316.98000000001,"N_COORD97":2544540.3300000001,"ADDRESS":"頂美一街４２號","OBJECTID":627472},"geometry":{"x":166316.98000000231,"y":2544540.3300000001}},{"attributes":{"ID":627500,"DIS_CODE":0,"TOWNNAME":"中西區","LI":"西湖里","LIN":"4鄰","STREET":"頂美一街","SECT":" ","MAREA":" ","LANE":" ","ALLEY":" ","HOUSE_NO":"４６號","E_COORD97":166316.48999999999,"N_COORD97":2544556.8500000001,"ADDRESS":"頂美一街４６號","OBJECTID":627473},"geometry":{"x":166316.49000000022,"y":2544556.8499999996}},{"attributes":{"ID":627501,"DIS_CODE":0,"TOWNNAME":"永康區","LI":"復國里","LIN":"18鄰","STREET":"復國一路","SECT":" ","MAREA":" ","LANE":" ","ALLEY":" ","HOUSE_NO":"３２８號","E_COORD97":172765,"N_COORD97":2545646.02,"ADDRESS":"復國一路３２８號","OBJECTID":627474},"geometry":{"x":172765.00000000186,"y":2545646.0199999996}},{"attributes":{"ID":627502,"DIS_CODE":0,"TOWNNAME":"永康區","LI":"網寮里","LIN":"26鄰","STREET":"永吉路","SECT":" ","MAREA":" ","LANE":" ","ALLEY":" ","HOUSE_NO":"１４０號","E_COORD97":173973.34,"N_COORD97":2546541.5600000001,"ADDRESS":"永吉路１４０號","OBJECTID":627475},"geometry":{"x":173973.34000000078,"y":2546541.5600000024}},{"attributes":{"ID":627503,"DIS_CODE":0,"TOWNNAME":"永康區","LI":"復國里","LIN":"26鄰","STREET":"復國一路","SECT":" ","MAREA":" ","LANE":" ","ALLEY":" ","HOUSE_NO":"３０１號","E_COORD97":172737.04000000001,"N_COORD97":2545578.1400000001,"ADDRESS":"復國一路３０１號","OBJECTID":627476},"geometry":{"x":172737.04000000004,"y":2545578.1400000025}},{"attributes":{"ID":627504,"DIS_CODE":0,"TOWNNAME":"永康區","LI":"網寮里","LIN":"13鄰","STREET":"永勝街","SECT":" ","MAREA":" ","LANE":" ","ALLEY":" ","HOUSE_NO":"１７７號","E_COORD97":173325.67999999999,"N_COORD97":2546530.98,"ADDRESS":"永勝街１７７號","OBJECTID":627477},"geometry":{"x":173325.6799999997,"y":2546530.9800000023}},{"attributes":{"ID":627505,"DIS_CODE":0,"TOWNNAME":"安南區","LI":"幸福里","LIN":"4鄰","STREET":"國安街","SECT":" ","MAREA":" ","LANE":" ","ALLEY":" ","HOUSE_NO":"１１３號","E_COORD97":166862.26999999999,"N_COORD97":2546970.6400000001,"ADDRESS":"國安街１１３號","OBJECTID":627478},"geometry":{"x":166862.27000000048,"y":2546970.6400000025}},{"attributes":{"ID":627506,"DIS_CODE":0,"TOWNNAME":"東區","LI":"崇德里","LIN":"4鄰","STREET":"崇德五街","SECT":" ","MAREA":" ","LANE":" ","ALLEY":" ","HOUSE_NO":"７９號","E_COORD97":170749.94,"N_COORD97":2541948.8199999998,"ADDRESS":"崇德五街７９號","OBJECTID":627479},"geometry":{"x":170749.94000000041,"y":2541948.8200000022}},{"attributes":{"ID":627507,"DIS_CODE":0,"TOWNNAME":"東區","LI":"崇德里","LIN":"4鄰","STREET":"崇德五街","SECT":" ","MAREA":" ","LANE":" ","ALLEY":" ","HOUSE_NO":"８４號","E_COORD97":170764.67999999999,"N_COORD97":2541928.7599999998,"ADDRESS":"崇德五街８４號","OBJECTID":627480},"geometry":{"x":170764.68000000156,"y":2541928.7599999998}},{"attributes":{"ID":627508,"DIS_CODE":0,"TOWNNAME":"東區","LI":"崇德里","LIN":"4鄰","STREET":"崇德五街","SECT":" ","MAREA":" ","LANE":" ","ALLEY":" ","HOUSE_NO":"８號","E_COORD97":170668.54000000001,"N_COORD97":2541797.1000000001,"ADDRESS":"崇德五街８號","OBJECTID":627481},"geometry":{"x":170668.54000000097,"y":2541797.1000000015}},{"attributes":{"ID":627509,"DIS_CODE":0,"TOWNNAME":"永康區","LI":"復國里","LIN":"18鄰","STREET":"復國一路","SECT":" ","MAREA":" ","LANE":" ","ALLEY":" ","HOUSE_NO":"３４６號","E_COORD97":172773.10999999999,"N_COORD97":2545692.8300000001,"ADDRESS":"復國一路３４６號","OBJECTID":627482},"geometry":{"x":172773.11000000127,"y":2545692.8300000001}},{"attributes":{"ID":627510,"DIS_CODE":0,"TOWNNAME":"永康區","LI":"網寮里","LIN":"25鄰","STREET":"永和街","SECT":" ","MAREA":" ","LANE":" ","ALLEY":" ","HOUSE_NO":"５０號","E_COORD97":173749.87,"N_COORD97":2546491.3199999998,"ADDRESS":"永和街５０號","OBJECTID":627483},"geometry":{"x":173749.87000000104,"y":2546491.3200000022}},{"attributes":{"ID":627511,"DIS_CODE":0,"TOWNNAME":"永康區","LI":"網寮里","LIN":"25鄰","STREET":"永和街","SECT":" ","MAREA":" ","LANE":" ","ALLEY":" ","HOUSE_NO":"２２號","E_COORD97":173808.60999999999,"N_COORD97":2546500.9399999999,"ADDRESS":"永和街２２號","OBJECTID":627484},"geometry":{"x":173808.6099999994,"y":2546500.9399999995}},{"attributes":{"ID":627512,"DIS_CODE":0,"TOWNNAME":"永康區","LI":"網寮里","LIN":"18鄰","STREET":"永勝街","SECT":" ","MAREA":" ","LANE":" ","ALLEY":" ","HOUSE_NO":"３７號","E_COORD97":173560.29000000001,"N_COORD97":2546284.5,"ADDRESS":"永勝街３７號","OBJECTID":627485},"geometry":{"x":173560.29000000097,"y":2546284.5}},{"attributes":{"ID":627513,"DIS_CODE":0,"TOWNNAME":"永康區","LI":"網寮里","LIN":"13鄰","STREET":"永勝街","SECT":" ","MAREA":" ","LANE":" ","ALLEY":" ","HOUSE_NO":"１８９號","E_COORD97":173334.06,"N_COORD97":2546571.5,"ADDRESS":"永勝街１８９號","OBJECTID":627486},"geometry":{"x":173334.06000000052,"y":2546571.5000000019}},{"attributes":{"ID":627514,"DIS_CODE":0,"TOWNNAME":"中西區","LI":"青年里","LIN":"4鄰","STREET":"萬昌街","SECT":" ","MAREA":" ","LANE":" ","ALLEY":" ","HOUSE_NO":"１１３號","E_COORD97":169062.76000000001,"N_COORD97":2543674.2599999998,"ADDRESS":"萬昌街１１３號","OBJECTID":627487},"geometry":{"x":169062.76000000071,"y":2543674.2600000016}},{"attributes":{"ID":627515,"DIS_CODE":0,"TOWNNAME":"中西區","LI":"青年里","LIN":"4鄰","STREET":"萬昌街","SECT":" ","MAREA":" ","LANE":" ","ALLEY":" ","HOUSE_NO":"１１５號","E_COORD97":169058.01999999999,"N_COORD97":2543676.23,"ADDRESS":"萬昌街１１５號","OBJECTID":627488},"geometry":{"x":169058.01999999955,"y":2543676.2300000004}},{"attributes":{"ID":627516,"DIS_CODE":0,"TOWNNAME":"中西區","LI":"青年里","LIN":"4鄰","STREET":"萬昌街","SECT":" ","MAREA":" ","LANE":" ","ALLEY":" ","HOUSE_NO":"１１７號","E_COORD97":169062.35999999999,"N_COORD97":2543680.5699999998,"ADDRESS":"萬昌街１１７號","OBJECTID":627489},"geometry":{"x":169062.36000000127,"y":2543680.5700000003}},{"attributes":{"ID":627517,"DIS_CODE":0,"TOWNNAME":"中西區","LI":"青年里","LIN":"4鄰","STREET":"萬昌街","SECT":" ","MAREA":" ","LANE":" ","ALLEY":" ","HOUSE_NO":"１１９號","E_COORD97":169065.92000000001,"N_COORD97":2543683.7200000002,"ADDRESS":"萬昌街１１９號","OBJECTID":627490},"geometry":{"x":169065.91999999993,"y":2543683.7200000007}},{"attributes":{"ID":627518,"DIS_CODE":0,"TOWNNAME":"中西區","LI":"民權里","LIN":"4鄰","STREET":"忠明街","SECT":" ","MAREA":" ","LANE":" ","ALLEY":" ","HOUSE_NO":"３８號","E_COORD97":167598.24275999999,"N_COORD97":2544113.4066699999,"ADDRESS":"忠明街３８號","OBJECTID":627491},"geometry":{"x":167598.24275999982,"y":2544113.4066710025}},{"attributes":{"ID":627519,"DIS_CODE":0,"TOWNNAME":"中西區","LI":"民權里","LIN":"4鄰","STREET":"忠明街","SECT":" ","MAREA":" ","LANE":" ","ALLEY":" ","HOUSE_NO":"４０號","E_COORD97":167593.37301499999,"N_COORD97":2544115.7349999999,"ADDRESS":"忠明街４０號","OBJECTID":627492},"geometry":{"x":167593.37301500048,"y":2544115.7350030001}},{"attributes":{"ID":627520,"DIS_CODE":0,"TOWNNAME":"中西區","LI":"民權里","LIN":"4鄰","STREET":"忠明街","SECT":" ","MAREA":" ","LANE":" ","ALLEY":" ","HOUSE_NO":"４２號","E_COORD97":167588.71499899999,"N_COORD97":2544117.8516699998,"ADDRESS":"忠明街４２號","OBJECTID":627493},"geometry":{"x":167588.71499900054,"y":2544117.8516690005}},{"attributes":{"ID":627521,"DIS_CODE":0,"TOWNNAME":"中西區","LI":"民權里","LIN":"4鄰","STREET":"忠明街","SECT":" ","MAREA":" ","LANE":" ","ALLEY":" ","HOUSE_NO":"４４號","E_COORD97":167584.480438,"N_COORD97":2544120.1800000002,"ADDRESS":"忠明街４４號","OBJECTID":627494},"geometry":{"x":167584.48043800052,"y":2544120.1800009981}},{"attributes":{"ID":627522,"DIS_CODE":0,"TOWNNAME":"中西區","LI":"民權里","LIN":"4鄰","STREET":"忠明街","SECT":" ","MAREA":" ","LANE":" ","ALLEY":" ","HOUSE_NO":"４６號","E_COORD97":167580.66933400001,"N_COORD97":2544121.2383300001,"ADDRESS":"忠明街４６號","OBJECTID":627495},"geometry":{"x":167580.66933399998,"y":2544121.2383330017}},{"attributes":{"ID":627523,"DIS_CODE":0,"TOWNNAME":"中西區","LI":"民權里","LIN":"4鄰","STREET":"忠明街","SECT":" ","MAREA":" ","LANE":" ","ALLEY":" ","HOUSE_NO":"４８號","E_COORD97":167572.73000000001,"N_COORD97":2544124.96,"ADDRESS":"忠明街４８號","OBJECTID":627496},"geometry":{"x":167572.73000000045,"y":2544124.9600000028}},{"attributes":{"ID":627524,"DIS_CODE":0,"TOWNNAME":"中西區","LI":"民權里","LIN":"4鄰","STREET":"忠明街","SECT":" ","MAREA":" ","LANE":" ","ALLEY":" ","HOUSE_NO":"５２號","E_COORD97":167550.66,"N_COORD97":2544117.4100000001,"ADDRESS":"忠明街５２號","OBJECTID":627497},"geometry":{"x":167550.66000000015,"y":2544117.410000002}},{"attributes":{"ID":627525,"DIS_CODE":0,"TOWNNAME":"永康區","LI":"網寮里","LIN":"25鄰","STREET":"永和街","SECT":" ","MAREA":" ","LANE":" ","ALLEY":" ","HOUSE_NO":"２０號","E_COORD97":173817.07000000001,"N_COORD97":2546502.4900000002,"ADDRESS":"永和街２０號","OBJECTID":627498},"geometry":{"x":173817.0700000003,"y":2546502.4900000002}},{"attributes":{"ID":627526,"DIS_CODE":0,"TOWNNAME":"永康區","LI":"復華里","LIN":"39鄰","STREET":"復國一路","SECT":" ","MAREA":" ","LANE":" ","ALLEY":" ","HOUSE_NO":"３９３號","E_COORD97":172750.35999999999,"N_COORD97":2545943.02,"ADDRESS":"復國一路３９３號","OBJECTID":627499},"geometry":{"x":172750.36000000034,"y":2545943.0200000014}},{"attributes":{"ID":627527,"DIS_CODE":0,"TOWNNAME":"中西區","LI":"協和里","LIN":"4鄰","STREET":"民族路","SECT":"三段","MAREA":" ","LANE":" ","ALLEY":" ","HOUSE_NO":"２１４號","E_COORD97":167380.91,"N_COORD97":2544472.0600000001,"ADDRESS":"民族路三段２１４號","OBJECTID":627500},"geometry":{"x":167380.91000000015,"y":2544472.0600000042}},{"attributes":{"ID":627528,"DIS_CODE":0,"TOWNNAME":"中西區","LI":"協和里","LIN":"4鄰","STREET":"民族路","SECT":"三段","MAREA":" ","LANE":" ","ALLEY":" ","HOUSE_NO":"２１６號","E_COORD97":167376.03,"N_COORD97":2544474.1000000001,"ADDRESS":"民族路三段２１６號","OBJECTID":627501},"geometry":{"x":167376.03000000212,"y":2544474.1000000034}},{"attributes":{"ID":627529,"DIS_CODE":0,"TOWNNAME":"中西區","LI":"協和里","LIN":"4鄰","STREET":"民族路","SECT":"三段","MAREA":" ","LANE":" ","ALLEY":" ","HOUSE_NO":"２１８號","E_COORD97":167369.26999999999,"N_COORD97":2544477.0899999999,"ADDRESS":"民族路三段２１８號","OBJECTID":627502},"geometry":{"x":167369.27000000048,"y":2544477.0899999999}},{"attributes":{"ID":627530,"DIS_CODE":0,"TOWNNAME":"佳里區","LI":"東寧里","LIN":"4鄰","STREET":"中山路","SECT":" ","MAREA":" ","LANE":" ","ALLEY":" ","HOUSE_NO":"３１２號","E_COORD97":165718.84,"N_COORD97":2562383.2999999998,"ADDRESS":"中山路３１２號","OBJECTID":627503},"geometry":{"x":165718.83999999892,"y":2562383.3000000026}},{"attributes":{"ID":627531,"DIS_CODE":0,"TOWNNAME":"佳里區","LI":"東寧里","LIN":"4鄰","STREET":"中山路","SECT":" ","MAREA":" ","LANE":" ","ALLEY":" ","HOUSE_NO":"３１４號","E_COORD97":165718.20999999999,"N_COORD97":2562387.7999999998,"ADDRESS":"中山路３１４號","OBJECTID":627504},"geometry":{"x":165718.21000000183,"y":2562387.8000000007}},{"attributes":{"ID":627532,"DIS_CODE":0,"TOWNNAME":"佳里區","LI":"東寧里","LIN":"4鄰","STREET":"中山路","SECT":" ","MAREA":" ","LANE":" ","ALLEY":" ","HOUSE_NO":"３１６號","E_COORD97":165717.72,"N_COORD97":2562391.3100000001,"ADDRESS":"中山路３１６號","OBJECTID":627505},"geometry":{"x":165717.71999999974,"y":2562391.3100000005}},{"attributes":{"ID":627533,"DIS_CODE":0,"TOWNNAME":"佳里區","LI":"東寧里","LIN":"4鄰","STREET":"中山路","SECT":" ","MAREA":" ","LANE":" ","ALLEY":" ","HOUSE_NO":"３１８號","E_COORD97":165717.39000000001,"N_COORD97":2562395.0699999998,"ADDRESS":"中山路３１８號","OBJECTID":627506},"geometry":{"x":165717.3900000006,"y":2562395.0700000003}},{"attributes":{"ID":627534,"DIS_CODE":0,"TOWNNAME":"永康區","LI":"龍潭里","LIN":"18鄰","STREET":"龍潭街","SECT":" ","MAREA":" ","LANE":" ","ALLEY":" ","HOUSE_NO":"２４７號","E_COORD97":174864.76000000001,"N_COORD97":2548425.8500000001,"ADDRESS":"龍潭街２４７號","OBJECTID":627507},"geometry":{"x":174864.75999999978,"y":2548425.8500000034}},{"attributes":{"ID":627535,"DIS_CODE":0,"TOWNNAME":"永康區","LI":"龍潭里","LIN":"25鄰","STREET":"龍昌街","SECT":" ","MAREA":" ","LANE":" ","ALLEY":" ","HOUSE_NO":"４６號","E_COORD97":175019.32999999999,"N_COORD97":2547864.0699999998,"ADDRESS":"龍昌街４６號","OBJECTID":627508},"geometry":{"x":175019.33000000101,"y":2547864.0700000003}},{"attributes":{"ID":627536,"DIS_CODE":0,"TOWNNAME":"永康區","LI":"龍潭里","LIN":"25鄰","STREET":"龍昌街","SECT":" ","MAREA":" ","LANE":" ","ALLEY":" ","HOUSE_NO":"４８號","E_COORD97":175016.60000000001,"N_COORD97":2547868.3199999998,"ADDRESS":"龍昌街４８號","OBJECTID":627509},"geometry":{"x":175016.5999999987,"y":2547868.3200000022}},{"attributes":{"ID":627537,"DIS_CODE":0,"TOWNNAME":"東區","LI":"復興里","LIN":"4鄰","STREET":"富農街","SECT":"一段","MAREA":" ","LANE":" ","ALLEY":" ","HOUSE_NO":"２３４號","E_COORD97":171577.31,"N_COORD97":2542589.2799999998,"ADDRESS":"富農街一段２３４號","OBJECTID":627510},"geometry":{"x":171577.30999999866,"y":2542589.2799999993}},{"attributes":{"ID":627538,"DIS_CODE":0,"TOWNNAME":"東區","LI":"復興里","LIN":"4鄰","STREET":"富農街","SECT":"一段","MAREA":" ","LANE":" ","ALLEY":" ","HOUSE_NO":"２３６號","E_COORD97":171576.94,"N_COORD97":2542594.52,"ADDRESS":"富農街一段２３６號","OBJECTID":627511},"geometry":{"x":171576.94000000041,"y":2542594.5200000014}},{"attributes":{"ID":627539,"DIS_CODE":0,"TOWNNAME":"東區","LI":"復興里","LIN":"4鄰","STREET":"富農街","SECT":"一段","MAREA":" ","LANE":" ","ALLEY":" ","HOUSE_NO":"２３８號","E_COORD97":171578.44,"N_COORD97":2542597.8799999999,"ADDRESS":"富農街一段２３８號","OBJECTID":627512},"geometry":{"x":171578.44000000041,"y":2542597.8800000008}},{"attributes":{"ID":627540,"DIS_CODE":0,"TOWNNAME":"東區","LI":"復興里","LIN":"4鄰","STREET":"富農街","SECT":"一段","MAREA":" ","LANE":" ","ALLEY":" ","HOUSE_NO":"２４０號","E_COORD97":171580.31,"N_COORD97":2542601.6200000001,"ADDRESS":"富農街一段２４０號","OBJECTID":627513},"geometry":{"x":171580.30999999959,"y":2542601.6200000029}},{"attributes":{"ID":627541,"DIS_CODE":0,"TOWNNAME":"東區","LI":"復興里","LIN":"4鄰","STREET":"富農街","SECT":"一段","MAREA":" ","LANE":" ","ALLEY":" ","HOUSE_NO":"２４２號","E_COORD97":171581.42999999999,"N_COORD97":2542604.98,"ADDRESS":"富農街一段２４２號","OBJECTID":627514},"geometry":{"x":171581.4299999997,"y":2542604.9800000023}},{"attributes":{"ID":627542,"DIS_CODE":0,"TOWNNAME":"東區","LI":"復興里","LIN":"4鄰","STREET":"富農街","SECT":"一段","MAREA":" ","LANE":" ","ALLEY":" ","HOUSE_NO":"２４４號","E_COORD97":171582.17999999999,"N_COORD97":2542609.1000000001,"ADDRESS":"富農街一段２４４號","OBJECTID":627515},"geometry":{"x":171582.18000000063,"y":2542609.0999999996}},{"attributes":{"ID":627543,"DIS_CODE":0,"TOWNNAME":"東區","LI":"復興里","LIN":"4鄰","STREET":"富農街","SECT":"一段","MAREA":" ","LANE":" ","ALLEY":" ","HOUSE_NO":"２４６號","E_COORD97":171583.67999999999,"N_COORD97":2542613.96,"ADDRESS":"富農街一段２４６號","OBJECTID":627516},"geometry":{"x":171583.68000000063,"y":2542613.9600000009}},{"attributes":{"ID":627544,"DIS_CODE":0,"TOWNNAME":"永康區","LI":"網寮里","LIN":"18鄰","STREET":"永勝街","SECT":" ","MAREA":" ","LANE":" ","ALLEY":" ","HOUSE_NO":"３９號","E_COORD97":173562.89999999999,"N_COORD97":2546288,"ADDRESS":"永勝街３９號","OBJECTID":627517},"geometry":{"x":173562.9000000013,"y":2546288}},{"attributes":{"ID":627545,"DIS_CODE":0,"TOWNNAME":"永康區","LI":"復華里","LIN":"41鄰","STREET":"復華六街","SECT":" ","MAREA":" ","LANE":" ","ALLEY":" ","HOUSE_NO":"１２８號","E_COORD97":172565.51000000001,"N_COORD97":2545864.5699999998,"ADDRESS":"復華六街１２８號","OBJECTID":627518},"geometry":{"x":172565.50999999978,"y":2545864.5700000003}},{"attributes":{"ID":627546,"DIS_CODE":0,"TOWNNAME":"永康區","LI":"網寮里","LIN":"13鄰","STREET":"永勝街","SECT":" ","MAREA":" ","LANE":" ","ALLEY":" ","HOUSE_NO":"１７１號","E_COORD97":173322.09,"N_COORD97":2546519.48,"ADDRESS":"永勝街１７１號","OBJECTID":627519},"geometry":{"x":173322.09000000078,"y":2546519.4800000004}},{"attributes":{"ID":627547,"DIS_CODE":0,"TOWNNAME":"東區","LI":"莊敬里","LIN":"2鄰","STREET":"東和路","SECT":" ","MAREA":" ","LANE":" ","ALLEY":" ","HOUSE_NO":"５號","E_COORD97":171106.01999999999,"N_COORD97":2544346.6000000001,"ADDRESS":"東和路５號","OBJECTID":627520},"geometry":{"x":171106.01999999955,"y":2544346.6000000015}},{"attributes":{"ID":627548,"DIS_CODE":0,"TOWNNAME":"下營區","LI":"新興里","LIN":"4鄰","STREET":"人和一街","SECT":" ","MAREA":" ","LANE":" ","ALLEY":" ","HOUSE_NO":"３１號","E_COORD97":174928.04000000001,"N_COORD97":2570778.6800000002,"ADDRESS":"人和一街３１號","OBJECTID":627521},"geometry":{"x":174928.04000000097,"y":2570778.6799999997}},{"attributes":{"ID":627549,"DIS_CODE":0,"TOWNNAME":"下營區","LI":"新興里","LIN":"4鄰","STREET":"人和一街","SECT":" ","MAREA":" ","LANE":" ","ALLEY":" ","HOUSE_NO":"３３號","E_COORD97":174919.67000000001,"N_COORD97":2570777.7000000002,"ADDRESS":"人和一街３３號","OBJECTID":627522},"geometry":{"x":174919.66999999993,"y":2570777.6999999993}},{"attributes":{"ID":627550,"DIS_CODE":0,"TOWNNAME":"下營區","LI":"新興里","LIN":"4鄰","STREET":"人和一街","SECT":" ","MAREA":" ","LANE":" ","ALLEY":" ","HOUSE_NO":"３７號","E_COORD97":174911.01000000001,"N_COORD97":2570776.0299999998,"ADDRESS":"人和一街３７號","OBJECTID":627523},"geometry":{"x":174911.01000000071,"y":2570776.0299999993}},{"attributes":{"ID":627551,"DIS_CODE":0,"TOWNNAME":"下營區","LI":"新興里","LIN":"4鄰","STREET":"人和一街","SECT":" ","MAREA":" ","LANE":" ","ALLEY":" ","HOUSE_NO":"３號","E_COORD97":174996.14999999999,"N_COORD97":2570787.5600000001,"ADDRESS":"人和一街３號","OBJECTID":627524},"geometry":{"x":174996.15000000037,"y":2570787.5600000005}},{"attributes":{"ID":627552,"DIS_CODE":0,"TOWNNAME":"下營區","LI":"新興里","LIN":"4鄰","STREET":"人和一街","SECT":" ","MAREA":" ","LANE":" ","ALLEY":" ","HOUSE_NO":"４３號","E_COORD97":174890.87,"N_COORD97":2570767.9399999999,"ADDRESS":"人和一街４３號","OBJECTID":627525},"geometry":{"x":174890.87000000011,"y":2570767.9400000013}},{"attributes":{"ID":627553,"DIS_CODE":0,"TOWNNAME":"永康區","LI":"復華里","LIN":"32鄰","STREET":"復華十街","SECT":" ","MAREA":" ","LANE":" ","ALLEY":" ","HOUSE_NO":"２５號","E_COORD97":172603.35000000001,"N_COORD97":2546306.0299999998,"ADDRESS":"復華十街２５號","OBJECTID":627526},"geometry":{"x":172603.35000000056,"y":2546306.0300000012}},{"attributes":{"ID":627554,"DIS_CODE":0,"TOWNNAME":"永康區","LI":"復華里","LIN":"32鄰","STREET":"復國一路","SECT":" ","MAREA":" ","LANE":" ","ALLEY":" ","HOUSE_NO":"５３６號","E_COORD97":172541.31,"N_COORD97":2546248.2799999998,"ADDRESS":"復國一路５３６號","OBJECTID":627527},"geometry":{"x":172541.30999999959,"y":2546248.2799999993}},{"attributes":{"ID":627555,"DIS_CODE":0,"TOWNNAME":"安南區","LI":"頂安里","LIN":"4鄰","STREET":"長溪路","SECT":"一段","MAREA":" ","LANE":" ","ALLEY":" ","HOUSE_NO":"４７８號","E_COORD97":168483.01000000001,"N_COORD97":2549070.8599999999,"ADDRESS":"長溪路一段４７８號","OBJECTID":627528},"geometry":{"x":168483.01000000071,"y":2549070.8600000013}},{"attributes":{"ID":627556,"DIS_CODE":0,"TOWNNAME":"安南區","LI":"頂安里","LIN":"4鄰","STREET":"長溪路","SECT":"一段","MAREA":" ","LANE":" ","ALLEY":" ","HOUSE_NO":"４８０號","E_COORD97":168478.51000000001,"N_COORD97":2549076.9500000002,"ADDRESS":"長溪路一段４８０號","OBJECTID":627529},"geometry":{"x":168478.50999999978,"y":2549076.9500000011}},{"attributes":{"ID":627557,"DIS_CODE":0,"TOWNNAME":"安南區","LI":"頂安里","LIN":"4鄰","STREET":"長溪路","SECT":"一段","MAREA":" ","LANE":" ","ALLEY":" ","HOUSE_NO":"４８２號","E_COORD97":168477.23000000001,"N_COORD97":2549082.4100000001,"ADDRESS":"長溪路一段４８２號","OBJECTID":627530},"geometry":{"x":168477.23000000138,"y":2549082.4100000001}},{"attributes":{"ID":627558,"DIS_CODE":0,"TOWNNAME":"安南區","LI":"頂安里","LIN":"4鄰","STREET":"長溪路","SECT":"一段","MAREA":" ","LANE":" ","ALLEY":" ","HOUSE_NO":"４８４號","E_COORD97":168475.29999999999,"N_COORD97":2549086.25,"ADDRESS":"長溪路一段４８４號","OBJECTID":627531},"geometry":{"x":168475.29999999981,"y":2549086.25}},{"attributes":{"ID":627559,"DIS_CODE":0,"TOWNNAME":"安南區","LI":"頂安里","LIN":"4鄰","STREET":"長溪路","SECT":"一段","MAREA":" ","LANE":" ","ALLEY":" ","HOUSE_NO":"４８６號","E_COORD97":168475.94,"N_COORD97":2549095.8799999999,"ADDRESS":"長溪路一段４８６號","OBJECTID":627532},"geometry":{"x":168475.94000000134,"y":2549095.8800000027}},{"attributes":{"ID":627560,"DIS_CODE":0,"TOWNNAME":"安南區","LI":"頂安里","LIN":"4鄰","STREET":"長溪路","SECT":"一段","MAREA":" ","LANE":" ","ALLEY":" ","HOUSE_NO":"４８８號","E_COORD97":168480.44,"N_COORD97":2549100.0499999998,"ADDRESS":"長溪路一段４８８號","OBJECTID":627533},"geometry":{"x":168480.44000000134,"y":2549100.0500000045}},{"attributes":{"ID":627561,"DIS_CODE":0,"TOWNNAME":"佳里區","LI":"安西里","LIN":"4鄰","STREET":"文化路","SECT":" ","MAREA":" ","LANE":" ","ALLEY":" ","HOUSE_NO":"２９８號","E_COORD97":165520.39000000001,"N_COORD97":2562601.7000000002,"ADDRESS":"文化路２９８號","OBJECTID":627534},"geometry":{"x":165520.3900000006,"y":2562601.7000000011}},{"attributes":{"ID":627562,"DIS_CODE":0,"TOWNNAME":"中西區","LI":"民生里","LIN":"4鄰","STREET":"武英街","SECT":" ","MAREA":" ","LANE":" ","ALLEY":" ","HOUSE_NO":"３９號","E_COORD97":167106.5,"N_COORD97":2543313.29,"ADDRESS":"武英街３９號","OBJECTID":627535},"geometry":{"x":167106.50000000093,"y":2543313.290000001}},{"attributes":{"ID":627563,"DIS_CODE":0,"TOWNNAME":"中西區","LI":"民生里","LIN":"4鄰","STREET":"武英街","SECT":" ","MAREA":" ","LANE":" ","ALLEY":" ","HOUSE_NO":"４１號","E_COORD97":167103.31,"N_COORD97":2543313.5600000001,"ADDRESS":"武英街４１號","OBJECTID":627536},"geometry":{"x":167103.30999999959,"y":2543313.5600000024}},{"attributes":{"ID":627564,"DIS_CODE":0,"TOWNNAME":"中西區","LI":"民生里","LIN":"4鄰","STREET":"武英街","SECT":" ","MAREA":" ","LANE":" ","ALLEY":" ","HOUSE_NO":"４３號","E_COORD97":167099.04999999999,"N_COORD97":2543314.8900000001,"ADDRESS":"武英街４３號","OBJECTID":627537},"geometry":{"x":167099.05000000168,"y":2543314.8900000025}},{"attributes":{"ID":627565,"DIS_CODE":0,"TOWNNAME":"中西區","LI":"民生里","LIN":"4鄰","STREET":"武英街","SECT":" ","MAREA":" ","LANE":" ","ALLEY":" ","HOUSE_NO":"４５號","E_COORD97":167096.13,"N_COORD97":2543315.4199999999,"ADDRESS":"武英街４５號","OBJECTID":627538},"geometry":{"x":167096.12999999989,"y":2543315.4199999999}},{"attributes":{"ID":627566,"DIS_CODE":0,"TOWNNAME":"中西區","LI":"民生里","LIN":"4鄰","STREET":"南華街","SECT":" ","MAREA":" ","LANE":" ","ALLEY":" ","HOUSE_NO":"２２號","E_COORD97":167088.42000000001,"N_COORD97":2543306.3900000001,"ADDRESS":"南華街２２號","OBJECTID":627539},"geometry":{"x":167088.42000000086,"y":2543306.3900000006}},{"attributes":{"ID":627567,"DIS_CODE":0,"TOWNNAME":"中西區","LI":"民生里","LIN":"4鄰","STREET":"永華路","SECT":"一段","MAREA":" ","LANE":" ","ALLEY":" ","HOUSE_NO":"２０４號","E_COORD97":167103.57000000001,"N_COORD97":2543226.2400000002,"ADDRESS":"永華路一段２０４號","OBJECTID":627540},"geometry":{"x":167103.57000000123,"y":2543226.2400000039}},{"attributes":{"ID":627568,"DIS_CODE":0,"TOWNNAME":"中西區","LI":"民生里","LIN":"4鄰","STREET":"南華街","SECT":" ","MAREA":" ","LANE":" ","ALLEY":" ","HOUSE_NO":"２號","E_COORD97":167075.60999999999,"N_COORD97":2543249.9300000002,"ADDRESS":"南華街２號","OBJECTID":627541},"geometry":{"x":167075.61000000127,"y":2543249.9299999997}},{"attributes":{"ID":627569,"DIS_CODE":0,"TOWNNAME":"中西區","LI":"民生里","LIN":"4鄰","STREET":"南華街","SECT":" ","MAREA":" ","LANE":" ","ALLEY":" ","HOUSE_NO":"４號","E_COORD97":167076.64000000001,"N_COORD97":2543253.6299999999,"ADDRESS":"南華街４號","OBJECTID":627542},"geometry":{"x":167076.6400000006,"y":2543253.6300000008}},{"attributes":{"ID":627570,"DIS_CODE":0,"TOWNNAME":"中西區","LI":"民生里","LIN":"4鄰","STREET":"南華街","SECT":" ","MAREA":" ","LANE":" ","ALLEY":" ","HOUSE_NO":"６號","E_COORD97":167076.44,"N_COORD97":2543258.1600000001,"ADDRESS":"南華街６號","OBJECTID":627543},"geometry":{"x":167076.44000000041,"y":2543258.160000002}},{"attributes":{"ID":627571,"DIS_CODE":0,"TOWNNAME":"中西區","LI":"民生里","LIN":"4鄰","STREET":"南華街","SECT":" ","MAREA":" ","LANE":" ","ALLEY":" ","HOUSE_NO":"８號","E_COORD97":167078.07999999999,"N_COORD97":2543262.6800000002,"ADDRESS":"南華街８號","OBJECTID":627544},"geometry":{"x":167078.08000000007,"y":2543262.6799999997}},{"attributes":{"ID":627572,"DIS_CODE":0,"TOWNNAME":"東區","LI":"裕聖里","LIN":"4鄰","STREET":"裕信五街","SECT":" ","MAREA":" ","LANE":" ","ALLEY":" ","HOUSE_NO":"１０號","E_COORD97":172628.29000000001,"N_COORD97":2542360.2599999998,"ADDRESS":"裕信五街１０號","OBJECTID":627545},"geometry":{"x":172628.29000000004,"y":2542360.2599999998}},{"attributes":{"ID":627573,"DIS_CODE":0,"TOWNNAME":"東區","LI":"裕聖里","LIN":"4鄰","STREET":"裕信五街","SECT":" ","MAREA":" ","LANE":" ","ALLEY":" ","HOUSE_NO":"１２號","E_COORD97":172633.03,"N_COORD97":2542362.1600000001,"ADDRESS":"裕信五街１２號","OBJECTID":627546},"geometry":{"x":172633.03000000119,"y":2542362.1600000039}},{"attributes":{"ID":627574,"DIS_CODE":0,"TOWNNAME":"東區","LI":"裕聖里","LIN":"4鄰","STREET":"裕信五街","SECT":" ","MAREA":" ","LANE":" ","ALLEY":" ","HOUSE_NO":"１６號","E_COORD97":172636.82999999999,"N_COORD97":2542359.8799999999,"ADDRESS":"裕信五街１６號","OBJECTID":627547},"geometry":{"x":172636.83000000007,"y":2542359.8800000008}},{"attributes":{"ID":627575,"DIS_CODE":0,"TOWNNAME":"東區","LI":"裕聖里","LIN":"4鄰","STREET":"裕信五街","SECT":" ","MAREA":" ","LANE":" ","ALLEY":" ","HOUSE_NO":"１８號","E_COORD97":172643.09,"N_COORD97":2542362.73,"ADDRESS":"裕信五街１８號","OBJECTID":627548},"geometry":{"x":172643.08999999985,"y":2542362.7300000023}},{"attributes":{"ID":627576,"DIS_CODE":0,"TOWNNAME":"東區","LI":"裕聖里","LIN":"4鄰","STREET":"裕信五街","SECT":" ","MAREA":" ","LANE":" ","ALLEY":" ","HOUSE_NO":"２０號","E_COORD97":172646.88,"N_COORD97":2542358.9300000002,"ADDRESS":"裕信五街２０號","OBJECTID":627549},"geometry":{"x":172646.88000000175,"y":2542358.9299999997}},{"attributes":{"ID":627577,"DIS_CODE":0,"TOWNNAME":"東區","LI":"裕聖里","LIN":"4鄰","STREET":"裕信五街","SECT":" ","MAREA":" ","LANE":" ","ALLEY":" ","HOUSE_NO":"２２號","E_COORD97":172651.04999999999,"N_COORD97":2542361.7799999998,"ADDRESS":"裕信五街２２號","OBJECTID":627550},"geometry":{"x":172651.05000000075,"y":2542361.7800000012}},{"attributes":{"ID":627578,"DIS_CODE":0,"TOWNNAME":"永康區","LI":"勝利里","LIN":"20鄰","STREET":"勝學路","SECT":" ","MAREA":" ","LANE":" ","ALLEY":" ","HOUSE_NO":"２３３號","E_COORD97":171179.98000000001,"N_COORD97":2545257.5,"ADDRESS":"勝學路２３３號","OBJECTID":627551},"geometry":{"x":171179.98000000045,"y":2545257.5}},{"attributes":{"ID":627579,"DIS_CODE":0,"TOWNNAME":"東區","LI":"裕聖里","LIN":"4鄰","STREET":"裕信五街","SECT":" ","MAREA":" ","LANE":" ","ALLEY":" ","HOUSE_NO":"２６號","E_COORD97":172655.79000000001,"N_COORD97":2542359.8799999999,"ADDRESS":"裕信五街２６號","OBJECTID":627552},"geometry":{"x":172655.79000000004,"y":2542359.8800000008}},{"attributes":{"ID":627580,"DIS_CODE":0,"TOWNNAME":"東區","LI":"裕聖里","LIN":"4鄰","STREET":"裕信五街","SECT":" ","MAREA":" ","LANE":" ","ALLEY":" ","HOUSE_NO":"２８號","E_COORD97":172660.92000000001,"N_COORD97":2542362.73,"ADDRESS":"裕信五街２８號","OBJECTID":627553},"geometry":{"x":172660.92000000086,"y":2542362.7300000023}},{"attributes":{"ID":627581,"DIS_CODE":0,"TOWNNAME":"東區","LI":"裕聖里","LIN":"4鄰","STREET":"裕信五街","SECT":" ","MAREA":" ","LANE":" ","ALLEY":" ","HOUSE_NO":"２號","E_COORD97":172614.07000000001,"N_COORD97":2542361.7799999998,"ADDRESS":"裕信五街２號","OBJECTID":627554},"geometry":{"x":172614.07000000123,"y":2542361.7800000012}},{"attributes":{"ID":627582,"DIS_CODE":0,"TOWNNAME":"東區","LI":"裕聖里","LIN":"4鄰","STREET":"裕信五街","SECT":" ","MAREA":" ","LANE":" ","ALLEY":" ","HOUSE_NO":"３０號","E_COORD97":172665.28,"N_COORD97":2542359.8799999999,"ADDRESS":"裕信五街３０號","OBJECTID":627555},"geometry":{"x":172665.28000000119,"y":2542359.8800000008}},{"attributes":{"ID":627583,"DIS_CODE":0,"TOWNNAME":"東區","LI":"裕聖里","LIN":"4鄰","STREET":"裕信五街","SECT":" ","MAREA":" ","LANE":" ","ALLEY":" ","HOUSE_NO":"６６號","E_COORD97":172697.14000000001,"N_COORD97":2542362.7200000002,"ADDRESS":"裕信五街６６號","OBJECTID":627556},"geometry":{"x":172697.13999999966,"y":2542362.7200000025}},{"attributes":{"ID":627584,"DIS_CODE":0,"TOWNNAME":"東區","LI":"裕聖里","LIN":"4鄰","STREET":"裕信五街","SECT":" ","MAREA":" ","LANE":" ","ALLEY":" ","HOUSE_NO":"６８號","E_COORD97":172703.20999999999,"N_COORD97":2542361.21,"ADDRESS":"裕信五街６８號","OBJECTID":627557},"geometry":{"x":172703.21000000089,"y":2542361.2100000009}},{"attributes":{"ID":627585,"DIS_CODE":0,"TOWNNAME":"東區","LI":"裕聖里","LIN":"4鄰","STREET":"裕信五街","SECT":" ","MAREA":" ","LANE":" ","ALLEY":" ","HOUSE_NO":"６號","E_COORD97":172618.81,"N_COORD97":2542359.8799999999,"ADDRESS":"裕信五街６號","OBJECTID":627558},"geometry":{"x":172618.81000000052,"y":2542359.8800000008}},{"attributes":{"ID":627586,"DIS_CODE":0,"TOWNNAME":"東區","LI":"裕聖里","LIN":"4鄰","STREET":"裕信五街","SECT":" ","MAREA":" ","LANE":" ","ALLEY":" ","HOUSE_NO":"７０號","E_COORD97":172708.32999999999,"N_COORD97":2542362.7200000002,"ADDRESS":"裕信五街７０號","OBJECTID":627559},"geometry":{"x":172708.33000000007,"y":2542362.7200000025}},{"attributes":{"ID":627587,"DIS_CODE":0,"TOWNNAME":"東區","LI":"裕聖里","LIN":"4鄰","STREET":"裕信五街","SECT":" ","MAREA":" ","LANE":" ","ALLEY":" ","HOUSE_NO":"７２號","E_COORD97":172712.12,"N_COORD97":2542360.8300000001,"ADDRESS":"裕信五街７２號","OBJECTID":627560},"geometry":{"x":172712.12000000104,"y":2542360.8300000038}},{"attributes":{"ID":627588,"DIS_CODE":0,"TOWNNAME":"東區","LI":"裕聖里","LIN":"4鄰","STREET":"裕信五街","SECT":" ","MAREA":" ","LANE":" ","ALLEY":" ","HOUSE_NO":"７４號","E_COORD97":172718,"N_COORD97":2542363.6699999999,"ADDRESS":"裕信五街７４號","OBJECTID":627561},"geometry":{"x":172718.00000000093,"y":2542363.6699999999}},{"attributes":{"ID":627589,"DIS_CODE":0,"TOWNNAME":"東區","LI":"裕聖里","LIN":"4鄰","STREET":"裕信五街","SECT":" ","MAREA":" ","LANE":" ","ALLEY":" ","HOUSE_NO":"７６號","E_COORD97":172723.13,"N_COORD97":2542360.8300000001,"ADDRESS":"裕信五街７６號","OBJECTID":627562},"geometry":{"x":172723.12999999896,"y":2542360.8300000038}},{"attributes":{"ID":627590,"DIS_CODE":0,"TOWNNAME":"東區","LI":"裕聖里","LIN":"4鄰","STREET":"裕信五街","SECT":" ","MAREA":" ","LANE":" ","ALLEY":" ","HOUSE_NO":"７８號","E_COORD97":172726.92000000001,"N_COORD97":2542363.29,"ADDRESS":"裕信五街７８號","OBJECTID":627563},"geometry":{"x":172726.92000000086,"y":2542363.2899999972}},{"attributes":{"ID":627591,"DIS_CODE":0,"TOWNNAME":"東區","LI":"裕聖里","LIN":"4鄰","STREET":"裕信五街","SECT":" ","MAREA":" ","LANE":" ","ALLEY":" ","HOUSE_NO":"８０號","E_COORD97":172732.04000000001,"N_COORD97":2542360.4500000002,"ADDRESS":"裕信五街８０號","OBJECTID":627564},"geometry":{"x":172732.04000000004,"y":2542360.4500000011}},{"attributes":{"ID":627592,"DIS_CODE":0,"TOWNNAME":"東區","LI":"裕聖里","LIN":"4鄰","STREET":"裕信五街","SECT":" ","MAREA":" ","LANE":" ","ALLEY":" ","HOUSE_NO":"８２號","E_COORD97":172736.39999999999,"N_COORD97":2542364.0499999998,"ADDRESS":"裕信五街８２號","OBJECTID":627565},"geometry":{"x":172736.40000000037,"y":2542364.0500000026}},{"attributes":{"ID":627593,"DIS_CODE":0,"TOWNNAME":"東區","LI":"裕聖里","LIN":"4鄰","STREET":"裕信五街","SECT":" ","MAREA":" ","LANE":" ","ALLEY":" ","HOUSE_NO":"８４號","E_COORD97":172742.09,"N_COORD97":2542359.8799999999,"ADDRESS":"裕信五街８４號","OBJECTID":627566},"geometry":{"x":172742.09000000171,"y":2542359.8800000008}},{"attributes":{"ID":627594,"DIS_CODE":0,"TOWNNAME":"東區","LI":"裕聖里","LIN":"4鄰","STREET":"裕信五街","SECT":" ","MAREA":" ","LANE":" ","ALLEY":" ","HOUSE_NO":"８６號","E_COORD97":172746.45000000001,"N_COORD97":2542362.7200000002,"ADDRESS":"裕信五街８６號","OBJECTID":627567},"geometry":{"x":172746.45000000019,"y":2542362.7200000025}},{"attributes":{"ID":627595,"DIS_CODE":0,"TOWNNAME":"東區","LI":"裕聖里","LIN":"4鄰","STREET":"裕信五街","SECT":" ","MAREA":" ","LANE":" ","ALLEY":" ","HOUSE_NO":"８８號","E_COORD97":172751.57999999999,"N_COORD97":2542359.8799999999,"ADDRESS":"裕信五街８８號","OBJECTID":627568},"geometry":{"x":172751.58000000101,"y":2542359.8800000008}},{"attributes":{"ID":627596,"DIS_CODE":0,"TOWNNAME":"東區","LI":"裕聖里","LIN":"4鄰","STREET":"裕信五街","SECT":" ","MAREA":" ","LANE":" ","ALLEY":" ","HOUSE_NO":"８號","E_COORD97":172623.54999999999,"N_COORD97":2542362.73,"ADDRESS":"裕信五街８號","OBJECTID":627569},"geometry":{"x":172623.54999999888,"y":2542362.7300000023}},{"attributes":{"ID":627597,"DIS_CODE":0,"TOWNNAME":"東區","LI":"裕聖里","LIN":"4鄰","STREET":"裕信五街","SECT":" ","MAREA":" ","LANE":" ","ALLEY":" ","HOUSE_NO":"９０號","E_COORD97":172756.32000000001,"N_COORD97":2542362.7200000002,"ADDRESS":"裕信五街９０號","OBJECTID":627570},"geometry":{"x":172756.32000000216,"y":2542362.7200000025}},{"attributes":{"ID":627598,"DIS_CODE":0,"TOWNNAME":"麻豆區","LI":"東角里","LIN":"4鄰","STREET":"興中路","SECT":" ","MAREA":" ","LANE":" ","ALLEY":" ","HOUSE_NO":"１９９號之１","E_COORD97":173678.07000000001,"N_COORD97":2564851.1499999999,"ADDRESS":"興中路１９９號之１","OBJECTID":627571},"geometry":{"x":173678.0700000003,"y":2564851.1500000022}},{"attributes":{"ID":627599,"DIS_CODE":0,"TOWNNAME":"麻豆區","LI":"東角里","LIN":"4鄰","STREET":"興中路","SECT":" ","MAREA":" ","LANE":" ","ALLEY":" ","HOUSE_NO":"１９９號之２","E_COORD97":173677.97,"N_COORD97":2564855.6499999999,"ADDRESS":"興中路１９９號之２","OBJECTID":627572},"geometry":{"x":173677.96999999974,"y":2564855.6500000022}},{"attributes":{"ID":627600,"DIS_CODE":0,"TOWNNAME":"麻豆區","LI":"東角里","LIN":"4鄰","STREET":"興中路","SECT":" ","MAREA":" ","LANE":" ","ALLEY":" ","HOUSE_NO":"１９９號之３","E_COORD97":173677.85999999999,"N_COORD97":2564860,"ADDRESS":"興中路１９９號之３","OBJECTID":627573},"geometry":{"x":173677.86000000034,"y":2564860}},{"attributes":{"ID":627601,"DIS_CODE":0,"TOWNNAME":"麻豆區","LI":"東角里","LIN":"4鄰","STREET":"興中路","SECT":" ","MAREA":" ","LANE":" ","ALLEY":" ","HOUSE_NO":"１９９號之４","E_COORD97":173677.42999999999,"N_COORD97":2564864.1099999999,"ADDRESS":"興中路１９９號之４","OBJECTID":627574},"geometry":{"x":173677.43000000063,"y":2564864.1100000013}},{"attributes":{"ID":627602,"DIS_CODE":0,"TOWNNAME":"麻豆區","LI":"東角里","LIN":"4鄰","STREET":"興中路","SECT":" ","MAREA":" ","LANE":" ","ALLEY":" ","HOUSE_NO":"１９９號之５","E_COORD97":173677.39999999999,"N_COORD97":2564868.6400000001,"ADDRESS":"興中路１９９號之５","OBJECTID":627575},"geometry":{"x":173677.40000000037,"y":2564868.6400000025}},{"attributes":{"ID":627603,"DIS_CODE":0,"TOWNNAME":"麻豆區","LI":"東角里","LIN":"4鄰","STREET":"興中路","SECT":" ","MAREA":" ","LANE":" ","ALLEY":" ","HOUSE_NO":"１９９號之６","E_COORD97":173676.95000000001,"N_COORD97":2564872.8599999999,"ADDRESS":"興中路１９９號之６","OBJECTID":627576},"geometry":{"x":173676.95000000019,"y":2564872.8600000013}},{"attributes":{"ID":627604,"DIS_CODE":0,"TOWNNAME":"麻豆區","LI":"東角里","LIN":"4鄰","STREET":"興中路","SECT":" ","MAREA":" ","LANE":" ","ALLEY":" ","HOUSE_NO":"１９９號之７","E_COORD97":173676.66,"N_COORD97":2564877.0499999998,"ADDRESS":"興中路１９９號之７","OBJECTID":627577},"geometry":{"x":173676.66000000108,"y":2564877.0500000026}},{"attributes":{"ID":627605,"DIS_CODE":0,"TOWNNAME":"麻豆區","LI":"東角里","LIN":"4鄰","STREET":"興中路","SECT":" ","MAREA":" ","LANE":" ","ALLEY":" ","HOUSE_NO":"１９９號之８","E_COORD97":173676.31,"N_COORD97":2564881.6299999999,"ADDRESS":"興中路１９９號之８","OBJECTID":627578},"geometry":{"x":173676.31000000052,"y":2564881.629999999}},{"attributes":{"ID":627606,"DIS_CODE":0,"TOWNNAME":"麻豆區","LI":"東角里","LIN":"4鄰","STREET":"興中路","SECT":" ","MAREA":" ","LANE":" ","ALLEY":" ","HOUSE_NO":"１９９號之９","E_COORD97":173676.09,"N_COORD97":2564885.5600000001,"ADDRESS":"興中路１９９號之９","OBJECTID":627579},"geometry":{"x":173676.09000000171,"y":2564885.5600000042}},{"attributes":{"ID":627607,"DIS_CODE":0,"TOWNNAME":"麻豆區","LI":"東角里","LIN":"4鄰","STREET":"興中路","SECT":" ","MAREA":" ","LANE":" ","ALLEY":" ","HOUSE_NO":"１９９號","E_COORD97":173678.32000000001,"N_COORD97":2564846.7999999998,"ADDRESS":"興中路１９９號","OBJECTID":627580},"geometry":{"x":173678.31999999937,"y":2564846.8000000045}},{"attributes":{"ID":627608,"DIS_CODE":0,"TOWNNAME":"麻豆區","LI":"東角里","LIN":"4鄰","STREET":"興中路","SECT":" ","MAREA":" ","LANE":" ","ALLEY":" ","HOUSE_NO":"２０１號之１０","E_COORD97":173696.25,"N_COORD97":2564909.2200000002,"ADDRESS":"興中路２０１號之１０","OBJECTID":627581},"geometry":{"x":173696.25000000093,"y":2564909.2200000025}},{"attributes":{"ID":627609,"DIS_CODE":0,"TOWNNAME":"麻豆區","LI":"東角里","LIN":"4鄰","STREET":"興中路","SECT":" ","MAREA":" ","LANE":" ","ALLEY":" ","HOUSE_NO":"２０１號之１１","E_COORD97":173696.01999999999,"N_COORD97":2564913.6600000001,"ADDRESS":"興中路２０１號之１１","OBJECTID":627582},"geometry":{"x":173696.01999999955,"y":2564913.6600000001}},{"attributes":{"ID":627610,"DIS_CODE":0,"TOWNNAME":"麻豆區","LI":"東角里","LIN":"4鄰","STREET":"興中路","SECT":" ","MAREA":" ","LANE":" ","ALLEY":" ","HOUSE_NO":"２０１號之１","E_COORD97":173698.38,"N_COORD97":2564869.9500000002,"ADDRESS":"興中路２０１號之１","OBJECTID":627583},"geometry":{"x":173698.38000000082,"y":2564869.9499999993}},{"attributes":{"ID":627611,"DIS_CODE":0,"TOWNNAME":"麻豆區","LI":"東角里","LIN":"4鄰","STREET":"興中路","SECT":" ","MAREA":" ","LANE":" ","ALLEY":" ","HOUSE_NO":"２０１號之２","E_COORD97":173698.26999999999,"N_COORD97":2564874.3100000001,"ADDRESS":"興中路２０１號之２","OBJECTID":627584},"geometry":{"x":173698.27000000142,"y":2564874.3100000024}},{"attributes":{"ID":627612,"DIS_CODE":0,"TOWNNAME":"麻豆區","LI":"東角里","LIN":"4鄰","STREET":"興中路","SECT":" ","MAREA":" ","LANE":" ","ALLEY":" ","HOUSE_NO":"２０１號之３","E_COORD97":173697.92000000001,"N_COORD97":2564878.7000000002,"ADDRESS":"興中路２０１號之３","OBJECTID":627585},"geometry":{"x":173697.92000000086,"y":2564878.6999999993}},{"attributes":{"ID":627613,"DIS_CODE":0,"TOWNNAME":"麻豆區","LI":"東角里","LIN":"4鄰","STREET":"興中路","SECT":" ","MAREA":" ","LANE":" ","ALLEY":" ","HOUSE_NO":"２０１號之４","E_COORD97":173697.60999999999,"N_COORD97":2564883.2599999998,"ADDRESS":"興中路２０１號之４","OBJECTID":627586},"geometry":{"x":173697.61000000127,"y":2564883.2600000035}},{"attributes":{"ID":627614,"DIS_CODE":0,"TOWNNAME":"永康區","LI":"勝利里","LIN":"18鄰","STREET":"勝學路","SECT":" ","MAREA":" ","LANE":" ","ALLEY":" ","HOUSE_NO":"１４２號","E_COORD97":171187.66,"N_COORD97":2545017.75,"ADDRESS":"勝學路１４２號","OBJECTID":627587},"geometry":{"x":171187.66000000108,"y":2545017.75}},{"attributes":{"ID":627615,"DIS_CODE":0,"TOWNNAME":"麻豆區","LI":"東角里","LIN":"4鄰","STREET":"興中路","SECT":" ","MAREA":" ","LANE":" ","ALLEY":" ","HOUSE_NO":"２０１號之５","E_COORD97":173697.64999999999,"N_COORD97":2564887.23,"ADDRESS":"興中路２０１號之５","OBJECTID":627588},"geometry":{"x":173697.65000000037,"y":2564887.2300000004}},{"attributes":{"ID":627616,"DIS_CODE":0,"TOWNNAME":"下營區","LI":"新興里","LIN":"4鄰","STREET":"中山路","SECT":"一段","MAREA":" ","LANE":" ","ALLEY":" ","HOUSE_NO":"２７３號","E_COORD97":174959.76000000001,"N_COORD97":2570731.6899999999,"ADDRESS":"中山路一段２７３號","OBJECTID":627589},"geometry":{"x":174959.75999999885,"y":2570731.6900000032}},{"attributes":{"ID":627617,"DIS_CODE":0,"TOWNNAME":"下營區","LI":"新興里","LIN":"4鄰","STREET":"中山路","SECT":"一段","MAREA":" ","LANE":" ","ALLEY":" ","HOUSE_NO":"２７５號","E_COORD97":174963.95000000001,"N_COORD97":2570734.1800000002,"ADDRESS":"中山路一段２７５號","OBJECTID":627590},"geometry":{"x":174963.94999999925,"y":2570734.1799999997}},{"attributes":{"ID":627618,"DIS_CODE":0,"TOWNNAME":"下營區","LI":"新興里","LIN":"4鄰","STREET":"中山路","SECT":"一段","MAREA":" ","LANE":" ","ALLEY":" ","HOUSE_NO":"２７７號","E_COORD97":174967.79999999999,"N_COORD97":2570736.5499999998,"ADDRESS":"中山路一段２７７號","OBJECTID":627591},"geometry":{"x":174967.79999999981,"y":2570736.5500000007}},{"attributes":{"ID":627619,"DIS_CODE":0,"TOWNNAME":"下營區","LI":"新興里","LIN":"4鄰","STREET":"中山路","SECT":"一段","MAREA":" ","LANE":" ","ALLEY":" ","HOUSE_NO":"２８１號","E_COORD97":174978.17999999999,"N_COORD97":2570743.5600000001,"ADDRESS":"中山路一段２８１號","OBJECTID":627592},"geometry":{"x":174978.1799999997,"y":2570743.5600000005}},{"attributes":{"ID":627620,"DIS_CODE":0,"TOWNNAME":"下營區","LI":"新興里","LIN":"4鄰","STREET":"中山路","SECT":"一段","MAREA":" ","LANE":" ","ALLEY":" ","HOUSE_NO":"２８５號","E_COORD97":174985.92999999999,"N_COORD97":2570746.8700000001,"ADDRESS":"中山路一段２８５號","OBJECTID":627593},"geometry":{"x":174985.93000000063,"y":2570746.8700000029}},{"attributes":{"ID":627621,"DIS_CODE":0,"TOWNNAME":"下營區","LI":"新興里","LIN":"4鄰","STREET":"中山路","SECT":"一段","MAREA":" ","LANE":" ","ALLEY":" ","HOUSE_NO":"２８７號","E_COORD97":174990.70999999999,"N_COORD97":2570748.4500000002,"ADDRESS":"中山路一段２８７號","OBJECTID":627594},"geometry":{"x":174990.70999999996,"y":2570748.4500000011}},{"attributes":{"ID":627622,"DIS_CODE":0,"TOWNNAME":"下營區","LI":"新興里","LIN":"4鄰","STREET":"中山路","SECT":"一段","MAREA":" ","LANE":" ","ALLEY":" ","HOUSE_NO":"２８９號","E_COORD97":174995.69,"N_COORD97":2570760.8500000001,"ADDRESS":"中山路一段２８９號","OBJECTID":627595},"geometry":{"x":174995.69000000134,"y":2570760.8499999996}},{"attributes":{"ID":627623,"DIS_CODE":0,"TOWNNAME":"永康區","LI":"勝利里","LIN":"40鄰","STREET":"中華一路","SECT":" ","MAREA":" ","LANE":" ","ALLEY":" ","HOUSE_NO":"１５４號","E_COORD97":171568.07000000001,"N_COORD97":2544973.75,"ADDRESS":"中華一路１５４號","OBJECTID":627596},"geometry":{"x":171568.07000000123,"y":2544973.75}},{"attributes":{"ID":627624,"DIS_CODE":0,"TOWNNAME":"北區","LI":"元寶里","LIN":"4鄰","STREET":"北園街","SECT":" ","MAREA":" ","LANE":" ","ALLEY":" ","HOUSE_NO":"４０號七樓之２","E_COORD97":170382.01000000001,"N_COORD97":2545764.04,"ADDRESS":"北園街４０號七樓之２","OBJECTID":627597},"geometry":{"x":170382.00999999978,"y":2545764.0399999991}},{"attributes":{"ID":627625,"DIS_CODE":0,"TOWNNAME":"北區","LI":"元寶里","LIN":"4鄰","STREET":"北園街","SECT":" ","MAREA":" ","LANE":" ","ALLEY":" ","HOUSE_NO":"４０號七樓之３","E_COORD97":170382.01000000001,"N_COORD97":2545764.04,"ADDRESS":"北園街４０號七樓之３","OBJECTID":627598},"geometry":{"x":170382.00999999978,"y":2545764.0399999991}},{"attributes":{"ID":627626,"DIS_CODE":0,"TOWNNAME":"北區","LI":"元寶里","LIN":"4鄰","STREET":"北園街","SECT":" ","MAREA":" ","LANE":" ","ALLEY":" ","HOUSE_NO":"４０號七樓之５","E_COORD97":170382.01000000001,"N_COORD97":2545764.04,"ADDRESS":"北園街４０號七樓之５","OBJECTID":627599},"geometry":{"x":170382.00999999978,"y":2545764.0399999991}},{"attributes":{"ID":627627,"DIS_CODE":0,"TOWNNAME":"北區","LI":"元寶里","LIN":"4鄰","STREET":"北園街","SECT":" ","MAREA":" ","LANE":" ","ALLEY":" ","HOUSE_NO":"４０號七樓之６","E_COORD97":170382.01000000001,"N_COORD97":2545764.04,"ADDRESS":"北園街４０號七樓之６","OBJECTID":627600},"geometry":{"x":170382.00999999978,"y":2545764.0399999991}}]}