{"displayFieldName":"TOWNNAME","fieldAliases":{"ID":"ID","DIS_CODE":"DIS_CODE","TOWNNAME":"TOWNNAME","LI":"LI","LIN":"LIN","STREET":"STREET","SECT":"SECT","MAREA":"MAREA","LANE":"LANE","ALLEY":"ALLEY","HOUSE_NO":"HOUSE_NO","E_COORD97":"E_COORD97","N_COORD97":"N_COORD97","ADDRESS":"ADDRESS","OBJECTID":"OBJECTID"},"geometryType":"esriGeometryPoint","spatialReference":{"wkid":102443,"latestWkid":3826},"fields":[{"name":"ID","type":"esriFieldTypeDouble","alias":"ID"},{"name":"DIS_CODE","type":"esriFieldTypeInteger","alias":"DIS_CODE"},{"name":"TOWNNAME","type":"esriFieldTypeString","alias":"TOWNNAME","length":8},{"name":"LI","type":"esriFieldTypeString","alias":"LI","length":8},{"name":"LIN","type":"esriFieldTypeString","alias":"LIN","length":12},{"name":"STREET","type":"esriFieldTypeString","alias":"STREET","length":20},{"name":"SECT","type":"esriFieldTypeString","alias":"SECT","length":8},{"name":"MAREA","type":"esriFieldTypeString","alias":"MAREA","length":12},{"name":"LANE","type":"esriFieldTypeString","alias":"LANE","length":10},{"name":"ALLEY","type":"esriFieldTypeString","alias":"ALLEY","length":10},{"name":"HOUSE_NO","type":"esriFieldTypeString","alias":"HOUSE_NO","length":20},{"name":"E_COORD97","type":"esriFieldTypeDouble","alias":"E_COORD97"},{"name":"N_COORD97","type":"esriFieldTypeDouble","alias":"N_COORD97"},{"name":"ADDRESS","type":"esriFieldTypeString","alias":"ADDRESS","length":50},{"name":"OBJECTID","type":"esriFieldTypeOID","alias":"OBJECTID"}],"features":[{"attributes":{"ID":383211,"DIS_CODE":0,"TOWNNAME":"北區","LI":"正覺里","LIN":"9鄰","STREET":"公園路","SECT":" ","MAREA":" ","LANE":"５９７巷","ALLEY":" ","HOUSE_NO":"１號二樓之５","E_COORD97":169216.87,"N_COORD97":2546054.79,"ADDRESS":"公園路５９７巷１號二樓之５","OBJECTID":383201},"geometry":{"x":169216.87000000104,"y":2546054.7899999991}},{"attributes":{"ID":383212,"DIS_CODE":0,"TOWNNAME":"北區","LI":"正覺里","LIN":"9鄰","STREET":"公園路","SECT":" ","MAREA":" ","LANE":"５９７巷","ALLEY":" ","HOUSE_NO":"１號二樓之６","E_COORD97":169216.87,"N_COORD97":2546054.79,"ADDRESS":"公園路５９７巷１號二樓之６","OBJECTID":383202},"geometry":{"x":169216.87000000104,"y":2546054.7899999991}},{"attributes":{"ID":383213,"DIS_CODE":0,"TOWNNAME":"北區","LI":"正覺里","LIN":"9鄰","STREET":"公園路","SECT":" ","MAREA":" ","LANE":"５９７巷","ALLEY":" ","HOUSE_NO":"１號二樓之７","E_COORD97":169216.87,"N_COORD97":2546054.79,"ADDRESS":"公園路５９７巷１號二樓之７","OBJECTID":383203},"geometry":{"x":169216.87000000104,"y":2546054.7899999991}},{"attributes":{"ID":383214,"DIS_CODE":0,"TOWNNAME":"北區","LI":"正覺里","LIN":"9鄰","STREET":"公園路","SECT":" ","MAREA":" ","LANE":"５９７巷","ALLEY":" ","HOUSE_NO":"１號二樓之８","E_COORD97":169216.87,"N_COORD97":2546054.79,"ADDRESS":"公園路５９７巷１號二樓之８","OBJECTID":383204},"geometry":{"x":169216.87000000104,"y":2546054.7899999991}},{"attributes":{"ID":383215,"DIS_CODE":0,"TOWNNAME":"北區","LI":"正覺里","LIN":"9鄰","STREET":"公園路","SECT":" ","MAREA":" ","LANE":"５９７巷","ALLEY":" ","HOUSE_NO":"１號二樓之９","E_COORD97":169216.87,"N_COORD97":2546054.79,"ADDRESS":"公園路５９７巷１號二樓之９","OBJECTID":383205},"geometry":{"x":169216.87000000104,"y":2546054.7899999991}},{"attributes":{"ID":383216,"DIS_CODE":0,"TOWNNAME":"北區","LI":"正覺里","LIN":"9鄰","STREET":"公園路","SECT":" ","MAREA":" ","LANE":"５９７巷","ALLEY":" ","HOUSE_NO":"１號三樓之１","E_COORD97":169216.87,"N_COORD97":2546054.79,"ADDRESS":"公園路５９７巷１號三樓之１","OBJECTID":383206},"geometry":{"x":169216.87000000104,"y":2546054.7899999991}},{"attributes":{"ID":383217,"DIS_CODE":0,"TOWNNAME":"北區","LI":"正覺里","LIN":"9鄰","STREET":"公園路","SECT":" ","MAREA":" ","LANE":"５９７巷","ALLEY":" ","HOUSE_NO":"１號三樓之１０","E_COORD97":169216.87,"N_COORD97":2546054.79,"ADDRESS":"公園路５９７巷１號三樓之１０","OBJECTID":383207},"geometry":{"x":169216.87000000104,"y":2546054.7899999991}},{"attributes":{"ID":383218,"DIS_CODE":0,"TOWNNAME":"北區","LI":"正覺里","LIN":"9鄰","STREET":"公園路","SECT":" ","MAREA":" ","LANE":"５９７巷","ALLEY":" ","HOUSE_NO":"１號三樓之１１","E_COORD97":169216.87,"N_COORD97":2546054.79,"ADDRESS":"公園路５９７巷１號三樓之１１","OBJECTID":383208},"geometry":{"x":169216.87000000104,"y":2546054.7899999991}},{"attributes":{"ID":383219,"DIS_CODE":0,"TOWNNAME":"北區","LI":"正覺里","LIN":"9鄰","STREET":"公園路","SECT":" ","MAREA":" ","LANE":"５９７巷","ALLEY":" ","HOUSE_NO":"１號三樓之１２","E_COORD97":169216.87,"N_COORD97":2546054.79,"ADDRESS":"公園路５９７巷１號三樓之１２","OBJECTID":383209},"geometry":{"x":169216.87000000104,"y":2546054.7899999991}},{"attributes":{"ID":383220,"DIS_CODE":0,"TOWNNAME":"北區","LI":"正覺里","LIN":"9鄰","STREET":"公園路","SECT":" ","MAREA":" ","LANE":"５９７巷","ALLEY":" ","HOUSE_NO":"１號三樓之２","E_COORD97":169216.87,"N_COORD97":2546054.79,"ADDRESS":"公園路５９７巷１號三樓之２","OBJECTID":383210},"geometry":{"x":169216.87000000104,"y":2546054.7899999991}},{"attributes":{"ID":383221,"DIS_CODE":0,"TOWNNAME":"北區","LI":"正覺里","LIN":"9鄰","STREET":"公園路","SECT":" ","MAREA":" ","LANE":"５９７巷","ALLEY":" ","HOUSE_NO":"１號三樓之３","E_COORD97":169216.87,"N_COORD97":2546054.79,"ADDRESS":"公園路５９７巷１號三樓之３","OBJECTID":383211},"geometry":{"x":169216.87000000104,"y":2546054.7899999991}},{"attributes":{"ID":383222,"DIS_CODE":0,"TOWNNAME":"北區","LI":"正覺里","LIN":"9鄰","STREET":"公園路","SECT":" ","MAREA":" ","LANE":"５９７巷","ALLEY":" ","HOUSE_NO":"１號三樓之４","E_COORD97":169216.87,"N_COORD97":2546054.79,"ADDRESS":"公園路５９７巷１號三樓之４","OBJECTID":383212},"geometry":{"x":169216.87000000104,"y":2546054.7899999991}},{"attributes":{"ID":383223,"DIS_CODE":0,"TOWNNAME":"北區","LI":"正覺里","LIN":"9鄰","STREET":"公園路","SECT":" ","MAREA":" ","LANE":"５９７巷","ALLEY":" ","HOUSE_NO":"１號三樓之５","E_COORD97":169216.87,"N_COORD97":2546054.79,"ADDRESS":"公園路５９７巷１號三樓之５","OBJECTID":383213},"geometry":{"x":169216.87000000104,"y":2546054.7899999991}},{"attributes":{"ID":383224,"DIS_CODE":0,"TOWNNAME":"北區","LI":"正覺里","LIN":"9鄰","STREET":"公園路","SECT":" ","MAREA":" ","LANE":"５９７巷","ALLEY":" ","HOUSE_NO":"１號三樓之６","E_COORD97":169216.87,"N_COORD97":2546054.79,"ADDRESS":"公園路５９７巷１號三樓之６","OBJECTID":383214},"geometry":{"x":169216.87000000104,"y":2546054.7899999991}},{"attributes":{"ID":383225,"DIS_CODE":0,"TOWNNAME":"北區","LI":"正覺里","LIN":"9鄰","STREET":"公園路","SECT":" ","MAREA":" ","LANE":"５９７巷","ALLEY":" ","HOUSE_NO":"１號三樓之７","E_COORD97":169216.87,"N_COORD97":2546054.79,"ADDRESS":"公園路５９７巷１號三樓之７","OBJECTID":383215},"geometry":{"x":169216.87000000104,"y":2546054.7899999991}},{"attributes":{"ID":383226,"DIS_CODE":0,"TOWNNAME":"北區","LI":"正覺里","LIN":"9鄰","STREET":"公園路","SECT":" ","MAREA":" ","LANE":"５９７巷","ALLEY":" ","HOUSE_NO":"１號三樓之８","E_COORD97":169216.87,"N_COORD97":2546054.79,"ADDRESS":"公園路５９７巷１號三樓之８","OBJECTID":383216},"geometry":{"x":169216.87000000104,"y":2546054.7899999991}},{"attributes":{"ID":383227,"DIS_CODE":0,"TOWNNAME":"北區","LI":"正覺里","LIN":"9鄰","STREET":"公園路","SECT":" ","MAREA":" ","LANE":"５９７巷","ALLEY":" ","HOUSE_NO":"１號三樓之９","E_COORD97":169216.87,"N_COORD97":2546054.79,"ADDRESS":"公園路５９７巷１號三樓之９","OBJECTID":383217},"geometry":{"x":169216.87000000104,"y":2546054.7899999991}},{"attributes":{"ID":383228,"DIS_CODE":0,"TOWNNAME":"北區","LI":"正覺里","LIN":"9鄰","STREET":"公園路","SECT":" ","MAREA":" ","LANE":"５９７巷","ALLEY":" ","HOUSE_NO":"１號五樓之１","E_COORD97":169216.87,"N_COORD97":2546054.79,"ADDRESS":"公園路５９７巷１號五樓之１","OBJECTID":383218},"geometry":{"x":169216.87000000104,"y":2546054.7899999991}},{"attributes":{"ID":383229,"DIS_CODE":0,"TOWNNAME":"北區","LI":"正覺里","LIN":"9鄰","STREET":"公園路","SECT":" ","MAREA":" ","LANE":"５９７巷","ALLEY":" ","HOUSE_NO":"１號五樓之１０","E_COORD97":169216.87,"N_COORD97":2546054.79,"ADDRESS":"公園路５９７巷１號五樓之１０","OBJECTID":383219},"geometry":{"x":169216.87000000104,"y":2546054.7899999991}},{"attributes":{"ID":383230,"DIS_CODE":0,"TOWNNAME":"北區","LI":"正覺里","LIN":"9鄰","STREET":"公園路","SECT":" ","MAREA":" ","LANE":"５９７巷","ALLEY":" ","HOUSE_NO":"１號五樓之１１","E_COORD97":169216.87,"N_COORD97":2546054.79,"ADDRESS":"公園路５９７巷１號五樓之１１","OBJECTID":383220},"geometry":{"x":169216.87000000104,"y":2546054.7899999991}},{"attributes":{"ID":383231,"DIS_CODE":0,"TOWNNAME":"北區","LI":"正覺里","LIN":"9鄰","STREET":"公園路","SECT":" ","MAREA":" ","LANE":"５９７巷","ALLEY":" ","HOUSE_NO":"１號五樓之１２","E_COORD97":169216.87,"N_COORD97":2546054.79,"ADDRESS":"公園路５９７巷１號五樓之１２","OBJECTID":383221},"geometry":{"x":169216.87000000104,"y":2546054.7899999991}},{"attributes":{"ID":383232,"DIS_CODE":0,"TOWNNAME":"北區","LI":"正覺里","LIN":"9鄰","STREET":"公園路","SECT":" ","MAREA":" ","LANE":"５９７巷","ALLEY":" ","HOUSE_NO":"１號五樓之１３","E_COORD97":169216.87,"N_COORD97":2546054.79,"ADDRESS":"公園路５９７巷１號五樓之１３","OBJECTID":383222},"geometry":{"x":169216.87000000104,"y":2546054.7899999991}},{"attributes":{"ID":383233,"DIS_CODE":0,"TOWNNAME":"北區","LI":"正覺里","LIN":"9鄰","STREET":"公園路","SECT":" ","MAREA":" ","LANE":"５９７巷","ALLEY":" ","HOUSE_NO":"１號五樓之１４","E_COORD97":169216.87,"N_COORD97":2546054.79,"ADDRESS":"公園路５９７巷１號五樓之１４","OBJECTID":383223},"geometry":{"x":169216.87000000104,"y":2546054.7899999991}},{"attributes":{"ID":383234,"DIS_CODE":0,"TOWNNAME":"北區","LI":"正覺里","LIN":"9鄰","STREET":"公園路","SECT":" ","MAREA":" ","LANE":"５９７巷","ALLEY":" ","HOUSE_NO":"１號五樓之１５","E_COORD97":169216.87,"N_COORD97":2546054.79,"ADDRESS":"公園路５９７巷１號五樓之１５","OBJECTID":383224},"geometry":{"x":169216.87000000104,"y":2546054.7899999991}},{"attributes":{"ID":383235,"DIS_CODE":0,"TOWNNAME":"北區","LI":"正覺里","LIN":"9鄰","STREET":"公園路","SECT":" ","MAREA":" ","LANE":"５９７巷","ALLEY":" ","HOUSE_NO":"１號五樓之１６","E_COORD97":169216.87,"N_COORD97":2546054.79,"ADDRESS":"公園路５９７巷１號五樓之１６","OBJECTID":383225},"geometry":{"x":169216.87000000104,"y":2546054.7899999991}},{"attributes":{"ID":383236,"DIS_CODE":0,"TOWNNAME":"北區","LI":"正覺里","LIN":"9鄰","STREET":"公園路","SECT":" ","MAREA":" ","LANE":"５９７巷","ALLEY":" ","HOUSE_NO":"１號五樓之１７","E_COORD97":169216.87,"N_COORD97":2546054.79,"ADDRESS":"公園路５９７巷１號五樓之１７","OBJECTID":383226},"geometry":{"x":169216.87000000104,"y":2546054.7899999991}},{"attributes":{"ID":383237,"DIS_CODE":0,"TOWNNAME":"北區","LI":"正覺里","LIN":"9鄰","STREET":"公園路","SECT":" ","MAREA":" ","LANE":"５９７巷","ALLEY":" ","HOUSE_NO":"１號五樓之１８","E_COORD97":169216.87,"N_COORD97":2546054.79,"ADDRESS":"公園路５９７巷１號五樓之１８","OBJECTID":383227},"geometry":{"x":169216.87000000104,"y":2546054.7899999991}},{"attributes":{"ID":383238,"DIS_CODE":0,"TOWNNAME":"北區","LI":"正覺里","LIN":"9鄰","STREET":"公園路","SECT":" ","MAREA":" ","LANE":"５９７巷","ALLEY":" ","HOUSE_NO":"１號五樓之１９","E_COORD97":169216.87,"N_COORD97":2546054.79,"ADDRESS":"公園路５９７巷１號五樓之１９","OBJECTID":383228},"geometry":{"x":169216.87000000104,"y":2546054.7899999991}},{"attributes":{"ID":383239,"DIS_CODE":0,"TOWNNAME":"北區","LI":"正覺里","LIN":"9鄰","STREET":"公園路","SECT":" ","MAREA":" ","LANE":"５９７巷","ALLEY":" ","HOUSE_NO":"１號五樓之２","E_COORD97":169216.87,"N_COORD97":2546054.79,"ADDRESS":"公園路５９７巷１號五樓之２","OBJECTID":383229},"geometry":{"x":169216.87000000104,"y":2546054.7899999991}},{"attributes":{"ID":383240,"DIS_CODE":0,"TOWNNAME":"北區","LI":"正覺里","LIN":"9鄰","STREET":"公園路","SECT":" ","MAREA":" ","LANE":"５９７巷","ALLEY":" ","HOUSE_NO":"１號五樓之２０","E_COORD97":169216.87,"N_COORD97":2546054.79,"ADDRESS":"公園路５９７巷１號五樓之２０","OBJECTID":383230},"geometry":{"x":169216.87000000104,"y":2546054.7899999991}},{"attributes":{"ID":383241,"DIS_CODE":0,"TOWNNAME":"北區","LI":"正覺里","LIN":"9鄰","STREET":"公園路","SECT":" ","MAREA":" ","LANE":"５９７巷","ALLEY":" ","HOUSE_NO":"１號五樓之２１","E_COORD97":169216.87,"N_COORD97":2546054.79,"ADDRESS":"公園路５９７巷１號五樓之２１","OBJECTID":383231},"geometry":{"x":169216.87000000104,"y":2546054.7899999991}},{"attributes":{"ID":383242,"DIS_CODE":0,"TOWNNAME":"北區","LI":"正覺里","LIN":"9鄰","STREET":"公園路","SECT":" ","MAREA":" ","LANE":"５９７巷","ALLEY":" ","HOUSE_NO":"１號五樓之２２","E_COORD97":169216.87,"N_COORD97":2546054.79,"ADDRESS":"公園路５９７巷１號五樓之２２","OBJECTID":383232},"geometry":{"x":169216.87000000104,"y":2546054.7899999991}},{"attributes":{"ID":383243,"DIS_CODE":0,"TOWNNAME":"北區","LI":"正覺里","LIN":"9鄰","STREET":"公園路","SECT":" ","MAREA":" ","LANE":"５９７巷","ALLEY":" ","HOUSE_NO":"１號五樓之２３","E_COORD97":169216.87,"N_COORD97":2546054.79,"ADDRESS":"公園路５９７巷１號五樓之２３","OBJECTID":383233},"geometry":{"x":169216.87000000104,"y":2546054.7899999991}},{"attributes":{"ID":383244,"DIS_CODE":0,"TOWNNAME":"北區","LI":"正覺里","LIN":"9鄰","STREET":"公園路","SECT":" ","MAREA":" ","LANE":"５９７巷","ALLEY":" ","HOUSE_NO":"１號五樓之２４","E_COORD97":169216.87,"N_COORD97":2546054.79,"ADDRESS":"公園路５９７巷１號五樓之２４","OBJECTID":383234},"geometry":{"x":169216.87000000104,"y":2546054.7899999991}},{"attributes":{"ID":383245,"DIS_CODE":0,"TOWNNAME":"北區","LI":"正覺里","LIN":"9鄰","STREET":"公園路","SECT":" ","MAREA":" ","LANE":"５９７巷","ALLEY":" ","HOUSE_NO":"１號五樓之３","E_COORD97":169216.87,"N_COORD97":2546054.79,"ADDRESS":"公園路５９７巷１號五樓之３","OBJECTID":383235},"geometry":{"x":169216.87000000104,"y":2546054.7899999991}},{"attributes":{"ID":383246,"DIS_CODE":0,"TOWNNAME":"北區","LI":"正覺里","LIN":"9鄰","STREET":"公園路","SECT":" ","MAREA":" ","LANE":"５９７巷","ALLEY":" ","HOUSE_NO":"１號五樓之４","E_COORD97":169216.87,"N_COORD97":2546054.79,"ADDRESS":"公園路５９７巷１號五樓之４","OBJECTID":383236},"geometry":{"x":169216.87000000104,"y":2546054.7899999991}},{"attributes":{"ID":383247,"DIS_CODE":0,"TOWNNAME":"北區","LI":"正覺里","LIN":"9鄰","STREET":"公園路","SECT":" ","MAREA":" ","LANE":"５９７巷","ALLEY":" ","HOUSE_NO":"１號五樓之５","E_COORD97":169216.87,"N_COORD97":2546054.79,"ADDRESS":"公園路５９７巷１號五樓之５","OBJECTID":383237},"geometry":{"x":169216.87000000104,"y":2546054.7899999991}},{"attributes":{"ID":383248,"DIS_CODE":0,"TOWNNAME":"北區","LI":"正覺里","LIN":"9鄰","STREET":"公園路","SECT":" ","MAREA":" ","LANE":"５９７巷","ALLEY":" ","HOUSE_NO":"１號五樓之６","E_COORD97":169216.87,"N_COORD97":2546054.79,"ADDRESS":"公園路５９７巷１號五樓之６","OBJECTID":383238},"geometry":{"x":169216.87000000104,"y":2546054.7899999991}},{"attributes":{"ID":383249,"DIS_CODE":0,"TOWNNAME":"北區","LI":"正覺里","LIN":"9鄰","STREET":"公園路","SECT":" ","MAREA":" ","LANE":"５９７巷","ALLEY":" ","HOUSE_NO":"１號五樓之７","E_COORD97":169216.87,"N_COORD97":2546054.79,"ADDRESS":"公園路５９７巷１號五樓之７","OBJECTID":383239},"geometry":{"x":169216.87000000104,"y":2546054.7899999991}},{"attributes":{"ID":383250,"DIS_CODE":0,"TOWNNAME":"北區","LI":"正覺里","LIN":"9鄰","STREET":"公園路","SECT":" ","MAREA":" ","LANE":"５９７巷","ALLEY":" ","HOUSE_NO":"１號五樓之８","E_COORD97":169216.87,"N_COORD97":2546054.79,"ADDRESS":"公園路５９７巷１號五樓之８","OBJECTID":383240},"geometry":{"x":169216.87000000104,"y":2546054.7899999991}},{"attributes":{"ID":383251,"DIS_CODE":0,"TOWNNAME":"北區","LI":"正覺里","LIN":"9鄰","STREET":"公園路","SECT":" ","MAREA":" ","LANE":"５９７巷","ALLEY":" ","HOUSE_NO":"１號五樓之９","E_COORD97":169216.87,"N_COORD97":2546054.79,"ADDRESS":"公園路５９７巷１號五樓之９","OBJECTID":383241},"geometry":{"x":169216.87000000104,"y":2546054.7899999991}},{"attributes":{"ID":383252,"DIS_CODE":0,"TOWNNAME":"北區","LI":"正覺里","LIN":"9鄰","STREET":"公園路","SECT":" ","MAREA":" ","LANE":"５９７巷","ALLEY":" ","HOUSE_NO":"１號四樓之１","E_COORD97":169216.87,"N_COORD97":2546054.79,"ADDRESS":"公園路５９７巷１號四樓之１","OBJECTID":383242},"geometry":{"x":169216.87000000104,"y":2546054.7899999991}},{"attributes":{"ID":383253,"DIS_CODE":0,"TOWNNAME":"北區","LI":"正覺里","LIN":"9鄰","STREET":"公園路","SECT":" ","MAREA":" ","LANE":"５９７巷","ALLEY":" ","HOUSE_NO":"１號四樓之１０","E_COORD97":169216.87,"N_COORD97":2546054.79,"ADDRESS":"公園路５９７巷１號四樓之１０","OBJECTID":383243},"geometry":{"x":169216.87000000104,"y":2546054.7899999991}},{"attributes":{"ID":383254,"DIS_CODE":0,"TOWNNAME":"北區","LI":"正覺里","LIN":"9鄰","STREET":"公園路","SECT":" ","MAREA":" ","LANE":"５９７巷","ALLEY":" ","HOUSE_NO":"１號四樓之１１","E_COORD97":169216.87,"N_COORD97":2546054.79,"ADDRESS":"公園路５９７巷１號四樓之１１","OBJECTID":383244},"geometry":{"x":169216.87000000104,"y":2546054.7899999991}},{"attributes":{"ID":383255,"DIS_CODE":0,"TOWNNAME":"北區","LI":"正覺里","LIN":"9鄰","STREET":"公園路","SECT":" ","MAREA":" ","LANE":"５９７巷","ALLEY":" ","HOUSE_NO":"１號四樓之１２","E_COORD97":169216.87,"N_COORD97":2546054.79,"ADDRESS":"公園路５９７巷１號四樓之１２","OBJECTID":383245},"geometry":{"x":169216.87000000104,"y":2546054.7899999991}},{"attributes":{"ID":383256,"DIS_CODE":0,"TOWNNAME":"北區","LI":"正覺里","LIN":"9鄰","STREET":"公園路","SECT":" ","MAREA":" ","LANE":"５９７巷","ALLEY":" ","HOUSE_NO":"１號四樓之２","E_COORD97":169216.87,"N_COORD97":2546054.79,"ADDRESS":"公園路５９７巷１號四樓之２","OBJECTID":383246},"geometry":{"x":169216.87000000104,"y":2546054.7899999991}},{"attributes":{"ID":383257,"DIS_CODE":0,"TOWNNAME":"北區","LI":"正覺里","LIN":"9鄰","STREET":"公園路","SECT":" ","MAREA":" ","LANE":"５９７巷","ALLEY":" ","HOUSE_NO":"１號四樓之３","E_COORD97":169216.87,"N_COORD97":2546054.79,"ADDRESS":"公園路５９７巷１號四樓之３","OBJECTID":383247},"geometry":{"x":169216.87000000104,"y":2546054.7899999991}},{"attributes":{"ID":383258,"DIS_CODE":0,"TOWNNAME":"北區","LI":"正覺里","LIN":"9鄰","STREET":"公園路","SECT":" ","MAREA":" ","LANE":"５９７巷","ALLEY":" ","HOUSE_NO":"１號四樓之４","E_COORD97":169216.87,"N_COORD97":2546054.79,"ADDRESS":"公園路５９７巷１號四樓之４","OBJECTID":383248},"geometry":{"x":169216.87000000104,"y":2546054.7899999991}},{"attributes":{"ID":383259,"DIS_CODE":0,"TOWNNAME":"北區","LI":"正覺里","LIN":"9鄰","STREET":"公園路","SECT":" ","MAREA":" ","LANE":"５９７巷","ALLEY":" ","HOUSE_NO":"１號四樓之５","E_COORD97":169216.87,"N_COORD97":2546054.79,"ADDRESS":"公園路５９７巷１號四樓之５","OBJECTID":383249},"geometry":{"x":169216.87000000104,"y":2546054.7899999991}},{"attributes":{"ID":383260,"DIS_CODE":0,"TOWNNAME":"北區","LI":"正覺里","LIN":"9鄰","STREET":"公園路","SECT":" ","MAREA":" ","LANE":"５９７巷","ALLEY":" ","HOUSE_NO":"１號四樓之６","E_COORD97":169216.87,"N_COORD97":2546054.79,"ADDRESS":"公園路５９７巷１號四樓之６","OBJECTID":383250},"geometry":{"x":169216.87000000104,"y":2546054.7899999991}},{"attributes":{"ID":383261,"DIS_CODE":0,"TOWNNAME":"北區","LI":"正覺里","LIN":"9鄰","STREET":"公園路","SECT":" ","MAREA":" ","LANE":"５９７巷","ALLEY":" ","HOUSE_NO":"１號四樓之７","E_COORD97":169216.87,"N_COORD97":2546054.79,"ADDRESS":"公園路５９７巷１號四樓之７","OBJECTID":383251},"geometry":{"x":169216.87000000104,"y":2546054.7899999991}},{"attributes":{"ID":383262,"DIS_CODE":0,"TOWNNAME":"北區","LI":"正覺里","LIN":"9鄰","STREET":"公園路","SECT":" ","MAREA":" ","LANE":"５９７巷","ALLEY":" ","HOUSE_NO":"１號四樓之８","E_COORD97":169216.87,"N_COORD97":2546054.79,"ADDRESS":"公園路５９７巷１號四樓之８","OBJECTID":383252},"geometry":{"x":169216.87000000104,"y":2546054.7899999991}},{"attributes":{"ID":383263,"DIS_CODE":0,"TOWNNAME":"北區","LI":"正覺里","LIN":"9鄰","STREET":"公園路","SECT":" ","MAREA":" ","LANE":"５９７巷","ALLEY":" ","HOUSE_NO":"１號四樓之９","E_COORD97":169216.87,"N_COORD97":2546054.79,"ADDRESS":"公園路５９７巷１號四樓之９","OBJECTID":383253},"geometry":{"x":169216.87000000104,"y":2546054.7899999991}},{"attributes":{"ID":383264,"DIS_CODE":0,"TOWNNAME":"東區","LI":"和平里","LIN":"9鄰","STREET":"東門路","SECT":"三段","MAREA":" ","LANE":"３３８巷","ALLEY":" ","HOUSE_NO":"４６號","E_COORD97":171850.23000000001,"N_COORD97":2541460.6600000001,"ADDRESS":"東門路三段３３８巷４６號","OBJECTID":383254},"geometry":{"x":171850.23000000138,"y":2541460.660000002}},{"attributes":{"ID":383265,"DIS_CODE":0,"TOWNNAME":"安平區","LI":"平通里","LIN":"9鄰","STREET":"平通路","SECT":" ","MAREA":" ","LANE":"５８０巷","ALLEY":" ","HOUSE_NO":"１０３號七樓之５","E_COORD97":164955.64000000001,"N_COORD97":2544111.8799999999,"ADDRESS":"平通路５８０巷１０３號七樓之５","OBJECTID":383255},"geometry":{"x":164955.64000000153,"y":2544111.8799999971}},{"attributes":{"ID":383266,"DIS_CODE":0,"TOWNNAME":"安平區","LI":"平通里","LIN":"9鄰","STREET":"平通路","SECT":" ","MAREA":" ","LANE":"５８０巷","ALLEY":" ","HOUSE_NO":"１０３號七樓之６","E_COORD97":164955.64000000001,"N_COORD97":2544111.8799999999,"ADDRESS":"平通路５８０巷１０３號七樓之６","OBJECTID":383256},"geometry":{"x":164955.64000000153,"y":2544111.8799999971}},{"attributes":{"ID":383267,"DIS_CODE":0,"TOWNNAME":"安平區","LI":"平通里","LIN":"9鄰","STREET":"平通路","SECT":" ","MAREA":" ","LANE":"５８０巷","ALLEY":" ","HOUSE_NO":"１０３號七樓之７","E_COORD97":164955.64000000001,"N_COORD97":2544111.8799999999,"ADDRESS":"平通路５８０巷１０３號七樓之７","OBJECTID":383257},"geometry":{"x":164955.64000000153,"y":2544111.8799999971}},{"attributes":{"ID":383268,"DIS_CODE":0,"TOWNNAME":"安平區","LI":"平通里","LIN":"9鄰","STREET":"平通路","SECT":" ","MAREA":" ","LANE":"５８０巷","ALLEY":" ","HOUSE_NO":"１０３號七樓之８","E_COORD97":164955.64000000001,"N_COORD97":2544111.8799999999,"ADDRESS":"平通路５８０巷１０３號七樓之８","OBJECTID":383258},"geometry":{"x":164955.64000000153,"y":2544111.8799999971}},{"attributes":{"ID":383269,"DIS_CODE":0,"TOWNNAME":"安平區","LI":"平通里","LIN":"9鄰","STREET":"平通路","SECT":" ","MAREA":" ","LANE":"５８０巷","ALLEY":" ","HOUSE_NO":"１０３號九樓之１","E_COORD97":164955.64000000001,"N_COORD97":2544111.8799999999,"ADDRESS":"平通路５８０巷１０３號九樓之１","OBJECTID":383259},"geometry":{"x":164955.64000000153,"y":2544111.8799999971}},{"attributes":{"ID":383270,"DIS_CODE":0,"TOWNNAME":"安平區","LI":"平通里","LIN":"9鄰","STREET":"平通路","SECT":" ","MAREA":" ","LANE":"５８０巷","ALLEY":" ","HOUSE_NO":"１０３號九樓之２","E_COORD97":164955.64000000001,"N_COORD97":2544111.8799999999,"ADDRESS":"平通路５８０巷１０３號九樓之２","OBJECTID":383260},"geometry":{"x":164955.64000000153,"y":2544111.8799999971}},{"attributes":{"ID":383271,"DIS_CODE":0,"TOWNNAME":"安平區","LI":"平通里","LIN":"9鄰","STREET":"平通路","SECT":" ","MAREA":" ","LANE":"５８０巷","ALLEY":" ","HOUSE_NO":"１０３號九樓之３","E_COORD97":164955.64000000001,"N_COORD97":2544111.8799999999,"ADDRESS":"平通路５８０巷１０３號九樓之３","OBJECTID":383261},"geometry":{"x":164955.64000000153,"y":2544111.8799999971}},{"attributes":{"ID":383272,"DIS_CODE":0,"TOWNNAME":"安平區","LI":"平通里","LIN":"9鄰","STREET":"平通路","SECT":" ","MAREA":" ","LANE":"５８０巷","ALLEY":" ","HOUSE_NO":"１０３號九樓之４","E_COORD97":164955.64000000001,"N_COORD97":2544111.8799999999,"ADDRESS":"平通路５８０巷１０３號九樓之４","OBJECTID":383262},"geometry":{"x":164955.64000000153,"y":2544111.8799999971}},{"attributes":{"ID":383273,"DIS_CODE":0,"TOWNNAME":"安平區","LI":"平通里","LIN":"9鄰","STREET":"平通路","SECT":" ","MAREA":" ","LANE":"５８０巷","ALLEY":" ","HOUSE_NO":"１０３號九樓之５","E_COORD97":164955.64000000001,"N_COORD97":2544111.8799999999,"ADDRESS":"平通路５８０巷１０３號九樓之５","OBJECTID":383263},"geometry":{"x":164955.64000000153,"y":2544111.8799999971}},{"attributes":{"ID":383274,"DIS_CODE":0,"TOWNNAME":"安平區","LI":"平通里","LIN":"9鄰","STREET":"平通路","SECT":" ","MAREA":" ","LANE":"５８０巷","ALLEY":" ","HOUSE_NO":"１０３號九樓之６","E_COORD97":164955.64000000001,"N_COORD97":2544111.8799999999,"ADDRESS":"平通路５８０巷１０３號九樓之６","OBJECTID":383264},"geometry":{"x":164955.64000000153,"y":2544111.8799999971}},{"attributes":{"ID":383275,"DIS_CODE":0,"TOWNNAME":"安平區","LI":"平通里","LIN":"9鄰","STREET":"平通路","SECT":" ","MAREA":" ","LANE":"５８０巷","ALLEY":" ","HOUSE_NO":"１０３號九樓之７","E_COORD97":164955.64000000001,"N_COORD97":2544111.8799999999,"ADDRESS":"平通路５８０巷１０３號九樓之７","OBJECTID":383265},"geometry":{"x":164955.64000000153,"y":2544111.8799999971}},{"attributes":{"ID":383276,"DIS_CODE":0,"TOWNNAME":"安平區","LI":"平通里","LIN":"9鄰","STREET":"平通路","SECT":" ","MAREA":" ","LANE":"５８０巷","ALLEY":" ","HOUSE_NO":"１０３號九樓之８","E_COORD97":164955.64000000001,"N_COORD97":2544111.8799999999,"ADDRESS":"平通路５８０巷１０３號九樓之８","OBJECTID":383266},"geometry":{"x":164955.64000000153,"y":2544111.8799999971}},{"attributes":{"ID":383277,"DIS_CODE":0,"TOWNNAME":"安平區","LI":"平通里","LIN":"9鄰","STREET":"平通路","SECT":" ","MAREA":" ","LANE":"５８０巷","ALLEY":" ","HOUSE_NO":"１０３號八樓之１","E_COORD97":164955.64000000001,"N_COORD97":2544111.8799999999,"ADDRESS":"平通路５８０巷１０３號八樓之１","OBJECTID":383267},"geometry":{"x":164955.64000000153,"y":2544111.8799999971}},{"attributes":{"ID":383278,"DIS_CODE":0,"TOWNNAME":"安平區","LI":"平通里","LIN":"9鄰","STREET":"平通路","SECT":" ","MAREA":" ","LANE":"５８０巷","ALLEY":" ","HOUSE_NO":"１０３號八樓之２","E_COORD97":164955.64000000001,"N_COORD97":2544111.8799999999,"ADDRESS":"平通路５８０巷１０３號八樓之２","OBJECTID":383268},"geometry":{"x":164955.64000000153,"y":2544111.8799999971}},{"attributes":{"ID":383279,"DIS_CODE":0,"TOWNNAME":"東區","LI":"中西里","LIN":"4鄰","STREET":"勝利路","SECT":" ","MAREA":" ","LANE":"１２巷","ALLEY":" ","HOUSE_NO":"４１號","E_COORD97":169924.70000000001,"N_COORD97":2543389.75,"ADDRESS":"勝利路１２巷４１號","OBJECTID":383269},"geometry":{"x":169924.70000000112,"y":2543389.7500000019}},{"attributes":{"ID":383280,"DIS_CODE":0,"TOWNNAME":"安平區","LI":"平通里","LIN":"9鄰","STREET":"平通路","SECT":" ","MAREA":" ","LANE":"５８０巷","ALLEY":" ","HOUSE_NO":"１０３號八樓之３","E_COORD97":164955.64000000001,"N_COORD97":2544111.8799999999,"ADDRESS":"平通路５８０巷１０３號八樓之３","OBJECTID":383270},"geometry":{"x":164955.64000000153,"y":2544111.8799999971}},{"attributes":{"ID":383281,"DIS_CODE":0,"TOWNNAME":"安平區","LI":"平通里","LIN":"9鄰","STREET":"平通路","SECT":" ","MAREA":" ","LANE":"５８０巷","ALLEY":" ","HOUSE_NO":"１０３號八樓之４","E_COORD97":164955.64000000001,"N_COORD97":2544111.8799999999,"ADDRESS":"平通路５８０巷１０３號八樓之４","OBJECTID":383271},"geometry":{"x":164955.64000000153,"y":2544111.8799999971}},{"attributes":{"ID":383282,"DIS_CODE":0,"TOWNNAME":"安平區","LI":"平通里","LIN":"9鄰","STREET":"平通路","SECT":" ","MAREA":" ","LANE":"５８０巷","ALLEY":" ","HOUSE_NO":"１０３號八樓之５","E_COORD97":164955.64000000001,"N_COORD97":2544111.8799999999,"ADDRESS":"平通路５８０巷１０３號八樓之５","OBJECTID":383272},"geometry":{"x":164955.64000000153,"y":2544111.8799999971}},{"attributes":{"ID":383283,"DIS_CODE":0,"TOWNNAME":"安平區","LI":"平通里","LIN":"9鄰","STREET":"平通路","SECT":" ","MAREA":" ","LANE":"５８０巷","ALLEY":" ","HOUSE_NO":"１０３號八樓之６","E_COORD97":164955.64000000001,"N_COORD97":2544111.8799999999,"ADDRESS":"平通路５８０巷１０３號八樓之６","OBJECTID":383273},"geometry":{"x":164955.64000000153,"y":2544111.8799999971}},{"attributes":{"ID":383284,"DIS_CODE":0,"TOWNNAME":"安平區","LI":"平通里","LIN":"9鄰","STREET":"平通路","SECT":" ","MAREA":" ","LANE":"５８０巷","ALLEY":" ","HOUSE_NO":"１０３號八樓之７","E_COORD97":164955.64000000001,"N_COORD97":2544111.8799999999,"ADDRESS":"平通路５８０巷１０３號八樓之７","OBJECTID":383274},"geometry":{"x":164955.64000000153,"y":2544111.8799999971}},{"attributes":{"ID":383285,"DIS_CODE":0,"TOWNNAME":"安平區","LI":"平通里","LIN":"9鄰","STREET":"平通路","SECT":" ","MAREA":" ","LANE":"５８０巷","ALLEY":" ","HOUSE_NO":"１０３號八樓之８","E_COORD97":164955.64000000001,"N_COORD97":2544111.8799999999,"ADDRESS":"平通路５８０巷１０３號八樓之８","OBJECTID":383275},"geometry":{"x":164955.64000000153,"y":2544111.8799999971}},{"attributes":{"ID":383286,"DIS_CODE":0,"TOWNNAME":"安平區","LI":"平通里","LIN":"9鄰","STREET":"平通路","SECT":" ","MAREA":" ","LANE":"５８０巷","ALLEY":" ","HOUSE_NO":"１０３號十樓之１","E_COORD97":164955.64000000001,"N_COORD97":2544111.8799999999,"ADDRESS":"平通路５８０巷１０３號十樓之１","OBJECTID":383276},"geometry":{"x":164955.64000000153,"y":2544111.8799999971}},{"attributes":{"ID":383287,"DIS_CODE":0,"TOWNNAME":"安平區","LI":"平通里","LIN":"9鄰","STREET":"平通路","SECT":" ","MAREA":" ","LANE":"５８０巷","ALLEY":" ","HOUSE_NO":"１０３號十樓之２","E_COORD97":164955.64000000001,"N_COORD97":2544111.8799999999,"ADDRESS":"平通路５８０巷１０３號十樓之２","OBJECTID":383277},"geometry":{"x":164955.64000000153,"y":2544111.8799999971}},{"attributes":{"ID":383288,"DIS_CODE":0,"TOWNNAME":"安平區","LI":"平通里","LIN":"9鄰","STREET":"平通路","SECT":" ","MAREA":" ","LANE":"５８０巷","ALLEY":" ","HOUSE_NO":"１０３號三樓之１","E_COORD97":164955.64000000001,"N_COORD97":2544111.8799999999,"ADDRESS":"平通路５８０巷１０３號三樓之１","OBJECTID":383278},"geometry":{"x":164955.64000000153,"y":2544111.8799999971}},{"attributes":{"ID":383289,"DIS_CODE":0,"TOWNNAME":"安平區","LI":"平通里","LIN":"9鄰","STREET":"平通路","SECT":" ","MAREA":" ","LANE":"５８０巷","ALLEY":" ","HOUSE_NO":"１０３號三樓之２","E_COORD97":164955.64000000001,"N_COORD97":2544111.8799999999,"ADDRESS":"平通路５８０巷１０３號三樓之２","OBJECTID":383279},"geometry":{"x":164955.64000000153,"y":2544111.8799999971}},{"attributes":{"ID":383290,"DIS_CODE":0,"TOWNNAME":"安平區","LI":"平通里","LIN":"9鄰","STREET":"平通路","SECT":" ","MAREA":" ","LANE":"５８０巷","ALLEY":" ","HOUSE_NO":"１０３號三樓之３","E_COORD97":164955.64000000001,"N_COORD97":2544111.8799999999,"ADDRESS":"平通路５８０巷１０３號三樓之３","OBJECTID":383280},"geometry":{"x":164955.64000000153,"y":2544111.8799999971}},{"attributes":{"ID":383291,"DIS_CODE":0,"TOWNNAME":"安平區","LI":"平通里","LIN":"9鄰","STREET":"平通路","SECT":" ","MAREA":" ","LANE":"５８０巷","ALLEY":" ","HOUSE_NO":"１０３號三樓之４","E_COORD97":164955.64000000001,"N_COORD97":2544111.8799999999,"ADDRESS":"平通路５８０巷１０３號三樓之４","OBJECTID":383281},"geometry":{"x":164955.64000000153,"y":2544111.8799999971}},{"attributes":{"ID":383292,"DIS_CODE":0,"TOWNNAME":"安平區","LI":"平通里","LIN":"9鄰","STREET":"平通路","SECT":" ","MAREA":" ","LANE":"５８０巷","ALLEY":" ","HOUSE_NO":"１０３號三樓之５","E_COORD97":164955.64000000001,"N_COORD97":2544111.8799999999,"ADDRESS":"平通路５８０巷１０３號三樓之５","OBJECTID":383282},"geometry":{"x":164955.64000000153,"y":2544111.8799999971}},{"attributes":{"ID":383293,"DIS_CODE":0,"TOWNNAME":"安平區","LI":"平通里","LIN":"9鄰","STREET":"平通路","SECT":" ","MAREA":" ","LANE":"５８０巷","ALLEY":" ","HOUSE_NO":"１０３號三樓之６","E_COORD97":164955.64000000001,"N_COORD97":2544111.8799999999,"ADDRESS":"平通路５８０巷１０３號三樓之６","OBJECTID":383283},"geometry":{"x":164955.64000000153,"y":2544111.8799999971}},{"attributes":{"ID":383294,"DIS_CODE":0,"TOWNNAME":"安平區","LI":"平通里","LIN":"9鄰","STREET":"平通路","SECT":" ","MAREA":" ","LANE":"５８０巷","ALLEY":" ","HOUSE_NO":"１０３號三樓之７","E_COORD97":164955.64000000001,"N_COORD97":2544111.8799999999,"ADDRESS":"平通路５８０巷１０３號三樓之７","OBJECTID":383284},"geometry":{"x":164955.64000000153,"y":2544111.8799999971}},{"attributes":{"ID":383295,"DIS_CODE":0,"TOWNNAME":"安平區","LI":"平通里","LIN":"9鄰","STREET":"平通路","SECT":" ","MAREA":" ","LANE":"５８０巷","ALLEY":" ","HOUSE_NO":"１０３號三樓之８","E_COORD97":164955.64000000001,"N_COORD97":2544111.8799999999,"ADDRESS":"平通路５８０巷１０３號三樓之８","OBJECTID":383285},"geometry":{"x":164955.64000000153,"y":2544111.8799999971}},{"attributes":{"ID":383296,"DIS_CODE":0,"TOWNNAME":"安平區","LI":"平通里","LIN":"9鄰","STREET":"平通路","SECT":" ","MAREA":" ","LANE":"５８０巷","ALLEY":" ","HOUSE_NO":"１０３號五樓之１","E_COORD97":164955.64000000001,"N_COORD97":2544111.8799999999,"ADDRESS":"平通路５８０巷１０３號五樓之１","OBJECTID":383286},"geometry":{"x":164955.64000000153,"y":2544111.8799999971}},{"attributes":{"ID":383297,"DIS_CODE":0,"TOWNNAME":"安平區","LI":"平通里","LIN":"9鄰","STREET":"平通路","SECT":" ","MAREA":" ","LANE":"５８０巷","ALLEY":" ","HOUSE_NO":"１０３號五樓之２","E_COORD97":164955.64000000001,"N_COORD97":2544111.8799999999,"ADDRESS":"平通路５８０巷１０３號五樓之２","OBJECTID":383287},"geometry":{"x":164955.64000000153,"y":2544111.8799999971}},{"attributes":{"ID":383298,"DIS_CODE":0,"TOWNNAME":"安平區","LI":"平通里","LIN":"9鄰","STREET":"平通路","SECT":" ","MAREA":" ","LANE":"５８０巷","ALLEY":" ","HOUSE_NO":"１０３號五樓之３","E_COORD97":164955.64000000001,"N_COORD97":2544111.8799999999,"ADDRESS":"平通路５８０巷１０３號五樓之３","OBJECTID":383288},"geometry":{"x":164955.64000000153,"y":2544111.8799999971}},{"attributes":{"ID":383299,"DIS_CODE":0,"TOWNNAME":"安平區","LI":"平通里","LIN":"9鄰","STREET":"平通路","SECT":" ","MAREA":" ","LANE":"５８０巷","ALLEY":" ","HOUSE_NO":"１０３號五樓之４","E_COORD97":164955.64000000001,"N_COORD97":2544111.8799999999,"ADDRESS":"平通路５８０巷１０３號五樓之４","OBJECTID":383289},"geometry":{"x":164955.64000000153,"y":2544111.8799999971}},{"attributes":{"ID":383300,"DIS_CODE":0,"TOWNNAME":"安平區","LI":"平通里","LIN":"9鄰","STREET":"平通路","SECT":" ","MAREA":" ","LANE":"５８０巷","ALLEY":" ","HOUSE_NO":"１０３號五樓之５","E_COORD97":164955.64000000001,"N_COORD97":2544111.8799999999,"ADDRESS":"平通路５８０巷１０３號五樓之５","OBJECTID":383290},"geometry":{"x":164955.64000000153,"y":2544111.8799999971}},{"attributes":{"ID":383301,"DIS_CODE":0,"TOWNNAME":"安平區","LI":"平通里","LIN":"9鄰","STREET":"平通路","SECT":" ","MAREA":" ","LANE":"５８０巷","ALLEY":" ","HOUSE_NO":"１０３號五樓之６","E_COORD97":164955.64000000001,"N_COORD97":2544111.8799999999,"ADDRESS":"平通路５８０巷１０３號五樓之６","OBJECTID":383291},"geometry":{"x":164955.64000000153,"y":2544111.8799999971}},{"attributes":{"ID":383302,"DIS_CODE":0,"TOWNNAME":"安平區","LI":"平通里","LIN":"9鄰","STREET":"平通路","SECT":" ","MAREA":" ","LANE":"５８０巷","ALLEY":" ","HOUSE_NO":"１０３號五樓之８","E_COORD97":164955.64000000001,"N_COORD97":2544111.8799999999,"ADDRESS":"平通路５８０巷１０３號五樓之８","OBJECTID":383292},"geometry":{"x":164955.64000000153,"y":2544111.8799999971}},{"attributes":{"ID":383303,"DIS_CODE":0,"TOWNNAME":"安平區","LI":"平通里","LIN":"9鄰","STREET":"平通路","SECT":" ","MAREA":" ","LANE":"５８０巷","ALLEY":" ","HOUSE_NO":"１０３號六樓之１","E_COORD97":164955.64000000001,"N_COORD97":2544111.8799999999,"ADDRESS":"平通路５８０巷１０３號六樓之１","OBJECTID":383293},"geometry":{"x":164955.64000000153,"y":2544111.8799999971}},{"attributes":{"ID":383304,"DIS_CODE":0,"TOWNNAME":"安平區","LI":"平通里","LIN":"9鄰","STREET":"平通路","SECT":" ","MAREA":" ","LANE":"５８０巷","ALLEY":" ","HOUSE_NO":"１０３號六樓之２","E_COORD97":164955.64000000001,"N_COORD97":2544111.8799999999,"ADDRESS":"平通路５８０巷１０３號六樓之２","OBJECTID":383294},"geometry":{"x":164955.64000000153,"y":2544111.8799999971}},{"attributes":{"ID":383305,"DIS_CODE":0,"TOWNNAME":"安平區","LI":"平通里","LIN":"9鄰","STREET":"平通路","SECT":" ","MAREA":" ","LANE":"５８０巷","ALLEY":" ","HOUSE_NO":"１０３號六樓之３","E_COORD97":164955.64000000001,"N_COORD97":2544111.8799999999,"ADDRESS":"平通路５８０巷１０３號六樓之３","OBJECTID":383295},"geometry":{"x":164955.64000000153,"y":2544111.8799999971}},{"attributes":{"ID":383306,"DIS_CODE":0,"TOWNNAME":"安平區","LI":"平通里","LIN":"9鄰","STREET":"平通路","SECT":" ","MAREA":" ","LANE":"５８０巷","ALLEY":" ","HOUSE_NO":"１０３號六樓之４","E_COORD97":164955.64000000001,"N_COORD97":2544111.8799999999,"ADDRESS":"平通路５８０巷１０３號六樓之４","OBJECTID":383296},"geometry":{"x":164955.64000000153,"y":2544111.8799999971}},{"attributes":{"ID":383307,"DIS_CODE":0,"TOWNNAME":"安平區","LI":"平通里","LIN":"9鄰","STREET":"平通路","SECT":" ","MAREA":" ","LANE":"５８０巷","ALLEY":" ","HOUSE_NO":"１０３號六樓之５","E_COORD97":164955.64000000001,"N_COORD97":2544111.8799999999,"ADDRESS":"平通路５８０巷１０３號六樓之５","OBJECTID":383297},"geometry":{"x":164955.64000000153,"y":2544111.8799999971}},{"attributes":{"ID":383308,"DIS_CODE":0,"TOWNNAME":"安平區","LI":"平通里","LIN":"9鄰","STREET":"平通路","SECT":" ","MAREA":" ","LANE":"５８０巷","ALLEY":" ","HOUSE_NO":"１０３號六樓之６","E_COORD97":164955.64000000001,"N_COORD97":2544111.8799999999,"ADDRESS":"平通路５８０巷１０３號六樓之６","OBJECTID":383298},"geometry":{"x":164955.64000000153,"y":2544111.8799999971}},{"attributes":{"ID":383309,"DIS_CODE":0,"TOWNNAME":"安平區","LI":"平通里","LIN":"9鄰","STREET":"平通路","SECT":" ","MAREA":" ","LANE":"５８０巷","ALLEY":" ","HOUSE_NO":"１０３號六樓之７","E_COORD97":164955.64000000001,"N_COORD97":2544111.8799999999,"ADDRESS":"平通路５８０巷１０３號六樓之７","OBJECTID":383299},"geometry":{"x":164955.64000000153,"y":2544111.8799999971}},{"attributes":{"ID":383310,"DIS_CODE":0,"TOWNNAME":"安平區","LI":"平通里","LIN":"9鄰","STREET":"平通路","SECT":" ","MAREA":" ","LANE":"５８０巷","ALLEY":" ","HOUSE_NO":"１０３號六樓之８","E_COORD97":164955.64000000001,"N_COORD97":2544111.8799999999,"ADDRESS":"平通路５８０巷１０３號六樓之８","OBJECTID":383300},"geometry":{"x":164955.64000000153,"y":2544111.8799999971}},{"attributes":{"ID":383311,"DIS_CODE":0,"TOWNNAME":"安平區","LI":"平通里","LIN":"9鄰","STREET":"平通路","SECT":" ","MAREA":" ","LANE":"５８０巷","ALLEY":" ","HOUSE_NO":"１０３號四樓之１","E_COORD97":164955.64000000001,"N_COORD97":2544111.8799999999,"ADDRESS":"平通路５８０巷１０３號四樓之１","OBJECTID":383301},"geometry":{"x":164955.64000000153,"y":2544111.8799999971}},{"attributes":{"ID":383312,"DIS_CODE":0,"TOWNNAME":"安平區","LI":"平通里","LIN":"9鄰","STREET":"平通路","SECT":" ","MAREA":" ","LANE":"５８０巷","ALLEY":" ","HOUSE_NO":"１０３號四樓之２","E_COORD97":164955.64000000001,"N_COORD97":2544111.8799999999,"ADDRESS":"平通路５８０巷１０３號四樓之２","OBJECTID":383302},"geometry":{"x":164955.64000000153,"y":2544111.8799999971}},{"attributes":{"ID":383313,"DIS_CODE":0,"TOWNNAME":"安平區","LI":"平通里","LIN":"9鄰","STREET":"平通路","SECT":" ","MAREA":" ","LANE":"５８０巷","ALLEY":" ","HOUSE_NO":"１０３號四樓之３","E_COORD97":164955.64000000001,"N_COORD97":2544111.8799999999,"ADDRESS":"平通路５８０巷１０３號四樓之３","OBJECTID":383303},"geometry":{"x":164955.64000000153,"y":2544111.8799999971}},{"attributes":{"ID":383314,"DIS_CODE":0,"TOWNNAME":"安平區","LI":"平通里","LIN":"9鄰","STREET":"平通路","SECT":" ","MAREA":" ","LANE":"５８０巷","ALLEY":" ","HOUSE_NO":"１０３號四樓之３之１","E_COORD97":164955.64000000001,"N_COORD97":2544111.8799999999,"ADDRESS":"平通路５８０巷１０３號四樓之３之１","OBJECTID":383304},"geometry":{"x":164955.64000000153,"y":2544111.8799999971}},{"attributes":{"ID":383315,"DIS_CODE":0,"TOWNNAME":"安平區","LI":"平通里","LIN":"9鄰","STREET":"平通路","SECT":" ","MAREA":" ","LANE":"５８０巷","ALLEY":" ","HOUSE_NO":"１０３號四樓之５","E_COORD97":164955.64000000001,"N_COORD97":2544111.8799999999,"ADDRESS":"平通路５８０巷１０３號四樓之５","OBJECTID":383305},"geometry":{"x":164955.64000000153,"y":2544111.8799999971}},{"attributes":{"ID":383316,"DIS_CODE":0,"TOWNNAME":"安平區","LI":"平通里","LIN":"9鄰","STREET":"平通路","SECT":" ","MAREA":" ","LANE":"５８０巷","ALLEY":" ","HOUSE_NO":"１０３號四樓之６","E_COORD97":164955.64000000001,"N_COORD97":2544111.8799999999,"ADDRESS":"平通路５８０巷１０３號四樓之６","OBJECTID":383306},"geometry":{"x":164955.64000000153,"y":2544111.8799999971}},{"attributes":{"ID":383317,"DIS_CODE":0,"TOWNNAME":"安平區","LI":"平通里","LIN":"9鄰","STREET":"平通路","SECT":" ","MAREA":" ","LANE":"５８０巷","ALLEY":" ","HOUSE_NO":"１０３號四樓之７","E_COORD97":164955.64000000001,"N_COORD97":2544111.8799999999,"ADDRESS":"平通路５８０巷１０３號四樓之７","OBJECTID":383307},"geometry":{"x":164955.64000000153,"y":2544111.8799999971}},{"attributes":{"ID":383318,"DIS_CODE":0,"TOWNNAME":"安平區","LI":"平通里","LIN":"9鄰","STREET":"平通路","SECT":" ","MAREA":" ","LANE":"５８０巷","ALLEY":" ","HOUSE_NO":"１０３號四樓之８","E_COORD97":164955.64000000001,"N_COORD97":2544111.8799999999,"ADDRESS":"平通路５８０巷１０３號四樓之８","OBJECTID":383308},"geometry":{"x":164955.64000000153,"y":2544111.8799999971}},{"attributes":{"ID":383319,"DIS_CODE":0,"TOWNNAME":"安平區","LI":"平通里","LIN":"9鄰","STREET":"平通路","SECT":" ","MAREA":" ","LANE":"５８０巷","ALLEY":" ","HOUSE_NO":"１０３號四樓之９","E_COORD97":164955.64000000001,"N_COORD97":2544111.8799999999,"ADDRESS":"平通路５８０巷１０３號四樓之９","OBJECTID":383309},"geometry":{"x":164955.64000000153,"y":2544111.8799999971}},{"attributes":{"ID":383320,"DIS_CODE":0,"TOWNNAME":"新營區","LI":"永生里","LIN":"9鄰","STREET":"康樂街","SECT":" ","MAREA":" ","LANE":"１巷","ALLEY":" ","HOUSE_NO":"２號六樓","E_COORD97":180066.60000000001,"N_COORD97":2577917.9199999999,"ADDRESS":"康樂街１巷２號六樓","OBJECTID":383310},"geometry":{"x":180066.5999999987,"y":2577917.9199999999}},{"attributes":{"ID":383321,"DIS_CODE":0,"TOWNNAME":"新營區","LI":"新東里","LIN":"9鄰","STREET":"東仁街","SECT":" ","MAREA":" ","LANE":"４３巷","ALLEY":" ","HOUSE_NO":"６６號三樓","E_COORD97":181162.29000000001,"N_COORD97":2579678.0600000001,"ADDRESS":"東仁街４３巷６６號三樓","OBJECTID":383311},"geometry":{"x":181162.29000000004,"y":2579678.0600000024}},{"attributes":{"ID":383322,"DIS_CODE":0,"TOWNNAME":"歸仁區","LI":"武東里","LIN":"9鄰","STREET":"中正南路","SECT":"三段","MAREA":" ","LANE":"９６巷","ALLEY":" ","HOUSE_NO":"５８號五樓","E_COORD97":175100.31,"N_COORD97":2535019.2799999998,"ADDRESS":"中正南路三段９６巷５８號五樓","OBJECTID":383312},"geometry":{"x":175100.31000000052,"y":2535019.2799999993}},{"attributes":{"ID":383323,"DIS_CODE":0,"TOWNNAME":"東區","LI":"中西里","LIN":"6鄰","STREET":"勝利路","SECT":" ","MAREA":" ","LANE":"１２巷","ALLEY":" ","HOUSE_NO":"１０９號","E_COORD97":169960.48999999999,"N_COORD97":2543362.3900000001,"ADDRESS":"勝利路１２巷１０９號","OBJECTID":383313},"geometry":{"x":169960.49000000115,"y":2543362.3900000025}},{"attributes":{"ID":383324,"DIS_CODE":0,"TOWNNAME":"北區","LI":"長榮里","LIN":"9鄰","STREET":"長榮路","SECT":"五段","MAREA":" ","LANE":"４１巷","ALLEY":" ","HOUSE_NO":"６號六樓之５","E_COORD97":170065.25,"N_COORD97":2545509.7999999998,"ADDRESS":"長榮路五段４１巷６號六樓之５","OBJECTID":383314},"geometry":{"x":170065.25000000093,"y":2545509.8000000007}},{"attributes":{"ID":383325,"DIS_CODE":0,"TOWNNAME":"北區","LI":"長榮里","LIN":"9鄰","STREET":"長榮路","SECT":"五段","MAREA":" ","LANE":"４１巷","ALLEY":" ","HOUSE_NO":"６號二樓之１","E_COORD97":170065.25,"N_COORD97":2545509.7999999998,"ADDRESS":"長榮路五段４１巷６號二樓之１","OBJECTID":383315},"geometry":{"x":170065.25000000093,"y":2545509.8000000007}},{"attributes":{"ID":383326,"DIS_CODE":0,"TOWNNAME":"北區","LI":"長榮里","LIN":"9鄰","STREET":"長榮路","SECT":"五段","MAREA":" ","LANE":"４１巷","ALLEY":" ","HOUSE_NO":"６號二樓之２","E_COORD97":170065.25,"N_COORD97":2545509.7999999998,"ADDRESS":"長榮路五段４１巷６號二樓之２","OBJECTID":383316},"geometry":{"x":170065.25000000093,"y":2545509.8000000007}},{"attributes":{"ID":383327,"DIS_CODE":0,"TOWNNAME":"北區","LI":"長榮里","LIN":"9鄰","STREET":"長榮路","SECT":"五段","MAREA":" ","LANE":"４１巷","ALLEY":" ","HOUSE_NO":"６號三樓之１","E_COORD97":170065.25,"N_COORD97":2545509.7999999998,"ADDRESS":"長榮路五段４１巷６號三樓之１","OBJECTID":383317},"geometry":{"x":170065.25000000093,"y":2545509.8000000007}},{"attributes":{"ID":383328,"DIS_CODE":0,"TOWNNAME":"北區","LI":"長榮里","LIN":"9鄰","STREET":"長榮路","SECT":"五段","MAREA":" ","LANE":"４１巷","ALLEY":" ","HOUSE_NO":"６號三樓之２","E_COORD97":170065.25,"N_COORD97":2545509.7999999998,"ADDRESS":"長榮路五段４１巷６號三樓之２","OBJECTID":383318},"geometry":{"x":170065.25000000093,"y":2545509.8000000007}},{"attributes":{"ID":383329,"DIS_CODE":0,"TOWNNAME":"北區","LI":"長榮里","LIN":"9鄰","STREET":"長榮路","SECT":"五段","MAREA":" ","LANE":"４１巷","ALLEY":" ","HOUSE_NO":"６號四樓之１","E_COORD97":170065.25,"N_COORD97":2545509.7999999998,"ADDRESS":"長榮路五段４１巷６號四樓之１","OBJECTID":383319},"geometry":{"x":170065.25000000093,"y":2545509.8000000007}},{"attributes":{"ID":383330,"DIS_CODE":0,"TOWNNAME":"北區","LI":"長榮里","LIN":"9鄰","STREET":"長榮路","SECT":"五段","MAREA":" ","LANE":"４１巷","ALLEY":" ","HOUSE_NO":"６號四樓之２","E_COORD97":170065.25,"N_COORD97":2545509.7999999998,"ADDRESS":"長榮路五段４１巷６號四樓之２","OBJECTID":383320},"geometry":{"x":170065.25000000093,"y":2545509.8000000007}},{"attributes":{"ID":383331,"DIS_CODE":0,"TOWNNAME":"北區","LI":"長榮里","LIN":"9鄰","STREET":"長榮路","SECT":"五段","MAREA":" ","LANE":"４１巷","ALLEY":" ","HOUSE_NO":"６號四樓之３","E_COORD97":170065.25,"N_COORD97":2545509.7999999998,"ADDRESS":"長榮路五段４１巷６號四樓之３","OBJECTID":383321},"geometry":{"x":170065.25000000093,"y":2545509.8000000007}},{"attributes":{"ID":383332,"DIS_CODE":0,"TOWNNAME":"北區","LI":"長榮里","LIN":"9鄰","STREET":"長榮路","SECT":"五段","MAREA":" ","LANE":"４１巷","ALLEY":" ","HOUSE_NO":"６號四樓之５","E_COORD97":170065.25,"N_COORD97":2545509.7999999998,"ADDRESS":"長榮路五段４１巷６號四樓之５","OBJECTID":383322},"geometry":{"x":170065.25000000093,"y":2545509.8000000007}},{"attributes":{"ID":383333,"DIS_CODE":0,"TOWNNAME":"北區","LI":"長榮里","LIN":"9鄰","STREET":"長榮路","SECT":"五段","MAREA":" ","LANE":"４１巷","ALLEY":" ","HOUSE_NO":"６號五樓之１","E_COORD97":170065.25,"N_COORD97":2545509.7999999998,"ADDRESS":"長榮路五段４１巷６號五樓之１","OBJECTID":383323},"geometry":{"x":170065.25000000093,"y":2545509.8000000007}},{"attributes":{"ID":383334,"DIS_CODE":0,"TOWNNAME":"北區","LI":"長榮里","LIN":"9鄰","STREET":"長榮路","SECT":"五段","MAREA":" ","LANE":"４１巷","ALLEY":" ","HOUSE_NO":"６號五樓之２","E_COORD97":170065.25,"N_COORD97":2545509.7999999998,"ADDRESS":"長榮路五段４１巷６號五樓之２","OBJECTID":383324},"geometry":{"x":170065.25000000093,"y":2545509.8000000007}},{"attributes":{"ID":383335,"DIS_CODE":0,"TOWNNAME":"北區","LI":"長榮里","LIN":"9鄰","STREET":"長榮路","SECT":"五段","MAREA":" ","LANE":"４１巷","ALLEY":" ","HOUSE_NO":"６號五樓之３","E_COORD97":170065.25,"N_COORD97":2545509.7999999998,"ADDRESS":"長榮路五段４１巷６號五樓之３","OBJECTID":383325},"geometry":{"x":170065.25000000093,"y":2545509.8000000007}},{"attributes":{"ID":383336,"DIS_CODE":0,"TOWNNAME":"北區","LI":"長榮里","LIN":"9鄰","STREET":"長榮路","SECT":"五段","MAREA":" ","LANE":"４１巷","ALLEY":" ","HOUSE_NO":"６號五樓之５","E_COORD97":170065.25,"N_COORD97":2545509.7999999998,"ADDRESS":"長榮路五段４１巷６號五樓之５","OBJECTID":383326},"geometry":{"x":170065.25000000093,"y":2545509.8000000007}},{"attributes":{"ID":383337,"DIS_CODE":0,"TOWNNAME":"北區","LI":"長榮里","LIN":"9鄰","STREET":"長榮路","SECT":"五段","MAREA":" ","LANE":"４１巷","ALLEY":" ","HOUSE_NO":"６號六樓之１","E_COORD97":170065.25,"N_COORD97":2545509.7999999998,"ADDRESS":"長榮路五段４１巷６號六樓之１","OBJECTID":383327},"geometry":{"x":170065.25000000093,"y":2545509.8000000007}},{"attributes":{"ID":383338,"DIS_CODE":0,"TOWNNAME":"北區","LI":"長榮里","LIN":"9鄰","STREET":"長榮路","SECT":"五段","MAREA":" ","LANE":"４１巷","ALLEY":" ","HOUSE_NO":"６號六樓之２","E_COORD97":170065.25,"N_COORD97":2545509.7999999998,"ADDRESS":"長榮路五段４１巷６號六樓之２","OBJECTID":383328},"geometry":{"x":170065.25000000093,"y":2545509.8000000007}},{"attributes":{"ID":383339,"DIS_CODE":0,"TOWNNAME":"北區","LI":"長榮里","LIN":"9鄰","STREET":"長榮路","SECT":"五段","MAREA":" ","LANE":"４１巷","ALLEY":" ","HOUSE_NO":"６號七樓之１","E_COORD97":170065.25,"N_COORD97":2545509.7999999998,"ADDRESS":"長榮路五段４１巷６號七樓之１","OBJECTID":383329},"geometry":{"x":170065.25000000093,"y":2545509.8000000007}},{"attributes":{"ID":383340,"DIS_CODE":0,"TOWNNAME":"北區","LI":"長榮里","LIN":"9鄰","STREET":"長榮路","SECT":"五段","MAREA":" ","LANE":"４１巷","ALLEY":" ","HOUSE_NO":"６號七樓之２","E_COORD97":170065.25,"N_COORD97":2545509.7999999998,"ADDRESS":"長榮路五段４１巷６號七樓之２","OBJECTID":383330},"geometry":{"x":170065.25000000093,"y":2545509.8000000007}},{"attributes":{"ID":383341,"DIS_CODE":0,"TOWNNAME":"北區","LI":"長榮里","LIN":"9鄰","STREET":"長榮路","SECT":"五段","MAREA":" ","LANE":"４１巷","ALLEY":" ","HOUSE_NO":"６號七樓之３","E_COORD97":170065.25,"N_COORD97":2545509.7999999998,"ADDRESS":"長榮路五段４１巷６號七樓之３","OBJECTID":383331},"geometry":{"x":170065.25000000093,"y":2545509.8000000007}},{"attributes":{"ID":383342,"DIS_CODE":0,"TOWNNAME":"北區","LI":"長榮里","LIN":"9鄰","STREET":"長榮路","SECT":"五段","MAREA":" ","LANE":"４１巷","ALLEY":" ","HOUSE_NO":"６號七樓之５","E_COORD97":170065.25,"N_COORD97":2545509.7999999998,"ADDRESS":"長榮路五段４１巷６號七樓之５","OBJECTID":383332},"geometry":{"x":170065.25000000093,"y":2545509.8000000007}},{"attributes":{"ID":383343,"DIS_CODE":0,"TOWNNAME":"北區","LI":"長榮里","LIN":"9鄰","STREET":"長榮路","SECT":"五段","MAREA":" ","LANE":"４１巷","ALLEY":" ","HOUSE_NO":"６號八樓之１","E_COORD97":170065.25,"N_COORD97":2545509.7999999998,"ADDRESS":"長榮路五段４１巷６號八樓之１","OBJECTID":383333},"geometry":{"x":170065.25000000093,"y":2545509.8000000007}},{"attributes":{"ID":383344,"DIS_CODE":0,"TOWNNAME":"北區","LI":"長榮里","LIN":"9鄰","STREET":"長榮路","SECT":"五段","MAREA":" ","LANE":"４１巷","ALLEY":" ","HOUSE_NO":"６號八樓之２","E_COORD97":170065.25,"N_COORD97":2545509.7999999998,"ADDRESS":"長榮路五段４１巷６號八樓之２","OBJECTID":383334},"geometry":{"x":170065.25000000093,"y":2545509.8000000007}},{"attributes":{"ID":383345,"DIS_CODE":0,"TOWNNAME":"北區","LI":"長榮里","LIN":"9鄰","STREET":"長榮路","SECT":"五段","MAREA":" ","LANE":"４１巷","ALLEY":" ","HOUSE_NO":"６號八樓之３","E_COORD97":170065.25,"N_COORD97":2545509.7999999998,"ADDRESS":"長榮路五段４１巷６號八樓之３","OBJECTID":383335},"geometry":{"x":170065.25000000093,"y":2545509.8000000007}},{"attributes":{"ID":383346,"DIS_CODE":0,"TOWNNAME":"北區","LI":"長榮里","LIN":"9鄰","STREET":"長榮路","SECT":"五段","MAREA":" ","LANE":"４１巷","ALLEY":" ","HOUSE_NO":"６號八樓之５","E_COORD97":170065.25,"N_COORD97":2545509.7999999998,"ADDRESS":"長榮路五段４１巷６號八樓之５","OBJECTID":383336},"geometry":{"x":170065.25000000093,"y":2545509.8000000007}},{"attributes":{"ID":383347,"DIS_CODE":0,"TOWNNAME":"北區","LI":"長榮里","LIN":"9鄰","STREET":"長榮路","SECT":"五段","MAREA":" ","LANE":"４１巷","ALLEY":" ","HOUSE_NO":"６號九樓之１","E_COORD97":170065.25,"N_COORD97":2545509.7999999998,"ADDRESS":"長榮路五段４１巷６號九樓之１","OBJECTID":383337},"geometry":{"x":170065.25000000093,"y":2545509.8000000007}},{"attributes":{"ID":383348,"DIS_CODE":0,"TOWNNAME":"北區","LI":"長榮里","LIN":"9鄰","STREET":"長榮路","SECT":"五段","MAREA":" ","LANE":"４１巷","ALLEY":" ","HOUSE_NO":"６號九樓之２","E_COORD97":170065.25,"N_COORD97":2545509.7999999998,"ADDRESS":"長榮路五段４１巷６號九樓之２","OBJECTID":383338},"geometry":{"x":170065.25000000093,"y":2545509.8000000007}},{"attributes":{"ID":383349,"DIS_CODE":0,"TOWNNAME":"北區","LI":"長榮里","LIN":"9鄰","STREET":"長榮路","SECT":"五段","MAREA":" ","LANE":"４１巷","ALLEY":" ","HOUSE_NO":"６號九樓之３","E_COORD97":170065.25,"N_COORD97":2545509.7999999998,"ADDRESS":"長榮路五段４１巷６號九樓之３","OBJECTID":383339},"geometry":{"x":170065.25000000093,"y":2545509.8000000007}},{"attributes":{"ID":383350,"DIS_CODE":0,"TOWNNAME":"北區","LI":"長榮里","LIN":"9鄰","STREET":"長榮路","SECT":"五段","MAREA":" ","LANE":"４１巷","ALLEY":" ","HOUSE_NO":"６號九樓之５","E_COORD97":170065.25,"N_COORD97":2545509.7999999998,"ADDRESS":"長榮路五段４１巷６號九樓之５","OBJECTID":383340},"geometry":{"x":170065.25000000093,"y":2545509.8000000007}},{"attributes":{"ID":383351,"DIS_CODE":0,"TOWNNAME":"北區","LI":"長榮里","LIN":"9鄰","STREET":"長榮路","SECT":"五段","MAREA":" ","LANE":"４１巷","ALLEY":" ","HOUSE_NO":"６號十樓之１","E_COORD97":170065.25,"N_COORD97":2545509.7999999998,"ADDRESS":"長榮路五段４１巷６號十樓之１","OBJECTID":383341},"geometry":{"x":170065.25000000093,"y":2545509.8000000007}},{"attributes":{"ID":383352,"DIS_CODE":0,"TOWNNAME":"北區","LI":"長榮里","LIN":"9鄰","STREET":"長榮路","SECT":"五段","MAREA":" ","LANE":"４１巷","ALLEY":" ","HOUSE_NO":"６號十樓之２","E_COORD97":170065.25,"N_COORD97":2545509.7999999998,"ADDRESS":"長榮路五段４１巷６號十樓之２","OBJECTID":383342},"geometry":{"x":170065.25000000093,"y":2545509.8000000007}},{"attributes":{"ID":383353,"DIS_CODE":0,"TOWNNAME":"北區","LI":"長榮里","LIN":"9鄰","STREET":"長榮路","SECT":"五段","MAREA":" ","LANE":"４１巷","ALLEY":" ","HOUSE_NO":"６號十樓之３","E_COORD97":170065.25,"N_COORD97":2545509.7999999998,"ADDRESS":"長榮路五段４１巷６號十樓之３","OBJECTID":383343},"geometry":{"x":170065.25000000093,"y":2545509.8000000007}},{"attributes":{"ID":383354,"DIS_CODE":0,"TOWNNAME":"北區","LI":"長榮里","LIN":"9鄰","STREET":"長榮路","SECT":"五段","MAREA":" ","LANE":"４１巷","ALLEY":" ","HOUSE_NO":"６號十樓之５","E_COORD97":170065.25,"N_COORD97":2545509.7999999998,"ADDRESS":"長榮路五段４１巷６號十樓之５","OBJECTID":383344},"geometry":{"x":170065.25000000093,"y":2545509.8000000007}},{"attributes":{"ID":383355,"DIS_CODE":0,"TOWNNAME":"北區","LI":"長榮里","LIN":"9鄰","STREET":"長榮路","SECT":"五段","MAREA":" ","LANE":"４１巷","ALLEY":" ","HOUSE_NO":"６號十一樓之１","E_COORD97":170065.25,"N_COORD97":2545509.7999999998,"ADDRESS":"長榮路五段４１巷６號十一樓之１","OBJECTID":383345},"geometry":{"x":170065.25000000093,"y":2545509.8000000007}},{"attributes":{"ID":383356,"DIS_CODE":0,"TOWNNAME":"北區","LI":"長榮里","LIN":"9鄰","STREET":"長榮路","SECT":"五段","MAREA":" ","LANE":"４１巷","ALLEY":" ","HOUSE_NO":"６號十一樓之２","E_COORD97":170065.25,"N_COORD97":2545509.7999999998,"ADDRESS":"長榮路五段４１巷６號十一樓之２","OBJECTID":383346},"geometry":{"x":170065.25000000093,"y":2545509.8000000007}},{"attributes":{"ID":383357,"DIS_CODE":0,"TOWNNAME":"北區","LI":"長榮里","LIN":"9鄰","STREET":"長榮路","SECT":"五段","MAREA":" ","LANE":"４１巷","ALLEY":" ","HOUSE_NO":"６號十一樓之３","E_COORD97":170065.25,"N_COORD97":2545509.7999999998,"ADDRESS":"長榮路五段４１巷６號十一樓之３","OBJECTID":383347},"geometry":{"x":170065.25000000093,"y":2545509.8000000007}},{"attributes":{"ID":383358,"DIS_CODE":0,"TOWNNAME":"北區","LI":"長榮里","LIN":"9鄰","STREET":"長榮路","SECT":"五段","MAREA":" ","LANE":"４１巷","ALLEY":" ","HOUSE_NO":"６號十一樓之５","E_COORD97":170065.25,"N_COORD97":2545509.7999999998,"ADDRESS":"長榮路五段４１巷６號十一樓之５","OBJECTID":383348},"geometry":{"x":170065.25000000093,"y":2545509.8000000007}},{"attributes":{"ID":383359,"DIS_CODE":0,"TOWNNAME":"北區","LI":"長榮里","LIN":"9鄰","STREET":"長榮路","SECT":"五段","MAREA":" ","LANE":"４１巷","ALLEY":" ","HOUSE_NO":"６號十二樓之１","E_COORD97":170065.25,"N_COORD97":2545509.7999999998,"ADDRESS":"長榮路五段４１巷６號十二樓之１","OBJECTID":383349},"geometry":{"x":170065.25000000093,"y":2545509.8000000007}},{"attributes":{"ID":383360,"DIS_CODE":0,"TOWNNAME":"北區","LI":"長榮里","LIN":"9鄰","STREET":"長榮路","SECT":"五段","MAREA":" ","LANE":"４１巷","ALLEY":" ","HOUSE_NO":"６號十二樓之２","E_COORD97":170065.25,"N_COORD97":2545509.7999999998,"ADDRESS":"長榮路五段４１巷６號十二樓之２","OBJECTID":383350},"geometry":{"x":170065.25000000093,"y":2545509.8000000007}},{"attributes":{"ID":383361,"DIS_CODE":0,"TOWNNAME":"北區","LI":"長榮里","LIN":"9鄰","STREET":"長榮路","SECT":"五段","MAREA":" ","LANE":"４１巷","ALLEY":" ","HOUSE_NO":"６號十二樓之３","E_COORD97":170065.25,"N_COORD97":2545509.7999999998,"ADDRESS":"長榮路五段４１巷６號十二樓之３","OBJECTID":383351},"geometry":{"x":170065.25000000093,"y":2545509.8000000007}},{"attributes":{"ID":383362,"DIS_CODE":0,"TOWNNAME":"北區","LI":"長榮里","LIN":"9鄰","STREET":"長榮路","SECT":"五段","MAREA":" ","LANE":"４１巷","ALLEY":" ","HOUSE_NO":"６號十二樓之５","E_COORD97":170065.25,"N_COORD97":2545509.7999999998,"ADDRESS":"長榮路五段４１巷６號十二樓之５","OBJECTID":383352},"geometry":{"x":170065.25000000093,"y":2545509.8000000007}},{"attributes":{"ID":383363,"DIS_CODE":0,"TOWNNAME":"北區","LI":"長榮里","LIN":"9鄰","STREET":"長榮路","SECT":"五段","MAREA":" ","LANE":"４１巷","ALLEY":" ","HOUSE_NO":"６號十三樓之１","E_COORD97":170065.25,"N_COORD97":2545509.7999999998,"ADDRESS":"長榮路五段４１巷６號十三樓之１","OBJECTID":383353},"geometry":{"x":170065.25000000093,"y":2545509.8000000007}},{"attributes":{"ID":383364,"DIS_CODE":0,"TOWNNAME":"北區","LI":"長榮里","LIN":"9鄰","STREET":"長榮路","SECT":"五段","MAREA":" ","LANE":"４１巷","ALLEY":" ","HOUSE_NO":"６號十三樓之２","E_COORD97":170065.25,"N_COORD97":2545509.7999999998,"ADDRESS":"長榮路五段４１巷６號十三樓之２","OBJECTID":383354},"geometry":{"x":170065.25000000093,"y":2545509.8000000007}},{"attributes":{"ID":383365,"DIS_CODE":0,"TOWNNAME":"北區","LI":"長榮里","LIN":"9鄰","STREET":"長榮路","SECT":"五段","MAREA":" ","LANE":"４１巷","ALLEY":" ","HOUSE_NO":"６號十三樓之３","E_COORD97":170065.25,"N_COORD97":2545509.7999999998,"ADDRESS":"長榮路五段４１巷６號十三樓之３","OBJECTID":383355},"geometry":{"x":170065.25000000093,"y":2545509.8000000007}},{"attributes":{"ID":383366,"DIS_CODE":0,"TOWNNAME":"北區","LI":"長榮里","LIN":"9鄰","STREET":"長榮路","SECT":"五段","MAREA":" ","LANE":"４１巷","ALLEY":" ","HOUSE_NO":"６號十三樓之５","E_COORD97":170065.25,"N_COORD97":2545509.7999999998,"ADDRESS":"長榮路五段４１巷６號十三樓之５","OBJECTID":383356},"geometry":{"x":170065.25000000093,"y":2545509.8000000007}},{"attributes":{"ID":383367,"DIS_CODE":0,"TOWNNAME":"北區","LI":"長榮里","LIN":"9鄰","STREET":"長榮路","SECT":"五段","MAREA":" ","LANE":"４１巷","ALLEY":" ","HOUSE_NO":"６號十四樓之１","E_COORD97":170065.25,"N_COORD97":2545509.7999999998,"ADDRESS":"長榮路五段４１巷６號十四樓之１","OBJECTID":383357},"geometry":{"x":170065.25000000093,"y":2545509.8000000007}},{"attributes":{"ID":383368,"DIS_CODE":0,"TOWNNAME":"北區","LI":"長榮里","LIN":"9鄰","STREET":"長榮路","SECT":"五段","MAREA":" ","LANE":"４１巷","ALLEY":" ","HOUSE_NO":"６號十四樓之２","E_COORD97":170065.25,"N_COORD97":2545509.7999999998,"ADDRESS":"長榮路五段４１巷６號十四樓之２","OBJECTID":383358},"geometry":{"x":170065.25000000093,"y":2545509.8000000007}},{"attributes":{"ID":383369,"DIS_CODE":0,"TOWNNAME":"北區","LI":"長榮里","LIN":"9鄰","STREET":"長榮路","SECT":"五段","MAREA":" ","LANE":"４１巷","ALLEY":" ","HOUSE_NO":"６號十四樓之３","E_COORD97":170065.25,"N_COORD97":2545509.7999999998,"ADDRESS":"長榮路五段４１巷６號十四樓之３","OBJECTID":383359},"geometry":{"x":170065.25000000093,"y":2545509.8000000007}},{"attributes":{"ID":383370,"DIS_CODE":0,"TOWNNAME":"北區","LI":"長榮里","LIN":"9鄰","STREET":"長榮路","SECT":"五段","MAREA":" ","LANE":"４１巷","ALLEY":" ","HOUSE_NO":"６號十四樓之５","E_COORD97":170065.25,"N_COORD97":2545509.7999999998,"ADDRESS":"長榮路五段４１巷６號十四樓之５","OBJECTID":383360},"geometry":{"x":170065.25000000093,"y":2545509.8000000007}},{"attributes":{"ID":383371,"DIS_CODE":0,"TOWNNAME":"新營區","LI":"新東里","LIN":"9鄰","STREET":"東仁街","SECT":" ","MAREA":" ","LANE":"４３巷","ALLEY":" ","HOUSE_NO":"６６號六樓","E_COORD97":181162.29000000001,"N_COORD97":2579678.0600000001,"ADDRESS":"東仁街４３巷６６號六樓","OBJECTID":383361},"geometry":{"x":181162.29000000004,"y":2579678.0600000024}},{"attributes":{"ID":383372,"DIS_CODE":0,"TOWNNAME":"東區","LI":"新東里","LIN":"21鄰","STREET":"裕豐街","SECT":" ","MAREA":" ","LANE":"１６３巷","ALLEY":" ","HOUSE_NO":"２１號","E_COORD97":170640.31,"N_COORD97":2543117.8799999999,"ADDRESS":"裕豐街１６３巷２１號","OBJECTID":383362},"geometry":{"x":170640.31000000052,"y":2543117.879999999}},{"attributes":{"ID":383373,"DIS_CODE":0,"TOWNNAME":"東區","LI":"新東里","LIN":"21鄰","STREET":"裕豐街","SECT":" ","MAREA":" ","LANE":"１６３巷","ALLEY":" ","HOUSE_NO":"２３號","E_COORD97":170634.64000000001,"N_COORD97":2543116.8100000001,"ADDRESS":"裕豐街１６３巷２３號","OBJECTID":383363},"geometry":{"x":170634.6400000006,"y":2543116.8100000005}},{"attributes":{"ID":383374,"DIS_CODE":0,"TOWNNAME":"東區","LI":"新東里","LIN":"21鄰","STREET":"裕豐街","SECT":" ","MAREA":" ","LANE":"１６３巷","ALLEY":" ","HOUSE_NO":"２７號","E_COORD97":170621.76000000001,"N_COORD97":2543114.1099999999,"ADDRESS":"裕豐街１６３巷２７號","OBJECTID":383364},"geometry":{"x":170621.75999999885,"y":2543114.1099999975}},{"attributes":{"ID":383375,"DIS_CODE":0,"TOWNNAME":"東區","LI":"新東里","LIN":"21鄰","STREET":"裕豐街","SECT":" ","MAREA":" ","LANE":"１６３巷","ALLEY":" ","HOUSE_NO":"３１號","E_COORD97":170612.32999999999,"N_COORD97":2543109.52,"ADDRESS":"裕豐街１６３巷３１號","OBJECTID":383365},"geometry":{"x":170612.33000000101,"y":2543109.5200000014}},{"attributes":{"ID":383376,"DIS_CODE":0,"TOWNNAME":"東區","LI":"新東里","LIN":"21鄰","STREET":"裕豐街","SECT":" ","MAREA":" ","LANE":"１６３巷","ALLEY":" ","HOUSE_NO":"３５號","E_COORD97":170614.54000000001,"N_COORD97":2543102.1800000002,"ADDRESS":"裕豐街１６３巷３５號","OBJECTID":383366},"geometry":{"x":170614.54000000004,"y":2543102.1800000016}},{"attributes":{"ID":383377,"DIS_CODE":0,"TOWNNAME":"東區","LI":"新東里","LIN":"21鄰","STREET":"裕豐街","SECT":" ","MAREA":" ","LANE":"１６３巷","ALLEY":" ","HOUSE_NO":"３７號","E_COORD97":170623.64999999999,"N_COORD97":2543106.3599999999,"ADDRESS":"裕豐街１６３巷３７號","OBJECTID":383367},"geometry":{"x":170623.6500000013,"y":2543106.3600000013}},{"attributes":{"ID":383378,"DIS_CODE":0,"TOWNNAME":"東區","LI":"新東里","LIN":"21鄰","STREET":"裕豐街","SECT":" ","MAREA":" ","LANE":"１６３巷","ALLEY":" ","HOUSE_NO":"３９號","E_COORD97":170630.20999999999,"N_COORD97":2543107.3500000001,"ADDRESS":"裕豐街１６３巷３９號","OBJECTID":383368},"geometry":{"x":170630.20999999996,"y":2543107.3500000015}},{"attributes":{"ID":383379,"DIS_CODE":0,"TOWNNAME":"東區","LI":"新東里","LIN":"21鄰","STREET":"裕豐街","SECT":" ","MAREA":" ","LANE":"１６３巷","ALLEY":" ","HOUSE_NO":"４１號","E_COORD97":170636.28,"N_COORD97":2543108.5800000001,"ADDRESS":"裕豐街１６３巷４１號","OBJECTID":383369},"geometry":{"x":170636.28000000119,"y":2543108.5800000038}},{"attributes":{"ID":383380,"DIS_CODE":0,"TOWNNAME":"東區","LI":"新東里","LIN":"21鄰","STREET":"裕豐街","SECT":" ","MAREA":" ","LANE":"１６３巷","ALLEY":" ","HOUSE_NO":"４９號","E_COORD97":170655.98000000001,"N_COORD97":2543097.7599999998,"ADDRESS":"裕豐街１６３巷４９號","OBJECTID":383370},"geometry":{"x":170655.98000000045,"y":2543097.7600000016}},{"attributes":{"ID":383381,"DIS_CODE":0,"TOWNNAME":"東區","LI":"新東里","LIN":"21鄰","STREET":"裕豐街","SECT":" ","MAREA":" ","LANE":"１６３巷","ALLEY":" ","HOUSE_NO":"５１號","E_COORD97":170651.13,"N_COORD97":2543096.04,"ADDRESS":"裕豐街１６３巷５１號","OBJECTID":383371},"geometry":{"x":170651.12999999989,"y":2543096.0399999991}},{"attributes":{"ID":383382,"DIS_CODE":0,"TOWNNAME":"東區","LI":"新東里","LIN":"21鄰","STREET":"裕豐街","SECT":" ","MAREA":" ","LANE":"１６３巷","ALLEY":" ","HOUSE_NO":"５３號","E_COORD97":170646.79000000001,"N_COORD97":2543094.9700000002,"ADDRESS":"裕豐街１６３巷５３號","OBJECTID":383372},"geometry":{"x":170646.79000000004,"y":2543094.9700000007}},{"attributes":{"ID":383383,"DIS_CODE":0,"TOWNNAME":"東區","LI":"新東里","LIN":"21鄰","STREET":"裕豐街","SECT":" ","MAREA":" ","LANE":"１６３巷","ALLEY":" ","HOUSE_NO":"５５號","E_COORD97":170642.67999999999,"N_COORD97":2543093.8999999999,"ADDRESS":"裕豐街１６３巷５５號","OBJECTID":383373},"geometry":{"x":170642.68000000156,"y":2543093.9000000022}},{"attributes":{"ID":383384,"DIS_CODE":0,"TOWNNAME":"東區","LI":"新東里","LIN":"21鄰","STREET":"裕豐街","SECT":" ","MAREA":" ","LANE":"１６３巷","ALLEY":" ","HOUSE_NO":"５７號","E_COORD97":170638.09,"N_COORD97":2543092.9199999999,"ADDRESS":"裕豐街１６３巷５７號","OBJECTID":383374},"geometry":{"x":170638.08999999985,"y":2543092.9200000018}},{"attributes":{"ID":383385,"DIS_CODE":0,"TOWNNAME":"東區","LI":"新東里","LIN":"21鄰","STREET":"裕豐街","SECT":" ","MAREA":" ","LANE":"１６３巷","ALLEY":" ","HOUSE_NO":"５９號","E_COORD97":170633.57999999999,"N_COORD97":2543091.8599999999,"ADDRESS":"裕豐街１６３巷５９號","OBJECTID":383375},"geometry":{"x":170633.58000000194,"y":2543091.8599999994}},{"attributes":{"ID":383386,"DIS_CODE":0,"TOWNNAME":"東區","LI":"新東里","LIN":"21鄰","STREET":"裕豐街","SECT":" ","MAREA":" ","LANE":"１６３巷","ALLEY":" ","HOUSE_NO":"６１號","E_COORD97":170628.73999999999,"N_COORD97":2543091.1200000001,"ADDRESS":"裕豐街１６３巷６１號","OBJECTID":383376},"geometry":{"x":170628.74000000022,"y":2543091.120000001}},{"attributes":{"ID":383387,"DIS_CODE":0,"TOWNNAME":"東區","LI":"新東里","LIN":"21鄰","STREET":"裕豐街","SECT":" ","MAREA":" ","LANE":"１６３巷","ALLEY":" ","HOUSE_NO":"６３號","E_COORD97":170624.31,"N_COORD97":2543089.9700000002,"ADDRESS":"裕豐街１６３巷６３號","OBJECTID":383377},"geometry":{"x":170624.30999999959,"y":2543089.9700000025}},{"attributes":{"ID":383388,"DIS_CODE":0,"TOWNNAME":"東區","LI":"中西里","LIN":"6鄰","STREET":"勝利路","SECT":" ","MAREA":" ","LANE":"１２巷","ALLEY":" ","HOUSE_NO":"５１號","E_COORD97":169929.84,"N_COORD97":2543400.3799999999,"ADDRESS":"勝利路１２巷５１號","OBJECTID":383378},"geometry":{"x":169929.84000000171,"y":2543400.3800000027}},{"attributes":{"ID":383389,"DIS_CODE":0,"TOWNNAME":"東區","LI":"中西里","LIN":"6鄰","STREET":"勝利路","SECT":" ","MAREA":" ","LANE":"１２巷","ALLEY":" ","HOUSE_NO":"５３號","E_COORD97":169929.84,"N_COORD97":2543396.8999999999,"ADDRESS":"勝利路１２巷５３號","OBJECTID":383379},"geometry":{"x":169929.84000000171,"y":2543396.9000000004}},{"attributes":{"ID":383390,"DIS_CODE":0,"TOWNNAME":"東區","LI":"中西里","LIN":"6鄰","STREET":"勝利路","SECT":" ","MAREA":" ","LANE":"１２巷","ALLEY":" ","HOUSE_NO":"５５號","E_COORD97":169930.39000000001,"N_COORD97":2543393.0499999998,"ADDRESS":"勝利路１２巷５５號","OBJECTID":383380},"geometry":{"x":169930.38999999966,"y":2543393.0500000007}},{"attributes":{"ID":383391,"DIS_CODE":0,"TOWNNAME":"東區","LI":"中西里","LIN":"6鄰","STREET":"勝利路","SECT":" ","MAREA":" ","LANE":"１２巷","ALLEY":" ","HOUSE_NO":"５７號","E_COORD97":169930.39000000001,"N_COORD97":2543389.75,"ADDRESS":"勝利路１２巷５７號","OBJECTID":383381},"geometry":{"x":169930.38999999966,"y":2543389.7500000019}},{"attributes":{"ID":383392,"DIS_CODE":0,"TOWNNAME":"東區","LI":"中西里","LIN":"6鄰","STREET":"勝利路","SECT":" ","MAREA":" ","LANE":"１２巷","ALLEY":" ","HOUSE_NO":"５９號","E_COORD97":169930.39000000001,"N_COORD97":2543384.98,"ADDRESS":"勝利路１２巷５９號","OBJECTID":383382},"geometry":{"x":169930.38999999966,"y":2543384.9800000023}},{"attributes":{"ID":383393,"DIS_CODE":0,"TOWNNAME":"東區","LI":"中西里","LIN":"4鄰","STREET":"勝利路","SECT":" ","MAREA":" ","LANE":"１２巷","ALLEY":" ","HOUSE_NO":"３７號","E_COORD97":169925.62,"N_COORD97":2543371.6000000001,"ADDRESS":"勝利路１２巷３７號","OBJECTID":383383},"geometry":{"x":169925.62000000011,"y":2543371.5999999996}},{"attributes":{"ID":383394,"DIS_CODE":0,"TOWNNAME":"東區","LI":"中西里","LIN":"4鄰","STREET":"勝利路","SECT":" ","MAREA":" ","LANE":"１２巷","ALLEY":" ","HOUSE_NO":"３９號","E_COORD97":169924.70000000001,"N_COORD97":2543379.6600000001,"ADDRESS":"勝利路１２巷３９號","OBJECTID":383384},"geometry":{"x":169924.70000000112,"y":2543379.660000002}},{"attributes":{"ID":383395,"DIS_CODE":0,"TOWNNAME":"東區","LI":"中西里","LIN":"4鄰","STREET":"勝利路","SECT":" ","MAREA":" ","LANE":"１２巷","ALLEY":" ","HOUSE_NO":"４３號","E_COORD97":169924.70000000001,"N_COORD97":2543396.3500000001,"ADDRESS":"勝利路１２巷４３號","OBJECTID":383385},"geometry":{"x":169924.70000000112,"y":2543396.3499999996}},{"attributes":{"ID":383396,"DIS_CODE":0,"TOWNNAME":"東區","LI":"中西里","LIN":"15鄰","STREET":"長榮路","SECT":"二段","MAREA":" ","LANE":"７１巷","ALLEY":" ","HOUSE_NO":"１號之１","E_COORD97":170046.78,"N_COORD97":2543409.75,"ADDRESS":"長榮路二段７１巷１號之１","OBJECTID":383386},"geometry":{"x":170046.78000000026,"y":2543409.7500000019}},{"attributes":{"ID":383397,"DIS_CODE":0,"TOWNNAME":"東區","LI":"東安里","LIN":"12鄰","STREET":"長榮路","SECT":"二段","MAREA":" ","LANE":"３２巷","ALLEY":" ","HOUSE_NO":"９０號之１","E_COORD97":170139.07999999999,"N_COORD97":2543197.9300000002,"ADDRESS":"長榮路二段３２巷９０號之１","OBJECTID":383387},"geometry":{"x":170139.08000000101,"y":2543197.9300000016}},{"attributes":{"ID":383398,"DIS_CODE":0,"TOWNNAME":"北區","LI":"大仁里","LIN":"9鄰","STREET":"北門路","SECT":"二段","MAREA":" ","LANE":"１９１巷","ALLEY":" ","HOUSE_NO":"３號二樓","E_COORD97":169445.45000000001,"N_COORD97":2545227.98,"ADDRESS":"北門路二段１９１巷３號二樓","OBJECTID":383388},"geometry":{"x":169445.45000000019,"y":2545227.9800000004}},{"attributes":{"ID":383399,"DIS_CODE":0,"TOWNNAME":"北區","LI":"大仁里","LIN":"9鄰","STREET":"北門路","SECT":"二段","MAREA":" ","LANE":"１９１巷","ALLEY":" ","HOUSE_NO":"３號三樓","E_COORD97":169445.45000000001,"N_COORD97":2545227.98,"ADDRESS":"北門路二段１９１巷３號三樓","OBJECTID":383389},"geometry":{"x":169445.45000000019,"y":2545227.9800000004}},{"attributes":{"ID":383400,"DIS_CODE":0,"TOWNNAME":"北區","LI":"大仁里","LIN":"9鄰","STREET":"北門路","SECT":"二段","MAREA":" ","LANE":"１９１巷","ALLEY":" ","HOUSE_NO":"３號五樓","E_COORD97":169445.45000000001,"N_COORD97":2545227.98,"ADDRESS":"北門路二段１９１巷３號五樓","OBJECTID":383390},"geometry":{"x":169445.45000000019,"y":2545227.9800000004}},{"attributes":{"ID":383401,"DIS_CODE":0,"TOWNNAME":"北區","LI":"大仁里","LIN":"9鄰","STREET":"北門路","SECT":"二段","MAREA":" ","LANE":"１９１巷","ALLEY":" ","HOUSE_NO":"３號四樓","E_COORD97":169445.45000000001,"N_COORD97":2545227.98,"ADDRESS":"北門路二段１９１巷３號四樓","OBJECTID":383391},"geometry":{"x":169445.45000000019,"y":2545227.9800000004}},{"attributes":{"ID":383402,"DIS_CODE":0,"TOWNNAME":"北區","LI":"大仁里","LIN":"9鄰","STREET":"北門路","SECT":"二段","MAREA":" ","LANE":"１９１巷","ALLEY":" ","HOUSE_NO":"５號二樓","E_COORD97":169435.97,"N_COORD97":2545221.9700000002,"ADDRESS":"北門路二段１９１巷５號二樓","OBJECTID":383392},"geometry":{"x":169435.97000000067,"y":2545221.9700000044}},{"attributes":{"ID":383403,"DIS_CODE":0,"TOWNNAME":"北區","LI":"大仁里","LIN":"9鄰","STREET":"北門路","SECT":"二段","MAREA":" ","LANE":"１９１巷","ALLEY":" ","HOUSE_NO":"５號三樓","E_COORD97":169435.97,"N_COORD97":2545221.9700000002,"ADDRESS":"北門路二段１９１巷５號三樓","OBJECTID":383393},"geometry":{"x":169435.97000000067,"y":2545221.9700000044}},{"attributes":{"ID":383404,"DIS_CODE":0,"TOWNNAME":"東區","LI":"裕農里","LIN":"12鄰","STREET":"東寧路","SECT":" ","MAREA":" ","LANE":"４７２巷","ALLEY":" ","HOUSE_NO":"５號","E_COORD97":171046.5,"N_COORD97":2543279.7599999998,"ADDRESS":"東寧路４７２巷５號","OBJECTID":383394},"geometry":{"x":171046.50000000093,"y":2543279.7600000035}},{"attributes":{"ID":383405,"DIS_CODE":0,"TOWNNAME":"北區","LI":"大仁里","LIN":"9鄰","STREET":"北門路","SECT":"二段","MAREA":" ","LANE":"１９１巷","ALLEY":" ","HOUSE_NO":"５號五樓","E_COORD97":169435.97,"N_COORD97":2545221.9700000002,"ADDRESS":"北門路二段１９１巷５號五樓","OBJECTID":383395},"geometry":{"x":169435.97000000067,"y":2545221.9700000044}},{"attributes":{"ID":383406,"DIS_CODE":0,"TOWNNAME":"北區","LI":"大仁里","LIN":"9鄰","STREET":"北門路","SECT":"二段","MAREA":" ","LANE":"１９１巷","ALLEY":" ","HOUSE_NO":"５號四樓","E_COORD97":169435.97,"N_COORD97":2545221.9700000002,"ADDRESS":"北門路二段１９１巷５號四樓","OBJECTID":383396},"geometry":{"x":169435.97000000067,"y":2545221.9700000044}},{"attributes":{"ID":383407,"DIS_CODE":0,"TOWNNAME":"安平區","LI":"平安里","LIN":"9鄰","STREET":"安平路","SECT":" ","MAREA":" ","LANE":"４２６巷","ALLEY":" ","HOUSE_NO":"１８號五樓之１","E_COORD97":165352.09,"N_COORD97":2544386.6099999999,"ADDRESS":"安平路４２６巷１８號五樓之１","OBJECTID":383397},"geometry":{"x":165352.08999999985,"y":2544386.6100000013}},{"attributes":{"ID":383408,"DIS_CODE":0,"TOWNNAME":"安平區","LI":"平安里","LIN":"9鄰","STREET":"安平路","SECT":" ","MAREA":" ","LANE":"４２６巷","ALLEY":" ","HOUSE_NO":"１８號五樓之２","E_COORD97":165352.09,"N_COORD97":2544386.6099999999,"ADDRESS":"安平路４２６巷１８號五樓之２","OBJECTID":383398},"geometry":{"x":165352.08999999985,"y":2544386.6100000013}},{"attributes":{"ID":383409,"DIS_CODE":0,"TOWNNAME":"安平區","LI":"平安里","LIN":"9鄰","STREET":"安平路","SECT":" ","MAREA":" ","LANE":"４２６巷","ALLEY":" ","HOUSE_NO":"１８號四樓之１","E_COORD97":165352.09,"N_COORD97":2544386.6099999999,"ADDRESS":"安平路４２６巷１８號四樓之１","OBJECTID":383399},"geometry":{"x":165352.08999999985,"y":2544386.6100000013}},{"attributes":{"ID":383410,"DIS_CODE":0,"TOWNNAME":"安平區","LI":"平安里","LIN":"9鄰","STREET":"安平路","SECT":" ","MAREA":" ","LANE":"４２６巷","ALLEY":" ","HOUSE_NO":"１８號四樓之２","E_COORD97":165352.09,"N_COORD97":2544386.6099999999,"ADDRESS":"安平路４２６巷１８號四樓之２","OBJECTID":383400},"geometry":{"x":165352.08999999985,"y":2544386.6100000013}}]}