{"displayFieldName":"TOWNNAME","fieldAliases":{"ID":"ID","DIS_CODE":"DIS_CODE","TOWNNAME":"TOWNNAME","LI":"LI","LIN":"LIN","STREET":"STREET","SECT":"SECT","MAREA":"MAREA","LANE":"LANE","ALLEY":"ALLEY","HOUSE_NO":"HOUSE_NO","E_COORD97":"E_COORD97","N_COORD97":"N_COORD97","ADDRESS":"ADDRESS","OBJECTID":"OBJECTID"},"geometryType":"esriGeometryPoint","spatialReference":{"wkid":102443,"latestWkid":3826},"fields":[{"name":"ID","type":"esriFieldTypeDouble","alias":"ID"},{"name":"DIS_CODE","type":"esriFieldTypeInteger","alias":"DIS_CODE"},{"name":"TOWNNAME","type":"esriFieldTypeString","alias":"TOWNNAME","length":8},{"name":"LI","type":"esriFieldTypeString","alias":"LI","length":8},{"name":"LIN","type":"esriFieldTypeString","alias":"LIN","length":12},{"name":"STREET","type":"esriFieldTypeString","alias":"STREET","length":20},{"name":"SECT","type":"esriFieldTypeString","alias":"SECT","length":8},{"name":"MAREA","type":"esriFieldTypeString","alias":"MAREA","length":12},{"name":"LANE","type":"esriFieldTypeString","alias":"LANE","length":10},{"name":"ALLEY","type":"esriFieldTypeString","alias":"ALLEY","length":10},{"name":"HOUSE_NO","type":"esriFieldTypeString","alias":"HOUSE_NO","length":20},{"name":"E_COORD97","type":"esriFieldTypeDouble","alias":"E_COORD97"},{"name":"N_COORD97","type":"esriFieldTypeDouble","alias":"N_COORD97"},{"name":"ADDRESS","type":"esriFieldTypeString","alias":"ADDRESS","length":50},{"name":"OBJECTID","type":"esriFieldTypeOID","alias":"OBJECTID"}],"features":[{"attributes":{"ID":27201,"DIS_CODE":0,"TOWNNAME":"官田區","LI":"隆本里","LIN":"17鄰","STREET":"興隆街","SECT":" ","MAREA":" ","LANE":"５１巷","ALLEY":"６弄","HOUSE_NO":"１１號","E_COORD97":179898.92999999999,"N_COORD97":2566327.04,"ADDRESS":"興隆街５１巷６弄１１號","OBJECTID":27201},"geometry":{"x":179898.93000000063,"y":2566327.0399999991}},{"attributes":{"ID":27202,"DIS_CODE":0,"TOWNNAME":"官田區","LI":"隆本里","LIN":"17鄰","STREET":"興隆街","SECT":" ","MAREA":" ","LANE":"５１巷","ALLEY":"６弄","HOUSE_NO":"１２號","E_COORD97":179901,"N_COORD97":2566338.8199999998,"ADDRESS":"興隆街５１巷６弄１２號","OBJECTID":27202},"geometry":{"x":179901,"y":2566338.8200000022}},{"attributes":{"ID":27203,"DIS_CODE":0,"TOWNNAME":"永康區","LI":"埔園里","LIN":"34鄰","STREET":"永大路","SECT":"三段","MAREA":" ","LANE":" ","ALLEY":" ","HOUSE_NO":"５４２號","E_COORD97":174085.14000000001,"N_COORD97":2548605.7799999998,"ADDRESS":"永大路三段５４２號","OBJECTID":27203},"geometry":{"x":174085.13999999966,"y":2548605.7800000012}},{"attributes":{"ID":27204,"DIS_CODE":0,"TOWNNAME":"西港區","LI":"慶安里","LIN":"34鄰","STREET":"中山路","SECT":" ","MAREA":" ","LANE":" ","ALLEY":" ","HOUSE_NO":"９９號之１","E_COORD97":168452.75,"N_COORD97":2557415.8399999999,"ADDRESS":"中山路９９號之１","OBJECTID":27204},"geometry":{"x":168452.75000000093,"y":2557415.8399999999}},{"attributes":{"ID":27205,"DIS_CODE":0,"TOWNNAME":"新營區","LI":"埤寮里","LIN":"13鄰","STREET":"中正路","SECT":" ","MAREA":" ","LANE":" ","ALLEY":" ","HOUSE_NO":"４１１號","E_COORD97":180046.81,"N_COORD97":2580222.6000000001,"ADDRESS":"中正路４１１號","OBJECTID":27205},"geometry":{"x":180046.81000000052,"y":2580222.6000000015}},{"attributes":{"ID":27206,"DIS_CODE":0,"TOWNNAME":"官田區","LI":"隆本里","LIN":"17鄰","STREET":"興隆街","SECT":" ","MAREA":" ","LANE":"５１巷","ALLEY":"６弄","HOUSE_NO":"１３號","E_COORD97":179892.56,"N_COORD97":2566325.6000000001,"ADDRESS":"興隆街５１巷６弄１３號","OBJECTID":27206},"geometry":{"x":179892.56000000052,"y":2566325.6000000015}},{"attributes":{"ID":27207,"DIS_CODE":0,"TOWNNAME":"官田區","LI":"隆本里","LIN":"17鄰","STREET":"興隆街","SECT":" ","MAREA":" ","LANE":"５１巷","ALLEY":"６弄","HOUSE_NO":"１５號","E_COORD97":179886.45000000001,"N_COORD97":2566324.02,"ADDRESS":"興隆街５１巷６弄１５號","OBJECTID":27207},"geometry":{"x":179886.45000000019,"y":2566324.0199999996}},{"attributes":{"ID":27208,"DIS_CODE":0,"TOWNNAME":"官田區","LI":"隆本里","LIN":"17鄰","STREET":"興隆街","SECT":" ","MAREA":" ","LANE":"５１巷","ALLEY":"６弄","HOUSE_NO":"１６號","E_COORD97":179894.82999999999,"N_COORD97":2566337.46,"ADDRESS":"興隆街５１巷６弄１６號","OBJECTID":27208},"geometry":{"x":179894.83000000101,"y":2566337.4600000046}},{"attributes":{"ID":27209,"DIS_CODE":0,"TOWNNAME":"官田區","LI":"隆本里","LIN":"17鄰","STREET":"興隆街","SECT":" ","MAREA":" ","LANE":"５１巷","ALLEY":"６弄","HOUSE_NO":"１８號","E_COORD97":179888.32999999999,"N_COORD97":2566335.6499999999,"ADDRESS":"興隆街５１巷６弄１８號","OBJECTID":27209},"geometry":{"x":179888.33000000101,"y":2566335.6500000041}},{"attributes":{"ID":27210,"DIS_CODE":0,"TOWNNAME":"官田區","LI":"隆本里","LIN":"17鄰","STREET":"興隆街","SECT":" ","MAREA":" ","LANE":"５１巷","ALLEY":"６弄","HOUSE_NO":"２０號","E_COORD97":179881.56,"N_COORD97":2566333.9500000002,"ADDRESS":"興隆街５１巷６弄２０號","OBJECTID":27210},"geometry":{"x":179881.55999999959,"y":2566333.9500000011}},{"attributes":{"ID":27211,"DIS_CODE":0,"TOWNNAME":"新營區","LI":"太北里","LIN":"16鄰","STREET":" ","SECT":" ","MAREA":"太子宮","LANE":" ","ALLEY":" ","HOUSE_NO":"１３２號之４","E_COORD97":175907.11949300001,"N_COORD97":2576893.7740000002,"ADDRESS":"太子宮１３２號之４","OBJECTID":27211},"geometry":{"x":175907.11949300021,"y":2576893.7739959992}},{"attributes":{"ID":27212,"DIS_CODE":0,"TOWNNAME":"新市區","LI":"大社里","LIN":"34鄰","STREET":" ","SECT":" ","MAREA":"大社","LANE":" ","ALLEY":" ","HOUSE_NO":"５０１之１２號","E_COORD97":179824.20999999999,"N_COORD97":2554969.5499999998,"ADDRESS":"大社５０１之１２號","OBJECTID":27212},"geometry":{"x":179824.21000000089,"y":2554969.5500000026}},{"attributes":{"ID":27213,"DIS_CODE":0,"TOWNNAME":"新市區","LI":"大社里","LIN":"34鄰","STREET":" ","SECT":" ","MAREA":"大社","LANE":" ","ALLEY":" ","HOUSE_NO":"５０１之９號","E_COORD97":179856.48000000001,"N_COORD97":2554941.7999999998,"ADDRESS":"大社５０１之９號","OBJECTID":27213},"geometry":{"x":179856.48000000231,"y":2554941.8000000007}},{"attributes":{"ID":27214,"DIS_CODE":0,"TOWNNAME":"新市區","LI":"大社里","LIN":"34鄰","STREET":" ","SECT":" ","MAREA":"大社","LANE":" ","ALLEY":" ","HOUSE_NO":"５０１之１１號","E_COORD97":179829.26000000001,"N_COORD97":2554970.0499999998,"ADDRESS":"大社５０１之１１號","OBJECTID":27214},"geometry":{"x":179829.26000000071,"y":2554970.0500000026}},{"attributes":{"ID":27215,"DIS_CODE":0,"TOWNNAME":"學甲區","LI":"新榮里","LIN":"8鄰","STREET":" ","SECT":" ","MAREA":"東竹圍","LANE":" ","ALLEY":" ","HOUSE_NO":"１６號之２","E_COORD97":166875.54000000001,"N_COORD97":2570002.8999999999,"ADDRESS":"東竹圍１６號之２","OBJECTID":27215},"geometry":{"x":166875.5400000019,"y":2570002.9000000022}},{"attributes":{"ID":27216,"DIS_CODE":0,"TOWNNAME":"學甲區","LI":"新榮里","LIN":"8鄰","STREET":" ","SECT":" ","MAREA":"東竹圍","LANE":" ","ALLEY":" ","HOUSE_NO":"１６號之３","E_COORD97":166879.87,"N_COORD97":2570001.9900000002,"ADDRESS":"東竹圍１６號之３","OBJECTID":27216},"geometry":{"x":166879.87000000011,"y":2570001.9900000021}},{"attributes":{"ID":27217,"DIS_CODE":0,"TOWNNAME":"學甲區","LI":"新榮里","LIN":"8鄰","STREET":" ","SECT":" ","MAREA":"東竹圍","LANE":" ","ALLEY":" ","HOUSE_NO":"１６號之４","E_COORD97":166883.72,"N_COORD97":2570001.9500000002,"ADDRESS":"東竹圍１６號之４","OBJECTID":27217},"geometry":{"x":166883.71999999974,"y":2570001.9500000011}},{"attributes":{"ID":27218,"DIS_CODE":0,"TOWNNAME":"學甲區","LI":"新榮里","LIN":"8鄰","STREET":" ","SECT":" ","MAREA":"東竹圍","LANE":" ","ALLEY":" ","HOUSE_NO":"１６號之５","E_COORD97":166887.69,"N_COORD97":2570001.6499999999,"ADDRESS":"東竹圍１６號之５","OBJECTID":27218},"geometry":{"x":166887.69000000041,"y":2570001.6500000022}},{"attributes":{"ID":27219,"DIS_CODE":0,"TOWNNAME":"學甲區","LI":"新榮里","LIN":"8鄰","STREET":" ","SECT":" ","MAREA":"東竹圍","LANE":" ","ALLEY":" ","HOUSE_NO":"１６號之６","E_COORD97":166892.06,"N_COORD97":2570001.52,"ADDRESS":"東竹圍１６號之６","OBJECTID":27219},"geometry":{"x":166892.06000000052,"y":2570001.5200000014}},{"attributes":{"ID":27220,"DIS_CODE":0,"TOWNNAME":"學甲區","LI":"新榮里","LIN":"8鄰","STREET":" ","SECT":" ","MAREA":"東竹圍","LANE":" ","ALLEY":" ","HOUSE_NO":"１６號之７","E_COORD97":166860.45999999999,"N_COORD97":2569984.0099999998,"ADDRESS":"東竹圍１６號之７","OBJECTID":27220},"geometry":{"x":166860.45999999996,"y":2569984.0100000035}},{"attributes":{"ID":27221,"DIS_CODE":0,"TOWNNAME":"學甲區","LI":"新榮里","LIN":"8鄰","STREET":" ","SECT":" ","MAREA":"東竹圍","LANE":" ","ALLEY":" ","HOUSE_NO":"１６號之８","E_COORD97":166864.98000000001,"N_COORD97":2569983.3900000001,"ADDRESS":"東竹圍１６號之８","OBJECTID":27221},"geometry":{"x":166864.98000000138,"y":2569983.3900000025}},{"attributes":{"ID":27222,"DIS_CODE":0,"TOWNNAME":"學甲區","LI":"新榮里","LIN":"8鄰","STREET":" ","SECT":" ","MAREA":"東竹圍","LANE":" ","ALLEY":" ","HOUSE_NO":"１６號之９","E_COORD97":166868.88,"N_COORD97":2569982.8900000001,"ADDRESS":"東竹圍１６號之９","OBJECTID":27222},"geometry":{"x":166868.87999999989,"y":2569982.8900000025}},{"attributes":{"ID":27223,"DIS_CODE":0,"TOWNNAME":"學甲區","LI":"新榮里","LIN":"8鄰","STREET":" ","SECT":" ","MAREA":"東竹圍","LANE":" ","ALLEY":" ","HOUSE_NO":"１８號","E_COORD97":166835.70000000001,"N_COORD97":2570073.48,"ADDRESS":"東竹圍１８號","OBJECTID":27223},"geometry":{"x":166835.70000000205,"y":2570073.4800000023}},{"attributes":{"ID":27224,"DIS_CODE":0,"TOWNNAME":"學甲區","LI":"新榮里","LIN":"8鄰","STREET":" ","SECT":" ","MAREA":"東竹圍","LANE":" ","ALLEY":" ","HOUSE_NO":"２０號","E_COORD97":166786.41,"N_COORD97":2570050.5800000001,"ADDRESS":"東竹圍２０號","OBJECTID":27224},"geometry":{"x":166786.41000000015,"y":2570050.5800000001}},{"attributes":{"ID":27225,"DIS_CODE":0,"TOWNNAME":"學甲區","LI":"新榮里","LIN":"8鄰","STREET":" ","SECT":" ","MAREA":"東竹圍","LANE":" ","ALLEY":" ","HOUSE_NO":"２１號之１","E_COORD97":166836.56,"N_COORD97":2570124.8100000001,"ADDRESS":"東竹圍２１號之１","OBJECTID":27225},"geometry":{"x":166836.56000000052,"y":2570124.8100000005}},{"attributes":{"ID":27226,"DIS_CODE":0,"TOWNNAME":"學甲區","LI":"新榮里","LIN":"8鄰","STREET":" ","SECT":" ","MAREA":"東竹圍","LANE":" ","ALLEY":" ","HOUSE_NO":"２１號之３","E_COORD97":166815.04999999999,"N_COORD97":2570132.8500000001,"ADDRESS":"東竹圍２１號之３","OBJECTID":27226},"geometry":{"x":166815.05000000075,"y":2570132.8499999996}},{"attributes":{"ID":27227,"DIS_CODE":0,"TOWNNAME":"學甲區","LI":"新榮里","LIN":"8鄰","STREET":" ","SECT":" ","MAREA":"東竹圍","LANE":" ","ALLEY":" ","HOUSE_NO":"２１號","E_COORD97":166814.63,"N_COORD97":2570097.3999999999,"ADDRESS":"東竹圍２１號","OBJECTID":27227},"geometry":{"x":166814.62999999989,"y":2570097.4000000041}},{"attributes":{"ID":27228,"DIS_CODE":0,"TOWNNAME":"學甲區","LI":"新榮里","LIN":"8鄰","STREET":" ","SECT":" ","MAREA":"東竹圍","LANE":" ","ALLEY":" ","HOUSE_NO":"２２號","E_COORD97":166796.69,"N_COORD97":2570105.4700000002,"ADDRESS":"東竹圍２２號","OBJECTID":27228},"geometry":{"x":166796.69000000041,"y":2570105.4700000025}},{"attributes":{"ID":27229,"DIS_CODE":0,"TOWNNAME":"學甲區","LI":"新榮里","LIN":"8鄰","STREET":" ","SECT":" ","MAREA":"東竹圍","LANE":" ","ALLEY":" ","HOUSE_NO":"２３號","E_COORD97":166785.32000000001,"N_COORD97":2570108.9700000002,"ADDRESS":"東竹圍２３號","OBJECTID":27229},"geometry":{"x":166785.3200000003,"y":2570108.9700000025}},{"attributes":{"ID":27230,"DIS_CODE":0,"TOWNNAME":"學甲區","LI":"新榮里","LIN":"8鄰","STREET":" ","SECT":" ","MAREA":"東竹圍","LANE":" ","ALLEY":" ","HOUSE_NO":"２４號","E_COORD97":166799.98999999999,"N_COORD97":2570083.71,"ADDRESS":"東竹圍２４號","OBJECTID":27230},"geometry":{"x":166799.99000000115,"y":2570083.7100000028}},{"attributes":{"ID":27231,"DIS_CODE":0,"TOWNNAME":"學甲區","LI":"新榮里","LIN":"8鄰","STREET":" ","SECT":" ","MAREA":"東竹圍","LANE":" ","ALLEY":" ","HOUSE_NO":"２５號","E_COORD97":166778.41,"N_COORD97":2570086.2200000002,"ADDRESS":"東竹圍２５號","OBJECTID":27231},"geometry":{"x":166778.41000000108,"y":2570086.2200000025}},{"attributes":{"ID":27232,"DIS_CODE":0,"TOWNNAME":"學甲區","LI":"新榮里","LIN":"8鄰","STREET":" ","SECT":" ","MAREA":"東竹圍","LANE":" ","ALLEY":" ","HOUSE_NO":"２６號之１","E_COORD97":166757.13,"N_COORD97":2570095.0899999999,"ADDRESS":"東竹圍２６號之１","OBJECTID":27232},"geometry":{"x":166757.12999999989,"y":2570095.0899999999}},{"attributes":{"ID":27233,"DIS_CODE":0,"TOWNNAME":"西港區","LI":"慶安里","LIN":"34鄰","STREET":"中山路","SECT":" ","MAREA":" ","LANE":" ","ALLEY":" ","HOUSE_NO":"９１號","E_COORD97":168459.51999999999,"N_COORD97":2557376.3999999999,"ADDRESS":"中山路９１號","OBJECTID":27233},"geometry":{"x":168459.51999999955,"y":2557376.3999999985}},{"attributes":{"ID":27234,"DIS_CODE":0,"TOWNNAME":"西港區","LI":"慶安里","LIN":"34鄰","STREET":"中山路","SECT":" ","MAREA":" ","LANE":" ","ALLEY":" ","HOUSE_NO":"９３之１號","E_COORD97":168457.20999999999,"N_COORD97":2557388.7000000002,"ADDRESS":"中山路９３之１號","OBJECTID":27234},"geometry":{"x":168457.20999999996,"y":2557388.6999999993}},{"attributes":{"ID":27235,"DIS_CODE":0,"TOWNNAME":"新營區","LI":"嘉芳里","LIN":"4鄰","STREET":"嘉芳街","SECT":" ","MAREA":" ","LANE":" ","ALLEY":" ","HOUSE_NO":"１３２號","E_COORD97":176975.45999999999,"N_COORD97":2578361.3999999999,"ADDRESS":"嘉芳街１３２號","OBJECTID":27235},"geometry":{"x":176975.45999999996,"y":2578361.4000000004}},{"attributes":{"ID":27236,"DIS_CODE":0,"TOWNNAME":"新營區","LI":"民榮里","LIN":" ","STREET":"新進路","SECT":"二段","MAREA":" ","LANE":" ","ALLEY":" ","HOUSE_NO":"３８５之１號","E_COORD97":178705.32999999999,"N_COORD97":2577862.4300000002,"ADDRESS":"新進路二段３８５之１號","OBJECTID":27236},"geometry":{"x":178705.33000000007,"y":2577862.4299999997}},{"attributes":{"ID":27237,"DIS_CODE":0,"TOWNNAME":"新營區","LI":"民榮里","LIN":" ","STREET":"裕民路","SECT":" ","MAREA":" ","LANE":" ","ALLEY":" ","HOUSE_NO":"２５之８號","E_COORD97":179192.57000000001,"N_COORD97":2577771.4900000002,"ADDRESS":"裕民路２５之８號","OBJECTID":27237},"geometry":{"x":179192.5700000003,"y":2577771.4900000002}},{"attributes":{"ID":27238,"DIS_CODE":0,"TOWNNAME":"官田區","LI":"隆本里","LIN":"17鄰","STREET":"興隆街","SECT":" ","MAREA":" ","LANE":"５１巷","ALLEY":"６弄","HOUSE_NO":"５號","E_COORD97":179916.95999999999,"N_COORD97":2566330.9199999999,"ADDRESS":"興隆街５１巷６弄５號","OBJECTID":27238},"geometry":{"x":179916.95999999996,"y":2566330.9200000018}},{"attributes":{"ID":27239,"DIS_CODE":0,"TOWNNAME":"官田區","LI":"隆本里","LIN":"17鄰","STREET":"興隆街","SECT":" ","MAREA":" ","LANE":"５１巷","ALLEY":"６弄","HOUSE_NO":"６號","E_COORD97":179920.95999999999,"N_COORD97":2566343.0899999999,"ADDRESS":"興隆街５１巷６弄６號","OBJECTID":27239},"geometry":{"x":179920.96000000089,"y":2566343.0900000017}},{"attributes":{"ID":27240,"DIS_CODE":0,"TOWNNAME":"官田區","LI":"隆本里","LIN":"17鄰","STREET":"興隆街","SECT":" ","MAREA":" ","LANE":"５１巷","ALLEY":"６弄","HOUSE_NO":"７號","E_COORD97":179911.09,"N_COORD97":2566329.5699999998,"ADDRESS":"興隆街５１巷６弄７號","OBJECTID":27240},"geometry":{"x":179911.09000000171,"y":2566329.570000004}},{"attributes":{"ID":27241,"DIS_CODE":0,"TOWNNAME":"官田區","LI":"隆本里","LIN":"17鄰","STREET":"興隆街","SECT":" ","MAREA":" ","LANE":"５１巷","ALLEY":"６弄","HOUSE_NO":"８號","E_COORD97":179914.42999999999,"N_COORD97":2566341.5800000001,"ADDRESS":"興隆街５１巷６弄８號","OBJECTID":27241},"geometry":{"x":179914.43000000063,"y":2566341.5800000001}},{"attributes":{"ID":27242,"DIS_CODE":0,"TOWNNAME":"官田區","LI":"隆本里","LIN":"17鄰","STREET":"興隆街","SECT":" ","MAREA":" ","LANE":"５１巷","ALLEY":"６弄","HOUSE_NO":"９號","E_COORD97":179905.07999999999,"N_COORD97":2566328.5800000001,"ADDRESS":"興隆街５１巷６弄９號","OBJECTID":27242},"geometry":{"x":179905.08000000101,"y":2566328.5800000001}},{"attributes":{"ID":27243,"DIS_CODE":0,"TOWNNAME":"永康區","LI":"五王里","LIN":"17鄰","STREET":"成功路","SECT":" ","MAREA":" ","LANE":"１７２巷","ALLEY":"７６弄","HOUSE_NO":"１７號","E_COORD97":171618.28,"N_COORD97":2545794.77,"ADDRESS":"成功路１７２巷７６弄１７號","OBJECTID":27243},"geometry":{"x":171618.28000000026,"y":2545794.7699999996}},{"attributes":{"ID":27244,"DIS_CODE":0,"TOWNNAME":"新營區","LI":"民權里","LIN":" ","STREET":"信義街","SECT":" ","MAREA":" ","LANE":" ","ALLEY":" ","HOUSE_NO":"８５之１號","E_COORD97":179728.32000000001,"N_COORD97":2578797.77,"ADDRESS":"信義街８５之１號","OBJECTID":27244},"geometry":{"x":179728.3200000003,"y":2578797.7700000014}},{"attributes":{"ID":27245,"DIS_CODE":0,"TOWNNAME":"新營區","LI":"民榮里","LIN":" ","STREET":"南昌街","SECT":" ","MAREA":" ","LANE":" ","ALLEY":" ","HOUSE_NO":"６０之６號","E_COORD97":179232.89999999999,"N_COORD97":2577662.77,"ADDRESS":"南昌街６０之６號","OBJECTID":27245},"geometry":{"x":179232.90000000037,"y":2577662.7700000014}},{"attributes":{"ID":27246,"DIS_CODE":0,"TOWNNAME":"永康區","LI":"五王里","LIN":"17鄰","STREET":"成功路","SECT":" ","MAREA":" ","LANE":"１７２巷","ALLEY":"７６弄","HOUSE_NO":"９號","E_COORD97":171599.87,"N_COORD97":2545790.27,"ADDRESS":"成功路１７２巷７６弄９號","OBJECTID":27246},"geometry":{"x":171599.87000000104,"y":2545790.2699999996}},{"attributes":{"ID":27247,"DIS_CODE":0,"TOWNNAME":"永康區","LI":"五王里","LIN":"17鄰","STREET":"成功路","SECT":" ","MAREA":" ","LANE":"１７２巷","ALLEY":"７６弄","HOUSE_NO":"２１號","E_COORD97":171627.12,"N_COORD97":2545797.52,"ADDRESS":"成功路１７２巷７６弄２１號","OBJECTID":27247},"geometry":{"x":171627.12000000104,"y":2545797.5200000014}},{"attributes":{"ID":27248,"DIS_CODE":0,"TOWNNAME":"新營區","LI":"民生里","LIN":" ","STREET":"民生路","SECT":" ","MAREA":" ","LANE":" ","ALLEY":" ","HOUSE_NO":"６５號","E_COORD97":179200.48999999999,"N_COORD97":2578466.8799999999,"ADDRESS":"民生路６５號","OBJECTID":27248},"geometry":{"x":179200.49000000115,"y":2578466.8800000027}},{"attributes":{"ID":27249,"DIS_CODE":0,"TOWNNAME":"新營區","LI":"民生里","LIN":" ","STREET":"民生路","SECT":" ","MAREA":" ","LANE":" ","ALLEY":" ","HOUSE_NO":"６２之１號","E_COORD97":179315.39000000001,"N_COORD97":2578443.1400000001,"ADDRESS":"民生路６２之１號","OBJECTID":27249},"geometry":{"x":179315.38999999873,"y":2578443.1400000043}},{"attributes":{"ID":27250,"DIS_CODE":0,"TOWNNAME":"永康區","LI":"五王里","LIN":"17鄰","STREET":"成功路","SECT":" ","MAREA":" ","LANE":"１７２巷","ALLEY":"７６弄","HOUSE_NO":"２３號","E_COORD97":171630.95000000001,"N_COORD97":2545798.52,"ADDRESS":"成功路１７２巷７６弄２３號","OBJECTID":27250},"geometry":{"x":171630.95000000019,"y":2545798.5199999996}},{"attributes":{"ID":27251,"DIS_CODE":0,"TOWNNAME":"新營區","LI":"三仙里","LIN":"20鄰","STREET":"三民路","SECT":" ","MAREA":" ","LANE":" ","ALLEY":" ","HOUSE_NO":"１４０號之１６","E_COORD97":179532.48000000001,"N_COORD97":2578453.1899999999,"ADDRESS":"三民路１４０號之１６","OBJECTID":27251},"geometry":{"x":179532.48000000045,"y":2578453.1900000013}},{"attributes":{"ID":27252,"DIS_CODE":0,"TOWNNAME":"新營區","LI":"民榮里","LIN":"13鄰","STREET":"南昌街","SECT":" ","MAREA":" ","LANE":" ","ALLEY":" ","HOUSE_NO":"６４之１號","E_COORD97":179203.31,"N_COORD97":2577676.2000000002,"ADDRESS":"南昌街６４之１號","OBJECTID":27252},"geometry":{"x":179203.30999999959,"y":2577676.2000000011}},{"attributes":{"ID":27253,"DIS_CODE":0,"TOWNNAME":"永康區","LI":"五王里","LIN":"17鄰","STREET":"成功路","SECT":" ","MAREA":" ","LANE":"１７２巷","ALLEY":"７６弄","HOUSE_NO":"５號","E_COORD97":171591.17000000001,"N_COORD97":2545788.27,"ADDRESS":"成功路１７２巷７６弄５號","OBJECTID":27253},"geometry":{"x":171591.17000000086,"y":2545788.2700000033}},{"attributes":{"ID":27254,"DIS_CODE":0,"TOWNNAME":"學甲區","LI":"新榮里","LIN":"8鄰","STREET":" ","SECT":" ","MAREA":"東竹圍","LANE":" ","ALLEY":" ","HOUSE_NO":"２６號","E_COORD97":166758.32000000001,"N_COORD97":2570102.79,"ADDRESS":"東竹圍２６號","OBJECTID":27254},"geometry":{"x":166758.3200000003,"y":2570102.7899999991}},{"attributes":{"ID":27255,"DIS_CODE":0,"TOWNNAME":"學甲區","LI":"新榮里","LIN":"8鄰","STREET":" ","SECT":" ","MAREA":"東竹圍","LANE":" ","ALLEY":" ","HOUSE_NO":"２７號之１","E_COORD97":166767.59,"N_COORD97":2570143.52,"ADDRESS":"東竹圍２７號之１","OBJECTID":27255},"geometry":{"x":166767.58999999985,"y":2570143.5200000014}},{"attributes":{"ID":27256,"DIS_CODE":0,"TOWNNAME":"學甲區","LI":"新榮里","LIN":"8鄰","STREET":" ","SECT":" ","MAREA":"東竹圍","LANE":" ","ALLEY":" ","HOUSE_NO":"２７號之２","E_COORD97":166760.39000000001,"N_COORD97":2570115.54,"ADDRESS":"東竹圍２７號之２","OBJECTID":27256},"geometry":{"x":166760.38999999966,"y":2570115.5400000028}},{"attributes":{"ID":27257,"DIS_CODE":0,"TOWNNAME":"學甲區","LI":"新榮里","LIN":"8鄰","STREET":" ","SECT":" ","MAREA":"東竹圍","LANE":" ","ALLEY":" ","HOUSE_NO":"２７號之６","E_COORD97":166736.85000000001,"N_COORD97":2570143.79,"ADDRESS":"東竹圍２７號之６","OBJECTID":27257},"geometry":{"x":166736.84999999963,"y":2570143.7899999991}},{"attributes":{"ID":27258,"DIS_CODE":0,"TOWNNAME":"永康區","LI":"五王里","LIN":"17鄰","STREET":"成功路","SECT":" ","MAREA":" ","LANE":"１７２巷","ALLEY":"７６弄","HOUSE_NO":"２９號","E_COORD97":171644.75,"N_COORD97":2545801.27,"ADDRESS":"成功路１７２巷７６弄２９號","OBJECTID":27258},"geometry":{"x":171644.75000000093,"y":2545801.2699999996}},{"attributes":{"ID":27259,"DIS_CODE":0,"TOWNNAME":"永康區","LI":"五王里","LIN":"17鄰","STREET":"成功路","SECT":" ","MAREA":" ","LANE":"１７２巷","ALLEY":"７６弄","HOUSE_NO":"１３號","E_COORD97":171609.26000000001,"N_COORD97":2545793.02,"ADDRESS":"成功路１７２巷７６弄１３號","OBJECTID":27259},"geometry":{"x":171609.26000000071,"y":2545793.0199999996}},{"attributes":{"ID":27260,"DIS_CODE":0,"TOWNNAME":"永康區","LI":"五王里","LIN":"17鄰","STREET":"成功路","SECT":" ","MAREA":" ","LANE":"１７２巷","ALLEY":"７６弄","HOUSE_NO":"２７號","E_COORD97":171640.17000000001,"N_COORD97":2545800.02,"ADDRESS":"成功路１７２巷７６弄２７號","OBJECTID":27260},"geometry":{"x":171640.17000000086,"y":2545800.0199999977}},{"attributes":{"ID":27261,"DIS_CODE":0,"TOWNNAME":"永康區","LI":"二王里","LIN":"17鄰","STREET":"忠孝路","SECT":" ","MAREA":" ","LANE":"３８０巷","ALLEY":"１３弄","HOUSE_NO":"４６號","E_COORD97":172541.14999999999,"N_COORD97":2546496.9399999999,"ADDRESS":"忠孝路３８０巷１３弄４６號","OBJECTID":27261},"geometry":{"x":172541.1500000013,"y":2546496.9400000013}},{"attributes":{"ID":27262,"DIS_CODE":0,"TOWNNAME":"學甲區","LI":"新榮里","LIN":"8鄰","STREET":" ","SECT":" ","MAREA":"東竹圍","LANE":" ","ALLEY":" ","HOUSE_NO":"２７號之３","E_COORD97":166761.38,"N_COORD97":2570121.1499999999,"ADDRESS":"東竹圍２７號之３","OBJECTID":27262},"geometry":{"x":166761.38000000082,"y":2570121.1500000004}},{"attributes":{"ID":27263,"DIS_CODE":0,"TOWNNAME":"永康區","LI":"烏竹里","LIN":"17鄰","STREET":"竹南街","SECT":" ","MAREA":" ","LANE":"５６巷","ALLEY":"３弄","HOUSE_NO":"１８號","E_COORD97":174414.69,"N_COORD97":2548809.96,"ADDRESS":"竹南街５６巷３弄１８號","OBJECTID":27263},"geometry":{"x":174414.69000000041,"y":2548809.9600000028}},{"attributes":{"ID":27264,"DIS_CODE":0,"TOWNNAME":"新化區","LI":"東榮里","LIN":"17鄰","STREET":"中興路","SECT":" ","MAREA":" ","LANE":"６６５巷","ALLEY":"１１弄","HOUSE_NO":"８號","E_COORD97":179636.56,"N_COORD97":2547988.25,"ADDRESS":"中興路６６５巷１１弄８號","OBJECTID":27264},"geometry":{"x":179636.56000000052,"y":2547988.25}},{"attributes":{"ID":27265,"DIS_CODE":0,"TOWNNAME":"永康區","LI":"西灣里","LIN":"34鄰","STREET":"永華路","SECT":" ","MAREA":" ","LANE":" ","ALLEY":" ","HOUSE_NO":"３７２號","E_COORD97":174078.04999999999,"N_COORD97":2545808.8700000001,"ADDRESS":"永華路３７２號","OBJECTID":27265},"geometry":{"x":174078.04999999888,"y":2545808.870000001}},{"attributes":{"ID":27266,"DIS_CODE":0,"TOWNNAME":"新營區","LI":"民榮里","LIN":"1鄰","STREET":"復興路","SECT":" ","MAREA":" ","LANE":" ","ALLEY":" ","HOUSE_NO":"１３１之４號","E_COORD97":179343.32000000001,"N_COORD97":2578033.25,"ADDRESS":"復興路１３１之４號","OBJECTID":27266},"geometry":{"x":179343.3200000003,"y":2578033.25}},{"attributes":{"ID":27267,"DIS_CODE":0,"TOWNNAME":"永康區","LI":"埔園里","LIN":"34鄰","STREET":"竹園二街","SECT":" ","MAREA":" ","LANE":" ","ALLEY":" ","HOUSE_NO":"１０３號","E_COORD97":174218.14999999999,"N_COORD97":2549171.3100000001,"ADDRESS":"竹園二街１０３號","OBJECTID":27267},"geometry":{"x":174218.15000000037,"y":2549171.3100000005}},{"attributes":{"ID":27268,"DIS_CODE":0,"TOWNNAME":"永康區","LI":"埔園里","LIN":"34鄰","STREET":"永大路","SECT":"三段","MAREA":" ","LANE":" ","ALLEY":" ","HOUSE_NO":"５５２號","E_COORD97":174082.78,"N_COORD97":2548624.7799999998,"ADDRESS":"永大路三段５５２號","OBJECTID":27268},"geometry":{"x":174082.78000000119,"y":2548624.7799999993}},{"attributes":{"ID":27269,"DIS_CODE":0,"TOWNNAME":"新化區","LI":"東榮里","LIN":"17鄰","STREET":"中興路","SECT":" ","MAREA":" ","LANE":"６６５巷","ALLEY":"１１弄","HOUSE_NO":"２號","E_COORD97":179645.76000000001,"N_COORD97":2547989.25,"ADDRESS":"中興路６６５巷１１弄２號","OBJECTID":27269},"geometry":{"x":179645.76000000071,"y":2547989.2500000037}},{"attributes":{"ID":27270,"DIS_CODE":0,"TOWNNAME":"學甲區","LI":"新榮里","LIN":"8鄰","STREET":" ","SECT":" ","MAREA":"東竹圍","LANE":" ","ALLEY":" ","HOUSE_NO":"２７號之４","E_COORD97":166759.89000000001,"N_COORD97":2570109.6800000002,"ADDRESS":"東竹圍２７號之４","OBJECTID":27270},"geometry":{"x":166759.8900000006,"y":2570109.6800000016}},{"attributes":{"ID":27271,"DIS_CODE":0,"TOWNNAME":"學甲區","LI":"新榮里","LIN":"8鄰","STREET":" ","SECT":" ","MAREA":"東竹圍","LANE":" ","ALLEY":" ","HOUSE_NO":"２７號之５","E_COORD97":166768.75,"N_COORD97":2570148.5899999999,"ADDRESS":"東竹圍２７號之５","OBJECTID":27271},"geometry":{"x":166768.75,"y":2570148.5899999999}},{"attributes":{"ID":27272,"DIS_CODE":0,"TOWNNAME":"永康區","LI":"西灣里","LIN":"17鄰","STREET":"民族路","SECT":" ","MAREA":" ","LANE":"５１３巷","ALLEY":"２弄","HOUSE_NO":"１號","E_COORD97":174483.85000000001,"N_COORD97":2545445.0299999998,"ADDRESS":"民族路５１３巷２弄１號","OBJECTID":27272},"geometry":{"x":174483.84999999963,"y":2545445.0300000012}},{"attributes":{"ID":27273,"DIS_CODE":0,"TOWNNAME":"永康區","LI":"五王里","LIN":"17鄰","STREET":"成功路","SECT":" ","MAREA":" ","LANE":"１７２巷","ALLEY":"７６弄","HOUSE_NO":"１５號","E_COORD97":171613.91,"N_COORD97":2545794.02,"ADDRESS":"成功路１７２巷７６弄１５號","OBJECTID":27273},"geometry":{"x":171613.91000000015,"y":2545794.0200000014}},{"attributes":{"ID":27274,"DIS_CODE":0,"TOWNNAME":"永康區","LI":"甲頂里","LIN":"17鄰","STREET":"中正南路","SECT":" ","MAREA":" ","LANE":"５２巷","ALLEY":"４６弄","HOUSE_NO":"３１號","E_COORD97":169877.06,"N_COORD97":2546674.8100000001,"ADDRESS":"中正南路５２巷４６弄３１號","OBJECTID":27274},"geometry":{"x":169877.05999999866,"y":2546674.8100000024}},{"attributes":{"ID":27275,"DIS_CODE":0,"TOWNNAME":"永康區","LI":"正強里","LIN":"17鄰","STREET":"自強路","SECT":" ","MAREA":" ","LANE":"１８８巷","ALLEY":"１６弄","HOUSE_NO":"１３號","E_COORD97":173168.60000000001,"N_COORD97":2547411.3900000001,"ADDRESS":"自強路１８８巷１６弄１３號","OBJECTID":27275},"geometry":{"x":173168.59999999963,"y":2547411.3900000006}},{"attributes":{"ID":27276,"DIS_CODE":0,"TOWNNAME":"永康區","LI":"甲頂里","LIN":"17鄰","STREET":"中正南路","SECT":" ","MAREA":" ","LANE":"５２巷","ALLEY":"４６弄","HOUSE_NO":"３６號","E_COORD97":169857.34,"N_COORD97":2546672.4300000002,"ADDRESS":"中正南路５２巷４６弄３６號","OBJECTID":27276},"geometry":{"x":169857.34000000078,"y":2546672.4300000034}},{"attributes":{"ID":27277,"DIS_CODE":0,"TOWNNAME":"永康區","LI":"尚頂里","LIN":"17鄰","STREET":"中正南路","SECT":" ","MAREA":" ","LANE":"２２０巷","ALLEY":"３０弄","HOUSE_NO":"１５號","E_COORD97":170252.95000000001,"N_COORD97":2547217.6299999999,"ADDRESS":"中正南路２２０巷３０弄１５號","OBJECTID":27277},"geometry":{"x":170252.95000000019,"y":2547217.6300000008}},{"attributes":{"ID":27278,"DIS_CODE":0,"TOWNNAME":"永康區","LI":"尚頂里","LIN":"17鄰","STREET":"中正南路","SECT":" ","MAREA":" ","LANE":"２２０巷","ALLEY":"３０弄","HOUSE_NO":"４２號","E_COORD97":170236.44,"N_COORD97":2547181.9300000002,"ADDRESS":"中正南路２２０巷３０弄４２號","OBJECTID":27278},"geometry":{"x":170236.44000000227,"y":2547181.9300000016}},{"attributes":{"ID":27279,"DIS_CODE":0,"TOWNNAME":"永康區","LI":"安康里","LIN":"17鄰","STREET":"中華路","SECT":" ","MAREA":" ","LANE":"６１９巷","ALLEY":"２２弄","HOUSE_NO":"６號","E_COORD97":170996.60000000001,"N_COORD97":2546109.75,"ADDRESS":"中華路６１９巷２２弄６號","OBJECTID":27279},"geometry":{"x":170996.59999999963,"y":2546109.75}},{"attributes":{"ID":27280,"DIS_CODE":0,"TOWNNAME":"永康區","LI":"甲頂里","LIN":"17鄰","STREET":"中正南路","SECT":" ","MAREA":" ","LANE":"５２巷","ALLEY":"４６弄","HOUSE_NO":"１６號","E_COORD97":169862.79000000001,"N_COORD97":2546694.2999999998,"ADDRESS":"中正南路５２巷４６弄１６號","OBJECTID":27280},"geometry":{"x":169862.79000000097,"y":2546694.3000000007}},{"attributes":{"ID":27281,"DIS_CODE":0,"TOWNNAME":"永康區","LI":"甲頂里","LIN":"17鄰","STREET":"中正南路","SECT":" ","MAREA":" ","LANE":"５２巷","ALLEY":"４６弄","HOUSE_NO":"６號","E_COORD97":169833.76999999999,"N_COORD97":2546733.5600000001,"ADDRESS":"中正南路５２巷４６弄６號","OBJECTID":27281},"geometry":{"x":169833.77000000048,"y":2546733.5600000042}},{"attributes":{"ID":27282,"DIS_CODE":0,"TOWNNAME":"永康區","LI":"甲頂里","LIN":"17鄰","STREET":"中正南路","SECT":" ","MAREA":" ","LANE":"５２巷","ALLEY":"４６弄","HOUSE_NO":"１１號","E_COORD97":169843.01000000001,"N_COORD97":2546691.2999999998,"ADDRESS":"中正南路５２巷４６弄１１號","OBJECTID":27282},"geometry":{"x":169843.00999999978,"y":2546691.3000000045}},{"attributes":{"ID":27283,"DIS_CODE":0,"TOWNNAME":"永康區","LI":"崑山里","LIN":"17鄰","STREET":"大灣路","SECT":" ","MAREA":" ","LANE":"９４２巷","ALLEY":"７１弄","HOUSE_NO":"１號之１","E_COORD97":173644.12,"N_COORD97":2544585.5499999998,"ADDRESS":"大灣路９４２巷７１弄１號之１","OBJECTID":27283},"geometry":{"x":173644.12000000197,"y":2544585.5500000026}},{"attributes":{"ID":27284,"DIS_CODE":0,"TOWNNAME":"永康區","LI":"西灣里","LIN":"17鄰","STREET":"民族路","SECT":" ","MAREA":" ","LANE":"５１３巷","ALLEY":"１弄","HOUSE_NO":"３號","E_COORD97":174520.20999999999,"N_COORD97":2545431.5299999998,"ADDRESS":"民族路５１３巷１弄３號","OBJECTID":27284},"geometry":{"x":174520.21000000089,"y":2545431.5300000012}},{"attributes":{"ID":27285,"DIS_CODE":0,"TOWNNAME":"永康區","LI":"網寮里","LIN":"17鄰","STREET":"永興路","SECT":" ","MAREA":" ","LANE":"４２７巷","ALLEY":"２弄","HOUSE_NO":"２３之６號","E_COORD97":173240.37,"N_COORD97":2546827.7999999998,"ADDRESS":"永興路４２７巷２弄２３之６號","OBJECTID":27285},"geometry":{"x":173240.37000000011,"y":2546827.8000000026}},{"attributes":{"ID":27286,"DIS_CODE":0,"TOWNNAME":"中西區","LI":"天后里","LIN":"17鄰","STREET":"西門路","SECT":"二段","MAREA":" ","LANE":"３７２巷","ALLEY":"８弄","HOUSE_NO":"８號","E_COORD97":168058.94,"N_COORD97":2544286.5099999998,"ADDRESS":"西門路二段３７２巷８弄８號","OBJECTID":27286},"geometry":{"x":168058.94000000134,"y":2544286.5100000016}},{"attributes":{"ID":27287,"DIS_CODE":0,"TOWNNAME":"中西區","LI":"天后里","LIN":"17鄰","STREET":"西門路","SECT":"二段","MAREA":" ","LANE":"３７２巷","ALLEY":"８弄","HOUSE_NO":"２號","E_COORD97":168068.66,"N_COORD97":2544296.1000000001,"ADDRESS":"西門路二段３７２巷８弄２號","OBJECTID":27287},"geometry":{"x":168068.66000000108,"y":2544296.1000000015}},{"attributes":{"ID":27288,"DIS_CODE":0,"TOWNNAME":"學甲區","LI":"新榮里","LIN":"8鄰","STREET":" ","SECT":" ","MAREA":"東竹圍","LANE":" ","ALLEY":" ","HOUSE_NO":"２７號之７","E_COORD97":166737.72,"N_COORD97":2570148.75,"ADDRESS":"東竹圍２７號之７","OBJECTID":27288},"geometry":{"x":166737.71999999974,"y":2570148.7500000037}},{"attributes":{"ID":27289,"DIS_CODE":0,"TOWNNAME":"學甲區","LI":"新榮里","LIN":"8鄰","STREET":" ","SECT":" ","MAREA":"東竹圍","LANE":" ","ALLEY":" ","HOUSE_NO":"２８號之１","E_COORD97":166739.63,"N_COORD97":2570127.3999999999,"ADDRESS":"東竹圍２８號之１","OBJECTID":27289},"geometry":{"x":166739.63000000082,"y":2570127.4000000004}},{"attributes":{"ID":27290,"DIS_CODE":0,"TOWNNAME":"學甲區","LI":"新榮里","LIN":"8鄰","STREET":" ","SECT":" ","MAREA":"東竹圍","LANE":" ","ALLEY":" ","HOUSE_NO":"２８號之５","E_COORD97":166737.42000000001,"N_COORD97":2570105.5299999998,"ADDRESS":"東竹圍２８號之５","OBJECTID":27290},"geometry":{"x":166737.42000000086,"y":2570105.5300000031}},{"attributes":{"ID":27291,"DIS_CODE":0,"TOWNNAME":"新營區","LI":"延平里","LIN":" ","STREET":"復興路","SECT":" ","MAREA":" ","LANE":" ","ALLEY":" ","HOUSE_NO":"１之９５號","E_COORD97":179713.92999999999,"N_COORD97":2577935.1299999999,"ADDRESS":"復興路１之９５號","OBJECTID":27291},"geometry":{"x":179713.93000000063,"y":2577935.129999999}},{"attributes":{"ID":27292,"DIS_CODE":0,"TOWNNAME":"學甲區","LI":"新榮里","LIN":"8鄰","STREET":" ","SECT":" ","MAREA":"東竹圍","LANE":" ","ALLEY":" ","HOUSE_NO":"２８號之６","E_COORD97":166738.35000000001,"N_COORD97":2570101.21,"ADDRESS":"東竹圍２８號之６","OBJECTID":27292},"geometry":{"x":166738.34999999963,"y":2570101.2100000009}},{"attributes":{"ID":27293,"DIS_CODE":0,"TOWNNAME":"東區","LI":"崇文里","LIN":"34鄰","STREET":"生產路","SECT":" ","MAREA":" ","LANE":" ","ALLEY":" ","HOUSE_NO":"３５７號","E_COORD97":171160.09,"N_COORD97":2540725.5299999998,"ADDRESS":"生產路３５７號","OBJECTID":27293},"geometry":{"x":171160.08999999985,"y":2540725.5300000012}},{"attributes":{"ID":27294,"DIS_CODE":0,"TOWNNAME":"學甲區","LI":"三慶里","LIN":"8鄰","STREET":" ","SECT":" ","MAREA":"頂洲","LANE":" ","ALLEY":" ","HOUSE_NO":"９７號","E_COORD97":168478.64999999999,"N_COORD97":2576313.8399999999,"ADDRESS":"頂洲９７號","OBJECTID":27294},"geometry":{"x":168478.65000000037,"y":2576313.8399999999}},{"attributes":{"ID":27295,"DIS_CODE":0,"TOWNNAME":"學甲區","LI":"新榮里","LIN":"8鄰","STREET":" ","SECT":" ","MAREA":"東竹圍","LANE":" ","ALLEY":" ","HOUSE_NO":"２９號之１","E_COORD97":166717.67999999999,"N_COORD97":2570127.9700000002,"ADDRESS":"東竹圍２９號之１","OBJECTID":27295},"geometry":{"x":166717.6799999997,"y":2570127.9700000025}},{"attributes":{"ID":27296,"DIS_CODE":0,"TOWNNAME":"東區","LI":"崇文里","LIN":"34鄰","STREET":"崇德二十二街","SECT":" ","MAREA":" ","LANE":" ","ALLEY":" ","HOUSE_NO":"１１８號","E_COORD97":171127.92000000001,"N_COORD97":2540801.1499999999,"ADDRESS":"崇德二十二街１１８號","OBJECTID":27296},"geometry":{"x":171127.92000000179,"y":2540801.1500000004}},{"attributes":{"ID":27297,"DIS_CODE":0,"TOWNNAME":"學甲區","LI":"新榮里","LIN":"8鄰","STREET":" ","SECT":" ","MAREA":"東竹圍","LANE":" ","ALLEY":" ","HOUSE_NO":"２９號之２","E_COORD97":166717.89999999999,"N_COORD97":2570123.75,"ADDRESS":"東竹圍２９號之２","OBJECTID":27297},"geometry":{"x":166717.9000000013,"y":2570123.75}},{"attributes":{"ID":27298,"DIS_CODE":0,"TOWNNAME":"學甲區","LI":"新榮里","LIN":"8鄰","STREET":" ","SECT":" ","MAREA":"東竹圍","LANE":" ","ALLEY":" ","HOUSE_NO":"２９號之３","E_COORD97":166717.82000000001,"N_COORD97":2570119.1299999999,"ADDRESS":"東竹圍２９號之３","OBJECTID":27298},"geometry":{"x":166717.8200000003,"y":2570119.1300000008}},{"attributes":{"ID":27299,"DIS_CODE":0,"TOWNNAME":"學甲區","LI":"新榮里","LIN":"8鄰","STREET":" ","SECT":" ","MAREA":"東竹圍","LANE":" ","ALLEY":" ","HOUSE_NO":"２９號之４","E_COORD97":166715.04000000001,"N_COORD97":2570103.1299999999,"ADDRESS":"東竹圍２９號之４","OBJECTID":27299},"geometry":{"x":166715.04000000097,"y":2570103.129999999}},{"attributes":{"ID":27300,"DIS_CODE":0,"TOWNNAME":"學甲區","LI":"新榮里","LIN":"8鄰","STREET":" ","SECT":" ","MAREA":"東竹圍","LANE":" ","ALLEY":" ","HOUSE_NO":"２９號之５","E_COORD97":166719.06,"N_COORD97":2570102.77,"ADDRESS":"東竹圍２９號之５","OBJECTID":27300},"geometry":{"x":166719.06000000145,"y":2570102.7699999996}},{"attributes":{"ID":27301,"DIS_CODE":0,"TOWNNAME":"學甲區","LI":"新榮里","LIN":"8鄰","STREET":" ","SECT":" ","MAREA":"東竹圍","LANE":" ","ALLEY":" ","HOUSE_NO":"２９號之６","E_COORD97":166723.75,"N_COORD97":2570102.3199999998,"ADDRESS":"東竹圍２９號之６","OBJECTID":27301},"geometry":{"x":166723.75000000093,"y":2570102.3200000022}},{"attributes":{"ID":27302,"DIS_CODE":0,"TOWNNAME":"學甲區","LI":"新榮里","LIN":"8鄰","STREET":" ","SECT":" ","MAREA":"東竹圍","LANE":" ","ALLEY":" ","HOUSE_NO":"２９號之７","E_COORD97":166728.20000000001,"N_COORD97":2570101.4500000002,"ADDRESS":"東竹圍２９號之７","OBJECTID":27302},"geometry":{"x":166728.20000000019,"y":2570101.4499999993}},{"attributes":{"ID":27303,"DIS_CODE":0,"TOWNNAME":"學甲區","LI":"新榮里","LIN":"8鄰","STREET":" ","SECT":" ","MAREA":"東竹圍","LANE":" ","ALLEY":" ","HOUSE_NO":"２９號之８","E_COORD97":166732.45999999999,"N_COORD97":2570101.54,"ADDRESS":"東竹圍２９號之８","OBJECTID":27303},"geometry":{"x":166732.46000000089,"y":2570101.5399999991}},{"attributes":{"ID":27304,"DIS_CODE":0,"TOWNNAME":"學甲區","LI":"新榮里","LIN":"8鄰","STREET":" ","SECT":" ","MAREA":"東竹圍","LANE":" ","ALLEY":" ","HOUSE_NO":"２９號","E_COORD97":166717.56,"N_COORD97":2570132.8100000001,"ADDRESS":"東竹圍２９號","OBJECTID":27304},"geometry":{"x":166717.56000000052,"y":2570132.8100000024}},{"attributes":{"ID":27305,"DIS_CODE":0,"TOWNNAME":"學甲區","LI":"豐和里","LIN":"8鄰","STREET":" ","SECT":" ","MAREA":"美豐","LANE":" ","ALLEY":" ","HOUSE_NO":"５９號之１","E_COORD97":168188.12,"N_COORD97":2568663.21,"ADDRESS":"美豐５９號之１","OBJECTID":27305},"geometry":{"x":168188.12000000011,"y":2568663.2100000028}},{"attributes":{"ID":27306,"DIS_CODE":0,"TOWNNAME":"學甲區","LI":"豐和里","LIN":"8鄰","STREET":" ","SECT":" ","MAREA":"美豐","LANE":" ","ALLEY":" ","HOUSE_NO":"５９號之２","E_COORD97":168177.17000000001,"N_COORD97":2568659.7599999998,"ADDRESS":"美豐５９號之２","OBJECTID":27306},"geometry":{"x":168177.17000000086,"y":2568659.7599999998}},{"attributes":{"ID":27307,"DIS_CODE":0,"TOWNNAME":"學甲區","LI":"豐和里","LIN":"8鄰","STREET":" ","SECT":" ","MAREA":"美豐","LANE":" ","ALLEY":" ","HOUSE_NO":"５９號之３","E_COORD97":168173.63,"N_COORD97":2568650.5299999998,"ADDRESS":"美豐５９號之３","OBJECTID":27307},"geometry":{"x":168173.63000000082,"y":2568650.5299999993}},{"attributes":{"ID":27308,"DIS_CODE":0,"TOWNNAME":"學甲區","LI":"豐和里","LIN":"8鄰","STREET":" ","SECT":" ","MAREA":"美豐","LANE":" ","ALLEY":" ","HOUSE_NO":"６１號","E_COORD97":168157.87,"N_COORD97":2568635.27,"ADDRESS":"美豐６１號","OBJECTID":27308},"geometry":{"x":168157.87000000011,"y":2568635.2699999996}},{"attributes":{"ID":27309,"DIS_CODE":0,"TOWNNAME":"學甲區","LI":"豐和里","LIN":"8鄰","STREET":" ","SECT":" ","MAREA":"美豐","LANE":" ","ALLEY":" ","HOUSE_NO":"６２號之１","E_COORD97":168176.79999999999,"N_COORD97":2568636.5499999998,"ADDRESS":"美豐６２號之１","OBJECTID":27309},"geometry":{"x":168176.79999999981,"y":2568636.5500000026}},{"attributes":{"ID":27310,"DIS_CODE":0,"TOWNNAME":"學甲區","LI":"豐和里","LIN":"8鄰","STREET":" ","SECT":" ","MAREA":"美豐","LANE":" ","ALLEY":" ","HOUSE_NO":"６２號","E_COORD97":168189.16,"N_COORD97":2568643.2400000002,"ADDRESS":"美豐６２號","OBJECTID":27310},"geometry":{"x":168189.16000000108,"y":2568643.2400000002}},{"attributes":{"ID":27311,"DIS_CODE":0,"TOWNNAME":"學甲區","LI":"豐和里","LIN":"8鄰","STREET":" ","SECT":" ","MAREA":"美豐","LANE":" ","ALLEY":" ","HOUSE_NO":"６３號之１","E_COORD97":168172.84,"N_COORD97":2568605.0099999998,"ADDRESS":"美豐６３號之１","OBJECTID":27311},"geometry":{"x":168172.83999999985,"y":2568605.0100000016}},{"attributes":{"ID":27312,"DIS_CODE":0,"TOWNNAME":"學甲區","LI":"豐和里","LIN":"8鄰","STREET":" ","SECT":" ","MAREA":"美豐","LANE":" ","ALLEY":" ","HOUSE_NO":"６３號","E_COORD97":168164.87,"N_COORD97":2568618.9100000001,"ADDRESS":"美豐６３號","OBJECTID":27312},"geometry":{"x":168164.87000000011,"y":2568618.9100000039}},{"attributes":{"ID":27313,"DIS_CODE":0,"TOWNNAME":"學甲區","LI":"三慶里","LIN":"8鄰","STREET":" ","SECT":" ","MAREA":"頂洲","LANE":" ","ALLEY":" ","HOUSE_NO":"１００號","E_COORD97":168402.60000000001,"N_COORD97":2576306.9700000002,"ADDRESS":"頂洲１００號","OBJECTID":27313},"geometry":{"x":168402.60000000056,"y":2576306.9700000007}},{"attributes":{"ID":27314,"DIS_CODE":0,"TOWNNAME":"學甲區","LI":"三慶里","LIN":"8鄰","STREET":" ","SECT":" ","MAREA":"頂洲","LANE":" ","ALLEY":" ","HOUSE_NO":"１０１號","E_COORD97":168429.75,"N_COORD97":2576279.77,"ADDRESS":"頂洲１０１號","OBJECTID":27314},"geometry":{"x":168429.75,"y":2576279.7699999996}},{"attributes":{"ID":27315,"DIS_CODE":0,"TOWNNAME":"學甲區","LI":"三慶里","LIN":"8鄰","STREET":" ","SECT":" ","MAREA":"頂洲","LANE":" ","ALLEY":" ","HOUSE_NO":"１０２號","E_COORD97":168412.32999999999,"N_COORD97":2576251.2999999998,"ADDRESS":"頂洲１０２號","OBJECTID":27315},"geometry":{"x":168412.33000000007,"y":2576251.3000000007}},{"attributes":{"ID":27316,"DIS_CODE":0,"TOWNNAME":"學甲區","LI":"三慶里","LIN":"8鄰","STREET":" ","SECT":" ","MAREA":"頂洲","LANE":" ","ALLEY":" ","HOUSE_NO":"１０３號之５０","E_COORD97":168330.01000000001,"N_COORD97":2575589.0299999998,"ADDRESS":"頂洲１０３號之５０","OBJECTID":27316},"geometry":{"x":168330.01000000164,"y":2575589.0300000012}},{"attributes":{"ID":27317,"DIS_CODE":0,"TOWNNAME":"學甲區","LI":"三慶里","LIN":"8鄰","STREET":" ","SECT":" ","MAREA":"頂洲","LANE":" ","ALLEY":" ","HOUSE_NO":"１０３號之５６","E_COORD97":168078.70000000001,"N_COORD97":2576209.6499999999,"ADDRESS":"頂洲１０３號之５６","OBJECTID":27317},"geometry":{"x":168078.70000000112,"y":2576209.6500000022}},{"attributes":{"ID":27318,"DIS_CODE":0,"TOWNNAME":"學甲區","LI":"三慶里","LIN":"8鄰","STREET":" ","SECT":" ","MAREA":"頂洲","LANE":" ","ALLEY":" ","HOUSE_NO":"１０３號之５７","E_COORD97":168390.97,"N_COORD97":2576209.6000000001,"ADDRESS":"頂洲１０３號之５７","OBJECTID":27318},"geometry":{"x":168390.96999999974,"y":2576209.6000000015}},{"attributes":{"ID":27319,"DIS_CODE":0,"TOWNNAME":"學甲區","LI":"三慶里","LIN":"8鄰","STREET":" ","SECT":" ","MAREA":"頂洲","LANE":" ","ALLEY":" ","HOUSE_NO":"１０３號之５８","E_COORD97":168192.73000000001,"N_COORD97":2575013.4700000002,"ADDRESS":"頂洲１０３號之５８","OBJECTID":27319},"geometry":{"x":168192.73000000045,"y":2575013.4700000044}},{"attributes":{"ID":27320,"DIS_CODE":0,"TOWNNAME":"學甲區","LI":"三慶里","LIN":"8鄰","STREET":" ","SECT":" ","MAREA":"頂洲","LANE":" ","ALLEY":" ","HOUSE_NO":"１０３號之５９","E_COORD97":168057.87,"N_COORD97":2576094.1200000001,"ADDRESS":"頂洲１０３號之５９","OBJECTID":27320},"geometry":{"x":168057.87000000011,"y":2576094.1200000048}},{"attributes":{"ID":27321,"DIS_CODE":0,"TOWNNAME":"學甲區","LI":"三慶里","LIN":"8鄰","STREET":" ","SECT":" ","MAREA":"頂洲","LANE":" ","ALLEY":" ","HOUSE_NO":"１０３號之６０","E_COORD97":168247.48999999999,"N_COORD97":2575376.7799999998,"ADDRESS":"頂洲１０３號之６０","OBJECTID":27321},"geometry":{"x":168247.49000000209,"y":2575376.7800000012}},{"attributes":{"ID":27322,"DIS_CODE":0,"TOWNNAME":"學甲區","LI":"三慶里","LIN":"8鄰","STREET":" ","SECT":" ","MAREA":"頂洲","LANE":" ","ALLEY":" ","HOUSE_NO":"１０３號之６３","E_COORD97":168311.54000000001,"N_COORD97":2575006.3900000001,"ADDRESS":"頂洲１０３號之６３","OBJECTID":27322},"geometry":{"x":168311.54000000097,"y":2575006.3900000006}},{"attributes":{"ID":27323,"DIS_CODE":0,"TOWNNAME":"學甲區","LI":"三慶里","LIN":"8鄰","STREET":" ","SECT":" ","MAREA":"頂洲","LANE":" ","ALLEY":" ","HOUSE_NO":"１０３號之６６","E_COORD97":168333.63,"N_COORD97":2575190.5499999998,"ADDRESS":"頂洲１０３號之６６","OBJECTID":27323},"geometry":{"x":168333.62999999989,"y":2575190.5500000026}},{"attributes":{"ID":27324,"DIS_CODE":0,"TOWNNAME":"學甲區","LI":"三慶里","LIN":"8鄰","STREET":" ","SECT":" ","MAREA":"頂洲","LANE":" ","ALLEY":" ","HOUSE_NO":"１０３號之６９","E_COORD97":168523.26000000001,"N_COORD97":2575195.29,"ADDRESS":"頂洲１０３號之６９","OBJECTID":27324},"geometry":{"x":168523.26000000164,"y":2575195.2899999991}},{"attributes":{"ID":27325,"DIS_CODE":0,"TOWNNAME":"學甲區","LI":"三慶里","LIN":"8鄰","STREET":" ","SECT":" ","MAREA":"頂洲","LANE":" ","ALLEY":" ","HOUSE_NO":"１０３號之７０","E_COORD97":168534.03,"N_COORD97":2575011.0499999998,"ADDRESS":"頂洲１０３號之７０","OBJECTID":27325},"geometry":{"x":168534.03000000119,"y":2575011.0500000026}},{"attributes":{"ID":27326,"DIS_CODE":0,"TOWNNAME":"學甲區","LI":"三慶里","LIN":"8鄰","STREET":" ","SECT":" ","MAREA":"頂洲","LANE":" ","ALLEY":" ","HOUSE_NO":"１０３號之７１","E_COORD97":168467.39999999999,"N_COORD97":2575020.3199999998,"ADDRESS":"頂洲１０３號之７１","OBJECTID":27326},"geometry":{"x":168467.4000000013,"y":2575020.3200000003}},{"attributes":{"ID":27327,"DIS_CODE":0,"TOWNNAME":"學甲區","LI":"三慶里","LIN":"8鄰","STREET":" ","SECT":" ","MAREA":"頂洲","LANE":" ","ALLEY":" ","HOUSE_NO":"１０３號之７２","E_COORD97":168578.20000000001,"N_COORD97":2575024,"ADDRESS":"頂洲１０３號之７２","OBJECTID":27327},"geometry":{"x":168578.19999999925,"y":2575024.0000000019}},{"attributes":{"ID":27328,"DIS_CODE":0,"TOWNNAME":"楠西區","LI":"龜丹里","LIN":"8鄰","STREET":" ","SECT":" ","MAREA":"龜丹","LANE":" ","ALLEY":" ","HOUSE_NO":"１０７號","E_COORD97":198204.69,"N_COORD97":2560395.25,"ADDRESS":"龜丹１０７號","OBJECTID":27328},"geometry":{"x":198204.69000000041,"y":2560395.2500000019}},{"attributes":{"ID":27329,"DIS_CODE":0,"TOWNNAME":"中西區","LI":"天后里","LIN":"17鄰","STREET":"西門路","SECT":"二段","MAREA":" ","LANE":"３７２巷","ALLEY":"８弄","HOUSE_NO":"４號","E_COORD97":168062.57000000001,"N_COORD97":2544294.2799999998,"ADDRESS":"西門路二段３７２巷８弄４號","OBJECTID":27329},"geometry":{"x":168062.57000000123,"y":2544294.2800000012}},{"attributes":{"ID":27330,"DIS_CODE":0,"TOWNNAME":"學甲區","LI":"三慶里","LIN":"8鄰","STREET":" ","SECT":" ","MAREA":"頂洲","LANE":" ","ALLEY":" ","HOUSE_NO":"９８號","E_COORD97":168446.87,"N_COORD97":2576336.4900000002,"ADDRESS":"頂洲９８號","OBJECTID":27330},"geometry":{"x":168446.87000000104,"y":2576336.4900000021}},{"attributes":{"ID":27331,"DIS_CODE":0,"TOWNNAME":"中西區","LI":"天后里","LIN":"17鄰","STREET":"西門路","SECT":"二段","MAREA":" ","LANE":"３７２巷","ALLEY":"８弄","HOUSE_NO":"６號","E_COORD97":168060.63,"N_COORD97":2544289.6200000001,"ADDRESS":"西門路二段３７２巷８弄６號","OBJECTID":27331},"geometry":{"x":168060.62999999989,"y":2544289.6200000029}},{"attributes":{"ID":27332,"DIS_CODE":0,"TOWNNAME":"仁德區","LI":"新田里","LIN":"17鄰","STREET":"北保東路","SECT":" ","MAREA":" ","LANE":"４６巷","ALLEY":"３弄","HOUSE_NO":"１２號","E_COORD97":173535.47,"N_COORD97":2539358.4900000002,"ADDRESS":"北保東路４６巷３弄１２號","OBJECTID":27332},"geometry":{"x":173535.46999999974,"y":2539358.4900000002}},{"attributes":{"ID":27333,"DIS_CODE":0,"TOWNNAME":"仁德區","LI":"新田里","LIN":"17鄰","STREET":"北保東路","SECT":" ","MAREA":" ","LANE":"４６巷","ALLEY":"３弄","HOUSE_NO":"１６號","E_COORD97":173549.37,"N_COORD97":2539368,"ADDRESS":"北保東路４６巷３弄１６號","OBJECTID":27333},"geometry":{"x":173549.37000000104,"y":2539368}},{"attributes":{"ID":27334,"DIS_CODE":0,"TOWNNAME":"西港區","LI":"慶安里","LIN":"34鄰","STREET":"新興街","SECT":" ","MAREA":" ","LANE":" ","ALLEY":" ","HOUSE_NO":"８號之３２","E_COORD97":168345.67000000001,"N_COORD97":2557345.6800000002,"ADDRESS":"新興街８號之３２","OBJECTID":27334},"geometry":{"x":168345.66999999993,"y":2557345.6799999997}},{"attributes":{"ID":27335,"DIS_CODE":0,"TOWNNAME":"西港區","LI":"慶安里","LIN":"34鄰","STREET":"新興街","SECT":" ","MAREA":" ","LANE":" ","ALLEY":" ","HOUSE_NO":"８號之３３","E_COORD97":168344.69,"N_COORD97":2557350.4300000002,"ADDRESS":"新興街８號之３３","OBJECTID":27335},"geometry":{"x":168344.69000000227,"y":2557350.4299999997}},{"attributes":{"ID":27336,"DIS_CODE":0,"TOWNNAME":"楠西區","LI":"鹿田里","LIN":"8鄰","STREET":" ","SECT":" ","MAREA":"油車","LANE":" ","ALLEY":" ","HOUSE_NO":"１７號之１","E_COORD97":197961.17999999999,"N_COORD97":2562044.2999999998,"ADDRESS":"油車１７號之１","OBJECTID":27336},"geometry":{"x":197961.18000000063,"y":2562044.3000000026}},{"attributes":{"ID":27337,"DIS_CODE":0,"TOWNNAME":"楠西區","LI":"龜丹里","LIN":"8鄰","STREET":" ","SECT":" ","MAREA":"龜丹","LANE":" ","ALLEY":" ","HOUSE_NO":"１０２號","E_COORD97":198334.19,"N_COORD97":2560312.25,"ADDRESS":"龜丹１０２號","OBJECTID":27337},"geometry":{"x":198334.18999999948,"y":2560312.25}},{"attributes":{"ID":27338,"DIS_CODE":0,"TOWNNAME":"柳營區","LI":"八翁里","LIN":"8鄰","STREET":" ","SECT":" ","MAREA":"八老爺","LANE":" ","ALLEY":" ","HOUSE_NO":"６６之２號","E_COORD97":178129.31,"N_COORD97":2574686.9199999999,"ADDRESS":"八老爺６６之２號","OBJECTID":27338},"geometry":{"x":178129.31000000145,"y":2574686.9199999999}},{"attributes":{"ID":27339,"DIS_CODE":0,"TOWNNAME":"柳營區","LI":"八翁里","LIN":"8鄰","STREET":" ","SECT":" ","MAREA":"八老爺","LANE":" ","ALLEY":" ","HOUSE_NO":"６６號之２","E_COORD97":178129.31,"N_COORD97":2574686.9199999999,"ADDRESS":"八老爺６６號之２","OBJECTID":27339},"geometry":{"x":178129.31000000145,"y":2574686.9199999999}},{"attributes":{"ID":27340,"DIS_CODE":0,"TOWNNAME":"柳營區","LI":"八翁里","LIN":"8鄰","STREET":" ","SECT":" ","MAREA":"八老爺","LANE":" ","ALLEY":" ","HOUSE_NO":"６６之３號","E_COORD97":178119.41,"N_COORD97":2574687.75,"ADDRESS":"八老爺６６之３號","OBJECTID":27340},"geometry":{"x":178119.41000000108,"y":2574687.75}},{"attributes":{"ID":27341,"DIS_CODE":0,"TOWNNAME":"柳營區","LI":"八翁里","LIN":"8鄰","STREET":" ","SECT":" ","MAREA":"八老爺","LANE":" ","ALLEY":" ","HOUSE_NO":"６６號之３","E_COORD97":178119.41,"N_COORD97":2574687.75,"ADDRESS":"八老爺６６號之３","OBJECTID":27341},"geometry":{"x":178119.41000000108,"y":2574687.75}},{"attributes":{"ID":27342,"DIS_CODE":0,"TOWNNAME":"東區","LI":"自強里","LIN":"17鄰","STREET":"中華東路","SECT":"二段","MAREA":" ","LANE":"２４３巷","ALLEY":"１２弄","HOUSE_NO":"１１號","E_COORD97":171229.67000000001,"N_COORD97":2542584.0600000001,"ADDRESS":"中華東路二段２４３巷１２弄１１號","OBJECTID":27342},"geometry":{"x":171229.67000000086,"y":2542584.0600000024}},{"attributes":{"ID":27343,"DIS_CODE":0,"TOWNNAME":"柳營區","LI":"八翁里","LIN":"8鄰","STREET":" ","SECT":" ","MAREA":"八老爺","LANE":" ","ALLEY":" ","HOUSE_NO":"６７號之１","E_COORD97":178157.47,"N_COORD97":2574680.3100000001,"ADDRESS":"八老爺６７號之１","OBJECTID":27343},"geometry":{"x":178157.47000000067,"y":2574680.3100000005}},{"attributes":{"ID":27344,"DIS_CODE":0,"TOWNNAME":"東區","LI":"自強里","LIN":"17鄰","STREET":"中華東路","SECT":"二段","MAREA":" ","LANE":"２４３巷","ALLEY":"１２弄","HOUSE_NO":"１３號","E_COORD97":171226.67999999999,"N_COORD97":2542580.9100000001,"ADDRESS":"中華東路二段２４３巷１２弄１３號","OBJECTID":27344},"geometry":{"x":171226.6799999997,"y":2542580.9100000039}},{"attributes":{"ID":27345,"DIS_CODE":0,"TOWNNAME":"柳營區","LI":"八翁里","LIN":"8鄰","STREET":" ","SECT":" ","MAREA":"八老爺","LANE":" ","ALLEY":" ","HOUSE_NO":"６７號","E_COORD97":178155.26999999999,"N_COORD97":2574688.2799999998,"ADDRESS":"八老爺６７號","OBJECTID":27345},"geometry":{"x":178155.27000000048,"y":2574688.2800000012}},{"attributes":{"ID":27346,"DIS_CODE":0,"TOWNNAME":"柳營區","LI":"八翁里","LIN":"8鄰","STREET":" ","SECT":" ","MAREA":"八老爺","LANE":" ","ALLEY":" ","HOUSE_NO":"６８號","E_COORD97":178161.69,"N_COORD97":2574668.9100000001,"ADDRESS":"八老爺６８號","OBJECTID":27346},"geometry":{"x":178161.69000000134,"y":2574668.910000002}},{"attributes":{"ID":27347,"DIS_CODE":0,"TOWNNAME":"柳營區","LI":"八翁里","LIN":"8鄰","STREET":" ","SECT":" ","MAREA":"八老爺","LANE":" ","ALLEY":" ","HOUSE_NO":"６９號","E_COORD97":178142.88,"N_COORD97":2574660.2999999998,"ADDRESS":"八老爺６９號","OBJECTID":27347},"geometry":{"x":178142.88000000082,"y":2574660.3000000007}},{"attributes":{"ID":27348,"DIS_CODE":0,"TOWNNAME":"柳營區","LI":"八翁里","LIN":"8鄰","STREET":" ","SECT":" ","MAREA":"八老爺","LANE":" ","ALLEY":" ","HOUSE_NO":"７０之１號","E_COORD97":178071.37,"N_COORD97":2574649.5899999999,"ADDRESS":"八老爺７０之１號","OBJECTID":27348},"geometry":{"x":178071.37000000011,"y":2574649.5900000017}},{"attributes":{"ID":27349,"DIS_CODE":0,"TOWNNAME":"柳營區","LI":"八翁里","LIN":"8鄰","STREET":" ","SECT":" ","MAREA":"八老爺","LANE":" ","ALLEY":" ","HOUSE_NO":"７０號","E_COORD97":178045.62,"N_COORD97":2574673,"ADDRESS":"八老爺７０號","OBJECTID":27349},"geometry":{"x":178045.62000000011,"y":2574672.9999999981}},{"attributes":{"ID":27350,"DIS_CODE":0,"TOWNNAME":"柳營區","LI":"八翁里","LIN":"8鄰","STREET":" ","SECT":" ","MAREA":"八老爺","LANE":" ","ALLEY":" ","HOUSE_NO":"７１之１號","E_COORD97":178030.19,"N_COORD97":2574606.1699999999,"ADDRESS":"八老爺７１之１號","OBJECTID":27350},"geometry":{"x":178030.19000000041,"y":2574606.1699999999}},{"attributes":{"ID":27351,"DIS_CODE":0,"TOWNNAME":"柳營區","LI":"八翁里","LIN":"8鄰","STREET":" ","SECT":" ","MAREA":"八老爺","LANE":" ","ALLEY":" ","HOUSE_NO":"７１號","E_COORD97":178083.60000000001,"N_COORD97":2574625.5499999998,"ADDRESS":"八老爺７１號","OBJECTID":27351},"geometry":{"x":178083.60000000056,"y":2574625.5500000007}},{"attributes":{"ID":27352,"DIS_CODE":0,"TOWNNAME":"柳營區","LI":"八翁里","LIN":"8鄰","STREET":" ","SECT":" ","MAREA":"八老爺","LANE":" ","ALLEY":" ","HOUSE_NO":"７２號","E_COORD97":178100.34,"N_COORD97":2574578.2200000002,"ADDRESS":"八老爺７２號","OBJECTID":27352},"geometry":{"x":178100.33999999985,"y":2574578.2200000025}},{"attributes":{"ID":27353,"DIS_CODE":0,"TOWNNAME":"柳營區","LI":"八翁里","LIN":"8鄰","STREET":" ","SECT":" ","MAREA":"八老爺","LANE":" ","ALLEY":" ","HOUSE_NO":"７３號","E_COORD97":178161.47,"N_COORD97":2574535.21,"ADDRESS":"八老爺７３號","OBJECTID":27353},"geometry":{"x":178161.46999999974,"y":2574535.2100000028}},{"attributes":{"ID":27354,"DIS_CODE":0,"TOWNNAME":"柳營區","LI":"八翁里","LIN":"8鄰","STREET":" ","SECT":" ","MAREA":"八老爺","LANE":" ","ALLEY":" ","HOUSE_NO":"７４號","E_COORD97":178147.78,"N_COORD97":2574596.04,"ADDRESS":"八老爺７４號","OBJECTID":27354},"geometry":{"x":178147.78000000119,"y":2574596.0399999991}},{"attributes":{"ID":27355,"DIS_CODE":0,"TOWNNAME":"柳營區","LI":"八翁里","LIN":"8鄰","STREET":" ","SECT":" ","MAREA":"八老爺","LANE":" ","ALLEY":" ","HOUSE_NO":"７６號","E_COORD97":178150.62,"N_COORD97":2574942.3100000001,"ADDRESS":"八老爺７６號","OBJECTID":27355},"geometry":{"x":178150.62000000104,"y":2574942.3100000005}},{"attributes":{"ID":27356,"DIS_CODE":0,"TOWNNAME":"新營區","LI":"角帶里","LIN":"8鄰","STREET":" ","SECT":" ","MAREA":"角帶圍","LANE":" ","ALLEY":" ","HOUSE_NO":"１０６號","E_COORD97":174903.73000000001,"N_COORD97":2575658.48,"ADDRESS":"角帶圍１０６號","OBJECTID":27356},"geometry":{"x":174903.73000000138,"y":2575658.4800000023}},{"attributes":{"ID":27357,"DIS_CODE":0,"TOWNNAME":"新營區","LI":"護鎮里","LIN":"8鄰","STREET":" ","SECT":" ","MAREA":"後鎮","LANE":" ","ALLEY":" ","HOUSE_NO":"８５之２３號","E_COORD97":179197.60000000001,"N_COORD97":2580914.4399999999,"ADDRESS":"後鎮８５之２３號","OBJECTID":27357},"geometry":{"x":179197.60000000056,"y":2580914.4399999995}},{"attributes":{"ID":27358,"DIS_CODE":0,"TOWNNAME":"七股區","LI":"三股里","LIN":"7鄰","STREET":" ","SECT":" ","MAREA":"三股","LANE":" ","ALLEY":" ","HOUSE_NO":"８９號","E_COORD97":159804.51999999999,"N_COORD97":2555830.1699999999,"ADDRESS":"三股８９號","OBJECTID":27358},"geometry":{"x":159804.52000000142,"y":2555830.1699999999}},{"attributes":{"ID":27359,"DIS_CODE":0,"TOWNNAME":"學甲區","LI":"三慶里","LIN":"8鄰","STREET":" ","SECT":" ","MAREA":"頂洲","LANE":" ","ALLEY":" ","HOUSE_NO":"１０６號之１","E_COORD97":168352.48999999999,"N_COORD97":2576304.8300000001,"ADDRESS":"頂洲１０６號之１","OBJECTID":27359},"geometry":{"x":168352.48999999929,"y":2576304.8300000001}},{"attributes":{"ID":27360,"DIS_CODE":0,"TOWNNAME":"學甲區","LI":"三慶里","LIN":"8鄰","STREET":" ","SECT":" ","MAREA":"頂洲","LANE":" ","ALLEY":" ","HOUSE_NO":"１０７號之１","E_COORD97":168318.07000000001,"N_COORD97":2576255.25,"ADDRESS":"頂洲１０７號之１","OBJECTID":27360},"geometry":{"x":168318.0700000003,"y":2576255.2500000019}},{"attributes":{"ID":27361,"DIS_CODE":0,"TOWNNAME":"學甲區","LI":"三慶里","LIN":"8鄰","STREET":" ","SECT":" ","MAREA":"頂洲","LANE":" ","ALLEY":" ","HOUSE_NO":"１０７號","E_COORD97":168373.47,"N_COORD97":2576305.2200000002,"ADDRESS":"頂洲１０７號","OBJECTID":27361},"geometry":{"x":168373.46999999974,"y":2576305.2200000007}},{"attributes":{"ID":27362,"DIS_CODE":0,"TOWNNAME":"東區","LI":"自強里","LIN":"17鄰","STREET":"中華東路","SECT":"二段","MAREA":" ","LANE":"２４３巷","ALLEY":"１２弄","HOUSE_NO":"１５號","E_COORD97":171224.39000000001,"N_COORD97":2542577.8700000001,"ADDRESS":"中華東路二段２４３巷１２弄１５號","OBJECTID":27362},"geometry":{"x":171224.39000000153,"y":2542577.870000001}},{"attributes":{"ID":27363,"DIS_CODE":0,"TOWNNAME":"東區","LI":"自強里","LIN":"17鄰","STREET":"中華東路","SECT":"二段","MAREA":" ","LANE":"２４３巷","ALLEY":"１２弄","HOUSE_NO":"１７號","E_COORD97":171221.48999999999,"N_COORD97":2542574.5499999998,"ADDRESS":"中華東路二段２４３巷１２弄１７號","OBJECTID":27363},"geometry":{"x":171221.49000000115,"y":2542574.5500000026}},{"attributes":{"ID":27364,"DIS_CODE":0,"TOWNNAME":"東區","LI":"自強里","LIN":"17鄰","STREET":"中華東路","SECT":"二段","MAREA":" ","LANE":"２４３巷","ALLEY":"１２弄","HOUSE_NO":"１９號","E_COORD97":171219.41,"N_COORD97":2542571.3700000001,"ADDRESS":"中華東路二段２４３巷１２弄１９號","OBJECTID":27364},"geometry":{"x":171219.41000000015,"y":2542571.370000001}},{"attributes":{"ID":27365,"DIS_CODE":0,"TOWNNAME":"東區","LI":"自強里","LIN":"17鄰","STREET":"中華東路","SECT":"二段","MAREA":" ","LANE":"２４３巷","ALLEY":"１２弄","HOUSE_NO":"１號","E_COORD97":171242.53,"N_COORD97":2542600.8300000001,"ADDRESS":"中華東路二段２４３巷１２弄１號","OBJECTID":27365},"geometry":{"x":171242.53000000026,"y":2542600.8300000001}},{"attributes":{"ID":27366,"DIS_CODE":0,"TOWNNAME":"東區","LI":"自強里","LIN":"17鄰","STREET":"中華東路","SECT":"二段","MAREA":" ","LANE":"２４３巷","ALLEY":"１２弄","HOUSE_NO":"２１號","E_COORD97":171216.20999999999,"N_COORD97":2542567.8399999999,"ADDRESS":"中華東路二段２４３巷１２弄２１號","OBJECTID":27366},"geometry":{"x":171216.21000000089,"y":2542567.8400000017}},{"attributes":{"ID":27367,"DIS_CODE":0,"TOWNNAME":"東區","LI":"自強里","LIN":"17鄰","STREET":"中華東路","SECT":"二段","MAREA":" ","LANE":"２４３巷","ALLEY":"１２弄","HOUSE_NO":"２３號","E_COORD97":171213.44,"N_COORD97":2542564.2400000002,"ADDRESS":"中華東路二段２４３巷１２弄２３號","OBJECTID":27367},"geometry":{"x":171213.44000000134,"y":2542564.2400000002}},{"attributes":{"ID":27368,"DIS_CODE":0,"TOWNNAME":"東區","LI":"自強里","LIN":"17鄰","STREET":"中華東路","SECT":"二段","MAREA":" ","LANE":"２４３巷","ALLEY":"１２弄","HOUSE_NO":"２５號","E_COORD97":171210.10999999999,"N_COORD97":2542561.8900000001,"ADDRESS":"中華東路二段２４３巷１２弄２５號","OBJECTID":27368},"geometry":{"x":171210.1100000022,"y":2542561.8900000025}},{"attributes":{"ID":27369,"DIS_CODE":0,"TOWNNAME":"永康區","LI":"西灣里","LIN":"34鄰","STREET":"永華路","SECT":" ","MAREA":" ","LANE":" ","ALLEY":" ","HOUSE_NO":"３６４號","E_COORD97":174083.10999999999,"N_COORD97":2545792.5499999998,"ADDRESS":"永華路３６４號","OBJECTID":27369},"geometry":{"x":174083.11000000034,"y":2545792.5500000026}},{"attributes":{"ID":27370,"DIS_CODE":0,"TOWNNAME":"學甲區","LI":"三慶里","LIN":"8鄰","STREET":" ","SECT":" ","MAREA":"頂洲","LANE":" ","ALLEY":" ","HOUSE_NO":"１０８號","E_COORD97":168280.42999999999,"N_COORD97":2576347.3799999999,"ADDRESS":"頂洲１０８號","OBJECTID":27370},"geometry":{"x":168280.4299999997,"y":2576347.379999999}},{"attributes":{"ID":27371,"DIS_CODE":0,"TOWNNAME":"學甲區","LI":"三慶里","LIN":"8鄰","STREET":" ","SECT":" ","MAREA":"頂洲","LANE":" ","ALLEY":" ","HOUSE_NO":"１１０號之１","E_COORD97":168344.70999999999,"N_COORD97":2576352.9300000002,"ADDRESS":"頂洲１１０號之１","OBJECTID":27371},"geometry":{"x":168344.71000000089,"y":2576352.9300000016}},{"attributes":{"ID":27372,"DIS_CODE":0,"TOWNNAME":"東區","LI":"自強里","LIN":"17鄰","STREET":"中華東路","SECT":"二段","MAREA":" ","LANE":"２４３巷","ALLEY":"１２弄","HOUSE_NO":"２７號","E_COORD97":171207.76000000001,"N_COORD97":2542559.1299999999,"ADDRESS":"中華東路二段２４３巷１２弄２７號","OBJECTID":27372},"geometry":{"x":171207.75999999978,"y":2542559.1300000008}},{"attributes":{"ID":27373,"DIS_CODE":0,"TOWNNAME":"東區","LI":"自強里","LIN":"17鄰","STREET":"中華東路","SECT":"二段","MAREA":" ","LANE":"２４３巷","ALLEY":"１２弄","HOUSE_NO":"２９號","E_COORD97":171204.98999999999,"N_COORD97":2542555.5299999998,"ADDRESS":"中華東路二段２４３巷１２弄２９號","OBJECTID":27373},"geometry":{"x":171204.99000000022,"y":2542555.5300000031}},{"attributes":{"ID":27374,"DIS_CODE":0,"TOWNNAME":"東區","LI":"自強里","LIN":"17鄰","STREET":"中華東路","SECT":"二段","MAREA":" ","LANE":"２４３巷","ALLEY":"１２弄","HOUSE_NO":"３１號","E_COORD97":171202.07999999999,"N_COORD97":2542552.7599999998,"ADDRESS":"中華東路二段２４３巷１２弄３１號","OBJECTID":27374},"geometry":{"x":171202.08000000101,"y":2542552.7599999998}},{"attributes":{"ID":27375,"DIS_CODE":0,"TOWNNAME":"東區","LI":"自強里","LIN":"17鄰","STREET":"中華東路","SECT":"二段","MAREA":" ","LANE":"２４３巷","ALLEY":"１２弄","HOUSE_NO":"３３號","E_COORD97":171199.31,"N_COORD97":2542549.0299999998,"ADDRESS":"中華東路二段２４３巷１２弄３３號","OBJECTID":27375},"geometry":{"x":171199.30999999866,"y":2542549.0300000012}},{"attributes":{"ID":27376,"DIS_CODE":0,"TOWNNAME":"東區","LI":"自強里","LIN":"17鄰","STREET":"中華東路","SECT":"二段","MAREA":" ","LANE":"２４３巷","ALLEY":"１２弄","HOUSE_NO":"３５號","E_COORD97":171196.39999999999,"N_COORD97":2542545.9900000002,"ADDRESS":"中華東路二段２４３巷１２弄３５號","OBJECTID":27376},"geometry":{"x":171196.4000000013,"y":2542545.9900000002}},{"attributes":{"ID":27377,"DIS_CODE":0,"TOWNNAME":"東區","LI":"自強里","LIN":"17鄰","STREET":"中華東路","SECT":"二段","MAREA":" ","LANE":"２４３巷","ALLEY":"１２弄","HOUSE_NO":"３７號","E_COORD97":171193.76999999999,"N_COORD97":2542542.6699999999,"ADDRESS":"中華東路二段２４３巷１２弄３７號","OBJECTID":27377},"geometry":{"x":171193.76999999955,"y":2542542.6700000018}},{"attributes":{"ID":27378,"DIS_CODE":0,"TOWNNAME":"東區","LI":"自強里","LIN":"17鄰","STREET":"中華東路","SECT":"二段","MAREA":" ","LANE":"２４３巷","ALLEY":"１２弄","HOUSE_NO":"３號","E_COORD97":171239.44,"N_COORD97":2542597.4900000002,"ADDRESS":"中華東路二段２４３巷１２弄３號","OBJECTID":27378},"geometry":{"x":171239.44000000041,"y":2542597.4900000021}},{"attributes":{"ID":27379,"DIS_CODE":0,"TOWNNAME":"東區","LI":"自強里","LIN":"17鄰","STREET":"中華東路","SECT":"二段","MAREA":" ","LANE":"２４３巷","ALLEY":"１２弄","HOUSE_NO":"５號","E_COORD97":171239.14999999999,"N_COORD97":2542591.7799999998,"ADDRESS":"中華東路二段２４３巷１２弄５號","OBJECTID":27379},"geometry":{"x":171239.1500000013,"y":2542591.7800000012}},{"attributes":{"ID":27380,"DIS_CODE":0,"TOWNNAME":"東區","LI":"自強里","LIN":"17鄰","STREET":"中華東路","SECT":"二段","MAREA":" ","LANE":"２４３巷","ALLEY":"１２弄","HOUSE_NO":"７號","E_COORD97":171234.76000000001,"N_COORD97":2542590.02,"ADDRESS":"中華東路二段２４３巷１２弄７號","OBJECTID":27380},"geometry":{"x":171234.75999999978,"y":2542590.0200000014}},{"attributes":{"ID":27381,"DIS_CODE":0,"TOWNNAME":"東區","LI":"自強里","LIN":"17鄰","STREET":"中華東路","SECT":"二段","MAREA":" ","LANE":"２４３巷","ALLEY":"１２弄","HOUSE_NO":"９號","E_COORD97":171233,"N_COORD97":2542587.04,"ADDRESS":"中華東路二段２４３巷１２弄９號","OBJECTID":27381},"geometry":{"x":171233.00000000093,"y":2542587.040000001}},{"attributes":{"ID":27382,"DIS_CODE":0,"TOWNNAME":"東區","LI":"自強里","LIN":"17鄰","STREET":"中華東路","SECT":"二段","MAREA":" ","LANE":"２４３巷","ALLEY":"２４弄","HOUSE_NO":"１０號","E_COORD97":171258.82000000001,"N_COORD97":2542564.5499999998,"ADDRESS":"中華東路二段２４３巷２４弄１０號","OBJECTID":27382},"geometry":{"x":171258.8200000003,"y":2542564.5500000026}},{"attributes":{"ID":27383,"DIS_CODE":0,"TOWNNAME":"東區","LI":"自強里","LIN":"17鄰","STREET":"中華東路","SECT":"二段","MAREA":" ","LANE":"２４３巷","ALLEY":"２４弄","HOUSE_NO":"１１號","E_COORD97":171273.26000000001,"N_COORD97":2542562.46,"ADDRESS":"中華東路二段２４３巷２４弄１１號","OBJECTID":27383},"geometry":{"x":171273.26000000071,"y":2542562.4600000028}},{"attributes":{"ID":27384,"DIS_CODE":0,"TOWNNAME":"東區","LI":"自強里","LIN":"17鄰","STREET":"中華東路","SECT":"二段","MAREA":" ","LANE":"２４３巷","ALLEY":"２４弄","HOUSE_NO":"１３號","E_COORD97":171269.04999999999,"N_COORD97":2542557.7200000002,"ADDRESS":"中華東路二段２４３巷２４弄１３號","OBJECTID":27384},"geometry":{"x":171269.04999999981,"y":2542557.7200000007}},{"attributes":{"ID":27385,"DIS_CODE":0,"TOWNNAME":"新營區","LI":"南紙里","LIN":"20鄰","STREET":"建業路","SECT":" ","MAREA":" ","LANE":" ","ALLEY":" ","HOUSE_NO":"２８９號","E_COORD97":177919.60999999999,"N_COORD97":2577515.1099999999,"ADDRESS":"建業路２８９號","OBJECTID":27385},"geometry":{"x":177919.6100000022,"y":2577515.1099999994}},{"attributes":{"ID":27386,"DIS_CODE":0,"TOWNNAME":"學甲區","LI":"三慶里","LIN":"8鄰","STREET":" ","SECT":" ","MAREA":"頂洲","LANE":" ","ALLEY":" ","HOUSE_NO":"１１１號","E_COORD97":168379.41,"N_COORD97":2576387.4399999999,"ADDRESS":"頂洲１１１號","OBJECTID":27386},"geometry":{"x":168379.41000000015,"y":2576387.4399999995}},{"attributes":{"ID":27387,"DIS_CODE":0,"TOWNNAME":"學甲區","LI":"三慶里","LIN":"8鄰","STREET":" ","SECT":" ","MAREA":"頂洲","LANE":" ","ALLEY":" ","HOUSE_NO":"１１２號之１","E_COORD97":168407.94,"N_COORD97":2576358.1099999999,"ADDRESS":"頂洲１１２號之１","OBJECTID":27387},"geometry":{"x":168407.94000000134,"y":2576358.1100000013}},{"attributes":{"ID":27388,"DIS_CODE":0,"TOWNNAME":"學甲區","LI":"三慶里","LIN":"8鄰","STREET":" ","SECT":" ","MAREA":"頂洲","LANE":" ","ALLEY":" ","HOUSE_NO":"１１２號之２","E_COORD97":168394.60999999999,"N_COORD97":2576356.2400000002,"ADDRESS":"頂洲１１２號之２","OBJECTID":27388},"geometry":{"x":168394.61000000127,"y":2576356.2400000002}},{"attributes":{"ID":27389,"DIS_CODE":0,"TOWNNAME":"學甲區","LI":"三慶里","LIN":"8鄰","STREET":" ","SECT":" ","MAREA":"頂洲","LANE":" ","ALLEY":" ","HOUSE_NO":"１１２號之３","E_COORD97":168387.16,"N_COORD97":2576353.3199999998,"ADDRESS":"頂洲１１２號之３","OBJECTID":27389},"geometry":{"x":168387.16000000108,"y":2576353.3200000022}},{"attributes":{"ID":27390,"DIS_CODE":0,"TOWNNAME":"學甲區","LI":"三慶里","LIN":"8鄰","STREET":" ","SECT":" ","MAREA":"頂洲","LANE":" ","ALLEY":" ","HOUSE_NO":"１１２號之４","E_COORD97":168378.39000000001,"N_COORD97":2576351.6499999999,"ADDRESS":"頂洲１１２號之４","OBJECTID":27390},"geometry":{"x":168378.3900000006,"y":2576351.6500000022}},{"attributes":{"ID":27391,"DIS_CODE":0,"TOWNNAME":"學甲區","LI":"三慶里","LIN":"8鄰","STREET":" ","SECT":" ","MAREA":"頂洲","LANE":" ","ALLEY":" ","HOUSE_NO":"１１２號之５","E_COORD97":168372.14999999999,"N_COORD97":2576349.0499999998,"ADDRESS":"頂洲１１２號之５","OBJECTID":27391},"geometry":{"x":168372.15000000224,"y":2576349.0500000026}},{"attributes":{"ID":27392,"DIS_CODE":0,"TOWNNAME":"學甲區","LI":"三慶里","LIN":"8鄰","STREET":" ","SECT":" ","MAREA":"頂洲","LANE":" ","ALLEY":" ","HOUSE_NO":"１１２號","E_COORD97":168400.89999999999,"N_COORD97":2576357.1400000001,"ADDRESS":"頂洲１１２號","OBJECTID":27392},"geometry":{"x":168400.90000000224,"y":2576357.1400000006}},{"attributes":{"ID":27393,"DIS_CODE":0,"TOWNNAME":"學甲區","LI":"三慶里","LIN":"8鄰","STREET":" ","SECT":" ","MAREA":"頂洲","LANE":" ","ALLEY":" ","HOUSE_NO":"１１３號之１","E_COORD97":168422.60000000001,"N_COORD97":2576360.4100000001,"ADDRESS":"頂洲１１３號之１","OBJECTID":27393},"geometry":{"x":168422.60000000056,"y":2576360.410000002}},{"attributes":{"ID":27394,"DIS_CODE":0,"TOWNNAME":"學甲區","LI":"三慶里","LIN":"8鄰","STREET":" ","SECT":" ","MAREA":"頂洲","LANE":" ","ALLEY":" ","HOUSE_NO":"１１５號","E_COORD97":168401.95999999999,"N_COORD97":2576399.6299999999,"ADDRESS":"頂洲１１５號","OBJECTID":27394},"geometry":{"x":168401.96000000089,"y":2576399.629999999}},{"attributes":{"ID":27395,"DIS_CODE":0,"TOWNNAME":"學甲區","LI":"三慶里","LIN":"8鄰","STREET":" ","SECT":" ","MAREA":"頂洲","LANE":" ","ALLEY":" ","HOUSE_NO":"１１６號","E_COORD97":168396.75,"N_COORD97":2576415.9500000002,"ADDRESS":"頂洲１１６號","OBJECTID":27395},"geometry":{"x":168396.75000000093,"y":2576415.9500000011}},{"attributes":{"ID":27396,"DIS_CODE":0,"TOWNNAME":"學甲區","LI":"三慶里","LIN":"8鄰","STREET":" ","SECT":" ","MAREA":"頂洲","LANE":" ","ALLEY":" ","HOUSE_NO":"９９號之１","E_COORD97":168419.98000000001,"N_COORD97":2576299,"ADDRESS":"頂洲９９號之１","OBJECTID":27396},"geometry":{"x":168419.98000000045,"y":2576299}},{"attributes":{"ID":27397,"DIS_CODE":0,"TOWNNAME":"學甲區","LI":"三慶里","LIN":"8鄰","STREET":" ","SECT":" ","MAREA":"頂洲","LANE":" ","ALLEY":" ","HOUSE_NO":"９９號","E_COORD97":168417.73000000001,"N_COORD97":2576330.2400000002,"ADDRESS":"頂洲９９號","OBJECTID":27397},"geometry":{"x":168417.73000000138,"y":2576330.2400000021}},{"attributes":{"ID":27398,"DIS_CODE":0,"TOWNNAME":"學甲區","LI":"平和里","LIN":"8鄰","STREET":" ","SECT":" ","MAREA":"學甲寮","LANE":" ","ALLEY":" ","HOUSE_NO":"６９號","E_COORD97":169646.98000000001,"N_COORD97":2573424.8300000001,"ADDRESS":"學甲寮６９號","OBJECTID":27398},"geometry":{"x":169646.98000000138,"y":2573424.8300000019}},{"attributes":{"ID":27399,"DIS_CODE":0,"TOWNNAME":"學甲區","LI":"平和里","LIN":"8鄰","STREET":" ","SECT":" ","MAREA":"學甲寮","LANE":" ","ALLEY":" ","HOUSE_NO":"７０號","E_COORD97":169662.09,"N_COORD97":2573459.2799999998,"ADDRESS":"學甲寮７０號","OBJECTID":27399},"geometry":{"x":169662.09000000078,"y":2573459.2799999993}},{"attributes":{"ID":27400,"DIS_CODE":0,"TOWNNAME":"學甲區","LI":"平和里","LIN":"8鄰","STREET":" ","SECT":" ","MAREA":"學甲寮","LANE":" ","ALLEY":" ","HOUSE_NO":"７１號","E_COORD97":169653.66,"N_COORD97":2573457.0800000001,"ADDRESS":"學甲寮７１號","OBJECTID":27400},"geometry":{"x":169653.66000000108,"y":2573457.0800000019}}]}