{"displayFieldName":"TOWNNAME","fieldAliases":{"ID":"ID","DIS_CODE":"DIS_CODE","TOWNNAME":"TOWNNAME","LI":"LI","LIN":"LIN","STREET":"STREET","SECT":"SECT","MAREA":"MAREA","LANE":"LANE","ALLEY":"ALLEY","HOUSE_NO":"HOUSE_NO","E_COORD97":"E_COORD97","N_COORD97":"N_COORD97","ADDRESS":"ADDRESS","OBJECTID":"OBJECTID"},"geometryType":"esriGeometryPoint","spatialReference":{"wkid":102443,"latestWkid":3826},"fields":[{"name":"ID","type":"esriFieldTypeDouble","alias":"ID"},{"name":"DIS_CODE","type":"esriFieldTypeInteger","alias":"DIS_CODE"},{"name":"TOWNNAME","type":"esriFieldTypeString","alias":"TOWNNAME","length":8},{"name":"LI","type":"esriFieldTypeString","alias":"LI","length":8},{"name":"LIN","type":"esriFieldTypeString","alias":"LIN","length":12},{"name":"STREET","type":"esriFieldTypeString","alias":"STREET","length":20},{"name":"SECT","type":"esriFieldTypeString","alias":"SECT","length":8},{"name":"MAREA","type":"esriFieldTypeString","alias":"MAREA","length":12},{"name":"LANE","type":"esriFieldTypeString","alias":"LANE","length":10},{"name":"ALLEY","type":"esriFieldTypeString","alias":"ALLEY","length":10},{"name":"HOUSE_NO","type":"esriFieldTypeString","alias":"HOUSE_NO","length":20},{"name":"E_COORD97","type":"esriFieldTypeDouble","alias":"E_COORD97"},{"name":"N_COORD97","type":"esriFieldTypeDouble","alias":"N_COORD97"},{"name":"ADDRESS","type":"esriFieldTypeString","alias":"ADDRESS","length":50},{"name":"OBJECTID","type":"esriFieldTypeOID","alias":"OBJECTID"}],"features":[{"attributes":{"ID":654228,"DIS_CODE":0,"TOWNNAME":"仁德區","LI":"仁義里","LIN":"34鄰","STREET":"正義二街","SECT":" ","MAREA":" ","LANE":" ","ALLEY":" ","HOUSE_NO":"１０１號五樓之５","E_COORD97":173661.35000000001,"N_COORD97":2541581.77,"ADDRESS":"正義二街１０１號五樓之５","OBJECTID":654201},"geometry":{"x":173661.35000000056,"y":2541581.7700000014}},{"attributes":{"ID":654229,"DIS_CODE":0,"TOWNNAME":"仁德區","LI":"仁義里","LIN":"34鄰","STREET":"正義二街","SECT":" ","MAREA":" ","LANE":" ","ALLEY":" ","HOUSE_NO":"１０１號六樓之１","E_COORD97":173661.35000000001,"N_COORD97":2541581.77,"ADDRESS":"正義二街１０１號六樓之１","OBJECTID":654202},"geometry":{"x":173661.35000000056,"y":2541581.7700000014}},{"attributes":{"ID":654230,"DIS_CODE":0,"TOWNNAME":"仁德區","LI":"仁義里","LIN":"34鄰","STREET":"正義二街","SECT":" ","MAREA":" ","LANE":" ","ALLEY":" ","HOUSE_NO":"１０１號六樓之２","E_COORD97":173661.35000000001,"N_COORD97":2541581.77,"ADDRESS":"正義二街１０１號六樓之２","OBJECTID":654203},"geometry":{"x":173661.35000000056,"y":2541581.7700000014}},{"attributes":{"ID":654231,"DIS_CODE":0,"TOWNNAME":"仁德區","LI":"仁義里","LIN":"34鄰","STREET":"正義二街","SECT":" ","MAREA":" ","LANE":" ","ALLEY":" ","HOUSE_NO":"１０１號六樓之３","E_COORD97":173661.35000000001,"N_COORD97":2541581.77,"ADDRESS":"正義二街１０１號六樓之３","OBJECTID":654204},"geometry":{"x":173661.35000000056,"y":2541581.7700000014}},{"attributes":{"ID":654232,"DIS_CODE":0,"TOWNNAME":"仁德區","LI":"仁義里","LIN":"34鄰","STREET":"正義二街","SECT":" ","MAREA":" ","LANE":" ","ALLEY":" ","HOUSE_NO":"１０１號六樓之４","E_COORD97":173661.35000000001,"N_COORD97":2541581.77,"ADDRESS":"正義二街１０１號六樓之４","OBJECTID":654205},"geometry":{"x":173661.35000000056,"y":2541581.7700000014}},{"attributes":{"ID":654233,"DIS_CODE":0,"TOWNNAME":"仁德區","LI":"仁義里","LIN":"34鄰","STREET":"正義二街","SECT":" ","MAREA":" ","LANE":" ","ALLEY":" ","HOUSE_NO":"１０１號六樓之５","E_COORD97":173661.35000000001,"N_COORD97":2541581.77,"ADDRESS":"正義二街１０１號六樓之５","OBJECTID":654206},"geometry":{"x":173661.35000000056,"y":2541581.7700000014}},{"attributes":{"ID":654234,"DIS_CODE":0,"TOWNNAME":"仁德區","LI":"仁義里","LIN":"34鄰","STREET":"正義二街","SECT":" ","MAREA":" ","LANE":" ","ALLEY":" ","HOUSE_NO":"１０１號四樓之１","E_COORD97":173661.35000000001,"N_COORD97":2541581.77,"ADDRESS":"正義二街１０１號四樓之１","OBJECTID":654207},"geometry":{"x":173661.35000000056,"y":2541581.7700000014}},{"attributes":{"ID":654235,"DIS_CODE":0,"TOWNNAME":"仁德區","LI":"仁義里","LIN":"34鄰","STREET":"正義二街","SECT":" ","MAREA":" ","LANE":" ","ALLEY":" ","HOUSE_NO":"１０１號四樓之２","E_COORD97":173661.35000000001,"N_COORD97":2541581.77,"ADDRESS":"正義二街１０１號四樓之２","OBJECTID":654208},"geometry":{"x":173661.35000000056,"y":2541581.7700000014}},{"attributes":{"ID":654236,"DIS_CODE":0,"TOWNNAME":"仁德區","LI":"仁義里","LIN":"34鄰","STREET":"正義二街","SECT":" ","MAREA":" ","LANE":" ","ALLEY":" ","HOUSE_NO":"１０１號四樓之４","E_COORD97":173661.35000000001,"N_COORD97":2541581.77,"ADDRESS":"正義二街１０１號四樓之４","OBJECTID":654209},"geometry":{"x":173661.35000000056,"y":2541581.7700000014}},{"attributes":{"ID":654237,"DIS_CODE":0,"TOWNNAME":"仁德區","LI":"仁義里","LIN":"34鄰","STREET":"正義二街","SECT":" ","MAREA":" ","LANE":" ","ALLEY":" ","HOUSE_NO":"１０１號四樓之３","E_COORD97":173661.35000000001,"N_COORD97":2541581.77,"ADDRESS":"正義二街１０１號四樓之３","OBJECTID":654210},"geometry":{"x":173661.35000000056,"y":2541581.7700000014}},{"attributes":{"ID":654238,"DIS_CODE":0,"TOWNNAME":"仁德區","LI":"仁義里","LIN":"34鄰","STREET":"正義二街","SECT":" ","MAREA":" ","LANE":" ","ALLEY":" ","HOUSE_NO":"１０１號四樓之５","E_COORD97":173661.35000000001,"N_COORD97":2541581.77,"ADDRESS":"正義二街１０１號四樓之５","OBJECTID":654211},"geometry":{"x":173661.35000000056,"y":2541581.7700000014}},{"attributes":{"ID":654239,"DIS_CODE":0,"TOWNNAME":"仁德區","LI":"仁義里","LIN":"34鄰","STREET":"正義二街","SECT":" ","MAREA":" ","LANE":" ","ALLEY":" ","HOUSE_NO":"１０９號","E_COORD97":173663.68675399999,"N_COORD97":2541582.22823,"ADDRESS":"正義二街１０９號","OBJECTID":654212},"geometry":{"x":173663.68675400224,"y":2541582.228232}},{"attributes":{"ID":654240,"DIS_CODE":0,"TOWNNAME":"佳里區","LI":"鎮山里","LIN":"23鄰","STREET":"仁愛路","SECT":" ","MAREA":" ","LANE":" ","ALLEY":" ","HOUSE_NO":"１３９號","E_COORD97":166391.14791500001,"N_COORD97":2561348.8415100002,"ADDRESS":"仁愛路１３９號","OBJECTID":654213},"geometry":{"x":166391.14791500103,"y":2561348.8415089995}},{"attributes":{"ID":654241,"DIS_CODE":0,"TOWNNAME":"仁德區","LI":"仁義里","LIN":"31鄰","STREET":"正義二街","SECT":" ","MAREA":" ","LANE":" ","ALLEY":" ","HOUSE_NO":"８８號","E_COORD97":173648.48999999999,"N_COORD97":2541565.2999999998,"ADDRESS":"正義二街８８號","OBJECTID":654214},"geometry":{"x":173648.49000000209,"y":2541565.3000000026}},{"attributes":{"ID":654242,"DIS_CODE":0,"TOWNNAME":"仁德區","LI":"仁義里","LIN":"31鄰","STREET":"正義二街","SECT":" ","MAREA":" ","LANE":" ","ALLEY":" ","HOUSE_NO":"８８號一樓之１","E_COORD97":173648.48999999999,"N_COORD97":2541565.2999999998,"ADDRESS":"正義二街８８號一樓之１","OBJECTID":654215},"geometry":{"x":173648.49000000209,"y":2541565.3000000026}},{"attributes":{"ID":654243,"DIS_CODE":0,"TOWNNAME":"仁德區","LI":"仁義里","LIN":"31鄰","STREET":"正義二街","SECT":" ","MAREA":" ","LANE":" ","ALLEY":" ","HOUSE_NO":"８８號一樓之２","E_COORD97":173648.48999999999,"N_COORD97":2541565.2999999998,"ADDRESS":"正義二街８８號一樓之２","OBJECTID":654216},"geometry":{"x":173648.49000000209,"y":2541565.3000000026}},{"attributes":{"ID":654244,"DIS_CODE":0,"TOWNNAME":"仁德區","LI":"仁義里","LIN":"31鄰","STREET":"正義二街","SECT":" ","MAREA":" ","LANE":" ","ALLEY":" ","HOUSE_NO":"８８號一樓之３","E_COORD97":173648.48999999999,"N_COORD97":2541565.2999999998,"ADDRESS":"正義二街８８號一樓之３","OBJECTID":654217},"geometry":{"x":173648.49000000209,"y":2541565.3000000026}},{"attributes":{"ID":654245,"DIS_CODE":0,"TOWNNAME":"仁德區","LI":"仁義里","LIN":"31鄰","STREET":"正義二街","SECT":" ","MAREA":" ","LANE":" ","ALLEY":" ","HOUSE_NO":"８８號一樓之５","E_COORD97":173648.48999999999,"N_COORD97":2541565.2999999998,"ADDRESS":"正義二街８８號一樓之５","OBJECTID":654218},"geometry":{"x":173648.49000000209,"y":2541565.3000000026}},{"attributes":{"ID":654246,"DIS_CODE":0,"TOWNNAME":"仁德區","LI":"仁義里","LIN":"31鄰","STREET":"正義二街","SECT":" ","MAREA":" ","LANE":" ","ALLEY":" ","HOUSE_NO":"８８號一樓之６","E_COORD97":173648.48999999999,"N_COORD97":2541565.2999999998,"ADDRESS":"正義二街８８號一樓之６","OBJECTID":654219},"geometry":{"x":173648.49000000209,"y":2541565.3000000026}},{"attributes":{"ID":654247,"DIS_CODE":0,"TOWNNAME":"仁德區","LI":"仁義里","LIN":"31鄰","STREET":"正義二街","SECT":" ","MAREA":" ","LANE":" ","ALLEY":" ","HOUSE_NO":"８８號一樓之７","E_COORD97":173648.48999999999,"N_COORD97":2541565.2999999998,"ADDRESS":"正義二街８８號一樓之７","OBJECTID":654220},"geometry":{"x":173648.49000000209,"y":2541565.3000000026}},{"attributes":{"ID":654248,"DIS_CODE":0,"TOWNNAME":"仁德區","LI":"仁義里","LIN":"31鄰","STREET":"正義二街","SECT":" ","MAREA":" ","LANE":" ","ALLEY":" ","HOUSE_NO":"８８號一樓之９","E_COORD97":173648.48999999999,"N_COORD97":2541565.2999999998,"ADDRESS":"正義二街８８號一樓之９","OBJECTID":654221},"geometry":{"x":173648.49000000209,"y":2541565.3000000026}},{"attributes":{"ID":654249,"DIS_CODE":0,"TOWNNAME":"仁德區","LI":"仁義里","LIN":"31鄰","STREET":"正義二街","SECT":" ","MAREA":" ","LANE":" ","ALLEY":" ","HOUSE_NO":"８８號二樓之１","E_COORD97":173648.48999999999,"N_COORD97":2541565.2999999998,"ADDRESS":"正義二街８８號二樓之１","OBJECTID":654222},"geometry":{"x":173648.49000000209,"y":2541565.3000000026}},{"attributes":{"ID":654250,"DIS_CODE":0,"TOWNNAME":"仁德區","LI":"仁義里","LIN":"31鄰","STREET":"正義二街","SECT":" ","MAREA":" ","LANE":" ","ALLEY":" ","HOUSE_NO":"８８號二樓之２","E_COORD97":173648.48999999999,"N_COORD97":2541565.2999999998,"ADDRESS":"正義二街８８號二樓之２","OBJECTID":654223},"geometry":{"x":173648.49000000209,"y":2541565.3000000026}},{"attributes":{"ID":654251,"DIS_CODE":0,"TOWNNAME":"仁德區","LI":"仁義里","LIN":"31鄰","STREET":"正義二街","SECT":" ","MAREA":" ","LANE":" ","ALLEY":" ","HOUSE_NO":"８８號二樓之４","E_COORD97":173648.48999999999,"N_COORD97":2541565.2999999998,"ADDRESS":"正義二街８８號二樓之４","OBJECTID":654224},"geometry":{"x":173648.49000000209,"y":2541565.3000000026}},{"attributes":{"ID":654252,"DIS_CODE":0,"TOWNNAME":"仁德區","LI":"仁義里","LIN":"31鄰","STREET":"正義二街","SECT":" ","MAREA":" ","LANE":" ","ALLEY":" ","HOUSE_NO":"８８號二樓之５","E_COORD97":173648.48999999999,"N_COORD97":2541565.2999999998,"ADDRESS":"正義二街８８號二樓之５","OBJECTID":654225},"geometry":{"x":173648.49000000209,"y":2541565.3000000026}},{"attributes":{"ID":654253,"DIS_CODE":0,"TOWNNAME":"仁德區","LI":"仁義里","LIN":"31鄰","STREET":"正義二街","SECT":" ","MAREA":" ","LANE":" ","ALLEY":" ","HOUSE_NO":"８８號二樓之６","E_COORD97":173648.48999999999,"N_COORD97":2541565.2999999998,"ADDRESS":"正義二街８８號二樓之６","OBJECTID":654226},"geometry":{"x":173648.49000000209,"y":2541565.3000000026}},{"attributes":{"ID":654254,"DIS_CODE":0,"TOWNNAME":"仁德區","LI":"仁義里","LIN":"31鄰","STREET":"正義二街","SECT":" ","MAREA":" ","LANE":" ","ALLEY":" ","HOUSE_NO":"８８號三樓之１","E_COORD97":173648.48999999999,"N_COORD97":2541565.2999999998,"ADDRESS":"正義二街８８號三樓之１","OBJECTID":654227},"geometry":{"x":173648.49000000209,"y":2541565.3000000026}},{"attributes":{"ID":654255,"DIS_CODE":0,"TOWNNAME":"仁德區","LI":"仁義里","LIN":"31鄰","STREET":"正義二街","SECT":" ","MAREA":" ","LANE":" ","ALLEY":" ","HOUSE_NO":"８８號三樓之２","E_COORD97":173648.48999999999,"N_COORD97":2541565.2999999998,"ADDRESS":"正義二街８８號三樓之２","OBJECTID":654228},"geometry":{"x":173648.49000000209,"y":2541565.3000000026}},{"attributes":{"ID":654256,"DIS_CODE":0,"TOWNNAME":"仁德區","LI":"仁義里","LIN":"31鄰","STREET":"正義二街","SECT":" ","MAREA":" ","LANE":" ","ALLEY":" ","HOUSE_NO":"８８號三樓之３","E_COORD97":173648.48999999999,"N_COORD97":2541565.2999999998,"ADDRESS":"正義二街８８號三樓之３","OBJECTID":654229},"geometry":{"x":173648.49000000209,"y":2541565.3000000026}},{"attributes":{"ID":654257,"DIS_CODE":0,"TOWNNAME":"仁德區","LI":"仁義里","LIN":"31鄰","STREET":"正義二街","SECT":" ","MAREA":" ","LANE":" ","ALLEY":" ","HOUSE_NO":"８８號三樓之４","E_COORD97":173648.48999999999,"N_COORD97":2541565.2999999998,"ADDRESS":"正義二街８８號三樓之４","OBJECTID":654230},"geometry":{"x":173648.49000000209,"y":2541565.3000000026}},{"attributes":{"ID":654258,"DIS_CODE":0,"TOWNNAME":"仁德區","LI":"仁義里","LIN":"31鄰","STREET":"正義二街","SECT":" ","MAREA":" ","LANE":" ","ALLEY":" ","HOUSE_NO":"８８號三樓之６","E_COORD97":173648.48999999999,"N_COORD97":2541565.2999999998,"ADDRESS":"正義二街８８號三樓之６","OBJECTID":654231},"geometry":{"x":173648.49000000209,"y":2541565.3000000026}},{"attributes":{"ID":654259,"DIS_CODE":0,"TOWNNAME":"仁德區","LI":"仁義里","LIN":"31鄰","STREET":"正義二街","SECT":" ","MAREA":" ","LANE":" ","ALLEY":" ","HOUSE_NO":"８８號三樓之７","E_COORD97":173648.48999999999,"N_COORD97":2541565.2999999998,"ADDRESS":"正義二街８８號三樓之７","OBJECTID":654232},"geometry":{"x":173648.49000000209,"y":2541565.3000000026}},{"attributes":{"ID":654260,"DIS_CODE":0,"TOWNNAME":"仁德區","LI":"仁義里","LIN":"31鄰","STREET":"正義二街","SECT":" ","MAREA":" ","LANE":" ","ALLEY":" ","HOUSE_NO":"８８號五樓之１","E_COORD97":173648.48999999999,"N_COORD97":2541565.2999999998,"ADDRESS":"正義二街８８號五樓之１","OBJECTID":654233},"geometry":{"x":173648.49000000209,"y":2541565.3000000026}},{"attributes":{"ID":654261,"DIS_CODE":0,"TOWNNAME":"仁德區","LI":"仁義里","LIN":"31鄰","STREET":"正義二街","SECT":" ","MAREA":" ","LANE":" ","ALLEY":" ","HOUSE_NO":"８８號五樓之３","E_COORD97":173648.48999999999,"N_COORD97":2541565.2999999998,"ADDRESS":"正義二街８８號五樓之３","OBJECTID":654234},"geometry":{"x":173648.49000000209,"y":2541565.3000000026}},{"attributes":{"ID":654262,"DIS_CODE":0,"TOWNNAME":"仁德區","LI":"仁義里","LIN":"31鄰","STREET":"正義二街","SECT":" ","MAREA":" ","LANE":" ","ALLEY":" ","HOUSE_NO":"８８號五樓之４","E_COORD97":173648.48999999999,"N_COORD97":2541565.2999999998,"ADDRESS":"正義二街８８號五樓之４","OBJECTID":654235},"geometry":{"x":173648.49000000209,"y":2541565.3000000026}},{"attributes":{"ID":654263,"DIS_CODE":0,"TOWNNAME":"仁德區","LI":"仁義里","LIN":"31鄰","STREET":"正義二街","SECT":" ","MAREA":" ","LANE":" ","ALLEY":" ","HOUSE_NO":"８８號五樓之６","E_COORD97":173648.48999999999,"N_COORD97":2541565.2999999998,"ADDRESS":"正義二街８８號五樓之６","OBJECTID":654236},"geometry":{"x":173648.49000000209,"y":2541565.3000000026}},{"attributes":{"ID":654264,"DIS_CODE":0,"TOWNNAME":"仁德區","LI":"仁義里","LIN":"31鄰","STREET":"正義二街","SECT":" ","MAREA":" ","LANE":" ","ALLEY":" ","HOUSE_NO":"８８號五樓之７","E_COORD97":173648.48999999999,"N_COORD97":2541565.2999999998,"ADDRESS":"正義二街８８號五樓之７","OBJECTID":654237},"geometry":{"x":173648.49000000209,"y":2541565.3000000026}},{"attributes":{"ID":654265,"DIS_CODE":0,"TOWNNAME":"仁德區","LI":"仁義里","LIN":"31鄰","STREET":"正義二街","SECT":" ","MAREA":" ","LANE":" ","ALLEY":" ","HOUSE_NO":"８８號四樓之１","E_COORD97":173648.48999999999,"N_COORD97":2541565.2999999998,"ADDRESS":"正義二街８８號四樓之１","OBJECTID":654238},"geometry":{"x":173648.49000000209,"y":2541565.3000000026}},{"attributes":{"ID":654266,"DIS_CODE":0,"TOWNNAME":"仁德區","LI":"仁義里","LIN":"31鄰","STREET":"正義二街","SECT":" ","MAREA":" ","LANE":" ","ALLEY":" ","HOUSE_NO":"８８號四樓之２","E_COORD97":173648.48999999999,"N_COORD97":2541565.2999999998,"ADDRESS":"正義二街８８號四樓之２","OBJECTID":654239},"geometry":{"x":173648.49000000209,"y":2541565.3000000026}},{"attributes":{"ID":654267,"DIS_CODE":0,"TOWNNAME":"仁德區","LI":"仁義里","LIN":"31鄰","STREET":"正義二街","SECT":" ","MAREA":" ","LANE":" ","ALLEY":" ","HOUSE_NO":"８８號四樓之３","E_COORD97":173648.48999999999,"N_COORD97":2541565.2999999998,"ADDRESS":"正義二街８８號四樓之３","OBJECTID":654240},"geometry":{"x":173648.49000000209,"y":2541565.3000000026}},{"attributes":{"ID":654268,"DIS_CODE":0,"TOWNNAME":"仁德區","LI":"仁義里","LIN":"31鄰","STREET":"正義二街","SECT":" ","MAREA":" ","LANE":" ","ALLEY":" ","HOUSE_NO":"８８號四樓之５","E_COORD97":173648.48999999999,"N_COORD97":2541565.2999999998,"ADDRESS":"正義二街８８號四樓之５","OBJECTID":654241},"geometry":{"x":173648.49000000209,"y":2541565.3000000026}},{"attributes":{"ID":654269,"DIS_CODE":0,"TOWNNAME":"仁德區","LI":"仁義里","LIN":"31鄰","STREET":"正義二街","SECT":" ","MAREA":" ","LANE":" ","ALLEY":" ","HOUSE_NO":"８８號四樓之６","E_COORD97":173648.48999999999,"N_COORD97":2541565.2999999998,"ADDRESS":"正義二街８８號四樓之６","OBJECTID":654242},"geometry":{"x":173648.49000000209,"y":2541565.3000000026}},{"attributes":{"ID":654270,"DIS_CODE":0,"TOWNNAME":"後壁區","LI":"侯伯里","LIN":"7鄰","STREET":" ","SECT":" ","MAREA":"後壁寮","LANE":" ","ALLEY":" ","HOUSE_NO":"５８號之１附１","E_COORD97":185328.07131500001,"N_COORD97":2585193.0144600002,"ADDRESS":"後壁寮５８號之１附１","OBJECTID":654243},"geometry":{"x":185328.07131500077,"y":2585193.014460003}},{"attributes":{"ID":654271,"DIS_CODE":0,"TOWNNAME":"仁德區","LI":"仁義里","LIN":"31鄰","STREET":"正義二街","SECT":" ","MAREA":" ","LANE":" ","ALLEY":" ","HOUSE_NO":"８８號四樓之７","E_COORD97":173648.48999999999,"N_COORD97":2541565.2999999998,"ADDRESS":"正義二街８８號四樓之７","OBJECTID":654244},"geometry":{"x":173648.49000000209,"y":2541565.3000000026}},{"attributes":{"ID":654272,"DIS_CODE":0,"TOWNNAME":"安平區","LI":"漁光里","LIN":"3鄰","STREET":"漁光路","SECT":" ","MAREA":" ","LANE":"８９巷","ALLEY":" ","HOUSE_NO":"２１號","E_COORD97":163913.289323,"N_COORD97":2541828.25342,"ADDRESS":"漁光路８９巷２１號","OBJECTID":654245},"geometry":{"x":163913.28932300117,"y":2541828.2534210049}},{"attributes":{"ID":654273,"DIS_CODE":0,"TOWNNAME":"安平區","LI":"漁光里","LIN":"3鄰","STREET":"漁光路","SECT":" ","MAREA":" ","LANE":"８９巷","ALLEY":" ","HOUSE_NO":"２８號","E_COORD97":163900.15105700001,"N_COORD97":2541929.8533700001,"ADDRESS":"漁光路８９巷２８號","OBJECTID":654246},"geometry":{"x":163900.1510570012,"y":2541929.8533660006}},{"attributes":{"ID":654274,"DIS_CODE":0,"TOWNNAME":"安平區","LI":"漁光里","LIN":"5鄰","STREET":"漁光路","SECT":" ","MAREA":" ","LANE":"８９巷","ALLEY":" ","HOUSE_NO":"４３號之４","E_COORD97":163823.86434,"N_COORD97":2541979.5950000002,"ADDRESS":"漁光路８９巷４３號之４","OBJECTID":654247},"geometry":{"x":163823.86433999892,"y":2541979.5950000025}},{"attributes":{"ID":654275,"DIS_CODE":0,"TOWNNAME":"仁德區","LI":"仁義里","LIN":"8鄰","STREET":"仁義一街","SECT":" ","MAREA":" ","LANE":" ","ALLEY":" ","HOUSE_NO":"９９號","E_COORD97":173548.36204800001,"N_COORD97":2541199.39066,"ADDRESS":"仁義一街９９號","OBJECTID":654248},"geometry":{"x":173548.36204800196,"y":2541199.3906560019}},{"attributes":{"ID":654276,"DIS_CODE":0,"TOWNNAME":"仁德區","LI":"仁義里","LIN":"34鄰","STREET":"正義三街","SECT":" ","MAREA":" ","LANE":" ","ALLEY":" ","HOUSE_NO":"１３８號","E_COORD97":173780.35572200001,"N_COORD97":2541621.4923800002,"ADDRESS":"正義三街１３８號","OBJECTID":654249},"geometry":{"x":173780.35572200175,"y":2541621.4923770018}},{"attributes":{"ID":654277,"DIS_CODE":0,"TOWNNAME":"仁德區","LI":"仁義里","LIN":"34鄰","STREET":"正義三街","SECT":" ","MAREA":" ","LANE":" ","ALLEY":" ","HOUSE_NO":"１３８號七樓","E_COORD97":173780.35572200001,"N_COORD97":2541621.4923800002,"ADDRESS":"正義三街１３８號七樓","OBJECTID":654250},"geometry":{"x":173780.35572200175,"y":2541621.4923770018}},{"attributes":{"ID":654278,"DIS_CODE":0,"TOWNNAME":"仁德區","LI":"仁義里","LIN":"34鄰","STREET":"正義三街","SECT":" ","MAREA":" ","LANE":" ","ALLEY":" ","HOUSE_NO":"１３８號八樓","E_COORD97":173780.35572200001,"N_COORD97":2541621.4923800002,"ADDRESS":"正義三街１３８號八樓","OBJECTID":654251},"geometry":{"x":173780.35572200175,"y":2541621.4923770018}},{"attributes":{"ID":654279,"DIS_CODE":0,"TOWNNAME":"仁德區","LI":"仁義里","LIN":"34鄰","STREET":"正義三街","SECT":" ","MAREA":" ","LANE":" ","ALLEY":" ","HOUSE_NO":"１３８號五樓","E_COORD97":173780.35572200001,"N_COORD97":2541621.4923800002,"ADDRESS":"正義三街１３８號五樓","OBJECTID":654252},"geometry":{"x":173780.35572200175,"y":2541621.4923770018}},{"attributes":{"ID":654280,"DIS_CODE":0,"TOWNNAME":"仁德區","LI":"仁義里","LIN":"34鄰","STREET":"正義三街","SECT":" ","MAREA":" ","LANE":" ","ALLEY":" ","HOUSE_NO":"１３８號六樓","E_COORD97":173780.35572200001,"N_COORD97":2541621.4923800002,"ADDRESS":"正義三街１３８號六樓","OBJECTID":654253},"geometry":{"x":173780.35572200175,"y":2541621.4923770018}},{"attributes":{"ID":654281,"DIS_CODE":0,"TOWNNAME":"仁德區","LI":"仁義里","LIN":"34鄰","STREET":"正義三街","SECT":" ","MAREA":" ","LANE":" ","ALLEY":" ","HOUSE_NO":"１３８號四樓","E_COORD97":173780.35572200001,"N_COORD97":2541621.4923800002,"ADDRESS":"正義三街１３８號四樓","OBJECTID":654254},"geometry":{"x":173780.35572200175,"y":2541621.4923770018}},{"attributes":{"ID":654282,"DIS_CODE":0,"TOWNNAME":"大內區","LI":"二溪里","LIN":"3鄰","STREET":" ","SECT":" ","MAREA":"二重溪","LANE":" ","ALLEY":" ","HOUSE_NO":"１５４之８５號","E_COORD97":188530.550816,"N_COORD97":2558055.0797899999,"ADDRESS":"二重溪１５４之８５號","OBJECTID":654255},"geometry":{"x":188530.55081600137,"y":2558055.0797940008}},{"attributes":{"ID":654283,"DIS_CODE":0,"TOWNNAME":"善化區","LI":"小新里","LIN":"17鄰","STREET":" ","SECT":" ","MAREA":"小新營","LANE":" ","ALLEY":" ","HOUSE_NO":"１４１號之１","E_COORD97":179917.33173000001,"N_COORD97":2558093.6920799999,"ADDRESS":"小新營１４１號之１","OBJECTID":654256},"geometry":{"x":179917.33173000067,"y":2558093.6920800023}},{"attributes":{"ID":654284,"DIS_CODE":0,"TOWNNAME":"善化區","LI":"小新里","LIN":"19鄰","STREET":" ","SECT":" ","MAREA":"小新營","LANE":" ","ALLEY":" ","HOUSE_NO":"１５３號","E_COORD97":179916.37858399999,"N_COORD97":2558242.7053399999,"ADDRESS":"小新營１５３號","OBJECTID":654257},"geometry":{"x":179916.37858400028,"y":2558242.7053380031}},{"attributes":{"ID":654285,"DIS_CODE":0,"TOWNNAME":"善化區","LI":"小新里","LIN":"20鄰","STREET":" ","SECT":" ","MAREA":"小新營","LANE":" ","ALLEY":" ","HOUSE_NO":"１５９號之２","E_COORD97":179982.675151,"N_COORD97":2558258.1570000001,"ADDRESS":"小新營１５９號之２","OBJECTID":654258},"geometry":{"x":179982.67515100073,"y":2558258.1569960024}},{"attributes":{"ID":654286,"DIS_CODE":0,"TOWNNAME":"大內區","LI":"二溪里","LIN":"3鄰","STREET":" ","SECT":" ","MAREA":"二重溪","LANE":" ","ALLEY":" ","HOUSE_NO":"１５４號之２６","E_COORD97":188839.75724800001,"N_COORD97":2558142.0747500001,"ADDRESS":"二重溪１５４號之２６","OBJECTID":654259},"geometry":{"x":188839.75724800024,"y":2558142.0747469999}},{"attributes":{"ID":654287,"DIS_CODE":0,"TOWNNAME":"後壁區","LI":"侯伯里","LIN":"4鄰","STREET":" ","SECT":" ","MAREA":"後壁寮","LANE":" ","ALLEY":" ","HOUSE_NO":"２６號之１","E_COORD97":185504.08649300001,"N_COORD97":2585382.2443599999,"ADDRESS":"後壁寮２６號之１","OBJECTID":654260},"geometry":{"x":185504.08649299946,"y":2585382.2443580013}},{"attributes":{"ID":654288,"DIS_CODE":0,"TOWNNAME":"大內區","LI":"二溪里","LIN":"3鄰","STREET":" ","SECT":" ","MAREA":"二重溪","LANE":" ","ALLEY":" ","HOUSE_NO":"１５４號之９７","E_COORD97":188997.58306800001,"N_COORD97":2558029.99731,"ADDRESS":"二重溪１５４號之９７","OBJECTID":654261},"geometry":{"x":188997.58306800108,"y":2558029.9973070025}},{"attributes":{"ID":654289,"DIS_CODE":0,"TOWNNAME":"後壁區","LI":"侯伯里","LIN":"2鄰","STREET":" ","SECT":" ","MAREA":"後壁寮","LANE":" ","ALLEY":" ","HOUSE_NO":"１９號之１０","E_COORD97":185918.09029399999,"N_COORD97":2585662.4908699999,"ADDRESS":"後壁寮１９號之１０","OBJECTID":654262},"geometry":{"x":185918.09029399976,"y":2585662.4908729997}},{"attributes":{"ID":654290,"DIS_CODE":0,"TOWNNAME":"後壁區","LI":"侯伯里","LIN":"17鄰","STREET":" ","SECT":" ","MAREA":"後壁寮","LANE":" ","ALLEY":" ","HOUSE_NO":"１５０號","E_COORD97":185015.502683,"N_COORD97":2585511.3609500001,"ADDRESS":"後壁寮１５０號","OBJECTID":654263},"geometry":{"x":185015.50268300064,"y":2585511.3609550036}},{"attributes":{"ID":654291,"DIS_CODE":0,"TOWNNAME":"後壁區","LI":"侯伯里","LIN":"16鄰","STREET":" ","SECT":" ","MAREA":"後壁寮","LANE":" ","ALLEY":" ","HOUSE_NO":"１３３號","E_COORD97":185166.35770200001,"N_COORD97":2585538.8776099999,"ADDRESS":"後壁寮１３３號","OBJECTID":654264},"geometry":{"x":185166.357702001,"y":2585538.8776069991}},{"attributes":{"ID":654292,"DIS_CODE":0,"TOWNNAME":"七股區","LI":"三股里","LIN":"8鄰","STREET":" ","SECT":" ","MAREA":"三股","LANE":" ","ALLEY":" ","HOUSE_NO":"１４５號之２５","E_COORD97":159807.939938,"N_COORD97":2556590.94686,"ADDRESS":"三股１４５號之２５","OBJECTID":654265},"geometry":{"x":159807.9399380004,"y":2556590.9468600005}},{"attributes":{"ID":654293,"DIS_CODE":0,"TOWNNAME":"七股區","LI":"三股里","LIN":"8鄰","STREET":" ","SECT":" ","MAREA":"三股","LANE":" ","ALLEY":" ","HOUSE_NO":"１４５號之２３","E_COORD97":159788.22467,"N_COORD97":2556590.7351899999,"ADDRESS":"三股１４５號之２３","OBJECTID":654266},"geometry":{"x":159788.22467000224,"y":2556590.7351939995}},{"attributes":{"ID":654294,"DIS_CODE":0,"TOWNNAME":"大內區","LI":"二溪里","LIN":"6鄰","STREET":" ","SECT":" ","MAREA":"二重溪","LANE":" ","ALLEY":" ","HOUSE_NO":"２０１號之３","E_COORD97":189331.45352700001,"N_COORD97":2558181.9474300002,"ADDRESS":"二重溪２０１號之３","OBJECTID":654267},"geometry":{"x":189331.45352700073,"y":2558181.9474340044}},{"attributes":{"ID":654295,"DIS_CODE":0,"TOWNNAME":"大內區","LI":"二溪里","LIN":"6鄰","STREET":" ","SECT":" ","MAREA":"二重溪","LANE":" ","ALLEY":" ","HOUSE_NO":"２０１號之１","E_COORD97":189488.43195999999,"N_COORD97":2558010.4446100001,"ADDRESS":"二重溪２０１號之１","OBJECTID":654268},"geometry":{"x":189488.43195999973,"y":2558010.4446089994}},{"attributes":{"ID":654296,"DIS_CODE":0,"TOWNNAME":"後壁區","LI":"侯伯里","LIN":"15鄰","STREET":" ","SECT":" ","MAREA":"後壁寮","LANE":" ","ALLEY":" ","HOUSE_NO":"１２５號","E_COORD97":185180.90278,"N_COORD97":2585464.20193,"ADDRESS":"後壁寮１２５號","OBJECTID":654269},"geometry":{"x":185180.90278000012,"y":2585464.2019320019}},{"attributes":{"ID":654297,"DIS_CODE":0,"TOWNNAME":"善化區","LI":"小新里","LIN":"11鄰","STREET":"蓮潭北三街","SECT":" ","MAREA":" ","LANE":" ","ALLEY":" ","HOUSE_NO":"２６８號","E_COORD97":178839.70194299999,"N_COORD97":2557572.3231199998,"ADDRESS":"蓮潭北三街２６８號","OBJECTID":654270},"geometry":{"x":178839.70194300078,"y":2557572.3231150024}},{"attributes":{"ID":654298,"DIS_CODE":0,"TOWNNAME":"善化區","LI":"小新里","LIN":"11鄰","STREET":"蓮潭北三街","SECT":" ","MAREA":" ","LANE":" ","ALLEY":" ","HOUSE_NO":"２７０號","E_COORD97":178834.19488,"N_COORD97":2557572.1114500002,"ADDRESS":"蓮潭北三街２７０號","OBJECTID":654271},"geometry":{"x":178834.19488000032,"y":2557572.1114480011}},{"attributes":{"ID":654299,"DIS_CODE":0,"TOWNNAME":"善化區","LI":"小新里","LIN":"11鄰","STREET":"蓮潭北三街","SECT":" ","MAREA":" ","LANE":" ","ALLEY":" ","HOUSE_NO":"２７２號","E_COORD97":178828.37010199999,"N_COORD97":2557572.1114500002,"ADDRESS":"蓮潭北三街２７２號","OBJECTID":654272},"geometry":{"x":178828.37010200135,"y":2557572.1114480011}},{"attributes":{"ID":654300,"DIS_CODE":0,"TOWNNAME":"善化區","LI":"小新里","LIN":"11鄰","STREET":"蓮潭北三街","SECT":" ","MAREA":" ","LANE":" ","ALLEY":" ","HOUSE_NO":"２７６號","E_COORD97":178822.22760799999,"N_COORD97":2557572.3231199998,"ADDRESS":"蓮潭北三街２７６號","OBJECTID":654273},"geometry":{"x":178822.22760800086,"y":2557572.3231150024}},{"attributes":{"ID":654301,"DIS_CODE":0,"TOWNNAME":"善化區","LI":"小新里","LIN":"11鄰","STREET":"蓮潭北三街","SECT":" ","MAREA":" ","LANE":" ","ALLEY":" ","HOUSE_NO":"２７８號","E_COORD97":178816.72054499999,"N_COORD97":2557572.74645,"ADDRESS":"蓮潭北三街２７８號","OBJECTID":654274},"geometry":{"x":178816.7205450004,"y":2557572.7464480009}},{"attributes":{"ID":654302,"DIS_CODE":0,"TOWNNAME":"善化區","LI":"小新里","LIN":"11鄰","STREET":"蓮潭北三街","SECT":" ","MAREA":" ","LANE":" ","ALLEY":" ","HOUSE_NO":"２８０號","E_COORD97":178810.683957,"N_COORD97":2557572.8522800002,"ADDRESS":"蓮潭北三街２８０號","OBJECTID":654275},"geometry":{"x":178810.68395700213,"y":2557572.8522810023}},{"attributes":{"ID":654303,"DIS_CODE":0,"TOWNNAME":"善化區","LI":"小新里","LIN":"11鄰","STREET":"蓮潭北三街","SECT":" ","MAREA":" ","LANE":" ","ALLEY":" ","HOUSE_NO":"２８２號","E_COORD97":178804.435558,"N_COORD97":2557573.1697800001,"ADDRESS":"蓮潭北三街２８２號","OBJECTID":654276},"geometry":{"x":178804.43555800151,"y":2557573.1697809994}},{"attributes":{"ID":654304,"DIS_CODE":0,"TOWNNAME":"善化區","LI":"小新里","LIN":"11鄰","STREET":"蓮潭北三街","SECT":" ","MAREA":" ","LANE":" ","ALLEY":" ","HOUSE_NO":"２８６號","E_COORD97":178799.14030500001,"N_COORD97":2557573.5931099998,"ADDRESS":"蓮潭北三街２８６號","OBJECTID":654277},"geometry":{"x":178799.14030500129,"y":2557573.5931140035}},{"attributes":{"ID":654305,"DIS_CODE":0,"TOWNNAME":"善化區","LI":"小新里","LIN":"11鄰","STREET":"善新西路","SECT":" ","MAREA":" ","LANE":"６６０巷","ALLEY":" ","HOUSE_NO":"４６號","E_COORD97":178840.91985000001,"N_COORD97":2557594.12476,"ADDRESS":"善新西路６６０巷４６號","OBJECTID":654278},"geometry":{"x":178840.91985000018,"y":2557594.1247600038}},{"attributes":{"ID":654306,"DIS_CODE":0,"TOWNNAME":"善化區","LI":"小新里","LIN":"11鄰","STREET":"善新西路","SECT":" ","MAREA":" ","LANE":"６６０巷","ALLEY":" ","HOUSE_NO":"４２號","E_COORD97":178837.10725999999,"N_COORD97":2557594.4422599999,"ADDRESS":"善新西路６６０巷４２號","OBJECTID":654279},"geometry":{"x":178837.10725999996,"y":2557594.4422600009}},{"attributes":{"ID":654307,"DIS_CODE":0,"TOWNNAME":"善化區","LI":"小新里","LIN":"11鄰","STREET":"善新西路","SECT":" ","MAREA":" ","LANE":"６６０巷","ALLEY":" ","HOUSE_NO":"４０號","E_COORD97":178831.91792000001,"N_COORD97":2557594.3364300001,"ADDRESS":"善新西路６６０巷４０號","OBJECTID":654280},"geometry":{"x":178831.91792000178,"y":2557594.336430002}},{"attributes":{"ID":654308,"DIS_CODE":0,"TOWNNAME":"善化區","LI":"小新里","LIN":"11鄰","STREET":"善新西路","SECT":" ","MAREA":" ","LANE":"６６０巷","ALLEY":" ","HOUSE_NO":"３８號","E_COORD97":178826.41084999999,"N_COORD97":2557594.4422599999,"ADDRESS":"善新西路６６０巷３８號","OBJECTID":654281},"geometry":{"x":178826.41084999964,"y":2557594.4422600009}},{"attributes":{"ID":654309,"DIS_CODE":0,"TOWNNAME":"善化區","LI":"小新里","LIN":"11鄰","STREET":"善新西路","SECT":" ","MAREA":" ","LANE":"６６０巷","ALLEY":" ","HOUSE_NO":"３６號","E_COORD97":178821.0097,"N_COORD97":2557594.3364300001,"ADDRESS":"善新西路６６０巷３６號","OBJECTID":654282},"geometry":{"x":178821.00970000029,"y":2557594.336430002}},{"attributes":{"ID":654310,"DIS_CODE":0,"TOWNNAME":"善化區","LI":"小新里","LIN":"11鄰","STREET":"善新西路","SECT":" ","MAREA":" ","LANE":"６６０巷","ALLEY":" ","HOUSE_NO":"３２號","E_COORD97":178816.13806,"N_COORD97":2557594.5480999998,"ADDRESS":"善新西路６６０巷３２號","OBJECTID":654283},"geometry":{"x":178816.13806000073,"y":2557594.5481000021}},{"attributes":{"ID":654311,"DIS_CODE":0,"TOWNNAME":"善化區","LI":"小新里","LIN":"11鄰","STREET":"善新西路","SECT":" ","MAREA":" ","LANE":"６６０巷","ALLEY":" ","HOUSE_NO":"３０號","E_COORD97":178810.63099999999,"N_COORD97":2557594.4422599999,"ADDRESS":"善新西路６６０巷３０號","OBJECTID":654284},"geometry":{"x":178810.63100000005,"y":2557594.4422600009}},{"attributes":{"ID":654312,"DIS_CODE":0,"TOWNNAME":"大內區","LI":"二溪里","LIN":"6鄰","STREET":" ","SECT":" ","MAREA":"二重溪","LANE":" ","ALLEY":" ","HOUSE_NO":"２０１號之２","E_COORD97":188595.286112,"N_COORD97":2558362.7106699999,"ADDRESS":"二重溪２０１號之２","OBJECTID":654285},"geometry":{"x":188595.28611200023,"y":2558362.7106689997}},{"attributes":{"ID":654313,"DIS_CODE":0,"TOWNNAME":"善化區","LI":"小新里","LIN":"11鄰","STREET":"善新西路","SECT":" ","MAREA":" ","LANE":"６６０巷","ALLEY":" ","HOUSE_NO":"２８號","E_COORD97":178805.17689,"N_COORD97":2557594.5480999998,"ADDRESS":"善新西路６６０巷２８號","OBJECTID":654286},"geometry":{"x":178805.17688999977,"y":2557594.5481000021}},{"attributes":{"ID":654314,"DIS_CODE":0,"TOWNNAME":"善化區","LI":"小新里","LIN":"11鄰","STREET":"善新西路","SECT":" ","MAREA":" ","LANE":"６６０巷","ALLEY":" ","HOUSE_NO":"２６號","E_COORD97":178800.41115999999,"N_COORD97":2557594.65393,"ADDRESS":"善新西路６６０巷２６號","OBJECTID":654287},"geometry":{"x":178800.41115999967,"y":2557594.6539299991}},{"attributes":{"ID":654315,"DIS_CODE":0,"TOWNNAME":"大內區","LI":"二溪里","LIN":"6鄰","STREET":" ","SECT":" ","MAREA":"二重溪","LANE":" ","ALLEY":" ","HOUSE_NO":"２０１號","E_COORD97":188583.84638800001,"N_COORD97":2558375.8339999998,"ADDRESS":"二重溪２０１號","OBJECTID":654288},"geometry":{"x":188583.84638800099,"y":2558375.8339959998}},{"attributes":{"ID":654316,"DIS_CODE":0,"TOWNNAME":"後壁區","LI":"烏樹里","LIN":"13鄰","STREET":" ","SECT":" ","MAREA":"烏樹林","LANE":" ","ALLEY":" ","HOUSE_NO":"４１２號（農業設施不","E_COORD97":187079.13383499999,"N_COORD97":2582801.5258999998,"ADDRESS":"烏樹林４１２號（農業設施不得作為設籍使用）","OBJECTID":654289},"geometry":{"x":187079.13383500092,"y":2582801.5259000007}},{"attributes":{"ID":654317,"DIS_CODE":0,"TOWNNAME":"仁德區","LI":"新田里","LIN":"16鄰","STREET":"北保東路","SECT":" ","MAREA":" ","LANE":"３２巷","ALLEY":"８弄","HOUSE_NO":"１號一樓之１","E_COORD97":173402.37551000001,"N_COORD97":2539328.4975000001,"ADDRESS":"北保東路３２巷８弄１號一樓之１","OBJECTID":654290},"geometry":{"x":173402.37550999969,"y":2539328.4975020029}},{"attributes":{"ID":654318,"DIS_CODE":0,"TOWNNAME":"仁德區","LI":"新田里","LIN":"16鄰","STREET":"北保東路","SECT":" ","MAREA":" ","LANE":"３２巷","ALLEY":"８弄","HOUSE_NO":"１號一樓之２","E_COORD97":173402.37551000001,"N_COORD97":2539328.4975000001,"ADDRESS":"北保東路３２巷８弄１號一樓之２","OBJECTID":654291},"geometry":{"x":173402.37550999969,"y":2539328.4975020029}},{"attributes":{"ID":654319,"DIS_CODE":0,"TOWNNAME":"仁德區","LI":"新田里","LIN":"16鄰","STREET":"北保東路","SECT":" ","MAREA":" ","LANE":"３２巷","ALLEY":"８弄","HOUSE_NO":"１號二樓之１","E_COORD97":173402.37551000001,"N_COORD97":2539328.4975000001,"ADDRESS":"北保東路３２巷８弄１號二樓之１","OBJECTID":654292},"geometry":{"x":173402.37550999969,"y":2539328.4975020029}},{"attributes":{"ID":654320,"DIS_CODE":0,"TOWNNAME":"仁德區","LI":"新田里","LIN":"16鄰","STREET":"北保東路","SECT":" ","MAREA":" ","LANE":"３２巷","ALLEY":"８弄","HOUSE_NO":"１號二樓之２","E_COORD97":173402.37551000001,"N_COORD97":2539328.4975000001,"ADDRESS":"北保東路３２巷８弄１號二樓之２","OBJECTID":654293},"geometry":{"x":173402.37550999969,"y":2539328.4975020029}},{"attributes":{"ID":654321,"DIS_CODE":0,"TOWNNAME":"仁德區","LI":"新田里","LIN":"16鄰","STREET":"北保東路","SECT":" ","MAREA":" ","LANE":"３２巷","ALLEY":"８弄","HOUSE_NO":"１號二樓之３","E_COORD97":173402.37551000001,"N_COORD97":2539328.4975000001,"ADDRESS":"北保東路３２巷８弄１號二樓之３","OBJECTID":654294},"geometry":{"x":173402.37550999969,"y":2539328.4975020029}},{"attributes":{"ID":654322,"DIS_CODE":0,"TOWNNAME":"仁德區","LI":"新田里","LIN":"16鄰","STREET":"北保東路","SECT":" ","MAREA":" ","LANE":"３２巷","ALLEY":"８弄","HOUSE_NO":"１號三樓之３","E_COORD97":173402.37551000001,"N_COORD97":2539328.4975000001,"ADDRESS":"北保東路３２巷８弄１號三樓之３","OBJECTID":654295},"geometry":{"x":173402.37550999969,"y":2539328.4975020029}},{"attributes":{"ID":654323,"DIS_CODE":0,"TOWNNAME":"仁德區","LI":"新田里","LIN":"16鄰","STREET":"北保東路","SECT":" ","MAREA":" ","LANE":"３２巷","ALLEY":"８弄","HOUSE_NO":"１號五樓之３","E_COORD97":173402.37551000001,"N_COORD97":2539328.4975000001,"ADDRESS":"北保東路３２巷８弄１號五樓之３","OBJECTID":654296},"geometry":{"x":173402.37550999969,"y":2539328.4975020029}},{"attributes":{"ID":654324,"DIS_CODE":0,"TOWNNAME":"仁德區","LI":"新田里","LIN":"16鄰","STREET":"北保東路","SECT":" ","MAREA":" ","LANE":"３２巷","ALLEY":"８弄","HOUSE_NO":"１號六樓之１","E_COORD97":173402.37551000001,"N_COORD97":2539328.4975000001,"ADDRESS":"北保東路３２巷８弄１號六樓之１","OBJECTID":654297},"geometry":{"x":173402.37550999969,"y":2539328.4975020029}},{"attributes":{"ID":654325,"DIS_CODE":0,"TOWNNAME":"仁德區","LI":"新田里","LIN":"16鄰","STREET":"北保東路","SECT":" ","MAREA":" ","LANE":"３２巷","ALLEY":"８弄","HOUSE_NO":"１號六樓之２","E_COORD97":173402.37551000001,"N_COORD97":2539328.4975000001,"ADDRESS":"北保東路３２巷８弄１號六樓之２","OBJECTID":654298},"geometry":{"x":173402.37550999969,"y":2539328.4975020029}},{"attributes":{"ID":654326,"DIS_CODE":0,"TOWNNAME":"仁德區","LI":"新田里","LIN":"16鄰","STREET":"北保東路","SECT":" ","MAREA":" ","LANE":"３２巷","ALLEY":"８弄","HOUSE_NO":"１號六樓之３","E_COORD97":173402.37551000001,"N_COORD97":2539328.4975000001,"ADDRESS":"北保東路３２巷８弄１號六樓之３","OBJECTID":654299},"geometry":{"x":173402.37550999969,"y":2539328.4975020029}},{"attributes":{"ID":654327,"DIS_CODE":0,"TOWNNAME":"仁德區","LI":"新田里","LIN":"16鄰","STREET":"北保東路","SECT":" ","MAREA":" ","LANE":"３２巷","ALLEY":"８弄","HOUSE_NO":"１號四樓之１","E_COORD97":173402.37551000001,"N_COORD97":2539328.4975000001,"ADDRESS":"北保東路３２巷８弄１號四樓之１","OBJECTID":654300},"geometry":{"x":173402.37550999969,"y":2539328.4975020029}},{"attributes":{"ID":654328,"DIS_CODE":0,"TOWNNAME":"仁德區","LI":"新田里","LIN":"16鄰","STREET":"北保東路","SECT":" ","MAREA":" ","LANE":"３２巷","ALLEY":"８弄","HOUSE_NO":"１號四樓之２","E_COORD97":173402.37551000001,"N_COORD97":2539328.4975000001,"ADDRESS":"北保東路３２巷８弄１號四樓之２","OBJECTID":654301},"geometry":{"x":173402.37550999969,"y":2539328.4975020029}},{"attributes":{"ID":654329,"DIS_CODE":0,"TOWNNAME":"仁德區","LI":"新田里","LIN":"16鄰","STREET":"北保東路","SECT":" ","MAREA":" ","LANE":"３２巷","ALLEY":"８弄","HOUSE_NO":"１號四樓之３","E_COORD97":173402.37551000001,"N_COORD97":2539328.4975000001,"ADDRESS":"北保東路３２巷８弄１號四樓之３","OBJECTID":654302},"geometry":{"x":173402.37550999969,"y":2539328.4975020029}},{"attributes":{"ID":654330,"DIS_CODE":0,"TOWNNAME":"大內區","LI":"二溪里","LIN":"3鄰","STREET":" ","SECT":" ","MAREA":"二重溪","LANE":" ","ALLEY":" ","HOUSE_NO":"１５４之４號","E_COORD97":188080.539991,"N_COORD97":2558033.43689,"ADDRESS":"二重溪１５４之４號","OBJECTID":654303},"geometry":{"x":188080.5399910016,"y":2558033.4368890021}},{"attributes":{"ID":654331,"DIS_CODE":0,"TOWNNAME":"鹽水區","LI":"大豐里","LIN":"3鄰","STREET":" ","SECT":" ","MAREA":"大豊","LANE":" ","ALLEY":" ","HOUSE_NO":"２６號","E_COORD97":170542.37446299999,"N_COORD97":2573859.0293700001,"ADDRESS":"大豊２６號","OBJECTID":654304},"geometry":{"x":170542.37446300033,"y":2573859.0293750018}},{"attributes":{"ID":654332,"DIS_CODE":0,"TOWNNAME":"鹽水區","LI":"大豐里","LIN":"4鄰","STREET":" ","SECT":" ","MAREA":"大豊","LANE":" ","ALLEY":" ","HOUSE_NO":"１７號","E_COORD97":170563.34933,"N_COORD97":2573842.6252100002,"ADDRESS":"大豊１７號","OBJECTID":654305},"geometry":{"x":170563.34932999872,"y":2573842.6252100021}},{"attributes":{"ID":654333,"DIS_CODE":0,"TOWNNAME":"歸仁區","LI":"八甲里","LIN":"23鄰","STREET":"大仁五街","SECT":" ","MAREA":" ","LANE":" ","ALLEY":" ","HOUSE_NO":"１７號","E_COORD97":178156.41681900001,"N_COORD97":2541439.9512200002,"ADDRESS":"大仁五街１７號","OBJECTID":654306},"geometry":{"x":178156.41681899969,"y":2541439.951220002}},{"attributes":{"ID":654334,"DIS_CODE":0,"TOWNNAME":"仁德區","LI":"新田里","LIN":"16鄰","STREET":"北保東路","SECT":" ","MAREA":" ","LANE":"３２巷","ALLEY":"８弄","HOUSE_NO":"３號一樓之１","E_COORD97":173397.07966300001,"N_COORD97":2539318.7608400001,"ADDRESS":"北保東路３２巷８弄３號一樓之１","OBJECTID":654307},"geometry":{"x":173397.07966300007,"y":2539318.7608400024}},{"attributes":{"ID":654335,"DIS_CODE":0,"TOWNNAME":"仁德區","LI":"新田里","LIN":"16鄰","STREET":"北保東路","SECT":" ","MAREA":" ","LANE":"３２巷","ALLEY":"８弄","HOUSE_NO":"３號一樓之２","E_COORD97":173397.07966300001,"N_COORD97":2539318.7608400001,"ADDRESS":"北保東路３２巷８弄３號一樓之２","OBJECTID":654308},"geometry":{"x":173397.07966300007,"y":2539318.7608400024}},{"attributes":{"ID":654336,"DIS_CODE":0,"TOWNNAME":"仁德區","LI":"新田里","LIN":"16鄰","STREET":"北保東路","SECT":" ","MAREA":" ","LANE":"３２巷","ALLEY":"８弄","HOUSE_NO":"３號二樓之１","E_COORD97":173397.07966300001,"N_COORD97":2539318.7608400001,"ADDRESS":"北保東路３２巷８弄３號二樓之１","OBJECTID":654309},"geometry":{"x":173397.07966300007,"y":2539318.7608400024}},{"attributes":{"ID":654337,"DIS_CODE":0,"TOWNNAME":"仁德區","LI":"新田里","LIN":"16鄰","STREET":"北保東路","SECT":" ","MAREA":" ","LANE":"３２巷","ALLEY":"８弄","HOUSE_NO":"３號二樓之２","E_COORD97":173397.07966300001,"N_COORD97":2539318.7608400001,"ADDRESS":"北保東路３２巷８弄３號二樓之２","OBJECTID":654310},"geometry":{"x":173397.07966300007,"y":2539318.7608400024}},{"attributes":{"ID":654338,"DIS_CODE":0,"TOWNNAME":"仁德區","LI":"新田里","LIN":"16鄰","STREET":"北保東路","SECT":" ","MAREA":" ","LANE":"３２巷","ALLEY":"８弄","HOUSE_NO":"３號三樓之１","E_COORD97":173397.07966300001,"N_COORD97":2539318.7608400001,"ADDRESS":"北保東路３２巷８弄３號三樓之１","OBJECTID":654311},"geometry":{"x":173397.07966300007,"y":2539318.7608400024}},{"attributes":{"ID":654339,"DIS_CODE":0,"TOWNNAME":"仁德區","LI":"新田里","LIN":"16鄰","STREET":"北保東路","SECT":" ","MAREA":" ","LANE":"３２巷","ALLEY":"８弄","HOUSE_NO":"３號三樓之２","E_COORD97":173397.07966300001,"N_COORD97":2539318.7608400001,"ADDRESS":"北保東路３２巷８弄３號三樓之２","OBJECTID":654312},"geometry":{"x":173397.07966300007,"y":2539318.7608400024}},{"attributes":{"ID":654340,"DIS_CODE":0,"TOWNNAME":"仁德區","LI":"新田里","LIN":"16鄰","STREET":"北保東路","SECT":" ","MAREA":" ","LANE":"３２巷","ALLEY":"８弄","HOUSE_NO":"３號四樓之１","E_COORD97":173397.07966300001,"N_COORD97":2539318.7608400001,"ADDRESS":"北保東路３２巷８弄３號四樓之１","OBJECTID":654313},"geometry":{"x":173397.07966300007,"y":2539318.7608400024}},{"attributes":{"ID":654341,"DIS_CODE":0,"TOWNNAME":"仁德區","LI":"新田里","LIN":"16鄰","STREET":"北保東路","SECT":" ","MAREA":" ","LANE":"３２巷","ALLEY":"８弄","HOUSE_NO":"３號四樓之２","E_COORD97":173397.07966300001,"N_COORD97":2539318.7608400001,"ADDRESS":"北保東路３２巷８弄３號四樓之２","OBJECTID":654314},"geometry":{"x":173397.07966300007,"y":2539318.7608400024}},{"attributes":{"ID":654342,"DIS_CODE":0,"TOWNNAME":"仁德區","LI":"新田里","LIN":"16鄰","STREET":"北保東路","SECT":" ","MAREA":" ","LANE":"３２巷","ALLEY":"８弄","HOUSE_NO":"３號五樓之１","E_COORD97":173397.07966300001,"N_COORD97":2539318.7608400001,"ADDRESS":"北保東路３２巷８弄３號五樓之１","OBJECTID":654315},"geometry":{"x":173397.07966300007,"y":2539318.7608400024}},{"attributes":{"ID":654343,"DIS_CODE":0,"TOWNNAME":"仁德區","LI":"新田里","LIN":"16鄰","STREET":"北保東路","SECT":" ","MAREA":" ","LANE":"３２巷","ALLEY":"８弄","HOUSE_NO":"３號五樓之２","E_COORD97":173397.07966300001,"N_COORD97":2539318.7608400001,"ADDRESS":"北保東路３２巷８弄３號五樓之２","OBJECTID":654316},"geometry":{"x":173397.07966300007,"y":2539318.7608400024}},{"attributes":{"ID":654344,"DIS_CODE":0,"TOWNNAME":"仁德區","LI":"新田里","LIN":"16鄰","STREET":"北保東路","SECT":" ","MAREA":" ","LANE":"３２巷","ALLEY":"８弄","HOUSE_NO":"３號六樓之１","E_COORD97":173397.07966300001,"N_COORD97":2539318.7608400001,"ADDRESS":"北保東路３２巷８弄３號六樓之１","OBJECTID":654317},"geometry":{"x":173397.07966300007,"y":2539318.7608400024}},{"attributes":{"ID":654345,"DIS_CODE":0,"TOWNNAME":"仁德區","LI":"新田里","LIN":"16鄰","STREET":"北保東路","SECT":" ","MAREA":" ","LANE":"３２巷","ALLEY":"８弄","HOUSE_NO":"３號六樓之２","E_COORD97":173397.07966300001,"N_COORD97":2539318.7608400001,"ADDRESS":"北保東路３２巷８弄３號六樓之２","OBJECTID":654318},"geometry":{"x":173397.07966300007,"y":2539318.7608400024}},{"attributes":{"ID":654346,"DIS_CODE":0,"TOWNNAME":"仁德區","LI":"後壁里","LIN":"12鄰","STREET":"德善路","SECT":" ","MAREA":" ","LANE":"２１２巷","ALLEY":" ","HOUSE_NO":"５號","E_COORD97":173768.650586,"N_COORD97":2538689.79403,"ADDRESS":"德善路２１２巷５號","OBJECTID":654319},"geometry":{"x":173768.65058600064,"y":2538689.7940260004}},{"attributes":{"ID":654347,"DIS_CODE":0,"TOWNNAME":"仁德區","LI":"仁義里","LIN":"10鄰","STREET":"中山路","SECT":" ","MAREA":" ","LANE":" ","ALLEY":" ","HOUSE_NO":"５１３號一樓","E_COORD97":173520.73776399999,"N_COORD97":2541288.29061,"ADDRESS":"中山路５１３號一樓","OBJECTID":654320},"geometry":{"x":173520.73776400089,"y":2541288.2906080019}},{"attributes":{"ID":654348,"DIS_CODE":0,"TOWNNAME":"仁德區","LI":"仁義里","LIN":"10鄰","STREET":"中山路","SECT":" ","MAREA":" ","LANE":" ","ALLEY":" ","HOUSE_NO":"５１３號一樓","E_COORD97":173520.73776399999,"N_COORD97":2541288.29061,"ADDRESS":"中山路５１３號一樓","OBJECTID":654321},"geometry":{"x":173520.73776400089,"y":2541288.2906080019}},{"attributes":{"ID":654349,"DIS_CODE":0,"TOWNNAME":"鹽水區","LI":"大豐里","LIN":"4鄰","STREET":" ","SECT":" ","MAREA":"大豊","LANE":" ","ALLEY":" ","HOUSE_NO":"１４號","E_COORD97":170585.38354899999,"N_COORD97":2573845.74737,"ADDRESS":"大豊１４號","OBJECTID":654322},"geometry":{"x":170585.38354900014,"y":2573845.747374}},{"attributes":{"ID":654350,"DIS_CODE":0,"TOWNNAME":"仁德區","LI":"後壁里","LIN":"12鄰","STREET":"德善路","SECT":" ","MAREA":" ","LANE":"２１２巷","ALLEY":" ","HOUSE_NO":"１１號","E_COORD97":173745.32531499999,"N_COORD97":2538668.6273699999,"ADDRESS":"德善路２１２巷１１號","OBJECTID":654323},"geometry":{"x":173745.32531500142,"y":2538668.627371002}},{"attributes":{"ID":654351,"DIS_CODE":0,"TOWNNAME":"鹽水區","LI":"大豐里","LIN":"5鄰","STREET":" ","SECT":" ","MAREA":"大豊","LANE":" ","ALLEY":" ","HOUSE_NO":"４８號","E_COORD97":170538.77271700001,"N_COORD97":2573750.9207600001,"ADDRESS":"大豊４８號","OBJECTID":654324},"geometry":{"x":170538.77271699999,"y":2573750.9207580015}},{"attributes":{"ID":654352,"DIS_CODE":0,"TOWNNAME":"仁德區","LI":"後壁里","LIN":"12鄰","STREET":"德善路","SECT":" ","MAREA":" ","LANE":"２１２巷","ALLEY":" ","HOUSE_NO":"３５號","E_COORD97":173803.214396,"N_COORD97":2538621.2140600001,"ADDRESS":"德善路２１２巷３５號","OBJECTID":654325},"geometry":{"x":173803.21439600177,"y":2538621.2140629981}},{"attributes":{"ID":654353,"DIS_CODE":0,"TOWNNAME":"鹽水區","LI":"大豐里","LIN":"5鄰","STREET":" ","SECT":" ","MAREA":"大豊","LANE":" ","ALLEY":" ","HOUSE_NO":"６２之１號","E_COORD97":170589.197163,"N_COORD97":2573690.9132900001,"ADDRESS":"大豊６２之１號","OBJECTID":654326},"geometry":{"x":170589.1971630007,"y":2573690.9132909998}},{"attributes":{"ID":654354,"DIS_CODE":0,"TOWNNAME":"鹽水區","LI":"大豐里","LIN":"5鄰","STREET":" ","SECT":" ","MAREA":"大豊","LANE":" ","ALLEY":" ","HOUSE_NO":"６２號之３","E_COORD97":170573.942709,"N_COORD97":2573711.3391100001,"ADDRESS":"大豊６２號之３","OBJECTID":654327},"geometry":{"x":170573.94270899985,"y":2573711.3391130008}},{"attributes":{"ID":654355,"DIS_CODE":0,"TOWNNAME":"鹽水區","LI":"大豐里","LIN":"5鄰","STREET":" ","SECT":" ","MAREA":"大豊","LANE":" ","ALLEY":" ","HOUSE_NO":"６２號之４","E_COORD97":170577.96819000001,"N_COORD97":2573712.2916100002,"ADDRESS":"大豊６２號之４","OBJECTID":654328},"geometry":{"x":170577.96819000132,"y":2573712.2916119993}},{"attributes":{"ID":654356,"DIS_CODE":0,"TOWNNAME":"鹽水區","LI":"大豐里","LIN":"5鄰","STREET":" ","SECT":" ","MAREA":"大豊","LANE":" ","ALLEY":" ","HOUSE_NO":"６２號之７","E_COORD97":170591.10397,"N_COORD97":2573715.1491100001,"ADDRESS":"大豊６２號之７","OBJECTID":654329},"geometry":{"x":170591.10396999959,"y":2573715.1491110008}},{"attributes":{"ID":654357,"DIS_CODE":0,"TOWNNAME":"大內區","LI":"二溪里","LIN":"1鄰","STREET":" ","SECT":" ","MAREA":"二重溪","LANE":" ","ALLEY":" ","HOUSE_NO":"１２７號之３","E_COORD97":187517.50893099999,"N_COORD97":2557728.0756799998,"ADDRESS":"二重溪１２７號之３","OBJECTID":654330},"geometry":{"x":187517.50893100165,"y":2557728.0756790005}},{"attributes":{"ID":654358,"DIS_CODE":0,"TOWNNAME":"東山區","LI":"東原里","LIN":"6鄰","STREET":" ","SECT":" ","MAREA":"前大埔","LANE":" ","ALLEY":" ","HOUSE_NO":"７０號之１３","E_COORD97":193312.98175000001,"N_COORD97":2573583.8191300002,"ADDRESS":"前大埔７０號之１３","OBJECTID":654331},"geometry":{"x":193312.9817500012,"y":2573583.8191310018}},{"attributes":{"ID":654359,"DIS_CODE":0,"TOWNNAME":"善化區","LI":"光文里","LIN":"28鄰","STREET":"建國路","SECT":" ","MAREA":" ","LANE":"２３１巷","ALLEY":" ","HOUSE_NO":"３０號","E_COORD97":177838.396148,"N_COORD97":2559219.2524600001,"ADDRESS":"建國路２３１巷３０號","OBJECTID":654332},"geometry":{"x":177838.39614800084,"y":2559219.2524610013}},{"attributes":{"ID":654360,"DIS_CODE":0,"TOWNNAME":"大內區","LI":"二溪里","LIN":"1鄰","STREET":" ","SECT":" ","MAREA":"二重溪","LANE":" ","ALLEY":" ","HOUSE_NO":"１２７號之１１","E_COORD97":187534.45667000001,"N_COORD97":2557726.4881799999,"ADDRESS":"二重溪１２７號之１１","OBJECTID":654333},"geometry":{"x":187534.45667000022,"y":2557726.4881799985}},{"attributes":{"ID":654361,"DIS_CODE":0,"TOWNNAME":"善化區","LI":"光文里","LIN":"28鄰","STREET":"建國路","SECT":" ","MAREA":" ","LANE":"２３１巷","ALLEY":" ","HOUSE_NO":"３２號","E_COORD97":177832.042464,"N_COORD97":2559218.6174599999,"ADDRESS":"建國路２３１巷３２號","OBJECTID":654334},"geometry":{"x":177832.0424640011,"y":2559218.6174610015}},{"attributes":{"ID":654362,"DIS_CODE":0,"TOWNNAME":"中西區","LI":"西湖里","LIN":"32鄰","STREET":"湖美二街","SECT":" ","MAREA":" ","LANE":"１４２巷","ALLEY":" ","HOUSE_NO":"５０號","E_COORD97":166237.80397400001,"N_COORD97":2544992.7063199999,"ADDRESS":"湖美二街１４２巷５０號","OBJECTID":654335},"geometry":{"x":166237.80397399981,"y":2544992.7063229997}},{"attributes":{"ID":654363,"DIS_CODE":0,"TOWNNAME":"中西區","LI":"西湖里","LIN":"32鄰","STREET":"湖美二街","SECT":" ","MAREA":" ","LANE":"１４２巷","ALLEY":" ","HOUSE_NO":"５２號","E_COORD97":166239.28780200001,"N_COORD97":2544986.9913300001,"ADDRESS":"湖美二街１４２巷５２號","OBJECTID":654336},"geometry":{"x":166239.28780200053,"y":2544986.9913260005}},{"attributes":{"ID":654364,"DIS_CODE":0,"TOWNNAME":"中西區","LI":"西湖里","LIN":"32鄰","STREET":"湖美二街","SECT":" ","MAREA":" ","LANE":"１４２巷","ALLEY":" ","HOUSE_NO":"５６號","E_COORD97":166241.19558100001,"N_COORD97":2544981.0646600001,"ADDRESS":"湖美二街１４２巷５６號","OBJECTID":654337},"geometry":{"x":166241.1955810003,"y":2544981.0646630004}},{"attributes":{"ID":654365,"DIS_CODE":0,"TOWNNAME":"中西區","LI":"西湖里","LIN":"32鄰","STREET":"湖美二街","SECT":" ","MAREA":" ","LANE":"１４２巷","ALLEY":" ","HOUSE_NO":"６８號","E_COORD97":166254.55003499999,"N_COORD97":2544984.0279899999,"ADDRESS":"湖美二街１４２巷６８號","OBJECTID":654338},"geometry":{"x":166254.55003499985,"y":2544984.0279940031}},{"attributes":{"ID":654366,"DIS_CODE":0,"TOWNNAME":"仁德區","LI":"上崙里","LIN":"12鄰","STREET":"德崙路","SECT":" ","MAREA":" ","LANE":"３９５巷","ALLEY":"１８弄","HOUSE_NO":"２２號","E_COORD97":174251.256027,"N_COORD97":2538132.0867499998,"ADDRESS":"德崙路３９５巷１８弄２２號","OBJECTID":654339},"geometry":{"x":174251.25602700002,"y":2538132.0867460016}},{"attributes":{"ID":654367,"DIS_CODE":0,"TOWNNAME":"中西區","LI":"西賢里","LIN":"31鄰","STREET":"民權路","SECT":"四段","MAREA":" ","LANE":" ","ALLEY":" ","HOUSE_NO":"５６０號","E_COORD97":165035.79715999999,"N_COORD97":2544601.1231999998,"ADDRESS":"民權路四段５６０號","OBJECTID":654340},"geometry":{"x":165035.79716000054,"y":2544601.1232009996}},{"attributes":{"ID":654368,"DIS_CODE":0,"TOWNNAME":"中西區","LI":"西賢里","LIN":"31鄰","STREET":"民權路","SECT":"四段","MAREA":" ","LANE":" ","ALLEY":" ","HOUSE_NO":"５６２號","E_COORD97":165030.285798,"N_COORD97":2544603.2398700002,"ADDRESS":"民權路四段５６２號","OBJECTID":654341},"geometry":{"x":165030.2857980011,"y":2544603.2398670018}},{"attributes":{"ID":654369,"DIS_CODE":0,"TOWNNAME":"中西區","LI":"西賢里","LIN":"31鄰","STREET":"民權路","SECT":"四段","MAREA":" ","LANE":" ","ALLEY":" ","HOUSE_NO":"５６６號","E_COORD97":165023.29060800001,"N_COORD97":2544605.5682000001,"ADDRESS":"民權路四段５６６號","OBJECTID":654342},"geometry":{"x":165023.29060800187,"y":2544605.5681989994}},{"attributes":{"ID":654370,"DIS_CODE":0,"TOWNNAME":"中西區","LI":"西賢里","LIN":"31鄰","STREET":"民權路","SECT":"四段","MAREA":" ","LANE":" ","ALLEY":" ","HOUSE_NO":"５６８號","E_COORD97":165016.93134400001,"N_COORD97":2544607.89653,"ADDRESS":"民權路四段５６８號","OBJECTID":654343},"geometry":{"x":165016.93134399969,"y":2544607.8965310026}},{"attributes":{"ID":654371,"DIS_CODE":0,"TOWNNAME":"中西區","LI":"西賢里","LIN":"31鄰","STREET":"民權路","SECT":"四段","MAREA":" ","LANE":" ","ALLEY":" ","HOUSE_NO":"５７０號","E_COORD97":165009.72417900001,"N_COORD97":2544610.6482000002,"ADDRESS":"民權路四段５７０號","OBJECTID":654344},"geometry":{"x":165009.72417900059,"y":2544610.6481960025}},{"attributes":{"ID":654372,"DIS_CODE":0,"TOWNNAME":"中西區","LI":"西賢里","LIN":"31鄰","STREET":"民權路","SECT":"四段","MAREA":" ","LANE":" ","ALLEY":" ","HOUSE_NO":"５７２號","E_COORD97":165003.15294,"N_COORD97":2544613.1881900001,"ADDRESS":"民權路四段５７２號","OBJECTID":654345},"geometry":{"x":165003.15294000134,"y":2544613.1881950013}},{"attributes":{"ID":654373,"DIS_CODE":0,"TOWNNAME":"仁德區","LI":"上崙里","LIN":"12鄰","STREET":"德崙路","SECT":" ","MAREA":" ","LANE":" ","ALLEY":" ","HOUSE_NO":"５０３號","E_COORD97":174381.76933800001,"N_COORD97":2538008.79098,"ADDRESS":"德崙路５０３號","OBJECTID":654346},"geometry":{"x":174381.76933799963,"y":2538008.7909789998}},{"attributes":{"ID":654374,"DIS_CODE":0,"TOWNNAME":"仁德區","LI":"上崙里","LIN":"12鄰","STREET":"德崙路","SECT":" ","MAREA":" ","LANE":" ","ALLEY":" ","HOUSE_NO":"４７３號","E_COORD97":174341.08986400001,"N_COORD97":2538072.92594,"ADDRESS":"德崙路４７３號","OBJECTID":654347},"geometry":{"x":174341.08986400161,"y":2538072.9259450026}},{"attributes":{"ID":654375,"DIS_CODE":0,"TOWNNAME":"中西區","LI":"西湖里","LIN":"32鄰","STREET":"中華西路","SECT":"二段","MAREA":" ","LANE":"８５１巷","ALLEY":"１５１弄","HOUSE_NO":"３６號","E_COORD97":166273.52183799999,"N_COORD97":2544994.6113200001,"ADDRESS":"中華西路二段８５１巷１５１弄３６號","OBJECTID":654348},"geometry":{"x":166273.52183800004,"y":2544994.6113220025}},{"attributes":{"ID":654376,"DIS_CODE":0,"TOWNNAME":"大內區","LI":"二溪里","LIN":"7鄰","STREET":" ","SECT":" ","MAREA":"二重溪","LANE":" ","ALLEY":" ","HOUSE_NO":"２０８號之２","E_COORD97":189413.53722999999,"N_COORD97":2559713.8254399998,"ADDRESS":"二重溪２０８號之２","OBJECTID":654349},"geometry":{"x":189413.53723000083,"y":2559713.8254400007}},{"attributes":{"ID":654377,"DIS_CODE":0,"TOWNNAME":"仁德區","LI":"上崙里","LIN":"13鄰","STREET":"崑崙路","SECT":" ","MAREA":" ","LANE":" ","ALLEY":" ","HOUSE_NO":"７８９號","E_COORD97":174355.49717799999,"N_COORD97":2537957.8851700001,"ADDRESS":"崑崙路７８９號","OBJECTID":654350},"geometry":{"x":174355.49717800133,"y":2537957.8851740025}},{"attributes":{"ID":654378,"DIS_CODE":0,"TOWNNAME":"大內區","LI":"二溪里","LIN":"7鄰","STREET":" ","SECT":" ","MAREA":"二重溪","LANE":" ","ALLEY":" ","HOUSE_NO":"２０８號之３","E_COORD97":189449.76303,"N_COORD97":2559729.4887600001,"ADDRESS":"二重溪２０８號之３","OBJECTID":654351},"geometry":{"x":189449.76303000096,"y":2559729.4887650013}},{"attributes":{"ID":654379,"DIS_CODE":0,"TOWNNAME":"仁德區","LI":"仁愛里","LIN":"27鄰","STREET":"大同路","SECT":"三段","MAREA":" ","LANE":" ","ALLEY":" ","HOUSE_NO":"３９９號","E_COORD97":169836.99926400001,"N_COORD97":2539226.3925700001,"ADDRESS":"大同路三段３９９號","OBJECTID":654352},"geometry":{"x":169836.99926400091,"y":2539226.3925690036}},{"attributes":{"ID":654380,"DIS_CODE":0,"TOWNNAME":"中西區","LI":"永華里","LIN":"5鄰","STREET":"開山路","SECT":" ","MAREA":" ","LANE":"１２２巷","ALLEY":" ","HOUSE_NO":"５８號之１","E_COORD97":168567.20224300001,"N_COORD97":2543341.9188799998,"ADDRESS":"開山路１２２巷５８號之１","OBJECTID":654353},"geometry":{"x":168567.20224300027,"y":2543341.9188809991}},{"attributes":{"ID":654381,"DIS_CODE":0,"TOWNNAME":"東山區","LI":"東原里","LIN":"6鄰","STREET":" ","SECT":" ","MAREA":"前大埔","LANE":" ","ALLEY":" ","HOUSE_NO":"７０號之１５","E_COORD97":193334.162212,"N_COORD97":2573579.7974700001,"ADDRESS":"前大埔７０號之１５","OBJECTID":654354},"geometry":{"x":193334.16221200116,"y":2573579.7974670008}},{"attributes":{"ID":654382,"DIS_CODE":0,"TOWNNAME":"中西區","LI":"永福里","LIN":"21鄰","STREET":"忠義路","SECT":"二段","MAREA":" ","LANE":"１４７巷","ALLEY":"１弄","HOUSE_NO":"１１號之４","E_COORD97":168277.74976000001,"N_COORD97":2544031.9518400002,"ADDRESS":"忠義路二段１４７巷１弄１１號之４","OBJECTID":654355},"geometry":{"x":168277.74976000004,"y":2544031.9518420007}},{"attributes":{"ID":654383,"DIS_CODE":0,"TOWNNAME":"東山區","LI":"東原里","LIN":"21鄰","STREET":" ","SECT":" ","MAREA":"瓦厝子","LANE":" ","ALLEY":" ","HOUSE_NO":"５３號之６","E_COORD97":194142.30271600001,"N_COORD97":2575729.1654699999,"ADDRESS":"瓦厝子５３號之６","OBJECTID":654356},"geometry":{"x":194142.30271600094,"y":2575729.1654730029}},{"attributes":{"ID":654384,"DIS_CODE":0,"TOWNNAME":"後壁區","LI":"福安里","LIN":"5鄰","STREET":" ","SECT":" ","MAREA":"下寮","LANE":" ","ALLEY":" ","HOUSE_NO":"４２號之３","E_COORD97":184455.312485,"N_COORD97":2580865.5617399998,"ADDRESS":"下寮４２號之３","OBJECTID":654357},"geometry":{"x":184455.31248500105,"y":2580865.5617350005}},{"attributes":{"ID":654385,"DIS_CODE":0,"TOWNNAME":"後壁區","LI":"福安里","LIN":"6鄰","STREET":" ","SECT":" ","MAREA":"下寮","LANE":" ","ALLEY":" ","HOUSE_NO":"５８號之６","E_COORD97":184357.62629799999,"N_COORD97":2580897.8938000002,"ADDRESS":"下寮５８號之６","OBJECTID":654358},"geometry":{"x":184357.62629800104,"y":2580897.8938010018}},{"attributes":{"ID":654386,"DIS_CODE":0,"TOWNNAME":"中西區","LI":"永福里","LIN":"4鄰","STREET":"中正路","SECT":" ","MAREA":" ","LANE":"５３巷","ALLEY":" ","HOUSE_NO":"１０號","E_COORD97":168156.49979999999,"N_COORD97":2543537.9221100002,"ADDRESS":"中正路５３巷１０號","OBJECTID":654359},"geometry":{"x":168156.49980000034,"y":2543537.9221080001}},{"attributes":{"ID":654387,"DIS_CODE":0,"TOWNNAME":"仁德區","LI":"上崙里","LIN":"13鄰","STREET":"德崙路","SECT":" ","MAREA":" ","LANE":" ","ALLEY":" ","HOUSE_NO":"４４０號","E_COORD97":174235.153735,"N_COORD97":2538066.34149,"ADDRESS":"德崙路４４０號","OBJECTID":654360},"geometry":{"x":174235.15373499971,"y":2538066.3414909989}},{"attributes":{"ID":654388,"DIS_CODE":0,"TOWNNAME":"東山區","LI":"東原里","LIN":"18鄰","STREET":" ","SECT":" ","MAREA":"瓦厝子","LANE":" ","ALLEY":" ","HOUSE_NO":"２９號之９","E_COORD97":194757.70102099999,"N_COORD97":2574983.3583800001,"ADDRESS":"瓦厝子２９號之９","OBJECTID":654361},"geometry":{"x":194757.70102100074,"y":2574983.3583760019}},{"attributes":{"ID":654389,"DIS_CODE":0,"TOWNNAME":"中西區","LI":"永福里","LIN":"2鄰","STREET":"友愛街","SECT":" ","MAREA":" ","LANE":"４０巷","ALLEY":" ","HOUSE_NO":"５號","E_COORD97":168122.90169,"N_COORD97":2543545.9654399999,"ADDRESS":"友愛街４０巷５號","OBJECTID":654362},"geometry":{"x":168122.90169000067,"y":2543545.9654370025}},{"attributes":{"ID":654390,"DIS_CODE":0,"TOWNNAME":"仁德區","LI":"上崙里","LIN":"13鄰","STREET":"德崙路","SECT":" ","MAREA":" ","LANE":"４５０巷","ALLEY":" ","HOUSE_NO":"６號","E_COORD97":174239.81492500001,"N_COORD97":2538045.17484,"ADDRESS":"德崙路４５０巷６號","OBJECTID":654363},"geometry":{"x":174239.81492500007,"y":2538045.1748360004}},{"attributes":{"ID":654391,"DIS_CODE":0,"TOWNNAME":"中西區","LI":"永福里","LIN":"2鄰","STREET":"友愛街","SECT":" ","MAREA":" ","LANE":"４０巷","ALLEY":" ","HOUSE_NO":"７號","E_COORD97":168118.87415700001,"N_COORD97":2543546.8121000002,"ADDRESS":"友愛街４０巷７號","OBJECTID":654364},"geometry":{"x":168118.87415700126,"y":2543546.8121040035}},{"attributes":{"ID":654392,"DIS_CODE":0,"TOWNNAME":"仁德區","LI":"上崙里","LIN":"13鄰","STREET":"德崙路","SECT":" ","MAREA":" ","LANE":" ","ALLEY":" ","HOUSE_NO":"４５２號","E_COORD97":174288.33367200001,"N_COORD97":2538049.6198300002,"ADDRESS":"德崙路４５２號","OBJECTID":654365},"geometry":{"x":174288.3336720001,"y":2538049.619833}},{"attributes":{"ID":654393,"DIS_CODE":0,"TOWNNAME":"後壁區","LI":"福安里","LIN":"8鄰","STREET":" ","SECT":" ","MAREA":"下寮","LANE":" ","ALLEY":" ","HOUSE_NO":"８６號之１","E_COORD97":184224.64908800001,"N_COORD97":2581047.9124699999,"ADDRESS":"下寮８６號之１","OBJECTID":654366},"geometry":{"x":184224.64908800088,"y":2581047.9124700017}},{"attributes":{"ID":654394,"DIS_CODE":0,"TOWNNAME":"東山區","LI":"東原里","LIN":"18鄰","STREET":" ","SECT":" ","MAREA":"瓦厝子","LANE":" ","ALLEY":" ","HOUSE_NO":"３２號之１","E_COORD97":194961.77476599999,"N_COORD97":2575002.30253,"ADDRESS":"瓦厝子３２號之１","OBJECTID":654367},"geometry":{"x":194961.77476600092,"y":2575002.3025320023}},{"attributes":{"ID":654395,"DIS_CODE":0,"TOWNNAME":"東山區","LI":"東原里","LIN":"18鄰","STREET":" ","SECT":" ","MAREA":"瓦厝子","LANE":" ","ALLEY":" ","HOUSE_NO":"３２號之２","E_COORD97":194964.74003099999,"N_COORD97":2574972.66921,"ADDRESS":"瓦厝子３２號之２","OBJECTID":654368},"geometry":{"x":194964.74003100116,"y":2574972.6692149993}},{"attributes":{"ID":654396,"DIS_CODE":0,"TOWNNAME":"後壁區","LI":"後壁里","LIN":"9鄰","STREET":" ","SECT":" ","MAREA":"後壁","LANE":" ","ALLEY":" ","HOUSE_NO":"１６８號之７６","E_COORD97":185110.36898,"N_COORD97":2584482.6785300002,"ADDRESS":"後壁１６８號之７６","OBJECTID":654369},"geometry":{"x":185110.36898000073,"y":2584482.6785320025}},{"attributes":{"ID":654397,"DIS_CODE":0,"TOWNNAME":"仁德區","LI":"上崙里","LIN":"13鄰","STREET":"德崙路","SECT":" ","MAREA":" ","LANE":" ","ALLEY":" ","HOUSE_NO":"４６０號","E_COORD97":174334.09808,"N_COORD97":2537992.6815300002,"ADDRESS":"德崙路４６０號","OBJECTID":654370},"geometry":{"x":174334.09808000084,"y":2537992.6815310027}},{"attributes":{"ID":654398,"DIS_CODE":0,"TOWNNAME":"後壁區","LI":"後壁里","LIN":"10鄰","STREET":" ","SECT":" ","MAREA":"後壁","LANE":" ","ALLEY":" ","HOUSE_NO":"１７４號之３０","E_COORD97":185098.18139000001,"N_COORD97":2584885.90331,"ADDRESS":"後壁１７４號之３０","OBJECTID":654371},"geometry":{"x":185098.18138999958,"y":2584885.9033140019}},{"attributes":{"ID":654399,"DIS_CODE":0,"TOWNNAME":"大內區","LI":"二溪里","LIN":"3鄰","STREET":" ","SECT":" ","MAREA":"二重溪","LANE":" ","ALLEY":" ","HOUSE_NO":"１５１號之１","E_COORD97":187770.29044300001,"N_COORD97":2557728.6738700001,"ADDRESS":"二重溪１５１號之１","OBJECTID":654372},"geometry":{"x":187770.29044300038,"y":2557728.673866}},{"attributes":{"ID":654400,"DIS_CODE":0,"TOWNNAME":"中西區","LI":"永華里","LIN":"14鄰","STREET":"開山路","SECT":" ","MAREA":" ","LANE":" ","ALLEY":" ","HOUSE_NO":"７４號之１","E_COORD97":168652.37128799999,"N_COORD97":2543426.0354399998,"ADDRESS":"開山路７４號之１","OBJECTID":654373},"geometry":{"x":168652.37128800154,"y":2543426.0354439989}},{"attributes":{"ID":654401,"DIS_CODE":0,"TOWNNAME":"後壁區","LI":"後壁里","LIN":"4鄰","STREET":" ","SECT":" ","MAREA":"後壁","LANE":" ","ALLEY":" ","HOUSE_NO":"８０號之３８","E_COORD97":184171.50059499999,"N_COORD97":2585178.8498200001,"ADDRESS":"後壁８０號之３８","OBJECTID":654374},"geometry":{"x":184171.50059500057,"y":2585178.8498219997}},{"attributes":{"ID":654402,"DIS_CODE":0,"TOWNNAME":"六甲區","LI":"中社里","LIN":"17鄰","STREET":" ","SECT":" ","MAREA":"林鳳營","LANE":" ","ALLEY":" ","HOUSE_NO":"１００號","E_COORD97":179906.30021799999,"N_COORD97":2571860.00342,"ADDRESS":"林鳳營１００號","OBJECTID":654375},"geometry":{"x":179906.30021800008,"y":2571860.0034170002}},{"attributes":{"ID":654403,"DIS_CODE":0,"TOWNNAME":"中西區","LI":"永華里","LIN":"15鄰","STREET":"友愛街","SECT":" ","MAREA":" ","LANE":" ","ALLEY":" ","HOUSE_NO":"９號之２","E_COORD97":168584.32716799999,"N_COORD97":2543493.7687400002,"ADDRESS":"友愛街９號之２","OBJECTID":654376},"geometry":{"x":168584.327167999,"y":2543493.7687410042}},{"attributes":{"ID":654404,"DIS_CODE":0,"TOWNNAME":"中西區","LI":"永華里","LIN":"15鄰","STREET":"友愛街","SECT":" ","MAREA":" ","LANE":" ","ALLEY":" ","HOUSE_NO":"９號之３","E_COORD97":168590.68643100001,"N_COORD97":2543494.40374,"ADDRESS":"友愛街９號之３","OBJECTID":654377},"geometry":{"x":168590.68643100187,"y":2543494.40374}},{"attributes":{"ID":654405,"DIS_CODE":0,"TOWNNAME":"中西區","LI":"永華里","LIN":"15鄰","STREET":"友愛街","SECT":" ","MAREA":" ","LANE":" ","ALLEY":" ","HOUSE_NO":"９號之４","E_COORD97":168589.414578,"N_COORD97":2543481.4920800002,"ADDRESS":"友愛街９號之４","OBJECTID":654378},"geometry":{"x":168589.41457800008,"y":2543481.4920809995}},{"attributes":{"ID":654406,"DIS_CODE":0,"TOWNNAME":"中西區","LI":"永華里","LIN":"15鄰","STREET":"友愛街","SECT":" ","MAREA":" ","LANE":" ","ALLEY":" ","HOUSE_NO":"９號之５","E_COORD97":168594.07803800001,"N_COORD97":2543483.1854099999,"ADDRESS":"友愛街９號之５","OBJECTID":654379},"geometry":{"x":168594.07803799957,"y":2543483.1854129974}},{"attributes":{"ID":654407,"DIS_CODE":0,"TOWNNAME":"中西區","LI":"永華里","LIN":"16鄰","STREET":"開山路","SECT":" ","MAREA":" ","LANE":" ","ALLEY":" ","HOUSE_NO":"４８號","E_COORD97":168593.760075,"N_COORD97":2543527.2120599998,"ADDRESS":"開山路４８號","OBJECTID":654380},"geometry":{"x":168593.76007500198,"y":2543527.2120560016}},{"attributes":{"ID":654408,"DIS_CODE":0,"TOWNNAME":"鹽水區","LI":"大豐里","LIN":"6鄰","STREET":" ","SECT":" ","MAREA":"大豊","LANE":" ","ALLEY":" ","HOUSE_NO":"３７號","E_COORD97":170448.35821999999,"N_COORD97":2573735.0986100002,"ADDRESS":"大豊３７號","OBJECTID":654381},"geometry":{"x":170448.35821999982,"y":2573735.0986080002}},{"attributes":{"ID":654409,"DIS_CODE":0,"TOWNNAME":"鹽水區","LI":"大豐里","LIN":"6鄰","STREET":" ","SECT":" ","MAREA":"大豊","LANE":" ","ALLEY":" ","HOUSE_NO":"３８號","E_COORD97":170464.672012,"N_COORD97":2573735.6277700001,"ADDRESS":"大豊３８號","OBJECTID":654382},"geometry":{"x":170464.67201200034,"y":2573735.6277750041}},{"attributes":{"ID":654410,"DIS_CODE":0,"TOWNNAME":"鹽水區","LI":"大豐里","LIN":"7鄰","STREET":" ","SECT":" ","MAREA":"大豊","LANE":" ","ALLEY":" ","HOUSE_NO":"６４號","E_COORD97":170513.61338600001,"N_COORD97":2573653.2894899999,"ADDRESS":"大豊６４號","OBJECTID":654383},"geometry":{"x":170513.61338600144,"y":2573653.2894860003}},{"attributes":{"ID":654411,"DIS_CODE":0,"TOWNNAME":"仁德區","LI":"新田里","LIN":"16鄰","STREET":"北保東路","SECT":" ","MAREA":" ","LANE":" ","ALLEY":" ","HOUSE_NO":"４２之１號","E_COORD97":173460.84165799999,"N_COORD97":2539357.0724900002,"ADDRESS":"北保東路４２之１號","OBJECTID":654384},"geometry":{"x":173460.8416579999,"y":2539357.072486002}},{"attributes":{"ID":654412,"DIS_CODE":0,"TOWNNAME":"仁德區","LI":"上崙里","LIN":"14鄰","STREET":"德崙路","SECT":" ","MAREA":" ","LANE":" ","ALLEY":" ","HOUSE_NO":"４０６號","E_COORD97":174125.615777,"N_COORD97":2538055.5465000002,"ADDRESS":"德崙路４０６號","OBJECTID":654385},"geometry":{"x":174125.61577700172,"y":2538055.5464970004}},{"attributes":{"ID":654413,"DIS_CODE":0,"TOWNNAME":"鹽水區","LI":"大豐里","LIN":"7鄰","STREET":" ","SECT":" ","MAREA":"大豊","LANE":" ","ALLEY":" ","HOUSE_NO":"６６號","E_COORD97":170503.44375000001,"N_COORD97":2573695.83446,"ADDRESS":"大豊６６號","OBJECTID":654386},"geometry":{"x":170503.44375000056,"y":2573695.8344630022}},{"attributes":{"ID":654414,"DIS_CODE":0,"TOWNNAME":"鹽水區","LI":"大豐里","LIN":"7鄰","STREET":" ","SECT":" ","MAREA":"大豊","LANE":" ","ALLEY":" ","HOUSE_NO":"６７號","E_COORD97":170492.21477600001,"N_COORD97":2573692.34197,"ADDRESS":"大豊６７號","OBJECTID":654387},"geometry":{"x":170492.21477600001,"y":2573692.3419650011}},{"attributes":{"ID":654415,"DIS_CODE":0,"TOWNNAME":"仁德區","LI":"土庫里","LIN":"2鄰","STREET":"中正路","SECT":"三段","MAREA":" ","LANE":" ","ALLEY":" ","HOUSE_NO":"４３２號","E_COORD97":174017.587172,"N_COORD97":2542917.0402099998,"ADDRESS":"中正路三段４３２號","OBJECTID":654388},"geometry":{"x":174017.58717200067,"y":2542917.040205}},{"attributes":{"ID":654416,"DIS_CODE":0,"TOWNNAME":"鹽水區","LI":"大豐里","LIN":"8鄰","STREET":" ","SECT":" ","MAREA":"大豊","LANE":" ","ALLEY":" ","HOUSE_NO":"７６號","E_COORD97":170394.702796,"N_COORD97":2573712.3709100001,"ADDRESS":"大豊７６號","OBJECTID":654389},"geometry":{"x":170394.70279600099,"y":2573712.3709120024}},{"attributes":{"ID":654417,"DIS_CODE":0,"TOWNNAME":"下營區","LI":"中營里","LIN":"15鄰","STREET":" ","SECT":" ","MAREA":"中營","LANE":" ","ALLEY":" ","HOUSE_NO":"１２８８號之１０","E_COORD97":175290.671959,"N_COORD97":2568835.1154999998,"ADDRESS":"中營１２８８號之１０","OBJECTID":654390},"geometry":{"x":175290.67195899971,"y":2568835.1154979989}},{"attributes":{"ID":654418,"DIS_CODE":0,"TOWNNAME":"仁德區","LI":"新田里","LIN":"16鄰","STREET":"民安路","SECT":"二段","MAREA":" ","LANE":" ","ALLEY":" ","HOUSE_NO":"２１號","E_COORD97":173351.32354700001,"N_COORD97":2539293.4666900001,"ADDRESS":"民安路二段２１號","OBJECTID":654391},"geometry":{"x":173351.32354700193,"y":2539293.4666869994}},{"attributes":{"ID":654419,"DIS_CODE":0,"TOWNNAME":"安南區","LI":"溪心里","LIN":"2鄰","STREET":"海環街","SECT":" ","MAREA":" ","LANE":" ","ALLEY":" ","HOUSE_NO":"７２９之１號","E_COORD97":166588.90373300001,"N_COORD97":2549331.7740000002,"ADDRESS":"海環街７２９之１號","OBJECTID":654392},"geometry":{"x":166588.90373300016,"y":2549331.7739989981}},{"attributes":{"ID":654420,"DIS_CODE":0,"TOWNNAME":"安南區","LI":"溪心里","LIN":"1鄰","STREET":"海環街","SECT":" ","MAREA":" ","LANE":" ","ALLEY":" ","HOUSE_NO":"７２９之１號","E_COORD97":166588.90373300001,"N_COORD97":2549331.7740000002,"ADDRESS":"海環街７２９之１號","OBJECTID":654393},"geometry":{"x":166588.90373300016,"y":2549331.7739989981}},{"attributes":{"ID":654421,"DIS_CODE":0,"TOWNNAME":"安南區","LI":"溪心里","LIN":"1鄰","STREET":"海中街","SECT":" ","MAREA":" ","LANE":" ","ALLEY":" ","HOUSE_NO":"１６８之５０號","E_COORD97":166162.47338099999,"N_COORD97":2549449.67227,"ADDRESS":"海中街１６８之５０號","OBJECTID":654394},"geometry":{"x":166162.47338099964,"y":2549449.6722689997}},{"attributes":{"ID":654422,"DIS_CODE":0,"TOWNNAME":"仁德區","LI":"上崙里","LIN":"14鄰","STREET":"德崙路","SECT":" ","MAREA":" ","LANE":"３７０巷","ALLEY":"２１弄","HOUSE_NO":"２９號","E_COORD97":174120.53084299999,"N_COORD97":2538032.7923400002,"ADDRESS":"德崙路３７０巷２１弄２９號","OBJECTID":654395},"geometry":{"x":174120.53084300086,"y":2538032.7923420016}},{"attributes":{"ID":654423,"DIS_CODE":0,"TOWNNAME":"仁德區","LI":"後壁里","LIN":"12鄰","STREET":"德善路","SECT":" ","MAREA":" ","LANE":" ","ALLEY":" ","HOUSE_NO":"２７４號","E_COORD97":173956.10094500001,"N_COORD97":2538475.7991399998,"ADDRESS":"德善路２７４號","OBJECTID":654396},"geometry":{"x":173956.10094499961,"y":2538475.7991420012}},{"attributes":{"ID":654424,"DIS_CODE":0,"TOWNNAME":"鹽水區","LI":"大豐里","LIN":"9鄰","STREET":" ","SECT":" ","MAREA":"大豊","LANE":" ","ALLEY":" ","HOUSE_NO":"８９之６號","E_COORD97":170502.75518000001,"N_COORD97":2574147.3456799998,"ADDRESS":"大豊８９之６號","OBJECTID":654397},"geometry":{"x":170502.75518000033,"y":2574147.3456769995}},{"attributes":{"ID":654425,"DIS_CODE":0,"TOWNNAME":"安南區","LI":"溪心里","LIN":"13鄰","STREET":"海中街","SECT":" ","MAREA":" ","LANE":" ","ALLEY":" ","HOUSE_NO":"１８２號之６０","E_COORD97":165950.31687099999,"N_COORD97":2549616.25385,"ADDRESS":"海中街１８２號之６０","OBJECTID":654398},"geometry":{"x":165950.31687100045,"y":2549616.2538460046}},{"attributes":{"ID":654426,"DIS_CODE":0,"TOWNNAME":"鹽水區","LI":"大豐里","LIN":"9鄰","STREET":" ","SECT":" ","MAREA":"大豊","LANE":" ","ALLEY":" ","HOUSE_NO":"８９號之８","E_COORD97":170564.83233400001,"N_COORD97":2574078.23655,"ADDRESS":"大豊８９號之８","OBJECTID":654399},"geometry":{"x":170564.83233399969,"y":2574078.2365479991}},{"attributes":{"ID":654427,"DIS_CODE":0,"TOWNNAME":"鹽水區","LI":"大豐里","LIN":"9鄰","STREET":" ","SECT":" ","MAREA":"大豊","LANE":" ","ALLEY":" ","HOUSE_NO":"８９號之９","E_COORD97":170550.63721700001,"N_COORD97":2574139.30235,"ADDRESS":"大豊８９號之９","OBJECTID":654400},"geometry":{"x":170550.63721700013,"y":2574139.3023479972}}]}