{"displayFieldName":"TOWNNAME","fieldAliases":{"ID":"ID","DIS_CODE":"DIS_CODE","TOWNNAME":"TOWNNAME","LI":"LI","LIN":"LIN","STREET":"STREET","SECT":"SECT","MAREA":"MAREA","LANE":"LANE","ALLEY":"ALLEY","HOUSE_NO":"HOUSE_NO","E_COORD97":"E_COORD97","N_COORD97":"N_COORD97","ADDRESS":"ADDRESS","OBJECTID":"OBJECTID"},"geometryType":"esriGeometryPoint","spatialReference":{"wkid":102443,"latestWkid":3826},"fields":[{"name":"ID","type":"esriFieldTypeDouble","alias":"ID"},{"name":"DIS_CODE","type":"esriFieldTypeInteger","alias":"DIS_CODE"},{"name":"TOWNNAME","type":"esriFieldTypeString","alias":"TOWNNAME","length":8},{"name":"LI","type":"esriFieldTypeString","alias":"LI","length":8},{"name":"LIN","type":"esriFieldTypeString","alias":"LIN","length":12},{"name":"STREET","type":"esriFieldTypeString","alias":"STREET","length":20},{"name":"SECT","type":"esriFieldTypeString","alias":"SECT","length":8},{"name":"MAREA","type":"esriFieldTypeString","alias":"MAREA","length":12},{"name":"LANE","type":"esriFieldTypeString","alias":"LANE","length":10},{"name":"ALLEY","type":"esriFieldTypeString","alias":"ALLEY","length":10},{"name":"HOUSE_NO","type":"esriFieldTypeString","alias":"HOUSE_NO","length":20},{"name":"E_COORD97","type":"esriFieldTypeDouble","alias":"E_COORD97"},{"name":"N_COORD97","type":"esriFieldTypeDouble","alias":"N_COORD97"},{"name":"ADDRESS","type":"esriFieldTypeString","alias":"ADDRESS","length":50},{"name":"OBJECTID","type":"esriFieldTypeOID","alias":"OBJECTID"}],"features":[{"attributes":{"ID":411225,"DIS_CODE":0,"TOWNNAME":"安南區","LI":"城北里","LIN":"3鄰","STREET":"安中路","SECT":"六段","MAREA":" ","LANE":"５７８巷","ALLEY":" ","HOUSE_NO":"９８號","E_COORD97":161091.09,"N_COORD97":2551498.6600000001,"ADDRESS":"安中路六段５７８巷９８號","OBJECTID":411201},"geometry":{"x":161091.09000000171,"y":2551498.6600000001}},{"attributes":{"ID":411226,"DIS_CODE":0,"TOWNNAME":"安南區","LI":"\u25A0南里","LIN":"3鄰","STREET":"環福街","SECT":" ","MAREA":" ","LANE":"６１巷","ALLEY":" ","HOUSE_NO":"２０號","E_COORD97":170295.60999999999,"N_COORD97":2552487.4700000002,"ADDRESS":"環福街６１巷２０號","OBJECTID":411202},"geometry":{"x":170295.61000000034,"y":2552487.4700000044}},{"attributes":{"ID":411227,"DIS_CODE":0,"TOWNNAME":"安南區","LI":"鳳凰里","LIN":"3鄰","STREET":"安中路","SECT":"一段","MAREA":" ","LANE":"６２２巷","ALLEY":" ","HOUSE_NO":"３２號","E_COORD97":167911.44151999999,"N_COORD97":2549149.3897099998,"ADDRESS":"安中路一段６２２巷３２號","OBJECTID":411203},"geometry":{"x":167911.44152000174,"y":2549149.3897079993}},{"attributes":{"ID":411228,"DIS_CODE":0,"TOWNNAME":"安南區","LI":"鳳凰里","LIN":"3鄰","STREET":"安中路","SECT":"一段","MAREA":" ","LANE":"６２２巷","ALLEY":" ","HOUSE_NO":"３４號","E_COORD97":167915.88791399999,"N_COORD97":2549149.3897099998,"ADDRESS":"安中路一段６２２巷３４號","OBJECTID":411204},"geometry":{"x":167915.88791399915,"y":2549149.3897079993}},{"attributes":{"ID":411229,"DIS_CODE":0,"TOWNNAME":"安南區","LI":"海西里","LIN":"3鄰","STREET":"海中街","SECT":" ","MAREA":" ","LANE":"１６９巷","ALLEY":" ","HOUSE_NO":"５９號之１","E_COORD97":166285.28,"N_COORD97":2549085.3799999999,"ADDRESS":"海中街１６９巷５９號之１","OBJECTID":411205},"geometry":{"x":166285.28000000026,"y":2549085.379999999}},{"attributes":{"ID":411230,"DIS_CODE":0,"TOWNNAME":"安南區","LI":"\u25A0南里","LIN":"3鄰","STREET":"環福街","SECT":" ","MAREA":" ","LANE":"６１巷","ALLEY":" ","HOUSE_NO":"２６號","E_COORD97":170295.73999999999,"N_COORD97":2552474.5800000001,"ADDRESS":"環福街６１巷２６號","OBJECTID":411206},"geometry":{"x":170295.74000000115,"y":2552474.5800000001}},{"attributes":{"ID":411231,"DIS_CODE":0,"TOWNNAME":"安南區","LI":"\u25A0南里","LIN":"3鄰","STREET":"環福街","SECT":" ","MAREA":" ","LANE":"６１巷","ALLEY":" ","HOUSE_NO":"２２號","E_COORD97":170295.48000000001,"N_COORD97":2552482.1499999999,"ADDRESS":"環福街６１巷２２號","OBJECTID":411207},"geometry":{"x":170295.47999999952,"y":2552482.1500000004}},{"attributes":{"ID":411232,"DIS_CODE":0,"TOWNNAME":"安南區","LI":"\u25A0南里","LIN":"3鄰","STREET":"環福街","SECT":" ","MAREA":" ","LANE":"６１巷","ALLEY":" ","HOUSE_NO":"２４號","E_COORD97":170295.48000000001,"N_COORD97":2552478.96,"ADDRESS":"環福街６１巷２４號","OBJECTID":411208},"geometry":{"x":170295.47999999952,"y":2552478.9600000028}},{"attributes":{"ID":411233,"DIS_CODE":0,"TOWNNAME":"安南區","LI":"\u25A0南里","LIN":"3鄰","STREET":"環福街","SECT":" ","MAREA":" ","LANE":"６１巷","ALLEY":" ","HOUSE_NO":"２８號","E_COORD97":170296.01000000001,"N_COORD97":2552470.3199999998,"ADDRESS":"環福街６１巷２８號","OBJECTID":411209},"geometry":{"x":170296.00999999978,"y":2552470.3200000003}},{"attributes":{"ID":411234,"DIS_CODE":0,"TOWNNAME":"安南區","LI":"\u25A0南里","LIN":"3鄰","STREET":"環福街","SECT":" ","MAREA":" ","LANE":"６１巷","ALLEY":" ","HOUSE_NO":"３０號","E_COORD97":170312.64999999999,"N_COORD97":2552469.3900000001,"ADDRESS":"環福街６１巷３０號","OBJECTID":411210},"geometry":{"x":170312.65000000037,"y":2552469.3900000006}},{"attributes":{"ID":411235,"DIS_CODE":0,"TOWNNAME":"安南區","LI":"\u25A0南里","LIN":"3鄰","STREET":"環福街","SECT":" ","MAREA":" ","LANE":"６１巷","ALLEY":" ","HOUSE_NO":"３２號","E_COORD97":170312.78,"N_COORD97":2552473.25,"ADDRESS":"環福街６１巷３２號","OBJECTID":411211},"geometry":{"x":170312.78000000119,"y":2552473.25}},{"attributes":{"ID":411236,"DIS_CODE":0,"TOWNNAME":"安南區","LI":"\u25A0南里","LIN":"3鄰","STREET":"環福街","SECT":" ","MAREA":" ","LANE":"６１巷","ALLEY":" ","HOUSE_NO":"３４號","E_COORD97":170313.04999999999,"N_COORD97":2552477.77,"ADDRESS":"環福街６１巷３４號","OBJECTID":411212},"geometry":{"x":170313.05000000168,"y":2552477.7700000033}},{"attributes":{"ID":411237,"DIS_CODE":0,"TOWNNAME":"安南區","LI":"\u25A0南里","LIN":"3鄰","STREET":"環福街","SECT":" ","MAREA":" ","LANE":"６１巷","ALLEY":" ","HOUSE_NO":"３６號","E_COORD97":170313.17999999999,"N_COORD97":2552481.4900000002,"ADDRESS":"環福街６１巷３６號","OBJECTID":411213},"geometry":{"x":170313.1799999997,"y":2552481.4900000021}},{"attributes":{"ID":411238,"DIS_CODE":0,"TOWNNAME":"中西區","LI":"保安里","LIN":"3鄰","STREET":"保安路","SECT":" ","MAREA":" ","LANE":"５８巷","ALLEY":" ","HOUSE_NO":"２號","E_COORD97":167620.76999999999,"N_COORD97":2543453.46,"ADDRESS":"保安路５８巷２號","OBJECTID":411214},"geometry":{"x":167620.76999999955,"y":2543453.4600000028}},{"attributes":{"ID":411239,"DIS_CODE":0,"TOWNNAME":"永康區","LI":"六合里","LIN":"30鄰","STREET":"中華二路","SECT":" ","MAREA":" ","LANE":"２６６巷","ALLEY":" ","HOUSE_NO":"３８號","E_COORD97":171367.92999999999,"N_COORD97":2545520.25,"ADDRESS":"中華二路２６６巷３８號","OBJECTID":411215},"geometry":{"x":171367.9299999997,"y":2545520.25}},{"attributes":{"ID":411240,"DIS_CODE":0,"TOWNNAME":"中西區","LI":"保安里","LIN":"3鄰","STREET":"保安路","SECT":" ","MAREA":" ","LANE":"８８巷","ALLEY":" ","HOUSE_NO":"２號","E_COORD97":167560.32000000001,"N_COORD97":2543477.7999999998,"ADDRESS":"保安路８８巷２號","OBJECTID":411216},"geometry":{"x":167560.3200000003,"y":2543477.8000000026}},{"attributes":{"ID":411241,"DIS_CODE":0,"TOWNNAME":"中西區","LI":"保安里","LIN":"3鄰","STREET":"保安路","SECT":" ","MAREA":" ","LANE":"８８巷","ALLEY":" ","HOUSE_NO":"４號","E_COORD97":167563.01999999999,"N_COORD97":2543483.5099999998,"ADDRESS":"保安路８８巷４號","OBJECTID":411217},"geometry":{"x":167563.01999999955,"y":2543483.5099999998}},{"attributes":{"ID":411242,"DIS_CODE":0,"TOWNNAME":"中西區","LI":"大涼里","LIN":"3鄰","STREET":"府前路","SECT":"二段","MAREA":" ","LANE":"２０６巷","ALLEY":" ","HOUSE_NO":"１３號","E_COORD97":167206.82999999999,"N_COORD97":2543628.2799999998,"ADDRESS":"府前路二段２０６巷１３號","OBJECTID":411218},"geometry":{"x":167206.83000000007,"y":2543628.2800000031}},{"attributes":{"ID":411243,"DIS_CODE":0,"TOWNNAME":"中西區","LI":"大涼里","LIN":"3鄰","STREET":"府前路","SECT":"二段","MAREA":" ","LANE":"２０６巷","ALLEY":" ","HOUSE_NO":"１５號","E_COORD97":167204.31,"N_COORD97":2543640.5600000001,"ADDRESS":"府前路二段２０６巷１５號","OBJECTID":411219},"geometry":{"x":167204.31000000052,"y":2543640.5600000005}},{"attributes":{"ID":411244,"DIS_CODE":0,"TOWNNAME":"永康區","LI":"六合里","LIN":"27鄰","STREET":"中華二路","SECT":" ","MAREA":" ","LANE":"３１８巷","ALLEY":" ","HOUSE_NO":"１８號","E_COORD97":171290.23000000001,"N_COORD97":2545478.25,"ADDRESS":"中華二路３１８巷１８號","OBJECTID":411220},"geometry":{"x":171290.23000000045,"y":2545478.2500000019}},{"attributes":{"ID":411245,"DIS_CODE":0,"TOWNNAME":"永康區","LI":"六合里","LIN":"27鄰","STREET":"中華二路","SECT":" ","MAREA":" ","LANE":"３１８巷","ALLEY":" ","HOUSE_NO":"１號","E_COORD97":171274.06,"N_COORD97":2545455.4900000002,"ADDRESS":"中華二路３１８巷１號","OBJECTID":411221},"geometry":{"x":171274.06000000145,"y":2545455.4900000039}},{"attributes":{"ID":411246,"DIS_CODE":0,"TOWNNAME":"中西區","LI":"大涼里","LIN":"3鄰","STREET":"府前路","SECT":"二段","MAREA":" ","LANE":"２０６巷","ALLEY":" ","HOUSE_NO":"１６號","E_COORD97":167225.79000000001,"N_COORD97":2543640.0299999998,"ADDRESS":"府前路二段２０６巷１６號","OBJECTID":411222},"geometry":{"x":167225.79000000004,"y":2543640.0299999975}},{"attributes":{"ID":411247,"DIS_CODE":0,"TOWNNAME":"中西區","LI":"大涼里","LIN":"3鄰","STREET":"府前路","SECT":"二段","MAREA":" ","LANE":"２０６巷","ALLEY":" ","HOUSE_NO":"３號","E_COORD97":167201.56,"N_COORD97":2543621.96,"ADDRESS":"府前路二段２０６巷３號","OBJECTID":411223},"geometry":{"x":167201.55999999959,"y":2543621.9600000046}},{"attributes":{"ID":411248,"DIS_CODE":0,"TOWNNAME":"中西區","LI":"大涼里","LIN":"3鄰","STREET":"環河街","SECT":" ","MAREA":" ","LANE":"２巷","ALLEY":" ","HOUSE_NO":"１０號","E_COORD97":167188.75,"N_COORD97":2543641.4500000002,"ADDRESS":"環河街２巷１０號","OBJECTID":411224},"geometry":{"x":167188.75,"y":2543641.4500000011}},{"attributes":{"ID":411249,"DIS_CODE":0,"TOWNNAME":"中西區","LI":"大涼里","LIN":"3鄰","STREET":"府前路","SECT":"二段","MAREA":" ","LANE":"２０６巷","ALLEY":" ","HOUSE_NO":"１０號","E_COORD97":167223.69,"N_COORD97":2543629.3300000001,"ADDRESS":"府前路二段２０６巷１０號","OBJECTID":411225},"geometry":{"x":167223.69000000041,"y":2543629.3300000019}},{"attributes":{"ID":411250,"DIS_CODE":0,"TOWNNAME":"中西區","LI":"大涼里","LIN":"3鄰","STREET":"府前路","SECT":"二段","MAREA":" ","LANE":"２０６巷","ALLEY":" ","HOUSE_NO":"１號","E_COORD97":167201.20999999999,"N_COORD97":2543618.1000000001,"ADDRESS":"府前路二段２０６巷１號","OBJECTID":411226},"geometry":{"x":167201.20999999996,"y":2543618.0999999996}},{"attributes":{"ID":411251,"DIS_CODE":0,"TOWNNAME":"中西區","LI":"大涼里","LIN":"3鄰","STREET":"府前路","SECT":"二段","MAREA":" ","LANE":"２０６巷","ALLEY":" ","HOUSE_NO":"２號","E_COORD97":167222.10999999999,"N_COORD97":2543612.8399999999,"ADDRESS":"府前路二段２０６巷２號","OBJECTID":411227},"geometry":{"x":167222.11000000034,"y":2543612.8400000017}},{"attributes":{"ID":411252,"DIS_CODE":0,"TOWNNAME":"中西區","LI":"大涼里","LIN":"3鄰","STREET":"府前路","SECT":"二段","MAREA":" ","LANE":"２０６巷","ALLEY":" ","HOUSE_NO":"４號","E_COORD97":167222.98000000001,"N_COORD97":2543617.2200000002,"ADDRESS":"府前路二段２０６巷４號","OBJECTID":411228},"geometry":{"x":167222.98000000138,"y":2543617.2200000025}},{"attributes":{"ID":411253,"DIS_CODE":0,"TOWNNAME":"中西區","LI":"大涼里","LIN":"3鄰","STREET":"府前路","SECT":"二段","MAREA":" ","LANE":"２０６巷","ALLEY":" ","HOUSE_NO":"６號","E_COORD97":167222.98000000001,"N_COORD97":2543621.6099999999,"ADDRESS":"府前路二段２０６巷６號","OBJECTID":411229},"geometry":{"x":167222.98000000138,"y":2543621.6099999994}},{"attributes":{"ID":411254,"DIS_CODE":0,"TOWNNAME":"中西區","LI":"大涼里","LIN":"3鄰","STREET":"府前路","SECT":"二段","MAREA":" ","LANE":"２０６巷","ALLEY":" ","HOUSE_NO":"８號","E_COORD97":167223.85999999999,"N_COORD97":2543625.29,"ADDRESS":"府前路二段２０６巷８號","OBJECTID":411230},"geometry":{"x":167223.86000000034,"y":2543625.290000001}},{"attributes":{"ID":411255,"DIS_CODE":0,"TOWNNAME":"中西區","LI":"大涼里","LIN":"3鄰","STREET":"環河街","SECT":" ","MAREA":" ","LANE":"２巷","ALLEY":" ","HOUSE_NO":"２號","E_COORD97":167173.04000000001,"N_COORD97":2543618.3100000001,"ADDRESS":"環河街２巷２號","OBJECTID":411231},"geometry":{"x":167173.04000000097,"y":2543618.3100000005}},{"attributes":{"ID":411256,"DIS_CODE":0,"TOWNNAME":"中西區","LI":"大涼里","LIN":"3鄰","STREET":"環河街","SECT":" ","MAREA":" ","LANE":"２巷","ALLEY":" ","HOUSE_NO":"４號","E_COORD97":167176.64999999999,"N_COORD97":2543625.5099999998,"ADDRESS":"環河街２巷４號","OBJECTID":411232},"geometry":{"x":167176.65000000037,"y":2543625.5100000016}},{"attributes":{"ID":411257,"DIS_CODE":0,"TOWNNAME":"中西區","LI":"大涼里","LIN":"3鄰","STREET":"環河街","SECT":" ","MAREA":" ","LANE":"２巷","ALLEY":" ","HOUSE_NO":"６號","E_COORD97":167182.31,"N_COORD97":2543628.3399999999,"ADDRESS":"環河街２巷６號","OBJECTID":411233},"geometry":{"x":167182.31000000052,"y":2543628.339999998}},{"attributes":{"ID":411258,"DIS_CODE":0,"TOWNNAME":"中西區","LI":"大涼里","LIN":"3鄰","STREET":"環河街","SECT":" ","MAREA":" ","LANE":"２巷","ALLEY":" ","HOUSE_NO":"８號","E_COORD97":167184.37,"N_COORD97":2543633.48,"ADDRESS":"環河街２巷８號","OBJECTID":411234},"geometry":{"x":167184.37000000104,"y":2543633.4800000004}},{"attributes":{"ID":411259,"DIS_CODE":0,"TOWNNAME":"中西區","LI":"大涼里","LIN":"3鄰","STREET":"環河街","SECT":" ","MAREA":" ","LANE":"２巷","ALLEY":" ","HOUSE_NO":"８號之１","E_COORD97":167189.57999999999,"N_COORD97":2543637.9300000002,"ADDRESS":"環河街２巷８號之１","OBJECTID":411235},"geometry":{"x":167189.58000000101,"y":2543637.9300000034}},{"attributes":{"ID":411260,"DIS_CODE":0,"TOWNNAME":"中西區","LI":"大涼里","LIN":"3鄰","STREET":"環河街","SECT":" ","MAREA":" ","LANE":"２巷","ALLEY":" ","HOUSE_NO":"９號","E_COORD97":167184.63,"N_COORD97":2543653.54,"ADDRESS":"環河街２巷９號","OBJECTID":411236},"geometry":{"x":167184.62999999989,"y":2543653.5400000028}},{"attributes":{"ID":411261,"DIS_CODE":0,"TOWNNAME":"中西區","LI":"大涼里","LIN":"3鄰","STREET":"環河街","SECT":" ","MAREA":" ","LANE":"二巷","ALLEY":" ","HOUSE_NO":"９號","E_COORD97":167186.07000000001,"N_COORD97":2543653.6000000001,"ADDRESS":"環河街二巷９號","OBJECTID":411237},"geometry":{"x":167186.07000000123,"y":2543653.6000000034}},{"attributes":{"ID":411262,"DIS_CODE":0,"TOWNNAME":"中西區","LI":"大涼里","LIN":"3鄰","STREET":"環河街","SECT":" ","MAREA":" ","LANE":"２巷","ALLEY":" ","HOUSE_NO":"１號","E_COORD97":167156.42000000001,"N_COORD97":2543622.6800000002,"ADDRESS":"環河街２巷１號","OBJECTID":411238},"geometry":{"x":167156.42000000086,"y":2543622.6800000034}},{"attributes":{"ID":411263,"DIS_CODE":0,"TOWNNAME":"中西區","LI":"大涼里","LIN":"3鄰","STREET":"環河街","SECT":" ","MAREA":" ","LANE":"２巷","ALLEY":" ","HOUSE_NO":"３號","E_COORD97":167161.82000000001,"N_COORD97":2543623.4900000002,"ADDRESS":"環河街２巷３號","OBJECTID":411239},"geometry":{"x":167161.8200000003,"y":2543623.4900000002}},{"attributes":{"ID":411264,"DIS_CODE":0,"TOWNNAME":"中西區","LI":"大涼里","LIN":"3鄰","STREET":"環河街","SECT":" ","MAREA":" ","LANE":"２巷","ALLEY":" ","HOUSE_NO":"５號","E_COORD97":167170.73000000001,"N_COORD97":2543633.48,"ADDRESS":"環河街２巷５號","OBJECTID":411240},"geometry":{"x":167170.73000000045,"y":2543633.4800000004}},{"attributes":{"ID":411265,"DIS_CODE":0,"TOWNNAME":"中西區","LI":"大涼里","LIN":"3鄰","STREET":"環河街","SECT":" ","MAREA":" ","LANE":"２巷","ALLEY":" ","HOUSE_NO":"７號","E_COORD97":167181.79999999999,"N_COORD97":2543640.9399999999,"ADDRESS":"環河街２巷７號","OBJECTID":411241},"geometry":{"x":167181.79999999981,"y":2543640.9400000032}},{"attributes":{"ID":411266,"DIS_CODE":0,"TOWNNAME":"永康區","LI":"六合里","LIN":"20鄰","STREET":"中華二路","SECT":" ","MAREA":" ","LANE":"３４０巷","ALLEY":" ","HOUSE_NO":"２１號","E_COORD97":171161.60999999999,"N_COORD97":2545548.4900000002,"ADDRESS":"中華二路３４０巷２１號","OBJECTID":411242},"geometry":{"x":171161.61000000127,"y":2545548.4900000021}},{"attributes":{"ID":411267,"DIS_CODE":0,"TOWNNAME":"永康區","LI":"六合里","LIN":"27鄰","STREET":"中華二路","SECT":" ","MAREA":" ","LANE":"３４０巷","ALLEY":" ","HOUSE_NO":"２０號","E_COORD97":171186.29000000001,"N_COORD97":2545509.5,"ADDRESS":"中華二路３４０巷２０號","OBJECTID":411243},"geometry":{"x":171186.29000000004,"y":2545509.5000000037}},{"attributes":{"ID":411268,"DIS_CODE":0,"TOWNNAME":"下營區","LI":"宅內里","LIN":"3鄰","STREET":"友愛街","SECT":" ","MAREA":" ","LANE":"１２５巷","ALLEY":" ","HOUSE_NO":"１５號","E_COORD97":174154.20000000001,"N_COORD97":2570660.4100000001,"ADDRESS":"友愛街１２５巷１５號","OBJECTID":411244},"geometry":{"x":174154.20000000112,"y":2570660.410000002}},{"attributes":{"ID":411269,"DIS_CODE":0,"TOWNNAME":"下營區","LI":"宅內里","LIN":"3鄰","STREET":"友愛街","SECT":" ","MAREA":" ","LANE":"１２５巷","ALLEY":" ","HOUSE_NO":"１６號","E_COORD97":174153.13,"N_COORD97":2570646.6099999999,"ADDRESS":"友愛街１２５巷１６號","OBJECTID":411245},"geometry":{"x":174153.12999999989,"y":2570646.6099999994}},{"attributes":{"ID":411270,"DIS_CODE":0,"TOWNNAME":"下營區","LI":"宅內里","LIN":"3鄰","STREET":"友愛街","SECT":" ","MAREA":" ","LANE":"１２５巷","ALLEY":" ","HOUSE_NO":"１７號","E_COORD97":174149.81,"N_COORD97":2570660.98,"ADDRESS":"友愛街１２５巷１７號","OBJECTID":411246},"geometry":{"x":174149.81000000052,"y":2570660.9800000023}},{"attributes":{"ID":411271,"DIS_CODE":0,"TOWNNAME":"下營區","LI":"宅內里","LIN":"3鄰","STREET":"友愛街","SECT":" ","MAREA":" ","LANE":"１２５巷","ALLEY":" ","HOUSE_NO":"１９號","E_COORD97":174146,"N_COORD97":2570661.0099999998,"ADDRESS":"友愛街１２５巷１９號","OBJECTID":411247},"geometry":{"x":174146,"y":2570661.0099999998}},{"attributes":{"ID":411272,"DIS_CODE":0,"TOWNNAME":"下營區","LI":"宅內里","LIN":"3鄰","STREET":"友愛街","SECT":" ","MAREA":" ","LANE":"１２５巷","ALLEY":" ","HOUSE_NO":"２０號","E_COORD97":174137.28,"N_COORD97":2570646.0600000001,"ADDRESS":"友愛街１２５巷２０號","OBJECTID":411248},"geometry":{"x":174137.28000000026,"y":2570646.0600000024}},{"attributes":{"ID":411273,"DIS_CODE":0,"TOWNNAME":"下營區","LI":"宅內里","LIN":"3鄰","STREET":"友愛街","SECT":" ","MAREA":" ","LANE":"１２５巷","ALLEY":" ","HOUSE_NO":"９號","E_COORD97":174168.16,"N_COORD97":2570662.77,"ADDRESS":"友愛街１２５巷９號","OBJECTID":411249},"geometry":{"x":174168.16000000108,"y":2570662.7699999996}},{"attributes":{"ID":411274,"DIS_CODE":0,"TOWNNAME":"下營區","LI":"宅內里","LIN":"3鄰","STREET":"友愛街","SECT":" ","MAREA":" ","LANE":"１３５巷","ALLEY":" ","HOUSE_NO":"２號","E_COORD97":174152.69,"N_COORD97":2570694.25,"ADDRESS":"友愛街１３５巷２號","OBJECTID":411250},"geometry":{"x":174152.69000000134,"y":2570694.25}},{"attributes":{"ID":411275,"DIS_CODE":0,"TOWNNAME":"玉井區","LI":"中正里","LIN":"15鄰","STREET":" ","SECT":" ","MAREA":"中正","LANE":" ","ALLEY":" ","HOUSE_NO":"１７１之４號","E_COORD97":195845.50573400001,"N_COORD97":2561624.5437400001,"ADDRESS":"中正１７１之４號","OBJECTID":411251},"geometry":{"x":195845.50573400036,"y":2561624.5437450036}},{"attributes":{"ID":411276,"DIS_CODE":0,"TOWNNAME":"永康區","LI":"六合里","LIN":"28鄰","STREET":"中華二路","SECT":" ","MAREA":" ","LANE":"３７９巷","ALLEY":" ","HOUSE_NO":"１號","E_COORD97":171246.76999999999,"N_COORD97":2545394.7400000002,"ADDRESS":"中華二路３７９巷１號","OBJECTID":411252},"geometry":{"x":171246.76999999955,"y":2545394.7400000002}},{"attributes":{"ID":411277,"DIS_CODE":0,"TOWNNAME":"永康區","LI":"六合里","LIN":"28鄰","STREET":"中華二路","SECT":" ","MAREA":" ","LANE":"３７９巷","ALLEY":" ","HOUSE_NO":"２號","E_COORD97":171227.19,"N_COORD97":2545394.1400000001,"ADDRESS":"中華二路３７９巷２號","OBJECTID":411253},"geometry":{"x":171227.19000000134,"y":2545394.1400000025}},{"attributes":{"ID":411278,"DIS_CODE":0,"TOWNNAME":"永康區","LI":"六合里","LIN":"28鄰","STREET":"中華二路","SECT":" ","MAREA":" ","LANE":"３７９巷","ALLEY":" ","HOUSE_NO":"３號","E_COORD97":171246.79000000001,"N_COORD97":2545389.98,"ADDRESS":"中華二路３７９巷３號","OBJECTID":411254},"geometry":{"x":171246.79000000004,"y":2545389.9800000004}},{"attributes":{"ID":411279,"DIS_CODE":0,"TOWNNAME":"下營區","LI":"宅內里","LIN":"3鄰","STREET":"永安街","SECT":" ","MAREA":" ","LANE":"１２０巷","ALLEY":" ","HOUSE_NO":"９號","E_COORD97":174138.85999999999,"N_COORD97":2570626.1099999999,"ADDRESS":"永安街１２０巷９號","OBJECTID":411255},"geometry":{"x":174138.86000000034,"y":2570626.1099999994}},{"attributes":{"ID":411280,"DIS_CODE":0,"TOWNNAME":"下營區","LI":"新興里","LIN":"3鄰","STREET":"自由街","SECT":" ","MAREA":" ","LANE":"６０巷","ALLEY":" ","HOUSE_NO":"１５號","E_COORD97":174893.73000000001,"N_COORD97":2570825.29,"ADDRESS":"自由街６０巷１５號","OBJECTID":411256},"geometry":{"x":174893.73000000138,"y":2570825.2899999991}},{"attributes":{"ID":411281,"DIS_CODE":0,"TOWNNAME":"下營區","LI":"新興里","LIN":"3鄰","STREET":"東興一街","SECT":" ","MAREA":" ","LANE":"１２５巷","ALLEY":" ","HOUSE_NO":"５號","E_COORD97":174867.14000000001,"N_COORD97":2570822.7599999998,"ADDRESS":"東興一街１２５巷５號","OBJECTID":411257},"geometry":{"x":174867.13999999966,"y":2570822.7599999998}},{"attributes":{"ID":411282,"DIS_CODE":0,"TOWNNAME":"永康區","LI":"復華里","LIN":"3鄰","STREET":"復國二路","SECT":" ","MAREA":" ","LANE":"３４０巷","ALLEY":" ","HOUSE_NO":"１９號","E_COORD97":173084.82000000001,"N_COORD97":2546155.8900000001,"ADDRESS":"復國二路３４０巷１９號","OBJECTID":411258},"geometry":{"x":173084.8200000003,"y":2546155.8900000025}},{"attributes":{"ID":411283,"DIS_CODE":0,"TOWNNAME":"永康區","LI":"神洲里","LIN":"3鄰","STREET":"忠孝路","SECT":" ","MAREA":" ","LANE":"３６巷","ALLEY":" ","HOUSE_NO":"２４號","E_COORD97":172176.06,"N_COORD97":2544670,"ADDRESS":"忠孝路３６巷２４號","OBJECTID":411259},"geometry":{"x":172176.06000000052,"y":2544670.0000000019}},{"attributes":{"ID":411284,"DIS_CODE":0,"TOWNNAME":"永康區","LI":"復華里","LIN":"3鄰","STREET":"復國二路","SECT":" ","MAREA":" ","LANE":"３４０巷","ALLEY":" ","HOUSE_NO":"５號","E_COORD97":173054.72,"N_COORD97":2546162.8900000001,"ADDRESS":"復國二路３４０巷５號","OBJECTID":411260},"geometry":{"x":173054.7200000016,"y":2546162.8900000025}},{"attributes":{"ID":411285,"DIS_CODE":0,"TOWNNAME":"永康區","LI":"烏竹里","LIN":"3鄰","STREET":"竹園二街","SECT":" ","MAREA":" ","LANE":"２０６巷","ALLEY":" ","HOUSE_NO":"１０號","E_COORD97":174679.35000000001,"N_COORD97":2549356.8199999998,"ADDRESS":"竹園二街２０６巷１０號","OBJECTID":411261},"geometry":{"x":174679.35000000149,"y":2549356.8200000022}},{"attributes":{"ID":411286,"DIS_CODE":0,"TOWNNAME":"永康區","LI":"復國里","LIN":"3鄰","STREET":"復國一路","SECT":" ","MAREA":" ","LANE":"４４巷","ALLEY":" ","HOUSE_NO":"１６號","E_COORD97":172770.06,"N_COORD97":2544800.0499999998,"ADDRESS":"復國一路４４巷１６號","OBJECTID":411262},"geometry":{"x":172770.05999999959,"y":2544800.0500000007}},{"attributes":{"ID":411287,"DIS_CODE":0,"TOWNNAME":"永康區","LI":"復興里","LIN":"3鄰","STREET":"復興路","SECT":" ","MAREA":" ","LANE":"２７７巷","ALLEY":" ","HOUSE_NO":"２０６號之９","E_COORD97":172376.73999999999,"N_COORD97":2543790.1099999999,"ADDRESS":"復興路２７７巷２０６號之９","OBJECTID":411263},"geometry":{"x":172376.74000000022,"y":2543790.1100000013}},{"attributes":{"ID":411288,"DIS_CODE":0,"TOWNNAME":"永康區","LI":"北灣里","LIN":"3鄰","STREET":"文賢街","SECT":" ","MAREA":" ","LANE":"１３６巷","ALLEY":" ","HOUSE_NO":"２號","E_COORD97":175403.37,"N_COORD97":2545555.9300000002,"ADDRESS":"文賢街１３６巷２號","OBJECTID":411264},"geometry":{"x":175403.37000000011,"y":2545555.9299999997}},{"attributes":{"ID":411289,"DIS_CODE":0,"TOWNNAME":"永康區","LI":"崑山里","LIN":"3鄰","STREET":"大灣路","SECT":" ","MAREA":" ","LANE":"８７９巷","ALLEY":" ","HOUSE_NO":"１４號","E_COORD97":173633.67000000001,"N_COORD97":2544363.8599999999,"ADDRESS":"大灣路８７９巷１４號","OBJECTID":411265},"geometry":{"x":173633.67000000086,"y":2544363.8600000031}},{"attributes":{"ID":411290,"DIS_CODE":0,"TOWNNAME":"永康區","LI":"復國里","LIN":"3鄰","STREET":"復國一路","SECT":" ","MAREA":" ","LANE":"４４巷","ALLEY":" ","HOUSE_NO":"１號","E_COORD97":172740.26000000001,"N_COORD97":2544817.52,"ADDRESS":"復國一路４４巷１號","OBJECTID":411266},"geometry":{"x":172740.25999999978,"y":2544817.5200000014}},{"attributes":{"ID":411291,"DIS_CODE":0,"TOWNNAME":"東區","LI":"大智里","LIN":"40鄰","STREET":"文東街","SECT":" ","MAREA":" ","LANE":"２巷","ALLEY":" ","HOUSE_NO":"２１號","E_COORD97":171386.73999999999,"N_COORD97":2540118.54,"ADDRESS":"文東街２巷２１號","OBJECTID":411267},"geometry":{"x":171386.74000000022,"y":2540118.540000001}},{"attributes":{"ID":411292,"DIS_CODE":0,"TOWNNAME":"白河區","LI":"白河里","LIN":"3鄰","STREET":"南昌街","SECT":" ","MAREA":" ","LANE":"１６巷","ALLEY":" ","HOUSE_NO":"１２號","E_COORD97":190264.54999999999,"N_COORD97":2582781.8399999999,"ADDRESS":"南昌街１６巷１２號","OBJECTID":411268},"geometry":{"x":190264.55000000075,"y":2582781.8400000017}},{"attributes":{"ID":411293,"DIS_CODE":0,"TOWNNAME":"白河區","LI":"白河里","LIN":"3鄰","STREET":"南昌街","SECT":" ","MAREA":" ","LANE":"１６巷","ALLEY":" ","HOUSE_NO":"１４號","E_COORD97":190265.48000000001,"N_COORD97":2582785.8799999999,"ADDRESS":"南昌街１６巷１４號","OBJECTID":411269},"geometry":{"x":190265.48000000138,"y":2582785.879999999}},{"attributes":{"ID":411294,"DIS_CODE":0,"TOWNNAME":"白河區","LI":"白河里","LIN":"3鄰","STREET":"南昌街","SECT":" ","MAREA":" ","LANE":"１６巷","ALLEY":" ","HOUSE_NO":"２號","E_COORD97":190264.51000000001,"N_COORD97":2582756.3700000001,"ADDRESS":"南昌街１６巷２號","OBJECTID":411270},"geometry":{"x":190264.51000000071,"y":2582756.370000001}},{"attributes":{"ID":411295,"DIS_CODE":0,"TOWNNAME":"白河區","LI":"白河里","LIN":"3鄰","STREET":"南昌街","SECT":" ","MAREA":" ","LANE":"１６巷","ALLEY":" ","HOUSE_NO":"４號","E_COORD97":190264.95999999999,"N_COORD97":2582761.5099999998,"ADDRESS":"南昌街１６巷４號","OBJECTID":411271},"geometry":{"x":190264.96000000089,"y":2582761.5099999998}},{"attributes":{"ID":411296,"DIS_CODE":0,"TOWNNAME":"白河區","LI":"白河里","LIN":"3鄰","STREET":"南昌街","SECT":" ","MAREA":" ","LANE":"１６巷","ALLEY":" ","HOUSE_NO":"６號","E_COORD97":190265.41,"N_COORD97":2582766.6499999999,"ADDRESS":"南昌街１６巷６號","OBJECTID":411272},"geometry":{"x":190265.41000000108,"y":2582766.6500000022}},{"attributes":{"ID":411297,"DIS_CODE":0,"TOWNNAME":"白河區","LI":"白河里","LIN":"3鄰","STREET":"南昌街","SECT":" ","MAREA":" ","LANE":"１６巷","ALLEY":" ","HOUSE_NO":"８號","E_COORD97":190265.85000000001,"N_COORD97":2582771.7799999998,"ADDRESS":"南昌街１６巷８號","OBJECTID":411273},"geometry":{"x":190265.84999999963,"y":2582771.7800000012}},{"attributes":{"ID":411298,"DIS_CODE":0,"TOWNNAME":"白河區","LI":"白河里","LIN":"3鄰","STREET":"康樂路","SECT":" ","MAREA":" ","LANE":"９巷","ALLEY":" ","HOUSE_NO":"１２號","E_COORD97":190148.70999999999,"N_COORD97":2582846.0600000001,"ADDRESS":"康樂路９巷１２號","OBJECTID":411274},"geometry":{"x":190148.70999999996,"y":2582846.0600000005}},{"attributes":{"ID":411299,"DIS_CODE":0,"TOWNNAME":"白河區","LI":"白河里","LIN":"3鄰","STREET":"康樂路","SECT":" ","MAREA":" ","LANE":"９巷","ALLEY":" ","HOUSE_NO":"１３號","E_COORD97":190169.5,"N_COORD97":2582843.8900000001,"ADDRESS":"康樂路９巷１３號","OBJECTID":411275},"geometry":{"x":190169.50000000186,"y":2582843.8900000006}},{"attributes":{"ID":411300,"DIS_CODE":0,"TOWNNAME":"白河區","LI":"白河里","LIN":"3鄰","STREET":"康樂路","SECT":" ","MAREA":" ","LANE":"９巷","ALLEY":" ","HOUSE_NO":"１之１號","E_COORD97":190215.44,"N_COORD97":2582775.7599999998,"ADDRESS":"康樂路９巷１之１號","OBJECTID":411276},"geometry":{"x":190215.44000000041,"y":2582775.7600000016}},{"attributes":{"ID":411301,"DIS_CODE":0,"TOWNNAME":"白河區","LI":"白河里","LIN":"3鄰","STREET":"康樂路","SECT":" ","MAREA":" ","LANE":"９巷","ALLEY":" ","HOUSE_NO":"１之３號","E_COORD97":190182.72,"N_COORD97":2582735.5099999998,"ADDRESS":"康樂路９巷１之３號","OBJECTID":411277},"geometry":{"x":190182.71999999974,"y":2582735.5100000035}},{"attributes":{"ID":411302,"DIS_CODE":0,"TOWNNAME":"白河區","LI":"白河里","LIN":"3鄰","STREET":"康樂路","SECT":" ","MAREA":" ","LANE":"９巷","ALLEY":" ","HOUSE_NO":"１號","E_COORD97":190214.85000000001,"N_COORD97":2582796.7799999998,"ADDRESS":"康樂路９巷１號","OBJECTID":411278},"geometry":{"x":190214.85000000056,"y":2582796.7799999993}},{"attributes":{"ID":411303,"DIS_CODE":0,"TOWNNAME":"白河區","LI":"白河里","LIN":"3鄰","STREET":"康樂路","SECT":" ","MAREA":" ","LANE":"９巷","ALLEY":" ","HOUSE_NO":"２號","E_COORD97":190186.85999999999,"N_COORD97":2582796.3300000001,"ADDRESS":"康樂路９巷２號","OBJECTID":411279},"geometry":{"x":190186.86000000034,"y":2582796.3300000001}},{"attributes":{"ID":411304,"DIS_CODE":0,"TOWNNAME":"白河區","LI":"白河里","LIN":"3鄰","STREET":"康樂路","SECT":" ","MAREA":" ","LANE":"９巷","ALLEY":" ","HOUSE_NO":"５號","E_COORD97":190217.07999999999,"N_COORD97":2582806.0699999998,"ADDRESS":"康樂路９巷５號","OBJECTID":411280},"geometry":{"x":190217.08000000101,"y":2582806.0700000003}},{"attributes":{"ID":411305,"DIS_CODE":0,"TOWNNAME":"安南區","LI":"安慶里","LIN":"3鄰","STREET":"長溪路","SECT":"一段","MAREA":" ","LANE":"１６８巷","ALLEY":" ","HOUSE_NO":"１３３號","E_COORD97":169046.35999999999,"N_COORD97":2548892.8300000001,"ADDRESS":"長溪路一段１６８巷１３３號","OBJECTID":411281},"geometry":{"x":169046.36000000034,"y":2548892.8300000001}},{"attributes":{"ID":411306,"DIS_CODE":0,"TOWNNAME":"佳里區","LI":"東寧里","LIN":"3鄰","STREET":"延平路","SECT":" ","MAREA":" ","LANE":"２８１巷","ALLEY":" ","HOUSE_NO":"１號","E_COORD97":165839.16,"N_COORD97":2562349.25,"ADDRESS":"延平路２８１巷１號","OBJECTID":411282},"geometry":{"x":165839.16000000201,"y":2562349.25}},{"attributes":{"ID":411307,"DIS_CODE":0,"TOWNNAME":"佳里區","LI":"東寧里","LIN":"3鄰","STREET":"延平路","SECT":" ","MAREA":" ","LANE":"２８１巷","ALLEY":" ","HOUSE_NO":"２號","E_COORD97":165829.20000000001,"N_COORD97":2562346.27,"ADDRESS":"延平路２８１巷２號","OBJECTID":411283},"geometry":{"x":165829.20000000112,"y":2562346.2699999996}},{"attributes":{"ID":411308,"DIS_CODE":0,"TOWNNAME":"佳里區","LI":"東寧里","LIN":"3鄰","STREET":"延平路","SECT":" ","MAREA":" ","LANE":"２８１巷","ALLEY":" ","HOUSE_NO":"３號","E_COORD97":165824.63,"N_COORD97":2562345.9199999999,"ADDRESS":"延平路２８１巷３號","OBJECTID":411284},"geometry":{"x":165824.62999999989,"y":2562345.9199999999}},{"attributes":{"ID":411309,"DIS_CODE":0,"TOWNNAME":"佳里區","LI":"東寧里","LIN":"3鄰","STREET":"延平路","SECT":" ","MAREA":" ","LANE":"２８１巷","ALLEY":" ","HOUSE_NO":"５號","E_COORD97":165833.88,"N_COORD97":2562358.8900000001,"ADDRESS":"延平路２８１巷５號","OBJECTID":411285},"geometry":{"x":165833.87999999896,"y":2562358.8900000025}},{"attributes":{"ID":411310,"DIS_CODE":0,"TOWNNAME":"佳里區","LI":"鎮山里","LIN":"3鄰","STREET":"延平路","SECT":" ","MAREA":" ","LANE":"５９巷","ALLEY":" ","HOUSE_NO":"２６號","E_COORD97":165875.76000000001,"N_COORD97":2561701,"ADDRESS":"延平路５９巷２６號","OBJECTID":411286},"geometry":{"x":165875.76000000071,"y":2561701}},{"attributes":{"ID":411311,"DIS_CODE":0,"TOWNNAME":"佳里區","LI":"鎮山里","LIN":"3鄰","STREET":"延平路","SECT":" ","MAREA":" ","LANE":"５９巷","ALLEY":" ","HOUSE_NO":"２７號","E_COORD97":165875.57999999999,"N_COORD97":2561684.7400000002,"ADDRESS":"延平路５９巷２７號","OBJECTID":411287},"geometry":{"x":165875.58000000101,"y":2561684.7400000021}},{"attributes":{"ID":411312,"DIS_CODE":0,"TOWNNAME":"佳里區","LI":"鎮山里","LIN":"3鄰","STREET":"延平路","SECT":" ","MAREA":" ","LANE":"５９巷","ALLEY":" ","HOUSE_NO":"２８號","E_COORD97":165871.16,"N_COORD97":2561700.5099999998,"ADDRESS":"延平路５９巷２８號","OBJECTID":411288},"geometry":{"x":165871.16000000015,"y":2561700.5099999998}},{"attributes":{"ID":411313,"DIS_CODE":0,"TOWNNAME":"佳里區","LI":"鎮山里","LIN":"3鄰","STREET":"延平路","SECT":" ","MAREA":" ","LANE":"５９巷","ALLEY":" ","HOUSE_NO":"２９號","E_COORD97":165870.51000000001,"N_COORD97":2561683.6200000001,"ADDRESS":"延平路５９巷２９號","OBJECTID":411289},"geometry":{"x":165870.51000000071,"y":2561683.620000001}},{"attributes":{"ID":411314,"DIS_CODE":0,"TOWNNAME":"佳里區","LI":"鎮山里","LIN":"3鄰","STREET":"延平路","SECT":" ","MAREA":" ","LANE":"５９巷","ALLEY":" ","HOUSE_NO":"２號之１","E_COORD97":165923.57999999999,"N_COORD97":2561712.3999999999,"ADDRESS":"延平路５９巷２號之１","OBJECTID":411290},"geometry":{"x":165923.58000000007,"y":2561712.4000000004}},{"attributes":{"ID":411315,"DIS_CODE":0,"TOWNNAME":"佳里區","LI":"鎮山里","LIN":"3鄰","STREET":"延平路","SECT":" ","MAREA":" ","LANE":"５９巷","ALLEY":" ","HOUSE_NO":"２號","E_COORD97":165928.51000000001,"N_COORD97":2561712.7000000002,"ADDRESS":"延平路５９巷２號","OBJECTID":411291},"geometry":{"x":165928.51000000071,"y":2561712.6999999993}},{"attributes":{"ID":411316,"DIS_CODE":0,"TOWNNAME":"佳里區","LI":"鎮山里","LIN":"3鄰","STREET":"延平路","SECT":" ","MAREA":" ","LANE":"５９巷","ALLEY":" ","HOUSE_NO":"３０號","E_COORD97":165866.48999999999,"N_COORD97":2561699.4300000002,"ADDRESS":"延平路５９巷３０號","OBJECTID":411292},"geometry":{"x":165866.49000000115,"y":2561699.4300000016}},{"attributes":{"ID":411317,"DIS_CODE":0,"TOWNNAME":"佳里區","LI":"鎮山里","LIN":"3鄰","STREET":"延平路","SECT":" ","MAREA":" ","LANE":"５９巷","ALLEY":" ","HOUSE_NO":"３２號","E_COORD97":165862.73000000001,"N_COORD97":2561698.71,"ADDRESS":"延平路５９巷３２號","OBJECTID":411293},"geometry":{"x":165862.73000000231,"y":2561698.7100000028}},{"attributes":{"ID":411318,"DIS_CODE":0,"TOWNNAME":"佳里區","LI":"鎮山里","LIN":"3鄰","STREET":"延平路","SECT":" ","MAREA":" ","LANE":"５９巷","ALLEY":" ","HOUSE_NO":"９號","E_COORD97":165920.03,"N_COORD97":2561689.6899999999,"ADDRESS":"延平路５９巷９號","OBJECTID":411294},"geometry":{"x":165920.03000000119,"y":2561689.6900000032}},{"attributes":{"ID":411319,"DIS_CODE":0,"TOWNNAME":"佳里區","LI":"六安里","LIN":"3鄰","STREET":"林園街","SECT":" ","MAREA":" ","LANE":"１５巷","ALLEY":" ","HOUSE_NO":"１３號","E_COORD97":166217.04000000001,"N_COORD97":2562791.7400000002,"ADDRESS":"林園街１５巷１３號","OBJECTID":411295},"geometry":{"x":166217.04000000004,"y":2562791.7399999984}},{"attributes":{"ID":411320,"DIS_CODE":0,"TOWNNAME":"佳里區","LI":"六安里","LIN":"3鄰","STREET":"林園街","SECT":" ","MAREA":" ","LANE":"１５巷","ALLEY":" ","HOUSE_NO":"１５號","E_COORD97":166217.98000000001,"N_COORD97":2562784.52,"ADDRESS":"林園街１５巷１５號","OBJECTID":411296},"geometry":{"x":166217.98000000045,"y":2562784.5199999996}},{"attributes":{"ID":411321,"DIS_CODE":0,"TOWNNAME":"佳里區","LI":"六安里","LIN":"3鄰","STREET":"林園街","SECT":" ","MAREA":" ","LANE":"１５巷","ALLEY":" ","HOUSE_NO":"１７號","E_COORD97":166218.48999999999,"N_COORD97":2562777.5099999998,"ADDRESS":"林園街１５巷１７號","OBJECTID":411297},"geometry":{"x":166218.49000000209,"y":2562777.5100000016}},{"attributes":{"ID":411322,"DIS_CODE":0,"TOWNNAME":"佳里區","LI":"六安里","LIN":"3鄰","STREET":"林園街","SECT":" ","MAREA":" ","LANE":"１５巷","ALLEY":" ","HOUSE_NO":"１８號","E_COORD97":166197.84,"N_COORD97":2562789.4700000002,"ADDRESS":"林園街１５巷１８號","OBJECTID":411298},"geometry":{"x":166197.83999999985,"y":2562789.4700000007}},{"attributes":{"ID":411323,"DIS_CODE":0,"TOWNNAME":"新營區","LI":"民生里","LIN":"13鄰","STREET":"復興路","SECT":" ","MAREA":" ","LANE":" ","ALLEY":" ","HOUSE_NO":"２７４號","E_COORD97":178762.37,"N_COORD97":2578123.46,"ADDRESS":"復興路２７４號","OBJECTID":411299},"geometry":{"x":178762.37000000104,"y":2578123.4600000028}},{"attributes":{"ID":411324,"DIS_CODE":0,"TOWNNAME":"佳里區","LI":"六安里","LIN":"3鄰","STREET":"林園街","SECT":" ","MAREA":" ","LANE":"１５巷","ALLEY":" ","HOUSE_NO":"１９號","E_COORD97":166219.22,"N_COORD97":2562770.77,"ADDRESS":"林園街１５巷１９號","OBJECTID":411300},"geometry":{"x":166219.21999999974,"y":2562770.7700000033}},{"attributes":{"ID":411325,"DIS_CODE":0,"TOWNNAME":"佳里區","LI":"六安里","LIN":"3鄰","STREET":"林園街","SECT":" ","MAREA":" ","LANE":"１５巷","ALLEY":" ","HOUSE_NO":"２０號","E_COORD97":166198.44,"N_COORD97":2562782.3799999999,"ADDRESS":"林園街１５巷２０號","OBJECTID":411301},"geometry":{"x":166198.43999999948,"y":2562782.379999999}},{"attributes":{"ID":411326,"DIS_CODE":0,"TOWNNAME":"佳里區","LI":"六安里","LIN":"3鄰","STREET":"林園街","SECT":" ","MAREA":" ","LANE":"１５巷","ALLEY":" ","HOUSE_NO":"２１號","E_COORD97":166219.88,"N_COORD97":2562763.8900000001,"ADDRESS":"林園街１５巷２１號","OBJECTID":411302},"geometry":{"x":166219.87999999989,"y":2562763.8900000006}},{"attributes":{"ID":411327,"DIS_CODE":0,"TOWNNAME":"佳里區","LI":"六安里","LIN":"3鄰","STREET":"林園街","SECT":" ","MAREA":" ","LANE":"１５巷","ALLEY":" ","HOUSE_NO":"２２號","E_COORD97":166199.14000000001,"N_COORD97":2562775.7200000002,"ADDRESS":"林園街１５巷２２號","OBJECTID":411303},"geometry":{"x":166199.13999999966,"y":2562775.7200000044}},{"attributes":{"ID":411328,"DIS_CODE":0,"TOWNNAME":"佳里區","LI":"六安里","LIN":"3鄰","STREET":"林園街","SECT":" ","MAREA":" ","LANE":"１５巷","ALLEY":" ","HOUSE_NO":"２３號","E_COORD97":166220.28,"N_COORD97":2562756.9100000001,"ADDRESS":"林園街１５巷２３號","OBJECTID":411304},"geometry":{"x":166220.28000000119,"y":2562756.9100000039}},{"attributes":{"ID":411329,"DIS_CODE":0,"TOWNNAME":"佳里區","LI":"六安里","LIN":"3鄰","STREET":"林園街","SECT":" ","MAREA":" ","LANE":"１５巷","ALLEY":" ","HOUSE_NO":"２６號","E_COORD97":166199.69,"N_COORD97":2562768.48,"ADDRESS":"林園街１５巷２６號","OBJECTID":411305},"geometry":{"x":166199.69000000041,"y":2562768.4800000023}},{"attributes":{"ID":411330,"DIS_CODE":0,"TOWNNAME":"佳里區","LI":"六安里","LIN":"3鄰","STREET":"林園街","SECT":" ","MAREA":" ","LANE":"１５巷","ALLEY":" ","HOUSE_NO":"２８號","E_COORD97":166200.64999999999,"N_COORD97":2562761.23,"ADDRESS":"林園街１５巷２８號","OBJECTID":411306},"geometry":{"x":166200.6500000013,"y":2562761.2300000004}},{"attributes":{"ID":411331,"DIS_CODE":0,"TOWNNAME":"佳里區","LI":"六安里","LIN":"3鄰","STREET":"林園街","SECT":" ","MAREA":" ","LANE":"１５巷","ALLEY":" ","HOUSE_NO":"３０號","E_COORD97":166200.82999999999,"N_COORD97":2562754.1699999999,"ADDRESS":"林園街１５巷３０號","OBJECTID":411307},"geometry":{"x":166200.83000000101,"y":2562754.1699999999}},{"attributes":{"ID":411332,"DIS_CODE":0,"TOWNNAME":"永康區","LI":"復國里","LIN":"36鄰","STREET":"興國街","SECT":" ","MAREA":" ","LANE":"１０巷","ALLEY":" ","HOUSE_NO":"１２號","E_COORD97":172675.34,"N_COORD97":2544734.2400000002,"ADDRESS":"興國街１０巷１２號","OBJECTID":411308},"geometry":{"x":172675.33999999985,"y":2544734.2400000002}},{"attributes":{"ID":411333,"DIS_CODE":0,"TOWNNAME":"永康區","LI":"復國里","LIN":"36鄰","STREET":"興國街","SECT":" ","MAREA":" ","LANE":"１０巷","ALLEY":" ","HOUSE_NO":"１６號","E_COORD97":172672.64999999999,"N_COORD97":2544739.2400000002,"ADDRESS":"興國街１０巷１６號","OBJECTID":411309},"geometry":{"x":172672.64999999944,"y":2544739.2400000021}},{"attributes":{"ID":411334,"DIS_CODE":0,"TOWNNAME":"永康區","LI":"復國里","LIN":"36鄰","STREET":"興國街","SECT":" ","MAREA":" ","LANE":"１０巷","ALLEY":" ","HOUSE_NO":"１號","E_COORD97":172675.29000000001,"N_COORD97":2544706.7400000002,"ADDRESS":"興國街１０巷１號","OBJECTID":411310},"geometry":{"x":172675.29000000097,"y":2544706.7400000002}},{"attributes":{"ID":411335,"DIS_CODE":0,"TOWNNAME":"永康區","LI":"復國里","LIN":"36鄰","STREET":"興國街","SECT":" ","MAREA":" ","LANE":"１０巷","ALLEY":" ","HOUSE_NO":"２號","E_COORD97":172684.94,"N_COORD97":2544711.7400000002,"ADDRESS":"興國街１０巷２號","OBJECTID":411311},"geometry":{"x":172684.94000000134,"y":2544711.7400000021}},{"attributes":{"ID":411336,"DIS_CODE":0,"TOWNNAME":"永康區","LI":"復國里","LIN":"36鄰","STREET":"興國街","SECT":" ","MAREA":" ","LANE":"１０巷","ALLEY":" ","HOUSE_NO":"３號","E_COORD97":172672.84,"N_COORD97":2544712.2400000002,"ADDRESS":"興國街１０巷３號","OBJECTID":411312},"geometry":{"x":172672.84000000078,"y":2544712.2400000021}},{"attributes":{"ID":411337,"DIS_CODE":0,"TOWNNAME":"永康區","LI":"復國里","LIN":"36鄰","STREET":"興國街","SECT":" ","MAREA":" ","LANE":"１０巷","ALLEY":" ","HOUSE_NO":"５號","E_COORD97":172669.97,"N_COORD97":2544717.9900000002,"ADDRESS":"興國街１０巷５號","OBJECTID":411313},"geometry":{"x":172669.9700000016,"y":2544717.9900000002}},{"attributes":{"ID":411338,"DIS_CODE":0,"TOWNNAME":"永康區","LI":"復國里","LIN":"36鄰","STREET":"興國街","SECT":" ","MAREA":" ","LANE":"１０巷","ALLEY":" ","HOUSE_NO":"６號","E_COORD97":172681.73999999999,"N_COORD97":2544718.4900000002,"ADDRESS":"興國街１０巷６號","OBJECTID":411314},"geometry":{"x":172681.74000000022,"y":2544718.4900000002}},{"attributes":{"ID":411339,"DIS_CODE":0,"TOWNNAME":"永康區","LI":"復國里","LIN":"36鄰","STREET":"興國街","SECT":" ","MAREA":" ","LANE":"１０巷","ALLEY":" ","HOUSE_NO":"７號","E_COORD97":172667.51999999999,"N_COORD97":2544723.2400000002,"ADDRESS":"興國街１０巷７號","OBJECTID":411315},"geometry":{"x":172667.51999999862,"y":2544723.2400000002}},{"attributes":{"ID":411340,"DIS_CODE":0,"TOWNNAME":"永康區","LI":"復國里","LIN":"36鄰","STREET":"興國街","SECT":" ","MAREA":" ","LANE":"１０巷","ALLEY":" ","HOUSE_NO":"８號","E_COORD97":172679.29000000001,"N_COORD97":2544722.7400000002,"ADDRESS":"興國街１０巷８號","OBJECTID":411316},"geometry":{"x":172679.29000000004,"y":2544722.7400000021}},{"attributes":{"ID":411341,"DIS_CODE":0,"TOWNNAME":"永康區","LI":"復國里","LIN":"36鄰","STREET":"興國街","SECT":" ","MAREA":" ","LANE":"１２巷","ALLEY":" ","HOUSE_NO":"１號","E_COORD97":172658.73999999999,"N_COORD97":2544698.9900000002,"ADDRESS":"興國街１２巷１號","OBJECTID":411317},"geometry":{"x":172658.74000000115,"y":2544698.9899999984}},{"attributes":{"ID":411342,"DIS_CODE":0,"TOWNNAME":"永康區","LI":"復國里","LIN":"36鄰","STREET":"興國街","SECT":" ","MAREA":" ","LANE":"１２巷","ALLEY":" ","HOUSE_NO":"３號","E_COORD97":172652.78,"N_COORD97":2544710.4900000002,"ADDRESS":"興國街１２巷３號","OBJECTID":411318},"geometry":{"x":172652.78000000026,"y":2544710.4900000021}},{"attributes":{"ID":411343,"DIS_CODE":0,"TOWNNAME":"安南區","LI":"溪北里","LIN":"3鄰","STREET":"安和路","SECT":"一段","MAREA":" ","LANE":"９１巷","ALLEY":" ","HOUSE_NO":"１５號","E_COORD97":169438.01000000001,"N_COORD97":2547559.54,"ADDRESS":"安和路一段９１巷１５號","OBJECTID":411319},"geometry":{"x":169438.00999999978,"y":2547559.540000001}},{"attributes":{"ID":411344,"DIS_CODE":0,"TOWNNAME":"安南區","LI":"佃西里","LIN":"3鄰","STREET":"公學路","SECT":"四段","MAREA":" ","LANE":"１２６巷","ALLEY":" ","HOUSE_NO":"６２號","E_COORD97":165405.63,"N_COORD97":2551963.1800000002,"ADDRESS":"公學路四段１２６巷６２號","OBJECTID":411320},"geometry":{"x":165405.63000000082,"y":2551963.1800000034}},{"attributes":{"ID":411345,"DIS_CODE":0,"TOWNNAME":"安南區","LI":"佃西里","LIN":"3鄰","STREET":"公學路","SECT":"四段","MAREA":" ","LANE":"２３４巷","ALLEY":" ","HOUSE_NO":"１２號","E_COORD97":165428.26999999999,"N_COORD97":2551916.8100000001,"ADDRESS":"公學路四段２３４巷１２號","OBJECTID":411321},"geometry":{"x":165428.27000000048,"y":2551916.8100000024}},{"attributes":{"ID":411346,"DIS_CODE":0,"TOWNNAME":"安南區","LI":"佃西里","LIN":"3鄰","STREET":"公學路","SECT":"四段","MAREA":" ","LANE":"２３４巷","ALLEY":" ","HOUSE_NO":"１８號","E_COORD97":165423.51000000001,"N_COORD97":2551914.7400000002,"ADDRESS":"公學路四段２３４巷１８號","OBJECTID":411322},"geometry":{"x":165423.51000000071,"y":2551914.7400000002}},{"attributes":{"ID":411347,"DIS_CODE":0,"TOWNNAME":"安南區","LI":"佃西里","LIN":"3鄰","STREET":"公學路","SECT":"四段","MAREA":" ","LANE":"２３４巷","ALLEY":" ","HOUSE_NO":"５號","E_COORD97":165469,"N_COORD97":2551871.6000000001,"ADDRESS":"公學路四段２３４巷５號","OBJECTID":411323},"geometry":{"x":165469.00000000093,"y":2551871.5999999996}},{"attributes":{"ID":411348,"DIS_CODE":0,"TOWNNAME":"安南區","LI":"佃西里","LIN":"3鄰","STREET":"公學路","SECT":"四段","MAREA":" ","LANE":"２３４巷","ALLEY":" ","HOUSE_NO":"６號","E_COORD97":165445.23000000001,"N_COORD97":2551911.6400000001,"ADDRESS":"公學路四段２３４巷６號","OBJECTID":411324},"geometry":{"x":165445.23000000045,"y":2551911.6400000025}},{"attributes":{"ID":411349,"DIS_CODE":0,"TOWNNAME":"安南區","LI":"佃西里","LIN":"3鄰","STREET":"公學路","SECT":"四段","MAREA":" ","LANE":"２３４巷","ALLEY":" ","HOUSE_NO":"９號","E_COORD97":165457.67000000001,"N_COORD97":2551881.4199999999,"ADDRESS":"公學路四段２３４巷９號","OBJECTID":411325},"geometry":{"x":165457.67000000086,"y":2551881.4200000018}},{"attributes":{"ID":411350,"DIS_CODE":0,"TOWNNAME":"安南區","LI":"淵東里","LIN":"3鄰","STREET":"本原街","SECT":"三段","MAREA":" ","LANE":"２３４巷","ALLEY":" ","HOUSE_NO":"３９０號","E_COORD97":165170.88,"N_COORD97":2550781.0899999999,"ADDRESS":"本原街三段２３４巷３９０號","OBJECTID":411326},"geometry":{"x":165170.87999999989,"y":2550781.0900000017}},{"attributes":{"ID":411351,"DIS_CODE":0,"TOWNNAME":"仁德區","LI":"成功里","LIN":"46鄰","STREET":"文賢路","SECT":"一段","MAREA":" ","LANE":"８１巷","ALLEY":" ","HOUSE_NO":"５５號","E_COORD97":170290.13,"N_COORD97":2538307.3199999998,"ADDRESS":"文賢路一段８１巷５５號","OBJECTID":411327},"geometry":{"x":170290.12999999989,"y":2538307.3200000022}},{"attributes":{"ID":411352,"DIS_CODE":0,"TOWNNAME":"仁德區","LI":"成功里","LIN":"17鄰","STREET":"全福路","SECT":" ","MAREA":" ","LANE":"８０巷","ALLEY":" ","HOUSE_NO":"１號","E_COORD97":171034.98000000001,"N_COORD97":2539297.75,"ADDRESS":"全福路８０巷１號","OBJECTID":411328},"geometry":{"x":171034.98000000138,"y":2539297.7500000019}},{"attributes":{"ID":411353,"DIS_CODE":0,"TOWNNAME":"仁德區","LI":"後壁里","LIN":"28鄰","STREET":"德洋路","SECT":" ","MAREA":" ","LANE":"２５巷","ALLEY":" ","HOUSE_NO":"１２號","E_COORD97":173120.14999999999,"N_COORD97":2538972.02,"ADDRESS":"德洋路２５巷１２號","OBJECTID":411329},"geometry":{"x":173120.14999999944,"y":2538972.0200000033}},{"attributes":{"ID":411354,"DIS_CODE":0,"TOWNNAME":"仁德區","LI":"成功里","LIN":"23鄰","STREET":"成功一街","SECT":" ","MAREA":" ","LANE":"１３１巷","ALLEY":" ","HOUSE_NO":"４４號","E_COORD97":170663.5,"N_COORD97":2539854.6600000001,"ADDRESS":"成功一街１３１巷４４號","OBJECTID":411330},"geometry":{"x":170663.50000000093,"y":2539854.660000002}},{"attributes":{"ID":411355,"DIS_CODE":0,"TOWNNAME":"新市區","LI":"港墘里","LIN":"3鄰","STREET":"三民街","SECT":" ","MAREA":" ","LANE":"５０巷","ALLEY":" ","HOUSE_NO":"２９號","E_COORD97":178527.14999999999,"N_COORD97":2553463.54,"ADDRESS":"三民街５０巷２９號","OBJECTID":411331},"geometry":{"x":178527.15000000037,"y":2553463.540000001}},{"attributes":{"ID":411356,"DIS_CODE":0,"TOWNNAME":"永康區","LI":"復興里","LIN":"3鄰","STREET":"復興路","SECT":" ","MAREA":" ","LANE":"２７７巷","ALLEY":" ","HOUSE_NO":"５０號","E_COORD97":172335.64999999999,"N_COORD97":2544179.27,"ADDRESS":"復興路２７７巷５０號","OBJECTID":411332},"geometry":{"x":172335.6500000013,"y":2544179.2700000014}},{"attributes":{"ID":411357,"DIS_CODE":0,"TOWNNAME":"永康區","LI":"新樹里","LIN":"3鄰","STREET":"中山北路","SECT":" ","MAREA":" ","LANE":"９００巷","ALLEY":" ","HOUSE_NO":"１０號","E_COORD97":176588.62,"N_COORD97":2547965.1899999999,"ADDRESS":"中山北路９００巷１０號","OBJECTID":411333},"geometry":{"x":176588.62000000197,"y":2547965.1899999976}},{"attributes":{"ID":411358,"DIS_CODE":0,"TOWNNAME":"東區","LI":"成大里","LIN":"3鄰","STREET":"東寧路","SECT":"西段","MAREA":" ","LANE":"１８巷","ALLEY":" ","HOUSE_NO":"１５號","E_COORD97":169678.14999999999,"N_COORD97":2543744.3199999998,"ADDRESS":"東寧路西段１８巷１５號","OBJECTID":411334},"geometry":{"x":169678.1500000013,"y":2543744.320000004}},{"attributes":{"ID":411359,"DIS_CODE":0,"TOWNNAME":"東區","LI":"成大里","LIN":"3鄰","STREET":"東寧路","SECT":"西段","MAREA":" ","LANE":"１８巷","ALLEY":" ","HOUSE_NO":"１７號","E_COORD97":169684.95999999999,"N_COORD97":2543743.4199999999,"ADDRESS":"東寧路西段１８巷１７號","OBJECTID":411335},"geometry":{"x":169684.96000000183,"y":2543743.4200000037}},{"attributes":{"ID":411360,"DIS_CODE":0,"TOWNNAME":"東區","LI":"成大里","LIN":"3鄰","STREET":"東寧路","SECT":"西段","MAREA":" ","LANE":"１８巷","ALLEY":" ","HOUSE_NO":"１８號","E_COORD97":169673.45000000001,"N_COORD97":2543716.73,"ADDRESS":"東寧路西段１８巷１８號","OBJECTID":411336},"geometry":{"x":169673.45000000205,"y":2543716.7300000004}},{"attributes":{"ID":411361,"DIS_CODE":0,"TOWNNAME":"東區","LI":"成大里","LIN":"3鄰","STREET":"東寧路","SECT":"西段","MAREA":" ","LANE":"１８巷","ALLEY":" ","HOUSE_NO":"１９號","E_COORD97":169690.87,"N_COORD97":2543743.7200000002,"ADDRESS":"東寧路西段１８巷１９號","OBJECTID":411337},"geometry":{"x":169690.87000000197,"y":2543743.7200000025}},{"attributes":{"ID":411362,"DIS_CODE":0,"TOWNNAME":"東區","LI":"成大里","LIN":"3鄰","STREET":"東寧路","SECT":"西段","MAREA":" ","LANE":"１８巷","ALLEY":" ","HOUSE_NO":"２０號","E_COORD97":169679.04999999999,"N_COORD97":2543736.6800000002,"ADDRESS":"東寧路西段１８巷２０號","OBJECTID":411338},"geometry":{"x":169679.05000000168,"y":2543736.6799999997}},{"attributes":{"ID":411363,"DIS_CODE":0,"TOWNNAME":"東區","LI":"成大里","LIN":"3鄰","STREET":"東寧路","SECT":"西段","MAREA":" ","LANE":"１８巷","ALLEY":" ","HOUSE_NO":"２１號","E_COORD97":169697.67999999999,"N_COORD97":2543742.6600000001,"ADDRESS":"東寧路西段１８巷２１號","OBJECTID":411339},"geometry":{"x":169697.6799999997,"y":2543742.660000002}},{"attributes":{"ID":411364,"DIS_CODE":0,"TOWNNAME":"東區","LI":"成大里","LIN":"3鄰","STREET":"東寧路","SECT":"西段","MAREA":" ","LANE":"１８巷","ALLEY":" ","HOUSE_NO":"２２號","E_COORD97":169687.37,"N_COORD97":2543732,"ADDRESS":"東寧路西段１８巷２２號","OBJECTID":411340},"geometry":{"x":169687.37000000197,"y":2543732}},{"attributes":{"ID":411365,"DIS_CODE":0,"TOWNNAME":"東區","LI":"成大里","LIN":"3鄰","STREET":"東寧路","SECT":"西段","MAREA":" ","LANE":"１８巷","ALLEY":" ","HOUSE_NO":"２３號","E_COORD97":169703.13,"N_COORD97":2543741.6000000001,"ADDRESS":"東寧路西段１８巷２３號","OBJECTID":411341},"geometry":{"x":169703.13000000082,"y":2543741.5999999978}},{"attributes":{"ID":411366,"DIS_CODE":0,"TOWNNAME":"東區","LI":"成大里","LIN":"3鄰","STREET":"東寧路","SECT":"西段","MAREA":" ","LANE":"１８巷","ALLEY":" ","HOUSE_NO":"５號","E_COORD97":169645.17999999999,"N_COORD97":2543710.0299999998,"ADDRESS":"東寧路西段１８巷５號","OBJECTID":411342},"geometry":{"x":169645.1799999997,"y":2543710.0299999993}},{"attributes":{"ID":411367,"DIS_CODE":0,"TOWNNAME":"東區","LI":"成大里","LIN":"3鄰","STREET":"東寧路","SECT":"西段","MAREA":" ","LANE":"１８巷","ALLEY":" ","HOUSE_NO":"７號","E_COORD97":169656.26999999999,"N_COORD97":2543707.5299999998,"ADDRESS":"東寧路西段１８巷７號","OBJECTID":411343},"geometry":{"x":169656.26999999955,"y":2543707.5299999993}},{"attributes":{"ID":411368,"DIS_CODE":0,"TOWNNAME":"東區","LI":"成大里","LIN":"3鄰","STREET":"東寧路","SECT":"西段","MAREA":" ","LANE":"１８巷","ALLEY":" ","HOUSE_NO":"１１號","E_COORD97":169657.10000000001,"N_COORD97":2543742.6299999999,"ADDRESS":"東寧路西段１８巷１１號","OBJECTID":411344},"geometry":{"x":169657.10000000056,"y":2543742.629999999}},{"attributes":{"ID":411369,"DIS_CODE":0,"TOWNNAME":"東區","LI":"成大里","LIN":"3鄰","STREET":"東寧路","SECT":"西段","MAREA":" ","LANE":"１８巷","ALLEY":" ","HOUSE_NO":"９號","E_COORD97":169668.59,"N_COORD97":2543740.7799999998,"ADDRESS":"東寧路西段１８巷９號","OBJECTID":411345},"geometry":{"x":169668.58999999892,"y":2543740.7800000012}},{"attributes":{"ID":411370,"DIS_CODE":0,"TOWNNAME":"永康區","LI":"西勢里","LIN":"3鄰","STREET":"富強路","SECT":"一段","MAREA":" ","LANE":"３２１巷","ALLEY":" ","HOUSE_NO":"１０２號","E_COORD97":175539.26999999999,"N_COORD97":2546779.48,"ADDRESS":"富強路一段３２１巷１０２號","OBJECTID":411346},"geometry":{"x":175539.27000000142,"y":2546779.4800000023}},{"attributes":{"ID":411371,"DIS_CODE":0,"TOWNNAME":"永康區","LI":"西勢里","LIN":"3鄰","STREET":"富強路","SECT":"一段","MAREA":" ","LANE":"３２１巷","ALLEY":" ","HOUSE_NO":"９４號","E_COORD97":175538.76999999999,"N_COORD97":2546762.4900000002,"ADDRESS":"富強路一段３２１巷９４號","OBJECTID":411347},"geometry":{"x":175538.76999999955,"y":2546762.4900000002}},{"attributes":{"ID":411372,"DIS_CODE":0,"TOWNNAME":"永康區","LI":"西勢里","LIN":"3鄰","STREET":"富強路","SECT":"一段","MAREA":" ","LANE":"３２１巷","ALLEY":" ","HOUSE_NO":"９２號","E_COORD97":175538.76999999999,"N_COORD97":2546757.9900000002,"ADDRESS":"富強路一段３２１巷９２號","OBJECTID":411348},"geometry":{"x":175538.76999999955,"y":2546757.9900000021}},{"attributes":{"ID":411373,"DIS_CODE":0,"TOWNNAME":"永康區","LI":"西勢里","LIN":"3鄰","STREET":"富強路","SECT":"一段","MAREA":" ","LANE":"３２１巷","ALLEY":" ","HOUSE_NO":"５８號","E_COORD97":175588.26000000001,"N_COORD97":2546772.3199999998,"ADDRESS":"富強路一段３２１巷５８號","OBJECTID":411349},"geometry":{"x":175588.25999999978,"y":2546772.3200000022}},{"attributes":{"ID":411374,"DIS_CODE":0,"TOWNNAME":"永康區","LI":"西勢里","LIN":"3鄰","STREET":"富強路","SECT":"一段","MAREA":" ","LANE":"３２１巷","ALLEY":" ","HOUSE_NO":"６６號","E_COORD97":175566.88,"N_COORD97":2546759.6000000001,"ADDRESS":"富強路一段３２１巷６６號","OBJECTID":411350},"geometry":{"x":175566.88000000082,"y":2546759.6000000015}},{"attributes":{"ID":411375,"DIS_CODE":0,"TOWNNAME":"永康區","LI":"西勢里","LIN":"3鄰","STREET":"富強路","SECT":"一段","MAREA":" ","LANE":"３２１巷","ALLEY":" ","HOUSE_NO":"７２號","E_COORD97":175573.23000000001,"N_COORD97":2546775.0499999998,"ADDRESS":"富強路一段３２１巷７２號","OBJECTID":411351},"geometry":{"x":175573.23000000138,"y":2546775.0500000026}},{"attributes":{"ID":411376,"DIS_CODE":0,"TOWNNAME":"永康區","LI":"西勢里","LIN":"3鄰","STREET":"富強路","SECT":"一段","MAREA":" ","LANE":"３２１巷","ALLEY":" ","HOUSE_NO":"１００號","E_COORD97":175539.39999999999,"N_COORD97":2546775.23,"ADDRESS":"富強路一段３２１巷１００號","OBJECTID":411352},"geometry":{"x":175539.40000000224,"y":2546775.2300000004}},{"attributes":{"ID":411377,"DIS_CODE":0,"TOWNNAME":"安南區","LI":"州北里","LIN":"3鄰","STREET":"安和路","SECT":"五段","MAREA":" ","LANE":"１７１巷","ALLEY":" ","HOUSE_NO":"１７３號","E_COORD97":169631.91,"N_COORD97":2551613.2799999998,"ADDRESS":"安和路五段１７１巷１７３號","OBJECTID":411353},"geometry":{"x":169631.91000000108,"y":2551613.2800000012}},{"attributes":{"ID":411378,"DIS_CODE":0,"TOWNNAME":"安南區","LI":"安東里","LIN":"3鄰","STREET":"安和路","SECT":"一段","MAREA":" ","LANE":"２８８巷","ALLEY":" ","HOUSE_NO":"１０１號","E_COORD97":169555.87,"N_COORD97":2548200.2200000002,"ADDRESS":"安和路一段２８８巷１０１號","OBJECTID":411354},"geometry":{"x":169555.87000000104,"y":2548200.2199999988}},{"attributes":{"ID":411379,"DIS_CODE":0,"TOWNNAME":"安南區","LI":"安東里","LIN":"3鄰","STREET":"安和路","SECT":"一段","MAREA":" ","LANE":"２８８巷","ALLEY":" ","HOUSE_NO":"１０７號","E_COORD97":169569.29000000001,"N_COORD97":2548208.9500000002,"ADDRESS":"安和路一段２８８巷１０７號","OBJECTID":411355},"geometry":{"x":169569.2900000019,"y":2548208.9500000011}},{"attributes":{"ID":411380,"DIS_CODE":0,"TOWNNAME":"安南區","LI":"安東里","LIN":"3鄰","STREET":"安和路","SECT":"一段","MAREA":" ","LANE":"２８８巷","ALLEY":" ","HOUSE_NO":"６７號","E_COORD97":169443.12,"N_COORD97":2548201.3199999998,"ADDRESS":"安和路一段２８８巷６７號","OBJECTID":411356},"geometry":{"x":169443.12000000011,"y":2548201.3200000003}},{"attributes":{"ID":411381,"DIS_CODE":0,"TOWNNAME":"安南區","LI":"安東里","LIN":"3鄰","STREET":"安和路","SECT":"一段","MAREA":" ","LANE":"２８８巷","ALLEY":" ","HOUSE_NO":"６９號","E_COORD97":169454.98999999999,"N_COORD97":2548188.4700000002,"ADDRESS":"安和路一段２８８巷６９號","OBJECTID":411357},"geometry":{"x":169454.99000000115,"y":2548188.4700000044}},{"attributes":{"ID":411382,"DIS_CODE":0,"TOWNNAME":"安南區","LI":"安東里","LIN":"3鄰","STREET":"安和路","SECT":"一段","MAREA":" ","LANE":"２８８巷","ALLEY":" ","HOUSE_NO":"７７號","E_COORD97":169484.04999999999,"N_COORD97":2548193.1699999999,"ADDRESS":"安和路一段２８８巷７７號","OBJECTID":411358},"geometry":{"x":169484.04999999888,"y":2548193.1700000037}},{"attributes":{"ID":411383,"DIS_CODE":0,"TOWNNAME":"安南區","LI":"安東里","LIN":"3鄰","STREET":"安和路","SECT":"一段","MAREA":" ","LANE":"２８８巷","ALLEY":" ","HOUSE_NO":"８１號","E_COORD97":169498.72,"N_COORD97":2548196.1000000001,"ADDRESS":"安和路一段２８８巷８１號","OBJECTID":411359},"geometry":{"x":169498.72000000067,"y":2548196.0999999996}},{"attributes":{"ID":411384,"DIS_CODE":0,"TOWNNAME":"安南區","LI":"安東里","LIN":"3鄰","STREET":"安和路","SECT":"一段","MAREA":" ","LANE":"２８８巷","ALLEY":" ","HOUSE_NO":"８３號","E_COORD97":169509.34,"N_COORD97":2548193.5899999999,"ADDRESS":"安和路一段２８８巷８３號","OBJECTID":411360},"geometry":{"x":169509.34000000171,"y":2548193.5900000036}},{"attributes":{"ID":411385,"DIS_CODE":0,"TOWNNAME":"安南區","LI":"安東里","LIN":"3鄰","STREET":"安和路","SECT":"一段","MAREA":" ","LANE":"２８８巷","ALLEY":" ","HOUSE_NO":"８７號","E_COORD97":169512,"N_COORD97":2548215.8599999999,"ADDRESS":"安和路一段２８８巷８７號","OBJECTID":411361},"geometry":{"x":169512.00000000093,"y":2548215.8600000013}},{"attributes":{"ID":411386,"DIS_CODE":0,"TOWNNAME":"安南區","LI":"安東里","LIN":"3鄰","STREET":"安和路","SECT":"一段","MAREA":" ","LANE":"２８８巷","ALLEY":" ","HOUSE_NO":"９３號","E_COORD97":169531,"N_COORD97":2548197.29,"ADDRESS":"安和路一段２８８巷９３號","OBJECTID":411362},"geometry":{"x":169531.00000000093,"y":2548197.2899999991}},{"attributes":{"ID":411387,"DIS_CODE":0,"TOWNNAME":"安南區","LI":"安西里","LIN":"3鄰","STREET":"安和路","SECT":"一段","MAREA":" ","LANE":"２１５巷","ALLEY":" ","HOUSE_NO":"３１號","E_COORD97":169211.59,"N_COORD97":2547922.29,"ADDRESS":"安和路一段２１５巷３１號","OBJECTID":411363},"geometry":{"x":169211.59000000078,"y":2547922.2899999991}},{"attributes":{"ID":411388,"DIS_CODE":0,"TOWNNAME":"安南區","LI":"安西里","LIN":"3鄰","STREET":"安和路","SECT":"一段","MAREA":" ","LANE":"２１５巷","ALLEY":" ","HOUSE_NO":"３８號","E_COORD97":169193.38,"N_COORD97":2547998.52,"ADDRESS":"安和路一段２１５巷３８號","OBJECTID":411364},"geometry":{"x":169193.37999999989,"y":2547998.5200000014}},{"attributes":{"ID":411389,"DIS_CODE":0,"TOWNNAME":"安南區","LI":"安西里","LIN":"3鄰","STREET":"安和路","SECT":"一段","MAREA":" ","LANE":"２６３巷","ALLEY":" ","HOUSE_NO":"２０號","E_COORD97":169227.82000000001,"N_COORD97":2548029.3999999999,"ADDRESS":"安和路一段２６３巷２０號","OBJECTID":411365},"geometry":{"x":169227.8200000003,"y":2548029.4000000041}},{"attributes":{"ID":411390,"DIS_CODE":0,"TOWNNAME":"安南區","LI":"州北里","LIN":"3鄰","STREET":"安和路","SECT":"五段","MAREA":" ","LANE":"１７１巷","ALLEY":" ","HOUSE_NO":"１３５號之２","E_COORD97":169644.12,"N_COORD97":2551656.77,"ADDRESS":"安和路五段１７１巷１３５號之２","OBJECTID":411366},"geometry":{"x":169644.12000000104,"y":2551656.7699999996}},{"attributes":{"ID":411391,"DIS_CODE":0,"TOWNNAME":"安南區","LI":"安東里","LIN":"3鄰","STREET":"安和路","SECT":"一段","MAREA":" ","LANE":"２８８巷","ALLEY":" ","HOUSE_NO":"１０５號","E_COORD97":169554.75,"N_COORD97":2548228.6400000001,"ADDRESS":"安和路一段２８８巷１０５號","OBJECTID":411367},"geometry":{"x":169554.75000000093,"y":2548228.6400000025}},{"attributes":{"ID":411392,"DIS_CODE":0,"TOWNNAME":"安南區","LI":"安東里","LIN":"3鄰","STREET":"安和路","SECT":"一段","MAREA":" ","LANE":"２８８巷","ALLEY":" ","HOUSE_NO":"１０５號之１","E_COORD97":169567.94,"N_COORD97":2548223.7599999998,"ADDRESS":"安和路一段２８８巷１０５號之１","OBJECTID":411368},"geometry":{"x":169567.94000000041,"y":2548223.7600000016}},{"attributes":{"ID":411393,"DIS_CODE":0,"TOWNNAME":"安南區","LI":"安東里","LIN":"3鄰","STREET":"安和路","SECT":"一段","MAREA":" ","LANE":"２８８巷","ALLEY":" ","HOUSE_NO":"９９號之１","E_COORD97":169546.37,"N_COORD97":2548212.0899999999,"ADDRESS":"安和路一段２８８巷９９號之１","OBJECTID":411369},"geometry":{"x":169546.37000000011,"y":2548212.0900000017}},{"attributes":{"ID":411394,"DIS_CODE":0,"TOWNNAME":"安南區","LI":"安西里","LIN":"3鄰","STREET":"安和路","SECT":"一段","MAREA":" ","LANE":"２１５巷","ALLEY":" ","HOUSE_NO":"２５號","E_COORD97":169222.16,"N_COORD97":2547924.6400000001,"ADDRESS":"安和路一段２１５巷２５號","OBJECTID":411370},"geometry":{"x":169222.16000000015,"y":2547924.6400000006}},{"attributes":{"ID":411395,"DIS_CODE":0,"TOWNNAME":"安南區","LI":"安西里","LIN":"3鄰","STREET":"安和路","SECT":"一段","MAREA":" ","LANE":"２１５巷","ALLEY":" ","HOUSE_NO":"３０號","E_COORD97":169202.59,"N_COORD97":2547972.3199999998,"ADDRESS":"安和路一段２１５巷３０號","OBJECTID":411371},"geometry":{"x":169202.59000000171,"y":2547972.320000004}},{"attributes":{"ID":411396,"DIS_CODE":0,"TOWNNAME":"安南區","LI":"安東里","LIN":"3鄰","STREET":"安和路","SECT":"一段","MAREA":" ","LANE":"２８８巷","ALLEY":" ","HOUSE_NO":"６５號","E_COORD97":169426.48999999999,"N_COORD97":2548182.4700000002,"ADDRESS":"安和路一段２８８巷６５號","OBJECTID":411372},"geometry":{"x":169426.49000000115,"y":2548182.4700000025}},{"attributes":{"ID":411397,"DIS_CODE":0,"TOWNNAME":"安南區","LI":"安東里","LIN":"3鄰","STREET":"安和路","SECT":"一段","MAREA":" ","LANE":"２８８巷","ALLEY":" ","HOUSE_NO":"６５號之２","E_COORD97":169435.98999999999,"N_COORD97":2548184.1400000001,"ADDRESS":"安和路一段２８８巷６５號之２","OBJECTID":411373},"geometry":{"x":169435.99000000115,"y":2548184.1400000043}},{"attributes":{"ID":411398,"DIS_CODE":0,"TOWNNAME":"安南區","LI":"安東里","LIN":"3鄰","STREET":"安和路","SECT":"一段","MAREA":" ","LANE":"２８８巷","ALLEY":" ","HOUSE_NO":"９９號之２","E_COORD97":169543.85999999999,"N_COORD97":2548221.1600000001,"ADDRESS":"安和路一段２８８巷９９號之２","OBJECTID":411374},"geometry":{"x":169543.86000000127,"y":2548221.160000002}},{"attributes":{"ID":411399,"DIS_CODE":0,"TOWNNAME":"安南區","LI":"安西里","LIN":"3鄰","STREET":"安和路","SECT":"一段","MAREA":" ","LANE":"２１５巷","ALLEY":" ","HOUSE_NO":"２６號","E_COORD97":169206.10999999999,"N_COORD97":2547949.2599999998,"ADDRESS":"安和路一段２１５巷２６號","OBJECTID":411375},"geometry":{"x":169206.11000000034,"y":2547949.2600000016}},{"attributes":{"ID":411400,"DIS_CODE":0,"TOWNNAME":"安南區","LI":"安西里","LIN":"3鄰","STREET":"安和路","SECT":"一段","MAREA":" ","LANE":"２１５巷","ALLEY":" ","HOUSE_NO":"２８號","E_COORD97":169203.37,"N_COORD97":2547961.77,"ADDRESS":"安和路一段２１５巷２８號","OBJECTID":411376},"geometry":{"x":169203.37000000104,"y":2547961.7700000033}},{"attributes":{"ID":411401,"DIS_CODE":0,"TOWNNAME":"安南區","LI":"州北里","LIN":"3鄰","STREET":"安和路","SECT":"五段","MAREA":" ","LANE":"１７１巷","ALLEY":" ","HOUSE_NO":"１６９號","E_COORD97":169629.42000000001,"N_COORD97":2551618.25,"ADDRESS":"安和路五段１７１巷１６９號","OBJECTID":411377},"geometry":{"x":169629.42000000086,"y":2551618.2500000019}},{"attributes":{"ID":411402,"DIS_CODE":0,"TOWNNAME":"安南區","LI":"溪北里","LIN":"3鄰","STREET":"安和路","SECT":"一段","MAREA":" ","LANE":"９１巷","ALLEY":" ","HOUSE_NO":"１３號","E_COORD97":169441.69,"N_COORD97":2547562.7799999998,"ADDRESS":"安和路一段９１巷１３號","OBJECTID":411378},"geometry":{"x":169441.69000000134,"y":2547562.7800000012}},{"attributes":{"ID":411403,"DIS_CODE":0,"TOWNNAME":"安南區","LI":"溪北里","LIN":"3鄰","STREET":"安和路","SECT":"一段","MAREA":" ","LANE":"９１巷","ALLEY":" ","HOUSE_NO":"１０１號","E_COORD97":169154.70000000001,"N_COORD97":2547478.6299999999,"ADDRESS":"安和路一段９１巷１０１號","OBJECTID":411379},"geometry":{"x":169154.70000000205,"y":2547478.6300000008}},{"attributes":{"ID":411404,"DIS_CODE":0,"TOWNNAME":"安南區","LI":"溪北里","LIN":"3鄰","STREET":"安和路","SECT":"一段","MAREA":" ","LANE":"９１巷","ALLEY":" ","HOUSE_NO":"１１號","E_COORD97":169446.98000000001,"N_COORD97":2547564.1200000001,"ADDRESS":"安和路一段９１巷１１號","OBJECTID":411380},"geometry":{"x":169446.98000000138,"y":2547564.1200000048}},{"attributes":{"ID":411405,"DIS_CODE":0,"TOWNNAME":"安南區","LI":"溪北里","LIN":"3鄰","STREET":"安和路","SECT":"一段","MAREA":" ","LANE":"９１巷","ALLEY":" ","HOUSE_NO":"１７號","E_COORD97":169426.51000000001,"N_COORD97":2547555.8199999998,"ADDRESS":"安和路一段９１巷１７號","OBJECTID":411381},"geometry":{"x":169426.50999999978,"y":2547555.8200000022}},{"attributes":{"ID":411406,"DIS_CODE":0,"TOWNNAME":"安南區","LI":"溪北里","LIN":"3鄰","STREET":"安和路","SECT":"一段","MAREA":" ","LANE":"９１巷","ALLEY":" ","HOUSE_NO":"１９號","E_COORD97":169421.5,"N_COORD97":2547552.6699999999,"ADDRESS":"安和路一段９１巷１９號","OBJECTID":411382},"geometry":{"x":169421.5,"y":2547552.6700000037}},{"attributes":{"ID":411407,"DIS_CODE":0,"TOWNNAME":"安南區","LI":"溪北里","LIN":"3鄰","STREET":"安和路","SECT":"一段","MAREA":" ","LANE":"９１巷","ALLEY":" ","HOUSE_NO":"１號","E_COORD97":169471.95999999999,"N_COORD97":2547572.1000000001,"ADDRESS":"安和路一段９１巷１號","OBJECTID":411383},"geometry":{"x":169471.96000000089,"y":2547572.0999999996}},{"attributes":{"ID":411408,"DIS_CODE":0,"TOWNNAME":"安南區","LI":"溪北里","LIN":"3鄰","STREET":"安和路","SECT":"一段","MAREA":" ","LANE":"９１巷","ALLEY":" ","HOUSE_NO":"２１號","E_COORD97":169416.07000000001,"N_COORD97":2547551.8500000001,"ADDRESS":"安和路一段９１巷２１號","OBJECTID":411384},"geometry":{"x":169416.0700000003,"y":2547551.8500000015}},{"attributes":{"ID":411409,"DIS_CODE":0,"TOWNNAME":"安南區","LI":"溪北里","LIN":"3鄰","STREET":"安和路","SECT":"一段","MAREA":" ","LANE":"９１巷","ALLEY":" ","HOUSE_NO":"２３號","E_COORD97":169412.26999999999,"N_COORD97":2547549.46,"ADDRESS":"安和路一段９１巷２３號","OBJECTID":411385},"geometry":{"x":169412.26999999955,"y":2547549.4600000028}},{"attributes":{"ID":411410,"DIS_CODE":0,"TOWNNAME":"安南區","LI":"溪北里","LIN":"3鄰","STREET":"安和路","SECT":"一段","MAREA":" ","LANE":"９１巷","ALLEY":" ","HOUSE_NO":"２９號","E_COORD97":169396.92999999999,"N_COORD97":2547544.5899999999,"ADDRESS":"安和路一段９１巷２９號","OBJECTID":411386},"geometry":{"x":169396.93000000063,"y":2547544.5899999999}},{"attributes":{"ID":411411,"DIS_CODE":0,"TOWNNAME":"安南區","LI":"溪北里","LIN":"3鄰","STREET":"安和路","SECT":"一段","MAREA":" ","LANE":"９１巷","ALLEY":" ","HOUSE_NO":"３１號","E_COORD97":169392.63,"N_COORD97":2547542.0899999999,"ADDRESS":"安和路一段９１巷３１號","OBJECTID":411387},"geometry":{"x":169392.63000000082,"y":2547542.0899999999}},{"attributes":{"ID":411412,"DIS_CODE":0,"TOWNNAME":"安南區","LI":"溪北里","LIN":"3鄰","STREET":"安和路","SECT":"一段","MAREA":" ","LANE":"９１巷","ALLEY":" ","HOUSE_NO":"３號","E_COORD97":169466.57000000001,"N_COORD97":2547570.6499999999,"ADDRESS":"安和路一段９１巷３號","OBJECTID":411388},"geometry":{"x":169466.57000000123,"y":2547570.6500000022}},{"attributes":{"ID":411413,"DIS_CODE":0,"TOWNNAME":"安南區","LI":"溪北里","LIN":"3鄰","STREET":"安和路","SECT":"一段","MAREA":" ","LANE":"９１巷","ALLEY":" ","HOUSE_NO":"４１號","E_COORD97":169367.34,"N_COORD97":2547534.02,"ADDRESS":"安和路一段９１巷４１號","OBJECTID":411389},"geometry":{"x":169367.34000000078,"y":2547534.0200000014}},{"attributes":{"ID":411414,"DIS_CODE":0,"TOWNNAME":"安南區","LI":"溪北里","LIN":"3鄰","STREET":"安和路","SECT":"一段","MAREA":" ","LANE":"９１巷","ALLEY":" ","HOUSE_NO":"４３號","E_COORD97":169356.20000000001,"N_COORD97":2547528.8999999999,"ADDRESS":"安和路一段９１巷４３號","OBJECTID":411390},"geometry":{"x":169356.20000000019,"y":2547528.9000000022}},{"attributes":{"ID":411415,"DIS_CODE":0,"TOWNNAME":"安南區","LI":"溪北里","LIN":"3鄰","STREET":"安和路","SECT":"一段","MAREA":" ","LANE":"９１巷","ALLEY":" ","HOUSE_NO":"４５號","E_COORD97":169349.76999999999,"N_COORD97":2547526.21,"ADDRESS":"安和路一段９１巷４５號","OBJECTID":411391},"geometry":{"x":169349.76999999955,"y":2547526.2100000046}},{"attributes":{"ID":411416,"DIS_CODE":0,"TOWNNAME":"安南區","LI":"溪北里","LIN":"3鄰","STREET":"安和路","SECT":"一段","MAREA":" ","LANE":"９１巷","ALLEY":" ","HOUSE_NO":"４７號","E_COORD97":169343.03,"N_COORD97":2547523.6200000001,"ADDRESS":"安和路一段９１巷４７號","OBJECTID":411392},"geometry":{"x":169343.03000000119,"y":2547523.6200000048}},{"attributes":{"ID":411417,"DIS_CODE":0,"TOWNNAME":"安南區","LI":"溪北里","LIN":"3鄰","STREET":"安和路","SECT":"一段","MAREA":" ","LANE":"９１巷","ALLEY":" ","HOUSE_NO":"４９號","E_COORD97":169336.29999999999,"N_COORD97":2547521.1400000001,"ADDRESS":"安和路一段９１巷４９號","OBJECTID":411393},"geometry":{"x":169336.29999999981,"y":2547521.1400000006}},{"attributes":{"ID":411418,"DIS_CODE":0,"TOWNNAME":"安南區","LI":"溪北里","LIN":"3鄰","STREET":"安和路","SECT":"一段","MAREA":" ","LANE":"９１巷","ALLEY":" ","HOUSE_NO":"５３號","E_COORD97":169324.13,"N_COORD97":2547516.3399999999,"ADDRESS":"安和路一段９１巷５３號","OBJECTID":411394},"geometry":{"x":169324.12999999989,"y":2547516.3399999999}},{"attributes":{"ID":411419,"DIS_CODE":0,"TOWNNAME":"東區","LI":"大智里","LIN":"40鄰","STREET":"文東街","SECT":" ","MAREA":" ","LANE":"２巷","ALLEY":" ","HOUSE_NO":"２號","E_COORD97":171333.39000000001,"N_COORD97":2540110.75,"ADDRESS":"文東街２巷２號","OBJECTID":411395},"geometry":{"x":171333.3900000006,"y":2540110.7500000019}},{"attributes":{"ID":411420,"DIS_CODE":0,"TOWNNAME":"安南區","LI":"溪北里","LIN":"3鄰","STREET":"安和路","SECT":"一段","MAREA":" ","LANE":"９１巷","ALLEY":" ","HOUSE_NO":"５５號","E_COORD97":169318.10999999999,"N_COORD97":2547514.3799999999,"ADDRESS":"安和路一段９１巷５５號","OBJECTID":411396},"geometry":{"x":169318.1100000022,"y":2547514.379999999}},{"attributes":{"ID":411421,"DIS_CODE":0,"TOWNNAME":"安南區","LI":"溪北里","LIN":"3鄰","STREET":"安和路","SECT":"一段","MAREA":" ","LANE":"９１巷","ALLEY":" ","HOUSE_NO":"５９號","E_COORD97":169304.95000000001,"N_COORD97":2547509.7200000002,"ADDRESS":"安和路一段９１巷５９號","OBJECTID":411397},"geometry":{"x":169304.95000000019,"y":2547509.7200000025}},{"attributes":{"ID":411422,"DIS_CODE":0,"TOWNNAME":"安南區","LI":"溪北里","LIN":"3鄰","STREET":"安和路","SECT":"一段","MAREA":" ","LANE":"９１巷","ALLEY":" ","HOUSE_NO":"５號","E_COORD97":169462.22,"N_COORD97":2547568.6800000002,"ADDRESS":"安和路一段９１巷５號","OBJECTID":411398},"geometry":{"x":169462.21999999974,"y":2547568.6799999997}},{"attributes":{"ID":411423,"DIS_CODE":0,"TOWNNAME":"安南區","LI":"溪北里","LIN":"3鄰","STREET":"安和路","SECT":"一段","MAREA":" ","LANE":"９１巷","ALLEY":" ","HOUSE_NO":"６１號","E_COORD97":169298.89000000001,"N_COORD97":2547506.79,"ADDRESS":"安和路一段９１巷６１號","OBJECTID":411399},"geometry":{"x":169298.8900000006,"y":2547506.7900000028}},{"attributes":{"ID":411424,"DIS_CODE":0,"TOWNNAME":"安南區","LI":"溪北里","LIN":"3鄰","STREET":"安和路","SECT":"一段","MAREA":" ","LANE":"９１巷","ALLEY":" ","HOUSE_NO":"６３號","E_COORD97":169291.12,"N_COORD97":2547504.2999999998,"ADDRESS":"安和路一段９１巷６３號","OBJECTID":411400},"geometry":{"x":169291.12000000104,"y":2547504.3000000007}}]}