{"displayFieldName":"TOWNNAME","fieldAliases":{"ID":"ID","DIS_CODE":"DIS_CODE","TOWNNAME":"TOWNNAME","LI":"LI","LIN":"LIN","STREET":"STREET","SECT":"SECT","MAREA":"MAREA","LANE":"LANE","ALLEY":"ALLEY","HOUSE_NO":"HOUSE_NO","E_COORD97":"E_COORD97","N_COORD97":"N_COORD97","ADDRESS":"ADDRESS","OBJECTID":"OBJECTID"},"geometryType":"esriGeometryPoint","spatialReference":{"wkid":102443,"latestWkid":3826},"fields":[{"name":"ID","type":"esriFieldTypeDouble","alias":"ID"},{"name":"DIS_CODE","type":"esriFieldTypeInteger","alias":"DIS_CODE"},{"name":"TOWNNAME","type":"esriFieldTypeString","alias":"TOWNNAME","length":8},{"name":"LI","type":"esriFieldTypeString","alias":"LI","length":8},{"name":"LIN","type":"esriFieldTypeString","alias":"LIN","length":12},{"name":"STREET","type":"esriFieldTypeString","alias":"STREET","length":20},{"name":"SECT","type":"esriFieldTypeString","alias":"SECT","length":8},{"name":"MAREA","type":"esriFieldTypeString","alias":"MAREA","length":12},{"name":"LANE","type":"esriFieldTypeString","alias":"LANE","length":10},{"name":"ALLEY","type":"esriFieldTypeString","alias":"ALLEY","length":10},{"name":"HOUSE_NO","type":"esriFieldTypeString","alias":"HOUSE_NO","length":20},{"name":"E_COORD97","type":"esriFieldTypeDouble","alias":"E_COORD97"},{"name":"N_COORD97","type":"esriFieldTypeDouble","alias":"N_COORD97"},{"name":"ADDRESS","type":"esriFieldTypeString","alias":"ADDRESS","length":50},{"name":"OBJECTID","type":"esriFieldTypeOID","alias":"OBJECTID"}],"features":[{"attributes":{"ID":332210,"DIS_CODE":0,"TOWNNAME":"安南區","LI":"大安里","LIN":"15鄰","STREET":"義安街","SECT":" ","MAREA":" ","LANE":"１００巷","ALLEY":" ","HOUSE_NO":"１６號","E_COORD97":167510.81,"N_COORD97":2548054.1400000001,"ADDRESS":"義安街１００巷１６號","OBJECTID":332201},"geometry":{"x":167510.81000000052,"y":2548054.1400000006}},{"attributes":{"ID":332211,"DIS_CODE":0,"TOWNNAME":"安南區","LI":"大安里","LIN":"15鄰","STREET":"義安街","SECT":" ","MAREA":" ","LANE":"１００巷","ALLEY":" ","HOUSE_NO":"１７號","E_COORD97":167536.38,"N_COORD97":2548064.5499999998,"ADDRESS":"義安街１００巷１７號","OBJECTID":332202},"geometry":{"x":167536.38000000082,"y":2548064.5500000007}},{"attributes":{"ID":332212,"DIS_CODE":0,"TOWNNAME":"安南區","LI":"大安里","LIN":"15鄰","STREET":"義安街","SECT":" ","MAREA":" ","LANE":"１００巷","ALLEY":" ","HOUSE_NO":"１８號","E_COORD97":167518.13,"N_COORD97":2548049.8300000001,"ADDRESS":"義安街１００巷１８號","OBJECTID":332203},"geometry":{"x":167518.12999999989,"y":2548049.8300000038}},{"attributes":{"ID":332213,"DIS_CODE":0,"TOWNNAME":"南區","LI":"金華里","LIN":"26鄰","STREET":"賢南街","SECT":" ","MAREA":" ","LANE":" ","ALLEY":" ","HOUSE_NO":"１５８號","E_COORD97":166632.73000000001,"N_COORD97":2542422.3199999998,"ADDRESS":"賢南街１５８號","OBJECTID":332204},"geometry":{"x":166632.73000000138,"y":2542422.320000004}},{"attributes":{"ID":332214,"DIS_CODE":0,"TOWNNAME":"仁德區","LI":"仁德里","LIN":"3鄰","STREET":"仁中三街","SECT":" ","MAREA":" ","LANE":" ","ALLEY":" ","HOUSE_NO":"１０３號","E_COORD97":173186.479781,"N_COORD97":2540412.5057600001,"ADDRESS":"仁中三街１０３號","OBJECTID":332205},"geometry":{"x":173186.47978100087,"y":2540412.5057609994}},{"attributes":{"ID":332215,"DIS_CODE":0,"TOWNNAME":"南區","LI":"金華里","LIN":"26鄰","STREET":"賢南街","SECT":" ","MAREA":" ","LANE":" ","ALLEY":" ","HOUSE_NO":"１６０號","E_COORD97":166632.92000000001,"N_COORD97":2542426.9900000002,"ADDRESS":"賢南街１６０號","OBJECTID":332206},"geometry":{"x":166632.92000000086,"y":2542426.9900000002}},{"attributes":{"ID":332216,"DIS_CODE":0,"TOWNNAME":"南區","LI":"金華里","LIN":"26鄰","STREET":"賢南街","SECT":" ","MAREA":" ","LANE":" ","ALLEY":" ","HOUSE_NO":"１６２號","E_COORD97":166631.98000000001,"N_COORD97":2542430.73,"ADDRESS":"賢南街１６２號","OBJECTID":332207},"geometry":{"x":166631.98000000045,"y":2542430.7300000023}},{"attributes":{"ID":332217,"DIS_CODE":0,"TOWNNAME":"南區","LI":"金華里","LIN":"26鄰","STREET":"賢南街","SECT":" ","MAREA":" ","LANE":" ","ALLEY":" ","HOUSE_NO":"１６４號","E_COORD97":166631.79000000001,"N_COORD97":2542436.52,"ADDRESS":"賢南街１６４號","OBJECTID":332208},"geometry":{"x":166631.79000000097,"y":2542436.5199999996}},{"attributes":{"ID":332218,"DIS_CODE":0,"TOWNNAME":"永康區","LI":"西橋里","LIN":"17鄰","STREET":"大橋三街","SECT":" ","MAREA":" ","LANE":" ","ALLEY":" ","HOUSE_NO":"３４號","E_COORD97":170572.38,"N_COORD97":2546443.5,"ADDRESS":"大橋三街３４號","OBJECTID":332209},"geometry":{"x":170572.38000000082,"y":2546443.5}},{"attributes":{"ID":332219,"DIS_CODE":0,"TOWNNAME":"永康區","LI":"安康里","LIN":"17鄰","STREET":"中華路","SECT":" ","MAREA":" ","LANE":" ","ALLEY":" ","HOUSE_NO":"６５９號之４","E_COORD97":170990.60999999999,"N_COORD97":2546216.5499999998,"ADDRESS":"中華路６５９號之４","OBJECTID":332210},"geometry":{"x":170990.61000000034,"y":2546216.5500000026}},{"attributes":{"ID":332220,"DIS_CODE":0,"TOWNNAME":"永康區","LI":"西橋里","LIN":"17鄰","STREET":"大橋三街","SECT":" ","MAREA":" ","LANE":" ","ALLEY":" ","HOUSE_NO":"３０號","E_COORD97":170557.23000000001,"N_COORD97":2546444.75,"ADDRESS":"大橋三街３０號","OBJECTID":332211},"geometry":{"x":170557.23000000138,"y":2546444.7500000019}},{"attributes":{"ID":332221,"DIS_CODE":0,"TOWNNAME":"永康區","LI":"安康里","LIN":"17鄰","STREET":"中華路","SECT":" ","MAREA":" ","LANE":" ","ALLEY":" ","HOUSE_NO":"６４５號","E_COORD97":171019.73000000001,"N_COORD97":2546164.4900000002,"ADDRESS":"中華路６４５號","OBJECTID":332212},"geometry":{"x":171019.73000000138,"y":2546164.4900000021}},{"attributes":{"ID":332222,"DIS_CODE":0,"TOWNNAME":"永康區","LI":"西橋里","LIN":"17鄰","STREET":"大橋三街","SECT":" ","MAREA":" ","LANE":" ","ALLEY":" ","HOUSE_NO":"３２號","E_COORD97":170568.57000000001,"N_COORD97":2546434.5,"ADDRESS":"大橋三街３２號","OBJECTID":332213},"geometry":{"x":170568.57000000123,"y":2546434.5}},{"attributes":{"ID":332223,"DIS_CODE":0,"TOWNNAME":"永康區","LI":"西勢里","LIN":"17鄰","STREET":"富強路","SECT":"一段","MAREA":" ","LANE":" ","ALLEY":" ","HOUSE_NO":"２５２號","E_COORD97":175674.29000000001,"N_COORD97":2546479.52,"ADDRESS":"富強路一段２５２號","OBJECTID":332214},"geometry":{"x":175674.29000000097,"y":2546479.5200000014}},{"attributes":{"ID":332224,"DIS_CODE":0,"TOWNNAME":"永康區","LI":"安康里","LIN":"17鄰","STREET":"中華路","SECT":" ","MAREA":" ","LANE":" ","ALLEY":" ","HOUSE_NO":"６２９號","E_COORD97":171023.29000000001,"N_COORD97":2546138.25,"ADDRESS":"中華路６２９號","OBJECTID":332215},"geometry":{"x":171023.29000000004,"y":2546138.2500000037}},{"attributes":{"ID":332225,"DIS_CODE":0,"TOWNNAME":"中西區","LI":"五妃里","LIN":"17鄰","STREET":"南門路","SECT":" ","MAREA":" ","LANE":" ","ALLEY":" ","HOUSE_NO":"１８９號","E_COORD97":168419.57999999999,"N_COORD97":2542893.8199999998,"ADDRESS":"南門路１８９號","OBJECTID":332216},"geometry":{"x":168419.57999999914,"y":2542893.8200000022}},{"attributes":{"ID":332226,"DIS_CODE":0,"TOWNNAME":"歸仁區","LI":"六甲里","LIN":"8鄰","STREET":"中正十五街","SECT":" ","MAREA":" ","LANE":" ","ALLEY":" ","HOUSE_NO":"５８號","E_COORD97":176463.64782099999,"N_COORD97":2539354.6639800002,"ADDRESS":"中正十五街５８號","OBJECTID":332217},"geometry":{"x":176463.64782099985,"y":2539354.6639820039}},{"attributes":{"ID":332227,"DIS_CODE":0,"TOWNNAME":"歸仁區","LI":"六甲里","LIN":"8鄰","STREET":"中正十五街","SECT":" ","MAREA":" ","LANE":" ","ALLEY":" ","HOUSE_NO":"６０號","E_COORD97":176465.13089299999,"N_COORD97":2539361.2256499999,"ADDRESS":"中正十五街６０號","OBJECTID":332218},"geometry":{"x":176465.1308930004,"y":2539361.2256460022}},{"attributes":{"ID":332228,"DIS_CODE":0,"TOWNNAME":"歸仁區","LI":"六甲里","LIN":"8鄰","STREET":"中正十五街","SECT":" ","MAREA":" ","LANE":" ","ALLEY":" ","HOUSE_NO":"６２號","E_COORD97":176464.07155600001,"N_COORD97":2539366.7289800001,"ADDRESS":"中正十五街６２號","OBJECTID":332219},"geometry":{"x":176464.07155600097,"y":2539366.7289760001}},{"attributes":{"ID":332229,"DIS_CODE":0,"TOWNNAME":"東區","LI":"忠孝里","LIN":"10鄰","STREET":"榮譽街","SECT":" ","MAREA":" ","LANE":" ","ALLEY":" ","HOUSE_NO":"２１０號","E_COORD97":170082.51000000001,"N_COORD97":2541887.9199999999,"ADDRESS":"榮譽街２１０號","OBJECTID":332220},"geometry":{"x":170082.50999999978,"y":2541887.9199999999}},{"attributes":{"ID":332230,"DIS_CODE":0,"TOWNNAME":"歸仁區","LI":"六甲里","LIN":"8鄰","STREET":"中正十五街","SECT":" ","MAREA":" ","LANE":" ","ALLEY":" ","HOUSE_NO":"６４號","E_COORD97":176466.19023000001,"N_COORD97":2539372.8673100001,"ADDRESS":"中正十五街６４號","OBJECTID":332221},"geometry":{"x":176466.1902300017,"y":2539372.8673060033}},{"attributes":{"ID":332231,"DIS_CODE":0,"TOWNNAME":"歸仁區","LI":"六甲里","LIN":"8鄰","STREET":"中正十五街","SECT":" ","MAREA":" ","LANE":" ","ALLEY":" ","HOUSE_NO":"６６號","E_COORD97":176467.88516899999,"N_COORD97":2539378.1589700002,"ADDRESS":"中正十五街６６號","OBJECTID":332222},"geometry":{"x":176467.88516900036,"y":2539378.1589700039}},{"attributes":{"ID":332232,"DIS_CODE":0,"TOWNNAME":"永康區","LI":"王行里","LIN":"1鄰","STREET":"王行路","SECT":" ","MAREA":" ","LANE":" ","ALLEY":" ","HOUSE_NO":"２１４號","E_COORD97":175668.29556699999,"N_COORD97":2548147.66585,"ADDRESS":"王行路２１４號","OBJECTID":332223},"geometry":{"x":175668.29556700122,"y":2548147.6658469979}},{"attributes":{"ID":332233,"DIS_CODE":0,"TOWNNAME":"下營區","LI":"宅內里","LIN":"20鄰","STREET":"宅內街","SECT":" ","MAREA":" ","LANE":"４０巷","ALLEY":" ","HOUSE_NO":"１號","E_COORD97":174319.04999999999,"N_COORD97":2570853.9900000002,"ADDRESS":"宅內街４０巷１號","OBJECTID":332224},"geometry":{"x":174319.05000000075,"y":2570853.9900000021}},{"attributes":{"ID":332234,"DIS_CODE":0,"TOWNNAME":"安南區","LI":"大安里","LIN":"15鄰","STREET":"義安街","SECT":" ","MAREA":" ","LANE":"１００巷","ALLEY":" ","HOUSE_NO":"１９號","E_COORD97":167540.51000000001,"N_COORD97":2548060.02,"ADDRESS":"義安街１００巷１９號","OBJECTID":332225},"geometry":{"x":167540.51000000071,"y":2548060.0199999996}},{"attributes":{"ID":332235,"DIS_CODE":0,"TOWNNAME":"安南區","LI":"大安里","LIN":"15鄰","STREET":"義安街","SECT":" ","MAREA":" ","LANE":"１００巷","ALLEY":" ","HOUSE_NO":"１號","E_COORD97":167489.88,"N_COORD97":2548090.54,"ADDRESS":"義安街１００巷１號","OBJECTID":332226},"geometry":{"x":167489.87999999989,"y":2548090.5399999991}},{"attributes":{"ID":332236,"DIS_CODE":0,"TOWNNAME":"安南區","LI":"大安里","LIN":"15鄰","STREET":"義安街","SECT":" ","MAREA":" ","LANE":"１００巷","ALLEY":" ","HOUSE_NO":"２０號","E_COORD97":167524.59,"N_COORD97":2548047.1099999999,"ADDRESS":"義安街１００巷２０號","OBJECTID":332227},"geometry":{"x":167524.59000000078,"y":2548047.1099999975}},{"attributes":{"ID":332237,"DIS_CODE":0,"TOWNNAME":"安南區","LI":"大安里","LIN":"15鄰","STREET":"義安街","SECT":" ","MAREA":" ","LANE":"１００巷","ALLEY":" ","HOUSE_NO":"２１號","E_COORD97":167545.88,"N_COORD97":2548056.7200000002,"ADDRESS":"義安街１００巷２１號","OBJECTID":332228},"geometry":{"x":167545.87999999989,"y":2548056.7200000007}},{"attributes":{"ID":332238,"DIS_CODE":0,"TOWNNAME":"安南區","LI":"大安里","LIN":"15鄰","STREET":"義安街","SECT":" ","MAREA":" ","LANE":"１００巷","ALLEY":" ","HOUSE_NO":"２２號","E_COORD97":167528.32000000001,"N_COORD97":2548044.5299999998,"ADDRESS":"義安街１００巷２２號","OBJECTID":332229},"geometry":{"x":167528.32000000216,"y":2548044.5300000031}},{"attributes":{"ID":332239,"DIS_CODE":0,"TOWNNAME":"安南區","LI":"大安里","LIN":"15鄰","STREET":"義安街","SECT":" ","MAREA":" ","LANE":"１００巷","ALLEY":" ","HOUSE_NO":"２４號","E_COORD97":167533.04999999999,"N_COORD97":2548041.9500000002,"ADDRESS":"義安街１００巷２４號","OBJECTID":332230},"geometry":{"x":167533.05000000168,"y":2548041.9500000011}},{"attributes":{"ID":332240,"DIS_CODE":0,"TOWNNAME":"安南區","LI":"大安里","LIN":"15鄰","STREET":"義安街","SECT":" ","MAREA":" ","LANE":"１００巷","ALLEY":" ","HOUSE_NO":"２號","E_COORD97":167478.95999999999,"N_COORD97":2548075.21,"ADDRESS":"義安街１００巷２號","OBJECTID":332231},"geometry":{"x":167478.95999999996,"y":2548075.2100000046}},{"attributes":{"ID":332241,"DIS_CODE":0,"TOWNNAME":"歸仁區","LI":"大潭里","LIN":"2鄰","STREET":"中正南路","SECT":"三段","MAREA":" ","LANE":"１４７巷","ALLEY":" ","HOUSE_NO":"５０號","E_COORD97":175322.842886,"N_COORD97":2534837.3208499998,"ADDRESS":"中正南路三段１４７巷５０號","OBJECTID":332232},"geometry":{"x":175322.84288600087,"y":2534837.320852004}},{"attributes":{"ID":332242,"DIS_CODE":0,"TOWNNAME":"歸仁區","LI":"武東里","LIN":"3鄰","STREET":"武東二街","SECT":" ","MAREA":" ","LANE":"２０巷","ALLEY":" ","HOUSE_NO":"３１號","E_COORD97":175446.55857600001,"N_COORD97":2535236.4422599999,"ADDRESS":"武東二街２０巷３１號","OBJECTID":332233},"geometry":{"x":175446.55857599992,"y":2535236.4422600027}},{"attributes":{"ID":332243,"DIS_CODE":0,"TOWNNAME":"歸仁區","LI":"六甲里","LIN":"12鄰","STREET":"中正南路","SECT":"一段","MAREA":" ","LANE":" ","ALLEY":" ","HOUSE_NO":"１１０６號","E_COORD97":175935.67421100001,"N_COORD97":2538869.7359099998,"ADDRESS":"中正南路一段１１０６號","OBJECTID":332234},"geometry":{"x":175935.67421100102,"y":2538869.7359110024}},{"attributes":{"ID":332244,"DIS_CODE":0,"TOWNNAME":"歸仁區","LI":"大潭里","LIN":"1鄰","STREET":"中正南路","SECT":"三段","MAREA":" ","LANE":" ","ALLEY":" ","HOUSE_NO":"１４５號","E_COORD97":175236.40048899999,"N_COORD97":2534886.8508299999,"ADDRESS":"中正南路三段１４５號","OBJECTID":332235},"geometry":{"x":175236.40048899967,"y":2534886.8508259989}},{"attributes":{"ID":332245,"DIS_CODE":0,"TOWNNAME":"新市區","LI":"社內里","LIN":"18鄰","STREET":" ","SECT":" ","MAREA":"社內","LANE":" ","ALLEY":" ","HOUSE_NO":"１８７之１號","E_COORD97":176193.069418,"N_COORD97":2553111.8976199999,"ADDRESS":"社內１８７之１號","OBJECTID":332236},"geometry":{"x":176193.06941800006,"y":2553111.8976230025}},{"attributes":{"ID":332246,"DIS_CODE":0,"TOWNNAME":"新市區","LI":"社內里","LIN":"2鄰","STREET":" ","SECT":" ","MAREA":"社內","LANE":" ","ALLEY":" ","HOUSE_NO":"２０之１號","E_COORD97":176934.325748,"N_COORD97":2552893.45774,"ADDRESS":"社內２０之１號","OBJECTID":332237},"geometry":{"x":176934.32574800216,"y":2552893.4577409998}},{"attributes":{"ID":332247,"DIS_CODE":0,"TOWNNAME":"安定區","LI":"管寮里","LIN":"8鄰","STREET":" ","SECT":" ","MAREA":"管寮","LANE":" ","ALLEY":" ","HOUSE_NO":"７３之１號","E_COORD97":169857.712677,"N_COORD97":2556425.06379,"ADDRESS":"管寮７３之１號","OBJECTID":332238},"geometry":{"x":169857.71267700195,"y":2556425.0637900047}},{"attributes":{"ID":332248,"DIS_CODE":0,"TOWNNAME":"安定區","LI":"管寮里","LIN":"11鄰","STREET":" ","SECT":" ","MAREA":"管寮","LANE":" ","ALLEY":" ","HOUSE_NO":"１０５號","E_COORD97":169966.00030700001,"N_COORD97":2556347.1705,"ADDRESS":"管寮１０５號","OBJECTID":332239},"geometry":{"x":169966.00030700117,"y":2556347.1704990007}},{"attributes":{"ID":332249,"DIS_CODE":0,"TOWNNAME":"永康區","LI":"王行里","LIN":"6鄰","STREET":"環工路","SECT":" ","MAREA":" ","LANE":" ","ALLEY":" ","HOUSE_NO":"１５號","E_COORD97":175657.27846100001,"N_COORD97":2549835.28327,"ADDRESS":"環工路１５號","OBJECTID":332240},"geometry":{"x":175657.27846100088,"y":2549835.2832690012}},{"attributes":{"ID":332250,"DIS_CODE":0,"TOWNNAME":"新市區","LI":"社內里","LIN":"21鄰","STREET":" ","SECT":" ","MAREA":"社內","LANE":" ","ALLEY":" ","HOUSE_NO":"２１７號","E_COORD97":175701.19289599999,"N_COORD97":2553404.63246,"ADDRESS":"社內２１７號","OBJECTID":332241},"geometry":{"x":175701.19289600011,"y":2553404.6324650031}},{"attributes":{"ID":332251,"DIS_CODE":0,"TOWNNAME":"歸仁區","LI":"大潭里","LIN":"19鄰","STREET":"中正南路","SECT":"三段","MAREA":" ","LANE":" ","ALLEY":" ","HOUSE_NO":"１７２號","E_COORD97":175205.255802,"N_COORD97":2534897.2224900001,"ADDRESS":"中正南路三段１７２號","OBJECTID":332242},"geometry":{"x":175205.25580199994,"y":2534897.2224869989}},{"attributes":{"ID":332252,"DIS_CODE":0,"TOWNNAME":"歸仁區","LI":"六甲里","LIN":"12鄰","STREET":"中正南路","SECT":"一段","MAREA":" ","LANE":" ","ALLEY":" ","HOUSE_NO":"２２３０號","E_COORD97":175814.28742199999,"N_COORD97":2538176.07155,"ADDRESS":"中正南路一段２２３０號","OBJECTID":332243},"geometry":{"x":175814.28742200043,"y":2538176.0715459995}},{"attributes":{"ID":332253,"DIS_CODE":0,"TOWNNAME":"安南區","LI":"大安里","LIN":"15鄰","STREET":"義安街","SECT":" ","MAREA":" ","LANE":"１００巷","ALLEY":" ","HOUSE_NO":"３號","E_COORD97":167496.07000000001,"N_COORD97":2548088.6099999999,"ADDRESS":"義安街１００巷３號","OBJECTID":332244},"geometry":{"x":167496.07000000216,"y":2548088.6100000013}},{"attributes":{"ID":332254,"DIS_CODE":0,"TOWNNAME":"安南區","LI":"大安里","LIN":"15鄰","STREET":"義安街","SECT":" ","MAREA":" ","LANE":"１００巷","ALLEY":" ","HOUSE_NO":"４號","E_COORD97":167484.42000000001,"N_COORD97":2548073.0600000001,"ADDRESS":"義安街１００巷４號","OBJECTID":332245},"geometry":{"x":167484.41999999993,"y":2548073.0600000024}},{"attributes":{"ID":332255,"DIS_CODE":0,"TOWNNAME":"安南區","LI":"大安里","LIN":"15鄰","STREET":"義安街","SECT":" ","MAREA":" ","LANE":"１００巷","ALLEY":" ","HOUSE_NO":"５號","E_COORD97":167501.01999999999,"N_COORD97":2548086.5499999998,"ADDRESS":"義安街１００巷５號","OBJECTID":332246},"geometry":{"x":167501.02000000048,"y":2548086.5500000045}},{"attributes":{"ID":332256,"DIS_CODE":0,"TOWNNAME":"安南區","LI":"大安里","LIN":"15鄰","STREET":"義安街","SECT":" ","MAREA":" ","LANE":"１００巷","ALLEY":" ","HOUSE_NO":"６號","E_COORD97":167488.85999999999,"N_COORD97":2548070.48,"ADDRESS":"義安街１００巷６號","OBJECTID":332247},"geometry":{"x":167488.86000000034,"y":2548070.4800000023}},{"attributes":{"ID":332257,"DIS_CODE":0,"TOWNNAME":"安南區","LI":"大安里","LIN":"15鄰","STREET":"義安街","SECT":" ","MAREA":" ","LANE":"１００巷","ALLEY":" ","HOUSE_NO":"７號","E_COORD97":167505.98000000001,"N_COORD97":2548082.8399999999,"ADDRESS":"義安街１００巷７號","OBJECTID":332248},"geometry":{"x":167505.98000000138,"y":2548082.8399999999}},{"attributes":{"ID":332258,"DIS_CODE":0,"TOWNNAME":"安南區","LI":"大安里","LIN":"15鄰","STREET":"義安街","SECT":" ","MAREA":" ","LANE":"１００巷","ALLEY":" ","HOUSE_NO":"８號","E_COORD97":167493.17000000001,"N_COORD97":2548068.1800000002,"ADDRESS":"義安街１００巷８號","OBJECTID":332249},"geometry":{"x":167493.16999999993,"y":2548068.1800000016}},{"attributes":{"ID":332259,"DIS_CODE":0,"TOWNNAME":"安南區","LI":"大安里","LIN":"15鄰","STREET":"義安街","SECT":" ","MAREA":" ","LANE":"１００巷","ALLEY":" ","HOUSE_NO":"９號","E_COORD97":167510.92999999999,"N_COORD97":2548078.5800000001,"ADDRESS":"義安街１００巷９號","OBJECTID":332250},"geometry":{"x":167510.9299999997,"y":2548078.5800000038}},{"attributes":{"ID":332260,"DIS_CODE":0,"TOWNNAME":"新市區","LI":"社內里","LIN":"21鄰","STREET":" ","SECT":" ","MAREA":"社內","LANE":" ","ALLEY":" ","HOUSE_NO":"２１８號","E_COORD97":175722.51202600001,"N_COORD97":2553447.9275000002,"ADDRESS":"社內２１８號","OBJECTID":332251},"geometry":{"x":175722.51202599984,"y":2553447.9275010005}},{"attributes":{"ID":332261,"DIS_CODE":0,"TOWNNAME":"新市區","LI":"社內里","LIN":"8鄰","STREET":" ","SECT":" ","MAREA":"社內","LANE":" ","ALLEY":" ","HOUSE_NO":"７７之８號","E_COORD97":176575.90984899999,"N_COORD97":2553022.9010600001,"ADDRESS":"社內７７之８號","OBJECTID":332252},"geometry":{"x":176575.90984900016,"y":2553022.9010640029}},{"attributes":{"ID":332262,"DIS_CODE":0,"TOWNNAME":"新市區","LI":"社內里","LIN":"20鄰","STREET":" ","SECT":" ","MAREA":"社內","LANE":" ","ALLEY":" ","HOUSE_NO":"２０８之１號","E_COORD97":175865.57449699999,"N_COORD97":2553018.8794,"ADDRESS":"社內２０８之１號","OBJECTID":332253},"geometry":{"x":175865.57449700125,"y":2553018.8793990035}},{"attributes":{"ID":332263,"DIS_CODE":0,"TOWNNAME":"東山區","LI":"東原里","LIN":"3鄰","STREET":" ","SECT":" ","MAREA":"前大埔","LANE":" ","ALLEY":" ","HOUSE_NO":"２６號","E_COORD97":193161.967167,"N_COORD97":2573674.0938599999,"ADDRESS":"前大埔２６號","OBJECTID":332254},"geometry":{"x":193161.96716700122,"y":2573674.0938640013}},{"attributes":{"ID":332264,"DIS_CODE":0,"TOWNNAME":"東山區","LI":"東原里","LIN":"3鄰","STREET":" ","SECT":" ","MAREA":"前大埔","LANE":" ","ALLEY":" ","HOUSE_NO":"２６號之１","E_COORD97":193163.71455500001,"N_COORD97":2573673.0884500002,"ADDRESS":"前大埔２６號之１","OBJECTID":332255},"geometry":{"x":193163.71455500089,"y":2573673.0884480011}},{"attributes":{"ID":332265,"DIS_CODE":0,"TOWNNAME":"仁德區","LI":"仁愛里","LIN":"18鄰","STREET":" ","SECT":" ","MAREA":"仁愛","LANE":" ","ALLEY":" ","HOUSE_NO":"３６０號","E_COORD97":170222.677792,"N_COORD97":2540219.3224499999,"ADDRESS":"仁愛３６０號","OBJECTID":332256},"geometry":{"x":170222.67779199965,"y":2540219.3224519994}},{"attributes":{"ID":332266,"DIS_CODE":0,"TOWNNAME":"將軍區","LI":"忠興里","LIN":"20鄰","STREET":" ","SECT":" ","MAREA":"忠興","LANE":" ","ALLEY":" ","HOUSE_NO":"２１７號","E_COORD97":164070.01999999999,"N_COORD97":2566606.29,"ADDRESS":"忠興２１７號","OBJECTID":332257},"geometry":{"x":164070.02000000048,"y":2566606.290000001}},{"attributes":{"ID":332267,"DIS_CODE":0,"TOWNNAME":"永康區","LI":"王行里","LIN":"3鄰","STREET":"王行路","SECT":" ","MAREA":" ","LANE":"２４６巷","ALLEY":" ","HOUSE_NO":"３０號","E_COORD97":175713.21145999999,"N_COORD97":2548243.5507999999,"ADDRESS":"王行路２４６巷３０號","OBJECTID":332258},"geometry":{"x":175713.21146000084,"y":2548243.550795}},{"attributes":{"ID":332268,"DIS_CODE":0,"TOWNNAME":"歸仁區","LI":"武東里","LIN":"4鄰","STREET":"武東二街","SECT":" ","MAREA":" ","LANE":"２６巷","ALLEY":" ","HOUSE_NO":"１號","E_COORD97":175479.79721300001,"N_COORD97":2535347.2497,"ADDRESS":"武東二街２６巷１號","OBJECTID":332259},"geometry":{"x":175479.79721300025,"y":2535347.2497000005}},{"attributes":{"ID":332269,"DIS_CODE":0,"TOWNNAME":"歸仁區","LI":"大潭里","LIN":"17鄰","STREET":"中正南路","SECT":"三段","MAREA":" ","LANE":"２５０巷","ALLEY":" ","HOUSE_NO":"５５號","E_COORD97":175034.06595600001,"N_COORD97":2534789.2725499999,"ADDRESS":"中正南路三段２５０巷５５號","OBJECTID":332260},"geometry":{"x":175034.06595600117,"y":2534789.2725450043}},{"attributes":{"ID":332270,"DIS_CODE":0,"TOWNNAME":"歸仁區","LI":"武東里","LIN":"4鄰","STREET":"武東二街","SECT":" ","MAREA":" ","LANE":"２６巷","ALLEY":" ","HOUSE_NO":"１５號","E_COORD97":175473.13382799999,"N_COORD97":2535310.6689399998,"ADDRESS":"武東二街２６巷１５號","OBJECTID":332261},"geometry":{"x":175473.13382800017,"y":2535310.6689430028}},{"attributes":{"ID":332271,"DIS_CODE":0,"TOWNNAME":"歸仁區","LI":"七甲里","LIN":"13鄰","STREET":"南潭一街","SECT":" ","MAREA":" ","LANE":" ","ALLEY":" ","HOUSE_NO":"７３號","E_COORD97":175825.318955,"N_COORD97":2542991.64493,"ADDRESS":"南潭一街７３號","OBJECTID":332262},"geometry":{"x":175825.31895499956,"y":2542991.644932}},{"attributes":{"ID":332272,"DIS_CODE":0,"TOWNNAME":"安平區","LI":"怡平里","LIN":"1鄰","STREET":"建平十七街","SECT":" ","MAREA":" ","LANE":" ","ALLEY":" ","HOUSE_NO":"１５７之１號","E_COORD97":165786.67827400001,"N_COORD97":2544229.7984600002,"ADDRESS":"建平十七街１５７之１號","OBJECTID":332263},"geometry":{"x":165786.67827400006,"y":2544229.7984590009}},{"attributes":{"ID":332273,"DIS_CODE":0,"TOWNNAME":"歸仁區","LI":"武東里","LIN":"4鄰","STREET":"武東二街","SECT":" ","MAREA":" ","LANE":" ","ALLEY":" ","HOUSE_NO":"２８號","E_COORD97":175479.35761899999,"N_COORD97":2535342.9492799998,"ADDRESS":"武東二街２８號","OBJECTID":332264},"geometry":{"x":175479.35761900153,"y":2535342.9492810033}},{"attributes":{"ID":332274,"DIS_CODE":0,"TOWNNAME":"六甲區","LI":"二甲里","LIN":"25鄰","STREET":"中山路","SECT":" ","MAREA":" ","LANE":" ","ALLEY":" ","HOUSE_NO":"３５１號","E_COORD97":182813.31596599999,"N_COORD97":2570178.1507999999,"ADDRESS":"中山路３５１號","OBJECTID":332265},"geometry":{"x":182813.31596600078,"y":2570178.1508019995}},{"attributes":{"ID":332275,"DIS_CODE":0,"TOWNNAME":"歸仁區","LI":"大潭里","LIN":"11鄰","STREET":"中正南路","SECT":"三段","MAREA":" ","LANE":" ","ALLEY":" ","HOUSE_NO":"２９２號","E_COORD97":175102.287652,"N_COORD97":2534663.9659500001,"ADDRESS":"中正南路三段２９２號","OBJECTID":332266},"geometry":{"x":175102.28765200172,"y":2534663.9659460001}},{"attributes":{"ID":332276,"DIS_CODE":0,"TOWNNAME":"歸仁區","LI":"六甲里","LIN":"9鄰","STREET":"中正南路","SECT":"一段","MAREA":" ","LANE":" ","ALLEY":" ","HOUSE_NO":"９１１號","E_COORD97":176210.14890599999,"N_COORD97":2539361.17295,"ADDRESS":"中正南路一段９１１號","OBJECTID":332267},"geometry":{"x":176210.14890599903,"y":2539361.1729550008}},{"attributes":{"ID":332277,"DIS_CODE":0,"TOWNNAME":"歸仁區","LI":"六甲里","LIN":"43鄰","STREET":"六甲二街","SECT":" ","MAREA":" ","LANE":" ","ALLEY":" ","HOUSE_NO":"５３號","E_COORD97":175860.77953100001,"N_COORD97":2539302.0121499998,"ADDRESS":"六甲二街５３號","OBJECTID":332268},"geometry":{"x":175860.77953100018,"y":2539302.0121539999}},{"attributes":{"ID":332278,"DIS_CODE":0,"TOWNNAME":"歸仁區","LI":"六甲里","LIN":"42鄰","STREET":"六甲二街","SECT":" ","MAREA":" ","LANE":" ","ALLEY":" ","HOUSE_NO":"５７號","E_COORD97":175891.288439,"N_COORD97":2539306.03382,"ADDRESS":"六甲二街５７號","OBJECTID":332269},"geometry":{"x":175891.28843900003,"y":2539306.0338180009}},{"attributes":{"ID":332279,"DIS_CODE":0,"TOWNNAME":"六甲區","LI":"甲東里","LIN":"9鄰","STREET":"中正路","SECT":" ","MAREA":" ","LANE":" ","ALLEY":" ","HOUSE_NO":"１１００之１號","E_COORD97":183807.86949000001,"N_COORD97":2571055.89811,"ADDRESS":"中正路１１００之１號","OBJECTID":332270},"geometry":{"x":183807.86949000042,"y":2571055.8981069997}},{"attributes":{"ID":332280,"DIS_CODE":0,"TOWNNAME":"安南區","LI":"大安里","LIN":"15鄰","STREET":"義安街","SECT":" ","MAREA":" ","LANE":"１１４巷","ALLEY":" ","HOUSE_NO":"１０號","E_COORD97":167522.35000000001,"N_COORD97":2548086.4100000001,"ADDRESS":"義安街１１４巷１０號","OBJECTID":332271},"geometry":{"x":167522.35000000149,"y":2548086.4100000001}},{"attributes":{"ID":332281,"DIS_CODE":0,"TOWNNAME":"安南區","LI":"大安里","LIN":"15鄰","STREET":"義安街","SECT":" ","MAREA":" ","LANE":"１１４巷","ALLEY":" ","HOUSE_NO":"１２號","E_COORD97":167527.70999999999,"N_COORD97":2548082.7000000002,"ADDRESS":"義安街１１４巷１２號","OBJECTID":332272},"geometry":{"x":167527.71000000089,"y":2548082.6999999993}},{"attributes":{"ID":332282,"DIS_CODE":0,"TOWNNAME":"安南區","LI":"大安里","LIN":"15鄰","STREET":"義安街","SECT":" ","MAREA":" ","LANE":"１１４巷","ALLEY":" ","HOUSE_NO":"１４號","E_COORD97":167537.62,"N_COORD97":2548076.9300000002,"ADDRESS":"義安街１１４巷１４號","OBJECTID":332273},"geometry":{"x":167537.62000000011,"y":2548076.9300000016}},{"attributes":{"ID":332283,"DIS_CODE":0,"TOWNNAME":"安南區","LI":"大安里","LIN":"15鄰","STREET":"義安街","SECT":" ","MAREA":" ","LANE":"１１４巷","ALLEY":" ","HOUSE_NO":"１６號","E_COORD97":167544.22,"N_COORD97":2548072.5299999998,"ADDRESS":"義安街１１４巷１６號","OBJECTID":332274},"geometry":{"x":167544.22000000067,"y":2548072.5300000012}},{"attributes":{"ID":332284,"DIS_CODE":0,"TOWNNAME":"安南區","LI":"大安里","LIN":"15鄰","STREET":"義安街","SECT":" ","MAREA":" ","LANE":"１１４巷","ALLEY":" ","HOUSE_NO":"１８號","E_COORD97":167551.64999999999,"N_COORD97":2548068.3999999999,"ADDRESS":"義安街１１４巷１８號","OBJECTID":332275},"geometry":{"x":167551.65000000224,"y":2548068.4000000004}},{"attributes":{"ID":332285,"DIS_CODE":0,"TOWNNAME":"安南區","LI":"大安里","LIN":"15鄰","STREET":"義安街","SECT":" ","MAREA":" ","LANE":"１１４巷","ALLEY":" ","HOUSE_NO":"２號","E_COORD97":167498.54999999999,"N_COORD97":2548102.5,"ADDRESS":"義安街１１４巷２號","OBJECTID":332276},"geometry":{"x":167498.54999999981,"y":2548102.5}},{"attributes":{"ID":332286,"DIS_CODE":0,"TOWNNAME":"安南區","LI":"大安里","LIN":"15鄰","STREET":"義安街","SECT":" ","MAREA":" ","LANE":"１１４巷","ALLEY":" ","HOUSE_NO":"４號","E_COORD97":167503.91,"N_COORD97":2548099.75,"ADDRESS":"義安街１１４巷４號","OBJECTID":332277},"geometry":{"x":167503.91000000201,"y":2548099.75}},{"attributes":{"ID":332287,"DIS_CODE":0,"TOWNNAME":"將軍區","LI":"西和里","LIN":"20鄰","STREET":" ","SECT":" ","MAREA":"西湖","LANE":" ","ALLEY":" ","HOUSE_NO":"５１號","E_COORD97":163050.14999999999,"N_COORD97":2566155.3599999999,"ADDRESS":"西湖５１號","OBJECTID":332278},"geometry":{"x":163050.15000000037,"y":2566155.3599999994}},{"attributes":{"ID":332288,"DIS_CODE":0,"TOWNNAME":"將軍區","LI":"西和里","LIN":"20鄰","STREET":" ","SECT":" ","MAREA":"西湖","LANE":" ","ALLEY":" ","HOUSE_NO":"５２之５號","E_COORD97":163047.97,"N_COORD97":2566106.6099999999,"ADDRESS":"西湖５２之５號","OBJECTID":332279},"geometry":{"x":163047.9700000016,"y":2566106.6099999994}},{"attributes":{"ID":332289,"DIS_CODE":0,"TOWNNAME":"將軍區","LI":"西和里","LIN":"20鄰","STREET":" ","SECT":" ","MAREA":"西湖","LANE":" ","ALLEY":" ","HOUSE_NO":"５２之７號","E_COORD97":163034.97,"N_COORD97":2566102.1299999999,"ADDRESS":"西湖５２之７號","OBJECTID":332280},"geometry":{"x":163034.97000000067,"y":2566102.129999999}},{"attributes":{"ID":332290,"DIS_CODE":0,"TOWNNAME":"將軍區","LI":"西和里","LIN":"20鄰","STREET":" ","SECT":" ","MAREA":"西湖","LANE":" ","ALLEY":" ","HOUSE_NO":"５２號","E_COORD97":163031.31,"N_COORD97":2566136.9399999999,"ADDRESS":"西湖５２號","OBJECTID":332281},"geometry":{"x":163031.30999999959,"y":2566136.9400000013}},{"attributes":{"ID":332291,"DIS_CODE":0,"TOWNNAME":"將軍區","LI":"西和里","LIN":"20鄰","STREET":" ","SECT":" ","MAREA":"西湖","LANE":" ","ALLEY":" ","HOUSE_NO":"５３號","E_COORD97":163012.70000000001,"N_COORD97":2566144.29,"ADDRESS":"西湖５３號","OBJECTID":332282},"geometry":{"x":163012.70000000019,"y":2566144.290000001}},{"attributes":{"ID":332292,"DIS_CODE":0,"TOWNNAME":"將軍區","LI":"西和里","LIN":"20鄰","STREET":" ","SECT":" ","MAREA":"西湖","LANE":" ","ALLEY":" ","HOUSE_NO":"５４號","E_COORD97":162996.01000000001,"N_COORD97":2566109.1099999999,"ADDRESS":"西湖５４號","OBJECTID":332283},"geometry":{"x":162996.01000000071,"y":2566109.1100000013}},{"attributes":{"ID":332293,"DIS_CODE":0,"TOWNNAME":"將軍區","LI":"西和里","LIN":"20鄰","STREET":" ","SECT":" ","MAREA":"西湖","LANE":" ","ALLEY":" ","HOUSE_NO":"５５之１號","E_COORD97":162975.29999999999,"N_COORD97":2566145.9100000001,"ADDRESS":"西湖５５之１號","OBJECTID":332284},"geometry":{"x":162975.30000000075,"y":2566145.9100000001}},{"attributes":{"ID":332294,"DIS_CODE":0,"TOWNNAME":"將軍區","LI":"西和里","LIN":"20鄰","STREET":" ","SECT":" ","MAREA":"西湖","LANE":" ","ALLEY":" ","HOUSE_NO":"５５號","E_COORD97":162989.12,"N_COORD97":2566137.4900000002,"ADDRESS":"西湖５５號","OBJECTID":332285},"geometry":{"x":162989.12000000011,"y":2566137.4900000021}},{"attributes":{"ID":332295,"DIS_CODE":0,"TOWNNAME":"仁德區","LI":"仁德里","LIN":"3鄰","STREET":"仁中三街","SECT":" ","MAREA":" ","LANE":" ","ALLEY":" ","HOUSE_NO":"７９號","E_COORD97":173243.080021,"N_COORD97":2540411.58079,"ADDRESS":"仁中三街７９號","OBJECTID":332286},"geometry":{"x":173243.08002099954,"y":2540411.5807910021}},{"attributes":{"ID":332296,"DIS_CODE":0,"TOWNNAME":"仁德區","LI":"仁愛里","LIN":"1鄰","STREET":"二空路","SECT":" ","MAREA":" ","LANE":"２３１巷","ALLEY":" ","HOUSE_NO":"８號","E_COORD97":170328.37847900001,"N_COORD97":2540255.6232699999,"ADDRESS":"二空路２３１巷８號","OBJECTID":332287},"geometry":{"x":170328.37847900111,"y":2540255.6232650001}},{"attributes":{"ID":332297,"DIS_CODE":0,"TOWNNAME":"安南區","LI":"大安里","LIN":"15鄰","STREET":"義安街","SECT":" ","MAREA":" ","LANE":"１１４巷","ALLEY":" ","HOUSE_NO":"６號","E_COORD97":167510.92999999999,"N_COORD97":2548095.21,"ADDRESS":"義安街１１４巷６號","OBJECTID":332288},"geometry":{"x":167510.9299999997,"y":2548095.2100000009}},{"attributes":{"ID":332298,"DIS_CODE":0,"TOWNNAME":"白河區","LI":"白河里","LIN":"15鄰","STREET":"開明街","SECT":" ","MAREA":" ","LANE":"１９３巷","ALLEY":" ","HOUSE_NO":"１號","E_COORD97":190434.17999999999,"N_COORD97":2583158.9199999999,"ADDRESS":"開明街１９３巷１號","OBJECTID":332289},"geometry":{"x":190434.18000000063,"y":2583158.9199999999}},{"attributes":{"ID":332299,"DIS_CODE":0,"TOWNNAME":"歸仁區","LI":"六甲里","LIN":"39鄰","STREET":"六甲八街","SECT":" ","MAREA":" ","LANE":"１４９巷","ALLEY":" ","HOUSE_NO":"１０６號","E_COORD97":175231.74516200001,"N_COORD97":2539832.4485300002,"ADDRESS":"六甲八街１４９巷１０６號","OBJECTID":332290},"geometry":{"x":175231.74516200088,"y":2539832.4485340007}},{"attributes":{"ID":332300,"DIS_CODE":0,"TOWNNAME":"永康區","LI":"安康里","LIN":"12鄰","STREET":"中華路","SECT":" ","MAREA":" ","LANE":" ","ALLEY":" ","HOUSE_NO":"６１１號之１","E_COORD97":171078.875963,"N_COORD97":2546031.7949799998,"ADDRESS":"中華路６１１號之１","OBJECTID":332291},"geometry":{"x":171078.87596299965,"y":2546031.794977}},{"attributes":{"ID":332301,"DIS_CODE":0,"TOWNNAME":"永康區","LI":"安康里","LIN":"12鄰","STREET":"中華路","SECT":" ","MAREA":" ","LANE":" ","ALLEY":" ","HOUSE_NO":"６１１號","E_COORD97":171092.85921200001,"N_COORD97":2546041.3199700001,"ADDRESS":"中華路６１１號","OBJECTID":332292},"geometry":{"x":171092.85921200085,"y":2546041.3199720029}},{"attributes":{"ID":332302,"DIS_CODE":0,"TOWNNAME":"永康區","LI":"安康里","LIN":"12鄰","STREET":"中華路","SECT":" ","MAREA":" ","LANE":" ","ALLEY":" ","HOUSE_NO":"６１３號之１","E_COORD97":171068.07072399999,"N_COORD97":2546076.6682899999,"ADDRESS":"中華路６１３號之１","OBJECTID":332293},"geometry":{"x":171068.07072400022,"y":2546076.6682859994}},{"attributes":{"ID":332303,"DIS_CODE":0,"TOWNNAME":"仁德區","LI":"成功里","LIN":"1鄰","STREET":"保生東路","SECT":" ","MAREA":" ","LANE":" ","ALLEY":" ","HOUSE_NO":"７６號","E_COORD97":171254.37914,"N_COORD97":2539491.4783399999,"ADDRESS":"保生東路７６號","OBJECTID":332294},"geometry":{"x":171254.37913999986,"y":2539491.4783400018}},{"attributes":{"ID":332304,"DIS_CODE":0,"TOWNNAME":"東區","LI":"崇信里","LIN":"20鄰","STREET":"中華東路","SECT":"三段","MAREA":" ","LANE":"４４巷","ALLEY":" ","HOUSE_NO":"７６號","E_COORD97":170775.35000000001,"N_COORD97":2542500.6400000001,"ADDRESS":"中華東路三段４４巷７６號","OBJECTID":332295},"geometry":{"x":170775.35000000149,"y":2542500.6400000006}},{"attributes":{"ID":332305,"DIS_CODE":0,"TOWNNAME":"東區","LI":"崇信里","LIN":"20鄰","STREET":"中華東路","SECT":"三段","MAREA":" ","LANE":"４４巷","ALLEY":" ","HOUSE_NO":"７８號","E_COORD97":170770.54999999999,"N_COORD97":2542506.4399999999,"ADDRESS":"中華東路三段４４巷７８號","OBJECTID":332296},"geometry":{"x":170770.54999999981,"y":2542506.4400000013}},{"attributes":{"ID":332306,"DIS_CODE":0,"TOWNNAME":"東區","LI":"崇信里","LIN":"20鄰","STREET":"中華東路","SECT":"三段","MAREA":" ","LANE":"４４巷","ALLEY":" ","HOUSE_NO":"８０號","E_COORD97":170766.73999999999,"N_COORD97":2542511.2400000002,"ADDRESS":"中華東路三段４４巷８０號","OBJECTID":332297},"geometry":{"x":170766.74000000115,"y":2542511.2400000021}},{"attributes":{"ID":332307,"DIS_CODE":0,"TOWNNAME":"白河區","LI":"白河里","LIN":"15鄰","STREET":"開明街","SECT":" ","MAREA":" ","LANE":"１９３巷","ALLEY":" ","HOUSE_NO":"２號","E_COORD97":190436.35000000001,"N_COORD97":2583149.5600000001,"ADDRESS":"開明街１９３巷２號","OBJECTID":332298},"geometry":{"x":190436.35000000056,"y":2583149.5600000042}},{"attributes":{"ID":332308,"DIS_CODE":0,"TOWNNAME":"中西區","LI":"五妃里","LIN":"17鄰","STREET":"南門路","SECT":" ","MAREA":" ","LANE":" ","ALLEY":" ","HOUSE_NO":"１８９號之１","E_COORD97":168439.66,"N_COORD97":2542889.1899999999,"ADDRESS":"南門路１８９號之１","OBJECTID":332299},"geometry":{"x":168439.66000000201,"y":2542889.1899999995}},{"attributes":{"ID":332309,"DIS_CODE":0,"TOWNNAME":"中西區","LI":"五妃里","LIN":"17鄰","STREET":"南門路","SECT":" ","MAREA":" ","LANE":" ","ALLEY":" ","HOUSE_NO":"１９１號","E_COORD97":168418.42999999999,"N_COORD97":2542889.1899999999,"ADDRESS":"南門路１９１號","OBJECTID":332300},"geometry":{"x":168418.4299999997,"y":2542889.1899999995}},{"attributes":{"ID":332310,"DIS_CODE":0,"TOWNNAME":"中西區","LI":"五妃里","LIN":"17鄰","STREET":"南門路","SECT":" ","MAREA":" ","LANE":" ","ALLEY":" ","HOUSE_NO":"１９３號","E_COORD97":168418.06,"N_COORD97":2542884.4700000002,"ADDRESS":"南門路１９３號","OBJECTID":332301},"geometry":{"x":168418.06000000052,"y":2542884.4700000007}},{"attributes":{"ID":332311,"DIS_CODE":0,"TOWNNAME":"中西區","LI":"五妃里","LIN":"17鄰","STREET":"南門路","SECT":" ","MAREA":" ","LANE":" ","ALLEY":" ","HOUSE_NO":"１９５號","E_COORD97":168417.94,"N_COORD97":2542880.5899999999,"ADDRESS":"南門路１９５號","OBJECTID":332302},"geometry":{"x":168417.94000000134,"y":2542880.5899999999}},{"attributes":{"ID":332312,"DIS_CODE":0,"TOWNNAME":"中西區","LI":"五妃里","LIN":"17鄰","STREET":"南門路","SECT":" ","MAREA":" ","LANE":" ","ALLEY":" ","HOUSE_NO":"１９９號","E_COORD97":168416.48000000001,"N_COORD97":2542869.3100000001,"ADDRESS":"南門路１９９號","OBJECTID":332303},"geometry":{"x":168416.48000000138,"y":2542869.3100000005}},{"attributes":{"ID":332313,"DIS_CODE":0,"TOWNNAME":"中西區","LI":"五妃里","LIN":"17鄰","STREET":"南門路","SECT":" ","MAREA":" ","LANE":" ","ALLEY":" ","HOUSE_NO":"２０１號","E_COORD97":168416.23999999999,"N_COORD97":2542865.3100000001,"ADDRESS":"南門路２０１號","OBJECTID":332304},"geometry":{"x":168416.24000000022,"y":2542865.3100000005}},{"attributes":{"ID":332314,"DIS_CODE":0,"TOWNNAME":"中西區","LI":"五妃里","LIN":"17鄰","STREET":"南門路","SECT":" ","MAREA":" ","LANE":" ","ALLEY":" ","HOUSE_NO":"２０３號","E_COORD97":168415.51000000001,"N_COORD97":2542861.4300000002,"ADDRESS":"南門路２０３號","OBJECTID":332305},"geometry":{"x":168415.51000000071,"y":2542861.4300000034}},{"attributes":{"ID":332315,"DIS_CODE":0,"TOWNNAME":"將軍區","LI":"忠興里","LIN":"20鄰","STREET":" ","SECT":" ","MAREA":"忠興","LANE":" ","ALLEY":" ","HOUSE_NO":"２１３之３號","E_COORD97":163981.57999999999,"N_COORD97":2566601.5,"ADDRESS":"忠興２１３之３號","OBJECTID":332306},"geometry":{"x":163981.58000000194,"y":2566601.5000000019}},{"attributes":{"ID":332316,"DIS_CODE":0,"TOWNNAME":"將軍區","LI":"忠興里","LIN":"20鄰","STREET":" ","SECT":" ","MAREA":"忠興","LANE":" ","ALLEY":" ","HOUSE_NO":"２１３之４號","E_COORD97":163986.22,"N_COORD97":2566601.0899999999,"ADDRESS":"忠興２１３之４號","OBJECTID":332307},"geometry":{"x":163986.22000000067,"y":2566601.0900000017}},{"attributes":{"ID":332317,"DIS_CODE":0,"TOWNNAME":"關廟區","LI":"田中里","LIN":"2鄰","STREET":"田大路","SECT":" ","MAREA":" ","LANE":"１２２巷","ALLEY":" ","HOUSE_NO":"２號","E_COORD97":184295.961427,"N_COORD97":2533728.0544799999,"ADDRESS":"田大路１２２巷２號","OBJECTID":332308},"geometry":{"x":184295.96142700128,"y":2533728.0544820018}},{"attributes":{"ID":332318,"DIS_CODE":0,"TOWNNAME":"關廟區","LI":"田中里","LIN":"4鄰","STREET":"田大路","SECT":" ","MAREA":" ","LANE":" ","ALLEY":" ","HOUSE_NO":"９８號","E_COORD97":184268.79000000001,"N_COORD97":2533758.2999999998,"ADDRESS":"田大路９８號","OBJECTID":332309},"geometry":{"x":184268.79000000097,"y":2533758.3000000026}},{"attributes":{"ID":332319,"DIS_CODE":0,"TOWNNAME":"佳里區","LI":"嘉福里","LIN":"11鄰","STREET":" ","SECT":" ","MAREA":"下\u25A0　　　　","LANE":" ","ALLEY":" ","HOUSE_NO":"１１３號之５","E_COORD97":162942.97945700001,"N_COORD97":2563329.2087099999,"ADDRESS":"下\u25A0　　　　　　１１３號之５","OBJECTID":332310},"geometry":{"x":162942.97945700213,"y":2563329.2087099999}},{"attributes":{"ID":332320,"DIS_CODE":0,"TOWNNAME":"關廟區","LI":"田中里","LIN":"2鄰","STREET":"田大路","SECT":" ","MAREA":" ","LANE":" ","ALLEY":" ","HOUSE_NO":"１３６號","E_COORD97":184348.73999999999,"N_COORD97":2533749.25,"ADDRESS":"田大路１３６號","OBJECTID":332311},"geometry":{"x":184348.74000000115,"y":2533749.25}},{"attributes":{"ID":332321,"DIS_CODE":0,"TOWNNAME":"新市區","LI":"社內里","LIN":"18鄰","STREET":"環東路","SECT":"一段","MAREA":" ","LANE":" ","ALLEY":" ","HOUSE_NO":"１之１號","E_COORD97":176621.02403999999,"N_COORD97":2553906.9637600002,"ADDRESS":"環東路一段１之１號","OBJECTID":332312},"geometry":{"x":176621.02404000051,"y":2553906.9637599997}},{"attributes":{"ID":332322,"DIS_CODE":0,"TOWNNAME":"新市區","LI":"社內里","LIN":"18鄰","STREET":"環東路","SECT":"一段","MAREA":" ","LANE":" ","ALLEY":" ","HOUSE_NO":"１號","E_COORD97":176777.32586400001,"N_COORD97":2554429.5167700001,"ADDRESS":"環東路一段１號","OBJECTID":332313},"geometry":{"x":176777.32586400118,"y":2554429.5167660024}},{"attributes":{"ID":332323,"DIS_CODE":0,"TOWNNAME":"關廟區","LI":"田中里","LIN":"2鄰","STREET":"田大路","SECT":" ","MAREA":" ","LANE":" ","ALLEY":" ","HOUSE_NO":"１００號","E_COORD97":184271.40089200001,"N_COORD97":2533757.2126099998,"ADDRESS":"田大路１００號","OBJECTID":332314},"geometry":{"x":184271.40089199971,"y":2533757.2126080003}},{"attributes":{"ID":332324,"DIS_CODE":0,"TOWNNAME":"東山區","LI":"東原里","LIN":"2鄰","STREET":" ","SECT":" ","MAREA":"前大埔","LANE":" ","ALLEY":" ","HOUSE_NO":"２６號","E_COORD97":193215.56591899999,"N_COORD97":2573683.2352100001,"ADDRESS":"前大埔２６號","OBJECTID":332315},"geometry":{"x":193215.56591899879,"y":2573683.2352130022}},{"attributes":{"ID":332325,"DIS_CODE":0,"TOWNNAME":"新市區","LI":"社內里","LIN":"8鄰","STREET":" ","SECT":" ","MAREA":"社內","LANE":" ","ALLEY":" ","HOUSE_NO":"７５之５０號","E_COORD97":176752.378004,"N_COORD97":2553534.0073000002,"ADDRESS":"社內７５之５０號","OBJECTID":332316},"geometry":{"x":176752.37800400052,"y":2553534.0073009972}},{"attributes":{"ID":332326,"DIS_CODE":0,"TOWNNAME":"下營區","LI":"開化里","LIN":"2鄰","STREET":" ","SECT":" ","MAREA":"中營","LANE":" ","ALLEY":" ","HOUSE_NO":"１０６號之１","E_COORD97":175451.950082,"N_COORD97":2568123.59424,"ADDRESS":"中營１０６號之１","OBJECTID":332317},"geometry":{"x":175451.95008200128,"y":2568123.5942390021}},{"attributes":{"ID":332327,"DIS_CODE":0,"TOWNNAME":"將軍區","LI":"嘉昌里","LIN":"20鄰","STREET":" ","SECT":" ","MAREA":"昌平","LANE":" ","ALLEY":" ","HOUSE_NO":"７９號","E_COORD97":163308.45999999999,"N_COORD97":2567280.5899999999,"ADDRESS":"昌平７９號","OBJECTID":332318},"geometry":{"x":163308.46000000089,"y":2567280.5899999999}},{"attributes":{"ID":332328,"DIS_CODE":0,"TOWNNAME":"新市區","LI":"社內里","LIN":"18鄰","STREET":"環東路","SECT":"一段","MAREA":" ","LANE":" ","ALLEY":" ","HOUSE_NO":"２之１號","E_COORD97":176656.14124,"N_COORD97":2553654.8171899999,"ADDRESS":"環東路一段２之１號","OBJECTID":332319},"geometry":{"x":176656.14124000072,"y":2553654.8171850033}},{"attributes":{"ID":332329,"DIS_CODE":0,"TOWNNAME":"中西區","LI":"大涼里","LIN":"2鄰","STREET":"環河街","SECT":" ","MAREA":" ","LANE":" ","ALLEY":" ","HOUSE_NO":"２６號","E_COORD97":167173.293144,"N_COORD97":2543723.6011700002,"ADDRESS":"環河街２６號","OBJECTID":332320},"geometry":{"x":167173.29314400069,"y":2543723.6011679992}},{"attributes":{"ID":332330,"DIS_CODE":0,"TOWNNAME":"關廟區","LI":"田中里","LIN":"7鄰","STREET":"南雄南路","SECT":" ","MAREA":" ","LANE":" ","ALLEY":" ","HOUSE_NO":"６８６號","E_COORD97":183428.75313900001,"N_COORD97":2533553.9469499998,"ADDRESS":"南雄南路６８６號","OBJECTID":332321},"geometry":{"x":183428.75313900132,"y":2533553.9469499998}},{"attributes":{"ID":332331,"DIS_CODE":0,"TOWNNAME":"關廟區","LI":"田中里","LIN":"7鄰","STREET":"南雄南路","SECT":" ","MAREA":" ","LANE":" ","ALLEY":" ","HOUSE_NO":"７０６號","E_COORD97":183412.65084700001,"N_COORD97":2533496.0296900002,"ADDRESS":"南雄南路７０６號","OBJECTID":332322},"geometry":{"x":183412.650847001,"y":2533496.0296889991}},{"attributes":{"ID":332332,"DIS_CODE":0,"TOWNNAME":"仁德區","LI":"仁愛里","LIN":"24鄰","STREET":"保仁路","SECT":" ","MAREA":" ","LANE":" ","ALLEY":" ","HOUSE_NO":"２６０號一樓之１","E_COORD97":169972.28109999999,"N_COORD97":2540070.4545399998,"ADDRESS":"保仁路２６０號一樓之１","OBJECTID":332323},"geometry":{"x":169972.28110000212,"y":2540070.4545399994}},{"attributes":{"ID":332333,"DIS_CODE":0,"TOWNNAME":"中西區","LI":"五妃里","LIN":"17鄰","STREET":"南門路","SECT":" ","MAREA":" ","LANE":" ","ALLEY":" ","HOUSE_NO":"２０５號","E_COORD97":168415.14999999999,"N_COORD97":2542857.9100000001,"ADDRESS":"南門路２０５號","OBJECTID":332324},"geometry":{"x":168415.1500000013,"y":2542857.9100000001}},{"attributes":{"ID":332334,"DIS_CODE":0,"TOWNNAME":"中西區","LI":"五妃里","LIN":"17鄰","STREET":"南門路","SECT":" ","MAREA":" ","LANE":" ","ALLEY":" ","HOUSE_NO":"２０７號","E_COORD97":168414.91,"N_COORD97":2542853.79,"ADDRESS":"南門路２０７號","OBJECTID":332325},"geometry":{"x":168414.91000000108,"y":2542853.7899999991}},{"attributes":{"ID":332335,"DIS_CODE":0,"TOWNNAME":"東區","LI":"崇學里","LIN":"20鄰","STREET":"崇明十一街","SECT":" ","MAREA":" ","LANE":"５２巷","ALLEY":" ","HOUSE_NO":"１９號","E_COORD97":170413.85999999999,"N_COORD97":2541854.7799999998,"ADDRESS":"崇明十一街５２巷１９號","OBJECTID":332326},"geometry":{"x":170413.86000000127,"y":2541854.7799999993}},{"attributes":{"ID":332336,"DIS_CODE":0,"TOWNNAME":"東區","LI":"崇學里","LIN":"20鄰","STREET":"崇明十一街","SECT":" ","MAREA":" ","LANE":"５２巷","ALLEY":" ","HOUSE_NO":"１號","E_COORD97":170378.98000000001,"N_COORD97":2541881.2999999998,"ADDRESS":"崇明十一街５２巷１號","OBJECTID":332327},"geometry":{"x":170378.98000000138,"y":2541881.3000000026}},{"attributes":{"ID":332337,"DIS_CODE":0,"TOWNNAME":"白河區","LI":"白河里","LIN":"15鄰","STREET":"開明街","SECT":" ","MAREA":" ","LANE":"１９３巷","ALLEY":" ","HOUSE_NO":"３號","E_COORD97":190417.04999999999,"N_COORD97":2583128.75,"ADDRESS":"開明街１９３巷３號","OBJECTID":332328},"geometry":{"x":190417.05000000075,"y":2583128.7500000019}},{"attributes":{"ID":332338,"DIS_CODE":0,"TOWNNAME":"白河區","LI":"白河里","LIN":"15鄰","STREET":"開明街","SECT":" ","MAREA":" ","LANE":"１９３巷","ALLEY":" ","HOUSE_NO":"５號","E_COORD97":190426.07000000001,"N_COORD97":2583132.2799999998,"ADDRESS":"開明街１９３巷５號","OBJECTID":332329},"geometry":{"x":190426.0700000003,"y":2583132.2799999993}},{"attributes":{"ID":332339,"DIS_CODE":0,"TOWNNAME":"白河區","LI":"白河里","LIN":"15鄰","STREET":"開明街","SECT":" ","MAREA":" ","LANE":"１９３巷","ALLEY":" ","HOUSE_NO":"７號","E_COORD97":190416.85000000001,"N_COORD97":2583148.75,"ADDRESS":"開明街１９３巷７號","OBJECTID":332330},"geometry":{"x":190416.84999999963,"y":2583148.7500000019}},{"attributes":{"ID":332340,"DIS_CODE":0,"TOWNNAME":"白河區","LI":"白河里","LIN":"15鄰","STREET":"開明街","SECT":" ","MAREA":" ","LANE":"１９３巷","ALLEY":" ","HOUSE_NO":"９號","E_COORD97":190401.54000000001,"N_COORD97":2583141.6400000001,"ADDRESS":"開明街１９３巷９號","OBJECTID":332331},"geometry":{"x":190401.5400000019,"y":2583141.6400000006}},{"attributes":{"ID":332341,"DIS_CODE":0,"TOWNNAME":"永康區","LI":"南灣里","LIN":"15鄰","STREET":"立興街","SECT":" ","MAREA":" ","LANE":"１３３巷","ALLEY":" ","HOUSE_NO":"４號","E_COORD97":174490.17999999999,"N_COORD97":2544653.25,"ADDRESS":"立興街１３３巷４號","OBJECTID":332332},"geometry":{"x":174490.1799999997,"y":2544653.2500000037}},{"attributes":{"ID":332342,"DIS_CODE":0,"TOWNNAME":"歸仁區","LI":"西埔里","LIN":"2鄰","STREET":"保大路","SECT":"二段","MAREA":" ","LANE":" ","ALLEY":" ","HOUSE_NO":"１４７號","E_COORD97":176920.82021599999,"N_COORD97":2544132.0127699999,"ADDRESS":"保大路二段１４７號","OBJECTID":332333},"geometry":{"x":176920.82021600008,"y":2544132.0127740018}},{"attributes":{"ID":332343,"DIS_CODE":0,"TOWNNAME":"歸仁區","LI":"武東里","LIN":"5鄰","STREET":"武東二街","SECT":" ","MAREA":" ","LANE":" ","ALLEY":" ","HOUSE_NO":"３３號","E_COORD97":175481.388844,"N_COORD97":2535379.00348,"ADDRESS":"武東二街３３號","OBJECTID":332334},"geometry":{"x":175481.38884400018,"y":2535379.0034800023}},{"attributes":{"ID":332344,"DIS_CODE":0,"TOWNNAME":"關廟區","LI":"田中里","LIN":"7鄰","STREET":"中崙街","SECT":" ","MAREA":" ","LANE":" ","ALLEY":" ","HOUSE_NO":"３０號","E_COORD97":183361.165889,"N_COORD97":2533554.4496599999,"ADDRESS":"中崙街３０號","OBJECTID":332335},"geometry":{"x":183361.16588900052,"y":2533554.449657999}},{"attributes":{"ID":332345,"DIS_CODE":0,"TOWNNAME":"新市區","LI":"社內里","LIN":"4鄰","STREET":"富強路","SECT":" ","MAREA":" ","LANE":" ","ALLEY":" ","HOUSE_NO":"４９６號","E_COORD97":176420.10194699999,"N_COORD97":2551695.2130399998,"ADDRESS":"富強路４９６號","OBJECTID":332336},"geometry":{"x":176420.10194700025,"y":2551695.2130360007}},{"attributes":{"ID":332346,"DIS_CODE":0,"TOWNNAME":"新市區","LI":"社內里","LIN":"3鄰","STREET":"富強路","SECT":" ","MAREA":" ","LANE":" ","ALLEY":" ","HOUSE_NO":"１９２號","E_COORD97":176745.705575,"N_COORD97":2551940.8120800001,"ADDRESS":"富強路１９２號","OBJECTID":332337},"geometry":{"x":176745.70557500049,"y":2551940.8120830003}},{"attributes":{"ID":332347,"DIS_CODE":0,"TOWNNAME":"歸仁區","LI":"武東里","LIN":"5鄰","STREET":"武東二街","SECT":" ","MAREA":" ","LANE":" ","ALLEY":" ","HOUSE_NO":"３７號","E_COORD97":175480.54199900001,"N_COORD97":2535406.30846,"ADDRESS":"武東二街３７號","OBJECTID":332338},"geometry":{"x":175480.54199900012,"y":2535406.3084650021}},{"attributes":{"ID":332348,"DIS_CODE":0,"TOWNNAME":"新市區","LI":"社內里","LIN":"4鄰","STREET":"中山路","SECT":" ","MAREA":" ","LANE":" ","ALLEY":" ","HOUSE_NO":"５０１之１號","E_COORD97":176468.19444600001,"N_COORD97":2551376.2315400001,"ADDRESS":"中山路５０１之１號","OBJECTID":332339},"geometry":{"x":176468.1944460012,"y":2551376.2315420024}},{"attributes":{"ID":332349,"DIS_CODE":0,"TOWNNAME":"新市區","LI":"社內里","LIN":"4鄰","STREET":"富強路","SECT":" ","MAREA":" ","LANE":" ","ALLEY":" ","HOUSE_NO":"４９８號","E_COORD97":176403.12596,"N_COORD97":2551687.2355499999,"ADDRESS":"富強路４９８號","OBJECTID":332340},"geometry":{"x":176403.12595999986,"y":2551687.2355499994}},{"attributes":{"ID":332350,"DIS_CODE":0,"TOWNNAME":"關廟區","LI":"田中里","LIN":"6鄰","STREET":"官崙街","SECT":" ","MAREA":" ","LANE":" ","ALLEY":" ","HOUSE_NO":"１０５號","E_COORD97":183582.14865399999,"N_COORD97":2533077.0357499998,"ADDRESS":"官崙街１０５號","OBJECTID":332341},"geometry":{"x":183582.14865400083,"y":2533077.0357489996}},{"attributes":{"ID":332351,"DIS_CODE":0,"TOWNNAME":"鹽水區","LI":"橋南里","LIN":"17鄰","STREET":"仁愛路","SECT":" ","MAREA":" ","LANE":" ","ALLEY":" ","HOUSE_NO":"１１２號之２","E_COORD97":174184.516661,"N_COORD97":2579153.2200699998,"ADDRESS":"仁愛路１１２號之２","OBJECTID":332342},"geometry":{"x":174184.51666100044,"y":2579153.220071001}},{"attributes":{"ID":332352,"DIS_CODE":0,"TOWNNAME":"新市區","LI":"社內里","LIN":"4鄰","STREET":"中山路","SECT":" ","MAREA":" ","LANE":" ","ALLEY":" ","HOUSE_NO":"５０１號","E_COORD97":176456.96580100001,"N_COORD97":2551366.07155,"ADDRESS":"中山路５０１號","OBJECTID":332343},"geometry":{"x":176456.9658010006,"y":2551366.071548}},{"attributes":{"ID":332353,"DIS_CODE":0,"TOWNNAME":"東區","LI":"崇信里","LIN":"20鄰","STREET":"中華東路","SECT":"三段","MAREA":" ","LANE":"４４巷","ALLEY":" ","HOUSE_NO":"８１號","E_COORD97":170740.39000000001,"N_COORD97":2542519.9199999999,"ADDRESS":"中華東路三段４４巷８１號","OBJECTID":332344},"geometry":{"x":170740.38999999966,"y":2542519.9200000018}},{"attributes":{"ID":332354,"DIS_CODE":0,"TOWNNAME":"新化區","LI":"太平里","LIN":"17鄰","STREET":"忠孝路","SECT":" ","MAREA":" ","LANE":" ","ALLEY":" ","HOUSE_NO":"１３６號","E_COORD97":178648.51999999999,"N_COORD97":2548690.25,"ADDRESS":"忠孝路１３６號","OBJECTID":332345},"geometry":{"x":178648.52000000048,"y":2548690.25}},{"attributes":{"ID":332355,"DIS_CODE":0,"TOWNNAME":"新化區","LI":"太平里","LIN":"17鄰","STREET":"民權街","SECT":" ","MAREA":" ","LANE":" ","ALLEY":" ","HOUSE_NO":"１１０號","E_COORD97":178735.51000000001,"N_COORD97":2548755.25,"ADDRESS":"民權街１１０號","OBJECTID":332346},"geometry":{"x":178735.51000000071,"y":2548755.2499999981}},{"attributes":{"ID":332356,"DIS_CODE":0,"TOWNNAME":"東區","LI":"崇信里","LIN":"20鄰","STREET":"中華東路","SECT":"三段","MAREA":" ","LANE":"４４巷","ALLEY":" ","HOUSE_NO":"８３號","E_COORD97":170737,"N_COORD97":2542523.79,"ADDRESS":"中華東路三段４４巷８３號","OBJECTID":332347},"geometry":{"x":170737,"y":2542523.790000001}},{"attributes":{"ID":332357,"DIS_CODE":0,"TOWNNAME":"永康區","LI":"南灣里","LIN":"15鄰","STREET":"立興街","SECT":" ","MAREA":" ","LANE":"１２３巷","ALLEY":" ","HOUSE_NO":"１號","E_COORD97":174475.39999999999,"N_COORD97":2544682.21,"ADDRESS":"立興街１２３巷１號","OBJECTID":332348},"geometry":{"x":174475.4000000013,"y":2544682.2100000028}},{"attributes":{"ID":332358,"DIS_CODE":0,"TOWNNAME":"永康區","LI":"東橋里","LIN":"15鄰","STREET":"中山南路","SECT":" ","MAREA":" ","LANE":"３４７巷","ALLEY":" ","HOUSE_NO":"１３號","E_COORD97":171951.07000000001,"N_COORD97":2546458.3999999999,"ADDRESS":"中山南路３４７巷１３號","OBJECTID":332349},"geometry":{"x":171951.07000000216,"y":2546458.4000000004}},{"attributes":{"ID":332359,"DIS_CODE":0,"TOWNNAME":"永康區","LI":"西勢里","LIN":"15鄰","STREET":"西勢路","SECT":" ","MAREA":" ","LANE":"２６巷","ALLEY":" ","HOUSE_NO":"２９號","E_COORD97":176188.04000000001,"N_COORD97":2546806.46,"ADDRESS":"西勢路２６巷２９號","OBJECTID":332350},"geometry":{"x":176188.04000000097,"y":2546806.4600000028}},{"attributes":{"ID":332360,"DIS_CODE":0,"TOWNNAME":"永康區","LI":"西勢里","LIN":"15鄰","STREET":"西勢路","SECT":" ","MAREA":" ","LANE":"２６巷","ALLEY":" ","HOUSE_NO":"１１號","E_COORD97":176223.97,"N_COORD97":2546805.1200000001,"ADDRESS":"西勢路２６巷１１號","OBJECTID":332351},"geometry":{"x":176223.96999999974,"y":2546805.1200000029}},{"attributes":{"ID":332361,"DIS_CODE":0,"TOWNNAME":"新市區","LI":"社內里","LIN":"4鄰","STREET":"中山路","SECT":" ","MAREA":" ","LANE":" ","ALLEY":" ","HOUSE_NO":"５０３之１號","E_COORD97":176376.88225600001,"N_COORD97":2551294.9515900002,"ADDRESS":"中山路５０３之１號","OBJECTID":332352},"geometry":{"x":176376.8822560003,"y":2551294.9515860025}},{"attributes":{"ID":332362,"DIS_CODE":0,"TOWNNAME":"歸仁區","LI":"武東里","LIN":"7鄰","STREET":"武東一街","SECT":" ","MAREA":" ","LANE":" ","ALLEY":" ","HOUSE_NO":"１８１號","E_COORD97":176150.535848,"N_COORD97":2535379.2151500001,"ADDRESS":"武東一街１８１號","OBJECTID":332353},"geometry":{"x":176150.53584800102,"y":2535379.2151469998}},{"attributes":{"ID":332363,"DIS_CODE":0,"TOWNNAME":"歸仁區","LI":"武東里","LIN":"7鄰","STREET":"武東二街","SECT":" ","MAREA":" ","LANE":" ","ALLEY":" ","HOUSE_NO":"６１號","E_COORD97":175588.65467799999,"N_COORD97":2535332.4368400001,"ADDRESS":"武東二街６１號","OBJECTID":332354},"geometry":{"x":175588.65467800107,"y":2535332.4368389994}},{"attributes":{"ID":332364,"DIS_CODE":0,"TOWNNAME":"歸仁區","LI":"武東里","LIN":"7鄰","STREET":"武東二街","SECT":" ","MAREA":" ","LANE":" ","ALLEY":" ","HOUSE_NO":"８１號","E_COORD97":175623.79871500001,"N_COORD97":2535319.94851,"ADDRESS":"武東二街８１號","OBJECTID":332355},"geometry":{"x":175623.7987150019,"y":2535319.9485119991}},{"attributes":{"ID":332365,"DIS_CODE":0,"TOWNNAME":"歸仁區","LI":"武東里","LIN":"10鄰","STREET":"武東三街","SECT":" ","MAREA":" ","LANE":" ","ALLEY":" ","HOUSE_NO":"３２號","E_COORD97":175207.31012000001,"N_COORD97":2535240.17668,"ADDRESS":"武東三街３２號","OBJECTID":332356},"geometry":{"x":175207.31011999957,"y":2535240.1766800024}},{"attributes":{"ID":332366,"DIS_CODE":0,"TOWNNAME":"歸仁區","LI":"武東里","LIN":"10鄰","STREET":"武東三街","SECT":" ","MAREA":" ","LANE":" ","ALLEY":" ","HOUSE_NO":"５０號","E_COORD97":175149.83056599999,"N_COORD97":2535255.6151100001,"ADDRESS":"武東三街５０號","OBJECTID":332357},"geometry":{"x":175149.83056600019,"y":2535255.6151090022}},{"attributes":{"ID":332367,"DIS_CODE":0,"TOWNNAME":"仁德區","LI":"仁德里","LIN":"3鄰","STREET":"中正路","SECT":"二段","MAREA":" ","LANE":" ","ALLEY":" ","HOUSE_NO":"８０３號","E_COORD97":173424.703645,"N_COORD97":2540406.58017,"ADDRESS":"中正路二段８０３號","OBJECTID":332358},"geometry":{"x":173424.70364500117,"y":2540406.5801690016}},{"attributes":{"ID":332368,"DIS_CODE":0,"TOWNNAME":"永康區","LI":"西勢里","LIN":"15鄰","STREET":"西勢路","SECT":" ","MAREA":" ","LANE":"２巷","ALLEY":" ","HOUSE_NO":"１０１號","E_COORD97":176253.73999999999,"N_COORD97":2547195.2799999998,"ADDRESS":"西勢路２巷１０１號","OBJECTID":332359},"geometry":{"x":176253.74000000022,"y":2547195.2800000031}},{"attributes":{"ID":332369,"DIS_CODE":0,"TOWNNAME":"永康區","LI":"西勢里","LIN":"15鄰","STREET":"西勢路","SECT":" ","MAREA":" ","LANE":"２６巷","ALLEY":" ","HOUSE_NO":"３１號","E_COORD97":176192.98999999999,"N_COORD97":2546806.46,"ADDRESS":"西勢路２６巷３１號","OBJECTID":332360},"geometry":{"x":176192.99000000209,"y":2546806.4600000028}},{"attributes":{"ID":332370,"DIS_CODE":0,"TOWNNAME":"永康區","LI":"西灣里","LIN":"15鄰","STREET":"大安街","SECT":" ","MAREA":" ","LANE":"１０７巷","ALLEY":" ","HOUSE_NO":"６６號","E_COORD97":174410.20000000001,"N_COORD97":2545132.8100000001,"ADDRESS":"大安街１０７巷６６號","OBJECTID":332361},"geometry":{"x":174410.20000000112,"y":2545132.8100000024}},{"attributes":{"ID":332371,"DIS_CODE":0,"TOWNNAME":"下營區","LI":"開化里","LIN":"9鄰","STREET":" ","SECT":" ","MAREA":"中營","LANE":" ","ALLEY":" ","HOUSE_NO":"５３３號之５","E_COORD97":176536.57199,"N_COORD97":2568229.4275099998,"ADDRESS":"中營５３３號之５","OBJECTID":332362},"geometry":{"x":176536.57199000008,"y":2568229.4275100026}},{"attributes":{"ID":332372,"DIS_CODE":0,"TOWNNAME":"山上區","LI":"明和里","LIN":"4鄰","STREET":" ","SECT":" ","MAREA":"明和","LANE":" ","ALLEY":" ","HOUSE_NO":"１３７號之１","E_COORD97":183137.66721700001,"N_COORD97":2556170.6502299998,"ADDRESS":"明和１３７號之１","OBJECTID":332363},"geometry":{"x":183137.66721700225,"y":2556170.6502339989}},{"attributes":{"ID":332373,"DIS_CODE":0,"TOWNNAME":"山上區","LI":"明和里","LIN":"11鄰","STREET":" ","SECT":" ","MAREA":"明和","LANE":" ","ALLEY":" ","HOUSE_NO":"１９２號之５","E_COORD97":183369.01206499999,"N_COORD97":2556118.7919299998,"ADDRESS":"明和１９２號之５","OBJECTID":332364},"geometry":{"x":183369.0120649999,"y":2556118.7919280007}},{"attributes":{"ID":332374,"DIS_CODE":0,"TOWNNAME":"安定區","LI":"安加里","LIN":"1鄰","STREET":" ","SECT":" ","MAREA":"安定","LANE":" ","ALLEY":" ","HOUSE_NO":"１０５之２號","E_COORD97":172120.91534000001,"N_COORD97":2557672.5987900002,"ADDRESS":"安定１０５之２號","OBJECTID":332365},"geometry":{"x":172120.91534000076,"y":2557672.598793}},{"attributes":{"ID":332375,"DIS_CODE":0,"TOWNNAME":"永康區","LI":"西灣里","LIN":"15鄰","STREET":"大安街","SECT":" ","MAREA":" ","LANE":"１０７巷","ALLEY":" ","HOUSE_NO":"６８號","E_COORD97":174403.54000000001,"N_COORD97":2545136.8599999999,"ADDRESS":"大安街１０７巷６８號","OBJECTID":332366},"geometry":{"x":174403.54000000004,"y":2545136.8600000031}},{"attributes":{"ID":332376,"DIS_CODE":0,"TOWNNAME":"永康區","LI":"西灣里","LIN":"15鄰","STREET":"大安街","SECT":" ","MAREA":" ","LANE":"１０７巷","ALLEY":" ","HOUSE_NO":"４６號","E_COORD97":174448.91,"N_COORD97":2545114.3700000001,"ADDRESS":"大安街１０７巷４６號","OBJECTID":332367},"geometry":{"x":174448.91000000201,"y":2545114.3699999992}},{"attributes":{"ID":332377,"DIS_CODE":0,"TOWNNAME":"將軍區","LI":"嘉昌里","LIN":"20鄰","STREET":" ","SECT":" ","MAREA":"昌平","LANE":" ","ALLEY":" ","HOUSE_NO":"７８之２號","E_COORD97":163333.34,"N_COORD97":2567274.2999999998,"ADDRESS":"昌平７８之２號","OBJECTID":332368},"geometry":{"x":163333.33999999985,"y":2567274.3000000045}},{"attributes":{"ID":332378,"DIS_CODE":0,"TOWNNAME":"將軍區","LI":"嘉昌里","LIN":"20鄰","STREET":" ","SECT":" ","MAREA":"昌平","LANE":" ","ALLEY":" ","HOUSE_NO":"７８之３號","E_COORD97":163378.12,"N_COORD97":2567252.1800000002,"ADDRESS":"昌平７８之３號","OBJECTID":332369},"geometry":{"x":163378.12000000104,"y":2567252.1799999997}},{"attributes":{"ID":332379,"DIS_CODE":0,"TOWNNAME":"山上區","LI":"明和里","LIN":"15鄰","STREET":" ","SECT":" ","MAREA":"明和","LANE":" ","ALLEY":" ","HOUSE_NO":"２２９號之１","E_COORD97":183562.01129299999,"N_COORD97":2556012.5353199998,"ADDRESS":"明和２２９號之１","OBJECTID":332370},"geometry":{"x":183562.01129299961,"y":2556012.5353190023}},{"attributes":{"ID":332380,"DIS_CODE":0,"TOWNNAME":"歸仁區","LI":"武東里","LIN":"6鄰","STREET":"歸仁十六路","SECT":" ","MAREA":" ","LANE":" ","ALLEY":" ","HOUSE_NO":"２２１號","E_COORD97":175865.18364500001,"N_COORD97":2535737.1506099999,"ADDRESS":"歸仁十六路２２１號","OBJECTID":332371},"geometry":{"x":175865.18364500068,"y":2535737.1506080031}},{"attributes":{"ID":332381,"DIS_CODE":0,"TOWNNAME":"佳里區","LI":"建南里","LIN":"22鄰","STREET":"成功路","SECT":" ","MAREA":" ","LANE":" ","ALLEY":" ","HOUSE_NO":"９７號","E_COORD97":165475.422544,"N_COORD97":2561416.60696,"ADDRESS":"成功路９７號","OBJECTID":332372},"geometry":{"x":165475.42254400067,"y":2561416.6069570016}},{"attributes":{"ID":332382,"DIS_CODE":0,"TOWNNAME":"仁德區","LI":"仁德里","LIN":"3鄰","STREET":"仁中三街","SECT":" ","MAREA":" ","LANE":" ","ALLEY":" ","HOUSE_NO":"８３號","E_COORD97":173233.01630300001,"N_COORD97":2540411.9512100001,"ADDRESS":"仁中三街８３號","OBJECTID":332373},"geometry":{"x":173233.0163030019,"y":2540411.9512070026}},{"attributes":{"ID":332383,"DIS_CODE":0,"TOWNNAME":"仁德區","LI":"仁德里","LIN":"3鄰","STREET":"仁中三街","SECT":" ","MAREA":" ","LANE":" ","ALLEY":" ","HOUSE_NO":"８５號","E_COORD97":173228.56708000001,"N_COORD97":2540412.0570399999,"ADDRESS":"仁中三街８５號","OBJECTID":332374},"geometry":{"x":173228.56708000135,"y":2540412.0570410024}},{"attributes":{"ID":332384,"DIS_CODE":0,"TOWNNAME":"仁德區","LI":"仁德里","LIN":"3鄰","STREET":"仁中三街","SECT":" ","MAREA":" ","LANE":" ","ALLEY":" ","HOUSE_NO":"８７號","E_COORD97":173223.90599,"N_COORD97":2540411.9512100001,"ADDRESS":"仁中三街８７號","OBJECTID":332375},"geometry":{"x":173223.90599000081,"y":2540411.9512070026}},{"attributes":{"ID":332385,"DIS_CODE":0,"TOWNNAME":"歸仁區","LI":"武東里","LIN":"6鄰","STREET":"歸仁十六路","SECT":" ","MAREA":" ","LANE":" ","ALLEY":" ","HOUSE_NO":"２１１號","E_COORD97":175897.01682700001,"N_COORD97":2535724.65576,"ADDRESS":"歸仁十六路２１１號","OBJECTID":332376},"geometry":{"x":175897.01682700124,"y":2535724.6557640005}},{"attributes":{"ID":332386,"DIS_CODE":0,"TOWNNAME":"將軍區","LI":"三吉里","LIN":"9鄰","STREET":"三吉","SECT":" ","MAREA":" ","LANE":" ","ALLEY":" ","HOUSE_NO":"６７號","E_COORD97":162408.97933900001,"N_COORD97":2567351.9001199999,"ADDRESS":"三吉６７號","OBJECTID":332377},"geometry":{"x":162408.97933900077,"y":2567351.9001160022}},{"attributes":{"ID":332387,"DIS_CODE":0,"TOWNNAME":"將軍區","LI":"三吉里","LIN":"9鄰","STREET":"三吉","SECT":" ","MAREA":" ","LANE":" ","ALLEY":" ","HOUSE_NO":"６９號","E_COORD97":162431.86528500001,"N_COORD97":2567299.4068100001,"ADDRESS":"三吉６９號","OBJECTID":332378},"geometry":{"x":162431.86528500076,"y":2567299.4068109989}},{"attributes":{"ID":332388,"DIS_CODE":0,"TOWNNAME":"將軍區","LI":"三吉里","LIN":"9鄰","STREET":"三吉","SECT":" ","MAREA":" ","LANE":" ","ALLEY":" ","HOUSE_NO":"７０號","E_COORD97":162400.079249,"N_COORD97":2567295.8084800001,"ADDRESS":"三吉７０號","OBJECTID":332379},"geometry":{"x":162400.07924899925,"y":2567295.808480002}},{"attributes":{"ID":332389,"DIS_CODE":0,"TOWNNAME":"仁德區","LI":"仁德里","LIN":"3鄰","STREET":"仁中三街","SECT":" ","MAREA":" ","LANE":" ","ALLEY":" ","HOUSE_NO":"８９號","E_COORD97":173218.50336199999,"N_COORD97":2540412.3216200001,"ADDRESS":"仁中三街８９號","OBJECTID":332380},"geometry":{"x":173218.50336200092,"y":2540412.3216240015}},{"attributes":{"ID":332390,"DIS_CODE":0,"TOWNNAME":"仁德區","LI":"仁德里","LIN":"3鄰","STREET":"仁中三街","SECT":" ","MAREA":" ","LANE":" ","ALLEY":" ","HOUSE_NO":"９１號","E_COORD97":173213.84227200001,"N_COORD97":2540412.1628700001,"ADDRESS":"仁中三街９１號","OBJECTID":332381},"geometry":{"x":173213.84227200039,"y":2540412.1628740039}},{"attributes":{"ID":332391,"DIS_CODE":0,"TOWNNAME":"仁德區","LI":"仁德里","LIN":"3鄰","STREET":"仁中三街","SECT":" ","MAREA":" ","LANE":" ","ALLEY":" ","HOUSE_NO":"９３號","E_COORD97":173208.998337,"N_COORD97":2540412.1811000002,"ADDRESS":"仁中三街９３號","OBJECTID":332382},"geometry":{"x":173208.99833699968,"y":2540412.1810989995}},{"attributes":{"ID":332392,"DIS_CODE":0,"TOWNNAME":"仁德區","LI":"仁德里","LIN":"3鄰","STREET":"仁中三街","SECT":" ","MAREA":" ","LANE":" ","ALLEY":" ","HOUSE_NO":"９５號","E_COORD97":173204.76098200001,"N_COORD97":2540411.8635999998,"ADDRESS":"仁中三街９５號","OBJECTID":332383},"geometry":{"x":173204.76098200027,"y":2540411.8635990024}},{"attributes":{"ID":332393,"DIS_CODE":0,"TOWNNAME":"仁德區","LI":"仁德里","LIN":"3鄰","STREET":"仁中三街","SECT":" ","MAREA":" ","LANE":" ","ALLEY":" ","HOUSE_NO":"９９號","E_COORD97":173195.650669,"N_COORD97":2540412.0752699999,"ADDRESS":"仁中三街９９號","OBJECTID":332384},"geometry":{"x":173195.65066900197,"y":2540412.0752659999}},{"attributes":{"ID":332394,"DIS_CODE":0,"TOWNNAME":"安南區","LI":"佃東里","LIN":"20鄰","STREET":"十二佃路","SECT":" ","MAREA":" ","LANE":"１０巷","ALLEY":" ","HOUSE_NO":"１５號","E_COORD97":165757.78,"N_COORD97":2552092.98,"ADDRESS":"十二佃路１０巷１５號","OBJECTID":332385},"geometry":{"x":165757.78000000119,"y":2552092.9800000004}},{"attributes":{"ID":332395,"DIS_CODE":0,"TOWNNAME":"新化區","LI":"太平里","LIN":"17鄰","STREET":"忠孝路","SECT":" ","MAREA":" ","LANE":" ","ALLEY":" ","HOUSE_NO":"１１８號之１","E_COORD97":178713.25,"N_COORD97":2548661.2599999998,"ADDRESS":"忠孝路１１８號之１","OBJECTID":332386},"geometry":{"x":178713.25000000186,"y":2548661.2600000016}},{"attributes":{"ID":332396,"DIS_CODE":0,"TOWNNAME":"新化區","LI":"太平里","LIN":"17鄰","STREET":"忠孝路","SECT":" ","MAREA":" ","LANE":" ","ALLEY":" ","HOUSE_NO":"１２０號","E_COORD97":178705.92000000001,"N_COORD97":2548660.25,"ADDRESS":"忠孝路１２０號","OBJECTID":332387},"geometry":{"x":178705.92000000086,"y":2548660.25}},{"attributes":{"ID":332397,"DIS_CODE":0,"TOWNNAME":"新化區","LI":"太平里","LIN":"17鄰","STREET":"忠孝路","SECT":" ","MAREA":" ","LANE":" ","ALLEY":" ","HOUSE_NO":"１３６號之１","E_COORD97":178628.75,"N_COORD97":2548693.2599999998,"ADDRESS":"忠孝路１３６號之１","OBJECTID":332388},"geometry":{"x":178628.75000000093,"y":2548693.2599999998}},{"attributes":{"ID":332398,"DIS_CODE":0,"TOWNNAME":"新化區","LI":"太平里","LIN":"17鄰","STREET":"忠孝路","SECT":" ","MAREA":" ","LANE":" ","ALLEY":" ","HOUSE_NO":"１２６號","E_COORD97":178684.62,"N_COORD97":2548655.25,"ADDRESS":"忠孝路１２６號","OBJECTID":332389},"geometry":{"x":178684.62000000104,"y":2548655.2500000019}},{"attributes":{"ID":332399,"DIS_CODE":0,"TOWNNAME":"安南區","LI":"淵中里","LIN":"17鄰","STREET":"安中路","SECT":"三段","MAREA":" ","LANE":" ","ALLEY":" ","HOUSE_NO":"２５７號","E_COORD97":165757.54000000001,"N_COORD97":2549867.3900000001,"ADDRESS":"安中路三段２５７號","OBJECTID":332390},"geometry":{"x":165757.54000000097,"y":2549867.3900000043}},{"attributes":{"ID":332400,"DIS_CODE":0,"TOWNNAME":"安南區","LI":"淵中里","LIN":"17鄰","STREET":"安中路","SECT":"三段","MAREA":" ","LANE":" ","ALLEY":" ","HOUSE_NO":"２５９號","E_COORD97":165752.98999999999,"N_COORD97":2549868.25,"ADDRESS":"安中路三段２５９號","OBJECTID":332391},"geometry":{"x":165752.99000000115,"y":2549868.2500000019}},{"attributes":{"ID":332401,"DIS_CODE":0,"TOWNNAME":"安南區","LI":"佃東里","LIN":"20鄰","STREET":"十二佃路","SECT":" ","MAREA":" ","LANE":"１０巷","ALLEY":" ","HOUSE_NO":"１９號","E_COORD97":165771.25,"N_COORD97":2552090.0099999998,"ADDRESS":"十二佃路１０巷１９號","OBJECTID":332392},"geometry":{"x":165771.25000000093,"y":2552090.0100000016}},{"attributes":{"ID":332402,"DIS_CODE":0,"TOWNNAME":"安南區","LI":"佃東里","LIN":"20鄰","STREET":"十二佃路","SECT":" ","MAREA":" ","LANE":"１０巷","ALLEY":" ","HOUSE_NO":"２０號","E_COORD97":165778.51999999999,"N_COORD97":2552075.6299999999,"ADDRESS":"十二佃路１０巷２０號","OBJECTID":332393},"geometry":{"x":165778.52000000142,"y":2552075.6300000008}},{"attributes":{"ID":332403,"DIS_CODE":0,"TOWNNAME":"安南區","LI":"佃東里","LIN":"20鄰","STREET":"十二佃路","SECT":" ","MAREA":" ","LANE":"１０巷","ALLEY":" ","HOUSE_NO":"２１號","E_COORD97":165775.60000000001,"N_COORD97":2552089.48,"ADDRESS":"十二佃路１０巷２１號","OBJECTID":332394},"geometry":{"x":165775.59999999963,"y":2552089.4800000004}},{"attributes":{"ID":332404,"DIS_CODE":0,"TOWNNAME":"安南區","LI":"佃東里","LIN":"20鄰","STREET":"十二佃路","SECT":" ","MAREA":" ","LANE":"１０巷","ALLEY":" ","HOUSE_NO":"１５之１號","E_COORD97":165765.10000000001,"N_COORD97":2552091.2799999998,"ADDRESS":"十二佃路１０巷１５之１號","OBJECTID":332395},"geometry":{"x":165765.10000000056,"y":2552091.2800000012}},{"attributes":{"ID":332405,"DIS_CODE":0,"TOWNNAME":"安南區","LI":"新順里","LIN":"20鄰","STREET":"慶安路","SECT":" ","MAREA":" ","LANE":"１１５巷","ALLEY":" ","HOUSE_NO":"４２號","E_COORD97":169352.92999999999,"N_COORD97":2549271.6400000001,"ADDRESS":"慶安路１１５巷４２號","OBJECTID":332396},"geometry":{"x":169352.93000000063,"y":2549271.6400000006}},{"attributes":{"ID":332406,"DIS_CODE":0,"TOWNNAME":"永康區","LI":"西灣里","LIN":"15鄰","STREET":"大安街","SECT":" ","MAREA":" ","LANE":"１０７巷","ALLEY":" ","HOUSE_NO":"５８號","E_COORD97":174426.51999999999,"N_COORD97":2545126.4100000001,"ADDRESS":"大安街１０７巷５８號","OBJECTID":332397},"geometry":{"x":174426.51999999955,"y":2545126.4100000001}},{"attributes":{"ID":332407,"DIS_CODE":0,"TOWNNAME":"永康區","LI":"西勢里","LIN":"15鄰","STREET":"西勢路","SECT":" ","MAREA":" ","LANE":"２６巷","ALLEY":" ","HOUSE_NO":"５號","E_COORD97":176223.17000000001,"N_COORD97":2546794.02,"ADDRESS":"西勢路２６巷５號","OBJECTID":332398},"geometry":{"x":176223.16999999993,"y":2546794.0200000014}},{"attributes":{"ID":332408,"DIS_CODE":0,"TOWNNAME":"東區","LI":"忠孝里","LIN":"15鄰","STREET":"榮譽街","SECT":" ","MAREA":" ","LANE":"１０７巷","ALLEY":" ","HOUSE_NO":"５號","E_COORD97":169767.28,"N_COORD97":2541749.48,"ADDRESS":"榮譽街１０７巷５號","OBJECTID":332399},"geometry":{"x":169767.28000000026,"y":2541749.4800000004}},{"attributes":{"ID":332409,"DIS_CODE":0,"TOWNNAME":"將軍區","LI":"嘉昌里","LIN":"20鄰","STREET":" ","SECT":" ","MAREA":"昌平","LANE":" ","ALLEY":" ","HOUSE_NO":"７８號","E_COORD97":163361.56,"N_COORD97":2567253.4100000001,"ADDRESS":"昌平７８號","OBJECTID":332400},"geometry":{"x":163361.56000000052,"y":2567253.410000002}}]}