{"displayFieldName":"TOWNNAME","fieldAliases":{"ID":"ID","DIS_CODE":"DIS_CODE","TOWNNAME":"TOWNNAME","LI":"LI","LIN":"LIN","STREET":"STREET","SECT":"SECT","MAREA":"MAREA","LANE":"LANE","ALLEY":"ALLEY","HOUSE_NO":"HOUSE_NO","E_COORD97":"E_COORD97","N_COORD97":"N_COORD97","ADDRESS":"ADDRESS","OBJECTID":"OBJECTID"},"geometryType":"esriGeometryPoint","spatialReference":{"wkid":102443,"latestWkid":3826},"fields":[{"name":"ID","type":"esriFieldTypeDouble","alias":"ID"},{"name":"DIS_CODE","type":"esriFieldTypeInteger","alias":"DIS_CODE"},{"name":"TOWNNAME","type":"esriFieldTypeString","alias":"TOWNNAME","length":8},{"name":"LI","type":"esriFieldTypeString","alias":"LI","length":8},{"name":"LIN","type":"esriFieldTypeString","alias":"LIN","length":12},{"name":"STREET","type":"esriFieldTypeString","alias":"STREET","length":20},{"name":"SECT","type":"esriFieldTypeString","alias":"SECT","length":8},{"name":"MAREA","type":"esriFieldTypeString","alias":"MAREA","length":12},{"name":"LANE","type":"esriFieldTypeString","alias":"LANE","length":10},{"name":"ALLEY","type":"esriFieldTypeString","alias":"ALLEY","length":10},{"name":"HOUSE_NO","type":"esriFieldTypeString","alias":"HOUSE_NO","length":20},{"name":"E_COORD97","type":"esriFieldTypeDouble","alias":"E_COORD97"},{"name":"N_COORD97","type":"esriFieldTypeDouble","alias":"N_COORD97"},{"name":"ADDRESS","type":"esriFieldTypeString","alias":"ADDRESS","length":50},{"name":"OBJECTID","type":"esriFieldTypeOID","alias":"OBJECTID"}],"features":[{"attributes":{"ID":622428,"DIS_CODE":0,"TOWNNAME":"仁德區","LI":"太子里","LIN":"32鄰","STREET":"太子路","SECT":" ","MAREA":" ","LANE":" ","ALLEY":" ","HOUSE_NO":"４９９號","E_COORD97":174015.87,"N_COORD97":2543498.25,"ADDRESS":"太子路４９９號","OBJECTID":622401},"geometry":{"x":174015.87000000104,"y":2543498.2500000019}},{"attributes":{"ID":622429,"DIS_CODE":0,"TOWNNAME":"仁德區","LI":"太子里","LIN":"41鄰","STREET":"太子路","SECT":" ","MAREA":" ","LANE":" ","ALLEY":" ","HOUSE_NO":"５６號","E_COORD97":175243.03,"N_COORD97":2543565.5,"ADDRESS":"太子路５６號","OBJECTID":622402},"geometry":{"x":175243.03000000026,"y":2543565.5}},{"attributes":{"ID":622430,"DIS_CODE":0,"TOWNNAME":"永康區","LI":"復國里","LIN":"13鄰","STREET":"復華三街","SECT":" ","MAREA":" ","LANE":" ","ALLEY":" ","HOUSE_NO":"６號","E_COORD97":172934.09,"N_COORD97":2545541.77,"ADDRESS":"復華三街６號","OBJECTID":622403},"geometry":{"x":172934.09000000078,"y":2545541.7700000014}},{"attributes":{"ID":622431,"DIS_CODE":0,"TOWNNAME":"仁德區","LI":"太子里","LIN":"26鄰","STREET":"太子路","SECT":" ","MAREA":" ","LANE":" ","ALLEY":" ","HOUSE_NO":"４０４號","E_COORD97":173613.14000000001,"N_COORD97":2543547.0099999998,"ADDRESS":"太子路４０４號","OBJECTID":622404},"geometry":{"x":173613.1400000006,"y":2543547.0100000016}},{"attributes":{"ID":622432,"DIS_CODE":0,"TOWNNAME":"仁德區","LI":"太子里","LIN":"32鄰","STREET":"太子路","SECT":" ","MAREA":" ","LANE":" ","ALLEY":" ","HOUSE_NO":"４９３號","E_COORD97":174044.79000000001,"N_COORD97":2543497,"ADDRESS":"太子路４９３號","OBJECTID":622405},"geometry":{"x":174044.79000000097,"y":2543497.0000000019}},{"attributes":{"ID":622433,"DIS_CODE":0,"TOWNNAME":"仁德區","LI":"太子里","LIN":"42鄰","STREET":"太子路","SECT":" ","MAREA":" ","LANE":" ","ALLEY":" ","HOUSE_NO":"２４號","E_COORD97":175335.04999999999,"N_COORD97":2543572.5,"ADDRESS":"太子路２４號","OBJECTID":622406},"geometry":{"x":175335.05000000075,"y":2543572.5}},{"attributes":{"ID":622434,"DIS_CODE":0,"TOWNNAME":"仁德區","LI":"仁德里","LIN":"4鄰","STREET":"中正路","SECT":"二段","MAREA":" ","LANE":" ","ALLEY":" ","HOUSE_NO":"８７５號","E_COORD97":173427.88,"N_COORD97":2540590.02,"ADDRESS":"中正路二段８７５號","OBJECTID":622407},"geometry":{"x":173427.87999999989,"y":2540590.0200000014}},{"attributes":{"ID":622435,"DIS_CODE":0,"TOWNNAME":"仁德區","LI":"成功里","LIN":"20鄰","STREET":"成功一街","SECT":" ","MAREA":" ","LANE":" ","ALLEY":" ","HOUSE_NO":"１５３號","E_COORD97":170571.82000000001,"N_COORD97":2539856.5099999998,"ADDRESS":"成功一街１５３號","OBJECTID":622408},"geometry":{"x":170571.82000000123,"y":2539856.5099999998}},{"attributes":{"ID":622436,"DIS_CODE":0,"TOWNNAME":"仁德區","LI":"太子里","LIN":"25鄰","STREET":"長興五街","SECT":" ","MAREA":" ","LANE":" ","ALLEY":" ","HOUSE_NO":"２３號","E_COORD97":173555.69,"N_COORD97":2543604,"ADDRESS":"長興五街２３號","OBJECTID":622409},"geometry":{"x":173555.69000000227,"y":2543604.0000000037}},{"attributes":{"ID":622437,"DIS_CODE":0,"TOWNNAME":"仁德區","LI":"太子里","LIN":"18鄰","STREET":"太子路","SECT":" ","MAREA":" ","LANE":" ","ALLEY":" ","HOUSE_NO":"３００號","E_COORD97":174001.57999999999,"N_COORD97":2543523.0099999998,"ADDRESS":"太子路３００號","OBJECTID":622410},"geometry":{"x":174001.58000000007,"y":2543523.0100000016}},{"attributes":{"ID":622438,"DIS_CODE":0,"TOWNNAME":"仁德區","LI":"太子里","LIN":"38鄰","STREET":"長興一街","SECT":" ","MAREA":" ","LANE":" ","ALLEY":" ","HOUSE_NO":"４９號","E_COORD97":174523.92999999999,"N_COORD97":2543775.5,"ADDRESS":"長興一街４９號","OBJECTID":622411},"geometry":{"x":174523.9299999997,"y":2543775.5}},{"attributes":{"ID":622439,"DIS_CODE":0,"TOWNNAME":"仁德區","LI":"保安里","LIN":"18鄰","STREET":"中正路","SECT":"一段","MAREA":" ","LANE":" ","ALLEY":" ","HOUSE_NO":"３１號","E_COORD97":170770.45999999999,"N_COORD97":2535562.0299999998,"ADDRESS":"中正路一段３１號","OBJECTID":622412},"geometry":{"x":170770.46000000089,"y":2535562.0300000012}},{"attributes":{"ID":622440,"DIS_CODE":0,"TOWNNAME":"仁德區","LI":"太子里","LIN":"32鄰","STREET":"太子路","SECT":" ","MAREA":" ","LANE":" ","ALLEY":" ","HOUSE_NO":"５１１號","E_COORD97":173983.87,"N_COORD97":2543500.5,"ADDRESS":"太子路５１１號","OBJECTID":622413},"geometry":{"x":173983.87000000104,"y":2543500.5}},{"attributes":{"ID":622441,"DIS_CODE":0,"TOWNNAME":"仁德區","LI":"成功里","LIN":"41鄰","STREET":"虎山一街","SECT":" ","MAREA":" ","LANE":" ","ALLEY":" ","HOUSE_NO":"１５號","E_COORD97":171005.04000000001,"N_COORD97":2538103.7599999998,"ADDRESS":"虎山一街１５號","OBJECTID":622414},"geometry":{"x":171005.0400000019,"y":2538103.7600000016}},{"attributes":{"ID":622442,"DIS_CODE":0,"TOWNNAME":"仁德區","LI":"仁德里","LIN":"4鄰","STREET":"仁中三街","SECT":" ","MAREA":" ","LANE":" ","ALLEY":" ","HOUSE_NO":"６２號","E_COORD97":173305.72,"N_COORD97":2540430,"ADDRESS":"仁中三街６２號","OBJECTID":622415},"geometry":{"x":173305.72000000067,"y":2540430}},{"attributes":{"ID":622443,"DIS_CODE":0,"TOWNNAME":"仁德區","LI":"田厝里","LIN":"4鄰","STREET":"保安路","SECT":"二段","MAREA":" ","LANE":" ","ALLEY":" ","HOUSE_NO":"５０６號","E_COORD97":172499.10000000001,"N_COORD97":2537538.3199999998,"ADDRESS":"保安路二段５０６號","OBJECTID":622416},"geometry":{"x":172499.09999999963,"y":2537538.3200000003}},{"attributes":{"ID":622444,"DIS_CODE":0,"TOWNNAME":"仁德區","LI":"仁德里","LIN":"5鄰","STREET":"中正路","SECT":"二段","MAREA":" ","LANE":" ","ALLEY":" ","HOUSE_NO":"１０３９號","E_COORD97":173402.81,"N_COORD97":2540756.7200000002,"ADDRESS":"中正路二段１０３９號","OBJECTID":622417},"geometry":{"x":173402.80999999959,"y":2540756.7200000025}},{"attributes":{"ID":622445,"DIS_CODE":0,"TOWNNAME":"仁德區","LI":"後壁里","LIN":"20鄰","STREET":"中正路","SECT":"二段","MAREA":" ","LANE":" ","ALLEY":" ","HOUSE_NO":"１６０號","E_COORD97":173221.45999999999,"N_COORD97":2538619.27,"ADDRESS":"中正路二段１６０號","OBJECTID":622418},"geometry":{"x":173221.46000000089,"y":2538619.2700000014}},{"attributes":{"ID":622446,"DIS_CODE":0,"TOWNNAME":"仁德區","LI":"保安里","LIN":"13鄰","STREET":"二仁路","SECT":"一段","MAREA":" ","LANE":" ","ALLEY":" ","HOUSE_NO":"１５８號","E_COORD97":170360.13,"N_COORD97":2536144.02,"ADDRESS":"二仁路一段１５８號","OBJECTID":622419},"geometry":{"x":170360.13000000175,"y":2536144.0199999996}},{"attributes":{"ID":622447,"DIS_CODE":0,"TOWNNAME":"仁德區","LI":"仁德里","LIN":"14鄰","STREET":"中正路","SECT":"三段","MAREA":" ","LANE":" ","ALLEY":" ","HOUSE_NO":"３３號","E_COORD97":173305.56,"N_COORD97":2541501.27,"ADDRESS":"中正路三段３３號","OBJECTID":622420},"geometry":{"x":173305.56000000052,"y":2541501.2699999996}},{"attributes":{"ID":622448,"DIS_CODE":0,"TOWNNAME":"仁德區","LI":"田厝里","LIN":"4鄰","STREET":"保安路","SECT":"二段","MAREA":" ","LANE":" ","ALLEY":" ","HOUSE_NO":"４９２號","E_COORD97":172471.51000000001,"N_COORD97":2537526.3199999998,"ADDRESS":"保安路二段４９２號","OBJECTID":622421},"geometry":{"x":172471.51000000071,"y":2537526.320000004}},{"attributes":{"ID":622449,"DIS_CODE":0,"TOWNNAME":"仁德區","LI":"太子里","LIN":"18鄰","STREET":"太子路","SECT":" ","MAREA":" ","LANE":" ","ALLEY":" ","HOUSE_NO":"２９８號","E_COORD97":174005.17999999999,"N_COORD97":2543523.0099999998,"ADDRESS":"太子路２９８號","OBJECTID":622422},"geometry":{"x":174005.1799999997,"y":2543523.0100000016}},{"attributes":{"ID":622450,"DIS_CODE":0,"TOWNNAME":"仁德區","LI":"保安里","LIN":"20鄰","STREET":"保安路","SECT":"一段","MAREA":" ","LANE":" ","ALLEY":" ","HOUSE_NO":"３９號","E_COORD97":170643.03,"N_COORD97":2536379.3199999998,"ADDRESS":"保安路一段３９號","OBJECTID":622423},"geometry":{"x":170643.03000000119,"y":2536379.3200000003}},{"attributes":{"ID":622451,"DIS_CODE":0,"TOWNNAME":"仁德區","LI":"新田里","LIN":"4鄰","STREET":"勝利一街","SECT":" ","MAREA":" ","LANE":" ","ALLEY":" ","HOUSE_NO":"６號","E_COORD97":173897.23000000001,"N_COORD97":2539651.75,"ADDRESS":"勝利一街６號","OBJECTID":622424},"geometry":{"x":173897.23000000045,"y":2539651.75}},{"attributes":{"ID":622452,"DIS_CODE":0,"TOWNNAME":"仁德區","LI":"仁德里","LIN":"5鄰","STREET":"中正路","SECT":"二段","MAREA":" ","LANE":" ","ALLEY":" ","HOUSE_NO":"１０３３號","E_COORD97":173405.59,"N_COORD97":2540743.2200000002,"ADDRESS":"中正路二段１０３３號","OBJECTID":622425},"geometry":{"x":173405.59000000078,"y":2540743.2200000025}},{"attributes":{"ID":622453,"DIS_CODE":0,"TOWNNAME":"仁德區","LI":"太子里","LIN":"18鄰","STREET":"太子路","SECT":" ","MAREA":" ","LANE":" ","ALLEY":" ","HOUSE_NO":"３１０號","E_COORD97":173982.04000000001,"N_COORD97":2543523.7599999998,"ADDRESS":"太子路３１０號","OBJECTID":622426},"geometry":{"x":173982.04000000097,"y":2543523.7600000035}},{"attributes":{"ID":622454,"DIS_CODE":0,"TOWNNAME":"仁德區","LI":"太子里","LIN":"18鄰","STREET":"太子路","SECT":" ","MAREA":" ","LANE":" ","ALLEY":" ","HOUSE_NO":"２９０號","E_COORD97":174027.85999999999,"N_COORD97":2543522.7599999998,"ADDRESS":"太子路２９０號","OBJECTID":622427},"geometry":{"x":174027.86000000127,"y":2543522.7599999998}},{"attributes":{"ID":622455,"DIS_CODE":0,"TOWNNAME":"仁德區","LI":"太子里","LIN":"25鄰","STREET":"長興五街","SECT":" ","MAREA":" ","LANE":" ","ALLEY":" ","HOUSE_NO":"２９號","E_COORD97":173556.54000000001,"N_COORD97":2543628.7599999998,"ADDRESS":"長興五街２９號","OBJECTID":622428},"geometry":{"x":173556.54000000097,"y":2543628.7599999979}},{"attributes":{"ID":622456,"DIS_CODE":0,"TOWNNAME":"仁德區","LI":"仁德里","LIN":"4鄰","STREET":"中正路","SECT":"二段","MAREA":" ","LANE":" ","ALLEY":" ","HOUSE_NO":"９０５之１號","E_COORD97":173404.42999999999,"N_COORD97":2540657.04,"ADDRESS":"中正路二段９０５之１號","OBJECTID":622429},"geometry":{"x":173404.43000000063,"y":2540657.040000001}},{"attributes":{"ID":622457,"DIS_CODE":0,"TOWNNAME":"仁德區","LI":"後壁里","LIN":"5鄰","STREET":"德善路","SECT":" ","MAREA":" ","LANE":" ","ALLEY":" ","HOUSE_NO":"１２３號","E_COORD97":173441.60000000001,"N_COORD97":2538881.27,"ADDRESS":"德善路１２３號","OBJECTID":622430},"geometry":{"x":173441.59999999963,"y":2538881.2699999996}},{"attributes":{"ID":622458,"DIS_CODE":0,"TOWNNAME":"仁德區","LI":"太子里","LIN":"38鄰","STREET":"長興一街","SECT":" ","MAREA":" ","LANE":" ","ALLEY":" ","HOUSE_NO":"８５號","E_COORD97":174333.20000000001,"N_COORD97":2543812.25,"ADDRESS":"長興一街８５號","OBJECTID":622431},"geometry":{"x":174333.20000000019,"y":2543812.2500000037}},{"attributes":{"ID":622459,"DIS_CODE":0,"TOWNNAME":"仁德區","LI":"太子里","LIN":"18鄰","STREET":"太子路","SECT":" ","MAREA":" ","LANE":" ","ALLEY":" ","HOUSE_NO":"３０２號","E_COORD97":173998.14000000001,"N_COORD97":2543523.2599999998,"ADDRESS":"太子路３０２號","OBJECTID":622432},"geometry":{"x":173998.1400000006,"y":2543523.2599999998}},{"attributes":{"ID":622460,"DIS_CODE":0,"TOWNNAME":"仁德區","LI":"太子里","LIN":"18鄰","STREET":"太子路","SECT":" ","MAREA":" ","LANE":" ","ALLEY":" ","HOUSE_NO":"２８８號","E_COORD97":174039.82000000001,"N_COORD97":2543522.5099999998,"ADDRESS":"太子路２８８號","OBJECTID":622433},"geometry":{"x":174039.82000000123,"y":2543522.5100000016}},{"attributes":{"ID":622461,"DIS_CODE":0,"TOWNNAME":"仁德區","LI":"太子里","LIN":"26鄰","STREET":"長興五街","SECT":" ","MAREA":" ","LANE":" ","ALLEY":" ","HOUSE_NO":"６號","E_COORD97":173576.23999999999,"N_COORD97":2543575.75,"ADDRESS":"長興五街６號","OBJECTID":622434},"geometry":{"x":173576.24000000115,"y":2543575.7500000019}},{"attributes":{"ID":622462,"DIS_CODE":0,"TOWNNAME":"仁德區","LI":"太子里","LIN":"26鄰","STREET":"太子路","SECT":" ","MAREA":" ","LANE":" ","ALLEY":" ","HOUSE_NO":"３８６號","E_COORD97":173653.98000000001,"N_COORD97":2543544.5099999998,"ADDRESS":"太子路３８６號","OBJECTID":622435},"geometry":{"x":173653.98000000138,"y":2543544.5099999998}},{"attributes":{"ID":622463,"DIS_CODE":0,"TOWNNAME":"仁德區","LI":"仁德里","LIN":"4鄰","STREET":"中正路","SECT":"二段","MAREA":" ","LANE":" ","ALLEY":" ","HOUSE_NO":"９０７號","E_COORD97":173419.70999999999,"N_COORD97":2540659.52,"ADDRESS":"中正路二段９０７號","OBJECTID":622436},"geometry":{"x":173419.71000000089,"y":2540659.5199999996}},{"attributes":{"ID":622464,"DIS_CODE":0,"TOWNNAME":"仁德區","LI":"保安里","LIN":"18鄰","STREET":"中正路","SECT":"一段","MAREA":" ","LANE":" ","ALLEY":" ","HOUSE_NO":"５１號","E_COORD97":170814.95999999999,"N_COORD97":2535542.5299999998,"ADDRESS":"中正路一段５１號","OBJECTID":622437},"geometry":{"x":170814.95999999996,"y":2535542.5299999993}},{"attributes":{"ID":622465,"DIS_CODE":0,"TOWNNAME":"仁德區","LI":"成功里","LIN":"43鄰","STREET":"虎山一街","SECT":" ","MAREA":" ","LANE":" ","ALLEY":" ","HOUSE_NO":"５號","E_COORD97":170997.89999999999,"N_COORD97":2538008.0099999998,"ADDRESS":"虎山一街５號","OBJECTID":622438},"geometry":{"x":170997.90000000224,"y":2538008.0099999998}},{"attributes":{"ID":622466,"DIS_CODE":0,"TOWNNAME":"仁德區","LI":"太子里","LIN":"41鄰","STREET":"太子路","SECT":" ","MAREA":" ","LANE":" ","ALLEY":" ","HOUSE_NO":"５２號","E_COORD97":175251.04000000001,"N_COORD97":2543565.75,"ADDRESS":"太子路５２號","OBJECTID":622439},"geometry":{"x":175251.04000000004,"y":2543565.7500000019}},{"attributes":{"ID":622467,"DIS_CODE":0,"TOWNNAME":"仁德區","LI":"保安里","LIN":"13鄰","STREET":"二仁路","SECT":"一段","MAREA":" ","LANE":" ","ALLEY":" ","HOUSE_NO":"１４２號","E_COORD97":170407.73999999999,"N_COORD97":2535992.0299999998,"ADDRESS":"二仁路一段１４２號","OBJECTID":622440},"geometry":{"x":170407.74000000115,"y":2535992.0300000012}},{"attributes":{"ID":622468,"DIS_CODE":0,"TOWNNAME":"仁德區","LI":"田厝里","LIN":"4鄰","STREET":"保安路","SECT":"二段","MAREA":" ","LANE":" ","ALLEY":" ","HOUSE_NO":"４９８號","E_COORD97":172483.37,"N_COORD97":2537531.5699999998,"ADDRESS":"保安路二段４９８號","OBJECTID":622441},"geometry":{"x":172483.37000000104,"y":2537531.570000004}},{"attributes":{"ID":622469,"DIS_CODE":0,"TOWNNAME":"仁德區","LI":"保安里","LIN":"5鄰","STREET":"中正路","SECT":"一段","MAREA":" ","LANE":" ","ALLEY":" ","HOUSE_NO":"１９０號","E_COORD97":171569.13,"N_COORD97":2535755.5299999998,"ADDRESS":"中正路一段１９０號","OBJECTID":622442},"geometry":{"x":171569.13000000082,"y":2535755.5300000012}},{"attributes":{"ID":622470,"DIS_CODE":0,"TOWNNAME":"仁德區","LI":"後壁里","LIN":"20鄰","STREET":"中正路","SECT":"二段","MAREA":" ","LANE":" ","ALLEY":" ","HOUSE_NO":"４６號","E_COORD97":173124.14000000001,"N_COORD97":2538323.02,"ADDRESS":"中正路二段４６號","OBJECTID":622443},"geometry":{"x":173124.13999999966,"y":2538323.0199999996}},{"attributes":{"ID":622471,"DIS_CODE":0,"TOWNNAME":"仁德區","LI":"後壁里","LIN":"20鄰","STREET":"中正路","SECT":"二段","MAREA":" ","LANE":" ","ALLEY":" ","HOUSE_NO":"１２０號","E_COORD97":173192.13,"N_COORD97":2538523.02,"ADDRESS":"中正路二段１２０號","OBJECTID":622444},"geometry":{"x":173192.12999999989,"y":2538523.0199999996}},{"attributes":{"ID":622472,"DIS_CODE":0,"TOWNNAME":"仁德區","LI":"太子里","LIN":"42鄰","STREET":"太子路","SECT":" ","MAREA":" ","LANE":" ","ALLEY":" ","HOUSE_NO":"２６號","E_COORD97":175330.60999999999,"N_COORD97":2543573.5,"ADDRESS":"太子路２６號","OBJECTID":622445},"geometry":{"x":175330.61000000034,"y":2543573.5000000037}},{"attributes":{"ID":622473,"DIS_CODE":0,"TOWNNAME":"仁德區","LI":"太子里","LIN":"42鄰","STREET":"太子路","SECT":" ","MAREA":" ","LANE":" ","ALLEY":" ","HOUSE_NO":"２號","E_COORD97":175494.88,"N_COORD97":2543582.25,"ADDRESS":"太子路２號","OBJECTID":622446},"geometry":{"x":175494.88000000175,"y":2543582.2500000019}},{"attributes":{"ID":622474,"DIS_CODE":0,"TOWNNAME":"仁德區","LI":"太子里","LIN":"38鄰","STREET":"長興一街","SECT":" ","MAREA":" ","LANE":" ","ALLEY":" ","HOUSE_NO":"６７號","E_COORD97":174454.67999999999,"N_COORD97":2543826.0099999998,"ADDRESS":"長興一街６７號","OBJECTID":622447},"geometry":{"x":174454.6799999997,"y":2543826.0099999998}},{"attributes":{"ID":622475,"DIS_CODE":0,"TOWNNAME":"仁德區","LI":"太子里","LIN":"32鄰","STREET":"太子路","SECT":" ","MAREA":" ","LANE":" ","ALLEY":" ","HOUSE_NO":"５１７號","E_COORD97":173970.67000000001,"N_COORD97":2543501.25,"ADDRESS":"太子路５１７號","OBJECTID":622448},"geometry":{"x":173970.67000000179,"y":2543501.2500000019}},{"attributes":{"ID":622476,"DIS_CODE":0,"TOWNNAME":"仁德區","LI":"太子里","LIN":"25鄰","STREET":"長興五街","SECT":" ","MAREA":" ","LANE":" ","ALLEY":" ","HOUSE_NO":"２０號","E_COORD97":173578.29999999999,"N_COORD97":2543615.2599999998,"ADDRESS":"長興五街１８號","OBJECTID":622449},"geometry":{"x":173578.30000000075,"y":2543615.2599999979}},{"attributes":{"ID":622477,"DIS_CODE":0,"TOWNNAME":"仁德區","LI":"成功里","LIN":"20鄰","STREET":"成功一街","SECT":" ","MAREA":" ","LANE":" ","ALLEY":" ","HOUSE_NO":"８４號","E_COORD97":170503.95000000001,"N_COORD97":2539833.5099999998,"ADDRESS":"成功一街８４號","OBJECTID":622450},"geometry":{"x":170503.94999999925,"y":2539833.5100000035}},{"attributes":{"ID":622478,"DIS_CODE":0,"TOWNNAME":"仁德區","LI":"太子里","LIN":"25鄰","STREET":"長興五街","SECT":" ","MAREA":" ","LANE":" ","ALLEY":" ","HOUSE_NO":"２５之１號","E_COORD97":173540.22325700001,"N_COORD97":2543612.1378799998,"ADDRESS":"長興五街２５之１號","OBJECTID":622451},"geometry":{"x":173540.22325700056,"y":2543612.137875}},{"attributes":{"ID":622479,"DIS_CODE":0,"TOWNNAME":"仁德區","LI":"太子里","LIN":"26鄰","STREET":"長興五街","SECT":" ","MAREA":" ","LANE":" ","ALLEY":" ","HOUSE_NO":"８號","E_COORD97":173576.32999999999,"N_COORD97":2543579.5,"ADDRESS":"長興五街８號","OBJECTID":622452},"geometry":{"x":173576.32999999914,"y":2543579.5}},{"attributes":{"ID":622480,"DIS_CODE":0,"TOWNNAME":"仁德區","LI":"太子里","LIN":"25鄰","STREET":"長興五街","SECT":" ","MAREA":" ","LANE":" ","ALLEY":" ","HOUSE_NO":"２５號","E_COORD97":173555.5,"N_COORD97":2543610.0099999998,"ADDRESS":"長興五街２５號","OBJECTID":622453},"geometry":{"x":173555.50000000093,"y":2543610.0099999998}},{"attributes":{"ID":622481,"DIS_CODE":0,"TOWNNAME":"仁德區","LI":"後壁里","LIN":"20鄰","STREET":"中正路","SECT":"二段","MAREA":" ","LANE":" ","ALLEY":" ","HOUSE_NO":"７２號","E_COORD97":173153.32000000001,"N_COORD97":2538391.52,"ADDRESS":"中正路二段７２號","OBJECTID":622454},"geometry":{"x":173153.32000000123,"y":2538391.5199999996}},{"attributes":{"ID":622482,"DIS_CODE":0,"TOWNNAME":"仁德區","LI":"後壁里","LIN":"20鄰","STREET":"中正路","SECT":"二段","MAREA":" ","LANE":" ","ALLEY":" ","HOUSE_NO":"１１０之１號","E_COORD97":173185.38,"N_COORD97":2538497.04,"ADDRESS":"中正路二段１１０之１號","OBJECTID":622455},"geometry":{"x":173185.37999999989,"y":2538497.040000001}},{"attributes":{"ID":622483,"DIS_CODE":0,"TOWNNAME":"仁德區","LI":"太子里","LIN":"25鄰","STREET":"長興五街","SECT":" ","MAREA":" ","LANE":" ","ALLEY":" ","HOUSE_NO":"２７之７號","E_COORD97":173518.41074200001,"N_COORD97":2543624.9437000002,"ADDRESS":"長興五街２７之７號","OBJECTID":622456},"geometry":{"x":173518.41074200068,"y":2543624.943702003}},{"attributes":{"ID":622484,"DIS_CODE":0,"TOWNNAME":"仁德區","LI":"後壁里","LIN":"20鄰","STREET":"中正路","SECT":"二段","MAREA":" ","LANE":" ","ALLEY":" ","HOUSE_NO":"３０之２號","E_COORD97":173103.381092,"N_COORD97":2538263.0595100001,"ADDRESS":"中正路二段３０之２號","OBJECTID":622457},"geometry":{"x":173103.38109200075,"y":2538263.0595090017}},{"attributes":{"ID":622485,"DIS_CODE":0,"TOWNNAME":"仁德區","LI":"後壁里","LIN":"32鄰","STREET":"德洋路","SECT":" ","MAREA":" ","LANE":" ","ALLEY":" ","HOUSE_NO":"２１９號","E_COORD97":172518.16,"N_COORD97":2539520.5099999998,"ADDRESS":"德洋路２１９號","OBJECTID":622458},"geometry":{"x":172518.16000000201,"y":2539520.5099999998}},{"attributes":{"ID":622486,"DIS_CODE":0,"TOWNNAME":"仁德區","LI":"新田里","LIN":"4鄰","STREET":"勝利一街","SECT":" ","MAREA":" ","LANE":" ","ALLEY":" ","HOUSE_NO":"２０號","E_COORD97":173857.73000000001,"N_COORD97":2539545,"ADDRESS":"勝利一街２０號","OBJECTID":622459},"geometry":{"x":173857.73000000138,"y":2539545}},{"attributes":{"ID":622487,"DIS_CODE":0,"TOWNNAME":"仁德區","LI":"保安里","LIN":"18鄰","STREET":"中正路","SECT":"一段","MAREA":" ","LANE":" ","ALLEY":" ","HOUSE_NO":"３５號","E_COORD97":170782.87,"N_COORD97":2535542.5299999998,"ADDRESS":"中正路一段３５號","OBJECTID":622460},"geometry":{"x":170782.87000000104,"y":2535542.5299999993}},{"attributes":{"ID":622488,"DIS_CODE":0,"TOWNNAME":"仁德區","LI":"太子里","LIN":"32鄰","STREET":"太子南路","SECT":" ","MAREA":" ","LANE":" ","ALLEY":" ","HOUSE_NO":"１６號","E_COORD97":174008.557267,"N_COORD97":2543286.13167,"ADDRESS":"太子南路１６號","OBJECTID":622461},"geometry":{"x":174008.55726699997,"y":2543286.1316669993}},{"attributes":{"ID":622489,"DIS_CODE":0,"TOWNNAME":"仁德區","LI":"太子里","LIN":"32鄰","STREET":"太子南路","SECT":" ","MAREA":" ","LANE":" ","ALLEY":" ","HOUSE_NO":"２６號","E_COORD97":173983.779943,"N_COORD97":2543290.1533300001,"ADDRESS":"太子南路２６號","OBJECTID":622462},"geometry":{"x":173983.77994300146,"y":2543290.1533320006}},{"attributes":{"ID":622490,"DIS_CODE":0,"TOWNNAME":"仁德區","LI":"太子里","LIN":"38鄰","STREET":"長興一街","SECT":" ","MAREA":" ","LANE":" ","ALLEY":" ","HOUSE_NO":"７８號","E_COORD97":174476.24263399999,"N_COORD97":2543847.9213399999,"ADDRESS":"長興一街７８號","OBJECTID":622463},"geometry":{"x":174476.24263400212,"y":2543847.9213360026}},{"attributes":{"ID":622491,"DIS_CODE":0,"TOWNNAME":"仁德區","LI":"太子里","LIN":"38鄰","STREET":"長興一街","SECT":" ","MAREA":" ","LANE":" ","ALLEY":" ","HOUSE_NO":"６５號","E_COORD97":174463.07999999999,"N_COORD97":2543821.5099999998,"ADDRESS":"長興一街６５號","OBJECTID":622464},"geometry":{"x":174463.08000000194,"y":2543821.5100000016}},{"attributes":{"ID":622492,"DIS_CODE":0,"TOWNNAME":"仁德區","LI":"後壁里","LIN":"20鄰","STREET":"中正路","SECT":"二段","MAREA":" ","LANE":" ","ALLEY":" ","HOUSE_NO":"６０號","E_COORD97":173135.62,"N_COORD97":2538356.5299999998,"ADDRESS":"中正路二段６０號","OBJECTID":622465},"geometry":{"x":173135.62000000104,"y":2538356.5299999993}},{"attributes":{"ID":622493,"DIS_CODE":0,"TOWNNAME":"仁德區","LI":"太子里","LIN":"25鄰","STREET":"長興五街","SECT":" ","MAREA":" ","LANE":" ","ALLEY":" ","HOUSE_NO":"２５之２號","E_COORD97":173523.70504199999,"N_COORD97":2543612.03204,"ADDRESS":"長興五街２５之２號","OBJECTID":622466},"geometry":{"x":173523.70504200086,"y":2543612.0320420004}},{"attributes":{"ID":622494,"DIS_CODE":0,"TOWNNAME":"仁德區","LI":"成功里","LIN":"25鄰","STREET":"保華路","SECT":" ","MAREA":" ","LANE":" ","ALLEY":" ","HOUSE_NO":"３１１號","E_COORD97":170500.29999999999,"N_COORD97":2539962.4900000002,"ADDRESS":"保華路３１１號","OBJECTID":622467},"geometry":{"x":170500.30000000075,"y":2539962.4900000002}},{"attributes":{"ID":622495,"DIS_CODE":0,"TOWNNAME":"仁德區","LI":"成功里","LIN":"25鄰","STREET":"保華路","SECT":" ","MAREA":" ","LANE":" ","ALLEY":" ","HOUSE_NO":"３０７號","E_COORD97":170511.62,"N_COORD97":2539966.2400000002,"ADDRESS":"保華路３０７號","OBJECTID":622468},"geometry":{"x":170511.62000000104,"y":2539966.2400000021}},{"attributes":{"ID":622496,"DIS_CODE":0,"TOWNNAME":"仁德區","LI":"太子里","LIN":"41鄰","STREET":"太子路","SECT":" ","MAREA":" ","LANE":" ","ALLEY":" ","HOUSE_NO":"４４號","E_COORD97":175268.37,"N_COORD97":2543568.25,"ADDRESS":"太子路４４號","OBJECTID":622469},"geometry":{"x":175268.37000000104,"y":2543568.2500000037}},{"attributes":{"ID":622497,"DIS_CODE":0,"TOWNNAME":"仁德區","LI":"後壁里","LIN":"22鄰","STREET":"中正路","SECT":"二段","MAREA":" ","LANE":" ","ALLEY":" ","HOUSE_NO":"２０７號","E_COORD97":173208.17999999999,"N_COORD97":2538743.5299999998,"ADDRESS":"中正路二段２０７號","OBJECTID":622470},"geometry":{"x":173208.18000000063,"y":2538743.5299999993}},{"attributes":{"ID":622498,"DIS_CODE":0,"TOWNNAME":"永康區","LI":"勝利里","LIN":"18鄰","STREET":"勝學路","SECT":" ","MAREA":" ","LANE":" ","ALLEY":" ","HOUSE_NO":"１７９號","E_COORD97":171144.09,"N_COORD97":2545123.1200000001,"ADDRESS":"勝學路１７９號","OBJECTID":622471},"geometry":{"x":171144.09000000078,"y":2545123.1200000048}},{"attributes":{"ID":622499,"DIS_CODE":0,"TOWNNAME":"永康區","LI":"永康里","LIN":"40鄰","STREET":"永大二路","SECT":" ","MAREA":" ","LANE":" ","ALLEY":" ","HOUSE_NO":"３６號","E_COORD97":174271.45000000001,"N_COORD97":2546579.4199999999,"ADDRESS":"永大二路３６號","OBJECTID":622472},"geometry":{"x":174271.45000000112,"y":2546579.4199999999}},{"attributes":{"ID":622500,"DIS_CODE":0,"TOWNNAME":"永康區","LI":"龍潭里","LIN":"25鄰","STREET":"中山北路","SECT":" ","MAREA":" ","LANE":" ","ALLEY":" ","HOUSE_NO":"４０１號","E_COORD97":174924.84,"N_COORD97":2547717.8900000001,"ADDRESS":"中山北路４０１號","OBJECTID":622473},"geometry":{"x":174924.83999999985,"y":2547717.8900000043}},{"attributes":{"ID":622501,"DIS_CODE":0,"TOWNNAME":"仁德區","LI":"成功里","LIN":"18鄰","STREET":"全福路","SECT":" ","MAREA":" ","LANE":" ","ALLEY":" ","HOUSE_NO":"９７號","E_COORD97":171086.67000000001,"N_COORD97":2539311.7400000002,"ADDRESS":"全福路９７號","OBJECTID":622474},"geometry":{"x":171086.66999999993,"y":2539311.7400000021}},{"attributes":{"ID":622502,"DIS_CODE":0,"TOWNNAME":"仁德區","LI":"保安里","LIN":"4鄰","STREET":"文賢路","SECT":"一段","MAREA":" ","LANE":" ","ALLEY":" ","HOUSE_NO":"８５８號","E_COORD97":171493.09,"N_COORD97":2536088.0800000001,"ADDRESS":"文賢路一段８５８號","OBJECTID":622475},"geometry":{"x":171493.09000000078,"y":2536088.0800000019}},{"attributes":{"ID":622503,"DIS_CODE":0,"TOWNNAME":"仁德區","LI":"保安里","LIN":"4鄰","STREET":"文賢路","SECT":"一段","MAREA":" ","LANE":" ","ALLEY":" ","HOUSE_NO":"８６６號","E_COORD97":171564.07999999999,"N_COORD97":2536043.0699999998,"ADDRESS":"文賢路一段８６６號","OBJECTID":622476},"geometry":{"x":171564.08000000007,"y":2536043.070000004}},{"attributes":{"ID":622504,"DIS_CODE":0,"TOWNNAME":"仁德區","LI":"後壁里","LIN":"18鄰","STREET":"德南路","SECT":" ","MAREA":" ","LANE":" ","ALLEY":" ","HOUSE_NO":"２０號","E_COORD97":173275.95000000001,"N_COORD97":2538788.52,"ADDRESS":"德南路２０號","OBJECTID":622477},"geometry":{"x":173275.95000000112,"y":2538788.5199999996}},{"attributes":{"ID":622505,"DIS_CODE":0,"TOWNNAME":"仁德區","LI":"保安里","LIN":"18鄰","STREET":"中正路","SECT":"一段","MAREA":" ","LANE":" ","ALLEY":" ","HOUSE_NO":"５５號","E_COORD97":170823.09,"N_COORD97":2535542.2799999998,"ADDRESS":"中正路一段５５號","OBJECTID":622478},"geometry":{"x":170823.09000000171,"y":2535542.2800000031}},{"attributes":{"ID":622506,"DIS_CODE":0,"TOWNNAME":"仁德區","LI":"後壁里","LIN":"32鄰","STREET":"德洋路","SECT":" ","MAREA":" ","LANE":" ","ALLEY":" ","HOUSE_NO":"２２６號","E_COORD97":172536.98999999999,"N_COORD97":2539528.0099999998,"ADDRESS":"德洋路２２６號","OBJECTID":622479},"geometry":{"x":172536.99000000115,"y":2539528.0099999998}},{"attributes":{"ID":622507,"DIS_CODE":0,"TOWNNAME":"仁德區","LI":"新田里","LIN":"5鄰","STREET":"勝利二街","SECT":" ","MAREA":" ","LANE":" ","ALLEY":" ","HOUSE_NO":"２７號","E_COORD97":174869.17999999999,"N_COORD97":2539327.25,"ADDRESS":"勝利二街２７號","OBJECTID":622480},"geometry":{"x":174869.18000000063,"y":2539327.2500000019}},{"attributes":{"ID":622508,"DIS_CODE":0,"TOWNNAME":"仁德區","LI":"新田里","LIN":"18鄰","STREET":"民安路","SECT":"二段","MAREA":" ","LANE":" ","ALLEY":" ","HOUSE_NO":"１１３號","E_COORD97":173606.91,"N_COORD97":2539136.5600000001,"ADDRESS":"民安路二段１１３號","OBJECTID":622481},"geometry":{"x":173606.91000000108,"y":2539136.5600000024}},{"attributes":{"ID":622509,"DIS_CODE":0,"TOWNNAME":"仁德區","LI":"後壁里","LIN":"39鄰","STREET":"德安路","SECT":" ","MAREA":" ","LANE":" ","ALLEY":" ","HOUSE_NO":"７６號","E_COORD97":173454.01999999999,"N_COORD97":2539112.5600000001,"ADDRESS":"德安路７６號","OBJECTID":622482},"geometry":{"x":173454.01999999955,"y":2539112.5600000024}},{"attributes":{"ID":622510,"DIS_CODE":0,"TOWNNAME":"仁德區","LI":"後壁里","LIN":"39鄰","STREET":"德安路","SECT":" ","MAREA":" ","LANE":" ","ALLEY":" ","HOUSE_NO":"８６號","E_COORD97":173473.14999999999,"N_COORD97":2539077.0699999998,"ADDRESS":"德安路８６號","OBJECTID":622483},"geometry":{"x":173473.1500000013,"y":2539077.0700000003}},{"attributes":{"ID":622511,"DIS_CODE":0,"TOWNNAME":"仁德區","LI":"後壁里","LIN":"13鄰","STREET":"德善路","SECT":" ","MAREA":" ","LANE":" ","ALLEY":" ","HOUSE_NO":"１１４號","E_COORD97":173484.44,"N_COORD97":2538848.52,"ADDRESS":"德善路１１４號","OBJECTID":622484},"geometry":{"x":173484.44000000227,"y":2538848.5199999996}},{"attributes":{"ID":622512,"DIS_CODE":0,"TOWNNAME":"仁德區","LI":"保安里","LIN":"4鄰","STREET":"文賢路","SECT":"一段","MAREA":" ","LANE":" ","ALLEY":" ","HOUSE_NO":"７７０號","E_COORD97":171385.38,"N_COORD97":2536312.0699999998,"ADDRESS":"文賢路一段７７０號","OBJECTID":622485},"geometry":{"x":171385.37999999989,"y":2536312.0700000022}},{"attributes":{"ID":622513,"DIS_CODE":0,"TOWNNAME":"仁德區","LI":"新田里","LIN":"4鄰","STREET":"勝利一街","SECT":" ","MAREA":" ","LANE":" ","ALLEY":" ","HOUSE_NO":"３１號","E_COORD97":174007.73000000001,"N_COORD97":2539460,"ADDRESS":"勝利一街３１號","OBJECTID":622486},"geometry":{"x":174007.73000000045,"y":2539460}},{"attributes":{"ID":622514,"DIS_CODE":0,"TOWNNAME":"仁德區","LI":"新田里","LIN":"18鄰","STREET":"民安路","SECT":"二段","MAREA":" ","LANE":" ","ALLEY":" ","HOUSE_NO":"１８５號","E_COORD97":173724.57999999999,"N_COORD97":2539028.5600000001,"ADDRESS":"民安路二段１８５號","OBJECTID":622487},"geometry":{"x":173724.58000000101,"y":2539028.5600000024}},{"attributes":{"ID":622515,"DIS_CODE":0,"TOWNNAME":"仁德區","LI":"後壁里","LIN":"20鄰","STREET":"中正路","SECT":"二段","MAREA":" ","LANE":" ","ALLEY":" ","HOUSE_NO":"１３４號","E_COORD97":173218.07000000001,"N_COORD97":2538547.7799999998,"ADDRESS":"中正路二段１３４號","OBJECTID":622488},"geometry":{"x":173218.07000000123,"y":2538547.7800000012}},{"attributes":{"ID":622516,"DIS_CODE":0,"TOWNNAME":"仁德區","LI":"後壁里","LIN":"32鄰","STREET":"德洋路","SECT":" ","MAREA":" ","LANE":" ","ALLEY":" ","HOUSE_NO":"１９８號","E_COORD97":172511.82000000001,"N_COORD97":2539468.77,"ADDRESS":"德洋路１９８號","OBJECTID":622489},"geometry":{"x":172511.8200000003,"y":2539468.7700000033}},{"attributes":{"ID":622517,"DIS_CODE":0,"TOWNNAME":"仁德區","LI":"太子里","LIN":"18鄰","STREET":"長興四街","SECT":" ","MAREA":" ","LANE":" ","ALLEY":" ","HOUSE_NO":"５７號","E_COORD97":173980.38,"N_COORD97":2543558.5,"ADDRESS":"長興四街５７號","OBJECTID":622490},"geometry":{"x":173980.37999999989,"y":2543558.5}},{"attributes":{"ID":622518,"DIS_CODE":0,"TOWNNAME":"仁德區","LI":"新田里","LIN":"18鄰","STREET":"民安路","SECT":"二段","MAREA":" ","LANE":" ","ALLEY":" ","HOUSE_NO":"１８５之５號","E_COORD97":173739.73000000001,"N_COORD97":2539050.5699999998,"ADDRESS":"民安路二段１８５之５號","OBJECTID":622491},"geometry":{"x":173739.73000000045,"y":2539050.570000004}},{"attributes":{"ID":622519,"DIS_CODE":0,"TOWNNAME":"仁德區","LI":"成功里","LIN":"20鄰","STREET":"保生路","SECT":" ","MAREA":" ","LANE":" ","ALLEY":" ","HOUSE_NO":"８１號","E_COORD97":170678.32999999999,"N_COORD97":2539799.0800000001,"ADDRESS":"保生路８１號","OBJECTID":622492},"geometry":{"x":170678.33000000101,"y":2539799.0800000001}},{"attributes":{"ID":622520,"DIS_CODE":0,"TOWNNAME":"仁德區","LI":"太子里","LIN":"20鄰","STREET":"長興四街","SECT":" ","MAREA":" ","LANE":" ","ALLEY":" ","HOUSE_NO":"４８號","E_COORD97":173975.09,"N_COORD97":2543578.25,"ADDRESS":"長興四街４８號","OBJECTID":622493},"geometry":{"x":173975.09000000078,"y":2543578.2499999981}},{"attributes":{"ID":622521,"DIS_CODE":0,"TOWNNAME":"仁德區","LI":"保安里","LIN":"4鄰","STREET":"文賢路","SECT":"一段","MAREA":" ","LANE":" ","ALLEY":" ","HOUSE_NO":"８３６號","E_COORD97":171480.85999999999,"N_COORD97":2536152.5800000001,"ADDRESS":"文賢路一段８３６號","OBJECTID":622494},"geometry":{"x":171480.86000000034,"y":2536152.5800000019}},{"attributes":{"ID":622522,"DIS_CODE":0,"TOWNNAME":"仁德區","LI":"保安里","LIN":"18鄰","STREET":"中正路","SECT":"一段","MAREA":" ","LANE":" ","ALLEY":" ","HOUSE_NO":"５３號","E_COORD97":170818.98000000001,"N_COORD97":2535542.2799999998,"ADDRESS":"中正路一段５３號","OBJECTID":622495},"geometry":{"x":170818.98000000045,"y":2535542.2800000031}},{"attributes":{"ID":622523,"DIS_CODE":0,"TOWNNAME":"仁德區","LI":"後壁里","LIN":"20鄰","STREET":"中正路","SECT":"二段","MAREA":" ","LANE":" ","ALLEY":" ","HOUSE_NO":"１５４號","E_COORD97":173218.85999999999,"N_COORD97":2538603.77,"ADDRESS":"中正路二段１５４號","OBJECTID":622496},"geometry":{"x":173218.8600000022,"y":2538603.7699999996}},{"attributes":{"ID":622524,"DIS_CODE":0,"TOWNNAME":"仁德區","LI":"保安里","LIN":"4鄰","STREET":"文賢路","SECT":"一段","MAREA":" ","LANE":" ","ALLEY":" ","HOUSE_NO":"８５８號之１","E_COORD97":171505.76000000001,"N_COORD97":2536083.5800000001,"ADDRESS":"文賢路一段８５８號之１","OBJECTID":622497},"geometry":{"x":171505.76000000071,"y":2536083.5800000038}},{"attributes":{"ID":622525,"DIS_CODE":0,"TOWNNAME":"仁德區","LI":"新田里","LIN":"5鄰","STREET":"勝利二街","SECT":" ","MAREA":" ","LANE":" ","ALLEY":" ","HOUSE_NO":"２３號","E_COORD97":174874.63,"N_COORD97":2539340.5,"ADDRESS":"勝利二街２３號","OBJECTID":622498},"geometry":{"x":174874.63000000082,"y":2539340.5}},{"attributes":{"ID":622526,"DIS_CODE":0,"TOWNNAME":"仁德區","LI":"新田里","LIN":"5鄰","STREET":"勝利路","SECT":" ","MAREA":" ","LANE":" ","ALLEY":" ","HOUSE_NO":"３８０號","E_COORD97":175062.87,"N_COORD97":2539349,"ADDRESS":"勝利路３８０號","OBJECTID":622499},"geometry":{"x":175062.87000000197,"y":2539349.0000000037}},{"attributes":{"ID":622527,"DIS_CODE":0,"TOWNNAME":"仁德區","LI":"新田里","LIN":"18鄰","STREET":"民安路","SECT":"二段","MAREA":" ","LANE":" ","ALLEY":" ","HOUSE_NO":"１３９號","E_COORD97":173653.89000000001,"N_COORD97":2539107.0600000001,"ADDRESS":"民安路二段１３９號","OBJECTID":622500},"geometry":{"x":173653.8900000006,"y":2539107.0600000005}},{"attributes":{"ID":622528,"DIS_CODE":0,"TOWNNAME":"仁德區","LI":"後壁里","LIN":"39鄰","STREET":"德安路","SECT":" ","MAREA":" ","LANE":" ","ALLEY":" ","HOUSE_NO":"３５號","E_COORD97":173470.67999999999,"N_COORD97":2539120.5600000001,"ADDRESS":"德安路３５號","OBJECTID":622501},"geometry":{"x":173470.68000000063,"y":2539120.5600000005}},{"attributes":{"ID":622529,"DIS_CODE":0,"TOWNNAME":"仁德區","LI":"後壁里","LIN":"32鄰","STREET":"德洋路","SECT":" ","MAREA":" ","LANE":" ","ALLEY":" ","HOUSE_NO":"２１０號","E_COORD97":172523.79999999999,"N_COORD97":2539497.02,"ADDRESS":"德洋路２１０號","OBJECTID":622502},"geometry":{"x":172523.80000000075,"y":2539497.0199999996}},{"attributes":{"ID":622530,"DIS_CODE":0,"TOWNNAME":"仁德區","LI":"成功里","LIN":"4鄰","STREET":"成功三街","SECT":" ","MAREA":" ","LANE":" ","ALLEY":" ","HOUSE_NO":"１００號","E_COORD97":171169.29000000001,"N_COORD97":2539793.77,"ADDRESS":"成功三街１００號","OBJECTID":622503},"geometry":{"x":171169.29000000004,"y":2539793.7699999996}},{"attributes":{"ID":622531,"DIS_CODE":0,"TOWNNAME":"仁德區","LI":"新田里","LIN":"4鄰","STREET":"勝利一街","SECT":" ","MAREA":" ","LANE":" ","ALLEY":" ","HOUSE_NO":"３６號","E_COORD97":173829.98000000001,"N_COORD97":2539477.2599999998,"ADDRESS":"勝利一街３６號","OBJECTID":622504},"geometry":{"x":173829.97999999952,"y":2539477.2600000016}},{"attributes":{"ID":622532,"DIS_CODE":0,"TOWNNAME":"仁德區","LI":"後壁里","LIN":"38鄰","STREET":"德安路","SECT":" ","MAREA":" ","LANE":" ","ALLEY":" ","HOUSE_NO":"５８號","E_COORD97":173420.04999999999,"N_COORD97":2539160.5699999998,"ADDRESS":"德安路５８號","OBJECTID":622505},"geometry":{"x":173420.04999999981,"y":2539160.5700000022}},{"attributes":{"ID":622533,"DIS_CODE":0,"TOWNNAME":"仁德區","LI":"成功里","LIN":"18鄰","STREET":"全福路","SECT":" ","MAREA":" ","LANE":" ","ALLEY":" ","HOUSE_NO":"９５號","E_COORD97":171082.38,"N_COORD97":2539311.7400000002,"ADDRESS":"全福路９５號","OBJECTID":622506},"geometry":{"x":171082.38000000175,"y":2539311.7400000021}},{"attributes":{"ID":622534,"DIS_CODE":0,"TOWNNAME":"仁德區","LI":"成功里","LIN":"4鄰","STREET":"成功三街","SECT":" ","MAREA":" ","LANE":" ","ALLEY":" ","HOUSE_NO":"１０２號","E_COORD97":171169.44,"N_COORD97":2539786.52,"ADDRESS":"成功三街１０２號","OBJECTID":622507},"geometry":{"x":171169.44000000134,"y":2539786.5200000014}},{"attributes":{"ID":622535,"DIS_CODE":0,"TOWNNAME":"仁德區","LI":"土庫里","LIN":"4鄰","STREET":"中正路","SECT":"三段","MAREA":" ","LANE":" ","ALLEY":" ","HOUSE_NO":"４２１號","E_COORD97":173898.48000000001,"N_COORD97":2542745.77,"ADDRESS":"中正路三段４２１號","OBJECTID":622508},"geometry":{"x":173898.48000000138,"y":2542745.7699999996}},{"attributes":{"ID":622536,"DIS_CODE":0,"TOWNNAME":"仁德區","LI":"新田里","LIN":"4鄰","STREET":"新田路","SECT":" ","MAREA":" ","LANE":" ","ALLEY":" ","HOUSE_NO":"２３２號","E_COORD97":174502.23000000001,"N_COORD97":2539573,"ADDRESS":"新田路２３２號","OBJECTID":622509},"geometry":{"x":174502.23000000045,"y":2539573.0000000019}},{"attributes":{"ID":622537,"DIS_CODE":0,"TOWNNAME":"仁德區","LI":"新田里","LIN":"4鄰","STREET":"新田路","SECT":" ","MAREA":" ","LANE":" ","ALLEY":" ","HOUSE_NO":"２３６號","E_COORD97":174500.04000000001,"N_COORD97":2539589.5,"ADDRESS":"新田路２３６號","OBJECTID":622510},"geometry":{"x":174500.04000000004,"y":2539589.5000000037}},{"attributes":{"ID":622538,"DIS_CODE":0,"TOWNNAME":"仁德區","LI":"田厝里","LIN":"5鄰","STREET":"保安路","SECT":"二段","MAREA":" ","LANE":" ","ALLEY":" ","HOUSE_NO":"４０２號","E_COORD97":172244.09,"N_COORD97":2537393.3199999998,"ADDRESS":"保安路二段４０２號","OBJECTID":622511},"geometry":{"x":172244.09000000078,"y":2537393.3200000003}},{"attributes":{"ID":622539,"DIS_CODE":0,"TOWNNAME":"仁德區","LI":"後壁里","LIN":"25鄰","STREET":"德洋一街","SECT":" ","MAREA":" ","LANE":" ","ALLEY":" ","HOUSE_NO":"１７號","E_COORD97":173084.01999999999,"N_COORD97":2539129.0099999998,"ADDRESS":"德洋一街１７號","OBJECTID":622512},"geometry":{"x":173084.01999999955,"y":2539129.0100000016}},{"attributes":{"ID":622540,"DIS_CODE":0,"TOWNNAME":"仁德區","LI":"後壁里","LIN":"42鄰","STREET":"德崙路","SECT":" ","MAREA":" ","LANE":" ","ALLEY":" ","HOUSE_NO":"７６號","E_COORD97":173370.083614,"N_COORD97":2538503.9370499998,"ADDRESS":"德崙路７６號","OBJECTID":622513},"geometry":{"x":173370.08361400105,"y":2538503.9370510019}},{"attributes":{"ID":622541,"DIS_CODE":0,"TOWNNAME":"仁德區","LI":"新田里","LIN":"4鄰","STREET":"新田路","SECT":" ","MAREA":" ","LANE":" ","ALLEY":" ","HOUSE_NO":"２２９號","E_COORD97":174469.26000000001,"N_COORD97":2539745.7400000002,"ADDRESS":"新田路２２９號","OBJECTID":622514},"geometry":{"x":174469.25999999978,"y":2539745.7400000021}},{"attributes":{"ID":622542,"DIS_CODE":0,"TOWNNAME":"仁德區","LI":"新田里","LIN":"4鄰","STREET":"新田路","SECT":" ","MAREA":" ","LANE":" ","ALLEY":" ","HOUSE_NO":"２０１號","E_COORD97":174480.06,"N_COORD97":2539592.25,"ADDRESS":"新田路２０１號","OBJECTID":622515},"geometry":{"x":174480.06000000052,"y":2539592.2500000019}},{"attributes":{"ID":622543,"DIS_CODE":0,"TOWNNAME":"仁德區","LI":"新田里","LIN":"4鄰","STREET":"新田路","SECT":" ","MAREA":" ","LANE":" ","ALLEY":" ","HOUSE_NO":"１８５號","E_COORD97":174488.38,"N_COORD97":2539494.75,"ADDRESS":"新田路１８５號","OBJECTID":622516},"geometry":{"x":174488.38000000082,"y":2539494.75}},{"attributes":{"ID":622544,"DIS_CODE":0,"TOWNNAME":"仁德區","LI":"新田里","LIN":"4鄰","STREET":"新田路","SECT":" ","MAREA":" ","LANE":" ","ALLEY":" ","HOUSE_NO":"２３２之２號","E_COORD97":174504.17999999999,"N_COORD97":2539580.7999999998,"ADDRESS":"新田路２３２之２號","OBJECTID":622517},"geometry":{"x":174504.17999999877,"y":2539580.8000000007}},{"attributes":{"ID":622545,"DIS_CODE":0,"TOWNNAME":"仁德區","LI":"後壁里","LIN":"5鄰","STREET":"德善一街","SECT":" ","MAREA":" ","LANE":" ","ALLEY":" ","HOUSE_NO":"４２號","E_COORD97":173464.76999999999,"N_COORD97":2538929.7599999998,"ADDRESS":"德善一街４２號","OBJECTID":622518},"geometry":{"x":173464.77000000048,"y":2538929.7599999979}},{"attributes":{"ID":622546,"DIS_CODE":0,"TOWNNAME":"仁德區","LI":"仁德里","LIN":"5鄰","STREET":"中正路","SECT":"二段","MAREA":" ","LANE":" ","ALLEY":" ","HOUSE_NO":"１０３７號","E_COORD97":173403.78,"N_COORD97":2540752.2200000002,"ADDRESS":"中正路二段１０３７號","OBJECTID":622519},"geometry":{"x":173403.78000000026,"y":2540752.2200000025}},{"attributes":{"ID":622547,"DIS_CODE":0,"TOWNNAME":"仁德區","LI":"後壁里","LIN":"25鄰","STREET":"德洋一街","SECT":" ","MAREA":" ","LANE":" ","ALLEY":" ","HOUSE_NO":"１９號","E_COORD97":173086.98999999999,"N_COORD97":2539131.5099999998,"ADDRESS":"德洋一街１９號","OBJECTID":622520},"geometry":{"x":173086.99000000022,"y":2539131.5100000035}},{"attributes":{"ID":622548,"DIS_CODE":0,"TOWNNAME":"仁德區","LI":"新田里","LIN":"18鄰","STREET":"新田一街","SECT":" ","MAREA":" ","LANE":" ","ALLEY":" ","HOUSE_NO":"２號","E_COORD97":173902.42999999999,"N_COORD97":2538928.7400000002,"ADDRESS":"新田一街２號","OBJECTID":622521},"geometry":{"x":173902.42999999877,"y":2538928.7400000021}},{"attributes":{"ID":622549,"DIS_CODE":0,"TOWNNAME":"仁德區","LI":"後壁里","LIN":"41鄰","STREET":"德善路","SECT":" ","MAREA":" ","LANE":" ","ALLEY":" ","HOUSE_NO":"２５７號","E_COORD97":173878.23999999999,"N_COORD97":2538668.77,"ADDRESS":"德善路２５７號","OBJECTID":622522},"geometry":{"x":173878.24000000022,"y":2538668.7700000033}},{"attributes":{"ID":622550,"DIS_CODE":0,"TOWNNAME":"仁德區","LI":"新田里","LIN":"4鄰","STREET":"新田路","SECT":" ","MAREA":" ","LANE":" ","ALLEY":" ","HOUSE_NO":"１９３號","E_COORD97":174481.89999999999,"N_COORD97":2539576.25,"ADDRESS":"新田路１９３號","OBJECTID":622523},"geometry":{"x":174481.9000000013,"y":2539576.25}},{"attributes":{"ID":622551,"DIS_CODE":0,"TOWNNAME":"仁德區","LI":"後壁里","LIN":"4鄰","STREET":"德善路","SECT":" ","MAREA":" ","LANE":" ","ALLEY":" ","HOUSE_NO":"２５號","E_COORD97":173300.54999999999,"N_COORD97":2538949.27,"ADDRESS":"德善路２５號","OBJECTID":622524},"geometry":{"x":173300.55000000075,"y":2538949.2699999996}},{"attributes":{"ID":622552,"DIS_CODE":0,"TOWNNAME":"仁德區","LI":"後壁里","LIN":"25鄰","STREET":"德洋路","SECT":" ","MAREA":" ","LANE":" ","ALLEY":" ","HOUSE_NO":"４６號","E_COORD97":173079.04999999999,"N_COORD97":2539072.27,"ADDRESS":"德洋路４６號","OBJECTID":622525},"geometry":{"x":173079.04999999981,"y":2539072.2700000014}},{"attributes":{"ID":622553,"DIS_CODE":0,"TOWNNAME":"仁德區","LI":"新田里","LIN":"4鄰","STREET":"新田路","SECT":" ","MAREA":" ","LANE":" ","ALLEY":" ","HOUSE_NO":"２１０號","E_COORD97":174504.62,"N_COORD97":2539450.7400000002,"ADDRESS":"新田路２１０號","OBJECTID":622526},"geometry":{"x":174504.62000000011,"y":2539450.7400000021}},{"attributes":{"ID":622554,"DIS_CODE":0,"TOWNNAME":"仁德區","LI":"新田里","LIN":"13鄰","STREET":"北保二街","SECT":" ","MAREA":" ","LANE":" ","ALLEY":" ","HOUSE_NO":"１０號","E_COORD97":173217.35999999999,"N_COORD97":2539404.25,"ADDRESS":"北保二街１０號","OBJECTID":622527},"geometry":{"x":173217.36000000127,"y":2539404.25}},{"attributes":{"ID":622555,"DIS_CODE":0,"TOWNNAME":"仁德區","LI":"新田里","LIN":"13鄰","STREET":"北保二街","SECT":" ","MAREA":" ","LANE":" ","ALLEY":" ","HOUSE_NO":"６號","E_COORD97":173208.64000000001,"N_COORD97":2539373.75,"ADDRESS":"北保二街６號","OBJECTID":622528},"geometry":{"x":173208.63999999966,"y":2539373.75}},{"attributes":{"ID":622556,"DIS_CODE":0,"TOWNNAME":"仁德區","LI":"新田里","LIN":"4鄰","STREET":"新田路","SECT":" ","MAREA":" ","LANE":" ","ALLEY":" ","HOUSE_NO":"２２５號","E_COORD97":174462.20999999999,"N_COORD97":2539703,"ADDRESS":"新田路２２５號","OBJECTID":622529},"geometry":{"x":174462.21000000089,"y":2539703.0000000019}},{"attributes":{"ID":622557,"DIS_CODE":0,"TOWNNAME":"仁德區","LI":"新田里","LIN":"4鄰","STREET":"新田路","SECT":" ","MAREA":" ","LANE":" ","ALLEY":" ","HOUSE_NO":"１１７號之１","E_COORD97":174476.39000000001,"N_COORD97":2539260.0499999998,"ADDRESS":"新田路１１７號之１","OBJECTID":622530},"geometry":{"x":174476.3900000006,"y":2539260.0500000007}},{"attributes":{"ID":622558,"DIS_CODE":0,"TOWNNAME":"仁德區","LI":"新田里","LIN":"4鄰","STREET":"新田路","SECT":" ","MAREA":" ","LANE":" ","ALLEY":" ","HOUSE_NO":"１９１號","E_COORD97":174482.89999999999,"N_COORD97":2539555.7400000002,"ADDRESS":"新田路１９１號","OBJECTID":622531},"geometry":{"x":174482.90000000037,"y":2539555.7400000021}},{"attributes":{"ID":622559,"DIS_CODE":0,"TOWNNAME":"仁德區","LI":"後壁里","LIN":"5鄰","STREET":"德善路","SECT":" ","MAREA":" ","LANE":" ","ALLEY":" ","HOUSE_NO":"８９號","E_COORD97":173394.44,"N_COORD97":2538896.7599999998,"ADDRESS":"德善路８９號","OBJECTID":622532},"geometry":{"x":173394.44000000041,"y":2538896.7600000016}},{"attributes":{"ID":622560,"DIS_CODE":0,"TOWNNAME":"仁德區","LI":"後壁里","LIN":"43鄰","STREET":"德崙路","SECT":" ","MAREA":" ","LANE":" ","ALLEY":" ","HOUSE_NO":"２７號","E_COORD97":173272.39999999999,"N_COORD97":2538606.5099999998,"ADDRESS":"德崙路２７號","OBJECTID":622533},"geometry":{"x":173272.40000000037,"y":2538606.5100000016}},{"attributes":{"ID":622561,"DIS_CODE":0,"TOWNNAME":"仁德區","LI":"新田里","LIN":"8鄰","STREET":"北保路","SECT":" ","MAREA":" ","LANE":" ","ALLEY":" ","HOUSE_NO":"２１１號","E_COORD97":173553.10999999999,"N_COORD97":2539415.2400000002,"ADDRESS":"北保路２１１號","OBJECTID":622534},"geometry":{"x":173553.11000000127,"y":2539415.2400000039}},{"attributes":{"ID":622562,"DIS_CODE":0,"TOWNNAME":"仁德區","LI":"土庫里","LIN":"1鄰","STREET":"太乙路","SECT":" ","MAREA":" ","LANE":" ","ALLEY":" ","HOUSE_NO":"８２號","E_COORD97":173076.62,"N_COORD97":2542637.25,"ADDRESS":"太乙路８２號","OBJECTID":622535},"geometry":{"x":173076.62000000104,"y":2542637.2500000019}},{"attributes":{"ID":622563,"DIS_CODE":0,"TOWNNAME":"白河區","LI":"永安里","LIN":"15鄰","STREET":"平等街","SECT":" ","MAREA":" ","LANE":" ","ALLEY":" ","HOUSE_NO":"４９號","E_COORD97":190042.17000000001,"N_COORD97":2583635.3199999998,"ADDRESS":"平等街４９號","OBJECTID":622536},"geometry":{"x":190042.16999999993,"y":2583635.3199999984}},{"attributes":{"ID":622564,"DIS_CODE":0,"TOWNNAME":"官田區","LI":"隆田里","LIN":"8鄰","STREET":"勝利路","SECT":" ","MAREA":" ","LANE":" ","ALLEY":" ","HOUSE_NO":"３３號","E_COORD97":179935.07999999999,"N_COORD97":2565892.2799999998,"ADDRESS":"勝利路３３號","OBJECTID":622537},"geometry":{"x":179935.08000000194,"y":2565892.2799999993}},{"attributes":{"ID":622565,"DIS_CODE":0,"TOWNNAME":"官田區","LI":"隆田里","LIN":"8鄰","STREET":"勝利路","SECT":" ","MAREA":" ","LANE":" ","ALLEY":" ","HOUSE_NO":"３５號","E_COORD97":179937.88,"N_COORD97":2565895.0499999998,"ADDRESS":"勝利路３５號","OBJECTID":622538},"geometry":{"x":179937.88000000175,"y":2565895.0500000007}},{"attributes":{"ID":622566,"DIS_CODE":0,"TOWNNAME":"官田區","LI":"隆田里","LIN":"8鄰","STREET":"勝利路","SECT":" ","MAREA":" ","LANE":" ","ALLEY":" ","HOUSE_NO":"３７號","E_COORD97":179940.98000000001,"N_COORD97":2565899,"ADDRESS":"勝利路３７號","OBJECTID":622539},"geometry":{"x":179940.98000000045,"y":2565899.0000000037}},{"attributes":{"ID":622567,"DIS_CODE":0,"TOWNNAME":"官田區","LI":"隆田里","LIN":"7鄰","STREET":"勝利路","SECT":" ","MAREA":" ","LANE":" ","ALLEY":" ","HOUSE_NO":"２３號","E_COORD97":179919.73999999999,"N_COORD97":2565876.4500000002,"ADDRESS":"勝利路２３號","OBJECTID":622540},"geometry":{"x":179919.74000000022,"y":2565876.4500000011}},{"attributes":{"ID":622568,"DIS_CODE":0,"TOWNNAME":"官田區","LI":"隆田里","LIN":"7鄰","STREET":"勝利路","SECT":" ","MAREA":" ","LANE":" ","ALLEY":" ","HOUSE_NO":"２５號","E_COORD97":179922.14999999999,"N_COORD97":2565879.0499999998,"ADDRESS":"勝利路２５號","OBJECTID":622541},"geometry":{"x":179922.1500000013,"y":2565879.0500000045}},{"attributes":{"ID":622569,"DIS_CODE":0,"TOWNNAME":"官田區","LI":"隆田里","LIN":"7鄰","STREET":"勝利路","SECT":" ","MAREA":" ","LANE":" ","ALLEY":" ","HOUSE_NO":"２７號","E_COORD97":179925.5,"N_COORD97":2565884.2200000002,"ADDRESS":"勝利路２７號","OBJECTID":622542},"geometry":{"x":179925.50000000186,"y":2565884.2200000007}},{"attributes":{"ID":622570,"DIS_CODE":0,"TOWNNAME":"官田區","LI":"隆本里","LIN":"13鄰","STREET":"興隆街","SECT":" ","MAREA":" ","LANE":" ","ALLEY":" ","HOUSE_NO":"１０２號","E_COORD97":179857.45000000001,"N_COORD97":2566379.6600000001,"ADDRESS":"興隆街１０２號","OBJECTID":622543},"geometry":{"x":179857.45000000019,"y":2566379.6600000039}},{"attributes":{"ID":622571,"DIS_CODE":0,"TOWNNAME":"官田區","LI":"隆田里","LIN":"4鄰","STREET":"新生街","SECT":" ","MAREA":" ","LANE":" ","ALLEY":" ","HOUSE_NO":"１１１號","E_COORD97":180201.37,"N_COORD97":2565721.5099999998,"ADDRESS":"新生街１１１號","OBJECTID":622544},"geometry":{"x":180201.37000000104,"y":2565721.5099999998}},{"attributes":{"ID":622572,"DIS_CODE":0,"TOWNNAME":"官田區","LI":"隆田里","LIN":"4鄰","STREET":"新生街","SECT":" ","MAREA":" ","LANE":" ","ALLEY":" ","HOUSE_NO":"１１３號","E_COORD97":180201.06,"N_COORD97":2565724.9900000002,"ADDRESS":"新生街１１３號","OBJECTID":622545},"geometry":{"x":180201.06000000052,"y":2565724.9900000002}},{"attributes":{"ID":622573,"DIS_CODE":0,"TOWNNAME":"官田區","LI":"隆田里","LIN":"4鄰","STREET":"新生街","SECT":" ","MAREA":" ","LANE":" ","ALLEY":" ","HOUSE_NO":"１１５號","E_COORD97":180200.98999999999,"N_COORD97":2565728.5699999998,"ADDRESS":"新生街１１５號","OBJECTID":622546},"geometry":{"x":180200.99000000115,"y":2565728.5700000003}},{"attributes":{"ID":622574,"DIS_CODE":0,"TOWNNAME":"官田區","LI":"隆田里","LIN":"4鄰","STREET":"新生街","SECT":" ","MAREA":" ","LANE":" ","ALLEY":" ","HOUSE_NO":"１１７號","E_COORD97":180200.97,"N_COORD97":2565732.1600000001,"ADDRESS":"新生街１１７號","OBJECTID":622547},"geometry":{"x":180200.96999999974,"y":2565732.1600000039}},{"attributes":{"ID":622575,"DIS_CODE":0,"TOWNNAME":"官田區","LI":"隆田里","LIN":"2鄰","STREET":"新生街","SECT":" ","MAREA":" ","LANE":" ","ALLEY":" ","HOUSE_NO":"４５號","E_COORD97":180291.13,"N_COORD97":2565564.8300000001,"ADDRESS":"新生街４５號","OBJECTID":622548},"geometry":{"x":180291.13000000082,"y":2565564.8300000019}},{"attributes":{"ID":622576,"DIS_CODE":0,"TOWNNAME":"官田區","LI":"隆本里","LIN":"13鄰","STREET":"興隆街","SECT":" ","MAREA":" ","LANE":" ","ALLEY":" ","HOUSE_NO":"５０號","E_COORD97":179971.10000000001,"N_COORD97":2566404.46,"ADDRESS":"興隆街５０號","OBJECTID":622549},"geometry":{"x":179971.09999999963,"y":2566404.4600000009}},{"attributes":{"ID":622577,"DIS_CODE":0,"TOWNNAME":"官田區","LI":"隆本里","LIN":"17鄰","STREET":"興隆街","SECT":" ","MAREA":" ","LANE":" ","ALLEY":" ","HOUSE_NO":"３５號","E_COORD97":179960.14999999999,"N_COORD97":2566377.6699999999,"ADDRESS":"興隆街３５號","OBJECTID":622550},"geometry":{"x":179960.15000000037,"y":2566377.6699999999}},{"attributes":{"ID":622578,"DIS_CODE":0,"TOWNNAME":"官田區","LI":"隆本里","LIN":"17鄰","STREET":"興隆街","SECT":" ","MAREA":" ","LANE":" ","ALLEY":" ","HOUSE_NO":"３７號","E_COORD97":179955.37,"N_COORD97":2566376.6099999999,"ADDRESS":"興隆街３７號","OBJECTID":622551},"geometry":{"x":179955.37000000104,"y":2566376.6100000013}},{"attributes":{"ID":622579,"DIS_CODE":0,"TOWNNAME":"官田區","LI":"隆本里","LIN":"17鄰","STREET":"興隆街","SECT":" ","MAREA":" ","LANE":" ","ALLEY":" ","HOUSE_NO":"３９號","E_COORD97":179950.70000000001,"N_COORD97":2566375.5899999999,"ADDRESS":"興隆街３９號","OBJECTID":622552},"geometry":{"x":179950.70000000019,"y":2566375.5899999999}},{"attributes":{"ID":622580,"DIS_CODE":0,"TOWNNAME":"官田區","LI":"隆本里","LIN":"17鄰","STREET":"興隆街","SECT":" ","MAREA":" ","LANE":" ","ALLEY":" ","HOUSE_NO":"４１號","E_COORD97":179946.03,"N_COORD97":2566374.5600000001,"ADDRESS":"興隆街４１號","OBJECTID":622553},"geometry":{"x":179946.03000000119,"y":2566374.5600000024}},{"attributes":{"ID":622581,"DIS_CODE":0,"TOWNNAME":"官田區","LI":"隆本里","LIN":"17鄰","STREET":"興隆街","SECT":" ","MAREA":" ","LANE":" ","ALLEY":" ","HOUSE_NO":"４３號","E_COORD97":179941.35999999999,"N_COORD97":2566373.54,"ADDRESS":"興隆街４３號","OBJECTID":622554},"geometry":{"x":179941.36000000034,"y":2566373.540000001}},{"attributes":{"ID":622582,"DIS_CODE":0,"TOWNNAME":"官田區","LI":"隆本里","LIN":"17鄰","STREET":"興隆街","SECT":" ","MAREA":" ","LANE":" ","ALLEY":" ","HOUSE_NO":"４５號","E_COORD97":179936.67999999999,"N_COORD97":2566372.52,"ADDRESS":"興隆街４５號","OBJECTID":622555},"geometry":{"x":179936.6799999997,"y":2566372.5199999996}},{"attributes":{"ID":622583,"DIS_CODE":0,"TOWNNAME":"官田區","LI":"隆本里","LIN":"17鄰","STREET":"興隆街","SECT":" ","MAREA":" ","LANE":" ","ALLEY":" ","HOUSE_NO":"４７號","E_COORD97":179932.01000000001,"N_COORD97":2566371.5,"ADDRESS":"興隆街４７號","OBJECTID":622556},"geometry":{"x":179932.01000000071,"y":2566371.5000000019}},{"attributes":{"ID":622584,"DIS_CODE":0,"TOWNNAME":"官田區","LI":"二鎮里","LIN":" ","STREET":"富強路","SECT":" ","MAREA":" ","LANE":" ","ALLEY":" ","HOUSE_NO":"２號","E_COORD97":181488.44,"N_COORD97":2567276.3700000001,"ADDRESS":"富強路２號","OBJECTID":622557},"geometry":{"x":181488.44000000041,"y":2567276.370000001}},{"attributes":{"ID":622585,"DIS_CODE":0,"TOWNNAME":"新市區","LI":"新和里","LIN":"43鄰","STREET":"民權路","SECT":" ","MAREA":" ","LANE":" ","ALLEY":" ","HOUSE_NO":"１７號","E_COORD97":177403.95999999999,"N_COORD97":2553077.29,"ADDRESS":"民權路１７號","OBJECTID":622558},"geometry":{"x":177403.96000000089,"y":2553077.2900000028}},{"attributes":{"ID":622586,"DIS_CODE":0,"TOWNNAME":"新市區","LI":"新和里","LIN":"40鄰","STREET":"信義街","SECT":" ","MAREA":" ","LANE":" ","ALLEY":" ","HOUSE_NO":"７９號","E_COORD97":177208.54000000001,"N_COORD97":2552930.02,"ADDRESS":"信義街７９號","OBJECTID":622559},"geometry":{"x":177208.54000000097,"y":2552930.0199999977}},{"attributes":{"ID":622587,"DIS_CODE":0,"TOWNNAME":"新市區","LI":"新和里","LIN":"5鄰","STREET":"昆明街","SECT":" ","MAREA":" ","LANE":" ","ALLEY":" ","HOUSE_NO":"２２號","E_COORD97":177337.35000000001,"N_COORD97":2552363.75,"ADDRESS":"昆明街２２號","OBJECTID":622560},"geometry":{"x":177337.3499999987,"y":2552363.7500000019}},{"attributes":{"ID":622588,"DIS_CODE":0,"TOWNNAME":"新市區","LI":"新和里","LIN":"25鄰","STREET":"仁愛街","SECT":" ","MAREA":" ","LANE":" ","ALLEY":" ","HOUSE_NO":"２４８號","E_COORD97":177624.25,"N_COORD97":2552861.5299999998,"ADDRESS":"仁愛街２４８號","OBJECTID":622561},"geometry":{"x":177624.25,"y":2552861.5299999993}},{"attributes":{"ID":622589,"DIS_CODE":0,"TOWNNAME":"新市區","LI":"新和里","LIN":"41鄰","STREET":"光明街","SECT":" ","MAREA":" ","LANE":" ","ALLEY":" ","HOUSE_NO":"７２號","E_COORD97":177123.84,"N_COORD97":2552952,"ADDRESS":"光明街７２號","OBJECTID":622562},"geometry":{"x":177123.83999999985,"y":2552952.0000000019}},{"attributes":{"ID":622590,"DIS_CODE":0,"TOWNNAME":"新市區","LI":"新和里","LIN":"13鄰","STREET":"忠孝街","SECT":" ","MAREA":" ","LANE":" ","ALLEY":" ","HOUSE_NO":"７５號","E_COORD97":177667.20999999999,"N_COORD97":2552532.75,"ADDRESS":"忠孝街７５號","OBJECTID":622563},"geometry":{"x":177667.20999999996,"y":2552532.7500000019}},{"attributes":{"ID":622591,"DIS_CODE":0,"TOWNNAME":"新市區","LI":"新和里","LIN":"24鄰","STREET":"永福街","SECT":" ","MAREA":" ","LANE":" ","ALLEY":" ","HOUSE_NO":"１２０號","E_COORD97":177478.37,"N_COORD97":2552738.5,"ADDRESS":"永福街１２０號","OBJECTID":622564},"geometry":{"x":177478.37000000011,"y":2552738.5000000019}},{"attributes":{"ID":622592,"DIS_CODE":0,"TOWNNAME":"新市區","LI":"新市里","LIN":"4鄰","STREET":"華興街","SECT":" ","MAREA":" ","LANE":" ","ALLEY":" ","HOUSE_NO":"１２號","E_COORD97":177789.03,"N_COORD97":2553012.75,"ADDRESS":"華興街１２號","OBJECTID":622565},"geometry":{"x":177789.03000000026,"y":2553012.75}},{"attributes":{"ID":622593,"DIS_CODE":0,"TOWNNAME":"新市區","LI":"新和里","LIN":"25鄰","STREET":"仁愛街","SECT":" ","MAREA":" ","LANE":" ","ALLEY":" ","HOUSE_NO":"２５８號","E_COORD97":177630.62,"N_COORD97":2552887.7799999998,"ADDRESS":"仁愛街２５８號","OBJECTID":622566},"geometry":{"x":177630.62000000011,"y":2552887.7800000012}},{"attributes":{"ID":622594,"DIS_CODE":0,"TOWNNAME":"新市區","LI":"新和里","LIN":"41鄰","STREET":"光明街","SECT":" ","MAREA":" ","LANE":" ","ALLEY":" ","HOUSE_NO":"８２號","E_COORD97":177119.92999999999,"N_COORD97":2552975,"ADDRESS":"光明街８２號","OBJECTID":622567},"geometry":{"x":177119.93000000156,"y":2552975.0000000037}},{"attributes":{"ID":622595,"DIS_CODE":0,"TOWNNAME":"新市區","LI":"新和里","LIN":"5鄰","STREET":"昆明街","SECT":" ","MAREA":" ","LANE":" ","ALLEY":" ","HOUSE_NO":"５６號","E_COORD97":177253.82000000001,"N_COORD97":2552342.75,"ADDRESS":"昆明街５６號","OBJECTID":622568},"geometry":{"x":177253.82000000123,"y":2552342.7500000037}},{"attributes":{"ID":622596,"DIS_CODE":0,"TOWNNAME":"新市區","LI":"新和里","LIN":"39鄰","STREET":"中正路","SECT":" ","MAREA":" ","LANE":" ","ALLEY":" ","HOUSE_NO":"１９９號","E_COORD97":177422.63,"N_COORD97":2552968.5,"ADDRESS":"中正路１９９號","OBJECTID":622569},"geometry":{"x":177422.63000000082,"y":2552968.5000000019}},{"attributes":{"ID":622597,"DIS_CODE":0,"TOWNNAME":"新市區","LI":"新和里","LIN":"41鄰","STREET":"光明街","SECT":" ","MAREA":" ","LANE":" ","ALLEY":" ","HOUSE_NO":"５９之１８號","E_COORD97":177096.42999999999,"N_COORD97":2552796.0499999998,"ADDRESS":"光明街５９之１８號","OBJECTID":622570},"geometry":{"x":177096.43000000063,"y":2552796.0500000026}},{"attributes":{"ID":622598,"DIS_CODE":0,"TOWNNAME":"新市區","LI":"新市里","LIN":"4鄰","STREET":"華興街","SECT":" ","MAREA":" ","LANE":" ","ALLEY":" ","HOUSE_NO":"３０號","E_COORD97":177750.53,"N_COORD97":2553008.25,"ADDRESS":"華興街３０號","OBJECTID":622571},"geometry":{"x":177750.53000000212,"y":2553008.2500000019}},{"attributes":{"ID":622599,"DIS_CODE":0,"TOWNNAME":"新市區","LI":"新和里","LIN":"39鄰","STREET":"中正路","SECT":" ","MAREA":" ","LANE":" ","ALLEY":" ","HOUSE_NO":"２１７號","E_COORD97":177431.48999999999,"N_COORD97":2553029.75,"ADDRESS":"中正路２１７號","OBJECTID":622572},"geometry":{"x":177431.49000000022,"y":2553029.75}},{"attributes":{"ID":622600,"DIS_CODE":0,"TOWNNAME":"新市區","LI":"新和里","LIN":"32鄰","STREET":"華興街","SECT":" ","MAREA":" ","LANE":" ","ALLEY":" ","HOUSE_NO":"２５號","E_COORD97":177762.95000000001,"N_COORD97":2552992,"ADDRESS":"華興街２５號","OBJECTID":622573},"geometry":{"x":177762.95000000205,"y":2552992.0000000037}},{"attributes":{"ID":622601,"DIS_CODE":0,"TOWNNAME":"新市區","LI":"新市里","LIN":"5鄰","STREET":"華興街","SECT":" ","MAREA":" ","LANE":" ","ALLEY":" ","HOUSE_NO":"７０號","E_COORD97":177605.62,"N_COORD97":2552987,"ADDRESS":"華興街７０號","OBJECTID":622574},"geometry":{"x":177605.62000000197,"y":2552987}},{"attributes":{"ID":622602,"DIS_CODE":0,"TOWNNAME":"新市區","LI":"新和里","LIN":"26鄰","STREET":"永福街","SECT":" ","MAREA":" ","LANE":" ","ALLEY":" ","HOUSE_NO":"２０號","E_COORD97":177793.23000000001,"N_COORD97":2552690,"ADDRESS":"永福街２０號","OBJECTID":622575},"geometry":{"x":177793.23000000045,"y":2552690.0000000037}},{"attributes":{"ID":622603,"DIS_CODE":0,"TOWNNAME":"新市區","LI":"新和里","LIN":"26鄰","STREET":"永福街","SECT":" ","MAREA":" ","LANE":" ","ALLEY":" ","HOUSE_NO":"３號","E_COORD97":177815.89000000001,"N_COORD97":2552671,"ADDRESS":"永福街３號","OBJECTID":622576},"geometry":{"x":177815.8900000006,"y":2552671.0000000019}},{"attributes":{"ID":622604,"DIS_CODE":0,"TOWNNAME":"新市區","LI":"新和里","LIN":"40鄰","STREET":"信義街","SECT":" ","MAREA":" ","LANE":" ","ALLEY":" ","HOUSE_NO":"８５號","E_COORD97":177205.54000000001,"N_COORD97":2552957.77,"ADDRESS":"信義街８５號","OBJECTID":622577},"geometry":{"x":177205.54000000004,"y":2552957.7699999996}},{"attributes":{"ID":622605,"DIS_CODE":0,"TOWNNAME":"新市區","LI":"新和里","LIN":"14鄰","STREET":"忠孝街","SECT":" ","MAREA":" ","LANE":" ","ALLEY":" ","HOUSE_NO":"９２號","E_COORD97":177690.62,"N_COORD97":2552569,"ADDRESS":"忠孝街９２號","OBJECTID":622578},"geometry":{"x":177690.62000000104,"y":2552569.0000000019}},{"attributes":{"ID":622606,"DIS_CODE":0,"TOWNNAME":"新市區","LI":"新和里","LIN":"26鄰","STREET":"永福街","SECT":" ","MAREA":" ","LANE":" ","ALLEY":" ","HOUSE_NO":"９號","E_COORD97":177802.42999999999,"N_COORD97":2552674,"ADDRESS":"永福街９號","OBJECTID":622579},"geometry":{"x":177802.4299999997,"y":2552674.0000000019}},{"attributes":{"ID":622607,"DIS_CODE":0,"TOWNNAME":"新市區","LI":"新和里","LIN":"39鄰","STREET":"中正路","SECT":" ","MAREA":" ","LANE":" ","ALLEY":" ","HOUSE_NO":"２２１號","E_COORD97":177433.39999999999,"N_COORD97":2553040.75,"ADDRESS":"中正路２２１號","OBJECTID":622580},"geometry":{"x":177433.4000000013,"y":2553040.7499999981}},{"attributes":{"ID":622608,"DIS_CODE":0,"TOWNNAME":"新市區","LI":"新和里","LIN":"39鄰","STREET":"中正路","SECT":" ","MAREA":" ","LANE":" ","ALLEY":" ","HOUSE_NO":"２２９號","E_COORD97":177435.60000000001,"N_COORD97":2553055.25,"ADDRESS":"中正路２２９號","OBJECTID":622581},"geometry":{"x":177435.59999999963,"y":2553055.2500000019}},{"attributes":{"ID":622609,"DIS_CODE":0,"TOWNNAME":"新市區","LI":"新和里","LIN":"41鄰","STREET":"光明街","SECT":" ","MAREA":" ","LANE":" ","ALLEY":" ","HOUSE_NO":"５７號","E_COORD97":177109.28,"N_COORD97":2552820,"ADDRESS":"光明街５７號","OBJECTID":622582},"geometry":{"x":177109.28000000026,"y":2552820.0000000019}},{"attributes":{"ID":622610,"DIS_CODE":0,"TOWNNAME":"新市區","LI":"新和里","LIN":"38鄰","STREET":"成功街","SECT":" ","MAREA":" ","LANE":" ","ALLEY":" ","HOUSE_NO":"７２號","E_COORD97":177479.76999999999,"N_COORD97":2552794.77,"ADDRESS":"成功街７２號","OBJECTID":622583},"geometry":{"x":177479.76999999955,"y":2552794.7699999996}},{"attributes":{"ID":622611,"DIS_CODE":0,"TOWNNAME":"新市區","LI":"新和里","LIN":"25鄰","STREET":"仁愛街","SECT":" ","MAREA":" ","LANE":" ","ALLEY":" ","HOUSE_NO":"２３４號","E_COORD97":177618.25,"N_COORD97":2552831.0299999998,"ADDRESS":"仁愛街２３４號","OBJECTID":622584},"geometry":{"x":177618.25000000186,"y":2552831.0299999993}},{"attributes":{"ID":622612,"DIS_CODE":0,"TOWNNAME":"新市區","LI":"新和里","LIN":"25鄰","STREET":"仁愛街","SECT":" ","MAREA":" ","LANE":" ","ALLEY":" ","HOUSE_NO":"２４２號","E_COORD97":177621.64999999999,"N_COORD97":2552848.0299999998,"ADDRESS":"仁愛街２４２號","OBJECTID":622585},"geometry":{"x":177621.6500000013,"y":2552848.0299999993}},{"attributes":{"ID":622613,"DIS_CODE":0,"TOWNNAME":"新市區","LI":"新和里","LIN":"38鄰","STREET":"成功街","SECT":" ","MAREA":" ","LANE":" ","ALLEY":" ","HOUSE_NO":"７０號","E_COORD97":177479.57000000001,"N_COORD97":2552789.77,"ADDRESS":"成功街７０號","OBJECTID":622586},"geometry":{"x":177479.57000000123,"y":2552789.7700000014}},{"attributes":{"ID":622614,"DIS_CODE":0,"TOWNNAME":"新市區","LI":"港墘里","LIN":"25鄰","STREET":"南昌街","SECT":" ","MAREA":" ","LANE":" ","ALLEY":" ","HOUSE_NO":"２０號","E_COORD97":178010.35000000001,"N_COORD97":2552879.5,"ADDRESS":"南昌街２０號","OBJECTID":622587},"geometry":{"x":178010.3499999987,"y":2552879.5}},{"attributes":{"ID":622615,"DIS_CODE":0,"TOWNNAME":"新市區","LI":"新市里","LIN":"4鄰","STREET":"華興街","SECT":" ","MAREA":" ","LANE":" ","ALLEY":" ","HOUSE_NO":"２號","E_COORD97":177808.42999999999,"N_COORD97":2553015.5,"ADDRESS":"華興街２號","OBJECTID":622588},"geometry":{"x":177808.43000000063,"y":2553015.5000000037}},{"attributes":{"ID":622616,"DIS_CODE":0,"TOWNNAME":"新市區","LI":"新和里","LIN":"5鄰","STREET":"昆明街","SECT":" ","MAREA":" ","LANE":" ","ALLEY":" ","HOUSE_NO":"３４號","E_COORD97":177307.10000000001,"N_COORD97":2552356,"ADDRESS":"昆明街３４號","OBJECTID":622589},"geometry":{"x":177307.10000000056,"y":2552356.0000000019}},{"attributes":{"ID":622617,"DIS_CODE":0,"TOWNNAME":"新市區","LI":"新和里","LIN":"38鄰","STREET":"成功街","SECT":" ","MAREA":" ","LANE":" ","ALLEY":" ","HOUSE_NO":"２５號","E_COORD97":177453.76999999999,"N_COORD97":2552695.27,"ADDRESS":"成功街２５號","OBJECTID":622590},"geometry":{"x":177453.77000000048,"y":2552695.2700000014}},{"attributes":{"ID":622618,"DIS_CODE":0,"TOWNNAME":"新市區","LI":"新和里","LIN":"20鄰","STREET":"成功街","SECT":" ","MAREA":" ","LANE":" ","ALLEY":" ","HOUSE_NO":"８號","E_COORD97":177458.42999999999,"N_COORD97":2552598.02,"ADDRESS":"成功街８號","OBJECTID":622591},"geometry":{"x":177458.4299999997,"y":2552598.0200000033}},{"attributes":{"ID":622619,"DIS_CODE":0,"TOWNNAME":"新市區","LI":"新和里","LIN":"25鄰","STREET":"仁愛街","SECT":" ","MAREA":" ","LANE":" ","ALLEY":" ","HOUSE_NO":"２７８號","E_COORD97":177638.5,"N_COORD97":2552929.7799999998,"ADDRESS":"仁愛街２７８號","OBJECTID":622592},"geometry":{"x":177638.50000000186,"y":2552929.7800000012}},{"attributes":{"ID":622620,"DIS_CODE":0,"TOWNNAME":"新市區","LI":"新和里","LIN":"36鄰","STREET":"華興街","SECT":" ","MAREA":" ","LANE":" ","ALLEY":" ","HOUSE_NO":"８８號","E_COORD97":177561.54000000001,"N_COORD97":2552981.75,"ADDRESS":"華興街８８號","OBJECTID":622593},"geometry":{"x":177561.54000000004,"y":2552981.75}},{"attributes":{"ID":622621,"DIS_CODE":0,"TOWNNAME":"新市區","LI":"新和里","LIN":"25鄰","STREET":"仁愛街","SECT":" ","MAREA":" ","LANE":" ","ALLEY":" ","HOUSE_NO":"２４４號","E_COORD97":177622.35999999999,"N_COORD97":2552852.7799999998,"ADDRESS":"仁愛街２４４號","OBJECTID":622594},"geometry":{"x":177622.36000000034,"y":2552852.7799999993}},{"attributes":{"ID":622622,"DIS_CODE":0,"TOWNNAME":"新市區","LI":"新和里","LIN":"39鄰","STREET":"中正路","SECT":" ","MAREA":" ","LANE":" ","ALLEY":" ","HOUSE_NO":"２３３號","E_COORD97":177436.60000000001,"N_COORD97":2553062.5,"ADDRESS":"中正路２３３號","OBJECTID":622595},"geometry":{"x":177436.60000000056,"y":2553062.5}},{"attributes":{"ID":622623,"DIS_CODE":0,"TOWNNAME":"新市區","LI":"新和里","LIN":"32鄰","STREET":"華興街","SECT":" ","MAREA":" ","LANE":" ","ALLEY":" ","HOUSE_NO":"９號","E_COORD97":177797.81,"N_COORD97":2552996.5,"ADDRESS":"華興街９號","OBJECTID":622596},"geometry":{"x":177797.81000000052,"y":2552996.5000000019}},{"attributes":{"ID":622624,"DIS_CODE":0,"TOWNNAME":"永康區","LI":"正強里","LIN":"4鄰","STREET":"中正路","SECT":" ","MAREA":" ","LANE":" ","ALLEY":" ","HOUSE_NO":"３１號","E_COORD97":173644.79000000001,"N_COORD97":2547748.3199999998,"ADDRESS":"中正路３１號","OBJECTID":622597},"geometry":{"x":173644.79000000097,"y":2547748.320000004}},{"attributes":{"ID":622625,"DIS_CODE":0,"TOWNNAME":"新市區","LI":"新市里","LIN":"4鄰","STREET":"華興街","SECT":" ","MAREA":" ","LANE":" ","ALLEY":" ","HOUSE_NO":"８號","E_COORD97":177795.78,"N_COORD97":2553013.75,"ADDRESS":"華興街８號","OBJECTID":622598},"geometry":{"x":177795.78000000026,"y":2553013.7500000037}},{"attributes":{"ID":622626,"DIS_CODE":0,"TOWNNAME":"新市區","LI":"新和里","LIN":"5鄰","STREET":"昆明街","SECT":" ","MAREA":" ","LANE":" ","ALLEY":" ","HOUSE_NO":"５２號","E_COORD97":177262.89999999999,"N_COORD97":2552344.75,"ADDRESS":"昆明街５２號","OBJECTID":622599},"geometry":{"x":177262.90000000037,"y":2552344.75}},{"attributes":{"ID":622627,"DIS_CODE":0,"TOWNNAME":"新市區","LI":"新和里","LIN":"20鄰","STREET":"成功街","SECT":" ","MAREA":" ","LANE":" ","ALLEY":" ","HOUSE_NO":"１３號","E_COORD97":177448.07000000001,"N_COORD97":2552611.27,"ADDRESS":"成功街１３號","OBJECTID":622600},"geometry":{"x":177448.0700000003,"y":2552611.2700000014}}]}