{"displayFieldName":"TOWNNAME","fieldAliases":{"ID":"ID","DIS_CODE":"DIS_CODE","TOWNNAME":"TOWNNAME","LI":"LI","LIN":"LIN","STREET":"STREET","SECT":"SECT","MAREA":"MAREA","LANE":"LANE","ALLEY":"ALLEY","HOUSE_NO":"HOUSE_NO","E_COORD97":"E_COORD97","N_COORD97":"N_COORD97","ADDRESS":"ADDRESS","OBJECTID":"OBJECTID"},"geometryType":"esriGeometryPoint","spatialReference":{"wkid":102443,"latestWkid":3826},"fields":[{"name":"ID","type":"esriFieldTypeDouble","alias":"ID"},{"name":"DIS_CODE","type":"esriFieldTypeInteger","alias":"DIS_CODE"},{"name":"TOWNNAME","type":"esriFieldTypeString","alias":"TOWNNAME","length":8},{"name":"LI","type":"esriFieldTypeString","alias":"LI","length":8},{"name":"LIN","type":"esriFieldTypeString","alias":"LIN","length":12},{"name":"STREET","type":"esriFieldTypeString","alias":"STREET","length":20},{"name":"SECT","type":"esriFieldTypeString","alias":"SECT","length":8},{"name":"MAREA","type":"esriFieldTypeString","alias":"MAREA","length":12},{"name":"LANE","type":"esriFieldTypeString","alias":"LANE","length":10},{"name":"ALLEY","type":"esriFieldTypeString","alias":"ALLEY","length":10},{"name":"HOUSE_NO","type":"esriFieldTypeString","alias":"HOUSE_NO","length":20},{"name":"E_COORD97","type":"esriFieldTypeDouble","alias":"E_COORD97"},{"name":"N_COORD97","type":"esriFieldTypeDouble","alias":"N_COORD97"},{"name":"ADDRESS","type":"esriFieldTypeString","alias":"ADDRESS","length":50},{"name":"OBJECTID","type":"esriFieldTypeOID","alias":"OBJECTID"}],"features":[{"attributes":{"ID":578428,"DIS_CODE":0,"TOWNNAME":"歸仁區","LI":"文化里","LIN":"16鄰","STREET":"大德路","SECT":" ","MAREA":" ","LANE":" ","ALLEY":" ","HOUSE_NO":"２０３號","E_COORD97":177241.26999999999,"N_COORD97":2541514.3300000001,"ADDRESS":"大德路２０３號","OBJECTID":578401},"geometry":{"x":177241.27000000142,"y":2541514.3300000019}},{"attributes":{"ID":578429,"DIS_CODE":0,"TOWNNAME":"歸仁區","LI":"後市里","LIN":"16鄰","STREET":"民族南街","SECT":" ","MAREA":" ","LANE":" ","ALLEY":" ","HOUSE_NO":"６號","E_COORD97":177412.44,"N_COORD97":2540762.5499999998,"ADDRESS":"民族南街６號","OBJECTID":578402},"geometry":{"x":177412.44000000134,"y":2540762.5500000007}},{"attributes":{"ID":578430,"DIS_CODE":0,"TOWNNAME":"歸仁區","LI":"後市里","LIN":"16鄰","STREET":"中山路","SECT":"二段","MAREA":" ","LANE":" ","ALLEY":" ","HOUSE_NO":"１０５號","E_COORD97":177380.48999999999,"N_COORD97":2540791.5499999998,"ADDRESS":"中山路二段１０５號","OBJECTID":578403},"geometry":{"x":177380.49000000022,"y":2540791.5500000026}},{"attributes":{"ID":578431,"DIS_CODE":0,"TOWNNAME":"楠西區","LI":"東勢里","LIN":"22鄰","STREET":"民生路","SECT":" ","MAREA":" ","LANE":" ","ALLEY":" ","HOUSE_NO":"１５７號","E_COORD97":197422.39000000001,"N_COORD97":2564356.29,"ADDRESS":"民生路１５７號","OBJECTID":578404},"geometry":{"x":197422.3900000006,"y":2564356.2899999991}},{"attributes":{"ID":578432,"DIS_CODE":0,"TOWNNAME":"歸仁區","LI":"歸仁里","LIN":"16鄰","STREET":"信義北路","SECT":" ","MAREA":" ","LANE":" ","ALLEY":" ","HOUSE_NO":"５４號","E_COORD97":178003.41,"N_COORD97":2540885.6699999999,"ADDRESS":"信義北路５４號","OBJECTID":578405},"geometry":{"x":178003.41000000015,"y":2540885.6699999999}},{"attributes":{"ID":578433,"DIS_CODE":0,"TOWNNAME":"歸仁區","LI":"新厝里","LIN":"16鄰","STREET":"大成路","SECT":" ","MAREA":" ","LANE":" ","ALLEY":" ","HOUSE_NO":"６０號","E_COORD97":177616.28,"N_COORD97":2540396,"ADDRESS":"大成路６０號","OBJECTID":578406},"geometry":{"x":177616.28000000026,"y":2540396}},{"attributes":{"ID":578434,"DIS_CODE":0,"TOWNNAME":"歸仁區","LI":"新厝里","LIN":"16鄰","STREET":"大成路","SECT":" ","MAREA":" ","LANE":" ","ALLEY":" ","HOUSE_NO":"５２號","E_COORD97":177594.78,"N_COORD97":2540396,"ADDRESS":"大成路５２號","OBJECTID":578407},"geometry":{"x":177594.78000000119,"y":2540396}},{"attributes":{"ID":578435,"DIS_CODE":0,"TOWNNAME":"歸仁區","LI":"新厝里","LIN":"16鄰","STREET":"大成路","SECT":" ","MAREA":" ","LANE":" ","ALLEY":" ","HOUSE_NO":"５８號","E_COORD97":177613.17999999999,"N_COORD97":2540398,"ADDRESS":"大成路５８號","OBJECTID":578408},"geometry":{"x":177613.17999999877,"y":2540398.0000000019}},{"attributes":{"ID":578436,"DIS_CODE":0,"TOWNNAME":"歸仁區","LI":"新厝里","LIN":"16鄰","STREET":"大成路","SECT":" ","MAREA":" ","LANE":" ","ALLEY":" ","HOUSE_NO":"２８號","E_COORD97":177568.76999999999,"N_COORD97":2540440.5899999999,"ADDRESS":"大成路２８號","OBJECTID":578409},"geometry":{"x":177568.77000000048,"y":2540440.5900000017}},{"attributes":{"ID":578437,"DIS_CODE":0,"TOWNNAME":"歸仁區","LI":"媽廟里","LIN":"16鄰","STREET":"媽廟二街","SECT":" ","MAREA":" ","LANE":" ","ALLEY":" ","HOUSE_NO":"３７號","E_COORD97":177746.13,"N_COORD97":2543736.7200000002,"ADDRESS":"媽廟二街３７號","OBJECTID":578410},"geometry":{"x":177746.13000000175,"y":2543736.7200000025}},{"attributes":{"ID":578438,"DIS_CODE":0,"TOWNNAME":"歸仁區","LI":"新厝里","LIN":"16鄰","STREET":"大成路","SECT":" ","MAREA":" ","LANE":" ","ALLEY":" ","HOUSE_NO":"３４號","E_COORD97":177583.07000000001,"N_COORD97":2540427.5899999999,"ADDRESS":"大成路３４號","OBJECTID":578411},"geometry":{"x":177583.07000000123,"y":2540427.5900000017}},{"attributes":{"ID":578439,"DIS_CODE":0,"TOWNNAME":"歸仁區","LI":"新厝里","LIN":"16鄰","STREET":"大成路","SECT":" ","MAREA":" ","LANE":" ","ALLEY":" ","HOUSE_NO":"３６號","E_COORD97":177586.17000000001,"N_COORD97":2540423.5899999999,"ADDRESS":"大成路３６號","OBJECTID":578412},"geometry":{"x":177586.16999999993,"y":2540423.5900000017}},{"attributes":{"ID":578440,"DIS_CODE":0,"TOWNNAME":"歸仁區","LI":"新厝里","LIN":"16鄰","STREET":"大成路","SECT":" ","MAREA":" ","LANE":" ","ALLEY":" ","HOUSE_NO":"５４號","E_COORD97":177607.07999999999,"N_COORD97":2540404,"ADDRESS":"大成路５４號","OBJECTID":578413},"geometry":{"x":177607.08000000007,"y":2540404.0000000019}},{"attributes":{"ID":578441,"DIS_CODE":0,"TOWNNAME":"歸仁區","LI":"歸仁里","LIN":"16鄰","STREET":"信義北路","SECT":" ","MAREA":" ","LANE":" ","ALLEY":" ","HOUSE_NO":"８０號","E_COORD97":177998.20999999999,"N_COORD97":2540969.6800000002,"ADDRESS":"信義北路８０號","OBJECTID":578414},"geometry":{"x":177998.21000000183,"y":2540969.6799999997}},{"attributes":{"ID":578442,"DIS_CODE":0,"TOWNNAME":"歸仁區","LI":"歸南里","LIN":"16鄰","STREET":"民生十一街","SECT":" ","MAREA":" ","LANE":" ","ALLEY":" ","HOUSE_NO":"４７號","E_COORD97":176229.35999999999,"N_COORD97":2539742.25,"ADDRESS":"民生十一街４７號","OBJECTID":578415},"geometry":{"x":176229.3599999994,"y":2539742.25}},{"attributes":{"ID":578443,"DIS_CODE":0,"TOWNNAME":"歸仁區","LI":"歸南里","LIN":"16鄰","STREET":"民生十一街","SECT":" ","MAREA":" ","LANE":" ","ALLEY":" ","HOUSE_NO":"５１號","E_COORD97":176241.66,"N_COORD97":2539746.25,"ADDRESS":"民生十一街５１號","OBJECTID":578416},"geometry":{"x":176241.66000000015,"y":2539746.25}},{"attributes":{"ID":578444,"DIS_CODE":0,"TOWNNAME":"歸仁區","LI":"新厝里","LIN":"16鄰","STREET":"大成路","SECT":" ","MAREA":" ","LANE":" ","ALLEY":" ","HOUSE_NO":"５０號","E_COORD97":177592.67999999999,"N_COORD97":2540400,"ADDRESS":"大成路５０號","OBJECTID":578417},"geometry":{"x":177592.6799999997,"y":2540400.0000000037}},{"attributes":{"ID":578445,"DIS_CODE":0,"TOWNNAME":"歸仁區","LI":"歸仁里","LIN":"16鄰","STREET":"信義北路","SECT":" ","MAREA":" ","LANE":" ","ALLEY":" ","HOUSE_NO":"７０號","E_COORD97":178007.70999999999,"N_COORD97":2540924.6699999999,"ADDRESS":"信義北路７０號","OBJECTID":578418},"geometry":{"x":178007.70999999996,"y":2540924.6700000018}},{"attributes":{"ID":578446,"DIS_CODE":0,"TOWNNAME":"歸仁區","LI":"歸南里","LIN":"16鄰","STREET":"民生十一街","SECT":" ","MAREA":" ","LANE":" ","ALLEY":" ","HOUSE_NO":"４９號","E_COORD97":176235.45999999999,"N_COORD97":2539743.25,"ADDRESS":"民生十一街４９號","OBJECTID":578419},"geometry":{"x":176235.46000000089,"y":2539743.25}},{"attributes":{"ID":578447,"DIS_CODE":0,"TOWNNAME":"歸仁區","LI":"歸仁里","LIN":"16鄰","STREET":"信義北路","SECT":" ","MAREA":" ","LANE":" ","ALLEY":" ","HOUSE_NO":"７４號","E_COORD97":178002.20999999999,"N_COORD97":2540950.6800000002,"ADDRESS":"信義北路７４號","OBJECTID":578420},"geometry":{"x":178002.21000000089,"y":2540950.6799999997}},{"attributes":{"ID":578448,"DIS_CODE":0,"TOWNNAME":"歸仁區","LI":"崙頂里","LIN":"16鄰","STREET":"崙頂一街","SECT":" ","MAREA":" ","LANE":" ","ALLEY":" ","HOUSE_NO":"３號","E_COORD97":177899.16,"N_COORD97":2539986.1099999999,"ADDRESS":"崙頂一街３號","OBJECTID":578421},"geometry":{"x":177899.16000000108,"y":2539986.1100000013}},{"attributes":{"ID":578449,"DIS_CODE":0,"TOWNNAME":"歸仁區","LI":"歸仁里","LIN":"16鄰","STREET":"信義北路","SECT":" ","MAREA":" ","LANE":" ","ALLEY":" ","HOUSE_NO":"５６號","E_COORD97":178003.41,"N_COORD97":2540890.6699999999,"ADDRESS":"信義北路５６號","OBJECTID":578422},"geometry":{"x":178003.41000000015,"y":2540890.6700000018}},{"attributes":{"ID":578450,"DIS_CODE":0,"TOWNNAME":"歸仁區","LI":"媽廟里","LIN":"16鄰","STREET":"媽廟二街","SECT":" ","MAREA":" ","LANE":" ","ALLEY":" ","HOUSE_NO":"４３號","E_COORD97":177762.53,"N_COORD97":2543736.7200000002,"ADDRESS":"媽廟二街４３號","OBJECTID":578423},"geometry":{"x":177762.53000000119,"y":2543736.7200000025}},{"attributes":{"ID":578451,"DIS_CODE":0,"TOWNNAME":"歸仁區","LI":"歸仁里","LIN":"16鄰","STREET":"信義北路","SECT":" ","MAREA":" ","LANE":" ","ALLEY":" ","HOUSE_NO":"６４號","E_COORD97":178003.51000000001,"N_COORD97":2540905.6699999999,"ADDRESS":"信義北路６４號","OBJECTID":578424},"geometry":{"x":178003.51000000071,"y":2540905.6699999999}},{"attributes":{"ID":578452,"DIS_CODE":0,"TOWNNAME":"歸仁區","LI":"歸南里","LIN":"16鄰","STREET":"民生十一街","SECT":" ","MAREA":" ","LANE":" ","ALLEY":" ","HOUSE_NO":"３７號","E_COORD97":176196.45999999999,"N_COORD97":2539737.25,"ADDRESS":"民生十一街３７號","OBJECTID":578425},"geometry":{"x":176196.46000000089,"y":2539737.2500000037}},{"attributes":{"ID":578453,"DIS_CODE":0,"TOWNNAME":"歸仁區","LI":"新厝里","LIN":"16鄰","STREET":"大成二街","SECT":" ","MAREA":" ","LANE":" ","ALLEY":" ","HOUSE_NO":"４８號","E_COORD97":177568.39000000001,"N_COORD97":2540355.3999999999,"ADDRESS":"大成二街４８號","OBJECTID":578426},"geometry":{"x":177568.3900000006,"y":2540355.4000000004}},{"attributes":{"ID":578454,"DIS_CODE":0,"TOWNNAME":"東區","LI":"虎尾里","LIN":"37鄰","STREET":"東門路","SECT":"三段","MAREA":" ","LANE":" ","ALLEY":" ","HOUSE_NO":"２５９號地下層","E_COORD97":171686.42000000001,"N_COORD97":2541912.02,"ADDRESS":"東門路三段２５９號地下層","OBJECTID":578427},"geometry":{"x":171686.41999999993,"y":2541912.0200000014}},{"attributes":{"ID":578455,"DIS_CODE":0,"TOWNNAME":"東區","LI":"虎尾里","LIN":"37鄰","STREET":"東門路","SECT":"三段","MAREA":" ","LANE":" ","ALLEY":" ","HOUSE_NO":"２５９號地下層之１","E_COORD97":171686.42000000001,"N_COORD97":2541912.02,"ADDRESS":"東門路三段２５９號地下層之１","OBJECTID":578428},"geometry":{"x":171686.41999999993,"y":2541912.0200000014}},{"attributes":{"ID":578456,"DIS_CODE":0,"TOWNNAME":"東區","LI":"虎尾里","LIN":"37鄰","STREET":"東門路","SECT":"三段","MAREA":" ","LANE":" ","ALLEY":" ","HOUSE_NO":"２５９號地下層之２","E_COORD97":171686.42000000001,"N_COORD97":2541912.02,"ADDRESS":"東門路三段２５９號地下層之２","OBJECTID":578429},"geometry":{"x":171686.41999999993,"y":2541912.0200000014}},{"attributes":{"ID":578457,"DIS_CODE":0,"TOWNNAME":"東區","LI":"虎尾里","LIN":"37鄰","STREET":"東門路","SECT":"三段","MAREA":" ","LANE":" ","ALLEY":" ","HOUSE_NO":"２５９號地下層之３","E_COORD97":171686.42000000001,"N_COORD97":2541912.02,"ADDRESS":"東門路三段２５９號地下層之３","OBJECTID":578430},"geometry":{"x":171686.41999999993,"y":2541912.0200000014}},{"attributes":{"ID":578458,"DIS_CODE":0,"TOWNNAME":"東區","LI":"虎尾里","LIN":"37鄰","STREET":"東門路","SECT":"三段","MAREA":" ","LANE":" ","ALLEY":" ","HOUSE_NO":"２５９號地下層之４","E_COORD97":171686.42000000001,"N_COORD97":2541912.02,"ADDRESS":"東門路三段２５９號地下層之４","OBJECTID":578431},"geometry":{"x":171686.41999999993,"y":2541912.0200000014}},{"attributes":{"ID":578459,"DIS_CODE":0,"TOWNNAME":"東區","LI":"虎尾里","LIN":"37鄰","STREET":"東門路","SECT":"三段","MAREA":" ","LANE":" ","ALLEY":" ","HOUSE_NO":"２５９號地下層之５","E_COORD97":171686.42000000001,"N_COORD97":2541912.02,"ADDRESS":"東門路三段２５９號地下層之５","OBJECTID":578432},"geometry":{"x":171686.41999999993,"y":2541912.0200000014}},{"attributes":{"ID":578460,"DIS_CODE":0,"TOWNNAME":"歸仁區","LI":"新厝里","LIN":"16鄰","STREET":"大成二街","SECT":" ","MAREA":" ","LANE":" ","ALLEY":" ","HOUSE_NO":"３２號","E_COORD97":177573.69,"N_COORD97":2540381.3999999999,"ADDRESS":"大成二街３２號","OBJECTID":578433},"geometry":{"x":177573.69000000134,"y":2540381.4000000022}},{"attributes":{"ID":578461,"DIS_CODE":0,"TOWNNAME":"歸仁區","LI":"歸仁里","LIN":"16鄰","STREET":"信義北路","SECT":" ","MAREA":" ","LANE":" ","ALLEY":" ","HOUSE_NO":"５８號","E_COORD97":178003.51000000001,"N_COORD97":2540893.6699999999,"ADDRESS":"信義北路５８號","OBJECTID":578434},"geometry":{"x":178003.51000000071,"y":2540893.6700000037}},{"attributes":{"ID":578462,"DIS_CODE":0,"TOWNNAME":"歸仁區","LI":"歸南里","LIN":"16鄰","STREET":"民生十一街","SECT":" ","MAREA":" ","LANE":" ","ALLEY":" ","HOUSE_NO":"３３號","E_COORD97":176184.16,"N_COORD97":2539734.25,"ADDRESS":"民生十一街３３號","OBJECTID":578435},"geometry":{"x":176184.16000000015,"y":2539734.2500000019}},{"attributes":{"ID":578463,"DIS_CODE":0,"TOWNNAME":"歸仁區","LI":"新厝里","LIN":"16鄰","STREET":"大成路","SECT":" ","MAREA":" ","LANE":" ","ALLEY":" ","HOUSE_NO":"３２號","E_COORD97":177580.07000000001,"N_COORD97":2540429.5899999999,"ADDRESS":"大成路３２號","OBJECTID":578436},"geometry":{"x":177580.0700000003,"y":2540429.5900000036}},{"attributes":{"ID":578464,"DIS_CODE":0,"TOWNNAME":"歸仁區","LI":"新厝里","LIN":"16鄰","STREET":"大成路","SECT":" ","MAREA":" ","LANE":" ","ALLEY":" ","HOUSE_NO":"４０號","E_COORD97":177592.26999999999,"N_COORD97":2540417.5899999999,"ADDRESS":"大成路４０號","OBJECTID":578437},"geometry":{"x":177592.27000000142,"y":2540417.5900000017}},{"attributes":{"ID":578465,"DIS_CODE":0,"TOWNNAME":"歸仁區","LI":"新厝里","LIN":"16鄰","STREET":"大成路","SECT":" ","MAREA":" ","LANE":" ","ALLEY":" ","HOUSE_NO":"３０號","E_COORD97":177576.97,"N_COORD97":2540432.5899999999,"ADDRESS":"大成路３０號","OBJECTID":578438},"geometry":{"x":177576.96999999974,"y":2540432.5899999999}},{"attributes":{"ID":578466,"DIS_CODE":0,"TOWNNAME":"歸仁區","LI":"媽廟里","LIN":"16鄰","STREET":"媽廟二街","SECT":" ","MAREA":" ","LANE":" ","ALLEY":" ","HOUSE_NO":"３５號","E_COORD97":177735.82999999999,"N_COORD97":2543735.7200000002,"ADDRESS":"媽廟二街３５號","OBJECTID":578439},"geometry":{"x":177735.83000000007,"y":2543735.7200000025}},{"attributes":{"ID":578467,"DIS_CODE":0,"TOWNNAME":"歸仁區","LI":"新厝里","LIN":"16鄰","STREET":"大成二街","SECT":" ","MAREA":" ","LANE":" ","ALLEY":" ","HOUSE_NO":"３４號","E_COORD97":177563.39000000001,"N_COORD97":2540376.3999999999,"ADDRESS":"大成二街３４號","OBJECTID":578440},"geometry":{"x":177563.3900000006,"y":2540376.4000000004}},{"attributes":{"ID":578468,"DIS_CODE":0,"TOWNNAME":"歸仁區","LI":"許厝里","LIN":"16鄰","STREET":"中山路","SECT":"一段","MAREA":" ","LANE":" ","ALLEY":" ","HOUSE_NO":"３３８號","E_COORD97":178386.70999999999,"N_COORD97":2540692.25,"ADDRESS":"中山路一段３３８號","OBJECTID":578441},"geometry":{"x":178386.71000000089,"y":2540692.25}},{"attributes":{"ID":578469,"DIS_CODE":0,"TOWNNAME":"歸仁區","LI":"崙頂里","LIN":"16鄰","STREET":"崙頂一街","SECT":" ","MAREA":" ","LANE":" ","ALLEY":" ","HOUSE_NO":"１５號","E_COORD97":177934.31,"N_COORD97":2539996.1099999999,"ADDRESS":"崙頂一街１５號","OBJECTID":578442},"geometry":{"x":177934.31000000145,"y":2539996.1100000013}},{"attributes":{"ID":578470,"DIS_CODE":0,"TOWNNAME":"歸仁區","LI":"許厝里","LIN":"16鄰","STREET":"忠孝北路","SECT":" ","MAREA":" ","LANE":" ","ALLEY":" ","HOUSE_NO":"５９號","E_COORD97":178412.22,"N_COORD97":2540772.25,"ADDRESS":"忠孝北路５９號","OBJECTID":578443},"geometry":{"x":178412.22000000067,"y":2540772.2500000019}},{"attributes":{"ID":578471,"DIS_CODE":0,"TOWNNAME":"歸仁區","LI":"許厝里","LIN":"16鄰","STREET":"中山路","SECT":"一段","MAREA":" ","LANE":" ","ALLEY":" ","HOUSE_NO":"３２４號","E_COORD97":178417.41,"N_COORD97":2540689.25,"ADDRESS":"中山路一段３２４號","OBJECTID":578444},"geometry":{"x":178417.41000000201,"y":2540689.25}},{"attributes":{"ID":578472,"DIS_CODE":0,"TOWNNAME":"歸仁區","LI":"許厝里","LIN":"16鄰","STREET":"中山路","SECT":"一段","MAREA":" ","LANE":" ","ALLEY":" ","HOUSE_NO":"３２８號","E_COORD97":178408.20999999999,"N_COORD97":2540690.25,"ADDRESS":"中山路一段３２８號","OBJECTID":578445},"geometry":{"x":178408.20999999996,"y":2540690.2500000019}},{"attributes":{"ID":578473,"DIS_CODE":0,"TOWNNAME":"東區","LI":"虎尾里","LIN":"37鄰","STREET":"東門路","SECT":"三段","MAREA":" ","LANE":" ","ALLEY":" ","HOUSE_NO":"２５９號地下層之６","E_COORD97":171686.42000000001,"N_COORD97":2541912.02,"ADDRESS":"東門路三段２５９號地下層之６","OBJECTID":578446},"geometry":{"x":171686.41999999993,"y":2541912.0200000014}},{"attributes":{"ID":578474,"DIS_CODE":0,"TOWNNAME":"東區","LI":"虎尾里","LIN":"37鄰","STREET":"東門路","SECT":"三段","MAREA":" ","LANE":" ","ALLEY":" ","HOUSE_NO":"２５９號地下層之７","E_COORD97":171686.42000000001,"N_COORD97":2541912.02,"ADDRESS":"東門路三段２５９號地下層之７","OBJECTID":578447},"geometry":{"x":171686.41999999993,"y":2541912.0200000014}},{"attributes":{"ID":578475,"DIS_CODE":0,"TOWNNAME":"歸仁區","LI":"看西里","LIN":"16鄰","STREET":"成功路","SECT":"一段","MAREA":" ","LANE":" ","ALLEY":" ","HOUSE_NO":"３０２號","E_COORD97":178291.70999999999,"N_COORD97":2539995.1200000001,"ADDRESS":"成功路一段３０２號","OBJECTID":578448},"geometry":{"x":178291.71000000089,"y":2539995.120000001}},{"attributes":{"ID":578476,"DIS_CODE":0,"TOWNNAME":"歸仁區","LI":"看西里","LIN":"16鄰","STREET":"成功路","SECT":"一段","MAREA":" ","LANE":" ","ALLEY":" ","HOUSE_NO":"３００號","E_COORD97":178295.81,"N_COORD97":2539998.1200000001,"ADDRESS":"成功路一段３００號","OBJECTID":578449},"geometry":{"x":178295.81000000052,"y":2539998.1200000029}},{"attributes":{"ID":578477,"DIS_CODE":0,"TOWNNAME":"歸仁區","LI":"許厝里","LIN":"16鄰","STREET":"中山路","SECT":"一段","MAREA":" ","LANE":" ","ALLEY":" ","HOUSE_NO":"３３４號","E_COORD97":178395.91,"N_COORD97":2540692.25,"ADDRESS":"中山路一段３３４號","OBJECTID":578450},"geometry":{"x":178395.91000000108,"y":2540692.25}},{"attributes":{"ID":578478,"DIS_CODE":0,"TOWNNAME":"歸仁區","LI":"許厝里","LIN":"16鄰","STREET":"忠孝北路","SECT":" ","MAREA":" ","LANE":" ","ALLEY":" ","HOUSE_NO":"６９號","E_COORD97":178397.92000000001,"N_COORD97":2540792.25,"ADDRESS":"忠孝北路６９號","OBJECTID":578451},"geometry":{"x":178397.91999999993,"y":2540792.2500000019}},{"attributes":{"ID":578479,"DIS_CODE":0,"TOWNNAME":"歸仁區","LI":"許厝里","LIN":"16鄰","STREET":"中山路","SECT":"一段","MAREA":" ","LANE":" ","ALLEY":" ","HOUSE_NO":"３２６號","E_COORD97":178413.31,"N_COORD97":2540690.25,"ADDRESS":"中山路一段３２６號","OBJECTID":578452},"geometry":{"x":178413.30999999959,"y":2540690.2500000019}},{"attributes":{"ID":578480,"DIS_CODE":0,"TOWNNAME":"歸仁區","LI":"許厝里","LIN":"16鄰","STREET":"中山路","SECT":"一段","MAREA":" ","LANE":" ","ALLEY":" ","HOUSE_NO":"３３０號","E_COORD97":178404.10999999999,"N_COORD97":2540691.25,"ADDRESS":"中山路一段３３０號","OBJECTID":578453},"geometry":{"x":178404.11000000034,"y":2540691.2500000019}},{"attributes":{"ID":578481,"DIS_CODE":0,"TOWNNAME":"歸仁區","LI":"南興里","LIN":"16鄰","STREET":"南興一街","SECT":" ","MAREA":" ","LANE":" ","ALLEY":" ","HOUSE_NO":"４９號","E_COORD97":175756.69,"N_COORD97":2541343.25,"ADDRESS":"南興一街４９號","OBJECTID":578454},"geometry":{"x":175756.69000000134,"y":2541343.25}},{"attributes":{"ID":578482,"DIS_CODE":0,"TOWNNAME":"歸仁區","LI":"南興里","LIN":"16鄰","STREET":"南興一街","SECT":" ","MAREA":" ","LANE":" ","ALLEY":" ","HOUSE_NO":"６６號","E_COORD97":175779.19,"N_COORD97":2541330.25,"ADDRESS":"南興一街６６號","OBJECTID":578455},"geometry":{"x":175779.19000000041,"y":2541330.25}},{"attributes":{"ID":578483,"DIS_CODE":0,"TOWNNAME":"歸仁區","LI":"南興里","LIN":"16鄰","STREET":"南興一街","SECT":" ","MAREA":" ","LANE":" ","ALLEY":" ","HOUSE_NO":"５５號","E_COORD97":175771.09,"N_COORD97":2541343.25,"ADDRESS":"南興一街５５號","OBJECTID":578456},"geometry":{"x":175771.08999999985,"y":2541343.25}},{"attributes":{"ID":578484,"DIS_CODE":0,"TOWNNAME":"歸仁區","LI":"後市里","LIN":"16鄰","STREET":"中山路","SECT":"二段","MAREA":" ","LANE":" ","ALLEY":" ","HOUSE_NO":"１２３號","E_COORD97":177346.69,"N_COORD97":2540796.5499999998,"ADDRESS":"中山路二段１２３號","OBJECTID":578457},"geometry":{"x":177346.69000000134,"y":2540796.5500000007}},{"attributes":{"ID":578485,"DIS_CODE":0,"TOWNNAME":"歸仁區","LI":"後市里","LIN":"16鄰","STREET":"中山路","SECT":"二段","MAREA":" ","LANE":" ","ALLEY":" ","HOUSE_NO":"１２１號","E_COORD97":177350.79000000001,"N_COORD97":2540794.5499999998,"ADDRESS":"中山路二段１２１號","OBJECTID":578458},"geometry":{"x":177350.79000000097,"y":2540794.5500000026}},{"attributes":{"ID":578486,"DIS_CODE":0,"TOWNNAME":"歸仁區","LI":"後市里","LIN":"16鄰","STREET":"中山路","SECT":"二段","MAREA":" ","LANE":" ","ALLEY":" ","HOUSE_NO":"１１９號","E_COORD97":177354.89000000001,"N_COORD97":2540794.5499999998,"ADDRESS":"中山路二段１１９號","OBJECTID":578459},"geometry":{"x":177354.8900000006,"y":2540794.5500000026}},{"attributes":{"ID":578487,"DIS_CODE":0,"TOWNNAME":"歸仁區","LI":"看東里","LIN":"16鄰","STREET":"中山路","SECT":"一段","MAREA":" ","LANE":" ","ALLEY":" ","HOUSE_NO":"１１號","E_COORD97":179588.53,"N_COORD97":2540298.5699999998,"ADDRESS":"中山路一段１１號","OBJECTID":578460},"geometry":{"x":179588.53000000119,"y":2540298.5700000022}},{"attributes":{"ID":578488,"DIS_CODE":0,"TOWNNAME":"新營區","LI":"新北里","LIN":"16鄰","STREET":"南新街","SECT":" ","MAREA":" ","LANE":" ","ALLEY":" ","HOUSE_NO":"９２號","E_COORD97":179264.78,"N_COORD97":2578873.0099999998,"ADDRESS":"南新街９２號","OBJECTID":578461},"geometry":{"x":179264.78000000119,"y":2578873.0099999998}},{"attributes":{"ID":578489,"DIS_CODE":0,"TOWNNAME":"歸仁區","LI":"後市里","LIN":"16鄰","STREET":"民族南街","SECT":" ","MAREA":" ","LANE":" ","ALLEY":" ","HOUSE_NO":"１０號","E_COORD97":177410.59,"N_COORD97":2540753.5499999998,"ADDRESS":"民族南街１０號","OBJECTID":578462},"geometry":{"x":177410.59000000171,"y":2540753.5500000026}},{"attributes":{"ID":578490,"DIS_CODE":0,"TOWNNAME":"歸仁區","LI":"後市里","LIN":"16鄰","STREET":"中山路","SECT":"二段","MAREA":" ","LANE":" ","ALLEY":" ","HOUSE_NO":"１１１號","E_COORD97":177368.19,"N_COORD97":2540792.5499999998,"ADDRESS":"中山路二段１１１號","OBJECTID":578463},"geometry":{"x":177368.19000000227,"y":2540792.5500000007}},{"attributes":{"ID":578491,"DIS_CODE":0,"TOWNNAME":"歸仁區","LI":"後市里","LIN":"16鄰","STREET":"民族南街","SECT":" ","MAREA":" ","LANE":" ","ALLEY":" ","HOUSE_NO":"８號","E_COORD97":177411.34,"N_COORD97":2540758.5499999998,"ADDRESS":"民族南街８號","OBJECTID":578464},"geometry":{"x":177411.34000000078,"y":2540758.5500000007}},{"attributes":{"ID":578492,"DIS_CODE":0,"TOWNNAME":"歸仁區","LI":"後市里","LIN":"16鄰","STREET":"中山路","SECT":"二段","MAREA":" ","LANE":" ","ALLEY":" ","HOUSE_NO":"１０３號","E_COORD97":177384.59,"N_COORD97":2540791.5499999998,"ADDRESS":"中山路二段１０３號","OBJECTID":578465},"geometry":{"x":177384.58999999985,"y":2540791.5500000026}},{"attributes":{"ID":578493,"DIS_CODE":0,"TOWNNAME":"歸仁區","LI":"後市里","LIN":"16鄰","STREET":"中山路","SECT":"二段","MAREA":" ","LANE":" ","ALLEY":" ","HOUSE_NO":"１０９號","E_COORD97":177372.29000000001,"N_COORD97":2540792.5499999998,"ADDRESS":"中山路二段１０９號","OBJECTID":578466},"geometry":{"x":177372.2900000019,"y":2540792.5500000007}},{"attributes":{"ID":578494,"DIS_CODE":0,"TOWNNAME":"歸仁區","LI":"南興里","LIN":"16鄰","STREET":"南興一街","SECT":" ","MAREA":" ","LANE":" ","ALLEY":" ","HOUSE_NO":"５３號","E_COORD97":175765.98999999999,"N_COORD97":2541343.25,"ADDRESS":"南興一街５３號","OBJECTID":578467},"geometry":{"x":175765.99000000115,"y":2541343.25}},{"attributes":{"ID":578495,"DIS_CODE":0,"TOWNNAME":"歸仁區","LI":"後市里","LIN":"16鄰","STREET":"中山路","SECT":"二段","MAREA":" ","LANE":" ","ALLEY":" ","HOUSE_NO":"１０１號","E_COORD97":177388.69,"N_COORD97":2540790.5499999998,"ADDRESS":"中山路二段１０１號","OBJECTID":578468},"geometry":{"x":177388.69000000134,"y":2540790.5500000026}},{"attributes":{"ID":578496,"DIS_CODE":0,"TOWNNAME":"歸仁區","LI":"後市里","LIN":"16鄰","STREET":"中山路","SECT":"二段","MAREA":" ","LANE":" ","ALLEY":" ","HOUSE_NO":"１０７號","E_COORD97":177376.39000000001,"N_COORD97":2540791.5499999998,"ADDRESS":"中山路二段１０７號","OBJECTID":578469},"geometry":{"x":177376.3900000006,"y":2540791.5500000026}},{"attributes":{"ID":578497,"DIS_CODE":0,"TOWNNAME":"歸仁區","LI":"南興里","LIN":"16鄰","STREET":"南興一街","SECT":" ","MAREA":" ","LANE":" ","ALLEY":" ","HOUSE_NO":"５８號","E_COORD97":175762.79000000001,"N_COORD97":2541331.25,"ADDRESS":"南興一街５８號","OBJECTID":578470},"geometry":{"x":175762.79000000004,"y":2541331.2500000019}},{"attributes":{"ID":578498,"DIS_CODE":0,"TOWNNAME":"歸仁區","LI":"歸南里","LIN":"16鄰","STREET":"民生十一街","SECT":" ","MAREA":" ","LANE":" ","ALLEY":" ","HOUSE_NO":"３９號","E_COORD97":176211.54000000001,"N_COORD97":2539739.29,"ADDRESS":"民生十一街３９號","OBJECTID":578471},"geometry":{"x":176211.54000000097,"y":2539739.2900000028}},{"attributes":{"ID":578499,"DIS_CODE":0,"TOWNNAME":"歸仁區","LI":"文化里","LIN":"16鄰","STREET":"大德路","SECT":" ","MAREA":" ","LANE":" ","ALLEY":" ","HOUSE_NO":"２０９號","E_COORD97":177228.23000000001,"N_COORD97":2541498.25,"ADDRESS":"大德路２０９號","OBJECTID":578472},"geometry":{"x":177228.23000000045,"y":2541498.2500000019}},{"attributes":{"ID":578500,"DIS_CODE":0,"TOWNNAME":"歸仁區","LI":"文化里","LIN":"16鄰","STREET":"大德路","SECT":" ","MAREA":" ","LANE":" ","ALLEY":" ","HOUSE_NO":"１９９號","E_COORD97":177245.73000000001,"N_COORD97":2541511.25,"ADDRESS":"大德路１９９號","OBJECTID":578473},"geometry":{"x":177245.73000000045,"y":2541511.2500000019}},{"attributes":{"ID":578501,"DIS_CODE":0,"TOWNNAME":"新營區","LI":"新北里","LIN":"16鄰","STREET":"南新街","SECT":" ","MAREA":" ","LANE":" ","ALLEY":" ","HOUSE_NO":"８２號","E_COORD97":179273.23000000001,"N_COORD97":2578906.1899999999,"ADDRESS":"南新街８２號","OBJECTID":578474},"geometry":{"x":179273.22999999952,"y":2578906.1900000032}},{"attributes":{"ID":578502,"DIS_CODE":0,"TOWNNAME":"新營區","LI":"新北里","LIN":"16鄰","STREET":"南新街","SECT":" ","MAREA":" ","LANE":" ","ALLEY":" ","HOUSE_NO":"８８號","E_COORD97":179274.10000000001,"N_COORD97":2578876.27,"ADDRESS":"南新街８８號","OBJECTID":578475},"geometry":{"x":179274.10000000056,"y":2578876.2700000014}},{"attributes":{"ID":578503,"DIS_CODE":0,"TOWNNAME":"新營區","LI":"新北里","LIN":"16鄰","STREET":"南新街","SECT":" ","MAREA":" ","LANE":" ","ALLEY":" ","HOUSE_NO":"７２號","E_COORD97":179292.51000000001,"N_COORD97":2578882.8399999999,"ADDRESS":"南新街７２號","OBJECTID":578476},"geometry":{"x":179292.50999999978,"y":2578882.8400000017}},{"attributes":{"ID":578504,"DIS_CODE":0,"TOWNNAME":"新營區","LI":"新北里","LIN":"16鄰","STREET":"南新街","SECT":" ","MAREA":" ","LANE":" ","ALLEY":" ","HOUSE_NO":"７８號","E_COORD97":179282.39999999999,"N_COORD97":2578908.3599999999,"ADDRESS":"南新街７８號","OBJECTID":578477},"geometry":{"x":179282.40000000224,"y":2578908.3600000031}},{"attributes":{"ID":578505,"DIS_CODE":0,"TOWNNAME":"新營區","LI":"新北里","LIN":"16鄰","STREET":"南新街","SECT":" ","MAREA":" ","LANE":" ","ALLEY":" ","HOUSE_NO":"７４號","E_COORD97":179288.42000000001,"N_COORD97":2578881.75,"ADDRESS":"南新街７４號","OBJECTID":578478},"geometry":{"x":179288.42000000179,"y":2578881.75}},{"attributes":{"ID":578506,"DIS_CODE":0,"TOWNNAME":"新營區","LI":"南紙里","LIN":"16鄰","STREET":"南紙街","SECT":" ","MAREA":" ","LANE":" ","ALLEY":" ","HOUSE_NO":"１６０號","E_COORD97":177779.42999999999,"N_COORD97":2577310.9199999999,"ADDRESS":"南紙街１６０號","OBJECTID":578479},"geometry":{"x":177779.43000000156,"y":2577310.9199999999}},{"attributes":{"ID":578507,"DIS_CODE":0,"TOWNNAME":"新營區","LI":"王公里","LIN":"16鄰","STREET":"大仁街","SECT":" ","MAREA":" ","LANE":" ","ALLEY":" ","HOUSE_NO":"６１號","E_COORD97":180324.85999999999,"N_COORD97":2579387.3799999999,"ADDRESS":"大仁街６１號","OBJECTID":578480},"geometry":{"x":180324.86000000034,"y":2579387.379999999}},{"attributes":{"ID":578508,"DIS_CODE":0,"TOWNNAME":"新營區","LI":"王公里","LIN":"16鄰","STREET":"大仁街","SECT":" ","MAREA":" ","LANE":" ","ALLEY":" ","HOUSE_NO":"５６號","E_COORD97":180305.32000000001,"N_COORD97":2579362,"ADDRESS":"大仁街５６號","OBJECTID":578481},"geometry":{"x":180305.32000000123,"y":2579361.9999999981}},{"attributes":{"ID":578509,"DIS_CODE":0,"TOWNNAME":"新營區","LI":"王公里","LIN":"16鄰","STREET":"大仁街","SECT":" ","MAREA":" ","LANE":" ","ALLEY":" ","HOUSE_NO":"５１號","E_COORD97":180297.23000000001,"N_COORD97":2579381.9700000002,"ADDRESS":"大仁街５１號","OBJECTID":578482},"geometry":{"x":180297.23000000231,"y":2579381.9700000007}},{"attributes":{"ID":578510,"DIS_CODE":0,"TOWNNAME":"新營區","LI":"三仙里","LIN":"16鄰","STREET":"武昌街","SECT":" ","MAREA":" ","LANE":" ","ALLEY":" ","HOUSE_NO":"１００號","E_COORD97":179495.5,"N_COORD97":2578294.9199999999,"ADDRESS":"武昌街１００號","OBJECTID":578483},"geometry":{"x":179495.50000000093,"y":2578294.9200000037}},{"attributes":{"ID":578511,"DIS_CODE":0,"TOWNNAME":"新營區","LI":"王公里","LIN":"16鄰","STREET":"大仁街","SECT":" ","MAREA":" ","LANE":" ","ALLEY":" ","HOUSE_NO":"５７號","E_COORD97":180310.53,"N_COORD97":2579384.1200000001,"ADDRESS":"大仁街５７號","OBJECTID":578484},"geometry":{"x":180310.53000000119,"y":2579384.1200000029}},{"attributes":{"ID":578512,"DIS_CODE":0,"TOWNNAME":"新營區","LI":"三仙里","LIN":"16鄰","STREET":"武昌街","SECT":" ","MAREA":" ","LANE":" ","ALLEY":" ","HOUSE_NO":"７０號","E_COORD97":179577.5,"N_COORD97":2578373.1600000001,"ADDRESS":"武昌街７０號","OBJECTID":578485},"geometry":{"x":179577.5,"y":2578373.1600000001}},{"attributes":{"ID":578513,"DIS_CODE":0,"TOWNNAME":"關廟區","LI":"五甲里","LIN":"16鄰","STREET":"東興路","SECT":" ","MAREA":" ","LANE":" ","ALLEY":" ","HOUSE_NO":"７８號","E_COORD97":181397.92000000001,"N_COORD97":2539533.25,"ADDRESS":"東興路７８號","OBJECTID":578486},"geometry":{"x":181397.92000000086,"y":2539533.25}},{"attributes":{"ID":578514,"DIS_CODE":0,"TOWNNAME":"新營區","LI":"三仙里","LIN":"16鄰","STREET":"武昌街","SECT":" ","MAREA":" ","LANE":" ","ALLEY":" ","HOUSE_NO":"７２號","E_COORD97":179579.5,"N_COORD97":2578363.1800000002,"ADDRESS":"武昌街７２號","OBJECTID":578487},"geometry":{"x":179579.50000000186,"y":2578363.1799999997}},{"attributes":{"ID":578515,"DIS_CODE":0,"TOWNNAME":"歸仁區","LI":"後市里","LIN":"16鄰","STREET":"中山路","SECT":"二段","MAREA":" ","LANE":" ","ALLEY":" ","HOUSE_NO":"１１５號","E_COORD97":177359.98999999999,"N_COORD97":2540793.5499999998,"ADDRESS":"中山路二段１１５號","OBJECTID":578488},"geometry":{"x":177359.99000000115,"y":2540793.5500000045}},{"attributes":{"ID":578516,"DIS_CODE":0,"TOWNNAME":"歸仁區","LI":"歸南里","LIN":"16鄰","STREET":"民生十一街","SECT":" ","MAREA":" ","LANE":" ","ALLEY":" ","HOUSE_NO":"３５號","E_COORD97":176198.23999999999,"N_COORD97":2539736.29,"ADDRESS":"民生十一街３５號","OBJECTID":578489},"geometry":{"x":176198.24000000115,"y":2539736.290000001}},{"attributes":{"ID":578517,"DIS_CODE":0,"TOWNNAME":"歸仁區","LI":"七甲里","LIN":"16鄰","STREET":"南潭二街","SECT":" ","MAREA":" ","LANE":" ","ALLEY":" ","HOUSE_NO":"１５４號","E_COORD97":176497.54000000001,"N_COORD97":2543005.0099999998,"ADDRESS":"南潭二街１５４號","OBJECTID":578490},"geometry":{"x":176497.5400000019,"y":2543005.0100000016}},{"attributes":{"ID":578518,"DIS_CODE":0,"TOWNNAME":"歸仁區","LI":"歸南里","LIN":"16鄰","STREET":"民生十一街","SECT":" ","MAREA":" ","LANE":" ","ALLEY":" ","HOUSE_NO":"４５號","E_COORD97":176231.04000000001,"N_COORD97":2539742.29,"ADDRESS":"民生十一街４５號","OBJECTID":578491},"geometry":{"x":176231.04000000004,"y":2539742.2899999991}},{"attributes":{"ID":578519,"DIS_CODE":0,"TOWNNAME":"歸仁區","LI":"六甲里","LIN":"16鄰","STREET":"六甲路","SECT":" ","MAREA":" ","LANE":" ","ALLEY":" ","HOUSE_NO":"２９７號","E_COORD97":175798.37,"N_COORD97":2539169.25,"ADDRESS":"六甲路２９７號","OBJECTID":578492},"geometry":{"x":175798.37000000011,"y":2539169.25}},{"attributes":{"ID":578520,"DIS_CODE":0,"TOWNNAME":"歸仁區","LI":"武東里","LIN":"16鄰","STREET":"光明街","SECT":" ","MAREA":" ","LANE":" ","ALLEY":" ","HOUSE_NO":"８０號","E_COORD97":175754.39000000001,"N_COORD97":2536540.25,"ADDRESS":"光明街８０號","OBJECTID":578493},"geometry":{"x":175754.3900000006,"y":2536540.2500000037}},{"attributes":{"ID":578521,"DIS_CODE":0,"TOWNNAME":"歸仁區","LI":"六甲里","LIN":"16鄰","STREET":"六甲路","SECT":" ","MAREA":" ","LANE":" ","ALLEY":" ","HOUSE_NO":"３０７號","E_COORD97":175778.07000000001,"N_COORD97":2539215.25,"ADDRESS":"六甲路３０７號","OBJECTID":578494},"geometry":{"x":175778.0700000003,"y":2539215.2500000037}},{"attributes":{"ID":578522,"DIS_CODE":0,"TOWNNAME":"歸仁區","LI":"歸仁里","LIN":"16鄰","STREET":"信義北路","SECT":" ","MAREA":" ","LANE":" ","ALLEY":" ","HOUSE_NO":"６０號","E_COORD97":178003.51000000001,"N_COORD97":2540898.6699999999,"ADDRESS":"信義北路６０號","OBJECTID":578495},"geometry":{"x":178003.51000000071,"y":2540898.6700000018}},{"attributes":{"ID":578523,"DIS_CODE":0,"TOWNNAME":"關廟區","LI":"東勢里","LIN":"16鄰","STREET":"和平路","SECT":" ","MAREA":" ","LANE":" ","ALLEY":" ","HOUSE_NO":"１４１號","E_COORD97":181673.94,"N_COORD97":2539653.25,"ADDRESS":"和平路１４１號","OBJECTID":578496},"geometry":{"x":181673.94000000227,"y":2539653.2500000019}},{"attributes":{"ID":578524,"DIS_CODE":0,"TOWNNAME":"關廟區","LI":"東勢里","LIN":"16鄰","STREET":"和平路","SECT":" ","MAREA":" ","LANE":" ","ALLEY":" ","HOUSE_NO":"９７號","E_COORD97":181687.29000000001,"N_COORD97":2539526.25,"ADDRESS":"和平路９７號","OBJECTID":578497},"geometry":{"x":181687.29000000004,"y":2539526.25}},{"attributes":{"ID":578525,"DIS_CODE":0,"TOWNNAME":"關廟區","LI":"松腳里","LIN":"16鄰","STREET":"民族街","SECT":" ","MAREA":" ","LANE":" ","ALLEY":" ","HOUSE_NO":"７８號","E_COORD97":181480.04000000001,"N_COORD97":2539794.29,"ADDRESS":"民族街７８號","OBJECTID":578498},"geometry":{"x":181480.04000000097,"y":2539794.290000001}},{"attributes":{"ID":578526,"DIS_CODE":0,"TOWNNAME":"關廟區","LI":"東勢里","LIN":"16鄰","STREET":"和平路","SECT":" ","MAREA":" ","LANE":" ","ALLEY":" ","HOUSE_NO":"１２１號","E_COORD97":181674.34,"N_COORD97":2539604.25,"ADDRESS":"和平路１２１號","OBJECTID":578499},"geometry":{"x":181674.34000000078,"y":2539604.25}},{"attributes":{"ID":578527,"DIS_CODE":0,"TOWNNAME":"關廟區","LI":"松腳里","LIN":"16鄰","STREET":"民族街","SECT":" ","MAREA":" ","LANE":" ","ALLEY":" ","HOUSE_NO":"５８號","E_COORD97":181551.73999999999,"N_COORD97":2539801.29,"ADDRESS":"民族街５８號","OBJECTID":578500},"geometry":{"x":181551.74000000115,"y":2539801.290000001}},{"attributes":{"ID":578528,"DIS_CODE":0,"TOWNNAME":"東區","LI":"忠孝里","LIN":"26鄰","STREET":"林森路","SECT":"一段","MAREA":" ","LANE":" ","ALLEY":" ","HOUSE_NO":"１６０號","E_COORD97":169552.09,"N_COORD97":2542470.5,"ADDRESS":"林森路一段１６０號","OBJECTID":578501},"geometry":{"x":169552.09000000078,"y":2542470.5}},{"attributes":{"ID":578529,"DIS_CODE":0,"TOWNNAME":"東區","LI":"忠孝里","LIN":"26鄰","STREET":"林森路","SECT":"一段","MAREA":" ","LANE":" ","ALLEY":" ","HOUSE_NO":"１６２號","E_COORD97":169563.29000000001,"N_COORD97":2542478.73,"ADDRESS":"林森路一段１６２號","OBJECTID":578502},"geometry":{"x":169563.29000000004,"y":2542478.7300000023}},{"attributes":{"ID":578530,"DIS_CODE":0,"TOWNNAME":"東區","LI":"德高里","LIN":"14鄰","STREET":"仁和路","SECT":" ","MAREA":" ","LANE":" ","ALLEY":" ","HOUSE_NO":"２０１號","E_COORD97":171659.14999999999,"N_COORD97":2540839.2200000002,"ADDRESS":"仁和路２０１號","OBJECTID":578503},"geometry":{"x":171659.1500000013,"y":2540839.2200000007}},{"attributes":{"ID":578531,"DIS_CODE":0,"TOWNNAME":"東區","LI":"德高里","LIN":"14鄰","STREET":"仁和路","SECT":" ","MAREA":" ","LANE":" ","ALLEY":" ","HOUSE_NO":"２０３號","E_COORD97":171660.97,"N_COORD97":2540835.3199999998,"ADDRESS":"仁和路２０３號","OBJECTID":578504},"geometry":{"x":171660.96999999974,"y":2540835.320000004}},{"attributes":{"ID":578532,"DIS_CODE":0,"TOWNNAME":"東區","LI":"德高里","LIN":"14鄰","STREET":"仁和路","SECT":" ","MAREA":" ","LANE":" ","ALLEY":" ","HOUSE_NO":"２０５號","E_COORD97":171662.78,"N_COORD97":2540831,"ADDRESS":"仁和路２０５號","OBJECTID":578505},"geometry":{"x":171662.78000000026,"y":2540831.0000000019}},{"attributes":{"ID":578533,"DIS_CODE":0,"TOWNNAME":"東區","LI":"德高里","LIN":"14鄰","STREET":"仁和路","SECT":" ","MAREA":" ","LANE":" ","ALLEY":" ","HOUSE_NO":"２０９號","E_COORD97":171667.23999999999,"N_COORD97":2540823.3399999999,"ADDRESS":"仁和路２０９號","OBJECTID":578506},"geometry":{"x":171667.24000000115,"y":2540823.3399999999}},{"attributes":{"ID":578534,"DIS_CODE":0,"TOWNNAME":"東區","LI":"德高里","LIN":"14鄰","STREET":"仁和路","SECT":" ","MAREA":" ","LANE":" ","ALLEY":" ","HOUSE_NO":"２０７號","E_COORD97":171665.01000000001,"N_COORD97":2540827.3799999999,"ADDRESS":"仁和路２０７號","OBJECTID":578507},"geometry":{"x":171665.01000000071,"y":2540827.3800000008}},{"attributes":{"ID":578535,"DIS_CODE":0,"TOWNNAME":"東區","LI":"德高里","LIN":"14鄰","STREET":"仁和路","SECT":" ","MAREA":" ","LANE":" ","ALLEY":" ","HOUSE_NO":"２１１號","E_COORD97":171669.47,"N_COORD97":2540819.2999999998,"ADDRESS":"仁和路２１１號","OBJECTID":578508},"geometry":{"x":171669.46999999974,"y":2540819.3000000045}},{"attributes":{"ID":578536,"DIS_CODE":0,"TOWNNAME":"關廟區","LI":"東勢里","LIN":"16鄰","STREET":"東興路","SECT":" ","MAREA":" ","LANE":" ","ALLEY":" ","HOUSE_NO":"１９５號","E_COORD97":181658.26999999999,"N_COORD97":2539569.25,"ADDRESS":"東興路１９５號","OBJECTID":578509},"geometry":{"x":181658.26999999955,"y":2539569.2500000019}},{"attributes":{"ID":578537,"DIS_CODE":0,"TOWNNAME":"關廟區","LI":"山西里","LIN":"16鄰","STREET":"中正路","SECT":" ","MAREA":" ","LANE":" ","ALLEY":" ","HOUSE_NO":"１０４６號","E_COORD97":180931.31,"N_COORD97":2540368.25,"ADDRESS":"中正路１０４６號","OBJECTID":578510},"geometry":{"x":180931.30999999959,"y":2540368.2500000019}},{"attributes":{"ID":578538,"DIS_CODE":0,"TOWNNAME":"白河區","LI":"永安里","LIN":"16鄰","STREET":"新生路","SECT":" ","MAREA":" ","LANE":" ","ALLEY":" ","HOUSE_NO":"９號","E_COORD97":190086.69,"N_COORD97":2583186.5600000001,"ADDRESS":"新生路９號","OBJECTID":578511},"geometry":{"x":190086.69000000041,"y":2583186.5600000042}},{"attributes":{"ID":578539,"DIS_CODE":0,"TOWNNAME":"東區","LI":"莊敬里","LIN":"22鄰","STREET":"莊敬路","SECT":" ","MAREA":" ","LANE":" ","ALLEY":" ","HOUSE_NO":"１１８號","E_COORD97":171373.42000000001,"N_COORD97":2544007.8100000001,"ADDRESS":"莊敬路１１８號","OBJECTID":578512},"geometry":{"x":171373.41999999993,"y":2544007.8100000005}},{"attributes":{"ID":578540,"DIS_CODE":0,"TOWNNAME":"東區","LI":"龍山里","LIN":"2鄰","STREET":"崇仁街","SECT":" ","MAREA":" ","LANE":" ","ALLEY":" ","HOUSE_NO":"２５號","E_COORD97":170358.10000000001,"N_COORD97":2542761.5,"ADDRESS":"崇仁街２５號","OBJECTID":578513},"geometry":{"x":170358.09999999963,"y":2542761.5}},{"attributes":{"ID":578541,"DIS_CODE":0,"TOWNNAME":"關廟區","LI":"山西里","LIN":"16鄰","STREET":"中正路","SECT":" ","MAREA":" ","LANE":" ","ALLEY":" ","HOUSE_NO":"１０１７號","E_COORD97":180966.20999999999,"N_COORD97":2540330.25,"ADDRESS":"中正路１０１７號","OBJECTID":578514},"geometry":{"x":180966.20999999996,"y":2540330.2499999981}},{"attributes":{"ID":578542,"DIS_CODE":0,"TOWNNAME":"關廟區","LI":"松腳里","LIN":"16鄰","STREET":"中山路","SECT":"一段","MAREA":" ","LANE":" ","ALLEY":" ","HOUSE_NO":"１３７號","E_COORD97":181618.06,"N_COORD97":2539867.2799999998,"ADDRESS":"中山路一段１３７號","OBJECTID":578515},"geometry":{"x":181618.06000000145,"y":2539867.2799999993}},{"attributes":{"ID":578543,"DIS_CODE":0,"TOWNNAME":"關廟區","LI":"東勢里","LIN":"16鄰","STREET":"東興路","SECT":" ","MAREA":" ","LANE":" ","ALLEY":" ","HOUSE_NO":"２２２號","E_COORD97":181683.26999999999,"N_COORD97":2539550.25,"ADDRESS":"東興路２２２號","OBJECTID":578516},"geometry":{"x":181683.27000000048,"y":2539550.25}},{"attributes":{"ID":578544,"DIS_CODE":0,"TOWNNAME":"東區","LI":"忠孝里","LIN":"23鄰","STREET":"崇明六街","SECT":" ","MAREA":" ","LANE":" ","ALLEY":" ","HOUSE_NO":"５號之９","E_COORD97":169642.23999999999,"N_COORD97":2542213.4199999999,"ADDRESS":"崇明六街５號之９","OBJECTID":578517},"geometry":{"x":169642.24000000022,"y":2542213.4199999999}},{"attributes":{"ID":578545,"DIS_CODE":0,"TOWNNAME":"關廟區","LI":"五甲里","LIN":"16鄰","STREET":"東安街","SECT":" ","MAREA":" ","LANE":" ","ALLEY":" ","HOUSE_NO":"１２０號","E_COORD97":181430.67000000001,"N_COORD97":2539497.3199999998,"ADDRESS":"東安街１２０號","OBJECTID":578518},"geometry":{"x":181430.66999999993,"y":2539497.3200000022}},{"attributes":{"ID":578546,"DIS_CODE":0,"TOWNNAME":"關廟區","LI":"東勢里","LIN":"16鄰","STREET":"東興路","SECT":" ","MAREA":" ","LANE":" ","ALLEY":" ","HOUSE_NO":"２２０號","E_COORD97":181676.37,"N_COORD97":2539552.25,"ADDRESS":"東興路２２０號","OBJECTID":578519},"geometry":{"x":181676.37000000104,"y":2539552.2500000019}},{"attributes":{"ID":578547,"DIS_CODE":0,"TOWNNAME":"關廟區","LI":"北勢里","LIN":"16鄰","STREET":"成功路","SECT":" ","MAREA":" ","LANE":" ","ALLEY":" ","HOUSE_NO":"３６６號","E_COORD97":181241.76999999999,"N_COORD97":2540531.27,"ADDRESS":"成功路３６６號","OBJECTID":578520},"geometry":{"x":181241.76999999955,"y":2540531.2700000014}},{"attributes":{"ID":578548,"DIS_CODE":0,"TOWNNAME":"關廟區","LI":"松腳里","LIN":"16鄰","STREET":"中山路","SECT":"一段","MAREA":" ","LANE":" ","ALLEY":" ","HOUSE_NO":"１２５號","E_COORD97":181652.56,"N_COORD97":2539880.2799999998,"ADDRESS":"中山路一段１２５號","OBJECTID":578521},"geometry":{"x":181652.56000000052,"y":2539880.2800000012}},{"attributes":{"ID":578549,"DIS_CODE":0,"TOWNNAME":"關廟區","LI":"五甲里","LIN":"16鄰","STREET":"東安街","SECT":" ","MAREA":" ","LANE":" ","ALLEY":" ","HOUSE_NO":"１８７號","E_COORD97":181490.57000000001,"N_COORD97":2539423.3199999998,"ADDRESS":"東安街１８７號","OBJECTID":578522},"geometry":{"x":181490.57000000123,"y":2539423.3200000022}},{"attributes":{"ID":578550,"DIS_CODE":0,"TOWNNAME":"關廟區","LI":"松腳里","LIN":"16鄰","STREET":"中山路","SECT":"一段","MAREA":" ","LANE":" ","ALLEY":" ","HOUSE_NO":"１３５號","E_COORD97":181623.06,"N_COORD97":2539868.2799999998,"ADDRESS":"中山路一段１３５號","OBJECTID":578523},"geometry":{"x":181623.06000000145,"y":2539868.2799999975}},{"attributes":{"ID":578551,"DIS_CODE":0,"TOWNNAME":"東區","LI":"忠孝里","LIN":"23鄰","STREET":"崇明五街","SECT":" ","MAREA":" ","LANE":" ","ALLEY":" ","HOUSE_NO":"４號","E_COORD97":169584.17999999999,"N_COORD97":2542218.8300000001,"ADDRESS":"崇明五街４號","OBJECTID":578524},"geometry":{"x":169584.1799999997,"y":2542218.8300000019}},{"attributes":{"ID":578552,"DIS_CODE":0,"TOWNNAME":"關廟區","LI":"松腳里","LIN":"16鄰","STREET":"中山路","SECT":"一段","MAREA":" ","LANE":" ","ALLEY":" ","HOUSE_NO":"１２７號","E_COORD97":181648.35999999999,"N_COORD97":2539863.2799999998,"ADDRESS":"中山路一段１２７號","OBJECTID":578525},"geometry":{"x":181648.36000000034,"y":2539863.2800000012}},{"attributes":{"ID":578553,"DIS_CODE":0,"TOWNNAME":"關廟區","LI":"東勢里","LIN":"16鄰","STREET":"和平路","SECT":" ","MAREA":" ","LANE":" ","ALLEY":" ","HOUSE_NO":"１０９號","E_COORD97":181678.64000000001,"N_COORD97":2539581.25,"ADDRESS":"和平路１０９號","OBJECTID":578526},"geometry":{"x":181678.64000000153,"y":2539581.2500000037}},{"attributes":{"ID":578554,"DIS_CODE":0,"TOWNNAME":"關廟區","LI":"松腳里","LIN":"16鄰","STREET":"民族街","SECT":" ","MAREA":" ","LANE":" ","ALLEY":" ","HOUSE_NO":"１０號","E_COORD97":181660.44,"N_COORD97":2539788.29,"ADDRESS":"民族街１０號","OBJECTID":578527},"geometry":{"x":181660.44000000227,"y":2539788.290000001}},{"attributes":{"ID":578555,"DIS_CODE":0,"TOWNNAME":"關廟區","LI":"松腳里","LIN":"16鄰","STREET":"和平路","SECT":" ","MAREA":" ","LANE":" ","ALLEY":" ","HOUSE_NO":"１８７號","E_COORD97":181679.73999999999,"N_COORD97":2539796.25,"ADDRESS":"和平路１８７號","OBJECTID":578528},"geometry":{"x":181679.74000000022,"y":2539796.2500000019}},{"attributes":{"ID":578556,"DIS_CODE":0,"TOWNNAME":"關廟區","LI":"東勢里","LIN":"16鄰","STREET":"和平路","SECT":" ","MAREA":" ","LANE":" ","ALLEY":" ","HOUSE_NO":"１１５號","E_COORD97":181675.14000000001,"N_COORD97":2539596.25,"ADDRESS":"和平路１１５號","OBJECTID":578529},"geometry":{"x":181675.14000000153,"y":2539596.2500000019}},{"attributes":{"ID":578557,"DIS_CODE":0,"TOWNNAME":"關廟區","LI":"山西里","LIN":"16鄰","STREET":"中正路","SECT":" ","MAREA":" ","LANE":" ","ALLEY":" ","HOUSE_NO":"１０４８號","E_COORD97":180926.60999999999,"N_COORD97":2540369.25,"ADDRESS":"中正路１０４８號","OBJECTID":578530},"geometry":{"x":180926.61000000034,"y":2540369.2500000019}},{"attributes":{"ID":578558,"DIS_CODE":0,"TOWNNAME":"關廟區","LI":"北勢里","LIN":"16鄰","STREET":"成功路","SECT":" ","MAREA":" ","LANE":" ","ALLEY":" ","HOUSE_NO":"３４８號","E_COORD97":181268.67000000001,"N_COORD97":2540522.27,"ADDRESS":"成功路３４８號","OBJECTID":578531},"geometry":{"x":181268.67000000086,"y":2540522.2699999996}},{"attributes":{"ID":578559,"DIS_CODE":0,"TOWNNAME":"關廟區","LI":"山西里","LIN":"16鄰","STREET":"中正路","SECT":" ","MAREA":" ","LANE":" ","ALLEY":" ","HOUSE_NO":"１０１９號","E_COORD97":180962.31,"N_COORD97":2540332.25,"ADDRESS":"中正路１０１９號","OBJECTID":578532},"geometry":{"x":180962.31000000052,"y":2540332.25}},{"attributes":{"ID":578560,"DIS_CODE":0,"TOWNNAME":"關廟區","LI":"山西里","LIN":"16鄰","STREET":"中正路","SECT":" ","MAREA":" ","LANE":" ","ALLEY":" ","HOUSE_NO":"１０２９號","E_COORD97":180929.01000000001,"N_COORD97":2540343.25,"ADDRESS":"中正路１０２９號","OBJECTID":578533},"geometry":{"x":180929.01000000071,"y":2540343.25}},{"attributes":{"ID":578561,"DIS_CODE":0,"TOWNNAME":"關廟區","LI":"山西里","LIN":"16鄰","STREET":"中正路","SECT":" ","MAREA":" ","LANE":" ","ALLEY":" ","HOUSE_NO":"１０３６號","E_COORD97":180947.01000000001,"N_COORD97":2540365.25,"ADDRESS":"中正路１０３６號","OBJECTID":578534},"geometry":{"x":180947.00999999978,"y":2540365.2500000019}},{"attributes":{"ID":578562,"DIS_CODE":0,"TOWNNAME":"關廟區","LI":"松腳里","LIN":"16鄰","STREET":"民族街","SECT":" ","MAREA":" ","LANE":" ","ALLEY":" ","HOUSE_NO":"４０號","E_COORD97":181586.34,"N_COORD97":2539788.29,"ADDRESS":"民族街４０號","OBJECTID":578535},"geometry":{"x":181586.34000000078,"y":2539788.290000001}},{"attributes":{"ID":578563,"DIS_CODE":0,"TOWNNAME":"關廟區","LI":"東勢里","LIN":"16鄰","STREET":"和平路","SECT":" ","MAREA":" ","LANE":" ","ALLEY":" ","HOUSE_NO":"９１號","E_COORD97":181690.39000000001,"N_COORD97":2539508.25,"ADDRESS":"和平路９１號","OBJECTID":578536},"geometry":{"x":181690.39000000153,"y":2539508.2500000019}},{"attributes":{"ID":578564,"DIS_CODE":0,"TOWNNAME":"關廟區","LI":"東勢里","LIN":"16鄰","STREET":"和平路","SECT":" ","MAREA":" ","LANE":" ","ALLEY":" ","HOUSE_NO":"１３９號","E_COORD97":181673.64000000001,"N_COORD97":2539648.25,"ADDRESS":"和平路１３９號","OBJECTID":578537},"geometry":{"x":181673.6400000006,"y":2539648.25}},{"attributes":{"ID":578565,"DIS_CODE":0,"TOWNNAME":"關廟區","LI":"東勢里","LIN":"16鄰","STREET":"和平路","SECT":" ","MAREA":" ","LANE":" ","ALLEY":" ","HOUSE_NO":"１４３號","E_COORD97":181674.34,"N_COORD97":2539658.25,"ADDRESS":"和平路１４３號","OBJECTID":578538},"geometry":{"x":181674.34000000078,"y":2539658.25}},{"attributes":{"ID":578566,"DIS_CODE":0,"TOWNNAME":"關廟區","LI":"東勢里","LIN":"16鄰","STREET":"東興路","SECT":" ","MAREA":" ","LANE":" ","ALLEY":" ","HOUSE_NO":"１８７號","E_COORD97":181638.67000000001,"N_COORD97":2539570.25,"ADDRESS":"東興路１８７號","OBJECTID":578539},"geometry":{"x":181638.67000000086,"y":2539570.25}},{"attributes":{"ID":578567,"DIS_CODE":0,"TOWNNAME":"關廟區","LI":"松腳里","LIN":"16鄰","STREET":"中山路","SECT":"一段","MAREA":" ","LANE":" ","ALLEY":" ","HOUSE_NO":"１２９號","E_COORD97":181633.76000000001,"N_COORD97":2539869.2799999998,"ADDRESS":"中山路一段１２９號","OBJECTID":578540},"geometry":{"x":181633.76000000164,"y":2539869.2800000012}},{"attributes":{"ID":578568,"DIS_CODE":0,"TOWNNAME":"關廟區","LI":"五甲里","LIN":"16鄰","STREET":"東安街","SECT":" ","MAREA":" ","LANE":" ","ALLEY":" ","HOUSE_NO":"１３０號","E_COORD97":181436.07000000001,"N_COORD97":2539480.3199999998,"ADDRESS":"東安街１３０號","OBJECTID":578541},"geometry":{"x":181436.07000000123,"y":2539480.3200000022}},{"attributes":{"ID":578569,"DIS_CODE":0,"TOWNNAME":"關廟區","LI":"東勢里","LIN":"16鄰","STREET":"東興路","SECT":" ","MAREA":" ","LANE":" ","ALLEY":" ","HOUSE_NO":"１９３號","E_COORD97":181654.47,"N_COORD97":2539570.25,"ADDRESS":"東興路１９３號","OBJECTID":578542},"geometry":{"x":181654.4700000016,"y":2539570.25}},{"attributes":{"ID":578570,"DIS_CODE":0,"TOWNNAME":"關廟區","LI":"北勢里","LIN":"16鄰","STREET":"成功路","SECT":" ","MAREA":" ","LANE":" ","ALLEY":" ","HOUSE_NO":"３７０號","E_COORD97":181231.07000000001,"N_COORD97":2540535.27,"ADDRESS":"成功路３７０號","OBJECTID":578543},"geometry":{"x":181231.07000000123,"y":2540535.2699999996}},{"attributes":{"ID":578571,"DIS_CODE":0,"TOWNNAME":"關廟區","LI":"五甲里","LIN":"16鄰","STREET":"東安街","SECT":" ","MAREA":" ","LANE":" ","ALLEY":" ","HOUSE_NO":"１１８號","E_COORD97":181429.17000000001,"N_COORD97":2539501.3199999998,"ADDRESS":"東安街１１８號","OBJECTID":578544},"geometry":{"x":181429.16999999993,"y":2539501.3200000022}},{"attributes":{"ID":578572,"DIS_CODE":0,"TOWNNAME":"關廟區","LI":"五甲里","LIN":"16鄰","STREET":"東安街","SECT":" ","MAREA":" ","LANE":" ","ALLEY":" ","HOUSE_NO":"１１６號","E_COORD97":181427.17000000001,"N_COORD97":2539505.3199999998,"ADDRESS":"東安街１１６號","OBJECTID":578545},"geometry":{"x":181427.16999999993,"y":2539505.3200000003}},{"attributes":{"ID":578573,"DIS_CODE":0,"TOWNNAME":"關廟區","LI":"五甲里","LIN":"16鄰","STREET":"東安街","SECT":" ","MAREA":" ","LANE":" ","ALLEY":" ","HOUSE_NO":"１２２號","E_COORD97":181431.07000000001,"N_COORD97":2539493.3199999998,"ADDRESS":"東安街１２２號","OBJECTID":578546},"geometry":{"x":181431.07000000123,"y":2539493.3200000022}},{"attributes":{"ID":578574,"DIS_CODE":0,"TOWNNAME":"關廟區","LI":"五甲里","LIN":"16鄰","STREET":"東安街","SECT":" ","MAREA":" ","LANE":" ","ALLEY":" ","HOUSE_NO":"１８０號","E_COORD97":181494.37,"N_COORD97":2539402.3199999998,"ADDRESS":"東安街１８０號","OBJECTID":578547},"geometry":{"x":181494.37000000197,"y":2539402.3200000022}},{"attributes":{"ID":578575,"DIS_CODE":0,"TOWNNAME":"關廟區","LI":"五甲里","LIN":"16鄰","STREET":"東安街","SECT":" ","MAREA":" ","LANE":" ","ALLEY":" ","HOUSE_NO":"１２６號","E_COORD97":181433.76999999999,"N_COORD97":2539488.3199999998,"ADDRESS":"東安街１２６號","OBJECTID":578548},"geometry":{"x":181433.77000000048,"y":2539488.3200000003}},{"attributes":{"ID":578576,"DIS_CODE":0,"TOWNNAME":"關廟區","LI":"五甲里","LIN":"16鄰","STREET":"東安街","SECT":" ","MAREA":" ","LANE":" ","ALLEY":" ","HOUSE_NO":"１８８號","E_COORD97":181502.87,"N_COORD97":2539393.3199999998,"ADDRESS":"東安街１８８號","OBJECTID":578549},"geometry":{"x":181502.87000000197,"y":2539393.3200000003}},{"attributes":{"ID":578577,"DIS_CODE":0,"TOWNNAME":"關廟區","LI":"山西里","LIN":"16鄰","STREET":"中正路","SECT":" ","MAREA":" ","LANE":" ","ALLEY":" ","HOUSE_NO":"１０２３號","E_COORD97":180952.01000000001,"N_COORD97":2540335.25,"ADDRESS":"中正路１０２３號","OBJECTID":578550},"geometry":{"x":180952.00999999978,"y":2540335.2500000019}},{"attributes":{"ID":578578,"DIS_CODE":0,"TOWNNAME":"關廟區","LI":"東勢里","LIN":"16鄰","STREET":"和平路","SECT":" ","MAREA":" ","LANE":" ","ALLEY":" ","HOUSE_NO":"１３１號","E_COORD97":181673.23999999999,"N_COORD97":2539629.25,"ADDRESS":"和平路１３１號","OBJECTID":578551},"geometry":{"x":181673.24000000022,"y":2539629.2500000019}},{"attributes":{"ID":578579,"DIS_CODE":0,"TOWNNAME":"關廟區","LI":"五甲里","LIN":"16鄰","STREET":"東興路","SECT":" ","MAREA":" ","LANE":" ","ALLEY":" ","HOUSE_NO":"８２號","E_COORD97":181397.92000000001,"N_COORD97":2539552.25,"ADDRESS":"東興路８２號","OBJECTID":578552},"geometry":{"x":181397.92000000086,"y":2539552.2500000019}},{"attributes":{"ID":578580,"DIS_CODE":0,"TOWNNAME":"關廟區","LI":"松腳里","LIN":"16鄰","STREET":"中山路","SECT":"一段","MAREA":" ","LANE":" ","ALLEY":" ","HOUSE_NO":"１３５之１號","E_COORD97":181629.35999999999,"N_COORD97":2539828.2999999998,"ADDRESS":"中山路一段１３５之１號","OBJECTID":578553},"geometry":{"x":181629.36000000127,"y":2539828.3000000007}},{"attributes":{"ID":578581,"DIS_CODE":0,"TOWNNAME":"關廟區","LI":"五甲里","LIN":"16鄰","STREET":"東安街","SECT":" ","MAREA":" ","LANE":" ","ALLEY":" ","HOUSE_NO":"１７６號","E_COORD97":181487.47,"N_COORD97":2539407.3199999998,"ADDRESS":"東安街１７６號","OBJECTID":578554},"geometry":{"x":181487.46999999974,"y":2539407.3200000003}},{"attributes":{"ID":578582,"DIS_CODE":0,"TOWNNAME":"關廟區","LI":"五甲里","LIN":"16鄰","STREET":"東安街","SECT":" ","MAREA":" ","LANE":" ","ALLEY":" ","HOUSE_NO":"１２８號","E_COORD97":181434.47,"N_COORD97":2539484.3199999998,"ADDRESS":"東安街１２８號","OBJECTID":578555},"geometry":{"x":181434.47000000067,"y":2539484.3200000022}},{"attributes":{"ID":578583,"DIS_CODE":0,"TOWNNAME":"關廟區","LI":"東勢里","LIN":"16鄰","STREET":"和平路","SECT":" ","MAREA":" ","LANE":" ","ALLEY":" ","HOUSE_NO":"１１３號","E_COORD97":181675.54000000001,"N_COORD97":2539592.25,"ADDRESS":"和平路１１３號","OBJECTID":578556},"geometry":{"x":181675.54000000004,"y":2539592.2500000019}},{"attributes":{"ID":578584,"DIS_CODE":0,"TOWNNAME":"關廟區","LI":"五甲里","LIN":"16鄰","STREET":"東興路","SECT":" ","MAREA":" ","LANE":" ","ALLEY":" ","HOUSE_NO":"８６號","E_COORD97":181402.51999999999,"N_COORD97":2539552.25,"ADDRESS":"東興路８６號","OBJECTID":578557},"geometry":{"x":181402.51999999955,"y":2539552.2500000019}},{"attributes":{"ID":578585,"DIS_CODE":0,"TOWNNAME":"關廟區","LI":"松腳里","LIN":"16鄰","STREET":"中山路","SECT":"一段","MAREA":" ","LANE":" ","ALLEY":" ","HOUSE_NO":"１２３號","E_COORD97":181658.76000000001,"N_COORD97":2539878.2799999998,"ADDRESS":"中山路一段１２３號","OBJECTID":578558},"geometry":{"x":181658.75999999978,"y":2539878.2799999993}},{"attributes":{"ID":578586,"DIS_CODE":0,"TOWNNAME":"關廟區","LI":"松腳里","LIN":"16鄰","STREET":"民族街","SECT":" ","MAREA":" ","LANE":" ","ALLEY":" ","HOUSE_NO":"２６號","E_COORD97":181613.94,"N_COORD97":2539790.29,"ADDRESS":"民族街２６號","OBJECTID":578559},"geometry":{"x":181613.94000000041,"y":2539790.2900000028}},{"attributes":{"ID":578587,"DIS_CODE":0,"TOWNNAME":"關廟區","LI":"山西里","LIN":"16鄰","STREET":"中正路","SECT":" ","MAREA":" ","LANE":" ","ALLEY":" ","HOUSE_NO":"１０３８號","E_COORD97":180942.81,"N_COORD97":2540366.25,"ADDRESS":"中正路１０３８號","OBJECTID":578560},"geometry":{"x":180942.80999999959,"y":2540366.25}},{"attributes":{"ID":578588,"DIS_CODE":0,"TOWNNAME":"關廟區","LI":"東勢里","LIN":"16鄰","STREET":"和平路","SECT":" ","MAREA":" ","LANE":" ","ALLEY":" ","HOUSE_NO":"１３５號","E_COORD97":181673.23999999999,"N_COORD97":2539638.25,"ADDRESS":"和平路１３５號","OBJECTID":578561},"geometry":{"x":181673.24000000022,"y":2539638.25}},{"attributes":{"ID":578589,"DIS_CODE":0,"TOWNNAME":"關廟區","LI":"山西里","LIN":"16鄰","STREET":"中正路","SECT":" ","MAREA":" ","LANE":" ","ALLEY":" ","HOUSE_NO":"１０３０號","E_COORD97":180955.10999999999,"N_COORD97":2540361.25,"ADDRESS":"中正路１０３０號","OBJECTID":578562},"geometry":{"x":180955.11000000034,"y":2540361.2500000019}},{"attributes":{"ID":578590,"DIS_CODE":0,"TOWNNAME":"關廟區","LI":"五甲里","LIN":"16鄰","STREET":"東安街","SECT":" ","MAREA":" ","LANE":" ","ALLEY":" ","HOUSE_NO":"１６２號","E_COORD97":181471.76999999999,"N_COORD97":2539421.3199999998,"ADDRESS":"東安街１６２號","OBJECTID":578563},"geometry":{"x":181471.76999999955,"y":2539421.3200000003}},{"attributes":{"ID":578591,"DIS_CODE":0,"TOWNNAME":"關廟區","LI":"五甲里","LIN":"16鄰","STREET":"東安街","SECT":" ","MAREA":" ","LANE":" ","ALLEY":" ","HOUSE_NO":"１８２號","E_COORD97":181497.07000000001,"N_COORD97":2539399.3199999998,"ADDRESS":"東安街１８２號","OBJECTID":578564},"geometry":{"x":181497.07000000123,"y":2539399.3200000022}},{"attributes":{"ID":578592,"DIS_CODE":0,"TOWNNAME":"關廟區","LI":"五甲里","LIN":"16鄰","STREET":"東安街","SECT":" ","MAREA":" ","LANE":" ","ALLEY":" ","HOUSE_NO":"１８５號","E_COORD97":181486.26999999999,"N_COORD97":2539426.3199999998,"ADDRESS":"東安街１８５號","OBJECTID":578565},"geometry":{"x":181486.27000000048,"y":2539426.3200000022}},{"attributes":{"ID":578593,"DIS_CODE":0,"TOWNNAME":"關廟區","LI":"東勢里","LIN":"16鄰","STREET":"東興路","SECT":" ","MAREA":" ","LANE":" ","ALLEY":" ","HOUSE_NO":"１８９號","E_COORD97":181643.67000000001,"N_COORD97":2539570.25,"ADDRESS":"東興路１８９號","OBJECTID":578566},"geometry":{"x":181643.67000000086,"y":2539570.25}},{"attributes":{"ID":578594,"DIS_CODE":0,"TOWNNAME":"關廟區","LI":"五甲里","LIN":"16鄰","STREET":"東安街","SECT":" ","MAREA":" ","LANE":" ","ALLEY":" ","HOUSE_NO":"１８６號","E_COORD97":181500.47,"N_COORD97":2539397.3199999998,"ADDRESS":"東安街１８６號","OBJECTID":578567},"geometry":{"x":181500.47000000067,"y":2539397.3200000003}},{"attributes":{"ID":578595,"DIS_CODE":0,"TOWNNAME":"關廟區","LI":"北勢里","LIN":"16鄰","STREET":"成功路","SECT":" ","MAREA":" ","LANE":" ","ALLEY":" ","HOUSE_NO":"３５０號","E_COORD97":181265.17000000001,"N_COORD97":2540524.27,"ADDRESS":"成功路３５０號","OBJECTID":578568},"geometry":{"x":181265.17000000086,"y":2540524.2700000014}},{"attributes":{"ID":578596,"DIS_CODE":0,"TOWNNAME":"楠西區","LI":"東勢里","LIN":"22鄰","STREET":"民生路","SECT":" ","MAREA":" ","LANE":" ","ALLEY":" ","HOUSE_NO":"１７７號","E_COORD97":197417.59,"N_COORD97":2564403.29,"ADDRESS":"民生路１７７號","OBJECTID":578569},"geometry":{"x":197417.59000000078,"y":2564403.2899999991}},{"attributes":{"ID":578597,"DIS_CODE":0,"TOWNNAME":"關廟區","LI":"山西里","LIN":"16鄰","STREET":"中正路","SECT":" ","MAREA":" ","LANE":" ","ALLEY":" ","HOUSE_NO":"１０３２號","E_COORD97":180950.41,"N_COORD97":2540362.25,"ADDRESS":"中正路１０３２號","OBJECTID":578570},"geometry":{"x":180950.41000000108,"y":2540362.2500000019}},{"attributes":{"ID":578598,"DIS_CODE":0,"TOWNNAME":"關廟區","LI":"東勢里","LIN":"16鄰","STREET":"東興路","SECT":" ","MAREA":" ","LANE":" ","ALLEY":" ","HOUSE_NO":"１８１號","E_COORD97":181632.17000000001,"N_COORD97":2539570.25,"ADDRESS":"東興路１８１號","OBJECTID":578571},"geometry":{"x":181632.16999999993,"y":2539570.25}},{"attributes":{"ID":578599,"DIS_CODE":0,"TOWNNAME":"關廟區","LI":"東勢里","LIN":"16鄰","STREET":"和平路","SECT":" ","MAREA":" ","LANE":" ","ALLEY":" ","HOUSE_NO":"１２９號","E_COORD97":181673.64000000001,"N_COORD97":2539625.25,"ADDRESS":"和平路１２９號","OBJECTID":578572},"geometry":{"x":181673.6400000006,"y":2539625.2500000037}},{"attributes":{"ID":578600,"DIS_CODE":0,"TOWNNAME":"東區","LI":"忠孝里","LIN":"23鄰","STREET":"崇明五街","SECT":" ","MAREA":" ","LANE":" ","ALLEY":" ","HOUSE_NO":"１２號","E_COORD97":169603.94,"N_COORD97":2542225.5800000001,"ADDRESS":"崇明五街１２號","OBJECTID":578573},"geometry":{"x":169603.94000000041,"y":2542225.5800000001}},{"attributes":{"ID":578601,"DIS_CODE":0,"TOWNNAME":"關廟區","LI":"山西里","LIN":"16鄰","STREET":"中正路","SECT":" ","MAREA":" ","LANE":" ","ALLEY":" ","HOUSE_NO":"１０２８號","E_COORD97":180959.31,"N_COORD97":2540360.25,"ADDRESS":"中正路１０２８號","OBJECTID":578574},"geometry":{"x":180959.31000000052,"y":2540360.25}},{"attributes":{"ID":578602,"DIS_CODE":0,"TOWNNAME":"關廟區","LI":"松腳里","LIN":"16鄰","STREET":"民族街","SECT":" ","MAREA":" ","LANE":" ","ALLEY":" ","HOUSE_NO":"２２號","E_COORD97":181617.84,"N_COORD97":2539791.29,"ADDRESS":"民族街２２號","OBJECTID":578575},"geometry":{"x":181617.83999999985,"y":2539791.290000001}},{"attributes":{"ID":578603,"DIS_CODE":0,"TOWNNAME":"關廟區","LI":"東勢里","LIN":"16鄰","STREET":"和平路","SECT":" ","MAREA":" ","LANE":" ","ALLEY":" ","HOUSE_NO":"１３３號","E_COORD97":181673.23999999999,"N_COORD97":2539634.25,"ADDRESS":"和平路１３３號","OBJECTID":578576},"geometry":{"x":181673.24000000022,"y":2539634.25}},{"attributes":{"ID":578604,"DIS_CODE":0,"TOWNNAME":"關廟區","LI":"東勢里","LIN":"16鄰","STREET":"和平路","SECT":" ","MAREA":" ","LANE":" ","ALLEY":" ","HOUSE_NO":"１３７號","E_COORD97":181673.64000000001,"N_COORD97":2539643.25,"ADDRESS":"和平路１３７號","OBJECTID":578577},"geometry":{"x":181673.6400000006,"y":2539643.2500000019}},{"attributes":{"ID":578605,"DIS_CODE":0,"TOWNNAME":"關廟區","LI":"香洋里","LIN":"16鄰","STREET":"中央路","SECT":" ","MAREA":" ","LANE":" ","ALLEY":" ","HOUSE_NO":"６６號","E_COORD97":181517.20999999999,"N_COORD97":2539981.3199999998,"ADDRESS":"中央路６６號","OBJECTID":578578},"geometry":{"x":181517.20999999996,"y":2539981.320000004}},{"attributes":{"ID":578606,"DIS_CODE":0,"TOWNNAME":"關廟區","LI":"北花里","LIN":"16鄰","STREET":"中正路","SECT":" ","MAREA":" ","LANE":" ","ALLEY":" ","HOUSE_NO":"２７８號","E_COORD97":183136.35999999999,"N_COORD97":2540877.25,"ADDRESS":"中正路２７８號","OBJECTID":578579},"geometry":{"x":183136.36000000127,"y":2540877.2500000019}},{"attributes":{"ID":578607,"DIS_CODE":0,"TOWNNAME":"關廟區","LI":"北花里","LIN":"16鄰","STREET":"中正路","SECT":" ","MAREA":" ","LANE":" ","ALLEY":" ","HOUSE_NO":"１９０號","E_COORD97":183315.95999999999,"N_COORD97":2540900.25,"ADDRESS":"中正路１９０號","OBJECTID":578580},"geometry":{"x":183315.96000000183,"y":2540900.2500000037}},{"attributes":{"ID":578608,"DIS_CODE":0,"TOWNNAME":"關廟區","LI":"北花里","LIN":"16鄰","STREET":"新光街","SECT":" ","MAREA":" ","LANE":" ","ALLEY":" ","HOUSE_NO":"２號","E_COORD97":183383.35999999999,"N_COORD97":2540938.25,"ADDRESS":"新光街２號","OBJECTID":578581},"geometry":{"x":183383.36000000127,"y":2540938.2500000019}},{"attributes":{"ID":578609,"DIS_CODE":0,"TOWNNAME":"關廟區","LI":"北花里","LIN":"16鄰","STREET":"中正路","SECT":" ","MAREA":" ","LANE":" ","ALLEY":" ","HOUSE_NO":"１９６號","E_COORD97":183307.16,"N_COORD97":2540899.25,"ADDRESS":"中正路１９６號","OBJECTID":578582},"geometry":{"x":183307.16000000108,"y":2540899.25}},{"attributes":{"ID":578610,"DIS_CODE":0,"TOWNNAME":"關廟區","LI":"香洋里","LIN":"16鄰","STREET":"花園一街","SECT":" ","MAREA":" ","LANE":" ","ALLEY":" ","HOUSE_NO":"２９９號","E_COORD97":181416.89000000001,"N_COORD97":2540193.25,"ADDRESS":"花園一街２９９號","OBJECTID":578583},"geometry":{"x":181416.88999999966,"y":2540193.25}},{"attributes":{"ID":578611,"DIS_CODE":0,"TOWNNAME":"關廟區","LI":"北花里","LIN":"16鄰","STREET":"中正路","SECT":" ","MAREA":" ","LANE":" ","ALLEY":" ","HOUSE_NO":"２３０號","E_COORD97":183232.35999999999,"N_COORD97":2540889.25,"ADDRESS":"中正路２３０號","OBJECTID":578584},"geometry":{"x":183232.3600000022,"y":2540889.25}},{"attributes":{"ID":578612,"DIS_CODE":0,"TOWNNAME":"關廟區","LI":"香洋里","LIN":"16鄰","STREET":"花園一街","SECT":" ","MAREA":" ","LANE":" ","ALLEY":" ","HOUSE_NO":"２９７號","E_COORD97":181421.89000000001,"N_COORD97":2540192.25,"ADDRESS":"花園一街２９７號","OBJECTID":578585},"geometry":{"x":181421.88999999966,"y":2540192.2500000019}},{"attributes":{"ID":578613,"DIS_CODE":0,"TOWNNAME":"新化區","LI":"協興里","LIN":"16鄰","STREET":"中山路","SECT":" ","MAREA":" ","LANE":" ","ALLEY":" ","HOUSE_NO":"６８４號之１７","E_COORD97":177921.29999999999,"N_COORD97":2548567.2599999998,"ADDRESS":"中山路６８４號之１７","OBJECTID":578586},"geometry":{"x":177921.30000000075,"y":2548567.2599999998}},{"attributes":{"ID":578614,"DIS_CODE":0,"TOWNNAME":"新化區","LI":"東榮里","LIN":"16鄰","STREET":"中興路","SECT":" ","MAREA":" ","LANE":" ","ALLEY":" ","HOUSE_NO":"７０６號","E_COORD97":179575.01000000001,"N_COORD97":2548129.25,"ADDRESS":"中興路７０６號","OBJECTID":578587},"geometry":{"x":179575.00999999978,"y":2548129.2500000019}},{"attributes":{"ID":578615,"DIS_CODE":0,"TOWNNAME":"東區","LI":"忠孝里","LIN":"25鄰","STREET":"崇明三街","SECT":" ","MAREA":" ","LANE":" ","ALLEY":" ","HOUSE_NO":"２８號","E_COORD97":169602,"N_COORD97":2542335.8500000001,"ADDRESS":"崇明三街２８號","OBJECTID":578588},"geometry":{"x":169602.00000000093,"y":2542335.8499999996}},{"attributes":{"ID":578616,"DIS_CODE":0,"TOWNNAME":"東區","LI":"忠孝里","LIN":"32鄰","STREET":"崇明路","SECT":" ","MAREA":" ","LANE":" ","ALLEY":" ","HOUSE_NO":"１７２號","E_COORD97":169767.42000000001,"N_COORD97":2542227.2000000002,"ADDRESS":"崇明路１７２號","OBJECTID":578589},"geometry":{"x":169767.41999999993,"y":2542227.1999999993}},{"attributes":{"ID":578617,"DIS_CODE":0,"TOWNNAME":"東區","LI":"忠孝里","LIN":"23鄰","STREET":"崇明五街","SECT":" ","MAREA":" ","LANE":" ","ALLEY":" ","HOUSE_NO":"１０號","E_COORD97":169598.78,"N_COORD97":2542223.8799999999,"ADDRESS":"崇明五街１０號","OBJECTID":578590},"geometry":{"x":169598.78000000119,"y":2542223.8800000027}},{"attributes":{"ID":578618,"DIS_CODE":0,"TOWNNAME":"東區","LI":"忠孝里","LIN":"23鄰","STREET":"崇明五街","SECT":" ","MAREA":" ","LANE":" ","ALLEY":" ","HOUSE_NO":"１４號","E_COORD97":169609,"N_COORD97":2542227.21,"ADDRESS":"崇明五街１４號","OBJECTID":578591},"geometry":{"x":169609.00000000093,"y":2542227.2100000028}},{"attributes":{"ID":578619,"DIS_CODE":0,"TOWNNAME":"東區","LI":"忠孝里","LIN":"23鄰","STREET":"崇明五街","SECT":" ","MAREA":" ","LANE":" ","ALLEY":" ","HOUSE_NO":"１６號","E_COORD97":169613.97,"N_COORD97":2542229.5600000001,"ADDRESS":"崇明五街１６號","OBJECTID":578592},"geometry":{"x":169613.97000000067,"y":2542229.5600000005}},{"attributes":{"ID":578620,"DIS_CODE":0,"TOWNNAME":"東區","LI":"忠孝里","LIN":"23鄰","STREET":"崇明五街","SECT":" ","MAREA":" ","LANE":" ","ALLEY":" ","HOUSE_NO":"１６號之１","E_COORD97":169619.47,"N_COORD97":2542230.8700000001,"ADDRESS":"崇明五街１６號之１","OBJECTID":578593},"geometry":{"x":169619.46999999974,"y":2542230.8700000029}},{"attributes":{"ID":578621,"DIS_CODE":0,"TOWNNAME":"東區","LI":"忠孝里","LIN":"23鄰","STREET":"崇明五街","SECT":" ","MAREA":" ","LANE":" ","ALLEY":" ","HOUSE_NO":"１６號之２","E_COORD97":169623.13,"N_COORD97":2542233.0299999998,"ADDRESS":"崇明五街１６號之２","OBJECTID":578594},"geometry":{"x":169623.13000000082,"y":2542233.0299999975}},{"attributes":{"ID":578622,"DIS_CODE":0,"TOWNNAME":"東區","LI":"忠孝里","LIN":"23鄰","STREET":"崇明五街","SECT":" ","MAREA":" ","LANE":" ","ALLEY":" ","HOUSE_NO":"１６號之３","E_COORD97":169628.63,"N_COORD97":2542235.1200000001,"ADDRESS":"崇明五街１６號之３","OBJECTID":578595},"geometry":{"x":169628.63000000082,"y":2542235.1200000029}},{"attributes":{"ID":578623,"DIS_CODE":0,"TOWNNAME":"東區","LI":"忠孝里","LIN":"23鄰","STREET":"崇明五街","SECT":" ","MAREA":" ","LANE":" ","ALLEY":" ","HOUSE_NO":"１６號之４","E_COORD97":169633.34,"N_COORD97":2542237.21,"ADDRESS":"崇明五街１６號之４","OBJECTID":578596},"geometry":{"x":169633.34000000078,"y":2542237.2100000046}},{"attributes":{"ID":578624,"DIS_CODE":0,"TOWNNAME":"東區","LI":"忠孝里","LIN":"23鄰","STREET":"崇明五街","SECT":" ","MAREA":" ","LANE":" ","ALLEY":" ","HOUSE_NO":"２號","E_COORD97":169579.39999999999,"N_COORD97":2542217.2400000002,"ADDRESS":"崇明五街２號","OBJECTID":578597},"geometry":{"x":169579.4000000013,"y":2542217.2400000021}},{"attributes":{"ID":578625,"DIS_CODE":0,"TOWNNAME":"東區","LI":"忠孝里","LIN":"23鄰","STREET":"崇明六街","SECT":" ","MAREA":" ","LANE":" ","ALLEY":" ","HOUSE_NO":"５號","E_COORD97":169597.47,"N_COORD97":2542193.5499999998,"ADDRESS":"崇明六街５號","OBJECTID":578598},"geometry":{"x":169597.46999999974,"y":2542193.5500000007}},{"attributes":{"ID":578626,"DIS_CODE":0,"TOWNNAME":"東區","LI":"忠孝里","LIN":"23鄰","STREET":"崇明六街","SECT":" ","MAREA":" ","LANE":" ","ALLEY":" ","HOUSE_NO":"５號之１","E_COORD97":169602.17999999999,"N_COORD97":2542195.8999999999,"ADDRESS":"崇明六街５號之１","OBJECTID":578599},"geometry":{"x":169602.18000000063,"y":2542195.9000000022}},{"attributes":{"ID":578627,"DIS_CODE":0,"TOWNNAME":"東區","LI":"忠孝里","LIN":"23鄰","STREET":"崇明六街","SECT":" ","MAREA":" ","LANE":" ","ALLEY":" ","HOUSE_NO":"５號之２","E_COORD97":169608.20999999999,"N_COORD97":2542196.6899999999,"ADDRESS":"崇明六街５號之２","OBJECTID":578600},"geometry":{"x":169608.20999999996,"y":2542196.6899999995}}]}