{"displayFieldName":"TOWNNAME","fieldAliases":{"ID":"ID","DIS_CODE":"DIS_CODE","TOWNNAME":"TOWNNAME","LI":"LI","LIN":"LIN","STREET":"STREET","SECT":"SECT","MAREA":"MAREA","LANE":"LANE","ALLEY":"ALLEY","HOUSE_NO":"HOUSE_NO","E_COORD97":"E_COORD97","N_COORD97":"N_COORD97","ADDRESS":"ADDRESS","OBJECTID":"OBJECTID"},"geometryType":"esriGeometryPoint","spatialReference":{"wkid":102443,"latestWkid":3826},"fields":[{"name":"ID","type":"esriFieldTypeDouble","alias":"ID"},{"name":"DIS_CODE","type":"esriFieldTypeInteger","alias":"DIS_CODE"},{"name":"TOWNNAME","type":"esriFieldTypeString","alias":"TOWNNAME","length":8},{"name":"LI","type":"esriFieldTypeString","alias":"LI","length":8},{"name":"LIN","type":"esriFieldTypeString","alias":"LIN","length":12},{"name":"STREET","type":"esriFieldTypeString","alias":"STREET","length":20},{"name":"SECT","type":"esriFieldTypeString","alias":"SECT","length":8},{"name":"MAREA","type":"esriFieldTypeString","alias":"MAREA","length":12},{"name":"LANE","type":"esriFieldTypeString","alias":"LANE","length":10},{"name":"ALLEY","type":"esriFieldTypeString","alias":"ALLEY","length":10},{"name":"HOUSE_NO","type":"esriFieldTypeString","alias":"HOUSE_NO","length":20},{"name":"E_COORD97","type":"esriFieldTypeDouble","alias":"E_COORD97"},{"name":"N_COORD97","type":"esriFieldTypeDouble","alias":"N_COORD97"},{"name":"ADDRESS","type":"esriFieldTypeString","alias":"ADDRESS","length":50},{"name":"OBJECTID","type":"esriFieldTypeOID","alias":"OBJECTID"}],"features":[{"attributes":{"ID":31601,"DIS_CODE":0,"TOWNNAME":"安南區","LI":"布袋里","LIN":"3鄰","STREET":"長和路","SECT":"四段","MAREA":" ","LANE":"２３１巷","ALLEY":"１２８弄","HOUSE_NO":"６號","E_COORD97":168803.26000000001,"N_COORD97":2551429.9300000002,"ADDRESS":"長和路四段２３１巷１２８弄６號","OBJECTID":31601},"geometry":{"x":168803.26000000071,"y":2551429.9300000016}},{"attributes":{"ID":31602,"DIS_CODE":0,"TOWNNAME":"安南區","LI":"安和里","LIN":"3鄰","STREET":"府安路","SECT":"三段","MAREA":" ","LANE":"２７６巷","ALLEY":" ","HOUSE_NO":"１１號","E_COORD97":169899.75,"N_COORD97":2547839.2599999998,"ADDRESS":"府安路三段２７６巷１１號","OBJECTID":31602},"geometry":{"x":169899.75,"y":2547839.2599999998}},{"attributes":{"ID":31603,"DIS_CODE":0,"TOWNNAME":"安南區","LI":"安和里","LIN":"3鄰","STREET":"府安路","SECT":"三段","MAREA":" ","LANE":"２７６巷","ALLEY":" ","HOUSE_NO":"１５號","E_COORD97":169891.64000000001,"N_COORD97":2547838.6200000001,"ADDRESS":"府安路三段２７６巷１５號","OBJECTID":31603},"geometry":{"x":169891.63999999966,"y":2547838.6200000048}},{"attributes":{"ID":31604,"DIS_CODE":0,"TOWNNAME":"安南區","LI":"安和里","LIN":"3鄰","STREET":"府安路","SECT":"三段","MAREA":" ","LANE":"２７６巷","ALLEY":" ","HOUSE_NO":"１７號","E_COORD97":169888.07000000001,"N_COORD97":2547840.8799999999,"ADDRESS":"府安路三段２７６巷１７號","OBJECTID":31604},"geometry":{"x":169888.07000000216,"y":2547840.879999999}},{"attributes":{"ID":31605,"DIS_CODE":0,"TOWNNAME":"安南區","LI":"安和里","LIN":"3鄰","STREET":"府安路","SECT":"三段","MAREA":" ","LANE":"２７６巷","ALLEY":" ","HOUSE_NO":"１９號","E_COORD97":169884.17999999999,"N_COORD97":2547842.5,"ADDRESS":"府安路三段２７６巷１９號","OBJECTID":31605},"geometry":{"x":169884.1799999997,"y":2547842.5000000019}},{"attributes":{"ID":31606,"DIS_CODE":0,"TOWNNAME":"安南區","LI":"安和里","LIN":"3鄰","STREET":"府安路","SECT":"三段","MAREA":" ","LANE":"２７６巷","ALLEY":" ","HOUSE_NO":"１號","E_COORD97":169920.5,"N_COORD97":2547840.2400000002,"ADDRESS":"府安路三段２７６巷１號","OBJECTID":31606},"geometry":{"x":169920.50000000093,"y":2547840.2399999984}},{"attributes":{"ID":31607,"DIS_CODE":0,"TOWNNAME":"安南區","LI":"安和里","LIN":"3鄰","STREET":"府安路","SECT":"三段","MAREA":" ","LANE":"２７６巷","ALLEY":" ","HOUSE_NO":"２號","E_COORD97":169925.67999999999,"N_COORD97":2547858.3700000001,"ADDRESS":"府安路三段２７６巷２號","OBJECTID":31607},"geometry":{"x":169925.68000000156,"y":2547858.3700000029}},{"attributes":{"ID":31608,"DIS_CODE":0,"TOWNNAME":"安南區","LI":"海東里","LIN":"14鄰","STREET":"海環街","SECT":" ","MAREA":" ","LANE":" ","ALLEY":" ","HOUSE_NO":"２８號","E_COORD97":166677.64000000001,"N_COORD97":2548871.1600000001,"ADDRESS":"海環街２８號","OBJECTID":31608},"geometry":{"x":166677.63999999966,"y":2548871.1600000001}},{"attributes":{"ID":31609,"DIS_CODE":0,"TOWNNAME":"安南區","LI":"海南里","LIN":"14鄰","STREET":"府安路","SECT":"七段","MAREA":" ","LANE":" ","ALLEY":" ","HOUSE_NO":"６４號","E_COORD97":165934.17999999999,"N_COORD97":2545893.48,"ADDRESS":"府安路七段６４號","OBJECTID":31609},"geometry":{"x":165934.18000000063,"y":2545893.4800000023}},{"attributes":{"ID":31610,"DIS_CODE":0,"TOWNNAME":"安南區","LI":"淵東里","LIN":"14鄰","STREET":"仁安一街","SECT":" ","MAREA":" ","LANE":" ","ALLEY":" ","HOUSE_NO":"２１號","E_COORD97":165640.67999999999,"N_COORD97":2550269.3599999999,"ADDRESS":"仁安一街２１號","OBJECTID":31610},"geometry":{"x":165640.68000000063,"y":2550269.3599999994}},{"attributes":{"ID":31611,"DIS_CODE":0,"TOWNNAME":"歸仁區","LI":"南保里","LIN":"42鄰","STREET":"保興街","SECT":" ","MAREA":" ","LANE":" ","ALLEY":" ","HOUSE_NO":"８號","E_COORD97":176504.59,"N_COORD97":2540978.8900000001,"ADDRESS":"保興街８號","OBJECTID":31611},"geometry":{"x":176504.58999999985,"y":2540978.8900000025}},{"attributes":{"ID":31612,"DIS_CODE":0,"TOWNNAME":"白河區","LI":"白河里","LIN":"14鄰","STREET":"中興街","SECT":" ","MAREA":" ","LANE":" ","ALLEY":" ","HOUSE_NO":"８號","E_COORD97":190314.57000000001,"N_COORD97":2583157.4500000002,"ADDRESS":"中興街８號","OBJECTID":31612},"geometry":{"x":190314.5700000003,"y":2583157.4499999993}},{"attributes":{"ID":31613,"DIS_CODE":0,"TOWNNAME":"西港區","LI":"營西里","LIN":"8鄰","STREET":" ","SECT":" ","MAREA":"後營","LANE":" ","ALLEY":" ","HOUSE_NO":"７１號之６","E_COORD97":169604.42000000001,"N_COORD97":2560474.29,"ADDRESS":"後營７１號之６","OBJECTID":31613},"geometry":{"x":169604.42000000086,"y":2560474.2899999991}},{"attributes":{"ID":31614,"DIS_CODE":0,"TOWNNAME":"西港區","LI":"營西里","LIN":"8鄰","STREET":" ","SECT":" ","MAREA":"後營","LANE":" ","ALLEY":" ","HOUSE_NO":"７１號","E_COORD97":169614.62,"N_COORD97":2560448.9700000002,"ADDRESS":"後營７１號","OBJECTID":31614},"geometry":{"x":169614.62000000197,"y":2560448.9700000025}},{"attributes":{"ID":31615,"DIS_CODE":0,"TOWNNAME":"西港區","LI":"營西里","LIN":"8鄰","STREET":" ","SECT":" ","MAREA":"後營","LANE":" ","ALLEY":" ","HOUSE_NO":"７２號之２","E_COORD97":169588.73999999999,"N_COORD97":2560508.04,"ADDRESS":"後營７２號之２","OBJECTID":31615},"geometry":{"x":169588.74000000115,"y":2560508.040000001}},{"attributes":{"ID":31616,"DIS_CODE":0,"TOWNNAME":"西港區","LI":"營西里","LIN":"8鄰","STREET":" ","SECT":" ","MAREA":"後營","LANE":" ","ALLEY":" ","HOUSE_NO":"７２號之６","E_COORD97":169531.10999999999,"N_COORD97":2560514.3999999999,"ADDRESS":"後營７２號之６","OBJECTID":31616},"geometry":{"x":169531.11000000034,"y":2560514.4000000022}},{"attributes":{"ID":31617,"DIS_CODE":0,"TOWNNAME":"西港區","LI":"營西里","LIN":"8鄰","STREET":" ","SECT":" ","MAREA":"後營","LANE":" ","ALLEY":" ","HOUSE_NO":"７２之７號","E_COORD97":169524.51999999999,"N_COORD97":2560331.0699999998,"ADDRESS":"後營７２之７號","OBJECTID":31617},"geometry":{"x":169524.51999999955,"y":2560331.0700000003}},{"attributes":{"ID":31618,"DIS_CODE":0,"TOWNNAME":"西港區","LI":"營西里","LIN":"8鄰","STREET":" ","SECT":" ","MAREA":"後營","LANE":" ","ALLEY":" ","HOUSE_NO":"７２號之８","E_COORD97":169466.37,"N_COORD97":2560495.7799999998,"ADDRESS":"後營７２號之８","OBJECTID":31618},"geometry":{"x":169466.37000000011,"y":2560495.7800000012}},{"attributes":{"ID":31619,"DIS_CODE":0,"TOWNNAME":"安南區","LI":"安和里","LIN":"3鄰","STREET":"府安路","SECT":"三段","MAREA":" ","LANE":"２７６巷","ALLEY":" ","HOUSE_NO":"３號","E_COORD97":169915.95999999999,"N_COORD97":2547837.9700000002,"ADDRESS":"府安路三段２７６巷３號","OBJECTID":31619},"geometry":{"x":169915.96000000089,"y":2547837.9700000007}},{"attributes":{"ID":31620,"DIS_CODE":0,"TOWNNAME":"安南區","LI":"安和里","LIN":"3鄰","STREET":"府安路","SECT":"三段","MAREA":" ","LANE":"２７６巷","ALLEY":" ","HOUSE_NO":"９號","E_COORD97":169903.95999999999,"N_COORD97":2547841.5299999998,"ADDRESS":"府安路三段２７６巷９號","OBJECTID":31620},"geometry":{"x":169903.96000000089,"y":2547841.5300000012}},{"attributes":{"ID":31621,"DIS_CODE":0,"TOWNNAME":"南區","LI":"光明里","LIN":"3鄰","STREET":"鹽埕路","SECT":" ","MAREA":" ","LANE":"２９１巷","ALLEY":"１４弄","HOUSE_NO":"５５號","E_COORD97":166772.39999999999,"N_COORD97":2541414.5299999998,"ADDRESS":"鹽埕路２９１巷１４弄５５號","OBJECTID":31621},"geometry":{"x":166772.4000000013,"y":2541414.5299999993}},{"attributes":{"ID":31622,"DIS_CODE":0,"TOWNNAME":"安南區","LI":"溪心里","LIN":"3鄰","STREET":"安中路","SECT":"二段","MAREA":" ","LANE":"３３６巷","ALLEY":"１５弄","HOUSE_NO":"６號","E_COORD97":166403.23999999999,"N_COORD97":2549796.48,"ADDRESS":"安中路二段３３６巷１５弄６號","OBJECTID":31622},"geometry":{"x":166403.24000000209,"y":2549796.4800000023}},{"attributes":{"ID":31623,"DIS_CODE":0,"TOWNNAME":"西港區","LI":"港東里","LIN":"8鄰","STREET":" ","SECT":" ","MAREA":"烏竹林","LANE":" ","ALLEY":" ","HOUSE_NO":"２１號之１","E_COORD97":169943.98000000001,"N_COORD97":2557889.6400000001,"ADDRESS":"烏竹林２１號之１","OBJECTID":31623},"geometry":{"x":169943.98000000045,"y":2557889.6400000006}},{"attributes":{"ID":31624,"DIS_CODE":0,"TOWNNAME":"西港區","LI":"港東里","LIN":"8鄰","STREET":" ","SECT":" ","MAREA":"烏竹林","LANE":" ","ALLEY":" ","HOUSE_NO":"２１號","E_COORD97":169962.42000000001,"N_COORD97":2557893.6299999999,"ADDRESS":"烏竹林２１號","OBJECTID":31624},"geometry":{"x":169962.41999999993,"y":2557893.6300000008}},{"attributes":{"ID":31625,"DIS_CODE":0,"TOWNNAME":"西港區","LI":"港東里","LIN":"8鄰","STREET":" ","SECT":" ","MAREA":"烏竹林","LANE":" ","ALLEY":" ","HOUSE_NO":"２２號","E_COORD97":169993.57999999999,"N_COORD97":2557915.6800000002,"ADDRESS":"烏竹林２２號","OBJECTID":31625},"geometry":{"x":169993.58000000101,"y":2557915.6799999997}},{"attributes":{"ID":31626,"DIS_CODE":0,"TOWNNAME":"西港區","LI":"港東里","LIN":"8鄰","STREET":" ","SECT":" ","MAREA":"烏竹林","LANE":" ","ALLEY":" ","HOUSE_NO":"２３之１號","E_COORD97":169982.04999999999,"N_COORD97":2557929.9900000002,"ADDRESS":"烏竹林２３之１號","OBJECTID":31626},"geometry":{"x":169982.04999999981,"y":2557929.9900000021}},{"attributes":{"ID":31627,"DIS_CODE":0,"TOWNNAME":"七股區","LI":"後港里","LIN":"15鄰","STREET":" ","SECT":" ","MAREA":"港西","LANE":" ","ALLEY":" ","HOUSE_NO":"４９號","E_COORD97":162273.69,"N_COORD97":2564851.1299999999,"ADDRESS":"港西４９號","OBJECTID":31627},"geometry":{"x":162273.69000000041,"y":2564851.129999999}},{"attributes":{"ID":31628,"DIS_CODE":0,"TOWNNAME":"安南區","LI":"溪心里","LIN":"3鄰","STREET":"安中路","SECT":"二段","MAREA":" ","LANE":"３３６巷","ALLEY":"１５弄","HOUSE_NO":"８號","E_COORD97":166396.89000000001,"N_COORD97":2549799.02,"ADDRESS":"安中路二段３３６巷１５弄８號","OBJECTID":31628},"geometry":{"x":166396.8900000006,"y":2549799.0200000014}},{"attributes":{"ID":31629,"DIS_CODE":0,"TOWNNAME":"安南區","LI":"溪心里","LIN":"3鄰","STREET":"海佃路","SECT":"三段","MAREA":" ","LANE":"４８巷","ALLEY":"６０弄","HOUSE_NO":"３８之１號","E_COORD97":166369.79999999999,"N_COORD97":2549843.2599999998,"ADDRESS":"海佃路三段４８巷６０弄３８之１號","OBJECTID":31629},"geometry":{"x":166369.79999999981,"y":2549843.2599999979}},{"attributes":{"ID":31630,"DIS_CODE":0,"TOWNNAME":"安南區","LI":"溪心里","LIN":"3鄰","STREET":"海佃路","SECT":"三段","MAREA":" ","LANE":"４８巷","ALLEY":"６０弄","HOUSE_NO":"３８之２號","E_COORD97":166374.23999999999,"N_COORD97":2549842.4100000001,"ADDRESS":"海佃路三段４８巷６０弄３８之２號","OBJECTID":31630},"geometry":{"x":166374.23999999929,"y":2549842.4100000001}},{"attributes":{"ID":31631,"DIS_CODE":0,"TOWNNAME":"安南區","LI":"溪心里","LIN":"3鄰","STREET":"海佃路","SECT":"三段","MAREA":" ","LANE":"４８巷","ALLEY":"６０弄","HOUSE_NO":"３８之３號","E_COORD97":166377.63,"N_COORD97":2549841.1400000001,"ADDRESS":"海佃路三段４８巷６０弄３８之３號","OBJECTID":31631},"geometry":{"x":166377.62999999989,"y":2549841.1400000006}},{"attributes":{"ID":31632,"DIS_CODE":0,"TOWNNAME":"安南區","LI":"溪心里","LIN":"3鄰","STREET":"海佃路","SECT":"三段","MAREA":" ","LANE":"４８巷","ALLEY":"６０弄","HOUSE_NO":"３８之５號","E_COORD97":166381.01999999999,"N_COORD97":2549840.5099999998,"ADDRESS":"海佃路三段４８巷６０弄３８之５號","OBJECTID":31632},"geometry":{"x":166381.02000000048,"y":2549840.5099999998}},{"attributes":{"ID":31633,"DIS_CODE":0,"TOWNNAME":"安南區","LI":"溪心里","LIN":"3鄰","STREET":"海佃路","SECT":"三段","MAREA":" ","LANE":"４８巷","ALLEY":"６０弄","HOUSE_NO":"３８之６號","E_COORD97":166383.76999999999,"N_COORD97":2549839.0299999998,"ADDRESS":"海佃路三段４８巷６０弄３８之６號","OBJECTID":31633},"geometry":{"x":166383.77000000048,"y":2549839.0300000012}},{"attributes":{"ID":31634,"DIS_CODE":0,"TOWNNAME":"安南區","LI":"溪心里","LIN":"3鄰","STREET":"海佃路","SECT":"三段","MAREA":" ","LANE":"４８巷","ALLEY":"６０弄","HOUSE_NO":"３８之７號","E_COORD97":166386.31,"N_COORD97":2549837.54,"ADDRESS":"海佃路三段４８巷６０弄３８之７號","OBJECTID":31634},"geometry":{"x":166386.30999999959,"y":2549837.5400000028}},{"attributes":{"ID":31635,"DIS_CODE":0,"TOWNNAME":"安南區","LI":"總頭里","LIN":"14鄰","STREET":"長溪路","SECT":"二段","MAREA":" ","LANE":" ","ALLEY":" ","HOUSE_NO":"２９０號","E_COORD97":168370.14000000001,"N_COORD97":2549854.3999999999,"ADDRESS":"長溪路二段２９０號","OBJECTID":31635},"geometry":{"x":168370.1400000006,"y":2549854.4000000022}},{"attributes":{"ID":31636,"DIS_CODE":0,"TOWNNAME":"永康區","LI":"龍潭里","LIN":"14鄰","STREET":"龍埔街","SECT":" ","MAREA":" ","LANE":" ","ALLEY":" ","HOUSE_NO":"８６號","E_COORD97":174588.09,"N_COORD97":2548257.7599999998,"ADDRESS":"龍埔街８６號","OBJECTID":31636},"geometry":{"x":174588.09000000171,"y":2548257.7600000016}},{"attributes":{"ID":31637,"DIS_CODE":0,"TOWNNAME":"永康區","LI":"中華里","LIN":"14鄰","STREET":"忠義街","SECT":" ","MAREA":" ","LANE":" ","ALLEY":" ","HOUSE_NO":"１６號","E_COORD97":171728.92000000001,"N_COORD97":2544390.77,"ADDRESS":"忠義街１６號","OBJECTID":31637},"geometry":{"x":171728.91999999993,"y":2544390.7699999996}},{"attributes":{"ID":31638,"DIS_CODE":0,"TOWNNAME":"永康區","LI":"大灣里","LIN":"14鄰","STREET":"民族路","SECT":" ","MAREA":" ","LANE":" ","ALLEY":" ","HOUSE_NO":"３９７號","E_COORD97":174837.32000000001,"N_COORD97":2545316.4700000002,"ADDRESS":"民族路３９７號","OBJECTID":31638},"geometry":{"x":174837.3200000003,"y":2545316.4700000007}},{"attributes":{"ID":31639,"DIS_CODE":0,"TOWNNAME":"永康區","LI":"大橋里","LIN":"14鄰","STREET":"中華路","SECT":" ","MAREA":" ","LANE":" ","ALLEY":" ","HOUSE_NO":"７６４號","E_COORD97":170890.73000000001,"N_COORD97":2546403.9900000002,"ADDRESS":"中華路７６４號","OBJECTID":31639},"geometry":{"x":170890.73000000231,"y":2546403.9900000002}},{"attributes":{"ID":31640,"DIS_CODE":0,"TOWNNAME":"歸仁區","LI":"南興里","LIN":"25鄰","STREET":"南興街","SECT":" ","MAREA":" ","LANE":" ","ALLEY":" ","HOUSE_NO":"２５８號","E_COORD97":175543.69,"N_COORD97":2541387.25,"ADDRESS":"南興街２５８號","OBJECTID":31640},"geometry":{"x":175543.69000000041,"y":2541387.25}},{"attributes":{"ID":31641,"DIS_CODE":0,"TOWNNAME":"永康區","LI":"西灣里","LIN":"14鄰","STREET":"大灣五街","SECT":" ","MAREA":" ","LANE":" ","ALLEY":" ","HOUSE_NO":"５２號","E_COORD97":174744.32999999999,"N_COORD97":2545247.8100000001,"ADDRESS":"大灣五街５２號","OBJECTID":31641},"geometry":{"x":174744.32999999914,"y":2545247.8100000024}},{"attributes":{"ID":31642,"DIS_CODE":0,"TOWNNAME":"永康區","LI":"埔園里","LIN":"14鄰","STREET":"中山路","SECT":" ","MAREA":" ","LANE":" ","ALLEY":" ","HOUSE_NO":"２９９號","E_COORD97":173622.01000000001,"N_COORD97":2548299.25,"ADDRESS":"中山路２９９號","OBJECTID":31642},"geometry":{"x":173622.00999999978,"y":2548299.2500000019}},{"attributes":{"ID":31643,"DIS_CODE":0,"TOWNNAME":"永康區","LI":"埔園里","LIN":"14鄰","STREET":"中山路","SECT":" ","MAREA":" ","LANE":" ","ALLEY":" ","HOUSE_NO":"２８７號","E_COORD97":173626.45000000001,"N_COORD97":2548273.25,"ADDRESS":"中山路２８７號","OBJECTID":31643},"geometry":{"x":173626.44999999925,"y":2548273.25}},{"attributes":{"ID":31644,"DIS_CODE":0,"TOWNNAME":"永康區","LI":"埔園里","LIN":"14鄰","STREET":"中山路","SECT":" ","MAREA":" ","LANE":" ","ALLEY":" ","HOUSE_NO":"２９３號","E_COORD97":173623.48999999999,"N_COORD97":2548285.25,"ADDRESS":"中山路２９３號","OBJECTID":31644},"geometry":{"x":173623.49000000115,"y":2548285.2500000019}},{"attributes":{"ID":31645,"DIS_CODE":0,"TOWNNAME":"安南區","LI":"溪心里","LIN":"3鄰","STREET":"海佃路","SECT":"三段","MAREA":" ","LANE":"４８巷","ALLEY":"６０弄","HOUSE_NO":"３８之８號","E_COORD97":166390.12,"N_COORD97":2549835.4300000002,"ADDRESS":"海佃路三段４８巷６０弄３８之８號","OBJECTID":31645},"geometry":{"x":166390.12000000011,"y":2549835.4300000034}},{"attributes":{"ID":31646,"DIS_CODE":0,"TOWNNAME":"安南區","LI":"溪心里","LIN":"3鄰","STREET":"海佃路","SECT":"三段","MAREA":" ","LANE":"４８巷","ALLEY":"６０弄","HOUSE_NO":"３８之９號","E_COORD97":166393.07999999999,"N_COORD97":2549833.73,"ADDRESS":"海佃路三段４８巷６０弄３８之９號","OBJECTID":31646},"geometry":{"x":166393.08000000007,"y":2549833.7300000004}},{"attributes":{"ID":31647,"DIS_CODE":0,"TOWNNAME":"安南區","LI":"溪心里","LIN":"3鄰","STREET":"海佃路","SECT":"三段","MAREA":" ","LANE":"４８巷","ALLEY":"６０弄","HOUSE_NO":"３８之１０號","E_COORD97":166397.53,"N_COORD97":2549831.6200000001,"ADDRESS":"海佃路三段４８巷６０弄３８之１０號","OBJECTID":31647},"geometry":{"x":166397.53000000026,"y":2549831.620000001}},{"attributes":{"ID":31648,"DIS_CODE":0,"TOWNNAME":"北區","LI":"文元里","LIN":"3鄰","STREET":"文賢路","SECT":" ","MAREA":" ","LANE":"１１２２巷","ALLEY":"９９弄","HOUSE_NO":"５號","E_COORD97":167633.03,"N_COORD97":2546394.2999999998,"ADDRESS":"文賢路１１２２巷９９弄５號","OBJECTID":31648},"geometry":{"x":167633.03000000026,"y":2546394.3000000026}},{"attributes":{"ID":31649,"DIS_CODE":0,"TOWNNAME":"安南區","LI":"安和里","LIN":"4鄰","STREET":"府安路","SECT":"三段","MAREA":" ","LANE":"２８９巷","ALLEY":" ","HOUSE_NO":"２號","E_COORD97":169914.98000000001,"N_COORD97":2547799.75,"ADDRESS":"府安路三段２８９巷２號","OBJECTID":31649},"geometry":{"x":169914.98000000138,"y":2547799.7500000019}},{"attributes":{"ID":31650,"DIS_CODE":0,"TOWNNAME":"安南區","LI":"溪心里","LIN":"3鄰","STREET":"海佃路","SECT":"三段","MAREA":" ","LANE":"４８巷","ALLEY":"６０弄","HOUSE_NO":"３８之１１號","E_COORD97":166401.76000000001,"N_COORD97":2549828.8700000001,"ADDRESS":"海佃路三段４８巷６０弄３８之１１號","OBJECTID":31650},"geometry":{"x":166401.75999999978,"y":2549828.870000001}},{"attributes":{"ID":31651,"DIS_CODE":0,"TOWNNAME":"安南區","LI":"溪心里","LIN":"3鄰","STREET":"海佃路","SECT":"三段","MAREA":" ","LANE":"４８巷","ALLEY":"６０弄","HOUSE_NO":"３８之１２號","E_COORD97":166406.20000000001,"N_COORD97":2549825.8999999999,"ADDRESS":"海佃路三段４８巷６０弄３８之１２號","OBJECTID":31651},"geometry":{"x":166406.20000000019,"y":2549825.9000000004}},{"attributes":{"ID":31652,"DIS_CODE":0,"TOWNNAME":"安南區","LI":"溪心里","LIN":"3鄰","STREET":"海佃路","SECT":"三段","MAREA":" ","LANE":"４８巷","ALLEY":"６０弄","HOUSE_NO":"３８之１３號","E_COORD97":166410.23000000001,"N_COORD97":2549824.21,"ADDRESS":"海佃路三段４８巷６０弄３８之１３號","OBJECTID":31652},"geometry":{"x":166410.23000000231,"y":2549824.2100000009}},{"attributes":{"ID":31653,"DIS_CODE":0,"TOWNNAME":"後壁區","LI":"侯伯里","LIN":"14鄰","STREET":" ","SECT":" ","MAREA":"後壁寮","LANE":" ","ALLEY":" ","HOUSE_NO":"１１０號之１","E_COORD97":185163.16,"N_COORD97":2585377.3199999998,"ADDRESS":"後壁寮１１０號之１","OBJECTID":31653},"geometry":{"x":185163.16000000108,"y":2585377.3200000003}},{"attributes":{"ID":31654,"DIS_CODE":0,"TOWNNAME":"後壁區","LI":"侯伯里","LIN":"14鄰","STREET":" ","SECT":" ","MAREA":"後壁寮","LANE":" ","ALLEY":" ","HOUSE_NO":"１１０號之３","E_COORD97":185162.41,"N_COORD97":2585418.4100000001,"ADDRESS":"後壁寮１１０號之３","OBJECTID":31654},"geometry":{"x":185162.41000000015,"y":2585418.4100000039}},{"attributes":{"ID":31655,"DIS_CODE":0,"TOWNNAME":"後壁區","LI":"侯伯里","LIN":"14鄰","STREET":" ","SECT":" ","MAREA":"後壁寮","LANE":" ","ALLEY":" ","HOUSE_NO":"１１１號","E_COORD97":185185.82000000001,"N_COORD97":2585352.1000000001,"ADDRESS":"後壁寮１１１號","OBJECTID":31655},"geometry":{"x":185185.82000000123,"y":2585352.1000000034}},{"attributes":{"ID":31656,"DIS_CODE":0,"TOWNNAME":"後壁區","LI":"侯伯里","LIN":"14鄰","STREET":" ","SECT":" ","MAREA":"後壁寮","LANE":" ","ALLEY":" ","HOUSE_NO":"１１２號之２","E_COORD97":185237.67000000001,"N_COORD97":2585340.4900000002,"ADDRESS":"後壁寮１１２號之２","OBJECTID":31656},"geometry":{"x":185237.67000000086,"y":2585340.4900000021}},{"attributes":{"ID":31657,"DIS_CODE":0,"TOWNNAME":"後壁區","LI":"侯伯里","LIN":"14鄰","STREET":" ","SECT":" ","MAREA":"後壁寮","LANE":" ","ALLEY":" ","HOUSE_NO":"１１２號","E_COORD97":185203.60999999999,"N_COORD97":2585355.3599999999,"ADDRESS":"後壁寮１１２號","OBJECTID":31657},"geometry":{"x":185203.61000000034,"y":2585355.3599999994}},{"attributes":{"ID":31658,"DIS_CODE":0,"TOWNNAME":"安南區","LI":"溪心里","LIN":"3鄰","STREET":"海佃路","SECT":"三段","MAREA":" ","LANE":"４８巷","ALLEY":"６０弄","HOUSE_NO":"３８之１５號","E_COORD97":166413.82000000001,"N_COORD97":2549822.52,"ADDRESS":"海佃路三段４８巷６０弄３８之１５號","OBJECTID":31658},"geometry":{"x":166413.8200000003,"y":2549822.5200000014}},{"attributes":{"ID":31659,"DIS_CODE":0,"TOWNNAME":"學甲區","LI":"仁得里","LIN":"1鄰","STREET":"八德街","SECT":" ","MAREA":" ","LANE":" ","ALLEY":" ","HOUSE_NO":"１０號","E_COORD97":166346.85000000001,"N_COORD97":2569709.8199999998,"ADDRESS":"八德街１０號","OBJECTID":31659},"geometry":{"x":166346.84999999963,"y":2569709.8200000003}},{"attributes":{"ID":31660,"DIS_CODE":0,"TOWNNAME":"安南區","LI":"溪心里","LIN":"3鄰","STREET":"海佃路","SECT":"三段","MAREA":" ","LANE":"４８巷","ALLEY":"６０弄","HOUSE_NO":"３８之１６號","E_COORD97":166417.63,"N_COORD97":2549821.6699999999,"ADDRESS":"海佃路三段４８巷６０弄３８之１６號","OBJECTID":31660},"geometry":{"x":166417.63000000082,"y":2549821.6700000018}},{"attributes":{"ID":31661,"DIS_CODE":0,"TOWNNAME":"安南區","LI":"溪心里","LIN":"3鄰","STREET":"安中路","SECT":"二段","MAREA":" ","LANE":"３３６巷","ALLEY":"１５弄","HOUSE_NO":"１０號","E_COORD97":166390.22,"N_COORD97":2549801,"ADDRESS":"安中路二段３３６巷１５弄１０號","OBJECTID":31661},"geometry":{"x":166390.21999999974,"y":2549801}},{"attributes":{"ID":31662,"DIS_CODE":0,"TOWNNAME":"安南區","LI":"溪心里","LIN":"3鄰","STREET":"安中路","SECT":"二段","MAREA":" ","LANE":"３３６巷","ALLEY":"１５弄","HOUSE_NO":"１２號","E_COORD97":166384.35000000001,"N_COORD97":2549803.23,"ADDRESS":"安中路二段３３６巷１５弄１２號","OBJECTID":31662},"geometry":{"x":166384.34999999963,"y":2549803.2300000004}},{"attributes":{"ID":31663,"DIS_CODE":0,"TOWNNAME":"楠西區","LI":"楠西里","LIN":"18鄰","STREET":"中正路","SECT":" ","MAREA":" ","LANE":" ","ALLEY":" ","HOUSE_NO":"７４號","E_COORD97":197222.81,"N_COORD97":2564046.25,"ADDRESS":"中正路７４號","OBJECTID":31663},"geometry":{"x":197222.81000000052,"y":2564046.2500000037}},{"attributes":{"ID":31664,"DIS_CODE":0,"TOWNNAME":"楠西區","LI":"東勢里","LIN":"14鄰","STREET":"茄拔路","SECT":" ","MAREA":" ","LANE":" ","ALLEY":" ","HOUSE_NO":"１６５號","E_COORD97":197396.62,"N_COORD97":2563790.2000000002,"ADDRESS":"茄拔路１６５號","OBJECTID":31664},"geometry":{"x":197396.62000000011,"y":2563790.1999999993}},{"attributes":{"ID":31665,"DIS_CODE":0,"TOWNNAME":"楠西區","LI":"楠西里","LIN":"8鄰","STREET":"中興路","SECT":" ","MAREA":" ","LANE":" ","ALLEY":" ","HOUSE_NO":"４４號","E_COORD97":197200.70999999999,"N_COORD97":2564208.25,"ADDRESS":"中興路４４號","OBJECTID":31665},"geometry":{"x":197200.70999999996,"y":2564208.25}},{"attributes":{"ID":31666,"DIS_CODE":0,"TOWNNAME":"楠西區","LI":"楠西里","LIN":"7鄰","STREET":"中興路","SECT":" ","MAREA":" ","LANE":" ","ALLEY":" ","HOUSE_NO":"１３６號","E_COORD97":197278.06,"N_COORD97":2564473.25,"ADDRESS":"中興路１３６號","OBJECTID":31666},"geometry":{"x":197278.05999999866,"y":2564473.2500000037}},{"attributes":{"ID":31667,"DIS_CODE":0,"TOWNNAME":"楠西區","LI":"楠西里","LIN":"4鄰","STREET":"中華路","SECT":" ","MAREA":" ","LANE":" ","ALLEY":" ","HOUSE_NO":"１７２號","E_COORD97":197075.45999999999,"N_COORD97":2564198.25,"ADDRESS":"中華路１７２號","OBJECTID":31667},"geometry":{"x":197075.45999999996,"y":2564198.25}},{"attributes":{"ID":31668,"DIS_CODE":0,"TOWNNAME":"楠西區","LI":"楠西里","LIN":"20鄰","STREET":"民族路","SECT":" ","MAREA":" ","LANE":" ","ALLEY":" ","HOUSE_NO":"７２號","E_COORD97":197017.04000000001,"N_COORD97":2564004.29,"ADDRESS":"民族路７２號","OBJECTID":31668},"geometry":{"x":197017.04000000004,"y":2564004.2900000028}},{"attributes":{"ID":31669,"DIS_CODE":0,"TOWNNAME":"楠西區","LI":"東勢里","LIN":"20鄰","STREET":"忠孝路","SECT":" ","MAREA":" ","LANE":" ","ALLEY":" ","HOUSE_NO":"７５號","E_COORD97":197596.59,"N_COORD97":2564173.25,"ADDRESS":"忠孝路７５號","OBJECTID":31669},"geometry":{"x":197596.58999999985,"y":2564173.2500000019}},{"attributes":{"ID":31670,"DIS_CODE":0,"TOWNNAME":"楠西區","LI":"楠西里","LIN":"7鄰","STREET":"中興路","SECT":" ","MAREA":" ","LANE":" ","ALLEY":" ","HOUSE_NO":"１０４號","E_COORD97":197241.26000000001,"N_COORD97":2564380.25,"ADDRESS":"中興路１０４號","OBJECTID":31670},"geometry":{"x":197241.25999999978,"y":2564380.25}},{"attributes":{"ID":31671,"DIS_CODE":0,"TOWNNAME":"楠西區","LI":"東勢里","LIN":"4鄰","STREET":"東勢路","SECT":" ","MAREA":" ","LANE":" ","ALLEY":" ","HOUSE_NO":"１５６號","E_COORD97":197412.37,"N_COORD97":2564046.29,"ADDRESS":"東勢路１５６號","OBJECTID":31671},"geometry":{"x":197412.37000000197,"y":2564046.290000001}},{"attributes":{"ID":31672,"DIS_CODE":0,"TOWNNAME":"安南區","LI":"安和里","LIN":"3鄰","STREET":"府安路","SECT":"三段","MAREA":" ","LANE":"２７６巷","ALLEY":" ","HOUSE_NO":"５號","E_COORD97":169912.39000000001,"N_COORD97":2547840.2400000002,"ADDRESS":"府安路三段２７６巷５號","OBJECTID":31672},"geometry":{"x":169912.39000000153,"y":2547840.2399999984}},{"attributes":{"ID":31673,"DIS_CODE":0,"TOWNNAME":"東區","LI":"虎尾里","LIN":"3鄰","STREET":"東門路","SECT":"三段","MAREA":" ","LANE":"１７９巷","ALLEY":"１４７弄","HOUSE_NO":"１２８號","E_COORD97":171812.07999999999,"N_COORD97":2542192.3399999999,"ADDRESS":"東門路三段十七九巷１４７弄１２８號","OBJECTID":31673},"geometry":{"x":171812.08000000101,"y":2542192.3400000017}},{"attributes":{"ID":31674,"DIS_CODE":0,"TOWNNAME":"安南區","LI":"安和里","LIN":"3鄰","STREET":"府安路","SECT":"三段","MAREA":" ","LANE":"２７６巷","ALLEY":" ","HOUSE_NO":"７號","E_COORD97":169907.53,"N_COORD97":2547838.6200000001,"ADDRESS":"府安路三段２７６巷７號","OBJECTID":31674},"geometry":{"x":169907.53000000119,"y":2547838.6200000048}},{"attributes":{"ID":31675,"DIS_CODE":0,"TOWNNAME":"安南區","LI":"安和里","LIN":"3鄰","STREET":"府安路","SECT":"三段","MAREA":" ","LANE":"２７６巷","ALLEY":" ","HOUSE_NO":"１３號","E_COORD97":169895.85999999999,"N_COORD97":2547841.21,"ADDRESS":"府安路三段２７６巷１３號","OBJECTID":31675},"geometry":{"x":169895.86000000034,"y":2547841.2100000046}},{"attributes":{"ID":31676,"DIS_CODE":0,"TOWNNAME":"永康區","LI":"\u25A0行里","LIN":"8鄰","STREET":"中正一街","SECT":" ","MAREA":" ","LANE":"３２巷","ALLEY":"６弄","HOUSE_NO":"６號","E_COORD97":172832.26000000001,"N_COORD97":2548276.9900000002,"ADDRESS":"中正一街３２巷６弄６號","OBJECTID":31676},"geometry":{"x":172832.25999999885,"y":2548276.9900000021}},{"attributes":{"ID":31677,"DIS_CODE":0,"TOWNNAME":"北區","LI":"文元里","LIN":"3鄰","STREET":"文賢路","SECT":" ","MAREA":" ","LANE":"１１２２巷","ALLEY":"９９弄","HOUSE_NO":"７號","E_COORD97":167633.82000000001,"N_COORD97":2546400.9700000002,"ADDRESS":"文賢路１１２２巷９９弄７號","OBJECTID":31677},"geometry":{"x":167633.82000000123,"y":2546400.9700000007}},{"attributes":{"ID":31678,"DIS_CODE":0,"TOWNNAME":"北區","LI":"文元里","LIN":"3鄰","STREET":"文賢路","SECT":" ","MAREA":" ","LANE":"１１２２巷","ALLEY":"９９弄","HOUSE_NO":"１號","E_COORD97":167632.07999999999,"N_COORD97":2546380.9700000002,"ADDRESS":"文賢路１１２２巷９９弄１號","OBJECTID":31678},"geometry":{"x":167632.08000000101,"y":2546380.9700000007}},{"attributes":{"ID":31679,"DIS_CODE":0,"TOWNNAME":"北區","LI":"文元里","LIN":"3鄰","STREET":"文賢路","SECT":" ","MAREA":" ","LANE":"１１２２巷","ALLEY":"９９弄","HOUSE_NO":"３號","E_COORD97":167632.39000000001,"N_COORD97":2546388.4300000002,"ADDRESS":"文賢路１１２２巷９９弄３號","OBJECTID":31679},"geometry":{"x":167632.3900000006,"y":2546388.4300000016}},{"attributes":{"ID":31680,"DIS_CODE":0,"TOWNNAME":"北區","LI":"文元里","LIN":"3鄰","STREET":"文賢路","SECT":" ","MAREA":" ","LANE":"１１２２巷","ALLEY":"９９弄","HOUSE_NO":"２號","E_COORD97":167649.06,"N_COORD97":2546381.1299999999,"ADDRESS":"文賢路１１２２巷９９弄２號","OBJECTID":31680},"geometry":{"x":167649.05999999959,"y":2546381.129999999}},{"attributes":{"ID":31681,"DIS_CODE":0,"TOWNNAME":"東區","LI":"東智里","LIN":"14鄰","STREET":"崇德三十二街","SECT":" ","MAREA":" ","LANE":" ","ALLEY":" ","HOUSE_NO":"３８號","E_COORD97":170903.97,"N_COORD97":2540081.9700000002,"ADDRESS":"崇德三十二街３８號","OBJECTID":31681},"geometry":{"x":170903.97000000067,"y":2540081.9699999988}},{"attributes":{"ID":31682,"DIS_CODE":0,"TOWNNAME":"歸仁區","LI":"文化里","LIN":"18鄰","STREET":"文化北二街","SECT":" ","MAREA":" ","LANE":" ","ALLEY":" ","HOUSE_NO":"４３號","E_COORD97":177138.81,"N_COORD97":2541463.3399999999,"ADDRESS":"文化北二街４３號","OBJECTID":31682},"geometry":{"x":177138.80999999959,"y":2541463.3400000017}},{"attributes":{"ID":31683,"DIS_CODE":0,"TOWNNAME":"歸仁區","LI":"南興里","LIN":"25鄰","STREET":"南興街","SECT":" ","MAREA":" ","LANE":" ","ALLEY":" ","HOUSE_NO":"２６２號","E_COORD97":175543.59,"N_COORD97":2541378.25,"ADDRESS":"南興街２６２號","OBJECTID":31683},"geometry":{"x":175543.58999999985,"y":2541378.2500000037}},{"attributes":{"ID":31684,"DIS_CODE":0,"TOWNNAME":"後壁區","LI":"侯伯里","LIN":"14鄰","STREET":" ","SECT":" ","MAREA":"後壁寮","LANE":" ","ALLEY":" ","HOUSE_NO":"１２２號之４","E_COORD97":185267.73000000001,"N_COORD97":2585483.98,"ADDRESS":"後壁寮１２２號之４","OBJECTID":31684},"geometry":{"x":185267.73000000138,"y":2585483.9800000023}},{"attributes":{"ID":31685,"DIS_CODE":0,"TOWNNAME":"後壁區","LI":"侯伯里","LIN":"14鄰","STREET":" ","SECT":" ","MAREA":"後壁寮","LANE":" ","ALLEY":" ","HOUSE_NO":"１２２號之５","E_COORD97":185271,"N_COORD97":2585480.79,"ADDRESS":"後壁寮１２２號之５","OBJECTID":31685},"geometry":{"x":185271.00000000093,"y":2585480.7899999991}},{"attributes":{"ID":31686,"DIS_CODE":0,"TOWNNAME":"東區","LI":"富強里","LIN":"25鄰","STREET":"裕農路","SECT":" ","MAREA":" ","LANE":"４４６巷","ALLEY":"２５弄","HOUSE_NO":"５６號","E_COORD97":171073.82999999999,"N_COORD97":2542993.7799999998,"ADDRESS":"裕農路４４６巷２５弄５６號","OBJECTID":31686},"geometry":{"x":171073.83000000007,"y":2542993.7799999993}},{"attributes":{"ID":31687,"DIS_CODE":0,"TOWNNAME":"東區","LI":"富強里","LIN":"25鄰","STREET":"裕農路","SECT":" ","MAREA":" ","LANE":"４４６巷","ALLEY":"２５弄","HOUSE_NO":"５６之１號","E_COORD97":171072.73999999999,"N_COORD97":2542999.6800000002,"ADDRESS":"裕農路４４６巷２５弄５６之１號","OBJECTID":31687},"geometry":{"x":171072.74000000022,"y":2542999.6800000016}},{"attributes":{"ID":31688,"DIS_CODE":0,"TOWNNAME":"楠西區","LI":"楠西里","LIN":"25鄰","STREET":"茄拔路","SECT":" ","MAREA":" ","LANE":" ","ALLEY":" ","HOUSE_NO":"４８號","E_COORD97":197153.69,"N_COORD97":2563784.2799999998,"ADDRESS":"茄拔路４８號","OBJECTID":31688},"geometry":{"x":197153.69000000041,"y":2563784.2800000031}},{"attributes":{"ID":31689,"DIS_CODE":0,"TOWNNAME":"楠西區","LI":"楠西里","LIN":"25鄰","STREET":"四維路","SECT":" ","MAREA":" ","LANE":" ","ALLEY":" ","HOUSE_NO":"９３號","E_COORD97":197315.70999999999,"N_COORD97":2563745.25,"ADDRESS":"四維路９３號","OBJECTID":31689},"geometry":{"x":197315.70999999996,"y":2563745.2500000019}},{"attributes":{"ID":31690,"DIS_CODE":0,"TOWNNAME":"學甲區","LI":"仁得里","LIN":"1鄰","STREET":"八德街","SECT":" ","MAREA":" ","LANE":" ","ALLEY":" ","HOUSE_NO":"１１號","E_COORD97":166325.35999999999,"N_COORD97":2569683.1400000001,"ADDRESS":"八德街１１號","OBJECTID":31690},"geometry":{"x":166325.36000000034,"y":2569683.1400000025}},{"attributes":{"ID":31691,"DIS_CODE":0,"TOWNNAME":"西港區","LI":"港東里","LIN":"8鄰","STREET":" ","SECT":" ","MAREA":"烏竹林","LANE":" ","ALLEY":" ","HOUSE_NO":"２３號","E_COORD97":169997.81,"N_COORD97":2557933.4900000002,"ADDRESS":"烏竹林２３號","OBJECTID":31691},"geometry":{"x":169997.81000000052,"y":2557933.4900000021}},{"attributes":{"ID":31692,"DIS_CODE":0,"TOWNNAME":"西港區","LI":"港東里","LIN":"8鄰","STREET":" ","SECT":" ","MAREA":"烏竹林","LANE":" ","ALLEY":" ","HOUSE_NO":"２４號之１","E_COORD97":170037.42999999999,"N_COORD97":2557919.1400000001,"ADDRESS":"烏竹林２４號之１","OBJECTID":31692},"geometry":{"x":170037.43000000156,"y":2557919.1400000025}},{"attributes":{"ID":31693,"DIS_CODE":0,"TOWNNAME":"西港區","LI":"港東里","LIN":"8鄰","STREET":" ","SECT":" ","MAREA":"烏竹林","LANE":" ","ALLEY":" ","HOUSE_NO":"２４號之２","E_COORD97":170042.69,"N_COORD97":2557913.4199999999,"ADDRESS":"烏竹林２４號之２","OBJECTID":31693},"geometry":{"x":170042.69000000041,"y":2557913.4199999999}},{"attributes":{"ID":31694,"DIS_CODE":0,"TOWNNAME":"永康區","LI":"新樹里","LIN":"8鄰","STREET":"富強路","SECT":"二段","MAREA":" ","LANE":"５６巷","ALLEY":"５８弄","HOUSE_NO":"３８號","E_COORD97":175817.17999999999,"N_COORD97":2546914.52,"ADDRESS":"富強路二段５６巷５８弄３８號","OBJECTID":31694},"geometry":{"x":175817.18000000063,"y":2546914.5199999996}},{"attributes":{"ID":31695,"DIS_CODE":0,"TOWNNAME":"西港區","LI":"港東里","LIN":"8鄰","STREET":" ","SECT":" ","MAREA":"烏竹林","LANE":" ","ALLEY":" ","HOUSE_NO":"２４之３號","E_COORD97":170029.03,"N_COORD97":2557940.6200000001,"ADDRESS":"烏竹林２４之３號","OBJECTID":31695},"geometry":{"x":170029.03000000212,"y":2557940.620000001}},{"attributes":{"ID":31696,"DIS_CODE":0,"TOWNNAME":"永康區","LI":"網寮里","LIN":"8鄰","STREET":"永二街","SECT":" ","MAREA":" ","LANE":"２４４巷","ALLEY":"６弄","HOUSE_NO":"３２號","E_COORD97":173341.10999999999,"N_COORD97":2546338.5899999999,"ADDRESS":"永二街２４４巷６弄３２號","OBJECTID":31696},"geometry":{"x":173341.11000000127,"y":2546338.5899999999}},{"attributes":{"ID":31697,"DIS_CODE":0,"TOWNNAME":"永康區","LI":"新樹里","LIN":"8鄰","STREET":"富強路","SECT":"二段","MAREA":" ","LANE":"５６巷","ALLEY":"１９弄","HOUSE_NO":"１號","E_COORD97":175785.26999999999,"N_COORD97":2546965.3599999999,"ADDRESS":"富強路二段５６巷１９弄１號","OBJECTID":31697},"geometry":{"x":175785.27000000048,"y":2546965.3600000013}},{"attributes":{"ID":31698,"DIS_CODE":0,"TOWNNAME":"永康區","LI":"網寮里","LIN":"8鄰","STREET":"永二街","SECT":" ","MAREA":" ","LANE":"２４４巷","ALLEY":"４弄","HOUSE_NO":"１７號","E_COORD97":173304.67999999999,"N_COORD97":2546342.3999999999,"ADDRESS":"永二街２４４巷４弄１７號","OBJECTID":31698},"geometry":{"x":173304.68000000063,"y":2546342.4000000022}},{"attributes":{"ID":31699,"DIS_CODE":0,"TOWNNAME":"永康區","LI":"網寮里","LIN":"8鄰","STREET":"永二街","SECT":" ","MAREA":" ","LANE":"２４４巷","ALLEY":"６弄","HOUSE_NO":"１４號","E_COORD97":173300.37,"N_COORD97":2546364.8300000001,"ADDRESS":"永二街２４４巷６弄１４號","OBJECTID":31699},"geometry":{"x":173300.37000000104,"y":2546364.8300000038}},{"attributes":{"ID":31700,"DIS_CODE":0,"TOWNNAME":"永康區","LI":"網寮里","LIN":"8鄰","STREET":"永二街","SECT":" ","MAREA":" ","LANE":"２４４巷","ALLEY":"４弄","HOUSE_NO":"５號","E_COORD97":173276.23000000001,"N_COORD97":2546359.1400000001,"ADDRESS":"永二街２４４巷４弄５號","OBJECTID":31700},"geometry":{"x":173276.23000000138,"y":2546359.1400000006}},{"attributes":{"ID":31701,"DIS_CODE":0,"TOWNNAME":"永康區","LI":"新樹里","LIN":"8鄰","STREET":"富強路","SECT":"二段","MAREA":" ","LANE":"５６巷","ALLEY":"５８弄","HOUSE_NO":"５６號","E_COORD97":175864.07999999999,"N_COORD97":2547003.3399999999,"ADDRESS":"富強路二段５６巷５８弄５６號","OBJECTID":31701},"geometry":{"x":175864.08000000007,"y":2547003.3400000017}},{"attributes":{"ID":31702,"DIS_CODE":0,"TOWNNAME":"安南區","LI":"安慶里","LIN":"8鄰","STREET":"長溪路","SECT":"一段","MAREA":" ","LANE":"３４２巷","ALLEY":"３８弄","HOUSE_NO":"２７號","E_COORD97":168757.06,"N_COORD97":2548970.21,"ADDRESS":"長溪路一段３４２巷３８弄２７號","OBJECTID":31702},"geometry":{"x":168757.06000000052,"y":2548970.2100000046}},{"attributes":{"ID":31703,"DIS_CODE":0,"TOWNNAME":"安南區","LI":"安慶里","LIN":"8鄰","STREET":"長溪路","SECT":"一段","MAREA":" ","LANE":"３４２巷","ALLEY":"３８弄","HOUSE_NO":"４１號","E_COORD97":168779.54999999999,"N_COORD97":2548960.7400000002,"ADDRESS":"長溪路一段３４２巷３８弄４１號","OBJECTID":31703},"geometry":{"x":168779.55000000075,"y":2548960.7400000021}},{"attributes":{"ID":31704,"DIS_CODE":0,"TOWNNAME":"安南區","LI":"安慶里","LIN":"8鄰","STREET":"長溪路","SECT":"一段","MAREA":" ","LANE":"３４２巷","ALLEY":"３８弄","HOUSE_NO":"４３號","E_COORD97":168780.31,"N_COORD97":2548955.6899999999,"ADDRESS":"長溪路一段３４２巷３８弄４３號","OBJECTID":31704},"geometry":{"x":168780.31000000145,"y":2548955.6900000013}},{"attributes":{"ID":31705,"DIS_CODE":0,"TOWNNAME":"安南區","LI":"安慶里","LIN":"8鄰","STREET":"長溪路","SECT":"一段","MAREA":" ","LANE":"３４２巷","ALLEY":"３８弄","HOUSE_NO":"４２號","E_COORD97":168782.32999999999,"N_COORD97":2548942.52,"ADDRESS":"長溪路一段３４２巷３８弄４２號","OBJECTID":31705},"geometry":{"x":168782.32999999914,"y":2548942.5199999996}},{"attributes":{"ID":31706,"DIS_CODE":0,"TOWNNAME":"安南區","LI":"幸福里","LIN":"8鄰","STREET":"國安街","SECT":" ","MAREA":" ","LANE":"１５５巷","ALLEY":"６２弄","HOUSE_NO":"１號","E_COORD97":166751.45000000001,"N_COORD97":2546776.52,"ADDRESS":"國安街１５５巷６２弄１號","OBJECTID":31706},"geometry":{"x":166751.45000000112,"y":2546776.5200000033}},{"attributes":{"ID":31707,"DIS_CODE":0,"TOWNNAME":"歸仁區","LI":"南興里","LIN":"24鄰","STREET":"文化二十街","SECT":" ","MAREA":" ","LANE":" ","ALLEY":" ","HOUSE_NO":"３０號","E_COORD97":175490.09,"N_COORD97":2541281.3300000001,"ADDRESS":"文化二十街３０號","OBJECTID":31707},"geometry":{"x":175490.09000000171,"y":2541281.3300000001}},{"attributes":{"ID":31708,"DIS_CODE":0,"TOWNNAME":"安南區","LI":"溪心里","LIN":"14鄰","STREET":"本原街","SECT":"二段","MAREA":" ","LANE":" ","ALLEY":" ","HOUSE_NO":"４２８號","E_COORD97":166066.23000000001,"N_COORD97":2550576.27,"ADDRESS":"本原街二段４２８號","OBJECTID":31708},"geometry":{"x":166066.23000000231,"y":2550576.2700000014}},{"attributes":{"ID":31709,"DIS_CODE":0,"TOWNNAME":"安南區","LI":"溪心里","LIN":"14鄰","STREET":"本原街","SECT":"二段","MAREA":" ","LANE":" ","ALLEY":" ","HOUSE_NO":"４３０號","E_COORD97":166059.72,"N_COORD97":2550574.3599999999,"ADDRESS":"本原街二段４３０號","OBJECTID":31709},"geometry":{"x":166059.71999999974,"y":2550574.3599999994}},{"attributes":{"ID":31710,"DIS_CODE":0,"TOWNNAME":"安南區","LI":"新順里","LIN":"14鄰","STREET":"永安二街","SECT":" ","MAREA":" ","LANE":" ","ALLEY":" ","HOUSE_NO":"２５號","E_COORD97":169924.16,"N_COORD97":2549490.8700000001,"ADDRESS":"永安二街２５號","OBJECTID":31710},"geometry":{"x":169924.16000000015,"y":2549490.870000001}},{"attributes":{"ID":31711,"DIS_CODE":0,"TOWNNAME":"白河區","LI":"白河里","LIN":"14鄰","STREET":"中興街","SECT":" ","MAREA":" ","LANE":" ","ALLEY":" ","HOUSE_NO":"３之７號","E_COORD97":190309,"N_COORD97":2583143.4399999999,"ADDRESS":"中興街３之７號","OBJECTID":31711},"geometry":{"x":190309.00000000093,"y":2583143.4400000013}},{"attributes":{"ID":31712,"DIS_CODE":0,"TOWNNAME":"西港區","LI":"港東里","LIN":"8鄰","STREET":" ","SECT":" ","MAREA":"烏竹林","LANE":" ","ALLEY":" ","HOUSE_NO":"２４號","E_COORD97":170042.53,"N_COORD97":2557940.0899999999,"ADDRESS":"烏竹林２４號","OBJECTID":31712},"geometry":{"x":170042.53000000212,"y":2557940.0899999999}},{"attributes":{"ID":31713,"DIS_CODE":0,"TOWNNAME":"西港區","LI":"港東里","LIN":"8鄰","STREET":" ","SECT":" ","MAREA":"烏竹林","LANE":" ","ALLEY":" ","HOUSE_NO":"２５之１５號","E_COORD97":170117.48999999999,"N_COORD97":2558072.3100000001,"ADDRESS":"烏竹林２５之１５號","OBJECTID":31713},"geometry":{"x":170117.49000000115,"y":2558072.3100000042}},{"attributes":{"ID":31714,"DIS_CODE":0,"TOWNNAME":"安南區","LI":"城東里","LIN":"8鄰","STREET":"城北路","SECT":" ","MAREA":" ","LANE":"９８巷","ALLEY":"２３弄","HOUSE_NO":"１５號","E_COORD97":161091.25,"N_COORD97":2551619.54,"ADDRESS":"城北路９８巷２３弄１５號","OBJECTID":31714},"geometry":{"x":161091.25,"y":2551619.5399999991}},{"attributes":{"ID":31715,"DIS_CODE":0,"TOWNNAME":"安南區","LI":"公\u25A0里","LIN":"8鄰","STREET":"安興街","SECT":" ","MAREA":" ","LANE":"１８１巷","ALLEY":"７８弄","HOUSE_NO":"１０號","E_COORD97":163899.39999999999,"N_COORD97":2551947.21,"ADDRESS":"安興街１８１巷７８弄１０號","OBJECTID":31715},"geometry":{"x":163899.40000000037,"y":2551947.2100000046}},{"attributes":{"ID":31716,"DIS_CODE":0,"TOWNNAME":"安南區","LI":"公\u25A0里","LIN":"8鄰","STREET":"安興街","SECT":" ","MAREA":" ","LANE":"１８１巷","ALLEY":"７８弄","HOUSE_NO":"１２號","E_COORD97":163902.35999999999,"N_COORD97":2551950.1600000001,"ADDRESS":"安興街１８１巷７８弄１２號","OBJECTID":31716},"geometry":{"x":163902.36000000127,"y":2551950.1600000039}},{"attributes":{"ID":31717,"DIS_CODE":0,"TOWNNAME":"安南區","LI":"公\u25A0里","LIN":"8鄰","STREET":"安興街","SECT":" ","MAREA":" ","LANE":"１８１巷","ALLEY":"７８弄","HOUSE_NO":"１４號","E_COORD97":163904.98000000001,"N_COORD97":2551954.4300000002,"ADDRESS":"安興街１８１巷７８弄１４號","OBJECTID":31717},"geometry":{"x":163904.98000000138,"y":2551954.4300000034}},{"attributes":{"ID":31718,"DIS_CODE":0,"TOWNNAME":"安南區","LI":"公\u25A0里","LIN":"8鄰","STREET":"安興街","SECT":" ","MAREA":" ","LANE":"１８１巷","ALLEY":"７８弄","HOUSE_NO":"１６號","E_COORD97":163908.92000000001,"N_COORD97":2551957.3799999999,"ADDRESS":"安興街１８１巷７８弄１６號","OBJECTID":31718},"geometry":{"x":163908.91999999993,"y":2551957.3800000027}},{"attributes":{"ID":31719,"DIS_CODE":0,"TOWNNAME":"安南區","LI":"公\u25A0里","LIN":"8鄰","STREET":"安興街","SECT":" ","MAREA":" ","LANE":"１８１巷","ALLEY":"７８弄","HOUSE_NO":"１８號","E_COORD97":163912.20999999999,"N_COORD97":2551960,"ADDRESS":"安興街１８１巷７８弄１８號","OBJECTID":31719},"geometry":{"x":163912.20999999996,"y":2551960}},{"attributes":{"ID":31720,"DIS_CODE":0,"TOWNNAME":"安南區","LI":"公\u25A0里","LIN":"8鄰","STREET":"安興街","SECT":" ","MAREA":" ","LANE":"１８１巷","ALLEY":"７８弄","HOUSE_NO":"２０號","E_COORD97":163914.5,"N_COORD97":2551962.2999999998,"ADDRESS":"安興街１８１巷７８弄２０號","OBJECTID":31720},"geometry":{"x":163914.50000000093,"y":2551962.3000000007}},{"attributes":{"ID":31721,"DIS_CODE":0,"TOWNNAME":"中西區","LI":"光賢里","LIN":"8鄰","STREET":"武聖路","SECT":" ","MAREA":" ","LANE":"６９巷","ALLEY":"８５弄","HOUSE_NO":"１０號","E_COORD97":167084.70000000001,"N_COORD97":2544907.9300000002,"ADDRESS":"武聖路６９巷８５弄１０號","OBJECTID":31721},"geometry":{"x":167084.70000000019,"y":2544907.9299999997}},{"attributes":{"ID":31722,"DIS_CODE":0,"TOWNNAME":"中西區","LI":"光賢里","LIN":"8鄰","STREET":"武聖路","SECT":" ","MAREA":" ","LANE":"６９巷","ALLEY":"８５弄","HOUSE_NO":"１２號","E_COORD97":167088.29999999999,"N_COORD97":2544906.02,"ADDRESS":"武聖路６９巷８５弄１２號","OBJECTID":31722},"geometry":{"x":167088.29999999981,"y":2544906.0200000014}},{"attributes":{"ID":31723,"DIS_CODE":0,"TOWNNAME":"中西區","LI":"光賢里","LIN":"8鄰","STREET":"武聖路","SECT":" ","MAREA":" ","LANE":"６９巷","ALLEY":"８５弄","HOUSE_NO":"１４號","E_COORD97":167092.32000000001,"N_COORD97":2544903.7000000002,"ADDRESS":"武聖路６９巷８５弄１４號","OBJECTID":31723},"geometry":{"x":167092.3200000003,"y":2544903.700000003}},{"attributes":{"ID":31724,"DIS_CODE":0,"TOWNNAME":"西港區","LI":"港東里","LIN":"8鄰","STREET":" ","SECT":" ","MAREA":"烏竹林","LANE":" ","ALLEY":" ","HOUSE_NO":"２５之１６號","E_COORD97":170140.82000000001,"N_COORD97":2558154.75,"ADDRESS":"烏竹林２５之１６號","OBJECTID":31724},"geometry":{"x":170140.82000000123,"y":2558154.7500000019}},{"attributes":{"ID":31725,"DIS_CODE":0,"TOWNNAME":"西港區","LI":"港東里","LIN":"8鄰","STREET":" ","SECT":" ","MAREA":"烏竹林","LANE":" ","ALLEY":" ","HOUSE_NO":"２５號之３","E_COORD97":170087.20000000001,"N_COORD97":2557994.4900000002,"ADDRESS":"烏竹林２５號之３","OBJECTID":31725},"geometry":{"x":170087.20000000112,"y":2557994.4900000021}},{"attributes":{"ID":31726,"DIS_CODE":0,"TOWNNAME":"西港區","LI":"港東里","LIN":"8鄰","STREET":" ","SECT":" ","MAREA":"烏竹林","LANE":" ","ALLEY":" ","HOUSE_NO":"２５號之６","E_COORD97":170041.42000000001,"N_COORD97":2558050.3599999999,"ADDRESS":"烏竹林２５號之６","OBJECTID":31726},"geometry":{"x":170041.42000000086,"y":2558050.3599999975}},{"attributes":{"ID":31727,"DIS_CODE":0,"TOWNNAME":"西港區","LI":"港東里","LIN":"8鄰","STREET":" ","SECT":" ","MAREA":"烏竹林","LANE":" ","ALLEY":" ","HOUSE_NO":"２５號","E_COORD97":170008.04999999999,"N_COORD97":2557954.2599999998,"ADDRESS":"烏竹林２５號","OBJECTID":31727},"geometry":{"x":170008.05000000168,"y":2557954.2600000016}},{"attributes":{"ID":31728,"DIS_CODE":0,"TOWNNAME":"西港區","LI":"港東里","LIN":"8鄰","STREET":" ","SECT":" ","MAREA":"烏竹林","LANE":" ","ALLEY":" ","HOUSE_NO":"２６號","E_COORD97":169987.35000000001,"N_COORD97":2557955.8799999999,"ADDRESS":"烏竹林２６號","OBJECTID":31728},"geometry":{"x":169987.35000000056,"y":2557955.8800000008}},{"attributes":{"ID":31729,"DIS_CODE":0,"TOWNNAME":"西港區","LI":"港東里","LIN":"8鄰","STREET":" ","SECT":" ","MAREA":"烏竹林","LANE":" ","ALLEY":" ","HOUSE_NO":"２７號之１","E_COORD97":169982.51000000001,"N_COORD97":2557994.1699999999,"ADDRESS":"烏竹林２７號之１","OBJECTID":31729},"geometry":{"x":169982.50999999978,"y":2557994.1699999999}},{"attributes":{"ID":31730,"DIS_CODE":0,"TOWNNAME":"西港區","LI":"港東里","LIN":"8鄰","STREET":" ","SECT":" ","MAREA":"烏竹林","LANE":" ","ALLEY":" ","HOUSE_NO":"２７號","E_COORD97":169981.12,"N_COORD97":2557986.2999999998,"ADDRESS":"烏竹林２７號","OBJECTID":31730},"geometry":{"x":169981.12000000104,"y":2557986.3000000007}},{"attributes":{"ID":31731,"DIS_CODE":0,"TOWNNAME":"西港區","LI":"金砂里","LIN":"8鄰","STREET":" ","SECT":" ","MAREA":"新寮","LANE":" ","ALLEY":" ","HOUSE_NO":"１號之２","E_COORD97":168390.75,"N_COORD97":2561792.71,"ADDRESS":"新寮１號之２","OBJECTID":31731},"geometry":{"x":168390.75,"y":2561792.7100000046}},{"attributes":{"ID":31732,"DIS_CODE":0,"TOWNNAME":"西港區","LI":"金砂里","LIN":"8鄰","STREET":" ","SECT":" ","MAREA":"新寮","LANE":" ","ALLEY":" ","HOUSE_NO":"１號","E_COORD97":168405.10999999999,"N_COORD97":2561790.3199999998,"ADDRESS":"新寮１號","OBJECTID":31732},"geometry":{"x":168405.11000000127,"y":2561790.3200000003}},{"attributes":{"ID":31733,"DIS_CODE":0,"TOWNNAME":"西港區","LI":"金砂里","LIN":"8鄰","STREET":" ","SECT":" ","MAREA":"新寮","LANE":" ","ALLEY":" ","HOUSE_NO":"２號","E_COORD97":168377.23999999999,"N_COORD97":2561782.0899999999,"ADDRESS":"新寮２號","OBJECTID":31733},"geometry":{"x":168377.24000000022,"y":2561782.089999998}},{"attributes":{"ID":31734,"DIS_CODE":0,"TOWNNAME":"西港區","LI":"金砂里","LIN":"8鄰","STREET":" ","SECT":" ","MAREA":"新寮","LANE":" ","ALLEY":" ","HOUSE_NO":"３號之１","E_COORD97":168352.56,"N_COORD97":2561765.5299999998,"ADDRESS":"新寮３號之１","OBJECTID":31734},"geometry":{"x":168352.55999999959,"y":2561765.5300000012}},{"attributes":{"ID":31735,"DIS_CODE":0,"TOWNNAME":"西港區","LI":"金砂里","LIN":"8鄰","STREET":" ","SECT":" ","MAREA":"新寮","LANE":" ","ALLEY":" ","HOUSE_NO":"３號","E_COORD97":168318.97,"N_COORD97":2561770.8199999998,"ADDRESS":"新寮３號","OBJECTID":31735},"geometry":{"x":168318.97000000067,"y":2561770.8199999984}},{"attributes":{"ID":31736,"DIS_CODE":0,"TOWNNAME":"西港區","LI":"金砂里","LIN":"8鄰","STREET":" ","SECT":" ","MAREA":"新寮","LANE":" ","ALLEY":" ","HOUSE_NO":"６號","E_COORD97":168298.51000000001,"N_COORD97":2561723.8500000001,"ADDRESS":"新寮６號","OBJECTID":31736},"geometry":{"x":168298.51000000071,"y":2561723.8500000015}},{"attributes":{"ID":31737,"DIS_CODE":0,"TOWNNAME":"西港區","LI":"金砂里","LIN":"8鄰","STREET":" ","SECT":" ","MAREA":"新寮","LANE":" ","ALLEY":" ","HOUSE_NO":"７號","E_COORD97":168324.35999999999,"N_COORD97":2561724.23,"ADDRESS":"新寮７號","OBJECTID":31737},"geometry":{"x":168324.36000000034,"y":2561724.2300000042}},{"attributes":{"ID":31738,"DIS_CODE":0,"TOWNNAME":"西港區","LI":"金砂里","LIN":"8鄰","STREET":" ","SECT":" ","MAREA":"新寮","LANE":" ","ALLEY":" ","HOUSE_NO":"８號","E_COORD97":168303.56,"N_COORD97":2561718.73,"ADDRESS":"新寮８號","OBJECTID":31738},"geometry":{"x":168303.55999999959,"y":2561718.7300000023}},{"attributes":{"ID":31739,"DIS_CODE":0,"TOWNNAME":"西港區","LI":"金砂里","LIN":"8鄰","STREET":" ","SECT":" ","MAREA":"新寮","LANE":" ","ALLEY":" ","HOUSE_NO":"９之１２號","E_COORD97":168096.54999999999,"N_COORD97":2561644.1099999999,"ADDRESS":"新寮９之１２號","OBJECTID":31739},"geometry":{"x":168096.55000000075,"y":2561644.1100000013}},{"attributes":{"ID":31740,"DIS_CODE":0,"TOWNNAME":"西港區","LI":"金砂里","LIN":"8鄰","STREET":" ","SECT":" ","MAREA":"新寮","LANE":" ","ALLEY":" ","HOUSE_NO":"９之１５號","E_COORD97":168066.59,"N_COORD97":2561628.5,"ADDRESS":"新寮９之１５號","OBJECTID":31740},"geometry":{"x":168066.58999999985,"y":2561628.5000000019}},{"attributes":{"ID":31741,"DIS_CODE":0,"TOWNNAME":"西港區","LI":"金砂里","LIN":"8鄰","STREET":" ","SECT":" ","MAREA":"新寮","LANE":" ","ALLEY":" ","HOUSE_NO":"９之１８號","E_COORD97":167986.01999999999,"N_COORD97":2561580.52,"ADDRESS":"新寮９之１８號","OBJECTID":31741},"geometry":{"x":167986.02000000048,"y":2561580.5200000014}},{"attributes":{"ID":31742,"DIS_CODE":0,"TOWNNAME":"西港區","LI":"金砂里","LIN":"8鄰","STREET":" ","SECT":" ","MAREA":"新寮","LANE":" ","ALLEY":" ","HOUSE_NO":"９號之２０","E_COORD97":167966.95999999999,"N_COORD97":2561567.6000000001,"ADDRESS":"新寮９號之２０","OBJECTID":31742},"geometry":{"x":167966.95999999996,"y":2561567.5999999996}},{"attributes":{"ID":31743,"DIS_CODE":0,"TOWNNAME":"西港區","LI":"新復里","LIN":"8鄰","STREET":" ","SECT":" ","MAREA":"溪埔寮","LANE":" ","ALLEY":" ","HOUSE_NO":"１１號之１","E_COORD97":166607.42000000001,"N_COORD97":2554018.3300000001,"ADDRESS":"溪埔寮１１號之１","OBJECTID":31743},"geometry":{"x":166607.42000000086,"y":2554018.3300000019}},{"attributes":{"ID":31744,"DIS_CODE":0,"TOWNNAME":"西港區","LI":"新復里","LIN":"8鄰","STREET":" ","SECT":" ","MAREA":"溪埔寮","LANE":" ","ALLEY":" ","HOUSE_NO":"１１號之２","E_COORD97":166597.73999999999,"N_COORD97":2553977.9500000002,"ADDRESS":"溪埔寮１１號之２","OBJECTID":31744},"geometry":{"x":166597.74000000022,"y":2553977.950000003}},{"attributes":{"ID":31745,"DIS_CODE":0,"TOWNNAME":"西港區","LI":"新復里","LIN":"8鄰","STREET":" ","SECT":" ","MAREA":"溪埔寮","LANE":" ","ALLEY":" ","HOUSE_NO":"１１之３號","E_COORD97":166596.98999999999,"N_COORD97":2554011.3599999999,"ADDRESS":"溪埔寮１１之３號","OBJECTID":31745},"geometry":{"x":166596.99000000115,"y":2554011.3599999994}},{"attributes":{"ID":31746,"DIS_CODE":0,"TOWNNAME":"西港區","LI":"新復里","LIN":"8鄰","STREET":" ","SECT":" ","MAREA":"溪埔寮","LANE":" ","ALLEY":" ","HOUSE_NO":"１１號","E_COORD97":166599.92000000001,"N_COORD97":2554063.0899999999,"ADDRESS":"溪埔寮１１號","OBJECTID":31746},"geometry":{"x":166599.92000000179,"y":2554063.0900000017}},{"attributes":{"ID":31747,"DIS_CODE":0,"TOWNNAME":"西港區","LI":"新復里","LIN":"8鄰","STREET":" ","SECT":" ","MAREA":"溪埔寮","LANE":" ","ALLEY":" ","HOUSE_NO":"１２號之３","E_COORD97":166528.01000000001,"N_COORD97":2553918.7400000002,"ADDRESS":"溪埔寮１２號之３","OBJECTID":31747},"geometry":{"x":166528.01000000164,"y":2553918.7400000002}},{"attributes":{"ID":31748,"DIS_CODE":0,"TOWNNAME":"西港區","LI":"新復里","LIN":"8鄰","STREET":" ","SECT":" ","MAREA":"溪埔寮","LANE":" ","ALLEY":" ","HOUSE_NO":"１２號之６","E_COORD97":166591.48999999999,"N_COORD97":2553935.3199999998,"ADDRESS":"溪埔寮１２號之６","OBJECTID":31748},"geometry":{"x":166591.49000000115,"y":2553935.3200000003}},{"attributes":{"ID":31749,"DIS_CODE":0,"TOWNNAME":"西港區","LI":"新復里","LIN":"8鄰","STREET":" ","SECT":" ","MAREA":"溪埔寮","LANE":" ","ALLEY":" ","HOUSE_NO":"１號之１０","E_COORD97":166586.54999999999,"N_COORD97":2554330.7599999998,"ADDRESS":"溪埔寮１號之１０","OBJECTID":31749},"geometry":{"x":166586.54999999981,"y":2554330.7599999998}},{"attributes":{"ID":31750,"DIS_CODE":0,"TOWNNAME":"西港區","LI":"新復里","LIN":"8鄰","STREET":" ","SECT":" ","MAREA":"溪埔寮","LANE":" ","ALLEY":" ","HOUSE_NO":"１號之１１","E_COORD97":166586.95999999999,"N_COORD97":2554334.54,"ADDRESS":"溪埔寮１號之１１","OBJECTID":31750},"geometry":{"x":166586.96000000089,"y":2554334.540000001}},{"attributes":{"ID":31751,"DIS_CODE":0,"TOWNNAME":"西港區","LI":"新復里","LIN":"8鄰","STREET":" ","SECT":" ","MAREA":"溪埔寮","LANE":" ","ALLEY":" ","HOUSE_NO":"１號之１２","E_COORD97":166587.37,"N_COORD97":2554338.9100000001,"ADDRESS":"溪埔寮１號之１２","OBJECTID":31751},"geometry":{"x":166587.37000000104,"y":2554338.910000002}},{"attributes":{"ID":31752,"DIS_CODE":0,"TOWNNAME":"西港區","LI":"新復里","LIN":"8鄰","STREET":" ","SECT":" ","MAREA":"溪埔寮","LANE":" ","ALLEY":" ","HOUSE_NO":"１號之１３","E_COORD97":166587.35999999999,"N_COORD97":2554343.5600000001,"ADDRESS":"溪埔寮１號之１３","OBJECTID":31752},"geometry":{"x":166587.3600000022,"y":2554343.5600000005}},{"attributes":{"ID":31753,"DIS_CODE":0,"TOWNNAME":"西港區","LI":"新復里","LIN":"8鄰","STREET":" ","SECT":" ","MAREA":"溪埔寮","LANE":" ","ALLEY":" ","HOUSE_NO":"１號之１４","E_COORD97":166587.79000000001,"N_COORD97":2554346.75,"ADDRESS":"溪埔寮１號之１４","OBJECTID":31753},"geometry":{"x":166587.79000000097,"y":2554346.7500000019}},{"attributes":{"ID":31754,"DIS_CODE":0,"TOWNNAME":"西港區","LI":"新復里","LIN":"8鄰","STREET":" ","SECT":" ","MAREA":"溪埔寮","LANE":" ","ALLEY":" ","HOUSE_NO":"１號之１５","E_COORD97":166588.07000000001,"N_COORD97":2554354.9100000001,"ADDRESS":"溪埔寮１號之１５","OBJECTID":31754},"geometry":{"x":166588.07000000123,"y":2554354.9100000001}},{"attributes":{"ID":31755,"DIS_CODE":0,"TOWNNAME":"西港區","LI":"新復里","LIN":"8鄰","STREET":" ","SECT":" ","MAREA":"溪埔寮","LANE":" ","ALLEY":" ","HOUSE_NO":"１號之１６","E_COORD97":166587.82000000001,"N_COORD97":2554351.0099999998,"ADDRESS":"溪埔寮１號之１６","OBJECTID":31755},"geometry":{"x":166587.82000000123,"y":2554351.0100000035}},{"attributes":{"ID":31756,"DIS_CODE":0,"TOWNNAME":"西港區","LI":"新復里","LIN":"8鄰","STREET":" ","SECT":" ","MAREA":"溪埔寮","LANE":" ","ALLEY":" ","HOUSE_NO":"１號之２０","E_COORD97":166634.73000000001,"N_COORD97":2554274.5699999998,"ADDRESS":"溪埔寮１號之２０","OBJECTID":31756},"geometry":{"x":166634.73000000138,"y":2554274.5700000022}},{"attributes":{"ID":31757,"DIS_CODE":0,"TOWNNAME":"西港區","LI":"新復里","LIN":"8鄰","STREET":" ","SECT":" ","MAREA":"溪埔寮","LANE":" ","ALLEY":" ","HOUSE_NO":"１之２５號","E_COORD97":166654.78,"N_COORD97":2554484.8700000001,"ADDRESS":"溪埔寮１之２５號","OBJECTID":31757},"geometry":{"x":166654.78000000026,"y":2554484.870000001}},{"attributes":{"ID":31758,"DIS_CODE":0,"TOWNNAME":"西港區","LI":"新復里","LIN":"8鄰","STREET":" ","SECT":" ","MAREA":"溪埔寮","LANE":" ","ALLEY":" ","HOUSE_NO":"１之２７號","E_COORD97":166668.04000000001,"N_COORD97":2554482.04,"ADDRESS":"溪埔寮１之２７號","OBJECTID":31758},"geometry":{"x":166668.04000000004,"y":2554482.0399999991}},{"attributes":{"ID":31759,"DIS_CODE":0,"TOWNNAME":"西港區","LI":"新復里","LIN":"8鄰","STREET":" ","SECT":" ","MAREA":"溪埔寮","LANE":" ","ALLEY":" ","HOUSE_NO":"１號之３０","E_COORD97":166718.48999999999,"N_COORD97":2554445.9199999999,"ADDRESS":"溪埔寮１號之３０","OBJECTID":31759},"geometry":{"x":166718.49000000209,"y":2554445.9199999999}},{"attributes":{"ID":31760,"DIS_CODE":0,"TOWNNAME":"西港區","LI":"新復里","LIN":"8鄰","STREET":" ","SECT":" ","MAREA":"溪埔寮","LANE":" ","ALLEY":" ","HOUSE_NO":"１之３６號","E_COORD97":166665.56,"N_COORD97":2554522.0899999999,"ADDRESS":"溪埔寮１之３６號","OBJECTID":31760},"geometry":{"x":166665.56000000052,"y":2554522.0899999999}},{"attributes":{"ID":31761,"DIS_CODE":0,"TOWNNAME":"西港區","LI":"新復里","LIN":"8鄰","STREET":" ","SECT":" ","MAREA":"溪埔寮","LANE":" ","ALLEY":" ","HOUSE_NO":"１之３９號","E_COORD97":166586.34,"N_COORD97":2554427.48,"ADDRESS":"溪埔寮１之３９號","OBJECTID":31761},"geometry":{"x":166586.33999999985,"y":2554427.4800000023}},{"attributes":{"ID":31762,"DIS_CODE":0,"TOWNNAME":"西港區","LI":"新復里","LIN":"8鄰","STREET":" ","SECT":" ","MAREA":"溪埔寮","LANE":" ","ALLEY":" ","HOUSE_NO":"１號之５１","E_COORD97":166363.69,"N_COORD97":2554682.3599999999,"ADDRESS":"溪埔寮１號之５１","OBJECTID":31762},"geometry":{"x":166363.69000000134,"y":2554682.3599999994}},{"attributes":{"ID":31763,"DIS_CODE":0,"TOWNNAME":"西港區","LI":"新復里","LIN":"8鄰","STREET":" ","SECT":" ","MAREA":"溪埔寮","LANE":" ","ALLEY":" ","HOUSE_NO":"１之６７號","E_COORD97":166430.87,"N_COORD97":2554234.3399999999,"ADDRESS":"溪埔寮１之６７號","OBJECTID":31763},"geometry":{"x":166430.86999999918,"y":2554234.3400000017}},{"attributes":{"ID":31764,"DIS_CODE":0,"TOWNNAME":"西港區","LI":"新復里","LIN":"8鄰","STREET":" ","SECT":" ","MAREA":"溪埔寮","LANE":" ","ALLEY":" ","HOUSE_NO":"１號之６","E_COORD97":166585.07999999999,"N_COORD97":2554314.2200000002,"ADDRESS":"溪埔寮１號之６","OBJECTID":31764},"geometry":{"x":166585.08000000007,"y":2554314.2200000025}},{"attributes":{"ID":31765,"DIS_CODE":0,"TOWNNAME":"西港區","LI":"新復里","LIN":"8鄰","STREET":" ","SECT":" ","MAREA":"溪埔寮","LANE":" ","ALLEY":" ","HOUSE_NO":"１號之７","E_COORD97":166585.42999999999,"N_COORD97":2554318.8300000001,"ADDRESS":"溪埔寮１號之７","OBJECTID":31765},"geometry":{"x":166585.4299999997,"y":2554318.8300000038}},{"attributes":{"ID":31766,"DIS_CODE":0,"TOWNNAME":"西港區","LI":"新復里","LIN":"8鄰","STREET":" ","SECT":" ","MAREA":"溪埔寮","LANE":" ","ALLEY":" ","HOUSE_NO":"１號之８","E_COORD97":166585.92000000001,"N_COORD97":2554322.6800000002,"ADDRESS":"溪埔寮１號之８","OBJECTID":31766},"geometry":{"x":166585.91999999993,"y":2554322.6800000034}},{"attributes":{"ID":31767,"DIS_CODE":0,"TOWNNAME":"西港區","LI":"新復里","LIN":"8鄰","STREET":" ","SECT":" ","MAREA":"溪埔寮","LANE":" ","ALLEY":" ","HOUSE_NO":"１號之９","E_COORD97":166586.64000000001,"N_COORD97":2554326.4399999999,"ADDRESS":"溪埔寮１號之９","OBJECTID":31767},"geometry":{"x":166586.6400000006,"y":2554326.4399999995}},{"attributes":{"ID":31768,"DIS_CODE":0,"TOWNNAME":"西港區","LI":"新復里","LIN":"8鄰","STREET":" ","SECT":" ","MAREA":"溪埔寮","LANE":" ","ALLEY":" ","HOUSE_NO":"１號","E_COORD97":166621.79999999999,"N_COORD97":2554292.5600000001,"ADDRESS":"溪埔寮１號","OBJECTID":31768},"geometry":{"x":166621.80000000075,"y":2554292.5600000005}},{"attributes":{"ID":31769,"DIS_CODE":0,"TOWNNAME":"中西區","LI":"光賢里","LIN":"8鄰","STREET":"武聖路","SECT":" ","MAREA":" ","LANE":"６９巷","ALLEY":"８５弄","HOUSE_NO":"１６號","E_COORD97":167096.34,"N_COORD97":2544901.3700000001,"ADDRESS":"武聖路６９巷８５弄１６號","OBJECTID":31769},"geometry":{"x":167096.33999999985,"y":2544901.3700000029}},{"attributes":{"ID":31770,"DIS_CODE":0,"TOWNNAME":"西港區","LI":"新復里","LIN":"8鄰","STREET":" ","SECT":" ","MAREA":"溪埔寮","LANE":" ","ALLEY":" ","HOUSE_NO":"２號之１０","E_COORD97":166547.34,"N_COORD97":2554123.8700000001,"ADDRESS":"溪埔寮２號之１０","OBJECTID":31770},"geometry":{"x":166547.33999999985,"y":2554123.8700000029}},{"attributes":{"ID":31771,"DIS_CODE":0,"TOWNNAME":"西港區","LI":"新復里","LIN":"8鄰","STREET":" ","SECT":" ","MAREA":"溪埔寮","LANE":" ","ALLEY":" ","HOUSE_NO":"２號之１","E_COORD97":166546.23999999999,"N_COORD97":2554095.6000000001,"ADDRESS":"溪埔寮２號之１","OBJECTID":31771},"geometry":{"x":166546.24000000115,"y":2554095.5999999996}},{"attributes":{"ID":31772,"DIS_CODE":0,"TOWNNAME":"西港區","LI":"新復里","LIN":"8鄰","STREET":" ","SECT":" ","MAREA":"溪埔寮","LANE":" ","ALLEY":" ","HOUSE_NO":"２號之２","E_COORD97":166552.64000000001,"N_COORD97":2554096.1200000001,"ADDRESS":"溪埔寮２號之２","OBJECTID":31772},"geometry":{"x":166552.6400000006,"y":2554096.120000001}},{"attributes":{"ID":31773,"DIS_CODE":0,"TOWNNAME":"西港區","LI":"新復里","LIN":"8鄰","STREET":" ","SECT":" ","MAREA":"溪埔寮","LANE":" ","ALLEY":" ","HOUSE_NO":"２號之３","E_COORD97":166557.51999999999,"N_COORD97":2554096.0299999998,"ADDRESS":"溪埔寮２號之３","OBJECTID":31773},"geometry":{"x":166557.51999999955,"y":2554096.0300000031}},{"attributes":{"ID":31774,"DIS_CODE":0,"TOWNNAME":"西港區","LI":"新復里","LIN":"8鄰","STREET":" ","SECT":" ","MAREA":"溪埔寮","LANE":" ","ALLEY":" ","HOUSE_NO":"２號之８","E_COORD97":166545.34,"N_COORD97":2554113.6800000002,"ADDRESS":"溪埔寮２號之８","OBJECTID":31774},"geometry":{"x":166545.33999999985,"y":2554113.6800000016}},{"attributes":{"ID":31775,"DIS_CODE":0,"TOWNNAME":"西港區","LI":"新復里","LIN":"8鄰","STREET":" ","SECT":" ","MAREA":"溪埔寮","LANE":" ","ALLEY":" ","HOUSE_NO":"２號之９","E_COORD97":166546.51999999999,"N_COORD97":2554118.5,"ADDRESS":"溪埔寮２號之９","OBJECTID":31775},"geometry":{"x":166546.52000000048,"y":2554118.5000000019}},{"attributes":{"ID":31776,"DIS_CODE":0,"TOWNNAME":"西港區","LI":"新復里","LIN":"8鄰","STREET":" ","SECT":" ","MAREA":"溪埔寮","LANE":" ","ALLEY":" ","HOUSE_NO":"３號之２","E_COORD97":166545.79000000001,"N_COORD97":2554057.5299999998,"ADDRESS":"溪埔寮３號之２","OBJECTID":31776},"geometry":{"x":166545.79000000097,"y":2554057.5299999993}},{"attributes":{"ID":31777,"DIS_CODE":0,"TOWNNAME":"中西區","LI":"光賢里","LIN":"8鄰","STREET":"武聖路","SECT":" ","MAREA":" ","LANE":"６９巷","ALLEY":"８５弄","HOUSE_NO":"１８號","E_COORD97":167099.73000000001,"N_COORD97":2544899.6699999999,"ADDRESS":"武聖路６９巷８５弄１８號","OBJECTID":31777},"geometry":{"x":167099.73000000045,"y":2544899.6699999999}},{"attributes":{"ID":31778,"DIS_CODE":0,"TOWNNAME":"西港區","LI":"新復里","LIN":"8鄰","STREET":" ","SECT":" ","MAREA":"溪埔寮","LANE":" ","ALLEY":" ","HOUSE_NO":"３號之３","E_COORD97":166544.39000000001,"N_COORD97":2554051.1800000002,"ADDRESS":"溪埔寮３號之３","OBJECTID":31778},"geometry":{"x":166544.3900000006,"y":2554051.1799999978}},{"attributes":{"ID":31779,"DIS_CODE":0,"TOWNNAME":"西港區","LI":"新復里","LIN":"8鄰","STREET":" ","SECT":" ","MAREA":"溪埔寮","LANE":" ","ALLEY":" ","HOUSE_NO":"４號之１０","E_COORD97":166515.5,"N_COORD97":2554064.1499999999,"ADDRESS":"溪埔寮４號之１０","OBJECTID":31779},"geometry":{"x":166515.50000000093,"y":2554064.1500000022}},{"attributes":{"ID":31780,"DIS_CODE":0,"TOWNNAME":"西港區","LI":"新復里","LIN":"8鄰","STREET":" ","SECT":" ","MAREA":"溪埔寮","LANE":" ","ALLEY":" ","HOUSE_NO":"４號之１１","E_COORD97":166515.75,"N_COORD97":2554059.4500000002,"ADDRESS":"溪埔寮４號之１１","OBJECTID":31780},"geometry":{"x":166515.75,"y":2554059.450000003}},{"attributes":{"ID":31781,"DIS_CODE":0,"TOWNNAME":"中西區","LI":"光賢里","LIN":"8鄰","STREET":"武聖路","SECT":" ","MAREA":" ","LANE":"６９巷","ALLEY":"８５弄","HOUSE_NO":"２０號","E_COORD97":167103.32999999999,"N_COORD97":2544897.77,"ADDRESS":"武聖路６９巷８５弄２０號","OBJECTID":31781},"geometry":{"x":167103.33000000101,"y":2544897.7700000014}},{"attributes":{"ID":31782,"DIS_CODE":0,"TOWNNAME":"中西區","LI":"光賢里","LIN":"8鄰","STREET":"武聖路","SECT":" ","MAREA":" ","LANE":"６９巷","ALLEY":"８５弄","HOUSE_NO":"２２號","E_COORD97":167106.70999999999,"N_COORD97":2544895.8599999999,"ADDRESS":"武聖路６９巷８５弄２２號","OBJECTID":31782},"geometry":{"x":167106.71000000183,"y":2544895.8600000031}},{"attributes":{"ID":31783,"DIS_CODE":0,"TOWNNAME":"善化區","LI":"牛庄里","LIN":"8鄰","STREET":" ","SECT":" ","MAREA":"牛庄","LANE":" ","ALLEY":" ","HOUSE_NO":"９６之６號","E_COORD97":180034.98999999999,"N_COORD97":2560185.02,"ADDRESS":"牛庄９６之６號","OBJECTID":31783},"geometry":{"x":180034.99000000115,"y":2560185.0199999996}},{"attributes":{"ID":31784,"DIS_CODE":0,"TOWNNAME":"東區","LI":"東智里","LIN":"14鄰","STREET":"崇德三十二街","SECT":" ","MAREA":" ","LANE":" ","ALLEY":" ","HOUSE_NO":"４０號","E_COORD97":170910.62,"N_COORD97":2540081.4100000001,"ADDRESS":"崇德三十二街４０號","OBJECTID":31784},"geometry":{"x":170910.62000000011,"y":2540081.4100000001}},{"attributes":{"ID":31785,"DIS_CODE":0,"TOWNNAME":"東區","LI":"東智里","LIN":"14鄰","STREET":"崇德三十二街","SECT":" ","MAREA":" ","LANE":" ","ALLEY":" ","HOUSE_NO":"９６號","E_COORD97":171016.20999999999,"N_COORD97":2540086.0600000001,"ADDRESS":"崇德三十二街９６號","OBJECTID":31785},"geometry":{"x":171016.21000000089,"y":2540086.0600000024}},{"attributes":{"ID":31786,"DIS_CODE":0,"TOWNNAME":"歸仁區","LI":"六甲里","LIN":"15鄰","STREET":"六甲一街","SECT":" ","MAREA":" ","LANE":" ","ALLEY":" ","HOUSE_NO":"１６號","E_COORD97":175840.47,"N_COORD97":2539167.25,"ADDRESS":"六甲一街１６號","OBJECTID":31786},"geometry":{"x":175840.47000000067,"y":2539167.25}},{"attributes":{"ID":31787,"DIS_CODE":0,"TOWNNAME":"西港區","LI":"新復里","LIN":"8鄰","STREET":" ","SECT":" ","MAREA":"溪埔寮","LANE":" ","ALLEY":" ","HOUSE_NO":"４號之１２","E_COORD97":166515.34,"N_COORD97":2554054.6800000002,"ADDRESS":"溪埔寮４號之１２","OBJECTID":31787},"geometry":{"x":166515.33999999985,"y":2554054.6799999978}},{"attributes":{"ID":31788,"DIS_CODE":0,"TOWNNAME":"西港區","LI":"新復里","LIN":"8鄰","STREET":" ","SECT":" ","MAREA":"溪埔寮","LANE":" ","ALLEY":" ","HOUSE_NO":"４號之１３","E_COORD97":166514.94,"N_COORD97":2554050.02,"ADDRESS":"溪埔寮４號之１３","OBJECTID":31788},"geometry":{"x":166514.94000000041,"y":2554050.0200000014}},{"attributes":{"ID":31789,"DIS_CODE":0,"TOWNNAME":"西港區","LI":"新復里","LIN":"8鄰","STREET":" ","SECT":" ","MAREA":"溪埔寮","LANE":" ","ALLEY":" ","HOUSE_NO":"４號之１４","E_COORD97":166514.92000000001,"N_COORD97":2554044.96,"ADDRESS":"溪埔寮４號之１４","OBJECTID":31789},"geometry":{"x":166514.91999999993,"y":2554044.9600000028}},{"attributes":{"ID":31790,"DIS_CODE":0,"TOWNNAME":"中西區","LI":"光賢里","LIN":"8鄰","STREET":"武聖路","SECT":" ","MAREA":" ","LANE":"６９巷","ALLEY":"８５弄","HOUSE_NO":"２４號","E_COORD97":167111.37,"N_COORD97":2544893.3199999998,"ADDRESS":"武聖路６９巷８５弄２４號","OBJECTID":31790},"geometry":{"x":167111.37000000104,"y":2544893.3200000003}},{"attributes":{"ID":31791,"DIS_CODE":0,"TOWNNAME":"善化區","LI":"六德里","LIN":"8鄰","STREET":" ","SECT":" ","MAREA":"六分寮","LANE":" ","ALLEY":" ","HOUSE_NO":"２６２號之３","E_COORD97":178705.07999999999,"N_COORD97":2561563.77,"ADDRESS":"六分寮２６２號之３","OBJECTID":31791},"geometry":{"x":178705.08000000101,"y":2561563.7700000033}},{"attributes":{"ID":31792,"DIS_CODE":0,"TOWNNAME":"新市區","LI":"新市里","LIN":"8鄰","STREET":"民生路","SECT":" ","MAREA":" ","LANE":"２巷","ALLEY":"１２弄","HOUSE_NO":"７號","E_COORD97":177428.70000000001,"N_COORD97":2553167.7799999998,"ADDRESS":"民生路２巷１２弄７號","OBJECTID":31792},"geometry":{"x":177428.70000000019,"y":2553167.7799999993}},{"attributes":{"ID":31793,"DIS_CODE":0,"TOWNNAME":"中西區","LI":"光賢里","LIN":"8鄰","STREET":"武聖路","SECT":" ","MAREA":" ","LANE":"６９巷","ALLEY":"８５弄","HOUSE_NO":"２６號","E_COORD97":167116.03,"N_COORD97":2544890.5699999998,"ADDRESS":"武聖路６９巷８５弄２６號","OBJECTID":31793},"geometry":{"x":167116.03000000026,"y":2544890.5700000003}},{"attributes":{"ID":31794,"DIS_CODE":0,"TOWNNAME":"中西區","LI":"光賢里","LIN":"8鄰","STREET":"武聖路","SECT":" ","MAREA":" ","LANE":"６９巷","ALLEY":"８５弄","HOUSE_NO":"２８號","E_COORD97":167119.84,"N_COORD97":2544888.6699999999,"ADDRESS":"武聖路６９巷８５弄２８號","OBJECTID":31794},"geometry":{"x":167119.84000000078,"y":2544888.6700000018}},{"attributes":{"ID":31795,"DIS_CODE":0,"TOWNNAME":"善化區","LI":"牛庄里","LIN":"8鄰","STREET":" ","SECT":" ","MAREA":"牛庄","LANE":" ","ALLEY":" ","HOUSE_NO":"１２９號","E_COORD97":179952.82000000001,"N_COORD97":2560157.5,"ADDRESS":"牛庄１２９號","OBJECTID":31795},"geometry":{"x":179952.82000000123,"y":2560157.5}},{"attributes":{"ID":31796,"DIS_CODE":0,"TOWNNAME":"善化區","LI":"六分里","LIN":"8鄰","STREET":" ","SECT":" ","MAREA":"溪底寮","LANE":" ","ALLEY":" ","HOUSE_NO":"１２號之２","E_COORD97":177845.35000000001,"N_COORD97":2561985.02,"ADDRESS":"溪底寮１２號之２","OBJECTID":31796},"geometry":{"x":177845.34999999963,"y":2561985.0199999996}},{"attributes":{"ID":31797,"DIS_CODE":0,"TOWNNAME":"中西區","LI":"光賢里","LIN":"8鄰","STREET":"武聖路","SECT":" ","MAREA":" ","LANE":"６９巷","ALLEY":"８５弄","HOUSE_NO":"２號","E_COORD97":167070.10000000001,"N_COORD97":2544916.1800000002,"ADDRESS":"武聖路６９巷８５弄２號","OBJECTID":31797},"geometry":{"x":167070.10000000056,"y":2544916.1799999997}},{"attributes":{"ID":31798,"DIS_CODE":0,"TOWNNAME":"善化區","LI":"嘉北里","LIN":"8鄰","STREET":" ","SECT":" ","MAREA":"茄拔","LANE":" ","ALLEY":" ","HOUSE_NO":"１８１之３號","E_COORD97":181145.06,"N_COORD97":2560078.52,"ADDRESS":"茄拔１８１之３號","OBJECTID":31798},"geometry":{"x":181145.06000000145,"y":2560078.5200000014}},{"attributes":{"ID":31799,"DIS_CODE":0,"TOWNNAME":"中西區","LI":"光賢里","LIN":"8鄰","STREET":"武聖路","SECT":" ","MAREA":" ","LANE":"６９巷","ALLEY":"８５弄","HOUSE_NO":"３０號","E_COORD97":167123.22,"N_COORD97":2544886.9700000002,"ADDRESS":"武聖路６９巷８５弄３０號","OBJECTID":31799},"geometry":{"x":167123.2200000016,"y":2544886.9700000025}},{"attributes":{"ID":31800,"DIS_CODE":0,"TOWNNAME":"善化區","LI":"東昌里","LIN":"8鄰","STREET":" ","SECT":" ","MAREA":"東勢寮","LANE":" ","ALLEY":" ","HOUSE_NO":"８１號之９","E_COORD97":180396.82000000001,"N_COORD97":2561890.27,"ADDRESS":"東勢寮８１號之９","OBJECTID":31800},"geometry":{"x":180396.82000000123,"y":2561890.2700000014}}]}