{"displayFieldName":"TOWNNAME","fieldAliases":{"ID":"ID","DIS_CODE":"DIS_CODE","TOWNNAME":"TOWNNAME","LI":"LI","LIN":"LIN","STREET":"STREET","SECT":"SECT","MAREA":"MAREA","LANE":"LANE","ALLEY":"ALLEY","HOUSE_NO":"HOUSE_NO","E_COORD97":"E_COORD97","N_COORD97":"N_COORD97","ADDRESS":"ADDRESS","OBJECTID":"OBJECTID"},"geometryType":"esriGeometryPoint","spatialReference":{"wkid":102443,"latestWkid":3826},"fields":[{"name":"ID","type":"esriFieldTypeDouble","alias":"ID"},{"name":"DIS_CODE","type":"esriFieldTypeInteger","alias":"DIS_CODE"},{"name":"TOWNNAME","type":"esriFieldTypeString","alias":"TOWNNAME","length":8},{"name":"LI","type":"esriFieldTypeString","alias":"LI","length":8},{"name":"LIN","type":"esriFieldTypeString","alias":"LIN","length":12},{"name":"STREET","type":"esriFieldTypeString","alias":"STREET","length":20},{"name":"SECT","type":"esriFieldTypeString","alias":"SECT","length":8},{"name":"MAREA","type":"esriFieldTypeString","alias":"MAREA","length":12},{"name":"LANE","type":"esriFieldTypeString","alias":"LANE","length":10},{"name":"ALLEY","type":"esriFieldTypeString","alias":"ALLEY","length":10},{"name":"HOUSE_NO","type":"esriFieldTypeString","alias":"HOUSE_NO","length":20},{"name":"E_COORD97","type":"esriFieldTypeDouble","alias":"E_COORD97"},{"name":"N_COORD97","type":"esriFieldTypeDouble","alias":"N_COORD97"},{"name":"ADDRESS","type":"esriFieldTypeString","alias":"ADDRESS","length":50},{"name":"OBJECTID","type":"esriFieldTypeOID","alias":"OBJECTID"}],"features":[{"attributes":{"ID":293409,"DIS_CODE":0,"TOWNNAME":"永康區","LI":"復華里","LIN":"17鄰","STREET":"國華街","SECT":" ","MAREA":" ","LANE":"１０２巷","ALLEY":" ","HOUSE_NO":"６５號九樓之２","E_COORD97":172881.82000000001,"N_COORD97":2546141.7799999998,"ADDRESS":"國華街１０２巷６５號九樓之２","OBJECTID":293401},"geometry":{"x":172881.82000000216,"y":2546141.7800000012}},{"attributes":{"ID":293410,"DIS_CODE":0,"TOWNNAME":"後壁區","LI":"平安里","LIN":"4鄰","STREET":" ","SECT":" ","MAREA":"葯店口","LANE":" ","ALLEY":" ","HOUSE_NO":"４６號之１２","E_COORD97":182125.79000000001,"N_COORD97":2584693.4300000002,"ADDRESS":"葯店口４６號之１２","OBJECTID":293402},"geometry":{"x":182125.79000000097,"y":2584693.4300000016}},{"attributes":{"ID":293411,"DIS_CODE":0,"TOWNNAME":"後壁區","LI":"平安里","LIN":"4鄰","STREET":" ","SECT":" ","MAREA":"葯店口","LANE":" ","ALLEY":" ","HOUSE_NO":"４６號之１","E_COORD97":182040.70999999999,"N_COORD97":2584746.4399999999,"ADDRESS":"葯店口４６號之１","OBJECTID":293403},"geometry":{"x":182040.70999999996,"y":2584746.4400000013}},{"attributes":{"ID":293412,"DIS_CODE":0,"TOWNNAME":"永康區","LI":"復華里","LIN":"17鄰","STREET":"國華街","SECT":" ","MAREA":" ","LANE":"１０２巷","ALLEY":" ","HOUSE_NO":"６３號五樓之３","E_COORD97":172874.54000000001,"N_COORD97":2546145.02,"ADDRESS":"國華街１０２巷６３號五樓之３","OBJECTID":293404},"geometry":{"x":172874.54000000004,"y":2546145.0199999996}},{"attributes":{"ID":293413,"DIS_CODE":0,"TOWNNAME":"永康區","LI":"復華里","LIN":"17鄰","STREET":"國華街","SECT":" ","MAREA":" ","LANE":"１０２巷","ALLEY":" ","HOUSE_NO":"６３號五樓之１","E_COORD97":172874.44,"N_COORD97":2546145.02,"ADDRESS":"國華街１０２巷６３號五樓之１","OBJECTID":293405},"geometry":{"x":172874.44000000134,"y":2546145.0199999996}},{"attributes":{"ID":293414,"DIS_CODE":0,"TOWNNAME":"後壁區","LI":"平安里","LIN":"4鄰","STREET":" ","SECT":" ","MAREA":"葯店口","LANE":" ","ALLEY":" ","HOUSE_NO":"４６號之２","E_COORD97":182050.51999999999,"N_COORD97":2584684.3100000001,"ADDRESS":"葯店口４６號之２","OBJECTID":293406},"geometry":{"x":182050.52000000142,"y":2584684.3100000024}},{"attributes":{"ID":293415,"DIS_CODE":0,"TOWNNAME":"永康區","LI":"復華里","LIN":"17鄰","STREET":"國華街","SECT":" ","MAREA":" ","LANE":"１０２巷","ALLEY":" ","HOUSE_NO":"６５號四樓之１","E_COORD97":172881.69,"N_COORD97":2546141.7799999998,"ADDRESS":"國華街１０２巷６５號四樓之１","OBJECTID":293407},"geometry":{"x":172881.69000000134,"y":2546141.7800000012}},{"attributes":{"ID":293416,"DIS_CODE":0,"TOWNNAME":"北區","LI":"玉皇里","LIN":"14鄰","STREET":"佑民街","SECT":" ","MAREA":" ","LANE":" ","ALLEY":" ","HOUSE_NO":"３７號","E_COORD97":168582.03,"N_COORD97":2544400.3199999998,"ADDRESS":"佑民街３７號","OBJECTID":293408},"geometry":{"x":168582.03000000119,"y":2544400.3200000022}},{"attributes":{"ID":293417,"DIS_CODE":0,"TOWNNAME":"永康區","LI":"西勢里","LIN":"23鄰","STREET":"富強路","SECT":"一段","MAREA":" ","LANE":"１６８巷","ALLEY":" ","HOUSE_NO":"６６號","E_COORD97":175667.12,"N_COORD97":2546187.96,"ADDRESS":"富強路一段１６８巷６６號","OBJECTID":293409},"geometry":{"x":175667.12000000104,"y":2546187.9600000009}},{"attributes":{"ID":293418,"DIS_CODE":0,"TOWNNAME":"永康區","LI":"東橋里","LIN":"14鄰","STREET":"東橋三路","SECT":" ","MAREA":" ","LANE":"１２９巷","ALLEY":" ","HOUSE_NO":"２號","E_COORD97":171479.92000000001,"N_COORD97":2546749.5499999998,"ADDRESS":"東橋三路１２９巷２號","OBJECTID":293410},"geometry":{"x":171479.91999999993,"y":2546749.5500000007}},{"attributes":{"ID":293419,"DIS_CODE":0,"TOWNNAME":"永康區","LI":"東橋里","LIN":"14鄰","STREET":"東橋三路","SECT":" ","MAREA":" ","LANE":"１２９巷","ALLEY":" ","HOUSE_NO":"６號","E_COORD97":171474.70999999999,"N_COORD97":2546746.9700000002,"ADDRESS":"東橋三路１２９巷６號","OBJECTID":293411},"geometry":{"x":171474.70999999996,"y":2546746.9700000007}},{"attributes":{"ID":293420,"DIS_CODE":0,"TOWNNAME":"永康區","LI":"東橋里","LIN":"14鄰","STREET":"東橋三路","SECT":" ","MAREA":" ","LANE":"１２９巷","ALLEY":" ","HOUSE_NO":"８號","E_COORD97":171470.51999999999,"N_COORD97":2546744.4399999999,"ADDRESS":"東橋三路１２９巷８號","OBJECTID":293412},"geometry":{"x":171470.51999999955,"y":2546744.4400000013}},{"attributes":{"ID":293421,"DIS_CODE":0,"TOWNNAME":"永康區","LI":"東橋里","LIN":"14鄰","STREET":"東橋三路","SECT":" ","MAREA":" ","LANE":"１２９巷","ALLEY":" ","HOUSE_NO":"１０號","E_COORD97":171466.32000000001,"N_COORD97":2546741.9100000001,"ADDRESS":"東橋三路１２９巷１０號","OBJECTID":293413},"geometry":{"x":171466.32000000216,"y":2546741.910000002}},{"attributes":{"ID":293422,"DIS_CODE":0,"TOWNNAME":"永康區","LI":"東橋里","LIN":"14鄰","STREET":"東橋三路","SECT":" ","MAREA":" ","LANE":"１２９巷","ALLEY":" ","HOUSE_NO":"１２號","E_COORD97":171462.13,"N_COORD97":2546739.3700000001,"ADDRESS":"東橋三路１２９巷１２號","OBJECTID":293414},"geometry":{"x":171462.13000000082,"y":2546739.3700000029}},{"attributes":{"ID":293423,"DIS_CODE":0,"TOWNNAME":"永康區","LI":"東橋里","LIN":"14鄰","STREET":"東橋三路","SECT":" ","MAREA":" ","LANE":"１２９巷","ALLEY":" ","HOUSE_NO":"１６號","E_COORD97":171457.92999999999,"N_COORD97":2546736.8399999999,"ADDRESS":"東橋三路１２９巷１６號","OBJECTID":293415},"geometry":{"x":171457.92999999877,"y":2546736.8399999999}},{"attributes":{"ID":293424,"DIS_CODE":0,"TOWNNAME":"永康區","LI":"東橋里","LIN":"14鄰","STREET":"東橋三路","SECT":" ","MAREA":" ","LANE":"１２９巷","ALLEY":" ","HOUSE_NO":"１８號","E_COORD97":171453.73999999999,"N_COORD97":2546734.3100000001,"ADDRESS":"東橋三路１２９巷１８號","OBJECTID":293416},"geometry":{"x":171453.74000000115,"y":2546734.3100000005}},{"attributes":{"ID":293425,"DIS_CODE":0,"TOWNNAME":"永康區","LI":"東橋里","LIN":"14鄰","STREET":"東橋三路","SECT":" ","MAREA":" ","LANE":"１２９巷","ALLEY":" ","HOUSE_NO":"２０號","E_COORD97":171449.54000000001,"N_COORD97":2546731.77,"ADDRESS":"東橋三路１２９巷２０號","OBJECTID":293417},"geometry":{"x":171449.54000000097,"y":2546731.7700000014}},{"attributes":{"ID":293426,"DIS_CODE":0,"TOWNNAME":"永康區","LI":"東橋里","LIN":"14鄰","STREET":"東橋三路","SECT":" ","MAREA":" ","LANE":"１２９巷","ALLEY":" ","HOUSE_NO":"１號","E_COORD97":171491.44,"N_COORD97":2546729.79,"ADDRESS":"東橋三路１２９巷１號","OBJECTID":293418},"geometry":{"x":171491.44000000134,"y":2546729.7899999991}},{"attributes":{"ID":293427,"DIS_CODE":0,"TOWNNAME":"永康區","LI":"復華里","LIN":"17鄰","STREET":"國華街","SECT":" ","MAREA":" ","LANE":"１０２巷","ALLEY":" ","HOUSE_NO":"６３號六樓之２","E_COORD97":172874.57000000001,"N_COORD97":2546145.02,"ADDRESS":"國華街１０２巷６３號六樓之２","OBJECTID":293419},"geometry":{"x":172874.5700000003,"y":2546145.0199999996}},{"attributes":{"ID":293428,"DIS_CODE":0,"TOWNNAME":"永康區","LI":"復華里","LIN":"17鄰","STREET":"國華街","SECT":" ","MAREA":" ","LANE":"１０２巷","ALLEY":" ","HOUSE_NO":"６３號十樓之２","E_COORD97":172874.57000000001,"N_COORD97":2546145.02,"ADDRESS":"國華街１０２巷６３號十樓之２","OBJECTID":293420},"geometry":{"x":172874.5700000003,"y":2546145.0199999996}},{"attributes":{"ID":293429,"DIS_CODE":0,"TOWNNAME":"永康區","LI":"復華里","LIN":"17鄰","STREET":"國華街","SECT":" ","MAREA":" ","LANE":"１０２巷","ALLEY":" ","HOUSE_NO":"６３號九樓之２","E_COORD97":172874.57000000001,"N_COORD97":2546145.02,"ADDRESS":"國華街１０２巷６３號九樓之２","OBJECTID":293421},"geometry":{"x":172874.5700000003,"y":2546145.0199999996}},{"attributes":{"ID":293430,"DIS_CODE":0,"TOWNNAME":"安平區","LI":"石門里","LIN":"14鄰","STREET":"延平街","SECT":" ","MAREA":" ","LANE":" ","ALLEY":" ","HOUSE_NO":"４４號","E_COORD97":164269.32999999999,"N_COORD97":2544581.9700000002,"ADDRESS":"延平街４４號","OBJECTID":293422},"geometry":{"x":164269.33000000007,"y":2544581.9700000025}},{"attributes":{"ID":293431,"DIS_CODE":0,"TOWNNAME":"安平區","LI":"石門里","LIN":"14鄰","STREET":"延平街","SECT":" ","MAREA":" ","LANE":" ","ALLEY":" ","HOUSE_NO":"４６號","E_COORD97":164264.76000000001,"N_COORD97":2544582.2999999998,"ADDRESS":"延平街４６號","OBJECTID":293423},"geometry":{"x":164264.75999999978,"y":2544582.3000000045}},{"attributes":{"ID":293432,"DIS_CODE":0,"TOWNNAME":"安平區","LI":"石門里","LIN":"14鄰","STREET":"延平街","SECT":" ","MAREA":" ","LANE":" ","ALLEY":" ","HOUSE_NO":"４８號","E_COORD97":164260.85000000001,"N_COORD97":2544581.3199999998,"ADDRESS":"延平街４８號","OBJECTID":293424},"geometry":{"x":164260.85000000149,"y":2544581.3200000003}},{"attributes":{"ID":293433,"DIS_CODE":0,"TOWNNAME":"安平區","LI":"石門里","LIN":"14鄰","STREET":"延平街","SECT":" ","MAREA":" ","LANE":" ","ALLEY":" ","HOUSE_NO":"５０號","E_COORD97":164258.23999999999,"N_COORD97":2544582.6200000001,"ADDRESS":"延平街５０號","OBJECTID":293425},"geometry":{"x":164258.24000000022,"y":2544582.620000001}},{"attributes":{"ID":293434,"DIS_CODE":0,"TOWNNAME":"安平區","LI":"石門里","LIN":"14鄰","STREET":"延平街","SECT":" ","MAREA":" ","LANE":" ","ALLEY":" ","HOUSE_NO":"５６號","E_COORD97":164254.01000000001,"N_COORD97":2544584.8999999999,"ADDRESS":"延平街５６號","OBJECTID":293426},"geometry":{"x":164254.00999999978,"y":2544584.9000000041}},{"attributes":{"ID":293435,"DIS_CODE":0,"TOWNNAME":"安平區","LI":"石門里","LIN":"14鄰","STREET":"延平街","SECT":" ","MAREA":" ","LANE":" ","ALLEY":" ","HOUSE_NO":"６２號","E_COORD97":164241.62,"N_COORD97":2544587.8300000001,"ADDRESS":"延平街６２號","OBJECTID":293427},"geometry":{"x":164241.62000000104,"y":2544587.8300000001}},{"attributes":{"ID":293436,"DIS_CODE":0,"TOWNNAME":"安平區","LI":"石門里","LIN":"14鄰","STREET":"延平街","SECT":" ","MAREA":" ","LANE":" ","ALLEY":" ","HOUSE_NO":"６４號","E_COORD97":164237.70000000001,"N_COORD97":2544588.8100000001,"ADDRESS":"延平街６４號","OBJECTID":293428},"geometry":{"x":164237.70000000112,"y":2544588.8100000042}},{"attributes":{"ID":293437,"DIS_CODE":0,"TOWNNAME":"安平區","LI":"石門里","LIN":"14鄰","STREET":"延平街","SECT":" ","MAREA":" ","LANE":" ","ALLEY":" ","HOUSE_NO":"６８號","E_COORD97":164231.51000000001,"N_COORD97":2544592.0699999998,"ADDRESS":"延平街６８號","OBJECTID":293429},"geometry":{"x":164231.51000000071,"y":2544592.0700000003}},{"attributes":{"ID":293438,"DIS_CODE":0,"TOWNNAME":"北區","LI":"玉皇里","LIN":"14鄰","STREET":"佑民街","SECT":" ","MAREA":" ","LANE":" ","ALLEY":" ","HOUSE_NO":"４１號","E_COORD97":168590.48999999999,"N_COORD97":2544405.1000000001,"ADDRESS":"佑民街４１號","OBJECTID":293430},"geometry":{"x":168590.49000000115,"y":2544405.0999999996}},{"attributes":{"ID":293439,"DIS_CODE":0,"TOWNNAME":"北區","LI":"玉皇里","LIN":"14鄰","STREET":"佑民街","SECT":" ","MAREA":" ","LANE":" ","ALLEY":" ","HOUSE_NO":"４３號","E_COORD97":168595.10000000001,"N_COORD97":2544407.1499999999,"ADDRESS":"佑民街４３號","OBJECTID":293431},"geometry":{"x":168595.09999999963,"y":2544407.1500000022}},{"attributes":{"ID":293440,"DIS_CODE":0,"TOWNNAME":"北區","LI":"玉皇里","LIN":"14鄰","STREET":"佑民街","SECT":" ","MAREA":" ","LANE":" ","ALLEY":" ","HOUSE_NO":"４５號","E_COORD97":168598,"N_COORD97":2544411.54,"ADDRESS":"佑民街４５號","OBJECTID":293432},"geometry":{"x":168597.99999999907,"y":2544411.5399999991}},{"attributes":{"ID":293441,"DIS_CODE":0,"TOWNNAME":"永康區","LI":"尚頂里","LIN":"26鄰","STREET":"南台街","SECT":" ","MAREA":" ","LANE":"１０巷","ALLEY":" ","HOUSE_NO":"１號","E_COORD97":170451.64999999999,"N_COORD97":2546983.1000000001,"ADDRESS":"南台街１０巷１號","OBJECTID":293433},"geometry":{"x":170451.65000000037,"y":2546983.1000000034}},{"attributes":{"ID":293442,"DIS_CODE":0,"TOWNNAME":"永康區","LI":"網寮里","LIN":"20鄰","STREET":"文化路","SECT":" ","MAREA":" ","LANE":"３２３巷","ALLEY":" ","HOUSE_NO":"２６號","E_COORD97":173355.67999999999,"N_COORD97":2546124.0499999998,"ADDRESS":"文化路３２３巷２６號","OBJECTID":293434},"geometry":{"x":173355.68000000063,"y":2546124.0500000026}},{"attributes":{"ID":293443,"DIS_CODE":0,"TOWNNAME":"永康區","LI":"西勢里","LIN":"17鄰","STREET":"富強路","SECT":"一段","MAREA":" ","LANE":"２５４巷","ALLEY":" ","HOUSE_NO":"１５號","E_COORD97":175732.89000000001,"N_COORD97":2546443.5099999998,"ADDRESS":"富強路一段２５４巷１５號","OBJECTID":293435},"geometry":{"x":175732.88999999966,"y":2546443.5099999998}},{"attributes":{"ID":293444,"DIS_CODE":0,"TOWNNAME":"永康區","LI":"復華里","LIN":"17鄰","STREET":"國華街","SECT":" ","MAREA":" ","LANE":"１０２巷","ALLEY":" ","HOUSE_NO":"６７號六樓之３","E_COORD97":172887.82000000001,"N_COORD97":2546139.23,"ADDRESS":"國華街１０２巷６７號六樓之３","OBJECTID":293436},"geometry":{"x":172887.8200000003,"y":2546139.2300000023}},{"attributes":{"ID":293445,"DIS_CODE":0,"TOWNNAME":"永康區","LI":"復華里","LIN":"17鄰","STREET":"國華街","SECT":" ","MAREA":" ","LANE":"１０２巷","ALLEY":" ","HOUSE_NO":"６５號十樓之２","E_COORD97":172881.82000000001,"N_COORD97":2546141.7799999998,"ADDRESS":"國華街１０２巷６５號十樓之２","OBJECTID":293437},"geometry":{"x":172881.82000000216,"y":2546141.7800000012}},{"attributes":{"ID":293446,"DIS_CODE":0,"TOWNNAME":"永康區","LI":"復華里","LIN":"17鄰","STREET":"國華街","SECT":" ","MAREA":" ","LANE":"１０２巷","ALLEY":" ","HOUSE_NO":"６３號八樓之２","E_COORD97":172874.57000000001,"N_COORD97":2546145.02,"ADDRESS":"國華街１０２巷６３號八樓之２","OBJECTID":293438},"geometry":{"x":172874.5700000003,"y":2546145.0199999996}},{"attributes":{"ID":293447,"DIS_CODE":0,"TOWNNAME":"中西區","LI":"藥王里","LIN":"17鄰","STREET":"民權路","SECT":"三段","MAREA":" ","LANE":"４００巷","ALLEY":" ","HOUSE_NO":"１３號五樓","E_COORD97":166900.28,"N_COORD97":2544402.3700000001,"ADDRESS":"民權路三段４００巷１３號五樓","OBJECTID":293439},"geometry":{"x":166900.28000000119,"y":2544402.3699999992}},{"attributes":{"ID":293448,"DIS_CODE":0,"TOWNNAME":"中西區","LI":"藥王里","LIN":"17鄰","STREET":"民權路","SECT":"三段","MAREA":" ","LANE":"４００巷","ALLEY":" ","HOUSE_NO":"１３號六樓","E_COORD97":166900.28,"N_COORD97":2544402.3700000001,"ADDRESS":"民權路三段４００巷１３號六樓","OBJECTID":293440},"geometry":{"x":166900.28000000119,"y":2544402.3699999992}},{"attributes":{"ID":293449,"DIS_CODE":0,"TOWNNAME":"中西區","LI":"藥王里","LIN":"17鄰","STREET":"民權路","SECT":"三段","MAREA":" ","LANE":"４００巷","ALLEY":" ","HOUSE_NO":"１３號四樓","E_COORD97":166900.28,"N_COORD97":2544402.3700000001,"ADDRESS":"民權路三段４００巷１３號四樓","OBJECTID":293441},"geometry":{"x":166900.28000000119,"y":2544402.3699999992}},{"attributes":{"ID":293450,"DIS_CODE":0,"TOWNNAME":"中西區","LI":"藥王里","LIN":"17鄰","STREET":"民權路","SECT":"三段","MAREA":" ","LANE":"４００巷","ALLEY":" ","HOUSE_NO":"１５號七樓","E_COORD97":166909.76000000001,"N_COORD97":2544397.8900000001,"ADDRESS":"民權路三段４００巷１５號七樓","OBJECTID":293442},"geometry":{"x":166909.76000000071,"y":2544397.8900000006}},{"attributes":{"ID":293451,"DIS_CODE":0,"TOWNNAME":"中西區","LI":"藥王里","LIN":"17鄰","STREET":"民權路","SECT":"三段","MAREA":" ","LANE":"４００巷","ALLEY":" ","HOUSE_NO":"１５號九樓","E_COORD97":166909.76000000001,"N_COORD97":2544397.8900000001,"ADDRESS":"民權路三段４００巷１５號九樓","OBJECTID":293443},"geometry":{"x":166909.76000000071,"y":2544397.8900000006}},{"attributes":{"ID":293452,"DIS_CODE":0,"TOWNNAME":"中西區","LI":"藥王里","LIN":"17鄰","STREET":"民權路","SECT":"三段","MAREA":" ","LANE":"４００巷","ALLEY":" ","HOUSE_NO":"１５號二樓","E_COORD97":166909.76000000001,"N_COORD97":2544397.8900000001,"ADDRESS":"民權路三段４００巷１５號二樓","OBJECTID":293444},"geometry":{"x":166909.76000000071,"y":2544397.8900000006}},{"attributes":{"ID":293453,"DIS_CODE":0,"TOWNNAME":"中西區","LI":"藥王里","LIN":"17鄰","STREET":"民權路","SECT":"三段","MAREA":" ","LANE":"４００巷","ALLEY":" ","HOUSE_NO":"１５號八樓","E_COORD97":166909.76000000001,"N_COORD97":2544397.8900000001,"ADDRESS":"民權路三段４００巷１５號八樓","OBJECTID":293445},"geometry":{"x":166909.76000000071,"y":2544397.8900000006}},{"attributes":{"ID":293454,"DIS_CODE":0,"TOWNNAME":"中西區","LI":"藥王里","LIN":"17鄰","STREET":"民權路","SECT":"三段","MAREA":" ","LANE":"４００巷","ALLEY":" ","HOUSE_NO":"１５號十樓","E_COORD97":166909.76000000001,"N_COORD97":2544397.8900000001,"ADDRESS":"民權路三段４００巷１５號十樓","OBJECTID":293446},"geometry":{"x":166909.76000000071,"y":2544397.8900000006}},{"attributes":{"ID":293455,"DIS_CODE":0,"TOWNNAME":"中西區","LI":"藥王里","LIN":"17鄰","STREET":"民權路","SECT":"三段","MAREA":" ","LANE":"４００巷","ALLEY":" ","HOUSE_NO":"１５號三樓","E_COORD97":166909.76000000001,"N_COORD97":2544397.8900000001,"ADDRESS":"民權路三段４００巷１５號三樓","OBJECTID":293447},"geometry":{"x":166909.76000000071,"y":2544397.8900000006}},{"attributes":{"ID":293456,"DIS_CODE":0,"TOWNNAME":"北區","LI":"玉皇里","LIN":"14鄰","STREET":"忠義路","SECT":"三段","MAREA":" ","LANE":" ","ALLEY":" ","HOUSE_NO":"４８號","E_COORD97":168555.12,"N_COORD97":2544469.5099999998,"ADDRESS":"忠義路三段４８號","OBJECTID":293448},"geometry":{"x":168555.12000000197,"y":2544469.5100000016}},{"attributes":{"ID":293457,"DIS_CODE":0,"TOWNNAME":"北區","LI":"玉皇里","LIN":"14鄰","STREET":"忠義路","SECT":"三段","MAREA":" ","LANE":" ","ALLEY":" ","HOUSE_NO":"５０號","E_COORD97":168556.97,"N_COORD97":2544474.1200000001,"ADDRESS":"忠義路三段５０號","OBJECTID":293449},"geometry":{"x":168556.96999999974,"y":2544474.120000001}},{"attributes":{"ID":293458,"DIS_CODE":0,"TOWNNAME":"歸仁區","LI":"後市里","LIN":"14鄰","STREET":"大吉一街","SECT":" ","MAREA":" ","LANE":" ","ALLEY":" ","HOUSE_NO":"９號","E_COORD97":177180.56,"N_COORD97":2540747.25,"ADDRESS":"大吉一街９號","OBJECTID":293450},"geometry":{"x":177180.56000000052,"y":2540747.2499999981}},{"attributes":{"ID":293459,"DIS_CODE":0,"TOWNNAME":"麻豆區","LI":"大埕里","LIN":"14鄰","STREET":"新興街","SECT":" ","MAREA":" ","LANE":" ","ALLEY":" ","HOUSE_NO":"３號之１０","E_COORD97":172909.85999999999,"N_COORD97":2565195.9500000002,"ADDRESS":"新興街３號之１０","OBJECTID":293451},"geometry":{"x":172909.86000000034,"y":2565195.9499999993}},{"attributes":{"ID":293460,"DIS_CODE":0,"TOWNNAME":"永康區","LI":"永康里","LIN":"42鄰","STREET":"永大二路","SECT":" ","MAREA":" ","LANE":"１０８巷","ALLEY":" ","HOUSE_NO":"５１號","E_COORD97":174107.64000000001,"N_COORD97":2546637.4399999999,"ADDRESS":"永大二路１０８巷５１號","OBJECTID":293452},"geometry":{"x":174107.63999999966,"y":2546637.4399999995}},{"attributes":{"ID":293461,"DIS_CODE":0,"TOWNNAME":"永康區","LI":"永康里","LIN":"42鄰","STREET":"永大二路","SECT":" ","MAREA":" ","LANE":"１０８巷","ALLEY":" ","HOUSE_NO":"５３號","E_COORD97":174109.67000000001,"N_COORD97":2546640.6699999999,"ADDRESS":"永大二路１０８巷５３號","OBJECTID":293453},"geometry":{"x":174109.67000000179,"y":2546640.6700000018}},{"attributes":{"ID":293462,"DIS_CODE":0,"TOWNNAME":"永康區","LI":"永康里","LIN":"42鄰","STREET":"永大二路","SECT":" ","MAREA":" ","LANE":"１０８巷","ALLEY":" ","HOUSE_NO":"５５號","E_COORD97":174118.06,"N_COORD97":2546642.1499999999,"ADDRESS":"永大二路１０８巷５５號","OBJECTID":293454},"geometry":{"x":174118.05999999959,"y":2546642.1500000022}},{"attributes":{"ID":293463,"DIS_CODE":0,"TOWNNAME":"永康區","LI":"永康里","LIN":"42鄰","STREET":"永大二路","SECT":" ","MAREA":" ","LANE":"１０８巷","ALLEY":" ","HOUSE_NO":"５７號","E_COORD97":174113.42000000001,"N_COORD97":2546652.6699999999,"ADDRESS":"永大二路１０８巷５７號","OBJECTID":293455},"geometry":{"x":174113.42000000086,"y":2546652.6699999999}},{"attributes":{"ID":293464,"DIS_CODE":0,"TOWNNAME":"佳里區","LI":"子龍里","LIN":"17鄰","STREET":" ","SECT":" ","MAREA":"子良廟","LANE":" ","ALLEY":" ","HOUSE_NO":"１８７號之１","E_COORD97":168911.75,"N_COORD97":2563541.1600000001,"ADDRESS":"子良廟１８７號之１","OBJECTID":293456},"geometry":{"x":168911.75000000186,"y":2563541.1600000001}},{"attributes":{"ID":293465,"DIS_CODE":0,"TOWNNAME":"佳里區","LI":"子龍里","LIN":"17鄰","STREET":" ","SECT":" ","MAREA":"子良廟","LANE":" ","ALLEY":" ","HOUSE_NO":"１８７號","E_COORD97":168899.60000000001,"N_COORD97":2563531.8999999999,"ADDRESS":"子良廟１８７號","OBJECTID":293457},"geometry":{"x":168899.60000000056,"y":2563531.9000000004}},{"attributes":{"ID":293466,"DIS_CODE":0,"TOWNNAME":"佳里區","LI":"子龍里","LIN":"17鄰","STREET":" ","SECT":" ","MAREA":"子良廟","LANE":" ","ALLEY":" ","HOUSE_NO":"１８８號之１","E_COORD97":168944.31,"N_COORD97":2563488.9700000002,"ADDRESS":"子良廟１８８號之１","OBJECTID":293458},"geometry":{"x":168944.30999999959,"y":2563488.9700000007}},{"attributes":{"ID":293467,"DIS_CODE":0,"TOWNNAME":"佳里區","LI":"子龍里","LIN":"17鄰","STREET":" ","SECT":" ","MAREA":"子良廟","LANE":" ","ALLEY":" ","HOUSE_NO":"１８８號","E_COORD97":168927.45999999999,"N_COORD97":2563483.96,"ADDRESS":"子良廟１８８號","OBJECTID":293459},"geometry":{"x":168927.46000000089,"y":2563483.9600000028}},{"attributes":{"ID":293468,"DIS_CODE":0,"TOWNNAME":"佳里區","LI":"子龍里","LIN":"17鄰","STREET":" ","SECT":" ","MAREA":"子良廟","LANE":" ","ALLEY":" ","HOUSE_NO":"１８９號","E_COORD97":168885.73999999999,"N_COORD97":2563486.6800000002,"ADDRESS":"子良廟１８９號","OBJECTID":293460},"geometry":{"x":168885.74000000115,"y":2563486.6799999978}},{"attributes":{"ID":293469,"DIS_CODE":0,"TOWNNAME":"永康區","LI":"永康里","LIN":"42鄰","STREET":"永大二路","SECT":" ","MAREA":" ","LANE":"１０８巷","ALLEY":" ","HOUSE_NO":"５９號","E_COORD97":174120.13,"N_COORD97":2546651.46,"ADDRESS":"永大二路１０８巷５９號","OBJECTID":293461},"geometry":{"x":174120.13000000175,"y":2546651.4600000009}},{"attributes":{"ID":293470,"DIS_CODE":0,"TOWNNAME":"佳里區","LI":"子龍里","LIN":"17鄰","STREET":" ","SECT":" ","MAREA":"子良廟","LANE":" ","ALLEY":" ","HOUSE_NO":"１９０號","E_COORD97":168890.10000000001,"N_COORD97":2563454.0800000001,"ADDRESS":"子良廟１９０號","OBJECTID":293462},"geometry":{"x":168890.09999999963,"y":2563454.0800000038}},{"attributes":{"ID":293471,"DIS_CODE":0,"TOWNNAME":"佳里區","LI":"子龍里","LIN":"17鄰","STREET":" ","SECT":" ","MAREA":"子良廟","LANE":" ","ALLEY":" ","HOUSE_NO":"１９１號之１","E_COORD97":168868.79999999999,"N_COORD97":2563519.8399999999,"ADDRESS":"子良廟１９１號之１","OBJECTID":293463},"geometry":{"x":168868.80000000168,"y":2563519.8400000036}},{"attributes":{"ID":293472,"DIS_CODE":0,"TOWNNAME":"佳里區","LI":"子龍里","LIN":"17鄰","STREET":" ","SECT":" ","MAREA":"子良廟","LANE":" ","ALLEY":" ","HOUSE_NO":"１９１號之２","E_COORD97":168868.45999999999,"N_COORD97":2563512.3100000001,"ADDRESS":"子良廟１９１號之２","OBJECTID":293464},"geometry":{"x":168868.46000000089,"y":2563512.3100000005}},{"attributes":{"ID":293473,"DIS_CODE":0,"TOWNNAME":"中西區","LI":"藥王里","LIN":"17鄰","STREET":"民權路","SECT":"三段","MAREA":" ","LANE":"４００巷","ALLEY":" ","HOUSE_NO":"１５號五樓","E_COORD97":166909.76000000001,"N_COORD97":2544397.8900000001,"ADDRESS":"民權路三段４００巷１５號五樓","OBJECTID":293465},"geometry":{"x":166909.76000000071,"y":2544397.8900000006}},{"attributes":{"ID":293474,"DIS_CODE":0,"TOWNNAME":"佳里區","LI":"子龍里","LIN":"17鄰","STREET":" ","SECT":" ","MAREA":"子良廟","LANE":" ","ALLEY":" ","HOUSE_NO":"１９１號之３","E_COORD97":168868.73999999999,"N_COORD97":2563506.1899999999,"ADDRESS":"子良廟１９１號之３","OBJECTID":293466},"geometry":{"x":168868.74000000115,"y":2563506.1899999995}},{"attributes":{"ID":293475,"DIS_CODE":0,"TOWNNAME":"中西區","LI":"藥王里","LIN":"17鄰","STREET":"民權路","SECT":"三段","MAREA":" ","LANE":"４００巷","ALLEY":" ","HOUSE_NO":"１５號六樓","E_COORD97":166909.76000000001,"N_COORD97":2544397.8900000001,"ADDRESS":"民權路三段４００巷１５號六樓","OBJECTID":293467},"geometry":{"x":166909.76000000071,"y":2544397.8900000006}},{"attributes":{"ID":293476,"DIS_CODE":0,"TOWNNAME":"中西區","LI":"藥王里","LIN":"17鄰","STREET":"民權路","SECT":"三段","MAREA":" ","LANE":"４００巷","ALLEY":" ","HOUSE_NO":"１５號四樓","E_COORD97":166909.76000000001,"N_COORD97":2544397.8900000001,"ADDRESS":"民權路三段４００巷１５號四樓","OBJECTID":293468},"geometry":{"x":166909.76000000071,"y":2544397.8900000006}},{"attributes":{"ID":293477,"DIS_CODE":0,"TOWNNAME":"中西區","LI":"藥王里","LIN":"17鄰","STREET":"民權路","SECT":"三段","MAREA":" ","LANE":"４００巷","ALLEY":" ","HOUSE_NO":"１７號七樓","E_COORD97":166907.13,"N_COORD97":2544414.4700000002,"ADDRESS":"民權路三段４００巷１７號七樓","OBJECTID":293469},"geometry":{"x":166907.13000000175,"y":2544414.4700000007}},{"attributes":{"ID":293478,"DIS_CODE":0,"TOWNNAME":"中西區","LI":"藥王里","LIN":"17鄰","STREET":"民權路","SECT":"三段","MAREA":" ","LANE":"４００巷","ALLEY":" ","HOUSE_NO":"１７號九樓","E_COORD97":166907.13,"N_COORD97":2544414.4700000002,"ADDRESS":"民權路三段４００巷１７號九樓","OBJECTID":293470},"geometry":{"x":166907.13000000175,"y":2544414.4700000007}},{"attributes":{"ID":293479,"DIS_CODE":0,"TOWNNAME":"麻豆區","LI":"大埕里","LIN":"14鄰","STREET":"新興街","SECT":" ","MAREA":" ","LANE":" ","ALLEY":" ","HOUSE_NO":"３號之１１","E_COORD97":172916.39999999999,"N_COORD97":2565196.02,"ADDRESS":"新興街３號之１１","OBJECTID":293471},"geometry":{"x":172916.40000000037,"y":2565196.0199999996}},{"attributes":{"ID":293480,"DIS_CODE":0,"TOWNNAME":"麻豆區","LI":"大埕里","LIN":"14鄰","STREET":"新興街","SECT":" ","MAREA":" ","LANE":" ","ALLEY":" ","HOUSE_NO":"３號之１２","E_COORD97":172923.87,"N_COORD97":2565196.54,"ADDRESS":"新興街３號之１２","OBJECTID":293472},"geometry":{"x":172923.87000000104,"y":2565196.540000001}},{"attributes":{"ID":293481,"DIS_CODE":0,"TOWNNAME":"麻豆區","LI":"大埕里","LIN":"14鄰","STREET":"新興街","SECT":" ","MAREA":" ","LANE":" ","ALLEY":" ","HOUSE_NO":"３號之１","E_COORD97":172922.39999999999,"N_COORD97":2565210.0699999998,"ADDRESS":"新興街３號之１","OBJECTID":293473},"geometry":{"x":172922.4000000013,"y":2565210.0700000003}},{"attributes":{"ID":293482,"DIS_CODE":0,"TOWNNAME":"麻豆區","LI":"大埕里","LIN":"14鄰","STREET":"新興街","SECT":" ","MAREA":" ","LANE":" ","ALLEY":" ","HOUSE_NO":"３號之２","E_COORD97":172915.94,"N_COORD97":2565209.5,"ADDRESS":"新興街３號之２","OBJECTID":293474},"geometry":{"x":172915.94000000041,"y":2565209.5}},{"attributes":{"ID":293483,"DIS_CODE":0,"TOWNNAME":"麻豆區","LI":"大埕里","LIN":"14鄰","STREET":"新興街","SECT":" ","MAREA":" ","LANE":" ","ALLEY":" ","HOUSE_NO":"３號之３","E_COORD97":172908.57000000001,"N_COORD97":2565209.3300000001,"ADDRESS":"新興街３號之３","OBJECTID":293475},"geometry":{"x":172908.5700000003,"y":2565209.3300000019}},{"attributes":{"ID":293484,"DIS_CODE":0,"TOWNNAME":"麻豆區","LI":"大埕里","LIN":"14鄰","STREET":"新興街","SECT":" ","MAREA":" ","LANE":" ","ALLEY":" ","HOUSE_NO":"３號之４","E_COORD97":172901.35999999999,"N_COORD97":2565208.73,"ADDRESS":"新興街３號之４","OBJECTID":293476},"geometry":{"x":172901.36000000034,"y":2565208.7300000004}},{"attributes":{"ID":293485,"DIS_CODE":0,"TOWNNAME":"佳里區","LI":"子龍里","LIN":"17鄰","STREET":" ","SECT":" ","MAREA":"子良廟","LANE":" ","ALLEY":" ","HOUSE_NO":"１９１號之５","E_COORD97":168869.10000000001,"N_COORD97":2563501.0699999998,"ADDRESS":"子良廟１９１號之５","OBJECTID":293477},"geometry":{"x":168869.10000000056,"y":2563501.0700000003}},{"attributes":{"ID":293486,"DIS_CODE":0,"TOWNNAME":"佳里區","LI":"子龍里","LIN":"17鄰","STREET":" ","SECT":" ","MAREA":"子良廟","LANE":" ","ALLEY":" ","HOUSE_NO":"１９１號","E_COORD97":168882.09,"N_COORD97":2563531.6400000001,"ADDRESS":"子良廟１９１號","OBJECTID":293478},"geometry":{"x":168882.09000000171,"y":2563531.6400000006}},{"attributes":{"ID":293487,"DIS_CODE":0,"TOWNNAME":"佳里區","LI":"子龍里","LIN":"17鄰","STREET":" ","SECT":" ","MAREA":"子良廟","LANE":" ","ALLEY":" ","HOUSE_NO":"１９２號之１","E_COORD97":168850.87,"N_COORD97":2563533.3700000001,"ADDRESS":"子良廟１９２號之１","OBJECTID":293479},"geometry":{"x":168850.87000000011,"y":2563533.370000001}},{"attributes":{"ID":293488,"DIS_CODE":0,"TOWNNAME":"永康區","LI":"龍潭里","LIN":"3鄰","STREET":"龍安街","SECT":" ","MAREA":" ","LANE":"３９巷","ALLEY":" ","HOUSE_NO":"７號","E_COORD97":174528.14000000001,"N_COORD97":2548125.3100000001,"ADDRESS":"龍安街３９巷７號","OBJECTID":293480},"geometry":{"x":174528.13999999873,"y":2548125.3100000042}},{"attributes":{"ID":293489,"DIS_CODE":0,"TOWNNAME":"永康區","LI":"龍潭里","LIN":"3鄰","STREET":"龍安街","SECT":" ","MAREA":" ","LANE":"３９巷","ALLEY":" ","HOUSE_NO":"９號","E_COORD97":174523.79999999999,"N_COORD97":2548123.96,"ADDRESS":"龍安街３９巷９號","OBJECTID":293481},"geometry":{"x":174523.79999999981,"y":2548123.9600000009}},{"attributes":{"ID":293490,"DIS_CODE":0,"TOWNNAME":"永康區","LI":"龍潭里","LIN":"3鄰","STREET":"龍安街","SECT":" ","MAREA":" ","LANE":"３９巷","ALLEY":" ","HOUSE_NO":"１１號","E_COORD97":174520.17999999999,"N_COORD97":2548124.4300000002,"ADDRESS":"龍安街３９巷１１號","OBJECTID":293482},"geometry":{"x":174520.18000000063,"y":2548124.4300000016}},{"attributes":{"ID":293491,"DIS_CODE":0,"TOWNNAME":"佳里區","LI":"東寧里","LIN":"7鄰","STREET":"中山路","SECT":" ","MAREA":" ","LANE":"３４６巷","ALLEY":" ","HOUSE_NO":"３０號","E_COORD97":165801.79000000001,"N_COORD97":2562475.9199999999,"ADDRESS":"中山路３４６巷３０號","OBJECTID":293483},"geometry":{"x":165801.79000000004,"y":2562475.9200000018}},{"attributes":{"ID":293492,"DIS_CODE":0,"TOWNNAME":"佳里區","LI":"子龍里","LIN":"17鄰","STREET":" ","SECT":" ","MAREA":"子良廟","LANE":" ","ALLEY":" ","HOUSE_NO":"１９２號","E_COORD97":168872.82000000001,"N_COORD97":2563543.3199999998,"ADDRESS":"子良廟１９２號","OBJECTID":293484},"geometry":{"x":168872.82000000123,"y":2563543.3200000003}},{"attributes":{"ID":293493,"DIS_CODE":0,"TOWNNAME":"中西區","LI":"藥王里","LIN":"17鄰","STREET":"民權路","SECT":"三段","MAREA":" ","LANE":"４００巷","ALLEY":" ","HOUSE_NO":"１７號二樓","E_COORD97":166907.13,"N_COORD97":2544414.4700000002,"ADDRESS":"民權路三段４００巷１７號二樓","OBJECTID":293485},"geometry":{"x":166907.13000000175,"y":2544414.4700000007}},{"attributes":{"ID":293494,"DIS_CODE":0,"TOWNNAME":"佳里區","LI":"子龍里","LIN":"4鄰","STREET":" ","SECT":" ","MAREA":"子良廟","LANE":" ","ALLEY":" ","HOUSE_NO":"４３號之１","E_COORD97":168946.60999999999,"N_COORD97":2563930.5499999998,"ADDRESS":"子良廟４３號之１","OBJECTID":293486},"geometry":{"x":168946.61000000034,"y":2563930.5500000026}},{"attributes":{"ID":293495,"DIS_CODE":0,"TOWNNAME":"佳里區","LI":"子龍里","LIN":"4鄰","STREET":" ","SECT":" ","MAREA":"子良廟","LANE":" ","ALLEY":" ","HOUSE_NO":"４３號之２","E_COORD97":168930.91,"N_COORD97":2563920.6400000001,"ADDRESS":"子良廟４３號之２","OBJECTID":293487},"geometry":{"x":168930.91000000015,"y":2563920.6400000006}},{"attributes":{"ID":293496,"DIS_CODE":0,"TOWNNAME":"佳里區","LI":"子龍里","LIN":"4鄰","STREET":" ","SECT":" ","MAREA":"子良廟","LANE":" ","ALLEY":" ","HOUSE_NO":"４３號之３","E_COORD97":168937.29000000001,"N_COORD97":2563922.1899999999,"ADDRESS":"子良廟４３號之３","OBJECTID":293488},"geometry":{"x":168937.29000000097,"y":2563922.1900000013}},{"attributes":{"ID":293497,"DIS_CODE":0,"TOWNNAME":"中西區","LI":"藥王里","LIN":"17鄰","STREET":"民權路","SECT":"三段","MAREA":" ","LANE":"４００巷","ALLEY":" ","HOUSE_NO":"１７號八樓","E_COORD97":166907.13,"N_COORD97":2544414.4700000002,"ADDRESS":"民權路三段４００巷１７號八樓","OBJECTID":293489},"geometry":{"x":166907.13000000175,"y":2544414.4700000007}},{"attributes":{"ID":293498,"DIS_CODE":0,"TOWNNAME":"中西區","LI":"藥王里","LIN":"17鄰","STREET":"民權路","SECT":"三段","MAREA":" ","LANE":"４００巷","ALLEY":" ","HOUSE_NO":"１７號十樓","E_COORD97":166907.13,"N_COORD97":2544414.4700000002,"ADDRESS":"民權路三段４００巷１７號十樓","OBJECTID":293490},"geometry":{"x":166907.13000000175,"y":2544414.4700000007}},{"attributes":{"ID":293499,"DIS_CODE":0,"TOWNNAME":"中西區","LI":"藥王里","LIN":"17鄰","STREET":"民權路","SECT":"三段","MAREA":" ","LANE":"４００巷","ALLEY":" ","HOUSE_NO":"１７號三樓","E_COORD97":166907.13,"N_COORD97":2544414.4700000002,"ADDRESS":"民權路三段４００巷１７號三樓","OBJECTID":293491},"geometry":{"x":166907.13000000175,"y":2544414.4700000007}},{"attributes":{"ID":293500,"DIS_CODE":0,"TOWNNAME":"中西區","LI":"藥王里","LIN":"17鄰","STREET":"民權路","SECT":"三段","MAREA":" ","LANE":"４００巷","ALLEY":" ","HOUSE_NO":"１７號五樓","E_COORD97":166907.13,"N_COORD97":2544414.4700000002,"ADDRESS":"民權路三段４００巷１７號五樓","OBJECTID":293492},"geometry":{"x":166907.13000000175,"y":2544414.4700000007}},{"attributes":{"ID":293501,"DIS_CODE":0,"TOWNNAME":"中西區","LI":"藥王里","LIN":"17鄰","STREET":"民權路","SECT":"三段","MAREA":" ","LANE":"４００巷","ALLEY":" ","HOUSE_NO":"１７號六樓","E_COORD97":166907.13,"N_COORD97":2544414.4700000002,"ADDRESS":"民權路三段４００巷１７號六樓","OBJECTID":293493},"geometry":{"x":166907.13000000175,"y":2544414.4700000007}},{"attributes":{"ID":293502,"DIS_CODE":0,"TOWNNAME":"中西區","LI":"藥王里","LIN":"17鄰","STREET":"民權路","SECT":"三段","MAREA":" ","LANE":"４００巷","ALLEY":" ","HOUSE_NO":"１７號四樓","E_COORD97":166907.13,"N_COORD97":2544414.4700000002,"ADDRESS":"民權路三段４００巷１７號四樓","OBJECTID":293494},"geometry":{"x":166907.13000000175,"y":2544414.4700000007}},{"attributes":{"ID":293503,"DIS_CODE":0,"TOWNNAME":"中西區","LI":"藥王里","LIN":"17鄰","STREET":"民權路","SECT":"三段","MAREA":" ","LANE":"４００巷","ALLEY":" ","HOUSE_NO":"１９號九樓","E_COORD97":166907.64999999999,"N_COORD97":2544421.5699999998,"ADDRESS":"民權路三段４００巷１９號九樓","OBJECTID":293495},"geometry":{"x":166907.6500000013,"y":2544421.5700000022}},{"attributes":{"ID":293504,"DIS_CODE":0,"TOWNNAME":"中西區","LI":"藥王里","LIN":"17鄰","STREET":"民權路","SECT":"三段","MAREA":" ","LANE":"４００巷","ALLEY":" ","HOUSE_NO":"１９號二樓","E_COORD97":166907.64999999999,"N_COORD97":2544421.5699999998,"ADDRESS":"民權路三段４００巷１９號二樓","OBJECTID":293496},"geometry":{"x":166907.6500000013,"y":2544421.5700000022}},{"attributes":{"ID":293505,"DIS_CODE":0,"TOWNNAME":"麻豆區","LI":"大埕里","LIN":"14鄰","STREET":"新興街","SECT":" ","MAREA":" ","LANE":" ","ALLEY":" ","HOUSE_NO":"３號之５","E_COORD97":172894.54000000001,"N_COORD97":2565208.5600000001,"ADDRESS":"新興街３號之５","OBJECTID":293497},"geometry":{"x":172894.54000000004,"y":2565208.5600000024}},{"attributes":{"ID":293506,"DIS_CODE":0,"TOWNNAME":"麻豆區","LI":"大埕里","LIN":"14鄰","STREET":"新興街","SECT":" ","MAREA":" ","LANE":" ","ALLEY":" ","HOUSE_NO":"３號之６","E_COORD97":172887.64000000001,"N_COORD97":2565208.2799999998,"ADDRESS":"新興街３號之６","OBJECTID":293498},"geometry":{"x":172887.6400000006,"y":2565208.2800000031}},{"attributes":{"ID":293507,"DIS_CODE":0,"TOWNNAME":"麻豆區","LI":"大埕里","LIN":"14鄰","STREET":"新興街","SECT":" ","MAREA":" ","LANE":" ","ALLEY":" ","HOUSE_NO":"３號之７","E_COORD97":172888.84,"N_COORD97":2565194.7000000002,"ADDRESS":"新興街３號之７","OBJECTID":293499},"geometry":{"x":172888.83999999985,"y":2565194.6999999993}},{"attributes":{"ID":293508,"DIS_CODE":0,"TOWNNAME":"麻豆區","LI":"大埕里","LIN":"14鄰","STREET":"新興街","SECT":" ","MAREA":" ","LANE":" ","ALLEY":" ","HOUSE_NO":"３號之８","E_COORD97":172896.01000000001,"N_COORD97":2565194.77,"ADDRESS":"新興街３號之８","OBJECTID":293500},"geometry":{"x":172896.00999999978,"y":2565194.7700000033}},{"attributes":{"ID":293509,"DIS_CODE":0,"TOWNNAME":"永康區","LI":"正強里","LIN":"33鄰","STREET":"四維街","SECT":" ","MAREA":" ","LANE":"７９巷","ALLEY":" ","HOUSE_NO":"７號","E_COORD97":173340.04999999999,"N_COORD97":2548083,"ADDRESS":"四維街７９巷７號","OBJECTID":293501},"geometry":{"x":173340.04999999981,"y":2548083.0000000019}},{"attributes":{"ID":293510,"DIS_CODE":0,"TOWNNAME":"佳里區","LI":"嘉福里","LIN":"11鄰","STREET":" ","SECT":" ","MAREA":"下營","LANE":" ","ALLEY":" ","HOUSE_NO":"１１０號之２","E_COORD97":163030.63,"N_COORD97":2563358.8300000001,"ADDRESS":"下營１１０號之２","OBJECTID":293502},"geometry":{"x":163030.63000000082,"y":2563358.8300000019}},{"attributes":{"ID":293511,"DIS_CODE":0,"TOWNNAME":"永康區","LI":"正強里","LIN":"33鄰","STREET":"四維街","SECT":" ","MAREA":" ","LANE":"７９巷","ALLEY":" ","HOUSE_NO":"９號","E_COORD97":173334.16,"N_COORD97":2548081.23,"ADDRESS":"四維街７９巷９號","OBJECTID":293503},"geometry":{"x":173334.16000000108,"y":2548081.2299999986}},{"attributes":{"ID":293512,"DIS_CODE":0,"TOWNNAME":"永康區","LI":"正強里","LIN":"33鄰","STREET":"四維街","SECT":" ","MAREA":" ","LANE":"７９巷","ALLEY":" ","HOUSE_NO":"１１號","E_COORD97":173327.98999999999,"N_COORD97":2548077.2999999998,"ADDRESS":"四維街７９巷１１號","OBJECTID":293504},"geometry":{"x":173327.99000000209,"y":2548077.3000000007}},{"attributes":{"ID":293513,"DIS_CODE":0,"TOWNNAME":"中西區","LI":"藥王里","LIN":"17鄰","STREET":"民權路","SECT":"三段","MAREA":" ","LANE":"４００巷","ALLEY":" ","HOUSE_NO":"１９號八樓","E_COORD97":166907.64999999999,"N_COORD97":2544421.5699999998,"ADDRESS":"民權路三段４００巷１９號八樓","OBJECTID":293505},"geometry":{"x":166907.6500000013,"y":2544421.5700000022}},{"attributes":{"ID":293514,"DIS_CODE":0,"TOWNNAME":"中西區","LI":"藥王里","LIN":"17鄰","STREET":"民權路","SECT":"三段","MAREA":" ","LANE":"４００巷","ALLEY":" ","HOUSE_NO":"１９號三樓","E_COORD97":166907.64999999999,"N_COORD97":2544421.5699999998,"ADDRESS":"民權路三段４００巷１９號三樓","OBJECTID":293506},"geometry":{"x":166907.6500000013,"y":2544421.5700000022}},{"attributes":{"ID":293515,"DIS_CODE":0,"TOWNNAME":"中西區","LI":"藥王里","LIN":"17鄰","STREET":"民權路","SECT":"三段","MAREA":" ","LANE":"４００巷","ALLEY":" ","HOUSE_NO":"１９號五樓","E_COORD97":166907.64999999999,"N_COORD97":2544421.5699999998,"ADDRESS":"民權路三段４００巷１９號五樓","OBJECTID":293507},"geometry":{"x":166907.6500000013,"y":2544421.5700000022}},{"attributes":{"ID":293516,"DIS_CODE":0,"TOWNNAME":"麻豆區","LI":"大埕里","LIN":"14鄰","STREET":"新興街","SECT":" ","MAREA":" ","LANE":" ","ALLEY":" ","HOUSE_NO":"３號之９","E_COORD97":172903.06,"N_COORD97":2565195.4100000001,"ADDRESS":"新興街３號之９","OBJECTID":293508},"geometry":{"x":172903.06000000145,"y":2565195.410000002}},{"attributes":{"ID":293517,"DIS_CODE":0,"TOWNNAME":"麻豆區","LI":"大埕里","LIN":"14鄰","STREET":"新興街","SECT":" ","MAREA":" ","LANE":" ","ALLEY":" ","HOUSE_NO":"３號","E_COORD97":172903.82999999999,"N_COORD97":2565222.3799999999,"ADDRESS":"新興街３號","OBJECTID":293509},"geometry":{"x":172903.83000000101,"y":2565222.379999999}},{"attributes":{"ID":293518,"DIS_CODE":0,"TOWNNAME":"麻豆區","LI":"大埕里","LIN":"14鄰","STREET":"新興街","SECT":" ","MAREA":" ","LANE":" ","ALLEY":" ","HOUSE_NO":"４號之１","E_COORD97":172917.84,"N_COORD97":2565180.8599999999,"ADDRESS":"新興街４號之１","OBJECTID":293510},"geometry":{"x":172917.83999999985,"y":2565180.8600000013}},{"attributes":{"ID":293519,"DIS_CODE":0,"TOWNNAME":"仁德區","LI":"太子里","LIN":"15鄰","STREET":"太子北路","SECT":" ","MAREA":" ","LANE":" ","ALLEY":" ","HOUSE_NO":"９０號","E_COORD97":174108.235728,"N_COORD97":2543673.2567099999,"ADDRESS":"太子北路９０號","OBJECTID":293511},"geometry":{"x":174108.23572800122,"y":2543673.256711999}},{"attributes":{"ID":293520,"DIS_CODE":0,"TOWNNAME":"佳里區","LI":"建南里","LIN":"20鄰","STREET":"中山路","SECT":" ","MAREA":" ","LANE":" ","ALLEY":" ","HOUSE_NO":"６５號","E_COORD97":165787.12,"N_COORD97":2561754.5600000001,"ADDRESS":"中山路６５號","OBJECTID":293512},"geometry":{"x":165787.12000000104,"y":2561754.5600000005}},{"attributes":{"ID":293521,"DIS_CODE":0,"TOWNNAME":"玉井區","LI":"望明里","LIN":"8鄰","STREET":" ","SECT":" ","MAREA":"劉陳","LANE":" ","ALLEY":" ","HOUSE_NO":"１４９號","E_COORD97":193557.437557,"N_COORD97":2556320.55296,"ADDRESS":"劉陳１４９號","OBJECTID":293513},"geometry":{"x":193557.43755700067,"y":2556320.5529570002}},{"attributes":{"ID":293522,"DIS_CODE":0,"TOWNNAME":"佳里區","LI":"子龍里","LIN":"19鄰","STREET":" ","SECT":" ","MAREA":"子良廟","LANE":" ","ALLEY":" ","HOUSE_NO":"１９７號","E_COORD97":168837.70999999999,"N_COORD97":2563648.6499999999,"ADDRESS":"子良廟１９７號","OBJECTID":293514},"geometry":{"x":168837.71000000089,"y":2563648.6500000022}},{"attributes":{"ID":293523,"DIS_CODE":0,"TOWNNAME":"佳里區","LI":"子龍里","LIN":"4鄰","STREET":" ","SECT":" ","MAREA":"子良廟","LANE":" ","ALLEY":" ","HOUSE_NO":"９７號","E_COORD97":168933.01999999999,"N_COORD97":2563848.02,"ADDRESS":"子良廟９７號","OBJECTID":293515},"geometry":{"x":168933.01999999862,"y":2563848.0200000014}},{"attributes":{"ID":293524,"DIS_CODE":0,"TOWNNAME":"佳里區","LI":"子龍里","LIN":"8鄰","STREET":" ","SECT":" ","MAREA":"子良廟","LANE":" ","ALLEY":" ","HOUSE_NO":"８５號","E_COORD97":168879.51000000001,"N_COORD97":2563780.0699999998,"ADDRESS":"子良廟８５號","OBJECTID":293516},"geometry":{"x":168879.51000000071,"y":2563780.070000004}},{"attributes":{"ID":293525,"DIS_CODE":0,"TOWNNAME":"佳里區","LI":"子龍里","LIN":"8鄰","STREET":" ","SECT":" ","MAREA":"子良廟","LANE":" ","ALLEY":" ","HOUSE_NO":"８６號之１","E_COORD97":168899.07000000001,"N_COORD97":2563771.6200000001,"ADDRESS":"子良廟８６號之１","OBJECTID":293517},"geometry":{"x":168899.0700000003,"y":2563771.6200000029}},{"attributes":{"ID":293526,"DIS_CODE":0,"TOWNNAME":"佳里區","LI":"子龍里","LIN":"8鄰","STREET":" ","SECT":" ","MAREA":"子良廟","LANE":" ","ALLEY":" ","HOUSE_NO":"８６號","E_COORD97":168892.79000000001,"N_COORD97":2563762.1699999999,"ADDRESS":"子良廟８６號","OBJECTID":293518},"geometry":{"x":168892.7900000019,"y":2563762.1700000018}},{"attributes":{"ID":293527,"DIS_CODE":0,"TOWNNAME":"佳里區","LI":"子龍里","LIN":"8鄰","STREET":" ","SECT":" ","MAREA":"子良廟","LANE":" ","ALLEY":" ","HOUSE_NO":"８７號","E_COORD97":168894.51999999999,"N_COORD97":2563789.2999999998,"ADDRESS":"子良廟８７號","OBJECTID":293519},"geometry":{"x":168894.52000000048,"y":2563789.3000000026}},{"attributes":{"ID":293528,"DIS_CODE":0,"TOWNNAME":"佳里區","LI":"子龍里","LIN":"8鄰","STREET":" ","SECT":" ","MAREA":"子良廟","LANE":" ","ALLEY":" ","HOUSE_NO":"８８號","E_COORD97":168920.29000000001,"N_COORD97":2563789.02,"ADDRESS":"子良廟８８號","OBJECTID":293520},"geometry":{"x":168920.29000000097,"y":2563789.0199999996}},{"attributes":{"ID":293529,"DIS_CODE":0,"TOWNNAME":"佳里區","LI":"子龍里","LIN":"8鄰","STREET":" ","SECT":" ","MAREA":"子良廟","LANE":" ","ALLEY":" ","HOUSE_NO":"８９號之１","E_COORD97":168925.42999999999,"N_COORD97":2563815.1099999999,"ADDRESS":"子良廟８９號之１","OBJECTID":293521},"geometry":{"x":168925.43000000156,"y":2563815.1099999994}},{"attributes":{"ID":293530,"DIS_CODE":0,"TOWNNAME":"佳里區","LI":"子龍里","LIN":"8鄰","STREET":" ","SECT":" ","MAREA":"子良廟","LANE":" ","ALLEY":" ","HOUSE_NO":"８９號之２","E_COORD97":168907.42999999999,"N_COORD97":2563809.8999999999,"ADDRESS":"子良廟８９號之２","OBJECTID":293522},"geometry":{"x":168907.43000000063,"y":2563809.9000000004}},{"attributes":{"ID":293531,"DIS_CODE":0,"TOWNNAME":"佳里區","LI":"子龍里","LIN":"8鄰","STREET":" ","SECT":" ","MAREA":"子良廟","LANE":" ","ALLEY":" ","HOUSE_NO":"８９號","E_COORD97":168924.07000000001,"N_COORD97":2563798.0600000001,"ADDRESS":"子良廟８９號","OBJECTID":293523},"geometry":{"x":168924.07000000123,"y":2563798.0600000024}},{"attributes":{"ID":293532,"DIS_CODE":0,"TOWNNAME":"佳里區","LI":"子龍里","LIN":"8鄰","STREET":" ","SECT":" ","MAREA":"子良廟","LANE":" ","ALLEY":" ","HOUSE_NO":"９６號之１","E_COORD97":168911.62,"N_COORD97":2563837.3799999999,"ADDRESS":"子良廟９６號之１","OBJECTID":293524},"geometry":{"x":168911.62000000104,"y":2563837.3800000027}},{"attributes":{"ID":293533,"DIS_CODE":0,"TOWNNAME":"佳里區","LI":"子龍里","LIN":"8鄰","STREET":" ","SECT":" ","MAREA":"子良廟","LANE":" ","ALLEY":" ","HOUSE_NO":"９７號之１","E_COORD97":168938.32999999999,"N_COORD97":2563836.4199999999,"ADDRESS":"子良廟９７號之１","OBJECTID":293525},"geometry":{"x":168938.33000000194,"y":2563836.4199999999}},{"attributes":{"ID":293534,"DIS_CODE":0,"TOWNNAME":"佳里區","LI":"子龍里","LIN":"1鄰","STREET":" ","SECT":" ","MAREA":"子良廟","LANE":" ","ALLEY":" ","HOUSE_NO":"８號","E_COORD97":168728.59,"N_COORD97":2563955.5899999999,"ADDRESS":"子良廟８號","OBJECTID":293526},"geometry":{"x":168728.59000000078,"y":2563955.5900000036}},{"attributes":{"ID":293535,"DIS_CODE":0,"TOWNNAME":"佳里區","LI":"子龍里","LIN":"1鄰","STREET":" ","SECT":" ","MAREA":"子良廟","LANE":" ","ALLEY":" ","HOUSE_NO":"９號","E_COORD97":168767.60000000001,"N_COORD97":2563970.6299999999,"ADDRESS":"子良廟９號","OBJECTID":293527},"geometry":{"x":168767.59999999963,"y":2563970.629999999}},{"attributes":{"ID":293536,"DIS_CODE":0,"TOWNNAME":"仁德區","LI":"仁愛里","LIN":"2鄰","STREET":" ","SECT":" ","MAREA":"仁愛","LANE":" ","ALLEY":" ","HOUSE_NO":"２７之１號","E_COORD97":170336.38266100001,"N_COORD97":2540143.14628,"ADDRESS":"仁愛２７之１號","OBJECTID":293528},"geometry":{"x":170336.38266100176,"y":2540143.1462810021}},{"attributes":{"ID":293537,"DIS_CODE":0,"TOWNNAME":"中西區","LI":"藥王里","LIN":"17鄰","STREET":"民權路","SECT":"三段","MAREA":" ","LANE":"４００巷","ALLEY":" ","HOUSE_NO":"１９號六樓","E_COORD97":166907.64999999999,"N_COORD97":2544421.5699999998,"ADDRESS":"民權路三段４００巷１９號六樓","OBJECTID":293529},"geometry":{"x":166907.6500000013,"y":2544421.5700000022}},{"attributes":{"ID":293538,"DIS_CODE":0,"TOWNNAME":"中西區","LI":"藥王里","LIN":"17鄰","STREET":"民權路","SECT":"三段","MAREA":" ","LANE":"４００巷","ALLEY":" ","HOUSE_NO":"１９號四樓","E_COORD97":166907.64999999999,"N_COORD97":2544421.5699999998,"ADDRESS":"民權路三段４００巷１９號四樓","OBJECTID":293530},"geometry":{"x":166907.6500000013,"y":2544421.5700000022}},{"attributes":{"ID":293539,"DIS_CODE":0,"TOWNNAME":"中西區","LI":"藥王里","LIN":"17鄰","STREET":"民權路","SECT":"三段","MAREA":" ","LANE":"４００巷","ALLEY":" ","HOUSE_NO":"１號九樓","E_COORD97":166849.82999999999,"N_COORD97":2544428.1499999999,"ADDRESS":"民權路三段４００巷１號九樓","OBJECTID":293531},"geometry":{"x":166849.82999999914,"y":2544428.1500000022}},{"attributes":{"ID":293540,"DIS_CODE":0,"TOWNNAME":"中西區","LI":"藥王里","LIN":"17鄰","STREET":"民權路","SECT":"三段","MAREA":" ","LANE":"４００巷","ALLEY":" ","HOUSE_NO":"１號二樓","E_COORD97":166849.82999999999,"N_COORD97":2544428.1499999999,"ADDRESS":"民權路三段４００巷１號二樓","OBJECTID":293532},"geometry":{"x":166849.82999999914,"y":2544428.1500000022}},{"attributes":{"ID":293541,"DIS_CODE":0,"TOWNNAME":"中西區","LI":"藥王里","LIN":"17鄰","STREET":"民權路","SECT":"三段","MAREA":" ","LANE":"４００巷","ALLEY":" ","HOUSE_NO":"１號八樓","E_COORD97":166849.82999999999,"N_COORD97":2544428.1499999999,"ADDRESS":"民權路三段４００巷１號八樓","OBJECTID":293533},"geometry":{"x":166849.82999999914,"y":2544428.1500000022}},{"attributes":{"ID":293542,"DIS_CODE":0,"TOWNNAME":"中西區","LI":"藥王里","LIN":"17鄰","STREET":"民權路","SECT":"三段","MAREA":" ","LANE":"４００巷","ALLEY":" ","HOUSE_NO":"１號十樓","E_COORD97":166849.82999999999,"N_COORD97":2544428.1499999999,"ADDRESS":"民權路三段４００巷１號十樓","OBJECTID":293534},"geometry":{"x":166849.82999999914,"y":2544428.1500000022}},{"attributes":{"ID":293543,"DIS_CODE":0,"TOWNNAME":"中西區","LI":"藥王里","LIN":"17鄰","STREET":"民權路","SECT":"三段","MAREA":" ","LANE":"４００巷","ALLEY":" ","HOUSE_NO":"１號三樓","E_COORD97":166849.82999999999,"N_COORD97":2544428.1499999999,"ADDRESS":"民權路三段４００巷１號三樓","OBJECTID":293535},"geometry":{"x":166849.82999999914,"y":2544428.1500000022}},{"attributes":{"ID":293544,"DIS_CODE":0,"TOWNNAME":"中西區","LI":"藥王里","LIN":"17鄰","STREET":"民權路","SECT":"三段","MAREA":" ","LANE":"４００巷","ALLEY":" ","HOUSE_NO":"１號五樓","E_COORD97":166849.82999999999,"N_COORD97":2544428.1499999999,"ADDRESS":"民權路三段４００巷１號五樓","OBJECTID":293536},"geometry":{"x":166849.82999999914,"y":2544428.1500000022}},{"attributes":{"ID":293545,"DIS_CODE":0,"TOWNNAME":"中西區","LI":"藥王里","LIN":"17鄰","STREET":"民權路","SECT":"三段","MAREA":" ","LANE":"４００巷","ALLEY":" ","HOUSE_NO":"１號六樓","E_COORD97":166849.82999999999,"N_COORD97":2544428.1499999999,"ADDRESS":"民權路三段４００巷１號六樓","OBJECTID":293537},"geometry":{"x":166849.82999999914,"y":2544428.1500000022}},{"attributes":{"ID":293546,"DIS_CODE":0,"TOWNNAME":"中西區","LI":"藥王里","LIN":"17鄰","STREET":"民權路","SECT":"三段","MAREA":" ","LANE":"４００巷","ALLEY":" ","HOUSE_NO":"１號四樓","E_COORD97":166849.82999999999,"N_COORD97":2544428.1499999999,"ADDRESS":"民權路三段４００巷１號四樓","OBJECTID":293538},"geometry":{"x":166849.82999999914,"y":2544428.1500000022}},{"attributes":{"ID":293547,"DIS_CODE":0,"TOWNNAME":"中西區","LI":"藥王里","LIN":"17鄰","STREET":"民權路","SECT":"三段","MAREA":" ","LANE":"４００巷","ALLEY":" ","HOUSE_NO":"２１號九樓","E_COORD97":166910.01999999999,"N_COORD97":2544428.1499999999,"ADDRESS":"民權路三段４００巷２１號九樓","OBJECTID":293539},"geometry":{"x":166910.01999999955,"y":2544428.1500000022}},{"attributes":{"ID":293548,"DIS_CODE":0,"TOWNNAME":"中西區","LI":"藥王里","LIN":"17鄰","STREET":"民權路","SECT":"三段","MAREA":" ","LANE":"４００巷","ALLEY":" ","HOUSE_NO":"２１號二樓","E_COORD97":166910.01999999999,"N_COORD97":2544428.1499999999,"ADDRESS":"民權路三段４００巷２１號二樓","OBJECTID":293540},"geometry":{"x":166910.01999999955,"y":2544428.1500000022}},{"attributes":{"ID":293549,"DIS_CODE":0,"TOWNNAME":"中西區","LI":"藥王里","LIN":"17鄰","STREET":"民權路","SECT":"三段","MAREA":" ","LANE":"４００巷","ALLEY":" ","HOUSE_NO":"２１號八樓","E_COORD97":166910.01999999999,"N_COORD97":2544428.1499999999,"ADDRESS":"民權路三段４００巷２１號八樓","OBJECTID":293541},"geometry":{"x":166910.01999999955,"y":2544428.1500000022}},{"attributes":{"ID":293550,"DIS_CODE":0,"TOWNNAME":"中西區","LI":"藥王里","LIN":"17鄰","STREET":"民權路","SECT":"三段","MAREA":" ","LANE":"４００巷","ALLEY":" ","HOUSE_NO":"２１號十樓","E_COORD97":166910.01999999999,"N_COORD97":2544428.1499999999,"ADDRESS":"民權路三段４００巷２１號十樓","OBJECTID":293542},"geometry":{"x":166910.01999999955,"y":2544428.1500000022}},{"attributes":{"ID":293551,"DIS_CODE":0,"TOWNNAME":"中西區","LI":"藥王里","LIN":"17鄰","STREET":"民權路","SECT":"三段","MAREA":" ","LANE":"４００巷","ALLEY":" ","HOUSE_NO":"２１號三樓","E_COORD97":166910.01999999999,"N_COORD97":2544428.1499999999,"ADDRESS":"民權路三段４００巷２１號三樓","OBJECTID":293543},"geometry":{"x":166910.01999999955,"y":2544428.1500000022}},{"attributes":{"ID":293552,"DIS_CODE":0,"TOWNNAME":"中西區","LI":"藥王里","LIN":"17鄰","STREET":"民權路","SECT":"三段","MAREA":" ","LANE":"４００巷","ALLEY":" ","HOUSE_NO":"２１號五樓","E_COORD97":166910.01999999999,"N_COORD97":2544428.1499999999,"ADDRESS":"民權路三段４００巷２１號五樓","OBJECTID":293544},"geometry":{"x":166910.01999999955,"y":2544428.1500000022}},{"attributes":{"ID":293553,"DIS_CODE":0,"TOWNNAME":"中西區","LI":"藥王里","LIN":"17鄰","STREET":"民權路","SECT":"三段","MAREA":" ","LANE":"４００巷","ALLEY":" ","HOUSE_NO":"２１號六樓","E_COORD97":166910.01999999999,"N_COORD97":2544428.1499999999,"ADDRESS":"民權路三段４００巷２１號六樓","OBJECTID":293545},"geometry":{"x":166910.01999999955,"y":2544428.1500000022}},{"attributes":{"ID":293554,"DIS_CODE":0,"TOWNNAME":"中西區","LI":"藥王里","LIN":"17鄰","STREET":"民權路","SECT":"三段","MAREA":" ","LANE":"４００巷","ALLEY":" ","HOUSE_NO":"２１號四樓","E_COORD97":166910.01999999999,"N_COORD97":2544428.1499999999,"ADDRESS":"民權路三段４００巷２１號四樓","OBJECTID":293546},"geometry":{"x":166910.01999999955,"y":2544428.1500000022}},{"attributes":{"ID":293555,"DIS_CODE":0,"TOWNNAME":"新化區","LI":"知義里","LIN":" ","STREET":" ","SECT":" ","MAREA":"新和庄","LANE":" ","ALLEY":" ","HOUSE_NO":"２４１號","E_COORD97":181216.48999999999,"N_COORD97":2547058.25,"ADDRESS":"新和庄２４１號","OBJECTID":293547},"geometry":{"x":181216.49000000115,"y":2547058.2500000019}},{"attributes":{"ID":293556,"DIS_CODE":0,"TOWNNAME":"新化區","LI":"崙頂里","LIN":"7鄰","STREET":" ","SECT":" ","MAREA":"崙子頂","LANE":" ","ALLEY":" ","HOUSE_NO":"２９６號之２","E_COORD97":176828.17999999999,"N_COORD97":2547063.2599999998,"ADDRESS":"崙子頂２９６號之２","OBJECTID":293548},"geometry":{"x":176828.1799999997,"y":2547063.2599999979}},{"attributes":{"ID":293557,"DIS_CODE":0,"TOWNNAME":"新化區","LI":"礁坑里","LIN":"8鄰","STREET":" ","SECT":" ","MAREA":"三十六崙","LANE":" ","ALLEY":" ","HOUSE_NO":"４９號","E_COORD97":185127.92000000001,"N_COORD97":2549011.25,"ADDRESS":"三十六崙４９號","OBJECTID":293549},"geometry":{"x":185127.91999999993,"y":2549011.2500000019}},{"attributes":{"ID":293558,"DIS_CODE":0,"TOWNNAME":"新化區","LI":"豐榮里","LIN":"8鄰","STREET":" ","SECT":" ","MAREA":"洋子","LANE":" ","ALLEY":" ","HOUSE_NO":"２２號之１","E_COORD97":178140.23000000001,"N_COORD97":2548292.2599999998,"ADDRESS":"洋子２２之１號","OBJECTID":293550},"geometry":{"x":178140.23000000045,"y":2548292.2600000016}},{"attributes":{"ID":293559,"DIS_CODE":0,"TOWNNAME":"中西區","LI":"藥王里","LIN":"17鄰","STREET":"民權路","SECT":"三段","MAREA":" ","LANE":"４００巷","ALLEY":" ","HOUSE_NO":"２３號七樓","E_COORD97":166916.34,"N_COORD97":2544436.2999999998,"ADDRESS":"民權路三段４００巷２３號七樓","OBJECTID":293551},"geometry":{"x":166916.34000000078,"y":2544436.3000000007}},{"attributes":{"ID":293560,"DIS_CODE":0,"TOWNNAME":"中西區","LI":"藥王里","LIN":"17鄰","STREET":"民權路","SECT":"三段","MAREA":" ","LANE":"４００巷","ALLEY":" ","HOUSE_NO":"２３號九樓","E_COORD97":166916.34,"N_COORD97":2544436.2999999998,"ADDRESS":"民權路三段４００巷２３號九樓","OBJECTID":293552},"geometry":{"x":166916.34000000078,"y":2544436.3000000007}},{"attributes":{"ID":293561,"DIS_CODE":0,"TOWNNAME":"中西區","LI":"藥王里","LIN":"17鄰","STREET":"民權路","SECT":"三段","MAREA":" ","LANE":"４００巷","ALLEY":" ","HOUSE_NO":"２３號二樓","E_COORD97":166916.34,"N_COORD97":2544436.2999999998,"ADDRESS":"民權路三段４００巷２３號二樓","OBJECTID":293553},"geometry":{"x":166916.34000000078,"y":2544436.3000000007}},{"attributes":{"ID":293562,"DIS_CODE":0,"TOWNNAME":"中西區","LI":"藥王里","LIN":"17鄰","STREET":"民權路","SECT":"三段","MAREA":" ","LANE":"４００巷","ALLEY":" ","HOUSE_NO":"２３號八樓","E_COORD97":166916.34,"N_COORD97":2544436.2999999998,"ADDRESS":"民權路三段４００巷２３號八樓","OBJECTID":293554},"geometry":{"x":166916.34000000078,"y":2544436.3000000007}},{"attributes":{"ID":293563,"DIS_CODE":0,"TOWNNAME":"中西區","LI":"藥王里","LIN":"17鄰","STREET":"民權路","SECT":"三段","MAREA":" ","LANE":"４００巷","ALLEY":" ","HOUSE_NO":"２３號十樓","E_COORD97":166916.34,"N_COORD97":2544436.2999999998,"ADDRESS":"民權路三段４００巷２３號十樓","OBJECTID":293555},"geometry":{"x":166916.34000000078,"y":2544436.3000000007}},{"attributes":{"ID":293564,"DIS_CODE":0,"TOWNNAME":"中西區","LI":"藥王里","LIN":"17鄰","STREET":"民權路","SECT":"三段","MAREA":" ","LANE":"４００巷","ALLEY":" ","HOUSE_NO":"２３號三樓","E_COORD97":166916.34,"N_COORD97":2544436.2999999998,"ADDRESS":"民權路三段４００巷２３號三樓","OBJECTID":293556},"geometry":{"x":166916.34000000078,"y":2544436.3000000007}},{"attributes":{"ID":293565,"DIS_CODE":0,"TOWNNAME":"中西區","LI":"藥王里","LIN":"17鄰","STREET":"民權路","SECT":"三段","MAREA":" ","LANE":"４００巷","ALLEY":" ","HOUSE_NO":"２３號五樓","E_COORD97":166916.34,"N_COORD97":2544436.2999999998,"ADDRESS":"民權路三段４００巷２３號五樓","OBJECTID":293557},"geometry":{"x":166916.34000000078,"y":2544436.3000000007}},{"attributes":{"ID":293566,"DIS_CODE":0,"TOWNNAME":"中西區","LI":"藥王里","LIN":"17鄰","STREET":"民權路","SECT":"三段","MAREA":" ","LANE":"４００巷","ALLEY":" ","HOUSE_NO":"２３號六樓","E_COORD97":166916.34,"N_COORD97":2544436.2999999998,"ADDRESS":"民權路三段４００巷２３號六樓","OBJECTID":293558},"geometry":{"x":166916.34000000078,"y":2544436.3000000007}},{"attributes":{"ID":293567,"DIS_CODE":0,"TOWNNAME":"中西區","LI":"藥王里","LIN":"17鄰","STREET":"民權路","SECT":"三段","MAREA":" ","LANE":"４００巷","ALLEY":" ","HOUSE_NO":"２３號四樓","E_COORD97":166916.34,"N_COORD97":2544436.2999999998,"ADDRESS":"民權路三段４００巷２３號四樓","OBJECTID":293559},"geometry":{"x":166916.34000000078,"y":2544436.3000000007}},{"attributes":{"ID":293568,"DIS_CODE":0,"TOWNNAME":"中西區","LI":"藥王里","LIN":"17鄰","STREET":"民權路","SECT":"三段","MAREA":" ","LANE":"４００巷","ALLEY":" ","HOUSE_NO":"２５號七樓","E_COORD97":166916.87,"N_COORD97":2544442.6200000001,"ADDRESS":"民權路三段４００巷２５號七樓","OBJECTID":293560},"geometry":{"x":166916.87000000011,"y":2544442.6200000029}},{"attributes":{"ID":293569,"DIS_CODE":0,"TOWNNAME":"中西區","LI":"藥王里","LIN":"17鄰","STREET":"民權路","SECT":"三段","MAREA":" ","LANE":"４００巷","ALLEY":" ","HOUSE_NO":"２５號九樓","E_COORD97":166916.87,"N_COORD97":2544442.6200000001,"ADDRESS":"民權路三段４００巷２５號九樓","OBJECTID":293561},"geometry":{"x":166916.87000000011,"y":2544442.6200000029}},{"attributes":{"ID":293570,"DIS_CODE":0,"TOWNNAME":"中西區","LI":"藥王里","LIN":"17鄰","STREET":"民權路","SECT":"三段","MAREA":" ","LANE":"４００巷","ALLEY":" ","HOUSE_NO":"２５號二樓","E_COORD97":166916.87,"N_COORD97":2544442.6200000001,"ADDRESS":"民權路三段４００巷２５號二樓","OBJECTID":293562},"geometry":{"x":166916.87000000011,"y":2544442.6200000029}},{"attributes":{"ID":293571,"DIS_CODE":0,"TOWNNAME":"新化區","LI":"知義里","LIN":" ","STREET":" ","SECT":" ","MAREA":"新和庄","LANE":" ","ALLEY":" ","HOUSE_NO":"８號之１９","E_COORD97":181237.48000000001,"N_COORD97":2547009.2599999998,"ADDRESS":"新和庄８號之１９","OBJECTID":293563},"geometry":{"x":181237.48000000045,"y":2547009.2600000035}},{"attributes":{"ID":293572,"DIS_CODE":0,"TOWNNAME":"新化區","LI":"北勢里","LIN":" ","STREET":" ","SECT":" ","MAREA":"北勢","LANE":" ","ALLEY":" ","HOUSE_NO":"１７６號之１","E_COORD97":177450.81,"N_COORD97":2549387.2599999998,"ADDRESS":"北勢１７６號之１","OBJECTID":293564},"geometry":{"x":177450.80999999959,"y":2549387.2600000016}},{"attributes":{"ID":293573,"DIS_CODE":0,"TOWNNAME":"新化區","LI":"\u25A0拔里","LIN":"4鄰","STREET":" ","SECT":" ","MAREA":"\u25A0拔林","LANE":" ","ALLEY":" ","HOUSE_NO":"２２２號之１４","E_COORD97":183701.10999999999,"N_COORD97":2551951.2599999998,"ADDRESS":"\u25A0拔林２２２號之１４","OBJECTID":293565},"geometry":{"x":183701.11000000034,"y":2551951.2599999998}},{"attributes":{"ID":293574,"DIS_CODE":0,"TOWNNAME":"新化區","LI":"北勢里","LIN":"4鄰","STREET":" ","SECT":" ","MAREA":"北勢","LANE":" ","ALLEY":" ","HOUSE_NO":"４７號","E_COORD97":177285.73000000001,"N_COORD97":2549595.2599999998,"ADDRESS":"北勢４７號","OBJECTID":293566},"geometry":{"x":177285.73000000045,"y":2549595.2599999998}},{"attributes":{"ID":293575,"DIS_CODE":0,"TOWNNAME":"安南區","LI":"公\u25A0里","LIN":"8鄰","STREET":"台江大道","SECT":"三段","MAREA":" ","LANE":" ","ALLEY":" ","HOUSE_NO":"６００號","E_COORD97":163943.53346899999,"N_COORD97":2550694.1164299999,"ADDRESS":" 台江大道三段６００號","OBJECTID":293567},"geometry":{"x":163943.5334689999,"y":2550694.1164270006}},{"attributes":{"ID":293576,"DIS_CODE":0,"TOWNNAME":"新化區","LI":"知義里","LIN":" ","STREET":" ","SECT":" ","MAREA":"新和庄","LANE":" ","ALLEY":" ","HOUSE_NO":"２４７號","E_COORD97":181231.98999999999,"N_COORD97":2547040.25,"ADDRESS":"新和庄２４７號","OBJECTID":293568},"geometry":{"x":181231.99000000022,"y":2547040.2500000037}},{"attributes":{"ID":293577,"DIS_CODE":0,"TOWNNAME":"新化區","LI":"\u25A0拔里","LIN":" ","STREET":" ","SECT":" ","MAREA":"牧場","LANE":" ","ALLEY":" ","HOUSE_NO":"１１１號","E_COORD97":181827.28,"N_COORD97":2551073.2400000002,"ADDRESS":"牧場１１１號","OBJECTID":293569},"geometry":{"x":181827.28000000026,"y":2551073.2400000002}},{"attributes":{"ID":293578,"DIS_CODE":0,"TOWNNAME":"新化區","LI":"知義里","LIN":"13鄰","STREET":" ","SECT":" ","MAREA":"口埤","LANE":" ","ALLEY":" ","HOUSE_NO":"５５號之１","E_COORD97":183735.42999999999,"N_COORD97":2546683.2599999998,"ADDRESS":"口埤５５號之１","OBJECTID":293570},"geometry":{"x":183735.43000000063,"y":2546683.2599999998}},{"attributes":{"ID":293579,"DIS_CODE":0,"TOWNNAME":"新化區","LI":"\u25A0拔里","LIN":"4鄰","STREET":" ","SECT":" ","MAREA":"\u25A0拔林","LANE":" ","ALLEY":" ","HOUSE_NO":"１９０號","E_COORD97":183823.22,"N_COORD97":2551883.25,"ADDRESS":"\u25A0拔林１９０號","OBJECTID":293571},"geometry":{"x":183823.22000000067,"y":2551883.25}},{"attributes":{"ID":293580,"DIS_CODE":0,"TOWNNAME":"中西區","LI":"藥王里","LIN":"17鄰","STREET":"民權路","SECT":"三段","MAREA":" ","LANE":"４００巷","ALLEY":" ","HOUSE_NO":"２５號八樓","E_COORD97":166916.87,"N_COORD97":2544442.6200000001,"ADDRESS":"民權路三段４００巷２５號八樓","OBJECTID":293572},"geometry":{"x":166916.87000000011,"y":2544442.6200000029}},{"attributes":{"ID":293581,"DIS_CODE":0,"TOWNNAME":"新化區","LI":"礁坑里","LIN":"8鄰","STREET":" ","SECT":" ","MAREA":"三十六崙","LANE":" ","ALLEY":" ","HOUSE_NO":"５５號","E_COORD97":185130.82000000001,"N_COORD97":2549058.25,"ADDRESS":"三十六崙５５號","OBJECTID":293573},"geometry":{"x":185130.8200000003,"y":2549058.2500000019}},{"attributes":{"ID":293582,"DIS_CODE":0,"TOWNNAME":"新化區","LI":"北勢里","LIN":"4鄰","STREET":" ","SECT":" ","MAREA":"北勢","LANE":" ","ALLEY":" ","HOUSE_NO":"５６號","E_COORD97":177360.42999999999,"N_COORD97":2549564.2599999998,"ADDRESS":"北勢５６號","OBJECTID":293574},"geometry":{"x":177360.4299999997,"y":2549564.2599999998}},{"attributes":{"ID":293583,"DIS_CODE":0,"TOWNNAME":"新化區","LI":"\u25A0拔里","LIN":"4鄰","STREET":" ","SECT":" ","MAREA":"\u25A0拔林","LANE":" ","ALLEY":" ","HOUSE_NO":"２２２號之１０","E_COORD97":183679.91,"N_COORD97":2551962.2599999998,"ADDRESS":"\u25A0拔林２２２號之１０","OBJECTID":293575},"geometry":{"x":183679.91000000108,"y":2551962.2599999979}},{"attributes":{"ID":293584,"DIS_CODE":0,"TOWNNAME":"新化區","LI":"知義里","LIN":" ","STREET":" ","SECT":" ","MAREA":"新和庄","LANE":" ","ALLEY":" ","HOUSE_NO":"２４４號","E_COORD97":181223.89000000001,"N_COORD97":2547049.25,"ADDRESS":"新和庄２４４號","OBJECTID":293576},"geometry":{"x":181223.88999999966,"y":2547049.25}},{"attributes":{"ID":293585,"DIS_CODE":0,"TOWNNAME":"新化區","LI":"知義里","LIN":" ","STREET":" ","SECT":" ","MAREA":"新和庄","LANE":" ","ALLEY":" ","HOUSE_NO":"８號之５","E_COORD97":181201.25,"N_COORD97":2547051.2599999998,"ADDRESS":"新和庄８號之５","OBJECTID":293577},"geometry":{"x":181201.25,"y":2547051.2600000016}},{"attributes":{"ID":293586,"DIS_CODE":0,"TOWNNAME":"新化區","LI":"知義里","LIN":" ","STREET":" ","SECT":" ","MAREA":"新和庄","LANE":" ","ALLEY":" ","HOUSE_NO":"８號之１７","E_COORD97":181232.28,"N_COORD97":2547014.2599999998,"ADDRESS":"新和庄８號之１７","OBJECTID":293578},"geometry":{"x":181232.28000000026,"y":2547014.2599999998}},{"attributes":{"ID":293587,"DIS_CODE":0,"TOWNNAME":"中西區","LI":"藥王里","LIN":"17鄰","STREET":"民權路","SECT":"三段","MAREA":" ","LANE":"４００巷","ALLEY":" ","HOUSE_NO":"２５號十樓","E_COORD97":166916.87,"N_COORD97":2544442.6200000001,"ADDRESS":"民權路三段４００巷２５號十樓","OBJECTID":293579},"geometry":{"x":166916.87000000011,"y":2544442.6200000029}},{"attributes":{"ID":293588,"DIS_CODE":0,"TOWNNAME":"中西區","LI":"藥王里","LIN":"17鄰","STREET":"民權路","SECT":"三段","MAREA":" ","LANE":"４００巷","ALLEY":" ","HOUSE_NO":"２５號六樓","E_COORD97":166916.87,"N_COORD97":2544442.6200000001,"ADDRESS":"民權路三段４００巷２５號六樓","OBJECTID":293580},"geometry":{"x":166916.87000000011,"y":2544442.6200000029}},{"attributes":{"ID":293589,"DIS_CODE":0,"TOWNNAME":"新化區","LI":"\u25A0拔里","LIN":"4鄰","STREET":" ","SECT":" ","MAREA":"\u25A0拔林","LANE":" ","ALLEY":" ","HOUSE_NO":"１９０號之１","E_COORD97":183829.25,"N_COORD97":2551882.2599999998,"ADDRESS":"\u25A0拔林１９０號之１","OBJECTID":293581},"geometry":{"x":183829.25,"y":2551882.2600000016}},{"attributes":{"ID":293590,"DIS_CODE":0,"TOWNNAME":"新化區","LI":"知義里","LIN":" ","STREET":" ","SECT":" ","MAREA":"新和庄","LANE":" ","ALLEY":" ","HOUSE_NO":"１４５號之１７","E_COORD97":182001.28,"N_COORD97":2546568.2599999998,"ADDRESS":"新和庄１４５號之１７","OBJECTID":293582},"geometry":{"x":182001.28000000026,"y":2546568.2599999979}},{"attributes":{"ID":293591,"DIS_CODE":0,"TOWNNAME":"新化區","LI":"知義里","LIN":"13鄰","STREET":" ","SECT":" ","MAREA":"口埤","LANE":" ","ALLEY":" ","HOUSE_NO":"７７號","E_COORD97":183623.10000000001,"N_COORD97":2547075.25,"ADDRESS":"口埤７７號","OBJECTID":293583},"geometry":{"x":183623.0999999987,"y":2547075.2500000019}},{"attributes":{"ID":293592,"DIS_CODE":0,"TOWNNAME":"新化區","LI":"\u25A0拔里","LIN":"4鄰","STREET":" ","SECT":" ","MAREA":"\u25A0拔林","LANE":" ","ALLEY":" ","HOUSE_NO":"２２７號","E_COORD97":183715.51999999999,"N_COORD97":2551923.25,"ADDRESS":"\u25A0拔林２２７號","OBJECTID":293584},"geometry":{"x":183715.52000000048,"y":2551923.2500000019}},{"attributes":{"ID":293593,"DIS_CODE":0,"TOWNNAME":"新化區","LI":"知義里","LIN":" ","STREET":" ","SECT":" ","MAREA":"新和庄","LANE":" ","ALLEY":" ","HOUSE_NO":"８號之１６","E_COORD97":181229.98999999999,"N_COORD97":2547017.2599999998,"ADDRESS":"新和庄８號之１６","OBJECTID":293585},"geometry":{"x":181229.99000000115,"y":2547017.2600000016}},{"attributes":{"ID":293594,"DIS_CODE":0,"TOWNNAME":"新化區","LI":"\u25A0拔里","LIN":" ","STREET":" ","SECT":" ","MAREA":"牧場","LANE":" ","ALLEY":" ","HOUSE_NO":"２２號","E_COORD97":181649.23000000001,"N_COORD97":2551130.25,"ADDRESS":"牧場２２號","OBJECTID":293586},"geometry":{"x":181649.23000000045,"y":2551130.2500000019}},{"attributes":{"ID":293595,"DIS_CODE":0,"TOWNNAME":"新化區","LI":"礁坑里","LIN":"7鄰","STREET":" ","SECT":" ","MAREA":"三十六崙","LANE":" ","ALLEY":" ","HOUSE_NO":"４２號","E_COORD97":185038.32000000001,"N_COORD97":2549105.25,"ADDRESS":"三十六崙４２號","OBJECTID":293587},"geometry":{"x":185038.32000000123,"y":2549105.2500000019}},{"attributes":{"ID":293596,"DIS_CODE":0,"TOWNNAME":"新化區","LI":"東榮里","LIN":"12鄰","STREET":"中興路","SECT":" ","MAREA":" ","LANE":"５３４巷","ALLEY":" ","HOUSE_NO":"２號之１","E_COORD97":179970.14000000001,"N_COORD97":2547947.2599999998,"ADDRESS":"中興路５３４巷２號之１","OBJECTID":293588},"geometry":{"x":179970.1400000006,"y":2547947.2599999998}},{"attributes":{"ID":293597,"DIS_CODE":0,"TOWNNAME":"新化區","LI":"全興里","LIN":"7鄰","STREET":" ","SECT":" ","MAREA":"竹子\u25A0","LANE":" ","ALLEY":" ","HOUSE_NO":"９５號","E_COORD97":177579.17999999999,"N_COORD97":2547840.25,"ADDRESS":"竹子\u25A0９５號","OBJECTID":293589},"geometry":{"x":177579.1799999997,"y":2547840.2500000037}},{"attributes":{"ID":293598,"DIS_CODE":0,"TOWNNAME":"中西區","LI":"藥王里","LIN":"17鄰","STREET":"民權路","SECT":"三段","MAREA":" ","LANE":"４００巷","ALLEY":" ","HOUSE_NO":"２５號四樓","E_COORD97":166916.87,"N_COORD97":2544442.6200000001,"ADDRESS":"民權路三段４００巷２５號四樓","OBJECTID":293590},"geometry":{"x":166916.87000000011,"y":2544442.6200000029}},{"attributes":{"ID":293599,"DIS_CODE":0,"TOWNNAME":"中西區","LI":"藥王里","LIN":"17鄰","STREET":"民權路","SECT":"三段","MAREA":" ","LANE":"４００巷","ALLEY":" ","HOUSE_NO":"２７號七樓","E_COORD97":166918.17999999999,"N_COORD97":2544452.0899999999,"ADDRESS":"民權路三段４００巷２７號七樓","OBJECTID":293591},"geometry":{"x":166918.1799999997,"y":2544452.0900000017}},{"attributes":{"ID":293600,"DIS_CODE":0,"TOWNNAME":"新化區","LI":"崙頂里","LIN":"1鄰","STREET":" ","SECT":" ","MAREA":"崙子頂","LANE":" ","ALLEY":" ","HOUSE_NO":"２３號","E_COORD97":176982.67999999999,"N_COORD97":2546692.25,"ADDRESS":"崙子頂２３號","OBJECTID":293592},"geometry":{"x":176982.68000000156,"y":2546692.2500000019}},{"attributes":{"ID":293601,"DIS_CODE":0,"TOWNNAME":"中西區","LI":"藥王里","LIN":"17鄰","STREET":"民權路","SECT":"三段","MAREA":" ","LANE":"４００巷","ALLEY":" ","HOUSE_NO":"２７號九樓","E_COORD97":166918.17999999999,"N_COORD97":2544452.0899999999,"ADDRESS":"民權路三段４００巷２７號九樓","OBJECTID":293593},"geometry":{"x":166918.1799999997,"y":2544452.0900000017}},{"attributes":{"ID":293602,"DIS_CODE":0,"TOWNNAME":"中西區","LI":"藥王里","LIN":"17鄰","STREET":"民權路","SECT":"三段","MAREA":" ","LANE":"４００巷","ALLEY":" ","HOUSE_NO":"２７號二樓","E_COORD97":166918.17999999999,"N_COORD97":2544452.0899999999,"ADDRESS":"民權路三段４００巷２７號二樓","OBJECTID":293594},"geometry":{"x":166918.1799999997,"y":2544452.0900000017}},{"attributes":{"ID":293603,"DIS_CODE":0,"TOWNNAME":"中西區","LI":"藥王里","LIN":"17鄰","STREET":"民權路","SECT":"三段","MAREA":" ","LANE":"４００巷","ALLEY":" ","HOUSE_NO":"２７號八樓","E_COORD97":166918.17999999999,"N_COORD97":2544452.0899999999,"ADDRESS":"民權路三段４００巷２７號八樓","OBJECTID":293595},"geometry":{"x":166918.1799999997,"y":2544452.0900000017}},{"attributes":{"ID":293604,"DIS_CODE":0,"TOWNNAME":"中西區","LI":"藥王里","LIN":"17鄰","STREET":"民權路","SECT":"三段","MAREA":" ","LANE":"４００巷","ALLEY":" ","HOUSE_NO":"２７號十樓","E_COORD97":166918.17999999999,"N_COORD97":2544452.0899999999,"ADDRESS":"民權路三段４００巷２７號十樓","OBJECTID":293596},"geometry":{"x":166918.1799999997,"y":2544452.0900000017}},{"attributes":{"ID":293605,"DIS_CODE":0,"TOWNNAME":"中西區","LI":"藥王里","LIN":"17鄰","STREET":"民權路","SECT":"三段","MAREA":" ","LANE":"４００巷","ALLEY":" ","HOUSE_NO":"２７號三樓","E_COORD97":166918.17999999999,"N_COORD97":2544452.0899999999,"ADDRESS":"民權路三段４００巷２７號三樓","OBJECTID":293597},"geometry":{"x":166918.1799999997,"y":2544452.0900000017}},{"attributes":{"ID":293606,"DIS_CODE":0,"TOWNNAME":"中西區","LI":"藥王里","LIN":"17鄰","STREET":"民權路","SECT":"三段","MAREA":" ","LANE":"４００巷","ALLEY":" ","HOUSE_NO":"２７號五樓","E_COORD97":166918.17999999999,"N_COORD97":2544452.0899999999,"ADDRESS":"民權路三段４００巷２７號五樓","OBJECTID":293598},"geometry":{"x":166918.1799999997,"y":2544452.0900000017}},{"attributes":{"ID":293607,"DIS_CODE":0,"TOWNNAME":"中西區","LI":"藥王里","LIN":"17鄰","STREET":"民權路","SECT":"三段","MAREA":" ","LANE":"４００巷","ALLEY":" ","HOUSE_NO":"２７號六樓","E_COORD97":166918.17999999999,"N_COORD97":2544452.0899999999,"ADDRESS":"民權路三段４００巷２７號六樓","OBJECTID":293599},"geometry":{"x":166918.1799999997,"y":2544452.0900000017}},{"attributes":{"ID":293608,"DIS_CODE":0,"TOWNNAME":"麻豆區","LI":"大埕里","LIN":"14鄰","STREET":"新興街","SECT":" ","MAREA":" ","LANE":" ","ALLEY":" ","HOUSE_NO":"４號之２","E_COORD97":172751.01999999999,"N_COORD97":2565252.8799999999,"ADDRESS":"新興街４號之２","OBJECTID":293600},"geometry":{"x":172751.02000000048,"y":2565252.879999999}}]}