{"displayFieldName":"TOWNNAME","fieldAliases":{"ID":"ID","DIS_CODE":"DIS_CODE","TOWNNAME":"TOWNNAME","LI":"LI","LIN":"LIN","STREET":"STREET","SECT":"SECT","MAREA":"MAREA","LANE":"LANE","ALLEY":"ALLEY","HOUSE_NO":"HOUSE_NO","E_COORD97":"E_COORD97","N_COORD97":"N_COORD97","ADDRESS":"ADDRESS","OBJECTID":"OBJECTID"},"geometryType":"esriGeometryPoint","spatialReference":{"wkid":102443,"latestWkid":3826},"fields":[{"name":"ID","type":"esriFieldTypeDouble","alias":"ID"},{"name":"DIS_CODE","type":"esriFieldTypeInteger","alias":"DIS_CODE"},{"name":"TOWNNAME","type":"esriFieldTypeString","alias":"TOWNNAME","length":8},{"name":"LI","type":"esriFieldTypeString","alias":"LI","length":8},{"name":"LIN","type":"esriFieldTypeString","alias":"LIN","length":12},{"name":"STREET","type":"esriFieldTypeString","alias":"STREET","length":20},{"name":"SECT","type":"esriFieldTypeString","alias":"SECT","length":8},{"name":"MAREA","type":"esriFieldTypeString","alias":"MAREA","length":12},{"name":"LANE","type":"esriFieldTypeString","alias":"LANE","length":10},{"name":"ALLEY","type":"esriFieldTypeString","alias":"ALLEY","length":10},{"name":"HOUSE_NO","type":"esriFieldTypeString","alias":"HOUSE_NO","length":20},{"name":"E_COORD97","type":"esriFieldTypeDouble","alias":"E_COORD97"},{"name":"N_COORD97","type":"esriFieldTypeDouble","alias":"N_COORD97"},{"name":"ADDRESS","type":"esriFieldTypeString","alias":"ADDRESS","length":50},{"name":"OBJECTID","type":"esriFieldTypeOID","alias":"OBJECTID"}],"features":[{"attributes":{"ID":314809,"DIS_CODE":0,"TOWNNAME":"新化區","LI":"觀音里","LIN":"7鄰","STREET":"中正路","SECT":" ","MAREA":" ","LANE":"５４９巷","ALLEY":" ","HOUSE_NO":"１５號","E_COORD97":178928.26000000001,"N_COORD97":2548603.25,"ADDRESS":"中正路５４９巷１５號","OBJECTID":314801},"geometry":{"x":178928.26000000164,"y":2548603.2500000019}},{"attributes":{"ID":314810,"DIS_CODE":0,"TOWNNAME":"新化區","LI":"清水里","LIN":"7鄰","STREET":"忠孝路","SECT":" ","MAREA":" ","LANE":"１６１巷","ALLEY":" ","HOUSE_NO":"７號","E_COORD97":178646.72,"N_COORD97":2548606.25,"ADDRESS":"忠孝路１６１巷７號","OBJECTID":314802},"geometry":{"x":178646.71999999974,"y":2548606.2500000037}},{"attributes":{"ID":314811,"DIS_CODE":0,"TOWNNAME":"新化區","LI":"豐榮里","LIN":"7鄰","STREET":"大智路","SECT":" ","MAREA":" ","LANE":"２３９巷","ALLEY":" ","HOUSE_NO":"７１號","E_COORD97":178098.82000000001,"N_COORD97":2547949.1099999999,"ADDRESS":"大智路２３９巷７１號","OBJECTID":314803},"geometry":{"x":178098.8200000003,"y":2547949.1100000031}},{"attributes":{"ID":314812,"DIS_CODE":0,"TOWNNAME":"安平區","LI":"石門里","LIN":"7鄰","STREET":"安北路","SECT":" ","MAREA":" ","LANE":"４０巷","ALLEY":" ","HOUSE_NO":"２７號","E_COORD97":164642.70000000001,"N_COORD97":2544669.5800000001,"ADDRESS":"安北路４０巷２７號","OBJECTID":314804},"geometry":{"x":164642.70000000112,"y":2544669.5800000019}},{"attributes":{"ID":314813,"DIS_CODE":0,"TOWNNAME":"安平區","LI":"石門里","LIN":"7鄰","STREET":"安北路","SECT":" ","MAREA":" ","LANE":"４０巷","ALLEY":" ","HOUSE_NO":"２９號","E_COORD97":164638.76999999999,"N_COORD97":2544671.96,"ADDRESS":"安北路４０巷２９號","OBJECTID":314805},"geometry":{"x":164638.76999999955,"y":2544671.9600000009}},{"attributes":{"ID":314814,"DIS_CODE":0,"TOWNNAME":"安平區","LI":"石門里","LIN":"7鄰","STREET":"安北路","SECT":" ","MAREA":" ","LANE":"４０巷","ALLEY":" ","HOUSE_NO":"３１號","E_COORD97":164635.73999999999,"N_COORD97":2544677.7599999998,"ADDRESS":"安北路４０巷３１號","OBJECTID":314806},"geometry":{"x":164635.74000000115,"y":2544677.7600000016}},{"attributes":{"ID":314815,"DIS_CODE":0,"TOWNNAME":"學甲區","LI":"仁得里","LIN":"17鄰","STREET":"信義路","SECT":" ","MAREA":" ","LANE":" ","ALLEY":" ","HOUSE_NO":"１０號之１８","E_COORD97":165663.16,"N_COORD97":2569865.52,"ADDRESS":"信義路１０號之１８","OBJECTID":314807},"geometry":{"x":165663.16000000108,"y":2569865.5200000014}},{"attributes":{"ID":314816,"DIS_CODE":0,"TOWNNAME":"學甲區","LI":"仁得里","LIN":"17鄰","STREET":"信義路","SECT":" ","MAREA":" ","LANE":" ","ALLEY":" ","HOUSE_NO":"１０號之１９","E_COORD97":165658.16,"N_COORD97":2569856.2000000002,"ADDRESS":"信義路１０號之１９","OBJECTID":314808},"geometry":{"x":165658.16000000108,"y":2569856.1999999993}},{"attributes":{"ID":314817,"DIS_CODE":0,"TOWNNAME":"學甲區","LI":"仁得里","LIN":"17鄰","STREET":"信義路","SECT":" ","MAREA":" ","LANE":" ","ALLEY":" ","HOUSE_NO":"１０號之１","E_COORD97":165605.38,"N_COORD97":2569686.6499999999,"ADDRESS":"信義路１０號之１","OBJECTID":314809},"geometry":{"x":165605.38000000082,"y":2569686.6500000022}},{"attributes":{"ID":314818,"DIS_CODE":0,"TOWNNAME":"學甲區","LI":"仁得里","LIN":"17鄰","STREET":"信義路","SECT":" ","MAREA":" ","LANE":" ","ALLEY":" ","HOUSE_NO":"１０號之２０","E_COORD97":165665.94,"N_COORD97":2569872.52,"ADDRESS":"信義路１０號之２０","OBJECTID":314810},"geometry":{"x":165665.94000000041,"y":2569872.5200000014}},{"attributes":{"ID":314819,"DIS_CODE":0,"TOWNNAME":"關廟區","LI":"關廟里","LIN":"14鄰","STREET":"民生街","SECT":" ","MAREA":" ","LANE":"１１５巷","ALLEY":" ","HOUSE_NO":"３號","E_COORD97":180825.09,"N_COORD97":2539746.29,"ADDRESS":"民生街１１５巷３號","OBJECTID":314811},"geometry":{"x":180825.09000000078,"y":2539746.2900000028}},{"attributes":{"ID":314820,"DIS_CODE":0,"TOWNNAME":"關廟區","LI":"松腳里","LIN":"17鄰","STREET":"民族街","SECT":" ","MAREA":" ","LANE":"１９巷","ALLEY":" ","HOUSE_NO":"１號","E_COORD97":181577.64000000001,"N_COORD97":2539775.29,"ADDRESS":"民族街１９巷１號","OBJECTID":314812},"geometry":{"x":181577.6400000006,"y":2539775.2899999991}},{"attributes":{"ID":314821,"DIS_CODE":0,"TOWNNAME":"安平區","LI":"石門里","LIN":"7鄰","STREET":"安北路","SECT":" ","MAREA":" ","LANE":"４０巷","ALLEY":" ","HOUSE_NO":"３３號","E_COORD97":164630.87,"N_COORD97":2544680.8900000001,"ADDRESS":"安北路４０巷３３號","OBJECTID":314813},"geometry":{"x":164630.87000000104,"y":2544680.8900000025}},{"attributes":{"ID":314822,"DIS_CODE":0,"TOWNNAME":"安平區","LI":"石門里","LIN":"7鄰","STREET":"安北路","SECT":" ","MAREA":" ","LANE":"４０巷","ALLEY":" ","HOUSE_NO":"３５號","E_COORD97":164625.88,"N_COORD97":2544685.1600000001,"ADDRESS":"安北路４０巷３５號","OBJECTID":314814},"geometry":{"x":164625.88000000082,"y":2544685.160000002}},{"attributes":{"ID":314823,"DIS_CODE":0,"TOWNNAME":"安平區","LI":"石門里","LIN":"7鄰","STREET":"安北路","SECT":" ","MAREA":" ","LANE":"４０巷","ALLEY":" ","HOUSE_NO":"３７號","E_COORD97":164658.42999999999,"N_COORD97":2544678.27,"ADDRESS":"安北路４０巷３７號","OBJECTID":314815},"geometry":{"x":164658.4299999997,"y":2544678.2699999996}},{"attributes":{"ID":314824,"DIS_CODE":0,"TOWNNAME":"安平區","LI":"石門里","LIN":"7鄰","STREET":"安北路","SECT":" ","MAREA":" ","LANE":"４０巷","ALLEY":" ","HOUSE_NO":"３９號","E_COORD97":164650.66,"N_COORD97":2544681.5800000001,"ADDRESS":"安北路４０巷３９號","OBJECTID":314816},"geometry":{"x":164650.65999999922,"y":2544681.5800000038}},{"attributes":{"ID":314825,"DIS_CODE":0,"TOWNNAME":"安平區","LI":"億載里","LIN":"7鄰","STREET":"郡平路","SECT":" ","MAREA":" ","LANE":"４６０巷","ALLEY":" ","HOUSE_NO":"２３號","E_COORD97":163936.19,"N_COORD97":2543429.1400000001,"ADDRESS":"郡平路４６０巷２３號","OBJECTID":314817},"geometry":{"x":163936.19000000134,"y":2543429.1400000006}},{"attributes":{"ID":314826,"DIS_CODE":0,"TOWNNAME":"安平區","LI":"億載里","LIN":"7鄰","STREET":"郡平路","SECT":" ","MAREA":" ","LANE":"４６０巷","ALLEY":" ","HOUSE_NO":"１５號","E_COORD97":163940.92999999999,"N_COORD97":2543400.1000000001,"ADDRESS":"郡平路４６０巷１５號","OBJECTID":314818},"geometry":{"x":163940.9299999997,"y":2543400.1000000015}},{"attributes":{"ID":314827,"DIS_CODE":0,"TOWNNAME":"安平區","LI":"億載里","LIN":"7鄰","STREET":"郡平路","SECT":" ","MAREA":" ","LANE":"４６０巷","ALLEY":" ","HOUSE_NO":"１７號","E_COORD97":163937.97,"N_COORD97":2543405.23,"ADDRESS":"郡平路４６０巷１７號","OBJECTID":314819},"geometry":{"x":163937.9700000016,"y":2543405.2300000004}},{"attributes":{"ID":314828,"DIS_CODE":0,"TOWNNAME":"玉井區","LI":"竹圍里","LIN":"7鄰","STREET":"\u25A0吧哖東路","SECT":" ","MAREA":" ","LANE":"１１２巷","ALLEY":" ","HOUSE_NO":"６５號","E_COORD97":195819.28,"N_COORD97":2558694.3399999999,"ADDRESS":"\u25A0吧哖東路１１２巷６５號","OBJECTID":314820},"geometry":{"x":195819.28000000026,"y":2558694.3399999999}},{"attributes":{"ID":314829,"DIS_CODE":0,"TOWNNAME":"東區","LI":"路東里","LIN":"7鄰","STREET":"大同路","SECT":"二段","MAREA":" ","LANE":"６１巷","ALLEY":" ","HOUSE_NO":"２３號之３","E_COORD97":169413.35999999999,"N_COORD97":2542248.25,"ADDRESS":"大同路二段６１巷２３號之３","OBJECTID":314821},"geometry":{"x":169413.36000000127,"y":2542248.25}},{"attributes":{"ID":314830,"DIS_CODE":0,"TOWNNAME":"東區","LI":"龍山里","LIN":"7鄰","STREET":"長榮路","SECT":"一段","MAREA":" ","LANE":"２３４巷","ALLEY":" ","HOUSE_NO":"１５號","E_COORD97":169914.45000000001,"N_COORD97":2542836.6200000001,"ADDRESS":"長榮路一段２３４巷１５號","OBJECTID":314822},"geometry":{"x":169914.45000000112,"y":2542836.620000001}},{"attributes":{"ID":314831,"DIS_CODE":0,"TOWNNAME":"東區","LI":"龍山里","LIN":"7鄰","STREET":"長榮路","SECT":"一段","MAREA":" ","LANE":"２３４巷","ALLEY":" ","HOUSE_NO":"１６號","E_COORD97":169926.01000000001,"N_COORD97":2542831.1400000001,"ADDRESS":"長榮路一段２３４巷１６號","OBJECTID":314823},"geometry":{"x":169926.00999999978,"y":2542831.1400000025}},{"attributes":{"ID":314832,"DIS_CODE":0,"TOWNNAME":"東區","LI":"龍山里","LIN":"7鄰","STREET":"長榮路","SECT":"一段","MAREA":" ","LANE":"２３４巷","ALLEY":" ","HOUSE_NO":"１７號","E_COORD97":169928.32000000001,"N_COORD97":2542835.1600000001,"ADDRESS":"長榮路一段２３４巷１７號","OBJECTID":314824},"geometry":{"x":169928.3200000003,"y":2542835.1600000001}},{"attributes":{"ID":314833,"DIS_CODE":0,"TOWNNAME":"歸仁區","LI":"大廟里","LIN":"14鄰","STREET":"大廟六街","SECT":" ","MAREA":" ","LANE":" ","ALLEY":" ","HOUSE_NO":"２９４號","E_COORD97":176543.82000000001,"N_COORD97":2544545.25,"ADDRESS":"大廟六街２９４號","OBJECTID":314825},"geometry":{"x":176543.82000000123,"y":2544545.2500000019}},{"attributes":{"ID":314834,"DIS_CODE":0,"TOWNNAME":"學甲區","LI":"仁得里","LIN":"17鄰","STREET":"信義路","SECT":" ","MAREA":" ","LANE":" ","ALLEY":" ","HOUSE_NO":"１０號之２１","E_COORD97":165667.26999999999,"N_COORD97":2569876.73,"ADDRESS":"信義路１０號之２１","OBJECTID":314826},"geometry":{"x":165667.27000000048,"y":2569876.7300000004}},{"attributes":{"ID":314835,"DIS_CODE":0,"TOWNNAME":"關廟區","LI":"香洋里","LIN":"18鄰","STREET":"中央路","SECT":" ","MAREA":" ","LANE":"２２巷","ALLEY":" ","HOUSE_NO":"５８號","E_COORD97":181602.29999999999,"N_COORD97":2540116.3799999999,"ADDRESS":"中央路２２巷５８號","OBJECTID":314827},"geometry":{"x":181602.29999999981,"y":2540116.3800000008}},{"attributes":{"ID":314836,"DIS_CODE":0,"TOWNNAME":"關廟區","LI":"北花里","LIN":"20鄰","STREET":"中正路","SECT":" ","MAREA":" ","LANE":"１１３巷","ALLEY":" ","HOUSE_NO":"１６號","E_COORD97":183588.85999999999,"N_COORD97":2540878.6200000001,"ADDRESS":"中正路１１３巷１６號","OBJECTID":314828},"geometry":{"x":183588.86000000127,"y":2540878.6200000029}},{"attributes":{"ID":314837,"DIS_CODE":0,"TOWNNAME":"關廟區","LI":"東勢里","LIN":"17鄰","STREET":"旺萊路","SECT":" ","MAREA":" ","LANE":"２６０巷","ALLEY":" ","HOUSE_NO":"３號","E_COORD97":181939.44,"N_COORD97":2539364.25,"ADDRESS":"旺萊路２６０巷３號","OBJECTID":314829},"geometry":{"x":181939.44000000041,"y":2539364.2500000037}},{"attributes":{"ID":314838,"DIS_CODE":0,"TOWNNAME":"東區","LI":"龍山里","LIN":"7鄰","STREET":"長榮路","SECT":"一段","MAREA":" ","LANE":"２３４巷","ALLEY":" ","HOUSE_NO":"１８號","E_COORD97":169938.54000000001,"N_COORD97":2542834.5499999998,"ADDRESS":"長榮路一段２３４巷１８號","OBJECTID":314830},"geometry":{"x":169938.54000000004,"y":2542834.5500000045}},{"attributes":{"ID":314839,"DIS_CODE":0,"TOWNNAME":"東區","LI":"龍山里","LIN":"7鄰","STREET":"長榮路","SECT":"一段","MAREA":" ","LANE":"２３４巷","ALLEY":" ","HOUSE_NO":"１９號","E_COORD97":169946.32999999999,"N_COORD97":2542839.29,"ADDRESS":"長榮路一段２３４巷１９號","OBJECTID":314831},"geometry":{"x":169946.33000000007,"y":2542839.290000001}},{"attributes":{"ID":314840,"DIS_CODE":0,"TOWNNAME":"東區","LI":"龍山里","LIN":"7鄰","STREET":"長榮路","SECT":"一段","MAREA":" ","LANE":"２３４巷","ALLEY":" ","HOUSE_NO":"２０號","E_COORD97":169947.06,"N_COORD97":2542846.5899999999,"ADDRESS":"長榮路一段２３４巷２０號","OBJECTID":314832},"geometry":{"x":169947.06000000052,"y":2542846.5899999999}},{"attributes":{"ID":314841,"DIS_CODE":0,"TOWNNAME":"東區","LI":"龍山里","LIN":"7鄰","STREET":"長榮路","SECT":"一段","MAREA":" ","LANE":"２３４巷","ALLEY":" ","HOUSE_NO":"２１號","E_COORD97":169944.98999999999,"N_COORD97":2542856.4900000002,"ADDRESS":"長榮路一段２３４巷２１號","OBJECTID":314833},"geometry":{"x":169944.99000000115,"y":2542856.4900000021}},{"attributes":{"ID":314842,"DIS_CODE":0,"TOWNNAME":"東區","LI":"龍山里","LIN":"7鄰","STREET":"長榮路","SECT":"一段","MAREA":" ","LANE":"２３４巷","ALLEY":" ","HOUSE_NO":"２２號","E_COORD97":169927.70999999999,"N_COORD97":2542851.02,"ADDRESS":"長榮路一段２３４巷２２號","OBJECTID":314834},"geometry":{"x":169927.71000000089,"y":2542851.0200000014}},{"attributes":{"ID":314843,"DIS_CODE":0,"TOWNNAME":"東區","LI":"龍山里","LIN":"7鄰","STREET":"長榮路","SECT":"一段","MAREA":" ","LANE":"２３４巷","ALLEY":" ","HOUSE_NO":"２３號","E_COORD97":169917.60999999999,"N_COORD97":2542853.7000000002,"ADDRESS":"長榮路一段２３４巷２３號","OBJECTID":314835},"geometry":{"x":169917.61000000034,"y":2542853.7000000011}},{"attributes":{"ID":314844,"DIS_CODE":0,"TOWNNAME":"東區","LI":"龍山里","LIN":"7鄰","STREET":"長榮路","SECT":"一段","MAREA":" ","LANE":"２３４巷","ALLEY":" ","HOUSE_NO":"２４號","E_COORD97":169919.56,"N_COORD97":2542861.3599999999,"ADDRESS":"長榮路一段２３４巷２４號","OBJECTID":314836},"geometry":{"x":169919.56000000145,"y":2542861.3599999994}},{"attributes":{"ID":314845,"DIS_CODE":0,"TOWNNAME":"東區","LI":"龍山里","LIN":"7鄰","STREET":"長榮路","SECT":"一段","MAREA":" ","LANE":"２３４巷","ALLEY":" ","HOUSE_NO":"２５號","E_COORD97":169922.48000000001,"N_COORD97":2542876.8599999999,"ADDRESS":"長榮路一段２３４巷２５號","OBJECTID":314837},"geometry":{"x":169922.48000000045,"y":2542876.8600000013}},{"attributes":{"ID":314846,"DIS_CODE":0,"TOWNNAME":"南區","LI":"文華里","LIN":"7鄰","STREET":"金華路","SECT":"二段","MAREA":" ","LANE":"３２３巷","ALLEY":" ","HOUSE_NO":"１號","E_COORD97":167113.01999999999,"N_COORD97":2542873,"ADDRESS":"金華路二段３２３巷１號","OBJECTID":314838},"geometry":{"x":167113.02000000048,"y":2542873.0000000019}},{"attributes":{"ID":314847,"DIS_CODE":0,"TOWNNAME":"南區","LI":"文華里","LIN":"7鄰","STREET":"金華路","SECT":"二段","MAREA":" ","LANE":"３２３巷","ALLEY":" ","HOUSE_NO":"２號","E_COORD97":167113.23000000001,"N_COORD97":2542878.9300000002,"ADDRESS":"金華路二段３２３巷２號","OBJECTID":314839},"geometry":{"x":167113.23000000045,"y":2542878.9300000016}},{"attributes":{"ID":314848,"DIS_CODE":0,"TOWNNAME":"南區","LI":"文華里","LIN":"7鄰","STREET":"金華路","SECT":"二段","MAREA":" ","LANE":"３２３巷","ALLEY":" ","HOUSE_NO":"３號","E_COORD97":167108.88,"N_COORD97":2542873.4199999999,"ADDRESS":"金華路二段３２３巷３號","OBJECTID":314840},"geometry":{"x":167108.88000000082,"y":2542873.4200000018}},{"attributes":{"ID":314849,"DIS_CODE":0,"TOWNNAME":"學甲區","LI":"仁得里","LIN":"17鄰","STREET":"信義路","SECT":" ","MAREA":" ","LANE":" ","ALLEY":" ","HOUSE_NO":"１０號之２５","E_COORD97":165669.35999999999,"N_COORD97":2569881.0899999999,"ADDRESS":"信義路１０號之２５","OBJECTID":314841},"geometry":{"x":165669.36000000034,"y":2569881.0899999999}},{"attributes":{"ID":314850,"DIS_CODE":0,"TOWNNAME":"學甲區","LI":"仁得里","LIN":"17鄰","STREET":"信義路","SECT":" ","MAREA":" ","LANE":" ","ALLEY":" ","HOUSE_NO":"１０號之６","E_COORD97":165620.81,"N_COORD97":2569772.3300000001,"ADDRESS":"信義路１０號之６","OBJECTID":314842},"geometry":{"x":165620.81000000052,"y":2569772.3300000019}},{"attributes":{"ID":314851,"DIS_CODE":0,"TOWNNAME":"學甲區","LI":"仁得里","LIN":"17鄰","STREET":"信義路","SECT":" ","MAREA":" ","LANE":" ","ALLEY":" ","HOUSE_NO":"１０號之８","E_COORD97":165601.37,"N_COORD97":2569734.23,"ADDRESS":"信義路１０號之８","OBJECTID":314843},"geometry":{"x":165601.37000000011,"y":2569734.2300000004}},{"attributes":{"ID":314852,"DIS_CODE":0,"TOWNNAME":"學甲區","LI":"仁得里","LIN":"17鄰","STREET":"信義路","SECT":" ","MAREA":" ","LANE":" ","ALLEY":" ","HOUSE_NO":"１１號","E_COORD97":165626.56,"N_COORD97":2569913.6299999999,"ADDRESS":"信義路１１號","OBJECTID":314844},"geometry":{"x":165626.55999999959,"y":2569913.629999999}},{"attributes":{"ID":314853,"DIS_CODE":0,"TOWNNAME":"關廟區","LI":"香洋里","LIN":"20鄰","STREET":"中央路","SECT":" ","MAREA":" ","LANE":"７３巷","ALLEY":" ","HOUSE_NO":"３號","E_COORD97":181475.20999999999,"N_COORD97":2539955.3199999998,"ADDRESS":"中央路７３巷３號","OBJECTID":314845},"geometry":{"x":181475.21000000089,"y":2539955.3200000022}},{"attributes":{"ID":314854,"DIS_CODE":0,"TOWNNAME":"關廟區","LI":"五甲里","LIN":"13鄰","STREET":"光復街","SECT":" ","MAREA":" ","LANE":"６３巷","ALLEY":" ","HOUSE_NO":"４６號","E_COORD97":181413.54000000001,"N_COORD97":2539327.2799999998,"ADDRESS":"光復街６３巷４６號","OBJECTID":314846},"geometry":{"x":181413.5400000019,"y":2539327.2800000012}},{"attributes":{"ID":314855,"DIS_CODE":0,"TOWNNAME":"南區","LI":"文華里","LIN":"7鄰","STREET":"金華路","SECT":"二段","MAREA":" ","LANE":"３２３巷","ALLEY":" ","HOUSE_NO":"４號","E_COORD97":167108.45000000001,"N_COORD97":2542878.6200000001,"ADDRESS":"金華路二段３２３巷４號","OBJECTID":314847},"geometry":{"x":167108.44999999925,"y":2542878.6200000048}},{"attributes":{"ID":314856,"DIS_CODE":0,"TOWNNAME":"南區","LI":"文華里","LIN":"7鄰","STREET":"金華路","SECT":"二段","MAREA":" ","LANE":"３２３巷","ALLEY":" ","HOUSE_NO":"５號","E_COORD97":167101.66,"N_COORD97":2542873.7400000002,"ADDRESS":"金華路二段３２３巷５號","OBJECTID":314848},"geometry":{"x":167101.66000000015,"y":2542873.7400000039}},{"attributes":{"ID":314857,"DIS_CODE":0,"TOWNNAME":"南區","LI":"文華里","LIN":"7鄰","STREET":"金華路","SECT":"二段","MAREA":" ","LANE":"３２３巷","ALLEY":" ","HOUSE_NO":"６號","E_COORD97":167102.82000000001,"N_COORD97":2542879.7799999998,"ADDRESS":"金華路二段３２３巷６號","OBJECTID":314849},"geometry":{"x":167102.82000000216,"y":2542879.7800000012}},{"attributes":{"ID":314858,"DIS_CODE":0,"TOWNNAME":"南區","LI":"文華里","LIN":"7鄰","STREET":"金華路","SECT":"二段","MAREA":" ","LANE":"３２３巷","ALLEY":" ","HOUSE_NO":"７號","E_COORD97":167097.51999999999,"N_COORD97":2542873.8399999999,"ADDRESS":"金華路二段３２３巷７號","OBJECTID":314850},"geometry":{"x":167097.52000000048,"y":2542873.8400000017}},{"attributes":{"ID":314859,"DIS_CODE":0,"TOWNNAME":"南區","LI":"文華里","LIN":"7鄰","STREET":"金華路","SECT":"二段","MAREA":" ","LANE":"３２３巷","ALLEY":" ","HOUSE_NO":"８號","E_COORD97":167098.04999999999,"N_COORD97":2542880.3100000001,"ADDRESS":"金華路二段３２３巷８號","OBJECTID":314851},"geometry":{"x":167098.05000000075,"y":2542880.3100000042}},{"attributes":{"ID":314860,"DIS_CODE":0,"TOWNNAME":"南區","LI":"文華里","LIN":"7鄰","STREET":"金華路","SECT":"二段","MAREA":" ","LANE":"３２３巷","ALLEY":" ","HOUSE_NO":"９號","E_COORD97":167093.59,"N_COORD97":2542874.1600000001,"ADDRESS":"金華路二段３２３巷９號","OBJECTID":314852},"geometry":{"x":167093.58999999892,"y":2542874.1600000039}},{"attributes":{"ID":314861,"DIS_CODE":0,"TOWNNAME":"南區","LI":"文華里","LIN":"7鄰","STREET":"金華路","SECT":"二段","MAREA":" ","LANE":"３２３巷","ALLEY":" ","HOUSE_NO":"１０號","E_COORD97":167094.32999999999,"N_COORD97":2542880.1000000001,"ADDRESS":"金華路二段３２３巷１０號","OBJECTID":314853},"geometry":{"x":167094.33000000101,"y":2542880.0999999996}},{"attributes":{"ID":314862,"DIS_CODE":0,"TOWNNAME":"南區","LI":"文華里","LIN":"7鄰","STREET":"金華路","SECT":"二段","MAREA":" ","LANE":"３２３巷","ALLEY":" ","HOUSE_NO":"１１號","E_COORD97":167089.13,"N_COORD97":2542874.7999999998,"ADDRESS":"金華路二段３２３巷１１號","OBJECTID":314854},"geometry":{"x":167089.13000000082,"y":2542874.8000000026}},{"attributes":{"ID":314863,"DIS_CODE":0,"TOWNNAME":"南區","LI":"文華里","LIN":"7鄰","STREET":"金華路","SECT":"二段","MAREA":" ","LANE":"３２３巷","ALLEY":" ","HOUSE_NO":"１２號","E_COORD97":167089.56,"N_COORD97":2542880.7400000002,"ADDRESS":"金華路二段３２３巷１２號","OBJECTID":314855},"geometry":{"x":167089.55999999959,"y":2542880.7400000021}},{"attributes":{"ID":314864,"DIS_CODE":0,"TOWNNAME":"南區","LI":"文華里","LIN":"7鄰","STREET":"建南路","SECT":" ","MAREA":" ","LANE":"９２巷","ALLEY":" ","HOUSE_NO":"１號","E_COORD97":167098.98999999999,"N_COORD97":2542856.4500000002,"ADDRESS":"建南路９２巷１號","OBJECTID":314856},"geometry":{"x":167098.99000000115,"y":2542856.4499999993}},{"attributes":{"ID":314865,"DIS_CODE":0,"TOWNNAME":"南區","LI":"文華里","LIN":"7鄰","STREET":"建南路","SECT":" ","MAREA":" ","LANE":"９２巷","ALLEY":" ","HOUSE_NO":"３號","E_COORD97":167098.88,"N_COORD97":2542860.6899999999,"ADDRESS":"建南路９２巷３號","OBJECTID":314857},"geometry":{"x":167098.88000000082,"y":2542860.6900000013}},{"attributes":{"ID":314866,"DIS_CODE":0,"TOWNNAME":"新營區","LI":"民權里","LIN":"5鄰","STREET":"信義街","SECT":" ","MAREA":" ","LANE":"７２巷","ALLEY":" ","HOUSE_NO":"８號之３","E_COORD97":179973.12,"N_COORD97":2578540.7799999998,"ADDRESS":"信義街７２巷８號之３","OBJECTID":314858},"geometry":{"x":179973.12000000011,"y":2578540.7800000012}},{"attributes":{"ID":314867,"DIS_CODE":0,"TOWNNAME":"學甲區","LI":"仁得里","LIN":"17鄰","STREET":"信義路","SECT":" ","MAREA":" ","LANE":" ","ALLEY":" ","HOUSE_NO":"１２號","E_COORD97":165684.10000000001,"N_COORD97":2569903.4900000002,"ADDRESS":"信義路１２號","OBJECTID":314859},"geometry":{"x":165684.09999999963,"y":2569903.4900000039}},{"attributes":{"ID":314868,"DIS_CODE":0,"TOWNNAME":"學甲區","LI":"仁得里","LIN":"17鄰","STREET":"信義路","SECT":" ","MAREA":" ","LANE":" ","ALLEY":" ","HOUSE_NO":"１４號","E_COORD97":165686.5,"N_COORD97":2569917.1600000001,"ADDRESS":"信義路１４號","OBJECTID":314860},"geometry":{"x":165686.50000000093,"y":2569917.160000002}},{"attributes":{"ID":314869,"DIS_CODE":0,"TOWNNAME":"關廟區","LI":"五甲里","LIN":"13鄰","STREET":"光復街","SECT":" ","MAREA":" ","LANE":"９１巷","ALLEY":" ","HOUSE_NO":"２１號","E_COORD97":181440.04000000001,"N_COORD97":2539336.2799999998,"ADDRESS":"光復街９１巷２１號","OBJECTID":314861},"geometry":{"x":181440.04000000004,"y":2539336.2800000031}},{"attributes":{"ID":314870,"DIS_CODE":0,"TOWNNAME":"關廟區","LI":"東勢里","LIN":"24鄰","STREET":"東安街","SECT":" ","MAREA":" ","LANE":"２４２巷","ALLEY":" ","HOUSE_NO":"８號","E_COORD97":181586.26999999999,"N_COORD97":2539328.3199999998,"ADDRESS":"東安街２４２巷８號","OBJECTID":314862},"geometry":{"x":181586.27000000048,"y":2539328.3200000022}},{"attributes":{"ID":314871,"DIS_CODE":0,"TOWNNAME":"關廟區","LI":"埤頭里","LIN":"4鄰","STREET":"保東路","SECT":" ","MAREA":" ","LANE":"１１５巷","ALLEY":" ","HOUSE_NO":"９６號","E_COORD97":178743.42000000001,"N_COORD97":2543956.2999999998,"ADDRESS":"保東路１１５巷９６號","OBJECTID":314863},"geometry":{"x":178743.42000000086,"y":2543956.3000000026}},{"attributes":{"ID":314872,"DIS_CODE":0,"TOWNNAME":"關廟區","LI":"五甲里","LIN":"18鄰","STREET":"大富街","SECT":" ","MAREA":" ","LANE":"３９巷","ALLEY":" ","HOUSE_NO":"１３號","E_COORD97":180994.47,"N_COORD97":2539099.25,"ADDRESS":"大富街３９巷１３號","OBJECTID":314864},"geometry":{"x":180994.46999999974,"y":2539099.25}},{"attributes":{"ID":314873,"DIS_CODE":0,"TOWNNAME":"南區","LI":"永寧里","LIN":"7鄰","STREET":"灣裡路","SECT":" ","MAREA":" ","LANE":"８８巷","ALLEY":" ","HOUSE_NO":"１０２號","E_COORD97":165855.64999999999,"N_COORD97":2536648.04,"ADDRESS":"灣裡路８８巷１０２號","OBJECTID":314865},"geometry":{"x":165855.65000000037,"y":2536648.0399999991}},{"attributes":{"ID":314874,"DIS_CODE":0,"TOWNNAME":"南區","LI":"松安里","LIN":"7鄰","STREET":"灣裡路","SECT":" ","MAREA":" ","LANE":"８８巷","ALLEY":" ","HOUSE_NO":"２６０號","E_COORD97":165845.29999999999,"N_COORD97":2536413.6400000001,"ADDRESS":"灣裡路８８巷２６０號","OBJECTID":314866},"geometry":{"x":165845.30000000075,"y":2536413.6400000025}},{"attributes":{"ID":314875,"DIS_CODE":0,"TOWNNAME":"南區","LI":"田寮里","LIN":"7鄰","STREET":"新興路","SECT":" ","MAREA":" ","LANE":"２１７巷","ALLEY":" ","HOUSE_NO":"１９號之２","E_COORD97":167397.38,"N_COORD97":2541928.46,"ADDRESS":"新興路２１７巷１９號之２","OBJECTID":314867},"geometry":{"x":167397.38000000082,"y":2541928.4600000028}},{"attributes":{"ID":314876,"DIS_CODE":0,"TOWNNAME":"南區","LI":"田寮里","LIN":"7鄰","STREET":"新興路","SECT":" ","MAREA":" ","LANE":"２１７巷","ALLEY":" ","HOUSE_NO":"２３號","E_COORD97":167407.84,"N_COORD97":2541922.71,"ADDRESS":"新興路２１７巷２３號","OBJECTID":314868},"geometry":{"x":167407.84000000078,"y":2541922.7100000028}},{"attributes":{"ID":314877,"DIS_CODE":0,"TOWNNAME":"南區","LI":"田寮里","LIN":"7鄰","STREET":"新興路","SECT":" ","MAREA":" ","LANE":"２１７巷","ALLEY":" ","HOUSE_NO":"２５號","E_COORD97":167411.51000000001,"N_COORD97":2541918.27,"ADDRESS":"新興路２１７巷２５號","OBJECTID":314869},"geometry":{"x":167411.51000000071,"y":2541918.2699999996}},{"attributes":{"ID":314878,"DIS_CODE":0,"TOWNNAME":"南區","LI":"田寮里","LIN":"7鄰","STREET":"新興路","SECT":" ","MAREA":" ","LANE":"２１７巷","ALLEY":" ","HOUSE_NO":"２７號","E_COORD97":167413.85999999999,"N_COORD97":2541916.96,"ADDRESS":"新興路２１７巷２７號","OBJECTID":314870},"geometry":{"x":167413.86000000034,"y":2541916.9600000028}},{"attributes":{"ID":314879,"DIS_CODE":0,"TOWNNAME":"南區","LI":"田寮里","LIN":"7鄰","STREET":"新興路","SECT":" ","MAREA":" ","LANE":"２１７巷","ALLEY":" ","HOUSE_NO":"３１號","E_COORD97":167419.88,"N_COORD97":2541917.7400000002,"ADDRESS":"新興路２１７巷３１號","OBJECTID":314871},"geometry":{"x":167419.87999999989,"y":2541917.7400000021}},{"attributes":{"ID":314880,"DIS_CODE":0,"TOWNNAME":"南區","LI":"田寮里","LIN":"7鄰","STREET":"新興路","SECT":" ","MAREA":" ","LANE":"２１７巷","ALLEY":" ","HOUSE_NO":"４３號","E_COORD97":167446.28,"N_COORD97":2541900.1299999999,"ADDRESS":"新興路２１７巷４３號","OBJECTID":314872},"geometry":{"x":167446.28000000119,"y":2541900.1300000027}},{"attributes":{"ID":314881,"DIS_CODE":0,"TOWNNAME":"南區","LI":"田寮里","LIN":"7鄰","STREET":"新興路","SECT":" ","MAREA":" ","LANE":"２１７巷","ALLEY":" ","HOUSE_NO":"４５號","E_COORD97":167449.97,"N_COORD97":2541898.8399999999,"ADDRESS":"新興路２１７巷４５號","OBJECTID":314873},"geometry":{"x":167449.96999999974,"y":2541898.8399999999}},{"attributes":{"ID":314882,"DIS_CODE":0,"TOWNNAME":"南區","LI":"田寮里","LIN":"7鄰","STREET":"新興路","SECT":" ","MAREA":" ","LANE":"２１７巷","ALLEY":" ","HOUSE_NO":"４７號","E_COORD97":167452.73999999999,"N_COORD97":2541897,"ADDRESS":"新興路２１７巷４７號","OBJECTID":314874},"geometry":{"x":167452.74000000115,"y":2541897}},{"attributes":{"ID":314883,"DIS_CODE":0,"TOWNNAME":"南區","LI":"田寮里","LIN":"7鄰","STREET":"新興路","SECT":" ","MAREA":" ","LANE":"２１７巷","ALLEY":" ","HOUSE_NO":"４９號","E_COORD97":167453.37,"N_COORD97":2541910.1699999999,"ADDRESS":"新興路２１７巷４９號","OBJECTID":314875},"geometry":{"x":167453.37000000104,"y":2541910.1699999999}},{"attributes":{"ID":314884,"DIS_CODE":0,"TOWNNAME":"南區","LI":"田寮里","LIN":"7鄰","STREET":"新興路","SECT":" ","MAREA":" ","LANE":"２１７巷","ALLEY":" ","HOUSE_NO":"５１號","E_COORD97":167455.20000000001,"N_COORD97":2541913.8300000001,"ADDRESS":"新興路２１７巷５１號","OBJECTID":314876},"geometry":{"x":167455.20000000112,"y":2541913.8300000019}},{"attributes":{"ID":314885,"DIS_CODE":0,"TOWNNAME":"南區","LI":"田寮里","LIN":"7鄰","STREET":"新興路","SECT":" ","MAREA":" ","LANE":"２１７巷","ALLEY":" ","HOUSE_NO":"５５號","E_COORD97":167471.01000000001,"N_COORD97":2541901.0499999998,"ADDRESS":"新興路２１７巷５５號","OBJECTID":314877},"geometry":{"x":167471.01000000071,"y":2541901.0500000007}},{"attributes":{"ID":314886,"DIS_CODE":0,"TOWNNAME":"學甲區","LI":"仁得里","LIN":"17鄰","STREET":"信義路","SECT":" ","MAREA":" ","LANE":" ","ALLEY":" ","HOUSE_NO":"１５號","E_COORD97":165644.88,"N_COORD97":2569953.27,"ADDRESS":"信義路１５號","OBJECTID":314878},"geometry":{"x":165644.88000000082,"y":2569953.2699999996}},{"attributes":{"ID":314887,"DIS_CODE":0,"TOWNNAME":"學甲區","LI":"仁得里","LIN":"17鄰","STREET":"信義路","SECT":" ","MAREA":" ","LANE":" ","ALLEY":" ","HOUSE_NO":"１６號","E_COORD97":165691.23999999999,"N_COORD97":2569929.0800000001,"ADDRESS":"信義路１６號","OBJECTID":314879},"geometry":{"x":165691.24000000209,"y":2569929.0800000001}},{"attributes":{"ID":314888,"DIS_CODE":0,"TOWNNAME":"學甲區","LI":"仁得里","LIN":"17鄰","STREET":"信義路","SECT":" ","MAREA":" ","LANE":" ","ALLEY":" ","HOUSE_NO":"２７號","E_COORD97":165763.53,"N_COORD97":2570140.8999999999,"ADDRESS":"信義路２７號","OBJECTID":314880},"geometry":{"x":165763.53000000026,"y":2570140.9000000004}},{"attributes":{"ID":314889,"DIS_CODE":0,"TOWNNAME":"學甲區","LI":"仁得里","LIN":"17鄰","STREET":"信義路","SECT":" ","MAREA":" ","LANE":" ","ALLEY":" ","HOUSE_NO":"２８號","E_COORD97":165743.73999999999,"N_COORD97":2570036.2599999998,"ADDRESS":"信義路２８號","OBJECTID":314881},"geometry":{"x":165743.74000000209,"y":2570036.2599999998}},{"attributes":{"ID":314890,"DIS_CODE":0,"TOWNNAME":"學甲區","LI":"仁得里","LIN":"17鄰","STREET":"信義路","SECT":" ","MAREA":" ","LANE":" ","ALLEY":" ","HOUSE_NO":"３０號之１","E_COORD97":165751.45000000001,"N_COORD97":2570055.3599999999,"ADDRESS":"信義路３０號之１","OBJECTID":314882},"geometry":{"x":165751.45000000112,"y":2570055.3599999994}},{"attributes":{"ID":314891,"DIS_CODE":0,"TOWNNAME":"關廟區","LI":"五甲里","LIN":"18鄰","STREET":"五權街","SECT":" ","MAREA":" ","LANE":"２巷","ALLEY":" ","HOUSE_NO":"５６號","E_COORD97":180966.72,"N_COORD97":2539124.25,"ADDRESS":"五權街２巷５６號","OBJECTID":314883},"geometry":{"x":180966.72000000067,"y":2539124.2500000019}},{"attributes":{"ID":314892,"DIS_CODE":0,"TOWNNAME":"關廟區","LI":"五甲里","LIN":"20鄰","STREET":"五智街","SECT":" ","MAREA":" ","LANE":"５０巷","ALLEY":" ","HOUSE_NO":"６號","E_COORD97":181162.01999999999,"N_COORD97":2539171.25,"ADDRESS":"五智街５０巷６號","OBJECTID":314884},"geometry":{"x":181162.01999999955,"y":2539171.2500000019}},{"attributes":{"ID":314893,"DIS_CODE":0,"TOWNNAME":"關廟區","LI":"南花里","LIN":"13鄰","STREET":"花園一街","SECT":" ","MAREA":" ","LANE":"２０２巷","ALLEY":" ","HOUSE_NO":"６號","E_COORD97":181649.29000000001,"N_COORD97":2540178.25,"ADDRESS":"花園一街２０２巷６號","OBJECTID":314885},"geometry":{"x":181649.29000000097,"y":2540178.2500000019}},{"attributes":{"ID":314894,"DIS_CODE":0,"TOWNNAME":"南區","LI":"田寮里","LIN":"7鄰","STREET":"新興路","SECT":" ","MAREA":" ","LANE":"２１７巷","ALLEY":" ","HOUSE_NO":"５７號","E_COORD97":167467.87,"N_COORD97":2541902.52,"ADDRESS":"新興路２１７巷５７號","OBJECTID":314886},"geometry":{"x":167467.87000000011,"y":2541902.5200000014}},{"attributes":{"ID":314895,"DIS_CODE":0,"TOWNNAME":"南區","LI":"田寮里","LIN":"7鄰","STREET":"新興路","SECT":" ","MAREA":" ","LANE":"２１７巷","ALLEY":" ","HOUSE_NO":"５９號","E_COORD97":167464.17999999999,"N_COORD97":2541904.1800000002,"ADDRESS":"新興路２１７巷５９號","OBJECTID":314887},"geometry":{"x":167464.18000000156,"y":2541904.1800000016}},{"attributes":{"ID":314896,"DIS_CODE":0,"TOWNNAME":"南區","LI":"田寮里","LIN":"7鄰","STREET":"新興路","SECT":" ","MAREA":" ","LANE":"２１７巷","ALLEY":" ","HOUSE_NO":"６１號","E_COORD97":167459.01999999999,"N_COORD97":2541894.23,"ADDRESS":"新興路２１７巷６１號","OBJECTID":314888},"geometry":{"x":167459.02000000048,"y":2541894.2300000042}},{"attributes":{"ID":314897,"DIS_CODE":0,"TOWNNAME":"南區","LI":"田寮里","LIN":"7鄰","STREET":"新興路","SECT":" ","MAREA":" ","LANE":"２１７巷","ALLEY":" ","HOUSE_NO":"６３號","E_COORD97":167462.51999999999,"N_COORD97":2541892.7599999998,"ADDRESS":"新興路２１７巷６３號","OBJECTID":314889},"geometry":{"x":167462.52000000048,"y":2541892.7599999998}},{"attributes":{"ID":314898,"DIS_CODE":0,"TOWNNAME":"南區","LI":"田寮里","LIN":"7鄰","STREET":"新興路","SECT":" ","MAREA":" ","LANE":"２１７巷","ALLEY":" ","HOUSE_NO":"６３號之１","E_COORD97":167465.48000000001,"N_COORD97":2541891.1000000001,"ADDRESS":"新興路２１７巷６３號之１","OBJECTID":314890},"geometry":{"x":167465.48000000138,"y":2541891.1000000015}},{"attributes":{"ID":314899,"DIS_CODE":0,"TOWNNAME":"南區","LI":"田寮里","LIN":"7鄰","STREET":"新興路","SECT":" ","MAREA":" ","LANE":"２１７巷","ALLEY":" ","HOUSE_NO":"６５號","E_COORD97":167469.53,"N_COORD97":2541888.71,"ADDRESS":"新興路２１７巷６５號","OBJECTID":314891},"geometry":{"x":167469.53000000119,"y":2541888.7100000028}},{"attributes":{"ID":314900,"DIS_CODE":0,"TOWNNAME":"南區","LI":"田寮里","LIN":"7鄰","STREET":"新興路","SECT":" ","MAREA":" ","LANE":"２１７巷","ALLEY":" ","HOUSE_NO":"６７號","E_COORD97":167474.14999999999,"N_COORD97":2541887.0499999998,"ADDRESS":"新興路２１７巷６７號","OBJECTID":314892},"geometry":{"x":167474.1500000013,"y":2541887.0500000026}},{"attributes":{"ID":314901,"DIS_CODE":0,"TOWNNAME":"南區","LI":"田寮里","LIN":"7鄰","STREET":"新興路","SECT":" ","MAREA":" ","LANE":"２１７巷","ALLEY":" ","HOUSE_NO":"６９號","E_COORD97":167479.13,"N_COORD97":2541884.1000000001,"ADDRESS":"新興路２１７巷６９號","OBJECTID":314893},"geometry":{"x":167479.13000000082,"y":2541884.1000000034}},{"attributes":{"ID":314902,"DIS_CODE":0,"TOWNNAME":"新營區","LI":"王公里","LIN":"32鄰","STREET":"大德街","SECT":" ","MAREA":" ","LANE":"１８巷","ALLEY":" ","HOUSE_NO":"１３號","E_COORD97":180219.98000000001,"N_COORD97":2579490.8599999999,"ADDRESS":"大德街１８巷１３號","OBJECTID":314894},"geometry":{"x":180219.98000000138,"y":2579490.8599999994}},{"attributes":{"ID":314903,"DIS_CODE":0,"TOWNNAME":"中西區","LI":"中正里","LIN":"7鄰","STREET":"正興街","SECT":" ","MAREA":" ","LANE":"６１巷","ALLEY":" ","HOUSE_NO":"５號","E_COORD97":167700.45999999999,"N_COORD97":2543858.9399999999,"ADDRESS":"正興街６１巷５號","OBJECTID":314895},"geometry":{"x":167700.46000000089,"y":2543858.9400000013}},{"attributes":{"ID":314904,"DIS_CODE":0,"TOWNNAME":"學甲區","LI":"仁得里","LIN":"17鄰","STREET":"信義路","SECT":" ","MAREA":" ","LANE":" ","ALLEY":" ","HOUSE_NO":"３０號之２","E_COORD97":165753.20999999999,"N_COORD97":2570059.1499999999,"ADDRESS":"信義路３０號之２","OBJECTID":314896},"geometry":{"x":165753.20999999996,"y":2570059.1500000022}},{"attributes":{"ID":314905,"DIS_CODE":0,"TOWNNAME":"學甲區","LI":"仁得里","LIN":"17鄰","STREET":"信義路","SECT":" ","MAREA":" ","LANE":" ","ALLEY":" ","HOUSE_NO":"３０號","E_COORD97":165749.81,"N_COORD97":2570051.4100000001,"ADDRESS":"信義路３０號","OBJECTID":314897},"geometry":{"x":165749.81000000052,"y":2570051.4100000001}},{"attributes":{"ID":314906,"DIS_CODE":0,"TOWNNAME":"學甲區","LI":"仁得里","LIN":"17鄰","STREET":"信義路","SECT":" ","MAREA":" ","LANE":" ","ALLEY":" ","HOUSE_NO":"３１號","E_COORD97":165767.38,"N_COORD97":2570153.8999999999,"ADDRESS":"信義路３１號","OBJECTID":314898},"geometry":{"x":165767.37999999989,"y":2570153.9000000004}},{"attributes":{"ID":314907,"DIS_CODE":0,"TOWNNAME":"關廟區","LI":"北花里","LIN":"18鄰","STREET":"中正路","SECT":" ","MAREA":" ","LANE":"５６７巷","ALLEY":" ","HOUSE_NO":"１８號","E_COORD97":182362.57000000001,"N_COORD97":2540401.0699999998,"ADDRESS":"中正路５６７巷１８號","OBJECTID":314899},"geometry":{"x":182362.5700000003,"y":2540401.0700000022}},{"attributes":{"ID":314908,"DIS_CODE":0,"TOWNNAME":"關廟區","LI":"北花里","LIN":"20鄰","STREET":"中正路","SECT":" ","MAREA":" ","LANE":"１１３巷","ALLEY":" ","HOUSE_NO":"４３號","E_COORD97":183605.76000000001,"N_COORD97":2540797.6200000001,"ADDRESS":"中正路１１３巷４３號","OBJECTID":314900},"geometry":{"x":183605.76000000071,"y":2540797.6200000029}},{"attributes":{"ID":314909,"DIS_CODE":0,"TOWNNAME":"關廟區","LI":"山西里","LIN":"13鄰","STREET":"文衡路","SECT":" ","MAREA":" ","LANE":"１３３巷","ALLEY":" ","HOUSE_NO":"２７號","E_COORD97":180782.32999999999,"N_COORD97":2540556.4500000002,"ADDRESS":"文衡路１３３巷２７號","OBJECTID":314901},"geometry":{"x":180782.33000000007,"y":2540556.4500000011}},{"attributes":{"ID":314910,"DIS_CODE":0,"TOWNNAME":"關廟區","LI":"北花里","LIN":"13鄰","STREET":"中正路","SECT":" ","MAREA":" ","LANE":"２６５巷","ALLEY":" ","HOUSE_NO":"１１號","E_COORD97":183281.01000000001,"N_COORD97":2540824.25,"ADDRESS":"中正路２６５巷１１號","OBJECTID":314902},"geometry":{"x":183281.00999999978,"y":2540824.25}},{"attributes":{"ID":314911,"DIS_CODE":0,"TOWNNAME":"中西區","LI":"中正里","LIN":"7鄰","STREET":"正興街","SECT":" ","MAREA":" ","LANE":"６１巷","ALLEY":" ","HOUSE_NO":"１０號","E_COORD97":167684.28,"N_COORD97":2543831.6099999999,"ADDRESS":"正興街６１巷１０號","OBJECTID":314903},"geometry":{"x":167684.28000000026,"y":2543831.6099999994}},{"attributes":{"ID":314912,"DIS_CODE":0,"TOWNNAME":"歸仁區","LI":"南興里","LIN":"37鄰","STREET":"文化街","SECT":"三段","MAREA":" ","LANE":" ","ALLEY":" ","HOUSE_NO":"２８９號","E_COORD97":176220.60437700001,"N_COORD97":2541185.38271,"ADDRESS":"文化街三段２８９號","OBJECTID":314904},"geometry":{"x":176220.60437699873,"y":2541185.3827059995}},{"attributes":{"ID":314913,"DIS_CODE":0,"TOWNNAME":"中西區","LI":"中正里","LIN":"7鄰","STREET":"正興街","SECT":" ","MAREA":" ","LANE":"６１巷","ALLEY":" ","HOUSE_NO":"１２號","E_COORD97":167683.78,"N_COORD97":2543828.6699999999,"ADDRESS":"正興街６１巷１２號","OBJECTID":314905},"geometry":{"x":167683.78000000026,"y":2543828.6699999999}},{"attributes":{"ID":314914,"DIS_CODE":0,"TOWNNAME":"中西區","LI":"中正里","LIN":"7鄰","STREET":"正興街","SECT":" ","MAREA":" ","LANE":"６１巷","ALLEY":" ","HOUSE_NO":"１４號","E_COORD97":167682.13,"N_COORD97":2543825.2999999998,"ADDRESS":"正興街６１巷１４號","OBJECTID":314906},"geometry":{"x":167682.13000000082,"y":2543825.3000000007}},{"attributes":{"ID":314915,"DIS_CODE":0,"TOWNNAME":"中西區","LI":"中正里","LIN":"7鄰","STREET":"正興街","SECT":" ","MAREA":" ","LANE":"６１巷","ALLEY":" ","HOUSE_NO":"１６號","E_COORD97":167681.34,"N_COORD97":2543822.0800000001,"ADDRESS":"正興街６１巷１６號","OBJECTID":314907},"geometry":{"x":167681.33999999985,"y":2543822.0800000001}},{"attributes":{"ID":314916,"DIS_CODE":0,"TOWNNAME":"中西區","LI":"中正里","LIN":"7鄰","STREET":"正興街","SECT":" ","MAREA":" ","LANE":"６１巷","ALLEY":" ","HOUSE_NO":"１８號","E_COORD97":167675.48000000001,"N_COORD97":2543823.98,"ADDRESS":"正興街６１巷１８號","OBJECTID":314908},"geometry":{"x":167675.48000000138,"y":2543823.9800000004}},{"attributes":{"ID":314917,"DIS_CODE":0,"TOWNNAME":"中西區","LI":"中正里","LIN":"7鄰","STREET":"正興街","SECT":" ","MAREA":" ","LANE":"６１巷","ALLEY":" ","HOUSE_NO":"２０號","E_COORD97":167671.29999999999,"N_COORD97":2543824.04,"ADDRESS":"正興街６１巷２０號","OBJECTID":314909},"geometry":{"x":167671.29999999981,"y":2543824.040000001}},{"attributes":{"ID":314918,"DIS_CODE":0,"TOWNNAME":"中西區","LI":"中正里","LIN":"7鄰","STREET":"正興街","SECT":" ","MAREA":" ","LANE":"７７巷","ALLEY":" ","HOUSE_NO":"１０號","E_COORD97":167652.42999999999,"N_COORD97":2543823.46,"ADDRESS":"正興街７７巷１０號","OBJECTID":314910},"geometry":{"x":167652.43000000156,"y":2543823.4600000028}},{"attributes":{"ID":314919,"DIS_CODE":0,"TOWNNAME":"中西區","LI":"中正里","LIN":"7鄰","STREET":"正興街","SECT":" ","MAREA":" ","LANE":"７７巷","ALLEY":" ","HOUSE_NO":"１１號","E_COORD97":167663.81,"N_COORD97":2543843.5,"ADDRESS":"正興街７７巷１１號","OBJECTID":314911},"geometry":{"x":167663.81000000052,"y":2543843.5}},{"attributes":{"ID":314920,"DIS_CODE":0,"TOWNNAME":"中西區","LI":"中正里","LIN":"7鄰","STREET":"正興街","SECT":" ","MAREA":" ","LANE":"７７巷","ALLEY":" ","HOUSE_NO":"１３號","E_COORD97":167662.88,"N_COORD97":2543838.6099999999,"ADDRESS":"正興街７７巷１３號","OBJECTID":314912},"geometry":{"x":167662.87999999989,"y":2543838.6099999994}},{"attributes":{"ID":314921,"DIS_CODE":0,"TOWNNAME":"中西區","LI":"中正里","LIN":"7鄰","STREET":"正興街","SECT":" ","MAREA":" ","LANE":"７７巷","ALLEY":" ","HOUSE_NO":"１號","E_COORD97":167666.25,"N_COORD97":2543858.4100000001,"ADDRESS":"正興街７７巷１號","OBJECTID":314913},"geometry":{"x":167666.25000000093,"y":2543858.4100000001}},{"attributes":{"ID":314922,"DIS_CODE":0,"TOWNNAME":"中西區","LI":"中正里","LIN":"7鄰","STREET":"正興街","SECT":" ","MAREA":" ","LANE":"７７巷","ALLEY":" ","HOUSE_NO":"２號","E_COORD97":167658.70999999999,"N_COORD97":2543855.98,"ADDRESS":"正興街７７巷２號","OBJECTID":314914},"geometry":{"x":167658.70999999996,"y":2543855.9800000023}},{"attributes":{"ID":314923,"DIS_CODE":0,"TOWNNAME":"中西區","LI":"中正里","LIN":"7鄰","STREET":"正興街","SECT":" ","MAREA":" ","LANE":"７７巷","ALLEY":" ","HOUSE_NO":"３號","E_COORD97":167665.17000000001,"N_COORD97":2543855.98,"ADDRESS":"正興街７７巷３號","OBJECTID":314915},"geometry":{"x":167665.17000000086,"y":2543855.9800000023}},{"attributes":{"ID":314924,"DIS_CODE":0,"TOWNNAME":"中西區","LI":"中正里","LIN":"7鄰","STREET":"正興街","SECT":" ","MAREA":" ","LANE":"７７巷","ALLEY":" ","HOUSE_NO":"４號","E_COORD97":167658,"N_COORD97":2543852.8900000001,"ADDRESS":"正興街７７巷４號","OBJECTID":314916},"geometry":{"x":167658.00000000093,"y":2543852.8900000043}},{"attributes":{"ID":314925,"DIS_CODE":0,"TOWNNAME":"中西區","LI":"中正里","LIN":"7鄰","STREET":"正興街","SECT":" ","MAREA":" ","LANE":"７７巷","ALLEY":" ","HOUSE_NO":"５號","E_COORD97":167664.45999999999,"N_COORD97":2543854.1099999999,"ADDRESS":"正興街７７巷５號","OBJECTID":314917},"geometry":{"x":167664.46000000089,"y":2543854.1100000013}},{"attributes":{"ID":314926,"DIS_CODE":0,"TOWNNAME":"中西區","LI":"中正里","LIN":"7鄰","STREET":"正興街","SECT":" ","MAREA":" ","LANE":"７７巷","ALLEY":" ","HOUSE_NO":"６號","E_COORD97":167657.42000000001,"N_COORD97":2543849.7400000002,"ADDRESS":"正興街７７巷６號","OBJECTID":314918},"geometry":{"x":167657.41999999993,"y":2543849.7399999984}},{"attributes":{"ID":314927,"DIS_CODE":0,"TOWNNAME":"學甲區","LI":"仁得里","LIN":"17鄰","STREET":"建國路","SECT":" ","MAREA":" ","LANE":" ","ALLEY":" ","HOUSE_NO":"１５９號","E_COORD97":165818.42999999999,"N_COORD97":2570062.3100000001,"ADDRESS":"建國路１５９號","OBJECTID":314919},"geometry":{"x":165818.43000000063,"y":2570062.3100000024}},{"attributes":{"ID":314928,"DIS_CODE":0,"TOWNNAME":"學甲區","LI":"仁得里","LIN":"17鄰","STREET":"建國路","SECT":" ","MAREA":" ","LANE":" ","ALLEY":" ","HOUSE_NO":"１６１號","E_COORD97":165825.01999999999,"N_COORD97":2570060.8399999999,"ADDRESS":"建國路１６１號","OBJECTID":314920},"geometry":{"x":165825.02000000048,"y":2570060.8400000017}},{"attributes":{"ID":314929,"DIS_CODE":0,"TOWNNAME":"學甲區","LI":"仁得里","LIN":"17鄰","STREET":"建國路","SECT":" ","MAREA":" ","LANE":" ","ALLEY":" ","HOUSE_NO":"１８１號","E_COORD97":165771.04000000001,"N_COORD97":2570079.6499999999,"ADDRESS":"建國路１８１號","OBJECTID":314921},"geometry":{"x":165771.04000000097,"y":2570079.6500000022}},{"attributes":{"ID":314930,"DIS_CODE":0,"TOWNNAME":"南區","LI":"鯤鯓里","LIN":"17鄰","STREET":"鯤鯓路","SECT":" ","MAREA":" ","LANE":" ","ALLEY":" ","HOUSE_NO":"１９８號","E_COORD97":164862.79999999999,"N_COORD97":2540293.77,"ADDRESS":"鯤鯓路１９８號","OBJECTID":314922},"geometry":{"x":164862.79999999981,"y":2540293.7700000014}},{"attributes":{"ID":314931,"DIS_CODE":0,"TOWNNAME":"南區","LI":"鯤鯓里","LIN":"17鄰","STREET":"鯤鯓路","SECT":" ","MAREA":" ","LANE":" ","ALLEY":" ","HOUSE_NO":"２００號","E_COORD97":164864.73000000001,"N_COORD97":2540300.29,"ADDRESS":"鯤鯓路２００號","OBJECTID":314923},"geometry":{"x":164864.73000000138,"y":2540300.290000001}},{"attributes":{"ID":314932,"DIS_CODE":0,"TOWNNAME":"關廟區","LI":"山西里","LIN":"13鄰","STREET":"文衡路","SECT":" ","MAREA":" ","LANE":"１３３巷","ALLEY":" ","HOUSE_NO":"３７號","E_COORD97":180840.32999999999,"N_COORD97":2540577.0099999998,"ADDRESS":"文衡路１３３巷３７號","OBJECTID":314924},"geometry":{"x":180840.33000000194,"y":2540577.0100000016}},{"attributes":{"ID":314933,"DIS_CODE":0,"TOWNNAME":"中西區","LI":"中正里","LIN":"7鄰","STREET":"正興街","SECT":" ","MAREA":" ","LANE":"７７巷","ALLEY":" ","HOUSE_NO":"７號","E_COORD97":167664.17000000001,"N_COORD97":2543852.25,"ADDRESS":"正興街７７巷７號","OBJECTID":314925},"geometry":{"x":167664.16999999993,"y":2543852.25}},{"attributes":{"ID":314934,"DIS_CODE":0,"TOWNNAME":"中西區","LI":"中正里","LIN":"7鄰","STREET":"正興街","SECT":" ","MAREA":" ","LANE":"７７巷","ALLEY":" ","HOUSE_NO":"８號","E_COORD97":167655.98999999999,"N_COORD97":2543846.9399999999,"ADDRESS":"正興街７７巷８號","OBJECTID":314926},"geometry":{"x":167655.99000000209,"y":2543846.9399999995}},{"attributes":{"ID":314935,"DIS_CODE":0,"TOWNNAME":"中西區","LI":"中正里","LIN":"7鄰","STREET":"正興街","SECT":" ","MAREA":" ","LANE":"７７巷","ALLEY":" ","HOUSE_NO":"９號","E_COORD97":167663.09,"N_COORD97":2543848.0899999999,"ADDRESS":"正興街７７巷９號","OBJECTID":314927},"geometry":{"x":167663.08999999985,"y":2543848.0900000017}},{"attributes":{"ID":314936,"DIS_CODE":0,"TOWNNAME":"中西區","LI":"中正里","LIN":"7鄰","STREET":"正興街","SECT":" ","MAREA":" ","LANE":"８１巷","ALLEY":" ","HOUSE_NO":"１０號","E_COORD97":167646.78,"N_COORD97":2543855,"ADDRESS":"正興街８１巷１０號","OBJECTID":314928},"geometry":{"x":167646.78000000026,"y":2543855.0000000037}},{"attributes":{"ID":314937,"DIS_CODE":0,"TOWNNAME":"中西區","LI":"中正里","LIN":"7鄰","STREET":"正興街","SECT":" ","MAREA":" ","LANE":"８１巷","ALLEY":" ","HOUSE_NO":"１４號","E_COORD97":167637.53,"N_COORD97":2543838.02,"ADDRESS":"正興街８１巷１４號","OBJECTID":314929},"geometry":{"x":167637.53000000119,"y":2543838.0200000014}},{"attributes":{"ID":314938,"DIS_CODE":0,"TOWNNAME":"中西區","LI":"中正里","LIN":"7鄰","STREET":"正興街","SECT":" ","MAREA":" ","LANE":"８１巷","ALLEY":" ","HOUSE_NO":"１６號","E_COORD97":167636.06,"N_COORD97":2543846.25,"ADDRESS":"正興街８１巷１６號","OBJECTID":314930},"geometry":{"x":167636.06000000145,"y":2543846.2500000037}},{"attributes":{"ID":314939,"DIS_CODE":0,"TOWNNAME":"中西區","LI":"中正里","LIN":"7鄰","STREET":"正興街","SECT":" ","MAREA":" ","LANE":"８１巷","ALLEY":" ","HOUSE_NO":"１號","E_COORD97":167653.23999999999,"N_COORD97":2543851.1600000001,"ADDRESS":"正興街８１巷１號","OBJECTID":314931},"geometry":{"x":167653.24000000115,"y":2543851.160000002}},{"attributes":{"ID":314940,"DIS_CODE":0,"TOWNNAME":"中西區","LI":"中正里","LIN":"7鄰","STREET":"正興街","SECT":" ","MAREA":" ","LANE":"８１巷","ALLEY":" ","HOUSE_NO":"２號","E_COORD97":167649.35999999999,"N_COORD97":2543857.2400000002,"ADDRESS":"正興街８１巷２號","OBJECTID":314932},"geometry":{"x":167649.36000000034,"y":2543857.2400000021}},{"attributes":{"ID":314941,"DIS_CODE":0,"TOWNNAME":"中西區","LI":"中正里","LIN":"7鄰","STREET":"正興街","SECT":" ","MAREA":" ","LANE":"８１巷","ALLEY":" ","HOUSE_NO":"７號","E_COORD97":167645.16,"N_COORD97":2543839.1400000001,"ADDRESS":"正興街８１巷７號","OBJECTID":314933},"geometry":{"x":167645.16000000108,"y":2543839.1400000025}},{"attributes":{"ID":314942,"DIS_CODE":0,"TOWNNAME":"中西區","LI":"中正里","LIN":"7鄰","STREET":"正興街","SECT":" ","MAREA":" ","LANE":"８１巷","ALLEY":" ","HOUSE_NO":"９號","E_COORD97":167639.17000000001,"N_COORD97":2543825.9100000001,"ADDRESS":"正興街８１巷９號","OBJECTID":314934},"geometry":{"x":167639.17000000179,"y":2543825.910000002}},{"attributes":{"ID":314943,"DIS_CODE":0,"TOWNNAME":"新營區","LI":"王公里","LIN":"13鄰","STREET":"義和街","SECT":" ","MAREA":" ","LANE":"８巷","ALLEY":" ","HOUSE_NO":"２８號","E_COORD97":180493.66,"N_COORD97":2579165.0899999999,"ADDRESS":"義和街８巷２８號","OBJECTID":314935},"geometry":{"x":180493.66000000015,"y":2579165.0900000017}},{"attributes":{"ID":314944,"DIS_CODE":0,"TOWNNAME":"中西區","LI":"元安里","LIN":"7鄰","STREET":"建安街","SECT":" ","MAREA":" ","LANE":"５１巷","ALLEY":" ","HOUSE_NO":"１６號","E_COORD97":167505.10000000001,"N_COORD97":2543188.8500000001,"ADDRESS":"建安街５１巷１６號","OBJECTID":314936},"geometry":{"x":167505.09999999963,"y":2543188.8500000015}},{"attributes":{"ID":314945,"DIS_CODE":0,"TOWNNAME":"中西區","LI":"元安里","LIN":"7鄰","STREET":"建安街","SECT":" ","MAREA":" ","LANE":"５１巷","ALLEY":" ","HOUSE_NO":"１８號","E_COORD97":167505.57999999999,"N_COORD97":2543184.6200000001,"ADDRESS":"建安街５１巷１８號","OBJECTID":314937},"geometry":{"x":167505.58000000007,"y":2543184.6200000029}},{"attributes":{"ID":314946,"DIS_CODE":0,"TOWNNAME":"南區","LI":"鯤鯓里","LIN":"17鄰","STREET":"鯤鯓路","SECT":" ","MAREA":" ","LANE":" ","ALLEY":" ","HOUSE_NO":"２０２號","E_COORD97":164861.95000000001,"N_COORD97":2540304.75,"ADDRESS":"鯤鯓路２０２號","OBJECTID":314938},"geometry":{"x":164861.95000000019,"y":2540304.7500000019}},{"attributes":{"ID":314947,"DIS_CODE":0,"TOWNNAME":"中西區","LI":"安海里","LIN":"11鄰","STREET":"中正路","SECT":" ","MAREA":" ","LANE":" ","ALLEY":" ","HOUSE_NO":"４１２號","E_COORD97":167219.610312,"N_COORD97":2543884.1268699998,"ADDRESS":"中正路４１２號","OBJECTID":314939},"geometry":{"x":167219.61031199992,"y":2543884.1268680021}},{"attributes":{"ID":314948,"DIS_CODE":0,"TOWNNAME":"關廟區","LI":"山西里","LIN":"13鄰","STREET":"文衡路","SECT":" ","MAREA":" ","LANE":"１３３巷","ALLEY":" ","HOUSE_NO":"７號","E_COORD97":180874.38,"N_COORD97":2540543.0099999998,"ADDRESS":"文衡路１３３巷７號","OBJECTID":314940},"geometry":{"x":180874.38000000082,"y":2540543.0100000016}},{"attributes":{"ID":314949,"DIS_CODE":0,"TOWNNAME":"中西區","LI":"元安里","LIN":"7鄰","STREET":"建安街","SECT":" ","MAREA":" ","LANE":"５１巷","ALLEY":" ","HOUSE_NO":"２０號","E_COORD97":167504.14000000001,"N_COORD97":2543181.0299999998,"ADDRESS":"建安街５１巷２０號","OBJECTID":314941},"geometry":{"x":167504.1400000006,"y":2543181.0299999993}},{"attributes":{"ID":314950,"DIS_CODE":0,"TOWNNAME":"中西區","LI":"元安里","LIN":"7鄰","STREET":"建安街","SECT":" ","MAREA":" ","LANE":"５１巷","ALLEY":" ","HOUSE_NO":"２２號","E_COORD97":167503.66,"N_COORD97":2543175.7599999998,"ADDRESS":"建安街５１巷２２號","OBJECTID":314942},"geometry":{"x":167503.65999999922,"y":2543175.7600000016}},{"attributes":{"ID":314951,"DIS_CODE":0,"TOWNNAME":"中西區","LI":"元安里","LIN":"7鄰","STREET":"建安街","SECT":" ","MAREA":" ","LANE":"５１巷","ALLEY":" ","HOUSE_NO":"２４號","E_COORD97":167503.17999999999,"N_COORD97":2543171.8500000001,"ADDRESS":"建安街５１巷２４號","OBJECTID":314943},"geometry":{"x":167503.18000000156,"y":2543171.8500000015}},{"attributes":{"ID":314952,"DIS_CODE":0,"TOWNNAME":"中西區","LI":"元安里","LIN":"7鄰","STREET":"建安街","SECT":" ","MAREA":" ","LANE":"５１巷","ALLEY":" ","HOUSE_NO":"２６號","E_COORD97":167502.35999999999,"N_COORD97":2543167.54,"ADDRESS":"建安街５１巷２６號","OBJECTID":314944},"geometry":{"x":167502.36000000034,"y":2543167.5399999991}},{"attributes":{"ID":314953,"DIS_CODE":0,"TOWNNAME":"中西區","LI":"元安里","LIN":"7鄰","STREET":"建安街","SECT":" ","MAREA":" ","LANE":"５１巷","ALLEY":" ","HOUSE_NO":"２８號","E_COORD97":167503.03,"N_COORD97":2543163.6899999999,"ADDRESS":"建安街５１巷２８號","OBJECTID":314945},"geometry":{"x":167503.03000000212,"y":2543163.6899999995}},{"attributes":{"ID":314954,"DIS_CODE":0,"TOWNNAME":"中西區","LI":"元安里","LIN":"7鄰","STREET":"建安街","SECT":" ","MAREA":" ","LANE":"５１巷","ALLEY":" ","HOUSE_NO":"２號","E_COORD97":167505.95999999999,"N_COORD97":2543228.0800000001,"ADDRESS":"建安街５１巷２號","OBJECTID":314946},"geometry":{"x":167505.95999999996,"y":2543228.0800000019}},{"attributes":{"ID":314955,"DIS_CODE":0,"TOWNNAME":"中西區","LI":"元安里","LIN":"7鄰","STREET":"建安街","SECT":" ","MAREA":" ","LANE":"５１巷","ALLEY":" ","HOUSE_NO":"３０號","E_COORD97":167507.60999999999,"N_COORD97":2543150.27,"ADDRESS":"建安街５１巷３０號","OBJECTID":314947},"geometry":{"x":167507.6099999994,"y":2543150.2699999996}},{"attributes":{"ID":314956,"DIS_CODE":0,"TOWNNAME":"中西區","LI":"元安里","LIN":"7鄰","STREET":"建安街","SECT":" ","MAREA":" ","LANE":"５１巷","ALLEY":" ","HOUSE_NO":"３２號","E_COORD97":167504.26999999999,"N_COORD97":2543150.4399999999,"ADDRESS":"建安街５１巷３２號","OBJECTID":314948},"geometry":{"x":167504.27000000048,"y":2543150.4400000013}},{"attributes":{"ID":314957,"DIS_CODE":0,"TOWNNAME":"中西區","LI":"元安里","LIN":"7鄰","STREET":"建安街","SECT":" ","MAREA":" ","LANE":"５１巷","ALLEY":" ","HOUSE_NO":"３４號","E_COORD97":167500.51000000001,"N_COORD97":2543150.4399999999,"ADDRESS":"建安街５１巷３４號","OBJECTID":314949},"geometry":{"x":167500.50999999978,"y":2543150.4400000013}},{"attributes":{"ID":314958,"DIS_CODE":0,"TOWNNAME":"南區","LI":"鯤鯓里","LIN":"17鄰","STREET":"鯤鯓路","SECT":" ","MAREA":" ","LANE":" ","ALLEY":" ","HOUSE_NO":"２０４號","E_COORD97":164861.23000000001,"N_COORD97":2540308.4900000002,"ADDRESS":"鯤鯓路２０４號","OBJECTID":314950},"geometry":{"x":164861.23000000138,"y":2540308.4899999984}},{"attributes":{"ID":314959,"DIS_CODE":0,"TOWNNAME":"新營區","LI":"延平里","LIN":"1鄰","STREET":"延平路","SECT":" ","MAREA":" ","LANE":" ","ALLEY":" ","HOUSE_NO":"４６之３５號","E_COORD97":179753.18359500001,"N_COORD97":2577802.01822,"ADDRESS":"延平路４６之３５號","OBJECTID":314951},"geometry":{"x":179753.18359500077,"y":2577802.0182220023}},{"attributes":{"ID":314960,"DIS_CODE":0,"TOWNNAME":"中西區","LI":"元安里","LIN":"7鄰","STREET":"建安街","SECT":" ","MAREA":" ","LANE":"５１巷","ALLEY":" ","HOUSE_NO":"３６號","E_COORD97":167497.34,"N_COORD97":2543150.7799999998,"ADDRESS":"建安街５１巷３６號","OBJECTID":314952},"geometry":{"x":167497.34000000078,"y":2543150.7800000012}},{"attributes":{"ID":314961,"DIS_CODE":0,"TOWNNAME":"中西區","LI":"元安里","LIN":"7鄰","STREET":"建安街","SECT":" ","MAREA":" ","LANE":"５１巷","ALLEY":" ","HOUSE_NO":"３８號","E_COORD97":167492.81,"N_COORD97":2543150.7799999998,"ADDRESS":"建安街５１巷３８號","OBJECTID":314953},"geometry":{"x":167492.81000000052,"y":2543150.7800000012}},{"attributes":{"ID":314962,"DIS_CODE":0,"TOWNNAME":"中西區","LI":"元安里","LIN":"7鄰","STREET":"建安街","SECT":" ","MAREA":" ","LANE":"５１巷","ALLEY":" ","HOUSE_NO":"４０號","E_COORD97":167490.64999999999,"N_COORD97":2543141.96,"ADDRESS":"建安街５１巷４０號","OBJECTID":314954},"geometry":{"x":167490.65000000224,"y":2543141.9600000028}},{"attributes":{"ID":314963,"DIS_CODE":0,"TOWNNAME":"中西區","LI":"元安里","LIN":"7鄰","STREET":"建安街","SECT":" ","MAREA":" ","LANE":"５１巷","ALLEY":" ","HOUSE_NO":"４２號","E_COORD97":167498.89000000001,"N_COORD97":2543143.5099999998,"ADDRESS":"建安街５１巷４２號","OBJECTID":314955},"geometry":{"x":167498.8900000006,"y":2543143.5100000016}},{"attributes":{"ID":314964,"DIS_CODE":0,"TOWNNAME":"中西區","LI":"元安里","LIN":"7鄰","STREET":"建安街","SECT":" ","MAREA":" ","LANE":"５１巷","ALLEY":" ","HOUSE_NO":"４４號","E_COORD97":167502.56,"N_COORD97":2543141.2200000002,"ADDRESS":"建安街５１巷４４號","OBJECTID":314956},"geometry":{"x":167502.56000000052,"y":2543141.2200000007}},{"attributes":{"ID":314965,"DIS_CODE":0,"TOWNNAME":"中西區","LI":"元安里","LIN":"7鄰","STREET":"建安街","SECT":" ","MAREA":" ","LANE":"５１巷","ALLEY":" ","HOUSE_NO":"４號","E_COORD97":167506.5,"N_COORD97":2543223.9900000002,"ADDRESS":"建安街５１巷４號","OBJECTID":314957},"geometry":{"x":167506.50000000186,"y":2543223.9900000002}},{"attributes":{"ID":314966,"DIS_CODE":0,"TOWNNAME":"中西區","LI":"元安里","LIN":"7鄰","STREET":"建安街","SECT":" ","MAREA":" ","LANE":"５１巷","ALLEY":" ","HOUSE_NO":"６號","E_COORD97":167506.23000000001,"N_COORD97":2543220.2599999998,"ADDRESS":"建安街５１巷６號","OBJECTID":314958},"geometry":{"x":167506.23000000045,"y":2543220.2600000016}},{"attributes":{"ID":314967,"DIS_CODE":0,"TOWNNAME":"中西區","LI":"元安里","LIN":"7鄰","STREET":"建安街","SECT":" ","MAREA":" ","LANE":"５１巷","ALLEY":" ","HOUSE_NO":"８號","E_COORD97":167506.23000000001,"N_COORD97":2543215.25,"ADDRESS":"建安街５１巷８號","OBJECTID":314959},"geometry":{"x":167506.23000000045,"y":2543215.25}},{"attributes":{"ID":314968,"DIS_CODE":0,"TOWNNAME":"中西區","LI":"元安里","LIN":"7鄰","STREET":"建安街","SECT":" ","MAREA":" ","LANE":"６１巷","ALLEY":" ","HOUSE_NO":"３０號","E_COORD97":167477.54999999999,"N_COORD97":2543166.1200000001,"ADDRESS":"建安街６１巷３０號","OBJECTID":314960},"geometry":{"x":167477.55000000075,"y":2543166.120000001}},{"attributes":{"ID":314969,"DIS_CODE":0,"TOWNNAME":"中西區","LI":"元安里","LIN":"7鄰","STREET":"建安街","SECT":" ","MAREA":" ","LANE":"５１巷","ALLEY":" ","HOUSE_NO":"４６號","E_COORD97":167506.57000000001,"N_COORD97":2543142.9399999999,"ADDRESS":"建安街５１巷４６號","OBJECTID":314961},"geometry":{"x":167506.57000000123,"y":2543142.9400000013}},{"attributes":{"ID":314970,"DIS_CODE":0,"TOWNNAME":"中西區","LI":"民權里","LIN":"7鄰","STREET":"民權路","SECT":"三段","MAREA":" ","LANE":"１４３巷","ALLEY":" ","HOUSE_NO":"３１號","E_COORD97":167488.37,"N_COORD97":2544176.9199999999,"ADDRESS":"民權路三段１４３巷３１號","OBJECTID":314962},"geometry":{"x":167488.37000000011,"y":2544176.9199999999}},{"attributes":{"ID":314971,"DIS_CODE":0,"TOWNNAME":"南區","LI":"鯤鯓里","LIN":"17鄰","STREET":"鯤鯓路","SECT":" ","MAREA":" ","LANE":" ","ALLEY":" ","HOUSE_NO":"２０６號","E_COORD97":164860.01999999999,"N_COORD97":2540312.48,"ADDRESS":"鯤鯓路２０６號","OBJECTID":314963},"geometry":{"x":164860.02000000048,"y":2540312.4800000042}},{"attributes":{"ID":314972,"DIS_CODE":0,"TOWNNAME":"新營區","LI":"興業里","LIN":"13鄰","STREET":"中興路","SECT":" ","MAREA":" ","LANE":"１３巷","ALLEY":" ","HOUSE_NO":"３２之３號","E_COORD97":180282.88,"N_COORD97":2577960.1299999999,"ADDRESS":"中興路１３巷３２之３號","OBJECTID":314964},"geometry":{"x":180282.88000000082,"y":2577960.1300000027}},{"attributes":{"ID":314973,"DIS_CODE":0,"TOWNNAME":"新營區","LI":"新南里","LIN":"14鄰","STREET":"民治路","SECT":" ","MAREA":" ","LANE":"３００巷","ALLEY":" ","HOUSE_NO":"７０之３號","E_COORD97":178611.70000000001,"N_COORD97":2578659.1400000001,"ADDRESS":"民治路３００巷７０之３號","OBJECTID":314965},"geometry":{"x":178611.70000000019,"y":2578659.1400000006}},{"attributes":{"ID":314974,"DIS_CODE":0,"TOWNNAME":"新營區","LI":"新南里","LIN":"15鄰","STREET":"民治路","SECT":" ","MAREA":" ","LANE":"３００巷","ALLEY":" ","HOUSE_NO":"５５號之１","E_COORD97":178703.78,"N_COORD97":2578528.02,"ADDRESS":"民治路３００巷５５號之１","OBJECTID":314966},"geometry":{"x":178703.78000000119,"y":2578528.0200000014}},{"attributes":{"ID":314975,"DIS_CODE":0,"TOWNNAME":"歸仁區","LI":"南興里","LIN":"13鄰","STREET":"文化十八街","SECT":" ","MAREA":" ","LANE":"１８巷","ALLEY":" ","HOUSE_NO":"９號","E_COORD97":175885.29000000001,"N_COORD97":2541278.3300000001,"ADDRESS":"文化十八街１８巷９號","OBJECTID":314967},"geometry":{"x":175885.29000000004,"y":2541278.3300000001}},{"attributes":{"ID":314976,"DIS_CODE":0,"TOWNNAME":"新化區","LI":"太平里","LIN":"7鄰","STREET":"民生路","SECT":" ","MAREA":" ","LANE":"３１４巷","ALLEY":" ","HOUSE_NO":"３１號","E_COORD97":179017.95999999999,"N_COORD97":2549244.25,"ADDRESS":"民生路３１４巷３１號","OBJECTID":314968},"geometry":{"x":179017.95999999996,"y":2549244.2500000019}},{"attributes":{"ID":314977,"DIS_CODE":0,"TOWNNAME":"新化區","LI":"太平里","LIN":"7鄰","STREET":"民生路","SECT":" ","MAREA":" ","LANE":"３１４巷","ALLEY":" ","HOUSE_NO":"１０２號","E_COORD97":179070.31,"N_COORD97":2549208.25,"ADDRESS":"民生路３１４巷１０２號","OBJECTID":314969},"geometry":{"x":179070.31000000052,"y":2549208.25}},{"attributes":{"ID":314978,"DIS_CODE":0,"TOWNNAME":"新化區","LI":"太平里","LIN":"7鄰","STREET":"民生路","SECT":" ","MAREA":" ","LANE":"３１４巷","ALLEY":" ","HOUSE_NO":"３８號","E_COORD97":179069.45999999999,"N_COORD97":2549224.25,"ADDRESS":"民生路３１４巷３８號","OBJECTID":314970},"geometry":{"x":179069.46000000183,"y":2549224.2500000019}},{"attributes":{"ID":314979,"DIS_CODE":0,"TOWNNAME":"新化區","LI":"太平里","LIN":"7鄰","STREET":"民生路","SECT":" ","MAREA":" ","LANE":"３１４巷","ALLEY":" ","HOUSE_NO":"６３號","E_COORD97":179127.26000000001,"N_COORD97":2549239.25,"ADDRESS":"民生路３１４巷６３號","OBJECTID":314971},"geometry":{"x":179127.26000000071,"y":2549239.25}},{"attributes":{"ID":314980,"DIS_CODE":0,"TOWNNAME":"新化區","LI":"太平里","LIN":"7鄰","STREET":"民生路","SECT":" ","MAREA":" ","LANE":"３１４巷","ALLEY":" ","HOUSE_NO":"４８號","E_COORD97":179103.66,"N_COORD97":2549223.25,"ADDRESS":"民生路３１４巷４８號","OBJECTID":314972},"geometry":{"x":179103.66000000015,"y":2549223.2499999981}},{"attributes":{"ID":314981,"DIS_CODE":0,"TOWNNAME":"新化區","LI":"太平里","LIN":"7鄰","STREET":"民生路","SECT":" ","MAREA":" ","LANE":"３１４巷","ALLEY":" ","HOUSE_NO":"３５號","E_COORD97":179030.95999999999,"N_COORD97":2549244.25,"ADDRESS":"民生路３１４巷３５號","OBJECTID":314973},"geometry":{"x":179030.96000000089,"y":2549244.2500000019}},{"attributes":{"ID":314982,"DIS_CODE":0,"TOWNNAME":"新化區","LI":"太平里","LIN":"7鄰","STREET":"民生路","SECT":" ","MAREA":" ","LANE":"３１４巷","ALLEY":" ","HOUSE_NO":"４９號","E_COORD97":179080.26000000001,"N_COORD97":2549240.25,"ADDRESS":"民生路３１４巷４９號","OBJECTID":314974},"geometry":{"x":179080.25999999978,"y":2549240.2500000037}},{"attributes":{"ID":314983,"DIS_CODE":0,"TOWNNAME":"新化區","LI":"太平里","LIN":"7鄰","STREET":"民生路","SECT":" ","MAREA":" ","LANE":"３１４巷","ALLEY":" ","HOUSE_NO":"７３號","E_COORD97":179093.56,"N_COORD97":2549256.25,"ADDRESS":"民生路３１４巷７３號","OBJECTID":314975},"geometry":{"x":179093.55999999959,"y":2549256.25}},{"attributes":{"ID":314984,"DIS_CODE":0,"TOWNNAME":"新化區","LI":"太平里","LIN":"7鄰","STREET":"民生路","SECT":" ","MAREA":" ","LANE":"３１４巷","ALLEY":" ","HOUSE_NO":"７７號","E_COORD97":179065.56,"N_COORD97":2549257.25,"ADDRESS":"民生路３１４巷７７號","OBJECTID":314976},"geometry":{"x":179065.56000000052,"y":2549257.2500000037}},{"attributes":{"ID":314985,"DIS_CODE":0,"TOWNNAME":"新化區","LI":"太平里","LIN":"7鄰","STREET":"民生路","SECT":" ","MAREA":" ","LANE":"３１４巷","ALLEY":" ","HOUSE_NO":"４３號","E_COORD97":179060.76000000001,"N_COORD97":2549240.25,"ADDRESS":"民生路３１４巷４３號","OBJECTID":314977},"geometry":{"x":179060.76000000071,"y":2549240.2500000037}},{"attributes":{"ID":314986,"DIS_CODE":0,"TOWNNAME":"安南區","LI":"安順里","LIN":"7鄰","STREET":"安和路","SECT":"四段","MAREA":" ","LANE":"２５巷","ALLEY":" ","HOUSE_NO":"６６號","E_COORD97":169786.07999999999,"N_COORD97":2550244.79,"ADDRESS":"安和路四段２５巷６６號","OBJECTID":314978},"geometry":{"x":169786.08000000194,"y":2550244.7899999991}},{"attributes":{"ID":314987,"DIS_CODE":0,"TOWNNAME":"安南區","LI":"安順里","LIN":"7鄰","STREET":"安和路","SECT":"四段","MAREA":" ","LANE":"２５巷","ALLEY":" ","HOUSE_NO":"７２號","E_COORD97":169770.51000000001,"N_COORD97":2550246.5699999998,"ADDRESS":"安和路四段２５巷７２號","OBJECTID":314979},"geometry":{"x":169770.50999999978,"y":2550246.5700000022}},{"attributes":{"ID":314988,"DIS_CODE":0,"TOWNNAME":"安南區","LI":"安順里","LIN":"7鄰","STREET":"安和路","SECT":"四段","MAREA":" ","LANE":"２５巷","ALLEY":" ","HOUSE_NO":"７８號","E_COORD97":169747,"N_COORD97":2550241.8100000001,"ADDRESS":"安和路四段２５巷７８號","OBJECTID":314980},"geometry":{"x":169747,"y":2550241.8100000024}},{"attributes":{"ID":314989,"DIS_CODE":0,"TOWNNAME":"安南區","LI":"安順里","LIN":"7鄰","STREET":"安和路","SECT":"四段","MAREA":" ","LANE":"６７巷","ALLEY":" ","HOUSE_NO":"３６號","E_COORD97":169790.98999999999,"N_COORD97":2550290.2000000002,"ADDRESS":"安和路四段６７巷３６號","OBJECTID":314981},"geometry":{"x":169790.99000000022,"y":2550290.1999999993}},{"attributes":{"ID":314990,"DIS_CODE":0,"TOWNNAME":"安南區","LI":"安順里","LIN":"7鄰","STREET":"安和路","SECT":"四段","MAREA":" ","LANE":"６７巷","ALLEY":" ","HOUSE_NO":"５０號","E_COORD97":169765.89999999999,"N_COORD97":2550267.96,"ADDRESS":"安和路四段６７巷５０號","OBJECTID":314982},"geometry":{"x":169765.9000000013,"y":2550267.9600000028}},{"attributes":{"ID":314991,"DIS_CODE":0,"TOWNNAME":"安南區","LI":"安順里","LIN":"7鄰","STREET":"安和路","SECT":"四段","MAREA":" ","LANE":"６７巷","ALLEY":" ","HOUSE_NO":"５６號","E_COORD97":169755.04000000001,"N_COORD97":2550262.9100000001,"ADDRESS":"安和路四段６７巷５６號","OBJECTID":314983},"geometry":{"x":169755.04000000004,"y":2550262.9100000001}},{"attributes":{"ID":314992,"DIS_CODE":0,"TOWNNAME":"安南區","LI":"安順里","LIN":"7鄰","STREET":"安和路","SECT":"四段","MAREA":" ","LANE":"６７巷","ALLEY":" ","HOUSE_NO":"６０號","E_COORD97":169734.20999999999,"N_COORD97":2550258.8999999999,"ADDRESS":"安和路四段６７巷６０號","OBJECTID":314984},"geometry":{"x":169734.21000000183,"y":2550258.9000000004}},{"attributes":{"ID":314993,"DIS_CODE":0,"TOWNNAME":"安南區","LI":"城南里","LIN":"7鄰","STREET":"城西街","SECT":"一段","MAREA":" ","LANE":"６１巷","ALLEY":" ","HOUSE_NO":"１７９號","E_COORD97":160516.26999999999,"N_COORD97":2551076.8199999998,"ADDRESS":"城西街一段６１巷１７９號","OBJECTID":314985},"geometry":{"x":160516.26999999955,"y":2551076.8200000003}},{"attributes":{"ID":314994,"DIS_CODE":0,"TOWNNAME":"歸仁區","LI":"沙崙里","LIN":"7鄰","STREET":" ","SECT":" ","MAREA":"沙崙","LANE":" ","ALLEY":" ","HOUSE_NO":"２５３號","E_COORD97":179524.28667599999,"N_COORD97":2537799.2316399999,"ADDRESS":"沙崙２５３號","OBJECTID":314986},"geometry":{"x":179524.28667599987,"y":2537799.2316440009}},{"attributes":{"ID":314995,"DIS_CODE":0,"TOWNNAME":"北區","LI":"開元里","LIN":"3鄰","STREET":"北園街","SECT":" ","MAREA":" ","LANE":"９９巷","ALLEY":" ","HOUSE_NO":"５８號","E_COORD97":170186.23999999999,"N_COORD97":2545886.77,"ADDRESS":"北園街９９巷５８號","OBJECTID":314987},"geometry":{"x":170186.24000000022,"y":2545886.7700000033}},{"attributes":{"ID":314996,"DIS_CODE":0,"TOWNNAME":"北區","LI":"開元里","LIN":"3鄰","STREET":"北園街","SECT":" ","MAREA":" ","LANE":"９９巷","ALLEY":" ","HOUSE_NO":"６０號","E_COORD97":170180.25,"N_COORD97":2545887.5299999998,"ADDRESS":"北園街９９巷６０號","OBJECTID":314988},"geometry":{"x":170180.25000000093,"y":2545887.5299999993}},{"attributes":{"ID":314997,"DIS_CODE":0,"TOWNNAME":"北區","LI":"開元里","LIN":"3鄰","STREET":"北園街","SECT":" ","MAREA":" ","LANE":"９９巷","ALLEY":" ","HOUSE_NO":"６２號","E_COORD97":170173.60000000001,"N_COORD97":2545887.9700000002,"ADDRESS":"北園街９９巷６２號","OBJECTID":314989},"geometry":{"x":170173.60000000149,"y":2545887.9700000025}},{"attributes":{"ID":314998,"DIS_CODE":0,"TOWNNAME":"北區","LI":"開元里","LIN":"3鄰","STREET":"北園街","SECT":" ","MAREA":" ","LANE":"９９巷","ALLEY":" ","HOUSE_NO":"６４號","E_COORD97":170168.04000000001,"N_COORD97":2545888.3999999999,"ADDRESS":"北園街９９巷６４號","OBJECTID":314990},"geometry":{"x":170168.04000000097,"y":2545888.4000000004}},{"attributes":{"ID":314999,"DIS_CODE":0,"TOWNNAME":"北區","LI":"開元里","LIN":"17鄰","STREET":"北園街","SECT":" ","MAREA":" ","LANE":"８７巷","ALLEY":" ","HOUSE_NO":"１２５號","E_COORD97":170151.19,"N_COORD97":2545861.6800000002,"ADDRESS":"北園街８７巷１２５號","OBJECTID":314991},"geometry":{"x":170151.19000000041,"y":2545861.6800000016}},{"attributes":{"ID":315000,"DIS_CODE":0,"TOWNNAME":"北區","LI":"開元里","LIN":"17鄰","STREET":"北園街","SECT":" ","MAREA":" ","LANE":"８７巷","ALLEY":" ","HOUSE_NO":"１２７號","E_COORD97":170151.51999999999,"N_COORD97":2545865.9300000002,"ADDRESS":"北園街８７巷１２７號","OBJECTID":314992},"geometry":{"x":170151.51999999955,"y":2545865.9300000016}},{"attributes":{"ID":315001,"DIS_CODE":0,"TOWNNAME":"北區","LI":"開元里","LIN":"4鄰","STREET":"北園街","SECT":" ","MAREA":" ","LANE":"１０９巷","ALLEY":" ","HOUSE_NO":"１１號","E_COORD97":170300.98000000001,"N_COORD97":2545899.75,"ADDRESS":"北園街１０９巷１１號","OBJECTID":314993},"geometry":{"x":170300.98000000138,"y":2545899.75}},{"attributes":{"ID":315002,"DIS_CODE":0,"TOWNNAME":"安南區","LI":"城南里","LIN":"7鄰","STREET":"城西街","SECT":"一段","MAREA":" ","LANE":"６１巷","ALLEY":" ","HOUSE_NO":"１８１號","E_COORD97":160511.79999999999,"N_COORD97":2551073.0899999999,"ADDRESS":"城西街一段６１巷１８１號","OBJECTID":314994},"geometry":{"x":160511.80000000075,"y":2551073.0900000017}},{"attributes":{"ID":315003,"DIS_CODE":0,"TOWNNAME":"安南區","LI":"城南里","LIN":"7鄰","STREET":"城西街","SECT":"一段","MAREA":" ","LANE":"６１巷","ALLEY":" ","HOUSE_NO":"１８３號","E_COORD97":160506.07999999999,"N_COORD97":2551072.1000000001,"ADDRESS":"城西街一段６１巷１８３號","OBJECTID":314995},"geometry":{"x":160506.08000000007,"y":2551072.1000000015}},{"attributes":{"ID":315004,"DIS_CODE":0,"TOWNNAME":"安南區","LI":"城南里","LIN":"7鄰","STREET":"城西街","SECT":"一段","MAREA":" ","LANE":"６１巷","ALLEY":" ","HOUSE_NO":"１８５號","E_COORD97":160502.35000000001,"N_COORD97":2551070.3599999999,"ADDRESS":"城西街一段６１巷１８５號","OBJECTID":314996},"geometry":{"x":160502.34999999963,"y":2551070.3600000013}},{"attributes":{"ID":315005,"DIS_CODE":0,"TOWNNAME":"安南區","LI":"城南里","LIN":"7鄰","STREET":"城西街","SECT":"一段","MAREA":" ","LANE":"６１巷","ALLEY":" ","HOUSE_NO":"１８７號","E_COORD97":160497.37,"N_COORD97":2551069.1200000001,"ADDRESS":"城西街一段６１巷１８７號","OBJECTID":314997},"geometry":{"x":160497.37000000011,"y":2551069.120000001}},{"attributes":{"ID":315006,"DIS_CODE":0,"TOWNNAME":"安南區","LI":"城南里","LIN":"7鄰","STREET":"城西街","SECT":"一段","MAREA":" ","LANE":"６１巷","ALLEY":" ","HOUSE_NO":"１８９號","E_COORD97":160492.14999999999,"N_COORD97":2551068.8700000001,"ADDRESS":"城西街一段６１巷１８９號","OBJECTID":314998},"geometry":{"x":160492.15000000037,"y":2551068.8700000029}},{"attributes":{"ID":315007,"DIS_CODE":0,"TOWNNAME":"安南區","LI":"城南里","LIN":"7鄰","STREET":"城西街","SECT":"一段","MAREA":" ","LANE":"６１巷","ALLEY":" ","HOUSE_NO":"１９３號","E_COORD97":160479.81,"N_COORD97":2551065.4399999999,"ADDRESS":"城西街一段６１巷１９３號","OBJECTID":314999},"geometry":{"x":160479.81000000052,"y":2551065.4399999995}},{"attributes":{"ID":315008,"DIS_CODE":0,"TOWNNAME":"安南區","LI":"城南里","LIN":"7鄰","STREET":"城西街","SECT":"一段","MAREA":" ","LANE":"６１巷","ALLEY":" ","HOUSE_NO":"１９５號","E_COORD97":160475.09,"N_COORD97":2551061.96,"ADDRESS":"城西街一段６１巷１９５號","OBJECTID":315000},"geometry":{"x":160475.08999999985,"y":2551061.9600000028}}]}