{"displayFieldName":"TOWNNAME","fieldAliases":{"ID":"ID","DIS_CODE":"DIS_CODE","TOWNNAME":"TOWNNAME","LI":"LI","LIN":"LIN","STREET":"STREET","SECT":"SECT","MAREA":"MAREA","LANE":"LANE","ALLEY":"ALLEY","HOUSE_NO":"HOUSE_NO","E_COORD97":"E_COORD97","N_COORD97":"N_COORD97","ADDRESS":"ADDRESS","OBJECTID":"OBJECTID"},"geometryType":"esriGeometryPoint","spatialReference":{"wkid":102443,"latestWkid":3826},"fields":[{"name":"ID","type":"esriFieldTypeDouble","alias":"ID"},{"name":"DIS_CODE","type":"esriFieldTypeInteger","alias":"DIS_CODE"},{"name":"TOWNNAME","type":"esriFieldTypeString","alias":"TOWNNAME","length":8},{"name":"LI","type":"esriFieldTypeString","alias":"LI","length":8},{"name":"LIN","type":"esriFieldTypeString","alias":"LIN","length":12},{"name":"STREET","type":"esriFieldTypeString","alias":"STREET","length":20},{"name":"SECT","type":"esriFieldTypeString","alias":"SECT","length":8},{"name":"MAREA","type":"esriFieldTypeString","alias":"MAREA","length":12},{"name":"LANE","type":"esriFieldTypeString","alias":"LANE","length":10},{"name":"ALLEY","type":"esriFieldTypeString","alias":"ALLEY","length":10},{"name":"HOUSE_NO","type":"esriFieldTypeString","alias":"HOUSE_NO","length":20},{"name":"E_COORD97","type":"esriFieldTypeDouble","alias":"E_COORD97"},{"name":"N_COORD97","type":"esriFieldTypeDouble","alias":"N_COORD97"},{"name":"ADDRESS","type":"esriFieldTypeString","alias":"ADDRESS","length":50},{"name":"OBJECTID","type":"esriFieldTypeOID","alias":"OBJECTID"}],"features":[{"attributes":{"ID":212602,"DIS_CODE":0,"TOWNNAME":"新化區","LI":"太平里","LIN":"9鄰","STREET":"中正路","SECT":" ","MAREA":" ","LANE":" ","ALLEY":" ","HOUSE_NO":"６８４號","E_COORD97":178611.60999999999,"N_COORD97":2549584.25,"ADDRESS":"中正路６８４號","OBJECTID":212601},"geometry":{"x":178611.61000000127,"y":2549584.2500000019}},{"attributes":{"ID":212603,"DIS_CODE":0,"TOWNNAME":"東區","LI":"南聖里","LIN":"9鄰","STREET":"裕忠路","SECT":" ","MAREA":" ","LANE":" ","ALLEY":" ","HOUSE_NO":"６４號","E_COORD97":172190.07000000001,"N_COORD97":2543184.4500000002,"ADDRESS":"裕忠路６４號","OBJECTID":212602},"geometry":{"x":172190.07000000216,"y":2543184.4500000011}},{"attributes":{"ID":212604,"DIS_CODE":0,"TOWNNAME":"永康區","LI":"西橋里","LIN":"25鄰","STREET":"中華路","SECT":" ","MAREA":" ","LANE":" ","ALLEY":" ","HOUSE_NO":"８１７號","E_COORD97":170547.60000000001,"N_COORD97":2546619.5,"ADDRESS":"中華路８１７號","OBJECTID":212603},"geometry":{"x":170547.59999999963,"y":2546619.5000000019}},{"attributes":{"ID":212605,"DIS_CODE":0,"TOWNNAME":"永康區","LI":"西橋里","LIN":"25鄰","STREET":"中華路","SECT":" ","MAREA":" ","LANE":" ","ALLEY":" ","HOUSE_NO":"８２５號","E_COORD97":170533.37,"N_COORD97":2546632.25,"ADDRESS":"中華路８２５號","OBJECTID":212604},"geometry":{"x":170533.37000000197,"y":2546632.25}},{"attributes":{"ID":212606,"DIS_CODE":0,"TOWNNAME":"關廟區","LI":"關廟里","LIN":"6鄰","STREET":"民生街","SECT":" ","MAREA":" ","LANE":"２０３巷","ALLEY":" ","HOUSE_NO":"２２號","E_COORD97":180838.985051,"N_COORD97":2539996.3547700001,"ADDRESS":"民生街２０３巷２２號","OBJECTID":212605},"geometry":{"x":180838.98505100049,"y":2539996.3547689989}},{"attributes":{"ID":212607,"DIS_CODE":0,"TOWNNAME":"永康區","LI":"西勢里","LIN":"20鄰","STREET":"富強路","SECT":"一段","MAREA":" ","LANE":" ","ALLEY":" ","HOUSE_NO":"２２１號","E_COORD97":175624,"N_COORD97":2546454.9900000002,"ADDRESS":"富強路一段２２１號","OBJECTID":212606},"geometry":{"x":175624,"y":2546454.9900000002}},{"attributes":{"ID":212608,"DIS_CODE":0,"TOWNNAME":"永康區","LI":"五王里","LIN":"13鄰","STREET":"中華二路","SECT":" ","MAREA":" ","LANE":"２０６巷","ALLEY":"６８弄","HOUSE_NO":"１４１號","E_COORD97":171682.32999999999,"N_COORD97":2545681.46,"ADDRESS":"中華二路２０６巷６８弄１４１號","OBJECTID":212607},"geometry":{"x":171682.33000000007,"y":2545681.4600000028}},{"attributes":{"ID":212609,"DIS_CODE":0,"TOWNNAME":"永康區","LI":"五王里","LIN":"13鄰","STREET":"中華二路","SECT":" ","MAREA":" ","LANE":"２０６巷","ALLEY":"６８弄","HOUSE_NO":"１１５號","E_COORD97":171670.13,"N_COORD97":2545731.2400000002,"ADDRESS":"中華二路２０６巷６８弄１１５號","OBJECTID":212608},"geometry":{"x":171670.12999999989,"y":2545731.2400000002}},{"attributes":{"ID":212610,"DIS_CODE":0,"TOWNNAME":"永康區","LI":"大灣里","LIN":"13鄰","STREET":"大灣路","SECT":" ","MAREA":" ","LANE":"２１５巷","ALLEY":"２４弄","HOUSE_NO":"１號","E_COORD97":175051.67999999999,"N_COORD97":2545289.6099999999,"ADDRESS":"大灣路２１５巷２４弄１號","OBJECTID":212609},"geometry":{"x":175051.6799999997,"y":2545289.6099999994}},{"attributes":{"ID":212611,"DIS_CODE":0,"TOWNNAME":"永康區","LI":"五王里","LIN":"13鄰","STREET":"中華二路","SECT":" ","MAREA":" ","LANE":"２０６巷","ALLEY":"６８弄","HOUSE_NO":"１１１號","E_COORD97":171668.38,"N_COORD97":2545738.9900000002,"ADDRESS":"中華二路２０６巷６８弄１１１號","OBJECTID":212610},"geometry":{"x":171668.37999999989,"y":2545738.9900000002}},{"attributes":{"ID":212612,"DIS_CODE":0,"TOWNNAME":"永康區","LI":"五王里","LIN":"13鄰","STREET":"成功路","SECT":" ","MAREA":" ","LANE":"１７２巷","ALLEY":"６２弄","HOUSE_NO":"２４號","E_COORD97":171652.66,"N_COORD97":2545750.1299999999,"ADDRESS":"成功路１７２巷６２弄２４號","OBJECTID":212611},"geometry":{"x":171652.66000000108,"y":2545750.129999999}},{"attributes":{"ID":212613,"DIS_CODE":0,"TOWNNAME":"安南區","LI":"溪東里","LIN":"13鄰","STREET":"府安路","SECT":"五段","MAREA":" ","LANE":"１１巷","ALLEY":"４７弄","HOUSE_NO":"１０號","E_COORD97":168414.64000000001,"N_COORD97":2547416.8500000001,"ADDRESS":"府安路五段１１巷４７弄１０號","OBJECTID":212612},"geometry":{"x":168414.63999999966,"y":2547416.8500000015}},{"attributes":{"ID":212614,"DIS_CODE":0,"TOWNNAME":"安南區","LI":"溪東里","LIN":"13鄰","STREET":"府安路","SECT":"五段","MAREA":" ","LANE":"１１巷","ALLEY":"４７弄","HOUSE_NO":"１２號","E_COORD97":168408.94,"N_COORD97":2547416.1099999999,"ADDRESS":"府安路五段１１巷４７弄１２號","OBJECTID":212613},"geometry":{"x":168408.94000000041,"y":2547416.1099999994}},{"attributes":{"ID":212615,"DIS_CODE":0,"TOWNNAME":"安南區","LI":"溪東里","LIN":"13鄰","STREET":"府安路","SECT":"五段","MAREA":" ","LANE":"１１巷","ALLEY":"４７弄","HOUSE_NO":"１３號","E_COORD97":168404.48999999999,"N_COORD97":2547395.2200000002,"ADDRESS":"府安路五段１１巷４７弄１３號","OBJECTID":212614},"geometry":{"x":168404.49000000022,"y":2547395.2200000007}},{"attributes":{"ID":212616,"DIS_CODE":0,"TOWNNAME":"安南區","LI":"溪東里","LIN":"13鄰","STREET":"府安路","SECT":"五段","MAREA":" ","LANE":"１１巷","ALLEY":"４７弄","HOUSE_NO":"１７號","E_COORD97":168391.91,"N_COORD97":2547394.5899999999,"ADDRESS":"府安路五段１１巷４７弄１７號","OBJECTID":212615},"geometry":{"x":168391.91000000015,"y":2547394.5900000017}},{"attributes":{"ID":212617,"DIS_CODE":0,"TOWNNAME":"安南區","LI":"溪東里","LIN":"13鄰","STREET":"府安路","SECT":"五段","MAREA":" ","LANE":"１１巷","ALLEY":"４７弄","HOUSE_NO":"１８號","E_COORD97":168388.63,"N_COORD97":2547414.3100000001,"ADDRESS":"府安路五段１１巷４７弄１８號","OBJECTID":212616},"geometry":{"x":168388.63000000175,"y":2547414.3100000024}},{"attributes":{"ID":212618,"DIS_CODE":0,"TOWNNAME":"永康區","LI":"西勢里","LIN":"4鄰","STREET":"富強路","SECT":"一段","MAREA":" ","LANE":" ","ALLEY":" ","HOUSE_NO":"３４７號","E_COORD97":175702.14000000001,"N_COORD97":2546744.9500000002,"ADDRESS":"富強路一段３４７號","OBJECTID":212617},"geometry":{"x":175702.1400000006,"y":2546744.9499999993}},{"attributes":{"ID":212619,"DIS_CODE":0,"TOWNNAME":"七股區","LI":"三股里","LIN":"2鄰","STREET":" ","SECT":" ","MAREA":"三股","LANE":" ","ALLEY":" ","HOUSE_NO":"１６號之３","E_COORD97":159739.89999999999,"N_COORD97":2555386.9100000001,"ADDRESS":"三股１６號之３","OBJECTID":212618},"geometry":{"x":159739.90000000037,"y":2555386.910000002}},{"attributes":{"ID":212620,"DIS_CODE":0,"TOWNNAME":"七股區","LI":"三股里","LIN":"2鄰","STREET":" ","SECT":" ","MAREA":"三股","LANE":" ","ALLEY":" ","HOUSE_NO":"１６號","E_COORD97":159720.81,"N_COORD97":2555427.9900000002,"ADDRESS":"三股１６號","OBJECTID":212619},"geometry":{"x":159720.80999999959,"y":2555427.9900000021}},{"attributes":{"ID":212621,"DIS_CODE":0,"TOWNNAME":"七股區","LI":"三股里","LIN":"2鄰","STREET":" ","SECT":" ","MAREA":"三股","LANE":" ","ALLEY":" ","HOUSE_NO":"１７號之１０","E_COORD97":159661.51999999999,"N_COORD97":2555460.6499999999,"ADDRESS":"三股１７號之１０","OBJECTID":212620},"geometry":{"x":159661.51999999955,"y":2555460.6500000022}},{"attributes":{"ID":212622,"DIS_CODE":0,"TOWNNAME":"七股區","LI":"三股里","LIN":"2鄰","STREET":" ","SECT":" ","MAREA":"三股","LANE":" ","ALLEY":" ","HOUSE_NO":"１７號之１１","E_COORD97":159662.42999999999,"N_COORD97":2555456.52,"ADDRESS":"三股１７號之１１","OBJECTID":212621},"geometry":{"x":159662.4299999997,"y":2555456.5200000014}},{"attributes":{"ID":212623,"DIS_CODE":0,"TOWNNAME":"七股區","LI":"三股里","LIN":"2鄰","STREET":" ","SECT":" ","MAREA":"三股","LANE":" ","ALLEY":" ","HOUSE_NO":"１７號之１２","E_COORD97":159663.34,"N_COORD97":2555452.3900000001,"ADDRESS":"三股１７號之１２","OBJECTID":212622},"geometry":{"x":159663.33999999985,"y":2555452.3900000025}},{"attributes":{"ID":212624,"DIS_CODE":0,"TOWNNAME":"七股區","LI":"三股里","LIN":"2鄰","STREET":" ","SECT":" ","MAREA":"三股","LANE":" ","ALLEY":" ","HOUSE_NO":"１７號之１３","E_COORD97":159664.25,"N_COORD97":2555448.27,"ADDRESS":"三股１７號之１３","OBJECTID":212623},"geometry":{"x":159664.25,"y":2555448.2700000014}},{"attributes":{"ID":212625,"DIS_CODE":0,"TOWNNAME":"七股區","LI":"三股里","LIN":"2鄰","STREET":" ","SECT":" ","MAREA":"三股","LANE":" ","ALLEY":" ","HOUSE_NO":"１７號之１４","E_COORD97":159665.16,"N_COORD97":2555444.1400000001,"ADDRESS":"三股１７號之１４","OBJECTID":212624},"geometry":{"x":159665.15999999922,"y":2555444.1400000025}},{"attributes":{"ID":212626,"DIS_CODE":0,"TOWNNAME":"安南區","LI":"溪東里","LIN":"13鄰","STREET":"府安路","SECT":"五段","MAREA":" ","LANE":"１１巷","ALLEY":"４７弄","HOUSE_NO":"１號","E_COORD97":168443.14000000001,"N_COORD97":2547399.9199999999,"ADDRESS":"府安路五段１１巷４７弄１號","OBJECTID":212625},"geometry":{"x":168443.1400000006,"y":2547399.9199999999}},{"attributes":{"ID":212627,"DIS_CODE":0,"TOWNNAME":"安南區","LI":"溪東里","LIN":"13鄰","STREET":"府安路","SECT":"五段","MAREA":" ","LANE":"１１巷","ALLEY":"４７弄","HOUSE_NO":"２０號","E_COORD97":168381.88,"N_COORD97":2547413.5699999998,"ADDRESS":"府安路五段１１巷４７弄２０號","OBJECTID":212626},"geometry":{"x":168381.88000000175,"y":2547413.5700000003}},{"attributes":{"ID":212628,"DIS_CODE":0,"TOWNNAME":"安南區","LI":"溪東里","LIN":"13鄰","STREET":"府安路","SECT":"五段","MAREA":" ","LANE":"１１巷","ALLEY":"４７弄","HOUSE_NO":"２１號","E_COORD97":168378.14999999999,"N_COORD97":2547394.3300000001,"ADDRESS":"府安路五段１１巷４７弄２１號","OBJECTID":212627},"geometry":{"x":168378.15000000037,"y":2547394.3300000001}},{"attributes":{"ID":212629,"DIS_CODE":0,"TOWNNAME":"安南區","LI":"溪東里","LIN":"13鄰","STREET":"府安路","SECT":"五段","MAREA":" ","LANE":"１１巷","ALLEY":"４７弄","HOUSE_NO":"２３號","E_COORD97":168372.57999999999,"N_COORD97":2547393.8399999999,"ADDRESS":"府安路五段１１巷４７弄２３號","OBJECTID":212628},"geometry":{"x":168372.58000000101,"y":2547393.8399999999}},{"attributes":{"ID":212630,"DIS_CODE":0,"TOWNNAME":"安南區","LI":"頂安里","LIN":"9鄰","STREET":"頂安街","SECT":" ","MAREA":" ","LANE":" ","ALLEY":" ","HOUSE_NO":"５０８號","E_COORD97":168745.84,"N_COORD97":2549327.0899999999,"ADDRESS":"頂安街５０８號","OBJECTID":212629},"geometry":{"x":168745.83999999985,"y":2549327.0900000017}},{"attributes":{"ID":212631,"DIS_CODE":0,"TOWNNAME":"安南區","LI":"溪東里","LIN":"13鄰","STREET":"府安路","SECT":"五段","MAREA":" ","LANE":"１１巷","ALLEY":"４７弄","HOUSE_NO":"２４號","E_COORD97":168368.69,"N_COORD97":2547414.0899999999,"ADDRESS":"府安路五段１１巷４７弄２４號","OBJECTID":212630},"geometry":{"x":168368.69000000134,"y":2547414.0900000036}},{"attributes":{"ID":212632,"DIS_CODE":0,"TOWNNAME":"安南區","LI":"溪東里","LIN":"13鄰","STREET":"府安路","SECT":"五段","MAREA":" ","LANE":"１１巷","ALLEY":"４７弄","HOUSE_NO":"２５號","E_COORD97":168365.45000000001,"N_COORD97":2547393.21,"ADDRESS":"府安路五段１１巷４７弄２５號","OBJECTID":212631},"geometry":{"x":168365.45000000112,"y":2547393.2100000009}},{"attributes":{"ID":212633,"DIS_CODE":0,"TOWNNAME":"安南區","LI":"溪東里","LIN":"13鄰","STREET":"府安路","SECT":"五段","MAREA":" ","LANE":"１１巷","ALLEY":"４７弄","HOUSE_NO":"２６號","E_COORD97":168363.04000000001,"N_COORD97":2547412.9399999999,"ADDRESS":"府安路五段１１巷４７弄２６號","OBJECTID":212632},"geometry":{"x":168363.04000000097,"y":2547412.9399999995}},{"attributes":{"ID":212634,"DIS_CODE":0,"TOWNNAME":"安南區","LI":"溪東里","LIN":"13鄰","STREET":"府安路","SECT":"五段","MAREA":" ","LANE":"１１巷","ALLEY":"４７弄","HOUSE_NO":"２７號","E_COORD97":168360.04000000001,"N_COORD97":2547393.98,"ADDRESS":"府安路五段１１巷４７弄２７號","OBJECTID":212633},"geometry":{"x":168360.04000000004,"y":2547393.9800000004}},{"attributes":{"ID":212635,"DIS_CODE":0,"TOWNNAME":"安南區","LI":"溪東里","LIN":"13鄰","STREET":"府安路","SECT":"五段","MAREA":" ","LANE":"１１巷","ALLEY":"４７弄","HOUSE_NO":"２８號","E_COORD97":168355.97,"N_COORD97":2547413.4700000002,"ADDRESS":"府安路五段１１巷４７弄２８號","OBJECTID":212634},"geometry":{"x":168355.97000000067,"y":2547413.4700000025}},{"attributes":{"ID":212636,"DIS_CODE":0,"TOWNNAME":"安南區","LI":"溪東里","LIN":"13鄰","STREET":"府安路","SECT":"五段","MAREA":" ","LANE":"１１巷","ALLEY":"４７弄","HOUSE_NO":"２號","E_COORD97":168440.37,"N_COORD97":2547419.7999999998,"ADDRESS":"府安路五段１１巷４７弄２號","OBJECTID":212635},"geometry":{"x":168440.37000000104,"y":2547419.8000000007}},{"attributes":{"ID":212637,"DIS_CODE":0,"TOWNNAME":"安南區","LI":"頂安里","LIN":"9鄰","STREET":"頂安街","SECT":" ","MAREA":" ","LANE":" ","ALLEY":" ","HOUSE_NO":"２５８號","E_COORD97":169124.07999999999,"N_COORD97":2549397.5499999998,"ADDRESS":"頂安街２５８號","OBJECTID":212636},"geometry":{"x":169124.08000000007,"y":2549397.5500000007}},{"attributes":{"ID":212638,"DIS_CODE":0,"TOWNNAME":"安南區","LI":"溪東里","LIN":"13鄰","STREET":"府安路","SECT":"五段","MAREA":" ","LANE":"１１巷","ALLEY":"４７弄","HOUSE_NO":"３０號","E_COORD97":168349.12,"N_COORD97":2547411.8900000001,"ADDRESS":"府安路五段１１巷４７弄３０號","OBJECTID":212637},"geometry":{"x":168349.12000000011,"y":2547411.8900000006}},{"attributes":{"ID":212639,"DIS_CODE":0,"TOWNNAME":"安南區","LI":"溪東里","LIN":"13鄰","STREET":"府安路","SECT":"五段","MAREA":" ","LANE":"１１巷","ALLEY":"４７弄","HOUSE_NO":"３４號","E_COORD97":168336.67000000001,"N_COORD97":2547411.3599999999,"ADDRESS":"府安路五段１１巷４７弄３４號","OBJECTID":212638},"geometry":{"x":168336.66999999993,"y":2547411.3599999975}},{"attributes":{"ID":212640,"DIS_CODE":0,"TOWNNAME":"安南區","LI":"溪東里","LIN":"13鄰","STREET":"府安路","SECT":"五段","MAREA":" ","LANE":"１１巷","ALLEY":"４７弄","HOUSE_NO":"３５號","E_COORD97":168332,"N_COORD97":2547386.6400000001,"ADDRESS":"府安路五段１１巷４７弄３５號","OBJECTID":212639},"geometry":{"x":168332.00000000186,"y":2547386.6400000006}},{"attributes":{"ID":212641,"DIS_CODE":0,"TOWNNAME":"安南區","LI":"溪東里","LIN":"13鄰","STREET":"府安路","SECT":"五段","MAREA":" ","LANE":"１１巷","ALLEY":"４７弄","HOUSE_NO":"３６號","E_COORD97":168329.82000000001,"N_COORD97":2547409.6800000002,"ADDRESS":"府安路五段１１巷４７弄３６號","OBJECTID":212640},"geometry":{"x":168329.8200000003,"y":2547409.6800000034}},{"attributes":{"ID":212642,"DIS_CODE":0,"TOWNNAME":"安南區","LI":"溪東里","LIN":"13鄰","STREET":"府安路","SECT":"五段","MAREA":" ","LANE":"１１巷","ALLEY":"４７弄","HOUSE_NO":"３７號","E_COORD97":168324.91,"N_COORD97":2547388.1299999999,"ADDRESS":"府安路五段１１巷４７弄３７號","OBJECTID":212641},"geometry":{"x":168324.91000000108,"y":2547388.129999999}},{"attributes":{"ID":212643,"DIS_CODE":0,"TOWNNAME":"安南區","LI":"溪東里","LIN":"13鄰","STREET":"府安路","SECT":"五段","MAREA":" ","LANE":"１１巷","ALLEY":"４７弄","HOUSE_NO":"３８號","E_COORD97":168323.48999999999,"N_COORD97":2547408.9399999999,"ADDRESS":"府安路五段１１巷４７弄３８號","OBJECTID":212642},"geometry":{"x":168323.49000000022,"y":2547408.9400000013}},{"attributes":{"ID":212644,"DIS_CODE":0,"TOWNNAME":"永康區","LI":"西灣里","LIN":"20鄰","STREET":"大安街","SECT":" ","MAREA":" ","LANE":" ","ALLEY":" ","HOUSE_NO":"３７３號","E_COORD97":174593.07000000001,"N_COORD97":2545820.0699999998,"ADDRESS":"大安街３７３號","OBJECTID":212643},"geometry":{"x":174593.0700000003,"y":2545820.0700000003}},{"attributes":{"ID":212645,"DIS_CODE":0,"TOWNNAME":"安南區","LI":"溪東里","LIN":"13鄰","STREET":"府安路","SECT":"五段","MAREA":" ","LANE":"１１巷","ALLEY":"４７弄","HOUSE_NO":"３９號","E_COORD97":168309.87,"N_COORD97":2547384.5499999998,"ADDRESS":"府安路五段１１巷４７弄３９號","OBJECTID":212644},"geometry":{"x":168309.87000000104,"y":2547384.5500000045}},{"attributes":{"ID":212646,"DIS_CODE":0,"TOWNNAME":"永康區","LI":"西橋里","LIN":"25鄰","STREET":"中華路","SECT":" ","MAREA":" ","LANE":" ","ALLEY":" ","HOUSE_NO":"７７７號","E_COORD97":170666.04000000001,"N_COORD97":2546540.5,"ADDRESS":"中華路７７７號","OBJECTID":212645},"geometry":{"x":170666.0400000019,"y":2546540.5000000019}},{"attributes":{"ID":212647,"DIS_CODE":0,"TOWNNAME":"安南區","LI":"溪東里","LIN":"13鄰","STREET":"府安路","SECT":"五段","MAREA":" ","LANE":"１１巷","ALLEY":"４７弄","HOUSE_NO":"３號","E_COORD97":168437.17000000001,"N_COORD97":2547399.4199999999,"ADDRESS":"府安路五段１１巷４７弄３號","OBJECTID":212646},"geometry":{"x":168437.16999999993,"y":2547399.4200000018}},{"attributes":{"ID":212648,"DIS_CODE":0,"TOWNNAME":"安南區","LI":"溪東里","LIN":"13鄰","STREET":"府安路","SECT":"五段","MAREA":" ","LANE":"１１巷","ALLEY":"４７弄","HOUSE_NO":"４０號","E_COORD97":168307.06,"N_COORD97":2547409.8799999999,"ADDRESS":"府安路五段１１巷４７弄４０號","OBJECTID":212647},"geometry":{"x":168307.05999999959,"y":2547409.879999999}},{"attributes":{"ID":212649,"DIS_CODE":0,"TOWNNAME":"永康區","LI":"西勢里","LIN":"24鄰","STREET":"廣興街","SECT":" ","MAREA":" ","LANE":" ","ALLEY":" ","HOUSE_NO":"６８號","E_COORD97":176093.97,"N_COORD97":2546564.5299999998,"ADDRESS":"廣興街６８號","OBJECTID":212648},"geometry":{"x":176093.96999999974,"y":2546564.5299999993}},{"attributes":{"ID":212650,"DIS_CODE":0,"TOWNNAME":"永康區","LI":"西灣里","LIN":"14鄰","STREET":"大灣五街","SECT":" ","MAREA":" ","LANE":" ","ALLEY":" ","HOUSE_NO":"７０號","E_COORD97":174710.60000000001,"N_COORD97":2545275.77,"ADDRESS":"大灣五街７０號","OBJECTID":212649},"geometry":{"x":174710.60000000056,"y":2545275.7699999996}},{"attributes":{"ID":212651,"DIS_CODE":0,"TOWNNAME":"永康區","LI":"西勢里","LIN":"4鄰","STREET":"富強路","SECT":"一段","MAREA":" ","LANE":" ","ALLEY":" ","HOUSE_NO":"３４９號","E_COORD97":175701.44,"N_COORD97":2546750.7000000002,"ADDRESS":"富強路一段３４９號","OBJECTID":212650},"geometry":{"x":175701.44000000041,"y":2546750.6999999993}},{"attributes":{"ID":212652,"DIS_CODE":0,"TOWNNAME":"永康區","LI":"西灣里","LIN":"4鄰","STREET":"大灣五街","SECT":" ","MAREA":" ","LANE":" ","ALLEY":" ","HOUSE_NO":"４７號","E_COORD97":174740.28,"N_COORD97":2545236.3999999999,"ADDRESS":"大灣五街４７號","OBJECTID":212651},"geometry":{"x":174740.28000000119,"y":2545236.4000000022}},{"attributes":{"ID":212653,"DIS_CODE":0,"TOWNNAME":"永康區","LI":"西勢里","LIN":"4鄰","STREET":"西勢路","SECT":" ","MAREA":" ","LANE":" ","ALLEY":" ","HOUSE_NO":"２６９號","E_COORD97":175669.35000000001,"N_COORD97":2546761.29,"ADDRESS":"西勢路２６９號","OBJECTID":212652},"geometry":{"x":175669.35000000149,"y":2546761.290000001}},{"attributes":{"ID":212654,"DIS_CODE":0,"TOWNNAME":"永康區","LI":"西灣里","LIN":"18鄰","STREET":"大安街","SECT":" ","MAREA":" ","LANE":" ","ALLEY":" ","HOUSE_NO":"２５７號","E_COORD97":174693.13,"N_COORD97":2545451.9900000002,"ADDRESS":"大安街２５７號","OBJECTID":212653},"geometry":{"x":174693.13000000175,"y":2545451.9900000039}},{"attributes":{"ID":212655,"DIS_CODE":0,"TOWNNAME":"七股區","LI":"三股里","LIN":"2鄰","STREET":" ","SECT":" ","MAREA":"三股","LANE":" ","ALLEY":" ","HOUSE_NO":"１７號之１５","E_COORD97":159671.76000000001,"N_COORD97":2555439.29,"ADDRESS":"三股１７號之１５","OBJECTID":212654},"geometry":{"x":159671.76000000071,"y":2555439.2899999991}},{"attributes":{"ID":212656,"DIS_CODE":0,"TOWNNAME":"七股區","LI":"三股里","LIN":"2鄰","STREET":" ","SECT":" ","MAREA":"三股","LANE":" ","ALLEY":" ","HOUSE_NO":"１７號之１６","E_COORD97":159672.06,"N_COORD97":2555435.1400000001,"ADDRESS":"三股１７號之１６","OBJECTID":212655},"geometry":{"x":159672.06000000145,"y":2555435.1400000006}},{"attributes":{"ID":212657,"DIS_CODE":0,"TOWNNAME":"安南區","LI":"頂安里","LIN":"9鄰","STREET":"頂安街","SECT":" ","MAREA":" ","LANE":" ","ALLEY":" ","HOUSE_NO":"３２４號","E_COORD97":169026.92999999999,"N_COORD97":2549398.0099999998,"ADDRESS":"頂安街３２４號","OBJECTID":212656},"geometry":{"x":169026.9299999997,"y":2549398.0100000016}},{"attributes":{"ID":212658,"DIS_CODE":0,"TOWNNAME":"安南區","LI":"溪東里","LIN":"13鄰","STREET":"府安路","SECT":"五段","MAREA":" ","LANE":"１１巷","ALLEY":"４７弄","HOUSE_NO":"４１號","E_COORD97":168303.62,"N_COORD97":2547385.7400000002,"ADDRESS":"府安路五段１１巷４７弄４１號","OBJECTID":212657},"geometry":{"x":168303.62000000011,"y":2547385.7400000002}},{"attributes":{"ID":212659,"DIS_CODE":0,"TOWNNAME":"安南區","LI":"溪東里","LIN":"13鄰","STREET":"府安路","SECT":"五段","MAREA":" ","LANE":"１１巷","ALLEY":"４７弄","HOUSE_NO":"４２號","E_COORD97":168300.98999999999,"N_COORD97":2547406.6600000001,"ADDRESS":"府安路五段１１巷４７弄４２號","OBJECTID":212658},"geometry":{"x":168300.99000000022,"y":2547406.6599999983}},{"attributes":{"ID":212660,"DIS_CODE":0,"TOWNNAME":"安南區","LI":"頂安里","LIN":"9鄰","STREET":"頂安街","SECT":" ","MAREA":" ","LANE":" ","ALLEY":" ","HOUSE_NO":"３２８號","E_COORD97":169016.66,"N_COORD97":2549399.6000000001,"ADDRESS":"頂安街３２８號","OBJECTID":212659},"geometry":{"x":169016.66000000108,"y":2549399.5999999996}},{"attributes":{"ID":212661,"DIS_CODE":0,"TOWNNAME":"北區","LI":"賢北里","LIN":"13鄰","STREET":"賢北街","SECT":" ","MAREA":" ","LANE":"２７巷","ALLEY":"２０弄","HOUSE_NO":"２號","E_COORD97":166213.10000000001,"N_COORD97":2545384.5,"ADDRESS":"賢北街２７巷２０弄２號","OBJECTID":212660},"geometry":{"x":166213.09999999963,"y":2545384.5000000019}},{"attributes":{"ID":212662,"DIS_CODE":0,"TOWNNAME":"安南區","LI":"溪東里","LIN":"13鄰","STREET":"府安路","SECT":"五段","MAREA":" ","LANE":"１１巷","ALLEY":"４７弄","HOUSE_NO":"４號","E_COORD97":168434.89000000001,"N_COORD97":2547419.0600000001,"ADDRESS":"府安路五段１１巷４７弄４號","OBJECTID":212661},"geometry":{"x":168434.8900000006,"y":2547419.0600000024}},{"attributes":{"ID":212663,"DIS_CODE":0,"TOWNNAME":"新化區","LI":"全興里","LIN":"9鄰","STREET":" ","SECT":" ","MAREA":"竹子\u25A0","LANE":" ","ALLEY":" ","HOUSE_NO":"１２４號","E_COORD97":177539.53,"N_COORD97":2547677.25,"ADDRESS":"竹子\u25A0１２４號","OBJECTID":212662},"geometry":{"x":177539.53000000026,"y":2547677.2500000037}},{"attributes":{"ID":212664,"DIS_CODE":0,"TOWNNAME":"新化區","LI":"全興里","LIN":"9鄰","STREET":" ","SECT":" ","MAREA":"竹子\u25A0","LANE":" ","ALLEY":" ","HOUSE_NO":"１２１號","E_COORD97":177548.63,"N_COORD97":2547699.25,"ADDRESS":"竹子\u25A0１２１號","OBJECTID":212663},"geometry":{"x":177548.62999999989,"y":2547699.2500000019}},{"attributes":{"ID":212665,"DIS_CODE":0,"TOWNNAME":"新化區","LI":"全興里","LIN":"9鄰","STREET":" ","SECT":" ","MAREA":"竹子\u25A0","LANE":" ","ALLEY":" ","HOUSE_NO":"１２７號","E_COORD97":177496.03,"N_COORD97":2547661.25,"ADDRESS":"竹子\u25A0１２７號","OBJECTID":212664},"geometry":{"x":177496.03000000026,"y":2547661.2500000019}},{"attributes":{"ID":212666,"DIS_CODE":0,"TOWNNAME":"新化區","LI":"全興里","LIN":"9鄰","STREET":" ","SECT":" ","MAREA":"竹子\u25A0","LANE":" ","ALLEY":" ","HOUSE_NO":"１２３號","E_COORD97":177535.82999999999,"N_COORD97":2547680.25,"ADDRESS":"竹子\u25A0１２３號","OBJECTID":212665},"geometry":{"x":177535.83000000007,"y":2547680.25}},{"attributes":{"ID":212667,"DIS_CODE":0,"TOWNNAME":"新化區","LI":"全興里","LIN":"9鄰","STREET":" ","SECT":" ","MAREA":"竹子\u25A0","LANE":" ","ALLEY":" ","HOUSE_NO":"１１９號","E_COORD97":177538.82999999999,"N_COORD97":2547703.25,"ADDRESS":"竹子\u25A0１１９號","OBJECTID":212666},"geometry":{"x":177538.83000000101,"y":2547703.25}},{"attributes":{"ID":212668,"DIS_CODE":0,"TOWNNAME":"新化區","LI":"全興里","LIN":"9鄰","STREET":" ","SECT":" ","MAREA":"竹子\u25A0","LANE":" ","ALLEY":" ","HOUSE_NO":"１２５號","E_COORD97":177551.32999999999,"N_COORD97":2547669.25,"ADDRESS":"竹子\u25A0１２５號","OBJECTID":212667},"geometry":{"x":177551.33000000007,"y":2547669.25}},{"attributes":{"ID":212669,"DIS_CODE":0,"TOWNNAME":"新化區","LI":"大坑里","LIN":"9鄰","STREET":" ","SECT":" ","MAREA":"大坑尾","LANE":" ","ALLEY":" ","HOUSE_NO":"４９號","E_COORD97":185658.88,"N_COORD97":2545301.25,"ADDRESS":"大坑尾４９號","OBJECTID":212668},"geometry":{"x":185658.87999999989,"y":2545301.2500000019}},{"attributes":{"ID":212670,"DIS_CODE":0,"TOWNNAME":"新化區","LI":"全興里","LIN":"9鄰","STREET":" ","SECT":" ","MAREA":"竹子\u25A0","LANE":" ","ALLEY":" ","HOUSE_NO":"１１１號","E_COORD97":177525.42999999999,"N_COORD97":2547721.25,"ADDRESS":"竹子\u25A0１１１號","OBJECTID":212669},"geometry":{"x":177525.43000000063,"y":2547721.2499999981}},{"attributes":{"ID":212671,"DIS_CODE":0,"TOWNNAME":"七股區","LI":"三股里","LIN":"2鄰","STREET":" ","SECT":" ","MAREA":"三股","LANE":" ","ALLEY":" ","HOUSE_NO":"１７號之２","E_COORD97":159655.56,"N_COORD97":2555493.8300000001,"ADDRESS":"三股１７號之２","OBJECTID":212670},"geometry":{"x":159655.56000000052,"y":2555493.8300000001}},{"attributes":{"ID":212672,"DIS_CODE":0,"TOWNNAME":"七股區","LI":"三股里","LIN":"2鄰","STREET":" ","SECT":" ","MAREA":"三股","LANE":" ","ALLEY":" ","HOUSE_NO":"１７號之３","E_COORD97":159655.98999999999,"N_COORD97":2555489.77,"ADDRESS":"三股１７號之３","OBJECTID":212671},"geometry":{"x":159655.99000000022,"y":2555489.7700000014}},{"attributes":{"ID":212673,"DIS_CODE":0,"TOWNNAME":"七股區","LI":"三股里","LIN":"2鄰","STREET":" ","SECT":" ","MAREA":"三股","LANE":" ","ALLEY":" ","HOUSE_NO":"１８號之３","E_COORD97":159716.48999999999,"N_COORD97":2555518.52,"ADDRESS":"三股１８號之３","OBJECTID":212672},"geometry":{"x":159716.49000000022,"y":2555518.5200000014}},{"attributes":{"ID":212674,"DIS_CODE":0,"TOWNNAME":"七股區","LI":"三股里","LIN":"2鄰","STREET":" ","SECT":" ","MAREA":"三股","LANE":" ","ALLEY":" ","HOUSE_NO":"１９號","E_COORD97":159696.70999999999,"N_COORD97":2555528.8399999999,"ADDRESS":"三股１９號","OBJECTID":212673},"geometry":{"x":159696.70999999996,"y":2555528.8400000036}},{"attributes":{"ID":212675,"DIS_CODE":0,"TOWNNAME":"七股區","LI":"三股里","LIN":"2鄰","STREET":" ","SECT":" ","MAREA":"三股","LANE":" ","ALLEY":" ","HOUSE_NO":"２１號","E_COORD97":159656.79999999999,"N_COORD97":2555508.6899999999,"ADDRESS":"三股２１號","OBJECTID":212674},"geometry":{"x":159656.79999999981,"y":2555508.6899999995}},{"attributes":{"ID":212676,"DIS_CODE":0,"TOWNNAME":"七股區","LI":"三股里","LIN":"2鄰","STREET":" ","SECT":" ","MAREA":"三股","LANE":" ","ALLEY":" ","HOUSE_NO":"２２號之１","E_COORD97":159655.38,"N_COORD97":2555512.8900000001,"ADDRESS":"三股２２號之１","OBJECTID":212675},"geometry":{"x":159655.38000000082,"y":2555512.8900000025}},{"attributes":{"ID":212677,"DIS_CODE":0,"TOWNNAME":"新化區","LI":"豐榮里","LIN":"9鄰","STREET":"中山路","SECT":" ","MAREA":" ","LANE":" ","ALLEY":" ","HOUSE_NO":"５１７號","E_COORD97":178525.70999999999,"N_COORD97":2548416.25,"ADDRESS":"中山路５１７號","OBJECTID":212676},"geometry":{"x":178525.71000000089,"y":2548416.2499999981}},{"attributes":{"ID":212678,"DIS_CODE":0,"TOWNNAME":"七股區","LI":"三股里","LIN":"2鄰","STREET":" ","SECT":" ","MAREA":"三股","LANE":" ","ALLEY":" ","HOUSE_NO":"２３號","E_COORD97":159655.45999999999,"N_COORD97":2555520.6800000002,"ADDRESS":"三股２３號","OBJECTID":212677},"geometry":{"x":159655.45999999996,"y":2555520.6800000016}},{"attributes":{"ID":212679,"DIS_CODE":0,"TOWNNAME":"七股區","LI":"大埕里","LIN":"2鄰","STREET":" ","SECT":" ","MAREA":"大埕","LANE":" ","ALLEY":" ","HOUSE_NO":"９３號","E_COORD97":162869.47,"N_COORD97":2561004.4399999999,"ADDRESS":"大埕９３號","OBJECTID":212678},"geometry":{"x":162869.46999999974,"y":2561004.4400000013}},{"attributes":{"ID":212680,"DIS_CODE":0,"TOWNNAME":"七股區","LI":"大寮里","LIN":"2鄰","STREET":" ","SECT":" ","MAREA":"大寮","LANE":" ","ALLEY":" ","HOUSE_NO":"１０號","E_COORD97":163002.95999999999,"N_COORD97":2560964.7200000002,"ADDRESS":"大寮１０號","OBJECTID":212679},"geometry":{"x":163002.96000000089,"y":2560964.7200000007}},{"attributes":{"ID":212681,"DIS_CODE":0,"TOWNNAME":"七股區","LI":"大寮里","LIN":"2鄰","STREET":" ","SECT":" ","MAREA":"大寮","LANE":" ","ALLEY":" ","HOUSE_NO":"１１號之１","E_COORD97":163016.91,"N_COORD97":2560934.4399999999,"ADDRESS":"大寮１１號之１","OBJECTID":212680},"geometry":{"x":163016.91000000108,"y":2560934.4399999995}},{"attributes":{"ID":212682,"DIS_CODE":0,"TOWNNAME":"七股區","LI":"大寮里","LIN":"2鄰","STREET":" ","SECT":" ","MAREA":"大寮","LANE":" ","ALLEY":" ","HOUSE_NO":"１１號","E_COORD97":163030.03,"N_COORD97":2560952.8199999998,"ADDRESS":"大寮１１號","OBJECTID":212681},"geometry":{"x":163030.03000000119,"y":2560952.8200000003}},{"attributes":{"ID":212683,"DIS_CODE":0,"TOWNNAME":"七股區","LI":"大寮里","LIN":"2鄰","STREET":" ","SECT":" ","MAREA":"大寮","LANE":" ","ALLEY":" ","HOUSE_NO":"４號之１","E_COORD97":162963.20000000001,"N_COORD97":2560894.0499999998,"ADDRESS":"大寮４號之１","OBJECTID":212682},"geometry":{"x":162963.20000000019,"y":2560894.0500000007}},{"attributes":{"ID":212684,"DIS_CODE":0,"TOWNNAME":"七股區","LI":"大寮里","LIN":"2鄰","STREET":" ","SECT":" ","MAREA":"大寮","LANE":" ","ALLEY":" ","HOUSE_NO":"４號之２","E_COORD97":162955.51999999999,"N_COORD97":2560900.29,"ADDRESS":"大寮４號之２","OBJECTID":212683},"geometry":{"x":162955.51999999955,"y":2560900.290000001}},{"attributes":{"ID":212685,"DIS_CODE":0,"TOWNNAME":"七股區","LI":"大寮里","LIN":"2鄰","STREET":" ","SECT":" ","MAREA":"大寮","LANE":" ","ALLEY":" ","HOUSE_NO":"４號之３","E_COORD97":162950.73000000001,"N_COORD97":2560903.73,"ADDRESS":"大寮４號之３","OBJECTID":212684},"geometry":{"x":162950.73000000138,"y":2560903.7300000042}},{"attributes":{"ID":212686,"DIS_CODE":0,"TOWNNAME":"安南區","LI":"溪東里","LIN":"13鄰","STREET":"府安路","SECT":"五段","MAREA":" ","LANE":"１１巷","ALLEY":"４７弄","HOUSE_NO":"５號","E_COORD97":168430.17999999999,"N_COORD97":2547399.1600000001,"ADDRESS":"府安路五段１１巷４７弄５號","OBJECTID":212685},"geometry":{"x":168430.1799999997,"y":2547399.1600000001}},{"attributes":{"ID":212687,"DIS_CODE":0,"TOWNNAME":"安南區","LI":"溪東里","LIN":"13鄰","STREET":"府安路","SECT":"五段","MAREA":" ","LANE":"１１巷","ALLEY":"４７弄","HOUSE_NO":"６號","E_COORD97":168428.67000000001,"N_COORD97":2547418.2200000002,"ADDRESS":"府安路五段１１巷４７弄６號","OBJECTID":212686},"geometry":{"x":168428.66999999993,"y":2547418.2200000025}},{"attributes":{"ID":212688,"DIS_CODE":0,"TOWNNAME":"新化區","LI":"全興里","LIN":"9鄰","STREET":" ","SECT":" ","MAREA":"竹子\u25A0","LANE":" ","ALLEY":" ","HOUSE_NO":"１５３號","E_COORD97":177488.13,"N_COORD97":2547588.25,"ADDRESS":"竹子\u25A0１５３號","OBJECTID":212687},"geometry":{"x":177488.12999999989,"y":2547588.25}},{"attributes":{"ID":212689,"DIS_CODE":0,"TOWNNAME":"七股區","LI":"大埕里","LIN":"2鄰","STREET":" ","SECT":" ","MAREA":"大埕","LANE":" ","ALLEY":" ","HOUSE_NO":"１０２號","E_COORD97":162832.53,"N_COORD97":2560981.9100000001,"ADDRESS":"大埕１０２號","OBJECTID":212688},"geometry":{"x":162832.53000000026,"y":2560981.910000002}},{"attributes":{"ID":212690,"DIS_CODE":0,"TOWNNAME":"七股區","LI":"大埕里","LIN":"2鄰","STREET":" ","SECT":" ","MAREA":"大埕","LANE":" ","ALLEY":" ","HOUSE_NO":"１０３號","E_COORD97":162828.19,"N_COORD97":2560979.1800000002,"ADDRESS":"大埕１０３號","OBJECTID":212689},"geometry":{"x":162828.19000000041,"y":2560979.1800000016}},{"attributes":{"ID":212691,"DIS_CODE":0,"TOWNNAME":"七股區","LI":"大埕里","LIN":"2鄰","STREET":" ","SECT":" ","MAREA":"大埕","LANE":" ","ALLEY":" ","HOUSE_NO":"１０４號","E_COORD97":162825.28,"N_COORD97":2560977.0099999998,"ADDRESS":"大埕１０４號","OBJECTID":212690},"geometry":{"x":162825.28000000026,"y":2560977.0100000016}},{"attributes":{"ID":212692,"DIS_CODE":0,"TOWNNAME":"七股區","LI":"大埕里","LIN":"2鄰","STREET":" ","SECT":" ","MAREA":"大埕","LANE":" ","ALLEY":" ","HOUSE_NO":"１０５號","E_COORD97":162822.29999999999,"N_COORD97":2560974.7200000002,"ADDRESS":"大埕１０５號","OBJECTID":212691},"geometry":{"x":162822.30000000075,"y":2560974.7200000007}},{"attributes":{"ID":212693,"DIS_CODE":0,"TOWNNAME":"七股區","LI":"大埕里","LIN":"2鄰","STREET":" ","SECT":" ","MAREA":"大埕","LANE":" ","ALLEY":" ","HOUSE_NO":"１０７號","E_COORD97":162846.72,"N_COORD97":2561062.1800000002,"ADDRESS":"大埕１０７號","OBJECTID":212692},"geometry":{"x":162846.72000000067,"y":2561062.1799999997}},{"attributes":{"ID":212694,"DIS_CODE":0,"TOWNNAME":"七股區","LI":"玉成里","LIN":"2鄰","STREET":" ","SECT":" ","MAREA":"玉成","LANE":" ","ALLEY":" ","HOUSE_NO":"１１號之１","E_COORD97":161432.04000000001,"N_COORD97":2559934.98,"ADDRESS":"玉成１１號之１","OBJECTID":212693},"geometry":{"x":161432.04000000004,"y":2559934.9800000004}},{"attributes":{"ID":212695,"DIS_CODE":0,"TOWNNAME":"安南區","LI":"溪東里","LIN":"13鄰","STREET":"府安路","SECT":"五段","MAREA":" ","LANE":"１１巷","ALLEY":"４７弄","HOUSE_NO":"７號","E_COORD97":168422.81,"N_COORD97":2547398.02,"ADDRESS":"府安路五段１１巷４７弄７號","OBJECTID":212694},"geometry":{"x":168422.81000000052,"y":2547398.0200000014}},{"attributes":{"ID":212696,"DIS_CODE":0,"TOWNNAME":"七股區","LI":"玉成里","LIN":"2鄰","STREET":" ","SECT":" ","MAREA":"玉成","LANE":" ","ALLEY":" ","HOUSE_NO":"１１號","E_COORD97":161440.98000000001,"N_COORD97":2559954.46,"ADDRESS":"玉成１１號","OBJECTID":212695},"geometry":{"x":161440.98000000045,"y":2559954.4600000028}},{"attributes":{"ID":212697,"DIS_CODE":0,"TOWNNAME":"七股區","LI":"大埕里","LIN":"2鄰","STREET":" ","SECT":" ","MAREA":"大埕","LANE":" ","ALLEY":" ","HOUSE_NO":"９４號","E_COORD97":162870.82000000001,"N_COORD97":2561027.7000000002,"ADDRESS":"大埕９４號","OBJECTID":212696},"geometry":{"x":162870.8200000003,"y":2561027.6999999993}},{"attributes":{"ID":212698,"DIS_CODE":0,"TOWNNAME":"七股區","LI":"大埕里","LIN":"2鄰","STREET":" ","SECT":" ","MAREA":"大埕","LANE":" ","ALLEY":" ","HOUSE_NO":"９５號","E_COORD97":162853.12,"N_COORD97":2560995.21,"ADDRESS":"大埕９５號","OBJECTID":212697},"geometry":{"x":162853.12000000104,"y":2560995.2100000009}},{"attributes":{"ID":212699,"DIS_CODE":0,"TOWNNAME":"七股區","LI":"大埕里","LIN":"2鄰","STREET":" ","SECT":" ","MAREA":"大埕","LANE":" ","ALLEY":" ","HOUSE_NO":"９６號","E_COORD97":162857.72,"N_COORD97":2560997.5,"ADDRESS":"大埕９６號","OBJECTID":212698},"geometry":{"x":162857.71999999974,"y":2560997.5000000019}},{"attributes":{"ID":212700,"DIS_CODE":0,"TOWNNAME":"安南區","LI":"溪東里","LIN":"13鄰","STREET":"府安路","SECT":"五段","MAREA":" ","LANE":"１１巷","ALLEY":"４７弄","HOUSE_NO":"８號","E_COORD97":168421.39000000001,"N_COORD97":2547417.0600000001,"ADDRESS":"府安路五段１１巷４７弄８號","OBJECTID":212699},"geometry":{"x":168421.38999999966,"y":2547417.0600000005}},{"attributes":{"ID":212701,"DIS_CODE":0,"TOWNNAME":"七股區","LI":"大埕里","LIN":"2鄰","STREET":" ","SECT":" ","MAREA":"大埕","LANE":" ","ALLEY":" ","HOUSE_NO":"９７號","E_COORD97":162849.34,"N_COORD97":2560993.3900000001,"ADDRESS":"大埕９７號","OBJECTID":212700},"geometry":{"x":162849.34000000078,"y":2560993.3900000006}},{"attributes":{"ID":212702,"DIS_CODE":0,"TOWNNAME":"七股區","LI":"中寮里","LIN":"2鄰","STREET":" ","SECT":" ","MAREA":"中寮","LANE":" ","ALLEY":" ","HOUSE_NO":"１３號","E_COORD97":158883.38,"N_COORD97":2560872.7999999998,"ADDRESS":"中寮１３號","OBJECTID":212701},"geometry":{"x":158883.37999999989,"y":2560872.8000000007}},{"attributes":{"ID":212703,"DIS_CODE":0,"TOWNNAME":"七股區","LI":"中寮里","LIN":"2鄰","STREET":" ","SECT":" ","MAREA":"中寮","LANE":" ","ALLEY":" ","HOUSE_NO":"１５號之１","E_COORD97":158913.60000000001,"N_COORD97":2560837.8199999998,"ADDRESS":"中寮１５號之１","OBJECTID":212702},"geometry":{"x":158913.59999999963,"y":2560837.8200000003}},{"attributes":{"ID":212704,"DIS_CODE":0,"TOWNNAME":"永康區","LI":"正強里","LIN":"13鄰","STREET":"正強街","SECT":" ","MAREA":" ","LANE":"１５１巷","ALLEY":"１１弄","HOUSE_NO":"１０號","E_COORD97":173289.03,"N_COORD97":2547480.1800000002,"ADDRESS":"正強街１５１巷１１弄１０號","OBJECTID":212703},"geometry":{"x":173289.03000000119,"y":2547480.1799999997}},{"attributes":{"ID":212705,"DIS_CODE":0,"TOWNNAME":"永康區","LI":"正強里","LIN":"13鄰","STREET":"正強街","SECT":" ","MAREA":" ","LANE":"１５１巷","ALLEY":"１１弄","HOUSE_NO":"１１號","E_COORD97":173302.56,"N_COORD97":2547469.0499999998,"ADDRESS":"正強街１５１巷１１弄１１號","OBJECTID":212704},"geometry":{"x":173302.55999999959,"y":2547469.0499999989}},{"attributes":{"ID":212706,"DIS_CODE":0,"TOWNNAME":"七股區","LI":"中寮里","LIN":"2鄰","STREET":" ","SECT":" ","MAREA":"中寮","LANE":" ","ALLEY":" ","HOUSE_NO":"１５號之２","E_COORD97":158938.64000000001,"N_COORD97":2560843.52,"ADDRESS":"中寮１５號之２","OBJECTID":212705},"geometry":{"x":158938.63999999966,"y":2560843.5200000033}},{"attributes":{"ID":212707,"DIS_CODE":0,"TOWNNAME":"永康區","LI":"正強里","LIN":"13鄰","STREET":"正強街","SECT":" ","MAREA":" ","LANE":"１５１巷","ALLEY":"１１弄","HOUSE_NO":"１２號","E_COORD97":173290.62,"N_COORD97":2547472.71,"ADDRESS":"正強街１５１巷１１弄１２號","OBJECTID":212706},"geometry":{"x":173290.62000000011,"y":2547472.7100000028}},{"attributes":{"ID":212708,"DIS_CODE":0,"TOWNNAME":"永康區","LI":"正強里","LIN":"13鄰","STREET":"正強街","SECT":" ","MAREA":" ","LANE":"１５１巷","ALLEY":"１１弄","HOUSE_NO":"１６號","E_COORD97":173292.53,"N_COORD97":2547465.8599999999,"ADDRESS":"正強街１５１巷１１弄１６號","OBJECTID":212707},"geometry":{"x":173292.53000000119,"y":2547465.8600000031}},{"attributes":{"ID":212709,"DIS_CODE":0,"TOWNNAME":"七股區","LI":"中寮里","LIN":"2鄰","STREET":" ","SECT":" ","MAREA":"中寮","LANE":" ","ALLEY":" ","HOUSE_NO":"１５號","E_COORD97":158905.62,"N_COORD97":2560860.8599999999,"ADDRESS":"中寮１５號","OBJECTID":212708},"geometry":{"x":158905.62000000011,"y":2560860.8599999994}},{"attributes":{"ID":212710,"DIS_CODE":0,"TOWNNAME":"七股區","LI":"中寮里","LIN":"2鄰","STREET":" ","SECT":" ","MAREA":"中寮","LANE":" ","ALLEY":" ","HOUSE_NO":"１６號","E_COORD97":158937.84,"N_COORD97":2560866.7599999998,"ADDRESS":"中寮１６號","OBJECTID":212709},"geometry":{"x":158937.83999999985,"y":2560866.7600000016}},{"attributes":{"ID":212711,"DIS_CODE":0,"TOWNNAME":"七股區","LI":"中寮里","LIN":"2鄰","STREET":" ","SECT":" ","MAREA":"中寮","LANE":" ","ALLEY":" ","HOUSE_NO":"１８號","E_COORD97":158948.16,"N_COORD97":2560890.54,"ADDRESS":"中寮１８號","OBJECTID":212710},"geometry":{"x":158948.16000000201,"y":2560890.540000001}},{"attributes":{"ID":212712,"DIS_CODE":0,"TOWNNAME":"七股區","LI":"中寮里","LIN":"2鄰","STREET":" ","SECT":" ","MAREA":"中寮","LANE":" ","ALLEY":" ","HOUSE_NO":"１９號之１","E_COORD97":158962.84,"N_COORD97":2560871.79,"ADDRESS":"中寮１９號之１","OBJECTID":212711},"geometry":{"x":158962.83999999985,"y":2560871.7900000028}},{"attributes":{"ID":212713,"DIS_CODE":0,"TOWNNAME":"七股區","LI":"中寮里","LIN":"2鄰","STREET":" ","SECT":" ","MAREA":"中寮","LANE":" ","ALLEY":" ","HOUSE_NO":"２０號之１","E_COORD97":158981.98999999999,"N_COORD97":2560883.4399999999,"ADDRESS":"中寮２０號之１","OBJECTID":212712},"geometry":{"x":158981.99000000115,"y":2560883.4399999995}},{"attributes":{"ID":212714,"DIS_CODE":0,"TOWNNAME":"七股區","LI":"大潭里","LIN":"2鄰","STREET":" ","SECT":" ","MAREA":"台潭","LANE":" ","ALLEY":" ","HOUSE_NO":"２５號之１","E_COORD97":161198.89000000001,"N_COORD97":2565326.4300000002,"ADDRESS":"台潭２５號之１","OBJECTID":212713},"geometry":{"x":161198.88999999873,"y":2565326.4300000016}},{"attributes":{"ID":212715,"DIS_CODE":0,"TOWNNAME":"七股區","LI":"大潭里","LIN":"2鄰","STREET":" ","SECT":" ","MAREA":"台潭","LANE":" ","ALLEY":" ","HOUSE_NO":"２５號","E_COORD97":161208.97,"N_COORD97":2565320.75,"ADDRESS":"台潭２５號","OBJECTID":212714},"geometry":{"x":161208.97000000067,"y":2565320.7499999981}},{"attributes":{"ID":212716,"DIS_CODE":0,"TOWNNAME":"永康區","LI":"正強里","LIN":"13鄰","STREET":"正強街","SECT":" ","MAREA":" ","LANE":"１５１巷","ALLEY":"１１弄","HOUSE_NO":"１號","E_COORD97":173290.51000000001,"N_COORD97":2547503.98,"ADDRESS":"正強街１５１巷１１弄１號","OBJECTID":212715},"geometry":{"x":173290.51000000071,"y":2547503.9800000023}},{"attributes":{"ID":212717,"DIS_CODE":0,"TOWNNAME":"永康區","LI":"正強里","LIN":"13鄰","STREET":"正強街","SECT":" ","MAREA":" ","LANE":"１５１巷","ALLEY":"１１弄","HOUSE_NO":"２號","E_COORD97":173281.64000000001,"N_COORD97":2547501.4500000002,"ADDRESS":"正強街１５１巷１１弄２號","OBJECTID":212716},"geometry":{"x":173281.63999999966,"y":2547501.4499999993}},{"attributes":{"ID":212718,"DIS_CODE":0,"TOWNNAME":"七股區","LI":"大潭里","LIN":"2鄰","STREET":" ","SECT":" ","MAREA":"台潭","LANE":" ","ALLEY":" ","HOUSE_NO":"２６號之１０","E_COORD97":161147.22,"N_COORD97":2565330.1499999999,"ADDRESS":"台潭２６號之１０","OBJECTID":212717},"geometry":{"x":161147.21999999974,"y":2565330.1500000022}},{"attributes":{"ID":212719,"DIS_CODE":0,"TOWNNAME":"七股區","LI":"大潭里","LIN":"2鄰","STREET":" ","SECT":" ","MAREA":"台潭","LANE":" ","ALLEY":" ","HOUSE_NO":"２６號之１２","E_COORD97":161122.31,"N_COORD97":2565331.8300000001,"ADDRESS":"台潭２６號之１２","OBJECTID":212718},"geometry":{"x":161122.31000000052,"y":2565331.8300000019}},{"attributes":{"ID":212720,"DIS_CODE":0,"TOWNNAME":"永康區","LI":"正強里","LIN":"13鄰","STREET":"正強街","SECT":" ","MAREA":" ","LANE":"１５１巷","ALLEY":"１１弄","HOUSE_NO":"３號","E_COORD97":173292.41,"N_COORD97":2547497.6499999999,"ADDRESS":"正強街１５１巷１１弄３號","OBJECTID":212719},"geometry":{"x":173292.41000000015,"y":2547497.6500000004}},{"attributes":{"ID":212721,"DIS_CODE":0,"TOWNNAME":"永康區","LI":"正強里","LIN":"13鄰","STREET":"正強街","SECT":" ","MAREA":" ","LANE":"１５１巷","ALLEY":"１１弄","HOUSE_NO":"５號","E_COORD97":173294.79000000001,"N_COORD97":2547490.6800000002,"ADDRESS":"正強街１５１巷１１弄５號","OBJECTID":212720},"geometry":{"x":173294.79000000004,"y":2547490.6799999997}},{"attributes":{"ID":212722,"DIS_CODE":0,"TOWNNAME":"永康區","LI":"正強里","LIN":"13鄰","STREET":"正強街","SECT":" ","MAREA":" ","LANE":"１５１巷","ALLEY":"１１弄","HOUSE_NO":"６號","E_COORD97":173283.70999999999,"N_COORD97":2547494.6299999999,"ADDRESS":"正強街１５１巷１１弄６號","OBJECTID":212721},"geometry":{"x":173283.70999999903,"y":2547494.6300000008}},{"attributes":{"ID":212723,"DIS_CODE":0,"TOWNNAME":"永康區","LI":"正強里","LIN":"13鄰","STREET":"正強街","SECT":" ","MAREA":" ","LANE":"１５１巷","ALLEY":"１１弄","HOUSE_NO":"７號","E_COORD97":173297.01999999999,"N_COORD97":2547482.8900000001,"ADDRESS":"正強街１５１巷１１弄７號","OBJECTID":212722},"geometry":{"x":173297.02000000048,"y":2547482.8900000006}},{"attributes":{"ID":212724,"DIS_CODE":0,"TOWNNAME":"永康區","LI":"正強里","LIN":"13鄰","STREET":"正強街","SECT":" ","MAREA":" ","LANE":"１５１巷","ALLEY":"１１弄","HOUSE_NO":"８號","E_COORD97":173286.19,"N_COORD97":2547487.98,"ADDRESS":"正強街１５１巷１１弄８號","OBJECTID":212723},"geometry":{"x":173286.19000000227,"y":2547487.9800000023}},{"attributes":{"ID":212725,"DIS_CODE":0,"TOWNNAME":"永康區","LI":"正強里","LIN":"13鄰","STREET":"正強街","SECT":" ","MAREA":" ","LANE":"１５１巷","ALLEY":"１１弄","HOUSE_NO":"９號","E_COORD97":173299.23999999999,"N_COORD97":2547476.0499999998,"ADDRESS":"正強街１５１巷１１弄９號","OBJECTID":212724},"geometry":{"x":173299.24000000209,"y":2547476.0500000045}},{"attributes":{"ID":212726,"DIS_CODE":0,"TOWNNAME":"永康區","LI":"正強里","LIN":"13鄰","STREET":"正強街","SECT":" ","MAREA":" ","LANE":"１５１巷","ALLEY":"１２弄","HOUSE_NO":"１０號","E_COORD97":173282.34,"N_COORD97":2547541.0600000001,"ADDRESS":"正強街１５１巷１２弄１０號","OBJECTID":212725},"geometry":{"x":173282.33999999985,"y":2547541.0600000024}},{"attributes":{"ID":212727,"DIS_CODE":0,"TOWNNAME":"永康區","LI":"正強里","LIN":"13鄰","STREET":"正強街","SECT":" ","MAREA":" ","LANE":"１５１巷","ALLEY":"１２弄","HOUSE_NO":"１號","E_COORD97":173273.23000000001,"N_COORD97":2547523.75,"ADDRESS":"正強街１５１巷１２弄１號","OBJECTID":212726},"geometry":{"x":173273.23000000045,"y":2547523.75}},{"attributes":{"ID":212728,"DIS_CODE":0,"TOWNNAME":"永康區","LI":"正強里","LIN":"13鄰","STREET":"正強街","SECT":" ","MAREA":" ","LANE":"１５１巷","ALLEY":"１２弄","HOUSE_NO":"２號","E_COORD97":173286.09,"N_COORD97":2547521.5299999998,"ADDRESS":"正強街１５１巷１２弄２號","OBJECTID":212727},"geometry":{"x":173286.08999999985,"y":2547521.5299999993}},{"attributes":{"ID":212729,"DIS_CODE":0,"TOWNNAME":"永康區","LI":"正強里","LIN":"13鄰","STREET":"正強街","SECT":" ","MAREA":" ","LANE":"１５１巷","ALLEY":"１２弄","HOUSE_NO":"３號","E_COORD97":173271.04999999999,"N_COORD97":2547530.96,"ADDRESS":"正強街１５１巷１２弄３號","OBJECTID":212728},"geometry":{"x":173271.04999999981,"y":2547530.959999999}},{"attributes":{"ID":212730,"DIS_CODE":0,"TOWNNAME":"永康區","LI":"正強里","LIN":"13鄰","STREET":"正強街","SECT":" ","MAREA":" ","LANE":"１５１巷","ALLEY":"１２弄","HOUSE_NO":"５號","E_COORD97":173269.03,"N_COORD97":2547537.8399999999,"ADDRESS":"正強街１５１巷１２弄５號","OBJECTID":212729},"geometry":{"x":173269.03000000119,"y":2547537.8400000036}},{"attributes":{"ID":212731,"DIS_CODE":0,"TOWNNAME":"永康區","LI":"正強里","LIN":"13鄰","STREET":"正強街","SECT":" ","MAREA":" ","LANE":"１５１巷","ALLEY":"１２弄","HOUSE_NO":"６號","E_COORD97":173284.75,"N_COORD97":2547527.23,"ADDRESS":"正強街１５１巷１２弄６號","OBJECTID":212730},"geometry":{"x":173284.75,"y":2547527.2300000004}},{"attributes":{"ID":212732,"DIS_CODE":0,"TOWNNAME":"永康區","LI":"正強里","LIN":"13鄰","STREET":"正強街","SECT":" ","MAREA":" ","LANE":"１５１巷","ALLEY":"１２弄","HOUSE_NO":"８號","E_COORD97":173282.73999999999,"N_COORD97":2547534.7799999998,"ADDRESS":"正強街１５１巷１２弄８號","OBJECTID":212731},"geometry":{"x":173282.74000000115,"y":2547534.7800000012}},{"attributes":{"ID":212733,"DIS_CODE":0,"TOWNNAME":"安平區","LI":"建平里","LIN":"18鄰","STREET":"怡平路","SECT":" ","MAREA":" ","LANE":"１４０巷","ALLEY":"３７弄","HOUSE_NO":"１１號","E_COORD97":165868.70000000001,"N_COORD97":2543895.25,"ADDRESS":"怡平路１４０巷３７弄１１號","OBJECTID":212732},"geometry":{"x":165868.70000000019,"y":2543895.2500000019}},{"attributes":{"ID":212734,"DIS_CODE":0,"TOWNNAME":"新化區","LI":"太平里","LIN":"9鄰","STREET":"中正路","SECT":" ","MAREA":" ","LANE":" ","ALLEY":" ","HOUSE_NO":"６７０號之１６","E_COORD97":178678.41,"N_COORD97":2549549.2599999998,"ADDRESS":"中正路６７０號之１６","OBJECTID":212733},"geometry":{"x":178678.41000000201,"y":2549549.2600000016}},{"attributes":{"ID":212735,"DIS_CODE":0,"TOWNNAME":"安南區","LI":"城北里","LIN":"9鄰","STREET":"安中路","SECT":"六段","MAREA":" ","LANE":" ","ALLEY":" ","HOUSE_NO":"６５８號","E_COORD97":160743.92000000001,"N_COORD97":2551648.4700000002,"ADDRESS":"安中路六段６５８號","OBJECTID":212734},"geometry":{"x":160743.91999999993,"y":2551648.4700000007}},{"attributes":{"ID":212736,"DIS_CODE":0,"TOWNNAME":"安南區","LI":"城北里","LIN":"9鄰","STREET":"城安東街","SECT":" ","MAREA":" ","LANE":" ","ALLEY":" ","HOUSE_NO":"２８號","E_COORD97":160831.89999999999,"N_COORD97":2551611.6600000001,"ADDRESS":"城安東街２８號","OBJECTID":212735},"geometry":{"x":160831.90000000224,"y":2551611.660000002}},{"attributes":{"ID":212737,"DIS_CODE":0,"TOWNNAME":"安南區","LI":"城北里","LIN":"9鄰","STREET":"城安東街","SECT":" ","MAREA":" ","LANE":" ","ALLEY":" ","HOUSE_NO":"２６號","E_COORD97":160832.57000000001,"N_COORD97":2551607.0899999999,"ADDRESS":"城安東街２６號","OBJECTID":212736},"geometry":{"x":160832.57000000123,"y":2551607.0899999999}},{"attributes":{"ID":212738,"DIS_CODE":0,"TOWNNAME":"安南區","LI":"城北里","LIN":"9鄰","STREET":"尊安街","SECT":" ","MAREA":" ","LANE":" ","ALLEY":" ","HOUSE_NO":"１９７號","E_COORD97":160868.76000000001,"N_COORD97":2551747.3300000001,"ADDRESS":"尊安街１９７號","OBJECTID":212737},"geometry":{"x":160868.75999999978,"y":2551747.3300000001}},{"attributes":{"ID":212739,"DIS_CODE":0,"TOWNNAME":"安南區","LI":"城北里","LIN":"9鄰","STREET":"尊安街","SECT":" ","MAREA":" ","LANE":" ","ALLEY":" ","HOUSE_NO":"１９５號","E_COORD97":160871.35000000001,"N_COORD97":2551751.3599999999,"ADDRESS":"尊安街１９５號","OBJECTID":212738},"geometry":{"x":160871.34999999963,"y":2551751.3600000031}},{"attributes":{"ID":212740,"DIS_CODE":0,"TOWNNAME":"安南區","LI":"城北里","LIN":"9鄰","STREET":"尊安街","SECT":" ","MAREA":" ","LANE":" ","ALLEY":" ","HOUSE_NO":"５０之６號","E_COORD97":160863.67999999999,"N_COORD97":2551556.0699999998,"ADDRESS":"尊安街５０之６號","OBJECTID":212739},"geometry":{"x":160863.68000000063,"y":2551556.0700000003}},{"attributes":{"ID":212741,"DIS_CODE":0,"TOWNNAME":"永康區","LI":"西灣里","LIN":"20鄰","STREET":"大安街","SECT":" ","MAREA":" ","LANE":" ","ALLEY":" ","HOUSE_NO":"３８１號","E_COORD97":174580.20999999999,"N_COORD97":2545872.3399999999,"ADDRESS":"大安街３８１號","OBJECTID":212740},"geometry":{"x":174580.20999999996,"y":2545872.3399999999}},{"attributes":{"ID":212742,"DIS_CODE":0,"TOWNNAME":"永康區","LI":"西灣里","LIN":"18鄰","STREET":"大安街","SECT":" ","MAREA":" ","LANE":" ","ALLEY":" ","HOUSE_NO":"２５９號","E_COORD97":174691.95000000001,"N_COORD97":2545458.2400000002,"ADDRESS":"大安街２５９號","OBJECTID":212741},"geometry":{"x":174691.95000000112,"y":2545458.2400000021}},{"attributes":{"ID":212743,"DIS_CODE":0,"TOWNNAME":"永康區","LI":"西灣里","LIN":"20鄰","STREET":"大安街","SECT":" ","MAREA":" ","LANE":" ","ALLEY":" ","HOUSE_NO":"４０５號","E_COORD97":174566.07999999999,"N_COORD97":2545923.3500000001,"ADDRESS":"大安街４０５號","OBJECTID":212742},"geometry":{"x":174566.08000000007,"y":2545923.3500000034}},{"attributes":{"ID":212744,"DIS_CODE":0,"TOWNNAME":"永康區","LI":"西橋里","LIN":"25鄰","STREET":"中華路","SECT":" ","MAREA":" ","LANE":" ","ALLEY":" ","HOUSE_NO":"８１５號","E_COORD97":170551.01000000001,"N_COORD97":2546617,"ADDRESS":"中華路８１５號","OBJECTID":212743},"geometry":{"x":170551.01000000071,"y":2546617}},{"attributes":{"ID":212745,"DIS_CODE":0,"TOWNNAME":"新化區","LI":"\u25A0拔里","LIN":"9鄰","STREET":" ","SECT":" ","MAREA":"\u25A0拔林","LANE":" ","ALLEY":" ","HOUSE_NO":"３５５號之６","E_COORD97":183257.07000000001,"N_COORD97":2551806.2599999998,"ADDRESS":"\u25A0拔林３５５號之６","OBJECTID":212744},"geometry":{"x":183257.07000000123,"y":2551806.2599999998}},{"attributes":{"ID":212746,"DIS_CODE":0,"TOWNNAME":"新化區","LI":"崙頂里","LIN":"9鄰","STREET":" ","SECT":" ","MAREA":"崙子頂","LANE":" ","ALLEY":" ","HOUSE_NO":"３４７號","E_COORD97":176755.73000000001,"N_COORD97":2546827.25,"ADDRESS":"崙子頂３４７號","OBJECTID":212745},"geometry":{"x":176755.73000000045,"y":2546827.2500000019}},{"attributes":{"ID":212747,"DIS_CODE":0,"TOWNNAME":"七股區","LI":"大潭里","LIN":"2鄰","STREET":" ","SECT":" ","MAREA":"台潭","LANE":" ","ALLEY":" ","HOUSE_NO":"２６號之１３","E_COORD97":161116.20000000001,"N_COORD97":2565332.6600000001,"ADDRESS":"台潭２６號之１３","OBJECTID":212746},"geometry":{"x":161116.20000000205,"y":2565332.660000002}},{"attributes":{"ID":212748,"DIS_CODE":0,"TOWNNAME":"七股區","LI":"大潭里","LIN":"2鄰","STREET":" ","SECT":" ","MAREA":"台潭","LANE":" ","ALLEY":" ","HOUSE_NO":"２６號之１４","E_COORD97":161111.94,"N_COORD97":2565333.2400000002,"ADDRESS":"台潭２６號之１４","OBJECTID":212747},"geometry":{"x":161111.94000000134,"y":2565333.2400000002}},{"attributes":{"ID":212749,"DIS_CODE":0,"TOWNNAME":"七股區","LI":"大潭里","LIN":"2鄰","STREET":" ","SECT":" ","MAREA":"台潭","LANE":" ","ALLEY":" ","HOUSE_NO":"２６號之１５","E_COORD97":161106.92999999999,"N_COORD97":2565333.54,"ADDRESS":"台潭２６號之１５","OBJECTID":212748},"geometry":{"x":161106.9299999997,"y":2565333.5399999991}},{"attributes":{"ID":212750,"DIS_CODE":0,"TOWNNAME":"七股區","LI":"大潭里","LIN":"2鄰","STREET":" ","SECT":" ","MAREA":"台潭","LANE":" ","ALLEY":" ","HOUSE_NO":"２６號之１６","E_COORD97":161103.32000000001,"N_COORD97":2565333.6099999999,"ADDRESS":"台潭２６號之１６","OBJECTID":212749},"geometry":{"x":161103.3200000003,"y":2565333.6099999994}},{"attributes":{"ID":212751,"DIS_CODE":0,"TOWNNAME":"七股區","LI":"大潭里","LIN":"2鄰","STREET":" ","SECT":" ","MAREA":"台潭","LANE":" ","ALLEY":" ","HOUSE_NO":"２６號之１７","E_COORD97":161099.72,"N_COORD97":2565334.1299999999,"ADDRESS":"台潭２６號之１７","OBJECTID":212750},"geometry":{"x":161099.71999999974,"y":2565334.1300000027}},{"attributes":{"ID":212752,"DIS_CODE":0,"TOWNNAME":"七股區","LI":"大潭里","LIN":"2鄰","STREET":" ","SECT":" ","MAREA":"台潭","LANE":" ","ALLEY":" ","HOUSE_NO":"２６號之１８","E_COORD97":161096.54000000001,"N_COORD97":2565334.5299999998,"ADDRESS":"台潭２６號之１８","OBJECTID":212751},"geometry":{"x":161096.53999999911,"y":2565334.5299999993}},{"attributes":{"ID":212753,"DIS_CODE":0,"TOWNNAME":"七股區","LI":"大潭里","LIN":"2鄰","STREET":" ","SECT":" ","MAREA":"台潭","LANE":" ","ALLEY":" ","HOUSE_NO":"２６號之１９","E_COORD97":161092.22,"N_COORD97":2565334.7999999998,"ADDRESS":"台潭２６號之１９","OBJECTID":212752},"geometry":{"x":161092.22000000067,"y":2565334.8000000045}},{"attributes":{"ID":212754,"DIS_CODE":0,"TOWNNAME":"安平區","LI":"建平里","LIN":"18鄰","STREET":"怡平路","SECT":" ","MAREA":" ","LANE":"１４０巷","ALLEY":"３７弄","HOUSE_NO":"１３號","E_COORD97":165863.48999999999,"N_COORD97":2543895.9300000002,"ADDRESS":"怡平路１４０巷３７弄１３號","OBJECTID":212753},"geometry":{"x":165863.49000000022,"y":2543895.9300000016}},{"attributes":{"ID":212755,"DIS_CODE":0,"TOWNNAME":"安平區","LI":"建平里","LIN":"18鄰","STREET":"怡平路","SECT":" ","MAREA":" ","LANE":"１４０巷","ALLEY":"３７弄","HOUSE_NO":"１號","E_COORD97":165895.97,"N_COORD97":2543891.3900000001,"ADDRESS":"怡平路１４０巷３７弄１號","OBJECTID":212754},"geometry":{"x":165895.9700000016,"y":2543891.3900000025}},{"attributes":{"ID":212756,"DIS_CODE":0,"TOWNNAME":"東區","LI":"德高里","LIN":"13鄰","STREET":"崇善路","SECT":" ","MAREA":" ","LANE":"９１３巷","ALLEY":"６弄","HOUSE_NO":"１３號","E_COORD97":171502.38,"N_COORD97":2540727.5299999998,"ADDRESS":"崇善路９１３巷６弄１３號","OBJECTID":212755},"geometry":{"x":171502.37999999989,"y":2540727.5299999993}},{"attributes":{"ID":212757,"DIS_CODE":0,"TOWNNAME":"東區","LI":"德高里","LIN":"13鄰","STREET":"崇善路","SECT":" ","MAREA":" ","LANE":"９１３巷","ALLEY":"６弄","HOUSE_NO":"１５號","E_COORD97":171515.13,"N_COORD97":2540727.96,"ADDRESS":"崇善路９１３巷６弄１５號","OBJECTID":212756},"geometry":{"x":171515.13000000082,"y":2540727.9600000028}},{"attributes":{"ID":212758,"DIS_CODE":0,"TOWNNAME":"東區","LI":"德高里","LIN":"13鄰","STREET":"崇善路","SECT":" ","MAREA":" ","LANE":"９１３巷","ALLEY":"６弄","HOUSE_NO":"７號","E_COORD97":171478.88,"N_COORD97":2540719.7200000002,"ADDRESS":"崇善路９１３巷６弄７號","OBJECTID":212757},"geometry":{"x":171478.88000000175,"y":2540719.7200000007}},{"attributes":{"ID":212759,"DIS_CODE":0,"TOWNNAME":"安平區","LI":"建平里","LIN":"19鄰","STREET":"怡平路","SECT":" ","MAREA":" ","LANE":"１４０巷","ALLEY":"１７弄","HOUSE_NO":"１２號","E_COORD97":165860.29000000001,"N_COORD97":2543827.48,"ADDRESS":"怡平路１４０巷１７弄１２號","OBJECTID":212758},"geometry":{"x":165860.29000000097,"y":2543827.4800000004}},{"attributes":{"ID":212760,"DIS_CODE":0,"TOWNNAME":"安平區","LI":"建平里","LIN":"19鄰","STREET":"怡平路","SECT":" ","MAREA":" ","LANE":"１４０巷","ALLEY":"１７弄","HOUSE_NO":"１４號","E_COORD97":165855.41,"N_COORD97":2543828.1499999999,"ADDRESS":"怡平路１４０巷１７弄１４號","OBJECTID":212759},"geometry":{"x":165855.41000000015,"y":2543828.1500000022}},{"attributes":{"ID":212761,"DIS_CODE":0,"TOWNNAME":"東區","LI":"德高里","LIN":"13鄰","STREET":"崇善路","SECT":" ","MAREA":" ","LANE":"９１３巷","ALLEY":"６弄","HOUSE_NO":"１號","E_COORD97":171449.44,"N_COORD97":2540711.1200000001,"ADDRESS":"崇善路９１３巷６弄１號","OBJECTID":212760},"geometry":{"x":171449.44000000041,"y":2540711.120000001}},{"attributes":{"ID":212762,"DIS_CODE":0,"TOWNNAME":"東區","LI":"德高里","LIN":"13鄰","STREET":"崇善路","SECT":" ","MAREA":" ","LANE":"９１３巷","ALLEY":"６弄","HOUSE_NO":"９號","E_COORD97":171486.10999999999,"N_COORD97":2540722.0600000001,"ADDRESS":"崇善路９１３巷６弄９號","OBJECTID":212761},"geometry":{"x":171486.11000000034,"y":2540722.0600000042}},{"attributes":{"ID":212763,"DIS_CODE":0,"TOWNNAME":"安平區","LI":"建平里","LIN":"18鄰","STREET":"怡平路","SECT":" ","MAREA":" ","LANE":"１４０巷","ALLEY":"３７弄","HOUSE_NO":"５號","E_COORD97":165884.19,"N_COORD97":2543893.2400000002,"ADDRESS":"怡平路１４０巷３７弄５號","OBJECTID":212762},"geometry":{"x":165884.19000000041,"y":2543893.2400000002}},{"attributes":{"ID":212764,"DIS_CODE":0,"TOWNNAME":"安平區","LI":"建平里","LIN":"18鄰","STREET":"怡平路","SECT":" ","MAREA":" ","LANE":"１４０巷","ALLEY":"３７弄","HOUSE_NO":"７號","E_COORD97":165878.13,"N_COORD97":2543893.7400000002,"ADDRESS":"怡平路１４０巷３７弄７號","OBJECTID":212763},"geometry":{"x":165878.13000000175,"y":2543893.7400000002}},{"attributes":{"ID":212765,"DIS_CODE":0,"TOWNNAME":"安平區","LI":"建平里","LIN":"18鄰","STREET":"怡平路","SECT":" ","MAREA":" ","LANE":"１４０巷","ALLEY":"３７弄","HOUSE_NO":"９號","E_COORD97":165873.07999999999,"N_COORD97":2543894.4100000001,"ADDRESS":"怡平路１４０巷３７弄９號","OBJECTID":212764},"geometry":{"x":165873.08000000007,"y":2543894.410000002}},{"attributes":{"ID":212766,"DIS_CODE":0,"TOWNNAME":"東區","LI":"仁和里","LIN":"13鄰","STREET":"仁和路","SECT":" ","MAREA":" ","LANE":"１３９巷","ALLEY":"５１弄","HOUSE_NO":"２６號之７","E_COORD97":171739.06,"N_COORD97":2541268.1099999999,"ADDRESS":"仁和路１３９巷５１弄２６號之７","OBJECTID":212765},"geometry":{"x":171739.06000000052,"y":2541268.1100000013}},{"attributes":{"ID":212767,"DIS_CODE":0,"TOWNNAME":"東區","LI":"仁和里","LIN":"13鄰","STREET":"仁和路","SECT":" ","MAREA":" ","LANE":"１３９巷","ALLEY":"５１弄","HOUSE_NO":"２６號之８","E_COORD97":171733.85000000001,"N_COORD97":2541266.4399999999,"ADDRESS":"仁和路１３９巷５１弄２６號之８","OBJECTID":212766},"geometry":{"x":171733.85000000056,"y":2541266.4399999995}},{"attributes":{"ID":212768,"DIS_CODE":0,"TOWNNAME":"東區","LI":"仁和里","LIN":"13鄰","STREET":"仁和路","SECT":" ","MAREA":" ","LANE":"１３９巷","ALLEY":"５１弄","HOUSE_NO":"２２號","E_COORD97":171736.12,"N_COORD97":2541234.8300000001,"ADDRESS":"仁和路１３９巷５１弄２２號","OBJECTID":212767},"geometry":{"x":171736.12000000011,"y":2541234.8300000001}},{"attributes":{"ID":212769,"DIS_CODE":0,"TOWNNAME":"東區","LI":"仁和里","LIN":"13鄰","STREET":"仁和路","SECT":" ","MAREA":" ","LANE":"１３９巷","ALLEY":"５１弄","HOUSE_NO":"２２號之１","E_COORD97":171746.09,"N_COORD97":2541235.9900000002,"ADDRESS":"仁和路１３９巷５１弄２２號之１","OBJECTID":212768},"geometry":{"x":171746.09000000078,"y":2541235.9900000002}},{"attributes":{"ID":212770,"DIS_CODE":0,"TOWNNAME":"七股區","LI":"大潭里","LIN":"2鄰","STREET":" ","SECT":" ","MAREA":"台潭","LANE":" ","ALLEY":" ","HOUSE_NO":"２６號之２０","E_COORD97":161088.10999999999,"N_COORD97":2565335.4100000001,"ADDRESS":"台潭２６號之２０","OBJECTID":212769},"geometry":{"x":161088.1100000022,"y":2565335.4100000001}},{"attributes":{"ID":212771,"DIS_CODE":0,"TOWNNAME":"東區","LI":"仁和里","LIN":"13鄰","STREET":"仁和路","SECT":" ","MAREA":" ","LANE":"１３９巷","ALLEY":"５１弄","HOUSE_NO":"２２號之２","E_COORD97":171751.48000000001,"N_COORD97":2541236.6299999999,"ADDRESS":"仁和路１３９巷５１弄２２號之２","OBJECTID":212770},"geometry":{"x":171751.48000000045,"y":2541236.6300000008}},{"attributes":{"ID":212772,"DIS_CODE":0,"TOWNNAME":"七股區","LI":"大潭里","LIN":"2鄰","STREET":" ","SECT":" ","MAREA":"台潭","LANE":" ","ALLEY":" ","HOUSE_NO":"２６號之２１","E_COORD97":161078.73999999999,"N_COORD97":2565336.7000000002,"ADDRESS":"台潭２６號之２１","OBJECTID":212771},"geometry":{"x":161078.74000000115,"y":2565336.6999999993}},{"attributes":{"ID":212773,"DIS_CODE":0,"TOWNNAME":"東區","LI":"仁和里","LIN":"13鄰","STREET":"仁和路","SECT":" ","MAREA":" ","LANE":"１３９巷","ALLEY":"５１弄","HOUSE_NO":"２２號之３","E_COORD97":171757.04999999999,"N_COORD97":2541237.2400000002,"ADDRESS":"仁和路１３９巷５１弄２２號之３","OBJECTID":212772},"geometry":{"x":171757.04999999981,"y":2541237.2400000021}},{"attributes":{"ID":212774,"DIS_CODE":0,"TOWNNAME":"東區","LI":"仁和里","LIN":"13鄰","STREET":"仁和路","SECT":" ","MAREA":" ","LANE":"１３９巷","ALLEY":"５１弄","HOUSE_NO":"２２號之５","E_COORD97":171763.07000000001,"N_COORD97":2541237.8100000001,"ADDRESS":"仁和路１３９巷５１弄２２號之５","OBJECTID":212773},"geometry":{"x":171763.07000000123,"y":2541237.8100000005}},{"attributes":{"ID":212775,"DIS_CODE":0,"TOWNNAME":"東區","LI":"仁和里","LIN":"13鄰","STREET":"仁和路","SECT":" ","MAREA":" ","LANE":"１３９巷","ALLEY":"５１弄","HOUSE_NO":"２４號","E_COORD97":171734.60000000001,"N_COORD97":2541251.5800000001,"ADDRESS":"仁和路１３９巷５１弄２４號","OBJECTID":212774},"geometry":{"x":171734.59999999963,"y":2541251.5800000019}},{"attributes":{"ID":212776,"DIS_CODE":0,"TOWNNAME":"南區","LI":"再興里","LIN":"9鄰","STREET":"三官路","SECT":" ","MAREA":" ","LANE":"９６巷","ALLEY":" ","HOUSE_NO":"１９號","E_COORD97":167272.70999999999,"N_COORD97":2542183.6800000002,"ADDRESS":"三官路９６巷１９號","OBJECTID":212775},"geometry":{"x":167272.71000000183,"y":2542183.6799999997}},{"attributes":{"ID":212777,"DIS_CODE":0,"TOWNNAME":"安平區","LI":"怡平里","LIN":"24鄰","STREET":"文平路","SECT":" ","MAREA":" ","LANE":" ","ALLEY":" ","HOUSE_NO":"３８１號","E_COORD97":165775.70000000001,"N_COORD97":2543639.2999999998,"ADDRESS":"文平路３８１號","OBJECTID":212776},"geometry":{"x":165775.70000000019,"y":2543639.3000000007}},{"attributes":{"ID":212778,"DIS_CODE":0,"TOWNNAME":"安平區","LI":"怡平里","LIN":"24鄰","STREET":"文平路","SECT":" ","MAREA":" ","LANE":" ","ALLEY":" ","HOUSE_NO":"３８３號","E_COORD97":165776.85999999999,"N_COORD97":2543643.5299999998,"ADDRESS":"文平路３８３號","OBJECTID":212777},"geometry":{"x":165776.8600000022,"y":2543643.5300000031}},{"attributes":{"ID":212779,"DIS_CODE":0,"TOWNNAME":"安平區","LI":"怡平里","LIN":"24鄰","STREET":"文平路","SECT":" ","MAREA":" ","LANE":" ","ALLEY":" ","HOUSE_NO":"３８５號","E_COORD97":165777.17999999999,"N_COORD97":2543647.0299999998,"ADDRESS":"文平路３８５號","OBJECTID":212778},"geometry":{"x":165777.1799999997,"y":2543647.0300000031}},{"attributes":{"ID":212780,"DIS_CODE":0,"TOWNNAME":"七股區","LI":"大潭里","LIN":"2鄰","STREET":" ","SECT":" ","MAREA":"台潭","LANE":" ","ALLEY":" ","HOUSE_NO":"２６號之２２","E_COORD97":161074.64999999999,"N_COORD97":2565337.2999999998,"ADDRESS":"台潭２６號之２２","OBJECTID":212779},"geometry":{"x":161074.6500000013,"y":2565337.3000000007}},{"attributes":{"ID":212781,"DIS_CODE":0,"TOWNNAME":"七股區","LI":"大潭里","LIN":"2鄰","STREET":" ","SECT":" ","MAREA":"台潭","LANE":" ","ALLEY":" ","HOUSE_NO":"２６號之２３","E_COORD97":161070.89999999999,"N_COORD97":2565337.6400000001,"ADDRESS":"台潭２６號之２３","OBJECTID":212780},"geometry":{"x":161070.90000000224,"y":2565337.6400000006}},{"attributes":{"ID":212782,"DIS_CODE":0,"TOWNNAME":"七股區","LI":"大潭里","LIN":"2鄰","STREET":" ","SECT":" ","MAREA":"台潭","LANE":" ","ALLEY":" ","HOUSE_NO":"２６號之２４","E_COORD97":161067.06,"N_COORD97":2565338.0600000001,"ADDRESS":"台潭２６號之２４","OBJECTID":212781},"geometry":{"x":161067.05999999959,"y":2565338.0600000005}},{"attributes":{"ID":212783,"DIS_CODE":0,"TOWNNAME":"七股區","LI":"大潭里","LIN":"2鄰","STREET":" ","SECT":" ","MAREA":"台潭","LANE":" ","ALLEY":" ","HOUSE_NO":"２６號之２５","E_COORD97":161062.63,"N_COORD97":2565338.6600000001,"ADDRESS":"台潭２６號之２５","OBJECTID":212782},"geometry":{"x":161062.63000000082,"y":2565338.6600000039}},{"attributes":{"ID":212784,"DIS_CODE":0,"TOWNNAME":"北區","LI":"大豐里","LIN":"22鄰","STREET":"大興街","SECT":" ","MAREA":" ","LANE":" ","ALLEY":" ","HOUSE_NO":"３４９號","E_COORD97":166552.53,"N_COORD97":2545639.7400000002,"ADDRESS":"大興街３４９號","OBJECTID":212783},"geometry":{"x":166552.53000000119,"y":2545639.7400000002}},{"attributes":{"ID":212785,"DIS_CODE":0,"TOWNNAME":"東區","LI":"文聖里","LIN":"9鄰","STREET":"裕平路","SECT":" ","MAREA":" ","LANE":" ","ALLEY":" ","HOUSE_NO":"９４號","E_COORD97":172111.73999999999,"N_COORD97":2542790.3399999999,"ADDRESS":"裕平路９４號","OBJECTID":212784},"geometry":{"x":172111.74000000022,"y":2542790.3399999999}},{"attributes":{"ID":212786,"DIS_CODE":0,"TOWNNAME":"東區","LI":"南聖里","LIN":"9鄰","STREET":"裕忠路","SECT":" ","MAREA":" ","LANE":" ","ALLEY":" ","HOUSE_NO":"５４號","E_COORD97":172169.37,"N_COORD97":2543199.8599999999,"ADDRESS":"裕忠路５４號","OBJECTID":212785},"geometry":{"x":172169.37000000104,"y":2543199.8599999994}},{"attributes":{"ID":212787,"DIS_CODE":0,"TOWNNAME":"永康區","LI":"西橋里","LIN":"25鄰","STREET":"中華路","SECT":" ","MAREA":" ","LANE":" ","ALLEY":" ","HOUSE_NO":"７７１號","E_COORD97":170677.67999999999,"N_COORD97":2546532.5,"ADDRESS":"中華路７７１號","OBJECTID":212786},"geometry":{"x":170677.6799999997,"y":2546532.5}},{"attributes":{"ID":212788,"DIS_CODE":0,"TOWNNAME":"永康區","LI":"西勢里","LIN":"24鄰","STREET":"廣興街","SECT":" ","MAREA":" ","LANE":" ","ALLEY":" ","HOUSE_NO":"４２號之１","E_COORD97":175953.56,"N_COORD97":2546573.52,"ADDRESS":"廣興街４２號之１","OBJECTID":212787},"geometry":{"x":175953.55999999959,"y":2546573.5200000014}},{"attributes":{"ID":212789,"DIS_CODE":0,"TOWNNAME":"永康區","LI":"西灣里","LIN":"14鄰","STREET":"大灣五街","SECT":" ","MAREA":" ","LANE":" ","ALLEY":" ","HOUSE_NO":"７８號","E_COORD97":174709.34,"N_COORD97":2545262.3700000001,"ADDRESS":"大灣五街７８號","OBJECTID":212788},"geometry":{"x":174709.34000000078,"y":2545262.370000001}},{"attributes":{"ID":212790,"DIS_CODE":0,"TOWNNAME":"永康區","LI":"西灣里","LIN":"18鄰","STREET":"大安街","SECT":" ","MAREA":" ","LANE":" ","ALLEY":" ","HOUSE_NO":"２６５號","E_COORD97":174690.04000000001,"N_COORD97":2545473.75,"ADDRESS":"大安街２６５號","OBJECTID":212789},"geometry":{"x":174690.04000000004,"y":2545473.7500000037}},{"attributes":{"ID":212791,"DIS_CODE":0,"TOWNNAME":"永康區","LI":"西灣里","LIN":"18鄰","STREET":"大安街","SECT":" ","MAREA":" ","LANE":" ","ALLEY":" ","HOUSE_NO":"２８３號","E_COORD97":174667.44,"N_COORD97":2545546.2599999998,"ADDRESS":"大安街２８３號","OBJECTID":212790},"geometry":{"x":174667.44000000041,"y":2545546.2599999998}},{"attributes":{"ID":212792,"DIS_CODE":0,"TOWNNAME":"東區","LI":"仁和里","LIN":"13鄰","STREET":"仁和路","SECT":" ","MAREA":" ","LANE":"１３９巷","ALLEY":"５１弄","HOUSE_NO":"２４號之１","E_COORD97":171738.69,"N_COORD97":2541252.3199999998,"ADDRESS":"仁和路１３９巷５１弄２４號之１","OBJECTID":212791},"geometry":{"x":171738.69000000134,"y":2541252.320000004}},{"attributes":{"ID":212793,"DIS_CODE":0,"TOWNNAME":"東區","LI":"仁和里","LIN":"13鄰","STREET":"仁和路","SECT":" ","MAREA":" ","LANE":"１３９巷","ALLEY":"５１弄","HOUSE_NO":"２４號之２","E_COORD97":171744.82000000001,"N_COORD97":2541251.9500000002,"ADDRESS":"仁和路１３９巷５１弄２４號之２","OBJECTID":212792},"geometry":{"x":171744.82000000123,"y":2541251.9500000011}},{"attributes":{"ID":212794,"DIS_CODE":0,"TOWNNAME":"東區","LI":"仁和里","LIN":"13鄰","STREET":"仁和路","SECT":" ","MAREA":" ","LANE":"１３９巷","ALLEY":"５１弄","HOUSE_NO":"２４號之３","E_COORD97":171749.28,"N_COORD97":2541251.77,"ADDRESS":"仁和路１３９巷５１弄２４號之３","OBJECTID":212793},"geometry":{"x":171749.28000000026,"y":2541251.7699999977}},{"attributes":{"ID":212795,"DIS_CODE":0,"TOWNNAME":"東區","LI":"仁和里","LIN":"13鄰","STREET":"仁和路","SECT":" ","MAREA":" ","LANE":"１３９巷","ALLEY":"５１弄","HOUSE_NO":"２４號之５","E_COORD97":171755.23000000001,"N_COORD97":2541251.9500000002,"ADDRESS":"仁和路１３９巷５１弄２４號之５","OBJECTID":212794},"geometry":{"x":171755.23000000231,"y":2541251.9500000011}},{"attributes":{"ID":212796,"DIS_CODE":0,"TOWNNAME":"東區","LI":"仁和里","LIN":"13鄰","STREET":"仁和路","SECT":" ","MAREA":" ","LANE":"１３９巷","ALLEY":"５１弄","HOUSE_NO":"２４號之６","E_COORD97":171760.44,"N_COORD97":2541252.1400000001,"ADDRESS":"仁和路１３９巷５１弄２４號之６","OBJECTID":212795},"geometry":{"x":171760.44000000227,"y":2541252.1400000025}},{"attributes":{"ID":212797,"DIS_CODE":0,"TOWNNAME":"安南區","LI":"安西里","LIN":"13鄰","STREET":"安和路","SECT":"一段","MAREA":" ","LANE":"１５９巷","ALLEY":"４３弄","HOUSE_NO":"２之１號","E_COORD97":169246.42000000001,"N_COORD97":2547785.7000000002,"ADDRESS":"安和路一段１５９巷４３弄２之１號","OBJECTID":212796},"geometry":{"x":169246.42000000086,"y":2547785.7000000011}},{"attributes":{"ID":212798,"DIS_CODE":0,"TOWNNAME":"安南區","LI":"安慶里","LIN":"13鄰","STREET":"安和路","SECT":"二段","MAREA":" ","LANE":"１１１巷","ALLEY":"２８弄","HOUSE_NO":"２１號","E_COORD97":169446.64999999999,"N_COORD97":2548819.8999999999,"ADDRESS":"安和路二段１１１巷２８弄２１號","OBJECTID":212797},"geometry":{"x":169446.64999999944,"y":2548819.9000000022}},{"attributes":{"ID":212799,"DIS_CODE":0,"TOWNNAME":"安南區","LI":"安慶里","LIN":"13鄰","STREET":"安和路","SECT":"二段","MAREA":" ","LANE":"１１１巷","ALLEY":"２８弄","HOUSE_NO":"２３號","E_COORD97":169448.54000000001,"N_COORD97":2548823.46,"ADDRESS":"安和路二段１１１巷２８弄２３號","OBJECTID":212798},"geometry":{"x":169448.54000000004,"y":2548823.4600000028}},{"attributes":{"ID":212800,"DIS_CODE":0,"TOWNNAME":"安南區","LI":"安慶里","LIN":"13鄰","STREET":"安和路","SECT":"二段","MAREA":" ","LANE":"１１１巷","ALLEY":"２８弄","HOUSE_NO":"２５號","E_COORD97":169449.26999999999,"N_COORD97":2548827.96,"ADDRESS":"安和路二段１１１巷２８弄２５號","OBJECTID":212799},"geometry":{"x":169449.27000000048,"y":2548827.9600000009}},{"attributes":{"ID":212801,"DIS_CODE":0,"TOWNNAME":"安南區","LI":"安慶里","LIN":"13鄰","STREET":"安和路","SECT":"二段","MAREA":" ","LANE":"１１１巷","ALLEY":"２８弄","HOUSE_NO":"２７號","E_COORD97":169450.42000000001,"N_COORD97":2548832.25,"ADDRESS":"安和路二段１１１巷２８弄２７號","OBJECTID":212800},"geometry":{"x":169450.41999999993,"y":2548832.25}}]}