{"displayFieldName":"TOWNNAME","fieldAliases":{"ID":"ID","DIS_CODE":"DIS_CODE","TOWNNAME":"TOWNNAME","LI":"LI","LIN":"LIN","STREET":"STREET","SECT":"SECT","MAREA":"MAREA","LANE":"LANE","ALLEY":"ALLEY","HOUSE_NO":"HOUSE_NO","E_COORD97":"E_COORD97","N_COORD97":"N_COORD97","ADDRESS":"ADDRESS","OBJECTID":"OBJECTID"},"geometryType":"esriGeometryPoint","spatialReference":{"wkid":102443,"latestWkid":3826},"fields":[{"name":"ID","type":"esriFieldTypeDouble","alias":"ID"},{"name":"DIS_CODE","type":"esriFieldTypeInteger","alias":"DIS_CODE"},{"name":"TOWNNAME","type":"esriFieldTypeString","alias":"TOWNNAME","length":8},{"name":"LI","type":"esriFieldTypeString","alias":"LI","length":8},{"name":"LIN","type":"esriFieldTypeString","alias":"LIN","length":12},{"name":"STREET","type":"esriFieldTypeString","alias":"STREET","length":20},{"name":"SECT","type":"esriFieldTypeString","alias":"SECT","length":8},{"name":"MAREA","type":"esriFieldTypeString","alias":"MAREA","length":12},{"name":"LANE","type":"esriFieldTypeString","alias":"LANE","length":10},{"name":"ALLEY","type":"esriFieldTypeString","alias":"ALLEY","length":10},{"name":"HOUSE_NO","type":"esriFieldTypeString","alias":"HOUSE_NO","length":20},{"name":"E_COORD97","type":"esriFieldTypeDouble","alias":"E_COORD97"},{"name":"N_COORD97","type":"esriFieldTypeDouble","alias":"N_COORD97"},{"name":"ADDRESS","type":"esriFieldTypeString","alias":"ADDRESS","length":50},{"name":"OBJECTID","type":"esriFieldTypeOID","alias":"OBJECTID"}],"features":[{"attributes":{"ID":655228,"DIS_CODE":0,"TOWNNAME":"安平區","LI":"華平里","LIN":"17鄰","STREET":"永華八街","SECT":" ","MAREA":" ","LANE":"１９３巷","ALLEY":" ","HOUSE_NO":"２６之５號","E_COORD97":165088.713789,"N_COORD97":2543768.84754,"ADDRESS":"永華八街１９３巷２６之５號","OBJECTID":655201},"geometry":{"x":165088.71378900204,"y":2543768.8475410044}},{"attributes":{"ID":655229,"DIS_CODE":0,"TOWNNAME":"安平區","LI":"華平里","LIN":"17鄰","STREET":"永華八街","SECT":" ","MAREA":" ","LANE":"１９３巷","ALLEY":" ","HOUSE_NO":"２６之５號六樓","E_COORD97":165088.713789,"N_COORD97":2543768.84754,"ADDRESS":"永華八街１９３巷２６之５號六樓","OBJECTID":655202},"geometry":{"x":165088.71378900204,"y":2543768.8475410044}},{"attributes":{"ID":655230,"DIS_CODE":0,"TOWNNAME":"安平區","LI":"華平里","LIN":"17鄰","STREET":"永華八街","SECT":" ","MAREA":" ","LANE":"１９３巷","ALLEY":" ","HOUSE_NO":"３４之１號","E_COORD97":165080.44939600001,"N_COORD97":2543744.29422,"ADDRESS":"永華八街１９３巷３４之１號","OBJECTID":655203},"geometry":{"x":165080.44939600118,"y":2543744.2942210007}},{"attributes":{"ID":655231,"DIS_CODE":0,"TOWNNAME":"安平區","LI":"華平里","LIN":"17鄰","STREET":"永華八街","SECT":" ","MAREA":" ","LANE":"１９３巷","ALLEY":" ","HOUSE_NO":"３４之３號","E_COORD97":165080.44939600001,"N_COORD97":2543744.29422,"ADDRESS":"永華八街１９３巷３４之３號","OBJECTID":655204},"geometry":{"x":165080.44939600118,"y":2543744.2942210007}},{"attributes":{"ID":655232,"DIS_CODE":0,"TOWNNAME":"安平區","LI":"華平里","LIN":"17鄰","STREET":"永華八街","SECT":" ","MAREA":" ","LANE":"１９３巷","ALLEY":" ","HOUSE_NO":"３６之１號","E_COORD97":165093.79957,"N_COORD97":2543741.54256,"ADDRESS":"永華八街１９３巷３６之１號","OBJECTID":655205},"geometry":{"x":165093.7995699998,"y":2543741.542555999}},{"attributes":{"ID":655233,"DIS_CODE":0,"TOWNNAME":"安平區","LI":"華平里","LIN":"17鄰","STREET":"永華八街","SECT":" ","MAREA":" ","LANE":"１９３巷","ALLEY":" ","HOUSE_NO":"３６之２號","E_COORD97":165093.79957,"N_COORD97":2543741.54256,"ADDRESS":"永華八街１９３巷３６之２號","OBJECTID":655206},"geometry":{"x":165093.7995699998,"y":2543741.542555999}},{"attributes":{"ID":655234,"DIS_CODE":0,"TOWNNAME":"安平區","LI":"華平里","LIN":"17鄰","STREET":"永華八街","SECT":" ","MAREA":" ","LANE":"１９３巷","ALLEY":" ","HOUSE_NO":"３６之３號","E_COORD97":165093.79957,"N_COORD97":2543741.54256,"ADDRESS":"永華八街１９３巷３６之３號","OBJECTID":655207},"geometry":{"x":165093.7995699998,"y":2543741.542555999}},{"attributes":{"ID":655235,"DIS_CODE":0,"TOWNNAME":"安平區","LI":"華平里","LIN":"17鄰","STREET":"永華八街","SECT":" ","MAREA":" ","LANE":"１９３巷","ALLEY":" ","HOUSE_NO":"３６之４號","E_COORD97":165093.79957,"N_COORD97":2543741.54256,"ADDRESS":"永華八街１９３巷３６之４號","OBJECTID":655208},"geometry":{"x":165093.7995699998,"y":2543741.542555999}},{"attributes":{"ID":655236,"DIS_CODE":0,"TOWNNAME":"安平區","LI":"華平里","LIN":"17鄰","STREET":"永華八街","SECT":" ","MAREA":" ","LANE":"１９３巷","ALLEY":" ","HOUSE_NO":"３６之５號","E_COORD97":165093.79957,"N_COORD97":2543741.54256,"ADDRESS":"永華八街１９３巷３６之５號","OBJECTID":655209},"geometry":{"x":165093.7995699998,"y":2543741.542555999}},{"attributes":{"ID":655237,"DIS_CODE":0,"TOWNNAME":"中西區","LI":"保安里","LIN":"3鄰","STREET":"保安路","SECT":" ","MAREA":" ","LANE":" ","ALLEY":" ","HOUSE_NO":"９４號","E_COORD97":167535.28954699999,"N_COORD97":2543468.4866200001,"ADDRESS":"保安路９４號","OBJECTID":655210},"geometry":{"x":167535.28954700008,"y":2543468.4866210017}},{"attributes":{"ID":655238,"DIS_CODE":0,"TOWNNAME":"中西區","LI":"保安里","LIN":"3鄰","STREET":"保安路","SECT":" ","MAREA":" ","LANE":" ","ALLEY":" ","HOUSE_NO":"９６號","E_COORD97":167533.382675,"N_COORD97":2543468.9099499998,"ADDRESS":"保安路９６號","OBJECTID":655211},"geometry":{"x":167533.38267499954,"y":2543468.9099540003}},{"attributes":{"ID":655239,"DIS_CODE":0,"TOWNNAME":"新營區","LI":"延平里","LIN":"8鄰","STREET":"忠義街","SECT":" ","MAREA":" ","LANE":" ","ALLEY":" ","HOUSE_NO":"１號","E_COORD97":179648.13425999999,"N_COORD97":2577993.45897,"ADDRESS":"忠義街１號","OBJECTID":655212},"geometry":{"x":179648.13426000066,"y":2577993.4589740001}},{"attributes":{"ID":655240,"DIS_CODE":0,"TOWNNAME":"仁德區","LI":"後壁里","LIN":"21鄰","STREET":"中正路","SECT":"二段","MAREA":" ","LANE":"９７巷","ALLEY":" ","HOUSE_NO":"４７號","E_COORD97":173031.68238899999,"N_COORD97":2538565.3076399998,"ADDRESS":"中正路二段９７巷４７號","OBJECTID":655213},"geometry":{"x":173031.68238900136,"y":2538565.3076350018}},{"attributes":{"ID":655241,"DIS_CODE":0,"TOWNNAME":"仁德區","LI":"後壁里","LIN":"22鄰","STREET":"中正路","SECT":"二段","MAREA":" ","LANE":" ","ALLEY":" ","HOUSE_NO":"９９號","E_COORD97":173154.14006199999,"N_COORD97":2538498.7385,"ADDRESS":"中正路二段９９號","OBJECTID":655214},"geometry":{"x":173154.14006199967,"y":2538498.7385040019}},{"attributes":{"ID":655242,"DIS_CODE":0,"TOWNNAME":"仁德區","LI":"後壁里","LIN":"22鄰","STREET":"中正路","SECT":"二段","MAREA":" ","LANE":" ","ALLEY":" ","HOUSE_NO":"１０１號","E_COORD97":173155.836446,"N_COORD97":2538504.6651699999,"ADDRESS":"中正路二段１０１號","OBJECTID":655215},"geometry":{"x":173155.83644600213,"y":2538504.6651680022}},{"attributes":{"ID":655243,"DIS_CODE":0,"TOWNNAME":"仁德區","LI":"後壁里","LIN":"22鄰","STREET":"中正路","SECT":"二段","MAREA":" ","LANE":"１８７巷","ALLEY":" ","HOUSE_NO":"１６號","E_COORD97":173138.13044499999,"N_COORD97":2538642.3542599999,"ADDRESS":"中正路二段１８７巷１６號","OBJECTID":655216},"geometry":{"x":173138.13044499978,"y":2538642.3542599995}},{"attributes":{"ID":655244,"DIS_CODE":0,"TOWNNAME":"安南區","LI":"新順里","LIN":"7鄰","STREET":"總安街","SECT":"一段","MAREA":" ","LANE":" ","ALLEY":" ","HOUSE_NO":"３１５號","E_COORD97":169293.21146699999,"N_COORD97":2550303.6006999998,"ADDRESS":"總安街一段３１５號","OBJECTID":655217},"geometry":{"x":169293.21146700066,"y":2550303.6006960012}},{"attributes":{"ID":655245,"DIS_CODE":0,"TOWNNAME":"善化區","LI":"北關里","LIN":"7鄰","STREET":"博愛路","SECT":" ","MAREA":" ","LANE":"７巷","ALLEY":" ","HOUSE_NO":"２號","E_COORD97":177252.716415,"N_COORD97":2559181.64916,"ADDRESS":"博愛路７巷２號","OBJECTID":655218},"geometry":{"x":177252.71641500015,"y":2559181.6491590012}},{"attributes":{"ID":655246,"DIS_CODE":0,"TOWNNAME":"善化區","LI":"北關里","LIN":"7鄰","STREET":"博愛路","SECT":" ","MAREA":" ","LANE":"７巷","ALLEY":" ","HOUSE_NO":"８號","E_COORD97":177245.51477800001,"N_COORD97":2559160.4824999999,"ADDRESS":"博愛路７巷８號","OBJECTID":655219},"geometry":{"x":177245.5147780003,"y":2559160.482503999}},{"attributes":{"ID":655247,"DIS_CODE":0,"TOWNNAME":"善化區","LI":"北關里","LIN":"7鄰","STREET":"博愛路","SECT":" ","MAREA":" ","LANE":" ","ALLEY":" ","HOUSE_NO":"５號","E_COORD97":177260.55348999999,"N_COORD97":2559203.2391499998,"ADDRESS":"博愛路５號","OBJECTID":655220},"geometry":{"x":177260.55348999985,"y":2559203.2391480021}},{"attributes":{"ID":655248,"DIS_CODE":0,"TOWNNAME":"善化區","LI":"北關里","LIN":"9鄰","STREET":"博愛路","SECT":" ","MAREA":" ","LANE":" ","ALLEY":" ","HOUSE_NO":"２１號","E_COORD97":177225.60437099999,"N_COORD97":2559203.4508099998,"ADDRESS":"博愛路２１號","OBJECTID":655221},"geometry":{"x":177225.60437100101,"y":2559203.4508139994}},{"attributes":{"ID":655249,"DIS_CODE":0,"TOWNNAME":"善化區","LI":"北關里","LIN":"8鄰","STREET":"進學路","SECT":" ","MAREA":" ","LANE":" ","ALLEY":" ","HOUSE_NO":"１５號之１","E_COORD97":177279.61663999999,"N_COORD97":2559237.7407900002,"ADDRESS":"進學路１５號之１","OBJECTID":655222},"geometry":{"x":177279.6166400006,"y":2559237.740790002}},{"attributes":{"ID":655250,"DIS_CODE":0,"TOWNNAME":"善化區","LI":"北關里","LIN":"8鄰","STREET":"進學路","SECT":" ","MAREA":" ","LANE":" ","ALLEY":" ","HOUSE_NO":"１９號","E_COORD97":177282.15839999999,"N_COORD97":2559233.2958,"ADDRESS":"進學路１９號","OBJECTID":655223},"geometry":{"x":177282.15840000007,"y":2559233.2957979981}},{"attributes":{"ID":655251,"DIS_CODE":0,"TOWNNAME":"善化區","LI":"北關里","LIN":"8鄰","STREET":"進學路","SECT":" ","MAREA":" ","LANE":" ","ALLEY":" ","HOUSE_NO":"２１號","E_COORD97":177259.176706,"N_COORD97":2559232.76663,"ADDRESS":"進學路２１號","OBJECTID":655224},"geometry":{"x":177259.17670600023,"y":2559232.766632}},{"attributes":{"ID":655252,"DIS_CODE":0,"TOWNNAME":"善化區","LI":"北關里","LIN":"1鄰","STREET":"中山路","SECT":" ","MAREA":" ","LANE":" ","ALLEY":" ","HOUSE_NO":"５４０號之１","E_COORD97":176953.74257999999,"N_COORD97":2559202.1808099998,"ADDRESS":"中山路５４０號之１","OBJECTID":655225},"geometry":{"x":176953.74258000031,"y":2559202.1808100026}},{"attributes":{"ID":655253,"DIS_CODE":0,"TOWNNAME":"善化區","LI":"北關里","LIN":"3鄰","STREET":"中山路","SECT":" ","MAREA":" ","LANE":"５２４巷","ALLEY":" ","HOUSE_NO":"５號","E_COORD97":177092.05637400001,"N_COORD97":2559208.5308099999,"ADDRESS":"中山路５２４巷５號","OBJECTID":655226},"geometry":{"x":177092.05637400039,"y":2559208.530811999}},{"attributes":{"ID":655254,"DIS_CODE":0,"TOWNNAME":"善化區","LI":"北關里","LIN":"3鄰","STREET":"中山路","SECT":" ","MAREA":" ","LANE":"５２４巷","ALLEY":" ","HOUSE_NO":"８號之１","E_COORD97":177062.19076,"N_COORD97":2559221.6541300002,"ADDRESS":"中山路５２４巷８號之１","OBJECTID":655227},"geometry":{"x":177062.19076000061,"y":2559221.6541300006}},{"attributes":{"ID":655255,"DIS_CODE":0,"TOWNNAME":"善化區","LI":"北關里","LIN":"6鄰","STREET":"中山路","SECT":" ","MAREA":" ","LANE":"５００巷","ALLEY":" ","HOUSE_NO":"５號","E_COORD97":177207.28255999999,"N_COORD97":2559172.5474999999,"ADDRESS":"中山路５００巷５號","OBJECTID":655228},"geometry":{"x":177207.28256000113,"y":2559172.5474980008}},{"attributes":{"ID":655256,"DIS_CODE":0,"TOWNNAME":"鹽水區","LI":"汫水里","LIN":"12鄰","STREET":" ","SECT":" ","MAREA":"溪州寮","LANE":" ","ALLEY":" ","HOUSE_NO":"３之１５號","E_COORD97":177430.13961799999,"N_COORD97":2581855.7914300002,"ADDRESS":"溪州寮３之１５號","OBJECTID":655229},"geometry":{"x":177430.13961800095,"y":2581855.7914300002}},{"attributes":{"ID":655257,"DIS_CODE":0,"TOWNNAME":"鹽水區","LI":"汫水里","LIN":"12鄰","STREET":" ","SECT":" ","MAREA":"溪州寮","LANE":" ","ALLEY":" ","HOUSE_NO":"２之１８號","E_COORD97":177779.19090399999,"N_COORD97":2581433.7283200002,"ADDRESS":"溪州寮２之１８號","OBJECTID":655230},"geometry":{"x":177779.19090399984,"y":2581433.7283240035}},{"attributes":{"ID":655258,"DIS_CODE":0,"TOWNNAME":"鹽水區","LI":"汫水里","LIN":"12鄰","STREET":" ","SECT":" ","MAREA":"溪州寮","LANE":" ","ALLEY":" ","HOUSE_NO":"２之１７號","E_COORD97":177724.96934499999,"N_COORD97":2581107.12683,"ADDRESS":"溪州寮２之１７號","OBJECTID":655231},"geometry":{"x":177724.96934499964,"y":2581107.1268340033}},{"attributes":{"ID":655259,"DIS_CODE":0,"TOWNNAME":"安平區","LI":"華平里","LIN":"11鄰","STREET":"怡平路","SECT":" ","MAREA":" ","LANE":"４４２巷","ALLEY":" ","HOUSE_NO":"６３號四樓之七","E_COORD97":165295.56210400001,"N_COORD97":2544009.0302499998,"ADDRESS":"怡平路４４２巷６３號四樓之七","OBJECTID":655232},"geometry":{"x":165295.56210399978,"y":2544009.0302450042}},{"attributes":{"ID":655260,"DIS_CODE":0,"TOWNNAME":"安平區","LI":"華平里","LIN":"11鄰","STREET":"怡平路","SECT":" ","MAREA":" ","LANE":"４４２巷","ALLEY":" ","HOUSE_NO":"９２號","E_COORD97":165320.991007,"N_COORD97":2544049.03522,"ADDRESS":"怡平路４４２巷９２號","OBJECTID":655233},"geometry":{"x":165320.99100700114,"y":2544049.0352230016}},{"attributes":{"ID":655261,"DIS_CODE":0,"TOWNNAME":"安平區","LI":"華平里","LIN":"3鄰","STREET":"怡平路","SECT":" ","MAREA":" ","LANE":"４６８巷","ALLEY":" ","HOUSE_NO":"７２號之１","E_COORD97":165263.77596999999,"N_COORD97":2544038.24022,"ADDRESS":"怡平路４６８巷７２號之１","OBJECTID":655234},"geometry":{"x":165263.77596999984,"y":2544038.240220001}},{"attributes":{"ID":655262,"DIS_CODE":0,"TOWNNAME":"安平區","LI":"華平里","LIN":"12鄰","STREET":"建平八街","SECT":" ","MAREA":" ","LANE":"３７２巷","ALLEY":" ","HOUSE_NO":"２５號","E_COORD97":165366.97493900001,"N_COORD97":2543641.3654399998,"ADDRESS":"建平八街３７２巷２５號","OBJECTID":655235},"geometry":{"x":165366.97493900079,"y":2543641.3654440027}},{"attributes":{"ID":655263,"DIS_CODE":0,"TOWNNAME":"安平區","LI":"華平里","LIN":"12鄰","STREET":"建平八街","SECT":" ","MAREA":" ","LANE":"３７２巷","ALLEY":" ","HOUSE_NO":"４１號","E_COORD97":165368.67019999999,"N_COORD97":2543687.9320899998,"ADDRESS":"建平八街３７２巷４１號","OBJECTID":655236},"geometry":{"x":165368.67019999959,"y":2543687.9320850018}},{"attributes":{"ID":655264,"DIS_CODE":0,"TOWNNAME":"安平區","LI":"華平里","LIN":"12鄰","STREET":"建平八街","SECT":" ","MAREA":" ","LANE":"３７２巷","ALLEY":" ","HOUSE_NO":"４３號","E_COORD97":165368.246384,"N_COORD97":2543692.37708,"ADDRESS":"建平八街３７２巷４３號","OBJECTID":655237},"geometry":{"x":165368.24638400134,"y":2543692.3770829998}},{"attributes":{"ID":655265,"DIS_CODE":0,"TOWNNAME":"安平區","LI":"華平里","LIN":"18鄰","STREET":"建平八街","SECT":" ","MAREA":" ","LANE":"４５０巷","ALLEY":" ","HOUSE_NO":"１０號之１","E_COORD97":165102.30244199999,"N_COORD97":2543657.4520999999,"ADDRESS":"建平八街４５０巷１０號之１","OBJECTID":655238},"geometry":{"x":165102.30244200118,"y":2543657.4521020018}},{"attributes":{"ID":655266,"DIS_CODE":0,"TOWNNAME":"安平區","LI":"華平里","LIN":"18鄰","STREET":"建平八街","SECT":" ","MAREA":" ","LANE":"４５０巷","ALLEY":" ","HOUSE_NO":"１０號之２","E_COORD97":165102.30244199999,"N_COORD97":2543657.4520999999,"ADDRESS":"建平八街４５０巷１０號之２","OBJECTID":655239},"geometry":{"x":165102.30244200118,"y":2543657.4521020018}},{"attributes":{"ID":655267,"DIS_CODE":0,"TOWNNAME":"安平區","LI":"華平里","LIN":"18鄰","STREET":"建平八街","SECT":" ","MAREA":" ","LANE":"４５０巷","ALLEY":" ","HOUSE_NO":"１０號之３","E_COORD97":165102.30244199999,"N_COORD97":2543657.4520999999,"ADDRESS":"建平八街４５０巷１０號之３","OBJECTID":655240},"geometry":{"x":165102.30244200118,"y":2543657.4521020018}},{"attributes":{"ID":655268,"DIS_CODE":0,"TOWNNAME":"安平區","LI":"華平里","LIN":"18鄰","STREET":"建平八街","SECT":" ","MAREA":" ","LANE":"４５０巷","ALLEY":" ","HOUSE_NO":"１０號之４","E_COORD97":165102.30244199999,"N_COORD97":2543657.4520999999,"ADDRESS":"建平八街４５０巷１０號之４","OBJECTID":655241},"geometry":{"x":165102.30244200118,"y":2543657.4521020018}},{"attributes":{"ID":655269,"DIS_CODE":0,"TOWNNAME":"安平區","LI":"華平里","LIN":"18鄰","STREET":"建平八街","SECT":" ","MAREA":" ","LANE":"４５０巷","ALLEY":" ","HOUSE_NO":"１０號之４五樓","E_COORD97":165102.30244199999,"N_COORD97":2543657.4520999999,"ADDRESS":"建平八街４５０巷１０號之４五樓","OBJECTID":655242},"geometry":{"x":165102.30244200118,"y":2543657.4521020018}},{"attributes":{"ID":655270,"DIS_CODE":0,"TOWNNAME":"安平區","LI":"華平里","LIN":"18鄰","STREET":"建平八街","SECT":" ","MAREA":" ","LANE":"４５０巷","ALLEY":" ","HOUSE_NO":"１０號之５","E_COORD97":165102.30244199999,"N_COORD97":2543657.4520999999,"ADDRESS":"建平八街４５０巷１０號之５","OBJECTID":655243},"geometry":{"x":165102.30244200118,"y":2543657.4521020018}},{"attributes":{"ID":655271,"DIS_CODE":0,"TOWNNAME":"安平區","LI":"華平里","LIN":"18鄰","STREET":"建平八街","SECT":" ","MAREA":" ","LANE":"４５０巷","ALLEY":" ","HOUSE_NO":"１２號之１","E_COORD97":165102.514349,"N_COORD97":2543666.3421,"ADDRESS":"建平八街４５０巷１２號之１","OBJECTID":655244},"geometry":{"x":165102.51434900053,"y":2543666.3420969993}},{"attributes":{"ID":655272,"DIS_CODE":0,"TOWNNAME":"安平區","LI":"華平里","LIN":"18鄰","STREET":"建平八街","SECT":" ","MAREA":" ","LANE":"４５０巷","ALLEY":" ","HOUSE_NO":"１２號之２","E_COORD97":165102.514349,"N_COORD97":2543666.3421,"ADDRESS":"建平八街４５０巷１２號之２","OBJECTID":655245},"geometry":{"x":165102.51434900053,"y":2543666.3420969993}},{"attributes":{"ID":655273,"DIS_CODE":0,"TOWNNAME":"安平區","LI":"華平里","LIN":"18鄰","STREET":"建平八街","SECT":" ","MAREA":" ","LANE":"４５０巷","ALLEY":" ","HOUSE_NO":"１２號之３","E_COORD97":165102.514349,"N_COORD97":2543666.3421,"ADDRESS":"建平八街４５０巷１２號之３","OBJECTID":655246},"geometry":{"x":165102.51434900053,"y":2543666.3420969993}},{"attributes":{"ID":655274,"DIS_CODE":0,"TOWNNAME":"安平區","LI":"華平里","LIN":"18鄰","STREET":"建平八街","SECT":" ","MAREA":" ","LANE":"４５０巷","ALLEY":" ","HOUSE_NO":"１２號之４","E_COORD97":165102.514349,"N_COORD97":2543666.3421,"ADDRESS":"建平八街４５０巷１２號之４","OBJECTID":655247},"geometry":{"x":165102.51434900053,"y":2543666.3420969993}},{"attributes":{"ID":655275,"DIS_CODE":0,"TOWNNAME":"安平區","LI":"華平里","LIN":"18鄰","STREET":"建平八街","SECT":" ","MAREA":" ","LANE":"４５０巷","ALLEY":" ","HOUSE_NO":"１２號之５","E_COORD97":165102.514349,"N_COORD97":2543666.3421,"ADDRESS":"建平八街４５０巷１２號之５","OBJECTID":655248},"geometry":{"x":165102.51434900053,"y":2543666.3420969993}},{"attributes":{"ID":655276,"DIS_CODE":0,"TOWNNAME":"安平區","LI":"華平里","LIN":"18鄰","STREET":"建平八街","SECT":" ","MAREA":" ","LANE":"４５０巷","ALLEY":" ","HOUSE_NO":"１４號之１","E_COORD97":165104.20960900001,"N_COORD97":2543675.02043,"ADDRESS":"建平八街４５０巷１４號之１","OBJECTID":655249},"geometry":{"x":165104.20960900094,"y":2543675.0204250012}},{"attributes":{"ID":655277,"DIS_CODE":0,"TOWNNAME":"安平區","LI":"華平里","LIN":"18鄰","STREET":"建平八街","SECT":" ","MAREA":" ","LANE":"４５０巷","ALLEY":" ","HOUSE_NO":"１４號之２","E_COORD97":165104.20960900001,"N_COORD97":2543675.02043,"ADDRESS":"建平八街４５０巷１４號之２","OBJECTID":655250},"geometry":{"x":165104.20960900094,"y":2543675.0204250012}},{"attributes":{"ID":655278,"DIS_CODE":0,"TOWNNAME":"安平區","LI":"華平里","LIN":"18鄰","STREET":"建平八街","SECT":" ","MAREA":" ","LANE":"４５０巷","ALLEY":" ","HOUSE_NO":"１４號之３","E_COORD97":165104.20960900001,"N_COORD97":2543675.02043,"ADDRESS":"建平八街４５０巷１４號之３","OBJECTID":655251},"geometry":{"x":165104.20960900094,"y":2543675.0204250012}},{"attributes":{"ID":655279,"DIS_CODE":0,"TOWNNAME":"安平區","LI":"華平里","LIN":"18鄰","STREET":"建平八街","SECT":" ","MAREA":" ","LANE":"４５０巷","ALLEY":" ","HOUSE_NO":"１４號之４","E_COORD97":165104.20960900001,"N_COORD97":2543675.02043,"ADDRESS":"建平八街４５０巷１４號之４","OBJECTID":655252},"geometry":{"x":165104.20960900094,"y":2543675.0204250012}},{"attributes":{"ID":655280,"DIS_CODE":0,"TOWNNAME":"安平區","LI":"華平里","LIN":"18鄰","STREET":"建平八街","SECT":" ","MAREA":" ","LANE":"４５０巷","ALLEY":" ","HOUSE_NO":"１４號之５","E_COORD97":165104.20960900001,"N_COORD97":2543675.02043,"ADDRESS":"建平八街４５０巷１４號之５","OBJECTID":655253},"geometry":{"x":165104.20960900094,"y":2543675.0204250012}},{"attributes":{"ID":655281,"DIS_CODE":0,"TOWNNAME":"安平區","LI":"華平里","LIN":"18鄰","STREET":"建平八街","SECT":" ","MAREA":" ","LANE":"４５０巷","ALLEY":" ","HOUSE_NO":"１６號之１","E_COORD97":165106.11677699999,"N_COORD97":2543683.69875,"ADDRESS":"建平八街４５０巷１６號之１","OBJECTID":655254},"geometry":{"x":165106.11677700002,"y":2543683.6987539995}},{"attributes":{"ID":655282,"DIS_CODE":0,"TOWNNAME":"安平區","LI":"華平里","LIN":"18鄰","STREET":"建平八街","SECT":" ","MAREA":" ","LANE":"４５０巷","ALLEY":" ","HOUSE_NO":"１６號之２","E_COORD97":165106.11677699999,"N_COORD97":2543683.69875,"ADDRESS":"建平八街４５０巷１６號之２","OBJECTID":655255},"geometry":{"x":165106.11677700002,"y":2543683.6987539995}},{"attributes":{"ID":655283,"DIS_CODE":0,"TOWNNAME":"安平區","LI":"華平里","LIN":"18鄰","STREET":"建平八街","SECT":" ","MAREA":" ","LANE":"４５０巷","ALLEY":" ","HOUSE_NO":"１６號之３","E_COORD97":165106.11677699999,"N_COORD97":2543683.69875,"ADDRESS":"建平八街４５０巷１６號之３","OBJECTID":655256},"geometry":{"x":165106.11677700002,"y":2543683.6987539995}},{"attributes":{"ID":655284,"DIS_CODE":0,"TOWNNAME":"安平區","LI":"華平里","LIN":"18鄰","STREET":"建平八街","SECT":" ","MAREA":" ","LANE":"４５０巷","ALLEY":" ","HOUSE_NO":"１６號之４","E_COORD97":165106.11677699999,"N_COORD97":2543683.69875,"ADDRESS":"建平八街４５０巷１６號之４","OBJECTID":655257},"geometry":{"x":165106.11677700002,"y":2543683.6987539995}},{"attributes":{"ID":655285,"DIS_CODE":0,"TOWNNAME":"安平區","LI":"華平里","LIN":"18鄰","STREET":"建平八街","SECT":" ","MAREA":" ","LANE":"４５０巷","ALLEY":" ","HOUSE_NO":"１６號之５","E_COORD97":165106.11677699999,"N_COORD97":2543683.69875,"ADDRESS":"建平八街４５０巷１６號之５","OBJECTID":655258},"geometry":{"x":165106.11677700002,"y":2543683.6987539995}},{"attributes":{"ID":655286,"DIS_CODE":0,"TOWNNAME":"安平區","LI":"華平里","LIN":"18鄰","STREET":"建平八街","SECT":" ","MAREA":" ","LANE":"４５０巷","ALLEY":" ","HOUSE_NO":"１８號之１","E_COORD97":165107.17631499999,"N_COORD97":2543691.5304200002,"ADDRESS":"建平八街４５０巷１８號之１","OBJECTID":655259},"geometry":{"x":165107.17631499935,"y":2543691.5304160044}},{"attributes":{"ID":655287,"DIS_CODE":0,"TOWNNAME":"安平區","LI":"華平里","LIN":"18鄰","STREET":"建平八街","SECT":" ","MAREA":" ","LANE":"４５０巷","ALLEY":" ","HOUSE_NO":"１８號之２","E_COORD97":165107.17631499999,"N_COORD97":2543691.5304200002,"ADDRESS":"建平八街４５０巷１８號之２","OBJECTID":655260},"geometry":{"x":165107.17631499935,"y":2543691.5304160044}},{"attributes":{"ID":655288,"DIS_CODE":0,"TOWNNAME":"安平區","LI":"華平里","LIN":"18鄰","STREET":"建平八街","SECT":" ","MAREA":" ","LANE":"４５０巷","ALLEY":" ","HOUSE_NO":"１８號之３","E_COORD97":165107.17631499999,"N_COORD97":2543691.5304200002,"ADDRESS":"建平八街４５０巷１８號之３","OBJECTID":655261},"geometry":{"x":165107.17631499935,"y":2543691.5304160044}},{"attributes":{"ID":655289,"DIS_CODE":0,"TOWNNAME":"安平區","LI":"華平里","LIN":"18鄰","STREET":"建平八街","SECT":" ","MAREA":" ","LANE":"４５０巷","ALLEY":" ","HOUSE_NO":"１８號之４","E_COORD97":165107.17631499999,"N_COORD97":2543691.5304200002,"ADDRESS":"建平八街４５０巷１８號之４","OBJECTID":655262},"geometry":{"x":165107.17631499935,"y":2543691.5304160044}},{"attributes":{"ID":655290,"DIS_CODE":0,"TOWNNAME":"安平區","LI":"華平里","LIN":"18鄰","STREET":"建平八街","SECT":" ","MAREA":" ","LANE":"４５０巷","ALLEY":" ","HOUSE_NO":"１８號之５","E_COORD97":165107.17631499999,"N_COORD97":2543691.5304200002,"ADDRESS":"建平八街４５０巷１８號之５","OBJECTID":655263},"geometry":{"x":165107.17631499935,"y":2543691.5304160044}},{"attributes":{"ID":655291,"DIS_CODE":0,"TOWNNAME":"安平區","LI":"華平里","LIN":"18鄰","STREET":"建平八街","SECT":" ","MAREA":" ","LANE":"４５０巷","ALLEY":" ","HOUSE_NO":"２０號之１","E_COORD97":165108.02394499999,"N_COORD97":2543700.4204099998,"ADDRESS":"建平八街４５０巷２０號之１","OBJECTID":655264},"geometry":{"x":165108.02394500095,"y":2543700.4204120021}},{"attributes":{"ID":655292,"DIS_CODE":0,"TOWNNAME":"安平區","LI":"華平里","LIN":"18鄰","STREET":"建平八街","SECT":" ","MAREA":" ","LANE":"４５０巷","ALLEY":" ","HOUSE_NO":"２０號之２","E_COORD97":165108.02394499999,"N_COORD97":2543700.4204099998,"ADDRESS":"建平八街４５０巷２０號之２","OBJECTID":655265},"geometry":{"x":165108.02394500095,"y":2543700.4204120021}},{"attributes":{"ID":655293,"DIS_CODE":0,"TOWNNAME":"安平區","LI":"華平里","LIN":"18鄰","STREET":"建平八街","SECT":" ","MAREA":" ","LANE":"４５０巷","ALLEY":" ","HOUSE_NO":"２０號之３","E_COORD97":165108.02394499999,"N_COORD97":2543700.4204099998,"ADDRESS":"建平八街４５０巷２０號之３","OBJECTID":655266},"geometry":{"x":165108.02394500095,"y":2543700.4204120021}},{"attributes":{"ID":655294,"DIS_CODE":0,"TOWNNAME":"安平區","LI":"華平里","LIN":"18鄰","STREET":"建平八街","SECT":" ","MAREA":" ","LANE":"４５０巷","ALLEY":" ","HOUSE_NO":"２０號之４","E_COORD97":165108.02394499999,"N_COORD97":2543700.4204099998,"ADDRESS":"建平八街４５０巷２０號之４","OBJECTID":655267},"geometry":{"x":165108.02394500095,"y":2543700.4204120021}},{"attributes":{"ID":655295,"DIS_CODE":0,"TOWNNAME":"安平區","LI":"華平里","LIN":"18鄰","STREET":"建平八街","SECT":" ","MAREA":" ","LANE":"４５０巷","ALLEY":" ","HOUSE_NO":"２０號之５","E_COORD97":165108.02394499999,"N_COORD97":2543700.4204099998,"ADDRESS":"建平八街４５０巷２０號之５","OBJECTID":655268},"geometry":{"x":165108.02394500095,"y":2543700.4204120021}},{"attributes":{"ID":655296,"DIS_CODE":0,"TOWNNAME":"仁德區","LI":"後壁里","LIN":"22鄰","STREET":"中正路","SECT":"二段","MAREA":" ","LANE":"１８７巷","ALLEY":" ","HOUSE_NO":"１２號","E_COORD97":173142.43613099999,"N_COORD97":2538651.8778599999,"ADDRESS":"中正路二段１８７巷１２號","OBJECTID":655269},"geometry":{"x":173142.43613099959,"y":2538651.8778600004}},{"attributes":{"ID":655297,"DIS_CODE":0,"TOWNNAME":"安平區","LI":"華平里","LIN":"7鄰","STREET":"建平十一街","SECT":" ","MAREA":" ","LANE":" ","ALLEY":" ","HOUSE_NO":"３６１號之１","E_COORD97":165443.26164800001,"N_COORD97":2544004.3735799999,"ADDRESS":"建平十一街３６１號之１","OBJECTID":655270},"geometry":{"x":165443.26164800022,"y":2544004.3735810034}},{"attributes":{"ID":655298,"DIS_CODE":0,"TOWNNAME":"安平區","LI":"華平里","LIN":"7鄰","STREET":"建平十一街","SECT":" ","MAREA":" ","LANE":" ","ALLEY":" ","HOUSE_NO":"３６１號之２","E_COORD97":165443.26164800001,"N_COORD97":2544004.3735799999,"ADDRESS":"建平十一街３６１號之２","OBJECTID":655271},"geometry":{"x":165443.26164800022,"y":2544004.3735810034}},{"attributes":{"ID":655299,"DIS_CODE":0,"TOWNNAME":"安平區","LI":"華平里","LIN":"7鄰","STREET":"建平十一街","SECT":" ","MAREA":" ","LANE":" ","ALLEY":" ","HOUSE_NO":"３６１號之３","E_COORD97":165443.26164800001,"N_COORD97":2544004.3735799999,"ADDRESS":"建平十一街３６１號之３","OBJECTID":655272},"geometry":{"x":165443.26164800022,"y":2544004.3735810034}},{"attributes":{"ID":655300,"DIS_CODE":0,"TOWNNAME":"安平區","LI":"華平里","LIN":"16鄰","STREET":"國平路","SECT":" ","MAREA":" ","LANE":" ","ALLEY":" ","HOUSE_NO":"３５６號三樓","E_COORD97":165055.68278599999,"N_COORD97":2543746.9870500001,"ADDRESS":"國平路３５６號三樓","OBJECTID":655273},"geometry":{"x":165055.68278600089,"y":2543746.9870529994}},{"attributes":{"ID":655301,"DIS_CODE":0,"TOWNNAME":"永康區","LI":"二王里","LIN":"3鄰","STREET":"二王路","SECT":" ","MAREA":" ","LANE":"１３５巷","ALLEY":"５３弄","HOUSE_NO":"２號","E_COORD97":173112.46301100001,"N_COORD97":2546599.48844,"ADDRESS":"二王路１３５巷５３弄２號","OBJECTID":655274},"geometry":{"x":173112.46301100031,"y":2546599.4884360004}},{"attributes":{"ID":655302,"DIS_CODE":0,"TOWNNAME":"安平區","LI":"華平里","LIN":"16鄰","STREET":"國平路","SECT":" ","MAREA":" ","LANE":" ","ALLEY":" ","HOUSE_NO":"３７４號之１","E_COORD97":165063.94717999999,"N_COORD97":2543794.82369,"ADDRESS":"國平路３７４號之１","OBJECTID":655275},"geometry":{"x":165063.94718000107,"y":2543794.8236940019}},{"attributes":{"ID":655303,"DIS_CODE":0,"TOWNNAME":"安平區","LI":"華平里","LIN":"16鄰","STREET":"國平路","SECT":" ","MAREA":" ","LANE":" ","ALLEY":" ","HOUSE_NO":"３７４號之２","E_COORD97":165063.94717999999,"N_COORD97":2543794.82369,"ADDRESS":"國平路３７４號之２","OBJECTID":655276},"geometry":{"x":165063.94718000107,"y":2543794.8236940019}},{"attributes":{"ID":655304,"DIS_CODE":0,"TOWNNAME":"永康區","LI":"二王里","LIN":"3鄰","STREET":"二王路","SECT":" ","MAREA":" ","LANE":"１３５巷","ALLEY":"５３弄","HOUSE_NO":"６號","E_COORD97":173110.55544900001,"N_COORD97":2546604.56843,"ADDRESS":"二王路１３５巷５３弄６號","OBJECTID":655277},"geometry":{"x":173110.55544899963,"y":2546604.5684340037}},{"attributes":{"ID":655305,"DIS_CODE":0,"TOWNNAME":"安平區","LI":"華平里","LIN":"16鄰","STREET":"國平路","SECT":" ","MAREA":" ","LANE":" ","ALLEY":" ","HOUSE_NO":"３７４號之３","E_COORD97":165063.94717999999,"N_COORD97":2543794.82369,"ADDRESS":"國平路３７４號之３","OBJECTID":655278},"geometry":{"x":165063.94718000107,"y":2543794.8236940019}},{"attributes":{"ID":655306,"DIS_CODE":0,"TOWNNAME":"安平區","LI":"華平里","LIN":"16鄰","STREET":"國平路","SECT":" ","MAREA":" ","LANE":" ","ALLEY":" ","HOUSE_NO":"３７４號之４","E_COORD97":165063.94717999999,"N_COORD97":2543794.82369,"ADDRESS":"國平路３７４號之４","OBJECTID":655279},"geometry":{"x":165063.94718000107,"y":2543794.8236940019}},{"attributes":{"ID":655307,"DIS_CODE":0,"TOWNNAME":"安平區","LI":"華平里","LIN":"2鄰","STREET":"國平路","SECT":" ","MAREA":" ","LANE":"５５２巷","ALLEY":" ","HOUSE_NO":"１０３號二樓","E_COORD97":165321.41482199999,"N_COORD97":2544134.12518,"ADDRESS":"國平路５５２巷１０３號二樓","OBJECTID":655280},"geometry":{"x":165321.41482200101,"y":2544134.1251769997}},{"attributes":{"ID":655308,"DIS_CODE":0,"TOWNNAME":"永康區","LI":"二王里","LIN":"3鄰","STREET":"二王路","SECT":" ","MAREA":" ","LANE":"１３５巷","ALLEY":"５３弄","HOUSE_NO":"８號","E_COORD97":173109.283742,"N_COORD97":2546608.3519700002,"ADDRESS":"二王路１３５巷５３弄８號","OBJECTID":655281},"geometry":{"x":173109.28374200035,"y":2546608.3519730009}},{"attributes":{"ID":655309,"DIS_CODE":0,"TOWNNAME":"永康區","LI":"二王里","LIN":"3鄰","STREET":"二王路","SECT":" ","MAREA":" ","LANE":"１３５巷","ALLEY":"５３弄","HOUSE_NO":"１０號","E_COORD97":173107.800082,"N_COORD97":2546612.79697,"ADDRESS":"二王路１３５巷５３弄１０號","OBJECTID":655282},"geometry":{"x":173107.8000820009,"y":2546612.7969710007}},{"attributes":{"ID":655310,"DIS_CODE":0,"TOWNNAME":"永康區","LI":"二王里","LIN":"3鄰","STREET":"二王路","SECT":" ","MAREA":" ","LANE":"１３５巷","ALLEY":"５３弄","HOUSE_NO":"１２號","E_COORD97":173106.52837499999,"N_COORD97":2546616.6069700001,"ADDRESS":"二王路１３５巷５３弄１２號","OBJECTID":655283},"geometry":{"x":173106.52837499976,"y":2546616.6069690008}},{"attributes":{"ID":655311,"DIS_CODE":0,"TOWNNAME":"永康區","LI":"二王里","LIN":"3鄰","STREET":"二王路","SECT":" ","MAREA":" ","LANE":"１３５巷","ALLEY":"５３弄","HOUSE_NO":"１６號","E_COORD97":173105.044716,"N_COORD97":2546619.9936299999,"ADDRESS":"二王路１３５巷５３弄１６號","OBJECTID":655284},"geometry":{"x":173105.04471599963,"y":2546619.9936340004}},{"attributes":{"ID":655312,"DIS_CODE":0,"TOWNNAME":"永康區","LI":"二王里","LIN":"3鄰","STREET":"二王路","SECT":" ","MAREA":" ","LANE":"１３５巷","ALLEY":"５３弄","HOUSE_NO":"１８號","E_COORD97":173103.56105700001,"N_COORD97":2546623.3802999998,"ADDRESS":"二王路１３５巷５３弄１８號","OBJECTID":655285},"geometry":{"x":173103.56105700042,"y":2546623.3802980017}},{"attributes":{"ID":655313,"DIS_CODE":0,"TOWNNAME":"永康區","LI":"二王里","LIN":"3鄰","STREET":"二王路","SECT":" ","MAREA":" ","LANE":"１３５巷","ALLEY":"５３弄","HOUSE_NO":"２０號","E_COORD97":173101.86544600001,"N_COORD97":2546627.9311299999,"ADDRESS":"二王路１３５巷５３弄２０號","OBJECTID":655286},"geometry":{"x":173101.86544600036,"y":2546627.9311290029}},{"attributes":{"ID":655314,"DIS_CODE":0,"TOWNNAME":"永康區","LI":"二王里","LIN":"3鄰","STREET":"二王路","SECT":" ","MAREA":" ","LANE":"１３５巷","ALLEY":"５３弄","HOUSE_NO":"２２號","E_COORD97":173099.95788500001,"N_COORD97":2546630.8944600001,"ADDRESS":"二王路１３５巷５３弄２２號","OBJECTID":655287},"geometry":{"x":173099.95788499899,"y":2546630.8944610003}},{"attributes":{"ID":655315,"DIS_CODE":0,"TOWNNAME":"永康區","LI":"二王里","LIN":"3鄰","STREET":"二王路","SECT":" ","MAREA":" ","LANE":"１３５巷","ALLEY":"５３弄","HOUSE_NO":"２６號","E_COORD97":173098.898128,"N_COORD97":2546636.3977899998,"ADDRESS":"二王路１３５巷５３弄２６號","OBJECTID":655288},"geometry":{"x":173098.89812800102,"y":2546636.3977910019}},{"attributes":{"ID":655316,"DIS_CODE":0,"TOWNNAME":"永康區","LI":"二王里","LIN":"3鄰","STREET":"二王路","SECT":" ","MAREA":" ","LANE":"１３５巷","ALLEY":"５３弄","HOUSE_NO":"２８號","E_COORD97":173098.47422599999,"N_COORD97":2546640.63112,"ADDRESS":"二王路１３５巷５３弄２８號","OBJECTID":655289},"geometry":{"x":173098.47422599979,"y":2546640.6311220005}},{"attributes":{"ID":655317,"DIS_CODE":0,"TOWNNAME":"永康區","LI":"二王里","LIN":"3鄰","STREET":"二王路","SECT":" ","MAREA":" ","LANE":"１３５巷","ALLEY":"５３弄","HOUSE_NO":"３０號","E_COORD97":173097.20251800001,"N_COORD97":2546645.0761199999,"ADDRESS":"二王路１３５巷５３弄３０號","OBJECTID":655290},"geometry":{"x":173097.2025180012,"y":2546645.0761200041}},{"attributes":{"ID":655318,"DIS_CODE":0,"TOWNNAME":"永康區","LI":"二王里","LIN":"3鄰","STREET":"二王路","SECT":" ","MAREA":" ","LANE":"１３５巷","ALLEY":"５３弄","HOUSE_NO":"３２號","E_COORD97":173096.56666400001,"N_COORD97":2546647.6161199999,"ADDRESS":"二王路１３５巷５３弄３２號","OBJECTID":655291},"geometry":{"x":173096.5666640019,"y":2546647.6161190029}},{"attributes":{"ID":655319,"DIS_CODE":0,"TOWNNAME":"永康區","LI":"二王里","LIN":"3鄰","STREET":"二王路","SECT":" ","MAREA":" ","LANE":"１３５巷","ALLEY":"５３弄","HOUSE_NO":"３６號","E_COORD97":173095.71885899999,"N_COORD97":2546651.0027800002,"ADDRESS":"二王路１３５巷５３弄３６號","OBJECTID":655292},"geometry":{"x":173095.71885900106,"y":2546651.0027830005}},{"attributes":{"ID":655320,"DIS_CODE":0,"TOWNNAME":"永康區","LI":"二王里","LIN":"3鄰","STREET":"二王路","SECT":" ","MAREA":" ","LANE":"１３５巷","ALLEY":"５３弄","HOUSE_NO":"３８號","E_COORD97":173094.65910200001,"N_COORD97":2546654.17778,"ADDRESS":"二王路１３５巷５３弄３８號","OBJECTID":655293},"geometry":{"x":173094.65910200123,"y":2546654.1777819991}},{"attributes":{"ID":655321,"DIS_CODE":0,"TOWNNAME":"永康區","LI":"二王里","LIN":"3鄰","STREET":"二王路","SECT":" ","MAREA":" ","LANE":"１３５巷","ALLEY":"５３弄","HOUSE_NO":"５０號","E_COORD97":173093.81129700001,"N_COORD97":2546657.1411100002,"ADDRESS":"二王路１３５巷５３弄５０號","OBJECTID":655294},"geometry":{"x":173093.81129700039,"y":2546657.1411130019}},{"attributes":{"ID":655322,"DIS_CODE":0,"TOWNNAME":"永康區","LI":"二王里","LIN":"3鄰","STREET":"二王路","SECT":" ","MAREA":" ","LANE":"１３５巷","ALLEY":"５３弄","HOUSE_NO":"５２號","E_COORD97":173093.17544299999,"N_COORD97":2546660.7394500002,"ADDRESS":"二王路１３５巷５３弄５２號","OBJECTID":655295},"geometry":{"x":173093.17544300109,"y":2546660.7394450046}},{"attributes":{"ID":655323,"DIS_CODE":0,"TOWNNAME":"永康區","LI":"二王里","LIN":"3鄰","STREET":"二王路","SECT":" ","MAREA":" ","LANE":"１３５巷","ALLEY":"５３弄","HOUSE_NO":"５６號","E_COORD97":173092.96349200001,"N_COORD97":2546663.91444,"ADDRESS":"二王路１３５巷５３弄５６號","OBJECTID":655296},"geometry":{"x":173092.96349200048,"y":2546663.914443003}},{"attributes":{"ID":655324,"DIS_CODE":0,"TOWNNAME":"永康區","LI":"二王里","LIN":"3鄰","STREET":"二王路","SECT":" ","MAREA":" ","LANE":"１３５巷","ALLEY":"５３弄","HOUSE_NO":"５８號","E_COORD97":173092.11568700001,"N_COORD97":2546666.45444,"ADDRESS":"二王路１３５巷５３弄５８號","OBJECTID":655297},"geometry":{"x":173092.11568700057,"y":2546666.4544420019}},{"attributes":{"ID":655325,"DIS_CODE":0,"TOWNNAME":"永康區","LI":"二王里","LIN":"3鄰","STREET":"二王路","SECT":" ","MAREA":" ","LANE":"１３５巷","ALLEY":"５３弄","HOUSE_NO":"６０號","E_COORD97":173084.69739099999,"N_COORD97":2546665.3961100001,"ADDRESS":"二王路１３５巷５３弄６０號","OBJECTID":655298},"geometry":{"x":173084.69739100058,"y":2546665.3961089998}},{"attributes":{"ID":655326,"DIS_CODE":0,"TOWNNAME":"永康區","LI":"二王里","LIN":"3鄰","STREET":"二王路","SECT":" ","MAREA":" ","LANE":"１３５巷","ALLEY":"５３弄","HOUSE_NO":"６２號","E_COORD97":173084.69739099999,"N_COORD97":2546662.6444399999,"ADDRESS":"二王路１３５巷５３弄６２號","OBJECTID":655299},"geometry":{"x":173084.69739100058,"y":2546662.6444439981}},{"attributes":{"ID":655327,"DIS_CODE":0,"TOWNNAME":"永康區","LI":"二王里","LIN":"3鄰","STREET":"二王路","SECT":" ","MAREA":" ","LANE":"１３５巷","ALLEY":"５３弄","HOUSE_NO":"６６號","E_COORD97":173085.757148,"N_COORD97":2546660.5277800001,"ADDRESS":"二王路１３５巷５３弄６６號","OBJECTID":655300},"geometry":{"x":173085.75714800134,"y":2546660.5277780034}},{"attributes":{"ID":655328,"DIS_CODE":0,"TOWNNAME":"永康區","LI":"二王里","LIN":"3鄰","STREET":"二王路","SECT":" ","MAREA":" ","LANE":"１３５巷","ALLEY":"５３弄","HOUSE_NO":"６８號","E_COORD97":173085.96909900001,"N_COORD97":2546657.77611,"ADDRESS":"二王路１３５巷５３弄６８號","OBJECTID":655301},"geometry":{"x":173085.9690990001,"y":2546657.7761130016}},{"attributes":{"ID":655329,"DIS_CODE":0,"TOWNNAME":"永康區","LI":"二王里","LIN":"3鄰","STREET":"二王路","SECT":" ","MAREA":" ","LANE":"１３５巷","ALLEY":"５３弄","HOUSE_NO":"７０號","E_COORD97":173086.393002,"N_COORD97":2546655.44778,"ADDRESS":"二王路１３５巷５３弄７０號","OBJECTID":655302},"geometry":{"x":173086.39300200064,"y":2546655.447781004}},{"attributes":{"ID":655330,"DIS_CODE":0,"TOWNNAME":"永康區","LI":"二王里","LIN":"3鄰","STREET":"二王路","SECT":" ","MAREA":" ","LANE":"１３５巷","ALLEY":"５３弄","HOUSE_NO":"７２號","E_COORD97":173087.02885599999,"N_COORD97":2546652.90778,"ADDRESS":"二王路１３５巷５３弄７２號","OBJECTID":655303},"geometry":{"x":173087.02885599993,"y":2546652.9077819996}},{"attributes":{"ID":655331,"DIS_CODE":0,"TOWNNAME":"永康區","LI":"二王里","LIN":"3鄰","STREET":"二王路","SECT":" ","MAREA":" ","LANE":"１３５巷","ALLEY":"５３弄","HOUSE_NO":"７６號","E_COORD97":173087.66471000001,"N_COORD97":2546650.7911200002,"ADDRESS":"二王路１３５巷５３弄７６號","OBJECTID":655304},"geometry":{"x":173087.66471000202,"y":2546650.7911170032}},{"attributes":{"ID":655332,"DIS_CODE":0,"TOWNNAME":"永康區","LI":"大灣里","LIN":"31鄰","STREET":"文賢街","SECT":" ","MAREA":" ","LANE":"６８巷","ALLEY":"３６弄","HOUSE_NO":"１３號","E_COORD97":175432.90578100001,"N_COORD97":2545047.4169800002,"ADDRESS":"文賢街６８巷３６弄１３號","OBJECTID":655305},"geometry":{"x":175432.90578099992,"y":2545047.4169830009}},{"attributes":{"ID":655333,"DIS_CODE":0,"TOWNNAME":"永康區","LI":"大灣里","LIN":"31鄰","STREET":"文賢街","SECT":" ","MAREA":" ","LANE":"６８巷","ALLEY":"３６弄","HOUSE_NO":"１５號","E_COORD97":175433.541635,"N_COORD97":2545044.0303199999,"ADDRESS":"文賢街６８巷３６弄１５號","OBJECTID":655306},"geometry":{"x":175433.54163500201,"y":2545044.0303180013}},{"attributes":{"ID":655334,"DIS_CODE":0,"TOWNNAME":"永康區","LI":"大灣里","LIN":"31鄰","STREET":"文賢街","SECT":" ","MAREA":" ","LANE":"６８巷","ALLEY":"３６弄","HOUSE_NO":"１７號","E_COORD97":175434.601391,"N_COORD97":2545041.0669900002,"ADDRESS":"文賢街６８巷３６弄１７號","OBJECTID":655307},"geometry":{"x":175434.60139100067,"y":2545041.066986002}},{"attributes":{"ID":655335,"DIS_CODE":0,"TOWNNAME":"永康區","LI":"大灣里","LIN":"31鄰","STREET":"文賢街","SECT":" ","MAREA":" ","LANE":"６８巷","ALLEY":"３６弄","HOUSE_NO":"１９號","E_COORD97":175435.237245,"N_COORD97":2545038.3153200001,"ADDRESS":"文賢街６８巷３６弄１９號","OBJECTID":655308},"geometry":{"x":175435.23724499997,"y":2545038.3153210022}},{"attributes":{"ID":655336,"DIS_CODE":0,"TOWNNAME":"永康區","LI":"大灣里","LIN":"31鄰","STREET":"文賢街","SECT":" ","MAREA":" ","LANE":"６８巷","ALLEY":"３６弄","HOUSE_NO":"２１號","E_COORD97":175436.50895300001,"N_COORD97":2545036.0928199999,"ADDRESS":"文賢街６８巷３６弄２１號","OBJECTID":655309},"geometry":{"x":175436.50895300135,"y":2545036.0928220004}},{"attributes":{"ID":655337,"DIS_CODE":0,"TOWNNAME":"永康區","LI":"大灣里","LIN":"31鄰","STREET":"文賢街","SECT":" ","MAREA":" ","LANE":"６８巷","ALLEY":"３６弄","HOUSE_NO":"２３號","E_COORD97":175437.144807,"N_COORD97":2545033.76449,"ADDRESS":"文賢街６８巷３６弄２３號","OBJECTID":655310},"geometry":{"x":175437.14480700064,"y":2545033.7644900009}},{"attributes":{"ID":655338,"DIS_CODE":0,"TOWNNAME":"永康區","LI":"大灣里","LIN":"31鄰","STREET":"文賢街","SECT":" ","MAREA":" ","LANE":"６８巷","ALLEY":"３６弄","HOUSE_NO":"２５號","E_COORD97":175438.20456300001,"N_COORD97":2545031.0128299999,"ADDRESS":"文賢街６８巷３６弄２５號","OBJECTID":655311},"geometry":{"x":175438.20456300117,"y":2545031.012825001}},{"attributes":{"ID":655339,"DIS_CODE":0,"TOWNNAME":"西港區","LI":"南海里","LIN":"17鄰","STREET":" ","SECT":" ","MAREA":"東港","LANE":" ","ALLEY":" ","HOUSE_NO":"３７之６號","E_COORD97":167159.991836,"N_COORD97":2556726.2866799999,"ADDRESS":"東港３７之６號","OBJECTID":655312},"geometry":{"x":167159.99183600117,"y":2556726.286683999}},{"attributes":{"ID":655340,"DIS_CODE":0,"TOWNNAME":"永康區","LI":"大灣里","LIN":"31鄰","STREET":"文賢街","SECT":" ","MAREA":" ","LANE":"６８巷","ALLEY":"３６弄","HOUSE_NO":"２７號","E_COORD97":175439.052368,"N_COORD97":2545029.3194900001,"ADDRESS":"文賢街６８巷３６弄２７號","OBJECTID":655313},"geometry":{"x":175439.05236800201,"y":2545029.3194930013}},{"attributes":{"ID":655341,"DIS_CODE":0,"TOWNNAME":"安平區","LI":"華平里","LIN":"1鄰","STREET":"慶平路","SECT":" ","MAREA":" ","LANE":" ","ALLEY":" ","HOUSE_NO":"５０７號","E_COORD97":165176.443504,"N_COORD97":2544198.8951400002,"ADDRESS":"慶平路５０７號","OBJECTID":655314},"geometry":{"x":165176.44350400008,"y":2544198.895142002}},{"attributes":{"ID":655342,"DIS_CODE":0,"TOWNNAME":"安平區","LI":"華平里","LIN":"1鄰","STREET":"慶平路","SECT":" ","MAREA":" ","LANE":" ","ALLEY":" ","HOUSE_NO":"５０７號九樓之１","E_COORD97":165176.443504,"N_COORD97":2544198.8951400002,"ADDRESS":"慶平路５０７號九樓之１","OBJECTID":655315},"geometry":{"x":165176.44350400008,"y":2544198.895142002}},{"attributes":{"ID":655343,"DIS_CODE":0,"TOWNNAME":"安平區","LI":"華平里","LIN":"1鄰","STREET":"慶平路","SECT":" ","MAREA":" ","LANE":" ","ALLEY":" ","HOUSE_NO":"５０７號八樓","E_COORD97":165176.443504,"N_COORD97":2544198.8951400002,"ADDRESS":"慶平路５０７號八樓","OBJECTID":655316},"geometry":{"x":165176.44350400008,"y":2544198.895142002}},{"attributes":{"ID":655344,"DIS_CODE":0,"TOWNNAME":"安平區","LI":"華平里","LIN":"1鄰","STREET":"慶平路","SECT":" ","MAREA":" ","LANE":" ","ALLEY":" ","HOUSE_NO":"５０７號十五樓之２","E_COORD97":165176.443504,"N_COORD97":2544198.8951400002,"ADDRESS":"慶平路５０７號十五樓之２","OBJECTID":655317},"geometry":{"x":165176.44350400008,"y":2544198.895142002}},{"attributes":{"ID":655345,"DIS_CODE":0,"TOWNNAME":"安平區","LI":"華平里","LIN":"1鄰","STREET":"慶平路","SECT":" ","MAREA":" ","LANE":" ","ALLEY":" ","HOUSE_NO":"５０７號之２七樓之１","E_COORD97":165176.443504,"N_COORD97":2544198.8951400002,"ADDRESS":"慶平路５０７號之２七樓之１","OBJECTID":655318},"geometry":{"x":165176.44350400008,"y":2544198.895142002}},{"attributes":{"ID":655346,"DIS_CODE":0,"TOWNNAME":"安平區","LI":"華平里","LIN":"1鄰","STREET":"慶平路","SECT":" ","MAREA":" ","LANE":" ","ALLEY":" ","HOUSE_NO":"５０７號之２七樓之２","E_COORD97":165176.443504,"N_COORD97":2544198.8951400002,"ADDRESS":"慶平路５０７號之２七樓之２","OBJECTID":655319},"geometry":{"x":165176.44350400008,"y":2544198.895142002}},{"attributes":{"ID":655347,"DIS_CODE":0,"TOWNNAME":"安平區","LI":"華平里","LIN":"1鄰","STREET":"慶平路","SECT":" ","MAREA":" ","LANE":" ","ALLEY":" ","HOUSE_NO":"５０７號之２九樓之１","E_COORD97":165176.443504,"N_COORD97":2544198.8951400002,"ADDRESS":"慶平路５０７號之２九樓之１","OBJECTID":655320},"geometry":{"x":165176.44350400008,"y":2544198.895142002}},{"attributes":{"ID":655348,"DIS_CODE":0,"TOWNNAME":"安平區","LI":"華平里","LIN":"1鄰","STREET":"慶平路","SECT":" ","MAREA":" ","LANE":" ","ALLEY":" ","HOUSE_NO":"５０７號之２九樓之２","E_COORD97":165176.443504,"N_COORD97":2544198.8951400002,"ADDRESS":"慶平路５０７號之２九樓之２","OBJECTID":655321},"geometry":{"x":165176.44350400008,"y":2544198.895142002}},{"attributes":{"ID":655349,"DIS_CODE":0,"TOWNNAME":"安平區","LI":"華平里","LIN":"1鄰","STREET":"慶平路","SECT":" ","MAREA":" ","LANE":" ","ALLEY":" ","HOUSE_NO":"５０７號之２二十樓之","E_COORD97":165176.443504,"N_COORD97":2544198.8951400002,"ADDRESS":"慶平路５０７號之２二十樓之１","OBJECTID":655322},"geometry":{"x":165176.44350400008,"y":2544198.895142002}},{"attributes":{"ID":655350,"DIS_CODE":0,"TOWNNAME":"安平區","LI":"華平里","LIN":"1鄰","STREET":"慶平路","SECT":" ","MAREA":" ","LANE":" ","ALLEY":" ","HOUSE_NO":"５０７號之２二十樓之","E_COORD97":165176.443504,"N_COORD97":2544198.8951400002,"ADDRESS":"慶平路５０７號之２二十樓之２","OBJECTID":655323},"geometry":{"x":165176.44350400008,"y":2544198.895142002}},{"attributes":{"ID":655351,"DIS_CODE":0,"TOWNNAME":"安平區","LI":"華平里","LIN":"1鄰","STREET":"慶平路","SECT":" ","MAREA":" ","LANE":" ","ALLEY":" ","HOUSE_NO":"５０７號之２八樓","E_COORD97":165176.443504,"N_COORD97":2544198.8951400002,"ADDRESS":"慶平路５０７號之２八樓","OBJECTID":655324},"geometry":{"x":165176.44350400008,"y":2544198.895142002}},{"attributes":{"ID":655352,"DIS_CODE":0,"TOWNNAME":"安平區","LI":"華平里","LIN":"1鄰","STREET":"慶平路","SECT":" ","MAREA":" ","LANE":" ","ALLEY":" ","HOUSE_NO":"５０７號之２十一樓之","E_COORD97":165176.443504,"N_COORD97":2544198.8951400002,"ADDRESS":"慶平路５０７號之２十一樓之１","OBJECTID":655325},"geometry":{"x":165176.44350400008,"y":2544198.895142002}},{"attributes":{"ID":655353,"DIS_CODE":0,"TOWNNAME":"安平區","LI":"華平里","LIN":"1鄰","STREET":"慶平路","SECT":" ","MAREA":" ","LANE":" ","ALLEY":" ","HOUSE_NO":"５０７號之２十一樓之","E_COORD97":165176.443504,"N_COORD97":2544198.8951400002,"ADDRESS":"慶平路５０７號之２十一樓之２","OBJECTID":655326},"geometry":{"x":165176.44350400008,"y":2544198.895142002}},{"attributes":{"ID":655354,"DIS_CODE":0,"TOWNNAME":"安平區","LI":"華平里","LIN":"1鄰","STREET":"慶平路","SECT":" ","MAREA":" ","LANE":" ","ALLEY":" ","HOUSE_NO":"５０７號之２十七樓之","E_COORD97":165176.443504,"N_COORD97":2544198.8951400002,"ADDRESS":"慶平路５０７號之２十七樓之１","OBJECTID":655327},"geometry":{"x":165176.44350400008,"y":2544198.895142002}},{"attributes":{"ID":655355,"DIS_CODE":0,"TOWNNAME":"安平區","LI":"華平里","LIN":"1鄰","STREET":"慶平路","SECT":" ","MAREA":" ","LANE":" ","ALLEY":" ","HOUSE_NO":"５０７號之２十七樓之","E_COORD97":165176.443504,"N_COORD97":2544198.8951400002,"ADDRESS":"慶平路５０７號之２十七樓之２","OBJECTID":655328},"geometry":{"x":165176.44350400008,"y":2544198.895142002}},{"attributes":{"ID":655356,"DIS_CODE":0,"TOWNNAME":"安平區","LI":"華平里","LIN":"1鄰","STREET":"慶平路","SECT":" ","MAREA":" ","LANE":" ","ALLEY":" ","HOUSE_NO":"５０７號之２十九樓之","E_COORD97":165176.443504,"N_COORD97":2544198.8951400002,"ADDRESS":"慶平路５０７號之２十九樓之１","OBJECTID":655329},"geometry":{"x":165176.44350400008,"y":2544198.895142002}},{"attributes":{"ID":655357,"DIS_CODE":0,"TOWNNAME":"安平區","LI":"華平里","LIN":"1鄰","STREET":"慶平路","SECT":" ","MAREA":" ","LANE":" ","ALLEY":" ","HOUSE_NO":"５０７號之２十九樓之","E_COORD97":165176.443504,"N_COORD97":2544198.8951400002,"ADDRESS":"慶平路５０７號之２十九樓之２","OBJECTID":655330},"geometry":{"x":165176.44350400008,"y":2544198.895142002}},{"attributes":{"ID":655358,"DIS_CODE":0,"TOWNNAME":"安平區","LI":"華平里","LIN":"1鄰","STREET":"慶平路","SECT":" ","MAREA":" ","LANE":" ","ALLEY":" ","HOUSE_NO":"５０７號之２十二樓","E_COORD97":165176.443504,"N_COORD97":2544198.8951400002,"ADDRESS":"慶平路５０７號之２十二樓","OBJECTID":655331},"geometry":{"x":165176.44350400008,"y":2544198.895142002}},{"attributes":{"ID":655359,"DIS_CODE":0,"TOWNNAME":"安平區","LI":"華平里","LIN":"1鄰","STREET":"慶平路","SECT":" ","MAREA":" ","LANE":" ","ALLEY":" ","HOUSE_NO":"５０７號之２十八樓","E_COORD97":165176.443504,"N_COORD97":2544198.8951400002,"ADDRESS":"慶平路５０７號之２十八樓","OBJECTID":655332},"geometry":{"x":165176.44350400008,"y":2544198.895142002}},{"attributes":{"ID":655360,"DIS_CODE":0,"TOWNNAME":"安平區","LI":"華平里","LIN":"1鄰","STREET":"慶平路","SECT":" ","MAREA":" ","LANE":" ","ALLEY":" ","HOUSE_NO":"５０７號之２十八樓之","E_COORD97":165176.443504,"N_COORD97":2544198.8951400002,"ADDRESS":"慶平路５０７號之２十八樓之１","OBJECTID":655333},"geometry":{"x":165176.44350400008,"y":2544198.895142002}},{"attributes":{"ID":655361,"DIS_CODE":0,"TOWNNAME":"安平區","LI":"華平里","LIN":"1鄰","STREET":"慶平路","SECT":" ","MAREA":" ","LANE":" ","ALLEY":" ","HOUSE_NO":"５０７號之２十三樓之","E_COORD97":165176.443504,"N_COORD97":2544198.8951400002,"ADDRESS":"慶平路５０７號之２十三樓之１","OBJECTID":655334},"geometry":{"x":165176.44350400008,"y":2544198.895142002}},{"attributes":{"ID":655362,"DIS_CODE":0,"TOWNNAME":"安平區","LI":"華平里","LIN":"1鄰","STREET":"慶平路","SECT":" ","MAREA":" ","LANE":" ","ALLEY":" ","HOUSE_NO":"５０７號之２十三樓之","E_COORD97":165176.443504,"N_COORD97":2544198.8951400002,"ADDRESS":"慶平路５０７號之２十三樓之２","OBJECTID":655335},"geometry":{"x":165176.44350400008,"y":2544198.895142002}},{"attributes":{"ID":655363,"DIS_CODE":0,"TOWNNAME":"安平區","LI":"華平里","LIN":"1鄰","STREET":"慶平路","SECT":" ","MAREA":" ","LANE":" ","ALLEY":" ","HOUSE_NO":"５０７號之２十五樓之","E_COORD97":165176.443504,"N_COORD97":2544198.8951400002,"ADDRESS":"慶平路５０７號之２十五樓之１","OBJECTID":655336},"geometry":{"x":165176.44350400008,"y":2544198.895142002}},{"attributes":{"ID":655364,"DIS_CODE":0,"TOWNNAME":"安平區","LI":"華平里","LIN":"1鄰","STREET":"慶平路","SECT":" ","MAREA":" ","LANE":" ","ALLEY":" ","HOUSE_NO":"５０７號之２十五樓之","E_COORD97":165176.443504,"N_COORD97":2544198.8951400002,"ADDRESS":"慶平路５０７號之２十五樓之２","OBJECTID":655337},"geometry":{"x":165176.44350400008,"y":2544198.895142002}},{"attributes":{"ID":655365,"DIS_CODE":0,"TOWNNAME":"安平區","LI":"華平里","LIN":"1鄰","STREET":"慶平路","SECT":" ","MAREA":" ","LANE":" ","ALLEY":" ","HOUSE_NO":"５０７號之２十六樓之","E_COORD97":165176.443504,"N_COORD97":2544198.8951400002,"ADDRESS":"慶平路５０７號之２十六樓之１","OBJECTID":655338},"geometry":{"x":165176.44350400008,"y":2544198.895142002}},{"attributes":{"ID":655366,"DIS_CODE":0,"TOWNNAME":"安平區","LI":"華平里","LIN":"1鄰","STREET":"慶平路","SECT":" ","MAREA":" ","LANE":" ","ALLEY":" ","HOUSE_NO":"５０７號之２十六樓之","E_COORD97":165176.443504,"N_COORD97":2544198.8951400002,"ADDRESS":"慶平路５０７號之２十六樓之２","OBJECTID":655339},"geometry":{"x":165176.44350400008,"y":2544198.895142002}},{"attributes":{"ID":655367,"DIS_CODE":0,"TOWNNAME":"安平區","LI":"華平里","LIN":"1鄰","STREET":"慶平路","SECT":" ","MAREA":" ","LANE":" ","ALLEY":" ","HOUSE_NO":"５０７號之２十四樓之","E_COORD97":165176.443504,"N_COORD97":2544198.8951400002,"ADDRESS":"慶平路５０７號之２十四樓之１","OBJECTID":655340},"geometry":{"x":165176.44350400008,"y":2544198.895142002}},{"attributes":{"ID":655368,"DIS_CODE":0,"TOWNNAME":"安平區","LI":"華平里","LIN":"1鄰","STREET":"慶平路","SECT":" ","MAREA":" ","LANE":" ","ALLEY":" ","HOUSE_NO":"５０７號之２十四樓之","E_COORD97":165176.443504,"N_COORD97":2544198.8951400002,"ADDRESS":"慶平路５０７號之２十四樓之２","OBJECTID":655341},"geometry":{"x":165176.44350400008,"y":2544198.895142002}},{"attributes":{"ID":655369,"DIS_CODE":0,"TOWNNAME":"安平區","LI":"華平里","LIN":"1鄰","STREET":"慶平路","SECT":" ","MAREA":" ","LANE":" ","ALLEY":" ","HOUSE_NO":"５０７號之２十樓之２","E_COORD97":165176.443504,"N_COORD97":2544198.8951400002,"ADDRESS":"慶平路５０７號之２十樓之２","OBJECTID":655342},"geometry":{"x":165176.44350400008,"y":2544198.895142002}},{"attributes":{"ID":655370,"DIS_CODE":0,"TOWNNAME":"安平區","LI":"華平里","LIN":"1鄰","STREET":"慶平路","SECT":" ","MAREA":" ","LANE":" ","ALLEY":" ","HOUSE_NO":"５０７號之２十樓之１","E_COORD97":165176.443504,"N_COORD97":2544198.8951400002,"ADDRESS":"慶平路５０７號之２十樓之１","OBJECTID":655343},"geometry":{"x":165176.44350400008,"y":2544198.895142002}},{"attributes":{"ID":655371,"DIS_CODE":0,"TOWNNAME":"安平區","LI":"華平里","LIN":"1鄰","STREET":"慶平路","SECT":" ","MAREA":" ","LANE":" ","ALLEY":" ","HOUSE_NO":"５０７號之２三樓之１","E_COORD97":165176.443504,"N_COORD97":2544198.8951400002,"ADDRESS":"慶平路５０７號之２三樓之１","OBJECTID":655344},"geometry":{"x":165176.44350400008,"y":2544198.895142002}},{"attributes":{"ID":655372,"DIS_CODE":0,"TOWNNAME":"安平區","LI":"華平里","LIN":"1鄰","STREET":"慶平路","SECT":" ","MAREA":" ","LANE":" ","ALLEY":" ","HOUSE_NO":"５０７號之２三樓之２","E_COORD97":165176.443504,"N_COORD97":2544198.8951400002,"ADDRESS":"慶平路５０７號之２三樓之２","OBJECTID":655345},"geometry":{"x":165176.44350400008,"y":2544198.895142002}},{"attributes":{"ID":655373,"DIS_CODE":0,"TOWNNAME":"安平區","LI":"華平里","LIN":"1鄰","STREET":"慶平路","SECT":" ","MAREA":" ","LANE":" ","ALLEY":" ","HOUSE_NO":"５０７號之２五樓之２","E_COORD97":165176.443504,"N_COORD97":2544198.8951400002,"ADDRESS":"慶平路５０７號之２五樓之２","OBJECTID":655346},"geometry":{"x":165176.44350400008,"y":2544198.895142002}},{"attributes":{"ID":655374,"DIS_CODE":0,"TOWNNAME":"安平區","LI":"華平里","LIN":"1鄰","STREET":"慶平路","SECT":" ","MAREA":" ","LANE":" ","ALLEY":" ","HOUSE_NO":"５０７號之２五樓之１","E_COORD97":165176.443504,"N_COORD97":2544198.8951400002,"ADDRESS":"慶平路５０７號之２五樓之１","OBJECTID":655347},"geometry":{"x":165176.44350400008,"y":2544198.895142002}},{"attributes":{"ID":655375,"DIS_CODE":0,"TOWNNAME":"安平區","LI":"華平里","LIN":"1鄰","STREET":"慶平路","SECT":" ","MAREA":" ","LANE":" ","ALLEY":" ","HOUSE_NO":"５０７號之２六樓之１","E_COORD97":165176.443504,"N_COORD97":2544198.8951400002,"ADDRESS":"慶平路５０７號之２六樓之１","OBJECTID":655348},"geometry":{"x":165176.44350400008,"y":2544198.895142002}},{"attributes":{"ID":655376,"DIS_CODE":0,"TOWNNAME":"安平區","LI":"華平里","LIN":"1鄰","STREET":"慶平路","SECT":" ","MAREA":" ","LANE":" ","ALLEY":" ","HOUSE_NO":"５０７號之２六樓之２","E_COORD97":165176.443504,"N_COORD97":2544198.8951400002,"ADDRESS":"慶平路５０７號之２六樓之２","OBJECTID":655349},"geometry":{"x":165176.44350400008,"y":2544198.895142002}},{"attributes":{"ID":655377,"DIS_CODE":0,"TOWNNAME":"安平區","LI":"華平里","LIN":"1鄰","STREET":"慶平路","SECT":" ","MAREA":" ","LANE":" ","ALLEY":" ","HOUSE_NO":"５０７號之２四樓之２","E_COORD97":165176.443504,"N_COORD97":2544198.8951400002,"ADDRESS":"慶平路５０７號之２四樓之２","OBJECTID":655350},"geometry":{"x":165176.44350400008,"y":2544198.895142002}},{"attributes":{"ID":655378,"DIS_CODE":0,"TOWNNAME":"安平區","LI":"華平里","LIN":"1鄰","STREET":"慶平路","SECT":" ","MAREA":" ","LANE":" ","ALLEY":" ","HOUSE_NO":"５０７號之２四樓之１","E_COORD97":165176.443504,"N_COORD97":2544198.8951400002,"ADDRESS":"慶平路５０７號之２四樓之１","OBJECTID":655351},"geometry":{"x":165176.44350400008,"y":2544198.895142002}},{"attributes":{"ID":655379,"DIS_CODE":0,"TOWNNAME":"楠西區","LI":"密枝里","LIN":"7鄰","STREET":" ","SECT":" ","MAREA":"密枝","LANE":" ","ALLEY":" ","HOUSE_NO":"１０２號之２５","E_COORD97":198819,"N_COORD97":2569017,"ADDRESS":"密枝１０２號之２５","OBJECTID":655352},"geometry":{"x":198819.00000000093,"y":2569017}},{"attributes":{"ID":655380,"DIS_CODE":0,"TOWNNAME":"安平區","LI":"華平里","LIN":"1鄰","STREET":"慶平路","SECT":" ","MAREA":" ","LANE":" ","ALLEY":" ","HOUSE_NO":"５０７號之３七樓","E_COORD97":165176.443504,"N_COORD97":2544198.8951400002,"ADDRESS":"慶平路５０７號之３七樓","OBJECTID":655353},"geometry":{"x":165176.44350400008,"y":2544198.895142002}},{"attributes":{"ID":655381,"DIS_CODE":0,"TOWNNAME":"東區","LI":"小東里","LIN":"30鄰","STREET":"東平路","SECT":" ","MAREA":" ","LANE":"２５２巷","ALLEY":" ","HOUSE_NO":"１號","E_COORD97":170706.57253199999,"N_COORD97":2544040.0386700002,"ADDRESS":"東平路２５２巷１號","OBJECTID":655354},"geometry":{"x":170706.57253200002,"y":2544040.0386730023}},{"attributes":{"ID":655382,"DIS_CODE":0,"TOWNNAME":"東區","LI":"小東里","LIN":"22鄰","STREET":"光明街","SECT":" ","MAREA":" ","LANE":"１１５巷","ALLEY":"８弄","HOUSE_NO":"１２號之１","E_COORD97":170948.733702,"N_COORD97":2544123.7527899998,"ADDRESS":"光明街１１５巷８弄１２號之１","OBJECTID":655355},"geometry":{"x":170948.73370200116,"y":2544123.7527940013}},{"attributes":{"ID":655383,"DIS_CODE":0,"TOWNNAME":"東區","LI":"小東里","LIN":"7鄰","STREET":"光明街","SECT":" ","MAREA":" ","LANE":" ","ALLEY":" ","HOUSE_NO":"１９５號","E_COORD97":170942.165901,"N_COORD97":2544089.67448,"ADDRESS":"光明街１９５號","OBJECTID":655356},"geometry":{"x":170942.16590099875,"y":2544089.6744789984}},{"attributes":{"ID":655384,"DIS_CODE":0,"TOWNNAME":"東區","LI":"小東里","LIN":"3鄰","STREET":"小東路","SECT":" ","MAREA":" ","LANE":"１９８巷","ALLEY":" ","HOUSE_NO":"７號","E_COORD97":170850.64042000001,"N_COORD97":2544419.4509700001,"ADDRESS":"小東路１９８巷７號","OBJECTID":655357},"geometry":{"x":170850.640420001,"y":2544419.4509680029}},{"attributes":{"ID":655385,"DIS_CODE":0,"TOWNNAME":"東區","LI":"小東里","LIN":"4鄰","STREET":"光明街","SECT":" ","MAREA":" ","LANE":" ","ALLEY":" ","HOUSE_NO":"８號之１","E_COORD97":170862.50483399999,"N_COORD97":2544435.1142899999,"ADDRESS":"光明街８號之１","OBJECTID":655358},"geometry":{"x":170862.50483400095,"y":2544435.1142930035}},{"attributes":{"ID":655386,"DIS_CODE":0,"TOWNNAME":"東區","LI":"小東里","LIN":"4鄰","STREET":"光明街","SECT":" ","MAREA":" ","LANE":" ","ALLEY":" ","HOUSE_NO":"１０號之１","E_COORD97":170862.29297000001,"N_COORD97":2544431.0926299999,"ADDRESS":"光明街１０號之１","OBJECTID":655359},"geometry":{"x":170862.29296999983,"y":2544431.0926280022}},{"attributes":{"ID":655387,"DIS_CODE":0,"TOWNNAME":"安平區","LI":"華平里","LIN":"1鄰","STREET":"慶平路","SECT":" ","MAREA":" ","LANE":" ","ALLEY":" ","HOUSE_NO":"５０７號之３九樓之１","E_COORD97":165176.23159700001,"N_COORD97":2544198.8951400002,"ADDRESS":"慶平路５０７號之３九樓之１","OBJECTID":655360},"geometry":{"x":165176.2315969998,"y":2544198.895142002}},{"attributes":{"ID":655388,"DIS_CODE":0,"TOWNNAME":"安平區","LI":"華平里","LIN":"1鄰","STREET":"慶平路","SECT":" ","MAREA":" ","LANE":" ","ALLEY":" ","HOUSE_NO":"５０７號之３九樓之２","E_COORD97":165176.23159700001,"N_COORD97":2544198.8951400002,"ADDRESS":"慶平路５０７號之３九樓之２","OBJECTID":655361},"geometry":{"x":165176.2315969998,"y":2544198.895142002}},{"attributes":{"ID":655389,"DIS_CODE":0,"TOWNNAME":"安平區","LI":"華平里","LIN":"1鄰","STREET":"慶平路","SECT":" ","MAREA":" ","LANE":" ","ALLEY":" ","HOUSE_NO":"５０７號之３二十樓之","E_COORD97":165176.23159700001,"N_COORD97":2544198.8951400002,"ADDRESS":"慶平路５０７號之３二十樓之２","OBJECTID":655362},"geometry":{"x":165176.2315969998,"y":2544198.895142002}},{"attributes":{"ID":655390,"DIS_CODE":0,"TOWNNAME":"安平區","LI":"華平里","LIN":"1鄰","STREET":"慶平路","SECT":" ","MAREA":" ","LANE":" ","ALLEY":" ","HOUSE_NO":"５０７號之３二十樓之","E_COORD97":165176.23159700001,"N_COORD97":2544198.8951400002,"ADDRESS":"慶平路５０７號之３二十樓之１","OBJECTID":655363},"geometry":{"x":165176.2315969998,"y":2544198.895142002}},{"attributes":{"ID":655391,"DIS_CODE":0,"TOWNNAME":"安平區","LI":"華平里","LIN":"1鄰","STREET":"慶平路","SECT":" ","MAREA":" ","LANE":" ","ALLEY":" ","HOUSE_NO":"５０７號之３二樓","E_COORD97":165176.23159700001,"N_COORD97":2544198.8951400002,"ADDRESS":"慶平路５０７號之３二樓","OBJECTID":655364},"geometry":{"x":165176.2315969998,"y":2544198.895142002}},{"attributes":{"ID":655392,"DIS_CODE":0,"TOWNNAME":"安平區","LI":"華平里","LIN":"1鄰","STREET":"慶平路","SECT":" ","MAREA":" ","LANE":" ","ALLEY":" ","HOUSE_NO":"５０７號之３八樓之１","E_COORD97":165176.23159700001,"N_COORD97":2544198.8951400002,"ADDRESS":"慶平路５０７號之３八樓之１","OBJECTID":655365},"geometry":{"x":165176.2315969998,"y":2544198.895142002}},{"attributes":{"ID":655393,"DIS_CODE":0,"TOWNNAME":"安平區","LI":"華平里","LIN":"1鄰","STREET":"慶平路","SECT":" ","MAREA":" ","LANE":" ","ALLEY":" ","HOUSE_NO":"５０７號之３八樓之２","E_COORD97":165176.23159700001,"N_COORD97":2544198.8951400002,"ADDRESS":"慶平路５０７號之３八樓之２","OBJECTID":655366},"geometry":{"x":165176.2315969998,"y":2544198.895142002}},{"attributes":{"ID":655394,"DIS_CODE":0,"TOWNNAME":"安平區","LI":"華平里","LIN":"1鄰","STREET":"慶平路","SECT":" ","MAREA":" ","LANE":" ","ALLEY":" ","HOUSE_NO":"５０７號之３十一樓之","E_COORD97":165176.23159700001,"N_COORD97":2544198.8951400002,"ADDRESS":"慶平路５０７號之３十一樓之２","OBJECTID":655367},"geometry":{"x":165176.2315969998,"y":2544198.895142002}},{"attributes":{"ID":655395,"DIS_CODE":0,"TOWNNAME":"安平區","LI":"華平里","LIN":"1鄰","STREET":"慶平路","SECT":" ","MAREA":" ","LANE":" ","ALLEY":" ","HOUSE_NO":"５０７號之３十一樓之","E_COORD97":165176.23159700001,"N_COORD97":2544198.8951400002,"ADDRESS":"慶平路５０７號之３十一樓之１","OBJECTID":655368},"geometry":{"x":165176.2315969998,"y":2544198.895142002}},{"attributes":{"ID":655396,"DIS_CODE":0,"TOWNNAME":"安平區","LI":"華平里","LIN":"1鄰","STREET":"慶平路","SECT":" ","MAREA":" ","LANE":" ","ALLEY":" ","HOUSE_NO":"５０７號之３十七樓之","E_COORD97":165176.23159700001,"N_COORD97":2544198.8951400002,"ADDRESS":"慶平路５０７號之３十七樓之１","OBJECTID":655369},"geometry":{"x":165176.2315969998,"y":2544198.895142002}},{"attributes":{"ID":655397,"DIS_CODE":0,"TOWNNAME":"安平區","LI":"華平里","LIN":"1鄰","STREET":"慶平路","SECT":" ","MAREA":" ","LANE":" ","ALLEY":" ","HOUSE_NO":"５０７號之３十七樓之","E_COORD97":165176.23159700001,"N_COORD97":2544198.8951400002,"ADDRESS":"慶平路５０７號之３十七樓之２","OBJECTID":655370},"geometry":{"x":165176.2315969998,"y":2544198.895142002}},{"attributes":{"ID":655398,"DIS_CODE":0,"TOWNNAME":"安平區","LI":"華平里","LIN":"1鄰","STREET":"慶平路","SECT":" ","MAREA":" ","LANE":" ","ALLEY":" ","HOUSE_NO":"５０７號之３十九樓之","E_COORD97":165176.23159700001,"N_COORD97":2544198.8951400002,"ADDRESS":"慶平路５０７號之３十九樓之２","OBJECTID":655371},"geometry":{"x":165176.2315969998,"y":2544198.895142002}},{"attributes":{"ID":655399,"DIS_CODE":0,"TOWNNAME":"安平區","LI":"華平里","LIN":"1鄰","STREET":"慶平路","SECT":" ","MAREA":" ","LANE":" ","ALLEY":" ","HOUSE_NO":"５０７號之３十九樓之","E_COORD97":165176.23159700001,"N_COORD97":2544198.8951400002,"ADDRESS":"慶平路５０７號之３十九樓之１","OBJECTID":655372},"geometry":{"x":165176.2315969998,"y":2544198.895142002}},{"attributes":{"ID":655400,"DIS_CODE":0,"TOWNNAME":"安平區","LI":"華平里","LIN":"1鄰","STREET":"慶平路","SECT":" ","MAREA":" ","LANE":" ","ALLEY":" ","HOUSE_NO":"５０７號之３十二樓","E_COORD97":165176.23159700001,"N_COORD97":2544198.8951400002,"ADDRESS":"慶平路５０７號之３十二樓","OBJECTID":655373},"geometry":{"x":165176.2315969998,"y":2544198.895142002}},{"attributes":{"ID":655401,"DIS_CODE":0,"TOWNNAME":"安平區","LI":"華平里","LIN":"1鄰","STREET":"慶平路","SECT":" ","MAREA":" ","LANE":" ","ALLEY":" ","HOUSE_NO":"５０７號之３十八樓之","E_COORD97":165176.23159700001,"N_COORD97":2544198.8951400002,"ADDRESS":"慶平路５０７號之３十八樓之１","OBJECTID":655374},"geometry":{"x":165176.2315969998,"y":2544198.895142002}},{"attributes":{"ID":655402,"DIS_CODE":0,"TOWNNAME":"安平區","LI":"華平里","LIN":"1鄰","STREET":"慶平路","SECT":" ","MAREA":" ","LANE":" ","ALLEY":" ","HOUSE_NO":"５０７號之３十八樓之","E_COORD97":165176.23159700001,"N_COORD97":2544198.8951400002,"ADDRESS":"慶平路５０７號之３十八樓之２","OBJECTID":655375},"geometry":{"x":165176.2315969998,"y":2544198.895142002}},{"attributes":{"ID":655403,"DIS_CODE":0,"TOWNNAME":"安平區","LI":"華平里","LIN":"1鄰","STREET":"慶平路","SECT":" ","MAREA":" ","LANE":" ","ALLEY":" ","HOUSE_NO":"５０７號之３十三樓之","E_COORD97":165176.23159700001,"N_COORD97":2544198.8951400002,"ADDRESS":"慶平路５０７號之３十三樓之２","OBJECTID":655376},"geometry":{"x":165176.2315969998,"y":2544198.895142002}},{"attributes":{"ID":655404,"DIS_CODE":0,"TOWNNAME":"安平區","LI":"華平里","LIN":"1鄰","STREET":"慶平路","SECT":" ","MAREA":" ","LANE":" ","ALLEY":" ","HOUSE_NO":"５０７號之３十三樓之","E_COORD97":165176.23159700001,"N_COORD97":2544198.8951400002,"ADDRESS":"慶平路５０７號之３十三樓之１","OBJECTID":655377},"geometry":{"x":165176.2315969998,"y":2544198.895142002}},{"attributes":{"ID":655405,"DIS_CODE":0,"TOWNNAME":"安平區","LI":"華平里","LIN":"1鄰","STREET":"慶平路","SECT":" ","MAREA":" ","LANE":" ","ALLEY":" ","HOUSE_NO":"５０７號之３十五樓之","E_COORD97":165176.23159700001,"N_COORD97":2544198.8951400002,"ADDRESS":"慶平路５０７號之３十五樓之１","OBJECTID":655378},"geometry":{"x":165176.2315969998,"y":2544198.895142002}},{"attributes":{"ID":655406,"DIS_CODE":0,"TOWNNAME":"安平區","LI":"華平里","LIN":"1鄰","STREET":"慶平路","SECT":" ","MAREA":" ","LANE":" ","ALLEY":" ","HOUSE_NO":"５０７號之３十五樓之","E_COORD97":165176.23159700001,"N_COORD97":2544198.8951400002,"ADDRESS":"慶平路５０７號之３十五樓之２","OBJECTID":655379},"geometry":{"x":165176.2315969998,"y":2544198.895142002}},{"attributes":{"ID":655407,"DIS_CODE":0,"TOWNNAME":"安平區","LI":"華平里","LIN":"1鄰","STREET":"慶平路","SECT":" ","MAREA":" ","LANE":" ","ALLEY":" ","HOUSE_NO":"５０７號之３十六樓之","E_COORD97":165176.23159700001,"N_COORD97":2544198.8951400002,"ADDRESS":"慶平路５０７號之３十六樓之２","OBJECTID":655380},"geometry":{"x":165176.2315969998,"y":2544198.895142002}},{"attributes":{"ID":655408,"DIS_CODE":0,"TOWNNAME":"安平區","LI":"華平里","LIN":"1鄰","STREET":"慶平路","SECT":" ","MAREA":" ","LANE":" ","ALLEY":" ","HOUSE_NO":"５０７號之３十六樓之","E_COORD97":165176.23159700001,"N_COORD97":2544198.8951400002,"ADDRESS":"慶平路５０７號之３十六樓之１","OBJECTID":655381},"geometry":{"x":165176.2315969998,"y":2544198.895142002}},{"attributes":{"ID":655409,"DIS_CODE":0,"TOWNNAME":"安平區","LI":"華平里","LIN":"1鄰","STREET":"慶平路","SECT":" ","MAREA":" ","LANE":" ","ALLEY":" ","HOUSE_NO":"５０７號之３十四樓之","E_COORD97":165176.23159700001,"N_COORD97":2544198.8951400002,"ADDRESS":"慶平路５０７號之３十四樓之１","OBJECTID":655382},"geometry":{"x":165176.2315969998,"y":2544198.895142002}},{"attributes":{"ID":655410,"DIS_CODE":0,"TOWNNAME":"安平區","LI":"華平里","LIN":"1鄰","STREET":"慶平路","SECT":" ","MAREA":" ","LANE":" ","ALLEY":" ","HOUSE_NO":"５０７號之３十四樓之","E_COORD97":165176.23159700001,"N_COORD97":2544198.8951400002,"ADDRESS":"慶平路５０７號之３十四樓之２","OBJECTID":655383},"geometry":{"x":165176.2315969998,"y":2544198.895142002}},{"attributes":{"ID":655411,"DIS_CODE":0,"TOWNNAME":"安平區","LI":"華平里","LIN":"1鄰","STREET":"慶平路","SECT":" ","MAREA":" ","LANE":" ","ALLEY":" ","HOUSE_NO":"５０７號之３十樓之２","E_COORD97":165176.23159700001,"N_COORD97":2544198.8951400002,"ADDRESS":"慶平路５０７號之３十樓之２","OBJECTID":655384},"geometry":{"x":165176.2315969998,"y":2544198.895142002}},{"attributes":{"ID":655412,"DIS_CODE":0,"TOWNNAME":"安平區","LI":"華平里","LIN":"1鄰","STREET":"慶平路","SECT":" ","MAREA":" ","LANE":" ","ALLEY":" ","HOUSE_NO":"５０７號之３十樓之１","E_COORD97":165176.23159700001,"N_COORD97":2544198.8951400002,"ADDRESS":"慶平路５０７號之３十樓之１","OBJECTID":655385},"geometry":{"x":165176.2315969998,"y":2544198.895142002}},{"attributes":{"ID":655413,"DIS_CODE":0,"TOWNNAME":"安平區","LI":"華平里","LIN":"1鄰","STREET":"慶平路","SECT":" ","MAREA":" ","LANE":" ","ALLEY":" ","HOUSE_NO":"５０７號之３三樓之１","E_COORD97":165176.23159700001,"N_COORD97":2544198.8951400002,"ADDRESS":"慶平路５０７號之３三樓之１","OBJECTID":655386},"geometry":{"x":165176.2315969998,"y":2544198.895142002}},{"attributes":{"ID":655414,"DIS_CODE":0,"TOWNNAME":"安平區","LI":"華平里","LIN":"1鄰","STREET":"慶平路","SECT":" ","MAREA":" ","LANE":" ","ALLEY":" ","HOUSE_NO":"５０７號之３三樓之２","E_COORD97":165176.23159700001,"N_COORD97":2544198.8951400002,"ADDRESS":"慶平路５０７號之３三樓之２","OBJECTID":655387},"geometry":{"x":165176.2315969998,"y":2544198.895142002}},{"attributes":{"ID":655415,"DIS_CODE":0,"TOWNNAME":"安平區","LI":"華平里","LIN":"1鄰","STREET":"慶平路","SECT":" ","MAREA":" ","LANE":" ","ALLEY":" ","HOUSE_NO":"５０７號之３五樓之２","E_COORD97":165176.23159700001,"N_COORD97":2544198.8951400002,"ADDRESS":"慶平路５０７號之３五樓之２","OBJECTID":655388},"geometry":{"x":165176.2315969998,"y":2544198.895142002}},{"attributes":{"ID":655416,"DIS_CODE":0,"TOWNNAME":"安平區","LI":"華平里","LIN":"1鄰","STREET":"慶平路","SECT":" ","MAREA":" ","LANE":" ","ALLEY":" ","HOUSE_NO":"５０７號之３五樓之１","E_COORD97":165176.23159700001,"N_COORD97":2544198.8951400002,"ADDRESS":"慶平路５０７號之３五樓之１","OBJECTID":655389},"geometry":{"x":165176.2315969998,"y":2544198.895142002}},{"attributes":{"ID":655417,"DIS_CODE":0,"TOWNNAME":"安平區","LI":"華平里","LIN":"1鄰","STREET":"慶平路","SECT":" ","MAREA":" ","LANE":" ","ALLEY":" ","HOUSE_NO":"５０７號之３六樓之１","E_COORD97":165176.23159700001,"N_COORD97":2544198.8951400002,"ADDRESS":"慶平路５０７號之３六樓之１","OBJECTID":655390},"geometry":{"x":165176.2315969998,"y":2544198.895142002}},{"attributes":{"ID":655418,"DIS_CODE":0,"TOWNNAME":"安平區","LI":"華平里","LIN":"1鄰","STREET":"慶平路","SECT":" ","MAREA":" ","LANE":" ","ALLEY":" ","HOUSE_NO":"５０７號之３六樓之２","E_COORD97":165176.23159700001,"N_COORD97":2544198.8951400002,"ADDRESS":"慶平路５０７號之３六樓之２","OBJECTID":655391},"geometry":{"x":165176.2315969998,"y":2544198.895142002}},{"attributes":{"ID":655419,"DIS_CODE":0,"TOWNNAME":"安平區","LI":"華平里","LIN":"1鄰","STREET":"慶平路","SECT":" ","MAREA":" ","LANE":" ","ALLEY":" ","HOUSE_NO":"５０７號之３四樓之２","E_COORD97":165176.23159700001,"N_COORD97":2544198.8951400002,"ADDRESS":"慶平路５０７號之３四樓之２","OBJECTID":655392},"geometry":{"x":165176.2315969998,"y":2544198.895142002}},{"attributes":{"ID":655420,"DIS_CODE":0,"TOWNNAME":"安平區","LI":"華平里","LIN":"1鄰","STREET":"慶平路","SECT":" ","MAREA":" ","LANE":" ","ALLEY":" ","HOUSE_NO":"５０７號之３四樓之１","E_COORD97":165176.23159700001,"N_COORD97":2544198.8951400002,"ADDRESS":"慶平路５０７號之３四樓之１","OBJECTID":655393},"geometry":{"x":165176.2315969998,"y":2544198.895142002}},{"attributes":{"ID":655421,"DIS_CODE":0,"TOWNNAME":"安平區","LI":"華平里","LIN":"1鄰","STREET":"慶平路","SECT":" ","MAREA":" ","LANE":" ","ALLEY":" ","HOUSE_NO":"５０７號之４七樓之１","E_COORD97":165176.23159700001,"N_COORD97":2544198.8951400002,"ADDRESS":"慶平路５０７號之４七樓之１","OBJECTID":655394},"geometry":{"x":165176.2315969998,"y":2544198.895142002}},{"attributes":{"ID":655422,"DIS_CODE":0,"TOWNNAME":"安平區","LI":"華平里","LIN":"1鄰","STREET":"慶平路","SECT":" ","MAREA":" ","LANE":" ","ALLEY":" ","HOUSE_NO":"５０７號之４七樓之２","E_COORD97":165176.23159700001,"N_COORD97":2544198.8951400002,"ADDRESS":"慶平路５０７號之４七樓之２","OBJECTID":655395},"geometry":{"x":165176.2315969998,"y":2544198.895142002}},{"attributes":{"ID":655423,"DIS_CODE":0,"TOWNNAME":"安平區","LI":"華平里","LIN":"1鄰","STREET":"慶平路","SECT":" ","MAREA":" ","LANE":" ","ALLEY":" ","HOUSE_NO":"５０７號之４九樓之２","E_COORD97":165176.23159700001,"N_COORD97":2544198.8951400002,"ADDRESS":"慶平路５０７號之４九樓之２","OBJECTID":655396},"geometry":{"x":165176.2315969998,"y":2544198.895142002}},{"attributes":{"ID":655424,"DIS_CODE":0,"TOWNNAME":"安平區","LI":"華平里","LIN":"1鄰","STREET":"慶平路","SECT":" ","MAREA":" ","LANE":" ","ALLEY":" ","HOUSE_NO":"５０７號之４九樓之１","E_COORD97":165176.23159700001,"N_COORD97":2544198.8951400002,"ADDRESS":"慶平路５０７號之４九樓之１","OBJECTID":655397},"geometry":{"x":165176.2315969998,"y":2544198.895142002}},{"attributes":{"ID":655425,"DIS_CODE":0,"TOWNNAME":"安平區","LI":"華平里","LIN":"1鄰","STREET":"慶平路","SECT":" ","MAREA":" ","LANE":" ","ALLEY":" ","HOUSE_NO":"５０７號之４二十樓","E_COORD97":165176.23159700001,"N_COORD97":2544198.8951400002,"ADDRESS":"慶平路５０７號之４二十樓","OBJECTID":655398},"geometry":{"x":165176.2315969998,"y":2544198.895142002}},{"attributes":{"ID":655426,"DIS_CODE":0,"TOWNNAME":"安平區","LI":"華平里","LIN":"1鄰","STREET":"慶平路","SECT":" ","MAREA":" ","LANE":" ","ALLEY":" ","HOUSE_NO":"５０７號之４八樓之１","E_COORD97":165176.23159700001,"N_COORD97":2544198.8951400002,"ADDRESS":"慶平路５０７號之４八樓之１","OBJECTID":655399},"geometry":{"x":165176.2315969998,"y":2544198.895142002}},{"attributes":{"ID":655427,"DIS_CODE":0,"TOWNNAME":"安平區","LI":"華平里","LIN":"1鄰","STREET":"慶平路","SECT":" ","MAREA":" ","LANE":" ","ALLEY":" ","HOUSE_NO":"５０７號之４八樓之２","E_COORD97":165176.23159700001,"N_COORD97":2544198.8951400002,"ADDRESS":"慶平路５０７號之４八樓之２","OBJECTID":655400},"geometry":{"x":165176.2315969998,"y":2544198.895142002}}]}