{"displayFieldName":"TOWNNAME","fieldAliases":{"ID":"ID","DIS_CODE":"DIS_CODE","TOWNNAME":"TOWNNAME","LI":"LI","LIN":"LIN","STREET":"STREET","SECT":"SECT","MAREA":"MAREA","LANE":"LANE","ALLEY":"ALLEY","HOUSE_NO":"HOUSE_NO","E_COORD97":"E_COORD97","N_COORD97":"N_COORD97","ADDRESS":"ADDRESS","OBJECTID":"OBJECTID"},"geometryType":"esriGeometryPoint","spatialReference":{"wkid":102443,"latestWkid":3826},"fields":[{"name":"ID","type":"esriFieldTypeDouble","alias":"ID"},{"name":"DIS_CODE","type":"esriFieldTypeInteger","alias":"DIS_CODE"},{"name":"TOWNNAME","type":"esriFieldTypeString","alias":"TOWNNAME","length":8},{"name":"LI","type":"esriFieldTypeString","alias":"LI","length":8},{"name":"LIN","type":"esriFieldTypeString","alias":"LIN","length":12},{"name":"STREET","type":"esriFieldTypeString","alias":"STREET","length":20},{"name":"SECT","type":"esriFieldTypeString","alias":"SECT","length":8},{"name":"MAREA","type":"esriFieldTypeString","alias":"MAREA","length":12},{"name":"LANE","type":"esriFieldTypeString","alias":"LANE","length":10},{"name":"ALLEY","type":"esriFieldTypeString","alias":"ALLEY","length":10},{"name":"HOUSE_NO","type":"esriFieldTypeString","alias":"HOUSE_NO","length":20},{"name":"E_COORD97","type":"esriFieldTypeDouble","alias":"E_COORD97"},{"name":"N_COORD97","type":"esriFieldTypeDouble","alias":"N_COORD97"},{"name":"ADDRESS","type":"esriFieldTypeString","alias":"ADDRESS","length":50},{"name":"OBJECTID","type":"esriFieldTypeOID","alias":"OBJECTID"}],"features":[{"attributes":{"ID":25001,"DIS_CODE":0,"TOWNNAME":"北門區","LI":"永隆里","LIN":"8鄰","STREET":" ","SECT":" ","MAREA":"北門","LANE":" ","ALLEY":" ","HOUSE_NO":"１０２號","E_COORD97":160091.95000000001,"N_COORD97":2574521.5899999999,"ADDRESS":"北門１０２號","OBJECTID":25001},"geometry":{"x":160091.95000000019,"y":2574521.5900000017}},{"attributes":{"ID":25002,"DIS_CODE":0,"TOWNNAME":"北門區","LI":"永隆里","LIN":"8鄰","STREET":" ","SECT":" ","MAREA":"北門","LANE":" ","ALLEY":" ","HOUSE_NO":"１０３號","E_COORD97":160080.87,"N_COORD97":2574506.2799999998,"ADDRESS":"北門１０３號","OBJECTID":25002},"geometry":{"x":160080.87000000197,"y":2574506.2799999993}},{"attributes":{"ID":25003,"DIS_CODE":0,"TOWNNAME":"北門區","LI":"永隆里","LIN":"8鄰","STREET":" ","SECT":" ","MAREA":"北門","LANE":" ","ALLEY":" ","HOUSE_NO":"１０４號","E_COORD97":160085.35999999999,"N_COORD97":2574503.6099999999,"ADDRESS":"北門１０４號","OBJECTID":25003},"geometry":{"x":160085.36000000034,"y":2574503.6100000013}},{"attributes":{"ID":25004,"DIS_CODE":0,"TOWNNAME":"北門區","LI":"永隆里","LIN":"8鄰","STREET":" ","SECT":" ","MAREA":"北門","LANE":" ","ALLEY":" ","HOUSE_NO":"１０５號","E_COORD97":160089.62,"N_COORD97":2574501.1000000001,"ADDRESS":"北門１０５號","OBJECTID":25004},"geometry":{"x":160089.62000000104,"y":2574501.0999999996}},{"attributes":{"ID":25005,"DIS_CODE":0,"TOWNNAME":"北門區","LI":"永隆里","LIN":"8鄰","STREET":" ","SECT":" ","MAREA":"北門","LANE":" ","ALLEY":" ","HOUSE_NO":"１０７號","E_COORD97":160102.19,"N_COORD97":2574492.9300000002,"ADDRESS":"北門１０７號","OBJECTID":25005},"geometry":{"x":160102.19000000041,"y":2574492.9299999997}},{"attributes":{"ID":25006,"DIS_CODE":0,"TOWNNAME":"北門區","LI":"永隆里","LIN":"8鄰","STREET":" ","SECT":" ","MAREA":"北門","LANE":" ","ALLEY":" ","HOUSE_NO":"１０９號","E_COORD97":160129.92000000001,"N_COORD97":2574502.7200000002,"ADDRESS":"北門１０９號","OBJECTID":25006},"geometry":{"x":160129.92000000086,"y":2574502.7199999988}},{"attributes":{"ID":25007,"DIS_CODE":0,"TOWNNAME":"北門區","LI":"永隆里","LIN":"8鄰","STREET":" ","SECT":" ","MAREA":"北門","LANE":" ","ALLEY":" ","HOUSE_NO":"１１２號","E_COORD97":160149.16,"N_COORD97":2574479.4199999999,"ADDRESS":"北門１１２號","OBJECTID":25007},"geometry":{"x":160149.16000000108,"y":2574479.4199999999}},{"attributes":{"ID":25008,"DIS_CODE":0,"TOWNNAME":"北門區","LI":"永隆里","LIN":"8鄰","STREET":" ","SECT":" ","MAREA":"北門","LANE":" ","ALLEY":" ","HOUSE_NO":"１１３號","E_COORD97":160160.26999999999,"N_COORD97":2574466.9700000002,"ADDRESS":"北門１１３號","OBJECTID":25008},"geometry":{"x":160160.26999999955,"y":2574466.9700000007}},{"attributes":{"ID":25009,"DIS_CODE":0,"TOWNNAME":"安南區","LI":"安和里","LIN":"14鄰","STREET":"安和路","SECT":"一段","MAREA":" ","LANE":"９６巷","ALLEY":"４２弄","HOUSE_NO":"２７號","E_COORD97":169666.32999999999,"N_COORD97":2547650.4399999999,"ADDRESS":"安和路一段９６巷４２弄２７號","OBJECTID":25009},"geometry":{"x":169666.33000000101,"y":2547650.4399999995}},{"attributes":{"ID":25010,"DIS_CODE":0,"TOWNNAME":"安南區","LI":"安西里","LIN":"14鄰","STREET":"安和路","SECT":"一段","MAREA":" ","LANE":"１５９巷","ALLEY":"８５弄","HOUSE_NO":"９號","E_COORD97":169164.75,"N_COORD97":2547866.1400000001,"ADDRESS":"安和路一段１５９巷８５弄９號","OBJECTID":25010},"geometry":{"x":169164.75000000093,"y":2547866.1400000025}},{"attributes":{"ID":25011,"DIS_CODE":0,"TOWNNAME":"安南區","LI":"淵中里","LIN":"14鄰","STREET":"安中路","SECT":"四段","MAREA":" ","LANE":"１５４巷","ALLEY":"９４弄","HOUSE_NO":"２５號","E_COORD97":165144.29999999999,"N_COORD97":2550121.1200000001,"ADDRESS":"安中路四段１５４巷９４弄２５號","OBJECTID":25011},"geometry":{"x":165144.29999999981,"y":2550121.1200000029}},{"attributes":{"ID":25012,"DIS_CODE":0,"TOWNNAME":"安南區","LI":"淵中里","LIN":"14鄰","STREET":"安中路","SECT":"四段","MAREA":" ","LANE":"１５４巷","ALLEY":"９４弄","HOUSE_NO":"１３號","E_COORD97":165132.29999999999,"N_COORD97":2550142.7000000002,"ADDRESS":"安中路四段１５４巷９４弄１３號","OBJECTID":25012},"geometry":{"x":165132.29999999981,"y":2550142.7000000011}},{"attributes":{"ID":25013,"DIS_CODE":0,"TOWNNAME":"安南區","LI":"淵中里","LIN":"14鄰","STREET":"安中路","SECT":"四段","MAREA":" ","LANE":"１５４巷","ALLEY":"９４弄","HOUSE_NO":"１５號","E_COORD97":165134.38,"N_COORD97":2550138.9100000001,"ADDRESS":"安中路四段１５４巷９４弄１５號","OBJECTID":25013},"geometry":{"x":165134.38000000082,"y":2550138.910000002}},{"attributes":{"ID":25014,"DIS_CODE":0,"TOWNNAME":"安南區","LI":"淵中里","LIN":"14鄰","STREET":"安中路","SECT":"四段","MAREA":" ","LANE":"１５４巷","ALLEY":"９４弄","HOUSE_NO":"１７號","E_COORD97":165136.45000000001,"N_COORD97":2550135.2599999998,"ADDRESS":"安中路四段１５４巷９４弄１７號","OBJECTID":25014},"geometry":{"x":165136.45000000019,"y":2550135.2600000035}},{"attributes":{"ID":25015,"DIS_CODE":0,"TOWNNAME":"安南區","LI":"淵中里","LIN":"14鄰","STREET":"安中路","SECT":"四段","MAREA":" ","LANE":"１５４巷","ALLEY":"９４弄","HOUSE_NO":"１９號","E_COORD97":165138.44,"N_COORD97":2550132.02,"ADDRESS":"安中路四段１５４巷９４弄１９號","OBJECTID":25015},"geometry":{"x":165138.44000000041,"y":2550132.0199999996}},{"attributes":{"ID":25016,"DIS_CODE":0,"TOWNNAME":"永康區","LI":"\u25A0行里","LIN":"34鄰","STREET":"中正北路","SECT":" ","MAREA":" ","LANE":" ","ALLEY":" ","HOUSE_NO":"１７５之１號","E_COORD97":172407.51999999999,"N_COORD97":2549123.0099999998,"ADDRESS":"中正北路１７５之１號","OBJECTID":25016},"geometry":{"x":172407.51999999955,"y":2549123.0100000035}},{"attributes":{"ID":25017,"DIS_CODE":0,"TOWNNAME":"永康區","LI":"埔園里","LIN":"34鄰","STREET":"龍中街","SECT":" ","MAREA":" ","LANE":" ","ALLEY":" ","HOUSE_NO":"６５３號","E_COORD97":174282.91,"N_COORD97":2548935.27,"ADDRESS":"龍中街６５３號","OBJECTID":25017},"geometry":{"x":174282.91000000201,"y":2548935.2700000014}},{"attributes":{"ID":25018,"DIS_CODE":0,"TOWNNAME":"永康區","LI":"埔園里","LIN":"34鄰","STREET":"龍中街","SECT":" ","MAREA":" ","LANE":" ","ALLEY":" ","HOUSE_NO":"６５５號","E_COORD97":174282.70000000001,"N_COORD97":2548941.7999999998,"ADDRESS":"龍中街６５５號","OBJECTID":25018},"geometry":{"x":174282.70000000205,"y":2548941.8000000007}},{"attributes":{"ID":25019,"DIS_CODE":0,"TOWNNAME":"永康區","LI":"埔園里","LIN":"34鄰","STREET":"龍中街","SECT":" ","MAREA":" ","LANE":" ","ALLEY":" ","HOUSE_NO":"６５７號","E_COORD97":174282.59,"N_COORD97":2548946.0600000001,"ADDRESS":"龍中街６５７號","OBJECTID":25019},"geometry":{"x":174282.58999999985,"y":2548946.0600000005}},{"attributes":{"ID":25020,"DIS_CODE":0,"TOWNNAME":"新營區","LI":"民榮里","LIN":"24鄰","STREET":"裕民路","SECT":" ","MAREA":" ","LANE":" ","ALLEY":" ","HOUSE_NO":"１４之３號","E_COORD97":179133.92999999999,"N_COORD97":2577931.25,"ADDRESS":"裕民路１４之３號","OBJECTID":25020},"geometry":{"x":179133.93000000156,"y":2577931.2500000019}},{"attributes":{"ID":25021,"DIS_CODE":0,"TOWNNAME":"新營區","LI":"民生里","LIN":" ","STREET":"中華路","SECT":" ","MAREA":" ","LANE":" ","ALLEY":" ","HOUSE_NO":"１１１號","E_COORD97":179159.32999999999,"N_COORD97":2578155.8900000001,"ADDRESS":"中華路１１１號","OBJECTID":25021},"geometry":{"x":179159.33000000101,"y":2578155.8900000006}},{"attributes":{"ID":25022,"DIS_CODE":0,"TOWNNAME":"新營區","LI":"民權里","LIN":"24鄰","STREET":"信義街","SECT":" ","MAREA":" ","LANE":" ","ALLEY":" ","HOUSE_NO":"９３號","E_COORD97":179779.73000000001,"N_COORD97":2578752.0600000001,"ADDRESS":"信義街９３號","OBJECTID":25022},"geometry":{"x":179779.73000000045,"y":2578752.0600000042}},{"attributes":{"ID":25023,"DIS_CODE":0,"TOWNNAME":"新營區","LI":"民權里","LIN":" ","STREET":"信義街","SECT":" ","MAREA":" ","LANE":" ","ALLEY":" ","HOUSE_NO":"８３號","E_COORD97":179728.82999999999,"N_COORD97":2578782.2000000002,"ADDRESS":"信義街８３號","OBJECTID":25023},"geometry":{"x":179728.83000000101,"y":2578782.1999999993}},{"attributes":{"ID":25024,"DIS_CODE":0,"TOWNNAME":"新營區","LI":"民權里","LIN":" ","STREET":"信義街","SECT":" ","MAREA":" ","LANE":" ","ALLEY":" ","HOUSE_NO":"８３之２號","E_COORD97":179731.32999999999,"N_COORD97":2578782.25,"ADDRESS":"信義街８３之２號","OBJECTID":25024},"geometry":{"x":179731.33000000007,"y":2578782.2500000019}},{"attributes":{"ID":25025,"DIS_CODE":0,"TOWNNAME":"新營區","LI":"民權里","LIN":"18鄰","STREET":"民權路","SECT":" ","MAREA":" ","LANE":" ","ALLEY":" ","HOUSE_NO":"４０號","E_COORD97":179737.14000000001,"N_COORD97":2578161.9900000002,"ADDRESS":"民權路４０號","OBJECTID":25025},"geometry":{"x":179737.13999999966,"y":2578161.9900000002}},{"attributes":{"ID":25026,"DIS_CODE":0,"TOWNNAME":"新營區","LI":"民榮里","LIN":" ","STREET":"裕民路","SECT":" ","MAREA":" ","LANE":" ","ALLEY":" ","HOUSE_NO":"１５之５號","E_COORD97":179172.25,"N_COORD97":2577815.8900000001,"ADDRESS":"裕民路１５之５號","OBJECTID":25026},"geometry":{"x":179172.25,"y":2577815.8900000006}},{"attributes":{"ID":25027,"DIS_CODE":0,"TOWNNAME":"安南區","LI":"淵中里","LIN":"14鄰","STREET":"安中路","SECT":"四段","MAREA":" ","LANE":"１５４巷","ALLEY":"９４弄","HOUSE_NO":"１號","E_COORD97":165120.48999999999,"N_COORD97":2550164.7999999998,"ADDRESS":"安中路四段１５４巷９４弄１號","OBJECTID":25027},"geometry":{"x":165120.49000000115,"y":2550164.8000000007}},{"attributes":{"ID":25028,"DIS_CODE":0,"TOWNNAME":"新營區","LI":"民榮里","LIN":" ","STREET":"裕民路","SECT":" ","MAREA":" ","LANE":" ","ALLEY":" ","HOUSE_NO":"１１之４號","E_COORD97":179188.75,"N_COORD97":2577842.3900000001,"ADDRESS":"裕民路１１之４號","OBJECTID":25028},"geometry":{"x":179188.75000000093,"y":2577842.3900000025}},{"attributes":{"ID":25029,"DIS_CODE":0,"TOWNNAME":"新營區","LI":"民生里","LIN":"7鄰","STREET":"民生路","SECT":" ","MAREA":" ","LANE":" ","ALLEY":" ","HOUSE_NO":"２３號之２","E_COORD97":179319.69,"N_COORD97":2578259.2799999998,"ADDRESS":"民生路２３號之２","OBJECTID":25029},"geometry":{"x":179319.69000000134,"y":2578259.2800000012}},{"attributes":{"ID":25030,"DIS_CODE":0,"TOWNNAME":"新營區","LI":"新南里","LIN":"24鄰","STREET":"隋唐街","SECT":" ","MAREA":" ","LANE":" ","ALLEY":" ","HOUSE_NO":"２８１號","E_COORD97":178224.47,"N_COORD97":2578574.5699999998,"ADDRESS":"隋唐街２８１號","OBJECTID":25030},"geometry":{"x":178224.46999999974,"y":2578574.5700000003}},{"attributes":{"ID":25031,"DIS_CODE":0,"TOWNNAME":"新營區","LI":"新南里","LIN":"20鄰","STREET":"復興路","SECT":" ","MAREA":" ","LANE":" ","ALLEY":" ","HOUSE_NO":"５０２號","E_COORD97":178268.98000000001,"N_COORD97":2578272.02,"ADDRESS":"復興路５０２號","OBJECTID":25031},"geometry":{"x":178268.98000000045,"y":2578272.0199999996}},{"attributes":{"ID":25032,"DIS_CODE":0,"TOWNNAME":"北門區","LI":"永隆里","LIN":"8鄰","STREET":" ","SECT":" ","MAREA":"北門","LANE":" ","ALLEY":" ","HOUSE_NO":"１１４號","E_COORD97":160166.41,"N_COORD97":2574461.8300000001,"ADDRESS":"北門１１４號","OBJECTID":25032},"geometry":{"x":160166.41000000015,"y":2574461.8300000019}},{"attributes":{"ID":25033,"DIS_CODE":0,"TOWNNAME":"安南區","LI":"淵中里","LIN":"14鄰","STREET":"安中路","SECT":"四段","MAREA":" ","LANE":"１５４巷","ALLEY":"９４弄","HOUSE_NO":"２１號","E_COORD97":165140.60000000001,"N_COORD97":2550128.0600000001,"ADDRESS":"安中路四段１５４巷９４弄２１號","OBJECTID":25033},"geometry":{"x":165140.60000000149,"y":2550128.0600000024}},{"attributes":{"ID":25034,"DIS_CODE":0,"TOWNNAME":"安南區","LI":"淵中里","LIN":"14鄰","STREET":"安中路","SECT":"四段","MAREA":" ","LANE":"１５４巷","ALLEY":"９４弄","HOUSE_NO":"２３號","E_COORD97":165142.48999999999,"N_COORD97":2550124.4500000002,"ADDRESS":"安中路四段１５４巷９４弄２３號","OBJECTID":25034},"geometry":{"x":165142.49000000115,"y":2550124.4500000011}},{"attributes":{"ID":25035,"DIS_CODE":0,"TOWNNAME":"安南區","LI":"淵中里","LIN":"14鄰","STREET":"安中路","SECT":"四段","MAREA":" ","LANE":"１５４巷","ALLEY":"９４弄","HOUSE_NO":"５號","E_COORD97":165124.73000000001,"N_COORD97":2550157.5600000001,"ADDRESS":"安中路四段１５４巷９４弄５號","OBJECTID":25035},"geometry":{"x":165124.73000000045,"y":2550157.5600000042}},{"attributes":{"ID":25036,"DIS_CODE":0,"TOWNNAME":"安南區","LI":"淵中里","LIN":"14鄰","STREET":"安中路","SECT":"四段","MAREA":" ","LANE":"１５４巷","ALLEY":"９４弄","HOUSE_NO":"９號","E_COORD97":165128.42000000001,"N_COORD97":2550149.7200000002,"ADDRESS":"安中路四段１５４巷９４弄９號","OBJECTID":25036},"geometry":{"x":165128.41999999899,"y":2550149.7199999988}},{"attributes":{"ID":25037,"DIS_CODE":0,"TOWNNAME":"安南區","LI":"淵中里","LIN":"14鄰","STREET":"安中路","SECT":"四段","MAREA":" ","LANE":"１５４巷","ALLEY":"９４弄","HOUSE_NO":"２７號","E_COORD97":165146.10000000001,"N_COORD97":2550116.98,"ADDRESS":"安中路四段１５４巷９４弄２７號","OBJECTID":25037},"geometry":{"x":165146.10000000056,"y":2550116.9800000004}},{"attributes":{"ID":25038,"DIS_CODE":0,"TOWNNAME":"安南區","LI":"淵中里","LIN":"14鄰","STREET":"安中路","SECT":"四段","MAREA":" ","LANE":"１５４巷","ALLEY":"９４弄","HOUSE_NO":"２９號","E_COORD97":165147.35999999999,"N_COORD97":2550112.6499999999,"ADDRESS":"安中路四段１５４巷９４弄２９號","OBJECTID":25038},"geometry":{"x":165147.36000000034,"y":2550112.6500000041}},{"attributes":{"ID":25039,"DIS_CODE":0,"TOWNNAME":"安南區","LI":"淵中里","LIN":"14鄰","STREET":"安中路","SECT":"四段","MAREA":" ","LANE":"１５４巷","ALLEY":"９４弄","HOUSE_NO":"１１號","E_COORD97":165130.95000000001,"N_COORD97":2550146.6600000001,"ADDRESS":"安中路四段１５４巷９４弄１１號","OBJECTID":25039},"geometry":{"x":165130.95000000112,"y":2550146.660000002}},{"attributes":{"ID":25040,"DIS_CODE":0,"TOWNNAME":"安南區","LI":"淵中里","LIN":"14鄰","STREET":"安中路","SECT":"四段","MAREA":" ","LANE":"１５４巷","ALLEY":"９４弄","HOUSE_NO":"３號","E_COORD97":165122.56,"N_COORD97":2550160.8900000001,"ADDRESS":"安中路四段１５４巷９４弄３號","OBJECTID":25040},"geometry":{"x":165122.56000000052,"y":2550160.8900000006}},{"attributes":{"ID":25041,"DIS_CODE":0,"TOWNNAME":"安南區","LI":"\u25A0南里","LIN":"14鄰","STREET":"安昌街","SECT":" ","MAREA":" ","LANE":"１０６巷","ALLEY":"１２弄","HOUSE_NO":"１號","E_COORD97":169996.79999999999,"N_COORD97":2552177.2400000002,"ADDRESS":"安昌街１０６巷１２弄１號","OBJECTID":25041},"geometry":{"x":169996.80000000075,"y":2552177.2400000021}},{"attributes":{"ID":25042,"DIS_CODE":0,"TOWNNAME":"安南區","LI":"\u25A0南里","LIN":"14鄰","STREET":"安昌街","SECT":" ","MAREA":" ","LANE":"１０６巷","ALLEY":"１２弄","HOUSE_NO":"３號","E_COORD97":169992.29000000001,"N_COORD97":2552176.6699999999,"ADDRESS":"安昌街１０６巷１２弄３號","OBJECTID":25042},"geometry":{"x":169992.29000000004,"y":2552176.6699999981}},{"attributes":{"ID":25043,"DIS_CODE":0,"TOWNNAME":"安南區","LI":"\u25A0南里","LIN":"14鄰","STREET":"安昌街","SECT":" ","MAREA":" ","LANE":"１０６巷","ALLEY":"１２弄","HOUSE_NO":"５號","E_COORD97":169986.92999999999,"N_COORD97":2552176.9500000002,"ADDRESS":"安昌街１０６巷１２弄５號","OBJECTID":25043},"geometry":{"x":169986.93000000063,"y":2552176.9499999993}},{"attributes":{"ID":25044,"DIS_CODE":0,"TOWNNAME":"安南區","LI":"\u25A0南里","LIN":"14鄰","STREET":"安昌街","SECT":" ","MAREA":" ","LANE":"１０６巷","ALLEY":"１２弄","HOUSE_NO":"７號","E_COORD97":169982.13,"N_COORD97":2552176.9500000002,"ADDRESS":"安昌街１０６巷１２弄７號","OBJECTID":25044},"geometry":{"x":169982.13000000175,"y":2552176.9499999993}},{"attributes":{"ID":25045,"DIS_CODE":0,"TOWNNAME":"安南區","LI":"\u25A0南里","LIN":"14鄰","STREET":"安昌街","SECT":" ","MAREA":" ","LANE":"１０６巷","ALLEY":"１２弄","HOUSE_NO":"９號","E_COORD97":169977.06,"N_COORD97":2552176.9500000002,"ADDRESS":"安昌街１０６巷１２弄９號","OBJECTID":25045},"geometry":{"x":169977.05999999866,"y":2552176.9499999993}},{"attributes":{"ID":25046,"DIS_CODE":0,"TOWNNAME":"安南區","LI":"\u25A0南里","LIN":"14鄰","STREET":"安昌街","SECT":" ","MAREA":" ","LANE":"１０６巷","ALLEY":"１３弄","HOUSE_NO":"１０號","E_COORD97":170036,"N_COORD97":2552179.21,"ADDRESS":"安昌街１０６巷１３弄１０號","OBJECTID":25046},"geometry":{"x":170036.00000000093,"y":2552179.2100000028}},{"attributes":{"ID":25047,"DIS_CODE":0,"TOWNNAME":"安南區","LI":"\u25A0南里","LIN":"14鄰","STREET":"安昌街","SECT":" ","MAREA":" ","LANE":"１０６巷","ALLEY":"１３弄","HOUSE_NO":"２號","E_COORD97":170015.13,"N_COORD97":2552176.9500000002,"ADDRESS":"安昌街１０６巷１３弄２號","OBJECTID":25047},"geometry":{"x":170015.13000000082,"y":2552176.9499999993}},{"attributes":{"ID":25048,"DIS_CODE":0,"TOWNNAME":"永康區","LI":"五王里","LIN":"34鄰","STREET":"五福街","SECT":" ","MAREA":" ","LANE":"３３巷","ALLEY":" ","HOUSE_NO":"９號","E_COORD97":171306.29999999999,"N_COORD97":2545925.75,"ADDRESS":"五福街３３巷９號","OBJECTID":25048},"geometry":{"x":171306.29999999981,"y":2545925.7500000019}},{"attributes":{"ID":25049,"DIS_CODE":0,"TOWNNAME":"新市區","LI":"新和里","LIN":"34鄰","STREET":"仁愛街","SECT":" ","MAREA":" ","LANE":" ","ALLEY":" ","HOUSE_NO":"１９１號","E_COORD97":177589.54000000001,"N_COORD97":2552773.7799999998,"ADDRESS":"仁愛街１９１號","OBJECTID":25049},"geometry":{"x":177589.54000000097,"y":2552773.7800000012}},{"attributes":{"ID":25050,"DIS_CODE":0,"TOWNNAME":"新市區","LI":"新和里","LIN":"34鄰","STREET":"仁愛街","SECT":" ","MAREA":" ","LANE":" ","ALLEY":" ","HOUSE_NO":"１９７號","E_COORD97":177592.29000000001,"N_COORD97":2552786.7799999998,"ADDRESS":"仁愛街１９７號","OBJECTID":25050},"geometry":{"x":177592.29000000004,"y":2552786.7800000012}},{"attributes":{"ID":25051,"DIS_CODE":0,"TOWNNAME":"善化區","LI":"牛庄里","LIN":"8鄰","STREET":" ","SECT":" ","MAREA":"牛庄","LANE":" ","ALLEY":" ","HOUSE_NO":"９１號","E_COORD97":180060.04999999999,"N_COORD97":2560100.5,"ADDRESS":"牛庄９１號","OBJECTID":25051},"geometry":{"x":180060.04999999981,"y":2560100.5}},{"attributes":{"ID":25052,"DIS_CODE":0,"TOWNNAME":"北門區","LI":"永隆里","LIN":"8鄰","STREET":" ","SECT":" ","MAREA":"北門","LANE":" ","ALLEY":" ","HOUSE_NO":"１１５號","E_COORD97":160170.32000000001,"N_COORD97":2574457.8300000001,"ADDRESS":"北門１１５號","OBJECTID":25052},"geometry":{"x":160170.3200000003,"y":2574457.8300000019}},{"attributes":{"ID":25053,"DIS_CODE":0,"TOWNNAME":"安南區","LI":"\u25A0南里","LIN":"14鄰","STREET":"安昌街","SECT":" ","MAREA":" ","LANE":"１０６巷","ALLEY":"１３弄","HOUSE_NO":"８號","E_COORD97":170029.79999999999,"N_COORD97":2552178.9199999999,"ADDRESS":"安昌街１０６巷１３弄８號","OBJECTID":25053},"geometry":{"x":170029.79999999981,"y":2552178.9200000018}},{"attributes":{"ID":25054,"DIS_CODE":0,"TOWNNAME":"安南區","LI":"\u25A0南里","LIN":"14鄰","STREET":"安昌街","SECT":" ","MAREA":" ","LANE":"１０６巷","ALLEY":"１４弄","HOUSE_NO":"１０號","E_COORD97":169977.06,"N_COORD97":2552163.4300000002,"ADDRESS":"安昌街１０６巷１４弄１０號","OBJECTID":25054},"geometry":{"x":169977.05999999866,"y":2552163.4299999997}},{"attributes":{"ID":25055,"DIS_CODE":0,"TOWNNAME":"安南區","LI":"\u25A0南里","LIN":"14鄰","STREET":"安昌街","SECT":" ","MAREA":" ","LANE":"１０６巷","ALLEY":"１４弄","HOUSE_NO":"２號","E_COORD97":169997.64999999999,"N_COORD97":2552163.4300000002,"ADDRESS":"安昌街１０６巷１４弄２號","OBJECTID":25055},"geometry":{"x":169997.65000000224,"y":2552163.4299999997}},{"attributes":{"ID":25056,"DIS_CODE":0,"TOWNNAME":"安南區","LI":"\u25A0南里","LIN":"14鄰","STREET":"安昌街","SECT":" ","MAREA":" ","LANE":"１０６巷","ALLEY":"１４弄","HOUSE_NO":"４號","E_COORD97":169992.85000000001,"N_COORD97":2552164,"ADDRESS":"安昌街１０６巷１４弄４號","OBJECTID":25056},"geometry":{"x":169992.85000000056,"y":2552164}},{"attributes":{"ID":25057,"DIS_CODE":0,"TOWNNAME":"安南區","LI":"\u25A0南里","LIN":"14鄰","STREET":"安昌街","SECT":" ","MAREA":" ","LANE":"１０６巷","ALLEY":"１４弄","HOUSE_NO":"６號","E_COORD97":169987.20999999999,"N_COORD97":2552163.7200000002,"ADDRESS":"安昌街１０６巷１４弄６號","OBJECTID":25057},"geometry":{"x":169987.21000000089,"y":2552163.7200000044}},{"attributes":{"ID":25058,"DIS_CODE":0,"TOWNNAME":"安南區","LI":"\u25A0南里","LIN":"14鄰","STREET":"安昌街","SECT":" ","MAREA":" ","LANE":"１０６巷","ALLEY":"１４弄","HOUSE_NO":"８號","E_COORD97":169982.13,"N_COORD97":2552163.7200000002,"ADDRESS":"安昌街１０６巷１４弄８號","OBJECTID":25058},"geometry":{"x":169982.13000000175,"y":2552163.7200000044}},{"attributes":{"ID":25059,"DIS_CODE":0,"TOWNNAME":"北門區","LI":"北門里","LIN":"8鄰","STREET":" ","SECT":" ","MAREA":"北門","LANE":" ","ALLEY":" ","HOUSE_NO":"２２３號","E_COORD97":160098.92999999999,"N_COORD97":2574403.9700000002,"ADDRESS":"北門２２３號","OBJECTID":25059},"geometry":{"x":160098.93000000063,"y":2574403.9700000025}},{"attributes":{"ID":25060,"DIS_CODE":0,"TOWNNAME":"北門區","LI":"北門里","LIN":"8鄰","STREET":" ","SECT":" ","MAREA":"北門","LANE":" ","ALLEY":" ","HOUSE_NO":"２２４號","E_COORD97":160105.76999999999,"N_COORD97":2574397.46,"ADDRESS":"北門２２４號","OBJECTID":25060},"geometry":{"x":160105.76999999955,"y":2574397.4600000028}},{"attributes":{"ID":25061,"DIS_CODE":0,"TOWNNAME":"北門區","LI":"北門里","LIN":"8鄰","STREET":" ","SECT":" ","MAREA":"北門","LANE":" ","ALLEY":" ","HOUSE_NO":"２２５號","E_COORD97":160101,"N_COORD97":2574385.5600000001,"ADDRESS":"北門２２５號","OBJECTID":25061},"geometry":{"x":160101,"y":2574385.5600000024}},{"attributes":{"ID":25062,"DIS_CODE":0,"TOWNNAME":"北門區","LI":"北門里","LIN":"8鄰","STREET":" ","SECT":" ","MAREA":"北門","LANE":" ","ALLEY":" ","HOUSE_NO":"２２６號","E_COORD97":160112.97,"N_COORD97":2574394.3100000001,"ADDRESS":"北門２２６號","OBJECTID":25062},"geometry":{"x":160112.96999999974,"y":2574394.3100000024}},{"attributes":{"ID":25063,"DIS_CODE":0,"TOWNNAME":"北門區","LI":"北門里","LIN":"8鄰","STREET":" ","SECT":" ","MAREA":"北門","LANE":" ","ALLEY":" ","HOUSE_NO":"２２７號","E_COORD97":160120.45999999999,"N_COORD97":2574385.8799999999,"ADDRESS":"北門２２７號","OBJECTID":25063},"geometry":{"x":160120.45999999996,"y":2574385.8800000008}},{"attributes":{"ID":25064,"DIS_CODE":0,"TOWNNAME":"安南區","LI":"\u25A0南里","LIN":"14鄰","STREET":"安昌街","SECT":" ","MAREA":" ","LANE":"１０６巷","ALLEY":"１５弄","HOUSE_NO":"１號","E_COORD97":170015.41,"N_COORD97":2552165.1200000001,"ADDRESS":"安昌街１０６巷１５弄１號","OBJECTID":25064},"geometry":{"x":170015.41000000015,"y":2552165.1200000029}},{"attributes":{"ID":25065,"DIS_CODE":0,"TOWNNAME":"安南區","LI":"\u25A0南里","LIN":"14鄰","STREET":"安昌街","SECT":" ","MAREA":" ","LANE":"１０６巷","ALLEY":"１５弄","HOUSE_NO":"３之１號","E_COORD97":170020.42000000001,"N_COORD97":2552165.2999999998,"ADDRESS":"安昌街１０６巷１５弄３之１號","OBJECTID":25065},"geometry":{"x":170020.41999999993,"y":2552165.3000000007}},{"attributes":{"ID":25066,"DIS_CODE":0,"TOWNNAME":"安南區","LI":"\u25A0南里","LIN":"14鄰","STREET":"安昌街","SECT":" ","MAREA":" ","LANE":"１０６巷","ALLEY":"１５弄","HOUSE_NO":"５號","E_COORD97":170025.85000000001,"N_COORD97":2552165.1200000001,"ADDRESS":"安昌街１０６巷１５弄５號","OBJECTID":25066},"geometry":{"x":170025.84999999963,"y":2552165.1200000029}},{"attributes":{"ID":25067,"DIS_CODE":0,"TOWNNAME":"安南區","LI":"\u25A0南里","LIN":"14鄰","STREET":"安昌街","SECT":" ","MAREA":" ","LANE":"１０６巷","ALLEY":"１５弄","HOUSE_NO":"７號","E_COORD97":170031.20999999999,"N_COORD97":2552165.3999999999,"ADDRESS":"安昌街１０６巷１５弄７號","OBJECTID":25067},"geometry":{"x":170031.21000000089,"y":2552165.3999999985}},{"attributes":{"ID":25068,"DIS_CODE":0,"TOWNNAME":"安南區","LI":"\u25A0南里","LIN":"14鄰","STREET":"安昌街","SECT":" ","MAREA":" ","LANE":"１０６巷","ALLEY":"１５弄","HOUSE_NO":"９號","E_COORD97":170036,"N_COORD97":2552165.3999999999,"ADDRESS":"安昌街１０６巷１５弄９號","OBJECTID":25068},"geometry":{"x":170036.00000000093,"y":2552165.3999999985}},{"attributes":{"ID":25069,"DIS_CODE":0,"TOWNNAME":"南區","LI":"喜北里","LIN":"14鄰","STREET":"喜樹路","SECT":" ","MAREA":" ","LANE":"２２２巷","ALLEY":"６弄","HOUSE_NO":"１號","E_COORD97":165685.76000000001,"N_COORD97":2538114.4500000002,"ADDRESS":"喜樹路２２２巷６弄１號","OBJECTID":25069},"geometry":{"x":165685.76000000071,"y":2538114.450000003}},{"attributes":{"ID":25070,"DIS_CODE":0,"TOWNNAME":"北門區","LI":"北門里","LIN":"8鄰","STREET":" ","SECT":" ","MAREA":"北門","LANE":" ","ALLEY":" ","HOUSE_NO":"２２８號","E_COORD97":160129.95999999999,"N_COORD97":2574359.75,"ADDRESS":"北門２２８號","OBJECTID":25070},"geometry":{"x":160129.96000000089,"y":2574359.7500000037}},{"attributes":{"ID":25071,"DIS_CODE":0,"TOWNNAME":"南區","LI":"喜北里","LIN":"14鄰","STREET":"喜樹路","SECT":" ","MAREA":" ","LANE":"２２２巷","ALLEY":"６弄","HOUSE_NO":"２號","E_COORD97":165681.20999999999,"N_COORD97":2538113.21,"ADDRESS":"喜樹路２２２巷６弄２號","OBJECTID":25071},"geometry":{"x":165681.21000000089,"y":2538113.2100000009}},{"attributes":{"ID":25072,"DIS_CODE":0,"TOWNNAME":"南區","LI":"喜北里","LIN":"14鄰","STREET":"喜樹路","SECT":" ","MAREA":" ","LANE":"２２２巷","ALLEY":"６弄","HOUSE_NO":"４號","E_COORD97":165672.51000000001,"N_COORD97":2538109.8100000001,"ADDRESS":"喜樹路２２２巷６弄４號","OBJECTID":25072},"geometry":{"x":165672.51000000071,"y":2538109.8100000042}},{"attributes":{"ID":25073,"DIS_CODE":0,"TOWNNAME":"南區","LI":"喜北里","LIN":"14鄰","STREET":"喜樹路","SECT":" ","MAREA":" ","LANE":"２２２巷","ALLEY":"６弄","HOUSE_NO":"６號","E_COORD97":165664.32000000001,"N_COORD97":2538106.4199999999,"ADDRESS":"喜樹路２２２巷６弄６號","OBJECTID":25073},"geometry":{"x":165664.32000000123,"y":2538106.4200000018}},{"attributes":{"ID":25074,"DIS_CODE":0,"TOWNNAME":"南區","LI":"喜北里","LIN":"14鄰","STREET":"喜樹路","SECT":" ","MAREA":" ","LANE":"２２２巷","ALLEY":"６弄","HOUSE_NO":"７號","E_COORD97":165659.73000000001,"N_COORD97":2538104.3399999999,"ADDRESS":"喜樹路２２２巷６弄７號","OBJECTID":25074},"geometry":{"x":165659.73000000138,"y":2538104.3399999999}},{"attributes":{"ID":25075,"DIS_CODE":0,"TOWNNAME":"北門區","LI":"北門里","LIN":"8鄰","STREET":" ","SECT":" ","MAREA":"北門","LANE":" ","ALLEY":" ","HOUSE_NO":"２２９號","E_COORD97":160141.94,"N_COORD97":2574369.4700000002,"ADDRESS":"北門２２９號","OBJECTID":25075},"geometry":{"x":160141.94000000134,"y":2574369.4700000025}},{"attributes":{"ID":25076,"DIS_CODE":0,"TOWNNAME":"南區","LI":"喜北里","LIN":"14鄰","STREET":"喜樹路","SECT":" ","MAREA":" ","LANE":"２２２巷","ALLEY":"６弄","HOUSE_NO":"８號","E_COORD97":165652.53,"N_COORD97":2538101.3599999999,"ADDRESS":"喜樹路２２２巷６弄８號","OBJECTID":25076},"geometry":{"x":165652.53000000119,"y":2538101.3599999975}},{"attributes":{"ID":25077,"DIS_CODE":0,"TOWNNAME":"永康區","LI":"正強里","LIN":"34鄰","STREET":"四維街","SECT":" ","MAREA":" ","LANE":"１４９巷","ALLEY":" ","HOUSE_NO":"３號","E_COORD97":173275.41,"N_COORD97":2548338.5299999998,"ADDRESS":"四維街１４９巷３號","OBJECTID":25077},"geometry":{"x":173275.41000000015,"y":2548338.5299999993}},{"attributes":{"ID":25078,"DIS_CODE":0,"TOWNNAME":"永康區","LI":"五王里","LIN":"34鄰","STREET":"五福街","SECT":" ","MAREA":" ","LANE":" ","ALLEY":" ","HOUSE_NO":"３９號","E_COORD97":171337.12,"N_COORD97":2545904.5,"ADDRESS":"五福街３９號","OBJECTID":25078},"geometry":{"x":171337.12000000104,"y":2545904.5}},{"attributes":{"ID":25079,"DIS_CODE":0,"TOWNNAME":"永康區","LI":"五王里","LIN":"34鄰","STREET":"五福街","SECT":" ","MAREA":" ","LANE":" ","ALLEY":" ","HOUSE_NO":"４５號","E_COORD97":171348.60000000001,"N_COORD97":2545910.25,"ADDRESS":"五福街４５號","OBJECTID":25079},"geometry":{"x":171348.60000000056,"y":2545910.25}},{"attributes":{"ID":25080,"DIS_CODE":0,"TOWNNAME":"北門區","LI":"北門里","LIN":"8鄰","STREET":" ","SECT":" ","MAREA":"北門","LANE":" ","ALLEY":" ","HOUSE_NO":"２３０號","E_COORD97":160157.91,"N_COORD97":2574357.0899999999,"ADDRESS":"北門２３０號","OBJECTID":25080},"geometry":{"x":160157.91000000015,"y":2574357.0900000036}},{"attributes":{"ID":25081,"DIS_CODE":0,"TOWNNAME":"永康區","LI":"五王里","LIN":"34鄰","STREET":"五福街","SECT":" ","MAREA":" ","LANE":" ","ALLEY":" ","HOUSE_NO":"４１號","E_COORD97":171341.26000000001,"N_COORD97":2545906.25,"ADDRESS":"五福街４１號","OBJECTID":25081},"geometry":{"x":171341.26000000071,"y":2545906.25}},{"attributes":{"ID":25082,"DIS_CODE":0,"TOWNNAME":"北門區","LI":"永隆里","LIN":"8鄰","STREET":" ","SECT":" ","MAREA":"北門","LANE":" ","ALLEY":" ","HOUSE_NO":"９７號","E_COORD97":160117.53,"N_COORD97":2574525.8799999999,"ADDRESS":"北門９７號","OBJECTID":25082},"geometry":{"x":160117.53000000119,"y":2574525.879999999}},{"attributes":{"ID":25083,"DIS_CODE":0,"TOWNNAME":"永康區","LI":"五王里","LIN":"34鄰","STREET":"五福街","SECT":" ","MAREA":" ","LANE":" ","ALLEY":" ","HOUSE_NO":"５５號","E_COORD97":171366.20999999999,"N_COORD97":2545921.5,"ADDRESS":"五福街５５號","OBJECTID":25083},"geometry":{"x":171366.20999999996,"y":2545921.5}},{"attributes":{"ID":25084,"DIS_CODE":0,"TOWNNAME":"永康區","LI":"五王里","LIN":"34鄰","STREET":"五福街","SECT":" ","MAREA":" ","LANE":" ","ALLEY":" ","HOUSE_NO":"２９號","E_COORD97":171317.23999999999,"N_COORD97":2545892.5,"ADDRESS":"五福街２９號","OBJECTID":25084},"geometry":{"x":171317.24000000022,"y":2545892.5000000037}},{"attributes":{"ID":25085,"DIS_CODE":0,"TOWNNAME":"北門區","LI":"永隆里","LIN":"8鄰","STREET":" ","SECT":" ","MAREA":"北門","LANE":" ","ALLEY":" ","HOUSE_NO":"９８號","E_COORD97":160114.10000000001,"N_COORD97":2574518.1000000001,"ADDRESS":"北門９８號","OBJECTID":25085},"geometry":{"x":160114.09999999963,"y":2574518.0999999996}},{"attributes":{"ID":25086,"DIS_CODE":0,"TOWNNAME":"永康區","LI":"五王里","LIN":"34鄰","STREET":"五福街","SECT":" ","MAREA":" ","LANE":" ","ALLEY":" ","HOUSE_NO":"４９號","E_COORD97":171355.22,"N_COORD97":2545915.5,"ADDRESS":"五福街４９號","OBJECTID":25086},"geometry":{"x":171355.22000000067,"y":2545915.5}},{"attributes":{"ID":25087,"DIS_CODE":0,"TOWNNAME":"新市區","LI":"大社里","LIN":"34鄰","STREET":" ","SECT":" ","MAREA":"大社","LANE":" ","ALLEY":" ","HOUSE_NO":"５３０之６０號","E_COORD97":179784.20000000001,"N_COORD97":2554776.2799999998,"ADDRESS":"大社５３０之６０號","OBJECTID":25087},"geometry":{"x":179784.20000000112,"y":2554776.2800000012}},{"attributes":{"ID":25088,"DIS_CODE":0,"TOWNNAME":"北門區","LI":"永隆里","LIN":"8鄰","STREET":" ","SECT":" ","MAREA":"北門","LANE":" ","ALLEY":" ","HOUSE_NO":"９９號","E_COORD97":160111.76999999999,"N_COORD97":2574513.6800000002,"ADDRESS":"北門９９號","OBJECTID":25088},"geometry":{"x":160111.77000000048,"y":2574513.6800000016}},{"attributes":{"ID":25089,"DIS_CODE":0,"TOWNNAME":"北門區","LI":"保吉里","LIN":"8鄰","STREET":" ","SECT":" ","MAREA":"蚵寮","LANE":" ","ALLEY":" ","HOUSE_NO":"２２４號","E_COORD97":161657.67999999999,"N_COORD97":2576149.0299999998,"ADDRESS":"蚵寮２２４號","OBJECTID":25089},"geometry":{"x":161657.6799999997,"y":2576149.0299999993}},{"attributes":{"ID":25090,"DIS_CODE":0,"TOWNNAME":"北門區","LI":"保吉里","LIN":"8鄰","STREET":" ","SECT":" ","MAREA":"蚵寮","LANE":" ","ALLEY":" ","HOUSE_NO":"２２５號","E_COORD97":161643.01999999999,"N_COORD97":2576151.3999999999,"ADDRESS":"蚵寮２２５號","OBJECTID":25090},"geometry":{"x":161643.01999999955,"y":2576151.4000000004}},{"attributes":{"ID":25091,"DIS_CODE":0,"TOWNNAME":"北門區","LI":"保吉里","LIN":"8鄰","STREET":" ","SECT":" ","MAREA":"蚵寮","LANE":" ","ALLEY":" ","HOUSE_NO":"２２６號","E_COORD97":161647.91,"N_COORD97":2576142.1099999999,"ADDRESS":"蚵寮２２６號","OBJECTID":25091},"geometry":{"x":161647.91000000015,"y":2576142.1099999994}},{"attributes":{"ID":25092,"DIS_CODE":0,"TOWNNAME":"北門區","LI":"保吉里","LIN":"8鄰","STREET":" ","SECT":" ","MAREA":"蚵寮","LANE":" ","ALLEY":" ","HOUSE_NO":"２２７號","E_COORD97":161632.88,"N_COORD97":2576144.3900000001,"ADDRESS":"蚵寮２２７號","OBJECTID":25092},"geometry":{"x":161632.87999999989,"y":2576144.3900000006}},{"attributes":{"ID":25093,"DIS_CODE":0,"TOWNNAME":"北門區","LI":"保吉里","LIN":"8鄰","STREET":" ","SECT":" ","MAREA":"蚵寮","LANE":" ","ALLEY":" ","HOUSE_NO":"２２８號","E_COORD97":161611.98999999999,"N_COORD97":2576134.8599999999,"ADDRESS":"蚵寮２２８號","OBJECTID":25093},"geometry":{"x":161611.99000000022,"y":2576134.8600000031}},{"attributes":{"ID":25094,"DIS_CODE":0,"TOWNNAME":"北門區","LI":"保吉里","LIN":"8鄰","STREET":" ","SECT":" ","MAREA":"蚵寮","LANE":" ","ALLEY":" ","HOUSE_NO":"２３１號","E_COORD97":161588.23999999999,"N_COORD97":2576129.5699999998,"ADDRESS":"蚵寮２３１號","OBJECTID":25094},"geometry":{"x":161588.24000000022,"y":2576129.5700000003}},{"attributes":{"ID":25095,"DIS_CODE":0,"TOWNNAME":"南區","LI":"喜北里","LIN":"14鄰","STREET":"喜樹路","SECT":" ","MAREA":" ","LANE":"２２２巷","ALLEY":"６弄","HOUSE_NO":"９號","E_COORD97":165647.98000000001,"N_COORD97":2538099.8700000001,"ADDRESS":"喜樹路２２２巷６弄９號","OBJECTID":25095},"geometry":{"x":165647.98000000138,"y":2538099.8700000048}},{"attributes":{"ID":25096,"DIS_CODE":0,"TOWNNAME":"南區","LI":"喜北里","LIN":"14鄰","STREET":"喜樹路","SECT":" ","MAREA":" ","LANE":"２２２巷","ALLEY":"６弄","HOUSE_NO":"１０號","E_COORD97":165644.09,"N_COORD97":2538098.1400000001,"ADDRESS":"喜樹路２２２巷６弄１０號","OBJECTID":25096},"geometry":{"x":165644.08999999985,"y":2538098.1400000025}},{"attributes":{"ID":25097,"DIS_CODE":0,"TOWNNAME":"南區","LI":"喜北里","LIN":"14鄰","STREET":"喜樹路","SECT":" ","MAREA":" ","LANE":"２２２巷","ALLEY":"６弄","HOUSE_NO":"１１號","E_COORD97":165639.62,"N_COORD97":2538095.8999999999,"ADDRESS":"喜樹路２２２巷６弄１１號","OBJECTID":25097},"geometry":{"x":165639.62000000104,"y":2538095.9000000022}},{"attributes":{"ID":25098,"DIS_CODE":0,"TOWNNAME":"南區","LI":"喜北里","LIN":"14鄰","STREET":"喜樹路","SECT":" ","MAREA":" ","LANE":"２２２巷","ALLEY":"６弄","HOUSE_NO":"１２號","E_COORD97":165635.32000000001,"N_COORD97":2538094.3300000001,"ADDRESS":"喜樹路２２２巷６弄１２號","OBJECTID":25098},"geometry":{"x":165635.32000000123,"y":2538094.3300000001}},{"attributes":{"ID":25099,"DIS_CODE":0,"TOWNNAME":"南區","LI":"喜北里","LIN":"14鄰","STREET":"喜樹路","SECT":" ","MAREA":" ","LANE":"２２２巷","ALLEY":"６弄","HOUSE_NO":"１３號","E_COORD97":165629.60000000001,"N_COORD97":2538092.1000000001,"ADDRESS":"喜樹路２２２巷６弄１３號","OBJECTID":25099},"geometry":{"x":165629.60000000056,"y":2538092.0999999996}},{"attributes":{"ID":25100,"DIS_CODE":0,"TOWNNAME":"南區","LI":"喜北里","LIN":"14鄰","STREET":"喜樹路","SECT":" ","MAREA":" ","LANE":"２２２巷","ALLEY":"６弄","HOUSE_NO":"１７號","E_COORD97":165607.29999999999,"N_COORD97":2538088.9500000002,"ADDRESS":"喜樹路２２２巷６弄１７號","OBJECTID":25100},"geometry":{"x":165607.30000000168,"y":2538088.9499999993}},{"attributes":{"ID":25101,"DIS_CODE":0,"TOWNNAME":"南區","LI":"喜北里","LIN":"14鄰","STREET":"喜樹路","SECT":" ","MAREA":" ","LANE":"２２２巷","ALLEY":"６弄","HOUSE_NO":"２０號","E_COORD97":165585.82999999999,"N_COORD97":2538082.4700000002,"ADDRESS":"喜樹路２２２巷６弄２０號","OBJECTID":25101},"geometry":{"x":165585.83000000101,"y":2538082.4700000025}},{"attributes":{"ID":25102,"DIS_CODE":0,"TOWNNAME":"南區","LI":"喜北里","LIN":"14鄰","STREET":"喜樹路","SECT":" ","MAREA":" ","LANE":"２２２巷","ALLEY":"８弄","HOUSE_NO":"１號","E_COORD97":165676.20000000001,"N_COORD97":2538128.4500000002,"ADDRESS":"喜樹路２２２巷８弄１號","OBJECTID":25102},"geometry":{"x":165676.20000000205,"y":2538128.4500000011}},{"attributes":{"ID":25103,"DIS_CODE":0,"TOWNNAME":"南區","LI":"喜北里","LIN":"14鄰","STREET":"喜樹路","SECT":" ","MAREA":" ","LANE":"２２２巷","ALLEY":"８弄","HOUSE_NO":"２號","E_COORD97":165668.59,"N_COORD97":2538125.8799999999,"ADDRESS":"喜樹路２２２巷８弄２號","OBJECTID":25103},"geometry":{"x":165668.59000000078,"y":2538125.8800000008}},{"attributes":{"ID":25104,"DIS_CODE":0,"TOWNNAME":"南區","LI":"喜北里","LIN":"14鄰","STREET":"喜樹路","SECT":" ","MAREA":" ","LANE":"２２２巷","ALLEY":"８弄","HOUSE_NO":"５號","E_COORD97":165656.92000000001,"N_COORD97":2538121.1699999999,"ADDRESS":"喜樹路２２２巷８弄５號","OBJECTID":25104},"geometry":{"x":165656.91999999993,"y":2538121.1700000018}},{"attributes":{"ID":25105,"DIS_CODE":0,"TOWNNAME":"南區","LI":"喜北里","LIN":"14鄰","STREET":"喜樹路","SECT":" ","MAREA":" ","LANE":"２２２巷","ALLEY":"８弄","HOUSE_NO":"６號","E_COORD97":165652.20000000001,"N_COORD97":2538119.3500000001,"ADDRESS":"喜樹路２２２巷８弄６號","OBJECTID":25105},"geometry":{"x":165652.20000000019,"y":2538119.3500000015}},{"attributes":{"ID":25106,"DIS_CODE":0,"TOWNNAME":"南區","LI":"喜北里","LIN":"14鄰","STREET":"喜樹路","SECT":" ","MAREA":" ","LANE":"２２２巷","ALLEY":"８弄","HOUSE_NO":"７號","E_COORD97":165641.44,"N_COORD97":2538117.8599999999,"ADDRESS":"喜樹路２２２巷８弄７號","OBJECTID":25106},"geometry":{"x":165641.44000000134,"y":2538117.8599999994}},{"attributes":{"ID":25107,"DIS_CODE":0,"TOWNNAME":"南區","LI":"喜北里","LIN":"14鄰","STREET":"喜樹路","SECT":" ","MAREA":" ","LANE":"２２２巷","ALLEY":"８弄","HOUSE_NO":"８號","E_COORD97":165636.64000000001,"N_COORD97":2538115.79,"ADDRESS":"喜樹路２２２巷８弄８號","OBJECTID":25107},"geometry":{"x":165636.63999999966,"y":2538115.790000001}},{"attributes":{"ID":25108,"DIS_CODE":0,"TOWNNAME":"南區","LI":"喜北里","LIN":"14鄰","STREET":"喜樹路","SECT":" ","MAREA":" ","LANE":"２２２巷","ALLEY":"８弄","HOUSE_NO":"９號","E_COORD97":165632.5,"N_COORD97":2538114.0600000001,"ADDRESS":"喜樹路２２２巷８弄９號","OBJECTID":25108},"geometry":{"x":165632.5,"y":2538114.0600000005}},{"attributes":{"ID":25109,"DIS_CODE":0,"TOWNNAME":"永康區","LI":"烏竹里","LIN":"14鄰","STREET":"竹園二街","SECT":" ","MAREA":" ","LANE":"１６０巷","ALLEY":"２３弄","HOUSE_NO":"３６號","E_COORD97":174646.67000000001,"N_COORD97":2549255.9199999999,"ADDRESS":"竹園二街１６０巷２３弄３６號","OBJECTID":25109},"geometry":{"x":174646.66999999993,"y":2549255.9199999981}},{"attributes":{"ID":25110,"DIS_CODE":0,"TOWNNAME":"永康區","LI":"烏竹里","LIN":"14鄰","STREET":"竹園二街","SECT":" ","MAREA":" ","LANE":"１６０巷","ALLEY":"２３弄","HOUSE_NO":"１０號","E_COORD97":174616.47,"N_COORD97":2549229.9300000002,"ADDRESS":"竹園二街１６０巷２３弄１０號","OBJECTID":25110},"geometry":{"x":174616.47000000067,"y":2549229.9300000016}},{"attributes":{"ID":25111,"DIS_CODE":0,"TOWNNAME":"永康區","LI":"烏竹里","LIN":"14鄰","STREET":"竹園二街","SECT":" ","MAREA":" ","LANE":"１６０巷","ALLEY":"２３弄","HOUSE_NO":"３８號","E_COORD97":174649.56,"N_COORD97":2549259.1699999999,"ADDRESS":"竹園二街１６０巷２３弄３８號","OBJECTID":25111},"geometry":{"x":174649.56000000052,"y":2549259.1700000018}},{"attributes":{"ID":25112,"DIS_CODE":0,"TOWNNAME":"永康區","LI":"烏竹里","LIN":"14鄰","STREET":"竹園二街","SECT":" ","MAREA":" ","LANE":"１６０巷","ALLEY":"２３弄","HOUSE_NO":"２２號","E_COORD97":174631.37,"N_COORD97":2549243.4300000002,"ADDRESS":"竹園二街１６０巷２３弄２２號","OBJECTID":25112},"geometry":{"x":174631.37000000104,"y":2549243.4300000016}},{"attributes":{"ID":25113,"DIS_CODE":0,"TOWNNAME":"永康區","LI":"烏竹里","LIN":"14鄰","STREET":"竹園二街","SECT":" ","MAREA":" ","LANE":"１６０巷","ALLEY":"２３弄","HOUSE_NO":"２８號","E_COORD97":174637.51999999999,"N_COORD97":2549248.9300000002,"ADDRESS":"竹園二街１６０巷２３弄２８號","OBJECTID":25113},"geometry":{"x":174637.52000000142,"y":2549248.9300000034}},{"attributes":{"ID":25114,"DIS_CODE":0,"TOWNNAME":"永康區","LI":"東橋里","LIN":"14鄰","STREET":"中山南路","SECT":" ","MAREA":" ","LANE":"３１９巷","ALLEY":"２１弄","HOUSE_NO":"１２號","E_COORD97":171736.73999999999,"N_COORD97":2546420.9100000001,"ADDRESS":"中山南路３１９巷２１弄１２號","OBJECTID":25114},"geometry":{"x":171736.74000000115,"y":2546420.9100000001}},{"attributes":{"ID":25115,"DIS_CODE":0,"TOWNNAME":"永康區","LI":"東橋里","LIN":"14鄰","STREET":"中山南路","SECT":" ","MAREA":" ","LANE":"３１９巷","ALLEY":"２１弄","HOUSE_NO":"１０號","E_COORD97":171745.57999999999,"N_COORD97":2546431.75,"ADDRESS":"中山南路３１９巷２１弄１０號","OBJECTID":25115},"geometry":{"x":171745.58000000194,"y":2546431.75}},{"attributes":{"ID":25116,"DIS_CODE":0,"TOWNNAME":"永康區","LI":"東橋里","LIN":"14鄰","STREET":"中山南路","SECT":" ","MAREA":" ","LANE":"３１９巷","ALLEY":"２１弄","HOUSE_NO":"１４號","E_COORD97":171731.67999999999,"N_COORD97":2546418.2400000002,"ADDRESS":"中山南路３１９巷２１弄１４號","OBJECTID":25116},"geometry":{"x":171731.68000000063,"y":2546418.2400000002}},{"attributes":{"ID":25117,"DIS_CODE":0,"TOWNNAME":"永康區","LI":"埔園里","LIN":"34鄰","STREET":"八德街","SECT":" ","MAREA":" ","LANE":" ","ALLEY":" ","HOUSE_NO":"１２０號","E_COORD97":174096.54999999999,"N_COORD97":2548543.2400000002,"ADDRESS":"八德街１２０號","OBJECTID":25117},"geometry":{"x":174096.54999999981,"y":2548543.2400000021}},{"attributes":{"ID":25118,"DIS_CODE":0,"TOWNNAME":"永康區","LI":"東橋里","LIN":"14鄰","STREET":"中山南路","SECT":" ","MAREA":" ","LANE":"３１９巷","ALLEY":"２１弄","HOUSE_NO":"５號","E_COORD97":171758.79000000001,"N_COORD97":2546418.6200000001,"ADDRESS":"中山南路３１９巷２１弄５號","OBJECTID":25118},"geometry":{"x":171758.79000000004,"y":2546418.6200000029}},{"attributes":{"ID":25119,"DIS_CODE":0,"TOWNNAME":"永康區","LI":"埔園里","LIN":"14鄰","STREET":"中山路","SECT":" ","MAREA":" ","LANE":"２３３巷","ALLEY":"６弄","HOUSE_NO":"３號","E_COORD97":173605.57999999999,"N_COORD97":2548162.4900000002,"ADDRESS":"中山路２３３巷６弄３號","OBJECTID":25119},"geometry":{"x":173605.58000000101,"y":2548162.4900000021}},{"attributes":{"ID":25120,"DIS_CODE":0,"TOWNNAME":"永康區","LI":"埔園里","LIN":"14鄰","STREET":"中山路","SECT":" ","MAREA":" ","LANE":"２３３巷","ALLEY":"６弄","HOUSE_NO":"１號","E_COORD97":173608.23999999999,"N_COORD97":2548158.7400000002,"ADDRESS":"中山路２３３巷６弄１號","OBJECTID":25120},"geometry":{"x":173608.24000000115,"y":2548158.7400000002}},{"attributes":{"ID":25121,"DIS_CODE":0,"TOWNNAME":"東區","LI":"德高里","LIN":"14鄰","STREET":"仁和路","SECT":" ","MAREA":" ","LANE":"１９９巷","ALLEY":"９弄","HOUSE_NO":"９號","E_COORD97":171663.85999999999,"N_COORD97":2540887.6000000001,"ADDRESS":"仁和路１９９巷９弄９號","OBJECTID":25121},"geometry":{"x":171663.86000000034,"y":2540887.6000000015}},{"attributes":{"ID":25122,"DIS_CODE":0,"TOWNNAME":"善化區","LI":"文正里","LIN":"14鄰","STREET":"陽明路","SECT":" ","MAREA":" ","LANE":"２２３巷","ALLEY":"３弄","HOUSE_NO":"８號","E_COORD97":176084.70000000001,"N_COORD97":2559582.7599999998,"ADDRESS":"陽明路２２３巷３弄８號","OBJECTID":25122},"geometry":{"x":176084.70000000205,"y":2559582.7599999998}},{"attributes":{"ID":25123,"DIS_CODE":0,"TOWNNAME":"善化區","LI":"文正里","LIN":"14鄰","STREET":"陽明路","SECT":" ","MAREA":" ","LANE":"２２３巷","ALLEY":"２弄","HOUSE_NO":"２２號","E_COORD97":176131.51000000001,"N_COORD97":2559617.5099999998,"ADDRESS":"陽明路２２３巷２弄２２號","OBJECTID":25123},"geometry":{"x":176131.51000000071,"y":2559617.5100000016}},{"attributes":{"ID":25124,"DIS_CODE":0,"TOWNNAME":"善化區","LI":"文正里","LIN":"14鄰","STREET":"陽明路","SECT":" ","MAREA":" ","LANE":"２２３巷","ALLEY":"２弄","HOUSE_NO":"２７號","E_COORD97":176146.85999999999,"N_COORD97":2559629.7599999998,"ADDRESS":"陽明路２２３巷２弄２７號","OBJECTID":25124},"geometry":{"x":176146.86000000127,"y":2559629.7600000016}},{"attributes":{"ID":25125,"DIS_CODE":0,"TOWNNAME":"仁德區","LI":"上崙里","LIN":"14鄰","STREET":"德崙路","SECT":" ","MAREA":" ","LANE":"４５０巷","ALLEY":"３０弄","HOUSE_NO":"２號","E_COORD97":174148.01000000001,"N_COORD97":2537989.2599999998,"ADDRESS":"德崙路４５０巷３０弄２號","OBJECTID":25125},"geometry":{"x":174148.01000000071,"y":2537989.2599999998}},{"attributes":{"ID":25126,"DIS_CODE":0,"TOWNNAME":"仁德區","LI":"仁義里","LIN":"14鄰","STREET":"義林路","SECT":" ","MAREA":" ","LANE":"２００巷","ALLEY":"４６弄","HOUSE_NO":"１７號","E_COORD97":174713.51000000001,"N_COORD97":2541241.04,"ADDRESS":"義林路２００巷４６弄１７號","OBJECTID":25126},"geometry":{"x":174713.50999999978,"y":2541241.040000001}},{"attributes":{"ID":25127,"DIS_CODE":0,"TOWNNAME":"仁德區","LI":"上崙里","LIN":"14鄰","STREET":"德崙路","SECT":" ","MAREA":" ","LANE":"３７０巷","ALLEY":"２１弄","HOUSE_NO":"１４號","E_COORD97":174068.51000000001,"N_COORD97":2538005.7599999998,"ADDRESS":"德崙路３７０巷２１弄１４號","OBJECTID":25127},"geometry":{"x":174068.51000000071,"y":2538005.7600000016}},{"attributes":{"ID":25128,"DIS_CODE":0,"TOWNNAME":"仁德區","LI":"二行里","LIN":"14鄰","STREET":"中正西路","SECT":" ","MAREA":" ","LANE":"３５３巷","ALLEY":"１８弄","HOUSE_NO":"１７號","E_COORD97":169800.79000000001,"N_COORD97":2535274.9900000002,"ADDRESS":"中正西路３５３巷１８弄１７號","OBJECTID":25128},"geometry":{"x":169800.79000000004,"y":2535274.9900000021}},{"attributes":{"ID":25129,"DIS_CODE":0,"TOWNNAME":"永康區","LI":"埔園里","LIN":"14鄰","STREET":"中山路","SECT":" ","MAREA":" ","LANE":"２３３巷","ALLEY":"６弄","HOUSE_NO":"７號","E_COORD97":173601.35000000001,"N_COORD97":2548170.25,"ADDRESS":"中山路２３３巷６弄７號","OBJECTID":25129},"geometry":{"x":173601.35000000149,"y":2548170.2500000019}},{"attributes":{"ID":25130,"DIS_CODE":0,"TOWNNAME":"東區","LI":"虎尾里","LIN":"14鄰","STREET":"富農街","SECT":"一段","MAREA":" ","LANE":"１８８巷","ALLEY":"１０弄","HOUSE_NO":"１３號","E_COORD97":171574.70999999999,"N_COORD97":2542402.0099999998,"ADDRESS":"富農街一段１８８巷１０弄１３號","OBJECTID":25130},"geometry":{"x":171574.70999999996,"y":2542402.0099999998}},{"attributes":{"ID":25131,"DIS_CODE":0,"TOWNNAME":"東區","LI":"虎尾里","LIN":"14鄰","STREET":"富農街","SECT":"一段","MAREA":" ","LANE":"１８８巷","ALLEY":"１０弄","HOUSE_NO":"１５號","E_COORD97":171573.92999999999,"N_COORD97":2542396.6299999999,"ADDRESS":"富農街一段１８８巷１０弄１５號","OBJECTID":25131},"geometry":{"x":171573.93000000063,"y":2542396.629999999}},{"attributes":{"ID":25132,"DIS_CODE":0,"TOWNNAME":"東區","LI":"虎尾里","LIN":"14鄰","STREET":"富農街","SECT":"一段","MAREA":" ","LANE":"１８８巷","ALLEY":"１０弄","HOUSE_NO":"１７號","E_COORD97":171574.38,"N_COORD97":2542390.5800000001,"ADDRESS":"富農街一段１８８巷１０弄１７號","OBJECTID":25132},"geometry":{"x":171574.38000000082,"y":2542390.5800000019}},{"attributes":{"ID":25133,"DIS_CODE":0,"TOWNNAME":"東區","LI":"虎尾里","LIN":"14鄰","STREET":"富農街","SECT":"一段","MAREA":" ","LANE":"１８８巷","ALLEY":"１０弄","HOUSE_NO":"１９號","E_COORD97":171574.48999999999,"N_COORD97":2542385.4300000002,"ADDRESS":"富農街一段１８８巷１０弄１９號","OBJECTID":25133},"geometry":{"x":171574.49000000022,"y":2542385.4299999997}},{"attributes":{"ID":25134,"DIS_CODE":0,"TOWNNAME":"西港區","LI":"慶安里","LIN":"14鄰","STREET":"慶安路","SECT":" ","MAREA":" ","LANE":"１７０巷","ALLEY":"２０弄","HOUSE_NO":"４３號","E_COORD97":168058.67000000001,"N_COORD97":2557983.0099999998,"ADDRESS":"慶安路１７０巷２０弄４３號","OBJECTID":25134},"geometry":{"x":168058.66999999993,"y":2557983.0100000016}},{"attributes":{"ID":25135,"DIS_CODE":0,"TOWNNAME":"西港區","LI":"慶安里","LIN":"14鄰","STREET":"慶安路","SECT":" ","MAREA":" ","LANE":"１７０巷","ALLEY":"２０弄","HOUSE_NO":"４５號","E_COORD97":168063.07999999999,"N_COORD97":2557983.3799999999,"ADDRESS":"慶安路１７０巷２０弄４５號","OBJECTID":25135},"geometry":{"x":168063.08000000007,"y":2557983.3800000008}},{"attributes":{"ID":25136,"DIS_CODE":0,"TOWNNAME":"西港區","LI":"慶安里","LIN":"14鄰","STREET":"慶安路","SECT":" ","MAREA":" ","LANE":"１７０巷","ALLEY":"２０弄","HOUSE_NO":"７號","E_COORD97":167995.10000000001,"N_COORD97":2557982.25,"ADDRESS":"慶安路１７０巷２０弄７號","OBJECTID":25136},"geometry":{"x":167995.09999999963,"y":2557982.2500000019}},{"attributes":{"ID":25137,"DIS_CODE":0,"TOWNNAME":"西港區","LI":"慶安里","LIN":"14鄰","STREET":"慶安路","SECT":" ","MAREA":" ","LANE":"１７０巷","ALLEY":"２０弄","HOUSE_NO":"９號","E_COORD97":168004.64999999999,"N_COORD97":2557985.3799999999,"ADDRESS":"慶安路１７０巷２０弄９號","OBJECTID":25137},"geometry":{"x":168004.6500000013,"y":2557985.3799999971}},{"attributes":{"ID":25138,"DIS_CODE":0,"TOWNNAME":"南區","LI":"大林里","LIN":"14鄰","STREET":"大同路","SECT":"二段","MAREA":" ","LANE":"４０６巷","ALLEY":"１１弄","HOUSE_NO":"２１號","E_COORD97":169269.06,"N_COORD97":2541619.4700000002,"ADDRESS":"大同路二段４０６巷１１弄２１號","OBJECTID":25138},"geometry":{"x":169269.06000000052,"y":2541619.4700000025}},{"attributes":{"ID":25139,"DIS_CODE":0,"TOWNNAME":"南區","LI":"大林里","LIN":"14鄰","STREET":"大同路","SECT":"二段","MAREA":" ","LANE":"４０６巷","ALLEY":"１１弄","HOUSE_NO":"２７號","E_COORD97":169249.06,"N_COORD97":2541616.1299999999,"ADDRESS":"大同路二段４０６巷１１弄２７號","OBJECTID":25139},"geometry":{"x":169249.06000000052,"y":2541616.1300000008}},{"attributes":{"ID":25140,"DIS_CODE":0,"TOWNNAME":"東區","LI":"和平里","LIN":"20鄰","STREET":"文化路","SECT":" ","MAREA":" ","LANE":" ","ALLEY":" ","HOUSE_NO":"２７號","E_COORD97":171177.53,"N_COORD97":2541944.29,"ADDRESS":"文化路２７號","OBJECTID":25140},"geometry":{"x":171177.53000000026,"y":2541944.290000001}},{"attributes":{"ID":25141,"DIS_CODE":0,"TOWNNAME":"東區","LI":"和平里","LIN":"20鄰","STREET":"文化三街","SECT":" ","MAREA":" ","LANE":" ","ALLEY":" ","HOUSE_NO":"１１號","E_COORD97":171167.70999999999,"N_COORD97":2541836.0299999998,"ADDRESS":"文化三街１１號","OBJECTID":25141},"geometry":{"x":171167.70999999996,"y":2541836.0299999993}},{"attributes":{"ID":25142,"DIS_CODE":0,"TOWNNAME":"東區","LI":"和平里","LIN":"20鄰","STREET":"文化三街","SECT":" ","MAREA":" ","LANE":" ","ALLEY":" ","HOUSE_NO":"９號","E_COORD97":171160.34,"N_COORD97":2541832.75,"ADDRESS":"文化三街９號","OBJECTID":25142},"geometry":{"x":171160.33999999892,"y":2541832.7500000019}},{"attributes":{"ID":25143,"DIS_CODE":0,"TOWNNAME":"東區","LI":"和平里","LIN":"20鄰","STREET":"文化三街","SECT":" ","MAREA":" ","LANE":" ","ALLEY":" ","HOUSE_NO":"５號","E_COORD97":171145.12,"N_COORD97":2541827.02,"ADDRESS":"文化三街５號","OBJECTID":25143},"geometry":{"x":171145.12000000011,"y":2541827.0200000014}},{"attributes":{"ID":25144,"DIS_CODE":0,"TOWNNAME":"東區","LI":"和平里","LIN":"20鄰","STREET":"文化三街","SECT":" ","MAREA":" ","LANE":" ","ALLEY":" ","HOUSE_NO":"７號","E_COORD97":171153.29999999999,"N_COORD97":2541829.8100000001,"ADDRESS":"文化三街７號","OBJECTID":25144},"geometry":{"x":171153.29999999981,"y":2541829.8100000024}},{"attributes":{"ID":25145,"DIS_CODE":0,"TOWNNAME":"東區","LI":"崇德里","LIN":"20鄰","STREET":"崇明十四街","SECT":" ","MAREA":" ","LANE":" ","ALLEY":" ","HOUSE_NO":"４４號","E_COORD97":170635.01999999999,"N_COORD97":2541603.3300000001,"ADDRESS":"崇明十四街４４號","OBJECTID":25145},"geometry":{"x":170635.01999999862,"y":2541603.3300000001}},{"attributes":{"ID":25146,"DIS_CODE":0,"TOWNNAME":"東區","LI":"和平里","LIN":"20鄰","STREET":"文化三街","SECT":" ","MAREA":" ","LANE":" ","ALLEY":" ","HOUSE_NO":"１０之１號","E_COORD97":171193.12,"N_COORD97":2541817.3999999999,"ADDRESS":"文化三街１０之１號","OBJECTID":25146},"geometry":{"x":171193.12000000104,"y":2541817.4000000004}},{"attributes":{"ID":25147,"DIS_CODE":0,"TOWNNAME":"東區","LI":"和平里","LIN":"20鄰","STREET":"文化三街","SECT":" ","MAREA":" ","LANE":" ","ALLEY":" ","HOUSE_NO":"１０之２號","E_COORD97":171193.91,"N_COORD97":2541812.1499999999,"ADDRESS":"文化三街１０之２號","OBJECTID":25147},"geometry":{"x":171193.91000000015,"y":2541812.1500000004}},{"attributes":{"ID":25148,"DIS_CODE":0,"TOWNNAME":"東區","LI":"和平里","LIN":"20鄰","STREET":"文化三街","SECT":" ","MAREA":" ","LANE":" ","ALLEY":" ","HOUSE_NO":"８號","E_COORD97":171178.01000000001,"N_COORD97":2541819.4700000002,"ADDRESS":"文化三街８號","OBJECTID":25148},"geometry":{"x":171178.01000000164,"y":2541819.4700000025}},{"attributes":{"ID":25149,"DIS_CODE":0,"TOWNNAME":"東區","LI":"和平里","LIN":"20鄰","STREET":"文化三街","SECT":" ","MAREA":" ","LANE":" ","ALLEY":" ","HOUSE_NO":"８之１號","E_COORD97":171180.07999999999,"N_COORD97":2541814.3799999999,"ADDRESS":"文化三街８之１號","OBJECTID":25149},"geometry":{"x":171180.08000000101,"y":2541814.3800000008}},{"attributes":{"ID":25150,"DIS_CODE":0,"TOWNNAME":"南區","LI":"大林里","LIN":"14鄰","STREET":"大同路","SECT":"二段","MAREA":" ","LANE":"４０６巷","ALLEY":"１１弄","HOUSE_NO":"２５號","E_COORD97":169255.57000000001,"N_COORD97":2541617.0800000001,"ADDRESS":"大同路二段４０６巷１１弄２５號","OBJECTID":25150},"geometry":{"x":169255.56999999937,"y":2541617.0800000019}},{"attributes":{"ID":25151,"DIS_CODE":0,"TOWNNAME":"南區","LI":"大林里","LIN":"14鄰","STREET":"大同路","SECT":"二段","MAREA":" ","LANE":"４０６巷","ALLEY":"１１弄","HOUSE_NO":"２７號","E_COORD97":169251.75,"N_COORD97":2541611.9100000001,"ADDRESS":"大同路二段４０６巷１１弄２７號","OBJECTID":25151},"geometry":{"x":169251.75,"y":2541611.910000002}},{"attributes":{"ID":25152,"DIS_CODE":0,"TOWNNAME":"東區","LI":"後甲里","LIN":"14鄰","STREET":"裕農路","SECT":" ","MAREA":" ","LANE":"６２１巷","ALLEY":"４５弄","HOUSE_NO":"１０號","E_COORD97":171587.01000000001,"N_COORD97":2543484.2799999998,"ADDRESS":"裕農路６２１巷４５弄１０號","OBJECTID":25152},"geometry":{"x":171587.01000000071,"y":2543484.2799999993}},{"attributes":{"ID":25153,"DIS_CODE":0,"TOWNNAME":"東區","LI":"後甲里","LIN":"14鄰","STREET":"裕農路","SECT":" ","MAREA":" ","LANE":"６２１巷","ALLEY":"４５弄","HOUSE_NO":"１２號","E_COORD97":171585.57000000001,"N_COORD97":2543489.5800000001,"ADDRESS":"裕農路６２１巷４５弄１２號","OBJECTID":25153},"geometry":{"x":171585.57000000123,"y":2543489.5800000019}},{"attributes":{"ID":25154,"DIS_CODE":0,"TOWNNAME":"東區","LI":"後甲里","LIN":"14鄰","STREET":"裕農路","SECT":" ","MAREA":" ","LANE":"６２１巷","ALLEY":"４５弄","HOUSE_NO":"１號","E_COORD97":171588.70000000001,"N_COORD97":2543460.1899999999,"ADDRESS":"裕農路６２１巷４５弄１號","OBJECTID":25154},"geometry":{"x":171588.70000000019,"y":2543460.1900000013}},{"attributes":{"ID":25155,"DIS_CODE":0,"TOWNNAME":"東區","LI":"後甲里","LIN":"14鄰","STREET":"裕農路","SECT":" ","MAREA":" ","LANE":"６２１巷","ALLEY":"４５弄","HOUSE_NO":"２號","E_COORD97":171588.45999999999,"N_COORD97":2543467.6600000001,"ADDRESS":"裕農路６２１巷４５弄２號","OBJECTID":25155},"geometry":{"x":171588.45999999996,"y":2543467.660000002}},{"attributes":{"ID":25156,"DIS_CODE":0,"TOWNNAME":"東區","LI":"後甲里","LIN":"14鄰","STREET":"裕農路","SECT":" ","MAREA":" ","LANE":"６２１巷","ALLEY":"４５弄","HOUSE_NO":"３號","E_COORD97":171588.70000000001,"N_COORD97":2543455.3700000001,"ADDRESS":"裕農路６２１巷４５弄３號","OBJECTID":25156},"geometry":{"x":171588.70000000019,"y":2543455.370000001}},{"attributes":{"ID":25157,"DIS_CODE":0,"TOWNNAME":"東區","LI":"後甲里","LIN":"14鄰","STREET":"裕農路","SECT":" ","MAREA":" ","LANE":"６２１巷","ALLEY":"４５弄","HOUSE_NO":"４號","E_COORD97":171588.70000000001,"N_COORD97":2543472.7200000002,"ADDRESS":"裕農路６２１巷４５弄４號","OBJECTID":25157},"geometry":{"x":171588.70000000019,"y":2543472.7200000007}},{"attributes":{"ID":25158,"DIS_CODE":0,"TOWNNAME":"新營區","LI":"新南里","LIN":"20鄰","STREET":"復興路","SECT":" ","MAREA":" ","LANE":" ","ALLEY":" ","HOUSE_NO":"３５４之６號","E_COORD97":178617.79000000001,"N_COORD97":2578166.2999999998,"ADDRESS":"復興路３５４之６號","OBJECTID":25158},"geometry":{"x":178617.79000000004,"y":2578166.3000000007}},{"attributes":{"ID":25159,"DIS_CODE":0,"TOWNNAME":"新營區","LI":"新南里","LIN":"20鄰","STREET":"復興路","SECT":" ","MAREA":" ","LANE":" ","ALLEY":" ","HOUSE_NO":"３８４號","E_COORD97":178508.04000000001,"N_COORD97":2578197.77,"ADDRESS":"復興路３８４號","OBJECTID":25159},"geometry":{"x":178508.0400000019,"y":2578197.7700000014}},{"attributes":{"ID":25160,"DIS_CODE":0,"TOWNNAME":"新營區","LI":"民權里","LIN":" ","STREET":"信義街","SECT":" ","MAREA":" ","LANE":" ","ALLEY":" ","HOUSE_NO":"８３之３號","E_COORD97":179731.32999999999,"N_COORD97":2578782.25,"ADDRESS":"信義街８３之３號","OBJECTID":25160},"geometry":{"x":179731.33000000007,"y":2578782.2500000019}},{"attributes":{"ID":25161,"DIS_CODE":0,"TOWNNAME":"新營區","LI":"新南里","LIN":"20鄰","STREET":"復興路","SECT":" ","MAREA":" ","LANE":" ","ALLEY":" ","HOUSE_NO":"５０６號","E_COORD97":178250.59,"N_COORD97":2578277.6499999999,"ADDRESS":"復興路５０６號","OBJECTID":25161},"geometry":{"x":178250.59000000078,"y":2578277.6500000022}},{"attributes":{"ID":25162,"DIS_CODE":0,"TOWNNAME":"新營區","LI":"民權里","LIN":"24鄰","STREET":"信義街","SECT":" ","MAREA":" ","LANE":" ","ALLEY":" ","HOUSE_NO":"９１之１號","E_COORD97":179782.23000000001,"N_COORD97":2578752.1099999999,"ADDRESS":"信義街９１之１號","OBJECTID":25162},"geometry":{"x":179782.23000000138,"y":2578752.1100000013}},{"attributes":{"ID":25163,"DIS_CODE":0,"TOWNNAME":"新營區","LI":"民榮里","LIN":" ","STREET":"興農街","SECT":" ","MAREA":" ","LANE":" ","ALLEY":" ","HOUSE_NO":"１之２號","E_COORD97":179293.48999999999,"N_COORD97":2577975.8799999999,"ADDRESS":"興農街１之２號","OBJECTID":25163},"geometry":{"x":179293.49000000209,"y":2577975.8800000008}},{"attributes":{"ID":25164,"DIS_CODE":0,"TOWNNAME":"新營區","LI":"新南里","LIN":"20鄰","STREET":"復興路","SECT":" ","MAREA":" ","LANE":" ","ALLEY":" ","HOUSE_NO":"３８２號","E_COORD97":178512.13,"N_COORD97":2578196.6400000001,"ADDRESS":"復興路３８２號","OBJECTID":25164},"geometry":{"x":178512.12999999989,"y":2578196.6400000025}},{"attributes":{"ID":25165,"DIS_CODE":0,"TOWNNAME":"新營區","LI":"民生里","LIN":" ","STREET":"中華路","SECT":" ","MAREA":" ","LANE":" ","ALLEY":" ","HOUSE_NO":"１１７之１號","E_COORD97":179146.54000000001,"N_COORD97":2578165.9700000002,"ADDRESS":"中華路１１７之１號","OBJECTID":25165},"geometry":{"x":179146.54000000004,"y":2578165.9700000007}},{"attributes":{"ID":25166,"DIS_CODE":0,"TOWNNAME":"新營區","LI":"新南里","LIN":"20鄰","STREET":"復興路","SECT":" ","MAREA":" ","LANE":" ","ALLEY":" ","HOUSE_NO":"３７６號","E_COORD97":178544.85000000001,"N_COORD97":2578193.1699999999,"ADDRESS":"復興路３７６號","OBJECTID":25166},"geometry":{"x":178544.85000000056,"y":2578193.1699999999}},{"attributes":{"ID":25167,"DIS_CODE":0,"TOWNNAME":"新營區","LI":"民權里","LIN":" ","STREET":"信義街","SECT":" ","MAREA":" ","LANE":" ","ALLEY":" ","HOUSE_NO":"８３之１號","E_COORD97":179731.32999999999,"N_COORD97":2578782.25,"ADDRESS":"信義街８３之１號","OBJECTID":25167},"geometry":{"x":179731.33000000007,"y":2578782.2500000019}},{"attributes":{"ID":25168,"DIS_CODE":0,"TOWNNAME":"東區","LI":"後甲里","LIN":"14鄰","STREET":"裕農路","SECT":" ","MAREA":" ","LANE":"６２１巷","ALLEY":"４５弄","HOUSE_NO":"５號","E_COORD97":171588.94,"N_COORD97":2543451.52,"ADDRESS":"裕農路６２１巷４５弄５號","OBJECTID":25168},"geometry":{"x":171588.94000000041,"y":2543451.5200000014}},{"attributes":{"ID":25169,"DIS_CODE":0,"TOWNNAME":"新營區","LI":"民生里","LIN":"4鄰","STREET":"三興街","SECT":" ","MAREA":" ","LANE":" ","ALLEY":" ","HOUSE_NO":"９之２號","E_COORD97":179473.63,"N_COORD97":2578218.6699999999,"ADDRESS":"三興街９之２號","OBJECTID":25169},"geometry":{"x":179473.63000000082,"y":2578218.6700000018}},{"attributes":{"ID":25170,"DIS_CODE":0,"TOWNNAME":"新營區","LI":"民榮里","LIN":" ","STREET":"興農街","SECT":" ","MAREA":" ","LANE":" ","ALLEY":" ","HOUSE_NO":"１４號","E_COORD97":179254.63,"N_COORD97":2577972.6800000002,"ADDRESS":"興農街１４號","OBJECTID":25170},"geometry":{"x":179254.62999999989,"y":2577972.6799999997}},{"attributes":{"ID":25171,"DIS_CODE":0,"TOWNNAME":"新營區","LI":"大宏里","LIN":" ","STREET":"大同路","SECT":" ","MAREA":" ","LANE":" ","ALLEY":" ","HOUSE_NO":"２７之１０號","E_COORD97":180674.12,"N_COORD97":2578678.1400000001,"ADDRESS":"大同路２７之１０號","OBJECTID":25171},"geometry":{"x":180674.12000000104,"y":2578678.1400000025}},{"attributes":{"ID":25172,"DIS_CODE":0,"TOWNNAME":"新營區","LI":"民生里","LIN":"6鄰","STREET":"民生路","SECT":" ","MAREA":" ","LANE":" ","ALLEY":" ","HOUSE_NO":"２０號之１","E_COORD97":179381.81,"N_COORD97":2578201.3900000001,"ADDRESS":"民生路２０號之１","OBJECTID":25172},"geometry":{"x":179381.80999999959,"y":2578201.3900000025}},{"attributes":{"ID":25173,"DIS_CODE":0,"TOWNNAME":"新營區","LI":"新南里","LIN":"20鄰","STREET":"復興路","SECT":" ","MAREA":" ","LANE":" ","ALLEY":" ","HOUSE_NO":"５０２號之１","E_COORD97":178261.92999999999,"N_COORD97":2578275.4399999999,"ADDRESS":"復興路５０２號之１","OBJECTID":25173},"geometry":{"x":178261.9299999997,"y":2578275.4399999995}},{"attributes":{"ID":25174,"DIS_CODE":0,"TOWNNAME":"新營區","LI":"新南里","LIN":"20鄰","STREET":"復興路","SECT":" ","MAREA":" ","LANE":" ","ALLEY":" ","HOUSE_NO":"３８０號","E_COORD97":178517.23999999999,"N_COORD97":2578195.5099999998,"ADDRESS":"復興路３８０號","OBJECTID":25174},"geometry":{"x":178517.24000000115,"y":2578195.5100000035}},{"attributes":{"ID":25175,"DIS_CODE":0,"TOWNNAME":"北門區","LI":"保吉里","LIN":"8鄰","STREET":" ","SECT":" ","MAREA":"蚵寮","LANE":" ","ALLEY":" ","HOUSE_NO":"２３４號","E_COORD97":161503.66,"N_COORD97":2576152.02,"ADDRESS":"蚵寮２３４號","OBJECTID":25175},"geometry":{"x":161503.66000000108,"y":2576152.0200000014}},{"attributes":{"ID":25176,"DIS_CODE":0,"TOWNNAME":"東區","LI":"後甲里","LIN":"14鄰","STREET":"裕農路","SECT":" ","MAREA":" ","LANE":"６２１巷","ALLEY":"４５弄","HOUSE_NO":"６號","E_COORD97":171587.73999999999,"N_COORD97":2543476.3300000001,"ADDRESS":"裕農路６２１巷４５弄６號","OBJECTID":25176},"geometry":{"x":171587.74000000115,"y":2543476.3300000038}},{"attributes":{"ID":25177,"DIS_CODE":0,"TOWNNAME":"東區","LI":"後甲里","LIN":"14鄰","STREET":"裕農路","SECT":" ","MAREA":" ","LANE":"６２１巷","ALLEY":"４５弄","HOUSE_NO":"７號","E_COORD97":171589.91,"N_COORD97":2543448.1400000001,"ADDRESS":"裕農路６２１巷４５弄７號","OBJECTID":25177},"geometry":{"x":171589.91000000108,"y":2543448.1400000025}},{"attributes":{"ID":25178,"DIS_CODE":0,"TOWNNAME":"東區","LI":"後甲里","LIN":"14鄰","STREET":"裕農路","SECT":" ","MAREA":" ","LANE":"６２１巷","ALLEY":"４５弄","HOUSE_NO":"８號","E_COORD97":171587.25,"N_COORD97":2543480.4300000002,"ADDRESS":"裕農路６２１巷４５弄８號","OBJECTID":25178},"geometry":{"x":171587.25000000093,"y":2543480.4299999997}},{"attributes":{"ID":25179,"DIS_CODE":0,"TOWNNAME":"東區","LI":"後甲里","LIN":"14鄰","STREET":"裕農路","SECT":" ","MAREA":" ","LANE":"６２１巷","ALLEY":"４５弄","HOUSE_NO":"９號","E_COORD97":171590.14999999999,"N_COORD97":2543444.0499999998,"ADDRESS":"裕農路６２１巷４５弄９號","OBJECTID":25179},"geometry":{"x":171590.1500000013,"y":2543444.0500000007}},{"attributes":{"ID":25180,"DIS_CODE":0,"TOWNNAME":"東區","LI":"後甲里","LIN":"14鄰","STREET":"裕農路","SECT":" ","MAREA":" ","LANE":"６２１巷","ALLEY":"４５弄","HOUSE_NO":"１１號","E_COORD97":171589.67000000001,"N_COORD97":2543438.9900000002,"ADDRESS":"裕農路６２１巷４５弄１１號","OBJECTID":25180},"geometry":{"x":171589.67000000086,"y":2543438.9900000021}},{"attributes":{"ID":25181,"DIS_CODE":0,"TOWNNAME":"永康區","LI":"西灣里","LIN":"34鄰","STREET":"永華路","SECT":" ","MAREA":" ","LANE":" ","ALLEY":" ","HOUSE_NO":"３７０號","E_COORD97":174079.10000000001,"N_COORD97":2545804.3700000001,"ADDRESS":"永華路３７０號","OBJECTID":25181},"geometry":{"x":174079.09999999963,"y":2545804.3700000029}},{"attributes":{"ID":25182,"DIS_CODE":0,"TOWNNAME":"永康區","LI":"龍潭里","LIN":"34鄰","STREET":"龍埔街","SECT":" ","MAREA":" ","LANE":" ","ALLEY":" ","HOUSE_NO":"１４９號","E_COORD97":174528.91,"N_COORD97":2548242.7799999998,"ADDRESS":"龍埔街１４９號","OBJECTID":25182},"geometry":{"x":174528.91000000108,"y":2548242.7800000031}},{"attributes":{"ID":25183,"DIS_CODE":0,"TOWNNAME":"北門區","LI":"保吉里","LIN":"8鄰","STREET":" ","SECT":" ","MAREA":"蚵寮","LANE":" ","ALLEY":" ","HOUSE_NO":"２３５號","E_COORD97":161504.89000000001,"N_COORD97":2576142.48,"ADDRESS":"蚵寮２３５號","OBJECTID":25183},"geometry":{"x":161504.8900000006,"y":2576142.4800000023}},{"attributes":{"ID":25184,"DIS_CODE":0,"TOWNNAME":"安南區","LI":"佃西里","LIN":"14鄰","STREET":"公學路","SECT":"四段","MAREA":" ","LANE":"２６８巷","ALLEY":"１弄","HOUSE_NO":"１０號","E_COORD97":165392.29000000001,"N_COORD97":2551838.5699999998,"ADDRESS":"公學路四段２６８巷１弄１０號","OBJECTID":25184},"geometry":{"x":165392.2900000019,"y":2551838.5700000003}},{"attributes":{"ID":25185,"DIS_CODE":0,"TOWNNAME":"安南區","LI":"佃西里","LIN":"14鄰","STREET":"公學路","SECT":"四段","MAREA":" ","LANE":"２６８巷","ALLEY":"１弄","HOUSE_NO":"１２號","E_COORD97":165389.29000000001,"N_COORD97":2551835.48,"ADDRESS":"公學路四段２６８巷１弄１２號","OBJECTID":25185},"geometry":{"x":165389.29000000097,"y":2551835.4800000004}},{"attributes":{"ID":25186,"DIS_CODE":0,"TOWNNAME":"安南區","LI":"佃西里","LIN":"14鄰","STREET":"公學路","SECT":"四段","MAREA":" ","LANE":"２６８巷","ALLEY":"１弄","HOUSE_NO":"６號","E_COORD97":165398.67000000001,"N_COORD97":2551842.04,"ADDRESS":"公學路四段２６８巷１弄６號","OBJECTID":25186},"geometry":{"x":165398.67000000086,"y":2551842.040000001}},{"attributes":{"ID":25187,"DIS_CODE":0,"TOWNNAME":"安南區","LI":"佃西里","LIN":"14鄰","STREET":"公學路","SECT":"四段","MAREA":" ","LANE":"２６８巷","ALLEY":"１弄","HOUSE_NO":"８號","E_COORD97":165396.25,"N_COORD97":2551839.73,"ADDRESS":"公學路四段２６８巷１弄８號","OBJECTID":25187},"geometry":{"x":165396.25000000093,"y":2551839.7300000004}},{"attributes":{"ID":25188,"DIS_CODE":0,"TOWNNAME":"安南區","LI":"佃西里","LIN":"14鄰","STREET":"公學路","SECT":"四段","MAREA":" ","LANE":"２６８巷","ALLEY":"１弄","HOUSE_NO":"２號","E_COORD97":165402.63,"N_COORD97":2551843.8799999999,"ADDRESS":"公學路四段２６８巷１弄２號","OBJECTID":25188},"geometry":{"x":165402.62999999989,"y":2551843.879999999}},{"attributes":{"ID":25189,"DIS_CODE":0,"TOWNNAME":"善化區","LI":"文正里","LIN":"14鄰","STREET":"陽明路","SECT":" ","MAREA":" ","LANE":"２２３巷","ALLEY":"２弄","HOUSE_NO":"２１號","E_COORD97":176132.35999999999,"N_COORD97":2559630.0099999998,"ADDRESS":"陽明路２２３巷２弄２１號","OBJECTID":25189},"geometry":{"x":176132.36000000034,"y":2559630.0100000035}},{"attributes":{"ID":25190,"DIS_CODE":0,"TOWNNAME":"善化區","LI":"文正里","LIN":"14鄰","STREET":"陽明路","SECT":" ","MAREA":" ","LANE":"２２３巷","ALLEY":"３弄","HOUSE_NO":"２８號","E_COORD97":176139.26000000001,"N_COORD97":2559582.5099999998,"ADDRESS":"陽明路２２３巷３弄２８號","OBJECTID":25190},"geometry":{"x":176139.25999999978,"y":2559582.5100000035}},{"attributes":{"ID":25191,"DIS_CODE":0,"TOWNNAME":"善化區","LI":"文正里","LIN":"14鄰","STREET":"陽明路","SECT":" ","MAREA":" ","LANE":"２２３巷","ALLEY":"２弄","HOUSE_NO":"１號","E_COORD97":176077.67000000001,"N_COORD97":2559631.0099999998,"ADDRESS":"陽明路２２３巷２弄１號","OBJECTID":25191},"geometry":{"x":176077.66999999899,"y":2559631.0100000016}},{"attributes":{"ID":25192,"DIS_CODE":0,"TOWNNAME":"善化區","LI":"文正里","LIN":"14鄰","STREET":"陽明路","SECT":" ","MAREA":" ","LANE":"２２３巷","ALLEY":"３弄","HOUSE_NO":"２０號","E_COORD97":176114.89999999999,"N_COORD97":2559582.7599999998,"ADDRESS":"陽明路２２３巷３弄２０號","OBJECTID":25192},"geometry":{"x":176114.90000000037,"y":2559582.7599999998}},{"attributes":{"ID":25193,"DIS_CODE":0,"TOWNNAME":"善化區","LI":"文正里","LIN":"14鄰","STREET":"陽明路","SECT":" ","MAREA":" ","LANE":"２２３巷","ALLEY":"１弄","HOUSE_NO":"２號","E_COORD97":176094,"N_COORD97":2559652.2599999998,"ADDRESS":"陽明路２２３巷１弄２號","OBJECTID":25193},"geometry":{"x":176094,"y":2559652.2600000016}},{"attributes":{"ID":25194,"DIS_CODE":0,"TOWNNAME":"善化區","LI":"文正里","LIN":"14鄰","STREET":"陽明路","SECT":" ","MAREA":" ","LANE":"２２３巷","ALLEY":"２弄","HOUSE_NO":"１１號","E_COORD97":176102.28,"N_COORD97":2559630.7599999998,"ADDRESS":"陽明路２２３巷２弄１１號","OBJECTID":25194},"geometry":{"x":176102.28000000026,"y":2559630.7599999998}},{"attributes":{"ID":25195,"DIS_CODE":0,"TOWNNAME":"善化區","LI":"文正里","LIN":"14鄰","STREET":"陽明路","SECT":" ","MAREA":" ","LANE":"２２３巷","ALLEY":"３弄","HOUSE_NO":"１６號","E_COORD97":176104.75,"N_COORD97":2559583.0099999998,"ADDRESS":"陽明路２２３巷３弄１６號","OBJECTID":25195},"geometry":{"x":176104.75000000093,"y":2559583.0100000016}},{"attributes":{"ID":25196,"DIS_CODE":0,"TOWNNAME":"善化區","LI":"文正里","LIN":"14鄰","STREET":"陽明路","SECT":" ","MAREA":" ","LANE":"２２３巷","ALLEY":"１弄","HOUSE_NO":"１０號","E_COORD97":176112.75,"N_COORD97":2559652.5099999998,"ADDRESS":"陽明路２２３巷１弄１０號","OBJECTID":25196},"geometry":{"x":176112.74999999907,"y":2559652.5099999998}},{"attributes":{"ID":25197,"DIS_CODE":0,"TOWNNAME":"善化區","LI":"文正里","LIN":"14鄰","STREET":"陽明路","SECT":" ","MAREA":" ","LANE":"２２３巷","ALLEY":"２弄","HOUSE_NO":"８號","E_COORD97":176091.54999999999,"N_COORD97":2559617.7599999998,"ADDRESS":"陽明路２２３巷２弄８號","OBJECTID":25197},"geometry":{"x":176091.54999999981,"y":2559617.7599999979}},{"attributes":{"ID":25198,"DIS_CODE":0,"TOWNNAME":"北門區","LI":"保吉里","LIN":"8鄰","STREET":" ","SECT":" ","MAREA":"蚵寮","LANE":" ","ALLEY":" ","HOUSE_NO":"２３６號","E_COORD97":161511.12,"N_COORD97":2576144.96,"ADDRESS":"蚵寮２３６號","OBJECTID":25198},"geometry":{"x":161511.12000000011,"y":2576144.9600000009}},{"attributes":{"ID":25199,"DIS_CODE":0,"TOWNNAME":"善化區","LI":"文正里","LIN":"14鄰","STREET":"陽明路","SECT":" ","MAREA":" ","LANE":"２２３巷","ALLEY":"３弄","HOUSE_NO":"２４號","E_COORD97":176125.64999999999,"N_COORD97":2559582.7599999998,"ADDRESS":"陽明路２２３巷３弄２４號","OBJECTID":25199},"geometry":{"x":176125.65000000037,"y":2559582.7599999998}},{"attributes":{"ID":25200,"DIS_CODE":0,"TOWNNAME":"善化區","LI":"文正里","LIN":"14鄰","STREET":"陽明路","SECT":" ","MAREA":" ","LANE":"２２３巷","ALLEY":"３弄","HOUSE_NO":"２７號","E_COORD97":176140.01000000001,"N_COORD97":2559596.0099999998,"ADDRESS":"陽明路２２３巷３弄２７號","OBJECTID":25200},"geometry":{"x":176140.01000000071,"y":2559596.0100000035}}]}