{"displayFieldName":"TOWNNAME","fieldAliases":{"ID":"ID","DIS_CODE":"DIS_CODE","TOWNNAME":"TOWNNAME","LI":"LI","LIN":"LIN","STREET":"STREET","SECT":"SECT","MAREA":"MAREA","LANE":"LANE","ALLEY":"ALLEY","HOUSE_NO":"HOUSE_NO","E_COORD97":"E_COORD97","N_COORD97":"N_COORD97","ADDRESS":"ADDRESS","OBJECTID":"OBJECTID"},"geometryType":"esriGeometryPoint","spatialReference":{"wkid":102443,"latestWkid":3826},"fields":[{"name":"ID","type":"esriFieldTypeDouble","alias":"ID"},{"name":"DIS_CODE","type":"esriFieldTypeInteger","alias":"DIS_CODE"},{"name":"TOWNNAME","type":"esriFieldTypeString","alias":"TOWNNAME","length":8},{"name":"LI","type":"esriFieldTypeString","alias":"LI","length":8},{"name":"LIN","type":"esriFieldTypeString","alias":"LIN","length":12},{"name":"STREET","type":"esriFieldTypeString","alias":"STREET","length":20},{"name":"SECT","type":"esriFieldTypeString","alias":"SECT","length":8},{"name":"MAREA","type":"esriFieldTypeString","alias":"MAREA","length":12},{"name":"LANE","type":"esriFieldTypeString","alias":"LANE","length":10},{"name":"ALLEY","type":"esriFieldTypeString","alias":"ALLEY","length":10},{"name":"HOUSE_NO","type":"esriFieldTypeString","alias":"HOUSE_NO","length":20},{"name":"E_COORD97","type":"esriFieldTypeDouble","alias":"E_COORD97"},{"name":"N_COORD97","type":"esriFieldTypeDouble","alias":"N_COORD97"},{"name":"ADDRESS","type":"esriFieldTypeString","alias":"ADDRESS","length":50},{"name":"OBJECTID","type":"esriFieldTypeOID","alias":"OBJECTID"}],"features":[{"attributes":{"ID":488626,"DIS_CODE":0,"TOWNNAME":"中西區","LI":"三合里","LIN":"13鄰","STREET":"信義街","SECT":" ","MAREA":" ","LANE":" ","ALLEY":" ","HOUSE_NO":"８７號","E_COORD97":167439.89000000001,"N_COORD97":2544575.3399999999,"ADDRESS":"信義街８７號","OBJECTID":488601},"geometry":{"x":167439.88999999966,"y":2544575.3400000017}},{"attributes":{"ID":488627,"DIS_CODE":0,"TOWNNAME":"中西區","LI":"三合里","LIN":"13鄰","STREET":"信義街","SECT":" ","MAREA":" ","LANE":" ","ALLEY":" ","HOUSE_NO":"８９號","E_COORD97":167434.45000000001,"N_COORD97":2544577,"ADDRESS":"信義街８９號","OBJECTID":488602},"geometry":{"x":167434.45000000112,"y":2544577.0000000037}},{"attributes":{"ID":488628,"DIS_CODE":0,"TOWNNAME":"中西區","LI":"三合里","LIN":"13鄰","STREET":"信義街","SECT":" ","MAREA":" ","LANE":" ","ALLEY":" ","HOUSE_NO":"９１號","E_COORD97":167429.76999999999,"N_COORD97":2544579.21,"ADDRESS":"信義街９１號","OBJECTID":488603},"geometry":{"x":167429.77000000048,"y":2544579.2100000009}},{"attributes":{"ID":488629,"DIS_CODE":0,"TOWNNAME":"中西區","LI":"三合里","LIN":"13鄰","STREET":"信義街","SECT":" ","MAREA":" ","LANE":" ","ALLEY":" ","HOUSE_NO":"９３號","E_COORD97":167425.57000000001,"N_COORD97":2544581.4900000002,"ADDRESS":"信義街９３號","OBJECTID":488604},"geometry":{"x":167425.57000000123,"y":2544581.4900000021}},{"attributes":{"ID":488630,"DIS_CODE":0,"TOWNNAME":"永康區","LI":"東橋里","LIN":"13鄰","STREET":"中山南路","SECT":" ","MAREA":" ","LANE":" ","ALLEY":" ","HOUSE_NO":"２３７號","E_COORD97":171669.38,"N_COORD97":2546234.3599999999,"ADDRESS":"中山南路２３７號","OBJECTID":488605},"geometry":{"x":171669.38000000082,"y":2546234.3599999994}},{"attributes":{"ID":488631,"DIS_CODE":0,"TOWNNAME":"永康區","LI":"東橋里","LIN":"13鄰","STREET":"東橋一路","SECT":" ","MAREA":" ","LANE":" ","ALLEY":" ","HOUSE_NO":"３號","E_COORD97":171656.54000000001,"N_COORD97":2546247.2000000002,"ADDRESS":"東橋一路３號","OBJECTID":488606},"geometry":{"x":171656.54000000097,"y":2546247.2000000011}},{"attributes":{"ID":488632,"DIS_CODE":0,"TOWNNAME":"永康區","LI":"東橋里","LIN":"13鄰","STREET":"東橋一路","SECT":" ","MAREA":" ","LANE":" ","ALLEY":" ","HOUSE_NO":"１１號","E_COORD97":171644.29999999999,"N_COORD97":2546263.9399999999,"ADDRESS":"東橋一路１１號","OBJECTID":488607},"geometry":{"x":171644.30000000075,"y":2546263.9399999995}},{"attributes":{"ID":488633,"DIS_CODE":0,"TOWNNAME":"永康區","LI":"東橋里","LIN":"13鄰","STREET":"東橋一路","SECT":" ","MAREA":" ","LANE":" ","ALLEY":" ","HOUSE_NO":"１３號","E_COORD97":171643.45000000001,"N_COORD97":2546269.4300000002,"ADDRESS":"東橋一路１３號","OBJECTID":488608},"geometry":{"x":171643.45000000112,"y":2546269.4300000016}},{"attributes":{"ID":488634,"DIS_CODE":0,"TOWNNAME":"新化區","LI":"豐榮里","LIN":"13鄰","STREET":"民治路","SECT":" ","MAREA":" ","LANE":" ","ALLEY":" ","HOUSE_NO":"１１號","E_COORD97":178725.16,"N_COORD97":2547992.25,"ADDRESS":"民治路１１號","OBJECTID":488609},"geometry":{"x":178725.16000000015,"y":2547992.25}},{"attributes":{"ID":488635,"DIS_CODE":0,"TOWNNAME":"新化區","LI":"豐榮里","LIN":"13鄰","STREET":"正新南路","SECT":" ","MAREA":" ","LANE":" ","ALLEY":" ","HOUSE_NO":"１９８號","E_COORD97":178700.87,"N_COORD97":2547944.25,"ADDRESS":"正新南路１９８號","OBJECTID":488610},"geometry":{"x":178700.87000000197,"y":2547944.25}},{"attributes":{"ID":488636,"DIS_CODE":0,"TOWNNAME":"安南區","LI":"頂安里","LIN":"13鄰","STREET":"安中路","SECT":"一段","MAREA":" ","LANE":" ","ALLEY":" ","HOUSE_NO":"３５８號","E_COORD97":168433.07999999999,"N_COORD97":2548729.9900000002,"ADDRESS":"安中路一段３５８號","OBJECTID":488611},"geometry":{"x":168433.07999999914,"y":2548729.9900000002}},{"attributes":{"ID":488637,"DIS_CODE":0,"TOWNNAME":"安南區","LI":"安慶里","LIN":"13鄰","STREET":"安和路","SECT":"二段","MAREA":" ","LANE":" ","ALLEY":" ","HOUSE_NO":"４１號之１","E_COORD97":169429.16,"N_COORD97":2548610.0699999998,"ADDRESS":"安和路二段４１號之１","OBJECTID":488612},"geometry":{"x":169429.16000000015,"y":2548610.0700000003}},{"attributes":{"ID":488638,"DIS_CODE":0,"TOWNNAME":"安南區","LI":"安慶里","LIN":"13鄰","STREET":"怡安路","SECT":"一段","MAREA":" ","LANE":" ","ALLEY":" ","HOUSE_NO":"７７號","E_COORD97":169379.12,"N_COORD97":2548969.2999999998,"ADDRESS":"怡安路一段７７號","OBJECTID":488613},"geometry":{"x":169379.12000000104,"y":2548969.2999999989}},{"attributes":{"ID":488639,"DIS_CODE":0,"TOWNNAME":"安南區","LI":"安慶里","LIN":"13鄰","STREET":"怡安路","SECT":"一段","MAREA":" ","LANE":" ","ALLEY":" ","HOUSE_NO":"８３號","E_COORD97":169359.17999999999,"N_COORD97":2548972.21,"ADDRESS":"怡安路一段８３號","OBJECTID":488614},"geometry":{"x":169359.1799999997,"y":2548972.2100000009}},{"attributes":{"ID":488640,"DIS_CODE":0,"TOWNNAME":"永康區","LI":"王行里","LIN":"13鄰","STREET":"王行路","SECT":" ","MAREA":" ","LANE":" ","ALLEY":" ","HOUSE_NO":"１１０２號之２","E_COORD97":175653.73000000001,"N_COORD97":2550222.79,"ADDRESS":"王行路１１０２號之２","OBJECTID":488615},"geometry":{"x":175653.73000000045,"y":2550222.790000001}},{"attributes":{"ID":488641,"DIS_CODE":0,"TOWNNAME":"永康區","LI":"中興里","LIN":"13鄰","STREET":"中興街","SECT":" ","MAREA":" ","LANE":" ","ALLEY":" ","HOUSE_NO":"９２號","E_COORD97":172089.10000000001,"N_COORD97":2545343.4900000002,"ADDRESS":"中興街９２號","OBJECTID":488616},"geometry":{"x":172089.10000000149,"y":2545343.4900000039}},{"attributes":{"ID":488642,"DIS_CODE":0,"TOWNNAME":"永康區","LI":"王行里","LIN":"13鄰","STREET":"王行路","SECT":" ","MAREA":" ","LANE":" ","ALLEY":" ","HOUSE_NO":"１０４０號","E_COORD97":175783.72,"N_COORD97":2550149.25,"ADDRESS":"王行路１０４０號","OBJECTID":488617},"geometry":{"x":175783.71999999974,"y":2550149.2500000019}},{"attributes":{"ID":488643,"DIS_CODE":0,"TOWNNAME":"永康區","LI":"永康里","LIN":"13鄰","STREET":"永康街","SECT":" ","MAREA":" ","LANE":" ","ALLEY":" ","HOUSE_NO":"１３８號","E_COORD97":173923.04000000001,"N_COORD97":2547070.75,"ADDRESS":"永康街１３８號","OBJECTID":488618},"geometry":{"x":173923.04000000097,"y":2547070.7500000037}},{"attributes":{"ID":488644,"DIS_CODE":0,"TOWNNAME":"永康區","LI":"三民里","LIN":"13鄰","STREET":"和平路","SECT":" ","MAREA":" ","LANE":" ","ALLEY":" ","HOUSE_NO":"２８７號","E_COORD97":174449.26999999999,"N_COORD97":2551248.3300000001,"ADDRESS":"和平路２８７號","OBJECTID":488619},"geometry":{"x":174449.27000000142,"y":2551248.3300000019}},{"attributes":{"ID":488645,"DIS_CODE":0,"TOWNNAME":"永康區","LI":"永康里","LIN":"13鄰","STREET":"永平街","SECT":" ","MAREA":" ","LANE":" ","ALLEY":" ","HOUSE_NO":"１１３號","E_COORD97":173890.67999999999,"N_COORD97":2547009.2999999998,"ADDRESS":"永平街１１３號","OBJECTID":488620},"geometry":{"x":173890.68000000156,"y":2547009.3000000007}},{"attributes":{"ID":488646,"DIS_CODE":0,"TOWNNAME":"永康區","LI":"北灣里","LIN":"13鄰","STREET":"文賢街","SECT":" ","MAREA":" ","LANE":" ","ALLEY":" ","HOUSE_NO":"２８７號","E_COORD97":175175.38,"N_COORD97":2545811.8100000001,"ADDRESS":"文賢街２８７號","OBJECTID":488621},"geometry":{"x":175175.37999999989,"y":2545811.8100000005}},{"attributes":{"ID":488647,"DIS_CODE":0,"TOWNNAME":"永康區","LI":"西灣里","LIN":"13鄰","STREET":"大灣五街","SECT":" ","MAREA":" ","LANE":" ","ALLEY":" ","HOUSE_NO":"１３８號","E_COORD97":174564.67999999999,"N_COORD97":2545326.8799999999,"ADDRESS":"大灣五街１３８號","OBJECTID":488622},"geometry":{"x":174564.6799999997,"y":2545326.8800000008}},{"attributes":{"ID":488648,"DIS_CODE":0,"TOWNNAME":"永康區","LI":"三民里","LIN":"13鄰","STREET":"和平路","SECT":" ","MAREA":" ","LANE":" ","ALLEY":" ","HOUSE_NO":"２９３號","E_COORD97":174473.23000000001,"N_COORD97":2551268.4900000002,"ADDRESS":"和平路２９３號","OBJECTID":488623},"geometry":{"x":174473.23000000138,"y":2551268.4900000002}},{"attributes":{"ID":488649,"DIS_CODE":0,"TOWNNAME":"永康區","LI":"王行里","LIN":"13鄰","STREET":"王行路","SECT":" ","MAREA":" ","LANE":" ","ALLEY":" ","HOUSE_NO":"１０５２號","E_COORD97":175755.12,"N_COORD97":2550165.5,"ADDRESS":"王行路１０５２號","OBJECTID":488624},"geometry":{"x":175755.12000000104,"y":2550165.5000000019}},{"attributes":{"ID":488650,"DIS_CODE":0,"TOWNNAME":"永康區","LI":"正強里","LIN":"13鄰","STREET":"正強街","SECT":" ","MAREA":" ","LANE":" ","ALLEY":" ","HOUSE_NO":"１５９號","E_COORD97":173313.07999999999,"N_COORD97":2547529.23,"ADDRESS":"正強街１５９號","OBJECTID":488625},"geometry":{"x":173313.08000000007,"y":2547529.2300000023}},{"attributes":{"ID":488651,"DIS_CODE":0,"TOWNNAME":"永康區","LI":"中興里","LIN":"13鄰","STREET":"中興街","SECT":" ","MAREA":" ","LANE":" ","ALLEY":" ","HOUSE_NO":"６６號","E_COORD97":172087.94,"N_COORD97":2545281.2400000002,"ADDRESS":"中興街６６號","OBJECTID":488626},"geometry":{"x":172087.94000000134,"y":2545281.2400000021}},{"attributes":{"ID":488652,"DIS_CODE":0,"TOWNNAME":"永康區","LI":"北灣里","LIN":"13鄰","STREET":"文賢街","SECT":" ","MAREA":" ","LANE":" ","ALLEY":" ","HOUSE_NO":"３２５號","E_COORD97":175089.04999999999,"N_COORD97":2545821.3999999999,"ADDRESS":"文賢街３２５號","OBJECTID":488627},"geometry":{"x":175089.05000000075,"y":2545821.4000000004}},{"attributes":{"ID":488653,"DIS_CODE":0,"TOWNNAME":"永康區","LI":"南灣里","LIN":"13鄰","STREET":"大灣路","SECT":" ","MAREA":" ","LANE":" ","ALLEY":" ","HOUSE_NO":"５８２號","E_COORD97":174619.95000000001,"N_COORD97":2544684.5099999998,"ADDRESS":"大灣路５８２號","OBJECTID":488628},"geometry":{"x":174619.95000000205,"y":2544684.5099999998}},{"attributes":{"ID":488654,"DIS_CODE":0,"TOWNNAME":"永康區","LI":"北灣里","LIN":"13鄰","STREET":"大灣路","SECT":" ","MAREA":" ","LANE":" ","ALLEY":" ","HOUSE_NO":"７０號","E_COORD97":175238.66,"N_COORD97":2545782.8700000001,"ADDRESS":"大灣路７０號","OBJECTID":488629},"geometry":{"x":175238.66000000015,"y":2545782.8700000029}},{"attributes":{"ID":488655,"DIS_CODE":0,"TOWNNAME":"永康區","LI":"東橋里","LIN":"13鄰","STREET":"中山南路","SECT":" ","MAREA":" ","LANE":" ","ALLEY":" ","HOUSE_NO":"２３５號之２","E_COORD97":171673.63,"N_COORD97":2546220.7999999998,"ADDRESS":"中山南路２３５號之２","OBJECTID":488630},"geometry":{"x":171673.62999999989,"y":2546220.8000000026}},{"attributes":{"ID":488656,"DIS_CODE":0,"TOWNNAME":"安南區","LI":"安慶里","LIN":"13鄰","STREET":"怡安路","SECT":"一段","MAREA":" ","LANE":" ","ALLEY":" ","HOUSE_NO":"８１號之１","E_COORD97":169365.56,"N_COORD97":2548973.1499999999,"ADDRESS":"怡安路一段８１號之１","OBJECTID":488631},"geometry":{"x":169365.56000000052,"y":2548973.1500000004}},{"attributes":{"ID":488657,"DIS_CODE":0,"TOWNNAME":"安南區","LI":"安慶里","LIN":"13鄰","STREET":"怡安路","SECT":"一段","MAREA":" ","LANE":" ","ALLEY":" ","HOUSE_NO":"７３號","E_COORD97":169387.97,"N_COORD97":2548967.2599999998,"ADDRESS":"怡安路一段７３號","OBJECTID":488632},"geometry":{"x":169387.9700000016,"y":2548967.2599999998}},{"attributes":{"ID":488658,"DIS_CODE":0,"TOWNNAME":"安南區","LI":"安慶里","LIN":"13鄰","STREET":"怡安路","SECT":"一段","MAREA":" ","LANE":" ","ALLEY":" ","HOUSE_NO":"７５號","E_COORD97":169383.54999999999,"N_COORD97":2548967.5899999999,"ADDRESS":"怡安路一段７５號","OBJECTID":488633},"geometry":{"x":169383.54999999981,"y":2548967.5900000017}},{"attributes":{"ID":488659,"DIS_CODE":0,"TOWNNAME":"安南區","LI":"安慶里","LIN":"13鄰","STREET":"怡安路","SECT":"一段","MAREA":" ","LANE":" ","ALLEY":" ","HOUSE_NO":"７９號","E_COORD97":169374.70000000001,"N_COORD97":2548970.23,"ADDRESS":"怡安路一段７９號","OBJECTID":488634},"geometry":{"x":169374.70000000019,"y":2548970.2300000023}},{"attributes":{"ID":488660,"DIS_CODE":0,"TOWNNAME":"中西區","LI":"天后里","LIN":"13鄰","STREET":"民族路","SECT":"二段","MAREA":" ","LANE":" ","ALLEY":" ","HOUSE_NO":"２４２號","E_COORD97":168135.64999999999,"N_COORD97":2544211.6299999999,"ADDRESS":"民族路二段２４２號","OBJECTID":488635},"geometry":{"x":168135.65000000037,"y":2544211.629999999}},{"attributes":{"ID":488661,"DIS_CODE":0,"TOWNNAME":"中西區","LI":"天后里","LIN":"13鄰","STREET":"民族路","SECT":"二段","MAREA":" ","LANE":" ","ALLEY":" ","HOUSE_NO":"２４４號","E_COORD97":168131.76999999999,"N_COORD97":2544214.2200000002,"ADDRESS":"民族路二段２４４號","OBJECTID":488636},"geometry":{"x":168131.77000000048,"y":2544214.2200000025}},{"attributes":{"ID":488662,"DIS_CODE":0,"TOWNNAME":"中西區","LI":"天后里","LIN":"13鄰","STREET":"民族路","SECT":"二段","MAREA":" ","LANE":" ","ALLEY":" ","HOUSE_NO":"２４６號","E_COORD97":168127.5,"N_COORD97":2544215.1200000001,"ADDRESS":"民族路二段２４６號","OBJECTID":488637},"geometry":{"x":168127.50000000093,"y":2544215.1200000029}},{"attributes":{"ID":488663,"DIS_CODE":0,"TOWNNAME":"中西區","LI":"天后里","LIN":"13鄰","STREET":"民族路","SECT":"二段","MAREA":" ","LANE":" ","ALLEY":" ","HOUSE_NO":"２４８號","E_COORD97":168123.60999999999,"N_COORD97":2544215.8999999999,"ADDRESS":"民族路二段２４８號","OBJECTID":488638},"geometry":{"x":168123.61000000127,"y":2544215.9000000022}},{"attributes":{"ID":488664,"DIS_CODE":0,"TOWNNAME":"中西區","LI":"天后里","LIN":"13鄰","STREET":"民族路","SECT":"二段","MAREA":" ","LANE":" ","ALLEY":" ","HOUSE_NO":"２５０號","E_COORD97":168120.12,"N_COORD97":2544217.4500000002,"ADDRESS":"民族路二段２５０號","OBJECTID":488639},"geometry":{"x":168120.12000000104,"y":2544217.4500000011}},{"attributes":{"ID":488665,"DIS_CODE":0,"TOWNNAME":"中西區","LI":"天后里","LIN":"13鄰","STREET":"民族路","SECT":"二段","MAREA":" ","LANE":" ","ALLEY":" ","HOUSE_NO":"２５２號","E_COORD97":168115.45999999999,"N_COORD97":2544218.8700000001,"ADDRESS":"民族路二段２５２號","OBJECTID":488640},"geometry":{"x":168115.46000000089,"y":2544218.870000001}},{"attributes":{"ID":488666,"DIS_CODE":0,"TOWNNAME":"中西區","LI":"天后里","LIN":"13鄰","STREET":"民族路","SECT":"二段","MAREA":" ","LANE":" ","ALLEY":" ","HOUSE_NO":"２５４號","E_COORD97":168111.44,"N_COORD97":2544219.6499999999,"ADDRESS":"民族路二段２５４號","OBJECTID":488641},"geometry":{"x":168111.44000000134,"y":2544219.6500000004}},{"attributes":{"ID":488667,"DIS_CODE":0,"TOWNNAME":"中西區","LI":"天后里","LIN":"13鄰","STREET":"民族路","SECT":"二段","MAREA":" ","LANE":" ","ALLEY":" ","HOUSE_NO":"２５６號","E_COORD97":168107.95000000001,"N_COORD97":2544220.8100000001,"ADDRESS":"民族路二段２５６號","OBJECTID":488642},"geometry":{"x":168107.95000000019,"y":2544220.8100000024}},{"attributes":{"ID":488668,"DIS_CODE":0,"TOWNNAME":"中西區","LI":"天后里","LIN":"13鄰","STREET":"赤嵌街","SECT":" ","MAREA":" ","LANE":" ","ALLEY":" ","HOUSE_NO":"５號","E_COORD97":168200.48000000001,"N_COORD97":2544226.8999999999,"ADDRESS":"赤嵌街５號","OBJECTID":488643},"geometry":{"x":168200.48000000231,"y":2544226.9000000022}},{"attributes":{"ID":488669,"DIS_CODE":0,"TOWNNAME":"中西區","LI":"天后里","LIN":"13鄰","STREET":"赤嵌街","SECT":" ","MAREA":" ","LANE":" ","ALLEY":" ","HOUSE_NO":"７號","E_COORD97":168202.10000000001,"N_COORD97":2544232.5800000001,"ADDRESS":"赤嵌街７號","OBJECTID":488644},"geometry":{"x":168202.10000000149,"y":2544232.5800000001}},{"attributes":{"ID":488670,"DIS_CODE":0,"TOWNNAME":"中西區","LI":"天后里","LIN":"13鄰","STREET":"赤嵌街","SECT":" ","MAREA":" ","LANE":" ","ALLEY":" ","HOUSE_NO":"９號","E_COORD97":168202.51000000001,"N_COORD97":2544235.0099999998,"ADDRESS":"赤嵌街９號","OBJECTID":488645},"geometry":{"x":168202.50999999978,"y":2544235.0100000016}},{"attributes":{"ID":488671,"DIS_CODE":0,"TOWNNAME":"仁德區","LI":"新田里","LIN":"13鄰","STREET":"民安路","SECT":"一段","MAREA":" ","LANE":" ","ALLEY":" ","HOUSE_NO":"４４９號","E_COORD97":173196.82000000001,"N_COORD97":2539349.5600000001,"ADDRESS":"民安路一段４４９號","OBJECTID":488646},"geometry":{"x":173196.8200000003,"y":2539349.5600000024}},{"attributes":{"ID":488672,"DIS_CODE":0,"TOWNNAME":"仁德區","LI":"新田里","LIN":"13鄰","STREET":"中正路","SECT":"二段","MAREA":" ","LANE":" ","ALLEY":" ","HOUSE_NO":"４１１號","E_COORD97":173290.85000000001,"N_COORD97":2539367.0299999998,"ADDRESS":"中正路二段４１１號","OBJECTID":488647},"geometry":{"x":173290.84999999963,"y":2539367.0299999993}},{"attributes":{"ID":488673,"DIS_CODE":0,"TOWNNAME":"仁德區","LI":"新田里","LIN":"13鄰","STREET":"北保二街","SECT":" ","MAREA":" ","LANE":" ","ALLEY":" ","HOUSE_NO":"１４號","E_COORD97":173220.47,"N_COORD97":2539411.5,"ADDRESS":"北保二街１４號","OBJECTID":488648},"geometry":{"x":173220.46999999974,"y":2539411.5000000019}},{"attributes":{"ID":488674,"DIS_CODE":0,"TOWNNAME":"仁德區","LI":"新田里","LIN":"13鄰","STREET":"民安路","SECT":"一段","MAREA":" ","LANE":" ","ALLEY":" ","HOUSE_NO":"４６３號","E_COORD97":173232.35999999999,"N_COORD97":2539334.0600000001,"ADDRESS":"民安路一段４６３號","OBJECTID":488649},"geometry":{"x":173232.3600000022,"y":2539334.0600000005}},{"attributes":{"ID":488675,"DIS_CODE":0,"TOWNNAME":"仁德區","LI":"新田里","LIN":"13鄰","STREET":"民安路","SECT":"一段","MAREA":" ","LANE":" ","ALLEY":" ","HOUSE_NO":"４５５號","E_COORD97":173213.12,"N_COORD97":2539343.3100000001,"ADDRESS":"民安路一段４５５號","OBJECTID":488650},"geometry":{"x":173213.12000000011,"y":2539343.3100000005}},{"attributes":{"ID":488676,"DIS_CODE":0,"TOWNNAME":"仁德區","LI":"新田里","LIN":"13鄰","STREET":"北保二街","SECT":" ","MAREA":" ","LANE":" ","ALLEY":" ","HOUSE_NO":"２４號","E_COORD97":173230.79999999999,"N_COORD97":2539433.4900000002,"ADDRESS":"北保二街２４號","OBJECTID":488651},"geometry":{"x":173230.80000000075,"y":2539433.4900000002}},{"attributes":{"ID":488677,"DIS_CODE":0,"TOWNNAME":"仁德區","LI":"土庫里","LIN":"13鄰","STREET":"土庫路","SECT":" ","MAREA":" ","LANE":" ","ALLEY":" ","HOUSE_NO":"１８９號","E_COORD97":174327.38,"N_COORD97":2542938.0899999999,"ADDRESS":"土庫路１８９號","OBJECTID":488652},"geometry":{"x":174327.38000000082,"y":2542938.0899999999}},{"attributes":{"ID":488678,"DIS_CODE":0,"TOWNNAME":"仁德區","LI":"新田里","LIN":"13鄰","STREET":"民安路","SECT":"一段","MAREA":" ","LANE":" ","ALLEY":" ","HOUSE_NO":"４５１號","E_COORD97":173202.84,"N_COORD97":2539346.6800000002,"ADDRESS":"民安路一段４５１號","OBJECTID":488653},"geometry":{"x":173202.83999999985,"y":2539346.6799999997}},{"attributes":{"ID":488679,"DIS_CODE":0,"TOWNNAME":"下營區","LI":"新興里","LIN":"13鄰","STREET":"大同街","SECT":" ","MAREA":" ","LANE":" ","ALLEY":" ","HOUSE_NO":"１３號","E_COORD97":174663.20999999999,"N_COORD97":2570669.4399999999,"ADDRESS":"大同街１３號","OBJECTID":488654},"geometry":{"x":174663.20999999996,"y":2570669.4400000013}},{"attributes":{"ID":488680,"DIS_CODE":0,"TOWNNAME":"下營區","LI":"新興里","LIN":"13鄰","STREET":"大同街","SECT":" ","MAREA":" ","LANE":" ","ALLEY":" ","HOUSE_NO":"１５號","E_COORD97":174659.31,"N_COORD97":2570668.21,"ADDRESS":"大同街１５號","OBJECTID":488655},"geometry":{"x":174659.31000000145,"y":2570668.2100000009}},{"attributes":{"ID":488681,"DIS_CODE":0,"TOWNNAME":"下營區","LI":"新興里","LIN":"13鄰","STREET":"大同街","SECT":" ","MAREA":" ","LANE":" ","ALLEY":" ","HOUSE_NO":"１７號","E_COORD97":174655.16,"N_COORD97":2570667.0699999998,"ADDRESS":"大同街１７號","OBJECTID":488656},"geometry":{"x":174655.16000000015,"y":2570667.0700000022}},{"attributes":{"ID":488682,"DIS_CODE":0,"TOWNNAME":"下營區","LI":"新興里","LIN":"13鄰","STREET":"大同街","SECT":" ","MAREA":" ","LANE":" ","ALLEY":" ","HOUSE_NO":"１９號","E_COORD97":174651.09,"N_COORD97":2570665.6800000002,"ADDRESS":"大同街１９號","OBJECTID":488657},"geometry":{"x":174651.09000000078,"y":2570665.6800000016}},{"attributes":{"ID":488683,"DIS_CODE":0,"TOWNNAME":"下營區","LI":"新興里","LIN":"13鄰","STREET":"大同街","SECT":" ","MAREA":" ","LANE":" ","ALLEY":" ","HOUSE_NO":"２３號","E_COORD97":174635.39000000001,"N_COORD97":2570657.4199999999,"ADDRESS":"大同街２３號","OBJECTID":488658},"geometry":{"x":174635.3900000006,"y":2570657.4200000018}},{"attributes":{"ID":488684,"DIS_CODE":0,"TOWNNAME":"下營區","LI":"下營里","LIN":"13鄰","STREET":"大同街","SECT":" ","MAREA":" ","LANE":" ","ALLEY":" ","HOUSE_NO":"４３號","E_COORD97":174583.01000000001,"N_COORD97":2570639.2999999998,"ADDRESS":"大同街４３號","OBJECTID":488659},"geometry":{"x":174583.00999999978,"y":2570639.3000000007}},{"attributes":{"ID":488685,"DIS_CODE":0,"TOWNNAME":"下營區","LI":"下營里","LIN":"13鄰","STREET":"大同街","SECT":" ","MAREA":" ","LANE":" ","ALLEY":" ","HOUSE_NO":"４７號","E_COORD97":174553.38,"N_COORD97":2570637.6099999999,"ADDRESS":"大同街４７號","OBJECTID":488660},"geometry":{"x":174553.37999999989,"y":2570637.6100000031}},{"attributes":{"ID":488686,"DIS_CODE":0,"TOWNNAME":"下營區","LI":"下營里","LIN":"13鄰","STREET":"大同街","SECT":" ","MAREA":" ","LANE":" ","ALLEY":" ","HOUSE_NO":"４９號","E_COORD97":174550.19,"N_COORD97":2570636.7799999998,"ADDRESS":"大同街４９號","OBJECTID":488661},"geometry":{"x":174550.19000000041,"y":2570636.7800000012}},{"attributes":{"ID":488687,"DIS_CODE":0,"TOWNNAME":"下營區","LI":"下營里","LIN":"13鄰","STREET":"大同街","SECT":" ","MAREA":" ","LANE":" ","ALLEY":" ","HOUSE_NO":"５３號","E_COORD97":174540.51000000001,"N_COORD97":2570635.1099999999,"ADDRESS":"大同街５３號","OBJECTID":488662},"geometry":{"x":174540.50999999978,"y":2570635.1100000013}},{"attributes":{"ID":488688,"DIS_CODE":0,"TOWNNAME":"中西區","LI":"赤嵌里","LIN":"13鄰","STREET":"中成路","SECT":" ","MAREA":" ","LANE":" ","ALLEY":" ","HOUSE_NO":"１８之２２號","E_COORD97":168515.32999999999,"N_COORD97":2544121.21,"ADDRESS":"中成路１８之２２號","OBJECTID":488663},"geometry":{"x":168515.33000000101,"y":2544121.2100000009}},{"attributes":{"ID":488689,"DIS_CODE":0,"TOWNNAME":"中西區","LI":"赤嵌里","LIN":"13鄰","STREET":"中成路","SECT":" ","MAREA":" ","LANE":" ","ALLEY":" ","HOUSE_NO":"１８號","E_COORD97":168544.09,"N_COORD97":2544140.6800000002,"ADDRESS":"中成路１８號","OBJECTID":488664},"geometry":{"x":168544.08999999985,"y":2544140.6799999997}},{"attributes":{"ID":488690,"DIS_CODE":0,"TOWNNAME":"中西區","LI":"元安里","LIN":"13鄰","STREET":"海安路","SECT":"一段","MAREA":" ","LANE":" ","ALLEY":" ","HOUSE_NO":"１６０號","E_COORD97":167514.44,"N_COORD97":2543393.2000000002,"ADDRESS":"海安路一段１６０號","OBJECTID":488665},"geometry":{"x":167514.44000000134,"y":2543393.1999999993}},{"attributes":{"ID":488691,"DIS_CODE":0,"TOWNNAME":"中西區","LI":"元安里","LIN":"13鄰","STREET":"海安路","SECT":"一段","MAREA":" ","LANE":" ","ALLEY":" ","HOUSE_NO":"１６２號","E_COORD97":167516.73000000001,"N_COORD97":2543402.2200000002,"ADDRESS":"海安路一段１６２號","OBJECTID":488666},"geometry":{"x":167516.73000000045,"y":2543402.2200000007}},{"attributes":{"ID":488692,"DIS_CODE":0,"TOWNNAME":"新市區","LI":"新和里","LIN":"13鄰","STREET":"忠孝街","SECT":" ","MAREA":" ","LANE":" ","ALLEY":" ","HOUSE_NO":"７９號","E_COORD97":177669.01000000001,"N_COORD97":2552540.5,"ADDRESS":"忠孝街７９號","OBJECTID":488667},"geometry":{"x":177669.01000000071,"y":2552540.5}},{"attributes":{"ID":488693,"DIS_CODE":0,"TOWNNAME":"新市區","LI":"新市里","LIN":"13鄰","STREET":"和平街","SECT":" ","MAREA":" ","LANE":" ","ALLEY":" ","HOUSE_NO":"１２９號","E_COORD97":177498.64999999999,"N_COORD97":2553314.25,"ADDRESS":"和平街１２９號","OBJECTID":488668},"geometry":{"x":177498.65000000037,"y":2553314.25}},{"attributes":{"ID":488694,"DIS_CODE":0,"TOWNNAME":"新市區","LI":"新市里","LIN":"13鄰","STREET":"和平街","SECT":" ","MAREA":" ","LANE":" ","ALLEY":" ","HOUSE_NO":"１２１號","E_COORD97":177511.64999999999,"N_COORD97":2553324.25,"ADDRESS":"和平街１２１號","OBJECTID":488669},"geometry":{"x":177511.65000000037,"y":2553324.25}},{"attributes":{"ID":488695,"DIS_CODE":0,"TOWNNAME":"安南區","LI":"新順里","LIN":"13鄰","STREET":"開安一街","SECT":" ","MAREA":" ","LANE":" ","ALLEY":" ","HOUSE_NO":"２８號","E_COORD97":170583.17000000001,"N_COORD97":2549616.9900000002,"ADDRESS":"開安一街２８號","OBJECTID":488670},"geometry":{"x":170583.16999999993,"y":2549616.9900000002}},{"attributes":{"ID":488696,"DIS_CODE":0,"TOWNNAME":"安南區","LI":"新順里","LIN":"13鄰","STREET":"開安路","SECT":" ","MAREA":" ","LANE":" ","ALLEY":" ","HOUSE_NO":"８號","E_COORD97":170270.12,"N_COORD97":2549463.02,"ADDRESS":"開安路８號","OBJECTID":488671},"geometry":{"x":170270.12000000011,"y":2549463.0200000014}},{"attributes":{"ID":488697,"DIS_CODE":0,"TOWNNAME":"安南區","LI":"新順里","LIN":"13鄰","STREET":"永安路","SECT":" ","MAREA":" ","LANE":" ","ALLEY":" ","HOUSE_NO":"２３號","E_COORD97":170110.20000000001,"N_COORD97":2549521.96,"ADDRESS":"永安路２３號","OBJECTID":488672},"geometry":{"x":170110.20000000019,"y":2549521.9600000028}},{"attributes":{"ID":488698,"DIS_CODE":0,"TOWNNAME":"安南區","LI":"新順里","LIN":"13鄰","STREET":"開安一街","SECT":" ","MAREA":" ","LANE":" ","ALLEY":" ","HOUSE_NO":"１７號","E_COORD97":170527.20999999999,"N_COORD97":2549673.6099999999,"ADDRESS":"開安一街１７號","OBJECTID":488673},"geometry":{"x":170527.20999999996,"y":2549673.6099999994}},{"attributes":{"ID":488699,"DIS_CODE":0,"TOWNNAME":"佳里區","LI":"東寧里","LIN":"13鄰","STREET":"文化路","SECT":" ","MAREA":" ","LANE":" ","ALLEY":" ","HOUSE_NO":"１３７號之１","E_COORD97":165942.60999999999,"N_COORD97":2562561.6800000002,"ADDRESS":"文化路１３７號之１","OBJECTID":488674},"geometry":{"x":165942.61000000034,"y":2562561.6800000016}},{"attributes":{"ID":488700,"DIS_CODE":0,"TOWNNAME":"永康區","LI":"崑山里","LIN":"13鄰","STREET":"大灣路","SECT":" ","MAREA":" ","LANE":" ","ALLEY":" ","HOUSE_NO":"９７８號","E_COORD97":173529.66,"N_COORD97":2544407.3199999998,"ADDRESS":"大灣路９７８號","OBJECTID":488675},"geometry":{"x":173529.66000000015,"y":2544407.3200000003}},{"attributes":{"ID":488701,"DIS_CODE":0,"TOWNNAME":"永康區","LI":"東灣里","LIN":"13鄰","STREET":"大灣路","SECT":" ","MAREA":" ","LANE":" ","ALLEY":" ","HOUSE_NO":"３４５號","E_COORD97":174774.17000000001,"N_COORD97":2544930.8599999999,"ADDRESS":"大灣路３４５號","OBJECTID":488676},"geometry":{"x":174774.17000000179,"y":2544930.8600000013}},{"attributes":{"ID":488702,"DIS_CODE":0,"TOWNNAME":"永康區","LI":"東灣里","LIN":"13鄰","STREET":"大灣路","SECT":" ","MAREA":" ","LANE":" ","ALLEY":" ","HOUSE_NO":"３６５號","E_COORD97":174756.84,"N_COORD97":2544895.9100000001,"ADDRESS":"大灣路３６５號","OBJECTID":488677},"geometry":{"x":174756.83999999985,"y":2544895.9100000001}},{"attributes":{"ID":488703,"DIS_CODE":0,"TOWNNAME":"永康區","LI":"東灣里","LIN":"13鄰","STREET":"大灣路","SECT":" ","MAREA":" ","LANE":" ","ALLEY":" ","HOUSE_NO":"３７３號","E_COORD97":174754.57999999999,"N_COORD97":2544884.75,"ADDRESS":"大灣路３７３號","OBJECTID":488678},"geometry":{"x":174754.58000000194,"y":2544884.7500000019}},{"attributes":{"ID":488704,"DIS_CODE":0,"TOWNNAME":"永康區","LI":"南灣里","LIN":"13鄰","STREET":"大灣路","SECT":" ","MAREA":" ","LANE":" ","ALLEY":" ","HOUSE_NO":"５７６號","E_COORD97":174622.98000000001,"N_COORD97":2544693.8900000001,"ADDRESS":"大灣路５７６號","OBJECTID":488679},"geometry":{"x":174622.98000000045,"y":2544693.8900000025}},{"attributes":{"ID":488705,"DIS_CODE":0,"TOWNNAME":"佳里區","LI":"安西里","LIN":"13鄰","STREET":"光復路","SECT":" ","MAREA":" ","LANE":" ","ALLEY":" ","HOUSE_NO":"２６１號","E_COORD97":165484.51000000001,"N_COORD97":2562418.73,"ADDRESS":"光復路２６１號","OBJECTID":488680},"geometry":{"x":165484.51000000071,"y":2562418.7300000004}},{"attributes":{"ID":488706,"DIS_CODE":0,"TOWNNAME":"佳里區","LI":"安西里","LIN":"13鄰","STREET":"光復路","SECT":" ","MAREA":" ","LANE":" ","ALLEY":" ","HOUSE_NO":"２６３號","E_COORD97":165484.72,"N_COORD97":2562422.6600000001,"ADDRESS":"光復路２６３號","OBJECTID":488681},"geometry":{"x":165484.72000000067,"y":2562422.6599999983}},{"attributes":{"ID":488707,"DIS_CODE":0,"TOWNNAME":"佳里區","LI":"安西里","LIN":"13鄰","STREET":"光復路","SECT":" ","MAREA":" ","LANE":" ","ALLEY":" ","HOUSE_NO":"２６５號","E_COORD97":165484.85000000001,"N_COORD97":2562426.6899999999,"ADDRESS":"光復路２６５號","OBJECTID":488682},"geometry":{"x":165484.85000000056,"y":2562426.6900000013}},{"attributes":{"ID":488708,"DIS_CODE":0,"TOWNNAME":"佳里區","LI":"安西里","LIN":"13鄰","STREET":"光復路","SECT":" ","MAREA":" ","LANE":" ","ALLEY":" ","HOUSE_NO":"２６７號","E_COORD97":165484.79000000001,"N_COORD97":2562430.71,"ADDRESS":"光復路２６７號","OBJECTID":488683},"geometry":{"x":165484.79000000004,"y":2562430.7100000028}},{"attributes":{"ID":488709,"DIS_CODE":0,"TOWNNAME":"佳里區","LI":"安西里","LIN":"13鄰","STREET":"光復路","SECT":" ","MAREA":" ","LANE":" ","ALLEY":" ","HOUSE_NO":"２６９號","E_COORD97":165484.84,"N_COORD97":2562434.8500000001,"ADDRESS":"光復路２６９號","OBJECTID":488684},"geometry":{"x":165484.83999999892,"y":2562434.8500000034}},{"attributes":{"ID":488710,"DIS_CODE":0,"TOWNNAME":"佳里區","LI":"安西里","LIN":"13鄰","STREET":"光復路","SECT":" ","MAREA":" ","LANE":" ","ALLEY":" ","HOUSE_NO":"２７１號","E_COORD97":165482.63,"N_COORD97":2562439.3900000001,"ADDRESS":"光復路２７１號","OBJECTID":488685},"geometry":{"x":165482.62999999989,"y":2562439.3900000025}},{"attributes":{"ID":488711,"DIS_CODE":0,"TOWNNAME":"佳里區","LI":"安西里","LIN":"13鄰","STREET":"光復路","SECT":" ","MAREA":" ","LANE":" ","ALLEY":" ","HOUSE_NO":"２７３號","E_COORD97":165482.5,"N_COORD97":2562443.6499999999,"ADDRESS":"光復路２７３號","OBJECTID":488686},"geometry":{"x":165482.50000000093,"y":2562443.6500000041}},{"attributes":{"ID":488712,"DIS_CODE":0,"TOWNNAME":"佳里區","LI":"安西里","LIN":"13鄰","STREET":"光復路","SECT":" ","MAREA":" ","LANE":" ","ALLEY":" ","HOUSE_NO":"２７５號","E_COORD97":165482.79000000001,"N_COORD97":2562447.75,"ADDRESS":"光復路２７５號","OBJECTID":488687},"geometry":{"x":165482.79000000097,"y":2562447.75}},{"attributes":{"ID":488713,"DIS_CODE":0,"TOWNNAME":"佳里區","LI":"安西里","LIN":"13鄰","STREET":"光復路","SECT":" ","MAREA":" ","LANE":" ","ALLEY":" ","HOUSE_NO":"２７７號","E_COORD97":165484.67000000001,"N_COORD97":2562454.3900000001,"ADDRESS":"光復路２７７號","OBJECTID":488688},"geometry":{"x":165484.67000000086,"y":2562454.3900000006}},{"attributes":{"ID":488714,"DIS_CODE":0,"TOWNNAME":"佳里區","LI":"安西里","LIN":"13鄰","STREET":"光復路","SECT":" ","MAREA":" ","LANE":" ","ALLEY":" ","HOUSE_NO":"２７９號","E_COORD97":165484.89999999999,"N_COORD97":2562460.73,"ADDRESS":"光復路２７９號","OBJECTID":488689},"geometry":{"x":165484.90000000037,"y":2562460.7300000023}},{"attributes":{"ID":488715,"DIS_CODE":0,"TOWNNAME":"佳里區","LI":"安西里","LIN":"13鄰","STREET":"光復路","SECT":" ","MAREA":" ","LANE":" ","ALLEY":" ","HOUSE_NO":"２８１號","E_COORD97":165484.98000000001,"N_COORD97":2562465.02,"ADDRESS":"光復路２８１號","OBJECTID":488690},"geometry":{"x":165484.98000000138,"y":2562465.0200000014}},{"attributes":{"ID":488716,"DIS_CODE":0,"TOWNNAME":"佳里區","LI":"安西里","LIN":"13鄰","STREET":"光復路","SECT":" ","MAREA":" ","LANE":" ","ALLEY":" ","HOUSE_NO":"２８３號","E_COORD97":165483.82000000001,"N_COORD97":2562470.4700000002,"ADDRESS":"光復路２８３號","OBJECTID":488691},"geometry":{"x":165483.81999999937,"y":2562470.4700000025}},{"attributes":{"ID":488717,"DIS_CODE":0,"TOWNNAME":"新營區","LI":"三仙里","LIN":"20鄰","STREET":"三民路","SECT":" ","MAREA":" ","LANE":" ","ALLEY":" ","HOUSE_NO":"１４２號之２","E_COORD97":179527.95000000001,"N_COORD97":2578403.3599999999,"ADDRESS":"三民路１４２號之２","OBJECTID":488692},"geometry":{"x":179527.95000000112,"y":2578403.3600000013}},{"attributes":{"ID":488718,"DIS_CODE":0,"TOWNNAME":"新營區","LI":"新東里","LIN":"19鄰","STREET":"東學路","SECT":" ","MAREA":" ","LANE":" ","ALLEY":" ","HOUSE_NO":"９６號","E_COORD97":180926.09,"N_COORD97":2579359.0899999999,"ADDRESS":"東學路９６號","OBJECTID":488693},"geometry":{"x":180926.08999999985,"y":2579359.0900000017}},{"attributes":{"ID":488719,"DIS_CODE":0,"TOWNNAME":"安南區","LI":"溪心里","LIN":"13鄰","STREET":"樂安一街","SECT":" ","MAREA":" ","LANE":" ","ALLEY":" ","HOUSE_NO":"８９號","E_COORD97":165958.23999999999,"N_COORD97":2549749.8100000001,"ADDRESS":"樂安一街８９號","OBJECTID":488694},"geometry":{"x":165958.24000000022,"y":2549749.8100000024}},{"attributes":{"ID":488720,"DIS_CODE":0,"TOWNNAME":"安南區","LI":"溪心里","LIN":"13鄰","STREET":"樂安一街","SECT":" ","MAREA":" ","LANE":" ","ALLEY":" ","HOUSE_NO":"９１號","E_COORD97":165953.95000000001,"N_COORD97":2549749.9100000001,"ADDRESS":"樂安一街９１號","OBJECTID":488695},"geometry":{"x":165953.95000000019,"y":2549749.9100000001}},{"attributes":{"ID":488721,"DIS_CODE":0,"TOWNNAME":"安南區","LI":"溪心里","LIN":"13鄰","STREET":"樂安一街","SECT":" ","MAREA":" ","LANE":" ","ALLEY":" ","HOUSE_NO":"９３號","E_COORD97":165950.35999999999,"N_COORD97":2549750.0099999998,"ADDRESS":"樂安一街９３號","OBJECTID":488696},"geometry":{"x":165950.36000000127,"y":2549750.0099999998}},{"attributes":{"ID":488722,"DIS_CODE":0,"TOWNNAME":"安南區","LI":"溪心里","LIN":"13鄰","STREET":"樂安一街","SECT":" ","MAREA":" ","LANE":" ","ALLEY":" ","HOUSE_NO":"９５號","E_COORD97":165945.07000000001,"N_COORD97":2549751,"ADDRESS":"樂安一街９５號","OBJECTID":488697},"geometry":{"x":165945.07000000216,"y":2549751.0000000019}},{"attributes":{"ID":488723,"DIS_CODE":0,"TOWNNAME":"安南區","LI":"州南里","LIN":"13鄰","STREET":"安和路","SECT":"五段","MAREA":" ","LANE":" ","ALLEY":" ","HOUSE_NO":"２４號","E_COORD97":169955.59,"N_COORD97":2551559.8700000001,"ADDRESS":"安和路五段２４號","OBJECTID":488698},"geometry":{"x":169955.59000000078,"y":2551559.8700000048}},{"attributes":{"ID":488724,"DIS_CODE":0,"TOWNNAME":"中西區","LI":"中正里","LIN":"13鄰","STREET":"正德街","SECT":" ","MAREA":" ","LANE":" ","ALLEY":" ","HOUSE_NO":"３１號","E_COORD97":167519.07000000001,"N_COORD97":2543880.3599999999,"ADDRESS":"正德街３１號","OBJECTID":488699},"geometry":{"x":167519.0700000003,"y":2543880.3600000013}},{"attributes":{"ID":488725,"DIS_CODE":0,"TOWNNAME":"中西區","LI":"中正里","LIN":"13鄰","STREET":"正德街","SECT":" ","MAREA":" ","LANE":" ","ALLEY":" ","HOUSE_NO":"３３號","E_COORD97":167520.67000000001,"N_COORD97":2543887.4300000002,"ADDRESS":"正德街３３號","OBJECTID":488700},"geometry":{"x":167520.67000000086,"y":2543887.4299999997}},{"attributes":{"ID":488726,"DIS_CODE":0,"TOWNNAME":"中西區","LI":"中正里","LIN":"13鄰","STREET":"正德街","SECT":" ","MAREA":" ","LANE":" ","ALLEY":" ","HOUSE_NO":"３５號","E_COORD97":167521.70999999999,"N_COORD97":2543894.7999999998,"ADDRESS":"正德街３５號","OBJECTID":488701},"geometry":{"x":167521.70999999996,"y":2543894.8000000026}},{"attributes":{"ID":488727,"DIS_CODE":0,"TOWNNAME":"中西區","LI":"中正里","LIN":"13鄰","STREET":"康樂街","SECT":" ","MAREA":" ","LANE":" ","ALLEY":" ","HOUSE_NO":"１３４號","E_COORD97":167468.73999999999,"N_COORD97":2543889.3300000001,"ADDRESS":"康樂街１３４號","OBJECTID":488702},"geometry":{"x":167468.74000000022,"y":2543889.3300000001}},{"attributes":{"ID":488728,"DIS_CODE":0,"TOWNNAME":"中西區","LI":"中正里","LIN":"13鄰","STREET":"康樂街","SECT":" ","MAREA":" ","LANE":" ","ALLEY":" ","HOUSE_NO":"１３６號","E_COORD97":167469.20999999999,"N_COORD97":2543892.2799999998,"ADDRESS":"康樂街１３６號","OBJECTID":488703},"geometry":{"x":167469.20999999996,"y":2543892.2799999993}},{"attributes":{"ID":488729,"DIS_CODE":0,"TOWNNAME":"中西區","LI":"中正里","LIN":"13鄰","STREET":"康樂街","SECT":" ","MAREA":" ","LANE":" ","ALLEY":" ","HOUSE_NO":"１３８號","E_COORD97":167469.67000000001,"N_COORD97":2543896.7000000002,"ADDRESS":"康樂街１３８號","OBJECTID":488704},"geometry":{"x":167469.67000000179,"y":2543896.700000003}},{"attributes":{"ID":488730,"DIS_CODE":0,"TOWNNAME":"中西區","LI":"中正里","LIN":"13鄰","STREET":"康樂街","SECT":" ","MAREA":" ","LANE":" ","ALLEY":" ","HOUSE_NO":"１４０號","E_COORD97":167471.51000000001,"N_COORD97":2543902.23,"ADDRESS":"康樂街１４０號","OBJECTID":488705},"geometry":{"x":167471.50999999978,"y":2543902.2300000023}},{"attributes":{"ID":488731,"DIS_CODE":0,"TOWNNAME":"中西區","LI":"中正里","LIN":"13鄰","STREET":"正德街","SECT":" ","MAREA":" ","LANE":" ","ALLEY":" ","HOUSE_NO":"２５號","E_COORD97":167514.04999999999,"N_COORD97":2543863.25,"ADDRESS":"正德街２５號","OBJECTID":488706},"geometry":{"x":167514.04999999981,"y":2543863.2500000037}},{"attributes":{"ID":488732,"DIS_CODE":0,"TOWNNAME":"中西區","LI":"中正里","LIN":"13鄰","STREET":"康樂街","SECT":" ","MAREA":" ","LANE":" ","ALLEY":" ","HOUSE_NO":"１２８號","E_COORD97":167465.42000000001,"N_COORD97":2543874.8100000001,"ADDRESS":"康樂街１２８號","OBJECTID":488707},"geometry":{"x":167465.41999999993,"y":2543874.8100000024}},{"attributes":{"ID":488733,"DIS_CODE":0,"TOWNNAME":"中西區","LI":"中正里","LIN":"13鄰","STREET":"康樂街","SECT":" ","MAREA":" ","LANE":" ","ALLEY":" ","HOUSE_NO":"１３０號","E_COORD97":167466.16,"N_COORD97":2543878.96,"ADDRESS":"康樂街１３０號","OBJECTID":488708},"geometry":{"x":167466.16000000015,"y":2543878.9600000009}},{"attributes":{"ID":488734,"DIS_CODE":0,"TOWNNAME":"中西區","LI":"中正里","LIN":"13鄰","STREET":"康樂街","SECT":" ","MAREA":" ","LANE":" ","ALLEY":" ","HOUSE_NO":"１３２號","E_COORD97":167467.17999999999,"N_COORD97":2543882.6400000001,"ADDRESS":"康樂街１３２號","OBJECTID":488709},"geometry":{"x":167467.1799999997,"y":2543882.6400000025}},{"attributes":{"ID":488735,"DIS_CODE":0,"TOWNNAME":"中西區","LI":"中正里","LIN":"13鄰","STREET":"正德街","SECT":" ","MAREA":" ","LANE":" ","ALLEY":" ","HOUSE_NO":"１７號","E_COORD97":167513.57000000001,"N_COORD97":2543854.8999999999,"ADDRESS":"正德街１７號","OBJECTID":488710},"geometry":{"x":167513.57000000123,"y":2543854.9000000004}},{"attributes":{"ID":488736,"DIS_CODE":0,"TOWNNAME":"中西區","LI":"中正里","LIN":"13鄰","STREET":"正德街","SECT":" ","MAREA":" ","LANE":" ","ALLEY":" ","HOUSE_NO":"１９號","E_COORD97":167514.13,"N_COORD97":2543857.1299999999,"ADDRESS":"正德街１９號","OBJECTID":488711},"geometry":{"x":167514.13000000082,"y":2543857.1300000008}},{"attributes":{"ID":488737,"DIS_CODE":0,"TOWNNAME":"中西區","LI":"中正里","LIN":"13鄰","STREET":"正德街","SECT":" ","MAREA":" ","LANE":" ","ALLEY":" ","HOUSE_NO":"２１號","E_COORD97":167513.92000000001,"N_COORD97":2543858.9399999999,"ADDRESS":"正德街２１號","OBJECTID":488712},"geometry":{"x":167513.92000000086,"y":2543858.9400000013}},{"attributes":{"ID":488738,"DIS_CODE":0,"TOWNNAME":"中西區","LI":"民主里","LIN":"13鄰","STREET":"中正路","SECT":" ","MAREA":" ","LANE":" ","ALLEY":" ","HOUSE_NO":"３４３號","E_COORD97":167378.16,"N_COORD97":2543798.6000000001,"ADDRESS":"中正路３４３號","OBJECTID":488713},"geometry":{"x":167378.16000000015,"y":2543798.5999999996}},{"attributes":{"ID":488739,"DIS_CODE":0,"TOWNNAME":"中西區","LI":"民主里","LIN":"13鄰","STREET":"中正路","SECT":" ","MAREA":" ","LANE":" ","ALLEY":" ","HOUSE_NO":"３４３號之１","E_COORD97":167376.41,"N_COORD97":2543796.1200000001,"ADDRESS":"中正路３４３號之１","OBJECTID":488714},"geometry":{"x":167376.41000000015,"y":2543796.120000001}},{"attributes":{"ID":488740,"DIS_CODE":0,"TOWNNAME":"中西區","LI":"民主里","LIN":"13鄰","STREET":"中正路","SECT":" ","MAREA":" ","LANE":" ","ALLEY":" ","HOUSE_NO":"３４３號之１０","E_COORD97":167334.89999999999,"N_COORD97":2543804.2200000002,"ADDRESS":"中正路３４３號之１０","OBJECTID":488715},"geometry":{"x":167334.9000000013,"y":2543804.2200000025}},{"attributes":{"ID":488741,"DIS_CODE":0,"TOWNNAME":"中西區","LI":"民主里","LIN":"13鄰","STREET":"中正路","SECT":" ","MAREA":" ","LANE":" ","ALLEY":" ","HOUSE_NO":"３４３號之１１","E_COORD97":167330.48000000001,"N_COORD97":2543805.0800000001,"ADDRESS":"中正路３４３號之１１","OBJECTID":488716},"geometry":{"x":167330.48000000045,"y":2543805.0800000019}},{"attributes":{"ID":488742,"DIS_CODE":0,"TOWNNAME":"中西區","LI":"民主里","LIN":"13鄰","STREET":"中正路","SECT":" ","MAREA":" ","LANE":" ","ALLEY":" ","HOUSE_NO":"３４３號之１２","E_COORD97":167325.32999999999,"N_COORD97":2543806.3100000001,"ADDRESS":"中正路３４３號之１２","OBJECTID":488717},"geometry":{"x":167325.33000000101,"y":2543806.3100000024}},{"attributes":{"ID":488743,"DIS_CODE":0,"TOWNNAME":"中西區","LI":"民主里","LIN":"13鄰","STREET":"中正路","SECT":" ","MAREA":" ","LANE":" ","ALLEY":" ","HOUSE_NO":"３４３號之１３","E_COORD97":167321.51999999999,"N_COORD97":2543807.04,"ADDRESS":"中正路３４３號之１３","OBJECTID":488718},"geometry":{"x":167321.52000000048,"y":2543807.040000001}},{"attributes":{"ID":488744,"DIS_CODE":0,"TOWNNAME":"中西區","LI":"民主里","LIN":"13鄰","STREET":"中正路","SECT":" ","MAREA":" ","LANE":" ","ALLEY":" ","HOUSE_NO":"３４３號之２","E_COORD97":167372.60000000001,"N_COORD97":2543797.1000000001,"ADDRESS":"中正路３４３號之２","OBJECTID":488719},"geometry":{"x":167372.59999999963,"y":2543797.1000000015}},{"attributes":{"ID":488745,"DIS_CODE":0,"TOWNNAME":"中西區","LI":"民主里","LIN":"13鄰","STREET":"中正路","SECT":" ","MAREA":" ","LANE":" ","ALLEY":" ","HOUSE_NO":"３４３號之３","E_COORD97":167368.17999999999,"N_COORD97":2543797.7200000002,"ADDRESS":"中正路３４３號之３","OBJECTID":488720},"geometry":{"x":167368.18000000063,"y":2543797.7200000025}},{"attributes":{"ID":488746,"DIS_CODE":0,"TOWNNAME":"中西區","LI":"民主里","LIN":"13鄰","STREET":"中正路","SECT":" ","MAREA":" ","LANE":" ","ALLEY":" ","HOUSE_NO":"３４３號之４","E_COORD97":167363.88,"N_COORD97":2543798.5800000001,"ADDRESS":"中正路３４３號之４","OBJECTID":488721},"geometry":{"x":167363.87999999989,"y":2543798.5800000001}},{"attributes":{"ID":488747,"DIS_CODE":0,"TOWNNAME":"中西區","LI":"民主里","LIN":"13鄰","STREET":"中正路","SECT":" ","MAREA":" ","LANE":" ","ALLEY":" ","HOUSE_NO":"３４３號之５","E_COORD97":167359.22,"N_COORD97":2543799.3100000001,"ADDRESS":"中正路３４３號之５","OBJECTID":488722},"geometry":{"x":167359.22000000067,"y":2543799.3100000024}},{"attributes":{"ID":488748,"DIS_CODE":0,"TOWNNAME":"中西區","LI":"民主里","LIN":"13鄰","STREET":"中正路","SECT":" ","MAREA":" ","LANE":" ","ALLEY":" ","HOUSE_NO":"３４３號之７","E_COORD97":167348.89999999999,"N_COORD97":2543801.52,"ADDRESS":"中正路３４３號之７","OBJECTID":488723},"geometry":{"x":167348.9000000013,"y":2543801.5200000014}},{"attributes":{"ID":488749,"DIS_CODE":0,"TOWNNAME":"中西區","LI":"民主里","LIN":"13鄰","STREET":"中正路","SECT":" ","MAREA":" ","LANE":" ","ALLEY":" ","HOUSE_NO":"３４３號之８","E_COORD97":167344.10999999999,"N_COORD97":2543802.3799999999,"ADDRESS":"中正路３４３號之８","OBJECTID":488724},"geometry":{"x":167344.11000000127,"y":2543802.379999999}},{"attributes":{"ID":488750,"DIS_CODE":0,"TOWNNAME":"中西區","LI":"民主里","LIN":"13鄰","STREET":"中正路","SECT":" ","MAREA":" ","LANE":" ","ALLEY":" ","HOUSE_NO":"３４３號之９","E_COORD97":167339.57000000001,"N_COORD97":2543803.2400000002,"ADDRESS":"中正路３４３號之９","OBJECTID":488725},"geometry":{"x":167339.5700000003,"y":2543803.2400000021}},{"attributes":{"ID":488751,"DIS_CODE":0,"TOWNNAME":"中西區","LI":"民主里","LIN":"13鄰","STREET":"中正路","SECT":" ","MAREA":" ","LANE":" ","ALLEY":" ","HOUSE_NO":"３５２號","E_COORD97":167383.29999999999,"N_COORD97":2543819.9300000002,"ADDRESS":"中正路３５２號","OBJECTID":488726},"geometry":{"x":167383.29999999981,"y":2543819.9299999997}},{"attributes":{"ID":488752,"DIS_CODE":0,"TOWNNAME":"中西區","LI":"民主里","LIN":"13鄰","STREET":"中正路","SECT":" ","MAREA":" ","LANE":" ","ALLEY":" ","HOUSE_NO":"３５２號之１","E_COORD97":167383.91,"N_COORD97":2543824.8799999999,"ADDRESS":"中正路３５２號之１","OBJECTID":488727},"geometry":{"x":167383.91000000108,"y":2543824.8800000008}},{"attributes":{"ID":488753,"DIS_CODE":0,"TOWNNAME":"中西區","LI":"民主里","LIN":"13鄰","STREET":"中正路","SECT":" ","MAREA":" ","LANE":" ","ALLEY":" ","HOUSE_NO":"３５２號之１０","E_COORD97":167344,"N_COORD97":2543832.3599999999,"ADDRESS":"中正路３５２號之１０","OBJECTID":488728},"geometry":{"x":167344.00000000093,"y":2543832.3600000013}},{"attributes":{"ID":488754,"DIS_CODE":0,"TOWNNAME":"中西區","LI":"民主里","LIN":"13鄰","STREET":"中正路","SECT":" ","MAREA":" ","LANE":" ","ALLEY":" ","HOUSE_NO":"３５２號之１１","E_COORD97":167339.22,"N_COORD97":2543833.5899999999,"ADDRESS":"中正路３５２號之１１","OBJECTID":488729},"geometry":{"x":167339.22000000067,"y":2543833.5900000036}},{"attributes":{"ID":488755,"DIS_CODE":0,"TOWNNAME":"新營區","LI":"大宏里","LIN":"20鄰","STREET":"民族路","SECT":" ","MAREA":" ","LANE":" ","ALLEY":" ","HOUSE_NO":"１０之５號","E_COORD97":180335.20999999999,"N_COORD97":2578451.5899999999,"ADDRESS":"民族路１０之５號","OBJECTID":488730},"geometry":{"x":180335.20999999996,"y":2578451.5899999999}},{"attributes":{"ID":488756,"DIS_CODE":0,"TOWNNAME":"新營區","LI":"新南里","LIN":"20鄰","STREET":"民治路","SECT":" ","MAREA":" ","LANE":" ","ALLEY":" ","HOUSE_NO":"３８０號","E_COORD97":178697.51999999999,"N_COORD97":2578247.8100000001,"ADDRESS":"民治路３８０號","OBJECTID":488731},"geometry":{"x":178697.52000000142,"y":2578247.8100000005}},{"attributes":{"ID":488757,"DIS_CODE":0,"TOWNNAME":"中西區","LI":"民主里","LIN":"13鄰","STREET":"中正路","SECT":" ","MAREA":" ","LANE":" ","ALLEY":" ","HOUSE_NO":"３５２號之１２","E_COORD97":167335.04000000001,"N_COORD97":2543834.8199999998,"ADDRESS":"中正路３５２號之１２","OBJECTID":488732},"geometry":{"x":167335.0400000019,"y":2543834.8200000003}},{"attributes":{"ID":488758,"DIS_CODE":0,"TOWNNAME":"中西區","LI":"民主里","LIN":"13鄰","STREET":"中正路","SECT":" ","MAREA":" ","LANE":" ","ALLEY":" ","HOUSE_NO":"３５２號之１３","E_COORD97":167330.38,"N_COORD97":2543835.6800000002,"ADDRESS":"中正路３５２號之１３","OBJECTID":488733},"geometry":{"x":167330.37999999989,"y":2543835.6799999997}},{"attributes":{"ID":488759,"DIS_CODE":0,"TOWNNAME":"中西區","LI":"民主里","LIN":"13鄰","STREET":"中正路","SECT":" ","MAREA":" ","LANE":" ","ALLEY":" ","HOUSE_NO":"３５２號之２","E_COORD97":167379.37,"N_COORD97":2543824.8799999999,"ADDRESS":"中正路３５２號之２","OBJECTID":488734},"geometry":{"x":167379.37000000104,"y":2543824.8800000008}},{"attributes":{"ID":488760,"DIS_CODE":0,"TOWNNAME":"中西區","LI":"民主里","LIN":"13鄰","STREET":"中正路","SECT":" ","MAREA":" ","LANE":" ","ALLEY":" ","HOUSE_NO":"３５２號之４","E_COORD97":167373.97,"N_COORD97":2543825.7400000002,"ADDRESS":"中正路３５２號之４","OBJECTID":488735},"geometry":{"x":167373.96999999974,"y":2543825.7400000002}},{"attributes":{"ID":488761,"DIS_CODE":0,"TOWNNAME":"中西區","LI":"民主里","LIN":"13鄰","STREET":"中正路","SECT":" ","MAREA":" ","LANE":" ","ALLEY":" ","HOUSE_NO":"３５２號之５","E_COORD97":167368.92999999999,"N_COORD97":2543827.21,"ADDRESS":"中正路３５２號之５","OBJECTID":488736},"geometry":{"x":167368.9299999997,"y":2543827.2100000046}},{"attributes":{"ID":488762,"DIS_CODE":0,"TOWNNAME":"中西區","LI":"民主里","LIN":"13鄰","STREET":"友愛街","SECT":" ","MAREA":" ","LANE":" ","ALLEY":" ","HOUSE_NO":"３１６號","E_COORD97":167354.23000000001,"N_COORD97":2543708.3300000001,"ADDRESS":"友愛街３１６號","OBJECTID":488737},"geometry":{"x":167354.23000000045,"y":2543708.3300000019}},{"attributes":{"ID":488763,"DIS_CODE":0,"TOWNNAME":"中西區","LI":"民主里","LIN":"13鄰","STREET":"友愛街","SECT":" ","MAREA":" ","LANE":" ","ALLEY":" ","HOUSE_NO":"３１８號","E_COORD97":167347.54000000001,"N_COORD97":2543709.73,"ADDRESS":"友愛街３１８號","OBJECTID":488738},"geometry":{"x":167347.54000000097,"y":2543709.7300000004}},{"attributes":{"ID":488764,"DIS_CODE":0,"TOWNNAME":"中西區","LI":"民主里","LIN":"13鄰","STREET":"友愛街","SECT":" ","MAREA":" ","LANE":" ","ALLEY":" ","HOUSE_NO":"３２０號","E_COORD97":167341.32000000001,"N_COORD97":2543710.79,"ADDRESS":"友愛街３２０號","OBJECTID":488739},"geometry":{"x":167341.3200000003,"y":2543710.790000001}},{"attributes":{"ID":488765,"DIS_CODE":0,"TOWNNAME":"中西區","LI":"民主里","LIN":"13鄰","STREET":"友愛街","SECT":" ","MAREA":" ","LANE":" ","ALLEY":" ","HOUSE_NO":"３２２號","E_COORD97":167338.04000000001,"N_COORD97":2543712.1899999999,"ADDRESS":"友愛街３２２號","OBJECTID":488740},"geometry":{"x":167338.04000000004,"y":2543712.1899999995}},{"attributes":{"ID":488766,"DIS_CODE":0,"TOWNNAME":"中西區","LI":"民主里","LIN":"13鄰","STREET":"友愛街","SECT":" ","MAREA":" ","LANE":" ","ALLEY":" ","HOUSE_NO":"３２８號","E_COORD97":167323.23999999999,"N_COORD97":2543723,"ADDRESS":"友愛街３２８號","OBJECTID":488741},"geometry":{"x":167323.24000000022,"y":2543723.0000000019}},{"attributes":{"ID":488767,"DIS_CODE":0,"TOWNNAME":"中西區","LI":"民主里","LIN":"13鄰","STREET":"友愛街","SECT":" ","MAREA":" ","LANE":" ","ALLEY":" ","HOUSE_NO":"３３０號","E_COORD97":167308.26000000001,"N_COORD97":2543715.3900000001,"ADDRESS":"友愛街３３０號","OBJECTID":488742},"geometry":{"x":167308.26000000071,"y":2543715.3900000025}},{"attributes":{"ID":488768,"DIS_CODE":0,"TOWNNAME":"中西區","LI":"民主里","LIN":"13鄰","STREET":"友愛街","SECT":" ","MAREA":" ","LANE":" ","ALLEY":" ","HOUSE_NO":"３３２號","E_COORD97":167303.34,"N_COORD97":2543716.73,"ADDRESS":"友愛街３３２號","OBJECTID":488743},"geometry":{"x":167303.33999999985,"y":2543716.7300000004}},{"attributes":{"ID":488769,"DIS_CODE":0,"TOWNNAME":"中西區","LI":"民主里","LIN":"13鄰","STREET":"友愛街","SECT":" ","MAREA":" ","LANE":" ","ALLEY":" ","HOUSE_NO":"３３４號","E_COORD97":167295.85000000001,"N_COORD97":2543719.0699999998,"ADDRESS":"友愛街３３４號","OBJECTID":488744},"geometry":{"x":167295.85000000056,"y":2543719.070000004}},{"attributes":{"ID":488770,"DIS_CODE":0,"TOWNNAME":"中西區","LI":"民主里","LIN":"13鄰","STREET":"金華路","SECT":"三段","MAREA":" ","LANE":" ","ALLEY":" ","HOUSE_NO":"１６２號","E_COORD97":167298.17999999999,"N_COORD97":2543724.6400000001,"ADDRESS":"金華路三段１６２號","OBJECTID":488745},"geometry":{"x":167298.18000000156,"y":2543724.6400000006}},{"attributes":{"ID":488771,"DIS_CODE":0,"TOWNNAME":"中西區","LI":"民主里","LIN":"13鄰","STREET":"金華路","SECT":"三段","MAREA":" ","LANE":" ","ALLEY":" ","HOUSE_NO":"１６４號","E_COORD97":167304.34,"N_COORD97":2543737.0899999999,"ADDRESS":"金華路三段１６４號","OBJECTID":488746},"geometry":{"x":167304.34000000078,"y":2543737.0899999999}},{"attributes":{"ID":488772,"DIS_CODE":0,"TOWNNAME":"中西區","LI":"民主里","LIN":"13鄰","STREET":"金華路","SECT":"三段","MAREA":" ","LANE":" ","ALLEY":" ","HOUSE_NO":"１７６號","E_COORD97":167315.42999999999,"N_COORD97":2543780.2599999998,"ADDRESS":"金華路三段１７６號","OBJECTID":488747},"geometry":{"x":167315.43000000063,"y":2543780.2599999998}},{"attributes":{"ID":488773,"DIS_CODE":0,"TOWNNAME":"永康區","LI":"正強里","LIN":"13鄰","STREET":"正強街","SECT":" ","MAREA":" ","LANE":" ","ALLEY":" ","HOUSE_NO":"１２７號","E_COORD97":173321.44,"N_COORD97":2547453.8700000001,"ADDRESS":"正強街１２７號","OBJECTID":488748},"geometry":{"x":173321.44000000041,"y":2547453.8700000048}},{"attributes":{"ID":488774,"DIS_CODE":0,"TOWNNAME":"中西區","LI":"民主里","LIN":"13鄰","STREET":"金華路","SECT":"三段","MAREA":" ","LANE":" ","ALLEY":" ","HOUSE_NO":"１７６號底層","E_COORD97":167315.42999999999,"N_COORD97":2543780.2599999998,"ADDRESS":"金華路三段１７６號底層","OBJECTID":488749},"geometry":{"x":167315.43000000063,"y":2543780.2599999998}},{"attributes":{"ID":488775,"DIS_CODE":0,"TOWNNAME":"中西區","LI":"民主里","LIN":"13鄰","STREET":"金華路","SECT":"三段","MAREA":" ","LANE":" ","ALLEY":" ","HOUSE_NO":"１８０號","E_COORD97":167315.75,"N_COORD97":2543807.0899999999,"ADDRESS":"金華路三段１８０號","OBJECTID":488750},"geometry":{"x":167315.75,"y":2543807.0900000017}},{"attributes":{"ID":488776,"DIS_CODE":0,"TOWNNAME":"中西區","LI":"民主里","LIN":"13鄰","STREET":"金華路","SECT":"三段","MAREA":" ","LANE":" ","ALLEY":" ","HOUSE_NO":"１８２號","E_COORD97":167316.87,"N_COORD97":2543812.23,"ADDRESS":"金華路三段１８２號","OBJECTID":488751},"geometry":{"x":167316.87000000011,"y":2543812.2300000004}},{"attributes":{"ID":488777,"DIS_CODE":0,"TOWNNAME":"中西區","LI":"民主里","LIN":"13鄰","STREET":"金華路","SECT":"三段","MAREA":" ","LANE":" ","ALLEY":" ","HOUSE_NO":"１８６號","E_COORD97":167319.32999999999,"N_COORD97":2543821.9399999999,"ADDRESS":"金華路三段１８６號","OBJECTID":488752},"geometry":{"x":167319.33000000007,"y":2543821.9400000013}},{"attributes":{"ID":488778,"DIS_CODE":0,"TOWNNAME":"中西區","LI":"民主里","LIN":"13鄰","STREET":"金華路","SECT":"三段","MAREA":" ","LANE":" ","ALLEY":" ","HOUSE_NO":"１８８號","E_COORD97":167319.89000000001,"N_COORD97":2543826.52,"ADDRESS":"金華路三段１８８號","OBJECTID":488753},"geometry":{"x":167319.88999999966,"y":2543826.5199999996}},{"attributes":{"ID":488779,"DIS_CODE":0,"TOWNNAME":"中西區","LI":"民主里","LIN":"13鄰","STREET":"金華路","SECT":"三段","MAREA":" ","LANE":" ","ALLEY":" ","HOUSE_NO":"１９２號","E_COORD97":167323.91,"N_COORD97":2543837.02,"ADDRESS":"金華路三段１９２號","OBJECTID":488754},"geometry":{"x":167323.91000000015,"y":2543837.0199999977}},{"attributes":{"ID":488780,"DIS_CODE":0,"TOWNNAME":"中西區","LI":"民主里","LIN":"13鄰","STREET":"金華路","SECT":"三段","MAREA":" ","LANE":" ","ALLEY":" ","HOUSE_NO":"１９４號","E_COORD97":167325.70000000001,"N_COORD97":2543840.8100000001,"ADDRESS":"金華路三段１９４號","OBJECTID":488755},"geometry":{"x":167325.70000000112,"y":2543840.8100000024}},{"attributes":{"ID":488781,"DIS_CODE":0,"TOWNNAME":"新營區","LI":"大宏里","LIN":"4鄰","STREET":"綠川北街","SECT":" ","MAREA":" ","LANE":" ","ALLEY":" ","HOUSE_NO":"１２９號","E_COORD97":180221.39999999999,"N_COORD97":2578658.0600000001,"ADDRESS":"綠川北街１２９號","OBJECTID":488756},"geometry":{"x":180221.40000000224,"y":2578658.0600000024}},{"attributes":{"ID":488782,"DIS_CODE":0,"TOWNNAME":"新營區","LI":"南興里","LIN":"27鄰","STREET":"建業路","SECT":" ","MAREA":" ","LANE":" ","ALLEY":" ","HOUSE_NO":"７５號之１","E_COORD97":178586.07000000001,"N_COORD97":2577452.1299999999,"ADDRESS":"建業路７５號之１","OBJECTID":488757},"geometry":{"x":178586.07000000216,"y":2577452.1300000008}},{"attributes":{"ID":488783,"DIS_CODE":0,"TOWNNAME":"新營區","LI":"延平里","LIN":" ","STREET":"復興路","SECT":" ","MAREA":" ","LANE":" ","ALLEY":" ","HOUSE_NO":"１之１１１號","E_COORD97":179715.17999999999,"N_COORD97":2577935.1299999999,"ADDRESS":"復興路１之１１１號","OBJECTID":488758},"geometry":{"x":179715.1799999997,"y":2577935.129999999}},{"attributes":{"ID":488784,"DIS_CODE":0,"TOWNNAME":"新營區","LI":"好平里","LIN":"5鄰","STREET":"南昌街","SECT":" ","MAREA":" ","LANE":" ","ALLEY":" ","HOUSE_NO":"４２之２號","E_COORD97":179515.29999999999,"N_COORD97":2577661.4300000002,"ADDRESS":"南昌街４２之２號","OBJECTID":488759},"geometry":{"x":179515.30000000075,"y":2577661.4300000016}},{"attributes":{"ID":488785,"DIS_CODE":0,"TOWNNAME":"新營區","LI":"民生里","LIN":"9鄰","STREET":"復興路","SECT":" ","MAREA":" ","LANE":" ","ALLEY":" ","HOUSE_NO":"１４２號之３","E_COORD97":179308.60000000001,"N_COORD97":2578045.6000000001,"ADDRESS":"復興路１４２號之３","OBJECTID":488760},"geometry":{"x":179308.59999999963,"y":2578045.6000000034}},{"attributes":{"ID":488786,"DIS_CODE":0,"TOWNNAME":"下營區","LI":"新興里","LIN":"13鄰","STREET":"中山路","SECT":"一段","MAREA":" ","LANE":" ","ALLEY":" ","HOUSE_NO":"１３１號","E_COORD97":174691.62,"N_COORD97":2570584.9300000002,"ADDRESS":"中山路一段１３１號","OBJECTID":488761},"geometry":{"x":174691.62000000197,"y":2570584.9300000016}},{"attributes":{"ID":488787,"DIS_CODE":0,"TOWNNAME":"下營區","LI":"新興里","LIN":"13鄰","STREET":"中山路","SECT":"一段","MAREA":" ","LANE":" ","ALLEY":" ","HOUSE_NO":"１３３號","E_COORD97":174708.31,"N_COORD97":2570594.8799999999,"ADDRESS":"中山路一段１３３號","OBJECTID":488762},"geometry":{"x":174708.30999999866,"y":2570594.8800000008}},{"attributes":{"ID":488788,"DIS_CODE":0,"TOWNNAME":"新營區","LI":"大宏里","LIN":" ","STREET":"大同路","SECT":" ","MAREA":" ","LANE":" ","ALLEY":" ","HOUSE_NO":"３０之２７號","E_COORD97":180724.95999999999,"N_COORD97":2578828.52,"ADDRESS":"大同路３０之２７號","OBJECTID":488763},"geometry":{"x":180724.95999999996,"y":2578828.5199999996}},{"attributes":{"ID":488789,"DIS_CODE":0,"TOWNNAME":"新營區","LI":"延平里","LIN":"4鄰","STREET":"武侯街","SECT":" ","MAREA":" ","LANE":" ","ALLEY":" ","HOUSE_NO":"４０號","E_COORD97":179635.26999999999,"N_COORD97":2577819.1600000001,"ADDRESS":"武侯街４０號","OBJECTID":488764},"geometry":{"x":179635.27000000048,"y":2577819.160000002}},{"attributes":{"ID":488790,"DIS_CODE":0,"TOWNNAME":"新營區","LI":"延平里","LIN":"18鄰","STREET":"長春街","SECT":" ","MAREA":" ","LANE":" ","ALLEY":" ","HOUSE_NO":"１００號","E_COORD97":179611.854047,"N_COORD97":2577842.3936200002,"ADDRESS":"長春街１００號","OBJECTID":488765},"geometry":{"x":179611.85404700134,"y":2577842.3936170004}},{"attributes":{"ID":488791,"DIS_CODE":0,"TOWNNAME":"下營區","LI":"下營里","LIN":"13鄰","STREET":"中正北路","SECT":" ","MAREA":" ","LANE":" ","ALLEY":" ","HOUSE_NO":"５０號","E_COORD97":174524.32000000001,"N_COORD97":2570608.8799999999,"ADDRESS":"中正北路５０號","OBJECTID":488766},"geometry":{"x":174524.32000000216,"y":2570608.8800000008}},{"attributes":{"ID":488792,"DIS_CODE":0,"TOWNNAME":"下營區","LI":"營前里","LIN":"13鄰","STREET":"中正南路","SECT":" ","MAREA":" ","LANE":" ","ALLEY":" ","HOUSE_NO":"５１號","E_COORD97":174603.12,"N_COORD97":2570387.98,"ADDRESS":"中正南路５１號","OBJECTID":488767},"geometry":{"x":174603.12000000011,"y":2570387.9800000004}},{"attributes":{"ID":488793,"DIS_CODE":0,"TOWNNAME":"下營區","LI":"營前里","LIN":"13鄰","STREET":"中正南路","SECT":" ","MAREA":" ","LANE":" ","ALLEY":" ","HOUSE_NO":"５５號","E_COORD97":174603.95999999999,"N_COORD97":2570384.6400000001,"ADDRESS":"中正南路５５號","OBJECTID":488768},"geometry":{"x":174603.95999999996,"y":2570384.6400000025}},{"attributes":{"ID":488794,"DIS_CODE":0,"TOWNNAME":"下營區","LI":"營前里","LIN":"13鄰","STREET":"中正南路","SECT":" ","MAREA":" ","LANE":" ","ALLEY":" ","HOUSE_NO":"６１號","E_COORD97":174605.66,"N_COORD97":2570380.0600000001,"ADDRESS":"中正南路６１號","OBJECTID":488769},"geometry":{"x":174605.66000000108,"y":2570380.0600000005}},{"attributes":{"ID":488795,"DIS_CODE":0,"TOWNNAME":"下營區","LI":"營前里","LIN":"13鄰","STREET":"中正南路","SECT":" ","MAREA":" ","LANE":" ","ALLEY":" ","HOUSE_NO":"６３號","E_COORD97":174605.39000000001,"N_COORD97":2570363.3999999999,"ADDRESS":"中正南路６３號","OBJECTID":488770},"geometry":{"x":174605.3900000006,"y":2570363.4000000022}},{"attributes":{"ID":488796,"DIS_CODE":0,"TOWNNAME":"下營區","LI":"營前里","LIN":"13鄰","STREET":"中正南路","SECT":" ","MAREA":" ","LANE":" ","ALLEY":" ","HOUSE_NO":"６５號","E_COORD97":174606.35000000001,"N_COORD97":2570359.7200000002,"ADDRESS":"中正南路６５號","OBJECTID":488771},"geometry":{"x":174606.3499999987,"y":2570359.7199999988}},{"attributes":{"ID":488797,"DIS_CODE":0,"TOWNNAME":"下營區","LI":"營前里","LIN":"13鄰","STREET":"中正南路","SECT":" ","MAREA":" ","LANE":" ","ALLEY":" ","HOUSE_NO":"６７號","E_COORD97":174610.66,"N_COORD97":2570349.04,"ADDRESS":"中正南路６７號","OBJECTID":488772},"geometry":{"x":174610.66000000108,"y":2570349.0399999991}},{"attributes":{"ID":488798,"DIS_CODE":0,"TOWNNAME":"新營區","LI":"新東里","LIN":"15鄰","STREET":"東泰一街","SECT":" ","MAREA":" ","LANE":" ","ALLEY":" ","HOUSE_NO":"６０號","E_COORD97":180967.79999999999,"N_COORD97":2579544.6099999999,"ADDRESS":"東泰一街６０號","OBJECTID":488773},"geometry":{"x":180967.80000000075,"y":2579544.6100000013}},{"attributes":{"ID":488799,"DIS_CODE":0,"TOWNNAME":"新營區","LI":"南興里","LIN":"26鄰","STREET":"建業路","SECT":" ","MAREA":" ","LANE":" ","ALLEY":" ","HOUSE_NO":"７０之２號","E_COORD97":179377.47,"N_COORD97":2577514.79,"ADDRESS":"建業路７０之２號","OBJECTID":488774},"geometry":{"x":179377.46999999974,"y":2577514.7900000028}},{"attributes":{"ID":488800,"DIS_CODE":0,"TOWNNAME":"永康區","LI":"西灣里","LIN":"13鄰","STREET":"民族路","SECT":" ","MAREA":" ","LANE":" ","ALLEY":" ","HOUSE_NO":"４７９號","E_COORD97":174587.07999999999,"N_COORD97":2545428.1099999999,"ADDRESS":"民族路４７９號","OBJECTID":488775},"geometry":{"x":174587.08000000101,"y":2545428.1100000013}},{"attributes":{"ID":488801,"DIS_CODE":0,"TOWNNAME":"新營區","LI":"王公里","LIN":"3鄰","STREET":"民族路","SECT":" ","MAREA":" ","LANE":" ","ALLEY":" ","HOUSE_NO":"５７號之１","E_COORD97":180285.57000000001,"N_COORD97":2578982.29,"ADDRESS":"民族路５７號之１","OBJECTID":488776},"geometry":{"x":180285.5700000003,"y":2578982.2899999991}},{"attributes":{"ID":488802,"DIS_CODE":0,"TOWNNAME":"新營區","LI":"民權里","LIN":" ","STREET":"武昌街","SECT":" ","MAREA":" ","LANE":" ","ALLEY":" ","HOUSE_NO":"９號","E_COORD97":179880.82999999999,"N_COORD97":2578335.1699999999,"ADDRESS":"武昌街９號","OBJECTID":488777},"geometry":{"x":179880.83000000194,"y":2578335.1700000018}},{"attributes":{"ID":488803,"DIS_CODE":0,"TOWNNAME":"永康區","LI":"西灣里","LIN":"13鄰","STREET":"民族路","SECT":" ","MAREA":" ","LANE":" ","ALLEY":" ","HOUSE_NO":"４９３號","E_COORD97":174552.04000000001,"N_COORD97":2545438.7799999998,"ADDRESS":"民族路４９３號","OBJECTID":488778},"geometry":{"x":174552.04000000097,"y":2545438.7800000031}},{"attributes":{"ID":488804,"DIS_CODE":0,"TOWNNAME":"永康區","LI":"西灣里","LIN":"13鄰","STREET":"民族路","SECT":" ","MAREA":" ","LANE":" ","ALLEY":" ","HOUSE_NO":"４７７號","E_COORD97":174594.07000000001,"N_COORD97":2545426.4399999999,"ADDRESS":"民族路４７７號","OBJECTID":488779},"geometry":{"x":174594.07000000123,"y":2545426.4399999995}},{"attributes":{"ID":488805,"DIS_CODE":0,"TOWNNAME":"永康區","LI":"東灣里","LIN":"13鄰","STREET":"大灣路","SECT":" ","MAREA":" ","LANE":" ","ALLEY":" ","HOUSE_NO":"３３３號","E_COORD97":174784.38,"N_COORD97":2544950.7000000002,"ADDRESS":"大灣路３３３號","OBJECTID":488780},"geometry":{"x":174784.37999999989,"y":2544950.6999999993}},{"attributes":{"ID":488806,"DIS_CODE":0,"TOWNNAME":"永康區","LI":"東灣里","LIN":"13鄰","STREET":"大灣路","SECT":" ","MAREA":" ","LANE":" ","ALLEY":" ","HOUSE_NO":"３３７號","E_COORD97":174780.87,"N_COORD97":2544943.4500000002,"ADDRESS":"大灣路３３７號","OBJECTID":488781},"geometry":{"x":174780.87000000011,"y":2544943.4500000011}},{"attributes":{"ID":488807,"DIS_CODE":0,"TOWNNAME":"永康區","LI":"正強里","LIN":"13鄰","STREET":"正強街","SECT":" ","MAREA":" ","LANE":" ","ALLEY":" ","HOUSE_NO":"１６１號","E_COORD97":173312.70999999999,"N_COORD97":2547533.73,"ADDRESS":"正強街１６１號","OBJECTID":488782},"geometry":{"x":173312.71000000183,"y":2547533.7300000023}},{"attributes":{"ID":488808,"DIS_CODE":0,"TOWNNAME":"永康區","LI":"北灣里","LIN":"13鄰","STREET":"大灣路","SECT":" ","MAREA":" ","LANE":" ","ALLEY":" ","HOUSE_NO":"５６號","E_COORD97":175263.35000000001,"N_COORD97":2545858.4900000002,"ADDRESS":"大灣路５６號","OBJECTID":488783},"geometry":{"x":175263.35000000056,"y":2545858.4899999984}},{"attributes":{"ID":488809,"DIS_CODE":0,"TOWNNAME":"永康區","LI":"甲頂里","LIN":"13鄰","STREET":"大武街","SECT":" ","MAREA":" ","LANE":" ","ALLEY":" ","HOUSE_NO":"１４號","E_COORD97":170292.35000000001,"N_COORD97":2546660.8399999999,"ADDRESS":"大武街１４號","OBJECTID":488784},"geometry":{"x":170292.35000000149,"y":2546660.8400000017}},{"attributes":{"ID":488810,"DIS_CODE":0,"TOWNNAME":"新營區","LI":"延平里","LIN":"4鄰","STREET":"武侯街","SECT":" ","MAREA":" ","LANE":" ","ALLEY":" ","HOUSE_NO":"３８號之２","E_COORD97":179638.173863,"N_COORD97":2577811.3844699999,"ADDRESS":"武侯街３８號之２","OBJECTID":488785},"geometry":{"x":179638.17386300024,"y":2577811.384467002}},{"attributes":{"ID":488811,"DIS_CODE":0,"TOWNNAME":"新營區","LI":"民生里","LIN":" ","STREET":"進修街","SECT":" ","MAREA":" ","LANE":" ","ALLEY":" ","HOUSE_NO":"２５之８號","E_COORD97":179049.62,"N_COORD97":2578466.5499999998,"ADDRESS":"進修街２５之８號","OBJECTID":488786},"geometry":{"x":179049.62000000011,"y":2578466.5500000007}},{"attributes":{"ID":488812,"DIS_CODE":0,"TOWNNAME":"新營區","LI":"大宏里","LIN":"26鄰","STREET":"民族路","SECT":" ","MAREA":" ","LANE":" ","ALLEY":" ","HOUSE_NO":"９之１０號","E_COORD97":180233.79999999999,"N_COORD97":2578425.4900000002,"ADDRESS":"民族路９之１０號","OBJECTID":488787},"geometry":{"x":180233.80000000075,"y":2578425.4900000002}},{"attributes":{"ID":488813,"DIS_CODE":0,"TOWNNAME":"安南區","LI":"溪心里","LIN":"13鄰","STREET":"安中路","SECT":"三段","MAREA":" ","LANE":" ","ALLEY":" ","HOUSE_NO":"１２３號","E_COORD97":166097.32999999999,"N_COORD97":2549779.46,"ADDRESS":"安中路三段１２３號","OBJECTID":488788},"geometry":{"x":166097.33000000194,"y":2549779.4600000028}},{"attributes":{"ID":488814,"DIS_CODE":0,"TOWNNAME":"安南區","LI":"溪心里","LIN":"13鄰","STREET":"安中路","SECT":"三段","MAREA":" ","LANE":" ","ALLEY":" ","HOUSE_NO":"１２５號","E_COORD97":166091.29000000001,"N_COORD97":2549782.79,"ADDRESS":"安中路三段１２５號","OBJECTID":488789},"geometry":{"x":166091.29000000097,"y":2549782.790000001}},{"attributes":{"ID":488815,"DIS_CODE":0,"TOWNNAME":"安南區","LI":"溪心里","LIN":"13鄰","STREET":"樂安一街","SECT":" ","MAREA":" ","LANE":" ","ALLEY":" ","HOUSE_NO":"３９號","E_COORD97":166101.33405599999,"N_COORD97":2549727.9031799999,"ADDRESS":"樂安一街３９號","OBJECTID":488790},"geometry":{"x":166101.33405600023,"y":2549727.9031809997}},{"attributes":{"ID":488816,"DIS_CODE":0,"TOWNNAME":"安南區","LI":"溪心里","LIN":"13鄰","STREET":"樂安一街","SECT":" ","MAREA":" ","LANE":" ","ALLEY":" ","HOUSE_NO":"３７號","E_COORD97":166107.686047,"N_COORD97":2549725.9981800001,"ADDRESS":"樂安一街３７號","OBJECTID":488791},"geometry":{"x":166107.68604700174,"y":2549725.9981820006}},{"attributes":{"ID":488817,"DIS_CODE":0,"TOWNNAME":"安南區","LI":"溪心里","LIN":"13鄰","STREET":"樂安一街","SECT":" ","MAREA":" ","LANE":" ","ALLEY":" ","HOUSE_NO":"３５號","E_COORD97":166115.52017,"N_COORD97":2549724.30485,"ADDRESS":"樂安一街３５號","OBJECTID":488792},"geometry":{"x":166115.52017000224,"y":2549724.3048500028}},{"attributes":{"ID":488818,"DIS_CODE":0,"TOWNNAME":"安南區","LI":"溪心里","LIN":"13鄰","STREET":"樂安一街","SECT":" ","MAREA":" ","LANE":" ","ALLEY":" ","HOUSE_NO":"６號","E_COORD97":166200.98999999999,"N_COORD97":2549720.3999999999,"ADDRESS":"樂安一街６號","OBJECTID":488793},"geometry":{"x":166200.99000000022,"y":2549720.4000000004}},{"attributes":{"ID":488819,"DIS_CODE":0,"TOWNNAME":"安南區","LI":"溪心里","LIN":"13鄰","STREET":"樂安一街","SECT":" ","MAREA":" ","LANE":" ","ALLEY":" ","HOUSE_NO":"８０號","E_COORD97":166024.51000000001,"N_COORD97":2549760.21,"ADDRESS":"樂安一街８０號","OBJECTID":488794},"geometry":{"x":166024.51000000164,"y":2549760.2100000046}},{"attributes":{"ID":488820,"DIS_CODE":0,"TOWNNAME":"安南區","LI":"新順里","LIN":"13鄰","STREET":"開安一街","SECT":" ","MAREA":" ","LANE":" ","ALLEY":" ","HOUSE_NO":"１１號","E_COORD97":170506.87,"N_COORD97":2549682.02,"ADDRESS":"開安一街１１號","OBJECTID":488795},"geometry":{"x":170506.87000000104,"y":2549682.0199999977}},{"attributes":{"ID":488821,"DIS_CODE":0,"TOWNNAME":"安南區","LI":"新順里","LIN":"13鄰","STREET":"開安一街","SECT":" ","MAREA":" ","LANE":" ","ALLEY":" ","HOUSE_NO":"３２號","E_COORD97":170605.92999999999,"N_COORD97":2549605.7000000002,"ADDRESS":"開安一街３２號","OBJECTID":488796},"geometry":{"x":170605.93000000063,"y":2549605.6999999993}},{"attributes":{"ID":488822,"DIS_CODE":0,"TOWNNAME":"安南區","LI":"新順里","LIN":"13鄰","STREET":"開安路","SECT":" ","MAREA":" ","LANE":" ","ALLEY":" ","HOUSE_NO":"６１號","E_COORD97":170372.38,"N_COORD97":2549725.46,"ADDRESS":"開安路６１號","OBJECTID":488797},"geometry":{"x":170372.38000000082,"y":2549725.4600000028}},{"attributes":{"ID":488823,"DIS_CODE":0,"TOWNNAME":"新營區","LI":"新南里","LIN":"11鄰","STREET":"新北七街","SECT":" ","MAREA":" ","LANE":" ","ALLEY":" ","HOUSE_NO":"６３號","E_COORD97":178474.42000000001,"N_COORD97":2579135.9500000002,"ADDRESS":"新北七街６３號","OBJECTID":488798},"geometry":{"x":178474.41999999993,"y":2579135.9500000011}},{"attributes":{"ID":488824,"DIS_CODE":0,"TOWNNAME":"安南區","LI":"新順里","LIN":"13鄰","STREET":"永安路","SECT":" ","MAREA":" ","LANE":" ","ALLEY":" ","HOUSE_NO":"５９號","E_COORD97":170206.72,"N_COORD97":2549457.1699999999,"ADDRESS":"永安路５９號","OBJECTID":488799},"geometry":{"x":170206.7200000016,"y":2549457.1699999999}},{"attributes":{"ID":488825,"DIS_CODE":0,"TOWNNAME":"安南區","LI":"新順里","LIN":"13鄰","STREET":"永安路","SECT":" ","MAREA":" ","LANE":" ","ALLEY":" ","HOUSE_NO":"５５號","E_COORD97":170195.16,"N_COORD97":2549460.8500000001,"ADDRESS":"永安路５５號","OBJECTID":488800},"geometry":{"x":170195.16000000015,"y":2549460.8500000015}}]}