{"displayFieldName":"TOWNNAME","fieldAliases":{"ID":"ID","DIS_CODE":"DIS_CODE","TOWNNAME":"TOWNNAME","LI":"LI","LIN":"LIN","STREET":"STREET","SECT":"SECT","MAREA":"MAREA","LANE":"LANE","ALLEY":"ALLEY","HOUSE_NO":"HOUSE_NO","E_COORD97":"E_COORD97","N_COORD97":"N_COORD97","ADDRESS":"ADDRESS","OBJECTID":"OBJECTID"},"geometryType":"esriGeometryPoint","spatialReference":{"wkid":102443,"latestWkid":3826},"fields":[{"name":"ID","type":"esriFieldTypeDouble","alias":"ID"},{"name":"DIS_CODE","type":"esriFieldTypeInteger","alias":"DIS_CODE"},{"name":"TOWNNAME","type":"esriFieldTypeString","alias":"TOWNNAME","length":8},{"name":"LI","type":"esriFieldTypeString","alias":"LI","length":8},{"name":"LIN","type":"esriFieldTypeString","alias":"LIN","length":12},{"name":"STREET","type":"esriFieldTypeString","alias":"STREET","length":20},{"name":"SECT","type":"esriFieldTypeString","alias":"SECT","length":8},{"name":"MAREA","type":"esriFieldTypeString","alias":"MAREA","length":12},{"name":"LANE","type":"esriFieldTypeString","alias":"LANE","length":10},{"name":"ALLEY","type":"esriFieldTypeString","alias":"ALLEY","length":10},{"name":"HOUSE_NO","type":"esriFieldTypeString","alias":"HOUSE_NO","length":20},{"name":"E_COORD97","type":"esriFieldTypeDouble","alias":"E_COORD97"},{"name":"N_COORD97","type":"esriFieldTypeDouble","alias":"N_COORD97"},{"name":"ADDRESS","type":"esriFieldTypeString","alias":"ADDRESS","length":50},{"name":"OBJECTID","type":"esriFieldTypeOID","alias":"OBJECTID"}],"features":[{"attributes":{"ID":530028,"DIS_CODE":0,"TOWNNAME":"西港區","LI":"慶安里","LIN":"33鄰","STREET":"中山路","SECT":" ","MAREA":" ","LANE":" ","ALLEY":" ","HOUSE_NO":"１１９號之３","E_COORD97":168439.26000000001,"N_COORD97":2557509.2200000002,"ADDRESS":"中山路１１９號之３","OBJECTID":530001},"geometry":{"x":168439.26000000071,"y":2557509.2200000007}},{"attributes":{"ID":530029,"DIS_CODE":0,"TOWNNAME":"西港區","LI":"慶安里","LIN":"33鄰","STREET":"中山路","SECT":" ","MAREA":" ","LANE":" ","ALLEY":" ","HOUSE_NO":"１２３號","E_COORD97":168444.62,"N_COORD97":2557531.6000000001,"ADDRESS":"中山路１２３號","OBJECTID":530002},"geometry":{"x":168444.62000000011,"y":2557531.6000000015}},{"attributes":{"ID":530030,"DIS_CODE":0,"TOWNNAME":"西港區","LI":"慶安里","LIN":"33鄰","STREET":"中山路","SECT":" ","MAREA":" ","LANE":" ","ALLEY":" ","HOUSE_NO":"１２５號","E_COORD97":168442.45000000001,"N_COORD97":2557537.3999999999,"ADDRESS":"中山路１２５號","OBJECTID":530003},"geometry":{"x":168442.45000000019,"y":2557537.4000000022}},{"attributes":{"ID":530031,"DIS_CODE":0,"TOWNNAME":"西港區","LI":"慶安里","LIN":"33鄰","STREET":"中山路","SECT":" ","MAREA":" ","LANE":" ","ALLEY":" ","HOUSE_NO":"１２７號","E_COORD97":168441.84,"N_COORD97":2557541.3399999999,"ADDRESS":"中山路１２７號","OBJECTID":530004},"geometry":{"x":168441.84000000078,"y":2557541.3399999999}},{"attributes":{"ID":530032,"DIS_CODE":0,"TOWNNAME":"西港區","LI":"慶安里","LIN":"33鄰","STREET":"中山路","SECT":" ","MAREA":" ","LANE":" ","ALLEY":" ","HOUSE_NO":"１２９號","E_COORD97":168441.09,"N_COORD97":2557545.0899999999,"ADDRESS":"中山路１２９號","OBJECTID":530005},"geometry":{"x":168441.08999999985,"y":2557545.0900000017}},{"attributes":{"ID":530033,"DIS_CODE":0,"TOWNNAME":"西港區","LI":"慶安里","LIN":"33鄰","STREET":"中山路","SECT":" ","MAREA":" ","LANE":" ","ALLEY":" ","HOUSE_NO":"１３３號","E_COORD97":168436.89000000001,"N_COORD97":2557553.9500000002,"ADDRESS":"中山路１３３號","OBJECTID":530006},"geometry":{"x":168436.88999999966,"y":2557553.9499999993}},{"attributes":{"ID":530034,"DIS_CODE":0,"TOWNNAME":"西港區","LI":"慶安里","LIN":"33鄰","STREET":"中山路","SECT":" ","MAREA":" ","LANE":" ","ALLEY":" ","HOUSE_NO":"１３５號","E_COORD97":168436.23000000001,"N_COORD97":2557557.9399999999,"ADDRESS":"中山路１３５號","OBJECTID":530007},"geometry":{"x":168436.23000000138,"y":2557557.9399999995}},{"attributes":{"ID":530035,"DIS_CODE":0,"TOWNNAME":"西港區","LI":"慶安里","LIN":"33鄰","STREET":"中山路","SECT":" ","MAREA":" ","LANE":" ","ALLEY":" ","HOUSE_NO":"１３７號","E_COORD97":168435.45999999999,"N_COORD97":2557562.7999999998,"ADDRESS":"中山路１３７號","OBJECTID":530008},"geometry":{"x":168435.45999999996,"y":2557562.8000000007}},{"attributes":{"ID":530036,"DIS_CODE":0,"TOWNNAME":"西港區","LI":"慶安里","LIN":"33鄰","STREET":"中山路","SECT":" ","MAREA":" ","LANE":" ","ALLEY":" ","HOUSE_NO":"１３９號","E_COORD97":168435.23000000001,"N_COORD97":2557566.79,"ADDRESS":"中山路１３９號","OBJECTID":530009},"geometry":{"x":168435.23000000045,"y":2557566.790000001}},{"attributes":{"ID":530037,"DIS_CODE":0,"TOWNNAME":"西港區","LI":"慶安里","LIN":"33鄰","STREET":"中山路","SECT":" ","MAREA":" ","LANE":" ","ALLEY":" ","HOUSE_NO":"１４１號之１","E_COORD97":168434.39000000001,"N_COORD97":2557575.2200000002,"ADDRESS":"中山路１４１號之１","OBJECTID":530010},"geometry":{"x":168434.3900000006,"y":2557575.2200000025}},{"attributes":{"ID":530038,"DIS_CODE":0,"TOWNNAME":"西港區","LI":"慶安里","LIN":"33鄰","STREET":"中山路","SECT":" ","MAREA":" ","LANE":" ","ALLEY":" ","HOUSE_NO":"１４１號","E_COORD97":168434.94,"N_COORD97":2557571.3300000001,"ADDRESS":"中山路１４１號","OBJECTID":530011},"geometry":{"x":168434.94000000134,"y":2557571.3300000019}},{"attributes":{"ID":530039,"DIS_CODE":0,"TOWNNAME":"西港區","LI":"慶安里","LIN":"33鄰","STREET":"中山路","SECT":" ","MAREA":" ","LANE":" ","ALLEY":" ","HOUSE_NO":"１４３號","E_COORD97":168433.85999999999,"N_COORD97":2557578.9199999999,"ADDRESS":"中山路１４３號","OBJECTID":530012},"geometry":{"x":168433.86000000127,"y":2557578.9199999999}},{"attributes":{"ID":530040,"DIS_CODE":0,"TOWNNAME":"東區","LI":"中西里","LIN":"33鄰","STREET":"林森路","SECT":"二段","MAREA":" ","LANE":" ","ALLEY":" ","HOUSE_NO":"１１５號","E_COORD97":170418.17000000001,"N_COORD97":2543424.1600000001,"ADDRESS":"林森路二段１１５號","OBJECTID":530013},"geometry":{"x":170418.17000000086,"y":2543424.160000002}},{"attributes":{"ID":530041,"DIS_CODE":0,"TOWNNAME":"東區","LI":"中西里","LIN":"33鄰","STREET":"林森路","SECT":"二段","MAREA":" ","LANE":" ","ALLEY":" ","HOUSE_NO":"１１７號","E_COORD97":170421.48000000001,"N_COORD97":2543432.5299999998,"ADDRESS":"林森路二段１１７號","OBJECTID":530014},"geometry":{"x":170421.48000000138,"y":2543432.5299999993}},{"attributes":{"ID":530042,"DIS_CODE":0,"TOWNNAME":"東區","LI":"中西里","LIN":"33鄰","STREET":"林森路","SECT":"二段","MAREA":" ","LANE":" ","ALLEY":" ","HOUSE_NO":"１１９號","E_COORD97":170407,"N_COORD97":2543432.7200000002,"ADDRESS":"林森路二段１１９號","OBJECTID":530015},"geometry":{"x":170407.00000000186,"y":2543432.7200000007}},{"attributes":{"ID":530043,"DIS_CODE":0,"TOWNNAME":"東區","LI":"忠孝里","LIN":"33鄰","STREET":"崇明二街","SECT":" ","MAREA":" ","LANE":" ","ALLEY":" ","HOUSE_NO":"６號","E_COORD97":169542.23999999999,"N_COORD97":2542368.54,"ADDRESS":"崇明二街６號","OBJECTID":530016},"geometry":{"x":169542.24000000022,"y":2542368.5400000028}},{"attributes":{"ID":530044,"DIS_CODE":0,"TOWNNAME":"東區","LI":"大智里","LIN":"33鄰","STREET":"崇善十六街","SECT":" ","MAREA":" ","LANE":" ","ALLEY":" ","HOUSE_NO":"１２８號","E_COORD97":171239.31,"N_COORD97":2540418.21,"ADDRESS":"崇善十六街１２８號","OBJECTID":530017},"geometry":{"x":171239.30999999959,"y":2540418.2100000009}},{"attributes":{"ID":530045,"DIS_CODE":0,"TOWNNAME":"東區","LI":"文聖里","LIN":"13鄰","STREET":"裕忠路","SECT":" ","MAREA":" ","LANE":" ","ALLEY":" ","HOUSE_NO":"１５１號","E_COORD97":172278.44,"N_COORD97":2542785.5899999999,"ADDRESS":"裕忠路１５１號","OBJECTID":530018},"geometry":{"x":172278.44000000041,"y":2542785.5899999999}},{"attributes":{"ID":530046,"DIS_CODE":0,"TOWNNAME":"東區","LI":"關聖里","LIN":"14鄰","STREET":"裕忠路","SECT":" ","MAREA":" ","LANE":" ","ALLEY":" ","HOUSE_NO":"１７０號","E_COORD97":172236.51000000001,"N_COORD97":2542864.7599999998,"ADDRESS":"裕忠路１７０號","OBJECTID":530019},"geometry":{"x":172236.51000000071,"y":2542864.7599999998}},{"attributes":{"ID":530047,"DIS_CODE":0,"TOWNNAME":"東區","LI":"大智里","LIN":"33鄰","STREET":"崇善十六街","SECT":" ","MAREA":" ","LANE":" ","ALLEY":" ","HOUSE_NO":"１３０號","E_COORD97":171229.88,"N_COORD97":2540417.6499999999,"ADDRESS":"崇善十六街１３０號","OBJECTID":530020},"geometry":{"x":171229.88000000082,"y":2540417.6500000022}},{"attributes":{"ID":530048,"DIS_CODE":0,"TOWNNAME":"永康區","LI":"埔園里","LIN":"33鄰","STREET":"埔園街","SECT":" ","MAREA":" ","LANE":" ","ALLEY":" ","HOUSE_NO":"１５６號","E_COORD97":173922.34,"N_COORD97":2548199.25,"ADDRESS":"埔園街１５６號","OBJECTID":530021},"geometry":{"x":173922.34000000078,"y":2548199.2499999981}},{"attributes":{"ID":530049,"DIS_CODE":0,"TOWNNAME":"永康區","LI":"勝利里","LIN":"33鄰","STREET":"中華路","SECT":" ","MAREA":" ","LANE":" ","ALLEY":" ","HOUSE_NO":"１號之２２","E_COORD97":171501.98999999999,"N_COORD97":2544353.0499999998,"ADDRESS":"中華路１號之２２","OBJECTID":530022},"geometry":{"x":171501.99000000022,"y":2544353.0500000007}},{"attributes":{"ID":530050,"DIS_CODE":0,"TOWNNAME":"永康區","LI":"埔園里","LIN":"33鄰","STREET":"自強路","SECT":" ","MAREA":" ","LANE":" ","ALLEY":" ","HOUSE_NO":"４７５號","E_COORD97":173894.57999999999,"N_COORD97":2548084,"ADDRESS":"自強路４７５號","OBJECTID":530023},"geometry":{"x":173894.58000000007,"y":2548084.0000000019}},{"attributes":{"ID":530051,"DIS_CODE":0,"TOWNNAME":"永康區","LI":"埔園里","LIN":"33鄰","STREET":"自強路","SECT":" ","MAREA":" ","LANE":" ","ALLEY":" ","HOUSE_NO":"４９１之１號","E_COORD97":173949.45000000001,"N_COORD97":2548166.5499999998,"ADDRESS":"自強路４９１之１號","OBJECTID":530024},"geometry":{"x":173949.45000000112,"y":2548166.5500000007}},{"attributes":{"ID":530052,"DIS_CODE":0,"TOWNNAME":"永康區","LI":"埔園里","LIN":"33鄰","STREET":"自強路","SECT":" ","MAREA":" ","LANE":" ","ALLEY":" ","HOUSE_NO":"４９３號","E_COORD97":173955.60000000001,"N_COORD97":2548198.5,"ADDRESS":"自強路４９３號","OBJECTID":530025},"geometry":{"x":173955.60000000149,"y":2548198.5000000019}},{"attributes":{"ID":530053,"DIS_CODE":0,"TOWNNAME":"永康區","LI":"埔園里","LIN":"33鄰","STREET":"自強路","SECT":" ","MAREA":" ","LANE":" ","ALLEY":" ","HOUSE_NO":"４６５號","E_COORD97":173879.28,"N_COORD97":2548070.75,"ADDRESS":"自強路４６５號","OBJECTID":530026},"geometry":{"x":173879.28000000119,"y":2548070.7500000037}},{"attributes":{"ID":530054,"DIS_CODE":0,"TOWNNAME":"永康區","LI":"埔園里","LIN":"33鄰","STREET":"自強路","SECT":" ","MAREA":" ","LANE":" ","ALLEY":" ","HOUSE_NO":"４４５號","E_COORD97":173847.12,"N_COORD97":2548045.4900000002,"ADDRESS":"自強路４４５號","OBJECTID":530027},"geometry":{"x":173847.12000000011,"y":2548045.4900000039}},{"attributes":{"ID":530055,"DIS_CODE":0,"TOWNNAME":"永康區","LI":"埔園里","LIN":"33鄰","STREET":"自強路","SECT":" ","MAREA":" ","LANE":" ","ALLEY":" ","HOUSE_NO":"４５３號","E_COORD97":173859.73999999999,"N_COORD97":2548055.7400000002,"ADDRESS":"自強路４５３號","OBJECTID":530028},"geometry":{"x":173859.74000000022,"y":2548055.7400000002}},{"attributes":{"ID":530056,"DIS_CODE":0,"TOWNNAME":"永康區","LI":"埔園里","LIN":"33鄰","STREET":"自強路","SECT":" ","MAREA":" ","LANE":" ","ALLEY":" ","HOUSE_NO":"４７３號","E_COORD97":173891.38,"N_COORD97":2548081.5,"ADDRESS":"自強路４７３號","OBJECTID":530029},"geometry":{"x":173891.38000000082,"y":2548081.5}},{"attributes":{"ID":530057,"DIS_CODE":0,"TOWNNAME":"永康區","LI":"埔園里","LIN":"33鄰","STREET":"自強路","SECT":" ","MAREA":" ","LANE":" ","ALLEY":" ","HOUSE_NO":"４６１號","E_COORD97":173872.82999999999,"N_COORD97":2548065.5,"ADDRESS":"自強路４６１號","OBJECTID":530030},"geometry":{"x":173872.83000000007,"y":2548065.5000000037}},{"attributes":{"ID":530058,"DIS_CODE":0,"TOWNNAME":"東區","LI":"大智里","LIN":"33鄰","STREET":"崇善十六街","SECT":" ","MAREA":" ","LANE":" ","ALLEY":" ","HOUSE_NO":"１０２號","E_COORD97":171317.06,"N_COORD97":2540414.0099999998,"ADDRESS":"崇善十六街１０２號","OBJECTID":530031},"geometry":{"x":171317.06000000052,"y":2540414.0100000016}},{"attributes":{"ID":530059,"DIS_CODE":0,"TOWNNAME":"東區","LI":"大智里","LIN":"33鄰","STREET":"崇善十六街","SECT":" ","MAREA":" ","LANE":" ","ALLEY":" ","HOUSE_NO":"１０６號","E_COORD97":171309.04000000001,"N_COORD97":2540415.21,"ADDRESS":"崇善十六街１０６號","OBJECTID":530032},"geometry":{"x":171309.04000000097,"y":2540415.2100000009}},{"attributes":{"ID":530060,"DIS_CODE":0,"TOWNNAME":"東區","LI":"大智里","LIN":"33鄰","STREET":"崇善十六街","SECT":" ","MAREA":" ","LANE":" ","ALLEY":" ","HOUSE_NO":"１０８號","E_COORD97":171301.84,"N_COORD97":2540416.4100000001,"ADDRESS":"崇善十六街１０８號","OBJECTID":530033},"geometry":{"x":171301.84000000078,"y":2540416.4100000001}},{"attributes":{"ID":530061,"DIS_CODE":0,"TOWNNAME":"東區","LI":"大智里","LIN":"33鄰","STREET":"崇善十六街","SECT":" ","MAREA":" ","LANE":" ","ALLEY":" ","HOUSE_NO":"１１０號","E_COORD97":171292.62,"N_COORD97":2540417.21,"ADDRESS":"崇善十六街１１０號","OBJECTID":530034},"geometry":{"x":171292.62000000011,"y":2540417.2100000028}},{"attributes":{"ID":530062,"DIS_CODE":0,"TOWNNAME":"東區","LI":"大智里","LIN":"33鄰","STREET":"崇善十六街","SECT":" ","MAREA":" ","LANE":" ","ALLEY":" ","HOUSE_NO":"１１２號","E_COORD97":171287.42000000001,"N_COORD97":2540418.0099999998,"ADDRESS":"崇善十六街１１２號","OBJECTID":530035},"geometry":{"x":171287.42000000086,"y":2540418.0100000016}},{"attributes":{"ID":530063,"DIS_CODE":0,"TOWNNAME":"東區","LI":"大智里","LIN":"33鄰","STREET":"崇善十六街","SECT":" ","MAREA":" ","LANE":" ","ALLEY":" ","HOUSE_NO":"１１６號","E_COORD97":171282.60999999999,"N_COORD97":2540418.4199999999,"ADDRESS":"崇善十六街１１６號","OBJECTID":530036},"geometry":{"x":171282.61000000034,"y":2540418.4200000018}},{"attributes":{"ID":530064,"DIS_CODE":0,"TOWNNAME":"東區","LI":"大智里","LIN":"33鄰","STREET":"崇善十六街","SECT":" ","MAREA":" ","LANE":" ","ALLEY":" ","HOUSE_NO":"１１８號","E_COORD97":171277,"N_COORD97":2540418.4199999999,"ADDRESS":"崇善十六街１１８號","OBJECTID":530037},"geometry":{"x":171277.00000000093,"y":2540418.4200000018}},{"attributes":{"ID":530065,"DIS_CODE":0,"TOWNNAME":"東區","LI":"大智里","LIN":"33鄰","STREET":"崇善十六街","SECT":" ","MAREA":" ","LANE":" ","ALLEY":" ","HOUSE_NO":"１２０號","E_COORD97":171272.60000000001,"N_COORD97":2540417.6099999999,"ADDRESS":"崇善十六街１２０號","OBJECTID":530038},"geometry":{"x":171272.60000000056,"y":2540417.6099999994}},{"attributes":{"ID":530066,"DIS_CODE":0,"TOWNNAME":"東區","LI":"大智里","LIN":"33鄰","STREET":"崇善十六街","SECT":" ","MAREA":" ","LANE":" ","ALLEY":" ","HOUSE_NO":"１２２號","E_COORD97":171260.98000000001,"N_COORD97":2540417.6099999999,"ADDRESS":"崇善十六街１２２號","OBJECTID":530039},"geometry":{"x":171260.98000000138,"y":2540417.6099999994}},{"attributes":{"ID":530067,"DIS_CODE":0,"TOWNNAME":"仁德區","LI":"仁德里","LIN":"33鄰","STREET":"文德路","SECT":" ","MAREA":" ","LANE":" ","ALLEY":" ","HOUSE_NO":"１３號","E_COORD97":172897.44,"N_COORD97":2541523.5699999998,"ADDRESS":"文德路１３號","OBJECTID":530040},"geometry":{"x":172897.44000000041,"y":2541523.5700000022}},{"attributes":{"ID":530068,"DIS_CODE":0,"TOWNNAME":"新化區","LI":"東榮里","LIN":"33鄰","STREET":"護安街","SECT":" ","MAREA":" ","LANE":" ","ALLEY":" ","HOUSE_NO":"６３號","E_COORD97":179204.28,"N_COORD97":2548365.2599999998,"ADDRESS":"護安街６３號","OBJECTID":530041},"geometry":{"x":179204.28000000026,"y":2548365.2600000035}},{"attributes":{"ID":530069,"DIS_CODE":0,"TOWNNAME":"西港區","LI":"慶安里","LIN":"33鄰","STREET":"新興街","SECT":" ","MAREA":" ","LANE":" ","ALLEY":" ","HOUSE_NO":"８號之７７","E_COORD97":168330.76999999999,"N_COORD97":2557478.4100000001,"ADDRESS":"新興街８號之７７","OBJECTID":530042},"geometry":{"x":168330.76999999955,"y":2557478.410000002}},{"attributes":{"ID":530070,"DIS_CODE":0,"TOWNNAME":"西港區","LI":"慶安里","LIN":"33鄰","STREET":"新興街","SECT":" ","MAREA":" ","LANE":" ","ALLEY":" ","HOUSE_NO":"８號之７８","E_COORD97":168333.59,"N_COORD97":2557464.2400000002,"ADDRESS":"新興街８號之７８","OBJECTID":530043},"geometry":{"x":168333.59000000078,"y":2557464.2400000002}},{"attributes":{"ID":530071,"DIS_CODE":0,"TOWNNAME":"西港區","LI":"慶安里","LIN":"33鄰","STREET":"新興街","SECT":" ","MAREA":" ","LANE":" ","ALLEY":" ","HOUSE_NO":"８號之８７","E_COORD97":168282.20999999999,"N_COORD97":2557539.75,"ADDRESS":"新興街８號之８７","OBJECTID":530044},"geometry":{"x":168282.20999999996,"y":2557539.7499999981}},{"attributes":{"ID":530072,"DIS_CODE":0,"TOWNNAME":"西港區","LI":"慶安里","LIN":"33鄰","STREET":"新興街","SECT":" ","MAREA":" ","LANE":" ","ALLEY":" ","HOUSE_NO":"８號之８８","E_COORD97":168281.73999999999,"N_COORD97":2557543.6200000001,"ADDRESS":"新興街８號之８８","OBJECTID":530045},"geometry":{"x":168281.74000000115,"y":2557543.6200000029}},{"attributes":{"ID":530073,"DIS_CODE":0,"TOWNNAME":"西港區","LI":"慶安里","LIN":"33鄰","STREET":"新興街","SECT":" ","MAREA":" ","LANE":" ","ALLEY":" ","HOUSE_NO":"８號之８９","E_COORD97":168280.66,"N_COORD97":2557548.3500000001,"ADDRESS":"新興街８號之８９","OBJECTID":530046},"geometry":{"x":168280.66000000108,"y":2557548.3499999996}},{"attributes":{"ID":530074,"DIS_CODE":0,"TOWNNAME":"西港區","LI":"慶安里","LIN":"33鄰","STREET":"新興街","SECT":" ","MAREA":" ","LANE":" ","ALLEY":" ","HOUSE_NO":"８號之９０","E_COORD97":168300.22,"N_COORD97":2557552.5499999998,"ADDRESS":"新興街８號之９０","OBJECTID":530047},"geometry":{"x":168300.22000000067,"y":2557552.5500000045}},{"attributes":{"ID":530075,"DIS_CODE":0,"TOWNNAME":"西港區","LI":"慶安里","LIN":"33鄰","STREET":"新興街","SECT":" ","MAREA":" ","LANE":" ","ALLEY":" ","HOUSE_NO":"８號之９１","E_COORD97":168307.84,"N_COORD97":2557554.1499999999,"ADDRESS":"新興街８號之９１","OBJECTID":530048},"geometry":{"x":168307.84000000078,"y":2557554.1500000004}},{"attributes":{"ID":530076,"DIS_CODE":0,"TOWNNAME":"西港區","LI":"慶安里","LIN":"33鄰","STREET":"新興街","SECT":" ","MAREA":" ","LANE":" ","ALLEY":" ","HOUSE_NO":"８號之９２","E_COORD97":168314.60000000001,"N_COORD97":2557555.8100000001,"ADDRESS":"新興街８號之９２","OBJECTID":530049},"geometry":{"x":168314.60000000056,"y":2557555.8100000005}},{"attributes":{"ID":530077,"DIS_CODE":0,"TOWNNAME":"西港區","LI":"慶安里","LIN":"33鄰","STREET":"新興街","SECT":" ","MAREA":" ","LANE":" ","ALLEY":" ","HOUSE_NO":"８號之９３","E_COORD97":168321.39000000001,"N_COORD97":2557557.2799999998,"ADDRESS":"新興街８號之９３","OBJECTID":530050},"geometry":{"x":168321.38999999966,"y":2557557.2800000012}},{"attributes":{"ID":530078,"DIS_CODE":0,"TOWNNAME":"西港區","LI":"慶安里","LIN":"33鄰","STREET":"新興街","SECT":" ","MAREA":" ","LANE":" ","ALLEY":" ","HOUSE_NO":"８號之９４","E_COORD97":168329.44,"N_COORD97":2557558.6499999999,"ADDRESS":"新興街８號之９４","OBJECTID":530051},"geometry":{"x":168329.44000000227,"y":2557558.6500000022}},{"attributes":{"ID":530079,"DIS_CODE":0,"TOWNNAME":"西港區","LI":"慶安里","LIN":"33鄰","STREET":"新興街","SECT":" ","MAREA":" ","LANE":" ","ALLEY":" ","HOUSE_NO":"８號之９５","E_COORD97":168336.37,"N_COORD97":2557560.0699999998,"ADDRESS":"新興街８號之９５","OBJECTID":530052},"geometry":{"x":168336.37000000197,"y":2557560.0700000022}},{"attributes":{"ID":530080,"DIS_CODE":0,"TOWNNAME":"西港區","LI":"慶安里","LIN":"33鄰","STREET":"新興街","SECT":" ","MAREA":" ","LANE":" ","ALLEY":" ","HOUSE_NO":"８號之９６","E_COORD97":168343.51000000001,"N_COORD97":2557561.73,"ADDRESS":"新興街８號之９６","OBJECTID":530053},"geometry":{"x":168343.51000000164,"y":2557561.7300000023}},{"attributes":{"ID":530081,"DIS_CODE":0,"TOWNNAME":"西港區","LI":"慶安里","LIN":"33鄰","STREET":"新興街","SECT":" ","MAREA":" ","LANE":" ","ALLEY":" ","HOUSE_NO":"８號之９７","E_COORD97":168351.01999999999,"N_COORD97":2557563.2400000002,"ADDRESS":"新興街８號之９７","OBJECTID":530054},"geometry":{"x":168351.01999999955,"y":2557563.2400000002}},{"attributes":{"ID":530082,"DIS_CODE":0,"TOWNNAME":"西港區","LI":"慶安里","LIN":"33鄰","STREET":"新興街","SECT":" ","MAREA":" ","LANE":" ","ALLEY":" ","HOUSE_NO":"８號之９８","E_COORD97":168357.98999999999,"N_COORD97":2557564.4500000002,"ADDRESS":"新興街８號之９８","OBJECTID":530055},"geometry":{"x":168357.99000000115,"y":2557564.4499999993}},{"attributes":{"ID":530083,"DIS_CODE":0,"TOWNNAME":"西港區","LI":"慶安里","LIN":"33鄰","STREET":"新興街","SECT":" ","MAREA":" ","LANE":" ","ALLEY":" ","HOUSE_NO":"８號之９９","E_COORD97":168364.62,"N_COORD97":2557566.0499999998,"ADDRESS":"新興街８號之９９","OBJECTID":530056},"geometry":{"x":168364.62000000011,"y":2557566.0500000045}},{"attributes":{"ID":530084,"DIS_CODE":0,"TOWNNAME":"永康區","LI":"埔園里","LIN":"33鄰","STREET":"自強路","SECT":" ","MAREA":" ","LANE":" ","ALLEY":" ","HOUSE_NO":"４５１號","E_COORD97":173856.57999999999,"N_COORD97":2548053.2400000002,"ADDRESS":"自強路４５１號","OBJECTID":530057},"geometry":{"x":173856.58000000101,"y":2548053.2400000002}},{"attributes":{"ID":530085,"DIS_CODE":0,"TOWNNAME":"永康區","LI":"埔園里","LIN":"33鄰","STREET":"自強路","SECT":" ","MAREA":" ","LANE":" ","ALLEY":" ","HOUSE_NO":"４５９號","E_COORD97":173869.44,"N_COORD97":2548063.5,"ADDRESS":"自強路４５９號","OBJECTID":530058},"geometry":{"x":173869.44000000134,"y":2548063.5000000019}},{"attributes":{"ID":530086,"DIS_CODE":0,"TOWNNAME":"永康區","LI":"埔園里","LIN":"33鄰","STREET":"自強路","SECT":" ","MAREA":" ","LANE":" ","ALLEY":" ","HOUSE_NO":"４７７號","E_COORD97":173897.98000000001,"N_COORD97":2548086.75,"ADDRESS":"自強路４７７號","OBJECTID":530059},"geometry":{"x":173897.98000000231,"y":2548086.75}},{"attributes":{"ID":530087,"DIS_CODE":0,"TOWNNAME":"永康區","LI":"西灣里","LIN":"33鄰","STREET":"永華路","SECT":" ","MAREA":" ","LANE":" ","ALLEY":" ","HOUSE_NO":"３９０號","E_COORD97":174060.44,"N_COORD97":2545866.98,"ADDRESS":"永華路３９０號","OBJECTID":530060},"geometry":{"x":174060.44000000041,"y":2545866.9800000023}},{"attributes":{"ID":530088,"DIS_CODE":0,"TOWNNAME":"永康區","LI":"西灣里","LIN":"33鄰","STREET":"永華路","SECT":" ","MAREA":" ","LANE":" ","ALLEY":" ","HOUSE_NO":"３８６號","E_COORD97":174062.79999999999,"N_COORD97":2545858.23,"ADDRESS":"永華路３８６號","OBJECTID":530061},"geometry":{"x":174062.80000000168,"y":2545858.2300000023}},{"attributes":{"ID":530089,"DIS_CODE":0,"TOWNNAME":"永康區","LI":"西灣里","LIN":"33鄰","STREET":"公園路","SECT":" ","MAREA":" ","LANE":" ","ALLEY":" ","HOUSE_NO":"１１９號","E_COORD97":174158.17999999999,"N_COORD97":2545939.9900000002,"ADDRESS":"公園路１１９號","OBJECTID":530062},"geometry":{"x":174158.1799999997,"y":2545939.9900000039}},{"attributes":{"ID":530090,"DIS_CODE":0,"TOWNNAME":"南區","LI":"金華里","LIN":"33鄰","STREET":"新孝路","SECT":" ","MAREA":" ","LANE":" ","ALLEY":" ","HOUSE_NO":"１７６號","E_COORD97":166451.91,"N_COORD97":2542088.8100000001,"ADDRESS":"新孝路１７６號","OBJECTID":530063},"geometry":{"x":166451.91000000108,"y":2542088.8100000005}},{"attributes":{"ID":530091,"DIS_CODE":0,"TOWNNAME":"南區","LI":"金華里","LIN":"33鄰","STREET":"新孝路","SECT":" ","MAREA":" ","LANE":" ","ALLEY":" ","HOUSE_NO":"１７８號","E_COORD97":166445.25,"N_COORD97":2542090.0800000001,"ADDRESS":"新孝路１７８號","OBJECTID":530064},"geometry":{"x":166445.25000000186,"y":2542090.0800000001}},{"attributes":{"ID":530092,"DIS_CODE":0,"TOWNNAME":"東區","LI":"後甲里","LIN":"33鄰","STREET":"小東路","SECT":" ","MAREA":" ","LANE":" ","ALLEY":" ","HOUSE_NO":"６０８號","E_COORD97":172055.17000000001,"N_COORD97":2544288.23,"ADDRESS":"小東路６０８號","OBJECTID":530065},"geometry":{"x":172055.17000000179,"y":2544288.2300000023}},{"attributes":{"ID":530093,"DIS_CODE":0,"TOWNNAME":"仁德區","LI":"仁義里","LIN":"33鄰","STREET":"中清五街","SECT":" ","MAREA":" ","LANE":" ","ALLEY":" ","HOUSE_NO":"４５號","E_COORD97":173422.60000000001,"N_COORD97":2541532.54,"ADDRESS":"中清五街４５號","OBJECTID":530066},"geometry":{"x":173422.59999999963,"y":2541532.540000001}},{"attributes":{"ID":530094,"DIS_CODE":0,"TOWNNAME":"仁德區","LI":"仁義里","LIN":"33鄰","STREET":"中清五街","SECT":" ","MAREA":" ","LANE":" ","ALLEY":" ","HOUSE_NO":"９６號","E_COORD97":173442.29999999999,"N_COORD97":2541531.79,"ADDRESS":"中清五街９６號","OBJECTID":530067},"geometry":{"x":173442.29999999888,"y":2541531.7899999991}},{"attributes":{"ID":530095,"DIS_CODE":0,"TOWNNAME":"仁德區","LI":"仁義里","LIN":"33鄰","STREET":"中清五街","SECT":" ","MAREA":" ","LANE":" ","ALLEY":" ","HOUSE_NO":"９０號","E_COORD97":173452.17000000001,"N_COORD97":2541531.54,"ADDRESS":"中清五街９０號","OBJECTID":530068},"geometry":{"x":173452.17000000086,"y":2541531.540000001}},{"attributes":{"ID":530096,"DIS_CODE":0,"TOWNNAME":"仁德區","LI":"仁義里","LIN":"33鄰","STREET":"中清五街","SECT":" ","MAREA":" ","LANE":" ","ALLEY":" ","HOUSE_NO":"７２號","E_COORD97":173440.29000000001,"N_COORD97":2541516.79,"ADDRESS":"中清五街７２號","OBJECTID":530069},"geometry":{"x":173440.29000000004,"y":2541516.790000001}},{"attributes":{"ID":530097,"DIS_CODE":0,"TOWNNAME":"仁德區","LI":"仁義里","LIN":"33鄰","STREET":"中清五街","SECT":" ","MAREA":" ","LANE":" ","ALLEY":" ","HOUSE_NO":"８２號","E_COORD97":173460.48000000001,"N_COORD97":2541514.54,"ADDRESS":"中清五街８２號","OBJECTID":530070},"geometry":{"x":173460.48000000231,"y":2541514.540000001}},{"attributes":{"ID":530098,"DIS_CODE":0,"TOWNNAME":"仁德區","LI":"仁義里","LIN":"33鄰","STREET":"中清五街","SECT":" ","MAREA":" ","LANE":" ","ALLEY":" ","HOUSE_NO":"８０號","E_COORD97":173455.35000000001,"N_COORD97":2541515.04,"ADDRESS":"中清五街８０號","OBJECTID":530071},"geometry":{"x":173455.3499999987,"y":2541515.040000001}},{"attributes":{"ID":530099,"DIS_CODE":0,"TOWNNAME":"仁德區","LI":"仁義里","LIN":"33鄰","STREET":"中清五街","SECT":" ","MAREA":" ","LANE":" ","ALLEY":" ","HOUSE_NO":"８６號","E_COORD97":173462.98000000001,"N_COORD97":2541530.29,"ADDRESS":"中清五街８６號","OBJECTID":530072},"geometry":{"x":173462.98000000138,"y":2541530.290000001}},{"attributes":{"ID":530100,"DIS_CODE":0,"TOWNNAME":"仁德區","LI":"仁義里","LIN":"33鄰","STREET":"中清五街","SECT":" ","MAREA":" ","LANE":" ","ALLEY":" ","HOUSE_NO":"３３號","E_COORD97":173410.39999999999,"N_COORD97":2541498.79,"ADDRESS":"中清五街３３號","OBJECTID":530073},"geometry":{"x":173410.4000000013,"y":2541498.7900000028}},{"attributes":{"ID":530101,"DIS_CODE":0,"TOWNNAME":"仁德區","LI":"仁義里","LIN":"33鄰","STREET":"中清五街","SECT":" ","MAREA":" ","LANE":" ","ALLEY":" ","HOUSE_NO":"７６號","E_COORD97":173445.39000000001,"N_COORD97":2541516.54,"ADDRESS":"中清五街７６號","OBJECTID":530074},"geometry":{"x":173445.3900000006,"y":2541516.5399999991}},{"attributes":{"ID":530102,"DIS_CODE":0,"TOWNNAME":"仁德區","LI":"仁義里","LIN":"33鄰","STREET":"中清五街","SECT":" ","MAREA":" ","LANE":" ","ALLEY":" ","HOUSE_NO":"４１號","E_COORD97":173417.89000000001,"N_COORD97":2541520.29,"ADDRESS":"中清五街４１號","OBJECTID":530075},"geometry":{"x":173417.89000000153,"y":2541520.290000001}},{"attributes":{"ID":530103,"DIS_CODE":0,"TOWNNAME":"仁德區","LI":"仁義里","LIN":"33鄰","STREET":"中清五街","SECT":" ","MAREA":" ","LANE":" ","ALLEY":" ","HOUSE_NO":"８８號","E_COORD97":173457.45999999999,"N_COORD97":2541530.79,"ADDRESS":"中清五街８８號","OBJECTID":530076},"geometry":{"x":173457.46000000089,"y":2541530.790000001}},{"attributes":{"ID":530104,"DIS_CODE":0,"TOWNNAME":"仁德區","LI":"仁義里","LIN":"33鄰","STREET":"中清五街","SECT":" ","MAREA":" ","LANE":" ","ALLEY":" ","HOUSE_NO":"７０號","E_COORD97":173435.04000000001,"N_COORD97":2541517.54,"ADDRESS":"中清五街７０號","OBJECTID":530077},"geometry":{"x":173435.04000000097,"y":2541517.5400000028}},{"attributes":{"ID":530105,"DIS_CODE":0,"TOWNNAME":"仁德區","LI":"仁義里","LIN":"33鄰","STREET":"正義二街","SECT":" ","MAREA":" ","LANE":" ","ALLEY":" ","HOUSE_NO":"２８號","E_COORD97":173465.13,"N_COORD97":2541549.27,"ADDRESS":"正義二街２８號","OBJECTID":530078},"geometry":{"x":173465.12999999989,"y":2541549.2699999996}},{"attributes":{"ID":530106,"DIS_CODE":0,"TOWNNAME":"仁德區","LI":"仁義里","LIN":"33鄰","STREET":"中清五街","SECT":" ","MAREA":" ","LANE":" ","ALLEY":" ","HOUSE_NO":"７８號","E_COORD97":173450.13,"N_COORD97":2541515.79,"ADDRESS":"中清五街７８號","OBJECTID":530079},"geometry":{"x":173450.12999999989,"y":2541515.7900000028}},{"attributes":{"ID":530107,"DIS_CODE":0,"TOWNNAME":"仁德區","LI":"仁義里","LIN":"33鄰","STREET":"正義二街","SECT":" ","MAREA":" ","LANE":" ","ALLEY":" ","HOUSE_NO":"８號","E_COORD97":173410.56,"N_COORD97":2541549.27,"ADDRESS":"正義二街８號","OBJECTID":530080},"geometry":{"x":173410.56000000052,"y":2541549.2699999996}},{"attributes":{"ID":530108,"DIS_CODE":0,"TOWNNAME":"仁德區","LI":"仁義里","LIN":"33鄰","STREET":"正義二街","SECT":" ","MAREA":" ","LANE":" ","ALLEY":" ","HOUSE_NO":"１２號","E_COORD97":173420.79000000001,"N_COORD97":2541549.02,"ADDRESS":"正義二街１２號","OBJECTID":530081},"geometry":{"x":173420.7900000019,"y":2541549.0200000014}},{"attributes":{"ID":530109,"DIS_CODE":0,"TOWNNAME":"仁德區","LI":"仁義里","LIN":"33鄰","STREET":"正義二街","SECT":" ","MAREA":" ","LANE":" ","ALLEY":" ","HOUSE_NO":"２之１號","E_COORD97":173404.25,"N_COORD97":2541549.2999999998,"ADDRESS":"正義二街２之１號","OBJECTID":530082},"geometry":{"x":173404.25000000093,"y":2541549.3000000026}},{"attributes":{"ID":530110,"DIS_CODE":0,"TOWNNAME":"仁德區","LI":"仁義里","LIN":"33鄰","STREET":"正義二街","SECT":" ","MAREA":" ","LANE":" ","ALLEY":" ","HOUSE_NO":"１０號","E_COORD97":173416.23000000001,"N_COORD97":2541549.02,"ADDRESS":"正義二街１０號","OBJECTID":530083},"geometry":{"x":173416.23000000045,"y":2541549.0200000014}},{"attributes":{"ID":530111,"DIS_CODE":0,"TOWNNAME":"仁德區","LI":"仁義里","LIN":"33鄰","STREET":"中清五街","SECT":" ","MAREA":" ","LANE":" ","ALLEY":" ","HOUSE_NO":"４３號","E_COORD97":173420.60000000001,"N_COORD97":2541528.29,"ADDRESS":"中清五街４３號","OBJECTID":530084},"geometry":{"x":173420.60000000056,"y":2541528.2899999991}},{"attributes":{"ID":530112,"DIS_CODE":0,"TOWNNAME":"永康區","LI":"\u25A0行里","LIN":"33鄰","STREET":"中正北路","SECT":" ","MAREA":" ","LANE":" ","ALLEY":" ","HOUSE_NO":"２１號","E_COORD97":171910.07999999999,"N_COORD97":2549089.8199999998,"ADDRESS":"中正北路２１號","OBJECTID":530085},"geometry":{"x":171910.08000000194,"y":2549089.8200000003}},{"attributes":{"ID":530113,"DIS_CODE":0,"TOWNNAME":"永康區","LI":"\u25A0行里","LIN":"33鄰","STREET":"中正北路","SECT":" ","MAREA":" ","LANE":" ","ALLEY":" ","HOUSE_NO":"３７號之４","E_COORD97":171965.57999999999,"N_COORD97":2549095.6200000001,"ADDRESS":"中正北路３７號之４","OBJECTID":530086},"geometry":{"x":171965.58000000007,"y":2549095.620000001}},{"attributes":{"ID":530114,"DIS_CODE":0,"TOWNNAME":"永康區","LI":"\u25A0行里","LIN":"33鄰","STREET":"中正北路","SECT":" ","MAREA":" ","LANE":" ","ALLEY":" ","HOUSE_NO":"３９號","E_COORD97":171999.26999999999,"N_COORD97":2549095.2000000002,"ADDRESS":"中正北路３９號","OBJECTID":530087},"geometry":{"x":171999.26999999955,"y":2549095.2000000011}},{"attributes":{"ID":530115,"DIS_CODE":0,"TOWNNAME":"永康區","LI":"\u25A0行里","LIN":"33鄰","STREET":"中正北路","SECT":" ","MAREA":" ","LANE":" ","ALLEY":" ","HOUSE_NO":"２３號","E_COORD97":171914.72,"N_COORD97":2549090.8199999998,"ADDRESS":"中正北路２３號","OBJECTID":530088},"geometry":{"x":171914.71999999974,"y":2549090.8199999984}},{"attributes":{"ID":530116,"DIS_CODE":0,"TOWNNAME":"永康區","LI":"龍潭里","LIN":"33鄰","STREET":"龍國街","SECT":" ","MAREA":" ","LANE":" ","ALLEY":" ","HOUSE_NO":"２４８號","E_COORD97":174496.98999999999,"N_COORD97":2548029.6200000001,"ADDRESS":"龍國街２４８號","OBJECTID":530089},"geometry":{"x":174496.99000000022,"y":2548029.6200000029}},{"attributes":{"ID":530117,"DIS_CODE":0,"TOWNNAME":"永康區","LI":"龍潭里","LIN":"33鄰","STREET":"龍國街","SECT":" ","MAREA":" ","LANE":" ","ALLEY":" ","HOUSE_NO":"２６０號","E_COORD97":174518.19,"N_COORD97":2548026.8700000001,"ADDRESS":"龍國街２６０號","OBJECTID":530090},"geometry":{"x":174518.19000000041,"y":2548026.8700000048}},{"attributes":{"ID":530118,"DIS_CODE":0,"TOWNNAME":"新化區","LI":"東榮里","LIN":"33鄰","STREET":"信義路","SECT":" ","MAREA":" ","LANE":" ","ALLEY":" ","HOUSE_NO":"２０６號","E_COORD97":179165.53,"N_COORD97":2548341.25,"ADDRESS":"信義路２０６號","OBJECTID":530091},"geometry":{"x":179165.53000000026,"y":2548341.25}},{"attributes":{"ID":530119,"DIS_CODE":0,"TOWNNAME":"新化區","LI":"東榮里","LIN":"33鄰","STREET":"護安街","SECT":" ","MAREA":" ","LANE":" ","ALLEY":" ","HOUSE_NO":"７５號之１","E_COORD97":179179.70999999999,"N_COORD97":2548371.2599999998,"ADDRESS":"護安街７５號之１","OBJECTID":530092},"geometry":{"x":179179.71000000183,"y":2548371.2599999998}},{"attributes":{"ID":530120,"DIS_CODE":0,"TOWNNAME":"新化區","LI":"東榮里","LIN":"33鄰","STREET":"信義路","SECT":" ","MAREA":" ","LANE":" ","ALLEY":" ","HOUSE_NO":"２０８號","E_COORD97":179159.53,"N_COORD97":2548340.25,"ADDRESS":"信義路２０８號","OBJECTID":530093},"geometry":{"x":179159.53000000119,"y":2548340.25}},{"attributes":{"ID":530121,"DIS_CODE":0,"TOWNNAME":"新化區","LI":"東榮里","LIN":"33鄰","STREET":"護安街","SECT":" ","MAREA":" ","LANE":" ","ALLEY":" ","HOUSE_NO":"６５號","E_COORD97":179203.57999999999,"N_COORD97":2548368.2599999998,"ADDRESS":"護安街６５號","OBJECTID":530094},"geometry":{"x":179203.58000000101,"y":2548368.2599999998}},{"attributes":{"ID":530122,"DIS_CODE":0,"TOWNNAME":"東區","LI":"崇誨里","LIN":"33鄰","STREET":"林森路","SECT":"二段","MAREA":" ","LANE":" ","ALLEY":" ","HOUSE_NO":"２３０號","E_COORD97":170514.48000000001,"N_COORD97":2543452.21,"ADDRESS":"林森路二段２３０號","OBJECTID":530095},"geometry":{"x":170514.48000000138,"y":2543452.2100000028}},{"attributes":{"ID":530123,"DIS_CODE":0,"TOWNNAME":"東區","LI":"崇誨里","LIN":"33鄰","STREET":"林森路","SECT":"二段","MAREA":" ","LANE":" ","ALLEY":" ","HOUSE_NO":"２３２號","E_COORD97":170517.17999999999,"N_COORD97":2543458.04,"ADDRESS":"林森路二段２３２號","OBJECTID":530096},"geometry":{"x":170517.18000000156,"y":2543458.040000001}},{"attributes":{"ID":530124,"DIS_CODE":0,"TOWNNAME":"東區","LI":"崇誨里","LIN":"33鄰","STREET":"林森路","SECT":"二段","MAREA":" ","LANE":" ","ALLEY":" ","HOUSE_NO":"２３８號之１０","E_COORD97":170500.12,"N_COORD97":2543454.71,"ADDRESS":"林森路二段２３８號之１０","OBJECTID":530097},"geometry":{"x":170500.12000000104,"y":2543454.7100000028}},{"attributes":{"ID":530125,"DIS_CODE":0,"TOWNNAME":"東區","LI":"崇誨里","LIN":"33鄰","STREET":"林森路","SECT":"二段","MAREA":" ","LANE":" ","ALLEY":" ","HOUSE_NO":"２４０號之１","E_COORD97":170501.98999999999,"N_COORD97":2543461.1600000001,"ADDRESS":"林森路二段２４０號之１","OBJECTID":530098},"geometry":{"x":170501.98999999929,"y":2543461.160000002}},{"attributes":{"ID":530126,"DIS_CODE":0,"TOWNNAME":"東區","LI":"中西里","LIN":"33鄰","STREET":"林森路","SECT":"二段","MAREA":" ","LANE":" ","ALLEY":" ","HOUSE_NO":"１１５號之１","E_COORD97":170413.5,"N_COORD97":2543423.71,"ADDRESS":"林森路二段１１５號之１","OBJECTID":530099},"geometry":{"x":170413.5,"y":2543423.7100000046}},{"attributes":{"ID":530127,"DIS_CODE":0,"TOWNNAME":"東區","LI":"中西里","LIN":"33鄰","STREET":"林森路","SECT":"二段","MAREA":" ","LANE":" ","ALLEY":" ","HOUSE_NO":"１１５號之２","E_COORD97":170413.5,"N_COORD97":2543423.71,"ADDRESS":"林森路二段１１５號之２","OBJECTID":530100},"geometry":{"x":170413.5,"y":2543423.7100000046}},{"attributes":{"ID":530128,"DIS_CODE":0,"TOWNNAME":"東區","LI":"中西里","LIN":"33鄰","STREET":"林森路","SECT":"二段","MAREA":" ","LANE":" ","ALLEY":" ","HOUSE_NO":"１１５號之３","E_COORD97":170413.5,"N_COORD97":2543423.71,"ADDRESS":"林森路二段１１５號之３","OBJECTID":530101},"geometry":{"x":170413.5,"y":2543423.7100000046}},{"attributes":{"ID":530129,"DIS_CODE":0,"TOWNNAME":"東區","LI":"中西里","LIN":"33鄰","STREET":"林森路","SECT":"二段","MAREA":" ","LANE":" ","ALLEY":" ","HOUSE_NO":"１１５號之４","E_COORD97":170413.5,"N_COORD97":2543423.71,"ADDRESS":"林森路二段１１５號之４","OBJECTID":530102},"geometry":{"x":170413.5,"y":2543423.7100000046}},{"attributes":{"ID":530130,"DIS_CODE":0,"TOWNNAME":"東區","LI":"中西里","LIN":"33鄰","STREET":"林森路","SECT":"二段","MAREA":" ","LANE":" ","ALLEY":" ","HOUSE_NO":"１１５號之５","E_COORD97":170413.5,"N_COORD97":2543423.71,"ADDRESS":"林森路二段１１５號之５","OBJECTID":530103},"geometry":{"x":170413.5,"y":2543423.7100000046}},{"attributes":{"ID":530131,"DIS_CODE":0,"TOWNNAME":"東區","LI":"中西里","LIN":"33鄰","STREET":"林森路","SECT":"二段","MAREA":" ","LANE":" ","ALLEY":" ","HOUSE_NO":"１１５號之６","E_COORD97":170413.5,"N_COORD97":2543423.71,"ADDRESS":"林森路二段１１５號之６","OBJECTID":530104},"geometry":{"x":170413.5,"y":2543423.7100000046}},{"attributes":{"ID":530132,"DIS_CODE":0,"TOWNNAME":"東區","LI":"中西里","LIN":"33鄰","STREET":"林森路","SECT":"二段","MAREA":" ","LANE":" ","ALLEY":" ","HOUSE_NO":"１１５號之７","E_COORD97":170413.5,"N_COORD97":2543423.71,"ADDRESS":"林森路二段１１５號之７","OBJECTID":530105},"geometry":{"x":170413.5,"y":2543423.7100000046}},{"attributes":{"ID":530133,"DIS_CODE":0,"TOWNNAME":"東區","LI":"中西里","LIN":"33鄰","STREET":"林森路","SECT":"二段","MAREA":" ","LANE":" ","ALLEY":" ","HOUSE_NO":"１１５號之８","E_COORD97":170413.5,"N_COORD97":2543423.71,"ADDRESS":"林森路二段１１５號之８","OBJECTID":530106},"geometry":{"x":170413.5,"y":2543423.7100000046}},{"attributes":{"ID":530134,"DIS_CODE":0,"TOWNNAME":"東區","LI":"中西里","LIN":"33鄰","STREET":"林森路","SECT":"二段","MAREA":" ","LANE":" ","ALLEY":" ","HOUSE_NO":"１１５號之９","E_COORD97":170413.5,"N_COORD97":2543423.71,"ADDRESS":"林森路二段１１５號之９","OBJECTID":530107},"geometry":{"x":170413.5,"y":2543423.7100000046}},{"attributes":{"ID":530135,"DIS_CODE":0,"TOWNNAME":"東區","LI":"中西里","LIN":"33鄰","STREET":"林森路","SECT":"二段","MAREA":" ","LANE":" ","ALLEY":" ","HOUSE_NO":"１１５號之１０","E_COORD97":170413.5,"N_COORD97":2543423.71,"ADDRESS":"林森路二段１１５號之１０","OBJECTID":530108},"geometry":{"x":170413.5,"y":2543423.7100000046}},{"attributes":{"ID":530136,"DIS_CODE":0,"TOWNNAME":"東區","LI":"中西里","LIN":"33鄰","STREET":"林森路","SECT":"二段","MAREA":" ","LANE":" ","ALLEY":" ","HOUSE_NO":"１１５號之１１","E_COORD97":170413.5,"N_COORD97":2543423.71,"ADDRESS":"林森路二段１１５號之１１","OBJECTID":530109},"geometry":{"x":170413.5,"y":2543423.7100000046}},{"attributes":{"ID":530137,"DIS_CODE":0,"TOWNNAME":"東區","LI":"中西里","LIN":"33鄰","STREET":"林森路","SECT":"二段","MAREA":" ","LANE":" ","ALLEY":" ","HOUSE_NO":"１１７號之１","E_COORD97":170413.5,"N_COORD97":2543423.71,"ADDRESS":"林森路二段１１７號之１","OBJECTID":530110},"geometry":{"x":170413.5,"y":2543423.7100000046}},{"attributes":{"ID":530138,"DIS_CODE":0,"TOWNNAME":"東區","LI":"中西里","LIN":"33鄰","STREET":"林森路","SECT":"二段","MAREA":" ","LANE":" ","ALLEY":" ","HOUSE_NO":"１１７號之２","E_COORD97":170413.5,"N_COORD97":2543423.71,"ADDRESS":"林森路二段１１７號之２","OBJECTID":530111},"geometry":{"x":170413.5,"y":2543423.7100000046}},{"attributes":{"ID":530139,"DIS_CODE":0,"TOWNNAME":"東區","LI":"中西里","LIN":"33鄰","STREET":"林森路","SECT":"二段","MAREA":" ","LANE":" ","ALLEY":" ","HOUSE_NO":"１１７號之３","E_COORD97":170413.5,"N_COORD97":2543423.71,"ADDRESS":"林森路二段１１７號之３","OBJECTID":530112},"geometry":{"x":170413.5,"y":2543423.7100000046}},{"attributes":{"ID":530140,"DIS_CODE":0,"TOWNNAME":"東區","LI":"中西里","LIN":"33鄰","STREET":"林森路","SECT":"二段","MAREA":" ","LANE":" ","ALLEY":" ","HOUSE_NO":"１１７號之４","E_COORD97":170413.5,"N_COORD97":2543423.71,"ADDRESS":"林森路二段１１７號之４","OBJECTID":530113},"geometry":{"x":170413.5,"y":2543423.7100000046}},{"attributes":{"ID":530141,"DIS_CODE":0,"TOWNNAME":"東區","LI":"中西里","LIN":"33鄰","STREET":"林森路","SECT":"二段","MAREA":" ","LANE":" ","ALLEY":" ","HOUSE_NO":"１１７號之５","E_COORD97":170413.5,"N_COORD97":2543423.71,"ADDRESS":"林森路二段１１７號之５","OBJECTID":530114},"geometry":{"x":170413.5,"y":2543423.7100000046}},{"attributes":{"ID":530142,"DIS_CODE":0,"TOWNNAME":"東區","LI":"中西里","LIN":"33鄰","STREET":"林森路","SECT":"二段","MAREA":" ","LANE":" ","ALLEY":" ","HOUSE_NO":"１１７號之６","E_COORD97":170413.5,"N_COORD97":2543423.71,"ADDRESS":"林森路二段１１７號之６","OBJECTID":530115},"geometry":{"x":170413.5,"y":2543423.7100000046}},{"attributes":{"ID":530143,"DIS_CODE":0,"TOWNNAME":"東區","LI":"中西里","LIN":"33鄰","STREET":"林森路","SECT":"二段","MAREA":" ","LANE":" ","ALLEY":" ","HOUSE_NO":"１１７號之７","E_COORD97":170413.5,"N_COORD97":2543423.71,"ADDRESS":"林森路二段１１７號之７","OBJECTID":530116},"geometry":{"x":170413.5,"y":2543423.7100000046}},{"attributes":{"ID":530144,"DIS_CODE":0,"TOWNNAME":"東區","LI":"中西里","LIN":"33鄰","STREET":"林森路","SECT":"二段","MAREA":" ","LANE":" ","ALLEY":" ","HOUSE_NO":"１１７號之８","E_COORD97":170413.5,"N_COORD97":2543423.71,"ADDRESS":"林森路二段１１７號之８","OBJECTID":530117},"geometry":{"x":170413.5,"y":2543423.7100000046}},{"attributes":{"ID":530145,"DIS_CODE":0,"TOWNNAME":"東區","LI":"中西里","LIN":"33鄰","STREET":"林森路","SECT":"二段","MAREA":" ","LANE":" ","ALLEY":" ","HOUSE_NO":"１１７號之９","E_COORD97":170413.5,"N_COORD97":2543423.71,"ADDRESS":"林森路二段１１７號之９","OBJECTID":530118},"geometry":{"x":170413.5,"y":2543423.7100000046}},{"attributes":{"ID":530146,"DIS_CODE":0,"TOWNNAME":"東區","LI":"中西里","LIN":"33鄰","STREET":"林森路","SECT":"二段","MAREA":" ","LANE":" ","ALLEY":" ","HOUSE_NO":"１１７號之１０","E_COORD97":170413.5,"N_COORD97":2543423.71,"ADDRESS":"林森路二段１１７號之１０","OBJECTID":530119},"geometry":{"x":170413.5,"y":2543423.7100000046}},{"attributes":{"ID":530147,"DIS_CODE":0,"TOWNNAME":"東區","LI":"中西里","LIN":"33鄰","STREET":"林森路","SECT":"二段","MAREA":" ","LANE":" ","ALLEY":" ","HOUSE_NO":"１１７號之１１","E_COORD97":170413.5,"N_COORD97":2543423.71,"ADDRESS":"林森路二段１１７號之１１","OBJECTID":530120},"geometry":{"x":170413.5,"y":2543423.7100000046}},{"attributes":{"ID":530148,"DIS_CODE":0,"TOWNNAME":"東區","LI":"中西里","LIN":"33鄰","STREET":"林森路","SECT":"二段","MAREA":" ","LANE":" ","ALLEY":" ","HOUSE_NO":"１１９號之１","E_COORD97":170413.5,"N_COORD97":2543423.71,"ADDRESS":"林森路二段１１９號之１","OBJECTID":530121},"geometry":{"x":170413.5,"y":2543423.7100000046}},{"attributes":{"ID":530149,"DIS_CODE":0,"TOWNNAME":"東區","LI":"中西里","LIN":"33鄰","STREET":"林森路","SECT":"二段","MAREA":" ","LANE":" ","ALLEY":" ","HOUSE_NO":"１１９號之２","E_COORD97":170413.5,"N_COORD97":2543423.71,"ADDRESS":"林森路二段１１９號之２","OBJECTID":530122},"geometry":{"x":170413.5,"y":2543423.7100000046}},{"attributes":{"ID":530150,"DIS_CODE":0,"TOWNNAME":"東區","LI":"中西里","LIN":"33鄰","STREET":"林森路","SECT":"二段","MAREA":" ","LANE":" ","ALLEY":" ","HOUSE_NO":"１１９號之３","E_COORD97":170413.5,"N_COORD97":2543423.71,"ADDRESS":"林森路二段１１９號之３","OBJECTID":530123},"geometry":{"x":170413.5,"y":2543423.7100000046}},{"attributes":{"ID":530151,"DIS_CODE":0,"TOWNNAME":"東區","LI":"中西里","LIN":"33鄰","STREET":"林森路","SECT":"二段","MAREA":" ","LANE":" ","ALLEY":" ","HOUSE_NO":"１１９號之４","E_COORD97":170413.5,"N_COORD97":2543423.71,"ADDRESS":"林森路二段１１９號之４","OBJECTID":530124},"geometry":{"x":170413.5,"y":2543423.7100000046}},{"attributes":{"ID":530152,"DIS_CODE":0,"TOWNNAME":"東區","LI":"中西里","LIN":"33鄰","STREET":"林森路","SECT":"二段","MAREA":" ","LANE":" ","ALLEY":" ","HOUSE_NO":"１１９號之５","E_COORD97":170413.5,"N_COORD97":2543423.71,"ADDRESS":"林森路二段１１９號之５","OBJECTID":530125},"geometry":{"x":170413.5,"y":2543423.7100000046}},{"attributes":{"ID":530153,"DIS_CODE":0,"TOWNNAME":"永康區","LI":"西灣里","LIN":"33鄰","STREET":"公園路","SECT":" ","MAREA":" ","LANE":" ","ALLEY":" ","HOUSE_NO":"１５３號","E_COORD97":174076.88,"N_COORD97":2545919.8900000001,"ADDRESS":"公園路１５３號","OBJECTID":530126},"geometry":{"x":174076.87999999989,"y":2545919.8900000006}},{"attributes":{"ID":530154,"DIS_CODE":0,"TOWNNAME":"東區","LI":"中西里","LIN":"33鄰","STREET":"林森路","SECT":"二段","MAREA":" ","LANE":" ","ALLEY":" ","HOUSE_NO":"１１９號之１１","E_COORD97":170413.5,"N_COORD97":2543423.71,"ADDRESS":"林森路二段１１９號之１１","OBJECTID":530127},"geometry":{"x":170413.5,"y":2543423.7100000046}},{"attributes":{"ID":530155,"DIS_CODE":0,"TOWNNAME":"永康區","LI":"西灣里","LIN":"33鄰","STREET":"公園路","SECT":" ","MAREA":" ","LANE":" ","ALLEY":" ","HOUSE_NO":"１３１號","E_COORD97":174132.42999999999,"N_COORD97":2545933.5,"ADDRESS":"公園路１３１號","OBJECTID":530128},"geometry":{"x":174132.4299999997,"y":2545933.5000000019}},{"attributes":{"ID":530156,"DIS_CODE":0,"TOWNNAME":"永康區","LI":"西灣里","LIN":"33鄰","STREET":"公園路","SECT":" ","MAREA":" ","LANE":" ","ALLEY":" ","HOUSE_NO":"１２９號","E_COORD97":174136.57000000001,"N_COORD97":2545934.5,"ADDRESS":"公園路１２９號","OBJECTID":530129},"geometry":{"x":174136.57000000123,"y":2545934.5000000019}},{"attributes":{"ID":530157,"DIS_CODE":0,"TOWNNAME":"永康區","LI":"西灣里","LIN":"33鄰","STREET":"永華路","SECT":" ","MAREA":" ","LANE":" ","ALLEY":" ","HOUSE_NO":"３８４號","E_COORD97":174063.95999999999,"N_COORD97":2545853.73,"ADDRESS":"永華路３８４號","OBJECTID":530130},"geometry":{"x":174063.96000000089,"y":2545853.7299999986}},{"attributes":{"ID":530158,"DIS_CODE":0,"TOWNNAME":"永康區","LI":"西灣里","LIN":"33鄰","STREET":"公園路","SECT":" ","MAREA":" ","LANE":" ","ALLEY":" ","HOUSE_NO":"１４９號","E_COORD97":174095.60999999999,"N_COORD97":2545921.9199999999,"ADDRESS":"公園路１４９號","OBJECTID":530131},"geometry":{"x":174095.61000000127,"y":2545921.9199999999}},{"attributes":{"ID":530159,"DIS_CODE":0,"TOWNNAME":"永康區","LI":"\u25A0行里","LIN":"33鄰","STREET":"中正北路","SECT":" ","MAREA":" ","LANE":" ","ALLEY":" ","HOUSE_NO":"３１號","E_COORD97":171932.29000000001,"N_COORD97":2549093.5699999998,"ADDRESS":"中正北路３１號","OBJECTID":530132},"geometry":{"x":171932.2900000019,"y":2549093.5700000022}},{"attributes":{"ID":530160,"DIS_CODE":0,"TOWNNAME":"永康區","LI":"龍潭里","LIN":"33鄰","STREET":"龍國街","SECT":" ","MAREA":" ","LANE":" ","ALLEY":" ","HOUSE_NO":"２５６號","E_COORD97":174509.60000000001,"N_COORD97":2548027.8700000001,"ADDRESS":"龍國街２５６號","OBJECTID":530133},"geometry":{"x":174509.59999999963,"y":2548027.8700000029}},{"attributes":{"ID":530161,"DIS_CODE":0,"TOWNNAME":"仁德區","LI":"太子里","LIN":"33鄰","STREET":"太子三街","SECT":" ","MAREA":" ","LANE":" ","ALLEY":" ","HOUSE_NO":"１３號","E_COORD97":174034.54999999999,"N_COORD97":2543458.25,"ADDRESS":"太子三街１３號","OBJECTID":530134},"geometry":{"x":174034.55000000075,"y":2543458.25}},{"attributes":{"ID":530162,"DIS_CODE":0,"TOWNNAME":"仁德區","LI":"太子里","LIN":"33鄰","STREET":"太子三街","SECT":" ","MAREA":" ","LANE":" ","ALLEY":" ","HOUSE_NO":"１７號","E_COORD97":174045.32999999999,"N_COORD97":2543392.5,"ADDRESS":"太子三街１７號","OBJECTID":530135},"geometry":{"x":174045.33000000007,"y":2543392.5}},{"attributes":{"ID":530163,"DIS_CODE":0,"TOWNNAME":"仁德區","LI":"太子里","LIN":"33鄰","STREET":"太子三街","SECT":" ","MAREA":" ","LANE":" ","ALLEY":" ","HOUSE_NO":"１７號之１","E_COORD97":174028.73999999999,"N_COORD97":2543415.2999999998,"ADDRESS":"太子三街１７號之１","OBJECTID":530136},"geometry":{"x":174028.74000000115,"y":2543415.3000000007}},{"attributes":{"ID":530164,"DIS_CODE":0,"TOWNNAME":"仁德區","LI":"仁義里","LIN":"33鄰","STREET":"正義路","SECT":" ","MAREA":" ","LANE":" ","ALLEY":" ","HOUSE_NO":"６號","E_COORD97":173357.31,"N_COORD97":2541457.27,"ADDRESS":"正義路６號","OBJECTID":530137},"geometry":{"x":173357.31000000145,"y":2541457.2699999996}},{"attributes":{"ID":530165,"DIS_CODE":0,"TOWNNAME":"仁德區","LI":"仁德里","LIN":"33鄰","STREET":"中山路","SECT":" ","MAREA":" ","LANE":" ","ALLEY":" ","HOUSE_NO":"７１０號","E_COORD97":172780.32999999999,"N_COORD97":2541503.4900000002,"ADDRESS":"中山路７１０號","OBJECTID":530138},"geometry":{"x":172780.33000000101,"y":2541503.4900000021}},{"attributes":{"ID":530166,"DIS_CODE":0,"TOWNNAME":"仁德區","LI":"仁德里","LIN":"33鄰","STREET":"中山路","SECT":" ","MAREA":" ","LANE":" ","ALLEY":" ","HOUSE_NO":"６９２號","E_COORD97":172815.57000000001,"N_COORD97":2541491.2400000002,"ADDRESS":"中山路６９２號","OBJECTID":530139},"geometry":{"x":172815.57000000216,"y":2541491.2400000021}},{"attributes":{"ID":530167,"DIS_CODE":0,"TOWNNAME":"仁德區","LI":"仁德里","LIN":"33鄰","STREET":"中山路","SECT":" ","MAREA":" ","LANE":" ","ALLEY":" ","HOUSE_NO":"６６８之１號","E_COORD97":172884.70999999999,"N_COORD97":2541469.7999999998,"ADDRESS":"中山路６６８之１號","OBJECTID":530140},"geometry":{"x":172884.70999999996,"y":2541469.7999999989}},{"attributes":{"ID":530168,"DIS_CODE":0,"TOWNNAME":"仁德區","LI":"仁德里","LIN":"33鄰","STREET":"中山路","SECT":" ","MAREA":" ","LANE":" ","ALLEY":" ","HOUSE_NO":"７０４號","E_COORD97":172794.51999999999,"N_COORD97":2541498.4900000002,"ADDRESS":"中山路７０４號","OBJECTID":530141},"geometry":{"x":172794.51999999955,"y":2541498.4899999984}},{"attributes":{"ID":530169,"DIS_CODE":0,"TOWNNAME":"仁德區","LI":"仁德里","LIN":"33鄰","STREET":"中山路","SECT":" ","MAREA":" ","LANE":" ","ALLEY":" ","HOUSE_NO":"６６４號","E_COORD97":172895.95999999999,"N_COORD97":2541466.25,"ADDRESS":"中山路６６４號","OBJECTID":530142},"geometry":{"x":172895.96000000089,"y":2541466.2500000037}},{"attributes":{"ID":530170,"DIS_CODE":0,"TOWNNAME":"仁德區","LI":"仁德里","LIN":"33鄰","STREET":"中山路","SECT":" ","MAREA":" ","LANE":" ","ALLEY":" ","HOUSE_NO":"７１４號","E_COORD97":172770.84,"N_COORD97":2541504.9900000002,"ADDRESS":"中山路７１４號","OBJECTID":530143},"geometry":{"x":172770.84000000171,"y":2541504.9900000002}},{"attributes":{"ID":530171,"DIS_CODE":0,"TOWNNAME":"仁德區","LI":"仁德里","LIN":"33鄰","STREET":"中山路","SECT":" ","MAREA":" ","LANE":" ","ALLEY":" ","HOUSE_NO":"７０２號","E_COORD97":172798.07000000001,"N_COORD97":2541497.4900000002,"ADDRESS":"中山路７０２號","OBJECTID":530144},"geometry":{"x":172798.0700000003,"y":2541497.4900000002}},{"attributes":{"ID":530172,"DIS_CODE":0,"TOWNNAME":"東區","LI":"泉南里","LIN":"33鄰","STREET":"府連路","SECT":" ","MAREA":" ","LANE":" ","ALLEY":" ","HOUSE_NO":"３２８號","E_COORD97":169586.48999999999,"N_COORD97":2542827.2799999998,"ADDRESS":"府連路３２８號","OBJECTID":530145},"geometry":{"x":169586.49000000022,"y":2542827.2799999993}},{"attributes":{"ID":530173,"DIS_CODE":0,"TOWNNAME":"東區","LI":"小東里","LIN":"33鄰","STREET":"東平路","SECT":" ","MAREA":" ","LANE":" ","ALLEY":" ","HOUSE_NO":"１１４號","E_COORD97":171105.10999999999,"N_COORD97":2543974.5800000001,"ADDRESS":"東平路１１４號","OBJECTID":530146},"geometry":{"x":171105.11000000127,"y":2543974.5800000019}},{"attributes":{"ID":530174,"DIS_CODE":0,"TOWNNAME":"東區","LI":"小東里","LIN":"33鄰","STREET":"東平路","SECT":" ","MAREA":" ","LANE":" ","ALLEY":" ","HOUSE_NO":"１１２號","E_COORD97":171109.25,"N_COORD97":2543974.3199999998,"ADDRESS":"東平路１１２號","OBJECTID":530147},"geometry":{"x":171109.25000000093,"y":2543974.3200000003}},{"attributes":{"ID":530175,"DIS_CODE":0,"TOWNNAME":"永康區","LI":"正強里","LIN":"33鄰","STREET":"四維街","SECT":" ","MAREA":" ","LANE":" ","ALLEY":" ","HOUSE_NO":"９３號","E_COORD97":173357.53,"N_COORD97":2548173.75,"ADDRESS":"四維街９３號","OBJECTID":530148},"geometry":{"x":173357.53000000026,"y":2548173.7500000019}},{"attributes":{"ID":530176,"DIS_CODE":0,"TOWNNAME":"永康區","LI":"\u25A0洲里","LIN":"33鄰","STREET":"洲尾街","SECT":" ","MAREA":" ","LANE":" ","ALLEY":" ","HOUSE_NO":"７８號","E_COORD97":170911.20999999999,"N_COORD97":2548934.9199999999,"ADDRESS":"洲尾街７８號","OBJECTID":530149},"geometry":{"x":170911.21000000089,"y":2548934.9200000018}},{"attributes":{"ID":530177,"DIS_CODE":0,"TOWNNAME":"永康區","LI":"\u25A0洲里","LIN":"33鄰","STREET":"洲尾街","SECT":" ","MAREA":" ","LANE":" ","ALLEY":" ","HOUSE_NO":"８８號","E_COORD97":170918.54000000001,"N_COORD97":2548988.7999999998,"ADDRESS":"洲尾街８８號","OBJECTID":530150},"geometry":{"x":170918.5400000019,"y":2548988.8000000007}},{"attributes":{"ID":530178,"DIS_CODE":0,"TOWNNAME":"永康區","LI":"\u25A0洲里","LIN":"33鄰","STREET":"洲尾街","SECT":" ","MAREA":" ","LANE":" ","ALLEY":" ","HOUSE_NO":"１２４號","E_COORD97":170938.14000000001,"N_COORD97":2549090.73,"ADDRESS":"洲尾街１２４號","OBJECTID":530151},"geometry":{"x":170938.1400000006,"y":2549090.7300000004}},{"attributes":{"ID":530179,"DIS_CODE":0,"TOWNNAME":"永康區","LI":"\u25A0洲里","LIN":"33鄰","STREET":"洲尾街","SECT":" ","MAREA":" ","LANE":" ","ALLEY":" ","HOUSE_NO":"１１０號","E_COORD97":170925.48999999999,"N_COORD97":2549035.6600000001,"ADDRESS":"洲尾街１１０號","OBJECTID":530152},"geometry":{"x":170925.49000000022,"y":2549035.660000002}},{"attributes":{"ID":530180,"DIS_CODE":0,"TOWNNAME":"永康區","LI":"\u25A0洲里","LIN":"33鄰","STREET":"洲尾街","SECT":" ","MAREA":" ","LANE":" ","ALLEY":" ","HOUSE_NO":"１２６號","E_COORD97":170938.70000000001,"N_COORD97":2549095.73,"ADDRESS":"洲尾街１２６號","OBJECTID":530153},"geometry":{"x":170938.70000000112,"y":2549095.7300000023}},{"attributes":{"ID":530181,"DIS_CODE":0,"TOWNNAME":"永康區","LI":"\u25A0洲里","LIN":"33鄰","STREET":"洲尾街","SECT":" ","MAREA":" ","LANE":" ","ALLEY":" ","HOUSE_NO":"１２２號","E_COORD97":170937.85000000001,"N_COORD97":2549079.4700000002,"ADDRESS":"洲尾街１２２號","OBJECTID":530154},"geometry":{"x":170937.84999999963,"y":2549079.4700000007}},{"attributes":{"ID":530182,"DIS_CODE":0,"TOWNNAME":"永康區","LI":"\u25A0洲里","LIN":"33鄰","STREET":"洲尾街","SECT":" ","MAREA":" ","LANE":" ","ALLEY":" ","HOUSE_NO":"８０號","E_COORD97":170915.03,"N_COORD97":2548953.5899999999,"ADDRESS":"洲尾街８０號","OBJECTID":530155},"geometry":{"x":170915.03000000026,"y":2548953.5900000017}},{"attributes":{"ID":530183,"DIS_CODE":0,"TOWNNAME":"永康區","LI":"\u25A0洲里","LIN":"33鄰","STREET":"洲尾街","SECT":" ","MAREA":" ","LANE":" ","ALLEY":" ","HOUSE_NO":"８０號之１","E_COORD97":170917.47,"N_COORD97":2548958.1200000001,"ADDRESS":"洲尾街８０號之１","OBJECTID":530156},"geometry":{"x":170917.47000000067,"y":2548958.1200000029}},{"attributes":{"ID":530184,"DIS_CODE":0,"TOWNNAME":"永康區","LI":"復國里","LIN":"33鄰","STREET":"復華一街","SECT":" ","MAREA":" ","LANE":" ","ALLEY":" ","HOUSE_NO":"７２號","E_COORD97":172519.79999999999,"N_COORD97":2545093.5299999998,"ADDRESS":"復華一街７２號","OBJECTID":530157},"geometry":{"x":172519.79999999981,"y":2545093.5299999993}},{"attributes":{"ID":530185,"DIS_CODE":0,"TOWNNAME":"永康區","LI":"正強里","LIN":"33鄰","STREET":"埔園街","SECT":" ","MAREA":" ","LANE":" ","ALLEY":" ","HOUSE_NO":"４０８號","E_COORD97":173300.76000000001,"N_COORD97":2548145.52,"ADDRESS":"埔園街４０８號","OBJECTID":530158},"geometry":{"x":173300.76000000071,"y":2548145.5199999996}},{"attributes":{"ID":530186,"DIS_CODE":0,"TOWNNAME":"安平區","LI":"華平里","LIN":"33鄰","STREET":"永華八街","SECT":" ","MAREA":" ","LANE":" ","ALLEY":" ","HOUSE_NO":"３１５號","E_COORD97":165190.91,"N_COORD97":2544028.8199999998,"ADDRESS":"永華八街３１５號","OBJECTID":530159},"geometry":{"x":165190.91000000015,"y":2544028.8200000003}},{"attributes":{"ID":530187,"DIS_CODE":0,"TOWNNAME":"東區","LI":"文聖里","LIN":"15鄰","STREET":"裕興街","SECT":" ","MAREA":" ","LANE":" ","ALLEY":" ","HOUSE_NO":"２５５號","E_COORD97":172485.79999999999,"N_COORD97":2542661.8900000001,"ADDRESS":"裕興街２５５號","OBJECTID":530160},"geometry":{"x":172485.79999999981,"y":2542661.8900000006}},{"attributes":{"ID":530188,"DIS_CODE":0,"TOWNNAME":"東區","LI":"文聖里","LIN":"15鄰","STREET":"裕興街","SECT":" ","MAREA":" ","LANE":" ","ALLEY":" ","HOUSE_NO":"２６９號","E_COORD97":172518.73999999999,"N_COORD97":2542663.1899999999,"ADDRESS":"裕興街２６９號","OBJECTID":530161},"geometry":{"x":172518.74000000022,"y":2542663.1900000013}},{"attributes":{"ID":530189,"DIS_CODE":0,"TOWNNAME":"東區","LI":"文聖里","LIN":"15鄰","STREET":"裕興街","SECT":" ","MAREA":" ","LANE":" ","ALLEY":" ","HOUSE_NO":"２７１號","E_COORD97":172523.78,"N_COORD97":2542661.0600000001,"ADDRESS":"裕興街２７１號","OBJECTID":530162},"geometry":{"x":172523.78000000026,"y":2542661.0600000005}},{"attributes":{"ID":530190,"DIS_CODE":0,"TOWNNAME":"歸仁區","LI":"南興里","LIN":"33鄰","STREET":"民生北街","SECT":" ","MAREA":" ","LANE":" ","ALLEY":" ","HOUSE_NO":"１００號","E_COORD97":176286.23999999999,"N_COORD97":2541177.29,"ADDRESS":"民生北街１００號","OBJECTID":530163},"geometry":{"x":176286.24000000115,"y":2541177.290000001}},{"attributes":{"ID":530191,"DIS_CODE":0,"TOWNNAME":"玉井區","LI":"玉田里","LIN":"33鄰","STREET":"大勇街","SECT":" ","MAREA":" ","LANE":" ","ALLEY":" ","HOUSE_NO":"６６號","E_COORD97":195566.32000000001,"N_COORD97":2558197.25,"ADDRESS":"大勇街６６號","OBJECTID":530164},"geometry":{"x":195566.3200000003,"y":2558197.25}},{"attributes":{"ID":530192,"DIS_CODE":0,"TOWNNAME":"安平區","LI":"華平里","LIN":"33鄰","STREET":"永華八街","SECT":" ","MAREA":" ","LANE":" ","ALLEY":" ","HOUSE_NO":"３７５號","E_COORD97":165204.09,"N_COORD97":2544127.46,"ADDRESS":"永華八街３７５號","OBJECTID":530165},"geometry":{"x":165204.09000000078,"y":2544127.4600000028}},{"attributes":{"ID":530193,"DIS_CODE":0,"TOWNNAME":"安平區","LI":"華平里","LIN":"33鄰","STREET":"育平九街","SECT":" ","MAREA":" ","LANE":" ","ALLEY":" ","HOUSE_NO":"１２０號","E_COORD97":165185.61730700001,"N_COORD97":2543990.5212500002,"ADDRESS":"育平九街１２０號","OBJECTID":530166},"geometry":{"x":165185.61730700079,"y":2543990.5212539993}},{"attributes":{"ID":530194,"DIS_CODE":0,"TOWNNAME":"安平區","LI":"華平里","LIN":"33鄰","STREET":"育平九街","SECT":" ","MAREA":" ","LANE":" ","ALLEY":" ","HOUSE_NO":"１２２號","E_COORD97":165180.10771099999,"N_COORD97":2543990.94459,"ADDRESS":"育平九街１２２號","OBJECTID":530167},"geometry":{"x":165180.1077110013,"y":2543990.9445870016}},{"attributes":{"ID":530195,"DIS_CODE":0,"TOWNNAME":"安平區","LI":"華平里","LIN":"33鄰","STREET":"育平九街","SECT":" ","MAREA":" ","LANE":" ","ALLEY":" ","HOUSE_NO":"１２４號","E_COORD97":165174.810023,"N_COORD97":2543991.15625,"ADDRESS":"育平九街１２４號","OBJECTID":530168},"geometry":{"x":165174.81002300046,"y":2543991.1562540028}},{"attributes":{"ID":530196,"DIS_CODE":0,"TOWNNAME":"安平區","LI":"華平里","LIN":"33鄰","STREET":"育平九街","SECT":" ","MAREA":" ","LANE":" ","ALLEY":" ","HOUSE_NO":"１２６號","E_COORD97":165168.87661199999,"N_COORD97":2543991.7912499998,"ADDRESS":"育平九街１２６號","OBJECTID":530169},"geometry":{"x":165168.87661200203,"y":2543991.7912530024}},{"attributes":{"ID":530197,"DIS_CODE":0,"TOWNNAME":"新營區","LI":"三仙里","LIN":"21鄰","STREET":"金華路","SECT":"一段","MAREA":" ","LANE":" ","ALLEY":" ","HOUSE_NO":"１２９號","E_COORD97":179491.62,"N_COORD97":2579499.8599999999,"ADDRESS":"金華路一段１２９號","OBJECTID":530170},"geometry":{"x":179491.62000000011,"y":2579499.8599999994}},{"attributes":{"ID":530198,"DIS_CODE":0,"TOWNNAME":"安平區","LI":"華平里","LIN":"33鄰","STREET":"永華八街","SECT":" ","MAREA":" ","LANE":" ","ALLEY":" ","HOUSE_NO":"３４３號","E_COORD97":165194.84713000001,"N_COORD97":2544090.5806999998,"ADDRESS":"永華八街３４３號","OBJECTID":530171},"geometry":{"x":165194.84713000059,"y":2544090.5807000007}},{"attributes":{"ID":530199,"DIS_CODE":0,"TOWNNAME":"安平區","LI":"華平里","LIN":"33鄰","STREET":"永華八街","SECT":" ","MAREA":" ","LANE":" ","ALLEY":" ","HOUSE_NO":"３４５號","E_COORD97":165195.57999999999,"N_COORD97":2544093.1499999999,"ADDRESS":"永華八街３４５號","OBJECTID":530172},"geometry":{"x":165195.58000000101,"y":2544093.1500000004}},{"attributes":{"ID":530200,"DIS_CODE":0,"TOWNNAME":"安平區","LI":"華平里","LIN":"33鄰","STREET":"永華八街","SECT":" ","MAREA":" ","LANE":" ","ALLEY":" ","HOUSE_NO":"３４７號","E_COORD97":165196.5,"N_COORD97":2544097.5299999998,"ADDRESS":"永華八街３４７號","OBJECTID":530173},"geometry":{"x":165196.50000000093,"y":2544097.5299999993}},{"attributes":{"ID":530201,"DIS_CODE":0,"TOWNNAME":"安平區","LI":"華平里","LIN":"33鄰","STREET":"永華八街","SECT":" ","MAREA":" ","LANE":" ","ALLEY":" ","HOUSE_NO":"３４９號","E_COORD97":165197.09,"N_COORD97":2544102.4199999999,"ADDRESS":"永華八街３４９號","OBJECTID":530174},"geometry":{"x":165197.09000000078,"y":2544102.4199999981}},{"attributes":{"ID":530202,"DIS_CODE":0,"TOWNNAME":"新營區","LI":"王公里","LIN":"33鄰","STREET":"民族路","SECT":" ","MAREA":" ","LANE":" ","ALLEY":" ","HOUSE_NO":"３２２號","E_COORD97":180402.72,"N_COORD97":2579784.5899999999,"ADDRESS":"民族路３２２號","OBJECTID":530175},"geometry":{"x":180402.71999999974,"y":2579784.5899999999}},{"attributes":{"ID":530203,"DIS_CODE":0,"TOWNNAME":"新營區","LI":"王公里","LIN":"33鄰","STREET":"長榮路","SECT":"一段","MAREA":" ","LANE":" ","ALLEY":" ","HOUSE_NO":"５０７號","E_COORD97":180316.04999999999,"N_COORD97":2579855.8700000001,"ADDRESS":"長榮路一段５０７號","OBJECTID":530176},"geometry":{"x":180316.04999999981,"y":2579855.8700000048}},{"attributes":{"ID":530204,"DIS_CODE":0,"TOWNNAME":"安平區","LI":"育平里","LIN":"33鄰","STREET":"永華路","SECT":"二段","MAREA":" ","LANE":" ","ALLEY":" ","HOUSE_NO":"１０５７號","E_COORD97":164515.06,"N_COORD97":2543585.5899999999,"ADDRESS":"永華路二段１０５７號","OBJECTID":530177},"geometry":{"x":164515.05999999959,"y":2543585.5899999999}},{"attributes":{"ID":530205,"DIS_CODE":0,"TOWNNAME":"安平區","LI":"育平里","LIN":"33鄰","STREET":"永華路","SECT":"二段","MAREA":" ","LANE":" ","ALLEY":" ","HOUSE_NO":"１０５９號","E_COORD97":164505.29000000001,"N_COORD97":2543585.4100000001,"ADDRESS":"永華路二段１０５９號","OBJECTID":530178},"geometry":{"x":164505.29000000004,"y":2543585.410000002}},{"attributes":{"ID":530206,"DIS_CODE":0,"TOWNNAME":"安平區","LI":"育平里","LIN":"33鄰","STREET":"永華路","SECT":"二段","MAREA":" ","LANE":" ","ALLEY":" ","HOUSE_NO":"１０６１號","E_COORD97":164495.39999999999,"N_COORD97":2543585.7200000002,"ADDRESS":"永華路二段１０６１號","OBJECTID":530179},"geometry":{"x":164495.4000000013,"y":2543585.7200000007}},{"attributes":{"ID":530207,"DIS_CODE":0,"TOWNNAME":"安平區","LI":"育平里","LIN":"33鄰","STREET":"永華路","SECT":"二段","MAREA":" ","LANE":" ","ALLEY":" ","HOUSE_NO":"１１１１號","E_COORD97":164343.52614900001,"N_COORD97":2543597.4243600001,"ADDRESS":"永華路二段１１１１號","OBJECTID":530180},"geometry":{"x":164343.52614900004,"y":2543597.4243609998}},{"attributes":{"ID":530208,"DIS_CODE":0,"TOWNNAME":"安平區","LI":"育平里","LIN":"33鄰","STREET":"光州六街","SECT":" ","MAREA":" ","LANE":" ","ALLEY":" ","HOUSE_NO":"１９號","E_COORD97":164510.82999999999,"N_COORD97":2543524.8199999998,"ADDRESS":"光州六街１９號","OBJECTID":530181},"geometry":{"x":164510.83000000101,"y":2543524.8200000022}},{"attributes":{"ID":530209,"DIS_CODE":0,"TOWNNAME":"安平區","LI":"育平里","LIN":"33鄰","STREET":"光州六街","SECT":" ","MAREA":" ","LANE":" ","ALLEY":" ","HOUSE_NO":"２３號","E_COORD97":164492.39000000001,"N_COORD97":2543527.1400000001,"ADDRESS":"光州六街２３號","OBJECTID":530182},"geometry":{"x":164492.38999999966,"y":2543527.1400000025}},{"attributes":{"ID":530210,"DIS_CODE":0,"TOWNNAME":"安平區","LI":"育平里","LIN":"33鄰","STREET":"光州六街","SECT":" ","MAREA":" ","LANE":" ","ALLEY":" ","HOUSE_NO":"３５號","E_COORD97":164408.89999999999,"N_COORD97":2543533.02,"ADDRESS":"光州六街３５號","OBJECTID":530183},"geometry":{"x":164408.9000000013,"y":2543533.0200000014}},{"attributes":{"ID":530211,"DIS_CODE":0,"TOWNNAME":"安平區","LI":"育平里","LIN":"33鄰","STREET":"光州六街","SECT":" ","MAREA":" ","LANE":" ","ALLEY":" ","HOUSE_NO":"３７號","E_COORD97":164404.07999999999,"N_COORD97":2543535.5499999998,"ADDRESS":"光州六街３７號","OBJECTID":530184},"geometry":{"x":164404.08000000101,"y":2543535.5500000007}},{"attributes":{"ID":530212,"DIS_CODE":0,"TOWNNAME":"安平區","LI":"育平里","LIN":"33鄰","STREET":"光州六街","SECT":" ","MAREA":" ","LANE":" ","ALLEY":" ","HOUSE_NO":"３９號","E_COORD97":164398.48999999999,"N_COORD97":2543534.1800000002,"ADDRESS":"光州六街３９號","OBJECTID":530185},"geometry":{"x":164398.49000000115,"y":2543534.1799999997}},{"attributes":{"ID":530213,"DIS_CODE":0,"TOWNNAME":"安平區","LI":"育平里","LIN":"33鄰","STREET":"光州六街","SECT":" ","MAREA":" ","LANE":" ","ALLEY":" ","HOUSE_NO":"４１號","E_COORD97":164393.85999999999,"N_COORD97":2543535.0299999998,"ADDRESS":"光州六街４１號","OBJECTID":530186},"geometry":{"x":164393.86000000127,"y":2543535.0300000031}},{"attributes":{"ID":530214,"DIS_CODE":0,"TOWNNAME":"安平區","LI":"育平里","LIN":"33鄰","STREET":"光州六街","SECT":" ","MAREA":" ","LANE":" ","ALLEY":" ","HOUSE_NO":"４３號","E_COORD97":164389.32999999999,"N_COORD97":2543535.9700000002,"ADDRESS":"光州六街４３號","OBJECTID":530187},"geometry":{"x":164389.33000000101,"y":2543535.9700000007}},{"attributes":{"ID":530215,"DIS_CODE":0,"TOWNNAME":"安平區","LI":"育平里","LIN":"33鄰","STREET":"建平七街","SECT":" ","MAREA":" ","LANE":" ","ALLEY":" ","HOUSE_NO":"８３８號","E_COORD97":164480.23999999999,"N_COORD97":2543482.9300000002,"ADDRESS":"建平七街８３８號","OBJECTID":530188},"geometry":{"x":164480.24000000022,"y":2543482.9300000016}},{"attributes":{"ID":530216,"DIS_CODE":0,"TOWNNAME":"安平區","LI":"育平里","LIN":"33鄰","STREET":"建平七街","SECT":" ","MAREA":" ","LANE":" ","ALLEY":" ","HOUSE_NO":"８４２之１號","E_COORD97":164454.85999999999,"N_COORD97":2543487.1600000001,"ADDRESS":"建平七街８４２之１號","OBJECTID":530189},"geometry":{"x":164454.86000000127,"y":2543487.1600000001}},{"attributes":{"ID":530217,"DIS_CODE":0,"TOWNNAME":"安平區","LI":"育平里","LIN":"33鄰","STREET":"建平七街","SECT":" ","MAREA":" ","LANE":" ","ALLEY":" ","HOUSE_NO":"８４２號","E_COORD97":164459.64000000001,"N_COORD97":2543487.98,"ADDRESS":"建平七街８４２號","OBJECTID":530190},"geometry":{"x":164459.6400000006,"y":2543487.9800000004}},{"attributes":{"ID":530218,"DIS_CODE":0,"TOWNNAME":"安平區","LI":"育平里","LIN":"33鄰","STREET":"建平七街","SECT":" ","MAREA":" ","LANE":" ","ALLEY":" ","HOUSE_NO":"８４６號","E_COORD97":164450.22,"N_COORD97":2543488.25,"ADDRESS":"建平七街８４６號","OBJECTID":530191},"geometry":{"x":164450.22000000067,"y":2543488.2500000019}},{"attributes":{"ID":530219,"DIS_CODE":0,"TOWNNAME":"歸仁區","LI":"南興里","LIN":"33鄰","STREET":"民生北街","SECT":" ","MAREA":" ","LANE":" ","ALLEY":" ","HOUSE_NO":"８６號","E_COORD97":176285.89000000001,"N_COORD97":2541147.29,"ADDRESS":"民生北街８６號","OBJECTID":530192},"geometry":{"x":176285.88999999966,"y":2541147.290000001}},{"attributes":{"ID":530220,"DIS_CODE":0,"TOWNNAME":"北區","LI":"大港里","LIN":"33鄰","STREET":"大興街","SECT":" ","MAREA":" ","LANE":" ","ALLEY":" ","HOUSE_NO":"５３０號","E_COORD97":166009.82999999999,"N_COORD97":2545453.3700000001,"ADDRESS":"大興街５３０號","OBJECTID":530193},"geometry":{"x":166009.83000000101,"y":2545453.3699999992}},{"attributes":{"ID":530221,"DIS_CODE":0,"TOWNNAME":"北區","LI":"和順里","LIN":"33鄰","STREET":"公園南路","SECT":" ","MAREA":" ","LANE":" ","ALLEY":" ","HOUSE_NO":"３６０號地下一層","E_COORD97":168236.92000000001,"N_COORD97":2544856.1499999999,"ADDRESS":"公園南路３６０號地下一層","OBJECTID":530194},"geometry":{"x":168236.91999999993,"y":2544856.1500000004}},{"attributes":{"ID":530222,"DIS_CODE":0,"TOWNNAME":"歸仁區","LI":"南保里","LIN":"33鄰","STREET":"中山路","SECT":"三段","MAREA":" ","LANE":" ","ALLEY":" ","HOUSE_NO":"９０號","E_COORD97":176779.84,"N_COORD97":2540896.9700000002,"ADDRESS":"中山路三段９０號","OBJECTID":530195},"geometry":{"x":176779.83999999985,"y":2540896.9700000025}},{"attributes":{"ID":530223,"DIS_CODE":0,"TOWNNAME":"新化區","LI":"東榮里","LIN":"33鄰","STREET":"護安街","SECT":" ","MAREA":" ","LANE":" ","ALLEY":" ","HOUSE_NO":"７７號","E_COORD97":179194.98000000001,"N_COORD97":2548391.2599999998,"ADDRESS":"護安街７７號","OBJECTID":530196},"geometry":{"x":179194.98000000045,"y":2548391.2599999998}},{"attributes":{"ID":530224,"DIS_CODE":0,"TOWNNAME":"東區","LI":"崇明里","LIN":"1鄰","STREET":"中華東路","SECT":"三段","MAREA":" ","LANE":" ","ALLEY":" ","HOUSE_NO":"５６５號","E_COORD97":169530.85999999999,"N_COORD97":2541427,"ADDRESS":"中華東路三段５６５號","OBJECTID":530197},"geometry":{"x":169530.86000000127,"y":2541426.9999999981}},{"attributes":{"ID":530225,"DIS_CODE":0,"TOWNNAME":"東區","LI":"東光里","LIN":"33鄰","STREET":"東興路","SECT":" ","MAREA":" ","LANE":" ","ALLEY":" ","HOUSE_NO":"２３６號","E_COORD97":171036.70000000001,"N_COORD97":2543898.8799999999,"ADDRESS":"東興路２３６號","OBJECTID":530198},"geometry":{"x":171036.70000000112,"y":2543898.8800000008}},{"attributes":{"ID":530226,"DIS_CODE":0,"TOWNNAME":"永康區","LI":"\u25A0行里","LIN":"33鄰","STREET":"中正北路","SECT":" ","MAREA":" ","LANE":" ","ALLEY":" ","HOUSE_NO":"６５號","E_COORD97":172063.54999999999,"N_COORD97":2549102.3500000001,"ADDRESS":"中正北路６５號","OBJECTID":530199},"geometry":{"x":172063.54999999981,"y":2549102.3499999996}},{"attributes":{"ID":530227,"DIS_CODE":0,"TOWNNAME":"永康區","LI":"龍潭里","LIN":"33鄰","STREET":"龍國街","SECT":" ","MAREA":" ","LANE":" ","ALLEY":" ","HOUSE_NO":"３２２號","E_COORD97":174638.64000000001,"N_COORD97":2548004.2999999998,"ADDRESS":"龍國街３２２號","OBJECTID":530200},"geometry":{"x":174638.6400000006,"y":2548004.3000000026}}]}