{"displayFieldName":"TOWNNAME","fieldAliases":{"ID":"ID","DIS_CODE":"DIS_CODE","TOWNNAME":"TOWNNAME","LI":"LI","LIN":"LIN","STREET":"STREET","SECT":"SECT","MAREA":"MAREA","LANE":"LANE","ALLEY":"ALLEY","HOUSE_NO":"HOUSE_NO","E_COORD97":"E_COORD97","N_COORD97":"N_COORD97","ADDRESS":"ADDRESS","OBJECTID":"OBJECTID"},"geometryType":"esriGeometryPoint","spatialReference":{"wkid":102443,"latestWkid":3826},"fields":[{"name":"ID","type":"esriFieldTypeDouble","alias":"ID"},{"name":"DIS_CODE","type":"esriFieldTypeInteger","alias":"DIS_CODE"},{"name":"TOWNNAME","type":"esriFieldTypeString","alias":"TOWNNAME","length":8},{"name":"LI","type":"esriFieldTypeString","alias":"LI","length":8},{"name":"LIN","type":"esriFieldTypeString","alias":"LIN","length":12},{"name":"STREET","type":"esriFieldTypeString","alias":"STREET","length":20},{"name":"SECT","type":"esriFieldTypeString","alias":"SECT","length":8},{"name":"MAREA","type":"esriFieldTypeString","alias":"MAREA","length":12},{"name":"LANE","type":"esriFieldTypeString","alias":"LANE","length":10},{"name":"ALLEY","type":"esriFieldTypeString","alias":"ALLEY","length":10},{"name":"HOUSE_NO","type":"esriFieldTypeString","alias":"HOUSE_NO","length":20},{"name":"E_COORD97","type":"esriFieldTypeDouble","alias":"E_COORD97"},{"name":"N_COORD97","type":"esriFieldTypeDouble","alias":"N_COORD97"},{"name":"ADDRESS","type":"esriFieldTypeString","alias":"ADDRESS","length":50},{"name":"OBJECTID","type":"esriFieldTypeOID","alias":"OBJECTID"}],"features":[{"attributes":{"ID":308809,"DIS_CODE":0,"TOWNNAME":"關廟區","LI":"五甲里","LIN":"14鄰","STREET":"光復街","SECT":" ","MAREA":" ","LANE":"６３巷","ALLEY":" ","HOUSE_NO":"５１號","E_COORD97":181384.04000000001,"N_COORD97":2539275.2799999998,"ADDRESS":"光復街６３巷５１號","OBJECTID":308801},"geometry":{"x":181384.04000000004,"y":2539275.2800000031}},{"attributes":{"ID":308810,"DIS_CODE":0,"TOWNNAME":"中西區","LI":"建國里","LIN":"7鄰","STREET":"民生路","SECT":"一段","MAREA":" ","LANE":"１５７巷","ALLEY":" ","HOUSE_NO":"１４號","E_COORD97":168003.67999999999,"N_COORD97":2543789.0899999999,"ADDRESS":"民生路一段１５７巷１４號","OBJECTID":308802},"geometry":{"x":168003.68000000063,"y":2543789.0899999999}},{"attributes":{"ID":308811,"DIS_CODE":0,"TOWNNAME":"中西區","LI":"建國里","LIN":"7鄰","STREET":"西門路","SECT":"二段","MAREA":" ","LANE":"１３６巷","ALLEY":" ","HOUSE_NO":"２７號","E_COORD97":167984.07999999999,"N_COORD97":2543776.1000000001,"ADDRESS":"西門路二段１３６巷２７號","OBJECTID":308803},"geometry":{"x":167984.08000000194,"y":2543776.1000000015}},{"attributes":{"ID":308812,"DIS_CODE":0,"TOWNNAME":"南區","LI":"再興里","LIN":"17鄰","STREET":"金華路","SECT":"二段","MAREA":" ","LANE":" ","ALLEY":" ","HOUSE_NO":"１７２號三樓之７","E_COORD97":167125.57000000001,"N_COORD97":2542273.6499999999,"ADDRESS":"金華路二段１７２號三樓之７","OBJECTID":308804},"geometry":{"x":167125.57000000123,"y":2542273.6500000004}},{"attributes":{"ID":308813,"DIS_CODE":0,"TOWNNAME":"南區","LI":"再興里","LIN":"17鄰","STREET":"金華路","SECT":"二段","MAREA":" ","LANE":" ","ALLEY":" ","HOUSE_NO":"１７２號三樓之８","E_COORD97":167125.57000000001,"N_COORD97":2542273.6499999999,"ADDRESS":"金華路二段１７２號三樓之８","OBJECTID":308805},"geometry":{"x":167125.57000000123,"y":2542273.6500000004}},{"attributes":{"ID":308814,"DIS_CODE":0,"TOWNNAME":"南區","LI":"再興里","LIN":"17鄰","STREET":"金華路","SECT":"二段","MAREA":" ","LANE":" ","ALLEY":" ","HOUSE_NO":"１７２號五樓之１","E_COORD97":167125.57000000001,"N_COORD97":2542273.6499999999,"ADDRESS":"金華路二段１７２號五樓之１","OBJECTID":308806},"geometry":{"x":167125.57000000123,"y":2542273.6500000004}},{"attributes":{"ID":308815,"DIS_CODE":0,"TOWNNAME":"永康區","LI":"安康里","LIN":"24鄰","STREET":"中華路","SECT":" ","MAREA":" ","LANE":"７０３巷","ALLEY":" ","HOUSE_NO":"６４號三樓之１","E_COORD97":170755.38,"N_COORD97":2546246.7999999998,"ADDRESS":"中華路７０３巷６４號三樓之１","OBJECTID":308807},"geometry":{"x":170755.38000000082,"y":2546246.8000000007}},{"attributes":{"ID":308816,"DIS_CODE":0,"TOWNNAME":"永康區","LI":"西灣里","LIN":"24鄰","STREET":"國光八街","SECT":" ","MAREA":" ","LANE":"１１巷","ALLEY":" ","HOUSE_NO":"１號五樓","E_COORD97":174420.84,"N_COORD97":2545732.5,"ADDRESS":"國光八街１１巷１號五樓","OBJECTID":308808},"geometry":{"x":174420.84000000078,"y":2545732.5}},{"attributes":{"ID":308817,"DIS_CODE":0,"TOWNNAME":"永康區","LI":"西灣里","LIN":"25鄰","STREET":"國光七街","SECT":" ","MAREA":" ","LANE":"２０巷","ALLEY":" ","HOUSE_NO":"１號五樓之１","E_COORD97":174313.32999999999,"N_COORD97":2545560.9300000002,"ADDRESS":"國光七街２０巷１號五樓之１","OBJECTID":308809},"geometry":{"x":174313.33000000007,"y":2545560.9300000016}},{"attributes":{"ID":308818,"DIS_CODE":0,"TOWNNAME":"中西區","LI":"建國里","LIN":"7鄰","STREET":"西門路","SECT":"二段","MAREA":" ","LANE":"１３６巷","ALLEY":" ","HOUSE_NO":"２９號","E_COORD97":167987.48000000001,"N_COORD97":2543774.2999999998,"ADDRESS":"西門路二段１３６巷２９號","OBJECTID":308810},"geometry":{"x":167987.48000000138,"y":2543774.3000000007}},{"attributes":{"ID":308819,"DIS_CODE":0,"TOWNNAME":"中西區","LI":"永華里","LIN":"7鄰","STREET":"府中街","SECT":" ","MAREA":" ","LANE":"９８巷","ALLEY":" ","HOUSE_NO":"１１號","E_COORD97":168579.10999999999,"N_COORD97":2543451.29,"ADDRESS":"府中街９８巷１１號","OBJECTID":308811},"geometry":{"x":168579.1100000022,"y":2543451.2899999991}},{"attributes":{"ID":308820,"DIS_CODE":0,"TOWNNAME":"中西區","LI":"永華里","LIN":"7鄰","STREET":"府中街","SECT":" ","MAREA":" ","LANE":"９８巷","ALLEY":" ","HOUSE_NO":"１３號","E_COORD97":168585.72,"N_COORD97":2543453.1499999999,"ADDRESS":"府中街９８巷１３號","OBJECTID":308812},"geometry":{"x":168585.71999999974,"y":2543453.1500000004}},{"attributes":{"ID":308821,"DIS_CODE":0,"TOWNNAME":"中西區","LI":"永華里","LIN":"7鄰","STREET":"府中街","SECT":" ","MAREA":" ","LANE":"９８巷","ALLEY":" ","HOUSE_NO":"１５號","E_COORD97":168590.76999999999,"N_COORD97":2543455.5899999999,"ADDRESS":"府中街９８巷１５號","OBJECTID":308813},"geometry":{"x":168590.77000000142,"y":2543455.5900000017}},{"attributes":{"ID":308822,"DIS_CODE":0,"TOWNNAME":"中西區","LI":"永華里","LIN":"7鄰","STREET":"府中街","SECT":" ","MAREA":" ","LANE":"９８巷","ALLEY":" ","HOUSE_NO":"１７號","E_COORD97":168593.51000000001,"N_COORD97":2543456.8500000001,"ADDRESS":"府中街９８巷１７號","OBJECTID":308814},"geometry":{"x":168593.51000000071,"y":2543456.8500000015}},{"attributes":{"ID":308823,"DIS_CODE":0,"TOWNNAME":"中西區","LI":"永華里","LIN":"7鄰","STREET":"府中街","SECT":" ","MAREA":" ","LANE":"９８巷","ALLEY":" ","HOUSE_NO":"１號","E_COORD97":168551.10000000001,"N_COORD97":2543421.8799999999,"ADDRESS":"府中街９８巷１號","OBJECTID":308815},"geometry":{"x":168551.09999999963,"y":2543421.8800000008}},{"attributes":{"ID":308824,"DIS_CODE":0,"TOWNNAME":"中西區","LI":"永華里","LIN":"7鄰","STREET":"府中街","SECT":" ","MAREA":" ","LANE":"９８巷","ALLEY":" ","HOUSE_NO":"３號","E_COORD97":168556.23000000001,"N_COORD97":2543425.8100000001,"ADDRESS":"府中街９８巷３號","OBJECTID":308816},"geometry":{"x":168556.22999999952,"y":2543425.8099999987}},{"attributes":{"ID":308825,"DIS_CODE":0,"TOWNNAME":"中西區","LI":"永華里","LIN":"7鄰","STREET":"府中街","SECT":" ","MAREA":" ","LANE":"９８巷","ALLEY":" ","HOUSE_NO":"７號","E_COORD97":168565.25,"N_COORD97":2543435.1000000001,"ADDRESS":"府中街９８巷７號","OBJECTID":308817},"geometry":{"x":168565.25,"y":2543435.0999999996}},{"attributes":{"ID":308826,"DIS_CODE":0,"TOWNNAME":"中西區","LI":"永華里","LIN":"7鄰","STREET":"府中街","SECT":" ","MAREA":" ","LANE":"９８巷","ALLEY":" ","HOUSE_NO":"９號","E_COORD97":168571.70999999999,"N_COORD97":2543445.4100000001,"ADDRESS":"府中街９８巷９號","OBJECTID":308818},"geometry":{"x":168571.71000000089,"y":2543445.4100000039}},{"attributes":{"ID":308827,"DIS_CODE":0,"TOWNNAME":"中西區","LI":"青年里","LIN":"7鄰","STREET":"青年路","SECT":" ","MAREA":" ","LANE":"１３７巷","ALLEY":" ","HOUSE_NO":"１１號","E_COORD97":168933.38,"N_COORD97":2543646.8199999998,"ADDRESS":"青年路１３７巷１１號","OBJECTID":308819},"geometry":{"x":168933.38000000082,"y":2543646.8200000022}},{"attributes":{"ID":308828,"DIS_CODE":0,"TOWNNAME":"中西區","LI":"青年里","LIN":"7鄰","STREET":"青年路","SECT":" ","MAREA":" ","LANE":"１３７巷","ALLEY":" ","HOUSE_NO":"１３號","E_COORD97":168933.70000000001,"N_COORD97":2543654.04,"ADDRESS":"青年路１３７巷１３號","OBJECTID":308820},"geometry":{"x":168933.70000000019,"y":2543654.040000001}},{"attributes":{"ID":308829,"DIS_CODE":0,"TOWNNAME":"中西區","LI":"青年里","LIN":"7鄰","STREET":"青年路","SECT":" ","MAREA":" ","LANE":"１３７巷","ALLEY":" ","HOUSE_NO":"１號","E_COORD97":168933.07000000001,"N_COORD97":2543625.1499999999,"ADDRESS":"青年路１３７巷１號","OBJECTID":308821},"geometry":{"x":168933.0700000003,"y":2543625.1500000022}},{"attributes":{"ID":308830,"DIS_CODE":0,"TOWNNAME":"中西區","LI":"青年里","LIN":"7鄰","STREET":"青年路","SECT":" ","MAREA":" ","LANE":"１３７巷","ALLEY":" ","HOUSE_NO":"３號","E_COORD97":168934.01000000001,"N_COORD97":2543632.0499999998,"ADDRESS":"青年路１３７巷３號","OBJECTID":308822},"geometry":{"x":168934.01000000071,"y":2543632.0500000026}},{"attributes":{"ID":308831,"DIS_CODE":0,"TOWNNAME":"南區","LI":"再興里","LIN":"17鄰","STREET":"金華路","SECT":"二段","MAREA":" ","LANE":" ","ALLEY":" ","HOUSE_NO":"１７２號五樓之２","E_COORD97":167125.57000000001,"N_COORD97":2542273.6499999999,"ADDRESS":"金華路二段１７２號五樓之２","OBJECTID":308823},"geometry":{"x":167125.57000000123,"y":2542273.6500000004}},{"attributes":{"ID":308832,"DIS_CODE":0,"TOWNNAME":"南區","LI":"再興里","LIN":"17鄰","STREET":"金華路","SECT":"二段","MAREA":" ","LANE":" ","ALLEY":" ","HOUSE_NO":"１７２號五樓之３","E_COORD97":167125.57000000001,"N_COORD97":2542273.6499999999,"ADDRESS":"金華路二段１７２號五樓之３","OBJECTID":308824},"geometry":{"x":167125.57000000123,"y":2542273.6500000004}},{"attributes":{"ID":308833,"DIS_CODE":0,"TOWNNAME":"南區","LI":"再興里","LIN":"17鄰","STREET":"金華路","SECT":"二段","MAREA":" ","LANE":" ","ALLEY":" ","HOUSE_NO":"１７２號五樓之４","E_COORD97":167125.57000000001,"N_COORD97":2542273.6499999999,"ADDRESS":"金華路二段１７２號五樓之４","OBJECTID":308825},"geometry":{"x":167125.57000000123,"y":2542273.6500000004}},{"attributes":{"ID":308834,"DIS_CODE":0,"TOWNNAME":"中西區","LI":"青年里","LIN":"7鄰","STREET":"青年路","SECT":" ","MAREA":" ","LANE":"１３７巷","ALLEY":" ","HOUSE_NO":"５號","E_COORD97":168933.38,"N_COORD97":2543635.8300000001,"ADDRESS":"青年路１３７巷５號","OBJECTID":308826},"geometry":{"x":168933.38000000082,"y":2543635.8300000038}},{"attributes":{"ID":308835,"DIS_CODE":0,"TOWNNAME":"中西區","LI":"青年里","LIN":"7鄰","STREET":"青年路","SECT":" ","MAREA":" ","LANE":"１３７巷","ALLEY":" ","HOUSE_NO":"７號","E_COORD97":168931.81,"N_COORD97":2543639.9199999999,"ADDRESS":"青年路１３７巷７號","OBJECTID":308827},"geometry":{"x":168931.81000000052,"y":2543639.9199999999}},{"attributes":{"ID":308836,"DIS_CODE":0,"TOWNNAME":"仁德區","LI":"成功里","LIN":"7鄰","STREET":"保華路","SECT":" ","MAREA":" ","LANE":"１１７巷","ALLEY":" ","HOUSE_NO":"１８號","E_COORD97":171135.25,"N_COORD97":2539988.5,"ADDRESS":"保華路１１７巷１８號","OBJECTID":308828},"geometry":{"x":171135.25,"y":2539988.5}},{"attributes":{"ID":308837,"DIS_CODE":0,"TOWNNAME":"仁德區","LI":"成功里","LIN":"7鄰","STREET":"保華路","SECT":" ","MAREA":" ","LANE":"１１７巷","ALLEY":" ","HOUSE_NO":"８號","E_COORD97":171135.04999999999,"N_COORD97":2540021.5,"ADDRESS":"保華路１１７巷８號","OBJECTID":308829},"geometry":{"x":171135.04999999981,"y":2540021.5000000019}},{"attributes":{"ID":308838,"DIS_CODE":0,"TOWNNAME":"永康區","LI":"王行里","LIN":"7鄰","STREET":"王行路","SECT":" ","MAREA":" ","LANE":"３５１巷","ALLEY":" ","HOUSE_NO":"６１號","E_COORD97":175293.16,"N_COORD97":2548624.3199999998,"ADDRESS":"王行路３５１巷６１號","OBJECTID":308830},"geometry":{"x":175293.16000000201,"y":2548624.3200000022}},{"attributes":{"ID":308839,"DIS_CODE":0,"TOWNNAME":"永康區","LI":"王行里","LIN":"7鄰","STREET":"王行路","SECT":" ","MAREA":" ","LANE":"３５１巷","ALLEY":" ","HOUSE_NO":"５９號","E_COORD97":175302.85999999999,"N_COORD97":2548613.1899999999,"ADDRESS":"王行路３５１巷５９號","OBJECTID":308831},"geometry":{"x":175302.86000000127,"y":2548613.1900000032}},{"attributes":{"ID":308840,"DIS_CODE":0,"TOWNNAME":"仁德區","LI":"後壁里","LIN":"7鄰","STREET":"德安路","SECT":" ","MAREA":" ","LANE":"７３巷","ALLEY":" ","HOUSE_NO":"９號","E_COORD97":173576.23000000001,"N_COORD97":2539011.0600000001,"ADDRESS":"德安路７３巷９號","OBJECTID":308832},"geometry":{"x":173576.23000000138,"y":2539011.0600000024}},{"attributes":{"ID":308841,"DIS_CODE":0,"TOWNNAME":"仁德區","LI":"成功里","LIN":"7鄰","STREET":"保華路","SECT":" ","MAREA":" ","LANE":"１２９巷","ALLEY":" ","HOUSE_NO":"７９號","E_COORD97":171130.13,"N_COORD97":2539823,"ADDRESS":"保華路１２９巷７９號","OBJECTID":308833},"geometry":{"x":171130.13000000082,"y":2539823}},{"attributes":{"ID":308842,"DIS_CODE":0,"TOWNNAME":"仁德區","LI":"成功里","LIN":"7鄰","STREET":"保華路","SECT":" ","MAREA":" ","LANE":"１１７巷","ALLEY":" ","HOUSE_NO":"３６號","E_COORD97":171139.56,"N_COORD97":2539947.4900000002,"ADDRESS":"保華路１１７巷３６號","OBJECTID":308834},"geometry":{"x":171139.55999999959,"y":2539947.4900000021}},{"attributes":{"ID":308843,"DIS_CODE":0,"TOWNNAME":"仁德區","LI":"成功里","LIN":"7鄰","STREET":"保華路","SECT":" ","MAREA":" ","LANE":"１１７巷","ALLEY":" ","HOUSE_NO":"２２號","E_COORD97":171136.57000000001,"N_COORD97":2539978.9900000002,"ADDRESS":"保華路１１７巷２２號","OBJECTID":308835},"geometry":{"x":171136.5700000003,"y":2539978.9900000002}},{"attributes":{"ID":308844,"DIS_CODE":0,"TOWNNAME":"仁德區","LI":"成功里","LIN":"7鄰","STREET":"保華路","SECT":" ","MAREA":" ","LANE":"１１７巷","ALLEY":" ","HOUSE_NO":"１０號","E_COORD97":171136.91,"N_COORD97":2540017,"ADDRESS":"保華路１１７巷１０號","OBJECTID":308836},"geometry":{"x":171136.91000000108,"y":2540017.0000000037}},{"attributes":{"ID":308845,"DIS_CODE":0,"TOWNNAME":"仁德區","LI":"成功里","LIN":"7鄰","STREET":"保華路","SECT":" ","MAREA":" ","LANE":"１１７巷","ALLEY":" ","HOUSE_NO":"２８號","E_COORD97":171138.01999999999,"N_COORD97":2539965.4900000002,"ADDRESS":"保華路１１７巷２８號","OBJECTID":308837},"geometry":{"x":171138.01999999955,"y":2539965.4900000002}},{"attributes":{"ID":308846,"DIS_CODE":0,"TOWNNAME":"仁德區","LI":"成功里","LIN":"7鄰","STREET":"保華路","SECT":" ","MAREA":" ","LANE":"１２９巷","ALLEY":" ","HOUSE_NO":"４９號","E_COORD97":171120.70999999999,"N_COORD97":2539883,"ADDRESS":"保華路１２９巷４９號","OBJECTID":308838},"geometry":{"x":171120.70999999903,"y":2539883}},{"attributes":{"ID":308847,"DIS_CODE":0,"TOWNNAME":"仁德區","LI":"後壁里","LIN":"7鄰","STREET":"德安路","SECT":" ","MAREA":" ","LANE":"７３巷","ALLEY":" ","HOUSE_NO":"１２號","E_COORD97":173590.35000000001,"N_COORD97":2539003.8100000001,"ADDRESS":"德安路７３巷１２號","OBJECTID":308839},"geometry":{"x":173590.34999999963,"y":2539003.8100000005}},{"attributes":{"ID":308848,"DIS_CODE":0,"TOWNNAME":"仁德區","LI":"成功里","LIN":"7鄰","STREET":"保華路","SECT":" ","MAREA":" ","LANE":"１１７巷","ALLEY":" ","HOUSE_NO":"２１號","E_COORD97":171151.12,"N_COORD97":2539964.2400000002,"ADDRESS":"保華路１１７巷２１號","OBJECTID":308840},"geometry":{"x":171151.12000000104,"y":2539964.2400000002}},{"attributes":{"ID":308849,"DIS_CODE":0,"TOWNNAME":"仁德區","LI":"成功里","LIN":"7鄰","STREET":"保華路","SECT":" ","MAREA":" ","LANE":"１２９巷","ALLEY":" ","HOUSE_NO":"７１號","E_COORD97":171135.95000000001,"N_COORD97":2539832.2400000002,"ADDRESS":"保華路１２９巷７１號","OBJECTID":308841},"geometry":{"x":171135.95000000019,"y":2539832.2400000039}},{"attributes":{"ID":308850,"DIS_CODE":0,"TOWNNAME":"仁德區","LI":"後壁里","LIN":"7鄰","STREET":"德善二街","SECT":" ","MAREA":" ","LANE":"５１巷","ALLEY":" ","HOUSE_NO":"８號","E_COORD97":173633.32000000001,"N_COORD97":2539009.2599999998,"ADDRESS":"德善二街５１巷８號","OBJECTID":308842},"geometry":{"x":173633.32000000123,"y":2539009.2600000016}},{"attributes":{"ID":308851,"DIS_CODE":0,"TOWNNAME":"仁德區","LI":"後壁里","LIN":"7鄰","STREET":"德善二街","SECT":" ","MAREA":" ","LANE":"５１巷","ALLEY":" ","HOUSE_NO":"１７號","E_COORD97":173604.5,"N_COORD97":2539021.2599999998,"ADDRESS":"德善二街５１巷１７號","OBJECTID":308843},"geometry":{"x":173604.50000000093,"y":2539021.2599999979}},{"attributes":{"ID":308852,"DIS_CODE":0,"TOWNNAME":"仁德區","LI":"後壁里","LIN":"7鄰","STREET":"德善二街","SECT":" ","MAREA":" ","LANE":"５１巷","ALLEY":" ","HOUSE_NO":"２０號","E_COORD97":173608.69,"N_COORD97":2539045.0099999998,"ADDRESS":"德善二街５１巷２０號","OBJECTID":308844},"geometry":{"x":173608.69000000134,"y":2539045.0100000016}},{"attributes":{"ID":308853,"DIS_CODE":0,"TOWNNAME":"仁德區","LI":"後壁里","LIN":"7鄰","STREET":"德善二街","SECT":" ","MAREA":" ","LANE":"５１巷","ALLEY":" ","HOUSE_NO":"３號","E_COORD97":173622.64999999999,"N_COORD97":2538983.27,"ADDRESS":"德善二街５１巷３號","OBJECTID":308845},"geometry":{"x":173622.6500000013,"y":2538983.2699999996}},{"attributes":{"ID":308854,"DIS_CODE":0,"TOWNNAME":"仁德區","LI":"新田里","LIN":"7鄰","STREET":"新田路","SECT":" ","MAREA":" ","LANE":"３４巷","ALLEY":" ","HOUSE_NO":"５號","E_COORD97":174525.42999999999,"N_COORD97":2538964.5,"ADDRESS":"新田路３４巷５號","OBJECTID":308846},"geometry":{"x":174525.43000000063,"y":2538964.5}},{"attributes":{"ID":308855,"DIS_CODE":0,"TOWNNAME":"仁德區","LI":"新田里","LIN":"7鄰","STREET":"新田路","SECT":" ","MAREA":" ","LANE":"３４巷","ALLEY":" ","HOUSE_NO":"１０號","E_COORD97":174517.51999999999,"N_COORD97":2538913.2400000002,"ADDRESS":"新田路３４巷１０號","OBJECTID":308847},"geometry":{"x":174517.52000000048,"y":2538913.2400000002}},{"attributes":{"ID":308856,"DIS_CODE":0,"TOWNNAME":"永康區","LI":"王行里","LIN":"7鄰","STREET":"王行路","SECT":" ","MAREA":" ","LANE":"３５１巷","ALLEY":" ","HOUSE_NO":"５２號","E_COORD97":175328.23000000001,"N_COORD97":2548652.4900000002,"ADDRESS":"王行路３５１巷５２號","OBJECTID":308848},"geometry":{"x":175328.23000000045,"y":2548652.4900000039}},{"attributes":{"ID":308857,"DIS_CODE":0,"TOWNNAME":"永康區","LI":"王行里","LIN":"7鄰","STREET":"王行路","SECT":" ","MAREA":" ","LANE":"３５１巷","ALLEY":" ","HOUSE_NO":"６７號","E_COORD97":175323.07000000001,"N_COORD97":2548706.25,"ADDRESS":"王行路３５１巷６７號","OBJECTID":308849},"geometry":{"x":175323.07000000123,"y":2548706.2500000019}},{"attributes":{"ID":308858,"DIS_CODE":0,"TOWNNAME":"永康區","LI":"王行里","LIN":"7鄰","STREET":"王行路","SECT":" ","MAREA":" ","LANE":"３５１巷","ALLEY":" ","HOUSE_NO":"５４號","E_COORD97":175338.70999999999,"N_COORD97":2548657.7400000002,"ADDRESS":"王行路３５１巷５４號","OBJECTID":308850},"geometry":{"x":175338.71000000089,"y":2548657.7400000039}},{"attributes":{"ID":308859,"DIS_CODE":0,"TOWNNAME":"永康區","LI":"西灣里","LIN":"7鄰","STREET":"大灣五街","SECT":" ","MAREA":" ","LANE":"９３巷","ALLEY":" ","HOUSE_NO":"６９號","E_COORD97":174595.39000000001,"N_COORD97":2545181.2999999998,"ADDRESS":"大灣五街９３巷６９號","OBJECTID":308851},"geometry":{"x":174595.38999999966,"y":2545181.3000000007}},{"attributes":{"ID":308860,"DIS_CODE":0,"TOWNNAME":"新市區","LI":"新和里","LIN":"7鄰","STREET":"富強路","SECT":" ","MAREA":" ","LANE":"７５巷","ALLEY":" ","HOUSE_NO":"３號","E_COORD97":177237.48000000001,"N_COORD97":2552367.75,"ADDRESS":"富強路７５巷３號","OBJECTID":308852},"geometry":{"x":177237.48000000231,"y":2552367.7500000019}},{"attributes":{"ID":308861,"DIS_CODE":0,"TOWNNAME":"新市區","LI":"新和里","LIN":"7鄰","STREET":"富強路","SECT":" ","MAREA":" ","LANE":"５１巷","ALLEY":" ","HOUSE_NO":"７號","E_COORD97":177292.98000000001,"N_COORD97":2552384,"ADDRESS":"富強路５１巷７號","OBJECTID":308853},"geometry":{"x":177292.98000000045,"y":2552384}},{"attributes":{"ID":308862,"DIS_CODE":0,"TOWNNAME":"東區","LI":"崇明里","LIN":"7鄰","STREET":"大同路","SECT":"二段","MAREA":" ","LANE":"４４９巷","ALLEY":" ","HOUSE_NO":"３２之１號","E_COORD97":169739.73000000001,"N_COORD97":2541368.73,"ADDRESS":"大同路二段４４９巷３２之１號","OBJECTID":308854},"geometry":{"x":169739.73000000138,"y":2541368.7300000042}},{"attributes":{"ID":308863,"DIS_CODE":0,"TOWNNAME":"下營區","LI":"開化里","LIN":"12鄰","STREET":" ","SECT":" ","MAREA":"中營","LANE":" ","ALLEY":" ","HOUSE_NO":"６０７號一樓","E_COORD97":176190.47,"N_COORD97":2568373.0699999998,"ADDRESS":"中營６０７號一樓","OBJECTID":308855},"geometry":{"x":176190.46999999974,"y":2568373.0700000003}},{"attributes":{"ID":308864,"DIS_CODE":0,"TOWNNAME":"永康區","LI":"尚頂里","LIN":"26鄰","STREET":"南台街","SECT":" ","MAREA":" ","LANE":"１０巷","ALLEY":" ","HOUSE_NO":"３號四樓之３","E_COORD97":170464.09,"N_COORD97":2546989.4300000002,"ADDRESS":"南台街１０巷３號四樓之３","OBJECTID":308856},"geometry":{"x":170464.09000000078,"y":2546989.4299999997}},{"attributes":{"ID":308865,"DIS_CODE":0,"TOWNNAME":"永康區","LI":"尚頂里","LIN":"26鄰","STREET":"南台街","SECT":" ","MAREA":" ","LANE":"１０巷","ALLEY":" ","HOUSE_NO":"３號二樓之１","E_COORD97":170463.98999999999,"N_COORD97":2546989.4300000002,"ADDRESS":"南台街１０巷３號二樓之１","OBJECTID":308857},"geometry":{"x":170463.99000000022,"y":2546989.4299999997}},{"attributes":{"ID":308866,"DIS_CODE":0,"TOWNNAME":"永康區","LI":"西灣里","LIN":"39鄰","STREET":"永華路","SECT":" ","MAREA":" ","LANE":"２１２巷","ALLEY":" ","HOUSE_NO":"２２號四樓","E_COORD97":174160.76999999999,"N_COORD97":2545436.75,"ADDRESS":"永華路２１２巷２２號四樓","OBJECTID":308858},"geometry":{"x":174160.76999999955,"y":2545436.7500000019}},{"attributes":{"ID":308867,"DIS_CODE":0,"TOWNNAME":"永康區","LI":"埔園里","LIN":"35鄰","STREET":"八德街","SECT":" ","MAREA":" ","LANE":"５５巷","ALLEY":" ","HOUSE_NO":"２１號四樓之３","E_COORD97":174227.67000000001,"N_COORD97":2548454.27,"ADDRESS":"八德街５５巷２１號四樓之３","OBJECTID":308859},"geometry":{"x":174227.66999999993,"y":2548454.2700000014}},{"attributes":{"ID":308868,"DIS_CODE":0,"TOWNNAME":"東區","LI":"後甲里","LIN":"7鄰","STREET":"裕農路","SECT":" ","MAREA":" ","LANE":"６２１巷","ALLEY":" ","HOUSE_NO":"７６之２號","E_COORD97":171618.37,"N_COORD97":2543471.6400000001,"ADDRESS":"裕農路６２１巷７６之２號","OBJECTID":308860},"geometry":{"x":171618.37000000197,"y":2543471.6400000025}},{"attributes":{"ID":308869,"DIS_CODE":0,"TOWNNAME":"東區","LI":"東門里","LIN":"7鄰","STREET":"前鋒路","SECT":" ","MAREA":" ","LANE":"５６巷","ALLEY":" ","HOUSE_NO":"１３號","E_COORD97":169383.17000000001,"N_COORD97":2543484.1499999999,"ADDRESS":"前鋒路５６巷１３號","OBJECTID":308861},"geometry":{"x":169383.16999999993,"y":2543484.1500000004}},{"attributes":{"ID":308870,"DIS_CODE":0,"TOWNNAME":"東區","LI":"東門里","LIN":"7鄰","STREET":"前鋒路","SECT":" ","MAREA":" ","LANE":"５６巷","ALLEY":" ","HOUSE_NO":"１４號","E_COORD97":169371.14000000001,"N_COORD97":2543480.8900000001,"ADDRESS":"前鋒路５６巷１４號","OBJECTID":308862},"geometry":{"x":169371.13999999966,"y":2543480.8900000025}},{"attributes":{"ID":308871,"DIS_CODE":0,"TOWNNAME":"東區","LI":"東門里","LIN":"7鄰","STREET":"前鋒路","SECT":" ","MAREA":" ","LANE":"５６巷","ALLEY":" ","HOUSE_NO":"１５號","E_COORD97":169387.35999999999,"N_COORD97":2543483.5600000001,"ADDRESS":"前鋒路５６巷１５號","OBJECTID":308863},"geometry":{"x":169387.36000000034,"y":2543483.5600000024}},{"attributes":{"ID":308872,"DIS_CODE":0,"TOWNNAME":"東區","LI":"東門里","LIN":"7鄰","STREET":"前鋒路","SECT":" ","MAREA":" ","LANE":"５６巷","ALLEY":" ","HOUSE_NO":"１６號","E_COORD97":169374.26999999999,"N_COORD97":2543480.0299999998,"ADDRESS":"前鋒路５６巷１６號","OBJECTID":308864},"geometry":{"x":169374.27000000048,"y":2543480.0299999993}},{"attributes":{"ID":308873,"DIS_CODE":0,"TOWNNAME":"東區","LI":"東門里","LIN":"7鄰","STREET":"前鋒路","SECT":" ","MAREA":" ","LANE":"５６巷","ALLEY":" ","HOUSE_NO":"１７號","E_COORD97":169390.76999999999,"N_COORD97":2543481.27,"ADDRESS":"前鋒路５６巷１７號","OBJECTID":308865},"geometry":{"x":169390.76999999862,"y":2543481.2699999996}},{"attributes":{"ID":308874,"DIS_CODE":0,"TOWNNAME":"東區","LI":"東門里","LIN":"7鄰","STREET":"前鋒路","SECT":" ","MAREA":" ","LANE":"５６巷","ALLEY":" ","HOUSE_NO":"１８號","E_COORD97":169377.95000000001,"N_COORD97":2543479.1699999999,"ADDRESS":"前鋒路５６巷１８號","OBJECTID":308866},"geometry":{"x":169377.95000000019,"y":2543479.1699999999}},{"attributes":{"ID":308875,"DIS_CODE":0,"TOWNNAME":"東區","LI":"東門里","LIN":"7鄰","STREET":"前鋒路","SECT":" ","MAREA":" ","LANE":"５６巷","ALLEY":" ","HOUSE_NO":"１９號","E_COORD97":169393.92000000001,"N_COORD97":2543480.48,"ADDRESS":"前鋒路５６巷１９號","OBJECTID":308867},"geometry":{"x":169393.92000000086,"y":2543480.4800000023}},{"attributes":{"ID":308876,"DIS_CODE":0,"TOWNNAME":"東區","LI":"東門里","LIN":"7鄰","STREET":"前鋒路","SECT":" ","MAREA":" ","LANE":"５６巷","ALLEY":" ","HOUSE_NO":"１號","E_COORD97":169350.64999999999,"N_COORD97":2543498.3399999999,"ADDRESS":"前鋒路５６巷１號","OBJECTID":308868},"geometry":{"x":169350.6500000013,"y":2543498.3399999999}},{"attributes":{"ID":308877,"DIS_CODE":0,"TOWNNAME":"東區","LI":"大學里","LIN":"7鄰","STREET":"東寧路","SECT":" ","MAREA":" ","LANE":"１５巷","ALLEY":" ","HOUSE_NO":"１４號之１","E_COORD97":170131.10000000001,"N_COORD97":2543690.4399999999,"ADDRESS":"東寧路１５巷１４號之１","OBJECTID":308869},"geometry":{"x":170131.0999999987,"y":2543690.4399999995}},{"attributes":{"ID":308878,"DIS_CODE":0,"TOWNNAME":"東區","LI":"大學里","LIN":"7鄰","STREET":"東寧路","SECT":" ","MAREA":" ","LANE":"１５巷","ALLEY":" ","HOUSE_NO":"１６號","E_COORD97":170137.85000000001,"N_COORD97":2543692.3199999998,"ADDRESS":"東寧路１５巷１６號","OBJECTID":308870},"geometry":{"x":170137.8499999987,"y":2543692.3200000003}},{"attributes":{"ID":308879,"DIS_CODE":0,"TOWNNAME":"南區","LI":"再興里","LIN":"17鄰","STREET":"金華路","SECT":"二段","MAREA":" ","LANE":" ","ALLEY":" ","HOUSE_NO":"１７２號四樓之１","E_COORD97":167125.57000000001,"N_COORD97":2542273.6499999999,"ADDRESS":"金華路二段１７２號四樓之１","OBJECTID":308871},"geometry":{"x":167125.57000000123,"y":2542273.6500000004}},{"attributes":{"ID":308880,"DIS_CODE":0,"TOWNNAME":"南區","LI":"再興里","LIN":"17鄰","STREET":"金華路","SECT":"二段","MAREA":" ","LANE":" ","ALLEY":" ","HOUSE_NO":"１７２號四樓之２","E_COORD97":167125.57000000001,"N_COORD97":2542273.6499999999,"ADDRESS":"金華路二段１７２號四樓之２","OBJECTID":308872},"geometry":{"x":167125.57000000123,"y":2542273.6500000004}},{"attributes":{"ID":308881,"DIS_CODE":0,"TOWNNAME":"南區","LI":"再興里","LIN":"17鄰","STREET":"金華路","SECT":"二段","MAREA":" ","LANE":" ","ALLEY":" ","HOUSE_NO":"１７２號四樓之３","E_COORD97":167125.57000000001,"N_COORD97":2542273.6499999999,"ADDRESS":"金華路二段１７２號四樓之３","OBJECTID":308873},"geometry":{"x":167125.57000000123,"y":2542273.6500000004}},{"attributes":{"ID":308882,"DIS_CODE":0,"TOWNNAME":"永康區","LI":"西灣里","LIN":"24鄰","STREET":"國光八街","SECT":" ","MAREA":" ","LANE":" ","ALLEY":" ","HOUSE_NO":"５號七樓","E_COORD97":174427.89999999999,"N_COORD97":2545742.25,"ADDRESS":"國光八街５號七樓","OBJECTID":308874},"geometry":{"x":174427.9000000013,"y":2545742.2500000019}},{"attributes":{"ID":308883,"DIS_CODE":0,"TOWNNAME":"永康區","LI":"正強里","LIN":"32鄰","STREET":"四維街","SECT":" ","MAREA":" ","LANE":"５１巷","ALLEY":" ","HOUSE_NO":"５號四樓之１","E_COORD97":173382.45999999999,"N_COORD97":2548047.1899999999,"ADDRESS":"四維街５１巷５號四樓之１","OBJECTID":308875},"geometry":{"x":173382.46000000089,"y":2548047.1900000013}},{"attributes":{"ID":308884,"DIS_CODE":0,"TOWNNAME":"永康區","LI":"正強里","LIN":"32鄰","STREET":"四維街","SECT":" ","MAREA":" ","LANE":"５１巷","ALLEY":" ","HOUSE_NO":"５號四樓之２","E_COORD97":173382.59,"N_COORD97":2548047.1899999999,"ADDRESS":"四維街５１巷５號四樓之２","OBJECTID":308876},"geometry":{"x":173382.58999999985,"y":2548047.1900000013}},{"attributes":{"ID":308885,"DIS_CODE":0,"TOWNNAME":"永康區","LI":"正強里","LIN":"32鄰","STREET":"四維街","SECT":" ","MAREA":" ","LANE":"５１巷","ALLEY":" ","HOUSE_NO":"５號六樓之４","E_COORD97":173382.48000000001,"N_COORD97":2548047.1899999999,"ADDRESS":"四維街５１巷５號六樓之４","OBJECTID":308877},"geometry":{"x":173382.48000000231,"y":2548047.1900000013}},{"attributes":{"ID":308886,"DIS_CODE":0,"TOWNNAME":"永康區","LI":"永康里","LIN":"41鄰","STREET":"永福街","SECT":" ","MAREA":" ","LANE":"９７巷","ALLEY":" ","HOUSE_NO":"１０號八樓之３","E_COORD97":174257.81,"N_COORD97":2546628.23,"ADDRESS":"永福街９７巷１０號八樓之３","OBJECTID":308878},"geometry":{"x":174257.81000000052,"y":2546628.2300000023}},{"attributes":{"ID":308887,"DIS_CODE":0,"TOWNNAME":"永康區","LI":"安康里","LIN":"24鄰","STREET":"中華路","SECT":" ","MAREA":" ","LANE":"７０３巷","ALLEY":" ","HOUSE_NO":"５０號四樓","E_COORD97":170772.51999999999,"N_COORD97":2546271,"ADDRESS":"中華路７０３巷５０號四樓","OBJECTID":308879},"geometry":{"x":170772.52000000142,"y":2546271}},{"attributes":{"ID":308888,"DIS_CODE":0,"TOWNNAME":"東區","LI":"大學里","LIN":"7鄰","STREET":"東寧路","SECT":" ","MAREA":" ","LANE":"１５巷","ALLEY":" ","HOUSE_NO":"１８號","E_COORD97":170152.19,"N_COORD97":2543687.6600000001,"ADDRESS":"東寧路１５巷１８號","OBJECTID":308880},"geometry":{"x":170152.19000000134,"y":2543687.6600000039}},{"attributes":{"ID":308889,"DIS_CODE":0,"TOWNNAME":"東區","LI":"大學里","LIN":"7鄰","STREET":"東寧路","SECT":" ","MAREA":" ","LANE":"１５巷","ALLEY":" ","HOUSE_NO":"２０號","E_COORD97":170159.28,"N_COORD97":2543687.1800000002,"ADDRESS":"東寧路１５巷２０號","OBJECTID":308881},"geometry":{"x":170159.28000000026,"y":2543687.1800000034}},{"attributes":{"ID":308890,"DIS_CODE":0,"TOWNNAME":"南區","LI":"再興里","LIN":"17鄰","STREET":"金華路","SECT":"二段","MAREA":" ","LANE":" ","ALLEY":" ","HOUSE_NO":"１７２號四樓之４","E_COORD97":167125.57000000001,"N_COORD97":2542273.6499999999,"ADDRESS":"金華路二段１７２號四樓之４","OBJECTID":308882},"geometry":{"x":167125.57000000123,"y":2542273.6500000004}},{"attributes":{"ID":308891,"DIS_CODE":0,"TOWNNAME":"南區","LI":"再興里","LIN":"17鄰","STREET":"金華路","SECT":"二段","MAREA":" ","LANE":" ","ALLEY":" ","HOUSE_NO":"１７２號四樓之５","E_COORD97":167125.57000000001,"N_COORD97":2542273.6499999999,"ADDRESS":"金華路二段１７２號四樓之５","OBJECTID":308883},"geometry":{"x":167125.57000000123,"y":2542273.6500000004}},{"attributes":{"ID":308892,"DIS_CODE":0,"TOWNNAME":"南區","LI":"再興里","LIN":"17鄰","STREET":"金華路","SECT":"二段","MAREA":" ","LANE":" ","ALLEY":" ","HOUSE_NO":"１７２號四樓之６","E_COORD97":167125.57000000001,"N_COORD97":2542273.6499999999,"ADDRESS":"金華路二段１７２號四樓之６","OBJECTID":308884},"geometry":{"x":167125.57000000123,"y":2542273.6500000004}},{"attributes":{"ID":308893,"DIS_CODE":0,"TOWNNAME":"南區","LI":"再興里","LIN":"17鄰","STREET":"金華路","SECT":"二段","MAREA":" ","LANE":" ","ALLEY":" ","HOUSE_NO":"１７２號四樓之７","E_COORD97":167125.57000000001,"N_COORD97":2542273.6499999999,"ADDRESS":"金華路二段１７２號四樓之７","OBJECTID":308885},"geometry":{"x":167125.57000000123,"y":2542273.6500000004}},{"attributes":{"ID":308894,"DIS_CODE":0,"TOWNNAME":"東區","LI":"虎尾里","LIN":"20鄰","STREET":"自由路","SECT":"三段","MAREA":" ","LANE":" ","ALLEY":" ","HOUSE_NO":"１９號七樓","E_COORD97":171793.38,"N_COORD97":2541903.52,"ADDRESS":"自由路三段１９號七樓","OBJECTID":308886},"geometry":{"x":171793.38000000082,"y":2541903.5199999996}},{"attributes":{"ID":308895,"DIS_CODE":0,"TOWNNAME":"東區","LI":"大學里","LIN":"7鄰","STREET":"東寧路","SECT":" ","MAREA":" ","LANE":"１５巷","ALLEY":" ","HOUSE_NO":"８號","E_COORD97":170089.39000000001,"N_COORD97":2543670.7599999998,"ADDRESS":"東寧路１５巷８號","OBJECTID":308887},"geometry":{"x":170089.3900000006,"y":2543670.7600000016}},{"attributes":{"ID":308896,"DIS_CODE":0,"TOWNNAME":"東區","LI":"大學里","LIN":"7鄰","STREET":"東寧路","SECT":" ","MAREA":" ","LANE":"１５巷","ALLEY":" ","HOUSE_NO":"８號之１","E_COORD97":170078.54000000001,"N_COORD97":2543668.3199999998,"ADDRESS":"東寧路１５巷８號之１","OBJECTID":308888},"geometry":{"x":170078.54000000097,"y":2543668.3200000003}},{"attributes":{"ID":308897,"DIS_CODE":0,"TOWNNAME":"中西區","LI":"民權里","LIN":"7鄰","STREET":"民權路","SECT":"三段","MAREA":" ","LANE":"１４３巷","ALLEY":" ","HOUSE_NO":"１９號","E_COORD97":167520.23000000001,"N_COORD97":2544175.2400000002,"ADDRESS":"民權路三段１４３巷１９號","OBJECTID":308889},"geometry":{"x":167520.23000000045,"y":2544175.2399999984}},{"attributes":{"ID":308898,"DIS_CODE":0,"TOWNNAME":"中西區","LI":"民權里","LIN":"7鄰","STREET":"民權路","SECT":"三段","MAREA":" ","LANE":"１４３巷","ALLEY":" ","HOUSE_NO":"２１號","E_COORD97":167513.73000000001,"N_COORD97":2544170.73,"ADDRESS":"民權路三段１４３巷２１號","OBJECTID":308890},"geometry":{"x":167513.73000000231,"y":2544170.7300000004}},{"attributes":{"ID":308899,"DIS_CODE":0,"TOWNNAME":"南區","LI":"再興里","LIN":"17鄰","STREET":"金華路","SECT":"二段","MAREA":" ","LANE":" ","ALLEY":" ","HOUSE_NO":"１７２號四樓之８","E_COORD97":167125.57000000001,"N_COORD97":2542273.6499999999,"ADDRESS":"金華路二段１７２號四樓之８","OBJECTID":308891},"geometry":{"x":167125.57000000123,"y":2542273.6500000004}},{"attributes":{"ID":308900,"DIS_CODE":0,"TOWNNAME":"佳里區","LI":"東寧里","LIN":"1鄰","STREET":"中山路","SECT":" ","MAREA":" ","LANE":" ","ALLEY":" ","HOUSE_NO":"２７６號","E_COORD97":165725.06,"N_COORD97":2562310.1499999999,"ADDRESS":"中山路２７６號","OBJECTID":308892},"geometry":{"x":165725.05999999959,"y":2562310.1500000004}},{"attributes":{"ID":308901,"DIS_CODE":0,"TOWNNAME":"東區","LI":"泉南里","LIN":"37鄰","STREET":"林森路","SECT":"一段","MAREA":" ","LANE":"１５３巷","ALLEY":" ","HOUSE_NO":"１７號九樓","E_COORD97":169521.66,"N_COORD97":2542730.3700000001,"ADDRESS":"林森路一段１５３巷１７號九樓","OBJECTID":308893},"geometry":{"x":169521.66000000108,"y":2542730.370000001}},{"attributes":{"ID":308902,"DIS_CODE":0,"TOWNNAME":"佳里區","LI":"鎮山里","LIN":"7鄰","STREET":"中興街","SECT":" ","MAREA":" ","LANE":"３８０巷","ALLEY":" ","HOUSE_NO":"５號","E_COORD97":166185.42000000001,"N_COORD97":2561696.0699999998,"ADDRESS":"中興街３８０巷５號","OBJECTID":308894},"geometry":{"x":166185.42000000086,"y":2561696.0700000022}},{"attributes":{"ID":308903,"DIS_CODE":0,"TOWNNAME":"東區","LI":"泉南里","LIN":"37鄰","STREET":"林森路","SECT":"一段","MAREA":" ","LANE":"１５３巷","ALLEY":" ","HOUSE_NO":"１７號二樓","E_COORD97":169521.66,"N_COORD97":2542730.3700000001,"ADDRESS":"林森路一段１５３巷１７號二樓","OBJECTID":308895},"geometry":{"x":169521.66000000108,"y":2542730.370000001}},{"attributes":{"ID":308904,"DIS_CODE":0,"TOWNNAME":"東區","LI":"泉南里","LIN":"37鄰","STREET":"林森路","SECT":"一段","MAREA":" ","LANE":"１５３巷","ALLEY":" ","HOUSE_NO":"１７號八樓","E_COORD97":169521.66,"N_COORD97":2542730.3700000001,"ADDRESS":"林森路一段１５３巷１７號八樓","OBJECTID":308896},"geometry":{"x":169521.66000000108,"y":2542730.370000001}},{"attributes":{"ID":308905,"DIS_CODE":0,"TOWNNAME":"東區","LI":"泉南里","LIN":"37鄰","STREET":"林森路","SECT":"一段","MAREA":" ","LANE":"１５３巷","ALLEY":" ","HOUSE_NO":"１７號十一樓","E_COORD97":169521.66,"N_COORD97":2542730.3700000001,"ADDRESS":"林森路一段１５３巷１７號十一樓","OBJECTID":308897},"geometry":{"x":169521.66000000108,"y":2542730.370000001}},{"attributes":{"ID":308906,"DIS_CODE":0,"TOWNNAME":"東區","LI":"泉南里","LIN":"37鄰","STREET":"林森路","SECT":"一段","MAREA":" ","LANE":"１５３巷","ALLEY":" ","HOUSE_NO":"１７號十二樓","E_COORD97":169521.66,"N_COORD97":2542730.3700000001,"ADDRESS":"林森路一段１５３巷１７號十二樓","OBJECTID":308898},"geometry":{"x":169521.66000000108,"y":2542730.370000001}},{"attributes":{"ID":308907,"DIS_CODE":0,"TOWNNAME":"中西區","LI":"民權里","LIN":"7鄰","STREET":"民權路","SECT":"三段","MAREA":" ","LANE":"１４３巷","ALLEY":" ","HOUSE_NO":"２３號","E_COORD97":167509.5,"N_COORD97":2544173.9700000002,"ADDRESS":"民權路三段１４３巷２３號","OBJECTID":308899},"geometry":{"x":167509.5,"y":2544173.9700000007}},{"attributes":{"ID":308908,"DIS_CODE":0,"TOWNNAME":"中西區","LI":"民權里","LIN":"7鄰","STREET":"民權路","SECT":"三段","MAREA":" ","LANE":"１４３巷","ALLEY":" ","HOUSE_NO":"２５號","E_COORD97":167504.51999999999,"N_COORD97":2544172.77,"ADDRESS":"民權路三段１４３巷２５號","OBJECTID":308900},"geometry":{"x":167504.52000000048,"y":2544172.7700000014}},{"attributes":{"ID":308909,"DIS_CODE":0,"TOWNNAME":"中西區","LI":"民權里","LIN":"7鄰","STREET":"和平街","SECT":" ","MAREA":" ","LANE":"１１８巷","ALLEY":" ","HOUSE_NO":"８號","E_COORD97":167471.97,"N_COORD97":2544174.46,"ADDRESS":"和平街１１８巷８號","OBJECTID":308901},"geometry":{"x":167471.96999999974,"y":2544174.459999999}},{"attributes":{"ID":308910,"DIS_CODE":0,"TOWNNAME":"中西區","LI":"民權里","LIN":"7鄰","STREET":"民權路","SECT":"三段","MAREA":" ","LANE":"１４３巷","ALLEY":" ","HOUSE_NO":"３９號","E_COORD97":167436.59,"N_COORD97":2544180.6800000002,"ADDRESS":"民權路三段１４３巷３９號","OBJECTID":308902},"geometry":{"x":167436.59000000078,"y":2544180.6799999997}},{"attributes":{"ID":308911,"DIS_CODE":0,"TOWNNAME":"中西區","LI":"民權里","LIN":"7鄰","STREET":"和平街","SECT":" ","MAREA":" ","LANE":"１１８巷","ALLEY":" ","HOUSE_NO":"１３號","E_COORD97":167451.28,"N_COORD97":2544173.2400000002,"ADDRESS":"和平街１１８巷１３號","OBJECTID":308903},"geometry":{"x":167451.28000000119,"y":2544173.2400000021}},{"attributes":{"ID":308912,"DIS_CODE":0,"TOWNNAME":"中西區","LI":"民權里","LIN":"7鄰","STREET":"和平街","SECT":" ","MAREA":" ","LANE":"１１８巷","ALLEY":" ","HOUSE_NO":"１７號","E_COORD97":167451.28,"N_COORD97":2544176.5499999998,"ADDRESS":"和平街１１８巷１７號","OBJECTID":308904},"geometry":{"x":167451.28000000119,"y":2544176.5500000007}},{"attributes":{"ID":308913,"DIS_CODE":0,"TOWNNAME":"新營區","LI":"大宏里","LIN":" ","STREET":"三民路","SECT":" ","MAREA":" ","LANE":" ","ALLEY":" ","HOUSE_NO":"４６、４２號","E_COORD97":180374.69,"N_COORD97":2578514.54,"ADDRESS":"三民路４６、４２號","OBJECTID":308905},"geometry":{"x":180374.69000000041,"y":2578514.540000001}},{"attributes":{"ID":308914,"DIS_CODE":0,"TOWNNAME":"新營區","LI":"中營里","LIN":"5鄰","STREET":"大同路","SECT":" ","MAREA":" ","LANE":" ","ALLEY":" ","HOUSE_NO":"３號","E_COORD97":180705.12,"N_COORD97":2578498.5099999998,"ADDRESS":"大同路３號","OBJECTID":308906},"geometry":{"x":180705.12000000104,"y":2578498.5100000016}},{"attributes":{"ID":308915,"DIS_CODE":0,"TOWNNAME":"新營區","LI":"中營里","LIN":"5鄰","STREET":"三民路","SECT":" ","MAREA":" ","LANE":" ","ALLEY":" ","HOUSE_NO":"６之１號","E_COORD97":180656.45999999999,"N_COORD97":2578510.98,"ADDRESS":"三民路６之１號","OBJECTID":308907},"geometry":{"x":180656.46000000089,"y":2578510.9800000004}},{"attributes":{"ID":308916,"DIS_CODE":0,"TOWNNAME":"北區","LI":"公園里","LIN":"17鄰","STREET":"成功路","SECT":" ","MAREA":" ","LANE":" ","ALLEY":" ","HOUSE_NO":"５０號七樓之１","E_COORD97":168765.81,"N_COORD97":2544291.5699999998,"ADDRESS":"成功路５０號七樓之１","OBJECTID":308908},"geometry":{"x":168765.81000000052,"y":2544291.5700000003}},{"attributes":{"ID":308917,"DIS_CODE":0,"TOWNNAME":"北區","LI":"公園里","LIN":"17鄰","STREET":"成功路","SECT":" ","MAREA":" ","LANE":" ","ALLEY":" ","HOUSE_NO":"５０號七樓之１０","E_COORD97":168765.81,"N_COORD97":2544291.5699999998,"ADDRESS":"成功路５０號七樓之１０","OBJECTID":308909},"geometry":{"x":168765.81000000052,"y":2544291.5700000003}},{"attributes":{"ID":308918,"DIS_CODE":0,"TOWNNAME":"北區","LI":"公園里","LIN":"17鄰","STREET":"成功路","SECT":" ","MAREA":" ","LANE":" ","ALLEY":" ","HOUSE_NO":"５０號七樓之２","E_COORD97":168765.81,"N_COORD97":2544291.5699999998,"ADDRESS":"成功路５０號七樓之２","OBJECTID":308910},"geometry":{"x":168765.81000000052,"y":2544291.5700000003}},{"attributes":{"ID":308919,"DIS_CODE":0,"TOWNNAME":"北區","LI":"公園里","LIN":"17鄰","STREET":"成功路","SECT":" ","MAREA":" ","LANE":" ","ALLEY":" ","HOUSE_NO":"５０號七樓之３","E_COORD97":168765.81,"N_COORD97":2544291.5699999998,"ADDRESS":"成功路５０號七樓之３","OBJECTID":308911},"geometry":{"x":168765.81000000052,"y":2544291.5700000003}},{"attributes":{"ID":308920,"DIS_CODE":0,"TOWNNAME":"官田區","LI":"大崎里","LIN":"8鄰","STREET":" ","SECT":" ","MAREA":"大崎","LANE":" ","ALLEY":" ","HOUSE_NO":"６６號之２５二樓","E_COORD97":185831.63,"N_COORD97":2565307.0099999998,"ADDRESS":"大崎６６號之２５二樓","OBJECTID":308912},"geometry":{"x":185831.62999999989,"y":2565307.0100000016}},{"attributes":{"ID":308921,"DIS_CODE":0,"TOWNNAME":"官田區","LI":"大崎里","LIN":"8鄰","STREET":" ","SECT":" ","MAREA":"大崎","LANE":" ","ALLEY":" ","HOUSE_NO":"６６號之２６二樓","E_COORD97":185829.01999999999,"N_COORD97":2565312.1699999999,"ADDRESS":"大崎６６號之２６二樓","OBJECTID":308913},"geometry":{"x":185829.01999999862,"y":2565312.1700000018}},{"attributes":{"ID":308922,"DIS_CODE":0,"TOWNNAME":"佳里區","LI":"東寧里","LIN":"7鄰","STREET":"中山路","SECT":" ","MAREA":" ","LANE":"３４６巷","ALLEY":" ","HOUSE_NO":"３１號","E_COORD97":165807.12,"N_COORD97":2562475.4399999999,"ADDRESS":"中山路３４６巷３１號","OBJECTID":308914},"geometry":{"x":165807.12000000197,"y":2562475.4400000013}},{"attributes":{"ID":308923,"DIS_CODE":0,"TOWNNAME":"佳里區","LI":"東寧里","LIN":"7鄰","STREET":"中山路","SECT":" ","MAREA":" ","LANE":"３４６巷","ALLEY":" ","HOUSE_NO":"３２號","E_COORD97":165813.94,"N_COORD97":2562473.75,"ADDRESS":"中山路３４６巷３２號","OBJECTID":308915},"geometry":{"x":165813.94000000134,"y":2562473.7500000019}},{"attributes":{"ID":308924,"DIS_CODE":0,"TOWNNAME":"佳里區","LI":"東寧里","LIN":"7鄰","STREET":"中山路","SECT":" ","MAREA":" ","LANE":"３４６巷","ALLEY":" ","HOUSE_NO":"３４號之１","E_COORD97":165818,"N_COORD97":2562469.3399999999,"ADDRESS":"中山路３４６巷３４號之１","OBJECTID":308916},"geometry":{"x":165818.00000000186,"y":2562469.3400000017}},{"attributes":{"ID":308925,"DIS_CODE":0,"TOWNNAME":"佳里區","LI":"東寧里","LIN":"7鄰","STREET":"中山路","SECT":" ","MAREA":" ","LANE":"３４６巷","ALLEY":" ","HOUSE_NO":"３５號","E_COORD97":165822.47,"N_COORD97":2562470.73,"ADDRESS":"中山路３４６巷３５號","OBJECTID":308917},"geometry":{"x":165822.46999999974,"y":2562470.7300000023}},{"attributes":{"ID":308926,"DIS_CODE":0,"TOWNNAME":"佳里區","LI":"東寧里","LIN":"7鄰","STREET":"中山路","SECT":" ","MAREA":" ","LANE":"３４６巷","ALLEY":" ","HOUSE_NO":"３６號","E_COORD97":165825.95000000001,"N_COORD97":2562470.29,"ADDRESS":"中山路３４６巷３６號","OBJECTID":308918},"geometry":{"x":165825.95000000112,"y":2562470.2899999991}},{"attributes":{"ID":308927,"DIS_CODE":0,"TOWNNAME":"佳里區","LI":"東寧里","LIN":"7鄰","STREET":"中山路","SECT":" ","MAREA":" ","LANE":"３４６巷","ALLEY":" ","HOUSE_NO":"３８號","E_COORD97":165832.57999999999,"N_COORD97":2562467.6800000002,"ADDRESS":"中山路３４６巷３８號","OBJECTID":308919},"geometry":{"x":165832.58000000007,"y":2562467.6800000016}},{"attributes":{"ID":308928,"DIS_CODE":0,"TOWNNAME":"鹽水區","LI":"岸內里","LIN":"24鄰","STREET":"北門路","SECT":" ","MAREA":" ","LANE":"９巷","ALLEY":" ","HOUSE_NO":"８６號","E_COORD97":175433.97,"N_COORD97":2580538.0099999998,"ADDRESS":"北門路９巷８６號","OBJECTID":308920},"geometry":{"x":175433.96999999974,"y":2580538.0099999998}},{"attributes":{"ID":308929,"DIS_CODE":0,"TOWNNAME":"鹽水區","LI":"岸內里","LIN":"24鄰","STREET":"北門路","SECT":" ","MAREA":" ","LANE":"９巷","ALLEY":" ","HOUSE_NO":"８８號","E_COORD97":175433.69,"N_COORD97":2580542.3900000001,"ADDRESS":"北門路９巷８８號","OBJECTID":308921},"geometry":{"x":175433.69000000041,"y":2580542.3900000006}},{"attributes":{"ID":308930,"DIS_CODE":0,"TOWNNAME":"鹽水區","LI":"岸內里","LIN":"24鄰","STREET":"北門路","SECT":" ","MAREA":" ","LANE":"９巷","ALLEY":" ","HOUSE_NO":"８９號","E_COORD97":175407.20000000001,"N_COORD97":2580540.7599999998,"ADDRESS":"北門路９巷８９號","OBJECTID":308922},"geometry":{"x":175407.20000000112,"y":2580540.7600000016}},{"attributes":{"ID":308931,"DIS_CODE":0,"TOWNNAME":"鹽水區","LI":"岸內里","LIN":"24鄰","STREET":"北門路","SECT":" ","MAREA":" ","LANE":"９巷","ALLEY":" ","HOUSE_NO":"９０之１號","E_COORD97":175405.73999999999,"N_COORD97":2580587.7000000002,"ADDRESS":"北門路９巷９０之１號","OBJECTID":308923},"geometry":{"x":175405.74000000022,"y":2580587.7000000011}},{"attributes":{"ID":308932,"DIS_CODE":0,"TOWNNAME":"鹽水區","LI":"岸內里","LIN":"24鄰","STREET":"北門路","SECT":" ","MAREA":" ","LANE":"９巷","ALLEY":" ","HOUSE_NO":"９０之２號","E_COORD97":175387.85999999999,"N_COORD97":2580600.6699999999,"ADDRESS":"北門路９巷９０之２號","OBJECTID":308924},"geometry":{"x":175387.86000000034,"y":2580600.6699999999}},{"attributes":{"ID":308933,"DIS_CODE":0,"TOWNNAME":"佳里區","LI":"鎮山里","LIN":"7鄰","STREET":"中興街","SECT":" ","MAREA":" ","LANE":"３８０巷","ALLEY":" ","HOUSE_NO":"１３號","E_COORD97":166212.29999999999,"N_COORD97":2561699.3700000001,"ADDRESS":"中興街３８０巷１３號","OBJECTID":308925},"geometry":{"x":166212.29999999981,"y":2561699.370000001}},{"attributes":{"ID":308934,"DIS_CODE":0,"TOWNNAME":"佳里區","LI":"鎮山里","LIN":"7鄰","STREET":"中興街","SECT":" ","MAREA":" ","LANE":"３８０巷","ALLEY":" ","HOUSE_NO":"１號","E_COORD97":166177.76999999999,"N_COORD97":2561702.1299999999,"ADDRESS":"中興街３８０巷１號","OBJECTID":308926},"geometry":{"x":166177.76999999955,"y":2561702.129999999}},{"attributes":{"ID":308935,"DIS_CODE":0,"TOWNNAME":"歸仁區","LI":"大廟里","LIN":"5鄰","STREET":"南丁路","SECT":" ","MAREA":" ","LANE":" ","ALLEY":" ","HOUSE_NO":"７１２號","E_COORD97":175967.71622199999,"N_COORD97":2543547.30847,"ADDRESS":"南丁路７１２號","OBJECTID":308927},"geometry":{"x":175967.71622200031,"y":2543547.3084700014}},{"attributes":{"ID":308936,"DIS_CODE":0,"TOWNNAME":"永康區","LI":"正強里","LIN":"32鄰","STREET":"四維街","SECT":" ","MAREA":" ","LANE":"５１巷","ALLEY":" ","HOUSE_NO":"５號二樓之４","E_COORD97":173382.48000000001,"N_COORD97":2548047.1899999999,"ADDRESS":"四維街５１巷５號二樓之４","OBJECTID":308928},"geometry":{"x":173382.48000000231,"y":2548047.1900000013}},{"attributes":{"ID":308937,"DIS_CODE":0,"TOWNNAME":"永康區","LI":"永康里","LIN":"41鄰","STREET":"永福街","SECT":" ","MAREA":" ","LANE":"９７巷","ALLEY":" ","HOUSE_NO":"１０號八樓之５","E_COORD97":174257.87,"N_COORD97":2546628.23,"ADDRESS":"永福街９７巷１０號八樓之５","OBJECTID":308929},"geometry":{"x":174257.87000000104,"y":2546628.2300000023}},{"attributes":{"ID":308938,"DIS_CODE":0,"TOWNNAME":"北區","LI":"公園里","LIN":"17鄰","STREET":"成功路","SECT":" ","MAREA":" ","LANE":" ","ALLEY":" ","HOUSE_NO":"５０號七樓之４","E_COORD97":168765.81,"N_COORD97":2544291.5699999998,"ADDRESS":"成功路５０號七樓之４","OBJECTID":308930},"geometry":{"x":168765.81000000052,"y":2544291.5700000003}},{"attributes":{"ID":308939,"DIS_CODE":0,"TOWNNAME":"北區","LI":"公園里","LIN":"17鄰","STREET":"成功路","SECT":" ","MAREA":" ","LANE":" ","ALLEY":" ","HOUSE_NO":"５０號七樓之５","E_COORD97":168765.81,"N_COORD97":2544291.5699999998,"ADDRESS":"成功路５０號七樓之５","OBJECTID":308931},"geometry":{"x":168765.81000000052,"y":2544291.5700000003}},{"attributes":{"ID":308940,"DIS_CODE":0,"TOWNNAME":"永康區","LI":"安康里","LIN":"23鄰","STREET":"中華西街","SECT":" ","MAREA":" ","LANE":"１２２巷","ALLEY":" ","HOUSE_NO":"３１號三樓","E_COORD97":170827.29000000001,"N_COORD97":2546218.5099999998,"ADDRESS":"中華西街１２２巷３１號三樓","OBJECTID":308932},"geometry":{"x":170827.29000000097,"y":2546218.5100000016}},{"attributes":{"ID":308941,"DIS_CODE":0,"TOWNNAME":"永康區","LI":"安康里","LIN":"23鄰","STREET":"中華西街","SECT":" ","MAREA":" ","LANE":"１２２巷","ALLEY":" ","HOUSE_NO":"３３號六樓","E_COORD97":170837.79000000001,"N_COORD97":2546218.7599999998,"ADDRESS":"中華西街１２２巷３３號六樓","OBJECTID":308933},"geometry":{"x":170837.79000000097,"y":2546218.7599999998}},{"attributes":{"ID":308942,"DIS_CODE":0,"TOWNNAME":"永康區","LI":"北灣里","LIN":"3鄰","STREET":"文賢街","SECT":" ","MAREA":" ","LANE":"１３６巷","ALLEY":" ","HOUSE_NO":"１０號九樓之２","E_COORD97":175429.64999999999,"N_COORD97":2545543.8799999999,"ADDRESS":"文賢街１３６巷１０號九樓之２","OBJECTID":308934},"geometry":{"x":175429.6500000013,"y":2545543.8800000008}},{"attributes":{"ID":308943,"DIS_CODE":0,"TOWNNAME":"永康區","LI":"永康里","LIN":"41鄰","STREET":"永福街","SECT":" ","MAREA":" ","LANE":"９７巷","ALLEY":" ","HOUSE_NO":"１０號十樓之１","E_COORD97":174257.70999999999,"N_COORD97":2546628.23,"ADDRESS":"永福街９７巷１０號十樓之１","OBJECTID":308935},"geometry":{"x":174257.71000000089,"y":2546628.2300000023}},{"attributes":{"ID":308944,"DIS_CODE":0,"TOWNNAME":"永康區","LI":"永康里","LIN":"41鄰","STREET":"永福街","SECT":" ","MAREA":" ","LANE":"９７巷","ALLEY":" ","HOUSE_NO":"１０號九樓之９","E_COORD97":174257.79000000001,"N_COORD97":2546628.23,"ADDRESS":"永福街９７巷１０號九樓之９","OBJECTID":308936},"geometry":{"x":174257.79000000004,"y":2546628.2300000023}},{"attributes":{"ID":308945,"DIS_CODE":0,"TOWNNAME":"佳里區","LI":"鎮山里","LIN":"7鄰","STREET":"中興街","SECT":" ","MAREA":" ","LANE":"３８０巷","ALLEY":" ","HOUSE_NO":"９號","E_COORD97":166197.64999999999,"N_COORD97":2561703.6000000001,"ADDRESS":"中興街３８０巷９號","OBJECTID":308937},"geometry":{"x":166197.6500000013,"y":2561703.5999999996}},{"attributes":{"ID":308946,"DIS_CODE":0,"TOWNNAME":"新化區","LI":"太平里","LIN":"7鄰","STREET":"民生路","SECT":" ","MAREA":" ","LANE":"３１４巷","ALLEY":" ","HOUSE_NO":"６５號","E_COORD97":179132.85999999999,"N_COORD97":2549239.25,"ADDRESS":"民生路３１４巷６５號","OBJECTID":308938},"geometry":{"x":179132.86000000034,"y":2549239.25}},{"attributes":{"ID":308947,"DIS_CODE":0,"TOWNNAME":"北區","LI":"成功里","LIN":"20鄰","STREET":"中華北路","SECT":"二段","MAREA":" ","LANE":"２８６巷","ALLEY":" ","HOUSE_NO":"１號","E_COORD97":168878.82999999999,"N_COORD97":2546907.3999999999,"ADDRESS":"中華北路二段２８６巷１號","OBJECTID":308939},"geometry":{"x":168878.83000000007,"y":2546907.4000000041}},{"attributes":{"ID":308948,"DIS_CODE":0,"TOWNNAME":"北區","LI":"成功里","LIN":"20鄰","STREET":"中華北路","SECT":"二段","MAREA":" ","LANE":"２８６巷","ALLEY":" ","HOUSE_NO":"２號","E_COORD97":168893.48000000001,"N_COORD97":2546909.7400000002,"ADDRESS":"中華北路二段２８６巷２號","OBJECTID":308940},"geometry":{"x":168893.48000000045,"y":2546909.7400000021}},{"attributes":{"ID":308949,"DIS_CODE":0,"TOWNNAME":"北區","LI":"成功里","LIN":"20鄰","STREET":"中華北路","SECT":"二段","MAREA":" ","LANE":"２８６巷","ALLEY":" ","HOUSE_NO":"３號","E_COORD97":168910.17000000001,"N_COORD97":2546912.3799999999,"ADDRESS":"中華北路二段２８６巷３號","OBJECTID":308941},"geometry":{"x":168910.16999999993,"y":2546912.3799999971}},{"attributes":{"ID":308950,"DIS_CODE":0,"TOWNNAME":"北區","LI":"公園里","LIN":"17鄰","STREET":"成功路","SECT":" ","MAREA":" ","LANE":" ","ALLEY":" ","HOUSE_NO":"５０號七樓之６","E_COORD97":168765.81,"N_COORD97":2544291.5699999998,"ADDRESS":"成功路５０號七樓之６","OBJECTID":308942},"geometry":{"x":168765.81000000052,"y":2544291.5700000003}},{"attributes":{"ID":308951,"DIS_CODE":0,"TOWNNAME":"北區","LI":"公園里","LIN":"17鄰","STREET":"成功路","SECT":" ","MAREA":" ","LANE":" ","ALLEY":" ","HOUSE_NO":"５０號七樓之７","E_COORD97":168765.81,"N_COORD97":2544291.5699999998,"ADDRESS":"成功路５０號七樓之７","OBJECTID":308943},"geometry":{"x":168765.81000000052,"y":2544291.5700000003}},{"attributes":{"ID":308952,"DIS_CODE":0,"TOWNNAME":"北區","LI":"公園里","LIN":"17鄰","STREET":"成功路","SECT":" ","MAREA":" ","LANE":" ","ALLEY":" ","HOUSE_NO":"５０號七樓之８","E_COORD97":168765.81,"N_COORD97":2544291.5699999998,"ADDRESS":"成功路５０號七樓之８","OBJECTID":308944},"geometry":{"x":168765.81000000052,"y":2544291.5700000003}},{"attributes":{"ID":308953,"DIS_CODE":0,"TOWNNAME":"北區","LI":"公園里","LIN":"17鄰","STREET":"成功路","SECT":" ","MAREA":" ","LANE":" ","ALLEY":" ","HOUSE_NO":"５０號七樓之９","E_COORD97":168765.81,"N_COORD97":2544291.5699999998,"ADDRESS":"成功路５０號七樓之９","OBJECTID":308945},"geometry":{"x":168765.81000000052,"y":2544291.5700000003}},{"attributes":{"ID":308954,"DIS_CODE":0,"TOWNNAME":"北區","LI":"公園里","LIN":"17鄰","STREET":"成功路","SECT":" ","MAREA":" ","LANE":" ","ALLEY":" ","HOUSE_NO":"５０號九樓之１","E_COORD97":168765.81,"N_COORD97":2544291.5699999998,"ADDRESS":"成功路５０號九樓之１","OBJECTID":308946},"geometry":{"x":168765.81000000052,"y":2544291.5700000003}},{"attributes":{"ID":308955,"DIS_CODE":0,"TOWNNAME":"永康區","LI":"永康里","LIN":"41鄰","STREET":"永福街","SECT":" ","MAREA":" ","LANE":"９７巷","ALLEY":" ","HOUSE_NO":"１０號八樓之４","E_COORD97":174257.73999999999,"N_COORD97":2546628.23,"ADDRESS":"永福街９７巷１０號八樓之４","OBJECTID":308947},"geometry":{"x":174257.74000000115,"y":2546628.2300000023}},{"attributes":{"ID":308956,"DIS_CODE":0,"TOWNNAME":"新化區","LI":"護國里","LIN":"7鄰","STREET":"中山路","SECT":" ","MAREA":" ","LANE":"２０９巷","ALLEY":" ","HOUSE_NO":"１號之２","E_COORD97":179260.66,"N_COORD97":2548429.2599999998,"ADDRESS":"中山路２０９巷１號之２","OBJECTID":308948},"geometry":{"x":179260.66000000108,"y":2548429.2599999998}},{"attributes":{"ID":308957,"DIS_CODE":0,"TOWNNAME":"新化區","LI":"護國里","LIN":"7鄰","STREET":"復興路","SECT":" ","MAREA":" ","LANE":"２９０巷","ALLEY":" ","HOUSE_NO":"２５號","E_COORD97":179400.76999999999,"N_COORD97":2548448.25,"ADDRESS":"復興路２９０巷２５號","OBJECTID":308949},"geometry":{"x":179400.76999999955,"y":2548448.2500000019}},{"attributes":{"ID":308958,"DIS_CODE":0,"TOWNNAME":"新化區","LI":"太平里","LIN":"7鄰","STREET":"民生路","SECT":" ","MAREA":" ","LANE":"３１４巷","ALLEY":" ","HOUSE_NO":"６７號之５","E_COORD97":179187.32000000001,"N_COORD97":2549288.2599999998,"ADDRESS":"民生路３１４巷６７號之５","OBJECTID":308950},"geometry":{"x":179187.3200000003,"y":2549288.2600000016}},{"attributes":{"ID":308959,"DIS_CODE":0,"TOWNNAME":"新化區","LI":"清水里","LIN":"7鄰","STREET":"忠孝路","SECT":" ","MAREA":" ","LANE":"１６１巷","ALLEY":" ","HOUSE_NO":"２３號","E_COORD97":178655.76999999999,"N_COORD97":2548575.25,"ADDRESS":"忠孝路１６１巷２３號","OBJECTID":308951},"geometry":{"x":178655.77000000048,"y":2548575.25}},{"attributes":{"ID":308960,"DIS_CODE":0,"TOWNNAME":"新化區","LI":"護國里","LIN":"7鄰","STREET":"復興路","SECT":" ","MAREA":" ","LANE":"２９０巷","ALLEY":" ","HOUSE_NO":"３號","E_COORD97":179357.12,"N_COORD97":2548488.25,"ADDRESS":"復興路２９０巷３號","OBJECTID":308952},"geometry":{"x":179357.12000000104,"y":2548488.2500000019}},{"attributes":{"ID":308961,"DIS_CODE":0,"TOWNNAME":"北區","LI":"成功里","LIN":"21鄰","STREET":"北安路","SECT":"一段","MAREA":" ","LANE":"３７２巷","ALLEY":" ","HOUSE_NO":"１７號","E_COORD97":168701.41,"N_COORD97":2546835.9100000001,"ADDRESS":"北安路一段３７２巷１７號","OBJECTID":308953},"geometry":{"x":168701.41000000108,"y":2546835.9100000039}},{"attributes":{"ID":308962,"DIS_CODE":0,"TOWNNAME":"北區","LI":"成功里","LIN":"21鄰","STREET":"北安路","SECT":"一段","MAREA":" ","LANE":"３７２巷","ALLEY":" ","HOUSE_NO":"２１號","E_COORD97":168712.06,"N_COORD97":2546835.9100000001,"ADDRESS":"北安路一段３７２巷２１號","OBJECTID":308954},"geometry":{"x":168712.05999999959,"y":2546835.9100000039}},{"attributes":{"ID":308963,"DIS_CODE":0,"TOWNNAME":"北區","LI":"成功里","LIN":"21鄰","STREET":"北安路","SECT":"一段","MAREA":" ","LANE":"３７２巷","ALLEY":" ","HOUSE_NO":"３號","E_COORD97":168646.10000000001,"N_COORD97":2546832.6099999999,"ADDRESS":"北安路一段３７２巷３號","OBJECTID":308955},"geometry":{"x":168646.0999999987,"y":2546832.6099999994}},{"attributes":{"ID":308964,"DIS_CODE":0,"TOWNNAME":"新化區","LI":"清水里","LIN":"7鄰","STREET":"忠孝路","SECT":" ","MAREA":" ","LANE":"１６１巷","ALLEY":" ","HOUSE_NO":"５號之１","E_COORD97":178625.04999999999,"N_COORD97":2548589.2599999998,"ADDRESS":"忠孝路１６１巷５號之１","OBJECTID":308956},"geometry":{"x":178625.05000000075,"y":2548589.2600000035}},{"attributes":{"ID":308965,"DIS_CODE":0,"TOWNNAME":"新化區","LI":"清水里","LIN":"7鄰","STREET":"忠孝路","SECT":" ","MAREA":" ","LANE":"１６１巷","ALLEY":" ","HOUSE_NO":"３１號","E_COORD97":178635.97,"N_COORD97":2548537.25,"ADDRESS":"忠孝路１６１巷３１號","OBJECTID":308957},"geometry":{"x":178635.97000000067,"y":2548537.25}},{"attributes":{"ID":308966,"DIS_CODE":0,"TOWNNAME":"北區","LI":"成功里","LIN":"21鄰","STREET":"北安路","SECT":"一段","MAREA":" ","LANE":"３７２巷","ALLEY":" ","HOUSE_NO":"５號","E_COORD97":168654.72,"N_COORD97":2546831.0899999999,"ADDRESS":"北安路一段３７２巷５號","OBJECTID":308958},"geometry":{"x":168654.72000000067,"y":2546831.0900000017}},{"attributes":{"ID":308967,"DIS_CODE":0,"TOWNNAME":"新營區","LI":"嘉芳里","LIN":"3鄰","STREET":"嘉芳街","SECT":" ","MAREA":" ","LANE":" ","ALLEY":" ","HOUSE_NO":"１１５號","E_COORD97":176994.76999999999,"N_COORD97":2578338.0499999998,"ADDRESS":"嘉芳街１１５號","OBJECTID":308959},"geometry":{"x":176994.76999999955,"y":2578338.0500000007}},{"attributes":{"ID":308968,"DIS_CODE":0,"TOWNNAME":"永康區","LI":"正強里","LIN":"32鄰","STREET":"四維街","SECT":" ","MAREA":" ","LANE":"５１巷","ALLEY":" ","HOUSE_NO":"５號四樓之５","E_COORD97":173382.60999999999,"N_COORD97":2548047.1899999999,"ADDRESS":"四維街５１巷５號四樓之５","OBJECTID":308960},"geometry":{"x":173382.61000000034,"y":2548047.1900000013}},{"attributes":{"ID":308969,"DIS_CODE":0,"TOWNNAME":"永康區","LI":"正強里","LIN":"32鄰","STREET":"四維街","SECT":" ","MAREA":" ","LANE":"５１巷","ALLEY":" ","HOUSE_NO":"５號六樓之３","E_COORD97":173382.56,"N_COORD97":2548047.1899999999,"ADDRESS":"四維街５１巷５號六樓之３","OBJECTID":308961},"geometry":{"x":173382.55999999959,"y":2548047.1900000013}},{"attributes":{"ID":308970,"DIS_CODE":0,"TOWNNAME":"安南區","LI":"新順里","LIN":"7鄰","STREET":"北安路","SECT":"三段","MAREA":" ","LANE":"７４５巷","ALLEY":" ","HOUSE_NO":"３０號","E_COORD97":169070.35999999999,"N_COORD97":2549966.3599999999,"ADDRESS":"北安路三段７４５巷３０號","OBJECTID":308962},"geometry":{"x":169070.36000000034,"y":2549966.3599999994}},{"attributes":{"ID":308971,"DIS_CODE":0,"TOWNNAME":"安南區","LI":"新順里","LIN":"7鄰","STREET":"北安路","SECT":"三段","MAREA":" ","LANE":"７４５巷","ALLEY":" ","HOUSE_NO":"５６號","E_COORD97":169134.95000000001,"N_COORD97":2550066.5800000001,"ADDRESS":"北安路三段７４５巷５６號","OBJECTID":308963},"geometry":{"x":169134.95000000112,"y":2550066.5800000019}},{"attributes":{"ID":308972,"DIS_CODE":0,"TOWNNAME":"安南區","LI":"新順里","LIN":"7鄰","STREET":"北安路","SECT":"三段","MAREA":" ","LANE":"７４５巷","ALLEY":" ","HOUSE_NO":"６８號","E_COORD97":169178.98000000001,"N_COORD97":2550125.23,"ADDRESS":"北安路三段７４５巷６８號","OBJECTID":308964},"geometry":{"x":169178.98000000138,"y":2550125.2300000004}},{"attributes":{"ID":308973,"DIS_CODE":0,"TOWNNAME":"安南區","LI":"新順里","LIN":"7鄰","STREET":"北安路","SECT":"三段","MAREA":" ","LANE":"７４５巷","ALLEY":" ","HOUSE_NO":"８號","E_COORD97":169105.29000000001,"N_COORD97":2549895.1299999999,"ADDRESS":"北安路三段７４５巷８號","OBJECTID":308965},"geometry":{"x":169105.29000000097,"y":2549895.1300000008}},{"attributes":{"ID":308974,"DIS_CODE":0,"TOWNNAME":"安南區","LI":"新順里","LIN":"7鄰","STREET":"北安路","SECT":"三段","MAREA":" ","LANE":"７５７巷","ALLEY":" ","HOUSE_NO":"１１號","E_COORD97":169122.20999999999,"N_COORD97":2549947.6499999999,"ADDRESS":"北安路三段７５７巷１１號","OBJECTID":308966},"geometry":{"x":169122.21000000183,"y":2549947.6500000022}},{"attributes":{"ID":308975,"DIS_CODE":0,"TOWNNAME":"北區","LI":"公園里","LIN":"17鄰","STREET":"成功路","SECT":" ","MAREA":" ","LANE":" ","ALLEY":" ","HOUSE_NO":"５０號九樓之２","E_COORD97":168765.81,"N_COORD97":2544291.5699999998,"ADDRESS":"成功路５０號九樓之２","OBJECTID":308967},"geometry":{"x":168765.81000000052,"y":2544291.5700000003}},{"attributes":{"ID":308976,"DIS_CODE":0,"TOWNNAME":"北區","LI":"公園里","LIN":"17鄰","STREET":"成功路","SECT":" ","MAREA":" ","LANE":" ","ALLEY":" ","HOUSE_NO":"５０號九樓之３","E_COORD97":168765.81,"N_COORD97":2544291.5699999998,"ADDRESS":"成功路５０號九樓之３","OBJECTID":308968},"geometry":{"x":168765.81000000052,"y":2544291.5700000003}},{"attributes":{"ID":308977,"DIS_CODE":0,"TOWNNAME":"永康區","LI":"正強里","LIN":"5鄰","STREET":"中正路","SECT":" ","MAREA":" ","LANE":"５５巷","ALLEY":" ","HOUSE_NO":"８號四樓之２","E_COORD97":173558.92999999999,"N_COORD97":2547783.4900000002,"ADDRESS":"中正路５５巷８號四樓之２","OBJECTID":308969},"geometry":{"x":173558.93000000063,"y":2547783.4900000002}},{"attributes":{"ID":308978,"DIS_CODE":0,"TOWNNAME":"安南區","LI":"新順里","LIN":"7鄰","STREET":"北安路","SECT":"三段","MAREA":" ","LANE":"７５７巷","ALLEY":" ","HOUSE_NO":"８號","E_COORD97":169170.45999999999,"N_COORD97":2549956.2799999998,"ADDRESS":"北安路三段７５７巷８號","OBJECTID":308970},"geometry":{"x":169170.46000000089,"y":2549956.2800000012}},{"attributes":{"ID":308979,"DIS_CODE":0,"TOWNNAME":"安南區","LI":"公親里","LIN":"7鄰","STREET":"公學路","SECT":"一段","MAREA":" ","LANE":"４２巷","ALLEY":" ","HOUSE_NO":"２４號","E_COORD97":168558.39000000001,"N_COORD97":2553153.3900000001,"ADDRESS":"公學路一段４２巷２４號","OBJECTID":308971},"geometry":{"x":168558.3900000006,"y":2553153.3900000025}},{"attributes":{"ID":308980,"DIS_CODE":0,"TOWNNAME":"永康區","LI":"烏竹里","LIN":"7鄰","STREET":"龍橋街","SECT":" ","MAREA":" ","LANE":"４５９巷","ALLEY":" ","HOUSE_NO":"８之１號","E_COORD97":174348.89000000001,"N_COORD97":2549347.5899999999,"ADDRESS":"龍橋街４５９巷８之１號","OBJECTID":308972},"geometry":{"x":174348.8900000006,"y":2549347.5900000017}},{"attributes":{"ID":308981,"DIS_CODE":0,"TOWNNAME":"永康區","LI":"永康里","LIN":"7鄰","STREET":"中山南路","SECT":" ","MAREA":" ","LANE":"１１１６巷","ALLEY":" ","HOUSE_NO":"２９號","E_COORD97":173927.10000000001,"N_COORD97":2547267.75,"ADDRESS":"中山南路１１１６巷２９號","OBJECTID":308973},"geometry":{"x":173927.10000000056,"y":2547267.7500000019}},{"attributes":{"ID":308982,"DIS_CODE":0,"TOWNNAME":"永康區","LI":"三合里","LIN":"7鄰","STREET":"南工街","SECT":" ","MAREA":" ","LANE":"５５巷","ALLEY":" ","HOUSE_NO":"８號","E_COORD97":172066.51999999999,"N_COORD97":2545623,"ADDRESS":"南工街５５巷８號","OBJECTID":308974},"geometry":{"x":172066.52000000048,"y":2545623}},{"attributes":{"ID":308983,"DIS_CODE":0,"TOWNNAME":"北區","LI":"公園里","LIN":"17鄰","STREET":"成功路","SECT":" ","MAREA":" ","LANE":" ","ALLEY":" ","HOUSE_NO":"５０號九樓之４","E_COORD97":168765.81,"N_COORD97":2544291.5699999998,"ADDRESS":"成功路５０號九樓之４","OBJECTID":308975},"geometry":{"x":168765.81000000052,"y":2544291.5700000003}},{"attributes":{"ID":308984,"DIS_CODE":0,"TOWNNAME":"永康區","LI":"大橋里","LIN":"7鄰","STREET":"大橋三街","SECT":" ","MAREA":" ","LANE":"１９９巷","ALLEY":" ","HOUSE_NO":"８７號","E_COORD97":170964.56,"N_COORD97":2546913.6200000001,"ADDRESS":"大橋三街１９９巷８７號","OBJECTID":308976},"geometry":{"x":170964.56000000052,"y":2546913.6200000029}},{"attributes":{"ID":308985,"DIS_CODE":0,"TOWNNAME":"東區","LI":"大同里","LIN":"7鄰","STREET":"大同路","SECT":"一段","MAREA":" ","LANE":"１１５巷","ALLEY":" ","HOUSE_NO":"３號","E_COORD97":169164.57999999999,"N_COORD97":2542966.7400000002,"ADDRESS":"大同路一段１１５巷３號","OBJECTID":308977},"geometry":{"x":169164.58000000101,"y":2542966.7400000021}},{"attributes":{"ID":308986,"DIS_CODE":0,"TOWNNAME":"東區","LI":"大同里","LIN":"7鄰","STREET":"大同路","SECT":"一段","MAREA":" ","LANE":"７３巷","ALLEY":" ","HOUSE_NO":"１０號","E_COORD97":169207.98999999999,"N_COORD97":2543051.5899999999,"ADDRESS":"大同路一段７３巷１０號","OBJECTID":308978},"geometry":{"x":169207.99000000022,"y":2543051.5900000017}},{"attributes":{"ID":308987,"DIS_CODE":0,"TOWNNAME":"東區","LI":"大同里","LIN":"7鄰","STREET":"大同路","SECT":"一段","MAREA":" ","LANE":"７３巷","ALLEY":" ","HOUSE_NO":"１０號之１","E_COORD97":169203.70999999999,"N_COORD97":2543052.2799999998,"ADDRESS":"大同路一段７３巷１０號之１","OBJECTID":308979},"geometry":{"x":169203.71000000089,"y":2543052.2800000012}},{"attributes":{"ID":308988,"DIS_CODE":0,"TOWNNAME":"東區","LI":"大同里","LIN":"7鄰","STREET":"大同路","SECT":"一段","MAREA":" ","LANE":"７３巷","ALLEY":" ","HOUSE_NO":"１２號","E_COORD97":169212.54999999999,"N_COORD97":2543049.2400000002,"ADDRESS":"大同路一段７３巷１２號","OBJECTID":308980},"geometry":{"x":169212.54999999981,"y":2543049.2400000002}},{"attributes":{"ID":308989,"DIS_CODE":0,"TOWNNAME":"東區","LI":"大同里","LIN":"7鄰","STREET":"大同路","SECT":"一段","MAREA":" ","LANE":"７３巷","ALLEY":" ","HOUSE_NO":"１４號","E_COORD97":169233.56,"N_COORD97":2543035.9700000002,"ADDRESS":"大同路一段７３巷１４號","OBJECTID":308981},"geometry":{"x":169233.56000000052,"y":2543035.9700000025}},{"attributes":{"ID":308990,"DIS_CODE":0,"TOWNNAME":"東區","LI":"大同里","LIN":"7鄰","STREET":"大同路","SECT":"一段","MAREA":" ","LANE":"７３巷","ALLEY":" ","HOUSE_NO":"１６號","E_COORD97":169246.35999999999,"N_COORD97":2543037.0800000001,"ADDRESS":"大同路一段７３巷１６號","OBJECTID":308982},"geometry":{"x":169246.36000000034,"y":2543037.0800000038}},{"attributes":{"ID":308991,"DIS_CODE":0,"TOWNNAME":"東區","LI":"大同里","LIN":"7鄰","STREET":"大同路","SECT":"一段","MAREA":" ","LANE":"７３巷","ALLEY":" ","HOUSE_NO":"１８號","E_COORD97":169250.57999999999,"N_COORD97":2543038.4500000002,"ADDRESS":"大同路一段７３巷１８號","OBJECTID":308983},"geometry":{"x":169250.58000000101,"y":2543038.4500000011}},{"attributes":{"ID":308992,"DIS_CODE":0,"TOWNNAME":"東區","LI":"大同里","LIN":"7鄰","STREET":"大同路","SECT":"一段","MAREA":" ","LANE":"７３巷","ALLEY":" ","HOUSE_NO":"２０號","E_COORD97":169255.92000000001,"N_COORD97":2543038.9500000002,"ADDRESS":"大同路一段７３巷２０號","OBJECTID":308984},"geometry":{"x":169255.91999999993,"y":2543038.9499999993}},{"attributes":{"ID":308993,"DIS_CODE":0,"TOWNNAME":"東區","LI":"大同里","LIN":"7鄰","STREET":"大同路","SECT":"一段","MAREA":" ","LANE":"７３巷","ALLEY":" ","HOUSE_NO":"４號","E_COORD97":169170.26999999999,"N_COORD97":2543050.3500000001,"ADDRESS":"大同路一段７３巷４號","OBJECTID":308985},"geometry":{"x":169170.26999999955,"y":2543050.3499999996}},{"attributes":{"ID":308994,"DIS_CODE":0,"TOWNNAME":"東區","LI":"大同里","LIN":"7鄰","STREET":"大同路","SECT":"一段","MAREA":" ","LANE":"７３巷","ALLEY":" ","HOUSE_NO":"６號","E_COORD97":169186.98999999999,"N_COORD97":2543052.4199999999,"ADDRESS":"大同路一段７３巷６號","OBJECTID":308986},"geometry":{"x":169186.99000000115,"y":2543052.4200000018}},{"attributes":{"ID":308995,"DIS_CODE":0,"TOWNNAME":"東區","LI":"大同里","LIN":"7鄰","STREET":"大同路","SECT":"一段","MAREA":" ","LANE":"７３巷","ALLEY":" ","HOUSE_NO":"６號之１","E_COORD97":169180.48999999999,"N_COORD97":2543054.7599999998,"ADDRESS":"大同路一段７３巷６號之１","OBJECTID":308987},"geometry":{"x":169180.49000000115,"y":2543054.7599999998}},{"attributes":{"ID":308996,"DIS_CODE":0,"TOWNNAME":"東區","LI":"復興里","LIN":"7鄰","STREET":"富農街","SECT":"一段","MAREA":" ","LANE":"２０４巷","ALLEY":" ","HOUSE_NO":"１７號","E_COORD97":171613.95000000001,"N_COORD97":2542525.5299999998,"ADDRESS":"富農街一段２０４巷１７號","OBJECTID":308988},"geometry":{"x":171613.95000000019,"y":2542525.5300000012}},{"attributes":{"ID":308997,"DIS_CODE":0,"TOWNNAME":"東區","LI":"復興里","LIN":"7鄰","STREET":"富農街","SECT":"一段","MAREA":" ","LANE":"１８８巷","ALLEY":" ","HOUSE_NO":"１號","E_COORD97":171568.20999999999,"N_COORD97":2542489.8799999999,"ADDRESS":"富農街一段１８８巷１號","OBJECTID":308989},"geometry":{"x":171568.20999999903,"y":2542489.879999999}},{"attributes":{"ID":308998,"DIS_CODE":0,"TOWNNAME":"東區","LI":"復興里","LIN":"7鄰","STREET":"富農街","SECT":"一段","MAREA":" ","LANE":"１８８巷","ALLEY":" ","HOUSE_NO":"２１號","E_COORD97":171576.63,"N_COORD97":2542492.5800000001,"ADDRESS":"富農街一段１８８巷２１號","OBJECTID":308990},"geometry":{"x":171576.62999999989,"y":2542492.5800000019}},{"attributes":{"ID":308999,"DIS_CODE":0,"TOWNNAME":"東區","LI":"復興里","LIN":"7鄰","STREET":"富農街","SECT":"一段","MAREA":" ","LANE":"１８８巷","ALLEY":" ","HOUSE_NO":"２３號","E_COORD97":171581.20999999999,"N_COORD97":2542491.52,"ADDRESS":"富農街一段１８８巷２３號","OBJECTID":308991},"geometry":{"x":171581.20999999996,"y":2542491.5200000014}},{"attributes":{"ID":309000,"DIS_CODE":0,"TOWNNAME":"東區","LI":"復興里","LIN":"7鄰","STREET":"富農街","SECT":"一段","MAREA":" ","LANE":"１８８巷","ALLEY":" ","HOUSE_NO":"２５號","E_COORD97":171586.23000000001,"N_COORD97":2542490.54,"ADDRESS":"富農街一段１８８巷２５號","OBJECTID":308992},"geometry":{"x":171586.23000000138,"y":2542490.5400000028}},{"attributes":{"ID":309001,"DIS_CODE":0,"TOWNNAME":"東區","LI":"復興里","LIN":"7鄰","STREET":"富農街","SECT":"一段","MAREA":" ","LANE":"１８８巷","ALLEY":" ","HOUSE_NO":"２７號","E_COORD97":171590.23000000001,"N_COORD97":2542491.9100000001,"ADDRESS":"富農街一段１８８巷２７號","OBJECTID":308993},"geometry":{"x":171590.23000000045,"y":2542491.9100000001}},{"attributes":{"ID":309002,"DIS_CODE":0,"TOWNNAME":"東區","LI":"復興里","LIN":"7鄰","STREET":"富農街","SECT":"一段","MAREA":" ","LANE":"１８８巷","ALLEY":" ","HOUSE_NO":"２９號","E_COORD97":171595.04000000001,"N_COORD97":2542492.8700000001,"ADDRESS":"富農街一段１８８巷２９號","OBJECTID":308994},"geometry":{"x":171595.0400000019,"y":2542492.870000001}},{"attributes":{"ID":309003,"DIS_CODE":0,"TOWNNAME":"東區","LI":"復興里","LIN":"7鄰","STREET":"富農街","SECT":"一段","MAREA":" ","LANE":"１８８巷","ALLEY":" ","HOUSE_NO":"３１號","E_COORD97":171599.84,"N_COORD97":2542493.8300000001,"ADDRESS":"富農街一段１８８巷３１號","OBJECTID":308995},"geometry":{"x":171599.84000000078,"y":2542493.8300000019}},{"attributes":{"ID":309004,"DIS_CODE":0,"TOWNNAME":"東區","LI":"復興里","LIN":"7鄰","STREET":"富農街","SECT":"一段","MAREA":" ","LANE":"１８８巷","ALLEY":" ","HOUSE_NO":"３１號之１","E_COORD97":171605.62,"N_COORD97":2542494.1499999999,"ADDRESS":"富農街一段１８８巷３１號之１","OBJECTID":308996},"geometry":{"x":171605.62000000011,"y":2542494.1500000004}},{"attributes":{"ID":309005,"DIS_CODE":0,"TOWNNAME":"東區","LI":"復興里","LIN":"7鄰","STREET":"富農街","SECT":"一段","MAREA":" ","LANE":"１８８巷","ALLEY":" ","HOUSE_NO":"３３號","E_COORD97":171609.45999999999,"N_COORD97":2542497.3500000001,"ADDRESS":"富農街一段１８８巷３３號","OBJECTID":308997},"geometry":{"x":171609.46000000089,"y":2542497.3500000015}},{"attributes":{"ID":309006,"DIS_CODE":0,"TOWNNAME":"永康區","LI":"正強里","LIN":"32鄰","STREET":"四維街","SECT":" ","MAREA":" ","LANE":"５１巷","ALLEY":" ","HOUSE_NO":"５號六樓之１","E_COORD97":173382.45999999999,"N_COORD97":2548047.1899999999,"ADDRESS":"四維街５１巷５號六樓之１","OBJECTID":308998},"geometry":{"x":173382.46000000089,"y":2548047.1900000013}},{"attributes":{"ID":309007,"DIS_CODE":0,"TOWNNAME":"東區","LI":"復興里","LIN":"7鄰","STREET":"富農街","SECT":"一段","MAREA":" ","LANE":"１８８巷","ALLEY":" ","HOUSE_NO":"３５號","E_COORD97":171613.95000000001,"N_COORD97":2542493.8300000001,"ADDRESS":"富農街一段１８８巷３５號","OBJECTID":308999},"geometry":{"x":171613.95000000019,"y":2542493.8300000019}},{"attributes":{"ID":309008,"DIS_CODE":0,"TOWNNAME":"東區","LI":"復興里","LIN":"7鄰","STREET":"富農街","SECT":"一段","MAREA":" ","LANE":"１８８巷","ALLEY":" ","HOUSE_NO":"３７號","E_COORD97":171618.12,"N_COORD97":2542496.71,"ADDRESS":"富農街一段１８８巷３７號","OBJECTID":309000},"geometry":{"x":171618.11999999918,"y":2542496.7100000009}}]}