{"displayFieldName":"TOWNNAME","fieldAliases":{"ID":"ID","DIS_CODE":"DIS_CODE","TOWNNAME":"TOWNNAME","LI":"LI","LIN":"LIN","STREET":"STREET","SECT":"SECT","MAREA":"MAREA","LANE":"LANE","ALLEY":"ALLEY","HOUSE_NO":"HOUSE_NO","E_COORD97":"E_COORD97","N_COORD97":"N_COORD97","ADDRESS":"ADDRESS","OBJECTID":"OBJECTID"},"geometryType":"esriGeometryPoint","spatialReference":{"wkid":102443,"latestWkid":3826},"fields":[{"name":"ID","type":"esriFieldTypeDouble","alias":"ID"},{"name":"DIS_CODE","type":"esriFieldTypeInteger","alias":"DIS_CODE"},{"name":"TOWNNAME","type":"esriFieldTypeString","alias":"TOWNNAME","length":8},{"name":"LI","type":"esriFieldTypeString","alias":"LI","length":8},{"name":"LIN","type":"esriFieldTypeString","alias":"LIN","length":12},{"name":"STREET","type":"esriFieldTypeString","alias":"STREET","length":20},{"name":"SECT","type":"esriFieldTypeString","alias":"SECT","length":8},{"name":"MAREA","type":"esriFieldTypeString","alias":"MAREA","length":12},{"name":"LANE","type":"esriFieldTypeString","alias":"LANE","length":10},{"name":"ALLEY","type":"esriFieldTypeString","alias":"ALLEY","length":10},{"name":"HOUSE_NO","type":"esriFieldTypeString","alias":"HOUSE_NO","length":20},{"name":"E_COORD97","type":"esriFieldTypeDouble","alias":"E_COORD97"},{"name":"N_COORD97","type":"esriFieldTypeDouble","alias":"N_COORD97"},{"name":"ADDRESS","type":"esriFieldTypeString","alias":"ADDRESS","length":50},{"name":"OBJECTID","type":"esriFieldTypeOID","alias":"OBJECTID"}],"features":[{"attributes":{"ID":602028,"DIS_CODE":0,"TOWNNAME":"北區","LI":"文成里","LIN":"22鄰","STREET":"立賢路","SECT":"二段","MAREA":" ","LANE":" ","ALLEY":" ","HOUSE_NO":"７０之２７號","E_COORD97":167850.12,"N_COORD97":2545606.9700000002,"ADDRESS":"立賢路二段７０之２７號","OBJECTID":602001},"geometry":{"x":167850.12000000104,"y":2545606.9700000007}},{"attributes":{"ID":602029,"DIS_CODE":0,"TOWNNAME":"北區","LI":"文成里","LIN":"22鄰","STREET":"立賢路","SECT":"二段","MAREA":" ","LANE":" ","ALLEY":" ","HOUSE_NO":"７０之２８號","E_COORD97":167856,"N_COORD97":2545605.23,"ADDRESS":"立賢路二段７０之２８號","OBJECTID":602002},"geometry":{"x":167856.00000000093,"y":2545605.2300000004}},{"attributes":{"ID":602030,"DIS_CODE":0,"TOWNNAME":"北區","LI":"文成里","LIN":"22鄰","STREET":"立賢路","SECT":"二段","MAREA":" ","LANE":" ","ALLEY":" ","HOUSE_NO":"７０之７號","E_COORD97":167828.85000000001,"N_COORD97":2545584.4300000002,"ADDRESS":"立賢路二段７０之７號","OBJECTID":602003},"geometry":{"x":167828.84999999963,"y":2545584.4300000016}},{"attributes":{"ID":602031,"DIS_CODE":0,"TOWNNAME":"北區","LI":"文成里","LIN":"22鄰","STREET":"立賢路","SECT":"二段","MAREA":" ","LANE":" ","ALLEY":" ","HOUSE_NO":"７０之８號","E_COORD97":167823.14000000001,"N_COORD97":2545583.9500000002,"ADDRESS":"立賢路二段７０之８號","OBJECTID":602004},"geometry":{"x":167823.13999999966,"y":2545583.9500000011}},{"attributes":{"ID":602032,"DIS_CODE":0,"TOWNNAME":"北區","LI":"文成里","LIN":"22鄰","STREET":"立賢路","SECT":"二段","MAREA":" ","LANE":" ","ALLEY":" ","HOUSE_NO":"７０之９號","E_COORD97":167818.53,"N_COORD97":2545582.8399999999,"ADDRESS":"立賢路二段７０之９號","OBJECTID":602005},"geometry":{"x":167818.53000000212,"y":2545582.8400000017}},{"attributes":{"ID":602033,"DIS_CODE":0,"TOWNNAME":"北區","LI":"文成里","LIN":"22鄰","STREET":"立賢路","SECT":"二段","MAREA":" ","LANE":" ","ALLEY":" ","HOUSE_NO":"７０號","E_COORD97":167857.73999999999,"N_COORD97":2545569.98,"ADDRESS":"立賢路二段７０號","OBJECTID":602006},"geometry":{"x":167857.74000000209,"y":2545569.9800000004}},{"attributes":{"ID":602034,"DIS_CODE":0,"TOWNNAME":"北區","LI":"文成里","LIN":"22鄰","STREET":"立賢路","SECT":"二段","MAREA":" ","LANE":" ","ALLEY":" ","HOUSE_NO":"７２號","E_COORD97":167841.07000000001,"N_COORD97":2545569.5099999998,"ADDRESS":"立賢路二段７２號","OBJECTID":602007},"geometry":{"x":167841.0700000003,"y":2545569.5099999998}},{"attributes":{"ID":602035,"DIS_CODE":0,"TOWNNAME":"北區","LI":"文成里","LIN":"22鄰","STREET":"立賢路","SECT":"二段","MAREA":" ","LANE":" ","ALLEY":" ","HOUSE_NO":"７６號","E_COORD97":167836.31,"N_COORD97":2545569.5099999998,"ADDRESS":"立賢路二段７６號","OBJECTID":602008},"geometry":{"x":167836.31000000052,"y":2545569.5099999998}},{"attributes":{"ID":602036,"DIS_CODE":0,"TOWNNAME":"北區","LI":"文成里","LIN":"22鄰","STREET":"立賢路","SECT":"二段","MAREA":" ","LANE":" ","ALLEY":" ","HOUSE_NO":"７８號","E_COORD97":167832.03,"N_COORD97":2545569.0299999998,"ADDRESS":"立賢路二段７８號","OBJECTID":602009},"geometry":{"x":167832.03000000212,"y":2545569.0299999993}},{"attributes":{"ID":602037,"DIS_CODE":0,"TOWNNAME":"北區","LI":"文成里","LIN":"22鄰","STREET":"立賢路","SECT":"二段","MAREA":" ","LANE":" ","ALLEY":" ","HOUSE_NO":"８０號","E_COORD97":167827.26000000001,"N_COORD97":2545568.3199999998,"ADDRESS":"立賢路二段８０號","OBJECTID":602010},"geometry":{"x":167827.26000000071,"y":2545568.320000004}},{"attributes":{"ID":602038,"DIS_CODE":0,"TOWNNAME":"北區","LI":"文成里","LIN":"22鄰","STREET":"立賢路","SECT":"二段","MAREA":" ","LANE":" ","ALLEY":" ","HOUSE_NO":"８２號","E_COORD97":167822.66,"N_COORD97":2545568,"ADDRESS":"立賢路二段８２號","OBJECTID":602011},"geometry":{"x":167822.66000000108,"y":2545568.0000000019}},{"attributes":{"ID":602039,"DIS_CODE":0,"TOWNNAME":"北區","LI":"文成里","LIN":"22鄰","STREET":"立賢路","SECT":"二段","MAREA":" ","LANE":" ","ALLEY":" ","HOUSE_NO":"８６號","E_COORD97":167818.37,"N_COORD97":2545567.52,"ADDRESS":"立賢路二段８６號","OBJECTID":602012},"geometry":{"x":167818.37000000104,"y":2545567.5200000014}},{"attributes":{"ID":602040,"DIS_CODE":0,"TOWNNAME":"北區","LI":"文成里","LIN":"22鄰","STREET":"立賢路","SECT":"二段","MAREA":" ","LANE":" ","ALLEY":" ","HOUSE_NO":"８８號","E_COORD97":167812.66,"N_COORD97":2545566.8900000001,"ADDRESS":"立賢路二段８８號","OBJECTID":602013},"geometry":{"x":167812.66000000108,"y":2545566.8900000006}},{"attributes":{"ID":602041,"DIS_CODE":0,"TOWNNAME":"北區","LI":"文成里","LIN":"22鄰","STREET":"立賢路","SECT":"二段","MAREA":" ","LANE":" ","ALLEY":" ","HOUSE_NO":"９０號","E_COORD97":167808.37,"N_COORD97":2545566.0899999999,"ADDRESS":"立賢路二段９０號","OBJECTID":602014},"geometry":{"x":167808.37000000011,"y":2545566.0900000036}},{"attributes":{"ID":602042,"DIS_CODE":0,"TOWNNAME":"北區","LI":"成功里","LIN":"22鄰","STREET":"北安路","SECT":"一段","MAREA":" ","LANE":" ","ALLEY":" ","HOUSE_NO":"１４６號","E_COORD97":168942.39999999999,"N_COORD97":2546443.1299999999,"ADDRESS":"北安路一段１４６號","OBJECTID":602015},"geometry":{"x":168942.4000000013,"y":2546443.1300000027}},{"attributes":{"ID":602043,"DIS_CODE":0,"TOWNNAME":"北區","LI":"成功里","LIN":"22鄰","STREET":"北安路","SECT":"一段","MAREA":" ","LANE":" ","ALLEY":" ","HOUSE_NO":"１５２號","E_COORD97":168938.75,"N_COORD97":2546446.1400000001,"ADDRESS":"北安路一段１５２號","OBJECTID":602016},"geometry":{"x":168938.74999999907,"y":2546446.1400000025}},{"attributes":{"ID":602044,"DIS_CODE":0,"TOWNNAME":"北區","LI":"成功里","LIN":"22鄰","STREET":"北安路","SECT":"一段","MAREA":" ","LANE":" ","ALLEY":" ","HOUSE_NO":"１５６號","E_COORD97":168935.57000000001,"N_COORD97":2546448.6800000002,"ADDRESS":"北安路一段１５６號","OBJECTID":602017},"geometry":{"x":168935.57000000123,"y":2546448.6799999997}},{"attributes":{"ID":602045,"DIS_CODE":0,"TOWNNAME":"北區","LI":"成功里","LIN":"22鄰","STREET":"北安路","SECT":"一段","MAREA":" ","LANE":" ","ALLEY":" ","HOUSE_NO":"１５８號","E_COORD97":168931.92000000001,"N_COORD97":2546451.54,"ADDRESS":"北安路一段１５８號","OBJECTID":602018},"geometry":{"x":168931.91999999993,"y":2546451.540000001}},{"attributes":{"ID":602046,"DIS_CODE":0,"TOWNNAME":"北區","LI":"成功里","LIN":"22鄰","STREET":"北安路","SECT":"一段","MAREA":" ","LANE":" ","ALLEY":" ","HOUSE_NO":"１６０號","E_COORD97":168928.42999999999,"N_COORD97":2546454.0800000001,"ADDRESS":"北安路一段１６０號","OBJECTID":602019},"geometry":{"x":168928.4299999997,"y":2546454.0800000001}},{"attributes":{"ID":602047,"DIS_CODE":0,"TOWNNAME":"北區","LI":"成功里","LIN":"22鄰","STREET":"北安路","SECT":"一段","MAREA":" ","LANE":" ","ALLEY":" ","HOUSE_NO":"１６２號","E_COORD97":168925.41,"N_COORD97":2546456.6200000001,"ADDRESS":"北安路一段１６２號","OBJECTID":602020},"geometry":{"x":168925.41000000015,"y":2546456.6200000029}},{"attributes":{"ID":602048,"DIS_CODE":0,"TOWNNAME":"北區","LI":"成功里","LIN":"22鄰","STREET":"北安路","SECT":"一段","MAREA":" ","LANE":" ","ALLEY":" ","HOUSE_NO":"１６６號","E_COORD97":168922.23999999999,"N_COORD97":2546459.1600000001,"ADDRESS":"北安路一段１６６號","OBJECTID":602021},"geometry":{"x":168922.24000000209,"y":2546459.160000002}},{"attributes":{"ID":602049,"DIS_CODE":0,"TOWNNAME":"北區","LI":"成功里","LIN":"22鄰","STREET":"北安路","SECT":"一段","MAREA":" ","LANE":" ","ALLEY":" ","HOUSE_NO":"１６８號","E_COORD97":168918.75,"N_COORD97":2546461.8599999999,"ADDRESS":"北安路一段１６８號","OBJECTID":602022},"geometry":{"x":168918.75000000093,"y":2546461.8599999994}},{"attributes":{"ID":602050,"DIS_CODE":0,"TOWNNAME":"北區","LI":"成功里","LIN":"22鄰","STREET":"北安路","SECT":"一段","MAREA":" ","LANE":" ","ALLEY":" ","HOUSE_NO":"１７０號","E_COORD97":168915.41,"N_COORD97":2546464.2400000002,"ADDRESS":"北安路一段１７０號","OBJECTID":602023},"geometry":{"x":168915.41000000015,"y":2546464.2400000021}},{"attributes":{"ID":602051,"DIS_CODE":0,"TOWNNAME":"北區","LI":"成功里","LIN":"22鄰","STREET":"北安路","SECT":"一段","MAREA":" ","LANE":" ","ALLEY":" ","HOUSE_NO":"１７２號","E_COORD97":168910.32999999999,"N_COORD97":2546467.5800000001,"ADDRESS":"北安路一段１７２號","OBJECTID":602024},"geometry":{"x":168910.33000000101,"y":2546467.5800000001}},{"attributes":{"ID":602052,"DIS_CODE":0,"TOWNNAME":"北區","LI":"成德里","LIN":"22鄰","STREET":"北成路","SECT":" ","MAREA":" ","LANE":" ","ALLEY":" ","HOUSE_NO":"３５２號","E_COORD97":168372.39000000001,"N_COORD97":2546686.7799999998,"ADDRESS":"北成路３５２號","OBJECTID":602025},"geometry":{"x":168372.38999999966,"y":2546686.7800000012}},{"attributes":{"ID":602053,"DIS_CODE":0,"TOWNNAME":"南區","LI":"文華里","LIN":"22鄰","STREET":"德南街","SECT":" ","MAREA":" ","LANE":" ","ALLEY":" ","HOUSE_NO":"７２號","E_COORD97":166729.51000000001,"N_COORD97":2543019.0699999998,"ADDRESS":"德南街７２號","OBJECTID":602026},"geometry":{"x":166729.50999999978,"y":2543019.0700000003}},{"attributes":{"ID":602054,"DIS_CODE":0,"TOWNNAME":"北區","LI":"成德里","LIN":"22鄰","STREET":"中華北路","SECT":"二段","MAREA":" ","LANE":" ","ALLEY":" ","HOUSE_NO":"２０８號","E_COORD97":168423.35000000001,"N_COORD97":2546874.3999999999,"ADDRESS":"中華北路二段２０８號","OBJECTID":602027},"geometry":{"x":168423.34999999963,"y":2546874.4000000022}},{"attributes":{"ID":602055,"DIS_CODE":0,"TOWNNAME":"北區","LI":"成德里","LIN":"22鄰","STREET":"中華北路","SECT":"二段","MAREA":" ","LANE":" ","ALLEY":" ","HOUSE_NO":"２０９號","E_COORD97":168429.54000000001,"N_COORD97":2546875.5099999998,"ADDRESS":"中華北路二段２０９號","OBJECTID":602028},"geometry":{"x":168429.54000000004,"y":2546875.5100000035}},{"attributes":{"ID":602056,"DIS_CODE":0,"TOWNNAME":"歸仁區","LI":"看西里","LIN":"22鄰","STREET":"成功七街","SECT":" ","MAREA":" ","LANE":" ","ALLEY":" ","HOUSE_NO":"３６號","E_COORD97":178275.60000000001,"N_COORD97":2539845.5699999998,"ADDRESS":"成功七街３６號","OBJECTID":602029},"geometry":{"x":178275.60000000056,"y":2539845.5700000003}},{"attributes":{"ID":602057,"DIS_CODE":0,"TOWNNAME":"北區","LI":"成德里","LIN":"22鄰","STREET":"中華北路","SECT":"二段","MAREA":" ","LANE":" ","ALLEY":" ","HOUSE_NO":"２１０號","E_COORD97":168434.94,"N_COORD97":2546876.6299999999,"ADDRESS":"中華北路二段２１０號","OBJECTID":602030},"geometry":{"x":168434.94000000134,"y":2546876.629999999}},{"attributes":{"ID":602058,"DIS_CODE":0,"TOWNNAME":"北區","LI":"成德里","LIN":"22鄰","STREET":"中華北路","SECT":"二段","MAREA":" ","LANE":" ","ALLEY":" ","HOUSE_NO":"２１１號","E_COORD97":168439.38,"N_COORD97":2546877.7400000002,"ADDRESS":"中華北路二段２１１號","OBJECTID":602031},"geometry":{"x":168439.37999999896,"y":2546877.7400000039}},{"attributes":{"ID":602059,"DIS_CODE":0,"TOWNNAME":"北區","LI":"成德里","LIN":"22鄰","STREET":"中華北路","SECT":"二段","MAREA":" ","LANE":" ","ALLEY":" ","HOUSE_NO":"２１２號","E_COORD97":168443.51000000001,"N_COORD97":2546879.0099999998,"ADDRESS":"中華北路二段２１２號","OBJECTID":602032},"geometry":{"x":168443.51000000164,"y":2546879.0100000016}},{"attributes":{"ID":602060,"DIS_CODE":0,"TOWNNAME":"北區","LI":"成德里","LIN":"22鄰","STREET":"中華北路","SECT":"二段","MAREA":" ","LANE":" ","ALLEY":" ","HOUSE_NO":"２１３號","E_COORD97":168447.79999999999,"N_COORD97":2546879.1699999999,"ADDRESS":"中華北路二段２１３號","OBJECTID":602033},"geometry":{"x":168447.79999999981,"y":2546879.1700000018}},{"attributes":{"ID":602061,"DIS_CODE":0,"TOWNNAME":"北區","LI":"成德里","LIN":"22鄰","STREET":"中華北路","SECT":"二段","MAREA":" ","LANE":" ","ALLEY":" ","HOUSE_NO":"２１５號","E_COORD97":168451.76999999999,"N_COORD97":2546880.2799999998,"ADDRESS":"中華北路二段２１５號","OBJECTID":602034},"geometry":{"x":168451.77000000142,"y":2546880.2800000012}},{"attributes":{"ID":602062,"DIS_CODE":0,"TOWNNAME":"北區","LI":"成德里","LIN":"22鄰","STREET":"中華北路","SECT":"二段","MAREA":" ","LANE":" ","ALLEY":" ","HOUSE_NO":"２１６號","E_COORD97":168456.85000000001,"N_COORD97":2546881.0699999998,"ADDRESS":"中華北路二段２１６號","OBJECTID":602035},"geometry":{"x":168456.85000000056,"y":2546881.0700000003}},{"attributes":{"ID":602063,"DIS_CODE":0,"TOWNNAME":"關廟區","LI":"東勢里","LIN":"22鄰","STREET":"東昌街","SECT":" ","MAREA":" ","LANE":" ","ALLEY":" ","HOUSE_NO":"１１８號","E_COORD97":181852.17000000001,"N_COORD97":2539212.25,"ADDRESS":"東昌街１１８號","OBJECTID":602036},"geometry":{"x":181852.17000000086,"y":2539212.2500000019}},{"attributes":{"ID":602064,"DIS_CODE":0,"TOWNNAME":"北區","LI":"成德里","LIN":"22鄰","STREET":"中華北路","SECT":"二段","MAREA":" ","LANE":" ","ALLEY":" ","HOUSE_NO":"２１７號","E_COORD97":168461.60999999999,"N_COORD97":2546881.8599999999,"ADDRESS":"中華北路二段２１７號","OBJECTID":602037},"geometry":{"x":168461.61000000034,"y":2546881.8599999994}},{"attributes":{"ID":602065,"DIS_CODE":0,"TOWNNAME":"北區","LI":"成德里","LIN":"22鄰","STREET":"中華北路","SECT":"二段","MAREA":" ","LANE":" ","ALLEY":" ","HOUSE_NO":"２１８號","E_COORD97":168466.37,"N_COORD97":2546882.5,"ADDRESS":"中華北路二段２１８號","OBJECTID":602038},"geometry":{"x":168466.37000000011,"y":2546882.5000000037}},{"attributes":{"ID":602066,"DIS_CODE":0,"TOWNNAME":"北區","LI":"大港里","LIN":"22鄰","STREET":"大興街","SECT":" ","MAREA":" ","LANE":" ","ALLEY":" ","HOUSE_NO":"３７２之１號","E_COORD97":166291.85999999999,"N_COORD97":2545567.6899999999,"ADDRESS":"大興街３７２之１號","OBJECTID":602039},"geometry":{"x":166291.86000000034,"y":2545567.6899999995}},{"attributes":{"ID":602067,"DIS_CODE":0,"TOWNNAME":"南區","LI":"明興里","LIN":"22鄰","STREET":"永春街","SECT":" ","MAREA":" ","LANE":" ","ALLEY":" ","HOUSE_NO":"３９號","E_COORD97":167096.31,"N_COORD97":2540648.8300000001,"ADDRESS":"永春街３９號","OBJECTID":602040},"geometry":{"x":167096.30999999959,"y":2540648.8300000038}},{"attributes":{"ID":602068,"DIS_CODE":0,"TOWNNAME":"北區","LI":"大港里","LIN":"22鄰","STREET":"大興街","SECT":" ","MAREA":" ","LANE":" ","ALLEY":" ","HOUSE_NO":"３７２號","E_COORD97":166297.5,"N_COORD97":2545567.1400000001,"ADDRESS":"大興街３７２號","OBJECTID":602041},"geometry":{"x":166297.5,"y":2545567.1400000025}},{"attributes":{"ID":602069,"DIS_CODE":0,"TOWNNAME":"北區","LI":"大港里","LIN":"22鄰","STREET":"大興街","SECT":" ","MAREA":" ","LANE":" ","ALLEY":" ","HOUSE_NO":"３２６號","E_COORD97":166415.12,"N_COORD97":2545604.3399999999,"ADDRESS":"大興街３２６號","OBJECTID":602042},"geometry":{"x":166415.12000000011,"y":2545604.3399999999}},{"attributes":{"ID":602070,"DIS_CODE":0,"TOWNNAME":"北區","LI":"大港里","LIN":"22鄰","STREET":"大興街","SECT":" ","MAREA":" ","LANE":" ","ALLEY":" ","HOUSE_NO":"３２８號","E_COORD97":166402.35000000001,"N_COORD97":2545598.8399999999,"ADDRESS":"大興街３２８號","OBJECTID":602043},"geometry":{"x":166402.35000000056,"y":2545598.8400000017}},{"attributes":{"ID":602071,"DIS_CODE":0,"TOWNNAME":"北區","LI":"大港里","LIN":"22鄰","STREET":"大興街","SECT":" ","MAREA":" ","LANE":" ","ALLEY":" ","HOUSE_NO":"３３０號","E_COORD97":166398.29000000001,"N_COORD97":2545597.52,"ADDRESS":"大興街３３０號","OBJECTID":602044},"geometry":{"x":166398.29000000097,"y":2545597.5200000014}},{"attributes":{"ID":602072,"DIS_CODE":0,"TOWNNAME":"北區","LI":"大港里","LIN":"22鄰","STREET":"大興街","SECT":" ","MAREA":" ","LANE":" ","ALLEY":" ","HOUSE_NO":"３３２號","E_COORD97":166393.45999999999,"N_COORD97":2545596,"ADDRESS":"大興街３３２號","OBJECTID":602045},"geometry":{"x":166393.46000000089,"y":2545596}},{"attributes":{"ID":602073,"DIS_CODE":0,"TOWNNAME":"北區","LI":"大港里","LIN":"22鄰","STREET":"大興街","SECT":" ","MAREA":" ","LANE":" ","ALLEY":" ","HOUSE_NO":"３３４號","E_COORD97":166389.01999999999,"N_COORD97":2545595.0600000001,"ADDRESS":"大興街３３４號","OBJECTID":602046},"geometry":{"x":166389.02000000048,"y":2545595.0600000024}},{"attributes":{"ID":602074,"DIS_CODE":0,"TOWNNAME":"北區","LI":"大港里","LIN":"22鄰","STREET":"大興街","SECT":" ","MAREA":" ","LANE":" ","ALLEY":" ","HOUSE_NO":"３３６號","E_COORD97":166384.38,"N_COORD97":2545593.54,"ADDRESS":"大興街３３６號","OBJECTID":602047},"geometry":{"x":166384.37999999989,"y":2545593.540000001}},{"attributes":{"ID":602075,"DIS_CODE":0,"TOWNNAME":"北區","LI":"大港里","LIN":"22鄰","STREET":"大興街","SECT":" ","MAREA":" ","LANE":" ","ALLEY":" ","HOUSE_NO":"３３８號","E_COORD97":166380.51000000001,"N_COORD97":2545592.4100000001,"ADDRESS":"大興街３３８號","OBJECTID":602048},"geometry":{"x":166380.51000000164,"y":2545592.410000002}},{"attributes":{"ID":602076,"DIS_CODE":0,"TOWNNAME":"北區","LI":"大港里","LIN":"22鄰","STREET":"大興街","SECT":" ","MAREA":" ","LANE":" ","ALLEY":" ","HOUSE_NO":"３４０號","E_COORD97":166375.67999999999,"N_COORD97":2545590.7000000002,"ADDRESS":"大興街３４０號","OBJECTID":602049},"geometry":{"x":166375.6799999997,"y":2545590.6999999993}},{"attributes":{"ID":602077,"DIS_CODE":0,"TOWNNAME":"北區","LI":"大港里","LIN":"22鄰","STREET":"大興街","SECT":" ","MAREA":" ","LANE":" ","ALLEY":" ","HOUSE_NO":"３４２之１號","E_COORD97":166366.79000000001,"N_COORD97":2545588.6200000001,"ADDRESS":"大興街３４２之１號","OBJECTID":602050},"geometry":{"x":166366.79000000004,"y":2545588.6200000029}},{"attributes":{"ID":602078,"DIS_CODE":0,"TOWNNAME":"北區","LI":"大港里","LIN":"22鄰","STREET":"大興街","SECT":" ","MAREA":" ","LANE":" ","ALLEY":" ","HOUSE_NO":"３４２號","E_COORD97":166371.42999999999,"N_COORD97":2545589.5699999998,"ADDRESS":"大興街３４２號","OBJECTID":602051},"geometry":{"x":166371.43000000063,"y":2545589.5700000003}},{"attributes":{"ID":602079,"DIS_CODE":0,"TOWNNAME":"北區","LI":"大港里","LIN":"22鄰","STREET":"大興街","SECT":" ","MAREA":" ","LANE":" ","ALLEY":" ","HOUSE_NO":"３４６號","E_COORD97":166363.5,"N_COORD97":2545587.2999999998,"ADDRESS":"大興街３４６號","OBJECTID":602052},"geometry":{"x":166363.5,"y":2545587.3000000026}},{"attributes":{"ID":602080,"DIS_CODE":0,"TOWNNAME":"北區","LI":"大港里","LIN":"22鄰","STREET":"大興街","SECT":" ","MAREA":" ","LANE":" ","ALLEY":" ","HOUSE_NO":"３４８號","E_COORD97":166359.63,"N_COORD97":2545585.7799999998,"ADDRESS":"大興街３４８號","OBJECTID":602053},"geometry":{"x":166359.63000000082,"y":2545585.7800000012}},{"attributes":{"ID":602081,"DIS_CODE":0,"TOWNNAME":"北區","LI":"大港里","LIN":"22鄰","STREET":"大興街","SECT":" ","MAREA":" ","LANE":" ","ALLEY":" ","HOUSE_NO":"３６０號","E_COORD97":166328.38,"N_COORD97":2545576.27,"ADDRESS":"大興街３６０號","OBJECTID":602054},"geometry":{"x":166328.37999999989,"y":2545576.2700000014}},{"attributes":{"ID":602082,"DIS_CODE":0,"TOWNNAME":"南區","LI":"文華里","LIN":"22鄰","STREET":"德南街","SECT":" ","MAREA":" ","LANE":" ","ALLEY":" ","HOUSE_NO":"７４號","E_COORD97":166725.87,"N_COORD97":2543017.04,"ADDRESS":"德南街７４號","OBJECTID":602055},"geometry":{"x":166725.87000000197,"y":2543017.040000001}},{"attributes":{"ID":602083,"DIS_CODE":0,"TOWNNAME":"北區","LI":"大港里","LIN":"22鄰","STREET":"大興街","SECT":" ","MAREA":" ","LANE":" ","ALLEY":" ","HOUSE_NO":"３６６號","E_COORD97":166314.79000000001,"N_COORD97":2545572.0899999999,"ADDRESS":"大興街３６６號","OBJECTID":602056},"geometry":{"x":166314.79000000097,"y":2545572.0899999999}},{"attributes":{"ID":602084,"DIS_CODE":0,"TOWNNAME":"北區","LI":"大港里","LIN":"22鄰","STREET":"大興街","SECT":" ","MAREA":" ","LANE":" ","ALLEY":" ","HOUSE_NO":"３６８號","E_COORD97":166311.04000000001,"N_COORD97":2545571.1299999999,"ADDRESS":"大興街３６８號","OBJECTID":602057},"geometry":{"x":166311.0400000019,"y":2545571.129999999}},{"attributes":{"ID":602085,"DIS_CODE":0,"TOWNNAME":"北區","LI":"大和里","LIN":"22鄰","STREET":"大港街","SECT":" ","MAREA":" ","LANE":" ","ALLEY":" ","HOUSE_NO":"１１２號","E_COORD97":167049.39999999999,"N_COORD97":2546043,"ADDRESS":"大港街１１２號","OBJECTID":602058},"geometry":{"x":167049.40000000037,"y":2546043.0000000019}},{"attributes":{"ID":602086,"DIS_CODE":0,"TOWNNAME":"北區","LI":"大和里","LIN":"22鄰","STREET":"大港街","SECT":" ","MAREA":" ","LANE":" ","ALLEY":" ","HOUSE_NO":"１１４號","E_COORD97":167041.39000000001,"N_COORD97":2546037.6000000001,"ADDRESS":"大港街１１４號","OBJECTID":602059},"geometry":{"x":167041.3900000006,"y":2546037.6000000015}},{"attributes":{"ID":602087,"DIS_CODE":0,"TOWNNAME":"北區","LI":"大和里","LIN":"22鄰","STREET":"大港街","SECT":" ","MAREA":" ","LANE":" ","ALLEY":" ","HOUSE_NO":"１１６號","E_COORD97":167034.95000000001,"N_COORD97":2546034.3399999999,"ADDRESS":"大港街１１６號","OBJECTID":602060},"geometry":{"x":167034.95000000019,"y":2546034.3399999999}},{"attributes":{"ID":602088,"DIS_CODE":0,"TOWNNAME":"北區","LI":"大和里","LIN":"22鄰","STREET":"大港街","SECT":" ","MAREA":" ","LANE":" ","ALLEY":" ","HOUSE_NO":"１１８號","E_COORD97":167030.07000000001,"N_COORD97":2546033.04,"ADDRESS":"大港街１１８號","OBJECTID":602061},"geometry":{"x":167030.07000000123,"y":2546033.0399999991}},{"attributes":{"ID":602089,"DIS_CODE":0,"TOWNNAME":"北區","LI":"大和里","LIN":"22鄰","STREET":"大港街","SECT":" ","MAREA":" ","LANE":" ","ALLEY":" ","HOUSE_NO":"１２０號","E_COORD97":167026.23000000001,"N_COORD97":2546031.2200000002,"ADDRESS":"大港街１２０號","OBJECTID":602062},"geometry":{"x":167026.23000000138,"y":2546031.2200000025}},{"attributes":{"ID":602090,"DIS_CODE":0,"TOWNNAME":"北區","LI":"大和里","LIN":"22鄰","STREET":"大港街","SECT":" ","MAREA":" ","LANE":" ","ALLEY":" ","HOUSE_NO":"１２２號","E_COORD97":167019.59,"N_COORD97":2546029.9199999999,"ADDRESS":"大港街１２２號","OBJECTID":602063},"geometry":{"x":167019.59000000078,"y":2546029.9200000018}},{"attributes":{"ID":602091,"DIS_CODE":0,"TOWNNAME":"中西區","LI":"公正里","LIN":"12鄰","STREET":"西華南街","SECT":" ","MAREA":" ","LANE":" ","ALLEY":" ","HOUSE_NO":"２０之３號","E_COORD97":168956.10999999999,"N_COORD97":2543793.6899999999,"ADDRESS":"西華南街２０之３號","OBJECTID":602064},"geometry":{"x":168956.11000000127,"y":2543793.6899999995}},{"attributes":{"ID":602092,"DIS_CODE":0,"TOWNNAME":"中西區","LI":"公正里","LIN":"12鄰","STREET":"西華南街","SECT":" ","MAREA":" ","LANE":" ","ALLEY":" ","HOUSE_NO":"２０之４號","E_COORD97":168965.01000000001,"N_COORD97":2543794.75,"ADDRESS":"西華南街２０之４號","OBJECTID":602065},"geometry":{"x":168965.00999999978,"y":2543794.75}},{"attributes":{"ID":602093,"DIS_CODE":0,"TOWNNAME":"中西區","LI":"公正里","LIN":"12鄰","STREET":"西華南街","SECT":" ","MAREA":" ","LANE":" ","ALLEY":" ","HOUSE_NO":"２０之５號","E_COORD97":168971.95000000001,"N_COORD97":2543796.5299999998,"ADDRESS":"西華南街２０之５號","OBJECTID":602066},"geometry":{"x":168971.95000000112,"y":2543796.5300000012}},{"attributes":{"ID":602094,"DIS_CODE":0,"TOWNNAME":"中西區","LI":"公正里","LIN":"12鄰","STREET":"西華南街","SECT":" ","MAREA":" ","LANE":" ","ALLEY":" ","HOUSE_NO":"２０號","E_COORD97":168954.04000000001,"N_COORD97":2543789.3700000001,"ADDRESS":"西華南街２０號","OBJECTID":602067},"geometry":{"x":168954.04000000097,"y":2543789.3700000029}},{"attributes":{"ID":602095,"DIS_CODE":0,"TOWNNAME":"關廟區","LI":"香洋里","LIN":"22鄰","STREET":"民族街","SECT":" ","MAREA":" ","LANE":" ","ALLEY":" ","HOUSE_NO":"１２６號","E_COORD97":181399.09,"N_COORD97":2539833.29,"ADDRESS":"民族街１２６號","OBJECTID":602068},"geometry":{"x":181399.08999999985,"y":2539833.2899999991}},{"attributes":{"ID":602096,"DIS_CODE":0,"TOWNNAME":"關廟區","LI":"東勢里","LIN":"22鄰","STREET":"東昌街","SECT":" ","MAREA":" ","LANE":" ","ALLEY":" ","HOUSE_NO":"１２７號","E_COORD97":181847.47,"N_COORD97":2539191.25,"ADDRESS":"東昌街１２７號","OBJECTID":602069},"geometry":{"x":181847.46999999974,"y":2539191.2500000037}},{"attributes":{"ID":602097,"DIS_CODE":0,"TOWNNAME":"關廟區","LI":"香洋里","LIN":"22鄰","STREET":"民族街","SECT":" ","MAREA":" ","LANE":" ","ALLEY":" ","HOUSE_NO":"１２８號","E_COORD97":181394.89000000001,"N_COORD97":2539835.29,"ADDRESS":"民族街１２８號","OBJECTID":602070},"geometry":{"x":181394.88999999966,"y":2539835.290000001}},{"attributes":{"ID":602098,"DIS_CODE":0,"TOWNNAME":"關廟區","LI":"東勢里","LIN":"22鄰","STREET":"東昌街","SECT":" ","MAREA":" ","LANE":" ","ALLEY":" ","HOUSE_NO":"９６號","E_COORD97":181896.22,"N_COORD97":2539199.25,"ADDRESS":"東昌街９６號","OBJECTID":602071},"geometry":{"x":181896.21999999974,"y":2539199.2500000019}},{"attributes":{"ID":602099,"DIS_CODE":0,"TOWNNAME":"關廟區","LI":"東勢里","LIN":"22鄰","STREET":"東昌街","SECT":" ","MAREA":" ","LANE":" ","ALLEY":" ","HOUSE_NO":"９２號","E_COORD97":181900.42000000001,"N_COORD97":2539200.25,"ADDRESS":"東昌街９２號","OBJECTID":602072},"geometry":{"x":181900.41999999993,"y":2539200.25}},{"attributes":{"ID":602100,"DIS_CODE":0,"TOWNNAME":"關廟區","LI":"香洋里","LIN":"22鄰","STREET":"民族街","SECT":" ","MAREA":" ","LANE":" ","ALLEY":" ","HOUSE_NO":"１４０號","E_COORD97":181374.19,"N_COORD97":2539843.29,"ADDRESS":"民族街１４０號","OBJECTID":602073},"geometry":{"x":181374.19000000134,"y":2539843.2899999991}},{"attributes":{"ID":602101,"DIS_CODE":0,"TOWNNAME":"關廟區","LI":"東勢里","LIN":"22鄰","STREET":"東昌街","SECT":" ","MAREA":" ","LANE":" ","ALLEY":" ","HOUSE_NO":"１１２號","E_COORD97":181864.76999999999,"N_COORD97":2539190.25,"ADDRESS":"東昌街１１２號","OBJECTID":602074},"geometry":{"x":181864.77000000048,"y":2539190.25}},{"attributes":{"ID":602102,"DIS_CODE":0,"TOWNNAME":"關廟區","LI":"東勢里","LIN":"22鄰","STREET":"東昌街","SECT":" ","MAREA":" ","LANE":" ","ALLEY":" ","HOUSE_NO":"１２９號","E_COORD97":181850.17000000001,"N_COORD97":2539187.25,"ADDRESS":"東昌街１２９號","OBJECTID":602075},"geometry":{"x":181850.17000000086,"y":2539187.25}},{"attributes":{"ID":602103,"DIS_CODE":0,"TOWNNAME":"關廟區","LI":"香洋里","LIN":"22鄰","STREET":"民族街","SECT":" ","MAREA":" ","LANE":" ","ALLEY":" ","HOUSE_NO":"９７號","E_COORD97":181358.34,"N_COORD97":2539835.29,"ADDRESS":"民族街９７號","OBJECTID":602076},"geometry":{"x":181358.33999999985,"y":2539835.290000001}},{"attributes":{"ID":602104,"DIS_CODE":0,"TOWNNAME":"中西區","LI":"公正里","LIN":"12鄰","STREET":"西華南街","SECT":" ","MAREA":" ","LANE":" ","ALLEY":" ","HOUSE_NO":"２０號地下一層之１","E_COORD97":168954.04000000001,"N_COORD97":2543789.3700000001,"ADDRESS":"西華南街２０號地下一層之１","OBJECTID":602077},"geometry":{"x":168954.04000000097,"y":2543789.3700000029}},{"attributes":{"ID":602105,"DIS_CODE":0,"TOWNNAME":"中西區","LI":"公正里","LIN":"12鄰","STREET":"西華南街","SECT":" ","MAREA":" ","LANE":" ","ALLEY":" ","HOUSE_NO":"２０號地下一層之２","E_COORD97":168954.04000000001,"N_COORD97":2543789.3700000001,"ADDRESS":"西華南街２０號地下一層之２","OBJECTID":602078},"geometry":{"x":168954.04000000097,"y":2543789.3700000029}},{"attributes":{"ID":602106,"DIS_CODE":0,"TOWNNAME":"中西區","LI":"公正里","LIN":"12鄰","STREET":"西華南街","SECT":" ","MAREA":" ","LANE":" ","ALLEY":" ","HOUSE_NO":"２０號地下一層之３","E_COORD97":168954.04000000001,"N_COORD97":2543789.3700000001,"ADDRESS":"西華南街２０號地下一層之３","OBJECTID":602079},"geometry":{"x":168954.04000000097,"y":2543789.3700000029}},{"attributes":{"ID":602107,"DIS_CODE":0,"TOWNNAME":"中西區","LI":"公正里","LIN":"12鄰","STREET":"西華南街","SECT":" ","MAREA":" ","LANE":" ","ALLEY":" ","HOUSE_NO":"２０號地下一層之４","E_COORD97":168954.04000000001,"N_COORD97":2543789.3700000001,"ADDRESS":"西華南街２０號地下一層之４","OBJECTID":602080},"geometry":{"x":168954.04000000097,"y":2543789.3700000029}},{"attributes":{"ID":602108,"DIS_CODE":0,"TOWNNAME":"中西區","LI":"公正里","LIN":"12鄰","STREET":"西華南街","SECT":" ","MAREA":" ","LANE":" ","ALLEY":" ","HOUSE_NO":"２０號地下一層之５","E_COORD97":168954.04000000001,"N_COORD97":2543789.3700000001,"ADDRESS":"西華南街２０號地下一層之５","OBJECTID":602081},"geometry":{"x":168954.04000000097,"y":2543789.3700000029}},{"attributes":{"ID":602109,"DIS_CODE":0,"TOWNNAME":"中西區","LI":"公正里","LIN":"12鄰","STREET":"西華南街","SECT":" ","MAREA":" ","LANE":" ","ALLEY":" ","HOUSE_NO":"２０號地下一層之６","E_COORD97":168954.04000000001,"N_COORD97":2543789.3700000001,"ADDRESS":"西華南街２０號地下一層之６","OBJECTID":602082},"geometry":{"x":168954.04000000097,"y":2543789.3700000029}},{"attributes":{"ID":602110,"DIS_CODE":0,"TOWNNAME":"中西區","LI":"公正里","LIN":"12鄰","STREET":"西華南街","SECT":" ","MAREA":" ","LANE":" ","ALLEY":" ","HOUSE_NO":"２０號地下一層之７","E_COORD97":168954.04000000001,"N_COORD97":2543789.3700000001,"ADDRESS":"西華南街２０號地下一層之７","OBJECTID":602083},"geometry":{"x":168954.04000000097,"y":2543789.3700000029}},{"attributes":{"ID":602111,"DIS_CODE":0,"TOWNNAME":"中西區","LI":"公正里","LIN":"12鄰","STREET":"西華南街","SECT":" ","MAREA":" ","LANE":" ","ALLEY":" ","HOUSE_NO":"８號","E_COORD97":168951.48000000001,"N_COORD97":2543760.7599999998,"ADDRESS":"西華南街８號","OBJECTID":602084},"geometry":{"x":168951.48000000138,"y":2543760.7599999998}},{"attributes":{"ID":602112,"DIS_CODE":0,"TOWNNAME":"中西區","LI":"公正里","LIN":"12鄰","STREET":"衛民街","SECT":" ","MAREA":" ","LANE":" ","ALLEY":" ","HOUSE_NO":"１００號","E_COORD97":168952.29999999999,"N_COORD97":2543734.4700000002,"ADDRESS":"衛民街１００號","OBJECTID":602085},"geometry":{"x":168952.30000000075,"y":2543734.4700000025}},{"attributes":{"ID":602113,"DIS_CODE":0,"TOWNNAME":"中西區","LI":"公正里","LIN":"12鄰","STREET":"衛民街","SECT":" ","MAREA":" ","LANE":" ","ALLEY":" ","HOUSE_NO":"１０２號","E_COORD97":168947.28,"N_COORD97":2543735.1099999999,"ADDRESS":"衛民街１０２號","OBJECTID":602086},"geometry":{"x":168947.27999999933,"y":2543735.1100000013}},{"attributes":{"ID":602114,"DIS_CODE":0,"TOWNNAME":"關廟區","LI":"香洋里","LIN":"22鄰","STREET":"民族街","SECT":" ","MAREA":" ","LANE":" ","ALLEY":" ","HOUSE_NO":"１３６號","E_COORD97":181382.59,"N_COORD97":2539840.29,"ADDRESS":"民族街１３６號","OBJECTID":602087},"geometry":{"x":181382.59000000171,"y":2539840.2899999991}},{"attributes":{"ID":602115,"DIS_CODE":0,"TOWNNAME":"關廟區","LI":"香洋里","LIN":"22鄰","STREET":"民族街","SECT":" ","MAREA":" ","LANE":" ","ALLEY":" ","HOUSE_NO":"８３號","E_COORD97":181403.23999999999,"N_COORD97":2539793.29,"ADDRESS":"民族街８３號","OBJECTID":602088},"geometry":{"x":181403.24000000022,"y":2539793.2899999972}},{"attributes":{"ID":602116,"DIS_CODE":0,"TOWNNAME":"關廟區","LI":"東勢里","LIN":"22鄰","STREET":"東昌街","SECT":" ","MAREA":" ","LANE":" ","ALLEY":" ","HOUSE_NO":"１２５號","E_COORD97":181845.97,"N_COORD97":2539195.25,"ADDRESS":"東昌街１２５號","OBJECTID":602089},"geometry":{"x":181845.9700000016,"y":2539195.2500000019}},{"attributes":{"ID":602117,"DIS_CODE":0,"TOWNNAME":"新營區","LI":"王公里","LIN":"22鄰","STREET":"大仁街","SECT":" ","MAREA":" ","LANE":" ","ALLEY":" ","HOUSE_NO":"６２號","E_COORD97":180388.19,"N_COORD97":2579369.3599999999,"ADDRESS":"大仁街６２號","OBJECTID":602090},"geometry":{"x":180388.19000000041,"y":2579369.3600000031}},{"attributes":{"ID":602118,"DIS_CODE":0,"TOWNNAME":"新營區","LI":"民權里","LIN":"22鄰","STREET":"仁愛街","SECT":" ","MAREA":" ","LANE":" ","ALLEY":" ","HOUSE_NO":"１１５號","E_COORD97":179745.13,"N_COORD97":2578519.6699999999,"ADDRESS":"仁愛街１１５號","OBJECTID":602091},"geometry":{"x":179745.13000000082,"y":2578519.6699999999}},{"attributes":{"ID":602119,"DIS_CODE":0,"TOWNNAME":"新營區","LI":"民權里","LIN":"22鄰","STREET":"民權路","SECT":" ","MAREA":" ","LANE":" ","ALLEY":" ","HOUSE_NO":"９２號之２","E_COORD97":179674.48000000001,"N_COORD97":2578512.2999999998,"ADDRESS":"民權路９２號之２","OBJECTID":602092},"geometry":{"x":179674.48000000045,"y":2578512.3000000007}},{"attributes":{"ID":602120,"DIS_CODE":0,"TOWNNAME":"新營區","LI":"民權里","LIN":"22鄰","STREET":"民權路","SECT":" ","MAREA":" ","LANE":" ","ALLEY":" ","HOUSE_NO":"９２號之４","E_COORD97":179672.39999999999,"N_COORD97":2578526.71,"ADDRESS":"民權路９２號之４","OBJECTID":602093},"geometry":{"x":179672.4000000013,"y":2578526.7100000009}},{"attributes":{"ID":602121,"DIS_CODE":0,"TOWNNAME":"新營區","LI":"民權里","LIN":"22鄰","STREET":"仁愛街","SECT":" ","MAREA":" ","LANE":" ","ALLEY":" ","HOUSE_NO":"１１３號","E_COORD97":179748.12,"N_COORD97":2578505.25,"ADDRESS":"仁愛街１１３號","OBJECTID":602094},"geometry":{"x":179748.12000000011,"y":2578505.25}},{"attributes":{"ID":602122,"DIS_CODE":0,"TOWNNAME":"中西區","LI":"銀同里","LIN":"6鄰","STREET":"府中街","SECT":" ","MAREA":" ","LANE":" ","ALLEY":" ","HOUSE_NO":"６３號","E_COORD97":168726.32000000001,"N_COORD97":2543442.2999999998,"ADDRESS":"府中街６３號","OBJECTID":602095},"geometry":{"x":168726.3200000003,"y":2543442.3000000007}},{"attributes":{"ID":602123,"DIS_CODE":0,"TOWNNAME":"歸仁區","LI":"文化里","LIN":"22鄰","STREET":"大德路","SECT":" ","MAREA":" ","LANE":" ","ALLEY":" ","HOUSE_NO":"２４１號地下室","E_COORD97":177147.64999999999,"N_COORD97":2541520.4700000002,"ADDRESS":"大德路２４１號地下室","OBJECTID":602096},"geometry":{"x":177147.65000000037,"y":2541520.4700000025}},{"attributes":{"ID":602124,"DIS_CODE":0,"TOWNNAME":"歸仁區","LI":"六甲里","LIN":"22鄰","STREET":"中正十八街","SECT":" ","MAREA":" ","LANE":" ","ALLEY":" ","HOUSE_NO":"２０號","E_COORD97":176328.63568499999,"N_COORD97":2539681.3716099998,"ADDRESS":"中正十八街２０號","OBJECTID":602097},"geometry":{"x":176328.63568499964,"y":2539681.371607}},{"attributes":{"ID":602125,"DIS_CODE":0,"TOWNNAME":"歸仁區","LI":"看西里","LIN":"22鄰","STREET":"成功七街","SECT":" ","MAREA":" ","LANE":" ","ALLEY":" ","HOUSE_NO":"３２號","E_COORD97":178276.89000000001,"N_COORD97":2539854.9500000002,"ADDRESS":"成功七街３２號","OBJECTID":602098},"geometry":{"x":178276.8900000006,"y":2539854.9500000011}},{"attributes":{"ID":602126,"DIS_CODE":0,"TOWNNAME":"中西區","LI":"福安里","LIN":"7鄰","STREET":"西門路","SECT":"二段","MAREA":" ","LANE":" ","ALLEY":" ","HOUSE_NO":"４０號","E_COORD97":167804.45000000001,"N_COORD97":2543546.9199999999,"ADDRESS":"西門路二段４０號","OBJECTID":602099},"geometry":{"x":167804.45000000112,"y":2543546.9200000037}},{"attributes":{"ID":602127,"DIS_CODE":0,"TOWNNAME":"中西區","LI":"福安里","LIN":"7鄰","STREET":"西門路","SECT":"二段","MAREA":" ","LANE":" ","ALLEY":" ","HOUSE_NO":"４２號","E_COORD97":167805.23999999999,"N_COORD97":2543550.5,"ADDRESS":"西門路二段４２號","OBJECTID":602100},"geometry":{"x":167805.24000000115,"y":2543550.5000000019}},{"attributes":{"ID":602128,"DIS_CODE":0,"TOWNNAME":"中西區","LI":"福安里","LIN":"7鄰","STREET":"西門路","SECT":"二段","MAREA":" ","LANE":" ","ALLEY":" ","HOUSE_NO":"４６號","E_COORD97":167806.31,"N_COORD97":2543554.2200000002,"ADDRESS":"西門路二段４６號","OBJECTID":602101},"geometry":{"x":167806.31000000052,"y":2543554.2200000007}},{"attributes":{"ID":602129,"DIS_CODE":0,"TOWNNAME":"中西區","LI":"福安里","LIN":"7鄰","STREET":"西門路","SECT":"二段","MAREA":" ","LANE":" ","ALLEY":" ","HOUSE_NO":"４８號","E_COORD97":167807.89999999999,"N_COORD97":2543557.8100000001,"ADDRESS":"西門路二段４８號","OBJECTID":602102},"geometry":{"x":167807.9000000013,"y":2543557.8100000005}},{"attributes":{"ID":602130,"DIS_CODE":0,"TOWNNAME":"中西區","LI":"福安里","LIN":"7鄰","STREET":"西門路","SECT":"二段","MAREA":" ","LANE":" ","ALLEY":" ","HOUSE_NO":"５０號","E_COORD97":167808.57000000001,"N_COORD97":2543561.79,"ADDRESS":"西門路二段５０號","OBJECTID":602103},"geometry":{"x":167808.57000000123,"y":2543561.790000001}},{"attributes":{"ID":602131,"DIS_CODE":0,"TOWNNAME":"中西區","LI":"福安里","LIN":"8鄰","STREET":"西門路","SECT":"二段","MAREA":" ","LANE":" ","ALLEY":" ","HOUSE_NO":"１６號底層","E_COORD97":167787.69,"N_COORD97":2543492.9900000002,"ADDRESS":"西門路二段１６號底層","OBJECTID":602104},"geometry":{"x":167787.69000000134,"y":2543492.9900000021}},{"attributes":{"ID":602132,"DIS_CODE":0,"TOWNNAME":"中西區","LI":"福安里","LIN":"8鄰","STREET":"西門路","SECT":"二段","MAREA":" ","LANE":" ","ALLEY":" ","HOUSE_NO":"２０號","E_COORD97":167787.54999999999,"N_COORD97":2543498.5699999998,"ADDRESS":"西門路二段２０號","OBJECTID":602105},"geometry":{"x":167787.55000000075,"y":2543498.570000004}},{"attributes":{"ID":602133,"DIS_CODE":0,"TOWNNAME":"中西區","LI":"福安里","LIN":"8鄰","STREET":"西門路","SECT":"二段","MAREA":" ","LANE":" ","ALLEY":" ","HOUSE_NO":"２２號","E_COORD97":167788.75,"N_COORD97":2543503.0800000001,"ADDRESS":"西門路二段２２號","OBJECTID":602106},"geometry":{"x":167788.75,"y":2543503.0800000019}},{"attributes":{"ID":602134,"DIS_CODE":0,"TOWNNAME":"中西區","LI":"福安里","LIN":"8鄰","STREET":"西門路","SECT":"二段","MAREA":" ","LANE":" ","ALLEY":" ","HOUSE_NO":"２號","E_COORD97":167801.09,"N_COORD97":2543462.2799999998,"ADDRESS":"西門路二段２號","OBJECTID":602107},"geometry":{"x":167801.09000000078,"y":2543462.2800000031}},{"attributes":{"ID":602135,"DIS_CODE":0,"TOWNNAME":"中西區","LI":"福安里","LIN":"8鄰","STREET":"西門路","SECT":"二段","MAREA":" ","LANE":" ","ALLEY":" ","HOUSE_NO":"６號","E_COORD97":167800.73999999999,"N_COORD97":2543464.96,"ADDRESS":"西門路二段６號","OBJECTID":602108},"geometry":{"x":167800.74000000115,"y":2543464.9600000009}},{"attributes":{"ID":602136,"DIS_CODE":0,"TOWNNAME":"中西區","LI":"福安里","LIN":"8鄰","STREET":"西門路","SECT":"二段","MAREA":" ","LANE":" ","ALLEY":" ","HOUSE_NO":"８號","E_COORD97":167798.94,"N_COORD97":2543468.8999999999,"ADDRESS":"西門路二段８號","OBJECTID":602109},"geometry":{"x":167798.94000000227,"y":2543468.9000000004}},{"attributes":{"ID":602137,"DIS_CODE":0,"TOWNNAME":"南區","LI":"新昌里","LIN":"22鄰","STREET":"五妃街","SECT":" ","MAREA":" ","LANE":" ","ALLEY":" ","HOUSE_NO":"３７０號","E_COORD97":167631.60999999999,"N_COORD97":2542600.8399999999,"ADDRESS":"五妃街３７０號","OBJECTID":602110},"geometry":{"x":167631.61000000127,"y":2542600.8399999999}},{"attributes":{"ID":602138,"DIS_CODE":0,"TOWNNAME":"南區","LI":"明興里","LIN":"22鄰","STREET":"永春街","SECT":" ","MAREA":" ","LANE":" ","ALLEY":" ","HOUSE_NO":"１號","E_COORD97":167091.72,"N_COORD97":2540573.1800000002,"ADDRESS":"永春街１號","OBJECTID":602111},"geometry":{"x":167091.72000000067,"y":2540573.1799999997}},{"attributes":{"ID":602139,"DIS_CODE":0,"TOWNNAME":"南區","LI":"明興里","LIN":"22鄰","STREET":"永春街","SECT":" ","MAREA":" ","LANE":" ","ALLEY":" ","HOUSE_NO":"３號","E_COORD97":167090.60999999999,"N_COORD97":2540578.02,"ADDRESS":"永春街３號","OBJECTID":602112},"geometry":{"x":167090.6099999994,"y":2540578.0199999996}},{"attributes":{"ID":602140,"DIS_CODE":0,"TOWNNAME":"南區","LI":"新昌里","LIN":"22鄰","STREET":"西門路","SECT":"一段","MAREA":" ","LANE":" ","ALLEY":" ","HOUSE_NO":"５２１號","E_COORD97":167713.03,"N_COORD97":2542637.6699999999,"ADDRESS":"西門路一段５２１號","OBJECTID":602113},"geometry":{"x":167713.03000000026,"y":2542637.6700000018}},{"attributes":{"ID":602141,"DIS_CODE":0,"TOWNNAME":"南區","LI":"新昌里","LIN":"22鄰","STREET":"西門路","SECT":"一段","MAREA":" ","LANE":" ","ALLEY":" ","HOUSE_NO":"５２３號","E_COORD97":167712.92000000001,"N_COORD97":2542640.3599999999,"ADDRESS":"西門路一段５２３號","OBJECTID":602114},"geometry":{"x":167712.91999999993,"y":2542640.3599999994}},{"attributes":{"ID":602142,"DIS_CODE":0,"TOWNNAME":"南區","LI":"新昌里","LIN":"22鄰","STREET":"西門路","SECT":"一段","MAREA":" ","LANE":" ","ALLEY":" ","HOUSE_NO":"５２９號","E_COORD97":167711.70000000001,"N_COORD97":2542655.7799999998,"ADDRESS":"西門路一段５２９號","OBJECTID":602115},"geometry":{"x":167711.70000000019,"y":2542655.7800000012}},{"attributes":{"ID":602143,"DIS_CODE":0,"TOWNNAME":"中西區","LI":"銀同里","LIN":"5鄰","STREET":"府中街","SECT":" ","MAREA":" ","LANE":" ","ALLEY":" ","HOUSE_NO":"７９號","E_COORD97":168691.01000000001,"N_COORD97":2543419.1899999999,"ADDRESS":"府中街７９號","OBJECTID":602116},"geometry":{"x":168691.01000000164,"y":2543419.1900000032}},{"attributes":{"ID":602144,"DIS_CODE":0,"TOWNNAME":"中西區","LI":"福安里","LIN":"9鄰","STREET":"永福路","SECT":"二段","MAREA":" ","LANE":" ","ALLEY":" ","HOUSE_NO":"４５號","E_COORD97":168029.63,"N_COORD97":2543531.96,"ADDRESS":"永福路二段４５號","OBJECTID":602117},"geometry":{"x":168029.63000000082,"y":2543531.9600000028}},{"attributes":{"ID":602145,"DIS_CODE":0,"TOWNNAME":"安平區","LI":"建平里","LIN":"22鄰","STREET":"永華三街","SECT":" ","MAREA":" ","LANE":" ","ALLEY":" ","HOUSE_NO":"５６號","E_COORD97":166103.60999999999,"N_COORD97":2543580.2400000002,"ADDRESS":"永華三街５６號","OBJECTID":602118},"geometry":{"x":166103.61000000034,"y":2543580.2400000021}},{"attributes":{"ID":602146,"DIS_CODE":0,"TOWNNAME":"安平區","LI":"建平里","LIN":"22鄰","STREET":"永華三街","SECT":" ","MAREA":" ","LANE":" ","ALLEY":" ","HOUSE_NO":"５８號","E_COORD97":166102.17999999999,"N_COORD97":2543585.9500000002,"ADDRESS":"永華三街５８號","OBJECTID":602119},"geometry":{"x":166102.1799999997,"y":2543585.9499999993}},{"attributes":{"ID":602147,"DIS_CODE":0,"TOWNNAME":"安平區","LI":"建平里","LIN":"22鄰","STREET":"永華三街","SECT":" ","MAREA":" ","LANE":" ","ALLEY":" ","HOUSE_NO":"６２號","E_COORD97":166103.29999999999,"N_COORD97":2543592.7799999998,"ADDRESS":"永華三街６２號","OBJECTID":602120},"geometry":{"x":166103.29999999981,"y":2543592.7799999993}},{"attributes":{"ID":602148,"DIS_CODE":0,"TOWNNAME":"安平區","LI":"建平里","LIN":"22鄰","STREET":"永華三街","SECT":" ","MAREA":" ","LANE":" ","ALLEY":" ","HOUSE_NO":"６４號","E_COORD97":166103.29000000001,"N_COORD97":2543598.6800000002,"ADDRESS":"永華三街６４號","OBJECTID":602121},"geometry":{"x":166103.29000000097,"y":2543598.6799999978}},{"attributes":{"ID":602149,"DIS_CODE":0,"TOWNNAME":"安平區","LI":"建平里","LIN":"22鄰","STREET":"永華三街","SECT":" ","MAREA":" ","LANE":" ","ALLEY":" ","HOUSE_NO":"６６號","E_COORD97":166103.92999999999,"N_COORD97":2543603.5699999998,"ADDRESS":"永華三街６６號","OBJECTID":602122},"geometry":{"x":166103.9299999997,"y":2543603.570000004}},{"attributes":{"ID":602150,"DIS_CODE":0,"TOWNNAME":"南區","LI":"大恩里","LIN":"22鄰","STREET":"大同路","SECT":"二段","MAREA":" ","LANE":" ","ALLEY":" ","HOUSE_NO":"７２８之１號","E_COORD97":169591.54000000001,"N_COORD97":2540779.79,"ADDRESS":"大同路二段７２８之１號","OBJECTID":602123},"geometry":{"x":169591.54000000097,"y":2540779.7899999991}},{"attributes":{"ID":602151,"DIS_CODE":0,"TOWNNAME":"南區","LI":"大恩里","LIN":"22鄰","STREET":"大同路","SECT":"二段","MAREA":" ","LANE":" ","ALLEY":" ","HOUSE_NO":"７２８號","E_COORD97":169591.97,"N_COORD97":2540774.5299999998,"ADDRESS":"大同路二段７２８號","OBJECTID":602124},"geometry":{"x":169591.97000000067,"y":2540774.5299999993}},{"attributes":{"ID":602152,"DIS_CODE":0,"TOWNNAME":"中西區","LI":"福安里","LIN":"12鄰","STREET":"府前路","SECT":"一段","MAREA":" ","LANE":" ","ALLEY":" ","HOUSE_NO":"２６２號","E_COORD97":168006.60999999999,"N_COORD97":2543413.0499999998,"ADDRESS":"府前路一段２６２號","OBJECTID":602125},"geometry":{"x":168006.61000000127,"y":2543413.0500000007}},{"attributes":{"ID":602153,"DIS_CODE":0,"TOWNNAME":"中西區","LI":"福安里","LIN":"12鄰","STREET":"府前路","SECT":"一段","MAREA":" ","LANE":" ","ALLEY":" ","HOUSE_NO":"２６４號","E_COORD97":167991.54999999999,"N_COORD97":2543412.1499999999,"ADDRESS":"府前路一段２６４號","OBJECTID":602126},"geometry":{"x":167991.54999999981,"y":2543412.1500000004}},{"attributes":{"ID":602154,"DIS_CODE":0,"TOWNNAME":"中西區","LI":"福安里","LIN":"12鄰","STREET":"府前路","SECT":"一段","MAREA":" ","LANE":" ","ALLEY":" ","HOUSE_NO":"２６６號","E_COORD97":167987.97,"N_COORD97":2543412.3300000001,"ADDRESS":"府前路一段２６６號","OBJECTID":602127},"geometry":{"x":167987.97000000067,"y":2543412.3300000019}},{"attributes":{"ID":602155,"DIS_CODE":0,"TOWNNAME":"中西區","LI":"福安里","LIN":"12鄰","STREET":"府前路","SECT":"一段","MAREA":" ","LANE":" ","ALLEY":" ","HOUSE_NO":"２６８號","E_COORD97":167984.03,"N_COORD97":2543412.8700000001,"ADDRESS":"府前路一段２６８號","OBJECTID":602128},"geometry":{"x":167984.03000000026,"y":2543412.8700000029}},{"attributes":{"ID":602156,"DIS_CODE":0,"TOWNNAME":"南區","LI":"大恩里","LIN":"22鄰","STREET":"大同路","SECT":"二段","MAREA":" ","LANE":" ","ALLEY":" ","HOUSE_NO":"７３２之１號","E_COORD97":169594.01000000001,"N_COORD97":2540756.7999999998,"ADDRESS":"大同路二段７３２之１號","OBJECTID":602129},"geometry":{"x":169594.00999999978,"y":2540756.8000000007}},{"attributes":{"ID":602157,"DIS_CODE":0,"TOWNNAME":"南區","LI":"大恩里","LIN":"22鄰","STREET":"大同路","SECT":"二段","MAREA":" ","LANE":" ","ALLEY":" ","HOUSE_NO":"７３２之２號","E_COORD97":169594.98000000001,"N_COORD97":2540753.0499999998,"ADDRESS":"大同路二段７３２之２號","OBJECTID":602130},"geometry":{"x":169594.98000000045,"y":2540753.0500000045}},{"attributes":{"ID":602158,"DIS_CODE":0,"TOWNNAME":"南區","LI":"大恩里","LIN":"22鄰","STREET":"大同路","SECT":"二段","MAREA":" ","LANE":" ","ALLEY":" ","HOUSE_NO":"７３２號","E_COORD97":169593.69,"N_COORD97":2540760.9900000002,"ADDRESS":"大同路二段７３２號","OBJECTID":602131},"geometry":{"x":169593.69000000041,"y":2540760.9900000021}},{"attributes":{"ID":602159,"DIS_CODE":0,"TOWNNAME":"南區","LI":"大恩里","LIN":"22鄰","STREET":"大同路","SECT":"二段","MAREA":" ","LANE":" ","ALLEY":" ","HOUSE_NO":"７３６號","E_COORD97":169597.07000000001,"N_COORD97":2540746.4100000001,"ADDRESS":"大同路二段７３６號","OBJECTID":602132},"geometry":{"x":169597.07000000123,"y":2540746.4100000039}},{"attributes":{"ID":602160,"DIS_CODE":0,"TOWNNAME":"南區","LI":"大恩里","LIN":"22鄰","STREET":"大同路","SECT":"二段","MAREA":" ","LANE":" ","ALLEY":" ","HOUSE_NO":"７３８號","E_COORD97":169570.89999999999,"N_COORD97":2540744.0099999998,"ADDRESS":"大同路二段７３８號","OBJECTID":602133},"geometry":{"x":169570.9000000013,"y":2540744.0099999998}},{"attributes":{"ID":602161,"DIS_CODE":0,"TOWNNAME":"中西區","LI":"福安里","LIN":"12鄰","STREET":"府前路","SECT":"一段","MAREA":" ","LANE":" ","ALLEY":" ","HOUSE_NO":"２８４號","E_COORD97":167937.97,"N_COORD97":2543422.1800000002,"ADDRESS":"府前路一段２８４號","OBJECTID":602134},"geometry":{"x":167937.96999999974,"y":2543422.1799999997}},{"attributes":{"ID":602162,"DIS_CODE":0,"TOWNNAME":"中西區","LI":"福安里","LIN":"12鄰","STREET":"府前路","SECT":"一段","MAREA":" ","LANE":" ","ALLEY":" ","HOUSE_NO":"２８６號","E_COORD97":167933.67000000001,"N_COORD97":2543422.3599999999,"ADDRESS":"府前路一段２８６號","OBJECTID":602135},"geometry":{"x":167933.66999999993,"y":2543422.3600000013}},{"attributes":{"ID":602163,"DIS_CODE":0,"TOWNNAME":"中西區","LI":"福安里","LIN":"12鄰","STREET":"府前路","SECT":"一段","MAREA":" ","LANE":" ","ALLEY":" ","HOUSE_NO":"２８８號","E_COORD97":167929.19,"N_COORD97":2543423.6099999999,"ADDRESS":"府前路一段２８８號","OBJECTID":602136},"geometry":{"x":167929.19000000041,"y":2543423.6100000013}},{"attributes":{"ID":602164,"DIS_CODE":0,"TOWNNAME":"中西區","LI":"福安里","LIN":"12鄰","STREET":"府前路","SECT":"一段","MAREA":" ","LANE":" ","ALLEY":" ","HOUSE_NO":"２９０號","E_COORD97":167922.92000000001,"N_COORD97":2543424.5099999998,"ADDRESS":"府前路一段２９０號","OBJECTID":602137},"geometry":{"x":167922.92000000086,"y":2543424.5100000016}},{"attributes":{"ID":602165,"DIS_CODE":0,"TOWNNAME":"中西區","LI":"福安里","LIN":"12鄰","STREET":"府前路","SECT":"一段","MAREA":" ","LANE":" ","ALLEY":" ","HOUSE_NO":"２９０號之１","E_COORD97":167920.89000000001,"N_COORD97":2543427.3900000001,"ADDRESS":"府前路一段２９０號之１","OBJECTID":602138},"geometry":{"x":167920.8900000006,"y":2543427.3900000006}},{"attributes":{"ID":602166,"DIS_CODE":0,"TOWNNAME":"南區","LI":"大恩里","LIN":"22鄰","STREET":"大同路","SECT":"二段","MAREA":" ","LANE":" ","ALLEY":" ","HOUSE_NO":"７４０號","E_COORD97":169603.56,"N_COORD97":2540724.4700000002,"ADDRESS":"大同路二段７４０號","OBJECTID":602139},"geometry":{"x":169603.55999999959,"y":2540724.4700000025}},{"attributes":{"ID":602167,"DIS_CODE":0,"TOWNNAME":"中西區","LI":"福安里","LIN":"14鄰","STREET":"永福路","SECT":"二段","MAREA":" ","LANE":" ","ALLEY":" ","HOUSE_NO":"１９號","E_COORD97":168018.97,"N_COORD97":2543469.6200000001,"ADDRESS":"永福路二段１９號","OBJECTID":602140},"geometry":{"x":168018.97000000067,"y":2543469.6200000029}},{"attributes":{"ID":602168,"DIS_CODE":0,"TOWNNAME":"中西區","LI":"福安里","LIN":"14鄰","STREET":"永福路","SECT":"二段","MAREA":" ","LANE":" ","ALLEY":" ","HOUSE_NO":"２１號","E_COORD97":168020.23000000001,"N_COORD97":2543473.3799999999,"ADDRESS":"永福路二段２１號","OBJECTID":602141},"geometry":{"x":168020.23000000045,"y":2543473.379999999}},{"attributes":{"ID":602169,"DIS_CODE":0,"TOWNNAME":"中西區","LI":"銀同里","LIN":"13鄰","STREET":"友愛東街","SECT":" ","MAREA":" ","LANE":" ","ALLEY":" ","HOUSE_NO":"３７號","E_COORD97":168660.92000000001,"N_COORD97":2543535.6899999999,"ADDRESS":"友愛東街３７號","OBJECTID":602142},"geometry":{"x":168660.91999999993,"y":2543535.6900000013}},{"attributes":{"ID":602170,"DIS_CODE":0,"TOWNNAME":"中西區","LI":"銀同里","LIN":"13鄰","STREET":"友愛東街","SECT":" ","MAREA":" ","LANE":" ","ALLEY":" ","HOUSE_NO":"３９號","E_COORD97":168657.51999999999,"N_COORD97":2543534.6099999999,"ADDRESS":"友愛東街３９號","OBJECTID":602143},"geometry":{"x":168657.52000000048,"y":2543534.6100000031}},{"attributes":{"ID":602171,"DIS_CODE":0,"TOWNNAME":"中西區","LI":"銀同里","LIN":"13鄰","STREET":"友愛東街","SECT":" ","MAREA":" ","LANE":" ","ALLEY":" ","HOUSE_NO":"４１號","E_COORD97":168654.44,"N_COORD97":2543530.7599999998,"ADDRESS":"友愛東街４１號","OBJECTID":602144},"geometry":{"x":168654.44000000041,"y":2543530.7600000035}},{"attributes":{"ID":602172,"DIS_CODE":0,"TOWNNAME":"中西區","LI":"銀同里","LIN":"13鄰","STREET":"開山路","SECT":" ","MAREA":" ","LANE":" ","ALLEY":" ","HOUSE_NO":"３１號","E_COORD97":168615.70000000001,"N_COORD97":2543534.5800000001,"ADDRESS":"開山路３１號","OBJECTID":602145},"geometry":{"x":168615.70000000205,"y":2543534.5800000001}},{"attributes":{"ID":602173,"DIS_CODE":0,"TOWNNAME":"中西區","LI":"銀同里","LIN":"13鄰","STREET":"開山路","SECT":" ","MAREA":" ","LANE":" ","ALLEY":" ","HOUSE_NO":"３１號之１","E_COORD97":168627.81,"N_COORD97":2543516.3700000001,"ADDRESS":"開山路３１號之１","OBJECTID":602146},"geometry":{"x":168627.81000000145,"y":2543516.370000001}},{"attributes":{"ID":602174,"DIS_CODE":0,"TOWNNAME":"中西區","LI":"銀同里","LIN":"13鄰","STREET":"開山路","SECT":" ","MAREA":" ","LANE":" ","ALLEY":" ","HOUSE_NO":"３３號","E_COORD97":168631.37,"N_COORD97":2543509.77,"ADDRESS":"開山路３３號","OBJECTID":602147},"geometry":{"x":168631.37000000197,"y":2543509.7699999977}},{"attributes":{"ID":602175,"DIS_CODE":0,"TOWNNAME":"鹽水區","LI":"橋南里","LIN":"22鄰","STREET":"新中路","SECT":" ","MAREA":" ","LANE":" ","ALLEY":" ","HOUSE_NO":"１０６號","E_COORD97":176015.70000000001,"N_COORD97":2578598.9399999999,"ADDRESS":"新中路１０６號","OBJECTID":602148},"geometry":{"x":176015.70000000112,"y":2578598.9399999976}},{"attributes":{"ID":602176,"DIS_CODE":0,"TOWNNAME":"中西區","LI":"銀同里","LIN":"13鄰","STREET":"開山路","SECT":" ","MAREA":" ","LANE":" ","ALLEY":" ","HOUSE_NO":"５號","E_COORD97":168567.06,"N_COORD97":2543617.48,"ADDRESS":"開山路５號","OBJECTID":602149},"geometry":{"x":168567.06000000052,"y":2543617.4800000004}},{"attributes":{"ID":602177,"DIS_CODE":0,"TOWNNAME":"中西區","LI":"銀同里","LIN":"13鄰","STREET":"開山路","SECT":" ","MAREA":" ","LANE":" ","ALLEY":" ","HOUSE_NO":"７號","E_COORD97":168568.95999999999,"N_COORD97":2543613.8799999999,"ADDRESS":"開山路７號","OBJECTID":602150},"geometry":{"x":168568.95999999996,"y":2543613.8800000027}},{"attributes":{"ID":602178,"DIS_CODE":0,"TOWNNAME":"中西區","LI":"銀同里","LIN":"12鄰","STREET":"友愛東街","SECT":" ","MAREA":" ","LANE":" ","ALLEY":" ","HOUSE_NO":"２９號","E_COORD97":168684.5,"N_COORD97":2543554.1899999999,"ADDRESS":"友愛東街２９號","OBJECTID":602151},"geometry":{"x":168684.50000000186,"y":2543554.1899999995}},{"attributes":{"ID":602179,"DIS_CODE":0,"TOWNNAME":"中西區","LI":"銀同里","LIN":"12鄰","STREET":"友愛東街","SECT":" ","MAREA":" ","LANE":" ","ALLEY":" ","HOUSE_NO":"３１號","E_COORD97":168679.31,"N_COORD97":2543546.5299999998,"ADDRESS":"友愛東街３１號","OBJECTID":602152},"geometry":{"x":168679.31000000052,"y":2543546.5300000012}},{"attributes":{"ID":602180,"DIS_CODE":0,"TOWNNAME":"中西區","LI":"銀同里","LIN":"1鄰","STREET":"城隍街","SECT":" ","MAREA":" ","LANE":" ","ALLEY":" ","HOUSE_NO":"２０號","E_COORD97":168817.60999999999,"N_COORD97":2543333.8799999999,"ADDRESS":"城隍街２０號","OBJECTID":602153},"geometry":{"x":168817.61000000034,"y":2543333.8800000008}},{"attributes":{"ID":602181,"DIS_CODE":0,"TOWNNAME":"中西區","LI":"銀同里","LIN":"1鄰","STREET":"城隍街","SECT":" ","MAREA":" ","LANE":" ","ALLEY":" ","HOUSE_NO":"２２號","E_COORD97":168816.87,"N_COORD97":2543339.6299999999,"ADDRESS":"城隍街２２號","OBJECTID":602154},"geometry":{"x":168816.87000000104,"y":2543339.629999999}},{"attributes":{"ID":602182,"DIS_CODE":0,"TOWNNAME":"中西區","LI":"銀同里","LIN":"1鄰","STREET":"城隍街","SECT":" ","MAREA":" ","LANE":" ","ALLEY":" ","HOUSE_NO":"７號","E_COORD97":168802.39000000001,"N_COORD97":2543332.9700000002,"ADDRESS":"城隍街７號","OBJECTID":602155},"geometry":{"x":168802.3900000006,"y":2543332.9700000007}},{"attributes":{"ID":602183,"DIS_CODE":0,"TOWNNAME":"中西區","LI":"銀同里","LIN":"1鄰","STREET":"城隍街","SECT":" ","MAREA":" ","LANE":" ","ALLEY":" ","HOUSE_NO":"８號","E_COORD97":168813.63,"N_COORD97":2543311.6499999999,"ADDRESS":"城隍街８號","OBJECTID":602156},"geometry":{"x":168813.62999999989,"y":2543311.6500000041}},{"attributes":{"ID":602184,"DIS_CODE":0,"TOWNNAME":"新化區","LI":"護國里","LIN":"10鄰","STREET":"中山路","SECT":" ","MAREA":" ","LANE":" ","ALLEY":" ","HOUSE_NO":"１００號之２２","E_COORD97":179490.51000000001,"N_COORD97":2549159.2599999998,"ADDRESS":"中山路１００號之２２","OBJECTID":602157},"geometry":{"x":179490.50999999978,"y":2549159.2600000016}},{"attributes":{"ID":602185,"DIS_CODE":0,"TOWNNAME":"新化區","LI":"護國里","LIN":"10鄰","STREET":"中山路","SECT":" ","MAREA":" ","LANE":" ","ALLEY":" ","HOUSE_NO":"８號","E_COORD97":180706.51000000001,"N_COORD97":2550594.25,"ADDRESS":"中山路８號","OBJECTID":602158},"geometry":{"x":180706.51000000164,"y":2550594.2500000019}},{"attributes":{"ID":602186,"DIS_CODE":0,"TOWNNAME":"新化區","LI":"護國里","LIN":"10鄰","STREET":"中山路","SECT":" ","MAREA":" ","LANE":" ","ALLEY":" ","HOUSE_NO":"９８號之１７","E_COORD97":179534.95000000001,"N_COORD97":2549030.2599999998,"ADDRESS":"中山路９８號之１７","OBJECTID":602159},"geometry":{"x":179534.95000000112,"y":2549030.2600000016}},{"attributes":{"ID":602187,"DIS_CODE":0,"TOWNNAME":"新化區","LI":"護國里","LIN":"10鄰","STREET":"中山路","SECT":" ","MAREA":" ","LANE":" ","ALLEY":" ","HOUSE_NO":"９８號之２９","E_COORD97":179512.35000000001,"N_COORD97":2549058.2599999998,"ADDRESS":"中山路９８號之２９","OBJECTID":602160},"geometry":{"x":179512.35000000149,"y":2549058.2600000016}},{"attributes":{"ID":602188,"DIS_CODE":0,"TOWNNAME":"中西區","LI":"銀同里","LIN":"1鄰","STREET":"府前路","SECT":"一段","MAREA":" ","LANE":" ","ALLEY":" ","HOUSE_NO":"１２４號","E_COORD97":168805.67000000001,"N_COORD97":2543296.4900000002,"ADDRESS":"府前路一段１２４號","OBJECTID":602161},"geometry":{"x":168805.67000000086,"y":2543296.4900000021}},{"attributes":{"ID":602189,"DIS_CODE":0,"TOWNNAME":"中西區","LI":"銀同里","LIN":"1鄰","STREET":"府前路","SECT":"一段","MAREA":" ","LANE":" ","ALLEY":" ","HOUSE_NO":"１２６號","E_COORD97":168799.76999999999,"N_COORD97":2543297.8100000001,"ADDRESS":"府前路一段１２６號","OBJECTID":602162},"geometry":{"x":168799.77000000048,"y":2543297.8100000024}},{"attributes":{"ID":602190,"DIS_CODE":0,"TOWNNAME":"中西區","LI":"銀同里","LIN":"1鄰","STREET":"府前路","SECT":"一段","MAREA":" ","LANE":" ","ALLEY":" ","HOUSE_NO":"１２８號","E_COORD97":168795.5,"N_COORD97":2543297.8100000001,"ADDRESS":"府前路一段１２８號","OBJECTID":602163},"geometry":{"x":168795.50000000093,"y":2543297.8100000024}},{"attributes":{"ID":602191,"DIS_CODE":0,"TOWNNAME":"中西區","LI":"銀同里","LIN":"1鄰","STREET":"府前路","SECT":"一段","MAREA":" ","LANE":" ","ALLEY":" ","HOUSE_NO":"１３０號","E_COORD97":168791.81,"N_COORD97":2543296.6299999999,"ADDRESS":"府前路一段１３０號","OBJECTID":602164},"geometry":{"x":168791.80999999959,"y":2543296.6300000027}},{"attributes":{"ID":602192,"DIS_CODE":0,"TOWNNAME":"中西區","LI":"銀同里","LIN":"1鄰","STREET":"府前路","SECT":"一段","MAREA":" ","LANE":" ","ALLEY":" ","HOUSE_NO":"１３２號","E_COORD97":168787.69,"N_COORD97":2543298.5499999998,"ADDRESS":"府前路一段１３２號","OBJECTID":602165},"geometry":{"x":168787.69000000134,"y":2543298.5500000007}},{"attributes":{"ID":602193,"DIS_CODE":0,"TOWNNAME":"中西區","LI":"銀同里","LIN":"1鄰","STREET":"府前路","SECT":"一段","MAREA":" ","LANE":" ","ALLEY":" ","HOUSE_NO":"１３４號","E_COORD97":168782.97,"N_COORD97":2543297.3700000001,"ADDRESS":"府前路一段１３４號","OBJECTID":602166},"geometry":{"x":168782.97000000067,"y":2543297.3700000048}},{"attributes":{"ID":602194,"DIS_CODE":0,"TOWNNAME":"中西區","LI":"銀同里","LIN":"1鄰","STREET":"府前路","SECT":"一段","MAREA":" ","LANE":" ","ALLEY":" ","HOUSE_NO":"１３６號","E_COORD97":168779.44,"N_COORD97":2543298.4399999999,"ADDRESS":"府前路一段１３６號","OBJECTID":602167},"geometry":{"x":168779.44000000134,"y":2543298.4400000032}},{"attributes":{"ID":602195,"DIS_CODE":0,"TOWNNAME":"中西區","LI":"銀同里","LIN":"1鄰","STREET":"府前路","SECT":"一段","MAREA":" ","LANE":" ","ALLEY":" ","HOUSE_NO":"１３８號","E_COORD97":168771.78,"N_COORD97":2543300.04,"ADDRESS":"府前路一段１３８號","OBJECTID":602168},"geometry":{"x":168771.78000000119,"y":2543300.0399999991}},{"attributes":{"ID":602196,"DIS_CODE":0,"TOWNNAME":"永康區","LI":"甲頂里","LIN":"22鄰","STREET":"中正南路","SECT":" ","MAREA":" ","LANE":" ","ALLEY":" ","HOUSE_NO":"２號","E_COORD97":171023.04999999999,"N_COORD97":2548392.2999999998,"ADDRESS":"中正南路２號","OBJECTID":602169},"geometry":{"x":171023.04999999981,"y":2548392.3000000007}},{"attributes":{"ID":602197,"DIS_CODE":0,"TOWNNAME":"永康區","LI":"西灣里","LIN":"22鄰","STREET":"大勇路","SECT":" ","MAREA":" ","LANE":" ","ALLEY":" ","HOUSE_NO":"３６號","E_COORD97":174209.14999999999,"N_COORD97":2545350.6499999999,"ADDRESS":"大勇路３６號","OBJECTID":602170},"geometry":{"x":174209.1500000013,"y":2545350.6500000022}},{"attributes":{"ID":602198,"DIS_CODE":0,"TOWNNAME":"永康區","LI":"西灣里","LIN":"22鄰","STREET":"大勇路","SECT":" ","MAREA":" ","LANE":" ","ALLEY":" ","HOUSE_NO":"４０號","E_COORD97":174212.07000000001,"N_COORD97":2545371.3199999998,"ADDRESS":"大勇路４０號","OBJECTID":602171},"geometry":{"x":174212.0700000003,"y":2545371.3200000003}},{"attributes":{"ID":602199,"DIS_CODE":0,"TOWNNAME":"永康區","LI":"安康里","LIN":"22鄰","STREET":"中華西街","SECT":" ","MAREA":" ","LANE":" ","ALLEY":" ","HOUSE_NO":"１３０號","E_COORD97":170704.35000000001,"N_COORD97":2546156.8300000001,"ADDRESS":"中華西街１３０號","OBJECTID":602172},"geometry":{"x":170704.35000000056,"y":2546156.8300000001}},{"attributes":{"ID":602200,"DIS_CODE":0,"TOWNNAME":"永康區","LI":"安康里","LIN":"22鄰","STREET":"中華西街","SECT":" ","MAREA":" ","LANE":" ","ALLEY":" ","HOUSE_NO":"１２４號","E_COORD97":170710.10000000001,"N_COORD97":2546147.0800000001,"ADDRESS":"中華西街１２４號","OBJECTID":602173},"geometry":{"x":170710.09999999963,"y":2546147.0800000019}},{"attributes":{"ID":602201,"DIS_CODE":0,"TOWNNAME":"永康區","LI":"安康里","LIN":"22鄰","STREET":"中華西街","SECT":" ","MAREA":" ","LANE":" ","ALLEY":" ","HOUSE_NO":"１４０號","E_COORD97":170684.32999999999,"N_COORD97":2546197.3900000001,"ADDRESS":"中華西街１４０號","OBJECTID":602174},"geometry":{"x":170684.32999999914,"y":2546197.3900000006}},{"attributes":{"ID":602202,"DIS_CODE":0,"TOWNNAME":"永康區","LI":"甲頂里","LIN":"22鄰","STREET":"中正南路","SECT":" ","MAREA":" ","LANE":" ","ALLEY":" ","HOUSE_NO":"３０號底一層之２","E_COORD97":169670.72,"N_COORD97":2546655.7999999998,"ADDRESS":"中正南路３０號底一層之２","OBJECTID":602175},"geometry":{"x":169670.71999999974,"y":2546655.8000000007}},{"attributes":{"ID":602203,"DIS_CODE":0,"TOWNNAME":"永康區","LI":"甲頂里","LIN":"22鄰","STREET":"中正南路","SECT":" ","MAREA":" ","LANE":" ","ALLEY":" ","HOUSE_NO":"３０號底四層之１","E_COORD97":169670.59,"N_COORD97":2546655.7999999998,"ADDRESS":"中正南路３０號底四層之１","OBJECTID":602176},"geometry":{"x":169670.59000000078,"y":2546655.8000000007}},{"attributes":{"ID":602204,"DIS_CODE":0,"TOWNNAME":"永康區","LI":"甲頂里","LIN":"22鄰","STREET":"中正南路","SECT":" ","MAREA":" ","LANE":" ","ALLEY":" ","HOUSE_NO":"３０號底二層之１","E_COORD97":169670.59,"N_COORD97":2546655.7999999998,"ADDRESS":"中正南路３０號底二層之１","OBJECTID":602177},"geometry":{"x":169670.59000000078,"y":2546655.8000000007}},{"attributes":{"ID":602205,"DIS_CODE":0,"TOWNNAME":"永康區","LI":"甲頂里","LIN":"22鄰","STREET":"中正南路","SECT":" ","MAREA":" ","LANE":" ","ALLEY":" ","HOUSE_NO":"３０號底一層之１","E_COORD97":169670.59,"N_COORD97":2546655.7999999998,"ADDRESS":"中正南路３０號底一層之１","OBJECTID":602178},"geometry":{"x":169670.59000000078,"y":2546655.8000000007}},{"attributes":{"ID":602206,"DIS_CODE":0,"TOWNNAME":"永康區","LI":"甲頂里","LIN":"22鄰","STREET":"中正南路","SECT":" ","MAREA":" ","LANE":" ","ALLEY":" ","HOUSE_NO":"４０號","E_COORD97":169669.32999999999,"N_COORD97":2546706.2400000002,"ADDRESS":"中正南路４０號","OBJECTID":602179},"geometry":{"x":169669.33000000101,"y":2546706.2400000021}},{"attributes":{"ID":602207,"DIS_CODE":0,"TOWNNAME":"安南區","LI":"安順里","LIN":"22鄰","STREET":"總安街","SECT":"一段","MAREA":" ","LANE":" ","ALLEY":" ","HOUSE_NO":"１４８號","E_COORD97":169594.67999999999,"N_COORD97":2550228.3500000001,"ADDRESS":"總安街一段１４８號","OBJECTID":602180},"geometry":{"x":169594.6799999997,"y":2550228.3499999996}},{"attributes":{"ID":602208,"DIS_CODE":0,"TOWNNAME":"安南區","LI":"安順里","LIN":"22鄰","STREET":"總安街","SECT":"一段","MAREA":" ","LANE":" ","ALLEY":" ","HOUSE_NO":"１５０號","E_COORD97":169589.73000000001,"N_COORD97":2550229.3100000001,"ADDRESS":"總安街一段１５０號","OBJECTID":602181},"geometry":{"x":169589.73000000045,"y":2550229.3100000005}},{"attributes":{"ID":602209,"DIS_CODE":0,"TOWNNAME":"安南區","LI":"安順里","LIN":"22鄰","STREET":"總安街","SECT":"一段","MAREA":" ","LANE":" ","ALLEY":" ","HOUSE_NO":"１５４號","E_COORD97":169581.41,"N_COORD97":2550229.6299999999,"ADDRESS":"總安街一段１５４號","OBJECTID":602182},"geometry":{"x":169581.41000000015,"y":2550229.629999999}},{"attributes":{"ID":602210,"DIS_CODE":0,"TOWNNAME":"安南區","LI":"安順里","LIN":"22鄰","STREET":"總安街","SECT":"一段","MAREA":" ","LANE":" ","ALLEY":" ","HOUSE_NO":"１５６號","E_COORD97":169576.76999999999,"N_COORD97":2550230.1000000001,"ADDRESS":"總安街一段１５６號","OBJECTID":602183},"geometry":{"x":169576.76999999955,"y":2550230.0999999996}},{"attributes":{"ID":602211,"DIS_CODE":0,"TOWNNAME":"安南區","LI":"安順里","LIN":"22鄰","STREET":"總安街","SECT":"一段","MAREA":" ","LANE":" ","ALLEY":" ","HOUSE_NO":"１５８號","E_COORD97":169573.10000000001,"N_COORD97":2550232.8199999998,"ADDRESS":"總安街一段１５８號","OBJECTID":602184},"geometry":{"x":169573.09999999963,"y":2550232.8200000003}},{"attributes":{"ID":602212,"DIS_CODE":0,"TOWNNAME":"安南區","LI":"安順里","LIN":"22鄰","STREET":"總安街","SECT":"一段","MAREA":" ","LANE":" ","ALLEY":" ","HOUSE_NO":"１６２號","E_COORD97":169563.98000000001,"N_COORD97":2550234.4199999999,"ADDRESS":"總安街一段１６２號","OBJECTID":602185},"geometry":{"x":169563.98000000138,"y":2550234.4199999999}},{"attributes":{"ID":602213,"DIS_CODE":0,"TOWNNAME":"安南區","LI":"安順里","LIN":"22鄰","STREET":"總安街","SECT":"一段","MAREA":" ","LANE":" ","ALLEY":" ","HOUSE_NO":"１６４號","E_COORD97":169560.29999999999,"N_COORD97":2550234.7400000002,"ADDRESS":"總安街一段１６４號","OBJECTID":602186},"geometry":{"x":169560.29999999981,"y":2550234.7400000021}},{"attributes":{"ID":602214,"DIS_CODE":0,"TOWNNAME":"安南區","LI":"安順里","LIN":"22鄰","STREET":"總安街","SECT":"一段","MAREA":" ","LANE":" ","ALLEY":" ","HOUSE_NO":"１６６號","E_COORD97":169555.51000000001,"N_COORD97":2550235.21,"ADDRESS":"總安街一段１６６號","OBJECTID":602187},"geometry":{"x":169555.50999999885,"y":2550235.2100000046}},{"attributes":{"ID":602215,"DIS_CODE":0,"TOWNNAME":"安南區","LI":"安順里","LIN":"22鄰","STREET":"總安街","SECT":"一段","MAREA":" ","LANE":" ","ALLEY":" ","HOUSE_NO":"１６８號","E_COORD97":169551.03,"N_COORD97":2550235.21,"ADDRESS":"總安街一段１６８號","OBJECTID":602188},"geometry":{"x":169551.03000000119,"y":2550235.2100000046}},{"attributes":{"ID":602216,"DIS_CODE":0,"TOWNNAME":"安南區","LI":"幸福里","LIN":"22鄰","STREET":"府安路","SECT":"六段","MAREA":" ","LANE":" ","ALLEY":" ","HOUSE_NO":"７０號","E_COORD97":166863.17000000001,"N_COORD97":2546584.4100000001,"ADDRESS":"府安路六段７０號","OBJECTID":602189},"geometry":{"x":166863.17000000086,"y":2546584.4100000001}},{"attributes":{"ID":602217,"DIS_CODE":0,"TOWNNAME":"安南區","LI":"海東里","LIN":"22鄰","STREET":"大安街","SECT":" ","MAREA":" ","LANE":" ","ALLEY":" ","HOUSE_NO":"７３７號","E_COORD97":166967.39999999999,"N_COORD97":2549022.6400000001,"ADDRESS":"大安街７３７號","OBJECTID":602190},"geometry":{"x":166967.4000000013,"y":2549022.6400000025}},{"attributes":{"ID":602218,"DIS_CODE":0,"TOWNNAME":"安南區","LI":"安順里","LIN":"22鄰","STREET":"北安路","SECT":"三段","MAREA":" ","LANE":" ","ALLEY":" ","HOUSE_NO":"６１８號","E_COORD97":169411.19,"N_COORD97":2550269.46,"ADDRESS":"北安路三段６１８號","OBJECTID":602191},"geometry":{"x":169411.19000000134,"y":2550269.4600000009}},{"attributes":{"ID":602219,"DIS_CODE":0,"TOWNNAME":"安南區","LI":"新順里","LIN":"22鄰","STREET":"安豐六街","SECT":" ","MAREA":" ","LANE":" ","ALLEY":" ","HOUSE_NO":"２７號","E_COORD97":169336.51000000001,"N_COORD97":2549704.8300000001,"ADDRESS":"安豐六街２７號","OBJECTID":602192},"geometry":{"x":169336.50999999978,"y":2549704.8300000019}},{"attributes":{"ID":602220,"DIS_CODE":0,"TOWNNAME":"安南區","LI":"新順里","LIN":"22鄰","STREET":"安豐六街","SECT":" ","MAREA":" ","LANE":" ","ALLEY":" ","HOUSE_NO":"２號","E_COORD97":169272.82000000001,"N_COORD97":2549681.8399999999,"ADDRESS":"安豐六街２號","OBJECTID":602193},"geometry":{"x":169272.82000000123,"y":2549681.8400000017}},{"attributes":{"ID":602221,"DIS_CODE":0,"TOWNNAME":"安南區","LI":"新順里","LIN":"22鄰","STREET":"安豐六街","SECT":" ","MAREA":" ","LANE":" ","ALLEY":" ","HOUSE_NO":"３１號","E_COORD97":169373.89999999999,"N_COORD97":2549703.1499999999,"ADDRESS":"安豐六街３１號","OBJECTID":602194},"geometry":{"x":169373.90000000224,"y":2549703.1500000022}},{"attributes":{"ID":602222,"DIS_CODE":0,"TOWNNAME":"安南區","LI":"新順里","LIN":"22鄰","STREET":"安豐六街","SECT":" ","MAREA":" ","LANE":" ","ALLEY":" ","HOUSE_NO":"３３號","E_COORD97":169377.94,"N_COORD97":2549705.5,"ADDRESS":"安豐六街３３號","OBJECTID":602195},"geometry":{"x":169377.94000000041,"y":2549705.5}},{"attributes":{"ID":602223,"DIS_CODE":0,"TOWNNAME":"安南區","LI":"新順里","LIN":"22鄰","STREET":"安豐六街","SECT":" ","MAREA":" ","LANE":" ","ALLEY":" ","HOUSE_NO":"３５號","E_COORD97":169383,"N_COORD97":2549703.48,"ADDRESS":"安豐六街３５號","OBJECTID":602196},"geometry":{"x":169383.00000000186,"y":2549703.4799999986}},{"attributes":{"ID":602224,"DIS_CODE":0,"TOWNNAME":"安南區","LI":"新順里","LIN":"22鄰","STREET":"安豐六街","SECT":" ","MAREA":" ","LANE":" ","ALLEY":" ","HOUSE_NO":"３７號","E_COORD97":169387.70999999999,"N_COORD97":2549705.8399999999,"ADDRESS":"安豐六街３７號","OBJECTID":602197},"geometry":{"x":169387.70999999996,"y":2549705.8399999999}},{"attributes":{"ID":602225,"DIS_CODE":0,"TOWNNAME":"安南區","LI":"新順里","LIN":"22鄰","STREET":"安豐六街","SECT":" ","MAREA":" ","LANE":" ","ALLEY":" ","HOUSE_NO":"６號","E_COORD97":169281.95000000001,"N_COORD97":2549681.46,"ADDRESS":"安豐六街６號","OBJECTID":602198},"geometry":{"x":169281.95000000112,"y":2549681.4600000028}},{"attributes":{"ID":602226,"DIS_CODE":0,"TOWNNAME":"安南區","LI":"新順里","LIN":"22鄰","STREET":"育安一街","SECT":" ","MAREA":" ","LANE":" ","ALLEY":" ","HOUSE_NO":"１號","E_COORD97":169259.06,"N_COORD97":2549796.5699999998,"ADDRESS":"育安一街１號","OBJECTID":602199},"geometry":{"x":169259.06000000052,"y":2549796.5700000003}},{"attributes":{"ID":602227,"DIS_CODE":0,"TOWNNAME":"安南區","LI":"新順里","LIN":"22鄰","STREET":"育安一街","SECT":" ","MAREA":" ","LANE":" ","ALLEY":" ","HOUSE_NO":"２５號","E_COORD97":169297.17999999999,"N_COORD97":2549824.5699999998,"ADDRESS":"育安一街２５號","OBJECTID":602200},"geometry":{"x":169297.18000000063,"y":2549824.5700000003}}]}