{"displayFieldName":"TOWNNAME","fieldAliases":{"ID":"ID","DIS_CODE":"DIS_CODE","TOWNNAME":"TOWNNAME","LI":"LI","LIN":"LIN","STREET":"STREET","SECT":"SECT","MAREA":"MAREA","LANE":"LANE","ALLEY":"ALLEY","HOUSE_NO":"HOUSE_NO","E_COORD97":"E_COORD97","N_COORD97":"N_COORD97","ADDRESS":"ADDRESS","OBJECTID":"OBJECTID"},"geometryType":"esriGeometryPoint","spatialReference":{"wkid":102443,"latestWkid":3826},"fields":[{"name":"ID","type":"esriFieldTypeDouble","alias":"ID"},{"name":"DIS_CODE","type":"esriFieldTypeInteger","alias":"DIS_CODE"},{"name":"TOWNNAME","type":"esriFieldTypeString","alias":"TOWNNAME","length":8},{"name":"LI","type":"esriFieldTypeString","alias":"LI","length":8},{"name":"LIN","type":"esriFieldTypeString","alias":"LIN","length":12},{"name":"STREET","type":"esriFieldTypeString","alias":"STREET","length":20},{"name":"SECT","type":"esriFieldTypeString","alias":"SECT","length":8},{"name":"MAREA","type":"esriFieldTypeString","alias":"MAREA","length":12},{"name":"LANE","type":"esriFieldTypeString","alias":"LANE","length":10},{"name":"ALLEY","type":"esriFieldTypeString","alias":"ALLEY","length":10},{"name":"HOUSE_NO","type":"esriFieldTypeString","alias":"HOUSE_NO","length":20},{"name":"E_COORD97","type":"esriFieldTypeDouble","alias":"E_COORD97"},{"name":"N_COORD97","type":"esriFieldTypeDouble","alias":"N_COORD97"},{"name":"ADDRESS","type":"esriFieldTypeString","alias":"ADDRESS","length":50},{"name":"OBJECTID","type":"esriFieldTypeOID","alias":"OBJECTID"}],"features":[{"attributes":{"ID":369011,"DIS_CODE":0,"TOWNNAME":"南區","LI":"新生里","LIN":"12鄰","STREET":"大同路","SECT":"二段","MAREA":" ","LANE":"１３６巷","ALLEY":" ","HOUSE_NO":"９號十一樓之１","E_COORD97":169204.89999999999,"N_COORD97":2542123.23,"ADDRESS":"大同路二段１３６巷９號十一樓之１","OBJECTID":369001},"geometry":{"x":169204.9000000013,"y":2542123.2300000004}},{"attributes":{"ID":369012,"DIS_CODE":0,"TOWNNAME":"南區","LI":"新生里","LIN":"12鄰","STREET":"大同路","SECT":"二段","MAREA":" ","LANE":"１３６巷","ALLEY":" ","HOUSE_NO":"９號十一樓之２","E_COORD97":169204.89999999999,"N_COORD97":2542123.23,"ADDRESS":"大同路二段１３６巷９號十一樓之２","OBJECTID":369002},"geometry":{"x":169204.9000000013,"y":2542123.2300000004}},{"attributes":{"ID":369013,"DIS_CODE":0,"TOWNNAME":"南區","LI":"新生里","LIN":"12鄰","STREET":"大同路","SECT":"二段","MAREA":" ","LANE":"１３６巷","ALLEY":" ","HOUSE_NO":"９號十一樓之３","E_COORD97":169204.89999999999,"N_COORD97":2542123.23,"ADDRESS":"大同路二段１３６巷９號十一樓之３","OBJECTID":369003},"geometry":{"x":169204.9000000013,"y":2542123.2300000004}},{"attributes":{"ID":369014,"DIS_CODE":0,"TOWNNAME":"南區","LI":"新生里","LIN":"12鄰","STREET":"大同路","SECT":"二段","MAREA":" ","LANE":"１３６巷","ALLEY":" ","HOUSE_NO":"９號十一樓之５","E_COORD97":169204.89999999999,"N_COORD97":2542123.23,"ADDRESS":"大同路二段１３６巷９號十一樓之５","OBJECTID":369004},"geometry":{"x":169204.9000000013,"y":2542123.2300000004}},{"attributes":{"ID":369015,"DIS_CODE":0,"TOWNNAME":"南區","LI":"新生里","LIN":"12鄰","STREET":"大同路","SECT":"二段","MAREA":" ","LANE":"１３６巷","ALLEY":" ","HOUSE_NO":"９號十二樓之１","E_COORD97":169204.89999999999,"N_COORD97":2542123.23,"ADDRESS":"大同路二段１３６巷９號十二樓之１","OBJECTID":369005},"geometry":{"x":169204.9000000013,"y":2542123.2300000004}},{"attributes":{"ID":369016,"DIS_CODE":0,"TOWNNAME":"南區","LI":"新生里","LIN":"12鄰","STREET":"大同路","SECT":"二段","MAREA":" ","LANE":"１３６巷","ALLEY":" ","HOUSE_NO":"９號十樓之１","E_COORD97":169204.89999999999,"N_COORD97":2542123.23,"ADDRESS":"大同路二段１３６巷９號十樓之１","OBJECTID":369006},"geometry":{"x":169204.9000000013,"y":2542123.2300000004}},{"attributes":{"ID":369017,"DIS_CODE":0,"TOWNNAME":"南區","LI":"新生里","LIN":"12鄰","STREET":"大同路","SECT":"二段","MAREA":" ","LANE":"１３６巷","ALLEY":" ","HOUSE_NO":"９號十樓之２","E_COORD97":169204.89999999999,"N_COORD97":2542123.23,"ADDRESS":"大同路二段１３６巷９號十樓之２","OBJECTID":369007},"geometry":{"x":169204.9000000013,"y":2542123.2300000004}},{"attributes":{"ID":369018,"DIS_CODE":0,"TOWNNAME":"南區","LI":"新生里","LIN":"12鄰","STREET":"大同路","SECT":"二段","MAREA":" ","LANE":"１３６巷","ALLEY":" ","HOUSE_NO":"９號十樓之３","E_COORD97":169204.89999999999,"N_COORD97":2542123.23,"ADDRESS":"大同路二段１３６巷９號十樓之３","OBJECTID":369008},"geometry":{"x":169204.9000000013,"y":2542123.2300000004}},{"attributes":{"ID":369019,"DIS_CODE":0,"TOWNNAME":"南區","LI":"新生里","LIN":"12鄰","STREET":"大同路","SECT":"二段","MAREA":" ","LANE":"１３６巷","ALLEY":" ","HOUSE_NO":"９號十樓之５","E_COORD97":169204.89999999999,"N_COORD97":2542123.23,"ADDRESS":"大同路二段１３６巷９號十樓之５","OBJECTID":369009},"geometry":{"x":169204.9000000013,"y":2542123.2300000004}},{"attributes":{"ID":369020,"DIS_CODE":0,"TOWNNAME":"南區","LI":"新生里","LIN":"12鄰","STREET":"大同路","SECT":"二段","MAREA":" ","LANE":"１３６巷","ALLEY":" ","HOUSE_NO":"９號十二樓之２","E_COORD97":169204.89999999999,"N_COORD97":2542123.23,"ADDRESS":"大同路二段１３６巷９號十二樓之２","OBJECTID":369010},"geometry":{"x":169204.9000000013,"y":2542123.2300000004}},{"attributes":{"ID":369021,"DIS_CODE":0,"TOWNNAME":"南區","LI":"新生里","LIN":"12鄰","STREET":"大同路","SECT":"二段","MAREA":" ","LANE":"１３６巷","ALLEY":" ","HOUSE_NO":"９號十二樓之３","E_COORD97":169204.89999999999,"N_COORD97":2542123.23,"ADDRESS":"大同路二段１３６巷９號十二樓之３","OBJECTID":369011},"geometry":{"x":169204.9000000013,"y":2542123.2300000004}},{"attributes":{"ID":369022,"DIS_CODE":0,"TOWNNAME":"南區","LI":"新生里","LIN":"12鄰","STREET":"大同路","SECT":"二段","MAREA":" ","LANE":"１３６巷","ALLEY":" ","HOUSE_NO":"９號十二樓之５","E_COORD97":169204.89999999999,"N_COORD97":2542123.23,"ADDRESS":"大同路二段１３６巷９號十二樓之５","OBJECTID":369012},"geometry":{"x":169204.9000000013,"y":2542123.2300000004}},{"attributes":{"ID":369023,"DIS_CODE":0,"TOWNNAME":"南區","LI":"新生里","LIN":"12鄰","STREET":"大同路","SECT":"二段","MAREA":" ","LANE":"１３６巷","ALLEY":" ","HOUSE_NO":"９號一樓之１","E_COORD97":169204.89999999999,"N_COORD97":2542123.23,"ADDRESS":"大同路二段１３６巷９號一樓之１","OBJECTID":369013},"geometry":{"x":169204.9000000013,"y":2542123.2300000004}},{"attributes":{"ID":369024,"DIS_CODE":0,"TOWNNAME":"南區","LI":"新生里","LIN":"12鄰","STREET":"大同路","SECT":"二段","MAREA":" ","LANE":"１３６巷","ALLEY":" ","HOUSE_NO":"９號一樓之２","E_COORD97":169204.89999999999,"N_COORD97":2542123.23,"ADDRESS":"大同路二段１３６巷９號一樓之２","OBJECTID":369014},"geometry":{"x":169204.9000000013,"y":2542123.2300000004}},{"attributes":{"ID":369025,"DIS_CODE":0,"TOWNNAME":"南區","LI":"新生里","LIN":"12鄰","STREET":"大同路","SECT":"二段","MAREA":" ","LANE":"１３６巷","ALLEY":" ","HOUSE_NO":"９號一樓之３","E_COORD97":169204.89999999999,"N_COORD97":2542123.23,"ADDRESS":"大同路二段１３６巷９號一樓之３","OBJECTID":369015},"geometry":{"x":169204.9000000013,"y":2542123.2300000004}},{"attributes":{"ID":369026,"DIS_CODE":0,"TOWNNAME":"南區","LI":"新生里","LIN":"12鄰","STREET":"大同路","SECT":"二段","MAREA":" ","LANE":"１３６巷","ALLEY":" ","HOUSE_NO":"９號一樓之５","E_COORD97":169204.89999999999,"N_COORD97":2542123.23,"ADDRESS":"大同路二段１３６巷９號一樓之５","OBJECTID":369016},"geometry":{"x":169204.9000000013,"y":2542123.2300000004}},{"attributes":{"ID":369027,"DIS_CODE":0,"TOWNNAME":"南區","LI":"新生里","LIN":"12鄰","STREET":"大同路","SECT":"二段","MAREA":" ","LANE":"１３６巷","ALLEY":" ","HOUSE_NO":"９號二樓之１","E_COORD97":169204.89999999999,"N_COORD97":2542123.23,"ADDRESS":"大同路二段１３６巷９號二樓之１","OBJECTID":369017},"geometry":{"x":169204.9000000013,"y":2542123.2300000004}},{"attributes":{"ID":369028,"DIS_CODE":0,"TOWNNAME":"南區","LI":"新生里","LIN":"12鄰","STREET":"大同路","SECT":"二段","MAREA":" ","LANE":"１３６巷","ALLEY":" ","HOUSE_NO":"９號二樓之２","E_COORD97":169204.89999999999,"N_COORD97":2542123.23,"ADDRESS":"大同路二段１３６巷９號二樓之２","OBJECTID":369018},"geometry":{"x":169204.9000000013,"y":2542123.2300000004}},{"attributes":{"ID":369029,"DIS_CODE":0,"TOWNNAME":"南區","LI":"新生里","LIN":"12鄰","STREET":"大同路","SECT":"二段","MAREA":" ","LANE":"１３６巷","ALLEY":" ","HOUSE_NO":"９號七樓之３","E_COORD97":169204.89999999999,"N_COORD97":2542123.23,"ADDRESS":"大同路二段１３６巷９號七樓之３","OBJECTID":369019},"geometry":{"x":169204.9000000013,"y":2542123.2300000004}},{"attributes":{"ID":369030,"DIS_CODE":0,"TOWNNAME":"南區","LI":"新生里","LIN":"12鄰","STREET":"大同路","SECT":"二段","MAREA":" ","LANE":"１３６巷","ALLEY":" ","HOUSE_NO":"９號七樓之５","E_COORD97":169204.89999999999,"N_COORD97":2542123.23,"ADDRESS":"大同路二段１３６巷９號七樓之５","OBJECTID":369020},"geometry":{"x":169204.9000000013,"y":2542123.2300000004}},{"attributes":{"ID":369031,"DIS_CODE":0,"TOWNNAME":"南區","LI":"新生里","LIN":"12鄰","STREET":"大同路","SECT":"二段","MAREA":" ","LANE":"１３６巷","ALLEY":" ","HOUSE_NO":"９號八樓之１","E_COORD97":169204.89999999999,"N_COORD97":2542123.23,"ADDRESS":"大同路二段１３６巷９號八樓之１","OBJECTID":369021},"geometry":{"x":169204.9000000013,"y":2542123.2300000004}},{"attributes":{"ID":369032,"DIS_CODE":0,"TOWNNAME":"南區","LI":"新生里","LIN":"12鄰","STREET":"大同路","SECT":"二段","MAREA":" ","LANE":"１３６巷","ALLEY":" ","HOUSE_NO":"９號四樓之１","E_COORD97":169204.89999999999,"N_COORD97":2542123.23,"ADDRESS":"大同路二段１３６巷９號四樓之１","OBJECTID":369022},"geometry":{"x":169204.9000000013,"y":2542123.2300000004}},{"attributes":{"ID":369033,"DIS_CODE":0,"TOWNNAME":"南區","LI":"新生里","LIN":"12鄰","STREET":"大同路","SECT":"二段","MAREA":" ","LANE":"１３６巷","ALLEY":" ","HOUSE_NO":"９號四樓之２","E_COORD97":169204.89999999999,"N_COORD97":2542123.23,"ADDRESS":"大同路二段１３６巷９號四樓之２","OBJECTID":369023},"geometry":{"x":169204.9000000013,"y":2542123.2300000004}},{"attributes":{"ID":369034,"DIS_CODE":0,"TOWNNAME":"南區","LI":"新生里","LIN":"12鄰","STREET":"大同路","SECT":"二段","MAREA":" ","LANE":"１３６巷","ALLEY":" ","HOUSE_NO":"９號四樓之３","E_COORD97":169204.89999999999,"N_COORD97":2542123.23,"ADDRESS":"大同路二段１３６巷９號四樓之３","OBJECTID":369024},"geometry":{"x":169204.9000000013,"y":2542123.2300000004}},{"attributes":{"ID":369035,"DIS_CODE":0,"TOWNNAME":"南區","LI":"新生里","LIN":"12鄰","STREET":"大同路","SECT":"二段","MAREA":" ","LANE":"１３６巷","ALLEY":" ","HOUSE_NO":"９號四樓之５","E_COORD97":169204.89999999999,"N_COORD97":2542123.23,"ADDRESS":"大同路二段１３６巷９號四樓之５","OBJECTID":369025},"geometry":{"x":169204.9000000013,"y":2542123.2300000004}},{"attributes":{"ID":369036,"DIS_CODE":0,"TOWNNAME":"南區","LI":"新生里","LIN":"12鄰","STREET":"大同路","SECT":"二段","MAREA":" ","LANE":"１３６巷","ALLEY":" ","HOUSE_NO":"９號五樓之１","E_COORD97":169204.89999999999,"N_COORD97":2542123.23,"ADDRESS":"大同路二段１３６巷９號五樓之１","OBJECTID":369026},"geometry":{"x":169204.9000000013,"y":2542123.2300000004}},{"attributes":{"ID":369037,"DIS_CODE":0,"TOWNNAME":"南區","LI":"新生里","LIN":"12鄰","STREET":"大同路","SECT":"二段","MAREA":" ","LANE":"１３６巷","ALLEY":" ","HOUSE_NO":"９號五樓之２","E_COORD97":169204.89999999999,"N_COORD97":2542123.23,"ADDRESS":"大同路二段１３６巷９號五樓之２","OBJECTID":369027},"geometry":{"x":169204.9000000013,"y":2542123.2300000004}},{"attributes":{"ID":369038,"DIS_CODE":0,"TOWNNAME":"南區","LI":"新生里","LIN":"12鄰","STREET":"大同路","SECT":"二段","MAREA":" ","LANE":"１３６巷","ALLEY":" ","HOUSE_NO":"９號五樓之３","E_COORD97":169204.89999999999,"N_COORD97":2542123.23,"ADDRESS":"大同路二段１３６巷９號五樓之３","OBJECTID":369028},"geometry":{"x":169204.9000000013,"y":2542123.2300000004}},{"attributes":{"ID":369039,"DIS_CODE":0,"TOWNNAME":"南區","LI":"新生里","LIN":"12鄰","STREET":"大同路","SECT":"二段","MAREA":" ","LANE":"１３６巷","ALLEY":" ","HOUSE_NO":"９號五樓之５","E_COORD97":169204.89999999999,"N_COORD97":2542123.23,"ADDRESS":"大同路二段１３６巷９號五樓之５","OBJECTID":369029},"geometry":{"x":169204.9000000013,"y":2542123.2300000004}},{"attributes":{"ID":369040,"DIS_CODE":0,"TOWNNAME":"南區","LI":"新生里","LIN":"12鄰","STREET":"大同路","SECT":"二段","MAREA":" ","LANE":"１３６巷","ALLEY":" ","HOUSE_NO":"９號六樓之１","E_COORD97":169204.89999999999,"N_COORD97":2542123.23,"ADDRESS":"大同路二段１３６巷９號六樓之１","OBJECTID":369030},"geometry":{"x":169204.9000000013,"y":2542123.2300000004}},{"attributes":{"ID":369041,"DIS_CODE":0,"TOWNNAME":"南區","LI":"新生里","LIN":"12鄰","STREET":"大同路","SECT":"二段","MAREA":" ","LANE":"１３６巷","ALLEY":" ","HOUSE_NO":"９號六樓之２","E_COORD97":169204.89999999999,"N_COORD97":2542123.23,"ADDRESS":"大同路二段１３６巷９號六樓之２","OBJECTID":369031},"geometry":{"x":169204.9000000013,"y":2542123.2300000004}},{"attributes":{"ID":369042,"DIS_CODE":0,"TOWNNAME":"南區","LI":"新生里","LIN":"12鄰","STREET":"大同路","SECT":"二段","MAREA":" ","LANE":"１３６巷","ALLEY":" ","HOUSE_NO":"９號六樓之３","E_COORD97":169204.89999999999,"N_COORD97":2542123.23,"ADDRESS":"大同路二段１３６巷９號六樓之３","OBJECTID":369032},"geometry":{"x":169204.9000000013,"y":2542123.2300000004}},{"attributes":{"ID":369043,"DIS_CODE":0,"TOWNNAME":"南區","LI":"新生里","LIN":"12鄰","STREET":"大同路","SECT":"二段","MAREA":" ","LANE":"１３６巷","ALLEY":" ","HOUSE_NO":"９號六樓之５","E_COORD97":169204.89999999999,"N_COORD97":2542123.23,"ADDRESS":"大同路二段１３６巷９號六樓之５","OBJECTID":369033},"geometry":{"x":169204.9000000013,"y":2542123.2300000004}},{"attributes":{"ID":369044,"DIS_CODE":0,"TOWNNAME":"南區","LI":"新生里","LIN":"12鄰","STREET":"大同路","SECT":"二段","MAREA":" ","LANE":"１３６巷","ALLEY":" ","HOUSE_NO":"９號八樓之２","E_COORD97":169204.89999999999,"N_COORD97":2542123.23,"ADDRESS":"大同路二段１３６巷９號八樓之２","OBJECTID":369034},"geometry":{"x":169204.9000000013,"y":2542123.2300000004}},{"attributes":{"ID":369045,"DIS_CODE":0,"TOWNNAME":"南區","LI":"新生里","LIN":"12鄰","STREET":"大同路","SECT":"二段","MAREA":" ","LANE":"１３６巷","ALLEY":" ","HOUSE_NO":"９號八樓之３","E_COORD97":169204.89999999999,"N_COORD97":2542123.23,"ADDRESS":"大同路二段１３６巷９號八樓之３","OBJECTID":369035},"geometry":{"x":169204.9000000013,"y":2542123.2300000004}},{"attributes":{"ID":369046,"DIS_CODE":0,"TOWNNAME":"南區","LI":"新生里","LIN":"12鄰","STREET":"大同路","SECT":"二段","MAREA":" ","LANE":"１３６巷","ALLEY":" ","HOUSE_NO":"９號八樓之５","E_COORD97":169204.89999999999,"N_COORD97":2542123.23,"ADDRESS":"大同路二段１３６巷９號八樓之５","OBJECTID":369036},"geometry":{"x":169204.9000000013,"y":2542123.2300000004}},{"attributes":{"ID":369047,"DIS_CODE":0,"TOWNNAME":"南區","LI":"新生里","LIN":"12鄰","STREET":"大同路","SECT":"二段","MAREA":" ","LANE":"１３６巷","ALLEY":" ","HOUSE_NO":"９號九樓之１","E_COORD97":169204.89999999999,"N_COORD97":2542123.23,"ADDRESS":"大同路二段１３６巷９號九樓之１","OBJECTID":369037},"geometry":{"x":169204.9000000013,"y":2542123.2300000004}},{"attributes":{"ID":369048,"DIS_CODE":0,"TOWNNAME":"南區","LI":"新生里","LIN":"12鄰","STREET":"大同路","SECT":"二段","MAREA":" ","LANE":"１３６巷","ALLEY":" ","HOUSE_NO":"９號九樓之２","E_COORD97":169204.89999999999,"N_COORD97":2542123.23,"ADDRESS":"大同路二段１３６巷９號九樓之２","OBJECTID":369038},"geometry":{"x":169204.9000000013,"y":2542123.2300000004}},{"attributes":{"ID":369049,"DIS_CODE":0,"TOWNNAME":"南區","LI":"新生里","LIN":"12鄰","STREET":"大同路","SECT":"二段","MAREA":" ","LANE":"１３６巷","ALLEY":" ","HOUSE_NO":"９號九樓之３","E_COORD97":169204.89999999999,"N_COORD97":2542123.23,"ADDRESS":"大同路二段１３６巷９號九樓之３","OBJECTID":369039},"geometry":{"x":169204.9000000013,"y":2542123.2300000004}},{"attributes":{"ID":369050,"DIS_CODE":0,"TOWNNAME":"南區","LI":"新生里","LIN":"12鄰","STREET":"大同路","SECT":"二段","MAREA":" ","LANE":"１３６巷","ALLEY":" ","HOUSE_NO":"９號九樓之５","E_COORD97":169204.89999999999,"N_COORD97":2542123.23,"ADDRESS":"大同路二段１３６巷９號九樓之５","OBJECTID":369040},"geometry":{"x":169204.9000000013,"y":2542123.2300000004}},{"attributes":{"ID":369051,"DIS_CODE":0,"TOWNNAME":"南區","LI":"新生里","LIN":"12鄰","STREET":"大同路","SECT":"二段","MAREA":" ","LANE":"１３６巷","ALLEY":" ","HOUSE_NO":"１１號十一樓之１","E_COORD97":169213.20999999999,"N_COORD97":2542093.29,"ADDRESS":"大同路二段１３６巷１１號十一樓之１","OBJECTID":369041},"geometry":{"x":169213.20999999996,"y":2542093.290000001}},{"attributes":{"ID":369052,"DIS_CODE":0,"TOWNNAME":"南區","LI":"新生里","LIN":"12鄰","STREET":"大同路","SECT":"二段","MAREA":" ","LANE":"１３６巷","ALLEY":" ","HOUSE_NO":"１１號十一樓之２","E_COORD97":169213.20999999999,"N_COORD97":2542093.29,"ADDRESS":"大同路二段１３６巷１１號十一樓之２","OBJECTID":369042},"geometry":{"x":169213.20999999996,"y":2542093.290000001}},{"attributes":{"ID":369053,"DIS_CODE":0,"TOWNNAME":"南區","LI":"新生里","LIN":"12鄰","STREET":"大同路","SECT":"二段","MAREA":" ","LANE":"１３６巷","ALLEY":" ","HOUSE_NO":"１１號十一樓之３","E_COORD97":169213.20999999999,"N_COORD97":2542093.29,"ADDRESS":"大同路二段１３６巷１１號十一樓之３","OBJECTID":369043},"geometry":{"x":169213.20999999996,"y":2542093.290000001}},{"attributes":{"ID":369054,"DIS_CODE":0,"TOWNNAME":"南區","LI":"新生里","LIN":"12鄰","STREET":"大同路","SECT":"二段","MAREA":" ","LANE":"１３６巷","ALLEY":" ","HOUSE_NO":"１１號十一樓之５","E_COORD97":169213.20999999999,"N_COORD97":2542093.29,"ADDRESS":"大同路二段１３６巷１１號十一樓之５","OBJECTID":369044},"geometry":{"x":169213.20999999996,"y":2542093.290000001}},{"attributes":{"ID":369055,"DIS_CODE":0,"TOWNNAME":"南區","LI":"新生里","LIN":"12鄰","STREET":"大同路","SECT":"二段","MAREA":" ","LANE":"１３６巷","ALLEY":" ","HOUSE_NO":"１１號十二樓之１","E_COORD97":169213.20999999999,"N_COORD97":2542093.29,"ADDRESS":"大同路二段１３６巷１１號十二樓之１","OBJECTID":369045},"geometry":{"x":169213.20999999996,"y":2542093.290000001}},{"attributes":{"ID":369056,"DIS_CODE":0,"TOWNNAME":"南區","LI":"新生里","LIN":"12鄰","STREET":"大同路","SECT":"二段","MAREA":" ","LANE":"１３６巷","ALLEY":" ","HOUSE_NO":"１１號十二樓之２","E_COORD97":169213.20999999999,"N_COORD97":2542093.29,"ADDRESS":"大同路二段１３６巷１１號十二樓之２","OBJECTID":369046},"geometry":{"x":169213.20999999996,"y":2542093.290000001}},{"attributes":{"ID":369057,"DIS_CODE":0,"TOWNNAME":"南區","LI":"新生里","LIN":"12鄰","STREET":"大同路","SECT":"二段","MAREA":" ","LANE":"１３６巷","ALLEY":" ","HOUSE_NO":"１１號十二樓之３","E_COORD97":169213.20999999999,"N_COORD97":2542093.29,"ADDRESS":"大同路二段１３６巷１１號十二樓之３","OBJECTID":369047},"geometry":{"x":169213.20999999996,"y":2542093.290000001}},{"attributes":{"ID":369058,"DIS_CODE":0,"TOWNNAME":"南區","LI":"新生里","LIN":"12鄰","STREET":"大同路","SECT":"二段","MAREA":" ","LANE":"１３６巷","ALLEY":" ","HOUSE_NO":"１１號十二樓之５","E_COORD97":169213.20999999999,"N_COORD97":2542093.29,"ADDRESS":"大同路二段１３６巷１１號十二樓之５","OBJECTID":369048},"geometry":{"x":169213.20999999996,"y":2542093.290000001}},{"attributes":{"ID":369059,"DIS_CODE":0,"TOWNNAME":"南區","LI":"新生里","LIN":"12鄰","STREET":"大同路","SECT":"二段","MAREA":" ","LANE":"１３６巷","ALLEY":" ","HOUSE_NO":"１１號十樓之１","E_COORD97":169213.20999999999,"N_COORD97":2542093.29,"ADDRESS":"大同路二段１３６巷１１號十樓之１","OBJECTID":369049},"geometry":{"x":169213.20999999996,"y":2542093.290000001}},{"attributes":{"ID":369060,"DIS_CODE":0,"TOWNNAME":"南區","LI":"新生里","LIN":"12鄰","STREET":"大同路","SECT":"二段","MAREA":" ","LANE":"１３６巷","ALLEY":" ","HOUSE_NO":"１１號十樓之２","E_COORD97":169213.20999999999,"N_COORD97":2542093.29,"ADDRESS":"大同路二段１３６巷１１號十樓之２","OBJECTID":369050},"geometry":{"x":169213.20999999996,"y":2542093.290000001}},{"attributes":{"ID":369061,"DIS_CODE":0,"TOWNNAME":"北區","LI":"正覺里","LIN":"12鄰","STREET":"正覺街","SECT":" ","MAREA":" ","LANE":"３３巷","ALLEY":" ","HOUSE_NO":"１號八樓之５","E_COORD97":169265.54000000001,"N_COORD97":2546267.9300000002,"ADDRESS":"正覺街３３巷１號八樓之５","OBJECTID":369051},"geometry":{"x":169265.54000000004,"y":2546267.9299999997}},{"attributes":{"ID":369062,"DIS_CODE":0,"TOWNNAME":"南區","LI":"新生里","LIN":"12鄰","STREET":"大同路","SECT":"二段","MAREA":" ","LANE":"１３６巷","ALLEY":" ","HOUSE_NO":"１１號十樓之３","E_COORD97":169213.20999999999,"N_COORD97":2542093.29,"ADDRESS":"大同路二段１３６巷１１號十樓之３","OBJECTID":369052},"geometry":{"x":169213.20999999996,"y":2542093.290000001}},{"attributes":{"ID":369063,"DIS_CODE":0,"TOWNNAME":"南區","LI":"新生里","LIN":"12鄰","STREET":"大同路","SECT":"二段","MAREA":" ","LANE":"１３６巷","ALLEY":" ","HOUSE_NO":"１１號十樓之５","E_COORD97":169213.20999999999,"N_COORD97":2542093.29,"ADDRESS":"大同路二段１３６巷１１號十樓之５","OBJECTID":369053},"geometry":{"x":169213.20999999996,"y":2542093.290000001}},{"attributes":{"ID":369064,"DIS_CODE":0,"TOWNNAME":"南區","LI":"新生里","LIN":"12鄰","STREET":"大同路","SECT":"二段","MAREA":" ","LANE":"１３６巷","ALLEY":" ","HOUSE_NO":"１１號十三樓之２","E_COORD97":169213.20999999999,"N_COORD97":2542093.29,"ADDRESS":"大同路二段１３６巷１１號十三樓之２","OBJECTID":369054},"geometry":{"x":169213.20999999996,"y":2542093.290000001}},{"attributes":{"ID":369065,"DIS_CODE":0,"TOWNNAME":"東區","LI":"和平里","LIN":"1鄰","STREET":"文化一街","SECT":" ","MAREA":" ","LANE":" ","ALLEY":" ","HOUSE_NO":"２號九樓","E_COORD97":171099.45000000001,"N_COORD97":2542097.2200000002,"ADDRESS":"文化一街２號九樓","OBJECTID":369055},"geometry":{"x":171099.45000000112,"y":2542097.2200000007}},{"attributes":{"ID":369066,"DIS_CODE":0,"TOWNNAME":"南區","LI":"新生里","LIN":"12鄰","STREET":"大同路","SECT":"二段","MAREA":" ","LANE":"１３６巷","ALLEY":" ","HOUSE_NO":"１１號十三樓之３","E_COORD97":169213.20999999999,"N_COORD97":2542093.29,"ADDRESS":"大同路二段１３６巷１１號十三樓之３","OBJECTID":369056},"geometry":{"x":169213.20999999996,"y":2542093.290000001}},{"attributes":{"ID":369067,"DIS_CODE":0,"TOWNNAME":"南區","LI":"新生里","LIN":"12鄰","STREET":"大同路","SECT":"二段","MAREA":" ","LANE":"１３６巷","ALLEY":" ","HOUSE_NO":"１１號十三樓之５","E_COORD97":169213.20999999999,"N_COORD97":2542093.29,"ADDRESS":"大同路二段１３６巷１１號十三樓之５","OBJECTID":369057},"geometry":{"x":169213.20999999996,"y":2542093.290000001}},{"attributes":{"ID":369068,"DIS_CODE":0,"TOWNNAME":"南區","LI":"新生里","LIN":"12鄰","STREET":"大同路","SECT":"二段","MAREA":" ","LANE":"１３６巷","ALLEY":" ","HOUSE_NO":"１１號十三樓之１","E_COORD97":169213.20999999999,"N_COORD97":2542093.29,"ADDRESS":"大同路二段１３６巷１１號十三樓之１","OBJECTID":369058},"geometry":{"x":169213.20999999996,"y":2542093.290000001}},{"attributes":{"ID":369069,"DIS_CODE":0,"TOWNNAME":"南區","LI":"新生里","LIN":"12鄰","STREET":"大同路","SECT":"二段","MAREA":" ","LANE":"１３６巷","ALLEY":" ","HOUSE_NO":"１１號一樓之１","E_COORD97":169213.20999999999,"N_COORD97":2542093.29,"ADDRESS":"大同路二段１３６巷１１號一樓之１","OBJECTID":369059},"geometry":{"x":169213.20999999996,"y":2542093.290000001}},{"attributes":{"ID":369070,"DIS_CODE":0,"TOWNNAME":"南區","LI":"新生里","LIN":"12鄰","STREET":"大同路","SECT":"二段","MAREA":" ","LANE":"１３６巷","ALLEY":" ","HOUSE_NO":"１１號一樓之２","E_COORD97":169213.20999999999,"N_COORD97":2542093.29,"ADDRESS":"大同路二段１３６巷１１號一樓之２","OBJECTID":369060},"geometry":{"x":169213.20999999996,"y":2542093.290000001}},{"attributes":{"ID":369071,"DIS_CODE":0,"TOWNNAME":"南區","LI":"新生里","LIN":"12鄰","STREET":"大同路","SECT":"二段","MAREA":" ","LANE":"１３６巷","ALLEY":" ","HOUSE_NO":"１１號二樓之１","E_COORD97":169213.20999999999,"N_COORD97":2542093.29,"ADDRESS":"大同路二段１３６巷１１號二樓之１","OBJECTID":369061},"geometry":{"x":169213.20999999996,"y":2542093.290000001}},{"attributes":{"ID":369072,"DIS_CODE":0,"TOWNNAME":"南區","LI":"新生里","LIN":"12鄰","STREET":"大同路","SECT":"二段","MAREA":" ","LANE":"１３６巷","ALLEY":" ","HOUSE_NO":"１１號二樓之２","E_COORD97":169213.20999999999,"N_COORD97":2542093.29,"ADDRESS":"大同路二段１３６巷１１號二樓之２","OBJECTID":369062},"geometry":{"x":169213.20999999996,"y":2542093.290000001}},{"attributes":{"ID":369073,"DIS_CODE":0,"TOWNNAME":"南區","LI":"新生里","LIN":"12鄰","STREET":"大同路","SECT":"二段","MAREA":" ","LANE":"１３６巷","ALLEY":" ","HOUSE_NO":"１１號二樓之３","E_COORD97":169213.20999999999,"N_COORD97":2542093.29,"ADDRESS":"大同路二段１３６巷１１號二樓之３","OBJECTID":369063},"geometry":{"x":169213.20999999996,"y":2542093.290000001}},{"attributes":{"ID":369074,"DIS_CODE":0,"TOWNNAME":"南區","LI":"新生里","LIN":"12鄰","STREET":"大同路","SECT":"二段","MAREA":" ","LANE":"１３６巷","ALLEY":" ","HOUSE_NO":"１１號二樓之５","E_COORD97":169213.20999999999,"N_COORD97":2542093.29,"ADDRESS":"大同路二段１３６巷１１號二樓之５","OBJECTID":369064},"geometry":{"x":169213.20999999996,"y":2542093.290000001}},{"attributes":{"ID":369075,"DIS_CODE":0,"TOWNNAME":"南區","LI":"新生里","LIN":"12鄰","STREET":"大同路","SECT":"二段","MAREA":" ","LANE":"１３６巷","ALLEY":" ","HOUSE_NO":"１１號三樓之１","E_COORD97":169213.20999999999,"N_COORD97":2542093.29,"ADDRESS":"大同路二段１３６巷１１號三樓之１","OBJECTID":369065},"geometry":{"x":169213.20999999996,"y":2542093.290000001}},{"attributes":{"ID":369076,"DIS_CODE":0,"TOWNNAME":"南區","LI":"新生里","LIN":"12鄰","STREET":"大同路","SECT":"二段","MAREA":" ","LANE":"１３６巷","ALLEY":" ","HOUSE_NO":"１１號三樓之２","E_COORD97":169213.20999999999,"N_COORD97":2542093.29,"ADDRESS":"大同路二段１３６巷１１號三樓之２","OBJECTID":369066},"geometry":{"x":169213.20999999996,"y":2542093.290000001}},{"attributes":{"ID":369077,"DIS_CODE":0,"TOWNNAME":"南區","LI":"新生里","LIN":"12鄰","STREET":"大同路","SECT":"二段","MAREA":" ","LANE":"１３６巷","ALLEY":" ","HOUSE_NO":"１１號三樓之３","E_COORD97":169213.20999999999,"N_COORD97":2542093.29,"ADDRESS":"大同路二段１３６巷１１號三樓之３","OBJECTID":369067},"geometry":{"x":169213.20999999996,"y":2542093.290000001}},{"attributes":{"ID":369078,"DIS_CODE":0,"TOWNNAME":"南區","LI":"新生里","LIN":"12鄰","STREET":"大同路","SECT":"二段","MAREA":" ","LANE":"１３６巷","ALLEY":" ","HOUSE_NO":"１１號三樓之５","E_COORD97":169213.20999999999,"N_COORD97":2542093.29,"ADDRESS":"大同路二段１３６巷１１號三樓之５","OBJECTID":369068},"geometry":{"x":169213.20999999996,"y":2542093.290000001}},{"attributes":{"ID":369079,"DIS_CODE":0,"TOWNNAME":"南區","LI":"新生里","LIN":"12鄰","STREET":"大同路","SECT":"二段","MAREA":" ","LANE":"１３６巷","ALLEY":" ","HOUSE_NO":"１１號八樓之５","E_COORD97":169213.20999999999,"N_COORD97":2542093.29,"ADDRESS":"大同路二段１３６巷１１號八樓之５","OBJECTID":369069},"geometry":{"x":169213.20999999996,"y":2542093.290000001}},{"attributes":{"ID":369080,"DIS_CODE":0,"TOWNNAME":"南區","LI":"新生里","LIN":"12鄰","STREET":"大同路","SECT":"二段","MAREA":" ","LANE":"１３６巷","ALLEY":" ","HOUSE_NO":"１１號九樓之１","E_COORD97":169213.20999999999,"N_COORD97":2542093.29,"ADDRESS":"大同路二段１３６巷１１號九樓之１","OBJECTID":369070},"geometry":{"x":169213.20999999996,"y":2542093.290000001}},{"attributes":{"ID":369081,"DIS_CODE":0,"TOWNNAME":"南區","LI":"新生里","LIN":"12鄰","STREET":"大同路","SECT":"二段","MAREA":" ","LANE":"１３６巷","ALLEY":" ","HOUSE_NO":"１１號九樓之２","E_COORD97":169213.20999999999,"N_COORD97":2542093.29,"ADDRESS":"大同路二段１３６巷１１號九樓之２","OBJECTID":369071},"geometry":{"x":169213.20999999996,"y":2542093.290000001}},{"attributes":{"ID":369082,"DIS_CODE":0,"TOWNNAME":"南區","LI":"新生里","LIN":"12鄰","STREET":"大同路","SECT":"二段","MAREA":" ","LANE":"１３６巷","ALLEY":" ","HOUSE_NO":"１１號九樓之３","E_COORD97":169213.20999999999,"N_COORD97":2542093.29,"ADDRESS":"大同路二段１３６巷１１號九樓之３","OBJECTID":369072},"geometry":{"x":169213.20999999996,"y":2542093.290000001}},{"attributes":{"ID":369083,"DIS_CODE":0,"TOWNNAME":"南區","LI":"新生里","LIN":"12鄰","STREET":"大同路","SECT":"二段","MAREA":" ","LANE":"１３６巷","ALLEY":" ","HOUSE_NO":"１１號九樓之５","E_COORD97":169213.20999999999,"N_COORD97":2542093.29,"ADDRESS":"大同路二段１３６巷１１號九樓之５","OBJECTID":369073},"geometry":{"x":169213.20999999996,"y":2542093.290000001}},{"attributes":{"ID":369084,"DIS_CODE":0,"TOWNNAME":"南區","LI":"新生里","LIN":"12鄰","STREET":"大同路","SECT":"二段","MAREA":" ","LANE":"１３６巷","ALLEY":" ","HOUSE_NO":"１１號四樓之１","E_COORD97":169213.20999999999,"N_COORD97":2542093.29,"ADDRESS":"大同路二段１３６巷１１號四樓之１","OBJECTID":369074},"geometry":{"x":169213.20999999996,"y":2542093.290000001}},{"attributes":{"ID":369085,"DIS_CODE":0,"TOWNNAME":"南區","LI":"新生里","LIN":"12鄰","STREET":"大同路","SECT":"二段","MAREA":" ","LANE":"１３６巷","ALLEY":" ","HOUSE_NO":"１１號四樓之２","E_COORD97":169213.20999999999,"N_COORD97":2542093.29,"ADDRESS":"大同路二段１３６巷１１號四樓之２","OBJECTID":369075},"geometry":{"x":169213.20999999996,"y":2542093.290000001}},{"attributes":{"ID":369086,"DIS_CODE":0,"TOWNNAME":"南區","LI":"新生里","LIN":"12鄰","STREET":"大同路","SECT":"二段","MAREA":" ","LANE":"１３６巷","ALLEY":" ","HOUSE_NO":"１１號四樓之３","E_COORD97":169213.20999999999,"N_COORD97":2542093.29,"ADDRESS":"大同路二段１３６巷１１號四樓之３","OBJECTID":369076},"geometry":{"x":169213.20999999996,"y":2542093.290000001}},{"attributes":{"ID":369087,"DIS_CODE":0,"TOWNNAME":"南區","LI":"新生里","LIN":"12鄰","STREET":"大同路","SECT":"二段","MAREA":" ","LANE":"１３６巷","ALLEY":" ","HOUSE_NO":"１１號四樓之５","E_COORD97":169213.20999999999,"N_COORD97":2542093.29,"ADDRESS":"大同路二段１３６巷１１號四樓之５","OBJECTID":369077},"geometry":{"x":169213.20999999996,"y":2542093.290000001}},{"attributes":{"ID":369088,"DIS_CODE":0,"TOWNNAME":"南區","LI":"新生里","LIN":"12鄰","STREET":"大同路","SECT":"二段","MAREA":" ","LANE":"１３６巷","ALLEY":" ","HOUSE_NO":"１１號五樓之１","E_COORD97":169213.20999999999,"N_COORD97":2542093.29,"ADDRESS":"大同路二段１３６巷１１號五樓之１","OBJECTID":369078},"geometry":{"x":169213.20999999996,"y":2542093.290000001}},{"attributes":{"ID":369089,"DIS_CODE":0,"TOWNNAME":"南區","LI":"新生里","LIN":"12鄰","STREET":"大同路","SECT":"二段","MAREA":" ","LANE":"１３６巷","ALLEY":" ","HOUSE_NO":"１１號五樓之２","E_COORD97":169213.20999999999,"N_COORD97":2542093.29,"ADDRESS":"大同路二段１３６巷１１號五樓之２","OBJECTID":369079},"geometry":{"x":169213.20999999996,"y":2542093.290000001}},{"attributes":{"ID":369090,"DIS_CODE":0,"TOWNNAME":"南區","LI":"新生里","LIN":"12鄰","STREET":"大同路","SECT":"二段","MAREA":" ","LANE":"１３６巷","ALLEY":" ","HOUSE_NO":"１１號五樓之３","E_COORD97":169213.20999999999,"N_COORD97":2542093.29,"ADDRESS":"大同路二段１３６巷１１號五樓之３","OBJECTID":369080},"geometry":{"x":169213.20999999996,"y":2542093.290000001}},{"attributes":{"ID":369091,"DIS_CODE":0,"TOWNNAME":"南區","LI":"新生里","LIN":"12鄰","STREET":"大同路","SECT":"二段","MAREA":" ","LANE":"１３６巷","ALLEY":" ","HOUSE_NO":"１１號五樓之５","E_COORD97":169213.20999999999,"N_COORD97":2542093.29,"ADDRESS":"大同路二段１３６巷１１號五樓之５","OBJECTID":369081},"geometry":{"x":169213.20999999996,"y":2542093.290000001}},{"attributes":{"ID":369092,"DIS_CODE":0,"TOWNNAME":"南區","LI":"新生里","LIN":"12鄰","STREET":"大同路","SECT":"二段","MAREA":" ","LANE":"１３６巷","ALLEY":" ","HOUSE_NO":"１１號六樓之１","E_COORD97":169213.20999999999,"N_COORD97":2542093.29,"ADDRESS":"大同路二段１３６巷１１號六樓之１","OBJECTID":369082},"geometry":{"x":169213.20999999996,"y":2542093.290000001}},{"attributes":{"ID":369093,"DIS_CODE":0,"TOWNNAME":"南區","LI":"新生里","LIN":"12鄰","STREET":"大同路","SECT":"二段","MAREA":" ","LANE":"１３６巷","ALLEY":" ","HOUSE_NO":"１１號六樓之２","E_COORD97":169213.20999999999,"N_COORD97":2542093.29,"ADDRESS":"大同路二段１３６巷１１號六樓之２","OBJECTID":369083},"geometry":{"x":169213.20999999996,"y":2542093.290000001}},{"attributes":{"ID":369094,"DIS_CODE":0,"TOWNNAME":"南區","LI":"新生里","LIN":"12鄰","STREET":"大同路","SECT":"二段","MAREA":" ","LANE":"１３６巷","ALLEY":" ","HOUSE_NO":"１１號六樓之３","E_COORD97":169213.20999999999,"N_COORD97":2542093.29,"ADDRESS":"大同路二段１３６巷１１號六樓之３","OBJECTID":369084},"geometry":{"x":169213.20999999996,"y":2542093.290000001}},{"attributes":{"ID":369095,"DIS_CODE":0,"TOWNNAME":"南區","LI":"新生里","LIN":"12鄰","STREET":"大同路","SECT":"二段","MAREA":" ","LANE":"１３６巷","ALLEY":" ","HOUSE_NO":"１１號六樓之５","E_COORD97":169213.20999999999,"N_COORD97":2542093.29,"ADDRESS":"大同路二段１３６巷１１號六樓之５","OBJECTID":369085},"geometry":{"x":169213.20999999996,"y":2542093.290000001}},{"attributes":{"ID":369096,"DIS_CODE":0,"TOWNNAME":"南區","LI":"新生里","LIN":"12鄰","STREET":"大同路","SECT":"二段","MAREA":" ","LANE":"１３６巷","ALLEY":" ","HOUSE_NO":"１１號七樓之１","E_COORD97":169213.20999999999,"N_COORD97":2542093.29,"ADDRESS":"大同路二段１３６巷１１號七樓之１","OBJECTID":369086},"geometry":{"x":169213.20999999996,"y":2542093.290000001}},{"attributes":{"ID":369097,"DIS_CODE":0,"TOWNNAME":"南區","LI":"新生里","LIN":"12鄰","STREET":"大同路","SECT":"二段","MAREA":" ","LANE":"１３６巷","ALLEY":" ","HOUSE_NO":"１１號七樓之２","E_COORD97":169213.20999999999,"N_COORD97":2542093.29,"ADDRESS":"大同路二段１３６巷１１號七樓之２","OBJECTID":369087},"geometry":{"x":169213.20999999996,"y":2542093.290000001}},{"attributes":{"ID":369098,"DIS_CODE":0,"TOWNNAME":"南區","LI":"新生里","LIN":"12鄰","STREET":"大同路","SECT":"二段","MAREA":" ","LANE":"１３６巷","ALLEY":" ","HOUSE_NO":"１１號七樓之３","E_COORD97":169213.20999999999,"N_COORD97":2542093.29,"ADDRESS":"大同路二段１３６巷１１號七樓之３","OBJECTID":369088},"geometry":{"x":169213.20999999996,"y":2542093.290000001}},{"attributes":{"ID":369099,"DIS_CODE":0,"TOWNNAME":"南區","LI":"新生里","LIN":"12鄰","STREET":"大同路","SECT":"二段","MAREA":" ","LANE":"１３６巷","ALLEY":" ","HOUSE_NO":"１１號七樓之５","E_COORD97":169213.20999999999,"N_COORD97":2542093.29,"ADDRESS":"大同路二段１３６巷１１號七樓之５","OBJECTID":369089},"geometry":{"x":169213.20999999996,"y":2542093.290000001}},{"attributes":{"ID":369100,"DIS_CODE":0,"TOWNNAME":"南區","LI":"新生里","LIN":"12鄰","STREET":"大同路","SECT":"二段","MAREA":" ","LANE":"１３６巷","ALLEY":" ","HOUSE_NO":"１１號八樓之１","E_COORD97":169213.20999999999,"N_COORD97":2542093.29,"ADDRESS":"大同路二段１３６巷１１號八樓之１","OBJECTID":369090},"geometry":{"x":169213.20999999996,"y":2542093.290000001}},{"attributes":{"ID":369101,"DIS_CODE":0,"TOWNNAME":"南區","LI":"新生里","LIN":"12鄰","STREET":"大同路","SECT":"二段","MAREA":" ","LANE":"１３６巷","ALLEY":" ","HOUSE_NO":"１１號八樓之２","E_COORD97":169213.20999999999,"N_COORD97":2542093.29,"ADDRESS":"大同路二段１３６巷１１號八樓之２","OBJECTID":369091},"geometry":{"x":169213.20999999996,"y":2542093.290000001}},{"attributes":{"ID":369102,"DIS_CODE":0,"TOWNNAME":"北區","LI":"大道里","LIN":"12鄰","STREET":"北門路","SECT":"二段","MAREA":" ","LANE":"５２７巷","ALLEY":" ","HOUSE_NO":"１５號三樓之２","E_COORD97":169532.03,"N_COORD97":2545570.48,"ADDRESS":"北門路二段５２７巷１５號三樓之２","OBJECTID":369092},"geometry":{"x":169532.03000000026,"y":2545570.4800000004}},{"attributes":{"ID":369103,"DIS_CODE":0,"TOWNNAME":"北區","LI":"大道里","LIN":"12鄰","STREET":"北門路","SECT":"二段","MAREA":" ","LANE":"５２７巷","ALLEY":" ","HOUSE_NO":"１５號三樓之１","E_COORD97":169532.03,"N_COORD97":2545570.48,"ADDRESS":"北門路二段５２７巷１５號三樓之１","OBJECTID":369093},"geometry":{"x":169532.03000000026,"y":2545570.4800000004}},{"attributes":{"ID":369104,"DIS_CODE":0,"TOWNNAME":"北區","LI":"大道里","LIN":"12鄰","STREET":"北門路","SECT":"二段","MAREA":" ","LANE":"５２７巷","ALLEY":" ","HOUSE_NO":"１５號四樓之２","E_COORD97":169532.03,"N_COORD97":2545570.48,"ADDRESS":"北門路二段５２７巷１５號四樓之２","OBJECTID":369094},"geometry":{"x":169532.03000000026,"y":2545570.4800000004}},{"attributes":{"ID":369105,"DIS_CODE":0,"TOWNNAME":"北區","LI":"大道里","LIN":"12鄰","STREET":"北門路","SECT":"二段","MAREA":" ","LANE":"５２７巷","ALLEY":" ","HOUSE_NO":"１５號四樓之１","E_COORD97":169532.03,"N_COORD97":2545570.48,"ADDRESS":"北門路二段５２７巷１５號四樓之１","OBJECTID":369095},"geometry":{"x":169532.03000000026,"y":2545570.4800000004}},{"attributes":{"ID":369106,"DIS_CODE":0,"TOWNNAME":"北區","LI":"大道里","LIN":"12鄰","STREET":"北門路","SECT":"二段","MAREA":" ","LANE":"５２７巷","ALLEY":" ","HOUSE_NO":"１５號五樓之２","E_COORD97":169532.03,"N_COORD97":2545570.48,"ADDRESS":"北門路二段５２７巷１５號五樓之２","OBJECTID":369096},"geometry":{"x":169532.03000000026,"y":2545570.4800000004}},{"attributes":{"ID":369107,"DIS_CODE":0,"TOWNNAME":"北區","LI":"大道里","LIN":"12鄰","STREET":"北門路","SECT":"二段","MAREA":" ","LANE":"５２７巷","ALLEY":" ","HOUSE_NO":"１５號五樓之１","E_COORD97":169532.03,"N_COORD97":2545570.48,"ADDRESS":"北門路二段５２７巷１５號五樓之１","OBJECTID":369097},"geometry":{"x":169532.03000000026,"y":2545570.4800000004}},{"attributes":{"ID":369108,"DIS_CODE":0,"TOWNNAME":"北區","LI":"大道里","LIN":"12鄰","STREET":"北門路","SECT":"二段","MAREA":" ","LANE":"５２７巷","ALLEY":" ","HOUSE_NO":"１５號六樓之２","E_COORD97":169532.03,"N_COORD97":2545570.48,"ADDRESS":"北門路二段５２７巷１５號六樓之２","OBJECTID":369098},"geometry":{"x":169532.03000000026,"y":2545570.4800000004}},{"attributes":{"ID":369109,"DIS_CODE":0,"TOWNNAME":"北區","LI":"大道里","LIN":"12鄰","STREET":"北門路","SECT":"二段","MAREA":" ","LANE":"５２７巷","ALLEY":" ","HOUSE_NO":"１５號六樓之１","E_COORD97":169532.03,"N_COORD97":2545570.48,"ADDRESS":"北門路二段５２７巷１５號六樓之１","OBJECTID":369099},"geometry":{"x":169532.03000000026,"y":2545570.4800000004}},{"attributes":{"ID":369110,"DIS_CODE":0,"TOWNNAME":"北區","LI":"大道里","LIN":"12鄰","STREET":"北門路","SECT":"二段","MAREA":" ","LANE":"５２７巷","ALLEY":" ","HOUSE_NO":"１５號七樓之２","E_COORD97":169532.03,"N_COORD97":2545570.48,"ADDRESS":"北門路二段５２７巷１５號七樓之２","OBJECTID":369100},"geometry":{"x":169532.03000000026,"y":2545570.4800000004}},{"attributes":{"ID":369111,"DIS_CODE":0,"TOWNNAME":"北區","LI":"大道里","LIN":"12鄰","STREET":"北門路","SECT":"二段","MAREA":" ","LANE":"５２７巷","ALLEY":" ","HOUSE_NO":"１５號七樓之１","E_COORD97":169532.03,"N_COORD97":2545570.48,"ADDRESS":"北門路二段５２７巷１５號七樓之１","OBJECTID":369101},"geometry":{"x":169532.03000000026,"y":2545570.4800000004}},{"attributes":{"ID":369112,"DIS_CODE":0,"TOWNNAME":"北區","LI":"大道里","LIN":"12鄰","STREET":"北門路","SECT":"二段","MAREA":" ","LANE":"５２７巷","ALLEY":" ","HOUSE_NO":"１５號八樓之２","E_COORD97":169532.03,"N_COORD97":2545570.48,"ADDRESS":"北門路二段５２７巷１５號八樓之２","OBJECTID":369102},"geometry":{"x":169532.03000000026,"y":2545570.4800000004}},{"attributes":{"ID":369113,"DIS_CODE":0,"TOWNNAME":"北區","LI":"大道里","LIN":"12鄰","STREET":"北門路","SECT":"二段","MAREA":" ","LANE":"５２７巷","ALLEY":" ","HOUSE_NO":"１５號八樓之１","E_COORD97":169532.03,"N_COORD97":2545570.48,"ADDRESS":"北門路二段５２７巷１５號八樓之１","OBJECTID":369103},"geometry":{"x":169532.03000000026,"y":2545570.4800000004}},{"attributes":{"ID":369114,"DIS_CODE":0,"TOWNNAME":"北區","LI":"大道里","LIN":"12鄰","STREET":"北門路","SECT":"二段","MAREA":" ","LANE":"５２７巷","ALLEY":" ","HOUSE_NO":"１５號九樓之２","E_COORD97":169532.03,"N_COORD97":2545570.48,"ADDRESS":"北門路二段５２７巷１５號九樓之２","OBJECTID":369104},"geometry":{"x":169532.03000000026,"y":2545570.4800000004}},{"attributes":{"ID":369115,"DIS_CODE":0,"TOWNNAME":"北區","LI":"大道里","LIN":"12鄰","STREET":"北門路","SECT":"二段","MAREA":" ","LANE":"５２７巷","ALLEY":" ","HOUSE_NO":"１５號九樓之１","E_COORD97":169532.03,"N_COORD97":2545570.48,"ADDRESS":"北門路二段５２７巷１５號九樓之１","OBJECTID":369105},"geometry":{"x":169532.03000000026,"y":2545570.4800000004}},{"attributes":{"ID":369116,"DIS_CODE":0,"TOWNNAME":"北區","LI":"大道里","LIN":"12鄰","STREET":"北門路","SECT":"二段","MAREA":" ","LANE":"５２７巷","ALLEY":" ","HOUSE_NO":"１５號十樓之２","E_COORD97":169532.03,"N_COORD97":2545570.48,"ADDRESS":"北門路二段５２７巷１５號十樓之２","OBJECTID":369106},"geometry":{"x":169532.03000000026,"y":2545570.4800000004}},{"attributes":{"ID":369117,"DIS_CODE":0,"TOWNNAME":"北區","LI":"大道里","LIN":"12鄰","STREET":"北門路","SECT":"二段","MAREA":" ","LANE":"５２７巷","ALLEY":" ","HOUSE_NO":"１５號十樓之１","E_COORD97":169532.03,"N_COORD97":2545570.48,"ADDRESS":"北門路二段５２７巷１５號十樓之１","OBJECTID":369107},"geometry":{"x":169532.03000000026,"y":2545570.4800000004}},{"attributes":{"ID":369118,"DIS_CODE":0,"TOWNNAME":"北區","LI":"光武里","LIN":"12鄰","STREET":"北門路","SECT":"二段","MAREA":" ","LANE":"５４７巷","ALLEY":" ","HOUSE_NO":"５２號二樓之１","E_COORD97":169557.10999999999,"N_COORD97":2545738.2000000002,"ADDRESS":"北門路二段５４７巷５２號二樓之１","OBJECTID":369108},"geometry":{"x":169557.1099999994,"y":2545738.2000000011}},{"attributes":{"ID":369119,"DIS_CODE":0,"TOWNNAME":"北區","LI":"光武里","LIN":"12鄰","STREET":"北門路","SECT":"二段","MAREA":" ","LANE":"５４７巷","ALLEY":" ","HOUSE_NO":"５２號三樓之１","E_COORD97":169557.10999999999,"N_COORD97":2545738.2000000002,"ADDRESS":"北門路二段５４７巷５２號三樓之１","OBJECTID":369109},"geometry":{"x":169557.1099999994,"y":2545738.2000000011}},{"attributes":{"ID":369120,"DIS_CODE":0,"TOWNNAME":"北區","LI":"光武里","LIN":"12鄰","STREET":"北門路","SECT":"二段","MAREA":" ","LANE":"５４７巷","ALLEY":" ","HOUSE_NO":"５２號四樓之１","E_COORD97":169557.10999999999,"N_COORD97":2545738.2000000002,"ADDRESS":"北門路二段５４７巷５２號四樓之１","OBJECTID":369110},"geometry":{"x":169557.1099999994,"y":2545738.2000000011}},{"attributes":{"ID":369121,"DIS_CODE":0,"TOWNNAME":"北區","LI":"光武里","LIN":"12鄰","STREET":"北門路","SECT":"二段","MAREA":" ","LANE":"５４７巷","ALLEY":" ","HOUSE_NO":"５２號五樓之１","E_COORD97":169557.10999999999,"N_COORD97":2545738.2000000002,"ADDRESS":"北門路二段５４７巷５２號五樓之１","OBJECTID":369111},"geometry":{"x":169557.1099999994,"y":2545738.2000000011}},{"attributes":{"ID":369122,"DIS_CODE":0,"TOWNNAME":"北區","LI":"光武里","LIN":"12鄰","STREET":"北門路","SECT":"二段","MAREA":" ","LANE":"５４７巷","ALLEY":" ","HOUSE_NO":"５２號六樓之１","E_COORD97":169557.10999999999,"N_COORD97":2545738.2000000002,"ADDRESS":"北門路二段５４７巷５２號六樓之１","OBJECTID":369112},"geometry":{"x":169557.1099999994,"y":2545738.2000000011}},{"attributes":{"ID":369123,"DIS_CODE":0,"TOWNNAME":"北區","LI":"光武里","LIN":"12鄰","STREET":"北門路","SECT":"二段","MAREA":" ","LANE":"５４７巷","ALLEY":" ","HOUSE_NO":"５２號七樓之１","E_COORD97":169557.10999999999,"N_COORD97":2545738.2000000002,"ADDRESS":"北門路二段５４７巷５２號七樓之１","OBJECTID":369113},"geometry":{"x":169557.1099999994,"y":2545738.2000000011}},{"attributes":{"ID":369124,"DIS_CODE":0,"TOWNNAME":"北區","LI":"光武里","LIN":"12鄰","STREET":"北門路","SECT":"二段","MAREA":" ","LANE":"５４７巷","ALLEY":" ","HOUSE_NO":"５２號八樓之１","E_COORD97":169557.10999999999,"N_COORD97":2545738.2000000002,"ADDRESS":"北門路二段５４７巷５２號八樓之１","OBJECTID":369114},"geometry":{"x":169557.1099999994,"y":2545738.2000000011}},{"attributes":{"ID":369125,"DIS_CODE":0,"TOWNNAME":"北區","LI":"光武里","LIN":"12鄰","STREET":"北門路","SECT":"二段","MAREA":" ","LANE":"５４７巷","ALLEY":" ","HOUSE_NO":"５２號九樓之１","E_COORD97":169557.10999999999,"N_COORD97":2545738.2000000002,"ADDRESS":"北門路二段５４７巷５２號九樓之１","OBJECTID":369115},"geometry":{"x":169557.1099999994,"y":2545738.2000000011}},{"attributes":{"ID":369126,"DIS_CODE":0,"TOWNNAME":"北區","LI":"光武里","LIN":"12鄰","STREET":"北門路","SECT":"二段","MAREA":" ","LANE":"５４７巷","ALLEY":" ","HOUSE_NO":"５２號十樓之１","E_COORD97":169557.10999999999,"N_COORD97":2545738.2000000002,"ADDRESS":"北門路二段５４７巷５２號十樓之１","OBJECTID":369116},"geometry":{"x":169557.1099999994,"y":2545738.2000000011}},{"attributes":{"ID":369127,"DIS_CODE":0,"TOWNNAME":"北區","LI":"光武里","LIN":"12鄰","STREET":"北門路","SECT":"二段","MAREA":" ","LANE":"５４７巷","ALLEY":" ","HOUSE_NO":"５２號三樓之２","E_COORD97":169557.10999999999,"N_COORD97":2545738.2000000002,"ADDRESS":"北門路二段５４７巷５２號三樓之２","OBJECTID":369117},"geometry":{"x":169557.1099999994,"y":2545738.2000000011}},{"attributes":{"ID":369128,"DIS_CODE":0,"TOWNNAME":"北區","LI":"光武里","LIN":"12鄰","STREET":"北門路","SECT":"二段","MAREA":" ","LANE":"５４７巷","ALLEY":" ","HOUSE_NO":"５２號四樓之２","E_COORD97":169557.10999999999,"N_COORD97":2545738.2000000002,"ADDRESS":"北門路二段５４７巷５２號四樓之２","OBJECTID":369118},"geometry":{"x":169557.1099999994,"y":2545738.2000000011}},{"attributes":{"ID":369129,"DIS_CODE":0,"TOWNNAME":"北區","LI":"光武里","LIN":"12鄰","STREET":"北門路","SECT":"二段","MAREA":" ","LANE":"５４７巷","ALLEY":" ","HOUSE_NO":"５２號五樓之２","E_COORD97":169557.10999999999,"N_COORD97":2545738.2000000002,"ADDRESS":"北門路二段５４７巷５２號五樓之２","OBJECTID":369119},"geometry":{"x":169557.1099999994,"y":2545738.2000000011}},{"attributes":{"ID":369130,"DIS_CODE":0,"TOWNNAME":"北區","LI":"光武里","LIN":"12鄰","STREET":"北門路","SECT":"二段","MAREA":" ","LANE":"５４７巷","ALLEY":" ","HOUSE_NO":"５２號六樓之２","E_COORD97":169557.10999999999,"N_COORD97":2545738.2000000002,"ADDRESS":"北門路二段５４７巷５２號六樓之２","OBJECTID":369120},"geometry":{"x":169557.1099999994,"y":2545738.2000000011}},{"attributes":{"ID":369131,"DIS_CODE":0,"TOWNNAME":"北區","LI":"光武里","LIN":"12鄰","STREET":"北門路","SECT":"二段","MAREA":" ","LANE":"５４７巷","ALLEY":" ","HOUSE_NO":"５２號七樓之２","E_COORD97":169557.10999999999,"N_COORD97":2545738.2000000002,"ADDRESS":"北門路二段５４７巷５２號七樓之２","OBJECTID":369121},"geometry":{"x":169557.1099999994,"y":2545738.2000000011}},{"attributes":{"ID":369132,"DIS_CODE":0,"TOWNNAME":"北區","LI":"光武里","LIN":"12鄰","STREET":"北門路","SECT":"二段","MAREA":" ","LANE":"５４７巷","ALLEY":" ","HOUSE_NO":"５２號八樓之２","E_COORD97":169557.10999999999,"N_COORD97":2545738.2000000002,"ADDRESS":"北門路二段５４７巷５２號八樓之２","OBJECTID":369122},"geometry":{"x":169557.1099999994,"y":2545738.2000000011}},{"attributes":{"ID":369133,"DIS_CODE":0,"TOWNNAME":"北區","LI":"光武里","LIN":"12鄰","STREET":"北門路","SECT":"二段","MAREA":" ","LANE":"５４７巷","ALLEY":" ","HOUSE_NO":"５２號九樓之２","E_COORD97":169557.10999999999,"N_COORD97":2545738.2000000002,"ADDRESS":"北門路二段５４７巷５２號九樓之２","OBJECTID":369123},"geometry":{"x":169557.1099999994,"y":2545738.2000000011}},{"attributes":{"ID":369134,"DIS_CODE":0,"TOWNNAME":"北區","LI":"光武里","LIN":"12鄰","STREET":"北門路","SECT":"二段","MAREA":" ","LANE":"５４７巷","ALLEY":" ","HOUSE_NO":"５２號十樓之２","E_COORD97":169557.10999999999,"N_COORD97":2545738.2000000002,"ADDRESS":"北門路二段５４７巷５２號十樓之２","OBJECTID":369124},"geometry":{"x":169557.1099999994,"y":2545738.2000000011}},{"attributes":{"ID":369135,"DIS_CODE":0,"TOWNNAME":"北區","LI":"光武里","LIN":"12鄰","STREET":"北門路","SECT":"二段","MAREA":" ","LANE":"５４７巷","ALLEY":" ","HOUSE_NO":"５２號三樓之３","E_COORD97":169557.10999999999,"N_COORD97":2545738.2000000002,"ADDRESS":"北門路二段５４７巷５２號三樓之３","OBJECTID":369125},"geometry":{"x":169557.1099999994,"y":2545738.2000000011}},{"attributes":{"ID":369136,"DIS_CODE":0,"TOWNNAME":"北區","LI":"光武里","LIN":"12鄰","STREET":"北門路","SECT":"二段","MAREA":" ","LANE":"５４７巷","ALLEY":" ","HOUSE_NO":"５２號四樓之３","E_COORD97":169557.10999999999,"N_COORD97":2545738.2000000002,"ADDRESS":"北門路二段５４７巷５２號四樓之３","OBJECTID":369126},"geometry":{"x":169557.1099999994,"y":2545738.2000000011}},{"attributes":{"ID":369137,"DIS_CODE":0,"TOWNNAME":"北區","LI":"光武里","LIN":"12鄰","STREET":"北門路","SECT":"二段","MAREA":" ","LANE":"５４７巷","ALLEY":" ","HOUSE_NO":"５２號五樓之３","E_COORD97":169557.10999999999,"N_COORD97":2545738.2000000002,"ADDRESS":"北門路二段５４７巷５２號五樓之３","OBJECTID":369127},"geometry":{"x":169557.1099999994,"y":2545738.2000000011}},{"attributes":{"ID":369138,"DIS_CODE":0,"TOWNNAME":"北區","LI":"光武里","LIN":"12鄰","STREET":"北門路","SECT":"二段","MAREA":" ","LANE":"５４７巷","ALLEY":" ","HOUSE_NO":"５２號六樓之３","E_COORD97":169557.10999999999,"N_COORD97":2545738.2000000002,"ADDRESS":"北門路二段５４７巷５２號六樓之３","OBJECTID":369128},"geometry":{"x":169557.1099999994,"y":2545738.2000000011}},{"attributes":{"ID":369139,"DIS_CODE":0,"TOWNNAME":"北區","LI":"光武里","LIN":"12鄰","STREET":"北門路","SECT":"二段","MAREA":" ","LANE":"５４７巷","ALLEY":" ","HOUSE_NO":"５２號七樓之３","E_COORD97":169557.10999999999,"N_COORD97":2545738.2000000002,"ADDRESS":"北門路二段５４７巷５２號七樓之３","OBJECTID":369129},"geometry":{"x":169557.1099999994,"y":2545738.2000000011}},{"attributes":{"ID":369140,"DIS_CODE":0,"TOWNNAME":"北區","LI":"光武里","LIN":"12鄰","STREET":"北門路","SECT":"二段","MAREA":" ","LANE":"５４７巷","ALLEY":" ","HOUSE_NO":"５２號八樓之３","E_COORD97":169557.10999999999,"N_COORD97":2545738.2000000002,"ADDRESS":"北門路二段５４７巷５２號八樓之３","OBJECTID":369130},"geometry":{"x":169557.1099999994,"y":2545738.2000000011}},{"attributes":{"ID":369141,"DIS_CODE":0,"TOWNNAME":"北區","LI":"光武里","LIN":"12鄰","STREET":"北門路","SECT":"二段","MAREA":" ","LANE":"５４７巷","ALLEY":" ","HOUSE_NO":"５２號九樓之３","E_COORD97":169557.10999999999,"N_COORD97":2545738.2000000002,"ADDRESS":"北門路二段５４７巷５２號九樓之３","OBJECTID":369131},"geometry":{"x":169557.1099999994,"y":2545738.2000000011}},{"attributes":{"ID":369142,"DIS_CODE":0,"TOWNNAME":"北區","LI":"光武里","LIN":"12鄰","STREET":"北門路","SECT":"二段","MAREA":" ","LANE":"５４７巷","ALLEY":" ","HOUSE_NO":"５２號十樓之３","E_COORD97":169557.10999999999,"N_COORD97":2545738.2000000002,"ADDRESS":"北門路二段５４７巷５２號十樓之３","OBJECTID":369132},"geometry":{"x":169557.1099999994,"y":2545738.2000000011}},{"attributes":{"ID":369143,"DIS_CODE":0,"TOWNNAME":"北區","LI":"光武里","LIN":"12鄰","STREET":"北門路","SECT":"二段","MAREA":" ","LANE":"５４７巷","ALLEY":" ","HOUSE_NO":"５２號三樓之５","E_COORD97":169557.10999999999,"N_COORD97":2545738.2000000002,"ADDRESS":"北門路二段５４７巷５２號三樓之５","OBJECTID":369133},"geometry":{"x":169557.1099999994,"y":2545738.2000000011}},{"attributes":{"ID":369144,"DIS_CODE":0,"TOWNNAME":"北區","LI":"光武里","LIN":"12鄰","STREET":"北門路","SECT":"二段","MAREA":" ","LANE":"５４７巷","ALLEY":" ","HOUSE_NO":"５２號四樓之５","E_COORD97":169557.10999999999,"N_COORD97":2545738.2000000002,"ADDRESS":"北門路二段５４７巷５２號四樓之５","OBJECTID":369134},"geometry":{"x":169557.1099999994,"y":2545738.2000000011}},{"attributes":{"ID":369145,"DIS_CODE":0,"TOWNNAME":"北區","LI":"光武里","LIN":"12鄰","STREET":"北門路","SECT":"二段","MAREA":" ","LANE":"５４７巷","ALLEY":" ","HOUSE_NO":"５２號五樓之５","E_COORD97":169557.10999999999,"N_COORD97":2545738.2000000002,"ADDRESS":"北門路二段５４７巷５２號五樓之５","OBJECTID":369135},"geometry":{"x":169557.1099999994,"y":2545738.2000000011}},{"attributes":{"ID":369146,"DIS_CODE":0,"TOWNNAME":"北區","LI":"光武里","LIN":"12鄰","STREET":"北門路","SECT":"二段","MAREA":" ","LANE":"５４７巷","ALLEY":" ","HOUSE_NO":"５２號六樓之５","E_COORD97":169557.10999999999,"N_COORD97":2545738.2000000002,"ADDRESS":"北門路二段５４７巷５２號六樓之５","OBJECTID":369136},"geometry":{"x":169557.1099999994,"y":2545738.2000000011}},{"attributes":{"ID":369147,"DIS_CODE":0,"TOWNNAME":"北區","LI":"光武里","LIN":"12鄰","STREET":"北門路","SECT":"二段","MAREA":" ","LANE":"５４７巷","ALLEY":" ","HOUSE_NO":"５２號七樓之５","E_COORD97":169557.10999999999,"N_COORD97":2545738.2000000002,"ADDRESS":"北門路二段５４７巷５２號七樓之５","OBJECTID":369137},"geometry":{"x":169557.1099999994,"y":2545738.2000000011}},{"attributes":{"ID":369148,"DIS_CODE":0,"TOWNNAME":"北區","LI":"光武里","LIN":"12鄰","STREET":"北門路","SECT":"二段","MAREA":" ","LANE":"５４７巷","ALLEY":" ","HOUSE_NO":"５２號八樓之５","E_COORD97":169557.10999999999,"N_COORD97":2545738.2000000002,"ADDRESS":"北門路二段５４７巷５２號八樓之５","OBJECTID":369138},"geometry":{"x":169557.1099999994,"y":2545738.2000000011}},{"attributes":{"ID":369149,"DIS_CODE":0,"TOWNNAME":"北區","LI":"光武里","LIN":"12鄰","STREET":"北門路","SECT":"二段","MAREA":" ","LANE":"５４７巷","ALLEY":" ","HOUSE_NO":"５２號九樓之５","E_COORD97":169557.10999999999,"N_COORD97":2545738.2000000002,"ADDRESS":"北門路二段５４７巷５２號九樓之５","OBJECTID":369139},"geometry":{"x":169557.1099999994,"y":2545738.2000000011}},{"attributes":{"ID":369150,"DIS_CODE":0,"TOWNNAME":"北區","LI":"光武里","LIN":"12鄰","STREET":"北門路","SECT":"二段","MAREA":" ","LANE":"５４７巷","ALLEY":" ","HOUSE_NO":"５２號十樓之５","E_COORD97":169557.10999999999,"N_COORD97":2545738.2000000002,"ADDRESS":"北門路二段５４７巷５２號十樓之５","OBJECTID":369140},"geometry":{"x":169557.1099999994,"y":2545738.2000000011}},{"attributes":{"ID":369151,"DIS_CODE":0,"TOWNNAME":"北區","LI":"光武里","LIN":"12鄰","STREET":"北門路","SECT":"二段","MAREA":" ","LANE":"５４７巷","ALLEY":" ","HOUSE_NO":"５２號二樓之２","E_COORD97":169557.10999999999,"N_COORD97":2545738.2000000002,"ADDRESS":"北門路二段５４７巷５２號二樓之２","OBJECTID":369141},"geometry":{"x":169557.1099999994,"y":2545738.2000000011}},{"attributes":{"ID":369152,"DIS_CODE":0,"TOWNNAME":"北區","LI":"大豐里","LIN":"12鄰","STREET":"和緯路","SECT":"四段","MAREA":" ","LANE":"１１７巷","ALLEY":" ","HOUSE_NO":"７０號二樓","E_COORD97":167047.67000000001,"N_COORD97":2545309.3100000001,"ADDRESS":"和緯路四段１１７巷７０號二樓","OBJECTID":369142},"geometry":{"x":167047.67000000086,"y":2545309.3100000024}},{"attributes":{"ID":369153,"DIS_CODE":0,"TOWNNAME":"北區","LI":"大豐里","LIN":"12鄰","STREET":"和緯路","SECT":"四段","MAREA":" ","LANE":"１１７巷","ALLEY":" ","HOUSE_NO":"７０號三樓","E_COORD97":167047.67000000001,"N_COORD97":2545309.3100000001,"ADDRESS":"和緯路四段１１７巷７０號三樓","OBJECTID":369143},"geometry":{"x":167047.67000000086,"y":2545309.3100000024}},{"attributes":{"ID":369154,"DIS_CODE":0,"TOWNNAME":"北區","LI":"大豐里","LIN":"12鄰","STREET":"和緯路","SECT":"四段","MAREA":" ","LANE":"１１７巷","ALLEY":" ","HOUSE_NO":"７０號五樓","E_COORD97":167047.67000000001,"N_COORD97":2545309.3100000001,"ADDRESS":"和緯路四段１１７巷７０號五樓","OBJECTID":369144},"geometry":{"x":167047.67000000086,"y":2545309.3100000024}},{"attributes":{"ID":369155,"DIS_CODE":0,"TOWNNAME":"北區","LI":"大豐里","LIN":"12鄰","STREET":"和緯路","SECT":"四段","MAREA":" ","LANE":"１１７巷","ALLEY":" ","HOUSE_NO":"７０號四樓","E_COORD97":167047.67000000001,"N_COORD97":2545309.3100000001,"ADDRESS":"和緯路四段１１７巷７０號四樓","OBJECTID":369145},"geometry":{"x":167047.67000000086,"y":2545309.3100000024}},{"attributes":{"ID":369156,"DIS_CODE":0,"TOWNNAME":"北區","LI":"振興里","LIN":"12鄰","STREET":"長榮路","SECT":"四段","MAREA":" ","LANE":"９１巷","ALLEY":" ","HOUSE_NO":"１１號二樓","E_COORD97":170233.12,"N_COORD97":2545026.2200000002,"ADDRESS":"長榮路四段９１巷１１號二樓","OBJECTID":369146},"geometry":{"x":170233.12000000011,"y":2545026.2200000007}},{"attributes":{"ID":369157,"DIS_CODE":0,"TOWNNAME":"北區","LI":"振興里","LIN":"12鄰","STREET":"長榮路","SECT":"四段","MAREA":" ","LANE":"９１巷","ALLEY":" ","HOUSE_NO":"１１號三樓","E_COORD97":170233.12,"N_COORD97":2545026.2200000002,"ADDRESS":"長榮路四段９１巷１１號三樓","OBJECTID":369147},"geometry":{"x":170233.12000000011,"y":2545026.2200000007}},{"attributes":{"ID":369158,"DIS_CODE":0,"TOWNNAME":"北區","LI":"振興里","LIN":"12鄰","STREET":"長榮路","SECT":"四段","MAREA":" ","LANE":"９１巷","ALLEY":" ","HOUSE_NO":"１１號五樓","E_COORD97":170233.12,"N_COORD97":2545026.2200000002,"ADDRESS":"長榮路四段９１巷１１號五樓","OBJECTID":369148},"geometry":{"x":170233.12000000011,"y":2545026.2200000007}},{"attributes":{"ID":369159,"DIS_CODE":0,"TOWNNAME":"六甲區","LI":"七甲里","LIN":"12鄰","STREET":"中正路","SECT":" ","MAREA":" ","LANE":"１１７巷","ALLEY":" ","HOUSE_NO":"８號","E_COORD97":183356.13,"N_COORD97":2568882.8599999999,"ADDRESS":"中正路１１７巷８號","OBJECTID":369149},"geometry":{"x":183356.13000000082,"y":2568882.8600000031}},{"attributes":{"ID":369160,"DIS_CODE":0,"TOWNNAME":"北區","LI":"振興里","LIN":"12鄰","STREET":"長榮路","SECT":"四段","MAREA":" ","LANE":"９１巷","ALLEY":" ","HOUSE_NO":"１１號四樓","E_COORD97":170233.12,"N_COORD97":2545026.2200000002,"ADDRESS":"長榮路四段９１巷１１號四樓","OBJECTID":369150},"geometry":{"x":170233.12000000011,"y":2545026.2200000007}},{"attributes":{"ID":369161,"DIS_CODE":0,"TOWNNAME":"新營區","LI":"大宏里","LIN":"12鄰","STREET":"開元路","SECT":" ","MAREA":" ","LANE":"５９巷","ALLEY":" ","HOUSE_NO":"４之３５號五樓","E_COORD97":180862.92000000001,"N_COORD97":2578754.79,"ADDRESS":"開元路５９巷４之３５號五樓","OBJECTID":369151},"geometry":{"x":180862.91999999993,"y":2578754.7899999991}},{"attributes":{"ID":369162,"DIS_CODE":0,"TOWNNAME":"新營區","LI":"大宏里","LIN":"12鄰","STREET":"開元路","SECT":" ","MAREA":" ","LANE":"５９巷","ALLEY":" ","HOUSE_NO":"４之２０號三樓","E_COORD97":180862.92000000001,"N_COORD97":2578754.79,"ADDRESS":"開元路５９巷４之２０號三樓","OBJECTID":369152},"geometry":{"x":180862.91999999993,"y":2578754.7899999991}},{"attributes":{"ID":369163,"DIS_CODE":0,"TOWNNAME":"新營區","LI":"大宏里","LIN":"12鄰","STREET":"開元路","SECT":" ","MAREA":" ","LANE":"５９巷","ALLEY":" ","HOUSE_NO":"４之２６號四樓","E_COORD97":180862.92000000001,"N_COORD97":2578754.79,"ADDRESS":"開元路５９巷４之２６號四樓","OBJECTID":369153},"geometry":{"x":180862.91999999993,"y":2578754.7899999991}},{"attributes":{"ID":369164,"DIS_CODE":0,"TOWNNAME":"新營區","LI":"大宏里","LIN":"12鄰","STREET":"開元路","SECT":" ","MAREA":" ","LANE":"５９巷","ALLEY":" ","HOUSE_NO":"４之３３號五樓","E_COORD97":180862.92000000001,"N_COORD97":2578754.79,"ADDRESS":"開元路５９巷４之３３號五樓","OBJECTID":369154},"geometry":{"x":180862.91999999993,"y":2578754.7899999991}},{"attributes":{"ID":369165,"DIS_CODE":0,"TOWNNAME":"新營區","LI":"大宏里","LIN":"12鄰","STREET":"開元路","SECT":" ","MAREA":" ","LANE":"５９巷","ALLEY":" ","HOUSE_NO":"４之１９號三樓","E_COORD97":180862.92000000001,"N_COORD97":2578754.79,"ADDRESS":"開元路５９巷４之１９號三樓","OBJECTID":369155},"geometry":{"x":180862.91999999993,"y":2578754.7899999991}},{"attributes":{"ID":369166,"DIS_CODE":0,"TOWNNAME":"南區","LI":"新生里","LIN":"12鄰","STREET":"大同路","SECT":"二段","MAREA":" ","LANE":"１３６巷","ALLEY":" ","HOUSE_NO":"１１號八樓之３","E_COORD97":169213.20999999999,"N_COORD97":2542093.29,"ADDRESS":"大同路二段１３６巷１１號八樓之３","OBJECTID":369156},"geometry":{"x":169213.20999999996,"y":2542093.290000001}},{"attributes":{"ID":369167,"DIS_CODE":0,"TOWNNAME":"歸仁區","LI":"辜厝里","LIN":"12鄰","STREET":"中正南路","SECT":"一段","MAREA":" ","LANE":"７６巷","ALLEY":" ","HOUSE_NO":"１９號二樓之１４","E_COORD97":177517.73000000001,"N_COORD97":2540570.6000000001,"ADDRESS":"中正南路一段７６巷１９號二樓之１４","OBJECTID":369157},"geometry":{"x":177517.73000000138,"y":2540570.5999999996}},{"attributes":{"ID":369168,"DIS_CODE":0,"TOWNNAME":"歸仁區","LI":"辜厝里","LIN":"12鄰","STREET":"中正南路","SECT":"一段","MAREA":" ","LANE":"７６巷","ALLEY":" ","HOUSE_NO":"１９號四樓之１２","E_COORD97":177517.75,"N_COORD97":2540570.6000000001,"ADDRESS":"中正南路一段７６巷１９號四樓之１２","OBJECTID":369158},"geometry":{"x":177517.75,"y":2540570.5999999996}},{"attributes":{"ID":369169,"DIS_CODE":0,"TOWNNAME":"歸仁區","LI":"辜厝里","LIN":"12鄰","STREET":"中正南路","SECT":"一段","MAREA":" ","LANE":"７６巷","ALLEY":" ","HOUSE_NO":"１９號三樓之１３","E_COORD97":177517.75,"N_COORD97":2540570.6000000001,"ADDRESS":"中正南路一段７６巷１９號三樓之１３","OBJECTID":369159},"geometry":{"x":177517.75,"y":2540570.5999999996}},{"attributes":{"ID":369170,"DIS_CODE":0,"TOWNNAME":"歸仁區","LI":"辜厝里","LIN":"12鄰","STREET":"中正南路","SECT":"一段","MAREA":" ","LANE":"７６巷","ALLEY":" ","HOUSE_NO":"１９號七樓之１３","E_COORD97":177517.75,"N_COORD97":2540570.6000000001,"ADDRESS":"中正南路一段７６巷１９號七樓之１３","OBJECTID":369160},"geometry":{"x":177517.75,"y":2540570.5999999996}},{"attributes":{"ID":369171,"DIS_CODE":0,"TOWNNAME":"安平區","LI":"平通里","LIN":"12鄰","STREET":"平通路","SECT":" ","MAREA":" ","LANE":"５８０巷","ALLEY":" ","HOUSE_NO":"４９號七樓之１","E_COORD97":164945.17000000001,"N_COORD97":2543989.8199999998,"ADDRESS":"平通路５８０巷４９號七樓之１","OBJECTID":369161},"geometry":{"x":164945.16999999993,"y":2543989.8200000022}},{"attributes":{"ID":369172,"DIS_CODE":0,"TOWNNAME":"安平區","LI":"平通里","LIN":"12鄰","STREET":"平通路","SECT":" ","MAREA":" ","LANE":"５８０巷","ALLEY":" ","HOUSE_NO":"４９號七樓之２","E_COORD97":164945.17000000001,"N_COORD97":2543989.8199999998,"ADDRESS":"平通路５８０巷４９號七樓之２","OBJECTID":369162},"geometry":{"x":164945.16999999993,"y":2543989.8200000022}},{"attributes":{"ID":369173,"DIS_CODE":0,"TOWNNAME":"安平區","LI":"平通里","LIN":"12鄰","STREET":"平通路","SECT":" ","MAREA":" ","LANE":"５８０巷","ALLEY":" ","HOUSE_NO":"４９號七樓之３","E_COORD97":164945.17000000001,"N_COORD97":2543989.8199999998,"ADDRESS":"平通路５８０巷４９號七樓之３","OBJECTID":369163},"geometry":{"x":164945.16999999993,"y":2543989.8200000022}},{"attributes":{"ID":369174,"DIS_CODE":0,"TOWNNAME":"安平區","LI":"平通里","LIN":"12鄰","STREET":"平通路","SECT":" ","MAREA":" ","LANE":"５８０巷","ALLEY":" ","HOUSE_NO":"４９號七樓之４","E_COORD97":164945.17000000001,"N_COORD97":2543989.8199999998,"ADDRESS":"平通路５８０巷４９號七樓之４","OBJECTID":369164},"geometry":{"x":164945.16999999993,"y":2543989.8200000022}},{"attributes":{"ID":369175,"DIS_CODE":0,"TOWNNAME":"安平區","LI":"平通里","LIN":"12鄰","STREET":"平通路","SECT":" ","MAREA":" ","LANE":"５８０巷","ALLEY":" ","HOUSE_NO":"４９號七樓之５","E_COORD97":164945.17000000001,"N_COORD97":2543989.8199999998,"ADDRESS":"平通路５８０巷４９號七樓之５","OBJECTID":369165},"geometry":{"x":164945.16999999993,"y":2543989.8200000022}},{"attributes":{"ID":369176,"DIS_CODE":0,"TOWNNAME":"安平區","LI":"平通里","LIN":"12鄰","STREET":"平通路","SECT":" ","MAREA":" ","LANE":"５８０巷","ALLEY":" ","HOUSE_NO":"４９號七樓之６","E_COORD97":164945.17000000001,"N_COORD97":2543989.8199999998,"ADDRESS":"平通路５８０巷４９號七樓之６","OBJECTID":369166},"geometry":{"x":164945.16999999993,"y":2543989.8200000022}},{"attributes":{"ID":369177,"DIS_CODE":0,"TOWNNAME":"安平區","LI":"平通里","LIN":"12鄰","STREET":"平通路","SECT":" ","MAREA":" ","LANE":"５８０巷","ALLEY":" ","HOUSE_NO":"４９號七樓之７","E_COORD97":164945.17000000001,"N_COORD97":2543989.8199999998,"ADDRESS":"平通路５８０巷４９號七樓之７","OBJECTID":369167},"geometry":{"x":164945.16999999993,"y":2543989.8200000022}},{"attributes":{"ID":369178,"DIS_CODE":0,"TOWNNAME":"善化區","LI":"光文里","LIN":"22鄰","STREET":"光華路","SECT":" ","MAREA":" ","LANE":"３５巷","ALLEY":" ","HOUSE_NO":"５９號","E_COORD97":178470.98000000001,"N_COORD97":2559248.25,"ADDRESS":"光華路３５巷５９號","OBJECTID":369168},"geometry":{"x":178470.98000000045,"y":2559248.25}},{"attributes":{"ID":369179,"DIS_CODE":0,"TOWNNAME":"善化區","LI":"文昌里","LIN":"8鄰","STREET":"文昌路","SECT":" ","MAREA":" ","LANE":"３５巷","ALLEY":" ","HOUSE_NO":"１６號","E_COORD97":177361.10999999999,"N_COORD97":2558666.5299999998,"ADDRESS":"文昌路３５巷１６號","OBJECTID":369169},"geometry":{"x":177361.11000000034,"y":2558666.5300000031}},{"attributes":{"ID":369180,"DIS_CODE":0,"TOWNNAME":"安平區","LI":"平通里","LIN":"12鄰","STREET":"平通路","SECT":" ","MAREA":" ","LANE":"５８０巷","ALLEY":" ","HOUSE_NO":"４９號二樓","E_COORD97":164945.17000000001,"N_COORD97":2543989.8199999998,"ADDRESS":"平通路５８０巷４９號二樓","OBJECTID":369170},"geometry":{"x":164945.16999999993,"y":2543989.8200000022}},{"attributes":{"ID":369181,"DIS_CODE":0,"TOWNNAME":"安平區","LI":"平通里","LIN":"12鄰","STREET":"平通路","SECT":" ","MAREA":" ","LANE":"５８０巷","ALLEY":" ","HOUSE_NO":"４９號八樓之１","E_COORD97":164945.17000000001,"N_COORD97":2543989.8199999998,"ADDRESS":"平通路５８０巷４９號八樓之１","OBJECTID":369171},"geometry":{"x":164945.16999999993,"y":2543989.8200000022}},{"attributes":{"ID":369182,"DIS_CODE":0,"TOWNNAME":"北區","LI":"正覺里","LIN":"12鄰","STREET":"正覺街","SECT":" ","MAREA":" ","LANE":"３３巷","ALLEY":" ","HOUSE_NO":"１號五樓之２","E_COORD97":169265.54000000001,"N_COORD97":2546267.9300000002,"ADDRESS":"正覺街３３巷１號五樓之２","OBJECTID":369172},"geometry":{"x":169265.54000000004,"y":2546267.9299999997}},{"attributes":{"ID":369183,"DIS_CODE":0,"TOWNNAME":"安平區","LI":"平通里","LIN":"12鄰","STREET":"平通路","SECT":" ","MAREA":" ","LANE":"５８０巷","ALLEY":" ","HOUSE_NO":"４９號八樓之２","E_COORD97":164945.17000000001,"N_COORD97":2543989.8199999998,"ADDRESS":"平通路５８０巷４９號八樓之２","OBJECTID":369173},"geometry":{"x":164945.16999999993,"y":2543989.8200000022}},{"attributes":{"ID":369184,"DIS_CODE":0,"TOWNNAME":"安平區","LI":"平通里","LIN":"12鄰","STREET":"平通路","SECT":" ","MAREA":" ","LANE":"５８０巷","ALLEY":" ","HOUSE_NO":"４９號八樓之３","E_COORD97":164945.17000000001,"N_COORD97":2543989.8199999998,"ADDRESS":"平通路５８０巷４９號八樓之３","OBJECTID":369174},"geometry":{"x":164945.16999999993,"y":2543989.8200000022}},{"attributes":{"ID":369185,"DIS_CODE":0,"TOWNNAME":"安平區","LI":"平通里","LIN":"12鄰","STREET":"平通路","SECT":" ","MAREA":" ","LANE":"５８０巷","ALLEY":" ","HOUSE_NO":"４９號八樓之４","E_COORD97":164945.17000000001,"N_COORD97":2543989.8199999998,"ADDRESS":"平通路５８０巷４９號八樓之４","OBJECTID":369175},"geometry":{"x":164945.16999999993,"y":2543989.8200000022}},{"attributes":{"ID":369186,"DIS_CODE":0,"TOWNNAME":"安平區","LI":"平通里","LIN":"12鄰","STREET":"平通路","SECT":" ","MAREA":" ","LANE":"５８０巷","ALLEY":" ","HOUSE_NO":"４９號八樓之５","E_COORD97":164945.17000000001,"N_COORD97":2543989.8199999998,"ADDRESS":"平通路５８０巷４９號八樓之５","OBJECTID":369176},"geometry":{"x":164945.16999999993,"y":2543989.8200000022}},{"attributes":{"ID":369187,"DIS_CODE":0,"TOWNNAME":"安平區","LI":"平通里","LIN":"12鄰","STREET":"平通路","SECT":" ","MAREA":" ","LANE":"５８０巷","ALLEY":" ","HOUSE_NO":"４９號八樓之６","E_COORD97":164945.17000000001,"N_COORD97":2543989.8199999998,"ADDRESS":"平通路５８０巷４９號八樓之６","OBJECTID":369177},"geometry":{"x":164945.16999999993,"y":2543989.8200000022}},{"attributes":{"ID":369188,"DIS_CODE":0,"TOWNNAME":"安平區","LI":"平通里","LIN":"12鄰","STREET":"平通路","SECT":" ","MAREA":" ","LANE":"５８０巷","ALLEY":" ","HOUSE_NO":"４９號八樓之７","E_COORD97":164945.17000000001,"N_COORD97":2543989.8199999998,"ADDRESS":"平通路５８０巷４９號八樓之７","OBJECTID":369178},"geometry":{"x":164945.16999999993,"y":2543989.8200000022}},{"attributes":{"ID":369189,"DIS_CODE":0,"TOWNNAME":"六甲區","LI":"七甲里","LIN":"12鄰","STREET":"中正路","SECT":" ","MAREA":" ","LANE":"１１７巷","ALLEY":" ","HOUSE_NO":"９號","E_COORD97":183356.10000000001,"N_COORD97":2568888.79,"ADDRESS":"中正路１１７巷９號","OBJECTID":369179},"geometry":{"x":183356.10000000056,"y":2568888.7899999991}},{"attributes":{"ID":369190,"DIS_CODE":0,"TOWNNAME":"安平區","LI":"平通里","LIN":"12鄰","STREET":"平通路","SECT":" ","MAREA":" ","LANE":"５８０巷","ALLEY":" ","HOUSE_NO":"４９號三樓之１","E_COORD97":164945.17000000001,"N_COORD97":2543989.8199999998,"ADDRESS":"平通路５８０巷４９號三樓之１","OBJECTID":369180},"geometry":{"x":164945.16999999993,"y":2543989.8200000022}},{"attributes":{"ID":369191,"DIS_CODE":0,"TOWNNAME":"安平區","LI":"平通里","LIN":"12鄰","STREET":"平通路","SECT":" ","MAREA":" ","LANE":"５８０巷","ALLEY":" ","HOUSE_NO":"４９號三樓之２","E_COORD97":164945.17000000001,"N_COORD97":2543989.8199999998,"ADDRESS":"平通路５８０巷４９號三樓之２","OBJECTID":369181},"geometry":{"x":164945.16999999993,"y":2543989.8200000022}},{"attributes":{"ID":369192,"DIS_CODE":0,"TOWNNAME":"安平區","LI":"平通里","LIN":"12鄰","STREET":"平通路","SECT":" ","MAREA":" ","LANE":"５８０巷","ALLEY":" ","HOUSE_NO":"４９號三樓之３","E_COORD97":164945.17000000001,"N_COORD97":2543989.8199999998,"ADDRESS":"平通路５８０巷４９號三樓之３","OBJECTID":369182},"geometry":{"x":164945.16999999993,"y":2543989.8200000022}},{"attributes":{"ID":369193,"DIS_CODE":0,"TOWNNAME":"安平區","LI":"平通里","LIN":"12鄰","STREET":"平通路","SECT":" ","MAREA":" ","LANE":"５８０巷","ALLEY":" ","HOUSE_NO":"４９號三樓之４","E_COORD97":164945.17000000001,"N_COORD97":2543989.8199999998,"ADDRESS":"平通路５８０巷４９號三樓之４","OBJECTID":369183},"geometry":{"x":164945.16999999993,"y":2543989.8200000022}},{"attributes":{"ID":369194,"DIS_CODE":0,"TOWNNAME":"安平區","LI":"平通里","LIN":"12鄰","STREET":"平通路","SECT":" ","MAREA":" ","LANE":"５８０巷","ALLEY":" ","HOUSE_NO":"４９號三樓之５","E_COORD97":164945.17000000001,"N_COORD97":2543989.8199999998,"ADDRESS":"平通路５８０巷４９號三樓之５","OBJECTID":369184},"geometry":{"x":164945.16999999993,"y":2543989.8200000022}},{"attributes":{"ID":369195,"DIS_CODE":0,"TOWNNAME":"安平區","LI":"平通里","LIN":"12鄰","STREET":"平通路","SECT":" ","MAREA":" ","LANE":"５８０巷","ALLEY":" ","HOUSE_NO":"４９號三樓之６","E_COORD97":164945.17000000001,"N_COORD97":2543989.8199999998,"ADDRESS":"平通路５８０巷４９號三樓之６","OBJECTID":369185},"geometry":{"x":164945.16999999993,"y":2543989.8200000022}},{"attributes":{"ID":369196,"DIS_CODE":0,"TOWNNAME":"安平區","LI":"平通里","LIN":"12鄰","STREET":"平通路","SECT":" ","MAREA":" ","LANE":"５８０巷","ALLEY":" ","HOUSE_NO":"４９號三樓之７","E_COORD97":164945.17000000001,"N_COORD97":2543989.8199999998,"ADDRESS":"平通路５８０巷４９號三樓之７","OBJECTID":369186},"geometry":{"x":164945.16999999993,"y":2543989.8200000022}},{"attributes":{"ID":369197,"DIS_CODE":0,"TOWNNAME":"安平區","LI":"平通里","LIN":"12鄰","STREET":"平通路","SECT":" ","MAREA":" ","LANE":"５８０巷","ALLEY":" ","HOUSE_NO":"４９號五樓之１","E_COORD97":164945.17000000001,"N_COORD97":2543989.8199999998,"ADDRESS":"平通路５８０巷４９號五樓之１","OBJECTID":369187},"geometry":{"x":164945.16999999993,"y":2543989.8200000022}},{"attributes":{"ID":369198,"DIS_CODE":0,"TOWNNAME":"安平區","LI":"平通里","LIN":"12鄰","STREET":"平通路","SECT":" ","MAREA":" ","LANE":"５８０巷","ALLEY":" ","HOUSE_NO":"４９號五樓之２","E_COORD97":164945.17000000001,"N_COORD97":2543989.8199999998,"ADDRESS":"平通路５８０巷４９號五樓之２","OBJECTID":369188},"geometry":{"x":164945.16999999993,"y":2543989.8200000022}},{"attributes":{"ID":369199,"DIS_CODE":0,"TOWNNAME":"安平區","LI":"平通里","LIN":"12鄰","STREET":"平通路","SECT":" ","MAREA":" ","LANE":"５８０巷","ALLEY":" ","HOUSE_NO":"４９號五樓之３","E_COORD97":164945.17000000001,"N_COORD97":2543989.8199999998,"ADDRESS":"平通路５８０巷４９號五樓之３","OBJECTID":369189},"geometry":{"x":164945.16999999993,"y":2543989.8200000022}},{"attributes":{"ID":369200,"DIS_CODE":0,"TOWNNAME":"安平區","LI":"平通里","LIN":"12鄰","STREET":"平通路","SECT":" ","MAREA":" ","LANE":"５８０巷","ALLEY":" ","HOUSE_NO":"４９號五樓之４","E_COORD97":164945.17000000001,"N_COORD97":2543989.8199999998,"ADDRESS":"平通路５８０巷４９號五樓之４","OBJECTID":369190},"geometry":{"x":164945.16999999993,"y":2543989.8200000022}},{"attributes":{"ID":369201,"DIS_CODE":0,"TOWNNAME":"安平區","LI":"平通里","LIN":"12鄰","STREET":"平通路","SECT":" ","MAREA":" ","LANE":"５８０巷","ALLEY":" ","HOUSE_NO":"４９號五樓之５","E_COORD97":164945.17000000001,"N_COORD97":2543989.8199999998,"ADDRESS":"平通路５８０巷４９號五樓之５","OBJECTID":369191},"geometry":{"x":164945.16999999993,"y":2543989.8200000022}},{"attributes":{"ID":369202,"DIS_CODE":0,"TOWNNAME":"安平區","LI":"平通里","LIN":"12鄰","STREET":"平通路","SECT":" ","MAREA":" ","LANE":"５８０巷","ALLEY":" ","HOUSE_NO":"４９號五樓之６","E_COORD97":164945.17000000001,"N_COORD97":2543989.8199999998,"ADDRESS":"平通路５８０巷４９號五樓之６","OBJECTID":369192},"geometry":{"x":164945.16999999993,"y":2543989.8200000022}},{"attributes":{"ID":369203,"DIS_CODE":0,"TOWNNAME":"安平區","LI":"平通里","LIN":"12鄰","STREET":"平通路","SECT":" ","MAREA":" ","LANE":"５８０巷","ALLEY":" ","HOUSE_NO":"４９號五樓之７","E_COORD97":164945.17000000001,"N_COORD97":2543989.8199999998,"ADDRESS":"平通路５８０巷４９號五樓之７","OBJECTID":369193},"geometry":{"x":164945.16999999993,"y":2543989.8200000022}},{"attributes":{"ID":369204,"DIS_CODE":0,"TOWNNAME":"安平區","LI":"平通里","LIN":"12鄰","STREET":"平通路","SECT":" ","MAREA":" ","LANE":"５８０巷","ALLEY":" ","HOUSE_NO":"４９號六樓之１","E_COORD97":164945.17000000001,"N_COORD97":2543989.8199999998,"ADDRESS":"平通路５８０巷４９號六樓之１","OBJECTID":369194},"geometry":{"x":164945.16999999993,"y":2543989.8200000022}},{"attributes":{"ID":369205,"DIS_CODE":0,"TOWNNAME":"安平區","LI":"平通里","LIN":"12鄰","STREET":"平通路","SECT":" ","MAREA":" ","LANE":"５８０巷","ALLEY":" ","HOUSE_NO":"４９號六樓之２","E_COORD97":164945.17000000001,"N_COORD97":2543989.8199999998,"ADDRESS":"平通路５８０巷４９號六樓之２","OBJECTID":369195},"geometry":{"x":164945.16999999993,"y":2543989.8200000022}},{"attributes":{"ID":369206,"DIS_CODE":0,"TOWNNAME":"安平區","LI":"平通里","LIN":"12鄰","STREET":"平通路","SECT":" ","MAREA":" ","LANE":"５８０巷","ALLEY":" ","HOUSE_NO":"４９號六樓之３","E_COORD97":164945.17000000001,"N_COORD97":2543989.8199999998,"ADDRESS":"平通路５８０巷４９號六樓之３","OBJECTID":369196},"geometry":{"x":164945.16999999993,"y":2543989.8200000022}},{"attributes":{"ID":369207,"DIS_CODE":0,"TOWNNAME":"安平區","LI":"平通里","LIN":"12鄰","STREET":"平通路","SECT":" ","MAREA":" ","LANE":"５８０巷","ALLEY":" ","HOUSE_NO":"４９號六樓之４","E_COORD97":164945.17000000001,"N_COORD97":2543989.8199999998,"ADDRESS":"平通路５８０巷４９號六樓之４","OBJECTID":369197},"geometry":{"x":164945.16999999993,"y":2543989.8200000022}},{"attributes":{"ID":369208,"DIS_CODE":0,"TOWNNAME":"安平區","LI":"平通里","LIN":"12鄰","STREET":"平通路","SECT":" ","MAREA":" ","LANE":"５８０巷","ALLEY":" ","HOUSE_NO":"４９號六樓之５","E_COORD97":164945.17000000001,"N_COORD97":2543989.8199999998,"ADDRESS":"平通路５８０巷４９號六樓之５","OBJECTID":369198},"geometry":{"x":164945.16999999993,"y":2543989.8200000022}},{"attributes":{"ID":369209,"DIS_CODE":0,"TOWNNAME":"安平區","LI":"平通里","LIN":"12鄰","STREET":"平通路","SECT":" ","MAREA":" ","LANE":"５８０巷","ALLEY":" ","HOUSE_NO":"４９號六樓之６","E_COORD97":164945.17000000001,"N_COORD97":2543989.8199999998,"ADDRESS":"平通路５８０巷４９號六樓之６","OBJECTID":369199},"geometry":{"x":164945.16999999993,"y":2543989.8200000022}},{"attributes":{"ID":369210,"DIS_CODE":0,"TOWNNAME":"安平區","LI":"平通里","LIN":"12鄰","STREET":"平通路","SECT":" ","MAREA":" ","LANE":"５８０巷","ALLEY":" ","HOUSE_NO":"４９號六樓之７","E_COORD97":164945.17000000001,"N_COORD97":2543989.8199999998,"ADDRESS":"平通路５８０巷４９號六樓之７","OBJECTID":369200},"geometry":{"x":164945.16999999993,"y":2543989.8200000022}}]}